站號,站名,日期,lat,lon,BLBTSLS
C0R710,龍磐,2013-10-20,21.931672,120.838942,0.9873369
C1F9D1,白毛台,2013-10-20,24.158325,120.886933,0.9964933
C0G940,竹塘,2013-10-20,23.848253,120.386764,0.9974575
467590,恆春,2013-10-20,22.003897,120.746339,0.9915962
C1O850,環湖,2013-10-20,23.148617,120.418633,0.9996556
C0U710,太平山,2013-10-20,24.505486,121.525656,1.06877875e-08
C0E820,獅潭,2013-10-20,24.539133,120.920042,0.9909934
C0V880,興達,2013-10-20,22.8778,120.2127,0.98223174
C0S890,關山,2013-10-20,23.0395,121.175017,0.03730579
C0SB30,新蘭,2013-10-20,22.869214,121.223228,0.5702364
C2R970,屏科大,2013-10-20,22.648275,120.619247,0.9978314
K2F750,種苗繁殖,2013-10-20,24.225972,120.800917,0.96715087
C1Z130,銅門,2013-10-20,23.965694,121.492842,0.9778025
C0AD40,土城,2013-10-20,24.973208,121.445169,0.87757444
CAN140,六官養殖協會,2013-10-20,23.22881,120.29962,0.99549776
C0X180,山上,2013-10-20,23.0757,120.363253,0.9996551
C0F9Z0,雪山東峰,2013-10-20,24.388792,121.268675,1.1330919e-08
C1M480,獨立山,2013-10-20,23.537022,120.607797,6.231673e-08
C0X220,學甲,2013-10-20,23.230367,120.182187,0.94081676
467650,日月潭,2013-10-20,23.881325,120.90805,1.4169608e-08
C0K600,箔子寮,2013-10-20,23.6197,120.14,0.9858284
C0G830,埤頭,2013-10-20,23.866003,120.452806,0.99897546
C0S950,七塊厝,2013-10-20,22.954453,121.229922,0.9875227
467110,金門,2013-10-20,24.407306,118.289281,0.9986453
C0AH80,深坑,2013-10-20,25.002703,121.628328,0.8990689
467990,馬祖,2013-10-20,26.169269,119.923419,0.85733944
C0A970,三貂角,2013-10-20,25.007606,122.002058,0.98375815
C2D730,寶山農場,2013-10-20,24.732444,120.976153,0.3327759
C0K430,褒忠,2013-10-20,23.690938,120.303634,0.9978899
467480,嘉義,2013-10-20,23.495925,120.432906,0.999427
C2E540,後龍,2013-10-20,24.606489,120.783933,0.9854977
C0V400,阿公店,2013-10-20,22.804194,120.355528,0.9995219
C0R440,大漢山,2013-10-20,22.405264,120.753181,1.5992452e-08
C0K280,四湖,2013-10-20,23.630414,120.227125,0.99588925
C1F9B1,桐林,2013-10-20,24.066172,120.735194,0.99925965
C2H9U0,鳳鵬,2013-10-20,23.763919,120.788061,0.008700204
C0K390,土庫,2013-10-20,23.679029,120.395574,0.99957675
C1I450,望鄉山,2013-10-20,23.594153,120.944286,8.8221395e-09
C0E910,海埔,2013-10-20,24.648767,120.772435,0.929332
B2E890,畜試北區分所,2013-10-20,24.527806,120.770972,0.96731764
C0R750,四林格山,2013-10-20,22.076989,120.802439,0.5777413
C0F0C0,中坑,2013-10-20,24.248517,120.903319,0.0027509523
C1I121,大鞍,2013-10-20,23.678381,120.760017,5.839403e-09
72U480,花改蘭陽分場,2013-10-20,24.686306,121.716583,0.19359423
C0A770,科教館,2013-10-20,25.096356,121.516507,0.86737496
C0AJ60,六塊厝,2013-10-20,25.24,121.4481,0.24889119
C0R620,墾雷,2013-10-20,21.900836,120.855269,0.99138415
467420,永康,2013-10-20,23.038386,120.2367,0.94671804
467300,東吉島,2013-10-20,23.25695,119.667467,0.003915815
C0I410,名間,2013-10-20,23.837053,120.701447,0.99903077
A2C560,農工中心,2013-10-20,24.985917,121.239833,0.155703
C0V740,旗山,2013-10-20,22.888614,120.483597,0.9996465
C0Z061,玉里,2013-10-20,23.3215,121.339656,0.6475453
C0S840,南田,2013-10-20,22.279725,120.889208,0.88714635
C1I470,杉林溪,2013-10-20,23.639517,120.786444,5.721666e-09
C1X040,東原,2013-10-20,23.291597,120.463822,0.9431446
C0R660,枋寮,2013-10-20,22.367722,120.590647,0.932986
C1R120,上德文,2013-10-20,22.763272,120.704442,0.98812556
C0K450,大埤,2013-10-20,23.646074,120.431537,0.99952316
C0UA00,土場,2013-10-20,24.576533,121.495333,0.99735534
467080,宜蘭,2013-10-20,24.763975,121.756528,0.8749757
C0N030,四草,2013-10-20,23.0235,120.1116,0.985348
C0V650,彌陀,2013-10-20,22.783806,120.246361,0.99812376
C0D660,新竹市東區,2013-10-20,24.798681,120.986942,0.15419397
82S580,茶改東部分場,2013-10-20,22.907694,121.130139,0.57757926
C0SB40,興隆,2013-10-20,22.913661,121.257469,0.38702667
C0C710,大溪永福,2013-10-20,24.892936,121.324975,0.17934957
C0FA20,溫寮,2013-10-20,24.372177,120.583125,0.94688183
C0V640,湖內,2013-10-20,22.887139,120.2445,0.9851673
C0R910,下寮,2013-10-20,22.3929,120.5548,0.99445766
C0Z020,明里,2013-10-20,23.208717,121.262342,0.982058
C0M770,嘉義梅山,2013-10-20,23.585398,120.555587,0.9992579
G2F820,農業試驗所,2013-10-20,24.031261,120.688133,0.9984353
C0C660,楊梅,2013-10-20,24.912375,121.143047,0.17297757
C1E511,新開,2013-10-20,24.347703,120.827019,0.87877154
G2F820,農試所(霧峰),2013-10-20,24.031261,120.688133,0.9984353
C1I070,和社,2013-10-20,23.591131,120.888861,1.8935589e-08
C2F000,大肚,2013-10-20,24.15295,120.572117,0.9076893
C1S850,豐南,2013-10-20,23.122139,121.262389,0.588732
C2A920,富貴角,2013-10-20,25.263783,121.565258,0.9922311
CAH030,茶改場竹圍站,2013-10-20,23.860083,120.637528,0.19886644
C0T960,光復,2013-10-20,23.660694,121.424964,0.9776161
C0F9M0,豐原,2013-10-20,24.254322,120.720692,0.98918664
C0R720,旭海,2013-10-20,22.205403,120.887614,0.35880554
C0V710,苓雅,2013-10-20,22.622742,120.330669,0.9994968
C0C740,觀音工業區,2013-10-20,25.064764,121.114856,0.43368417
CAC040,拉拉山,2013-10-20,24.699317,121.427133,1.920123e-08
C0V790,萬山,2013-10-20,22.905944,120.688056,0.018071853
U2HA30,臺大和社,2013-10-20,23.590856,120.888864,1.8935589e-08
C0AJ90,澳底,2013-10-20,25.0552,121.9253,0.9512452
C0Z100,東華,2013-10-20,23.89525,121.549833,0.8347098
C0G970,三豐,2013-10-20,23.882,120.2895,0.99286884
V2K610,大庄合作社,2013-10-20,23.8068,120.367939,0.998668
C0V900,汕尾,2013-10-20,22.4782,120.4151,0.9996002
C1R630,龍泉,2013-10-20,22.66701,120.59091,0.99222314
C1AC50,關渡,2013-10-20,25.133486,121.469331,0.9715157
C0F9I0,神岡,2013-10-20,24.272481,120.658314,0.9884884
C0K460,斗南,2013-10-20,23.678734,120.478359,0.9994838
467410,臺南,2013-10-20,22.993239,120.204772,0.94993585
C2O810,曾文,2013-10-20,23.219681,120.497328,0.99983203
467280,後龍,2013-10-20,24.648563,120.831834,0.938859
C1F9J1,清水林,2013-10-20,24.071242,120.820419,1.6836866e-07
C2A650,火燒寮,2013-10-20,25.002719,121.742892,0.9996679
466930,竹子湖,2013-10-20,25.162078,121.544547,0.9999317
C1I220,樟湖,2013-10-20,23.905333,120.846983,2.8456915e-09
C0I390,仁愛,2013-10-20,24.022122,121.132206,9.035279e-09
C0Z300,東里,2013-10-20,23.26853,121.30547,0.7066434
C1V590,新發,2013-10-20,23.057019,120.646064,0.94176376
C0K510,水林,2013-10-20,23.572924,120.24597,0.98674905
72S590,東改賓朗果園,2013-10-20,22.813889,121.071278,0.56188524
82A750,茶改北部分場,2013-10-20,24.955778,121.631222,0.996914
C1A750,石碇服務區,2013-10-20,25.00872,121.646242,0.911409
C0X300,鹿寮,2013-10-20,23.386047,120.477331,0.9997118
G2AI50,關渡,2013-10-20,25.11575,121.492,0.85348827
C0K590,雲林東勢,2013-10-20,23.674192,120.255721,0.9978968
C0A570,桶後,2013-10-20,24.848222,121.597992,0.99925864
C1S800,華源,2013-10-20,22.657883,121.02325,0.37642023
C0G720,溪州,2013-10-20,23.851589,120.499093,0.99910563
C1V160,達卡努瓦,2013-10-20,23.279811,120.705319,1.8857578e-07
C2M410,馬頭山,2013-10-20,23.324361,120.582017,0.18450779
C0V850,蚵仔寮,2013-10-20,22.7256,120.2527,0.9991931
C0S740,池上,2013-10-20,23.119628,121.209469,0.9572105
C1V390,尖山,2013-10-20,22.813153,120.367789,0.9994486
C0AH70,松山,2013-10-20,25.04871,121.55042,0.85797715
C0N010,鯤鯓國小,2013-10-20,23.1879,120.0889,0.9810029
C0R550,新埤,2013-10-20,22.467947,120.582894,0.9986771
C0SA60,知本（水試所）,2013-10-20,22.702394,121.082761,0.19416703
C0T9I0,豐濱,2013-10-20,23.583897,121.514806,0.94606173
C0UB00,淡江大學蘭陽校園,2013-10-20,24.823239,121.730383,0.9981573
C0W240,九宮,2013-10-20,24.423753,118.240186,0.9743406
C0T9N0,富里,2013-10-20,23.171639,121.249378,0.9753505
U2HA50,臺大竹山,2013-10-20,23.756972,120.681556,0.9989408
C0V840,鳳鼻頭,2013-10-20,22.5083,120.3591,0.9994719
C0X140,西港,2013-10-20,23.125608,120.203108,0.9610067
72D080,桃改五峰分場,2013-10-20,24.612194,121.157167,1.561017e-06
C2H9P0,伊拿谷,2013-10-20,23.963211,121.088264,1.2331026e-08
C2H9F0,柑林,2013-10-20,24.018658,120.847072,0.25078604
C0TA20,加灣,2013-10-20,24.082025,121.608944,0.8245277
C0V530,阿蓮,2013-10-20,22.883208,120.327508,0.99923354
C1O880,關山,2013-10-20,23.173397,120.594092,0.43431023
C0E791,卓蘭,2013-10-20,24.3126,120.8244,0.7135905
C1I030,武界,2013-10-20,23.913225,121.052483,2.4607981e-08
C0R520,崁頂,2013-10-20,22.514781,120.506914,0.9961796
C0R341,牡丹,2013-10-20,22.130036,120.792639,0.74138707
C0R930,萬丹,2013-10-20,22.5885,120.4851,0.99866194
C0S760,紅石,2013-10-20,23.069131,121.126219,1.17870576e-08
C1M610,石磐龍,2013-10-20,23.496606,120.663506,2.1751951e-08
C0UA10,鴛鴦湖,2013-10-20,24.590269,121.412228,7.6378095e-09
V2C260,八德蔬果,2013-10-20,24.978508,121.281819,0.7895443
C0R800,丹路,2013-10-20,22.204481,120.750989,0.29213208
C0G920,永靖,2013-10-20,23.924703,120.547533,0.9994018
C2M950,太和,2013-10-20,23.538372,120.702961,8.392253e-09
C1A630,下盆,2013-10-20,24.771003,121.538622,0.0010340791
B2N890,畜產試驗所,2013-10-20,23.058972,120.336406,0.99871516
C0UA30,白嶺,2013-10-20,24.527819,121.519031,2.507247e-08
C1V580,溪南(特生中心),2013-10-20,23.084972,120.788475,1.3033925e-08
C1T970,大農,2013-10-20,23.615233,121.413331,0.9859421
E2S960,林試太麻里2,2013-10-20,22.598014,120.989761,0.36216274
C0R650,竹田,2013-10-20,22.58486,120.54344,0.99866915
C1H900,清流,2013-10-20,24.080775,120.962997,1.9017786e-08
C1C510,水尾,2013-10-20,24.940081,121.087161,0.13845342
C0F9X0,大雅(中科園區),2013-10-20,24.21528,120.62445,0.99842095
C0SB60,白守蓮,2013-10-20,23.126769,121.401914,0.032272104
C0O970,虎頭埤,2013-10-20,23.021375,120.347878,0.99948037
C0C730,中大臨海站,2013-10-20,24.966126,121.008581,0.9988633
C0X250,新營,2013-10-20,23.310689,120.316681,0.9976093
C0V700,三民,2013-10-20,22.645017,120.311233,0.9994968
C0U870,大礁溪,2013-10-20,24.791042,121.675047,0.99823964
C0E870,高鐵苗栗,2013-10-20,24.60725,120.826094,0.9853878
A2K570,古坑花卉中心,2013-10-20,23.63353,120.55239,0.9975452
C0M860,新美,2013-10-20,23.338017,120.683169,0.001261583
C1E701,八卦,2013-10-20,24.491756,120.927619,0.9987379
C0I420,國姓,2013-10-20,24.037803,120.855072,0.9896716
C2D720,關西工作站,2013-10-20,24.757275,121.184792,0.44990596
C0S960,香蘭,2013-10-20,22.587569,120.993375,0.36220977
C0R260,春日,2013-10-20,22.370361,120.628306,0.01726808
72G600,臺中農改場,2013-10-20,24.003028,120.534389,0.9971929
C0Z210,瑞穗,2013-10-20,23.5239,121.39021,0.9107701
C0M820,達邦,2013-10-20,23.453994,120.749517,2.215446e-08
C0V860,南寮,2013-10-20,22.7616,120.2339,0.99771017
C0G740,大城,2013-10-20,23.852487,120.320935,0.99324644
C0R920,塭仔,2013-10-20,22.4169,120.5197,0.9933208
C0R470,高樹,2013-10-20,22.826389,120.600806,0.97854066
C0R680,佳樂水,2013-10-20,21.993578,120.861633,0.99203837
C1O870,大棟山,2013-10-20,23.31157,120.52226,1.2613388e-08
C0D360,梅花,2013-10-20,24.678347,121.208558,0.99969923
C0Z190,富世,2013-10-20,24.14743,121.6297,0.61346227
C0AI10,屈尺,2013-10-20,24.92184,121.54475,0.8991631
B2U990,畜試東區分所,2013-10-20,24.669039,121.832561,0.23641548
C0SB80,長濱漁港,2013-10-20,23.313644,121.459994,0.35528684
C0R240,來義,2013-10-20,22.527306,120.625111,0.018271893
C0V910,大樹,2013-10-20,22.684645,120.432803,0.99960643
C1R610,西大武山,2013-10-20,22.617719,120.7322,5.2392544e-08
C0G900,線西,2013-10-20,24.143358,120.443536,0.98987037
C0M700,竹崎,2013-10-20,23.526178,120.555508,0.99773824
C2E880,三義,2013-10-20,24.405478,120.749819,0.50787145
C0C720,竹圍,2013-10-20,25.112692,121.239824,0.2948449
C0F9P0,清水,2013-10-20,24.312297,120.562242,0.94800663
C0Z150,吉安光華,2013-10-20,23.930925,121.595153,0.775041
C1D640,外坪(五指山),2013-10-20,24.644447,121.090961,0.99991715
C0F9O0,潭子,2013-10-20,24.213106,120.703933,0.9917879
C2H9R0,卓社,2013-10-20,23.887894,121.000086,3.9240184e-09
72T250,花蓮農改場,2013-10-20,23.975222,121.563889,0.86962444
C0E780,銅鑼,2013-10-20,24.489681,120.790853,0.98716015
C1T950,太安,2013-10-20,23.666719,121.370128,3.6092448e-08
C0E830,苑裡,2013-10-20,24.439714,120.653053,0.9640601
467270,田中,2013-10-20,23.873803,120.581286,0.9995344
C0SA10,檳榔四格山,2013-10-20,22.810031,121.109308,0.51771665
C1T830,布洛灣,2013-10-20,24.17184,121.57127,0.9532064
C0F970,大坑,2013-10-20,24.173142,120.722289,0.9981746
C1U920,思源,2013-10-20,24.393125,121.347214,9.775598e-09
C0A931,三和,2013-10-20,25.233153,121.595236,0.9994976
C0I010,廬山,2013-10-20,24.033311,121.181808,4.2158437e-09
C2M940,日野賀,2013-10-20,23.434056,120.727169,1.748809e-08
C0R860,鼻頭,2013-10-20,22.1043,120.8979,0.98598444
C0UB20,壯圍,2013-10-20,24.7359,121.8163,0.23641548
C0R790,九棚,2013-10-20,22.14195,120.889281,0.6060484
C0W110,東莒,2013-10-20,25.9652,119.98069,0.6000587
C1U930,粉鳥林,2013-10-20,24.497088,121.842479,0.84203255
C1I211,蘆竹湳,2013-10-20,23.934019,120.811994,0.880047
C0S830,長濱,2013-10-20,23.286817,121.411975,0.9918334
C1F9F1,伯公龍,2013-10-20,24.272392,120.849047,0.91625077
C0E810,西湖,2013-10-20,24.562947,120.7485,0.98684806
C1I440,新高口,2013-10-20,23.478744,120.878939,6.665883e-09
C0O840,王爺宮,2013-10-20,23.222064,120.40085,0.99983203
C0T9G0,鳳林山,2013-10-20,23.735269,121.420131,0.8411259
C0X080,佳里,2013-10-20,23.173039,120.145086,0.9386569
C0FB70,大甲溪埔,2013-10-20,24.370625,120.620067,0.9687719
C0Z310,清水斷崖,2013-10-20,24.218294,121.689142,0.48021778
C0M680,太保,2013-10-20,23.455062,120.331455,0.99827105
C1S820,金峰,2013-10-20,22.590969,120.933236,0.85727435
C0AD10,八里,2013-10-20,25.150211,121.403947,0.2948449
C2K240,草嶺,2013-10-20,23.59555,120.693461,1.4539701e-08
C1SA70,都蘭,2013-10-20,22.87794,121.226881,0.38702667
C0K440,二崙,2013-10-20,23.772797,120.408944,0.9979062
C1A760,坪林交控,2013-10-20,24.94284,121.713442,0.99556273
C0F9N0,大里,2013-10-20,24.092464,120.701378,0.996685
C0SA90,達仁林場,2013-10-20,22.264347,120.823972,0.15295681
C1R290,石門山,2013-10-20,22.112611,120.756597,0.9217554
42HA10,萬大發電廠,2013-10-20,23.978875,121.139639,1.02773484e-07
C0R890,山海,2013-10-20,21.9878,120.7091,0.9926592
C0T9A0,月眉山,2013-10-20,23.809928,121.539828,0.43580908
C0AC70,信義,2013-10-20,25.037822,121.564597,0.8581925
C0K560,棋山,2013-10-20,23.68645,120.603417,0.9988567
C2FB50,出雲,2013-10-20,24.206469,120.902794,1.6892233e-08
C1Z240,中平林道,2013-10-20,23.42115,121.26763,4.733669e-08
U2H480,溪頭,2013-10-20,23.670306,120.798194,4.7607127e-09
C0M880,好美里,2013-10-20,23.3364,120.138,0.9386569
C0T9E0,大坑,2013-10-20,23.880628,121.581981,0.8689782
C0K530,臺西,2013-10-20,23.701547,120.197559,0.994707
C1E900,國一N128K,2013-10-20,24.560997,120.844186,0.9891822
C0AJ50,水湳洞,2013-10-20,25.123695,121.862238,0.750638
C0AI20,白沙灣,2013-10-20,25.283128,121.519058,0.64681214
C0A860,大坪,2013-10-20,25.165914,121.632969,0.9999517
C1U850,觀音海岸,2013-10-20,24.38319,121.77856,3.3825015e-07
C2K610,草嶺石壁,2013-10-20,23.602469,120.707731,1.7048572e-08
C0U950,鶯子嶺,2013-10-20,24.89754,121.79244,1.2177227e-07
C0O900,善化,2013-10-20,23.112883,120.297219,0.9980501
C0K550,蔦松,2013-10-20,23.514319,120.229736,0.99204016
E2P980,林試六龜中心,2013-10-20,22.991703,120.645722,0.8305959
C0E590,通霄,2013-10-20,24.471892,120.704622,0.94843674
C1I310,西巒,2013-10-20,23.754486,120.883956,7.2977158e-09
C0A550,泰平,2013-10-20,24.971197,121.823711,0.9995488
C0I360,水里,2013-10-20,23.812553,120.849792,0.79841095
C0R830,高士,2013-10-20,22.121825,120.836781,0.8545092
C1I101,溪頭,2013-10-20,23.661789,120.807647,6.3022174e-09
C0AJ20,野柳,2013-10-20,25.20703,121.690021,0.750638
C0B060,暖暖,2013-10-20,25.0957,121.7403,0.947327
C1H920,長豐,2013-10-20,24.102039,120.879897,1.0598814e-07
C0V360,內門,2013-10-20,22.975481,120.466769,0.99948233
C0R850,林邊,2013-10-20,22.4634,120.5339,0.9961796
C0E930,龍鳳,2013-10-20,24.700034,120.859125,0.8843518
C0U910,冬山,2013-10-20,24.63373,121.7937,0.23641548
C1E721,泰安,2013-10-20,24.489017,120.968036,7.721535e-09
82H320,茶改中部分場,2013-10-20,23.875611,120.913583,3.3037875e-09
C0M750,布袋,2013-10-20,23.380878,120.167789,0.99382293
C1S860,利嘉,2013-10-20,22.809417,121.050528,0.868204
72C440,桃園農改,2013-10-20,24.950944,121.030583,0.99841315
E2S980,林試太麻里1,2013-10-20,22.598922,120.980044,0.6107604
C0X170,關廟,2013-10-20,22.963017,120.327797,0.99926174
C0V720,林園,2013-10-20,22.507747,120.394511,0.9994966
C1I510,線浸林道,2013-10-20,23.761508,120.832956,3.2821874e-09
C0D690,外湖,2013-10-20,24.917735,120.968711,0.9988633
C0C750,新興坑尾,2013-10-20,25.0061,121.0971,0.24362634
B2Q810,畜試南區分所,2013-10-20,21.945583,120.802167,0.99204135
C0S790,金崙,2013-10-20,22.538122,120.966875,0.88573086
C0AH90,福山植物園,2013-10-20,24.760717,121.58135,0.9994199
C0I540,奇萊稜線,2013-10-20,24.109231,121.326456,1.1825541e-08
C0M850,表湖,2013-10-20,23.24186,120.64166,1.3349669e-05
C0S770,大溪山,2013-10-20,22.478475,120.943325,0.9185771
C0AG80,中和,2013-10-20,24.991622,121.491792,0.8581925
C0T790,大禹嶺,2013-10-20,24.186117,121.316086,7.3390756e-09
C0T9B0,水源,2013-10-20,23.991861,121.537169,0.027349388
C0R840,牡丹池山,2013-10-20,22.168389,120.841225,0.14847675
C1I131,桶頭,2013-10-20,23.641944,120.654117,0.57770044
CAL110,布袋國中,2013-10-20,23.35893,120.18026,0.98429155
467571,新竹,2013-10-20,24.827853,121.014219,0.15421607
C0Z290,赤柯山,2013-10-20,23.36893,121.38293,7.3177483e-07
C0X280,將軍,2013-10-20,23.214999,120.13577,0.9386569
C0S690,太麻里,2013-10-20,22.60902,120.98533,0.6893863
C0U880,北關,2013-10-20,24.9072,121.8734,0.7320274
C1H860,瑞岩,2013-10-20,24.123772,121.18345,7.1434596e-09
C0G810,埔心,2013-10-20,23.947633,120.525456,0.9993763
C0U970,大福,2013-10-20,24.80064,121.81389,0.8662522
C2H9N0,仁愛東眼,2013-10-20,24.026875,121.1205,5.1904245e-09
C1E670,南礦,2013-10-20,24.538278,121.002836,6.029272e-09
C0M520,東後寮,2013-10-20,23.369908,120.248065,0.98485655
C1E461,松安,2013-10-20,24.397972,120.986022,9.821312e-09
72G600,臺中農改,2013-10-20,24.003028,120.534389,0.9971929
C2N160,西拉雅風管處,2013-10-20,23.189481,120.335297,0.9972049
C2M970,碧湖,2013-10-20,23.568632,120.624165,2.9333158e-08
C0A640,石碇,2013-10-20,24.993969,121.662917,0.9994133
E2S960,林試太麻里2,2013-10-20,22.598,120.99775,0.3331212
C0F9Y0,桃山,2013-10-20,24.432739,121.303808,1.2326041e-08
C1I020,萬大,2013-10-20,23.979817,121.132261,8.661312e-09
C0U940,羅東,2013-10-20,24.68184,121.74934,0.21870118
C0M650,朴子,2013-10-20,23.43463,120.23902,0.99399245
C1I500,大尖山,2013-10-20,23.858572,120.994889,5.994505e-09
C0G820,田尾,2013-10-20,23.901669,120.509389,0.9994014
E2K600,四湖植物園,2013-10-20,23.676986,120.163433,0.994707
C0S730,綠島,2013-10-20,22.6672,121.47533,0.029029924
12Q970,東港工作站,2013-10-20,22.479997,120.466058,0.99445766
C0E430,南庄,2013-10-20,24.601775,121.000214,0.9910898
C1TA00,太魯閣,2013-10-20,24.15773,121.6236,0.42540205
466920,臺北,2013-10-20,25.037658,121.514853,0.85797715
C0R600,舊泰武,2013-10-20,22.588194,120.664944,0.98078674
C1I260,北坑,2013-10-20,23.9246,121.006903,9.936449e-07
466910,鞍部,2013-10-20,25.182586,121.529731,0.99810785
C1I230,九份二山,2013-10-20,23.961944,120.845,1.6393951e-08
C2A660,瑞芳,2013-10-20,25.113169,121.801147,0.9966696
C0R270,琉球嶼,2013-10-20,22.332244,120.362236,0.01726808
C1T990,高寮,2013-10-20,23.394239,121.356808,0.83817184
C0G620,芬園,2013-10-20,24.015678,120.6213,0.9996822
C1Z140,荖溪,2013-10-20,23.890575,121.45964,6.106434e-08
C1I201,中心崙,2013-10-20,23.728722,120.712097,2.4381538e-07
C1I400,凌霄,2013-10-20,24.018778,121.004456,5.682307e-09
C1M640,十字,2013-10-20,23.492153,120.753683,5.5138294e-09
G2P820,農試鳳山分所,2013-10-20,22.646611,120.356083,0.9995318
C0Z270,蕃薯寮,2013-10-20,23.73835,121.540108,0.97529256
C0F9Q0,外埔,2013-10-20,24.347817,120.705686,0.98686844
C0K580,高鐵雲林,2013-10-20,23.737456,120.417944,0.99957675
C2I090,鳳凰,2013-10-20,23.728081,120.787347,2.7895122e-09
C0U990,員山,2013-10-20,24.74435,121.72247,0.21870118
C0V770,大社,2013-10-20,22.730306,120.346639,0.99929076
C0X120,麻豆,2013-10-20,23.183289,120.248611,0.94093543
C0C670,龍潭,2013-10-20,24.870056,121.221389,0.9617344
C0D680,香山濕地,2013-10-20,24.783581,120.914988,0.16637215
C0S980,勝林山,2013-10-20,22.430439,120.8938,0.99595326
C0V730,大寮,2013-10-20,22.605614,120.395717,0.99809325
C0R570,麟洛,2013-10-20,22.65078,120.52719,0.9995978
C2M930,石卓,2013-10-20,23.478744,120.702264,5.5007936e-09
C0G9B0,和美,2013-10-20,24.105169,120.492131,0.9857827
CAG100,王功漁港,2013-10-20,23.96824,120.32586,0.9949229
C0X290,北門,2013-10-20,23.267772,120.125481,0.93854105
C2F930,大甲,2013-10-20,24.347667,120.640403,0.99215704
C0D650,湖口,2013-10-20,24.904794,121.043628,0.99776787
C0E420,竹南,2013-10-20,24.708978,120.888897,0.16926217
C0U780,五結,2013-10-20,24.68637,121.79794,0.23641548
C1I250,鯉潭,2013-10-20,23.961922,120.991131,1.0598814e-07
C0R130,阿禮,2013-10-20,22.742908,120.743678,5.608327e-08
C0X100,臺南市北區,2013-10-20,23.010394,120.194228,0.9464782
C0S920,金峰嘉蘭,2013-10-20,22.594789,120.960825,0.6297258
C0V490,新興,2013-10-20,22.627422,120.298803,0.9994966
C0F9K0,大安,2013-10-20,24.345061,120.588025,0.96210736
72N100,臺南農改,2013-10-20,23.0605,120.342194,0.99871755
467290,古坑,2013-10-20,23.633639,120.551889,0.9975452
C2E970,八甲,2013-10-20,24.535811,120.795983,0.98722744
C0V440,鳳山,2013-10-20,22.646653,120.356122,0.9995318
C1T940,大觀,2013-10-20,23.714206,121.373133,0.85140777
72T250,花蓮農改,2013-10-20,23.975222,121.563889,0.86962444
C0E740,造橋,2013-10-20,24.637056,120.864778,0.90994537
C0R100,尾寮山,2013-10-20,22.833111,120.683889,7.455562e-08
A2K630,臺大雲林校區,2013-10-20,23.730628,120.423903,0.99957675
C0D580,寶山,2013-10-20,24.735006,121.025192,0.944544
E2P990,林試扇平站,2013-10-20,22.9677,120.6857,0.975844
C0AI30,三重,2013-10-20,25.057328,121.500629,0.86737496
C0AH00,汐止,2013-10-20,25.066881,121.658778,0.750638
C1Z040,立山,2013-10-20,23.443356,121.327375,0.95255095
C0W130,花嶼,2013-10-20,23.40007,119.32276,0.58425844
C0A950,鼻頭角,2013-10-20,25.129036,121.923372,0.93800306
C0K470,林內,2013-10-20,23.748675,120.609642,0.99750197
C2F990,摩天嶺,2013-10-20,24.322458,120.936819,0.00017737268
82C160,茶改場,2013-10-20,24.908472,121.185333,0.68607163
C0Z320,清水林道,2013-10-20,23.27125,121.188272,0.0005728962
C0R760,南仁湖,2013-10-20,22.084681,120.863353,0.91434824
C0M670,大林,2013-10-20,23.600616,120.45841,0.9982658
C0M800,茶山,2013-10-20,23.299075,120.664767,0.94819957
C0A9C0,天母,2013-10-20,25.117494,121.537169,0.8889093
72K220,南改斗南分場,2013-10-20,23.634556,120.477333,0.9932681
72AI40,桃改樹林分場,2013-10-20,24.944503,121.386972,0.89734423
C0S910,蘭嶼燈塔,2013-10-20,22.081197,121.503117,0.7015761
C0B050,八斗子,2013-10-20,25.144754,121.79167,0.6399848
C0U900,內城,2013-10-20,24.71813,121.68766,0.92016584
C0X320,柳營,2013-10-20,23.253328,120.375253,0.9988691
C0M790,新港,2013-10-20,23.553269,120.345728,0.99711204
C0F9T0,西屯,2013-10-20,24.179494,120.641275,0.99679554
C0SA30,都歷,2013-10-20,23.020333,121.323642,0.029019212
C0C620,蘆竹,2013-10-20,25.084275,121.265767,0.3858487
C0R730,大坪頂,2013-10-20,22.024633,120.69355,0.98296946
C0AJ40,石門,2013-10-20,25.273672,121.601198,0.9868574
C0E750,苗栗,2013-10-20,24.564569,120.824575,0.98795575
C0T870,鯉魚潭,2013-10-20,23.935639,121.508944,0.9121453
C1V170,排雲,2013-10-20,23.463619,120.954147,1.491252e-08
C2H950,中寮,2013-10-20,23.884447,120.766406,0.9983527
C0R350,貓鼻頭,2013-10-20,21.921774,120.7358,0.99138415
C0V660,岡山,2013-10-20,22.797078,120.294958,0.99929744
C1H941,雙冬,2013-10-20,23.967378,120.802189,6.326826e-07
C0AJ70,田寮,2013-10-20,25.2698,121.4886,0.60448474
C0AI00,五股,2013-10-20,25.07445,121.42728,0.9789114
C0Z280,德武,2013-10-20,23.47426,121.41071,0.9763655
C0R700,枋山,2013-10-20,22.246844,120.661086,0.09041528
C0C460,復興,2013-10-20,24.820208,121.352281,0.9996038
E2H360,蓮華池,2013-10-20,23.918333,120.885278,1.0533434e-08
C0M640,中埔,2013-10-20,23.42538,120.5229,0.99706745
C0W140,金沙,2013-10-20,24.488292,118.408778,0.9990017
C2A540,四堵,2013-10-20,24.8926,121.745736,0.99988407
C0ACA0,新莊,2013-10-20,25.051478,121.446756,0.8391594
C0R220,潮州,2013-10-20,22.534361,120.54,0.9383843
U2HA40,臺大內茅埔,2013-10-20,23.689722,120.851117,8.636905e-07
467490,臺中,2013-10-20,24.145736,120.684075,0.9990296
C0U960,翠峰湖,2013-10-20,24.510856,121.608044,1.08233875e-08
E2HA20,林試畢祿溪站,2013-10-20,24.226944,121.308522,4.2590833e-09
C0V890,前鎮,2013-10-20,22.5718,120.3117,0.9994719
467620,蘭嶼,2013-10-20,22.036969,121.558339,0.2354587
C1F941,雪嶺,2013-10-20,24.280586,121.026642,7.56044e-09
C2H9E0,國姓南港,2013-10-20,23.911108,120.846556,2.6814504e-09
C0AC80,文山,2013-10-20,25.00235,121.575728,0.8990992
C0F9R0,龍井,2013-10-20,24.184536,120.528972,0.95591277
C0M760,民雄,2013-10-20,23.551754,120.428457,0.9990634
C0UA40,西德山,2013-10-20,24.560647,121.752608,1.3830497e-08
C1T920,中興,2013-10-20,23.769503,121.498653,0.9005885
C0D550,雪霸,2013-10-20,24.526972,121.11605,7.3979063e-09
C2F860,梨山,2013-10-20,24.247522,121.243669,4.322748e-09
C0R320,車城,2013-10-20,22.0744,120.716247,0.9926592
C1S870,南美山,2013-10-20,23.15025,121.382333,0.041023344
C0B020,基隆嶼,2013-10-20,25.19141,121.78391,0.7508888
C1U501,牛鬥,2013-10-20,24.637836,121.573656,0.99662066
C0M730,嘉義市東區,2013-10-20,23.457673,120.460531,0.9985499
C0S700,知本,2013-10-20,22.684866,121.005642,0.6992212
C1N001,沙崙,2013-10-20,22.935472,120.309406,0.99923354
C0V760,橋頭,2013-10-20,22.757806,120.30575,0.9993198
C0G960,福寶,2013-10-20,24.0443,120.3814,0.9900335
C0X210,白河,2013-10-20,23.347466,120.414427,0.9990449
C0S810,東河,2013-10-20,22.972672,121.303986,0.37959355
C2R170,屏東,2013-10-20,22.66027,120.49403,0.9996188
C0R670,楓港,2013-10-20,22.190131,120.692156,0.0904153
C0FA50,霧峰,2013-10-20,24.0419,120.6995,0.9984424
C0UB10,蘇澳,2013-10-20,24.5969,121.8571,0.03112798
C0G950,防潮門,2013-10-20,24.1835,120.4871,0.94856143
C0M740,六腳,2013-10-20,23.492871,120.290625,0.99801314
C1R250,力里,2013-10-20,22.428117,120.629228,0.018271893
C0K330,虎尾,2013-10-20,23.719183,120.442036,0.9995904
C2FA00,烏石坑,2013-10-20,24.273503,120.947617,0.00053290493
C0V620,永安,2013-10-20,22.82315,120.236856,0.99812376
C1I330,楓樹林,2013-10-20,23.986803,121.076117,4.327095e-09
C0W200,湖西,2013-10-20,23.596314,119.67275,0.018872436
72Q010,高雄農改場,2013-10-20,22.709333,120.525889,0.9995999
C0SA40,瑞和,2013-10-20,22.974361,121.156697,0.033253465
C0C680,龜山,2013-10-20,25.02846,121.38656,0.9886896
C2V260,月眉,2013-10-20,22.971003,120.539853,0.90310663
C0V450,鳳森,2013-10-20,22.545064,120.392592,0.9986762
C0U720,南山,2013-10-20,24.43742,121.38167,4.1606224e-08
A2N290,臺南蘭花園區,2013-10-20,23.340258,120.379661,0.9988691
C0R560,新園,2013-10-20,22.5434,120.461558,0.9961796
C0U890,三星,2013-10-20,24.66812,121.65302,0.97636485
C1V300,御油山,2013-10-20,23.001983,120.715364,1.4004527e-08
C0U600,礁溪,2013-10-20,24.817539,121.765608,0.8891754
C1T980,龍澗,2013-10-20,24.023289,121.411328,1.576627e-08
C0D670,海天一線,2013-10-20,24.831986,120.914438,0.16457601
C0SA00,歷坵,2013-10-20,22.520969,120.89185,0.9075733
C0M710,東石,2013-10-20,23.458927,120.15385,0.99204016
C0M780,鹿草,2013-10-20,23.41134,120.30835,0.9979863
C0U520,雙連埤,2013-10-20,24.753033,121.641303,0.99805343
C0B010,七堵,2013-10-20,25.094819,121.71713,0.8382706
C0R480,長治,2013-10-20,22.693128,120.542622,0.99807864
C1V830,國三S383K,2013-10-20,22.781967,120.426475,0.99868554
12Q980,恆春工作站,2013-10-20,22.079678,120.714425,0.9926592
C1O940,東山服務區,2013-10-20,23.286016,120.398472,0.99918365
C1U840,東澳嶺,2013-10-20,24.5378,121.8485,7.978498e-07
C1D630,飛鳳山,2013-10-20,24.766464,121.119178,0.9852793
C0S940,石寧山,2013-10-20,23.223772,121.406639,0.83488727
C0K410,北港,2013-10-20,23.573957,120.292802,0.99708456
C2M620,瑞里,2013-10-20,23.545133,120.675197,1.1011165e-08
C0SB70,小港漁港,2013-10-20,23.158558,121.400431,0.4760884
C2O950,安南,2013-10-20,23.076694,120.144861,0.28223264
C0F0E0,南湖圈谷,2013-10-20,24.363714,121.444667,1.806781e-08
467610,成功,2013-10-20,23.097486,121.373428,0.030537073
C0G890,伸港,2013-10-20,24.148933,120.484403,0.97135204
C2E540,龍溪,2013-10-20,24.606489,120.783933,0.9854977
C1V200,梅山,2013-10-20,23.268447,120.823556,4.282757e-05
C0T9H0,加路蘭山,2013-10-20,23.682947,121.5274,0.008686471
C2O930,玉井,2013-10-20,23.126042,120.46055,0.9996556
C1F911,新伯公,2013-10-20,24.221361,120.841069,0.99266994
C0R490,九如,2013-10-20,22.7405,120.490503,0.9995978
C0X200,左鎮,2013-10-20,23.056758,120.408522,0.9996469
C0SB50,叭嗡嗡,2013-10-20,23.047062,121.343223,0.36455962
C1F891,稍來,2013-10-20,24.265689,121.001142,6.6044783e-09
72N240,七股研究中心,2013-10-20,23.081672,120.062894,0.534899
C0C700,中壢,2013-10-20,24.977661,121.256375,0.8484093
C0M690,水上,2013-10-20,23.419734,120.388909,0.9994297
C0V690,鼓山,2013-10-20,22.623325,120.275575,0.9994966
C0O860,大內,2013-10-20,23.11885,120.36083,0.9993407
C0Z200,萬榮,2013-10-20,23.709219,121.420106,0.9121453
C0T9D0,和中,2013-10-20,24.26676,121.74103,0.117952995
C1O921,楠西,2013-10-20,23.183511,120.484083,0.9997113
C0AJ30,淡水觀海,2013-10-20,25.184591,121.408616,0.24889119
C0V810,左營,2013-10-20,22.67491,120.28491,0.99922806
C0UA70,桃源谷,2013-10-20,24.962606,121.888875,0.99942905
C0X130,官田,2013-10-20,23.193217,120.315422,0.9960884
C1H000,翠峰,2013-10-20,24.109397,121.205211,5.8271756e-09
C0UA90,石城,2013-10-20,24.980444,121.951214,0.91136354
C1E681,南勢山,2013-10-20,24.421669,120.923831,0.0015380754
C0A9F0,內湖,2013-10-20,25.079422,121.57545,0.85797715
C0K291,宜梧,2013-10-20,23.536281,120.169329,0.991688
C1K540,口湖,2013-10-20,23.585344,120.180517,0.98566496
C0R780,滿州,2013-10-20,22.024403,120.839892,0.9908617
C0V870,文安,2013-10-20,22.8025,120.2164,0.99771017
C0U650,玉蘭,2013-10-20,24.675286,121.587061,0.1093194
C0R640,東港,2013-10-20,22.46247,120.44074,0.9994719
K2E360,苗栗農改,2013-10-20,24.495722,120.829111,0.98566204
C0AJ80,板橋,2013-10-20,25.0107,121.4489,0.87757444
C0S660,下馬,2013-10-20,23.150427,121.070312,3.443838e-07
C1H9B1,阿眉,2013-10-20,24.1263,120.994672,1.8114358e-08
C0UA20,多加屯,2013-10-20,24.368614,121.373189,7.288799e-09
C0E730,頭份,2013-10-20,24.688247,120.912206,0.16926217
72V140,高改旗南分場,2013-10-20,22.857861,120.516667,0.9945524
C0K480,莿桐,2013-10-20,23.761192,120.502372,0.99939066
C0U980,坪林石牌,2013-10-20,24.86478,121.77396,0.18073216
C0T900,西林,2013-10-20,23.8119,121.441458,0.8873791
C1I150,青雲,2013-10-20,23.793361,120.949378,4.6236178e-06
467350,澎湖,2013-10-20,23.565503,119.563094,0.21663347
C0G800,埔鹽,2013-10-20,24.000394,120.431683,0.9907252
C0H960,草屯,2013-10-20,23.973672,120.68085,0.99927354
C1V780,多納林道,2013-10-20,22.888028,120.737917,6.049353e-08
C0E920,通霄漁港,2013-10-20,24.498589,120.673876,0.90798986
C0Z330,安通山,2013-10-20,23.290728,121.348528,0.99450773
C0AH10,永和,2013-10-20,25.01125,121.508111,0.8485216
C0AK10,太平里,2013-10-20,25.134937,121.364899,0.8392996
C2G640,鹿港,2013-10-20,24.0753,120.430481,0.9907167
C1E890,國三N149K,2013-10-20,24.463414,120.680019,0.959257
C1R110,口社,2013-10-20,22.770111,120.645222,0.980452
C1M870,國三N285K,2013-10-20,23.550319,120.505833,0.998326
467050,新屋,2013-10-20,25.006744,121.047486,0.9987219
C1E480,鳳美,2013-10-20,24.554803,121.034747,0.9193007
C0M530,奮起湖,2013-10-20,23.493903,120.699253,8.253623e-09
C0C590,觀音,2013-10-20,25.027072,121.153317,0.16551961
C0T9M0,靜浦,2013-10-20,23.455167,121.495028,0.7926947
C2H9M0,發祥,2013-10-20,24.154094,121.164517,6.194826e-09
C0AI40,石牌,2013-10-20,25.115597,121.513139,0.87757444
C1F871,上谷關,2013-10-20,24.203483,121.018644,0.00043974633
C2H9G0,百勝,2013-10-20,24.051142,120.909361,0.94889575
C0G880,二水,2013-10-20,23.810742,120.6173,0.9995961
C0R940,加祿堂,2013-10-20,22.3363,120.6217,0.016992439
C0W220,北竿,2013-10-20,26.220358,119.974881,0.51524067
C0O960,崎頂,2013-10-20,22.959547,120.369317,0.9917434
C0S750,向陽,2013-10-20,23.248397,120.986133,6.2937007e-09
C0T9F0,水璉,2013-10-20,23.797131,121.542514,0.5401705
C1M600,頭凍,2013-10-20,23.406364,120.603339,3.049526e-08
467660,臺東,2013-10-20,22.752211,121.154586,0.49336624
C1D380,新埔,2013-10-20,24.84745,121.03834,0.173227
C2G980,田頭村,2013-10-20,23.8263,120.444175,0.9979062
C0V750,路竹,2013-10-20,22.854997,120.259439,0.99933034
C0N050,蚵寮,2013-10-20,23.301,120.1104,0.9809875
72M700,南改鹿草分場,2013-10-20,23.416869,120.283061,0.99782366
C1SA50,利嘉林道,2013-10-20,22.82325,121.009389,4.215781e-08
467550,玉山,2013-10-20,23.487614,120.959522,1.7116832e-08
C0A940,金山,2013-10-20,25.223628,121.643967,0.6970129
C1V340,大津,2013-10-20,22.888322,120.645986,0.9780427
C0W180,七美,2013-10-20,23.219333,119.444892,0.029216047
C1F9C1,白冷,2013-10-20,24.182844,120.929889,0.9972759
K2E710,苗改生物防治研究中心,2013-10-20,24.422861,120.871833,0.98637605
C0N040,蘆竹溝,2013-10-20,23.2344,120.0961,0.9809875
C2W230,畜試所澎湖,2013-10-20,23.628342,119.513206,0.43330336
C0R880,後壁湖,2013-10-20,21.9457,120.7457,0.99284023
C1I280,埔中,2013-10-20,23.820778,120.642594,0.91699505
467790,墾丁雷達站,2013-10-20,21.948235,120.808028,0.9906574
C0W190,望安,2013-10-20,23.380564,119.494075,0.16147017
466881,新北,2013-10-20,24.9593,121.52,0.8762632
C0Z170,卓溪,2013-10-20,23.3443,121.3029,0.7676209
C0F850,東勢,2013-10-20,24.246428,120.833047,0.99262375
466900,淡水,2013-10-20,25.164889,121.448906,0.2948449
C0I370,魚池,2013-10-20,23.895703,120.94135,1.2765551e-08
C0C630,大溪,2013-10-20,24.882853,121.265547,0.7550687
C0A520,山佳,2013-10-20,24.974944,121.402008,0.89734423
C0I110,竹山,2013-10-20,23.761225,120.688156,0.99896336
82H840,茶改南部分場,2013-10-20,23.762528,120.7405,0.00013805227
C0G660,溪湖,2013-10-20,23.94835,120.479122,0.99930555
C1T800,洛韶,2013-10-20,24.204558,121.453956,1.6918998e-08
C1T810,慈恩,2013-10-20,24.192044,121.388386,1.0023141e-08
C1E451,象鼻,2013-10-20,24.368617,120.940228,0.0015380754
C0AC60,三峽,2013-10-20,24.939025,121.369728,0.8850777
C0I490,萬大林道,2013-10-20,23.928228,121.091411,8.859879e-09
C1I290,豐丘,2013-10-20,23.668178,120.887417,3.2821874e-09
C1I320,奧萬大,2013-10-20,23.952956,121.178556,4.18725e-09
C2M910,嘉義大學,2013-10-20,23.471325,120.485903,0.9965172
C0U770,南澳,2013-10-20,24.44935,121.81022,0.9523061
C0A980,社子,2013-10-20,25.109508,121.469681,0.85348827
C0V800,六龜,2013-10-20,22.997889,120.633583,0.848937
C1G9D0,國一S218K,2013-10-20,23.890641,120.493253,0.9993763
C0E570,白沙屯,2013-10-20,24.549447,120.696803,0.90798986
C2F9A0,中竹林,2013-10-20,24.103556,120.751061,0.000142454
C0FA40,臺中電廠,2013-10-20,24.2146,120.4907,0.9559128
C2G9A0,畜試所彰化,2013-10-20,23.86045,120.557964,0.9995344
C0H9C0,合歡山,2013-10-20,24.143442,121.272547,1.2693828e-08
C0X060,下營,2013-10-20,23.22695,120.256261,0.99402034
G2M350,農試溪口農場,2013-10-20,23.58565,120.408111,0.998905
C0U860,頭城,2013-10-20,24.85323,121.8308,0.8749757
C0R580,南州,2013-10-20,22.48591,120.50274,0.99445766
C0D430,峨眉,2013-10-20,24.6905,121.017189,0.33306083
C0G780,秀水,2013-10-20,24.03405,120.503869,0.99680984
72N100,臺南農改場,2013-10-20,23.0605,120.342194,0.99871755
C0S900,蘭嶼高中,2013-10-20,22.04909,121.51214,0.84180367
467540,大武,2013-10-20,22.355675,120.903789,0.56437546
C1F9W0,德基,2013-10-20,24.254783,121.190261,6.0759575e-09
C1Z120,壽豐,2013-10-20,23.870853,121.508081,0.83470976
C0W160,烏坵,2013-10-20,24.9944,119.44956,0.86450905
C1I240,外大坪,2013-10-20,23.958697,120.917931,7.254337e-08
C1I550,國六W023K,2013-10-20,23.979067,120.867742,0.41633937
C0R870,興海,2013-10-20,21.9752,120.8439,0.99204135
C0R140,瑪家,2013-10-20,22.682903,120.686639,0.9793647
C0A530,坪林,2013-10-20,24.938183,121.70975,0.9953159
C0X260,後壁,2013-10-20,23.366358,120.362326,0.9990062
C0Z230,和平,2013-10-20,24.30717,121.77007,0.117952995
C0G770,福興,2013-10-20,24.041289,120.437669,0.9907252
C0H9A0,神木村,2013-10-20,23.532742,120.843667,1.4119912e-08
C0I460,南投,2013-10-20,23.911469,120.687331,0.9993302
C0I480,梅峰,2013-10-20,24.085272,121.173572,4.2069916e-09
C1V570,吉東,2013-10-20,22.85422,120.5454,0.9925353
C2D740,屯原,2013-10-20,24.067969,121.209389,4.340395e-09
C2A560,福山,2013-10-20,24.776203,121.502811,0.9969188
C0AH30,五分山,2013-10-20,25.07125,121.780794,0.00037493664
C0FA10,松柏,2013-10-20,24.429115,120.617482,0.94688183
72S200,東改班鳩分場,2013-10-20,22.829528,121.077694,0.56053644
72HA00,中改埔里分場,2013-10-20,23.903208,120.963364,1.8201288e-08
C2H9W0,大坪頂農水,2013-10-20,24.043122,120.932781,8.484399e-08
C0C650,平鎮,2013-10-20,24.897503,121.214636,0.68607163
C0S930,延平,2013-10-20,22.902581,121.084058,0.41455817
C0UA60,樟樹山,2013-10-20,24.41393,121.78325,1.7795974e-05
C1S670,摩天,2013-10-20,23.199503,121.027,9.630083e-09
C0V630,茄萣,2013-10-20,22.906642,120.182608,0.98223174
466940,基隆,2013-10-20,25.133314,121.740475,0.6830644
C0X050,東河,2013-10-20,23.296598,120.385608,0.9988691
C0R770,保力,2013-10-20,22.071122,120.764111,0.9892706
G2L020,農試嘉義分所,2013-10-20,23.485028,120.473806,0.9970979
C0X240,關子嶺,2013-10-20,23.331169,120.508025,0.0012010427
C0I380,集集,2013-10-20,23.828206,120.801467,0.89144295
466990,花蓮,2013-10-20,23.975128,121.613275,0.7994145
C1V220,小關山,2013-10-20,23.154217,120.813603,9.010084e-09
C1F9G1,慶福山,2013-10-20,24.180853,120.848378,0.9909766
C0Z250,瑞穗林道,2013-10-20,23.49284,121.30688,8.378934e-08
C0D590,新豐,2013-10-20,24.87068,120.97721,0.9970667
C0A870,五指山,2013-10-20,25.132153,121.608692,0.99991786
C0UA50,西帽山,2013-10-20,24.555361,121.802628,6.732784e-07
C0X160,仁德,2013-10-20,22.968258,120.257689,0.99906737
C1H971,六分寮,2013-10-20,23.92507,120.6378,2.767976e-05
C0W120,西嶼,2013-10-20,23.5626,119.468436,0.21663347
C0G650,員林,2013-10-20,23.946503,120.585597,0.9994559
C0AD50,鶯歌,2013-10-20,24.951533,121.346294,0.8160237
C2H9Q0,北東眼山,2013-10-20,24.120939,121.189303,4.3554054e-09
C2H9T0,名間竹圍,2013-10-20,23.859914,120.637572,0.19886644
C0S990,山豬窟,2013-10-20,22.318619,120.857372,0.06625703
72Q010,高雄農改,2013-10-20,22.709333,120.525889,0.9995999
C0X190,安平,2013-10-20,22.993161,120.152181,0.9464782
C0K400,斗六,2013-10-20,23.720583,120.541127,0.9995736
12J990,口湖工作站,2013-10-20,23.589978,120.180394,0.9858284
C0O830,北寮,2013-10-20,23.079561,120.495008,0.8650033
C1D410,白蘭,2013-10-20,24.579364,121.079947,5.0342837e-09
C0S970,加津林,2013-10-20,22.416211,120.926942,0.5034791
C0D700,關西,2013-10-20,24.7977,121.1732,0.3498716
C0M810,里佳,2013-10-20,23.389125,120.716647,8.253623e-09
C0U750,龜山島,2013-10-20,24.841667,121.953133,0.09406886
C0R810,內獅,2013-10-20,22.305064,120.642986,0.016992439
C1M390,龍美,2013-10-20,23.406728,120.654417,1.8389935e-08
C2FB60,頭櫃山,2013-10-20,24.129842,120.858925,1.226544e-08
C1H840,國三N238K,2013-10-20,23.841008,120.707711,0.83624965
CAQ030,崎峰國小,2013-10-20,22.42565,120.49521,0.99445766
C2E520,大湖,2013-10-20,24.414939,120.870872,0.97776365
467530,阿里山,2013-10-20,23.508208,120.813242,5.858435e-09
C1E691,南湖,2013-10-20,24.40135,120.837533,0.9962345
C0FA30,梧棲,2013-10-20,24.256003,120.523381,0.9559128
C1V231,高中,2013-10-20,23.134911,120.716711,3.6986105e-05
C0F9V0,新社,2013-10-20,24.200172,120.815806,0.21037714
C0H890,埔里,2013-10-20,23.972169,120.952425,0.99907815
C0R690,墾丁,2013-10-20,21.966756,120.810269,0.97124237
C0F0D0,審馬陣,2013-10-20,24.381675,121.4203,1.0461414e-08
C0R820,白鷺,2013-10-20,22.454275,120.666219,0.9810734
U2H480,臺大溪頭,2013-10-20,23.670306,120.798194,4.7607127e-09
C1V190,南天池,2013-10-20,23.27403,120.91176,6.500126e-09
K2E360,苗栗農改場,2013-10-20,24.495722,120.829111,0.98566204
CAJ050,海口故事園區,2013-10-20,23.57543,120.14121,0.98566496
C2H9D0,三隻寮,2013-10-20,24.093078,120.861578,5.990964e-08
C0O990,媽廟,2013-10-20,22.99175,120.293525,0.9991432
C0D480,打鐵坑,2013-10-20,24.849664,121.150789,0.97310674
C0Z220,和平林道,2013-10-20,24.343922,121.656317,8.779514e-06
C0TA10,花蓮漁港,2013-10-20,23.995322,121.638331,0.7767365
72C440,桃園農改場,2013-10-20,24.950944,121.030583,0.99841315
C1E711,馬拉邦山,2013-10-20,24.367306,120.901656,0.0010682396
C0SB20,富岡,2013-10-20,22.792467,121.192669,0.5147185
C0D560,竹東,2013-10-20,24.767147,121.057881,0.61136883
C0F9U0,南屯,2013-10-20,24.137006,120.637969,0.996685
C0M720,番路,2013-10-20,23.464657,120.554156,0.99657017
C0F0A0,雪山圈谷,2013-10-20,24.388594,121.236339,1.5932656e-08
C1A9N0,四十份,2013-10-20,24.934158,121.593283,0.99960124
C0U760,東澳,2013-10-20,24.52196,121.83318,0.8801581
C0X230,鹽水,2013-10-20,23.272621,120.247641,0.9784729
C2H9H0,苗改南投蜂場,2013-10-20,23.852589,120.693481,0.99896336
C0R950,萬隆國小,2013-10-20,22.507667,120.587817,0.998589
C0V370,古亭坑,2013-10-20,22.893178,120.401947,0.9997115
C1I340,新興橋,2013-10-20,23.563333,120.868728,6.6466614e-09
C0SA80,土坂,2013-10-20,22.453108,120.887572,0.7731119
C0R160,鹽埔,2013-10-20,22.739558,120.530778,0.998345
C0AC40,大屯山,2013-10-20,25.175675,121.522408,7.2929826e-05
466850,五分山雷達站,2013-10-20,25.071182,121.781205,0.0002189292
C2H9L0,馬烈霸,2013-10-20,24.1512,121.201772,4.3470894e-09
C1AI50,國三N016K,2013-10-20,25.034164,121.619664,0.89188
C1V600,藤枝,2013-10-20,23.071961,120.757042,2.095419e-08
C1E601,南勢,2013-10-20,24.572486,120.734842,0.6807872
C0Z180,新城,2013-10-20,24.03946,121.60454,0.8460621
C0O980,新市,2013-10-20,23.061614,120.298197,0.9980501
C0K420,西螺,2013-10-20,23.800407,120.467394,0.99925166
C0Z050,佳心,2013-10-20,23.34567,121.21316,1.391937e-07
C0AD30,蘆洲,2013-10-20,25.086594,121.472331,0.86737496
C0V610,梓官,2013-10-20,22.760558,120.267211,0.99929744
K2F750,種苗改良場,2013-10-20,24.225972,120.800917,0.96715087
C0UA80,大溪漁港,2013-10-20,24.941801,121.902955,0.88936347
C1AI60,國一39K邊坡,2013-10-20,25.064361,121.383836,0.9985289
C0W150,金寧,2013-10-20,24.457703,118.328989,0.9988566
C0R960,內埔,2013-10-20,22.608483,120.570714,0.99867904
V2C250,八德合作社,2013-10-20,24.93775,121.266389,0.3075016
C2H9S0,龍南,2013-10-20,23.953536,120.833183,9.183027e-09
C0AH40,平等,2013-10-20,25.129142,121.577086,0.9999393
C0R540,佳冬,2013-10-20,22.419456,120.552375,0.99445766
466950,彭佳嶼,2013-10-20,25.627975,122.079744,0.30692992
C0A890,雙溪,2013-10-20,25.036003,121.864242,0.89767295
C0C480,桃園,2013-10-20,24.992425,121.323172,0.7558854
C0AH50,林口,2013-10-20,25.072181,121.38084,0.99985236
A2K360,水試臺西試驗場,2013-10-20,23.717231,120.190522,0.994468
B2N890,畜試所,2013-10-20,23.058972,120.336406,0.99871516
C2M960,外寮,2013-10-20,23.562643,120.665688,2.0603176e-08
C0F9S0,烏日,2013-10-20,24.107058,120.624103,0.9976091
C0C490,八德,2013-10-20,24.928708,121.283289,0.5773448
C0R190,赤山,2013-10-20,22.592333,120.614306,0.99862516
C0T820,天祥,2013-10-20,24.179597,121.495639,0.9333166
C1F9E1,龍安,2013-10-20,24.1605,120.831961,0.011571532
C0V820,小林,2013-10-20,23.148408,120.63325,0.80292636
C2G870,芳苑,2013-10-20,23.922303,120.320025,0.99286884
C0E850,大河,2013-10-20,24.618069,120.948578,0.93799984
C1U670,寒溪,2013-10-20,24.634,121.71691,0.13162474
C0N020,城西,2013-10-20,23.0568,120.0956,0.5293384
C1Z110,三棧,2013-10-20,24.11557,121.60501,0.021422721
C0R280,檳榔,2013-10-20,22.076078,120.836777,0.97388
C2H9J0,中台,2013-10-20,23.9996,120.938739,0.99884427
C0F9L0,后里,2013-10-20,24.310436,120.729725,0.98970205
C0D540,橫山,2013-10-20,24.71116,121.11693,0.9745496
C1D420,太閣南,2013-10-20,24.632808,121.160575,1.3925464e-07
C1E770,公館,2013-10-20,24.526914,120.830806,0.96731764
CAN130,水試所海水繁養殖中心,2013-10-20,23.120802,120.07968,0.534899
C1I430,翠華,2013-10-20,24.191961,121.224339,5.7635177e-09
C1M400,菜瓜坪,2013-10-20,23.251928,120.576103,0.96047014
C0G730,二林,2013-10-20,23.903325,120.376081,0.9958356
72M360,南改義竹分場,2013-10-20,23.360694,120.279361,0.9973407
V2K620,麥寮合作社,2013-10-20,23.753836,120.294783,0.99670917
C0Z070,舞鶴,2013-10-20,23.46811,121.37407,0.99094415
C0B040,大武崙,2013-10-20,25.166676,121.706993,0.8382706
C1Z030,紅葉,2013-10-20,23.493119,121.338806,0.9797987
C1I050,丹大,2013-10-20,23.753747,121.141147,6.620938e-09
C0I080,信義,2013-10-20,23.689694,120.851036,8.636905e-07
C2M920,朴子農改,2013-10-20,23.469889,120.259383,0.99801314
C2A880,福隆,2013-10-20,25.017842,121.942083,0.9512452
C0Z160,鳳林,2013-10-20,23.746114,121.453411,0.9706184
C0V210,復興,2013-10-20,23.222403,120.806089,0.15705004
C0H990,昆陽,2013-10-20,24.121322,121.273642,9.023327e-09
C0R741,獅子,2013-10-20,22.202308,120.705236,0.14983074
C0S710,鹿野,2013-10-20,22.917711,121.122994,0.9894001
C0I530,小奇萊,2013-10-20,24.131764,121.295717,9.659038e-09
C2K630,荷苞,2013-10-20,23.657717,120.595144,0.9993209
C0Z080,富源,2013-10-20,23.587642,121.378225,0.98783827
467441,高雄,2013-10-20,22.7304,120.3125,0.99922806
C0SB10,美和,2013-10-20,22.682078,121.060236,0.19416703
C2K620,馬光農場,2013-10-20,23.721453,120.378864,0.99951833
C1I140,卡奈托灣,2013-10-20,23.754364,121.087872,7.1780004e-09
C0I520,玉山風口,2013-10-20,23.470489,120.955994,1.7751193e-08
C1G691,下水埔,2013-10-20,23.816114,120.5676,0.99952704
C0X110,臺南市南區,2013-10-20,22.961189,120.188378,0.94671804
C0V680,仁武,2013-10-20,22.701083,120.347722,0.99929076
C2G840,北斗,2013-10-20,23.877586,120.514222,0.9994018
C0R900,竹坑,2013-10-20,22.1385,120.7022,0.11586116
C0K250,崙背,2013-10-20,23.75555,120.318925,0.9967919
C0G860,社頭,2013-10-20,23.897647,120.5862,0.9995027
C0X150,安定,2013-10-20,23.102614,120.227839,0.9143179
C0R590,里港,2013-10-20,22.77919,120.49459,0.9980653
C0E610,馬都安,2013-10-20,24.451272,120.930192,0.9989493
C0E550,明德,2013-10-20,24.583486,120.885411,0.93770236
C0R150,三地門,2013-10-20,22.709889,120.639944,0.99569064
C0G910,花壇,2013-10-20,24.032076,120.549461,0.99747723
C1D400,鳥嘴山,2013-10-20,24.71909,121.28387,5.941066e-06
C0K500,元長,2013-10-20,23.64981,120.315024,0.9984167
C0F0B0,石岡,2013-10-20,24.276061,120.777644,0.965635
C2V250,甲仙,2013-10-20,23.080106,120.591758,0.02170887
C0SA20,金崙山,2013-10-20,22.567419,120.959667,0.9649872
C0V350,溪埔,2013-10-20,22.738578,120.446797,0.9996063
C0M660,溪口,2013-10-20,23.604131,120.403569,0.998905
C1S880,壽卡,2013-10-20,22.238911,120.858903,0.1481981
72D680,桃改新埔分場,2013-10-20,24.834444,121.066111,0.28560948
