站號,站名,日期,lat,lon,BLBTSLS
C0R710,龍磐,2013-04-30,21.931672,120.838942,0.014251242
C1F9D1,白毛台,2013-04-30,24.158325,120.886933,5.7966356e-09
C0G940,竹塘,2013-04-30,23.848253,120.386764,1.7355047e-05
467590,恆春,2013-04-30,22.003897,120.746339,0.005282093
C1O850,環湖,2013-04-30,23.148617,120.418633,4.2455067e-06
C0U710,太平山,2013-04-30,24.505486,121.525656,5.2261573e-09
C0E820,獅潭,2013-04-30,24.539133,120.920042,2.699505e-08
C0V880,興達,2013-04-30,22.8778,120.2127,0.9940266
C0S890,關山,2013-04-30,23.0395,121.175017,0.9990447
C0SB30,新蘭,2013-04-30,22.869214,121.223228,0.05429344
C2R970,屏科大,2013-04-30,22.648275,120.619247,7.499805e-08
K2F750,種苗繁殖,2013-04-30,24.225972,120.800917,7.6185165e-09
C1Z130,銅門,2013-04-30,23.965694,121.492842,2.367431e-05
C0AD40,土城,2013-04-30,24.973208,121.445169,3.276973e-07
CAN140,六官養殖協會,2013-04-30,23.22881,120.29962,5.4310232e-05
C0X180,山上,2013-04-30,23.0757,120.363253,9.72328e-07
C0F9Z0,雪山東峰,2013-04-30,24.388792,121.268675,1.1737701e-08
C1M480,獨立山,2013-04-30,23.537022,120.607797,1.3301413e-09
C0X220,學甲,2013-04-30,23.230367,120.182187,0.014248817
467650,日月潭,2013-04-30,23.881325,120.90805,2.313328e-09
C0K600,箔子寮,2013-04-30,23.6197,120.14,0.054711144
C0G830,埤頭,2013-04-30,23.866003,120.452806,1.1756446e-05
C0S950,七塊厝,2013-04-30,22.954453,121.229922,1.3409424e-06
467110,金門,2013-04-30,24.407306,118.289281,9.867449e-08
C0AH80,深坑,2013-04-30,25.002703,121.628328,2.0447251e-07
467990,馬祖,2013-04-30,26.169269,119.923419,5.0445323e-08
C0A970,三貂角,2013-04-30,25.007606,122.002058,3.8255394e-06
C2D730,寶山農場,2013-04-30,24.732444,120.976153,1.8282777e-06
C0K430,褒忠,2013-04-30,23.690938,120.303634,0.43159315
467480,嘉義,2013-04-30,23.495925,120.432906,0.0017239609
C2E540,後龍,2013-04-30,24.606489,120.783933,2.4273882e-05
C0V400,阿公店,2013-04-30,22.804194,120.355528,6.476945e-06
C0R440,大漢山,2013-04-30,22.405264,120.753181,1.0656334e-09
C0K280,四湖,2013-04-30,23.630414,120.227125,0.5748157
C1F9B1,桐林,2013-04-30,24.066172,120.735194,2.0401225e-07
C2H9U0,鳳鵬,2013-04-30,23.763919,120.788061,6.7517045e-09
C0K390,土庫,2013-04-30,23.679029,120.395574,3.281027e-06
C1I450,望鄉山,2013-04-30,23.594153,120.944286,6.687277e-09
C0E910,海埔,2013-04-30,24.648767,120.772435,3.7788544e-07
B2E890,畜試北區分所,2013-04-30,24.527806,120.770972,9.8497134e-05
C0R750,四林格山,2013-04-30,22.076989,120.802439,2.6412798e-05
C0F0C0,中坑,2013-04-30,24.248517,120.903319,1.682425e-09
C1I121,大鞍,2013-04-30,23.678381,120.760017,2.2869047e-09
72U480,花改蘭陽分場,2013-04-30,24.686306,121.716583,0.00028775993
C0A770,科教館,2013-04-30,25.096356,121.516507,3.7469306e-07
C0AJ60,六塊厝,2013-04-30,25.24,121.4481,3.1969146e-06
C0R620,墾雷,2013-04-30,21.900836,120.855269,0.005819554
467420,永康,2013-04-30,23.038386,120.2367,0.6046049
467300,東吉島,2013-04-30,23.25695,119.667467,0.98766315
C0I410,名間,2013-04-30,23.837053,120.701447,3.587447e-08
A2C560,農工中心,2013-04-30,24.985917,121.239833,5.481394e-07
C0V740,旗山,2013-04-30,22.888614,120.483597,9.169612e-07
C0Z061,玉里,2013-04-30,23.3215,121.339656,0.022862818
C0S840,南田,2013-04-30,22.279725,120.889208,0.011432945
C1I470,杉林溪,2013-04-30,23.639517,120.786444,2.3543156e-09
C1X040,東原,2013-04-30,23.291597,120.463822,1.1693769e-08
C0R660,枋寮,2013-04-30,22.367722,120.590647,8.0185746e-05
C1R120,上德文,2013-04-30,22.763272,120.704442,3.1132317e-09
C0K450,大埤,2013-04-30,23.646074,120.431537,1.1488288e-06
C0UA00,土場,2013-04-30,24.576533,121.495333,3.9476145e-08
467080,宜蘭,2013-04-30,24.763975,121.756528,3.5033355e-07
C0N030,四草,2013-04-30,23.0235,120.1116,0.9953547
C0V650,彌陀,2013-04-30,22.783806,120.246361,0.6432532
C0D660,新竹市東區,2013-04-30,24.798681,120.986942,4.3116315e-06
82S580,茶改東部分場,2013-04-30,22.907694,121.130139,0.0012113098
C0SB40,興隆,2013-04-30,22.913661,121.257469,0.96763706
C0C710,大溪永福,2013-04-30,24.892936,121.324975,4.2771947e-07
C0FA20,溫寮,2013-04-30,24.372177,120.583125,0.0041734357
C0V640,湖內,2013-04-30,22.887139,120.2445,0.9906469
C0R910,下寮,2013-04-30,22.3929,120.5548,0.9926745
C0Z020,明里,2013-04-30,23.208717,121.262342,1.9200048e-05
C0M770,嘉義梅山,2013-04-30,23.585398,120.555587,8.749149e-08
G2F820,農業試驗所,2013-04-30,24.031261,120.688133,0.001204742
C0C660,楊梅,2013-04-30,24.912375,121.143047,3.2330087e-07
C1E511,新開,2013-04-30,24.347703,120.827019,1.5116937e-08
G2F820,農試所(霧峰),2013-04-30,24.031261,120.688133,0.001204742
C1I070,和社,2013-04-30,23.591131,120.888861,2.3969937e-09
C2F000,大肚,2013-04-30,24.15295,120.572117,1.7694639e-08
C1S850,豐南,2013-04-30,23.122139,121.262389,7.3649926e-07
C2A920,富貴角,2013-04-30,25.263783,121.565258,1.3273881e-06
CAH030,茶改場竹圍站,2013-04-30,23.860083,120.637528,3.3064982e-09
C0T960,光復,2013-04-30,23.660694,121.424964,0.99595857
C0F9M0,豐原,2013-04-30,24.254322,120.720692,4.359596e-08
C0R720,旭海,2013-04-30,22.205403,120.887614,0.70651174
C0V710,苓雅,2013-04-30,22.622742,120.330669,0.16494823
C0C740,觀音工業區,2013-04-30,25.064764,121.114856,2.7307999e-05
CAC040,拉拉山,2013-04-30,24.699317,121.427133,4.257451e-09
C0V790,萬山,2013-04-30,22.905944,120.688056,1.9135777e-09
U2HA30,臺大和社,2013-04-30,23.590856,120.888864,2.3969937e-09
C0AJ90,澳底,2013-04-30,25.0552,121.9253,2.983276e-06
C0Z100,東華,2013-04-30,23.89525,121.549833,0.72169715
C0G970,三豐,2013-04-30,23.882,120.2895,0.567132
V2K610,大庄合作社,2013-04-30,23.8068,120.367939,0.08965948
C0V900,汕尾,2013-04-30,22.4782,120.4151,0.0021144364
C1R630,龍泉,2013-04-30,22.66701,120.59091,8.553814e-08
C1AC50,關渡,2013-04-30,25.133486,121.469331,6.4061135e-07
C0F9I0,神岡,2013-04-30,24.272481,120.658314,6.710099e-08
C0K460,斗南,2013-04-30,23.678734,120.478359,2.4548055e-07
467410,臺南,2013-04-30,22.993239,120.204772,0.41921836
C2O810,曾文,2013-04-30,23.219681,120.497328,5.208164e-07
467280,後龍,2013-04-30,24.648563,120.831834,1.8342736e-07
C1F9J1,清水林,2013-04-30,24.071242,120.820419,3.0811487e-09
C2A650,火燒寮,2013-04-30,25.002719,121.742892,7.5719015e-08
466930,竹子湖,2013-04-30,25.162078,121.544547,1.8784432e-08
C1I220,樟湖,2013-04-30,23.905333,120.846983,2.2814979e-09
C0I390,仁愛,2013-04-30,24.022122,121.132206,1.7777543e-09
C0Z300,東里,2013-04-30,23.26853,121.30547,0.0074556354
C1V590,新發,2013-04-30,23.057019,120.646064,3.4284762e-09
C0K510,水林,2013-04-30,23.572924,120.24597,0.045594938
72S590,東改賓朗果園,2013-04-30,22.813889,121.071278,4.0627456e-05
82A750,茶改北部分場,2013-04-30,24.955778,121.631222,1.5905906e-08
C1A750,石碇服務區,2013-04-30,25.00872,121.646242,1.7401105e-07
C0X300,鹿寮,2013-04-30,23.386047,120.477331,1.0090896e-07
G2AI50,關渡,2013-04-30,25.11575,121.492,4.0544825e-07
C0K590,雲林東勢,2013-04-30,23.674192,120.255721,0.43159315
C0A570,桶後,2013-04-30,24.848222,121.597992,6.817302e-08
C1S800,華源,2013-04-30,22.657883,121.02325,0.2779331
C0G720,溪州,2013-04-30,23.851589,120.499093,4.8198517e-06
C1V160,達卡努瓦,2013-04-30,23.279811,120.705319,2.1505742e-09
C2M410,馬頭山,2013-04-30,23.324361,120.582017,4.5792494e-09
C0V850,蚵仔寮,2013-04-30,22.7256,120.2527,0.5219522
C0S740,池上,2013-04-30,23.119628,121.209469,3.4454846e-05
C1V390,尖山,2013-04-30,22.813153,120.367789,2.0068728e-06
C0AH70,松山,2013-04-30,25.04871,121.55042,3.206522e-07
C0N010,鯤鯓國小,2013-04-30,23.1879,120.0889,0.3497874
C0R550,新埤,2013-04-30,22.467947,120.582894,4.1860307e-07
C0SA60,知本（水試所）,2013-04-30,22.702394,121.082761,0.9785653
C0T9I0,豐濱,2013-04-30,23.583897,121.514806,0.9987235
C0UB00,淡江大學蘭陽校園,2013-04-30,24.823239,121.730383,3.907507e-08
C0W240,九宮,2013-04-30,24.423753,118.240186,2.7900062e-06
C0T9N0,富里,2013-04-30,23.171639,121.249378,0.00035290193
U2HA50,臺大竹山,2013-04-30,23.756972,120.681556,2.6018636e-08
C0V840,鳳鼻頭,2013-04-30,22.5083,120.3591,0.29962248
C0X140,西港,2013-04-30,23.125608,120.203108,0.24262908
72D080,桃改五峰分場,2013-04-30,24.612194,121.157167,2.828516e-09
C2H9P0,伊拿谷,2013-04-30,23.963211,121.088264,1.5373947e-09
C2H9F0,柑林,2013-04-30,24.018658,120.847072,6.561086e-09
C0TA20,加灣,2013-04-30,24.082025,121.608944,0.011537984
C0V530,阿蓮,2013-04-30,22.883208,120.327508,0.065438405
C1O880,關山,2013-04-30,23.173397,120.594092,5.642842e-09
C0E791,卓蘭,2013-04-30,24.3126,120.8244,1.42714836e-08
C1I030,武界,2013-04-30,23.913225,121.052483,2.1009205e-09
C0R520,崁頂,2013-04-30,22.514781,120.506914,0.9913002
C0R341,牡丹,2013-04-30,22.130036,120.792639,0.0022367341
C0R930,萬丹,2013-04-30,22.5885,120.4851,5.120695e-07
C0S760,紅石,2013-04-30,23.069131,121.126219,4.7100883e-09
C1M610,石磐龍,2013-04-30,23.496606,120.663506,1.4847802e-09
C0UA10,鴛鴦湖,2013-04-30,24.590269,121.412228,5.7657608e-09
V2C260,八德蔬果,2013-04-30,24.978508,121.281819,3.4108487e-07
C0R800,丹路,2013-04-30,22.204481,120.750989,0.004533751
C0G920,永靖,2013-04-30,23.924703,120.547533,0.008025706
C2M950,太和,2013-04-30,23.538372,120.702961,1.6074064e-09
C1A630,下盆,2013-04-30,24.771003,121.538622,3.3964787e-07
B2N890,畜產試驗所,2013-04-30,23.058972,120.336406,2.3539731e-05
C0UA30,白嶺,2013-04-30,24.527819,121.519031,6.3559726e-09
C1V580,溪南(特生中心),2013-04-30,23.084972,120.788475,3.1895289e-09
C1T970,大農,2013-04-30,23.615233,121.413331,0.96288794
E2S960,林試太麻里2,2013-04-30,22.598014,120.989761,0.011139495
C0R650,竹田,2013-04-30,22.58486,120.54344,6.123498e-07
C1H900,清流,2013-04-30,24.080775,120.962997,2.2604727e-09
C1C510,水尾,2013-04-30,24.940081,121.087161,9.1562595e-07
C0F9X0,大雅(中科園區),2013-04-30,24.21528,120.62445,9.9164845e-06
C0SB60,白守蓮,2013-04-30,23.126769,121.401914,0.99436307
C0O970,虎頭埤,2013-04-30,23.021375,120.347878,7.8258505e-05
C0C730,中大臨海站,2013-04-30,24.966126,121.008581,0.017600233
C0X250,新營,2013-04-30,23.310689,120.316681,9.7387034e-05
C0V700,三民,2013-04-30,22.645017,120.311233,0.16494823
C0U870,大礁溪,2013-04-30,24.791042,121.675047,2.3097401e-08
C0E870,高鐵苗栗,2013-04-30,24.60725,120.826094,1.8358873e-05
A2K570,古坑花卉中心,2013-04-30,23.63353,120.55239,3.4122442e-07
C0M860,新美,2013-04-30,23.338017,120.683169,2.1469226e-09
C1E701,八卦,2013-04-30,24.491756,120.927619,5.606506e-09
C0I420,國姓,2013-04-30,24.037803,120.855072,1.9642334e-08
C2D720,關西工作站,2013-04-30,24.757275,121.184792,1.679525e-07
C0S960,香蘭,2013-04-30,22.587569,120.993375,0.011139495
C0R260,春日,2013-04-30,22.370361,120.628306,0.786695
72G600,臺中農改場,2013-04-30,24.003028,120.534389,0.005879173
C0Z210,瑞穗,2013-04-30,23.5239,121.39021,0.9992425
C0M820,達邦,2013-04-30,23.453994,120.749517,1.5124427e-09
C0V860,南寮,2013-04-30,22.7616,120.2339,0.7870721
C0G740,大城,2013-04-30,23.852487,120.320935,0.4522107
C0R920,塭仔,2013-04-30,22.4169,120.5197,0.99595284
C0R470,高樹,2013-04-30,22.826389,120.600806,9.669692e-09
C0R680,佳樂水,2013-04-30,21.993578,120.861633,0.004883945
C1O870,大棟山,2013-04-30,23.31157,120.52226,1.6715849e-09
C0D360,梅花,2013-04-30,24.678347,121.208558,9.434674e-09
C0Z190,富世,2013-04-30,24.14743,121.6297,0.00014810302
C0AI10,屈尺,2013-04-30,24.92184,121.54475,2.0447251e-07
B2U990,畜試東區分所,2013-04-30,24.669039,121.832561,0.0014139357
C0SB80,長濱漁港,2013-04-30,23.313644,121.459994,0.994542
C0R240,來義,2013-04-30,22.527306,120.625111,0.41737723
C0V910,大樹,2013-04-30,22.684645,120.432803,0.00053537707
C1R610,西大武山,2013-04-30,22.617719,120.7322,1.1751673e-09
C0G900,線西,2013-04-30,24.143358,120.443536,0.05055193
C0M700,竹崎,2013-04-30,23.526178,120.555508,7.0979915e-08
C2E880,三義,2013-04-30,24.405478,120.749819,4.324867e-09
C0C720,竹圍,2013-04-30,25.112692,121.239824,2.6117466e-06
C0F9P0,清水,2013-04-30,24.312297,120.562242,0.008247147
C0Z150,吉安光華,2013-04-30,23.930925,121.595153,0.82389534
C1D640,外坪(五指山),2013-04-30,24.644447,121.090961,7.2090365e-09
C0F9O0,潭子,2013-04-30,24.213106,120.703933,1.1926198e-07
C2H9R0,卓社,2013-04-30,23.887894,121.000086,1.1624869e-09
72T250,花蓮農改場,2013-04-30,23.975222,121.563889,0.0052563674
C0E780,銅鑼,2013-04-30,24.489681,120.790853,8.95803e-08
C1T950,太安,2013-04-30,23.666719,121.370128,1.6874072e-08
C0E830,苑裡,2013-04-30,24.439714,120.653053,0.0023963775
467270,田中,2013-04-30,23.873803,120.581286,1.1102873e-06
C0SA10,檳榔四格山,2013-04-30,22.810031,121.109308,1.8645522e-06
C1T830,布洛灣,2013-04-30,24.17184,121.57127,0.9265467
C0F970,大坑,2013-04-30,24.173142,120.722289,3.0920663e-05
C1U920,思源,2013-04-30,24.393125,121.347214,4.117995e-09
C0A931,三和,2013-04-30,25.233153,121.595236,8.880032e-08
C0I010,廬山,2013-04-30,24.033311,121.181808,1.7629644e-09
C2M940,日野賀,2013-04-30,23.434056,120.727169,1.5940064e-09
C0R860,鼻頭,2013-04-30,22.1043,120.8979,0.0044349353
C0UB20,壯圍,2013-04-30,24.7359,121.8163,0.0014139357
C0R790,九棚,2013-04-30,22.14195,120.889281,0.44782296
C0W110,東莒,2013-04-30,25.9652,119.98069,5.072471e-05
C1U930,粉鳥林,2013-04-30,24.497088,121.842479,2.3304707e-05
C1I211,蘆竹湳,2013-04-30,23.934019,120.811994,3.3353817e-09
C0S830,長濱,2013-04-30,23.286817,121.411975,7.385266e-06
C1F9F1,伯公龍,2013-04-30,24.272392,120.849047,4.941886e-09
C0E810,西湖,2013-04-30,24.562947,120.7485,1.1050414e-05
C1I440,新高口,2013-04-30,23.478744,120.878939,3.6451138e-09
C0O840,王爺宮,2013-04-30,23.222064,120.40085,5.208164e-07
C0T9G0,鳳林山,2013-04-30,23.735269,121.420131,0.0012926783
C0X080,佳里,2013-04-30,23.173039,120.145086,0.023312803
C0FB70,大甲溪埔,2013-04-30,24.370625,120.620067,0.0016595237
C0Z310,清水斷崖,2013-04-30,24.218294,121.689142,0.9998937
C0M680,太保,2013-04-30,23.455062,120.331455,0.002345431
C1S820,金峰,2013-04-30,22.590969,120.933236,8.718226e-05
C0AD10,八里,2013-04-30,25.150211,121.403947,2.6117466e-06
C2K240,草嶺,2013-04-30,23.59555,120.693461,1.5498368e-09
C1SA70,都蘭,2013-04-30,22.87794,121.226881,0.96763706
C0K440,二崙,2013-04-30,23.772797,120.408944,1.133189e-05
C1A760,坪林交控,2013-04-30,24.94284,121.713442,4.272641e-08
C0F9N0,大里,2013-04-30,24.092464,120.701378,0.00034527693
C0SA90,達仁林場,2013-04-30,22.264347,120.823972,0.8219347
C1R290,石門山,2013-04-30,22.112611,120.756597,0.0015270496
42HA10,萬大發電廠,2013-04-30,23.978875,121.139639,6.901791e-09
C0R890,山海,2013-04-30,21.9878,120.7091,0.004109135
C0T9A0,月眉山,2013-04-30,23.809928,121.539828,2.9608957e-06
C0AC70,信義,2013-04-30,25.037822,121.564597,3.206522e-07
C0K560,棋山,2013-04-30,23.68645,120.603417,2.0880564e-07
C2FB50,出雲,2013-04-30,24.206469,120.902794,1.8700914e-09
C1Z240,中平林道,2013-04-30,23.42115,121.26763,2.0905167e-08
U2H480,溪頭,2013-04-30,23.670306,120.798194,2.9852298e-09
C0M880,好美里,2013-04-30,23.3364,120.138,0.023312803
C0T9E0,大坑,2013-04-30,23.880628,121.581981,1.8373112e-05
C0K530,臺西,2013-04-30,23.701547,120.197559,0.39965215
C1E900,國一N128K,2013-04-30,24.560997,120.844186,5.5531855e-06
C0AJ50,水湳洞,2013-04-30,25.123695,121.862238,0.0008966966
C0AI20,白沙灣,2013-04-30,25.283128,121.519058,8.683348e-06
C0A860,大坪,2013-04-30,25.165914,121.632969,3.6286202e-08
C1U850,觀音海岸,2013-04-30,24.38319,121.77856,1.2855782e-07
C2K610,草嶺石壁,2013-04-30,23.602469,120.707731,1.481089e-09
C0U950,鶯子嶺,2013-04-30,24.89754,121.79244,1.7316916e-08
C0O900,善化,2013-04-30,23.112883,120.297219,5.8137157e-05
C0K550,蔦松,2013-04-30,23.514319,120.229736,0.04395605
E2P980,林試六龜中心,2013-04-30,22.991703,120.645722,2.6347324e-09
C0E590,通霄,2013-04-30,24.471892,120.704622,0.00037172125
C1I310,西巒,2013-04-30,23.754486,120.883956,2.3589903e-09
C0A550,泰平,2013-04-30,24.971197,121.823711,1.07599945e-07
C0I360,水里,2013-04-30,23.812553,120.849792,4.229584e-09
C0R830,高士,2013-04-30,22.121825,120.836781,0.0011187098
C1I101,溪頭,2013-04-30,23.661789,120.807647,2.809064e-09
C0AJ20,野柳,2013-04-30,25.20703,121.690021,0.0008966966
C0B060,暖暖,2013-04-30,25.0957,121.7403,6.5787375e-05
C1H920,長豐,2013-04-30,24.102039,120.879897,2.9172564e-09
C0V360,內門,2013-04-30,22.975481,120.466769,6.143638e-07
C0R850,林邊,2013-04-30,22.4634,120.5339,0.99139243
C0E930,龍鳳,2013-04-30,24.700034,120.859125,1.3493265e-07
C0U910,冬山,2013-04-30,24.63373,121.7937,0.0014139357
C1E721,泰安,2013-04-30,24.489017,120.968036,2.6199845e-09
82H320,茶改中部分場,2013-04-30,23.875611,120.913583,2.1974205e-09
C0M750,布袋,2013-04-30,23.380878,120.167789,0.03154674
C1S860,利嘉,2013-04-30,22.809417,121.050528,1.5832498e-09
72C440,桃園農改,2013-04-30,24.950944,121.030583,0.0016555153
E2S980,林試太麻里1,2013-04-30,22.598922,120.980044,0.0018972227
C0X170,關廟,2013-04-30,22.963017,120.327797,9.495654e-05
C0V720,林園,2013-04-30,22.507747,120.394511,0.18785076
C1I510,線浸林道,2013-04-30,23.761508,120.832956,2.2277757e-09
C0D690,外湖,2013-04-30,24.917735,120.968711,0.017600233
C0C750,新興坑尾,2013-04-30,25.0061,121.0971,5.0781164e-06
B2Q810,畜試南區分所,2013-04-30,21.945583,120.802167,0.0049044094
C0S790,金崙,2013-04-30,22.538122,120.966875,1.9949253e-05
C0AH90,福山植物園,2013-04-30,24.760717,121.58135,1.3646182e-08
C0I540,奇萊稜線,2013-04-30,24.109231,121.326456,1.0666851e-08
C0M850,表湖,2013-04-30,23.24186,120.64166,1.648022e-09
C0S770,大溪山,2013-04-30,22.478475,120.943325,2.7726664e-08
C0AG80,中和,2013-04-30,24.991622,121.491792,3.201981e-07
C0T790,大禹嶺,2013-04-30,24.186117,121.316086,6.665997e-09
C0T9B0,水源,2013-04-30,23.991861,121.537169,1.0212032e-06
C0R840,牡丹池山,2013-04-30,22.168389,120.841225,0.85739285
C1I131,桶頭,2013-04-30,23.641944,120.654117,2.8566223e-09
CAL110,布袋國中,2013-04-30,23.35893,120.18026,0.0033449745
467571,新竹,2013-04-30,24.827853,121.014219,6.8543377e-06
C0Z290,赤柯山,2013-04-30,23.36893,121.38293,5.2388746e-08
C0X280,將軍,2013-04-30,23.214999,120.13577,0.023312803
C0S690,太麻里,2013-04-30,22.60902,120.98533,7.8157445e-09
C0U880,北關,2013-04-30,24.9072,121.8734,2.1796803e-05
C1H860,瑞岩,2013-04-30,24.123772,121.18345,2.1679871e-09
C0G810,埔心,2013-04-30,23.947633,120.525456,0.013939827
C0U970,大福,2013-04-30,24.80064,121.81389,4.0722693e-07
C2H9N0,仁愛東眼,2013-04-30,24.026875,121.1205,1.4088135e-09
C1E670,南礦,2013-04-30,24.538278,121.002836,3.2669416e-09
C0M520,東後寮,2013-04-30,23.369908,120.248065,0.0026580277
C1E461,松安,2013-04-30,24.397972,120.986022,2.554411e-09
72G600,臺中農改,2013-04-30,24.003028,120.534389,0.005879173
C2N160,西拉雅風管處,2013-04-30,23.189481,120.335297,3.0035824e-05
C2M970,碧湖,2013-04-30,23.568632,120.624165,1.5607088e-09
C0A640,石碇,2013-04-30,24.993969,121.662917,1.1180922e-07
E2S960,林試太麻里2,2013-04-30,22.598,120.99775,0.0143711455
C0F9Y0,桃山,2013-04-30,24.432739,121.303808,1.2938194e-08
C1I020,萬大,2013-04-30,23.979817,121.132261,1.7742212e-09
C0U940,羅東,2013-04-30,24.68184,121.74934,0.00080933044
C0M650,朴子,2013-04-30,23.43463,120.23902,0.02355397
C1I500,大尖山,2013-04-30,23.858572,120.994889,2.9524436e-09
C0G820,田尾,2013-04-30,23.901669,120.509389,0.008025706
E2K600,四湖植物園,2013-04-30,23.676986,120.163433,0.39965215
C0S730,綠島,2013-04-30,22.6672,121.47533,0.9986399
12Q970,東港工作站,2013-04-30,22.479997,120.466058,0.9926745
C0E430,南庄,2013-04-30,24.601775,121.000214,2.438153e-08
C1TA00,太魯閣,2013-04-30,24.15773,121.6236,0.99990046
466920,臺北,2013-04-30,25.037658,121.514853,3.206522e-07
C0R600,舊泰武,2013-04-30,22.588194,120.664944,2.0660078e-08
C1I260,北坑,2013-04-30,23.9246,121.006903,2.623685e-09
466910,鞍部,2013-04-30,25.182586,121.529731,1.5456074e-08
C1I230,九份二山,2013-04-30,23.961944,120.845,2.2076625e-09
C2A660,瑞芳,2013-04-30,25.113169,121.801147,5.579109e-07
C0R270,琉球嶼,2013-04-30,22.332244,120.362236,0.786695
C1T990,高寮,2013-04-30,23.394239,121.356808,0.9988843
C0G620,芬園,2013-04-30,24.015678,120.6213,1.6924496e-05
C1Z140,荖溪,2013-04-30,23.890575,121.45964,8.511334e-09
C1I201,中心崙,2013-04-30,23.728722,120.712097,1.5928333e-09
C1I400,凌霄,2013-04-30,24.018778,121.004456,1.3781668e-09
C1M640,十字,2013-04-30,23.492153,120.753683,2.3847042e-09
G2P820,農試鳳山分所,2013-04-30,22.646611,120.356083,0.080448665
C0Z270,蕃薯寮,2013-04-30,23.73835,121.540108,0.986913
C0F9Q0,外埔,2013-04-30,24.347817,120.705686,1.3274193e-07
C0K580,高鐵雲林,2013-04-30,23.737456,120.417944,3.281027e-06
C2I090,鳳凰,2013-04-30,23.728081,120.787347,2.0317004e-09
C0U990,員山,2013-04-30,24.74435,121.72247,0.00080933044
C0V770,大社,2013-04-30,22.730306,120.346639,0.31698072
C0X120,麻豆,2013-04-30,23.183289,120.248611,0.014248817
C0C670,龍潭,2013-04-30,24.870056,121.221389,1.8018424e-08
C0D680,香山濕地,2013-04-30,24.783581,120.914988,2.7786873e-05
C0S980,勝林山,2013-04-30,22.430439,120.8938,4.7425345e-08
C0V730,大寮,2013-04-30,22.605614,120.395717,1.0746529e-05
C0R570,麟洛,2013-04-30,22.65078,120.52719,2.2305612e-06
C2M930,石卓,2013-04-30,23.478744,120.702264,2.3478357e-09
C0G9B0,和美,2013-04-30,24.105169,120.492131,0.003461584
CAG100,王功漁港,2013-04-30,23.96824,120.32586,0.117947616
C0X290,北門,2013-04-30,23.267772,120.125481,0.023312803
C2F930,大甲,2013-04-30,24.347667,120.640403,7.972735e-05
C0D650,湖口,2013-04-30,24.904794,121.043628,0.0001320139
C0E420,竹南,2013-04-30,24.708978,120.888897,1.1383404e-05
C0U780,五結,2013-04-30,24.68637,121.79794,0.0014139357
C1I250,鯉潭,2013-04-30,23.961922,120.991131,2.9172564e-09
C0R130,阿禮,2013-04-30,22.742908,120.743678,4.698207e-10
C0X100,臺南市北區,2013-04-30,23.010394,120.194228,0.72329926
C0S920,金峰嘉蘭,2013-04-30,22.594789,120.960825,0.0014973291
C0V490,新興,2013-04-30,22.627422,120.298803,0.18785076
C0F9K0,大安,2013-04-30,24.345061,120.588025,0.0035592031
72N100,臺南農改,2013-04-30,23.0605,120.342194,2.3539731e-05
467290,古坑,2013-04-30,23.633639,120.551889,3.4122442e-07
C2E970,八甲,2013-04-30,24.535811,120.795983,8.096781e-08
C0V440,鳳山,2013-04-30,22.646653,120.356122,0.080448665
C1T940,大觀,2013-04-30,23.714206,121.373133,0.004210455
72T250,花蓮農改,2013-04-30,23.975222,121.563889,0.0052563674
C0E740,造橋,2013-04-30,24.637056,120.864778,8.213047e-08
C0R100,尾寮山,2013-04-30,22.833111,120.683889,5.103582e-10
A2K630,臺大雲林校區,2013-04-30,23.730628,120.423903,3.281027e-06
C0D580,寶山,2013-04-30,24.735006,121.025192,5.376046e-08
E2P990,林試扇平站,2013-04-30,22.9677,120.6857,2.545729e-09
C0AI30,三重,2013-04-30,25.057328,121.500629,3.7469306e-07
C0AH00,汐止,2013-04-30,25.066881,121.658778,0.0008966966
C1Z040,立山,2013-04-30,23.443356,121.327375,0.0011395394
C0W130,花嶼,2013-04-30,23.40007,119.32276,0.9985485
C0A950,鼻頭角,2013-04-30,25.129036,121.923372,4.2701913e-06
C0K470,林內,2013-04-30,23.748675,120.609642,2.391356e-07
C2F990,摩天嶺,2013-04-30,24.322458,120.936819,1.6473117e-09
82C160,茶改場,2013-04-30,24.908472,121.185333,1.135731e-07
C0Z320,清水林道,2013-04-30,23.27125,121.188272,7.751642e-08
C0R760,南仁湖,2013-04-30,22.084681,120.863353,0.0015680577
C0M670,大林,2013-04-30,23.600616,120.45841,0.030582396
C0M800,茶山,2013-04-30,23.299075,120.664767,3.7820644e-09
C0A9C0,天母,2013-04-30,25.117494,121.537169,3.0540988e-07
72K220,南改斗南分場,2013-04-30,23.634556,120.477333,1.3216974e-06
72AI40,桃改樹林分場,2013-04-30,24.944503,121.386972,2.5159474e-07
C0S910,蘭嶼燈塔,2013-04-30,22.081197,121.503117,0.26671758
C0B050,八斗子,2013-04-30,25.144754,121.79167,0.0023081815
C0U900,內城,2013-04-30,24.71813,121.68766,2.427449e-07
C0X320,柳營,2013-04-30,23.253328,120.375253,3.0119263e-05
C0M790,新港,2013-04-30,23.553269,120.345728,0.0051422184
C0F9T0,西屯,2013-04-30,24.179494,120.641275,0.00011789526
C0SA30,都歷,2013-04-30,23.020333,121.323642,0.99813116
C0C620,蘆竹,2013-04-30,25.084275,121.265767,1.8240701e-06
C0R730,大坪頂,2013-04-30,22.024633,120.69355,0.005726898
C0AJ40,石門,2013-04-30,25.273672,121.601198,4.9363354e-07
C0E750,苗栗,2013-04-30,24.564569,120.824575,6.8944655e-06
C0T870,鯉魚潭,2013-04-30,23.935639,121.508944,0.049713954
C1V170,排雲,2013-04-30,23.463619,120.954147,1.2776733e-08
C2H950,中寮,2013-04-30,23.884447,120.766406,1.6463327e-08
C0R350,貓鼻頭,2013-04-30,21.921774,120.7358,0.0058195484
C0V660,岡山,2013-04-30,22.797078,120.294958,0.035763968
C1H941,雙冬,2013-04-30,23.967378,120.802189,2.585611e-09
C0AJ70,田寮,2013-04-30,25.2698,121.4886,1.2013589e-05
C0AI00,五股,2013-04-30,25.07445,121.42728,2.3130936e-07
C0Z280,德武,2013-04-30,23.47426,121.41071,0.9545864
C0R700,枋山,2013-04-30,22.246844,120.661086,0.1824937
C0C460,復興,2013-04-30,24.820208,121.352281,1.872091e-08
E2H360,蓮華池,2013-04-30,23.918333,120.885278,2.2872928e-09
C0M640,中埔,2013-04-30,23.42538,120.5229,2.0083841e-07
C0W140,金沙,2013-04-30,24.488292,118.408778,2.335096e-07
C2A540,四堵,2013-04-30,24.8926,121.745736,9.058249e-08
C0ACA0,新莊,2013-04-30,25.051478,121.446756,2.7395754e-06
C0R220,潮州,2013-04-30,22.534361,120.54,3.4299483e-05
U2HA40,臺大內茅埔,2013-04-30,23.689722,120.851117,3.1811567e-09
467490,臺中,2013-04-30,24.145736,120.684075,0.00027130978
C0U960,翠峰湖,2013-04-30,24.510856,121.608044,5.020179e-09
E2HA20,林試畢祿溪站,2013-04-30,24.226944,121.308522,2.9759917e-09
C0V890,前鎮,2013-04-30,22.5718,120.3117,0.29923606
467620,蘭嶼,2013-04-30,22.036969,121.558339,0.08541769
C1F941,雪嶺,2013-04-30,24.280586,121.026642,6.612369e-09
C2H9E0,國姓南港,2013-04-30,23.911108,120.846556,2.2814153e-09
C0AC80,文山,2013-04-30,25.00235,121.575728,2.0447251e-07
C0F9R0,龍井,2013-04-30,24.184536,120.528972,0.0078953905
C0M760,民雄,2013-04-30,23.551754,120.428457,0.011636135
C0UA40,西德山,2013-04-30,24.560647,121.752608,2.3506777e-08
C1T920,中興,2013-04-30,23.769503,121.498653,0.4912447
C0D550,雪霸,2013-04-30,24.526972,121.11605,4.2559654e-09
C2F860,梨山,2013-04-30,24.247522,121.243669,3.1043255e-09
C0R320,車城,2013-04-30,22.0744,120.716247,0.004109135
C1S870,南美山,2013-04-30,23.15025,121.382333,0.99899966
C0B020,基隆嶼,2013-04-30,25.19141,121.78391,0.0008966966
C1U501,牛鬥,2013-04-30,24.637836,121.573656,5.8606286e-08
C0M730,嘉義市東區,2013-04-30,23.457673,120.460531,0.015766779
C0S700,知本,2013-04-30,22.684866,121.005642,9.529206e-09
C1N001,沙崙,2013-04-30,22.935472,120.309406,0.06569563
C0V760,橋頭,2013-04-30,22.757806,120.30575,0.021633042
C0G960,福寶,2013-04-30,24.0443,120.3814,0.013459826
C0X210,白河,2013-04-30,23.347466,120.414427,2.64099e-05
C0S810,東河,2013-04-30,22.972672,121.303986,0.98973966
C2R170,屏東,2013-04-30,22.66027,120.49403,3.5550215e-06
C0R670,楓港,2013-04-30,22.190131,120.692156,0.18249378
C0FA50,霧峰,2013-04-30,24.0419,120.6995,0.00023659083
C0UB10,蘇澳,2013-04-30,24.5969,121.8571,0.11952892
C0G950,防潮門,2013-04-30,24.1835,120.4871,0.013589474
C0M740,六腳,2013-04-30,23.492871,120.290625,0.0040113963
C1R250,力里,2013-04-30,22.428117,120.629228,0.41737723
C0K330,虎尾,2013-04-30,23.719183,120.442036,2.4612382e-06
C2FA00,烏石坑,2013-04-30,24.273503,120.947617,1.6617715e-09
C0V620,永安,2013-04-30,22.82315,120.236856,0.6432532
C1I330,楓樹林,2013-04-30,23.986803,121.076117,1.1948489e-09
C0W200,湖西,2013-04-30,23.596314,119.67275,0.98644537
72Q010,高雄農改場,2013-04-30,22.709333,120.525889,1.6761837e-06
C0SA40,瑞和,2013-04-30,22.974361,121.156697,0.99905014
C0C680,龜山,2013-04-30,25.02846,121.38656,1.907544e-08
C2V260,月眉,2013-04-30,22.971003,120.539853,3.0493847e-09
C0V450,鳳森,2013-04-30,22.545064,120.392592,1.5106812e-06
C0U720,南山,2013-04-30,24.43742,121.38167,5.2863394e-09
A2N290,臺南蘭花園區,2013-04-30,23.340258,120.379661,3.0119292e-05
C0R560,新園,2013-04-30,22.5434,120.461558,0.9913876
C0U890,三星,2013-04-30,24.66812,121.65302,1.4706819e-07
C1V300,御油山,2013-04-30,23.001983,120.715364,3.1295861e-09
C0U600,礁溪,2013-04-30,24.817539,121.765608,3.3307816e-07
C1T980,龍澗,2013-04-30,24.023289,121.411328,1.0024767e-08
C0D670,海天一線,2013-04-30,24.831986,120.914438,4.2821444e-05
C0SA00,歷坵,2013-04-30,22.520969,120.89185,7.618633e-09
C0M710,東石,2013-04-30,23.458927,120.15385,0.04395605
C0M780,鹿草,2013-04-30,23.41134,120.30835,0.0010170407
C0U520,雙連埤,2013-04-30,24.753033,121.641303,2.2823738e-08
C0B010,七堵,2013-04-30,25.094819,121.71713,0.00038223213
C0R480,長治,2013-04-30,22.693128,120.542622,1.2870508e-08
C1V830,國三S383K,2013-04-30,22.781967,120.426475,1.9121776e-08
12Q980,恆春工作站,2013-04-30,22.079678,120.714425,0.004109135
C1O940,東山服務區,2013-04-30,23.286016,120.398472,1.7382925e-05
C1U840,東澳嶺,2013-04-30,24.5378,121.8485,8.979858e-08
C1D630,飛鳳山,2013-04-30,24.766464,121.119178,1.1125481e-08
C0S940,石寧山,2013-04-30,23.223772,121.406639,0.0015330235
C0K410,北港,2013-04-30,23.573957,120.292802,0.008249039
C2M620,瑞里,2013-04-30,23.545133,120.675197,1.5169555e-09
C0SB70,小港漁港,2013-04-30,23.158558,121.400431,0.9056367
C2O950,安南,2013-04-30,23.076694,120.144861,0.9758874
C0F0E0,南湖圈谷,2013-04-30,24.363714,121.444667,1.951127e-08
467610,成功,2013-04-30,23.097486,121.373428,0.9964585
C0G890,伸港,2013-04-30,24.148933,120.484403,0.022604087
C2E540,龍溪,2013-04-30,24.606489,120.783933,2.4273882e-05
C1V200,梅山,2013-04-30,23.268447,120.823556,2.9715845e-09
C0T9H0,加路蘭山,2013-04-30,23.682947,121.5274,2.1564632e-05
C2O930,玉井,2013-04-30,23.126042,120.46055,4.2455067e-06
C1F911,新伯公,2013-04-30,24.221361,120.841069,1.1954513e-08
C0R490,九如,2013-04-30,22.7405,120.490503,2.2305549e-06
C0X200,左鎮,2013-04-30,23.056758,120.408522,1.2171288e-06
C0SB50,叭嗡嗡,2013-04-30,23.047062,121.343223,0.9983805
C1F891,稍來,2013-04-30,24.265689,121.001142,4.2456603e-09
72N240,七股研究中心,2013-04-30,23.081672,120.062894,0.98191845
C0C700,中壢,2013-04-30,24.977661,121.256375,2.7812186e-07
C0M690,水上,2013-04-30,23.419734,120.388909,0.0048942273
C0V690,鼓山,2013-04-30,22.623325,120.275575,0.18785076
C0O860,大內,2013-04-30,23.11885,120.36083,1.2289219e-06
C0Z200,萬榮,2013-04-30,23.709219,121.420106,0.049713954
C0T9D0,和中,2013-04-30,24.26676,121.74103,0.9999184
C1O921,楠西,2013-04-30,23.183511,120.484083,3.1411441e-06
C0AJ30,淡水觀海,2013-04-30,25.184591,121.408616,3.1969146e-06
C0V810,左營,2013-04-30,22.67491,120.28491,0.37230915
C0UA70,桃源谷,2013-04-30,24.962606,121.888875,5.549663e-08
C0X130,官田,2013-04-30,23.193217,120.315422,4.039323e-05
C1H000,翠峰,2013-04-30,24.109397,121.205211,3.9554813e-09
C0UA90,石城,2013-04-30,24.980444,121.951214,4.2046653e-05
C1E681,南勢山,2013-04-30,24.421669,120.923831,1.6106503e-09
C0A9F0,內湖,2013-04-30,25.079422,121.57545,3.206522e-07
C0K291,宜梧,2013-04-30,23.536281,120.169329,0.057894375
C1K540,口湖,2013-04-30,23.585344,120.180517,0.0654881
C0R780,滿州,2013-04-30,22.024403,120.839892,0.0063348114
C0V870,文安,2013-04-30,22.8025,120.2164,0.7870721
C0U650,玉蘭,2013-04-30,24.675286,121.587061,2.9993314e-06
C0R640,東港,2013-04-30,22.46247,120.44074,0.29923606
K2E360,苗栗農改,2013-04-30,24.495722,120.829111,2.493028e-07
C0AJ80,板橋,2013-04-30,25.0107,121.4489,3.276973e-07
C0S660,下馬,2013-04-30,23.150427,121.070312,9.1682246e-08
C1H9B1,阿眉,2013-04-30,24.1263,120.994672,2.185808e-09
C0UA20,多加屯,2013-04-30,24.368614,121.373189,6.2615872e-09
C0E730,頭份,2013-04-30,24.688247,120.912206,1.1383404e-05
72V140,高改旗南分場,2013-04-30,22.857861,120.516667,2.439566e-09
C0K480,莿桐,2013-04-30,23.761192,120.502372,3.743202e-07
C0U980,坪林石牌,2013-04-30,24.86478,121.77396,3.0785134e-07
C0T900,西林,2013-04-30,23.8119,121.441458,0.0070209587
C1I150,青雲,2013-04-30,23.793361,120.949378,3.7424823e-09
467350,澎湖,2013-04-30,23.565503,119.563094,0.9961622
C0G800,埔鹽,2013-04-30,24.000394,120.431683,0.008485287
C0H960,草屯,2013-04-30,23.973672,120.68085,3.1416425e-07
C1V780,多納林道,2013-04-30,22.888028,120.737917,1.5110097e-09
C0E920,通霄漁港,2013-04-30,24.498589,120.673876,0.0027485108
C0Z330,安通山,2013-04-30,23.290728,121.348528,5.670789e-07
C0AH10,永和,2013-04-30,25.01125,121.508111,3.5860688e-07
C0AK10,太平里,2013-04-30,25.134937,121.364899,2.7341464e-06
C2G640,鹿港,2013-04-30,24.0753,120.430481,0.008485287
C1E890,國三N149K,2013-04-30,24.463414,120.680019,0.00018809114
C1R110,口社,2013-04-30,22.770111,120.645222,6.022755e-09
C1M870,國三N285K,2013-04-30,23.550319,120.505833,9.296009e-08
467050,新屋,2013-04-30,25.006744,121.047486,0.006268679
C1E480,鳳美,2013-04-30,24.554803,121.034747,3.4095518e-09
C0M530,奮起湖,2013-04-30,23.493903,120.699253,1.6055312e-09
C0C590,觀音,2013-04-30,25.027072,121.153317,9.888124e-07
C0T9M0,靜浦,2013-04-30,23.455167,121.495028,0.99953353
C2H9M0,發祥,2013-04-30,24.154094,121.164517,1.2857744e-09
C0AI40,石牌,2013-04-30,25.115597,121.513139,3.276973e-07
C1F871,上谷關,2013-04-30,24.203483,121.018644,1.6606879e-09
C2H9G0,百勝,2013-04-30,24.051142,120.909361,7.1843425e-09
C0G880,二水,2013-04-30,23.810742,120.6173,5.4945048e-08
C0R940,加祿堂,2013-04-30,22.3363,120.6217,0.9455826
C0W220,北竿,2013-04-30,26.220358,119.974881,4.134422e-08
C0O960,崎頂,2013-04-30,22.959547,120.369317,4.036205e-09
C0S750,向陽,2013-04-30,23.248397,120.986133,4.147096e-09
C0T9F0,水璉,2013-04-30,23.797131,121.542514,0.0002676777
C1M600,頭凍,2013-04-30,23.406364,120.603339,2.1629771e-09
467660,臺東,2013-04-30,22.752211,121.154586,0.285959
C1D380,新埔,2013-04-30,24.84745,121.03834,1.3397396e-06
C2G980,田頭村,2013-04-30,23.8263,120.444175,1.133189e-05
C0V750,路竹,2013-04-30,22.854997,120.259439,0.0020415734
C0N050,蚵寮,2013-04-30,23.301,120.1104,0.3497874
72M700,南改鹿草分場,2013-04-30,23.416869,120.283061,0.0014250103
C1SA50,利嘉林道,2013-04-30,22.82325,121.009389,1.2062593e-09
467550,玉山,2013-04-30,23.487614,120.959522,1.4776163e-08
C0A940,金山,2013-04-30,25.223628,121.643967,5.2455616e-06
C1V340,大津,2013-04-30,22.888322,120.645986,4.4174078e-09
C0W180,七美,2013-04-30,23.219333,119.444892,0.9941548
C1F9C1,白冷,2013-04-30,24.182844,120.929889,6.5742016e-09
K2E710,苗改生物防治研究中心,2013-04-30,24.422861,120.871833,2.3768765e-08
C0N040,蘆竹溝,2013-04-30,23.2344,120.0961,0.3497874
C2W230,畜試所澎湖,2013-04-30,23.628342,119.513206,0.9945977
C0R880,後壁湖,2013-04-30,21.9457,120.7457,0.0037752234
C1I280,埔中,2013-04-30,23.820778,120.642594,4.318125e-09
467790,墾丁雷達站,2013-04-30,21.948235,120.808028,0.0070787407
C0W190,望安,2013-04-30,23.380564,119.494075,0.99618113
466881,新北,2013-04-30,24.9593,121.52,2.6278715e-07
C0Z170,卓溪,2013-04-30,23.3443,121.3029,0.0026413326
C0F850,東勢,2013-04-30,24.246428,120.833047,1.6061477e-08
466900,淡水,2013-04-30,25.164889,121.448906,2.6117466e-06
C0I370,魚池,2013-04-30,23.895703,120.94135,2.3724458e-09
C0C630,大溪,2013-04-30,24.882853,121.265547,1.863024e-07
C0A520,山佳,2013-04-30,24.974944,121.402008,2.5159474e-07
C0I110,竹山,2013-04-30,23.761225,120.688156,2.7870351e-08
82H840,茶改南部分場,2013-04-30,23.762528,120.7405,4.693632e-09
C0G660,溪湖,2013-04-30,23.94835,120.479122,0.02179536
C1T800,洛韶,2013-04-30,24.204558,121.453956,1.3695542e-08
C1T810,慈恩,2013-04-30,24.192044,121.388386,3.927875e-09
C1E451,象鼻,2013-04-30,24.368617,120.940228,1.6106503e-09
C0AC60,三峽,2013-04-30,24.939025,121.369728,2.4210286e-07
C0I490,萬大林道,2013-04-30,23.928228,121.091411,3.486368e-09
C1I290,豐丘,2013-04-30,23.668178,120.887417,2.2277757e-09
C1I320,奧萬大,2013-04-30,23.952956,121.178556,1.1978404e-09
C2M910,嘉義大學,2013-04-30,23.471325,120.485903,1.3222534e-06
C0U770,南澳,2013-04-30,24.44935,121.81022,0.929893
C0A980,社子,2013-04-30,25.109508,121.469681,4.0544825e-07
C0V800,六龜,2013-04-30,22.997889,120.633583,2.8646265e-09
C1G9D0,國一S218K,2013-04-30,23.890641,120.493253,0.013939833
C0E570,白沙屯,2013-04-30,24.549447,120.696803,0.0027485108
C2F9A0,中竹林,2013-04-30,24.103556,120.751061,9.928557e-09
C0FA40,臺中電廠,2013-04-30,24.2146,120.4907,0.0078953905
C2G9A0,畜試所彰化,2013-04-30,23.86045,120.557964,1.1102873e-06
C0H9C0,合歡山,2013-04-30,24.143442,121.272547,1.1521678e-08
C0X060,下營,2013-04-30,23.22695,120.256261,7.553441e-05
G2M350,農試溪口農場,2013-04-30,23.58565,120.408111,0.022109335
C0U860,頭城,2013-04-30,24.85323,121.8308,3.5033355e-07
C0R580,南州,2013-04-30,22.48591,120.50274,0.9926745
C0D430,峨眉,2013-04-30,24.6905,121.017189,1.8282777e-06
C0G780,秀水,2013-04-30,24.03405,120.503869,0.011450512
72N100,臺南農改場,2013-04-30,23.0605,120.342194,2.3539731e-05
C0S900,蘭嶼高中,2013-04-30,22.04909,121.51214,0.07803417
467540,大武,2013-04-30,22.355675,120.903789,0.03996237
C1F9W0,德基,2013-04-30,24.254783,121.190261,2.5427978e-09
C1Z120,壽豐,2013-04-30,23.870853,121.508081,0.72169715
C0W160,烏坵,2013-04-30,24.9944,119.44956,0.425833
C1I240,外大坪,2013-04-30,23.958697,120.917931,2.774924e-09
C1I550,國六W023K,2013-04-30,23.979067,120.867742,1.0167341e-08
C0R870,興海,2013-04-30,21.9752,120.8439,0.0049044094
C0R140,瑪家,2013-04-30,22.682903,120.686639,1.8084453e-09
C0A530,坪林,2013-04-30,24.938183,121.70975,5.05292e-08
C0X260,後壁,2013-04-30,23.366358,120.362326,1.699333e-05
C0Z230,和平,2013-04-30,24.30717,121.77007,0.99991834
C0G770,福興,2013-04-30,24.041289,120.437669,0.008485287
C0H9A0,神木村,2013-04-30,23.532742,120.843667,3.3995124e-09
C0I460,南投,2013-04-30,23.911469,120.687331,8.0488945e-08
C0I480,梅峰,2013-04-30,24.085272,121.173572,2.8523919e-09
C1V570,吉東,2013-04-30,22.85422,120.5454,2.1156825e-09
C2D740,屯原,2013-04-30,24.067969,121.209389,2.2894229e-09
C2A560,福山,2013-04-30,24.776203,121.502811,1.5905906e-08
C0AH30,五分山,2013-04-30,25.07125,121.780794,2.7798999e-08
C0FA10,松柏,2013-04-30,24.429115,120.617482,0.0041734357
72S200,東改班鳩分場,2013-04-30,22.829528,121.077694,0.0005702964
72HA00,中改埔里分場,2013-04-30,23.903208,120.963364,2.5137916e-09
C2H9W0,大坪頂農水,2013-04-30,24.043122,120.932781,2.813869e-09
C0C650,平鎮,2013-04-30,24.897503,121.214636,1.135731e-07
C0S930,延平,2013-04-30,22.902581,121.084058,0.020762393
C0UA60,樟樹山,2013-04-30,24.41393,121.78325,0.000120629746
C1S670,摩天,2013-04-30,23.199503,121.027,5.62406e-09
C0V630,茄萣,2013-04-30,22.906642,120.182608,0.9940266
466940,基隆,2013-04-30,25.133314,121.740475,0.0018210488
C0X050,東河,2013-04-30,23.296598,120.385608,3.0119263e-05
C0R770,保力,2013-04-30,22.071122,120.764111,0.009577507
G2L020,農試嘉義分所,2013-04-30,23.485028,120.473806,6.4399995e-07
C0X240,關子嶺,2013-04-30,23.331169,120.508025,2.2943452e-09
C0I380,集集,2013-04-30,23.828206,120.801467,4.6795265e-09
466990,花蓮,2013-04-30,23.975128,121.613275,0.013565218
C1V220,小關山,2013-04-30,23.154217,120.813603,3.5075718e-09
C1F9G1,慶福山,2013-04-30,24.180853,120.848378,2.2258262e-09
C0Z250,瑞穗林道,2013-04-30,23.49284,121.30688,2.8744633e-08
C0D590,新豐,2013-04-30,24.87068,120.97721,0.00044524323
C0A870,五指山,2013-04-30,25.132153,121.608692,2.6845274e-08
C0UA50,西帽山,2013-04-30,24.555361,121.802628,5.7756807e-08
C0X160,仁德,2013-04-30,22.968258,120.257689,0.0004419018
C1H971,六分寮,2013-04-30,23.92507,120.6378,2.2884012e-09
C0W120,西嶼,2013-04-30,23.5626,119.468436,0.9961622
C0G650,員林,2013-04-30,23.946503,120.585597,0.00094574975
C0AD50,鶯歌,2013-04-30,24.951533,121.346294,5.2380506e-07
C2H9Q0,北東眼山,2013-04-30,24.120939,121.189303,2.2233484e-09
C2H9T0,名間竹圍,2013-04-30,23.859914,120.637572,3.3064982e-09
C0S990,山豬窟,2013-04-30,22.318619,120.857372,0.6608041
72Q010,高雄農改,2013-04-30,22.709333,120.525889,1.6761837e-06
C0X190,安平,2013-04-30,22.993161,120.152181,0.7262071
C0K400,斗六,2013-04-30,23.720583,120.541127,1.606395e-07
12J990,口湖工作站,2013-04-30,23.589978,120.180394,0.054711144
C0O830,北寮,2013-04-30,23.079561,120.495008,4.35303e-09
C1D410,白蘭,2013-04-30,24.579364,121.079947,3.3414629e-09
C0S970,加津林,2013-04-30,22.416211,120.926942,0.04066068
C0D700,關西,2013-04-30,24.7977,121.1732,2.0369808e-07
C0M810,里佳,2013-04-30,23.389125,120.716647,1.6055312e-09
C0U750,龜山島,2013-04-30,24.841667,121.953133,1.4803278e-07
C0R810,內獅,2013-04-30,22.305064,120.642986,0.9455826
C1M390,龍美,2013-04-30,23.406728,120.654417,1.605326e-09
C2FB60,頭櫃山,2013-04-30,24.129842,120.858925,1.8355547e-09
C1H840,國三N238K,2013-04-30,23.841008,120.707711,4.333099e-09
CAQ030,崎峰國小,2013-04-30,22.42565,120.49521,0.9926745
C2E520,大湖,2013-04-30,24.414939,120.870872,4.856973e-08
467530,阿里山,2013-04-30,23.508208,120.813242,4.519792e-09
C1E691,南湖,2013-04-30,24.40135,120.837533,2.1073217e-09
C0FA30,梧棲,2013-04-30,24.256003,120.523381,0.0078953905
C1V231,高中,2013-04-30,23.134911,120.716711,1.8964748e-09
C0F9V0,新社,2013-04-30,24.200172,120.815806,5.389945e-09
C0H890,埔里,2013-04-30,23.972169,120.952425,2.5394208e-08
C0R690,墾丁,2013-04-30,21.966756,120.810269,0.013637919
C0F0D0,審馬陣,2013-04-30,24.381675,121.4203,1.1984923e-08
C0R820,白鷺,2013-04-30,22.454275,120.666219,7.1497448e-06
U2H480,臺大溪頭,2013-04-30,23.670306,120.798194,2.9852298e-09
C1V190,南天池,2013-04-30,23.27403,120.91176,4.8347606e-09
K2E360,苗栗農改場,2013-04-30,24.495722,120.829111,2.493028e-07
CAJ050,海口故事園區,2013-04-30,23.57543,120.14121,0.0654881
C2H9D0,三隻寮,2013-04-30,24.093078,120.861578,2.6833895e-09
C0O990,媽廟,2013-04-30,22.99175,120.293525,0.00024606107
C0D480,打鐵坑,2013-04-30,24.849664,121.150789,1.9399724e-08
C0Z220,和平林道,2013-04-30,24.343922,121.656317,9.269412e-05
C0TA10,花蓮漁港,2013-04-30,23.995322,121.638331,0.028145853
72C440,桃園農改場,2013-04-30,24.950944,121.030583,0.0016555153
C1E711,馬拉邦山,2013-04-30,24.367306,120.901656,2.419815e-09
C0SB20,富岡,2013-04-30,22.792467,121.192669,0.19499348
C0D560,竹東,2013-04-30,24.767147,121.057881,2.5482424e-07
C0F9U0,南屯,2013-04-30,24.137006,120.637969,0.00043840674
C0M720,番路,2013-04-30,23.464657,120.554156,2.543187e-08
C0F0A0,雪山圈谷,2013-04-30,24.388594,121.236339,1.7140486e-08
C1A9N0,四十份,2013-04-30,24.934158,121.593283,3.4286288e-08
C0U760,東澳,2013-04-30,24.52196,121.83318,1.3812388e-05
C0X230,鹽水,2013-04-30,23.272621,120.247641,0.0018498026
C2H9H0,苗改南投蜂場,2013-04-30,23.852589,120.693481,2.7870351e-08
C0R950,萬隆國小,2013-04-30,22.507667,120.587817,2.3494971e-07
C0V370,古亭坑,2013-04-30,22.893178,120.401947,3.2115763e-06
C1I340,新興橋,2013-04-30,23.563333,120.868728,2.0343331e-09
C0SA80,土坂,2013-04-30,22.453108,120.887572,0.0005363792
C0R160,鹽埔,2013-04-30,22.739558,120.530778,1.489623e-08
C0AC40,大屯山,2013-04-30,25.175675,121.522408,1.5219062e-08
466850,五分山雷達站,2013-04-30,25.071182,121.781205,2.7578666e-08
C2H9L0,馬烈霸,2013-04-30,24.1512,121.201772,2.1758624e-09
C1AI50,國三N016K,2013-04-30,25.034164,121.619664,2.1971432e-07
C1V600,藤枝,2013-04-30,23.071961,120.757042,3.1947285e-09
C1E601,南勢,2013-04-30,24.572486,120.734842,2.3279252e-07
C0Z180,新城,2013-04-30,24.03946,121.60454,0.0061823875
C0O980,新市,2013-04-30,23.061614,120.298197,5.827398e-05
C0K420,西螺,2013-04-30,23.800407,120.467394,4.978687e-07
C0Z050,佳心,2013-04-30,23.34567,121.21316,5.909445e-08
C0AD30,蘆洲,2013-04-30,25.086594,121.472331,3.7469306e-07
C0V610,梓官,2013-04-30,22.760558,120.267211,0.035763968
K2F750,種苗改良場,2013-04-30,24.225972,120.800917,7.6185165e-09
C0UA80,大溪漁港,2013-04-30,24.941801,121.902955,3.3307816e-07
C1AI60,國一39K邊坡,2013-04-30,25.064361,121.383836,6.513172e-08
C0W150,金寧,2013-04-30,24.457703,118.328989,1.529362e-07
C0R960,內埔,2013-04-30,22.608483,120.570714,4.1860346e-07
V2C250,八德合作社,2013-04-30,24.93775,121.266389,2.320097e-07
C2H9S0,龍南,2013-04-30,23.953536,120.833183,2.284145e-09
C0AH40,平等,2013-04-30,25.129142,121.577086,5.7990935e-08
C0R540,佳冬,2013-04-30,22.419456,120.552375,0.9926745
466950,彭佳嶼,2013-04-30,25.627975,122.079744,1.7020317e-05
C0A890,雙溪,2013-04-30,25.036003,121.864242,0.00017672543
C0C480,桃園,2013-04-30,24.992425,121.323172,3.8045246e-07
C0AH50,林口,2013-04-30,25.072181,121.38084,6.930697e-08
A2K360,水試臺西試驗場,2013-04-30,23.717231,120.190522,0.4767325
B2N890,畜試所,2013-04-30,23.058972,120.336406,2.3539731e-05
C2M960,外寮,2013-04-30,23.562643,120.665688,1.5205329e-09
C0F9S0,烏日,2013-04-30,24.107058,120.624103,0.00051445205
C0C490,八德,2013-04-30,24.928708,121.283289,3.6697486e-07
C0R190,赤山,2013-04-30,22.592333,120.614306,2.8512548e-07
C0T820,天祥,2013-04-30,24.179597,121.495639,3.4293557e-06
C1F9E1,龍安,2013-04-30,24.1605,120.831961,4.6490563e-09
C0V820,小林,2013-04-30,23.148408,120.63325,2.6990146e-09
C2G870,芳苑,2013-04-30,23.922303,120.320025,0.5672432
C0E850,大河,2013-04-30,24.618069,120.948578,6.6437366e-08
C1U670,寒溪,2013-04-30,24.634,121.71691,1.1086272e-05
C0N020,城西,2013-04-30,23.0568,120.0956,0.96886194
C1Z110,三棧,2013-04-30,24.11557,121.60501,4.2043786e-07
C0R280,檳榔,2013-04-30,22.076078,120.836777,0.011565354
C2H9J0,中台,2013-04-30,23.9996,120.938739,6.654133e-09
C0F9L0,后里,2013-04-30,24.310436,120.729725,3.1775865e-08
C0D540,橫山,2013-04-30,24.71116,121.11693,2.6429984e-08
C1D420,太閣南,2013-04-30,24.632808,121.160575,4.1003916e-09
C1E770,公館,2013-04-30,24.526914,120.830806,9.8497134e-05
CAN130,水試所海水繁養殖中心,2013-04-30,23.120802,120.07968,0.98191845
C1I430,翠華,2013-04-30,24.191961,121.224339,4.1898307e-09
C1M400,菜瓜坪,2013-04-30,23.251928,120.576103,4.0501327e-09
C0G730,二林,2013-04-30,23.903325,120.376081,0.056702368
72M360,南改義竹分場,2013-04-30,23.360694,120.279361,0.00023981534
V2K620,麥寮合作社,2013-04-30,23.753836,120.294783,0.29483515
C0Z070,舞鶴,2013-04-30,23.46811,121.37407,0.44713745
C0B040,大武崙,2013-04-30,25.166676,121.706993,0.00038223213
C1Z030,紅葉,2013-04-30,23.493119,121.338806,0.92605495
C1I050,丹大,2013-04-30,23.753747,121.141147,5.645781e-09
C0I080,信義,2013-04-30,23.689694,120.851036,3.1811567e-09
C2M920,朴子農改,2013-04-30,23.469889,120.259383,0.0040113963
C2A880,福隆,2013-04-30,25.017842,121.942083,2.983276e-06
C0Z160,鳳林,2013-04-30,23.746114,121.453411,0.9974944
C0V210,復興,2013-04-30,23.222403,120.806089,3.6276355e-09
C0H990,昆陽,2013-04-30,24.121322,121.273642,8.278312e-09
C0R741,獅子,2013-04-30,22.202308,120.705236,0.0766051
C0S710,鹿野,2013-04-30,22.917711,121.122994,2.4184355e-06
C0I530,小奇萊,2013-04-30,24.131764,121.295717,8.78798e-09
C2K630,荷苞,2013-04-30,23.657717,120.595144,7.253023e-08
C0Z080,富源,2013-04-30,23.587642,121.378225,0.64274603
467441,高雄,2013-04-30,22.7304,120.3125,0.37230915
C0SB10,美和,2013-04-30,22.682078,121.060236,0.9785234
C2K620,馬光農場,2013-04-30,23.721453,120.378864,5.330093e-06
C1I140,卡奈托灣,2013-04-30,23.754364,121.087872,2.287005e-09
C0I520,玉山風口,2013-04-30,23.470489,120.955994,1.538698e-08
C1G691,下水埔,2013-04-30,23.816114,120.5676,1.129755e-07
C0X110,臺南市南區,2013-04-30,22.961189,120.188378,0.6045539
C0V680,仁武,2013-04-30,22.701083,120.347722,0.31698072
C2G840,北斗,2013-04-30,23.877586,120.514222,0.008025706
C0R900,竹坑,2013-04-30,22.1385,120.7022,0.3006282
C0K250,崙背,2013-04-30,23.75555,120.318925,0.23621017
C0G860,社頭,2013-04-30,23.897647,120.5862,0.00063669926
C0X150,安定,2013-04-30,23.102614,120.227839,0.27935192
C0R590,里港,2013-04-30,22.77919,120.49459,4.3936947e-09
C0E610,馬都安,2013-04-30,24.451272,120.930192,4.477277e-09
C0E550,明德,2013-04-30,24.583486,120.885411,8.709024e-08
C0R150,三地門,2013-04-30,22.709889,120.639944,2.4952486e-08
C0G910,花壇,2013-04-30,24.032076,120.549461,0.004342046
C1D400,鳥嘴山,2013-04-30,24.71909,121.28387,1.1701912e-08
C0K500,元長,2013-04-30,23.64981,120.315024,0.29165292
C0F0B0,石岡,2013-04-30,24.276061,120.777644,2.068476e-08
C2V250,甲仙,2013-04-30,23.080106,120.591758,3.0207703e-09
C0SA20,金崙山,2013-04-30,22.567419,120.959667,1.630827e-09
C0V350,溪埔,2013-04-30,22.738578,120.446797,0.00053537707
C0M660,溪口,2013-04-30,23.604131,120.403569,0.022109335
C1S880,壽卡,2013-04-30,22.238911,120.858903,0.86042416
72D680,桃改新埔分場,2013-04-30,24.834444,121.066111,6.390206e-07
