站號,站名,日期,lat,lon,BLBTSLS
C0R710,龍磐,2013-03-27,21.931672,120.838942,0.052757625
C1F9D1,白毛台,2013-03-27,24.158325,120.886933,2.0082762e-06
C0G940,竹塘,2013-03-27,23.848253,120.386764,5.8751953e-10
467590,恆春,2013-03-27,22.003897,120.746339,0.0214572
C1O850,環湖,2013-03-27,23.148617,120.418633,7.52615e-10
C0U710,太平山,2013-03-27,24.505486,121.525656,3.1625957e-09
C0E820,獅潭,2013-03-27,24.539133,120.920042,6.095653e-10
C0V880,興達,2013-03-27,22.8778,120.2127,1.5002472e-08
C0S890,關山,2013-03-27,23.0395,121.175017,3.6289805e-07
C0SB30,新蘭,2013-03-27,22.869214,121.223228,3.2820896e-07
C2R970,屏科大,2013-03-27,22.648275,120.619247,1.7720174e-06
K2F750,種苗繁殖,2013-03-27,24.225972,120.800917,1.4018711e-07
C1Z130,銅門,2013-03-27,23.965694,121.492842,9.043865e-09
C0AD40,土城,2013-03-27,24.973208,121.445169,4.408494e-09
CAN140,六官養殖協會,2013-03-27,23.22881,120.29962,1.3530892e-09
C0X180,山上,2013-03-27,23.0757,120.363253,7.130769e-10
C0F9Z0,雪山東峰,2013-03-27,24.388792,121.268675,1.5264092e-08
C1M480,獨立山,2013-03-27,23.537022,120.607797,3.614718e-10
C0X220,學甲,2013-03-27,23.230367,120.182187,2.401002e-09
467650,日月潭,2013-03-27,23.881325,120.90805,9.180439e-08
C0K600,箔子寮,2013-03-27,23.6197,120.14,1.8027146e-09
C0G830,埤頭,2013-03-27,23.866003,120.452806,4.891618e-10
C0S950,七塊厝,2013-03-27,22.954453,121.229922,6.4070576e-09
467110,金門,2013-03-27,24.407306,118.289281,8.973001e-10
C0AH80,深坑,2013-03-27,25.002703,121.628328,5.2945333e-09
467990,馬祖,2013-03-27,26.169269,119.923419,1.0095206e-08
C0A970,三貂角,2013-03-27,25.007606,122.002058,7.9742074e-07
C2D730,寶山農場,2013-03-27,24.732444,120.976153,4.8181903e-09
C0K430,褒忠,2013-03-27,23.690938,120.303634,9.674687e-10
467480,嘉義,2013-03-27,23.495925,120.432906,4.287298e-10
C2E540,後龍,2013-03-27,24.606489,120.783933,7.594241e-10
C0V400,阿公店,2013-03-27,22.804194,120.355528,3.427659e-09
C0R440,大漢山,2013-03-27,22.405264,120.753181,1.3886634e-09
C0K280,四湖,2013-03-27,23.630414,120.227125,1.3121021e-09
C1F9B1,桐林,2013-03-27,24.066172,120.735194,7.152591e-10
C2H9U0,鳳鵬,2013-03-27,23.763919,120.788061,5.168772e-07
C0K390,土庫,2013-03-27,23.679029,120.395574,5.394787e-10
C1I450,望鄉山,2013-03-27,23.594153,120.944286,3.972341e-09
C0E910,海埔,2013-03-27,24.648767,120.772435,5.133828e-10
B2E890,畜試北區分所,2013-03-27,24.527806,120.770972,1.1322273e-09
C0R750,四林格山,2013-03-27,22.076989,120.802439,0.00032283762
C0F0C0,中坑,2013-03-27,24.248517,120.903319,8.776021e-09
C1I121,大鞍,2013-03-27,23.678381,120.760017,4.7370513e-10
72U480,花改蘭陽分場,2013-03-27,24.686306,121.716583,1.1636752e-06
C0A770,科教館,2013-03-27,25.096356,121.516507,4.577582e-09
C0AJ60,六塊厝,2013-03-27,25.24,121.4481,1.0087948e-08
C0R620,墾雷,2013-03-27,21.900836,120.855269,0.025035651
467420,永康,2013-03-27,23.038386,120.2367,3.4872127e-09
467300,東吉島,2013-03-27,23.25695,119.667467,3.3167532e-06
C0I410,名間,2013-03-27,23.837053,120.701447,7.136868e-09
A2C560,農工中心,2013-03-27,24.985917,121.239833,1.4764577e-09
C0V740,旗山,2013-03-27,22.888614,120.483597,2.8139333e-09
C0Z061,玉里,2013-03-27,23.3215,121.339656,2.1715639e-08
C0S840,南田,2013-03-27,22.279725,120.889208,0.007372024
C1I470,杉林溪,2013-03-27,23.639517,120.786444,5.270028e-10
C1X040,東原,2013-03-27,23.291597,120.463822,8.61754e-10
C0R660,枋寮,2013-03-27,22.367722,120.590647,6.9000277e-09
C1R120,上德文,2013-03-27,22.763272,120.704442,6.6245254e-09
C0K450,大埤,2013-03-27,23.646074,120.431537,4.692278e-10
C0UA00,土場,2013-03-27,24.576533,121.495333,2.528082e-09
467080,宜蘭,2013-03-27,24.763975,121.756528,4.567127e-08
C0N030,四草,2013-03-27,23.0235,120.1116,9.454237e-09
C0V650,彌陀,2013-03-27,22.783806,120.246361,3.9518993e-09
C0D660,新竹市東區,2013-03-27,24.798681,120.986942,1.218901e-09
82S580,茶改東部分場,2013-03-27,22.907694,121.130139,1.2907064e-08
C0SB40,興隆,2013-03-27,22.913661,121.257469,2.6636819e-08
C0C710,大溪永福,2013-03-27,24.892936,121.324975,1.405354e-09
C0FA20,溫寮,2013-03-27,24.372177,120.583125,1.8929187e-09
C0V640,湖內,2013-03-27,22.887139,120.2445,1.1215926e-08
C0R910,下寮,2013-03-27,22.3929,120.5548,7.45872e-08
C0Z020,明里,2013-03-27,23.208717,121.262342,5.7869474e-09
C0M770,嘉義梅山,2013-03-27,23.585398,120.555587,4.351677e-09
G2F820,農業試驗所,2013-03-27,24.031261,120.688133,6.9232126e-10
C0C660,楊梅,2013-03-27,24.912375,121.143047,1.0080962e-09
C1E511,新開,2013-03-27,24.347703,120.827019,5.8792363e-08
G2F820,農試所(霧峰),2013-03-27,24.031261,120.688133,6.9232126e-10
C1I070,和社,2013-03-27,23.591131,120.888861,4.929128e-10
C2F000,大肚,2013-03-27,24.15295,120.572117,4.0693646e-10
C1S850,豐南,2013-03-27,23.122139,121.262389,3.1739142e-09
C2A920,富貴角,2013-03-27,25.263783,121.565258,2.7307426e-08
CAH030,茶改場竹圍站,2013-03-27,23.860083,120.637528,2.1238822e-09
C0T960,光復,2013-03-27,23.660694,121.424964,7.1351764e-07
C0F9M0,豐原,2013-03-27,24.254322,120.720692,3.35831e-10
C0R720,旭海,2013-03-27,22.205403,120.887614,0.0075360197
C0V710,苓雅,2013-03-27,22.622742,120.330669,5.6775644e-07
C0C740,觀音工業區,2013-03-27,25.064764,121.114856,2.430959e-09
CAC040,拉拉山,2013-03-27,24.699317,121.427133,6.526485e-10
C0V790,萬山,2013-03-27,22.905944,120.688056,1.0738458e-09
U2HA30,臺大和社,2013-03-27,23.590856,120.888864,4.929128e-10
C0AJ90,澳底,2013-03-27,25.0552,121.9253,1.2469932e-06
C0Z100,東華,2013-03-27,23.89525,121.549833,3.786625e-07
C0G970,三豐,2013-03-27,23.882,120.2895,1.4348993e-09
V2K610,大庄合作社,2013-03-27,23.8068,120.367939,5.835259e-10
C0V900,汕尾,2013-03-27,22.4782,120.4151,8.3106346e-07
C1R630,龍泉,2013-03-27,22.66701,120.59091,3.8576246e-08
C1AC50,關渡,2013-03-27,25.133486,121.469331,9.850541e-09
C0F9I0,神岡,2013-03-27,24.272481,120.658314,3.5455602e-10
C0K460,斗南,2013-03-27,23.678734,120.478359,5.087536e-10
467410,臺南,2013-03-27,22.993239,120.204772,3.1168144e-09
C2O810,曾文,2013-03-27,23.219681,120.497328,5.869293e-10
467280,後龍,2013-03-27,24.648563,120.831834,4.6551407e-10
C1F9J1,清水林,2013-03-27,24.071242,120.820419,1.9620318e-06
C2A650,火燒寮,2013-03-27,25.002719,121.742892,4.0406285e-08
466930,竹子湖,2013-03-27,25.162078,121.544547,5.814929e-09
C1I220,樟湖,2013-03-27,23.905333,120.846983,9.828147e-10
C0I390,仁愛,2013-03-27,24.022122,121.132206,7.303028e-06
C0Z300,東里,2013-03-27,23.26853,121.30547,1.995683e-08
C1V590,新發,2013-03-27,23.057019,120.646064,2.1928734e-09
C0K510,水林,2013-03-27,23.572924,120.24597,1.7625442e-09
72S590,東改賓朗果園,2013-03-27,22.813889,121.071278,7.1494604e-08
82A750,茶改北部分場,2013-03-27,24.955778,121.631222,1.638622e-09
C1A750,石碇服務區,2013-03-27,25.00872,121.646242,4.9390216e-09
C0X300,鹿寮,2013-03-27,23.386047,120.477331,4.843582e-10
G2AI50,關渡,2013-03-27,25.11575,121.492,4.774152e-09
C0K590,雲林東勢,2013-03-27,23.674192,120.255721,9.674687e-10
C0A570,桶後,2013-03-27,24.848222,121.597992,5.690561e-09
C1S800,華源,2013-03-27,22.657883,121.02325,1.3043385e-06
C0G720,溪州,2013-03-27,23.851589,120.499093,4.611335e-10
C1V160,達卡努瓦,2013-03-27,23.279811,120.705319,4.5689785e-10
C2M410,馬頭山,2013-03-27,23.324361,120.582017,6.446231e-10
C0V850,蚵仔寮,2013-03-27,22.7256,120.2527,8.375592e-07
C0S740,池上,2013-03-27,23.119628,121.209469,1.0689255e-08
C1V390,尖山,2013-03-27,22.813153,120.367789,2.0130115e-09
C0AH70,松山,2013-03-27,25.04871,121.55042,6.2382703e-09
C0N010,鯤鯓國小,2013-03-27,23.1879,120.0889,2.5401268e-09
C0R550,新埤,2013-03-27,22.467947,120.582894,1.1522183e-08
C0SA60,知本（水試所）,2013-03-27,22.702394,121.082761,0.00012284466
C0T9I0,豐濱,2013-03-27,23.583897,121.514806,2.6780615e-06
C0UB00,淡江大學蘭陽校園,2013-03-27,24.823239,121.730383,5.316979e-09
C0W240,九宮,2013-03-27,24.423753,118.240186,2.6944573e-09
C0T9N0,富里,2013-03-27,23.171639,121.249378,4.800706e-09
U2HA50,臺大竹山,2013-03-27,23.756972,120.681556,2.7703602e-09
C0V840,鳳鼻頭,2013-03-27,22.5083,120.3591,7.9465207e-07
C0X140,西港,2013-03-27,23.125608,120.203108,3.079674e-09
72D080,桃改五峰分場,2013-03-27,24.612194,121.157167,7.2099954e-10
C2H9P0,伊拿谷,2013-03-27,23.963211,121.088264,4.4798776e-06
C2H9F0,柑林,2013-03-27,24.018658,120.847072,1.1180167e-09
C0TA20,加灣,2013-03-27,24.082025,121.608944,1.9542407e-08
C0V530,阿蓮,2013-03-27,22.883208,120.327508,3.3457037e-09
C1O880,關山,2013-03-27,23.173397,120.594092,5.842219e-10
C0E791,卓蘭,2013-03-27,24.3126,120.8244,4.9572105e-08
C1I030,武界,2013-03-27,23.913225,121.052483,2.5533547e-05
C0R520,崁頂,2013-03-27,22.514781,120.506914,6.275029e-08
C0R341,牡丹,2013-03-27,22.130036,120.792639,3.2860873e-06
C0R930,萬丹,2013-03-27,22.5885,120.4851,1.2281382e-08
C0S760,紅石,2013-03-27,23.069131,121.126219,2.0099462e-09
C1M610,石磐龍,2013-03-27,23.496606,120.663506,3.7311831e-10
C0UA10,鴛鴦湖,2013-03-27,24.590269,121.412228,9.753413e-10
V2C260,八德蔬果,2013-03-27,24.978508,121.281819,1.2383392e-09
C0R800,丹路,2013-03-27,22.204481,120.750989,1.0945614e-06
C0G920,永靖,2013-03-27,23.924703,120.547533,5.361418e-10
C2M950,太和,2013-03-27,23.538372,120.702961,5.064638e-10
C1A630,下盆,2013-03-27,24.771003,121.538622,4.098343e-09
B2N890,畜產試驗所,2013-03-27,23.058972,120.336406,1.2970086e-09
C0UA30,白嶺,2013-03-27,24.527819,121.519031,6.3292105e-10
C1V580,溪南(特生中心),2013-03-27,23.084972,120.788475,1.0361128e-09
C1T970,大農,2013-03-27,23.615233,121.413331,3.031037e-07
E2S960,林試太麻里2,2013-03-27,22.598014,120.989761,7.646465e-06
C0R650,竹田,2013-03-27,22.58486,120.54344,1.3024681e-08
C1H900,清流,2013-03-27,24.080775,120.962997,1.0014278e-07
C1C510,水尾,2013-03-27,24.940081,121.087161,1.2147258e-09
C0F9X0,大雅(中科園區),2013-03-27,24.21528,120.62445,6.425951e-10
C0SB60,白守蓮,2013-03-27,23.126769,121.401914,0.00043109036
C0O970,虎頭埤,2013-03-27,23.021375,120.347878,1.2772194e-09
C0C730,中大臨海站,2013-03-27,24.966126,121.008581,4.397067e-08
C0X250,新營,2013-03-27,23.310689,120.316681,1.060289e-09
C0V700,三民,2013-03-27,22.645017,120.311233,5.6775644e-07
C0U870,大礁溪,2013-03-27,24.791042,121.675047,2.8618958e-09
C0E870,高鐵苗栗,2013-03-27,24.60725,120.826094,7.3916684e-10
A2K570,古坑花卉中心,2013-03-27,23.63353,120.55239,5.914491e-10
C0M860,新美,2013-03-27,23.338017,120.683169,4.578496e-10
C1E701,八卦,2013-03-27,24.491756,120.927619,2.9927145e-07
C0I420,國姓,2013-03-27,24.037803,120.855072,1.8394026e-07
C2D720,關西工作站,2013-03-27,24.757275,121.184792,1.1842353e-09
C0S960,香蘭,2013-03-27,22.587569,120.993375,7.649827e-06
C0R260,春日,2013-03-27,22.370361,120.628306,1.5842586e-07
72G600,臺中農改場,2013-03-27,24.003028,120.534389,6.412189e-10
C0Z210,瑞穗,2013-03-27,23.5239,121.39021,3.8906733e-06
C0M820,達邦,2013-03-27,23.453994,120.749517,3.5075634e-10
C0V860,南寮,2013-03-27,22.7616,120.2339,4.793606e-09
C0G740,大城,2013-03-27,23.852487,120.320935,1.4104832e-09
C0R920,塭仔,2013-03-27,22.4169,120.5197,9.328015e-08
C0R470,高樹,2013-03-27,22.826389,120.600806,1.0400178e-08
C0R680,佳樂水,2013-03-27,21.993578,120.861633,0.021050312
C1O870,大棟山,2013-03-27,23.31157,120.52226,7.619486e-10
C0D360,梅花,2013-03-27,24.678347,121.208558,3.9126638e-10
C0Z190,富世,2013-03-27,24.14743,121.6297,1.7695085e-07
C0AI10,屈尺,2013-03-27,24.92184,121.54475,5.2557163e-09
B2U990,畜試東區分所,2013-03-27,24.669039,121.832561,1.8105345e-06
C0SB80,長濱漁港,2013-03-27,23.313644,121.459994,5.0376478e-08
C0R240,來義,2013-03-27,22.527306,120.625111,1.04077216e-07
C0V910,大樹,2013-03-27,22.684645,120.432803,4.4444455e-08
C1R610,西大武山,2013-03-27,22.617719,120.7322,1.4853155e-09
C0G900,線西,2013-03-27,24.143358,120.443536,8.9771096e-10
C0M700,竹崎,2013-03-27,23.526178,120.555508,4.680506e-10
C2E880,三義,2013-03-27,24.405478,120.749819,1.9090791e-09
C0C720,竹圍,2013-03-27,25.112692,121.239824,9.694826e-09
C0F9P0,清水,2013-03-27,24.312297,120.562242,1.5328386e-09
C0Z150,吉安光華,2013-03-27,23.930925,121.595153,5.578726e-07
C1D640,外坪(五指山),2013-03-27,24.644447,121.090961,6.667736e-10
C0F9O0,潭子,2013-03-27,24.213106,120.703933,3.2820985e-10
C2H9R0,卓社,2013-03-27,23.887894,121.000086,2.9308328e-08
72T250,花蓮農改場,2013-03-27,23.975222,121.563889,1.7621687e-08
C0E780,銅鑼,2013-03-27,24.489681,120.790853,7.513557e-10
C1T950,太安,2013-03-27,23.666719,121.370128,2.558043e-09
C0E830,苑裡,2013-03-27,24.439714,120.653053,1.7557397e-09
467270,田中,2013-03-27,23.873803,120.581286,7.2683876e-10
C0SA10,檳榔四格山,2013-03-27,22.810031,121.109308,3.431985e-08
C1T830,布洛灣,2013-03-27,24.17184,121.57127,8.593434e-07
C0F970,大坑,2013-03-27,24.173142,120.722289,4.90307e-10
C1U920,思源,2013-03-27,24.393125,121.347214,1.5573041e-09
C0A931,三和,2013-03-27,25.233153,121.595236,3.1014036e-08
C0I010,廬山,2013-03-27,24.033311,121.181808,1.1426603e-09
C2M940,日野賀,2013-03-27,23.434056,120.727169,3.8410497e-10
C0R860,鼻頭,2013-03-27,22.1043,120.8979,0.002034701
C0UB20,壯圍,2013-03-27,24.7359,121.8163,1.8105345e-06
C0R790,九棚,2013-03-27,22.14195,120.889281,0.0069699185
C0W110,東莒,2013-03-27,25.9652,119.98069,2.7477594e-08
C1U930,粉鳥林,2013-03-27,24.497088,121.842479,2.157373e-07
C1I211,蘆竹湳,2013-03-27,23.934019,120.811994,1.609904e-09
C0S830,長濱,2013-03-27,23.286817,121.411975,5.357454e-09
C1F9F1,伯公龍,2013-03-27,24.272392,120.849047,2.7916305e-09
C0E810,西湖,2013-03-27,24.562947,120.7485,6.959157e-10
C1I440,新高口,2013-03-27,23.478744,120.878939,1.632791e-09
C0O840,王爺宮,2013-03-27,23.222064,120.40085,5.869293e-10
C0T9G0,鳳林山,2013-03-27,23.735269,121.420131,1.133587e-08
C0X080,佳里,2013-03-27,23.173039,120.145086,2.6141742e-09
C0FB70,大甲溪埔,2013-03-27,24.370625,120.620067,1.7334751e-09
C0Z310,清水斷崖,2013-03-27,24.218294,121.689142,0.003051796
C0M680,太保,2013-03-27,23.455062,120.331455,1.0496486e-09
C1S820,金峰,2013-03-27,22.590969,120.933236,3.3158506e-07
C0AD10,八里,2013-03-27,25.150211,121.403947,9.691073e-09
C2K240,草嶺,2013-03-27,23.59555,120.693461,4.5058368e-10
C1SA70,都蘭,2013-03-27,22.87794,121.226881,2.6636819e-08
C0K440,二崙,2013-03-27,23.772797,120.408944,5.775554e-10
C1A760,坪林交控,2013-03-27,24.94284,121.713442,6.607918e-09
C0F9N0,大里,2013-03-27,24.092464,120.701378,6.719737e-10
C0SA90,達仁林場,2013-03-27,22.264347,120.823972,1.661971e-05
C1R290,石門山,2013-03-27,22.112611,120.756597,0.0010374379
42HA10,萬大發電廠,2013-03-27,23.978875,121.139639,6.924123e-07
C0R890,山海,2013-03-27,21.9878,120.7091,0.016513107
C0T9A0,月眉山,2013-03-27,23.809928,121.539828,9.336468e-09
C0AC70,信義,2013-03-27,25.037822,121.564597,6.2382584e-09
C0K560,棋山,2013-03-27,23.68645,120.603417,7.585154e-09
C2FB50,出雲,2013-03-27,24.206469,120.902794,3.5561476e-05
C1Z240,中平林道,2013-03-27,23.42115,121.26763,2.542502e-09
U2H480,溪頭,2013-03-27,23.670306,120.798194,5.8290517e-10
C0M880,好美里,2013-03-27,23.3364,120.138,2.6141742e-09
C0T9E0,大坑,2013-03-27,23.880628,121.581981,1.1438057e-08
C0K530,臺西,2013-03-27,23.701547,120.197559,1.2117036e-09
C1E900,國一N128K,2013-03-27,24.560997,120.844186,6.3870076e-10
C0AJ50,水湳洞,2013-03-27,25.123695,121.862238,3.9677283e-07
C0AI20,白沙灣,2013-03-27,25.283128,121.519058,3.105808e-08
C0A860,大坪,2013-03-27,25.165914,121.632969,7.4176874e-09
C1U850,觀音海岸,2013-03-27,24.38319,121.77856,1.2106277e-08
C2K610,草嶺石壁,2013-03-27,23.602469,120.707731,3.8958636e-10
C0U950,鶯子嶺,2013-03-27,24.89754,121.79244,3.9772314e-09
C0O900,善化,2013-03-27,23.112883,120.297219,1.4327197e-09
C0K550,蔦松,2013-03-27,23.514319,120.229736,1.5468806e-09
E2P980,林試六龜中心,2013-03-27,22.991703,120.645722,4.6850186e-09
C0E590,通霄,2013-03-27,24.471892,120.704622,1.1975047e-09
C1I310,西巒,2013-03-27,23.754486,120.883956,3.95247e-10
C0A550,泰平,2013-03-27,24.971197,121.823711,3.7016708e-08
C0I360,水里,2013-03-27,23.812553,120.849792,4.262131e-09
C0R830,高士,2013-03-27,22.121825,120.836781,0.0011085158
C1I101,溪頭,2013-03-27,23.661789,120.807647,7.667728e-10
C0AJ20,野柳,2013-03-27,25.20703,121.690021,3.9677283e-07
C0B060,暖暖,2013-03-27,25.0957,121.7403,2.0249335e-07
C1H920,長豐,2013-03-27,24.102039,120.879897,1.9727222e-06
C0V360,內門,2013-03-27,22.975481,120.466769,1.9726576e-09
C0R850,林邊,2013-03-27,22.4634,120.5339,6.275029e-08
C0E930,龍鳳,2013-03-27,24.700034,120.859125,4.3809642e-10
C0U910,冬山,2013-03-27,24.63373,121.7937,1.8105345e-06
C1E721,泰安,2013-03-27,24.489017,120.968036,2.628348e-09
82H320,茶改中部分場,2013-03-27,23.875611,120.913583,1.8539179e-09
C0M750,布袋,2013-03-27,23.380878,120.167789,1.6170776e-09
C1S860,利嘉,2013-03-27,22.809417,121.050528,1.293841e-09
72C440,桃園農改,2013-03-27,24.950944,121.030583,2.4502414e-08
E2S980,林試太麻里1,2013-03-27,22.598922,120.980044,1.7252535e-06
C0X170,關廟,2013-03-27,22.963017,120.327797,1.3700316e-09
C0V720,林園,2013-03-27,22.507747,120.394511,5.6775644e-07
C1I510,線浸林道,2013-03-27,23.761508,120.832956,5.0649474e-10
C0D690,外湖,2013-03-27,24.917735,120.968711,4.397067e-08
C0C750,新興坑尾,2013-03-27,25.0061,121.0971,2.124822e-09
B2Q810,畜試南區分所,2013-03-27,21.945583,120.802167,0.02133176
C0S790,金崙,2013-03-27,22.538122,120.966875,1.8569735e-07
C0AH90,福山植物園,2013-03-27,24.760717,121.58135,9.907876e-10
C0I540,奇萊稜線,2013-03-27,24.109231,121.326456,9.6079935e-09
C0M850,表湖,2013-03-27,23.24186,120.64166,4.586266e-10
C0S770,大溪山,2013-03-27,22.478475,120.943325,2.2197518e-08
C0AG80,中和,2013-03-27,24.991622,121.491792,6.2339884e-09
C0T790,大禹嶺,2013-03-27,24.186117,121.316086,6.121685e-09
C0T9B0,水源,2013-03-27,23.991861,121.537169,8.1694855e-09
C0R840,牡丹池山,2013-03-27,22.168389,120.841225,1.9807303e-05
C1I131,桶頭,2013-03-27,23.641944,120.654117,8.5059737e-10
CAL110,布袋國中,2013-03-27,23.35893,120.18026,1.5757001e-09
467571,新竹,2013-03-27,24.827853,121.014219,1.3403385e-09
C0Z290,赤柯山,2013-03-27,23.36893,121.38293,3.485856e-09
C0X280,將軍,2013-03-27,23.214999,120.13577,2.6141742e-09
C0S690,太麻里,2013-03-27,22.60902,120.98533,7.058647e-09
C0U880,北關,2013-03-27,24.9072,121.8734,3.3009233e-08
C1H860,瑞岩,2013-03-27,24.123772,121.18345,2.0316418e-07
C0G810,埔心,2013-03-27,23.947633,120.525456,5.4803695e-10
C0U970,大福,2013-03-27,24.80064,121.81389,4.918483e-08
C2H9N0,仁愛東眼,2013-03-27,24.026875,121.1205,3.1999294e-05
C1E670,南礦,2013-03-27,24.538278,121.002836,3.284492e-09
C0M520,東後寮,2013-03-27,23.369908,120.248065,1.5275414e-09
C1E461,松安,2013-03-27,24.397972,120.986022,3.06427e-09
72G600,臺中農改,2013-03-27,24.003028,120.534389,6.412189e-10
C2N160,西拉雅風管處,2013-03-27,23.189481,120.335297,1.1985009e-09
C2M970,碧湖,2013-03-27,23.568632,120.624165,4.2200246e-10
C0A640,石碇,2013-03-27,24.993969,121.662917,5.3369774e-08
E2S960,林試太麻里2,2013-03-27,22.598,120.99775,1.0514361e-05
C0F9Y0,桃山,2013-03-27,24.432739,121.303808,1.7153667e-08
C1I020,萬大,2013-03-27,23.979817,121.132261,6.4677974e-06
C0U940,羅東,2013-03-27,24.68184,121.74934,1.6603283e-06
C0M650,朴子,2013-03-27,23.43463,120.23902,1.574925e-09
C1I500,大尖山,2013-03-27,23.858572,120.994889,8.850449e-10
C0G820,田尾,2013-03-27,23.901669,120.509389,5.361418e-10
E2K600,四湖植物園,2013-03-27,23.676986,120.163433,1.2117036e-09
C0S730,綠島,2013-03-27,22.6672,121.47533,7.75312e-06
12Q970,東港工作站,2013-03-27,22.479997,120.466058,7.485399e-08
C0E430,南庄,2013-03-27,24.601775,121.000214,5.896649e-10
C1TA00,太魯閣,2013-03-27,24.15773,121.6236,0.005480769
466920,臺北,2013-03-27,25.037658,121.514853,6.2382584e-09
C0R600,舊泰武,2013-03-27,22.588194,120.664944,5.7751492e-09
C1I260,北坑,2013-03-27,23.9246,121.006903,3.523624e-07
466910,鞍部,2013-03-27,25.182586,121.529731,5.826175e-09
C1I230,九份二山,2013-03-27,23.961944,120.845,3.3508888e-07
C2A660,瑞芳,2013-03-27,25.113169,121.801147,3.7936516e-07
C0R270,琉球嶼,2013-03-27,22.332244,120.362236,1.584316e-07
C1T990,高寮,2013-03-27,23.394239,121.356808,2.736831e-07
C0G620,芬園,2013-03-27,24.015678,120.6213,4.3201984e-10
C1Z140,荖溪,2013-03-27,23.890575,121.45964,2.5997442e-09
C1I201,中心崙,2013-03-27,23.728722,120.712097,3.9577883e-10
C1I400,凌霄,2013-03-27,24.018778,121.004456,5.07089e-05
C1M640,十字,2013-03-27,23.492153,120.753683,5.092497e-10
G2P820,農試鳳山分所,2013-03-27,22.646611,120.356083,3.460972e-07
C0Z270,蕃薯寮,2013-03-27,23.73835,121.540108,6.171019e-08
C0F9Q0,外埔,2013-03-27,24.347817,120.705686,3.9545586e-10
C0K580,高鐵雲林,2013-03-27,23.737456,120.417944,5.394787e-10
C2I090,鳳凰,2013-03-27,23.728081,120.787347,1.3379886e-09
C0U990,員山,2013-03-27,24.74435,121.72247,1.6620979e-06
C0V770,大社,2013-03-27,22.730306,120.346639,4.981338e-07
C0X120,麻豆,2013-03-27,23.183289,120.248611,2.401002e-09
C0C670,龍潭,2013-03-27,24.870056,121.221389,3.62068e-10
C0D680,香山濕地,2013-03-27,24.783581,120.914988,1.5508984e-09
C0S980,勝林山,2013-03-27,22.430439,120.8938,6.324676e-09
C0V730,大寮,2013-03-27,22.605614,120.395717,1.1302514e-08
C0R570,麟洛,2013-03-27,22.65078,120.52719,4.9150223e-08
C2M930,石卓,2013-03-27,23.478744,120.702264,4.9881443e-10
C0G9B0,和美,2013-03-27,24.105169,120.492131,7.791746e-10
CAG100,王功漁港,2013-03-27,23.96824,120.32586,6.735289e-10
C0X290,北門,2013-03-27,23.267772,120.125481,2.6141742e-09
C2F930,大甲,2013-03-27,24.347667,120.640403,1.2318703e-09
C0D650,湖口,2013-03-27,24.904794,121.043628,1.5571475e-08
C0E420,竹南,2013-03-27,24.708978,120.888897,1.3898187e-09
C0U780,五結,2013-03-27,24.68637,121.79794,1.8105345e-06
C1I250,鯉潭,2013-03-27,23.961922,120.991131,1.9727186e-06
C0R130,阿禮,2013-03-27,22.742908,120.743678,5.471158e-10
C0X100,臺南市北區,2013-03-27,23.010394,120.194228,3.802948e-09
C0S920,金峰嘉蘭,2013-03-27,22.594789,120.960825,1.590212e-06
C0V490,新興,2013-03-27,22.627422,120.298803,5.6775644e-07
C0F9K0,大安,2013-03-27,24.345061,120.588025,1.4623743e-09
72N100,臺南農改,2013-03-27,23.0605,120.342194,1.2970086e-09
467290,古坑,2013-03-27,23.633639,120.551889,5.914491e-10
C2E970,八甲,2013-03-27,24.535811,120.795983,6.915861e-10
C0V440,鳳山,2013-03-27,22.646653,120.356122,3.460972e-07
C1T940,大觀,2013-03-27,23.714206,121.373133,2.3092072e-08
72T250,花蓮農改,2013-03-27,23.975222,121.563889,1.7621687e-08
C0E740,造橋,2013-03-27,24.637056,120.864778,4.1924264e-10
C0R100,尾寮山,2013-03-27,22.833111,120.683889,5.1311166e-10
A2K630,臺大雲林校區,2013-03-27,23.730628,120.423903,5.394787e-10
C0D580,寶山,2013-03-27,24.735006,121.025192,6.3780725e-10
E2P990,林試扇平站,2013-03-27,22.9677,120.6857,3.49998e-09
C0AI30,三重,2013-03-27,25.057328,121.500629,4.577582e-09
C0AH00,汐止,2013-03-27,25.066881,121.658778,3.9677283e-07
C1Z040,立山,2013-03-27,23.443356,121.327375,3.317764e-08
C0W130,花嶼,2013-03-27,23.40007,119.32276,4.5999855e-07
C0A950,鼻頭角,2013-03-27,25.129036,121.923372,1.5430219e-06
C0K470,林內,2013-03-27,23.748675,120.609642,6.0561006e-10
C2F990,摩天嶺,2013-03-27,24.322458,120.936819,6.8729302e-09
82C160,茶改場,2013-03-27,24.908472,121.185333,1.0048902e-09
C0Z320,清水林道,2013-03-27,23.27125,121.188272,3.5497845e-09
C0R760,南仁湖,2013-03-27,22.084681,120.863353,0.0010948615
C0M670,大林,2013-03-27,23.600616,120.45841,5.0401033e-10
C0M800,茶山,2013-03-27,23.299075,120.664767,8.4399243e-10
C0A9C0,天母,2013-03-27,25.117494,121.537169,4.23837e-09
72K220,南改斗南分場,2013-03-27,23.634556,120.477333,8.979062e-10
72AI40,桃改樹林分場,2013-03-27,24.944503,121.386972,4.101088e-09
C0S910,蘭嶼燈塔,2013-03-27,22.081197,121.503117,0.00032408835
C0B050,八斗子,2013-03-27,25.144754,121.79167,5.047651e-07
C0U900,內城,2013-03-27,24.71813,121.68766,3.412338e-08
C0X320,柳營,2013-03-27,23.253328,120.375253,6.986901e-10
C0M790,新港,2013-03-27,23.553269,120.345728,1.0189176e-09
C0F9T0,西屯,2013-03-27,24.179494,120.641275,7.428444e-10
C0SA30,都歷,2013-03-27,23.020333,121.323642,2.2701886e-05
C0C620,蘆竹,2013-03-27,25.084275,121.265767,8.921962e-09
C0R730,大坪頂,2013-03-27,22.024633,120.69355,0.005778183
C0AJ40,石門,2013-03-27,25.273672,121.601198,1.8305945e-08
C0E750,苗栗,2013-03-27,24.564569,120.824575,6.5887723e-10
C0T870,鯉魚潭,2013-03-27,23.935639,121.508944,1.0308288e-07
C1V170,排雲,2013-03-27,23.463619,120.954147,9.436726e-09
C2H950,中寮,2013-03-27,23.884447,120.766406,1.5075667e-09
C0R350,貓鼻頭,2013-03-27,21.921774,120.7358,0.025035651
C0V660,岡山,2013-03-27,22.797078,120.294958,1.6499541e-08
C1H941,雙冬,2013-03-27,23.967378,120.802189,3.1401956e-07
C0AJ70,田寮,2013-03-27,25.2698,121.4886,3.2883303e-08
C0AI00,五股,2013-03-27,25.07445,121.42728,2.1918154e-09
C0Z280,德武,2013-03-27,23.47426,121.41071,9.959324e-08
C0R700,枋山,2013-03-27,22.246844,120.661086,1.5742187e-05
C0C460,復興,2013-03-27,24.820208,121.352281,1.7422924e-09
E2H360,蓮華池,2013-03-27,23.918333,120.885278,3.8914862e-08
C0M640,中埔,2013-03-27,23.42538,120.5229,6.842411e-10
C0W140,金沙,2013-03-27,24.488292,118.408778,9.685802e-10
C2A540,四堵,2013-03-27,24.8926,121.745736,1.3798509e-08
C0ACA0,新莊,2013-03-27,25.051478,121.446756,1.0287916e-08
C0R220,潮州,2013-03-27,22.534361,120.54,6.776152e-09
U2HA40,臺大內茅埔,2013-03-27,23.689722,120.851117,2.2612143e-09
467490,臺中,2013-03-27,24.145736,120.684075,6.615355e-10
C0U960,翠峰湖,2013-03-27,24.510856,121.608044,2.9760654e-09
E2HA20,林試畢祿溪站,2013-03-27,24.226944,121.308522,6.090275e-09
C0V890,前鎮,2013-03-27,22.5718,120.3117,7.9465207e-07
467620,蘭嶼,2013-03-27,22.036969,121.558339,0.00047608616
C1F941,雪嶺,2013-03-27,24.280586,121.026642,1.0820993e-08
C2H9E0,國姓南港,2013-03-27,23.911108,120.846556,9.161923e-10
C0AC80,文山,2013-03-27,25.00235,121.575728,5.2591456e-09
C0F9R0,龍井,2013-03-27,24.184536,120.528972,1.1687051e-09
C0M760,民雄,2013-03-27,23.551754,120.428457,4.6715426e-10
C0UA40,西德山,2013-03-27,24.560647,121.752608,4.8374913e-09
C1T920,中興,2013-03-27,23.769503,121.498653,2.0971146e-07
C0D550,雪霸,2013-03-27,24.526972,121.11605,3.6503458e-09
C2F860,梨山,2013-03-27,24.247522,121.243669,6.370586e-09
C0R320,車城,2013-03-27,22.0744,120.716247,0.01644763
C1S870,南美山,2013-03-27,23.15025,121.382333,1.8816763e-07
C0B020,基隆嶼,2013-03-27,25.19141,121.78391,3.9677283e-07
C1U501,牛鬥,2013-03-27,24.637836,121.573656,7.4322744e-09
C0M730,嘉義市東區,2013-03-27,23.457673,120.460531,4.9409693e-10
C0S700,知本,2013-03-27,22.684866,121.005642,8.763659e-09
C1N001,沙崙,2013-03-27,22.935472,120.309406,3.3457037e-09
C0V760,橋頭,2013-03-27,22.757806,120.30575,1.2918023e-08
C0G960,福寶,2013-03-27,24.0443,120.3814,7.7076995e-10
C0X210,白河,2013-03-27,23.347466,120.414427,6.7301137e-10
C0S810,東河,2013-03-27,22.972672,121.303986,3.0281385e-08
C2R170,屏東,2013-03-27,22.66027,120.49403,6.2794825e-08
C0R670,楓港,2013-03-27,22.190131,120.692156,1.5742187e-05
C0FA50,霧峰,2013-03-27,24.0419,120.6995,5.718554e-10
C0UB10,蘇澳,2013-03-27,24.5969,121.8571,2.851904e-06
C0G950,防潮門,2013-03-27,24.1835,120.4871,1.1793057e-09
C0M740,六腳,2013-03-27,23.492871,120.290625,1.073168e-09
C1R250,力里,2013-03-27,22.428117,120.629228,1.04077216e-07
C0K330,虎尾,2013-03-27,23.719183,120.442036,5.270259e-10
C2FA00,烏石坑,2013-03-27,24.273503,120.947617,7.289661e-09
C0V620,永安,2013-03-27,22.82315,120.236856,3.9518993e-09
C1I330,楓樹林,2013-03-27,23.986803,121.076117,5.7464188e-08
C0W200,湖西,2013-03-27,23.596314,119.67275,5.4662183e-07
72Q010,高雄農改場,2013-03-27,22.709333,120.525889,4.1796323e-08
C0SA40,瑞和,2013-03-27,22.974361,121.156697,7.82724e-07
C0C680,龜山,2013-03-27,25.02846,121.38656,4.3992627e-09
C2V260,月眉,2013-03-27,22.971003,120.539853,1.4915157e-09
C0V450,鳳森,2013-03-27,22.545064,120.392592,7.200695e-09
C0U720,南山,2013-03-27,24.43742,121.38167,9.980443e-10
A2N290,臺南蘭花園區,2013-03-27,23.340258,120.379661,6.986901e-10
C0R560,新園,2013-03-27,22.5434,120.461558,6.275029e-08
C0U890,三星,2013-03-27,24.66812,121.65302,2.3985681e-08
C1V300,御油山,2013-03-27,23.001983,120.715364,1.0031954e-09
C0U600,礁溪,2013-03-27,24.817539,121.765608,4.2842778e-08
C1T980,龍澗,2013-03-27,24.023289,121.411328,1.8919766e-09
C0D670,海天一線,2013-03-27,24.831986,120.914438,1.6543081e-09
C0SA00,歷坵,2013-03-27,22.520969,120.89185,8.602273e-09
C0M710,東石,2013-03-27,23.458927,120.15385,1.5480967e-09
C0M780,鹿草,2013-03-27,23.41134,120.30835,9.637979e-10
C0U520,雙連埤,2013-03-27,24.753033,121.641303,2.8104254e-09
C0B010,七堵,2013-03-27,25.094819,121.71713,3.1720978e-07
C0R480,長治,2013-03-27,22.693128,120.542622,3.9966683e-09
C1V830,國三S383K,2013-03-27,22.781967,120.426475,1.7381169e-09
12Q980,恆春工作站,2013-03-27,22.079678,120.714425,0.01644763
C1O940,東山服務區,2013-03-27,23.286016,120.398472,6.6321454e-10
C1U840,東澳嶺,2013-03-27,24.5378,121.8485,8.169376e-09
C1D630,飛鳳山,2013-03-27,24.766464,121.119178,4.7862764e-10
C0S940,石寧山,2013-03-27,23.223772,121.406639,7.794738e-09
C0K410,北港,2013-03-27,23.573957,120.292802,1.0560708e-09
C2M620,瑞里,2013-03-27,23.545133,120.675197,4.3754445e-10
C0SB70,小港漁港,2013-03-27,23.158558,121.400431,1.3964836e-08
C2O950,安南,2013-03-27,23.076694,120.144861,5.2988973e-09
C0F0E0,南湖圈谷,2013-03-27,24.363714,121.444667,1.5638564e-08
467610,成功,2013-03-27,23.097486,121.373428,0.00013816236
C0G890,伸港,2013-03-27,24.148933,120.484403,9.338564e-10
C2E540,龍溪,2013-03-27,24.606489,120.783933,7.594241e-10
C1V200,梅山,2013-03-27,23.268447,120.823556,6.189237e-10
C0T9H0,加路蘭山,2013-03-27,23.682947,121.5274,8.668055e-09
C2O930,玉井,2013-03-27,23.126042,120.46055,7.52615e-10
C1F911,新伯公,2013-03-27,24.221361,120.841069,4.9008923e-07
C0R490,九如,2013-03-27,22.7405,120.490503,4.9150223e-08
C0X200,左鎮,2013-03-27,23.056758,120.408522,7.3394496e-10
C0SB50,叭嗡嗡,2013-03-27,23.047062,121.343223,4.3578503e-08
C1F891,稍來,2013-03-27,24.265689,121.001142,6.8010384e-09
72N240,七股研究中心,2013-03-27,23.081672,120.062894,6.898185e-09
C0C700,中壢,2013-03-27,24.977661,121.256375,1.1881108e-09
C0M690,水上,2013-03-27,23.419734,120.388909,4.4766854e-10
C0V690,鼓山,2013-03-27,22.623325,120.275575,5.6775644e-07
C0O860,大內,2013-03-27,23.11885,120.36083,6.935544e-10
C0Z200,萬榮,2013-03-27,23.709219,121.420106,1.0336817e-07
C0T9D0,和中,2013-03-27,24.26676,121.74103,0.1495624
C1O921,楠西,2013-03-27,23.183511,120.484083,6.7579625e-10
C0AJ30,淡水觀海,2013-03-27,25.184591,121.408616,1.0087948e-08
C0V810,左營,2013-03-27,22.67491,120.28491,6.923608e-07
C0UA70,桃源谷,2013-03-27,24.962606,121.888875,2.300573e-08
C0X130,官田,2013-03-27,23.193217,120.315422,1.2648315e-09
C1H000,翠峰,2013-03-27,24.109397,121.205211,2.678588e-09
C0UA90,石城,2013-03-27,24.980444,121.951214,2.867665e-06
C1E681,南勢山,2013-03-27,24.421669,120.923831,5.504488e-09
C0A9F0,內湖,2013-03-27,25.079422,121.57545,6.2382584e-09
C0K291,宜梧,2013-03-27,23.536281,120.169329,1.5654282e-09
C1K540,口湖,2013-03-27,23.585344,120.180517,1.8333154e-09
C0R780,滿州,2013-03-27,22.024403,120.839892,0.025235271
C0V870,文安,2013-03-27,22.8025,120.2164,4.8069824e-09
C0U650,玉蘭,2013-03-27,24.675286,121.587061,1.6792649e-08
C0R640,東港,2013-03-27,22.46247,120.44074,7.9465207e-07
K2E360,苗栗農改,2013-03-27,24.495722,120.829111,1.2019027e-09
C0AJ80,板橋,2013-03-27,25.0107,121.4489,4.4130455e-09
C0S660,下馬,2013-03-27,23.150427,121.070312,3.1995824e-09
C1H9B1,阿眉,2013-03-27,24.1263,120.994672,1.1097378e-08
C0UA20,多加屯,2013-03-27,24.368614,121.373189,3.845736e-09
C0E730,頭份,2013-03-27,24.688247,120.912206,1.3898187e-09
72V140,高改旗南分場,2013-03-27,22.857861,120.516667,8.344874e-10
C0K480,莿桐,2013-03-27,23.761192,120.502372,4.874286e-10
C0U980,坪林石牌,2013-03-27,24.86478,121.77396,1.4056309e-08
C0T900,西林,2013-03-27,23.8119,121.441458,7.3482674e-08
C1I150,青雲,2013-03-27,23.793361,120.949378,6.290847e-08
467350,澎湖,2013-03-27,23.565503,119.563094,5.1655445e-07
C0G800,埔鹽,2013-03-27,24.000394,120.431683,7.61998e-10
C0H960,草屯,2013-03-27,23.973672,120.68085,3.47932e-09
C1V780,多納林道,2013-03-27,22.888028,120.737917,5.649538e-10
C0E920,通霄漁港,2013-03-27,24.498589,120.673876,1.3108689e-09
C0Z330,安通山,2013-03-27,23.290728,121.348528,3.845494e-09
C0AH10,永和,2013-03-27,25.01125,121.508111,6.5919687e-09
C0AK10,太平里,2013-03-27,25.134937,121.364899,1.0287916e-08
C2G640,鹿港,2013-03-27,24.0753,120.430481,7.627338e-10
C1E890,國三N149K,2013-03-27,24.463414,120.680019,1.1625091e-09
C1R110,口社,2013-03-27,22.770111,120.645222,7.980726e-09
C1M870,國三N285K,2013-03-27,23.550319,120.505833,5.042065e-10
467050,新屋,2013-03-27,25.006744,121.047486,3.5292093e-08
C1E480,鳳美,2013-03-27,24.554803,121.034747,3.0545424e-09
C0M530,奮起湖,2013-03-27,23.493903,120.699253,4.9857096e-10
C0C590,觀音,2013-03-27,25.027072,121.153317,6.082103e-09
C0T9M0,靜浦,2013-03-27,23.455167,121.495028,1.1713507e-05
C2H9M0,發祥,2013-03-27,24.154094,121.164517,2.2575481e-05
C0AI40,石牌,2013-03-27,25.115597,121.513139,4.4130455e-09
C1F871,上谷關,2013-03-27,24.203483,121.018644,7.2981337e-09
C2H9G0,百勝,2013-03-27,24.051142,120.909361,1.2362376e-07
C0G880,二水,2013-03-27,23.810742,120.6173,1.2904817e-09
C0R940,加祿堂,2013-03-27,22.3363,120.6217,4.170952e-07
C0W220,北竿,2013-03-27,26.220358,119.974881,2.7284712e-09
C0O960,崎頂,2013-03-27,22.959547,120.369317,5.444363e-10
C0S750,向陽,2013-03-27,23.248397,120.986133,1.7915983e-09
C0T9F0,水璉,2013-03-27,23.797131,121.542514,4.0837378e-08
C1M600,頭凍,2013-03-27,23.406364,120.603339,3.13428e-10
467660,臺東,2013-03-27,22.752211,121.154586,6.2933975e-07
C1D380,新埔,2013-03-27,24.84745,121.03834,1.0161927e-09
C2G980,田頭村,2013-03-27,23.8263,120.444175,5.775554e-10
C0V750,路竹,2013-03-27,22.854997,120.259439,1.8627153e-09
C0N050,蚵寮,2013-03-27,23.301,120.1104,2.5401268e-09
72M700,南改鹿草分場,2013-03-27,23.416869,120.283061,9.852321e-10
C1SA50,利嘉林道,2013-03-27,22.82325,121.009389,1.2753937e-09
467550,玉山,2013-03-27,23.487614,120.959522,1.1438973e-08
C0A940,金山,2013-03-27,25.223628,121.643967,2.8587058e-08
C1V340,大津,2013-03-27,22.888322,120.645986,7.538556e-08
C0W180,七美,2013-03-27,23.219333,119.444892,5.4721386e-07
C1F9C1,白冷,2013-03-27,24.182844,120.929889,2.5852237e-06
K2E710,苗改生物防治研究中心,2013-03-27,24.422861,120.871833,1.4453839e-09
C0N040,蘆竹溝,2013-03-27,23.2344,120.0961,2.5401268e-09
C2W230,畜試所澎湖,2013-03-27,23.628342,119.513206,1.4535216e-07
C0R880,後壁湖,2013-03-27,21.9457,120.7457,0.013235939
C1I280,埔中,2013-03-27,23.820778,120.642594,1.254182e-09
467790,墾丁雷達站,2013-03-27,21.948235,120.808028,0.030866258
C0W190,望安,2013-03-27,23.380564,119.494075,3.3729214e-07
466881,新北,2013-03-27,24.9593,121.52,5.7931206e-09
C0Z170,卓溪,2013-03-27,23.3443,121.3029,1.8500087e-08
C0F850,東勢,2013-03-27,24.246428,120.833047,7.1878196e-07
466900,淡水,2013-03-27,25.164889,121.448906,9.691073e-09
C0I370,魚池,2013-03-27,23.895703,120.94135,5.0432238e-08
C0C630,大溪,2013-03-27,24.882853,121.265547,1.1648129e-09
C0A520,山佳,2013-03-27,24.974944,121.402008,4.101088e-09
C0I110,竹山,2013-03-27,23.761225,120.688156,3.1569667e-09
82H840,茶改南部分場,2013-03-27,23.762528,120.7405,1.492358e-07
C0G660,溪湖,2013-03-27,23.94835,120.479122,5.7084193e-10
C1T800,洛韶,2013-03-27,24.204558,121.453956,5.1375335e-09
C1T810,慈恩,2013-03-27,24.192044,121.388386,1.9194264e-09
C1E451,象鼻,2013-03-27,24.368617,120.940228,5.504488e-09
C0AC60,三峽,2013-03-27,24.939025,121.369728,5.6691e-09
C0I490,萬大林道,2013-03-27,23.928228,121.091411,3.5718166e-09
C1I290,豐丘,2013-03-27,23.668178,120.887417,5.0649474e-10
C1I320,奧萬大,2013-03-27,23.952956,121.178556,4.5510575e-08
C2M910,嘉義大學,2013-03-27,23.471325,120.485903,7.3452755e-10
C0U770,南澳,2013-03-27,24.44935,121.81022,2.9754381e-05
C0A980,社子,2013-03-27,25.109508,121.469681,4.774152e-09
C0V800,六龜,2013-03-27,22.997889,120.633583,5.456768e-09
C1G9D0,國一S218K,2013-03-27,23.890641,120.493253,5.4803695e-10
C0E570,白沙屯,2013-03-27,24.549447,120.696803,1.3108689e-09
C2F9A0,中竹林,2013-03-27,24.103556,120.751061,3.3072354e-07
C0FA40,臺中電廠,2013-03-27,24.2146,120.4907,1.1687051e-09
C2G9A0,畜試所彰化,2013-03-27,23.86045,120.557964,7.2683876e-10
C0H9C0,合歡山,2013-03-27,24.143442,121.272547,1.1289672e-08
C0X060,下營,2013-03-27,23.22695,120.256261,1.4366821e-09
G2M350,農試溪口農場,2013-03-27,23.58565,120.408111,4.79869e-10
C0U860,頭城,2013-03-27,24.85323,121.8308,4.569785e-08
C0R580,南州,2013-03-27,22.48591,120.50274,7.45872e-08
C0D430,峨眉,2013-03-27,24.6905,121.017189,4.8285127e-09
C0G780,秀水,2013-03-27,24.03405,120.503869,6.7088385e-10
72N100,臺南農改場,2013-03-27,23.0605,120.342194,1.2970086e-09
C0S900,蘭嶼高中,2013-03-27,22.04909,121.51214,0.0002415541
467540,大武,2013-03-27,22.355675,120.903789,0.90975684
C1F9W0,德基,2013-03-27,24.254783,121.190261,4.3897764e-08
C1Z120,壽豐,2013-03-27,23.870853,121.508081,3.786625e-07
C0W160,烏坵,2013-03-27,24.9944,119.44956,3.634494e-08
C1I240,外大坪,2013-03-27,23.958697,120.917931,1.5403064e-06
C1I550,國六W023K,2013-03-27,23.979067,120.867742,4.2796223e-08
C0R870,興海,2013-03-27,21.9752,120.8439,0.02133176
C0R140,瑪家,2013-03-27,22.682903,120.686639,3.909585e-09
C0A530,坪林,2013-03-27,24.938183,121.70975,8.023095e-09
C0X260,後壁,2013-03-27,23.366358,120.362326,5.812753e-10
C0Z230,和平,2013-03-27,24.30717,121.77007,0.1495624
C0G770,福興,2013-03-27,24.041289,120.437669,7.61998e-10
C0H9A0,神木村,2013-03-27,23.532742,120.843667,8.114491e-10
C0I460,南投,2013-03-27,23.911469,120.687331,6.6403256e-09
C0I480,梅峰,2013-03-27,24.085272,121.173572,5.947742e-09
C1V570,吉東,2013-03-27,22.85422,120.5454,7.518646e-10
C2D740,屯原,2013-03-27,24.067969,121.209389,5.42132e-09
C2A560,福山,2013-03-27,24.776203,121.502811,1.638622e-09
C0AH30,五分山,2013-03-27,25.07125,121.780794,8.245252e-09
C0FA10,松柏,2013-03-27,24.429115,120.617482,1.8929187e-09
72S200,東改班鳩分場,2013-03-27,22.829528,121.077694,1.2564374e-07
72HA00,中改埔里分場,2013-03-27,23.903208,120.963364,6.9845896e-08
C2H9W0,大坪頂農水,2013-03-27,24.043122,120.932781,1.6457665e-06
C0C650,平鎮,2013-03-27,24.897503,121.214636,1.0049592e-09
C0S930,延平,2013-03-27,22.902581,121.084058,1.7197564e-08
C0UA60,樟樹山,2013-03-27,24.41393,121.78325,9.830292e-08
C1S670,摩天,2013-03-27,23.199503,121.027,1.6313093e-09
C0V630,茄萣,2013-03-27,22.906642,120.182608,1.5002472e-08
466940,基隆,2013-03-27,25.133314,121.740475,4.7254557e-07
C0X050,東河,2013-03-27,23.296598,120.385608,6.986901e-10
C0R770,保力,2013-03-27,22.071122,120.764111,0.03787806
G2L020,農試嘉義分所,2013-03-27,23.485028,120.473806,6.542588e-10
C0X240,關子嶺,2013-03-27,23.331169,120.508025,4.5869483e-10
C0I380,集集,2013-03-27,23.828206,120.801467,5.3868208e-09
466990,花蓮,2013-03-27,23.975128,121.613275,2.1306711e-08
C1V220,小關山,2013-03-27,23.154217,120.813603,1.2805612e-09
C1F9G1,慶福山,2013-03-27,24.180853,120.848378,3.1067532e-07
C0Z250,瑞穗林道,2013-03-27,23.49284,121.30688,3.597497e-09
C0D590,新豐,2013-03-27,24.87068,120.97721,3.694631e-08
C0A870,五指山,2013-03-27,25.132153,121.608692,6.4574563e-09
C0UA50,西帽山,2013-03-27,24.555361,121.802628,4.7470756e-09
C0X160,仁德,2013-03-27,22.968258,120.257689,1.8728614e-09
C1H971,六分寮,2013-03-27,23.92507,120.6378,5.7142363e-10
C0W120,西嶼,2013-03-27,23.5626,119.468436,5.1655445e-07
C0G650,員林,2013-03-27,23.946503,120.585597,6.89467e-10
C0AD50,鶯歌,2013-03-27,24.951533,121.346294,4.8164077e-09
C2H9Q0,北東眼山,2013-03-27,24.120939,121.189303,5.4391345e-09
C2H9T0,名間竹圍,2013-03-27,23.859914,120.637572,2.1238822e-09
C0S990,山豬窟,2013-03-27,22.318619,120.857372,0.0003656512
72Q010,高雄農改,2013-03-27,22.709333,120.525889,4.1796323e-08
C0X190,安平,2013-03-27,22.993161,120.152181,3.805778e-09
C0K400,斗六,2013-03-27,23.720583,120.541127,4.7453713e-10
12J990,口湖工作站,2013-03-27,23.589978,120.180394,1.8027146e-09
C0O830,北寮,2013-03-27,23.079561,120.495008,1.5335375e-09
C1D410,白蘭,2013-03-27,24.579364,121.079947,2.37898e-09
C0S970,加津林,2013-03-27,22.416211,120.926942,0.9311152
C0D700,關西,2013-03-27,24.7977,121.1732,1.2928617e-09
C0M810,里佳,2013-03-27,23.389125,120.716647,4.9857096e-10
C0U750,龜山島,2013-03-27,24.841667,121.953133,1.5459317e-08
C0R810,內獅,2013-03-27,22.305064,120.642986,4.170952e-07
C1M390,龍美,2013-03-27,23.406728,120.654417,3.8054856e-10
C2FB60,頭櫃山,2013-03-27,24.129842,120.858925,1.7040553e-05
C1H840,國三N238K,2013-03-27,23.841008,120.707711,4.9641153e-09
CAQ030,崎峰國小,2013-03-27,22.42565,120.49521,7.45872e-08
C2E520,大湖,2013-03-27,24.414939,120.870872,1.5209651e-09
467530,阿里山,2013-03-27,23.508208,120.813242,1.8621611e-09
C1E691,南湖,2013-03-27,24.40135,120.837533,7.0414785e-08
C0FA30,梧棲,2013-03-27,24.256003,120.523381,1.1687051e-09
C1V231,高中,2013-03-27,23.134911,120.716711,5.690851e-10
C0F9V0,新社,2013-03-27,24.200172,120.815806,7.293795e-08
C0H890,埔里,2013-03-27,23.972169,120.952425,4.301155e-06
C0R690,墾丁,2013-03-27,21.966756,120.810269,0.012862694
C0F0D0,審馬陣,2013-03-27,24.381675,121.4203,8.248083e-09
C0R820,白鷺,2013-03-27,22.454275,120.666219,1.0558577e-08
U2H480,臺大溪頭,2013-03-27,23.670306,120.798194,5.8290517e-10
C1V190,南天池,2013-03-27,23.27403,120.91176,2.3355398e-09
K2E360,苗栗農改場,2013-03-27,24.495722,120.829111,1.2019027e-09
CAJ050,海口故事園區,2013-03-27,23.57543,120.14121,1.8333154e-09
C2H9D0,三隻寮,2013-03-27,24.093078,120.861578,1.2781786e-06
C0O990,媽廟,2013-03-27,22.99175,120.293525,1.6674897e-09
C0D480,打鐵坑,2013-03-27,24.849664,121.150789,5.68956e-10
C0Z220,和平林道,2013-03-27,24.343922,121.656317,9.27283e-08
C0TA10,花蓮漁港,2013-03-27,23.995322,121.638331,2.1860673e-08
72C440,桃園農改場,2013-03-27,24.950944,121.030583,2.4502414e-08
C1E711,馬拉邦山,2013-03-27,24.367306,120.901656,9.635301e-09
C0SB20,富岡,2013-03-27,22.792467,121.192669,5.4232197e-07
C0D560,竹東,2013-03-27,24.767147,121.057881,1.2436958e-09
C0F9U0,南屯,2013-03-27,24.137006,120.637969,6.719737e-10
C0M720,番路,2013-03-27,23.464657,120.554156,4.82886e-10
C0F0A0,雪山圈谷,2013-03-27,24.388594,121.236339,2.4198576e-08
C1A9N0,四十份,2013-03-27,24.934158,121.593283,3.1681684e-09
C0U760,東澳,2013-03-27,24.52196,121.83318,1.7362812e-07
C0X230,鹽水,2013-03-27,23.272621,120.247641,1.6976786e-09
C2H9H0,苗改南投蜂場,2013-03-27,23.852589,120.693481,3.1569667e-09
C0R950,萬隆國小,2013-03-27,22.507667,120.587817,9.706223e-09
C0V370,古亭坑,2013-03-27,22.893178,120.401947,1.1069722e-09
C1I340,新興橋,2013-03-27,23.563333,120.868728,3.7809084e-10
C0SA80,土坂,2013-03-27,22.453108,120.887572,7.175505e-07
C0R160,鹽埔,2013-03-27,22.739558,120.530778,4.4615915e-09
C0AC40,大屯山,2013-03-27,25.175675,121.522408,6.714782e-09
466850,五分山雷達站,2013-03-27,25.071182,121.781205,8.229635e-09
C2H9L0,馬烈霸,2013-03-27,24.1512,121.201772,5.448583e-09
C1AI50,國三N016K,2013-03-27,25.034164,121.619664,5.402193e-09
C1V600,藤枝,2013-03-27,23.071961,120.757042,9.156176e-10
C1E601,南勢,2013-03-27,24.572486,120.734842,7.1003947e-10
C0Z180,新城,2013-03-27,24.03946,121.60454,1.909517e-08
C0O980,新市,2013-03-27,23.061614,120.298197,1.4324574e-09
C0K420,西螺,2013-03-27,23.800407,120.467394,5.1589766e-10
C0Z050,佳心,2013-03-27,23.34567,121.21316,3.076797e-09
C0AD30,蘆洲,2013-03-27,25.086594,121.472331,4.576028e-09
C0V610,梓官,2013-03-27,22.760558,120.267211,1.6499541e-08
K2F750,種苗改良場,2013-03-27,24.225972,120.800917,1.4018711e-07
C0UA80,大溪漁港,2013-03-27,24.941801,121.902955,4.2884064e-08
C1AI60,國一39K邊坡,2013-03-27,25.064361,121.383836,1.8344007e-08
C0W150,金寧,2013-03-27,24.457703,118.328989,9.382878e-10
C0R960,內埔,2013-03-27,22.608483,120.570714,1.1522183e-08
V2C250,八德合作社,2013-03-27,24.93775,121.266389,1.3402925e-09
C2H9S0,龍南,2013-03-27,23.953536,120.833183,3.61913e-08
C0AH40,平等,2013-03-27,25.129142,121.577086,9.23405e-09
C0R540,佳冬,2013-03-27,22.419456,120.552375,7.485385e-08
466950,彭佳嶼,2013-03-27,25.627975,122.079744,9.9606915e-08
C0A890,雙溪,2013-03-27,25.036003,121.864242,2.580979e-07
C0C480,桃園,2013-03-27,24.992425,121.323172,1.2590547e-09
C0AH50,林口,2013-03-27,25.072181,121.38084,9.67209e-09
A2K360,水試臺西試驗場,2013-03-27,23.717231,120.190522,1.2322838e-09
B2N890,畜試所,2013-03-27,23.058972,120.336406,1.2970086e-09
C2M960,外寮,2013-03-27,23.562643,120.665688,4.312871e-10
C0F9S0,烏日,2013-03-27,24.107058,120.624103,6.4353217e-10
C0C490,八德,2013-03-27,24.928708,121.283289,1.5745104e-09
C0R190,赤山,2013-03-27,22.592333,120.614306,1.0289839e-08
C0T820,天祥,2013-03-27,24.179597,121.495639,4.7857604e-08
C1F9E1,龍安,2013-03-27,24.1605,120.831961,3.7492217e-08
C0V820,小林,2013-03-27,23.148408,120.63325,9.537311e-10
C2G870,芳苑,2013-03-27,23.922303,120.320025,1.4332089e-09
C0E850,大河,2013-03-27,24.618069,120.948578,4.1325018e-10
C1U670,寒溪,2013-03-27,24.634,121.71691,3.8695265e-07
C0N020,城西,2013-03-27,23.0568,120.0956,6.150159e-09
C1Z110,三棧,2013-03-27,24.11557,121.60501,4.725836e-09
C0R280,檳榔,2013-03-27,22.076078,120.836777,0.011357248
C2H9J0,中台,2013-03-27,23.9996,120.938739,6.553891e-07
C0F9L0,后里,2013-03-27,24.310436,120.729725,3.1991904e-10
C0D540,橫山,2013-03-27,24.71116,121.11693,4.4683937e-10
C1D420,太閣南,2013-03-27,24.632808,121.160575,3.717693e-10
C1E770,公館,2013-03-27,24.526914,120.830806,1.1322273e-09
CAN130,水試所海水繁養殖中心,2013-03-27,23.120802,120.07968,6.898185e-09
C1I430,翠華,2013-03-27,24.191961,121.224339,3.2001501e-09
C1M400,菜瓜坪,2013-03-27,23.251928,120.576103,8.93628e-10
C0G730,二林,2013-03-27,23.903325,120.376081,8.9625335e-10
72M360,南改義竹分場,2013-03-27,23.360694,120.279361,9.634507e-10
V2K620,麥寮合作社,2013-03-27,23.753836,120.294783,1.1779321e-09
C0Z070,舞鶴,2013-03-27,23.46811,121.37407,6.685329e-08
C0B040,大武崙,2013-03-27,25.166676,121.706993,3.1721038e-07
C1Z030,紅葉,2013-03-27,23.493119,121.338806,9.553212e-08
C1I050,丹大,2013-03-27,23.753747,121.141147,3.0275362e-09
C0I080,信義,2013-03-27,23.689694,120.851036,2.2612143e-09
C2M920,朴子農改,2013-03-27,23.469889,120.259383,1.073168e-09
C2A880,福隆,2013-03-27,25.017842,121.942083,1.2469932e-06
C0Z160,鳳林,2013-03-27,23.746114,121.453411,9.264985e-07
C0V210,復興,2013-03-27,23.222403,120.806089,9.695117e-10
C0H990,昆陽,2013-03-27,24.121322,121.273642,6.7524515e-09
C0R741,獅子,2013-03-27,22.202308,120.705236,4.5073684e-06
C0S710,鹿野,2013-03-27,22.917711,121.122994,7.093211e-09
C0I530,小奇萊,2013-03-27,24.131764,121.295717,8.004814e-09
C2K630,荷苞,2013-03-27,23.657717,120.595144,3.901875e-09
C0Z080,富源,2013-03-27,23.587642,121.378225,8.1623085e-08
467441,高雄,2013-03-27,22.7304,120.3125,6.923608e-07
C0SB10,美和,2013-03-27,22.682078,121.060236,0.00012284466
C2K620,馬光農場,2013-03-27,23.721453,120.378864,5.4744564e-10
C1I140,卡奈托灣,2013-03-27,23.754364,121.087872,5.062629e-10
C0I520,玉山風口,2013-03-27,23.470489,120.955994,1.2041267e-08
C1G691,下水埔,2013-03-27,23.816114,120.5676,2.6701712e-09
C0X110,臺南市南區,2013-03-27,22.961189,120.188378,3.4872127e-09
C0V680,仁武,2013-03-27,22.701083,120.347722,4.981338e-07
C2G840,北斗,2013-03-27,23.877586,120.514222,5.361418e-10
C0R900,竹坑,2013-03-27,22.1385,120.7022,0.0008091748
C0K250,崙背,2013-03-27,23.75555,120.318925,1.1145377e-09
C0G860,社頭,2013-03-27,23.897647,120.5862,7.0350953e-10
C0X150,安定,2013-03-27,23.102614,120.227839,2.7808105e-09
C0R590,里港,2013-03-27,22.77919,120.49459,1.8428971e-09
C0E610,馬都安,2013-03-27,24.451272,120.930192,1.199221e-07
C0E550,明德,2013-03-27,24.583486,120.885411,4.251979e-10
C0R150,三地門,2013-03-27,22.709889,120.639944,1.6683623e-08
C0G910,花壇,2013-03-27,24.032076,120.549461,6.271852e-10
C1D400,鳥嘴山,2013-03-27,24.71909,121.28387,6.687427e-10
C0K500,元長,2013-03-27,23.64981,120.315024,8.4361906e-10
C0F0B0,石岡,2013-03-27,24.276061,120.777644,1.2624886e-07
C2V250,甲仙,2013-03-27,23.080106,120.591758,5.742995e-10
C0SA20,金崙山,2013-03-27,22.567419,120.959667,1.7903173e-09
C0V350,溪埔,2013-03-27,22.738578,120.446797,4.1466237e-08
C0M660,溪口,2013-03-27,23.604131,120.403569,4.79869e-10
C1S880,壽卡,2013-03-27,22.238911,120.858903,2.4924911e-05
72D680,桃改新埔分場,2013-03-27,24.834444,121.066111,2.3284719e-09
