站號,站名,日期,lat,lon,BLBTSLS
C0R710,龍磐,2013-12-18,21.931672,120.838942,0.25573522
C1F9D1,白毛台,2013-12-18,24.158325,120.886933,3.725482e-09
C0G940,竹塘,2013-12-18,23.848253,120.386764,6.364865e-09
467590,恆春,2013-12-18,22.003897,120.746339,0.49309185
C1O850,環湖,2013-12-18,23.148617,120.418633,1.0283443e-08
C0U710,太平山,2013-12-18,24.505486,121.525656,2.7792689e-08
C0E820,獅潭,2013-12-18,24.539133,120.920042,2.1760485e-07
C0V880,興達,2013-12-18,22.8778,120.2127,0.00022355976
C0S890,關山,2013-12-18,23.0395,121.175017,6.455403e-07
C0SB30,新蘭,2013-12-18,22.869214,121.223228,0.029935783
C2R970,屏科大,2013-12-18,22.648275,120.619247,1.41072e-09
K2F750,種苗繁殖,2013-12-18,24.225972,120.800917,4.986815e-09
C1Z130,銅門,2013-12-18,23.965694,121.492842,4.593769e-07
C0AD40,土城,2013-12-18,24.973208,121.445169,1.1590213e-06
CAN140,六官養殖協會,2013-12-18,23.22881,120.29962,7.59465e-09
C0X180,山上,2013-12-18,23.0757,120.363253,3.7810475e-09
C0F9Z0,雪山東峰,2013-12-18,24.388792,121.268675,3.1095897e-08
C1M480,獨立山,2013-12-18,23.537022,120.607797,3.8425543e-09
C0X220,學甲,2013-12-18,23.230367,120.182187,9.597373e-08
467650,日月潭,2013-12-18,23.881325,120.90805,6.082544e-09
C0K600,箔子寮,2013-12-18,23.6197,120.14,1.4333101e-07
C0G830,埤頭,2013-12-18,23.866003,120.452806,1.29978535e-08
C0S950,七塊厝,2013-12-18,22.954453,121.229922,1.1909739e-07
467110,金門,2013-12-18,24.407306,118.289281,0.9998233
C0AH80,深坑,2013-12-18,25.002703,121.628328,7.6542176e-07
467990,馬祖,2013-12-18,26.169269,119.923419,9.2443095e-08
C0A970,三貂角,2013-12-18,25.007606,122.002058,9.06985e-08
C2D730,寶山農場,2013-12-18,24.732444,120.976153,8.6864875e-06
C0K430,褒忠,2013-12-18,23.690938,120.303634,3.8863868e-07
467480,嘉義,2013-12-18,23.495925,120.432906,3.2895095e-08
C2E540,後龍,2013-12-18,24.606489,120.783933,0.024189169
C0V400,阿公店,2013-12-18,22.804194,120.355528,4.8687414e-09
C0R440,大漢山,2013-12-18,22.405264,120.753181,1.4037715e-08
C0K280,四湖,2013-12-18,23.630414,120.227125,5.616657e-06
C1F9B1,桐林,2013-12-18,24.066172,120.735194,3.3525709e-09
C2H9U0,鳳鵬,2013-12-18,23.763919,120.788061,2.3885052e-09
C0K390,土庫,2013-12-18,23.679029,120.395574,3.5354597e-09
C1I450,望鄉山,2013-12-18,23.594153,120.944286,2.5204711e-08
C0E910,海埔,2013-12-18,24.648767,120.772435,4.1341587e-05
B2E890,畜試北區分所,2013-12-18,24.527806,120.770972,0.00435467
C0R750,四林格山,2013-12-18,22.076989,120.802439,0.9998638
C0F0C0,中坑,2013-12-18,24.248517,120.903319,6.1003895e-09
C1I121,大鞍,2013-12-18,23.678381,120.760017,7.637868e-09
72U480,花改蘭陽分場,2013-12-18,24.686306,121.716583,5.9879716e-07
C0A770,科教館,2013-12-18,25.096356,121.516507,1.2739922e-06
C0AJ60,六塊厝,2013-12-18,25.24,121.4481,1.0028421e-05
C0R620,墾雷,2013-12-18,21.900836,120.855269,0.43074888
467420,永康,2013-12-18,23.038386,120.2367,6.608541e-06
467300,東吉島,2013-12-18,23.25695,119.667467,0.9995499
C0I410,名間,2013-12-18,23.837053,120.701447,2.6255522e-09
A2C560,農工中心,2013-12-18,24.985917,121.239833,3.9841798e-05
C0V740,旗山,2013-12-18,22.888614,120.483597,1.9649791e-08
C0Z061,玉里,2013-12-18,23.3215,121.339656,1.969578e-07
C0S840,南田,2013-12-18,22.279725,120.889208,0.9903473
C1I470,杉林溪,2013-12-18,23.639517,120.786444,9.323495e-09
C1X040,東原,2013-12-18,23.291597,120.463822,2.1527e-09
C0R660,枋寮,2013-12-18,22.367722,120.590647,5.5517884e-09
C1R120,上德文,2013-12-18,22.763272,120.704442,2.8645132e-08
C0K450,大埤,2013-12-18,23.646074,120.431537,2.4097604e-09
C0UA00,土場,2013-12-18,24.576533,121.495333,3.976361e-08
467080,宜蘭,2013-12-18,24.763975,121.756528,9.821165e-08
C0N030,四草,2013-12-18,23.0235,120.1116,0.0110644195
C0V650,彌陀,2013-12-18,22.783806,120.246361,7.1351064e-06
C0D660,新竹市東區,2013-12-18,24.798681,120.986942,9.982888e-05
82S580,茶改東部分場,2013-12-18,22.907694,121.130139,2.2114632e-07
C0SB40,興隆,2013-12-18,22.913661,121.257469,4.867978e-07
C0C710,大溪永福,2013-12-18,24.892936,121.324975,2.320836e-05
C0FA20,溫寮,2013-12-18,24.372177,120.583125,0.004153095
C0V640,湖內,2013-12-18,22.887139,120.2445,0.00010102044
C0R910,下寮,2013-12-18,22.3929,120.5548,2.4397952e-08
C0Z020,明里,2013-12-18,23.208717,121.262342,7.94325e-08
C0M770,嘉義梅山,2013-12-18,23.585398,120.555587,3.4174947e-09
G2F820,農業試驗所,2013-12-18,24.031261,120.688133,8.99213e-08
C0C660,楊梅,2013-12-18,24.912375,121.143047,8.954176e-06
C1E511,新開,2013-12-18,24.347703,120.827019,5.4436593e-09
G2F820,農試所(霧峰),2013-12-18,24.031261,120.688133,8.99213e-08
C1I070,和社,2013-12-18,23.591131,120.888861,3.1754945e-09
C2F000,大肚,2013-12-18,24.15295,120.572117,1.1421096e-08
C1S850,豐南,2013-12-18,23.122139,121.262389,6.265939e-08
C2A920,富貴角,2013-12-18,25.263783,121.565258,4.261286e-06
CAH030,茶改場竹圍站,2013-12-18,23.860083,120.637528,2.5131828e-09
C0T960,光復,2013-12-18,23.660694,121.424964,1.233854e-06
C0F9M0,豐原,2013-12-18,24.254322,120.720692,7.385221e-08
C0R720,旭海,2013-12-18,22.205403,120.887614,0.99993604
C0V710,苓雅,2013-12-18,22.622742,120.330669,1.317162e-07
C0C740,觀音工業區,2013-12-18,25.064764,121.114856,0.004728589
CAC040,拉拉山,2013-12-18,24.699317,121.427133,1.5237303e-08
C0V790,萬山,2013-12-18,22.905944,120.688056,1.9873785e-09
U2HA30,臺大和社,2013-12-18,23.590856,120.888864,3.1754945e-09
C0AJ90,澳底,2013-12-18,25.0552,121.9253,1.3272725e-07
C0Z100,東華,2013-12-18,23.89525,121.549833,1.7090935e-06
C0G970,三豐,2013-12-18,23.882,120.2895,0.0002059373
V2K610,大庄合作社,2013-12-18,23.8068,120.367939,1.2385852e-06
C0V900,汕尾,2013-12-18,22.4782,120.4151,6.6974377e-09
C1R630,龍泉,2013-12-18,22.66701,120.59091,2.6124993e-09
C1AC50,關渡,2013-12-18,25.133486,121.469331,1.3076141e-06
C0F9I0,神岡,2013-12-18,24.272481,120.658314,8.773313e-08
C0K460,斗南,2013-12-18,23.678734,120.478359,2.468841e-09
467410,臺南,2013-12-18,22.993239,120.204772,5.316761e-06
C2O810,曾文,2013-12-18,23.219681,120.497328,3.4962904e-09
467280,後龍,2013-12-18,24.648563,120.831834,1.4177891e-05
C1F9J1,清水林,2013-12-18,24.071242,120.820419,3.0038212e-09
C2A650,火燒寮,2013-12-18,25.002719,121.742892,6.34338e-08
466930,竹子湖,2013-12-18,25.162078,121.544547,5.3231105e-08
C1I220,樟湖,2013-12-18,23.905333,120.846983,4.768155e-09
C0I390,仁愛,2013-12-18,24.022122,121.132206,6.1672036e-09
C0Z300,東里,2013-12-18,23.26853,121.30547,1.7963235e-07
C1V590,新發,2013-12-18,23.057019,120.646064,1.7093571e-08
C0K510,水林,2013-12-18,23.572924,120.24597,1.4070478e-07
72S590,東改賓朗果園,2013-12-18,22.813889,121.071278,4.8742328e-05
82A750,茶改北部分場,2013-12-18,24.955778,121.631222,1.8911045e-08
C1A750,石碇服務區,2013-12-18,25.00872,121.646242,7.180653e-07
C0X300,鹿寮,2013-12-18,23.386047,120.477331,1.5214264e-09
G2AI50,關渡,2013-12-18,25.11575,121.492,1.3336131e-06
C0K590,雲林東勢,2013-12-18,23.674192,120.255721,3.8863868e-07
C0A570,桶後,2013-12-18,24.848222,121.597992,7.7874446e-08
C1S800,華源,2013-12-18,22.657883,121.02325,0.3510579
C0G720,溪州,2013-12-18,23.851589,120.499093,1.1720966e-08
C1V160,達卡努瓦,2013-12-18,23.279811,120.705319,9.094029e-09
C2M410,馬頭山,2013-12-18,23.324361,120.582017,2.0981135e-09
C0V850,蚵仔寮,2013-12-18,22.7256,120.2527,0.0044380846
C0S740,池上,2013-12-18,23.119628,121.209469,1.9477459e-07
C1V390,尖山,2013-12-18,22.813153,120.367789,3.6867802e-09
C0AH70,松山,2013-12-18,25.04871,121.55042,1.0015002e-06
C0N010,鯤鯓國小,2013-12-18,23.1879,120.0889,5.063779e-07
C0R550,新埤,2013-12-18,22.467947,120.582894,2.0424784e-09
C0SA60,知本（水試所）,2013-12-18,22.702394,121.082761,0.9970449
C0T9I0,豐濱,2013-12-18,23.583897,121.514806,1.273079e-06
C0UB00,淡江大學蘭陽校園,2013-12-18,24.823239,121.730383,3.207956e-08
C0W240,九宮,2013-12-18,24.423753,118.240186,0.98680574
C0T9N0,富里,2013-12-18,23.171639,121.249378,7.984049e-08
U2HA50,臺大竹山,2013-12-18,23.756972,120.681556,2.0027136e-09
C0V840,鳳鼻頭,2013-12-18,22.5083,120.3591,1.670592e-07
C0X140,西港,2013-12-18,23.125608,120.203108,1.8983919e-06
72D080,桃改五峰分場,2013-12-18,24.612194,121.157167,7.4059536e-09
C2H9P0,伊拿谷,2013-12-18,23.963211,121.088264,3.912136e-09
C2H9F0,柑林,2013-12-18,24.018658,120.847072,2.5147124e-09
C0TA20,加灣,2013-12-18,24.082025,121.608944,1.4926641e-06
C0V530,阿蓮,2013-12-18,22.883208,120.327508,1.0206826e-07
C1O880,關山,2013-12-18,23.173397,120.594092,2.153924e-09
C0E791,卓蘭,2013-12-18,24.3126,120.8244,5.4512337e-09
C1I030,武界,2013-12-18,23.913225,121.052483,5.1180113e-09
C0R520,崁頂,2013-12-18,22.514781,120.506914,2.2165027e-08
C0R341,牡丹,2013-12-18,22.130036,120.792639,0.36852434
C0R930,萬丹,2013-12-18,22.5885,120.4851,2.0666018e-09
C0S760,紅石,2013-12-18,23.069131,121.126219,2.5460505e-08
C1M610,石磐龍,2013-12-18,23.496606,120.663506,5.9463012e-09
C0UA10,鴛鴦湖,2013-12-18,24.590269,121.412228,1.4987286e-08
V2C260,八德蔬果,2013-12-18,24.978508,121.281819,3.2584448e-06
C0R800,丹路,2013-12-18,22.204481,120.750989,0.9975947
C0G920,永靖,2013-12-18,23.924703,120.547533,2.331282e-07
C2M950,太和,2013-12-18,23.538372,120.702961,7.238232e-09
C1A630,下盆,2013-12-18,24.771003,121.538622,8.61418e-08
B2N890,畜產試驗所,2013-12-18,23.058972,120.336406,7.2866864e-09
C0UA30,白嶺,2013-12-18,24.527819,121.519031,1.8208441e-08
C1V580,溪南(特生中心),2013-12-18,23.084972,120.788475,1.47006e-08
C1T970,大農,2013-12-18,23.615233,121.413331,7.506165e-07
E2S960,林試太麻里2,2013-12-18,22.598014,120.989761,0.9953597
C0R650,竹田,2013-12-18,22.58486,120.54344,2.0666018e-09
C1H900,清流,2013-12-18,24.080775,120.962997,3.855578e-09
C1C510,水尾,2013-12-18,24.940081,121.087161,4.3937158e-05
C0F9X0,大雅(中科園區),2013-12-18,24.21528,120.62445,6.620418e-06
C0SB60,白守蓮,2013-12-18,23.126769,121.401914,0.00012096724
C0O970,虎頭埤,2013-12-18,23.021375,120.347878,3.0921893e-08
C0C730,中大臨海站,2013-12-18,24.966126,121.008581,0.9409084
C0X250,新營,2013-12-18,23.310689,120.316681,4.148314e-09
C0V700,三民,2013-12-18,22.645017,120.311233,1.317162e-07
C0U870,大礁溪,2013-12-18,24.791042,121.675047,2.305163e-08
C0E870,高鐵苗栗,2013-12-18,24.60725,120.826094,0.014158057
A2K570,古坑花卉中心,2013-12-18,23.63353,120.55239,2.533271e-09
C0M860,新美,2013-12-18,23.338017,120.683169,3.2682255e-09
C1E701,八卦,2013-12-18,24.491756,120.927619,1.4914226e-08
C0I420,國姓,2013-12-18,24.037803,120.855072,2.0741997e-09
C2D720,關西工作站,2013-12-18,24.757275,121.184792,2.0457915e-06
C0S960,香蘭,2013-12-18,22.587569,120.993375,0.9953597
C0R260,春日,2013-12-18,22.370361,120.628306,0.9771592
72G600,臺中農改場,2013-12-18,24.003028,120.534389,7.712178e-06
C0Z210,瑞穗,2013-12-18,23.5239,121.39021,1.5917733e-06
C0M820,達邦,2013-12-18,23.453994,120.749517,4.4794124e-09
C0V860,南寮,2013-12-18,22.7616,120.2339,1.451985e-05
C0G740,大城,2013-12-18,23.852487,120.320935,0.00018970873
C0R920,塭仔,2013-12-18,22.4169,120.5197,2.986302e-08
C0R470,高樹,2013-12-18,22.826389,120.600806,2.8740068e-09
C0R680,佳樂水,2013-12-18,21.993578,120.861633,0.5394417
C1O870,大棟山,2013-12-18,23.31157,120.52226,5.3691163e-09
C0D360,梅花,2013-12-18,24.678347,121.208558,2.0614772e-08
C0Z190,富世,2013-12-18,24.14743,121.6297,1.54846e-06
C0AI10,屈尺,2013-12-18,24.92184,121.54475,7.6542176e-07
B2U990,畜試東區分所,2013-12-18,24.669039,121.832561,7.255907e-07
C0SB80,長濱漁港,2013-12-18,23.313644,121.459994,4.8444235e-07
C0R240,來義,2013-12-18,22.527306,120.625111,0.9374378
C0V910,大樹,2013-12-18,22.684645,120.432803,1.28774325e-08
C1R610,西大武山,2013-12-18,22.617719,120.7322,2.1986917e-08
C0G900,線西,2013-12-18,24.143358,120.443536,0.08074062
C0M700,竹崎,2013-12-18,23.526178,120.555508,2.5122626e-09
C2E880,三義,2013-12-18,24.405478,120.749819,6.9894504e-09
C0C720,竹圍,2013-12-18,25.112692,121.239824,8.913825e-06
C0F9P0,清水,2013-12-18,24.312297,120.562242,0.0015022677
C0Z150,吉安光華,2013-12-18,23.930925,121.595153,2.1642943e-06
C1D640,外坪(五指山),2013-12-18,24.644447,121.090961,1.7279469e-08
C0F9O0,潭子,2013-12-18,24.213106,120.703933,4.3703444e-08
C2H9R0,卓社,2013-12-18,23.887894,121.000086,9.451263e-09
72T250,花蓮農改場,2013-12-18,23.975222,121.563889,1.2461218e-06
C0E780,銅鑼,2013-12-18,24.489681,120.790853,9.939282e-07
C1T950,太安,2013-12-18,23.666719,121.370128,3.4868822e-08
C0E830,苑裡,2013-12-18,24.439714,120.653053,0.0019744292
467270,田中,2013-12-18,23.873803,120.581286,2.0461945e-09
C0SA10,檳榔四格山,2013-12-18,22.810031,121.109308,1.0713007e-05
C1T830,布洛灣,2013-12-18,24.17184,121.57127,6.5132656e-07
C0F970,大坑,2013-12-18,24.173142,120.722289,1.5623901e-06
C1U920,思源,2013-12-18,24.393125,121.347214,2.2121146e-08
C0A931,三和,2013-12-18,25.233153,121.595236,9.7960395e-08
C0I010,廬山,2013-12-18,24.033311,121.181808,1.2843851e-08
C2M940,日野賀,2013-12-18,23.434056,120.727169,5.953144e-09
C0R860,鼻頭,2013-12-18,22.1043,120.8979,0.76602775
C0UB20,壯圍,2013-12-18,24.7359,121.8163,7.254419e-07
C0R790,九棚,2013-12-18,22.14195,120.889281,0.9998711
C0W110,東莒,2013-12-18,25.9652,119.98069,0.9907788
C1U930,粉鳥林,2013-12-18,24.497088,121.842479,8.792025e-08
C1I211,蘆竹湳,2013-12-18,23.934019,120.811994,3.3195533e-09
C0S830,長濱,2013-12-18,23.286817,121.411975,7.1636975e-08
C1F9F1,伯公龍,2013-12-18,24.272392,120.849047,7.009222e-09
C0E810,西湖,2013-12-18,24.562947,120.7485,0.0061150067
C1I440,新高口,2013-12-18,23.478744,120.878939,1.8927825e-08
C0O840,王爺宮,2013-12-18,23.222064,120.40085,3.4962904e-09
C0T9G0,鳳林山,2013-12-18,23.735269,121.420131,3.6113798e-07
C0X080,佳里,2013-12-18,23.173039,120.145086,1.0587379e-07
C0FB70,大甲溪埔,2013-12-18,24.370625,120.620067,0.001415134
C0Z310,清水斷崖,2013-12-18,24.218294,121.689142,1.03566745e-05
C0M680,太保,2013-12-18,23.455062,120.331455,7.1239343e-09
C1S820,金峰,2013-12-18,22.590969,120.933236,0.011640946
C0AD10,八里,2013-12-18,25.150211,121.403947,8.913825e-06
C2K240,草嶺,2013-12-18,23.59555,120.693461,5.765156e-09
C1SA70,都蘭,2013-12-18,22.87794,121.226881,4.867978e-07
C0K440,二崙,2013-12-18,23.772797,120.408944,5.7544667e-09
C1A760,坪林交控,2013-12-18,24.94284,121.713442,4.649475e-08
C0F9N0,大里,2013-12-18,24.092464,120.701378,1.1907727e-05
C0SA90,達仁林場,2013-12-18,22.264347,120.823972,0.99732816
C1R290,石門山,2013-12-18,22.112611,120.756597,0.60673064
42HA10,萬大發電廠,2013-12-18,23.978875,121.139639,8.514841e-09
C0R890,山海,2013-12-18,21.9878,120.7091,0.66763914
C0T9A0,月眉山,2013-12-18,23.809928,121.539828,2.2786358e-07
C0AC70,信義,2013-12-18,25.037822,121.564597,1.0015002e-06
C0K560,棋山,2013-12-18,23.68645,120.603417,3.913666e-09
C2FB50,出雲,2013-12-18,24.206469,120.902794,5.733694e-09
C1Z240,中平林道,2013-12-18,23.42115,121.26763,4.8654385e-08
U2H480,溪頭,2013-12-18,23.670306,120.798194,4.604289e-09
C0M880,好美里,2013-12-18,23.3364,120.138,1.0587379e-07
C0T9E0,大坑,2013-12-18,23.880628,121.581981,3.242179e-07
C0K530,臺西,2013-12-18,23.701547,120.197559,1.8622795e-05
C1E900,國一N128K,2013-12-18,24.560997,120.844186,0.0021730848
C0AJ50,水湳洞,2013-12-18,25.123695,121.862238,2.7117052e-05
C0AI20,白沙灣,2013-12-18,25.283128,121.519058,2.8204366e-05
C0A860,大坪,2013-12-18,25.165914,121.632969,7.3302374e-08
C1U850,觀音海岸,2013-12-18,24.38319,121.77856,5.3967785e-08
C2K610,草嶺石壁,2013-12-18,23.602469,120.707731,6.160044e-09
C0U950,鶯子嶺,2013-12-18,24.89754,121.79244,2.3440201e-08
C0O900,善化,2013-12-18,23.112883,120.297219,9.96086e-09
C0K550,蔦松,2013-12-18,23.514319,120.229736,3.67484e-08
E2P980,林試六龜中心,2013-12-18,22.991703,120.645722,2.1477293e-09
C0E590,通霄,2013-12-18,24.471892,120.704622,0.016499113
C1I310,西巒,2013-12-18,23.754486,120.883956,5.1748064e-09
C0A550,泰平,2013-12-18,24.971197,121.823711,3.0984296e-08
C0I360,水里,2013-12-18,23.812553,120.849792,2.4914668e-09
C0R830,高士,2013-12-18,22.121825,120.836781,0.9858124
C1I101,溪頭,2013-12-18,23.661789,120.807647,9.528606e-09
C0AJ20,野柳,2013-12-18,25.20703,121.690021,2.7117052e-05
C0B060,暖暖,2013-12-18,25.0957,121.7403,1.068073e-05
C1H920,長豐,2013-12-18,24.102039,120.879897,3.049501e-09
C0V360,內門,2013-12-18,22.975481,120.466769,1.1470609e-08
C0R850,林邊,2013-12-18,22.4634,120.5339,2.2165027e-08
C0E930,龍鳳,2013-12-18,24.700034,120.859125,7.5041135e-06
C0U910,冬山,2013-12-18,24.63373,121.7937,7.255907e-07
C1E721,泰安,2013-12-18,24.489017,120.968036,8.238744e-09
82H320,茶改中部分場,2013-12-18,23.875611,120.913583,2.7661573e-09
C0M750,布袋,2013-12-18,23.380878,120.167789,3.2122784e-08
C1S860,利嘉,2013-12-18,22.809417,121.050528,6.6505955e-08
72C440,桃園農改,2013-12-18,24.950944,121.030583,0.7286884
E2S980,林試太麻里1,2013-12-18,22.598922,120.980044,0.88202804
C0X170,關廟,2013-12-18,22.963017,120.327797,1.411792e-08
C0V720,林園,2013-12-18,22.507747,120.394511,1.3022625e-07
C1I510,線浸林道,2013-12-18,23.761508,120.832956,4.262513e-09
C0D690,外湖,2013-12-18,24.917735,120.968711,0.94092304
C0C750,新興坑尾,2013-12-18,25.0061,121.0971,0.00061786076
B2Q810,畜試南區分所,2013-12-18,21.945583,120.802167,0.5394417
C0S790,金崙,2013-12-18,22.538122,120.966875,0.0015373726
C0AH90,福山植物園,2013-12-18,24.760717,121.58135,4.1793292e-08
C0I540,奇萊稜線,2013-12-18,24.109231,121.326456,3.6852004e-08
C0M850,表湖,2013-12-18,23.24186,120.64166,2.8636977e-09
C0S770,大溪山,2013-12-18,22.478475,120.943325,2.891601e-06
C0AG80,中和,2013-12-18,24.991622,121.491792,1.0015002e-06
C0T790,大禹嶺,2013-12-18,24.186117,121.316086,2.3663459e-08
C0T9B0,水源,2013-12-18,23.991861,121.537169,1.7796576e-07
C0R840,牡丹池山,2013-12-18,22.168389,120.841225,0.9979419
C1I131,桶頭,2013-12-18,23.641944,120.654117,3.0354173e-09
CAL110,布袋國中,2013-12-18,23.35893,120.18026,1.0605241e-08
467571,新竹,2013-12-18,24.827853,121.014219,0.0001610561
C0Z290,赤柯山,2013-12-18,23.36893,121.38293,6.585248e-08
C0X280,將軍,2013-12-18,23.214999,120.13577,1.0587379e-07
C0S690,太麻里,2013-12-18,22.60902,120.98533,1.0558497e-06
C0U880,北關,2013-12-18,24.9072,121.8734,8.143124e-06
C1H860,瑞岩,2013-12-18,24.123772,121.18345,1.1623765e-08
C0G810,埔心,2013-12-18,23.947633,120.525456,3.022608e-07
C0U970,大福,2013-12-18,24.80064,121.81389,9.930284e-08
C2H9N0,仁愛東眼,2013-12-18,24.026875,121.1205,9.7053166e-09
C1E670,南礦,2013-12-18,24.538278,121.002836,8.231613e-09
C0M520,東後寮,2013-12-18,23.369908,120.248065,1.02526565e-08
C1E461,松安,2013-12-18,24.397972,120.986022,7.81324e-09
72G600,臺中農改,2013-12-18,24.003028,120.534389,7.712178e-06
C2N160,西拉雅風管處,2013-12-18,23.189481,120.335297,6.58904e-09
C2M970,碧湖,2013-12-18,23.568632,120.624165,5.305481e-09
C0A640,石碇,2013-12-18,24.993969,121.662917,7.204435e-08
E2S960,林試太麻里2,2013-12-18,22.598,120.99775,0.99613094
C0F9Y0,桃山,2013-12-18,24.432739,121.303808,3.285985e-08
C1I020,萬大,2013-12-18,23.979817,121.132261,6.2191905e-09
C0U940,羅東,2013-12-18,24.68184,121.74934,7.171024e-07
C0M650,朴子,2013-12-18,23.43463,120.23902,3.1035103e-08
C1I500,大尖山,2013-12-18,23.858572,120.994889,1.9112077e-08
C0G820,田尾,2013-12-18,23.901669,120.509389,2.3312799e-07
E2K600,四湖植物園,2013-12-18,23.676986,120.163433,1.7792952e-05
C0S730,綠島,2013-12-18,22.6672,121.47533,4.4063754e-06
12Q970,東港工作站,2013-12-18,22.479997,120.466058,2.4388507e-08
C0E430,南庄,2013-12-18,24.601775,121.000214,1.9432855e-07
C1TA00,太魯閣,2013-12-18,24.15773,121.6236,1.2094299e-05
466920,臺北,2013-12-18,25.037658,121.514853,1.0015002e-06
C0R600,舊泰武,2013-12-18,22.588194,120.664944,1.7609121e-08
C1I260,北坑,2013-12-18,23.9246,121.006903,2.5600932e-09
466910,鞍部,2013-12-18,25.182586,121.529731,4.331746e-08
C1I230,九份二山,2013-12-18,23.961944,120.845,3.372504e-09
C2A660,瑞芳,2013-12-18,25.113169,121.801147,9.385911e-08
C0R270,琉球嶼,2013-12-18,22.332244,120.362236,0.977113
C1T990,高寮,2013-12-18,23.394239,121.356808,2.5198042e-06
C0G620,芬園,2013-12-18,24.015678,120.6213,1.9430571e-08
C1Z140,荖溪,2013-12-18,23.890575,121.45964,3.2727062e-08
C1I201,中心崙,2013-12-18,23.728722,120.712097,3.657008e-09
C1I400,凌霄,2013-12-18,24.018778,121.004456,9.526498e-09
C1M640,十字,2013-12-18,23.492153,120.753683,8.045284e-09
G2P820,農試鳳山分所,2013-12-18,22.646611,120.356083,8.676312e-08
C0Z270,蕃薯寮,2013-12-18,23.73835,121.540108,1.4417346e-06
C0F9Q0,外埔,2013-12-18,24.347817,120.705686,1.451351e-07
C0K580,高鐵雲林,2013-12-18,23.737456,120.417944,3.5354597e-09
C2I090,鳳凰,2013-12-18,23.728081,120.787347,2.8908795e-09
C0U990,員山,2013-12-18,24.74435,121.72247,7.171031e-07
C0V770,大社,2013-12-18,22.730306,120.346639,0.0019276382
C0X120,麻豆,2013-12-18,23.183289,120.248611,9.6090595e-08
C0C670,龍潭,2013-12-18,24.870056,121.221389,5.4917386e-08
C0D680,香山濕地,2013-12-18,24.783581,120.914988,0.0062918398
C0S980,勝林山,2013-12-18,22.430439,120.8938,4.9162978e-08
C0V730,大寮,2013-12-18,22.605614,120.395717,1.6869695e-08
C0R570,麟洛,2013-12-18,22.65078,120.52719,2.8748182e-09
C2M930,石卓,2013-12-18,23.478744,120.702264,7.933904e-09
C0G9B0,和美,2013-12-18,24.105169,120.492131,7.762348e-05
CAG100,王功漁港,2013-12-18,23.96824,120.32586,0.013518998
C0X290,北門,2013-12-18,23.267772,120.125481,1.0587379e-07
C2F930,大甲,2013-12-18,24.347667,120.640403,0.00012389437
C0D650,湖口,2013-12-18,24.904794,121.043628,0.34374395
C0E420,竹南,2013-12-18,24.708978,120.888897,0.0024544732
C0U780,五結,2013-12-18,24.68637,121.79794,7.255921e-07
C1I250,鯉潭,2013-12-18,23.961922,120.991131,3.049501e-09
C0R130,阿禮,2013-12-18,22.742908,120.743678,4.919485e-09
C0X100,臺南市北區,2013-12-18,23.010394,120.194228,8.912108e-06
C0S920,金峰嘉蘭,2013-12-18,22.594789,120.960825,0.8370338
C0V490,新興,2013-12-18,22.627422,120.298803,1.3022625e-07
C0F9K0,大安,2013-12-18,24.345061,120.588025,0.0008907749
72N100,臺南農改,2013-12-18,23.0605,120.342194,7.2866864e-09
467290,古坑,2013-12-18,23.633639,120.551889,2.533271e-09
C2E970,八甲,2013-12-18,24.535811,120.795983,8.875271e-07
C0V440,鳳山,2013-12-18,22.646653,120.356122,8.676312e-08
C1T940,大觀,2013-12-18,23.714206,121.373133,4.2341424e-07
72T250,花蓮農改,2013-12-18,23.975222,121.563889,1.2461218e-06
C0E740,造橋,2013-12-18,24.637056,120.864778,3.786148e-06
C0R100,尾寮山,2013-12-18,22.833111,120.683889,6.2907963e-09
A2K630,臺大雲林校區,2013-12-18,23.730628,120.423903,3.5354597e-09
C0D580,寶山,2013-12-18,24.735006,121.025192,1.79457e-07
E2P990,林試扇平站,2013-12-18,22.9677,120.6857,1.6099632e-08
C0AI30,三重,2013-12-18,25.057328,121.500629,1.2739922e-06
C0AH00,汐止,2013-12-18,25.066881,121.658778,2.7117052e-05
C1Z040,立山,2013-12-18,23.443356,121.327375,2.8036203e-07
C0W130,花嶼,2013-12-18,23.40007,119.32276,0.9955933
C0A950,鼻頭角,2013-12-18,25.129036,121.923372,1.3924243e-07
C0K470,林內,2013-12-18,23.748675,120.609642,3.266761e-09
C2F990,摩天嶺,2013-12-18,24.322458,120.936819,6.23274e-09
82C160,茶改場,2013-12-18,24.908472,121.185333,1.3965017e-06
C0Z320,清水林道,2013-12-18,23.27125,121.188272,9.352511e-08
C0R760,南仁湖,2013-12-18,22.084681,120.863353,0.6653003
C0M670,大林,2013-12-18,23.600616,120.45841,3.5979284e-07
C0M800,茶山,2013-12-18,23.299075,120.664767,2.528188e-09
C0A9C0,天母,2013-12-18,25.117494,121.537169,1.1119891e-06
72K220,南改斗南分場,2013-12-18,23.634556,120.477333,3.6352685e-09
72AI40,桃改樹林分場,2013-12-18,24.944503,121.386972,1.0150337e-06
C0S910,蘭嶼燈塔,2013-12-18,22.081197,121.503117,0.9722033
C0B050,八斗子,2013-12-18,25.144754,121.79167,4.0350693e-05
C0U900,內城,2013-12-18,24.71813,121.68766,8.845109e-08
C0X320,柳營,2013-12-18,23.253328,120.375253,5.9961285e-09
C0M790,新港,2013-12-18,23.553269,120.345728,1.4986599e-08
C0F9T0,西屯,2013-12-18,24.179494,120.641275,1.5542224e-05
C0SA30,都歷,2013-12-18,23.020333,121.323642,9.793481e-06
C0C620,蘆竹,2013-12-18,25.084275,121.265767,7.07892e-06
C0R730,大坪頂,2013-12-18,22.024633,120.69355,0.22200881
C0AJ40,石門,2013-12-18,25.273672,121.601198,2.8113654e-06
C0E750,苗栗,2013-12-18,24.564569,120.824575,0.0028179437
C0T870,鯉魚潭,2013-12-18,23.935639,121.508944,7.2679643e-07
C1V170,排雲,2013-12-18,23.463619,120.954147,3.4874542e-08
C2H950,中寮,2013-12-18,23.884447,120.766406,2.0251194e-09
C0R350,貓鼻頭,2013-12-18,21.921774,120.7358,0.43074888
C0V660,岡山,2013-12-18,22.797078,120.294958,1.0550978e-06
C1H941,雙冬,2013-12-18,23.967378,120.802189,2.5693094e-09
C0AJ70,田寮,2013-12-18,25.2698,121.4886,2.9880148e-05
C0AI00,五股,2013-12-18,25.07445,121.42728,3.5156795e-06
C0Z280,德武,2013-12-18,23.47426,121.41071,9.327114e-07
C0R700,枋山,2013-12-18,22.246844,120.661086,0.9993964
C0C460,復興,2013-12-18,24.820208,121.352281,3.5208387e-08
E2H360,蓮華池,2013-12-18,23.918333,120.885278,2.6262885e-09
C0M640,中埔,2013-12-18,23.42538,120.5229,2.7168439e-09
C0W140,金沙,2013-12-18,24.488292,118.408778,0.999862
C2A540,四堵,2013-12-18,24.8926,121.745736,7.987979e-08
C0ACA0,新莊,2013-12-18,25.051478,121.446756,6.0247385e-06
C0R220,潮州,2013-12-18,22.534361,120.54,4.71675e-09
U2HA40,臺大內茅埔,2013-12-18,23.689722,120.851117,2.7111755e-09
467490,臺中,2013-12-18,24.145736,120.684075,4.691012e-07
C0U960,翠峰湖,2013-12-18,24.510856,121.608044,2.7340363e-08
E2HA20,林試畢祿溪站,2013-12-18,24.226944,121.308522,1.71449e-08
C0V890,前鎮,2013-12-18,22.5718,120.3117,1.670592e-07
467620,蘭嶼,2013-12-18,22.036969,121.558339,0.9990536
C1F941,雪嶺,2013-12-18,24.280586,121.026642,2.1090639e-08
C2H9E0,國姓南港,2013-12-18,23.911108,120.846556,4.9498667e-09
C0AC80,文山,2013-12-18,25.00235,121.575728,7.6542176e-07
C0F9R0,龍井,2013-12-18,24.184536,120.528972,0.0076015443
C0M760,民雄,2013-12-18,23.551754,120.428457,1.0866333e-07
C0UA40,西德山,2013-12-18,24.560647,121.752608,3.0473807e-08
C1T920,中興,2013-12-18,23.769503,121.498653,1.2254974e-06
C0D550,雪霸,2013-12-18,24.526972,121.11605,1.2389493e-08
C2F860,梨山,2013-12-18,24.247522,121.243669,1.7491793e-08
C0R320,車城,2013-12-18,22.0744,120.716247,0.6683908
C1S870,南美山,2013-12-18,23.15025,121.382333,4.810457e-07
C0B020,基隆嶼,2013-12-18,25.19141,121.78391,2.7117052e-05
C1U501,牛鬥,2013-12-18,24.637836,121.573656,6.6215215e-08
C0M730,嘉義市東區,2013-12-18,23.457673,120.460531,9.1578784e-08
C0S700,知本,2013-12-18,22.684866,121.005642,1.4718424e-06
C1N001,沙崙,2013-12-18,22.935472,120.309406,1.0206826e-07
C0V760,橋頭,2013-12-18,22.757806,120.30575,8.258899e-07
C0G960,福寶,2013-12-18,24.0443,120.3814,0.00019143459
C0X210,白河,2013-12-18,23.347466,120.414427,5.6943827e-09
C0S810,東河,2013-12-18,22.972672,121.303986,5.593061e-07
C2R170,屏東,2013-12-18,22.66027,120.49403,3.017482e-09
C0R670,楓港,2013-12-18,22.190131,120.692156,0.9993964
C0FA50,霧峰,2013-12-18,24.0419,120.6995,1.1803896e-06
C0UB10,蘇澳,2013-12-18,24.5969,121.8571,8.024902e-07
C0G950,防潮門,2013-12-18,24.1835,120.4871,0.0089337025
C0M740,六腳,2013-12-18,23.492871,120.290625,7.569256e-09
C1R250,力里,2013-12-18,22.428117,120.629228,0.93748736
C0K330,虎尾,2013-12-18,23.719183,120.442036,3.4356902e-09
C2FA00,烏石坑,2013-12-18,24.273503,120.947617,6.19166e-09
C0V620,永安,2013-12-18,22.82315,120.236856,7.1351064e-06
C1I330,楓樹林,2013-12-18,23.986803,121.076117,9.441335e-09
C0W200,湖西,2013-12-18,23.596314,119.67275,0.9989837
72Q010,高雄農改場,2013-12-18,22.709333,120.525889,2.579695e-09
C0SA40,瑞和,2013-12-18,22.974361,121.156697,1.0002832e-06
C0C680,龜山,2013-12-18,25.02846,121.38656,3.2740235e-08
C2V260,月眉,2013-12-18,22.971003,120.539853,2.3773017e-09
C0V450,鳳森,2013-12-18,22.545064,120.392592,7.2015465e-09
C0U720,南山,2013-12-18,24.43742,121.38167,2.1674673e-08
A2N290,臺南蘭花園區,2013-12-18,23.340258,120.379661,5.9961285e-09
C0R560,新園,2013-12-18,22.5434,120.461558,2.2165027e-08
C0U890,三星,2013-12-18,24.66812,121.65302,7.465481e-08
C1V300,御油山,2013-12-18,23.001983,120.715364,1.4512909e-08
C0U600,礁溪,2013-12-18,24.817539,121.765608,9.401068e-08
C1T980,龍澗,2013-12-18,24.023289,121.411328,2.7008543e-08
C0D670,海天一線,2013-12-18,24.831986,120.914438,0.01040493
C0SA00,歷坵,2013-12-18,22.520969,120.89185,9.85916e-07
C0M710,東石,2013-12-18,23.458927,120.15385,3.67484e-08
C0M780,鹿草,2013-12-18,23.41134,120.30835,7.140027e-09
C0U520,雙連埤,2013-12-18,24.753033,121.641303,2.3076264e-08
C0B010,七堵,2013-12-18,25.094819,121.71713,2.0296106e-05
C0R480,長治,2013-12-18,22.693128,120.542622,1.8114348e-09
C1V830,國三S383K,2013-12-18,22.781967,120.426475,1.7969337e-09
12Q980,恆春工作站,2013-12-18,22.079678,120.714425,0.6683908
C1O940,東山服務區,2013-12-18,23.286016,120.398472,5.25724e-09
C1U840,東澳嶺,2013-12-18,24.5378,121.8485,4.6723578e-08
C1D630,飛鳳山,2013-12-18,24.766464,121.119178,2.3475232e-08
C0S940,石寧山,2013-12-18,23.223772,121.406639,1.15874336e-07
C0K410,北港,2013-12-18,23.573957,120.292802,1.6148594e-08
C2M620,瑞里,2013-12-18,23.545133,120.675197,6.695292e-09
C0SB70,小港漁港,2013-12-18,23.158558,121.400431,2.1623413e-07
C2O950,安南,2013-12-18,23.076694,120.144861,0.00017253848
C0F0E0,南湖圈谷,2013-12-18,24.363714,121.444667,4.8054172e-08
467610,成功,2013-12-18,23.097486,121.373428,4.7058893e-05
C0G890,伸港,2013-12-18,24.148933,120.484403,0.0653456
C2E540,龍溪,2013-12-18,24.606489,120.783933,0.024189169
C1V200,梅山,2013-12-18,23.268447,120.823556,8.991835e-09
C0T9H0,加路蘭山,2013-12-18,23.682947,121.5274,2.1507255e-07
C2O930,玉井,2013-12-18,23.126042,120.46055,1.0283443e-08
C1F911,新伯公,2013-12-18,24.221361,120.841069,5.0018087e-09
C0R490,九如,2013-12-18,22.7405,120.490503,2.870621e-09
C0X200,左鎮,2013-12-18,23.056758,120.408522,3.9501433e-09
C0SB50,叭嗡嗡,2013-12-18,23.047062,121.343223,8.332713e-07
C1F891,稍來,2013-12-18,24.265689,121.001142,1.5299449e-08
72N240,七股研究中心,2013-12-18,23.081672,120.062894,0.006302662
C0C700,中壢,2013-12-18,24.977661,121.256375,2.6549687e-06
C0M690,水上,2013-12-18,23.419734,120.388909,4.9829097e-08
C0V690,鼓山,2013-12-18,22.623325,120.275575,1.2923894e-07
C0O860,大內,2013-12-18,23.11885,120.36083,2.1694226e-09
C0Z200,萬榮,2013-12-18,23.709219,121.420106,7.267971e-07
C0T9D0,和中,2013-12-18,24.26676,121.74103,0.00011367632
C1O921,楠西,2013-12-18,23.183511,120.484083,5.323575e-09
C0AJ30,淡水觀海,2013-12-18,25.184591,121.408616,1.0028421e-05
C0V810,左營,2013-12-18,22.67491,120.28491,0.0022460257
C0UA70,桃源谷,2013-12-18,24.962606,121.888875,2.8481692e-08
C0X130,官田,2013-12-18,23.193217,120.315422,6.930245e-09
C1H000,翠峰,2013-12-18,24.109397,121.205211,1.914988e-08
C0UA90,石城,2013-12-18,24.980444,121.951214,1.2807395e-07
C1E681,南勢山,2013-12-18,24.421669,120.923831,6.376129e-09
C0A9F0,內湖,2013-12-18,25.079422,121.57545,1.0015002e-06
C0K291,宜梧,2013-12-18,23.536281,120.169329,3.846017e-08
C1K540,口湖,2013-12-18,23.585344,120.180517,1.511148e-07
C0R780,滿州,2013-12-18,22.024403,120.839892,0.39730158
C0V870,文安,2013-12-18,22.8025,120.2164,1.451985e-05
C0U650,玉蘭,2013-12-18,24.675286,121.587061,1.06046585e-07
C0R640,東港,2013-12-18,22.46247,120.44074,1.670592e-07
K2E360,苗栗農改,2013-12-18,24.495722,120.829111,2.6453217e-06
C0AJ80,板橋,2013-12-18,25.0107,121.4489,1.1590213e-06
C0S660,下馬,2013-12-18,23.150427,121.070312,6.2426295e-08
C1H9B1,阿眉,2013-12-18,24.1263,120.994672,1.1103094e-08
C0UA20,多加屯,2013-12-18,24.368614,121.373189,2.359491e-08
C0E730,頭份,2013-12-18,24.688247,120.912206,0.0024544732
72V140,高改旗南分場,2013-12-18,22.857861,120.516667,3.3543106e-09
C0K480,莿桐,2013-12-18,23.761192,120.502372,2.7460343e-09
C0U980,坪林石牌,2013-12-18,24.86478,121.77396,5.4828007e-08
C0T900,西林,2013-12-18,23.8119,121.441458,5.59851e-07
C1I150,青雲,2013-12-18,23.793361,120.949378,2.4990245e-09
467350,澎湖,2013-12-18,23.565503,119.563094,0.9983468
C0G800,埔鹽,2013-12-18,24.000394,120.431683,0.00014379348
C0H960,草屯,2013-12-18,23.973672,120.68085,1.7702292e-09
C1V780,多納林道,2013-12-18,22.888028,120.737917,9.317414e-09
C0E920,通霄漁港,2013-12-18,24.498589,120.673876,0.091409124
C0Z330,安通山,2013-12-18,23.290728,121.348528,9.792565e-08
C0AH10,永和,2013-12-18,25.01125,121.508111,1.071891e-06
C0AK10,太平里,2013-12-18,25.134937,121.364899,6.0247385e-06
C2G640,鹿港,2013-12-18,24.0753,120.430481,0.00014214557
C1E890,國三N149K,2013-12-18,24.463414,120.680019,0.008657505
C1R110,口社,2013-12-18,22.770111,120.645222,2.6429468e-09
C1M870,國三N285K,2013-12-18,23.550319,120.505833,3.2020855e-09
467050,新屋,2013-12-18,25.006744,121.047486,0.8961355
C1E480,鳳美,2013-12-18,24.554803,121.034747,7.9698355e-09
C0M530,奮起湖,2013-12-18,23.493903,120.699253,7.297897e-09
C0C590,觀音,2013-12-18,25.027072,121.153317,1.0788465e-05
C0T9M0,靜浦,2013-12-18,23.455167,121.495028,2.4287788e-06
C2H9M0,發祥,2013-12-18,24.154094,121.164517,8.818523e-09
C0AI40,石牌,2013-12-18,25.115597,121.513139,1.1590213e-06
C1F871,上谷關,2013-12-18,24.203483,121.018644,6.1887437e-09
C2H9G0,百勝,2013-12-18,24.051142,120.909361,4.963964e-09
C0G880,二水,2013-12-18,23.810742,120.6173,2.2180031e-09
C0R940,加祿堂,2013-12-18,22.3363,120.6217,0.99345446
C0W220,北竿,2013-12-18,26.220358,119.974881,2.3544917e-08
C0O960,崎頂,2013-12-18,22.959547,120.369317,1.5484688e-09
C0S750,向陽,2013-12-18,23.248397,120.986133,2.2571648e-08
C0T9F0,水璉,2013-12-18,23.797131,121.542514,3.4483799e-07
C1M600,頭凍,2013-12-18,23.406364,120.603339,4.6633812e-09
467660,臺東,2013-12-18,22.752211,121.154586,0.28811714
C1D380,新埔,2013-12-18,24.84745,121.03834,3.386452e-05
C2G980,田頭村,2013-12-18,23.8263,120.444175,5.7544667e-09
C0V750,路竹,2013-12-18,22.854997,120.259439,3.9679968e-08
C0N050,蚵寮,2013-12-18,23.301,120.1104,5.063779e-07
72M700,南改鹿草分場,2013-12-18,23.416869,120.283061,7.6033615e-09
C1SA50,利嘉林道,2013-12-18,22.82325,121.009389,2.1411044e-08
467550,玉山,2013-12-18,23.487614,120.959522,3.795573e-08
C0A940,金山,2013-12-18,25.223628,121.643967,2.065799e-05
C1V340,大津,2013-12-18,22.888322,120.645986,1.9160613e-09
C0W180,七美,2013-12-18,23.219333,119.444892,0.99927574
C1F9C1,白冷,2013-12-18,24.182844,120.929889,3.7170143e-09
K2E710,苗改生物防治研究中心,2013-12-18,24.422861,120.871833,4.3745057e-08
C0N040,蘆竹溝,2013-12-18,23.2344,120.0961,5.063779e-07
C2W230,畜試所澎湖,2013-12-18,23.628342,119.513206,0.9967828
C0R880,後壁湖,2013-12-18,21.9457,120.7457,0.73455137
C1I280,埔中,2013-12-18,23.820778,120.642594,3.979576e-09
467790,墾丁雷達站,2013-12-18,21.948235,120.808028,0.35603562
C0W190,望安,2013-12-18,23.380564,119.494075,0.998714
466881,新北,2013-12-18,24.9593,121.52,8.920381e-07
C0Z170,卓溪,2013-12-18,23.3443,121.3029,1.6417192e-07
C0F850,東勢,2013-12-18,24.246428,120.833047,5.0555684e-09
466900,淡水,2013-12-18,25.164889,121.448906,8.903052e-06
C0I370,魚池,2013-12-18,23.895703,120.94135,2.584753e-09
C0C630,大溪,2013-12-18,24.882853,121.265547,7.930947e-07
C0A520,山佳,2013-12-18,24.974944,121.402008,1.0150327e-06
C0I110,竹山,2013-12-18,23.761225,120.688156,2.0096012e-09
82H840,茶改南部分場,2013-12-18,23.762528,120.7405,2.4586764e-09
C0G660,溪湖,2013-12-18,23.94835,120.479122,3.511534e-07
C1T800,洛韶,2013-12-18,24.204558,121.453956,4.2695614e-08
C1T810,慈恩,2013-12-18,24.192044,121.388386,2.4523453e-08
C1E451,象鼻,2013-12-18,24.368617,120.940228,6.3720926e-09
C0AC60,三峽,2013-12-18,24.939025,121.369728,8.5128045e-07
C0I490,萬大林道,2013-12-18,23.928228,121.091411,1.5798449e-08
C1I290,豐丘,2013-12-18,23.668178,120.887417,4.260042e-09
C1I320,奧萬大,2013-12-18,23.952956,121.178556,9.302267e-09
C2M910,嘉義大學,2013-12-18,23.471325,120.485903,2.563318e-09
C0U770,南澳,2013-12-18,24.44935,121.81022,3.3819884e-07
C0A980,社子,2013-12-18,25.109508,121.469681,1.3336131e-06
C0V800,六龜,2013-12-18,22.997889,120.633583,2.1583986e-09
C1G9D0,國一S218K,2013-12-18,23.890641,120.493253,3.0109445e-07
C0E570,白沙屯,2013-12-18,24.549447,120.696803,0.09205779
C2F9A0,中竹林,2013-12-18,24.103556,120.751061,2.881543e-09
C0FA40,臺中電廠,2013-12-18,24.2146,120.4907,0.0076015443
C2G9A0,畜試所彰化,2013-12-18,23.86045,120.557964,2.0461945e-09
C0H9C0,合歡山,2013-12-18,24.143442,121.272547,3.7900822e-08
C0X060,下營,2013-12-18,23.22695,120.256261,7.990642e-09
G2M350,農試溪口農場,2013-12-18,23.58565,120.408111,1.3131736e-07
C0U860,頭城,2013-12-18,24.85323,121.8308,9.821165e-08
C0R580,南州,2013-12-18,22.48591,120.50274,2.4397906e-08
C0D430,峨眉,2013-12-18,24.6905,121.017189,8.7163035e-06
C0G780,秀水,2013-12-18,24.03405,120.503869,1.2867638e-05
72N100,臺南農改場,2013-12-18,23.0605,120.342194,7.2866864e-09
C0S900,蘭嶼高中,2013-12-18,22.04909,121.51214,0.46498683
467540,大武,2013-12-18,22.355675,120.903789,0.5242529
C1F9W0,德基,2013-12-18,24.254783,121.190261,1.3124231e-08
C1Z120,壽豐,2013-12-18,23.870853,121.508081,1.7090935e-06
C0W160,烏坵,2013-12-18,24.9944,119.44956,0.9985842
C1I240,外大坪,2013-12-18,23.958697,120.917931,3.0679483e-09
C1I550,國六W023K,2013-12-18,23.979067,120.867742,2.1428601e-09
C0R870,興海,2013-12-18,21.9752,120.8439,0.5394417
C0R140,瑪家,2013-12-18,22.682903,120.686639,1.4720466e-08
C0A530,坪林,2013-12-18,24.938183,121.70975,5.5579044e-08
C0X260,後壁,2013-12-18,23.366358,120.362326,2.3952709e-09
C0Z230,和平,2013-12-18,24.30717,121.77007,0.00011367632
C0G770,福興,2013-12-18,24.041289,120.437669,0.00014214557
C0H9A0,神木村,2013-12-18,23.532742,120.843667,9.83858e-09
C0I460,南投,2013-12-18,23.911469,120.687331,1.9744568e-09
C0I480,梅峰,2013-12-18,24.085272,121.173572,1.6797838e-08
C1V570,吉東,2013-12-18,22.85422,120.5454,3.1825769e-09
C2D740,屯原,2013-12-18,24.067969,121.209389,1.6799248e-08
C2A560,福山,2013-12-18,24.776203,121.502811,1.8918152e-08
C0AH30,五分山,2013-12-18,25.07125,121.780794,2.5322285e-08
C0FA10,松柏,2013-12-18,24.429115,120.617482,0.004153095
72S200,東改班鳩分場,2013-12-18,22.829528,121.077694,0.0002066584
72HA00,中改埔里分場,2013-12-18,23.903208,120.963364,2.5187687e-09
C2H9W0,大坪頂農水,2013-12-18,24.043122,120.932781,3.0713443e-09
C0C650,平鎮,2013-12-18,24.897503,121.214636,1.3965017e-06
C0S930,延平,2013-12-18,22.902581,121.084058,2.3535158e-07
C0UA60,樟樹山,2013-12-18,24.41393,121.78325,1.9446685e-07
C1S670,摩天,2013-12-18,23.199503,121.027,2.75994e-08
C0V630,茄萣,2013-12-18,22.906642,120.182608,0.00022355976
466940,基隆,2013-12-18,25.133314,121.740475,3.5229026e-05
C0X050,東河,2013-12-18,23.296598,120.385608,5.9961285e-09
C0R770,保力,2013-12-18,22.071122,120.764111,0.2972314
G2L020,農試嘉義分所,2013-12-18,23.485028,120.473806,2.5451268e-09
C0X240,關子嶺,2013-12-18,23.331169,120.508025,2.5381122e-09
C0I380,集集,2013-12-18,23.828206,120.801467,2.4776765e-09
466990,花蓮,2013-12-18,23.975128,121.613275,1.5324762e-06
C1V220,小關山,2013-12-18,23.154217,120.813603,1.5675534e-08
C1F9G1,慶福山,2013-12-18,24.180853,120.848378,4.7160844e-09
C0Z250,瑞穗林道,2013-12-18,23.49284,121.30688,5.5355184e-08
C0D590,新豐,2013-12-18,24.87068,120.97721,0.7899507
C0A870,五指山,2013-12-18,25.132153,121.608692,4.8115893e-08
C0UA50,西帽山,2013-12-18,24.555361,121.802628,4.0395342e-08
C0X160,仁德,2013-12-18,22.968258,120.257689,2.130082e-08
C1H971,六分寮,2013-12-18,23.92507,120.6378,3.4020877e-09
C0W120,西嶼,2013-12-18,23.5626,119.468436,0.9983468
C0G650,員林,2013-12-18,23.946503,120.585597,6.7482926e-09
C0AD50,鶯歌,2013-12-18,24.951533,121.346294,1.8983213e-06
C2H9Q0,北東眼山,2013-12-18,24.120939,121.189303,1.6600522e-08
C2H9T0,名間竹圍,2013-12-18,23.859914,120.637572,2.5131828e-09
C0S990,山豬窟,2013-12-18,22.318619,120.857372,0.9995614
72Q010,高雄農改,2013-12-18,22.709333,120.525889,2.579695e-09
C0X190,安平,2013-12-18,22.993161,120.152181,8.912116e-06
C0K400,斗六,2013-12-18,23.720583,120.541127,2.4476898e-09
12J990,口湖工作站,2013-12-18,23.589978,120.180394,1.4333101e-07
C0O830,北寮,2013-12-18,23.079561,120.495008,2.1757585e-09
C1D410,白蘭,2013-12-18,24.579364,121.079947,8.617595e-09
C0S970,加津林,2013-12-18,22.416211,120.926942,0.67225844
C0D700,關西,2013-12-18,24.7977,121.1732,2.5293261e-06
C0M810,里佳,2013-12-18,23.389125,120.716647,7.297897e-09
C0U750,龜山島,2013-12-18,24.841667,121.953133,5.930153e-08
C0R810,內獅,2013-12-18,22.305064,120.642986,0.99345446
C1M390,龍美,2013-12-18,23.406728,120.654417,5.9107834e-09
C2FB60,頭櫃山,2013-12-18,24.129842,120.858925,5.9116854e-09
C1H840,國三N238K,2013-12-18,23.841008,120.707711,2.4669486e-09
CAQ030,崎峰國小,2013-12-18,22.42565,120.49521,2.4397906e-08
C2E520,大湖,2013-12-18,24.414939,120.870872,1.9391608e-07
467530,阿里山,2013-12-18,23.508208,120.813242,1.8870546e-08
C1E691,南湖,2013-12-18,24.40135,120.837533,7.2638873e-09
C0FA30,梧棲,2013-12-18,24.256003,120.523381,0.007582022
C1V231,高中,2013-12-18,23.134911,120.716711,4.4177195e-09
C0F9V0,新社,2013-12-18,24.200172,120.815806,4.9047e-09
C0H890,埔里,2013-12-18,23.972169,120.952425,3.331834e-09
C0R690,墾丁,2013-12-18,21.966756,120.810269,0.3615598
C0F0D0,審馬陣,2013-12-18,24.381675,121.4203,3.1385966e-08
C0R820,白鷺,2013-12-18,22.454275,120.666219,0.000529172
U2H480,臺大溪頭,2013-12-18,23.670306,120.798194,4.60428e-09
C1V190,南天池,2013-12-18,23.27403,120.91176,2.3897366e-08
K2E360,苗栗農改場,2013-12-18,24.495722,120.829111,2.6453217e-06
CAJ050,海口故事園區,2013-12-18,23.57543,120.14121,1.511148e-07
C2H9D0,三隻寮,2013-12-18,24.093078,120.861578,3.0910907e-09
C0O990,媽廟,2013-12-18,22.99175,120.293525,1.8461805e-08
C0D480,打鐵坑,2013-12-18,24.849664,121.150789,3.1607403e-08
C0Z220,和平林道,2013-12-18,24.343922,121.656317,1.9014038e-07
C0TA10,花蓮漁港,2013-12-18,23.995322,121.638331,1.7435485e-06
72C440,桃園農改場,2013-12-18,24.950944,121.030583,0.7286884
C1E711,馬拉邦山,2013-12-18,24.367306,120.901656,8.0123295e-09
C0SB20,富岡,2013-12-18,22.792467,121.192669,0.18618113
C0D560,竹東,2013-12-18,24.767147,121.057881,1.4431721e-06
C0F9U0,南屯,2013-12-18,24.137006,120.637969,1.18667895e-05
C0M720,番路,2013-12-18,23.464657,120.554156,2.6189952e-09
C0F0A0,雪山圈谷,2013-12-18,24.388594,121.236339,3.9101014e-08
C1A9N0,四十份,2013-12-18,24.934158,121.593283,4.8459615e-08
C0U760,東澳,2013-12-18,24.52196,121.83318,8.269368e-08
C0X230,鹽水,2013-12-18,23.272621,120.247641,1.6443838e-08
C2H9H0,苗改南投蜂場,2013-12-18,23.852589,120.693481,2.0096012e-09
C0R950,萬隆國小,2013-12-18,22.507667,120.587817,1.8866972e-09
C0V370,古亭坑,2013-12-18,22.893178,120.401947,1.3213524e-08
C1I340,新興橋,2013-12-18,23.563333,120.868728,3.5589298e-09
C0SA80,土坂,2013-12-18,22.453108,120.887572,0.2350797
C0R160,鹽埔,2013-12-18,22.739558,120.530778,1.849235e-09
C0AC40,大屯山,2013-12-18,25.175675,121.522408,3.886049e-08
466850,五分山雷達站,2013-12-18,25.071182,121.781205,2.5083233e-08
C2H9L0,馬烈霸,2013-12-18,24.1512,121.201772,1.6514024e-08
C1AI50,國三N016K,2013-12-18,25.034164,121.619664,8.004822e-07
C1V600,藤枝,2013-12-18,23.071961,120.757042,1.4084622e-08
C1E601,南勢,2013-12-18,24.572486,120.734842,4.7049107e-06
C0Z180,新城,2013-12-18,24.03946,121.60454,1.3222837e-06
C0O980,新市,2013-12-18,23.061614,120.298197,9.96086e-09
C0K420,西螺,2013-12-18,23.800407,120.467394,2.7211224e-09
C0Z050,佳心,2013-12-18,23.34567,121.21316,5.7543268e-08
C0AD30,蘆洲,2013-12-18,25.086594,121.472331,1.2739922e-06
C0V610,梓官,2013-12-18,22.760558,120.267211,1.0462082e-06
K2F750,種苗改良場,2013-12-18,24.225972,120.800917,4.986815e-09
C0UA80,大溪漁港,2013-12-18,24.941801,121.902955,9.4098404e-08
C1AI60,國一39K邊坡,2013-12-18,25.064361,121.383836,8.385345e-08
C0W150,金寧,2013-12-18,24.457703,118.328989,0.99984455
C0R960,內埔,2013-12-18,22.608483,120.570714,2.0424784e-09
V2C250,八德合作社,2013-12-18,24.93775,121.266389,2.9820644e-06
C2H9S0,龍南,2013-12-18,23.953536,120.833183,5.2493445e-09
C0AH40,平等,2013-12-18,25.129142,121.577086,6.392437e-08
C0R540,佳冬,2013-12-18,22.419456,120.552375,2.4388507e-08
466950,彭佳嶼,2013-12-18,25.627975,122.079744,0.03309154
C0A890,雙溪,2013-12-18,25.036003,121.864242,1.5423659e-05
C0C480,桃園,2013-12-18,24.992425,121.323172,3.6694123e-06
C0AH50,林口,2013-12-18,25.072181,121.38084,1.11347404e-07
A2K360,水試臺西試驗場,2013-12-18,23.717231,120.190522,2.1649033e-05
B2N890,畜試所,2013-12-18,23.058972,120.336406,7.2866864e-09
C2M960,外寮,2013-12-18,23.562643,120.665688,5.4725278e-09
C0F9S0,烏日,2013-12-18,24.107058,120.624103,4.3204955e-07
C0C490,八德,2013-12-18,24.928708,121.283289,1.2392351e-06
C0R190,赤山,2013-12-18,22.592333,120.614306,1.9069828e-09
C0T820,天祥,2013-12-18,24.179597,121.495639,3.3569114e-07
C1F9E1,龍安,2013-12-18,24.1605,120.831961,4.9479225e-09
C0V820,小林,2013-12-18,23.148408,120.63325,2.212679e-09
C2G870,芳苑,2013-12-18,23.922303,120.320025,0.00020626547
C0E850,大河,2013-12-18,24.618069,120.948578,3.3339131e-06
C1U670,寒溪,2013-12-18,24.634,121.71691,2.9976704e-07
C0N020,城西,2013-12-18,23.0568,120.0956,0.004852211
C1Z110,三棧,2013-12-18,24.11557,121.60501,1.907379e-07
C0R280,檳榔,2013-12-18,22.076078,120.836777,0.29127645
C2H9J0,中台,2013-12-18,23.9996,120.938739,3.190545e-09
C0F9L0,后里,2013-12-18,24.310436,120.729725,5.9631816e-08
C0D540,橫山,2013-12-18,24.71116,121.11693,9.0499256e-08
C1D420,太閣南,2013-12-18,24.632808,121.160575,1.2238753e-08
C1E770,公館,2013-12-18,24.526914,120.830806,0.00435467
CAN130,水試所海水繁養殖中心,2013-12-18,23.120802,120.07968,0.006494137
C1I430,翠華,2013-12-18,24.191961,121.224339,1.8393653e-08
C1M400,菜瓜坪,2013-12-18,23.251928,120.576103,2.5187736e-09
C0G730,二林,2013-12-18,23.903325,120.376081,3.818559e-06
72M360,南改義竹分場,2013-12-18,23.360694,120.279361,2.9473517e-09
V2K620,麥寮合作社,2013-12-18,23.753836,120.294783,8.29478e-06
C0Z070,舞鶴,2013-12-18,23.46811,121.37407,5.9368807e-07
C0B040,大武崙,2013-12-18,25.166676,121.706993,2.0296106e-05
C1Z030,紅葉,2013-12-18,23.493119,121.338806,8.832967e-07
C1I050,丹大,2013-12-18,23.753747,121.141147,3.1324547e-08
C0I080,信義,2013-12-18,23.689694,120.851036,2.7111755e-09
C2M920,朴子農改,2013-12-18,23.469889,120.259383,7.569256e-09
C2A880,福隆,2013-12-18,25.017842,121.942083,1.3272725e-07
C0Z160,鳳林,2013-12-18,23.746114,121.453411,1.4221155e-06
C0V210,復興,2013-12-18,23.222403,120.806089,9.975176e-09
C0H990,昆陽,2013-12-18,24.121322,121.273642,2.7717675e-08
C0R741,獅子,2013-12-18,22.202308,120.705236,0.99907166
C0S710,鹿野,2013-12-18,22.917711,121.122994,1.3493226e-07
C0I530,小奇萊,2013-12-18,24.131764,121.295717,2.8723095e-08
C2K630,荷苞,2013-12-18,23.657717,120.595144,3.4683607e-09
C0Z080,富源,2013-12-18,23.587642,121.378225,7.2229335e-07
467441,高雄,2013-12-18,22.7304,120.3125,0.0022460257
C0SB10,美和,2013-12-18,22.682078,121.060236,0.9970449
C2K620,馬光農場,2013-12-18,23.721453,120.378864,3.5259373e-09
C1I140,卡奈托灣,2013-12-18,23.754364,121.087872,1.5639786e-08
C0I520,玉山風口,2013-12-18,23.470489,120.955994,3.884945e-08
C1G691,下水埔,2013-12-18,23.816114,120.5676,2.2757654e-09
C0X110,臺南市南區,2013-12-18,22.961189,120.188378,6.608541e-06
C0V680,仁武,2013-12-18,22.701083,120.347722,0.0019276382
C2G840,北斗,2013-12-18,23.877586,120.514222,2.3312799e-07
C0R900,竹坑,2013-12-18,22.1385,120.7022,0.9993055
C0K250,崙背,2013-12-18,23.75555,120.318925,7.5452394e-06
C0G860,社頭,2013-12-18,23.897647,120.5862,6.180569e-09
C0X150,安定,2013-12-18,23.102614,120.227839,2.4424756e-07
C0R590,里港,2013-12-18,22.77919,120.49459,2.6076803e-09
C0E610,馬都安,2013-12-18,24.451272,120.930192,1.4208417e-08
C0E550,明德,2013-12-18,24.583486,120.885411,4.7382628e-06
C0R150,三地門,2013-12-18,22.709889,120.639944,2.03424e-09
C0G910,花壇,2013-12-18,24.032076,120.549461,6.6278217e-06
C1D400,鳥嘴山,2013-12-18,24.71909,121.28387,1.4982398e-08
C0K500,元長,2013-12-18,23.64981,120.315024,1.7996037e-07
C0F0B0,石岡,2013-12-18,24.276061,120.777644,5.679403e-09
C2V250,甲仙,2013-12-18,23.080106,120.591758,2.0974171e-09
C0SA20,金崙山,2013-12-18,22.567419,120.959667,5.85272e-08
C0V350,溪埔,2013-12-18,22.738578,120.446797,1.2886327e-08
C0M660,溪口,2013-12-18,23.604131,120.403569,1.3107113e-07
C1S880,壽卡,2013-12-18,22.238911,120.858903,0.9979812
72D680,桃改新埔分場,2013-12-18,24.834444,121.066111,3.068324e-06
