站號,站名,日期,lat,lon,BLBTSLS
C0R710,龍磐,2013-02-14,21.931672,120.838942,0.985936
C1F9D1,白毛台,2013-02-14,24.158325,120.886933,1.7399279e-09
C0G940,竹塘,2013-02-14,23.848253,120.386764,3.21028e-09
467590,恆春,2013-02-14,22.003897,120.746339,0.9156647
C1O850,環湖,2013-02-14,23.148617,120.418633,4.3588727e-08
C0U710,太平山,2013-02-14,24.505486,121.525656,2.2237904e-08
C0E820,獅潭,2013-02-14,24.539133,120.920042,1.5853841e-08
C0V880,興達,2013-02-14,22.8778,120.2127,3.7497006e-08
C0S890,關山,2013-02-14,23.0395,121.175017,1.2577417e-05
C0SB30,新蘭,2013-02-14,22.869214,121.223228,0.0008364111
C2R970,屏科大,2013-02-14,22.648275,120.619247,8.8513274e-10
K2F750,種苗繁殖,2013-02-14,24.225972,120.800917,2.3650903e-09
C1Z130,銅門,2013-02-14,23.965694,121.492842,4.3276873e-07
C0AD40,土城,2013-02-14,24.973208,121.445169,3.368575e-07
CAN140,六官養殖協會,2013-02-14,23.22881,120.29962,3.8295322e-08
C0X180,山上,2013-02-14,23.0757,120.363253,1.604121e-08
C0F9Z0,雪山東峰,2013-02-14,24.388792,121.268675,1.6032583e-08
C1M480,獨立山,2013-02-14,23.537022,120.607797,2.566087e-09
C0X220,學甲,2013-02-14,23.230367,120.182187,1.17052984e-07
467650,日月潭,2013-02-14,23.881325,120.90805,1.6724236e-09
C0K600,箔子寮,2013-02-14,23.6197,120.14,1.3675735e-07
C0G830,埤頭,2013-02-14,23.866003,120.452806,2.8348839e-09
C0S950,七塊厝,2013-02-14,22.954453,121.229922,7.202085e-08
467110,金門,2013-02-14,24.407306,118.289281,5.175391e-08
C0AH80,深坑,2013-02-14,25.002703,121.628328,4.870968e-07
467990,馬祖,2013-02-14,26.169269,119.923419,3.2746417e-08
C0A970,三貂角,2013-02-14,25.007606,122.002058,3.5356175e-07
C2D730,寶山農場,2013-02-14,24.732444,120.976153,1.3799768e-06
C0K430,褒忠,2013-02-14,23.690938,120.303634,2.240525e-07
467480,嘉義,2013-02-14,23.495925,120.432906,1.4231382e-07
C2E540,後龍,2013-02-14,24.606489,120.783933,1.426039e-06
C0V400,阿公店,2013-02-14,22.804194,120.355528,1.7847293e-09
C0R440,大漢山,2013-02-14,22.405264,120.753181,1.68362e-08
C0K280,四湖,2013-02-14,23.630414,120.227125,5.706819e-07
C1F9B1,桐林,2013-02-14,24.066172,120.735194,1.9980435e-09
C2H9U0,鳳鵬,2013-02-14,23.763919,120.788061,1.0291366e-09
C0K390,土庫,2013-02-14,23.679029,120.395574,2.576538e-09
C1I450,望鄉山,2013-02-14,23.594153,120.944286,1.1441548e-08
C0E910,海埔,2013-02-14,24.648767,120.772435,5.1977285e-08
B2E890,畜試北區分所,2013-02-14,24.527806,120.770972,7.6507877e-07
C0R750,四林格山,2013-02-14,22.076989,120.802439,0.9999577
C0F0C0,中坑,2013-02-14,24.248517,120.903319,2.9125473e-09
C1I121,大鞍,2013-02-14,23.678381,120.760017,2.4075828e-09
72U480,花改蘭陽分場,2013-02-14,24.686306,121.716583,1.2724041e-06
C0A770,科教館,2013-02-14,25.096356,121.516507,3.4851374e-07
C0AJ60,六塊厝,2013-02-14,25.24,121.4481,9.229059e-07
C0R620,墾雷,2013-02-14,21.900836,120.855269,0.92750645
467420,永康,2013-02-14,23.038386,120.2367,3.752677e-08
467300,東吉島,2013-02-14,23.25695,119.667467,0.9338038
C0I410,名間,2013-02-14,23.837053,120.701447,1.1934983e-09
A2C560,農工中心,2013-02-14,24.985917,121.239833,6.73498e-07
C0V740,旗山,2013-02-14,22.888614,120.483597,1.830584e-08
C0Z061,玉里,2013-02-14,23.3215,121.339656,2.7605648e-07
C0S840,南田,2013-02-14,22.279725,120.889208,0.9997593
C1I470,杉林溪,2013-02-14,23.639517,120.786444,3.2054037e-09
C1X040,東原,2013-02-14,23.291597,120.463822,1.9305366e-09
C0R660,枋寮,2013-02-14,22.367722,120.590647,1.8702626e-09
C1R120,上德文,2013-02-14,22.763272,120.704442,2.9469822e-08
C0K450,大埤,2013-02-14,23.646074,120.431537,2.254509e-09
C0UA00,土場,2013-02-14,24.576533,121.495333,4.7286697e-08
467080,宜蘭,2013-02-14,24.763975,121.756528,2.9852802e-07
C0N030,四草,2013-02-14,23.0235,120.1116,2.5721235e-07
C0V650,彌陀,2013-02-14,22.783806,120.246361,4.0426382e-09
C0D660,新竹市東區,2013-02-14,24.798681,120.986942,1.3944416e-06
82S580,茶改東部分場,2013-02-14,22.907694,121.130139,1.7085641e-07
C0SB40,興隆,2013-02-14,22.913661,121.257469,4.0473356e-07
C0C710,大溪永福,2013-02-14,24.892936,121.324975,5.878345e-07
C0FA20,溫寮,2013-02-14,24.372177,120.583125,9.538344e-07
C0V640,湖內,2013-02-14,22.887139,120.2445,3.5345177e-08
C0R910,下寮,2013-02-14,22.3929,120.5548,5.5708496e-09
C0Z020,明里,2013-02-14,23.208717,121.262342,8.455885e-08
C0M770,嘉義梅山,2013-02-14,23.585398,120.555587,2.070113e-09
G2F820,農業試驗所,2013-02-14,24.031261,120.688133,1.3109839e-07
C0C660,楊梅,2013-02-14,24.912375,121.143047,4.5816412e-07
C1E511,新開,2013-02-14,24.347703,120.827019,1.8687507e-09
G2F820,農試所(霧峰),2013-02-14,24.031261,120.688133,1.3109839e-07
C1I070,和社,2013-02-14,23.591131,120.888861,7.9376083e-10
C2F000,大肚,2013-02-14,24.15295,120.572117,3.5263006e-09
C1S850,豐南,2013-02-14,23.122139,121.262389,4.4619085e-08
C2A920,富貴角,2013-02-14,25.263783,121.565258,1.0462102e-06
CAH030,茶改場竹圍站,2013-02-14,23.860083,120.637528,1.1033592e-09
C0T960,光復,2013-02-14,23.660694,121.424964,5.4745524e-06
C0F9M0,豐原,2013-02-14,24.254322,120.720692,1.6381104e-08
C0R720,旭海,2013-02-14,22.205403,120.887614,0.9999659
C0V710,苓雅,2013-02-14,22.622742,120.330669,7.1792465e-09
C0C740,觀音工業區,2013-02-14,25.064764,121.114856,5.8422693e-06
CAC040,拉拉山,2013-02-14,24.699317,121.427133,1.01569135e-08
C0V790,萬山,2013-02-14,22.905944,120.688056,1.7724455e-09
U2HA30,臺大和社,2013-02-14,23.590856,120.888864,7.9376083e-10
C0AJ90,澳底,2013-02-14,25.0552,121.9253,4.069474e-07
C0Z100,東華,2013-02-14,23.89525,121.549833,1.1143331e-05
C0G970,三豐,2013-02-14,23.882,120.2895,2.3514158e-07
V2K610,大庄合作社,2013-02-14,23.8068,120.367939,1.9548396e-07
C0V900,汕尾,2013-02-14,22.4782,120.4151,2.7218907e-09
C1R630,龍泉,2013-02-14,22.66701,120.59091,1.1715865e-09
C1AC50,關渡,2013-02-14,25.133486,121.469331,5.110674e-07
C0F9I0,神岡,2013-02-14,24.272481,120.658314,1.8375735e-08
C0K460,斗南,2013-02-14,23.678734,120.478359,2.524006e-09
467410,臺南,2013-02-14,22.993239,120.204772,3.4654068e-08
C2O810,曾文,2013-02-14,23.219681,120.497328,2.8948262e-08
467280,後龍,2013-02-14,24.648563,120.831834,4.7758483e-08
C1F9J1,清水林,2013-02-14,24.071242,120.820419,1.2759314e-09
C2A650,火燒寮,2013-02-14,25.002719,121.742892,9.5721816e-08
466930,竹子湖,2013-02-14,25.162078,121.544547,6.6382135e-08
C1I220,樟湖,2013-02-14,23.905333,120.846983,1.3469942e-09
C0I390,仁愛,2013-02-14,24.022122,121.132206,2.1698487e-09
C0Z300,東里,2013-02-14,23.26853,121.30547,2.448453e-07
C1V590,新發,2013-02-14,23.057019,120.646064,1.0525621e-08
C0K510,水林,2013-02-14,23.572924,120.24597,1.3467758e-07
72S590,東改賓朗果園,2013-02-14,22.813889,121.071278,1.0157872e-05
82A750,茶改北部分場,2013-02-14,24.955778,121.631222,2.1702595e-08
C1A750,石碇服務區,2013-02-14,25.00872,121.646242,4.44156e-07
C0X300,鹿寮,2013-02-14,23.386047,120.477331,1.637388e-09
G2AI50,關渡,2013-02-14,25.11575,121.492,3.7057438e-07
C0K590,雲林東勢,2013-02-14,23.674192,120.255721,2.240525e-07
C0A570,桶後,2013-02-14,24.848222,121.597992,1.6183982e-07
C1S800,華源,2013-02-14,22.657883,121.02325,0.003520107
C0G720,溪州,2013-02-14,23.851589,120.499093,2.8006009e-09
C1V160,達卡努瓦,2013-02-14,23.279811,120.705319,5.31632e-09
C2M410,馬頭山,2013-02-14,23.324361,120.582017,1.8165625e-09
C0V850,蚵仔寮,2013-02-14,22.7256,120.2527,1.32500935e-08
C0S740,池上,2013-02-14,23.119628,121.209469,1.2486277e-07
C1V390,尖山,2013-02-14,22.813153,120.367789,1.6867241e-09
C0AH70,松山,2013-02-14,25.04871,121.55042,6.2686405e-07
C0N010,鯤鯓國小,2013-02-14,23.1879,120.0889,7.307636e-07
C0R550,新埤,2013-02-14,22.467947,120.582894,9.931393e-10
C0SA60,知本（水試所）,2013-02-14,22.702394,121.082761,0.61022305
C0T9I0,豐濱,2013-02-14,23.583897,121.514806,5.258499e-06
C0UB00,淡江大學蘭陽校園,2013-02-14,24.823239,121.730383,4.7746006e-08
C0W240,九宮,2013-02-14,24.423753,118.240186,6.517522e-08
C0T9N0,富里,2013-02-14,23.171639,121.249378,5.935483e-08
U2HA50,臺大竹山,2013-02-14,23.756972,120.681556,1.3879775e-09
C0V840,鳳鼻頭,2013-02-14,22.5083,120.3591,7.4012796e-09
C0X140,西港,2013-02-14,23.125608,120.203108,1.3968639e-07
72D080,桃改五峰分場,2013-02-14,24.612194,121.157167,3.783674e-09
C2H9P0,伊拿谷,2013-02-14,23.963211,121.088264,1.3259845e-09
C2H9F0,柑林,2013-02-14,24.018658,120.847072,1.4647554e-09
C0TA20,加灣,2013-02-14,24.082025,121.608944,1.5302433e-06
C0V530,阿蓮,2013-02-14,22.883208,120.327508,1.3101646e-08
C1O880,關山,2013-02-14,23.173397,120.594092,1.9114401e-09
C0E791,卓蘭,2013-02-14,24.3126,120.8244,1.8397467e-09
C1I030,武界,2013-02-14,23.913225,121.052483,1.8461513e-09
C0R520,崁頂,2013-02-14,22.514781,120.506914,5.3830718e-09
C0R341,牡丹,2013-02-14,22.130036,120.792639,0.0032025017
C0R930,萬丹,2013-02-14,22.5885,120.4851,9.945326e-10
C0S760,紅石,2013-02-14,23.069131,121.126219,1.2328557e-08
C1M610,石磐龍,2013-02-14,23.496606,120.663506,2.6808369e-09
C0UA10,鴛鴦湖,2013-02-14,24.590269,121.412228,1.187092e-08
V2C260,八德蔬果,2013-02-14,24.978508,121.281819,5.6449545e-07
C0R800,丹路,2013-02-14,22.204481,120.750989,1.1472739e-05
C0G920,永靖,2013-02-14,23.924703,120.547533,2.542251e-08
C2M950,太和,2013-02-14,23.538372,120.702961,3.5060668e-09
C1A630,下盆,2013-02-14,24.771003,121.538622,5.6203202e-08
B2N890,畜產試驗所,2013-02-14,23.058972,120.336406,9.219057e-09
C0UA30,白嶺,2013-02-14,24.527819,121.519031,1.776247e-08
C1V580,溪南(特生中心),2013-02-14,23.084972,120.788475,9.0311785e-09
C1T970,大農,2013-02-14,23.615233,121.413331,2.652845e-06
E2S960,林試太麻里2,2013-02-14,22.598014,120.989761,0.96544516
C0R650,竹田,2013-02-14,22.58486,120.54344,9.946995e-10
C1H900,清流,2013-02-14,24.080775,120.962997,1.3944628e-09
C1C510,水尾,2013-02-14,24.940081,121.087161,9.210893e-07
C0F9X0,大雅(中科園區),2013-02-14,24.21528,120.62445,2.2851773e-07
C0SB60,白守蓮,2013-02-14,23.126769,121.401914,0.05938712
C0O970,虎頭埤,2013-02-14,23.021375,120.347878,3.0880518e-08
C0C730,中大臨海站,2013-02-14,24.966126,121.008581,0.00010310567
C0X250,新營,2013-02-14,23.310689,120.316681,3.629153e-08
C0V700,三民,2013-02-14,22.645017,120.311233,7.1792465e-09
C0U870,大礁溪,2013-02-14,24.791042,121.675047,2.9029707e-08
C0E870,高鐵苗栗,2013-02-14,24.60725,120.826094,1.3000317e-06
A2K570,古坑花卉中心,2013-02-14,23.63353,120.55239,2.087006e-09
C0M860,新美,2013-02-14,23.338017,120.683169,2.2454583e-09
C1E701,八卦,2013-02-14,24.491756,120.927619,1.0345453e-08
C0I420,國姓,2013-02-14,24.037803,120.855072,1.4081096e-09
C2D720,關西工作站,2013-02-14,24.757275,121.184792,2.2557559e-07
C0S960,香蘭,2013-02-14,22.587569,120.993375,0.9656209
C0R260,春日,2013-02-14,22.370361,120.628306,1.2293311e-08
72G600,臺中農改場,2013-02-14,24.003028,120.534389,2.5274998e-08
C0Z210,瑞穗,2013-02-14,23.5239,121.39021,7.122108e-06
C0M820,達邦,2013-02-14,23.453994,120.749517,1.823721e-09
C0V860,南寮,2013-02-14,22.7616,120.2339,4.270203e-09
C0G740,大城,2013-02-14,23.852487,120.320935,2.2054776e-07
C0R920,塭仔,2013-02-14,22.4169,120.5197,6.340317e-09
C0R470,高樹,2013-02-14,22.826389,120.600806,1.6988576e-09
C0R680,佳樂水,2013-02-14,21.993578,120.861633,0.9034749
C1O870,大棟山,2013-02-14,23.31157,120.52226,4.9237276e-09
C0D360,梅花,2013-02-14,24.678347,121.208558,1.8775943e-08
C0Z190,富世,2013-02-14,24.14743,121.6297,2.429267e-07
C0AI10,屈尺,2013-02-14,24.92184,121.54475,4.870968e-07
B2U990,畜試東區分所,2013-02-14,24.669039,121.832561,1.5657866e-06
C0SB80,長濱漁港,2013-02-14,23.313644,121.459994,9.606784e-07
C0R240,來義,2013-02-14,22.527306,120.625111,9.084112e-09
C0V910,大樹,2013-02-14,22.684645,120.432803,2.4763536e-09
C1R610,西大武山,2013-02-14,22.617719,120.7322,2.0778238e-08
C0G900,線西,2013-02-14,24.143358,120.443536,8.589116e-07
C0M700,竹崎,2013-02-14,23.526178,120.555508,2.0158741e-09
C2E880,三義,2013-02-14,24.405478,120.749819,2.7095628e-09
C0C720,竹圍,2013-02-14,25.112692,121.239824,8.954234e-07
C0F9P0,清水,2013-02-14,24.312297,120.562242,1.5785142e-06
C0Z150,吉安光華,2013-02-14,23.930925,121.595153,1.5500422e-05
C1D640,外坪(五指山),2013-02-14,24.644447,121.090961,1.2848091e-08
C0F9O0,潭子,2013-02-14,24.213106,120.703933,1.6810082e-08
C2H9R0,卓社,2013-02-14,23.887894,121.000086,2.4518017e-09
72T250,花蓮農改場,2013-02-14,23.975222,121.563889,1.3102955e-06
C0E780,銅鑼,2013-02-14,24.489681,120.790853,3.191551e-08
C1T950,太安,2013-02-14,23.666719,121.370128,3.254064e-08
C0E830,苑裡,2013-02-14,24.439714,120.653053,6.609276e-07
467270,田中,2013-02-14,23.873803,120.581286,1.7398915e-09
C0SA10,檳榔四格山,2013-02-14,22.810031,121.109308,2.7223703e-06
C1T830,布洛灣,2013-02-14,24.17184,121.57127,2.9057415e-07
C0F970,大坑,2013-02-14,24.173142,120.722289,3.2099823e-07
C1U920,思源,2013-02-14,24.393125,121.347214,1.3605794e-08
C0A931,三和,2013-02-14,25.233153,121.595236,1.4182038e-07
C0I010,廬山,2013-02-14,24.033311,121.181808,3.794022e-09
C2M940,日野賀,2013-02-14,23.434056,120.727169,2.9756113e-09
C0R860,鼻頭,2013-02-14,22.1043,120.8979,0.77788806
C0UB20,壯圍,2013-02-14,24.7359,121.8163,1.5657866e-06
C0R790,九棚,2013-02-14,22.14195,120.889281,0.9999663
C0W110,東莒,2013-02-14,25.9652,119.98069,4.992695e-07
C1U930,粉鳥林,2013-02-14,24.497088,121.842479,1.4208585e-07
C1I211,蘆竹湳,2013-02-14,23.934019,120.811994,1.0297256e-09
C0S830,長濱,2013-02-14,23.286817,121.411975,7.431243e-08
C1F9F1,伯公龍,2013-02-14,24.272392,120.849047,2.571187e-09
C0E810,西湖,2013-02-14,24.562947,120.7485,1.2335612e-06
C1I440,新高口,2013-02-14,23.478744,120.878939,7.124233e-09
C0O840,王爺宮,2013-02-14,23.222064,120.40085,2.8948262e-08
C0T9G0,鳳林山,2013-02-14,23.735269,121.420131,4.4286173e-07
C0X080,佳里,2013-02-14,23.173039,120.145086,1.3578139e-07
C0FB70,大甲溪埔,2013-02-14,24.370625,120.620067,6.105177e-07
C0Z310,清水斷崖,2013-02-14,24.218294,121.689142,1.3548508e-06
C0M680,太保,2013-02-14,23.455062,120.331455,7.9256196e-08
C1S820,金峰,2013-02-14,22.590969,120.933236,0.01563705
C0AD10,八里,2013-02-14,25.150211,121.403947,8.954234e-07
C2K240,草嶺,2013-02-14,23.59555,120.693461,2.6893074e-09
C1SA70,都蘭,2013-02-14,22.87794,121.226881,4.0473356e-07
C0K440,二崙,2013-02-14,23.772797,120.408944,3.1953622e-09
C1A760,坪林交控,2013-02-14,24.94284,121.713442,7.357734e-08
C0F9N0,大里,2013-02-14,24.092464,120.701378,3.6625076e-07
C0SA90,達仁林場,2013-02-14,22.264347,120.823972,0.030631816
C1R290,石門山,2013-02-14,22.112611,120.756597,0.999951
42HA10,萬大發電廠,2013-02-14,23.978875,121.139639,4.32996e-09
C0R890,山海,2013-02-14,21.9878,120.7091,0.87762856
C0T9A0,月眉山,2013-02-14,23.809928,121.539828,3.171771e-07
C0AC70,信義,2013-02-14,25.037822,121.564597,6.2686405e-07
C0K560,棋山,2013-02-14,23.68645,120.603417,2.1546882e-09
C2FB50,出雲,2013-02-14,24.206469,120.902794,1.9851434e-09
C1Z240,中平林道,2013-02-14,23.42115,121.26763,3.8549402e-08
U2H480,溪頭,2013-02-14,23.670306,120.798194,9.406262e-10
C0M880,好美里,2013-02-14,23.3364,120.138,1.3578139e-07
C0T9E0,大坑,2013-02-14,23.880628,121.581981,5.293789e-07
C0K530,臺西,2013-02-14,23.701547,120.197559,3.8561538e-07
C1E900,國一N128K,2013-02-14,24.560997,120.844186,7.982371e-07
C0AJ50,水湳洞,2013-02-14,25.123695,121.862238,8.572925e-06
C0AI20,白沙灣,2013-02-14,25.283128,121.519058,2.2351842e-06
C0A860,大坪,2013-02-14,25.165914,121.632969,9.163557e-08
C1U850,觀音海岸,2013-02-14,24.38319,121.77856,9.063192e-08
C2K610,草嶺石壁,2013-02-14,23.602469,120.707731,2.8173812e-09
C0U950,鶯子嶺,2013-02-14,24.89754,121.79244,3.369908e-08
C0O900,善化,2013-02-14,23.112883,120.297219,1.0587476e-08
C0K550,蔦松,2013-02-14,23.514319,120.229736,1.5371454e-07
E2P980,林試六龜中心,2013-02-14,22.991703,120.645722,1.8471094e-09
C0E590,通霄,2013-02-14,24.471892,120.704622,1.1750568e-06
C1I310,西巒,2013-02-14,23.754486,120.883956,1.4655939e-09
C0A550,泰平,2013-02-14,24.971197,121.823711,5.6416074e-08
C0I360,水里,2013-02-14,23.812553,120.849792,1.0789744e-09
C0R830,高士,2013-02-14,22.121825,120.836781,0.99995875
C1I101,溪頭,2013-02-14,23.661789,120.807647,2.6401303e-09
C0AJ20,野柳,2013-02-14,25.20703,121.690021,8.572925e-06
C0B060,暖暖,2013-02-14,25.0957,121.7403,3.963738e-06
C1H920,長豐,2013-02-14,24.102039,120.879897,1.2998393e-09
C0V360,內門,2013-02-14,22.975481,120.466769,1.8410043e-08
C0R850,林邊,2013-02-14,22.4634,120.5339,5.3830718e-09
C0E930,龍鳳,2013-02-14,24.700034,120.859125,4.9410968e-08
C0U910,冬山,2013-02-14,24.63373,121.7937,1.5657866e-06
C1E721,泰安,2013-02-14,24.489017,120.968036,2.8371827e-09
82H320,茶改中部分場,2013-02-14,23.875611,120.913583,6.7514305e-10
C0M750,布袋,2013-02-14,23.380878,120.167789,2.1511316e-07
C1S860,利嘉,2013-02-14,22.809417,121.050528,3.9822204e-08
72C440,桃園農改,2013-02-14,24.950944,121.030583,2.7388272e-05
E2S980,林試太麻里1,2013-02-14,22.598922,120.980044,0.81930304
C0X170,關廟,2013-02-14,22.963017,120.327797,9.4630055e-09
C0V720,林園,2013-02-14,22.507747,120.394511,7.1792465e-09
C1I510,線浸林道,2013-02-14,23.761508,120.832956,8.414159e-10
C0D690,外湖,2013-02-14,24.917735,120.968711,0.00010310567
C0C750,新興坑尾,2013-02-14,25.0061,121.0971,2.7351791e-06
B2Q810,畜試南區分所,2013-02-14,21.945583,120.802167,0.9034749
C0S790,金崙,2013-02-14,22.538122,120.966875,0.0024098884
C0AH90,福山植物園,2013-02-14,24.760717,121.58135,5.9094788e-08
C0I540,奇萊稜線,2013-02-14,24.109231,121.326456,2.040805e-08
C0M850,表湖,2013-02-14,23.24186,120.64166,2.702002e-09
C0S770,大溪山,2013-02-14,22.478475,120.943325,4.36033e-06
C0AG80,中和,2013-02-14,24.991622,121.491792,6.268646e-07
C0T790,大禹嶺,2013-02-14,24.186117,121.316086,1.2521915e-08
C0T9B0,水源,2013-02-14,23.991861,121.537169,2.397295e-07
C0R840,牡丹池山,2013-02-14,22.168389,120.841225,0.072124295
C1I131,桶頭,2013-02-14,23.641944,120.654117,1.8314176e-09
CAL110,布袋國中,2013-02-14,23.35893,120.18026,5.0796867e-08
467571,新竹,2013-02-14,24.827853,121.014219,1.7759897e-06
C0Z290,赤柯山,2013-02-14,23.36893,121.38293,6.038735e-08
C0X280,將軍,2013-02-14,23.214999,120.13577,1.3578139e-07
C0S690,太麻里,2013-02-14,22.60902,120.98533,8.813597e-07
C0U880,北關,2013-02-14,24.9072,121.8734,1.7023352e-05
C1H860,瑞岩,2013-02-14,24.123772,121.18345,3.8316053e-09
C0G810,埔心,2013-02-14,23.947633,120.525456,2.7619674e-08
C0U970,大福,2013-02-14,24.80064,121.81389,3.0290082e-07
C2H9N0,仁愛東眼,2013-02-14,24.026875,121.1205,2.7157818e-09
C1E670,南礦,2013-02-14,24.538278,121.002836,3.5348122e-09
C0M520,東後寮,2013-02-14,23.369908,120.248065,4.9323962e-08
C1E461,松安,2013-02-14,24.397972,120.986022,2.540689e-09
72G600,臺中農改,2013-02-14,24.003028,120.534389,2.5274998e-08
C2N160,西拉雅風管處,2013-02-14,23.189481,120.335297,3.6622314e-08
C2M970,碧湖,2013-02-14,23.568632,120.624165,2.3824855e-09
C0A640,石碇,2013-02-14,24.993969,121.662917,1.1666671e-07
E2S960,林試太麻里2,2013-02-14,22.598,120.99775,0.9678111
C0F9Y0,桃山,2013-02-14,24.432739,121.303808,1.7338829e-08
C1I020,萬大,2013-02-14,23.979817,121.132261,2.212025e-09
C0U940,羅東,2013-02-14,24.68184,121.74934,1.517307e-06
C0M650,朴子,2013-02-14,23.43463,120.23902,2.0541732e-07
C1I500,大尖山,2013-02-14,23.858572,120.994889,6.3918852e-09
C0G820,田尾,2013-02-14,23.901669,120.509389,2.542251e-08
E2K600,四湖植物園,2013-02-14,23.676986,120.163433,3.8561538e-07
C0S730,綠島,2013-02-14,22.6672,121.47533,0.00107817
12Q970,東港工作站,2013-02-14,22.479997,120.466058,5.5708496e-09
C0E430,南庄,2013-02-14,24.601775,121.000214,1.514392e-08
C1TA00,太魯閣,2013-02-14,24.15773,121.6236,1.4641231e-06
466920,臺北,2013-02-14,25.037658,121.514853,6.2686405e-07
C0R600,舊泰武,2013-02-14,22.588194,120.664944,7.1933233e-09
C1I260,北坑,2013-02-14,23.9246,121.006903,1.1451673e-09
466910,鞍部,2013-02-14,25.182586,121.529731,5.3622514e-08
C1I230,九份二山,2013-02-14,23.961944,120.845,1.4610695e-09
C2A660,瑞芳,2013-02-14,25.113169,121.801147,2.5235315e-07
C0R270,琉球嶼,2013-02-14,22.332244,120.362236,1.2293311e-08
C1T990,高寮,2013-02-14,23.394239,121.356808,5.6071517e-06
C0G620,芬園,2013-02-14,24.015678,120.6213,9.6331325e-09
C1Z140,荖溪,2013-02-14,23.890575,121.45964,3.8388567e-08
C1I201,中心崙,2013-02-14,23.728722,120.712097,1.3900652e-09
C1I400,凌霄,2013-02-14,24.018778,121.004456,2.6549767e-09
C1M640,十字,2013-02-14,23.492153,120.753683,2.5915161e-09
G2P820,農試鳳山分所,2013-02-14,22.646611,120.356083,6.0288463e-09
C0Z270,蕃薯寮,2013-02-14,23.73835,121.540108,2.680412e-06
C0F9Q0,外埔,2013-02-14,24.347817,120.705686,2.235626e-08
C0K580,高鐵雲林,2013-02-14,23.737456,120.417944,2.576538e-09
C2I090,鳳凰,2013-02-14,23.728081,120.787347,7.116869e-10
C0U990,員山,2013-02-14,24.74435,121.72247,1.3841299e-06
C0V770,大社,2013-02-14,22.730306,120.346639,1.0803402e-08
C0X120,麻豆,2013-02-14,23.183289,120.248611,1.17052984e-07
C0C670,龍潭,2013-02-14,24.870056,121.221389,3.746348e-08
C0D680,香山濕地,2013-02-14,24.783581,120.914988,6.663605e-06
C0S980,勝林山,2013-02-14,22.430439,120.8938,6.747974e-08
C0V730,大寮,2013-02-14,22.605614,120.395717,1.6830701e-09
C0R570,麟洛,2013-02-14,22.65078,120.52719,1.4796828e-09
C2M930,石卓,2013-02-14,23.478744,120.702264,2.5360072e-09
C0G9B0,和美,2013-02-14,24.105169,120.492131,3.9355633e-08
CAG100,王功漁港,2013-02-14,23.96824,120.32586,3.101975e-07
C0X290,北門,2013-02-14,23.267772,120.125481,1.354375e-07
C2F930,大甲,2013-02-14,24.347667,120.640403,4.477544e-07
C0D650,湖口,2013-02-14,24.904794,121.043628,9.176881e-06
C0E420,竹南,2013-02-14,24.708978,120.888897,4.1276444e-06
C0U780,五結,2013-02-14,24.68637,121.79794,1.5657866e-06
C1I250,鯉潭,2013-02-14,23.961922,120.991131,1.2998393e-09
C0R130,阿禮,2013-02-14,22.742908,120.743678,3.4120562e-09
C0X100,臺南市北區,2013-02-14,23.010394,120.194228,4.0666688e-08
C0S920,金峰嘉蘭,2013-02-14,22.594789,120.960825,0.7320418
C0V490,新興,2013-02-14,22.627422,120.298803,7.1792465e-09
C0F9K0,大安,2013-02-14,24.345061,120.588025,1.2678496e-06
72N100,臺南農改,2013-02-14,23.0605,120.342194,9.219057e-09
467290,古坑,2013-02-14,23.633639,120.551889,2.087006e-09
C2E970,八甲,2013-02-14,24.535811,120.795983,2.996818e-08
C0V440,鳳山,2013-02-14,22.646653,120.356122,6.0288463e-09
C1T940,大觀,2013-02-14,23.714206,121.373133,5.2861816e-07
72T250,花蓮農改,2013-02-14,23.975222,121.563889,1.3102955e-06
C0E740,造橋,2013-02-14,24.637056,120.864778,4.4609045e-08
C0R100,尾寮山,2013-02-14,22.833111,120.683889,4.143791e-09
A2K630,臺大雲林校區,2013-02-14,23.730628,120.423903,2.5729971e-09
C0D580,寶山,2013-02-14,24.735006,121.025192,6.727874e-08
E2P990,林試扇平站,2013-02-14,22.9677,120.6857,9.103678e-09
C0AI30,三重,2013-02-14,25.057328,121.500629,3.4851374e-07
C0AH00,汐止,2013-02-14,25.066881,121.658778,8.572925e-06
C1Z040,立山,2013-02-14,23.443356,121.327375,5.068678e-07
C0W130,花嶼,2013-02-14,23.40007,119.32276,0.98552847
C0A950,鼻頭角,2013-02-14,25.129036,121.923372,4.3642927e-07
C0K470,林內,2013-02-14,23.748675,120.609642,2.372129e-09
C2F990,摩天嶺,2013-02-14,24.322458,120.936819,2.986329e-09
82C160,茶改場,2013-02-14,24.908472,121.185333,1.8283164e-07
C0Z320,清水林道,2013-02-14,23.27125,121.188272,6.106399e-08
C0R760,南仁湖,2013-02-14,22.084681,120.863353,0.9999533
C0M670,大林,2013-02-14,23.600616,120.45841,2.4559247e-07
C0M800,茶山,2013-02-14,23.299075,120.664767,2.3219215e-09
C0A9C0,天母,2013-02-14,25.117494,121.537169,3.180458e-07
72K220,南改斗南分場,2013-02-14,23.634556,120.477333,2.5015139e-09
72AI40,桃改樹林分場,2013-02-14,24.944503,121.386972,3.0794354e-07
C0S910,蘭嶼燈塔,2013-02-14,22.081197,121.503117,0.96641964
C0B050,八斗子,2013-02-14,25.144754,121.79167,1.0993465e-05
C0U900,內城,2013-02-14,24.71813,121.68766,2.5595656e-07
C0X320,柳營,2013-02-14,23.253328,120.375253,8.055575e-08
C0M790,新港,2013-02-14,23.553269,120.345728,6.8665656e-08
C0F9T0,西屯,2013-02-14,24.179494,120.641275,4.031664e-07
C0SA30,都歷,2013-02-14,23.020333,121.323642,0.0039098025
C0C620,蘆竹,2013-02-14,25.084275,121.265767,7.875745e-07
C0R730,大坪頂,2013-02-14,22.024633,120.69355,0.9985173
C0AJ40,石門,2013-02-14,25.273672,121.601198,8.8239835e-07
C0E750,苗栗,2013-02-14,24.564569,120.824575,9.448613e-07
C0T870,鯉魚潭,2013-02-14,23.935639,121.508944,2.8400596e-06
C1V170,排雲,2013-02-14,23.463619,120.954147,1.9094514e-08
C2H950,中寮,2013-02-14,23.884447,120.766406,1.3913676e-09
C0R350,貓鼻頭,2013-02-14,21.921774,120.7358,0.92750645
C0V660,岡山,2013-02-14,22.797078,120.294958,4.9917923e-09
C1H941,雙冬,2013-02-14,23.967378,120.802189,1.1523849e-09
C0AJ70,田寮,2013-02-14,25.2698,121.4886,2.4899894e-06
C0AI00,五股,2013-02-14,25.07445,121.42728,8.30966e-07
C0Z280,德武,2013-02-14,23.47426,121.41071,1.7327887e-06
C0R700,枋山,2013-02-14,22.246844,120.661086,0.023384433
C0C460,復興,2013-02-14,24.820208,121.352281,4.86594e-08
E2H360,蓮華池,2013-02-14,23.918333,120.885278,8.8681074e-10
C0M640,中埔,2013-02-14,23.42538,120.5229,2.290174e-09
C0W140,金沙,2013-02-14,24.488292,118.408778,5.8417676e-08
C2A540,四堵,2013-02-14,24.8926,121.745736,1.5665603e-07
C0ACA0,新莊,2013-02-14,25.051478,121.446756,1.0067978e-06
C0R220,潮州,2013-02-14,22.534361,120.54,1.8179177e-09
U2HA40,臺大內茅埔,2013-02-14,23.689722,120.851117,8.152048e-10
467490,臺中,2013-02-14,24.145736,120.684075,4.1141547e-07
C0U960,翠峰湖,2013-02-14,24.510856,121.608044,2.2109672e-08
E2HA20,林試畢祿溪站,2013-02-14,24.226944,121.308522,5.6200924e-09
C0V890,前鎮,2013-02-14,22.5718,120.3117,7.419739e-09
467620,蘭嶼,2013-02-14,22.036969,121.558339,0.999076
C1F941,雪嶺,2013-02-14,24.280586,121.026642,9.732659e-09
C2H9E0,國姓南港,2013-02-14,23.911108,120.846556,1.411899e-09
C0AC80,文山,2013-02-14,25.00235,121.575728,4.870968e-07
C0F9R0,龍井,2013-02-14,24.184536,120.528972,1.1838325e-06
C0M760,民雄,2013-02-14,23.551754,120.428457,1.7905425e-07
C0UA40,西德山,2013-02-14,24.560647,121.752608,3.3145632e-08
C1T920,中興,2013-02-14,23.769503,121.498653,6.346403e-06
C0D550,雪霸,2013-02-14,24.526972,121.11605,6.2916e-09
C2F860,梨山,2013-02-14,24.247522,121.243669,5.810971e-09
C0R320,車城,2013-02-14,22.0744,120.716247,0.87762856
C1S870,南美山,2013-02-14,23.15025,121.382333,5.6446115e-06
C0B020,基隆嶼,2013-02-14,25.19141,121.78391,8.572917e-06
C1U501,牛鬥,2013-02-14,24.637836,121.573656,1.2638547e-07
C0M730,嘉義市東區,2013-02-14,23.457673,120.460531,2.1049932e-07
C0S700,知本,2013-02-14,22.684866,121.005642,1.2737663e-06
C1N001,沙崙,2013-02-14,22.935472,120.309406,1.3094776e-08
C0V760,橋頭,2013-02-14,22.757806,120.30575,4.696372e-09
C0G960,福寶,2013-02-14,24.0443,120.3814,3.780069e-08
C0X210,白河,2013-02-14,23.347466,120.414427,7.152843e-08
C0S810,東河,2013-02-14,22.972672,121.303986,4.900808e-07
C2R170,屏東,2013-02-14,22.66027,120.49403,1.5662496e-09
C0R670,楓港,2013-02-14,22.190131,120.692156,0.023384433
C0FA50,霧峰,2013-02-14,24.0419,120.6995,1.9022272e-07
C0UB10,蘇澳,2013-02-14,24.5969,121.8571,6.444767e-07
C0G950,防潮門,2013-02-14,24.1835,120.4871,1.3085946e-06
C0M740,六腳,2013-02-14,23.492871,120.290625,8.5743466e-08
C1R250,力里,2013-02-14,22.428117,120.629228,9.0882715e-09
C0K330,虎尾,2013-02-14,23.719183,120.442036,2.5579017e-09
C2FA00,烏石坑,2013-02-14,24.273503,120.947617,2.9606768e-09
C0V620,永安,2013-02-14,22.82315,120.236856,4.0426382e-09
C1I330,楓樹林,2013-02-14,23.986803,121.076117,2.3669315e-09
C0W200,湖西,2013-02-14,23.596314,119.67275,0.88254446
72Q010,高雄農改場,2013-02-14,22.709333,120.525889,1.4598522e-09
C0SA40,瑞和,2013-02-14,22.974361,121.156697,3.6989175e-05
C0C680,龜山,2013-02-14,25.02846,121.38656,1.9970159e-08
C2V260,月眉,2013-02-14,22.971003,120.539853,1.4382504e-09
C0V450,鳳森,2013-02-14,22.545064,120.392592,1.6192504e-09
C0U720,南山,2013-02-14,24.43742,121.38167,2.9849698e-08
A2N290,臺南蘭花園區,2013-02-14,23.340258,120.379661,8.055575e-08
C0R560,新園,2013-02-14,22.5434,120.461558,5.3830718e-09
C0U890,三星,2013-02-14,24.66812,121.65302,1.9748593e-07
C1V300,御油山,2013-02-14,23.001983,120.715364,8.89408e-09
C0U600,礁溪,2013-02-14,24.817539,121.765608,2.7988438e-07
C1T980,龍澗,2013-02-14,24.023289,121.411328,2.6103189e-08
C0D670,海天一線,2013-02-14,24.831986,120.914438,7.85646e-06
C0SA00,歷坵,2013-02-14,22.520969,120.89185,1.4405279e-06
C0M710,東石,2013-02-14,23.458927,120.15385,1.5371454e-07
C0M780,鹿草,2013-02-14,23.41134,120.30835,9.25576e-08
C0U520,雙連埤,2013-02-14,24.753033,121.641303,2.8876187e-08
C0B010,七堵,2013-02-14,25.094819,121.71713,6.7731903e-06
C0R480,長治,2013-02-14,22.693128,120.542622,1.1642998e-09
C1V830,國三S383K,2013-02-14,22.781967,120.426475,1.2234896e-09
12Q980,恆春工作站,2013-02-14,22.079678,120.714425,0.87762856
C1O940,東山服務區,2013-02-14,23.286016,120.398472,6.799589e-08
C1U840,東澳嶺,2013-02-14,24.5378,121.8485,6.877523e-08
C1D630,飛鳳山,2013-02-14,24.766464,121.119178,1.7037097e-08
C0S940,石寧山,2013-02-14,23.223772,121.406639,1.4576527e-07
C0K410,北港,2013-02-14,23.573957,120.292802,7.459844e-08
C2M620,瑞里,2013-02-14,23.545133,120.675197,3.140571e-09
C0SB70,小港漁港,2013-02-14,23.158558,121.400431,3.5073973e-07
C2O950,安南,2013-02-14,23.076694,120.144861,6.994001e-08
C0F0E0,南湖圈谷,2013-02-14,24.363714,121.444667,3.7265856e-08
467610,成功,2013-02-14,23.097486,121.373428,0.026750278
C0G890,伸港,2013-02-14,24.148933,120.484403,1.1932834e-06
C2E540,龍溪,2013-02-14,24.606489,120.783933,1.426039e-06
C1V200,梅山,2013-02-14,23.268447,120.823556,5.954484e-09
C0T9H0,加路蘭山,2013-02-14,23.682947,121.5274,2.254386e-07
C2O930,玉井,2013-02-14,23.126042,120.46055,4.3588727e-08
C1F911,新伯公,2013-02-14,24.221361,120.841069,2.4296936e-09
C0R490,九如,2013-02-14,22.7405,120.490503,1.4796828e-09
C0X200,左鎮,2013-02-14,23.056758,120.408522,1.6841211e-08
C0SB50,叭嗡嗡,2013-02-14,23.047062,121.343223,8.162524e-07
C1F891,稍來,2013-02-14,24.265689,121.001142,6.250514e-09
72N240,七股研究中心,2013-02-14,23.081672,120.062894,6.662618e-07
C0C700,中壢,2013-02-14,24.977661,121.256375,5.016329e-07
C0M690,水上,2013-02-14,23.419734,120.388909,2.426243e-07
C0V690,鼓山,2013-02-14,22.623325,120.275575,7.1792465e-09
C0O860,大內,2013-02-14,23.11885,120.36083,5.9043157e-09
C0Z200,萬榮,2013-02-14,23.709219,121.420106,2.8400596e-06
C0T9D0,和中,2013-02-14,24.26676,121.74103,4.0183277e-06
C1O921,楠西,2013-02-14,23.183511,120.484083,4.8762246e-08
C0AJ30,淡水觀海,2013-02-14,25.184591,121.408616,9.229059e-07
C0V810,左營,2013-02-14,22.67491,120.28491,1.2586855e-08
C0UA70,桃源谷,2013-02-14,24.962606,121.888875,4.7242253e-08
C0X130,官田,2013-02-14,23.193217,120.315422,3.490136e-08
C1H000,翠峰,2013-02-14,24.109397,121.205211,9.409587e-09
C0UA90,石城,2013-02-14,24.980444,121.951214,5.456614e-07
C1E681,南勢山,2013-02-14,24.421669,120.923831,2.5327878e-09
C0A9F0,內湖,2013-02-14,25.079422,121.57545,6.2686405e-07
C0K291,宜梧,2013-02-14,23.536281,120.169329,1.7107277e-07
C1K540,口湖,2013-02-14,23.585344,120.180517,1.4353373e-07
C0R780,滿州,2013-02-14,22.024403,120.839892,0.937507
C0V870,文安,2013-02-14,22.8025,120.2164,4.270211e-09
C0U650,玉蘭,2013-02-14,24.675286,121.587061,7.7797544e-08
C0R640,東港,2013-02-14,22.46247,120.44074,7.4012796e-09
K2E360,苗栗農改,2013-02-14,24.495722,120.829111,4.792127e-08
C0AJ80,板橋,2013-02-14,25.0107,121.4489,3.368575e-07
C0S660,下馬,2013-02-14,23.150427,121.070312,5.264206e-08
C1H9B1,阿眉,2013-02-14,24.1263,120.994672,4.7906994e-09
C0UA20,多加屯,2013-02-14,24.368614,121.373189,1.1726735e-08
C0E730,頭份,2013-02-14,24.688247,120.912206,4.1276444e-06
72V140,高改旗南分場,2013-02-14,22.857861,120.516667,1.91414e-09
C0K480,莿桐,2013-02-14,23.761192,120.502372,2.372491e-09
C0U980,坪林石牌,2013-02-14,24.86478,121.77396,4.6076998e-08
C0T900,西林,2013-02-14,23.8119,121.441458,1.94429e-06
C1I150,青雲,2013-02-14,23.793361,120.949378,1.1013302e-09
467350,澎湖,2013-02-14,23.565503,119.563094,0.95831925
C0G800,埔鹽,2013-02-14,24.000394,120.431683,3.4013436e-08
C0H960,草屯,2013-02-14,23.973672,120.68085,1.6242987e-09
C1V780,多納林道,2013-02-14,22.888028,120.737917,6.632895e-09
C0E920,通霄漁港,2013-02-14,24.498589,120.673876,2.161648e-06
C0Z330,安通山,2013-02-14,23.290728,121.348528,5.9532834e-08
C0AH10,永和,2013-02-14,25.01125,121.508111,6.660859e-07
C0AK10,太平里,2013-02-14,25.134937,121.364899,1.0067978e-06
C2G640,鹿港,2013-02-14,24.0753,120.430481,3.408045e-08
C1E890,國三N149K,2013-02-14,24.463414,120.680019,9.768358e-07
C1R110,口社,2013-02-14,22.770111,120.645222,1.6836417e-09
C1M870,國三N285K,2013-02-14,23.550319,120.505833,2.2928663e-09
467050,新屋,2013-02-14,25.006744,121.047486,6.108955e-05
C1E480,鳳美,2013-02-14,24.554803,121.034747,2.7924878e-09
C0M530,奮起湖,2013-02-14,23.493903,120.699253,3.5228989e-09
C0C590,觀音,2013-02-14,25.027072,121.153317,3.4104158e-07
C0T9M0,靜浦,2013-02-14,23.455167,121.495028,1.3169667e-05
C2H9M0,發祥,2013-02-14,24.154094,121.164517,1.987462e-09
C0AI40,石牌,2013-02-14,25.115597,121.513139,3.368575e-07
C1F871,上谷關,2013-02-14,24.203483,121.018644,2.9606768e-09
C2H9G0,百勝,2013-02-14,24.051142,120.909361,2.385878e-09
C0G880,二水,2013-02-14,23.810742,120.6173,1.7409304e-09
C0R940,加祿堂,2013-02-14,22.3363,120.6217,1.9072711e-08
C0W220,北竿,2013-02-14,26.220358,119.974881,2.7024672e-08
C0O960,崎頂,2013-02-14,22.959547,120.369317,1.2644069e-09
C0S750,向陽,2013-02-14,23.248397,120.986133,9.666502e-09
C0T9F0,水璉,2013-02-14,23.797131,121.542514,9.165022e-07
C1M600,頭凍,2013-02-14,23.406364,120.603339,2.417144e-09
467660,臺東,2013-02-14,22.752211,121.154586,0.0053251768
C1D380,新埔,2013-02-14,24.84745,121.03834,8.166846e-07
C2G980,田頭村,2013-02-14,23.8263,120.444175,3.1953622e-09
C0V750,路竹,2013-02-14,22.854997,120.259439,2.1676605e-09
C0N050,蚵寮,2013-02-14,23.301,120.1104,7.2879675e-07
72M700,南改鹿草分場,2013-02-14,23.416869,120.283061,1.0742113e-07
C1SA50,利嘉林道,2013-02-14,22.82325,121.009389,1.7909741e-08
467550,玉山,2013-02-14,23.487614,120.959522,2.1527175e-08
C0A940,金山,2013-02-14,25.223628,121.643967,1.9119152e-06
C1V340,大津,2013-02-14,22.888322,120.645986,1.5705632e-09
C0W180,七美,2013-02-14,23.219333,119.444892,0.9697115
C1F9C1,白冷,2013-02-14,24.182844,120.929889,1.7441011e-09
K2E710,苗改生物防治研究中心,2013-02-14,24.422861,120.871833,1.1913199e-08
C0N040,蘆竹溝,2013-02-14,23.2344,120.0961,7.2879675e-07
C2W230,畜試所澎湖,2013-02-14,23.628342,119.513206,0.89953667
C0R880,後壁湖,2013-02-14,21.9457,120.7457,0.8634949
C1I280,埔中,2013-02-14,23.820778,120.642594,1.2132716e-09
467790,墾丁雷達站,2013-02-14,21.948235,120.808028,0.9469976
C0W190,望安,2013-02-14,23.380564,119.494075,0.94378036
466881,新北,2013-02-14,24.9593,121.52,5.6458214e-07
C0Z170,卓溪,2013-02-14,23.3443,121.3029,2.1876801e-07
C0F850,東勢,2013-02-14,24.246428,120.833047,2.4875542e-09
466900,淡水,2013-02-14,25.164889,121.448906,8.944641e-07
C0I370,魚池,2013-02-14,23.895703,120.94135,8.692951e-10
C0C630,大溪,2013-02-14,24.882853,121.265547,3.1048754e-07
C0A520,山佳,2013-02-14,24.974944,121.402008,3.0843466e-07
C0I110,竹山,2013-02-14,23.761225,120.688156,1.3849892e-09
82H840,茶改南部分場,2013-02-14,23.762528,120.7405,1.0556438e-09
C0G660,溪湖,2013-02-14,23.94835,120.479122,2.9501935e-08
C1T800,洛韶,2013-02-14,24.204558,121.453956,3.9867423e-08
C1T810,慈恩,2013-02-14,24.192044,121.388386,1.3674608e-08
C1E451,象鼻,2013-02-14,24.368617,120.940228,2.5628046e-09
C0AC60,三峽,2013-02-14,24.939025,121.369728,5.367373e-07
C0I490,萬大林道,2013-02-14,23.928228,121.091411,6.228319e-09
C1I290,豐丘,2013-02-14,23.668178,120.887417,8.410661e-10
C1I320,奧萬大,2013-02-14,23.952956,121.178556,2.385159e-09
C2M910,嘉義大學,2013-02-14,23.471325,120.485903,2.1608122e-09
C0U770,南澳,2013-02-14,24.44935,121.81022,2.909166e-07
C0A980,社子,2013-02-14,25.109508,121.469681,3.7057438e-07
C0V800,六龜,2013-02-14,22.997889,120.633583,1.847141e-09
C1G9D0,國一S218K,2013-02-14,23.890641,120.493253,2.7619674e-08
C0E570,白沙屯,2013-02-14,24.549447,120.696803,2.156021e-06
C2F9A0,中竹林,2013-02-14,24.103556,120.751061,1.7205594e-09
C0FA40,臺中電廠,2013-02-14,24.2146,120.4907,1.1838325e-06
C2G9A0,畜試所彰化,2013-02-14,23.86045,120.557964,1.7398915e-09
C0H9C0,合歡山,2013-02-14,24.143442,121.272547,2.1408104e-08
C0X060,下營,2013-02-14,23.22695,120.256261,4.0928146e-08
G2M350,農試溪口農場,2013-02-14,23.58565,120.408111,2.1488884e-07
C0U860,頭城,2013-02-14,24.85323,121.8308,2.9852802e-07
C0R580,南州,2013-02-14,22.48591,120.50274,5.5708496e-09
C0D430,峨眉,2013-02-14,24.6905,121.017189,1.3799768e-06
C0G780,秀水,2013-02-14,24.03405,120.503869,2.6863406e-08
72N100,臺南農改場,2013-02-14,23.0605,120.342194,9.219057e-09
C0S900,蘭嶼高中,2013-02-14,22.04909,121.51214,0.77364886
467540,大武,2013-02-14,22.355675,120.903789,0.99816895
C1F9W0,德基,2013-02-14,24.254783,121.190261,4.5986193e-09
C1Z120,壽豐,2013-02-14,23.870853,121.508081,1.1143331e-05
C0W160,烏坵,2013-02-14,24.9944,119.44956,6.817998e-06
C1I240,外大坪,2013-02-14,23.958697,120.917931,1.3265385e-09
C1I550,國六W023K,2013-02-14,23.979067,120.867742,1.431111e-09
C0R870,興海,2013-02-14,21.9752,120.8439,0.9034749
C0R140,瑪家,2013-02-14,22.682903,120.686639,7.784635e-09
C0A530,坪林,2013-02-14,24.938183,121.70975,1.0907781e-07
C0X260,後壁,2013-02-14,23.366358,120.362326,2.0707775e-08
C0Z230,和平,2013-02-14,24.30717,121.77007,4.0241457e-06
C0G770,福興,2013-02-14,24.041289,120.437669,3.4013304e-08
C0H9A0,神木村,2013-02-14,23.532742,120.843667,3.764138e-09
C0I460,南投,2013-02-14,23.911469,120.687331,1.4066923e-09
C0I480,梅峰,2013-02-14,24.085272,121.173572,5.426337e-09
C1V570,吉東,2013-02-14,22.85422,120.5454,1.8880257e-09
C2D740,屯原,2013-02-14,24.067969,121.209389,5.7981837e-09
C2A560,福山,2013-02-14,24.776203,121.502811,2.1702595e-08
C0AH30,五分山,2013-02-14,25.07125,121.780794,4.528406e-08
C0FA10,松柏,2013-02-14,24.429115,120.617482,9.538344e-07
72S200,東改班鳩分場,2013-02-14,22.829528,121.077694,2.8144612e-05
72HA00,中改埔里分場,2013-02-14,23.903208,120.963364,8.4910445e-10
C2H9W0,大坪頂農水,2013-02-14,24.043122,120.932781,1.3077972e-09
C0C650,平鎮,2013-02-14,24.897503,121.214636,1.8283164e-07
C0S930,延平,2013-02-14,22.902581,121.084058,1.7931536e-07
C0UA60,樟樹山,2013-02-14,24.41393,121.78325,1.279753e-07
C1S670,摩天,2013-02-14,23.199503,121.027,1.4086664e-08
C0V630,茄萣,2013-02-14,22.906642,120.182608,3.7497006e-08
466940,基隆,2013-02-14,25.133314,121.740475,9.9493745e-06
C0X050,東河,2013-02-14,23.296598,120.385608,8.055575e-08
C0R770,保力,2013-02-14,22.071122,120.764111,0.96851045
G2L020,農試嘉義分所,2013-02-14,23.485028,120.473806,2.1206357e-09
C0X240,關子嶺,2013-02-14,23.331169,120.508025,1.9713222e-09
C0I380,集集,2013-02-14,23.828206,120.801467,1.0718486e-09
466990,花蓮,2013-02-14,23.975128,121.613275,1.7186977e-06
C1V220,小關山,2013-02-14,23.154217,120.813603,9.856893e-09
C1F9G1,慶福山,2013-02-14,24.180853,120.848378,3.1004792e-09
C0Z250,瑞穗林道,2013-02-14,23.49284,121.30688,4.6402082e-08
C0D590,新豐,2013-02-14,24.87068,120.97721,5.560242e-07
C0A870,五指山,2013-02-14,25.132153,121.608692,6.1351884e-08
C0UA50,西帽山,2013-02-14,24.555361,121.802628,5.66264e-08
C0X160,仁德,2013-02-14,22.968258,120.257689,1.14239285e-08
C1H971,六分寮,2013-02-14,23.92507,120.6378,1.3024576e-09
C0W120,西嶼,2013-02-14,23.5626,119.468436,0.95831925
C0G650,員林,2013-02-14,23.946503,120.585597,1.5774873e-08
C0AD50,鶯歌,2013-02-14,24.951533,121.346294,2.9865674e-07
C2H9Q0,北東眼山,2013-02-14,24.120939,121.189303,5.6466214e-09
C2H9T0,名間竹圍,2013-02-14,23.859914,120.637572,1.1033592e-09
C0S990,山豬窟,2013-02-14,22.318619,120.857372,0.9995248
72Q010,高雄農改,2013-02-14,22.709333,120.525889,1.4598522e-09
C0X190,安平,2013-02-14,22.993161,120.152181,4.0666688e-08
C0K400,斗六,2013-02-14,23.720583,120.541127,2.4830555e-09
12J990,口湖工作站,2013-02-14,23.589978,120.180394,1.3675735e-07
C0O830,北寮,2013-02-14,23.079561,120.495008,1.6224904e-09
C1D410,白蘭,2013-02-14,24.579364,121.079947,3.691579e-09
C0S970,加津林,2013-02-14,22.416211,120.926942,0.99847317
C0D700,關西,2013-02-14,24.7977,121.1732,2.502413e-07
C0M810,里佳,2013-02-14,23.389125,120.716647,3.5214478e-09
C0U750,龜山島,2013-02-14,24.841667,121.953133,9.4572705e-08
C0R810,內獅,2013-02-14,22.305064,120.642986,1.9072711e-08
C1M390,龍美,2013-02-14,23.406728,120.654417,2.9306915e-09
C2FB60,頭櫃山,2013-02-14,24.129842,120.858925,2.048104e-09
C1H840,國三N238K,2013-02-14,23.841008,120.707711,1.076941e-09
CAQ030,崎峰國小,2013-02-14,22.42565,120.49521,5.5708496e-09
C2E520,大湖,2013-02-14,24.414939,120.870872,9.05084e-08
467530,阿里山,2013-02-14,23.508208,120.813242,7.0785604e-09
C1E691,南湖,2013-02-14,24.40135,120.837533,2.6695501e-09
C0FA30,梧棲,2013-02-14,24.256003,120.523381,1.1838325e-06
C1V231,高中,2013-02-14,23.134911,120.716711,2.9988978e-09
C0F9V0,新社,2013-02-14,24.200172,120.815806,2.4445406e-09
C0H890,埔里,2013-02-14,23.972169,120.952425,1.6983749e-09
C0R690,墾丁,2013-02-14,21.966756,120.810269,0.9998188
C0F0D0,審馬陣,2013-02-14,24.381675,121.4203,2.0752573e-08
C0R820,白鷺,2013-02-14,22.454275,120.666219,3.4252622e-08
U2H480,臺大溪頭,2013-02-14,23.670306,120.798194,9.406262e-10
C1V190,南天池,2013-02-14,23.27403,120.91176,1.0774387e-08
K2E360,苗栗農改場,2013-02-14,24.495722,120.829111,4.792127e-08
CAJ050,海口故事園區,2013-02-14,23.57543,120.14121,1.4353373e-07
C2H9D0,三隻寮,2013-02-14,24.093078,120.861578,1.3348431e-09
C0O990,媽廟,2013-02-14,22.99175,120.293525,1.0811091e-08
C0D480,打鐵坑,2013-02-14,24.849664,121.150789,2.3030843e-08
C0Z220,和平林道,2013-02-14,24.343922,121.656317,1.2542166e-07
C0TA10,花蓮漁港,2013-02-14,23.995322,121.638331,1.8016538e-06
72C440,桃園農改場,2013-02-14,24.950944,121.030583,2.7388272e-05
C1E711,馬拉邦山,2013-02-14,24.367306,120.901656,3.3396597e-09
C0SB20,富岡,2013-02-14,22.792467,121.192669,0.0031570452
C0D560,竹東,2013-02-14,24.767147,121.057881,2.2810231e-07
C0F9U0,南屯,2013-02-14,24.137006,120.637969,3.6625076e-07
C0M720,番路,2013-02-14,23.464657,120.554156,2.0907829e-09
C0F0A0,雪山圈谷,2013-02-14,24.388594,121.236339,2.23723e-08
C1A9N0,四十份,2013-02-14,24.934158,121.593283,7.632585e-08
C0U760,東澳,2013-02-14,24.52196,121.83318,1.3299409e-07
C0X230,鹽水,2013-02-14,23.272621,120.247641,6.863305e-08
C2H9H0,苗改南投蜂場,2013-02-14,23.852589,120.693481,1.3849892e-09
C0R950,萬隆國小,2013-02-14,22.507667,120.587817,9.865898e-10
C0V370,古亭坑,2013-02-14,22.893178,120.401947,1.5039287e-08
C1I340,新興橋,2013-02-14,23.563333,120.868728,9.102284e-10
C0SA80,土坂,2013-02-14,22.453108,120.887572,0.25563163
C0R160,鹽埔,2013-02-14,22.739558,120.530778,1.1683018e-09
C0AC40,大屯山,2013-02-14,25.175675,121.522408,4.604748e-08
466850,五分山雷達站,2013-02-14,25.071182,121.781205,4.5406008e-08
C2H9L0,馬烈霸,2013-02-14,24.1512,121.201772,5.5515237e-09
C1AI50,國三N016K,2013-02-14,25.034164,121.619664,5.081601e-07
C1V600,藤枝,2013-02-14,23.071961,120.757042,8.629849e-09
C1E601,南勢,2013-02-14,24.572486,120.734842,6.038839e-08
C0Z180,新城,2013-02-14,24.03946,121.60454,1.462906e-06
C0O980,新市,2013-02-14,23.061614,120.298197,1.0583943e-08
C0K420,西螺,2013-02-14,23.800407,120.467394,2.3875348e-09
C0Z050,佳心,2013-02-14,23.34567,121.21316,4.616884e-08
C0AD30,蘆洲,2013-02-14,25.086594,121.472331,3.480109e-07
C0V610,梓官,2013-02-14,22.760558,120.267211,4.9917923e-09
K2F750,種苗改良場,2013-02-14,24.225972,120.800917,2.3650903e-09
C0UA80,大溪漁港,2013-02-14,24.941801,121.902955,2.7988438e-07
C1AI60,國一39K邊坡,2013-02-14,25.064361,121.383836,1.205137e-07
C0W150,金寧,2013-02-14,24.457703,118.328989,5.40866e-08
C0R960,內埔,2013-02-14,22.608483,120.570714,9.931393e-10
V2C250,八德合作社,2013-02-14,24.93775,121.266389,2.7287362e-07
C2H9S0,龍南,2013-02-14,23.953536,120.833183,2.4768732e-09
C0AH40,平等,2013-02-14,25.129142,121.577086,9.8986845e-08
C0R540,佳冬,2013-02-14,22.419456,120.552375,5.5708496e-09
466950,彭佳嶼,2013-02-14,25.627975,122.079744,0.000106457795
C0A890,雙溪,2013-02-14,25.036003,121.864242,5.2539326e-06
C0C480,桃園,2013-02-14,24.992425,121.323172,6.028861e-07
C0AH50,林口,2013-02-14,25.072181,121.38084,1.3089524e-07
A2K360,水試臺西試驗場,2013-02-14,23.717231,120.190522,4.1400133e-07
B2N890,畜試所,2013-02-14,23.058972,120.336406,9.219057e-09
C2M960,外寮,2013-02-14,23.562643,120.665688,2.5140554e-09
C0F9S0,烏日,2013-02-14,24.107058,120.624103,2.4451154e-08
C0C490,八德,2013-02-14,24.928708,121.283289,4.0499998e-07
C0R190,赤山,2013-02-14,22.592333,120.614306,9.880888e-10
C0T820,天祥,2013-02-14,24.179597,121.495639,1.3567887e-07
C1F9E1,龍安,2013-02-14,24.1605,120.831961,2.480807e-09
C0V820,小林,2013-02-14,23.148408,120.63325,2.2205429e-09
C2G870,芳苑,2013-02-14,23.922303,120.320025,2.3514158e-07
C0E850,大河,2013-02-14,24.618069,120.948578,3.2603452e-08
C1U670,寒溪,2013-02-14,24.634,121.71691,6.8814984e-07
C0N020,城西,2013-02-14,23.0568,120.0956,5.5617323e-07
C1Z110,三棧,2013-02-14,24.11557,121.60501,2.3681616e-07
C0R280,檳榔,2013-02-14,22.076078,120.836777,0.9997646
C2H9J0,中台,2013-02-14,23.9996,120.938739,1.584443e-09
C0F9L0,后里,2013-02-14,24.310436,120.729725,1.4791616e-08
C0D540,橫山,2013-02-14,24.71116,121.11693,4.406722e-08
C1D420,太閣南,2013-02-14,24.632808,121.160575,9.400582e-09
C1E770,公館,2013-02-14,24.526914,120.830806,7.6507877e-07
CAN130,水試所海水繁養殖中心,2013-02-14,23.120802,120.07968,6.662618e-07
C1I430,翠華,2013-02-14,24.191961,121.224339,8.927188e-09
C1M400,菜瓜坪,2013-02-14,23.251928,120.576103,2.3221163e-09
C0G730,二林,2013-02-14,23.903325,120.376081,3.4848743e-08
72M360,南改義竹分場,2013-02-14,23.360694,120.279361,2.8706062e-08
V2K620,麥寮合作社,2013-02-14,23.753836,120.294783,2.630326e-07
C0Z070,舞鶴,2013-02-14,23.46811,121.37407,1.01761e-06
C0B040,大武崙,2013-02-14,25.166676,121.706993,6.7705164e-06
C1Z030,紅葉,2013-02-14,23.493119,121.338806,1.612559e-06
C1I050,丹大,2013-02-14,23.753747,121.141147,1.5943023e-08
C0I080,信義,2013-02-14,23.689694,120.851036,8.1520635e-10
C2M920,朴子農改,2013-02-14,23.469889,120.259383,8.5743466e-08
C2A880,福隆,2013-02-14,25.017842,121.942083,4.069474e-07
C0Z160,鳳林,2013-02-14,23.746114,121.453411,6.7496926e-06
C0V210,復興,2013-02-14,23.222403,120.806089,6.460524e-09
C0H990,昆陽,2013-02-14,24.121322,121.273642,1.5649126e-08
C0R741,獅子,2013-02-14,22.202308,120.705236,0.001024647
C0S710,鹿野,2013-02-14,22.917711,121.122994,8.084698e-08
C0I530,小奇萊,2013-02-14,24.131764,121.295717,1.6414914e-08
C2K630,荷苞,2013-02-14,23.657717,120.595144,2.0487134e-09
C0Z080,富源,2013-02-14,23.587642,121.378225,1.8195042e-06
467441,高雄,2013-02-14,22.7304,120.3125,1.2586855e-08
C0SB10,美和,2013-02-14,22.682078,121.060236,0.61022305
C2K620,馬光農場,2013-02-14,23.721453,120.378864,2.5942164e-09
C1I140,卡奈托灣,2013-02-14,23.754364,121.087872,4.7823e-09
C0I520,玉山風口,2013-02-14,23.470489,120.955994,2.2259716e-08
C1G691,下水埔,2013-02-14,23.816114,120.5676,1.7841812e-09
C0X110,臺南市南區,2013-02-14,22.961189,120.188378,3.752677e-08
C0V680,仁武,2013-02-14,22.701083,120.347722,1.0803402e-08
C2G840,北斗,2013-02-14,23.877586,120.514222,2.542251e-08
C0R900,竹坑,2013-02-14,22.1385,120.7022,0.999691
C0K250,崙背,2013-02-14,23.75555,120.318925,2.388425e-07
C0G860,社頭,2013-02-14,23.897647,120.5862,1.4960866e-08
C0X150,安定,2013-02-14,23.102614,120.227839,2.4109246e-08
C0R590,里港,2013-02-14,22.77919,120.49459,1.4997286e-09
C0E610,馬都安,2013-02-14,24.451272,120.930192,9.565736e-09
C0E550,明德,2013-02-14,24.583486,120.885411,3.5766384e-08
C0R150,三地門,2013-02-14,22.709889,120.639944,1.1372312e-09
C0G910,花壇,2013-02-14,24.032076,120.549461,2.3291125e-08
C1D400,鳥嘴山,2013-02-14,24.71909,121.28387,1.9729368e-08
C0K500,元長,2013-02-14,23.64981,120.315024,3.0097962e-07
C0F0B0,石岡,2013-02-14,24.276061,120.777644,1.84884e-09
C2V250,甲仙,2013-02-14,23.080106,120.591758,1.6035756e-09
C0SA20,金崙山,2013-02-14,22.567419,120.959667,6.757002e-08
C0V350,溪埔,2013-02-14,22.738578,120.446797,2.4763536e-09
C0M660,溪口,2013-02-14,23.604131,120.403569,2.1488884e-07
C1S880,壽卡,2013-02-14,22.238911,120.858903,0.08961312
72D680,桃改新埔分場,2013-02-14,24.834444,121.066111,3.3723168e-07
