站號,站名,日期,lat,lon,BLBTSLS
C0R710,龍磐,2013-08-08,21.931672,120.838942,0.9379425
C1F9D1,白毛台,2013-08-08,24.158325,120.886933,0.008477324
C0G940,竹塘,2013-08-08,23.848253,120.386764,0.64789253
467590,恆春,2013-08-08,22.003897,120.746339,0.965518
C1O850,環湖,2013-08-08,23.148617,120.418633,0.9995127
C0U710,太平山,2013-08-08,24.505486,121.525656,7.4464497e-09
C0E820,獅潭,2013-08-08,24.539133,120.920042,0.7577842
C0V880,興達,2013-08-08,22.8778,120.2127,0.96800554
C0S890,關山,2013-08-08,23.0395,121.175017,0.018158773
C0SB30,新蘭,2013-08-08,22.869214,121.223228,0.48167303
C2R970,屏科大,2013-08-08,22.648275,120.619247,0.9980513
K2F750,種苗繁殖,2013-08-08,24.225972,120.800917,0.040978912
C1Z130,銅門,2013-08-08,23.965694,121.492842,0.84168124
C0AD40,土城,2013-08-08,24.973208,121.445169,0.038245466
CAN140,六官養殖協會,2013-08-08,23.22881,120.29962,0.9935703
C0X180,山上,2013-08-08,23.0757,120.363253,0.9996841
C0F9Z0,雪山東峰,2013-08-08,24.388792,121.268675,1.2781266e-08
C1M480,獨立山,2013-08-08,23.537022,120.607797,3.0266252e-05
C0X220,學甲,2013-08-08,23.230367,120.182187,0.74069554
467650,日月潭,2013-08-08,23.881325,120.90805,8.87434e-07
C0K600,箔子寮,2013-08-08,23.6197,120.14,0.4622208
C0G830,埤頭,2013-08-08,23.866003,120.452806,0.16645733
C0S950,七塊厝,2013-08-08,22.954453,121.229922,0.7309234
467110,金門,2013-08-08,24.407306,118.289281,0.0059282053
C0AH80,深坑,2013-08-08,25.002703,121.628328,0.22192061
467990,馬祖,2013-08-08,26.169269,119.923419,0.011336263
C0A970,三貂角,2013-08-08,25.007606,122.002058,0.11838098
C2D730,寶山農場,2013-08-08,24.732444,120.976153,0.8485926
C0K430,褒忠,2013-08-08,23.690938,120.303634,0.8896925
467480,嘉義,2013-08-08,23.495925,120.432906,0.99900097
C2E540,後龍,2013-08-08,24.606489,120.783933,0.01353823
C0V400,阿公店,2013-08-08,22.804194,120.355528,0.9990943
C0R440,大漢山,2013-08-08,22.405264,120.753181,3.128102e-08
C0K280,四湖,2013-08-08,23.630414,120.227125,0.40088838
C1F9B1,桐林,2013-08-08,24.066172,120.735194,0.236463
C2H9U0,鳳鵬,2013-08-08,23.763919,120.788061,0.005854072
C0K390,土庫,2013-08-08,23.679029,120.395574,0.92192394
C1I450,望鄉山,2013-08-08,23.594153,120.944286,8.99911e-09
C0E910,海埔,2013-08-08,24.648767,120.772435,0.046304766
B2E890,畜試北區分所,2013-08-08,24.527806,120.770972,0.0022390992
C0R750,四林格山,2013-08-08,22.076989,120.802439,0.99800724
C0F0C0,中坑,2013-08-08,24.248517,120.903319,1.2177059e-06
C1I121,大鞍,2013-08-08,23.678381,120.760017,5.2126406e-08
72U480,花改蘭陽分場,2013-08-08,24.686306,121.716583,0.42461756
C0A770,科教館,2013-08-08,25.096356,121.516507,0.04784353
C0AJ60,六塊厝,2013-08-08,25.24,121.4481,0.011980211
C0R620,墾雷,2013-08-08,21.900836,120.855269,0.964471
467420,永康,2013-08-08,23.038386,120.2367,0.97734064
467300,東吉島,2013-08-08,23.25695,119.667467,0.9074931
C0I410,名間,2013-08-08,23.837053,120.701447,0.20675977
A2C560,農工中心,2013-08-08,24.985917,121.239833,0.3554038
C0V740,旗山,2013-08-08,22.888614,120.483597,0.99973565
C0Z061,玉里,2013-08-08,23.3215,121.339656,0.05858937
C0S840,南田,2013-08-08,22.279725,120.889208,0.07363872
C1I470,杉林溪,2013-08-08,23.639517,120.786444,2.0541297e-08
C1X040,東原,2013-08-08,23.291597,120.463822,0.91176033
C0R660,枋寮,2013-08-08,22.367722,120.590647,0.29979664
C1R120,上德文,2013-08-08,22.763272,120.704442,0.74790716
C0K450,大埤,2013-08-08,23.646074,120.431537,0.98878527
C0UA00,土場,2013-08-08,24.576533,121.495333,0.9918801
467080,宜蘭,2013-08-08,24.763975,121.756528,0.9185149
C0N030,四草,2013-08-08,23.0235,120.1116,0.9319283
C0V650,彌陀,2013-08-08,22.783806,120.246361,0.96583074
C0D660,新竹市東區,2013-08-08,24.798681,120.986942,0.22518475
82S580,茶改東部分場,2013-08-08,22.907694,121.130139,0.84824616
C0SB40,興隆,2013-08-08,22.913661,121.257469,0.69786936
C0C710,大溪永福,2013-08-08,24.892936,121.324975,0.46224108
C0FA20,溫寮,2013-08-08,24.372177,120.583125,0.0057078414
C0V640,湖內,2013-08-08,22.887139,120.2445,0.97255117
C0R910,下寮,2013-08-08,22.3929,120.5548,0.6774709
C0Z020,明里,2013-08-08,23.208717,121.262342,0.62173164
C0M770,嘉義梅山,2013-08-08,23.585398,120.555587,0.8439871
G2F820,農業試驗所,2013-08-08,24.031261,120.688133,0.51713896
C0C660,楊梅,2013-08-08,24.912375,121.143047,0.6843469
C1E511,新開,2013-08-08,24.347703,120.827019,0.6228701
G2F820,農試所(霧峰),2013-08-08,24.031261,120.688133,0.51713896
C1I070,和社,2013-08-08,23.591131,120.888861,5.088505e-06
C2F000,大肚,2013-08-08,24.15295,120.572117,0.4309669
C1S850,豐南,2013-08-08,23.122139,121.262389,0.44215167
C2A920,富貴角,2013-08-08,25.263783,121.565258,0.016947748
CAH030,茶改場竹圍站,2013-08-08,23.860083,120.637528,0.02949608
C0T960,光復,2013-08-08,23.660694,121.424964,0.64983445
C0F9M0,豐原,2013-08-08,24.254322,120.720692,0.44060454
C0R720,旭海,2013-08-08,22.205403,120.887614,0.040264223
C0V710,苓雅,2013-08-08,22.622742,120.330669,0.68227184
C0C740,觀音工業區,2013-08-08,25.064764,121.114856,0.045503724
CAC040,拉拉山,2013-08-08,24.699317,121.427133,1.543972e-08
C0V790,萬山,2013-08-08,22.905944,120.688056,0.9357759
U2HA30,臺大和社,2013-08-08,23.590856,120.888864,5.088505e-06
C0AJ90,澳底,2013-08-08,25.0552,121.9253,0.048619512
C0Z100,東華,2013-08-08,23.89525,121.549833,0.9474689
C0G970,三豐,2013-08-08,23.882,120.2895,0.33498815
V2K610,大庄合作社,2013-08-08,23.8068,120.367939,0.97125554
C0V900,汕尾,2013-08-08,22.4782,120.4151,0.9925687
C1R630,龍泉,2013-08-08,22.66701,120.59091,0.9972403
C1AC50,關渡,2013-08-08,25.133486,121.469331,0.07446718
C0F9I0,神岡,2013-08-08,24.272481,120.658314,0.55922836
C0K460,斗南,2013-08-08,23.678734,120.478359,0.9789798
467410,臺南,2013-08-08,22.993239,120.204772,0.9799401
C2O810,曾文,2013-08-08,23.219681,120.497328,0.99911416
467280,後龍,2013-08-08,24.648563,120.831834,0.06544239
C1F9J1,清水林,2013-08-08,24.071242,120.820419,0.000984731
C2A650,火燒寮,2013-08-08,25.002719,121.742892,0.8440103
466930,竹子湖,2013-08-08,25.162078,121.544547,0.82320887
C1I220,樟湖,2013-08-08,23.905333,120.846983,6.328274e-08
C0I390,仁愛,2013-08-08,24.022122,121.132206,5.699498e-07
C0Z300,東里,2013-08-08,23.26853,121.30547,0.06400692
C1V590,新發,2013-08-08,23.057019,120.646064,0.99165577
C0K510,水林,2013-08-08,23.572924,120.24597,0.46927366
72S590,東改賓朗果園,2013-08-08,22.813889,121.071278,0.63158643
82A750,茶改北部分場,2013-08-08,24.955778,121.631222,0.9978047
C1A750,石碇服務區,2013-08-08,25.00872,121.646242,0.20655401
C0X300,鹿寮,2013-08-08,23.386047,120.477331,0.9959493
G2AI50,關渡,2013-08-08,25.11575,121.492,0.049648687
C0K590,雲林東勢,2013-08-08,23.674192,120.255721,0.8896925
C0A570,桶後,2013-08-08,24.848222,121.597992,0.967401
C1S800,華源,2013-08-08,22.657883,121.02325,0.26868677
C0G720,溪州,2013-08-08,23.851589,120.499093,0.17686252
C1V160,達卡努瓦,2013-08-08,23.279811,120.705319,0.0020927328
C2M410,馬頭山,2013-08-08,23.324361,120.582017,0.81117606
C0V850,蚵仔寮,2013-08-08,22.7256,120.2527,0.51734424
C0S740,池上,2013-08-08,23.119628,121.209469,0.9576802
C1V390,尖山,2013-08-08,22.813153,120.367789,0.9992294
C0AH70,松山,2013-08-08,25.04871,121.55042,0.23339196
C0N010,鯤鯓國小,2013-08-08,23.1879,120.0889,0.38479388
C0R550,新埤,2013-08-08,22.467947,120.582894,0.9852837
C0SA60,知本（水試所）,2013-08-08,22.702394,121.082761,0.13159408
C0T9I0,豐濱,2013-08-08,23.583897,121.514806,0.1992122
C0UB00,淡江大學蘭陽校園,2013-08-08,24.823239,121.730383,0.98843277
C0W240,九宮,2013-08-08,24.423753,118.240186,0.8470085
C0T9N0,富里,2013-08-08,23.171639,121.249378,0.83966357
U2HA50,臺大竹山,2013-08-08,23.756972,120.681556,0.052910246
C0V840,鳳鼻頭,2013-08-08,22.5083,120.3591,0.65174687
C0X140,西港,2013-08-08,23.125608,120.203108,0.90723085
72D080,桃改五峰分場,2013-08-08,24.612194,121.157167,1.0863059e-07
C2H9P0,伊拿谷,2013-08-08,23.963211,121.088264,2.8777558e-07
C2H9F0,柑林,2013-08-08,24.018658,120.847072,0.023870502
C0TA20,加灣,2013-08-08,24.082025,121.608944,0.9542849
C0V530,阿蓮,2013-08-08,22.883208,120.327508,0.99771434
C1O880,關山,2013-08-08,23.173397,120.594092,0.7801512
C0E791,卓蘭,2013-08-08,24.3126,120.8244,0.5828449
C1I030,武界,2013-08-08,23.913225,121.052483,1.3677402e-05
C0R520,崁頂,2013-08-08,22.514781,120.506914,0.7185618
C0R341,牡丹,2013-08-08,22.130036,120.792639,0.31144887
C0R930,萬丹,2013-08-08,22.5885,120.4851,0.98319864
C0S760,紅石,2013-08-08,23.069131,121.126219,2.9783951e-08
C1M610,石磐龍,2013-08-08,23.496606,120.663506,1.09358616e-07
C0UA10,鴛鴦湖,2013-08-08,24.590269,121.412228,8.241997e-09
V2C260,八德蔬果,2013-08-08,24.978508,121.281819,0.70562726
C0R800,丹路,2013-08-08,22.204481,120.750989,0.07208185
C0G920,永靖,2013-08-08,23.924703,120.547533,0.59100866
C2M950,太和,2013-08-08,23.538372,120.702961,1.8561764e-08
C1A630,下盆,2013-08-08,24.771003,121.538622,0.8008256
B2N890,畜產試驗所,2013-08-08,23.058972,120.336406,0.99699754
C0UA30,白嶺,2013-08-08,24.527819,121.519031,4.3149242e-08
C1V580,溪南(特生中心),2013-08-08,23.084972,120.788475,3.5652096e-08
C1T970,大農,2013-08-08,23.615233,121.413331,0.79601127
E2S960,林試太麻里2,2013-08-08,22.598014,120.989761,0.76836294
C0R650,竹田,2013-08-08,22.58486,120.54344,0.98319864
C1H900,清流,2013-08-08,24.080775,120.962997,2.1631473e-05
C1C510,水尾,2013-08-08,24.940081,121.087161,0.27457404
C0F9X0,大雅(中科園區),2013-08-08,24.21528,120.62445,0.11231533
C0SB60,白守蓮,2013-08-08,23.126769,121.401914,0.04115439
C0O970,虎頭埤,2013-08-08,23.021375,120.347878,0.9972667
C0C730,中大臨海站,2013-08-08,24.966126,121.008581,0.7198779
C0X250,新營,2013-08-08,23.310689,120.316681,0.99296236
C0V700,三民,2013-08-08,22.645017,120.311233,0.68227184
C0U870,大礁溪,2013-08-08,24.791042,121.675047,0.9906127
C0E870,高鐵苗栗,2013-08-08,24.60725,120.826094,0.014242737
A2K570,古坑花卉中心,2013-08-08,23.63353,120.55239,0.8330594
C0M860,新美,2013-08-08,23.338017,120.683169,0.42870492
C1E701,八卦,2013-08-08,24.491756,120.927619,0.053068314
C0I420,國姓,2013-08-08,24.037803,120.855072,0.16916573
C2D720,關西工作站,2013-08-08,24.757275,121.184792,0.9770662
C0S960,香蘭,2013-08-08,22.587569,120.993375,0.76836294
C0R260,春日,2013-08-08,22.370361,120.628306,0.13610743
72G600,臺中農改場,2013-08-08,24.003028,120.534389,0.36925346
C0Z210,瑞穗,2013-08-08,23.5239,121.39021,0.17311813
C0M820,達邦,2013-08-08,23.453994,120.749517,2.744526e-07
C0V860,南寮,2013-08-08,22.7616,120.2339,0.958835
C0G740,大城,2013-08-08,23.852487,120.320935,0.3470968
C0R920,塭仔,2013-08-08,22.4169,120.5197,0.6573095
C0R470,高樹,2013-08-08,22.826389,120.600806,0.9989696
C0R680,佳樂水,2013-08-08,21.993578,120.861633,0.9677256
C1O870,大棟山,2013-08-08,23.31157,120.52226,6.5624285e-08
C0D360,梅花,2013-08-08,24.678347,121.208558,0.99907887
C0Z190,富世,2013-08-08,24.14743,121.6297,0.96859396
C0AI10,屈尺,2013-08-08,24.92184,121.54475,0.22192061
B2U990,畜試東區分所,2013-08-08,24.669039,121.832561,0.7228943
C0SB80,長濱漁港,2013-08-08,23.313644,121.459994,0.039047897
C0R240,來義,2013-08-08,22.527306,120.625111,0.11835465
C0V910,大樹,2013-08-08,22.684645,120.432803,0.99699074
C1R610,西大武山,2013-08-08,22.617719,120.7322,7.063768e-08
C0G900,線西,2013-08-08,24.143358,120.443536,0.5756934
C0M700,竹崎,2013-08-08,23.526178,120.555508,0.68474376
C2E880,三義,2013-08-08,24.405478,120.749819,0.015698638
C0C720,竹圍,2013-08-08,25.112692,121.239824,0.011532955
C0F9P0,清水,2013-08-08,24.312297,120.562242,0.035749402
C0Z150,吉安光華,2013-08-08,23.930925,121.595153,0.9402466
C1D640,外坪(五指山),2013-08-08,24.644447,121.090961,0.17366666
C0F9O0,潭子,2013-08-08,24.213106,120.703933,0.4266376
C2H9R0,卓社,2013-08-08,23.887894,121.000086,1.2857626e-08
72T250,花蓮農改場,2013-08-08,23.975222,121.563889,0.95053786
C0E780,銅鑼,2013-08-08,24.489681,120.790853,0.21002534
C1T950,太安,2013-08-08,23.666719,121.370128,3.5062735e-07
C0E830,苑裡,2013-08-08,24.439714,120.653053,0.0045576473
467270,田中,2013-08-08,23.873803,120.581286,0.27899978
C0SA10,檳榔四格山,2013-08-08,22.810031,121.109308,0.79620785
C1T830,布洛灣,2013-08-08,24.17184,121.57127,0.9956624
C0F970,大坑,2013-08-08,24.173142,120.722289,0.13391776
C1U920,思源,2013-08-08,24.393125,121.347214,8.1502485e-09
C0A931,三和,2013-08-08,25.233153,121.595236,0.08271994
C0I010,廬山,2013-08-08,24.033311,121.181808,1.856548e-08
C2M940,日野賀,2013-08-08,23.434056,120.727169,1.3801635e-07
C0R860,鼻頭,2013-08-08,22.1043,120.8979,0.9363863
C0UB20,壯圍,2013-08-08,24.7359,121.8163,0.7228943
C0R790,九棚,2013-08-08,22.14195,120.889281,0.03711671
C0W110,東莒,2013-08-08,25.9652,119.98069,9.995796e-05
C1U930,粉鳥林,2013-08-08,24.497088,121.842479,0.46828064
C1I211,蘆竹湳,2013-08-08,23.934019,120.811994,0.00017113122
C0S830,長濱,2013-08-08,23.286817,121.411975,0.6523243
C1F9F1,伯公龍,2013-08-08,24.272392,120.849047,0.05150045
C0E810,西湖,2013-08-08,24.562947,120.7485,0.016091682
C1I440,新高口,2013-08-08,23.478744,120.878939,7.504195e-09
C0O840,王爺宮,2013-08-08,23.222064,120.40085,0.99911416
C0T9G0,鳳林山,2013-08-08,23.735269,121.420131,0.74849427
C0X080,佳里,2013-08-08,23.173039,120.145086,0.69831294
C0FB70,大甲溪埔,2013-08-08,24.370625,120.620067,0.0039463816
C0Z310,清水斷崖,2013-08-08,24.218294,121.689142,0.97773594
C0M680,太保,2013-08-08,23.455062,120.331455,0.97640103
C1S820,金峰,2013-08-08,22.590969,120.933236,0.95099974
C0AD10,八里,2013-08-08,25.150211,121.403947,0.011532955
C2K240,草嶺,2013-08-08,23.59555,120.693461,5.9593273e-08
C1SA70,都蘭,2013-08-08,22.87794,121.226881,0.6978693
C0K440,二崙,2013-08-08,23.772797,120.408944,0.6621425
C1A760,坪林交控,2013-08-08,24.94284,121.713442,0.97962433
C0F9N0,大里,2013-08-08,24.092464,120.701378,0.75899225
C0SA90,達仁林場,2013-08-08,22.264347,120.823972,0.45438308
C1R290,石門山,2013-08-08,22.112611,120.756597,0.4740065
42HA10,萬大發電廠,2013-08-08,23.978875,121.139639,1.0673796e-07
C0R890,山海,2013-08-08,21.9878,120.7091,0.9705012
C0T9A0,月眉山,2013-08-08,23.809928,121.539828,0.7738205
C0AC70,信義,2013-08-08,25.037822,121.564597,0.23372501
C0K560,棋山,2013-08-08,23.68645,120.603417,0.86334234
C2FB50,出雲,2013-08-08,24.206469,120.902794,7.032672e-06
C1Z240,中平林道,2013-08-08,23.42115,121.26763,3.4023685e-08
U2H480,溪頭,2013-08-08,23.670306,120.798194,4.1718155e-07
C0M880,好美里,2013-08-08,23.3364,120.138,0.69831294
C0T9E0,大坑,2013-08-08,23.880628,121.581981,0.8736815
C0K530,臺西,2013-08-08,23.701547,120.197559,0.31573126
C1E900,國一N128K,2013-08-08,24.560997,120.844186,0.020809911
C0AJ50,水湳洞,2013-08-08,25.123695,121.862238,0.004739458
C0AI20,白沙灣,2013-08-08,25.283128,121.519058,0.014324644
C0A860,大坪,2013-08-08,25.165914,121.632969,0.13349885
C1U850,觀音海岸,2013-08-08,24.38319,121.77856,0.93967754
C2K610,草嶺石壁,2013-08-08,23.602469,120.707731,7.513665e-08
C0U950,鶯子嶺,2013-08-08,24.89754,121.79244,0.0024701923
C0O900,善化,2013-08-08,23.112883,120.297219,0.99609065
C0K550,蔦松,2013-08-08,23.514319,120.229736,0.53152543
E2P980,林試六龜中心,2013-08-08,22.991703,120.645722,0.9988588
C0E590,通霄,2013-08-08,24.471892,120.704622,0.002398087
C1I310,西巒,2013-08-08,23.754486,120.883956,4.0425445e-07
C0A550,泰平,2013-08-08,24.971197,121.823711,0.68431556
C0I360,水里,2013-08-08,23.812553,120.849792,0.12211308
C0R830,高士,2013-08-08,22.121825,120.836781,0.8404299
C1I101,溪頭,2013-08-08,23.661789,120.807647,2.6119126e-08
C0AJ20,野柳,2013-08-08,25.20703,121.690021,0.004739458
C0B060,暖暖,2013-08-08,25.0957,121.7403,0.0054946556
C1H920,長豐,2013-08-08,24.102039,120.879897,0.0004095837
C0V360,內門,2013-08-08,22.975481,120.466769,0.9996549
C0R850,林邊,2013-08-08,22.4634,120.5339,0.71854067
C0E930,龍鳳,2013-08-08,24.700034,120.859125,0.045575272
C0U910,冬山,2013-08-08,24.63373,121.7937,0.7228943
C1E721,泰安,2013-08-08,24.489017,120.968036,7.33558e-08
82H320,茶改中部分場,2013-08-08,23.875611,120.913583,1.8075829e-07
C0M750,布袋,2013-08-08,23.380878,120.167789,0.675078
C1S860,利嘉,2013-08-08,22.809417,121.050528,0.9949688
72C440,桃園農改,2013-08-08,24.950944,121.030583,0.71563476
E2S980,林試太麻里1,2013-08-08,22.598922,120.980044,0.8931672
C0X170,關廟,2013-08-08,22.963017,120.327797,0.9979393
C0V720,林園,2013-08-08,22.507747,120.394511,0.682095
C1I510,線浸林道,2013-08-08,23.761508,120.832956,6.43879e-08
C0D690,外湖,2013-08-08,24.917735,120.968711,0.7198779
C0C750,新興坑尾,2013-08-08,25.0061,121.0971,0.05254554
B2Q810,畜試南區分所,2013-08-08,21.945583,120.802167,0.9677256
C0S790,金崙,2013-08-08,22.538122,120.966875,0.9595844
C0AH90,福山植物園,2013-08-08,24.760717,121.58135,0.99644303
C0I540,奇萊稜線,2013-08-08,24.109231,121.326456,9.1163965e-09
C0M850,表湖,2013-08-08,23.24186,120.64166,0.03012068
C0S770,大溪山,2013-08-08,22.478475,120.943325,0.95187104
C0AG80,中和,2013-08-08,24.991622,121.491792,0.2337249
C0T790,大禹嶺,2013-08-08,24.186117,121.316086,8.700038e-09
C0T9B0,水源,2013-08-08,23.991861,121.537169,0.49514136
C0R840,牡丹池山,2013-08-08,22.168389,120.841225,0.41151214
C1I131,桶頭,2013-08-08,23.641944,120.654117,0.5488703
CAL110,布袋國中,2013-08-08,23.35893,120.18026,0.9459718
467571,新竹,2013-08-08,24.827853,121.014219,0.18974228
C0Z290,赤柯山,2013-08-08,23.36893,121.38293,3.3844126e-06
C0X280,將軍,2013-08-08,23.214999,120.13577,0.69831294
C0S690,太麻里,2013-08-08,22.60902,120.98533,0.8511695
C0U880,北關,2013-08-08,24.9072,121.8734,0.43594292
C1H860,瑞岩,2013-08-08,24.123772,121.18345,2.9035245e-08
C0G810,埔心,2013-08-08,23.947633,120.525456,0.5453488
C0U970,大福,2013-08-08,24.80064,121.81389,0.9028797
C2H9N0,仁愛東眼,2013-08-08,24.026875,121.1205,1.397253e-07
C1E670,南礦,2013-08-08,24.538278,121.002836,6.714529e-08
C0M520,東後寮,2013-08-08,23.369908,120.248065,0.9522196
C1E461,松安,2013-08-08,24.397972,120.986022,1.7141556e-07
72G600,臺中農改,2013-08-08,24.003028,120.534389,0.36925346
C2N160,西拉雅風管處,2013-08-08,23.189481,120.335297,0.9947891
C2M970,碧湖,2013-08-08,23.568632,120.624165,2.2615502e-07
C0A640,石碇,2013-08-08,24.993969,121.662917,0.6379856
E2S960,林試太麻里2,2013-08-08,22.598,120.99775,0.74713135
C0F9Y0,桃山,2013-08-08,24.432739,121.303808,1.3995502e-08
C1I020,萬大,2013-08-08,23.979817,121.132261,5.9655594e-07
C0U940,羅東,2013-08-08,24.68184,121.74934,0.6169743
C0M650,朴子,2013-08-08,23.43463,120.23902,0.69641054
C1I500,大尖山,2013-08-08,23.858572,120.994889,1.591055e-08
C0G820,田尾,2013-08-08,23.901669,120.509389,0.59100866
E2K600,四湖植物園,2013-08-08,23.676986,120.163433,0.31573126
C0S730,綠島,2013-08-08,22.6672,121.47533,0.025039662
12Q970,東港工作站,2013-08-08,22.479997,120.466058,0.6774709
C0E430,南庄,2013-08-08,24.601775,121.000214,0.7609369
C1TA00,太魯閣,2013-08-08,24.15773,121.6236,0.9751058
466920,臺北,2013-08-08,25.037658,121.514853,0.23339196
C0R600,舊泰武,2013-08-08,22.588194,120.664944,0.99518585
C1I260,北坑,2013-08-08,23.9246,121.006903,0.00031393746
466910,鞍部,2013-08-08,25.182586,121.529731,0.659175
C1I230,九份二山,2013-08-08,23.961944,120.845,1.8665502e-06
C2A660,瑞芳,2013-08-08,25.113169,121.801147,0.06821938
C0R270,琉球嶼,2013-08-08,22.332244,120.362236,0.13607506
C1T990,高寮,2013-08-08,23.394239,121.356808,0.049273476
C0G620,芬園,2013-08-08,24.015678,120.6213,0.22031343
C1Z140,荖溪,2013-08-08,23.890575,121.45964,2.7183728e-07
C1I201,中心崙,2013-08-08,23.728722,120.712097,7.147924e-05
C1I400,凌霄,2013-08-08,24.018778,121.004456,1.8965358e-07
C1M640,十字,2013-08-08,23.492153,120.753683,3.6796237e-08
G2P820,農試鳳山分所,2013-08-08,22.646611,120.356083,0.74313676
C0Z270,蕃薯寮,2013-08-08,23.73835,121.540108,0.85799396
C0F9Q0,外埔,2013-08-08,24.347817,120.705686,0.65439993
C0K580,高鐵雲林,2013-08-08,23.737456,120.417944,0.92192394
C2I090,鳳凰,2013-08-08,23.728081,120.787347,1.06782956e-07
C0U990,員山,2013-08-08,24.74435,121.72247,0.6169743
C0V770,大社,2013-08-08,22.730306,120.346639,0.58076006
C0X120,麻豆,2013-08-08,23.183289,120.248611,0.7406956
C0C670,龍潭,2013-08-08,24.870056,121.221389,0.97056144
C0D680,香山濕地,2013-08-08,24.783581,120.914988,0.12636983
C0S980,勝林山,2013-08-08,22.430439,120.8938,0.8312316
C0V730,大寮,2013-08-08,22.605614,120.395717,0.26551983
C0R570,麟洛,2013-08-08,22.65078,120.52719,0.99918616
C2M930,石卓,2013-08-08,23.478744,120.702264,4.044229e-08
C0G9B0,和美,2013-08-08,24.105169,120.492131,0.110213675
CAG100,王功漁港,2013-08-08,23.96824,120.32586,0.46978146
C0X290,北門,2013-08-08,23.267772,120.125481,0.698313
C2F930,大甲,2013-08-08,24.347667,120.640403,0.019743977
C0D650,湖口,2013-08-08,24.904794,121.043628,0.7280093
C0E420,竹南,2013-08-08,24.708978,120.888897,0.14896315
C0U780,五結,2013-08-08,24.68637,121.79794,0.7228943
C1I250,鯉潭,2013-08-08,23.961922,120.991131,0.0004095837
C0R130,阿禮,2013-08-08,22.742908,120.743678,0.14009179
C0X100,臺南市北區,2013-08-08,23.010394,120.194228,0.9745961
C0S920,金峰嘉蘭,2013-08-08,22.594789,120.960825,0.90355325
C0V490,新興,2013-08-08,22.627422,120.298803,0.682095
C0F9K0,大安,2013-08-08,24.345061,120.588025,0.029302796
72N100,臺南農改,2013-08-08,23.0605,120.342194,0.99699754
467290,古坑,2013-08-08,23.633639,120.551889,0.8330594
C2E970,八甲,2013-08-08,24.535811,120.795983,0.2278164
C0V440,鳳山,2013-08-08,22.646653,120.356122,0.74313676
C1T940,大觀,2013-08-08,23.714206,121.373133,0.67726123
72T250,花蓮農改,2013-08-08,23.975222,121.563889,0.95053786
C0E740,造橋,2013-08-08,24.637056,120.864778,0.05269692
C0R100,尾寮山,2013-08-08,22.833111,120.683889,0.057481203
A2K630,臺大雲林校區,2013-08-08,23.730628,120.423903,0.92192394
C0D580,寶山,2013-08-08,24.735006,121.025192,0.59826565
E2P990,林試扇平站,2013-08-08,22.9677,120.6857,0.99918854
C0AI30,三重,2013-08-08,25.057328,121.500629,0.04784353
C0AH00,汐止,2013-08-08,25.066881,121.658778,0.004739458
C1Z040,立山,2013-08-08,23.443356,121.327375,0.7414627
C0W130,花嶼,2013-08-08,23.40007,119.32276,0.9989111
C0A950,鼻頭角,2013-08-08,25.129036,121.923372,0.047596075
C0K470,林內,2013-08-08,23.748675,120.609642,0.90465117
C2F990,摩天嶺,2013-08-08,24.322458,120.936819,5.4725353e-07
82C160,茶改場,2013-08-08,24.908472,121.185333,0.9830882
C0Z320,清水林道,2013-08-08,23.27125,121.188272,0.0017638332
C0R760,南仁湖,2013-08-08,22.084681,120.863353,0.5256029
C0M670,大林,2013-08-08,23.600616,120.45841,0.9969205
C0M800,茶山,2013-08-08,23.299075,120.664767,0.7780262
C0A9C0,天母,2013-08-08,25.117494,121.537169,0.036185745
72K220,南改斗南分場,2013-08-08,23.634556,120.477333,0.9375432
72AI40,桃改樹林分場,2013-08-08,24.944503,121.386972,0.028468203
C0S910,蘭嶼燈塔,2013-08-08,22.081197,121.503117,0.33396327
C0B050,八斗子,2013-08-08,25.144754,121.79167,0.0053745126
C0U900,內城,2013-08-08,24.71813,121.68766,0.95526516
C0X320,柳營,2013-08-08,23.253328,120.375253,0.99914515
C0M790,新港,2013-08-08,23.553269,120.345728,0.926116
C0F9T0,西屯,2013-08-08,24.179494,120.641275,0.123095445
C0SA30,都歷,2013-08-08,23.020333,121.323642,0.029540936
C0C620,蘆竹,2013-08-08,25.084275,121.265767,0.011037868
C0R730,大坪頂,2013-08-08,22.024633,120.69355,0.614456
C0AJ40,石門,2013-08-08,25.273672,121.601198,0.008798363
C0E750,苗栗,2013-08-08,24.564569,120.824575,0.019042976
C0T870,鯉魚潭,2013-08-08,23.935639,121.508944,0.95853597
C1V170,排雲,2013-08-08,23.463619,120.954147,1.4532188e-08
C2H950,中寮,2013-08-08,23.884447,120.766406,0.019681698
C0R350,貓鼻頭,2013-08-08,21.921774,120.7358,0.9644346
C0V660,岡山,2013-08-08,22.797078,120.294958,0.99039906
C1H941,雙冬,2013-08-08,23.967378,120.802189,0.00016367917
C0AJ70,田寮,2013-08-08,25.2698,121.4886,0.014712334
C0AI00,五股,2013-08-08,25.07445,121.42728,0.68792206
C0Z280,德武,2013-08-08,23.47426,121.41071,0.11666074
C0R700,枋山,2013-08-08,22.246844,120.661086,0.0575134
C0C460,復興,2013-08-08,24.820208,121.352281,0.9982325
E2H360,蓮華池,2013-08-08,23.918333,120.885278,9.547828e-07
C0M640,中埔,2013-08-08,23.42538,120.5229,0.8091065
C0W140,金沙,2013-08-08,24.488292,118.408778,0.0036446291
C2A540,四堵,2013-08-08,24.8926,121.745736,0.35794032
C0ACA0,新莊,2013-08-08,25.051478,121.446756,0.032607
C0R220,潮州,2013-08-08,22.534361,120.54,0.3626179
U2HA40,臺大內茅埔,2013-08-08,23.689722,120.851117,0.00078123354
467490,臺中,2013-08-08,24.145736,120.684075,0.12040176
C0U960,翠峰湖,2013-08-08,24.510856,121.608044,7.566932e-09
E2HA20,林試畢祿溪站,2013-08-08,24.226944,121.308522,5.8168372e-09
C0V890,前鎮,2013-08-08,22.5718,120.3117,0.65174687
467620,蘭嶼,2013-08-08,22.036969,121.558339,0.9902222
C1F941,雪嶺,2013-08-08,24.280586,121.026642,1.2493192e-08
C2H9E0,國姓南港,2013-08-08,23.911108,120.846556,4.972447e-08
C0AC80,文山,2013-08-08,25.00235,121.575728,0.22192061
C0F9R0,龍井,2013-08-08,24.184536,120.528972,0.016122324
C0M760,民雄,2013-08-08,23.551754,120.428457,0.99845654
C0UA40,西德山,2013-08-08,24.560647,121.752608,4.639881e-07
C1T920,中興,2013-08-08,23.769503,121.498653,0.95782423
C0D550,雪霸,2013-08-08,24.526972,121.11605,1.4681938e-08
C2F860,梨山,2013-08-08,24.247522,121.243669,5.859821e-09
C0R320,車城,2013-08-08,22.0744,120.716247,0.9705012
C1S870,南美山,2013-08-08,23.15025,121.382333,0.018222904
C0B020,基隆嶼,2013-08-08,25.19141,121.78391,0.004739784
C1U501,牛鬥,2013-08-08,24.637836,121.573656,0.99567854
C0M730,嘉義市東區,2013-08-08,23.457673,120.460531,0.9815737
C0S700,知本,2013-08-08,22.684866,121.005642,0.88635707
C1N001,沙崙,2013-08-08,22.935472,120.309406,0.99771434
C0V760,橋頭,2013-08-08,22.757806,120.30575,0.9918746
C0G960,福寶,2013-08-08,24.0443,120.3814,0.290497
C0X210,白河,2013-08-08,23.347466,120.414427,0.99920976
C0S810,東河,2013-08-08,22.972672,121.303986,0.691181
C2R170,屏東,2013-08-08,22.66027,120.49403,0.99913424
C0R670,楓港,2013-08-08,22.190131,120.692156,0.057538524
C0FA50,霧峰,2013-08-08,24.0419,120.6995,0.7502799
C0UB10,蘇澳,2013-08-08,24.5969,121.8571,0.8025225
C0G950,防潮門,2013-08-08,24.1835,120.4871,0.01679648
C0M740,六腳,2013-08-08,23.492871,120.290625,0.9724684
C1R250,力里,2013-08-08,22.428117,120.629228,0.11835465
C0K330,虎尾,2013-08-08,23.719183,120.442036,0.9378497
C2FA00,烏石坑,2013-08-08,24.273503,120.947617,6.80557e-07
C0V620,永安,2013-08-08,22.82315,120.236856,0.96583074
C1I330,楓樹林,2013-08-08,23.986803,121.076117,1.858167e-08
C0W200,湖西,2013-08-08,23.596314,119.67275,0.6808848
72Q010,高雄農改場,2013-08-08,22.709333,120.525889,0.9992029
C0SA40,瑞和,2013-08-08,22.974361,121.156697,0.019086657
C0C680,龜山,2013-08-08,25.02846,121.38656,0.99722165
C2V260,月眉,2013-08-08,22.971003,120.539853,0.99949557
C0V450,鳳森,2013-08-08,22.545064,120.392592,0.4007311
C0U720,南山,2013-08-08,24.43742,121.38167,4.3980023e-07
A2N290,臺南蘭花園區,2013-08-08,23.340258,120.379661,0.9991454
C0R560,新園,2013-08-08,22.5434,120.461558,0.71854067
C0U890,三星,2013-08-08,24.66812,121.65302,0.97846186
C1V300,御油山,2013-08-08,23.001983,120.715364,4.1280472e-08
C0U600,礁溪,2013-08-08,24.817539,121.765608,0.9288904
C1T980,龍澗,2013-08-08,24.023289,121.411328,2.8397016e-08
C0D670,海天一線,2013-08-08,24.831986,120.914438,0.11834802
C0SA00,歷坵,2013-08-08,22.520969,120.89185,0.8959781
C0M710,東石,2013-08-08,23.458927,120.15385,0.53152543
C0M780,鹿草,2013-08-08,23.41134,120.30835,0.9830399
C0U520,雙連埤,2013-08-08,24.753033,121.641303,0.9892273
C0B010,七堵,2013-08-08,25.094819,121.71713,0.005025764
C0R480,長治,2013-08-08,22.693128,120.542622,0.9986656
C1V830,國三S383K,2013-08-08,22.781967,120.426475,0.9988199
12Q980,恆春工作站,2013-08-08,22.079678,120.714425,0.9705012
C1O940,東山服務區,2013-08-08,23.286016,120.398472,0.9992859
C1U840,東澳嶺,2013-08-08,24.5378,121.8485,0.8721847
C1D630,飛鳳山,2013-08-08,24.766464,121.119178,0.0039319675
C0S940,石寧山,2013-08-08,23.223772,121.406639,0.3840013
C0K410,北港,2013-08-08,23.573957,120.292802,0.9181147
C2M620,瑞里,2013-08-08,23.545133,120.675197,3.1481893e-08
C0SB70,小港漁港,2013-08-08,23.158558,121.400431,0.10523683
C2O950,安南,2013-08-08,23.076694,120.144861,0.52579767
C0F0E0,南湖圈谷,2013-08-08,24.363714,121.444667,1.3581863e-08
467610,成功,2013-08-08,23.097486,121.373428,0.037968867
C0G890,伸港,2013-08-08,24.148933,120.484403,0.097074576
C2E540,龍溪,2013-08-08,24.606489,120.783933,0.01353823
C1V200,梅山,2013-08-08,23.268447,120.823556,0.5992866
C0T9H0,加路蘭山,2013-08-08,23.682947,121.5274,0.10324204
C2O930,玉井,2013-08-08,23.126042,120.46055,0.9995127
C1F911,新伯公,2013-08-08,24.221361,120.841069,0.17718577
C0R490,九如,2013-08-08,22.7405,120.490503,0.99918616
C0X200,左鎮,2013-08-08,23.056758,120.408522,0.9996629
C0SB50,叭嗡嗡,2013-08-08,23.047062,121.343223,0.6550524
C1F891,稍來,2013-08-08,24.265689,121.001142,1.144146e-08
72N240,七股研究中心,2013-08-08,23.081672,120.062894,0.3686921
C0C700,中壢,2013-08-08,24.977661,121.256375,0.7894571
C0M690,水上,2013-08-08,23.419734,120.388909,0.9990243
C0V690,鼓山,2013-08-08,22.623325,120.275575,0.682095
C0O860,大內,2013-08-08,23.11885,120.36083,0.9996429
C0Z200,萬榮,2013-08-08,23.709219,121.420106,0.95853597
C0T9D0,和中,2013-08-08,24.26676,121.74103,0.8927101
C1O921,楠西,2013-08-08,23.183511,120.484083,0.99935573
C0AJ30,淡水觀海,2013-08-08,25.184591,121.408616,0.012000576
C0V810,左營,2013-08-08,22.67491,120.28491,0.5524278
C0UA70,桃源谷,2013-08-08,24.962606,121.888875,0.9682996
C0X130,官田,2013-08-08,23.193217,120.315422,0.9941306
C1H000,翠峰,2013-08-08,24.109397,121.205211,5.800285e-09
C0UA90,石城,2013-08-08,24.980444,121.951214,0.07249844
C1E681,南勢山,2013-08-08,24.421669,120.923831,1.6534642e-06
C0A9F0,內湖,2013-08-08,25.079422,121.57545,0.23339196
C0K291,宜梧,2013-08-08,23.536281,120.169329,0.50408965
C1K540,口湖,2013-08-08,23.585344,120.180517,0.4419882
C0R780,滿州,2013-08-08,22.024403,120.839892,0.96185094
C0V870,文安,2013-08-08,22.8025,120.2164,0.958835
C0U650,玉蘭,2013-08-08,24.675286,121.587061,0.95747256
C0R640,東港,2013-08-08,22.46247,120.44074,0.65174687
K2E360,苗栗農改,2013-08-08,24.495722,120.829111,0.10438182
C0AJ80,板橋,2013-08-08,25.0107,121.4489,0.038245466
C0S660,下馬,2013-08-08,23.150427,121.070312,3.9416904e-05
C1H9B1,阿眉,2013-08-08,24.1263,120.994672,1.7778401e-08
C0UA20,多加屯,2013-08-08,24.368614,121.373189,9.604494e-09
C0E730,頭份,2013-08-08,24.688247,120.912206,0.14869063
72V140,高改旗南分場,2013-08-08,22.857861,120.516667,0.99941355
C0K480,莿桐,2013-08-08,23.761192,120.502372,0.91082126
C0U980,坪林石牌,2013-08-08,24.86478,121.77396,0.9610027
C0T900,西林,2013-08-08,23.8119,121.441458,0.9479453
C1I150,青雲,2013-08-08,23.793361,120.949378,8.4163206e-05
467350,澎湖,2013-08-08,23.565503,119.563094,0.99924123
C0G800,埔鹽,2013-08-08,24.000394,120.431683,0.29834452
C0H960,草屯,2013-08-08,23.973672,120.68085,0.2702263
C1V780,多納林道,2013-08-08,22.888028,120.737917,9.2189024e-05
C0E920,通霄漁港,2013-08-08,24.498589,120.673876,0.002833967
C0Z330,安通山,2013-08-08,23.290728,121.348528,0.61645883
C0AH10,永和,2013-08-08,25.01125,121.508111,0.22469264
C0AK10,太平里,2013-08-08,25.134937,121.364899,0.03263728
C2G640,鹿港,2013-08-08,24.0753,120.430481,0.29792404
C1E890,國三N149K,2013-08-08,24.463414,120.680019,0.0022569536
C1R110,口社,2013-08-08,22.770111,120.645222,0.99915063
C1M870,國三N285K,2013-08-08,23.550319,120.505833,0.8594237
467050,新屋,2013-08-08,25.006744,121.047486,0.71643424
C1E480,鳳美,2013-08-08,24.554803,121.034747,0.05377369
C0M530,奮起湖,2013-08-08,23.493903,120.699253,1.8008702e-08
C0C590,觀音,2013-08-08,25.027072,121.153317,0.005206868
C0T9M0,靜浦,2013-08-08,23.455167,121.495028,0.13126995
C2H9M0,發祥,2013-08-08,24.154094,121.164517,6.7403846e-08
C0AI40,石牌,2013-08-08,25.115597,121.513139,0.038245466
C1F871,上谷關,2013-08-08,24.203483,121.018644,6.80557e-07
C2H9G0,百勝,2013-08-08,24.051142,120.909361,0.032907218
C0G880,二水,2013-08-08,23.810742,120.6173,0.84936786
C0R940,加祿堂,2013-08-08,22.3363,120.6217,0.20614728
C0W220,北竿,2013-08-08,26.220358,119.974881,0.07098109
C0O960,崎頂,2013-08-08,22.959547,120.369317,0.99939406
C0S750,向陽,2013-08-08,23.248397,120.986133,5.801403e-09
C0T9F0,水璉,2013-08-08,23.797131,121.542514,0.90504414
C1M600,頭凍,2013-08-08,23.406364,120.603339,9.3174856e-07
467660,臺東,2013-08-08,22.752211,121.154586,0.31314936
C1D380,新埔,2013-08-08,24.84745,121.03834,0.4280131
C2G980,田頭村,2013-08-08,23.8263,120.444175,0.6621425
C0V750,路竹,2013-08-08,22.854997,120.259439,0.9972243
C0N050,蚵寮,2013-08-08,23.301,120.1104,0.38479397
72M700,南改鹿草分場,2013-08-08,23.416869,120.283061,0.9772263
C1SA50,利嘉林道,2013-08-08,22.82325,121.009389,4.1077824e-06
467550,玉山,2013-08-08,23.487614,120.959522,1.665466e-08
C0A940,金山,2013-08-08,25.223628,121.643967,0.013585173
C1V340,大津,2013-08-08,22.888322,120.645986,0.9989417
C0W180,七美,2013-08-08,23.219333,119.444892,0.9979102
C1F9C1,白冷,2013-08-08,24.182844,120.929889,0.012292042
K2E710,苗改生物防治研究中心,2013-08-08,24.422861,120.871833,0.30154803
C0N040,蘆竹溝,2013-08-08,23.2344,120.0961,0.38479388
C2W230,畜試所澎湖,2013-08-08,23.628342,119.513206,0.9892885
C0R880,後壁湖,2013-08-08,21.9457,120.7457,0.97148377
C1I280,埔中,2013-08-08,23.820778,120.642594,0.19693352
467790,墾丁雷達站,2013-08-08,21.948235,120.808028,0.9606557
C0W190,望安,2013-08-08,23.380564,119.494075,0.9994685
466881,新北,2013-08-08,24.9593,121.52,0.23685285
C0Z170,卓溪,2013-08-08,23.3443,121.3029,0.07763799
C0F850,東勢,2013-08-08,24.246428,120.833047,0.34897214
466900,淡水,2013-08-08,25.164889,121.448906,0.011532955
C0I370,魚池,2013-08-08,23.895703,120.94135,1.4745933e-06
C0C630,大溪,2013-08-08,24.882853,121.265547,0.9969091
C0A520,山佳,2013-08-08,24.974944,121.402008,0.028364582
C0I110,竹山,2013-08-08,23.761225,120.688156,0.061452847
82H840,茶改南部分場,2013-08-08,23.762528,120.7405,0.001175597
C0G660,溪湖,2013-08-08,23.94835,120.479122,0.5068106
C1T800,洛韶,2013-08-08,24.204558,121.453956,4.3127354e-08
C1T810,慈恩,2013-08-08,24.192044,121.388386,5.456945e-09
C1E451,象鼻,2013-08-08,24.368617,120.940228,1.6534642e-06
C0AC60,三峽,2013-08-08,24.939025,121.369728,0.22908184
C0I490,萬大林道,2013-08-08,23.928228,121.091411,3.2265863e-08
C1I290,豐丘,2013-08-08,23.668178,120.887417,6.43879e-08
C1I320,奧萬大,2013-08-08,23.952956,121.178556,1.7875e-08
C2M910,嘉義大學,2013-08-08,23.471325,120.485903,0.8896796
C0U770,南澳,2013-08-08,24.44935,121.81022,0.113850676
C0A980,社子,2013-08-08,25.109508,121.469681,0.049648687
C0V800,六龜,2013-08-08,22.997889,120.633583,0.9987267
C1G9D0,國一S218K,2013-08-08,23.890641,120.493253,0.5453488
C0E570,白沙屯,2013-08-08,24.549447,120.696803,0.002833967
C2F9A0,中竹林,2013-08-08,24.103556,120.751061,0.03055492
C0FA40,臺中電廠,2013-08-08,24.2146,120.4907,0.016122324
C2G9A0,畜試所彰化,2013-08-08,23.86045,120.557964,0.27899978
C0H9C0,合歡山,2013-08-08,24.143442,121.272547,1.2363903e-08
C0X060,下營,2013-08-08,23.22695,120.256261,0.9927367
G2M350,農試溪口農場,2013-08-08,23.58565,120.408111,0.99810696
C0U860,頭城,2013-08-08,24.85323,121.8308,0.9185149
C0R580,南州,2013-08-08,22.48591,120.50274,0.6774709
C0D430,峨眉,2013-08-08,24.6905,121.017189,0.84942144
C0G780,秀水,2013-08-08,24.03405,120.503869,0.35530418
72N100,臺南農改場,2013-08-08,23.0605,120.342194,0.99699754
C0S900,蘭嶼高中,2013-08-08,22.04909,121.51214,0.69109684
467540,大武,2013-08-08,22.355675,120.903789,0.09027078
C1F9W0,德基,2013-08-08,24.254783,121.190261,8.886806e-09
C1Z120,壽豐,2013-08-08,23.870853,121.508081,0.9474689
C0W160,烏坵,2013-08-08,24.9944,119.44956,0.00015809608
C1I240,外大坪,2013-08-08,23.958697,120.917931,0.00017388868
C1I550,國六W023K,2013-08-08,23.979067,120.867742,0.015148276
C0R870,興海,2013-08-08,21.9752,120.8439,0.9677256
C0R140,瑪家,2013-08-08,22.682903,120.686639,0.9995509
C0A530,坪林,2013-08-08,24.938183,121.70975,0.9957708
C0X260,後壁,2013-08-08,23.366358,120.362326,0.9996355
C0Z230,和平,2013-08-08,24.30717,121.77007,0.8927101
C0G770,福興,2013-08-08,24.041289,120.437669,0.298159
C0H9A0,神木村,2013-08-08,23.532742,120.843667,5.4421463e-08
C0I460,南投,2013-08-08,23.911469,120.687331,0.17854236
C0I480,梅峰,2013-08-08,24.085272,121.173572,5.7826552e-09
C1V570,吉東,2013-08-08,22.85422,120.5454,0.99946624
C2D740,屯原,2013-08-08,24.067969,121.209389,4.964532e-09
C2A560,福山,2013-08-08,24.776203,121.502811,0.9978047
C0AH30,五分山,2013-08-08,25.07125,121.780794,0.90586674
C0FA10,松柏,2013-08-08,24.429115,120.617482,0.0057078414
72S200,東改班鳩分場,2013-08-08,22.829528,121.077694,0.5040357
72HA00,中改埔里分場,2013-08-08,23.903208,120.963364,3.9289553e-06
C2H9W0,大坪頂農水,2013-08-08,24.043122,120.932781,0.00022814749
C0C650,平鎮,2013-08-08,24.897503,121.214636,0.9830882
C0S930,延平,2013-08-08,22.902581,121.084058,0.5331155
C0UA60,樟樹山,2013-08-08,24.41393,121.78325,0.9943502
C1S670,摩天,2013-08-08,23.199503,121.027,2.0704615e-08
C0V630,茄萣,2013-08-08,22.906642,120.182608,0.96800554
466940,基隆,2013-08-08,25.133314,121.740475,0.0047140024
C0X050,東河,2013-08-08,23.296598,120.385608,0.99914515
C0R770,保力,2013-08-08,22.071122,120.764111,0.9525932
G2L020,農試嘉義分所,2013-08-08,23.485028,120.473806,0.8647778
C0X240,關子嶺,2013-08-08,23.331169,120.508025,0.6091094
C0I380,集集,2013-08-08,23.828206,120.801467,0.17928414
466990,花蓮,2013-08-08,23.975128,121.613275,0.9549317
C1V220,小關山,2013-08-08,23.154217,120.813603,1.7288468e-08
C1F9G1,慶福山,2013-08-08,24.180853,120.848378,3.448315e-05
C0Z250,瑞穗林道,2013-08-08,23.49284,121.30688,2.5504297e-08
C0D590,新豐,2013-08-08,24.87068,120.97721,0.4683226
C0A870,五指山,2013-08-08,25.132153,121.608692,0.8356575
C0UA50,西帽山,2013-08-08,24.555361,121.802628,0.82010424
C0X160,仁德,2013-08-08,22.968258,120.257689,0.9971424
C1H971,六分寮,2013-08-08,23.92507,120.6378,0.0012396424
C0W120,西嶼,2013-08-08,23.5626,119.468436,0.99924123
C0G650,員林,2013-08-08,23.946503,120.585597,0.28769374
C0AD50,鶯歌,2013-08-08,24.951533,121.346294,0.006463925
C2H9Q0,北東眼山,2013-08-08,24.120939,121.189303,4.9732036e-09
C2H9T0,名間竹圍,2013-08-08,23.859914,120.637572,0.02949608
C0S990,山豬窟,2013-08-08,22.318619,120.857372,0.2651739
72Q010,高雄農改,2013-08-08,22.709333,120.525889,0.9992029
C0X190,安平,2013-08-08,22.993161,120.152181,0.9745961
C0K400,斗六,2013-08-08,23.720583,120.541127,0.97726744
12J990,口湖工作站,2013-08-08,23.589978,120.180394,0.4622208
C0O830,北寮,2013-08-08,23.079561,120.495008,0.99895835
C1D410,白蘭,2013-08-08,24.579364,121.079947,1.9717707e-08
C0S970,加津林,2013-08-08,22.416211,120.926942,0.090582415
C0D700,關西,2013-08-08,24.7977,121.1732,0.9713331
C0M810,里佳,2013-08-08,23.389125,120.716647,1.8008702e-08
C0U750,龜山島,2013-08-08,24.841667,121.953133,0.026234005
C0R810,內獅,2013-08-08,22.305064,120.642986,0.20614728
C1M390,龍美,2013-08-08,23.406728,120.654417,1.4245884e-07
C2FB60,頭櫃山,2013-08-08,24.129842,120.858925,1.7924848e-06
C1H840,國三N238K,2013-08-08,23.841008,120.707711,0.1444639
CAQ030,崎峰國小,2013-08-08,22.42565,120.49521,0.6774709
C2E520,大湖,2013-08-08,24.414939,120.870872,0.20616785
467530,阿里山,2013-08-08,23.508208,120.813242,7.345994e-09
C1E691,南湖,2013-08-08,24.40135,120.837533,0.0022285413
C0FA30,梧棲,2013-08-08,24.256003,120.523381,0.016122324
C1V231,高中,2013-08-08,23.134911,120.716711,0.11720799
C0F9V0,新社,2013-08-08,24.200172,120.815806,0.007865108
C0H890,埔里,2013-08-08,23.972169,120.952425,0.023667982
C0R690,墾丁,2013-08-08,21.966756,120.810269,0.23888154
C0F0D0,審馬陣,2013-08-08,24.381675,121.4203,9.252015e-09
C0R820,白鷺,2013-08-08,22.454275,120.666219,0.98861223
U2H480,臺大溪頭,2013-08-08,23.670306,120.798194,4.1718155e-07
C1V190,南天池,2013-08-08,23.27403,120.91176,5.8927276e-09
K2E360,苗栗農改場,2013-08-08,24.495722,120.829111,0.10438182
CAJ050,海口故事園區,2013-08-08,23.57543,120.14121,0.4419882
C2H9D0,三隻寮,2013-08-08,24.093078,120.861578,9.7987686e-05
C0O990,媽廟,2013-08-08,22.99175,120.293525,0.9973735
C0D480,打鐵坑,2013-08-08,24.849664,121.150789,0.97775584
C0Z220,和平林道,2013-08-08,24.343922,121.656317,0.99387646
C0TA10,花蓮漁港,2013-08-08,23.995322,121.638331,0.9575685
72C440,桃園農改場,2013-08-08,24.950944,121.030583,0.71563476
C1E711,馬拉邦山,2013-08-08,24.367306,120.901656,5.959588e-06
C0SB20,富岡,2013-08-08,22.792467,121.192669,0.33338037
C0D560,竹東,2013-08-08,24.767147,121.057881,0.9622032
C0F9U0,南屯,2013-08-08,24.137006,120.637969,0.75899225
C0M720,番路,2013-08-08,23.464657,120.554156,0.59220564
C0F0A0,雪山圈谷,2013-08-08,24.388594,121.236339,1.8390777e-08
C1A9N0,四十份,2013-08-08,24.934158,121.593283,0.9844346
C0U760,東澳,2013-08-08,24.52196,121.83318,0.5411707
C0X230,鹽水,2013-08-08,23.272621,120.247641,0.9348105
C2H9H0,苗改南投蜂場,2013-08-08,23.852589,120.693481,0.06145291
C0R950,萬隆國小,2013-08-08,22.507667,120.587817,0.9848165
C0V370,古亭坑,2013-08-08,22.893178,120.401947,0.9996984
C1I340,新興橋,2013-08-08,23.563333,120.868728,2.223174e-07
C0SA80,土坂,2013-08-08,22.453108,120.887572,0.93158495
C0R160,鹽埔,2013-08-08,22.739558,120.530778,0.9985121
C0AC40,大屯山,2013-08-08,25.175675,121.522408,1.5829153e-05
466850,五分山雷達站,2013-08-08,25.071182,121.781205,0.9078824
C2H9L0,馬烈霸,2013-08-08,24.1512,121.201772,5.002095e-09
C1AI50,國三N016K,2013-08-08,25.034164,121.619664,0.23263656
C1V600,藤枝,2013-08-08,23.071961,120.757042,7.9074546e-08
C1E601,南勢,2013-08-08,24.572486,120.734842,0.009963782
C0Z180,新城,2013-08-08,24.03946,121.60454,0.95145243
C0O980,新市,2013-08-08,23.061614,120.298197,0.9960847
C0K420,西螺,2013-08-08,23.800407,120.467394,0.8772612
C0Z050,佳心,2013-08-08,23.34567,121.21316,3.1456589e-06
C0AD30,蘆洲,2013-08-08,25.086594,121.472331,0.04784353
C0V610,梓官,2013-08-08,22.760558,120.267211,0.99039906
K2F750,種苗改良場,2013-08-08,24.225972,120.800917,0.040978912
C0UA80,大溪漁港,2013-08-08,24.941801,121.902955,0.9310041
C1AI60,國一39K邊坡,2013-08-08,25.064361,121.383836,0.10958407
C0W150,金寧,2013-08-08,24.457703,118.328989,0.00437199
C0R960,內埔,2013-08-08,22.608483,120.570714,0.9853135
V2C250,八德合作社,2013-08-08,24.93775,121.266389,0.9651712
C2H9S0,龍南,2013-08-08,23.953536,120.833183,6.5106076e-07
C0AH40,平等,2013-08-08,25.129142,121.577086,0.5763973
C0R540,佳冬,2013-08-08,22.419456,120.552375,0.6774709
466950,彭佳嶼,2013-08-08,25.627975,122.079744,0.99835306
C0A890,雙溪,2013-08-08,25.036003,121.864242,0.0051689786
C0C480,桃園,2013-08-08,24.992425,121.323172,0.6867339
C0AH50,林口,2013-08-08,25.072181,121.38084,0.11239758
A2K360,水試臺西試驗場,2013-08-08,23.717231,120.190522,0.30652633
B2N890,畜試所,2013-08-08,23.058972,120.336406,0.99699754
C2M960,外寮,2013-08-08,23.562643,120.665688,1.2270733e-07
C0F9S0,烏日,2013-08-08,24.107058,120.624103,0.08763484
C0C490,八德,2013-08-08,24.928708,121.283289,0.99614114
C0R190,赤山,2013-08-08,22.592333,120.614306,0.9830094
C0T820,天祥,2013-08-08,24.179597,121.495639,0.94946474
C1F9E1,龍安,2013-08-08,24.1605,120.831961,0.0035346516
C0V820,小林,2013-08-08,23.148408,120.63325,0.6780605
C2G870,芳苑,2013-08-08,23.922303,120.320025,0.33505318
C0E850,大河,2013-08-08,24.618069,120.948578,0.13935038
C1U670,寒溪,2013-08-08,24.634,121.71691,0.096803956
C0N020,城西,2013-08-08,23.0568,120.0956,0.41151667
C1Z110,三棧,2013-08-08,24.11557,121.60501,0.050491087
C0R280,檳榔,2013-08-08,22.076078,120.836777,0.2283969
C2H9J0,中台,2013-08-08,23.9996,120.938739,0.0025229082
C0F9L0,后里,2013-08-08,24.310436,120.729725,0.31571016
C0D540,橫山,2013-08-08,24.71116,121.11693,0.53734195
C1D420,太閣南,2013-08-08,24.632808,121.160575,1.4809682e-08
C1E770,公館,2013-08-08,24.526914,120.830806,0.0022390992
CAN130,水試所海水繁養殖中心,2013-08-08,23.120802,120.07968,0.3686921
C1I430,翠華,2013-08-08,24.191961,121.224339,6.6887567e-09
C1M400,菜瓜坪,2013-08-08,23.251928,120.576103,0.79272664
C0G730,二林,2013-08-08,23.903325,120.376081,0.55659765
72M360,南改義竹分場,2013-08-08,23.360694,120.279361,0.994927
V2K620,麥寮合作社,2013-08-08,23.753836,120.294783,0.7523139
C0Z070,舞鶴,2013-08-08,23.46811,121.37407,0.3218906
C0B040,大武崙,2013-08-08,25.166676,121.706993,0.005025764
C1Z030,紅葉,2013-08-08,23.493119,121.338806,0.13256128
C1I050,丹大,2013-08-08,23.753747,121.141147,8.436807e-09
C0I080,信義,2013-08-08,23.689694,120.851036,0.00078123354
C2M920,朴子農改,2013-08-08,23.469889,120.259383,0.9724684
C2A880,福隆,2013-08-08,25.017842,121.942083,0.048619512
C0Z160,鳳林,2013-08-08,23.746114,121.453411,0.592945
C0V210,復興,2013-08-08,23.222403,120.806089,0.94854975
C0H990,昆陽,2013-08-08,24.121322,121.273642,7.688587e-09
C0R741,獅子,2013-08-08,22.202308,120.705236,0.057932608
C0S710,鹿野,2013-08-08,22.917711,121.122994,0.83490986
C0I530,小奇萊,2013-08-08,24.131764,121.295717,1.0177178e-08
C2K630,荷苞,2013-08-08,23.657717,120.595144,0.8269724
C0Z080,富源,2013-08-08,23.587642,121.378225,0.44129053
467441,高雄,2013-08-08,22.7304,120.3125,0.5524278
C0SB10,美和,2013-08-08,22.682078,121.060236,0.13159408
C2K620,馬光農場,2013-08-08,23.721453,120.378864,0.8835211
C1I140,卡奈托灣,2013-08-08,23.754364,121.087872,3.693983e-08
C0I520,玉山風口,2013-08-08,23.470489,120.955994,1.7274658e-08
C1G691,下水埔,2013-08-08,23.816114,120.5676,0.8795902
C0X110,臺南市南區,2013-08-08,22.961189,120.188378,0.97733694
C0V680,仁武,2013-08-08,22.701083,120.347722,0.58076006
C2G840,北斗,2013-08-08,23.877586,120.514222,0.59100866
C0R900,竹坑,2013-08-08,22.1385,120.7022,0.04208529
C0K250,崙背,2013-08-08,23.75555,120.318925,0.7788906
C0G860,社頭,2013-08-08,23.897647,120.5862,0.29331598
C0X150,安定,2013-08-08,23.102614,120.227839,0.94826496
C0R590,里港,2013-08-08,22.77919,120.49459,0.9991287
C0E610,馬都安,2013-08-08,24.451272,120.930192,0.0062008663
C0E550,明德,2013-08-08,24.583486,120.885411,0.11238323
C0R150,三地門,2013-08-08,22.709889,120.639944,0.99829805
C0G910,花壇,2013-08-08,24.032076,120.549461,0.35941318
C1D400,鳥嘴山,2013-08-08,24.71909,121.28387,0.09398083
C0K500,元長,2013-08-08,23.64981,120.315024,0.9098116
C0F0B0,石岡,2013-08-08,24.276061,120.777644,0.71798456
C2V250,甲仙,2013-08-08,23.080106,120.591758,0.9242444
C0SA20,金崙山,2013-08-08,22.567419,120.959667,0.22884817
C0V350,溪埔,2013-08-08,22.738578,120.446797,0.9969778
C0M660,溪口,2013-08-08,23.604131,120.403569,0.99810696
C1S880,壽卡,2013-08-08,22.238911,120.858903,0.3962026
72D680,桃改新埔分場,2013-08-08,24.834444,121.066111,0.91088766
