站號,站名,日期,lat,lon,BLBTSLS
C0R710,龍磐,2013-11-08,21.931672,120.838942,0.98477805
C1F9D1,白毛台,2013-11-08,24.158325,120.886933,7.1521335e-08
C0G940,竹塘,2013-11-08,23.848253,120.386764,3.351788e-06
467590,恆春,2013-11-08,22.003897,120.746339,0.9884027
C1O850,環湖,2013-11-08,23.148617,120.418633,0.07066397
C0U710,太平山,2013-11-08,24.505486,121.525656,2.3696971e-08
C0E820,獅潭,2013-11-08,24.539133,120.920042,0.0011954955
C0V880,興達,2013-11-08,22.8778,120.2127,0.9945115
C0S890,關山,2013-11-08,23.0395,121.175017,0.99850655
C0SB30,新蘭,2013-11-08,22.869214,121.223228,0.9911544
C2R970,屏科大,2013-11-08,22.648275,120.619247,0.001658996
K2F750,種苗繁殖,2013-11-08,24.225972,120.800917,4.1530665e-08
C1Z130,銅門,2013-11-08,23.965694,121.492842,7.7974903e-07
C0AD40,土城,2013-11-08,24.973208,121.445169,0.99729514
CAN140,六官養殖協會,2013-11-08,23.22881,120.29962,0.9814515
C0X180,山上,2013-11-08,23.0757,120.363253,0.008693545
C0F9Z0,雪山東峰,2013-11-08,24.388792,121.268675,2.0974623e-08
C1M480,獨立山,2013-11-08,23.537022,120.607797,1.6763751e-08
C0X220,學甲,2013-11-08,23.230367,120.182187,0.9927331
467650,日月潭,2013-11-08,23.881325,120.90805,3.1179578e-08
C0K600,箔子寮,2013-11-08,23.6197,120.14,0.7880683
C0G830,埤頭,2013-11-08,23.866003,120.452806,1.6477123e-05
C0S950,七塊厝,2013-11-08,22.954453,121.229922,9.49644e-08
467110,金門,2013-11-08,24.407306,118.289281,0.8705897
C0AH80,深坑,2013-11-08,25.002703,121.628328,0.99574095
467990,馬祖,2013-11-08,26.169269,119.923419,4.66037e-06
C0A970,三貂角,2013-11-08,25.007606,122.002058,0.9907925
C2D730,寶山農場,2013-11-08,24.732444,120.976153,0.9883024
C0K430,褒忠,2013-11-08,23.690938,120.303634,0.7654543
467480,嘉義,2013-11-08,23.495925,120.432906,0.01823387
C2E540,後龍,2013-11-08,24.606489,120.783933,0.10424389
C0V400,阿公店,2013-11-08,22.804194,120.355528,0.0002522168
C0R440,大漢山,2013-11-08,22.405264,120.753181,1.681162e-08
C0K280,四湖,2013-11-08,23.630414,120.227125,0.9738858
C1F9B1,桐林,2013-11-08,24.066172,120.735194,8.749889e-07
C2H9U0,鳳鵬,2013-11-08,23.763919,120.788061,3.0979333e-08
C0K390,土庫,2013-11-08,23.679029,120.395574,1.4331981e-06
C1I450,望鄉山,2013-11-08,23.594153,120.944286,2.0768768e-08
C0E910,海埔,2013-11-08,24.648767,120.772435,0.07578778
B2E890,畜試北區分所,2013-11-08,24.527806,120.770972,0.36977047
C0R750,四林格山,2013-11-08,22.076989,120.802439,0.22131829
C0F0C0,中坑,2013-11-08,24.248517,120.903319,3.3285136e-08
C1I121,大鞍,2013-11-08,23.678381,120.760017,1.578911e-08
72U480,花改蘭陽分場,2013-11-08,24.686306,121.716583,0.8148358
C0A770,科教館,2013-11-08,25.096356,121.516507,0.9973499
C0AJ60,六塊厝,2013-11-08,25.24,121.4481,0.98371905
C0R620,墾雷,2013-11-08,21.900836,120.855269,0.98809046
467420,永康,2013-11-08,23.038386,120.2367,0.9758603
467300,東吉島,2013-11-08,23.25695,119.667467,0.57177335
C0I410,名間,2013-11-08,23.837053,120.701447,5.309012e-07
A2C560,農工中心,2013-11-08,24.985917,121.239833,0.9521895
C0V740,旗山,2013-11-08,22.888614,120.483597,0.000675612
C0Z061,玉里,2013-11-08,23.3215,121.339656,0.9385892
C0S840,南田,2013-11-08,22.279725,120.889208,0.094406314
C1I470,杉林溪,2013-11-08,23.639517,120.786444,1.409083e-08
C1X040,東原,2013-11-08,23.291597,120.463822,2.526496e-06
C0R660,枋寮,2013-11-08,22.367722,120.590647,0.40067127
C1R120,上德文,2013-11-08,22.763272,120.704442,0.0017536684
C0K450,大埤,2013-11-08,23.646074,120.431537,1.7826279e-06
C0UA00,土場,2013-11-08,24.576533,121.495333,0.004523559
467080,宜蘭,2013-11-08,24.763975,121.756528,0.99089456
C0N030,四草,2013-11-08,23.0235,120.1116,0.99863195
C0V650,彌陀,2013-11-08,22.783806,120.246361,0.9597251
C0D660,新竹市東區,2013-11-08,24.798681,120.986942,0.9756415
82S580,茶改東部分場,2013-11-08,22.907694,121.130139,7.257392e-05
C0SB40,興隆,2013-11-08,22.913661,121.257469,0.8580029
C0C710,大溪永福,2013-11-08,24.892936,121.324975,0.95510113
C0FA20,溫寮,2013-11-08,24.372177,120.583125,0.56876725
C0V640,湖內,2013-11-08,22.887139,120.2445,0.9934527
C0R910,下寮,2013-11-08,22.3929,120.5548,0.018382639
C0Z020,明里,2013-11-08,23.208717,121.262342,0.00038830203
C0M770,嘉義梅山,2013-11-08,23.585398,120.555587,1.3190908e-06
G2F820,農業試驗所,2013-11-08,24.031261,120.688133,0.12004203
C0C660,楊梅,2013-11-08,24.912375,121.143047,0.9592938
C1E511,新開,2013-11-08,24.347703,120.827019,5.6821797e-08
G2F820,農試所(霧峰),2013-11-08,24.031261,120.688133,0.12004203
C1I070,和社,2013-11-08,23.591131,120.888861,1.1691984e-08
C2F000,大肚,2013-11-08,24.15295,120.572117,2.307543e-08
C1S850,豐南,2013-11-08,23.122139,121.262389,1.549624e-07
C2A920,富貴角,2013-11-08,25.263783,121.565258,0.9651244
CAH030,茶改場竹圍站,2013-11-08,23.860083,120.637528,7.863387e-08
C0T960,光復,2013-11-08,23.660694,121.424964,0.005866792
C0F9M0,豐原,2013-11-08,24.254322,120.720692,0.00011705958
C0R720,旭海,2013-11-08,22.205403,120.887614,0.06508245
C0V710,苓雅,2013-11-08,22.622742,120.330669,0.007421728
C0C740,觀音工業區,2013-11-08,25.064764,121.114856,0.96226895
CAC040,拉拉山,2013-11-08,24.699317,121.427133,1.38926275e-08
C0V790,萬山,2013-11-08,22.905944,120.688056,7.1821674e-08
U2HA30,臺大和社,2013-11-08,23.590856,120.888864,1.1691984e-08
C0AJ90,澳底,2013-11-08,25.0552,121.9253,0.9837548
C0Z100,東華,2013-11-08,23.89525,121.549833,0.00019674425
C0G970,三豐,2013-11-08,23.882,120.2895,0.20542264
V2K610,大庄合作社,2013-11-08,23.8068,120.367939,0.031225476
C0V900,汕尾,2013-11-08,22.4782,120.4151,0.0009774488
C1R630,龍泉,2013-11-08,22.66701,120.59091,0.024385063
C1AC50,關渡,2013-11-08,25.133486,121.469331,0.99639475
C0F9I0,神岡,2013-11-08,24.272481,120.658314,0.0004606553
C0K460,斗南,2013-11-08,23.678734,120.478359,1.0777356e-06
467410,臺南,2013-11-08,22.993239,120.204772,0.97009265
C2O810,曾文,2013-11-08,23.219681,120.497328,0.0028214348
467280,後龍,2013-11-08,24.648563,120.831834,0.031441484
C1F9J1,清水林,2013-11-08,24.071242,120.820419,1.671742e-08
C2A650,火燒寮,2013-11-08,25.002719,121.742892,0.9976756
466930,竹子湖,2013-11-08,25.162078,121.544547,0.01649604
C1I220,樟湖,2013-11-08,23.905333,120.846983,1.0580047e-08
C0I390,仁愛,2013-11-08,24.022122,121.132206,2.1792442e-08
C0Z300,東里,2013-11-08,23.26853,121.30547,0.79763854
C1V590,新發,2013-11-08,23.057019,120.646064,0.0011040254
C0K510,水林,2013-11-08,23.572924,120.24597,0.7531566
72S590,東改賓朗果園,2013-11-08,22.813889,121.071278,0.99800974
82A750,茶改北部分場,2013-11-08,24.955778,121.631222,7.354341e-06
C1A750,石碇服務區,2013-11-08,25.00872,121.646242,0.9955573
C0X300,鹿寮,2013-11-08,23.386047,120.477331,0.00020308066
G2AI50,關渡,2013-11-08,25.11575,121.492,0.9973574
C0K590,雲林東勢,2013-11-08,23.674192,120.255721,0.7654543
C0A570,桶後,2013-11-08,24.848222,121.597992,0.6103351
C1S800,華源,2013-11-08,22.657883,121.02325,0.85675067
C0G720,溪州,2013-11-08,23.851589,120.499093,7.2972493e-06
C1V160,達卡努瓦,2013-11-08,23.279811,120.705319,2.9318485e-07
C2M410,馬頭山,2013-11-08,23.324361,120.582017,1.9755525e-07
C0V850,蚵仔寮,2013-11-08,22.7256,120.2527,0.9409515
C0S740,池上,2013-11-08,23.119628,121.209469,7.1205204e-07
C1V390,尖山,2013-11-08,22.813153,120.367789,8.728183e-05
C0AH70,松山,2013-11-08,25.04871,121.55042,0.9962306
C0N010,鯤鯓國小,2013-11-08,23.1879,120.0889,0.99690586
C0R550,新埤,2013-11-08,22.467947,120.582894,0.0432484
C0SA60,知本（水試所）,2013-11-08,22.702394,121.082761,0.5805423
C0T9I0,豐濱,2013-11-08,23.583897,121.514806,0.727869
C0UB00,淡江大學蘭陽校園,2013-11-08,24.823239,121.730383,0.06990717
C0W240,九宮,2013-11-08,24.423753,118.240186,0.43830237
C0T9N0,富里,2013-11-08,23.171639,121.249378,0.000115624476
U2HA50,臺大竹山,2013-11-08,23.756972,120.681556,9.699509e-08
C0V840,鳳鼻頭,2013-11-08,22.5083,120.3591,0.012010337
C0X140,西港,2013-11-08,23.125608,120.203108,0.9956393
72D080,桃改五峰分場,2013-11-08,24.612194,121.157167,1.3542776e-08
C2H9P0,伊拿谷,2013-11-08,23.963211,121.088264,9.1446095e-09
C2H9F0,柑林,2013-11-08,24.018658,120.847072,1.669451e-08
C0TA20,加灣,2013-11-08,24.082025,121.608944,7.591859e-05
C0V530,阿蓮,2013-11-08,22.883208,120.327508,0.9353979
C1O880,關山,2013-11-08,23.173397,120.594092,3.0720435e-07
C0E791,卓蘭,2013-11-08,24.3126,120.8244,5.5535068e-08
C1I030,武界,2013-11-08,23.913225,121.052483,3.756824e-08
C0R520,崁頂,2013-11-08,22.514781,120.506914,0.016453685
C0R341,牡丹,2013-11-08,22.130036,120.792639,0.8884626
C0R930,萬丹,2013-11-08,22.5885,120.4851,0.045065813
C0S760,紅石,2013-11-08,23.069131,121.126219,4.5379515e-08
C1M610,石磐龍,2013-11-08,23.496606,120.663506,3.1464964e-08
C0UA10,鴛鴦湖,2013-11-08,24.590269,121.412228,9.7954205e-09
V2C260,八德蔬果,2013-11-08,24.978508,121.281819,0.97678626
C0R800,丹路,2013-11-08,22.204481,120.750989,0.40225747
C0G920,永靖,2013-11-08,23.924703,120.547533,0.0004103192
C2M950,太和,2013-11-08,23.538372,120.702961,1.661766e-08
C1A630,下盆,2013-11-08,24.771003,121.538622,1.9674715e-07
B2N890,畜產試驗所,2013-11-08,23.058972,120.336406,0.6322466
C0UA30,白嶺,2013-11-08,24.527819,121.519031,3.737669e-08
C1V580,溪南(特生中心),2013-11-08,23.084972,120.788475,4.488489e-08
C1T970,大農,2013-11-08,23.615233,121.413331,0.00048193836
E2S960,林試太麻里2,2013-11-08,22.598014,120.989761,0.97309464
C0R650,竹田,2013-11-08,22.58486,120.54344,0.045065813
C1H900,清流,2013-11-08,24.080775,120.962997,1.5542277e-08
C1C510,水尾,2013-11-08,24.940081,121.087161,0.95271766
C0F9X0,大雅(中科園區),2013-11-08,24.21528,120.62445,0.00734696
C0SB60,白守蓮,2013-11-08,23.126769,121.401914,0.62495995
C0O970,虎頭埤,2013-11-08,23.021375,120.347878,0.9693764
C0C730,中大臨海站,2013-11-08,24.966126,121.008581,0.22677295
C0X250,新營,2013-11-08,23.310689,120.316681,0.9548585
C0V700,三民,2013-11-08,22.645017,120.311233,0.007421728
C0U870,大礁溪,2013-11-08,24.791042,121.675047,3.2769483e-05
C0E870,高鐵苗栗,2013-11-08,24.60725,120.826094,0.09437963
A2K570,古坑花卉中心,2013-11-08,23.63353,120.55239,4.585982e-07
C0M860,新美,2013-11-08,23.338017,120.683169,2.64596e-07
C1E701,八卦,2013-11-08,24.491756,120.927619,6.0707765e-07
C0I420,國姓,2013-11-08,24.037803,120.855072,4.7358814e-08
C2D720,關西工作站,2013-11-08,24.757275,121.184792,0.90920806
C0S960,香蘭,2013-11-08,22.587569,120.993375,0.97309464
C0R260,春日,2013-11-08,22.370361,120.628306,0.33980167
72G600,臺中農改場,2013-11-08,24.003028,120.534389,0.018605767
C0Z210,瑞穗,2013-11-08,23.5239,121.39021,0.86368793
C0M820,達邦,2013-11-08,23.453994,120.749517,1.1880592e-08
C0V860,南寮,2013-11-08,22.7616,120.2339,0.97218937
C0G740,大城,2013-11-08,23.852487,120.320935,0.14989631
C0R920,塭仔,2013-11-08,22.4169,120.5197,0.025430305
C0R470,高樹,2013-11-08,22.826389,120.600806,0.016460283
C0R680,佳樂水,2013-11-08,21.993578,120.861633,0.9887012
C1O870,大棟山,2013-11-08,23.31157,120.52226,1.4681154e-08
C0D360,梅花,2013-11-08,24.678347,121.208558,3.3572925e-07
C0Z190,富世,2013-11-08,24.14743,121.6297,2.5271265e-05
C0AI10,屈尺,2013-11-08,24.92184,121.54475,0.99574095
B2U990,畜試東區分所,2013-11-08,24.669039,121.832561,0.58097357
C0SB80,長濱漁港,2013-11-08,23.313644,121.459994,0.99966806
C0R240,來義,2013-11-08,22.527306,120.625111,0.36064804
C0V910,大樹,2013-11-08,22.684645,120.432803,0.0009811159
C1R610,西大武山,2013-11-08,22.617719,120.7322,3.61355e-08
C0G900,線西,2013-11-08,24.143358,120.443536,0.9330082
C0M700,竹崎,2013-11-08,23.526178,120.555508,1.7560562e-07
C2E880,三義,2013-11-08,24.405478,120.749819,2.7526115e-08
C0C720,竹圍,2013-11-08,25.112692,121.239824,0.98576987
C0F9P0,清水,2013-11-08,24.312297,120.562242,0.60823923
C0Z150,吉安光華,2013-11-08,23.930925,121.595153,0.000564129
C1D640,外坪(五指山),2013-11-08,24.644447,121.090961,9.042644e-08
C0F9O0,潭子,2013-11-08,24.213106,120.703933,0.0003030338
C2H9R0,卓社,2013-11-08,23.887894,121.000086,8.056602e-09
72T250,花蓮農改場,2013-11-08,23.975222,121.563889,3.379129e-05
C0E780,銅鑼,2013-11-08,24.489681,120.790853,0.006878818
C1T950,太安,2013-11-08,23.666719,121.370128,1.04033315e-08
C0E830,苑裡,2013-11-08,24.439714,120.653053,0.37580875
467270,田中,2013-11-08,23.873803,120.581286,2.7870224e-06
C0SA10,檳榔四格山,2013-11-08,22.810031,121.109308,0.99917024
C1T830,布洛灣,2013-11-08,24.17184,121.57127,0.00055923767
C0F970,大坑,2013-11-08,24.173142,120.722289,0.012741822
C1U920,思源,2013-11-08,24.393125,121.347214,2.292299e-08
C0A931,三和,2013-11-08,25.233153,121.595236,0.9963335
C0I010,廬山,2013-11-08,24.033311,121.181808,1.9893326e-08
C2M940,日野賀,2013-11-08,23.434056,120.727169,3.2115373e-08
C0R860,鼻頭,2013-11-08,22.1043,120.8979,0.98642915
C0UB20,壯圍,2013-11-08,24.7359,121.8163,0.58097357
C0R790,九棚,2013-11-08,22.14195,120.889281,0.060092334
C0W110,東莒,2013-11-08,25.9652,119.98069,0.065510534
C1U930,粉鳥林,2013-11-08,24.497088,121.842479,0.95432615
C1I211,蘆竹湳,2013-11-08,23.934019,120.811994,2.6654302e-08
C0S830,長濱,2013-11-08,23.286817,121.411975,0.00012867503
C1F9F1,伯公龍,2013-11-08,24.272392,120.849047,3.590733e-08
C0E810,西湖,2013-11-08,24.562947,120.7485,0.05497392
C1I440,新高口,2013-11-08,23.478744,120.878939,1.8386322e-08
C0O840,王爺宮,2013-11-08,23.222064,120.40085,0.002823601
C0T9G0,鳳林山,2013-11-08,23.735269,121.420131,2.4256693e-07
C0X080,佳里,2013-11-08,23.173039,120.145086,0.9936716
C0FB70,大甲溪埔,2013-11-08,24.370625,120.620067,0.3129714
C0Z310,清水斷崖,2013-11-08,24.218294,121.689142,0.5336507
C0M680,太保,2013-11-08,23.455062,120.331455,0.87943536
C1S820,金峰,2013-11-08,22.590969,120.933236,0.99802816
C0AD10,八里,2013-11-08,25.150211,121.403947,0.98576987
C2K240,草嶺,2013-11-08,23.59555,120.693461,1.9774049e-08
C1SA70,都蘭,2013-11-08,22.87794,121.226881,0.8580029
C0K440,二崙,2013-11-08,23.772797,120.408944,2.422198e-06
C1A760,坪林交控,2013-11-08,24.94284,121.713442,0.9952806
C0F9N0,大里,2013-11-08,24.092464,120.701378,0.9020967
C0SA90,達仁林場,2013-11-08,22.264347,120.823972,0.85450834
C1R290,石門山,2013-11-08,22.112611,120.756597,0.94970846
42HA10,萬大發電廠,2013-11-08,23.978875,121.139639,1.52923e-08
C0R890,山海,2013-11-08,21.9878,120.7091,0.98928726
C0T9A0,月眉山,2013-11-08,23.809928,121.539828,1.3438353e-07
C0AC70,信義,2013-11-08,25.037822,121.564597,0.9962306
C0K560,棋山,2013-11-08,23.68645,120.603417,4.176555e-06
C2FB50,出雲,2013-11-08,24.206469,120.902794,3.4313565e-08
C1Z240,中平林道,2013-11-08,23.42115,121.26763,9.032108e-09
U2H480,溪頭,2013-11-08,23.670306,120.798194,1.8332324e-08
C0M880,好美里,2013-11-08,23.3364,120.138,0.9936716
C0T9E0,大坑,2013-11-08,23.880628,121.581981,3.3652006e-07
C0K530,臺西,2013-11-08,23.701547,120.197559,0.8547739
C1E900,國一N128K,2013-11-08,24.560997,120.844186,0.02198071
C0AJ50,水湳洞,2013-11-08,25.123695,121.862238,0.7459943
C0AI20,白沙灣,2013-11-08,25.283128,121.519058,0.8457097
C0A860,大坪,2013-11-08,25.165914,121.632969,0.99233663
C1U850,觀音海岸,2013-11-08,24.38319,121.77856,3.612624e-06
C2K610,草嶺石壁,2013-11-08,23.602469,120.707731,2.6323177e-08
C0U950,鶯子嶺,2013-11-08,24.89754,121.79244,8.550862e-08
C0O900,善化,2013-11-08,23.112883,120.297219,0.85461754
C0K550,蔦松,2013-11-08,23.514319,120.229736,0.9573113
E2P980,林試六龜中心,2013-11-08,22.991703,120.645722,6.288758e-05
C0E590,通霄,2013-11-08,24.471892,120.704622,0.6293555
C1I310,西巒,2013-11-08,23.754486,120.883956,1.8905634e-08
C0A550,泰平,2013-11-08,24.971197,121.823711,0.9649454
C0I360,水里,2013-11-08,23.812553,120.849792,1.4358616e-07
C0R830,高士,2013-11-08,22.121825,120.836781,0.9107924
C1I101,溪頭,2013-11-08,23.661789,120.807647,1.8549764e-08
C0AJ20,野柳,2013-11-08,25.20703,121.690021,0.7459943
C0B060,暖暖,2013-11-08,25.0957,121.7403,0.9061987
C1H920,長豐,2013-11-08,24.102039,120.879897,1.488839e-08
C0V360,內門,2013-11-08,22.975481,120.466769,0.00026930834
C0R850,林邊,2013-11-08,22.4634,120.5339,0.016453685
C0E930,龍鳳,2013-11-08,24.700034,120.859125,0.40730494
C0U910,冬山,2013-11-08,24.63373,121.7937,0.58097357
C1E721,泰安,2013-11-08,24.489017,120.968036,1.40354395e-08
82H320,茶改中部分場,2013-11-08,23.875611,120.913583,6.8067485e-09
C0M750,布袋,2013-11-08,23.380878,120.167789,0.98375577
C1S860,利嘉,2013-11-08,22.809417,121.050528,0.3968143
72C440,桃園農改,2013-11-08,24.950944,121.030583,0.46777254
E2S980,林試太麻里1,2013-11-08,22.598922,120.980044,0.9890698
C0X170,關廟,2013-11-08,22.963017,120.327797,0.59795344
C0V720,林園,2013-11-08,22.507747,120.394511,0.007415134
C1I510,線浸林道,2013-11-08,23.761508,120.832956,1.3438667e-08
C0D690,外湖,2013-11-08,24.917735,120.968711,0.22677295
C0C750,新興坑尾,2013-11-08,25.0061,121.0971,0.9677729
B2Q810,畜試南區分所,2013-11-08,21.945583,120.802167,0.9887012
C0S790,金崙,2013-11-08,22.538122,120.966875,0.9984254
C0AH90,福山植物園,2013-11-08,24.760717,121.58135,7.62277e-07
C0I540,奇萊稜線,2013-11-08,24.109231,121.326456,2.5106399e-08
C0M850,表湖,2013-11-08,23.24186,120.64166,4.5250992e-08
C0S770,大溪山,2013-11-08,22.478475,120.943325,0.9971749
C0AG80,中和,2013-11-08,24.991622,121.491792,0.9962306
C0T790,大禹嶺,2013-11-08,24.186117,121.316086,1.9869134e-08
C0T9B0,水源,2013-11-08,23.991861,121.537169,7.4135606e-08
C0R840,牡丹池山,2013-11-08,22.168389,120.841225,0.81607664
C1I131,桶頭,2013-11-08,23.641944,120.654117,1.9438211e-07
CAL110,布袋國中,2013-11-08,23.35893,120.18026,0.93781054
467571,新竹,2013-11-08,24.827853,121.014219,0.9747704
C0Z290,赤柯山,2013-11-08,23.36893,121.38293,1.7119772e-08
C0X280,將軍,2013-11-08,23.214999,120.13577,0.9936716
C0S690,太麻里,2013-11-08,22.60902,120.98533,0.9814389
C0U880,北關,2013-11-08,24.9072,121.8734,0.99951524
C1H860,瑞岩,2013-11-08,24.123772,121.18345,2.4888651e-08
C0G810,埔心,2013-11-08,23.947633,120.525456,0.00096468366
C0U970,大福,2013-11-08,24.80064,121.81389,0.99075156
C2H9N0,仁愛東眼,2013-11-08,24.026875,121.1205,2.0988349e-08
C1E670,南礦,2013-11-08,24.538278,121.002836,1.0615745e-08
C0M520,東後寮,2013-11-08,23.369908,120.248065,0.9299157
C1E461,松安,2013-11-08,24.397972,120.986022,1.627202e-08
72G600,臺中農改,2013-11-08,24.003028,120.534389,0.018605767
C2N160,西拉雅風管處,2013-11-08,23.189481,120.335297,0.97122484
C2M970,碧湖,2013-11-08,23.568632,120.624165,2.7725342e-08
C0A640,石碇,2013-11-08,24.993969,121.662917,0.99675304
E2S960,林試太麻里2,2013-11-08,22.598,120.99775,0.97128767
C0F9Y0,桃山,2013-11-08,24.432739,121.303808,2.2435884e-08
C1I020,萬大,2013-11-08,23.979817,121.132261,2.1432209e-08
C0U940,羅東,2013-11-08,24.68184,121.74934,0.649449
C0M650,朴子,2013-11-08,23.43463,120.23902,0.98246735
C1I500,大尖山,2013-11-08,23.858572,120.994889,2.7931764e-08
C0G820,田尾,2013-11-08,23.901669,120.509389,0.0004103192
E2K600,四湖植物園,2013-11-08,23.676986,120.163433,0.85512006
C0S730,綠島,2013-11-08,22.6672,121.47533,0.9883927
12Q970,東港工作站,2013-11-08,22.479997,120.466058,0.018382639
C0E430,南庄,2013-11-08,24.601775,121.000214,0.0007599675
C1TA00,太魯閣,2013-11-08,24.15773,121.6236,0.549429
466920,臺北,2013-11-08,25.037658,121.514853,0.9962306
C0R600,舊泰武,2013-11-08,22.588194,120.664944,0.04464234
C1I260,北坑,2013-11-08,23.9246,121.006903,1.739063e-08
466910,鞍部,2013-11-08,25.182586,121.529731,0.00016966843
C1I230,九份二山,2013-11-08,23.961944,120.845,9.031885e-09
C2A660,瑞芳,2013-11-08,25.113169,121.801147,0.992834
C0R270,琉球嶼,2013-11-08,22.332244,120.362236,0.33980167
C1T990,高寮,2013-11-08,23.394239,121.356808,0.90364134
C0G620,芬園,2013-11-08,24.015678,120.6213,0.00011792494
C1Z140,荖溪,2013-11-08,23.890575,121.45964,9.453985e-09
C1I201,中心崙,2013-11-08,23.728722,120.712097,1.39416025e-08
C1I400,凌霄,2013-11-08,24.018778,121.004456,2.2119078e-08
C1M640,十字,2013-11-08,23.492153,120.753683,1.5092766e-08
G2P820,農試鳳山分所,2013-11-08,22.646611,120.356083,0.003988861
C0Z270,蕃薯寮,2013-11-08,23.73835,121.540108,3.2856973e-05
C0F9Q0,外埔,2013-11-08,24.347817,120.705686,0.0022940037
C0K580,高鐵雲林,2013-11-08,23.737456,120.417944,1.4333034e-06
C2I090,鳳凰,2013-11-08,23.728081,120.787347,6.049142e-09
C0U990,員山,2013-11-08,24.74435,121.72247,0.649449
C0V770,大社,2013-11-08,22.730306,120.346639,0.88243943
C0X120,麻豆,2013-11-08,23.183289,120.248611,0.9927331
C0C670,龍潭,2013-11-08,24.870056,121.221389,0.018308762
C0D680,香山濕地,2013-11-08,24.783581,120.914988,0.9888834
C0S980,勝林山,2013-11-08,22.430439,120.8938,0.061535902
C0V730,大寮,2013-11-08,22.605614,120.395717,0.11798629
C0R570,麟洛,2013-11-08,22.65078,120.52719,6.6568723e-06
C2M930,石卓,2013-11-08,23.478744,120.702264,1.5316559e-08
C0G9B0,和美,2013-11-08,24.105169,120.492131,0.010907022
CAG100,王功漁港,2013-11-08,23.96824,120.32586,0.370481
C0X290,北門,2013-11-08,23.267772,120.125481,0.9936716
C2F930,大甲,2013-11-08,24.347667,120.640403,0.05793106
C0D650,湖口,2013-11-08,24.904794,121.043628,0.7243989
C0E420,竹南,2013-11-08,24.708978,120.888897,0.9886498
C0U780,五結,2013-11-08,24.68637,121.79794,0.58097357
C1I250,鯉潭,2013-11-08,23.961922,120.991131,1.488839e-08
C0R130,阿禮,2013-11-08,22.742908,120.743678,6.023803e-08
C0X100,臺南市北區,2013-11-08,23.010394,120.194228,0.98338073
C0S920,金峰嘉蘭,2013-11-08,22.594789,120.960825,0.99055046
C0V490,新興,2013-11-08,22.627422,120.298803,0.007415134
C0F9K0,大安,2013-11-08,24.345061,120.588025,0.46235114
72N100,臺南農改,2013-11-08,23.0605,120.342194,0.6322466
467290,古坑,2013-11-08,23.633639,120.551889,4.585982e-07
C2E970,八甲,2013-11-08,24.535811,120.795983,0.0052939546
C0V440,鳳山,2013-11-08,22.646653,120.356122,0.003988861
C1T940,大觀,2013-11-08,23.714206,121.373133,2.8894158e-07
72T250,花蓮農改,2013-11-08,23.975222,121.563889,3.379129e-05
C0E740,造橋,2013-11-08,24.637056,120.864778,0.24114883
C0R100,尾寮山,2013-11-08,22.833111,120.683889,6.6360364e-08
A2K630,臺大雲林校區,2013-11-08,23.730628,120.423903,1.4333034e-06
C0D580,寶山,2013-11-08,24.735006,121.025192,0.54907256
E2P990,林試扇平站,2013-11-08,22.9677,120.6857,0.0013433408
C0AI30,三重,2013-11-08,25.057328,121.500629,0.9973499
C0AH00,汐止,2013-11-08,25.066881,121.658778,0.7459943
C1Z040,立山,2013-11-08,23.443356,121.327375,2.0506925e-06
C0W130,花嶼,2013-11-08,23.40007,119.32276,0.6265375
C0A950,鼻頭角,2013-11-08,25.129036,121.923372,0.9822708
C0K470,林內,2013-11-08,23.748675,120.609642,1.2241821e-06
C2F990,摩天嶺,2013-11-08,24.322458,120.936819,2.7221361e-08
82C160,茶改場,2013-11-08,24.908472,121.185333,0.8626802
C0Z320,清水林道,2013-11-08,23.27125,121.188272,6.83853e-08
C0R760,南仁湖,2013-11-08,22.084681,120.863353,0.9463925
C0M670,大林,2013-11-08,23.600616,120.45841,0.004625582
C0M800,茶山,2013-11-08,23.299075,120.664767,9.639161e-07
C0A9C0,天母,2013-11-08,25.117494,121.537169,0.9972879
72K220,南改斗南分場,2013-11-08,23.634556,120.477333,5.773715e-06
72AI40,桃改樹林分場,2013-11-08,24.944503,121.386972,0.9972465
C0S910,蘭嶼燈塔,2013-11-08,22.081197,121.503117,0.8053902
C0B050,八斗子,2013-11-08,25.144754,121.79167,0.6704059
C0U900,內城,2013-11-08,24.71813,121.68766,0.9910135
C0X320,柳營,2013-11-08,23.253328,120.375253,0.13814102
C0M790,新港,2013-11-08,23.553269,120.345728,0.5366212
C0F9T0,西屯,2013-11-08,24.179494,120.641275,0.14567555
C0SA30,都歷,2013-11-08,23.020333,121.323642,0.96976435
C0C620,蘆竹,2013-11-08,25.084275,121.265767,0.9885876
C0R730,大坪頂,2013-11-08,22.024633,120.69355,0.9838061
C0AJ40,石門,2013-11-08,25.273672,121.601198,0.9865485
C0E750,苗栗,2013-11-08,24.564569,120.824575,0.030860627
C0T870,鯉魚潭,2013-11-08,23.935639,121.508944,1.0540145e-06
C1V170,排雲,2013-11-08,23.463619,120.954147,2.8318913e-08
C2H950,中寮,2013-11-08,23.884447,120.766406,5.452391e-08
C0R350,貓鼻頭,2013-11-08,21.921774,120.7358,0.98809046
C0V660,岡山,2013-11-08,22.797078,120.294958,0.73325413
C1H941,雙冬,2013-11-08,23.967378,120.802189,1.67533e-08
C0AJ70,田寮,2013-11-08,25.2698,121.4886,0.8113993
C0AI00,五股,2013-11-08,25.07445,121.42728,0.98576164
C0Z280,德武,2013-11-08,23.47426,121.41071,0.0723728
C0R700,枋山,2013-11-08,22.246844,120.661086,0.16222501
C0C460,復興,2013-11-08,24.820208,121.352281,6.882148e-06
E2H360,蓮華池,2013-11-08,23.918333,120.885278,1.3413059e-08
C0M640,中埔,2013-11-08,23.42538,120.5229,1.4263029e-06
C0W140,金沙,2013-11-08,24.488292,118.408778,0.8528782
C2A540,四堵,2013-11-08,24.8926,121.745736,0.9464232
C0ACA0,新莊,2013-11-08,25.051478,121.446756,0.9832157
C0R220,潮州,2013-11-08,22.534361,120.54,0.33269346
U2HA40,臺大內茅埔,2013-11-08,23.689722,120.851117,1.723513e-08
467490,臺中,2013-11-08,24.145736,120.684075,0.4721966
C0U960,翠峰湖,2013-11-08,24.510856,121.608044,2.4017865e-08
E2HA20,林試畢祿溪站,2013-11-08,24.226944,121.308522,1.508721e-08
C0V890,前鎮,2013-11-08,22.5718,120.3117,0.012010337
467620,蘭嶼,2013-11-08,22.036969,121.558339,0.46821743
C1F941,雪嶺,2013-11-08,24.280586,121.026642,1.6757516e-08
C2H9E0,國姓南港,2013-11-08,23.911108,120.846556,1.0149109e-08
C0AC80,文山,2013-11-08,25.00235,121.575728,0.99574095
C0F9R0,龍井,2013-11-08,24.184536,120.528972,0.8343756
C0M760,民雄,2013-11-08,23.551754,120.428457,0.008801311
C0UA40,西德山,2013-11-08,24.560647,121.752608,5.7254898e-08
C1T920,中興,2013-11-08,23.769503,121.498653,2.0784835e-05
C0D550,雪霸,2013-11-08,24.526972,121.11605,1.4545748e-08
C2F860,梨山,2013-11-08,24.247522,121.243669,1.4947005e-08
C0R320,車城,2013-11-08,22.0744,120.716247,0.98928726
C1S870,南美山,2013-11-08,23.15025,121.382333,0.99863976
C0B020,基隆嶼,2013-11-08,25.19141,121.78391,0.7459943
C1U501,牛鬥,2013-11-08,24.637836,121.573656,0.9793178
C0M730,嘉義市東區,2013-11-08,23.457673,120.460531,0.0013921122
C0S700,知本,2013-11-08,22.684866,121.005642,0.9881213
C1N001,沙崙,2013-11-08,22.935472,120.309406,0.9353979
C0V760,橋頭,2013-11-08,22.757806,120.30575,0.6693277
C0G960,福寶,2013-11-08,24.0443,120.3814,0.0049590045
C0X210,白河,2013-11-08,23.347466,120.414427,0.09909541
C0S810,東河,2013-11-08,22.972672,121.303986,0.9568447
C2R170,屏東,2013-11-08,22.66027,120.49403,8.727781e-06
C0R670,楓港,2013-11-08,22.190131,120.692156,0.16222504
C0FA50,霧峰,2013-11-08,24.0419,120.6995,0.60918844
C0UB10,蘇澳,2013-11-08,24.5969,121.8571,0.5944253
C0G950,防潮門,2013-11-08,24.1835,120.4871,0.8550154
C0M740,六腳,2013-11-08,23.492871,120.290625,0.8936065
C1R250,力里,2013-11-08,22.428117,120.629228,0.36054325
C0K330,虎尾,2013-11-08,23.719183,120.442036,1.2286957e-06
C2FA00,烏石坑,2013-11-08,24.273503,120.947617,2.8656826e-08
C0V620,永安,2013-11-08,22.82315,120.236856,0.9597251
C1I330,楓樹林,2013-11-08,23.986803,121.076117,8.4976755e-09
C0W200,湖西,2013-11-08,23.596314,119.67275,0.3058887
72Q010,高雄農改場,2013-11-08,22.709333,120.525889,2.7806825e-06
C0SA40,瑞和,2013-11-08,22.974361,121.156697,0.9978683
C0C680,龜山,2013-11-08,25.02846,121.38656,0.96697164
C2V260,月眉,2013-11-08,22.971003,120.539853,0.00014443453
C0V450,鳳森,2013-11-08,22.545064,120.392592,0.070675865
C0U720,南山,2013-11-08,24.43742,121.38167,1.0443893e-07
A2N290,臺南蘭花園區,2013-11-08,23.340258,120.379661,0.13814099
C0R560,新園,2013-11-08,22.5434,120.461558,0.016453685
C0U890,三星,2013-11-08,24.66812,121.65302,0.99110997
C1V300,御油山,2013-11-08,23.001983,120.715364,4.9165507e-08
C0U600,礁溪,2013-11-08,24.817539,121.765608,0.9909546
C1T980,龍澗,2013-11-08,24.023289,121.411328,1.159038e-08
C0D670,海天一線,2013-11-08,24.831986,120.914438,0.9892116
C0SA00,歷坵,2013-11-08,22.520969,120.89185,0.99133515
C0M710,東石,2013-11-08,23.458927,120.15385,0.9573113
C0M780,鹿草,2013-11-08,23.41134,120.30835,0.9470233
C0U520,雙連埤,2013-11-08,24.753033,121.641303,2.3248613e-05
C0B010,七堵,2013-11-08,25.094819,121.71713,0.8070566
C0R480,長治,2013-11-08,22.693128,120.542622,0.017764674
C1V830,國三S383K,2013-11-08,22.781967,120.426475,0.0021536057
12Q980,恆春工作站,2013-11-08,22.079678,120.714425,0.98928726
C1O940,東山服務區,2013-11-08,23.286016,120.398472,0.07692977
C1U840,東澳嶺,2013-11-08,24.5378,121.8485,2.2025192e-06
C1D630,飛鳳山,2013-11-08,24.766464,121.119178,6.0016573e-06
C0S940,石寧山,2013-11-08,23.223772,121.406639,0.045515727
C0K410,北港,2013-11-08,23.573957,120.292802,0.58571047
C2M620,瑞里,2013-11-08,23.545133,120.675197,2.0243402e-08
C0SB70,小港漁港,2013-11-08,23.158558,121.400431,0.997774
C2O950,安南,2013-11-08,23.076694,120.144861,0.8920346
C0F0E0,南湖圈谷,2013-11-08,24.363714,121.444667,2.9771684e-08
467610,成功,2013-11-08,23.097486,121.373428,0.8170366
C0G890,伸港,2013-11-08,24.148933,120.484403,0.96056587
C2E540,龍溪,2013-11-08,24.606489,120.783933,0.10424389
C1V200,梅山,2013-11-08,23.268447,120.823556,8.9159075e-06
C0T9H0,加路蘭山,2013-11-08,23.682947,121.5274,6.715656e-08
C2O930,玉井,2013-11-08,23.126042,120.46055,0.07066397
C1F911,新伯公,2013-11-08,24.221361,120.841069,8.2981394e-08
C0R490,九如,2013-11-08,22.7405,120.490503,6.6568723e-06
C0X200,左鎮,2013-11-08,23.056758,120.408522,0.011538685
C0SB50,叭嗡嗡,2013-11-08,23.047062,121.343223,0.98945624
C1F891,稍來,2013-11-08,24.265689,121.001142,1.5593647e-08
72N240,七股研究中心,2013-11-08,23.081672,120.062894,0.9935519
C0C700,中壢,2013-11-08,24.977661,121.256375,0.9776801
C0M690,水上,2013-11-08,23.419734,120.388909,0.24981761
C0V690,鼓山,2013-11-08,22.623325,120.275575,0.007415134
C0O860,大內,2013-11-08,23.11885,120.36083,0.00083527126
C0Z200,萬榮,2013-11-08,23.709219,121.420106,1.0540145e-06
C0T9D0,和中,2013-11-08,24.26676,121.74103,0.76769376
C1O921,楠西,2013-11-08,23.183511,120.484083,0.03090359
C0AJ30,淡水觀海,2013-11-08,25.184591,121.408616,0.98371905
C0V810,左營,2013-11-08,22.67491,120.28491,0.91732126
C0UA70,桃源谷,2013-11-08,24.962606,121.888875,0.14453855
C0X130,官田,2013-11-08,23.193217,120.315422,0.97850865
C1H000,翠峰,2013-11-08,24.109397,121.205211,1.7370175e-08
C0UA90,石城,2013-11-08,24.980444,121.951214,0.9797071
C1E681,南勢山,2013-11-08,24.421669,120.923831,3.029346e-08
C0A9F0,內湖,2013-11-08,25.079422,121.57545,0.9962306
C0K291,宜梧,2013-11-08,23.536281,120.169329,0.97099155
C1K540,口湖,2013-11-08,23.585344,120.180517,0.79356134
C0R780,滿州,2013-11-08,22.024403,120.839892,0.98776186
C0V870,文安,2013-11-08,22.8025,120.2164,0.97218937
C0U650,玉蘭,2013-11-08,24.675286,121.587061,5.089044e-06
C0R640,東港,2013-11-08,22.46247,120.44074,0.012010337
K2E360,苗栗農改,2013-11-08,24.495722,120.829111,0.033907194
C0AJ80,板橋,2013-11-08,25.0107,121.4489,0.99729514
C0S660,下馬,2013-11-08,23.150427,121.070312,8.559882e-09
C1H9B1,阿眉,2013-11-08,24.1263,120.994672,1.3903417e-08
C0UA20,多加屯,2013-11-08,24.368614,121.373189,1.7738195e-08
C0E730,頭份,2013-11-08,24.688247,120.912206,0.9887613
72V140,高改旗南分場,2013-11-08,22.857861,120.516667,0.01322642
C0K480,莿桐,2013-11-08,23.761192,120.502372,1.2456251e-06
C0U980,坪林石牌,2013-11-08,24.86478,121.77396,5.1339657e-07
C0T900,西林,2013-11-08,23.8119,121.441458,4.8265537e-07
C1I150,青雲,2013-11-08,23.793361,120.949378,1.2269044e-08
467350,澎湖,2013-11-08,23.565503,119.563094,0.5094379
C0G800,埔鹽,2013-11-08,24.000394,120.431683,0.0019665651
C0H960,草屯,2013-11-08,23.973672,120.68085,2.5704558e-06
C1V780,多納林道,2013-11-08,22.888028,120.737917,9.697936e-08
C0E920,通霄漁港,2013-11-08,24.498589,120.673876,0.84268916
C0Z330,安通山,2013-11-08,23.290728,121.348528,2.514947e-07
C0AH10,永和,2013-11-08,25.01125,121.508111,0.99630255
C0AK10,太平里,2013-11-08,25.134937,121.364899,0.9832157
C2G640,鹿港,2013-11-08,24.0753,120.430481,0.0019617397
C1E890,國三N149K,2013-11-08,24.463414,120.680019,0.49321505
C1R110,口社,2013-11-08,22.770111,120.645222,0.013300175
C1M870,國三N285K,2013-11-08,23.550319,120.505833,5.43375e-07
467050,新屋,2013-11-08,25.006744,121.047486,0.32972965
C1E480,鳳美,2013-11-08,24.554803,121.034747,2.4899286e-08
C0M530,奮起湖,2013-11-08,23.493903,120.699253,1.670585e-08
C0C590,觀音,2013-11-08,25.027072,121.153317,0.9913933
C0T9M0,靜浦,2013-11-08,23.455167,121.495028,0.96072
C2H9M0,發祥,2013-11-08,24.154094,121.164517,1.271411e-08
C0AI40,石牌,2013-11-08,25.115597,121.513139,0.99729514
C1F871,上谷關,2013-11-08,24.203483,121.018644,2.8656826e-08
C2H9G0,百勝,2013-11-08,24.051142,120.909361,3.719059e-08
C0G880,二水,2013-11-08,23.810742,120.6173,5.7870164e-07
C0R940,加祿堂,2013-11-08,22.3363,120.6217,0.3000936
C0W220,北竿,2013-11-08,26.220358,119.974881,2.8090365e-06
C0O960,崎頂,2013-11-08,22.959547,120.369317,0.0009876711
C0S750,向陽,2013-11-08,23.248397,120.986133,2.5548212e-08
C0T9F0,水璉,2013-11-08,23.797131,121.542514,1.1497939e-07
C1M600,頭凍,2013-11-08,23.406364,120.603339,1.9677994e-08
467660,臺東,2013-11-08,22.752211,121.154586,0.9835919
C1D380,新埔,2013-11-08,24.84745,121.03834,0.9786727
C2G980,田頭村,2013-11-08,23.8263,120.444175,2.422198e-06
C0V750,路竹,2013-11-08,22.854997,120.259439,0.5643881
C0N050,蚵寮,2013-11-08,23.301,120.1104,0.99690586
72M700,南改鹿草分場,2013-11-08,23.416869,120.283061,0.9601238
C1SA50,利嘉林道,2013-11-08,22.82325,121.009389,9.664403e-08
467550,玉山,2013-11-08,23.487614,120.959522,3.1177375e-08
C0A940,金山,2013-11-08,25.223628,121.643967,0.8941443
C1V340,大津,2013-11-08,22.888322,120.645986,0.0005658188
C0W180,七美,2013-11-08,23.219333,119.444892,0.28860933
C1F9C1,白冷,2013-11-08,24.182844,120.929889,8.9638576e-08
K2E710,苗改生物防治研究中心,2013-11-08,24.422861,120.871833,0.00012678187
C0N040,蘆竹溝,2013-11-08,23.2344,120.0961,0.99690586
C2W230,畜試所澎湖,2013-11-08,23.628342,119.513206,0.6906573
C0R880,後壁湖,2013-11-08,21.9457,120.7457,0.9895507
C1I280,埔中,2013-11-08,23.820778,120.642594,8.2577046e-08
467790,墾丁雷達站,2013-11-08,21.948235,120.808028,0.98744446
C0W190,望安,2013-11-08,23.380564,119.494075,0.41551387
466881,新北,2013-11-08,24.9593,121.52,0.9960288
C0Z170,卓溪,2013-11-08,23.3443,121.3029,0.51610124
C0F850,東勢,2013-11-08,24.246428,120.833047,1.4068748e-07
466900,淡水,2013-11-08,25.164889,121.448906,0.9856582
C0I370,魚池,2013-11-08,23.895703,120.94135,1.4372693e-08
C0C630,大溪,2013-11-08,24.882853,121.265547,0.8353355
C0A520,山佳,2013-11-08,24.974944,121.402008,0.9972465
C0I110,竹山,2013-11-08,23.761225,120.688156,1.18889496e-07
82H840,茶改南部分場,2013-11-08,23.762528,120.7405,1.8332429e-08
C0G660,溪湖,2013-11-08,23.94835,120.479122,0.0012236219
C1T800,洛韶,2013-11-08,24.204558,121.453956,2.0317247e-08
C1T810,慈恩,2013-11-08,24.192044,121.388386,1.9311159e-08
C1E451,象鼻,2013-11-08,24.368617,120.940228,3.029346e-08
C0AC60,三峽,2013-11-08,24.939025,121.369728,0.9959216
C0I490,萬大林道,2013-11-08,23.928228,121.091411,2.7088612e-08
C1I290,豐丘,2013-11-08,23.668178,120.887417,1.3438667e-08
C1I320,奧萬大,2013-11-08,23.952956,121.178556,8.391213e-09
C2M910,嘉義大學,2013-11-08,23.471325,120.485903,1.0877859e-06
C0U770,南澳,2013-11-08,24.44935,121.81022,0.9010559
C0A980,社子,2013-11-08,25.109508,121.469681,0.9973574
C0V800,六龜,2013-11-08,22.997889,120.633583,7.235314e-05
C1G9D0,國一S218K,2013-11-08,23.890641,120.493253,0.0009646832
C0E570,白沙屯,2013-11-08,24.549447,120.696803,0.84268916
C2F9A0,中竹林,2013-11-08,24.103556,120.751061,1.4765204e-08
C0FA40,臺中電廠,2013-11-08,24.2146,120.4907,0.8343756
C2G9A0,畜試所彰化,2013-11-08,23.86045,120.557964,2.7870278e-06
C0H9C0,合歡山,2013-11-08,24.143442,121.272547,2.3890758e-08
C0X060,下營,2013-11-08,23.22695,120.256261,0.9857152
G2M350,農試溪口農場,2013-11-08,23.58565,120.408111,0.017031781
C0U860,頭城,2013-11-08,24.85323,121.8308,0.9908893
C0R580,南州,2013-11-08,22.48591,120.50274,0.018382639
C0D430,峨眉,2013-11-08,24.6905,121.017189,0.9883024
C0G780,秀水,2013-11-08,24.03405,120.503869,0.04019729
72N100,臺南農改場,2013-11-08,23.0605,120.342194,0.6322466
C0S900,蘭嶼高中,2013-11-08,22.04909,121.51214,0.892225
467540,大武,2013-11-08,22.355675,120.903789,0.123993196
C1F9W0,德基,2013-11-08,24.254783,121.190261,1.5526396e-08
C1Z120,壽豐,2013-11-08,23.870853,121.508081,0.00019674425
C0W160,烏坵,2013-11-08,24.9944,119.44956,0.32016617
C1I240,外大坪,2013-11-08,23.958697,120.917931,1.3716979e-08
C1I550,國六W023K,2013-11-08,23.979067,120.867742,1.7768333e-08
C0R870,興海,2013-11-08,21.9752,120.8439,0.9887012
C0R140,瑪家,2013-11-08,22.682903,120.686639,0.0025158403
C0A530,坪林,2013-11-08,24.938183,121.70975,0.9241302
C0X260,後壁,2013-11-08,23.366358,120.362326,0.005696044
C0Z230,和平,2013-11-08,24.30717,121.77007,0.7676939
C0G770,福興,2013-11-08,24.041289,120.437669,0.0019665651
C0H9A0,神木村,2013-11-08,23.532742,120.843667,2.1072264e-08
C0I460,南投,2013-11-08,23.911469,120.687331,5.7837167e-07
C0I480,梅峰,2013-11-08,24.085272,121.173572,1.5057715e-08
C1V570,吉東,2013-11-08,22.85422,120.5454,0.011376243
C2D740,屯原,2013-11-08,24.067969,121.209389,1.3630418e-08
C2A560,福山,2013-11-08,24.776203,121.502811,7.354355e-06
C0AH30,五分山,2013-11-08,25.07125,121.780794,8.592463e-06
C0FA10,松柏,2013-11-08,24.429115,120.617482,0.56876725
72S200,東改班鳩分場,2013-11-08,22.829528,121.077694,0.9947317
72HA00,中改埔里分場,2013-11-08,23.903208,120.963364,1.5962588e-08
C2H9W0,大坪頂農水,2013-11-08,24.043122,120.932781,1.4456935e-08
C0C650,平鎮,2013-11-08,24.897503,121.214636,0.8626802
C0S930,延平,2013-11-08,22.902581,121.084058,0.91535
C0UA60,樟樹山,2013-11-08,24.41393,121.78325,6.3006877e-07
C1S670,摩天,2013-11-08,23.199503,121.027,3.307011e-08
C0V630,茄萣,2013-11-08,22.906642,120.182608,0.9945115
466940,基隆,2013-11-08,25.133314,121.740475,0.71115714
C0X050,東河,2013-11-08,23.296598,120.385608,0.13814102
C0R770,保力,2013-11-08,22.071122,120.764111,0.9864545
G2L020,農試嘉義分所,2013-11-08,23.485028,120.473806,7.1633485e-07
C0X240,關子嶺,2013-11-08,23.331169,120.508025,1.1834617e-07
C0I380,集集,2013-11-08,23.828206,120.801467,1.9654274e-07
466990,花蓮,2013-11-08,23.975128,121.613275,0.00011627261
C1V220,小關山,2013-11-08,23.154217,120.813603,3.17057e-08
C1F9G1,慶福山,2013-11-08,24.180853,120.848378,4.4374065e-08
C0Z250,瑞穗林道,2013-11-08,23.49284,121.30688,1.301162e-08
C0D590,新豐,2013-11-08,24.87068,120.97721,0.48912546
C0A870,五指山,2013-11-08,25.132153,121.608692,0.00019917497
C0UA50,西帽山,2013-11-08,24.555361,121.802628,2.6144928e-06
C0X160,仁德,2013-11-08,22.968258,120.257689,0.8671991
C1H971,六分寮,2013-11-08,23.92507,120.6378,1.1301651e-08
C0W120,西嶼,2013-11-08,23.5626,119.468436,0.5094379
C0G650,員林,2013-11-08,23.946503,120.585597,0.00010970289
C0AD50,鶯歌,2013-11-08,24.951533,121.346294,0.9964027
C2H9Q0,北東眼山,2013-11-08,24.120939,121.189303,1.3681783e-08
C2H9T0,名間竹圍,2013-11-08,23.859914,120.637572,7.863387e-08
C0S990,山豬窟,2013-11-08,22.318619,120.857372,0.2254284
72Q010,高雄農改,2013-11-08,22.709333,120.525889,2.7806825e-06
C0X190,安平,2013-11-08,22.993161,120.152181,0.98338073
C0K400,斗六,2013-11-08,23.720583,120.541127,7.127756e-07
12J990,口湖工作站,2013-11-08,23.589978,120.180394,0.7880683
C0O830,北寮,2013-11-08,23.079561,120.495008,0.0002783925
C1D410,白蘭,2013-11-08,24.579364,121.079947,6.783342e-09
C0S970,加津林,2013-11-08,22.416211,120.926942,0.12343753
C0D700,關西,2013-11-08,24.7977,121.1732,0.92102504
C0M810,里佳,2013-11-08,23.389125,120.716647,1.6560358e-08
C0U750,龜山島,2013-11-08,24.841667,121.953133,0.9970163
C0R810,內獅,2013-11-08,22.305064,120.642986,0.3000936
C1M390,龍美,2013-11-08,23.406728,120.654417,3.3462353e-08
C2FB60,頭櫃山,2013-11-08,24.129842,120.858925,2.7290659e-08
C1H840,國三N238K,2013-11-08,23.841008,120.707711,1.8425665e-07
CAQ030,崎峰國小,2013-11-08,22.42565,120.49521,0.018382639
C2E520,大湖,2013-11-08,24.414939,120.870872,0.06354432
467530,阿里山,2013-11-08,23.508208,120.813242,1.6565224e-08
C1E691,南湖,2013-11-08,24.40135,120.837533,6.1814795e-08
C0FA30,梧棲,2013-11-08,24.256003,120.523381,0.8343756
C1V231,高中,2013-11-08,23.134911,120.716711,1.656332e-07
C0F9V0,新社,2013-11-08,24.200172,120.815806,2.2672875e-08
C0H890,埔里,2013-11-08,23.972169,120.952425,9.3221075e-07
C0R690,墾丁,2013-11-08,21.966756,120.810269,0.9766336
C0F0D0,審馬陣,2013-11-08,24.381675,121.4203,2.4339853e-08
C0R820,白鷺,2013-11-08,22.454275,120.666219,0.95209724
U2H480,臺大溪頭,2013-11-08,23.670306,120.798194,1.8332324e-08
C1V190,南天池,2013-11-08,23.27403,120.91176,2.3732525e-08
K2E360,苗栗農改場,2013-11-08,24.495722,120.829111,0.033907194
CAJ050,海口故事園區,2013-11-08,23.57543,120.14121,0.79356134
C2H9D0,三隻寮,2013-11-08,24.093078,120.861578,1.33504745e-08
C0O990,媽廟,2013-11-08,22.99175,120.293525,0.82242364
C0D480,打鐵坑,2013-11-08,24.849664,121.150789,0.005597349
C0Z220,和平林道,2013-11-08,24.343922,121.656317,5.65488e-07
C0TA10,花蓮漁港,2013-11-08,23.995322,121.638331,0.000158348
72C440,桃園農改場,2013-11-08,24.950944,121.030583,0.46777254
C1E711,馬拉邦山,2013-11-08,24.367306,120.901656,3.384976e-08
C0SB20,富岡,2013-11-08,22.792467,121.192669,0.98491114
C0D560,竹東,2013-11-08,24.767147,121.057881,0.9646136
C0F9U0,南屯,2013-11-08,24.137006,120.637969,0.9020967
C0M720,番路,2013-11-08,23.464657,120.554156,2.405003e-07
C0F0A0,雪山圈谷,2013-11-08,24.388594,121.236339,2.738535e-08
C1A9N0,四十份,2013-11-08,24.934158,121.593283,0.004394322
C0U760,東澳,2013-11-08,24.52196,121.83318,0.9541745
C0X230,鹽水,2013-11-08,23.272621,120.247641,0.98467267
C2H9H0,苗改南投蜂場,2013-11-08,23.852589,120.693481,1.1892057e-07
C0R950,萬隆國小,2013-11-08,22.507667,120.587817,0.038379323
C0V370,古亭坑,2013-11-08,22.893178,120.401947,0.04415835
C1I340,新興橋,2013-11-08,23.563333,120.868728,8.205481e-09
C0SA80,土坂,2013-11-08,22.453108,120.887572,0.99622816
C0R160,鹽埔,2013-11-08,22.739558,120.530778,0.018797247
C0AC40,大屯山,2013-11-08,25.175675,121.522408,6.385244e-06
466850,五分山雷達站,2013-11-08,25.071182,121.781205,7.880292e-06
C2H9L0,馬烈霸,2013-11-08,24.1512,121.201772,1.36777905e-08
C1AI50,國三N016K,2013-11-08,25.034164,121.619664,0.9958454
C1V600,藤枝,2013-11-08,23.071961,120.757042,6.8416085e-08
C1E601,南勢,2013-11-08,24.572486,120.734842,0.04755676
C0Z180,新城,2013-11-08,24.03946,121.60454,5.663916e-05
C0O980,新市,2013-11-08,23.061614,120.298197,0.85461754
C0K420,西螺,2013-11-08,23.800407,120.467394,1.6415468e-06
C0Z050,佳心,2013-11-08,23.34567,121.21316,7.590219e-09
C0AD30,蘆洲,2013-11-08,25.086594,121.472331,0.9973499
C0V610,梓官,2013-11-08,22.760558,120.267211,0.73325413
K2F750,種苗改良場,2013-11-08,24.225972,120.800917,4.1530665e-08
C0UA80,大溪漁港,2013-11-08,24.941801,121.902955,0.9909546
C1AI60,國一39K邊坡,2013-11-08,25.064361,121.383836,0.99515533
C0W150,金寧,2013-11-08,24.457703,118.328989,0.86343217
C0R960,內埔,2013-11-08,22.608483,120.570714,0.04324837
V2C250,八德合作社,2013-11-08,24.93775,121.266389,0.9256575
C2H9S0,龍南,2013-11-08,23.953536,120.833183,1.8671091e-08
C0AH40,平等,2013-11-08,25.129142,121.577086,0.94771576
C0R540,佳冬,2013-11-08,22.419456,120.552375,0.018382639
466950,彭佳嶼,2013-11-08,25.627975,122.079744,0.98925877
C0A890,雙溪,2013-11-08,25.036003,121.864242,0.8519479
C0C480,桃園,2013-11-08,24.992425,121.323172,0.9760498
C0AH50,林口,2013-11-08,25.072181,121.38084,0.9929485
A2K360,水試臺西試驗場,2013-11-08,23.717231,120.190522,0.8920265
B2N890,畜試所,2013-11-08,23.058972,120.336406,0.6322466
C2M960,外寮,2013-11-08,23.562643,120.665688,2.394477e-08
C0F9S0,烏日,2013-11-08,24.107058,120.624103,0.06431927
C0C490,八德,2013-11-08,24.928708,121.283289,0.89402455
C0R190,赤山,2013-11-08,22.592333,120.614306,0.039739277
C0T820,天祥,2013-11-08,24.179597,121.495639,4.400377e-07
C1F9E1,龍安,2013-11-08,24.1605,120.831961,1.7859323e-08
C0V820,小林,2013-11-08,23.148408,120.63325,2.2617249e-07
C2G870,芳苑,2013-11-08,23.922303,120.320025,0.20542264
C0E850,大河,2013-11-08,24.618069,120.948578,0.0042000036
C1U670,寒溪,2013-11-08,24.634,121.71691,0.976119
C0N020,城西,2013-11-08,23.0568,120.0956,0.9926823
C1Z110,三棧,2013-11-08,24.11557,121.60501,2.724905e-08
C0R280,檳榔,2013-11-08,22.076078,120.836777,0.97792596
C2H9J0,中台,2013-11-08,23.9996,120.938739,1.0297185e-07
C0F9L0,后里,2013-11-08,24.310436,120.729725,2.427666e-05
C0D540,橫山,2013-11-08,24.71116,121.11693,0.15692015
C1D420,太閣南,2013-11-08,24.632808,121.160575,1.0994292e-08
C1E770,公館,2013-11-08,24.526914,120.830806,0.36977047
CAN130,水試所海水繁養殖中心,2013-11-08,23.120802,120.07968,0.99355423
C1I430,翠華,2013-11-08,24.191961,121.224339,1.847921e-08
C1M400,菜瓜坪,2013-11-08,23.251928,120.576103,1.1002757e-06
C0G730,二林,2013-11-08,23.903325,120.376081,0.0003306271
72M360,南改義竹分場,2013-11-08,23.360694,120.279361,0.82656765
V2K620,麥寮合作社,2013-11-08,23.753836,120.294783,0.1812567
C0Z070,舞鶴,2013-11-08,23.46811,121.37407,0.005014879
C0B040,大武崙,2013-11-08,25.166676,121.706993,0.80698824
C1Z030,紅葉,2013-11-08,23.493119,121.338806,0.04794894
C1I050,丹大,2013-11-08,23.753747,121.141147,2.5820738e-08
C0I080,信義,2013-11-08,23.689694,120.851036,1.723513e-08
C2M920,朴子農改,2013-11-08,23.469889,120.259383,0.8936065
C2A880,福隆,2013-11-08,25.017842,121.942083,0.9837548
C0Z160,鳳林,2013-11-08,23.746114,121.453411,0.010046468
C0V210,復興,2013-11-08,23.222403,120.806089,0.0006200676
C0H990,昆陽,2013-11-08,24.121322,121.273642,2.3335014e-08
C0R741,獅子,2013-11-08,22.202308,120.705236,0.24222018
C0S710,鹿野,2013-11-08,22.917711,121.122994,1.3799924e-07
C0I530,小奇萊,2013-11-08,24.131764,121.295717,2.1782592e-08
C2K630,荷苞,2013-11-08,23.657717,120.595144,1.1534066e-06
C0Z080,富源,2013-11-08,23.587642,121.378225,0.00038558655
467441,高雄,2013-11-08,22.7304,120.3125,0.91732126
C0SB10,美和,2013-11-08,22.682078,121.060236,0.58598894
C2K620,馬光農場,2013-11-08,23.721453,120.378864,1.9441638e-06
C1I140,卡奈托灣,2013-11-08,23.754364,121.087872,3.0257368e-08
C0I520,玉山風口,2013-11-08,23.470489,120.955994,3.1961807e-08
C1G691,下水埔,2013-11-08,23.816114,120.5676,1.4716965e-06
C0X110,臺南市南區,2013-11-08,22.961189,120.188378,0.9758603
C0V680,仁武,2013-11-08,22.701083,120.347722,0.88243943
C2G840,北斗,2013-11-08,23.877586,120.514222,0.0004103192
C0R900,竹坑,2013-11-08,22.1385,120.7022,0.1743008
C0K250,崙背,2013-11-08,23.75555,120.318925,0.15447849
C0G860,社頭,2013-11-08,23.897647,120.5862,7.842974e-05
C0X150,安定,2013-11-08,23.102614,120.227839,0.966135
C0R590,里港,2013-11-08,22.77919,120.49459,0.016579146
C0E610,馬都安,2013-11-08,24.451272,120.930192,3.21516e-07
C0E550,明德,2013-11-08,24.583486,120.885411,0.00787898
C0R150,三地門,2013-11-08,22.709889,120.639944,0.014898852
C0G910,花壇,2013-11-08,24.032076,120.549461,0.022828223
C1D400,鳥嘴山,2013-11-08,24.71909,121.28387,5.022863e-08
C0K500,元長,2013-11-08,23.64981,120.315024,0.9170218
C0F0B0,石岡,2013-11-08,24.276061,120.777644,8.3048846e-08
C2V250,甲仙,2013-11-08,23.080106,120.591758,1.2660973e-07
C0SA20,金崙山,2013-11-08,22.567419,120.959667,0.0026080506
C0V350,溪埔,2013-11-08,22.738578,120.446797,0.0009811159
C0M660,溪口,2013-11-08,23.604131,120.403569,0.017031789
C1S880,壽卡,2013-11-08,22.238911,120.858903,0.79764897
72D680,桃改新埔分場,2013-11-08,24.834444,121.066111,0.9694105
