站號,站名,日期,lat,lon,BLBTSLS
C0R710,龍磐,2013-08-09,21.931672,120.838942,0.95487773
C1F9D1,白毛台,2013-08-09,24.158325,120.886933,0.017950786
C0G940,竹塘,2013-08-09,23.848253,120.386764,0.4336383
467590,恆春,2013-08-09,22.003897,120.746339,0.9676272
C1O850,環湖,2013-08-09,23.148617,120.418633,0.9987222
C0U710,太平山,2013-08-09,24.505486,121.525656,4.115938e-09
C0E820,獅潭,2013-08-09,24.539133,120.920042,0.75339055
C0V880,興達,2013-08-09,22.8778,120.2127,0.98550856
C0S890,關山,2013-08-09,23.0395,121.175017,0.034304008
C0SB30,新蘭,2013-08-09,22.869214,121.223228,0.18076481
C2R970,屏科大,2013-08-09,22.648275,120.619247,0.99564993
K2F750,種苗繁殖,2013-08-09,24.225972,120.800917,0.09210283
C1Z130,銅門,2013-08-09,23.965694,121.492842,0.7260888
C0AD40,土城,2013-08-09,24.973208,121.445169,0.02949201
CAN140,六官養殖協會,2013-08-09,23.22881,120.29962,0.99358565
C0X180,山上,2013-08-09,23.0757,120.363253,0.9996388
C0F9Z0,雪山東峰,2013-08-09,24.388792,121.268675,1.111265e-08
C1M480,獨立山,2013-08-09,23.537022,120.607797,7.417849e-06
C0X220,學甲,2013-08-09,23.230367,120.182187,0.8711364
467650,日月潭,2013-08-09,23.881325,120.90805,6.6685556e-07
C0K600,箔子寮,2013-08-09,23.6197,120.14,0.80275714
C0G830,埤頭,2013-08-09,23.866003,120.452806,0.08100793
C0S950,七塊厝,2013-08-09,22.954453,121.229922,0.2336593
467110,金門,2013-08-09,24.407306,118.289281,0.0024679338
C0AH80,深坑,2013-08-09,25.002703,121.628328,0.13844362
467990,馬祖,2013-08-09,26.169269,119.923419,0.027907193
C0A970,三貂角,2013-08-09,25.007606,122.002058,0.022216046
C2D730,寶山農場,2013-08-09,24.732444,120.976153,0.57367504
C0K430,褒忠,2013-08-09,23.690938,120.303634,0.9712487
467480,嘉義,2013-08-09,23.495925,120.432906,0.9981353
C2E540,後龍,2013-08-09,24.606489,120.783933,0.0052820104
C0V400,阿公店,2013-08-09,22.804194,120.355528,0.99902457
C0R440,大漢山,2013-08-09,22.405264,120.753181,1.2559396e-08
C0K280,四湖,2013-08-09,23.630414,120.227125,0.76809126
C1F9B1,桐林,2013-08-09,24.066172,120.735194,0.35604674
C2H9U0,鳳鵬,2013-08-09,23.763919,120.788061,0.014375856
C0K390,土庫,2013-08-09,23.679029,120.395574,0.6674878
C1I450,望鄉山,2013-08-09,23.594153,120.944286,6.2777192e-09
C0E910,海埔,2013-08-09,24.648767,120.772435,0.040370528
B2E890,畜試北區分所,2013-08-09,24.527806,120.770972,0.0033642743
C0R750,四林格山,2013-08-09,22.076989,120.802439,0.9965448
C0F0C0,中坑,2013-08-09,24.248517,120.903319,5.884436e-07
C1I121,大鞍,2013-08-09,23.678381,120.760017,2.8949255e-08
72U480,花改蘭陽分場,2013-08-09,24.686306,121.716583,0.4439227
C0A770,科教館,2013-08-09,25.096356,121.516507,0.03452354
C0AJ60,六塊厝,2013-08-09,25.24,121.4481,0.008912794
C0R620,墾雷,2013-08-09,21.900836,120.855269,0.9668838
467420,永康,2013-08-09,23.038386,120.2367,0.9918075
467300,東吉島,2013-08-09,23.25695,119.667467,0.22831379
C0I410,名間,2013-08-09,23.837053,120.701447,0.60546064
A2C560,農工中心,2013-08-09,24.985917,121.239833,0.22715989
C0V740,旗山,2013-08-09,22.888614,120.483597,0.99979
C0Z061,玉里,2013-08-09,23.3215,121.339656,0.041832335
C0S840,南田,2013-08-09,22.279725,120.889208,0.062406868
C1I470,杉林溪,2013-08-09,23.639517,120.786444,1.0345335e-08
C1X040,東原,2013-08-09,23.291597,120.463822,0.8880632
C0R660,枋寮,2013-08-09,22.367722,120.590647,0.14389619
C1R120,上德文,2013-08-09,22.763272,120.704442,0.92408013
C0K450,大埤,2013-08-09,23.646074,120.431537,0.6473966
C0UA00,土場,2013-08-09,24.576533,121.495333,0.9786593
467080,宜蘭,2013-08-09,24.763975,121.756528,0.9525081
C0N030,四草,2013-08-09,23.0235,120.1116,0.97701615
C0V650,彌陀,2013-08-09,22.783806,120.246361,0.9877371
C0D660,新竹市東區,2013-08-09,24.798681,120.986942,0.11208615
82S580,茶改東部分場,2013-08-09,22.907694,121.130139,0.8117152
C0SB40,興隆,2013-08-09,22.913661,121.257469,0.4171545
C0C710,大溪永福,2013-08-09,24.892936,121.324975,0.3164543
C0FA20,溫寮,2013-08-09,24.372177,120.583125,0.013164737
C0V640,湖內,2013-08-09,22.887139,120.2445,0.9871314
C0R910,下寮,2013-08-09,22.3929,120.5548,0.39218894
C0Z020,明里,2013-08-09,23.208717,121.262342,0.45540527
C0M770,嘉義梅山,2013-08-09,23.585398,120.555587,0.44353092
G2F820,農業試驗所,2013-08-09,24.031261,120.688133,0.45667812
C0C660,楊梅,2013-08-09,24.912375,121.143047,0.3884862
C1E511,新開,2013-08-09,24.347703,120.827019,0.84802836
G2F820,農試所(霧峰),2013-08-09,24.031261,120.688133,0.45667812
C1I070,和社,2013-08-09,23.591131,120.888861,1.556115e-06
C2F000,大肚,2013-08-09,24.15295,120.572117,0.494503
C1S850,豐南,2013-08-09,23.122139,121.262389,0.022113238
C2A920,富貴角,2013-08-09,25.263783,121.565258,0.0068825684
CAH030,茶改場竹圍站,2013-08-09,23.860083,120.637528,0.34748238
C0T960,光復,2013-08-09,23.660694,121.424964,0.16242896
C0F9M0,豐原,2013-08-09,24.254322,120.720692,0.3079748
C0R720,旭海,2013-08-09,22.205403,120.887614,0.030679302
C0V710,苓雅,2013-08-09,22.622742,120.330669,0.5558461
C0C740,觀音工業區,2013-08-09,25.064764,121.114856,0.071457155
CAC040,拉拉山,2013-08-09,24.699317,121.427133,1.2947723e-08
C0V790,萬山,2013-08-09,22.905944,120.688056,0.97203225
U2HA30,臺大和社,2013-08-09,23.590856,120.888864,1.556115e-06
C0AJ90,澳底,2013-08-09,25.0552,121.9253,0.01700509
C0Z100,東華,2013-08-09,23.89525,121.549833,0.97804636
C0G970,三豐,2013-08-09,23.882,120.2895,0.6597849
V2K610,大庄合作社,2013-08-09,23.8068,120.367939,0.9754266
C0V900,汕尾,2013-08-09,22.4782,120.4151,0.9519418
C1R630,龍泉,2013-08-09,22.66701,120.59091,0.99315757
C1AC50,關渡,2013-08-09,25.133486,121.469331,0.045133002
C0F9I0,神岡,2013-08-09,24.272481,120.658314,0.4187616
C0K460,斗南,2013-08-09,23.678734,120.478359,0.3522937
467410,臺南,2013-08-09,22.993239,120.204772,0.99226797
C2O810,曾文,2013-08-09,23.219681,120.497328,0.99899656
467280,後龍,2013-08-09,24.648563,120.831834,0.031672847
C1F9J1,清水林,2013-08-09,24.071242,120.820419,0.00058796955
C2A650,火燒寮,2013-08-09,25.002719,121.742892,0.510076
466930,竹子湖,2013-08-09,25.162078,121.544547,0.81544626
C1I220,樟湖,2013-08-09,23.905333,120.846983,7.832252e-08
C0I390,仁愛,2013-08-09,24.022122,121.132206,4.3047024e-07
C0Z300,東里,2013-08-09,23.26853,121.30547,0.0555089
C1V590,新發,2013-08-09,23.057019,120.646064,0.99383074
C0K510,水林,2013-08-09,23.572924,120.24597,0.8086228
72S590,東改賓朗果園,2013-08-09,22.813889,121.071278,0.66718787
82A750,茶改北部分場,2013-08-09,24.955778,121.631222,0.99736476
C1A750,石碇服務區,2013-08-09,25.00872,121.646242,0.12401143
C0X300,鹿寮,2013-08-09,23.386047,120.477331,0.7331696
G2AI50,關渡,2013-08-09,25.11575,121.492,0.03341692
C0K590,雲林東勢,2013-08-09,23.674192,120.255721,0.9712487
C0A570,桶後,2013-08-09,24.848222,121.597992,0.9781478
C1S800,華源,2013-08-09,22.657883,121.02325,0.19267099
C0G720,溪州,2013-08-09,23.851589,120.499093,0.087548815
C1V160,達卡努瓦,2013-08-09,23.279811,120.705319,0.00036382602
C2M410,馬頭山,2013-08-09,23.324361,120.582017,0.9474424
C0V850,蚵仔寮,2013-08-09,22.7256,120.2527,0.5048886
C0S740,池上,2013-08-09,23.119628,121.209469,0.91682714
C1V390,尖山,2013-08-09,22.813153,120.367789,0.9991652
C0AH70,松山,2013-08-09,25.04871,121.55042,0.15281439
C0N010,鯤鯓國小,2013-08-09,23.1879,120.0889,0.46512195
C0R550,新埤,2013-08-09,22.467947,120.582894,0.77912325
C0SA60,知本（水試所）,2013-08-09,22.702394,121.082761,0.11087639
C0T9I0,豐濱,2013-08-09,23.583897,121.514806,0.022530677
C0UB00,淡江大學蘭陽校園,2013-08-09,24.823239,121.730383,0.9773063
C0W240,九宮,2013-08-09,24.423753,118.240186,0.5305376
C0T9N0,富里,2013-08-09,23.171639,121.249378,0.49285126
U2HA50,臺大竹山,2013-08-09,23.756972,120.681556,0.3817071
C0V840,鳳鼻頭,2013-08-09,22.5083,120.3591,0.5269385
C0X140,西港,2013-08-09,23.125608,120.203108,0.95892763
72D080,桃改五峰分場,2013-08-09,24.612194,121.157167,1.9201437e-07
C2H9P0,伊拿谷,2013-08-09,23.963211,121.088264,1.1267595e-07
C2H9F0,柑林,2013-08-09,24.018658,120.847072,0.1884466
C0TA20,加灣,2013-08-09,24.082025,121.608944,0.9390577
C0V530,阿蓮,2013-08-09,22.883208,120.327508,0.9981899
C1O880,關山,2013-08-09,23.173397,120.594092,0.9499713
C0E791,卓蘭,2013-08-09,24.3126,120.8244,0.8159349
C1I030,武界,2013-08-09,23.913225,121.052483,1.3025688e-05
C0R520,崁頂,2013-08-09,22.514781,120.506914,0.4233808
C0R341,牡丹,2013-08-09,22.130036,120.792639,0.41883612
C0R930,萬丹,2013-08-09,22.5885,120.4851,0.742246
C0S760,紅石,2013-08-09,23.069131,121.126219,9.220481e-09
C1M610,石磐龍,2013-08-09,23.496606,120.663506,7.1339315e-08
C0UA10,鴛鴦湖,2013-08-09,24.590269,121.412228,6.106094e-09
V2C260,八德蔬果,2013-08-09,24.978508,121.281819,0.30385518
C0R800,丹路,2013-08-09,22.204481,120.750989,0.05817743
C0G920,永靖,2013-08-09,23.924703,120.547533,0.09197273
C2M950,太和,2013-08-09,23.538372,120.702961,1.4010672e-08
C1A630,下盆,2013-08-09,24.771003,121.538622,0.4718377
B2N890,畜產試驗所,2013-08-09,23.058972,120.336406,0.9967193
C0UA30,白嶺,2013-08-09,24.527819,121.519031,1.5862582e-08
C1V580,溪南(特生中心),2013-08-09,23.084972,120.788475,1.8241394e-08
C1T970,大農,2013-08-09,23.615233,121.413331,0.19545549
E2S960,林試太麻里2,2013-08-09,22.598014,120.989761,0.8669872
C0R650,竹田,2013-08-09,22.58486,120.54344,0.742246
C1H900,清流,2013-08-09,24.080775,120.962997,4.141042e-06
C1C510,水尾,2013-08-09,24.940081,121.087161,0.12060929
C0F9X0,大雅(中科園區),2013-08-09,24.21528,120.62445,0.049100786
C0SB60,白守蓮,2013-08-09,23.126769,121.401914,0.1003877
C0O970,虎頭埤,2013-08-09,23.021375,120.347878,0.9974527
C0C730,中大臨海站,2013-08-09,24.966126,121.008581,0.79329014
C0X250,新營,2013-08-09,23.310689,120.316681,0.99465185
C0V700,三民,2013-08-09,22.645017,120.311233,0.5558461
C0U870,大礁溪,2013-08-09,24.791042,121.675047,0.98593295
C0E870,高鐵苗栗,2013-08-09,24.60725,120.826094,0.004714911
A2K570,古坑花卉中心,2013-08-09,23.63353,120.55239,0.6851719
C0M860,新美,2013-08-09,23.338017,120.683169,0.87745047
C1E701,八卦,2013-08-09,24.491756,120.927619,0.0357925
C0I420,國姓,2013-08-09,24.037803,120.855072,0.41157907
C2D720,關西工作站,2013-08-09,24.757275,121.184792,0.921741
C0S960,香蘭,2013-08-09,22.587569,120.993375,0.8669872
C0R260,春日,2013-08-09,22.370361,120.628306,0.08864226
72G600,臺中農改場,2013-08-09,24.003028,120.534389,0.1379755
C0Z210,瑞穗,2013-08-09,23.5239,121.39021,0.021902183
C0M820,達邦,2013-08-09,23.453994,120.749517,9.608601e-08
C0V860,南寮,2013-08-09,22.7616,120.2339,0.9863414
C0G740,大城,2013-08-09,23.852487,120.320935,0.6894315
C0R920,塭仔,2013-08-09,22.4169,120.5197,0.37469354
C0R470,高樹,2013-08-09,22.826389,120.600806,0.9977095
C0R680,佳樂水,2013-08-09,21.993578,120.861633,0.96901274
C1O870,大棟山,2013-08-09,23.31157,120.52226,5.4598523e-08
C0D360,梅花,2013-08-09,24.678347,121.208558,0.99877596
C0Z190,富世,2013-08-09,24.14743,121.6297,0.9353989
C0AI10,屈尺,2013-08-09,24.92184,121.54475,0.13844362
B2U990,畜試東區分所,2013-08-09,24.669039,121.832561,0.63864636
C0SB80,長濱漁港,2013-08-09,23.313644,121.459994,0.018672243
C0R240,來義,2013-08-09,22.527306,120.625111,0.08070881
C0V910,大樹,2013-08-09,22.684645,120.432803,0.9949213
C1R610,西大武山,2013-08-09,22.617719,120.7322,2.3244837e-08
C0G900,線西,2013-08-09,24.143358,120.443536,0.43570223
C0M700,竹崎,2013-08-09,23.526178,120.555508,0.75487804
C2E880,三義,2013-08-09,24.405478,120.749819,0.014773069
C0C720,竹圍,2013-08-09,25.112692,121.239824,0.008301077
C0F9P0,清水,2013-08-09,24.312297,120.562242,0.12988845
C0Z150,吉安光華,2013-08-09,23.930925,121.595153,0.97784096
C1D640,外坪(五指山),2013-08-09,24.644447,121.090961,0.08890988
C0F9O0,潭子,2013-08-09,24.213106,120.703933,0.3725332
C2H9R0,卓社,2013-08-09,23.887894,121.000086,8.413666e-09
72T250,花蓮農改場,2013-08-09,23.975222,121.563889,0.93241143
C0E780,銅鑼,2013-08-09,24.489681,120.790853,0.10098743
C1T950,太安,2013-08-09,23.666719,121.370128,1.7549212e-07
C0E830,苑裡,2013-08-09,24.439714,120.653053,0.008821964
467270,田中,2013-08-09,23.873803,120.581286,0.180841
C0SA10,檳榔四格山,2013-08-09,22.810031,121.109308,0.80844307
C1T830,布洛灣,2013-08-09,24.17184,121.57127,0.9452531
C0F970,大坑,2013-08-09,24.173142,120.722289,0.08276541
C1U920,思源,2013-08-09,24.393125,121.347214,4.620432e-09
C0A931,三和,2013-08-09,25.233153,121.595236,0.058182806
C0I010,廬山,2013-08-09,24.033311,121.181808,8.353542e-09
C2M940,日野賀,2013-08-09,23.434056,120.727169,7.6749195e-08
C0R860,鼻頭,2013-08-09,22.1043,120.8979,0.9419009
C0UB20,壯圍,2013-08-09,24.7359,121.8163,0.63864636
C0R790,九棚,2013-08-09,22.14195,120.889281,0.029114068
C0W110,東莒,2013-08-09,25.9652,119.98069,0.00017703525
C1U930,粉鳥林,2013-08-09,24.497088,121.842479,0.46219325
C1I211,蘆竹湳,2013-08-09,23.934019,120.811994,0.000263394
C0S830,長濱,2013-08-09,23.286817,121.411975,0.47926217
C1F9F1,伯公龍,2013-08-09,24.272392,120.849047,0.056824353
C0E810,西湖,2013-08-09,24.562947,120.7485,0.0044478583
C1I440,新高口,2013-08-09,23.478744,120.878939,4.210283e-09
C0O840,王爺宮,2013-08-09,23.222064,120.40085,0.99899656
C0T9G0,鳳林山,2013-08-09,23.735269,121.420131,0.51325685
C0X080,佳里,2013-08-09,23.173039,120.145086,0.84477746
C0FB70,大甲溪埔,2013-08-09,24.370625,120.620067,0.006076543
C0Z310,清水斷崖,2013-08-09,24.218294,121.689142,0.8884799
C0M680,太保,2013-08-09,23.455062,120.331455,0.9847139
C1S820,金峰,2013-08-09,22.590969,120.933236,0.9632843
C0AD10,八里,2013-08-09,25.150211,121.403947,0.008301077
C2K240,草嶺,2013-08-09,23.59555,120.693461,4.2422705e-08
C1SA70,都蘭,2013-08-09,22.87794,121.226881,0.4171545
C0K440,二崙,2013-08-09,23.772797,120.408944,0.42930096
C1A760,坪林交控,2013-08-09,24.94284,121.713442,0.97784084
C0F9N0,大里,2013-08-09,24.092464,120.701378,0.6359665
C0SA90,達仁林場,2013-08-09,22.264347,120.823972,0.5199445
C1R290,石門山,2013-08-09,22.112611,120.756597,0.3525025
42HA10,萬大發電廠,2013-08-09,23.978875,121.139639,7.4755974e-08
C0R890,山海,2013-08-09,21.9878,120.7091,0.97093993
C0T9A0,月眉山,2013-08-09,23.809928,121.539828,0.6463627
C0AC70,信義,2013-08-09,25.037822,121.564597,0.15297623
C0K560,棋山,2013-08-09,23.68645,120.603417,0.38649994
C2FB50,出雲,2013-08-09,24.206469,120.902794,4.6178848e-06
C1Z240,中平林道,2013-08-09,23.42115,121.26763,1.0079698e-08
U2H480,溪頭,2013-08-09,23.670306,120.798194,4.222098e-07
C0M880,好美里,2013-08-09,23.3364,120.138,0.84477746
C0T9E0,大坑,2013-08-09,23.880628,121.581981,0.8260157
C0K530,臺西,2013-08-09,23.701547,120.197559,0.5467946
C1E900,國一N128K,2013-08-09,24.560997,120.844186,0.004770233
C0AJ50,水湳洞,2013-08-09,25.123695,121.862238,0.0021689278
C0AI20,白沙灣,2013-08-09,25.283128,121.519058,0.008595545
C0A860,大坪,2013-08-09,25.165914,121.632969,0.24132104
C1U850,觀音海岸,2013-08-09,24.38319,121.77856,0.44043204
C2K610,草嶺石壁,2013-08-09,23.602469,120.707731,5.3020038e-08
C0U950,鶯子嶺,2013-08-09,24.89754,121.79244,0.00042623244
C0O900,善化,2013-08-09,23.112883,120.297219,0.9956913
C0K550,蔦松,2013-08-09,23.514319,120.229736,0.8667
E2P980,林試六龜中心,2013-08-09,22.991703,120.645722,0.9968508
C0E590,通霄,2013-08-09,24.471892,120.704622,0.006745488
C1I310,西巒,2013-08-09,23.754486,120.883956,4.3574764e-07
C0A550,泰平,2013-08-09,24.971197,121.823711,0.5689903
C0I360,水里,2013-08-09,23.812553,120.849792,0.5374152
C0R830,高士,2013-08-09,22.121825,120.836781,0.6758003
C1I101,溪頭,2013-08-09,23.661789,120.807647,1.4131498e-08
C0AJ20,野柳,2013-08-09,25.20703,121.690021,0.0021689278
C0B060,暖暖,2013-08-09,25.0957,121.7403,0.0022456548
C1H920,長豐,2013-08-09,24.102039,120.879897,0.00018461919
C0V360,內門,2013-08-09,22.975481,120.466769,0.9997675
C0R850,林邊,2013-08-09,22.4634,120.5339,0.4233151
C0E930,龍鳳,2013-08-09,24.700034,120.859125,0.13876842
C0U910,冬山,2013-08-09,24.63373,121.7937,0.63864636
C1E721,泰安,2013-08-09,24.489017,120.968036,6.086701e-08
82H320,茶改中部分場,2013-08-09,23.875611,120.913583,1.0778296e-07
C0M750,布袋,2013-08-09,23.380878,120.167789,0.90113264
C1S860,利嘉,2013-08-09,22.809417,121.050528,0.9951303
72C440,桃園農改,2013-08-09,24.950944,121.030583,0.778438
E2S980,林試太麻里1,2013-08-09,22.598922,120.980044,0.9322303
C0X170,關廟,2013-08-09,22.963017,120.327797,0.998186
C0V720,林園,2013-08-09,22.507747,120.394511,0.5557677
C1I510,線浸林道,2013-08-09,23.761508,120.832956,4.7499125e-08
C0D690,外湖,2013-08-09,24.917735,120.968711,0.79329014
C0C750,新興坑尾,2013-08-09,25.0061,121.0971,0.07325371
B2Q810,畜試南區分所,2013-08-09,21.945583,120.802167,0.96901274
C0S790,金崙,2013-08-09,22.538122,120.966875,0.96785617
C0AH90,福山植物園,2013-08-09,24.760717,121.58135,0.99196714
C0I540,奇萊稜線,2013-08-09,24.109231,121.326456,7.316601e-09
C0M850,表湖,2013-08-09,23.24186,120.64166,0.24109502
C0S770,大溪山,2013-08-09,22.478475,120.943325,0.96365505
C0AG80,中和,2013-08-09,24.991622,121.491792,0.15347223
C0T790,大禹嶺,2013-08-09,24.186117,121.316086,6.4982792e-09
C0T9B0,水源,2013-08-09,23.991861,121.537169,0.179934
C0R840,牡丹池山,2013-08-09,22.168389,120.841225,0.47132295
C1I131,桶頭,2013-08-09,23.641944,120.654117,0.746776
CAL110,布袋國中,2013-08-09,23.35893,120.18026,0.98162115
467571,新竹,2013-08-09,24.827853,121.014219,0.108012386
C0Z290,赤柯山,2013-08-09,23.36893,121.38293,9.216956e-07
C0X280,將軍,2013-08-09,23.214999,120.13577,0.84477746
C0S690,太麻里,2013-08-09,22.60902,120.98533,0.96217436
C0U880,北關,2013-08-09,24.9072,121.8734,0.084622584
C1H860,瑞岩,2013-08-09,24.123772,121.18345,1.421026e-08
C0G810,埔心,2013-08-09,23.947633,120.525456,0.093830094
C0U970,大福,2013-08-09,24.80064,121.81389,0.9437877
C2H9N0,仁愛東眼,2013-08-09,24.026875,121.1205,4.1526864e-08
C1E670,南礦,2013-08-09,24.538278,121.002836,8.175163e-08
C0M520,東後寮,2013-08-09,23.369908,120.248065,0.9831675
C1E461,松安,2013-08-09,24.397972,120.986022,1.3589319e-07
72G600,臺中農改,2013-08-09,24.003028,120.534389,0.1379755
C2N160,西拉雅風管處,2013-08-09,23.189481,120.335297,0.994574
C2M970,碧湖,2013-08-09,23.568632,120.624165,1.3769031e-07
C0A640,石碇,2013-08-09,24.993969,121.662917,0.34437534
E2S960,林試太麻里2,2013-08-09,22.598,120.99775,0.8551955
C0F9Y0,桃山,2013-08-09,24.432739,121.303808,1.2230072e-08
C1I020,萬大,2013-08-09,23.979817,121.132261,4.6861604e-07
C0U940,羅東,2013-08-09,24.68184,121.74934,0.5660786
C0M650,朴子,2013-08-09,23.43463,120.23902,0.9114889
C1I500,大尖山,2013-08-09,23.858572,120.994889,8.51437e-09
C0G820,田尾,2013-08-09,23.901669,120.509389,0.09197273
E2K600,四湖植物園,2013-08-09,23.676986,120.163433,0.5467946
C0S730,綠島,2013-08-09,22.6672,121.47533,0.060229607
12Q970,東港工作站,2013-08-09,22.479997,120.466058,0.39218894
C0E430,南庄,2013-08-09,24.601775,121.000214,0.75456417
C1TA00,太魯閣,2013-08-09,24.15773,121.6236,0.8883374
466920,臺北,2013-08-09,25.037658,121.514853,0.15281439
C0R600,舊泰武,2013-08-09,22.588194,120.664944,0.9941422
C1I260,北坑,2013-08-09,23.9246,121.006903,0.0002754868
466910,鞍部,2013-08-09,25.182586,121.529731,0.59690887
C1I230,九份二山,2013-08-09,23.961944,120.845,9.4752147e-07
C2A660,瑞芳,2013-08-09,25.113169,121.801147,0.019290635
C0R270,琉球嶼,2013-08-09,22.332244,120.362236,0.08864226
C1T990,高寮,2013-08-09,23.394239,121.356808,0.014870122
C0G620,芬園,2013-08-09,24.015678,120.6213,0.5292799
C1Z140,荖溪,2013-08-09,23.890575,121.45964,1.2084769e-07
C1I201,中心崙,2013-08-09,23.728722,120.712097,1.991177e-05
C1I400,凌霄,2013-08-09,24.018778,121.004456,6.0781396e-08
C1M640,十字,2013-08-09,23.492153,120.753683,1.9842018e-08
G2P820,農試鳳山分所,2013-08-09,22.646611,120.356083,0.6093962
C0Z270,蕃薯寮,2013-08-09,23.73835,121.540108,0.5538663
C0F9Q0,外埔,2013-08-09,24.347817,120.705686,0.52990526
C0K580,高鐵雲林,2013-08-09,23.737456,120.417944,0.63299555
C2I090,鳳凰,2013-08-09,23.728081,120.787347,6.719833e-08
C0U990,員山,2013-08-09,24.74435,121.72247,0.5660786
C0V770,大社,2013-08-09,22.730306,120.346639,0.5607025
C0X120,麻豆,2013-08-09,23.183289,120.248611,0.87113637
C0C670,龍潭,2013-08-09,24.870056,121.221389,0.9731094
C0D680,香山濕地,2013-08-09,24.783581,120.914988,0.07497048
C0S980,勝林山,2013-08-09,22.430439,120.8938,0.83375925
C0V730,大寮,2013-08-09,22.605614,120.395717,0.18469135
C0R570,麟洛,2013-08-09,22.65078,120.52719,0.9987122
C2M930,石卓,2013-08-09,23.478744,120.702264,2.1294726e-08
C0G9B0,和美,2013-08-09,24.105169,120.492131,0.08612719
CAG100,王功漁港,2013-08-09,23.96824,120.32586,0.5979291
C0X290,北門,2013-08-09,23.267772,120.125481,0.84477746
C2F930,大甲,2013-08-09,24.347667,120.640403,0.044208188
C0D650,湖口,2013-08-09,24.904794,121.043628,0.7752759
C0E420,竹南,2013-08-09,24.708978,120.888897,0.07194276
C0U780,五結,2013-08-09,24.68637,121.79794,0.63864636
C1I250,鯉潭,2013-08-09,23.961922,120.991131,0.00018461919
C0R130,阿禮,2013-08-09,22.742908,120.743678,0.19920397
C0X100,臺南市北區,2013-08-09,23.010394,120.194228,0.9911375
C0S920,金峰嘉蘭,2013-08-09,22.594789,120.960825,0.93764496
C0V490,新興,2013-08-09,22.627422,120.298803,0.5557677
C0F9K0,大安,2013-08-09,24.345061,120.588025,0.1024391
72N100,臺南農改,2013-08-09,23.0605,120.342194,0.9967193
467290,古坑,2013-08-09,23.633639,120.551889,0.6851719
C2E970,八甲,2013-08-09,24.535811,120.795983,0.122644566
C0V440,鳳山,2013-08-09,22.646653,120.356122,0.6093962
C1T940,大觀,2013-08-09,23.714206,121.373133,0.20319706
72T250,花蓮農改,2013-08-09,23.975222,121.563889,0.93241143
C0E740,造橋,2013-08-09,24.637056,120.864778,0.12921302
C0R100,尾寮山,2013-08-09,22.833111,120.683889,0.062471688
A2K630,臺大雲林校區,2013-08-09,23.730628,120.423903,0.63299555
C0D580,寶山,2013-08-09,24.735006,121.025192,0.6415639
E2P990,林試扇平站,2013-08-09,22.9677,120.6857,0.9992831
C0AI30,三重,2013-08-09,25.057328,121.500629,0.03452354
C0AH00,汐止,2013-08-09,25.066881,121.658778,0.0021689278
C1Z040,立山,2013-08-09,23.443356,121.327375,0.45059136
C0W130,花嶼,2013-08-09,23.40007,119.32276,0.9964449
C0A950,鼻頭角,2013-08-09,25.129036,121.923372,0.016913822
C0K470,林內,2013-08-09,23.748675,120.609642,0.42999548
C2F990,摩天嶺,2013-08-09,24.322458,120.936819,2.4457503e-07
82C160,茶改場,2013-08-09,24.908472,121.185333,0.9614381
C0Z320,清水林道,2013-08-09,23.27125,121.188272,0.00010988442
C0R760,南仁湖,2013-08-09,22.084681,120.863353,0.37995082
C0M670,大林,2013-08-09,23.600616,120.45841,0.95355433
C0M800,茶山,2013-08-09,23.299075,120.664767,0.9361992
C0A9C0,天母,2013-08-09,25.117494,121.537169,0.030136574
72K220,南改斗南分場,2013-08-09,23.634556,120.477333,0.34815624
72AI40,桃改樹林分場,2013-08-09,24.944503,121.386972,0.023382833
C0S910,蘭嶼燈塔,2013-08-09,22.081197,121.503117,0.49414238
C0B050,八斗子,2013-08-09,25.144754,121.79167,0.0022908333
C0U900,內城,2013-08-09,24.71813,121.68766,0.96902007
C0X320,柳營,2013-08-09,23.253328,120.375253,0.99314654
C0M790,新港,2013-08-09,23.553269,120.345728,0.9774079
C0F9T0,西屯,2013-08-09,24.179494,120.641275,0.11818476
C0SA30,都歷,2013-08-09,23.020333,121.323642,0.07812412
C0C620,蘆竹,2013-08-09,25.084275,121.265767,0.007723721
C0R730,大坪頂,2013-08-09,22.024633,120.69355,0.799367
C0AJ40,石門,2013-08-09,25.273672,121.601198,0.0055555203
C0E750,苗栗,2013-08-09,24.564569,120.824575,0.004504421
C0T870,鯉魚潭,2013-08-09,23.935639,121.508944,0.9366643
C1V170,排雲,2013-08-09,23.463619,120.954147,1.1323423e-08
C2H950,中寮,2013-08-09,23.884447,120.766406,0.22823146
C0R350,貓鼻頭,2013-08-09,21.921774,120.7358,0.9668512
C0V660,岡山,2013-08-09,22.797078,120.294958,0.9918829
C1H941,雙冬,2013-08-09,23.967378,120.802189,0.00013627211
C0AJ70,田寮,2013-08-09,25.2698,121.4886,0.008851751
C0AI00,五股,2013-08-09,25.07445,121.42728,0.3590794
C0Z280,德武,2013-08-09,23.47426,121.41071,0.060267534
C0R700,枋山,2013-08-09,22.246844,120.661086,0.054978266
C0C460,復興,2013-08-09,24.820208,121.352281,0.99844533
E2H360,蓮華池,2013-08-09,23.918333,120.885278,5.8858785e-07
C0M640,中埔,2013-08-09,23.42538,120.5229,0.73508614
C0W140,金沙,2013-08-09,24.488292,118.408778,0.0011572378
C2A540,四堵,2013-08-09,24.8926,121.745736,0.42509034
C0ACA0,新莊,2013-08-09,25.051478,121.446756,0.025283832
C0R220,潮州,2013-08-09,22.534361,120.54,0.15437809
U2HA40,臺大內茅埔,2013-08-09,23.689722,120.851117,0.0010656057
467490,臺中,2013-08-09,24.145736,120.684075,0.13391528
C0U960,翠峰湖,2013-08-09,24.510856,121.608044,4.0463566e-09
E2HA20,林試畢祿溪站,2013-08-09,24.226944,121.308522,4.1057526e-09
C0V890,前鎮,2013-08-09,22.5718,120.3117,0.5269385
467620,蘭嶼,2013-08-09,22.036969,121.558339,0.9981075
C1F941,雪嶺,2013-08-09,24.280586,121.026642,1.1244865e-08
C2H9E0,國姓南港,2013-08-09,23.911108,120.846556,6.030149e-08
C0AC80,文山,2013-08-09,25.00235,121.575728,0.13844362
C0F9R0,龍井,2013-08-09,24.184536,120.528972,0.06709962
C0M760,民雄,2013-08-09,23.551754,120.428457,0.992533
C0UA40,西德山,2013-08-09,24.560647,121.752608,8.752604e-08
C1T920,中興,2013-08-09,23.769503,121.498653,0.9689695
C0D550,雪霸,2013-08-09,24.526972,121.11605,1.5009197e-08
C2F860,梨山,2013-08-09,24.247522,121.243669,4.1702735e-09
C0R320,車城,2013-08-09,22.0744,120.716247,0.97093993
C1S870,南美山,2013-08-09,23.15025,121.382333,0.033870194
C0B020,基隆嶼,2013-08-09,25.19141,121.78391,0.0021689278
C1U501,牛鬥,2013-08-09,24.637836,121.573656,0.9592916
C0M730,嘉義市東區,2013-08-09,23.457673,120.460531,0.96010655
C0S700,知本,2013-08-09,22.684866,121.005642,0.95903164
C1N001,沙崙,2013-08-09,22.935472,120.309406,0.9981899
C0V760,橋頭,2013-08-09,22.757806,120.30575,0.99306256
C0G960,福寶,2013-08-09,24.0443,120.3814,0.13143726
C0X210,白河,2013-08-09,23.347466,120.414427,0.9934586
C0S810,東河,2013-08-09,22.972672,121.303986,0.35652876
C2R170,屏東,2013-08-09,22.66027,120.49403,0.9985877
C0R670,楓港,2013-08-09,22.190131,120.692156,0.055009127
C0FA50,霧峰,2013-08-09,24.0419,120.6995,0.6466098
C0UB10,蘇澳,2013-08-09,24.5969,121.8571,0.701809
C0G950,防潮門,2013-08-09,24.1835,120.4871,0.073957756
C0M740,六腳,2013-08-09,23.492871,120.290625,0.98394907
C1R250,力里,2013-08-09,22.428117,120.629228,0.08070881
C0K330,虎尾,2013-08-09,23.719183,120.442036,0.6447126
C2FA00,烏石坑,2013-08-09,24.273503,120.947617,3.5243465e-07
C0V620,永安,2013-08-09,22.82315,120.236856,0.9877371
C1I330,楓樹林,2013-08-09,23.986803,121.076117,1.1223437e-08
C0W200,湖西,2013-08-09,23.596314,119.67275,0.029959619
72Q010,高雄農改場,2013-08-09,22.709333,120.525889,0.9987342
C0SA40,瑞和,2013-08-09,22.974361,121.156697,0.03638208
C0C680,龜山,2013-08-09,25.02846,121.38656,0.9853928
C2V260,月眉,2013-08-09,22.971003,120.539853,0.99897957
C0V450,鳳森,2013-08-09,22.545064,120.392592,0.24533042
C0U720,南山,2013-08-09,24.43742,121.38167,4.825734e-08
A2N290,臺南蘭花園區,2013-08-09,23.340258,120.379661,0.9931428
C0R560,新園,2013-08-09,22.5434,120.461558,0.4233151
C0U890,三星,2013-08-09,24.66812,121.65302,0.9789577
C1V300,御油山,2013-08-09,23.001983,120.715364,2.0472768e-08
C0U600,礁溪,2013-08-09,24.817539,121.765608,0.95540285
C1T980,龍澗,2013-08-09,24.023289,121.411328,1.4478597e-08
C0D670,海天一線,2013-08-09,24.831986,120.914438,0.07328625
C0SA00,歷坵,2013-08-09,22.520969,120.89185,0.9561912
C0M710,東石,2013-08-09,23.458927,120.15385,0.8667
C0M780,鹿草,2013-08-09,23.41134,120.30835,0.9870847
C0U520,雙連埤,2013-08-09,24.753033,121.641303,0.9835662
C0B010,七堵,2013-08-09,25.094819,121.71713,0.0022072606
C0R480,長治,2013-08-09,22.693128,120.542622,0.99718636
C1V830,國三S383K,2013-08-09,22.781967,120.426475,0.99850243
12Q980,恆春工作站,2013-08-09,22.079678,120.714425,0.97093993
C1O940,東山服務區,2013-08-09,23.286016,120.398472,0.99405056
C1U840,東澳嶺,2013-08-09,24.5378,121.8485,0.42600814
C1D630,飛鳳山,2013-08-09,24.766464,121.119178,0.002970938
C0S940,石寧山,2013-08-09,23.223772,121.406639,0.23775291
C0K410,北港,2013-08-09,23.573957,120.292802,0.97621626
C2M620,瑞里,2013-08-09,23.545133,120.675197,2.4644525e-08
C0SB70,小港漁港,2013-08-09,23.158558,121.400431,0.034180578
C2O950,安南,2013-08-09,23.076694,120.144861,0.86486876
C0F0E0,南湖圈谷,2013-08-09,24.363714,121.444667,1.0527709e-08
467610,成功,2013-08-09,23.097486,121.373428,0.088178776
C0G890,伸港,2013-08-09,24.148933,120.484403,0.29553723
C2E540,龍溪,2013-08-09,24.606489,120.783933,0.0052820104
C1V200,梅山,2013-08-09,23.268447,120.823556,0.7473556
C0T9H0,加路蘭山,2013-08-09,23.682947,121.5274,0.00922621
C2O930,玉井,2013-08-09,23.126042,120.46055,0.9987222
C1F911,新伯公,2013-08-09,24.221361,120.841069,0.39781275
C0R490,九如,2013-08-09,22.7405,120.490503,0.9987122
C0X200,左鎮,2013-08-09,23.056758,120.408522,0.99957764
C0SB50,叭嗡嗡,2013-08-09,23.047062,121.343223,0.30380088
C1F891,稍來,2013-08-09,24.265689,121.001142,9.822492e-09
72N240,七股研究中心,2013-08-09,23.081672,120.062894,0.75436413
C0C700,中壢,2013-08-09,24.977661,121.256375,0.42118403
C0M690,水上,2013-08-09,23.419734,120.388909,0.9957641
C0V690,鼓山,2013-08-09,22.623325,120.275575,0.5557677
C0O860,大內,2013-08-09,23.11885,120.36083,0.9996215
C0Z200,萬榮,2013-08-09,23.709219,121.420106,0.9366643
C0T9D0,和中,2013-08-09,24.26676,121.74103,0.7448028
C1O921,楠西,2013-08-09,23.183511,120.484083,0.99711573
C0AJ30,淡水觀海,2013-08-09,25.184591,121.408616,0.008934369
C0V810,左營,2013-08-09,22.67491,120.28491,0.54274136
C0UA70,桃源谷,2013-08-09,24.962606,121.888875,0.8767612
C0X130,官田,2013-08-09,23.193217,120.315422,0.9941213
C1H000,翠峰,2013-08-09,24.109397,121.205211,3.9175942e-09
C0UA90,石城,2013-08-09,24.980444,121.951214,0.020224258
C1E681,南勢山,2013-08-09,24.421669,120.923831,5.120807e-07
C0A9F0,內湖,2013-08-09,25.079422,121.57545,0.15281439
C0K291,宜梧,2013-08-09,23.536281,120.169329,0.848779
C1K540,口湖,2013-08-09,23.585344,120.180517,0.7877994
C0R780,滿州,2013-08-09,22.024403,120.839892,0.96537435
C0V870,文安,2013-08-09,22.8025,120.2164,0.9863414
C0U650,玉蘭,2013-08-09,24.675286,121.587061,0.8432431
C0R640,東港,2013-08-09,22.46247,120.44074,0.5269385
K2E360,苗栗農改,2013-08-09,24.495722,120.829111,0.038485147
C0AJ80,板橋,2013-08-09,25.0107,121.4489,0.02949201
C0S660,下馬,2013-08-09,23.150427,121.070312,1.5264216e-06
C1H9B1,阿眉,2013-08-09,24.1263,120.994672,1.5052834e-08
C0UA20,多加屯,2013-08-09,24.368614,121.373189,7.2480684e-09
C0E730,頭份,2013-08-09,24.688247,120.912206,0.07185462
72V140,高改旗南分場,2013-08-09,22.857861,120.516667,0.99891925
C0K480,莿桐,2013-08-09,23.761192,120.502372,0.23383202
C0U980,坪林石牌,2013-08-09,24.86478,121.77396,0.917235
C0T900,西林,2013-08-09,23.8119,121.441458,0.91444576
C1I150,青雲,2013-08-09,23.793361,120.949378,0.0001060615
467350,澎湖,2013-08-09,23.565503,119.563094,0.9964974
C0G800,埔鹽,2013-08-09,24.000394,120.431683,0.12788099
C0H960,草屯,2013-08-09,23.973672,120.68085,0.44412804
C1V780,多納林道,2013-08-09,22.888028,120.737917,1.4186019e-05
C0E920,通霄漁港,2013-08-09,24.498589,120.673876,0.008363391
C0Z330,安通山,2013-08-09,23.290728,121.348528,0.14927183
C0AH10,永和,2013-08-09,25.01125,121.508111,0.14805466
C0AK10,太平里,2013-08-09,25.134937,121.364899,0.025304614
C2G640,鹿港,2013-08-09,24.0753,120.430481,0.12750205
C1E890,國三N149K,2013-08-09,24.463414,120.680019,0.0046231546
C1R110,口社,2013-08-09,22.770111,120.645222,0.9980068
C1M870,國三N285K,2013-08-09,23.550319,120.505833,0.52990663
467050,新屋,2013-08-09,25.006744,121.047486,0.78566426
C1E480,鳳美,2013-08-09,24.554803,121.034747,0.095454775
C0M530,奮起湖,2013-08-09,23.493903,120.699253,1.36476395e-08
C0C590,觀音,2013-08-09,25.027072,121.153317,0.0055350596
C0T9M0,靜浦,2013-08-09,23.455167,121.495028,0.021096405
C2H9M0,發祥,2013-08-09,24.154094,121.164517,4.4347495e-08
C0AI40,石牌,2013-08-09,25.115597,121.513139,0.02949201
C1F871,上谷關,2013-08-09,24.203483,121.018644,3.5243465e-07
C2H9G0,百勝,2013-08-09,24.051142,120.909361,0.06843223
C0G880,二水,2013-08-09,23.810742,120.6173,0.4197579
C0R940,加祿堂,2013-08-09,22.3363,120.6217,0.13283624
C0W220,北竿,2013-08-09,26.220358,119.974881,0.084534384
C0O960,崎頂,2013-08-09,22.959547,120.369317,0.99901366
C0S750,向陽,2013-08-09,23.248397,120.986133,3.3292928e-09
C0T9F0,水璉,2013-08-09,23.797131,121.542514,0.8925223
C1M600,頭凍,2013-08-09,23.406364,120.603339,2.4294778e-07
467660,臺東,2013-08-09,22.752211,121.154586,0.14962453
C1D380,新埔,2013-08-09,24.84745,121.03834,0.15488978
C2G980,田頭村,2013-08-09,23.8263,120.444175,0.42930096
C0V750,路竹,2013-08-09,22.854997,120.259439,0.99784523
C0N050,蚵寮,2013-08-09,23.301,120.1104,0.46512198
72M700,南改鹿草分場,2013-08-09,23.416869,120.283061,0.9860237
C1SA50,利嘉林道,2013-08-09,22.82325,121.009389,4.3930308e-07
467550,玉山,2013-08-09,23.487614,120.959522,1.3131968e-08
C0A940,金山,2013-08-09,25.223628,121.643967,0.0079279
C1V340,大津,2013-08-09,22.888322,120.645986,0.99857926
C0W180,七美,2013-08-09,23.219333,119.444892,0.98931825
C1F9C1,白冷,2013-08-09,24.182844,120.929889,0.028954282
K2E710,苗改生物防治研究中心,2013-08-09,24.422861,120.871833,0.29478404
C0N040,蘆竹溝,2013-08-09,23.2344,120.0961,0.46512195
C2W230,畜試所澎湖,2013-08-09,23.628342,119.513206,0.9529194
C0R880,後壁湖,2013-08-09,21.9457,120.7457,0.97172713
C1I280,埔中,2013-08-09,23.820778,120.642594,0.58385265
467790,墾丁雷達站,2013-08-09,21.948235,120.808028,0.9646287
C0W190,望安,2013-08-09,23.380564,119.494075,0.99843884
466881,新北,2013-08-09,24.9593,121.52,0.15221097
C0Z170,卓溪,2013-08-09,23.3443,121.3029,0.069759786
C0F850,東勢,2013-08-09,24.246428,120.833047,0.5829487
466900,淡水,2013-08-09,25.164889,121.448906,0.008301077
C0I370,魚池,2013-08-09,23.895703,120.94135,8.907825e-07
C0C630,大溪,2013-08-09,24.882853,121.265547,0.9846888
C0A520,山佳,2013-08-09,24.974944,121.402008,0.023389198
C0I110,竹山,2013-08-09,23.761225,120.688156,0.40425846
82H840,茶改南部分場,2013-08-09,23.762528,120.7405,0.0019899637
C0G660,溪湖,2013-08-09,23.94835,120.479122,0.09785898
C1T800,洛韶,2013-08-09,24.204558,121.453956,1.1447703e-08
C1T810,慈恩,2013-08-09,24.192044,121.388386,3.829209e-09
C1E451,象鼻,2013-08-09,24.368617,120.940228,5.120807e-07
C0AC60,三峽,2013-08-09,24.939025,121.369728,0.14567983
C0I490,萬大林道,2013-08-09,23.928228,121.091411,9.982123e-09
C1I290,豐丘,2013-08-09,23.668178,120.887417,4.7499125e-08
C1I320,奧萬大,2013-08-09,23.952956,121.178556,1.0760606e-08
C2M910,嘉義大學,2013-08-09,23.471325,120.485903,0.57326114
C0U770,南澳,2013-08-09,24.44935,121.81022,0.09669582
C0A980,社子,2013-08-09,25.109508,121.469681,0.03341692
C0V800,六龜,2013-08-09,22.997889,120.633583,0.9968066
C1G9D0,國一S218K,2013-08-09,23.890641,120.493253,0.093830094
C0E570,白沙屯,2013-08-09,24.549447,120.696803,0.008363391
C2F9A0,中竹林,2013-08-09,24.103556,120.751061,0.1048409
C0FA40,臺中電廠,2013-08-09,24.2146,120.4907,0.06709962
C2G9A0,畜試所彰化,2013-08-09,23.86045,120.557964,0.180841
C0H9C0,合歡山,2013-08-09,24.143442,121.272547,1.0433397e-08
C0X060,下營,2013-08-09,23.22695,120.256261,0.99304646
G2M350,農試溪口農場,2013-08-09,23.58565,120.408111,0.9908118
C0U860,頭城,2013-08-09,24.85323,121.8308,0.9525081
C0R580,南州,2013-08-09,22.48591,120.50274,0.39218894
C0D430,峨眉,2013-08-09,24.6905,121.017189,0.57521653
C0G780,秀水,2013-08-09,24.03405,120.503869,0.1339701
72N100,臺南農改場,2013-08-09,23.0605,120.342194,0.9967193
C0S900,蘭嶼高中,2013-08-09,22.04909,121.51214,0.8100343
467540,大武,2013-08-09,22.355675,120.903789,0.080749504
C1F9W0,德基,2013-08-09,24.254783,121.190261,6.873979e-09
C1Z120,壽豐,2013-08-09,23.870853,121.508081,0.97804636
C0W160,烏坵,2013-08-09,24.9944,119.44956,0.00012711066
C1I240,外大坪,2013-08-09,23.958697,120.917931,6.384162e-05
C1I550,國六W023K,2013-08-09,23.979067,120.867742,0.047850102
C0R870,興海,2013-08-09,21.9752,120.8439,0.96901274
C0R140,瑪家,2013-08-09,22.682903,120.686639,0.999486
C0A530,坪林,2013-08-09,24.938183,121.70975,0.986074
C0X260,後壁,2013-08-09,23.366358,120.362326,0.9992564
C0Z230,和平,2013-08-09,24.30717,121.77007,0.7448028
C0G770,福興,2013-08-09,24.041289,120.437669,0.1276123
C0H9A0,神木村,2013-08-09,23.532742,120.843667,3.093546e-08
C0I460,南投,2013-08-09,23.911469,120.687331,0.58829796
C0I480,梅峰,2013-08-09,24.085272,121.173572,4.045207e-09
C1V570,吉東,2013-08-09,22.85422,120.5454,0.9989919
C2D740,屯原,2013-08-09,24.067969,121.209389,3.3175342e-09
C2A560,福山,2013-08-09,24.776203,121.502811,0.99736476
C0AH30,五分山,2013-08-09,25.07125,121.780794,0.8300661
C0FA10,松柏,2013-08-09,24.429115,120.617482,0.013164725
72S200,東改班鳩分場,2013-08-09,22.829528,121.077694,0.5603364
72HA00,中改埔里分場,2013-08-09,23.903208,120.963364,2.054743e-06
C2H9W0,大坪頂農水,2013-08-09,24.043122,120.932781,8.7707085e-05
C0C650,平鎮,2013-08-09,24.897503,121.214636,0.9614381
C0S930,延平,2013-08-09,22.902581,121.084058,0.5150457
C0UA60,樟樹山,2013-08-09,24.41393,121.78325,0.9362103
C1S670,摩天,2013-08-09,23.199503,121.027,5.727409e-09
C0V630,茄萣,2013-08-09,22.906642,120.182608,0.98550856
466940,基隆,2013-08-09,25.133314,121.740475,0.0021465814
C0X050,東河,2013-08-09,23.296598,120.385608,0.99314654
C0R770,保力,2013-08-09,22.071122,120.764111,0.960761
G2L020,農試嘉義分所,2013-08-09,23.485028,120.473806,0.6302615
C0X240,關子嶺,2013-08-09,23.331169,120.508025,0.8616964
C0I380,集集,2013-08-09,23.828206,120.801467,0.58543247
466990,花蓮,2013-08-09,23.975128,121.613275,0.9416766
C1V220,小關山,2013-08-09,23.154217,120.813603,1.0864547e-08
C1F9G1,慶福山,2013-08-09,24.180853,120.848378,1.8114957e-05
C0Z250,瑞穗林道,2013-08-09,23.49284,121.30688,1.182031e-08
C0D590,新豐,2013-08-09,24.87068,120.97721,0.5594992
C0A870,五指山,2013-08-09,25.132153,121.608692,0.6524472
C0UA50,西帽山,2013-08-09,24.555361,121.802628,0.34413704
C0X160,仁德,2013-08-09,22.968258,120.257689,0.9975107
C1H971,六分寮,2013-08-09,23.92507,120.6378,0.002899712
C0W120,西嶼,2013-08-09,23.5626,119.468436,0.9964974
C0G650,員林,2013-08-09,23.946503,120.585597,0.077261746
C0AD50,鶯歌,2013-08-09,24.951533,121.346294,0.0054106712
C2H9Q0,北東眼山,2013-08-09,24.120939,121.189303,3.3188126e-09
C2H9T0,名間竹圍,2013-08-09,23.859914,120.637572,0.34748238
C0S990,山豬窟,2013-08-09,22.318619,120.857372,0.22424161
72Q010,高雄農改,2013-08-09,22.709333,120.525889,0.9987342
C0X190,安平,2013-08-09,22.993161,120.152181,0.9911375
C0K400,斗六,2013-08-09,23.720583,120.541127,0.3590077
12J990,口湖工作站,2013-08-09,23.589978,120.180394,0.80275714
C0O830,北寮,2013-08-09,23.079561,120.495008,0.9963442
C1D410,白蘭,2013-08-09,24.579364,121.079947,3.2129833e-08
C0S970,加津林,2013-08-09,22.416211,120.926942,0.08011704
C0D700,關西,2013-08-09,24.7977,121.1732,0.8834796
C0M810,里佳,2013-08-09,23.389125,120.716647,1.36476395e-08
C0U750,龜山島,2013-08-09,24.841667,121.953133,0.12637578
C0R810,內獅,2013-08-09,22.305064,120.642986,0.13283624
C1M390,龍美,2013-08-09,23.406728,120.654417,8.097739e-08
C2FB60,頭櫃山,2013-08-09,24.129842,120.858925,1.2576496e-06
C1H840,國三N238K,2013-08-09,23.841008,120.707711,0.5589714
CAQ030,崎峰國小,2013-08-09,22.42565,120.49521,0.39218894
C2E520,大湖,2013-08-09,24.414939,120.870872,0.16048735
467530,阿里山,2013-08-09,23.508208,120.813242,4.5181974e-09
C1E691,南湖,2013-08-09,24.40135,120.837533,0.0014343037
C0FA30,梧棲,2013-08-09,24.256003,120.523381,0.06709962
C1V231,高中,2013-08-09,23.134911,120.716711,0.3077403
C0F9V0,新社,2013-08-09,24.200172,120.815806,0.010352434
C0H890,埔里,2013-08-09,23.972169,120.952425,0.13702644
C0R690,墾丁,2013-08-09,21.966756,120.810269,0.6629749
C0F0D0,審馬陣,2013-08-09,24.381675,121.4203,6.905689e-09
C0R820,白鷺,2013-08-09,22.454275,120.666219,0.9737989
U2H480,臺大溪頭,2013-08-09,23.670306,120.798194,4.222098e-07
C1V190,南天池,2013-08-09,23.27403,120.91176,3.513357e-09
K2E360,苗栗農改場,2013-08-09,24.495722,120.829111,0.038485147
CAJ050,海口故事園區,2013-08-09,23.57543,120.14121,0.7877994
C2H9D0,三隻寮,2013-08-09,24.093078,120.861578,3.296852e-05
C0O990,媽廟,2013-08-09,22.99175,120.293525,0.9976874
C0D480,打鐵坑,2013-08-09,24.849664,121.150789,0.9854181
C0Z220,和平林道,2013-08-09,24.343922,121.656317,0.9265316
C0TA10,花蓮漁港,2013-08-09,23.995322,121.638331,0.9440395
72C440,桃園農改場,2013-08-09,24.950944,121.030583,0.778438
C1E711,馬拉邦山,2013-08-09,24.367306,120.901656,3.534134e-06
C0SB20,富岡,2013-08-09,22.792467,121.192669,0.15469618
C0D560,竹東,2013-08-09,24.767147,121.057881,0.8782239
C0F9U0,南屯,2013-08-09,24.137006,120.637969,0.6359665
C0M720,番路,2013-08-09,23.464657,120.554156,0.83167475
C0F0A0,雪山圈谷,2013-08-09,24.388594,121.236339,1.6487933e-08
C1A9N0,四十份,2013-08-09,24.934158,121.593283,0.98935056
C0U760,東澳,2013-08-09,24.52196,121.83318,0.53187364
C0X230,鹽水,2013-08-09,23.272621,120.247641,0.96246725
C2H9H0,苗改南投蜂場,2013-08-09,23.852589,120.693481,0.40425846
C0R950,萬隆國小,2013-08-09,22.507667,120.587817,0.8285058
C0V370,古亭坑,2013-08-09,22.893178,120.401947,0.9997304
C1I340,新興橋,2013-08-09,23.563333,120.868728,1.06943574e-07
C0SA80,土坂,2013-08-09,22.453108,120.887572,0.95195884
C0R160,鹽埔,2013-08-09,22.739558,120.530778,0.99680394
C0AC40,大屯山,2013-08-09,25.175675,121.522408,8.408755e-06
466850,五分山雷達站,2013-08-09,25.071182,121.781205,0.836689
C2H9L0,馬烈霸,2013-08-09,24.1512,121.201772,3.3161804e-09
C1AI50,國三N016K,2013-08-09,25.034164,121.619664,0.14903823
C1V600,藤枝,2013-08-09,23.071961,120.757042,3.430434e-08
C1E601,南勢,2013-08-09,24.572486,120.734842,0.011867287
C0Z180,新城,2013-08-09,24.03946,121.60454,0.9361989
C0O980,新市,2013-08-09,23.061614,120.298197,0.9957033
C0K420,西螺,2013-08-09,23.800407,120.467394,0.23264238
C0Z050,佳心,2013-08-09,23.34567,121.21316,2.381892e-07
C0AD30,蘆洲,2013-08-09,25.086594,121.472331,0.03465129
C0V610,梓官,2013-08-09,22.760558,120.267211,0.9918829
K2F750,種苗改良場,2013-08-09,24.225972,120.800917,0.09210283
C0UA80,大溪漁港,2013-08-09,24.941801,121.902955,0.95589465
C1AI60,國一39K邊坡,2013-08-09,25.064361,121.383836,0.11135758
C0W150,金寧,2013-08-09,24.457703,118.328989,0.0016625894
C0R960,內埔,2013-08-09,22.608483,120.570714,0.77930045
V2C250,八德合作社,2013-08-09,24.93775,121.266389,0.8457477
C2H9S0,龍南,2013-08-09,23.953536,120.833183,9.250841e-07
C0AH40,平等,2013-08-09,25.129142,121.577086,0.6414164
C0R540,佳冬,2013-08-09,22.419456,120.552375,0.39218894
466950,彭佳嶼,2013-08-09,25.627975,122.079744,0.9683065
C0A890,雙溪,2013-08-09,25.036003,121.864242,0.002229466
C0C480,桃園,2013-08-09,24.992425,121.323172,0.28367487
C0AH50,林口,2013-08-09,25.072181,121.38084,0.14039844
A2K360,水試臺西試驗場,2013-08-09,23.717231,120.190522,0.5175152
B2N890,畜試所,2013-08-09,23.058972,120.336406,0.9967193
C2M960,外寮,2013-08-09,23.562643,120.665688,8.05662e-08
C0F9S0,烏日,2013-08-09,24.107058,120.624103,0.051538035
C0C490,八德,2013-08-09,24.928708,121.283289,0.97192675
C0R190,赤山,2013-08-09,22.592333,120.614306,0.79838717
C0T820,天祥,2013-08-09,24.179597,121.495639,0.8421497
C1F9E1,龍安,2013-08-09,24.1605,120.831961,0.003947227
C0V820,小林,2013-08-09,23.148408,120.63325,0.8718564
C2G870,芳苑,2013-08-09,23.922303,120.320025,0.659934
C0E850,大河,2013-08-09,24.618069,120.948578,0.06993736
C1U670,寒溪,2013-08-09,24.634,121.71691,0.17403293
C0N020,城西,2013-08-09,23.0568,120.0956,0.79209524
C1Z110,三棧,2013-08-09,24.11557,121.60501,0.012933567
C0R280,檳榔,2013-08-09,22.076078,120.836777,0.6361121
C2H9J0,中台,2013-08-09,23.9996,120.938739,0.0077066044
C0F9L0,后里,2013-08-09,24.310436,120.729725,0.21094637
C0D540,橫山,2013-08-09,24.71116,121.11693,0.48691574
C1D420,太閣南,2013-08-09,24.632808,121.160575,8.7867065e-09
C1E770,公館,2013-08-09,24.526914,120.830806,0.0033642743
CAN130,水試所海水繁養殖中心,2013-08-09,23.120802,120.07968,0.75436413
C1I430,翠華,2013-08-09,24.191961,121.224339,4.4274624e-09
C1M400,菜瓜坪,2013-08-09,23.251928,120.576103,0.93889517
C0G730,二林,2013-08-09,23.903325,120.376081,0.4209084
72M360,南改義竹分場,2013-08-09,23.360694,120.279361,0.99642783
V2K620,麥寮合作社,2013-08-09,23.753836,120.294783,0.9590395
C0Z070,舞鶴,2013-08-09,23.46811,121.37407,0.15706092
C0B040,大武崙,2013-08-09,25.166676,121.706993,0.0022072606
C1Z030,紅葉,2013-08-09,23.493119,121.338806,0.072476745
C1I050,丹大,2013-08-09,23.753747,121.141147,5.2989986e-09
C0I080,信義,2013-08-09,23.689694,120.851036,0.0010656057
C2M920,朴子農改,2013-08-09,23.469889,120.259383,0.98392665
C2A880,福隆,2013-08-09,25.017842,121.942083,0.01700509
C0Z160,鳳林,2013-08-09,23.746114,121.453411,0.16619384
C0V210,復興,2013-08-09,23.222403,120.806089,0.958369
C0H990,昆陽,2013-08-09,24.121322,121.273642,5.639399e-09
C0R741,獅子,2013-08-09,22.202308,120.705236,0.051639512
C0S710,鹿野,2013-08-09,22.917711,121.122994,0.5192048
C0I530,小奇萊,2013-08-09,24.131764,121.295717,8.0034095e-09
C2K630,荷苞,2013-08-09,23.657717,120.595144,0.46347836
C0Z080,富源,2013-08-09,23.587642,121.378225,0.14982697
467441,高雄,2013-08-09,22.7304,120.3125,0.54274136
C0SB10,美和,2013-08-09,22.682078,121.060236,0.11087639
C2K620,馬光農場,2013-08-09,23.721453,120.378864,0.66326135
C1I140,卡奈托灣,2013-08-09,23.754364,121.087872,1.6929262e-08
C0I520,玉山風口,2013-08-09,23.470489,120.955994,1.37051845e-08
C1G691,下水埔,2013-08-09,23.816114,120.5676,0.36811134
C0X110,臺南市南區,2013-08-09,22.961189,120.188378,0.9918139
C0V680,仁武,2013-08-09,22.701083,120.347722,0.5607025
C2G840,北斗,2013-08-09,23.877586,120.514222,0.09197273
C0R900,竹坑,2013-08-09,22.1385,120.7022,0.03270468
C0K250,崙背,2013-08-09,23.75555,120.318925,0.9613262
C0G860,社頭,2013-08-09,23.897647,120.5862,0.10241858
C0X150,安定,2013-08-09,23.102614,120.227839,0.97352576
C0R590,里港,2013-08-09,22.77919,120.49459,0.9984262
C0E610,馬都安,2013-08-09,24.451272,120.930192,0.0017145093
C0E550,明德,2013-08-09,24.583486,120.885411,0.05446258
C0R150,三地門,2013-08-09,22.709889,120.639944,0.99583304
C0G910,花壇,2013-08-09,24.032076,120.549461,0.1309241
C1D400,鳥嘴山,2013-08-09,24.71909,121.28387,0.12722455
C0K500,元長,2013-08-09,23.64981,120.315024,0.96911585
C0F0B0,石岡,2013-08-09,24.276061,120.777644,0.9058237
C2V250,甲仙,2013-08-09,23.080106,120.591758,0.9575724
C0SA20,金崙山,2013-08-09,22.567419,120.959667,0.18883924
C0V350,溪埔,2013-08-09,22.738578,120.446797,0.99492246
C0M660,溪口,2013-08-09,23.604131,120.403569,0.9908118
C1S880,壽卡,2013-08-09,22.238911,120.858903,0.45959142
72D680,桃改新埔分場,2013-08-09,24.834444,121.066111,0.58853805
