站號,站名,日期,lat,lon,BLBTSLS
C0R710,龍磐,2013-05-04,21.931672,120.838942,0.647302
C1F9D1,白毛台,2013-05-04,24.158325,120.886933,1.1626776e-09
C0G940,竹塘,2013-05-04,23.848253,120.386764,4.2614157e-09
467590,恆春,2013-05-04,22.003897,120.746339,0.19611421
C1O850,環湖,2013-05-04,23.148617,120.418633,3.30038e-09
C0U710,太平山,2013-05-04,24.505486,121.525656,8.472687e-09
C0E820,獅潭,2013-05-04,24.539133,120.920042,4.483071e-09
C0V880,興達,2013-05-04,22.8778,120.2127,5.0374556e-08
C0S890,關山,2013-05-04,23.0395,121.175017,0.01977018
C0SB30,新蘭,2013-05-04,22.869214,121.223228,0.17252356
C2R970,屏科大,2013-05-04,22.648275,120.619247,3.4965904e-09
K2F750,種苗繁殖,2013-05-04,24.225972,120.800917,1.2487517e-09
C1Z130,銅門,2013-05-04,23.965694,121.492842,1.710041e-07
C0AD40,土城,2013-05-04,24.973208,121.445169,1.8294006e-08
CAN140,六官養殖協會,2013-05-04,23.22881,120.29962,2.424459e-08
C0X180,山上,2013-05-04,23.0757,120.363253,5.036646e-09
C0F9Z0,雪山東峰,2013-05-04,24.388792,121.268675,1.6002613e-08
C1M480,獨立山,2013-05-04,23.537022,120.607797,2.009034e-09
C0X220,學甲,2013-05-04,23.230367,120.182187,1.02206776e-07
467650,日月潭,2013-05-04,23.881325,120.90805,2.5775064e-09
C0K600,箔子寮,2013-05-04,23.6197,120.14,2.1066556e-08
C0G830,埤頭,2013-05-04,23.866003,120.452806,6.135373e-09
C0S950,七塊厝,2013-05-04,22.954453,121.229922,9.043782e-08
467110,金門,2013-05-04,24.407306,118.289281,5.4025224e-09
C0AH80,深坑,2013-05-04,25.002703,121.628328,1.2826249e-08
467990,馬祖,2013-05-04,26.169269,119.923419,8.804993e-09
C0A970,三貂角,2013-05-04,25.007606,122.002058,0.0018363137
C2D730,寶山農場,2013-05-04,24.732444,120.976153,9.915937e-08
C0K430,褒忠,2013-05-04,23.690938,120.303634,5.989019e-09
467480,嘉義,2013-05-04,23.495925,120.432906,2.9920875e-09
C2E540,後龍,2013-05-04,24.606489,120.783933,1.1118905e-08
C0V400,阿公店,2013-05-04,22.804194,120.355528,1.6309017e-09
C0R440,大漢山,2013-05-04,22.405264,120.753181,3.97925e-09
C0K280,四湖,2013-05-04,23.630414,120.227125,8.491746e-09
C1F9B1,桐林,2013-05-04,24.066172,120.735194,2.8861524e-09
C2H9U0,鳳鵬,2013-05-04,23.763919,120.788061,2.258852e-09
C0K390,土庫,2013-05-04,23.679029,120.395574,2.8312417e-09
C1I450,望鄉山,2013-05-04,23.594153,120.944286,1.1614524e-08
C0E910,海埔,2013-05-04,24.648767,120.772435,9.42534e-09
B2E890,畜試北區分所,2013-05-04,24.527806,120.770972,8.259559e-09
C0R750,四林格山,2013-05-04,22.076989,120.802439,0.98244804
C0F0C0,中坑,2013-05-04,24.248517,120.903319,1.1498336e-09
C1I121,大鞍,2013-05-04,23.678381,120.760017,4.4380983e-09
72U480,花改蘭陽分場,2013-05-04,24.686306,121.716583,0.13066585
C0A770,科教館,2013-05-04,25.096356,121.516507,1.9130532e-08
C0AJ60,六塊厝,2013-05-04,25.24,121.4481,4.7732897e-08
C0R620,墾雷,2013-05-04,21.900836,120.855269,0.21837643
467420,永康,2013-05-04,23.038386,120.2367,3.6463327e-08
467300,東吉島,2013-05-04,23.25695,119.667467,0.13263634
C0I410,名間,2013-05-04,23.837053,120.701447,2.5548739e-09
A2C560,農工中心,2013-05-04,24.985917,121.239833,4.8633675e-09
C0V740,旗山,2013-05-04,22.888614,120.483597,1.4356063e-08
C0Z061,玉里,2013-05-04,23.3215,121.339656,1.5566686e-06
C0S840,南田,2013-05-04,22.279725,120.889208,0.11160476
C1I470,杉林溪,2013-05-04,23.639517,120.786444,4.498729e-09
C1X040,東原,2013-05-04,23.291597,120.463822,3.5984098e-09
C0R660,枋寮,2013-05-04,22.367722,120.590647,1.938168e-05
C1R120,上德文,2013-05-04,22.763272,120.704442,7.731144e-09
C0K450,大埤,2013-05-04,23.646074,120.431537,2.5520004e-09
C0UA00,土場,2013-05-04,24.576533,121.495333,4.991842e-08
467080,宜蘭,2013-05-04,24.763975,121.756528,9.143746e-07
C0N030,四草,2013-05-04,23.0235,120.1116,6.6381244e-07
C0V650,彌陀,2013-05-04,22.783806,120.246361,8.412591e-09
C0D660,新竹市東區,2013-05-04,24.798681,120.986942,2.5631431e-08
82S580,茶改東部分場,2013-05-04,22.907694,121.130139,6.3393463e-07
C0SB40,興隆,2013-05-04,22.913661,121.257469,5.081338e-06
C0C710,大溪永福,2013-05-04,24.892936,121.324975,4.5354227e-09
C0FA20,溫寮,2013-05-04,24.372177,120.583125,1.8735768e-08
C0V640,湖內,2013-05-04,22.887139,120.2445,4.107572e-08
C0R910,下寮,2013-05-04,22.3929,120.5548,6.3886428e-06
C0Z020,明里,2013-05-04,23.208717,121.262342,1.8754669e-07
C0M770,嘉義梅山,2013-05-04,23.585398,120.555587,2.2592959e-09
G2F820,農業試驗所,2013-05-04,24.031261,120.688133,2.7187204e-09
C0C660,楊梅,2013-05-04,24.912375,121.143047,3.796462e-09
C1E511,新開,2013-05-04,24.347703,120.827019,1.9467954e-09
G2F820,農試所(霧峰),2013-05-04,24.031261,120.688133,2.7187204e-09
C1I070,和社,2013-05-04,23.591131,120.888861,2.5872193e-09
C2F000,大肚,2013-05-04,24.15295,120.572117,3.86344e-09
C1S850,豐南,2013-05-04,23.122139,121.262389,7.6782584e-08
C2A920,富貴角,2013-05-04,25.263783,121.565258,3.1681796e-07
CAH030,茶改場竹圍站,2013-05-04,23.860083,120.637528,2.0255906e-09
C0T960,光復,2013-05-04,23.660694,121.424964,3.8818966e-06
C0F9M0,豐原,2013-05-04,24.254322,120.720692,2.709635e-09
C0R720,旭海,2013-05-04,22.205403,120.887614,0.9011769
C0V710,苓雅,2013-05-04,22.622742,120.330669,4.796075e-09
C0C740,觀音工業區,2013-05-04,25.064764,121.114856,2.3506148e-08
CAC040,拉拉山,2013-05-04,24.699317,121.427133,6.3592105e-09
C0V790,萬山,2013-05-04,22.905944,120.688056,1.9360347e-09
U2HA30,臺大和社,2013-05-04,23.590856,120.888864,2.5872193e-09
C0AJ90,澳底,2013-05-04,25.0552,121.9253,0.011397661
C0Z100,東華,2013-05-04,23.89525,121.549833,2.4484661e-05
C0G970,三豐,2013-05-04,23.882,120.2895,7.79379e-08
V2K610,大庄合作社,2013-05-04,23.8068,120.367939,4.5840998e-09
C0V900,汕尾,2013-05-04,22.4782,120.4151,3.7652654e-09
C1R630,龍泉,2013-05-04,22.66701,120.59091,2.0519055e-08
C1AC50,關渡,2013-05-04,25.133486,121.469331,1.9490962e-08
C0F9I0,神岡,2013-05-04,24.272481,120.658314,2.9681009e-09
C0K460,斗南,2013-05-04,23.678734,120.478359,2.57558e-09
467410,臺南,2013-05-04,22.993239,120.204772,3.1277917e-08
C2O810,曾文,2013-05-04,23.219681,120.497328,2.6027906e-09
467280,後龍,2013-05-04,24.648563,120.831834,8.050872e-09
C1F9J1,清水林,2013-05-04,24.071242,120.820419,1.4396886e-09
C2A650,火燒寮,2013-05-04,25.002719,121.742892,1.9057385e-06
466930,竹子湖,2013-05-04,25.162078,121.544547,5.413312e-09
C1I220,樟湖,2013-05-04,23.905333,120.846983,3.3109977e-09
C0I390,仁愛,2013-05-04,24.022122,121.132206,1.893659e-09
C0Z300,東里,2013-05-04,23.26853,121.30547,1.225647e-06
C1V590,新發,2013-05-04,23.057019,120.646064,1.3128537e-08
C0K510,水林,2013-05-04,23.572924,120.24597,1.7715474e-08
72S590,東改賓朗果園,2013-05-04,22.813889,121.071278,0.014553382
82A750,茶改北部分場,2013-05-04,24.955778,121.631222,6.416584e-09
C1A750,石碇服務區,2013-05-04,25.00872,121.646242,1.1840167e-08
C0X300,鹿寮,2013-05-04,23.386047,120.477331,2.7785625e-09
G2AI50,關渡,2013-05-04,25.11575,121.492,2.0576707e-08
C0K590,雲林東勢,2013-05-04,23.674192,120.255721,5.989019e-09
C0A570,桶後,2013-05-04,24.848222,121.597992,1.5576763e-08
C1S800,華源,2013-05-04,22.657883,121.02325,0.27560106
C0G720,溪州,2013-05-04,23.851589,120.499093,5.4943134e-09
C1V160,達卡努瓦,2013-05-04,23.279811,120.705319,5.329376e-09
C2M410,馬頭山,2013-05-04,23.324361,120.582017,3.730965e-09
C0V850,蚵仔寮,2013-05-04,22.7256,120.2527,6.567108e-09
C0S740,池上,2013-05-04,23.119628,121.209469,2.2643881e-07
C1V390,尖山,2013-05-04,22.813153,120.367789,1.3929449e-09
C0AH70,松山,2013-05-04,25.04871,121.55042,1.5342055e-08
C0N010,鯤鯓國小,2013-05-04,23.1879,120.0889,4.8187992e-08
C0R550,新埤,2013-05-04,22.467947,120.582894,2.8242747e-08
C0SA60,知本（水試所）,2013-05-04,22.702394,121.082761,0.2712248
C0T9I0,豐濱,2013-05-04,23.583897,121.514806,3.091829e-06
C0UB00,淡江大學蘭陽校園,2013-05-04,24.823239,121.730383,2.0421446e-08
C0W240,九宮,2013-05-04,24.423753,118.240186,2.5424933e-08
C0T9N0,富里,2013-05-04,23.171639,121.249378,2.171376e-07
U2HA50,臺大竹山,2013-05-04,23.756972,120.681556,2.2307138e-09
C0V840,鳳鼻頭,2013-05-04,22.5083,120.3591,5.903415e-09
C0X140,西港,2013-05-04,23.125608,120.203108,3.0883112e-07
72D080,桃改五峰分場,2013-05-04,24.612194,121.157167,4.1601442e-09
C2H9P0,伊拿谷,2013-05-04,23.963211,121.088264,1.6452143e-09
C2H9F0,柑林,2013-05-04,24.018658,120.847072,2.259408e-09
C0TA20,加灣,2013-05-04,24.082025,121.608944,8.6101113e-07
C0V530,阿蓮,2013-05-04,22.883208,120.327508,1.5794622e-08
C1O880,關山,2013-05-04,23.173397,120.594092,2.875811e-09
C0E791,卓蘭,2013-05-04,24.3126,120.8244,1.9121038e-09
C1I030,武界,2013-05-04,23.913225,121.052483,1.9900566e-09
C0R520,崁頂,2013-05-04,22.514781,120.506914,5.4488683e-06
C0R341,牡丹,2013-05-04,22.130036,120.792639,0.0012226682
C0R930,萬丹,2013-05-04,22.5885,120.4851,3.1483577e-08
C0S760,紅石,2013-05-04,23.069131,121.126219,7.74134e-09
C1M610,石磐龍,2013-05-04,23.496606,120.663506,2.8183378e-09
C0UA10,鴛鴦湖,2013-05-04,24.590269,121.412228,7.91062e-09
V2C260,八德蔬果,2013-05-04,24.978508,121.281819,3.093556e-09
C0R800,丹路,2013-05-04,22.204481,120.750989,0.010009086
C0G920,永靖,2013-05-04,23.924703,120.547533,6.0265126e-09
C2M950,太和,2013-05-04,23.538372,120.702961,3.2651912e-09
C1A630,下盆,2013-05-04,24.771003,121.538622,2.9415293e-08
B2N890,畜產試驗所,2013-05-04,23.058972,120.336406,5.378402e-09
C0UA30,白嶺,2013-05-04,24.527819,121.519031,9.005016e-09
C1V580,溪南(特生中心),2013-05-04,23.084972,120.788475,5.806218e-09
C1T970,大農,2013-05-04,23.615233,121.413331,1.6036979e-06
E2S960,林試太麻里2,2013-05-04,22.598014,120.989761,0.16577236
C0R650,竹田,2013-05-04,22.58486,120.54344,3.1483577e-08
C1H900,清流,2013-05-04,24.080775,120.962997,1.2713619e-09
C1C510,水尾,2013-05-04,24.940081,121.087161,4.6050794e-09
C0F9X0,大雅(中科園區),2013-05-04,24.21528,120.62445,6.7261645e-09
C0SB60,白守蓮,2013-05-04,23.126769,121.401914,0.6814972
C0O970,虎頭埤,2013-05-04,23.021375,120.347878,3.4588496e-08
C0C730,中大臨海站,2013-05-04,24.966126,121.008581,3.1615878e-07
C0X250,新營,2013-05-04,23.310689,120.316681,2.1554744e-08
C0V700,三民,2013-05-04,22.645017,120.311233,4.796075e-09
C0U870,大礁溪,2013-05-04,24.791042,121.675047,8.446097e-09
C0E870,高鐵苗栗,2013-05-04,24.60725,120.826094,1.0515327e-08
A2K570,古坑花卉中心,2013-05-04,23.63353,120.55239,2.930194e-09
C0M860,新美,2013-05-04,23.338017,120.683169,2.1360087e-09
C1E701,八卦,2013-05-04,24.491756,120.927619,3.1148175e-09
C0I420,國姓,2013-05-04,24.037803,120.855072,1.7932564e-09
C2D720,關西工作站,2013-05-04,24.757275,121.184792,3.2997192e-09
C0S960,香蘭,2013-05-04,22.587569,120.993375,0.16577236
C0R260,春日,2013-05-04,22.370361,120.628306,0.0009673293
72G600,臺中農改場,2013-05-04,24.003028,120.534389,2.2825436e-08
C0Z210,瑞穗,2013-05-04,23.5239,121.39021,4.40622e-06
C0M820,達邦,2013-05-04,23.453994,120.749517,2.2828082e-09
C0V860,南寮,2013-05-04,22.7616,120.2339,9.320312e-09
C0G740,大城,2013-05-04,23.852487,120.320935,5.892371e-08
C0R920,塭仔,2013-05-04,22.4169,120.5197,1.164906e-05
C0R470,高樹,2013-05-04,22.826389,120.600806,6.3750587e-09
C0R680,佳樂水,2013-05-04,21.993578,120.861633,0.18224826
C1O870,大棟山,2013-05-04,23.31157,120.52226,3.2685685e-09
C0D360,梅花,2013-05-04,24.678347,121.208558,3.6716643e-09
C0Z190,富世,2013-05-04,24.14743,121.6297,3.7443588e-06
C0AI10,屈尺,2013-05-04,24.92184,121.54475,1.2826249e-08
B2U990,畜試東區分所,2013-05-04,24.669039,121.832561,0.42157844
C0SB80,長濱漁港,2013-05-04,23.313644,121.459994,1.8685841e-05
C0R240,來義,2013-05-04,22.527306,120.625111,0.00038307664
C0V910,大樹,2013-05-04,22.684645,120.432803,1.8929078e-09
C1R610,西大武山,2013-05-04,22.617719,120.7322,5.371984e-09
C0G900,線西,2013-05-04,24.143358,120.443536,2.1976478e-08
C0M700,竹崎,2013-05-04,23.526178,120.555508,2.4237228e-09
C2E880,三義,2013-05-04,24.405478,120.749819,1.2530678e-09
C0C720,竹圍,2013-05-04,25.112692,121.239824,4.164751e-08
C0F9P0,清水,2013-05-04,24.312297,120.562242,2.992991e-08
C0Z150,吉安光華,2013-05-04,23.930925,121.595153,4.2423195e-05
C1D640,外坪(五指山),2013-05-04,24.644447,121.090961,6.257421e-09
C0F9O0,潭子,2013-05-04,24.213106,120.703933,2.3455484e-09
C2H9R0,卓社,2013-05-04,23.887894,121.000086,1.950542e-09
72T250,花蓮農改場,2013-05-04,23.975222,121.563889,6.984502e-07
C0E780,銅鑼,2013-05-04,24.489681,120.790853,4.483259e-09
C1T950,太安,2013-05-04,23.666719,121.370128,1.4804995e-08
C0E830,苑裡,2013-05-04,24.439714,120.653053,1.4965348e-08
467270,田中,2013-05-04,23.873803,120.581286,3.4767724e-09
C0SA10,檳榔四格山,2013-05-04,22.810031,121.109308,0.00065334246
C1T830,布洛灣,2013-05-04,24.17184,121.57127,5.84359e-06
C0F970,大坑,2013-05-04,24.173142,120.722289,3.1590206e-09
C1U920,思源,2013-05-04,24.393125,121.347214,7.0392865e-09
C0A931,三和,2013-05-04,25.233153,121.595236,5.3769513e-06
C0I010,廬山,2013-05-04,24.033311,121.181808,3.663948e-09
C2M940,日野賀,2013-05-04,23.434056,120.727169,3.176476e-09
C0R860,鼻頭,2013-05-04,22.1043,120.8979,0.17123827
C0UB20,壯圍,2013-05-04,24.7359,121.8163,0.42157844
C0R790,九棚,2013-05-04,22.14195,120.889281,0.7985439
C0W110,東莒,2013-05-04,25.9652,119.98069,5.115291e-08
C1U930,粉鳥林,2013-05-04,24.497088,121.842479,0.00012433392
C1I211,蘆竹湳,2013-05-04,23.934019,120.811994,2.0449187e-09
C0S830,長濱,2013-05-04,23.286817,121.411975,1.4544437e-07
C1F9F1,伯公龍,2013-05-04,24.272392,120.849047,1.2653768e-09
C0E810,西湖,2013-05-04,24.562947,120.7485,9.662096e-09
C1I440,新高口,2013-05-04,23.478744,120.878939,7.672034e-09
C0O840,王爺宮,2013-05-04,23.222064,120.40085,2.6027906e-09
C0T9G0,鳳林山,2013-05-04,23.735269,121.420131,1.5387295e-07
C0X080,佳里,2013-05-04,23.173039,120.145086,1.2935905e-07
C0FB70,大甲溪埔,2013-05-04,24.370625,120.620067,1.4206601e-08
C0Z310,清水斷崖,2013-05-04,24.218294,121.689142,0.0617742
C0M680,太保,2013-05-04,23.455062,120.331455,8.616838e-09
C1S820,金峰,2013-05-04,22.590969,120.933236,0.034309804
C0AD10,八里,2013-05-04,25.150211,121.403947,4.164751e-08
C2K240,草嶺,2013-05-04,23.59555,120.693461,2.808009e-09
C1SA70,都蘭,2013-05-04,22.87794,121.226881,5.081338e-06
C0K440,二崙,2013-05-04,23.772797,120.408944,4.059723e-09
C1A760,坪林交控,2013-05-04,24.94284,121.713442,3.3290917e-08
C0F9N0,大里,2013-05-04,24.092464,120.701378,9.789107e-09
C0SA90,達仁林場,2013-05-04,22.264347,120.823972,0.20302618
C1R290,石門山,2013-05-04,22.112611,120.756597,0.5575879
42HA10,萬大發電廠,2013-05-04,23.978875,121.139639,4.4207202e-09
C0R890,山海,2013-05-04,21.9878,120.7091,0.1614871
C0T9A0,月眉山,2013-05-04,23.809928,121.539828,1.01800545e-07
C0AC70,信義,2013-05-04,25.037822,121.564597,1.5342055e-08
C0K560,棋山,2013-05-04,23.68645,120.603417,2.779946e-09
C2FB50,出雲,2013-05-04,24.206469,120.902794,1.7962141e-09
C1Z240,中平林道,2013-05-04,23.42115,121.26763,1.7083662e-08
U2H480,溪頭,2013-05-04,23.670306,120.798194,3.7328722e-09
C0M880,好美里,2013-05-04,23.3364,120.138,1.2935905e-07
C0T9E0,大坑,2013-05-04,23.880628,121.581981,1.7127422e-07
C0K530,臺西,2013-05-04,23.701547,120.197559,9.400438e-09
C1E900,國一N128K,2013-05-04,24.560997,120.844186,8.662501e-09
C0AJ50,水湳洞,2013-05-04,25.123695,121.862238,0.00014579833
C0AI20,白沙灣,2013-05-04,25.283128,121.519058,3.3671085e-06
C0A860,大坪,2013-05-04,25.165914,121.632969,7.997809e-09
C1U850,觀音海岸,2013-05-04,24.38319,121.77856,4.0052324e-08
C2K610,草嶺石壁,2013-05-04,23.602469,120.707731,2.8763814e-09
C0U950,鶯子嶺,2013-05-04,24.89754,121.79244,5.8121237e-09
C0O900,善化,2013-05-04,23.112883,120.297219,6.599794e-09
C0K550,蔦松,2013-05-04,23.514319,120.229736,1.41441445e-08
E2P980,林試六龜中心,2013-05-04,22.991703,120.645722,3.5569552e-09
C0E590,通霄,2013-05-04,24.471892,120.704622,9.9377075e-09
C1I310,西巒,2013-05-04,23.754486,120.883956,3.1948502e-09
C0A550,泰平,2013-05-04,24.971197,121.823711,7.283549e-08
C0I360,水里,2013-05-04,23.812553,120.849792,2.1517848e-09
C0R830,高士,2013-05-04,22.121825,120.836781,0.83064157
C1I101,溪頭,2013-05-04,23.661789,120.807647,5.5781544e-09
C0AJ20,野柳,2013-05-04,25.20703,121.690021,0.00014579833
C0B060,暖暖,2013-05-04,25.0957,121.7403,1.9440955e-05
C1H920,長豐,2013-05-04,24.102039,120.879897,1.4454447e-09
C0V360,內門,2013-05-04,22.975481,120.466769,8.425856e-09
C0R850,林邊,2013-05-04,22.4634,120.5339,5.4395746e-06
C0E930,龍鳳,2013-05-04,24.700034,120.859125,6.4788117e-09
C0U910,冬山,2013-05-04,24.63373,121.7937,0.42157844
C1E721,泰安,2013-05-04,24.489017,120.968036,2.3733011e-09
82H320,茶改中部分場,2013-05-04,23.875611,120.913583,2.5583458e-09
C0M750,布袋,2013-05-04,23.380878,120.167789,1.7568595e-08
C1S860,利嘉,2013-05-04,22.809417,121.050528,4.707091e-08
72C440,桃園農改,2013-05-04,24.950944,121.030583,1.3907561e-07
E2S980,林試太麻里1,2013-05-04,22.598922,120.980044,0.07250984
C0X170,關廟,2013-05-04,22.963017,120.327797,7.870331e-09
C0V720,林園,2013-05-04,22.507747,120.394511,5.0898192e-09
C1I510,線浸林道,2013-05-04,23.761508,120.832956,3.5082008e-09
C0D690,外湖,2013-05-04,24.917735,120.968711,3.169207e-07
C0C750,新興坑尾,2013-05-04,25.0061,121.0971,1.3059332e-08
B2Q810,畜試南區分所,2013-05-04,21.945583,120.802167,0.18224826
C0S790,金崙,2013-05-04,22.538122,120.966875,0.028398283
C0AH90,福山植物園,2013-05-04,24.760717,121.58135,4.0865955e-09
C0I540,奇萊稜線,2013-05-04,24.109231,121.326456,1.5495806e-08
C0M850,表湖,2013-05-04,23.24186,120.64166,2.3897764e-09
C0S770,大溪山,2013-05-04,22.478475,120.943325,3.4772158e-05
C0AG80,中和,2013-05-04,24.991622,121.491792,1.5342055e-08
C0T790,大禹嶺,2013-05-04,24.186117,121.316086,1.03318465e-08
C0T9B0,水源,2013-05-04,23.991861,121.537169,7.1735144e-08
C0R840,牡丹池山,2013-05-04,22.168389,120.841225,0.259207
C1I131,桶頭,2013-05-04,23.641944,120.654117,1.6018636e-09
CAL110,布袋國中,2013-05-04,23.35893,120.18026,4.2337504e-08
467571,新竹,2013-05-04,24.827853,121.014219,2.9971556e-08
C0Z290,赤柯山,2013-05-04,23.36893,121.38293,3.2195718e-08
C0X280,將軍,2013-05-04,23.214999,120.13577,1.2935905e-07
C0S690,太麻里,2013-05-04,22.60902,120.98533,1.3784063e-06
C0U880,北關,2013-05-04,24.9072,121.8734,3.4128723e-07
C1H860,瑞岩,2013-05-04,24.123772,121.18345,3.6019119e-09
C0G810,埔心,2013-05-04,23.947633,120.525456,6.5102013e-09
C0U970,大福,2013-05-04,24.80064,121.81389,1.1542209e-06
C2H9N0,仁愛東眼,2013-05-04,24.026875,121.1205,2.7225397e-09
C1E670,南礦,2013-05-04,24.538278,121.002836,3.4013026e-09
C0M520,東後寮,2013-05-04,23.369908,120.248065,3.902353e-08
C1E461,松安,2013-05-04,24.397972,120.986022,2.2764295e-09
72G600,臺中農改,2013-05-04,24.003028,120.534389,2.2825436e-08
C2N160,西拉雅風管處,2013-05-04,23.189481,120.335297,1.9237412e-08
C2M970,碧湖,2013-05-04,23.568632,120.624165,2.7162481e-09
C0A640,石碇,2013-05-04,24.993969,121.662917,5.4899706e-06
E2S960,林試太麻里2,2013-05-04,22.598,120.99775,0.1885225
C0F9Y0,桃山,2013-05-04,24.432739,121.303808,1.738854e-08
C1I020,萬大,2013-05-04,23.979817,121.132261,1.9116917e-09
C0U940,羅東,2013-05-04,24.68184,121.74934,0.29919833
C0M650,朴子,2013-05-04,23.43463,120.23902,1.6209446e-08
C1I500,大尖山,2013-05-04,23.858572,120.994889,6.005262e-09
C0G820,田尾,2013-05-04,23.901669,120.509389,6.0265126e-09
E2K600,四湖植物園,2013-05-04,23.676986,120.163433,9.400438e-09
C0S730,綠島,2013-05-04,22.6672,121.47533,0.20074642
12Q970,東港工作站,2013-05-04,22.479997,120.466058,6.3886428e-06
C0E430,南庄,2013-05-04,24.601775,121.000214,4.3196984e-09
C1TA00,太魯閣,2013-05-04,24.15773,121.6236,0.08968206
466920,臺北,2013-05-04,25.037658,121.514853,1.5342055e-08
C0R600,舊泰武,2013-05-04,22.588194,120.664944,9.843403e-09
C1I260,北坑,2013-05-04,23.9246,121.006903,1.6064471e-09
466910,鞍部,2013-05-04,25.182586,121.529731,5.3530824e-09
C1I230,九份二山,2013-05-04,23.961944,120.845,1.500753e-09
C2A660,瑞芳,2013-05-04,25.113169,121.801147,0.0010984313
C0R270,琉球嶼,2013-05-04,22.332244,120.362236,0.0009673293
C1T990,高寮,2013-05-04,23.394239,121.356808,5.036091e-06
C0G620,芬園,2013-05-04,24.015678,120.6213,4.8311657e-09
C1Z140,荖溪,2013-05-04,23.890575,121.45964,1.2352801e-08
C1I201,中心崙,2013-05-04,23.728722,120.712097,1.9437976e-09
C1I400,凌霄,2013-05-04,24.018778,121.004456,2.661573e-09
C1M640,十字,2013-05-04,23.492153,120.753683,4.61249e-09
G2P820,農試鳳山分所,2013-05-04,22.646611,120.356083,3.8049723e-09
C0Z270,蕃薯寮,2013-05-04,23.73835,121.540108,1.675284e-06
C0F9Q0,外埔,2013-05-04,24.347817,120.705686,3.3958574e-09
C0K580,高鐵雲林,2013-05-04,23.737456,120.417944,2.8312417e-09
C2I090,鳳凰,2013-05-04,23.728081,120.787347,2.5352527e-09
C0U990,員山,2013-05-04,24.74435,121.72247,0.29919833
C0V770,大社,2013-05-04,22.730306,120.346639,5.1583693e-09
C0X120,麻豆,2013-05-04,23.183289,120.248611,1.02206776e-07
C0C670,龍潭,2013-05-04,24.870056,121.221389,1.2313253e-09
C0D680,香山濕地,2013-05-04,24.783581,120.914988,2.5045046e-07
C0S980,勝林山,2013-05-04,22.430439,120.8938,1.7598678e-08
C0V730,大寮,2013-05-04,22.605614,120.395717,8.855152e-08
C0R570,麟洛,2013-05-04,22.65078,120.52719,1.0323411e-09
C2M930,石卓,2013-05-04,23.478744,120.702264,4.5587005e-09
C0G9B0,和美,2013-05-04,24.105169,120.492131,6.147195e-08
CAG100,王功漁港,2013-05-04,23.96824,120.32586,3.846428e-08
C0X290,北門,2013-05-04,23.267772,120.125481,1.2935892e-07
C2F930,大甲,2013-05-04,24.347667,120.640403,1.3247086e-08
C0D650,湖口,2013-05-04,24.904794,121.043628,6.5532596e-08
C0E420,竹南,2013-05-04,24.708978,120.888897,1.697988e-07
C0U780,五結,2013-05-04,24.68637,121.79794,0.42157844
C1I250,鯉潭,2013-05-04,23.961922,120.991131,1.4454447e-09
C0R130,阿禮,2013-05-04,22.742908,120.743678,9.0524893e-10
C0X100,臺南市北區,2013-05-04,23.010394,120.194228,4.2668344e-08
C0S920,金峰嘉蘭,2013-05-04,22.594789,120.960825,0.06584147
C0V490,新興,2013-05-04,22.627422,120.298803,5.0898192e-09
C0F9K0,大安,2013-05-04,24.345061,120.588025,2.4947965e-08
72N100,臺南農改,2013-05-04,23.0605,120.342194,5.378402e-09
467290,古坑,2013-05-04,23.633639,120.551889,2.930194e-09
C2E970,八甲,2013-05-04,24.535811,120.795983,4.364528e-09
C0V440,鳳山,2013-05-04,22.646653,120.356122,3.8049723e-09
C1T940,大觀,2013-05-04,23.714206,121.373133,2.5727417e-07
72T250,花蓮農改,2013-05-04,23.975222,121.563889,6.984502e-07
C0E740,造橋,2013-05-04,24.637056,120.864778,5.6491745e-09
C0R100,尾寮山,2013-05-04,22.833111,120.683889,1.2148021e-09
A2K630,臺大雲林校區,2013-05-04,23.730628,120.423903,2.8312417e-09
C0D580,寶山,2013-05-04,24.735006,121.025192,8.274776e-09
E2P990,林試扇平站,2013-05-04,22.9677,120.6857,8.8656265e-09
C0AI30,三重,2013-05-04,25.057328,121.500629,1.9130532e-08
C0AH00,汐止,2013-05-04,25.066881,121.658778,0.00014579833
C1Z040,立山,2013-05-04,23.443356,121.327375,2.0756794e-07
C0W130,花嶼,2013-05-04,23.40007,119.32276,0.9904064
C0A950,鼻頭角,2013-05-04,25.129036,121.923372,0.016930273
C0K470,林內,2013-05-04,23.748675,120.609642,2.5600053e-09
C2F990,摩天嶺,2013-05-04,24.322458,120.936819,1.1921332e-09
82C160,茶改場,2013-05-04,24.908472,121.185333,3.0079548e-09
C0Z320,清水林道,2013-05-04,23.27125,121.188272,4.4861608e-08
C0R760,南仁湖,2013-05-04,22.084681,120.863353,0.5956806
C0M670,大林,2013-05-04,23.600616,120.45841,4.5037085e-09
C0M800,茶山,2013-05-04,23.299075,120.664767,4.2266888e-09
C0A9C0,天母,2013-05-04,25.117494,121.537169,1.716486e-08
72K220,南改斗南分場,2013-05-04,23.634556,120.477333,3.2391942e-09
72AI40,桃改樹林分場,2013-05-04,24.944503,121.386972,1.9221018e-08
C0S910,蘭嶼燈塔,2013-05-04,22.081197,121.503117,0.981794
C0B050,八斗子,2013-05-04,25.144754,121.79167,0.0002968379
C0U900,內城,2013-05-04,24.71813,121.68766,5.2901e-07
C0X320,柳營,2013-05-04,23.253328,120.375253,5.5194693e-09
C0M790,新港,2013-05-04,23.553269,120.345728,9.08737e-09
C0F9T0,西屯,2013-05-04,24.179494,120.641275,1.0056883e-08
C0SA30,都歷,2013-05-04,23.020333,121.323642,0.34386295
C0C620,蘆竹,2013-05-04,25.084275,121.265767,3.4693286e-08
C0R730,大坪頂,2013-05-04,22.024633,120.69355,0.3885992
C0AJ40,石門,2013-05-04,25.273672,121.601198,2.6704996e-07
C0E750,苗栗,2013-05-04,24.564569,120.824575,8.913712e-09
C0T870,鯉魚潭,2013-05-04,23.935639,121.508944,2.7434396e-06
C1V170,排雲,2013-05-04,23.463619,120.954147,1.8674191e-08
C2H950,中寮,2013-05-04,23.884447,120.766406,2.0901927e-09
C0R350,貓鼻頭,2013-05-04,21.921774,120.7358,0.21837643
C0V660,岡山,2013-05-04,22.797078,120.294958,5.288316e-09
C1H941,雙冬,2013-05-04,23.967378,120.802189,1.5629937e-09
C0AJ70,田寮,2013-05-04,25.2698,121.4886,4.595479e-06
C0AI00,五股,2013-05-04,25.07445,121.42728,3.387086e-09
C0Z280,德武,2013-05-04,23.47426,121.41071,1.1808895e-06
C0R700,枋山,2013-05-04,22.246844,120.661086,0.0422481
C0C460,復興,2013-05-04,24.820208,121.352281,4.4121196e-09
E2H360,蓮華池,2013-05-04,23.918333,120.885278,2.0966253e-09
C0M640,中埔,2013-05-04,23.42538,120.5229,3.1000476e-09
C0W140,金沙,2013-05-04,24.488292,118.408778,7.242596e-09
C2A540,四堵,2013-05-04,24.8926,121.745736,1.2868642e-08
C0ACA0,新莊,2013-05-04,25.051478,121.446756,7.0692536e-08
C0R220,潮州,2013-05-04,22.534361,120.54,1.2425674e-05
U2HA40,臺大內茅埔,2013-05-04,23.689722,120.851117,2.4073485e-09
467490,臺中,2013-05-04,24.145736,120.684075,2.6141742e-09
C0U960,翠峰湖,2013-05-04,24.510856,121.608044,8.214172e-09
E2HA20,林試畢祿溪站,2013-05-04,24.226944,121.308522,5.226915e-09
C0V890,前鎮,2013-05-04,22.5718,120.3117,5.903415e-09
467620,蘭嶼,2013-05-04,22.036969,121.558339,0.99793464
C1F941,雪嶺,2013-05-04,24.280586,121.026642,8.4988425e-09
C2H9E0,國姓南港,2013-05-04,23.911108,120.846556,3.3736298e-09
C0AC80,文山,2013-05-04,25.00235,121.575728,1.2826249e-08
C0F9R0,龍井,2013-05-04,24.184536,120.528972,2.8565474e-08
C0M760,民雄,2013-05-04,23.551754,120.428457,2.9331912e-09
C0UA40,西德山,2013-05-04,24.560647,121.752608,1.4368226e-08
C1T920,中興,2013-05-04,23.769503,121.498653,8.648662e-06
C0D550,雪霸,2013-05-04,24.526972,121.11605,6.0561263e-09
C2F860,梨山,2013-05-04,24.247522,121.243669,5.3910556e-09
C0R320,車城,2013-05-04,22.0744,120.716247,0.1614871
C1S870,南美山,2013-05-04,23.15025,121.382333,0.008728684
C0B020,基隆嶼,2013-05-04,25.19141,121.78391,0.00014579833
C1U501,牛鬥,2013-05-04,24.637836,121.573656,4.7817235e-07
C0M730,嘉義市東區,2013-05-04,23.457673,120.460531,4.9570663e-09
C0S700,知本,2013-05-04,22.684866,121.005642,2.8788395e-06
C1N001,沙崙,2013-05-04,22.935472,120.309406,1.5774452e-08
C0V760,橋頭,2013-05-04,22.757806,120.30575,4.8847495e-09
C0G960,福寶,2013-05-04,24.0443,120.3814,4.747476e-08
C0X210,白河,2013-05-04,23.347466,120.414427,5.157759e-09
C0S810,東河,2013-05-04,22.972672,121.303986,7.5772627e-06
C2R170,屏東,2013-05-04,22.66027,120.49403,1.1024547e-09
C0R670,楓港,2013-05-04,22.190131,120.692156,0.0422481
C0FA50,霧峰,2013-05-04,24.0419,120.6995,4.031673e-09
C0UB10,蘇澳,2013-05-04,24.5969,121.8571,0.934036
C0G950,防潮門,2013-05-04,24.1835,120.4871,3.150358e-08
C0M740,六腳,2013-05-04,23.492871,120.290625,9.879084e-09
C1R250,力里,2013-05-04,22.428117,120.629228,0.00038307664
C0K330,虎尾,2013-05-04,23.719183,120.442036,2.758286e-09
C2FA00,烏石坑,2013-05-04,24.273503,120.947617,1.186159e-09
C0V620,永安,2013-05-04,22.82315,120.236856,8.412591e-09
C1I330,楓樹林,2013-05-04,23.986803,121.076117,1.9048454e-09
C0W200,湖西,2013-05-04,23.596314,119.67275,0.19535714
72Q010,高雄農改場,2013-05-04,22.709333,120.525889,1.0012933e-09
C0SA40,瑞和,2013-05-04,22.974361,121.156697,0.03914059
C0C680,龜山,2013-05-04,25.02846,121.38656,2.815889e-08
C2V260,月眉,2013-05-04,22.971003,120.539853,2.9514078e-09
C0V450,鳳森,2013-05-04,22.545064,120.392592,4.264613e-08
C0U720,南山,2013-05-04,24.43742,121.38167,1.1238496e-08
A2N290,臺南蘭花園區,2013-05-04,23.340258,120.379661,5.5194693e-09
C0R560,新園,2013-05-04,22.5434,120.461558,5.4395746e-06
C0U890,三星,2013-05-04,24.66812,121.65302,2.8313656e-07
C1V300,御油山,2013-05-04,23.001983,120.715364,5.7256724e-09
C0U600,礁溪,2013-05-04,24.817539,121.765608,8.487561e-07
C1T980,龍澗,2013-05-04,24.023289,121.411328,1.2083484e-08
C0D670,海天一線,2013-05-04,24.831986,120.914438,3.2558683e-07
C0SA00,歷坵,2013-05-04,22.520969,120.89185,2.8352126e-06
C0M710,東石,2013-05-04,23.458927,120.15385,1.41441445e-08
C0M780,鹿草,2013-05-04,23.41134,120.30835,7.956864e-09
C0U520,雙連埤,2013-05-04,24.753033,121.641303,8.259748e-09
C0B010,七堵,2013-05-04,25.094819,121.71713,7.3501986e-05
C0R480,長治,2013-05-04,22.693128,120.542622,4.17161e-09
C1V830,國三S383K,2013-05-04,22.781967,120.426475,2.157563e-09
12Q980,恆春工作站,2013-05-04,22.079678,120.714425,0.1614871
C1O940,東山服務區,2013-05-04,23.286016,120.398472,4.8051123e-09
C1U840,東澳嶺,2013-05-04,24.5378,121.8485,3.3257724e-08
C1D630,飛鳳山,2013-05-04,24.766464,121.119178,4.488444e-09
C0S940,石寧山,2013-05-04,23.223772,121.406639,4.9421294e-07
C0K410,北港,2013-05-04,23.573957,120.292802,1.0398193e-08
C2M620,瑞里,2013-05-04,23.545133,120.675197,3.03061e-09
C0SB70,小港漁港,2013-05-04,23.158558,121.400431,3.3021845e-06
C2O950,安南,2013-05-04,23.076694,120.144861,1.5572358e-07
C0F0E0,南湖圈谷,2013-05-04,24.363714,121.444667,2.453426e-08
467610,成功,2013-05-04,23.097486,121.373428,0.59210986
C0G890,伸港,2013-05-04,24.148933,120.484403,3.0521914e-08
C2E540,龍溪,2013-05-04,24.606489,120.783933,1.1118905e-08
C1V200,梅山,2013-05-04,23.268447,120.823556,7.4086097e-09
C0T9H0,加路蘭山,2013-05-04,23.682947,121.5274,7.971115e-08
C2O930,玉井,2013-05-04,23.126042,120.46055,3.3013055e-09
C1F911,新伯公,2013-05-04,24.221361,120.841069,1.3141183e-09
C0R490,九如,2013-05-04,22.7405,120.490503,1.0316699e-09
C0X200,左鎮,2013-05-04,23.056758,120.408522,5.737753e-09
C0SB50,叭嗡嗡,2013-05-04,23.047062,121.343223,3.2372398e-05
C1F891,稍來,2013-05-04,24.265689,121.001142,5.6873493e-09
72N240,七股研究中心,2013-05-04,23.081672,120.062894,4.59264e-06
C0C700,中壢,2013-05-04,24.977661,121.256375,2.991494e-09
C0M690,水上,2013-05-04,23.419734,120.388909,3.5438044e-09
C0V690,鼓山,2013-05-04,22.623325,120.275575,5.0898192e-09
C0O860,大內,2013-05-04,23.11885,120.36083,2.900379e-09
C0Z200,萬榮,2013-05-04,23.709219,121.420106,2.7434396e-06
C0T9D0,和中,2013-05-04,24.26676,121.74103,0.6407612
C1O921,楠西,2013-05-04,23.183511,120.484083,3.613989e-09
C0AJ30,淡水觀海,2013-05-04,25.184591,121.408616,4.7732897e-08
C0V810,左營,2013-05-04,22.67491,120.28491,5.5420335e-09
C0UA70,桃源谷,2013-05-04,24.962606,121.888875,3.5781326e-08
C0X130,官田,2013-05-04,23.193217,120.315422,2.2457506e-08
C1H000,翠峰,2013-05-04,24.109397,121.205211,6.895515e-09
C0UA90,石城,2013-05-04,24.980444,121.951214,0.014096041
C1E681,南勢山,2013-05-04,24.421669,120.923831,1.0463824e-09
C0A9F0,內湖,2013-05-04,25.079422,121.57545,1.5342055e-08
C0K291,宜梧,2013-05-04,23.536281,120.169329,1.6107311e-08
C1K540,口湖,2013-05-04,23.585344,120.180517,2.2438368e-08
C0R780,滿州,2013-05-04,22.024403,120.839892,0.24197982
C0V870,文安,2013-05-04,22.8025,120.2164,9.320312e-09
C0U650,玉蘭,2013-05-04,24.675286,121.587061,1.1852429e-07
C0R640,東港,2013-05-04,22.46247,120.44074,5.903415e-09
K2E360,苗栗農改,2013-05-04,24.495722,120.829111,5.874548e-09
C0AJ80,板橋,2013-05-04,25.0107,121.4489,1.8294006e-08
C0S660,下馬,2013-05-04,23.150427,121.070312,3.670112e-08
C1H9B1,阿眉,2013-05-04,24.1263,120.994672,2.9141198e-09
C0UA20,多加屯,2013-05-04,24.368614,121.373189,9.60442e-09
C0E730,頭份,2013-05-04,24.688247,120.912206,1.697988e-07
72V140,高改旗南分場,2013-05-04,22.857861,120.516667,1.0430452e-08
C0K480,莿桐,2013-05-04,23.761192,120.502372,2.675902e-09
C0U980,坪林石牌,2013-05-04,24.86478,121.77396,1.0700209e-08
C0T900,西林,2013-05-04,23.8119,121.441458,1.4305067e-06
C1I150,青雲,2013-05-04,23.793361,120.949378,2.0585293e-09
467350,澎湖,2013-05-04,23.565503,119.563094,0.89460593
C0G800,埔鹽,2013-05-04,24.000394,120.431683,3.9554607e-08
C0H960,草屯,2013-05-04,23.973672,120.68085,2.7767613e-09
C1V780,多納林道,2013-05-04,22.888028,120.737917,3.602647e-09
C0E920,通霄漁港,2013-05-04,24.498589,120.673876,1.3088658e-08
C0Z330,安通山,2013-05-04,23.290728,121.348528,9.235234e-08
C0AH10,永和,2013-05-04,25.01125,121.508111,1.720124e-08
C0AK10,太平里,2013-05-04,25.134937,121.364899,7.0692536e-08
C2G640,鹿港,2013-05-04,24.0753,120.430481,3.9554607e-08
C1E890,國三N149K,2013-05-04,24.463414,120.680019,9.042934e-09
C1R110,口社,2013-05-04,22.770111,120.645222,4.977882e-09
C1M870,國三N285K,2013-05-04,23.550319,120.505833,2.2527424e-09
467050,新屋,2013-05-04,25.006744,121.047486,2.3095403e-07
C1E480,鳳美,2013-05-04,24.554803,121.034747,3.931735e-09
C0M530,奮起湖,2013-05-04,23.493903,120.699253,3.2803975e-09
C0C590,觀音,2013-05-04,25.027072,121.153317,5.6450194e-08
C0T9M0,靜浦,2013-05-04,23.455167,121.495028,8.876382e-06
C2H9M0,發祥,2013-05-04,24.154094,121.164517,1.8429462e-09
C0AI40,石牌,2013-05-04,25.115597,121.513139,1.8294006e-08
C1F871,上谷關,2013-05-04,24.203483,121.018644,1.186159e-09
C2H9G0,百勝,2013-05-04,24.051142,120.909361,1.2382022e-09
C0G880,二水,2013-05-04,23.810742,120.6173,2.5121956e-09
C0R940,加祿堂,2013-05-04,22.3363,120.6217,0.0031236277
C0W220,北竿,2013-05-04,26.220358,119.974881,1.3709335e-09
C0O960,崎頂,2013-05-04,22.959547,120.369317,2.624576e-09
C0S750,向陽,2013-05-04,23.248397,120.986133,7.930077e-09
C0T9F0,水璉,2013-05-04,23.797131,121.542514,4.800356e-07
C1M600,頭凍,2013-05-04,23.406364,120.603339,2.972038e-09
467660,臺東,2013-05-04,22.752211,121.154586,0.18181737
C1D380,新埔,2013-05-04,24.84745,121.03834,1.5745174e-08
C2G980,田頭村,2013-05-04,23.8263,120.444175,4.059723e-09
C0V750,路竹,2013-05-04,22.854997,120.259439,4.713935e-09
C0N050,蚵寮,2013-05-04,23.301,120.1104,4.8187992e-08
72M700,南改鹿草分場,2013-05-04,23.416869,120.283061,9.517217e-09
C1SA50,利嘉林道,2013-05-04,22.82325,121.009389,6.1483765e-09
467550,玉山,2013-05-04,23.487614,120.959522,2.1095426e-08
C0A940,金山,2013-05-04,25.223628,121.643967,2.2211914e-06
C1V340,大津,2013-05-04,22.888322,120.645986,2.7626879e-09
C0W180,七美,2013-05-04,23.219333,119.444892,0.027870102
C1F9C1,白冷,2013-05-04,24.182844,120.929889,1.1692292e-09
K2E710,苗改生物防治研究中心,2013-05-04,24.422861,120.871833,2.0866475e-09
C0N040,蘆竹溝,2013-05-04,23.2344,120.0961,4.8187992e-08
C2W230,畜試所澎湖,2013-05-04,23.628342,119.513206,0.03674702
C0R880,後壁湖,2013-05-04,21.9457,120.7457,0.15103452
C1I280,埔中,2013-05-04,23.820778,120.642594,2.5456803e-09
467790,墾丁雷達站,2013-05-04,21.948235,120.808028,0.27840793
C0W190,望安,2013-05-04,23.380564,119.494075,0.5352165
466881,新北,2013-05-04,24.9593,121.52,1.3904557e-08
C0Z170,卓溪,2013-05-04,23.3443,121.3029,9.806291e-07
C0F850,東勢,2013-05-04,24.246428,120.833047,1.3465729e-09
466900,淡水,2013-05-04,25.164889,121.448906,4.163385e-08
C0I370,魚池,2013-05-04,23.895703,120.94135,2.0923587e-09
C0C630,大溪,2013-05-04,24.882853,121.265547,3.2788274e-09
C0A520,山佳,2013-05-04,24.974944,121.402008,1.9221018e-08
C0I110,竹山,2013-05-04,23.761225,120.688156,2.2603692e-09
82H840,茶改南部分場,2013-05-04,23.762528,120.7405,2.1264033e-09
C0G660,溪湖,2013-05-04,23.94835,120.479122,6.8680945e-09
C1T800,洛韶,2013-05-04,24.204558,121.453956,1.4721757e-08
C1T810,慈恩,2013-05-04,24.192044,121.388386,7.315094e-09
C1E451,象鼻,2013-05-04,24.368617,120.940228,1.0463824e-09
C0AC60,三峽,2013-05-04,24.939025,121.369728,1.4041706e-08
C0I490,萬大林道,2013-05-04,23.928228,121.091411,5.3354277e-09
C1I290,豐丘,2013-05-04,23.668178,120.887417,3.5082008e-09
C1I320,奧萬大,2013-05-04,23.952956,121.178556,1.9185113e-09
C2M910,嘉義大學,2013-05-04,23.471325,120.485903,3.421545e-09
C0U770,南澳,2013-05-04,24.44935,121.81022,0.012826732
C0A980,社子,2013-05-04,25.109508,121.469681,2.0576707e-08
C0V800,六龜,2013-05-04,22.997889,120.633583,3.7355576e-09
C1G9D0,國一S218K,2013-05-04,23.890641,120.493253,6.5102013e-09
C0E570,白沙屯,2013-05-04,24.549447,120.696803,1.3088658e-08
C2F9A0,中竹林,2013-05-04,24.103556,120.751061,1.7447832e-09
C0FA40,臺中電廠,2013-05-04,24.2146,120.4907,2.8565474e-08
C2G9A0,畜試所彰化,2013-05-04,23.86045,120.557964,3.4767724e-09
C0H9C0,合歡山,2013-05-04,24.143442,121.272547,1.5813825e-08
C0X060,下營,2013-05-04,23.22695,120.256261,2.8555995e-08
G2M350,農試溪口農場,2013-05-04,23.58565,120.408111,3.2863845e-09
C0U860,頭城,2013-05-04,24.85323,121.8308,9.143746e-07
C0R580,南州,2013-05-04,22.48591,120.50274,6.3886428e-06
C0D430,峨眉,2013-05-04,24.6905,121.017189,9.915937e-08
C0G780,秀水,2013-05-04,24.03405,120.503869,2.6001224e-08
72N100,臺南農改場,2013-05-04,23.0605,120.342194,5.378402e-09
C0S900,蘭嶼高中,2013-05-04,22.04909,121.51214,0.9003076
467540,大武,2013-05-04,22.355675,120.903789,0.54652697
C1F9W0,德基,2013-05-04,24.254783,121.190261,3.8830317e-09
C1Z120,壽豐,2013-05-04,23.870853,121.508081,2.4484661e-05
C0W160,烏坵,2013-05-04,24.9944,119.44956,1.3581908e-07
C1I240,外大坪,2013-05-04,23.958697,120.917931,1.4520792e-09
C1I550,國六W023K,2013-05-04,23.979067,120.867742,1.6579186e-09
C0R870,興海,2013-05-04,21.9752,120.8439,0.18224826
C0R140,瑪家,2013-05-04,22.682903,120.686639,4.133876e-09
C0A530,坪林,2013-05-04,24.938183,121.70975,1.3043518e-07
C0X260,後壁,2013-05-04,23.366358,120.362326,9.198804e-09
C0Z230,和平,2013-05-04,24.30717,121.77007,0.641756
C0G770,福興,2013-05-04,24.041289,120.437669,3.9554607e-08
C0H9A0,神木村,2013-05-04,23.532742,120.843667,5.8052434e-09
C0I460,南投,2013-05-04,23.911469,120.687331,2.6597917e-09
C0I480,梅峰,2013-05-04,24.085272,121.173572,5.0605466e-09
C1V570,吉東,2013-05-04,22.85422,120.5454,9.062376e-09
C2D740,屯原,2013-05-04,24.067969,121.209389,4.41547e-09
C2A560,福山,2013-05-04,24.776203,121.502811,6.416584e-09
C0AH30,五分山,2013-05-04,25.07125,121.780794,9.2427195e-09
C0FA10,松柏,2013-05-04,24.429115,120.617482,1.8735768e-08
72S200,東改班鳩分場,2013-05-04,22.829528,121.077694,0.07064005
72HA00,中改埔里分場,2013-05-04,23.903208,120.963364,2.0921591e-09
C2H9W0,大坪頂農水,2013-05-04,24.043122,120.932781,1.4467162e-09
C0C650,平鎮,2013-05-04,24.897503,121.214636,3.0079548e-09
C0S930,延平,2013-05-04,22.902581,121.084058,1.0153261e-06
C0UA60,樟樹山,2013-05-04,24.41393,121.78325,3.960198e-07
C1S670,摩天,2013-05-04,23.199503,121.027,8.898662e-09
C0V630,茄萣,2013-05-04,22.906642,120.182608,5.0374556e-08
466940,基隆,2013-05-04,25.133314,121.740475,0.00025724474
C0X050,東河,2013-05-04,23.296598,120.385608,5.5194693e-09
C0R770,保力,2013-05-04,22.071122,120.764111,0.41977823
G2L020,農試嘉義分所,2013-05-04,23.485028,120.473806,3.1630845e-09
C0X240,關子嶺,2013-05-04,23.331169,120.508025,2.282525e-09
C0I380,集集,2013-05-04,23.828206,120.801467,2.2185531e-09
466990,花蓮,2013-05-04,23.975128,121.613275,8.8377277e-07
C1V220,小關山,2013-05-04,23.154217,120.813603,6.141567e-09
C1F9G1,慶福山,2013-05-04,24.180853,120.848378,1.2346035e-09
C0Z250,瑞穗林道,2013-05-04,23.49284,121.30688,2.3204704e-08
C0D590,新豐,2013-05-04,24.87068,120.97721,3.014605e-07
C0A870,五指山,2013-05-04,25.132153,121.608692,7.2414497e-09
C0UA50,西帽山,2013-05-04,24.555361,121.802628,2.5832561e-08
C0X160,仁德,2013-05-04,22.968258,120.257689,1.1529614e-08
C1H971,六分寮,2013-05-04,23.92507,120.6378,1.8702733e-09
C0W120,西嶼,2013-05-04,23.5626,119.468436,0.894606
C0G650,員林,2013-05-04,23.946503,120.585597,3.78415e-09
C0AD50,鶯歌,2013-05-04,24.951533,121.346294,1.8678643e-08
C2H9Q0,北東眼山,2013-05-04,24.120939,121.189303,4.3603343e-09
C2H9T0,名間竹圍,2013-05-04,23.859914,120.637572,2.023463e-09
C0S990,山豬窟,2013-05-04,22.318619,120.857372,0.88592577
72Q010,高雄農改,2013-05-04,22.709333,120.525889,1.0012933e-09
C0X190,安平,2013-05-04,22.993161,120.152181,4.2668344e-08
C0K400,斗六,2013-05-04,23.720583,120.541127,2.3971767e-09
12J990,口湖工作站,2013-05-04,23.589978,120.180394,2.1066556e-08
C0O830,北寮,2013-05-04,23.079561,120.495008,5.154917e-09
C1D410,白蘭,2013-05-04,24.579364,121.079947,4.2974357e-09
C0S970,加津林,2013-05-04,22.416211,120.926942,0.63143826
C0D700,關西,2013-05-04,24.7977,121.1732,3.4532974e-09
C0M810,里佳,2013-05-04,23.389125,120.716647,3.2766456e-09
C0U750,龜山島,2013-05-04,24.841667,121.953133,8.609206e-05
C0R810,內獅,2013-05-04,22.305064,120.642986,0.0031236277
C1M390,龍美,2013-05-04,23.406728,120.654417,3.1696734e-09
C2FB60,頭櫃山,2013-05-04,24.129842,120.858925,1.8328434e-09
C1H840,國三N238K,2013-05-04,23.841008,120.707711,2.1949114e-09
CAQ030,崎峰國小,2013-05-04,22.42565,120.49521,6.3886428e-06
C2E520,大湖,2013-05-04,24.414939,120.870872,2.9719471e-09
467530,阿里山,2013-05-04,23.508208,120.813242,7.9453075e-09
C1E691,南湖,2013-05-04,24.40135,120.837533,1.413327e-09
C0FA30,梧棲,2013-05-04,24.256003,120.523381,2.8526761e-08
C1V231,高中,2013-05-04,23.134911,120.716711,2.547808e-09
C0F9V0,新社,2013-05-04,24.200172,120.815806,1.204937e-09
C0H890,埔里,2013-05-04,23.972169,120.952425,1.6545606e-09
C0R690,墾丁,2013-05-04,21.966756,120.810269,0.88103753
C0F0D0,審馬陣,2013-05-04,24.381675,121.4203,1.7434102e-08
C0R820,白鷺,2013-05-04,22.454275,120.666219,4.525018e-05
U2H480,臺大溪頭,2013-05-04,23.670306,120.798194,3.7328722e-09
C1V190,南天池,2013-05-04,23.27403,120.91176,8.843839e-09
K2E360,苗栗農改場,2013-05-04,24.495722,120.829111,5.874548e-09
CAJ050,海口故事園區,2013-05-04,23.57543,120.14121,2.2438368e-08
C2H9D0,三隻寮,2013-05-04,24.093078,120.861578,1.456198e-09
C0O990,媽廟,2013-05-04,22.99175,120.293525,1.0161002e-08
C0D480,打鐵坑,2013-05-04,24.849664,121.150789,2.7463485e-09
C0Z220,和平林道,2013-05-04,24.343922,121.656317,3.720886e-07
C0TA10,花蓮漁港,2013-05-04,23.995322,121.638331,1.0775466e-06
72C440,桃園農改場,2013-05-04,24.950944,121.030583,1.3907561e-07
C1E711,馬拉邦山,2013-05-04,24.367306,120.901656,2.6541107e-09
C0SB20,富岡,2013-05-04,22.792467,121.192669,0.18013312
C0D560,竹東,2013-05-04,24.767147,121.057881,1.094861e-08
C0F9U0,南屯,2013-05-04,24.137006,120.637969,9.789107e-09
C0M720,番路,2013-05-04,23.464657,120.554156,2.4777143e-09
C0F0A0,雪山圈谷,2013-05-04,24.388594,121.236339,2.2371147e-08
C1A9N0,四十份,2013-05-04,24.934158,121.593283,6.7541004e-09
C0U760,東澳,2013-05-04,24.52196,121.83318,5.22437e-05
C0X230,鹽水,2013-05-04,23.272621,120.247641,4.9387225e-08
C2H9H0,苗改南投蜂場,2013-05-04,23.852589,120.693481,2.2627633e-09
C0R950,萬隆國小,2013-05-04,22.507667,120.587817,2.2493472e-08
C0V370,古亭坑,2013-05-04,22.893178,120.401947,1.2353107e-08
C1I340,新興橋,2013-05-04,23.563333,120.868728,2.5643156e-09
C0SA80,土坂,2013-05-04,22.453108,120.887572,0.04801486
C0R160,鹽埔,2013-05-04,22.739558,120.530778,4.6475046e-09
C0AC40,大屯山,2013-05-04,25.175675,121.522408,6.6251697e-09
466850,五分山雷達站,2013-05-04,25.071182,121.781205,9.152916e-09
C2H9L0,馬烈霸,2013-05-04,24.1512,121.201772,4.2916772e-09
C1AI50,國三N016K,2013-05-04,25.034164,121.619664,1.2715249e-08
C1V600,藤枝,2013-05-04,23.071961,120.757042,5.683998e-09
C1E601,南勢,2013-05-04,24.572486,120.734842,5.9242597e-09
C0Z180,新城,2013-05-04,24.03946,121.60454,7.169048e-07
C0O980,新市,2013-05-04,23.061614,120.298197,6.5928614e-09
C0K420,西螺,2013-05-04,23.800407,120.467394,2.7653713e-09
C0Z050,佳心,2013-05-04,23.34567,121.21316,3.0358184e-08
C0AD30,蘆洲,2013-05-04,25.086594,121.472331,1.9130532e-08
C0V610,梓官,2013-05-04,22.760558,120.267211,5.288316e-09
K2F750,種苗改良場,2013-05-04,24.225972,120.800917,1.2487517e-09
C0UA80,大溪漁港,2013-05-04,24.941801,121.902955,8.487561e-07
C1AI60,國一39K邊坡,2013-05-04,25.064361,121.383836,1.8608804e-06
C0W150,金寧,2013-05-04,24.457703,118.328989,6.275265e-09
C0R960,內埔,2013-05-04,22.608483,120.570714,2.8242747e-08
V2C250,八德合作社,2013-05-04,24.93775,121.266389,3.5450685e-09
C2H9S0,龍南,2013-05-04,23.953536,120.833183,1.9778263e-09
C0AH40,平等,2013-05-04,25.129142,121.577086,1.1544995e-08
C0R540,佳冬,2013-05-04,22.419456,120.552375,6.3886428e-06
466950,彭佳嶼,2013-05-04,25.627975,122.079744,0.9966206
C0A890,雙溪,2013-05-04,25.036003,121.864242,3.8330378e-05
C0C480,桃園,2013-05-04,24.992425,121.323172,3.1757732e-09
C0AH50,林口,2013-05-04,25.072181,121.38084,1.3260661e-08
A2K360,水試臺西試驗場,2013-05-04,23.717231,120.190522,1.0203768e-08
B2N890,畜試所,2013-05-04,23.058972,120.336406,5.378402e-09
C2M960,外寮,2013-05-04,23.562643,120.665688,2.688328e-09
C0F9S0,烏日,2013-05-04,24.107058,120.624103,2.0301982e-08
C0C490,八德,2013-05-04,24.928708,121.283289,3.7379664e-09
C0R190,赤山,2013-05-04,22.592333,120.614306,2.4954533e-08
C0T820,天祥,2013-05-04,24.179597,121.495639,5.4878376e-07
C1F9E1,龍安,2013-05-04,24.1605,120.831961,1.2149945e-09
C0V820,小林,2013-05-04,23.148408,120.63325,2.8587916e-09
C2G870,芳苑,2013-05-04,23.922303,120.320025,7.79379e-08
C0E850,大河,2013-05-04,24.618069,120.948578,6.353755e-09
C1U670,寒溪,2013-05-04,24.634,121.71691,0.013091161
C0N020,城西,2013-05-04,23.0568,120.0956,3.3330039e-06
C1Z110,三棧,2013-05-04,24.11557,121.60501,4.0050033e-08
C0R280,檳榔,2013-05-04,22.076078,120.836777,0.83938
C2H9J0,中台,2013-05-04,23.9996,120.938739,1.4507145e-09
C0F9L0,后里,2013-05-04,24.310436,120.729725,2.4834343e-09
C0D540,橫山,2013-05-04,24.71116,121.11693,6.2455805e-09
C1D420,太閣南,2013-05-04,24.632808,121.160575,3.430046e-09
C1E770,公館,2013-05-04,24.526914,120.830806,8.259559e-09
CAN130,水試所海水繁養殖中心,2013-05-04,23.120802,120.07968,4.59264e-06
C1I430,翠華,2013-05-04,24.191961,121.224339,7.1937074e-09
C1M400,菜瓜坪,2013-05-04,23.251928,120.576103,4.2915547e-09
C0G730,二林,2013-05-04,23.903325,120.376081,1.702865e-08
72M360,南改義竹分場,2013-05-04,23.360694,120.279361,1.9480519e-08
V2K620,麥寮合作社,2013-05-04,23.753836,120.294783,1.1245851e-08
C0Z070,舞鶴,2013-05-04,23.46811,121.37407,6.3814423e-07
C0B040,大武崙,2013-05-04,25.166676,121.706993,7.3501986e-05
C1Z030,紅葉,2013-05-04,23.493119,121.338806,1.0860548e-06
C1I050,丹大,2013-05-04,23.753747,121.141147,9.425231e-09
C0I080,信義,2013-05-04,23.689694,120.851036,2.4073485e-09
C2M920,朴子農改,2013-05-04,23.469889,120.259383,9.879084e-09
C2A880,福隆,2013-05-04,25.017842,121.942083,0.011397661
C0Z160,鳳林,2013-05-04,23.746114,121.453411,5.005719e-06
C0V210,復興,2013-05-04,23.222403,120.806089,8.537397e-09
C0H990,昆陽,2013-05-04,24.121322,121.273642,1.26167805e-08
C0R741,獅子,2013-05-04,22.202308,120.705236,0.027723946
C0S710,鹿野,2013-05-04,22.917711,121.122994,1.05713774e-07
C0I530,小奇萊,2013-05-04,24.131764,121.295717,1.2783119e-08
C2K630,荷苞,2013-05-04,23.657717,120.595144,2.1893587e-09
C0Z080,富源,2013-05-04,23.587642,121.378225,7.2095344e-07
467441,高雄,2013-05-04,22.7304,120.3125,5.5420335e-09
C0SB10,美和,2013-05-04,22.682078,121.060236,0.2712248
C2K620,馬光農場,2013-05-04,23.721453,120.378864,3.0066813e-09
C1I140,卡奈托灣,2013-05-04,23.754364,121.087872,4.6029105e-09
C0I520,玉山風口,2013-05-04,23.470489,120.955994,2.17796e-08
C1G691,下水埔,2013-05-04,23.816114,120.5676,2.9173066e-09
C0X110,臺南市南區,2013-05-04,22.961189,120.188378,3.6550993e-08
C0V680,仁武,2013-05-04,22.701083,120.347722,5.1583693e-09
C2G840,北斗,2013-05-04,23.877586,120.514222,6.0265126e-09
C0R900,竹坑,2013-05-04,22.1385,120.7022,0.10124853
C0K250,崙背,2013-05-04,23.75555,120.318925,9.62674e-09
C0G860,社頭,2013-05-04,23.897647,120.5862,3.5479162e-09
C0X150,安定,2013-05-04,23.102614,120.227839,2.9494789e-08
C0R590,里港,2013-05-04,22.77919,120.49459,4.8943924e-09
C0E610,馬都安,2013-05-04,24.451272,120.930192,2.9751743e-09
C0E550,明德,2013-05-04,24.583486,120.885411,6.7462596e-09
C0R150,三地門,2013-05-04,22.709889,120.639944,8.6683025e-09
C0G910,花壇,2013-05-04,24.032076,120.549461,2.1185505e-08
C1D400,鳥嘴山,2013-05-04,24.71909,121.28387,5.4850884e-09
C0K500,元長,2013-05-04,23.64981,120.315024,5.840506e-09
C0F0B0,石岡,2013-05-04,24.276061,120.777644,2.1082385e-09
C2V250,甲仙,2013-05-04,23.080106,120.591758,3.5489112e-09
C0SA20,金崙山,2013-05-04,22.567419,120.959667,1.4685915e-08
C0V350,溪埔,2013-05-04,22.738578,120.446797,1.8929078e-09
C0M660,溪口,2013-05-04,23.604131,120.403569,3.2863845e-09
C1S880,壽卡,2013-05-04,22.238911,120.858903,0.26430073
72D680,桃改新埔分場,2013-05-04,24.834444,121.066111,1.4787892e-08
