站號,站名,日期,lat,lon,BLBTSLS
C0R710,龍磐,2013-10-13,21.931672,120.838942,0.90991974
C1F9D1,白毛台,2013-10-13,24.158325,120.886933,5.0696664e-05
C0G940,竹塘,2013-10-13,23.848253,120.386764,0.9982297
467590,恆春,2013-10-13,22.003897,120.746339,0.96701634
C1O850,環湖,2013-10-13,23.148617,120.418633,0.9991506
C0U710,太平山,2013-10-13,24.505486,121.525656,1.2445056e-08
C0E820,獅潭,2013-10-13,24.539133,120.920042,0.9850874
C0V880,興達,2013-10-13,22.8778,120.2127,0.991121
C0S890,關山,2013-10-13,23.0395,121.175017,0.012949897
C0SB30,新蘭,2013-10-13,22.869214,121.223228,0.29826683
C2R970,屏科大,2013-10-13,22.648275,120.619247,0.2961015
K2F750,種苗繁殖,2013-10-13,24.225972,120.800917,6.395971e-05
C1Z130,銅門,2013-10-13,23.965694,121.492842,0.8857377
C0AD40,土城,2013-10-13,24.973208,121.445169,0.3477033
CAN140,六官養殖協會,2013-10-13,23.22881,120.29962,0.99886775
C0X180,山上,2013-10-13,23.0757,120.363253,0.99950004
C0F9Z0,雪山東峰,2013-10-13,24.388792,121.268675,1.7017612e-08
C1M480,獨立山,2013-10-13,23.537022,120.607797,1.3156362e-08
C0X220,學甲,2013-10-13,23.230367,120.182187,0.9779168
467650,日月潭,2013-10-13,23.881325,120.90805,1.3826382e-08
C0K600,箔子寮,2013-10-13,23.6197,120.14,0.9909399
C0G830,埤頭,2013-10-13,23.866003,120.452806,0.9990017
C0S950,七塊厝,2013-10-13,22.954453,121.229922,0.9972646
467110,金門,2013-10-13,24.407306,118.289281,0.7659299
C0AH80,深坑,2013-10-13,25.002703,121.628328,0.43721774
467990,馬祖,2013-10-13,26.169269,119.923419,0.07647807
C0A970,三貂角,2013-10-13,25.007606,122.002058,0.7935688
C2D730,寶山農場,2013-10-13,24.732444,120.976153,0.44406447
C0K430,褒忠,2013-10-13,23.690938,120.303634,0.9997671
467480,嘉義,2013-10-13,23.495925,120.432906,0.9992917
C2E540,後龍,2013-10-13,24.606489,120.783933,0.9912888
C0V400,阿公店,2013-10-13,22.804194,120.355528,0.9972467
C0R440,大漢山,2013-10-13,22.405264,120.753181,4.4913384e-09
C0K280,四湖,2013-10-13,23.630414,120.227125,0.99965304
C1F9B1,桐林,2013-10-13,24.066172,120.735194,0.99983984
C2H9U0,鳳鵬,2013-10-13,23.763919,120.788061,8.4119684e-08
C0K390,土庫,2013-10-13,23.679029,120.395574,0.99933004
C1I450,望鄉山,2013-10-13,23.594153,120.944286,1.4389453e-08
C0E910,海埔,2013-10-13,24.648767,120.772435,0.8730806
B2E890,畜試北區分所,2013-10-13,24.527806,120.770972,0.99860525
C0R750,四林格山,2013-10-13,22.076989,120.802439,0.043011043
C0F0C0,中坑,2013-10-13,24.248517,120.903319,6.9628516e-09
C1I121,大鞍,2013-10-13,23.678381,120.760017,1.2314009e-08
72U480,花改蘭陽分場,2013-10-13,24.686306,121.716583,0.87884736
C0A770,科教館,2013-10-13,25.096356,121.516507,0.34877846
C0AJ60,六塊厝,2013-10-13,25.24,121.4481,0.25277436
C0R620,墾雷,2013-10-13,21.900836,120.855269,0.9632441
467420,永康,2013-10-13,23.038386,120.2367,0.97158605
467300,東吉島,2013-10-13,23.25695,119.667467,0.99991333
C0I410,名間,2013-10-13,23.837053,120.701447,0.9796139
A2C560,農工中心,2013-10-13,24.985917,121.239833,0.08345777
C0V740,旗山,2013-10-13,22.888614,120.483597,0.9893039
C0Z061,玉里,2013-10-13,23.3215,121.339656,0.995374
C0S840,南田,2013-10-13,22.279725,120.889208,0.4437584
C1I470,杉林溪,2013-10-13,23.639517,120.786444,1.4046178e-08
C1X040,東原,2013-10-13,23.291597,120.463822,0.997915
C0R660,枋寮,2013-10-13,22.367722,120.590647,0.0059788534
C1R120,上德文,2013-10-13,22.763272,120.704442,1.1873186e-05
C0K450,大埤,2013-10-13,23.646074,120.431537,0.99983096
C0UA00,土場,2013-10-13,24.576533,121.495333,4.1207005e-07
467080,宜蘭,2013-10-13,24.763975,121.756528,0.7506839
C0N030,四草,2013-10-13,23.0235,120.1116,0.99621475
C0V650,彌陀,2013-10-13,22.783806,120.246361,0.997756
C0D660,新竹市東區,2013-10-13,24.798681,120.986942,0.19055097
82S580,茶改東部分場,2013-10-13,22.907694,121.130139,0.98892605
C0SB40,興隆,2013-10-13,22.913661,121.257469,0.87472016
C0C710,大溪永福,2013-10-13,24.892936,121.324975,0.06820459
C0FA20,溫寮,2013-10-13,24.372177,120.583125,0.9998046
C0V640,湖內,2013-10-13,22.887139,120.2445,0.9920777
C0R910,下寮,2013-10-13,22.3929,120.5548,0.98026323
C0Z020,明里,2013-10-13,23.208717,121.262342,0.99926555
C0M770,嘉義梅山,2013-10-13,23.585398,120.555587,0.9993658
G2F820,農業試驗所,2013-10-13,24.031261,120.688133,0.9995927
C0C660,楊梅,2013-10-13,24.912375,121.143047,0.17093518
C1E511,新開,2013-10-13,24.347703,120.827019,2.8867026e-07
G2F820,農試所(霧峰),2013-10-13,24.031261,120.688133,0.9995927
C1I070,和社,2013-10-13,23.591131,120.888861,1.41027945e-08
C2F000,大肚,2013-10-13,24.15295,120.572117,0.060813304
C1S850,豐南,2013-10-13,23.122139,121.262389,0.99937487
C2A920,富貴角,2013-10-13,25.263783,121.565258,0.4478119
CAH030,茶改場竹圍站,2013-10-13,23.860083,120.637528,0.00029878513
C0T960,光復,2013-10-13,23.660694,121.424964,0.98529387
C0F9M0,豐原,2013-10-13,24.254322,120.720692,0.99905306
C0R720,旭海,2013-10-13,22.205403,120.887614,0.060862884
C0V710,苓雅,2013-10-13,22.622742,120.330669,0.9973317
C0C740,觀音工業區,2013-10-13,25.064764,121.114856,0.041306786
CAC040,拉拉山,2013-10-13,24.699317,121.427133,1.3925764e-08
C0V790,萬山,2013-10-13,22.905944,120.688056,4.212084e-07
U2HA30,臺大和社,2013-10-13,23.590856,120.888864,1.41027945e-08
C0AJ90,澳底,2013-10-13,25.0552,121.9253,0.8062062
C0Z100,東華,2013-10-13,23.89525,121.549833,0.9554215
C0G970,三豐,2013-10-13,23.882,120.2895,0.99974525
V2K610,大庄合作社,2013-10-13,23.8068,120.367939,0.99975145
C0V900,汕尾,2013-10-13,22.4782,120.4151,0.9918998
C1R630,龍泉,2013-10-13,22.66701,120.59091,0.00014058022
C1AC50,關渡,2013-10-13,25.133486,121.469331,0.38722086
C0F9I0,神岡,2013-10-13,24.272481,120.658314,0.99884623
C0K460,斗南,2013-10-13,23.678734,120.478359,0.99984944
467410,臺南,2013-10-13,22.993239,120.204772,0.97771174
C2O810,曾文,2013-10-13,23.219681,120.497328,0.9994925
467280,後龍,2013-10-13,24.648563,120.831834,0.91559094
C1F9J1,清水林,2013-10-13,24.071242,120.820419,8.257748e-09
C2A650,火燒寮,2013-10-13,25.002719,121.742892,0.020498887
466930,竹子湖,2013-10-13,25.162078,121.544547,1.03648485e-08
C1I220,樟湖,2013-10-13,23.905333,120.846983,8.138194e-09
C0I390,仁愛,2013-10-13,24.022122,121.132206,4.9641815e-09
C0Z300,東里,2013-10-13,23.26853,121.30547,0.9968988
C1V590,新發,2013-10-13,23.057019,120.646064,1.3446031e-07
C0K510,水林,2013-10-13,23.572924,120.24597,0.99096173
72S590,東改賓朗果園,2013-10-13,22.813889,121.071278,0.7015944
82A750,茶改北部分場,2013-10-13,24.955778,121.631222,8.5922736e-08
C1A750,石碇服務區,2013-10-13,25.00872,121.646242,0.4019903
C0X300,鹿寮,2013-10-13,23.386047,120.477331,0.9998449
G2AI50,關渡,2013-10-13,25.11575,121.492,0.36095282
C0K590,雲林東勢,2013-10-13,23.674192,120.255721,0.9997671
C0A570,桶後,2013-10-13,24.848222,121.597992,5.913002e-07
C1S800,華源,2013-10-13,22.657883,121.02325,0.06063847
C0G720,溪州,2013-10-13,23.851589,120.499093,0.9991679
C1V160,達卡努瓦,2013-10-13,23.279811,120.705319,1.6435967e-08
C2M410,馬頭山,2013-10-13,23.324361,120.582017,0.6711512
C0V850,蚵仔寮,2013-10-13,22.7256,120.2527,0.9989413
C0S740,池上,2013-10-13,23.119628,121.209469,0.989708
C1V390,尖山,2013-10-13,22.813153,120.367789,0.9962495
C0AH70,松山,2013-10-13,25.04871,121.55042,0.49101546
C0N010,鯤鯓國小,2013-10-13,23.1879,120.0889,0.9848221
C0R550,新埤,2013-10-13,22.467947,120.582894,1.5800679e-05
C0SA60,知本（水試所）,2013-10-13,22.702394,121.082761,0.0064988984
C0T9I0,豐濱,2013-10-13,23.583897,121.514806,0.9981979
C0UB00,淡江大學蘭陽校園,2013-10-13,24.823239,121.730383,2.561927e-07
C0W240,九宮,2013-10-13,24.423753,118.240186,0.40445763
C0T9N0,富里,2013-10-13,23.171639,121.249378,0.99723864
U2HA50,臺大竹山,2013-10-13,23.756972,120.681556,0.9963762
C0V840,鳳鼻頭,2013-10-13,22.5083,120.3591,0.9972239
C0X140,西港,2013-10-13,23.125608,120.203108,0.9860469
72D080,桃改五峰分場,2013-10-13,24.612194,121.157167,1.7238222e-08
C2H9P0,伊拿谷,2013-10-13,23.963211,121.088264,8.957155e-09
C2H9F0,柑林,2013-10-13,24.018658,120.847072,3.3979228e-05
C0TA20,加灣,2013-10-13,24.082025,121.608944,0.9276926
C0V530,阿蓮,2013-10-13,22.883208,120.327508,0.9992683
C1O880,關山,2013-10-13,23.173397,120.594092,0.96455824
C0E791,卓蘭,2013-10-13,24.3126,120.8244,2.5051375e-07
C1I030,武界,2013-10-13,23.913225,121.052483,9.504247e-09
C0R520,崁頂,2013-10-13,22.514781,120.506914,0.9821449
C0R341,牡丹,2013-10-13,22.130036,120.792639,0.9856699
C0R930,萬丹,2013-10-13,22.5885,120.4851,2.6047916e-05
C0S760,紅石,2013-10-13,23.069131,121.126219,1.1008624e-08
C1M610,石磐龍,2013-10-13,23.496606,120.663506,9.787763e-09
C0UA10,鴛鴦湖,2013-10-13,24.590269,121.412228,1.2675127e-08
V2C260,八德蔬果,2013-10-13,24.978508,121.281819,0.05840882
C0R800,丹路,2013-10-13,22.204481,120.750989,0.94289243
C0G920,永靖,2013-10-13,23.924703,120.547533,0.9997913
C2M950,太和,2013-10-13,23.538372,120.702961,5.7020886e-09
C1A630,下盆,2013-10-13,24.771003,121.538622,9.984533e-07
B2N890,畜產試驗所,2013-10-13,23.058972,120.336406,0.99955696
C0UA30,白嶺,2013-10-13,24.527819,121.519031,1.46564485e-08
C1V580,溪南(特生中心),2013-10-13,23.084972,120.788475,8.75589e-09
C1T970,大農,2013-10-13,23.615233,121.413331,0.9945998
E2S960,林試太麻里2,2013-10-13,22.598014,120.989761,0.017305827
C0R650,竹田,2013-10-13,22.58486,120.54344,2.6047916e-05
C1H900,清流,2013-10-13,24.080775,120.962997,2.7618396e-09
C1C510,水尾,2013-10-13,24.940081,121.087161,0.16784827
C0F9X0,大雅(中科園區),2013-10-13,24.21528,120.62445,0.9999375
C0SB60,白守蓮,2013-10-13,23.126769,121.401914,0.008572665
C0O970,虎頭埤,2013-10-13,23.021375,120.347878,0.9991016
C0C730,中大臨海站,2013-10-13,24.966126,121.008581,0.20101535
C0X250,新營,2013-10-13,23.310689,120.316681,0.99912864
C0V700,三民,2013-10-13,22.645017,120.311233,0.9973317
C0U870,大礁溪,2013-10-13,24.791042,121.675047,1.0253716e-07
C0E870,高鐵苗栗,2013-10-13,24.60725,120.826094,0.99205685
A2K570,古坑花卉中心,2013-10-13,23.63353,120.55239,0.99935585
C0M860,新美,2013-10-13,23.338017,120.683169,1.13672144e-07
C1E701,八卦,2013-10-13,24.491756,120.927619,7.0908976e-09
C0I420,國姓,2013-10-13,24.037803,120.855072,8.8497645e-06
C2D720,關西工作站,2013-10-13,24.757275,121.184792,0.011485866
C0S960,香蘭,2013-10-13,22.587569,120.993375,0.017305827
C0R260,春日,2013-10-13,22.370361,120.628306,0.92583287
72G600,臺中農改場,2013-10-13,24.003028,120.534389,0.9991877
C0Z210,瑞穗,2013-10-13,23.5239,121.39021,0.996959
C0M820,達邦,2013-10-13,23.453994,120.749517,7.836553e-09
C0V860,南寮,2013-10-13,22.7616,120.2339,0.9973823
C0G740,大城,2013-10-13,23.852487,120.320935,0.99974114
C0R920,塭仔,2013-10-13,22.4169,120.5197,0.97841597
C0R470,高樹,2013-10-13,22.826389,120.600806,3.2681444e-05
C0R680,佳樂水,2013-10-13,21.993578,120.861633,0.9700196
C1O870,大棟山,2013-10-13,23.31157,120.52226,4.816766e-09
C0D360,梅花,2013-10-13,24.678347,121.208558,4.925261e-08
C0Z190,富世,2013-10-13,24.14743,121.6297,0.9557873
C0AI10,屈尺,2013-10-13,24.92184,121.54475,0.43721774
B2U990,畜試東區分所,2013-10-13,24.669039,121.832561,0.8439741
C0SB80,長濱漁港,2013-10-13,23.313644,121.459994,0.80174375
C0R240,來義,2013-10-13,22.527306,120.625111,0.91299826
C0V910,大樹,2013-10-13,22.684645,120.432803,0.9969747
C1R610,西大武山,2013-10-13,22.617719,120.7322,5.689747e-09
C0G900,線西,2013-10-13,24.143358,120.443536,0.9999677
C0M700,竹崎,2013-10-13,23.526178,120.555508,0.99844074
C2E880,三義,2013-10-13,24.405478,120.749819,2.1787907e-06
C0C720,竹圍,2013-10-13,25.112692,121.239824,0.24835864
C0F9P0,清水,2013-10-13,24.312297,120.562242,0.99982995
C0Z150,吉安光華,2013-10-13,23.930925,121.595153,0.947633
C1D640,外坪(五指山),2013-10-13,24.644447,121.090961,2.0627358e-08
C0F9O0,潭子,2013-10-13,24.213106,120.703933,0.9991666
C2H9R0,卓社,2013-10-13,23.887894,121.000086,4.026778e-09
72T250,花蓮農改場,2013-10-13,23.975222,121.563889,0.92612356
C0E780,銅鑼,2013-10-13,24.489681,120.790853,0.9865657
C1T950,太安,2013-10-13,23.666719,121.370128,9.808192e-08
C0E830,苑裡,2013-10-13,24.439714,120.653053,0.9997993
467270,田中,2013-10-13,23.873803,120.581286,0.999826
C0SA10,檳榔四格山,2013-10-13,22.810031,121.109308,0.7653031
C1T830,布洛灣,2013-10-13,24.17184,121.57127,0.984308
C0F970,大坑,2013-10-13,24.173142,120.722289,0.99969816
C1U920,思源,2013-10-13,24.393125,121.347214,1.1524359e-08
C0A931,三和,2013-10-13,25.233153,121.595236,0.05542329
C0I010,廬山,2013-10-13,24.033311,121.181808,9.764753e-09
C2M940,日野賀,2013-10-13,23.434056,120.727169,1.1337946e-08
C0R860,鼻頭,2013-10-13,22.1043,120.8979,0.99773
C0UB20,壯圍,2013-10-13,24.7359,121.8163,0.8439741
C0R790,九棚,2013-10-13,22.14195,120.889281,0.072175145
C0W110,東莒,2013-10-13,25.9652,119.98069,0.18394808
C1U930,粉鳥林,2013-10-13,24.497088,121.842479,0.9914485
C1I211,蘆竹湳,2013-10-13,23.934019,120.811994,2.1453234e-05
C0S830,長濱,2013-10-13,23.286817,121.411975,0.9995162
C1F9F1,伯公龍,2013-10-13,24.272392,120.849047,6.154807e-06
C0E810,西湖,2013-10-13,24.562947,120.7485,0.993198
C1I440,新高口,2013-10-13,23.478744,120.878939,1.4026448e-08
C0O840,王爺宮,2013-10-13,23.222064,120.40085,0.9994925
C0T9G0,鳳林山,2013-10-13,23.735269,121.420131,0.9228606
C0X080,佳里,2013-10-13,23.173039,120.145086,0.9697779
C0FB70,大甲溪埔,2013-10-13,24.370625,120.620067,0.99979556
C0Z310,清水斷崖,2013-10-13,24.218294,121.689142,0.7263718
C0M680,太保,2013-10-13,23.455062,120.331455,0.9985207
C1S820,金峰,2013-10-13,22.590969,120.933236,0.09706461
C0AD10,八里,2013-10-13,25.150211,121.403947,0.24835864
C2K240,草嶺,2013-10-13,23.59555,120.693461,4.8459596e-09
C1SA70,都蘭,2013-10-13,22.87794,121.226881,0.87472016
C0K440,二崙,2013-10-13,23.772797,120.408944,0.9983544
C1A760,坪林交控,2013-10-13,24.94284,121.713442,0.025134481
C0F9N0,大里,2013-10-13,24.092464,120.701378,0.999963
C0SA90,達仁林場,2013-10-13,22.264347,120.823972,0.41189715
C1R290,石門山,2013-10-13,22.112611,120.756597,0.066824175
42HA10,萬大發電廠,2013-10-13,23.978875,121.139639,5.6619598e-08
C0R890,山海,2013-10-13,21.9878,120.7091,0.97561
C0T9A0,月眉山,2013-10-13,23.809928,121.539828,0.6272146
C0AC70,信義,2013-10-13,25.037822,121.564597,0.49101546
C0K560,棋山,2013-10-13,23.68645,120.603417,0.99959826
C2FB50,出雲,2013-10-13,24.206469,120.902794,5.7535225e-09
C1Z240,中平林道,2013-10-13,23.42115,121.26763,5.1002235e-06
U2H480,溪頭,2013-10-13,23.670306,120.798194,1.3065536e-08
C0M880,好美里,2013-10-13,23.3364,120.138,0.9697779
C0T9E0,大坑,2013-10-13,23.880628,121.581981,0.8864469
C0K530,臺西,2013-10-13,23.701547,120.197559,0.9997955
C1E900,國一N128K,2013-10-13,24.560997,120.844186,0.9943277
C0AJ50,水湳洞,2013-10-13,25.123695,121.862238,0.28841394
C0AI20,白沙灣,2013-10-13,25.283128,121.519058,0.31715086
C0A860,大坪,2013-10-13,25.165914,121.632969,4.1084486e-06
C1U850,觀音海岸,2013-10-13,24.38319,121.77856,0.0054873014
C2K610,草嶺石壁,2013-10-13,23.602469,120.707731,8.490887e-09
C0U950,鶯子嶺,2013-10-13,24.89754,121.79244,5.69974e-09
C0O900,善化,2013-10-13,23.112883,120.297219,0.999368
C0K550,蔦松,2013-10-13,23.514319,120.229736,0.9954515
E2P980,林試六龜中心,2013-10-13,22.991703,120.645722,1.9243145e-05
C0E590,通霄,2013-10-13,24.471892,120.704622,0.9983716
C1I310,西巒,2013-10-13,23.754486,120.883956,6.6777304e-09
C0A550,泰平,2013-10-13,24.971197,121.823711,1.6459784e-05
C0I360,水里,2013-10-13,23.812553,120.849792,0.009171312
C0R830,高士,2013-10-13,22.121825,120.836781,0.03851168
C1I101,溪頭,2013-10-13,23.661789,120.807647,1.5162158e-08
C0AJ20,野柳,2013-10-13,25.20703,121.690021,0.2885618
C0B060,暖暖,2013-10-13,25.0957,121.7403,0.38725987
C1H920,長豐,2013-10-13,24.102039,120.879897,7.622063e-09
C0V360,內門,2013-10-13,22.975481,120.466769,0.99070466
C0R850,林邊,2013-10-13,22.4634,120.5339,0.9821449
C0E930,龍鳳,2013-10-13,24.700034,120.859125,0.71568286
C0U910,冬山,2013-10-13,24.63373,121.7937,0.8439741
C1E721,泰安,2013-10-13,24.489017,120.968036,2.7071398e-09
82H320,茶改中部分場,2013-10-13,23.875611,120.913583,1.2699786e-08
C0M750,布袋,2013-10-13,23.380878,120.167789,0.99410754
C1S860,利嘉,2013-10-13,22.809417,121.050528,2.7096673e-08
72C440,桃園農改,2013-10-13,24.950944,121.030583,0.15369424
E2S980,林試太麻里1,2013-10-13,22.598922,120.980044,0.029489888
C0X170,關廟,2013-10-13,22.963017,120.327797,0.99923396
C0V720,林園,2013-10-13,22.507747,120.394511,0.9973317
C1I510,線浸林道,2013-10-13,23.761508,120.832956,9.37596e-09
C0D690,外湖,2013-10-13,24.917735,120.968711,0.19853343
C0C750,新興坑尾,2013-10-13,25.0061,121.0971,0.09397118
B2Q810,畜試南區分所,2013-10-13,21.945583,120.802167,0.9700196
C0S790,金崙,2013-10-13,22.538122,120.966875,0.11893483
C0AH90,福山植物園,2013-10-13,24.760717,121.58135,3.2587536e-08
C0I540,奇萊稜線,2013-10-13,24.109231,121.326456,1.4891542e-08
C0M850,表湖,2013-10-13,23.24186,120.64166,2.9272238e-08
C0S770,大溪山,2013-10-13,22.478475,120.943325,0.0692298
C0AG80,中和,2013-10-13,24.991622,121.491792,0.49101546
C0T790,大禹嶺,2013-10-13,24.186117,121.316086,1.124019e-08
C0T9B0,水源,2013-10-13,23.991861,121.537169,0.1276106
C0R840,牡丹池山,2013-10-13,22.168389,120.841225,0.37463617
C1I131,桶頭,2013-10-13,23.641944,120.654117,0.11565006
CAL110,布袋國中,2013-10-13,23.35893,120.18026,0.9958656
467571,新竹,2013-10-13,24.827853,121.014219,0.15979569
C0Z290,赤柯山,2013-10-13,23.36893,121.38293,0.0005099185
C0X280,將軍,2013-10-13,23.214999,120.13577,0.9697779
C0S690,太麻里,2013-10-13,22.60902,120.98533,0.038404167
C0U880,北關,2013-10-13,24.9072,121.8734,0.7684298
C1H860,瑞岩,2013-10-13,24.123772,121.18345,6.8513737e-09
C0G810,埔心,2013-10-13,23.947633,120.525456,0.99978113
C0U970,大福,2013-10-13,24.80064,121.81389,0.7782688
C2H9N0,仁愛東眼,2013-10-13,24.026875,121.1205,7.108949e-09
C1E670,南礦,2013-10-13,24.538278,121.002836,4.130227e-09
C0M520,東後寮,2013-10-13,23.369908,120.248065,0.9963479
C1E461,松安,2013-10-13,24.397972,120.986022,2.8051237e-09
72G600,臺中農改,2013-10-13,24.003028,120.534389,0.9991877
C2N160,西拉雅風管處,2013-10-13,23.189481,120.335297,0.9990173
C2M970,碧湖,2013-10-13,23.568632,120.624165,6.063859e-09
C0A640,石碇,2013-10-13,24.993969,121.662917,0.081504956
E2S960,林試太麻里2,2013-10-13,22.598,120.99775,0.017276367
C0F9Y0,桃山,2013-10-13,24.432739,121.303808,1.836102e-08
C1I020,萬大,2013-10-13,23.979817,121.132261,4.9576148e-09
C0U940,羅東,2013-10-13,24.68184,121.74934,0.85117793
C0M650,朴子,2013-10-13,23.43463,120.23902,0.99435276
C1I500,大尖山,2013-10-13,23.858572,120.994889,1.0994921e-08
C0G820,田尾,2013-10-13,23.901669,120.509389,0.99979085
E2K600,四湖植物園,2013-10-13,23.676986,120.163433,0.9997483
C0S730,綠島,2013-10-13,22.6672,121.47533,0.008046871
12Q970,東港工作站,2013-10-13,22.479997,120.466058,0.9804556
C0E430,南庄,2013-10-13,24.601775,121.000214,0.9873358
C1TA00,太魯閣,2013-10-13,24.15773,121.6236,0.7085722
466920,臺北,2013-10-13,25.037658,121.514853,0.49101546
C0R600,舊泰武,2013-10-13,22.588194,120.664944,1.704804e-06
C1I260,北坑,2013-10-13,23.9246,121.006903,2.2751458e-08
466910,鞍部,2013-10-13,25.182586,121.529731,2.740467e-09
C1I230,九份二山,2013-10-13,23.961944,120.845,5.245091e-09
C2A660,瑞芳,2013-10-13,25.113169,121.801147,0.50652736
C0R270,琉球嶼,2013-10-13,22.332244,120.362236,0.92583287
C1T990,高寮,2013-10-13,23.394239,121.356808,0.99884766
C0G620,芬園,2013-10-13,24.015678,120.6213,0.9998711
C1Z140,荖溪,2013-10-13,23.890575,121.45964,1.442682e-07
C1I201,中心崙,2013-10-13,23.728722,120.712097,6.1356187e-09
C1I400,凌霄,2013-10-13,24.018778,121.004456,7.209339e-09
C1M640,十字,2013-10-13,23.492153,120.753683,1.1285797e-08
G2P820,農試鳳山分所,2013-10-13,22.646611,120.356083,0.9975322
C0Z270,蕃薯寮,2013-10-13,23.73835,121.540108,0.99744934
C0F9Q0,外埔,2013-10-13,24.347817,120.705686,0.99846864
C0K580,高鐵雲林,2013-10-13,23.737456,120.417944,0.99933046
C2I090,鳳凰,2013-10-13,23.728081,120.787347,1.0997773e-08
C0U990,員山,2013-10-13,24.74435,121.72247,0.85117793
C0V770,大社,2013-10-13,22.730306,120.346639,0.99914277
C0X120,麻豆,2013-10-13,23.183289,120.248611,0.9779168
C0C670,龍潭,2013-10-13,24.870056,121.221389,0.39469332
C0D680,香山濕地,2013-10-13,24.783581,120.914988,0.17897755
C0S980,勝林山,2013-10-13,22.430439,120.8938,0.022251742
C0V730,大寮,2013-10-13,22.605614,120.395717,0.009083467
C0R570,麟洛,2013-10-13,22.65078,120.52719,0.98747957
C2M930,石卓,2013-10-13,23.478744,120.702264,1.1514933e-08
C0G9B0,和美,2013-10-13,24.105169,120.492131,0.9992198
CAG100,王功漁港,2013-10-13,23.96824,120.32586,0.9999197
C0X290,北門,2013-10-13,23.267772,120.125481,0.9697382
C2F930,大甲,2013-10-13,24.347667,120.640403,0.9998191
C0D650,湖口,2013-10-13,24.904794,121.043628,0.120524585
C0E420,竹南,2013-10-13,24.708978,120.888897,0.22228663
C0U780,五結,2013-10-13,24.68637,121.79794,0.8439741
C1I250,鯉潭,2013-10-13,23.961922,120.991131,7.622063e-09
C0R130,阿禮,2013-10-13,22.742908,120.743678,6.210466e-09
C0X100,臺南市北區,2013-10-13,23.010394,120.194228,0.9704256
C0S920,金峰嘉蘭,2013-10-13,22.594789,120.960825,0.034140885
C0V490,新興,2013-10-13,22.627422,120.298803,0.9973317
C0F9K0,大安,2013-10-13,24.345061,120.588025,0.9998261
72N100,臺南農改,2013-10-13,23.0605,120.342194,0.99955696
467290,古坑,2013-10-13,23.633639,120.551889,0.99935585
C2E970,八甲,2013-10-13,24.535811,120.795983,0.9866622
C0V440,鳳山,2013-10-13,22.646653,120.356122,0.9975322
C1T940,大觀,2013-10-13,23.714206,121.373133,0.9986179
72T250,花蓮農改,2013-10-13,23.975222,121.563889,0.92612356
C0E740,造橋,2013-10-13,24.637056,120.864778,0.78518367
C0R100,尾寮山,2013-10-13,22.833111,120.683889,6.5743144e-09
A2K630,臺大雲林校區,2013-10-13,23.730628,120.423903,0.99933046
C0D580,寶山,2013-10-13,24.735006,121.025192,0.82629955
E2P990,林試扇平站,2013-10-13,22.9677,120.6857,2.567467e-07
C0AI30,三重,2013-10-13,25.057328,121.500629,0.34877846
C0AH00,汐止,2013-10-13,25.066881,121.658778,0.2885618
C1Z040,立山,2013-10-13,23.443356,121.327375,0.999738
C0W130,花嶼,2013-10-13,23.40007,119.32276,0.9999469
C0A950,鼻頭角,2013-10-13,25.129036,121.923372,0.81519324
C0K470,林內,2013-10-13,23.748675,120.609642,0.99978065
C2F990,摩天嶺,2013-10-13,24.322458,120.936819,6.107235e-09
82C160,茶改場,2013-10-13,24.908472,121.185333,0.0043502375
C0Z320,清水林道,2013-10-13,23.27125,121.188272,0.99535084
C0R760,南仁湖,2013-10-13,22.084681,120.863353,0.07680505
C0M670,大林,2013-10-13,23.600616,120.45841,0.99926347
C0M800,茶山,2013-10-13,23.299075,120.664767,0.00031895205
C0A9C0,天母,2013-10-13,25.117494,121.537169,0.32698742
72K220,南改斗南分場,2013-10-13,23.634556,120.477333,0.9998076
72AI40,桃改樹林分場,2013-10-13,24.944503,121.386972,0.32338703
C0S910,蘭嶼燈塔,2013-10-13,22.081197,121.503117,0.99854684
C0B050,八斗子,2013-10-13,25.144754,121.79167,0.25676262
C0U900,內城,2013-10-13,24.71813,121.68766,0.6958139
C0X320,柳營,2013-10-13,23.253328,120.375253,0.9995133
C0M790,新港,2013-10-13,23.553269,120.345728,0.9985603
C0F9T0,西屯,2013-10-13,24.179494,120.641275,0.99994326
C0SA30,都歷,2013-10-13,23.020333,121.323642,0.007814258
C0C620,蘆竹,2013-10-13,25.084275,121.265767,0.26569682
C0R730,大坪頂,2013-10-13,22.024633,120.69355,0.7609326
C0AJ40,石門,2013-10-13,25.273672,121.601198,0.66353154
C0E750,苗栗,2013-10-13,24.564569,120.824575,0.9940475
C0T870,鯉魚潭,2013-10-13,23.935639,121.508944,0.981475
C1V170,排雲,2013-10-13,23.463619,120.954147,1.956568e-08
C2H950,中寮,2013-10-13,23.884447,120.766406,0.98607796
C0R350,貓鼻頭,2013-10-13,21.921774,120.7358,0.963244
C0V660,岡山,2013-10-13,22.797078,120.294958,0.9991761
C1H941,雙冬,2013-10-13,23.967378,120.802189,2.0777485e-08
C0AJ70,田寮,2013-10-13,25.2698,121.4886,0.2892459
C0AI00,五股,2013-10-13,25.07445,121.42728,0.10648574
C0Z280,德武,2013-10-13,23.47426,121.41071,0.999669
C0R700,枋山,2013-10-13,22.246844,120.661086,0.895689
C0C460,復興,2013-10-13,24.820208,121.352281,2.526637e-08
E2H360,蓮華池,2013-10-13,23.918333,120.885278,1.6720067e-08
C0M640,中埔,2013-10-13,23.42538,120.5229,0.9994511
C0W140,金沙,2013-10-13,24.488292,118.408778,0.80897874
C2A540,四堵,2013-10-13,24.8926,121.745736,7.056165e-06
C0ACA0,新莊,2013-10-13,25.051478,121.446756,0.23739552
C0R220,潮州,2013-10-13,22.534361,120.54,0.0029225731
U2HA40,臺大內茅埔,2013-10-13,23.689722,120.851117,2.2850264e-08
467490,臺中,2013-10-13,24.145736,120.684075,0.9993906
C0U960,翠峰湖,2013-10-13,24.510856,121.608044,1.2593291e-08
E2HA20,林試畢祿溪站,2013-10-13,24.226944,121.308522,7.917487e-09
C0V890,前鎮,2013-10-13,22.5718,120.3117,0.9972239
467620,蘭嶼,2013-10-13,22.036969,121.558339,0.91043836
C1F941,雪嶺,2013-10-13,24.280586,121.026642,9.4224095e-09
C2H9E0,國姓南港,2013-10-13,23.911108,120.846556,7.9431715e-09
C0AC80,文山,2013-10-13,25.00235,121.575728,0.43721774
C0F9R0,龍井,2013-10-13,24.184536,120.528972,0.9999544
C0M760,民雄,2013-10-13,23.551754,120.428457,0.9995462
C0UA40,西德山,2013-10-13,24.560647,121.752608,2.9867692e-08
C1T920,中興,2013-10-13,23.769503,121.498653,0.9675687
C0D550,雪霸,2013-10-13,24.526972,121.11605,8.677185e-09
C2F860,梨山,2013-10-13,24.247522,121.243669,8.047157e-09
C0R320,車城,2013-10-13,22.0744,120.716247,0.97561
C1S870,南美山,2013-10-13,23.15025,121.382333,0.016049292
C0B020,基隆嶼,2013-10-13,25.19141,121.78391,0.28841394
C1U501,牛鬥,2013-10-13,24.637836,121.573656,0.030453943
C0M730,嘉義市東區,2013-10-13,23.457673,120.460531,0.998557
C0S700,知本,2013-10-13,22.684866,121.005642,0.05429808
C1N001,沙崙,2013-10-13,22.935472,120.309406,0.9992683
C0V760,橋頭,2013-10-13,22.757806,120.30575,0.9992236
C0G960,福寶,2013-10-13,24.0443,120.3814,0.9992341
C0X210,白河,2013-10-13,23.347466,120.414427,0.9995246
C0S810,東河,2013-10-13,22.972672,121.303986,0.81857103
C2R170,屏東,2013-10-13,22.66027,120.49403,0.98822457
C0R670,楓港,2013-10-13,22.190131,120.692156,0.895689
C0FA50,霧峰,2013-10-13,24.0419,120.6995,0.9998284
C0UB10,蘇澳,2013-10-13,24.5969,121.8571,0.6582371
C0G950,防潮門,2013-10-13,24.1835,120.4871,0.99995583
C0M740,六腳,2013-10-13,23.492871,120.290625,0.9983819
C1R250,力里,2013-10-13,22.428117,120.629228,0.91460234
C0K330,虎尾,2013-10-13,23.719183,120.442036,0.999408
C2FA00,烏石坑,2013-10-13,24.273503,120.947617,6.1579883e-09
C0V620,永安,2013-10-13,22.82315,120.236856,0.997756
C1I330,楓樹林,2013-10-13,23.986803,121.076117,4.1335686e-09
C0W200,湖西,2013-10-13,23.596314,119.67275,0.9993104
72Q010,高雄農改場,2013-10-13,22.709333,120.525889,0.98503566
C0SA40,瑞和,2013-10-13,22.974361,121.156697,0.010704645
C0C680,龜山,2013-10-13,25.02846,121.38656,0.00013114393
C2V260,月眉,2013-10-13,22.971003,120.539853,0.0009005346
C0V450,鳳森,2013-10-13,22.545064,120.392592,0.0008579673
C0U720,南山,2013-10-13,24.43742,121.38167,2.7601189e-08
A2N290,臺南蘭花園區,2013-10-13,23.340258,120.379661,0.9995133
C0R560,新園,2013-10-13,22.5434,120.461558,0.9821449
C0U890,三星,2013-10-13,24.66812,121.65302,0.46680546
C1V300,御油山,2013-10-13,23.001983,120.715364,9.060354e-09
C0U600,礁溪,2013-10-13,24.817539,121.765608,0.7614986
C1T980,龍澗,2013-10-13,24.023289,121.411328,4.1892175e-08
C0D670,海天一線,2013-10-13,24.831986,120.914438,0.16840002
C0SA00,歷坵,2013-10-13,22.520969,120.89185,0.064991295
C0M710,東石,2013-10-13,23.458927,120.15385,0.9954515
C0M780,鹿草,2013-10-13,23.41134,120.30835,0.99876136
C0U520,雙連埤,2013-10-13,24.753033,121.641303,9.581077e-08
C0B010,七堵,2013-10-13,25.094819,121.71713,0.3184268
C0R480,長治,2013-10-13,22.693128,120.542622,1.3276856e-06
C1V830,國三S383K,2013-10-13,22.781967,120.426475,0.012657362
12Q980,恆春工作站,2013-10-13,22.079678,120.714425,0.97561
C1O940,東山服務區,2013-10-13,23.286016,120.398472,0.9995308
C1U840,東澳嶺,2013-10-13,24.5378,121.8485,1.55002e-05
C1D630,飛鳳山,2013-10-13,24.766464,121.119178,0.21062627
C0S940,石寧山,2013-10-13,23.223772,121.406639,0.9951141
C0K410,北港,2013-10-13,23.573957,120.292802,0.99847245
C2M620,瑞里,2013-10-13,23.545133,120.675197,6.8449992e-09
C0SB70,小港漁港,2013-10-13,23.158558,121.400431,0.8346641
C2O950,安南,2013-10-13,23.076694,120.144861,0.5820366
C0F0E0,南湖圈谷,2013-10-13,24.363714,121.444667,2.2059966e-08
467610,成功,2013-10-13,23.097486,121.373428,0.008240174
C0G890,伸港,2013-10-13,24.148933,120.484403,0.9999726
C2E540,龍溪,2013-10-13,24.606489,120.783933,0.9912888
C1V200,梅山,2013-10-13,23.268447,120.823556,3.8661987e-08
C0T9H0,加路蘭山,2013-10-13,23.682947,121.5274,0.14463806
C2O930,玉井,2013-10-13,23.126042,120.46055,0.9991506
C1F911,新伯公,2013-10-13,24.221361,120.841069,0.000722501
C0R490,九如,2013-10-13,22.7405,120.490503,0.98742676
C0X200,左鎮,2013-10-13,23.056758,120.408522,0.99951184
C0SB50,叭嗡嗡,2013-10-13,23.047062,121.343223,0.5844443
C1F891,稍來,2013-10-13,24.265689,121.001142,7.181191e-09
72N240,七股研究中心,2013-10-13,23.081672,120.062894,0.91205746
C0C700,中壢,2013-10-13,24.977661,121.256375,0.041704144
C0M690,水上,2013-10-13,23.419734,120.388909,0.9994252
C0V690,鼓山,2013-10-13,22.623325,120.275575,0.9973317
C0O860,大內,2013-10-13,23.11885,120.36083,0.9996119
C0Z200,萬榮,2013-10-13,23.709219,121.420106,0.981475
C0T9D0,和中,2013-10-13,24.26676,121.74103,0.3970998
C1O921,楠西,2013-10-13,23.183511,120.484083,0.99946237
C0AJ30,淡水觀海,2013-10-13,25.184591,121.408616,0.25277436
C0V810,左營,2013-10-13,22.67491,120.28491,0.9990496
C0UA70,桃源谷,2013-10-13,24.962606,121.888875,7.3990736e-07
C0X130,官田,2013-10-13,23.193217,120.315422,0.9989018
C1H000,翠峰,2013-10-13,24.109397,121.205211,9.5174535e-09
C0UA90,石城,2013-10-13,24.980444,121.951214,0.87435466
C1E681,南勢山,2013-10-13,24.421669,120.923831,2.7995861e-09
C0A9F0,內湖,2013-10-13,25.079422,121.57545,0.49101546
C0K291,宜梧,2013-10-13,23.536281,120.169329,0.99525726
C1K540,口湖,2013-10-13,23.585344,120.180517,0.99008626
C0R780,滿州,2013-10-13,22.024403,120.839892,0.95961267
C0V870,文安,2013-10-13,22.8025,120.2164,0.9973883
C0U650,玉蘭,2013-10-13,24.675286,121.587061,0.013998702
C0R640,東港,2013-10-13,22.46247,120.44074,0.9972239
K2E360,苗栗農改,2013-10-13,24.495722,120.829111,0.98154795
C0AJ80,板橋,2013-10-13,25.0107,121.4489,0.3477033
C0S660,下馬,2013-10-13,23.150427,121.070312,0.03000217
C1H9B1,阿眉,2013-10-13,24.1263,120.994672,5.040779e-09
C0UA20,多加屯,2013-10-13,24.368614,121.373189,1.2340625e-08
C0E730,頭份,2013-10-13,24.688247,120.912206,0.22251676
72V140,高改旗南分場,2013-10-13,22.857861,120.516667,1.3404629e-06
C0K480,莿桐,2013-10-13,23.761192,120.502372,0.99976367
C0U980,坪林石牌,2013-10-13,24.86478,121.77396,1.6590842e-06
C0T900,西林,2013-10-13,23.8119,121.441458,0.98490185
C1I150,青雲,2013-10-13,23.793361,120.949378,1.8662654e-08
467350,澎湖,2013-10-13,23.565503,119.563094,0.9997487
C0G800,埔鹽,2013-10-13,24.000394,120.431683,0.9992049
C0H960,草屯,2013-10-13,23.973672,120.68085,0.9998469
C1V780,多納林道,2013-10-13,22.888028,120.737917,7.0852195e-09
C0E920,通霄漁港,2013-10-13,24.498589,120.673876,0.99806166
C0Z330,安通山,2013-10-13,23.290728,121.348528,0.9990699
C0AH10,永和,2013-10-13,25.01125,121.508111,0.49312213
C0AK10,太平里,2013-10-13,25.134937,121.364899,0.23720714
C2G640,鹿港,2013-10-13,24.0753,120.430481,0.9992126
C1E890,國三N149K,2013-10-13,24.463414,120.680019,0.9984793
C1R110,口社,2013-10-13,22.770111,120.645222,9.36242e-06
C1M870,國三N285K,2013-10-13,23.550319,120.505833,0.99969256
467050,新屋,2013-10-13,25.006744,121.047486,0.17543617
C1E480,鳳美,2013-10-13,24.554803,121.034747,2.1779535e-06
C0M530,奮起湖,2013-10-13,23.493903,120.699253,5.6895733e-09
C0C590,觀音,2013-10-13,25.027072,121.153317,0.5141331
C0T9M0,靜浦,2013-10-13,23.455167,121.495028,0.9917873
C2H9M0,發祥,2013-10-13,24.154094,121.164517,4.7285234e-09
C0AI40,石牌,2013-10-13,25.115597,121.513139,0.3477033
C1F871,上谷關,2013-10-13,24.203483,121.018644,6.1462306e-09
C2H9G0,百勝,2013-10-13,24.051142,120.909361,4.3170825e-05
C0G880,二水,2013-10-13,23.810742,120.6173,0.9998398
C0R940,加祿堂,2013-10-13,22.3363,120.6217,0.92534125
C0W220,北竿,2013-10-13,26.220358,119.974881,0.101110354
C0O960,崎頂,2013-10-13,22.959547,120.369317,0.0010155777
C0S750,向陽,2013-10-13,23.248397,120.986133,1.2333072e-08
C0T9F0,水璉,2013-10-13,23.797131,121.542514,0.97174335
C1M600,頭凍,2013-10-13,23.406364,120.603339,2.8812753e-08
467660,臺東,2013-10-13,22.752211,121.154586,0.17465933
C1D380,新埔,2013-10-13,24.84745,121.03834,0.29175588
C2G980,田頭村,2013-10-13,23.8263,120.444175,0.9983531
C0V750,路竹,2013-10-13,22.854997,120.259439,0.999529
C0N050,蚵寮,2013-10-13,23.301,120.1104,0.98479986
72M700,南改鹿草分場,2013-10-13,23.416869,120.283061,0.99872303
C1SA50,利嘉林道,2013-10-13,22.82325,121.009389,6.482273e-09
467550,玉山,2013-10-13,23.487614,120.959522,2.173951e-08
C0A940,金山,2013-10-13,25.223628,121.643967,0.36864567
C1V340,大津,2013-10-13,22.888322,120.645986,0.010383442
C0W180,七美,2013-10-13,23.219333,119.444892,0.9999074
C1F9C1,白冷,2013-10-13,24.182844,120.929889,0.0001114327
K2E710,苗改生物防治研究中心,2013-10-13,24.422861,120.871833,0.9978999
C0N040,蘆竹溝,2013-10-13,23.2344,120.0961,0.9847776
C2W230,畜試所澎湖,2013-10-13,23.628342,119.513206,0.9999097
C0R880,後壁湖,2013-10-13,21.9457,120.7457,0.9781584
C1I280,埔中,2013-10-13,23.820778,120.642594,2.8435778e-07
467790,墾丁雷達站,2013-10-13,21.948235,120.808028,0.9549179
C0W190,望安,2013-10-13,23.380564,119.494075,0.9997301
466881,新北,2013-10-13,24.9593,121.52,0.47160143
C0Z170,卓溪,2013-10-13,23.3443,121.3029,0.9978581
C0F850,東勢,2013-10-13,24.246428,120.833047,0.003169634
466900,淡水,2013-10-13,25.164889,121.448906,0.24835864
C0I370,魚池,2013-10-13,23.895703,120.94135,1.8093019e-08
C0C630,大溪,2013-10-13,24.882853,121.265547,0.03716504
C0A520,山佳,2013-10-13,24.974944,121.402008,0.32338703
C0I110,竹山,2013-10-13,23.761225,120.688156,0.9977243
82H840,茶改南部分場,2013-10-13,23.762528,120.7405,3.5210668e-08
C0G660,溪湖,2013-10-13,23.94835,120.479122,0.99976474
C1T800,洛韶,2013-10-13,24.204558,121.453956,9.343596e-08
C1T810,慈恩,2013-10-13,24.192044,121.388386,1.2648513e-08
C1E451,象鼻,2013-10-13,24.368617,120.940228,2.7995861e-09
C0AC60,三峽,2013-10-13,24.939025,121.369728,0.45908463
C0I490,萬大林道,2013-10-13,23.928228,121.091411,1.4702955e-08
C1I290,豐丘,2013-10-13,23.668178,120.887417,9.37596e-09
C1I320,奧萬大,2013-10-13,23.952956,121.178556,4.1030828e-09
C2M910,嘉義大學,2013-10-13,23.471325,120.485903,0.9995658
C0U770,南澳,2013-10-13,24.44935,121.81022,0.93209296
C0A980,社子,2013-10-13,25.109508,121.469681,0.36095276
C0V800,六龜,2013-10-13,22.997889,120.633583,2.8089724e-05
C1G9D0,國一S218K,2013-10-13,23.890641,120.493253,0.99978113
C0E570,白沙屯,2013-10-13,24.549447,120.696803,0.99805045
C2F9A0,中竹林,2013-10-13,24.103556,120.751061,2.6968289e-08
C0FA40,臺中電廠,2013-10-13,24.2146,120.4907,0.9999544
C2G9A0,畜試所彰化,2013-10-13,23.86045,120.557964,0.999826
C0H9C0,合歡山,2013-10-13,24.143442,121.272547,1.6142403e-08
C0X060,下營,2013-10-13,23.22695,120.256261,0.9987384
G2M350,農試溪口農場,2013-10-13,23.58565,120.408111,0.9995097
C0U860,頭城,2013-10-13,24.85323,121.8308,0.7506688
C0R580,南州,2013-10-13,22.48591,120.50274,0.98026323
C0D430,峨眉,2013-10-13,24.6905,121.017189,0.4434348
C0G780,秀水,2013-10-13,24.03405,120.503869,0.9991744
72N100,臺南農改場,2013-10-13,23.0605,120.342194,0.99955696
C0S900,蘭嶼高中,2013-10-13,22.04909,121.51214,0.9992217
467540,大武,2013-10-13,22.355675,120.903789,0.023444118
C1F9W0,德基,2013-10-13,24.254783,121.190261,6.7988988e-09
C1Z120,壽豐,2013-10-13,23.870853,121.508081,0.9554215
C0W160,烏坵,2013-10-13,24.9944,119.44956,0.21394898
C1I240,外大坪,2013-10-13,23.958697,120.917931,7.0815314e-09
C1I550,國六W023K,2013-10-13,23.979067,120.867742,1.8248637e-07
C0R870,興海,2013-10-13,21.9752,120.8439,0.9700196
C0R140,瑪家,2013-10-13,22.682903,120.686639,5.018272e-07
C0A530,坪林,2013-10-13,24.938183,121.70975,0.00066905393
C0X260,後壁,2013-10-13,23.366358,120.362326,0.9997673
C0Z230,和平,2013-10-13,24.30717,121.77007,0.3970998
C0G770,福興,2013-10-13,24.041289,120.437669,0.9992049
C0H9A0,神木村,2013-10-13,23.532742,120.843667,1.41036285e-08
C0I460,南投,2013-10-13,23.911469,120.687331,0.9993804
C0I480,梅峰,2013-10-13,24.085272,121.173572,7.889825e-09
C1V570,吉東,2013-10-13,22.85422,120.5454,6.4055394e-07
C2D740,屯原,2013-10-13,24.067969,121.209389,6.5403203e-09
C2A560,福山,2013-10-13,24.776203,121.502811,8.5922736e-08
C0AH30,五分山,2013-10-13,25.07125,121.780794,1.3369943e-08
C0FA10,松柏,2013-10-13,24.429115,120.617482,0.9998046
72S200,東改班鳩分場,2013-10-13,22.829528,121.077694,0.51389736
72HA00,中改埔里分場,2013-10-13,23.903208,120.963364,2.0219362e-08
C2H9W0,大坪頂農水,2013-10-13,24.043122,120.932781,7.507358e-09
C0C650,平鎮,2013-10-13,24.897503,121.214636,0.0043162596
C0S930,延平,2013-10-13,22.902581,121.084058,0.9621514
C0UA60,樟樹山,2013-10-13,24.41393,121.78325,0.970093
C1S670,摩天,2013-10-13,23.199503,121.027,2.5054591e-08
C0V630,茄萣,2013-10-13,22.906642,120.182608,0.991121
466940,基隆,2013-10-13,25.133314,121.740475,0.27509382
C0X050,東河,2013-10-13,23.296598,120.385608,0.9995133
C0R770,保力,2013-10-13,22.071122,120.764111,0.93639606
G2L020,農試嘉義分所,2013-10-13,23.485028,120.473806,0.99948424
C0X240,關子嶺,2013-10-13,23.331169,120.508025,1.0729526e-06
C0I380,集集,2013-10-13,23.828206,120.801467,0.031850025
466990,花蓮,2013-10-13,23.975128,121.613275,0.92765224
C1V220,小關山,2013-10-13,23.154217,120.813603,7.6194615e-09
C1F9G1,慶福山,2013-10-13,24.180853,120.848378,1.05858035e-07
C0Z250,瑞穗林道,2013-10-13,23.49284,121.30688,1.5452013e-06
C0D590,新豐,2013-10-13,24.87068,120.97721,0.9168877
C0A870,五指山,2013-10-13,25.132153,121.608692,1.1763094e-08
C0UA50,西帽山,2013-10-13,24.555361,121.802628,3.1593723e-07
C0X160,仁德,2013-10-13,22.968258,120.257689,0.99886
C1H971,六分寮,2013-10-13,23.92507,120.6378,1.5431624e-08
C0W120,西嶼,2013-10-13,23.5626,119.468436,0.9997487
C0G650,員林,2013-10-13,23.946503,120.585597,0.9997678
C0AD50,鶯歌,2013-10-13,24.951533,121.346294,0.25934145
C2H9Q0,北東眼山,2013-10-13,24.120939,121.189303,6.4520274e-09
C2H9T0,名間竹圍,2013-10-13,23.859914,120.637572,0.00029878513
C0S990,山豬窟,2013-10-13,22.318619,120.857372,0.09014783
72Q010,高雄農改,2013-10-13,22.709333,120.525889,0.98503566
C0X190,安平,2013-10-13,22.993161,120.152181,0.9703801
C0K400,斗六,2013-10-13,23.720583,120.541127,0.99985063
12J990,口湖工作站,2013-10-13,23.589978,120.180394,0.9909399
C0O830,北寮,2013-10-13,23.079561,120.495008,0.0026867355
C1D410,白蘭,2013-10-13,24.579364,121.079947,7.549633e-09
C0S970,加津林,2013-10-13,22.416211,120.926942,0.021640118
C0D700,關西,2013-10-13,24.7977,121.1732,0.017494716
C0M810,里佳,2013-10-13,23.389125,120.716647,5.6895733e-09
C0U750,龜山島,2013-10-13,24.841667,121.953133,0.9990919
C0R810,內獅,2013-10-13,22.305064,120.642986,0.92534125
C1M390,龍美,2013-10-13,23.406728,120.654417,1.1567125e-08
C2FB60,頭櫃山,2013-10-13,24.129842,120.858925,5.2507967e-09
C1H840,國三N238K,2013-10-13,23.841008,120.707711,0.01645353
CAQ030,崎峰國小,2013-10-13,22.42565,120.49521,0.98026323
C2E520,大湖,2013-10-13,24.414939,120.870872,0.90073097
467530,阿里山,2013-10-13,23.508208,120.813242,1.1517107e-08
C1E691,南湖,2013-10-13,24.40135,120.837533,2.2452538e-08
C0FA30,梧棲,2013-10-13,24.256003,120.523381,0.9999544
C1V231,高中,2013-10-13,23.134911,120.716711,3.6126372e-07
C0F9V0,新社,2013-10-13,24.200172,120.815806,5.9423637e-06
C0H890,埔里,2013-10-13,23.972169,120.952425,0.120964065
C0R690,墾丁,2013-10-13,21.966756,120.810269,0.42580068
C0F0D0,審馬陣,2013-10-13,24.381675,121.4203,1.6581062e-08
C0R820,白鷺,2013-10-13,22.454275,120.666219,6.911814e-05
U2H480,臺大溪頭,2013-10-13,23.670306,120.798194,1.3065536e-08
C1V190,南天池,2013-10-13,23.27403,120.91176,1.1709995e-08
K2E360,苗栗農改場,2013-10-13,24.495722,120.829111,0.98154795
CAJ050,海口故事園區,2013-10-13,23.57543,120.14121,0.99008626
C2H9D0,三隻寮,2013-10-13,24.093078,120.861578,6.9865047e-09
C0O990,媽廟,2013-10-13,22.99175,120.293525,0.99896246
C0D480,打鐵坑,2013-10-13,24.849664,121.150789,0.9262211
C0Z220,和平林道,2013-10-13,24.343922,121.656317,0.9593567
C0TA10,花蓮漁港,2013-10-13,23.995322,121.638331,0.9291717
72C440,桃園農改場,2013-10-13,24.950944,121.030583,0.15369424
C1E711,馬拉邦山,2013-10-13,24.367306,120.901656,3.2316365e-08
C0SB20,富岡,2013-10-13,22.792467,121.192669,0.19691217
C0D560,竹東,2013-10-13,24.767147,121.057881,0.38845915
C0F9U0,南屯,2013-10-13,24.137006,120.637969,0.99996305
C0M720,番路,2013-10-13,23.464657,120.554156,0.9983724
C0F0A0,雪山圈谷,2013-10-13,24.388594,121.236339,2.2962373e-08
C1A9N0,四十份,2013-10-13,24.934158,121.593283,9.753438e-08
C0U760,東澳,2013-10-13,24.52196,121.83318,0.9924044
C0X230,鹽水,2013-10-13,23.272621,120.247641,0.9944592
C2H9H0,苗改南投蜂場,2013-10-13,23.852589,120.693481,0.9977236
C0R950,萬隆國小,2013-10-13,22.507667,120.587817,7.759438e-06
C0V370,古亭坑,2013-10-13,22.893178,120.401947,0.9976402
C1I340,新興橋,2013-10-13,23.563333,120.868728,8.318991e-09
C0SA80,土坂,2013-10-13,22.453108,120.887572,0.06194157
C0R160,鹽埔,2013-10-13,22.739558,120.530778,1.9222468e-06
C0AC40,大屯山,2013-10-13,25.175675,121.522408,2.053024e-09
466850,五分山雷達站,2013-10-13,25.071182,121.781205,1.2978382e-08
C2H9L0,馬烈霸,2013-10-13,24.1512,121.201772,6.398753e-09
C1AI50,國三N016K,2013-10-13,25.034164,121.619664,0.4415719
C1V600,藤枝,2013-10-13,23.071961,120.757042,1.1542838e-08
C1E601,南勢,2013-10-13,24.572486,120.734842,0.98815656
C0Z180,新城,2013-10-13,24.03946,121.60454,0.9263127
C0O980,新市,2013-10-13,23.061614,120.298197,0.9993686
C0K420,西螺,2013-10-13,23.800407,120.467394,0.99974954
C0Z050,佳心,2013-10-13,23.34567,121.21316,0.0003389032
C0AD30,蘆洲,2013-10-13,25.086594,121.472331,0.3486669
C0V610,梓官,2013-10-13,22.760558,120.267211,0.9991761
K2F750,種苗改良場,2013-10-13,24.225972,120.800917,6.395971e-05
C0UA80,大溪漁港,2013-10-13,24.941801,121.902955,0.7456465
C1AI60,國一39K邊坡,2013-10-13,25.064361,121.383836,0.032491107
C0W150,金寧,2013-10-13,24.457703,118.328989,0.78699243
C0R960,內埔,2013-10-13,22.608483,120.570714,1.5800679e-05
V2C250,八德合作社,2013-10-13,24.93775,121.266389,0.020038586
C2H9S0,龍南,2013-10-13,23.953536,120.833183,4.358821e-09
C0AH40,平等,2013-10-13,25.129142,121.577086,9.4700835e-07
C0R540,佳冬,2013-10-13,22.419456,120.552375,0.9804556
466950,彭佳嶼,2013-10-13,25.627975,122.079744,0.92806625
C0A890,雙溪,2013-10-13,25.036003,121.864242,0.3465879
C0C480,桃園,2013-10-13,24.992425,121.323172,0.063486174
C0AH50,林口,2013-10-13,25.072181,121.38084,0.0022881962
A2K360,水試臺西試驗場,2013-10-13,23.717231,120.190522,0.9997996
B2N890,畜試所,2013-10-13,23.058972,120.336406,0.99955696
C2M960,外寮,2013-10-13,23.562643,120.665688,5.390994e-09
C0F9S0,烏日,2013-10-13,24.107058,120.624103,0.99921775
C0C490,八德,2013-10-13,24.928708,121.283289,0.063203245
C0R190,赤山,2013-10-13,22.592333,120.614306,1.2491351e-05
C0T820,天祥,2013-10-13,24.179597,121.495639,0.9901869
C1F9E1,龍安,2013-10-13,24.1605,120.831961,2.082287e-06
C0V820,小林,2013-10-13,23.148408,120.63325,1.3154918e-05
C2G870,芳苑,2013-10-13,23.922303,120.320025,0.99974525
C0E850,大河,2013-10-13,24.618069,120.948578,0.95925397
C1U670,寒溪,2013-10-13,24.634,121.71691,0.9400038
C0N020,城西,2013-10-13,23.0568,120.0956,0.9173845
C1Z110,三棧,2013-10-13,24.11557,121.60501,0.3212737
C0R280,檳榔,2013-10-13,22.076078,120.836777,0.486188
C2H9J0,中台,2013-10-13,23.9996,120.938739,0.006570132
C0F9L0,后里,2013-10-13,24.310436,120.729725,0.99923766
C0D540,橫山,2013-10-13,24.71116,121.11693,0.87173015
C1D420,太閣南,2013-10-13,24.632808,121.160575,2.6967312e-08
C1E770,公館,2013-10-13,24.526914,120.830806,0.99860525
CAN130,水試所海水繁養殖中心,2013-10-13,23.120802,120.07968,0.9120574
C1I430,翠華,2013-10-13,24.191961,121.224339,9.160006e-09
C1M400,菜瓜坪,2013-10-13,23.251928,120.576103,0.000667029
C0G730,二林,2013-10-13,23.903325,120.376081,0.9990491
72M360,南改義竹分場,2013-10-13,23.360694,120.279361,0.99926746
V2K620,麥寮合作社,2013-10-13,23.753836,120.294783,0.99975055
C0Z070,舞鶴,2013-10-13,23.46811,121.37407,0.9998012
C0B040,大武崙,2013-10-13,25.166676,121.706993,0.3182312
C1Z030,紅葉,2013-10-13,23.493119,121.338806,0.99970096
C1I050,丹大,2013-10-13,23.753747,121.141147,9.890434e-09
C0I080,信義,2013-10-13,23.689694,120.851036,2.2850264e-08
C2M920,朴子農改,2013-10-13,23.469889,120.259383,0.998413
C2A880,福隆,2013-10-13,25.017842,121.942083,0.8062062
C0Z160,鳳林,2013-10-13,23.746114,121.453411,0.98062104
C0V210,復興,2013-10-13,23.222403,120.806089,1.0153643e-07
C0H990,昆陽,2013-10-13,24.121322,121.273642,1.3430416e-08
C0R741,獅子,2013-10-13,22.202308,120.705236,0.93470544
C0S710,鹿野,2013-10-13,22.917711,121.122994,0.99663115
C0I530,小奇萊,2013-10-13,24.131764,121.295717,1.4286435e-08
C2K630,荷苞,2013-10-13,23.657717,120.595144,0.99923974
C0Z080,富源,2013-10-13,23.587642,121.378225,0.9997269
467441,高雄,2013-10-13,22.7304,120.3125,0.9990496
C0SB10,美和,2013-10-13,22.682078,121.060236,0.0064988984
C2K620,馬光農場,2013-10-13,23.721453,120.378864,0.9992487
C1I140,卡奈托灣,2013-10-13,23.754364,121.087872,1.4597721e-08
C0I520,玉山風口,2013-10-13,23.470489,120.955994,2.2321748e-08
C1G691,下水埔,2013-10-13,23.816114,120.5676,0.9998438
C0X110,臺南市南區,2013-10-13,22.961189,120.188378,0.97311777
C0V680,仁武,2013-10-13,22.701083,120.347722,0.99914277
C2G840,北斗,2013-10-13,23.877586,120.514222,0.9997913
C0R900,竹坑,2013-10-13,22.1385,120.7022,0.89364004
C0K250,崙背,2013-10-13,23.75555,120.318925,0.9997492
C0G860,社頭,2013-10-13,23.897647,120.5862,0.9997749
C0X150,安定,2013-10-13,23.102614,120.227839,0.94348663
C0R590,里港,2013-10-13,22.77919,120.49459,1.9506065e-06
C0E610,馬都安,2013-10-13,24.451272,120.930192,6.036544e-09
C0E550,明德,2013-10-13,24.583486,120.885411,0.9500252
C0R150,三地門,2013-10-13,22.709889,120.639944,8.763863e-06
C0G910,花壇,2013-10-13,24.032076,120.549461,0.9991618
C1D400,鳥嘴山,2013-10-13,24.71909,121.28387,5.805786e-09
C0K500,元長,2013-10-13,23.64981,120.315024,0.9997035
C0F0B0,石岡,2013-10-13,24.276061,120.777644,9.3611726e-07
C2V250,甲仙,2013-10-13,23.080106,120.591758,2.6600983e-06
C0SA20,金崙山,2013-10-13,22.567419,120.959667,1.3025833e-06
C0V350,溪埔,2013-10-13,22.738578,120.446797,0.9969747
C0M660,溪口,2013-10-13,23.604131,120.403569,0.9995097
C1S880,壽卡,2013-10-13,22.238911,120.858903,0.36882633
72D680,桃改新埔分場,2013-10-13,24.834444,121.066111,0.46315634
