站號,站名,日期,lat,lon,BLBTSLS
C0R710,龍磐,2013-12-27,21.931672,120.838942,0.9875544
C1F9D1,白毛台,2013-12-27,24.158325,120.886933,4.2543682e-08
C0G940,竹塘,2013-12-27,23.848253,120.386764,1.05650235e-08
467590,恆春,2013-12-27,22.003897,120.746339,0.95856196
C1O850,環湖,2013-12-27,23.148617,120.418633,3.8490884e-07
C0U710,太平山,2013-12-27,24.505486,121.525656,5.524928e-08
C0E820,獅潭,2013-12-27,24.539133,120.920042,2.515343e-06
C0V880,興達,2013-12-27,22.8778,120.2127,2.6750953e-07
C0S890,關山,2013-12-27,23.0395,121.175017,3.903778e-06
C0SB30,新蘭,2013-12-27,22.869214,121.223228,0.0015695469
C2R970,屏科大,2013-12-27,22.648275,120.619247,9.009431e-09
K2F750,種苗繁殖,2013-12-27,24.225972,120.800917,3.831483e-08
C1Z130,銅門,2013-12-27,23.965694,121.492842,2.9810073e-07
C0AD40,土城,2013-12-27,24.973208,121.445169,9.528684e-06
CAN140,六官養殖協會,2013-12-27,23.22881,120.29962,1.7741502e-07
C0X180,山上,2013-12-27,23.0757,120.363253,1.3951691e-07
C0F9Z0,雪山東峰,2013-12-27,24.388792,121.268675,5.651171e-08
C1M480,獨立山,2013-12-27,23.537022,120.607797,1.12899095e-08
C0X220,學甲,2013-12-27,23.230367,120.182187,1.753313e-06
467650,日月潭,2013-12-27,23.881325,120.90805,2.3251134e-08
C0K600,箔子寮,2013-12-27,23.6197,120.14,2.5829809e-06
C0G830,埤頭,2013-12-27,23.866003,120.452806,9.638003e-09
C0S950,七塊厝,2013-12-27,22.954453,121.229922,3.382095e-07
467110,金門,2013-12-27,24.407306,118.289281,4.646891e-07
C0AH80,深坑,2013-12-27,25.002703,121.628328,9.1961465e-06
467990,馬祖,2013-12-27,26.169269,119.923419,3.4751076e-07
C0A970,三貂角,2013-12-27,25.007606,122.002058,8.333881e-07
C2D730,寶山農場,2013-12-27,24.732444,120.976153,4.4892136e-06
C0K430,褒忠,2013-12-27,23.690938,120.303634,0.00015435705
467480,嘉義,2013-12-27,23.495925,120.432906,1.4864655e-05
C2E540,後龍,2013-12-27,24.606489,120.783933,0.04870756
C0V400,阿公店,2013-12-27,22.804194,120.355528,6.307464e-08
C0R440,大漢山,2013-12-27,22.405264,120.753181,5.8294575e-08
C0K280,四湖,2013-12-27,23.630414,120.227125,0.016478498
C1F9B1,桐林,2013-12-27,24.066172,120.735194,1.0629928e-08
C2H9U0,鳳鵬,2013-12-27,23.763919,120.788061,9.980105e-09
C0K390,土庫,2013-12-27,23.679029,120.395574,8.275739e-09
C1I450,望鄉山,2013-12-27,23.594153,120.944286,3.7870688e-08
C0E910,海埔,2013-12-27,24.648767,120.772435,0.0003895465
B2E890,畜試北區分所,2013-12-27,24.527806,120.770972,0.30718783
C0R750,四林格山,2013-12-27,22.076989,120.802439,0.99770015
C0F0C0,中坑,2013-12-27,24.248517,120.903319,4.9754924e-08
C1I121,大鞍,2013-12-27,23.678381,120.760017,1.8276081e-08
72U480,花改蘭陽分場,2013-12-27,24.686306,121.716583,7.359846e-07
C0A770,科教館,2013-12-27,25.096356,121.516507,1.2585648e-05
C0AJ60,六塊厝,2013-12-27,25.24,121.4481,0.00011947879
C0R620,墾雷,2013-12-27,21.900836,120.855269,0.9640622
467420,永康,2013-12-27,23.038386,120.2367,7.050865e-07
467300,東吉島,2013-12-27,23.25695,119.667467,0.9989619
C0I410,名間,2013-12-27,23.837053,120.701447,9.836404e-09
A2C560,農工中心,2013-12-27,24.985917,121.239833,1.33181065e-05
C0V740,旗山,2013-12-27,22.888614,120.483597,3.3349613e-07
C0Z061,玉里,2013-12-27,23.3215,121.339656,2.4062487e-07
C0S840,南田,2013-12-27,22.279725,120.889208,0.9998365
C1I470,杉林溪,2013-12-27,23.639517,120.786444,1.9213173e-08
C1X040,東原,2013-12-27,23.291597,120.463822,9.950093e-09
C0R660,枋寮,2013-12-27,22.367722,120.590647,1.0283698e-08
C1R120,上德文,2013-12-27,22.763272,120.704442,2.3282493e-07
C0K450,大埤,2013-12-27,23.646074,120.431537,8.027733e-09
C0UA00,土場,2013-12-27,24.576533,121.495333,5.167303e-08
467080,宜蘭,2013-12-27,24.763975,121.756528,2.417688e-07
C0N030,四草,2013-12-27,23.0235,120.1116,1.2859426e-06
C0V650,彌陀,2013-12-27,22.783806,120.246361,1.9562607e-07
C0D660,新竹市東區,2013-12-27,24.798681,120.986942,1.394933e-05
82S580,茶改東部分場,2013-12-27,22.907694,121.130139,5.378425e-07
C0SB40,興隆,2013-12-27,22.913661,121.257469,1.224077e-06
C0C710,大溪永福,2013-12-27,24.892936,121.324975,9.63832e-06
C0FA20,溫寮,2013-12-27,24.372177,120.583125,0.508475
C0V640,湖內,2013-12-27,22.887139,120.2445,2.4159314e-07
C0R910,下寮,2013-12-27,22.3929,120.5548,3.2232128e-07
C0Z020,明里,2013-12-27,23.208717,121.262342,1.6198868e-07
C0M770,嘉義梅山,2013-12-27,23.585398,120.555587,9.683886e-09
G2F820,農業試驗所,2013-12-27,24.031261,120.688133,0.0021370142
C0C660,楊梅,2013-12-27,24.912375,121.143047,4.5751976e-06
C1E511,新開,2013-12-27,24.347703,120.827019,1.4956958e-08
G2F820,農試所(霧峰),2013-12-27,24.031261,120.688133,0.0021370142
C1I070,和社,2013-12-27,23.591131,120.888861,8.44621e-09
C2F000,大肚,2013-12-27,24.15295,120.572117,1.762582e-08
C1S850,豐南,2013-12-27,23.122139,121.262389,1.5132146e-07
C2A920,富貴角,2013-12-27,25.263783,121.565258,2.5222702e-05
CAH030,茶改場竹圍站,2013-12-27,23.860083,120.637528,8.577729e-09
C0T960,光復,2013-12-27,23.660694,121.424964,4.6669427e-07
C0F9M0,豐原,2013-12-27,24.254322,120.720692,6.1229395e-05
C0R720,旭海,2013-12-27,22.205403,120.887614,0.999798
C0V710,苓雅,2013-12-27,22.622742,120.330669,3.1278668e-07
C0C740,觀音工業區,2013-12-27,25.064764,121.114856,0.00047160528
CAC040,拉拉山,2013-12-27,24.699317,121.427133,4.7347797e-08
C0V790,萬山,2013-12-27,22.905944,120.688056,1.065957e-08
U2HA30,臺大和社,2013-12-27,23.590856,120.888864,8.44621e-09
C0AJ90,澳底,2013-12-27,25.0552,121.9253,9.759847e-07
C0Z100,東華,2013-12-27,23.89525,121.549833,1.2133969e-06
C0G970,三豐,2013-12-27,23.882,120.2895,0.07066851
V2K610,大庄合作社,2013-12-27,23.8068,120.367939,0.00023663211
C0V900,汕尾,2013-12-27,22.4782,120.4151,1.4622152e-07
C1R630,龍泉,2013-12-27,22.66701,120.59091,1.1472513e-08
C1AC50,關渡,2013-12-27,25.133486,121.469331,1.0758866e-05
C0F9I0,神岡,2013-12-27,24.272481,120.658314,0.000157924
C0K460,斗南,2013-12-27,23.678734,120.478359,8.452382e-09
467410,臺南,2013-12-27,22.993239,120.204772,6.419666e-07
C2O810,曾文,2013-12-27,23.219681,120.497328,2.1067866e-07
467280,後龍,2013-12-27,24.648563,120.831834,0.00013241469
C1F9J1,清水林,2013-12-27,24.071242,120.820419,9.890434e-09
C2A650,火燒寮,2013-12-27,25.002719,121.742892,1.730304e-07
466930,竹子湖,2013-12-27,25.162078,121.544547,9.684036e-08
C1I220,樟湖,2013-12-27,23.905333,120.846983,1.5888835e-08
C0I390,仁愛,2013-12-27,24.022122,121.132206,2.3256323e-08
C0Z300,東里,2013-12-27,23.26853,121.30547,2.2139449e-07
C1V590,新發,2013-12-27,23.057019,120.646064,6.504867e-08
C0K510,水林,2013-12-27,23.572924,120.24597,2.4489202e-06
72S590,東改賓朗果園,2013-12-27,22.813889,121.071278,0.00010136484
82A750,茶改北部分場,2013-12-27,24.955778,121.631222,4.114629e-08
C1A750,石碇服務區,2013-12-27,25.00872,121.646242,7.111323e-06
C0X300,鹿寮,2013-12-27,23.386047,120.477331,7.0908843e-09
G2AI50,關渡,2013-12-27,25.11575,121.492,1.5259371e-05
C0K590,雲林東勢,2013-12-27,23.674192,120.255721,0.00015435705
C0A570,桶後,2013-12-27,24.848222,121.597992,9.966792e-08
C1S800,華源,2013-12-27,22.657883,121.02325,0.11469678
C0G720,溪州,2013-12-27,23.851589,120.499093,9.553355e-09
C1V160,達卡努瓦,2013-12-27,23.279811,120.705319,3.0435004e-08
C2M410,馬頭山,2013-12-27,23.324361,120.582017,8.851805e-09
C0V850,蚵仔寮,2013-12-27,22.7256,120.2527,5.039633e-07
C0S740,池上,2013-12-27,23.119628,121.209469,5.8952656e-07
C1V390,尖山,2013-12-27,22.813153,120.367789,5.3160793e-08
C0AH70,松山,2013-12-27,25.04871,121.55042,2.082074e-05
C0N010,鯤鯓國小,2013-12-27,23.1879,120.0889,9.565002e-06
C0R550,新埤,2013-12-27,22.467947,120.582894,6.814621e-09
C0SA60,知本（水試所）,2013-12-27,22.702394,121.082761,0.91030025
C0T9I0,豐濱,2013-12-27,23.583897,121.514806,2.7541853e-07
C0UB00,淡江大學蘭陽校園,2013-12-27,24.823239,121.730383,4.1170548e-08
C0W240,九宮,2013-12-27,24.423753,118.240186,7.6765434e-07
C0T9N0,富里,2013-12-27,23.171639,121.249378,2.0385782e-07
U2HA50,臺大竹山,2013-12-27,23.756972,120.681556,9.897001e-09
C0V840,鳳鼻頭,2013-12-27,22.5083,120.3591,3.4684626e-07
C0X140,西港,2013-12-27,23.125608,120.203108,3.0511662e-06
72D080,桃改五峰分場,2013-12-27,24.612194,121.157167,4.50579e-08
C2H9P0,伊拿谷,2013-12-27,23.963211,121.088264,1.2656187e-08
C2H9F0,柑林,2013-12-27,24.018658,120.847072,1.0494349e-08
C0TA20,加灣,2013-12-27,24.082025,121.608944,5.404921e-07
C0V530,阿蓮,2013-12-27,22.883208,120.327508,8.250179e-08
C1O880,關山,2013-12-27,23.173397,120.594092,9.763431e-09
C0E791,卓蘭,2013-12-27,24.3126,120.8244,1.4948943e-08
C1I030,武界,2013-12-27,23.913225,121.052483,2.0859442e-08
C0R520,崁頂,2013-12-27,22.514781,120.506914,3.05587e-07
C0R341,牡丹,2013-12-27,22.130036,120.792639,8.9853565e-06
C0R930,萬丹,2013-12-27,22.5885,120.4851,6.9192425e-09
C0S760,紅石,2013-12-27,23.069131,121.126219,5.620299e-08
C1M610,石磐龍,2013-12-27,23.496606,120.663506,1.5804387e-08
C0UA10,鴛鴦湖,2013-12-27,24.590269,121.412228,4.381721e-08
V2C260,八德蔬果,2013-12-27,24.978508,121.281819,7.789481e-06
C0R800,丹路,2013-12-27,22.204481,120.750989,7.758468e-06
C0G920,永靖,2013-12-27,23.924703,120.547533,1.4581508e-06
C2M950,太和,2013-12-27,23.538372,120.702961,1.7523682e-08
C1A630,下盆,2013-12-27,24.771003,121.538622,8.550698e-08
B2N890,畜產試驗所,2013-12-27,23.058972,120.336406,5.5746685e-08
C0UA30,白嶺,2013-12-27,24.527819,121.519031,4.9649035e-08
C1V580,溪南(特生中心),2013-12-27,23.084972,120.788475,4.266004e-08
C1T970,大農,2013-12-27,23.615233,121.413331,3.565275e-07
E2S960,林試太麻里2,2013-12-27,22.598014,120.989761,0.98742956
C0R650,竹田,2013-12-27,22.58486,120.54344,6.937135e-09
C1H900,清流,2013-12-27,24.080775,120.962997,1.1408337e-08
C1C510,水尾,2013-12-27,24.940081,121.087161,1.0010857e-05
C0F9X0,大雅(中科園區),2013-12-27,24.21528,120.62445,0.049339212
C0SB60,白守蓮,2013-12-27,23.126769,121.401914,0.00097652717
C0O970,虎頭埤,2013-12-27,23.021375,120.347878,2.144532e-07
C0C730,中大臨海站,2013-12-27,24.966126,121.008581,0.0007152028
C0X250,新營,2013-12-27,23.310689,120.316681,1.1810253e-07
C0V700,三民,2013-12-27,22.645017,120.311233,3.1278668e-07
C0U870,大礁溪,2013-12-27,24.791042,121.675047,4.04069e-08
C0E870,高鐵苗栗,2013-12-27,24.60725,120.826094,0.04399778
A2K570,古坑花卉中心,2013-12-27,23.63353,120.55239,1.1674758e-08
C0M860,新美,2013-12-27,23.338017,120.683169,1.5098207e-08
C1E701,八卦,2013-12-27,24.491756,120.927619,8.5318824e-08
C0I420,國姓,2013-12-27,24.037803,120.855072,1.0443651e-08
C2D720,關西工作站,2013-12-27,24.757275,121.184792,2.6736518e-06
C0S960,香蘭,2013-12-27,22.587569,120.993375,0.98744875
C0R260,春日,2013-12-27,22.370361,120.628306,2.0504853e-08
72G600,臺中農改場,2013-12-27,24.003028,120.534389,6.8030786e-06
C0Z210,瑞穗,2013-12-27,23.5239,121.39021,3.027469e-07
C0M820,達邦,2013-12-27,23.453994,120.749517,1.0854335e-08
C0V860,南寮,2013-12-27,22.7616,120.2339,2.1225532e-07
C0G740,大城,2013-12-27,23.852487,120.320935,0.054214433
C0R920,塭仔,2013-12-27,22.4169,120.5197,3.5296947e-07
C0R470,高樹,2013-12-27,22.826389,120.600806,1.2108217e-08
C0R680,佳樂水,2013-12-27,21.993578,120.861633,0.95372313
C1O870,大棟山,2013-12-27,23.31157,120.52226,1.5260513e-08
C0D360,梅花,2013-12-27,24.678347,121.208558,1.1686426e-07
C0Z190,富世,2013-12-27,24.14743,121.6297,3.669304e-07
C0AI10,屈尺,2013-12-27,24.92184,121.54475,9.1961465e-06
B2U990,畜試東區分所,2013-12-27,24.669039,121.832561,9.803505e-07
C0SB80,長濱漁港,2013-12-27,23.313644,121.459994,5.1831216e-07
C0R240,來義,2013-12-27,22.527306,120.625111,1.81174e-08
C0V910,大樹,2013-12-27,22.684645,120.432803,1.5005669e-07
C1R610,西大武山,2013-12-27,22.617719,120.7322,8.2874784e-08
C0G900,線西,2013-12-27,24.143358,120.443536,0.6815123
C0M700,竹崎,2013-12-27,23.526178,120.555508,1.1385253e-08
C2E880,三義,2013-12-27,24.405478,120.749819,3.348221e-08
C0C720,竹圍,2013-12-27,25.112692,121.239824,9.6380674e-05
C0F9P0,清水,2013-12-27,24.312297,120.562242,0.4622548
C0Z150,吉安光華,2013-12-27,23.930925,121.595153,1.3855563e-06
C1D640,外坪(五指山),2013-12-27,24.644447,121.090961,9.391856e-08
C0F9O0,潭子,2013-12-27,24.213106,120.703933,0.0004931156
C2H9R0,卓社,2013-12-27,23.887894,121.000086,2.5439437e-08
72T250,花蓮農改場,2013-12-27,23.975222,121.563889,5.0425945e-07
C0E780,銅鑼,2013-12-27,24.489681,120.790853,8.751536e-05
C1T950,太安,2013-12-27,23.666719,121.370128,7.51917e-08
C0E830,苑裡,2013-12-27,24.439714,120.653053,0.41570407
467270,田中,2013-12-27,23.873803,120.581286,6.1460432e-09
C0SA10,檳榔四格山,2013-12-27,22.810031,121.109308,2.1125132e-05
C1T830,布洛灣,2013-12-27,24.17184,121.57127,7.9697166e-08
C0F970,大坑,2013-12-27,24.173142,120.722289,0.06363321
C1U920,思源,2013-12-27,24.393125,121.347214,4.919956e-08
C0A931,三和,2013-12-27,25.233153,121.595236,2.4879617e-07
C0I010,廬山,2013-12-27,24.033311,121.181808,2.5540222e-08
C2M940,日野賀,2013-12-27,23.434056,120.727169,1.7109619e-08
C0R860,鼻頭,2013-12-27,22.1043,120.8979,0.6231824
C0UB20,壯圍,2013-12-27,24.7359,121.8163,9.803505e-07
C0R790,九棚,2013-12-27,22.14195,120.889281,0.9998599
C0W110,東莒,2013-12-27,25.9652,119.98069,0.846493
C1U930,粉鳥林,2013-12-27,24.497088,121.842479,6.3977915e-08
C1I211,蘆竹湳,2013-12-27,23.934019,120.811994,2.1764901e-08
C0S830,長濱,2013-12-27,23.286817,121.411975,1.4466748e-07
C1F9F1,伯公龍,2013-12-27,24.272392,120.849047,3.460671e-08
C0E810,西湖,2013-12-27,24.562947,120.7485,0.031468753
C1I440,新高口,2013-12-27,23.478744,120.878939,3.1762717e-08
C0O840,王爺宮,2013-12-27,23.222064,120.40085,2.1067866e-07
C0T9G0,鳳林山,2013-12-27,23.735269,121.420131,3.08673e-07
C0X080,佳里,2013-12-27,23.173039,120.145086,1.9473425e-06
C0FB70,大甲溪埔,2013-12-27,24.370625,120.620067,0.39197883
C0Z310,清水斷崖,2013-12-27,24.218294,121.689142,2.208319e-07
C0M680,太保,2013-12-27,23.455062,120.331455,2.7367216e-07
C1S820,金峰,2013-12-27,22.590969,120.933236,0.100261115
C0AD10,八里,2013-12-27,25.150211,121.403947,9.6380674e-05
C2K240,草嶺,2013-12-27,23.59555,120.693461,1.38384655e-08
C1SA70,都蘭,2013-12-27,22.87794,121.226881,1.224077e-06
C0K440,二崙,2013-12-27,23.772797,120.408944,1.037088e-08
C1A760,坪林交控,2013-12-27,24.94284,121.713442,1.3538366e-07
C0F9N0,大里,2013-12-27,24.092464,120.701378,0.101223946
C0SA90,達仁林場,2013-12-27,22.264347,120.823972,0.0007795603
C1R290,石門山,2013-12-27,22.112611,120.756597,0.99780446
42HA10,萬大發電廠,2013-12-27,23.978875,121.139639,4.3505334e-08
C0R890,山海,2013-12-27,21.9878,120.7091,0.94010323
C0T9A0,月眉山,2013-12-27,23.809928,121.539828,2.9068946e-07
C0AC70,信義,2013-12-27,25.037822,121.564597,2.082074e-05
C0K560,棋山,2013-12-27,23.68645,120.603417,9.860184e-09
C2FB50,出雲,2013-12-27,24.206469,120.902794,2.3173389e-08
C1Z240,中平林道,2013-12-27,23.42115,121.26763,1.074984e-07
U2H480,溪頭,2013-12-27,23.670306,120.798194,1.38304435e-08
C0M880,好美里,2013-12-27,23.3364,120.138,1.9473425e-06
C0T9E0,大坑,2013-12-27,23.880628,121.581981,3.685461e-07
C0K530,臺西,2013-12-27,23.701547,120.197559,0.051208936
C1E900,國一N128K,2013-12-27,24.560997,120.844186,0.0153597025
C0AJ50,水湳洞,2013-12-27,25.123695,121.862238,0.012722331
C0AI20,白沙灣,2013-12-27,25.283128,121.519058,0.00057448633
C0A860,大坪,2013-12-27,25.165914,121.632969,1.355255e-07
C1U850,觀音海岸,2013-12-27,24.38319,121.77856,3.1947547e-08
C2K610,草嶺石壁,2013-12-27,23.602469,120.707731,1.6123971e-08
C0U950,鶯子嶺,2013-12-27,24.89754,121.79244,4.4117513e-08
C0O900,善化,2013-12-27,23.112883,120.297219,6.5199714e-08
C0K550,蔦松,2013-12-27,23.514319,120.229736,9.807619e-07
E2P980,林試六龜中心,2013-12-27,22.991703,120.645722,1.09968505e-08
C0E590,通霄,2013-12-27,24.471892,120.704622,0.4408572
C1I310,西巒,2013-12-27,23.754486,120.883956,1.511659e-08
C0A550,泰平,2013-12-27,24.971197,121.823711,6.4402144e-08
C0I360,水里,2013-12-27,23.812553,120.849792,8.4659675e-09
C0R830,高士,2013-12-27,22.121825,120.836781,0.9980093
C1I101,溪頭,2013-12-27,23.661789,120.807647,2.090756e-08
C0AJ20,野柳,2013-12-27,25.20703,121.690021,0.012722331
C0B060,暖暖,2013-12-27,25.0957,121.7403,0.0015225688
C1H920,長豐,2013-12-27,24.102039,120.879897,9.89972e-09
C0V360,內門,2013-12-27,22.975481,120.466769,3.1442082e-07
C0R850,林邊,2013-12-27,22.4634,120.5339,3.05587e-07
C0E930,龍鳳,2013-12-27,24.700034,120.859125,2.3687251e-05
C0U910,冬山,2013-12-27,24.63373,121.7937,9.803505e-07
C1E721,泰安,2013-12-27,24.489017,120.968036,2.1040496e-08
82H320,茶改中部分場,2013-12-27,23.875611,120.913583,9.099963e-09
C0M750,布袋,2013-12-27,23.380878,120.167789,1.0297633e-06
C1S860,利嘉,2013-12-27,22.809417,121.050528,8.610829e-08
72C440,桃園農改,2013-12-27,24.950944,121.030583,0.00018598657
E2S980,林試太麻里1,2013-12-27,22.598922,120.980044,0.87083066
C0X170,關廟,2013-12-27,22.963017,120.327797,6.091974e-08
C0V720,林園,2013-12-27,22.507747,120.394511,3.1278668e-07
C1I510,線浸林道,2013-12-27,23.761508,120.832956,1.101274e-08
C0D690,外湖,2013-12-27,24.917735,120.968711,0.0007152028
C0C750,新興坑尾,2013-12-27,25.0061,121.0971,8.881485e-05
B2Q810,畜試南區分所,2013-12-27,21.945583,120.802167,0.95372313
C0S790,金崙,2013-12-27,22.538122,120.966875,0.023482652
C0AH90,福山植物園,2013-12-27,24.760717,121.58135,1.4955909e-07
C0I540,奇萊稜線,2013-12-27,24.109231,121.326456,5.7193013e-08
C0M850,表湖,2013-12-27,23.24186,120.64166,1.3359008e-08
C0S770,大溪山,2013-12-27,22.478475,120.943325,2.3319933e-05
C0AG80,中和,2013-12-27,24.991622,121.491792,2.082074e-05
C0T790,大禹嶺,2013-12-27,24.186117,121.316086,4.884258e-08
C0T9B0,水源,2013-12-27,23.991861,121.537169,2.4694975e-07
C0R840,牡丹池山,2013-12-27,22.168389,120.841225,0.0010685811
C1I131,桶頭,2013-12-27,23.641944,120.654117,8.61232e-09
CAL110,布袋國中,2013-12-27,23.35893,120.18026,3.3267403e-07
467571,新竹,2013-12-27,24.827853,121.014219,1.80122e-05
C0Z290,赤柯山,2013-12-27,23.36893,121.38293,8.528677e-08
C0X280,將軍,2013-12-27,23.214999,120.13577,1.9475729e-06
C0S690,太麻里,2013-12-27,22.60902,120.98533,4.655328e-06
C0U880,北關,2013-12-27,24.9072,121.8734,0.0002830318
C1H860,瑞岩,2013-12-27,24.123772,121.18345,2.934267e-08
C0G810,埔心,2013-12-27,23.947633,120.525456,1.5538698e-06
C0U970,大福,2013-12-27,24.80064,121.81389,2.474068e-07
C2H9N0,仁愛東眼,2013-12-27,24.026875,121.1205,2.2758531e-08
C1E670,南礦,2013-12-27,24.538278,121.002836,2.1911267e-08
C0M520,東後寮,2013-12-27,23.369908,120.248065,3.3180459e-07
C1E461,松安,2013-12-27,24.397972,120.986022,2.0386302e-08
72G600,臺中農改,2013-12-27,24.003028,120.534389,6.8030786e-06
C2N160,西拉雅風管處,2013-12-27,23.189481,120.335297,1.6141995e-07
C2M970,碧湖,2013-12-27,23.568632,120.624165,1.3188269e-08
C0A640,石碇,2013-12-27,24.993969,121.662917,1.8626474e-07
E2S960,林試太麻里2,2013-12-27,22.598,120.99775,0.9910827
C0F9Y0,桃山,2013-12-27,24.432739,121.303808,5.8490148e-08
C1I020,萬大,2013-12-27,23.979817,121.132261,2.3345475e-08
C0U940,羅東,2013-12-27,24.68184,121.74934,8.789515e-07
C0M650,朴子,2013-12-27,23.43463,120.23902,1.0221327e-06
C1I500,大尖山,2013-12-27,23.858572,120.994889,3.423303e-08
C0G820,田尾,2013-12-27,23.901669,120.509389,1.4590771e-06
E2K600,四湖植物園,2013-12-27,23.676986,120.163433,0.051208336
C0S730,綠島,2013-12-27,22.6672,121.47533,3.085921e-05
12Q970,東港工作站,2013-12-27,22.479997,120.466058,3.2232128e-07
C0E430,南庄,2013-12-27,24.601775,121.000214,2.217682e-06
C1TA00,太魯閣,2013-12-27,24.15773,121.6236,2.3086375e-07
466920,臺北,2013-12-27,25.037658,121.514853,2.082074e-05
C0R600,舊泰武,2013-12-27,22.588194,120.664944,3.5237743e-08
C1I260,北坑,2013-12-27,23.9246,121.006903,9.719117e-09
466910,鞍部,2013-12-27,25.182586,121.529731,8.518695e-08
C1I230,九份二山,2013-12-27,23.961944,120.845,1.0499635e-08
C2A660,瑞芳,2013-12-27,25.113169,121.801147,4.6589517e-07
C0R270,琉球嶼,2013-12-27,22.332244,120.362236,2.0504892e-08
C1T990,高寮,2013-12-27,23.394239,121.356808,5.064697e-07
C0G620,芬園,2013-12-27,24.015678,120.6213,5.8702494e-07
C1Z140,荖溪,2013-12-27,23.890575,121.45964,1.0409071e-07
C1I201,中心崙,2013-12-27,23.728722,120.712097,8.630046e-09
C1I400,凌霄,2013-12-27,24.018778,121.004456,2.2593099e-08
C1M640,十字,2013-12-27,23.492153,120.753683,1.8700815e-08
G2P820,農試鳳山分所,2013-12-27,22.646611,120.356083,2.5511457e-07
C0Z270,蕃薯寮,2013-12-27,23.73835,121.540108,3.6322663e-07
C0F9Q0,外埔,2013-12-27,24.347817,120.705686,0.000676125
C0K580,高鐵雲林,2013-12-27,23.737456,120.417944,8.275739e-09
C2I090,鳳凰,2013-12-27,23.728081,120.787347,9.299359e-09
C0U990,員山,2013-12-27,24.74435,121.72247,8.789515e-07
C0V770,大社,2013-12-27,22.730306,120.346639,4.186849e-07
C0X120,麻豆,2013-12-27,23.183289,120.248611,1.753313e-06
C0C670,龍潭,2013-12-27,24.870056,121.221389,1.3403121e-06
C0D680,香山濕地,2013-12-27,24.783581,120.914988,1.8646322e-05
C0S980,勝林山,2013-12-27,22.430439,120.8938,2.43655e-07
C0V730,大寮,2013-12-27,22.605614,120.395717,8.980643e-09
C0R570,麟洛,2013-12-27,22.65078,120.52719,7.4290746e-08
C2M930,石卓,2013-12-27,23.478744,120.702264,1.8569908e-08
C0G9B0,和美,2013-12-27,24.105169,120.492131,1.2404657e-05
CAG100,王功漁港,2013-12-27,23.96824,120.32586,0.008070938
C0X290,北門,2013-12-27,23.267772,120.125481,1.9473425e-06
C2F930,大甲,2013-12-27,24.347667,120.640403,0.19356984
C0D650,湖口,2013-12-27,24.904794,121.043628,5.961056e-05
C0E420,竹南,2013-12-27,24.708978,120.888897,1.2005331e-05
C0U780,五結,2013-12-27,24.68637,121.79794,9.803505e-07
C1I250,鯉潭,2013-12-27,23.961922,120.991131,9.89972e-09
C0R130,阿禮,2013-12-27,22.742908,120.743678,2.0385952e-08
C0X100,臺南市北區,2013-12-27,23.010394,120.194228,7.9532913e-07
C0S920,金峰嘉蘭,2013-12-27,22.594789,120.960825,0.8431526
C0V490,新興,2013-12-27,22.627422,120.298803,3.1278668e-07
C0F9K0,大安,2013-12-27,24.345061,120.588025,0.41080785
72N100,臺南農改,2013-12-27,23.0605,120.342194,5.565075e-08
467290,古坑,2013-12-27,23.633639,120.551889,1.1674758e-08
C2E970,八甲,2013-12-27,24.535811,120.795983,6.973193e-05
C0V440,鳳山,2013-12-27,22.646653,120.356122,2.5511457e-07
C1T940,大觀,2013-12-27,23.714206,121.373133,2.0056413e-07
72T250,花蓮農改,2013-12-27,23.975222,121.563889,5.0425945e-07
C0E740,造橋,2013-12-27,24.637056,120.864778,1.3922563e-05
C0R100,尾寮山,2013-12-27,22.833111,120.683889,2.393614e-08
A2K630,臺大雲林校區,2013-12-27,23.730628,120.423903,8.275739e-09
C0D580,寶山,2013-12-27,24.735006,121.025192,3.1928712e-06
E2P990,林試扇平站,2013-12-27,22.9677,120.6857,6.067136e-08
C0AI30,三重,2013-12-27,25.057328,121.500629,1.2585648e-05
C0AH00,汐止,2013-12-27,25.066881,121.658778,0.012722331
C1Z040,立山,2013-12-27,23.443356,121.327375,1.18087435e-07
C0W130,花嶼,2013-12-27,23.40007,119.32276,0.999194
C0A950,鼻頭角,2013-12-27,25.129036,121.923372,1.0883867e-06
C0K470,林內,2013-12-27,23.748675,120.609642,1.1089909e-08
C2F990,摩天嶺,2013-12-27,24.322458,120.936819,4.8512423e-08
82C160,茶改場,2013-12-27,24.908472,121.185333,1.968629e-06
C0Z320,清水林道,2013-12-27,23.27125,121.188272,1.3294577e-07
C0R760,南仁湖,2013-12-27,22.084681,120.863353,0.99782765
C0M670,大林,2013-12-27,23.600616,120.45841,9.5546486e-05
C0M800,茶山,2013-12-27,23.299075,120.664767,1.4073773e-08
C0A9C0,天母,2013-12-27,25.117494,121.537169,8.080094e-06
72K220,南改斗南分場,2013-12-27,23.634556,120.477333,1.1671129e-08
72AI40,桃改樹林分場,2013-12-27,24.944503,121.386972,7.2603893e-06
C0S910,蘭嶼燈塔,2013-12-27,22.081197,121.503117,0.83972037
C0B050,八斗子,2013-12-27,25.144754,121.79167,0.022490248
C0U900,內城,2013-12-27,24.71813,121.68766,2.0848232e-07
C0X320,柳營,2013-12-27,23.253328,120.375253,5.553671e-07
C0M790,新港,2013-12-27,23.553269,120.345728,4.268153e-07
C0F9T0,西屯,2013-12-27,24.179494,120.641275,0.12696213
C0SA30,都歷,2013-12-27,23.020333,121.323642,6.7598434e-05
C0C620,蘆竹,2013-12-27,25.084275,121.265767,7.407024e-05
C0R730,大坪頂,2013-12-27,22.024633,120.69355,0.99345386
C0AJ40,石門,2013-12-27,25.273672,121.601198,2.958679e-05
C0E750,苗栗,2013-12-27,24.564569,120.824575,0.019853566
C0T870,鯉魚潭,2013-12-27,23.935639,121.508944,7.03798e-07
C1V170,排雲,2013-12-27,23.463619,120.954147,4.9662578e-08
C2H950,中寮,2013-12-27,23.884447,120.766406,9.892e-09
C0R350,貓鼻頭,2013-12-27,21.921774,120.7358,0.96394944
C0V660,岡山,2013-12-27,22.797078,120.294958,1.573967e-07
C1H941,雙冬,2013-12-27,23.967378,120.802189,9.758553e-09
C0AJ70,田寮,2013-12-27,25.2698,121.4886,0.0007670267
C0AI00,五股,2013-12-27,25.07445,121.42728,1.8197305e-05
C0Z280,德武,2013-12-27,23.47426,121.41071,2.996144e-07
C0R700,枋山,2013-12-27,22.246844,120.661086,6.5613014e-05
C0C460,復興,2013-12-27,24.820208,121.352281,8.312587e-08
E2H360,蓮華池,2013-12-27,23.918333,120.885278,9.873e-09
C0M640,中埔,2013-12-27,23.42538,120.5229,1.2058343e-08
C0W140,金沙,2013-12-27,24.488292,118.408778,5.483072e-07
C2A540,四堵,2013-12-27,24.8926,121.745736,8.754825e-08
C0ACA0,新莊,2013-12-27,25.051478,121.446756,0.00010387869
C0R220,潮州,2013-12-27,22.534361,120.54,1.006028e-08
U2HA40,臺大內茅埔,2013-12-27,23.689722,120.851117,8.898594e-09
467490,臺中,2013-12-27,24.145736,120.684075,0.012771218
C0U960,翠峰湖,2013-12-27,24.510856,121.608044,5.477261e-08
E2HA20,林試畢祿溪站,2013-12-27,24.226944,121.308522,3.7328245e-08
C0V890,前鎮,2013-12-27,22.5718,120.3117,3.4684626e-07
467620,蘭嶼,2013-12-27,22.036969,121.558339,0.9729769
C1F941,雪嶺,2013-12-27,24.280586,121.026642,3.9683222e-08
C2H9E0,國姓南港,2013-12-27,23.911108,120.846556,1.617492e-08
C0AC80,文山,2013-12-27,25.00235,121.575728,9.1961465e-06
C0F9R0,龍井,2013-12-27,24.184536,120.528972,0.52309465
C0M760,民雄,2013-12-27,23.551754,120.428457,3.0705207e-05
C0UA40,西德山,2013-12-27,24.560647,121.752608,3.497246e-08
C1T920,中興,2013-12-27,23.769503,121.498653,9.796935e-07
C0D550,雪霸,2013-12-27,24.526972,121.11605,3.281388e-08
C2F860,梨山,2013-12-27,24.247522,121.243669,3.7717218e-08
C0R320,車城,2013-12-27,22.0744,120.716247,0.94010323
C1S870,南美山,2013-12-27,23.15025,121.382333,2.9419866e-06
C0B020,基隆嶼,2013-12-27,25.19141,121.78391,0.012722331
C1U501,牛鬥,2013-12-27,24.637836,121.573656,1.14620626e-07
C0M730,嘉義市東區,2013-12-27,23.457673,120.460531,7.066184e-05
C0S700,知本,2013-12-27,22.684866,121.005642,6.685196e-06
C1N001,沙崙,2013-12-27,22.935472,120.309406,8.250179e-08
C0V760,橋頭,2013-12-27,22.757806,120.30575,1.424132e-07
C0G960,福寶,2013-12-27,24.0443,120.3814,2.7703449e-05
C0X210,白河,2013-12-27,23.347466,120.414427,5.1356994e-07
C0S810,東河,2013-12-27,22.972672,121.303986,1.3908862e-06
C2R170,屏東,2013-12-27,22.66027,120.49403,7.7899706e-08
C0R670,楓港,2013-12-27,22.190131,120.692156,6.5613014e-05
C0FA50,霧峰,2013-12-27,24.0419,120.6995,0.014598731
C0UB10,蘇澳,2013-12-27,24.5969,121.8571,9.4821594e-08
C0G950,防潮門,2013-12-27,24.1835,120.4871,0.55735373
C0M740,六腳,2013-12-27,23.492871,120.290625,2.8226683e-07
C1R250,力里,2013-12-27,22.428117,120.629228,1.8121858e-08
C0K330,虎尾,2013-12-27,23.719183,120.442036,8.210507e-09
C2FA00,烏石坑,2013-12-27,24.273503,120.947617,4.889776e-08
C0V620,永安,2013-12-27,22.82315,120.236856,1.9562607e-07
C1I330,楓樹林,2013-12-27,23.986803,121.076117,2.5337698e-08
C0W200,湖西,2013-12-27,23.596314,119.67275,0.99886
72Q010,高雄農改場,2013-12-27,22.709333,120.525889,7.043856e-08
C0SA40,瑞和,2013-12-27,22.974361,121.156697,6.319322e-06
C0C680,龜山,2013-12-27,25.02846,121.38656,6.989147e-08
C2V260,月眉,2013-12-27,22.971003,120.539853,7.1470168e-09
C0V450,鳳森,2013-12-27,22.545064,120.392592,8.547776e-09
C0U720,南山,2013-12-27,24.43742,121.38167,5.4354036e-08
A2N290,臺南蘭花園區,2013-12-27,23.340258,120.379661,5.553671e-07
C0R560,新園,2013-12-27,22.5434,120.461558,3.05587e-07
C0U890,三星,2013-12-27,24.66812,121.65302,1.6130284e-07
C1V300,御油山,2013-12-27,23.001983,120.715364,4.28217e-08
C0U600,礁溪,2013-12-27,24.817539,121.765608,2.2946334e-07
C1T980,龍澗,2013-12-27,24.023289,121.411328,7.685042e-08
C0D670,海天一線,2013-12-27,24.831986,120.914438,2.0684422e-05
C0SA00,歷坵,2013-12-27,22.520969,120.89185,7.008522e-06
C0M710,東石,2013-12-27,23.458927,120.15385,9.807619e-07
C0M780,鹿草,2013-12-27,23.41134,120.30835,3.268717e-07
C0U520,雙連埤,2013-12-27,24.753033,121.641303,4.0172672e-08
C0B010,七堵,2013-12-27,25.094819,121.71713,0.007186446
C0R480,長治,2013-12-27,22.693128,120.542622,6.4781447e-09
C1V830,國三S383K,2013-12-27,22.781967,120.426475,5.3939457e-09
12Q980,恆春工作站,2013-12-27,22.079678,120.714425,0.94010323
C1O940,東山服務區,2013-12-27,23.286016,120.398472,4.9047827e-07
C1U840,東澳嶺,2013-12-27,24.5378,121.8485,3.564516e-08
C1D630,飛鳳山,2013-12-27,24.766464,121.119178,5.053571e-07
C0S940,石寧山,2013-12-27,23.223772,121.406639,2.4335242e-07
C0K410,北港,2013-12-27,23.573957,120.292802,4.6310527e-07
C2M620,瑞里,2013-12-27,23.545133,120.675197,1.678426e-08
C0SB70,小港漁港,2013-12-27,23.158558,121.400431,4.6285095e-07
C2O950,安南,2013-12-27,23.076694,120.144861,2.1168913e-05
C0F0E0,南湖圈谷,2013-12-27,24.363714,121.444667,7.5836525e-08
467610,成功,2013-12-27,23.097486,121.373428,0.00031420332
C0G890,伸港,2013-12-27,24.148933,120.484403,0.60508174
C2E540,龍溪,2013-12-27,24.606489,120.783933,0.04870755
C1V200,梅山,2013-12-27,23.268447,120.823556,3.2839804e-08
C0T9H0,加路蘭山,2013-12-27,23.682947,121.5274,2.2168182e-07
C2O930,玉井,2013-12-27,23.126042,120.46055,3.8490884e-07
C1F911,新伯公,2013-12-27,24.221361,120.841069,4.2173333e-08
C0R490,九如,2013-12-27,22.7405,120.490503,7.4290746e-08
C0X200,左鎮,2013-12-27,23.056758,120.408522,1.4663487e-07
C0SB50,叭嗡嗡,2013-12-27,23.047062,121.343223,2.152243e-06
C1F891,稍來,2013-12-27,24.265689,121.001142,3.351505e-08
72N240,七股研究中心,2013-12-27,23.081672,120.062894,0.0001301395
C0C700,中壢,2013-12-27,24.977661,121.256375,6.4010533e-06
C0M690,水上,2013-12-27,23.419734,120.388909,3.327015e-05
C0V690,鼓山,2013-12-27,22.623325,120.275575,3.1278668e-07
C0O860,大內,2013-12-27,23.11885,120.36083,4.1846896e-08
C0Z200,萬榮,2013-12-27,23.709219,121.420106,7.03798e-07
C0T9D0,和中,2013-12-27,24.26676,121.74103,4.69158e-07
C1O921,楠西,2013-12-27,23.183511,120.484083,3.203722e-07
C0AJ30,淡水觀海,2013-12-27,25.184591,121.408616,0.00011947879
C0V810,左營,2013-12-27,22.67491,120.28491,4.3640597e-07
C0UA70,桃源谷,2013-12-27,24.962606,121.888875,5.6771857e-08
C0X130,官田,2013-12-27,23.193217,120.315422,1.7537215e-07
C1H000,翠峰,2013-12-27,24.109397,121.205211,4.362399e-08
C0UA90,石城,2013-12-27,24.980444,121.951214,1.5952762e-06
C1E681,南勢山,2013-12-27,24.421669,120.923831,4.1642505e-08
C0A9F0,內湖,2013-12-27,25.079422,121.57545,2.082074e-05
C0K291,宜梧,2013-12-27,23.536281,120.169329,1.040593e-06
C1K540,口湖,2013-12-27,23.585344,120.180517,2.9664864e-06
C0R780,滿州,2013-12-27,22.024403,120.839892,0.96774805
C0V870,文安,2013-12-27,22.8025,120.2164,2.1233731e-07
C0U650,玉蘭,2013-12-27,24.675286,121.587061,7.077024e-08
C0R640,東港,2013-12-27,22.46247,120.44074,3.4684626e-07
K2E360,苗栗農改,2013-12-27,24.495722,120.829111,0.0005605267
C0AJ80,板橋,2013-12-27,25.0107,121.4489,1.11199015e-05
C0S660,下馬,2013-12-27,23.150427,121.070312,1.5440507e-07
C1H9B1,阿眉,2013-12-27,24.1263,120.994672,3.3043122e-08
C0UA20,多加屯,2013-12-27,24.368614,121.373189,4.8532875e-08
C0E730,頭份,2013-12-27,24.688247,120.912206,1.2005331e-05
72V140,高改旗南分場,2013-12-27,22.857861,120.516667,7.648845e-09
C0K480,莿桐,2013-12-27,23.761192,120.502372,8.192455e-09
C0U980,坪林石牌,2013-12-27,24.86478,121.77396,6.908366e-08
C0T900,西林,2013-12-27,23.8119,121.441458,5.973393e-07
C1I150,青雲,2013-12-27,23.793361,120.949378,1.0319518e-08
467350,澎湖,2013-12-27,23.565503,119.563094,0.99902284
C0G800,埔鹽,2013-12-27,24.000394,120.431683,2.3845656e-05
C0H960,草屯,2013-12-27,23.973672,120.68085,9.454274e-09
C1V780,多納林道,2013-12-27,22.888028,120.737917,3.0884348e-08
C0E920,通霄漁港,2013-12-27,24.498589,120.673876,0.59987867
C0Z330,安通山,2013-12-27,23.290728,121.348528,1.7395729e-07
C0AH10,永和,2013-12-27,25.01125,121.508111,2.3695973e-05
C0AK10,太平里,2013-12-27,25.134937,121.364899,0.00010347413
C2G640,鹿港,2013-12-27,24.0753,120.430481,2.379282e-05
C1E890,國三N149K,2013-12-27,24.463414,120.680019,0.36675754
C1R110,口社,2013-12-27,22.770111,120.645222,1.1748989e-08
C1M870,國三N285K,2013-12-27,23.550319,120.505833,1.09173515e-08
467050,新屋,2013-12-27,25.006744,121.047486,0.00039416566
C1E480,鳳美,2013-12-27,24.554803,121.034747,3.538646e-08
C0M530,奮起湖,2013-12-27,23.493903,120.699253,1.751984e-08
C0C590,觀音,2013-12-27,25.027072,121.153317,6.1608325e-06
C0T9M0,靜浦,2013-12-27,23.455167,121.495028,3.658357e-07
C2H9M0,發祥,2013-12-27,24.154094,121.164517,2.4967674e-08
C0AI40,石牌,2013-12-27,25.115597,121.513139,1.11199015e-05
C1F871,上谷關,2013-12-27,24.203483,121.018644,4.889776e-08
C2H9G0,百勝,2013-12-27,24.051142,120.909361,3.8241456e-08
C0G880,二水,2013-12-27,23.810742,120.6173,8.405181e-09
C0R940,加祿堂,2013-12-27,22.3363,120.6217,2.3246788e-08
C0W220,北竿,2013-12-27,26.220358,119.974881,6.269095e-08
C0O960,崎頂,2013-12-27,22.959547,120.369317,5.2919686e-09
C0S750,向陽,2013-12-27,23.248397,120.986133,3.4190812e-08
C0T9F0,水璉,2013-12-27,23.797131,121.542514,4.2744628e-07
C1M600,頭凍,2013-12-27,23.406364,120.603339,1.3566302e-08
467660,臺東,2013-12-27,22.752211,121.154586,0.013684534
C1D380,新埔,2013-12-27,24.84745,121.03834,7.0948895e-06
C2G980,田頭村,2013-12-27,23.8263,120.444175,1.037088e-08
C0V750,路竹,2013-12-27,22.854997,120.259439,6.350402e-08
C0N050,蚵寮,2013-12-27,23.301,120.1104,9.56285e-06
72M700,南改鹿草分場,2013-12-27,23.416869,120.283061,3.4854497e-07
C1SA50,利嘉林道,2013-12-27,22.82325,121.009389,6.13396e-08
467550,玉山,2013-12-27,23.487614,120.959522,5.3105865e-08
C0A940,金山,2013-12-27,25.223628,121.643967,0.00036256088
C1V340,大津,2013-12-27,22.888322,120.645986,1.05597255e-08
C0W180,七美,2013-12-27,23.219333,119.444892,0.99880373
C1F9C1,白冷,2013-12-27,24.182844,120.929889,4.3769845e-08
K2E710,苗改生物防治研究中心,2013-12-27,24.422861,120.871833,1.6431914e-05
C0N040,蘆竹溝,2013-12-27,23.2344,120.0961,9.56285e-06
C2W230,畜試所澎湖,2013-12-27,23.628342,119.513206,0.99882054
C0R880,後壁湖,2013-12-27,21.9457,120.7457,0.9305387
C1I280,埔中,2013-12-27,23.820778,120.642594,9.927534e-09
467790,墾丁雷達站,2013-12-27,21.948235,120.808028,0.972007
C0W190,望安,2013-12-27,23.380564,119.494075,0.9988766
466881,新北,2013-12-27,24.9593,121.52,1.50150945e-05
C0Z170,卓溪,2013-12-27,23.3443,121.3029,2.0467522e-07
C0F850,東勢,2013-12-27,24.246428,120.833047,4.4747182e-08
466900,淡水,2013-12-27,25.164889,121.448906,0.0001169092
C0I370,魚池,2013-12-27,23.895703,120.94135,9.789536e-09
C0C630,大溪,2013-12-27,24.882853,121.265547,4.1659855e-06
C0A520,山佳,2013-12-27,24.974944,121.402008,7.2713447e-06
C0I110,竹山,2013-12-27,23.761225,120.688156,9.837173e-09
82H840,茶改南部分場,2013-12-27,23.762528,120.7405,1.0132282e-08
C0G660,溪湖,2013-12-27,23.94835,120.479122,1.726259e-06
C1T800,洛韶,2013-12-27,24.204558,121.453956,5.7602126e-08
C1T810,慈恩,2013-12-27,24.192044,121.388386,5.312339e-08
C1E451,象鼻,2013-12-27,24.368617,120.940228,4.1624798e-08
C0AC60,三峽,2013-12-27,24.939025,121.369728,1.2317484e-05
C0I490,萬大林道,2013-12-27,23.928228,121.091411,3.404186e-08
C1I290,豐丘,2013-12-27,23.668178,120.887417,1.101274e-08
C1I320,奧萬大,2013-12-27,23.952956,121.178556,2.5410875e-08
C2M910,嘉義大學,2013-12-27,23.471325,120.485903,1.1873343e-08
C0U770,南澳,2013-12-27,24.44935,121.81022,9.445841e-08
C0A980,社子,2013-12-27,25.109508,121.469681,1.5259371e-05
C0V800,六龜,2013-12-27,22.997889,120.633583,1.1088386e-08
C1G9D0,國一S218K,2013-12-27,23.890641,120.493253,1.5538698e-06
C0E570,白沙屯,2013-12-27,24.549447,120.696803,0.59987867
C2F9A0,中竹林,2013-12-27,24.103556,120.751061,1.3772531e-08
C0FA40,臺中電廠,2013-12-27,24.2146,120.4907,0.5422833
C2G9A0,畜試所彰化,2013-12-27,23.86045,120.557964,6.1460432e-09
C0H9C0,合歡山,2013-12-27,24.143442,121.272547,6.070388e-08
C0X060,下營,2013-12-27,23.22695,120.256261,1.9324999e-07
G2M350,農試溪口農場,2013-12-27,23.58565,120.408111,4.6812136e-05
C0U860,頭城,2013-12-27,24.85323,121.8308,2.4176853e-07
C0R580,南州,2013-12-27,22.48591,120.50274,3.2232128e-07
C0D430,峨眉,2013-12-27,24.6905,121.017189,4.4892136e-06
C0G780,秀水,2013-12-27,24.03405,120.503869,7.522916e-06
72N100,臺南農改場,2013-12-27,23.0605,120.342194,5.565075e-08
C0S900,蘭嶼高中,2013-12-27,22.04909,121.51214,0.76222605
467540,大武,2013-12-27,22.355675,120.903789,0.9998341
C1F9W0,德基,2013-12-27,24.254783,121.190261,3.1663216e-08
C1Z120,壽豐,2013-12-27,23.870853,121.508081,1.2133969e-06
C0W160,烏坵,2013-12-27,24.9944,119.44956,0.9878026
C1I240,外大坪,2013-12-27,23.958697,120.917931,9.983912e-09
C1I550,國六W023K,2013-12-27,23.979067,120.867742,1.0561538e-08
C0R870,興海,2013-12-27,21.9752,120.8439,0.95372313
C0R140,瑪家,2013-12-27,22.682903,120.686639,5.7703733e-08
C0A530,坪林,2013-12-27,24.938183,121.70975,1.178858e-07
C0X260,後壁,2013-12-27,23.366358,120.362326,1.6743658e-07
C0Z230,和平,2013-12-27,24.30717,121.77007,4.6361697e-07
C0G770,福興,2013-12-27,24.041289,120.437669,2.3845656e-05
C0H9A0,神木村,2013-12-27,23.532742,120.843667,2.5390866e-08
C0I460,南投,2013-12-27,23.911469,120.687331,1.004837e-08
C0I480,梅峰,2013-12-27,24.085272,121.173572,3.6967812e-08
C1V570,吉東,2013-12-27,22.85422,120.5454,7.601796e-09
C2D740,屯原,2013-12-27,24.067969,121.209389,3.5667195e-08
C2A560,福山,2013-12-27,24.776203,121.502811,4.114629e-08
C0AH30,五分山,2013-12-27,25.07125,121.780794,6.2637405e-08
C0FA10,松柏,2013-12-27,24.429115,120.617482,0.508475
72S200,東改班鳩分場,2013-12-27,22.829528,121.077694,0.00050928246
72HA00,中改埔里分場,2013-12-27,23.903208,120.963364,9.651155e-09
C2H9W0,大坪頂農水,2013-12-27,24.043122,120.932781,9.953814e-09
C0C650,平鎮,2013-12-27,24.897503,121.214636,1.968629e-06
C0S930,延平,2013-12-27,22.902581,121.084058,1.0893285e-06
C0UA60,樟樹山,2013-12-27,24.41393,121.78325,5.099072e-08
C1S670,摩天,2013-12-27,23.199503,121.027,5.8265673e-08
C0V630,茄萣,2013-12-27,22.906642,120.182608,2.6750953e-07
466940,基隆,2013-12-27,25.133314,121.740475,0.018150778
C0X050,東河,2013-12-27,23.296598,120.385608,5.553671e-07
C0R770,保力,2013-12-27,22.071122,120.764111,0.97980696
G2L020,農試嘉義分所,2013-12-27,23.485028,120.473806,1.1758697e-08
C0X240,關子嶺,2013-12-27,23.331169,120.508025,1.1011753e-08
C0I380,集集,2013-12-27,23.828206,120.801467,8.42698e-09
466990,花蓮,2013-12-27,23.975128,121.613275,5.4990494e-07
C1V220,小關山,2013-12-27,23.154217,120.813603,4.2164967e-08
C1F9G1,慶福山,2013-12-27,24.180853,120.848378,5.6084232e-08
C0Z250,瑞穗林道,2013-12-27,23.49284,121.30688,7.3627035e-08
C0D590,新豐,2013-12-27,24.87068,120.97721,7.3748706e-05
C0A870,五指山,2013-12-27,25.132153,121.608692,7.566979e-08
C0UA50,西帽山,2013-12-27,24.555361,121.802628,4.0270255e-08
C0X160,仁德,2013-12-27,22.968258,120.257689,7.684485e-08
C1H971,六分寮,2013-12-27,23.92507,120.6378,1.019231e-08
C0W120,西嶼,2013-12-27,23.5626,119.468436,0.99902284
C0G650,員林,2013-12-27,23.946503,120.585597,3.3924192e-07
C0AD50,鶯歌,2013-12-27,24.951533,121.346294,3.7241239e-06
C2H9Q0,北東眼山,2013-12-27,24.120939,121.189303,3.5412928e-08
C2H9T0,名間竹圍,2013-12-27,23.859914,120.637572,8.575014e-09
C0S990,山豬窟,2013-12-27,22.318619,120.857372,0.045006994
72Q010,高雄農改,2013-12-27,22.709333,120.525889,7.043856e-08
C0X190,安平,2013-12-27,22.993161,120.152181,7.9532913e-07
C0K400,斗六,2013-12-27,23.720583,120.541127,8.413249e-09
12J990,口湖工作站,2013-12-27,23.589978,120.180394,2.5829809e-06
C0O830,北寮,2013-12-27,23.079561,120.495008,7.60368e-09
C1D410,白蘭,2013-12-27,24.579364,121.079947,2.9492709e-08
C0S970,加津林,2013-12-27,22.416211,120.926942,0.999815
C0D700,關西,2013-12-27,24.7977,121.1732,3.064762e-06
C0M810,里佳,2013-12-27,23.389125,120.716647,1.751984e-08
C0U750,龜山島,2013-12-27,24.841667,121.953133,4.3439915e-08
C0R810,內獅,2013-12-27,22.305064,120.642986,2.3270122e-08
C1M390,龍美,2013-12-27,23.406728,120.654417,1.7046622e-08
C2FB60,頭櫃山,2013-12-27,24.129842,120.858925,2.3129319e-08
C1H840,國三N238K,2013-12-27,23.841008,120.707711,8.41442e-09
CAQ030,崎峰國小,2013-12-27,22.42565,120.49521,3.2232128e-07
C2E520,大湖,2013-12-27,24.414939,120.870872,2.3881295e-05
467530,阿里山,2013-12-27,23.508208,120.813242,3.296255e-08
C1E691,南湖,2013-12-27,24.40135,120.837533,3.993843e-08
C0FA30,梧棲,2013-12-27,24.256003,120.523381,0.5416851
C1V231,高中,2013-12-27,23.134911,120.716711,2.4044633e-08
C0F9V0,新社,2013-12-27,24.200172,120.815806,3.6024428e-08
C0H890,埔里,2013-12-27,23.972169,120.952425,6.090185e-08
C0R690,墾丁,2013-12-27,21.966756,120.810269,0.99678296
C0F0D0,審馬陣,2013-12-27,24.381675,121.4203,5.4336518e-08
C0R820,白鷺,2013-12-27,22.454275,120.666219,5.107969e-08
U2H480,臺大溪頭,2013-12-27,23.670306,120.798194,1.38304435e-08
C1V190,南天池,2013-12-27,23.27403,120.91176,3.5154972e-08
K2E360,苗栗農改場,2013-12-27,24.495722,120.829111,0.0005605267
CAJ050,海口故事園區,2013-12-27,23.57543,120.14121,2.9664864e-06
C2H9D0,三隻寮,2013-12-27,24.093078,120.861578,1.0043388e-08
C0O990,媽廟,2013-12-27,22.99175,120.293525,7.447163e-08
C0D480,打鐵坑,2013-12-27,24.849664,121.150789,1.3985635e-06
C0Z220,和平林道,2013-12-27,24.343922,121.656317,5.0378976e-08
C0TA10,花蓮漁港,2013-12-27,23.995322,121.638331,5.801765e-07
72C440,桃園農改場,2013-12-27,24.950944,121.030583,0.00018598657
C1E711,馬拉邦山,2013-12-27,24.367306,120.901656,4.3710447e-08
C0SB20,富岡,2013-12-27,22.792467,121.192669,0.0071429648
C0D560,竹東,2013-12-27,24.767147,121.057881,2.8768084e-06
C0F9U0,南屯,2013-12-27,24.137006,120.637969,0.101223946
C0M720,番路,2013-12-27,23.464657,120.554156,1.1677453e-08
C0F0A0,雪山圈谷,2013-12-27,24.388594,121.236339,6.519735e-08
C1A9N0,四十份,2013-12-27,24.934158,121.593283,8.493434e-08
C0U760,東澳,2013-12-27,24.52196,121.83318,6.140527e-08
C0X230,鹽水,2013-12-27,23.272621,120.247641,6.0049274e-07
C2H9H0,苗改南投蜂場,2013-12-27,23.852589,120.693481,9.852213e-09
C0R950,萬隆國小,2013-12-27,22.507667,120.587817,6.7339307e-09
C0V370,古亭坑,2013-12-27,22.893178,120.401947,1.8438602e-07
C1I340,新興橋,2013-12-27,23.563333,120.868728,9.115023e-09
C0SA80,土坂,2013-12-27,22.453108,120.887572,0.5113868
C0R160,鹽埔,2013-12-27,22.739558,120.530778,6.448705e-09
C0AC40,大屯山,2013-12-27,25.175675,121.522408,8.259516e-08
466850,五分山雷達站,2013-12-27,25.071182,121.781205,6.1553486e-08
C2H9L0,馬烈霸,2013-12-27,24.1512,121.201772,3.5248096e-08
C1AI50,國三N016K,2013-12-27,25.034164,121.619664,1.1027622e-05
C1V600,藤枝,2013-12-27,23.071961,120.757042,4.35461e-08
C1E601,南勢,2013-12-27,24.572486,120.734842,0.0024377287
C0Z180,新城,2013-12-27,24.03946,121.60454,5.13259e-07
C0O980,新市,2013-12-27,23.061614,120.298197,6.5199714e-08
C0K420,西螺,2013-12-27,23.800407,120.467394,8.299956e-09
C0Z050,佳心,2013-12-27,23.34567,121.21316,1.3574319e-07
C0AD30,蘆洲,2013-12-27,25.086594,121.472331,1.2545265e-05
C0V610,梓官,2013-12-27,22.760558,120.267211,1.573967e-07
K2F750,種苗改良場,2013-12-27,24.225972,120.800917,3.831483e-08
C0UA80,大溪漁港,2013-12-27,24.941801,121.902955,2.2946334e-07
C1AI60,國一39K邊坡,2013-12-27,25.064361,121.383836,1.7451295e-07
C0W150,金寧,2013-12-27,24.457703,118.328989,5.11377e-07
C0R960,內埔,2013-12-27,22.608483,120.570714,6.814621e-09
V2C250,八德合作社,2013-12-27,24.93775,121.266389,3.350155e-06
C2H9S0,龍南,2013-12-27,23.953536,120.833183,1.7624174e-08
C0AH40,平等,2013-12-27,25.129142,121.577086,9.652337e-08
C0R540,佳冬,2013-12-27,22.419456,120.552375,3.2232128e-07
466950,彭佳嶼,2013-12-27,25.627975,122.079744,0.9996203
C0A890,雙溪,2013-12-27,25.036003,121.864242,0.0034654487
C0C480,桃園,2013-12-27,24.992425,121.323172,8.784296e-06
C0AH50,林口,2013-12-27,25.072181,121.38084,1.6354497e-07
A2K360,水試臺西試驗場,2013-12-27,23.717231,120.190522,0.06639927
B2N890,畜試所,2013-12-27,23.058972,120.336406,5.5746685e-08
C2M960,外寮,2013-12-27,23.562643,120.665688,1.3427803e-08
C0F9S0,烏日,2013-12-27,24.107058,120.624103,2.693907e-06
C0C490,八德,2013-12-27,24.928708,121.283289,6.083236e-06
C0R190,赤山,2013-12-27,22.592333,120.614306,6.838344e-09
C0T820,天祥,2013-12-27,24.179597,121.495639,1.3078133e-07
C1F9E1,龍安,2013-12-27,24.1605,120.831961,3.5141227e-08
C0V820,小林,2013-12-27,23.148408,120.63325,1.3277365e-08
C2G870,芳苑,2013-12-27,23.922303,120.320025,0.07066851
C0E850,大河,2013-12-27,24.618069,120.948578,2.6307718e-05
C1U670,寒溪,2013-12-27,24.634,121.71691,3.89718e-07
C0N020,城西,2013-12-27,23.0568,120.0956,0.00011343886
C1Z110,三棧,2013-12-27,24.11557,121.60501,4.1340675e-07
C0R280,檳榔,2013-12-27,22.076078,120.836777,0.99648285
C2H9J0,中台,2013-12-27,23.9996,120.938739,4.707899e-08
C0F9L0,后里,2013-12-27,24.310436,120.729725,2.7458284e-05
C0D540,橫山,2013-12-27,24.71116,121.11693,1.5986054e-06
C1D420,太閣南,2013-12-27,24.632808,121.160575,6.259238e-08
C1E770,公館,2013-12-27,24.526914,120.830806,0.30718783
CAN130,水試所海水繁養殖中心,2013-12-27,23.120802,120.07968,0.0001301395
C1I430,翠華,2013-12-27,24.191961,121.224339,4.3634227e-08
C1M400,菜瓜坪,2013-12-27,23.251928,120.576103,1.4135596e-08
C0G730,二林,2013-12-27,23.903325,120.376081,1.1351034e-05
72M360,南改義竹分場,2013-12-27,23.360694,120.279361,1.3467732e-07
V2K620,麥寮合作社,2013-12-27,23.753836,120.294783,0.010321395
C0Z070,舞鶴,2013-12-27,23.46811,121.37407,2.2561217e-07
C0B040,大武崙,2013-12-27,25.166676,121.706993,0.007186446
C1Z030,紅葉,2013-12-27,23.493119,121.338806,2.894783e-07
C1I050,丹大,2013-12-27,23.753747,121.141147,4.4979416e-08
C0I080,信義,2013-12-27,23.689694,120.851036,8.898594e-09
C2M920,朴子農改,2013-12-27,23.469889,120.259383,2.8226683e-07
C2A880,福隆,2013-12-27,25.017842,121.942083,9.759847e-07
C0Z160,鳳林,2013-12-27,23.746114,121.453411,5.0408926e-07
C0V210,復興,2013-12-27,23.222403,120.806089,3.9766036e-08
C0H990,昆陽,2013-12-27,24.121322,121.273642,5.1128037e-08
C0R741,獅子,2013-12-27,22.202308,120.705236,3.0285106e-05
C0S710,鹿野,2013-12-27,22.917711,121.122994,3.8096113e-07
C0I530,小奇萊,2013-12-27,24.131764,121.295717,5.4233183e-08
C2K630,荷苞,2013-12-27,23.657717,120.595144,9.703614e-09
C0Z080,富源,2013-12-27,23.587642,121.378225,1.7435873e-07
467441,高雄,2013-12-27,22.7304,120.3125,4.3640597e-07
C0SB10,美和,2013-12-27,22.682078,121.060236,0.910129
C2K620,馬光農場,2013-12-27,23.721453,120.378864,8.249908e-09
C1I140,卡奈托灣,2013-12-27,23.754364,121.087872,3.3273587e-08
C0I520,玉山風口,2013-12-27,23.470489,120.955994,5.4162477e-08
C1G691,下水埔,2013-12-27,23.816114,120.5676,8.450576e-09
C0X110,臺南市南區,2013-12-27,22.961189,120.188378,7.050865e-07
C0V680,仁武,2013-12-27,22.701083,120.347722,4.186849e-07
C2G840,北斗,2013-12-27,23.877586,120.514222,1.4590771e-06
C0R900,竹坑,2013-12-27,22.1385,120.7022,0.020461285
C0K250,崙背,2013-12-27,23.75555,120.318925,0.00904044
C0G860,社頭,2013-12-27,23.897647,120.5862,3.1219452e-07
C0X150,安定,2013-12-27,23.102614,120.227839,7.90161e-07
C0R590,里港,2013-12-27,22.77919,120.49459,6.9456085e-09
C0E610,馬都安,2013-12-27,24.451272,120.930192,7.8790904e-08
C0E550,明德,2013-12-27,24.583486,120.885411,3.9660783e-05
C0R150,三地門,2013-12-27,22.709889,120.639944,1.0695455e-08
C0G910,花壇,2013-12-27,24.032076,120.549461,6.05286e-06
C1D400,鳥嘴山,2013-12-27,24.71909,121.28387,4.4431232e-08
C0K500,元長,2013-12-27,23.64981,120.315024,0.00015546786
C0F0B0,石岡,2013-12-27,24.276061,120.777644,1.4987142e-08
C2V250,甲仙,2013-12-27,23.080106,120.591758,8.113675e-09
C0SA20,金崙山,2013-12-27,22.567419,120.959667,2.349105e-07
C0V350,溪埔,2013-12-27,22.738578,120.446797,1.5005669e-07
C0M660,溪口,2013-12-27,23.604131,120.403569,4.6812136e-05
C1S880,壽卡,2013-12-27,22.238911,120.858903,0.0012057637
72D680,桃改新埔分場,2013-12-27,24.834444,121.066111,4.9208616e-06
