站號,站名,日期,lat,lon,BLBTSLS
C0R710,龍磐,2014-02-02,21.931672,120.838942,0.9998703
C1F9D1,白毛台,2014-02-02,24.158325,120.886933,1.5067647e-09
C0G940,竹塘,2014-02-02,23.848253,120.386764,7.694979e-10
467590,恆春,2014-02-02,22.003897,120.746339,0.9998787
C1O850,環湖,2014-02-02,23.148617,120.418633,7.1150225e-10
C0U710,太平山,2014-02-02,24.505486,121.525656,1.9339357e-08
C0E820,獅潭,2014-02-02,24.539133,120.920042,7.3749282e-09
C0V880,興達,2014-02-02,22.8778,120.2127,9.417518e-10
C0S890,關山,2014-02-02,23.0395,121.175017,1.4186401e-08
C0SB30,新蘭,2014-02-02,22.869214,121.223228,7.787653e-08
C2R970,屏科大,2014-02-02,22.648275,120.619247,5.38801e-10
K2F750,種苗繁殖,2014-02-02,24.225972,120.800917,1.8942008e-09
C1Z130,銅門,2014-02-02,23.965694,121.492842,1.4731504e-08
C0AD40,土城,2014-02-02,24.973208,121.445169,1.968012e-07
CAN140,六官養殖協會,2014-02-02,23.22881,120.29962,8.4603935e-10
C0X180,山上,2014-02-02,23.0757,120.363253,7.056382e-10
C0F9Z0,雪山東峰,2014-02-02,24.388792,121.268675,2.5197934e-08
C1M480,獨立山,2014-02-02,23.537022,120.607797,4.3891966e-09
C0X220,學甲,2014-02-02,23.230367,120.182187,1.8768558e-09
467650,日月潭,2014-02-02,23.881325,120.90805,2.8127851e-09
C0K600,箔子寮,2014-02-02,23.6197,120.14,1.146413e-09
C0G830,埤頭,2014-02-02,23.866003,120.452806,1.1648063e-09
C0S950,七塊厝,2014-02-02,22.954453,121.229922,1.2504993e-08
467110,金門,2014-02-02,24.407306,118.289281,7.212461e-09
C0AH80,深坑,2014-02-02,25.002703,121.628328,2.283323e-08
467990,馬祖,2014-02-02,26.169269,119.923419,1.5053407e-08
C0A970,三貂角,2014-02-02,25.007606,122.002058,0.56160253
C2D730,寶山農場,2014-02-02,24.732444,120.976153,2.9263585e-08
C0K430,褒忠,2014-02-02,23.690938,120.303634,9.838763e-10
467480,嘉義,2014-02-02,23.495925,120.432906,7.992269e-10
C2E540,後龍,2014-02-02,24.606489,120.783933,3.48308e-08
C0V400,阿公店,2014-02-02,22.804194,120.355528,4.5617946e-10
C0R440,大漢山,2014-02-02,22.405264,120.753181,1.3987975e-08
C0K280,四湖,2014-02-02,23.630414,120.227125,1.2692055e-09
C1F9B1,桐林,2014-02-02,24.066172,120.735194,7.5059514e-10
C2H9U0,鳳鵬,2014-02-02,23.763919,120.788061,3.121818e-09
C0K390,土庫,2014-02-02,23.679029,120.395574,6.01778e-10
C1I450,望鄉山,2014-02-02,23.594153,120.944286,1.9745105e-08
C0E910,海埔,2014-02-02,24.648767,120.772435,1.9971377e-08
B2E890,畜試北區分所,2014-02-02,24.527806,120.770972,1.1059833e-07
C0R750,四林格山,2014-02-02,22.076989,120.802439,0.9999906
C0F0C0,中坑,2014-02-02,24.248517,120.903319,3.6918888e-09
C1I121,大鞍,2014-02-02,23.678381,120.760017,6.752194e-09
72U480,花改蘭陽分場,2014-02-02,24.686306,121.716583,0.96775734
C0A770,科教館,2014-02-02,25.096356,121.516507,2.0420204e-07
C0AJ60,六塊厝,2014-02-02,25.24,121.4481,2.1915379e-05
C0R620,墾雷,2014-02-02,21.900836,120.855269,0.9998771
467420,永康,2014-02-02,23.038386,120.2367,1.1513325e-09
467300,東吉島,2014-02-02,23.25695,119.667467,0.9994502
C0I410,名間,2014-02-02,23.837053,120.701447,1.1630063e-08
A2C560,農工中心,2014-02-02,24.985917,121.239833,1.5652267e-06
C0V740,旗山,2014-02-02,22.888614,120.483597,6.6291356e-10
C0Z061,玉里,2014-02-02,23.3215,121.339656,2.167856e-08
C0S840,南田,2014-02-02,22.279725,120.889208,0.99997586
C1I470,杉林溪,2014-02-02,23.639517,120.786444,7.079708e-09
C1X040,東原,2014-02-02,23.291597,120.463822,1.2953646e-09
C0R660,枋寮,2014-02-02,22.367722,120.590647,5.867446e-10
C1R120,上德文,2014-02-02,22.763272,120.704442,6.53132e-09
C0K450,大埤,2014-02-02,23.646074,120.431537,7.210834e-10
C0UA00,土場,2014-02-02,24.576533,121.495333,6.774976e-09
467080,宜蘭,2014-02-02,24.763975,121.756528,9.0063764e-08
C0N030,四草,2014-02-02,23.0235,120.1116,1.3001964e-09
C0V650,彌陀,2014-02-02,22.783806,120.246361,7.0397127e-10
C0D660,新竹市東區,2014-02-02,24.798681,120.986942,1.9097196e-07
82S580,茶改東部分場,2014-02-02,22.907694,121.130139,1.08633245e-08
C0SB40,興隆,2014-02-02,22.913661,121.257469,1.0574822e-08
C0C710,大溪永福,2014-02-02,24.892936,121.324975,1.3581418e-06
C0FA20,溫寮,2014-02-02,24.372177,120.583125,3.0152574e-08
C0V640,湖內,2014-02-02,22.887139,120.2445,9.409312e-10
C0R910,下寮,2014-02-02,22.3929,120.5548,4.952084e-10
C0Z020,明里,2014-02-02,23.208717,121.262342,1.7967016e-08
C0M770,嘉義梅山,2014-02-02,23.585398,120.555587,1.6237597e-09
G2F820,農業試驗所,2014-02-02,24.031261,120.688133,2.7846054e-09
C0C660,楊梅,2014-02-02,24.912375,121.143047,2.6433824e-07
C1E511,新開,2014-02-02,24.347703,120.827019,2.2569744e-09
G2F820,農試所(霧峰),2014-02-02,24.031261,120.688133,2.7846054e-09
C1I070,和社,2014-02-02,23.591131,120.888861,4.0367287e-09
C2F000,大肚,2014-02-02,24.15295,120.572117,2.8162206e-09
C1S850,豐南,2014-02-02,23.122139,121.262389,1.4118916e-08
C2A920,富貴角,2014-02-02,25.263783,121.565258,0.002227174
CAH030,茶改場竹圍站,2014-02-02,23.860083,120.637528,1.43600065e-08
C0T960,光復,2014-02-02,23.660694,121.424964,2.1504276e-08
C0F9M0,豐原,2014-02-02,24.254322,120.720692,4.4953494e-09
C0R720,旭海,2014-02-02,22.205403,120.887614,0.99998534
C0V710,苓雅,2014-02-02,22.622742,120.330669,7.059424e-10
C0C740,觀音工業區,2014-02-02,25.064764,121.114856,1.04205765e-05
CAC040,拉拉山,2014-02-02,24.699317,121.427133,9.869216e-09
C0V790,萬山,2014-02-02,22.905944,120.688056,1.3259693e-09
U2HA30,臺大和社,2014-02-02,23.590856,120.888864,4.0367287e-09
C0AJ90,澳底,2014-02-02,25.0552,121.9253,0.3018065
C0Z100,東華,2014-02-02,23.89525,121.549833,2.1708184e-08
C0G970,三豐,2014-02-02,23.882,120.2895,2.6453069e-09
V2K610,大庄合作社,2014-02-02,23.8068,120.367939,8.7343677e-10
C0V900,汕尾,2014-02-02,22.4782,120.4151,3.3959657e-10
C1R630,龍泉,2014-02-02,22.66701,120.59091,5.6977156e-10
C1AC50,關渡,2014-02-02,25.133486,121.469331,1.1672118e-06
C0F9I0,神岡,2014-02-02,24.272481,120.658314,4.4636854e-09
C0K460,斗南,2014-02-02,23.678734,120.478359,1.282967e-09
467410,臺南,2014-02-02,22.993239,120.204772,1.1559798e-09
C2O810,曾文,2014-02-02,23.219681,120.497328,8.622259e-10
467280,後龍,2014-02-02,24.648563,120.831834,1.8100543e-08
C1F9J1,清水林,2014-02-02,24.071242,120.820419,2.0025799e-09
C2A650,火燒寮,2014-02-02,25.002719,121.742892,4.0433468e-05
466930,竹子湖,2014-02-02,25.162078,121.544547,4.052233e-07
C1I220,樟湖,2014-02-02,23.905333,120.846983,5.5682152e-09
C0I390,仁愛,2014-02-02,24.022122,121.132206,3.741262e-09
C0Z300,東里,2014-02-02,23.26853,121.30547,2.139504e-08
C1V590,新發,2014-02-02,23.057019,120.646064,4.6713757e-09
C0K510,水林,2014-02-02,23.572924,120.24597,1.1419479e-09
72S590,東改賓朗果園,2014-02-02,22.813889,121.071278,5.811007e-08
82A750,茶改北部分場,2014-02-02,24.955778,121.631222,6.47018e-09
C1A750,石碇服務區,2014-02-02,25.00872,121.646242,2.2469802e-08
C0X300,鹿寮,2014-02-02,23.386047,120.477331,6.837571e-10
G2AI50,關渡,2014-02-02,25.11575,121.492,2.1037731e-07
C0K590,雲林東勢,2014-02-02,23.674192,120.255721,9.838763e-10
C0A570,桶後,2014-02-02,24.848222,121.597992,1.7217651e-08
C1S800,華源,2014-02-02,22.657883,121.02325,1.2592227e-07
C0G720,溪州,2014-02-02,23.851589,120.499093,1.1873473e-09
C1V160,達卡努瓦,2014-02-02,23.279811,120.705319,6.258077e-09
C2M410,馬頭山,2014-02-02,23.324361,120.582017,1.3787479e-09
C0V850,蚵仔寮,2014-02-02,22.7256,120.2527,1.9873292e-09
C0S740,池上,2014-02-02,23.119628,121.209469,1.1695129e-08
C1V390,尖山,2014-02-02,22.813153,120.367789,4.7091697e-10
C0AH70,松山,2014-02-02,25.04871,121.55042,2.4280176e-08
C0N010,鯤鯓國小,2014-02-02,23.1879,120.0889,1.7625207e-09
C0R550,新埤,2014-02-02,22.467947,120.582894,4.2378182e-10
C0SA60,知本（水試所）,2014-02-02,22.702394,121.082761,3.2018465e-07
C0T9I0,豐濱,2014-02-02,23.583897,121.514806,4.8698674e-08
C0UB00,淡江大學蘭陽校園,2014-02-02,24.823239,121.730383,9.8340776e-09
C0W240,九宮,2014-02-02,24.423753,118.240186,5.6442846e-09
C0T9N0,富里,2014-02-02,23.171639,121.249378,1.4806774e-08
U2HA50,臺大竹山,2014-02-02,23.756972,120.681556,5.3249662e-09
C0V840,鳳鼻頭,2014-02-02,22.5083,120.3591,7.101018e-10
C0X140,西港,2014-02-02,23.125608,120.203108,1.99036e-09
72D080,桃改五峰分場,2014-02-02,24.612194,121.157167,4.3243227e-09
C2H9P0,伊拿谷,2014-02-02,23.963211,121.088264,2.1946727e-09
C2H9F0,柑林,2014-02-02,24.018658,120.847072,6.7740844e-09
C0TA20,加灣,2014-02-02,24.082025,121.608944,1.48160115e-08
C0V530,阿蓮,2014-02-02,22.883208,120.327508,6.573208e-10
C1O880,關山,2014-02-02,23.173397,120.594092,1.5200632e-09
C0E791,卓蘭,2014-02-02,24.3126,120.8244,2.271069e-09
C1I030,武界,2014-02-02,23.913225,121.052483,2.6466291e-09
C0R520,崁頂,2014-02-02,22.514781,120.506914,4.9469007e-10
C0R341,牡丹,2014-02-02,22.130036,120.792639,0.99469906
C0R930,萬丹,2014-02-02,22.5885,120.4851,4.1839748e-10
C0S760,紅石,2014-02-02,23.069131,121.126219,1.6359278e-08
C1M610,石磐龍,2014-02-02,23.496606,120.663506,5.3446554e-09
C0UA10,鴛鴦湖,2014-02-02,24.590269,121.412228,1.05033005e-08
V2C260,八德蔬果,2014-02-02,24.978508,121.281819,4.281488e-07
C0R800,丹路,2014-02-02,22.204481,120.750989,0.99870205
C0G920,永靖,2014-02-02,23.924703,120.547533,1.3562078e-09
C2M950,太和,2014-02-02,23.538372,120.702961,7.260438e-09
C1A630,下盆,2014-02-02,24.771003,121.538622,8.019209e-09
B2N890,畜產試驗所,2014-02-02,23.058972,120.336406,6.8457007e-10
C0UA30,白嶺,2014-02-02,24.527819,121.519031,9.520268e-09
C1V580,溪南(特生中心),2014-02-02,23.084972,120.788475,1.2101313e-08
C1T970,大農,2014-02-02,23.615233,121.413331,2.0723421e-08
E2S960,林試太麻里2,2014-02-02,22.598014,120.989761,5.1716118e-08
C0R650,竹田,2014-02-02,22.58486,120.54344,4.1839748e-10
C1H900,清流,2014-02-02,24.080775,120.962997,2.927468e-09
C1C510,水尾,2014-02-02,24.940081,121.087161,3.119475e-07
C0F9X0,大雅(中科園區),2014-02-02,24.21528,120.62445,4.4685753e-09
C0SB60,白守蓮,2014-02-02,23.126769,121.401914,2.251107e-08
C0O970,虎頭埤,2014-02-02,23.021375,120.347878,7.399963e-10
C0C730,中大臨海站,2014-02-02,24.966126,121.008581,0.4648903
C0X250,新營,2014-02-02,23.310689,120.316681,6.9496864e-10
C0V700,三民,2014-02-02,22.645017,120.311233,7.059424e-10
C0U870,大礁溪,2014-02-02,24.791042,121.675047,7.820665e-09
C0E870,高鐵苗栗,2014-02-02,24.60725,120.826094,3.2418846e-08
A2K570,古坑花卉中心,2014-02-02,23.63353,120.55239,1.1039296e-09
C0M860,新美,2014-02-02,23.338017,120.683169,2.9420328e-09
C1E701,八卦,2014-02-02,24.491756,120.927619,7.9767695e-09
C0I420,國姓,2014-02-02,24.037803,120.855072,1.157363e-09
C2D720,關西工作站,2014-02-02,24.757275,121.184792,7.8919655e-08
C0S960,香蘭,2014-02-02,22.587569,120.993375,5.178146e-08
C0R260,春日,2014-02-02,22.370361,120.628306,9.514072e-05
72G600,臺中農改場,2014-02-02,24.003028,120.534389,1.9568993e-09
C0Z210,瑞穗,2014-02-02,23.5239,121.39021,5.12235e-08
C0M820,達邦,2014-02-02,23.453994,120.749517,4.548747e-09
C0V860,南寮,2014-02-02,22.7616,120.2339,7.031795e-10
C0G740,大城,2014-02-02,23.852487,120.320935,2.6505695e-09
C0R920,塭仔,2014-02-02,22.4169,120.5197,4.9773957e-10
C0R470,高樹,2014-02-02,22.826389,120.600806,6.275454e-10
C0R680,佳樂水,2014-02-02,21.993578,120.861633,0.99987596
C1O870,大棟山,2014-02-02,23.31157,120.52226,7.1132216e-09
C0D360,梅花,2014-02-02,24.678347,121.208558,7.762898e-09
C0Z190,富世,2014-02-02,24.14743,121.6297,1.2510074e-08
C0AI10,屈尺,2014-02-02,24.92184,121.54475,2.283323e-08
B2U990,畜試東區分所,2014-02-02,24.669039,121.832561,0.9841654
C0SB80,長濱漁港,2014-02-02,23.313644,121.459994,2.5394014e-08
C0R240,來義,2014-02-02,22.527306,120.625111,3.2352375e-05
C0V910,大樹,2014-02-02,22.684645,120.432803,4.5823925e-10
C1R610,西大武山,2014-02-02,22.617719,120.7322,1.6830517e-08
C0G900,線西,2014-02-02,24.143358,120.443536,1.6221632e-08
C0M700,竹崎,2014-02-02,23.526178,120.555508,1.220604e-09
C2E880,三義,2014-02-02,24.405478,120.749819,3.1933516e-09
C0C720,竹圍,2014-02-02,25.112692,121.239824,1.9847275e-05
C0F9P0,清水,2014-02-02,24.312297,120.562242,1.0353507e-08
C0Z150,吉安光華,2014-02-02,23.930925,121.595153,2.1693118e-08
C1D640,外坪(五指山),2014-02-02,24.644447,121.090961,5.8525607e-09
C0F9O0,潭子,2014-02-02,24.213106,120.703933,2.0026831e-09
C2H9R0,卓社,2014-02-02,23.887894,121.000086,4.606485e-09
72T250,花蓮農改場,2014-02-02,23.975222,121.563889,1.4441914e-08
C0E780,銅鑼,2014-02-02,24.489681,120.790853,1.8994623e-08
C1T950,太安,2014-02-02,23.666719,121.370128,1.4675471e-08
C0E830,苑裡,2014-02-02,24.439714,120.653053,2.673934e-08
467270,田中,2014-02-02,23.873803,120.581286,2.5767937e-09
C0SA10,檳榔四格山,2014-02-02,22.810031,121.109308,4.8903264e-08
C1T830,布洛灣,2014-02-02,24.17184,121.57127,2.6445615e-08
C0F970,大坑,2014-02-02,24.173142,120.722289,2.3445421e-09
C1U920,思源,2014-02-02,24.393125,121.347214,1.3103995e-08
C0A931,三和,2014-02-02,25.233153,121.595236,2.5046025e-05
C0I010,廬山,2014-02-02,24.033311,121.181808,6.4475e-09
C2M940,日野賀,2014-02-02,23.434056,120.727169,5.6250684e-09
C0R860,鼻頭,2014-02-02,22.1043,120.8979,0.99997234
C0UB20,壯圍,2014-02-02,24.7359,121.8163,0.98413706
C0R790,九棚,2014-02-02,22.14195,120.889281,0.9999857
C0W110,東莒,2014-02-02,25.9652,119.98069,1.12646724e-07
C1U930,粉鳥林,2014-02-02,24.497088,121.842479,6.654326e-08
C1I211,蘆竹湳,2014-02-02,23.934019,120.811994,8.215237e-09
C0S830,長濱,2014-02-02,23.286817,121.411975,1.7961534e-08
C1F9F1,伯公龍,2014-02-02,24.272392,120.849047,3.0302632e-09
C0E810,西湖,2014-02-02,24.562947,120.7485,3.030675e-08
C1I440,新高口,2014-02-02,23.478744,120.878939,1.2338319e-08
C0O840,王爺宮,2014-02-02,23.222064,120.40085,8.6244795e-10
C0T9G0,鳳林山,2014-02-02,23.735269,121.420131,1.6053544e-08
C0X080,佳里,2014-02-02,23.173039,120.145086,1.941304e-09
C0FB70,大甲溪埔,2014-02-02,24.370625,120.620067,2.6206154e-08
C0Z310,清水斷崖,2014-02-02,24.218294,121.689142,3.9863696e-08
C0M680,太保,2014-02-02,23.455062,120.331455,6.168142e-10
C1S820,金峰,2014-02-02,22.590969,120.933236,2.1757346e-08
C0AD10,八里,2014-02-02,25.150211,121.403947,1.8902187e-05
C2K240,草嶺,2014-02-02,23.59555,120.693461,6.3295027e-09
C1SA70,都蘭,2014-02-02,22.87794,121.226881,1.0574822e-08
C0K440,二崙,2014-02-02,23.772797,120.408944,7.7708195e-10
C1A760,坪林交控,2014-02-02,24.94284,121.713442,1.6916738e-08
C0F9N0,大里,2014-02-02,24.092464,120.701378,3.0042222e-09
C0SA90,達仁林場,2014-02-02,22.264347,120.823972,0.055590026
C1R290,石門山,2014-02-02,22.112611,120.756597,0.9999761
42HA10,萬大發電廠,2014-02-02,23.978875,121.139639,4.7872373e-09
C0R890,山海,2014-02-02,21.9878,120.7091,0.9998775
C0T9A0,月眉山,2014-02-02,23.809928,121.539828,2.1001163e-08
C0AC70,信義,2014-02-02,25.037822,121.564597,2.4280176e-08
C0K560,棋山,2014-02-02,23.68645,120.603417,1.5247993e-09
C2FB50,出雲,2014-02-02,24.206469,120.902794,3.2757832e-09
C1Z240,中平林道,2014-02-02,23.42115,121.26763,1.9485908e-08
U2H480,溪頭,2014-02-02,23.670306,120.798194,4.833341e-09
C0M880,好美里,2014-02-02,23.3364,120.138,1.941304e-09
C0T9E0,大坑,2014-02-02,23.880628,121.581981,2.0081806e-08
C0K530,臺西,2014-02-02,23.701547,120.197559,1.9469626e-09
C1E900,國一N128K,2014-02-02,24.560997,120.844186,2.838429e-08
C0AJ50,水湳洞,2014-02-02,25.123695,121.862238,0.9938044
C0AI20,白沙灣,2014-02-02,25.283128,121.519058,0.12741372
C0A860,大坪,2014-02-02,25.165914,121.632969,1.0333334e-06
C1U850,觀音海岸,2014-02-02,24.38319,121.77856,2.448004e-08
C2K610,草嶺石壁,2014-02-02,23.602469,120.707731,5.588996e-09
C0U950,鶯子嶺,2014-02-02,24.89754,121.79244,1.8582131e-08
C0O900,善化,2014-02-02,23.112883,120.297219,6.790303e-10
C0K550,蔦松,2014-02-02,23.514319,120.229736,9.278341e-10
E2P980,林試六龜中心,2014-02-02,22.991703,120.645722,1.0806632e-09
C0E590,通霄,2014-02-02,24.471892,120.704622,1.4147767e-07
C1I310,西巒,2014-02-02,23.754486,120.883956,6.7855677e-09
C0A550,泰平,2014-02-02,24.971197,121.823711,7.4583136e-07
C0I360,水里,2014-02-02,23.812553,120.849792,1.4919975e-08
C0R830,高士,2014-02-02,22.121825,120.836781,0.9999874
C1I101,溪頭,2014-02-02,23.661789,120.807647,7.1504664e-09
C0AJ20,野柳,2014-02-02,25.20703,121.690021,0.99379975
C0B060,暖暖,2014-02-02,25.0957,121.7403,0.97313833
C1H920,長豐,2014-02-02,24.102039,120.879897,2.067355e-09
C0V360,內門,2014-02-02,22.975481,120.466769,7.705612e-10
C0R850,林邊,2014-02-02,22.4634,120.5339,4.9554755e-10
C0E930,龍鳳,2014-02-02,24.700034,120.859125,1.7876568e-08
C0U910,冬山,2014-02-02,24.63373,121.7937,0.9841654
C1E721,泰安,2014-02-02,24.489017,120.968036,5.6301133e-09
82H320,茶改中部分場,2014-02-02,23.875611,120.913583,3.137715e-09
C0M750,布袋,2014-02-02,23.380878,120.167789,9.574785e-10
C1S860,利嘉,2014-02-02,22.809417,121.050528,1.44566314e-08
72C440,桃園農改,2014-02-02,24.950944,121.030583,0.15589449
E2S980,林試太麻里1,2014-02-02,22.598922,120.980044,3.3597807e-08
C0X170,關廟,2014-02-02,22.963017,120.327797,6.3956873e-10
C0V720,林園,2014-02-02,22.507747,120.394511,7.053166e-10
C1I510,線浸林道,2014-02-02,23.761508,120.832956,4.814185e-09
C0D690,外湖,2014-02-02,24.917735,120.968711,0.46014887
C0C750,新興坑尾,2014-02-02,25.0061,121.0971,4.8469137e-06
B2Q810,畜試南區分所,2014-02-02,21.945583,120.802167,0.999876
C0S790,金崙,2014-02-02,22.538122,120.966875,1.9239872e-08
C0AH90,福山植物園,2014-02-02,24.760717,121.58135,9.895812e-09
C0I540,奇萊稜線,2014-02-02,24.109231,121.326456,2.9576814e-08
C0M850,表湖,2014-02-02,23.24186,120.64166,3.2687928e-09
C0S770,大溪山,2014-02-02,22.478475,120.943325,1.2447073e-08
C0AG80,中和,2014-02-02,24.991622,121.491792,2.4271195e-08
C0T790,大禹嶺,2014-02-02,24.186117,121.316086,1.7827297e-08
C0T9B0,水源,2014-02-02,23.991861,121.537169,2.1369633e-08
C0R840,牡丹池山,2014-02-02,22.168389,120.841225,0.09609648
C1I131,桶頭,2014-02-02,23.641944,120.654117,2.5835702e-09
CAL110,布袋國中,2014-02-02,23.35893,120.18026,9.740956e-10
467571,新竹,2014-02-02,24.827853,121.014219,2.0929049e-07
C0Z290,赤柯山,2014-02-02,23.36893,121.38293,1.8207365e-08
C0X280,將軍,2014-02-02,23.214999,120.13577,1.941304e-09
C0S690,太麻里,2014-02-02,22.60902,120.98533,3.4489155e-08
C0U880,北關,2014-02-02,24.9072,121.8734,7.923055e-07
C1H860,瑞岩,2014-02-02,24.123772,121.18345,7.4250055e-09
C0G810,埔心,2014-02-02,23.947633,120.525456,1.3658908e-09
C0U970,大福,2014-02-02,24.80064,121.81389,9.250995e-08
C2H9N0,仁愛東眼,2014-02-02,24.026875,121.1205,5.1558118e-09
C1E670,南礦,2014-02-02,24.538278,121.002836,6.6255996e-09
C0M520,東後寮,2014-02-02,23.369908,120.248065,9.656546e-10
C1E461,松安,2014-02-02,24.397972,120.986022,5.031106e-09
72G600,臺中農改,2014-02-02,24.003028,120.534389,1.9568993e-09
C2N160,西拉雅風管處,2014-02-02,23.189481,120.335297,8.49281e-10
C2M970,碧湖,2014-02-02,23.568632,120.624165,5.482066e-09
C0A640,石碇,2014-02-02,24.993969,121.662917,6.266614e-05
E2S960,林試太麻里2,2014-02-02,22.598,120.99775,5.634972e-08
C0F9Y0,桃山,2014-02-02,24.432739,121.303808,2.7352671e-08
C1I020,萬大,2014-02-02,23.979817,121.132261,3.7908903e-09
C0U940,羅東,2014-02-02,24.68184,121.74934,0.9811476
C0M650,朴子,2014-02-02,23.43463,120.23902,9.28351e-10
C1I500,大尖山,2014-02-02,23.858572,120.994889,9.911566e-09
C0G820,田尾,2014-02-02,23.901669,120.509389,1.3547781e-09
E2K600,四湖植物園,2014-02-02,23.676986,120.163433,1.9469626e-09
C0S730,綠島,2014-02-02,22.6672,121.47533,1.6206664e-08
12Q970,東港工作站,2014-02-02,22.479997,120.466058,4.952084e-10
C0E430,南庄,2014-02-02,24.601775,121.000214,7.615989e-09
C1TA00,太魯閣,2014-02-02,24.15773,121.6236,4.0355296e-08
466920,臺北,2014-02-02,25.037658,121.514853,2.4280222e-08
C0R600,舊泰武,2014-02-02,22.588194,120.664944,3.85777e-09
C1I260,北坑,2014-02-02,23.9246,121.006903,1.5674838e-09
466910,鞍部,2014-02-02,25.182586,121.529731,2.3464294e-07
C1I230,九份二山,2014-02-02,23.961944,120.845,2.5259563e-09
C2A660,瑞芳,2014-02-02,25.113169,121.801147,0.015184021
C0R270,琉球嶼,2014-02-02,22.332244,120.362236,9.605789e-05
C1T990,高寮,2014-02-02,23.394239,121.356808,5.2846787e-08
C0G620,芬園,2014-02-02,24.015678,120.6213,1.0039246e-09
C1Z140,荖溪,2014-02-02,23.890575,121.45964,1.9507997e-08
C1I201,中心崙,2014-02-02,23.728722,120.712097,5.192395e-09
C1I400,凌霄,2014-02-02,24.018778,121.004456,4.975253e-09
C1M640,十字,2014-02-02,23.492153,120.753683,7.295461e-09
G2P820,農試鳳山分所,2014-02-02,22.646611,120.356083,7.005877e-10
C0Z270,蕃薯寮,2014-02-02,23.73835,121.540108,2.3274028e-08
C0F9Q0,外埔,2014-02-02,24.347817,120.705686,4.51433e-09
C0K580,高鐵雲林,2014-02-02,23.737456,120.417944,6.01778e-10
C2I090,鳳凰,2014-02-02,23.728081,120.787347,3.3122105e-09
C0U990,員山,2014-02-02,24.74435,121.72247,0.9805412
C0V770,大社,2014-02-02,22.730306,120.346639,1.928612e-09
C0X120,麻豆,2014-02-02,23.183289,120.248611,1.8768558e-09
C0C670,龍潭,2014-02-02,24.870056,121.221389,1.7340483e-08
C0D680,香山濕地,2014-02-02,24.783581,120.914988,5.3441596e-07
C0S980,勝林山,2014-02-02,22.430439,120.8938,5.389493e-09
C0V730,大寮,2014-02-02,22.605614,120.395717,7.553921e-10
C0R570,麟洛,2014-02-02,22.65078,120.52719,3.8114856e-10
C2M930,石卓,2014-02-02,23.478744,120.702264,7.142942e-09
C0G9B0,和美,2014-02-02,24.105169,120.492131,2.3810318e-09
CAG100,王功漁港,2014-02-02,23.96824,120.32586,2.9421452e-09
C0X290,北門,2014-02-02,23.267772,120.125481,1.941304e-09
C2F930,大甲,2014-02-02,24.347667,120.640403,8.062366e-09
C0D650,湖口,2014-02-02,24.904794,121.043628,0.014978502
C0E420,竹南,2014-02-02,24.708978,120.888897,4.2129355e-07
C0U780,五結,2014-02-02,24.68637,121.79794,0.9841654
C1I250,鯉潭,2014-02-02,23.961922,120.991131,2.067355e-09
C0R130,阿禮,2014-02-02,22.742908,120.743678,3.4458625e-09
C0X100,臺南市北區,2014-02-02,23.010394,120.194228,1.1677247e-09
C0S920,金峰嘉蘭,2014-02-02,22.594789,120.960825,3.2718013e-08
C0V490,新興,2014-02-02,22.627422,120.298803,7.053166e-10
C0F9K0,大安,2014-02-02,24.345061,120.588025,9.791516e-09
72N100,臺南農改,2014-02-02,23.0605,120.342194,6.8457007e-10
467290,古坑,2014-02-02,23.633639,120.551889,1.1039296e-09
C2E970,八甲,2014-02-02,24.535811,120.795983,1.8975467e-08
C0V440,鳳山,2014-02-02,22.646653,120.356122,7.005877e-10
C1T940,大觀,2014-02-02,23.714206,121.373133,2.3108065e-08
72T250,花蓮農改,2014-02-02,23.975222,121.563889,1.4441914e-08
C0E740,造橋,2014-02-02,24.637056,120.864778,1.6860142e-08
C0R100,尾寮山,2014-02-02,22.833111,120.683889,4.0701433e-09
A2K630,臺大雲林校區,2014-02-02,23.730628,120.423903,6.01778e-10
C0D580,寶山,2014-02-02,24.735006,121.025192,7.342576e-09
E2P990,林試扇平站,2014-02-02,22.9677,120.6857,4.0714165e-09
C0AI30,三重,2014-02-02,25.057328,121.500629,2.0420204e-07
C0AH00,汐止,2014-02-02,25.066881,121.658778,0.99379975
C1Z040,立山,2014-02-02,23.443356,121.327375,2.9959725e-08
C0W130,花嶼,2014-02-02,23.40007,119.32276,0.99886924
C0A950,鼻頭角,2014-02-02,25.129036,121.923372,0.39457616
C0K470,林內,2014-02-02,23.748675,120.609642,1.3519387e-09
C2F990,摩天嶺,2014-02-02,24.322458,120.936819,3.895903e-09
82C160,茶改場,2014-02-02,24.908472,121.185333,6.914523e-08
C0Z320,清水林道,2014-02-02,23.27125,121.188272,1.9140568e-08
C0R760,南仁湖,2014-02-02,22.084681,120.863353,0.9999786
C0M670,大林,2014-02-02,23.600616,120.45841,1.4264373e-09
C0M800,茶山,2014-02-02,23.299075,120.664767,1.8184552e-09
C0A9C0,天母,2014-02-02,25.117494,121.537169,1.9124936e-07
72K220,南改斗南分場,2014-02-02,23.634556,120.477333,1.2365807e-09
72AI40,桃改樹林分場,2014-02-02,24.944503,121.386972,1.8433697e-07
C0S910,蘭嶼燈塔,2014-02-02,22.081197,121.503117,0.9997903
C0B050,八斗子,2014-02-02,25.144754,121.79167,0.99596506
C0U900,內城,2014-02-02,24.71813,121.68766,8.1847425e-08
C0X320,柳營,2014-02-02,23.253328,120.375253,7.419608e-10
C0M790,新港,2014-02-02,23.553269,120.345728,7.0018025e-10
C0F9T0,西屯,2014-02-02,24.179494,120.641275,4.952889e-09
C0SA30,都歷,2014-02-02,23.020333,121.323642,1.7431276e-08
C0C620,蘆竹,2014-02-02,25.084275,121.265767,1.5018016e-05
C0R730,大坪頂,2014-02-02,22.024633,120.69355,0.99961984
C0AJ40,石門,2014-02-02,25.273672,121.601198,0.00144917
C0E750,苗栗,2014-02-02,24.564569,120.824575,2.8444232e-08
C0T870,鯉魚潭,2014-02-02,23.935639,121.508944,2.144742e-08
C1V170,排雲,2014-02-02,23.463619,120.954147,3.1689375e-08
C2H950,中寮,2014-02-02,23.884447,120.766406,5.33555e-09
C0R350,貓鼻頭,2014-02-02,21.921774,120.7358,0.9998769
C0V660,岡山,2014-02-02,22.797078,120.294958,6.860197e-10
C1H941,雙冬,2014-02-02,23.967378,120.802189,1.5873801e-09
C0AJ70,田寮,2014-02-02,25.2698,121.4886,0.19903931
C0AI00,五股,2014-02-02,25.07445,121.42728,1.9068348e-06
C0Z280,德武,2014-02-02,23.47426,121.41071,4.3306805e-08
C0R700,枋山,2014-02-02,22.246844,120.661086,0.9996201
C0C460,復興,2014-02-02,24.820208,121.352281,1.0253321e-08
E2H360,蓮華池,2014-02-02,23.918333,120.885278,2.030174e-09
C0M640,中埔,2014-02-02,23.42538,120.5229,1.1302035e-09
C0W140,金沙,2014-02-02,24.488292,118.408778,6.6779466e-09
C2A540,四堵,2014-02-02,24.8926,121.745736,1.2045578e-07
C0ACA0,新莊,2014-02-02,25.051478,121.446756,1.7972872e-05
C0R220,潮州,2014-02-02,22.534361,120.54,5.850951e-10
U2HA40,臺大內茅埔,2014-02-02,23.689722,120.851117,7.583967e-09
467490,臺中,2014-02-02,24.145736,120.684075,9.761676e-10
C0U960,翠峰湖,2014-02-02,24.510856,121.608044,1.8785006e-08
E2HA20,林試畢祿溪站,2014-02-02,24.226944,121.308522,1.0450685e-08
C0V890,前鎮,2014-02-02,22.5718,120.3117,7.1121325e-10
467620,蘭嶼,2014-02-02,22.036969,121.558339,0.99944943
C1F941,雪嶺,2014-02-02,24.280586,121.026642,1.8036511e-08
C2H9E0,國姓南港,2014-02-02,23.911108,120.846556,5.8162604e-09
C0AC80,文山,2014-02-02,25.00235,121.575728,2.283323e-08
C0F9R0,龍井,2014-02-02,24.184536,120.528972,9.138681e-09
C0M760,民雄,2014-02-02,23.551754,120.428457,8.5017887e-10
C0UA40,西德山,2014-02-02,24.560647,121.752608,1.9009882e-08
C1T920,中興,2014-02-02,23.769503,121.498653,2.1325333e-08
C0D550,雪霸,2014-02-02,24.526972,121.11605,1.1141195e-08
C2F860,梨山,2014-02-02,24.247522,121.243669,1.0799116e-08
C0R320,車城,2014-02-02,22.0744,120.716247,0.99987745
C1S870,南美山,2014-02-02,23.15025,121.382333,1.3156838e-08
C0B020,基隆嶼,2014-02-02,25.19141,121.78391,0.9938044
C1U501,牛鬥,2014-02-02,24.637836,121.573656,1.5609924e-08
C0M730,嘉義市東區,2014-02-02,23.457673,120.460531,1.1716066e-09
C0S700,知本,2014-02-02,22.684866,121.005642,3.6079026e-08
C1N001,沙崙,2014-02-02,22.935472,120.309406,6.573208e-10
C0V760,橋頭,2014-02-02,22.757806,120.30575,6.896708e-10
C0G960,福寶,2014-02-02,24.0443,120.3814,2.7991696e-09
C0X210,白河,2014-02-02,23.347466,120.414427,7.5231504e-10
C0S810,東河,2014-02-02,22.972672,121.303986,1.05685505e-08
C2R170,屏東,2014-02-02,22.66027,120.49403,3.7766346e-10
C0R670,楓港,2014-02-02,22.190131,120.692156,0.9996543
C0FA50,霧峰,2014-02-02,24.0419,120.6995,1.1631167e-09
C0UB10,蘇澳,2014-02-02,24.5969,121.8571,1.6781559e-06
C0G950,防潮門,2014-02-02,24.1835,120.4871,9.631093e-09
C0M740,六腳,2014-02-02,23.492871,120.290625,6.134715e-10
C1R250,力里,2014-02-02,22.428117,120.629228,3.2352375e-05
C0K330,虎尾,2014-02-02,23.719183,120.442036,6.0766847e-10
C2FA00,烏石坑,2014-02-02,24.273503,120.947617,3.8606114e-09
C0V620,永安,2014-02-02,22.82315,120.236856,7.0397127e-10
C1I330,楓樹林,2014-02-02,23.986803,121.076117,4.4016715e-09
C0W200,湖西,2014-02-02,23.596314,119.67275,0.99396783
72Q010,高雄農改場,2014-02-02,22.709333,120.525889,3.8406542e-10
C0SA40,瑞和,2014-02-02,22.974361,121.156697,1.4724762e-08
C0C680,龜山,2014-02-02,25.02846,121.38656,1.6744353e-08
C2V260,月眉,2014-02-02,22.971003,120.539853,8.302137e-10
C0V450,鳳森,2014-02-02,22.545064,120.392592,7.526107e-10
C0U720,南山,2014-02-02,24.43742,121.38167,1.0182964e-08
A2N290,臺南蘭花園區,2014-02-02,23.340258,120.379661,7.419608e-10
C0R560,新園,2014-02-02,22.5434,120.461558,4.9596266e-10
C0U890,三星,2014-02-02,24.66812,121.65302,6.690112e-08
C1V300,御油山,2014-02-02,23.001983,120.715364,1.1809268e-08
C0U600,礁溪,2014-02-02,24.817539,121.765608,8.668918e-08
C1T980,龍澗,2014-02-02,24.023289,121.411328,1.40114205e-08
C0D670,海天一線,2014-02-02,24.831986,120.914438,5.85056e-07
C0SA00,歷坵,2014-02-02,22.520969,120.89185,1.2115101e-08
C0M710,東石,2014-02-02,23.458927,120.15385,9.278341e-10
C0M780,鹿草,2014-02-02,23.41134,120.30835,6.001755e-10
C0U520,雙連埤,2014-02-02,24.753033,121.641303,7.85475e-09
C0B010,七堵,2014-02-02,25.094819,121.71713,0.9919244
C0R480,長治,2014-02-02,22.693128,120.542622,4.829708e-10
C1V830,國三S383K,2014-02-02,22.781967,120.426475,6.3248656e-10
12Q980,恆春工作站,2014-02-02,22.079678,120.714425,0.99987745
C1O940,東山服務區,2014-02-02,23.286016,120.398472,7.5894185e-10
C1U840,東澳嶺,2014-02-02,24.5378,121.8485,2.1841878e-08
C1D630,飛鳳山,2014-02-02,24.766464,121.119178,4.640206e-09
C0S940,石寧山,2014-02-02,23.223772,121.406639,1.8225814e-08
C0K410,北港,2014-02-02,23.573957,120.292802,6.9769e-10
C2M620,瑞里,2014-02-02,23.545133,120.675197,6.3897767e-09
C0SB70,小港漁港,2014-02-02,23.158558,121.400431,1.9525753e-08
C2O950,安南,2014-02-02,23.076694,120.144861,4.8628666e-09
C0F0E0,南湖圈谷,2014-02-02,24.363714,121.444667,4.0044075e-08
467610,成功,2014-02-02,23.097486,121.373428,2.0514475e-08
C0G890,伸港,2014-02-02,24.148933,120.484403,1.1376136e-08
C2E540,龍溪,2014-02-02,24.606489,120.783933,3.48308e-08
C1V200,梅山,2014-02-02,23.268447,120.823556,4.9380704e-09
C0T9H0,加路蘭山,2014-02-02,23.682947,121.5274,1.722284e-08
C2O930,玉井,2014-02-02,23.126042,120.46055,7.1150225e-10
C1F911,新伯公,2014-02-02,24.221361,120.841069,1.6920343e-09
C0R490,九如,2014-02-02,22.7405,120.490503,3.811064e-10
C0X200,左鎮,2014-02-02,23.056758,120.408522,7.0420625e-10
C0SB50,叭嗡嗡,2014-02-02,23.047062,121.343223,1.0548774e-08
C1F891,稍來,2014-02-02,24.265689,121.001142,1.1796414e-08
72N240,七股研究中心,2014-02-02,23.081672,120.062894,9.332622e-09
C0C700,中壢,2014-02-02,24.977661,121.256375,3.914191e-07
C0M690,水上,2014-02-02,23.419734,120.388909,8.405561e-10
C0V690,鼓山,2014-02-02,22.623325,120.275575,7.053166e-10
C0O860,大內,2014-02-02,23.11885,120.36083,6.2476746e-10
C0Z200,萬榮,2014-02-02,23.709219,121.420106,2.144742e-08
C0T9D0,和中,2014-02-02,24.26676,121.74103,5.1562072e-08
C1O921,楠西,2014-02-02,23.183511,120.484083,7.800698e-10
C0AJ30,淡水觀海,2014-02-02,25.184591,121.408616,2.1928425e-05
C0V810,左營,2014-02-02,22.67491,120.28491,1.9268949e-09
C0UA70,桃源谷,2014-02-02,24.962606,121.888875,4.6118805e-07
C0X130,官田,2014-02-02,23.193217,120.315422,8.468514e-10
C1H000,翠峰,2014-02-02,24.109397,121.205211,1.36277665e-08
C0UA90,石城,2014-02-02,24.980444,121.951214,0.9007702
C1E681,南勢山,2014-02-02,24.421669,120.923831,4.3564854e-09
C0A9F0,內湖,2014-02-02,25.079422,121.57545,2.4280176e-08
C0K291,宜梧,2014-02-02,23.536281,120.169329,9.3030256e-10
C1K540,口湖,2014-02-02,23.585344,120.180517,1.1275378e-09
C0R780,滿州,2014-02-02,22.024403,120.839892,0.99987715
C0V870,文安,2014-02-02,22.8025,120.2164,7.031795e-10
C0U650,玉蘭,2014-02-02,24.675286,121.587061,1.0603886e-08
C0R640,東港,2014-02-02,22.46247,120.44074,7.1057193e-10
K2E360,苗栗農改,2014-02-02,24.495722,120.829111,2.2196334e-08
C0AJ80,板橋,2014-02-02,25.0107,121.4489,1.9658341e-07
C0S660,下馬,2014-02-02,23.150427,121.070312,1.7163682e-08
C1H9B1,阿眉,2014-02-02,24.1263,120.994672,8.775518e-09
C0UA20,多加屯,2014-02-02,24.368614,121.373189,1.5637728e-08
C0E730,頭份,2014-02-02,24.688247,120.912206,4.2129355e-07
72V140,高改旗南分場,2014-02-02,22.857861,120.516667,7.12862e-10
C0K480,莿桐,2014-02-02,23.761192,120.502372,1.6949996e-09
C0U980,坪林石牌,2014-02-02,24.86478,121.77396,1.3908801e-08
C0T900,西林,2014-02-02,23.8119,121.441458,2.1244746e-08
C1I150,青雲,2014-02-02,23.793361,120.949378,3.4888095e-09
467350,澎湖,2014-02-02,23.565503,119.563094,0.9989453
C0G800,埔鹽,2014-02-02,24.000394,120.431683,2.7561826e-09
C0H960,草屯,2014-02-02,23.973672,120.68085,1.1205443e-09
C1V780,多納林道,2014-02-02,22.888028,120.737917,6.2103833e-09
C0E920,通霄漁港,2014-02-02,24.498589,120.673876,1.955356e-07
C0Z330,安通山,2014-02-02,23.290728,121.348528,1.3279745e-08
C0AH10,永和,2014-02-02,25.01125,121.508111,2.433057e-08
C0AK10,太平里,2014-02-02,25.134937,121.364899,1.7972872e-05
C2G640,鹿港,2014-02-02,24.0753,120.430481,2.7552154e-09
C1E890,國三N149K,2014-02-02,24.463414,120.680019,1.2465658e-07
C1R110,口社,2014-02-02,22.770111,120.645222,6.655284e-10
C1M870,國三N285K,2014-02-02,23.550319,120.505833,1.4363752e-09
467050,新屋,2014-02-02,25.006744,121.047486,0.43065453
C1E480,鳳美,2014-02-02,24.554803,121.034747,2.6904978e-09
C0M530,奮起湖,2014-02-02,23.493903,120.699253,7.3268094e-09
C0C590,觀音,2014-02-02,25.027072,121.153317,4.4664876e-06
C0T9M0,靜浦,2014-02-02,23.455167,121.495028,5.8242893e-08
C2H9M0,發祥,2014-02-02,24.154094,121.164517,3.7231946e-09
C0AI40,石牌,2014-02-02,25.115597,121.513139,1.965838e-07
C1F871,上谷關,2014-02-02,24.203483,121.018644,3.8606114e-09
C2H9G0,百勝,2014-02-02,24.051142,120.909361,1.9258477e-09
C0G880,二水,2014-02-02,23.810742,120.6173,9.715614e-09
C0R940,加祿堂,2014-02-02,22.3363,120.6217,0.0007339791
C0W220,北竿,2014-02-02,26.220358,119.974881,3.926399e-09
C0O960,崎頂,2014-02-02,22.959547,120.369317,7.5524803e-10
C0S750,向陽,2014-02-02,23.248397,120.986133,1.5292972e-08
C0T9F0,水璉,2014-02-02,23.797131,121.542514,2.1118614e-08
C1M600,頭凍,2014-02-02,23.406364,120.603339,4.137331e-09
467660,臺東,2014-02-02,22.752211,121.154586,8.952735e-08
C1D380,新埔,2014-02-02,24.84745,121.03834,1.4794797e-07
C2G980,田頭村,2014-02-02,23.8263,120.444175,7.7708195e-10
C0V750,路竹,2014-02-02,22.854997,120.259439,5.4503374e-10
C0N050,蚵寮,2014-02-02,23.301,120.1104,1.7625207e-09
72M700,南改鹿草分場,2014-02-02,23.416869,120.283061,5.986561e-10
C1SA50,利嘉林道,2014-02-02,22.82325,121.009389,1.4767851e-08
467550,玉山,2014-02-02,23.487614,120.959522,3.524178e-08
C0A940,金山,2014-02-02,25.223628,121.643967,0.07079743
C1V340,大津,2014-02-02,22.888322,120.645986,7.49465e-10
C0W180,七美,2014-02-02,23.219333,119.444892,0.99960953
C1F9C1,白冷,2014-02-02,24.182844,120.929889,1.460256e-09
K2E710,苗改生物防治研究中心,2014-02-02,24.422861,120.871833,9.401442e-09
C0N040,蘆竹溝,2014-02-02,23.2344,120.0961,1.7620703e-09
C2W230,畜試所澎湖,2014-02-02,23.628342,119.513206,0.9952337
C0R880,後壁湖,2014-02-02,21.9457,120.7457,0.9998793
C1I280,埔中,2014-02-02,23.820778,120.642594,3.1311924e-09
467790,墾丁雷達站,2014-02-02,21.948235,120.808028,0.99987525
C0W190,望安,2014-02-02,23.380564,119.494075,0.9981581
466881,新北,2014-02-02,24.9593,121.52,2.3781054e-08
C0Z170,卓溪,2014-02-02,23.3443,121.3029,2.1171287e-08
C0F850,東勢,2014-02-02,24.246428,120.833047,1.6124301e-09
466900,淡水,2014-02-02,25.164889,121.448906,1.8914034e-05
C0I370,魚池,2014-02-02,23.895703,120.94135,1.9724693e-09
C0C630,大溪,2014-02-02,24.882853,121.265547,4.499915e-08
C0A520,山佳,2014-02-02,24.974944,121.402008,1.8433697e-07
C0I110,竹山,2014-02-02,23.761225,120.688156,5.30452e-09
82H840,茶改南部分場,2014-02-02,23.762528,120.7405,3.2841163e-09
C0G660,溪湖,2014-02-02,23.94835,120.479122,1.3467502e-09
C1T800,洛韶,2014-02-02,24.204558,121.453956,1.5782275e-08
C1T810,慈恩,2014-02-02,24.192044,121.388386,1.660106e-08
C1E451,象鼻,2014-02-02,24.368617,120.940228,4.3564854e-09
C0AC60,三峽,2014-02-02,24.939025,121.369728,2.3256945e-08
C0I490,萬大林道,2014-02-02,23.928228,121.091411,8.218716e-09
C1I290,豐丘,2014-02-02,23.668178,120.887417,4.814185e-09
C1I320,奧萬大,2014-02-02,23.952956,121.178556,4.4352637e-09
C2M910,嘉義大學,2014-02-02,23.471325,120.485903,1.0310148e-09
C0U770,南澳,2014-02-02,24.44935,121.81022,3.6476132e-07
C0A980,社子,2014-02-02,25.109508,121.469681,2.1026237e-07
C0V800,六龜,2014-02-02,22.997889,120.633583,1.0640715e-09
C1G9D0,國一S218K,2014-02-02,23.890641,120.493253,1.3658908e-09
C0E570,白沙屯,2014-02-02,24.549447,120.696803,1.9559846e-07
C2F9A0,中竹林,2014-02-02,24.103556,120.751061,1.4058528e-09
C0FA40,臺中電廠,2014-02-02,24.2146,120.4907,9.138681e-09
C2G9A0,畜試所彰化,2014-02-02,23.86045,120.557964,2.5733113e-09
C0H9C0,合歡山,2014-02-02,24.143442,121.272547,3.1086525e-08
C0X060,下營,2014-02-02,23.22695,120.256261,8.442581e-10
G2M350,農試溪口農場,2014-02-02,23.58565,120.408111,8.3500173e-10
C0U860,頭城,2014-02-02,24.85323,121.8308,9.0063764e-08
C0R580,南州,2014-02-02,22.48591,120.50274,4.952084e-10
C0D430,峨眉,2014-02-02,24.6905,121.017189,2.9262301e-08
C0G780,秀水,2014-02-02,24.03405,120.503869,1.9678472e-09
72N100,臺南農改場,2014-02-02,23.0605,120.342194,6.8457007e-10
C0S900,蘭嶼高中,2014-02-02,22.04909,121.51214,0.9998158
467540,大武,2014-02-02,22.355675,120.903789,0.9998465
C1F9W0,德基,2014-02-02,24.254783,121.190261,8.9572065e-09
C1Z120,壽豐,2014-02-02,23.870853,121.508081,2.1708184e-08
C0W160,烏坵,2014-02-02,24.9944,119.44956,7.782286e-06
C1I240,外大坪,2014-02-02,23.958697,120.917931,2.1335738e-09
C1I550,國六W023K,2014-02-02,23.979067,120.867742,1.3302377e-09
C0R870,興海,2014-02-02,21.9752,120.8439,0.999876
C0R140,瑪家,2014-02-02,22.682903,120.686639,3.4272862e-09
C0A530,坪林,2014-02-02,24.938183,121.70975,1.7116442e-08
C0X260,後壁,2014-02-02,23.366358,120.362326,7.496122e-10
C0Z230,和平,2014-02-02,24.30717,121.77007,5.1562072e-08
C0G770,福興,2014-02-02,24.041289,120.437669,2.7561877e-09
C0H9A0,神木村,2014-02-02,23.532742,120.843667,9.321983e-09
C0I460,南投,2014-02-02,23.911469,120.687331,5.4989155e-09
C0I480,梅峰,2014-02-02,24.085272,121.173572,1.0107228e-08
C1V570,吉東,2014-02-02,22.85422,120.5454,7.3191936e-10
C2D740,屯原,2014-02-02,24.067969,121.209389,1.07656355e-08
C2A560,福山,2014-02-02,24.776203,121.502811,6.470797e-09
C0AH30,五分山,2014-02-02,25.07125,121.780794,1.9710399e-07
C0FA10,松柏,2014-02-02,24.429115,120.617482,3.0152574e-08
72S200,東改班鳩分場,2014-02-02,22.829528,121.077694,6.7654106e-08
72HA00,中改埔里分場,2014-02-02,23.903208,120.963364,1.8895532e-09
C2H9W0,大坪頂農水,2014-02-02,24.043122,120.932781,2.0930293e-09
C0C650,平鎮,2014-02-02,24.897503,121.214636,6.914523e-08
C0S930,延平,2014-02-02,22.902581,121.084058,1.0535022e-08
C0UA60,樟樹山,2014-02-02,24.41393,121.78325,2.354182e-08
C1S670,摩天,2014-02-02,23.199503,121.027,1.7085618e-08
C0V630,茄萣,2014-02-02,22.906642,120.182608,9.417518e-10
466940,基隆,2014-02-02,25.133314,121.740475,0.99502474
C0X050,東河,2014-02-02,23.296598,120.385608,7.419608e-10
C0R770,保力,2014-02-02,22.071122,120.764111,0.9998742
G2L020,農試嘉義分所,2014-02-02,23.485028,120.473806,1.0669207e-09
C0X240,關子嶺,2014-02-02,23.331169,120.508025,1.9763595e-09
C0I380,集集,2014-02-02,23.828206,120.801467,1.5106705e-08
466990,花蓮,2014-02-02,23.975128,121.613275,1.4769231e-08
C1V220,小關山,2014-02-02,23.154217,120.813603,1.3798536e-08
C1F9G1,慶福山,2014-02-02,24.180853,120.848378,2.490868e-09
C0Z250,瑞穗林道,2014-02-02,23.49284,121.30688,2.0087668e-08
C0D590,新豐,2014-02-02,24.87068,120.97721,3.886464e-05
C0A870,五指山,2014-02-02,25.132153,121.608692,8.258334e-08
C0UA50,西帽山,2014-02-02,24.555361,121.802628,1.725931e-08
C0X160,仁德,2014-02-02,22.968258,120.257689,6.275837e-10
C1H971,六分寮,2014-02-02,23.92507,120.6378,1.5512631e-08
C0W120,西嶼,2014-02-02,23.5626,119.468436,0.9989453
C0G650,員林,2014-02-02,23.946503,120.585597,2.4637274e-09
C0AD50,鶯歌,2014-02-02,24.951533,121.346294,7.607737e-07
C2H9Q0,北東眼山,2014-02-02,24.120939,121.189303,1.053026e-08
C2H9T0,名間竹圍,2014-02-02,23.859914,120.637572,1.43600065e-08
C0S990,山豬窟,2014-02-02,22.318619,120.857372,0.9997666
72Q010,高雄農改,2014-02-02,22.709333,120.525889,3.8406542e-10
C0X190,安平,2014-02-02,22.993161,120.152181,1.1677247e-09
C0K400,斗六,2014-02-02,23.720583,120.541127,1.3137624e-09
12J990,口湖工作站,2014-02-02,23.589978,120.180394,1.146413e-09
C0O830,北寮,2014-02-02,23.079561,120.495008,1.0437095e-09
C1D410,白蘭,2014-02-02,24.579364,121.079947,5.410019e-09
C0S970,加津林,2014-02-02,22.416211,120.926942,0.9998451
C0D700,關西,2014-02-02,24.7977,121.1732,8.306928e-08
C0M810,里佳,2014-02-02,23.389125,120.716647,7.3268094e-09
C0U750,龜山島,2014-02-02,24.841667,121.953133,1.4278692e-07
C0R810,內獅,2014-02-02,22.305064,120.642986,0.0007339791
C1M390,龍美,2014-02-02,23.406728,120.654417,5.5652847e-09
C2FB60,頭櫃山,2014-02-02,24.129842,120.858925,3.4903602e-09
C1H840,國三N238K,2014-02-02,23.841008,120.707711,1.498437e-08
CAQ030,崎峰國小,2014-02-02,22.42565,120.49521,4.952084e-10
C2E520,大湖,2014-02-02,24.414939,120.870872,2.1526846e-08
467530,阿里山,2014-02-02,23.508208,120.813242,1.3854602e-08
C1E691,南湖,2014-02-02,24.40135,120.837533,4.215361e-09
C0FA30,梧棲,2014-02-02,24.256003,120.523381,9.134254e-09
C1V231,高中,2014-02-02,23.134911,120.716711,2.6003344e-09
C0F9V0,新社,2014-02-02,24.200172,120.815806,2.11838e-09
C0H890,埔里,2014-02-02,23.972169,120.952425,9.755012e-10
C0R690,墾丁,2014-02-02,21.966756,120.810269,0.99978036
C0F0D0,審馬陣,2014-02-02,24.381675,121.4203,2.362819e-08
C0R820,白鷺,2014-02-02,22.454275,120.666219,2.1526584e-07
U2H480,臺大溪頭,2014-02-02,23.670306,120.798194,4.833341e-09
C1V190,南天池,2014-02-02,23.27403,120.91176,1.7436863e-08
K2E360,苗栗農改場,2014-02-02,24.495722,120.829111,2.2196334e-08
CAJ050,海口故事園區,2014-02-02,23.57543,120.14121,1.1275378e-09
C2H9D0,三隻寮,2014-02-02,24.093078,120.861578,2.1599222e-09
C0O990,媽廟,2014-02-02,22.99175,120.293525,6.3112243e-10
C0D480,打鐵坑,2014-02-02,24.849664,121.150789,5.28644e-09
C0Z220,和平林道,2014-02-02,24.343922,121.656317,2.363725e-08
C0TA10,花蓮漁港,2014-02-02,23.995322,121.638331,1.491141e-08
72C440,桃園農改場,2014-02-02,24.950944,121.030583,0.15589449
C1E711,馬拉邦山,2014-02-02,24.367306,120.901656,4.355206e-09
C0SB20,富岡,2014-02-02,22.792467,121.192669,8.784666e-08
C0D560,竹東,2014-02-02,24.767147,121.057881,2.6814211e-08
C0F9U0,南屯,2014-02-02,24.137006,120.637969,3.0029674e-09
C0M720,番路,2014-02-02,23.464657,120.554156,1.3205405e-09
C0F0A0,雪山圈谷,2014-02-02,24.388594,121.236339,3.48045e-08
C1A9N0,四十份,2014-02-02,24.934158,121.593283,1.17767875e-08
C0U760,東澳,2014-02-02,24.52196,121.83318,6.136347e-08
C0X230,鹽水,2014-02-02,23.272621,120.247641,1.2738499e-09
C2H9H0,苗改南投蜂場,2014-02-02,23.852589,120.693481,5.2949574e-09
C0R950,萬隆國小,2014-02-02,22.507667,120.587817,4.2966303e-10
C0V370,古亭坑,2014-02-02,22.893178,120.401947,6.4464395e-10
C1I340,新興橋,2014-02-02,23.563333,120.868728,4.8573785e-09
C0SA80,土坂,2014-02-02,22.453108,120.887572,2.6477919e-08
C0R160,鹽埔,2014-02-02,22.739558,120.530778,4.7893994e-10
C0AC40,大屯山,2014-02-02,25.175675,121.522408,1.8213291e-07
466850,五分山雷達站,2014-02-02,25.071182,121.781205,2.1006615e-07
C2H9L0,馬烈霸,2014-02-02,24.1512,121.201772,1.0363426e-08
C1AI50,國三N016K,2014-02-02,25.034164,121.619664,2.3226844e-08
C1V600,藤枝,2014-02-02,23.071961,120.757042,1.1098119e-08
C1E601,南勢,2014-02-02,24.572486,120.734842,4.215379e-08
C0Z180,新城,2014-02-02,24.03946,121.60454,1.4701273e-08
C0O980,新市,2014-02-02,23.061614,120.298197,6.79222e-10
C0K420,西螺,2014-02-02,23.800407,120.467394,1.6870201e-09
C0Z050,佳心,2014-02-02,23.34567,121.21316,1.7948588e-08
C0AD30,蘆洲,2014-02-02,25.086594,121.472331,2.0420204e-07
C0V610,梓官,2014-02-02,22.760558,120.267211,6.860197e-10
K2F750,種苗改良場,2014-02-02,24.225972,120.800917,1.8942008e-09
C0UA80,大溪漁港,2014-02-02,24.941801,121.902955,8.651755e-08
C1AI60,國一39K邊坡,2014-02-02,25.064361,121.383836,4.1766266e-06
C0W150,金寧,2014-02-02,24.457703,118.328989,6.6236536e-09
C0R960,內埔,2014-02-02,22.608483,120.570714,4.2392412e-10
V2C250,八德合作社,2014-02-02,24.93775,121.266389,8.346602e-08
C2H9S0,龍南,2014-02-02,23.953536,120.833183,4.130282e-09
C0AH40,平等,2014-02-02,25.129142,121.577086,1.2466562e-07
C0R540,佳冬,2014-02-02,22.419456,120.552375,4.952084e-10
466950,彭佳嶼,2014-02-02,25.627975,122.079744,0.9999856
C0A890,雙溪,2014-02-02,25.036003,121.864242,0.9872334
C0C480,桃園,2014-02-02,24.992425,121.323172,4.5715197e-07
C0AH50,林口,2014-02-02,25.072181,121.38084,1.6417644e-06
A2K360,水試臺西試驗場,2014-02-02,23.717231,120.190522,1.9588113e-09
B2N890,畜試所,2014-02-02,23.058972,120.336406,6.8457007e-10
C2M960,外寮,2014-02-02,23.562643,120.665688,5.82712e-09
C0F9S0,烏日,2014-02-02,24.107058,120.624103,1.3853458e-09
C0C490,八德,2014-02-02,24.928708,121.283289,4.940079e-08
C0R190,赤山,2014-02-02,22.592333,120.614306,4.2405027e-10
C0T820,天祥,2014-02-02,24.179597,121.495639,1.245434e-08
C1F9E1,龍安,2014-02-02,24.1605,120.831961,2.258094e-09
C0V820,小林,2014-02-02,23.148408,120.63325,1.5728295e-09
C2G870,芳苑,2014-02-02,23.922303,120.320025,2.6448075e-09
C0E850,大河,2014-02-02,24.618069,120.948578,1.5615196e-08
C1U670,寒溪,2014-02-02,24.634,121.71691,0.66182995
C0N020,城西,2014-02-02,23.0568,120.0956,8.694183e-09
C1Z110,三棧,2014-02-02,24.11557,121.60501,2.6099604e-08
C0R280,檳榔,2014-02-02,22.076078,120.836777,0.9997398
C2H9J0,中台,2014-02-02,23.9996,120.938739,1.1757503e-09
C0F9L0,后里,2014-02-02,24.310436,120.729725,4.549363e-09
C0D540,橫山,2014-02-02,24.71116,121.11693,7.445441e-09
C1D420,太閣南,2014-02-02,24.632808,121.160575,7.2922477e-09
C1E770,公館,2014-02-02,24.526914,120.830806,1.1059833e-07
CAN130,水試所海水繁養殖中心,2014-02-02,23.120802,120.07968,9.339175e-09
C1I430,翠華,2014-02-02,24.191961,121.224339,1.2381012e-08
C1M400,菜瓜坪,2014-02-02,23.251928,120.576103,1.796197e-09
C0G730,二林,2014-02-02,23.903325,120.376081,1.8924025e-09
72M360,南改義竹分場,2014-02-02,23.360694,120.279361,5.9841976e-10
V2K620,麥寮合作社,2014-02-02,23.753836,120.294783,1.3977034e-09
C0Z070,舞鶴,2014-02-02,23.46811,121.37407,4.1028894e-08
C0B040,大武崙,2014-02-02,25.166676,121.706993,0.9919284
C1Z030,紅葉,2014-02-02,23.493119,121.338806,4.343958e-08
C1I050,丹大,2014-02-02,23.753747,121.141147,2.0166597e-08
C0I080,信義,2014-02-02,23.689694,120.851036,7.583967e-09
C2M920,朴子農改,2014-02-02,23.469889,120.259383,6.173992e-10
C2A880,福隆,2014-02-02,25.017842,121.942083,0.3018065
C0Z160,鳳林,2014-02-02,23.746114,121.453411,2.1681288e-08
C0V210,復興,2014-02-02,23.222403,120.806089,4.2805266e-09
C0H990,昆陽,2014-02-02,24.121322,121.273642,2.276144e-08
C0R741,獅子,2014-02-02,22.202308,120.705236,0.99949455
C0S710,鹿野,2014-02-02,22.917711,121.122994,1.2297626e-08
C0I530,小奇萊,2014-02-02,24.131764,121.295717,2.4023453e-08
C2K630,荷苞,2014-02-02,23.657717,120.595144,1.650482e-09
C0Z080,富源,2014-02-02,23.587642,121.378225,3.2459187e-08
467441,高雄,2014-02-02,22.7304,120.3125,1.9268949e-09
C0SB10,美和,2014-02-02,22.682078,121.060236,3.2018465e-07
C2K620,馬光農場,2014-02-02,23.721453,120.378864,5.9073885e-10
C1I140,卡奈托灣,2014-02-02,23.754364,121.087872,7.5593585e-09
C0I520,玉山風口,2014-02-02,23.470489,120.955994,3.6341543e-08
C1G691,下水埔,2014-02-02,23.816114,120.5676,1.02533795e-08
C0X110,臺南市南區,2014-02-02,22.961189,120.188378,1.148926e-09
C0V680,仁武,2014-02-02,22.701083,120.347722,1.928612e-09
C2G840,北斗,2014-02-02,23.877586,120.514222,1.3562078e-09
C0R900,竹坑,2014-02-02,22.1385,120.7022,0.9999379
C0K250,崙背,2014-02-02,23.75555,120.318925,1.4068319e-09
C0G860,社頭,2014-02-02,23.897647,120.5862,2.6041165e-09
C0X150,安定,2014-02-02,23.102614,120.227839,1.4637221e-09
C0R590,里港,2014-02-02,22.77919,120.49459,5.3146043e-10
C0E610,馬都安,2014-02-02,24.451272,120.930192,8.287634e-09
C0E550,明德,2014-02-02,24.583486,120.885411,1.6080666e-08
C0R150,三地門,2014-02-02,22.709889,120.639944,5.9143446e-10
C0G910,花壇,2014-02-02,24.032076,120.549461,1.9353e-09
C1D400,鳥嘴山,2014-02-02,24.71909,121.28387,9.6429495e-09
C0K500,元長,2014-02-02,23.64981,120.315024,7.5393397e-10
C0F0B0,石岡,2014-02-02,24.276061,120.777644,2.0090072e-09
C2V250,甲仙,2014-02-02,23.080106,120.591758,1.549556e-09
C0SA20,金崙山,2014-02-02,22.567419,120.959667,1.3927729e-08
C0V350,溪埔,2014-02-02,22.738578,120.446797,4.5823925e-10
C0M660,溪口,2014-02-02,23.604131,120.403569,8.3500173e-10
C1S880,壽卡,2014-02-02,22.238911,120.858903,0.1070577
72D680,桃改新埔分場,2014-02-02,24.834444,121.066111,2.9734512e-08
