站號,站名,日期,lat,lon,BLBTSLS
C0R710,龍磐,2014-11-27,21.931672,120.838942,0.86349857
C1F9D1,白毛台,2014-11-27,24.158325,120.886933,2.3671133e-08
C0G940,竹塘,2014-11-27,23.848253,120.386764,4.813981e-07
467590,恆春,2014-11-27,22.003897,120.746339,0.9326248
C1O850,環湖,2014-11-27,23.148617,120.418633,0.001437333
C0U710,太平山,2014-11-27,24.505486,121.525656,2.1181384e-08
C0E820,獅潭,2014-11-27,24.539133,120.920042,0.0014366735
C0V880,興達,2014-11-27,22.8778,120.2127,0.00200549
C0S890,關山,2014-11-27,23.0395,121.175017,0.9979657
C0SB30,新蘭,2014-11-27,22.869214,121.223228,0.997904
C2R970,屏科大,2014-11-27,22.648275,120.619247,2.503132e-09
K2F750,種苗繁殖,2014-11-27,24.225972,120.800917,2.369465e-07
C1Z130,銅門,2014-11-27,23.965694,121.492842,5.746084e-07
C0AD40,土城,2014-11-27,24.973208,121.445169,0.9999694
CAN140,六官養殖協會,2014-11-27,23.22881,120.29962,0.0023678727
C0X180,山上,2014-11-27,23.0757,120.363253,3.378159e-05
C0F9Z0,雪山東峰,2014-11-27,24.388792,121.268675,1.7225469e-08
C1M480,獨立山,2014-11-27,23.537022,120.607797,2.6559948e-09
C0X220,學甲,2014-11-27,23.230367,120.182187,0.029650632
467650,日月潭,2014-11-27,23.881325,120.90805,2.1649789e-09
C0K600,箔子寮,2014-11-27,23.6197,120.14,0.018605778
C0G830,埤頭,2014-11-27,23.866003,120.452806,1.8921182e-06
C0S950,七塊厝,2014-11-27,22.954453,121.229922,4.909987e-07
467110,金門,2014-11-27,24.407306,118.289281,0.9313625
C0AH80,深坑,2014-11-27,25.002703,121.628328,0.99992853
467990,馬祖,2014-11-27,26.169269,119.923419,0.00054452335
C0A970,三貂角,2014-11-27,25.007606,122.002058,0.99970514
C2D730,寶山農場,2014-11-27,24.732444,120.976153,0.99965984
C0K430,褒忠,2014-11-27,23.690938,120.303634,0.02695178
467480,嘉義,2014-11-27,23.495925,120.432906,0.0030791163
C2E540,後龍,2014-11-27,24.606489,120.783933,0.11393699
C0V400,阿公店,2014-11-27,22.804194,120.355528,3.39573e-08
C0R440,大漢山,2014-11-27,22.405264,120.753181,1.2278267e-08
C0K280,四湖,2014-11-27,23.630414,120.227125,0.120688826
C1F9B1,桐林,2014-11-27,24.066172,120.735194,2.743079e-07
C2H9U0,鳳鵬,2014-11-27,23.763919,120.788061,1.2661252e-09
C0K390,土庫,2014-11-27,23.679029,120.395574,1.14534515e-07
C1I450,望鄉山,2014-11-27,23.594153,120.944286,1.6194305e-08
C0E910,海埔,2014-11-27,24.648767,120.772435,0.09910786
B2E890,畜試北區分所,2014-11-27,24.527806,120.770972,0.77893364
C0R750,四林格山,2014-11-27,22.076989,120.802439,0.31605396
C0F0C0,中坑,2014-11-27,24.248517,120.903319,3.632115e-09
C1I121,大鞍,2014-11-27,23.678381,120.760017,3.5382794e-09
72U480,花改蘭陽分場,2014-11-27,24.686306,121.716583,0.99998957
C0A770,科教館,2014-11-27,25.096356,121.516507,0.9999724
C0AJ60,六塊厝,2014-11-27,25.24,121.4481,0.99999213
C0R620,墾雷,2014-11-27,21.900836,120.855269,0.9253815
467420,永康,2014-11-27,23.038386,120.2367,0.0060182572
467300,東吉島,2014-11-27,23.25695,119.667467,0.9653263
C0I410,名間,2014-11-27,23.837053,120.701447,1.3651597e-08
A2C560,農工中心,2014-11-27,24.985917,121.239833,0.9987704
C0V740,旗山,2014-11-27,22.888614,120.483597,5.149184e-06
C0Z061,玉里,2014-11-27,23.3215,121.339656,0.087483205
C0S840,南田,2014-11-27,22.279725,120.889208,0.11549521
C1I470,杉林溪,2014-11-27,23.639517,120.786444,4.486321e-09
C1X040,東原,2014-11-27,23.291597,120.463822,5.021778e-09
C0R660,枋寮,2014-11-27,22.367722,120.590647,3.8031223e-09
C1R120,上德文,2014-11-27,22.763272,120.704442,1.14463866e-07
C0K450,大埤,2014-11-27,23.646074,120.431537,7.818744e-08
C0UA00,土場,2014-11-27,24.576533,121.495333,5.7328112e-08
467080,宜蘭,2014-11-27,24.763975,121.756528,0.9570973
C0N030,四草,2014-11-27,23.0235,120.1116,0.02757931
C0V650,彌陀,2014-11-27,22.783806,120.246361,3.2307573e-05
C0D660,新竹市東區,2014-11-27,24.798681,120.986942,0.9998999
82S580,茶改東部分場,2014-11-27,22.907694,121.130139,0.008980521
C0SB40,興隆,2014-11-27,22.913661,121.257469,0.7470977
C0C710,大溪永福,2014-11-27,24.892936,121.324975,0.9982156
C0FA20,溫寮,2014-11-27,24.372177,120.583125,0.9861549
C0V640,湖內,2014-11-27,22.887139,120.2445,0.0015761927
C0R910,下寮,2014-11-27,22.3929,120.5548,8.333097e-08
C0Z020,明里,2014-11-27,23.208717,121.262342,6.413746e-05
C0M770,嘉義梅山,2014-11-27,23.585398,120.555587,2.4994023e-08
G2F820,農業試驗所,2014-11-27,24.031261,120.688133,0.4906686
C0C660,楊梅,2014-11-27,24.912375,121.143047,0.9438536
C1E511,新開,2014-11-27,24.347703,120.827019,8.3451654e-09
G2F820,農試所(霧峰),2014-11-27,24.031261,120.688133,0.4906686
C1I070,和社,2014-11-27,23.591131,120.888861,1.3019086e-09
C2F000,大肚,2014-11-27,24.15295,120.572117,9.498901e-09
C1S850,豐南,2014-11-27,23.122139,121.262389,5.3269963e-07
C2A920,富貴角,2014-11-27,25.263783,121.565258,0.99999356
CAH030,茶改場竹圍站,2014-11-27,23.860083,120.637528,1.0783037e-09
C0T960,光復,2014-11-27,23.660694,121.424964,9.974958e-07
C0F9M0,豐原,2014-11-27,24.254322,120.720692,0.54143214
C0R720,旭海,2014-11-27,22.205403,120.887614,0.60229087
C0V710,苓雅,2014-11-27,22.622742,120.330669,2.4026738e-07
C0C740,觀音工業區,2014-11-27,25.064764,121.114856,0.99996454
CAC040,拉拉山,2014-11-27,24.699317,121.427133,6.5084755e-09
C0V790,萬山,2014-11-27,22.905944,120.688056,1.999252e-09
U2HA30,臺大和社,2014-11-27,23.590856,120.888864,1.3019086e-09
C0AJ90,澳底,2014-11-27,25.0552,121.9253,0.99992037
C0Z100,東華,2014-11-27,23.89525,121.549833,4.853894e-06
C0G970,三豐,2014-11-27,23.882,120.2895,0.30033883
V2K610,大庄合作社,2014-11-27,23.8068,120.367939,0.026849432
C0V900,汕尾,2014-11-27,22.4782,120.4151,4.275902e-08
C1R630,龍泉,2014-11-27,22.66701,120.59091,3.5922174e-09
C1AC50,關渡,2014-11-27,25.133486,121.469331,0.99998635
C0F9I0,神岡,2014-11-27,24.272481,120.658314,0.70472497
C0K460,斗南,2014-11-27,23.678734,120.478359,5.564141e-08
467410,臺南,2014-11-27,22.993239,120.204772,0.004938409
C2O810,曾文,2014-11-27,23.219681,120.497328,0.0005353004
467280,後龍,2014-11-27,24.648563,120.831834,0.04917716
C1F9J1,清水林,2014-11-27,24.071242,120.820419,1.1865301e-09
C2A650,火燒寮,2014-11-27,25.002719,121.742892,0.6981375
466930,竹子湖,2014-11-27,25.162078,121.544547,1.1888627e-06
C1I220,樟湖,2014-11-27,23.905333,120.846983,2.074995e-09
C0I390,仁愛,2014-11-27,24.022122,121.132206,1.870705e-09
C0Z300,東里,2014-11-27,23.26853,121.30547,0.07477976
C1V590,新發,2014-11-27,23.057019,120.646064,2.1125222e-08
C0K510,水林,2014-11-27,23.572924,120.24597,0.016014773
72S590,東改賓朗果園,2014-11-27,22.813889,121.071278,0.999438
82A750,茶改北部分場,2014-11-27,24.955778,121.631222,1.0931416e-08
C1A750,石碇服務區,2014-11-27,25.00872,121.646242,0.9999102
C0X300,鹿寮,2014-11-27,23.386047,120.477331,2.1613558e-07
G2AI50,關渡,2014-11-27,25.11575,121.492,0.99997354
C0K590,雲林東勢,2014-11-27,23.674192,120.255721,0.02695178
C0A570,桶後,2014-11-27,24.848222,121.597992,9.656822e-06
C1S800,華源,2014-11-27,22.657883,121.02325,0.99653554
C0G720,溪州,2014-11-27,23.851589,120.499093,1.0600357e-06
C1V160,達卡努瓦,2014-11-27,23.279811,120.705319,5.3489795e-09
C2M410,馬頭山,2014-11-27,23.324361,120.582017,3.8356855e-09
C0V850,蚵仔寮,2014-11-27,22.7256,120.2527,1.4037804e-06
C0S740,池上,2014-11-27,23.119628,121.209469,1.0198094e-05
C1V390,尖山,2014-11-27,22.813153,120.367789,2.4659242e-08
C0AH70,松山,2014-11-27,25.04871,121.55042,0.9999545
C0N010,鯤鯓國小,2014-11-27,23.1879,120.0889,0.11770087
C0R550,新埤,2014-11-27,22.467947,120.582894,2.7298923e-09
C0SA60,知本（水試所）,2014-11-27,22.702394,121.082761,0.9772029
C0T9I0,豐濱,2014-11-27,23.583897,121.514806,3.0921984e-07
C0UB00,淡江大學蘭陽校園,2014-11-27,24.823239,121.730383,6.424572e-08
C0W240,九宮,2014-11-27,24.423753,118.240186,0.9361617
C0T9N0,富里,2014-11-27,23.171639,121.249378,4.6962374e-05
U2HA50,臺大竹山,2014-11-27,23.756972,120.681556,6.6047807e-09
C0V840,鳳鼻頭,2014-11-27,22.5083,120.3591,3.0822295e-07
C0X140,西港,2014-11-27,23.125608,120.203108,0.04984061
72D080,桃改五峰分場,2014-11-27,24.612194,121.157167,2.3228517e-09
C2H9P0,伊拿谷,2014-11-27,23.963211,121.088264,1.2981743e-09
C2H9F0,柑林,2014-11-27,24.018658,120.847072,1.1872567e-09
C0TA20,加灣,2014-11-27,24.082025,121.608944,2.076217e-05
C0V530,阿蓮,2014-11-27,22.883208,120.327508,2.4360965e-05
C1O880,關山,2014-11-27,23.173397,120.594092,3.741041e-09
C0E791,卓蘭,2014-11-27,24.3126,120.8244,7.860624e-09
C1I030,武界,2014-11-27,23.913225,121.052483,1.7026952e-09
C0R520,崁頂,2014-11-27,22.514781,120.506914,7.529158e-08
C0R341,牡丹,2014-11-27,22.130036,120.792639,0.9992386
C0R930,萬丹,2014-11-27,22.5885,120.4851,2.8015197e-09
C0S760,紅石,2014-11-27,23.069131,121.126219,1.1903388e-08
C1M610,石磐龍,2014-11-27,23.496606,120.663506,3.4262797e-09
C0UA10,鴛鴦湖,2014-11-27,24.590269,121.412228,5.522228e-09
V2C260,八德蔬果,2014-11-27,24.978508,121.281819,0.99978703
C0R800,丹路,2014-11-27,22.204481,120.750989,0.9939805
C0G920,永靖,2014-11-27,23.924703,120.547533,0.02914024
C2M950,太和,2014-11-27,23.538372,120.702961,4.2700563e-09
C1A630,下盆,2014-11-27,24.771003,121.538622,2.8198395e-08
B2N890,畜產試驗所,2014-11-27,23.058972,120.336406,6.13253e-05
C0UA30,白嶺,2014-11-27,24.527819,121.519031,9.483296e-09
C1V580,溪南(特生中心),2014-11-27,23.084972,120.788475,8.014148e-09
C1T970,大農,2014-11-27,23.615233,121.413331,4.4346865e-07
E2S960,林試太麻里2,2014-11-27,22.598014,120.989761,0.6880606
C0R650,竹田,2014-11-27,22.58486,120.54344,2.9273508e-09
C1H900,清流,2014-11-27,24.080775,120.962997,1.3912614e-09
C1C510,水尾,2014-11-27,24.940081,121.087161,0.9992133
C0F9X0,大雅(中科園區),2014-11-27,24.21528,120.62445,0.84595466
C0SB60,白守蓮,2014-11-27,23.126769,121.401914,0.99062276
C0O970,虎頭埤,2014-11-27,23.021375,120.347878,0.00030702248
C0C730,中大臨海站,2014-11-27,24.966126,121.008581,0.99935865
C0X250,新營,2014-11-27,23.310689,120.316681,0.00046864047
C0V700,三民,2014-11-27,22.645017,120.311233,2.4026738e-07
C0U870,大礁溪,2014-11-27,24.791042,121.675047,2.1134733e-08
C0E870,高鐵苗栗,2014-11-27,24.60725,120.826094,0.09995256
A2K570,古坑花卉中心,2014-11-27,23.63353,120.55239,2.4338087e-08
C0M860,新美,2014-11-27,23.338017,120.683169,2.7006881e-09
C1E701,八卦,2014-11-27,24.491756,120.927619,1.291957e-07
C0I420,國姓,2014-11-27,24.037803,120.855072,1.7780527e-09
C2D720,關西工作站,2014-11-27,24.757275,121.184792,0.0008412167
C0S960,香蘭,2014-11-27,22.587569,120.993375,0.6880606
C0R260,春日,2014-11-27,22.370361,120.628306,8.2114184e-08
72G600,臺中農改場,2014-11-27,24.003028,120.534389,0.93474907
C0Z210,瑞穗,2014-11-27,23.5239,121.39021,4.135428e-07
C0M820,達邦,2014-11-27,23.453994,120.749517,2.1303248e-09
C0V860,南寮,2014-11-27,22.7616,120.2339,4.3772718e-05
C0G740,大城,2014-11-27,23.852487,120.320935,0.2696036
C0R920,塭仔,2014-11-27,22.4169,120.5197,1.0453499e-07
C0R470,高樹,2014-11-27,22.826389,120.600806,4.6755564e-09
C0R680,佳樂水,2014-11-27,21.993578,120.861633,0.93458426
C1O870,大棟山,2014-11-27,23.31157,120.52226,4.114015e-09
C0D360,梅花,2014-11-27,24.678347,121.208558,5.9802643e-09
C0Z190,富世,2014-11-27,24.14743,121.6297,1.693082e-07
C0AI10,屈尺,2014-11-27,24.92184,121.54475,0.99992853
B2U990,畜試東區分所,2014-11-27,24.669039,121.832561,0.99999094
C0SB80,長濱漁港,2014-11-27,23.313644,121.459994,0.96990466
C0R240,來義,2014-11-27,22.527306,120.625111,3.2973492e-08
C0V910,大樹,2014-11-27,22.684645,120.432803,5.9283774e-08
C1R610,西大武山,2014-11-27,22.617719,120.7322,1.9212514e-08
C0G900,線西,2014-11-27,24.143358,120.443536,0.99921185
C0M700,竹崎,2014-11-27,23.526178,120.555508,1.3123655e-08
C2E880,三義,2014-11-27,24.405478,120.749819,3.165784e-08
C0C720,竹圍,2014-11-27,25.112692,121.239824,0.9999922
C0F9P0,清水,2014-11-27,24.312297,120.562242,0.99296695
C0Z150,吉安光華,2014-11-27,23.930925,121.595153,8.624341e-06
C1D640,外坪(五指山),2014-11-27,24.644447,121.090961,3.6155678e-09
C0F9O0,潭子,2014-11-27,24.213106,120.703933,0.3866788
C2H9R0,卓社,2014-11-27,23.887894,121.000086,2.3058875e-09
72T250,花蓮農改場,2014-11-27,23.975222,121.563889,1.2576721e-05
C0E780,銅鑼,2014-11-27,24.489681,120.790853,0.17121126
C1T950,太安,2014-11-27,23.666719,121.370128,1.4387641e-08
C0E830,苑裡,2014-11-27,24.439714,120.653053,0.9748582
467270,田中,2014-11-27,23.873803,120.581286,2.5865134e-07
C0SA10,檳榔四格山,2014-11-27,22.810031,121.109308,0.9994637
C1T830,布洛灣,2014-11-27,24.17184,121.57127,6.817848e-08
C0F970,大坑,2014-11-27,24.173142,120.722289,0.7574465
C1U920,思源,2014-11-27,24.393125,121.347214,1.0852431e-08
C0A931,三和,2014-11-27,25.233153,121.595236,0.9966914
C0I010,廬山,2014-11-27,24.033311,121.181808,4.5808046e-09
C2M940,日野賀,2014-11-27,23.434056,120.727169,3.5253322e-09
C0R860,鼻頭,2014-11-27,22.1043,120.8979,0.98181397
C0UB20,壯圍,2014-11-27,24.7359,121.8163,0.99999094
C0R790,九棚,2014-11-27,22.14195,120.889281,0.42944953
C0W110,東莒,2014-11-27,25.9652,119.98069,0.9497746
C1U930,粉鳥林,2014-11-27,24.497088,121.842479,8.178941e-06
C1I211,蘆竹湳,2014-11-27,23.934019,120.811994,1.4644461e-08
C0S830,長濱,2014-11-27,23.286817,121.411975,1.422235e-05
C1F9F1,伯公龍,2014-11-27,24.272392,120.849047,8.213455e-08
C0E810,西湖,2014-11-27,24.562947,120.7485,0.068262555
C1I440,新高口,2014-11-27,23.478744,120.878939,1.0608944e-08
C0O840,王爺宮,2014-11-27,23.222064,120.40085,0.0005359907
C0T9G0,鳳林山,2014-11-27,23.735269,121.420131,2.7670197e-07
C0X080,佳里,2014-11-27,23.173039,120.145086,0.034325093
C0FB70,大甲溪埔,2014-11-27,24.370625,120.620067,0.9729547
C0Z310,清水斷崖,2014-11-27,24.218294,121.689142,4.9425347e-07
C0M680,太保,2014-11-27,23.455062,120.331455,0.0005937274
C1S820,金峰,2014-11-27,22.590969,120.933236,0.98645467
C0AD10,八里,2014-11-27,25.150211,121.403947,0.9999922
C2K240,草嶺,2014-11-27,23.59555,120.693461,2.9294005e-09
C1SA70,都蘭,2014-11-27,22.87794,121.226881,0.7470977
C0K440,二崙,2014-11-27,23.772797,120.408944,3.5699975e-07
C1A760,坪林交控,2014-11-27,24.94284,121.713442,9.270084e-05
C0F9N0,大里,2014-11-27,24.092464,120.701378,0.99856794
C0SA90,達仁林場,2014-11-27,22.264347,120.823972,0.9958842
C1R290,石門山,2014-11-27,22.112611,120.756597,0.13630493
42HA10,萬大發電廠,2014-11-27,23.978875,121.139639,2.6922895e-09
C0R890,山海,2014-11-27,21.9878,120.7091,0.94238037
C0T9A0,月眉山,2014-11-27,23.809928,121.539828,9.6524474e-08
C0AC70,信義,2014-11-27,25.037822,121.564597,0.9999545
C0K560,棋山,2014-11-27,23.68645,120.603417,4.784839e-08
C2FB50,出雲,2014-11-27,24.206469,120.902794,1.7279789e-09
C1Z240,中平林道,2014-11-27,23.42115,121.26763,3.3002372e-08
U2H480,溪頭,2014-11-27,23.670306,120.798194,1.8687223e-09
C0M880,好美里,2014-11-27,23.3364,120.138,0.034325093
C0T9E0,大坑,2014-11-27,23.880628,121.581981,1.596739e-07
C0K530,臺西,2014-11-27,23.701547,120.197559,0.16174614
C1E900,國一N128K,2014-11-27,24.560997,120.844186,0.03929003
C0AJ50,水湳洞,2014-11-27,25.123695,121.862238,0.999992
C0AI20,白沙灣,2014-11-27,25.283128,121.519058,0.99999356
C0A860,大坪,2014-11-27,25.165914,121.632969,0.000261423
C1U850,觀音海岸,2014-11-27,24.38319,121.77856,5.4242598e-08
C2K610,草嶺石壁,2014-11-27,23.602469,120.707731,3.5539034e-09
C0U950,鶯子嶺,2014-11-27,24.89754,121.79244,2.9100113e-08
C0O900,善化,2014-11-27,23.112883,120.297219,0.00015311688
C0K550,蔦松,2014-11-27,23.514319,120.229736,0.0096671255
E2P980,林試六龜中心,2014-11-27,22.991703,120.645722,3.0617344e-09
C0E590,通霄,2014-11-27,24.471892,120.704622,0.89170766
C1I310,西巒,2014-11-27,23.754486,120.883956,2.1142343e-09
C0A550,泰平,2014-11-27,24.971197,121.823711,2.1073272e-07
C0I360,水里,2014-11-27,23.812553,120.849792,1.1547743e-09
C0R830,高士,2014-11-27,22.121825,120.836781,0.12906057
C1I101,溪頭,2014-11-27,23.661789,120.807647,4.3797383e-09
C0AJ20,野柳,2014-11-27,25.20703,121.690021,0.999992
C0B060,暖暖,2014-11-27,25.0957,121.7403,0.9999923
C1H920,長豐,2014-11-27,24.102039,120.879897,1.2009036e-09
C0V360,內門,2014-11-27,22.975481,120.466769,5.455503e-06
C0R850,林邊,2014-11-27,22.4634,120.5339,7.529158e-08
C0E930,龍鳳,2014-11-27,24.700034,120.859125,0.012261402
C0U910,冬山,2014-11-27,24.63373,121.7937,0.99999094
C1E721,泰安,2014-11-27,24.489017,120.968036,2.5016809e-09
82H320,茶改中部分場,2014-11-27,23.875611,120.913583,1.1847029e-09
C0M750,布袋,2014-11-27,23.380878,120.167789,0.01380471
C1S860,利嘉,2014-11-27,22.809417,121.050528,1.0903558e-07
72C440,桃園農改,2014-11-27,24.950944,121.030583,0.999499
E2S980,林試太麻里1,2014-11-27,22.598922,120.980044,0.88326573
C0X170,關廟,2014-11-27,22.963017,120.327797,2.3820632e-05
C0V720,林園,2014-11-27,22.507747,120.394511,2.4026738e-07
C1I510,線浸林道,2014-11-27,23.761508,120.832956,1.7822358e-09
C0D690,外湖,2014-11-27,24.917735,120.968711,0.99935865
C0C750,新興坑尾,2014-11-27,25.0061,121.0971,0.9999561
B2Q810,畜試南區分所,2014-11-27,21.945583,120.802167,0.9344753
C0S790,金崙,2014-11-27,22.538122,120.966875,0.9922512
C0AH90,福山植物園,2014-11-27,24.760717,121.58135,1.0493853e-07
C0I540,奇萊稜線,2014-11-27,24.109231,121.326456,2.0930063e-08
C0M850,表湖,2014-11-27,23.24186,120.64166,2.4144715e-09
C0S770,大溪山,2014-11-27,22.478475,120.943325,0.9989733
C0AG80,中和,2014-11-27,24.991622,121.491792,0.9999546
C0T790,大禹嶺,2014-11-27,24.186117,121.316086,1.2166509e-08
C0T9B0,水源,2014-11-27,23.991861,121.537169,7.0270154e-08
C0R840,牡丹池山,2014-11-27,22.168389,120.841225,0.9946094
C1I131,桶頭,2014-11-27,23.641944,120.654117,1.2649279e-09
CAL110,布袋國中,2014-11-27,23.35893,120.18026,0.0011467258
467571,新竹,2014-11-27,24.827853,121.014219,0.99991894
C0Z290,赤柯山,2014-11-27,23.36893,121.38293,5.71519e-08
C0X280,將軍,2014-11-27,23.214999,120.13577,0.034325093
C0S690,太麻里,2014-11-27,22.60902,120.98533,0.99248093
C0U880,北關,2014-11-27,24.9072,121.8734,0.9999355
C1H860,瑞岩,2014-11-27,24.123772,121.18345,4.0140025e-09
C0G810,埔心,2014-11-27,23.947633,120.525456,0.037083488
C0U970,大福,2014-11-27,24.80064,121.81389,0.97986025
C2H9N0,仁愛東眼,2014-11-27,24.026875,121.1205,2.4737525e-09
C1E670,南礦,2014-11-27,24.538278,121.002836,2.0982696e-09
C0M520,東後寮,2014-11-27,23.369908,120.248065,0.0010767342
C1E461,松安,2014-11-27,24.397972,120.986022,2.300335e-09
72G600,臺中農改,2014-11-27,24.003028,120.534389,0.93474907
C2N160,西拉雅風管處,2014-11-27,23.189481,120.335297,0.0014497533
C2M970,碧湖,2014-11-27,23.568632,120.624165,2.6403015e-09
C0A640,石碇,2014-11-27,24.993969,121.662917,0.95106196
E2S960,林試太麻里2,2014-11-27,22.598,120.99775,0.6691652
C0F9Y0,桃山,2014-11-27,24.432739,121.303808,1.8968121e-08
C1I020,萬大,2014-11-27,23.979817,121.132261,1.8899569e-09
C0U940,羅東,2014-11-27,24.68184,121.74934,0.9999906
C0M650,朴子,2014-11-27,23.43463,120.23902,0.01324977
C1I500,大尖山,2014-11-27,23.858572,120.994889,9.296361e-09
C0G820,田尾,2014-11-27,23.901669,120.509389,0.02914024
E2K600,四湖植物園,2014-11-27,23.676986,120.163433,0.16174614
C0S730,綠島,2014-11-27,22.6672,121.47533,0.9976655
12Q970,東港工作站,2014-11-27,22.479997,120.466058,8.333097e-08
C0E430,南庄,2014-11-27,24.601775,121.000214,0.0012233707
C1TA00,太魯閣,2014-11-27,24.15773,121.6236,5.3953937e-07
466920,臺北,2014-11-27,25.037658,121.514853,0.9999545
C0R600,舊泰武,2014-11-27,22.588194,120.664944,7.1073085e-09
C1I260,北坑,2014-11-27,23.9246,121.006903,9.443671e-10
466910,鞍部,2014-11-27,25.182586,121.529731,1.7068899e-07
C1I230,九份二山,2014-11-27,23.961944,120.845,1.271117e-09
C2A660,瑞芳,2014-11-27,25.113169,121.801147,0.99953157
C0R270,琉球嶼,2014-11-27,22.332244,120.362236,8.2114184e-08
C1T990,高寮,2014-11-27,23.394239,121.356808,1.8802979e-05
C0G620,芬園,2014-11-27,24.015678,120.6213,0.017729945
C1Z140,荖溪,2014-11-27,23.890575,121.45964,1.0065903e-08
C1I201,中心崙,2014-11-27,23.728722,120.712097,1.2850683e-09
C1I400,凌霄,2014-11-27,24.018778,121.004456,2.395842e-09
C1M640,十字,2014-11-27,23.492153,120.753683,3.785637e-09
G2P820,農試鳳山分所,2014-11-27,22.646611,120.356083,1.659051e-07
C0Z270,蕃薯寮,2014-11-27,23.73835,121.540108,2.097168e-06
C0F9Q0,外埔,2014-11-27,24.347817,120.705686,0.8343683
C0K580,高鐵雲林,2014-11-27,23.737456,120.417944,1.14534515e-07
C2I090,鳳凰,2014-11-27,23.728081,120.787347,1.2493687e-09
C0U990,員山,2014-11-27,24.74435,121.72247,0.9999906
C0V770,大社,2014-11-27,22.730306,120.346639,8.324365e-07
C0X120,麻豆,2014-11-27,23.183289,120.248611,0.029650632
C0C670,龍潭,2014-11-27,24.870056,121.221389,1.5867612e-07
C0D680,香山濕地,2014-11-27,24.783581,120.914988,0.9999483
C0S980,勝林山,2014-11-27,22.430439,120.8938,1.5421126e-07
C0V730,大寮,2014-11-27,22.605614,120.395717,9.363396e-09
C0R570,麟洛,2014-11-27,22.65078,120.52719,1.9955689e-08
C2M930,石卓,2014-11-27,23.478744,120.702264,3.7150936e-09
C0G9B0,和美,2014-11-27,24.105169,120.492131,0.97087824
CAG100,王功漁港,2014-11-27,23.96824,120.32586,0.74797195
C0X290,北門,2014-11-27,23.267772,120.125481,0.034325093
C2F930,大甲,2014-11-27,24.347667,120.640403,0.94579613
C0D650,湖口,2014-11-27,24.904794,121.043628,0.9994812
C0E420,竹南,2014-11-27,24.708978,120.888897,0.999944
C0U780,五結,2014-11-27,24.68637,121.79794,0.99999094
C1I250,鯉潭,2014-11-27,23.961922,120.991131,1.2009036e-09
C0R130,阿禮,2014-11-27,22.742908,120.743678,4.1570427e-09
C0X100,臺南市北區,2014-11-27,23.010394,120.194228,0.008352709
C0S920,金峰嘉蘭,2014-11-27,22.594789,120.960825,0.900475
C0V490,新興,2014-11-27,22.627422,120.298803,2.4026738e-07
C0F9K0,大安,2014-11-27,24.345061,120.588025,0.9898623
72N100,臺南農改,2014-11-27,23.0605,120.342194,6.13253e-05
467290,古坑,2014-11-27,23.633639,120.551889,2.4338087e-08
C2E970,八甲,2014-11-27,24.535811,120.795983,0.09791018
C0V440,鳳山,2014-11-27,22.646653,120.356122,1.659051e-07
C1T940,大觀,2014-11-27,23.714206,121.373133,2.7756226e-07
72T250,花蓮農改,2014-11-27,23.975222,121.563889,1.2576721e-05
C0E740,造橋,2014-11-27,24.637056,120.864778,0.009996161
C0R100,尾寮山,2014-11-27,22.833111,120.683889,5.4435865e-09
A2K630,臺大雲林校區,2014-11-27,23.730628,120.423903,1.14534515e-07
C0D580,寶山,2014-11-27,24.735006,121.025192,0.0050228843
E2P990,林試扇平站,2014-11-27,22.9677,120.6857,2.2775598e-08
C0AI30,三重,2014-11-27,25.057328,121.500629,0.9999724
C0AH00,汐止,2014-11-27,25.066881,121.658778,0.999992
C1Z040,立山,2014-11-27,23.443356,121.327375,2.519953e-07
C0W130,花嶼,2014-11-27,23.40007,119.32276,0.92267454
C0A950,鼻頭角,2014-11-27,25.129036,121.923372,0.99992824
C0K470,林內,2014-11-27,23.748675,120.609642,3.69049e-08
C2F990,摩天嶺,2014-11-27,24.322458,120.936819,3.4870464e-09
82C160,茶改場,2014-11-27,24.908472,121.185333,0.00010620938
C0Z320,清水林道,2014-11-27,23.27125,121.188272,3.4441072e-07
C0R760,南仁湖,2014-11-27,22.084681,120.863353,0.13309456
C0M670,大林,2014-11-27,23.600616,120.45841,0.0068005743
C0M800,茶山,2014-11-27,23.299075,120.664767,2.6415004e-09
C0A9C0,天母,2014-11-27,25.117494,121.537169,0.99996793
72K220,南改斗南分場,2014-11-27,23.634556,120.477333,8.4736286e-08
72AI40,桃改樹林分場,2014-11-27,24.944503,121.386972,0.999964
C0S910,蘭嶼燈塔,2014-11-27,22.081197,121.503117,0.8939377
C0B050,八斗子,2014-11-27,25.144754,121.79167,0.9999918
C0U900,內城,2014-11-27,24.71813,121.68766,0.67863345
C0X320,柳營,2014-11-27,23.253328,120.375253,0.0027375796
C0M790,新港,2014-11-27,23.553269,120.345728,0.0014596484
C0F9T0,西屯,2014-11-27,24.179494,120.641275,0.9817053
C0SA30,都歷,2014-11-27,23.020333,121.323642,0.9964319
C0C620,蘆竹,2014-11-27,25.084275,121.265767,0.999992
C0R730,大坪頂,2014-11-27,22.024633,120.69355,0.7924251
C0AJ40,石門,2014-11-27,25.273672,121.601198,0.999994
C0E750,苗栗,2014-11-27,24.564569,120.824575,0.048517108
C0T870,鯉魚潭,2014-11-27,23.935639,121.508944,8.857489e-07
C1V170,排雲,2014-11-27,23.463619,120.954147,2.5450309e-08
C2H950,中寮,2014-11-27,23.884447,120.766406,4.6410737e-09
C0R350,貓鼻頭,2014-11-27,21.921774,120.7358,0.9253815
C0V660,岡山,2014-11-27,22.797078,120.294958,1.5003524e-06
C1H941,雙冬,2014-11-27,23.967378,120.802189,9.471434e-10
C0AJ70,田寮,2014-11-27,25.2698,121.4886,0.99999344
C0AI00,五股,2014-11-27,25.07445,121.42728,0.9999657
C0Z280,德武,2014-11-27,23.47426,121.41071,2.4140413e-06
C0R700,枋山,2014-11-27,22.246844,120.661086,0.9979211
C0C460,復興,2014-11-27,24.820208,121.352281,1.114088e-07
E2H360,蓮華池,2014-11-27,23.918333,120.885278,1.1255717e-09
C0M640,中埔,2014-11-27,23.42538,120.5229,5.4802705e-08
C0W140,金沙,2014-11-27,24.488292,118.408778,0.8870481
C2A540,四堵,2014-11-27,24.8926,121.745736,9.2740636e-05
C0ACA0,新莊,2014-11-27,25.051478,121.446756,0.99999166
C0R220,潮州,2014-11-27,22.534361,120.54,3.4008873e-09
U2HA40,臺大內茅埔,2014-11-27,23.689722,120.851117,1.4135992e-09
467490,臺中,2014-11-27,24.145736,120.684075,0.77600944
C0U960,翠峰湖,2014-11-27,24.510856,121.608044,2.0828274e-08
E2HA20,林試畢祿溪站,2014-11-27,24.226944,121.308522,5.5187956e-09
C0V890,前鎮,2014-11-27,22.5718,120.3117,3.0822295e-07
467620,蘭嶼,2014-11-27,22.036969,121.558339,0.7046377
C1F941,雪嶺,2014-11-27,24.280586,121.026642,9.861501e-09
C2H9E0,國姓南港,2014-11-27,23.911108,120.846556,2.1780755e-09
C0AC80,文山,2014-11-27,25.00235,121.575728,0.99992853
C0F9R0,龍井,2014-11-27,24.184536,120.528972,0.9975883
C0M760,民雄,2014-11-27,23.551754,120.428457,0.007946185
C0UA40,西德山,2014-11-27,24.560647,121.752608,2.8057404e-08
C1T920,中興,2014-11-27,23.769503,121.498653,2.5045072e-06
C0D550,雪霸,2014-11-27,24.526972,121.11605,4.8584443e-09
C2F860,梨山,2014-11-27,24.247522,121.243669,5.7419784e-09
C0R320,車城,2014-11-27,22.0744,120.716247,0.94238037
C1S870,南美山,2014-11-27,23.15025,121.382333,0.99741447
C0B020,基隆嶼,2014-11-27,25.19141,121.78391,0.999992
C1U501,牛鬥,2014-11-27,24.637836,121.573656,6.2321145e-05
C0M730,嘉義市東區,2014-11-27,23.457673,120.460531,0.0032878686
C0S700,知本,2014-11-27,22.684866,121.005642,0.99655765
C1N001,沙崙,2014-11-27,22.935472,120.309406,2.4360965e-05
C0V760,橋頭,2014-11-27,22.757806,120.30575,1.1347269e-06
C0G960,福寶,2014-11-27,24.0443,120.3814,0.92562115
C0X210,白河,2014-11-27,23.347466,120.414427,0.0025783118
C0S810,東河,2014-11-27,22.972672,121.303986,0.84698
C2R170,屏東,2014-11-27,22.66027,120.49403,2.0775504e-08
C0R670,楓港,2014-11-27,22.190131,120.692156,0.9979211
C0FA50,霧峰,2014-11-27,24.0419,120.6995,0.9881117
C0UB10,蘇澳,2014-11-27,24.5969,121.8571,0.6349827
C0G950,防潮門,2014-11-27,24.1835,120.4871,0.9979532
C0M740,六腳,2014-11-27,23.492871,120.290625,0.0007240239
C1R250,力里,2014-11-27,22.428117,120.629228,3.2973492e-08
C0K330,虎尾,2014-11-27,23.719183,120.442036,9.859548e-08
C2FA00,烏石坑,2014-11-27,24.273503,120.947617,3.5268455e-09
C0V620,永安,2014-11-27,22.82315,120.236856,3.2307573e-05
C1I330,楓樹林,2014-11-27,23.986803,121.076117,2.2180622e-09
C0W200,湖西,2014-11-27,23.596314,119.67275,0.9463821
72Q010,高雄農改場,2014-11-27,22.709333,120.525889,1.7684517e-08
C0SA40,瑞和,2014-11-27,22.974361,121.156697,0.9983734
C0C680,龜山,2014-11-27,25.02846,121.38656,1.8947294e-08
C2V260,月眉,2014-11-27,22.971003,120.539853,3.01571e-09
C0V450,鳳森,2014-11-27,22.545064,120.392592,6.237604e-09
C0U720,南山,2014-11-27,24.43742,121.38167,1.8434712e-08
A2N290,臺南蘭花園區,2014-11-27,23.340258,120.379661,0.0027387545
C0R560,新園,2014-11-27,22.5434,120.461558,7.5242916e-08
C0U890,三星,2014-11-27,24.66812,121.65302,0.10765484
C1V300,御油山,2014-11-27,23.001983,120.715364,7.925677e-09
C0U600,礁溪,2014-11-27,24.817539,121.765608,0.93774873
C1T980,龍澗,2014-11-27,24.023289,121.411328,1.0661319e-08
C0D670,海天一線,2014-11-27,24.831986,120.914438,0.9999514
C0SA00,歷坵,2014-11-27,22.520969,120.89185,0.99853706
C0M710,東石,2014-11-27,23.458927,120.15385,0.0096671255
C0M780,鹿草,2014-11-27,23.41134,120.30835,0.0020852208
C0U520,雙連埤,2014-11-27,24.753033,121.641303,2.099932e-08
C0B010,七堵,2014-11-27,25.094819,121.71713,0.99999213
C0R480,長治,2014-11-27,22.693128,120.542622,2.4238522e-09
C1V830,國三S383K,2014-11-27,22.781967,120.426475,2.5083748e-09
12Q980,恆春工作站,2014-11-27,22.079678,120.714425,0.94238037
C1O940,東山服務區,2014-11-27,23.286016,120.398472,0.0021463253
C1U840,東澳嶺,2014-11-27,24.5378,121.8485,8.240947e-08
C1D630,飛鳳山,2014-11-27,24.766464,121.119178,5.750761e-08
C0S940,石寧山,2014-11-27,23.223772,121.406639,0.115015954
C0K410,北港,2014-11-27,23.573957,120.292802,0.0016093226
C2M620,瑞里,2014-11-27,23.545133,120.675197,3.886292e-09
C0SB70,小港漁港,2014-11-27,23.158558,121.400431,0.96691364
C2O950,安南,2014-11-27,23.076694,120.144861,0.1884103
C0F0E0,南湖圈谷,2014-11-27,24.363714,121.444667,3.1454466e-08
467610,成功,2014-11-27,23.097486,121.373428,0.9934424
C0G890,伸港,2014-11-27,24.148933,120.484403,0.9994162
C2E540,龍溪,2014-11-27,24.606489,120.783933,0.11393699
C1V200,梅山,2014-11-27,23.268447,120.823556,6.2916965e-09
C0T9H0,加路蘭山,2014-11-27,23.682947,121.5274,1.291091e-07
C2O930,玉井,2014-11-27,23.126042,120.46055,0.001437333
C1F911,新伯公,2014-11-27,24.221361,120.841069,1.1538863e-06
C0R490,九如,2014-11-27,22.7405,120.490503,1.9955689e-08
C0X200,左鎮,2014-11-27,23.056758,120.408522,3.9659157e-05
C0SB50,叭嗡嗡,2014-11-27,23.047062,121.343223,0.95049757
C1F891,稍來,2014-11-27,24.265689,121.001142,6.063431e-09
72N240,七股研究中心,2014-11-27,23.081672,120.062894,0.7684883
C0C700,中壢,2014-11-27,24.977661,121.256375,0.99967635
C0M690,水上,2014-11-27,23.419734,120.388909,0.0063323025
C0V690,鼓山,2014-11-27,22.623325,120.275575,2.4026738e-07
C0O860,大內,2014-11-27,23.11885,120.36083,1.9837134e-06
C0Z200,萬榮,2014-11-27,23.709219,121.420106,8.857489e-07
C0T9D0,和中,2014-11-27,24.26676,121.74103,2.9574696e-06
C1O921,楠西,2014-11-27,23.183511,120.484083,0.0019934762
C0AJ30,淡水觀海,2014-11-27,25.184591,121.408616,0.99999213
C0V810,左營,2014-11-27,22.67491,120.28491,1.010244e-06
C0UA70,桃源谷,2014-11-27,24.962606,121.888875,9.925512e-08
C0X130,官田,2014-11-27,23.193217,120.315422,0.0018570166
C1H000,翠峰,2014-11-27,24.109397,121.205211,8.50228e-09
C0UA90,石城,2014-11-27,24.980444,121.951214,0.9999324
C1E681,南勢山,2014-11-27,24.421669,120.923831,3.78055e-09
C0A9F0,內湖,2014-11-27,25.079422,121.57545,0.9999545
C0K291,宜梧,2014-11-27,23.536281,120.169329,0.010168697
C1K540,口湖,2014-11-27,23.585344,120.180517,0.019717842
C0R780,滿州,2014-11-27,22.024403,120.839892,0.9228669
C0V870,文安,2014-11-27,22.8025,120.2164,4.3772718e-05
C0U650,玉蘭,2014-11-27,24.675286,121.587061,5.7249327e-08
C0R640,東港,2014-11-27,22.46247,120.44074,3.0822295e-07
K2E360,苗栗農改,2014-11-27,24.495722,120.829111,0.5929978
C0AJ80,板橋,2014-11-27,25.0107,121.4489,0.9999694
C0S660,下馬,2014-11-27,23.150427,121.070312,3.757777e-08
C1H9B1,阿眉,2014-11-27,24.1263,120.994672,4.7868904e-09
C0UA20,多加屯,2014-11-27,24.368614,121.373189,1.11201555e-08
C0E730,頭份,2014-11-27,24.688247,120.912206,0.999944
72V140,高改旗南分場,2014-11-27,22.857861,120.516667,3.1167549e-09
C0K480,莿桐,2014-11-27,23.761192,120.502372,7.523933e-08
C0U980,坪林石牌,2014-11-27,24.86478,121.77396,2.390197e-08
C0T900,西林,2014-11-27,23.8119,121.441458,5.959611e-07
C1I150,青雲,2014-11-27,23.793361,120.949378,1.1682884e-09
467350,澎湖,2014-11-27,23.565503,119.563094,0.9355891
C0G800,埔鹽,2014-11-27,24.000394,120.431683,0.9079016
C0H960,草屯,2014-11-27,23.973672,120.68085,1.176753e-07
C1V780,多納林道,2014-11-27,22.888028,120.737917,6.003086e-09
C0E920,通霄漁港,2014-11-27,24.498589,120.673876,0.95564544
C0Z330,安通山,2014-11-27,23.290728,121.348528,1.5866356e-06
C0AH10,永和,2014-11-27,25.01125,121.508111,0.9999582
C0AK10,太平里,2014-11-27,25.134937,121.364899,0.99999166
C2G640,鹿港,2014-11-27,24.0753,120.430481,0.9073065
C1E890,國三N149K,2014-11-27,24.463414,120.680019,0.84313864
C1R110,口社,2014-11-27,22.770111,120.645222,4.0144923e-09
C1M870,國三N285K,2014-11-27,23.550319,120.505833,2.2500467e-08
467050,新屋,2014-11-27,25.006744,121.047486,0.99940145
C1E480,鳳美,2014-11-27,24.554803,121.034747,1.6455689e-09
C0M530,奮起湖,2014-11-27,23.493903,120.699253,4.3215853e-09
C0C590,觀音,2014-11-27,25.027072,121.153317,0.99996036
C0T9M0,靜浦,2014-11-27,23.455167,121.495028,6.409829e-07
C2H9M0,發祥,2014-11-27,24.154094,121.164517,1.8104677e-09
C0AI40,石牌,2014-11-27,25.115597,121.513139,0.9999694
C1F871,上谷關,2014-11-27,24.203483,121.018644,3.5268455e-09
C2H9G0,百勝,2014-11-27,24.051142,120.909361,1.9625598e-07
C0G880,二水,2014-11-27,23.810742,120.6173,1.8507885e-08
C0R940,加祿堂,2014-11-27,22.3363,120.6217,5.4477175e-07
C0W220,北竿,2014-11-27,26.220358,119.974881,0.0010808752
C0O960,崎頂,2014-11-27,22.959547,120.369317,2.54485e-09
C0S750,向陽,2014-11-27,23.248397,120.986133,1.1227613e-08
C0T9F0,水璉,2014-11-27,23.797131,121.542514,2.7498365e-07
C1M600,頭凍,2014-11-27,23.406364,120.603339,2.7497868e-09
467660,臺東,2014-11-27,22.752211,121.154586,0.9973993
C1D380,新埔,2014-11-27,24.84745,121.03834,0.9998245
C2G980,田頭村,2014-11-27,23.8263,120.444175,3.5699975e-07
C0V750,路竹,2014-11-27,22.854997,120.259439,6.123428e-07
C0N050,蚵寮,2014-11-27,23.301,120.1104,0.11770087
72M700,南改鹿草分場,2014-11-27,23.416869,120.283061,0.002424663
C1SA50,利嘉林道,2014-11-27,22.82325,121.009389,1.4951338e-08
467550,玉山,2014-11-27,23.487614,120.959522,2.8392792e-08
C0A940,金山,2014-11-27,25.223628,121.643967,0.99999386
C1V340,大津,2014-11-27,22.888322,120.645986,3.2346934e-09
C0W180,七美,2014-11-27,23.219333,119.444892,0.9206874
C1F9C1,白冷,2014-11-27,24.182844,120.929889,3.0007936e-08
K2E710,苗改生物防治研究中心,2014-11-27,24.422861,120.871833,0.22387695
C0N040,蘆竹溝,2014-11-27,23.2344,120.0961,0.11770087
C2W230,畜試所澎湖,2014-11-27,23.628342,119.513206,0.89299
C0R880,後壁湖,2014-11-27,21.9457,120.7457,0.9477293
C1I280,埔中,2014-11-27,23.820778,120.642594,1.9828577e-09
467790,墾丁雷達站,2014-11-27,21.948235,120.808028,0.9140987
C0W190,望安,2014-11-27,23.380564,119.494075,0.92335796
466881,新北,2014-11-27,24.9593,121.52,0.9999461
C0Z170,卓溪,2014-11-27,23.3443,121.3029,0.027594404
C0F850,東勢,2014-11-27,24.246428,120.833047,3.4090344e-06
466900,淡水,2014-11-27,25.164889,121.448906,0.9999922
C0I370,魚池,2014-11-27,23.895703,120.94135,1.1066197e-09
C0C630,大溪,2014-11-27,24.882853,121.265547,0.006583416
C0A520,山佳,2014-11-27,24.974944,121.402008,0.999964
C0I110,竹山,2014-11-27,23.761225,120.688156,7.53335e-09
82H840,茶改南部分場,2014-11-27,23.762528,120.7405,1.2033983e-09
C0G660,溪湖,2014-11-27,23.94835,120.479122,0.04138436
C1T800,洛韶,2014-11-27,24.204558,121.453956,1.6810787e-08
C1T810,慈恩,2014-11-27,24.192044,121.388386,1.1881227e-08
C1E451,象鼻,2014-11-27,24.368617,120.940228,3.7779047e-09
C0AC60,三峽,2014-11-27,24.939025,121.369728,0.99994135
C0I490,萬大林道,2014-11-27,23.928228,121.091411,6.5002004e-09
C1I290,豐丘,2014-11-27,23.668178,120.887417,1.7822358e-09
C1I320,奧萬大,2014-11-27,23.952956,121.178556,2.2617836e-09
C2M910,嘉義大學,2014-11-27,23.471325,120.485903,3.9664982e-08
C0U770,南澳,2014-11-27,24.44935,121.81022,3.181945e-05
C0A980,社子,2014-11-27,25.109508,121.469681,0.99997354
C0V800,六龜,2014-11-27,22.997889,120.633583,3.1633438e-09
C1G9D0,國一S218K,2014-11-27,23.890641,120.493253,0.037083495
C0E570,白沙屯,2014-11-27,24.549447,120.696803,0.95564544
C2F9A0,中竹林,2014-11-27,24.103556,120.751061,2.3374827e-09
C0FA40,臺中電廠,2014-11-27,24.2146,120.4907,0.9975883
C2G9A0,畜試所彰化,2014-11-27,23.86045,120.557964,2.5865134e-07
C0H9C0,合歡山,2014-11-27,24.143442,121.272547,2.190805e-08
C0X060,下營,2014-11-27,23.22695,120.256261,0.0030371726
G2M350,農試溪口農場,2014-11-27,23.58565,120.408111,0.0094812745
C0U860,頭城,2014-11-27,24.85323,121.8308,0.9570973
C0R580,南州,2014-11-27,22.48591,120.50274,8.333097e-08
C0D430,峨眉,2014-11-27,24.6905,121.017189,0.99965984
C0G780,秀水,2014-11-27,24.03405,120.503869,0.963491
72N100,臺南農改場,2014-11-27,23.0605,120.342194,6.13253e-05
C0S900,蘭嶼高中,2014-11-27,22.04909,121.51214,0.9509714
467540,大武,2014-11-27,22.355675,120.903789,0.18830492
C1F9W0,德基,2014-11-27,24.254783,121.190261,4.675797e-09
C1Z120,壽豐,2014-11-27,23.870853,121.508081,4.853894e-06
C0W160,烏坵,2014-11-27,24.9944,119.44956,0.83801794
C1I240,外大坪,2014-11-27,23.958697,120.917931,1.2157642e-09
C1I550,國六W023K,2014-11-27,23.979067,120.867742,1.4387278e-09
C0R870,興海,2014-11-27,21.9752,120.8439,0.9344753
C0R140,瑪家,2014-11-27,22.682903,120.686639,2.4815225e-08
C0A530,坪林,2014-11-27,24.938183,121.70975,1.7982558e-05
C0X260,後壁,2014-11-27,23.366358,120.362326,2.4700425e-05
C0Z230,和平,2014-11-27,24.30717,121.77007,2.957467e-06
C0G770,福興,2014-11-27,24.041289,120.437669,0.9079016
C0H9A0,神木村,2014-11-27,23.532742,120.843667,4.8207274e-09
C0I460,南投,2014-11-27,23.911469,120.687331,1.7169084e-08
C0I480,梅峰,2014-11-27,24.085272,121.173572,5.3041656e-09
C1V570,吉東,2014-11-27,22.85422,120.5454,2.9553848e-09
C2D740,屯原,2014-11-27,24.067969,121.209389,5.685082e-09
C2A560,福山,2014-11-27,24.776203,121.502811,1.0931416e-08
C0AH30,五分山,2014-11-27,25.07125,121.780794,5.9315898e-08
C0FA10,松柏,2014-11-27,24.429115,120.617482,0.9861549
72S200,東改班鳩分場,2014-11-27,22.829528,121.077694,0.99921554
72HA00,中改埔里分場,2014-11-27,23.903208,120.963364,1.0698183e-09
C2H9W0,大坪頂農水,2014-11-27,24.043122,120.932781,1.197982e-09
C0C650,平鎮,2014-11-27,24.897503,121.214636,0.00010620938
C0S930,延平,2014-11-27,22.902581,121.084058,0.980425
C0UA60,樟樹山,2014-11-27,24.41393,121.78325,3.208421e-08
C1S670,摩天,2014-11-27,23.199503,121.027,1.37763925e-08
C0V630,茄萣,2014-11-27,22.906642,120.182608,0.00200549
466940,基隆,2014-11-27,25.133314,121.740475,0.9999919
C0X050,東河,2014-11-27,23.296598,120.385608,0.0027375796
C0R770,保力,2014-11-27,22.071122,120.764111,0.8987684
G2L020,農試嘉義分所,2014-11-27,23.485028,120.473806,3.0987252e-08
C0X240,關子嶺,2014-11-27,23.331169,120.508025,2.8678901e-09
C0I380,集集,2014-11-27,23.828206,120.801467,1.1980941e-09
466990,花蓮,2014-11-27,23.975128,121.613275,2.8426684e-05
C1V220,小關山,2014-11-27,23.154217,120.813603,8.757192e-09
C1F9G1,慶福山,2014-11-27,24.180853,120.848378,4.187282e-09
C0Z250,瑞穗林道,2014-11-27,23.49284,121.30688,4.0611265e-08
C0D590,新豐,2014-11-27,24.87068,120.97721,0.20553525
C0A870,五指山,2014-11-27,25.132153,121.608692,7.312021e-07
C0UA50,西帽山,2014-11-27,24.555361,121.802628,8.1075676e-08
C0X160,仁德,2014-11-27,22.968258,120.257689,6.3849955e-05
C1H971,六分寮,2014-11-27,23.92507,120.6378,1.1650951e-09
C0W120,西嶼,2014-11-27,23.5626,119.468436,0.9355891
C0G650,員林,2014-11-27,23.946503,120.585597,0.012922183
C0AD50,鶯歌,2014-11-27,24.951533,121.346294,0.9999599
C2H9Q0,北東眼山,2014-11-27,24.120939,121.189303,5.4941247e-09
C2H9T0,名間竹圍,2014-11-27,23.859914,120.637572,1.0783037e-09
C0S990,山豬窟,2014-11-27,22.318619,120.857372,0.98904115
72Q010,高雄農改,2014-11-27,22.709333,120.525889,1.7684517e-08
C0X190,安平,2014-11-27,22.993161,120.152181,0.008358019
C0K400,斗六,2014-11-27,23.720583,120.541127,4.235301e-08
12J990,口湖工作站,2014-11-27,23.589978,120.180394,0.018605778
C0O830,北寮,2014-11-27,23.079561,120.495008,3.803797e-09
C1D410,白蘭,2014-11-27,24.579364,121.079947,2.1403603e-09
C0S970,加津林,2014-11-27,22.416211,120.926942,0.2065801
C0D700,關西,2014-11-27,24.7977,121.1732,0.0023821567
C0M810,里佳,2014-11-27,23.389125,120.716647,4.3215773e-09
C0U750,龜山島,2014-11-27,24.841667,121.953133,6.3887495e-07
C0R810,內獅,2014-11-27,22.305064,120.642986,5.4477175e-07
C1M390,龍美,2014-11-27,23.406728,120.654417,3.486235e-09
C2FB60,頭櫃山,2014-11-27,24.129842,120.858925,1.8044967e-09
C1H840,國三N238K,2014-11-27,23.841008,120.707711,1.1584982e-09
CAQ030,崎峰國小,2014-11-27,22.42565,120.49521,8.333097e-08
C2E520,大湖,2014-11-27,24.414939,120.870872,0.9994454
467530,阿里山,2014-11-27,23.508208,120.813242,9.266744e-09
C1E691,南湖,2014-11-27,24.40135,120.837533,8.333967e-09
C0FA30,梧棲,2014-11-27,24.256003,120.523381,0.99759555
C1V231,高中,2014-11-27,23.134911,120.716711,2.861623e-09
C0F9V0,新社,2014-11-27,24.200172,120.815806,6.3878176e-08
C0H890,埔里,2014-11-27,23.972169,120.952425,2.896741e-07
C0R690,墾丁,2014-11-27,21.966756,120.810269,0.57152647
C0F0D0,審馬陣,2014-11-27,24.381675,121.4203,1.7999053e-08
C0R820,白鷺,2014-11-27,22.454275,120.666219,1.4843844e-08
U2H480,臺大溪頭,2014-11-27,23.670306,120.798194,1.8687258e-09
C1V190,南天池,2014-11-27,23.27403,120.91176,1.2609587e-08
K2E360,苗栗農改場,2014-11-27,24.495722,120.829111,0.5929978
CAJ050,海口故事園區,2014-11-27,23.57543,120.14121,0.019717842
C2H9D0,三隻寮,2014-11-27,24.093078,120.861578,1.2144177e-09
C0O990,媽廟,2014-11-27,22.99175,120.293525,4.54284e-05
C0D480,打鐵坑,2014-11-27,24.849664,121.150789,2.426118e-07
C0Z220,和平林道,2014-11-27,24.343922,121.656317,3.1544946e-08
C0TA10,花蓮漁港,2014-11-27,23.995322,121.638331,3.6415353e-05
72C440,桃園農改場,2014-11-27,24.950944,121.030583,0.999499
C1E711,馬拉邦山,2014-11-27,24.367306,120.901656,2.1634228e-09
C0SB20,富岡,2014-11-27,22.792467,121.192669,0.99751097
C0D560,竹東,2014-11-27,24.767147,121.057881,0.034436017
C0F9U0,南屯,2014-11-27,24.137006,120.637969,0.99856794
C0M720,番路,2014-11-27,23.464657,120.554156,1.8854536e-08
C0F0A0,雪山圈谷,2014-11-27,24.388594,121.236339,2.4539176e-08
C1A9N0,四十份,2014-11-27,24.934158,121.593283,6.710451e-07
C0U760,東澳,2014-11-27,24.52196,121.83318,6.086131e-06
C0X230,鹽水,2014-11-27,23.272621,120.247641,0.0058208676
C2H9H0,苗改南投蜂場,2014-11-27,23.852589,120.693481,7.546508e-09
C0R950,萬隆國小,2014-11-27,22.507667,120.587817,2.5318363e-09
C0V370,古亭坑,2014-11-27,22.893178,120.401947,7.170386e-06
C1I340,新興橋,2014-11-27,23.563333,120.868728,1.4228234e-09
C0SA80,土坂,2014-11-27,22.453108,120.887572,0.9630937
C0R160,鹽埔,2014-11-27,22.739558,120.530778,2.4459865e-09
C0AC40,大屯山,2014-11-27,25.175675,121.522408,7.056766e-08
466850,五分山雷達站,2014-11-27,25.071182,121.781205,5.752132e-08
C2H9L0,馬烈霸,2014-11-27,24.1512,121.201772,5.400122e-09
C1AI50,國三N016K,2014-11-27,25.034164,121.619664,0.99993503
C1V600,藤枝,2014-11-27,23.071961,120.757042,7.589336e-09
C1E601,南勢,2014-11-27,24.572486,120.734842,0.7300272
C0Z180,新城,2014-11-27,24.03946,121.60454,1.6625798e-05
C0O980,新市,2014-11-27,23.061614,120.298197,0.00015311688
C0K420,西螺,2014-11-27,23.800407,120.467394,8.927226e-08
C0Z050,佳心,2014-11-27,23.34567,121.21316,3.255039e-08
C0AD30,蘆洲,2014-11-27,25.086594,121.472331,0.9999724
C0V610,梓官,2014-11-27,22.760558,120.267211,1.5003524e-06
K2F750,種苗改良場,2014-11-27,24.225972,120.800917,2.369465e-07
C0UA80,大溪漁港,2014-11-27,24.941801,121.902955,0.9382344
C1AI60,國一39K邊坡,2014-11-27,25.064361,121.383836,0.9731215
C0W150,金寧,2014-11-27,24.457703,118.328989,0.91608465
C0R960,內埔,2014-11-27,22.608483,120.570714,2.7298974e-09
V2C250,八德合作社,2014-11-27,24.93775,121.266389,0.005256948
C2H9S0,龍南,2014-11-27,23.953536,120.833183,2.01186e-09
C0AH40,平等,2014-11-27,25.129142,121.577086,2.0760112e-05
C0R540,佳冬,2014-11-27,22.419456,120.552375,8.3310624e-08
466950,彭佳嶼,2014-11-27,25.627975,122.079744,0.9999814
C0A890,雙溪,2014-11-27,25.036003,121.864242,0.9999922
C0C480,桃園,2014-11-27,24.992425,121.323172,0.9998074
C0AH50,林口,2014-11-27,25.072181,121.38084,0.14017403
A2K360,水試臺西試驗場,2014-11-27,23.717231,120.190522,0.18755987
B2N890,畜試所,2014-11-27,23.058972,120.336406,6.13253e-05
C2M960,外寮,2014-11-27,23.562643,120.665688,2.7660307e-09
C0F9S0,烏日,2014-11-27,24.107058,120.624103,0.693962
C0C490,八德,2014-11-27,24.928708,121.283289,0.31838918
C0R190,赤山,2014-11-27,22.592333,120.614306,2.593227e-09
C0T820,天祥,2014-11-27,24.179597,121.495639,2.4453112e-08
C1F9E1,龍安,2014-11-27,24.1605,120.831961,3.6609602e-08
C0V820,小林,2014-11-27,23.148408,120.63325,2.127872e-09
C2G870,芳苑,2014-11-27,23.922303,120.320025,0.30033883
C0E850,大河,2014-11-27,24.618069,120.948578,0.015393685
C1U670,寒溪,2014-11-27,24.634,121.71691,0.9999788
C0N020,城西,2014-11-27,23.0568,120.0956,0.6867381
C1Z110,三棧,2014-11-27,24.11557,121.60501,6.394498e-08
C0R280,檳榔,2014-11-27,22.076078,120.836777,0.6192336
C2H9J0,中台,2014-11-27,23.9996,120.938739,3.4747327e-08
C0F9L0,后里,2014-11-27,24.310436,120.729725,0.5106315
C0D540,橫山,2014-11-27,24.71116,121.11693,4.255115e-05
C1D420,太閣南,2014-11-27,24.632808,121.160575,4.333521e-09
C1E770,公館,2014-11-27,24.526914,120.830806,0.77893364
CAN130,水試所海水繁養殖中心,2014-11-27,23.120802,120.07968,0.7684883
C1I430,翠華,2014-11-27,24.191961,121.224339,7.978322e-09
C1M400,菜瓜坪,2014-11-27,23.251928,120.576103,2.6307203e-09
C0G730,二林,2014-11-27,23.903325,120.376081,0.26659304
72M360,南改義竹分場,2014-11-27,23.360694,120.279361,0.000108544526
V2K620,麥寮合作社,2014-11-27,23.753836,120.294783,0.07856791
C0Z070,舞鶴,2014-11-27,23.46811,121.37407,9.418726e-07
C0B040,大武崙,2014-11-27,25.166676,121.706993,0.99999213
C1Z030,紅葉,2014-11-27,23.493119,121.338806,1.9751712e-06
C1I050,丹大,2014-11-27,23.753747,121.141147,2.144112e-08
C0I080,信義,2014-11-27,23.689694,120.851036,1.4135992e-09
C2M920,朴子農改,2014-11-27,23.469889,120.259383,0.0007240239
C2A880,福隆,2014-11-27,25.017842,121.942083,0.99992037
C0Z160,鳳林,2014-11-27,23.746114,121.453411,1.2520157e-06
C0V210,復興,2014-11-27,23.222403,120.806089,9.663865e-09
C0H990,昆陽,2014-11-27,24.121322,121.273642,1.6002462e-08
C0R741,獅子,2014-11-27,22.202308,120.705236,0.99722165
C0S710,鹿野,2014-11-27,22.917711,121.122994,7.910884e-07
C0I530,小奇萊,2014-11-27,24.131764,121.295717,1.672785e-08
C2K630,荷苞,2014-11-27,23.657717,120.595144,2.1852962e-08
C0Z080,富源,2014-11-27,23.587642,121.378225,1.041878e-06
467441,高雄,2014-11-27,22.7304,120.3125,1.010244e-06
C0SB10,美和,2014-11-27,22.682078,121.060236,0.9772029
C2K620,馬光農場,2014-11-27,23.721453,120.378864,1.3883204e-07
C1I140,卡奈托灣,2014-11-27,23.754364,121.087872,7.605595e-09
C0I520,玉山風口,2014-11-27,23.470489,120.955994,2.9243386e-08
C1G691,下水埔,2014-11-27,23.816114,120.5676,3.116792e-08
C0X110,臺南市南區,2014-11-27,22.961189,120.188378,0.006015049
C0V680,仁武,2014-11-27,22.701083,120.347722,8.324365e-07
C2G840,北斗,2014-11-27,23.877586,120.514222,0.02914024
C0R900,竹坑,2014-11-27,22.1385,120.7022,0.9997406
C0K250,崙背,2014-11-27,23.75555,120.318925,0.0689501
C0G860,社頭,2014-11-27,23.897647,120.5862,0.009866379
C0X150,安定,2014-11-27,23.102614,120.227839,0.0045731696
C0R590,里港,2014-11-27,22.77919,120.49459,2.5655142e-09
C0E610,馬都安,2014-11-27,24.451272,120.930192,6.524947e-08
C0E550,明德,2014-11-27,24.583486,120.885411,0.02040931
C0R150,三地門,2014-11-27,22.709889,120.639944,2.6192248e-09
C0G910,花壇,2014-11-27,24.032076,120.549461,0.9176256
C1D400,鳥嘴山,2014-11-27,24.71909,121.28387,7.933072e-09
C0K500,元長,2014-11-27,23.64981,120.315024,0.022224626
C0F0B0,石岡,2014-11-27,24.276061,120.777644,1.0516832e-08
C2V250,甲仙,2014-11-27,23.080106,120.591758,2.8889062e-09
C0SA20,金崙山,2014-11-27,22.567419,120.959667,2.7419543e-07
C0V350,溪埔,2014-11-27,22.738578,120.446797,5.9283774e-08
C0M660,溪口,2014-11-27,23.604131,120.403569,0.009475638
C1S880,壽卡,2014-11-27,22.238911,120.858903,0.99376947
72D680,桃改新埔分場,2014-11-27,24.834444,121.066111,0.8936664
