站號,站名,日期,lat,lon,BLBTSLS
C0R710,龍磐,2014-05-13,21.931672,120.838942,0.046411715
C1F9D1,白毛台,2014-05-13,24.158325,120.886933,5.571742e-09
C0G940,竹塘,2014-05-13,23.848253,120.386764,8.5576325e-08
467590,恆春,2014-05-13,22.003897,120.746339,0.0030287437
C1O850,環湖,2014-05-13,23.148617,120.418633,1.0132514e-06
C0U710,太平山,2014-05-13,24.505486,121.525656,1.9173052e-08
C0E820,獅潭,2014-05-13,24.539133,120.920042,8.0334345e-08
C0V880,興達,2014-05-13,22.8778,120.2127,0.00016310443
C0S890,關山,2014-05-13,23.0395,121.175017,0.9996568
C0SB30,新蘭,2014-05-13,22.869214,121.223228,0.99859726
C2R970,屏科大,2014-05-13,22.648275,120.619247,2.8390655e-06
K2F750,種苗繁殖,2014-05-13,24.225972,120.800917,4.4255373e-09
C1Z130,銅門,2014-05-13,23.965694,121.492842,0.25633436
C0AD40,土城,2014-05-13,24.973208,121.445169,2.1617468e-06
CAN140,六官養殖協會,2014-05-13,23.22881,120.29962,8.9513395e-07
C0X180,山上,2014-05-13,23.0757,120.363253,2.1304442e-07
C0F9Z0,雪山東峰,2014-05-13,24.388792,121.268675,2.802697e-08
C1M480,獨立山,2014-05-13,23.537022,120.607797,6.201281e-09
C0X220,學甲,2014-05-13,23.230367,120.182187,1.4259017e-05
467650,日月潭,2014-05-13,23.881325,120.90805,1.2769448e-08
C0K600,箔子寮,2014-05-13,23.6197,120.14,0.00038596996
C0G830,埤頭,2014-05-13,23.866003,120.452806,6.591569e-08
C0S950,七塊厝,2014-05-13,22.954453,121.229922,0.00013004981
467110,金門,2014-05-13,24.407306,118.289281,5.4458713e-09
C0AH80,深坑,2014-05-13,25.002703,121.628328,1.8323937e-06
467990,馬祖,2014-05-13,26.169269,119.923419,2.4694259e-08
C0A970,三貂角,2014-05-13,25.007606,122.002058,0.00064386846
C2D730,寶山農場,2014-05-13,24.732444,120.976153,0.00011548057
C0K430,褒忠,2014-05-13,23.690938,120.303634,0.0015751049
467480,嘉義,2014-05-13,23.495925,120.432906,2.946704e-06
C2E540,後龍,2014-05-13,24.606489,120.783933,0.00027622003
C0V400,阿公店,2014-05-13,22.804194,120.355528,3.8119476e-06
C0R440,大漢山,2014-05-13,22.405264,120.753181,2.3232161e-08
C0K280,四湖,2014-05-13,23.630414,120.227125,0.049805358
C1F9B1,桐林,2014-05-13,24.066172,120.735194,1.249834e-08
C2H9U0,鳳鵬,2014-05-13,23.763919,120.788061,1.0988967e-08
C0K390,土庫,2014-05-13,23.679029,120.395574,3.7337713e-08
C1I450,望鄉山,2014-05-13,23.594153,120.944286,3.3648792e-08
C0E910,海埔,2014-05-13,24.648767,120.772435,1.6461229e-06
B2E890,畜試北區分所,2014-05-13,24.527806,120.770972,0.00454527
C0R750,四林格山,2014-05-13,22.076989,120.802439,0.99926525
C0F0C0,中坑,2014-05-13,24.248517,120.903319,3.1842344e-09
C1I121,大鞍,2014-05-13,23.678381,120.760017,2.352907e-08
72U480,花改蘭陽分場,2014-05-13,24.686306,121.716583,0.0028822457
C0A770,科教館,2014-05-13,25.096356,121.516507,2.5323432e-06
C0AJ60,六塊厝,2014-05-13,25.24,121.4481,3.0140065e-05
C0R620,墾雷,2014-05-13,21.900836,120.855269,0.003410712
467420,永康,2014-05-13,23.038386,120.2367,4.1439394e-05
467300,東吉島,2014-05-13,23.25695,119.667467,0.9707459
C0I410,名間,2014-05-13,23.837053,120.701447,2.9353082e-08
A2C560,農工中心,2014-05-13,24.985917,121.239833,4.4946398e-07
C0V740,旗山,2014-05-13,22.888614,120.483597,5.8985893e-06
C0Z061,玉里,2014-05-13,23.3215,121.339656,0.16468745
C0S840,南田,2014-05-13,22.279725,120.889208,0.044090763
C1I470,杉林溪,2014-05-13,23.639517,120.786444,2.5820148e-08
C1X040,東原,2014-05-13,23.291597,120.463822,1.3030719e-08
C0R660,枋寮,2014-05-13,22.367722,120.590647,0.00087820226
C1R120,上德文,2014-05-13,22.763272,120.704442,1.1191382e-05
C0K450,大埤,2014-05-13,23.646074,120.431537,2.8590494e-08
C0UA00,土場,2014-05-13,24.576533,121.495333,7.039289e-08
467080,宜蘭,2014-05-13,24.763975,121.756528,3.0890496e-06
C0N030,四草,2014-05-13,23.0235,120.1116,0.0008985625
C0V650,彌陀,2014-05-13,22.783806,120.246361,6.75425e-05
C0D660,新竹市東區,2014-05-13,24.798681,120.986942,8.392204e-06
82S580,茶改東部分場,2014-05-13,22.907694,121.130139,0.46780542
C0SB40,興隆,2014-05-13,22.913661,121.257469,0.9829986
C0C710,大溪永福,2014-05-13,24.892936,121.324975,3.2581698e-07
C0FA20,溫寮,2014-05-13,24.372177,120.583125,0.017416893
C0V640,湖內,2014-05-13,22.887139,120.2445,0.000108542976
C0R910,下寮,2014-05-13,22.3929,120.5548,0.9382096
C0Z020,明里,2014-05-13,23.208717,121.262342,0.04330709
C0M770,嘉義梅山,2014-05-13,23.585398,120.555587,2.6104981e-08
G2F820,農業試驗所,2014-05-13,24.031261,120.688133,2.2541813e-05
C0C660,楊梅,2014-05-13,24.912375,121.143047,2.2471244e-07
C1E511,新開,2014-05-13,24.347703,120.827019,3.6303767e-09
G2F820,農試所(霧峰),2014-05-13,24.031261,120.688133,2.2541792e-05
C1I070,和社,2014-05-13,23.591131,120.888861,2.3148473e-08
C2F000,大肚,2014-05-13,24.15295,120.572117,6.9502466e-09
C1S850,豐南,2014-05-13,23.122139,121.262389,0.0003372509
C2A920,富貴角,2014-05-13,25.263783,121.565258,0.0006700714
CAH030,茶改場竹圍站,2014-05-13,23.860083,120.637528,1.00978435e-08
C0T960,光復,2014-05-13,23.660694,121.424964,0.9956261
C0F9M0,豐原,2014-05-13,24.254322,120.720692,3.889794e-08
C0R720,旭海,2014-05-13,22.205403,120.887614,0.9954229
C0V710,苓雅,2014-05-13,22.622742,120.330669,0.21308501
C0C740,觀音工業區,2014-05-13,25.064764,121.114856,0.00023971431
CAC040,拉拉山,2014-05-13,24.699317,121.427133,1.4078311e-08
C0V790,萬山,2014-05-13,22.905944,120.688056,2.1702844e-08
U2HA30,臺大和社,2014-05-13,23.590856,120.888864,2.3148473e-08
C0AJ90,澳底,2014-05-13,25.0552,121.9253,0.0035292911
C0Z100,東華,2014-05-13,23.89525,121.549833,0.9974105
C0G970,三豐,2014-05-13,23.882,120.2895,0.01425175
V2K610,大庄合作社,2014-05-13,23.8068,120.367939,0.0008432211
C0V900,汕尾,2014-05-13,22.4782,120.4151,0.017391248
C1R630,龍泉,2014-05-13,22.66701,120.59091,4.4137732e-06
C1AC50,關渡,2014-05-13,25.133486,121.469331,1.3720921e-05
C0F9I0,神岡,2014-05-13,24.272481,120.658314,5.6823207e-08
C0K460,斗南,2014-05-13,23.678734,120.478359,2.5621706e-08
467410,臺南,2014-05-13,22.993239,120.204772,2.8183262e-05
C2O810,曾文,2014-05-13,23.219681,120.497328,1.8864667e-07
467280,後龍,2014-05-13,24.648563,120.831834,7.1226594e-07
C1F9J1,清水林,2014-05-13,24.071242,120.820419,4.0536103e-09
C2A650,火燒寮,2014-05-13,25.002719,121.742892,1.5615321e-06
466930,竹子湖,2014-05-13,25.162078,121.544547,2.4267722e-08
C1I220,樟湖,2014-05-13,23.905333,120.846983,1.3407892e-08
C0I390,仁愛,2014-05-13,24.022122,121.132206,5.276266e-09
C0Z300,東里,2014-05-13,23.26853,121.30547,0.09235928
C1V590,新發,2014-05-13,23.057019,120.646064,4.998835e-06
C0K510,水林,2014-05-13,23.572924,120.24597,0.00035323095
72S590,東改賓朗果園,2014-05-13,22.813889,121.071278,0.9741794
82A750,茶改北部分場,2014-05-13,24.955778,121.631222,1.3318632e-08
C1A750,石碇服務區,2014-05-13,25.00872,121.646242,1.4514952e-06
C0X300,鹿寮,2014-05-13,23.386047,120.477331,2.100517e-08
G2AI50,關渡,2014-05-13,25.11575,121.492,2.8973732e-06
C0K590,雲林東勢,2014-05-13,23.674192,120.255721,0.0015751049
C0A570,桶後,2014-05-13,24.848222,121.597992,3.8418528e-07
C1S800,華源,2014-05-13,22.657883,121.02325,0.9995048
C0G720,溪州,2014-05-13,23.851589,120.499093,5.358847e-08
C1V160,達卡努瓦,2014-05-13,23.279811,120.705319,3.543394e-08
C2M410,馬頭山,2014-05-13,23.324361,120.582017,1.2245992e-08
C0V850,蚵仔寮,2014-05-13,22.7256,120.2527,0.040154807
C0S740,池上,2014-05-13,23.119628,121.209469,0.02117086
C1V390,尖山,2014-05-13,22.813153,120.367789,1.5393151e-06
C0AH70,松山,2014-05-13,25.04871,121.55042,3.263978e-06
C0N010,鯤鯓國小,2014-05-13,23.1879,120.0889,0.00023500157
C0R550,新埤,2014-05-13,22.467947,120.582894,4.10658e-06
C0SA60,知本（水試所）,2014-05-13,22.702394,121.082761,0.9995436
C0T9I0,豐濱,2014-05-13,23.583897,121.514806,0.9917935
C0UB00,淡江大學蘭陽校園,2014-05-13,24.823239,121.730383,5.7340795e-08
C0W240,九宮,2014-05-13,24.423753,118.240186,6.1827654e-07
C0T9N0,富里,2014-05-13,23.171639,121.249378,0.02659625
U2HA50,臺大竹山,2014-05-13,23.756972,120.681556,1.3247894e-08
C0V840,鳳鼻頭,2014-05-13,22.5083,120.3591,0.30177736
C0X140,西港,2014-05-13,23.125608,120.203108,4.542992e-05
72D080,桃改五峰分場,2014-05-13,24.612194,121.157167,8.437225e-09
C2H9P0,伊拿谷,2014-05-13,23.963211,121.088264,5.7899947e-09
C2H9F0,柑林,2014-05-13,24.018658,120.847072,7.658262e-09
C0TA20,加灣,2014-05-13,24.082025,121.608944,0.99479806
C0V530,阿蓮,2014-05-13,22.883208,120.327508,4.2629686e-06
C1O880,關山,2014-05-13,23.173397,120.594092,8.703507e-09
C0E791,卓蘭,2014-05-13,24.3126,120.8244,3.6006549e-09
C1I030,武界,2014-05-13,23.913225,121.052483,6.141227e-09
C0R520,崁頂,2014-05-13,22.514781,120.506914,0.9124029
C0R341,牡丹,2014-05-13,22.130036,120.792639,0.56550807
C0R930,萬丹,2014-05-13,22.5885,120.4851,5.6312724e-06
C0S760,紅石,2014-05-13,23.069131,121.126219,8.530011e-08
C1M610,石磐龍,2014-05-13,23.496606,120.663506,1.1182048e-08
C0UA10,鴛鴦湖,2014-05-13,24.590269,121.412228,1.6628505e-08
V2C260,八德蔬果,2014-05-13,24.978508,121.281819,2.6187575e-07
C0R800,丹路,2014-05-13,22.204481,120.750989,0.9302338
C0G920,永靖,2014-05-13,23.924703,120.547533,6.978975e-06
C2M950,太和,2014-05-13,23.538372,120.702961,1.0180867e-08
C1A630,下盆,2014-05-13,24.771003,121.538622,1.2129325e-07
B2N890,畜產試驗所,2014-05-13,23.058972,120.336406,3.1848867e-07
C0UA30,白嶺,2014-05-13,24.527819,121.519031,3.070245e-08
C1V580,溪南(特生中心),2014-05-13,23.084972,120.788475,5.538063e-08
C1T970,大農,2014-05-13,23.615233,121.413331,0.9799555
E2S960,林試太麻里2,2014-05-13,22.598014,120.989761,0.99431753
C0R650,竹田,2014-05-13,22.58486,120.54344,5.6312724e-06
C1H900,清流,2014-05-13,24.080775,120.962997,3.339029e-09
C1C510,水尾,2014-05-13,24.940081,121.087161,8.6099635e-07
C0F9X0,大雅(中科園區),2014-05-13,24.21528,120.62445,4.1681516e-05
C0SB60,白守蓮,2014-05-13,23.126769,121.401914,0.99911046
C0O970,虎頭埤,2014-05-13,23.021375,120.347878,1.962174e-06
C0C730,中大臨海站,2014-05-13,24.966126,121.008581,0.003541534
C0X250,新營,2014-05-13,23.310689,120.316681,5.63148e-07
C0V700,三民,2014-05-13,22.645017,120.311233,0.21308501
C0U870,大礁溪,2014-05-13,24.791042,121.675047,2.0951871e-08
C0E870,高鐵苗栗,2014-05-13,24.60725,120.826094,0.00017219894
A2K570,古坑花卉中心,2014-05-13,23.63353,120.55239,1.6222623e-08
C0M860,新美,2014-05-13,23.338017,120.683169,8.109096e-09
C1E701,八卦,2014-05-13,24.491756,120.927619,9.060769e-09
C0I420,國姓,2014-05-13,24.037803,120.855072,6.1435466e-09
C2D720,關西工作站,2014-05-13,24.757275,121.184792,1.584313e-07
C0S960,香蘭,2014-05-13,22.587569,120.993375,0.99431753
C0R260,春日,2014-05-13,22.370361,120.628306,0.1465532
72G600,臺中農改場,2014-05-13,24.003028,120.534389,1.8868293e-05
C0Z210,瑞穗,2014-05-13,23.5239,121.39021,0.9950756
C0M820,達邦,2014-05-13,23.453994,120.749517,1.1190455e-08
C0V860,南寮,2014-05-13,22.7616,120.2339,0.00010386512
C0G740,大城,2014-05-13,23.852487,120.320935,0.009627407
C0R920,塭仔,2014-05-13,22.4169,120.5197,0.96091324
C0R470,高樹,2014-05-13,22.826389,120.600806,2.8472596e-06
C0R680,佳樂水,2014-05-13,21.993578,120.861633,0.0026198567
C1O870,大棟山,2014-05-13,23.31157,120.52226,7.19069e-09
C0D360,梅花,2014-05-13,24.678347,121.208558,1.3271946e-08
C0Z190,富世,2014-05-13,24.14743,121.6297,0.0048399335
C0AI10,屈尺,2014-05-13,24.92184,121.54475,1.8323937e-06
B2U990,畜試東區分所,2014-05-13,24.669039,121.832561,0.013517313
C0SB80,長濱漁港,2014-05-13,23.313644,121.459994,0.92738825
C0R240,來義,2014-05-13,22.527306,120.625111,0.11983316
C0V910,大樹,2014-05-13,22.684645,120.432803,0.00013747912
C1R610,西大武山,2014-05-13,22.617719,120.7322,4.9595084e-08
C0G900,線西,2014-05-13,24.143358,120.443536,0.07114982
C0M700,竹崎,2014-05-13,23.526178,120.555508,1.1707091e-08
C2E880,三義,2014-05-13,24.405478,120.749819,3.550238e-09
C0C720,竹圍,2014-05-13,25.112692,121.239824,2.336265e-05
C0F9P0,清水,2014-05-13,24.312297,120.562242,0.020007253
C0Z150,吉安光華,2014-05-13,23.930925,121.595153,0.9980085
C1D640,外坪(五指山),2014-05-13,24.644447,121.090961,2.5390284e-08
C0F9O0,潭子,2014-05-13,24.213106,120.703933,5.347942e-08
C2H9R0,卓社,2014-05-13,23.887894,121.000086,5.604806e-09
72T250,花蓮農改場,2014-05-13,23.975222,121.563889,0.99267006
C0E780,銅鑼,2014-05-13,24.489681,120.790853,1.13648944e-07
C1T950,太安,2014-05-13,23.666719,121.370128,1.3047325e-07
C0E830,苑裡,2014-05-13,24.439714,120.653053,0.009595149
467270,田中,2014-05-13,23.873803,120.581286,2.2522622e-08
C0SA10,檳榔四格山,2014-05-13,22.810031,121.109308,0.77551883
C1T830,布洛灣,2014-05-13,24.17184,121.57127,0.00068586285
C0F970,大坑,2014-05-13,24.173142,120.722289,3.1844388e-06
C1U920,思源,2014-05-13,24.393125,121.347214,1.9236678e-08
C0A931,三和,2014-05-13,25.233153,121.595236,8.886663e-07
C0I010,廬山,2014-05-13,24.033311,121.181808,1.6155617e-08
C2M940,日野賀,2014-05-13,23.434056,120.727169,1.38949865e-08
C0R860,鼻頭,2014-05-13,22.1043,120.8979,0.001262003
C0UB20,壯圍,2014-05-13,24.7359,121.8163,0.013517332
C0R790,九棚,2014-05-13,22.14195,120.889281,0.9908441
C0W110,東莒,2014-05-13,25.9652,119.98069,0.043192625
C1U930,粉鳥林,2014-05-13,24.497088,121.842479,7.845117e-06
C1I211,蘆竹湳,2014-05-13,23.934019,120.811994,2.1437932e-08
C0S830,長濱,2014-05-13,23.286817,121.411975,0.010551767
C1F9F1,伯公龍,2014-05-13,24.272392,120.849047,3.7112267e-09
C0E810,西湖,2014-05-13,24.562947,120.7485,7.942632e-05
C1I440,新高口,2014-05-13,23.478744,120.878939,3.4555264e-08
C0O840,王爺宮,2014-05-13,23.222064,120.40085,1.8864667e-07
C0T9G0,鳳林山,2014-05-13,23.735269,121.420131,0.2849557
C0X080,佳里,2014-05-13,23.173039,120.145086,1.7900535e-05
C0FB70,大甲溪埔,2014-05-13,24.370625,120.620067,0.0067062546
C0Z310,清水斷崖,2014-05-13,24.218294,121.689142,0.9609783
C0M680,太保,2014-05-13,23.455062,120.331455,3.636228e-06
C1S820,金峰,2014-05-13,22.590969,120.933236,0.99786466
C0AD10,八里,2014-05-13,25.150211,121.403947,2.321881e-05
C2K240,草嶺,2014-05-13,23.59555,120.693461,1.0462332e-08
C1SA70,都蘭,2014-05-13,22.87794,121.226881,0.9829986
C0K440,二崙,2014-05-13,23.772797,120.408944,7.277772e-08
C1A760,坪林交控,2014-05-13,24.94284,121.713442,8.0744194e-08
C0F9N0,大里,2014-05-13,24.092464,120.701378,0.0012443288
C0SA90,達仁林場,2014-05-13,22.264347,120.823972,0.9938772
C1R290,石門山,2014-05-13,22.112611,120.756597,0.99731296
42HA10,萬大發電廠,2014-05-13,23.978875,121.139639,5.5008908e-08
C0R890,山海,2014-05-13,21.9878,120.7091,0.0021369096
C0T9A0,月眉山,2014-05-13,23.809928,121.539828,0.0008815415
C0AC70,信義,2014-05-13,25.037822,121.564597,3.263978e-06
C0K560,棋山,2014-05-13,23.68645,120.603417,3.7508094e-08
C2FB50,出雲,2014-05-13,24.206469,120.902794,5.220309e-09
C1Z240,中平林道,2014-05-13,23.42115,121.26763,7.5737637e-07
U2H480,溪頭,2014-05-13,23.670306,120.798194,2.743622e-08
C0M880,好美里,2014-05-13,23.3364,120.138,1.7900551e-05
C0T9E0,大坑,2014-05-13,23.880628,121.581981,0.054798607
C0K530,臺西,2014-05-13,23.701547,120.197559,0.022716248
C1E900,國一N128K,2014-05-13,24.560997,120.844186,2.8582848e-05
C0AJ50,水湳洞,2014-05-13,25.123695,121.862238,0.999325
C0AI20,白沙灣,2014-05-13,25.283128,121.519058,0.048455786
C0A860,大坪,2014-05-13,25.165914,121.632969,7.0483715e-08
C1U850,觀音海岸,2014-05-13,24.38319,121.77856,3.190103e-07
C2K610,草嶺石壁,2014-05-13,23.602469,120.707731,1.0837434e-08
C0U950,鶯子嶺,2014-05-13,24.89754,121.79244,2.3922539e-08
C0O900,善化,2014-05-13,23.112883,120.297219,5.104059e-07
C0K550,蔦松,2014-05-13,23.514319,120.229736,7.493014e-05
E2P980,林試六龜中心,2014-05-13,22.991703,120.645722,6.3871354e-08
C0E590,通霄,2014-05-13,24.471892,120.704622,0.015330573
C1I310,西巒,2014-05-13,23.754486,120.883956,1.8021861e-08
C0A550,泰平,2014-05-13,24.971197,121.823711,3.0095262e-07
C0I360,水里,2014-05-13,23.812553,120.849792,1.1395094e-08
C0R830,高士,2014-05-13,22.121825,120.836781,0.9987218
C1I101,溪頭,2014-05-13,23.661789,120.807647,3.7449478e-08
C0AJ20,野柳,2014-05-13,25.20703,121.690021,0.9993294
C0B060,暖暖,2014-05-13,25.0957,121.7403,0.991272
C1H920,長豐,2014-05-13,24.102039,120.879897,4.0226174e-09
C0V360,內門,2014-05-13,22.975481,120.466769,1.287496e-06
C0R850,林邊,2014-05-13,22.4634,120.5339,0.9124029
C0E930,龍鳳,2014-05-13,24.700034,120.859125,5.1226976e-07
C0U910,冬山,2014-05-13,24.63373,121.7937,0.013517313
C1E721,泰安,2014-05-13,24.489017,120.968036,6.170039e-09
82H320,茶改中部分場,2014-05-13,23.875611,120.913583,1.4936631e-08
C0M750,布袋,2014-05-13,23.380878,120.167789,6.443686e-05
C1S860,利嘉,2014-05-13,22.809417,121.050528,9.92163e-05
72C440,桃園農改,2014-05-13,24.950944,121.030583,0.00049066305
E2S980,林試太麻里1,2014-05-13,22.598922,120.980044,0.9975397
C0X170,關廟,2014-05-13,22.963017,120.327797,9.3006975e-07
C0V720,林園,2014-05-13,22.507747,120.394511,0.21308501
C1I510,線浸林道,2014-05-13,23.761508,120.832956,2.2653596e-08
C0D690,外湖,2014-05-13,24.917735,120.968711,0.003541534
C0C750,新興坑尾,2014-05-13,25.0061,121.0971,1.41051605e-05
B2Q810,畜試南區分所,2014-05-13,21.945583,120.802167,0.0026228628
C0S790,金崙,2014-05-13,22.538122,120.966875,0.9968577
C0AH90,福山植物園,2014-05-13,24.760717,121.58135,2.5601482e-08
C0I540,奇萊稜線,2014-05-13,24.109231,121.326456,2.6220302e-08
C0M850,表湖,2014-05-13,23.24186,120.64166,8.71748e-09
C0S770,大溪山,2014-05-13,22.478475,120.943325,0.21787302
C0AG80,中和,2014-05-13,24.991622,121.491792,3.251383e-06
C0T790,大禹嶺,2014-05-13,24.186117,121.316086,2.067202e-08
C0T9B0,水源,2014-05-13,23.991861,121.537169,8.759149e-05
C0R840,牡丹池山,2014-05-13,22.168389,120.841225,0.9952328
C1I131,桶頭,2014-05-13,23.641944,120.654117,6.9457013e-09
CAL110,布袋國中,2014-05-13,23.35893,120.18026,5.5144656e-06
467571,新竹,2014-05-13,24.827853,121.014219,1.55435e-05
C0Z290,赤柯山,2014-05-13,23.36893,121.38293,2.53749e-06
C0X280,將軍,2014-05-13,23.214999,120.13577,1.7900535e-05
C0S690,太麻里,2014-05-13,22.60902,120.98533,0.029221639
C0U880,北關,2014-05-13,24.9072,121.8734,0.05926747
C1H860,瑞岩,2014-05-13,24.123772,121.18345,9.162872e-09
C0G810,埔心,2014-05-13,23.947633,120.525456,8.377027e-06
C0U970,大福,2014-05-13,24.80064,121.81389,3.4392633e-06
C2H9N0,仁愛東眼,2014-05-13,24.026875,121.1205,8.015631e-09
C1E670,南礦,2014-05-13,24.538278,121.002836,6.525256e-09
C0M520,東後寮,2014-05-13,23.369908,120.248065,5.302088e-06
C1E461,松安,2014-05-13,24.397972,120.986022,6.0108545e-09
72G600,臺中農改,2014-05-13,24.003028,120.534389,1.8868293e-05
C2N160,西拉雅風管處,2014-05-13,23.189481,120.335297,6.212015e-07
C2M970,碧湖,2014-05-13,23.568632,120.624165,1.111988e-08
C0A640,石碇,2014-05-13,24.993969,121.662917,2.9757575e-06
E2S960,林試太麻里2,2014-05-13,22.598,120.99775,0.9937188
C0F9Y0,桃山,2014-05-13,24.432739,121.303808,2.9577151e-08
C1I020,萬大,2014-05-13,23.979817,121.132261,5.269739e-09
C0U940,羅東,2014-05-13,24.68184,121.74934,0.007602213
C0M650,朴子,2014-05-13,23.43463,120.23902,6.1126426e-05
C1I500,大尖山,2014-05-13,23.858572,120.994889,2.951961e-08
C0G820,田尾,2014-05-13,23.901669,120.509389,6.978975e-06
E2K600,四湖植物園,2014-05-13,23.676986,120.163433,0.022716248
C0S730,綠島,2014-05-13,22.6672,121.47533,0.9996984
12Q970,東港工作站,2014-05-13,22.479997,120.466058,0.9382096
C0E430,南庄,2014-05-13,24.601775,121.000214,7.230191e-08
C1TA00,太魯閣,2014-05-13,24.15773,121.6236,0.9762524
466920,臺北,2014-05-13,25.037658,121.514853,3.263978e-06
C0R600,舊泰武,2014-05-13,22.588194,120.664944,3.30868e-07
C1I260,北坑,2014-05-13,23.9246,121.006903,5.658157e-09
466910,鞍部,2014-05-13,25.182586,121.529731,1.7312292e-08
C1I230,九份二山,2014-05-13,23.961944,120.845,3.8953014e-09
C2A660,瑞芳,2014-05-13,25.113169,121.801147,0.00016219437
C0R270,琉球嶼,2014-05-13,22.332244,120.362236,0.14565702
C1T990,高寮,2014-05-13,23.394239,121.356808,0.99883246
C0G620,芬園,2014-05-13,24.015678,120.6213,3.0673945e-07
C1Z140,荖溪,2014-05-13,23.890575,121.45964,7.8720156e-08
C1I201,中心崙,2014-05-13,23.728722,120.712097,1.0904407e-08
C1I400,凌霄,2014-05-13,24.018778,121.004456,7.976086e-09
C1M640,十字,2014-05-13,23.492153,120.753683,2.2916257e-08
G2P820,農試鳳山分所,2014-05-13,22.646611,120.356083,0.058406796
C0Z270,蕃薯寮,2014-05-13,23.73835,121.540108,0.9928096
C0F9Q0,外埔,2014-05-13,24.347817,120.705686,9.911702e-08
C0K580,高鐵雲林,2014-05-13,23.737456,120.417944,3.728882e-08
C2I090,鳳凰,2014-05-13,23.728081,120.787347,1.4186104e-08
C0U990,員山,2014-05-13,24.74435,121.72247,0.007602213
C0V770,大社,2014-05-13,22.730306,120.346639,0.012050475
C0X120,麻豆,2014-05-13,23.183289,120.248611,1.4259017e-05
C0C670,龍潭,2014-05-13,24.870056,121.221389,6.333452e-09
C0D680,香山濕地,2014-05-13,24.783581,120.914988,0.020782886
C0S980,勝林山,2014-05-13,22.430439,120.8938,3.2484572e-06
C0V730,大寮,2014-05-13,22.605614,120.395717,2.495583e-05
C0R570,麟洛,2014-05-13,22.65078,120.52719,1.5216631e-05
C2M930,石卓,2014-05-13,23.478744,120.702264,2.315395e-08
C0G9B0,和美,2014-05-13,24.105169,120.492131,0.00049754133
CAG100,王功漁港,2014-05-13,23.96824,120.32586,0.01995341
C0X290,北門,2014-05-13,23.267772,120.125481,1.7900535e-05
C2F930,大甲,2014-05-13,24.347667,120.640403,0.0015095603
C0D650,湖口,2014-05-13,24.904794,121.043628,3.1795607e-05
C0E420,竹南,2014-05-13,24.708978,120.888897,0.0018932709
C0U780,五結,2014-05-13,24.68637,121.79794,0.013517313
C1I250,鯉潭,2014-05-13,23.961922,120.991131,4.0226174e-09
C0R130,阿禮,2014-05-13,22.742908,120.743678,7.3694864e-09
C0X100,臺南市北區,2014-05-13,23.010394,120.194228,5.2674222e-05
C0S920,金峰嘉蘭,2014-05-13,22.594789,120.960825,0.99774027
C0V490,新興,2014-05-13,22.627422,120.298803,0.21308501
C0F9K0,大安,2014-05-13,24.345061,120.588025,0.013008234
72N100,臺南農改,2014-05-13,23.0605,120.342194,3.1848867e-07
467290,古坑,2014-05-13,23.633639,120.551889,1.6222623e-08
C2E970,八甲,2014-05-13,24.535811,120.795983,9.91745e-08
C0V440,鳳山,2014-05-13,22.646653,120.356122,0.058406796
C1T940,大觀,2014-05-13,23.714206,121.373133,0.34784037
72T250,花蓮農改,2014-05-13,23.975222,121.563889,0.99267006
C0E740,造橋,2014-05-13,24.637056,120.864778,2.922968e-07
C0R100,尾寮山,2014-05-13,22.833111,120.683889,1.4668447e-08
A2K630,臺大雲林校區,2014-05-13,23.730628,120.423903,3.728882e-08
C0D580,寶山,2014-05-13,24.735006,121.025192,7.779354e-08
E2P990,林試扇平站,2014-05-13,22.9677,120.6857,6.90421e-06
C0AI30,三重,2014-05-13,25.057328,121.500629,2.5323384e-06
C0AH00,汐止,2014-05-13,25.066881,121.658778,0.9993294
C1Z040,立山,2014-05-13,23.443356,121.327375,0.12696815
C0W130,花嶼,2014-05-13,23.40007,119.32276,0.98551565
C0A950,鼻頭角,2014-05-13,25.129036,121.923372,0.0051912786
C0K470,林內,2014-05-13,23.748675,120.609642,1.8037749e-08
C2F990,摩天嶺,2014-05-13,24.322458,120.936819,3.2223406e-09
82C160,茶改場,2014-05-13,24.908472,121.185333,9.949052e-08
C0Z320,清水林道,2014-05-13,23.27125,121.188272,8.251663e-06
C0R760,南仁湖,2014-05-13,22.084681,120.863353,0.9974916
C0M670,大林,2014-05-13,23.600616,120.45841,6.8489586e-05
C0M800,茶山,2014-05-13,23.299075,120.664767,4.394141e-08
C0A9C0,天母,2014-05-13,25.117494,121.537169,1.9144622e-06
72K220,南改斗南分場,2014-05-13,23.634556,120.477333,3.007377e-08
72AI40,桃改樹林分場,2014-05-13,24.944503,121.386972,1.6663657e-06
C0S910,蘭嶼燈塔,2014-05-13,22.081197,121.503117,0.0025470124
C0B050,八斗子,2014-05-13,25.144754,121.79167,0.9995071
C0U900,內城,2014-05-13,24.71813,121.68766,2.0167267e-06
C0X320,柳營,2014-05-13,23.253328,120.375253,8.1391033e-07
C0M790,新港,2014-05-13,23.553269,120.345728,4.265295e-06
C0F9T0,西屯,2014-05-13,24.179494,120.641275,0.0008483273
C0SA30,都歷,2014-05-13,23.020333,121.323642,0.9996329
C0C620,蘆竹,2014-05-13,25.084275,121.265767,1.422174e-05
C0R730,大坪頂,2014-05-13,22.024633,120.69355,0.7197489
C0AJ40,石門,2014-05-13,25.273672,121.601198,9.191252e-05
C0E750,苗栗,2014-05-13,24.564569,120.824575,3.801194e-05
C0T870,鯉魚潭,2014-05-13,23.935639,121.508944,0.9676588
C1V170,排雲,2014-05-13,23.463619,120.954147,3.9469672e-08
C2H950,中寮,2014-05-13,23.884447,120.766406,1.16192655e-08
C0R350,貓鼻頭,2014-05-13,21.921774,120.7358,0.0034212372
C0V660,岡山,2014-05-13,22.797078,120.294958,0.00025141894
C1H941,雙冬,2014-05-13,23.967378,120.802189,5.6092118e-09
C0AJ70,田寮,2014-05-13,25.2698,121.4886,0.12008191
C0AI00,五股,2014-05-13,25.07445,121.42728,4.675447e-07
C0Z280,德武,2014-05-13,23.47426,121.41071,0.991023
C0R700,枋山,2014-05-13,22.246844,120.661086,0.91549003
C0C460,復興,2014-05-13,24.820208,121.352281,3.5198113e-08
E2H360,蓮華池,2014-05-13,23.918333,120.885278,9.441083e-09
C0M640,中埔,2014-05-13,23.42538,120.5229,1.9699739e-08
C0W140,金沙,2014-05-13,24.488292,118.408778,7.602259e-09
C2A540,四堵,2014-05-13,24.8926,121.745736,7.6251985e-07
C0ACA0,新莊,2014-05-13,25.051478,121.446756,4.823535e-05
C0R220,潮州,2014-05-13,22.534361,120.54,0.00032049685
U2HA40,臺大內茅埔,2014-05-13,23.689722,120.851117,1.653325e-08
467490,臺中,2014-05-13,24.145736,120.684075,1.7861312e-05
C0U960,翠峰湖,2014-05-13,24.510856,121.608044,1.8939453e-08
E2HA20,林試畢祿溪站,2014-05-13,24.226944,121.308522,1.31442475e-08
C0V890,前鎮,2014-05-13,22.5718,120.3117,0.30177736
467620,蘭嶼,2014-05-13,22.036969,121.558339,0.92829245
C1F941,雪嶺,2014-05-13,24.280586,121.026642,1.6384698e-08
C2H9E0,國姓南港,2014-05-13,23.911108,120.846556,1.2774832e-08
C0AC80,文山,2014-05-13,25.00235,121.575728,1.8323937e-06
C0F9R0,龍井,2014-05-13,24.184536,120.528972,0.043697428
C0M760,民雄,2014-05-13,23.551754,120.428457,2.8343471e-05
C0UA40,西德山,2014-05-13,24.560647,121.752608,6.3261986e-08
C1T920,中興,2014-05-13,23.769503,121.498653,0.99535877
C0D550,雪霸,2014-05-13,24.526972,121.11605,1.2377447e-08
C2F860,梨山,2014-05-13,24.247522,121.243669,1.33596965e-08
C0R320,車城,2014-05-13,22.0744,120.716247,0.0021369096
C1S870,南美山,2014-05-13,23.15025,121.382333,0.9996071
C0B020,基隆嶼,2014-05-13,25.19141,121.78391,0.999325
C1U501,牛鬥,2014-05-13,24.637836,121.573656,3.0595268e-07
C0M730,嘉義市東區,2014-05-13,23.457673,120.460531,1.9171232e-05
C0S700,知本,2014-05-13,22.684866,121.005642,0.0606706
C1N001,沙崙,2014-05-13,22.935472,120.309406,4.2629686e-06
C0V760,橋頭,2014-05-13,22.757806,120.30575,0.0001686447
C0G960,福寶,2014-05-13,24.0443,120.3814,0.00075937825
C0X210,白河,2014-05-13,23.347466,120.414427,7.6156346e-07
C0S810,東河,2014-05-13,22.972672,121.303986,0.9888455
C2R170,屏東,2014-05-13,22.66027,120.49403,1.9767429e-05
C0R670,楓港,2014-05-13,22.190131,120.692156,0.91549003
C0FA50,霧峰,2014-05-13,24.0419,120.6995,3.4632205e-05
C0UB10,蘇澳,2014-05-13,24.5969,121.8571,0.002557924
C0G950,防潮門,2014-05-13,24.1835,120.4871,0.053599462
C0M740,六腳,2014-05-13,23.492871,120.290625,4.0758896e-06
C1R250,力里,2014-05-13,22.428117,120.629228,0.12004212
C0K330,虎尾,2014-05-13,23.719183,120.442036,3.3235022e-08
C2FA00,烏石坑,2014-05-13,24.273503,120.947617,3.197069e-09
C0V620,永安,2014-05-13,22.82315,120.236856,6.75425e-05
C1I330,楓樹林,2014-05-13,23.986803,121.076117,5.6466427e-09
C0W200,湖西,2014-05-13,23.596314,119.67275,0.9165147
72Q010,高雄農改場,2014-05-13,22.709333,120.525889,8.645677e-06
C0SA40,瑞和,2014-05-13,22.974361,121.156697,0.99969864
C0C680,龜山,2014-05-13,25.02846,121.38656,2.2321535e-08
C2V260,月眉,2014-05-13,22.971003,120.539853,2.7302894e-08
C0V450,鳳森,2014-05-13,22.545064,120.392592,4.3904274e-06
C0U720,南山,2014-05-13,24.43742,121.38167,5.1778695e-08
A2N290,臺南蘭花園區,2014-05-13,23.340258,120.379661,8.201672e-07
C0R560,新園,2014-05-13,22.5434,120.461558,0.9124029
C0U890,三星,2014-05-13,24.66812,121.65302,1.1247974e-06
C1V300,御油山,2014-05-13,23.001983,120.715364,5.821302e-08
C0U600,礁溪,2014-05-13,24.817539,121.765608,2.7220356e-06
C1T980,龍澗,2014-05-13,24.023289,121.411328,3.219136e-08
C0D670,海天一線,2014-05-13,24.831986,120.914438,0.033033762
C0SA00,歷坵,2014-05-13,22.520969,120.89185,0.044556208
C0M710,東石,2014-05-13,23.458927,120.15385,7.493014e-05
C0M780,鹿草,2014-05-13,23.41134,120.30835,2.7826723e-06
C0U520,雙連埤,2014-05-13,24.753033,121.641303,2.0323252e-08
C0B010,七堵,2014-05-13,25.094819,121.71713,0.99883336
C0R480,長治,2014-05-13,22.693128,120.542622,1.7681337e-07
C1V830,國三S383K,2014-05-13,22.781967,120.426475,4.068655e-08
12Q980,恆春工作站,2014-05-13,22.079678,120.714425,0.0021369096
C1O940,東山服務區,2014-05-13,23.286016,120.398472,6.038315e-07
C1U840,東澳嶺,2014-05-13,24.5378,121.8485,2.992703e-07
C1D630,飛鳳山,2014-05-13,24.766464,121.119178,1.938027e-08
C0S940,石寧山,2014-05-13,23.223772,121.406639,0.7938329
C0K410,北港,2014-05-13,23.573957,120.292802,5.15836e-06
C2M620,瑞里,2014-05-13,23.545133,120.675197,1.0365442e-08
C0SB70,小港漁港,2014-05-13,23.158558,121.400431,0.99376243
C2O950,安南,2014-05-13,23.076694,120.144861,0.00021754381
C0F0E0,南湖圈谷,2014-05-13,24.363714,121.444667,3.893216e-08
467610,成功,2014-05-13,23.097486,121.373428,0.9993715
C0G890,伸港,2014-05-13,24.148933,120.484403,0.07221848
C2E540,龍溪,2014-05-13,24.606489,120.783933,0.0002762195
C1V200,梅山,2014-05-13,23.268447,120.823556,1.2331948e-07
C0T9H0,加路蘭山,2014-05-13,23.682947,121.5274,0.0021453656
C2O930,玉井,2014-05-13,23.126042,120.46055,1.0132514e-06
C1F911,新伯公,2014-05-13,24.221361,120.841069,4.9280873e-09
C0R490,九如,2014-05-13,22.7405,120.490503,1.3108781e-05
C0X200,左鎮,2014-05-13,23.056758,120.408522,2.5160625e-07
C0SB50,叭嗡嗡,2014-05-13,23.047062,121.343223,0.9960643
C1F891,稍來,2014-05-13,24.265689,121.001142,1.3025426e-08
72N240,七股研究中心,2014-05-13,23.081672,120.062894,0.0019741987
C0C700,中壢,2014-05-13,24.977661,121.256375,2.1321556e-07
C0M690,水上,2014-05-13,23.419734,120.388909,1.46348875e-05
C0V690,鼓山,2014-05-13,22.623325,120.275575,0.21308501
C0O860,大內,2014-05-13,23.11885,120.36083,1.33217e-07
C0Z200,萬榮,2014-05-13,23.709219,121.420106,0.9676588
C0T9D0,和中,2014-05-13,24.26676,121.74103,0.99848634
C1O921,楠西,2014-05-13,23.183511,120.484083,5.046106e-07
C0AJ30,淡水觀海,2014-05-13,25.184591,121.408616,3.0140065e-05
C0V810,左營,2014-05-13,22.67491,120.28491,0.019537518
C0UA70,桃源谷,2014-05-13,24.962606,121.888875,1.34285e-07
C0X130,官田,2014-05-13,23.193217,120.315422,7.69671e-07
C1H000,翠峰,2014-05-13,24.109397,121.205211,1.6531041e-08
C0UA90,石城,2014-05-13,24.980444,121.951214,0.011079655
C1E681,南勢山,2014-05-13,24.421669,120.923831,2.6316638e-09
C0A9F0,內湖,2014-05-13,25.079422,121.57545,3.263978e-06
C0K291,宜梧,2014-05-13,23.536281,120.169329,9.519944e-05
C1K540,口湖,2014-05-13,23.585344,120.180517,0.0004463841
C0R780,滿州,2014-05-13,22.024403,120.839892,0.004186729
C0V870,文安,2014-05-13,22.8025,120.2164,0.00010386512
C0U650,玉蘭,2014-05-13,24.675286,121.587061,1.3055444e-06
C0R640,東港,2014-05-13,22.46247,120.44074,0.30177736
K2E360,苗栗農改,2014-05-13,24.495722,120.829111,2.6860084e-07
C0AJ80,板橋,2014-05-13,25.0107,121.4489,2.161751e-06
C0S660,下馬,2014-05-13,23.150427,121.070312,1.07808455e-05
C1H9B1,阿眉,2014-05-13,24.1263,120.994672,8.179402e-09
C0UA20,多加屯,2014-05-13,24.368614,121.373189,2.0603764e-08
C0E730,頭份,2014-05-13,24.688247,120.912206,0.0018932709
72V140,高改旗南分場,2014-05-13,22.857861,120.516667,1.5455755e-07
C0K480,莿桐,2014-05-13,23.761192,120.502372,3.1879555e-08
C0U980,坪林石牌,2014-05-13,24.86478,121.77396,1.1325868e-07
C0T900,西林,2014-05-13,23.8119,121.441458,0.88408995
C1I150,青雲,2014-05-13,23.793361,120.949378,8.797238e-09
467350,澎湖,2014-05-13,23.565503,119.563094,0.9768886
C0G800,埔鹽,2014-05-13,24.000394,120.431683,0.00046821893
C0H960,草屯,2014-05-13,23.973672,120.68085,1.47776005e-08
C1V780,多納林道,2014-05-13,22.888028,120.737917,3.4049393e-08
C0E920,通霄漁港,2014-05-13,24.498589,120.673876,0.055160318
C0Z330,安通山,2014-05-13,23.290728,121.348528,0.0020053086
C0AH10,永和,2014-05-13,25.01125,121.508111,3.897443e-06
C0AK10,太平里,2014-05-13,25.134937,121.364899,4.4684697e-05
C2G640,鹿港,2014-05-13,24.0753,120.430481,0.0004693851
C1E890,國三N149K,2014-05-13,24.463414,120.680019,0.008554294
C1R110,口社,2014-05-13,22.770111,120.645222,1.469646e-06
C1M870,國三N285K,2014-05-13,23.550319,120.505833,1.4343747e-08
467050,新屋,2014-05-13,25.006744,121.047486,0.0016275406
C1E480,鳳美,2014-05-13,24.554803,121.034747,8.555377e-09
C0M530,奮起湖,2014-05-13,23.493903,120.699253,1.0193963e-08
C0C590,觀音,2014-05-13,25.027072,121.153317,3.5558521e-06
C0T9M0,靜浦,2014-05-13,23.455167,121.495028,0.99772114
C2H9M0,發祥,2014-05-13,24.154094,121.164517,5.4624327e-09
C0AI40,石牌,2014-05-13,25.115597,121.513139,2.1617468e-06
C1F871,上谷關,2014-05-13,24.203483,121.018644,3.197069e-09
C2H9G0,百勝,2014-05-13,24.051142,120.909361,4.3730273e-09
C0G880,二水,2014-05-13,23.810742,120.6173,2.2450054e-08
C0R940,加祿堂,2014-05-13,22.3363,120.6217,0.18311806
C0W220,北竿,2014-05-13,26.220358,119.974881,6.5456116e-09
C0O960,崎頂,2014-05-13,22.959547,120.369317,1.1629709e-08
C0S750,向陽,2014-05-13,23.248397,120.986133,4.8585207e-08
C0T9F0,水璉,2014-05-13,23.797131,121.542514,0.07942449
C1M600,頭凍,2014-05-13,23.406364,120.603339,2.0845722e-08
467660,臺東,2014-05-13,22.752211,121.154586,0.9990165
C1D380,新埔,2014-05-13,24.84745,121.03834,2.0152272e-06
C2G980,田頭村,2014-05-13,23.8263,120.444175,7.277772e-08
C0V750,路竹,2014-05-13,22.854997,120.259439,3.0313167e-06
C0N050,蚵寮,2014-05-13,23.301,120.1104,0.00023500157
72M700,南改鹿草分場,2014-05-13,23.416869,120.283061,3.2549044e-06
C1SA50,利嘉林道,2014-05-13,22.82325,121.009389,5.0426372e-08
467550,玉山,2014-05-13,23.487614,120.959522,4.2291017e-08
C0A940,金山,2014-05-13,25.223628,121.643967,0.0137430895
C1V340,大津,2014-05-13,22.888322,120.645986,1.268754e-07
C0W180,七美,2014-05-13,23.219333,119.444892,0.98295337
C1F9C1,白冷,2014-05-13,24.182844,120.929889,5.7558824e-09
K2E710,苗改生物防治研究中心,2014-05-13,24.422861,120.871833,1.3717581e-08
C0N040,蘆竹溝,2014-05-13,23.2344,120.0961,0.00023500157
C2W230,畜試所澎湖,2014-05-13,23.628342,119.513206,0.97300416
C0R880,後壁湖,2014-05-13,21.9457,120.7457,0.001995421
C1I280,埔中,2014-05-13,23.820778,120.642594,2.1353335e-08
467790,墾丁雷達站,2014-05-13,21.948235,120.808028,0.004874904
C0W190,望安,2014-05-13,23.380564,119.494075,0.98328245
466881,新北,2014-05-13,24.9593,121.52,2.3791367e-06
C0Z170,卓溪,2014-05-13,23.3443,121.3029,0.049428698
C0F850,東勢,2014-05-13,24.246428,120.833047,5.2963713e-09
466900,淡水,2014-05-13,25.164889,121.448906,2.321881e-05
C0I370,魚池,2014-05-13,23.895703,120.94135,9.637764e-09
C0C630,大溪,2014-05-13,24.882853,121.265547,2.024501e-07
C0A520,山佳,2014-05-13,24.974944,121.402008,1.6685411e-06
C0I110,竹山,2014-05-13,23.761225,120.688156,1.3588185e-08
82H840,茶改南部分場,2014-05-13,23.762528,120.7405,9.63203e-09
C0G660,溪湖,2014-05-13,23.94835,120.479122,1.2140661e-05
C1T800,洛韶,2014-05-13,24.204558,121.453956,6.6699045e-08
C1T810,慈恩,2014-05-13,24.192044,121.388386,2.0073534e-08
C1E451,象鼻,2014-05-13,24.368617,120.940228,2.6295466e-09
C0AC60,三峽,2014-05-13,24.939025,121.369728,2.3650025e-06
C0I490,萬大林道,2014-05-13,23.928228,121.091411,3.5260605e-08
C1I290,豐丘,2014-05-13,23.668178,120.887417,2.2653596e-08
C1I320,奧萬大,2014-05-13,23.952956,121.178556,5.578963e-09
C2M910,嘉義大學,2014-05-13,23.471325,120.485903,2.1175769e-08
C0U770,南澳,2014-05-13,24.44935,121.81022,0.021287685
C0A980,社子,2014-05-13,25.109508,121.469681,2.8973732e-06
C0V800,六龜,2014-05-13,22.997889,120.633583,6.897754e-08
C1G9D0,國一S218K,2014-05-13,23.890641,120.493253,8.377027e-06
C0E570,白沙屯,2014-05-13,24.549447,120.696803,0.055160347
C2F9A0,中竹林,2014-05-13,24.103556,120.751061,4.2334176e-09
C0FA40,臺中電廠,2014-05-13,24.2146,120.4907,0.043697428
C2G9A0,畜試所彰化,2014-05-13,23.86045,120.557964,2.2522622e-08
C0H9C0,合歡山,2014-05-13,24.143442,121.272547,2.7123667e-08
C0X060,下營,2014-05-13,23.22695,120.256261,1.122242e-06
G2M350,農試溪口農場,2014-05-13,23.58565,120.408111,5.789942e-05
C0U860,頭城,2014-05-13,24.85323,121.8308,3.0890496e-06
C0R580,南州,2014-05-13,22.48591,120.50274,0.9382096
C0D430,峨眉,2014-05-13,24.6905,121.017189,0.00011548057
C0G780,秀水,2014-05-13,24.03405,120.503869,2.2753991e-05
72N100,臺南農改場,2014-05-13,23.0605,120.342194,3.1848867e-07
C0S900,蘭嶼高中,2014-05-13,22.04909,121.51214,0.0004897514
467540,大武,2014-05-13,22.355675,120.903789,0.007783279
C1F9W0,德基,2014-05-13,24.254783,121.190261,9.794617e-09
C1Z120,壽豐,2014-05-13,23.870853,121.508081,0.9974105
C0W160,烏坵,2014-05-13,24.9944,119.44956,0.6319956
C1I240,外大坪,2014-05-13,23.958697,120.917931,3.996874e-09
C1I550,國六W023K,2014-05-13,23.979067,120.867742,5.169972e-09
C0R870,興海,2014-05-13,21.9752,120.8439,0.0026228628
C0R140,瑪家,2014-05-13,22.682903,120.686639,1.7425366e-05
C0A530,坪林,2014-05-13,24.938183,121.70975,2.0882555e-07
C0X260,後壁,2014-05-13,23.366358,120.362326,1.352381e-07
C0Z230,和平,2014-05-13,24.30717,121.77007,0.99848634
C0G770,福興,2014-05-13,24.041289,120.437669,0.00046821893
C0H9A0,神木村,2014-05-13,23.532742,120.843667,3.0925374e-08
C0I460,南投,2014-05-13,23.911469,120.687331,1.8424481e-08
C0I480,梅峰,2014-05-13,24.085272,121.173572,1.2922829e-08
C1V570,吉東,2014-05-13,22.85422,120.5454,1.2286483e-07
C2D740,屯原,2014-05-13,24.067969,121.209389,1.051615e-08
C2A560,福山,2014-05-13,24.776203,121.502811,1.3318632e-08
C0AH30,五分山,2014-05-13,25.07125,121.780794,5.542491e-08
C0FA10,松柏,2014-05-13,24.429115,120.617482,0.017416893
72S200,東改班鳩分場,2014-05-13,22.829528,121.077694,0.9944794
72HA00,中改埔里分場,2014-05-13,23.903208,120.963364,1.0007458e-08
C2H9W0,大坪頂農水,2014-05-13,24.043122,120.932781,3.9809045e-09
C0C650,平鎮,2014-05-13,24.897503,121.214636,9.949052e-08
C0S930,延平,2014-05-13,22.902581,121.084058,0.9607977
C0UA60,樟樹山,2014-05-13,24.41393,121.78325,5.323042e-06
C1S670,摩天,2014-05-13,23.199503,121.027,1.02419875e-07
C0V630,茄萣,2014-05-13,22.906642,120.182608,0.00016310443
466940,基隆,2014-05-13,25.133314,121.740475,0.99943495
C0X050,東河,2014-05-13,23.296598,120.385608,8.1391033e-07
C0R770,保力,2014-05-13,22.071122,120.764111,0.011082142
G2L020,農試嘉義分所,2014-05-13,23.485028,120.473806,1.8412537e-08
C0X240,關子嶺,2014-05-13,23.331169,120.508025,7.1713364e-09
C0I380,集集,2014-05-13,23.828206,120.801467,1.1863699e-08
466990,花蓮,2014-05-13,23.975128,121.613275,0.9956479
C1V220,小關山,2014-05-13,23.154217,120.813603,4.469822e-08
C1F9G1,慶福山,2014-05-13,24.180853,120.848378,3.4815106e-09
C0Z250,瑞穗林道,2014-05-13,23.49284,121.30688,6.1273596e-07
C0D590,新豐,2014-05-13,24.87068,120.97721,2.7904878e-06
C0A870,五指山,2014-05-13,25.132153,121.608692,6.847078e-08
C0UA50,西帽山,2014-05-13,24.555361,121.802628,2.4322944e-07
C0X160,仁德,2014-05-13,22.968258,120.257689,2.1124918e-06
C1H971,六分寮,2014-05-13,23.92507,120.6378,9.054947e-09
C0W120,西嶼,2014-05-13,23.5626,119.468436,0.9768886
C0G650,員林,2014-05-13,23.946503,120.585597,8.60952e-07
C0AD50,鶯歌,2014-05-13,24.951533,121.346294,1.8504603e-06
C2H9Q0,北東眼山,2014-05-13,24.120939,121.189303,1.0349006e-08
C2H9T0,名間竹圍,2014-05-13,23.859914,120.637572,1.00978435e-08
C0S990,山豬窟,2014-05-13,22.318619,120.857372,0.9973214
72Q010,高雄農改,2014-05-13,22.709333,120.525889,8.645677e-06
C0X190,安平,2014-05-13,22.993161,120.152181,5.2674222e-05
C0K400,斗六,2014-05-13,23.720583,120.541127,2.2293452e-08
12J990,口湖工作站,2014-05-13,23.589978,120.180394,0.00038596996
C0O830,北寮,2014-05-13,23.079561,120.495008,2.432797e-08
C1D410,白蘭,2014-05-13,24.579364,121.079947,1.0023448e-08
C0S970,加津林,2014-05-13,22.416211,120.926942,0.00944697
C0D700,關西,2014-05-13,24.7977,121.1732,1.9830047e-07
C0M810,里佳,2014-05-13,23.389125,120.716647,1.0193963e-08
C0U750,龜山島,2014-05-13,24.841667,121.953133,3.9628577e-07
C0R810,內獅,2014-05-13,22.305064,120.642986,0.18311796
C1M390,龍美,2014-05-13,23.406728,120.654417,1.3856822e-08
C2FB60,頭櫃山,2014-05-13,24.129842,120.858925,5.225071e-09
C1H840,國三N238K,2014-05-13,23.841008,120.707711,1.1628644e-08
CAQ030,崎峰國小,2014-05-13,22.42565,120.49521,0.9382096
C2E520,大湖,2014-05-13,24.414939,120.870872,2.1258689e-08
467530,阿里山,2014-05-13,23.508208,120.813242,3.6894836e-08
C1E691,南湖,2014-05-13,24.40135,120.837533,2.552672e-09
C0FA30,梧棲,2014-05-13,24.256003,120.523381,0.043697428
C1V231,高中,2014-05-13,23.134911,120.716711,6.546514e-08
C0F9V0,新社,2014-05-13,24.200172,120.815806,3.958032e-09
C0H890,埔里,2014-05-13,23.972169,120.952425,1.2138554e-08
C0R690,墾丁,2014-05-13,21.966756,120.810269,0.990695
C0F0D0,審馬陣,2014-05-13,24.381675,121.4203,3.48947e-08
C0R820,白鷺,2014-05-13,22.454275,120.666219,0.0010177227
U2H480,臺大溪頭,2014-05-13,23.670306,120.798194,2.743622e-08
C1V190,南天池,2014-05-13,23.27403,120.91176,4.470674e-08
K2E360,苗栗農改場,2014-05-13,24.495722,120.829111,2.6860084e-07
CAJ050,海口故事園區,2014-05-13,23.57543,120.14121,0.00044211923
C2H9D0,三隻寮,2014-05-13,24.093078,120.861578,3.950038e-09
C0O990,媽廟,2014-05-13,22.99175,120.293525,1.8362388e-06
C0D480,打鐵坑,2014-05-13,24.849664,121.150789,1.448379e-08
C0Z220,和平林道,2014-05-13,24.343922,121.656317,4.6057635e-06
C0TA10,花蓮漁港,2014-05-13,23.995322,121.638331,0.9962904
72C440,桃園農改場,2014-05-13,24.950944,121.030583,0.0004906626
C1E711,馬拉邦山,2014-05-13,24.367306,120.901656,5.9799103e-09
C0SB20,富岡,2014-05-13,22.792467,121.192669,0.99895245
C0D560,竹東,2014-05-13,24.767147,121.057881,4.096724e-07
C0F9U0,南屯,2014-05-13,24.137006,120.637969,0.0012443288
C0M720,番路,2014-05-13,23.464657,120.554156,1.1507402e-08
C0F0A0,雪山圈谷,2014-05-13,24.388594,121.236339,3.5130572e-08
C1A9N0,四十份,2014-05-13,24.934158,121.593283,8.3243116e-08
C0U760,東澳,2014-05-13,24.52196,121.83318,5.6368335e-06
C0X230,鹽水,2014-05-13,23.272621,120.247641,7.0456686e-06
C2H9H0,苗改南投蜂場,2014-05-13,23.852589,120.693481,1.3588211e-08
C0R950,萬隆國小,2014-05-13,22.507667,120.587817,2.2792235e-06
C0V370,古亭坑,2014-05-13,22.893178,120.401947,8.1452924e-07
C1I340,新興橋,2014-05-13,23.563333,120.868728,1.8478927e-08
C0SA80,土坂,2014-05-13,22.453108,120.887572,0.99810463
C0R160,鹽埔,2014-05-13,22.739558,120.530778,2.0114415e-07
C0AC40,大屯山,2014-05-13,25.175675,121.522408,1.6124094e-08
466850,五分山雷達站,2014-05-13,25.071182,121.781205,5.448056e-08
C2H9L0,馬烈霸,2014-05-13,24.1512,121.201772,1.0249449e-08
C1AI50,國三N016K,2014-05-13,25.034164,121.619664,2.034988e-06
C1V600,藤枝,2014-05-13,23.071961,120.757042,7.10429e-08
C1E601,南勢,2014-05-13,24.572486,120.734842,8.984429e-07
C0Z180,新城,2014-05-13,24.03946,121.60454,0.99392754
C0O980,新市,2014-05-13,23.061614,120.298197,5.104059e-07
C0K420,西螺,2014-05-13,23.800407,120.467394,3.3586403e-08
C0Z050,佳心,2014-05-13,23.34567,121.21316,3.4147547e-06
C0AD30,蘆洲,2014-05-13,25.086594,121.472331,2.5209458e-06
C0V610,梓官,2014-05-13,22.760558,120.267211,0.00025141894
K2F750,種苗改良場,2014-05-13,24.225972,120.800917,4.4255373e-09
C0UA80,大溪漁港,2014-05-13,24.941801,121.902955,2.7382564e-06
C1AI60,國一39K邊坡,2014-05-13,25.064361,121.383836,1.6097198e-07
C0W150,金寧,2014-05-13,24.457703,118.328989,6.4034777e-09
C0R960,內埔,2014-05-13,22.608483,120.570714,4.1065837e-06
V2C250,八德合作社,2014-05-13,24.93775,121.266389,2.2619255e-07
C2H9S0,龍南,2014-05-13,23.953536,120.833183,4.434917e-09
C0AH40,平等,2014-05-13,25.129142,121.577086,2.5486312e-07
C0R540,佳冬,2014-05-13,22.419456,120.552375,0.9382096
466950,彭佳嶼,2014-05-13,25.627975,122.079744,0.007163016
C0A890,雙溪,2014-05-13,25.036003,121.864242,0.99761117
C0C480,桃園,2014-05-13,24.992425,121.323172,2.9153094e-07
C0AH50,林口,2014-05-13,25.072181,121.38084,1.6323769e-07
A2K360,水試臺西試驗場,2014-05-13,23.717231,120.190522,0.03534732
B2N890,畜試所,2014-05-13,23.058972,120.336406,3.1848867e-07
C2M960,外寮,2014-05-13,23.562643,120.665688,1.0767709e-08
C0F9S0,烏日,2014-05-13,24.107058,120.624103,7.209539e-06
C0C490,八德,2014-05-13,24.928708,121.283289,3.4874614e-07
C0R190,赤山,2014-05-13,22.592333,120.614306,2.968609e-06
C0T820,天祥,2014-05-13,24.179597,121.495639,1.0502576e-05
C1F9E1,龍安,2014-05-13,24.1605,120.831961,3.8534314e-09
C0V820,小林,2014-05-13,23.148408,120.63325,3.748085e-08
C2G870,芳苑,2014-05-13,23.922303,120.320025,0.01425175
C0E850,大河,2014-05-13,24.618069,120.948578,2.030437e-07
C1U670,寒溪,2014-05-13,24.634,121.71691,0.0001737917
C0N020,城西,2014-05-13,23.0568,120.0956,0.0013258954
C1Z110,三棧,2014-05-13,24.11557,121.60501,0.0009650817
C0R280,檳榔,2014-05-13,22.076078,120.836777,0.9838145
C2H9J0,中台,2014-05-13,23.9996,120.938739,8.46755e-09
C0F9L0,后里,2014-05-13,24.310436,120.729725,2.8113543e-08
C0D540,橫山,2014-05-13,24.71116,121.11693,3.922202e-08
C1D420,太閣南,2014-05-13,24.632808,121.160575,6.431361e-09
C1E770,公館,2014-05-13,24.526914,120.830806,0.00454527
CAN130,水試所海水繁養殖中心,2014-05-13,23.120802,120.07968,0.0019741987
C1I430,翠華,2014-05-13,24.191961,121.224339,1.7277788e-08
C1M400,菜瓜坪,2014-05-13,23.251928,120.576103,4.7361794e-08
C0G730,二林,2014-05-13,23.903325,120.376081,0.00042149657
72M360,南改義竹分場,2014-05-13,23.360694,120.279361,5.2880876e-07
V2K620,麥寮合作社,2014-05-13,23.753836,120.294783,0.008282855
C0Z070,舞鶴,2014-05-13,23.46811,121.37407,0.9582883
C0B040,大武崙,2014-05-13,25.166676,121.706993,0.99883336
C1Z030,紅葉,2014-05-13,23.493119,121.338806,0.9898334
C1I050,丹大,2014-05-13,23.753747,121.141147,3.1278276e-08
C0I080,信義,2014-05-13,23.689694,120.851036,1.653325e-08
C2M920,朴子農改,2014-05-13,23.469889,120.259383,4.0758896e-06
C2A880,福隆,2014-05-13,25.017842,121.942083,0.0035292911
C0Z160,鳳林,2014-05-13,23.746114,121.453411,0.9967454
C0V210,復興,2014-05-13,23.222403,120.806089,2.6446483e-07
C0H990,昆陽,2014-05-13,24.121322,121.273642,2.288865e-08
C0R741,獅子,2014-05-13,22.202308,120.705236,0.95794815
C0S710,鹿野,2014-05-13,22.917711,121.122994,0.0004849198
C0I530,小奇萊,2014-05-13,24.131764,121.295717,2.3481682e-08
C2K630,荷苞,2014-05-13,23.657717,120.595144,2.4191191e-08
C0Z080,富源,2014-05-13,23.587642,121.378225,0.9755263
467441,高雄,2014-05-13,22.7304,120.3125,0.019537518
C0SB10,美和,2014-05-13,22.682078,121.060236,0.9995436
C2K620,馬光農場,2014-05-13,23.721453,120.378864,4.0099106e-08
C1I140,卡奈托灣,2014-05-13,23.754364,121.087872,2.3615844e-08
C0I520,玉山風口,2014-05-13,23.470489,120.955994,4.299553e-08
C1G691,下水埔,2014-05-13,23.816114,120.5676,2.9173302e-08
C0X110,臺南市南區,2014-05-13,22.961189,120.188378,4.1439394e-05
C0V680,仁武,2014-05-13,22.701083,120.347722,0.012050481
C2G840,北斗,2014-05-13,23.877586,120.514222,6.978975e-06
C0R900,竹坑,2014-05-13,22.1385,120.7022,0.97059655
C0K250,崙背,2014-05-13,23.75555,120.318925,0.0057018995
C0G860,社頭,2014-05-13,23.897647,120.5862,7.1157615e-07
C0X150,安定,2014-05-13,23.102614,120.227839,1.0271543e-05
C0R590,里港,2014-05-13,22.77919,120.49459,1.3967946e-07
C0E610,馬都安,2014-05-13,24.451272,120.930192,8.418289e-09
C0E550,明德,2014-05-13,24.583486,120.885411,2.850999e-07
C0R150,三地門,2014-05-13,22.709889,120.639944,8.891461e-07
C0G910,花壇,2014-05-13,24.032076,120.549461,1.2471497e-05
C1D400,鳥嘴山,2014-05-13,24.71909,121.28387,1.6909867e-08
C0K500,元長,2014-05-13,23.64981,120.315024,0.0008310086
C0F0B0,石岡,2014-05-13,24.276061,120.777644,3.8595362e-09
C2V250,甲仙,2014-05-13,23.080106,120.591758,1.0116524e-08
C0SA20,金崙山,2014-05-13,22.567419,120.959667,1.8375683e-06
C0V350,溪埔,2014-05-13,22.738578,120.446797,0.00013719102
C0M660,溪口,2014-05-13,23.604131,120.403569,5.789942e-05
C1S880,壽卡,2014-05-13,22.238911,120.858903,0.9952931
72D680,桃改新埔分場,2014-05-13,24.834444,121.066111,1.2162145e-06
