站號,站名,日期,lat,lon,BLBTSLS
C0R710,龍磐,2014-02-14,21.931672,120.838942,0.99892116
C1F9D1,白毛台,2014-02-14,24.158325,120.886933,1.3829672e-09
C0G940,竹塘,2014-02-14,23.848253,120.386764,2.5830726e-09
467590,恆春,2014-02-14,22.003897,120.746339,0.997224
C1O850,環湖,2014-02-14,23.148617,120.418633,3.0046824e-08
C0U710,太平山,2014-02-14,24.505486,121.525656,1.9168226e-08
C0E820,獅潭,2014-02-14,24.539133,120.920042,5.5248726e-09
C0V880,興達,2014-02-14,22.8778,120.2127,3.0478223e-08
C0S890,關山,2014-02-14,23.0395,121.175017,3.9624415e-06
C0SB30,新蘭,2014-02-14,22.869214,121.223228,5.212104e-05
C2R970,屏科大,2014-02-14,22.648275,120.619247,5.6795546e-09
K2F750,種苗繁殖,2014-02-14,24.225972,120.800917,2.338883e-09
C1Z130,銅門,2014-02-14,23.965694,121.492842,1.7168911e-07
C0AD40,土城,2014-02-14,24.973208,121.445169,2.1387599e-07
CAN140,六官養殖協會,2014-02-14,23.22881,120.29962,1.0115154e-08
C0X180,山上,2014-02-14,23.0757,120.363253,8.77947e-09
C0F9Z0,雪山東峰,2014-02-14,24.388792,121.268675,2.2580476e-08
C1M480,獨立山,2014-02-14,23.537022,120.607797,2.3739077e-09
C0X220,學甲,2014-02-14,23.230367,120.182187,1.5249864e-08
467650,日月潭,2014-02-14,23.881325,120.90805,1.615641e-09
C0K600,箔子寮,2014-02-14,23.6197,120.14,1.646942e-08
C0G830,埤頭,2014-02-14,23.866003,120.452806,2.1958115e-09
C0S950,七塊厝,2014-02-14,22.954453,121.229922,7.5766984e-08
467110,金門,2014-02-14,24.407306,118.289281,3.20735e-08
C0AH80,深坑,2014-02-14,25.002703,121.628328,2.9249617e-07
467990,馬祖,2014-02-14,26.169269,119.923419,4.0928224e-08
C0A970,三貂角,2014-02-14,25.007606,122.002058,8.79501e-08
C2D730,寶山農場,2014-02-14,24.732444,120.976153,2.6163735e-07
C0K430,褒忠,2014-02-14,23.690938,120.303634,9.312496e-08
467480,嘉義,2014-02-14,23.495925,120.432906,7.8738175e-08
C2E540,後龍,2014-02-14,24.606489,120.783933,1.5984698e-07
C0V400,阿公店,2014-02-14,22.804194,120.355528,7.467087e-09
C0R440,大漢山,2014-02-14,22.405264,120.753181,1.4993576e-08
C0K280,四湖,2014-02-14,23.630414,120.227125,1.6010817e-07
C1F9B1,桐林,2014-02-14,24.066172,120.735194,1.3192062e-09
C2H9U0,鳳鵬,2014-02-14,23.763919,120.788061,8.4254165e-10
C0K390,土庫,2014-02-14,23.679029,120.395574,2.2597528e-09
C1I450,望鄉山,2014-02-14,23.594153,120.944286,1.4925382e-08
C0E910,海埔,2014-02-14,24.648767,120.772435,1.1726489e-08
B2E890,畜試北區分所,2014-02-14,24.527806,120.770972,2.8213927e-07
C0R750,四林格山,2014-02-14,22.076989,120.802439,0.9991112
C0F0C0,中坑,2014-02-14,24.248517,120.903319,2.8919165e-09
C1I121,大鞍,2014-02-14,23.678381,120.760017,2.9813663e-09
72U480,花改蘭陽分場,2014-02-14,24.686306,121.716583,3.1963185e-07
C0A770,科教館,2014-02-14,25.096356,121.516507,2.2415658e-07
C0AJ60,六塊厝,2014-02-14,25.24,121.4481,2.7874881e-07
C0R620,墾雷,2014-02-14,21.900836,120.855269,0.99754167
467420,永康,2014-02-14,23.038386,120.2367,1.2130477e-08
467300,東吉島,2014-02-14,23.25695,119.667467,0.94611055
C0I410,名間,2014-02-14,23.837053,120.701447,1.1544924e-09
A2C560,農工中心,2014-02-14,24.985917,121.239833,2.9990144e-07
C0V740,旗山,2014-02-14,22.888614,120.483597,8.660869e-08
C0Z061,玉里,2014-02-14,23.3215,121.339656,2.1119546e-07
C0S840,南田,2014-02-14,22.279725,120.889208,0.9990792
C1I470,杉林溪,2014-02-14,23.639517,120.786444,4.0136885e-09
C1X040,東原,2014-02-14,23.291597,120.463822,1.5515168e-09
C0R660,枋寮,2014-02-14,22.367722,120.590647,1.827127e-08
C1R120,上德文,2014-02-14,22.763272,120.704442,3.98181e-08
C0K450,大埤,2014-02-14,23.646074,120.431537,1.8764692e-09
C0UA00,土場,2014-02-14,24.576533,121.495333,2.5124075e-08
467080,宜蘭,2014-02-14,24.763975,121.756528,8.807415e-08
C0N030,四草,2014-02-14,23.0235,120.1116,2.1565543e-07
C0V650,彌陀,2014-02-14,22.783806,120.246361,9.256286e-09
C0D660,新竹市東區,2014-02-14,24.798681,120.986942,3.3103876e-07
82S580,茶改東部分場,2014-02-14,22.907694,121.130139,1.7671155e-07
C0SB40,興隆,2014-02-14,22.913661,121.257469,4.0549853e-07
C0C710,大溪永福,2014-02-14,24.892936,121.324975,2.7873205e-07
C0FA20,溫寮,2014-02-14,24.372177,120.583125,5.644109e-07
C0V640,湖內,2014-02-14,22.887139,120.2445,2.7790092e-08
C0R910,下寮,2014-02-14,22.3929,120.5548,1.03047306e-07
C0Z020,明里,2014-02-14,23.208717,121.262342,8.463097e-08
C0M770,嘉義梅山,2014-02-14,23.585398,120.555587,2.1859206e-09
G2F820,農業試驗所,2014-02-14,24.031261,120.688133,2.58408e-07
C0C660,楊梅,2014-02-14,24.912375,121.143047,2.3782489e-07
C1E511,新開,2014-02-14,24.347703,120.827019,2.0842332e-09
G2F820,農試所(霧峰),2014-02-14,24.031261,120.688133,2.58408e-07
C1I070,和社,2014-02-14,23.591131,120.888861,1.0287127e-09
C2F000,大肚,2014-02-14,24.15295,120.572117,3.4228504e-09
C1S850,豐南,2014-02-14,23.122139,121.262389,6.0975886e-08
C2A920,富貴角,2014-02-14,25.263783,121.565258,3.251276e-07
CAH030,茶改場竹圍站,2014-02-14,23.860083,120.637528,1.2343798e-09
C0T960,光復,2014-02-14,23.660694,121.424964,1.2708724e-06
C0F9M0,豐原,2014-02-14,24.254322,120.720692,1.3666603e-08
C0R720,旭海,2014-02-14,22.205403,120.887614,0.99907583
C0V710,苓雅,2014-02-14,22.622742,120.330669,3.896715e-08
C0C740,觀音工業區,2014-02-14,25.064764,121.114856,7.2289424e-07
CAC040,拉拉山,2014-02-14,24.699317,121.427133,1.2312741e-08
C0V790,萬山,2014-02-14,22.905944,120.688056,1.2361634e-09
U2HA30,臺大和社,2014-02-14,23.590856,120.888864,1.0287127e-09
C0AJ90,澳底,2014-02-14,25.0552,121.9253,9.9358346e-08
C0Z100,東華,2014-02-14,23.89525,121.549833,9.857185e-07
C0G970,三豐,2014-02-14,23.882,120.2895,1.2519926e-07
V2K610,大庄合作社,2014-02-14,23.8068,120.367939,9.0156405e-08
C0V900,汕尾,2014-02-14,22.4782,120.4151,3.917514e-08
C1R630,龍泉,2014-02-14,22.66701,120.59091,1.4238421e-08
C1AC50,關渡,2014-02-14,25.133486,121.469331,3.1800698e-07
C0F9I0,神岡,2014-02-14,24.272481,120.658314,1.4586645e-08
C0K460,斗南,2014-02-14,23.678734,120.478359,2.3894347e-09
467410,臺南,2014-02-14,22.993239,120.204772,1.0861998e-08
C2O810,曾文,2014-02-14,23.219681,120.497328,1.1957044e-08
467280,後龍,2014-02-14,24.648563,120.831834,1.1200342e-08
C1F9J1,清水林,2014-02-14,24.071242,120.820419,1.2317645e-09
C2A650,火燒寮,2014-02-14,25.002719,121.742892,5.6200737e-08
466930,竹子湖,2014-02-14,25.162078,121.544547,4.490347e-08
C1I220,樟湖,2014-02-14,23.905333,120.846983,1.427202e-09
C0I390,仁愛,2014-02-14,24.022122,121.132206,2.1652886e-09
C0Z300,東里,2014-02-14,23.26853,121.30547,1.9392088e-07
C1V590,新發,2014-02-14,23.057019,120.646064,8.379969e-09
C0K510,水林,2014-02-14,23.572924,120.24597,1.5949379e-08
72S590,東改賓朗果園,2014-02-14,22.813889,121.071278,6.8845443e-06
82A750,茶改北部分場,2014-02-14,24.955778,121.631222,2.0258351e-08
C1A750,石碇服務區,2014-02-14,25.00872,121.646242,2.7551994e-07
C0X300,鹿寮,2014-02-14,23.386047,120.477331,1.5284769e-09
G2AI50,關渡,2014-02-14,25.11575,121.492,2.25813e-07
C0K590,雲林東勢,2014-02-14,23.674192,120.255721,9.312496e-08
C0A570,桶後,2014-02-14,24.848222,121.597992,6.7161814e-08
C1S800,華源,2014-02-14,22.657883,121.02325,0.0019009257
C0G720,溪州,2014-02-14,23.851589,120.499093,2.2054192e-09
C1V160,達卡努瓦,2014-02-14,23.279811,120.705319,3.5813534e-09
C2M410,馬頭山,2014-02-14,23.324361,120.582017,1.4175116e-09
C0V850,蚵仔寮,2014-02-14,22.7256,120.2527,3.8957268e-08
C0S740,池上,2014-02-14,23.119628,121.209469,1.1497172e-07
C1V390,尖山,2014-02-14,22.813153,120.367789,5.500804e-09
C0AH70,松山,2014-02-14,25.04871,121.55042,3.4940564e-07
C0N010,鯤鯓國小,2014-02-14,23.1879,120.0889,6.9804344e-08
C0R550,新埤,2014-02-14,22.467947,120.582894,4.009549e-09
C0SA60,知本（水試所）,2014-02-14,22.702394,121.082761,0.8626823
C0T9I0,豐濱,2014-02-14,23.583897,121.514806,2.1859794e-06
C0UB00,淡江大學蘭陽校園,2014-02-14,24.823239,121.730383,2.7215131e-08
C0W240,九宮,2014-02-14,24.423753,118.240186,5.518051e-08
C0T9N0,富里,2014-02-14,23.171639,121.249378,8.548481e-08
U2HA50,臺大竹山,2014-02-14,23.756972,120.681556,1.1817667e-09
C0V840,鳳鼻頭,2014-02-14,22.5083,120.3591,4.47862e-08
C0X140,西港,2014-02-14,23.125608,120.203108,2.8794403e-08
72D080,桃改五峰分場,2014-02-14,24.612194,121.157167,6.6597954e-09
C2H9P0,伊拿谷,2014-02-14,23.963211,121.088264,1.2216381e-09
C2H9F0,柑林,2014-02-14,24.018658,120.847072,1.3914578e-09
C0TA20,加灣,2014-02-14,24.082025,121.608944,3.431956e-07
C0V530,阿蓮,2014-02-14,22.883208,120.327508,1.4336361e-08
C1O880,關山,2014-02-14,23.173397,120.594092,1.5839384e-09
C0E791,卓蘭,2014-02-14,24.3126,120.8244,2.0923268e-09
C1I030,武界,2014-02-14,23.913225,121.052483,1.5667575e-09
C0R520,崁頂,2014-02-14,22.514781,120.506914,8.2305796e-08
C0R341,牡丹,2014-02-14,22.130036,120.792639,2.8417534e-07
C0R930,萬丹,2014-02-14,22.5885,120.4851,4.3617234e-09
C0S760,紅石,2014-02-14,23.069131,121.126219,1.0015918e-08
C1M610,石磐龍,2014-02-14,23.496606,120.663506,3.02831e-09
C0UA10,鴛鴦湖,2014-02-14,24.590269,121.412228,1.3212566e-08
V2C260,八德蔬果,2014-02-14,24.978508,121.281819,3.5704332e-07
C0R800,丹路,2014-02-14,22.204481,120.750989,7.6024423e-07
C0G920,永靖,2014-02-14,23.924703,120.547533,1.2233945e-08
C2M950,太和,2014-02-14,23.538372,120.702961,4.05542e-09
C1A630,下盆,2014-02-14,24.771003,121.538622,4.1847215e-08
B2N890,畜產試驗所,2014-02-14,23.058972,120.336406,3.672834e-09
C0UA30,白嶺,2014-02-14,24.527819,121.519031,1.5005735e-08
C1V580,溪南(特生中心),2014-02-14,23.084972,120.788475,6.82573e-09
C1T970,大農,2014-02-14,23.615233,121.413331,8.2499645e-07
E2S960,林試太麻里2,2014-02-14,22.598014,120.989761,0.99208707
C0R650,竹田,2014-02-14,22.58486,120.54344,4.3649857e-09
C1H900,清流,2014-02-14,24.080775,120.962997,1.5879768e-09
C1C510,水尾,2014-02-14,24.940081,121.087161,3.2381803e-07
C0F9X0,大雅(中科園區),2014-02-14,24.21528,120.62445,1.5258438e-07
C0SB60,白守蓮,2014-02-14,23.126769,121.401914,0.06864818
C0O970,虎頭埤,2014-02-14,23.021375,120.347878,2.0658225e-08
C0C730,中大臨海站,2014-02-14,24.966126,121.008581,1.8325597e-06
C0X250,新營,2014-02-14,23.310689,120.316681,6.8349015e-09
C0V700,三民,2014-02-14,22.645017,120.311233,3.896715e-08
C0U870,大礁溪,2014-02-14,24.791042,121.675047,2.3770397e-08
C0E870,高鐵苗栗,2014-02-14,24.60725,120.826094,1.5072993e-07
A2K570,古坑花卉中心,2014-02-14,23.63353,120.55239,2.0896667e-09
C0M860,新美,2014-02-14,23.338017,120.683169,1.9016435e-09
C1E701,八卦,2014-02-14,24.491756,120.927619,8.2444815e-09
C0I420,國姓,2014-02-14,24.037803,120.855072,8.8819885e-10
C2D720,關西工作站,2014-02-14,24.757275,121.184792,1.9421553e-07
C0S960,香蘭,2014-02-14,22.587569,120.993375,0.99208707
C0R260,春日,2014-02-14,22.370361,120.628306,2.4998205e-06
72G600,臺中農改場,2014-02-14,24.003028,120.534389,9.170774e-09
C0Z210,瑞穗,2014-02-14,23.5239,121.39021,2.7160816e-06
C0M820,達邦,2014-02-14,23.453994,120.749517,2.2630566e-09
C0V860,南寮,2014-02-14,22.7616,120.2339,1.0131199e-08
C0G740,大城,2014-02-14,23.852487,120.320935,1.1719171e-07
C0R920,塭仔,2014-02-14,22.4169,120.5197,1.1532554e-07
C0R470,高樹,2014-02-14,22.826389,120.600806,5.1254165e-09
C0R680,佳樂水,2014-02-14,21.993578,120.861633,0.9968399
C1O870,大棟山,2014-02-14,23.31157,120.52226,3.3017526e-09
C0D360,梅花,2014-02-14,24.678347,121.208558,2.415228e-08
C0Z190,富世,2014-02-14,24.14743,121.6297,1.6049832e-07
C0AI10,屈尺,2014-02-14,24.92184,121.54475,2.9249617e-07
B2U990,畜試東區分所,2014-02-14,24.669039,121.832561,3.5775872e-07
C0SB80,長濱漁港,2014-02-14,23.313644,121.459994,4.61511e-07
C0R240,來義,2014-02-14,22.527306,120.625111,8.3212376e-07
C0V910,大樹,2014-02-14,22.684645,120.432803,1.619792e-08
C1R610,西大武山,2014-02-14,22.617719,120.7322,1.6739882e-08
C0G900,線西,2014-02-14,24.143358,120.443536,4.8626606e-07
C0M700,竹崎,2014-02-14,23.526178,120.555508,2.0845274e-09
C2E880,三義,2014-02-14,24.405478,120.749819,3.1183367e-09
C0C720,竹圍,2014-02-14,25.112692,121.239824,2.7413398e-07
C0F9P0,清水,2014-02-14,24.312297,120.562242,5.8916964e-07
C0Z150,吉安光華,2014-02-14,23.930925,121.595153,1.1464265e-06
C1D640,外坪(五指山),2014-02-14,24.644447,121.090961,1.6807837e-08
C0F9O0,潭子,2014-02-14,24.213106,120.703933,9.847967e-09
C2H9R0,卓社,2014-02-14,23.887894,121.000086,2.8359222e-09
72T250,花蓮農改場,2014-02-14,23.975222,121.563889,3.1720464e-07
C0E780,銅鑼,2014-02-14,24.489681,120.790853,1.051607e-08
C1T950,太安,2014-02-14,23.666719,121.370128,2.6601025e-08
C0E830,苑裡,2014-02-14,24.439714,120.653053,4.8722137e-07
467270,田中,2014-02-14,23.873803,120.581286,1.6323956e-09
C0SA10,檳榔四格山,2014-02-14,22.810031,121.109308,2.14634e-06
C1T830,布洛灣,2014-02-14,24.17184,121.57127,1.05593465e-07
C0F970,大坑,2014-02-14,24.173142,120.722289,1.3750633e-07
C1U920,思源,2014-02-14,24.393125,121.347214,1.3465222e-08
C0A931,三和,2014-02-14,25.233153,121.595236,5.0016872e-08
C0I010,廬山,2014-02-14,24.033311,121.181808,3.8404733e-09
C2M940,日野賀,2014-02-14,23.434056,120.727169,3.0786638e-09
C0R860,鼻頭,2014-02-14,22.1043,120.8979,0.9780186
C0UB20,壯圍,2014-02-14,24.7359,121.8163,3.5775872e-07
C0R790,九棚,2014-02-14,22.14195,120.889281,0.9995122
C0W110,東莒,2014-02-14,25.9652,119.98069,0.0005172254
C1U930,粉鳥林,2014-02-14,24.497088,121.842479,4.0415763e-08
C1I211,蘆竹湳,2014-02-14,23.934019,120.811994,1.0378395e-09
C0S830,長濱,2014-02-14,23.286817,121.411975,7.64723e-08
C1F9F1,伯公龍,2014-02-14,24.272392,120.849047,3.00054e-09
C0E810,西湖,2014-02-14,24.562947,120.7485,1.3744392e-07
C1I440,新高口,2014-02-14,23.478744,120.878939,9.249791e-09
C0O840,王爺宮,2014-02-14,23.222064,120.40085,1.1986135e-08
C0T9G0,鳳林山,2014-02-14,23.735269,121.420131,2.1120492e-07
C0X080,佳里,2014-02-14,23.173039,120.145086,1.603234e-08
C0FB70,大甲溪埔,2014-02-14,24.370625,120.620067,4.6076954e-07
C0Z310,清水斷崖,2014-02-14,24.218294,121.689142,2.787791e-07
C0M680,太保,2014-02-14,23.455062,120.331455,1.4225419e-08
C1S820,金峰,2014-02-14,22.590969,120.933236,0.0007588187
C0AD10,八里,2014-02-14,25.150211,121.403947,2.7413398e-07
C2K240,草嶺,2014-02-14,23.59555,120.693461,3.0857301e-09
C1SA70,都蘭,2014-02-14,22.87794,121.226881,4.0549853e-07
C0K440,二崙,2014-02-14,23.772797,120.408944,2.600875e-09
C1A760,坪林交控,2014-02-14,24.94284,121.713442,5.11818e-08
C0F9N0,大里,2014-02-14,24.092464,120.701378,1.939786e-07
C0SA90,達仁林場,2014-02-14,22.264347,120.823972,2.7141938e-05
C1R290,石門山,2014-02-14,22.112611,120.756597,0.99944484
42HA10,萬大發電廠,2014-02-14,23.978875,121.139639,2.4968234e-09
C0R890,山海,2014-02-14,21.9878,120.7091,0.99587125
C0T9A0,月眉山,2014-02-14,23.809928,121.539828,1.4766013e-07
C0AC70,信義,2014-02-14,25.037822,121.564597,3.4940564e-07
C0K560,棋山,2014-02-14,23.68645,120.603417,2.2428985e-09
C2FB50,出雲,2014-02-14,24.206469,120.902794,1.9189506e-09
C1Z240,中平林道,2014-02-14,23.42115,121.26763,3.103013e-08
U2H480,溪頭,2014-02-14,23.670306,120.798194,1.139985e-09
C0M880,好美里,2014-02-14,23.3364,120.138,1.603234e-08
C0T9E0,大坑,2014-02-14,23.880628,121.581981,1.8647233e-07
C0K530,臺西,2014-02-14,23.701547,120.197559,1.2775897e-07
C1E900,國一N128K,2014-02-14,24.560997,120.844186,1.188216e-07
C0AJ50,水湳洞,2014-02-14,25.123695,121.862238,1.2629392e-06
C0AI20,白沙灣,2014-02-14,25.283128,121.519058,3.1784086e-07
C0A860,大坪,2014-02-14,25.165914,121.632969,5.309462e-08
C1U850,觀音海岸,2014-02-14,24.38319,121.77856,3.3728533e-08
C2K610,草嶺石壁,2014-02-14,23.602469,120.707731,3.2082232e-09
C0U950,鶯子嶺,2014-02-14,24.89754,121.79244,2.9565703e-08
C0O900,善化,2014-02-14,23.112883,120.297219,4.653687e-09
C0K550,蔦松,2014-02-14,23.514319,120.229736,1.6000508e-08
E2P980,林試六龜中心,2014-02-14,22.991703,120.645722,1.7390454e-09
C0E590,通霄,2014-02-14,24.471892,120.704622,3.4365087e-07
C1I310,西巒,2014-02-14,23.754486,120.883956,1.7820047e-09
C0A550,泰平,2014-02-14,24.971197,121.823711,3.3469057e-08
C0I360,水里,2014-02-14,23.812553,120.849792,1.1810862e-09
C0R830,高士,2014-02-14,22.121825,120.836781,0.9994311
C1I101,溪頭,2014-02-14,23.661789,120.807647,3.107092e-09
C0AJ20,野柳,2014-02-14,25.20703,121.690021,1.2629392e-06
C0B060,暖暖,2014-02-14,25.0957,121.7403,8.652e-07
C1H920,長豐,2014-02-14,24.102039,120.879897,1.2511501e-09
C0V360,內門,2014-02-14,22.975481,120.466769,3.5938367e-08
C0R850,林邊,2014-02-14,22.4634,120.5339,8.2305796e-08
C0E930,龍鳳,2014-02-14,24.700034,120.859125,1.2971873e-08
C0U910,冬山,2014-02-14,24.63373,121.7937,3.5775906e-07
C1E721,泰安,2014-02-14,24.489017,120.968036,4.2158916e-09
82H320,茶改中部分場,2014-02-14,23.875611,120.913583,7.8227047e-10
C0M750,布袋,2014-02-14,23.380878,120.167789,1.9385853e-08
C1S860,利嘉,2014-02-14,22.809417,121.050528,4.310441e-08
72C440,桃園農改,2014-02-14,24.950944,121.030583,1.2600843e-06
E2S980,林試太麻里1,2014-02-14,22.598922,120.980044,0.4698317
C0X170,關廟,2014-02-14,22.963017,120.327797,6.267538e-09
C0V720,林園,2014-02-14,22.507747,120.394511,3.896715e-08
C1I510,線浸林道,2014-02-14,23.761508,120.832956,1.1083645e-09
C0D690,外湖,2014-02-14,24.917735,120.968711,1.8407975e-06
C0C750,新興坑尾,2014-02-14,25.0061,121.0971,5.067973e-07
B2Q810,畜試南區分所,2014-02-14,21.945583,120.802167,0.9968399
C0S790,金崙,2014-02-14,22.538122,120.966875,0.00016234523
C0AH90,福山植物園,2014-02-14,24.760717,121.58135,4.8173565e-08
C0I540,奇萊稜線,2014-02-14,24.109231,121.326456,2.6017595e-08
C0M850,表湖,2014-02-14,23.24186,120.64166,1.6424144e-09
C0S770,大溪山,2014-02-14,22.478475,120.943325,1.3447714e-06
C0AG80,中和,2014-02-14,24.991622,121.491792,3.4940564e-07
C0T790,大禹嶺,2014-02-14,24.186117,121.316086,1.6939275e-08
C0T9B0,水源,2014-02-14,23.991861,121.537169,1.2640572e-07
C0R840,牡丹池山,2014-02-14,22.168389,120.841225,4.865873e-05
C1I131,桶頭,2014-02-14,23.641944,120.654117,2.085259e-09
CAL110,布袋國中,2014-02-14,23.35893,120.18026,6.2755645e-09
467571,新竹,2014-02-14,24.827853,121.014219,3.5956165e-07
C0Z290,赤柯山,2014-02-14,23.36893,121.38293,3.5399015e-08
C0X280,將軍,2014-02-14,23.214999,120.13577,1.603234e-08
C0S690,太麻里,2014-02-14,22.60902,120.98533,4.188087e-07
C0U880,北關,2014-02-14,24.9072,121.8734,1.1654455e-06
C1H860,瑞岩,2014-02-14,24.123772,121.18345,5.0255724e-09
C0G810,埔心,2014-02-14,23.947633,120.525456,1.2693804e-08
C0U970,大福,2014-02-14,24.80064,121.81389,9.10441e-08
C2H9N0,仁愛東眼,2014-02-14,24.026875,121.1205,2.9937144e-09
C1E670,南礦,2014-02-14,24.538278,121.002836,5.0047575e-09
C0M520,東後寮,2014-02-14,23.369908,120.248065,6.1416485e-09
C1E461,松安,2014-02-14,24.397972,120.986022,3.815481e-09
72G600,臺中農改,2014-02-14,24.003028,120.534389,9.170774e-09
C2N160,西拉雅風管處,2014-02-14,23.189481,120.335297,9.06305e-09
C2M970,碧湖,2014-02-14,23.568632,120.624165,2.7152847e-09
C0A640,石碇,2014-02-14,24.993969,121.662917,6.1118406e-08
E2S960,林試太麻里2,2014-02-14,22.598,120.99775,0.9949769
C0F9Y0,桃山,2014-02-14,24.432739,121.303808,2.421418e-08
C1I020,萬大,2014-02-14,23.979817,121.132261,2.1965112e-09
C0U940,羅東,2014-02-14,24.68184,121.74934,3.5101846e-07
C0M650,朴子,2014-02-14,23.43463,120.23902,1.9036731e-08
C1I500,大尖山,2014-02-14,23.858572,120.994889,6.876825e-09
C0G820,田尾,2014-02-14,23.901669,120.509389,1.2233945e-08
E2K600,四湖植物園,2014-02-14,23.676986,120.163433,1.2760627e-07
C0S730,綠島,2014-02-14,22.6672,121.47533,0.000115664625
12Q970,東港工作站,2014-02-14,22.479997,120.466058,1.03047306e-07
C0E430,南庄,2014-02-14,24.601775,121.000214,5.5383245e-09
C1TA00,太魯閣,2014-02-14,24.15773,121.6236,2.8678681e-07
466920,臺北,2014-02-14,25.037658,121.514853,3.4940564e-07
C0R600,舊泰武,2014-02-14,22.588194,120.664944,2.139945e-08
C1I260,北坑,2014-02-14,23.9246,121.006903,9.728887e-10
466910,鞍部,2014-02-14,25.182586,121.529731,4.250621e-08
C1I230,九份二山,2014-02-14,23.961944,120.845,1.4281906e-09
C2A660,瑞芳,2014-02-14,25.113169,121.801147,8.108047e-08
C0R270,琉球嶼,2014-02-14,22.332244,120.362236,2.4998205e-06
C1T990,高寮,2014-02-14,23.394239,121.356808,2.9057824e-06
C0G620,芬園,2014-02-14,24.015678,120.6213,4.2138177e-09
C1Z140,荖溪,2014-02-14,23.890575,121.45964,3.2107412e-08
C1I201,中心崙,2014-02-14,23.728722,120.712097,1.7351225e-09
C1I400,凌霄,2014-02-14,24.018778,121.004456,2.9081675e-09
C1M640,十字,2014-02-14,23.492153,120.753683,3.2188638e-09
G2P820,農試鳳山分所,2014-02-14,22.646611,120.356083,2.99254e-08
C0Z270,蕃薯寮,2014-02-14,23.73835,121.540108,8.959915e-07
C0F9Q0,外埔,2014-02-14,24.347817,120.705686,1.6046535e-08
C0K580,高鐵雲林,2014-02-14,23.737456,120.417944,2.2597528e-09
C2I090,鳳凰,2014-02-14,23.728081,120.787347,8.193669e-10
C0U990,員山,2014-02-14,24.74435,121.72247,3.5101846e-07
C0V770,大社,2014-02-14,22.730306,120.346639,2.9928255e-08
C0X120,麻豆,2014-02-14,23.183289,120.248611,1.5249864e-08
C0C670,龍潭,2014-02-14,24.870056,121.221389,5.2066685e-08
C0D680,香山濕地,2014-02-14,24.783581,120.914988,3.4324538e-07
C0S980,勝林山,2014-02-14,22.430439,120.8938,8.333017e-08
C0V730,大寮,2014-02-14,22.605614,120.395717,3.9236068e-09
C0R570,麟洛,2014-02-14,22.65078,120.52719,1.2749807e-08
C2M930,石卓,2014-02-14,23.478744,120.702264,3.1454748e-09
C0G9B0,和美,2014-02-14,24.105169,120.492131,1.0115231e-08
CAG100,王功漁港,2014-02-14,23.96824,120.32586,7.0281274e-08
C0X290,北門,2014-02-14,23.267772,120.125481,1.603234e-08
C2F930,大甲,2014-02-14,24.347667,120.640403,3.3285716e-07
C0D650,湖口,2014-02-14,24.904794,121.043628,8.698372e-07
C0E420,竹南,2014-02-14,24.708978,120.888897,2.9334177e-07
C0U780,五結,2014-02-14,24.68637,121.79794,3.5775872e-07
C1I250,鯉潭,2014-02-14,23.961922,120.991131,1.2511501e-09
C0R130,阿禮,2014-02-14,22.742908,120.743678,3.560573e-09
C0X100,臺南市北區,2014-02-14,23.010394,120.194228,1.29366144e-08
C0S920,金峰嘉蘭,2014-02-14,22.594789,120.960825,0.3043764
C0V490,新興,2014-02-14,22.627422,120.298803,3.896715e-08
C0F9K0,大安,2014-02-14,24.345061,120.588025,5.316136e-07
72N100,臺南農改,2014-02-14,23.0605,120.342194,3.672834e-09
467290,古坑,2014-02-14,23.633639,120.551889,2.0896667e-09
C2E970,八甲,2014-02-14,24.535811,120.795983,1.0381963e-08
C0V440,鳳山,2014-02-14,22.646653,120.356122,2.99254e-08
C1T940,大觀,2014-02-14,23.714206,121.373133,3.257303e-07
72T250,花蓮農改,2014-02-14,23.975222,121.563889,3.1720464e-07
C0E740,造橋,2014-02-14,24.637056,120.864778,1.2691819e-08
C0R100,尾寮山,2014-02-14,22.833111,120.683889,3.3246859e-09
A2K630,臺大雲林校區,2014-02-14,23.730628,120.423903,2.2597528e-09
C0D580,寶山,2014-02-14,24.735006,121.025192,4.9440473e-08
E2P990,林試扇平站,2014-02-14,22.9677,120.6857,1.0006428e-08
C0AI30,三重,2014-02-14,25.057328,121.500629,2.2415658e-07
C0AH00,汐止,2014-02-14,25.066881,121.658778,1.2629392e-06
C1Z040,立山,2014-02-14,23.443356,121.327375,3.1042478e-07
C0W130,花嶼,2014-02-14,23.40007,119.32276,0.99722826
C0A950,鼻頭角,2014-02-14,25.129036,121.923372,1.03298404e-07
C0K470,林內,2014-02-14,23.748675,120.609642,2.1817843e-09
C2F990,摩天嶺,2014-02-14,24.322458,120.936819,2.9963765e-09
82C160,茶改場,2014-02-14,24.908472,121.185333,1.7238278e-07
C0Z320,清水林道,2014-02-14,23.27125,121.188272,5.383003e-08
C0R760,南仁湖,2014-02-14,22.084681,120.863353,0.99945027
C0M670,大林,2014-02-14,23.600616,120.45841,1.6872889e-07
C0M800,茶山,2014-02-14,23.299075,120.664767,1.5090195e-09
C0A9C0,天母,2014-02-14,25.117494,121.537169,2.1242704e-07
72K220,南改斗南分場,2014-02-14,23.634556,120.477333,2.2394788e-09
72AI40,桃改樹林分場,2014-02-14,24.944503,121.386972,2.0321669e-07
C0S910,蘭嶼燈塔,2014-02-14,22.081197,121.503117,0.99586403
C0B050,八斗子,2014-02-14,25.144754,121.79167,1.4366166e-06
C0U900,內城,2014-02-14,24.71813,121.68766,8.185929e-08
C0X320,柳營,2014-02-14,23.253328,120.375253,1.9067983e-08
C0M790,新港,2014-02-14,23.553269,120.345728,1.2803054e-08
C0F9T0,西屯,2014-02-14,24.179494,120.641275,2.1969777e-07
C0SA30,都歷,2014-02-14,23.020333,121.323642,0.0004938431
C0C620,蘆竹,2014-02-14,25.084275,121.265767,2.565367e-07
C0R730,大坪頂,2014-02-14,22.024633,120.69355,0.99919
C0AJ40,石門,2014-02-14,25.273672,121.601198,2.1413786e-07
C0E750,苗栗,2014-02-14,24.564569,120.824575,1.2517789e-07
C0T870,鯉魚潭,2014-02-14,23.935639,121.508944,5.115882e-07
C1V170,排雲,2014-02-14,23.463619,120.954147,2.3830138e-08
C2H950,中寮,2014-02-14,23.884447,120.766406,1.2228527e-09
C0R350,貓鼻頭,2014-02-14,21.921774,120.7358,0.99754167
C0V660,岡山,2014-02-14,22.797078,120.294958,1.2971947e-08
C1H941,雙冬,2014-02-14,23.967378,120.802189,9.85954e-10
C0AJ70,田寮,2014-02-14,25.2698,121.4886,3.2851366e-07
C0AI00,五股,2014-02-14,25.07445,121.42728,5.811633e-07
C0Z280,德武,2014-02-14,23.47426,121.41071,1.1704947e-06
C0R700,枋山,2014-02-14,22.246844,120.661086,6.406948e-05
C0C460,復興,2014-02-14,24.820208,121.352281,4.2511235e-08
E2H360,蓮華池,2014-02-14,23.918333,120.885278,8.5628e-10
C0M640,中埔,2014-02-14,23.42538,120.5229,1.9323345e-09
C0W140,金沙,2014-02-14,24.488292,118.408778,3.2612594e-08
C2A540,四堵,2014-02-14,24.8926,121.745736,7.5073046e-08
C0ACA0,新莊,2014-02-14,25.051478,121.446756,3.6145465e-07
C0R220,潮州,2014-02-14,22.534361,120.54,1.501796e-08
U2HA40,臺大內茅埔,2014-02-14,23.689722,120.851117,8.3238116e-10
467490,臺中,2014-02-14,24.145736,120.684075,1.4117428e-07
C0U960,翠峰湖,2014-02-14,24.510856,121.608044,1.8643584e-08
E2HA20,林試畢祿溪站,2014-02-14,24.226944,121.308522,9.124417e-09
C0V890,前鎮,2014-02-14,22.5718,120.3117,4.47862e-08
467620,蘭嶼,2014-02-14,22.036969,121.558339,0.99328667
C1F941,雪嶺,2014-02-14,24.280586,121.026642,1.4252061e-08
C2H9E0,國姓南港,2014-02-14,23.911108,120.846556,1.5030389e-09
C0AC80,文山,2014-02-14,25.00235,121.575728,2.9249617e-07
C0F9R0,龍井,2014-02-14,24.184536,120.528972,4.652518e-07
C0M760,民雄,2014-02-14,23.551754,120.428457,8.7987516e-08
C0UA40,西德山,2014-02-14,24.560647,121.752608,2.262734e-08
C1T920,中興,2014-02-14,23.769503,121.498653,7.494213e-07
C0D550,雪霸,2014-02-14,24.526972,121.11605,9.001324e-09
C2F860,梨山,2014-02-14,24.247522,121.243669,9.414344e-09
C0R320,車城,2014-02-14,22.0744,120.716247,0.99587125
C1S870,南美山,2014-02-14,23.15025,121.382333,2.6549205e-06
C0B020,基隆嶼,2014-02-14,25.19141,121.78391,1.2629392e-06
C1U501,牛鬥,2014-02-14,24.637836,121.573656,5.3373032e-08
C0M730,嘉義市東區,2014-02-14,23.457673,120.460531,1.8234913e-07
C0S700,知本,2014-02-14,22.684866,121.005642,5.55854e-07
C1N001,沙崙,2014-02-14,22.935472,120.309406,1.4336361e-08
C0V760,橋頭,2014-02-14,22.757806,120.30575,1.1606397e-08
C0G960,福寶,2014-02-14,24.0443,120.3814,1.1745808e-08
C0X210,白河,2014-02-14,23.347466,120.414427,1.7527093e-08
C0S810,東河,2014-02-14,22.972672,121.303986,4.710203e-07
C2R170,屏東,2014-02-14,22.66027,120.49403,1.381394e-08
C0R670,楓港,2014-02-14,22.190131,120.692156,6.406948e-05
C0FA50,霧峰,2014-02-14,24.0419,120.6995,1.3154849e-07
C0UB10,蘇澳,2014-02-14,24.5969,121.8571,1.1652794e-07
C0G950,防潮門,2014-02-14,24.1835,120.4871,5.01192e-07
C0M740,六腳,2014-02-14,23.492871,120.290625,1.5046231e-08
C1R250,力里,2014-02-14,22.428117,120.629228,7.1352576e-07
C0K330,虎尾,2014-02-14,23.719183,120.442036,2.2541908e-09
C2FA00,烏石坑,2014-02-14,24.273503,120.947617,2.9764968e-09
C0V620,永安,2014-02-14,22.82315,120.236856,9.256286e-09
C1I330,楓樹林,2014-02-14,23.986803,121.076117,2.7172429e-09
C0W200,湖西,2014-02-14,23.596314,119.67275,0.97852576
72Q010,高雄農改場,2014-02-14,22.709333,120.525889,1.1553873e-08
C0SA40,瑞和,2014-02-14,22.974361,121.156697,8.4658195e-06
C0C680,龜山,2014-02-14,25.02846,121.38656,2.0354248e-08
C2V260,月眉,2014-02-14,22.971003,120.539853,1.2542897e-09
C0V450,鳳森,2014-02-14,22.545064,120.392592,2.7824818e-09
C0U720,南山,2014-02-14,24.43742,121.38167,1.628652e-08
A2N290,臺南蘭花園區,2014-02-14,23.340258,120.379661,1.9107448e-08
C0R560,新園,2014-02-14,22.5434,120.461558,8.2305796e-08
C0U890,三星,2014-02-14,24.66812,121.65302,7.397882e-08
C1V300,御油山,2014-02-14,23.001983,120.715364,6.7142953e-09
C0U600,礁溪,2014-02-14,24.817539,121.765608,8.761858e-08
C1T980,龍澗,2014-02-14,24.023289,121.411328,2.1185667e-08
C0D670,海天一線,2014-02-14,24.831986,120.914438,3.6169533e-07
C0SA00,歷坵,2014-02-14,22.520969,120.89185,5.026606e-07
C0M710,東石,2014-02-14,23.458927,120.15385,1.6000508e-08
C0M780,鹿草,2014-02-14,23.41134,120.30835,1.5235559e-08
C0U520,雙連埤,2014-02-14,24.753033,121.641303,2.36313e-08
C0B010,七堵,2014-02-14,25.094819,121.71713,1.1183978e-06
C0R480,長治,2014-02-14,22.693128,120.542622,2.2803233e-09
C1V830,國三S383K,2014-02-14,22.781967,120.426475,1.3318676e-09
12Q980,恆春工作站,2014-02-14,22.079678,120.714425,0.99587125
C1O940,東山服務區,2014-02-14,23.286016,120.398472,1.6835944e-08
C1U840,東澳嶺,2014-02-14,24.5378,121.8485,3.2031746e-08
C1D630,飛鳳山,2014-02-14,24.766464,121.119178,3.2219923e-08
C0S940,石寧山,2014-02-14,23.223772,121.406639,1.2412217e-07
C0K410,北港,2014-02-14,23.573957,120.292802,1.34305695e-08
C2M620,瑞里,2014-02-14,23.545133,120.675197,3.5977166e-09
C0SB70,小港漁港,2014-02-14,23.158558,121.400431,2.2862717e-07
C2O950,安南,2014-02-14,23.076694,120.144861,9.204544e-09
C0F0E0,南湖圈谷,2014-02-14,24.363714,121.444667,4.1993456e-08
467610,成功,2014-02-14,23.097486,121.373428,0.009437988
C0G890,伸港,2014-02-14,24.148933,120.484403,4.3162825e-07
C2E540,龍溪,2014-02-14,24.606489,120.783933,1.5984698e-07
C1V200,梅山,2014-02-14,23.268447,120.823556,3.244246e-09
C0T9H0,加路蘭山,2014-02-14,23.682947,121.5274,1.4339581e-07
C2O930,玉井,2014-02-14,23.126042,120.46055,3.0046824e-08
C1F911,新伯公,2014-02-14,24.221361,120.841069,2.2496123e-09
C0R490,九如,2014-02-14,22.7405,120.490503,1.2749807e-08
C0X200,左鎮,2014-02-14,23.056758,120.408522,9.336058e-09
C0SB50,叭嗡嗡,2014-02-14,23.047062,121.343223,7.1383613e-07
C1F891,稍來,2014-02-14,24.265689,121.001142,9.716448e-09
72N240,七股研究中心,2014-02-14,23.081672,120.062894,5.770065e-08
C0C700,中壢,2014-02-14,24.977661,121.256375,3.3335365e-07
C0M690,水上,2014-02-14,23.419734,120.388909,1.3343137e-07
C0V690,鼓山,2014-02-14,22.623325,120.275575,3.896715e-08
C0O860,大內,2014-02-14,23.11885,120.36083,2.9419542e-09
C0Z200,萬榮,2014-02-14,23.709219,121.420106,5.115882e-07
C0T9D0,和中,2014-02-14,24.26676,121.74103,5.8527866e-07
C1O921,楠西,2014-02-14,23.183511,120.484083,1.8930965e-08
C0AJ30,淡水觀海,2014-02-14,25.184591,121.408616,2.7874881e-07
C0V810,左營,2014-02-14,22.67491,120.28491,3.4654068e-08
C0UA70,桃源谷,2014-02-14,24.962606,121.888875,3.1756176e-08
C0X130,官田,2014-02-14,23.193217,120.315422,9.4384e-09
C1H000,翠峰,2014-02-14,24.109397,121.205211,1.251332e-08
C0UA90,石城,2014-02-14,24.980444,121.951214,1.11535094e-07
C1E681,南勢山,2014-02-14,24.421669,120.923831,3.5081607e-09
C0A9F0,內湖,2014-02-14,25.079422,121.57545,3.4940564e-07
C0K291,宜梧,2014-02-14,23.536281,120.169329,1.7184089e-08
C1K540,口湖,2014-02-14,23.585344,120.180517,1.6807709e-08
C0R780,滿州,2014-02-14,22.024403,120.839892,0.9978191
C0V870,文安,2014-02-14,22.8025,120.2164,1.0131199e-08
C0U650,玉蘭,2014-02-14,24.675286,121.587061,4.5700027e-08
C0R640,東港,2014-02-14,22.46247,120.44074,4.47862e-08
K2E360,苗栗農改,2014-02-14,24.495722,120.829111,1.1703541e-08
C0AJ80,板橋,2014-02-14,25.0107,121.4489,2.1387599e-07
C0S660,下馬,2014-02-14,23.150427,121.070312,4.2124697e-08
C1H9B1,阿眉,2014-02-14,24.1263,120.994672,5.8861787e-09
C0UA20,多加屯,2014-02-14,24.368614,121.373189,1.5790375e-08
C0E730,頭份,2014-02-14,24.688247,120.912206,2.9334177e-07
72V140,高改旗南分場,2014-02-14,22.857861,120.516667,1.9311701e-09
C0K480,莿桐,2014-02-14,23.761192,120.502372,2.2207842e-09
C0U980,坪林石牌,2014-02-14,24.86478,121.77396,4.5317325e-08
C0T900,西林,2014-02-14,23.8119,121.441458,4.1889817e-07
C1I150,青雲,2014-02-14,23.793361,120.949378,9.464806e-10
467350,澎湖,2014-02-14,23.565503,119.563094,0.99634105
C0G800,埔鹽,2014-02-14,24.000394,120.431683,1.1174757e-08
C0H960,草屯,2014-02-14,23.973672,120.68085,1.0299456e-09
C1V780,多納林道,2014-02-14,22.888028,120.737917,3.4460332e-09
C0E920,通霄漁港,2014-02-14,24.498589,120.673876,4.4192933e-07
C0Z330,安通山,2014-02-14,23.290728,121.348528,6.9424594e-08
C0AH10,永和,2014-02-14,25.01125,121.508111,3.5810862e-07
C0AK10,太平里,2014-02-14,25.134937,121.364899,3.6145465e-07
C2G640,鹿港,2014-02-14,24.0753,120.430481,1.1174757e-08
C1E890,國三N149K,2014-02-14,24.463414,120.680019,3.1136466e-07
C1R110,口社,2014-02-14,22.770111,120.645222,3.955089e-09
C1M870,國三N285K,2014-02-14,23.550319,120.505833,2.1858038e-09
467050,新屋,2014-02-14,25.006744,121.047486,1.5526299e-06
C1E480,鳳美,2014-02-14,24.554803,121.034747,3.4037817e-09
C0M530,奮起湖,2014-02-14,23.493903,120.699253,4.061992e-09
C0C590,觀音,2014-02-14,25.027072,121.153317,1.0543166e-07
C0T9M0,靜浦,2014-02-14,23.455167,121.495028,4.0888385e-06
C2H9M0,發祥,2014-02-14,24.154094,121.164517,2.5972067e-09
C0AI40,石牌,2014-02-14,25.115597,121.513139,2.1387599e-07
C1F871,上谷關,2014-02-14,24.203483,121.018644,2.9764968e-09
C2H9G0,百勝,2014-02-14,24.051142,120.909361,2.378635e-09
C0G880,二水,2014-02-14,23.810742,120.6173,1.8337035e-09
C0R940,加祿堂,2014-02-14,22.3363,120.6217,1.7338538e-05
C0W220,北竿,2014-02-14,26.220358,119.974881,2.084099e-08
C0O960,崎頂,2014-02-14,22.959547,120.369317,1.0964404e-09
C0S750,向陽,2014-02-14,23.248397,120.986133,1.1382256e-08
C0T9F0,水璉,2014-02-14,23.797131,121.542514,2.8746453e-07
C1M600,頭凍,2014-02-14,23.406364,120.603339,2.1715918e-09
467660,臺東,2014-02-14,22.752211,121.154586,0.00017656964
C1D380,新埔,2014-02-14,24.84745,121.03834,2.6825194e-07
C2G980,田頭村,2014-02-14,23.8263,120.444175,2.600875e-09
C0V750,路竹,2014-02-14,22.854997,120.259439,6.5503825e-09
C0N050,蚵寮,2014-02-14,23.301,120.1104,6.9804344e-08
72M700,南改鹿草分場,2014-02-14,23.416869,120.283061,1.7050816e-08
C1SA50,利嘉林道,2014-02-14,22.82325,121.009389,1.1477525e-08
467550,玉山,2014-02-14,23.487614,120.959522,2.6697602e-08
C0A940,金山,2014-02-14,25.223628,121.643967,3.1742735e-07
C1V340,大津,2014-02-14,22.888322,120.645986,3.4421839e-09
C0W180,七美,2014-02-14,23.219333,119.444892,0.9936402
C1F9C1,白冷,2014-02-14,24.182844,120.929889,1.3787531e-09
K2E710,苗改生物防治研究中心,2014-02-14,24.422861,120.871833,9.313026e-09
C0N040,蘆竹溝,2014-02-14,23.2344,120.0961,6.9804344e-08
C2W230,畜試所澎湖,2014-02-14,23.628342,119.513206,0.9955692
C0R880,後壁湖,2014-02-14,21.9457,120.7457,0.99524856
C1I280,埔中,2014-02-14,23.820778,120.642594,1.3604542e-09
467790,墾丁雷達站,2014-02-14,21.948235,120.808028,0.99805015
C0W190,望安,2014-02-14,23.380564,119.494075,0.99584335
466881,新北,2014-02-14,24.9593,121.52,3.2378253e-07
C0Z170,卓溪,2014-02-14,23.3443,121.3029,1.7909473e-07
C0F850,東勢,2014-02-14,24.246428,120.833047,2.1974664e-09
466900,淡水,2014-02-14,25.164889,121.448906,2.738852e-07
C0I370,魚池,2014-02-14,23.895703,120.94135,8.3689433e-10
C0C630,大溪,2014-02-14,24.882853,121.265547,3.0955445e-07
C0A520,山佳,2014-02-14,24.974944,121.402008,2.0321669e-07
C0I110,竹山,2014-02-14,23.761225,120.688156,1.1810186e-09
82H840,茶改南部分場,2014-02-14,23.762528,120.7405,8.886987e-10
C0G660,溪湖,2014-02-14,23.94835,120.479122,1.3539367e-08
C1T800,洛韶,2014-02-14,24.204558,121.453956,2.422148e-08
C1T810,慈恩,2014-02-14,24.192044,121.388386,1.5384074e-08
C1E451,象鼻,2014-02-14,24.368617,120.940228,3.5065282e-09
C0AC60,三峽,2014-02-14,24.939025,121.369728,3.1090119e-07
C0I490,萬大林道,2014-02-14,23.928228,121.091411,5.398783e-09
C1I290,豐丘,2014-02-14,23.668178,120.887417,1.1083645e-09
C1I320,奧萬大,2014-02-14,23.952956,121.178556,2.7370088e-09
C2M910,嘉義大學,2014-02-14,23.471325,120.485903,2.1036832e-09
C0U770,南澳,2014-02-14,24.44935,121.81022,6.130954e-08
C0A980,社子,2014-02-14,25.109508,121.469681,2.25813e-07
C0V800,六龜,2014-02-14,22.997889,120.633583,1.800433e-09
C1G9D0,國一S218K,2014-02-14,23.890641,120.493253,1.2693804e-08
C0E570,白沙屯,2014-02-14,24.549447,120.696803,4.4192933e-07
C2F9A0,中竹林,2014-02-14,24.103556,120.751061,1.4069875e-09
C0FA40,臺中電廠,2014-02-14,24.2146,120.4907,4.652518e-07
C2G9A0,畜試所彰化,2014-02-14,23.86045,120.557964,1.6323956e-09
C0H9C0,合歡山,2014-02-14,24.143442,121.272547,2.869796e-08
C0X060,下營,2014-02-14,23.22695,120.256261,1.05351825e-08
G2M350,農試溪口農場,2014-02-14,23.58565,120.408111,1.0020163e-07
C0U860,頭城,2014-02-14,24.85323,121.8308,8.807415e-08
C0R580,南州,2014-02-14,22.48591,120.50274,1.030475e-07
C0D430,峨眉,2014-02-14,24.6905,121.017189,2.610586e-07
C0G780,秀水,2014-02-14,24.03405,120.503869,9.430375e-09
72N100,臺南農改場,2014-02-14,23.0605,120.342194,3.672834e-09
C0S900,蘭嶼高中,2014-02-14,22.04909,121.51214,0.9879266
467540,大武,2014-02-14,22.355675,120.903789,0.99096173
C1F9W0,德基,2014-02-14,24.254783,121.190261,6.7091106e-09
C1Z120,壽豐,2014-02-14,23.870853,121.508081,9.857185e-07
C0W160,烏坵,2014-02-14,24.9944,119.44956,0.63226503
C1I240,外大坪,2014-02-14,23.958697,120.917931,1.278838e-09
C1I550,國六W023K,2014-02-14,23.979067,120.867742,9.548833e-10
C0R870,興海,2014-02-14,21.9752,120.8439,0.9968399
C0R140,瑪家,2014-02-14,22.682903,120.686639,1.05126805e-08
C0A530,坪林,2014-02-14,24.938183,121.70975,5.2019633e-08
C0X260,後壁,2014-02-14,23.366358,120.362326,4.096733e-09
C0Z230,和平,2014-02-14,24.30717,121.77007,5.8527866e-07
C0G770,福興,2014-02-14,24.041289,120.437669,1.1174757e-08
C0H9A0,神木村,2014-02-14,23.532742,120.843667,3.8386863e-09
C0I460,南投,2014-02-14,23.911469,120.687331,1.1316292e-09
C0I480,梅峰,2014-02-14,24.085272,121.173572,8.8309955e-09
C1V570,吉東,2014-02-14,22.85422,120.5454,1.7998699e-09
C2D740,屯原,2014-02-14,24.067969,121.209389,8.699856e-09
C2A560,福山,2014-02-14,24.776203,121.502811,2.0258351e-08
C0AH30,五分山,2014-02-14,25.07125,121.780794,3.4138743e-08
C0FA10,松柏,2014-02-14,24.429115,120.617482,5.644109e-07
72S200,東改班鳩分場,2014-02-14,22.829528,121.077694,2.2107764e-05
72HA00,中改埔里分場,2014-02-14,23.903208,120.963364,8.098364e-10
C2H9W0,大坪頂農水,2014-02-14,24.043122,120.932781,1.2608187e-09
C0C650,平鎮,2014-02-14,24.897503,121.214636,1.7228483e-07
C0S930,延平,2014-02-14,22.902581,121.084058,3.427207e-07
C0UA60,樟樹山,2014-02-14,24.41393,121.78325,6.184298e-08
C1S670,摩天,2014-02-14,23.199503,121.027,1.4157775e-08
C0V630,茄萣,2014-02-14,22.906642,120.182608,3.0478283e-08
466940,基隆,2014-02-14,25.133314,121.740475,1.387672e-06
C0X050,東河,2014-02-14,23.296598,120.385608,1.9067983e-08
C0R770,保力,2014-02-14,22.071122,120.764111,0.99844944
G2L020,農試嘉義分所,2014-02-14,23.485028,120.473806,2.0972493e-09
C0X240,關子嶺,2014-02-14,23.331169,120.508025,1.6214479e-09
C0I380,集集,2014-02-14,23.828206,120.801467,1.17272e-09
466990,花蓮,2014-02-14,23.975128,121.613275,3.5759058e-07
C1V220,小關山,2014-02-14,23.154217,120.813603,7.769253e-09
C1F9G1,慶福山,2014-02-14,24.180853,120.848378,2.18635e-09
C0Z250,瑞穗林道,2014-02-14,23.49284,121.30688,3.2186875e-08
C0D590,新豐,2014-02-14,24.87068,120.97721,5.4000424e-08
C0A870,五指山,2014-02-14,25.132153,121.608692,5.099393e-08
C0UA50,西帽山,2014-02-14,24.555361,121.802628,3.0599846e-08
C0X160,仁德,2014-02-14,22.968258,120.257689,8.606047e-09
C1H971,六分寮,2014-02-14,23.92507,120.6378,1.5505376e-09
C0W120,西嶼,2014-02-14,23.5626,119.468436,0.99634105
C0G650,員林,2014-02-14,23.946503,120.585597,8.236764e-09
C0AD50,鶯歌,2014-02-14,24.951533,121.346294,1.38858e-07
C2H9Q0,北東眼山,2014-02-14,24.120939,121.189303,8.453301e-09
C2H9T0,名間竹圍,2014-02-14,23.859914,120.637572,1.2343775e-09
C0S990,山豬窟,2014-02-14,22.318619,120.857372,0.006068467
72Q010,高雄農改,2014-02-14,22.709333,120.525889,1.1553873e-08
C0X190,安平,2014-02-14,22.993161,120.152181,1.29366144e-08
C0K400,斗六,2014-02-14,23.720583,120.541127,2.389339e-09
12J990,口湖工作站,2014-02-14,23.589978,120.180394,1.646942e-08
C0O830,北寮,2014-02-14,23.079561,120.495008,1.1939058e-09
C1D410,白蘭,2014-02-14,24.579364,121.079947,6.2752172e-09
C0S970,加津林,2014-02-14,22.416211,120.926942,0.9930264
C0D700,關西,2014-02-14,24.7977,121.1732,2.0658132e-07
C0M810,里佳,2014-02-14,23.389125,120.716647,4.061992e-09
C0U750,龜山島,2014-02-14,24.841667,121.953133,4.144702e-08
C0R810,內獅,2014-02-14,22.305064,120.642986,1.7338505e-05
C1M390,龍美,2014-02-14,23.406728,120.654417,3.0451652e-09
C2FB60,頭櫃山,2014-02-14,24.129842,120.858925,2.0285214e-09
C1H840,國三N238K,2014-02-14,23.841008,120.707711,1.1836548e-09
CAQ030,崎峰國小,2014-02-14,22.42565,120.49521,1.03047306e-07
C2E520,大湖,2014-02-14,24.414939,120.870872,5.399404e-08
467530,阿里山,2014-02-14,23.508208,120.813242,9.144871e-09
C1E691,南湖,2014-02-14,24.40135,120.837533,3.5175811e-09
C0FA30,梧棲,2014-02-14,24.256003,120.523381,4.652518e-07
C1V231,高中,2014-02-14,23.134911,120.716711,1.748271e-09
C0F9V0,新社,2014-02-14,24.200172,120.815806,2.4999256e-09
C0H890,埔里,2014-02-14,23.972169,120.952425,1.2882291e-09
C0R690,墾丁,2014-02-14,21.966756,120.810269,0.99949837
C0F0D0,審馬陣,2014-02-14,24.381675,121.4203,2.3966475e-08
C0R820,白鷺,2014-02-14,22.454275,120.666219,7.100686e-08
U2H480,臺大溪頭,2014-02-14,23.670306,120.798194,1.139985e-09
C1V190,南天池,2014-02-14,23.27403,120.91176,1.2884361e-08
K2E360,苗栗農改場,2014-02-14,24.495722,120.829111,1.1703541e-08
CAJ050,海口故事園區,2014-02-14,23.57543,120.14121,1.6807709e-08
C2H9D0,三隻寮,2014-02-14,24.093078,120.861578,1.289628e-09
C0O990,媽廟,2014-02-14,22.99175,120.293525,7.965474e-09
C0D480,打鐵坑,2014-02-14,24.849664,121.150789,4.8996068e-08
C0Z220,和平林道,2014-02-14,24.343922,121.656317,6.172337e-08
C0TA10,花蓮漁港,2014-02-14,23.995322,121.638331,3.7238468e-07
72C440,桃園農改場,2014-02-14,24.950944,121.030583,1.2600843e-06
C1E711,馬拉邦山,2014-02-14,24.367306,120.901656,4.5697917e-09
C0SB20,富岡,2014-02-14,22.792467,121.192669,0.00013708041
C0D560,竹東,2014-02-14,24.767147,121.057881,2.0603731e-07
C0F9U0,南屯,2014-02-14,24.137006,120.637969,1.939786e-07
C0M720,番路,2014-02-14,23.464657,120.554156,1.9026305e-09
C0F0A0,雪山圈谷,2014-02-14,24.388594,121.236339,3.006448e-08
C1A9N0,四十份,2014-02-14,24.934158,121.593283,5.1645145e-08
C0U760,東澳,2014-02-14,24.52196,121.83318,3.922606e-08
C0X230,鹽水,2014-02-14,23.272621,120.247641,8.517001e-09
C2H9H0,苗改南投蜂場,2014-02-14,23.852589,120.693481,1.1826596e-09
C0R950,萬隆國小,2014-02-14,22.507667,120.587817,3.5013554e-09
C0V370,古亭坑,2014-02-14,22.893178,120.401947,3.0529424e-08
C1I340,新興橋,2014-02-14,23.563333,120.868728,1.2013319e-09
C0SA80,土坂,2014-02-14,22.453108,120.887572,0.015905079
C0R160,鹽埔,2014-02-14,22.739558,120.530778,2.3991251e-09
C0AC40,大屯山,2014-02-14,25.175675,121.522408,4.1541995e-08
466850,五分山雷達站,2014-02-14,25.071182,121.781205,3.3827877e-08
C2H9L0,馬烈霸,2014-02-14,24.1512,121.201772,8.289404e-09
C1AI50,國三N016K,2014-02-14,25.034164,121.619664,3.038979e-07
C1V600,藤枝,2014-02-14,23.071961,120.757042,6.2658883e-09
C1E601,南勢,2014-02-14,24.572486,120.734842,2.0139804e-08
C0Z180,新城,2014-02-14,24.03946,121.60454,3.302224e-07
C0O980,新市,2014-02-14,23.061614,120.298197,4.653687e-09
C0K420,西螺,2014-02-14,23.800407,120.467394,2.2132403e-09
C0Z050,佳心,2014-02-14,23.34567,121.21316,3.890091e-08
C0AD30,蘆洲,2014-02-14,25.086594,121.472331,2.2415658e-07
C0V610,梓官,2014-02-14,22.760558,120.267211,1.2971947e-08
K2F750,種苗改良場,2014-02-14,24.225972,120.800917,2.338883e-09
C0UA80,大溪漁港,2014-02-14,24.941801,121.902955,8.761858e-08
C1AI60,國一39K邊坡,2014-02-14,25.064361,121.383836,4.5457654e-08
C0W150,金寧,2014-02-14,24.457703,118.328989,3.2325428e-08
C0R960,內埔,2014-02-14,22.608483,120.570714,4.009549e-09
V2C250,八德合作社,2014-02-14,24.93775,121.266389,2.1783906e-07
C2H9S0,龍南,2014-02-14,23.953536,120.833183,2.368598e-09
C0AH40,平等,2014-02-14,25.129142,121.577086,6.13334e-08
C0R540,佳冬,2014-02-14,22.419456,120.552375,1.03047306e-07
466950,彭佳嶼,2014-02-14,25.627975,122.079744,3.6317688e-05
C0A890,雙溪,2014-02-14,25.036003,121.864242,9.9496e-07
C0C480,桃園,2014-02-14,24.992425,121.323172,3.7879542e-07
C0AH50,林口,2014-02-14,25.072181,121.38084,6.117754e-08
A2K360,水試臺西試驗場,2014-02-14,23.717231,120.190522,1.3273156e-07
B2N890,畜試所,2014-02-14,23.058972,120.336406,3.672834e-09
C2M960,外寮,2014-02-14,23.562643,120.665688,2.8699314e-09
C0F9S0,烏日,2014-02-14,24.107058,120.624103,7.4163293e-09
C0C490,八德,2014-02-14,24.928708,121.283289,3.6938602e-07
C0R190,赤山,2014-02-14,22.592333,120.614306,3.7901744e-09
C0T820,天祥,2014-02-14,24.179597,121.495639,7.0108165e-08
C1F9E1,龍安,2014-02-14,24.1605,120.831961,2.5928015e-09
C0V820,小林,2014-02-14,23.148408,120.63325,1.3781379e-09
C2G870,芳苑,2014-02-14,23.922303,120.320025,1.2504701e-07
C0E850,大河,2014-02-14,24.618069,120.948578,1.0423671e-08
C1U670,寒溪,2014-02-14,24.634,121.71691,2.1745922e-07
C0N020,城西,2014-02-14,23.0568,120.0956,5.0518597e-08
C1Z110,三棧,2014-02-14,24.11557,121.60501,1.3371543e-07
C0R280,檳榔,2014-02-14,22.076078,120.836777,0.9994641
C2H9J0,中台,2014-02-14,23.9996,120.938739,1.214545e-09
C0F9L0,后里,2014-02-14,24.310436,120.729725,1.2915067e-08
C0D540,橫山,2014-02-14,24.71116,121.11693,4.104862e-08
C1D420,太閣南,2014-02-14,24.632808,121.160575,1.247926e-08
C1E770,公館,2014-02-14,24.526914,120.830806,2.8213927e-07
CAN130,水試所海水繁養殖中心,2014-02-14,23.120802,120.07968,5.770065e-08
C1I430,翠華,2014-02-14,24.191961,121.224339,1.2004964e-08
C1M400,菜瓜坪,2014-02-14,23.251928,120.576103,1.5105343e-09
C0G730,二林,2014-02-14,23.903325,120.376081,1.5523582e-08
72M360,南改義竹分場,2014-02-14,23.360694,120.279361,5.6396465e-09
V2K620,麥寮合作社,2014-02-14,23.753836,120.294783,1.02706466e-07
C0Z070,舞鶴,2014-02-14,23.46811,121.37407,7.688845e-07
C0B040,大武崙,2014-02-14,25.166676,121.706993,1.1183978e-06
C1Z030,紅葉,2014-02-14,23.493119,121.338806,1.1197906e-06
C1I050,丹大,2014-02-14,23.753747,121.141147,1.5769487e-08
C0I080,信義,2014-02-14,23.689694,120.851036,8.3238116e-10
C2M920,朴子農改,2014-02-14,23.469889,120.259383,1.5064293e-08
C2A880,福隆,2014-02-14,25.017842,121.942083,9.9358346e-08
C0Z160,鳳林,2014-02-14,23.746114,121.453411,1.4353429e-06
C0V210,復興,2014-02-14,23.222403,120.806089,3.4808068e-09
C0H990,昆陽,2014-02-14,24.121322,121.273642,1.9997412e-08
C0R741,獅子,2014-02-14,22.202308,120.705236,5.461344e-06
C0S710,鹿野,2014-02-14,22.917711,121.122994,8.289186e-08
C0I530,小奇萊,2014-02-14,24.131764,121.295717,2.2225862e-08
C2K630,荷苞,2014-02-14,23.657717,120.595144,2.195284e-09
C0Z080,富源,2014-02-14,23.587642,121.378225,7.236737e-07
467441,高雄,2014-02-14,22.7304,120.3125,3.4654068e-08
C0SB10,美和,2014-02-14,22.682078,121.060236,0.8626823
C2K620,馬光農場,2014-02-14,23.721453,120.378864,2.2573619e-09
C1I140,卡奈托灣,2014-02-14,23.754364,121.087872,5.4404103e-09
C0I520,玉山風口,2014-02-14,23.470489,120.955994,2.749437e-08
C1G691,下水埔,2014-02-14,23.816114,120.5676,1.81985e-09
C0X110,臺南市南區,2014-02-14,22.961189,120.188378,1.2130477e-08
C0V680,仁武,2014-02-14,22.701083,120.347722,2.9928255e-08
C2G840,北斗,2014-02-14,23.877586,120.514222,1.2233945e-08
C0R900,竹坑,2014-02-14,22.1385,120.7022,0.003846587
C0K250,崙背,2014-02-14,23.75555,120.318925,9.690263e-08
C0G860,社頭,2014-02-14,23.897647,120.5862,7.941974e-09
C0X150,安定,2014-02-14,23.102614,120.227839,7.0575563e-09
C0R590,里港,2014-02-14,22.77919,120.49459,2.1297724e-09
C0E610,馬都安,2014-02-14,24.451272,120.930192,8.2535285e-09
C0E550,明德,2014-02-14,24.583486,120.885411,1.0592384e-08
C0R150,三地門,2014-02-14,22.709889,120.639944,6.2796235e-09
C0G910,花壇,2014-02-14,24.032076,120.549461,8.554398e-09
C1D400,鳥嘴山,2014-02-14,24.71909,121.28387,1.9233267e-08
C0K500,元長,2014-02-14,23.64981,120.315024,1.1587257e-07
C0F0B0,石岡,2014-02-14,24.276061,120.777644,2.0164816e-09
C2V250,甲仙,2014-02-14,23.080106,120.591758,1.2270442e-09
C0SA20,金崙山,2014-02-14,22.567419,120.959667,5.4704117e-08
C0V350,溪埔,2014-02-14,22.738578,120.446797,1.6197887e-08
C0M660,溪口,2014-02-14,23.604131,120.403569,1.0020163e-07
C1S880,壽卡,2014-02-14,22.238911,120.858903,5.440702e-05
72D680,桃改新埔分場,2014-02-14,24.834444,121.066111,2.6728512e-07
