站號,站名,日期,lat,lon,BLBTSLS
C0R710,龍磐,2014-02-22,21.931672,120.838942,0.99992985
C1F9D1,白毛台,2014-02-22,24.158325,120.886933,6.756458e-09
C0G940,竹塘,2014-02-22,23.848253,120.386764,1.8113346e-09
467590,恆春,2014-02-22,22.003897,120.746339,0.99996865
C1O850,環湖,2014-02-22,23.148617,120.418633,3.7743177e-09
C0U710,太平山,2014-02-22,24.505486,121.525656,3.2105085e-08
C0E820,獅潭,2014-02-22,24.539133,120.920042,1.1079866e-08
C0V880,興達,2014-02-22,22.8778,120.2127,1.5428084e-09
C0S890,關山,2014-02-22,23.0395,121.175017,5.0516476e-08
C0SB30,新蘭,2014-02-22,22.869214,121.223228,3.2319298e-07
C2R970,屏科大,2014-02-22,22.648275,120.619247,1.0963316e-09
K2F750,種苗繁殖,2014-02-22,24.225972,120.800917,6.157025e-09
C1Z130,銅門,2014-02-22,23.965694,121.492842,5.831537e-08
C0AD40,土城,2014-02-22,24.973208,121.445169,1.5553962e-08
CAN140,六官養殖協會,2014-02-22,23.22881,120.29962,1.8964315e-09
C0X180,山上,2014-02-22,23.0757,120.363253,2.6177867e-09
C0F9Z0,雪山東峰,2014-02-22,24.388792,121.268675,4.2052687e-08
C1M480,獨立山,2014-02-22,23.537022,120.607797,5.4515663e-09
C0X220,學甲,2014-02-22,23.230367,120.182187,2.4932922e-09
467650,日月潭,2014-02-22,23.881325,120.90805,7.569891e-09
C0K600,箔子寮,2014-02-22,23.6197,120.14,3.797845e-09
C0G830,埤頭,2014-02-22,23.866003,120.452806,2.1314832e-09
C0S950,七塊厝,2014-02-22,22.954453,121.229922,6.291951e-08
467110,金門,2014-02-22,24.407306,118.289281,7.313922e-09
C0AH80,深坑,2014-02-22,25.002703,121.628328,1.6086648e-08
467990,馬祖,2014-02-22,26.169269,119.923419,4.4440977e-08
C0A970,三貂角,2014-02-22,25.007606,122.002058,1.0466104e-08
C2D730,寶山農場,2014-02-22,24.732444,120.976153,1.7141303e-08
C0K430,褒忠,2014-02-22,23.690938,120.303634,1.9364714e-08
467480,嘉義,2014-02-22,23.495925,120.432906,1.7753765e-08
C2E540,後龍,2014-02-22,24.606489,120.783933,7.9338015e-08
C0V400,阿公店,2014-02-22,22.804194,120.355528,1.6707752e-09
C0R440,大漢山,2014-02-22,22.405264,120.753181,1.8460538e-08
C0K280,四湖,2014-02-22,23.630414,120.227125,3.7153082e-08
C1F9B1,桐林,2014-02-22,24.066172,120.735194,3.0150773e-09
C2H9U0,鳳鵬,2014-02-22,23.763919,120.788061,3.747425e-09
C0K390,土庫,2014-02-22,23.679029,120.395574,1.692935e-09
C1I450,望鄉山,2014-02-22,23.594153,120.944286,2.7255753e-08
C0E910,海埔,2014-02-22,24.648767,120.772435,1.1532428e-08
B2E890,畜試北區分所,2014-02-22,24.527806,120.770972,1.0177336e-07
C0R750,四林格山,2014-02-22,22.076989,120.802439,0.00031583925
C0F0C0,中坑,2014-02-22,24.248517,120.903319,9.5550865e-09
C1I121,大鞍,2014-02-22,23.678381,120.760017,9.160268e-09
72U480,花改蘭陽分場,2014-02-22,24.686306,121.716583,1.1585253e-08
C0A770,科教館,2014-02-22,25.096356,121.516507,1.5470643e-08
C0AJ60,六塊厝,2014-02-22,25.24,121.4481,1.3814889e-08
C0R620,墾雷,2014-02-22,21.900836,120.855269,0.9999666
467420,永康,2014-02-22,23.038386,120.2367,1.9359794e-09
467300,東吉島,2014-02-22,23.25695,119.667467,0.952187
C0I410,名間,2014-02-22,23.837053,120.701447,2.6509994e-09
A2C560,農工中心,2014-02-22,24.985917,121.239833,1.2846032e-08
C0V740,旗山,2014-02-22,22.888614,120.483597,3.292257e-09
C0Z061,玉里,2014-02-22,23.3215,121.339656,3.6963794e-08
C0S840,南田,2014-02-22,22.279725,120.889208,0.0010161197
C1I470,杉林溪,2014-02-22,23.639517,120.786444,1.0808946e-08
C1X040,東原,2014-02-22,23.291597,120.463822,2.5194702e-09
C0R660,枋寮,2014-02-22,22.367722,120.590647,1.5558403e-09
C1R120,上德文,2014-02-22,22.763272,120.704442,9.607077e-09
C0K450,大埤,2014-02-22,23.646074,120.431537,1.7106053e-09
C0UA00,土場,2014-02-22,24.576533,121.495333,1.1891247e-08
467080,宜蘭,2014-02-22,24.763975,121.756528,1.0492388e-08
C0N030,四草,2014-02-22,23.0235,120.1116,2.193325e-09
C0V650,彌陀,2014-02-22,22.783806,120.246361,1.7730271e-09
C0D660,新竹市東區,2014-02-22,24.798681,120.986942,1.8934866e-08
82S580,茶改東部分場,2014-02-22,22.907694,121.130139,7.382194e-08
C0SB40,興隆,2014-02-22,22.913661,121.257469,9.7766645e-08
C0C710,大溪永福,2014-02-22,24.892936,121.324975,1.2985761e-08
C0FA20,溫寮,2014-02-22,24.372177,120.583125,1.6731926e-07
C0V640,湖內,2014-02-22,22.887139,120.2445,1.5523722e-09
C0R910,下寮,2014-02-22,22.3929,120.5548,1.70802e-09
C0Z020,明里,2014-02-22,23.208717,121.262342,3.4915008e-08
C0M770,嘉義梅山,2014-02-22,23.585398,120.555587,2.777185e-09
G2F820,農業試驗所,2014-02-22,24.031261,120.688133,6.431585e-08
C0C660,楊梅,2014-02-22,24.912375,121.143047,1.6858309e-08
C1E511,新開,2014-02-22,24.347703,120.827019,4.751188e-09
G2F820,農試所(霧峰),2014-02-22,24.031261,120.688133,6.431585e-08
C1I070,和社,2014-02-22,23.591131,120.888861,4.0062162e-09
C2F000,大肚,2014-02-22,24.15295,120.572117,5.6589986e-09
C1S850,豐南,2014-02-22,23.122139,121.262389,3.8522426e-08
C2A920,富貴角,2014-02-22,25.263783,121.565258,1.37262175e-08
CAH030,茶改場竹圍站,2014-02-22,23.860083,120.637528,3.3378256e-09
C0T960,光復,2014-02-22,23.660694,121.424964,9.871478e-08
C0F9M0,豐原,2014-02-22,24.254322,120.720692,9.6453405e-09
C0R720,旭海,2014-02-22,22.205403,120.887614,0.0004049983
C0V710,苓雅,2014-02-22,22.622742,120.330669,1.1983546e-09
C0C740,觀音工業區,2014-02-22,25.064764,121.114856,1.585381e-08
CAC040,拉拉山,2014-02-22,24.699317,121.427133,2.0482455e-08
C0V790,萬山,2014-02-22,22.905944,120.688056,2.9805645e-09
U2HA30,臺大和社,2014-02-22,23.590856,120.888864,4.0062162e-09
C0AJ90,澳底,2014-02-22,25.0552,121.9253,1.2258658e-08
C0Z100,東華,2014-02-22,23.89525,121.549833,1.14870126e-07
C0G970,三豐,2014-02-22,23.882,120.2895,2.9437913e-08
V2K610,大庄合作社,2014-02-22,23.8068,120.367939,2.0225302e-08
C0V900,汕尾,2014-02-22,22.4782,120.4151,1.1761585e-09
C1R630,龍泉,2014-02-22,22.66701,120.59091,1.6407455e-09
C1AC50,關渡,2014-02-22,25.133486,121.469331,1.44948995e-08
C0F9I0,神岡,2014-02-22,24.272481,120.658314,9.642103e-09
C0K460,斗南,2014-02-22,23.678734,120.478359,2.0667557e-09
467410,臺南,2014-02-22,22.993239,120.204772,1.9166169e-09
C2O810,曾文,2014-02-22,23.219681,120.497328,3.8111097e-09
467280,後龍,2014-02-22,24.648563,120.831834,1.1712429e-08
C1F9J1,清水林,2014-02-22,24.071242,120.820419,5.3040647e-09
C2A650,火燒寮,2014-02-22,25.002719,121.742892,1.22130555e-08
466930,竹子湖,2014-02-22,25.162078,121.544547,1.6754512e-08
C1I220,樟湖,2014-02-22,23.905333,120.846983,7.286992e-09
C0I390,仁愛,2014-02-22,24.022122,121.132206,1.0110158e-08
C0Z300,東里,2014-02-22,23.26853,121.30547,3.6515388e-08
C1V590,新發,2014-02-22,23.057019,120.646064,7.471675e-09
C0K510,水林,2014-02-22,23.572924,120.24597,3.7541645e-09
72S590,東改賓朗果園,2014-02-22,22.813889,121.071278,1.02598776e-07
82A750,茶改北部分場,2014-02-22,24.955778,121.631222,1.0685382e-08
C1A750,石碇服務區,2014-02-22,25.00872,121.646242,1.6159593e-08
C0X300,鹿寮,2014-02-22,23.386047,120.477331,1.5505435e-09
G2AI50,關渡,2014-02-22,25.11575,121.492,1.5476665e-08
C0K590,雲林東勢,2014-02-22,23.674192,120.255721,1.9364714e-08
C0A570,桶後,2014-02-22,24.848222,121.597992,1.0539563e-08
C1S800,華源,2014-02-22,22.657883,121.02325,2.1398331e-07
C0G720,溪州,2014-02-22,23.851589,120.499093,2.1821256e-09
C1V160,達卡努瓦,2014-02-22,23.279811,120.705319,8.855976e-09
C2M410,馬頭山,2014-02-22,23.324361,120.582017,2.7767877e-09
C0V850,蚵仔寮,2014-02-22,22.7256,120.2527,1.0962208e-09
C0S740,池上,2014-02-22,23.119628,121.209469,7.4982175e-08
C1V390,尖山,2014-02-22,22.813153,120.367789,1.7049474e-09
C0AH70,松山,2014-02-22,25.04871,121.55042,1.6047851e-08
C0N010,鯤鯓國小,2014-02-22,23.1879,120.0889,4.5226636e-09
C0R550,新埤,2014-02-22,22.467947,120.582894,1.1417302e-09
C0SA60,知本（水試所）,2014-02-22,22.702394,121.082761,5.39402e-07
C0T9I0,豐濱,2014-02-22,23.583897,121.514806,8.9730094e-08
C0UB00,淡江大學蘭陽校園,2014-02-22,24.823239,121.730383,1.0250193e-08
C0W240,九宮,2014-02-22,24.423753,118.240186,1.0523434e-08
C0T9N0,富里,2014-02-22,23.171639,121.249378,3.5964355e-08
U2HA50,臺大竹山,2014-02-22,23.756972,120.681556,2.781203e-09
C0V840,鳳鼻頭,2014-02-22,22.5083,120.3591,1.1939332e-09
C0X140,西港,2014-02-22,23.125608,120.203108,2.7199083e-09
72D080,桃改五峰分場,2014-02-22,24.612194,121.157167,1.4661453e-08
C2H9P0,伊拿谷,2014-02-22,23.963211,121.088264,6.100215e-09
C2H9F0,柑林,2014-02-22,24.018658,120.847072,3.4584784e-09
C0TA20,加灣,2014-02-22,24.082025,121.608944,6.86468e-08
C0V530,阿蓮,2014-02-22,22.883208,120.327508,1.3367336e-09
C1O880,關山,2014-02-22,23.173397,120.594092,2.7631042e-09
C0E791,卓蘭,2014-02-22,24.3126,120.8244,4.758552e-09
C1I030,武界,2014-02-22,23.913225,121.052483,7.78085e-09
C0R520,崁頂,2014-02-22,22.514781,120.506914,1.6998559e-09
C0R341,牡丹,2014-02-22,22.130036,120.792639,5.831259e-06
C0R930,萬丹,2014-02-22,22.5885,120.4851,1.1325686e-09
C0S760,紅石,2014-02-22,23.069131,121.126219,2.2871237e-08
C1M610,石磐龍,2014-02-22,23.496606,120.663506,7.634926e-09
C0UA10,鴛鴦湖,2014-02-22,24.590269,121.412228,2.3200897e-08
V2C260,八德蔬果,2014-02-22,24.978508,121.281819,1.4814373e-08
C0R800,丹路,2014-02-22,22.204481,120.750989,3.4918543e-07
C0G920,永靖,2014-02-22,23.924703,120.547533,5.227513e-09
C2M950,太和,2014-02-22,23.538372,120.702961,9.666705e-09
C1A630,下盆,2014-02-22,24.771003,121.538622,1.874685e-08
B2N890,畜產試驗所,2014-02-22,23.058972,120.336406,1.4600192e-09
C0UA30,白嶺,2014-02-22,24.527819,121.519031,1.9806663e-08
C1V580,溪南(特生中心),2014-02-22,23.084972,120.788475,1.6424686e-08
C1T970,大農,2014-02-22,23.615233,121.413331,8.9343295e-08
E2S960,林試太麻里2,2014-02-22,22.598014,120.989761,5.335654e-08
C0R650,竹田,2014-02-22,22.58486,120.54344,1.1332384e-09
C1H900,清流,2014-02-22,24.080775,120.962997,6.3898984e-09
C1C510,水尾,2014-02-22,24.940081,121.087161,1.6569679e-08
C0F9X0,大雅(中科園區),2014-02-22,24.21528,120.62445,6.807076e-08
C0SB60,白守蓮,2014-02-22,23.126769,121.401914,1.0820914e-07
C0O970,虎頭埤,2014-02-22,23.021375,120.347878,1.8400731e-09
C0C730,中大臨海站,2014-02-22,24.966126,121.008581,7.902189e-09
C0X250,新營,2014-02-22,23.310689,120.316681,1.6700711e-09
C0V700,三民,2014-02-22,22.645017,120.311233,1.1983546e-09
C0U870,大礁溪,2014-02-22,24.791042,121.675047,1.1157505e-08
C0E870,高鐵苗栗,2014-02-22,24.60725,120.826094,7.6381625e-08
A2K570,古坑花卉中心,2014-02-22,23.63353,120.55239,2.5114242e-09
C0M860,新美,2014-02-22,23.338017,120.683169,4.4701265e-09
C1E701,八卦,2014-02-22,24.491756,120.927619,1.0541031e-08
C0I420,國姓,2014-02-22,24.037803,120.855072,3.4589995e-09
C2D720,關西工作站,2014-02-22,24.757275,121.184792,1.3346376e-08
C0S960,香蘭,2014-02-22,22.587569,120.993375,5.35666e-08
C0R260,春日,2014-02-22,22.370361,120.628306,1.5752945e-09
72G600,臺中農改場,2014-02-22,24.003028,120.534389,5.177679e-09
C0Z210,瑞穗,2014-02-22,23.5239,121.39021,9.3426515e-08
C0M820,達邦,2014-02-22,23.453994,120.749517,5.938866e-09
C0V860,南寮,2014-02-22,22.7616,120.2339,1.7603201e-09
C0G740,大城,2014-02-22,23.852487,120.320935,2.8336634e-08
C0R920,塭仔,2014-02-22,22.4169,120.5197,1.7081372e-09
C0R470,高樹,2014-02-22,22.826389,120.600806,2.5919413e-09
C0R680,佳樂水,2014-02-22,21.993578,120.861633,0.99997056
C1O870,大棟山,2014-02-22,23.31157,120.52226,8.309318e-09
C0D360,梅花,2014-02-22,24.678347,121.208558,1.2244801e-08
C0Z190,富世,2014-02-22,24.14743,121.6297,4.40185e-08
C0AI10,屈尺,2014-02-22,24.92184,121.54475,1.6086648e-08
B2U990,畜試東區分所,2014-02-22,24.669039,121.832561,1.145478e-08
C0SB80,長濱漁港,2014-02-22,23.313644,121.459994,4.2351154e-08
C0R240,來義,2014-02-22,22.527306,120.625111,1.6528194e-09
C0V910,大樹,2014-02-22,22.684645,120.432803,1.3953009e-09
C1R610,西大武山,2014-02-22,22.617719,120.7322,2.074458e-08
C0G900,線西,2014-02-22,24.143358,120.443536,2.018336e-07
C0M700,竹崎,2014-02-22,23.526178,120.555508,2.6657696e-09
C2E880,三義,2014-02-22,24.405478,120.749819,6.7272294e-09
C0C720,竹圍,2014-02-22,25.112692,121.239824,1.3770272e-08
C0F9P0,清水,2014-02-22,24.312297,120.562242,1.5559873e-07
C0Z150,吉安光華,2014-02-22,23.930925,121.595153,1.2084769e-07
C1D640,外坪(五指山),2014-02-22,24.644447,121.090961,1.4017408e-08
C0F9O0,潭子,2014-02-22,24.213106,120.703933,7.721418e-09
C2H9R0,卓社,2014-02-22,23.887894,121.000086,1.0500196e-08
72T250,花蓮農改場,2014-02-22,23.975222,121.563889,6.711891e-08
C0E780,銅鑼,2014-02-22,24.489681,120.790853,1.0324735e-08
C1T950,太安,2014-02-22,23.666719,121.370128,2.1635186e-08
C0E830,苑裡,2014-02-22,24.439714,120.653053,1.4032622e-07
467270,田中,2014-02-22,23.873803,120.581286,2.166433e-09
C0SA10,檳榔四格山,2014-02-22,22.810031,121.109308,8.9808175e-08
C1T830,布洛灣,2014-02-22,24.17184,121.57127,2.7578878e-08
C0F970,大坑,2014-02-22,24.173142,120.722289,7.0844116e-08
C1U920,思源,2014-02-22,24.393125,121.347214,2.8279132e-08
C0A931,三和,2014-02-22,25.233153,121.595236,1.1190775e-08
C0I010,廬山,2014-02-22,24.033311,121.181808,1.1347054e-08
C2M940,日野賀,2014-02-22,23.434056,120.727169,8.0394855e-09
C0R860,鼻頭,2014-02-22,22.1043,120.8979,0.9999784
C0UB20,壯圍,2014-02-22,24.7359,121.8163,1.1466453e-08
C0R790,九棚,2014-02-22,22.14195,120.889281,0.0020434076
C0W110,東莒,2014-02-22,25.9652,119.98069,9.796077e-08
C1U930,粉鳥林,2014-02-22,24.497088,121.842479,8.871192e-09
C1I211,蘆竹湳,2014-02-22,23.934019,120.811994,4.470979e-09
C0S830,長濱,2014-02-22,23.286817,121.411975,3.452746e-08
C1F9F1,伯公龍,2014-02-22,24.272392,120.849047,6.483361e-09
C0E810,西湖,2014-02-22,24.562947,120.7485,6.999673e-08
C1I440,新高口,2014-02-22,23.478744,120.878939,1.927881e-08
C0O840,王爺宮,2014-02-22,23.222064,120.40085,3.8131382e-09
C0T9G0,鳳林山,2014-02-22,23.735269,121.420131,5.2901648e-08
C0X080,佳里,2014-02-22,23.173039,120.145086,2.5336382e-09
C0FB70,大甲溪埔,2014-02-22,24.370625,120.620067,1.3724535e-07
C0Z310,清水斷崖,2014-02-22,24.218294,121.689142,3.402148e-08
C0M680,太保,2014-02-22,23.455062,120.331455,2.2182611e-09
C1S820,金峰,2014-02-22,22.590969,120.933236,3.3501948e-08
C0AD10,八里,2014-02-22,25.150211,121.403947,1.3770272e-08
C2K240,草嶺,2014-02-22,23.59555,120.693461,7.952146e-09
C1SA70,都蘭,2014-02-22,22.87794,121.226881,9.7766645e-08
C0K440,二崙,2014-02-22,23.772797,120.408944,1.8414881e-09
C1A760,坪林交控,2014-02-22,24.94284,121.713442,1.14814664e-08
C0F9N0,大里,2014-02-22,24.092464,120.701378,7.833014e-08
C0SA90,達仁林場,2014-02-22,22.264347,120.823972,8.7230685e-09
C1R290,石門山,2014-02-22,22.112611,120.756597,0.34857506
42HA10,萬大發電廠,2014-02-22,23.978875,121.139639,1.1754324e-08
C0R890,山海,2014-02-22,21.9878,120.7091,0.9999739
C0T9A0,月眉山,2014-02-22,23.809928,121.539828,7.408924e-08
C0AC70,信義,2014-02-22,25.037822,121.564597,1.6047851e-08
C0K560,棋山,2014-02-22,23.68645,120.603417,2.656932e-09
C2FB50,出雲,2014-02-22,24.206469,120.902794,9.3228545e-09
C1Z240,中平林道,2014-02-22,23.42115,121.26763,4.3612843e-08
U2H480,溪頭,2014-02-22,23.670306,120.798194,5.7147185e-09
C0M880,好美里,2014-02-22,23.3364,120.138,2.5336382e-09
C0T9E0,大坑,2014-02-22,23.880628,121.581981,7.88539e-08
C0K530,臺西,2014-02-22,23.701547,120.197559,3.4004678e-08
C1E900,國一N128K,2014-02-22,24.560997,120.844186,6.187236e-08
C0AJ50,水湳洞,2014-02-22,25.123695,121.862238,1.888484e-08
C0AI20,白沙灣,2014-02-22,25.283128,121.519058,1.43697605e-08
C0A860,大坪,2014-02-22,25.165914,121.632969,1.3155132e-08
C1U850,觀音海岸,2014-02-22,24.38319,121.77856,1.8236559e-08
C2K610,草嶺石壁,2014-02-22,23.602469,120.707731,7.946035e-09
C0U950,鶯子嶺,2014-02-22,24.89754,121.79244,1.8231377e-08
C0O900,善化,2014-02-22,23.112883,120.297219,1.433127e-09
C0K550,蔦松,2014-02-22,23.514319,120.229736,2.8372584e-09
E2P980,林試六龜中心,2014-02-22,22.991703,120.645722,2.9272336e-09
C0E590,通霄,2014-02-22,24.471892,120.704622,1.2562697e-07
C1I310,西巒,2014-02-22,23.754486,120.883956,6.779733e-09
C0A550,泰平,2014-02-22,24.971197,121.823711,1.2278923e-08
C0I360,水里,2014-02-22,23.812553,120.849792,3.127796e-09
C0R830,高士,2014-02-22,22.121825,120.836781,0.032384567
C1I101,溪頭,2014-02-22,23.661789,120.807647,1.05261435e-08
C0AJ20,野柳,2014-02-22,25.20703,121.690021,1.8894964e-08
C0B060,暖暖,2014-02-22,25.0957,121.7403,1.8115085e-08
C1H920,長豐,2014-02-22,24.102039,120.879897,5.388321e-09
C0V360,內門,2014-02-22,22.975481,120.466769,3.901376e-09
C0R850,林邊,2014-02-22,22.4634,120.5339,1.6998559e-09
C0E930,龍鳳,2014-02-22,24.700034,120.859125,1.1575887e-08
C0U910,冬山,2014-02-22,24.63373,121.7937,1.145478e-08
C1E721,泰安,2014-02-22,24.489017,120.968036,1.2624122e-08
82H320,茶改中部分場,2014-02-22,23.875611,120.913583,4.1195505e-09
C0M750,布袋,2014-02-22,23.380878,120.167789,3.0406961e-09
C1S860,利嘉,2014-02-22,22.809417,121.050528,2.3028033e-08
72C440,桃園農改,2014-02-22,24.950944,121.030583,8.190673e-09
E2S980,林試太麻里1,2014-02-22,22.598922,120.980044,4.2945125e-08
C0X170,關廟,2014-02-22,22.963017,120.327797,1.4733829e-09
C0V720,林園,2014-02-22,22.507747,120.394511,1.1982495e-09
C1I510,線浸林道,2014-02-22,23.761508,120.832956,5.409885e-09
C0D690,外湖,2014-02-22,24.917735,120.968711,7.902189e-09
C0C750,新興坑尾,2014-02-22,25.0061,121.0971,1.6220705e-08
B2Q810,畜試南區分所,2014-02-22,21.945583,120.802167,0.99997056
C0S790,金崙,2014-02-22,22.538122,120.966875,3.1544165e-08
C0AH90,福山植物園,2014-02-22,24.760717,121.58135,1.4829525e-08
C0I540,奇萊稜線,2014-02-22,24.109231,121.326456,4.3722203e-08
C0M850,表湖,2014-02-22,23.24186,120.64166,4.4656954e-09
C0S770,大溪山,2014-02-22,22.478475,120.943325,2.4804958e-08
C0AG80,中和,2014-02-22,24.991622,121.491792,1.6047851e-08
C0T790,大禹嶺,2014-02-22,24.186117,121.316086,3.5872212e-08
C0T9B0,水源,2014-02-22,23.991861,121.537169,7.078482e-08
C0R840,牡丹池山,2014-02-22,22.168389,120.841225,8.732207e-09
C1I131,桶頭,2014-02-22,23.641944,120.654117,3.4363585e-09
CAL110,布袋國中,2014-02-22,23.35893,120.18026,2.0288269e-09
467571,新竹,2014-02-22,24.827853,121.014219,1.8832324e-08
C0Z290,赤柯山,2014-02-22,23.36893,121.38293,4.6161446e-08
C0X280,將軍,2014-02-22,23.214999,120.13577,2.5336382e-09
C0S690,太麻里,2014-02-22,22.60902,120.98533,4.2432983e-08
C0U880,北關,2014-02-22,24.9072,121.8734,1.749286e-08
C1H860,瑞岩,2014-02-22,24.123772,121.18345,1.696524e-08
C0G810,埔心,2014-02-22,23.947633,120.525456,5.2507865e-09
C0U970,大福,2014-02-22,24.80064,121.81389,1.0453635e-08
C2H9N0,仁愛東眼,2014-02-22,24.026875,121.1205,1.1719021e-08
C1E670,南礦,2014-02-22,24.538278,121.002836,1.3264405e-08
C0M520,東後寮,2014-02-22,23.369908,120.248065,2.0258766e-09
C1E461,松安,2014-02-22,24.397972,120.986022,1.1857885e-08
72G600,臺中農改,2014-02-22,24.003028,120.534389,5.177679e-09
C2N160,西拉雅風管處,2014-02-22,23.189481,120.335297,1.890083e-09
C2M970,碧湖,2014-02-22,23.568632,120.624165,7.083706e-09
C0A640,石碇,2014-02-22,24.993969,121.662917,1.1748407e-08
E2S960,林試太麻里2,2014-02-22,22.598,120.99775,5.4137068e-08
C0F9Y0,桃山,2014-02-22,24.432739,121.303808,4.389475e-08
C1I020,萬大,2014-02-22,23.979817,121.132261,1.020079e-08
C0U940,羅東,2014-02-22,24.68184,121.74934,1.1534981e-08
C0M650,朴子,2014-02-22,23.43463,120.23902,2.9982001e-09
C1I500,大尖山,2014-02-22,23.858572,120.994889,1.5488476e-08
C0G820,田尾,2014-02-22,23.901669,120.509389,5.230535e-09
E2K600,四湖植物園,2014-02-22,23.676986,120.163433,3.3975372e-08
C0S730,綠島,2014-02-22,22.6672,121.47533,6.7511664e-08
12Q970,東港工作站,2014-02-22,22.479997,120.466058,1.70802e-09
C0E430,南庄,2014-02-22,24.601775,121.000214,1.1073676e-08
C1TA00,太魯閣,2014-02-22,24.15773,121.6236,3.4255105e-08
466920,臺北,2014-02-22,25.037658,121.514853,1.6047851e-08
C0R600,舊泰武,2014-02-22,22.588194,120.664944,3.4347467e-09
C1I260,北坑,2014-02-22,23.9246,121.006903,4.565566e-09
466910,鞍部,2014-02-22,25.182586,121.529731,1.9830138e-08
C1I230,九份二山,2014-02-22,23.961944,120.845,6.0761893e-09
C2A660,瑞芳,2014-02-22,25.113169,121.801147,1.23999895e-08
C0R270,琉球嶼,2014-02-22,22.332244,120.362236,1.5752945e-09
C1T990,高寮,2014-02-22,23.394239,121.356808,6.6157526e-08
C0G620,芬園,2014-02-22,24.015678,120.6213,3.9610075e-09
C1Z140,荖溪,2014-02-22,23.890575,121.45964,3.9541103e-08
C1I201,中心崙,2014-02-22,23.728722,120.712097,4.5498836e-09
C1I400,凌霄,2014-02-22,24.018778,121.004456,1.1486723e-08
C1M640,十字,2014-02-22,23.492153,120.753683,9.7259045e-09
G2P820,農試鳳山分所,2014-02-22,22.646611,120.356083,1.1952114e-09
C0Z270,蕃薯寮,2014-02-22,23.73835,121.540108,8.396676e-08
C0F9Q0,外埔,2014-02-22,24.347817,120.705686,9.632618e-09
C0K580,高鐵雲林,2014-02-22,23.737456,120.417944,1.692935e-09
C2I090,鳳凰,2014-02-22,23.728081,120.787347,4.3640616e-09
C0U990,員山,2014-02-22,24.74435,121.72247,1.1534981e-08
C0V770,大社,2014-02-22,22.730306,120.346639,1.104905e-09
C0X120,麻豆,2014-02-22,23.183289,120.248611,2.493297e-09
C0C670,龍潭,2014-02-22,24.870056,121.221389,1.1577786e-08
C0D680,香山濕地,2014-02-22,24.783581,120.914988,1.6045952e-08
C0S980,勝林山,2014-02-22,22.430439,120.8938,9.575502e-09
C0V730,大寮,2014-02-22,22.605614,120.395717,1.1851775e-09
C0R570,麟洛,2014-02-22,22.65078,120.52719,1.5630951e-09
C2M930,石卓,2014-02-22,23.478744,120.702264,9.580306e-09
C0G9B0,和美,2014-02-22,24.105169,120.492131,6.679208e-09
CAG100,王功漁港,2014-02-22,23.96824,120.32586,3.134409e-08
C0X290,北門,2014-02-22,23.267772,120.125481,2.535185e-09
C2F930,大甲,2014-02-22,24.347667,120.640403,9.6047714e-08
C0D650,湖口,2014-02-22,24.904794,121.043628,8.474368e-09
C0E420,竹南,2014-02-22,24.708978,120.888897,1.6632564e-08
C0U780,五結,2014-02-22,24.68637,121.79794,1.145478e-08
C1I250,鯉潭,2014-02-22,23.961922,120.991131,5.388321e-09
C0R130,阿禮,2014-02-22,22.742908,120.743678,4.5470294e-09
C0X100,臺南市北區,2014-02-22,23.010394,120.194228,1.9131945e-09
C0S920,金峰嘉蘭,2014-02-22,22.594789,120.960825,4.133184e-08
C0V490,新興,2014-02-22,22.627422,120.298803,1.1982495e-09
C0F9K0,大安,2014-02-22,24.345061,120.588025,1.4278964e-07
72N100,臺南農改,2014-02-22,23.0605,120.342194,1.4588084e-09
467290,古坑,2014-02-22,23.633639,120.551889,2.5114242e-09
C2E970,八甲,2014-02-22,24.535811,120.795983,1.0270545e-08
C0V440,鳳山,2014-02-22,22.646653,120.356122,1.1952114e-09
C1T940,大觀,2014-02-22,23.714206,121.373133,6.8299e-08
72T250,花蓮農改,2014-02-22,23.975222,121.563889,6.711891e-08
C0E740,造橋,2014-02-22,24.637056,120.864778,1.215009e-08
C0R100,尾寮山,2014-02-22,22.833111,120.683889,5.502105e-09
A2K630,臺大雲林校區,2014-02-22,23.730628,120.423903,1.692935e-09
C0D580,寶山,2014-02-22,24.735006,121.025192,1.4194169e-08
E2P990,林試扇平站,2014-02-22,22.9677,120.6857,6.442669e-09
C0AI30,三重,2014-02-22,25.057328,121.500629,1.5470643e-08
C0AH00,汐止,2014-02-22,25.066881,121.658778,1.8894964e-08
C1Z040,立山,2014-02-22,23.443356,121.327375,6.6505066e-08
C0W130,花嶼,2014-02-22,23.40007,119.32276,0.99019367
C0A950,鼻頭角,2014-02-22,25.129036,121.923372,1.2271524e-08
C0K470,林內,2014-02-22,23.748675,120.609642,2.4279379e-09
C2F990,摩天嶺,2014-02-22,24.322458,120.936819,9.860767e-09
82C160,茶改場,2014-02-22,24.908472,121.185333,1.373672e-08
C0Z320,清水林道,2014-02-22,23.27125,121.188272,4.808883e-08
C0R760,南仁湖,2014-02-22,22.084681,120.863353,0.25050277
C0M670,大林,2014-02-22,23.600616,120.45841,3.336281e-08
C0M800,茶山,2014-02-22,23.299075,120.664767,3.1754945e-09
C0A9C0,天母,2014-02-22,25.117494,121.537169,1.5550876e-08
72K220,南改斗南分場,2014-02-22,23.634556,120.477333,2.2799536e-09
72AI40,桃改樹林分場,2014-02-22,24.944503,121.386972,1.5631228e-08
C0S910,蘭嶼燈塔,2014-02-22,22.081197,121.503117,0.999984
C0B050,八斗子,2014-02-22,25.144754,121.79167,1.899571e-08
C0U900,內城,2014-02-22,24.71813,121.68766,1.0696047e-08
C0X320,柳營,2014-02-22,23.253328,120.375253,3.7145975e-09
C0M790,新港,2014-02-22,23.553269,120.345728,2.4984954e-09
C0F9T0,西屯,2014-02-22,24.179494,120.641275,9.437359e-08
C0SA30,都歷,2014-02-22,23.020333,121.323642,7.698833e-08
C0C620,蘆竹,2014-02-22,25.084275,121.265767,1.386552e-08
C0R730,大坪頂,2014-02-22,22.024633,120.69355,0.99976146
C0AJ40,石門,2014-02-22,25.273672,121.601198,1.4698357e-08
C0E750,苗栗,2014-02-22,24.564569,120.824575,6.473689e-08
C0T870,鯉魚潭,2014-02-22,23.935639,121.508944,9.3832796e-08
C1V170,排雲,2014-02-22,23.463619,120.954147,3.910549e-08
C2H950,中寮,2014-02-22,23.884447,120.766406,2.9095102e-09
C0R350,貓鼻頭,2014-02-22,21.921774,120.7358,0.9999666
C0V660,岡山,2014-02-22,22.797078,120.294958,1.3156181e-09
C1H941,雙冬,2014-02-22,23.967378,120.802189,4.6407194e-09
C0AJ70,田寮,2014-02-22,25.2698,121.4886,1.4392582e-08
C0AI00,五股,2014-02-22,25.07445,121.42728,1.5114688e-08
C0Z280,德武,2014-02-22,23.47426,121.41071,5.6899776e-08
C0R700,枋山,2014-02-22,22.246844,120.661086,5.459552e-06
C0C460,復興,2014-02-22,24.820208,121.352281,1.2285998e-08
E2H360,蓮華池,2014-02-22,23.918333,120.885278,4.5799573e-09
C0M640,中埔,2014-02-22,23.42538,120.5229,2.4634643e-09
C0W140,金沙,2014-02-22,24.488292,118.408778,6.8048145e-09
C2A540,四堵,2014-02-22,24.8926,121.745736,1.1886644e-08
C0ACA0,新莊,2014-02-22,25.051478,121.446756,1.4101342e-08
C0R220,潮州,2014-02-22,22.534361,120.54,1.5582251e-09
U2HA40,臺大內茅埔,2014-02-22,23.689722,120.851117,3.7260435e-09
467490,臺中,2014-02-22,24.145736,120.684075,8.0802735e-08
C0U960,翠峰湖,2014-02-22,24.510856,121.608044,3.1359576e-08
E2HA20,林試畢祿溪站,2014-02-22,24.226944,121.308522,2.315523e-08
C0V890,前鎮,2014-02-22,22.5718,120.3117,1.1939332e-09
467620,蘭嶼,2014-02-22,22.036969,121.558339,0.99995196
C1F941,雪嶺,2014-02-22,24.280586,121.026642,2.978486e-08
C2H9E0,國姓南港,2014-02-22,23.911108,120.846556,7.5628055e-09
C0AC80,文山,2014-02-22,25.00235,121.575728,1.6086648e-08
C0F9R0,龍井,2014-02-22,24.184536,120.528972,1.661835e-07
C0M760,民雄,2014-02-22,23.551754,120.428457,2.0272923e-08
C0UA40,西德山,2014-02-22,24.560647,121.752608,1.9444956e-08
C1T920,中興,2014-02-22,23.769503,121.498653,1.0569038e-07
C0D550,雪霸,2014-02-22,24.526972,121.11605,2.1312403e-08
C2F860,梨山,2014-02-22,24.247522,121.243669,2.3657456e-08
C0R320,車城,2014-02-22,22.0744,120.716247,0.9999739
C1S870,南美山,2014-02-22,23.15025,121.382333,4.8279713e-08
C0B020,基隆嶼,2014-02-22,25.19141,121.78391,1.888484e-08
C1U501,牛鬥,2014-02-22,24.637836,121.573656,1.2753991e-08
C0M730,嘉義市東區,2014-02-22,23.457673,120.460531,3.352758e-08
C0S700,知本,2014-02-22,22.684866,121.005642,4.3731042e-08
C1N001,沙崙,2014-02-22,22.935472,120.309406,1.3367336e-09
C0V760,橋頭,2014-02-22,22.757806,120.30575,1.3306437e-09
C0G960,福寶,2014-02-22,24.0443,120.3814,6.9947714e-09
C0X210,白河,2014-02-22,23.347466,120.414427,3.6889607e-09
C0S810,東河,2014-02-22,22.972672,121.303986,1.02370464e-07
C2R170,屏東,2014-02-22,22.66027,120.49403,1.552775e-09
C0R670,楓港,2014-02-22,22.190131,120.692156,5.490992e-06
C0FA50,霧峰,2014-02-22,24.0419,120.6995,5.180734e-08
C0UB10,蘇澳,2014-02-22,24.5969,121.8571,7.2438118e-09
C0G950,防潮門,2014-02-22,24.1835,120.4871,1.7261128e-07
C0M740,六腳,2014-02-22,23.492871,120.290625,2.2549649e-09
C1R250,力里,2014-02-22,22.428117,120.629228,1.6528194e-09
C0K330,虎尾,2014-02-22,23.719183,120.442036,1.7116529e-09
C2FA00,烏石坑,2014-02-22,24.273503,120.947617,9.774032e-09
C0V620,永安,2014-02-22,22.82315,120.236856,1.7730271e-09
C1I330,楓樹林,2014-02-22,23.986803,121.076117,1.0253986e-08
C0W200,湖西,2014-02-22,23.596314,119.67275,0.96045953
72Q010,高雄農改場,2014-02-22,22.709333,120.525889,1.5706502e-09
C0SA40,瑞和,2014-02-22,22.974361,121.156697,5.476958e-08
C0C680,龜山,2014-02-22,25.02846,121.38656,1.0824626e-08
C2V260,月眉,2014-02-22,22.971003,120.539853,2.2382831e-09
C0V450,鳳森,2014-02-22,22.545064,120.392592,1.2484087e-09
C0U720,南山,2014-02-22,24.43742,121.38167,1.9605428e-08
A2N290,臺南蘭花園區,2014-02-22,23.340258,120.379661,3.719298e-09
C0R560,新園,2014-02-22,22.5434,120.461558,1.6998559e-09
C0U890,三星,2014-02-22,24.66812,121.65302,1.109213e-08
C1V300,御油山,2014-02-22,23.001983,120.715364,1.6136523e-08
C0U600,礁溪,2014-02-22,24.817539,121.765608,1.0554973e-08
C1T980,龍澗,2014-02-22,24.023289,121.411328,2.8205871e-08
C0D670,海天一線,2014-02-22,24.831986,120.914438,1.596344e-08
C0SA00,歷坵,2014-02-22,22.520969,120.89185,2.345536e-08
C0M710,東石,2014-02-22,23.458927,120.15385,2.8372584e-09
C0M780,鹿草,2014-02-22,23.41134,120.30835,2.4036093e-09
C0U520,雙連埤,2014-02-22,24.753033,121.641303,1.123556e-08
C0B010,七堵,2014-02-22,25.094819,121.71713,1.879074e-08
C0R480,長治,2014-02-22,22.693128,120.542622,1.642781e-09
C1V830,國三S383K,2014-02-22,22.781967,120.426475,1.3910041e-09
12Q980,恆春工作站,2014-02-22,22.079678,120.714425,0.9999739
C1O940,東山服務區,2014-02-22,23.286016,120.398472,3.6209025e-09
C1U840,東澳嶺,2014-02-22,24.5378,121.8485,1.6754768e-08
C1D630,飛鳳山,2014-02-22,24.766464,121.119178,1.7622291e-08
C0S940,石寧山,2014-02-22,23.223772,121.406639,3.698107e-08
C0K410,北港,2014-02-22,23.573957,120.292802,2.5060316e-09
C2M620,瑞里,2014-02-22,23.545133,120.675197,8.792658e-09
C0SB70,小港漁港,2014-02-22,23.158558,121.400431,4.2139323e-08
C2O950,安南,2014-02-22,23.076694,120.144861,3.1549803e-09
C0F0E0,南湖圈谷,2014-02-22,24.363714,121.444667,6.356618e-08
467610,成功,2014-02-22,23.097486,121.373428,9.287644e-08
C0G890,伸港,2014-02-22,24.148933,120.484403,1.6195547e-07
C2E540,龍溪,2014-02-22,24.606489,120.783933,7.9338015e-08
C1V200,梅山,2014-02-22,23.268447,120.823556,7.564479e-09
C0T9H0,加路蘭山,2014-02-22,23.682947,121.5274,4.9427555e-08
C2O930,玉井,2014-02-22,23.126042,120.46055,3.7743177e-09
C1F911,新伯公,2014-02-22,24.221361,120.841069,5.8013585e-09
C0R490,九如,2014-02-22,22.7405,120.490503,1.5622933e-09
C0X200,左鎮,2014-02-22,23.056758,120.408522,2.6240503e-09
C0SB50,叭嗡嗡,2014-02-22,23.047062,121.343223,1.2041512e-07
C1F891,稍來,2014-02-22,24.265689,121.001142,2.2956812e-08
72N240,七股研究中心,2014-02-22,23.081672,120.062894,4.805644e-09
C0C700,中壢,2014-02-22,24.977661,121.256375,1.494595e-08
C0M690,水上,2014-02-22,23.419734,120.388909,2.2328347e-08
C0V690,鼓山,2014-02-22,22.623325,120.275575,1.1984758e-09
C0O860,大內,2014-02-22,23.11885,120.36083,2.1033943e-09
C0Z200,萬榮,2014-02-22,23.709219,121.420106,9.3832796e-08
C0T9D0,和中,2014-02-22,24.26676,121.74103,4.1484984e-08
C1O921,楠西,2014-02-22,23.183511,120.484083,4.0775636e-09
C0AJ30,淡水觀海,2014-02-22,25.184591,121.408616,1.3802273e-08
C0V810,左營,2014-02-22,22.67491,120.28491,1.0940004e-09
C0UA70,桃源谷,2014-02-22,24.962606,121.888875,1.3649306e-08
C0X130,官田,2014-02-22,23.193217,120.315422,1.880231e-09
C1H000,翠峰,2014-02-22,24.109397,121.205211,2.8018311e-08
C0UA90,石城,2014-02-22,24.980444,121.951214,1.0122816e-08
C1E681,南勢山,2014-02-22,24.421669,120.923831,9.505807e-09
C0A9F0,內湖,2014-02-22,25.079422,121.57545,1.6047851e-08
C0K291,宜梧,2014-02-22,23.536281,120.169329,2.8852223e-09
C1K540,口湖,2014-02-22,23.585344,120.180517,3.8391037e-09
C0R780,滿州,2014-02-22,22.024403,120.839892,0.9999642
C0V870,文安,2014-02-22,22.8025,120.2164,1.759152e-09
C0U650,玉蘭,2014-02-22,24.675286,121.587061,1.6845869e-08
C0R640,東港,2014-02-22,22.46247,120.44074,1.1939332e-09
K2E360,苗栗農改,2014-02-22,24.495722,120.829111,1.0337721e-08
C0AJ80,板橋,2014-02-22,25.0107,121.4489,1.5553962e-08
C0S660,下馬,2014-02-22,23.150427,121.070312,4.5337384e-08
C1H9B1,阿眉,2014-02-22,24.1263,120.994672,1.5488537e-08
C0UA20,多加屯,2014-02-22,24.368614,121.373189,3.2617383e-08
C0E730,頭份,2014-02-22,24.688247,120.912206,1.6641799e-08
72V140,高改旗南分場,2014-02-22,22.857861,120.516667,2.9033347e-09
C0K480,莿桐,2014-02-22,23.761192,120.502372,2.0935842e-09
C0U980,坪林石牌,2014-02-22,24.86478,121.77396,1.7088258e-08
C0T900,西林,2014-02-22,23.8119,121.441458,8.7793225e-08
C1I150,青雲,2014-02-22,23.793361,120.949378,4.2434825e-09
467350,澎湖,2014-02-22,23.565503,119.563094,0.9779225
C0G800,埔鹽,2014-02-22,24.000394,120.431683,6.871842e-09
C0H960,草屯,2014-02-22,23.973672,120.68085,2.5028979e-09
C1V780,多納林道,2014-02-22,22.888028,120.737917,9.09932e-09
C0E920,通霄漁港,2014-02-22,24.498589,120.673876,1.7135476e-07
C0Z330,安通山,2014-02-22,23.290728,121.348528,4.5410165e-08
C0AH10,永和,2014-02-22,25.01125,121.508111,1.5998188e-08
C0AK10,太平里,2014-02-22,25.134937,121.364899,1.4101342e-08
C2G640,鹿港,2014-02-22,24.0753,120.430481,6.871842e-09
C1E890,國三N149K,2014-02-22,24.463414,120.680019,1.1316572e-07
C1R110,口社,2014-02-22,22.770111,120.645222,2.651697e-09
C1M870,國三N285K,2014-02-22,23.550319,120.505833,2.4961901e-09
467050,新屋,2014-02-22,25.006744,121.047486,8.124422e-09
C1E480,鳳美,2014-02-22,24.554803,121.034747,9.461526e-09
C0M530,奮起湖,2014-02-22,23.493903,120.699253,9.753752e-09
C0C590,觀音,2014-02-22,25.027072,121.153317,1.220011e-08
C0T9M0,靜浦,2014-02-22,23.455167,121.495028,1.00521305e-07
C2H9M0,發祥,2014-02-22,24.154094,121.164517,1.0759334e-08
C0AI40,石牌,2014-02-22,25.115597,121.513139,1.5553962e-08
C1F871,上谷關,2014-02-22,24.203483,121.018644,9.774032e-09
C2H9G0,百勝,2014-02-22,24.051142,120.909361,6.2142105e-09
C0G880,二水,2014-02-22,23.810742,120.6173,2.461952e-09
C0R940,加祿堂,2014-02-22,22.3363,120.6217,1.5947058e-09
C0W220,北竿,2014-02-22,26.220358,119.974881,2.0279963e-08
C0O960,崎頂,2014-02-22,22.959547,120.369317,1.982642e-09
C0S750,向陽,2014-02-22,23.248397,120.986133,2.2650918e-08
C0T9F0,水璉,2014-02-22,23.797131,121.542514,7.871475e-08
C1M600,頭凍,2014-02-22,23.406364,120.603339,6.0345644e-09
467660,臺東,2014-02-22,22.752211,121.154586,4.1933225e-07
C1D380,新埔,2014-02-22,24.84745,121.03834,1.9239577e-08
C2G980,田頭村,2014-02-22,23.8263,120.444175,1.8414881e-09
C0V750,路竹,2014-02-22,22.854997,120.259439,1.492583e-09
C0N050,蚵寮,2014-02-22,23.301,120.1104,4.5258046e-09
72M700,南改鹿草分場,2014-02-22,23.416869,120.283061,2.4296334e-09
C1SA50,利嘉林道,2014-02-22,22.82325,121.009389,1.7247956e-08
467550,玉山,2014-02-22,23.487614,120.959522,4.2791e-08
C0A940,金山,2014-02-22,25.223628,121.643967,1.4446267e-08
C1V340,大津,2014-02-22,22.888322,120.645986,1.90094e-09
C0W180,七美,2014-02-22,23.219333,119.444892,0.98760843
C1F9C1,白冷,2014-02-22,24.182844,120.929889,6.6560495e-09
K2E710,苗改生物防治研究中心,2014-02-22,24.422861,120.871833,9.749121e-09
C0N040,蘆竹溝,2014-02-22,23.2344,120.0961,4.5258046e-09
C2W230,畜試所澎湖,2014-02-22,23.628342,119.513206,0.93576574
C0R880,後壁湖,2014-02-22,21.9457,120.7457,0.9999752
C1I280,埔中,2014-02-22,23.820778,120.642594,3.6601482e-09
467790,墾丁雷達站,2014-02-22,21.948235,120.808028,0.9999617
C0W190,望安,2014-02-22,23.380564,119.494075,0.9707277
466881,新北,2014-02-22,24.9593,121.52,1.5983883e-08
C0Z170,卓溪,2014-02-22,23.3443,121.3029,3.612406e-08
C0F850,東勢,2014-02-22,24.246428,120.833047,5.606784e-09
466900,淡水,2014-02-22,25.164889,121.448906,1.3770272e-08
C0I370,魚池,2014-02-22,23.895703,120.94135,4.484884e-09
C0C630,大溪,2014-02-22,24.882853,121.265547,1.46348e-08
C0A520,山佳,2014-02-22,24.974944,121.402008,1.5631228e-08
C0I110,竹山,2014-02-22,23.761225,120.688156,2.7682685e-09
82H840,茶改南部分場,2014-02-22,23.762528,120.7405,4.00197e-09
C0G660,溪湖,2014-02-22,23.94835,120.479122,5.3356515e-09
C1T800,洛韶,2014-02-22,24.204558,121.453956,3.011079e-08
C1T810,慈恩,2014-02-22,24.192044,121.388386,2.9674739e-08
C1E451,象鼻,2014-02-22,24.368617,120.940228,9.501854e-09
C0AC60,三峽,2014-02-22,24.939025,121.369728,1.600533e-08
C0I490,萬大林道,2014-02-22,23.928228,121.091411,1.4141771e-08
C1I290,豐丘,2014-02-22,23.668178,120.887417,5.409885e-09
C1I320,奧萬大,2014-02-22,23.952956,121.178556,1.0334882e-08
C2M910,嘉義大學,2014-02-22,23.471325,120.485903,2.4115627e-09
C0U770,南澳,2014-02-22,24.44935,121.81022,1.4569405e-08
C0A980,社子,2014-02-22,25.109508,121.469681,1.5476665e-08
C0V800,六龜,2014-02-22,22.997889,120.633583,2.8821203e-09
C1G9D0,國一S218K,2014-02-22,23.890641,120.493253,5.2507865e-09
C0E570,白沙屯,2014-02-22,24.549447,120.696803,1.7135476e-07
C2F9A0,中竹林,2014-02-22,24.103556,120.751061,4.5365995e-09
C0FA40,臺中電廠,2014-02-22,24.2146,120.4907,1.661835e-07
C2G9A0,畜試所彰化,2014-02-22,23.86045,120.557964,2.166433e-09
C0H9C0,合歡山,2014-02-22,24.143442,121.272547,4.594536e-08
C0X060,下營,2014-02-22,23.22695,120.256261,1.8906672e-09
G2M350,農試溪口農場,2014-02-22,23.58565,120.408111,2.1598986e-08
C0U860,頭城,2014-02-22,24.85323,121.8308,1.0492388e-08
C0R580,南州,2014-02-22,22.48591,120.50274,1.70802e-09
C0D430,峨眉,2014-02-22,24.6905,121.017189,1.7132805e-08
C0G780,秀水,2014-02-22,24.03405,120.503869,5.21405e-09
72N100,臺南農改場,2014-02-22,23.0605,120.342194,1.4588084e-09
C0S900,蘭嶼高中,2014-02-22,22.04909,121.51214,0.99998504
467540,大武,2014-02-22,22.355675,120.903789,2.745683e-07
C1F9W0,德基,2014-02-22,24.254783,121.190261,1.9260947e-08
C1Z120,壽豐,2014-02-22,23.870853,121.508081,1.14870126e-07
C0W160,烏坵,2014-02-22,24.9944,119.44956,0.00029505868
C1I240,外大坪,2014-02-22,23.958697,120.917931,5.495602e-09
C1I550,國六W023K,2014-02-22,23.979067,120.867742,3.791982e-09
C0R870,興海,2014-02-22,21.9752,120.8439,0.99997056
C0R140,瑪家,2014-02-22,22.682903,120.686639,5.044828e-09
C0A530,坪林,2014-02-22,24.938183,121.70975,1.1643869e-08
C0X260,後壁,2014-02-22,23.366358,120.362326,2.4545623e-09
C0Z230,和平,2014-02-22,24.30717,121.77007,4.1522743e-08
C0G770,福興,2014-02-22,24.041289,120.437669,6.871842e-09
C0H9A0,神木村,2014-02-22,23.532742,120.843667,1.2186784e-08
C0I460,南投,2014-02-22,23.911469,120.687331,2.5423226e-09
C0I480,梅峰,2014-02-22,24.085272,121.173572,2.2676032e-08
C1V570,吉東,2014-02-22,22.85422,120.5454,2.9568168e-09
C2D740,屯原,2014-02-22,24.067969,121.209389,2.0355335e-08
C2A560,福山,2014-02-22,24.776203,121.502811,1.0685382e-08
C0AH30,五分山,2014-02-22,25.07125,121.780794,1.7282732e-08
C0FA10,松柏,2014-02-22,24.429115,120.617482,1.6731926e-07
72S200,東改班鳩分場,2014-02-22,22.829528,121.077694,1.1833071e-07
72HA00,中改埔里分場,2014-02-22,23.903208,120.963364,4.3535198e-09
C2H9W0,大坪頂農水,2014-02-22,24.043122,120.932781,5.4187144e-09
C0C650,平鎮,2014-02-22,24.897503,121.214636,1.373672e-08
C0S930,延平,2014-02-22,22.902581,121.084058,4.9544596e-08
C0UA60,樟樹山,2014-02-22,24.41393,121.78325,2.640595e-08
C1S670,摩天,2014-02-22,23.199503,121.027,2.358852e-08
C0V630,茄萣,2014-02-22,22.906642,120.182608,1.5428084e-09
466940,基隆,2014-02-22,25.133314,121.740475,1.8985856e-08
C0X050,東河,2014-02-22,23.296598,120.385608,3.7145975e-09
C0R770,保力,2014-02-22,22.071122,120.764111,0.9999505
G2L020,農試嘉義分所,2014-02-22,23.485028,120.473806,2.4615998e-09
C0X240,關子嶺,2014-02-22,23.331169,120.508025,3.2860523e-09
C0I380,集集,2014-02-22,23.828206,120.801467,3.0569554e-09
466990,花蓮,2014-02-22,23.975128,121.613275,6.9381706e-08
C1V220,小關山,2014-02-22,23.154217,120.813603,1.833806e-08
C1F9G1,慶福山,2014-02-22,24.180853,120.848378,8.036006e-09
C0Z250,瑞穗林道,2014-02-22,23.49284,121.30688,4.6642462e-08
C0D590,新豐,2014-02-22,24.87068,120.97721,8.21035e-09
C0A870,五指山,2014-02-22,25.132153,121.608692,1.5977756e-08
C0UA50,西帽山,2014-02-22,24.555361,121.802628,1.6405243e-08
C0X160,仁德,2014-02-22,22.968258,120.257689,1.4403615e-09
C1H971,六分寮,2014-02-22,23.92507,120.6378,4.165901e-09
C0W120,西嶼,2014-02-22,23.5626,119.468436,0.9779225
C0G650,員林,2014-02-22,23.946503,120.585597,4.983706e-09
C0AD50,鶯歌,2014-02-22,24.951533,121.346294,1.4479508e-08
C2H9Q0,北東眼山,2014-02-22,24.120939,121.189303,1.9984714e-08
C2H9T0,名間竹圍,2014-02-22,23.859914,120.637572,3.3378256e-09
C0S990,山豬窟,2014-02-22,22.318619,120.857372,9.374425e-08
72Q010,高雄農改,2014-02-22,22.709333,120.525889,1.5706502e-09
C0X190,安平,2014-02-22,22.993161,120.152181,1.9131945e-09
C0K400,斗六,2014-02-22,23.720583,120.541127,2.112356e-09
12J990,口湖工作站,2014-02-22,23.589978,120.180394,3.7978376e-09
C0O830,北寮,2014-02-22,23.079561,120.495008,2.5206286e-09
C1D410,白蘭,2014-02-22,24.579364,121.079947,1.4762669e-08
C0S970,加津林,2014-02-22,22.416211,120.926942,1.7606929e-07
C0D700,關西,2014-02-22,24.7977,121.1732,1.32133975e-08
C0M810,里佳,2014-02-22,23.389125,120.716647,9.753752e-09
C0U750,龜山島,2014-02-22,24.841667,121.953133,9.411417e-09
C0R810,內獅,2014-02-22,22.305064,120.642986,1.5947058e-09
C1M390,龍美,2014-02-22,23.406728,120.654417,7.9900175e-09
C2FB60,頭櫃山,2014-02-22,24.129842,120.858925,9.661396e-09
C1H840,國三N238K,2014-02-22,23.841008,120.707711,3.100024e-09
CAQ030,崎峰國小,2014-02-22,22.42565,120.49521,1.70802e-09
C2E520,大湖,2014-02-22,24.414939,120.870872,1.0941408e-08
467530,阿里山,2014-02-22,23.508208,120.813242,2.0387391e-08
C1E691,南湖,2014-02-22,24.40135,120.837533,8.6857295e-09
C0FA30,梧棲,2014-02-22,24.256003,120.523381,1.661835e-07
C1V231,高中,2014-02-22,23.134911,120.716711,5.033189e-09
C0F9V0,新社,2014-02-22,24.200172,120.815806,6.5958172e-09
C0H890,埔里,2014-02-22,23.972169,120.952425,5.462558e-09
C0R690,墾丁,2014-02-22,21.966756,120.810269,0.99816376
C0F0D0,審馬陣,2014-02-22,24.381675,121.4203,4.2201496e-08
C0R820,白鷺,2014-02-22,22.454275,120.666219,5.5471734e-09
U2H480,臺大溪頭,2014-02-22,23.670306,120.798194,5.7147185e-09
C1V190,南天池,2014-02-22,23.27403,120.91176,2.4997407e-08
K2E360,苗栗農改場,2014-02-22,24.495722,120.829111,1.0337721e-08
CAJ050,海口故事園區,2014-02-22,23.57543,120.14121,3.8391037e-09
C2H9D0,三隻寮,2014-02-22,24.093078,120.861578,5.5244933e-09
C0O990,媽廟,2014-02-22,22.99175,120.293525,1.4498626e-09
C0D480,打鐵坑,2014-02-22,24.849664,121.150789,1.3656493e-08
C0Z220,和平林道,2014-02-22,24.343922,121.656317,2.6406049e-08
C0TA10,花蓮漁港,2014-02-22,23.995322,121.638331,7.0345784e-08
72C440,桃園農改場,2014-02-22,24.950944,121.030583,8.190673e-09
C1E711,馬拉邦山,2014-02-22,24.367306,120.901656,1.1098373e-08
C0SB20,富岡,2014-02-22,22.792467,121.192669,4.027506e-07
C0D560,竹東,2014-02-22,24.767147,121.057881,1.7245029e-08
C0F9U0,南屯,2014-02-22,24.137006,120.637969,7.833014e-08
C0M720,番路,2014-02-22,23.464657,120.554156,2.6869336e-09
C0F0A0,雪山圈谷,2014-02-22,24.388594,121.236339,5.1076572e-08
C1A9N0,四十份,2014-02-22,24.934158,121.593283,1.1604095e-08
C0U760,東澳,2014-02-22,24.52196,121.83318,8.950102e-09
C0X230,鹽水,2014-02-22,23.272621,120.247641,2.1369093e-09
C2H9H0,苗改南投蜂場,2014-02-22,23.852589,120.693481,2.7682685e-09
C0R950,萬隆國小,2014-02-22,22.507667,120.587817,1.1693718e-09
C0V370,古亭坑,2014-02-22,22.893178,120.401947,2.3721154e-09
C1I340,新興橋,2014-02-22,23.563333,120.868728,4.6039377e-09
C0SA80,土坂,2014-02-22,22.453108,120.887572,3.7322692e-08
C0R160,鹽埔,2014-02-22,22.739558,120.530778,1.6212159e-09
C0AC40,大屯山,2014-02-22,25.175675,121.522408,2.4153294e-08
466850,五分山雷達站,2014-02-22,25.071182,121.781205,1.7365007e-08
C2H9L0,馬烈霸,2014-02-22,24.1512,121.201772,1.9754184e-08
C1AI50,國三N016K,2014-02-22,25.034164,121.619664,1.6063101e-08
C1V600,藤枝,2014-02-22,23.071961,120.757042,1.5167885e-08
C1E601,南勢,2014-02-22,24.572486,120.734842,1.2308867e-08
C0Z180,新城,2014-02-22,24.03946,121.60454,6.79684e-08
C0O980,新市,2014-02-22,23.061614,120.298197,1.433127e-09
C0K420,西螺,2014-02-22,23.800407,120.467394,2.069276e-09
C0Z050,佳心,2014-02-22,23.34567,121.21316,4.5092374e-08
C0AD30,蘆洲,2014-02-22,25.086594,121.472331,1.5462739e-08
C0V610,梓官,2014-02-22,22.760558,120.267211,1.3156181e-09
K2F750,種苗改良場,2014-02-22,24.225972,120.800917,6.157025e-09
C0UA80,大溪漁港,2014-02-22,24.941801,121.902955,1.0554973e-08
C1AI60,國一39K邊坡,2014-02-22,25.064361,121.383836,1.1419593e-08
C0W150,金寧,2014-02-22,24.457703,118.328989,6.958789e-09
C0R960,內埔,2014-02-22,22.608483,120.570714,1.1417302e-09
V2C250,八德合作社,2014-02-22,24.93775,121.266389,1.3136527e-08
C2H9S0,龍南,2014-02-22,23.953536,120.833183,9.254221e-09
C0AH40,平等,2014-02-22,25.129142,121.577086,1.2549172e-08
C0R540,佳冬,2014-02-22,22.419456,120.552375,1.70802e-09
466950,彭佳嶼,2014-02-22,25.627975,122.079744,0.00031541614
C0A890,雙溪,2014-02-22,25.036003,121.864242,1.8692935e-08
C0C480,桃園,2014-02-22,24.992425,121.323172,1.4803582e-08
C0AH50,林口,2014-02-22,25.072181,121.38084,1.1632437e-08
A2K360,水試臺西試驗場,2014-02-22,23.717231,120.190522,3.6179152e-08
B2N890,畜試所,2014-02-22,23.058972,120.336406,1.4600192e-09
C2M960,外寮,2014-02-22,23.562643,120.665688,7.478347e-09
C0F9S0,烏日,2014-02-22,24.107058,120.624103,5.226327e-09
C0C490,八德,2014-02-22,24.928708,121.283289,1.42335885e-08
C0R190,赤山,2014-02-22,22.592333,120.614306,1.1606347e-09
C0T820,天祥,2014-02-22,24.179597,121.495639,3.275435e-08
C1F9E1,龍安,2014-02-22,24.1605,120.831961,6.8162196e-09
C0V820,小林,2014-02-22,23.148408,120.63325,3.0737235e-09
C2G870,芳苑,2014-02-22,23.922303,120.320025,2.941765e-08
C0E850,大河,2014-02-22,24.618069,120.948578,1.1737947e-08
C1U670,寒溪,2014-02-22,24.634,121.71691,1.1807894e-08
C0N020,城西,2014-02-22,23.0568,120.0956,4.763583e-09
C1Z110,三棧,2014-02-22,24.11557,121.60501,8.837318e-08
C0R280,檳榔,2014-02-22,22.076078,120.836777,0.99894816
C2H9J0,中台,2014-02-22,23.9996,120.938739,5.914178e-09
C0F9L0,后里,2014-02-22,24.310436,120.729725,9.572069e-09
C0D540,橫山,2014-02-22,24.71116,121.11693,1.5069954e-08
C1D420,太閣南,2014-02-22,24.632808,121.160575,1.7452935e-08
C1E770,公館,2014-02-22,24.526914,120.830806,1.0177336e-07
CAN130,水試所海水繁養殖中心,2014-02-22,23.120802,120.07968,4.805644e-09
C1I430,翠華,2014-02-22,24.191961,121.224339,2.869577e-08
C1M400,菜瓜坪,2014-02-22,23.251928,120.576103,3.1719474e-09
C0G730,二林,2014-02-22,23.903325,120.376081,5.7189493e-09
72M360,南改義竹分場,2014-02-22,23.360694,120.279361,1.7090758e-09
V2K620,麥寮合作社,2014-02-22,23.753836,120.294783,2.4376416e-08
C0Z070,舞鶴,2014-02-22,23.46811,121.37407,5.3316867e-08
C0B040,大武崙,2014-02-22,25.166676,121.706993,1.8780778e-08
C1Z030,紅葉,2014-02-22,23.493119,121.338806,5.6765035e-08
C1I050,丹大,2014-02-22,23.753747,121.141147,2.5898917e-08
C0I080,信義,2014-02-22,23.689694,120.851036,3.7260435e-09
C2M920,朴子農改,2014-02-22,23.469889,120.259383,2.2579518e-09
C2A880,福隆,2014-02-22,25.017842,121.942083,1.2258658e-08
C0Z160,鳳林,2014-02-22,23.746114,121.453411,1.0156703e-07
C0V210,復興,2014-02-22,23.222403,120.806089,6.8329595e-09
C0H990,昆陽,2014-02-22,24.121322,121.273642,3.8668922e-08
C0R741,獅子,2014-02-22,22.202308,120.705236,1.7925088e-06
C0S710,鹿野,2014-02-22,22.917711,121.122994,6.585462e-08
C0I530,小奇萊,2014-02-22,24.131764,121.295717,4.0605922e-08
C2K630,荷苞,2014-02-22,23.657717,120.595144,2.8062581e-09
C0Z080,富源,2014-02-22,23.587642,121.378225,7.85706e-08
467441,高雄,2014-02-22,22.7304,120.3125,1.0940004e-09
C0SB10,美和,2014-02-22,22.682078,121.060236,5.39402e-07
C2K620,馬光農場,2014-02-22,23.721453,120.378864,1.6686224e-09
C1I140,卡奈托灣,2014-02-22,23.754364,121.087872,1.2409548e-08
C0I520,玉山風口,2014-02-22,23.470489,120.955994,4.3814616e-08
C1G691,下水埔,2014-02-22,23.816114,120.5676,2.3524394e-09
C0X110,臺南市南區,2014-02-22,22.961189,120.188378,1.9359794e-09
C0V680,仁武,2014-02-22,22.701083,120.347722,1.104905e-09
C2G840,北斗,2014-02-22,23.877586,120.514222,5.227513e-09
C0R900,竹坑,2014-02-22,22.1385,120.7022,0.23308924
C0K250,崙背,2014-02-22,23.75555,120.318925,2.3167821e-08
C0G860,社頭,2014-02-22,23.897647,120.5862,4.9106257e-09
C0X150,安定,2014-02-22,23.102614,120.227839,1.9347686e-09
C0R590,里港,2014-02-22,22.77919,120.49459,2.184245e-09
C0E610,馬都安,2014-02-22,24.451272,120.930192,1.1068017e-08
C0E550,明德,2014-02-22,24.583486,120.885411,1.1725349e-08
C0R150,三地門,2014-02-22,22.709889,120.639944,1.7541631e-09
C0G910,花壇,2014-02-22,24.032076,120.549461,5.118285e-09
C1D400,鳥嘴山,2014-02-22,24.71909,121.28387,1.4587479e-08
C0K500,元長,2014-02-22,23.64981,120.315024,2.0021341e-08
C0F0B0,石岡,2014-02-22,24.276061,120.777644,4.574422e-09
C2V250,甲仙,2014-02-22,23.080106,120.591758,2.9122917e-09
C0SA20,金崙山,2014-02-22,22.567419,120.959667,1.9909422e-08
C0V350,溪埔,2014-02-22,22.738578,120.446797,1.3953009e-09
C0M660,溪口,2014-02-22,23.604131,120.403569,2.1598986e-08
C1S880,壽卡,2014-02-22,22.238911,120.858903,8.821298e-09
72D680,桃改新埔分場,2014-02-22,24.834444,121.066111,1.6707666e-08
