站號,站名,日期,lat,lon,BLBTSLS
C0R710,龍磐,2014-08-23,21.931672,120.838942,0.9795868
C1F9D1,白毛台,2014-08-23,24.158325,120.886933,4.1468812e-07
C0G940,竹塘,2014-08-23,23.848253,120.386764,0.19499958
467590,恆春,2014-08-23,22.003897,120.746339,0.9859931
C1O850,環湖,2014-08-23,23.148617,120.418633,0.0214919
C0U710,太平山,2014-08-23,24.505486,121.525656,1.5043303e-08
C0E820,獅潭,2014-08-23,24.539133,120.920042,0.050795883
C0V880,興達,2014-08-23,22.8778,120.2127,0.06465296
C0S890,關山,2014-08-23,23.0395,121.175017,0.010603075
C0SB30,新蘭,2014-08-23,22.869214,121.223228,0.8968613
C2R970,屏科大,2014-08-23,22.648275,120.619247,0.99330336
K2F750,種苗繁殖,2014-08-23,24.225972,120.800917,1.6347992e-06
C1Z130,銅門,2014-08-23,23.965694,121.492842,0.85757136
C0AD40,土城,2014-08-23,24.973208,121.445169,0.016810957
CAN140,六官養殖協會,2014-08-23,23.22881,120.29962,0.05369794
C0X180,山上,2014-08-23,23.0757,120.363253,0.0017268026
C0F9Z0,雪山東峰,2014-08-23,24.388792,121.268675,1.1644047e-08
C1M480,獨立山,2014-08-23,23.537022,120.607797,4.5028085e-07
C0X220,學甲,2014-08-23,23.230367,120.182187,0.16612278
467650,日月潭,2014-08-23,23.881325,120.90805,5.9673744e-07
C0K600,箔子寮,2014-08-23,23.6197,120.14,0.7310428
C0G830,埤頭,2014-08-23,23.866003,120.452806,0.29218227
C0S950,七塊厝,2014-08-23,22.954453,121.229922,0.83937544
467110,金門,2014-08-23,24.407306,118.289281,0.009719811
C0AH80,深坑,2014-08-23,25.002703,121.628328,0.017731074
467990,馬祖,2014-08-23,26.169269,119.923419,0.998663
C0A970,三貂角,2014-08-23,25.007606,122.002058,0.023508899
C2D730,寶山農場,2014-08-23,24.732444,120.976153,0.011041918
C0K430,褒忠,2014-08-23,23.690938,120.303634,0.3277588
467480,嘉義,2014-08-23,23.495925,120.432906,0.06264059
C2E540,後龍,2014-08-23,24.606489,120.783933,0.2727194
C0V400,阿公店,2014-08-23,22.804194,120.355528,0.07411105
C0R440,大漢山,2014-08-23,22.405264,120.753181,1.629578e-08
C0K280,四湖,2014-08-23,23.630414,120.227125,0.7530812
C1F9B1,桐林,2014-08-23,24.066172,120.735194,0.3098625
C2H9U0,鳳鵬,2014-08-23,23.763919,120.788061,9.617303e-06
C0K390,土庫,2014-08-23,23.679029,120.395574,0.15256713
C1I450,望鄉山,2014-08-23,23.594153,120.944286,1.7646341e-08
C0E910,海埔,2014-08-23,24.648767,120.772435,0.064318985
B2E890,畜試北區分所,2014-08-23,24.527806,120.770972,0.13767292
C0R750,四林格山,2014-08-23,22.076989,120.802439,0.26805097
C0F0C0,中坑,2014-08-23,24.248517,120.903319,5.342579e-08
C1I121,大鞍,2014-08-23,23.678381,120.760017,1.2993658e-07
72U480,花改蘭陽分場,2014-08-23,24.686306,121.716583,0.01709775
C0A770,科教館,2014-08-23,25.096356,121.516507,0.017053444
C0AJ60,六塊厝,2014-08-23,25.24,121.4481,0.013723895
C0R620,墾雷,2014-08-23,21.900836,120.855269,0.98587024
467420,永康,2014-08-23,23.038386,120.2367,0.5781786
467300,東吉島,2014-08-23,23.25695,119.667467,0.9893124
C0I410,名間,2014-08-23,23.837053,120.701447,0.2742469
A2C560,農工中心,2014-08-23,24.985917,121.239833,0.03189251
C0V740,旗山,2014-08-23,22.888614,120.483597,0.00013322677
C0Z061,玉里,2014-08-23,23.3215,121.339656,0.9942052
C0S840,南田,2014-08-23,22.279725,120.889208,0.7749615
C1I470,杉林溪,2014-08-23,23.639517,120.786444,7.495529e-08
C1X040,東原,2014-08-23,23.291597,120.463822,0.1925354
C0R660,枋寮,2014-08-23,22.367722,120.590647,0.9689751
C1R120,上德文,2014-08-23,22.763272,120.704442,1.1583461e-06
C0K450,大埤,2014-08-23,23.646074,120.431537,0.17375687
C0UA00,土場,2014-08-23,24.576533,121.495333,0.9831507
467080,宜蘭,2014-08-23,24.763975,121.756528,0.6187172
C0N030,四草,2014-08-23,23.0235,120.1116,0.008683679
C0V650,彌陀,2014-08-23,22.783806,120.246361,0.76474947
C0D660,新竹市東區,2014-08-23,24.798681,120.986942,0.020637617
82S580,茶改東部分場,2014-08-23,22.907694,121.130139,0.80405676
C0SB40,興隆,2014-08-23,22.913661,121.257469,0.5502399
C0C710,大溪永福,2014-08-23,24.892936,121.324975,0.03402195
C0FA20,溫寮,2014-08-23,24.372177,120.583125,0.01737389
C0V640,湖內,2014-08-23,22.887139,120.2445,0.07413473
C0R910,下寮,2014-08-23,22.3929,120.5548,0.4402198
C0Z020,明里,2014-08-23,23.208717,121.262342,0.99712217
C0M770,嘉義梅山,2014-08-23,23.585398,120.555587,0.34431374
G2F820,農業試驗所,2014-08-23,24.031261,120.688133,0.16262399
C0C660,楊梅,2014-08-23,24.912375,121.143047,0.023507286
C1E511,新開,2014-08-23,24.347703,120.827019,0.15992306
G2F820,農試所(霧峰),2014-08-23,24.031261,120.688133,0.16262399
C1I070,和社,2014-08-23,23.591131,120.888861,3.284842e-05
C2F000,大肚,2014-08-23,24.15295,120.572117,0.53634137
C1S850,豐南,2014-08-23,23.122139,121.262389,0.6641223
C2A920,富貴角,2014-08-23,25.263783,121.565258,0.0096747475
CAH030,茶改場竹圍站,2014-08-23,23.860083,120.637528,0.029249446
C0T960,光復,2014-08-23,23.660694,121.424964,0.74168646
C0F9M0,豐原,2014-08-23,24.254322,120.720692,0.005456611
C0R720,旭海,2014-08-23,22.205403,120.887614,0.85739297
C0V710,苓雅,2014-08-23,22.622742,120.330669,0.15838118
C0C740,觀音工業區,2014-08-23,25.064764,121.114856,0.020196881
CAC040,拉拉山,2014-08-23,24.699317,121.427133,1.8753502e-08
C0V790,萬山,2014-08-23,22.905944,120.688056,1.2032964e-06
U2HA30,臺大和社,2014-08-23,23.590856,120.888864,3.284842e-05
C0AJ90,澳底,2014-08-23,25.0552,121.9253,0.018640798
C0Z100,東華,2014-08-23,23.89525,121.549833,0.34754428
C0G970,三豐,2014-08-23,23.882,120.2895,0.5297951
V2K610,大庄合作社,2014-08-23,23.8068,120.367939,0.6165668
C0V900,汕尾,2014-08-23,22.4782,120.4151,0.031639423
C1R630,龍泉,2014-08-23,22.66701,120.59091,0.75496024
C1AC50,關渡,2014-08-23,25.133486,121.469331,0.014102471
C0F9I0,神岡,2014-08-23,24.272481,120.658314,0.011184011
C0K460,斗南,2014-08-23,23.678734,120.478359,0.31677485
467410,臺南,2014-08-23,22.993239,120.204772,0.60207796
C2O810,曾文,2014-08-23,23.219681,120.497328,0.0021096969
467280,後龍,2014-08-23,24.648563,120.831834,0.103803776
C1F9J1,清水林,2014-08-23,24.071242,120.820419,2.298296e-06
C2A650,火燒寮,2014-08-23,25.002719,121.742892,0.6532137
466930,竹子湖,2014-08-23,25.162078,121.544547,0.7184693
C1I220,樟湖,2014-08-23,23.905333,120.846983,6.289167e-08
C0I390,仁愛,2014-08-23,24.022122,121.132206,4.5692357e-08
C0Z300,東里,2014-08-23,23.26853,121.30547,0.99581265
C1V590,新發,2014-08-23,23.057019,120.646064,0.00020667554
C0K510,水林,2014-08-23,23.572924,120.24597,0.73773146
72S590,東改賓朗果園,2014-08-23,22.813889,121.071278,0.86902314
82A750,茶改北部分場,2014-08-23,24.955778,121.631222,0.97834945
C1A750,石碇服務區,2014-08-23,25.00872,121.646242,0.017273866
C0X300,鹿寮,2014-08-23,23.386047,120.477331,0.16489717
G2AI50,關渡,2014-08-23,25.11575,121.492,0.016897643
C0K590,雲林東勢,2014-08-23,23.674192,120.255721,0.3277588
C0A570,桶後,2014-08-23,24.848222,121.597992,0.34427136
C1S800,華源,2014-08-23,22.657883,121.02325,0.926957
C0G720,溪州,2014-08-23,23.851589,120.499093,0.35788345
C1V160,達卡努瓦,2014-08-23,23.279811,120.705319,5.486414e-07
C2M410,馬頭山,2014-08-23,23.324361,120.582017,0.005532926
C0V850,蚵仔寮,2014-08-23,22.7256,120.2527,0.16265742
C0S740,池上,2014-08-23,23.119628,121.209469,0.91721624
C1V390,尖山,2014-08-23,22.813153,120.367789,0.031424347
C0AH70,松山,2014-08-23,25.04871,121.55042,0.018426582
C0N010,鯤鯓國小,2014-08-23,23.1879,120.0889,0.3809664
C0R550,新埤,2014-08-23,22.467947,120.582894,0.36389562
C0SA60,知本（水試所）,2014-08-23,22.702394,121.082761,0.42473885
C0T9I0,豐濱,2014-08-23,23.583897,121.514806,0.9906475
C0UB00,淡江大學蘭陽校園,2014-08-23,24.823239,121.730383,0.9770628
C0W240,九宮,2014-08-23,24.423753,118.240186,0.83367366
C0T9N0,富里,2014-08-23,23.171639,121.249378,0.92343956
U2HA50,臺大竹山,2014-08-23,23.756972,120.681556,0.086743265
C0V840,鳳鼻頭,2014-08-23,22.5083,120.3591,0.1809014
C0X140,西港,2014-08-23,23.125608,120.203108,0.026021061
72D080,桃改五峰分場,2014-08-23,24.612194,121.157167,3.3569044e-08
C2H9P0,伊拿谷,2014-08-23,23.963211,121.088264,1.3963738e-07
C2H9F0,柑林,2014-08-23,24.018658,120.847072,0.0012847229
C0TA20,加灣,2014-08-23,24.082025,121.608944,0.48059323
C0V530,阿蓮,2014-08-23,22.883208,120.327508,0.5888531
C1O880,關山,2014-08-23,23.173397,120.594092,0.025876505
C0E791,卓蘭,2014-08-23,24.3126,120.8244,0.141822
C1I030,武界,2014-08-23,23.913225,121.052483,2.2460831e-07
C0R520,崁頂,2014-08-23,22.514781,120.506914,0.36373842
C0R341,牡丹,2014-08-23,22.130036,120.792639,0.99863815
C0R930,萬丹,2014-08-23,22.5885,120.4851,0.40367284
C0S760,紅石,2014-08-23,23.069131,121.126219,4.878718e-08
C1M610,石磐龍,2014-08-23,23.496606,120.663506,2.7178905e-07
C0UA10,鴛鴦湖,2014-08-23,24.590269,121.412228,1.4810361e-08
V2C260,八德蔬果,2014-08-23,24.978508,121.281819,0.016348913
C0R800,丹路,2014-08-23,22.204481,120.750989,0.9990976
C0G920,永靖,2014-08-23,23.924703,120.547533,0.189038
C2M950,太和,2014-08-23,23.538372,120.702961,4.4552667e-08
C1A630,下盆,2014-08-23,24.771003,121.538622,0.9989763
B2N890,畜產試驗所,2014-08-23,23.058972,120.336406,0.17065957
C0UA30,白嶺,2014-08-23,24.527819,121.519031,9.433082e-07
C1V580,溪南(特生中心),2014-08-23,23.084972,120.788475,2.6481048e-08
C1T970,大農,2014-08-23,23.615233,121.413331,0.92097044
E2S960,林試太麻里2,2014-08-23,22.598014,120.989761,0.9629131
C0R650,竹田,2014-08-23,22.58486,120.54344,0.40367284
C1H900,清流,2014-08-23,24.080775,120.962997,2.056564e-06
C1C510,水尾,2014-08-23,24.940081,121.087161,0.01648171
C0F9X0,大雅(中科園區),2014-08-23,24.21528,120.62445,0.44267464
C0SB60,白守蓮,2014-08-23,23.126769,121.401914,0.008564479
C0O970,虎頭埤,2014-08-23,23.021375,120.347878,0.06512491
C0C730,中大臨海站,2014-08-23,24.966126,121.008581,0.085231066
C0X250,新營,2014-08-23,23.310689,120.316681,0.029325427
C0V700,三民,2014-08-23,22.645017,120.311233,0.15838118
C0U870,大礁溪,2014-08-23,24.791042,121.675047,0.98281294
C0E870,高鐵苗栗,2014-08-23,24.60725,120.826094,0.31891295
A2K570,古坑花卉中心,2014-08-23,23.63353,120.55239,0.1960425
C0M860,新美,2014-08-23,23.338017,120.683169,3.3562173e-05
C1E701,八卦,2014-08-23,24.491756,120.927619,6.750826e-06
C0I420,國姓,2014-08-23,24.037803,120.855072,0.00067084364
C2D720,關西工作站,2014-08-23,24.757275,121.184792,0.009513688
C0S960,香蘭,2014-08-23,22.587569,120.993375,0.9629131
C0R260,春日,2014-08-23,22.370361,120.628306,0.9034466
72G600,臺中農改場,2014-08-23,24.003028,120.534389,0.06608644
C0Z210,瑞穗,2014-08-23,23.5239,121.39021,0.9776473
C0M820,達邦,2014-08-23,23.453994,120.749517,6.8103805e-07
C0V860,南寮,2014-08-23,22.7616,120.2339,0.7492178
C0G740,大城,2014-08-23,23.852487,120.320935,0.5516128
C0R920,塭仔,2014-08-23,22.4169,120.5197,0.48164955
C0R470,高樹,2014-08-23,22.826389,120.600806,0.31997705
C0R680,佳樂水,2014-08-23,21.993578,120.861633,0.9861114
C1O870,大棟山,2014-08-23,23.31157,120.52226,2.5581908e-08
C0D360,梅花,2014-08-23,24.678347,121.208558,0.35264444
C0Z190,富世,2014-08-23,24.14743,121.6297,0.9883156
C0AI10,屈尺,2014-08-23,24.92184,121.54475,0.017731074
B2U990,畜試東區分所,2014-08-23,24.669039,121.832561,0.023621595
C0SB80,長濱漁港,2014-08-23,23.313644,121.459994,0.8619588
C0R240,來義,2014-08-23,22.527306,120.625111,0.8744425
C0V910,大樹,2014-08-23,22.684645,120.432803,0.11031987
C1R610,西大武山,2014-08-23,22.617719,120.7322,1.3332408e-08
C0G900,線西,2014-08-23,24.143358,120.443536,0.6208354
C0M700,竹崎,2014-08-23,23.526178,120.555508,0.111656606
C2E880,三義,2014-08-23,24.405478,120.749819,1.3538033e-06
C0C720,竹圍,2014-08-23,25.112692,121.239824,0.014742729
C0F9P0,清水,2014-08-23,24.312297,120.562242,0.019001963
C0Z150,吉安光華,2014-08-23,23.930925,121.595153,0.32262954
C1D640,外坪(五指山),2014-08-23,24.644447,121.090961,0.00014421118
C0F9O0,潭子,2014-08-23,24.213106,120.703933,0.0017399307
C2H9R0,卓社,2014-08-23,23.887894,121.000086,9.988294e-09
72T250,花蓮農改場,2014-08-23,23.975222,121.563889,0.5187171
C0E780,銅鑼,2014-08-23,24.489681,120.790853,0.10725637
C1T950,太安,2014-08-23,23.666719,121.370128,0.00056773983
C0E830,苑裡,2014-08-23,24.439714,120.653053,0.030581648
467270,田中,2014-08-23,23.873803,120.581286,0.2819256
C0SA10,檳榔四格山,2014-08-23,22.810031,121.109308,0.77025056
C1T830,布洛灣,2014-08-23,24.17184,121.57127,0.99846786
C0F970,大坑,2014-08-23,24.173142,120.722289,0.08487635
C1U920,思源,2014-08-23,24.393125,121.347214,1.5197248e-08
C0A931,三和,2014-08-23,25.233153,121.595236,0.31010863
C0I010,廬山,2014-08-23,24.033311,121.181808,2.75258e-08
C2M940,日野賀,2014-08-23,23.434056,120.727169,1.4656624e-07
C0R860,鼻頭,2014-08-23,22.1043,120.8979,0.9579365
C0UB20,壯圍,2014-08-23,24.7359,121.8163,0.023621595
C0R790,九棚,2014-08-23,22.14195,120.889281,0.9279796
C0W110,東莒,2014-08-23,25.9652,119.98069,0.990845
C1U930,粉鳥林,2014-08-23,24.497088,121.842479,0.28547323
C1I211,蘆竹湳,2014-08-23,23.934019,120.811994,1.1615487e-06
C0S830,長濱,2014-08-23,23.286817,121.411975,0.99647313
C1F9F1,伯公龍,2014-08-23,24.272392,120.849047,3.2021965e-06
C0E810,西湖,2014-08-23,24.562947,120.7485,0.34370574
C1I440,新高口,2014-08-23,23.478744,120.878939,1.9440877e-08
C0O840,王爺宮,2014-08-23,23.222064,120.40085,0.0021096969
C0T9G0,鳳林山,2014-08-23,23.735269,121.420131,0.9881779
C0X080,佳里,2014-08-23,23.173039,120.145086,0.13662809
C0FB70,大甲溪埔,2014-08-23,24.370625,120.620067,0.038376793
C0Z310,清水斷崖,2014-08-23,24.218294,121.689142,0.94865096
C0M680,太保,2014-08-23,23.455062,120.331455,0.055618465
C1S820,金峰,2014-08-23,22.590969,120.933236,0.3120196
C0AD10,八里,2014-08-23,25.150211,121.403947,0.014742729
C2K240,草嶺,2014-08-23,23.59555,120.693461,1.2621491e-07
C1SA70,都蘭,2014-08-23,22.87794,121.226881,0.5502399
C0K440,二崙,2014-08-23,23.772797,120.408944,0.2109446
C1A760,坪林交控,2014-08-23,24.94284,121.713442,0.8403716
C0F9N0,大里,2014-08-23,24.092464,120.701378,0.2947299
C0SA90,達仁林場,2014-08-23,22.264347,120.823972,0.03676444
C1R290,石門山,2014-08-23,22.112611,120.756597,0.7215293
42HA10,萬大發電廠,2014-08-23,23.978875,121.139639,3.7519152e-07
C0R890,山海,2014-08-23,21.9878,120.7091,0.9864451
C0T9A0,月眉山,2014-08-23,23.809928,121.539828,0.9277645
C0AC70,信義,2014-08-23,25.037822,121.564597,0.018426582
C0K560,棋山,2014-08-23,23.68645,120.603417,0.30069268
C2FB50,出雲,2014-08-23,24.206469,120.902794,1.1923377e-07
C1Z240,中平林道,2014-08-23,23.42115,121.26763,2.4770193e-07
U2H480,溪頭,2014-08-23,23.670306,120.798194,7.449336e-07
C0M880,好美里,2014-08-23,23.3364,120.138,0.13662809
C0T9E0,大坑,2014-08-23,23.880628,121.581981,0.7839277
C0K530,臺西,2014-08-23,23.701547,120.197559,0.62335956
C1E900,國一N128K,2014-08-23,24.560997,120.844186,0.35320514
C0AJ50,水湳洞,2014-08-23,25.123695,121.862238,0.0040581
C0AI20,白沙灣,2014-08-23,25.283128,121.519058,0.006017689
C0A860,大坪,2014-08-23,25.165914,121.632969,0.09125539
C1U850,觀音海岸,2014-08-23,24.38319,121.77856,0.9973042
C2K610,草嶺石壁,2014-08-23,23.602469,120.707731,1.7475426e-07
C0U950,鶯子嶺,2014-08-23,24.89754,121.79244,2.1348984e-05
C0O900,善化,2014-08-23,23.112883,120.297219,0.3301311
C0K550,蔦松,2014-08-23,23.514319,120.229736,0.6936387
E2P980,林試六龜中心,2014-08-23,22.991703,120.645722,0.00018398989
C0E590,通霄,2014-08-23,24.471892,120.704622,0.083236
C1I310,西巒,2014-08-23,23.754486,120.883956,3.594629e-07
C0A550,泰平,2014-08-23,24.971197,121.823711,0.6743888
C0I360,水里,2014-08-23,23.812553,120.849792,0.08548048
C0R830,高士,2014-08-23,22.121825,120.836781,0.54170036
C1I101,溪頭,2014-08-23,23.661789,120.807647,6.498046e-08
C0AJ20,野柳,2014-08-23,25.20703,121.690021,0.0040581
C0B060,暖暖,2014-08-23,25.0957,121.7403,0.0045075947
C1H920,長豐,2014-08-23,24.102039,120.879897,1.5687297e-06
C0V360,內門,2014-08-23,22.975481,120.466769,0.00010416802
C0R850,林邊,2014-08-23,22.4634,120.5339,0.36373842
C0E930,龍鳳,2014-08-23,24.700034,120.859125,0.018496362
C0U910,冬山,2014-08-23,24.63373,121.7937,0.023621595
C1E721,泰安,2014-08-23,24.489017,120.968036,2.1309923e-08
82H320,茶改中部分場,2014-08-23,23.875611,120.913583,7.03217e-07
C0M750,布袋,2014-08-23,23.380878,120.167789,0.5692024
C1S860,利嘉,2014-08-23,22.809417,121.050528,0.86099714
72C440,桃園農改,2014-08-23,24.950944,121.030583,0.082839265
E2S980,林試太麻里1,2014-08-23,22.598922,120.980044,0.85868055
C0X170,關廟,2014-08-23,22.963017,120.327797,0.09898334
C0V720,林園,2014-08-23,22.507747,120.394511,0.15838118
C1I510,線浸林道,2014-08-23,23.761508,120.832956,2.7059008e-07
C0D690,外湖,2014-08-23,24.917735,120.968711,0.08513728
C0C750,新興坑尾,2014-08-23,25.0061,121.0971,0.022956831
B2Q810,畜試南區分所,2014-08-23,21.945583,120.802167,0.9861114
C0S790,金崙,2014-08-23,22.538122,120.966875,0.19825068
C0AH90,福山植物園,2014-08-23,24.760717,121.58135,0.07690559
C0I540,奇萊稜線,2014-08-23,24.109231,121.326456,9.782314e-09
C0M850,表湖,2014-08-23,23.24186,120.64166,9.567451e-07
C0S770,大溪山,2014-08-23,22.478475,120.943325,0.029986553
C0AG80,中和,2014-08-23,24.991622,121.491792,0.018426582
C0T790,大禹嶺,2014-08-23,24.186117,121.316086,8.935808e-09
C0T9B0,水源,2014-08-23,23.991861,121.537169,0.966807
C0R840,牡丹池山,2014-08-23,22.168389,120.841225,0.048082396
C1I131,桶頭,2014-08-23,23.641944,120.654117,0.1696324
CAL110,布袋國中,2014-08-23,23.35893,120.18026,0.22993156
467571,新竹,2014-08-23,24.827853,121.014219,0.019769551
C0Z290,赤柯山,2014-08-23,23.36893,121.38293,9.049079e-05
C0X280,將軍,2014-08-23,23.214999,120.13577,0.13662809
C0S690,太麻里,2014-08-23,22.60902,120.98533,0.020558637
C0U880,北關,2014-08-23,24.9072,121.8734,0.0107790455
C1H860,瑞岩,2014-08-23,24.123772,121.18345,9.342648e-09
C0G810,埔心,2014-08-23,23.947633,120.525456,0.15953866
C0U970,大福,2014-08-23,24.80064,121.81389,0.62003344
C2H9N0,仁愛東眼,2014-08-23,24.026875,121.1205,3.0563275e-08
C1E670,南礦,2014-08-23,24.538278,121.002836,2.2313873e-08
C0M520,東後寮,2014-08-23,23.369908,120.248065,0.23435964
C1E461,松安,2014-08-23,24.397972,120.986022,3.2721758e-08
72G600,臺中農改,2014-08-23,24.003028,120.534389,0.06608644
C2N160,西拉雅風管處,2014-08-23,23.189481,120.335297,0.046612192
C2M970,碧湖,2014-08-23,23.568632,120.624165,3.73275e-07
C0A640,石碇,2014-08-23,24.993969,121.662917,0.48195198
E2S960,林試太麻里2,2014-08-23,22.598,120.99775,0.96759504
C0F9Y0,桃山,2014-08-23,24.432739,121.303808,1.2615481e-08
C1I020,萬大,2014-08-23,23.979817,121.132261,4.3319858e-08
C0U940,羅東,2014-08-23,24.68184,121.74934,0.021366695
C0M650,朴子,2014-08-23,23.43463,120.23902,0.5757766
C1I500,大尖山,2014-08-23,23.858572,120.994889,1.4959639e-08
C0G820,田尾,2014-08-23,23.901669,120.509389,0.189038
E2K600,四湖植物園,2014-08-23,23.676986,120.163433,0.62335956
C0S730,綠島,2014-08-23,22.6672,121.47533,0.0077407667
12Q970,東港工作站,2014-08-23,22.479997,120.466058,0.4402198
C0E430,南庄,2014-08-23,24.601775,121.000214,0.044313014
C1TA00,太魯閣,2014-08-23,24.15773,121.6236,0.9440711
466920,臺北,2014-08-23,25.037658,121.514853,0.018426582
C0R600,舊泰武,2014-08-23,22.588194,120.664944,0.0062110065
C1I260,北坑,2014-08-23,23.9246,121.006903,3.6716947e-06
466910,鞍部,2014-08-23,25.182586,121.529731,0.0054382486
C1I230,九份二山,2014-08-23,23.961944,120.845,2.3668723e-07
C2A660,瑞芳,2014-08-23,25.113169,121.801147,0.033035677
C0R270,琉球嶼,2014-08-23,22.332244,120.362236,0.9034466
C1T990,高寮,2014-08-23,23.394239,121.356808,0.9847078
C0G620,芬園,2014-08-23,24.015678,120.6213,0.16645959
C1Z140,荖溪,2014-08-23,23.890575,121.45964,6.9094267e-06
C1I201,中心崙,2014-08-23,23.728722,120.712097,4.3202253e-05
C1I400,凌霄,2014-08-23,24.018778,121.004456,3.565604e-08
C1M640,十字,2014-08-23,23.492153,120.753683,8.994532e-08
G2P820,農試鳳山分所,2014-08-23,22.646611,120.356083,0.10216748
C0Z270,蕃薯寮,2014-08-23,23.73835,121.540108,0.9912426
C0F9Q0,外埔,2014-08-23,24.347817,120.705686,0.019745437
C0K580,高鐵雲林,2014-08-23,23.737456,120.417944,0.15256713
C2I090,鳳凰,2014-08-23,23.728081,120.787347,3.6223108e-07
C0U990,員山,2014-08-23,24.74435,121.72247,0.021366695
C0V770,大社,2014-08-23,22.730306,120.346639,0.1413379
C0X120,麻豆,2014-08-23,23.183289,120.248611,0.16612278
C0C670,龍潭,2014-08-23,24.870056,121.221389,0.10160307
C0D680,香山濕地,2014-08-23,24.783581,120.914988,0.006705149
C0S980,勝林山,2014-08-23,22.430439,120.8938,0.0001703233
C0V730,大寮,2014-08-23,22.605614,120.395717,0.8450705
C0R570,麟洛,2014-08-23,22.65078,120.52719,0.008847033
C2M930,石卓,2014-08-23,23.478744,120.702264,9.9167316e-08
C0G9B0,和美,2014-08-23,24.105169,120.492131,0.019761674
CAG100,王功漁港,2014-08-23,23.96824,120.32586,0.72630197
C0X290,北門,2014-08-23,23.267772,120.125481,0.13662809
C2F930,大甲,2014-08-23,24.347667,120.640403,0.15537506
C0D650,湖口,2014-08-23,24.904794,121.043628,0.08093095
C0E420,竹南,2014-08-23,24.708978,120.888897,0.006547858
C0U780,五結,2014-08-23,24.68637,121.79794,0.023621595
C1I250,鯉潭,2014-08-23,23.961922,120.991131,1.5687297e-06
C0R130,阿禮,2014-08-23,22.742908,120.743678,1.0808022e-07
C0X100,臺南市北區,2014-08-23,23.010394,120.194228,0.5904466
C0S920,金峰嘉蘭,2014-08-23,22.594789,120.960825,0.8379556
C0V490,新興,2014-08-23,22.627422,120.298803,0.15838118
C0F9K0,大安,2014-08-23,24.345061,120.588025,0.029612029
72N100,臺南農改,2014-08-23,23.0605,120.342194,0.17065957
467290,古坑,2014-08-23,23.633639,120.551889,0.1960425
C2E970,八甲,2014-08-23,24.535811,120.795983,0.10379514
C0V440,鳳山,2014-08-23,22.646653,120.356122,0.10216748
C1T940,大觀,2014-08-23,23.714206,121.373133,0.99943244
72T250,花蓮農改,2014-08-23,23.975222,121.563889,0.5187171
C0E740,造橋,2014-08-23,24.637056,120.864778,0.035224877
C0R100,尾寮山,2014-08-23,22.833111,120.683889,1.4432545e-07
A2K630,臺大雲林校區,2014-08-23,23.730628,120.423903,0.15256713
C0D580,寶山,2014-08-23,24.735006,121.025192,0.21606825
E2P990,林試扇平站,2014-08-23,22.9677,120.6857,0.003211466
C0AI30,三重,2014-08-23,25.057328,121.500629,0.017053444
C0AH00,汐止,2014-08-23,25.066881,121.658778,0.0040581
C1Z040,立山,2014-08-23,23.443356,121.327375,0.9995508
C0W130,花嶼,2014-08-23,23.40007,119.32276,0.9751511
C0A950,鼻頭角,2014-08-23,25.129036,121.923372,0.017732363
C0K470,林內,2014-08-23,23.748675,120.609642,0.27784508
C2F990,摩天嶺,2014-08-23,24.322458,120.936819,4.0916593e-08
82C160,茶改場,2014-08-23,24.908472,121.185333,0.011377097
C0Z320,清水林道,2014-08-23,23.27125,121.188272,0.0007890656
C0R760,南仁湖,2014-08-23,22.084681,120.863353,0.70038885
C0M670,大林,2014-08-23,23.600616,120.45841,0.45599338
C0M800,茶山,2014-08-23,23.299075,120.664767,0.0008191005
C0A9C0,天母,2014-08-23,25.117494,121.537169,0.016958978
72K220,南改斗南分場,2014-08-23,23.634556,120.477333,0.2832443
72AI40,桃改樹林分場,2014-08-23,24.944503,121.386972,0.01658308
C0S910,蘭嶼燈塔,2014-08-23,22.081197,121.503117,0.3034438
C0B050,八斗子,2014-08-23,25.144754,121.79167,0.003832913
C0U900,內城,2014-08-23,24.71813,121.68766,0.67569035
C0X320,柳營,2014-08-23,23.253328,120.375253,0.2267516
C0M790,新港,2014-08-23,23.553269,120.345728,0.22431521
C0F9T0,西屯,2014-08-23,24.179494,120.641275,0.3456063
C0SA30,都歷,2014-08-23,23.020333,121.323642,0.007737229
C0C620,蘆竹,2014-08-23,25.084275,121.265767,0.016690822
C0R730,大坪頂,2014-08-23,22.024633,120.69355,0.95632726
C0AJ40,石門,2014-08-23,25.273672,121.601198,0.00772321
C0E750,苗栗,2014-08-23,24.564569,120.824575,0.33558738
C0T870,鯉魚潭,2014-08-23,23.935639,121.508944,0.41821617
C1V170,排雲,2014-08-23,23.463619,120.954147,2.235656e-08
C2H950,中寮,2014-08-23,23.884447,120.766406,0.042283047
C0R350,貓鼻頭,2014-08-23,21.921774,120.7358,0.98587024
C0V660,岡山,2014-08-23,22.797078,120.294958,0.77798754
C1H941,雙冬,2014-08-23,23.967378,120.802189,2.6995879e-06
C0AJ70,田寮,2014-08-23,25.2698,121.4886,0.0058657583
C0AI00,五股,2014-08-23,25.07445,121.42728,0.012804539
C0Z280,德武,2014-08-23,23.47426,121.41071,0.9983924
C0R700,枋山,2014-08-23,22.246844,120.661086,0.99370223
C0C460,復興,2014-08-23,24.820208,121.352281,0.7467622
E2H360,蓮華池,2014-08-23,23.918333,120.885278,1.2218738e-06
C0M640,中埔,2014-08-23,23.42538,120.5229,0.16394623
C0W140,金沙,2014-08-23,24.488292,118.408778,0.01300324
C2A540,四堵,2014-08-23,24.8926,121.745736,0.028020162
C0ACA0,新莊,2014-08-23,25.051478,121.446756,0.01483236
C0R220,潮州,2014-08-23,22.534361,120.54,0.94667953
U2HA40,臺大內茅埔,2014-08-23,23.689722,120.851117,6.4913906e-06
467490,臺中,2014-08-23,24.145736,120.684075,0.019618569
C0U960,翠峰湖,2014-08-23,24.510856,121.608044,1.6283227e-08
E2HA20,林試畢祿溪站,2014-08-23,24.226944,121.308522,5.2164375e-09
C0V890,前鎮,2014-08-23,22.5718,120.3117,0.1809014
467620,蘭嶼,2014-08-23,22.036969,121.558339,0.075073265
C1F941,雪嶺,2014-08-23,24.280586,121.026642,8.7424565e-09
C2H9E0,國姓南港,2014-08-23,23.911108,120.846556,4.9259466e-08
C0AC80,文山,2014-08-23,25.00235,121.575728,0.017731074
C0F9R0,龍井,2014-08-23,24.184536,120.528972,0.049094953
C0M760,民雄,2014-08-23,23.551754,120.428457,0.28863472
C0UA40,西德山,2014-08-23,24.560647,121.752608,2.6626135e-06
C1T920,中興,2014-08-23,23.769503,121.498653,0.3735199
C0D550,雪霸,2014-08-23,24.526972,121.11605,8.653237e-09
C2F860,梨山,2014-08-23,24.247522,121.243669,5.2318723e-09
C0R320,車城,2014-08-23,22.0744,120.716247,0.9864451
C1S870,南美山,2014-08-23,23.15025,121.382333,0.012419673
C0B020,基隆嶼,2014-08-23,25.19141,121.78391,0.0040581
C1U501,牛鬥,2014-08-23,24.637836,121.573656,0.99068975
C0M730,嘉義市東區,2014-08-23,23.457673,120.460531,0.31950033
C0S700,知本,2014-08-23,22.684866,121.005642,0.03798616
C1N001,沙崙,2014-08-23,22.935472,120.309406,0.5888531
C0V760,橋頭,2014-08-23,22.757806,120.30575,0.7637137
C0G960,福寶,2014-08-23,24.0443,120.3814,0.051182788
C0X210,白河,2014-08-23,23.347466,120.414427,0.17151101
C0S810,東河,2014-08-23,22.972672,121.303986,0.5124269
C2R170,屏東,2014-08-23,22.66027,120.49403,0.01297156
C0R670,楓港,2014-08-23,22.190131,120.692156,0.99370223
C0FA50,霧峰,2014-08-23,24.0419,120.6995,0.26617426
C0UB10,蘇澳,2014-08-23,24.5969,121.8571,0.043084756
C0G950,防潮門,2014-08-23,24.1835,120.4871,0.036282253
C0M740,六腳,2014-08-23,23.492871,120.290625,0.05693671
C1R250,力里,2014-08-23,22.428117,120.629228,0.8744425
C0K330,虎尾,2014-08-23,23.719183,120.442036,0.15682082
C2FA00,烏石坑,2014-08-23,24.273503,120.947617,4.436137e-08
C0V620,永安,2014-08-23,22.82315,120.236856,0.76474947
C1I330,楓樹林,2014-08-23,23.986803,121.076117,1.1712631e-08
C0W200,湖西,2014-08-23,23.596314,119.67275,0.9939002
72Q010,高雄農改場,2014-08-23,22.709333,120.525889,0.007170694
C0SA40,瑞和,2014-08-23,22.974361,121.156697,0.009155662
C0C680,龜山,2014-08-23,25.02846,121.38656,0.9605735
C2V260,月眉,2014-08-23,22.971003,120.539853,0.0070180963
C0V450,鳳森,2014-08-23,22.545064,120.392592,0.6078851
C0U720,南山,2014-08-23,24.43742,121.38167,0.00026628893
A2N290,臺南蘭花園區,2014-08-23,23.340258,120.379661,0.22675169
C0R560,新園,2014-08-23,22.5434,120.461558,0.36373815
C0U890,三星,2014-08-23,24.66812,121.65302,0.78519565
C1V300,御油山,2014-08-23,23.001983,120.715364,2.8047666e-08
C0U600,礁溪,2014-08-23,24.817539,121.765608,0.6462249
C1T980,龍澗,2014-08-23,24.023289,121.411328,2.5932366e-07
C0D670,海天一線,2014-08-23,24.831986,120.914438,0.006488083
C0SA00,歷坵,2014-08-23,22.520969,120.89185,0.010291511
C0M710,東石,2014-08-23,23.458927,120.15385,0.6936387
C0M780,鹿草,2014-08-23,23.41134,120.30835,0.15068191
C0U520,雙連埤,2014-08-23,24.753033,121.641303,0.98516005
C0B010,七堵,2014-08-23,25.094819,121.71713,0.004258413
C0R480,長治,2014-08-23,22.693128,120.542622,0.14780666
C1V830,國三S383K,2014-08-23,22.781967,120.426475,0.63555187
12Q980,恆春工作站,2014-08-23,22.079678,120.714425,0.98644537
C1O940,東山服務區,2014-08-23,23.286016,120.398472,0.16676214
C1U840,東澳嶺,2014-08-23,24.5378,121.8485,0.9976599
C1D630,飛鳳山,2014-08-23,24.766464,121.119178,2.6898948e-05
C0S940,石寧山,2014-08-23,23.223772,121.406639,0.9937201
C0K410,北港,2014-08-23,23.573957,120.292802,0.23617837
C2M620,瑞里,2014-08-23,23.545133,120.675197,7.776075e-08
C0SB70,小港漁港,2014-08-23,23.158558,121.400431,0.94814134
C2O950,安南,2014-08-23,23.076694,120.144861,0.97197014
C0F0E0,南湖圈谷,2014-08-23,24.363714,121.444667,1.6681396e-08
467610,成功,2014-08-23,23.097486,121.373428,0.008095124
C0G890,伸港,2014-08-23,24.148933,120.484403,0.1267515
C2E540,龍溪,2014-08-23,24.606489,120.783933,0.2727194
C1V200,梅山,2014-08-23,23.268447,120.823556,1.834368e-05
C0T9H0,加路蘭山,2014-08-23,23.682947,121.5274,0.99725
C2O930,玉井,2014-08-23,23.126042,120.46055,0.0214919
C1F911,新伯公,2014-08-23,24.221361,120.841069,7.731014e-06
C0R490,九如,2014-08-23,22.7405,120.490503,0.008847037
C0X200,左鎮,2014-08-23,23.056758,120.408522,0.0028543985
C0SB50,叭嗡嗡,2014-08-23,23.047062,121.343223,0.42199528
C1F891,稍來,2014-08-23,24.265689,121.001142,8.398226e-09
72N240,七股研究中心,2014-08-23,23.081672,120.062894,0.27854523
C0C700,中壢,2014-08-23,24.977661,121.256375,0.017012848
C0M690,水上,2014-08-23,23.419734,120.388909,0.20948708
C0V690,鼓山,2014-08-23,22.623325,120.275575,0.15857922
C0O860,大內,2014-08-23,23.11885,120.36083,0.00045776123
C0Z200,萬榮,2014-08-23,23.709219,121.420106,0.41821617
C0T9D0,和中,2014-08-23,24.26676,121.74103,0.8969417
C1O921,楠西,2014-08-23,23.183511,120.484083,0.025717555
C0AJ30,淡水觀海,2014-08-23,25.184591,121.408616,0.013723895
C0V810,左營,2014-08-23,22.67491,120.28491,0.14871761
C0UA70,桃源谷,2014-08-23,24.962606,121.888875,0.99347657
C0X130,官田,2014-08-23,23.193217,120.315422,0.043521814
C1H000,翠峰,2014-08-23,24.109397,121.205211,6.317791e-09
C0UA90,石城,2014-08-23,24.980444,121.951214,0.014600248
C1E681,南勢山,2014-08-23,24.421669,120.923831,3.6722266e-08
C0A9F0,內湖,2014-08-23,25.079422,121.57545,0.018426582
C0K291,宜梧,2014-08-23,23.536281,120.169329,0.673163
C1K540,口湖,2014-08-23,23.585344,120.180517,0.7298065
C0R780,滿州,2014-08-23,22.024403,120.839892,0.98568535
C0V870,文安,2014-08-23,22.8025,120.2164,0.74860126
C0U650,玉蘭,2014-08-23,24.675286,121.587061,0.99803776
C0R640,東港,2014-08-23,22.46247,120.44074,0.1809014
K2E360,苗栗農改,2014-08-23,24.495722,120.829111,0.08644703
C0AJ80,板橋,2014-08-23,25.0107,121.4489,0.016798323
C0S660,下馬,2014-08-23,23.150427,121.070312,0.3398305
C1H9B1,阿眉,2014-08-23,24.1263,120.994672,1.3004152e-08
C0UA20,多加屯,2014-08-23,24.368614,121.373189,9.384207e-09
C0E730,頭份,2014-08-23,24.688247,120.912206,0.0065389676
72V140,高改旗南分場,2014-08-23,22.857861,120.516667,0.08920721
C0K480,莿桐,2014-08-23,23.761192,120.502372,0.2852451
C0U980,坪林石牌,2014-08-23,24.86478,121.77396,0.9986738
C0T900,西林,2014-08-23,23.8119,121.441458,0.47659168
C1I150,青雲,2014-08-23,23.793361,120.949378,6.6705724e-07
467350,澎湖,2014-08-23,23.565503,119.563094,0.99116
C0G800,埔鹽,2014-08-23,24.000394,120.431683,0.06475051
C0H960,草屯,2014-08-23,23.973672,120.68085,0.21602388
C1V780,多納林道,2014-08-23,22.888028,120.737917,7.754525e-08
C0E920,通霄漁港,2014-08-23,24.498589,120.673876,0.040746223
C0Z330,安通山,2014-08-23,23.290728,121.348528,0.9289066
C0AH10,永和,2014-08-23,25.01125,121.508111,0.01822955
C0AK10,太平里,2014-08-23,25.134937,121.364899,0.014849496
C2G640,鹿港,2014-08-23,24.0753,120.430481,0.06475051
C1E890,國三N149K,2014-08-23,24.463414,120.680019,0.10958565
C1R110,口社,2014-08-23,22.770111,120.645222,0.2048944
C1M870,國三N285K,2014-08-23,23.550319,120.505833,0.2332874
467050,新屋,2014-08-23,25.006744,121.047486,0.08318829
C1E480,鳳美,2014-08-23,24.554803,121.034747,0.000116420044
C0M530,奮起湖,2014-08-23,23.493903,120.699253,4.284482e-08
C0C590,觀音,2014-08-23,25.027072,121.153317,0.00960884
C0T9M0,靜浦,2014-08-23,23.455167,121.495028,0.9124706
C2H9M0,發祥,2014-08-23,24.154094,121.164517,2.2021542e-08
C0AI40,石牌,2014-08-23,25.115597,121.513139,0.016798323
C1F871,上谷關,2014-08-23,24.203483,121.018644,4.436137e-08
C2H9G0,百勝,2014-08-23,24.051142,120.909361,1.5031566e-06
C0G880,二水,2014-08-23,23.810742,120.6173,0.3235761
C0R940,加祿堂,2014-08-23,22.3363,120.6217,0.85001856
C0W220,北竿,2014-08-23,26.220358,119.974881,0.014771599
C0O960,崎頂,2014-08-23,22.959547,120.369317,0.03289128
C0S750,向陽,2014-08-23,23.248397,120.986133,2.479299e-08
C0T9F0,水璉,2014-08-23,23.797131,121.542514,0.67245317
C1M600,頭凍,2014-08-23,23.406364,120.603339,9.661387e-07
467660,臺東,2014-08-23,22.752211,121.154586,0.70879847
C1D380,新埔,2014-08-23,24.84745,121.03834,0.026528236
C2G980,田頭村,2014-08-23,23.8263,120.444175,0.2109446
C0V750,路竹,2014-08-23,22.854997,120.259439,0.6857665
C0N050,蚵寮,2014-08-23,23.301,120.1104,0.3809664
72M700,南改鹿草分場,2014-08-23,23.416869,120.283061,0.15901555
C1SA50,利嘉林道,2014-08-23,22.82325,121.009389,6.3149386e-08
467550,玉山,2014-08-23,23.487614,120.959522,2.456376e-08
C0A940,金山,2014-08-23,25.223628,121.643967,0.006241067
C1V340,大津,2014-08-23,22.888322,120.645986,0.0044728643
C0W180,七美,2014-08-23,23.219333,119.444892,0.98194677
C1F9C1,白冷,2014-08-23,24.182844,120.929889,5.346285e-07
K2E710,苗改生物防治研究中心,2014-08-23,24.422861,120.871833,0.0015134953
C0N040,蘆竹溝,2014-08-23,23.2344,120.0961,0.3809664
C2W230,畜試所澎湖,2014-08-23,23.628342,119.513206,0.98722225
C0R880,後壁湖,2014-08-23,21.9457,120.7457,0.9865252
C1I280,埔中,2014-08-23,23.820778,120.642594,0.16089317
467790,墾丁雷達站,2014-08-23,21.948235,120.808028,0.98548144
C0W190,望安,2014-08-23,23.380564,119.494075,0.98880816
466881,新北,2014-08-23,24.9593,121.52,0.018314498
C0Z170,卓溪,2014-08-23,23.3443,121.3029,0.9969162
C0F850,東勢,2014-08-23,24.246428,120.833047,2.5044807e-05
466900,淡水,2014-08-23,25.164889,121.448906,0.014742729
C0I370,魚池,2014-08-23,23.895703,120.94135,1.7231339e-06
C0C630,大溪,2014-08-23,24.882853,121.265547,0.005601278
C0A520,山佳,2014-08-23,24.974944,121.402008,0.01658308
C0I110,竹山,2014-08-23,23.761225,120.688156,0.09971455
82H840,茶改南部分場,2014-08-23,23.762528,120.7405,2.138131e-06
C0G660,溪湖,2014-08-23,23.94835,120.479122,0.20464571
C1T800,洛韶,2014-08-23,24.204558,121.453956,3.546505e-07
C1T810,慈恩,2014-08-23,24.192044,121.388386,9.399111e-09
C1E451,象鼻,2014-08-23,24.368617,120.940228,3.670245e-08
C0AC60,三峽,2014-08-23,24.939025,121.369728,0.01799158
C0I490,萬大林道,2014-08-23,23.928228,121.091411,2.7525905e-08
C1I290,豐丘,2014-08-23,23.668178,120.887417,2.7014838e-07
C1I320,奧萬大,2014-08-23,23.952956,121.178556,1.1378241e-08
C2M910,嘉義大學,2014-08-23,23.471325,120.485903,0.28059486
C0U770,南澳,2014-08-23,24.44935,121.81022,0.8286969
C0A980,社子,2014-08-23,25.109508,121.469681,0.016897643
C0V800,六龜,2014-08-23,22.997889,120.633583,0.0004018615
C1G9D0,國一S218K,2014-08-23,23.890641,120.493253,0.15953854
C0E570,白沙屯,2014-08-23,24.549447,120.696803,0.040746223
C2F9A0,中竹林,2014-08-23,24.103556,120.751061,5.155395e-06
C0FA40,臺中電廠,2014-08-23,24.2146,120.4907,0.049099088
C2G9A0,畜試所彰化,2014-08-23,23.86045,120.557964,0.28180608
C0H9C0,合歡山,2014-08-23,24.143442,121.272547,1.131755e-08
C0X060,下營,2014-08-23,23.22695,120.256261,0.042180516
G2M350,農試溪口農場,2014-08-23,23.58565,120.408111,0.32797712
C0U860,頭城,2014-08-23,24.85323,121.8308,0.6187172
C0R580,南州,2014-08-23,22.48591,120.50274,0.4402198
C0D430,峨眉,2014-08-23,24.6905,121.017189,0.011041918
C0G780,秀水,2014-08-23,24.03405,120.503869,0.06059764
72N100,臺南農改場,2014-08-23,23.0605,120.342194,0.17065957
C0S900,蘭嶼高中,2014-08-23,22.04909,121.51214,0.52399105
467540,大武,2014-08-23,22.355675,120.903789,0.52766883
C1F9W0,德基,2014-08-23,24.254783,121.190261,7.2856023e-09
C1Z120,壽豐,2014-08-23,23.870853,121.508081,0.34754428
C0W160,烏坵,2014-08-23,24.9944,119.44956,0.19244131
C1I240,外大坪,2014-08-23,23.958697,120.917931,1.102369e-06
C1I550,國六W023K,2014-08-23,23.979067,120.867742,1.2360692e-05
C0R870,興海,2014-08-23,21.9752,120.8439,0.9861114
C0R140,瑪家,2014-08-23,22.682903,120.686639,0.010786445
C0A530,坪林,2014-08-23,24.938183,121.70975,0.9841058
C0X260,後壁,2014-08-23,23.366358,120.362326,0.02749944
C0Z230,和平,2014-08-23,24.30717,121.77007,0.8969417
C0G770,福興,2014-08-23,24.041289,120.437669,0.06475051
C0H9A0,神木村,2014-08-23,23.532742,120.843667,6.4816575e-08
C0I460,南投,2014-08-23,23.911469,120.687331,0.23036923
C0I480,梅峰,2014-08-23,24.085272,121.173572,5.2197917e-09
C1V570,吉東,2014-08-23,22.85422,120.5454,0.06310688
C2D740,屯原,2014-08-23,24.067969,121.209389,4.121374e-09
C2A560,福山,2014-08-23,24.776203,121.502811,0.97834945
C0AH30,五分山,2014-08-23,25.07125,121.780794,0.9986884
C0FA10,松柏,2014-08-23,24.429115,120.617482,0.01737389
72S200,東改班鳩分場,2014-08-23,22.829528,121.077694,0.9008542
72HA00,中改埔里分場,2014-08-23,23.903208,120.963364,3.239538e-06
C2H9W0,大坪頂農水,2014-08-23,24.043122,120.932781,1.2391913e-06
C0C650,平鎮,2014-08-23,24.897503,121.214636,0.011377097
C0S930,延平,2014-08-23,22.902581,121.084058,0.86380225
C0UA60,樟樹山,2014-08-23,24.41393,121.78325,0.9997504
C1S670,摩天,2014-08-23,23.199503,121.027,9.097519e-08
C0V630,茄萣,2014-08-23,22.906642,120.182608,0.06465296
466940,基隆,2014-08-23,25.133314,121.740475,0.0039058083
C0X050,東河,2014-08-23,23.296598,120.385608,0.2267516
C0R770,保力,2014-08-23,22.071122,120.764111,0.98383534
G2L020,農試嘉義分所,2014-08-23,23.485028,120.473806,0.2504081
C0X240,關子嶺,2014-08-23,23.331169,120.508025,1.1942777e-05
C0I380,集集,2014-08-23,23.828206,120.801467,0.119361944
466990,花蓮,2014-08-23,23.975128,121.613275,0.46648446
C1V220,小關山,2014-08-23,23.154217,120.813603,1.9086068e-08
C1F9G1,慶福山,2014-08-23,24.180853,120.848378,6.314072e-08
C0Z250,瑞穗林道,2014-08-23,23.49284,121.30688,2.4749224e-07
C0D590,新豐,2014-08-23,24.87068,120.97721,0.3235479
C0A870,五指山,2014-08-23,25.132153,121.608692,0.9850703
C0UA50,西帽山,2014-08-23,24.555361,121.802628,0.9979738
C0X160,仁德,2014-08-23,22.968258,120.257689,0.22315633
C1H971,六分寮,2014-08-23,23.92507,120.6378,3.498942e-06
C0W120,西嶼,2014-08-23,23.5626,119.468436,0.99116576
C0G650,員林,2014-08-23,23.946503,120.585597,0.14806041
C0AD50,鶯歌,2014-08-23,24.951533,121.346294,0.01749774
C2H9Q0,北東眼山,2014-08-23,24.120939,121.189303,4.2160364e-09
C2H9T0,名間竹圍,2014-08-23,23.859914,120.637572,0.029249446
C0S990,山豬窟,2014-08-23,22.318619,120.857372,0.15731391
72Q010,高雄農改,2014-08-23,22.709333,120.525889,0.007170694
C0X190,安平,2014-08-23,22.993161,120.152181,0.5904466
C0K400,斗六,2014-08-23,23.720583,120.541127,0.33053654
12J990,口湖工作站,2014-08-23,23.589978,120.180394,0.7310428
C0O830,北寮,2014-08-23,23.079561,120.495008,0.11959755
C1D410,白蘭,2014-08-23,24.579364,121.079947,1.5308702e-08
C0S970,加津林,2014-08-23,22.416211,120.926942,0.65639365
C0D700,關西,2014-08-23,24.7977,121.1732,0.009100615
C0M810,里佳,2014-08-23,23.389125,120.716647,4.284482e-08
C0U750,龜山島,2014-08-23,24.841667,121.953133,0.0118699325
C0R810,內獅,2014-08-23,22.305064,120.642986,0.85001856
C1M390,龍美,2014-08-23,23.406728,120.654417,1.5386091e-07
C2FB60,頭櫃山,2014-08-23,24.129842,120.858925,7.2903454e-08
C1H840,國三N238K,2014-08-23,23.841008,120.707711,0.10480469
CAQ030,崎峰國小,2014-08-23,22.42565,120.49521,0.4402198
C2E520,大湖,2014-08-23,24.414939,120.870872,0.00072498573
467530,阿里山,2014-08-23,23.508208,120.813242,2.0216122e-08
C1E691,南湖,2014-08-23,24.40135,120.837533,3.2914807e-07
C0FA30,梧棲,2014-08-23,24.256003,120.523381,0.049099088
C1V231,高中,2014-08-23,23.134911,120.716711,2.3690027e-06
C0F9V0,新社,2014-08-23,24.200172,120.815806,5.0829584e-07
C0H890,埔里,2014-08-23,23.972169,120.952425,3.8252874e-06
C0R690,墾丁,2014-08-23,21.966756,120.810269,0.8476068
C0F0D0,審馬陣,2014-08-23,24.381675,121.4203,1.3294572e-08
C0R820,白鷺,2014-08-23,22.454275,120.666219,0.69879264
U2H480,臺大溪頭,2014-08-23,23.670306,120.798194,7.4493283e-07
C1V190,南天池,2014-08-23,23.27403,120.91176,2.06357e-08
K2E360,苗栗農改場,2014-08-23,24.495722,120.829111,0.08644703
CAJ050,海口故事園區,2014-08-23,23.57543,120.14121,0.7298065
C2H9D0,三隻寮,2014-08-23,24.093078,120.861578,8.8850356e-07
C0O990,媽廟,2014-08-23,22.99175,120.293525,0.17637013
C0D480,打鐵坑,2014-08-23,24.849664,121.150789,0.012516994
C0Z220,和平林道,2014-08-23,24.343922,121.656317,0.999744
C0TA10,花蓮漁港,2014-08-23,23.995322,121.638331,0.44555607
72C440,桃園農改場,2014-08-23,24.950944,121.030583,0.082839265
C1E711,馬拉邦山,2014-08-23,24.367306,120.901656,1.01527135e-07
C0SB20,富岡,2014-08-23,22.792467,121.192669,0.78612167
C0D560,竹東,2014-08-23,24.767147,121.057881,0.013453984
C0F9U0,南屯,2014-08-23,24.137006,120.637969,0.2947299
C0M720,番路,2014-08-23,23.464657,120.554156,0.044934377
C0F0A0,雪山圈谷,2014-08-23,24.388594,121.236339,1.6308809e-08
C1A9N0,四十份,2014-08-23,24.934158,121.593283,0.5605157
C0U760,東澳,2014-08-23,24.52196,121.83318,0.3075926
C0X230,鹽水,2014-08-23,23.272621,120.247641,0.24847202
C2H9H0,苗改南投蜂場,2014-08-23,23.852589,120.693481,0.09971455
C0R950,萬隆國小,2014-08-23,22.507667,120.587817,0.2836305
C0V370,古亭坑,2014-08-23,22.893178,120.401947,0.0031686139
C1I340,新興橋,2014-08-23,23.563333,120.868728,1.4443026e-06
C0SA80,土坂,2014-08-23,22.453108,120.887572,0.61358964
C0R160,鹽埔,2014-08-23,22.739558,120.530778,0.17605072
C0AC40,大屯山,2014-08-23,25.175675,121.522408,7.6417905e-08
466850,五分山雷達站,2014-08-23,25.071182,121.781205,0.9986718
C2H9L0,馬烈霸,2014-08-23,24.1512,121.201772,4.4124056e-09
C1AI50,國三N016K,2014-08-23,25.034164,121.619664,0.018218268
C1V600,藤枝,2014-08-23,23.071961,120.757042,3.982714e-08
C1E601,南勢,2014-08-23,24.572486,120.734842,0.15795927
C0Z180,新城,2014-08-23,24.03946,121.60454,0.505943
C0O980,新市,2014-08-23,23.061614,120.298197,0.32915506
C0K420,西螺,2014-08-23,23.800407,120.467394,0.27247393
C0Z050,佳心,2014-08-23,23.34567,121.21316,0.0005767021
C0AD30,蘆洲,2014-08-23,25.086594,121.472331,0.01705358
C0V610,梓官,2014-08-23,22.760558,120.267211,0.77798754
K2F750,種苗改良場,2014-08-23,24.225972,120.800917,1.6347992e-06
C0UA80,大溪漁港,2014-08-23,24.941801,121.902955,0.6462249
C1AI60,國一39K邊坡,2014-08-23,25.064361,121.383836,0.4461449
C0W150,金寧,2014-08-23,24.457703,118.328989,0.011184695
C0R960,內埔,2014-08-23,22.608483,120.570714,0.36389595
V2C250,八德合作社,2014-08-23,24.93775,121.266389,0.0085620135
C2H9S0,龍南,2014-08-23,23.953536,120.833183,5.3877482e-08
C0AH40,平等,2014-08-23,25.129142,121.577086,0.22732736
C0R540,佳冬,2014-08-23,22.419456,120.552375,0.4402198
466950,彭佳嶼,2014-08-23,25.627975,122.079744,0.99884385
C0A890,雙溪,2014-08-23,25.036003,121.864242,0.004246535
C0C480,桃園,2014-08-23,24.992425,121.323172,0.016196594
C0AH50,林口,2014-08-23,25.072181,121.38084,0.037750855
A2K360,水試臺西試驗場,2014-08-23,23.717231,120.190522,0.6050006
B2N890,畜試所,2014-08-23,23.058972,120.336406,0.17065957
C2M960,外寮,2014-08-23,23.562643,120.665688,2.156832e-07
C0F9S0,烏日,2014-08-23,24.107058,120.624103,0.031243818
C0C490,八德,2014-08-23,24.928708,121.283289,0.0057324013
C0R190,赤山,2014-08-23,22.592333,120.614306,0.31745523
C0T820,天祥,2014-08-23,24.179597,121.495639,0.99877346
C1F9E1,龍安,2014-08-23,24.1605,120.831961,3.1687145e-07
C0V820,小林,2014-08-23,23.148408,120.63325,6.575291e-06
C2G870,芳苑,2014-08-23,23.922303,120.320025,0.5297951
C0E850,大河,2014-08-23,24.618069,120.948578,0.15981905
C1U670,寒溪,2014-08-23,24.634,121.71691,0.009267965
C0N020,城西,2014-08-23,23.0568,120.0956,0.29002184
C1Z110,三棧,2014-08-23,24.11557,121.60501,0.9218604
C0R280,檳榔,2014-08-23,22.076078,120.836777,0.8810687
C2H9J0,中台,2014-08-23,23.9996,120.938739,4.1716285e-07
C0F9L0,后里,2014-08-23,24.310436,120.729725,0.002334102
C0D540,橫山,2014-08-23,24.71116,121.11693,0.42008856
C1D420,太閣南,2014-08-23,24.632808,121.160575,1.32460505e-08
C1E770,公館,2014-08-23,24.526914,120.830806,0.13767292
CAN130,水試所海水繁養殖中心,2014-08-23,23.120802,120.07968,0.27854523
C1I430,翠華,2014-08-23,24.191961,121.224339,8.003501e-09
C1M400,菜瓜坪,2014-08-23,23.251928,120.576103,0.0011529217
C0G730,二林,2014-08-23,23.903325,120.376081,0.13580547
72M360,南改義竹分場,2014-08-23,23.360694,120.279361,0.020204397
V2K620,麥寮合作社,2014-08-23,23.753836,120.294783,0.63796854
C0Z070,舞鶴,2014-08-23,23.46811,121.37407,0.9993565
C0B040,大武崙,2014-08-23,25.166676,121.706993,0.0042607686
C1Z030,紅葉,2014-08-23,23.493119,121.338806,0.99870425
C1I050,丹大,2014-08-23,23.753747,121.141147,1.187588e-08
C0I080,信義,2014-08-23,23.689694,120.851036,6.4913906e-06
C2M920,朴子農改,2014-08-23,23.469889,120.259383,0.05693671
C2A880,福隆,2014-08-23,25.017842,121.942083,0.018640798
C0Z160,鳳林,2014-08-23,23.746114,121.453411,0.67582357
C0V210,復興,2014-08-23,23.222403,120.806089,0.002119482
C0H990,昆陽,2014-08-23,24.121322,121.273642,8.364735e-09
C0R741,獅子,2014-08-23,22.202308,120.705236,0.9976423
C0S710,鹿野,2014-08-23,22.917711,121.122994,0.8749859
C0I530,小奇萊,2014-08-23,24.131764,121.295717,9.606564e-09
C2K630,荷苞,2014-08-23,23.657717,120.595144,0.34910357
C0Z080,富源,2014-08-23,23.587642,121.378225,0.9993167
467441,高雄,2014-08-23,22.7304,120.3125,0.14871761
C0SB10,美和,2014-08-23,22.682078,121.060236,0.42471084
C2K620,馬光農場,2014-08-23,23.721453,120.378864,0.12646933
C1I140,卡奈托灣,2014-08-23,23.754364,121.087872,2.3833366e-08
C0I520,玉山風口,2014-08-23,23.470489,120.955994,2.523622e-08
C1G691,下水埔,2014-08-23,23.816114,120.5676,0.26762244
C0X110,臺南市南區,2014-08-23,22.961189,120.188378,0.5781786
C0V680,仁武,2014-08-23,22.701083,120.347722,0.1413379
C2G840,北斗,2014-08-23,23.877586,120.514222,0.189038
C0R900,竹坑,2014-08-23,22.1385,120.7022,0.9860478
C0K250,崙背,2014-08-23,23.75555,120.318925,0.646289
C0G860,社頭,2014-08-23,23.897647,120.5862,0.15160578
C0X150,安定,2014-08-23,23.102614,120.227839,0.3791121
C0R590,里港,2014-08-23,22.77919,120.49459,0.09545215
C0E610,馬都安,2014-08-23,24.451272,120.930192,1.2313714e-06
C0E550,明德,2014-08-23,24.583486,120.885411,0.1414365
C0R150,三地門,2014-08-23,22.709889,120.639944,0.45580047
C0G910,花壇,2014-08-23,24.032076,120.549461,0.07379315
C1D400,鳥嘴山,2014-08-23,24.71909,121.28387,0.5405379
C0K500,元長,2014-08-23,23.64981,120.315024,0.34340838
C0F0B0,石岡,2014-08-23,24.276061,120.777644,0.33158073
C2V250,甲仙,2014-08-23,23.080106,120.591758,0.00031022134
C0SA20,金崙山,2014-08-23,22.567419,120.959667,4.2275464e-05
C0V350,溪埔,2014-08-23,22.738578,120.446797,0.11031987
C0M660,溪口,2014-08-23,23.604131,120.403569,0.3279774
C1S880,壽卡,2014-08-23,22.238911,120.858903,0.047981035
72D680,桃改新埔分場,2014-08-23,24.834444,121.066111,0.008358569
