站號,站名,日期,lat,lon,BLBTSLS
C0R710,龍磐,2014-03-19,21.931672,120.838942,0.9989141
C1F9D1,白毛台,2014-03-19,24.158325,120.886933,5.573581e-09
C0G940,竹塘,2014-03-19,23.848253,120.386764,2.0750068e-09
467590,恆春,2014-03-19,22.003897,120.746339,0.99768496
C1O850,環湖,2014-03-19,23.148617,120.418633,5.931994e-09
C0U710,太平山,2014-03-19,24.505486,121.525656,2.582458e-08
C0E820,獅潭,2014-03-19,24.539133,120.920042,7.554847e-09
C0V880,興達,2014-03-19,22.8778,120.2127,3.79602e-09
C0S890,關山,2014-03-19,23.0395,121.175017,6.11968e-08
C0SB30,新蘭,2014-03-19,22.869214,121.223228,7.703107e-08
C2R970,屏科大,2014-03-19,22.648275,120.619247,8.872625e-10
K2F750,種苗繁殖,2014-03-19,24.225972,120.800917,4.4601283e-09
C1Z130,銅門,2014-03-19,23.965694,121.492842,7.45225e-08
C0AD40,土城,2014-03-19,24.973208,121.445169,6.103802e-08
CAN140,六官養殖協會,2014-03-19,23.22881,120.29962,2.6827753e-09
C0X180,山上,2014-03-19,23.0757,120.363253,3.0660414e-09
C0F9Z0,雪山東峰,2014-03-19,24.388792,121.268675,3.4017912e-08
C1M480,獨立山,2014-03-19,23.537022,120.607797,4.8073217e-09
C0X220,學甲,2014-03-19,23.230367,120.182187,4.4703996e-09
467650,日月潭,2014-03-19,23.881325,120.90805,5.718862e-09
C0K600,箔子寮,2014-03-19,23.6197,120.14,1.1861188e-08
C0G830,埤頭,2014-03-19,23.866003,120.452806,2.3935172e-09
C0S950,七塊厝,2014-03-19,22.954453,121.229922,2.699227e-08
467110,金門,2014-03-19,24.407306,118.289281,1.2006201e-08
C0AH80,深坑,2014-03-19,25.002703,121.628328,5.1197812e-08
467990,馬祖,2014-03-19,26.169269,119.923419,1.9152584e-08
C0A970,三貂角,2014-03-19,25.007606,122.002058,7.527435e-08
C2D730,寶山農場,2014-03-19,24.732444,120.976153,5.7522527e-08
C0K430,褒忠,2014-03-19,23.690938,120.303634,4.0691518e-08
467480,嘉義,2014-03-19,23.495925,120.432906,2.1956701e-08
C2E540,後龍,2014-03-19,24.606489,120.783933,1.4065502e-07
C0V400,阿公店,2014-03-19,22.804194,120.355528,1.406703e-09
C0R440,大漢山,2014-03-19,22.405264,120.753181,1.1678968e-08
C0K280,四湖,2014-03-19,23.630414,120.227125,7.363799e-08
C1F9B1,桐林,2014-03-19,24.066172,120.735194,2.7024247e-09
C2H9U0,鳳鵬,2014-03-19,23.763919,120.788061,3.377931e-09
C0K390,土庫,2014-03-19,23.679029,120.395574,1.8696027e-09
C1I450,望鄉山,2014-03-19,23.594153,120.944286,2.3066365e-08
C0E910,海埔,2014-03-19,24.648767,120.772435,1.3851696e-08
B2E890,畜試北區分所,2014-03-19,24.527806,120.770972,1.7203658e-07
C0R750,四林格山,2014-03-19,22.076989,120.802439,0.9739748
C0F0C0,中坑,2014-03-19,24.248517,120.903319,6.089253e-09
C1I121,大鞍,2014-03-19,23.678381,120.760017,7.832668e-09
72U480,花改蘭陽分場,2014-03-19,24.686306,121.716583,6.75248e-08
C0A770,科教館,2014-03-19,25.096356,121.516507,6.1750335e-08
C0AJ60,六塊厝,2014-03-19,25.24,121.4481,1.1623947e-07
C0R620,墾雷,2014-03-19,21.900836,120.855269,0.99792635
467420,永康,2014-03-19,23.038386,120.2367,3.727558e-09
467300,東吉島,2014-03-19,23.25695,119.667467,0.58351195
C0I410,名間,2014-03-19,23.837053,120.701447,4.3668176e-09
A2C560,農工中心,2014-03-19,24.985917,121.239833,7.163684e-08
C0V740,旗山,2014-03-19,22.888614,120.483597,5.412011e-09
C0Z061,玉里,2014-03-19,23.3215,121.339656,4.6197822e-08
C0S840,南田,2014-03-19,22.279725,120.889208,0.98812604
C1I470,杉林溪,2014-03-19,23.639517,120.786444,9.520032e-09
C1X040,東原,2014-03-19,23.291597,120.463822,2.3627098e-09
C0R660,枋寮,2014-03-19,22.367722,120.590647,8.618268e-09
C1R120,上德文,2014-03-19,22.763272,120.704442,1.3829389e-08
C0K450,大埤,2014-03-19,23.646074,120.431537,1.8388592e-09
C0UA00,土場,2014-03-19,24.576533,121.495333,1.337405e-08
467080,宜蘭,2014-03-19,24.763975,121.756528,1.5721765e-08
C0N030,四草,2014-03-19,23.0235,120.1116,1.105384e-08
C0V650,彌陀,2014-03-19,22.783806,120.246361,2.1402133e-09
C0D660,新竹市東區,2014-03-19,24.798681,120.986942,7.9459475e-08
82S580,茶改東部分場,2014-03-19,22.907694,121.130139,2.9149552e-08
C0SB40,興隆,2014-03-19,22.913661,121.257469,3.420366e-08
C0C710,大溪永福,2014-03-19,24.892936,121.324975,6.891573e-08
C0FA20,溫寮,2014-03-19,24.372177,120.583125,3.03535e-07
C0V640,湖內,2014-03-19,22.887139,120.2445,3.6769205e-09
C0R910,下寮,2014-03-19,22.3929,120.5548,4.573201e-09
C0Z020,明里,2014-03-19,23.208717,121.262342,3.6400717e-08
C0M770,嘉義梅山,2014-03-19,23.585398,120.555587,5.4359917e-09
G2F820,農業試驗所,2014-03-19,24.031261,120.688133,2.2163596e-07
C0C660,楊梅,2014-03-19,24.912375,121.143047,6.1266874e-08
C1E511,新開,2014-03-19,24.347703,120.827019,2.729127e-09
G2F820,農試所(霧峰),2014-03-19,24.031261,120.688133,2.2163596e-07
C1I070,和社,2014-03-19,23.591131,120.888861,4.0596997e-09
C2F000,大肚,2014-03-19,24.15295,120.572117,3.3835927e-09
C1S850,豐南,2014-03-19,23.122139,121.262389,2.4962246e-08
C2A920,富貴角,2014-03-19,25.263783,121.565258,2.4199252e-07
CAH030,茶改場竹圍站,2014-03-19,23.860083,120.637528,3.5004073e-09
C0T960,光復,2014-03-19,23.660694,121.424964,1.3533693e-07
C0F9M0,豐原,2014-03-19,24.254322,120.720692,9.2712344e-09
C0R720,旭海,2014-03-19,22.205403,120.887614,0.61303055
C0V710,苓雅,2014-03-19,22.622742,120.330669,3.807717e-09
C0C740,觀音工業區,2014-03-19,25.064764,121.114856,1.10626814e-07
CAC040,拉拉山,2014-03-19,24.699317,121.427133,1.7549471e-08
C0V790,萬山,2014-03-19,22.905944,120.688056,2.3595392e-09
U2HA30,臺大和社,2014-03-19,23.590856,120.888864,4.0596997e-09
C0AJ90,澳底,2014-03-19,25.0552,121.9253,6.075311e-08
C0Z100,東華,2014-03-19,23.89525,121.549833,1.9239985e-07
C0G970,三豐,2014-03-19,23.882,120.2895,5.7221598e-08
V2K610,大庄合作社,2014-03-19,23.8068,120.367939,4.2901654e-08
C0V900,汕尾,2014-03-19,22.4782,120.4151,2.3944486e-09
C1R630,龍泉,2014-03-19,22.66701,120.59091,3.3004934e-09
C1AC50,關渡,2014-03-19,25.133486,121.469331,9.425145e-08
C0F9I0,神岡,2014-03-19,24.272481,120.658314,9.609313e-09
C0K460,斗南,2014-03-19,23.678734,120.478359,2.802685e-09
467410,臺南,2014-03-19,22.993239,120.204772,3.4914989e-09
C2O810,曾文,2014-03-19,23.219681,120.497328,4.218514e-09
467280,後龍,2014-03-19,24.648563,120.831834,1.2295985e-08
C1F9J1,清水林,2014-03-19,24.071242,120.820419,3.39937e-09
C2A650,火燒寮,2014-03-19,25.002719,121.742892,3.154657e-08
466930,竹子湖,2014-03-19,25.162078,121.544547,4.150406e-08
C1I220,樟湖,2014-03-19,23.905333,120.846983,4.8665316e-09
C0I390,仁愛,2014-03-19,24.022122,121.132206,6.250228e-09
C0Z300,東里,2014-03-19,23.26853,121.30547,4.4632195e-08
C1V590,新發,2014-03-19,23.057019,120.646064,1.1535002e-08
C0K510,水林,2014-03-19,23.572924,120.24597,1.1446393e-08
72S590,東改賓朗果園,2014-03-19,22.813889,121.071278,4.8936013e-08
82A750,茶改北部分場,2014-03-19,24.955778,121.631222,8.90841e-09
C1A750,石碇服務區,2014-03-19,25.00872,121.646242,5.0463413e-08
C0X300,鹿寮,2014-03-19,23.386047,120.477331,1.552085e-09
G2AI50,關渡,2014-03-19,25.11575,121.492,5.8973296e-08
C0K590,雲林東勢,2014-03-19,23.674192,120.255721,4.0691518e-08
C0A570,桶後,2014-03-19,24.848222,121.597992,2.1446521e-08
C1S800,華源,2014-03-19,22.657883,121.02325,8.689528e-08
C0G720,溪州,2014-03-19,23.851589,120.499093,2.4135691e-09
C1V160,達卡努瓦,2014-03-19,23.279811,120.705319,1.1098945e-08
C2M410,馬頭山,2014-03-19,23.324361,120.582017,2.3918878e-09
C0V850,蚵仔寮,2014-03-19,22.7256,120.2527,2.5082982e-09
C0S740,池上,2014-03-19,23.119628,121.209469,2.9528788e-08
C1V390,尖山,2014-03-19,22.813153,120.367789,1.3390813e-09
C0AH70,松山,2014-03-19,25.04871,121.55042,5.2964044e-08
C0N010,鯤鯓國小,2014-03-19,23.1879,120.0889,1.2561409e-08
C0R550,新埤,2014-03-19,22.467947,120.582894,2.7427782e-09
C0SA60,知本（水試所）,2014-03-19,22.702394,121.082761,1.6089923e-07
C0T9I0,豐濱,2014-03-19,23.583897,121.514806,1.2516476e-07
C0UB00,淡江大學蘭陽校園,2014-03-19,24.823239,121.730383,1.0700597e-08
C0W240,九宮,2014-03-19,24.423753,118.240186,1.3787039e-08
C0T9N0,富里,2014-03-19,23.171639,121.249378,2.5860906e-08
U2HA50,臺大竹山,2014-03-19,23.756972,120.681556,3.9170267e-09
C0V840,鳳鼻頭,2014-03-19,22.5083,120.3591,4.1748733e-09
C0X140,西港,2014-03-19,23.125608,120.203108,6.404516e-09
72D080,桃改五峰分場,2014-03-19,24.612194,121.157167,1.09358576e-08
C2H9P0,伊拿谷,2014-03-19,23.963211,121.088264,4.7427133e-09
C2H9F0,柑林,2014-03-19,24.018658,120.847072,3.73637e-09
C0TA20,加灣,2014-03-19,24.082025,121.608944,1.0289038e-07
C0V530,阿蓮,2014-03-19,22.883208,120.327508,2.0978812e-09
C1O880,關山,2014-03-19,23.173397,120.594092,2.522413e-09
C0E791,卓蘭,2014-03-19,24.3126,120.8244,2.776274e-09
C1I030,武界,2014-03-19,23.913225,121.052483,5.189623e-09
C0R520,崁頂,2014-03-19,22.514781,120.506914,4.2622936e-09
C0R341,牡丹,2014-03-19,22.130036,120.792639,4.712782e-07
C0R930,萬丹,2014-03-19,22.5885,120.4851,2.9151428e-09
C0S760,紅石,2014-03-19,23.069131,121.126219,2.2914247e-08
C1M610,石磐龍,2014-03-19,23.496606,120.663506,7.4199797e-09
C0UA10,鴛鴦湖,2014-03-19,24.590269,121.412228,2.266989e-08
V2C260,八德蔬果,2014-03-19,24.978508,121.281819,6.215624e-08
C0R800,丹路,2014-03-19,22.204481,120.750989,4.977841e-06
C0G920,永靖,2014-03-19,23.924703,120.547533,1.3819422e-08
C2M950,太和,2014-03-19,23.538372,120.702961,8.686658e-09
C1A630,下盆,2014-03-19,24.771003,121.538622,2.3246965e-08
B2N890,畜產試驗所,2014-03-19,23.058972,120.336406,1.6247356e-09
C0UA30,白嶺,2014-03-19,24.527819,121.519031,2.1819433e-08
C1V580,溪南(特生中心),2014-03-19,23.084972,120.788475,1.9547851e-08
C1T970,大農,2014-03-19,23.615233,121.413331,1.1442611e-07
E2S960,林試太麻里2,2014-03-19,22.598014,120.989761,2.3026786e-07
C0R650,竹田,2014-03-19,22.58486,120.54344,2.914787e-09
C1H900,清流,2014-03-19,24.080775,120.962997,3.7957015e-09
C1C510,水尾,2014-03-19,24.940081,121.087161,6.85709e-08
C0F9X0,大雅(中科園區),2014-03-19,24.21528,120.62445,8.868387e-08
C0SB60,白守蓮,2014-03-19,23.126769,121.401914,2.1572043e-07
C0O970,虎頭埤,2014-03-19,23.021375,120.347878,2.798716e-09
C0C730,中大臨海站,2014-03-19,24.966126,121.008581,2.5799602e-07
C0X250,新營,2014-03-19,23.310689,120.316681,2.7946458e-09
C0V700,三民,2014-03-19,22.645017,120.311233,3.807717e-09
C0U870,大礁溪,2014-03-19,24.791042,121.675047,9.947607e-09
C0E870,高鐵苗栗,2014-03-19,24.60725,120.826094,1.2444076e-07
A2K570,古坑花卉中心,2014-03-19,23.63353,120.55239,3.6026127e-09
C0M860,新美,2014-03-19,23.338017,120.683169,3.998254e-09
C1E701,八卦,2014-03-19,24.491756,120.927619,8.006585e-09
C0I420,國姓,2014-03-19,24.037803,120.855072,2.911692e-09
C2D720,關西工作站,2014-03-19,24.757275,121.184792,4.22661e-08
C0S960,香蘭,2014-03-19,22.587569,120.993375,2.3026786e-07
C0R260,春日,2014-03-19,22.370361,120.628306,0.0021999143
72G600,臺中農改場,2014-03-19,24.003028,120.534389,1.2840961e-08
C0Z210,瑞穗,2014-03-19,23.5239,121.39021,1.3459567e-07
C0M820,達邦,2014-03-19,23.453994,120.749517,5.8760383e-09
C0V860,南寮,2014-03-19,22.7616,120.2339,2.1783455e-09
C0G740,大城,2014-03-19,23.852487,120.320935,5.367726e-08
C0R920,塭仔,2014-03-19,22.4169,120.5197,4.9432436e-09
C0R470,高樹,2014-03-19,22.826389,120.600806,4.4651842e-09
C0R680,佳樂水,2014-03-19,21.993578,120.861633,0.99745184
C1O870,大棟山,2014-03-19,23.31157,120.52226,6.7150383e-09
C0D360,梅花,2014-03-19,24.678347,121.208558,1.1482583e-08
C0Z190,富世,2014-03-19,24.14743,121.6297,8.172403e-08
C0AI10,屈尺,2014-03-19,24.92184,121.54475,5.1197812e-08
B2U990,畜試東區分所,2014-03-19,24.669039,121.832561,7.288733e-08
C0SB80,長濱漁港,2014-03-19,23.313644,121.459994,6.699587e-08
C0R240,來義,2014-03-19,22.527306,120.625111,0.00044808956
C0V910,大樹,2014-03-19,22.684645,120.432803,1.5679952e-09
C1R610,西大武山,2014-03-19,22.617719,120.7322,1.777796e-08
C0G900,線西,2014-03-19,24.143358,120.443536,3.4714475e-07
C0M700,竹崎,2014-03-19,23.526178,120.555508,3.5929437e-09
C2E880,三義,2014-03-19,24.405478,120.749819,4.356261e-09
C0C720,竹圍,2014-03-19,25.112692,121.239824,1.12088514e-07
C0F9P0,清水,2014-03-19,24.312297,120.562242,2.7543035e-07
C0Z150,吉安光華,2014-03-19,23.930925,121.595153,2.1324382e-07
C1D640,外坪(五指山),2014-03-19,24.644447,121.090961,1.4975855e-08
C0F9O0,潭子,2014-03-19,24.213106,120.703933,8.8990015e-09
C2H9R0,卓社,2014-03-19,23.887894,121.000086,8.2425e-09
72T250,花蓮農改場,2014-03-19,23.975222,121.563889,9.88018e-08
C0E780,銅鑼,2014-03-19,24.489681,120.790853,1.0952307e-08
C1T950,太安,2014-03-19,23.666719,121.370128,3.183119e-08
C0E830,苑裡,2014-03-19,24.439714,120.653053,2.409406e-07
467270,田中,2014-03-19,23.873803,120.581286,2.717637e-09
C0SA10,檳榔四格山,2014-03-19,22.810031,121.109308,4.1934705e-08
C1T830,布洛灣,2014-03-19,24.17184,121.57127,3.646889e-08
C0F970,大坑,2014-03-19,24.173142,120.722289,8.7445116e-08
C1U920,思源,2014-03-19,24.393125,121.347214,2.3322377e-08
C0A931,三和,2014-03-19,25.233153,121.595236,3.0421656e-08
C0I010,廬山,2014-03-19,24.033311,121.181808,1.0108442e-08
C2M940,日野賀,2014-03-19,23.434056,120.727169,7.978565e-09
C0R860,鼻頭,2014-03-19,22.1043,120.8979,0.9892045
C0UB20,壯圍,2014-03-19,24.7359,121.8163,7.288733e-08
C0R790,九棚,2014-03-19,22.14195,120.889281,0.9263694
C0W110,東莒,2014-03-19,25.9652,119.98069,1.8921602e-07
C1U930,粉鳥林,2014-03-19,24.497088,121.842479,1.2161682e-08
C1I211,蘆竹湳,2014-03-19,23.934019,120.811994,5.4132707e-09
C0S830,長濱,2014-03-19,23.286817,121.411975,3.5024527e-08
C1F9F1,伯公龍,2014-03-19,24.272392,120.849047,4.2547317e-09
C0E810,西湖,2014-03-19,24.562947,120.7485,1.1067324e-07
C1I440,新高口,2014-03-19,23.478744,120.878939,1.6793097e-08
C0O840,王爺宮,2014-03-19,23.222064,120.40085,4.218514e-09
C0T9G0,鳳林山,2014-03-19,23.735269,121.420131,9.6013466e-08
C0X080,佳里,2014-03-19,23.173039,120.145086,4.616609e-09
C0FB70,大甲溪埔,2014-03-19,24.370625,120.620067,2.1029486e-07
C0Z310,清水斷崖,2014-03-19,24.218294,121.689142,6.229379e-08
C0M680,太保,2014-03-19,23.455062,120.331455,6.925805e-09
C1S820,金峰,2014-03-19,22.590969,120.933236,4.9623093e-08
C0AD10,八里,2014-03-19,25.150211,121.403947,1.12088514e-07
C2K240,草嶺,2014-03-19,23.59555,120.693461,7.2444197e-09
C1SA70,都蘭,2014-03-19,22.87794,121.226881,3.4203595e-08
C0K440,二崙,2014-03-19,23.772797,120.408944,2.0918878e-09
C1A760,坪林交控,2014-03-19,24.94284,121.713442,1.4008748e-08
C0F9N0,大里,2014-03-19,24.092464,120.701378,1.640087e-07
C0SA90,達仁林場,2014-03-19,22.264347,120.823972,6.613444e-08
C1R290,石門山,2014-03-19,22.112611,120.756597,0.9983829
42HA10,萬大發電廠,2014-03-19,23.978875,121.139639,1.2612954e-08
C0R890,山海,2014-03-19,21.9878,120.7091,0.99678314
C0T9A0,月眉山,2014-03-19,23.809928,121.539828,8.239706e-08
C0AC70,信義,2014-03-19,25.037822,121.564597,5.2964044e-08
C0K560,棋山,2014-03-19,23.68645,120.603417,5.5548917e-09
C2FB50,出雲,2014-03-19,24.206469,120.902794,5.7219824e-09
C1Z240,中平林道,2014-03-19,23.42115,121.26763,3.6488302e-08
U2H480,溪頭,2014-03-19,23.670306,120.798194,4.539499e-09
C0M880,好美里,2014-03-19,23.3364,120.138,4.616609e-09
C0T9E0,大坑,2014-03-19,23.880628,121.581981,9.3891515e-08
C0K530,臺西,2014-03-19,23.701547,120.197559,5.7331174e-08
C1E900,國一N128K,2014-03-19,24.560997,120.844186,9.247237e-08
C0AJ50,水湳洞,2014-03-19,25.123695,121.862238,1.545813e-06
C0AI20,白沙灣,2014-03-19,25.283128,121.519058,4.2473349e-07
C0A860,大坪,2014-03-19,25.165914,121.632969,4.3897597e-08
C1U850,觀音海岸,2014-03-19,24.38319,121.77856,1.6445878e-08
C2K610,草嶺石壁,2014-03-19,23.602469,120.707731,7.653866e-09
C0U950,鶯子嶺,2014-03-19,24.89754,121.79244,1.863043e-08
C0O900,善化,2014-03-19,23.112883,120.297219,1.6801321e-09
C0K550,蔦松,2014-03-19,23.514319,120.229736,1.0513282e-08
E2P980,林試六龜中心,2014-03-19,22.991703,120.645722,2.9998533e-09
C0E590,通霄,2014-03-19,24.471892,120.704622,2.2424403e-07
C1I310,西巒,2014-03-19,23.754486,120.883956,5.6016853e-09
C0A550,泰平,2014-03-19,24.971197,121.823711,2.5202404e-08
C0I360,水里,2014-03-19,23.812553,120.849792,3.3573189e-09
C0R830,高士,2014-03-19,22.121825,120.836781,0.9961831
C1I101,溪頭,2014-03-19,23.661789,120.807647,9.256569e-09
C0AJ20,野柳,2014-03-19,25.20703,121.690021,1.545813e-06
C0B060,暖暖,2014-03-19,25.0957,121.7403,8.2651553e-07
C1H920,長豐,2014-03-19,24.102039,120.879897,3.4002647e-09
C0V360,內門,2014-03-19,22.975481,120.466769,5.5453326e-09
C0R850,林邊,2014-03-19,22.4634,120.5339,4.2622936e-09
C0E930,龍鳳,2014-03-19,24.700034,120.859125,9.5194865e-09
C0U910,冬山,2014-03-19,24.63373,121.7937,7.288747e-08
C1E721,泰安,2014-03-19,24.489017,120.968036,7.704309e-09
82H320,茶改中部分場,2014-03-19,23.875611,120.913583,3.2939464e-09
C0M750,布袋,2014-03-19,23.380878,120.167789,9.813578e-09
C1S860,利嘉,2014-03-19,22.809417,121.050528,2.8984118e-08
72C440,桃園農改,2014-03-19,24.950944,121.030583,2.1127805e-07
E2S980,林試太麻里1,2014-03-19,22.598922,120.980044,1.10745674e-07
C0X170,關廟,2014-03-19,22.963017,120.327797,1.680693e-09
C0V720,林園,2014-03-19,22.507747,120.394511,3.8142804e-09
C1I510,線浸林道,2014-03-19,23.761508,120.832956,4.6538116e-09
C0D690,外湖,2014-03-19,24.917735,120.968711,2.5799602e-07
C0C750,新興坑尾,2014-03-19,25.0061,121.0971,9.410702e-08
B2Q810,畜試南區分所,2014-03-19,21.945583,120.802167,0.99745184
C0S790,金崙,2014-03-19,22.538122,120.966875,4.0972978e-08
C0AH90,福山植物園,2014-03-19,24.760717,121.58135,1.574274e-08
C0I540,奇萊稜線,2014-03-19,24.109231,121.326456,3.7124675e-08
C0M850,表湖,2014-03-19,23.24186,120.64166,4.0350736e-09
C0S770,大溪山,2014-03-19,22.478475,120.943325,2.0209608e-08
C0AG80,中和,2014-03-19,24.991622,121.491792,5.2852027e-08
C0T790,大禹嶺,2014-03-19,24.186117,121.316086,2.8400212e-08
C0T9B0,水源,2014-03-19,23.991861,121.537169,7.581729e-08
C0R840,牡丹池山,2014-03-19,22.168389,120.841225,7.925786e-08
C1I131,桶頭,2014-03-19,23.641944,120.654117,3.9063575e-09
CAL110,布袋國中,2014-03-19,23.35893,120.18026,4.5080055e-09
467571,新竹,2014-03-19,24.827853,121.014219,8.234945e-08
C0Z290,赤柯山,2014-03-19,23.36893,121.38293,3.6458736e-08
C0X280,將軍,2014-03-19,23.214999,120.13577,4.616609e-09
C0S690,太麻里,2014-03-19,22.60902,120.98533,3.4735464e-08
C0U880,北關,2014-03-19,24.9072,121.8734,1.3145556e-07
C1H860,瑞岩,2014-03-19,24.123772,121.18345,1.2903199e-08
C0G810,埔心,2014-03-19,23.947633,120.525456,1.4500928e-08
C0U970,大福,2014-03-19,24.80064,121.81389,1.5428446e-08
C2H9N0,仁愛東眼,2014-03-19,24.026875,121.1205,8.997239e-09
C1E670,南礦,2014-03-19,24.538278,121.002836,8.0408045e-09
C0M520,東後寮,2014-03-19,23.369908,120.248065,4.4683706e-09
C1E461,松安,2014-03-19,24.397972,120.986022,7.1411983e-09
72G600,臺中農改,2014-03-19,24.003028,120.534389,1.2840961e-08
C2N160,西拉雅風管處,2014-03-19,23.189481,120.335297,2.5378653e-09
C2M970,碧湖,2014-03-19,23.568632,120.624165,6.6679173e-09
C0A640,石碇,2014-03-19,24.993969,121.662917,3.185263e-08
E2S960,林試太麻里2,2014-03-19,22.598,120.99775,2.8403392e-07
C0F9Y0,桃山,2014-03-19,24.432739,121.303808,3.5837882e-08
C1I020,萬大,2014-03-19,23.979817,121.132261,6.2918044e-09
C0U940,羅東,2014-03-19,24.68184,121.74934,7.0159935e-08
C0M650,朴子,2014-03-19,23.43463,120.23902,1.0167244e-08
C1I500,大尖山,2014-03-19,23.858572,120.994889,1.4470895e-08
C0G820,田尾,2014-03-19,23.901669,120.509389,1.3839733e-08
E2K600,四湖植物園,2014-03-19,23.676986,120.163433,5.7331174e-08
C0S730,綠島,2014-03-19,22.6672,121.47533,1.0388781e-07
12Q970,東港工作站,2014-03-19,22.479997,120.466058,4.573201e-09
C0E430,南庄,2014-03-19,24.601775,121.000214,7.515181e-09
C1TA00,太魯閣,2014-03-19,24.15773,121.6236,6.450111e-08
466920,臺北,2014-03-19,25.037658,121.514853,5.2964044e-08
C0R600,舊泰武,2014-03-19,22.588194,120.664944,4.3132435e-09
C1I260,北坑,2014-03-19,23.9246,121.006903,3.1211869e-09
466910,鞍部,2014-03-19,25.182586,121.529731,4.0436582e-08
C1I230,九份二山,2014-03-19,23.961944,120.845,3.8118584e-09
C2A660,瑞芳,2014-03-19,25.113169,121.801147,4.7901256e-08
C0R270,琉球嶼,2014-03-19,22.332244,120.362236,0.0021999143
C1T990,高寮,2014-03-19,23.394239,121.356808,1.3629683e-07
C0G620,芬園,2014-03-19,24.015678,120.6213,8.356379e-09
C1Z140,荖溪,2014-03-19,23.890575,121.45964,4.4337177e-08
C1I201,中心崙,2014-03-19,23.728722,120.712097,4.5871786e-09
C1I400,凌霄,2014-03-19,24.018778,121.004456,8.828216e-09
C1M640,十字,2014-03-19,23.492153,120.753683,8.1189695e-09
G2P820,農試鳳山分所,2014-03-19,22.646611,120.356083,3.263921e-09
C0Z270,蕃薯寮,2014-03-19,23.73835,121.540108,1.494808e-07
C0F9Q0,外埔,2014-03-19,24.347817,120.705686,1.0208361e-08
C0K580,高鐵雲林,2014-03-19,23.737456,120.417944,1.8696027e-09
C2I090,鳳凰,2014-03-19,23.728081,120.787347,3.447335e-09
C0U990,員山,2014-03-19,24.74435,121.72247,6.998511e-08
C0V770,大社,2014-03-19,22.730306,120.346639,2.0386097e-09
C0X120,麻豆,2014-03-19,23.183289,120.248611,4.4703996e-09
C0C670,龍潭,2014-03-19,24.870056,121.221389,1.2599946e-08
C0D680,香山濕地,2014-03-19,24.783581,120.914988,7.203212e-08
C0S980,勝林山,2014-03-19,22.430439,120.8938,9.802915e-09
C0V730,大寮,2014-03-19,22.605614,120.395717,6.9066637e-09
C0R570,麟洛,2014-03-19,22.65078,120.52719,1.3966908e-09
C2M930,石卓,2014-03-19,23.478744,120.702264,7.999991e-09
C0G9B0,和美,2014-03-19,24.105169,120.492131,1.2109879e-08
CAG100,王功漁港,2014-03-19,23.96824,120.32586,4.28902e-08
C0X290,北門,2014-03-19,23.267772,120.125481,4.616609e-09
C2F930,大甲,2014-03-19,24.347667,120.640403,1.3020663e-07
C0D650,湖口,2014-03-19,24.904794,121.043628,1.8690604e-07
C0E420,竹南,2014-03-19,24.708978,120.888897,7.015043e-08
C0U780,五結,2014-03-19,24.68637,121.79794,7.288733e-08
C1I250,鯉潭,2014-03-19,23.961922,120.991131,3.4002647e-09
C0R130,阿禮,2014-03-19,22.742908,120.743678,2.9908493e-09
C0X100,臺南市北區,2014-03-19,23.010394,120.194228,3.7859187e-09
C0S920,金峰嘉蘭,2014-03-19,22.594789,120.960825,1.04296205e-07
C0V490,新興,2014-03-19,22.627422,120.298803,3.8142804e-09
C0F9K0,大安,2014-03-19,24.345061,120.588025,2.2836741e-07
72N100,臺南農改,2014-03-19,23.0605,120.342194,1.6237287e-09
467290,古坑,2014-03-19,23.633639,120.551889,3.6026127e-09
C2E970,八甲,2014-03-19,24.535811,120.795983,1.07757225e-08
C0V440,鳳山,2014-03-19,22.646653,120.356122,3.263921e-09
C1T940,大觀,2014-03-19,23.714206,121.373133,9.479719e-08
72T250,花蓮農改,2014-03-19,23.975222,121.563889,9.88018e-08
C0E740,造橋,2014-03-19,24.637056,120.864778,9.832183e-09
C0R100,尾寮山,2014-03-19,22.833111,120.683889,3.9798795e-09
A2K630,臺大雲林校區,2014-03-19,23.730628,120.423903,1.868227e-09
C0D580,寶山,2014-03-19,24.735006,121.025192,1.785326e-08
E2P990,林試扇平站,2014-03-19,22.9677,120.6857,8.764679e-09
C0AI30,三重,2014-03-19,25.057328,121.500629,6.1750335e-08
C0AH00,汐止,2014-03-19,25.066881,121.658778,1.545813e-06
C1Z040,立山,2014-03-19,23.443356,121.327375,7.353385e-08
C0W130,花嶼,2014-03-19,23.40007,119.32276,0.9387707
C0A950,鼻頭角,2014-03-19,25.129036,121.923372,6.17375e-08
C0K470,林內,2014-03-19,23.748675,120.609642,3.5675614e-09
C2F990,摩天嶺,2014-03-19,24.322458,120.936819,6.2852554e-09
82C160,茶改場,2014-03-19,24.908472,121.185333,4.0943995e-08
C0Z320,清水林道,2014-03-19,23.27125,121.188272,3.3374647e-08
C0R760,南仁湖,2014-03-19,22.084681,120.863353,0.9982643
C0M670,大林,2014-03-19,23.600616,120.45841,1.8575881e-07
C0M800,茶山,2014-03-19,23.299075,120.664767,3.2642509e-09
C0A9C0,天母,2014-03-19,25.117494,121.537169,6.0525146e-08
72K220,南改斗南分場,2014-03-19,23.634556,120.477333,3.606841e-09
72AI40,桃改樹林分場,2014-03-19,24.944503,121.386972,5.984797e-08
C0S910,蘭嶼燈塔,2014-03-19,22.081197,121.503117,0.9148263
C0B050,八斗子,2014-03-19,25.144754,121.79167,1.8296487e-06
C0U900,內城,2014-03-19,24.71813,121.68766,1.578917e-08
C0X320,柳營,2014-03-19,23.253328,120.375253,5.5840195e-09
C0M790,新港,2014-03-19,23.553269,120.345728,7.825992e-09
C0F9T0,西屯,2014-03-19,24.179494,120.641275,1.4784924e-07
C0SA30,都歷,2014-03-19,23.020333,121.323642,1.255951e-07
C0C620,蘆竹,2014-03-19,25.084275,121.265767,1.0808538e-07
C0R730,大坪頂,2014-03-19,22.024633,120.69355,0.9993015
C0AJ40,石門,2014-03-19,25.273672,121.601198,2.056451e-07
C0E750,苗栗,2014-03-19,24.564569,120.824575,9.8319795e-08
C0T870,鯉魚潭,2014-03-19,23.935639,121.508944,1.3885945e-07
C1V170,排雲,2014-03-19,23.463619,120.954147,3.3168718e-08
C2H950,中寮,2014-03-19,23.884447,120.766406,3.979644e-09
C0R350,貓鼻頭,2014-03-19,21.921774,120.7358,0.99793094
C0V660,岡山,2014-03-19,22.797078,120.294958,1.5437327e-09
C1H941,雙冬,2014-03-19,23.967378,120.802189,3.1659635e-09
C0AJ70,田寮,2014-03-19,25.2698,121.4886,4.5410295e-07
C0AI00,五股,2014-03-19,25.07445,121.42728,8.507085e-08
C0Z280,德武,2014-03-19,23.47426,121.41071,1.0088318e-07
C0R700,枋山,2014-03-19,22.246844,120.661086,0.0018827925
C0C460,復興,2014-03-19,24.820208,121.352281,1.6508638e-08
E2H360,蓮華池,2014-03-19,23.918333,120.885278,3.4561505e-09
C0M640,中埔,2014-03-19,23.42538,120.5229,3.368711e-09
C0W140,金沙,2014-03-19,24.488292,118.408778,1.1886644e-08
C2A540,四堵,2014-03-19,24.8926,121.745736,3.5034617e-08
C0ACA0,新莊,2014-03-19,25.051478,121.446756,1.03767995e-07
C0R220,潮州,2014-03-19,22.534361,120.54,7.2182136e-09
U2HA40,臺大內茅埔,2014-03-19,23.689722,120.851117,3.5666359e-09
467490,臺中,2014-03-19,24.145736,120.684075,1.5274335e-07
C0U960,翠峰湖,2014-03-19,24.510856,121.608044,2.5627326e-08
E2HA20,林試畢祿溪站,2014-03-19,24.226944,121.308522,1.8087912e-08
C0V890,前鎮,2014-03-19,22.5718,120.3117,4.0903543e-09
467620,蘭嶼,2014-03-19,22.036969,121.558339,0.14625548
C1F941,雪嶺,2014-03-19,24.280586,121.026642,2.106973e-08
C2H9E0,國姓南港,2014-03-19,23.911108,120.846556,5.047456e-09
C0AC80,文山,2014-03-19,25.00235,121.575728,5.1197812e-08
C0F9R0,龍井,2014-03-19,24.184536,120.528972,3.0468755e-07
C0M760,民雄,2014-03-19,23.551754,120.428457,4.092994e-08
C0UA40,西德山,2014-03-19,24.560647,121.752608,1.9753392e-08
C1T920,中興,2014-03-19,23.769503,121.498653,1.7095584e-07
C0D550,雪霸,2014-03-19,24.526972,121.11605,1.4498107e-08
C2F860,梨山,2014-03-19,24.247522,121.243669,1.8468356e-08
C0R320,車城,2014-03-19,22.0744,120.716247,0.99678314
C1S870,南美山,2014-03-19,23.15025,121.382333,5.5555514e-08
C0B020,基隆嶼,2014-03-19,25.19141,121.78391,1.545813e-06
C1U501,牛鬥,2014-03-19,24.637836,121.573656,1.7282632e-08
C0M730,嘉義市東區,2014-03-19,23.457673,120.460531,1.3686683e-07
C0S700,知本,2014-03-19,22.684866,121.005642,3.636852e-08
C1N001,沙崙,2014-03-19,22.935472,120.309406,2.0978812e-09
C0V760,橋頭,2014-03-19,22.757806,120.30575,1.4603952e-09
C0G960,福寶,2014-03-19,24.0443,120.3814,1.5327313e-08
C0X210,白河,2014-03-19,23.347466,120.414427,5.445965e-09
C0S810,東河,2014-03-19,22.972672,121.303986,3.5158056e-08
C2R170,屏東,2014-03-19,22.66027,120.49403,1.4254175e-09
C0R670,楓港,2014-03-19,22.190131,120.692156,0.0018829288
C0FA50,霧峰,2014-03-19,24.0419,120.6995,1.1488141e-07
C0UB10,蘇澳,2014-03-19,24.5969,121.8571,3.3822847e-08
C0G950,防潮門,2014-03-19,24.1835,120.4871,3.192754e-07
C0M740,六腳,2014-03-19,23.492871,120.290625,7.2910935e-09
C1R250,力里,2014-03-19,22.428117,120.629228,0.0004427698
C0K330,虎尾,2014-03-19,23.719183,120.442036,1.8797541e-09
C2FA00,烏石坑,2014-03-19,24.273503,120.947617,6.232847e-09
C0V620,永安,2014-03-19,22.82315,120.236856,2.1402133e-09
C1I330,楓樹林,2014-03-19,23.986803,121.076117,8.0240135e-09
C0W200,湖西,2014-03-19,23.596314,119.67275,0.68730724
72Q010,高雄農改場,2014-03-19,22.709333,120.525889,1.3398196e-09
C0SA40,瑞和,2014-03-19,22.974361,121.156697,6.9183486e-08
C0C680,龜山,2014-03-19,25.02846,121.38656,1.0246244e-08
C2V260,月眉,2014-03-19,22.971003,120.539853,1.9605868e-09
C0V450,鳳森,2014-03-19,22.545064,120.392592,4.5689807e-09
C0U720,南山,2014-03-19,24.43742,121.38167,2.1918332e-08
A2N290,臺南蘭花園區,2014-03-19,23.340258,120.379661,5.5840195e-09
C0R560,新園,2014-03-19,22.5434,120.461558,4.262936e-09
C0U890,三星,2014-03-19,24.66812,121.65302,1.5523288e-08
C1V300,御油山,2014-03-19,23.001983,120.715364,1.9657362e-08
C0U600,礁溪,2014-03-19,24.817539,121.765608,1.5718499e-08
C1T980,龍澗,2014-03-19,24.023289,121.411328,3.3998514e-08
C0D670,海天一線,2014-03-19,24.831986,120.914438,7.332601e-08
C0SA00,歷坵,2014-03-19,22.520969,120.89185,1.7579824e-08
C0M710,東石,2014-03-19,23.458927,120.15385,1.0513282e-08
C0M780,鹿草,2014-03-19,23.41134,120.30835,6.7024852e-09
C0U520,雙連埤,2014-03-19,24.753033,121.641303,9.978278e-09
C0B010,七堵,2014-03-19,25.094819,121.71713,1.324875e-06
C0R480,長治,2014-03-19,22.693128,120.542622,1.65876e-09
C1V830,國三S383K,2014-03-19,22.781967,120.426475,9.56066e-10
12Q980,恆春工作站,2014-03-19,22.079678,120.714425,0.99678314
C1O940,東山服務區,2014-03-19,23.286016,120.398472,5.2266556e-09
C1U840,東澳嶺,2014-03-19,24.5378,121.8485,1.6022527e-08
C1D630,飛鳳山,2014-03-19,24.766464,121.119178,1.994184e-08
C0S940,石寧山,2014-03-19,23.223772,121.406639,4.2236444e-08
C0K410,北港,2014-03-19,23.573957,120.292802,8.471104e-09
C2M620,瑞里,2014-03-19,23.545133,120.675197,8.142386e-09
C0SB70,小港漁港,2014-03-19,23.158558,121.400431,5.8849807e-08
C2O950,安南,2014-03-19,23.076694,120.144861,8.023661e-09
C0F0E0,南湖圈谷,2014-03-19,24.363714,121.444667,5.5209988e-08
467610,成功,2014-03-19,23.097486,121.373428,1.7801295e-07
C0G890,伸港,2014-03-19,24.148933,120.484403,2.3886528e-07
C2E540,龍溪,2014-03-19,24.606489,120.783933,1.4065502e-07
C1V200,梅山,2014-03-19,23.268447,120.823556,1.017776e-08
C0T9H0,加路蘭山,2014-03-19,23.682947,121.5274,7.828937e-08
C2O930,玉井,2014-03-19,23.126042,120.46055,5.931994e-09
C1F911,新伯公,2014-03-19,24.221361,120.841069,4.2776453e-09
C0R490,九如,2014-03-19,22.7405,120.490503,1.3961634e-09
C0X200,左鎮,2014-03-19,23.056758,120.408522,3.0570428e-09
C0SB50,叭嗡嗡,2014-03-19,23.047062,121.343223,3.8360167e-08
C1F891,稍來,2014-03-19,24.265689,121.001142,1.5886624e-08
72N240,七股研究中心,2014-03-19,23.081672,120.062894,2.1865386e-08
C0C700,中壢,2014-03-19,24.977661,121.256375,5.992107e-08
C0M690,水上,2014-03-19,23.419734,120.388909,2.6898116e-08
C0V690,鼓山,2014-03-19,22.623325,120.275575,3.8142804e-09
C0O860,大內,2014-03-19,23.11885,120.36083,2.226633e-09
C0Z200,萬榮,2014-03-19,23.709219,121.420106,1.3885945e-07
C0T9D0,和中,2014-03-19,24.26676,121.74103,8.7148564e-08
C1O921,楠西,2014-03-19,23.183511,120.484083,4.8824673e-09
C0AJ30,淡水觀海,2014-03-19,25.184591,121.408616,1.1623947e-07
C0V810,左營,2014-03-19,22.67491,120.28491,2.2436175e-09
C0UA70,桃源谷,2014-03-19,24.962606,121.888875,2.5227315e-08
C0X130,官田,2014-03-19,23.193217,120.315422,2.5438358e-09
C1H000,翠峰,2014-03-19,24.109397,121.205211,2.2139254e-08
C0UA90,石城,2014-03-19,24.980444,121.951214,8.219504e-08
C1E681,南勢山,2014-03-19,24.421669,120.923831,5.4143134e-09
C0A9F0,內湖,2014-03-19,25.079422,121.57545,5.2964044e-08
C0K291,宜梧,2014-03-19,23.536281,120.169329,1.145714e-08
C1K540,口湖,2014-03-19,23.585344,120.180517,1.2578695e-08
C0R780,滿州,2014-03-19,22.024403,120.839892,0.9980938
C0V870,文安,2014-03-19,22.8025,120.2164,2.1783455e-09
C0U650,玉蘭,2014-03-19,24.675286,121.587061,2.4455444e-08
C0R640,東港,2014-03-19,22.46247,120.44074,4.100149e-09
K2E360,苗栗農改,2014-03-19,24.495722,120.829111,1.2078783e-08
C0AJ80,板橋,2014-03-19,25.0107,121.4489,6.103802e-08
C0S660,下馬,2014-03-19,23.150427,121.070312,3.7726355e-08
C1H9B1,阿眉,2014-03-19,24.1263,120.994672,1.0384776e-08
C0UA20,多加屯,2014-03-19,24.368614,121.373189,2.6587887e-08
C0E730,頭份,2014-03-19,24.688247,120.912206,7.015043e-08
72V140,高改旗南分場,2014-03-19,22.857861,120.516667,3.6283692e-09
C0K480,莿桐,2014-03-19,23.761192,120.502372,2.4666427e-09
C0U980,坪林石牌,2014-03-19,24.86478,121.77396,1.9525716e-08
C0T900,西林,2014-03-19,23.8119,121.441458,1.248567e-07
C1I150,青雲,2014-03-19,23.793361,120.949378,3.621082e-09
467350,澎湖,2014-03-19,23.565503,119.563094,0.86505055
C0G800,埔鹽,2014-03-19,24.000394,120.431683,1.4264299e-08
C0H960,草屯,2014-03-19,23.973672,120.68085,2.783294e-09
C1V780,多納林道,2014-03-19,22.888028,120.737917,8.908613e-09
C0E920,通霄漁港,2014-03-19,24.498589,120.673876,3.064801e-07
C0Z330,安通山,2014-03-19,23.290728,121.348528,3.4771258e-08
C0AH10,永和,2014-03-19,25.01125,121.508111,5.5985154e-08
C0AK10,太平里,2014-03-19,25.134937,121.364899,1.03767995e-07
C2G640,鹿港,2014-03-19,24.0753,120.430481,1.4264299e-08
C1E890,國三N149K,2014-03-19,24.463414,120.680019,1.9625392e-07
C1R110,口社,2014-03-19,22.770111,120.645222,4.1953645e-09
C1M870,國三N285K,2014-03-19,23.550319,120.505833,3.570291e-09
467050,新屋,2014-03-19,25.006744,121.047486,2.3224369e-07
C1E480,鳳美,2014-03-19,24.554803,121.034747,6.177375e-09
C0M530,奮起湖,2014-03-19,23.493903,120.699253,8.7329735e-09
C0C590,觀音,2014-03-19,25.027072,121.153317,7.794058e-08
C0T9M0,靜浦,2014-03-19,23.455167,121.495028,1.5450937e-07
C2H9M0,發祥,2014-03-19,24.154094,121.164517,8.101428e-09
C0AI40,石牌,2014-03-19,25.115597,121.513139,6.103802e-08
C1F871,上谷關,2014-03-19,24.203483,121.018644,6.232847e-09
C2H9G0,百勝,2014-03-19,24.051142,120.909361,4.4793014e-09
C0G880,二水,2014-03-19,23.810742,120.6173,3.751473e-09
C0R940,加祿堂,2014-03-19,22.3363,120.6217,0.032100454
C0W220,北竿,2014-03-19,26.220358,119.974881,1.282532e-08
C0O960,崎頂,2014-03-19,22.959547,120.369317,1.3838036e-09
C0S750,向陽,2014-03-19,23.248397,120.986133,2.1381823e-08
C0T9F0,水璉,2014-03-19,23.797131,121.542514,1.0291943e-07
C1M600,頭凍,2014-03-19,23.406364,120.603339,6.8687758e-09
467660,臺東,2014-03-19,22.752211,121.154586,9.058871e-08
C1D380,新埔,2014-03-19,24.84745,121.03834,7.2364266e-08
C2G980,田頭村,2014-03-19,23.8263,120.444175,2.0918838e-09
C0V750,路竹,2014-03-19,22.854997,120.259439,1.4230405e-09
C0N050,蚵寮,2014-03-19,23.301,120.1104,1.2561409e-08
72M700,南改鹿草分場,2014-03-19,23.416869,120.283061,6.9352564e-09
C1SA50,利嘉林道,2014-03-19,22.82325,121.009389,1.5298019e-08
467550,玉山,2014-03-19,23.487614,120.959522,3.609355e-08
C0A940,金山,2014-03-19,25.223628,121.643967,3.8856533e-07
C1V340,大津,2014-03-19,22.888322,120.645986,1.9609083e-09
C0W180,七美,2014-03-19,23.219333,119.444892,0.8657217
C1F9C1,白冷,2014-03-19,24.182844,120.929889,5.55699e-09
K2E710,苗改生物防治研究中心,2014-03-19,24.422861,120.871833,8.487698e-09
C0N040,蘆竹溝,2014-03-19,23.2344,120.0961,1.2561409e-08
C2W230,畜試所澎湖,2014-03-19,23.628342,119.513206,0.83702266
C0R880,後壁湖,2014-03-19,21.9457,120.7457,0.99630046
C1I280,埔中,2014-03-19,23.820778,120.642594,4.4584696e-09
467790,墾丁雷達站,2014-03-19,21.948235,120.808028,0.9982744
C0W190,望安,2014-03-19,23.380564,119.494075,0.81822217
466881,新北,2014-03-19,24.9593,121.52,5.2044147e-08
C0Z170,卓溪,2014-03-19,23.3443,121.3029,4.3249518e-08
C0F850,東勢,2014-03-19,24.246428,120.833047,4.2047374e-09
466900,淡水,2014-03-19,25.164889,121.448906,1.12088514e-07
C0I370,魚池,2014-03-19,23.895703,120.94135,3.3928922e-09
C0C630,大溪,2014-03-19,24.882853,121.265547,3.85106e-08
C0A520,山佳,2014-03-19,24.974944,121.402008,5.984797e-08
C0I110,竹山,2014-03-19,23.761225,120.688156,3.91749e-09
82H840,茶改南部分場,2014-03-19,23.762528,120.7405,3.4565262e-09
C0G660,溪湖,2014-03-19,23.94835,120.479122,1.523707e-08
C1T800,洛韶,2014-03-19,24.204558,121.453956,2.8470883e-08
C1T810,慈恩,2014-03-19,24.192044,121.388386,2.3677364e-08
C1E451,象鼻,2014-03-19,24.368617,120.940228,5.4098335e-09
C0AC60,三峽,2014-03-19,24.939025,121.369728,5.1910114e-08
C0I490,萬大林道,2014-03-19,23.928228,121.091411,1.4488625e-08
C1I290,豐丘,2014-03-19,23.668178,120.887417,4.6538027e-09
C1I320,奧萬大,2014-03-19,23.952956,121.178556,8.093798e-09
C2M910,嘉義大學,2014-03-19,23.471325,120.485903,3.6191625e-09
C0U770,南澳,2014-03-19,24.44935,121.81022,1.8963238e-08
C0A980,社子,2014-03-19,25.109508,121.469681,5.8973296e-08
C0V800,六龜,2014-03-19,22.997889,120.633583,2.9947196e-09
C1G9D0,國一S218K,2014-03-19,23.890641,120.493253,1.4500928e-08
C0E570,白沙屯,2014-03-19,24.549447,120.696803,3.0711558e-07
C2F9A0,中竹林,2014-03-19,24.103556,120.751061,3.1979535e-09
C0FA40,臺中電廠,2014-03-19,24.2146,120.4907,3.0468755e-07
C2G9A0,畜試所彰化,2014-03-19,23.86045,120.557964,2.717637e-09
C0H9C0,合歡山,2014-03-19,24.143442,121.272547,3.6975216e-08
C0X060,下營,2014-03-19,23.22695,120.256261,2.6902105e-09
G2M350,農試溪口農場,2014-03-19,23.58565,120.408111,4.565812e-08
C0U860,頭城,2014-03-19,24.85323,121.8308,1.5721765e-08
C0R580,南州,2014-03-19,22.48591,120.50274,4.573201e-09
C0D430,峨眉,2014-03-19,24.6905,121.017189,5.7522527e-08
C0G780,秀水,2014-03-19,24.03405,120.503869,1.3378642e-08
72N100,臺南農改場,2014-03-19,23.0605,120.342194,1.6237287e-09
C0S900,蘭嶼高中,2014-03-19,22.04909,121.51214,0.9272308
467540,大武,2014-03-19,22.355675,120.903789,0.9405177
C1F9W0,德基,2014-03-19,24.254783,121.190261,1.3894271e-08
C1Z120,壽豐,2014-03-19,23.870853,121.508081,1.9239985e-07
C0W160,烏坵,2014-03-19,24.9944,119.44956,0.004953877
C1I240,外大坪,2014-03-19,23.958697,120.917931,3.4661916e-09
C1I550,國六W023K,2014-03-19,23.979067,120.867742,3.1110472e-09
C0R870,興海,2014-03-19,21.9752,120.8439,0.99745184
C0R140,瑪家,2014-03-19,22.682903,120.686639,6.8161676e-09
C0A530,坪林,2014-03-19,24.938183,121.70975,1.4277555e-08
C0X260,後壁,2014-03-19,23.366358,120.362326,2.9487912e-09
C0Z230,和平,2014-03-19,24.30717,121.77007,8.7148564e-08
C0G770,福興,2014-03-19,24.041289,120.437669,1.4264299e-08
C0H9A0,神木村,2014-03-19,23.532742,120.843667,1.115725e-08
C0I460,南投,2014-03-19,23.911469,120.687331,3.8133057e-09
C0I480,梅峰,2014-03-19,24.085272,121.173572,1.771436e-08
C1V570,吉東,2014-03-19,22.85422,120.5454,3.552514e-09
C2D740,屯原,2014-03-19,24.067969,121.209389,1.5777038e-08
C2A560,福山,2014-03-19,24.776203,121.502811,8.9159915e-09
C0AH30,五分山,2014-03-19,25.07125,121.780794,2.8772773e-08
C0FA10,松柏,2014-03-19,24.429115,120.617482,3.03535e-07
72S200,東改班鳩分場,2014-03-19,22.829528,121.077694,5.514421e-08
72HA00,中改埔里分場,2014-03-19,23.903208,120.963364,3.293375e-09
C2H9W0,大坪頂農水,2014-03-19,24.043122,120.932781,3.447302e-09
C0C650,平鎮,2014-03-19,24.897503,121.214636,4.0943995e-08
C0S930,延平,2014-03-19,22.902581,121.084058,2.9869174e-08
C0UA60,樟樹山,2014-03-19,24.41393,121.78325,2.951612e-08
C1S670,摩天,2014-03-19,23.199503,121.027,2.2106677e-08
C0V630,茄萣,2014-03-19,22.906642,120.182608,3.79602e-09
466940,基隆,2014-03-19,25.133314,121.740475,1.7082884e-06
C0X050,東河,2014-03-19,23.296598,120.385608,5.5840195e-09
C0R770,保力,2014-03-19,22.071122,120.764111,0.9986276
G2L020,農試嘉義分所,2014-03-19,23.485028,120.473806,3.6096834e-09
C0X240,關子嶺,2014-03-19,23.331169,120.508025,2.6079687e-09
C0I380,集集,2014-03-19,23.828206,120.801467,3.3118e-09
466990,花蓮,2014-03-19,23.975128,121.613275,1.060122e-07
C1V220,小關山,2014-03-19,23.154217,120.813603,2.0509038e-08
C1F9G1,慶福山,2014-03-19,24.180853,120.848378,5.6771072e-09
C0Z250,瑞穗林道,2014-03-19,23.49284,121.30688,3.402823e-08
C0D590,新豐,2014-03-19,24.87068,120.97721,2.3554126e-08
C0A870,五指山,2014-03-19,25.132153,121.608692,3.216509e-08
C0UA50,西帽山,2014-03-19,24.555361,121.802628,1.9632107e-08
C0X160,仁德,2014-03-19,22.968258,120.257689,1.8555806e-09
C1H971,六分寮,2014-03-19,23.92507,120.6378,4.2243355e-09
C0W120,西嶼,2014-03-19,23.5626,119.468436,0.86505055
C0G650,員林,2014-03-19,23.946503,120.585597,1.5419356e-08
C0AD50,鶯歌,2014-03-19,24.951533,121.346294,6.9480095e-08
C2H9Q0,北東眼山,2014-03-19,24.120939,121.189303,1.5461351e-08
C2H9T0,名間竹圍,2014-03-19,23.859914,120.637572,3.5004006e-09
C0S990,山豬窟,2014-03-19,22.318619,120.857372,1.7184847e-06
72Q010,高雄農改,2014-03-19,22.709333,120.525889,1.3398196e-09
C0X190,安平,2014-03-19,22.993161,120.152181,3.7859187e-09
C0K400,斗六,2014-03-19,23.720583,120.541127,2.7682263e-09
12J990,口湖工作站,2014-03-19,23.589978,120.180394,1.1861188e-08
C0O830,北寮,2014-03-19,23.079561,120.495008,2.380378e-09
C1D410,白蘭,2014-03-19,24.579364,121.079947,1.1614302e-08
C0S970,加津林,2014-03-19,22.416211,120.926942,0.9303631
C0D700,關西,2014-03-19,24.7977,121.1732,4.2751843e-08
C0M810,里佳,2014-03-19,23.389125,120.716647,8.7329735e-09
C0U750,龜山島,2014-03-19,24.841667,121.953133,2.5974902e-08
C0R810,內獅,2014-03-19,22.305064,120.642986,0.032100454
C1M390,龍美,2014-03-19,23.406728,120.654417,7.943489e-09
C2FB60,頭櫃山,2014-03-19,24.129842,120.858925,5.962576e-09
C1H840,國三N238K,2014-03-19,23.841008,120.707711,3.3588945e-09
CAQ030,崎峰國小,2014-03-19,22.42565,120.49521,4.573201e-09
C2E520,大湖,2014-03-19,24.414939,120.870872,1.7514761e-08
467530,阿里山,2014-03-19,23.508208,120.813242,1.9011331e-08
C1E691,南湖,2014-03-19,24.40135,120.837533,4.5776343e-09
C0FA30,梧棲,2014-03-19,24.256003,120.523381,3.0374667e-07
C1V231,高中,2014-03-19,23.134911,120.716711,4.6663975e-09
C0F9V0,新社,2014-03-19,24.200172,120.815806,4.688004e-09
C0H890,埔里,2014-03-19,23.972169,120.952425,5.9831504e-09
C0R690,墾丁,2014-03-19,21.966756,120.810269,0.9993874
C0F0D0,審馬陣,2014-03-19,24.381675,121.4203,3.861556e-08
C0R820,白鷺,2014-03-19,22.454275,120.666219,5.018458e-08
U2H480,臺大溪頭,2014-03-19,23.670306,120.798194,4.539499e-09
C1V190,南天池,2014-03-19,23.27403,120.91176,2.3063636e-08
K2E360,苗栗農改場,2014-03-19,24.495722,120.829111,1.2078783e-08
CAJ050,海口故事園區,2014-03-19,23.57543,120.14121,1.2578695e-08
C2H9D0,三隻寮,2014-03-19,24.093078,120.861578,3.5141678e-09
C0O990,媽廟,2014-03-19,22.99175,120.293525,1.8039219e-09
C0D480,打鐵坑,2014-03-19,24.849664,121.150789,1.1489353e-08
C0Z220,和平林道,2014-03-19,24.343922,121.656317,2.9288433e-08
C0TA10,花蓮漁港,2014-03-19,23.995322,121.638331,1.0733511e-07
72C440,桃園農改場,2014-03-19,24.950944,121.030583,2.1127805e-07
C1E711,馬拉邦山,2014-03-19,24.367306,120.901656,7.495755e-09
C0SB20,富岡,2014-03-19,22.792467,121.192669,8.672672e-08
C0D560,竹東,2014-03-19,24.767147,121.057881,4.6311012e-08
C0F9U0,南屯,2014-03-19,24.137006,120.637969,1.640087e-07
C0M720,番路,2014-03-19,23.464657,120.554156,3.3797034e-09
C0F0A0,雪山圈谷,2014-03-19,24.388594,121.236339,4.196735e-08
C1A9N0,四十份,2014-03-19,24.934158,121.593283,1.8103444e-08
C0U760,東澳,2014-03-19,24.52196,121.83318,1.21466375e-08
C0X230,鹽水,2014-03-19,23.272621,120.247641,4.1871706e-09
C2H9H0,苗改南投蜂場,2014-03-19,23.852589,120.693481,3.9174823e-09
C0R950,萬隆國小,2014-03-19,22.507667,120.587817,2.4929594e-09
C0V370,古亭坑,2014-03-19,22.893178,120.401947,3.249826e-09
C1I340,新興橋,2014-03-19,23.563333,120.868728,4.439148e-09
C0SA80,土坂,2014-03-19,22.453108,120.887572,7.224043e-08
C0R160,鹽埔,2014-03-19,22.739558,120.530778,1.6923184e-09
C0AC40,大屯山,2014-03-19,25.175675,121.522408,4.3815955e-08
466850,五分山雷達站,2014-03-19,25.071182,121.781205,2.8511476e-08
C2H9L0,馬烈霸,2014-03-19,24.1512,121.201772,1.5282913e-08
C1AI50,國三N016K,2014-03-19,25.034164,121.619664,5.1165888e-08
C1V600,藤枝,2014-03-19,23.071961,120.757042,1.9516742e-08
C1E601,南勢,2014-03-19,24.572486,120.734842,1.5262696e-08
C0Z180,新城,2014-03-19,24.03946,121.60454,1.0165385e-07
C0O980,新市,2014-03-19,23.061614,120.298197,1.6796515e-09
C0K420,西螺,2014-03-19,23.800407,120.467394,2.4421964e-09
C0Z050,佳心,2014-03-19,23.34567,121.21316,3.6678028e-08
C0AD30,蘆洲,2014-03-19,25.086594,121.472331,6.1814795e-08
C0V610,梓官,2014-03-19,22.760558,120.267211,1.5437327e-09
K2F750,種苗改良場,2014-03-19,24.225972,120.800917,4.4601283e-09
C0UA80,大溪漁港,2014-03-19,24.941801,121.902955,1.5718499e-08
C1AI60,國一39K邊坡,2014-03-19,25.064361,121.383836,2.474688e-08
C0W150,金寧,2014-03-19,24.457703,118.328989,1.1951709e-08
C0R960,內埔,2014-03-19,22.608483,120.570714,2.7430556e-09
V2C250,八德合作社,2014-03-19,24.93775,121.266389,4.342343e-08
C2H9S0,龍南,2014-03-19,23.953536,120.833183,5.169302e-09
C0AH40,平等,2014-03-19,25.129142,121.577086,3.3955615e-08
C0R540,佳冬,2014-03-19,22.419456,120.552375,4.573201e-09
466950,彭佳嶼,2014-03-19,25.627975,122.079744,6.8234685e-06
C0A890,雙溪,2014-03-19,25.036003,121.864242,1.1425409e-06
C0C480,桃園,2014-03-19,24.992425,121.323172,6.27989e-08
C0AH50,林口,2014-03-19,25.072181,121.38084,4.5552348e-08
A2K360,水試臺西試驗場,2014-03-19,23.717231,120.190522,6.270937e-08
B2N890,畜試所,2014-03-19,23.058972,120.336406,1.6247356e-09
C2M960,外寮,2014-03-19,23.562643,120.665688,6.895778e-09
C0F9S0,烏日,2014-03-19,24.107058,120.624103,1.2154123e-08
C0C490,八德,2014-03-19,24.928708,121.283289,3.9699724e-08
C0R190,赤山,2014-03-19,22.592333,120.614306,2.6313778e-09
C0T820,天祥,2014-03-19,24.179597,121.495639,7.417238e-08
C1F9E1,龍安,2014-03-19,24.1605,120.831961,4.8129456e-09
C0V820,小林,2014-03-19,23.148408,120.63325,2.7401326e-09
C2G870,芳苑,2014-03-19,23.922303,120.320025,5.7221598e-08
C0E850,大河,2014-03-19,24.618069,120.948578,1.15407905e-08
C1U670,寒溪,2014-03-19,24.634,121.71691,6.018165e-08
C0N020,城西,2014-03-19,23.0568,120.0956,2.0431926e-08
C1Z110,三棧,2014-03-19,24.11557,121.60501,1.2622526e-07
C0R280,檳榔,2014-03-19,22.076078,120.836777,0.99938136
C2H9J0,中台,2014-03-19,23.9996,120.938739,5.808245e-09
C0F9L0,后里,2014-03-19,24.310436,120.729725,9.058713e-09
C0D540,橫山,2014-03-19,24.71116,121.11693,1.7425824e-08
C1D420,太閣南,2014-03-19,24.632808,121.160575,1.41011e-08
C1E770,公館,2014-03-19,24.526914,120.830806,1.7203658e-07
CAN130,水試所海水繁養殖中心,2014-03-19,23.120802,120.07968,2.1791111e-08
C1I430,翠華,2014-03-19,24.191961,121.224339,2.2727603e-08
C1M400,菜瓜坪,2014-03-19,23.251928,120.576103,3.2442953e-09
C0G730,二林,2014-03-19,23.903325,120.376081,1.642052e-08
72M360,南改義竹分場,2014-03-19,23.360694,120.279361,3.1592857e-09
V2K620,麥寮合作社,2014-03-19,23.753836,120.294783,4.7329557e-08
C0Z070,舞鶴,2014-03-19,23.46811,121.37407,8.5696705e-08
C0B040,大武崙,2014-03-19,25.166676,121.706993,1.324875e-06
C1Z030,紅葉,2014-03-19,23.493119,121.338806,9.7745016e-08
C1I050,丹大,2014-03-19,23.753747,121.141147,2.4599581e-08
C0I080,信義,2014-03-19,23.689694,120.851036,3.5666359e-09
C2M920,朴子農改,2014-03-19,23.469889,120.259383,7.31515e-09
C2A880,福隆,2014-03-19,25.017842,121.942083,6.075311e-08
C0Z160,鳳林,2014-03-19,23.746114,121.453411,1.4203817e-07
C0V210,復興,2014-03-19,23.222403,120.806089,9.608287e-09
C0H990,昆陽,2014-03-19,24.121322,121.273642,3.3005456e-08
C0R741,獅子,2014-03-19,22.202308,120.705236,0.0001639791
C0S710,鹿野,2014-03-19,22.917711,121.122994,2.7477016e-08
C0I530,小奇萊,2014-03-19,24.131764,121.295717,3.285766e-08
C2K630,荷苞,2014-03-19,23.657717,120.595144,5.39373e-09
C0Z080,富源,2014-03-19,23.587642,121.378225,1.0197992e-07
467441,高雄,2014-03-19,22.7304,120.3125,2.2436175e-09
C0SB10,美和,2014-03-19,22.682078,121.060236,1.6089923e-07
C2K620,馬光農場,2014-03-19,23.721453,120.378864,1.8734903e-09
C1I140,卡奈托灣,2014-03-19,23.754364,121.087872,1.18943095e-08
C0I520,玉山風口,2014-03-19,23.470489,120.955994,3.6987206e-08
C1G691,下水埔,2014-03-19,23.816114,120.5676,3.739307e-09
C0X110,臺南市南區,2014-03-19,22.961189,120.188378,3.727558e-09
C0V680,仁武,2014-03-19,22.701083,120.347722,2.0386097e-09
C2G840,北斗,2014-03-19,23.877586,120.514222,1.3819422e-08
C0R900,竹坑,2014-03-19,22.1385,120.7022,0.12427809
C0K250,崙背,2014-03-19,23.75555,120.318925,4.615035e-08
C0G860,社頭,2014-03-19,23.897647,120.5862,1.4910984e-08
C0X150,安定,2014-03-19,23.102614,120.227839,3.0514677e-09
C0R590,里港,2014-03-19,22.77919,120.49459,2.3735864e-09
C0E610,馬都安,2014-03-19,24.451272,120.930192,8.364783e-09
C0E550,明德,2014-03-19,24.583486,120.885411,1.1694861e-08
C0R150,三地門,2014-03-19,22.709889,120.639944,2.6328237e-09
C0G910,花壇,2014-03-19,24.032076,120.549461,1.2223333e-08
C1D400,鳥嘴山,2014-03-19,24.71909,121.28387,1.2926034e-08
C0K500,元長,2014-03-19,23.64981,120.315024,4.6536183e-08
C0F0B0,石岡,2014-03-19,24.276061,120.777644,2.6295264e-09
C2V250,甲仙,2014-03-19,23.080106,120.591758,2.190215e-09
C0SA20,金崙山,2014-03-19,22.567419,120.959667,1.4806858e-08
C0V350,溪埔,2014-03-19,22.738578,120.446797,1.5673463e-09
C0M660,溪口,2014-03-19,23.604131,120.403569,4.565812e-08
C1S880,壽卡,2014-03-19,22.238911,120.858903,8.1173006e-08
72D680,桃改新埔分場,2014-03-19,24.834444,121.066111,5.0634068e-08
