站號,站名,日期,lat,lon,BLBTSLS
C0R710,龍磐,2014-11-15,21.931672,120.838942,0.9985484
C1F9D1,白毛台,2014-11-15,24.158325,120.886933,4.466496e-09
C0G940,竹塘,2014-11-15,23.848253,120.386764,4.027758e-06
467590,恆春,2014-11-15,22.003897,120.746339,0.9991334
C1O850,環湖,2014-11-15,23.148617,120.418633,7.4305625e-08
C0U710,太平山,2014-11-15,24.505486,121.525656,2.3136645e-08
C0E820,獅潭,2014-11-15,24.539133,120.920042,0.99346995
C0V880,興達,2014-11-15,22.8778,120.2127,0.00022465573
C0S890,關山,2014-11-15,23.0395,121.175017,0.9998109
C0SB30,新蘭,2014-11-15,22.869214,121.223228,0.99913335
C2R970,屏科大,2014-11-15,22.648275,120.619247,1.3929721e-08
K2F750,種苗繁殖,2014-11-15,24.225972,120.800917,2.505439e-09
C1Z130,銅門,2014-11-15,23.965694,121.492842,3.668842e-05
C0AD40,土城,2014-11-15,24.973208,121.445169,0.99857175
CAN140,六官養殖協會,2014-11-15,23.22881,120.29962,0.0007381173
C0X180,山上,2014-11-15,23.0757,120.363253,5.100373e-09
C0F9Z0,雪山東峰,2014-11-15,24.388792,121.268675,1.3540193e-08
C1M480,獨立山,2014-11-15,23.537022,120.607797,2.4509976e-09
C0X220,學甲,2014-11-15,23.230367,120.182187,0.7759072
467650,日月潭,2014-11-15,23.881325,120.90805,1.6634554e-09
C0K600,箔子寮,2014-11-15,23.6197,120.14,0.99322957
C0G830,埤頭,2014-11-15,23.866003,120.452806,1.21140365e-05
C0S950,七塊厝,2014-11-15,22.954453,121.229922,2.212922e-06
467110,金門,2014-11-15,24.407306,118.289281,0.9958933
C0AH80,深坑,2014-11-15,25.002703,121.628328,0.99846566
467990,馬祖,2014-11-15,26.169269,119.923419,0.00037685395
C0A970,三貂角,2014-11-15,25.007606,122.002058,0.99850124
C2D730,寶山農場,2014-11-15,24.732444,120.976153,0.98500603
C0K430,褒忠,2014-11-15,23.690938,120.303634,0.95266277
467480,嘉義,2014-11-15,23.495925,120.432906,0.31589925
C2E540,後龍,2014-11-15,24.606489,120.783933,0.9997558
C0V400,阿公店,2014-11-15,22.804194,120.355528,8.083492e-09
C0R440,大漢山,2014-11-15,22.405264,120.753181,1.34470515e-08
C0K280,四湖,2014-11-15,23.630414,120.227125,0.99856734
C1F9B1,桐林,2014-11-15,24.066172,120.735194,8.251674e-08
C2H9U0,鳳鵬,2014-11-15,23.763919,120.788061,4.5433537e-09
C0K390,土庫,2014-11-15,23.679029,120.395574,8.365151e-07
C1I450,望鄉山,2014-11-15,23.594153,120.944286,1.5908181e-08
C0E910,海埔,2014-11-15,24.648767,120.772435,0.9986172
B2E890,畜試北區分所,2014-11-15,24.527806,120.770972,0.99967575
C0R750,四林格山,2014-11-15,22.076989,120.802439,0.4530007
C0F0C0,中坑,2014-11-15,24.248517,120.903319,2.996302e-09
C1I121,大鞍,2014-11-15,23.678381,120.760017,3.3465015e-09
72U480,花改蘭陽分場,2014-11-15,24.686306,121.716583,0.9987985
C0A770,科教館,2014-11-15,25.096356,121.516507,0.99850017
C0AJ60,六塊厝,2014-11-15,25.24,121.4481,0.994358
C0R620,墾雷,2014-11-15,21.900836,120.855269,0.9991079
467420,永康,2014-11-15,23.038386,120.2367,0.00038622026
467300,東吉島,2014-11-15,23.25695,119.667467,0.69602245
C0I410,名間,2014-11-15,23.837053,120.701447,9.545815e-09
A2C560,農工中心,2014-11-15,24.985917,121.239833,0.9867786
C0V740,旗山,2014-11-15,22.888614,120.483597,1.0479028e-08
C0Z061,玉里,2014-11-15,23.3215,121.339656,0.01734877
C0S840,南田,2014-11-15,22.279725,120.889208,0.43610352
C1I470,杉林溪,2014-11-15,23.639517,120.786444,4.7739337e-09
C1X040,東原,2014-11-15,23.291597,120.463822,4.0550177e-09
C0R660,枋寮,2014-11-15,22.367722,120.590647,2.9873197e-05
C1R120,上德文,2014-11-15,22.763272,120.704442,6.9777974e-07
C0K450,大埤,2014-11-15,23.646074,120.431537,1.1765655e-05
C0UA00,土場,2014-11-15,24.576533,121.495333,3.0377853e-07
467080,宜蘭,2014-11-15,24.763975,121.756528,0.9859496
C0N030,四草,2014-11-15,23.0235,120.1116,0.010119807
C0V650,彌陀,2014-11-15,22.783806,120.246361,8.5962165e-06
C0D660,新竹市東區,2014-11-15,24.798681,120.986942,0.9701618
82S580,茶改東部分場,2014-11-15,22.907694,121.130139,0.0009342463
C0SB40,興隆,2014-11-15,22.913661,121.257469,0.87604755
C0C710,大溪永福,2014-11-15,24.892936,121.324975,0.98932517
C0FA20,溫寮,2014-11-15,24.372177,120.583125,0.9997891
C0V640,湖內,2014-11-15,22.887139,120.2445,0.00016485405
C0R910,下寮,2014-11-15,22.3929,120.5548,5.160045e-07
C0Z020,明里,2014-11-15,23.208717,121.262342,0.000158846
C0M770,嘉義梅山,2014-11-15,23.585398,120.555587,2.5640907e-09
G2F820,農業試驗所,2014-11-15,24.031261,120.688133,0.99958545
C0C660,楊梅,2014-11-15,24.912375,121.143047,0.99237394
C1E511,新開,2014-11-15,24.347703,120.827019,1.3434713e-09
G2F820,農試所(霧峰),2014-11-15,24.031261,120.688133,0.99958545
C1I070,和社,2014-11-15,23.591131,120.888861,1.2984988e-09
C2F000,大肚,2014-11-15,24.15295,120.572117,1.3725163e-09
C1S850,豐南,2014-11-15,23.122139,121.262389,1.9064038e-06
C2A920,富貴角,2014-11-15,25.263783,121.565258,0.998635
CAH030,茶改場竹圍站,2014-11-15,23.860083,120.637528,2.4777993e-09
C0T960,光復,2014-11-15,23.660694,121.424964,0.009332434
C0F9M0,豐原,2014-11-15,24.254322,120.720692,0.5287676
C0R720,旭海,2014-11-15,22.205403,120.887614,0.66077954
C0V710,苓雅,2014-11-15,22.622742,120.330669,3.2913796e-08
C0C740,觀音工業區,2014-11-15,25.064764,121.114856,0.87074065
CAC040,拉拉山,2014-11-15,24.699317,121.427133,9.007834e-09
C0V790,萬山,2014-11-15,22.905944,120.688056,5.154907e-09
U2HA30,臺大和社,2014-11-15,23.590856,120.888864,1.2984988e-09
C0AJ90,澳底,2014-11-15,25.0552,121.9253,0.9987423
C0Z100,東華,2014-11-15,23.89525,121.549833,0.053781796
C0G970,三豐,2014-11-15,23.882,120.2895,0.998315
V2K610,大庄合作社,2014-11-15,23.8068,120.367939,0.108750485
C0V900,汕尾,2014-11-15,22.4782,120.4151,1.210286e-08
C1R630,龍泉,2014-11-15,22.66701,120.59091,4.351098e-08
C1AC50,關渡,2014-11-15,25.133486,121.469331,0.99898815
C0F9I0,神岡,2014-11-15,24.272481,120.658314,0.94953567
C0K460,斗南,2014-11-15,23.678734,120.478359,7.789317e-08
467410,臺南,2014-11-15,22.993239,120.204772,0.00023346128
C2O810,曾文,2014-11-15,23.219681,120.497328,1.6625904e-08
467280,後龍,2014-11-15,24.648563,120.831834,0.9984615
C1F9J1,清水林,2014-11-15,24.071242,120.820419,1.6466082e-09
C2A650,火燒寮,2014-11-15,25.002719,121.742892,0.99131566
466930,竹子湖,2014-11-15,25.162078,121.544547,0.004164879
C1I220,樟湖,2014-11-15,23.905333,120.846983,1.9934985e-09
C0I390,仁愛,2014-11-15,24.022122,121.132206,1.6465201e-09
C0Z300,東里,2014-11-15,23.26853,121.30547,0.009248834
C1V590,新發,2014-11-15,23.057019,120.646064,5.6700003e-08
C0K510,水林,2014-11-15,23.572924,120.24597,0.9930131
72S590,東改賓朗果園,2014-11-15,22.813889,121.071278,0.9996696
82A750,茶改北部分場,2014-11-15,24.955778,121.631222,4.6740602e-08
C1A750,石碇服務區,2014-11-15,25.00872,121.646242,0.99842304
C0X300,鹿寮,2014-11-15,23.386047,120.477331,1.9435413e-07
G2AI50,關渡,2014-11-15,25.11575,121.492,0.99841774
C0K590,雲林東勢,2014-11-15,23.674192,120.255721,0.95266277
C0A570,桶後,2014-11-15,24.848222,121.597992,0.011556505
C1S800,華源,2014-11-15,22.657883,121.02325,0.99952626
C0G720,溪州,2014-11-15,23.851589,120.499093,4.299781e-06
C1V160,達卡努瓦,2014-11-15,23.279811,120.705319,8.474384e-09
C2M410,馬頭山,2014-11-15,23.324361,120.582017,2.3382185e-09
C0V850,蚵仔寮,2014-11-15,22.7256,120.2527,3.2418839e-06
C0S740,池上,2014-11-15,23.119628,121.209469,2.4964853e-05
C1V390,尖山,2014-11-15,22.813153,120.367789,6.599832e-09
C0AH70,松山,2014-11-15,25.04871,121.55042,0.99849886
C0N010,鯤鯓國小,2014-11-15,23.1879,120.0889,0.9974497
C0R550,新埤,2014-11-15,22.467947,120.582894,4.1090058e-08
C0SA60,知本（水試所）,2014-11-15,22.702394,121.082761,0.9988164
C0T9I0,豐濱,2014-11-15,23.583897,121.514806,0.020560732
C0UB00,淡江大學蘭陽校園,2014-11-15,24.823239,121.730383,3.01888e-07
C0W240,九宮,2014-11-15,24.423753,118.240186,0.99825424
C0T9N0,富里,2014-11-15,23.171639,121.249378,0.00012191949
U2HA50,臺大竹山,2014-11-15,23.756972,120.681556,1.786744e-07
C0V840,鳳鼻頭,2014-11-15,22.5083,120.3591,3.706291e-08
C0X140,西港,2014-11-15,23.125608,120.203108,0.7275434
72D080,桃改五峰分場,2014-11-15,24.612194,121.157167,1.5598458e-09
C2H9P0,伊拿谷,2014-11-15,23.963211,121.088264,1.3258328e-09
C2H9F0,柑林,2014-11-15,24.018658,120.847072,1.39812e-08
C0TA20,加灣,2014-11-15,24.082025,121.608944,0.007507454
C0V530,阿蓮,2014-11-15,22.883208,120.327508,3.1895067e-07
C1O880,關山,2014-11-15,23.173397,120.594092,2.5355043e-09
C0E791,卓蘭,2014-11-15,24.3126,120.8244,1.3172575e-09
C1I030,武界,2014-11-15,23.913225,121.052483,1.5958621e-09
C0R520,崁頂,2014-11-15,22.514781,120.506914,3.0592204e-07
C0R341,牡丹,2014-11-15,22.130036,120.792639,0.99940115
C0R930,萬丹,2014-11-15,22.5885,120.4851,4.6141725e-08
C0S760,紅石,2014-11-15,23.069131,121.126219,1.363359e-08
C1M610,石磐龍,2014-11-15,23.496606,120.663506,3.2626886e-09
C0UA10,鴛鴦湖,2014-11-15,24.590269,121.412228,1.1035091e-08
V2C260,八德蔬果,2014-11-15,24.978508,121.281819,0.9961324
C0R800,丹路,2014-11-15,22.204481,120.750989,0.99954677
C0G920,永靖,2014-11-15,23.924703,120.547533,0.40917718
C2M950,太和,2014-11-15,23.538372,120.702961,3.8493173e-09
C1A630,下盆,2014-11-15,24.771003,121.538622,9.19046e-08
B2N890,畜產試驗所,2014-11-15,23.058972,120.336406,1.1312919e-06
C0UA30,白嶺,2014-11-15,24.527819,121.519031,2.0911148e-08
C1V580,溪南(特生中心),2014-11-15,23.084972,120.788475,1.00548885e-08
C1T970,大農,2014-11-15,23.615233,121.413331,0.00089355337
E2S960,林試太麻里2,2014-11-15,22.598014,120.989761,0.65049905
C0R650,竹田,2014-11-15,22.58486,120.54344,4.9231193e-08
C1H900,清流,2014-11-15,24.080775,120.962997,1.1154118e-09
C1C510,水尾,2014-11-15,24.940081,121.087161,0.9800624
C0F9X0,大雅(中科園區),2014-11-15,24.21528,120.62445,0.99950475
C0SB60,白守蓮,2014-11-15,23.126769,121.401914,0.99985605
C0O970,虎頭埤,2014-11-15,23.021375,120.347878,1.4928321e-07
C0C730,中大臨海站,2014-11-15,24.966126,121.008581,0.51307505
C0X250,新營,2014-11-15,23.310689,120.316681,0.64773536
C0V700,三民,2014-11-15,22.645017,120.311233,3.2913796e-08
C0U870,大礁溪,2014-11-15,24.791042,121.675047,7.712325e-08
C0E870,高鐵苗栗,2014-11-15,24.60725,120.826094,0.99974865
A2K570,古坑花卉中心,2014-11-15,23.63353,120.55239,1.0038295e-08
C0M860,新美,2014-11-15,23.338017,120.683169,3.2017557e-09
C1E701,八卦,2014-11-15,24.491756,120.927619,3.9302975e-07
C0I420,國姓,2014-11-15,24.037803,120.855072,4.4977337e-09
C2D720,關西工作站,2014-11-15,24.757275,121.184792,0.99278945
C0S960,香蘭,2014-11-15,22.587569,120.993375,0.650269
C0R260,春日,2014-11-15,22.370361,120.628306,0.71711427
72G600,臺中農改場,2014-11-15,24.003028,120.534389,0.9991937
C0Z210,瑞穗,2014-11-15,23.5239,121.39021,0.044079814
C0M820,達邦,2014-11-15,23.453994,120.749517,1.6750286e-09
C0V860,南寮,2014-11-15,22.7616,120.2339,1.0804981e-05
C0G740,大城,2014-11-15,23.852487,120.320935,0.99819225
C0R920,塭仔,2014-11-15,22.4169,120.5197,6.966388e-07
C0R470,高樹,2014-11-15,22.826389,120.600806,2.7354812e-08
C0R680,佳樂水,2014-11-15,21.993578,120.861633,0.99919146
C1O870,大棟山,2014-11-15,23.31157,120.52226,4.2679638e-09
C0D360,梅花,2014-11-15,24.678347,121.208558,1.4697554e-06
C0Z190,富世,2014-11-15,24.14743,121.6297,0.000446078
C0AI10,屈尺,2014-11-15,24.92184,121.54475,0.99846566
B2U990,畜試東區分所,2014-11-15,24.669039,121.832561,0.9983457
C0SB80,長濱漁港,2014-11-15,23.313644,121.459994,0.9187683
C0R240,來義,2014-11-15,22.527306,120.625111,0.61893356
C0V910,大樹,2014-11-15,22.684645,120.432803,1.4137591e-08
C1R610,西大武山,2014-11-15,22.617719,120.7322,2.2863604e-08
C0G900,線西,2014-11-15,24.143358,120.443536,0.99913734
C0M700,竹崎,2014-11-15,23.526178,120.555508,5.408183e-09
C2E880,三義,2014-11-15,24.405478,120.749819,1.2805514e-09
C0C720,竹圍,2014-11-15,25.112692,121.239824,0.99475944
C0F9P0,清水,2014-11-15,24.312297,120.562242,0.9996516
C0Z150,吉安光華,2014-11-15,23.930925,121.595153,0.15318738
C1D640,外坪(五指山),2014-11-15,24.644447,121.090961,1.2932118e-07
C0F9O0,潭子,2014-11-15,24.213106,120.703933,0.99247247
C2H9R0,卓社,2014-11-15,23.887894,121.000086,1.4951388e-09
72T250,花蓮農改場,2014-11-15,23.975222,121.563889,0.0038955945
C0E780,銅鑼,2014-11-15,24.489681,120.790853,0.9976692
C1T950,太安,2014-11-15,23.666719,121.370128,4.4606747e-08
C0E830,苑裡,2014-11-15,24.439714,120.653053,0.9997985
467270,田中,2014-11-15,23.873803,120.581286,0.007977817
C0SA10,檳榔四格山,2014-11-15,22.810031,121.109308,0.9994076
C1T830,布洛灣,2014-11-15,24.17184,121.57127,8.115099e-05
C0F970,大坑,2014-11-15,24.173142,120.722289,0.995036
C1U920,思源,2014-11-15,24.393125,121.347214,1.3412394e-08
C0A931,三和,2014-11-15,25.233153,121.595236,0.99874556
C0I010,廬山,2014-11-15,24.033311,121.181808,2.3821312e-09
C2M940,日野賀,2014-11-15,23.434056,120.727169,3.998178e-09
C0R860,鼻頭,2014-11-15,22.1043,120.8979,0.9984502
C0UB20,壯圍,2014-11-15,24.7359,121.8163,0.9983457
C0R790,九棚,2014-11-15,22.14195,120.889281,0.5787024
C0W110,東莒,2014-11-15,25.9652,119.98069,0.44321647
C1U930,粉鳥林,2014-11-15,24.497088,121.842479,0.0019449783
C1I211,蘆竹湳,2014-11-15,23.934019,120.811994,2.214448e-09
C0S830,長濱,2014-11-15,23.286817,121.411975,5.5448094e-05
C1F9F1,伯公龍,2014-11-15,24.272392,120.849047,1.4320066e-09
C0E810,西湖,2014-11-15,24.562947,120.7485,0.9997305
C1I440,新高口,2014-11-15,23.478744,120.878939,1.161592e-08
C0O840,王爺宮,2014-11-15,23.222064,120.40085,1.6625904e-08
C0T9G0,鳳林山,2014-11-15,23.735269,121.420131,4.40854e-06
C0X080,佳里,2014-11-15,23.173039,120.145086,0.8481471
C0FB70,大甲溪埔,2014-11-15,24.370625,120.620067,0.9997958
C0Z310,清水斷崖,2014-11-15,24.218294,121.689142,0.4519134
C0M680,太保,2014-11-15,23.455062,120.331455,0.97275835
C1S820,金峰,2014-11-15,22.590969,120.933236,0.97898215
C0AD10,八里,2014-11-15,25.150211,121.403947,0.99475944
C2K240,草嶺,2014-11-15,23.59555,120.693461,2.3069566e-09
C1SA70,都蘭,2014-11-15,22.87794,121.226881,0.87604755
C0K440,二崙,2014-11-15,23.772797,120.408944,2.2423644e-06
C1A760,坪林交控,2014-11-15,24.94284,121.713442,0.063298084
C0F9N0,大里,2014-11-15,24.092464,120.701378,0.9993759
C0SA90,達仁林場,2014-11-15,22.264347,120.823972,0.99828726
C1R290,石門山,2014-11-15,22.112611,120.756597,0.9700023
42HA10,萬大發電廠,2014-11-15,23.978875,121.139639,1.2779413e-08
C0R890,山海,2014-11-15,21.9878,120.7091,0.9992656
C0T9A0,月眉山,2014-11-15,23.809928,121.539828,4.008323e-06
C0AC70,信義,2014-11-15,25.037822,121.564597,0.99849886
C0K560,棋山,2014-11-15,23.68645,120.603417,3.8158374e-09
C2FB50,出雲,2014-11-15,24.206469,120.902794,1.54776e-09
C1Z240,中平林道,2014-11-15,23.42115,121.26763,1.3342373e-07
U2H480,溪頭,2014-11-15,23.670306,120.798194,2.030968e-09
C0M880,好美里,2014-11-15,23.3364,120.138,0.8481471
C0T9E0,大坑,2014-11-15,23.880628,121.581981,1.5692662e-05
C0K530,臺西,2014-11-15,23.701547,120.197559,0.9978209
C1E900,國一N128K,2014-11-15,24.560997,120.844186,0.9996918
C0AJ50,水湳洞,2014-11-15,25.123695,121.862238,0.9964054
C0AI20,白沙灣,2014-11-15,25.283128,121.519058,0.9934118
C0A860,大坪,2014-11-15,25.165914,121.632969,0.98594373
C1U850,觀音海岸,2014-11-15,24.38319,121.77856,2.7391863e-07
C2K610,草嶺石壁,2014-11-15,23.602469,120.707731,3.3237537e-09
C0U950,鶯子嶺,2014-11-15,24.89754,121.79244,4.6792877e-08
C0O900,善化,2014-11-15,23.112883,120.297219,3.226582e-06
C0K550,蔦松,2014-11-15,23.514319,120.229736,0.9967806
E2P980,林試六龜中心,2014-11-15,22.991703,120.645722,9.32787e-09
C0E590,通霄,2014-11-15,24.471892,120.704622,0.9996635
C1I310,西巒,2014-11-15,23.754486,120.883956,1.7902866e-09
C0A550,泰平,2014-11-15,24.971197,121.823711,0.0004985485
C0I360,水里,2014-11-15,23.812553,120.849792,3.0624878e-09
C0R830,高士,2014-11-15,22.121825,120.836781,0.9424988
C1I101,溪頭,2014-11-15,23.661789,120.807647,5.898744e-09
C0AJ20,野柳,2014-11-15,25.20703,121.690021,0.9964245
C0B060,暖暖,2014-11-15,25.0957,121.7403,0.99805796
C1H920,長豐,2014-11-15,24.102039,120.879897,1.615148e-09
C0V360,內門,2014-11-15,22.975481,120.466769,6.959068e-09
C0R850,林邊,2014-11-15,22.4634,120.5339,3.0643568e-07
C0E930,龍鳳,2014-11-15,24.700034,120.859125,0.99840397
C0U910,冬山,2014-11-15,24.63373,121.7937,0.9983457
C1E721,泰安,2014-11-15,24.489017,120.968036,1.5841257e-09
82H320,茶改中部分場,2014-11-15,23.875611,120.913583,1.3166974e-09
C0M750,布袋,2014-11-15,23.380878,120.167789,0.9979038
C1S860,利嘉,2014-11-15,22.809417,121.050528,7.973822e-08
72C440,桃園農改,2014-11-15,24.950944,121.030583,0.524549
E2S980,林試太麻里1,2014-11-15,22.598922,120.980044,0.7931895
C0X170,關廟,2014-11-15,22.963017,120.327797,7.787371e-08
C0V720,林園,2014-11-15,22.507747,120.394511,3.2808938e-08
C1I510,線浸林道,2014-11-15,23.761508,120.832956,2.13091e-09
C0D690,外湖,2014-11-15,24.917735,120.968711,0.51307505
C0C750,新興坑尾,2014-11-15,25.0061,121.0971,0.9740815
B2Q810,畜試南區分所,2014-11-15,21.945583,120.802167,0.99919146
C0S790,金崙,2014-11-15,22.538122,120.966875,0.99366915
C0AH90,福山植物園,2014-11-15,24.760717,121.58135,1.1218375e-06
C0I540,奇萊稜線,2014-11-15,24.109231,121.326456,1.7576204e-08
C0M850,表湖,2014-11-15,23.24186,120.64166,3.839038e-09
C0S770,大溪山,2014-11-15,22.478475,120.943325,0.99612176
C0AG80,中和,2014-11-15,24.991622,121.491792,0.99849886
C0T790,大禹嶺,2014-11-15,24.186117,121.316086,1.1584987e-08
C0T9B0,水源,2014-11-15,23.991861,121.537169,1.7471839e-06
C0R840,牡丹池山,2014-11-15,22.168389,120.841225,0.99798673
C1I131,桶頭,2014-11-15,23.641944,120.654117,9.74986e-10
CAL110,布袋國中,2014-11-15,23.35893,120.18026,0.97993845
467571,新竹,2014-11-15,24.827853,121.014219,0.959188
C0Z290,赤柯山,2014-11-15,23.36893,121.38293,2.3148678e-07
C0X280,將軍,2014-11-15,23.214999,120.13577,0.8481471
C0S690,太麻里,2014-11-15,22.60902,120.98533,0.23838235
C0U880,北關,2014-11-15,24.9072,121.8734,0.9984304
C1H860,瑞岩,2014-11-15,24.123772,121.18345,2.8570855e-09
C0G810,埔心,2014-11-15,23.947633,120.525456,0.71525073
C0U970,大福,2014-11-15,24.80064,121.81389,0.986919
C2H9N0,仁愛東眼,2014-11-15,24.026875,121.1205,1.6791326e-09
C1E670,南礦,2014-11-15,24.538278,121.002836,1.2457875e-09
C0M520,東後寮,2014-11-15,23.369908,120.248065,0.97839445
C1E461,松安,2014-11-15,24.397972,120.986022,1.4191293e-09
72G600,臺中農改,2014-11-15,24.003028,120.534389,0.9991937
C2N160,西拉雅風管處,2014-11-15,23.189481,120.335297,0.0003086098
C2M970,碧湖,2014-11-15,23.568632,120.624165,2.1129323e-09
C0A640,石碇,2014-11-15,24.993969,121.662917,0.9960848
E2S960,林試太麻里2,2014-11-15,22.598,120.99775,0.6340751
C0F9Y0,桃山,2014-11-15,24.432739,121.303808,1.4882939e-08
C1I020,萬大,2014-11-15,23.979817,121.132261,1.6584278e-09
C0U940,羅東,2014-11-15,24.68184,121.74934,0.9985355
C0M650,朴子,2014-11-15,23.43463,120.23902,0.99787956
C1I500,大尖山,2014-11-15,23.858572,120.994889,5.078144e-09
C0G820,田尾,2014-11-15,23.901669,120.509389,0.4068156
E2K600,四湖植物園,2014-11-15,23.676986,120.163433,0.99782366
C0S730,綠島,2014-11-15,22.6672,121.47533,0.9999158
12Q970,東港工作站,2014-11-15,22.479997,120.466058,5.160045e-07
C0E430,南庄,2014-11-15,24.601775,121.000214,0.9899969
C1TA00,太魯閣,2014-11-15,24.15773,121.6236,0.5314027
466920,臺北,2014-11-15,25.037658,121.514853,0.99849886
C0R600,舊泰武,2014-11-15,22.588194,120.664944,1.9873515e-07
C1I260,北坑,2014-11-15,23.9246,121.006903,1.6442857e-09
466910,鞍部,2014-11-15,25.182586,121.529731,1.8275061e-05
C1I230,九份二山,2014-11-15,23.961944,120.845,1.4409303e-09
C2A660,瑞芳,2014-11-15,25.113169,121.801147,0.9988713
C0R270,琉球嶼,2014-11-15,22.332244,120.362236,0.71711427
C1T990,高寮,2014-11-15,23.394239,121.356808,0.2606395
C0G620,芬園,2014-11-15,24.015678,120.6213,0.9932102
C1Z140,荖溪,2014-11-15,23.890575,121.45964,1.1585445e-07
C1I201,中心崙,2014-11-15,23.728722,120.712097,9.983299e-10
C1I400,凌霄,2014-11-15,24.018778,121.004456,1.6239889e-09
C1M640,十字,2014-11-15,23.492153,120.753683,3.5192051e-09
G2P820,農試鳳山分所,2014-11-15,22.646611,120.356083,2.423858e-08
C0Z270,蕃薯寮,2014-11-15,23.73835,121.540108,0.0032353837
C0F9Q0,外埔,2014-11-15,24.347817,120.705686,0.99599886
C0K580,高鐵雲林,2014-11-15,23.737456,120.417944,8.365151e-07
C2I090,鳳凰,2014-11-15,23.728081,120.787347,1.345138e-09
C0U990,員山,2014-11-15,24.74435,121.72247,0.9985355
C0V770,大社,2014-11-15,22.730306,120.346639,1.6640995e-06
C0X120,麻豆,2014-11-15,23.183289,120.248611,0.7759072
C0C670,龍潭,2014-11-15,24.870056,121.221389,0.7158324
C0D680,香山濕地,2014-11-15,24.783581,120.914988,0.6392487
C0S980,勝林山,2014-11-15,22.430439,120.8938,5.774398e-06
C0V730,大寮,2014-11-15,22.605614,120.395717,7.755226e-07
C0R570,麟洛,2014-11-15,22.65078,120.52719,6.3078818e-09
C2M930,石卓,2014-11-15,23.478744,120.702264,3.462247e-09
C0G9B0,和美,2014-11-15,24.105169,120.492131,0.99947816
CAG100,王功漁港,2014-11-15,23.96824,120.32586,0.99931544
C0X290,北門,2014-11-15,23.267772,120.125481,0.8475895
C2F930,大甲,2014-11-15,24.347667,120.640403,0.9996583
C0D650,湖口,2014-11-15,24.904794,121.043628,0.6204263
C0E420,竹南,2014-11-15,24.708978,120.888897,0.79387474
C0U780,五結,2014-11-15,24.68637,121.79794,0.9983457
C1I250,鯉潭,2014-11-15,23.961922,120.991131,1.615148e-09
C0R130,阿禮,2014-11-15,22.742908,120.743678,5.4066254e-09
C0X100,臺南市北區,2014-11-15,23.010394,120.194228,0.0008087897
C0S920,金峰嘉蘭,2014-11-15,22.594789,120.960825,0.8098766
C0V490,新興,2014-11-15,22.627422,120.298803,3.2808938e-08
C0F9K0,大安,2014-11-15,24.345061,120.588025,0.9996694
72N100,臺南農改,2014-11-15,23.0605,120.342194,1.1009716e-06
467290,古坑,2014-11-15,23.633639,120.551889,1.0038295e-08
C2E970,八甲,2014-11-15,24.535811,120.795983,0.9972744
C0V440,鳳山,2014-11-15,22.646653,120.356122,2.423858e-08
C1T940,大觀,2014-11-15,23.714206,121.373133,1.6113145e-05
72T250,花蓮農改,2014-11-15,23.975222,121.563889,0.0038955908
C0E740,造橋,2014-11-15,24.637056,120.864778,0.9981957
C0R100,尾寮山,2014-11-15,22.833111,120.683889,5.603694e-09
A2K630,臺大雲林校區,2014-11-15,23.730628,120.423903,8.3780446e-07
C0D580,寶山,2014-11-15,24.735006,121.025192,0.78153104
E2P990,林試扇平站,2014-11-15,22.9677,120.6857,6.134428e-08
C0AI30,三重,2014-11-15,25.057328,121.500629,0.99850017
C0AH00,汐止,2014-11-15,25.066881,121.658778,0.9964245
C1Z040,立山,2014-11-15,23.443356,121.327375,2.2559383e-05
C0W130,花嶼,2014-11-15,23.40007,119.32276,0.995705
C0A950,鼻頭角,2014-11-15,25.129036,121.923372,0.9987227
C0K470,林內,2014-11-15,23.748675,120.609642,2.8907321e-08
C2F990,摩天嶺,2014-11-15,24.322458,120.936819,2.8620324e-09
82C160,茶改場,2014-11-15,24.908472,121.185333,0.9949166
C0Z320,清水林道,2014-11-15,23.27125,121.188272,9.2283017e-07
C0R760,南仁湖,2014-11-15,22.084681,120.863353,0.96742165
C0M670,大林,2014-11-15,23.600616,120.45841,0.017644348
C0M800,茶山,2014-11-15,23.299075,120.664767,5.6368936e-09
C0A9C0,天母,2014-11-15,25.117494,121.537169,0.99854714
72K220,南改斗南分場,2014-11-15,23.634556,120.477333,1.860077e-07
72AI40,桃改樹林分場,2014-11-15,24.944503,121.386972,0.9986138
C0S910,蘭嶼燈塔,2014-11-15,22.081197,121.503117,0.9790745
C0B050,八斗子,2014-11-15,25.144754,121.79167,0.9953846
C0U900,內城,2014-11-15,24.71813,121.68766,0.9708718
C0X320,柳營,2014-11-15,23.253328,120.375253,7.9878555e-06
C0M790,新港,2014-11-15,23.553269,120.345728,0.5000637
C0F9T0,西屯,2014-11-15,24.179494,120.641275,0.9995863
C0SA30,都歷,2014-11-15,23.020333,121.323642,0.99991065
C0C620,蘆竹,2014-11-15,25.084275,121.265767,0.9957236
C0R730,大坪頂,2014-11-15,22.024633,120.69355,0.9977028
C0AJ40,石門,2014-11-15,25.273672,121.601198,0.9990074
C0E750,苗栗,2014-11-15,24.564569,120.824575,0.99970794
C0T870,鯉魚潭,2014-11-15,23.935639,121.508944,0.0005559569
C1V170,排雲,2014-11-15,23.463619,120.954147,2.3975344e-08
C2H950,中寮,2014-11-15,23.884447,120.766406,6.668569e-08
C0R350,貓鼻頭,2014-11-15,21.921774,120.7358,0.9991036
C0V660,岡山,2014-11-15,22.797078,120.294958,5.1635743e-07
C1H941,雙冬,2014-11-15,23.967378,120.802189,1.6185556e-09
C0AJ70,田寮,2014-11-15,25.2698,121.4886,0.99190795
C0AI00,五股,2014-11-15,25.07445,121.42728,0.9984301
C0Z280,德武,2014-11-15,23.47426,121.41071,0.02383966
C0R700,枋山,2014-11-15,22.246844,120.661086,0.9991391
C0C460,復興,2014-11-15,24.820208,121.352281,4.8665247e-06
E2H360,蓮華池,2014-11-15,23.918333,120.885278,1.5177571e-09
C0M640,中埔,2014-11-15,23.42538,120.5229,1.313773e-08
C0W140,金沙,2014-11-15,24.488292,118.408778,0.99271524
C2A540,四堵,2014-11-15,24.8926,121.745736,0.1037265
C0ACA0,新莊,2014-11-15,25.051478,121.446756,0.99622315
C0R220,潮州,2014-11-15,22.534361,120.54,1.2033931e-05
U2HA40,臺大內茅埔,2014-11-15,23.689722,120.851117,1.4762184e-09
467490,臺中,2014-11-15,24.145736,120.684075,0.99961066
C0U960,翠峰湖,2014-11-15,24.510856,121.608044,2.293843e-08
E2HA20,林試畢祿溪站,2014-11-15,24.226944,121.308522,4.474955e-09
C0V890,前鎮,2014-11-15,22.5718,120.3117,3.706291e-08
467620,蘭嶼,2014-11-15,22.036969,121.558339,0.9132433
C1F941,雪嶺,2014-11-15,24.280586,121.026642,7.776799e-09
C2H9E0,國姓南港,2014-11-15,23.911108,120.846556,2.039979e-09
C0AC80,文山,2014-11-15,25.00235,121.575728,0.99846566
C0F9R0,龍井,2014-11-15,24.184536,120.528972,0.9996344
C0M760,民雄,2014-11-15,23.551754,120.428457,0.13202767
C0UA40,西德山,2014-11-15,24.560647,121.752608,3.1202006e-08
C1T920,中興,2014-11-15,23.769503,121.498653,0.009373944
C0D550,雪霸,2014-11-15,24.526972,121.11605,4.202388e-09
C2F860,梨山,2014-11-15,24.247522,121.243669,4.6593094e-09
C0R320,車城,2014-11-15,22.0744,120.716247,0.9992656
C1S870,南美山,2014-11-15,23.15025,121.382333,0.9997267
C0B020,基隆嶼,2014-11-15,25.19141,121.78391,0.9964054
C1U501,牛鬥,2014-11-15,24.637836,121.573656,0.0021101064
C0M730,嘉義市東區,2014-11-15,23.457673,120.460531,0.0036060782
C0S700,知本,2014-11-15,22.684866,121.005642,0.8939817
C1N001,沙崙,2014-11-15,22.935472,120.309406,3.1895067e-07
C0V760,橋頭,2014-11-15,22.757806,120.30575,4.110327e-07
C0G960,福寶,2014-11-15,24.0443,120.3814,0.999368
C0X210,白河,2014-11-15,23.347466,120.414427,4.5791703e-06
C0S810,東河,2014-11-15,22.972672,121.303986,0.9479438
C2R170,屏東,2014-11-15,22.66027,120.49403,6.5956285e-09
C0R670,楓港,2014-11-15,22.190131,120.692156,0.9991391
C0FA50,霧峰,2014-11-15,24.0419,120.6995,0.99969643
C0UB10,蘇澳,2014-11-15,24.5969,121.8571,0.99928856
C0G950,防潮門,2014-11-15,24.1835,120.4871,0.99961126
C0M740,六腳,2014-11-15,23.492871,120.290625,0.97698444
C1R250,力里,2014-11-15,22.428117,120.629228,0.61893374
C0K330,虎尾,2014-11-15,23.719183,120.442036,6.444515e-07
C2FA00,烏石坑,2014-11-15,24.273503,120.947617,2.8735354e-09
C0V620,永安,2014-11-15,22.82315,120.236856,8.5962165e-06
C1I330,楓樹林,2014-11-15,23.986803,121.076117,1.4359479e-09
C0W200,湖西,2014-11-15,23.596314,119.67275,0.9972374
72Q010,高雄農改場,2014-11-15,22.709333,120.525889,5.870202e-09
C0SA40,瑞和,2014-11-15,22.974361,121.156697,0.99986994
C0C680,龜山,2014-11-15,25.02846,121.38656,0.0021541028
C2V260,月眉,2014-11-15,22.971003,120.539853,7.896961e-09
C0V450,鳳森,2014-11-15,22.545064,120.392592,1.9060316e-07
C0U720,南山,2014-11-15,24.43742,121.38167,3.9698058e-08
A2N290,臺南蘭花園區,2014-11-15,23.340258,120.379661,7.9878555e-06
C0R560,新園,2014-11-15,22.5434,120.461558,3.0643568e-07
C0U890,三星,2014-11-15,24.66812,121.65302,0.775476
C1V300,御油山,2014-11-15,23.001983,120.715364,1.00279225e-08
C0U600,礁溪,2014-11-15,24.817539,121.765608,0.98178345
C1T980,龍澗,2014-11-15,24.023289,121.411328,3.9516223e-08
C0D670,海天一線,2014-11-15,24.831986,120.914438,0.5537944
C0SA00,歷坵,2014-11-15,22.520969,120.89185,0.8275298
C0M710,東石,2014-11-15,23.458927,120.15385,0.9967806
C0M780,鹿草,2014-11-15,23.41134,120.30835,0.9965529
C0U520,雙連埤,2014-11-15,24.753033,121.641303,7.198584e-08
C0B010,七堵,2014-11-15,25.094819,121.71713,0.9970995
C0R480,長治,2014-11-15,22.693128,120.542622,1.8737305e-08
C1V830,國三S383K,2014-11-15,22.781967,120.426475,1.1970622e-08
12Q980,恆春工作站,2014-11-15,22.079678,120.714425,0.9992656
C1O940,東山服務區,2014-11-15,23.286016,120.398472,3.2704183e-06
C1U840,東澳嶺,2014-11-15,24.5378,121.8485,2.2420234e-07
C1D630,飛鳳山,2014-11-15,24.766464,121.119178,3.5195048e-05
C0S940,石寧山,2014-11-15,23.223772,121.406639,0.004109297
C0K410,北港,2014-11-15,23.573957,120.292802,0.6787271
C2M620,瑞里,2014-11-15,23.545133,120.675197,3.5640315e-09
C0SB70,小港漁港,2014-11-15,23.158558,121.400431,0.52105814
C2O950,安南,2014-11-15,23.076694,120.144861,0.12681305
C0F0E0,南湖圈谷,2014-11-15,24.363714,121.444667,3.660248e-08
467610,成功,2014-11-15,23.097486,121.373428,0.9998844
C0G890,伸港,2014-11-15,24.148933,120.484403,0.9994538
C2E540,龍溪,2014-11-15,24.606489,120.783933,0.9997558
C1V200,梅山,2014-11-15,23.268447,120.823556,1.1384275e-08
C0T9H0,加路蘭山,2014-11-15,23.682947,121.5274,8.8267274e-07
C2O930,玉井,2014-11-15,23.126042,120.46055,7.4305625e-08
C1F911,新伯公,2014-11-15,24.221361,120.841069,3.715058e-09
C0R490,九如,2014-11-15,22.7405,120.490503,6.300427e-09
C0X200,左鎮,2014-11-15,23.056758,120.408522,5.7114278e-09
C0SB50,叭嗡嗡,2014-11-15,23.047062,121.343223,0.9930946
C1F891,稍來,2014-11-15,24.265689,121.001142,4.870116e-09
72N240,七股研究中心,2014-11-15,23.081672,120.062894,0.87300354
C0C700,中壢,2014-11-15,24.977661,121.256375,0.996683
C0M690,水上,2014-11-15,23.419734,120.388909,0.9940662
C0V690,鼓山,2014-11-15,22.623325,120.275575,3.2808938e-08
C0O860,大內,2014-11-15,23.11885,120.36083,7.58909e-09
C0Z200,萬榮,2014-11-15,23.709219,121.420106,0.0005559567
C0T9D0,和中,2014-11-15,24.26676,121.74103,0.97718775
C1O921,楠西,2014-11-15,23.183511,120.484083,1.08078986e-07
C0AJ30,淡水觀海,2014-11-15,25.184591,121.408616,0.9943411
C0V810,左營,2014-11-15,22.67491,120.28491,2.2071429e-06
C0UA70,桃源谷,2014-11-15,24.962606,121.888875,1.2009133e-05
C0X130,官田,2014-11-15,23.193217,120.315422,0.00018986744
C1H000,翠峰,2014-11-15,24.109397,121.205211,8.207078e-09
C0UA90,石城,2014-11-15,24.980444,121.951214,0.998506
C1E681,南勢山,2014-11-15,24.421669,120.923831,2.4399105e-09
C0A9F0,內湖,2014-11-15,25.079422,121.57545,0.99849886
C0K291,宜梧,2014-11-15,23.536281,120.169329,0.99718606
C1K540,口湖,2014-11-15,23.585344,120.180517,0.9945153
C0R780,滿州,2014-11-15,22.024403,120.839892,0.9990408
C0V870,文安,2014-11-15,22.8025,120.2164,1.0903858e-05
C0U650,玉蘭,2014-11-15,24.675286,121.587061,3.819608e-07
C0R640,東港,2014-11-15,22.46247,120.44074,3.706291e-08
K2E360,苗栗農改,2014-11-15,24.495722,120.829111,0.99856156
C0AJ80,板橋,2014-11-15,25.0107,121.4489,0.99856806
C0S660,下馬,2014-11-15,23.150427,121.070312,3.291597e-07
C1H9B1,阿眉,2014-11-15,24.1263,120.994672,3.9998103e-09
C0UA20,多加屯,2014-11-15,24.368614,121.373189,1.0750492e-08
C0E730,頭份,2014-11-15,24.688247,120.912206,0.79387474
72V140,高改旗南分場,2014-11-15,22.857861,120.516667,2.3657998e-08
C0K480,莿桐,2014-11-15,23.761192,120.502372,5.0375957e-07
C0U980,坪林石牌,2014-11-15,24.86478,121.77396,1.7060177e-07
C0T900,西林,2014-11-15,23.8119,121.441458,0.0001622547
C1I150,青雲,2014-11-15,23.793361,120.949378,2.7211275e-09
467350,澎湖,2014-11-15,23.565503,119.563094,0.9982524
C0G800,埔鹽,2014-11-15,24.000394,120.431683,0.99937207
C0H960,草屯,2014-11-15,23.973672,120.68085,0.00019474555
C1V780,多納林道,2014-11-15,22.888028,120.737917,8.356299e-09
C0E920,通霄漁港,2014-11-15,24.498589,120.673876,0.999631
C0Z330,安通山,2014-11-15,23.290728,121.348528,3.910873e-06
C0AH10,永和,2014-11-15,25.01125,121.508111,0.99851865
C0AK10,太平里,2014-11-15,25.134937,121.364899,0.9962267
C2G640,鹿港,2014-11-15,24.0753,120.430481,0.999372
C1E890,國三N149K,2014-11-15,24.463414,120.680019,0.99967104
C1R110,口社,2014-11-15,22.770111,120.645222,2.1427507e-08
C1M870,國三N285K,2014-11-15,23.550319,120.505833,1.3783752e-08
467050,新屋,2014-11-15,25.006744,121.047486,0.5148796
C1E480,鳳美,2014-11-15,24.554803,121.034747,8.948731e-10
C0M530,奮起湖,2014-11-15,23.493903,120.699253,3.8954573e-09
C0C590,觀音,2014-11-15,25.027072,121.153317,0.99075186
C0T9M0,靜浦,2014-11-15,23.455167,121.495028,0.17205483
C2H9M0,發祥,2014-11-15,24.154094,121.164517,1.2482635e-09
C0AI40,石牌,2014-11-15,25.115597,121.513139,0.99856806
C1F871,上谷關,2014-11-15,24.203483,121.018644,2.8696412e-09
C2H9G0,百勝,2014-11-15,24.051142,120.909361,2.3200932e-09
C0G880,二水,2014-11-15,23.810742,120.6173,5.6686485e-08
C0R940,加祿堂,2014-11-15,22.3363,120.6217,0.71944654
C0W220,北竿,2014-11-15,26.220358,119.974881,7.581872e-07
C0O960,崎頂,2014-11-15,22.959547,120.369317,5.4673737e-09
C0S750,向陽,2014-11-15,23.248397,120.986133,1.3545307e-08
C0T9F0,水璉,2014-11-15,23.797131,121.542514,1.8677254e-05
C1M600,頭凍,2014-11-15,23.406364,120.603339,3.4773164e-09
467660,臺東,2014-11-15,22.752211,121.154586,0.99909157
C1D380,新埔,2014-11-15,24.84745,121.03834,0.98675483
C2G980,田頭村,2014-11-15,23.8263,120.444175,2.2423644e-06
C0V750,路竹,2014-11-15,22.854997,120.259439,9.02896e-08
C0N050,蚵寮,2014-11-15,23.301,120.1104,0.99744403
72M700,南改鹿草分場,2014-11-15,23.416869,120.283061,0.9971202
C1SA50,利嘉林道,2014-11-15,22.82325,121.009389,1.3564207e-08
467550,玉山,2014-11-15,23.487614,120.959522,2.644501e-08
C0A940,金山,2014-11-15,25.223628,121.643967,0.99501884
C1V340,大津,2014-11-15,22.888322,120.645986,1.0797201e-08
C0W180,七美,2014-11-15,23.219333,119.444892,0.99202585
C1F9C1,白冷,2014-11-15,24.182844,120.929889,4.956726e-09
K2E710,苗改生物防治研究中心,2014-11-15,24.422861,120.871833,0.09313105
C0N040,蘆竹溝,2014-11-15,23.2344,120.0961,0.99744403
C2W230,畜試所澎湖,2014-11-15,23.628342,119.513206,0.9975449
C0R880,後壁湖,2014-11-15,21.9457,120.7457,0.9992861
C1I280,埔中,2014-11-15,23.820778,120.642594,1.393503e-09
467790,墾丁雷達站,2014-11-15,21.948235,120.808028,0.999012
C0W190,望安,2014-11-15,23.380564,119.494075,0.9982217
466881,新北,2014-11-15,24.9593,121.52,0.9984892
C0Z170,卓溪,2014-11-15,23.3443,121.3029,0.005034592
C0F850,東勢,2014-11-15,24.246428,120.833047,5.2660716e-09
466900,淡水,2014-11-15,25.164889,121.448906,0.9947808
C0I370,魚池,2014-11-15,23.895703,120.94135,1.52402e-09
C0C630,大溪,2014-11-15,24.882853,121.265547,0.99720985
C0A520,山佳,2014-11-15,24.974944,121.402008,0.9986138
C0I110,竹山,2014-11-15,23.761225,120.688156,2.0943784e-07
82H840,茶改南部分場,2014-11-15,23.762528,120.7405,3.4077507e-09
C0G660,溪湖,2014-11-15,23.94835,120.479122,0.48720446
C1T800,洛韶,2014-11-15,24.204558,121.453956,5.587453e-08
C1T810,慈恩,2014-11-15,24.192044,121.388386,1.435316e-08
C1E451,象鼻,2014-11-15,24.368617,120.940228,2.4399105e-09
C0AC60,三峽,2014-11-15,24.939025,121.369728,0.9984966
C0I490,萬大林道,2014-11-15,23.928228,121.091411,4.459303e-09
C1I290,豐丘,2014-11-15,23.668178,120.887417,2.13091e-09
C1I320,奧萬大,2014-11-15,23.952956,121.178556,1.4411364e-09
C2M910,嘉義大學,2014-11-15,23.471325,120.485903,1.8897415e-08
C0U770,南澳,2014-11-15,24.44935,121.81022,0.8483317
C0A980,社子,2014-11-15,25.109508,121.469681,0.99841774
C0V800,六龜,2014-11-15,22.997889,120.633583,9.679675e-09
C1G9D0,國一S218K,2014-11-15,23.890641,120.493253,0.71525073
C0E570,白沙屯,2014-11-15,24.549447,120.696803,0.999631
C2F9A0,中竹林,2014-11-15,24.103556,120.751061,2.2065343e-09
C0FA40,臺中電廠,2014-11-15,24.2146,120.4907,0.9996344
C2G9A0,畜試所彰化,2014-11-15,23.86045,120.557964,0.007977817
C0H9C0,合歡山,2014-11-15,24.143442,121.272547,1.8833365e-08
C0X060,下營,2014-11-15,23.22695,120.256261,0.0018925663
G2M350,農試溪口農場,2014-11-15,23.58565,120.408111,0.36020678
C0U860,頭城,2014-11-15,24.85323,121.8308,0.9859496
C0R580,南州,2014-11-15,22.48591,120.50274,5.160045e-07
C0D430,峨眉,2014-11-15,24.6905,121.017189,0.98496187
C0G780,秀水,2014-11-15,24.03405,120.503869,0.9992355
72N100,臺南農改場,2014-11-15,23.0605,120.342194,1.1009727e-06
C0S900,蘭嶼高中,2014-11-15,22.04909,121.51214,0.9917738
467540,大武,2014-11-15,22.355675,120.903789,0.1302477
C1F9W0,德基,2014-11-15,24.254783,121.190261,3.5162262e-09
C1Z120,壽豐,2014-11-15,23.870853,121.508081,0.053781796
C0W160,烏坵,2014-11-15,24.9944,119.44956,0.9015906
C1I240,外大坪,2014-11-15,23.958697,120.917931,1.589507e-09
C1I550,國六W023K,2014-11-15,23.979067,120.867742,2.7364033e-09
C0R870,興海,2014-11-15,21.9752,120.8439,0.99919146
C0R140,瑪家,2014-11-15,22.682903,120.686639,5.7283735e-08
C0A530,坪林,2014-11-15,24.938183,121.70975,0.011131793
C0X260,後壁,2014-11-15,23.366358,120.362326,9.61298e-07
C0Z230,和平,2014-11-15,24.30717,121.77007,0.9771348
C0G770,福興,2014-11-15,24.041289,120.437669,0.999372
C0H9A0,神木村,2014-11-15,23.532742,120.843667,5.8511986e-09
C0I460,南投,2014-11-15,23.911469,120.687331,2.3033165e-06
C0I480,梅峰,2014-11-15,24.085272,121.173572,4.2948627e-09
C1V570,吉東,2014-11-15,22.85422,120.5454,2.0154676e-08
C2D740,屯原,2014-11-15,24.067969,121.209389,4.3048605e-09
C2A560,福山,2014-11-15,24.776203,121.502811,4.6740602e-08
C0AH30,五分山,2014-11-15,25.07125,121.780794,9.374305e-07
C0FA10,松柏,2014-11-15,24.429115,120.617482,0.9997891
72S200,東改班鳩分場,2014-11-15,22.829528,121.077694,0.9997004
72HA00,中改埔里分場,2014-11-15,23.903208,120.963364,1.5422965e-09
C2H9W0,大坪頂農水,2014-11-15,24.043122,120.932781,1.5966567e-09
C0C650,平鎮,2014-11-15,24.897503,121.214636,0.9949247
C0S930,延平,2014-11-15,22.902581,121.084058,0.21945766
C0UA60,樟樹山,2014-11-15,24.41393,121.78325,9.422805e-07
C1S670,摩天,2014-11-15,23.199503,121.027,2.1521755e-08
C0V630,茄萣,2014-11-15,22.906642,120.182608,0.00022465573
466940,基隆,2014-11-15,25.133314,121.740475,0.9959306
C0X050,東河,2014-11-15,23.296598,120.385608,7.9878555e-06
C0R770,保力,2014-11-15,22.071122,120.764111,0.99882525
G2L020,農試嘉義分所,2014-11-15,23.485028,120.473806,1.3228452e-08
C0X240,關子嶺,2014-11-15,23.331169,120.508025,1.9795927e-09
C0I380,集集,2014-11-15,23.828206,120.801467,3.3359353e-09
466990,花蓮,2014-11-15,23.975128,121.613275,0.00783864
C1V220,小關山,2014-11-15,23.154217,120.813603,1.0599579e-08
C1F9G1,慶福山,2014-11-15,24.180853,120.848378,6.3070638e-09
C0Z250,瑞穗林道,2014-11-15,23.49284,121.30688,1.0910902e-07
C0D590,新豐,2014-11-15,24.87068,120.97721,0.7515978
C0A870,五指山,2014-11-15,25.132153,121.608692,1.5723732e-05
C0UA50,西帽山,2014-11-15,24.555361,121.802628,1.4766661e-07
C0X160,仁德,2014-11-15,22.968258,120.257689,3.233172e-07
C1H971,六分寮,2014-11-15,23.92507,120.6378,1.4516639e-09
C0W120,西嶼,2014-11-15,23.5626,119.468436,0.9982564
C0G650,員林,2014-11-15,23.946503,120.585597,0.99162114
C0AD50,鶯歌,2014-11-15,24.951533,121.346294,0.9967254
C2H9Q0,北東眼山,2014-11-15,24.120939,121.189303,4.1841446e-09
C2H9T0,名間竹圍,2014-11-15,23.859914,120.637572,2.4777993e-09
C0S990,山豬窟,2014-11-15,22.318619,120.857372,0.9923769
72Q010,高雄農改,2014-11-15,22.709333,120.525889,5.870202e-09
C0X190,安平,2014-11-15,22.993161,120.152181,0.0008087897
C0K400,斗六,2014-11-15,23.720583,120.541127,4.1941743e-08
12J990,口湖工作站,2014-11-15,23.589978,120.180394,0.99322957
C0O830,北寮,2014-11-15,23.079561,120.495008,8.236513e-09
C1D410,白蘭,2014-11-15,24.579364,121.079947,2.3096731e-09
C0S970,加津林,2014-11-15,22.416211,120.926942,0.123981826
C0D700,關西,2014-11-15,24.7977,121.1732,0.9916184
C0M810,里佳,2014-11-15,23.389125,120.716647,3.8954573e-09
C0U750,龜山島,2014-11-15,24.841667,121.953133,0.2865627
C0R810,內獅,2014-11-15,22.305064,120.642986,0.71944654
C1M390,龍美,2014-11-15,23.406728,120.654417,3.9914196e-09
C2FB60,頭櫃山,2014-11-15,24.129842,120.858925,1.5861635e-09
C1H840,國三N238K,2014-11-15,23.841008,120.707711,3.266898e-09
CAQ030,崎峰國小,2014-11-15,22.42565,120.49521,5.160045e-07
C2E520,大湖,2014-11-15,24.414939,120.870872,0.7743647
467530,阿里山,2014-11-15,23.508208,120.813242,1.1050825e-08
C1E691,南湖,2014-11-15,24.40135,120.837533,1.8428161e-09
C0FA30,梧棲,2014-11-15,24.256003,120.523381,0.9996344
C1V231,高中,2014-11-15,23.134911,120.716711,4.887778e-09
C0F9V0,新社,2014-11-15,24.200172,120.815806,1.8300419e-09
C0H890,埔里,2014-11-15,23.972169,120.952425,1.0301386e-08
C0R690,墾丁,2014-11-15,21.966756,120.810269,0.99283653
C0F0D0,審馬陣,2014-11-15,24.381675,121.4203,1.8579083e-08
C0R820,白鷺,2014-11-15,22.454275,120.666219,0.62118495
U2H480,臺大溪頭,2014-11-15,23.670306,120.798194,2.030968e-09
C1V190,南天池,2014-11-15,23.27403,120.91176,1.4519803e-08
K2E360,苗栗農改場,2014-11-15,24.495722,120.829111,0.99856156
CAJ050,海口故事園區,2014-11-15,23.57543,120.14121,0.9945127
C2H9D0,三隻寮,2014-11-15,24.093078,120.861578,1.5722417e-09
C0O990,媽廟,2014-11-15,22.99175,120.293525,2.359361e-07
C0D480,打鐵坑,2014-11-15,24.849664,121.150789,0.09499092
C0Z220,和平林道,2014-11-15,24.343922,121.656317,8.8519835e-07
C0TA10,花蓮漁港,2014-11-15,23.995322,121.638331,0.012117133
72C440,桃園農改場,2014-11-15,24.950944,121.030583,0.524549
C1E711,馬拉邦山,2014-11-15,24.367306,120.901656,1.2682932e-09
C0SB20,富岡,2014-11-15,22.792467,121.192669,0.9991097
C0D560,竹東,2014-11-15,24.767147,121.057881,0.99234647
C0F9U0,南屯,2014-11-15,24.137006,120.637969,0.9993759
C0M720,番路,2014-11-15,23.464657,120.554156,5.1459574e-09
C0F0A0,雪山圈谷,2014-11-15,24.388594,121.236339,1.9542929e-08
C1A9N0,四十份,2014-11-15,24.934158,121.593283,8.0159596e-05
C0U760,東澳,2014-11-15,24.52196,121.83318,0.00095304224
C0X230,鹽水,2014-11-15,23.272621,120.247641,0.9045513
C2H9H0,苗改南投蜂場,2014-11-15,23.852589,120.693481,2.0943784e-07
C0R950,萬隆國小,2014-11-15,22.507667,120.587817,3.200976e-08
C0V370,古亭坑,2014-11-15,22.893178,120.401947,7.487381e-09
C1I340,新興橋,2014-11-15,23.563333,120.868728,1.3554915e-09
C0SA80,土坂,2014-11-15,22.453108,120.887572,0.9095608
C0R160,鹽埔,2014-11-15,22.739558,120.530778,1.9979874e-08
C0AC40,大屯山,2014-11-15,25.175675,121.522408,1.797773e-06
466850,五分山雷達站,2014-11-15,25.071182,121.781205,9.2825053e-07
C2H9L0,馬烈霸,2014-11-15,24.1512,121.201772,4.1044292e-09
C1AI50,國三N016K,2014-11-15,25.034164,121.619664,0.99845874
C1V600,藤枝,2014-11-15,23.071961,120.757042,9.842897e-09
C1E601,南勢,2014-11-15,24.572486,120.734842,0.99860895
C0Z180,新城,2014-11-15,24.03946,121.60454,0.0047908546
C0O980,新市,2014-11-15,23.061614,120.298197,3.226582e-06
C0K420,西螺,2014-11-15,23.800407,120.467394,7.630065e-07
C0Z050,佳心,2014-11-15,23.34567,121.21316,2.2934432e-07
C0AD30,蘆洲,2014-11-15,25.086594,121.472331,0.99850017
C0V610,梓官,2014-11-15,22.760558,120.267211,5.1635743e-07
K2F750,種苗改良場,2014-11-15,24.225972,120.800917,2.505439e-09
C0UA80,大溪漁港,2014-11-15,24.941801,121.902955,0.98177063
C1AI60,國一39K邊坡,2014-11-15,25.064361,121.383836,0.996148
C0W150,金寧,2014-11-15,24.457703,118.328989,0.9945487
C0R960,內埔,2014-11-15,22.608483,120.570714,4.1090058e-08
V2C250,八德合作社,2014-11-15,24.93775,121.266389,0.990835
C2H9S0,龍南,2014-11-15,23.953536,120.833183,2.0273183e-09
C0AH40,平等,2014-11-15,25.129142,121.577086,0.030381847
C0R540,佳冬,2014-11-15,22.419456,120.552375,5.1821627e-07
466950,彭佳嶼,2014-11-15,25.627975,122.079744,0.9889771
C0A890,雙溪,2014-11-15,25.036003,121.864242,0.9975464
C0C480,桃園,2014-11-15,24.992425,121.323172,0.995803
C0AH50,林口,2014-11-15,25.072181,121.38084,0.99778163
A2K360,水試臺西試驗場,2014-11-15,23.717231,120.190522,0.9979314
B2N890,畜試所,2014-11-15,23.058972,120.336406,1.1312919e-06
C2M960,外寮,2014-11-15,23.562643,120.665688,2.1841327e-09
C0F9S0,烏日,2014-11-15,24.107058,120.624103,0.99622476
C0C490,八德,2014-11-15,24.928708,121.283289,0.99640906
C0R190,赤山,2014-11-15,22.592333,120.614306,3.5468762e-08
C0T820,天祥,2014-11-15,24.179597,121.495639,5.6678496e-06
C1F9E1,龍安,2014-11-15,24.1605,120.831961,1.5977413e-09
C0V820,小林,2014-11-15,23.148408,120.63325,5.7032956e-09
C2G870,芳苑,2014-11-15,23.922303,120.320025,0.99831975
C0E850,大河,2014-11-15,24.618069,120.948578,0.9978027
C1U670,寒溪,2014-11-15,24.634,121.71691,0.9993037
C0N020,城西,2014-11-15,23.0568,120.0956,0.76274425
C1Z110,三棧,2014-11-15,24.11557,121.60501,3.7944185e-06
C0R280,檳榔,2014-11-15,22.076078,120.836777,0.9942338
C2H9J0,中台,2014-11-15,23.9996,120.938739,4.9606985e-09
C0F9L0,后里,2014-11-15,24.310436,120.729725,0.018429652
C0D540,橫山,2014-11-15,24.71116,121.11693,0.7809481
C1D420,太閣南,2014-11-15,24.632808,121.160575,6.1576126e-09
C1E770,公館,2014-11-15,24.526914,120.830806,0.99967575
CAN130,水試所海水繁養殖中心,2014-11-15,23.120802,120.07968,0.8730035
C1I430,翠華,2014-11-15,24.191961,121.224339,8.046052e-09
C1M400,菜瓜坪,2014-11-15,23.251928,120.576103,5.835317e-09
C0G730,二林,2014-11-15,23.903325,120.376081,0.9988464
72M360,南改義竹分場,2014-11-15,23.360694,120.279361,0.9184947
V2K620,麥寮合作社,2014-11-15,23.753836,120.294783,0.95658326
C0Z070,舞鶴,2014-11-15,23.46811,121.37407,0.0041545155
C0B040,大武崙,2014-11-15,25.166676,121.706993,0.9970995
C1Z030,紅葉,2014-11-15,23.493119,121.338806,0.017361673
C1I050,丹大,2014-11-15,23.753747,121.141147,1.1181622e-08
C0I080,信義,2014-11-15,23.689694,120.851036,1.4762184e-09
C2M920,朴子農改,2014-11-15,23.469889,120.259383,0.97698444
C2A880,福隆,2014-11-15,25.017842,121.942083,0.9987423
C0Z160,鳳林,2014-11-15,23.746114,121.453411,0.017362285
C0V210,復興,2014-11-15,23.222403,120.806089,1.4106238e-08
C0H990,昆陽,2014-11-15,24.121322,121.273642,1.4090695e-08
C0R741,獅子,2014-11-15,22.202308,120.705236,0.9993613
C0S710,鹿野,2014-11-15,22.917711,121.122994,3.4336724e-06
C0I530,小奇萊,2014-11-15,24.131764,121.295717,1.5102009e-08
C2K630,荷苞,2014-11-15,23.657717,120.595144,2.4267248e-09
C0Z080,富源,2014-11-15,23.587642,121.378225,0.0011163652
467441,高雄,2014-11-15,22.7304,120.3125,2.2071429e-06
C0SB10,美和,2014-11-15,22.682078,121.060236,0.9988164
C2K620,馬光農場,2014-11-15,23.721453,120.378864,1.4066603e-06
C1I140,卡奈托灣,2014-11-15,23.754364,121.087872,3.7942103e-09
C0I520,玉山風口,2014-11-15,23.470489,120.955994,2.721726e-08
C1G691,下水埔,2014-11-15,23.816114,120.5676,1.8158677e-07
C0X110,臺南市南區,2014-11-15,22.961189,120.188378,0.00038622026
C0V680,仁武,2014-11-15,22.701083,120.347722,1.6640995e-06
C2G840,北斗,2014-11-15,23.877586,120.514222,0.4091773
C0R900,竹坑,2014-11-15,22.1385,120.7022,0.99878013
C0K250,崙背,2014-11-15,23.75555,120.318925,0.9461996
C0G860,社頭,2014-11-15,23.897647,120.5862,0.99056107
C0X150,安定,2014-11-15,23.102614,120.227839,0.023714032
C0R590,里港,2014-11-15,22.77919,120.49459,2.6471e-08
C0E610,馬都安,2014-11-15,24.451272,120.930192,1.4894347e-07
C0E550,明德,2014-11-15,24.583486,120.885411,0.99805486
C0R150,三地門,2014-11-15,22.709889,120.639944,2.166157e-08
C0G910,花壇,2014-11-15,24.032076,120.549461,0.9991664
C1D400,鳥嘴山,2014-11-15,24.71909,121.28387,2.8103571e-08
C0K500,元長,2014-11-15,23.64981,120.315024,0.9973878
C0F0B0,石岡,2014-11-15,24.276061,120.777644,1.5698655e-09
C2V250,甲仙,2014-11-15,23.080106,120.591758,3.0556147e-09
C0SA20,金崙山,2014-11-15,22.567419,120.959667,2.1130224e-07
C0V350,溪埔,2014-11-15,22.738578,120.446797,1.4137591e-08
C0M660,溪口,2014-11-15,23.604131,120.403569,0.36020678
C1S880,壽卡,2014-11-15,22.238911,120.858903,0.9978636
72D680,桃改新埔分場,2014-11-15,24.834444,121.066111,0.9872297
