站號,站名,日期,lat,lon,BLBTSLS
C0R710,龍磐,2014-03-08,21.931672,120.838942,0.99989736
C1F9D1,白毛台,2014-03-08,24.158325,120.886933,1.9605044e-09
C0G940,竹塘,2014-03-08,23.848253,120.386764,1.1178845e-09
467590,恆春,2014-03-08,22.003897,120.746339,0.99983394
C1O850,環湖,2014-03-08,23.148617,120.418633,7.415972e-10
C0U710,太平山,2014-03-08,24.505486,121.525656,2.260034e-08
C0E820,獅潭,2014-03-08,24.539133,120.920042,5.6032454e-09
C0V880,興達,2014-03-08,22.8778,120.2127,5.996103e-10
C0S890,關山,2014-03-08,23.0395,121.175017,1.2872428e-07
C0SB30,新蘭,2014-03-08,22.869214,121.223228,6.309599e-07
C2R970,屏科大,2014-03-08,22.648275,120.619247,3.523018e-10
K2F750,種苗繁殖,2014-03-08,24.225972,120.800917,2.1903945e-09
C1Z130,銅門,2014-03-08,23.965694,121.492842,1.4564647e-07
C0AD40,土城,2014-03-08,24.973208,121.445169,2.1921927e-08
CAN140,六官養殖協會,2014-03-08,23.22881,120.29962,5.6301536e-10
C0X180,山上,2014-03-08,23.0757,120.363253,5.9241895e-10
C0F9Z0,雪山東峰,2014-03-08,24.388792,121.268675,2.6990056e-08
C1M480,獨立山,2014-03-08,23.537022,120.607797,2.5182452e-09
C0X220,學甲,2014-03-08,23.230367,120.182187,7.3291817e-10
467650,日月潭,2014-03-08,23.881325,120.90805,2.8424096e-09
C0K600,箔子寮,2014-03-08,23.6197,120.14,1.7260123e-09
C0G830,埤頭,2014-03-08,23.866003,120.452806,1.1603492e-09
C0S950,七塊厝,2014-03-08,22.954453,121.229922,2.8332797e-08
467110,金門,2014-03-08,24.407306,118.289281,8.902261e-09
C0AH80,深坑,2014-03-08,25.002703,121.628328,2.5171369e-08
467990,馬祖,2014-03-08,26.169269,119.923419,2.5579713e-08
C0A970,三貂角,2014-03-08,25.007606,122.002058,5.3803134e-08
C2D730,寶山農場,2014-03-08,24.732444,120.976153,6.468726e-08
C0K430,褒忠,2014-03-08,23.690938,120.303634,1.5413849e-09
467480,嘉義,2014-03-08,23.495925,120.432906,1.0801728e-09
C2E540,後龍,2014-03-08,24.606489,120.783933,1.4196985e-08
C0V400,阿公店,2014-03-08,22.804194,120.355528,2.9377362e-10
C0R440,大漢山,2014-03-08,22.405264,120.753181,1.1222324e-08
C0K280,四湖,2014-03-08,23.630414,120.227125,2.2700906e-09
C1F9B1,桐林,2014-03-08,24.066172,120.735194,1.1803565e-09
C2H9U0,鳳鵬,2014-03-08,23.763919,120.788061,1.4643029e-09
C0K390,土庫,2014-03-08,23.679029,120.395574,9.0335167e-10
C1I450,望鄉山,2014-03-08,23.594153,120.944286,1.7163616e-08
C0E910,海埔,2014-03-08,24.648767,120.772435,1.2863145e-08
B2E890,畜試北區分所,2014-03-08,24.527806,120.770972,1.37420395e-08
C0R750,四林格山,2014-03-08,22.076989,120.802439,0.99924445
C0F0C0,中坑,2014-03-08,24.248517,120.903319,3.6775516e-09
C1I121,大鞍,2014-03-08,23.678381,120.760017,4.040272e-09
72U480,花改蘭陽分場,2014-03-08,24.686306,121.716583,1.00114136e-07
C0A770,科教館,2014-03-08,25.096356,121.516507,2.2628807e-08
C0AJ60,六塊厝,2014-03-08,25.24,121.4481,4.464573e-08
C0R620,墾雷,2014-03-08,21.900836,120.855269,0.9998481
467420,永康,2014-03-08,23.038386,120.2367,6.218725e-10
467300,東吉島,2014-03-08,23.25695,119.667467,0.00010408155
C0I410,名間,2014-03-08,23.837053,120.701447,8.000291e-10
A2C560,農工中心,2014-03-08,24.985917,121.239833,3.7617284e-08
C0V740,旗山,2014-03-08,22.888614,120.483597,5.0872156e-10
C0Z061,玉里,2014-03-08,23.3215,121.339656,6.202017e-08
C0S840,南田,2014-03-08,22.279725,120.889208,0.99812114
C1I470,杉林溪,2014-03-08,23.639517,120.786444,5.3245497e-09
C1X040,東原,2014-03-08,23.291597,120.463822,1.0530978e-09
C0R660,枋寮,2014-03-08,22.367722,120.590647,1.0333103e-09
C1R120,上德文,2014-03-08,22.763272,120.704442,5.4129403e-09
C0K450,大埤,2014-03-08,23.646074,120.431537,8.0632845e-10
C0UA00,土場,2014-03-08,24.576533,121.495333,1.3733498e-08
467080,宜蘭,2014-03-08,24.763975,121.756528,3.2053688e-08
C0N030,四草,2014-03-08,23.0235,120.1116,7.845761e-10
C0V650,彌陀,2014-03-08,22.783806,120.246361,4.261657e-10
C0D660,新竹市東區,2014-03-08,24.798681,120.986942,9.977196e-08
82S580,茶改東部分場,2014-03-08,22.907694,121.130139,3.754861e-08
C0SB40,興隆,2014-03-08,22.913661,121.257469,5.2776578e-08
C0C710,大溪永福,2014-03-08,24.892936,121.324975,3.5785288e-08
C0FA20,溫寮,2014-03-08,24.372177,120.583125,7.3042608e-09
C0V640,湖內,2014-03-08,22.887139,120.2445,5.860746e-10
C0R910,下寮,2014-03-08,22.3929,120.5548,6.034055e-10
C0Z020,明里,2014-03-08,23.208717,121.262342,4.1938865e-08
C0M770,嘉義梅山,2014-03-08,23.585398,120.555587,8.478098e-10
G2F820,農業試驗所,2014-03-08,24.031261,120.688133,1.0792399e-09
C0C660,楊梅,2014-03-08,24.912375,121.143047,3.8639136e-08
C1E511,新開,2014-03-08,24.347703,120.827019,2.0314368e-09
G2F820,農試所(霧峰),2014-03-08,24.031261,120.688133,1.0792399e-09
C1I070,和社,2014-03-08,23.591131,120.888861,1.3874323e-09
C2F000,大肚,2014-03-08,24.15295,120.572117,3.11436e-09
C1S850,豐南,2014-03-08,23.122139,121.262389,2.6222704e-08
C2A920,富貴角,2014-03-08,25.263783,121.565258,7.338071e-08
CAH030,茶改場竹圍站,2014-03-08,23.860083,120.637528,1.056645e-09
C0T960,光復,2014-03-08,23.660694,121.424964,4.112817e-07
C0F9M0,豐原,2014-03-08,24.254322,120.720692,3.9356967e-09
C0R720,旭海,2014-03-08,22.205403,120.887614,0.98820436
C0V710,苓雅,2014-03-08,22.622742,120.330669,4.781732e-10
C0C740,觀音工業區,2014-03-08,25.064764,121.114856,1.2275545e-07
CAC040,拉拉山,2014-03-08,24.699317,121.427133,1.1941523e-08
C0V790,萬山,2014-03-08,22.905944,120.688056,8.638671e-10
U2HA30,臺大和社,2014-03-08,23.590856,120.888864,1.3874323e-09
C0AJ90,澳底,2014-03-08,25.0552,121.9253,4.5573202e-08
C0Z100,東華,2014-03-08,23.89525,121.549833,6.6139415e-07
C0G970,三豐,2014-03-08,23.882,120.2895,4.021451e-09
V2K610,大庄合作社,2014-03-08,23.8068,120.367939,1.5521857e-09
C0V900,汕尾,2014-03-08,22.4782,120.4151,3.2408862e-10
C1R630,龍泉,2014-03-08,22.66701,120.59091,4.9080295e-10
C1AC50,關渡,2014-03-08,25.133486,121.469331,3.4851535e-08
C0F9I0,神岡,2014-03-08,24.272481,120.658314,3.8958956e-09
C0K460,斗南,2014-03-08,23.678734,120.478359,8.607782e-10
467410,臺南,2014-03-08,22.993239,120.204772,6.1957567e-10
C2O810,曾文,2014-03-08,23.219681,120.497328,8.79324e-10
467280,後龍,2014-03-08,24.648563,120.831834,1.1939701e-08
C1F9J1,清水林,2014-03-08,24.071242,120.820419,1.9609907e-09
C2A650,火燒寮,2014-03-08,25.002719,121.742892,2.0824897e-08
466930,竹子湖,2014-03-08,25.162078,121.544547,1.7086595e-08
C1I220,樟湖,2014-03-08,23.905333,120.846983,2.4653821e-09
C0I390,仁愛,2014-03-08,24.022122,121.132206,3.834135e-09
C0Z300,東里,2014-03-08,23.26853,121.30547,5.9165615e-08
C1V590,新發,2014-03-08,23.057019,120.646064,3.5315642e-09
C0K510,水林,2014-03-08,23.572924,120.24597,1.720392e-09
72S590,東改賓朗果園,2014-03-08,22.813889,121.071278,2.0501318e-07
82A750,茶改北部分場,2014-03-08,24.955778,121.631222,6.678329e-09
C1A750,石碇服務區,2014-03-08,25.00872,121.646242,2.4418716e-08
C0X300,鹿寮,2014-03-08,23.386047,120.477331,7.314546e-10
G2AI50,關渡,2014-03-08,25.11575,121.492,2.2669544e-08
C0K590,雲林東勢,2014-03-08,23.674192,120.255721,1.5413849e-09
C0A570,桶後,2014-03-08,24.848222,121.597992,2.5235112e-08
C1S800,華源,2014-03-08,22.657883,121.02325,1.0556926e-06
C0G720,溪州,2014-03-08,23.851589,120.499093,1.1841449e-09
C1V160,達卡努瓦,2014-03-08,23.279811,120.705319,4.323193e-09
C2M410,馬頭山,2014-03-08,23.324361,120.582017,1.1355449e-09
C0V850,蚵仔寮,2014-03-08,22.7256,120.2527,8.9378827e-10
C0S740,池上,2014-03-08,23.119628,121.209469,3.4785785e-08
C1V390,尖山,2014-03-08,22.813153,120.367789,2.9235775e-10
C0AH70,松山,2014-03-08,25.04871,121.55042,2.7194375e-08
C0N010,鯤鯓國小,2014-03-08,23.1879,120.0889,1.0314416e-09
C0R550,新埤,2014-03-08,22.467947,120.582894,4.590467e-10
C0SA60,知本（水試所）,2014-03-08,22.702394,121.082761,7.878782e-06
C0T9I0,豐濱,2014-03-08,23.583897,121.514806,3.487844e-07
C0UB00,淡江大學蘭陽校園,2014-03-08,24.823239,121.730383,1.149606e-08
C0W240,九宮,2014-03-08,24.423753,118.240186,2.252099e-08
C0T9N0,富里,2014-03-08,23.171639,121.249378,2.887916e-08
U2HA50,臺大竹山,2014-03-08,23.756972,120.681556,9.316522e-10
C0V840,鳳鼻頭,2014-03-08,22.5083,120.3591,5.026241e-10
C0X140,西港,2014-03-08,23.125608,120.203108,7.413285e-10
72D080,桃改五峰分場,2014-03-08,24.612194,121.157167,6.436896e-09
C2H9P0,伊拿谷,2014-03-08,23.963211,121.088264,2.424458e-09
C2H9F0,柑林,2014-03-08,24.018658,120.847072,1.2937349e-09
C0TA20,加灣,2014-03-08,24.082025,121.608944,2.668e-07
C0V530,阿蓮,2014-03-08,22.883208,120.327508,4.1371787e-10
C1O880,關山,2014-03-08,23.173397,120.594092,1.1657175e-09
C0E791,卓蘭,2014-03-08,24.3126,120.8244,2.0545008e-09
C1I030,武界,2014-03-08,23.913225,121.052483,2.797195e-09
C0R520,崁頂,2014-03-08,22.514781,120.506914,5.984312e-10
C0R341,牡丹,2014-03-08,22.130036,120.792639,7.5711495e-07
C0R930,萬丹,2014-03-08,22.5885,120.4851,4.667784e-10
C0S760,紅石,2014-03-08,23.069131,121.126219,1.1602347e-08
C1M610,石磐龍,2014-03-08,23.496606,120.663506,3.307419e-09
C0UA10,鴛鴦湖,2014-03-08,24.590269,121.412228,1.3181454e-08
V2C260,八德蔬果,2014-03-08,24.978508,121.281819,3.2492515e-08
C0R800,丹路,2014-03-08,22.204481,120.750989,3.8011187e-06
C0G920,永靖,2014-03-08,23.924703,120.547533,1.3003204e-09
C2M950,太和,2014-03-08,23.538372,120.702961,4.4445705e-09
C1A630,下盆,2014-03-08,24.771003,121.538622,2.4179936e-08
B2N890,畜產試驗所,2014-03-08,23.058972,120.336406,4.5286172e-10
C0UA30,白嶺,2014-03-08,24.527819,121.519031,1.4492328e-08
C1V580,溪南(特生中心),2014-03-08,23.084972,120.788475,8.066258e-09
C1T970,大農,2014-03-08,23.615233,121.413331,3.0467416e-07
E2S960,林試太麻里2,2014-03-08,22.598014,120.989761,8.6442005e-06
C0R650,竹田,2014-03-08,22.58486,120.54344,4.668692e-10
C1H900,清流,2014-03-08,24.080775,120.962997,2.4828424e-09
C1C510,水尾,2014-03-08,24.940081,121.087161,5.0426372e-08
C0F9X0,大雅(中科園區),2014-03-08,24.21528,120.62445,2.7776088e-09
C0SB60,白守蓮,2014-03-08,23.126769,121.401914,2.06444e-06
C0O970,虎頭埤,2014-03-08,23.021375,120.347878,4.880528e-10
C0C730,中大臨海站,2014-03-08,24.966126,121.008581,9.873643e-08
C0X250,新營,2014-03-08,23.310689,120.316681,5.69121e-10
C0V700,三民,2014-03-08,22.645017,120.311233,4.781723e-10
C0U870,大礁溪,2014-03-08,24.791042,121.675047,8.180572e-09
C0E870,高鐵苗栗,2014-03-08,24.60725,120.826094,1.38201335e-08
A2K570,古坑花卉中心,2014-03-08,23.63353,120.55239,8.5179064e-10
C0M860,新美,2014-03-08,23.338017,120.683169,1.66818e-09
C1E701,八卦,2014-03-08,24.491756,120.927619,7.0105055e-09
C0I420,國姓,2014-03-08,24.037803,120.855072,1.1399828e-09
C2D720,關西工作站,2014-03-08,24.757275,121.184792,1.97719e-08
C0S960,香蘭,2014-03-08,22.587569,120.993375,8.6442005e-06
C0R260,春日,2014-03-08,22.370361,120.628306,4.0440473e-06
72G600,臺中農改場,2014-03-08,24.003028,120.534389,1.5431969e-09
C0Z210,瑞穗,2014-03-08,23.5239,121.39021,3.9347455e-07
C0M820,達邦,2014-03-08,23.453994,120.749517,2.4177342e-09
C0V860,南寮,2014-03-08,22.7616,120.2339,4.307626e-10
C0G740,大城,2014-03-08,23.852487,120.320935,3.912502e-09
C0R920,塭仔,2014-03-08,22.4169,120.5197,6.264965e-10
C0R470,高樹,2014-03-08,22.826389,120.600806,5.999089e-10
C0R680,佳樂水,2014-03-08,21.993578,120.861633,0.99982595
C1O870,大棟山,2014-03-08,23.31157,120.52226,4.174619e-09
C0D360,梅花,2014-03-08,24.678347,121.208558,7.3023805e-09
C0Z190,富世,2014-03-08,24.14743,121.6297,1.3475312e-07
C0AI10,屈尺,2014-03-08,24.92184,121.54475,2.5171369e-08
B2U990,畜試東區分所,2014-03-08,24.669039,121.832561,1.1920023e-07
C0SB80,長濱漁港,2014-03-08,23.313644,121.459994,9.724294e-08
C0R240,來義,2014-03-08,22.527306,120.625111,2.1813833e-06
C0V910,大樹,2014-03-08,22.684645,120.432803,3.2281464e-10
C1R610,西大武山,2014-03-08,22.617719,120.7322,1.1103074e-08
C0G900,線西,2014-03-08,24.143358,120.443536,3.2643008e-09
C0M700,竹崎,2014-03-08,23.526178,120.555508,8.9071134e-10
C2E880,三義,2014-03-08,24.405478,120.749819,2.7424225e-09
C0C720,竹圍,2014-03-08,25.112692,121.239824,4.3584905e-08
C0F9P0,清水,2014-03-08,24.312297,120.562242,5.1502878e-09
C0Z150,吉安光華,2014-03-08,23.930925,121.595153,7.5078617e-07
C1D640,外坪(五指山),2014-03-08,24.644447,121.090961,8.312774e-09
C0F9O0,潭子,2014-03-08,24.213106,120.703933,2.767197e-09
C2H9R0,卓社,2014-03-08,23.887894,121.000086,5.2713776e-09
72T250,花蓮農改場,2014-03-08,23.975222,121.563889,2.4795813e-07
C0E780,銅鑼,2014-03-08,24.489681,120.790853,7.347381e-09
C1T950,太安,2014-03-08,23.666719,121.370128,2.6476908e-08
C0E830,苑裡,2014-03-08,24.439714,120.653053,7.1012924e-09
467270,田中,2014-03-08,23.873803,120.581286,7.1497125e-10
C0SA10,檳榔四格山,2014-03-08,22.810031,121.109308,1.3715115e-07
C1T830,布洛灣,2014-03-08,24.17184,121.57127,9.029563e-08
C0F970,大坑,2014-03-08,24.173142,120.722289,2.2777065e-09
C1U920,思源,2014-03-08,24.393125,121.347214,1.7164401e-08
C0A931,三和,2014-03-08,25.233153,121.595236,2.263075e-08
C0I010,廬山,2014-03-08,24.033311,121.181808,6.575995e-09
C2M940,日野賀,2014-03-08,23.434056,120.727169,3.5848595e-09
C0R860,鼻頭,2014-03-08,22.1043,120.8979,0.9995554
C0UB20,壯圍,2014-03-08,24.7359,121.8163,1.1920023e-07
C0R790,九棚,2014-03-08,22.14195,120.889281,0.9969786
C0W110,東莒,2014-03-08,25.9652,119.98069,2.0796581e-07
C1U930,粉鳥林,2014-03-08,24.497088,121.842479,2.7196087e-08
C1I211,蘆竹湳,2014-03-08,23.934019,120.811994,1.2982412e-09
C0S830,長濱,2014-03-08,23.286817,121.411975,3.9494672e-08
C1F9F1,伯公龍,2014-03-08,24.272392,120.849047,2.6194948e-09
C0E810,西湖,2014-03-08,24.562947,120.7485,1.3153853e-08
C1I440,新高口,2014-03-08,23.478744,120.878939,1.1421728e-08
C0O840,王爺宮,2014-03-08,23.222064,120.40085,8.8011093e-10
C0T9G0,鳳林山,2014-03-08,23.735269,121.420131,1.3218924e-07
C0X080,佳里,2014-03-08,23.173039,120.145086,7.383017e-10
C0FB70,大甲溪埔,2014-03-08,24.370625,120.620067,7.0655704e-09
C0Z310,清水斷崖,2014-03-08,24.218294,121.689142,2.0466194e-07
C0M680,太保,2014-03-08,23.455062,120.331455,8.356039e-10
C1S820,金峰,2014-03-08,22.590969,120.933236,3.7673254e-07
C0AD10,八里,2014-03-08,25.150211,121.403947,4.3584905e-08
C2K240,草嶺,2014-03-08,23.59555,120.693461,3.207905e-09
C1SA70,都蘭,2014-03-08,22.87794,121.226881,5.2776578e-08
C0K440,二崙,2014-03-08,23.772797,120.408944,1.1327436e-09
C1A760,坪林交控,2014-03-08,24.94284,121.713442,1.07987255e-08
C0F9N0,大里,2014-03-08,24.092464,120.701378,1.6431256e-09
C0SA90,達仁林場,2014-03-08,22.264347,120.823972,9.036322e-07
C1R290,石門山,2014-03-08,22.112611,120.756597,0.9999011
42HA10,萬大發電廠,2014-03-08,23.978875,121.139639,5.681928e-09
C0R890,山海,2014-03-08,21.9878,120.7091,0.9997975
C0T9A0,月眉山,2014-03-08,23.809928,121.539828,1.3229959e-07
C0AC70,信義,2014-03-08,25.037822,121.564597,2.7194375e-08
C0K560,棋山,2014-03-08,23.68645,120.603417,8.3096935e-10
C2FB50,出雲,2014-03-08,24.206469,120.902794,3.4012637e-09
C1Z240,中平林道,2014-03-08,23.42115,121.26763,3.4148513e-08
U2H480,溪頭,2014-03-08,23.670306,120.798194,1.8870177e-09
C0M880,好美里,2014-03-08,23.3364,120.138,7.383017e-10
C0T9E0,大坑,2014-03-08,23.880628,121.581981,1.6601052e-07
C0K530,臺西,2014-03-08,23.701547,120.197559,2.381863e-09
C1E900,國一N128K,2014-03-08,24.560997,120.844186,1.2524996e-08
C0AJ50,水湳洞,2014-03-08,25.123695,121.862238,4.1294024e-07
C0AI20,白沙灣,2014-03-08,25.283128,121.519058,8.798248e-08
C0A860,大坪,2014-03-08,25.165914,121.632969,1.7121959e-08
C1U850,觀音海岸,2014-03-08,24.38319,121.77856,2.8416684e-08
C2K610,草嶺石壁,2014-03-08,23.602469,120.707731,3.4607746e-09
C0U950,鶯子嶺,2014-03-08,24.89754,121.79244,1.4063094e-08
C0O900,善化,2014-03-08,23.112883,120.297219,4.522661e-10
C0K550,蔦松,2014-03-08,23.514319,120.229736,1.284e-09
E2P980,林試六龜中心,2014-03-08,22.991703,120.645722,7.582633e-10
C0E590,通霄,2014-03-08,24.471892,120.704622,1.4635638e-08
C1I310,西巒,2014-03-08,23.754486,120.883956,2.3101268e-09
C0A550,泰平,2014-03-08,24.971197,121.823711,1.6150441e-08
C0I360,水里,2014-03-08,23.812553,120.849792,1.0061234e-09
C0R830,高士,2014-03-08,22.121825,120.836781,0.9998434
C1I101,溪頭,2014-03-08,23.661789,120.807647,4.808954e-09
C0AJ20,野柳,2014-03-08,25.20703,121.690021,4.1294024e-07
C0B060,暖暖,2014-03-08,25.0957,121.7403,2.4929494e-07
C1H920,長豐,2014-03-08,24.102039,120.879897,2.0102875e-09
C0V360,內門,2014-03-08,22.975481,120.466769,5.7608773e-10
C0R850,林邊,2014-03-08,22.4634,120.5339,5.984312e-10
C0E930,龍鳳,2014-03-08,24.700034,120.859125,1.254063e-08
C0U910,冬山,2014-03-08,24.63373,121.7937,1.1920023e-07
C1E721,泰安,2014-03-08,24.489017,120.968036,6.1546417e-09
82H320,茶改中部分場,2014-03-08,23.875611,120.913583,1.3936092e-09
C0M750,布袋,2014-03-08,23.380878,120.167789,1.1306347e-09
C1S860,利嘉,2014-03-08,22.809417,121.050528,1.55844e-08
72C440,桃園農改,2014-03-08,24.950944,121.030583,6.6839135e-08
E2S980,林試太麻里1,2014-03-08,22.598922,120.980044,1.7223847e-06
C0X170,關廟,2014-03-08,22.963017,120.327797,4.2769496e-10
C0V720,林園,2014-03-08,22.507747,120.394511,4.7628085e-10
C1I510,線浸林道,2014-03-08,23.761508,120.832956,1.8855713e-09
C0D690,外湖,2014-03-08,24.917735,120.968711,9.873643e-08
C0C750,新興坑尾,2014-03-08,25.0061,121.0971,8.874546e-08
B2Q810,畜試南區分所,2014-03-08,21.945583,120.802167,0.9998261
C0S790,金崙,2014-03-08,22.538122,120.966875,2.5205128e-07
C0AH90,福山植物園,2014-03-08,24.760717,121.58135,1.5240094e-08
C0I540,奇萊稜線,2014-03-08,24.109231,121.326456,2.9151554e-08
C0M850,表湖,2014-03-08,23.24186,120.64166,1.8847803e-09
C0S770,大溪山,2014-03-08,22.478475,120.943325,5.8838022e-08
C0AG80,中和,2014-03-08,24.991622,121.491792,2.7177263e-08
C0T790,大禹嶺,2014-03-08,24.186117,121.316086,2.218681e-08
C0T9B0,水源,2014-03-08,23.991861,121.537169,1.14625976e-07
C0R840,牡丹池山,2014-03-08,22.168389,120.841225,1.1871518e-06
C1I131,桶頭,2014-03-08,23.641944,120.654117,1.1059508e-09
CAL110,布袋國中,2014-03-08,23.35893,120.18026,8.236665e-10
467571,新竹,2014-03-08,24.827853,121.014219,1.0937051e-07
C0Z290,赤柯山,2014-03-08,23.36893,121.38293,3.672626e-08
C0X280,將軍,2014-03-08,23.214999,120.13577,7.383017e-10
C0S690,太麻里,2014-03-08,22.60902,120.98533,5.0426276e-08
C0U880,北關,2014-03-08,24.9072,121.8734,2.8363277e-07
C1H860,瑞岩,2014-03-08,24.123772,121.18345,8.855756e-09
C0G810,埔心,2014-03-08,23.947633,120.525456,1.2881209e-09
C0U970,大福,2014-03-08,24.80064,121.81389,3.2590084e-08
C2H9N0,仁愛東眼,2014-03-08,24.026875,121.1205,5.89438e-09
C1E670,南礦,2014-03-08,24.538278,121.002836,6.4016583e-09
C0M520,東後寮,2014-03-08,23.369908,120.248065,8.1340773e-10
C1E461,松安,2014-03-08,24.397972,120.986022,5.735838e-09
72G600,臺中農改,2014-03-08,24.003028,120.534389,1.5431969e-09
C2N160,西拉雅風管處,2014-03-08,23.189481,120.335297,5.611307e-10
C2M970,碧湖,2014-03-08,23.568632,120.624165,2.7549685e-09
C0A640,石碇,2014-03-08,24.993969,121.662917,2.209989e-08
E2S960,林試太麻里2,2014-03-08,22.598,120.99775,1.2196689e-05
C0F9Y0,桃山,2014-03-08,24.432739,121.303808,2.8667705e-08
C1I020,萬大,2014-03-08,23.979817,121.132261,3.86344e-09
C0U940,羅東,2014-03-08,24.68184,121.74934,1.09813655e-07
C0M650,朴子,2014-03-08,23.43463,120.23902,1.1130039e-09
C1I500,大尖山,2014-03-08,23.858572,120.994889,9.330592e-09
C0G820,田尾,2014-03-08,23.901669,120.509389,1.3003204e-09
E2K600,四湖植物園,2014-03-08,23.676986,120.163433,2.3798559e-09
C0S730,綠島,2014-03-08,22.6672,121.47533,3.7263334e-07
12Q970,東港工作站,2014-03-08,22.479997,120.466058,6.034055e-10
C0E430,南庄,2014-03-08,24.601775,121.000214,5.577069e-09
C1TA00,太魯閣,2014-03-08,24.15773,121.6236,2.1918986e-07
466920,臺北,2014-03-08,25.037658,121.514853,2.7194375e-08
C0R600,舊泰武,2014-03-08,22.588194,120.664944,3.4378336e-09
C1I260,北坑,2014-03-08,23.9246,121.006903,1.5840109e-09
466910,鞍部,2014-03-08,25.182586,121.529731,1.7742494e-08
C1I230,九份二山,2014-03-08,23.961944,120.845,2.3342481e-09
C2A660,瑞芳,2014-03-08,25.113169,121.801147,3.6900463e-08
C0R270,琉球嶼,2014-03-08,22.332244,120.362236,4.083831e-06
C1T990,高寮,2014-03-08,23.394239,121.356808,2.9912306e-07
C0G620,芬園,2014-03-08,24.015678,120.6213,9.248199e-10
C1Z140,荖溪,2014-03-08,23.890575,121.45964,2.9755844e-08
C1I201,中心崙,2014-03-08,23.728722,120.712097,1.6149047e-09
C1I400,凌霄,2014-03-08,24.018778,121.004456,5.725301e-09
C1M640,十字,2014-03-08,23.492153,120.753683,4.333364e-09
G2P820,農試鳳山分所,2014-03-08,22.646611,120.356083,4.517411e-10
C0Z270,蕃薯寮,2014-03-08,23.73835,121.540108,3.1408757e-07
C0F9Q0,外埔,2014-03-08,24.347817,120.705686,3.6601413e-09
C0K580,高鐵雲林,2014-03-08,23.737456,120.417944,9.027729e-10
C2I090,鳳凰,2014-03-08,23.728081,120.787347,1.508654e-09
C0U990,員山,2014-03-08,24.74435,121.72247,1.09813655e-07
C0V770,大社,2014-03-08,22.730306,120.346639,8.0120344e-10
C0X120,麻豆,2014-03-08,23.183289,120.248611,7.3291817e-10
C0C670,龍潭,2014-03-08,24.870056,121.221389,7.550699e-09
C0D680,香山濕地,2014-03-08,24.783581,120.914988,2.8236212e-07
C0S980,勝林山,2014-03-08,22.430439,120.8938,1.2245198e-08
C0V730,大寮,2014-03-08,22.605614,120.395717,6.245649e-10
C0R570,麟洛,2014-03-08,22.65078,120.52719,2.5461597e-10
C2M930,石卓,2014-03-08,23.478744,120.702264,4.245571e-09
C0G9B0,和美,2014-03-08,24.105169,120.492131,2.3795337e-09
CAG100,王功漁港,2014-03-08,23.96824,120.32586,2.7057514e-09
C0X290,北門,2014-03-08,23.267772,120.125481,7.383017e-10
C2F930,大甲,2014-03-08,24.347667,120.640403,4.7069633e-09
C0D650,湖口,2014-03-08,24.904794,121.043628,4.6803585e-08
C0E420,竹南,2014-03-08,24.708978,120.888897,2.2245737e-07
C0U780,五結,2014-03-08,24.68637,121.79794,1.1920023e-07
C1I250,鯉潭,2014-03-08,23.961922,120.991131,2.0102835e-09
C0R130,阿禮,2014-03-08,22.742908,120.743678,1.9737791e-09
C0X100,臺南市北區,2014-03-08,23.010394,120.194228,6.327122e-10
C0S920,金峰嘉蘭,2014-03-08,22.594789,120.960825,1.5765224e-06
C0V490,新興,2014-03-08,22.627422,120.298803,4.781732e-10
C0F9K0,大安,2014-03-08,24.345061,120.588025,5.0767497e-09
72N100,臺南農改,2014-03-08,23.0605,120.342194,4.5286172e-10
467290,古坑,2014-03-08,23.633639,120.551889,8.5179064e-10
C2E970,八甲,2014-03-08,24.535811,120.795983,7.129902e-09
C0V440,鳳山,2014-03-08,22.646653,120.356122,4.517411e-10
C1T940,大觀,2014-03-08,23.714206,121.373133,1.5457421e-07
72T250,花蓮農改,2014-03-08,23.975222,121.563889,2.4795813e-07
C0E740,造橋,2014-03-08,24.637056,120.864778,1.196843e-08
C0R100,尾寮山,2014-03-08,22.833111,120.683889,2.3371172e-09
A2K630,臺大雲林校區,2014-03-08,23.730628,120.423903,9.027729e-10
C0D580,寶山,2014-03-08,24.735006,121.025192,1.3199393e-08
E2P990,林試扇平站,2014-03-08,22.9677,120.6857,3.0867722e-09
C0AI30,三重,2014-03-08,25.057328,121.500629,2.2628807e-08
C0AH00,汐止,2014-03-08,25.066881,121.658778,4.1294024e-07
C1Z040,立山,2014-03-08,23.443356,121.327375,1.2739179e-07
C0W130,花嶼,2014-03-08,23.40007,119.32276,0.0039198752
C0A950,鼻頭角,2014-03-08,25.129036,121.923372,4.672064e-08
C0K470,林內,2014-03-08,23.748675,120.609642,8.8238516e-10
C2F990,摩天嶺,2014-03-08,24.322458,120.936819,3.823721e-09
82C160,茶改場,2014-03-08,24.908472,121.185333,1.8930857e-08
C0Z320,清水林道,2014-03-08,23.27125,121.188272,3.577034e-08
C0R760,南仁湖,2014-03-08,22.084681,120.863353,0.99989736
C0M670,大林,2014-03-08,23.600616,120.45841,1.2031022e-09
C0M800,茶山,2014-03-08,23.299075,120.664767,1.3807506e-09
C0A9C0,天母,2014-03-08,25.117494,121.537169,2.1893054e-08
72K220,南改斗南分場,2014-03-08,23.634556,120.477333,8.417385e-10
72AI40,桃改樹林分場,2014-03-08,24.944503,121.386972,2.1255202e-08
C0S910,蘭嶼燈塔,2014-03-08,22.081197,121.503117,0.99934334
C0B050,八斗子,2014-03-08,25.144754,121.79167,4.8484213e-07
C0U900,內城,2014-03-08,24.71813,121.68766,3.019355e-08
C0X320,柳營,2014-03-08,23.253328,120.375253,8.1334106e-10
C0M790,新港,2014-03-08,23.553269,120.345728,1.0186553e-09
C0F9T0,西屯,2014-03-08,24.179494,120.641275,2.7908318e-09
C0SA30,都歷,2014-03-08,23.020333,121.323642,5.8190426e-07
C0C620,蘆竹,2014-03-08,25.084275,121.265767,4.1470585e-08
C0R730,大坪頂,2014-03-08,22.024633,120.69355,0.9999187
C0AJ40,石門,2014-03-08,25.273672,121.601198,5.3428746e-08
C0E750,苗栗,2014-03-08,24.564569,120.824575,1.2669858e-08
C0T870,鯉魚潭,2014-03-08,23.935639,121.508944,3.779251e-07
C1V170,排雲,2014-03-08,23.463619,120.954147,2.6370062e-08
C2H950,中寮,2014-03-08,23.884447,120.766406,9.817918e-10
C0R350,貓鼻頭,2014-03-08,21.921774,120.7358,0.9998482
C0V660,岡山,2014-03-08,22.797078,120.294958,3.7446224e-10
C1H941,雙冬,2014-03-08,23.967378,120.802189,1.6092224e-09
C0AJ70,田寮,2014-03-08,25.2698,121.4886,9.194458e-08
C0AI00,五股,2014-03-08,25.07445,121.42728,5.1968957e-08
C0Z280,德武,2014-03-08,23.47426,121.41071,1.964676e-07
C0R700,枋山,2014-03-08,22.246844,120.661086,0.0014732113
C0C460,復興,2014-03-08,24.820208,121.352281,1.2318638e-08
E2H360,蓮華池,2014-03-08,23.918333,120.885278,1.7428508e-09
C0M640,中埔,2014-03-08,23.42538,120.5229,9.224838e-10
C0W140,金沙,2014-03-08,24.488292,118.408778,8.970748e-09
C2A540,四堵,2014-03-08,24.8926,121.745736,3.0063333e-08
C0ACA0,新莊,2014-03-08,25.051478,121.446756,5.3564865e-08
C0R220,潮州,2014-03-08,22.534361,120.54,9.918407e-10
U2HA40,臺大內茅埔,2014-03-08,23.689722,120.851117,1.2045602e-09
467490,臺中,2014-03-08,24.145736,120.684075,1.5571021e-09
C0U960,翠峰湖,2014-03-08,24.510856,121.608044,2.2070319e-08
E2HA20,林試畢祿溪站,2014-03-08,24.226944,121.308522,1.3913365e-08
C0V890,前鎮,2014-03-08,22.5718,120.3117,5.025905e-10
467620,蘭嶼,2014-03-08,22.036969,121.558339,0.984449
C1F941,雪嶺,2014-03-08,24.280586,121.026642,1.7139374e-08
C2H9E0,國姓南港,2014-03-08,23.911108,120.846556,2.596553e-09
C0AC80,文山,2014-03-08,25.00235,121.575728,2.5171369e-08
C0F9R0,龍井,2014-03-08,24.184536,120.528972,4.330563e-09
C0M760,民雄,2014-03-08,23.551754,120.428457,1.1592829e-09
C0UA40,西德山,2014-03-08,24.560647,121.752608,1.8308109e-08
C1T920,中興,2014-03-08,23.769503,121.498653,5.233527e-07
C0D550,雪霸,2014-03-08,24.526972,121.11605,1.10763585e-08
C2F860,梨山,2014-03-08,24.247522,121.243669,1.4238476e-08
C0R320,車城,2014-03-08,22.0744,120.716247,0.9997975
C1S870,南美山,2014-03-08,23.15025,121.382333,1.05041856e-07
C0B020,基隆嶼,2014-03-08,25.19141,121.78391,4.1294024e-07
C1U501,牛鬥,2014-03-08,24.637836,121.573656,2.4433904e-08
C0M730,嘉義市東區,2014-03-08,23.457673,120.460531,1.1851526e-09
C0S700,知本,2014-03-08,22.684866,121.005642,5.6187446e-08
C1N001,沙崙,2014-03-08,22.935472,120.309406,4.1371787e-10
C0V760,橋頭,2014-03-08,22.757806,120.30575,3.692211e-10
C0G960,福寶,2014-03-08,24.0443,120.3814,2.3795381e-09
C0X210,白河,2014-03-08,23.347466,120.414427,8.1456597e-10
C0S810,東河,2014-03-08,22.972672,121.303986,5.595249e-08
C2R170,屏東,2014-03-08,22.66027,120.49403,2.5700236e-10
C0R670,楓港,2014-03-08,22.190131,120.692156,0.0014732113
C0FA50,霧峰,2014-03-08,24.0419,120.6995,1.1568708e-09
C0UB10,蘇澳,2014-03-08,24.5969,121.8571,7.536601e-08
C0G950,防潮門,2014-03-08,24.1835,120.4871,4.3779176e-09
C0M740,六腳,2014-03-08,23.492871,120.290625,8.4773216e-10
C1R250,力里,2014-03-08,22.428117,120.629228,2.1813833e-06
C0K330,虎尾,2014-03-08,23.719183,120.442036,9.067991e-10
C2FA00,烏石坑,2014-03-08,24.273503,120.947617,3.7897117e-09
C0V620,永安,2014-03-08,22.82315,120.236856,4.261657e-10
C1I330,楓樹林,2014-03-08,23.986803,121.076117,5.0882467e-09
C0W200,湖西,2014-03-08,23.596314,119.67275,0.0010552197
72Q010,高雄農改場,2014-03-08,22.709333,120.525889,2.5469224e-10
C0SA40,瑞和,2014-03-08,22.974361,121.156697,1.6831889e-07
C0C680,龜山,2014-03-08,25.02846,121.38656,5.311465e-09
C2V260,月眉,2014-03-08,22.971003,120.539853,6.020294e-10
C0V450,鳳森,2014-03-08,22.545064,120.392592,5.4284777e-10
C0U720,南山,2014-03-08,24.43742,121.38167,1.8519115e-08
A2N290,臺南蘭花園區,2014-03-08,23.340258,120.379661,8.136576e-10
C0R560,新園,2014-03-08,22.5434,120.461558,5.984312e-10
C0U890,三星,2014-03-08,24.66812,121.65302,2.7514199e-08
C1V300,御油山,2014-03-08,23.001983,120.715364,7.875827e-09
C0U600,礁溪,2014-03-08,24.817539,121.765608,3.153857e-08
C1T980,龍澗,2014-03-08,24.023289,121.411328,2.437423e-08
C0D670,海天一線,2014-03-08,24.831986,120.914438,2.9949356e-07
C0SA00,歷坵,2014-03-08,22.520969,120.89185,4.2568033e-08
C0M710,東石,2014-03-08,23.458927,120.15385,1.284e-09
C0M780,鹿草,2014-03-08,23.41134,120.30835,8.090845e-10
C0U520,雙連埤,2014-03-08,24.753033,121.641303,8.242186e-09
C0B010,七堵,2014-03-08,25.094819,121.71713,3.5634054e-07
C0R480,長治,2014-03-08,22.693128,120.542622,4.0432915e-10
C1V830,國三S383K,2014-03-08,22.781967,120.426475,3.9527112e-10
12Q980,恆春工作站,2014-03-08,22.079678,120.714425,0.9997975
C1O940,東山服務區,2014-03-08,23.286016,120.398472,8.1370877e-10
C1U840,東澳嶺,2014-03-08,24.5378,121.8485,2.5722134e-08
C1D630,飛鳳山,2014-03-08,24.766464,121.119178,9.446811e-09
C0S940,石寧山,2014-03-08,23.223772,121.406639,5.274337e-08
C0K410,北港,2014-03-08,23.573957,120.292802,1.0223886e-09
C2M620,瑞里,2014-03-08,23.545133,120.675197,3.9380317e-09
C0SB70,小港漁港,2014-03-08,23.158558,121.400431,7.6895574e-08
C2O950,安南,2014-03-08,23.076694,120.144861,1.1526837e-09
C0F0E0,南湖圈谷,2014-03-08,24.363714,121.444667,4.2603773e-08
467610,成功,2014-03-08,23.097486,121.373428,1.3340456e-06
C0G890,伸港,2014-03-08,24.148933,120.484403,3.2263505e-09
C2E540,龍溪,2014-03-08,24.606489,120.783933,1.4196985e-08
C1V200,梅山,2014-03-08,23.268447,120.823556,3.6716994e-09
C0T9H0,加路蘭山,2014-03-08,23.682947,121.5274,9.554597e-08
C2O930,玉井,2014-03-08,23.126042,120.46055,7.415972e-10
C1F911,新伯公,2014-03-08,24.221361,120.841069,2.0143367e-09
C0R490,九如,2014-03-08,22.7405,120.490503,2.5477337e-10
C0X200,左鎮,2014-03-08,23.056758,120.408522,5.896514e-10
C0SB50,叭嗡嗡,2014-03-08,23.047062,121.343223,6.876749e-08
C1F891,稍來,2014-03-08,24.265689,121.001142,1.2511363e-08
72N240,七股研究中心,2014-03-08,23.081672,120.062894,1.4524227e-09
C0C700,中壢,2014-03-08,24.977661,121.256375,3.0439534e-08
C0M690,水上,2014-03-08,23.419734,120.388909,1.0721594e-09
C0V690,鼓山,2014-03-08,22.623325,120.275575,4.7628085e-10
C0O860,大內,2014-03-08,23.11885,120.36083,5.450722e-10
C0Z200,萬榮,2014-03-08,23.709219,121.420106,3.779251e-07
C0T9D0,和中,2014-03-08,24.26676,121.74103,3.4088163e-07
C1O921,楠西,2014-03-08,23.183511,120.484083,8.6697033e-10
C0AJ30,淡水觀海,2014-03-08,25.184591,121.408616,4.4605812e-08
C0V810,左營,2014-03-08,22.67491,120.28491,8.274172e-10
C0UA70,桃源谷,2014-03-08,24.962606,121.888875,1.555678e-08
C0X130,官田,2014-03-08,23.193217,120.315422,5.6353e-10
C1H000,翠峰,2014-03-08,24.109397,121.205211,1.6792328e-08
C0UA90,石城,2014-03-08,24.980444,121.951214,6.779762e-08
C1E681,南勢山,2014-03-08,24.421669,120.923831,3.977254e-09
C0A9F0,內湖,2014-03-08,25.079422,121.57545,2.7194375e-08
C0K291,宜梧,2014-03-08,23.536281,120.169329,1.2879982e-09
C1K540,口湖,2014-03-08,23.585344,120.180517,1.7364932e-09
C0R780,滿州,2014-03-08,22.024403,120.839892,0.9998426
C0V870,文安,2014-03-08,22.8025,120.2164,4.3055476e-10
C0U650,玉蘭,2014-03-08,24.675286,121.587061,3.563469e-08
C0R640,東港,2014-03-08,22.46247,120.44074,5.026241e-10
K2E360,苗栗農改,2014-03-08,24.495722,120.829111,7.702266e-09
C0AJ80,板橋,2014-03-08,25.0107,121.4489,2.1944517e-08
C0S660,下馬,2014-03-08,23.150427,121.070312,3.4923666e-08
C1H9B1,阿眉,2014-03-08,24.1263,120.994672,8.249373e-09
C0UA20,多加屯,2014-03-08,24.368614,121.373189,1.9985363e-08
C0E730,頭份,2014-03-08,24.688247,120.912206,2.2245737e-07
72V140,高改旗南分場,2014-03-08,22.857861,120.516667,6.7056016e-10
C0K480,莿桐,2014-03-08,23.761192,120.502372,9.2220237e-10
C0U980,坪林石牌,2014-03-08,24.86478,121.77396,1.8774438e-08
C0T900,西林,2014-03-08,23.8119,121.441458,3.166784e-07
C1I150,青雲,2014-03-08,23.793361,120.949378,1.7045214e-09
467350,澎湖,2014-03-08,23.565503,119.563094,0.0024269037
C0G800,埔鹽,2014-03-08,24.000394,120.431683,2.3919289e-09
C0H960,草屯,2014-03-08,23.973672,120.68085,9.0631835e-10
C1V780,多納林道,2014-03-08,22.888028,120.737917,3.6919945e-09
C0E920,通霄漁港,2014-03-08,24.498589,120.673876,1.6596248e-08
C0Z330,安通山,2014-03-08,23.290728,121.348528,4.0591054e-08
C0AH10,永和,2014-03-08,25.01125,121.508111,2.8018846e-08
C0AK10,太平里,2014-03-08,25.134937,121.364899,5.3564865e-08
C2G640,鹿港,2014-03-08,24.0753,120.430481,2.3919289e-09
C1E890,國三N149K,2014-03-08,24.463414,120.680019,1.4161448e-08
C1R110,口社,2014-03-08,22.770111,120.645222,6.0031524e-10
C1M870,國三N285K,2014-03-08,23.550319,120.505833,9.157625e-10
467050,新屋,2014-03-08,25.006744,121.047486,8.339059e-08
C1E480,鳳美,2014-03-08,24.554803,121.034747,3.4694525e-09
C0M530,奮起湖,2014-03-08,23.493903,120.699253,4.4956754e-09
C0C590,觀音,2014-03-08,25.027072,121.153317,2.3361867e-08
C0T9M0,靜浦,2014-03-08,23.455167,121.495028,4.945288e-07
C2H9M0,發祥,2014-03-08,24.154094,121.164517,5.1053757e-09
C0AI40,石牌,2014-03-08,25.115597,121.513139,2.1944517e-08
C1F871,上谷關,2014-03-08,24.203483,121.018644,3.7897117e-09
C2H9G0,百勝,2014-03-08,24.051142,120.909361,2.2057896e-09
C0G880,二水,2014-03-08,23.810742,120.6173,8.0998164e-10
C0R940,加祿堂,2014-03-08,22.3363,120.6217,0.00015768356
C0W220,北竿,2014-03-08,26.220358,119.974881,1.5653873e-08
C0O960,崎頂,2014-03-08,22.959547,120.369317,5.569923e-10
C0S750,向陽,2014-03-08,23.248397,120.986133,1.20357555e-08
C0T9F0,水璉,2014-03-08,23.797131,121.542514,2.2740335e-07
C1M600,頭凍,2014-03-08,23.406364,120.603339,2.9243092e-09
467660,臺東,2014-03-08,22.752211,121.154586,1.0373243e-06
C1D380,新埔,2014-03-08,24.84745,121.03834,7.331873e-08
C2G980,田頭村,2014-03-08,23.8263,120.444175,1.13358e-09
C0V750,路竹,2014-03-08,22.854997,120.259439,3.137887e-10
C0N050,蚵寮,2014-03-08,23.301,120.1104,1.0314416e-09
72M700,南改鹿草分場,2014-03-08,23.416869,120.283061,8.1342794e-10
C1SA50,利嘉林道,2014-03-08,22.82325,121.009389,1.00370885e-08
467550,玉山,2014-03-08,23.487614,120.959522,2.9146884e-08
C0A940,金山,2014-03-08,25.223628,121.643967,8.187615e-08
C1V340,大津,2014-03-08,22.888322,120.645986,5.424927e-10
C0W180,七美,2014-03-08,23.219333,119.444892,0.00025287486
C1F9C1,白冷,2014-03-08,24.182844,120.929889,1.9179296e-09
K2E710,苗改生物防治研究中心,2014-03-08,24.422861,120.871833,4.01153e-09
C0N040,蘆竹溝,2014-03-08,23.2344,120.0961,1.0314416e-09
C2W230,畜試所澎湖,2014-03-08,23.628342,119.513206,9.319978e-05
C0R880,後壁湖,2014-03-08,21.9457,120.7457,0.9997736
C1I280,埔中,2014-03-08,23.820778,120.642594,1.124782e-09
467790,墾丁雷達站,2014-03-08,21.948235,120.808028,0.99985576
C0W190,望安,2014-03-08,23.380564,119.494075,0.00047000154
466881,新北,2014-03-08,24.9593,121.52,2.6213351e-08
C0Z170,卓溪,2014-03-08,23.3443,121.3029,5.665968e-08
C0F850,東勢,2014-03-08,24.246428,120.833047,1.927255e-09
466900,淡水,2014-03-08,25.164889,121.448906,4.3584905e-08
C0I370,魚池,2014-03-08,23.895703,120.94135,1.7056759e-09
C0C630,大溪,2014-03-08,24.882853,121.265547,2.2901402e-08
C0A520,山佳,2014-03-08,24.974944,121.402008,2.1279135e-08
C0I110,竹山,2014-03-08,23.761225,120.688156,9.198115e-10
82H840,茶改南部分場,2014-03-08,23.762528,120.7405,1.5806608e-09
C0G660,溪湖,2014-03-08,23.94835,120.479122,1.2873056e-09
C1T800,洛韶,2014-03-08,24.204558,121.453956,2.9705092e-08
C1T810,慈恩,2014-03-08,24.192044,121.388386,1.7657856e-08
C1E451,象鼻,2014-03-08,24.368617,120.940228,3.977254e-09
C0AC60,三峽,2014-03-08,24.939025,121.369728,2.6003605e-08
C0I490,萬大林道,2014-03-08,23.928228,121.091411,9.188073e-09
C1I290,豐丘,2014-03-08,23.668178,120.887417,1.8855713e-09
C1I320,奧萬大,2014-03-08,23.952956,121.178556,5.1394737e-09
C2M910,嘉義大學,2014-03-08,23.471325,120.485903,8.223918e-10
C0U770,南澳,2014-03-08,24.44935,121.81022,4.374097e-08
C0A980,社子,2014-03-08,25.109508,121.469681,2.2669544e-08
C0V800,六龜,2014-03-08,22.997889,120.633583,7.521372e-10
C1G9D0,國一S218K,2014-03-08,23.890641,120.493253,1.2881209e-09
C0E570,白沙屯,2014-03-08,24.549447,120.696803,1.6596248e-08
C2F9A0,中竹林,2014-03-08,24.103556,120.751061,1.6995836e-09
C0FA40,臺中電廠,2014-03-08,24.2146,120.4907,4.330563e-09
C2G9A0,畜試所彰化,2014-03-08,23.86045,120.557964,7.153246e-10
C0H9C0,合歡山,2014-03-08,24.143442,121.272547,3.1293315e-08
C0X060,下營,2014-03-08,23.22695,120.256261,5.7021404e-10
G2M350,農試溪口農場,2014-03-08,23.58565,120.408111,1.1754409e-09
C0U860,頭城,2014-03-08,24.85323,121.8308,3.2053688e-08
C0R580,南州,2014-03-08,22.48591,120.50274,6.034055e-10
C0D430,峨眉,2014-03-08,24.6905,121.017189,6.464989e-08
C0G780,秀水,2014-03-08,24.03405,120.503869,1.5358677e-09
72N100,臺南農改場,2014-03-08,23.0605,120.342194,4.5286172e-10
C0S900,蘭嶼高中,2014-03-08,22.04909,121.51214,0.9994123
467540,大武,2014-03-08,22.355675,120.903789,0.9857055
C1F9W0,德基,2014-03-08,24.254783,121.190261,1.0732483e-08
C1Z120,壽豐,2014-03-08,23.870853,121.508081,6.613929e-07
C0W160,烏坵,2014-03-08,24.9944,119.44956,4.4420685e-07
C1I240,外大坪,2014-03-08,23.958697,120.917931,2.0615547e-09
C1I550,國六W023K,2014-03-08,23.979067,120.867742,1.2820667e-09
C0R870,興海,2014-03-08,21.9752,120.8439,0.9998261
C0R140,瑪家,2014-03-08,22.682903,120.686639,2.3190092e-09
C0A530,坪林,2014-03-08,24.938183,121.70975,1.787425e-08
C0X260,後壁,2014-03-08,23.366358,120.362326,6.3371103e-10
C0Z230,和平,2014-03-08,24.30717,121.77007,3.4088163e-07
C0G770,福興,2014-03-08,24.041289,120.437669,2.3919289e-09
C0H9A0,神木村,2014-03-08,23.532742,120.843667,5.3302402e-09
C0I460,南投,2014-03-08,23.911469,120.687331,8.432185e-10
C0I480,梅峰,2014-03-08,24.085272,121.173572,1.3585386e-08
C1V570,吉東,2014-03-08,22.85422,120.5454,6.7515077e-10
C2D740,屯原,2014-03-08,24.067969,121.209389,1.2476237e-08
C2A560,福山,2014-03-08,24.776203,121.502811,6.678316e-09
C0AH30,五分山,2014-03-08,25.07125,121.780794,1.5950748e-08
C0FA10,松柏,2014-03-08,24.429115,120.617482,7.3042608e-09
72S200,東改班鳩分場,2014-03-08,22.829528,121.077694,2.9470593e-07
72HA00,中改埔里分場,2014-03-08,23.903208,120.963364,1.6425303e-09
C2H9W0,大坪頂農水,2014-03-08,24.043122,120.932781,2.0353386e-09
C0C650,平鎮,2014-03-08,24.897503,121.214636,1.8930857e-08
C0S930,延平,2014-03-08,22.902581,121.084058,4.1968793e-08
C0UA60,樟樹山,2014-03-08,24.41393,121.78325,5.6298585e-08
C1S670,摩天,2014-03-08,23.199503,121.027,1.3751898e-08
C0V630,茄萣,2014-03-08,22.906642,120.182608,5.996103e-10
466940,基隆,2014-03-08,25.133314,121.740475,4.3463163e-07
C0X050,東河,2014-03-08,23.296598,120.385608,8.1334106e-10
C0R770,保力,2014-03-08,22.071122,120.764111,0.99987656
G2L020,農試嘉義分所,2014-03-08,23.485028,120.473806,8.3686397e-10
C0X240,關子嶺,2014-03-08,23.331169,120.508025,1.2641224e-09
C0I380,集集,2014-03-08,23.828206,120.801467,9.812208e-10
466990,花蓮,2014-03-08,23.975128,121.613275,2.8090935e-07
C1V220,小關山,2014-03-08,23.154217,120.813603,9.142412e-09
C1F9G1,慶福山,2014-03-08,24.180853,120.848378,2.8632663e-09
C0Z250,瑞穗林道,2014-03-08,23.49284,121.30688,3.3674407e-08
C0D590,新豐,2014-03-08,24.87068,120.97721,2.0101082e-08
C0A870,五指山,2014-03-08,25.132153,121.608692,1.8356923e-08
C0UA50,西帽山,2014-03-08,24.555361,121.802628,2.3440201e-08
C0X160,仁德,2014-03-08,22.968258,120.257689,4.377598e-10
C1H971,六分寮,2014-03-08,23.92507,120.6378,1.403961e-09
C0W120,西嶼,2014-03-08,23.5626,119.468436,0.0024269037
C0G650,員林,2014-03-08,23.946503,120.585597,7.7354173e-10
C0AD50,鶯歌,2014-03-08,24.951533,121.346294,2.1100336e-08
C2H9Q0,北東眼山,2014-03-08,24.120939,121.189303,1.2237189e-08
C2H9T0,名間竹圍,2014-03-08,23.859914,120.637572,1.056645e-09
C0S990,山豬窟,2014-03-08,22.318619,120.857372,0.00073156925
72Q010,高雄農改,2014-03-08,22.709333,120.525889,2.5469224e-10
C0X190,安平,2014-03-08,22.993161,120.152181,6.321911e-10
C0K400,斗六,2014-03-08,23.720583,120.541127,8.6693064e-10
12J990,口湖工作站,2014-03-08,23.589978,120.180394,1.7260123e-09
C0O830,北寮,2014-03-08,23.079561,120.495008,7.3619805e-10
C1D410,白蘭,2014-03-08,24.579364,121.079947,6.698434e-09
C0S970,加津林,2014-03-08,22.416211,120.926942,0.98618853
C0D700,關西,2014-03-08,24.7977,121.1732,2.0531113e-08
C0M810,里佳,2014-03-08,23.389125,120.716647,4.4956754e-09
C0U750,龜山島,2014-03-08,24.841667,121.953133,2.4341151e-08
C0R810,內獅,2014-03-08,22.305064,120.642986,0.00018635436
C1M390,龍美,2014-03-08,23.406728,120.654417,3.555056e-09
C2FB60,頭櫃山,2014-03-08,24.129842,120.858925,3.6058436e-09
C1H840,國三N238K,2014-03-08,23.841008,120.707711,9.958347e-10
CAQ030,崎峰國小,2014-03-08,22.42565,120.49521,6.034055e-10
C2E520,大湖,2014-03-08,24.414939,120.870872,1.2527552e-08
467530,阿里山,2014-03-08,23.508208,120.813242,1.1510717e-08
C1E691,南湖,2014-03-08,24.40135,120.837533,3.598746e-09
C0FA30,梧棲,2014-03-08,24.256003,120.523381,4.317754e-09
C1V231,高中,2014-03-08,23.134911,120.716711,1.5763735e-09
C0F9V0,新社,2014-03-08,24.200172,120.815806,2.4055355e-09
C0H890,埔里,2014-03-08,23.972169,120.952425,1.3810904e-09
C0R690,墾丁,2014-03-08,21.966756,120.810269,0.99992675
C0F0D0,審馬陣,2014-03-08,24.381675,121.4203,2.9836663e-08
C0R820,白鷺,2014-03-08,22.454275,120.666219,1.4811745e-08
U2H480,臺大溪頭,2014-03-08,23.670306,120.798194,1.8870177e-09
C1V190,南天池,2014-03-08,23.27403,120.91176,1.3583547e-08
K2E360,苗栗農改場,2014-03-08,24.495722,120.829111,7.702266e-09
CAJ050,海口故事園區,2014-03-08,23.57543,120.14121,1.7364932e-09
C2H9D0,三隻寮,2014-03-08,24.093078,120.861578,2.0864008e-09
C0O990,媽廟,2014-03-08,22.99175,120.293525,4.366324e-10
C0D480,打鐵坑,2014-03-08,24.849664,121.150789,6.6849943e-09
C0Z220,和平林道,2014-03-08,24.343922,121.656317,5.4951965e-08
C0TA10,花蓮漁港,2014-03-08,23.995322,121.638331,2.8785544e-07
72C440,桃園農改場,2014-03-08,24.950944,121.030583,6.6839135e-08
C1E711,馬拉邦山,2014-03-08,24.367306,120.901656,5.1737405e-09
C0SB20,富岡,2014-03-08,22.792467,121.192669,9.011004e-07
C0D560,竹東,2014-03-08,24.767147,121.057881,2.82739e-08
C0F9U0,南屯,2014-03-08,24.137006,120.637969,1.6431256e-09
C0M720,番路,2014-03-08,23.464657,120.554156,9.879889e-10
C0F0A0,雪山圈谷,2014-03-08,24.388594,121.236339,3.4290668e-08
C1A9N0,四十份,2014-03-08,24.934158,121.593283,1.5294022e-08
C0U760,東澳,2014-03-08,24.52196,121.83318,2.6439311e-08
C0X230,鹽水,2014-03-08,23.272621,120.247641,7.9313883e-10
C2H9H0,苗改南投蜂場,2014-03-08,23.852589,120.693481,9.198115e-10
C0R950,萬隆國小,2014-03-08,22.507667,120.587817,4.4918586e-10
C0V370,古亭坑,2014-03-08,22.893178,120.401947,4.4935897e-10
C1I340,新興橋,2014-03-08,23.563333,120.868728,1.6695488e-09
C0SA80,土坂,2014-03-08,22.453108,120.887572,7.164011e-07
C0R160,鹽埔,2014-03-08,22.739558,120.530778,4.0629353e-10
C0AC40,大屯山,2014-03-08,25.175675,121.522408,1.8897055e-08
466850,五分山雷達站,2014-03-08,25.071182,121.781205,1.5931988e-08
C2H9L0,馬烈霸,2014-03-08,24.1512,121.201772,1.2083392e-08
C1AI50,國三N016K,2014-03-08,25.034164,121.619664,2.5335426e-08
C1V600,藤枝,2014-03-08,23.071961,120.757042,7.349077e-09
C1E601,南勢,2014-03-08,24.572486,120.734842,1.2844293e-08
C0Z180,新城,2014-03-08,24.03946,121.60454,2.604752e-07
C0O980,新市,2014-03-08,23.061614,120.298197,4.522661e-10
C0K420,西螺,2014-03-08,23.800407,120.467394,9.195659e-10
C0Z050,佳心,2014-03-08,23.34567,121.21316,3.282377e-08
C0AD30,蘆洲,2014-03-08,25.086594,121.472331,2.261802e-08
C0V610,梓官,2014-03-08,22.760558,120.267211,3.7371875e-10
K2F750,種苗改良場,2014-03-08,24.225972,120.800917,2.1903945e-09
C0UA80,大溪漁港,2014-03-08,24.941801,121.902955,3.153857e-08
C1AI60,國一39K邊坡,2014-03-08,25.064361,121.383836,1.3240518e-08
C0W150,金寧,2014-03-08,24.457703,118.328989,8.932076e-09
C0R960,內埔,2014-03-08,22.608483,120.570714,4.5895737e-10
V2C250,八德合作社,2014-03-08,24.93775,121.266389,2.0867162e-08
C2H9S0,龍南,2014-03-08,23.953536,120.833183,3.452507e-09
C0AH40,平等,2014-03-08,25.129142,121.577086,2.0035666e-08
C0R540,佳冬,2014-03-08,22.419456,120.552375,6.031938e-10
466950,彭佳嶼,2014-03-08,25.627975,122.079744,8.677881e-07
C0A890,雙溪,2014-03-08,25.036003,121.864242,3.0948627e-07
C0C480,桃園,2014-03-08,24.992425,121.323172,3.360133e-08
C0AH50,林口,2014-03-08,25.072181,121.38084,1.8583798e-08
A2K360,水試臺西試驗場,2014-03-08,23.717231,120.190522,2.42517e-09
B2N890,畜試所,2014-03-08,23.058972,120.336406,4.5286172e-10
C2M960,外寮,2014-03-08,23.562643,120.665688,2.9495506e-09
C0F9S0,烏日,2014-03-08,24.107058,120.624103,1.2361351e-09
C0C490,八德,2014-03-08,24.928708,121.283289,2.5620288e-08
C0R190,赤山,2014-03-08,22.592333,120.614306,4.558107e-10
C0T820,天祥,2014-03-08,24.179597,121.495639,8.1875214e-08
C1F9E1,龍安,2014-03-08,24.1605,120.831961,2.491923e-09
C0V820,小林,2014-03-08,23.148408,120.63325,1.1375045e-09
C2G870,芳苑,2014-03-08,23.922303,120.320025,4.0180392e-09
C0E850,大河,2014-03-08,24.618069,120.948578,1.0826691e-08
C1U670,寒溪,2014-03-08,24.634,121.71691,7.3001836e-08
C0N020,城西,2014-03-08,23.0568,120.0956,1.4362683e-09
C1Z110,三棧,2014-03-08,24.11557,121.60501,1.2740406e-07
C0R280,檳榔,2014-03-08,22.076078,120.836777,0.99992526
C2H9J0,中台,2014-03-08,23.9996,120.938739,1.5666977e-09
C0F9L0,后里,2014-03-08,24.310436,120.729725,4.0117367e-09
C0D540,橫山,2014-03-08,24.71116,121.11693,1.1925385e-08
C1D420,太閣南,2014-03-08,24.632808,121.160575,8.051041e-09
C1E770,公館,2014-03-08,24.526914,120.830806,1.37420395e-08
CAN130,水試所海水繁養殖中心,2014-03-08,23.120802,120.07968,1.4514756e-09
C1I430,翠華,2014-03-08,24.191961,121.224339,1.7275383e-08
C1M400,菜瓜坪,2014-03-08,23.251928,120.576103,1.3703609e-09
C0G730,二林,2014-03-08,23.903325,120.376081,2.1287407e-09
72M360,南改義竹分場,2014-03-08,23.360694,120.279361,6.191551e-10
V2K620,麥寮合作社,2014-03-08,23.753836,120.294783,2.3255116e-09
C0Z070,舞鶴,2014-03-08,23.46811,121.37407,1.5753666e-07
C0B040,大武崙,2014-03-08,25.166676,121.706993,3.5634054e-07
C1Z030,紅葉,2014-03-08,23.493119,121.338806,1.8886267e-07
C1I050,丹大,2014-03-08,23.753747,121.141147,1.8696928e-08
C0I080,信義,2014-03-08,23.689694,120.851036,1.2045602e-09
C2M920,朴子農改,2014-03-08,23.469889,120.259383,8.4773216e-10
C2A880,福隆,2014-03-08,25.017842,121.942083,4.5573202e-08
C0Z160,鳳林,2014-03-08,23.746114,121.453411,4.4698518e-07
C0V210,復興,2014-03-08,23.222403,120.806089,3.15489e-09
C0H990,昆陽,2014-03-08,24.121322,121.273642,2.4208086e-08
C0R741,獅子,2014-03-08,22.202308,120.705236,0.00018646369
C0S710,鹿野,2014-03-08,22.917711,121.122994,2.9569255e-08
C0I530,小奇萊,2014-03-08,24.131764,121.295717,2.6017991e-08
C2K630,荷苞,2014-03-08,23.657717,120.595144,8.616488e-10
C0Z080,富源,2014-03-08,23.587642,121.378225,2.0369497e-07
467441,高雄,2014-03-08,22.7304,120.3125,8.274172e-10
C0SB10,美和,2014-03-08,22.682078,121.060236,7.878782e-06
C2K620,馬光農場,2014-03-08,23.721453,120.378864,8.947673e-10
C1I140,卡奈托灣,2014-03-08,23.754364,121.087872,7.157521e-09
C0I520,玉山風口,2014-03-08,23.470489,120.955994,2.998173e-08
C1G691,下水埔,2014-03-08,23.816114,120.5676,7.8620443e-10
C0X110,臺南市南區,2014-03-08,22.961189,120.188378,6.2232697e-10
C0V680,仁武,2014-03-08,22.701083,120.347722,8.0120344e-10
C2G840,北斗,2014-03-08,23.877586,120.514222,1.3003204e-09
C0R900,竹坑,2014-03-08,22.1385,120.7022,0.027056385
C0K250,崙背,2014-03-08,23.75555,120.318925,2.28996e-09
C0G860,社頭,2014-03-08,23.897647,120.5862,7.8262713e-10
C0X150,安定,2014-03-08,23.102614,120.227839,6.247579e-10
C0R590,里港,2014-03-08,22.77919,120.49459,4.9549276e-10
C0E610,馬都安,2014-03-08,24.451272,120.930192,7.1023623e-09
C0E550,明德,2014-03-08,24.583486,120.885411,1.1081874e-08
C0R150,三地門,2014-03-08,22.709889,120.639944,4.6956355e-10
C0G910,花壇,2014-03-08,24.032076,120.549461,1.5494172e-09
C1D400,鳥嘴山,2014-03-08,24.71909,121.28387,9.7261825e-09
C0K500,元長,2014-03-08,23.64981,120.315024,1.4086254e-09
C0F0B0,石岡,2014-03-08,24.276061,120.777644,1.9578588e-09
C2V250,甲仙,2014-03-08,23.080106,120.591758,1.0399756e-09
C0SA20,金崙山,2014-03-08,22.567419,120.959667,1.5375598e-08
C0V350,溪埔,2014-03-08,22.738578,120.446797,3.2281464e-10
C0M660,溪口,2014-03-08,23.604131,120.403569,1.1754409e-09
C1S880,壽卡,2014-03-08,22.238911,120.858903,1.3779213e-06
72D680,桃改新埔分場,2014-03-08,24.834444,121.066111,3.335339e-08
