站號,站名,日期,lat,lon,BLBTSLS
C0R710,龍磐,2014-06-12,21.931672,120.838942,0.010871493
C1F9D1,白毛台,2014-06-12,24.158325,120.886933,1.7513658e-08
C0G940,竹塘,2014-06-12,23.848253,120.386764,0.49991024
467590,恆春,2014-06-12,22.003897,120.746339,0.1616196
C1O850,環湖,2014-06-12,23.148617,120.418633,0.0020010541
C0U710,太平山,2014-06-12,24.505486,121.525656,3.4127332e-09
C0E820,獅潭,2014-06-12,24.539133,120.920042,2.9768134e-06
C0V880,興達,2014-06-12,22.8778,120.2127,0.35968804
C0S890,關山,2014-06-12,23.0395,121.175017,0.016200751
C0SB30,新蘭,2014-06-12,22.869214,121.223228,0.302123
C2R970,屏科大,2014-06-12,22.648275,120.619247,0.73048824
K2F750,種苗繁殖,2014-06-12,24.225972,120.800917,1.9358755e-07
C1Z130,銅門,2014-06-12,23.965694,121.492842,0.9079655
C0AD40,土城,2014-06-12,24.973208,121.445169,0.08966514
CAN140,六官養殖協會,2014-06-12,23.22881,120.29962,0.5537057
C0X180,山上,2014-06-12,23.0757,120.363253,0.03134024
C0F9Z0,雪山東峰,2014-06-12,24.388792,121.268675,8.253591e-09
C1M480,獨立山,2014-06-12,23.537022,120.607797,2.3757162e-08
C0X220,學甲,2014-06-12,23.230367,120.182187,0.48975477
467650,日月潭,2014-06-12,23.881325,120.90805,7.682445e-09
C0K600,箔子寮,2014-06-12,23.6197,120.14,0.66227764
C0G830,埤頭,2014-06-12,23.866003,120.452806,0.48424798
C0S950,七塊厝,2014-06-12,22.954453,121.229922,0.6743707
467110,金門,2014-06-12,24.407306,118.289281,0.97038126
C0AH80,深坑,2014-06-12,25.002703,121.628328,0.07278883
467990,馬祖,2014-06-12,26.169269,119.923419,0.8572014
C0A970,三貂角,2014-06-12,25.007606,122.002058,0.99133873
C2D730,寶山農場,2014-06-12,24.732444,120.976153,4.560589e-05
C0K430,褒忠,2014-06-12,23.690938,120.303634,0.036057033
467480,嘉義,2014-06-12,23.495925,120.432906,1.581936e-05
C2E540,後龍,2014-06-12,24.606489,120.783933,0.028655676
C0V400,阿公店,2014-06-12,22.804194,120.355528,0.66370386
C0R440,大漢山,2014-06-12,22.405264,120.753181,6.8421635e-10
C0K280,四湖,2014-06-12,23.630414,120.227125,0.40412357
C1F9B1,桐林,2014-06-12,24.066172,120.735194,0.16739064
C2H9U0,鳳鵬,2014-06-12,23.763919,120.788061,5.950224e-07
C0K390,土庫,2014-06-12,23.679029,120.395574,0.45041865
C1I450,望鄉山,2014-06-12,23.594153,120.944286,6.5881727e-09
C0E910,海埔,2014-06-12,24.648767,120.772435,0.0036291748
B2E890,畜試北區分所,2014-06-12,24.527806,120.770972,0.13844769
C0R750,四林格山,2014-06-12,22.076989,120.802439,3.350674e-08
C0F0C0,中坑,2014-06-12,24.248517,120.903319,1.3997817e-09
C1I121,大鞍,2014-06-12,23.678381,120.760017,3.4196204e-09
72U480,花改蘭陽分場,2014-06-12,24.686306,121.716583,0.05352602
C0A770,科教館,2014-06-12,25.096356,121.516507,0.0935323
C0AJ60,六塊厝,2014-06-12,25.24,121.4481,0.14291161
C0R620,墾雷,2014-06-12,21.900836,120.855269,0.15595092
467420,永康,2014-06-12,23.038386,120.2367,0.64710915
467300,東吉島,2014-06-12,23.25695,119.667467,0.9826096
C0I410,名間,2014-06-12,23.837053,120.701447,0.09345887
A2C560,農工中心,2014-06-12,24.985917,121.239833,2.1766784e-06
C0V740,旗山,2014-06-12,22.888614,120.483597,0.05338529
C0Z061,玉里,2014-06-12,23.3215,121.339656,0.994554
C0S840,南田,2014-06-12,22.279725,120.889208,0.17993678
C1I470,杉林溪,2014-06-12,23.639517,120.786444,3.6504155e-09
C1X040,東原,2014-06-12,23.291597,120.463822,0.02184219
C0R660,枋寮,2014-06-12,22.367722,120.590647,0.28098968
C1R120,上德文,2014-06-12,22.763272,120.704442,5.974635e-08
C0K450,大埤,2014-06-12,23.646074,120.431537,0.49060088
C0UA00,土場,2014-06-12,24.576533,121.495333,0.7454469
467080,宜蘭,2014-06-12,24.763975,121.756528,0.87714505
C0N030,四草,2014-06-12,23.0235,120.1116,0.1634732
C0V650,彌陀,2014-06-12,22.783806,120.246361,0.15349878
C0D660,新竹市東區,2014-06-12,24.798681,120.986942,7.76534e-05
82S580,茶改東部分場,2014-06-12,22.907694,121.130139,0.6667622
C0SB40,興隆,2014-06-12,22.913661,121.257469,0.51369697
C0C710,大溪永福,2014-06-12,24.892936,121.324975,1.4179755e-06
C0FA20,溫寮,2014-06-12,24.372177,120.583125,0.40751493
C0V640,湖內,2014-06-12,22.887139,120.2445,0.36791188
C0R910,下寮,2014-06-12,22.3929,120.5548,0.11486594
C0Z020,明里,2014-06-12,23.208717,121.262342,0.98942274
C0M770,嘉義梅山,2014-06-12,23.585398,120.555587,0.73353744
G2F820,農業試驗所,2014-06-12,24.031261,120.688133,1.4845643e-05
C0C660,楊梅,2014-06-12,24.912375,121.143047,1.3030964e-06
C1E511,新開,2014-06-12,24.347703,120.827019,0.081472285
G2F820,農試所(霧峰),2014-06-12,24.031261,120.688133,1.4845643e-05
C1I070,和社,2014-06-12,23.591131,120.888861,1.5693506e-07
C2F000,大肚,2014-06-12,24.15295,120.572117,0.2849851
C1S850,豐南,2014-06-12,23.122139,121.262389,0.04722893
C2A920,富貴角,2014-06-12,25.263783,121.565258,0.39386818
CAH030,茶改場竹圍站,2014-06-12,23.860083,120.637528,0.000629906
C0T960,光復,2014-06-12,23.660694,121.424964,0.98762
C0F9M0,豐原,2014-06-12,24.254322,120.720692,4.3054515e-06
C0R720,旭海,2014-06-12,22.205403,120.887614,0.90041584
C0V710,苓雅,2014-06-12,22.622742,120.330669,0.368391
C0C740,觀音工業區,2014-06-12,25.064764,121.114856,0.00090571016
CAC040,拉拉山,2014-06-12,24.699317,121.427133,2.3826172e-09
C0V790,萬山,2014-06-12,22.905944,120.688056,0.0010923165
U2HA30,臺大和社,2014-06-12,23.590856,120.888864,1.5693506e-07
C0AJ90,澳底,2014-06-12,25.0552,121.9253,0.9812872
C0Z100,東華,2014-06-12,23.89525,121.549833,0.75999564
C0G970,三豐,2014-06-12,23.882,120.2895,0.092421815
V2K610,大庄合作社,2014-06-12,23.8068,120.367939,0.0058376193
C0V900,汕尾,2014-06-12,22.4782,120.4151,0.7098518
C1R630,龍泉,2014-06-12,22.66701,120.59091,0.008125517
C1AC50,關渡,2014-06-12,25.133486,121.469331,0.11549796
C0F9I0,神岡,2014-06-12,24.272481,120.658314,1.1379203e-05
C0K460,斗南,2014-06-12,23.678734,120.478359,0.73277205
467410,臺南,2014-06-12,22.993239,120.204772,0.6722529
C2O810,曾文,2014-06-12,23.219681,120.497328,6.361675e-05
467280,後龍,2014-06-12,24.648563,120.831834,0.0019841348
C1F9J1,清水林,2014-06-12,24.071242,120.820419,2.970889e-08
C2A650,火燒寮,2014-06-12,25.002719,121.742892,0.9968193
466930,竹子湖,2014-06-12,25.162078,121.544547,2.4734194e-07
C1I220,樟湖,2014-06-12,23.905333,120.846983,3.2704954e-09
C0I390,仁愛,2014-06-12,24.022122,121.132206,3.3401502e-09
C0Z300,東里,2014-06-12,23.26853,121.30547,0.99562293
C1V590,新發,2014-06-12,23.057019,120.646064,3.1526595e-06
C0K510,水林,2014-06-12,23.572924,120.24597,0.66693974
72S590,東改賓朗果園,2014-06-12,22.813889,121.071278,0.0018661994
82A750,茶改北部分場,2014-06-12,24.955778,121.631222,0.3998568
C1A750,石碇服務區,2014-06-12,25.00872,121.646242,0.070495725
C0X300,鹿寮,2014-06-12,23.386047,120.477331,0.24070737
G2AI50,關渡,2014-06-12,25.11575,121.492,0.097884536
C0K590,雲林東勢,2014-06-12,23.674192,120.255721,0.036057033
C0A570,桶後,2014-06-12,24.848222,121.597992,0.82783276
C1S800,華源,2014-06-12,22.657883,121.02325,0.7077346
C0G720,溪州,2014-06-12,23.851589,120.499093,0.46087715
C1V160,達卡努瓦,2014-06-12,23.279811,120.705319,5.320489e-09
C2M410,馬頭山,2014-06-12,23.324361,120.582017,0.00066187215
C0V850,蚵仔寮,2014-06-12,22.7256,120.2527,0.12791215
C0S740,池上,2014-06-12,23.119628,121.209469,0.85644567
C1V390,尖山,2014-06-12,22.813153,120.367789,0.5675104
C0AH70,松山,2014-06-12,25.04871,121.55042,0.086188555
C0N010,鯤鯓國小,2014-06-12,23.1879,120.0889,0.41315395
C0R550,新埤,2014-06-12,22.467947,120.582894,0.0036683015
C0SA60,知本（水試所）,2014-06-12,22.702394,121.082761,0.13709402
C0T9I0,豐濱,2014-06-12,23.583897,121.514806,0.99496657
C0UB00,淡江大學蘭陽校園,2014-06-12,24.823239,121.730383,0.8212491
C0W240,九宮,2014-06-12,24.423753,118.240186,0.97173584
C0T9N0,富里,2014-06-12,23.171639,121.249378,0.8727041
U2HA50,臺大竹山,2014-06-12,23.756972,120.681556,0.0023372008
C0V840,鳳鼻頭,2014-06-12,22.5083,120.3591,0.31673828
C0X140,西港,2014-06-12,23.125608,120.203108,0.45796466
72D080,桃改五峰分場,2014-06-12,24.612194,121.157167,1.6380002e-09
C2H9P0,伊拿谷,2014-06-12,23.963211,121.088264,3.991528e-08
C2H9F0,柑林,2014-06-12,24.018658,120.847072,4.1381503e-05
C0TA20,加灣,2014-06-12,24.082025,121.608944,0.5051743
C0V530,阿蓮,2014-06-12,22.883208,120.327508,0.43961588
C1O880,關山,2014-06-12,23.173397,120.594092,0.0012485856
C0E791,卓蘭,2014-06-12,24.3126,120.8244,0.05410219
C1I030,武界,2014-06-12,23.913225,121.052483,1.0560269e-08
C0R520,崁頂,2014-06-12,22.514781,120.506914,0.15898909
C0R341,牡丹,2014-06-12,22.130036,120.792639,0.16120435
C0R930,萬丹,2014-06-12,22.5885,120.4851,0.004387997
C0S760,紅石,2014-06-12,23.069131,121.126219,4.7985456e-09
C1M610,石磐龍,2014-06-12,23.496606,120.663506,5.728611e-09
C0UA10,鴛鴦湖,2014-06-12,24.590269,121.412228,3.5036067e-09
V2C260,八德蔬果,2014-06-12,24.978508,121.281819,1.971026e-06
C0R800,丹路,2014-06-12,22.204481,120.750989,0.17827167
C0G920,永靖,2014-06-12,23.924703,120.547533,0.32351002
C2M950,太和,2014-06-12,23.538372,120.702961,2.9720832e-09
C1A630,下盆,2014-06-12,24.771003,121.538622,0.33729082
B2N890,畜產試驗所,2014-06-12,23.058972,120.336406,0.6787355
C0UA30,白嶺,2014-06-12,24.527819,121.519031,1.1042165e-08
C1V580,溪南(特生中心),2014-06-12,23.084972,120.788475,4.1083923e-09
C1T970,大農,2014-06-12,23.615233,121.413331,0.9949695
E2S960,林試太麻里2,2014-06-12,22.598014,120.989761,0.9030083
C0R650,竹田,2014-06-12,22.58486,120.54344,0.004387997
C1H900,清流,2014-06-12,24.080775,120.962997,3.9692836e-08
C1C510,水尾,2014-06-12,24.940081,121.087161,1.6146463e-05
C0F9X0,大雅(中科園區),2014-06-12,24.21528,120.62445,0.0026468113
C0SB60,白守蓮,2014-06-12,23.126769,121.401914,0.021935558
C0O970,虎頭埤,2014-06-12,23.021375,120.347878,0.5002466
C0C730,中大臨海站,2014-06-12,24.966126,121.008581,0.016698096
C0X250,新營,2014-06-12,23.310689,120.316681,0.53885937
C0V700,三民,2014-06-12,22.645017,120.311233,0.3683911
C0U870,大礁溪,2014-06-12,24.791042,121.675047,0.47111765
C0E870,高鐵苗栗,2014-06-12,24.60725,120.826094,0.02162608
A2K570,古坑花卉中心,2014-06-12,23.63353,120.55239,0.08663001
C0M860,新美,2014-06-12,23.338017,120.683169,2.2542947e-06
C1E701,八卦,2014-06-12,24.491756,120.927619,8.556258e-09
C0I420,國姓,2014-06-12,24.037803,120.855072,0.0002442859
C2D720,關西工作站,2014-06-12,24.757275,121.184792,9.717219e-07
C0S960,香蘭,2014-06-12,22.587569,120.993375,0.9106626
C0R260,春日,2014-06-12,22.370361,120.628306,0.0857553
72G600,臺中農改場,2014-06-12,24.003028,120.534389,0.48930117
C0Z210,瑞穗,2014-06-12,23.5239,121.39021,0.99327946
C0M820,達邦,2014-06-12,23.453994,120.749517,1.7202682e-08
C0V860,南寮,2014-06-12,22.7616,120.2339,0.14982548
C0G740,大城,2014-06-12,23.852487,120.320935,0.08770412
C0R920,塭仔,2014-06-12,22.4169,120.5197,0.110025465
C0R470,高樹,2014-06-12,22.826389,120.600806,0.008521994
C0R680,佳樂水,2014-06-12,21.993578,120.861633,0.16735026
C1O870,大棟山,2014-06-12,23.31157,120.52226,2.313968e-09
C0D360,梅花,2014-06-12,24.678347,121.208558,4.4175614e-08
C0Z190,富世,2014-06-12,24.14743,121.6297,0.90131384
C0AI10,屈尺,2014-06-12,24.92184,121.54475,0.07278883
B2U990,畜試東區分所,2014-06-12,24.669039,121.832561,0.039803434
C0SB80,長濱漁港,2014-06-12,23.313644,121.459994,0.94637513
C0R240,來義,2014-06-12,22.527306,120.625111,0.122716725
C0V910,大樹,2014-06-12,22.684645,120.432803,0.6503
C1R610,西大武山,2014-06-12,22.617719,120.7322,1.030478e-09
C0G900,線西,2014-06-12,24.143358,120.443536,0.121655576
C0M700,竹崎,2014-06-12,23.526178,120.555508,0.01901815
C2E880,三義,2014-06-12,24.405478,120.749819,1.7618889e-07
C0C720,竹圍,2014-06-12,25.112692,121.239824,0.14025787
C0F9P0,清水,2014-06-12,24.312297,120.562242,0.46388096
C0Z150,吉安光華,2014-06-12,23.930925,121.595153,0.66792953
C1D640,外坪(五指山),2014-06-12,24.644447,121.090961,6.42528e-09
C0F9O0,潭子,2014-06-12,24.213106,120.703933,1.0541302e-06
C2H9R0,卓社,2014-06-12,23.887894,121.000086,3.060952e-09
72T250,花蓮農改場,2014-06-12,23.975222,121.563889,0.5539742
C0E780,銅鑼,2014-06-12,24.489681,120.790853,0.00022430578
C1T950,太安,2014-06-12,23.666719,121.370128,1.7687992e-08
C0E830,苑裡,2014-06-12,24.439714,120.653053,0.36432925
467270,田中,2014-06-12,23.873803,120.581286,0.6372687
C0SA10,檳榔四格山,2014-06-12,22.810031,121.109308,1.6107675e-05
C1T830,布洛灣,2014-06-12,24.17184,121.57127,0.9982672
C0F970,大坑,2014-06-12,24.173142,120.722289,5.185926e-05
C1U920,思源,2014-06-12,24.393125,121.347214,2.9869272e-09
C0A931,三和,2014-06-12,25.233153,121.595236,0.9723491
C0I010,廬山,2014-06-12,24.033311,121.181808,2.2920181e-09
C2M940,日野賀,2014-06-12,23.434056,120.727169,5.7279554e-09
C0R860,鼻頭,2014-06-12,22.1043,120.8979,9.700101e-05
C0UB20,壯圍,2014-06-12,24.7359,121.8163,0.039803434
C0R790,九棚,2014-06-12,22.14195,120.889281,0.7946322
C0W110,東莒,2014-06-12,25.9652,119.98069,0.93794304
C1U930,粉鳥林,2014-06-12,24.497088,121.842479,0.5139832
C1I211,蘆竹湳,2014-06-12,23.934019,120.811994,2.985095e-08
C0S830,長濱,2014-06-12,23.286817,121.411975,0.973499
C1F9F1,伯公龍,2014-06-12,24.272392,120.849047,7.7184376e-07
C0E810,西湖,2014-06-12,24.562947,120.7485,0.01419336
C1I440,新高口,2014-06-12,23.478744,120.878939,4.3627053e-09
C0O840,王爺宮,2014-06-12,23.222064,120.40085,6.361675e-05
C0T9G0,鳳林山,2014-06-12,23.735269,121.420131,0.9884576
C0X080,佳里,2014-06-12,23.173039,120.145086,0.47474873
C0FB70,大甲溪埔,2014-06-12,24.370625,120.620067,0.35816285
C0Z310,清水斷崖,2014-06-12,24.218294,121.689142,0.96139735
C0M680,太保,2014-06-12,23.455062,120.331455,0.37541565
C1S820,金峰,2014-06-12,22.590969,120.933236,0.66273206
C0AD10,八里,2014-06-12,25.150211,121.403947,0.14036387
C2K240,草嶺,2014-06-12,23.59555,120.693461,3.4051193e-09
C1SA70,都蘭,2014-06-12,22.87794,121.226881,0.51369697
C0K440,二崙,2014-06-12,23.772797,120.408944,0.50118333
C1A760,坪林交控,2014-06-12,24.94284,121.713442,0.83157253
C0F9N0,大里,2014-06-12,24.092464,120.701378,0.0015397349
C0SA90,達仁林場,2014-06-12,22.264347,120.823972,0.9639713
C1R290,石門山,2014-06-12,22.112611,120.756597,3.091487e-06
42HA10,萬大發電廠,2014-06-12,23.978875,121.139639,1.715046e-08
C0R890,山海,2014-06-12,21.9878,120.7091,0.1598957
C0T9A0,月眉山,2014-06-12,23.809928,121.539828,0.61159855
C0AC70,信義,2014-06-12,25.037822,121.564597,0.08624857
C0K560,棋山,2014-06-12,23.68645,120.603417,0.8549401
C2FB50,出雲,2014-06-12,24.206469,120.902794,5.812246e-09
C1Z240,中平林道,2014-06-12,23.42115,121.26763,1.2581379e-06
U2H480,溪頭,2014-06-12,23.670306,120.798194,9.023121e-09
C0M880,好美里,2014-06-12,23.3364,120.138,0.47474873
C0T9E0,大坑,2014-06-12,23.880628,121.581981,0.8736174
C0K530,臺西,2014-06-12,23.701547,120.197559,0.21416529
C1E900,國一N128K,2014-06-12,24.560997,120.844186,0.007536067
C0AJ50,水湳洞,2014-06-12,25.123695,121.862238,0.9971406
C0AI20,白沙灣,2014-06-12,25.283128,121.519058,0.4098129
C0A860,大坪,2014-06-12,25.165914,121.632969,0.000638798
C1U850,觀音海岸,2014-06-12,24.38319,121.77856,6.7788055e-06
C2K610,草嶺石壁,2014-06-12,23.602469,120.707731,4.9079194e-09
C0U950,鶯子嶺,2014-06-12,24.89754,121.79244,5.7907044e-08
C0O900,善化,2014-06-12,23.112883,120.297219,0.64626074
C0K550,蔦松,2014-06-12,23.514319,120.229736,0.53673035
E2P980,林試六龜中心,2014-06-12,22.991703,120.645722,0.11852328
C0E590,通霄,2014-06-12,24.471892,120.704622,0.19527383
C1I310,西巒,2014-06-12,23.754486,120.883956,5.0010933e-09
C0A550,泰平,2014-06-12,24.971197,121.823711,0.9995092
C0I360,水里,2014-06-12,23.812553,120.849792,0.0027523863
C0R830,高士,2014-06-12,22.121825,120.836781,7.0327263e-07
C1I101,溪頭,2014-06-12,23.661789,120.807647,3.6521286e-09
C0AJ20,野柳,2014-06-12,25.20703,121.690021,0.9971406
C0B060,暖暖,2014-06-12,25.0957,121.7403,0.99724215
C1H920,長豐,2014-06-12,24.102039,120.879897,2.3075605e-08
C0V360,內門,2014-06-12,22.975481,120.466769,0.014645202
C0R850,林邊,2014-06-12,22.4634,120.5339,0.15898909
C0E930,龍鳳,2014-06-12,24.700034,120.859125,1.7067325e-05
C0U910,冬山,2014-06-12,24.63373,121.7937,0.039803434
C1E721,泰安,2014-06-12,24.489017,120.968036,4.7598956e-09
82H320,茶改中部分場,2014-06-12,23.875611,120.913583,3.7316e-08
C0M750,布袋,2014-06-12,23.380878,120.167789,0.56343746
C1S860,利嘉,2014-06-12,22.809417,121.050528,5.351107e-06
72C440,桃園農改,2014-06-12,24.950944,121.030583,0.029468311
E2S980,林試太麻里1,2014-06-12,22.598922,120.980044,0.89963704
C0X170,關廟,2014-06-12,22.963017,120.327797,0.6211041
C0V720,林園,2014-06-12,22.507747,120.394511,0.36844987
C1I510,線浸林道,2014-06-12,23.761508,120.832956,7.1961503e-09
C0D690,外湖,2014-06-12,24.917735,120.968711,0.016698096
C0C750,新興坑尾,2014-06-12,25.0061,121.0971,6.6783614e-05
B2Q810,畜試南區分所,2014-06-12,21.945583,120.802167,0.1670551
C0S790,金崙,2014-06-12,22.538122,120.966875,0.3053027
C0AH90,福山植物園,2014-06-12,24.760717,121.58135,2.896798e-08
C0I540,奇萊稜線,2014-06-12,24.109231,121.326456,7.4226265e-09
C0M850,表湖,2014-06-12,23.24186,120.64166,2.9273522e-08
C0S770,大溪山,2014-06-12,22.478475,120.943325,6.862157e-05
C0AG80,中和,2014-06-12,24.991622,121.491792,0.08950595
C0T790,大禹嶺,2014-06-12,24.186117,121.316086,5.214826e-09
C0T9B0,水源,2014-06-12,23.991861,121.537169,0.309522
C0R840,牡丹池山,2014-06-12,22.168389,120.841225,0.97930014
C1I131,桶頭,2014-06-12,23.641944,120.654117,0.13532212
CAL110,布袋國中,2014-06-12,23.35893,120.18026,0.57674164
467571,新竹,2014-06-12,24.827853,121.014219,0.00015809698
C0Z290,赤柯山,2014-06-12,23.36893,121.38293,4.358505e-06
C0X280,將軍,2014-06-12,23.214999,120.13577,0.47474873
C0S690,太麻里,2014-06-12,22.60902,120.98533,6.636979e-07
C0U880,北關,2014-06-12,24.9072,121.8734,0.4307744
C1H860,瑞岩,2014-06-12,24.123772,121.18345,1.7638457e-09
C0G810,埔心,2014-06-12,23.947633,120.525456,0.33807182
C0U970,大福,2014-06-12,24.80064,121.81389,0.8649558
C2H9N0,仁愛東眼,2014-06-12,24.026875,121.1205,2.4698723e-09
C1E670,南礦,2014-06-12,24.538278,121.002836,4.020623e-09
C0M520,東後寮,2014-06-12,23.369908,120.248065,0.5916907
C1E461,松安,2014-06-12,24.397972,120.986022,6.6596813e-09
72G600,臺中農改,2014-06-12,24.003028,120.534389,0.48930117
C2N160,西拉雅風管處,2014-06-12,23.189481,120.335297,0.5598066
C2M970,碧湖,2014-06-12,23.568632,120.624165,5.618624e-09
C0A640,石碇,2014-06-12,24.993969,121.662917,0.99707377
E2S960,林試太麻里2,2014-06-12,22.598,120.99775,0.9147421
C0F9Y0,桃山,2014-06-12,24.432739,121.303808,9.153265e-09
C1I020,萬大,2014-06-12,23.979817,121.132261,3.2153786e-09
C0U940,羅東,2014-06-12,24.68184,121.74934,0.044663593
C0M650,朴子,2014-06-12,23.43463,120.23902,0.5742479
C1I500,大尖山,2014-06-12,23.858572,120.994889,2.0960256e-09
C0G820,田尾,2014-06-12,23.901669,120.509389,0.32382417
E2K600,四湖植物園,2014-06-12,23.676986,120.163433,0.21399666
C0S730,綠島,2014-06-12,22.6672,121.47533,0.014641232
12Q970,東港工作站,2014-06-12,22.479997,120.466058,0.11486594
C0E430,南庄,2014-06-12,24.601775,121.000214,2.7188003e-06
C1TA00,太魯閣,2014-06-12,24.15773,121.6236,0.9557763
466920,臺北,2014-06-12,25.037658,121.514853,0.086188555
C0R600,舊泰武,2014-06-12,22.588194,120.664944,0.030006923
C1I260,北坑,2014-06-12,23.9246,121.006903,2.6412547e-08
466910,鞍部,2014-06-12,25.182586,121.529731,3.1762234e-08
C1I230,九份二山,2014-06-12,23.961944,120.845,6.853295e-09
C2A660,瑞芳,2014-06-12,25.113169,121.801147,0.99768984
C0R270,琉球嶼,2014-06-12,22.332244,120.362236,0.0857553
C1T990,高寮,2014-06-12,23.394239,121.356808,0.97136104
C0G620,芬園,2014-06-12,24.015678,120.6213,0.02278766
C1Z140,荖溪,2014-06-12,23.890575,121.45964,3.7464122e-08
C1I201,中心崙,2014-06-12,23.728722,120.712097,6.650031e-07
C1I400,凌霄,2014-06-12,24.018778,121.004456,2.6480884e-09
C1M640,十字,2014-06-12,23.492153,120.753683,3.2941538e-09
G2P820,農試鳳山分所,2014-06-12,22.646611,120.356083,0.4399871
C0Z270,蕃薯寮,2014-06-12,23.73835,121.540108,0.978232
C0F9Q0,外埔,2014-06-12,24.347817,120.705686,4.5117984e-05
C0K580,高鐵雲林,2014-06-12,23.737456,120.417944,0.45041865
C2I090,鳳凰,2014-06-12,23.728081,120.787347,2.21608e-08
C0U990,員山,2014-06-12,24.74435,121.72247,0.044663593
C0V770,大社,2014-06-12,22.730306,120.346639,0.13032691
C0X120,麻豆,2014-06-12,23.183289,120.248611,0.48975477
C0C670,龍潭,2014-06-12,24.870056,121.221389,2.728483e-08
C0D680,香山濕地,2014-06-12,24.783581,120.914988,0.0022435703
C0S980,勝林山,2014-06-12,22.430439,120.8938,0.0046253935
C0V730,大寮,2014-06-12,22.605614,120.395717,0.06921482
C0R570,麟洛,2014-06-12,22.65078,120.52719,0.77489424
C2M930,石卓,2014-06-12,23.478744,120.702264,3.3282517e-09
C0G9B0,和美,2014-06-12,24.105169,120.492131,0.4414087
CAG100,王功漁港,2014-06-12,23.96824,120.32586,0.08479063
C0X290,北門,2014-06-12,23.267772,120.125481,0.47474873
C2F930,大甲,2014-06-12,24.347667,120.640403,0.29322824
C0D650,湖口,2014-06-12,24.904794,121.043628,0.039406706
C0E420,竹南,2014-06-12,24.708978,120.888897,0.0015007242
C0U780,五結,2014-06-12,24.68637,121.79794,0.039803434
C1I250,鯉潭,2014-06-12,23.961922,120.991131,2.3075605e-08
C0R130,阿禮,2014-06-12,22.742908,120.743678,3.0609402e-09
C0X100,臺南市北區,2014-06-12,23.010394,120.194228,0.63546836
C0S920,金峰嘉蘭,2014-06-12,22.594789,120.960825,0.9067807
C0V490,新興,2014-06-12,22.627422,120.298803,0.36844987
C0F9K0,大安,2014-06-12,24.345061,120.588025,0.44747052
72N100,臺南農改,2014-06-12,23.0605,120.342194,0.67876637
467290,古坑,2014-06-12,23.633639,120.551889,0.08663001
C2E970,八甲,2014-06-12,24.535811,120.795983,0.00018401744
C0V440,鳳山,2014-06-12,22.646653,120.356122,0.4399871
C1T940,大觀,2014-06-12,23.714206,121.373133,0.99556804
72T250,花蓮農改,2014-06-12,23.975222,121.563889,0.5539742
C0E740,造橋,2014-06-12,24.637056,120.864778,8.534275e-06
C0R100,尾寮山,2014-06-12,22.833111,120.683889,3.9736827e-09
A2K630,臺大雲林校區,2014-06-12,23.730628,120.423903,0.45041865
C0D580,寶山,2014-06-12,24.735006,121.025192,1.3012531e-07
E2P990,林試扇平站,2014-06-12,22.9677,120.6857,0.00055773975
C0AI30,三重,2014-06-12,25.057328,121.500629,0.0935323
C0AH00,汐止,2014-06-12,25.066881,121.658778,0.9971406
C1Z040,立山,2014-06-12,23.443356,121.327375,0.99684006
C0W130,花嶼,2014-06-12,23.40007,119.32276,0.9648391
C0A950,鼻頭角,2014-06-12,25.129036,121.923372,0.9752615
C0K470,林內,2014-06-12,23.748675,120.609642,0.37893534
C2F990,摩天嶺,2014-06-12,24.322458,120.936819,1.2762112e-09
82C160,茶改場,2014-06-12,24.908472,121.185333,3.721603e-07
C0Z320,清水林道,2014-06-12,23.27125,121.188272,0.0018324082
C0R760,南仁湖,2014-06-12,22.084681,120.863353,2.8007391e-06
C0M670,大林,2014-06-12,23.600616,120.45841,0.00044904527
C0M800,茶山,2014-06-12,23.299075,120.664767,4.061483e-05
C0A9C0,天母,2014-06-12,25.117494,121.537169,0.08600964
72K220,南改斗南分場,2014-06-12,23.634556,120.477333,0.642853
72AI40,桃改樹林分場,2014-06-12,24.944503,121.386972,0.0823922
C0S910,蘭嶼燈塔,2014-06-12,22.081197,121.503117,2.3175598e-08
C0B050,八斗子,2014-06-12,25.144754,121.79167,0.9966325
C0U900,內城,2014-06-12,24.71813,121.68766,0.9197037
C0X320,柳營,2014-06-12,23.253328,120.375253,0.016090458
C0M790,新港,2014-06-12,23.553269,120.345728,0.4059131
C0F9T0,西屯,2014-06-12,24.179494,120.641275,0.037033997
C0SA30,都歷,2014-06-12,23.020333,121.323642,0.01600123
C0C620,蘆竹,2014-06-12,25.084275,121.265767,0.13202317
C0R730,大坪頂,2014-06-12,22.024633,120.69355,0.0019007546
C0AJ40,石門,2014-06-12,25.273672,121.601198,0.13578835
C0E750,苗栗,2014-06-12,24.564569,120.824575,0.00871723
C0T870,鯉魚潭,2014-06-12,23.935639,121.508944,0.973762
C1V170,排雲,2014-06-12,23.463619,120.954147,1.1635788e-08
C2H950,中寮,2014-06-12,23.884447,120.766406,0.00067962066
C0R350,貓鼻頭,2014-06-12,21.921774,120.7358,0.1482438
C0V660,岡山,2014-06-12,22.797078,120.294958,0.29632735
C1H941,雙冬,2014-06-12,23.967378,120.802189,2.321307e-08
C0AJ70,田寮,2014-06-12,25.2698,121.4886,0.40904683
C0AI00,五股,2014-06-12,25.07445,121.42728,6.751675e-07
C0Z280,德武,2014-06-12,23.47426,121.41071,0.9931695
C0R700,枋山,2014-06-12,22.246844,120.661086,0.055875067
C0C460,復興,2014-06-12,24.820208,121.352281,0.013532544
E2H360,蓮華池,2014-06-12,23.918333,120.885278,3.0278557e-08
C0M640,中埔,2014-06-12,23.42538,120.5229,0.06664597
C0W140,金沙,2014-06-12,24.488292,118.408778,0.96299124
C2A540,四堵,2014-06-12,24.8926,121.745736,0.98726994
C0ACA0,新莊,2014-06-12,25.051478,121.446756,0.1958358
C0R220,潮州,2014-06-12,22.534361,120.54,0.37998632
U2HA40,臺大內茅埔,2014-06-12,23.689722,120.851117,8.342103e-07
467490,臺中,2014-06-12,24.145736,120.684075,4.384419e-06
C0U960,翠峰湖,2014-06-12,24.510856,121.608044,3.3204273e-09
E2HA20,林試畢祿溪站,2014-06-12,24.226944,121.308522,2.6143336e-09
C0V890,前鎮,2014-06-12,22.5718,120.3117,0.3169069
467620,蘭嶼,2014-06-12,22.036969,121.558339,4.9656492e-09
C1F941,雪嶺,2014-06-12,24.280586,121.026642,3.909816e-09
C2H9E0,國姓南港,2014-06-12,23.911108,120.846556,3.0308527e-09
C0AC80,文山,2014-06-12,25.00235,121.575728,0.07278883
C0F9R0,龍井,2014-06-12,24.184536,120.528972,0.33902308
C0M760,民雄,2014-06-12,23.551754,120.428457,0.0001693418
C0UA40,西德山,2014-06-12,24.560647,121.752608,6.614756e-08
C1T920,中興,2014-06-12,23.769503,121.498653,0.88503796
C0D550,雪霸,2014-06-12,24.526972,121.11605,1.8930126e-09
C2F860,梨山,2014-06-12,24.247522,121.243669,2.700034e-09
C0R320,車城,2014-06-12,22.0744,120.716247,0.1598957
C1S870,南美山,2014-06-12,23.15025,121.382333,0.01864124
C0B020,基隆嶼,2014-06-12,25.19141,121.78391,0.9971406
C1U501,牛鬥,2014-06-12,24.637836,121.573656,0.8140776
C0M730,嘉義市東區,2014-06-12,23.457673,120.460531,2.3659213e-05
C0S700,知本,2014-06-12,22.684866,121.005642,3.757913e-06
C1N001,沙崙,2014-06-12,22.935472,120.309406,0.43944424
C0V760,橋頭,2014-06-12,22.757806,120.30575,0.3056779
C0G960,福寶,2014-06-12,24.0443,120.3814,0.61542016
C0X210,白河,2014-06-12,23.347466,120.414427,0.012425377
C0S810,東河,2014-06-12,22.972672,121.303986,0.5099675
C2R170,屏東,2014-06-12,22.66027,120.49403,0.7708555
C0R670,楓港,2014-06-12,22.190131,120.692156,0.055912755
C0FA50,霧峰,2014-06-12,24.0419,120.6995,1.5010011e-05
C0UB10,蘇澳,2014-06-12,24.5969,121.8571,0.038380712
C0G950,防潮門,2014-06-12,24.1835,120.4871,0.34037164
C0M740,六腳,2014-06-12,23.492871,120.290625,0.35200056
C1R250,力里,2014-06-12,22.428117,120.629228,0.122716725
C0K330,虎尾,2014-06-12,23.719183,120.442036,0.43193242
C2FA00,烏石坑,2014-06-12,24.273503,120.947617,1.2926447e-09
C0V620,永安,2014-06-12,22.82315,120.236856,0.15349878
C1I330,楓樹林,2014-06-12,23.986803,121.076117,3.4281755e-09
C0W200,湖西,2014-06-12,23.596314,119.67275,0.99030995
72Q010,高雄農改場,2014-06-12,22.709333,120.525889,0.73224425
C0SA40,瑞和,2014-06-12,22.974361,121.156697,0.014508522
C0C680,龜山,2014-06-12,25.02846,121.38656,0.7442613
C2V260,月眉,2014-06-12,22.971003,120.539853,0.048277397
C0V450,鳳森,2014-06-12,22.545064,120.392592,0.021610392
C0U720,南山,2014-06-12,24.43742,121.38167,4.6232465e-08
A2N290,臺南蘭花園區,2014-06-12,23.340258,120.379661,0.016163263
C0R560,新園,2014-06-12,22.5434,120.461558,0.15898909
C0U890,三星,2014-06-12,24.66812,121.65302,0.95363134
C1V300,御油山,2014-06-12,23.001983,120.715364,4.1970294e-09
C0U600,礁溪,2014-06-12,24.817539,121.765608,0.88975435
C1T980,龍澗,2014-06-12,24.023289,121.411328,2.1909262e-08
C0D670,海天一線,2014-06-12,24.831986,120.914438,0.0026811578
C0SA00,歷坵,2014-06-12,22.520969,120.89185,3.9985644e-06
C0M710,東石,2014-06-12,23.458927,120.15385,0.55157846
C0M780,鹿草,2014-06-12,23.41134,120.30835,0.41476744
C0U520,雙連埤,2014-06-12,24.753033,121.641303,0.43221217
C0B010,七堵,2014-06-12,25.094819,121.71713,0.99744195
C0R480,長治,2014-06-12,22.693128,120.542622,0.00018194715
C1V830,國三S383K,2014-06-12,22.781967,120.426475,0.68381095
12Q980,恆春工作站,2014-06-12,22.079678,120.714425,0.1598957
C1O940,東山服務區,2014-06-12,23.286016,120.398472,0.008379696
C1U840,東澳嶺,2014-06-12,24.5378,121.8485,4.1159933e-06
C1D630,飛鳳山,2014-06-12,24.766464,121.119178,3.311781e-09
C0S940,石寧山,2014-06-12,23.223772,121.406639,0.9806846
C0K410,北港,2014-06-12,23.573957,120.292802,0.42971784
C2M620,瑞里,2014-06-12,23.545133,120.675197,3.468235e-09
C0SB70,小港漁港,2014-06-12,23.158558,121.400431,0.8042536
C2O950,安南,2014-06-12,23.076694,120.144861,0.3859571
C0F0E0,南湖圈谷,2014-06-12,24.363714,121.444667,1.3122929e-08
467610,成功,2014-06-12,23.097486,121.373428,0.019347044
C0G890,伸港,2014-06-12,24.148933,120.484403,0.23466924
C2E540,龍溪,2014-06-12,24.606489,120.783933,0.028655676
C1V200,梅山,2014-06-12,23.268447,120.823556,2.8453401e-08
C0T9H0,加路蘭山,2014-06-12,23.682947,121.5274,0.7160153
C2O930,玉井,2014-06-12,23.126042,120.46055,0.0020010541
C1F911,新伯公,2014-06-12,24.221361,120.841069,1.0828147e-06
C0R490,九如,2014-06-12,22.7405,120.490503,0.77489424
C0X200,左鎮,2014-06-12,23.056758,120.408522,0.04693053
C0SB50,叭嗡嗡,2014-06-12,23.047062,121.343223,0.5136323
C1F891,稍來,2014-06-12,24.265689,121.001142,2.4602949e-09
72N240,七股研究中心,2014-06-12,23.081672,120.062894,0.6495122
C0C700,中壢,2014-06-12,24.977661,121.256375,1.2786261e-06
C0M690,水上,2014-06-12,23.419734,120.388909,0.00010565914
C0V690,鼓山,2014-06-12,22.623325,120.275575,0.36844987
C0O860,大內,2014-06-12,23.11885,120.36083,0.5437538
C0Z200,萬榮,2014-06-12,23.709219,121.420106,0.973762
C0T9D0,和中,2014-06-12,24.26676,121.74103,0.840964
C1O921,楠西,2014-06-12,23.183511,120.484083,0.0012012275
C0AJ30,淡水觀海,2014-06-12,25.184591,121.408616,0.14291161
C0V810,左營,2014-06-12,22.67491,120.28491,0.1300176
C0UA70,桃源谷,2014-06-12,24.962606,121.888875,0.99847734
C0X130,官田,2014-06-12,23.193217,120.315422,0.5660142
C1H000,翠峰,2014-06-12,24.109397,121.205211,3.0949372e-09
C0UA90,石城,2014-06-12,24.980444,121.951214,0.959358
C1E681,南勢山,2014-06-12,24.421669,120.923831,1.4814365e-09
C0A9F0,內湖,2014-06-12,25.079422,121.57545,0.086188555
C0K291,宜梧,2014-06-12,23.536281,120.169329,0.5353569
C1K540,口湖,2014-06-12,23.585344,120.180517,0.6600138
C0R780,滿州,2014-06-12,22.024403,120.839892,0.13666159
C0V870,文安,2014-06-12,22.8025,120.2164,0.14982548
C0U650,玉蘭,2014-06-12,24.675286,121.587061,0.63805586
C0R640,東港,2014-06-12,22.46247,120.44074,0.3167383
K2E360,苗栗農改,2014-06-12,24.495722,120.829111,0.0013242048
C0AJ80,板橋,2014-06-12,25.0107,121.4489,0.08966514
C0S660,下馬,2014-06-12,23.150427,121.070312,1.0094916e-05
C1H9B1,阿眉,2014-06-12,24.1263,120.994672,1.4821063e-09
C0UA20,多加屯,2014-06-12,24.368614,121.373189,4.5426343e-09
C0E730,頭份,2014-06-12,24.688247,120.912206,0.0015007242
72V140,高改旗南分場,2014-06-12,22.857861,120.516667,1.2460964e-05
C0K480,莿桐,2014-06-12,23.761192,120.502372,0.62886775
C0U980,坪林石牌,2014-06-12,24.86478,121.77396,0.7321101
C0T900,西林,2014-06-12,23.8119,121.441458,0.9853857
C1I150,青雲,2014-06-12,23.793361,120.949378,5.7589933e-08
467350,澎湖,2014-06-12,23.565503,119.563094,0.9965111
C0G800,埔鹽,2014-06-12,24.000394,120.431683,0.62359977
C0H960,草屯,2014-06-12,23.973672,120.68085,0.046246335
C1V780,多納林道,2014-06-12,22.888028,120.737917,4.237942e-09
C0E920,通霄漁港,2014-06-12,24.498589,120.673876,0.24357621
C0Z330,安通山,2014-06-12,23.290728,121.348528,0.58836246
C0AH10,永和,2014-06-12,25.01125,121.508111,0.08966882
C0AK10,太平里,2014-06-12,25.134937,121.364899,0.1958358
C2G640,鹿港,2014-06-12,24.0753,120.430481,0.62404513
C1E890,國三N149K,2014-06-12,24.463414,120.680019,0.16757959
C1R110,口社,2014-06-12,22.770111,120.645222,0.003322557
C1M870,國三N285K,2014-06-12,23.550319,120.505833,0.17872602
467050,新屋,2014-06-12,25.006744,121.047486,0.021585498
C1E480,鳳美,2014-06-12,24.554803,121.034747,8.3149494e-08
C0M530,奮起湖,2014-06-12,23.493903,120.699253,2.9154097e-09
C0C590,觀音,2014-06-12,25.027072,121.153317,0.07926113
C0T9M0,靜浦,2014-06-12,23.455167,121.495028,0.9873912
C2H9M0,發祥,2014-06-12,24.154094,121.164517,4.46183e-09
C0AI40,石牌,2014-06-12,25.115597,121.513139,0.08966514
C1F871,上谷關,2014-06-12,24.203483,121.018644,1.2931675e-09
C2H9G0,百勝,2014-06-12,24.051142,120.909361,1.409628e-07
C0G880,二水,2014-06-12,23.810742,120.6173,0.6095485
C0R940,加祿堂,2014-06-12,22.3363,120.6217,0.057350803
C0W220,北竿,2014-06-12,26.220358,119.974881,0.9625105
C0O960,崎頂,2014-06-12,22.959547,120.369317,0.11137772
C0S750,向陽,2014-06-12,23.248397,120.986133,4.5497446e-09
C0T9F0,水璉,2014-06-12,23.797131,121.542514,0.9932744
C1M600,頭凍,2014-06-12,23.406364,120.603339,4.2676724e-08
467660,臺東,2014-06-12,22.752211,121.154586,0.5426243
C1D380,新埔,2014-06-12,24.84745,121.03834,7.861691e-06
C2G980,田頭村,2014-06-12,23.8263,120.444175,0.50118333
C0V750,路竹,2014-06-12,22.854997,120.259439,0.41414222
C0N050,蚵寮,2014-06-12,23.301,120.1104,0.41315395
72M700,南改鹿草分場,2014-06-12,23.416869,120.283061,0.42355794
C1SA50,利嘉林道,2014-06-12,22.82325,121.009389,4.360459e-09
467550,玉山,2014-06-12,23.487614,120.959522,1.3444435e-08
C0A940,金山,2014-06-12,25.223628,121.643967,0.39381248
C1V340,大津,2014-06-12,22.888322,120.645986,0.9164655
C0W180,七美,2014-06-12,23.219333,119.444892,0.9788947
C1F9C1,白冷,2014-06-12,24.182844,120.929889,2.2150278e-08
K2E710,苗改生物防治研究中心,2014-06-12,24.422861,120.871833,1.9325678e-06
C0N040,蘆竹溝,2014-06-12,23.2344,120.0961,0.41315395
C2W230,畜試所澎湖,2014-06-12,23.628342,119.513206,0.93571776
C0R880,後壁湖,2014-06-12,21.9457,120.7457,0.15149018
C1I280,埔中,2014-06-12,23.820778,120.642594,0.0027227963
467790,墾丁雷達站,2014-06-12,21.948235,120.808028,0.10706378
C0W190,望安,2014-06-12,23.380564,119.494075,0.9869066
466881,新北,2014-06-12,24.9593,121.52,0.08262035
C0Z170,卓溪,2014-06-12,23.3443,121.3029,0.9963684
C0F850,東勢,2014-06-12,24.246428,120.833047,3.84787e-06
466900,淡水,2014-06-12,25.164889,121.448906,0.14036387
C0I370,魚池,2014-06-12,23.895703,120.94135,3.0771627e-08
C0C630,大溪,2014-06-12,24.882853,121.265547,2.8581364e-06
C0A520,山佳,2014-06-12,24.974944,121.402008,0.0823922
C0I110,竹山,2014-06-12,23.761225,120.688156,0.0030176523
82H840,茶改南部分場,2014-06-12,23.762528,120.7405,1.5199211e-07
C0G660,溪湖,2014-06-12,23.94835,120.479122,0.34295946
C1T800,洛韶,2014-06-12,24.204558,121.453956,2.4395625e-08
C1T810,慈恩,2014-06-12,24.192044,121.388386,2.8474343e-09
C1E451,象鼻,2014-06-12,24.368617,120.940228,1.4814365e-09
C0AC60,三峽,2014-06-12,24.939025,121.369728,0.07649232
C0I490,萬大林道,2014-06-12,23.928228,121.091411,3.1488783e-09
C1I290,豐丘,2014-06-12,23.668178,120.887417,7.1961503e-09
C1I320,奧萬大,2014-06-12,23.952956,121.178556,3.3571526e-09
C2M910,嘉義大學,2014-06-12,23.471325,120.485903,0.21136785
C0U770,南澳,2014-06-12,24.44935,121.81022,0.45402625
C0A980,社子,2014-06-12,25.109508,121.469681,0.097884536
C0V800,六龜,2014-06-12,22.997889,120.633583,0.21082589
C1G9D0,國一S218K,2014-06-12,23.890641,120.493253,0.33807182
C0E570,白沙屯,2014-06-12,24.549447,120.696803,0.27147865
C2F9A0,中竹林,2014-06-12,24.103556,120.751061,4.2439783e-07
C0FA40,臺中電廠,2014-06-12,24.2146,120.4907,0.33902308
C2G9A0,畜試所彰化,2014-06-12,23.86045,120.557964,0.6372687
C0H9C0,合歡山,2014-06-12,24.143442,121.272547,8.459785e-09
C0X060,下營,2014-06-12,23.22695,120.256261,0.556432
G2M350,農試溪口農場,2014-06-12,23.58565,120.408111,0.00039485688
C0U860,頭城,2014-06-12,24.85323,121.8308,0.8772082
C0R580,南州,2014-06-12,22.48591,120.50274,0.11486594
C0D430,峨眉,2014-06-12,24.6905,121.017189,4.560589e-05
C0G780,秀水,2014-06-12,24.03405,120.503869,0.45917702
72N100,臺南農改場,2014-06-12,23.0605,120.342194,0.67876637
C0S900,蘭嶼高中,2014-06-12,22.04909,121.51214,1.0509416e-07
467540,大武,2014-06-12,22.355675,120.903789,0.73514503
C1F9W0,德基,2014-06-12,24.254783,121.190261,1.9423114e-09
C1Z120,壽豐,2014-06-12,23.870853,121.508081,0.7599956
C0W160,烏坵,2014-06-12,24.9944,119.44956,0.8756581
C1I240,外大坪,2014-06-12,23.958697,120.917931,1.8326975e-08
C1I550,國六W023K,2014-06-12,23.979067,120.867742,5.9282634e-06
C0R870,興海,2014-06-12,21.9752,120.8439,0.1670551
C0R140,瑪家,2014-06-12,22.682903,120.686639,0.00072163605
C0A530,坪林,2014-06-12,24.938183,121.70975,0.7555693
C0X260,後壁,2014-06-12,23.366358,120.362326,0.14690469
C0Z230,和平,2014-06-12,24.30717,121.77007,0.840964
C0G770,福興,2014-06-12,24.041289,120.437669,0.62359977
C0H9A0,神木村,2014-06-12,23.532742,120.843667,3.756865e-09
C0I460,南投,2014-06-12,23.911469,120.687331,0.024272937
C0I480,梅峰,2014-06-12,24.085272,121.173572,2.523202e-09
C1V570,吉東,2014-06-12,22.85422,120.5454,5.8463324e-06
C2D740,屯原,2014-06-12,24.067969,121.209389,1.9027684e-09
C2A560,福山,2014-06-12,24.776203,121.502811,0.39985678
C0AH30,五分山,2014-06-12,25.07125,121.780794,4.1725975e-06
C0FA10,松柏,2014-06-12,24.429115,120.617482,0.40698773
72S200,東改班鳩分場,2014-06-12,22.829528,121.077694,0.0406989
72HA00,中改埔里分場,2014-06-12,23.903208,120.963364,4.1665704e-08
C2H9W0,大坪頂農水,2014-06-12,24.043122,120.932781,2.004205e-08
C0C650,平鎮,2014-06-12,24.897503,121.214636,3.721603e-07
C0S930,延平,2014-06-12,22.902581,121.084058,0.592098
C0UA60,樟樹山,2014-06-12,24.41393,121.78325,0.9198531
C1S670,摩天,2014-06-12,23.199503,121.027,6.781324e-09
C0V630,茄萣,2014-06-12,22.906642,120.182608,0.35968804
466940,基隆,2014-06-12,25.133314,121.740475,0.99688315
C0X050,東河,2014-06-12,23.296598,120.385608,0.016090458
C0R770,保力,2014-06-12,22.071122,120.764111,0.043950617
G2L020,農試嘉義分所,2014-06-12,23.485028,120.473806,0.1389721
C0X240,關子嶺,2014-06-12,23.331169,120.508025,8.724924e-07
C0I380,集集,2014-06-12,23.828206,120.801467,0.0059410753
466990,花蓮,2014-06-12,23.975128,121.613275,0.480499
C1V220,小關山,2014-06-12,23.154217,120.813603,3.709323e-09
C1F9G1,慶福山,2014-06-12,24.180853,120.848378,1.1848474e-09
C0Z250,瑞穗林道,2014-06-12,23.49284,121.30688,1.6262501e-07
C0D590,新豐,2014-06-12,24.87068,120.97721,0.030944489
C0A870,五指山,2014-06-12,25.132153,121.608692,1.8226198e-06
C0UA50,西帽山,2014-06-12,24.555361,121.802628,1.0017915e-05
C0X160,仁德,2014-06-12,22.968258,120.257689,0.5565883
C1H971,六分寮,2014-06-12,23.92507,120.6378,2.6939608e-06
C0W120,西嶼,2014-06-12,23.5626,119.468436,0.99650687
C0G650,員林,2014-06-12,23.946503,120.585597,0.05683702
C0AD50,鶯歌,2014-06-12,24.951533,121.346294,0.07752924
C2H9Q0,北東眼山,2014-06-12,24.120939,121.189303,1.8694886e-09
C2H9T0,名間竹圍,2014-06-12,23.859914,120.637572,0.0006295585
C0S990,山豬窟,2014-06-12,22.318619,120.857372,0.9702607
72Q010,高雄農改,2014-06-12,22.709333,120.525889,0.73224425
C0X190,安平,2014-06-12,22.993161,120.152181,0.63546836
C0K400,斗六,2014-06-12,23.720583,120.541127,0.6489924
12J990,口湖工作站,2014-06-12,23.589978,120.180394,0.66227764
C0O830,北寮,2014-06-12,23.079561,120.495008,0.10281187
C1D410,白蘭,2014-06-12,24.579364,121.079947,2.8871656e-09
C0S970,加津林,2014-06-12,22.416211,120.926942,0.77516717
C0D700,關西,2014-06-12,24.7977,121.1732,1.4895585e-06
C0M810,里佳,2014-06-12,23.389125,120.716647,2.9154097e-09
C0U750,龜山島,2014-06-12,24.841667,121.953133,0.6975587
C0R810,內獅,2014-06-12,22.305064,120.642986,0.057350803
C1M390,龍美,2014-06-12,23.406728,120.654417,6.030284e-09
C2FB60,頭櫃山,2014-06-12,24.129842,120.858925,4.3754635e-09
C1H840,國三N238K,2014-06-12,23.841008,120.707711,0.004223139
CAQ030,崎峰國小,2014-06-12,22.42565,120.49521,0.11486594
C2E520,大湖,2014-06-12,24.414939,120.870872,2.1313505e-07
467530,阿里山,2014-06-12,23.508208,120.813242,5.609907e-09
C1E691,南湖,2014-06-12,24.40135,120.837533,4.6296154e-09
C0FA30,梧棲,2014-06-12,24.256003,120.523381,0.33902308
C1V231,高中,2014-06-12,23.134911,120.716711,2.4625184e-05
C0F9V0,新社,2014-06-12,24.200172,120.815806,3.6315143e-08
C0H890,埔里,2014-06-12,23.972169,120.952425,9.95619e-08
C0R690,墾丁,2014-06-12,21.966756,120.810269,5.3576947e-05
C0F0D0,審馬陣,2014-06-12,24.381675,121.4203,9.2122185e-09
C0R820,白鷺,2014-06-12,22.454275,120.666219,0.0015292978
U2H480,臺大溪頭,2014-06-12,23.670306,120.798194,9.023121e-09
C1V190,南天池,2014-06-12,23.27403,120.91176,4.862282e-09
K2E360,苗栗農改場,2014-06-12,24.495722,120.829111,0.0013242048
CAJ050,海口故事園區,2014-06-12,23.57543,120.14121,0.65925735
C2H9D0,三隻寮,2014-06-12,24.093078,120.861578,1.6107986e-08
C0O990,媽廟,2014-06-12,22.99175,120.293525,0.5711309
C0D480,打鐵坑,2014-06-12,24.849664,121.150789,2.0510408e-08
C0Z220,和平林道,2014-06-12,24.343922,121.656317,0.91067576
C0TA10,花蓮漁港,2014-06-12,23.995322,121.638331,0.46299252
72C440,桃園農改場,2014-06-12,24.950944,121.030583,0.029468305
C1E711,馬拉邦山,2014-06-12,24.367306,120.901656,2.9813036e-09
C0SB20,富岡,2014-06-12,22.792467,121.192669,0.5318572
C0D560,竹東,2014-06-12,24.767147,121.057881,9.743758e-07
C0F9U0,南屯,2014-06-12,24.137006,120.637969,0.0015397349
C0M720,番路,2014-06-12,23.464657,120.554156,0.0075722192
C0F0A0,雪山圈谷,2014-06-12,24.388594,121.236339,1.2543166e-08
C1A9N0,四十份,2014-06-12,24.934158,121.593283,0.10605052
C0U760,東澳,2014-06-12,24.52196,121.83318,0.5440757
C0X230,鹽水,2014-06-12,23.272621,120.247641,0.539574
C2H9H0,苗改南投蜂場,2014-06-12,23.852589,120.693481,0.0030250915
C0R950,萬隆國小,2014-06-12,22.507667,120.587817,0.0020501749
C0V370,古亭坑,2014-06-12,22.893178,120.401947,0.086697325
C1I340,新興橋,2014-06-12,23.563333,120.868728,2.7214664e-08
C0SA80,土坂,2014-06-12,22.453108,120.887572,0.87740403
C0R160,鹽埔,2014-06-12,22.739558,120.530778,0.0002472152
C0AC40,大屯山,2014-06-12,25.175675,121.522408,1.254319e-08
466850,五分山雷達站,2014-06-12,25.071182,121.781205,3.5835087e-06
C2H9L0,馬烈霸,2014-06-12,24.1512,121.201772,1.891724e-09
C1AI50,國三N016K,2014-06-12,25.034164,121.619664,0.07379354
C1V600,藤枝,2014-06-12,23.071961,120.757042,4.693247e-09
C1E601,南勢,2014-06-12,24.572486,120.734842,0.0029065043
C0Z180,新城,2014-06-12,24.03946,121.60454,0.52448875
C0O980,新市,2014-06-12,23.061614,120.298197,0.64626074
C0K420,西螺,2014-06-12,23.800407,120.467394,0.6673941
C0Z050,佳心,2014-06-12,23.34567,121.21316,9.198901e-07
C0AD30,蘆洲,2014-06-12,25.086594,121.472331,0.0935323
C0V610,梓官,2014-06-12,22.760558,120.267211,0.29632723
K2F750,種苗改良場,2014-06-12,24.225972,120.800917,1.9358755e-07
C0UA80,大溪漁港,2014-06-12,24.941801,121.902955,0.88975435
C1AI60,國一39K邊坡,2014-06-12,25.064361,121.383836,0.81101775
C0W150,金寧,2014-06-12,24.457703,118.328989,0.9674181
C0R960,內埔,2014-06-12,22.608483,120.570714,0.0036625166
V2C250,八德合作社,2014-06-12,24.93775,121.266389,1.8000394e-06
C2H9S0,龍南,2014-06-12,23.953536,120.833183,1.5568021e-09
C0AH40,平等,2014-06-12,25.129142,121.577086,0.27366912
C0R540,佳冬,2014-06-12,22.419456,120.552375,0.14619473
466950,彭佳嶼,2014-06-12,25.627975,122.079744,0.99344385
C0A890,雙溪,2014-06-12,25.036003,121.864242,0.99738455
C0C480,桃園,2014-06-12,24.992425,121.323172,2.4383683e-06
C0AH50,林口,2014-06-12,25.072181,121.38084,0.36566797
A2K360,水試臺西試驗場,2014-06-12,23.717231,120.190522,0.24483764
B2N890,畜試所,2014-06-12,23.058972,120.336406,0.6787355
C2M960,外寮,2014-06-12,23.562643,120.665688,4.5360715e-09
C0F9S0,烏日,2014-06-12,24.107058,120.624103,0.35976475
C0C490,八德,2014-06-12,24.928708,121.283289,1.2953701e-05
C0R190,赤山,2014-06-12,22.592333,120.614306,0.0025229969
C0T820,天祥,2014-06-12,24.179597,121.495639,0.5912596
C1F9E1,龍安,2014-06-12,24.1605,120.831961,2.2144448e-08
C0V820,小林,2014-06-12,23.148408,120.63325,1.8415405e-05
C2G870,芳苑,2014-06-12,23.922303,120.320025,0.092421815
C0E850,大河,2014-06-12,24.618069,120.948578,0.00041672544
C1U670,寒溪,2014-06-12,24.634,121.71691,0.16169538
C0N020,城西,2014-06-12,23.0568,120.0956,0.6790221
C1Z110,三棧,2014-06-12,24.11557,121.60501,0.1627372
C0R280,檳榔,2014-06-12,22.076078,120.836777,9.2850445e-05
C2H9J0,中台,2014-06-12,23.9996,120.938739,1.41367815e-08
C0F9L0,后里,2014-06-12,24.310436,120.729725,2.0976238e-06
C0D540,橫山,2014-06-12,24.71116,121.11693,3.109139e-08
C1D420,太閣南,2014-06-12,24.632808,121.160575,2.4718376e-09
C1E770,公館,2014-06-12,24.526914,120.830806,0.13844769
CAN130,水試所海水繁養殖中心,2014-06-12,23.120802,120.07968,0.6495122
C1I430,翠華,2014-06-12,24.191961,121.224339,3.3915077e-09
C1M400,菜瓜坪,2014-06-12,23.251928,120.576103,6.861529e-05
C0G730,二林,2014-06-12,23.903325,120.376081,0.7000458
72M360,南改義竹分場,2014-06-12,23.360694,120.279361,0.5515751
V2K620,麥寮合作社,2014-06-12,23.753836,120.294783,0.08199262
C0Z070,舞鶴,2014-06-12,23.46811,121.37407,0.9961334
C0B040,大武崙,2014-06-12,25.166676,121.706993,0.99743694
C1Z030,紅葉,2014-06-12,23.493119,121.338806,0.9936195
C1I050,丹大,2014-06-12,23.753747,121.141147,3.9227612e-09
C0I080,信義,2014-06-12,23.689694,120.851036,8.342103e-07
C2M920,朴子農改,2014-06-12,23.469889,120.259383,0.35257235
C2A880,福隆,2014-06-12,25.017842,121.942083,0.9812872
C0Z160,鳳林,2014-06-12,23.746114,121.453411,0.98364323
C0V210,復興,2014-06-12,23.222403,120.806089,8.3152804e-07
C0H990,昆陽,2014-06-12,24.121322,121.273642,5.705548e-09
C0R741,獅子,2014-06-12,22.202308,120.705236,0.07380642
C0S710,鹿野,2014-06-12,22.917711,121.122994,0.7680771
C0I530,小奇萊,2014-06-12,24.131764,121.295717,6.559084e-09
C2K630,荷苞,2014-06-12,23.657717,120.595144,0.71461916
C0Z080,富源,2014-06-12,23.587642,121.378225,0.9936659
467441,高雄,2014-06-12,22.7304,120.3125,0.1300176
C0SB10,美和,2014-06-12,22.682078,121.060236,0.13709402
C2K620,馬光農場,2014-06-12,23.721453,120.378864,0.45048046
C1I140,卡奈托灣,2014-06-12,23.754364,121.087872,1.8551983e-09
C0I520,玉山風口,2014-06-12,23.470489,120.955994,1.3982428e-08
C1G691,下水埔,2014-06-12,23.816114,120.5676,0.7605453
C0X110,臺南市南區,2014-06-12,22.961189,120.188378,0.64710915
C0V680,仁武,2014-06-12,22.701083,120.347722,0.13032691
C2G840,北斗,2014-06-12,23.877586,120.514222,0.32351002
C0R900,竹坑,2014-06-12,22.1385,120.7022,0.020027846
C0K250,崙背,2014-06-12,23.75555,120.318925,0.069387905
C0G860,社頭,2014-06-12,23.897647,120.5862,0.048286997
C0X150,安定,2014-06-12,23.102614,120.227839,0.6504533
C0R590,里港,2014-06-12,22.77919,120.49459,0.000110428235
C0E610,馬都安,2014-06-12,24.451272,120.930192,4.9096234e-09
C0E550,明德,2014-06-12,24.583486,120.885411,0.0006712791
C0R150,三地門,2014-06-12,22.709889,120.639944,0.0019286126
C0G910,花壇,2014-06-12,24.032076,120.549461,0.48663226
C1D400,鳥嘴山,2014-06-12,24.71909,121.28387,4.7771243e-07
C0K500,元長,2014-06-12,23.64981,120.315024,0.039225504
C0F0B0,石岡,2014-06-12,24.276061,120.777644,0.19640122
C2V250,甲仙,2014-06-12,23.080106,120.591758,0.00042855288
C0SA20,金崙山,2014-06-12,22.567419,120.959667,2.3148225e-06
C0V350,溪埔,2014-06-12,22.738578,120.446797,0.6503
C0M660,溪口,2014-06-12,23.604131,120.403569,0.00039485688
C1S880,壽卡,2014-06-12,22.238911,120.858903,0.9802199
72D680,桃改新埔分場,2014-06-12,24.834444,121.066111,6.6422044e-06
