站號,站名,日期,lat,lon,BLBTSLS
C0R710,龍磐,2014-02-19,21.931672,120.838942,0.99740803
C1F9D1,白毛台,2014-02-19,24.158325,120.886933,1.4567377e-08
C0G940,竹塘,2014-02-19,23.848253,120.386764,7.2805597e-09
467590,恆春,2014-02-19,22.003897,120.746339,0.9986152
C1O850,環湖,2014-02-19,23.148617,120.418633,6.069416e-08
C0U710,太平山,2014-02-19,24.505486,121.525656,4.9081276e-08
C0E820,獅潭,2014-02-19,24.539133,120.920042,8.642255e-08
C0V880,興達,2014-02-19,22.8778,120.2127,1.0156584e-08
C0S890,關山,2014-02-19,23.0395,121.175017,2.2733882e-06
C0SB30,新蘭,2014-02-19,22.869214,121.223228,1.63833e-05
C2R970,屏科大,2014-02-19,22.648275,120.619247,2.0377857e-09
K2F750,種苗繁殖,2014-02-19,24.225972,120.800917,1.5179172e-08
C1Z130,銅門,2014-02-19,23.965694,121.492842,5.4764615e-07
C0AD40,土城,2014-02-19,24.973208,121.445169,2.0256307e-07
CAN140,六官養殖協會,2014-02-19,23.22881,120.29962,1.3815864e-08
C0X180,山上,2014-02-19,23.0757,120.363253,1.7258948e-08
C0F9Z0,雪山東峰,2014-02-19,24.388792,121.268675,5.748425e-08
C1M480,獨立山,2014-02-19,23.537022,120.607797,8.392141e-09
C0X220,學甲,2014-02-19,23.230367,120.182187,2.8506909e-08
467650,日月潭,2014-02-19,23.881325,120.90805,1.1025561e-08
C0K600,箔子寮,2014-02-19,23.6197,120.14,6.4695904e-08
C0G830,埤頭,2014-02-19,23.866003,120.452806,6.998535e-09
C0S950,七塊厝,2014-02-19,22.954453,121.229922,6.0483603e-07
467110,金門,2014-02-19,24.407306,118.289281,2.7770804e-08
C0AH80,深坑,2014-02-19,25.002703,121.628328,2.4045855e-07
467990,馬祖,2014-02-19,26.169269,119.923419,8.346904e-08
C0A970,三貂角,2014-02-19,25.007606,122.002058,4.5335913e-08
C2D730,寶山農場,2014-02-19,24.732444,120.976153,1.6354872e-07
C0K430,褒忠,2014-02-19,23.690938,120.303634,6.414244e-07
467480,嘉義,2014-02-19,23.495925,120.432906,5.2385604e-07
C2E540,後龍,2014-02-19,24.606489,120.783933,6.873267e-06
C0V400,阿公店,2014-02-19,22.804194,120.355528,4.491047e-09
C0R440,大漢山,2014-02-19,22.405264,120.753181,3.4087147e-08
C0K280,四湖,2014-02-19,23.630414,120.227125,1.5258161e-06
C1F9B1,桐林,2014-02-19,24.066172,120.735194,6.179296e-09
C2H9U0,鳳鵬,2014-02-19,23.763919,120.788061,6.693696e-09
C0K390,土庫,2014-02-19,23.679029,120.395574,6.353537e-09
C1I450,望鄉山,2014-02-19,23.594153,120.944286,3.33984e-08
C0E910,海埔,2014-02-19,24.648767,120.772435,1.6623596e-07
B2E890,畜試北區分所,2014-02-19,24.527806,120.770972,1.0840735e-05
C0R750,四林格山,2014-02-19,22.076989,120.802439,0.00018094043
C0F0C0,中坑,2014-02-19,24.248517,120.903319,2.3180418e-08
C1I121,大鞍,2014-02-19,23.678381,120.760017,1.2998696e-08
72U480,花改蘭陽分場,2014-02-19,24.686306,121.716583,1.0758435e-07
C0A770,科教館,2014-02-19,25.096356,121.516507,2.084187e-07
C0AJ60,六塊厝,2014-02-19,25.24,121.4481,1.3566114e-07
C0R620,墾雷,2014-02-19,21.900836,120.855269,0.9985796
467420,永康,2014-02-19,23.038386,120.2367,1.1988489e-08
467300,東吉島,2014-02-19,23.25695,119.667467,0.9100681
C0I410,名間,2014-02-19,23.837053,120.701447,7.831264e-09
A2C560,農工中心,2014-02-19,24.985917,121.239833,1.387734e-07
C0V740,旗山,2014-02-19,22.888614,120.483597,4.1610907e-08
C0Z061,玉里,2014-02-19,23.3215,121.339656,3.7763363e-07
C0S840,南田,2014-02-19,22.279725,120.889208,0.9972588
C1I470,杉林溪,2014-02-19,23.639517,120.786444,1.48130725e-08
C1X040,東原,2014-02-19,23.291597,120.463822,4.955289e-09
C0R660,枋寮,2014-02-19,22.367722,120.590647,1.5682553e-09
C1R120,上德文,2014-02-19,22.763272,120.704442,3.678178e-08
C0K450,大埤,2014-02-19,23.646074,120.431537,5.6891283e-09
C0UA00,土場,2014-02-19,24.576533,121.495333,4.220053e-08
467080,宜蘭,2014-02-19,24.763975,121.756528,5.4337555e-08
C0N030,四草,2014-02-19,23.0235,120.1116,4.7405447e-08
C0V650,彌陀,2014-02-19,22.783806,120.246361,5.316756e-09
C0D660,新竹市東區,2014-02-19,24.798681,120.986942,1.6886797e-07
82S580,茶改東部分場,2014-02-19,22.907694,121.130139,1.1304335e-06
C0SB40,興隆,2014-02-19,22.913661,121.257469,2.662667e-06
C0C710,大溪永福,2014-02-19,24.892936,121.324975,1.3486472e-07
C0FA20,溫寮,2014-02-19,24.372177,120.583125,3.5040255e-05
C0V640,湖內,2014-02-19,22.887139,120.2445,9.99523e-09
C0R910,下寮,2014-02-19,22.3929,120.5548,8.704288e-09
C0Z020,明里,2014-02-19,23.208717,121.262342,2.6953e-07
C0M770,嘉義梅山,2014-02-19,23.585398,120.555587,9.736112e-09
G2F820,農業試驗所,2014-02-19,24.031261,120.688133,1.2806635e-05
C0C660,楊梅,2014-02-19,24.912375,121.143047,1.571717e-07
C1E511,新開,2014-02-19,24.347703,120.827019,8.808655e-09
G2F820,農試所(霧峰),2014-02-19,24.031261,120.688133,1.2806635e-05
C1I070,和社,2014-02-19,23.591131,120.888861,7.269861e-09
C2F000,大肚,2014-02-19,24.15295,120.572117,1.0224905e-08
C1S850,豐南,2014-02-19,23.122139,121.262389,2.686362e-07
C2A920,富貴角,2014-02-19,25.263783,121.565258,1.0634494e-07
CAH030,茶改場竹圍站,2014-02-19,23.860083,120.637528,7.150766e-09
C0T960,光復,2014-02-19,23.660694,121.424964,2.4604121e-06
C0F9M0,豐原,2014-02-19,24.254322,120.720692,1.6672672e-07
C0R720,旭海,2014-02-19,22.205403,120.887614,0.028727794
C0V710,苓雅,2014-02-19,22.622742,120.330669,5.2998375e-09
C0C740,觀音工業區,2014-02-19,25.064764,121.114856,1.8498292e-07
CAC040,拉拉山,2014-02-19,24.699317,121.427133,4.8316746e-08
C0V790,萬山,2014-02-19,22.905944,120.688056,3.967798e-09
U2HA30,臺大和社,2014-02-19,23.590856,120.888864,7.269861e-09
C0AJ90,澳底,2014-02-19,25.0552,121.9253,5.0412428e-08
C0Z100,東華,2014-02-19,23.89525,121.549833,7.3134893e-06
C0G970,三豐,2014-02-19,23.882,120.2895,1.905475e-06
V2K610,大庄合作社,2014-02-19,23.8068,120.367939,1.184213e-06
C0V900,汕尾,2014-02-19,22.4782,120.4151,5.183539e-09
C1R630,龍泉,2014-02-19,22.66701,120.59091,1.8941793e-09
C1AC50,關渡,2014-02-19,25.133486,121.469331,1.6138424e-07
C0F9I0,神岡,2014-02-19,24.272481,120.658314,1.9318254e-07
C0K460,斗南,2014-02-19,23.678734,120.478359,7.9848075e-09
467410,臺南,2014-02-19,22.993239,120.204772,1.1638718e-08
C2O810,曾文,2014-02-19,23.219681,120.497328,3.425478e-08
467280,後龍,2014-02-19,24.648563,120.831834,1.5273172e-07
C1F9J1,清水林,2014-02-19,24.071242,120.820419,6.943754e-09
C2A650,火燒寮,2014-02-19,25.002719,121.742892,4.245832e-08
466930,竹子湖,2014-02-19,25.162078,121.544547,3.589952e-08
C1I220,樟湖,2014-02-19,23.905333,120.846983,1.049499e-08
C0I390,仁愛,2014-02-19,24.022122,121.132206,1.3009411e-08
C0Z300,東里,2014-02-19,23.26853,121.30547,3.5566967e-07
C1V590,新發,2014-02-19,23.057019,120.646064,1.2121989e-08
C0K510,水林,2014-02-19,23.572924,120.24597,6.3472534e-08
72S590,東改賓朗果園,2014-02-19,22.813889,121.071278,1.6185879e-06
82A750,茶改北部分場,2014-02-19,24.955778,121.631222,3.9653184e-08
C1A750,石碇服務區,2014-02-19,25.00872,121.646242,2.3135436e-07
C0X300,鹿寮,2014-02-19,23.386047,120.477331,4.094538e-09
G2AI50,關渡,2014-02-19,25.11575,121.492,2.1060676e-07
C0K590,雲林東勢,2014-02-19,23.674192,120.255721,6.414244e-07
C0A570,桶後,2014-02-19,24.848222,121.597992,4.8381576e-08
C1S800,華源,2014-02-19,22.657883,121.02325,1.8124269e-05
C0G720,溪州,2014-02-19,23.851589,120.499093,7.0461104e-09
C1V160,達卡努瓦,2014-02-19,23.279811,120.705319,1.2380021e-08
C2M410,馬頭山,2014-02-19,23.324361,120.582017,4.5314885e-09
C0V850,蚵仔寮,2014-02-19,22.7256,120.2527,4.5043786e-09
C0S740,池上,2014-02-19,23.119628,121.209469,1.0326182e-06
C1V390,尖山,2014-02-19,22.813153,120.367789,4.38467e-09
C0AH70,松山,2014-02-19,25.04871,121.55042,2.844709e-07
C0N010,鯤鯓國小,2014-02-19,23.1879,120.0889,1.1581214e-07
C0R550,新埤,2014-02-19,22.467947,120.582894,1.4596072e-09
C0SA60,知本（水試所）,2014-02-19,22.702394,121.082761,0.00057098985
C0T9I0,豐濱,2014-02-19,23.583897,121.514806,1.7085589e-06
C0UB00,淡江大學蘭陽校園,2014-02-19,24.823239,121.730383,3.089277e-08
C0W240,九宮,2014-02-19,24.423753,118.240186,2.6865148e-08
C0T9N0,富里,2014-02-19,23.171639,121.249378,4.270038e-07
U2HA50,臺大竹山,2014-02-19,23.756972,120.681556,6.8875363e-09
C0V840,鳳鼻頭,2014-02-19,22.5083,120.3591,5.5308718e-09
C0X140,西港,2014-02-19,23.125608,120.203108,4.0598486e-08
72D080,桃改五峰分場,2014-02-19,24.612194,121.157167,4.632815e-08
C2H9P0,伊拿谷,2014-02-19,23.963211,121.088264,8.1201e-09
C2H9F0,柑林,2014-02-19,24.018658,120.847072,7.158845e-09
C0TA20,加灣,2014-02-19,24.082025,121.608944,1.1215936e-06
C0V530,阿蓮,2014-02-19,22.883208,120.327508,6.354955e-09
C1O880,關山,2014-02-19,23.173397,120.594092,5.276256e-09
C0E791,卓蘭,2014-02-19,24.3126,120.8244,8.8449195e-09
C1I030,武界,2014-02-19,23.913225,121.052483,1.0352085e-08
C0R520,崁頂,2014-02-19,22.514781,120.506914,8.160546e-09
C0R341,牡丹,2014-02-19,22.130036,120.792639,2.1705452e-08
C0R930,萬丹,2014-02-19,22.5885,120.4851,1.4494782e-09
C0S760,紅石,2014-02-19,23.069131,121.126219,3.279167e-08
C1M610,石磐龍,2014-02-19,23.496606,120.663506,1.1290577e-08
C0UA10,鴛鴦湖,2014-02-19,24.590269,121.412228,5.3201873e-08
V2C260,八德蔬果,2014-02-19,24.978508,121.281819,2.2229703e-07
C0R800,丹路,2014-02-19,22.204481,120.750989,5.920984e-09
C0G920,永靖,2014-02-19,23.924703,120.547533,1.5338476e-07
C2M950,太和,2014-02-19,23.538372,120.702961,1.3288766e-08
C1A630,下盆,2014-02-19,24.771003,121.538622,6.7391376e-08
B2N890,畜產試驗所,2014-02-19,23.058972,120.336406,5.178499e-09
C0UA30,白嶺,2014-02-19,24.527819,121.519031,5.0361685e-08
C1V580,溪南(特生中心),2014-02-19,23.084972,120.788475,2.228172e-08
C1T970,大農,2014-02-19,23.615233,121.413331,1.6996028e-06
E2S960,林試太麻里2,2014-02-19,22.598014,120.989761,1.7756187e-05
C0R650,竹田,2014-02-19,22.58486,120.54344,1.4499288e-09
C1H900,清流,2014-02-19,24.080775,120.962997,8.42899e-09
C1C510,水尾,2014-02-19,24.940081,121.087161,1.8080432e-07
C0F9X0,大雅(中科園區),2014-02-19,24.21528,120.62445,4.943675e-06
C0SB60,白守蓮,2014-02-19,23.126769,121.401914,7.622392e-05
C0O970,虎頭埤,2014-02-19,23.021375,120.347878,1.6184517e-08
C0C730,中大臨海站,2014-02-19,24.966126,121.008581,5.453784e-07
C0X250,新營,2014-02-19,23.310689,120.316681,1.1562007e-08
C0V700,三民,2014-02-19,22.645017,120.311233,5.2998375e-09
C0U870,大礁溪,2014-02-19,24.791042,121.675047,3.6931162e-08
C0E870,高鐵苗栗,2014-02-19,24.60725,120.826094,6.281439e-06
A2K570,古坑花卉中心,2014-02-19,23.63353,120.55239,7.608032e-09
C0M860,新美,2014-02-19,23.338017,120.683169,7.9010745e-09
C1E701,八卦,2014-02-19,24.491756,120.927619,3.013383e-08
C0I420,國姓,2014-02-19,24.037803,120.855072,5.913039e-09
C2D720,關西工作站,2014-02-19,24.757275,121.184792,1.8699893e-07
C0S960,香蘭,2014-02-19,22.587569,120.993375,1.7756187e-05
C0R260,春日,2014-02-19,22.370361,120.628306,1.5360845e-09
72G600,臺中農改場,2014-02-19,24.003028,120.534389,1.2217872e-07
C0Z210,瑞穗,2014-02-19,23.5239,121.39021,1.949366e-06
C0M820,達邦,2014-02-19,23.453994,120.749517,9.40607e-09
C0V860,南寮,2014-02-19,22.7616,120.2339,5.3599685e-09
C0G740,大城,2014-02-19,23.852487,120.320935,1.7914458e-06
C0R920,塭仔,2014-02-19,22.4169,120.5197,8.8523455e-09
C0R470,高樹,2014-02-19,22.826389,120.600806,2.4693259e-09
C0R680,佳樂水,2014-02-19,21.993578,120.861633,0.99864054
C1O870,大棟山,2014-02-19,23.31157,120.52226,1.0223189e-08
C0D360,梅花,2014-02-19,24.678347,121.208558,7.4564156e-08
C0Z190,富世,2014-02-19,24.14743,121.6297,1.2767407e-07
C0AI10,屈尺,2014-02-19,24.92184,121.54475,2.4045855e-07
B2U990,畜試東區分所,2014-02-19,24.669039,121.832561,1.1593988e-07
C0SB80,長濱漁港,2014-02-19,23.313644,121.459994,6.123837e-07
C0R240,來義,2014-02-19,22.527306,120.625111,1.5644402e-09
C0V910,大樹,2014-02-19,22.684645,120.432803,4.776038e-09
C1R610,西大武山,2014-02-19,22.617719,120.7322,4.2669157e-08
C0G900,線西,2014-02-19,24.143358,120.443536,0.000103369595
C0M700,竹崎,2014-02-19,23.526178,120.555508,7.724541e-09
C2E880,三義,2014-02-19,24.405478,120.749819,1.5814518e-08
C0C720,竹圍,2014-02-19,25.112692,121.239824,1.326908e-07
C0F9P0,清水,2014-02-19,24.312297,120.562242,3.93433e-05
C0Z150,吉安光華,2014-02-19,23.930925,121.595153,8.787765e-06
C1D640,外坪(五指山),2014-02-19,24.644447,121.090961,6.9602656e-08
C0F9O0,潭子,2014-02-19,24.213106,120.703933,1.9637075e-07
C2H9R0,卓社,2014-02-19,23.887894,121.000086,1.656317e-08
72T250,花蓮農改場,2014-02-19,23.975222,121.563889,1.0342503e-06
C0E780,銅鑼,2014-02-19,24.489681,120.790853,1.4057683e-07
C1T950,太安,2014-02-19,23.666719,121.370128,7.660251e-08
C0E830,苑裡,2014-02-19,24.439714,120.653053,2.1706546e-05
467270,田中,2014-02-19,23.873803,120.581286,6.2105845e-09
C0SA10,檳榔四格山,2014-02-19,22.810031,121.109308,9.863288e-07
C1T830,布洛灣,2014-02-19,24.17184,121.57127,4.48753e-08
C0F970,大坑,2014-02-19,24.173142,120.722289,8.855666e-06
C1U920,思源,2014-02-19,24.393125,121.347214,4.6512934e-08
C0A931,三和,2014-02-19,25.233153,121.595236,3.4730363e-08
C0I010,廬山,2014-02-19,24.033311,121.181808,1.6089993e-08
C2M940,日野賀,2014-02-19,23.434056,120.727169,1.1341644e-08
C0R860,鼻頭,2014-02-19,22.1043,120.8979,0.99738204
C0UB20,壯圍,2014-02-19,24.7359,121.8163,1.1593988e-07
C0R790,九棚,2014-02-19,22.14195,120.889281,0.48141843
C0W110,東莒,2014-02-19,25.9652,119.98069,7.4728196e-06
C1U930,粉鳥林,2014-02-19,24.497088,121.842479,1.714863e-08
C1I211,蘆竹湳,2014-02-19,23.934019,120.811994,1.2805912e-08
C0S830,長濱,2014-02-19,23.286817,121.411975,2.4693514e-07
C1F9F1,伯公龍,2014-02-19,24.272392,120.849047,1.571529e-08
C0E810,西湖,2014-02-19,24.562947,120.7485,5.442927e-06
C1I440,新高口,2014-02-19,23.478744,120.878939,2.5245656e-08
C0O840,王爺宮,2014-02-19,23.222064,120.40085,3.425478e-08
C0T9G0,鳳林山,2014-02-19,23.735269,121.420131,7.37842e-07
C0X080,佳里,2014-02-19,23.173039,120.145086,2.9766175e-08
C0FB70,大甲溪埔,2014-02-19,24.370625,120.620067,1.9745554e-05
C0Z310,清水斷崖,2014-02-19,24.218294,121.689142,6.520867e-08
C0M680,太保,2014-02-19,23.455062,120.331455,3.1067085e-08
C1S820,金峰,2014-02-19,22.590969,120.933236,1.047648e-06
C0AD10,八里,2014-02-19,25.150211,121.403947,1.326908e-07
C2K240,草嶺,2014-02-19,23.59555,120.693461,1.1549423e-08
C1SA70,都蘭,2014-02-19,22.87794,121.226881,2.662667e-06
C0K440,二崙,2014-02-19,23.772797,120.408944,7.320817e-09
C1A760,坪林交控,2014-02-19,24.94284,121.713442,5.6311364e-08
C0F9N0,大里,2014-02-19,24.092464,120.701378,1.2937268e-05
C0SA90,達仁林場,2014-02-19,22.264347,120.823972,6.505537e-08
C1R290,石門山,2014-02-19,22.112611,120.756597,0.02848399
42HA10,萬大發電廠,2014-02-19,23.978875,121.139639,3.022991e-08
C0R890,山海,2014-02-19,21.9878,120.7091,0.9986819
C0T9A0,月眉山,2014-02-19,23.809928,121.539828,6.884872e-07
C0AC70,信義,2014-02-19,25.037822,121.564597,2.844709e-07
C0K560,棋山,2014-02-19,23.68645,120.603417,9.821425e-09
C2FB50,出雲,2014-02-19,24.206469,120.902794,1.2327051e-08
C1Z240,中平林道,2014-02-19,23.42115,121.26763,1.4375154e-07
U2H480,溪頭,2014-02-19,23.670306,120.798194,9.831358e-09
C0M880,好美里,2014-02-19,23.3364,120.138,2.9766175e-08
C0T9E0,大坑,2014-02-19,23.880628,121.581981,9.277151e-07
C0K530,臺西,2014-02-19,23.701547,120.197559,1.6412399e-06
C1E900,國一N128K,2014-02-19,24.560997,120.844186,4.470667e-06
C0AJ50,水湳洞,2014-02-19,25.123695,121.862238,3.1371786e-07
C0AI20,白沙灣,2014-02-19,25.283128,121.519058,1.2103811e-07
C0A860,大坪,2014-02-19,25.165914,121.632969,3.316897e-08
C1U850,觀音海岸,2014-02-19,24.38319,121.77856,2.4239828e-08
C2K610,草嶺石壁,2014-02-19,23.602469,120.707731,1.1588303e-08
C0U950,鶯子嶺,2014-02-19,24.89754,121.79244,4.029807e-08
C0O900,善化,2014-02-19,23.112883,120.297219,5.391981e-09
C0K550,蔦松,2014-02-19,23.514319,120.229736,5.0470632e-08
E2P980,林試六龜中心,2014-02-19,22.991703,120.645722,3.4731602e-09
C0E590,通霄,2014-02-19,24.471892,120.704622,1.5702033e-05
C1I310,西巒,2014-02-19,23.754486,120.883956,1.1043913e-08
C0A550,泰平,2014-02-19,24.971197,121.823711,2.788375e-08
C0I360,水里,2014-02-19,23.812553,120.849792,6.951612e-09
C0R830,高士,2014-02-19,22.121825,120.836781,0.004467803
C1I101,溪頭,2014-02-19,23.661789,120.807647,1.504692e-08
C0AJ20,野柳,2014-02-19,25.20703,121.690021,3.1371786e-07
C0B060,暖暖,2014-02-19,25.0957,121.7403,2.413647e-07
C1H920,長豐,2014-02-19,24.102039,120.879897,6.985612e-09
C0V360,內門,2014-02-19,22.975481,120.466769,4.2823416e-08
C0R850,林邊,2014-02-19,22.4634,120.5339,8.160546e-09
C0E930,龍鳳,2014-02-19,24.700034,120.859125,1.3433612e-07
C0U910,冬山,2014-02-19,24.63373,121.7937,1.1593988e-07
C1E721,泰安,2014-02-19,24.489017,120.968036,1.758774e-08
82H320,茶改中部分場,2014-02-19,23.875611,120.913583,6.7243686e-09
C0M750,布袋,2014-02-19,23.380878,120.167789,5.0085607e-08
C1S860,利嘉,2014-02-19,22.809417,121.050528,2.377212e-08
72C440,桃園農改,2014-02-19,24.950944,121.030583,4.6155063e-07
E2S980,林試太麻里1,2014-02-19,22.598922,120.980044,4.12141e-06
C0X170,關廟,2014-02-19,22.963017,120.327797,5.901411e-09
C0V720,林園,2014-02-19,22.507747,120.394511,5.3009597e-09
C1I510,線浸林道,2014-02-19,23.761508,120.832956,8.886213e-09
C0D690,外湖,2014-02-19,24.917735,120.968711,5.468643e-07
C0C750,新興坑尾,2014-02-19,25.0061,121.0971,1.6320328e-07
B2Q810,畜試南區分所,2014-02-19,21.945583,120.802167,0.9986397
C0S790,金崙,2014-02-19,22.538122,120.966875,7.661828e-07
C0AH90,福山植物園,2014-02-19,24.760717,121.58135,9.966374e-08
C0I540,奇萊稜線,2014-02-19,24.109231,121.326456,5.5192192e-08
C0M850,表湖,2014-02-19,23.24186,120.64166,6.8718946e-09
C0S770,大溪山,2014-02-19,22.478475,120.943325,2.3192807e-07
C0AG80,中和,2014-02-19,24.991622,121.491792,2.844709e-07
C0T790,大禹嶺,2014-02-19,24.186117,121.316086,4.776213e-08
C0T9B0,水源,2014-02-19,23.991861,121.537169,5.533797e-07
C0R840,牡丹池山,2014-02-19,22.168389,120.841225,6.8369644e-08
C1I131,桶頭,2014-02-19,23.641944,120.654117,8.398899e-09
CAL110,布袋國中,2014-02-19,23.35893,120.18026,1.5469228e-08
467571,新竹,2014-02-19,24.827853,121.014219,1.750657e-07
C0Z290,赤柯山,2014-02-19,23.36893,121.38293,1.5682569e-07
C0X280,將軍,2014-02-19,23.214999,120.13577,2.9766175e-08
C0S690,太麻里,2014-02-19,22.60902,120.98533,3.040646e-07
C0U880,北關,2014-02-19,24.9072,121.8734,3.35218e-07
C1H860,瑞岩,2014-02-19,24.123772,121.18345,2.226736e-08
C0G810,埔心,2014-02-19,23.947633,120.525456,1.6073099e-07
C0U970,大福,2014-02-19,24.80064,121.81389,5.504459e-08
C2H9N0,仁愛東眼,2014-02-19,24.026875,121.1205,1.5857832e-08
C1E670,南礦,2014-02-19,24.538278,121.002836,1.9460577e-08
C0M520,東後寮,2014-02-19,23.369908,120.248065,1.5267762e-08
C1E461,松安,2014-02-19,24.397972,120.986022,1.6789766e-08
72G600,臺中農改,2014-02-19,24.003028,120.534389,1.2217872e-07
C2N160,西拉雅風管處,2014-02-19,23.189481,120.335297,1.2819622e-08
C2M970,碧湖,2014-02-19,23.568632,120.624165,1.0706885e-08
C0A640,石碇,2014-02-19,24.993969,121.662917,4.333308e-08
E2S960,林試太麻里2,2014-02-19,22.598,120.99775,2.2272698e-05
C0F9Y0,桃山,2014-02-19,24.432739,121.303808,5.9678804e-08
C1I020,萬大,2014-02-19,23.979817,121.132261,1.3093202e-08
C0U940,羅東,2014-02-19,24.68184,121.74934,1.124961e-07
C0M650,朴子,2014-02-19,23.43463,120.23902,4.92918e-08
C1I500,大尖山,2014-02-19,23.858572,120.994889,2.1353294e-08
C0G820,田尾,2014-02-19,23.901669,120.509389,1.5338476e-07
E2K600,四湖植物園,2014-02-19,23.676986,120.163433,1.6386579e-06
C0S730,綠島,2014-02-19,22.6672,121.47533,8.4638095e-06
12Q970,東港工作站,2014-02-19,22.479997,120.466058,8.704304e-09
C0E430,南庄,2014-02-19,24.601775,121.000214,8.48194e-08
C1TA00,太魯閣,2014-02-19,24.15773,121.6236,6.602466e-08
466920,臺北,2014-02-19,25.037658,121.514853,2.844709e-07
C0R600,舊泰武,2014-02-19,22.588194,120.664944,6.7340205e-09
C1I260,北坑,2014-02-19,23.9246,121.006903,5.9543708e-09
466910,鞍部,2014-02-19,25.182586,121.529731,3.897726e-08
C1I230,九份二山,2014-02-19,23.961944,120.845,7.6606135e-09
C2A660,瑞芳,2014-02-19,25.113169,121.801147,4.6053362e-08
C0R270,琉球嶼,2014-02-19,22.332244,120.362236,1.5360845e-09
C1T990,高寮,2014-02-19,23.394239,121.356808,1.2575106e-06
C0G620,芬園,2014-02-19,24.015678,120.6213,6.114896e-08
C1Z140,荖溪,2014-02-19,23.890575,121.45964,8.327139e-08
C1I201,中心崙,2014-02-19,23.728722,120.712097,8.35995e-09
C1I400,凌霄,2014-02-19,24.018778,121.004456,1.5589483e-08
C1M640,十字,2014-02-19,23.492153,120.753683,1.3369536e-08
G2P820,農試鳳山分所,2014-02-19,22.646611,120.356083,5.011425e-09
C0Z270,蕃薯寮,2014-02-19,23.73835,121.540108,1.4455234e-06
C0F9Q0,外埔,2014-02-19,24.347817,120.705686,2.3791745e-07
C0K580,高鐵雲林,2014-02-19,23.737456,120.417944,6.3535244e-09
C2I090,鳳凰,2014-02-19,23.728081,120.787347,6.975134e-09
C0U990,員山,2014-02-19,24.74435,121.72247,1.13918496e-07
C0V770,大社,2014-02-19,22.730306,120.346639,4.314519e-09
C0X120,麻豆,2014-02-19,23.183289,120.248611,2.8506909e-08
C0C670,龍潭,2014-02-19,24.870056,121.221389,2.1078317e-07
C0D680,香山濕地,2014-02-19,24.783581,120.914988,1.3611161e-07
C0S980,勝林山,2014-02-19,22.430439,120.8938,4.105927e-08
C0V730,大寮,2014-02-19,22.605614,120.395717,1.4299105e-09
C0R570,麟洛,2014-02-19,22.65078,120.52719,4.724836e-09
C2M930,石卓,2014-02-19,23.478744,120.702264,1.3342176e-08
C0G9B0,和美,2014-02-19,24.105169,120.492131,1.2876222e-07
CAG100,王功漁港,2014-02-19,23.96824,120.32586,1.8496487e-06
C0X290,北門,2014-02-19,23.267772,120.125481,2.9766175e-08
C2F930,大甲,2014-02-19,24.347667,120.640403,9.038822e-06
C0D650,湖口,2014-02-19,24.904794,121.043628,3.8787223e-07
C0E420,竹南,2014-02-19,24.708978,120.888897,1.3071462e-07
C0U780,五結,2014-02-19,24.68637,121.79794,1.1594e-07
C1I250,鯉潭,2014-02-19,23.961922,120.991131,6.985612e-09
C0R130,阿禮,2014-02-19,22.742908,120.743678,7.155105e-09
C0X100,臺南市北區,2014-02-19,23.010394,120.194228,1.228724e-08
C0S920,金峰嘉蘭,2014-02-19,22.594789,120.960825,3.5245753e-06
C0V490,新興,2014-02-19,22.627422,120.298803,5.3009597e-09
C0F9K0,大安,2014-02-19,24.345061,120.588025,2.8303253e-05
72N100,臺南農改,2014-02-19,23.0605,120.342194,5.1758726e-09
467290,古坑,2014-02-19,23.633639,120.551889,7.608032e-09
C2E970,八甲,2014-02-19,24.535811,120.795983,1.3600858e-07
C0V440,鳳山,2014-02-19,22.646653,120.356122,5.011425e-09
C1T940,大觀,2014-02-19,23.714206,121.373133,6.6634004e-07
72T250,花蓮農改,2014-02-19,23.975222,121.563889,1.0342503e-06
C0E740,造橋,2014-02-19,24.637056,120.864778,1.2957413e-07
C0R100,尾寮山,2014-02-19,22.833111,120.683889,8.198128e-09
A2K630,臺大雲林校區,2014-02-19,23.730628,120.423903,6.3535244e-09
C0D580,寶山,2014-02-19,24.735006,121.025192,2.0095797e-07
E2P990,林試扇平站,2014-02-19,22.9677,120.6857,1.1296522e-08
C0AI30,三重,2014-02-19,25.057328,121.500629,2.084187e-07
C0AH00,汐止,2014-02-19,25.066881,121.658778,3.1371786e-07
C1Z040,立山,2014-02-19,23.443356,121.327375,4.886024e-07
C0W130,花嶼,2014-02-19,23.40007,119.32276,0.9780211
C0A950,鼻頭角,2014-02-19,25.129036,121.923372,5.1177114e-08
C0K470,林內,2014-02-19,23.748675,120.609642,7.955711e-09
C2F990,摩天嶺,2014-02-19,24.322458,120.936819,2.328575e-08
82C160,茶改場,2014-02-19,24.908472,121.185333,1.7548558e-07
C0Z320,清水林道,2014-02-19,23.27125,121.188272,2.6656372e-07
C0R760,南仁湖,2014-02-19,22.084681,120.863353,0.021754801
C0M670,大林,2014-02-19,23.600616,120.45841,1.6112355e-06
C0M800,茶山,2014-02-19,23.299075,120.664767,4.9501314e-09
C0A9C0,天母,2014-02-19,25.117494,121.537169,2.0059474e-07
72K220,南改斗南分場,2014-02-19,23.634556,120.477333,7.9080245e-09
72AI40,桃改樹林分場,2014-02-19,24.944503,121.386972,1.9519037e-07
C0S910,蘭嶼燈塔,2014-02-19,22.081197,121.503117,0.9883342
C0B050,八斗子,2014-02-19,25.144754,121.79167,3.4088032e-07
C0U900,內城,2014-02-19,24.71813,121.68766,5.2805678e-08
C0X320,柳營,2014-02-19,23.253328,120.375253,6.27704e-08
C0M790,新港,2014-02-19,23.553269,120.345728,3.9328995e-08
C0F9T0,西屯,2014-02-19,24.179494,120.641275,9.757979e-06
C0SA30,都歷,2014-02-19,23.020333,121.323642,1.4603699e-05
C0C620,蘆竹,2014-02-19,25.084275,121.265767,1.278349e-07
C0R730,大坪頂,2014-02-19,22.024633,120.69355,0.98748547
C0AJ40,石門,2014-02-19,25.273672,121.601198,9.1970186e-08
C0E750,苗栗,2014-02-19,24.564569,120.824575,4.764835e-06
C0T870,鯉魚潭,2014-02-19,23.935639,121.508944,3.2860466e-06
C1V170,排雲,2014-02-19,23.463619,120.954147,4.5152273e-08
C2H950,中寮,2014-02-19,23.884447,120.766406,7.0239032e-09
C0R350,貓鼻頭,2014-02-19,21.921774,120.7358,0.99858135
C0V660,岡山,2014-02-19,22.797078,120.294958,4.237497e-09
C1H941,雙冬,2014-02-19,23.967378,120.802189,6.015281e-09
C0AJ70,田寮,2014-02-19,25.2698,121.4886,1.2299427e-07
C0AI00,五股,2014-02-19,25.07445,121.42728,2.0765724e-07
C0Z280,德武,2014-02-19,23.47426,121.41071,7.855042e-07
C0R700,枋山,2014-02-19,22.246844,120.661086,6.6016446e-09
C0C460,復興,2014-02-19,24.820208,121.352281,6.219917e-08
E2H360,蓮華池,2014-02-19,23.918333,120.885278,6.4367485e-09
C0M640,中埔,2014-02-19,23.42538,120.5229,6.8283863e-09
C0W140,金沙,2014-02-19,24.488292,118.408778,2.6754082e-08
C2A540,四堵,2014-02-19,24.8926,121.745736,4.1444967e-08
C0ACA0,新莊,2014-02-19,25.051478,121.446756,1.5391257e-07
C0R220,潮州,2014-02-19,22.534361,120.54,1.6010512e-09
U2HA40,臺大內茅埔,2014-02-19,23.689722,120.851117,7.2119932e-09
467490,臺中,2014-02-19,24.145736,120.684075,1.0395672e-05
C0U960,翠峰湖,2014-02-19,24.510856,121.608044,4.8379732e-08
E2HA20,林試畢祿溪站,2014-02-19,24.226944,121.308522,3.3889037e-08
C0V890,前鎮,2014-02-19,22.5718,120.3117,5.5297114e-09
467620,蘭嶼,2014-02-19,22.036969,121.558339,0.9603684
C1F941,雪嶺,2014-02-19,24.280586,121.026642,4.1642902e-08
C2H9E0,國姓南港,2014-02-19,23.911108,120.846556,1.0771161e-08
C0AC80,文山,2014-02-19,25.00235,121.575728,2.4045855e-07
C0F9R0,龍井,2014-02-19,24.184536,120.528972,4.3989647e-05
C0M760,民雄,2014-02-19,23.551754,120.428457,7.136435e-07
C0UA40,西德山,2014-02-19,24.560647,121.752608,2.9775887e-08
C1T920,中興,2014-02-19,23.769503,121.498653,5.276347e-06
C0D550,雪霸,2014-02-19,24.526972,121.11605,3.3758397e-08
C2F860,梨山,2014-02-19,24.247522,121.243669,3.440013e-08
C0R320,車城,2014-02-19,22.0744,120.716247,0.99868196
C1S870,南美山,2014-02-19,23.15025,121.382333,1.8788768e-06
C0B020,基隆嶼,2014-02-19,25.19141,121.78391,3.1371786e-07
C1U501,牛鬥,2014-02-19,24.637836,121.573656,5.2786845e-08
C0M730,嘉義市東區,2014-02-19,23.457673,120.460531,1.4010893e-06
C0S700,知本,2014-02-19,22.684866,121.005642,3.4311643e-07
C1N001,沙崙,2014-02-19,22.935472,120.309406,6.354955e-09
C0V760,橋頭,2014-02-19,22.757806,120.30575,4.1562975e-09
C0G960,福寶,2014-02-19,24.0443,120.3814,1.5980324e-07
C0X210,白河,2014-02-19,23.347466,120.414427,6.067182e-08
C0S810,東河,2014-02-19,22.972672,121.303986,3.0411934e-06
C2R170,屏東,2014-02-19,22.66027,120.49403,4.7739612e-09
C0R670,楓港,2014-02-19,22.190131,120.692156,6.6016446e-09
C0FA50,霧峰,2014-02-19,24.0419,120.6995,5.622482e-06
C0UB10,蘇澳,2014-02-19,24.5969,121.8571,4.1449944e-08
C0G950,防潮門,2014-02-19,24.1835,120.4871,5.1847688e-05
C0M740,六腳,2014-02-19,23.492871,120.290625,3.203297e-08
C1R250,力里,2014-02-19,22.428117,120.629228,1.577366e-09
C0K330,虎尾,2014-02-19,23.719183,120.442036,6.389716e-09
C2FA00,烏石坑,2014-02-19,24.273503,120.947617,2.333991e-08
C0V620,永安,2014-02-19,22.82315,120.236856,5.316756e-09
C1I330,楓樹林,2014-02-19,23.986803,121.076117,1.6292331e-08
C0W200,湖西,2014-02-19,23.596314,119.67275,0.9347529
72Q010,高雄農改場,2014-02-19,22.709333,120.525889,4.643916e-09
C0SA40,瑞和,2014-02-19,22.974361,121.156697,3.1563357e-06
C0C680,龜山,2014-02-19,25.02846,121.38656,4.5007134e-08
C2V260,月眉,2014-02-19,22.971003,120.539853,2.8999587e-09
C0V450,鳳森,2014-02-19,22.545064,120.392592,1.5117592e-09
C0U720,南山,2014-02-19,24.43742,121.38167,4.6026052e-08
A2N290,臺南蘭花園區,2014-02-19,23.340258,120.379661,6.282526e-08
C0R560,新園,2014-02-19,22.5434,120.461558,8.160546e-09
C0U890,三星,2014-02-19,24.66812,121.65302,5.0766356e-08
C1V300,御油山,2014-02-19,23.001983,120.715364,2.1989349e-08
C0U600,礁溪,2014-02-19,24.817539,121.765608,5.4202573e-08
C1T980,龍澗,2014-02-19,24.023289,121.411328,7.2952695e-08
C0D670,海天一線,2014-02-19,24.831986,120.914438,1.3727167e-07
C0SA00,歷坵,2014-02-19,22.520969,120.89185,1.7841406e-07
C0M710,東石,2014-02-19,23.458927,120.15385,5.0470632e-08
C0M780,鹿草,2014-02-19,23.41134,120.30835,3.4293873e-08
C0U520,雙連埤,2014-02-19,24.753033,121.641303,3.6965908e-08
C0B010,七堵,2014-02-19,25.094819,121.71713,2.8949626e-07
C0R480,長治,2014-02-19,22.693128,120.542622,1.8540451e-09
C1V830,國三S383K,2014-02-19,22.781967,120.426475,2.3529643e-09
12Q980,恆春工作站,2014-02-19,22.079678,120.714425,0.99868196
C1O940,東山服務區,2014-02-19,23.286016,120.398472,5.8558797e-08
C1U840,東澳嶺,2014-02-19,24.5378,121.8485,2.452018e-08
C1D630,飛鳳山,2014-02-19,24.766464,121.119178,1.9998045e-07
C0S940,石寧山,2014-02-19,23.223772,121.406639,3.7002525e-07
C0K410,北港,2014-02-19,23.573957,120.292802,4.0481265e-08
C2M620,瑞里,2014-02-19,23.545133,120.675197,1.2415017e-08
C0SB70,小港漁港,2014-02-19,23.158558,121.400431,6.0903534e-07
C2O950,安南,2014-02-19,23.076694,120.144861,2.089544e-08
C0F0E0,南湖圈谷,2014-02-19,24.363714,121.444667,8.872126e-08
467610,成功,2014-02-19,23.097486,121.373428,3.7830367e-05
C0G890,伸港,2014-02-19,24.148933,120.484403,8.307551e-05
C2E540,龍溪,2014-02-19,24.606489,120.783933,6.873267e-06
C1V200,梅山,2014-02-19,23.268447,120.823556,1.0458223e-08
C0T9H0,加路蘭山,2014-02-19,23.682947,121.5274,4.860574e-07
C2O930,玉井,2014-02-19,23.126042,120.46055,6.069416e-08
C1F911,新伯公,2014-02-19,24.221361,120.841069,1.5226902e-08
C0R490,九如,2014-02-19,22.7405,120.490503,4.721818e-09
C0X200,左鎮,2014-02-19,23.056758,120.408522,1.7762131e-08
C0SB50,叭嗡嗡,2014-02-19,23.047062,121.343223,4.308064e-06
C1F891,稍來,2014-02-19,24.265689,121.001142,3.4038095e-08
72N240,七股研究中心,2014-02-19,23.081672,120.062894,1.1051019e-07
C0C700,中壢,2014-02-19,24.977661,121.256375,2.1472209e-07
C0M690,水上,2014-02-19,23.419734,120.388909,6.9476647e-07
C0V690,鼓山,2014-02-19,22.623325,120.275575,5.3037508e-09
C0O860,大內,2014-02-19,23.11885,120.36083,6.833272e-09
C0Z200,萬榮,2014-02-19,23.709219,121.420106,3.2860466e-06
C0T9D0,和中,2014-02-19,24.26676,121.74103,8.6479936e-08
C1O921,楠西,2014-02-19,23.183511,120.484083,4.6812247e-08
C0AJ30,淡水觀海,2014-02-19,25.184591,121.408616,1.3566114e-07
C0V810,左營,2014-02-19,22.67491,120.28491,4.4018478e-09
C0UA70,桃源谷,2014-02-19,24.962606,121.888875,2.8641471e-08
C0X130,官田,2014-02-19,23.193217,120.315422,1.3421453e-08
C1H000,翠峰,2014-02-19,24.109397,121.205211,3.988697e-08
C0UA90,石城,2014-02-19,24.980444,121.951214,5.091035e-08
C1E681,南勢山,2014-02-19,24.421669,120.923831,2.3504535e-08
C0A9F0,內湖,2014-02-19,25.079422,121.57545,2.844709e-07
C0K291,宜梧,2014-02-19,23.536281,120.169329,5.306779e-08
C1K540,口湖,2014-02-19,23.585344,120.180517,6.6727935e-08
C0R780,滿州,2014-02-19,22.024403,120.839892,0.9985259
C0V870,文安,2014-02-19,22.8025,120.2164,5.3599685e-09
C0U650,玉蘭,2014-02-19,24.675286,121.587061,4.2490484e-08
C0R640,東港,2014-02-19,22.46247,120.44074,5.5308718e-09
K2E360,苗栗農改,2014-02-19,24.495722,120.829111,1.7201903e-07
C0AJ80,板橋,2014-02-19,25.0107,121.4489,2.0256307e-07
C0S660,下馬,2014-02-19,23.150427,121.070312,2.229382e-07
C1H9B1,阿眉,2014-02-19,24.1263,120.994672,2.3235351e-08
C0UA20,多加屯,2014-02-19,24.368614,121.373189,4.8633325e-08
C0E730,頭份,2014-02-19,24.688247,120.912206,1.3082112e-07
72V140,高改旗南分場,2014-02-19,22.857861,120.516667,2.4396218e-09
C0K480,莿桐,2014-02-19,23.761192,120.502372,7.500732e-09
C0U980,坪林石牌,2014-02-19,24.86478,121.77396,5.160615e-08
C0T900,西林,2014-02-19,23.8119,121.441458,2.5622867e-06
C1I150,青雲,2014-02-19,23.793361,120.949378,7.1796302e-09
467350,澎湖,2014-02-19,23.565503,119.563094,0.9599244
C0G800,埔鹽,2014-02-19,24.000394,120.431683,1.4882279e-07
C0H960,草屯,2014-02-19,23.973672,120.68085,5.3323146e-09
C1V780,多納林道,2014-02-19,22.888028,120.737917,1.10624025e-08
C0E920,通霄漁港,2014-02-19,24.498589,120.673876,3.0104933e-05
C0Z330,安通山,2014-02-19,23.290728,121.348528,3.3142857e-07
C0AH10,永和,2014-02-19,25.01125,121.508111,2.9047163e-07
C0AK10,太平里,2014-02-19,25.134937,121.364899,1.5391257e-07
C2G640,鹿港,2014-02-19,24.0753,120.430481,1.4882279e-07
C1E890,國三N149K,2014-02-19,24.463414,120.680019,1.2981353e-05
C1R110,口社,2014-02-19,22.770111,120.645222,2.513202e-09
C1M870,國三N285K,2014-02-19,23.550319,120.505833,7.890788e-09
467050,新屋,2014-02-19,25.006744,121.047486,5.1739755e-07
C1E480,鳳美,2014-02-19,24.554803,121.034747,2.1921467e-08
C0M530,奮起湖,2014-02-19,23.493903,120.699253,1.3371525e-08
C0C590,觀音,2014-02-19,25.027072,121.153317,8.3388684e-08
C0T9M0,靜浦,2014-02-19,23.455167,121.495028,2.5719958e-06
C2H9M0,發祥,2014-02-19,24.154094,121.164517,1.713163e-08
C0AI40,石牌,2014-02-19,25.115597,121.513139,2.0256307e-07
C1F871,上谷關,2014-02-19,24.203483,121.018644,2.333991e-08
C2H9G0,百勝,2014-02-19,24.051142,120.909361,1.5281163e-08
C0G880,二水,2014-02-19,23.810742,120.6173,8.3286125e-09
C0R940,加祿堂,2014-02-19,22.3363,120.6217,1.5008045e-09
C0W220,北竿,2014-02-19,26.220358,119.974881,3.211176e-08
C0O960,崎頂,2014-02-19,22.959547,120.369317,2.845708e-09
C0S750,向陽,2014-02-19,23.248397,120.986133,2.9583923e-08
C0T9F0,水璉,2014-02-19,23.797131,121.542514,1.5686488e-06
C1M600,頭凍,2014-02-19,23.406364,120.603339,8.656439e-09
467660,臺東,2014-02-19,22.752211,121.154586,3.6714846e-05
C1D380,新埔,2014-02-19,24.84745,121.03834,1.5161947e-07
C2G980,田頭村,2014-02-19,23.8263,120.444175,7.320817e-09
C0V750,路竹,2014-02-19,22.854997,120.259439,3.7719574e-09
C0N050,蚵寮,2014-02-19,23.301,120.1104,1.1581214e-07
72M700,南改鹿草分場,2014-02-19,23.416869,120.283061,3.636477e-08
C1SA50,利嘉林道,2014-02-19,22.82325,121.009389,2.4974817e-08
467550,玉山,2014-02-19,23.487614,120.959522,4.877955e-08
C0A940,金山,2014-02-19,25.223628,121.643967,1.16771126e-07
C1V340,大津,2014-02-19,22.888322,120.645986,2.8552931e-09
C0W180,七美,2014-02-19,23.219333,119.444892,0.9625271
C1F9C1,白冷,2014-02-19,24.182844,120.929889,1.4658825e-08
K2E710,苗改生物防治研究中心,2014-02-19,24.422861,120.871833,1.4148631e-07
C0N040,蘆竹溝,2014-02-19,23.2344,120.0961,1.1581214e-07
C2W230,畜試所澎湖,2014-02-19,23.628342,119.513206,0.9462085
C0R880,後壁湖,2014-02-19,21.9457,120.7457,0.9986987
C1I280,埔中,2014-02-19,23.820778,120.642594,8.619879e-09
467790,墾丁雷達站,2014-02-19,21.948235,120.808028,0.9984656
C0W190,望安,2014-02-19,23.380564,119.494075,0.9516614
466881,新北,2014-02-19,24.9593,121.52,2.567898e-07
C0Z170,卓溪,2014-02-19,23.3443,121.3029,3.355436e-07
C0F850,東勢,2014-02-19,24.246428,120.833047,1.5338866e-08
466900,淡水,2014-02-19,25.164889,121.448906,1.326908e-07
C0I370,魚池,2014-02-19,23.895703,120.94135,6.3468506e-09
C0C630,大溪,2014-02-19,24.882853,121.265547,2.7646723e-07
C0A520,山佳,2014-02-19,24.974944,121.402008,1.9519055e-07
C0I110,竹山,2014-02-19,23.761225,120.688156,6.8689068e-09
82H840,茶改南部分場,2014-02-19,23.762528,120.7405,6.92891e-09
C0G660,溪湖,2014-02-19,23.94835,120.479122,1.7056142e-07
C1T800,洛韶,2014-02-19,24.204558,121.453956,6.230972e-08
C1T810,慈恩,2014-02-19,24.192044,121.388386,4.1815458e-08
C1E451,象鼻,2014-02-19,24.368617,120.940228,2.3504535e-08
C0AC60,三峽,2014-02-19,24.939025,121.369728,2.5035493e-07
C0I490,萬大林道,2014-02-19,23.928228,121.091411,2.1800755e-08
C1I290,豐丘,2014-02-19,23.668178,120.887417,8.886213e-09
C1I320,奧萬大,2014-02-19,23.952956,121.178556,1.6371578e-08
C2M910,嘉義大學,2014-02-19,23.471325,120.485903,7.572794e-09
C0U770,南澳,2014-02-19,24.44935,121.81022,2.4108832e-08
C0A980,社子,2014-02-19,25.109508,121.469681,2.1060715e-07
C0V800,六龜,2014-02-19,22.997889,120.633583,3.4171428e-09
C1G9D0,國一S218K,2014-02-19,23.890641,120.493253,1.6073099e-07
C0E570,白沙屯,2014-02-19,24.549447,120.696803,3.0104933e-05
C2F9A0,中竹林,2014-02-19,24.103556,120.751061,7.377925e-09
C0FA40,臺中電廠,2014-02-19,24.2146,120.4907,4.3989647e-05
C2G9A0,畜試所彰化,2014-02-19,23.86045,120.557964,6.2105845e-09
C0H9C0,合歡山,2014-02-19,24.143442,121.272547,6.061699e-08
C0X060,下營,2014-02-19,23.22695,120.256261,1.45172e-08
G2M350,農試溪口農場,2014-02-19,23.58565,120.408111,7.949682e-07
C0U860,頭城,2014-02-19,24.85323,121.8308,5.4337555e-08
C0R580,南州,2014-02-19,22.48591,120.50274,8.704304e-09
C0D430,峨眉,2014-02-19,24.6905,121.017189,1.6340482e-07
C0G780,秀水,2014-02-19,24.03405,120.503869,1.271688e-07
72N100,臺南農改場,2014-02-19,23.0605,120.342194,5.1758726e-09
C0S900,蘭嶼高中,2014-02-19,22.04909,121.51214,0.98603106
467540,大武,2014-02-19,22.355675,120.903789,0.01385367
C1F9W0,德基,2014-02-19,24.254783,121.190261,2.7230449e-08
C1Z120,壽豐,2014-02-19,23.870853,121.508081,7.3134893e-06
C0W160,烏坵,2014-02-19,24.9944,119.44956,0.17764078
C1I240,外大坪,2014-02-19,23.958697,120.917931,7.0851924e-09
C1I550,國六W023K,2014-02-19,23.979067,120.867742,6.1219536e-09
C0R870,興海,2014-02-19,21.9752,120.8439,0.9986397
C0R140,瑪家,2014-02-19,22.682903,120.686639,9.930299e-09
C0A530,坪林,2014-02-19,24.938183,121.70975,5.6599408e-08
C0X260,後壁,2014-02-19,23.366358,120.362326,1.6510654e-08
C0Z230,和平,2014-02-19,24.30717,121.77007,8.654561e-08
C0G770,福興,2014-02-19,24.041289,120.437669,1.4882279e-07
C0H9A0,神木村,2014-02-19,23.532742,120.843667,1.8038197e-08
C0I460,南投,2014-02-19,23.911469,120.687331,6.7643238e-09
C0I480,梅峰,2014-02-19,24.085272,121.173572,3.3371784e-08
C1V570,吉東,2014-02-19,22.85422,120.5454,2.482956e-09
C2D740,屯原,2014-02-19,24.067969,121.209389,3.183987e-08
C2A560,福山,2014-02-19,24.776203,121.502811,3.9653184e-08
C0AH30,五分山,2014-02-19,25.07125,121.780794,3.273218e-08
C0FA10,松柏,2014-02-19,24.429115,120.617482,3.5040255e-05
72S200,東改班鳩分場,2014-02-19,22.829528,121.077694,2.6299374e-06
72HA00,中改埔里分場,2014-02-19,23.903208,120.963364,6.2412457e-09
C2H9W0,大坪頂農水,2014-02-19,24.043122,120.932781,7.0149464e-09
C0C650,平鎮,2014-02-19,24.897503,121.214636,1.7548558e-07
C0S930,延平,2014-02-19,22.902581,121.084058,1.0447585e-06
C0UA60,樟樹山,2014-02-19,24.41393,121.78325,3.7217056e-08
C1S670,摩天,2014-02-19,23.199503,121.027,3.2332025e-08
C0V630,茄萣,2014-02-19,22.906642,120.182608,1.0156584e-08
466940,基隆,2014-02-19,25.133314,121.740475,3.2958027e-07
C0X050,東河,2014-02-19,23.296598,120.385608,6.27704e-08
C0R770,保力,2014-02-19,22.071122,120.764111,0.9982166
G2L020,農試嘉義分所,2014-02-19,23.485028,120.473806,7.593419e-09
C0X240,關子嶺,2014-02-19,23.331169,120.508025,5.7097176e-09
C0I380,集集,2014-02-19,23.828206,120.801467,6.870519e-09
466990,花蓮,2014-02-19,23.975128,121.613275,1.1815249e-06
C1V220,小關山,2014-02-19,23.154217,120.813603,2.390776e-08
C1F9G1,慶福山,2014-02-19,24.180853,120.848378,2.1337824e-08
C0Z250,瑞穗林道,2014-02-19,23.49284,121.30688,1.2973017e-07
C0D590,新豐,2014-02-19,24.87068,120.97721,3.1045053e-07
C0A870,五指山,2014-02-19,25.132153,121.608692,4.6240576e-08
C0UA50,西帽山,2014-02-19,24.555361,121.802628,2.6871092e-08
C0X160,仁德,2014-02-19,22.968258,120.257689,6.248166e-09
C1H971,六分寮,2014-02-19,23.92507,120.6378,8.710881e-09
C0W120,西嶼,2014-02-19,23.5626,119.468436,0.9599244
C0G650,員林,2014-02-19,23.946503,120.585597,1.250445e-07
C0AD50,鶯歌,2014-02-19,24.951533,121.346294,1.3281512e-07
C2H9Q0,北東眼山,2014-02-19,24.120939,121.189303,3.141112e-08
C2H9T0,名間竹圍,2014-02-19,23.859914,120.637572,7.150766e-09
C0S990,山豬窟,2014-02-19,22.318619,120.857372,8.58115e-07
72Q010,高雄農改,2014-02-19,22.709333,120.525889,4.643916e-09
C0X190,安平,2014-02-19,22.993161,120.152181,1.228724e-08
C0K400,斗六,2014-02-19,23.720583,120.541127,8.029065e-09
12J990,口湖工作站,2014-02-19,23.589978,120.180394,6.4695904e-08
C0O830,北寮,2014-02-19,23.079561,120.495008,3.1180036e-09
C1D410,白蘭,2014-02-19,24.579364,121.079947,3.2275832e-08
C0S970,加津林,2014-02-19,22.416211,120.926942,0.0026919267
C0D700,關西,2014-02-19,24.7977,121.1732,1.9284809e-07
C0M810,里佳,2014-02-19,23.389125,120.716647,1.3368515e-08
C0U750,龜山島,2014-02-19,24.841667,121.953133,3.338636e-08
C0R810,內獅,2014-02-19,22.305064,120.642986,1.5008045e-09
C1M390,龍美,2014-02-19,23.406728,120.654417,1.1297966e-08
C2FB60,頭櫃山,2014-02-19,24.129842,120.858925,1.260533e-08
C1H840,國三N238K,2014-02-19,23.841008,120.707711,6.9110255e-09
CAQ030,崎峰國小,2014-02-19,22.42565,120.49521,8.704304e-09
C2E520,大湖,2014-02-19,24.414939,120.870872,1.9868304e-07
467530,阿里山,2014-02-19,23.508208,120.813242,2.6152225e-08
C1E691,南湖,2014-02-19,24.40135,120.837533,2.2937598e-08
C0FA30,梧棲,2014-02-19,24.256003,120.523381,4.3989647e-05
C1V231,高中,2014-02-19,23.134911,120.716711,7.322283e-09
C0F9V0,新社,2014-02-19,24.200172,120.815806,1.5293177e-08
C0H890,埔里,2014-02-19,23.972169,120.952425,1.4341285e-08
C0R690,墾丁,2014-02-19,21.966756,120.810269,0.8904519
C0F0D0,審馬陣,2014-02-19,24.381675,121.4203,5.6471734e-08
C0R820,白鷺,2014-02-19,22.454275,120.666219,5.012142e-09
U2H480,臺大溪頭,2014-02-19,23.670306,120.798194,9.831358e-09
C1V190,南天池,2014-02-19,23.27403,120.91176,3.152131e-08
K2E360,苗栗農改場,2014-02-19,24.495722,120.829111,1.7201903e-07
CAJ050,海口故事園區,2014-02-19,23.57543,120.14121,6.6727935e-08
C2H9D0,三隻寮,2014-02-19,24.093078,120.861578,7.113018e-09
C0O990,媽廟,2014-02-19,22.99175,120.293525,6.143945e-09
C0D480,打鐵坑,2014-02-19,24.849664,121.150789,3.1272197e-07
C0Z220,和平林道,2014-02-19,24.343922,121.656317,3.7227423e-08
C0TA10,花蓮漁港,2014-02-19,23.995322,121.638331,1.2214765e-06
72C440,桃園農改場,2014-02-19,24.950944,121.030583,4.6155063e-07
C1E711,馬拉邦山,2014-02-19,24.367306,120.901656,3.0948268e-08
C0SB20,富岡,2014-02-19,22.792467,121.192669,3.1300915e-05
C0D560,竹東,2014-02-19,24.767147,121.057881,2.0282074e-07
C0F9U0,南屯,2014-02-19,24.137006,120.637969,1.2937268e-05
C0M720,番路,2014-02-19,23.464657,120.554156,6.924339e-09
C0F0A0,雪山圈谷,2014-02-19,24.388594,121.236339,6.732893e-08
C1A9N0,四十份,2014-02-19,24.934158,121.593283,5.670595e-08
C0U760,東澳,2014-02-19,24.52196,121.83318,1.7160474e-08
C0X230,鹽水,2014-02-19,23.272621,120.247641,1.7123952e-08
C2H9H0,苗改南投蜂場,2014-02-19,23.852589,120.693481,6.876195e-09
C0R950,萬隆國小,2014-02-19,22.507667,120.587817,1.4915783e-09
C0V370,古亭坑,2014-02-19,22.893178,120.401947,2.3153508e-08
C1I340,新興橋,2014-02-19,23.563333,120.868728,7.953344e-09
C0SA80,土坂,2014-02-19,22.453108,120.887572,1.877247e-06
C0R160,鹽埔,2014-02-19,22.739558,120.530778,1.83677e-09
C0AC40,大屯山,2014-02-19,25.175675,121.522408,4.3763336e-08
466850,五分山雷達站,2014-02-19,25.071182,121.781205,3.277685e-08
C2H9L0,馬烈霸,2014-02-19,24.1512,121.201772,3.117143e-08
C1AI50,國三N016K,2014-02-19,25.034164,121.619664,2.4582985e-07
C1V600,藤枝,2014-02-19,23.071961,120.757042,2.1225063e-08
C1E601,南勢,2014-02-19,24.572486,120.734842,1.8199817e-07
C0Z180,新城,2014-02-19,24.03946,121.60454,1.0884542e-06
C0O980,新市,2014-02-19,23.061614,120.298197,5.391981e-09
C0K420,西螺,2014-02-19,23.800407,120.467394,7.44581e-09
C0Z050,佳心,2014-02-19,23.34567,121.21316,1.9836781e-07
C0AD30,蘆洲,2014-02-19,25.086594,121.472331,2.084187e-07
C0V610,梓官,2014-02-19,22.760558,120.267211,4.237497e-09
K2F750,種苗改良場,2014-02-19,24.225972,120.800917,1.5179172e-08
C0UA80,大溪漁港,2014-02-19,24.941801,121.902955,5.420247e-08
C1AI60,國一39K邊坡,2014-02-19,25.064361,121.383836,3.5709807e-08
C0W150,金寧,2014-02-19,24.457703,118.328989,2.6953325e-08
C0R960,內埔,2014-02-19,22.608483,120.570714,1.4596072e-09
V2C250,八德合作社,2014-02-19,24.93775,121.266389,1.9644567e-07
C2H9S0,龍南,2014-02-19,23.953536,120.833183,1.1199807e-08
C0AH40,平等,2014-02-19,25.129142,121.577086,4.4471673e-08
C0R540,佳冬,2014-02-19,22.419456,120.552375,8.704304e-09
466950,彭佳嶼,2014-02-19,25.627975,122.079744,0.5170756
C0A890,雙溪,2014-02-19,25.036003,121.864242,2.6897945e-07
C0C480,桃園,2014-02-19,24.992425,121.323172,2.2655179e-07
C0AH50,林口,2014-02-19,25.072181,121.38084,3.2349853e-08
A2K360,水試臺西試驗場,2014-02-19,23.717231,120.190522,1.7377401e-06
B2N890,畜試所,2014-02-19,23.058972,120.336406,5.178499e-09
C2M960,外寮,2014-02-19,23.562643,120.665688,1.11153e-08
C0F9S0,烏日,2014-02-19,24.107058,120.624103,1.1011883e-07
C0C490,八德,2014-02-19,24.928708,121.283289,3.0257198e-07
C0R190,赤山,2014-02-19,22.592333,120.614306,1.48386e-09
C0T820,天祥,2014-02-19,24.179597,121.495639,5.988633e-08
C1F9E1,龍安,2014-02-19,24.1605,120.831961,1.5420357e-08
C0V820,小林,2014-02-19,23.148408,120.63325,4.471559e-09
C2G870,芳苑,2014-02-19,23.922303,120.320025,1.904e-06
C0E850,大河,2014-02-19,24.618069,120.948578,1.2645009e-07
C1U670,寒溪,2014-02-19,24.634,121.71691,9.1468806e-08
C0N020,城西,2014-02-19,23.0568,120.0956,1.0081085e-07
C1Z110,三棧,2014-02-19,24.11557,121.60501,5.8458306e-07
C0R280,檳榔,2014-02-19,22.076078,120.836777,0.92964387
C2H9J0,中台,2014-02-19,23.9996,120.938739,1.33258995e-08
C0F9L0,后里,2014-02-19,24.310436,120.729725,1.4399178e-07
C0D540,橫山,2014-02-19,24.71116,121.11693,1.743988e-07
C1D420,太閣南,2014-02-19,24.632808,121.160575,6.7787795e-08
C1E770,公館,2014-02-19,24.526914,120.830806,1.0840735e-05
CAN130,水試所海水繁養殖中心,2014-02-19,23.120802,120.07968,1.1050998e-07
C1I430,翠華,2014-02-19,24.191961,121.224339,3.9964874e-08
C1M400,菜瓜坪,2014-02-19,23.251928,120.576103,4.9429136e-09
C0G730,二林,2014-02-19,23.903325,120.376081,1.6878602e-07
72M360,南改義竹分場,2014-02-19,23.360694,120.279361,1.1890022e-08
V2K620,麥寮合作社,2014-02-19,23.753836,120.294783,1.1012141e-06
C0Z070,舞鶴,2014-02-19,23.46811,121.37407,6.0088456e-07
C0B040,大武崙,2014-02-19,25.166676,121.706993,2.8949626e-07
C1Z030,紅葉,2014-02-19,23.493119,121.338806,7.681779e-07
C1I050,丹大,2014-02-19,23.753747,121.141147,3.296865e-08
C0I080,信義,2014-02-19,23.689694,120.851036,7.2119932e-09
C2M920,朴子農改,2014-02-19,23.469889,120.259383,3.2081026e-08
C2A880,福隆,2014-02-19,25.017842,121.942083,5.0412428e-08
C0Z160,鳳林,2014-02-19,23.746114,121.453411,2.7285955e-06
C0V210,復興,2014-02-19,23.222403,120.806089,9.631332e-09
C0H990,昆陽,2014-02-19,24.121322,121.273642,4.8564083e-08
C0R741,獅子,2014-02-19,22.202308,120.705236,6.25643e-09
C0S710,鹿野,2014-02-19,22.917711,121.122994,6.826312e-07
C0I530,小奇萊,2014-02-19,24.131764,121.295717,5.353126e-08
C2K630,荷苞,2014-02-19,23.657717,120.595144,9.7697646e-09
C0Z080,富源,2014-02-19,23.587642,121.378225,8.64142e-07
467441,高雄,2014-02-19,22.7304,120.3125,4.4018478e-09
C0SB10,美和,2014-02-19,22.682078,121.060236,0.00057098985
C2K620,馬光農場,2014-02-19,23.721453,120.378864,6.3421433e-09
C1I140,卡奈托灣,2014-02-19,23.754364,121.087872,1.9189443e-08
C0I520,玉山風口,2014-02-19,23.470489,120.955994,4.9777135e-08
C1G691,下水埔,2014-02-19,23.816114,120.5676,8.252804e-09
C0X110,臺南市南區,2014-02-19,22.961189,120.188378,1.1988489e-08
C0V680,仁武,2014-02-19,22.701083,120.347722,4.314519e-09
C2G840,北斗,2014-02-19,23.877586,120.514222,1.5338476e-07
C0R900,竹坑,2014-02-19,22.1385,120.7022,1.9674735e-07
C0K250,崙背,2014-02-19,23.75555,120.318925,1.0360608e-06
C0G860,社頭,2014-02-19,23.897647,120.5862,1.1826201e-07
C0X150,安定,2014-02-19,23.102614,120.227839,1.0350329e-08
C0R590,里港,2014-02-19,22.77919,120.49459,2.176788e-09
C0E610,馬都安,2014-02-19,24.451272,120.930192,2.9535435e-08
C0E550,明德,2014-02-19,24.583486,120.885411,1.3254902e-07
C0R150,三地門,2014-02-19,22.709889,120.639944,1.986181e-09
C0G910,花壇,2014-02-19,24.032076,120.549461,1.1328731e-07
C1D400,鳥嘴山,2014-02-19,24.71909,121.28387,4.414243e-08
C0K500,元長,2014-02-19,23.64981,120.315024,6.131931e-07
C0F0B0,石岡,2014-02-19,24.276061,120.777644,8.614833e-09
C2V250,甲仙,2014-02-19,23.080106,120.591758,3.957345e-09
C0SA20,金崙山,2014-02-19,22.567419,120.959667,6.857953e-08
C0V350,溪埔,2014-02-19,22.738578,120.446797,4.776038e-09
C0M660,溪口,2014-02-19,23.604131,120.403569,7.949682e-07
C1S880,壽卡,2014-02-19,22.238911,120.858903,6.994628e-08
72D680,桃改新埔分場,2014-02-19,24.834444,121.066111,2.266071e-07
