站號,站名,日期,lat,lon,BLBTSLS
C0R710,龍磐,2014-12-02,21.931672,120.838942,0.9484741
C1F9D1,白毛台,2014-12-02,24.158325,120.886933,1.9728117e-09
C0G940,竹塘,2014-12-02,23.848253,120.386764,1.138416e-07
467590,恆春,2014-12-02,22.003897,120.746339,0.9702
C1O850,環湖,2014-12-02,23.148617,120.418633,9.3797006e-08
C0U710,太平山,2014-12-02,24.505486,121.525656,6.56915e-09
C0E820,獅潭,2014-12-02,24.539133,120.920042,4.499915e-08
C0V880,興達,2014-12-02,22.8778,120.2127,0.631224
C0S890,關山,2014-12-02,23.0395,121.175017,0.9973936
C0SB30,新蘭,2014-12-02,22.869214,121.223228,0.99402833
C2R970,屏科大,2014-12-02,22.648275,120.619247,9.166543e-07
K2F750,種苗繁殖,2014-12-02,24.225972,120.800917,7.753586e-10
C1Z130,銅門,2014-12-02,23.965694,121.492842,1.3319591e-07
C0AD40,土城,2014-12-02,24.973208,121.445169,0.9752467
CAN140,六官養殖協會,2014-12-02,23.22881,120.29962,2.5091713e-06
C0X180,山上,2014-12-02,23.0757,120.363253,7.618055e-08
C0F9Z0,雪山東峰,2014-12-02,24.388792,121.268675,1.4850642e-08
C1M480,獨立山,2014-12-02,23.537022,120.607797,9.399823e-10
C0X220,學甲,2014-12-02,23.230367,120.182187,0.006943345
467650,日月潭,2014-12-02,23.881325,120.90805,7.6656226e-10
C0K600,箔子寮,2014-12-02,23.6197,120.14,0.000113775655
C0G830,埤頭,2014-12-02,23.866003,120.452806,1.4372425e-07
C0S950,七塊厝,2014-12-02,22.954453,121.229922,7.370671e-08
467110,金門,2014-12-02,24.407306,118.289281,0.9431679
C0AH80,深坑,2014-12-02,25.002703,121.628328,0.90614873
467990,馬祖,2014-12-02,26.169269,119.923419,3.463398e-08
C0A970,三貂角,2014-12-02,25.007606,122.002058,0.99614227
C2D730,寶山農場,2014-12-02,24.732444,120.976153,0.36292353
C0K430,褒忠,2014-12-02,23.690938,120.303634,1.4802709e-05
467480,嘉義,2014-12-02,23.495925,120.432906,1.4560605e-07
C2E540,後龍,2014-12-02,24.606489,120.783933,0.0035345324
C0V400,阿公店,2014-12-02,22.804194,120.355528,3.2557006e-07
C0R440,大漢山,2014-12-02,22.405264,120.753181,6.0685683e-09
C0K280,四湖,2014-12-02,23.630414,120.227125,2.6377105e-05
C1F9B1,桐林,2014-12-02,24.066172,120.735194,1.7439591e-08
C2H9U0,鳳鵬,2014-12-02,23.763919,120.788061,1.0655622e-09
C0K390,土庫,2014-12-02,23.679029,120.395574,8.925217e-08
C1I450,望鄉山,2014-12-02,23.594153,120.944286,8.689391e-09
C0E910,海埔,2014-12-02,24.648767,120.772435,9.710115e-05
B2E890,畜試北區分所,2014-12-02,24.527806,120.770972,1.17458785e-05
C0R750,四林格山,2014-12-02,22.076989,120.802439,0.15893061
C0F0C0,中坑,2014-12-02,24.248517,120.903319,1.5079952e-09
C1I121,大鞍,2014-12-02,23.678381,120.760017,1.4518134e-09
72U480,花改蘭陽分場,2014-12-02,24.686306,121.716583,0.99936205
C0A770,科教館,2014-12-02,25.096356,121.516507,0.97705156
C0AJ60,六塊厝,2014-12-02,25.24,121.4481,0.9969342
C0R620,墾雷,2014-12-02,21.900836,120.855269,0.9690885
467420,永康,2014-12-02,23.038386,120.2367,0.051960833
467300,東吉島,2014-12-02,23.25695,119.667467,0.99854153
C0I410,名間,2014-12-02,23.837053,120.701447,2.235707e-08
A2C560,農工中心,2014-12-02,24.985917,121.239833,0.76248133
C0V740,旗山,2014-12-02,22.888614,120.483597,9.2320255e-07
C0Z061,玉里,2014-12-02,23.3215,121.339656,0.0036707541
C0S840,南田,2014-12-02,22.279725,120.889208,0.066609085
C1I470,杉林溪,2014-12-02,23.639517,120.786444,1.862758e-09
C1X040,東原,2014-12-02,23.291597,120.463822,1.8304572e-09
C0R660,枋寮,2014-12-02,22.367722,120.590647,2.6353897e-05
C1R120,上德文,2014-12-02,22.763272,120.704442,1.957638e-07
C0K450,大埤,2014-12-02,23.646074,120.431537,2.6658268e-08
C0UA00,土場,2014-12-02,24.576533,121.495333,1.2289367e-07
467080,宜蘭,2014-12-02,24.763975,121.756528,0.84175426
C0N030,四草,2014-12-02,23.0235,120.1116,0.9398754
C0V650,彌陀,2014-12-02,22.783806,120.246361,0.00072883663
C0D660,新竹市東區,2014-12-02,24.798681,120.986942,0.7343557
82S580,茶改東部分場,2014-12-02,22.907694,121.130139,2.445683e-06
C0SB40,興隆,2014-12-02,22.913661,121.257469,0.00053568935
C0C710,大溪永福,2014-12-02,24.892936,121.324975,0.74189246
C0FA20,溫寮,2014-12-02,24.372177,120.583125,0.0007228685
C0V640,湖內,2014-12-02,22.887139,120.2445,0.5247105
C0R910,下寮,2014-12-02,22.3929,120.5548,0.070447855
C0Z020,明里,2014-12-02,23.208717,121.262342,1.1875301e-06
C0M770,嘉義梅山,2014-12-02,23.585398,120.555587,4.5145384e-08
G2F820,農業試驗所,2014-12-02,24.031261,120.688133,0.00011610066
C0C660,楊梅,2014-12-02,24.912375,121.143047,0.5948647
C1E511,新開,2014-12-02,24.347703,120.827019,9.6613e-10
G2F820,農試所(霧峰),2014-12-02,24.031261,120.688133,0.00011610066
C1I070,和社,2014-12-02,23.591131,120.888861,6.67014e-10
C2F000,大肚,2014-12-02,24.15295,120.572117,1.2990834e-09
C1S850,豐南,2014-12-02,23.122139,121.262389,5.952443e-08
C2A920,富貴角,2014-12-02,25.263783,121.565258,0.99909157
CAH030,茶改場竹圍站,2014-12-02,23.860083,120.637528,1.6203163e-09
C0T960,光復,2014-12-02,23.660694,121.424964,3.7919372e-07
C0F9M0,豐原,2014-12-02,24.254322,120.720692,4.701642e-09
C0R720,旭海,2014-12-02,22.205403,120.887614,0.056736056
C0V710,苓雅,2014-12-02,22.622742,120.330669,0.0010714434
C0C740,觀音工業區,2014-12-02,25.064764,121.114856,0.917908
CAC040,拉拉山,2014-12-02,24.699317,121.427133,2.7336282e-09
C0V790,萬山,2014-12-02,22.905944,120.688056,2.4760702e-09
U2HA30,臺大和社,2014-12-02,23.590856,120.888864,6.67014e-10
C0AJ90,澳底,2014-12-02,25.0552,121.9253,0.9978018
C0Z100,東華,2014-12-02,23.89525,121.549833,2.2888885e-06
C0G970,三豐,2014-12-02,23.882,120.2895,3.819304e-05
V2K610,大庄合作社,2014-12-02,23.8068,120.367939,2.596768e-06
C0V900,汕尾,2014-12-02,22.4782,120.4151,9.4701725e-05
C1R630,龍泉,2014-12-02,22.66701,120.59091,3.009325e-06
C1AC50,關渡,2014-12-02,25.133486,121.469331,0.99389344
C0F9I0,神岡,2014-12-02,24.272481,120.658314,6.948895e-09
C0K460,斗南,2014-12-02,23.678734,120.478359,2.4886356e-07
467410,臺南,2014-12-02,22.993239,120.204772,0.028535081
C2O810,曾文,2014-12-02,23.219681,120.497328,1.5657784e-08
467280,後龍,2014-12-02,24.648563,120.831834,1.9188958e-05
C1F9J1,清水林,2014-12-02,24.071242,120.820419,1.0366069e-09
C2A650,火燒寮,2014-12-02,25.002719,121.742892,0.18177901
466930,竹子湖,2014-12-02,25.162078,121.544547,1.3609489e-06
C1I220,樟湖,2014-12-02,23.905333,120.846983,7.8443096e-10
C0I390,仁愛,2014-12-02,24.022122,121.132206,7.752669e-10
C0Z300,東里,2014-12-02,23.26853,121.30547,0.001345096
C1V590,新發,2014-12-02,23.057019,120.646064,3.2549643e-08
C0K510,水林,2014-12-02,23.572924,120.24597,9.024115e-05
72S590,東改賓朗果園,2014-12-02,22.813889,121.071278,0.99862796
82A750,茶改北部分場,2014-12-02,24.955778,121.631222,2.043746e-08
C1A750,石碇服務區,2014-12-02,25.00872,121.646242,0.8916992
C0X300,鹿寮,2014-12-02,23.386047,120.477331,3.3387617e-09
G2AI50,關渡,2014-12-02,25.11575,121.492,0.97782713
C0K590,雲林東勢,2014-12-02,23.674192,120.255721,1.4802709e-05
C0A570,桶後,2014-12-02,24.848222,121.597992,0.0014276815
C1S800,華源,2014-12-02,22.657883,121.02325,0.9757865
C0G720,溪州,2014-12-02,23.851589,120.499093,9.158996e-08
C1V160,達卡努瓦,2014-12-02,23.279811,120.705319,2.08258e-09
C2M410,馬頭山,2014-12-02,23.324361,120.582017,1.7030038e-09
C0V850,蚵仔寮,2014-12-02,22.7256,120.2527,0.016359907
C0S740,池上,2014-12-02,23.119628,121.209469,3.1966445e-07
C1V390,尖山,2014-12-02,22.813153,120.367789,1.7269443e-07
C0AH70,松山,2014-12-02,25.04871,121.55042,0.93361765
C0N010,鯤鯓國小,2014-12-02,23.1879,120.0889,0.00605016
C0R550,新埤,2014-12-02,22.467947,120.582894,9.892076e-07
C0SA60,知本（水試所）,2014-12-02,22.702394,121.082761,0.7107483
C0T9I0,豐濱,2014-12-02,23.583897,121.514806,3.9701015e-07
C0UB00,淡江大學蘭陽校園,2014-12-02,24.823239,121.730383,2.42198e-07
C0W240,九宮,2014-12-02,24.423753,118.240186,0.033394843
C0T9N0,富里,2014-12-02,23.171639,121.249378,1.255215e-06
U2HA50,臺大竹山,2014-12-02,23.756972,120.681556,1.9263078e-08
C0V840,鳳鼻頭,2014-12-02,22.5083,120.3591,0.0016552898
C0X140,西港,2014-12-02,23.125608,120.203108,0.19889198
72D080,桃改五峰分場,2014-12-02,24.612194,121.157167,9.291357e-10
C2H9P0,伊拿谷,2014-12-02,23.963211,121.088264,9.015306e-10
C2H9F0,柑林,2014-12-02,24.018658,120.847072,2.0134379e-09
C0TA20,加灣,2014-12-02,24.082025,121.608944,3.7846425e-05
C0V530,阿蓮,2014-12-02,22.883208,120.327508,0.0003372919
C1O880,關山,2014-12-02,23.173397,120.594092,1.3718254e-09
C0E791,卓蘭,2014-12-02,24.3126,120.8244,9.2349783e-10
C1I030,武界,2014-12-02,23.913225,121.052483,7.9140255e-10
C0R520,崁頂,2014-12-02,22.514781,120.506914,0.041885853
C0R341,牡丹,2014-12-02,22.130036,120.792639,0.9882073
C0R930,萬丹,2014-12-02,22.5885,120.4851,1.1892993e-06
C0S760,紅石,2014-12-02,23.069131,121.126219,5.0996727e-09
C1M610,石磐龍,2014-12-02,23.496606,120.663506,1.104631e-09
C0UA10,鴛鴦湖,2014-12-02,24.590269,121.412228,2.9981029e-09
V2C260,八德蔬果,2014-12-02,24.978508,121.281819,0.5927796
C0R800,丹路,2014-12-02,22.204481,120.750989,0.96953505
C0G920,永靖,2014-12-02,23.924703,120.547533,2.1155622e-06
C2M950,太和,2014-12-02,23.538372,120.702961,1.4822449e-09
C1A630,下盆,2014-12-02,24.771003,121.538622,3.6000525e-08
B2N890,畜產試驗所,2014-12-02,23.058972,120.336406,8.775913e-07
C0UA30,白嶺,2014-12-02,24.527819,121.519031,4.1576693e-09
C1V580,溪南(特生中心),2014-12-02,23.084972,120.788475,3.3699705e-09
C1T970,大農,2014-12-02,23.615233,121.413331,1.8017742e-07
E2S960,林試太麻里2,2014-12-02,22.598014,120.989761,0.9246858
C0R650,竹田,2014-12-02,22.58486,120.54344,1.001419e-06
C1H900,清流,2014-12-02,24.080775,120.962997,1.3499649e-09
C1C510,水尾,2014-12-02,24.940081,121.087161,0.67319983
C0F9X0,大雅(中科園區),2014-12-02,24.21528,120.62445,6.286235e-07
C0SB60,白守蓮,2014-12-02,23.126769,121.401914,0.90278536
C0O970,虎頭埤,2014-12-02,23.021375,120.347878,5.239447e-06
C0C730,中大臨海站,2014-12-02,24.966126,121.008581,0.6325205
C0X250,新營,2014-12-02,23.310689,120.316681,6.567739e-06
C0V700,三民,2014-12-02,22.645017,120.311233,0.0010714434
C0U870,大礁溪,2014-12-02,24.791042,121.675047,4.751643e-08
C0E870,高鐵苗栗,2014-12-02,24.60725,120.826094,0.0018161996
A2K570,古坑花卉中心,2014-12-02,23.63353,120.55239,2.7209355e-09
C0M860,新美,2014-12-02,23.338017,120.683169,1.0886281e-09
C1E701,八卦,2014-12-02,24.491756,120.927619,3.887063e-09
C0I420,國姓,2014-12-02,24.037803,120.855072,1.926848e-08
C2D720,關西工作站,2014-12-02,24.757275,121.184792,0.31959584
C0S960,香蘭,2014-12-02,22.587569,120.993375,0.9246858
C0R260,春日,2014-12-02,22.370361,120.628306,0.92596114
72G600,臺中農改場,2014-12-02,24.003028,120.534389,3.5906265e-05
C0Z210,瑞穗,2014-12-02,23.5239,121.39021,5.92167e-07
C0M820,達邦,2014-12-02,23.453994,120.749517,7.8159484e-10
C0V860,南寮,2014-12-02,22.7616,120.2339,0.0011733461
C0G740,大城,2014-12-02,23.852487,120.320935,2.0861864e-05
C0R920,塭仔,2014-12-02,22.4169,120.5197,0.13156986
C0R470,高樹,2014-12-02,22.826389,120.600806,1.4614011e-07
C0R680,佳樂水,2014-12-02,21.993578,120.861633,0.97186315
C1O870,大棟山,2014-12-02,23.31157,120.52226,1.6062571e-09
C0D360,梅花,2014-12-02,24.678347,121.208558,2.3529923e-08
C0Z190,富世,2014-12-02,24.14743,121.6297,1.9391071e-05
C0AI10,屈尺,2014-12-02,24.92184,121.54475,0.90614873
B2U990,畜試東區分所,2014-12-02,24.669039,121.832561,0.99945265
C0SB80,長濱漁港,2014-12-02,23.313644,121.459994,0.993675
C0R240,來義,2014-12-02,22.527306,120.625111,0.8550189
C0V910,大樹,2014-12-02,22.684645,120.432803,5.8169067e-06
C1R610,西大武山,2014-12-02,22.617719,120.7322,1.0377549e-08
C0G900,線西,2014-12-02,24.143358,120.443536,0.0007400622
C0M700,竹崎,2014-12-02,23.526178,120.555508,1.8335462e-09
C2E880,三義,2014-12-02,24.405478,120.749819,6.4185157e-10
C0C720,竹圍,2014-12-02,25.112692,121.239824,0.9968609
C0F9P0,清水,2014-12-02,24.312297,120.562242,0.0006594521
C0Z150,吉安光華,2014-12-02,23.930925,121.595153,5.240177e-06
C1D640,外坪(五指山),2014-12-02,24.644447,121.090961,8.692906e-09
C0F9O0,潭子,2014-12-02,24.213106,120.703933,5.165655e-09
C2H9R0,卓社,2014-12-02,23.887894,121.000086,8.597445e-10
72T250,花蓮農改場,2014-12-02,23.975222,121.563889,1.2751696e-05
C0E780,銅鑼,2014-12-02,24.489681,120.790853,1.644858e-06
C1T950,太安,2014-12-02,23.666719,121.370128,3.3595737e-09
C0E830,苑裡,2014-12-02,24.439714,120.653053,0.00016135028
467270,田中,2014-12-02,23.873803,120.581286,3.4400605e-06
C0SA10,檳榔四格山,2014-12-02,22.810031,121.109308,0.99926543
C1T830,布洛灣,2014-12-02,24.17184,121.57127,9.974178e-07
C0F970,大坑,2014-12-02,24.173142,120.722289,1.1536096e-07
C1U920,思源,2014-12-02,24.393125,121.347214,3.212957e-09
C0A931,三和,2014-12-02,25.233153,121.595236,0.5277563
C0I010,廬山,2014-12-02,24.033311,121.181808,1.4335971e-09
C2M940,日野賀,2014-12-02,23.434056,120.727169,1.2075921e-09
C0R860,鼻頭,2014-12-02,22.1043,120.8979,0.96617424
C0UB20,壯圍,2014-12-02,24.7359,121.8163,0.999453
C0R790,九棚,2014-12-02,22.14195,120.889281,0.038365465
C0W110,東莒,2014-12-02,25.9652,119.98069,0.99344975
C1U930,粉鳥林,2014-12-02,24.497088,121.842479,0.005532323
C1I211,蘆竹湳,2014-12-02,23.934019,120.811994,7.382468e-10
C0S830,長濱,2014-12-02,23.286817,121.411975,6.2731436e-07
C1F9F1,伯公龍,2014-12-02,24.272392,120.849047,6.9463735e-10
C0E810,西湖,2014-12-02,24.562947,120.7485,0.0004644567
C1I440,新高口,2014-12-02,23.478744,120.878939,4.7750723e-09
C0O840,王爺宮,2014-12-02,23.222064,120.40085,1.5657784e-08
C0T9G0,鳳林山,2014-12-02,23.735269,121.420131,5.4690034e-08
C0X080,佳里,2014-12-02,23.173039,120.145086,0.012213724
C0FB70,大甲溪埔,2014-12-02,24.370625,120.620067,9.0694135e-05
C0Z310,清水斷崖,2014-12-02,24.218294,121.689142,0.00077279116
C0M680,太保,2014-12-02,23.455062,120.331455,1.5905192e-05
C1S820,金峰,2014-12-02,22.590969,120.933236,0.92749727
C0AD10,八里,2014-12-02,25.150211,121.403947,0.9968609
C2K240,草嶺,2014-12-02,23.59555,120.693461,1.0128567e-09
C1SA70,都蘭,2014-12-02,22.87794,121.226881,0.00053568935
C0K440,二崙,2014-12-02,23.772797,120.408944,8.9993705e-08
C1A760,坪林交控,2014-12-02,24.94284,121.713442,0.0011325583
C0F9N0,大里,2014-12-02,24.092464,120.701378,0.00015744827
C0SA90,達仁林場,2014-12-02,22.264347,120.823972,0.9873377
C1R290,石門山,2014-12-02,22.112611,120.756597,0.1295945
42HA10,萬大發電廠,2014-12-02,23.978875,121.139639,1.1209548e-09
C0R890,山海,2014-12-02,21.9878,120.7091,0.974316
C0T9A0,月眉山,2014-12-02,23.809928,121.539828,4.5319744e-08
C0AC70,信義,2014-12-02,25.037822,121.564597,0.9336176
C0K560,棋山,2014-12-02,23.68645,120.603417,1.1558385e-07
C2FB50,出雲,2014-12-02,24.206469,120.902794,8.093068e-10
C1Z240,中平林道,2014-12-02,23.42115,121.26763,8.0340286e-09
U2H480,溪頭,2014-12-02,23.670306,120.798194,8.322605e-10
C0M880,好美里,2014-12-02,23.3364,120.138,0.012213724
C0T9E0,大坑,2014-12-02,23.880628,121.581981,7.942417e-08
C0K530,臺西,2014-12-02,23.701547,120.197559,2.2444898e-05
C1E900,國一N128K,2014-12-02,24.560997,120.844186,7.203371e-05
C0AJ50,水湳洞,2014-12-02,25.123695,121.862238,0.9999329
C0AI20,白沙灣,2014-12-02,25.283128,121.519058,0.99967915
C0A860,大坪,2014-12-02,25.165914,121.632969,0.00051772775
C1U850,觀音海岸,2014-12-02,24.38319,121.77856,7.433908e-08
C2K610,草嶺石壁,2014-12-02,23.602469,120.707731,1.1565752e-09
C0U950,鶯子嶺,2014-12-02,24.89754,121.79244,3.2558646e-08
C0O900,善化,2014-12-02,23.112883,120.297219,2.3361772e-06
C0K550,蔦松,2014-12-02,23.514319,120.229736,0.00020203351
E2P980,林試六龜中心,2014-12-02,22.991703,120.645722,5.2000564e-09
C0E590,通霄,2014-12-02,24.471892,120.704622,0.0001907877
C1I310,西巒,2014-12-02,23.754486,120.883956,7.640399e-10
C0A550,泰平,2014-12-02,24.971197,121.823711,2.2746265e-06
C0I360,水里,2014-12-02,23.812553,120.849792,2.7351146e-09
C0R830,高士,2014-12-02,22.121825,120.836781,0.12087633
C1I101,溪頭,2014-12-02,23.661789,120.807647,2.111357e-09
C0AJ20,野柳,2014-12-02,25.20703,121.690021,0.9999329
C0B060,暖暖,2014-12-02,25.0957,121.7403,0.99990517
C1H920,長豐,2014-12-02,24.102039,120.879897,9.811815e-10
C0V360,內門,2014-12-02,22.975481,120.466769,2.084678e-07
C0R850,林邊,2014-12-02,22.4634,120.5339,0.041885853
C0E930,龍鳳,2014-12-02,24.700034,120.859125,5.5823093e-06
C0U910,冬山,2014-12-02,24.63373,121.7937,0.99945265
C1E721,泰安,2014-12-02,24.489017,120.968036,9.267994e-10
82H320,茶改中部分場,2014-12-02,23.875611,120.913583,6.685871e-10
C0M750,布袋,2014-12-02,23.380878,120.167789,0.00020267117
C1S860,利嘉,2014-12-02,22.809417,121.050528,3.9129108e-07
72C440,桃園農改,2014-12-02,24.950944,121.030583,0.64566773
E2S980,林試太麻里1,2014-12-02,22.598922,120.980044,0.92114514
C0X170,關廟,2014-12-02,22.963017,120.327797,1.9793442e-06
C0V720,林園,2014-12-02,22.507747,120.394511,0.0010625842
C1I510,線浸林道,2014-12-02,23.761508,120.832956,8.7829316e-10
C0D690,外湖,2014-12-02,24.917735,120.968711,0.6325205
C0C750,新興坑尾,2014-12-02,25.0061,121.0971,0.919616
B2Q810,畜試南區分所,2014-12-02,21.945583,120.802167,0.97186315
C0S790,金崙,2014-12-02,22.538122,120.966875,0.9361723
C0AH90,福山植物園,2014-12-02,24.760717,121.58135,1.2036186e-07
C0I540,奇萊稜線,2014-12-02,24.109231,121.326456,1.3061674e-08
C0M850,表湖,2014-12-02,23.24186,120.64166,9.980766e-10
C0S770,大溪山,2014-12-02,22.478475,120.943325,0.98989916
C0AG80,中和,2014-12-02,24.991622,121.491792,0.93379426
C0T790,大禹嶺,2014-12-02,24.186117,121.316086,7.1247634e-09
C0T9B0,水源,2014-12-02,23.991861,121.537169,2.8821438e-08
C0R840,牡丹池山,2014-12-02,22.168389,120.841225,0.981116
C1I131,桶頭,2014-12-02,23.641944,120.654117,1.8575423e-09
CAL110,布袋國中,2014-12-02,23.35893,120.18026,0.0001807437
467571,新竹,2014-12-02,24.827853,121.014219,0.7561997
C0Z290,赤柯山,2014-12-02,23.36893,121.38293,1.787084e-08
C0X280,將軍,2014-12-02,23.214999,120.13577,0.012213724
C0S690,太麻里,2014-12-02,22.60902,120.98533,0.9937643
C0U880,北關,2014-12-02,24.9072,121.8734,0.9988103
C1H860,瑞岩,2014-12-02,24.123772,121.18345,1.6882078e-09
C0G810,埔心,2014-12-02,23.947633,120.525456,2.9908394e-06
C0U970,大福,2014-12-02,24.80064,121.81389,0.8551758
C2H9N0,仁愛東眼,2014-12-02,24.026875,121.1205,1.3829066e-09
C1E670,南礦,2014-12-02,24.538278,121.002836,8.1543494e-10
C0M520,東後寮,2014-12-02,23.369908,120.248065,0.00013532722
C1E461,松安,2014-12-02,24.397972,120.986022,8.620006e-10
72G600,臺中農改,2014-12-02,24.003028,120.534389,3.5906265e-05
C2N160,西拉雅風管處,2014-12-02,23.189481,120.335297,1.4635967e-06
C2M970,碧湖,2014-12-02,23.568632,120.624165,8.871965e-10
C0A640,石碇,2014-12-02,24.993969,121.662917,0.6808579
E2S960,林試太麻里2,2014-12-02,22.598,120.99775,0.92224896
C0F9Y0,桃山,2014-12-02,24.432739,121.303808,1.6470613e-08
C1I020,萬大,2014-12-02,23.979817,121.132261,7.7337353e-10
C0U940,羅東,2014-12-02,24.68184,121.74934,0.9994243
C0M650,朴子,2014-12-02,23.43463,120.23902,0.00015399922
C1I500,大尖山,2014-12-02,23.858572,120.994889,3.2036311e-09
C0G820,田尾,2014-12-02,23.901669,120.509389,2.1155622e-06
E2K600,四湖植物園,2014-12-02,23.676986,120.163433,2.2487875e-05
C0S730,綠島,2014-12-02,22.6672,121.47533,0.9950518
12Q970,東港工作站,2014-12-02,22.479997,120.466058,0.07073455
C0E430,南庄,2014-12-02,24.601775,121.000214,3.0027e-08
C1TA00,太魯閣,2014-12-02,24.15773,121.6236,0.001082642
466920,臺北,2014-12-02,25.037658,121.514853,0.93361765
C0R600,舊泰武,2014-12-02,22.588194,120.664944,2.5274142e-06
C1I260,北坑,2014-12-02,23.9246,121.006903,1.1913831e-09
466910,鞍部,2014-12-02,25.182586,121.529731,1.7796475e-07
C1I230,九份二山,2014-12-02,23.961944,120.845,7.7934403e-10
C2A660,瑞芳,2014-12-02,25.113169,121.801147,0.9905361
C0R270,琉球嶼,2014-12-02,22.332244,120.362236,0.9261344
C1T990,高寮,2014-12-02,23.394239,121.356808,4.1504363e-06
C0G620,芬園,2014-12-02,24.015678,120.6213,7.6622587e-07
C1Z140,荖溪,2014-12-02,23.890575,121.45964,7.22936e-09
C1I201,中心崙,2014-12-02,23.728722,120.712097,6.58832e-10
C1I400,凌霄,2014-12-02,24.018778,121.004456,1.4078734e-09
C1M640,十字,2014-12-02,23.492153,120.753683,1.5867566e-09
G2P820,農試鳳山分所,2014-12-02,22.646611,120.356083,0.00029151316
C0Z270,蕃薯寮,2014-12-02,23.73835,121.540108,2.2599892e-07
C0F9Q0,外埔,2014-12-02,24.347817,120.705686,1.29660105e-08
C0K580,高鐵雲林,2014-12-02,23.737456,120.417944,8.925217e-08
C2I090,鳳凰,2014-12-02,23.728081,120.787347,6.6833716e-10
C0U990,員山,2014-12-02,24.74435,121.72247,0.9994243
C0V770,大社,2014-12-02,22.730306,120.346639,0.004219906
C0X120,麻豆,2014-12-02,23.183289,120.248611,0.0069433483
C0C670,龍潭,2014-12-02,24.870056,121.221389,4.628034e-06
C0D680,香山濕地,2014-12-02,24.783581,120.914988,0.78922665
C0S980,勝林山,2014-12-02,22.430439,120.8938,1.9668973e-06
C0V730,大寮,2014-12-02,22.605614,120.395717,3.992106e-06
C0R570,麟洛,2014-12-02,22.65078,120.52719,5.4722483e-07
C2M930,石卓,2014-12-02,23.478744,120.702264,1.547825e-09
C0G9B0,和美,2014-12-02,24.105169,120.492131,2.1550693e-05
CAG100,王功漁港,2014-12-02,23.96824,120.32586,9.207142e-06
C0X290,北門,2014-12-02,23.267772,120.125481,0.012213724
C2F930,大甲,2014-12-02,24.347667,120.640403,7.397362e-06
C0D650,湖口,2014-12-02,24.904794,121.043628,0.6925667
C0E420,竹南,2014-12-02,24.708978,120.888897,0.7351239
C0U780,五結,2014-12-02,24.68637,121.79794,0.99945265
C1I250,鯉潭,2014-12-02,23.961922,120.991131,9.811815e-10
C0R130,阿禮,2014-12-02,22.742908,120.743678,4.7024495e-09
C0X100,臺南市北區,2014-12-02,23.010394,120.194228,0.11367802
C0S920,金峰嘉蘭,2014-12-02,22.594789,120.960825,0.9175803
C0V490,新興,2014-12-02,22.627422,120.298803,0.0010625842
C0F9K0,大安,2014-12-02,24.345061,120.588025,0.00024408918
72N100,臺南農改,2014-12-02,23.0605,120.342194,8.775913e-07
467290,古坑,2014-12-02,23.633639,120.551889,2.7209355e-09
C2E970,八甲,2014-12-02,24.535811,120.795983,1.1622357e-06
C0V440,鳳山,2014-12-02,22.646653,120.356122,0.00029151316
C1T940,大觀,2014-12-02,23.714206,121.373133,5.4410254e-08
72T250,花蓮農改,2014-12-02,23.975222,121.563889,1.2751696e-05
C0E740,造橋,2014-12-02,24.637056,120.864778,2.1238868e-06
C0R100,尾寮山,2014-12-02,22.833111,120.683889,4.6374105e-09
A2K630,臺大雲林校區,2014-12-02,23.730628,120.423903,8.925217e-08
C0D580,寶山,2014-12-02,24.735006,121.025192,7.780587e-05
E2P990,林試扇平站,2014-12-02,22.9677,120.6857,7.294004e-08
C0AI30,三重,2014-12-02,25.057328,121.500629,0.97705156
C0AH00,汐止,2014-12-02,25.066881,121.658778,0.9999329
C1Z040,立山,2014-12-02,23.443356,121.327375,6.745735e-08
C0W130,花嶼,2014-12-02,23.40007,119.32276,0.9525788
C0A950,鼻頭角,2014-12-02,25.129036,121.923372,0.99810874
C0K470,林內,2014-12-02,23.748675,120.609642,2.5978817e-08
C2F990,摩天嶺,2014-12-02,24.322458,120.936819,1.3991491e-09
82C160,茶改場,2014-12-02,24.908472,121.185333,0.22972769
C0Z320,清水林道,2014-12-02,23.27125,121.188272,4.0210235e-08
C0R760,南仁湖,2014-12-02,22.084681,120.863353,0.12706584
C0M670,大林,2014-12-02,23.600616,120.45841,5.9159635e-07
C0M800,茶山,2014-12-02,23.299075,120.664767,2.0163509e-09
C0A9C0,天母,2014-12-02,25.117494,121.537169,0.9743422
72K220,南改斗南分場,2014-12-02,23.634556,120.477333,5.7317397e-08
72AI40,桃改樹林分場,2014-12-02,24.944503,121.386972,0.97192353
C0S910,蘭嶼燈塔,2014-12-02,22.081197,121.503117,0.29723513
C0B050,八斗子,2014-12-02,25.144754,121.79167,0.9999377
C0U900,內城,2014-12-02,24.71813,121.68766,0.7616497
C0X320,柳營,2014-12-02,23.253328,120.375253,1.1724772e-07
C0M790,新港,2014-12-02,23.553269,120.345728,1.1979897e-05
C0F9T0,西屯,2014-12-02,24.179494,120.641275,6.149597e-06
C0SA30,都歷,2014-12-02,23.020333,121.323642,0.9889352
C0C620,蘆竹,2014-12-02,25.084275,121.265767,0.9967059
C0R730,大坪頂,2014-12-02,22.024633,120.69355,0.8906837
C0AJ40,石門,2014-12-02,25.273672,121.601198,0.9993191
C0E750,苗栗,2014-12-02,24.564569,120.824575,0.00013117657
C0T870,鯉魚潭,2014-12-02,23.935639,121.508944,2.6038828e-07
C1V170,排雲,2014-12-02,23.463619,120.954147,1.5994466e-08
C2H950,中寮,2014-12-02,23.884447,120.766406,1.0809668e-08
C0R350,貓鼻頭,2014-12-02,21.921774,120.7358,0.9690885
C0V660,岡山,2014-12-02,22.797078,120.294958,0.00023845007
C1H941,雙冬,2014-12-02,23.967378,120.802189,1.1255246e-09
C0AJ70,田寮,2014-12-02,25.2698,121.4886,0.9996938
C0AI00,五股,2014-12-02,25.07445,121.42728,0.8085285
C0Z280,德武,2014-12-02,23.47426,121.41071,5.922969e-07
C0R700,枋山,2014-12-02,22.246844,120.661086,0.94436455
C0C460,復興,2014-12-02,24.820208,121.352281,1.8726623e-06
E2H360,蓮華池,2014-12-02,23.918333,120.885278,7.0543765e-10
C0M640,中埔,2014-12-02,23.42538,120.5229,2.352529e-09
C0W140,金沙,2014-12-02,24.488292,118.408778,0.9872107
C2A540,四堵,2014-12-02,24.8926,121.745736,0.011302681
C0ACA0,新莊,2014-12-02,25.051478,121.446756,0.9976553
C0R220,潮州,2014-12-02,22.534361,120.54,1.3052622e-05
U2HA40,臺大內茅埔,2014-12-02,23.689722,120.851117,7.1649064e-10
467490,臺中,2014-12-02,24.145736,120.684075,5.0508004e-07
C0U960,翠峰湖,2014-12-02,24.510856,121.608044,6.2996097e-09
E2HA20,林試畢祿溪站,2014-12-02,24.226944,121.308522,3.2136924e-09
C0V890,前鎮,2014-12-02,22.5718,120.3117,0.0016552898
467620,蘭嶼,2014-12-02,22.036969,121.558339,0.090795405
C1F941,雪嶺,2014-12-02,24.280586,121.026642,7.66019e-09
C2H9E0,國姓南港,2014-12-02,23.911108,120.846556,8.174188e-10
C0AC80,文山,2014-12-02,25.00235,121.575728,0.90614873
C0F9R0,龍井,2014-12-02,24.184536,120.528972,0.0010544625
C0M760,民雄,2014-12-02,23.551754,120.428457,3.0301294e-07
C0UA40,西德山,2014-12-02,24.560647,121.752608,1.6308217e-08
C1T920,中興,2014-12-02,23.769503,121.498653,9.4957943e-07
C0D550,雪霸,2014-12-02,24.526972,121.11605,2.9123641e-09
C2F860,梨山,2014-12-02,24.247522,121.243669,3.3842769e-09
C0R320,車城,2014-12-02,22.0744,120.716247,0.974316
C1S870,南美山,2014-12-02,23.15025,121.382333,0.9949911
C0B020,基隆嶼,2014-12-02,25.19141,121.78391,0.9999329
C1U501,牛鬥,2014-12-02,24.637836,121.573656,0.0017612434
C0M730,嘉義市東區,2014-12-02,23.457673,120.460531,3.5448135e-08
C0S700,知本,2014-12-02,22.684866,121.005642,0.99525297
C1N001,沙崙,2014-12-02,22.935472,120.309406,0.0003372919
C0V760,橋頭,2014-12-02,22.757806,120.30575,0.0001202418
C0G960,福寶,2014-12-02,24.0443,120.3814,1.9152081e-05
C0X210,白河,2014-12-02,23.347466,120.414427,9.386949e-08
C0S810,東河,2014-12-02,22.972672,121.303986,0.0021818723
C2R170,屏東,2014-12-02,22.66027,120.49403,7.5954995e-07
C0R670,楓港,2014-12-02,22.190131,120.692156,0.94436455
C0FA50,霧峰,2014-12-02,24.0419,120.6995,3.0978685e-05
C0UB10,蘇澳,2014-12-02,24.5969,121.8571,0.9904857
C0G950,防潮門,2014-12-02,24.1835,120.4871,0.0019383075
C0M740,六腳,2014-12-02,23.492871,120.290625,2.3495057e-05
C1R250,力里,2014-12-02,22.428117,120.629228,0.8550189
C0K330,虎尾,2014-12-02,23.719183,120.442036,6.9367545e-08
C2FA00,烏石坑,2014-12-02,24.273503,120.947617,1.4165331e-09
C0V620,永安,2014-12-02,22.82315,120.236856,0.00072883663
C1I330,楓樹林,2014-12-02,23.986803,121.076117,8.559077e-10
C0W200,湖西,2014-12-02,23.596314,119.67275,0.99616545
72Q010,高雄農改場,2014-12-02,22.709333,120.525889,4.409417e-07
C0SA40,瑞和,2014-12-02,22.974361,121.156697,0.99789196
C0C680,龜山,2014-12-02,25.02846,121.38656,6.477798e-06
C2V260,月眉,2014-12-02,22.971003,120.539853,5.562515e-09
C0V450,鳳森,2014-12-02,22.545064,120.392592,9.711438e-07
C0U720,南山,2014-12-02,24.43742,121.38167,4.1599777e-09
A2N290,臺南蘭花園區,2014-12-02,23.340258,120.379661,1.1724772e-07
C0R560,新園,2014-12-02,22.5434,120.461558,0.041885853
C0U890,三星,2014-12-02,24.66812,121.65302,0.46362558
C1V300,御油山,2014-12-02,23.001983,120.715364,3.3146879e-09
C0U600,礁溪,2014-12-02,24.817539,121.765608,0.82370853
C1T980,龍澗,2014-12-02,24.023289,121.411328,5.39122e-09
C0D670,海天一線,2014-12-02,24.831986,120.914438,0.79774624
C0SA00,歷坵,2014-12-02,22.520969,120.89185,0.99087423
C0M710,東石,2014-12-02,23.458927,120.15385,0.00020203351
C0M780,鹿草,2014-12-02,23.41134,120.30835,6.2603813e-06
C0U520,雙連埤,2014-12-02,24.753033,121.641303,4.5621473e-08
C0B010,七堵,2014-12-02,25.094819,121.71713,0.99992675
C0R480,長治,2014-12-02,22.693128,120.542622,4.9315403e-08
C1V830,國三S383K,2014-12-02,22.781967,120.426475,2.5803015e-08
12Q980,恆春工作站,2014-12-02,22.079678,120.714425,0.974316
C1O940,東山服務區,2014-12-02,23.286016,120.398472,8.6266596e-08
C1U840,東澳嶺,2014-12-02,24.5378,121.8485,9.0015334e-08
C1D630,飛鳳山,2014-12-02,24.766464,121.119178,1.6402075e-07
C0S940,石寧山,2014-12-02,23.223772,121.406639,2.4821917e-05
C0K410,北港,2014-12-02,23.573957,120.292802,1.604913e-05
C2M620,瑞里,2014-12-02,23.545133,120.675197,1.2816902e-09
C0SB70,小港漁港,2014-12-02,23.158558,121.400431,0.019713778
C2O950,安南,2014-12-02,23.076694,120.144861,0.7578506
C0F0E0,南湖圈谷,2014-12-02,24.363714,121.444667,1.9429496e-08
467610,成功,2014-12-02,23.097486,121.373428,0.9458187
C0G890,伸港,2014-12-02,24.148933,120.484403,0.006555235
C2E540,龍溪,2014-12-02,24.606489,120.783933,0.0035345324
C1V200,梅山,2014-12-02,23.268447,120.823556,3.1022303e-09
C0T9H0,加路蘭山,2014-12-02,23.682947,121.5274,2.90353e-08
C2O930,玉井,2014-12-02,23.126042,120.46055,9.3797006e-08
C1F911,新伯公,2014-12-02,24.221361,120.841069,9.941362e-10
C0R490,九如,2014-12-02,22.7405,120.490503,5.4722483e-07
C0X200,左鎮,2014-12-02,23.056758,120.408522,9.0869925e-08
C0SB50,叭嗡嗡,2014-12-02,23.047062,121.343223,0.23664731
C1F891,稍來,2014-12-02,24.265689,121.001142,4.2059325e-09
72N240,七股研究中心,2014-12-02,23.081672,120.062894,0.9856169
C0C700,中壢,2014-12-02,24.977661,121.256375,0.56207746
C0M690,水上,2014-12-02,23.419734,120.388909,9.803198e-08
C0V690,鼓山,2014-12-02,22.623325,120.275575,0.0010625842
C0O860,大內,2014-12-02,23.11885,120.36083,4.2561783e-08
C0Z200,萬榮,2014-12-02,23.709219,121.420106,2.6038828e-07
C0T9D0,和中,2014-12-02,24.26676,121.74103,0.11167037
C1O921,楠西,2014-12-02,23.183511,120.484083,3.897689e-08
C0AJ30,淡水觀海,2014-12-02,25.184591,121.408616,0.9969342
C0V810,左營,2014-12-02,22.67491,120.28491,0.0070738555
C0UA70,桃源谷,2014-12-02,24.962606,121.888875,4.9546776e-07
C0X130,官田,2014-12-02,23.193217,120.315422,1.8996053e-06
C1H000,翠峰,2014-12-02,24.109397,121.205211,3.5270338e-09
C0UA90,石城,2014-12-02,24.980444,121.951214,0.998453
C1E681,南勢山,2014-12-02,24.421669,120.923831,9.097042e-10
C0A9F0,內湖,2014-12-02,25.079422,121.57545,0.93361765
C0K291,宜梧,2014-12-02,23.536281,120.169329,0.00028664194
C1K540,口湖,2014-12-02,23.585344,120.180517,0.00013835484
C0R780,滿州,2014-12-02,22.024403,120.839892,0.96717834
C0V870,文安,2014-12-02,22.8025,120.2164,0.0011733461
C0U650,玉蘭,2014-12-02,24.675286,121.587061,1.2235293e-07
C0R640,東港,2014-12-02,22.46247,120.44074,0.0016552898
K2E360,苗栗農改,2014-12-02,24.495722,120.829111,1.2145849e-05
C0AJ80,板橋,2014-12-02,25.0107,121.4489,0.9752467
C0S660,下馬,2014-12-02,23.150427,121.070312,7.964775e-09
C1H9B1,阿眉,2014-12-02,24.1263,120.994672,2.3479836e-09
C0UA20,多加屯,2014-12-02,24.368614,121.373189,6.0114047e-09
C0E730,頭份,2014-12-02,24.688247,120.912206,0.7351239
72V140,高改旗南分場,2014-12-02,22.857861,120.516667,1.3299289e-08
C0K480,莿桐,2014-12-02,23.761192,120.502372,5.585636e-07
C0U980,坪林石牌,2014-12-02,24.86478,121.77396,1.0608887e-07
C0T900,西林,2014-12-02,23.8119,121.441458,1.5965426e-07
C1I150,青雲,2014-12-02,23.793361,120.949378,7.756308e-10
467350,澎湖,2014-12-02,23.565503,119.563094,0.99357903
C0G800,埔鹽,2014-12-02,24.000394,120.431683,8.588768e-06
C0H960,草屯,2014-12-02,23.973672,120.68085,9.300674e-08
C1V780,多納林道,2014-12-02,22.888028,120.737917,3.1169214e-09
C0E920,通霄漁港,2014-12-02,24.498589,120.673876,0.01016118
C0Z330,安通山,2014-12-02,23.290728,121.348528,9.092609e-08
C0AH10,永和,2014-12-02,25.01125,121.508111,0.9388502
C0AK10,太平里,2014-12-02,25.134937,121.364899,0.9976553
C2G640,鹿港,2014-12-02,24.0753,120.430481,8.583658e-06
C1E890,國三N149K,2014-12-02,24.463414,120.680019,4.224512e-05
C1R110,口社,2014-12-02,22.770111,120.645222,6.7319434e-08
C1M870,國三N285K,2014-12-02,23.550319,120.505833,1.4231308e-08
467050,新屋,2014-12-02,25.006744,121.047486,0.6348233
C1E480,鳳美,2014-12-02,24.554803,121.034747,8.5364477e-10
C0M530,奮起湖,2014-12-02,23.493903,120.699253,1.5094945e-09
C0C590,觀音,2014-12-02,25.027072,121.153317,0.9896628
C0T9M0,靜浦,2014-12-02,23.455167,121.495028,1.0920954e-06
C2H9M0,發祥,2014-12-02,24.154094,121.164517,1.0305174e-09
C0AI40,石牌,2014-12-02,25.115597,121.513139,0.9752467
C1F871,上谷關,2014-12-02,24.203483,121.018644,1.4165331e-09
C2H9G0,百勝,2014-12-02,24.051142,120.909361,7.620867e-10
C0G880,二水,2014-12-02,23.810742,120.6173,4.670095e-07
C0R940,加祿堂,2014-12-02,22.3363,120.6217,0.9790205
C0W220,北竿,2014-12-02,26.220358,119.974881,2.2693972e-07
C0O960,崎頂,2014-12-02,22.959547,120.369317,4.709882e-09
C0S750,向陽,2014-12-02,23.248397,120.986133,4.6599404e-09
C0T9F0,水璉,2014-12-02,23.797131,121.542514,8.4189345e-08
C1M600,頭凍,2014-12-02,23.406364,120.603339,1.0796187e-09
467660,臺東,2014-12-02,22.752211,121.154586,0.99050623
C1D380,新埔,2014-12-02,24.84745,121.03834,0.6771275
C2G980,田頭村,2014-12-02,23.8263,120.444175,8.9993705e-08
C0V750,路竹,2014-12-02,22.854997,120.259439,4.7042918e-06
C0N050,蚵寮,2014-12-02,23.301,120.1104,0.0060501713
72M700,南改鹿草分場,2014-12-02,23.416869,120.283061,9.7516995e-06
C1SA50,利嘉林道,2014-12-02,22.82325,121.009389,8.102788e-09
467550,玉山,2014-12-02,23.487614,120.959522,1.8612992e-08
C0A940,金山,2014-12-02,25.223628,121.643967,0.99963677
C1V340,大津,2014-12-02,22.888322,120.645986,2.2769951e-08
C0W180,七美,2014-12-02,23.219333,119.444892,0.9973892
C1F9C1,白冷,2014-12-02,24.182844,120.929889,2.1254707e-09
K2E710,苗改生物防治研究中心,2014-12-02,24.422861,120.871833,5.9292904e-09
C0N040,蘆竹溝,2014-12-02,23.2344,120.0961,0.00605016
C2W230,畜試所澎湖,2014-12-02,23.628342,119.513206,0.9638086
C0R880,後壁湖,2014-12-02,21.9457,120.7457,0.97512555
C1I280,埔中,2014-12-02,23.820778,120.642594,1.1885528e-09
467790,墾丁雷達站,2014-12-02,21.948235,120.808028,0.9660606
C0W190,望安,2014-12-02,23.380564,119.494075,0.9952203
466881,新北,2014-12-02,24.9593,121.52,0.9232872
C0Z170,卓溪,2014-12-02,23.3443,121.3029,0.0005233031
C0F850,東勢,2014-12-02,24.246428,120.833047,1.1828785e-09
466900,淡水,2014-12-02,25.164889,121.448906,0.9968563
C0I370,魚池,2014-12-02,23.895703,120.94135,7.2312184e-10
C0C630,大溪,2014-12-02,24.882853,121.265547,0.236499
C0A520,山佳,2014-12-02,24.974944,121.402008,0.97192353
C0I110,竹山,2014-12-02,23.761225,120.688156,2.1173548e-08
82H840,茶改南部分場,2014-12-02,23.762528,120.7405,8.908082e-10
C0G660,溪湖,2014-12-02,23.94835,120.479122,4.719151e-06
C1T800,洛韶,2014-12-02,24.204558,121.453956,8.790193e-09
C1T810,慈恩,2014-12-02,24.192044,121.388386,3.910174e-09
C1E451,象鼻,2014-12-02,24.368617,120.940228,9.097042e-10
C0AC60,三峽,2014-12-02,24.939025,121.369728,0.9186231
C0I490,萬大林道,2014-12-02,23.928228,121.091411,2.2570346e-09
C1I290,豐丘,2014-12-02,23.668178,120.887417,8.7829316e-10
C1I320,奧萬大,2014-12-02,23.952956,121.178556,8.54619e-10
C2M910,嘉義大學,2014-12-02,23.471325,120.485903,4.1029735e-09
C0U770,南澳,2014-12-02,24.44935,121.81022,0.26101008
C0A980,社子,2014-12-02,25.109508,121.469681,0.9778185
C0V800,六龜,2014-12-02,22.997889,120.633583,5.538874e-09
C1G9D0,國一S218K,2014-12-02,23.890641,120.493253,2.9908394e-06
C0E570,白沙屯,2014-12-02,24.549447,120.696803,0.01016118
C2F9A0,中竹林,2014-12-02,24.103556,120.751061,8.946308e-10
C0FA40,臺中電廠,2014-12-02,24.2146,120.4907,0.0010544625
C2G9A0,畜試所彰化,2014-12-02,23.86045,120.557964,3.426126e-06
C0H9C0,合歡山,2014-12-02,24.143442,121.272547,1.39473215e-08
C0X060,下營,2014-12-02,23.22695,120.256261,3.3261767e-06
G2M350,農試溪口農場,2014-12-02,23.58565,120.408111,4.571023e-07
C0U860,頭城,2014-12-02,24.85323,121.8308,0.84175426
C0R580,南州,2014-12-02,22.48591,120.50274,0.070447855
C0D430,峨眉,2014-12-02,24.6905,121.017189,0.3640128
C0G780,秀水,2014-12-02,24.03405,120.503869,6.1803e-05
72N100,臺南農改場,2014-12-02,23.0605,120.342194,8.775913e-07
C0S900,蘭嶼高中,2014-12-02,22.04909,121.51214,0.56257415
467540,大武,2014-12-02,22.355675,120.903789,0.29140213
C1F9W0,德基,2014-12-02,24.254783,121.190261,2.02305e-09
C1Z120,壽豐,2014-12-02,23.870853,121.508081,2.2888885e-06
C0W160,烏坵,2014-12-02,24.9944,119.44956,0.9879631
C1I240,外大坪,2014-12-02,23.958697,120.917931,9.316966e-10
C1I550,國六W023K,2014-12-02,23.979067,120.867742,3.5088565e-09
C0R870,興海,2014-12-02,21.9752,120.8439,0.97186315
C0R140,瑪家,2014-12-02,22.682903,120.686639,1.7401753e-07
C0A530,坪林,2014-12-02,24.938183,121.70975,0.0011769829
C0X260,後壁,2014-12-02,23.366358,120.362326,1.879128e-07
C0Z230,和平,2014-12-02,24.30717,121.77007,0.11167037
C0G770,福興,2014-12-02,24.041289,120.437669,8.588768e-06
C0H9A0,神木村,2014-12-02,23.532742,120.843667,2.006698e-09
C0I460,南投,2014-12-02,23.911469,120.687331,6.948063e-08
C0I480,梅峰,2014-12-02,24.085272,121.173572,3.0683462e-09
C1V570,吉東,2014-12-02,22.85422,120.5454,1.0657253e-08
C2D740,屯原,2014-12-02,24.067969,121.209389,2.4238338e-09
C2A560,福山,2014-12-02,24.776203,121.502811,2.043746e-08
C0AH30,五分山,2014-12-02,25.07125,121.780794,1.4116782e-07
C0FA10,松柏,2014-12-02,24.429115,120.617482,0.00072286814
72S200,東改班鳩分場,2014-12-02,22.829528,121.077694,0.9976114
72HA00,中改埔里分場,2014-12-02,23.903208,120.963364,7.5418277e-10
C2H9W0,大坪頂農水,2014-12-02,24.043122,120.932781,9.539877e-10
C0C650,平鎮,2014-12-02,24.897503,121.214636,0.22937393
C0S930,延平,2014-12-02,22.902581,121.084058,0.0020158556
C0UA60,樟樹山,2014-12-02,24.41393,121.78325,1.077955e-07
C1S670,摩天,2014-12-02,23.199503,121.027,4.893058e-09
C0V630,茄萣,2014-12-02,22.906642,120.182608,0.631224
466940,基隆,2014-12-02,25.133314,121.740475,0.99993646
C0X050,東河,2014-12-02,23.296598,120.385608,1.1724772e-07
C0R770,保力,2014-12-02,22.071122,120.764111,0.9589119
G2L020,農試嘉義分所,2014-12-02,23.485028,120.473806,3.2758458e-09
C0X240,關子嶺,2014-12-02,23.331169,120.508025,1.1138173e-09
C0I380,集集,2014-12-02,23.828206,120.801467,3.3378957e-09
466990,花蓮,2014-12-02,23.975128,121.613275,8.8804096e-05
C1V220,小關山,2014-12-02,23.154217,120.813603,3.733734e-09
C1F9G1,慶福山,2014-12-02,24.180853,120.848378,1.2228434e-09
C0Z250,瑞穗林道,2014-12-02,23.49284,121.30688,1.4403457e-08
C0D590,新豐,2014-12-02,24.87068,120.97721,0.9992224
C0A870,五指山,2014-12-02,25.132153,121.608692,3.3120973e-06
C0UA50,西帽山,2014-12-02,24.555361,121.802628,7.849346e-08
C0X160,仁德,2014-12-02,22.968258,120.257689,7.704106e-06
C1H971,六分寮,2014-12-02,23.92507,120.6378,7.6813705e-10
C0W120,西嶼,2014-12-02,23.5626,119.468436,0.99357903
C0G650,員林,2014-12-02,23.946503,120.585597,8.159842e-05
C0AD50,鶯歌,2014-12-02,24.951533,121.346294,0.9869685
C2H9Q0,北東眼山,2014-12-02,24.120939,121.189303,2.349287e-09
C2H9T0,名間竹圍,2014-12-02,23.859914,120.637572,1.6247852e-09
C0S990,山豬窟,2014-12-02,22.318619,120.857372,0.8345099
72Q010,高雄農改,2014-12-02,22.709333,120.525889,4.409417e-07
C0X190,安平,2014-12-02,22.993161,120.152181,0.11367802
C0K400,斗六,2014-12-02,23.720583,120.541127,1.6261012e-07
12J990,口湖工作站,2014-12-02,23.589978,120.180394,0.000113775655
C0O830,北寮,2014-12-02,23.079561,120.495008,3.973061e-09
C1D410,白蘭,2014-12-02,24.579364,121.079947,1.001941e-09
C0S970,加津林,2014-12-02,22.416211,120.926942,0.35529462
C0D700,關西,2014-12-02,24.7977,121.1732,0.35924715
C0M810,里佳,2014-12-02,23.389125,120.716647,1.5094945e-09
C0U750,龜山島,2014-12-02,24.841667,121.953133,0.0003264392
C0R810,內獅,2014-12-02,22.305064,120.642986,0.9790205
C1M390,龍美,2014-12-02,23.406728,120.654417,1.1939149e-09
C2FB60,頭櫃山,2014-12-02,24.129842,120.858925,7.856948e-10
C1H840,國三N238K,2014-12-02,23.841008,120.707711,2.9544154e-09
CAQ030,崎峰國小,2014-12-02,22.42565,120.49521,0.070447914
C2E520,大湖,2014-12-02,24.414939,120.870872,1.7960015e-07
467530,阿里山,2014-12-02,23.508208,120.813242,4.8033164e-09
C1E691,南湖,2014-12-02,24.40135,120.837533,8.848053e-10
C0FA30,梧棲,2014-12-02,24.256003,120.523381,0.0010544625
C1V231,高中,2014-12-02,23.134911,120.716711,2.3560316e-09
C0F9V0,新社,2014-12-02,24.200172,120.815806,6.424186e-10
C0H890,埔里,2014-12-02,23.972169,120.952425,1.5839634e-08
C0R690,墾丁,2014-12-02,21.966756,120.810269,0.7647431
C0F0D0,審馬陣,2014-12-02,24.381675,121.4203,1.1783191e-08
C0R820,白鷺,2014-12-02,22.454275,120.666219,0.0018677679
U2H480,臺大溪頭,2014-12-02,23.670306,120.798194,8.322605e-10
C1V190,南天池,2014-12-02,23.27403,120.91176,5.584744e-09
K2E360,苗栗農改場,2014-12-02,24.495722,120.829111,1.2145849e-05
CAJ050,海口故事園區,2014-12-02,23.57543,120.14121,0.00013835484
C2H9D0,三隻寮,2014-12-02,24.093078,120.861578,9.100322e-10
C0O990,媽廟,2014-12-02,22.99175,120.293525,5.7995308e-06
C0D480,打鐵坑,2014-12-02,24.849664,121.150789,3.2951364e-05
C0Z220,和平林道,2014-12-02,24.343922,121.656317,1.0373277e-07
C0TA10,花蓮漁港,2014-12-02,23.995322,121.638331,0.00013976701
72C440,桃園農改場,2014-12-02,24.950944,121.030583,0.64566773
C1E711,馬拉邦山,2014-12-02,24.367306,120.901656,8.570185e-10
C0SB20,富岡,2014-12-02,22.792467,121.192669,0.9911898
C0D560,竹東,2014-12-02,24.767147,121.057881,0.38916254
C0F9U0,南屯,2014-12-02,24.137006,120.637969,0.00015744827
C0M720,番路,2014-12-02,23.464657,120.554156,1.5009018e-09
C0F0A0,雪山圈谷,2014-12-02,24.388594,121.236339,2.225823e-08
C1A9N0,四十份,2014-12-02,24.934158,121.593283,4.0183342e-05
C0U760,東澳,2014-12-02,24.52196,121.83318,0.002324969
C0X230,鹽水,2014-12-02,23.272621,120.247641,0.0021930106
C2H9H0,苗改南投蜂場,2014-12-02,23.852589,120.693481,2.1108145e-08
C0R950,萬隆國小,2014-12-02,22.507667,120.587817,5.628435e-07
C0V370,古亭坑,2014-12-02,22.893178,120.401947,7.954687e-07
C1I340,新興橋,2014-12-02,23.563333,120.868728,6.685871e-10
C0SA80,土坂,2014-12-02,22.453108,120.887572,0.92262655
C0R160,鹽埔,2014-12-02,22.739558,120.530778,6.6296856e-08
C0AC40,大屯山,2014-12-02,25.175675,121.522408,6.319385e-08
466850,五分山雷達站,2014-12-02,25.071182,121.781205,1.3705099e-07
C2H9L0,馬烈霸,2014-12-02,24.1512,121.201772,2.304485e-09
C1AI50,國三N016K,2014-12-02,25.034164,121.619664,0.911741
C1V600,藤枝,2014-12-02,23.071961,120.757042,3.2466663e-09
C1E601,南勢,2014-12-02,24.572486,120.734842,7.595449e-07
C0Z180,新城,2014-12-02,24.03946,121.60454,2.6193264e-05
C0O980,新市,2014-12-02,23.061614,120.298197,2.3361772e-06
C0K420,西螺,2014-12-02,23.800407,120.467394,7.399581e-07
C0Z050,佳心,2014-12-02,23.34567,121.21316,7.3399993e-09
C0AD30,蘆洲,2014-12-02,25.086594,121.472331,0.97705156
C0V610,梓官,2014-12-02,22.760558,120.267211,0.0002384496
K2F750,種苗改良場,2014-12-02,24.225972,120.800917,7.753586e-10
C0UA80,大溪漁港,2014-12-02,24.941801,121.902955,0.82370865
C1AI60,國一39K邊坡,2014-12-02,25.064361,121.383836,0.32553193
C0W150,金寧,2014-12-02,24.457703,118.328989,0.97711295
C0R960,內埔,2014-12-02,22.608483,120.570714,9.892076e-07
V2C250,八德合作社,2014-12-02,24.93775,121.266389,0.38464805
C2H9S0,龍南,2014-12-02,23.953536,120.833183,6.932872e-10
C0AH40,平等,2014-12-02,25.129142,121.577086,0.00092371774
C0R540,佳冬,2014-12-02,22.419456,120.552375,0.07132984
466950,彭佳嶼,2014-12-02,25.627975,122.079744,0.99995494
C0A890,雙溪,2014-12-02,25.036003,121.864242,0.99991876
C0C480,桃園,2014-12-02,24.992425,121.323172,0.6154699
C0AH50,林口,2014-12-02,25.072181,121.38084,0.07305376
A2K360,水試臺西試驗場,2014-12-02,23.717231,120.190522,2.9346194e-05
B2N890,畜試所,2014-12-02,23.058972,120.336406,8.775913e-07
C2M960,外寮,2014-12-02,23.562643,120.665688,9.401114e-10
C0F9S0,烏日,2014-12-02,24.107058,120.624103,2.7098233e-05
C0C490,八德,2014-12-02,24.928708,121.283289,0.28489813
C0R190,赤山,2014-12-02,22.592333,120.614306,6.815487e-07
C0T820,天祥,2014-12-02,24.179597,121.495639,7.045159e-08
C1F9E1,龍安,2014-12-02,24.1605,120.831961,6.0649435e-10
C0V820,小林,2014-12-02,23.148408,120.63325,2.0333595e-09
C2G870,芳苑,2014-12-02,23.922303,120.320025,3.819304e-05
C0E850,大河,2014-12-02,24.618069,120.948578,1.45978e-06
C1U670,寒溪,2014-12-02,24.634,121.71691,0.9990223
C0N020,城西,2014-12-02,23.0568,120.0956,0.9802545
C1Z110,三棧,2014-12-02,24.11557,121.60501,4.351679e-08
C0R280,檳榔,2014-12-02,22.076078,120.836777,0.8086084
C2H9J0,中台,2014-12-02,23.9996,120.938739,2.695182e-09
C0F9L0,后里,2014-12-02,24.310436,120.729725,3.4326377e-09
C0D540,橫山,2014-12-02,24.71116,121.11693,5.1679376e-06
C1D420,太閣南,2014-12-02,24.632808,121.160575,1.7350961e-09
C1E770,公館,2014-12-02,24.526914,120.830806,1.17458785e-05
CAN130,水試所海水繁養殖中心,2014-12-02,23.120802,120.07968,0.9856169
C1I430,翠華,2014-12-02,24.191961,121.224339,3.9459866e-09
C1M400,菜瓜坪,2014-12-02,23.251928,120.576103,2.1323574e-09
C0G730,二林,2014-12-02,23.903325,120.376081,5.1541656e-06
72M360,南改義竹分場,2014-12-02,23.360694,120.279361,7.708178e-06
V2K620,麥寮合作社,2014-12-02,23.753836,120.294783,1.2215477e-05
C0Z070,舞鶴,2014-12-02,23.46811,121.37407,2.3739366e-07
C0B040,大武崙,2014-12-02,25.166676,121.706993,0.99992675
C1Z030,紅葉,2014-12-02,23.493119,121.338806,4.821098e-07
C1I050,丹大,2014-12-02,23.753747,121.141147,1.0617081e-08
C0I080,信義,2014-12-02,23.689694,120.851036,7.1649064e-10
C2M920,朴子農改,2014-12-02,23.469889,120.259383,2.3495057e-05
C2A880,福隆,2014-12-02,25.017842,121.942083,0.9978018
C0Z160,鳳林,2014-12-02,23.746114,121.453411,4.796933e-07
C0V210,復興,2014-12-02,23.222403,120.806089,6.0038077e-09
C0H990,昆陽,2014-12-02,24.121322,121.273642,8.723767e-09
C0R741,獅子,2014-12-02,22.202308,120.705236,0.96079445
C0S710,鹿野,2014-12-02,22.917711,121.122994,9.758072e-08
C0I530,小奇萊,2014-12-02,24.131764,121.295717,9.389364e-09
C2K630,荷苞,2014-12-02,23.657717,120.595144,3.8503327e-08
C0Z080,富源,2014-12-02,23.587642,121.378225,2.0663197e-07
467441,高雄,2014-12-02,22.7304,120.3125,0.0070738555
C0SB10,美和,2014-12-02,22.682078,121.060236,0.7107483
C2K620,馬光農場,2014-12-02,23.721453,120.378864,1.1014845e-07
C1I140,卡奈托灣,2014-12-02,23.754364,121.087872,1.9885615e-09
C0I520,玉山風口,2014-12-02,23.470489,120.955994,1.9297056e-08
C1G691,下水埔,2014-12-02,23.816114,120.5676,1.1837467e-06
C0X110,臺南市南區,2014-12-02,22.961189,120.188378,0.051577486
C0V680,仁武,2014-12-02,22.701083,120.347722,0.004219906
C2G840,北斗,2014-12-02,23.877586,120.514222,2.1155622e-06
C0R900,竹坑,2014-12-02,22.1385,120.7022,0.9742059
C0K250,崙背,2014-12-02,23.75555,120.318925,8.92153e-06
C0G860,社頭,2014-12-02,23.897647,120.5862,5.688106e-05
C0X150,安定,2014-12-02,23.102614,120.227839,0.0077136056
C0R590,里港,2014-12-02,22.77919,120.49459,2.7875988e-08
C0E610,馬都安,2014-12-02,24.451272,120.930192,2.436548e-09
C0E550,明德,2014-12-02,24.583486,120.885411,2.993496e-06
C0R150,三地門,2014-12-02,22.709889,120.639944,3.534023e-07
C0G910,花壇,2014-12-02,24.032076,120.549461,1.9509263e-05
C1D400,鳥嘴山,2014-12-02,24.71909,121.28387,6.9775554e-09
C0K500,元長,2014-12-02,23.64981,120.315024,7.0589654e-06
C0F0B0,石岡,2014-12-02,24.276061,120.777644,1.1323504e-09
C2V250,甲仙,2014-12-02,23.080106,120.591758,1.7069973e-09
C0SA20,金崙山,2014-12-02,22.567419,120.959667,3.8872764e-07
C0V350,溪埔,2014-12-02,22.738578,120.446797,5.8169067e-06
C0M660,溪口,2014-12-02,23.604131,120.403569,4.5740404e-07
C1S880,壽卡,2014-12-02,22.238911,120.858903,0.97690785
72D680,桃改新埔分場,2014-12-02,24.834444,121.066111,0.52634364
