站號,站名,日期,lat,lon,BLBTSLS
C0R710,龍磐,2014-04-03,21.931672,120.838942,0.9983938
C1F9D1,白毛台,2014-04-03,24.158325,120.886933,3.8424566e-10
C0G940,竹塘,2014-04-03,23.848253,120.386764,1.0224374e-09
467590,恆春,2014-04-03,22.003897,120.746339,0.9982001
C1O850,環湖,2014-04-03,23.148617,120.418633,5.2087895e-10
C0U710,太平山,2014-04-03,24.505486,121.525656,3.5506107e-09
C0E820,獅潭,2014-04-03,24.539133,120.920042,3.7433798e-10
C0V880,興達,2014-04-03,22.8778,120.2127,7.7411775e-09
C0S890,關山,2014-04-03,23.0395,121.175017,6.7651956e-05
C0SB30,新蘭,2014-04-03,22.869214,121.223228,2.5470511e-08
C2R970,屏科大,2014-04-03,22.648275,120.619247,9.683814e-08
K2F750,種苗繁殖,2014-04-03,24.225972,120.800917,4.3396725e-10
C1Z130,銅門,2014-04-03,23.965694,121.492842,6.557583e-09
C0AD40,土城,2014-04-03,24.973208,121.445169,9.68952e-09
CAN140,六官養殖協會,2014-04-03,23.22881,120.29962,1.4048182e-09
C0X180,山上,2014-04-03,23.0757,120.363253,5.600967e-10
C0F9Z0,雪山東峰,2014-04-03,24.388792,121.268675,8.399476e-09
C1M480,獨立山,2014-04-03,23.537022,120.607797,7.580247e-10
C0X220,學甲,2014-04-03,23.230367,120.182187,3.74511e-09
467650,日月潭,2014-04-03,23.881325,120.90805,4.804038e-10
C0K600,箔子寮,2014-04-03,23.6197,120.14,1.6212839e-09
C0G830,埤頭,2014-04-03,23.866003,120.452806,8.194028e-10
C0S950,七塊厝,2014-04-03,22.954453,121.229922,3.6465881e-09
467110,金門,2014-04-03,24.407306,118.289281,4.687148e-08
C0AH80,深坑,2014-04-03,25.002703,121.628328,1.0232456e-08
467990,馬祖,2014-04-03,26.169269,119.923419,8.530316e-09
C0A970,三貂角,2014-04-03,25.007606,122.002058,0.0030411454
C2D730,寶山農場,2014-04-03,24.732444,120.976153,7.8478263e-10
C0K430,褒忠,2014-04-03,23.690938,120.303634,8.357522e-10
467480,嘉義,2014-04-03,23.495925,120.432906,4.9051e-10
C2E540,後龍,2014-04-03,24.606489,120.783933,6.5900546e-10
C0V400,阿公店,2014-04-03,22.804194,120.355528,2.4281417e-09
C0R440,大漢山,2014-04-03,22.405264,120.753181,3.809104e-09
C0K280,四湖,2014-04-03,23.630414,120.227125,1.2034785e-09
C1F9B1,桐林,2014-04-03,24.066172,120.735194,4.7079035e-10
C2H9U0,鳳鵬,2014-04-03,23.763919,120.788061,4.032194e-10
C0K390,土庫,2014-04-03,23.679029,120.395574,8.5194013e-10
C1I450,望鄉山,2014-04-03,23.594153,120.944286,7.4456685e-09
C0E910,海埔,2014-04-03,24.648767,120.772435,5.822596e-10
B2E890,畜試北區分所,2014-04-03,24.527806,120.770972,1.0499049e-09
C0R750,四林格山,2014-04-03,22.076989,120.802439,0.999716
C0F0C0,中坑,2014-04-03,24.248517,120.903319,4.407348e-10
C1I121,大鞍,2014-04-03,23.678381,120.760017,1.0854972e-09
72U480,花改蘭陽分場,2014-04-03,24.686306,121.716583,0.5056535
C0A770,科教館,2014-04-03,25.096356,121.516507,1.0007134e-08
C0AJ60,六塊厝,2014-04-03,25.24,121.4481,1.6163323e-08
C0R620,墾雷,2014-04-03,21.900836,120.855269,0.9982362
467420,永康,2014-04-03,23.038386,120.2367,5.4281384e-09
467300,東吉島,2014-04-03,23.25695,119.667467,0.017504456
C0I410,名間,2014-04-03,23.837053,120.701447,5.00318e-10
A2C560,農工中心,2014-04-03,24.985917,121.239833,1.0143046e-09
C0V740,旗山,2014-04-03,22.888614,120.483597,5.1843274e-10
C0Z061,玉里,2014-04-03,23.3215,121.339656,4.8321354e-08
C0S840,南田,2014-04-03,22.279725,120.889208,0.37297538
C1I470,杉林溪,2014-04-03,23.639517,120.786444,1.4399055e-09
C1X040,東原,2014-04-03,23.291597,120.463822,6.3576433e-10
C0R660,枋寮,2014-04-03,22.367722,120.590647,0.00033899318
C1R120,上德文,2014-04-03,22.763272,120.704442,7.556414e-10
C0K450,大埤,2014-04-03,23.646074,120.431537,7.3958006e-10
C0UA00,土場,2014-04-03,24.576533,121.495333,6.40619e-09
467080,宜蘭,2014-04-03,24.763975,121.756528,1.4023285e-06
C0N030,四草,2014-04-03,23.0235,120.1116,9.72737e-09
C0V650,彌陀,2014-04-03,22.783806,120.246361,8.388269e-09
C0D660,新竹市東區,2014-04-03,24.798681,120.986942,9.1137664e-10
82S580,茶改東部分場,2014-04-03,22.907694,121.130139,5.312093e-09
C0SB40,興隆,2014-04-03,22.913661,121.257469,6.9762116e-09
C0C710,大溪永福,2014-04-03,24.892936,121.324975,1.0150072e-09
C0FA20,溫寮,2014-04-03,24.372177,120.583125,1.1747191e-09
C0V640,湖內,2014-04-03,22.887139,120.2445,7.2626127e-09
C0R910,下寮,2014-04-03,22.3929,120.5548,2.375582e-05
C0Z020,明里,2014-04-03,23.208717,121.262342,1.3966675e-08
C0M770,嘉義梅山,2014-04-03,23.585398,120.555587,5.800172e-10
G2F820,農業試驗所,2014-04-03,24.031261,120.688133,5.974709e-10
C0C660,楊梅,2014-04-03,24.912375,121.143047,8.165898e-10
C1E511,新開,2014-04-03,24.347703,120.827019,4.0707698e-10
G2F820,農試所(霧峰),2014-04-03,24.031261,120.688133,5.974709e-10
C1I070,和社,2014-04-03,23.591131,120.888861,4.7112453e-10
C2F000,大肚,2014-04-03,24.15295,120.572117,6.2513933e-10
C1S850,豐南,2014-04-03,23.122139,121.262389,4.340196e-09
C2A920,富貴角,2014-04-03,25.263783,121.565258,2.4023348e-07
CAH030,茶改場竹圍站,2014-04-03,23.860083,120.637528,4.702653e-10
C0T960,光復,2014-04-03,23.660694,121.424964,7.773199e-08
C0F9M0,豐原,2014-04-03,24.254322,120.720692,4.5903442e-10
C0R720,旭海,2014-04-03,22.205403,120.887614,0.8694863
C0V710,苓雅,2014-04-03,22.622742,120.330669,1.1329026e-05
C0C740,觀音工業區,2014-04-03,25.064764,121.114856,1.7001218e-09
CAC040,拉拉山,2014-04-03,24.699317,121.427133,1.0685867e-09
C0V790,萬山,2014-04-03,22.905944,120.688056,3.8634673e-10
U2HA30,臺大和社,2014-04-03,23.590856,120.888864,4.7112453e-10
C0AJ90,澳底,2014-04-03,25.0552,121.9253,0.012317998
C0Z100,東華,2014-04-03,23.89525,121.549833,8.5018456e-08
C0G970,三豐,2014-04-03,23.882,120.2895,1.0654565e-09
V2K610,大庄合作社,2014-04-03,23.8068,120.367939,7.2262274e-10
C0V900,汕尾,2014-04-03,22.4782,120.4151,2.6293146e-05
C1R630,龍泉,2014-04-03,22.66701,120.59091,3.29712e-07
C1AC50,關渡,2014-04-03,25.133486,121.469331,2.8508486e-08
C0F9I0,神岡,2014-04-03,24.272481,120.658314,4.5891888e-10
C0K460,斗南,2014-04-03,23.678734,120.478359,7.581577e-10
467410,臺南,2014-04-03,22.993239,120.204772,4.6482582e-09
C2O810,曾文,2014-04-03,23.219681,120.497328,5.3712235e-10
467280,後龍,2014-04-03,24.648563,120.831834,5.339762e-10
C1F9J1,清水林,2014-04-03,24.071242,120.820419,3.8936798e-10
C2A650,火燒寮,2014-04-03,25.002719,121.742892,1.2247508e-05
466930,竹子湖,2014-04-03,25.162078,121.544547,1.5076797e-08
C1I220,樟湖,2014-04-03,23.905333,120.846983,6.4404543e-10
C0I390,仁愛,2014-04-03,24.022122,121.132206,5.6089955e-10
C0Z300,東里,2014-04-03,23.26853,121.30547,4.3564874e-08
C1V590,新發,2014-04-03,23.057019,120.646064,1.0644531e-09
C0K510,水林,2014-04-03,23.572924,120.24597,1.6070754e-09
72S590,東改賓朗果園,2014-04-03,22.813889,121.071278,2.8095156e-08
82A750,茶改北部分場,2014-04-03,24.955778,121.631222,3.0227876e-09
C1A750,石碇服務區,2014-04-03,25.00872,121.646242,9.484056e-09
C0X300,鹿寮,2014-04-03,23.386047,120.477331,6.5474065e-10
G2AI50,關渡,2014-04-03,25.11575,121.492,1.0472315e-08
C0K590,雲林東勢,2014-04-03,23.674192,120.255721,8.357522e-10
C0A570,桶後,2014-04-03,24.848222,121.597992,7.660569e-09
C1S800,華源,2014-04-03,22.657883,121.02325,1.6881016e-07
C0G720,溪州,2014-04-03,23.851589,120.499093,7.80357e-10
C1V160,達卡努瓦,2014-04-03,23.279811,120.705319,1.4474945e-09
C2M410,馬頭山,2014-04-03,23.324361,120.582017,5.80626e-10
C0V850,蚵仔寮,2014-04-03,22.7256,120.2527,3.0091647e-07
C0S740,池上,2014-04-03,23.119628,121.209469,3.776543e-09
C1V390,尖山,2014-04-03,22.813153,120.367789,2.1193862e-09
C0AH70,松山,2014-04-03,25.04871,121.55042,1.2824024e-08
C0N010,鯤鯓國小,2014-04-03,23.1879,120.0889,2.4504554e-09
C0R550,新埤,2014-04-03,22.467947,120.582894,4.93592e-05
C0SA60,知本（水試所）,2014-04-03,22.702394,121.082761,2.8479385e-06
C0T9I0,豐濱,2014-04-03,23.583897,121.514806,4.6634103e-08
C0UB00,淡江大學蘭陽校園,2014-04-03,24.823239,121.730383,1.3639286e-08
C0W240,九宮,2014-04-03,24.423753,118.240186,1.2506304e-08
C0T9N0,富里,2014-04-03,23.171639,121.249378,6.037765e-09
U2HA50,臺大竹山,2014-04-03,23.756972,120.681556,4.5960388e-10
C0V840,鳳鼻頭,2014-04-03,22.5083,120.3591,1.8029697e-05
C0X140,西港,2014-04-03,23.125608,120.203108,3.9805554e-09
72D080,桃改五峰分場,2014-04-03,24.612194,121.157167,4.1030024e-10
C2H9P0,伊拿谷,2014-04-03,23.963211,121.088264,4.1305476e-10
C2H9F0,柑林,2014-04-03,24.018658,120.847072,5.271918e-10
C0TA20,加灣,2014-04-03,24.082025,121.608944,9.107811e-09
C0V530,阿蓮,2014-04-03,22.883208,120.327508,2.8172091e-09
C1O880,關山,2014-04-03,23.173397,120.594092,6.336361e-10
C0E791,卓蘭,2014-04-03,24.3126,120.8244,4.0651446e-10
C1I030,武界,2014-04-03,23.913225,121.052483,4.763054e-10
C0R520,崁頂,2014-04-03,22.514781,120.506914,2.0171588e-05
C0R341,牡丹,2014-04-03,22.130036,120.792639,0.84874254
C0R930,萬丹,2014-04-03,22.5885,120.4851,6.575331e-05
C0S760,紅石,2014-04-03,23.069131,121.126219,5.7078884e-09
C1M610,石磐龍,2014-04-03,23.496606,120.663506,9.729648e-10
C0UA10,鴛鴦湖,2014-04-03,24.590269,121.412228,1.3884515e-09
V2C260,八德蔬果,2014-04-03,24.978508,121.281819,9.430567e-10
C0R800,丹路,2014-04-03,22.204481,120.750989,0.60767925
C0G920,永靖,2014-04-03,23.924703,120.547533,7.782374e-10
C2M950,太和,2014-04-03,23.538372,120.702961,1.3661123e-09
C1A630,下盆,2014-04-03,24.771003,121.538622,5.405161e-09
B2N890,畜產試驗所,2014-04-03,23.058972,120.336406,1.3951093e-09
C0UA30,白嶺,2014-04-03,24.527819,121.519031,1.4336682e-09
C1V580,溪南(特生中心),2014-04-03,23.084972,120.788475,3.883158e-09
C1T970,大農,2014-04-03,23.615233,121.413331,5.420423e-08
E2S960,林試太麻里2,2014-04-03,22.598014,120.989761,0.004177467
C0R650,竹田,2014-04-03,22.58486,120.54344,6.575331e-05
C1H900,清流,2014-04-03,24.080775,120.962997,4.151304e-10
C1C510,水尾,2014-04-03,24.940081,121.087161,8.6721175e-10
C0F9X0,大雅(中科園區),2014-04-03,24.21528,120.62445,6.5698236e-10
C0SB60,白守蓮,2014-04-03,23.126769,121.401914,0.2386614
C0O970,虎頭埤,2014-04-03,23.021375,120.347878,1.1943317e-09
C0C730,中大臨海站,2014-04-03,24.966126,121.008581,3.828156e-07
C0X250,新營,2014-04-03,23.310689,120.316681,1.47181e-09
C0V700,三民,2014-04-03,22.645017,120.311233,1.1329026e-05
C0U870,大礁溪,2014-04-03,24.791042,121.675047,5.141827e-09
C0E870,高鐵苗栗,2014-04-03,24.60725,120.826094,6.3483735e-10
A2K570,古坑花卉中心,2014-04-03,23.63353,120.55239,5.6703303e-10
C0M860,新美,2014-04-03,23.338017,120.683169,6.2265226e-10
C1E701,八卦,2014-04-03,24.491756,120.927619,3.8299958e-10
C0I420,國姓,2014-04-03,24.037803,120.855072,4.1460024e-10
C2D720,關西工作站,2014-04-03,24.757275,121.184792,5.9471833e-10
C0S960,香蘭,2014-04-03,22.587569,120.993375,0.004177467
C0R260,春日,2014-04-03,22.370361,120.628306,0.08130868
72G600,臺中農改場,2014-04-03,24.003028,120.534389,9.203064e-10
C0Z210,瑞穗,2014-04-03,23.5239,121.39021,5.306364e-08
C0M820,達邦,2014-04-03,23.453994,120.749517,7.104147e-10
C0V860,南寮,2014-04-03,22.7616,120.2339,8.9496925e-09
C0G740,大城,2014-04-03,23.852487,120.320935,1.030034e-09
C0R920,塭仔,2014-04-03,22.4169,120.5197,3.1242795e-05
C0R470,高樹,2014-04-03,22.826389,120.600806,5.8083005e-09
C0R680,佳樂水,2014-04-03,21.993578,120.861633,0.99818045
C1O870,大棟山,2014-04-03,23.31157,120.52226,1.5000031e-09
C0D360,梅花,2014-04-03,24.678347,121.208558,3.7209139e-10
C0Z190,富世,2014-04-03,24.14743,121.6297,2.4611454e-08
C0AI10,屈尺,2014-04-03,24.92184,121.54475,1.0232456e-08
B2U990,畜試東區分所,2014-04-03,24.669039,121.832561,0.6163078
C0SB80,長濱漁港,2014-04-03,23.313644,121.459994,1.424757e-07
C0R240,來義,2014-04-03,22.527306,120.625111,0.13549815
C0V910,大樹,2014-04-03,22.684645,120.432803,3.410321e-08
C1R610,西大武山,2014-04-03,22.617719,120.7322,3.1951428e-09
C0G900,線西,2014-04-03,24.143358,120.443536,1.1176287e-09
C0M700,竹崎,2014-04-03,23.526178,120.555508,5.386613e-10
C2E880,三義,2014-04-03,24.405478,120.749819,4.746729e-10
C0C720,竹圍,2014-04-03,25.112692,121.239824,1.571595e-08
C0F9P0,清水,2014-04-03,24.312297,120.562242,1.127598e-09
C0Z150,吉安光華,2014-04-03,23.930925,121.595153,1.0847468e-07
C1D640,外坪(五指山),2014-04-03,24.644447,121.090961,3.9585432e-10
C0F9O0,潭子,2014-04-03,24.213106,120.703933,4.2550458e-10
C2H9R0,卓社,2014-04-03,23.887894,121.000086,5.3597515e-10
72T250,花蓮農改場,2014-04-03,23.975222,121.563889,8.683626e-09
C0E780,銅鑼,2014-04-03,24.489681,120.790853,4.729098e-10
C1T950,太安,2014-04-03,23.666719,121.370128,4.293913e-09
C0E830,苑裡,2014-04-03,24.439714,120.653053,1.1077812e-09
467270,田中,2014-04-03,23.873803,120.581286,5.7836125e-10
C0SA10,檳榔四格山,2014-04-03,22.810031,121.109308,1.8972282e-08
C1T830,布洛灣,2014-04-03,24.17184,121.57127,1.0317086e-06
C0F970,大坑,2014-04-03,24.173142,120.722289,5.4921734e-10
C1U920,思源,2014-04-03,24.393125,121.347214,2.0844677e-09
C0A931,三和,2014-04-03,25.233153,121.595236,1.5176297e-06
C0I010,廬山,2014-04-03,24.033311,121.181808,9.458164e-10
C2M940,日野賀,2014-04-03,23.434056,120.727169,1.0924991e-09
C0R860,鼻頭,2014-04-03,22.1043,120.8979,0.9975103
C0UB20,壯圍,2014-04-03,24.7359,121.8163,0.6163078
C0R790,九棚,2014-04-03,22.14195,120.889281,0.8619809
C0W110,東莒,2014-04-03,25.9652,119.98069,1.466774e-07
C1U930,粉鳥林,2014-04-03,24.497088,121.842479,1.1835007e-06
C1I211,蘆竹湳,2014-04-03,23.934019,120.811994,4.640487e-10
C0S830,長濱,2014-04-03,23.286817,121.411975,1.2733282e-08
C1F9F1,伯公龍,2014-04-03,24.272392,120.849047,4.5664955e-10
C0E810,西湖,2014-04-03,24.562947,120.7485,6.0513666e-10
C1I440,新高口,2014-04-03,23.478744,120.878939,4.021313e-09
C0O840,王爺宮,2014-04-03,23.222064,120.40085,5.3712235e-10
C0T9G0,鳳林山,2014-04-03,23.735269,121.420131,1.06131735e-08
C0X080,佳里,2014-04-03,23.173039,120.145086,4.030889e-09
C0FB70,大甲溪埔,2014-04-03,24.370625,120.620067,1.0930306e-09
C0Z310,清水斷崖,2014-04-03,24.218294,121.689142,6.7816414e-05
C0M680,太保,2014-04-03,23.455062,120.331455,8.6834057e-10
C1S820,金峰,2014-04-03,22.590969,120.933236,9.113129e-07
C0AD10,八里,2014-04-03,25.150211,121.403947,1.571595e-08
C2K240,草嶺,2014-04-03,23.59555,120.693461,9.910994e-10
C1SA70,都蘭,2014-04-03,22.87794,121.226881,6.9666246e-09
C0K440,二崙,2014-04-03,23.772797,120.408944,9.799994e-10
C1A760,坪林交控,2014-04-03,24.94284,121.713442,1.5233051e-07
C0F9N0,大里,2014-04-03,24.092464,120.701378,6.498945e-10
C0SA90,達仁林場,2014-04-03,22.264347,120.823972,0.0001642116
C1R290,石門山,2014-04-03,22.112611,120.756597,0.9988543
42HA10,萬大發電廠,2014-04-03,23.978875,121.139639,6.28228e-10
C0R890,山海,2014-04-03,21.9878,120.7091,0.99811196
C0T9A0,月眉山,2014-04-03,23.809928,121.539828,7.917683e-09
C0AC70,信義,2014-04-03,25.037822,121.564597,1.2824024e-08
C0K560,棋山,2014-04-03,23.68645,120.603417,6.394736e-10
C2FB50,出雲,2014-04-03,24.206469,120.902794,4.961358e-10
C1Z240,中平林道,2014-04-03,23.42115,121.26763,3.2341505e-09
U2H480,溪頭,2014-04-03,23.670306,120.798194,6.3729527e-10
C0M880,好美里,2014-04-03,23.3364,120.138,4.030889e-09
C0T9E0,大坑,2014-04-03,23.880628,121.581981,8.347856e-09
C0K530,臺西,2014-04-03,23.701547,120.197559,1.202375e-09
C1E900,國一N128K,2014-04-03,24.560997,120.844186,5.754376e-10
C0AJ50,水湳洞,2014-04-03,25.123695,121.862238,1.7338885e-05
C0AI20,白沙灣,2014-04-03,25.283128,121.519058,1.7128909e-07
C0A860,大坪,2014-04-03,25.165914,121.632969,2.8955938e-08
C1U850,觀音海岸,2014-04-03,24.38319,121.77856,2.76358e-08
C2K610,草嶺石壁,2014-04-03,23.602469,120.707731,1.0178784e-09
C0U950,鶯子嶺,2014-04-03,24.89754,121.79244,4.483977e-09
C0O900,善化,2014-04-03,23.112883,120.297219,1.5005354e-09
C0K550,蔦松,2014-04-03,23.514319,120.229736,1.5703027e-09
E2P980,林試六龜中心,2014-04-03,22.991703,120.645722,4.1477582e-10
C0E590,通霄,2014-04-03,24.471892,120.704622,1.1140828e-09
C1I310,西巒,2014-04-03,23.754486,120.883956,6.490175e-10
C0A550,泰平,2014-04-03,24.971197,121.823711,1.0232113e-06
C0I360,水里,2014-04-03,23.812553,120.849792,4.8658794e-10
C0R830,高士,2014-04-03,22.121825,120.836781,0.9993639
C1I101,溪頭,2014-04-03,23.661789,120.807647,1.6015093e-09
C0AJ20,野柳,2014-04-03,25.20703,121.690021,1.7338885e-05
C0B060,暖暖,2014-04-03,25.0957,121.7403,7.526346e-06
C1H920,長豐,2014-04-03,24.102039,120.879897,3.9636053e-10
C0V360,內門,2014-04-03,22.975481,120.466769,4.9428356e-10
C0R850,林邊,2014-04-03,22.4634,120.5339,2.0171588e-05
C0E930,龍鳳,2014-04-03,24.700034,120.859125,5.0890986e-10
C0U910,冬山,2014-04-03,24.63373,121.7937,0.6163078
C1E721,泰安,2014-04-03,24.489017,120.968036,6.2773575e-10
82H320,茶改中部分場,2014-04-03,23.875611,120.913583,4.3193168e-10
C0M750,布袋,2014-04-03,23.380878,120.167789,1.8297277e-09
C1S860,利嘉,2014-04-03,22.809417,121.050528,1.16001555e-08
72C440,桃園農改,2014-04-03,24.950944,121.030583,2.2615178e-07
E2S980,林試太麻里1,2014-04-03,22.598922,120.980044,0.00012737176
C0X170,關廟,2014-04-03,22.963017,120.327797,1.4392025e-09
C0V720,林園,2014-04-03,22.507747,120.394511,1.1201526e-05
C1I510,線浸林道,2014-04-03,23.761508,120.832956,6.472744e-10
C0D690,外湖,2014-04-03,24.917735,120.968711,3.8366866e-07
C0C750,新興坑尾,2014-04-03,25.0061,121.0971,1.6115722e-09
B2Q810,畜試南區分所,2014-04-03,21.945583,120.802167,0.99818474
C0S790,金崙,2014-04-03,22.538122,120.966875,2.574509e-07
C0AH90,福山植物園,2014-04-03,24.760717,121.58135,7.567592e-10
C0I540,奇萊稜線,2014-04-03,24.109231,121.326456,1.001546e-08
C0M850,表湖,2014-04-03,23.24186,120.64166,7.269303e-10
C0S770,大溪山,2014-04-03,22.478475,120.943325,1.7204126e-08
C0AG80,中和,2014-04-03,24.991622,121.491792,1.2824024e-08
C0T790,大禹嶺,2014-04-03,24.186117,121.316086,5.082989e-09
C0T9B0,水源,2014-04-03,23.991861,121.537169,7.8446885e-09
C0R840,牡丹池山,2014-04-03,22.168389,120.841225,0.00034756574
C1I131,桶頭,2014-04-03,23.641944,120.654117,5.2910376e-10
CAL110,布袋國中,2014-04-03,23.35893,120.18026,2.8203813e-09
467571,新竹,2014-04-03,24.827853,121.014219,9.501017e-10
C0Z290,赤柯山,2014-04-03,23.36893,121.38293,4.593596e-09
C0X280,將軍,2014-04-03,23.214999,120.13577,4.030889e-09
C0S690,太麻里,2014-04-03,22.60902,120.98533,6.4781323e-09
C0U880,北關,2014-04-03,24.9072,121.8734,9.273342e-08
C1H860,瑞岩,2014-04-03,24.123772,121.18345,1.0372042e-09
C0G810,埔心,2014-04-03,23.947633,120.525456,8.0469986e-10
C0U970,大福,2014-04-03,24.80064,121.81389,1.6338547e-06
C2H9N0,仁愛東眼,2014-04-03,24.026875,121.1205,6.314138e-10
C1E670,南礦,2014-04-03,24.538278,121.002836,5.735901e-10
C0M520,東後寮,2014-04-03,23.369908,120.248065,2.8373939e-09
C1E461,松安,2014-04-03,24.397972,120.986022,5.539685e-10
72G600,臺中農改,2014-04-03,24.003028,120.534389,9.203064e-10
C2N160,西拉雅風管處,2014-04-03,23.189481,120.335297,1.2174373e-09
C2M970,碧湖,2014-04-03,23.568632,120.624165,8.629646e-10
C0A640,石碇,2014-04-03,24.993969,121.662917,1.9052144e-05
E2S960,林試太麻里2,2014-04-03,22.598,120.99775,0.005918586
C0F9Y0,桃山,2014-04-03,24.432739,121.303808,9.469343e-09
C1I020,萬大,2014-04-03,23.979817,121.132261,5.6821525e-10
C0U940,羅東,2014-04-03,24.68184,121.74934,0.5834091
C0M650,朴子,2014-04-03,23.43463,120.23902,1.824048e-09
C1I500,大尖山,2014-04-03,23.858572,120.994889,1.8703445e-09
C0G820,田尾,2014-04-03,23.901669,120.509389,7.7887446e-10
E2K600,四湖植物園,2014-04-03,23.676986,120.163433,1.2017926e-09
C0S730,綠島,2014-04-03,22.6672,121.47533,0.0040238677
12Q970,東港工作站,2014-04-03,22.479997,120.466058,2.3923578e-05
C0E430,南庄,2014-04-03,24.601775,121.000214,3.720183e-10
C1TA00,太魯閣,2014-04-03,24.15773,121.6236,8.765901e-05
466920,臺北,2014-04-03,25.037658,121.514853,1.2824024e-08
C0R600,舊泰武,2014-04-03,22.588194,120.664944,4.2061953e-07
C1I260,北坑,2014-04-03,23.9246,121.006903,3.791336e-10
466910,鞍部,2014-04-03,25.182586,121.529731,1.4162448e-08
C1I230,九份二山,2014-04-03,23.961944,120.845,4.4852408e-10
C2A660,瑞芳,2014-04-03,25.113169,121.801147,0.0006652549
C0R270,琉球嶼,2014-04-03,22.332244,120.362236,0.08134931
C1T990,高寮,2014-04-03,23.394239,121.356808,8.168803e-08
C0G620,芬園,2014-04-03,24.015678,120.6213,5.2072396e-10
C1Z140,荖溪,2014-04-03,23.890575,121.45964,2.4158628e-09
C1I201,中心崙,2014-04-03,23.728722,120.712097,5.3253296e-10
C1I400,凌霄,2014-04-03,24.018778,121.004456,6.0736954e-10
C1M640,十字,2014-04-03,23.492153,120.753683,1.1761361e-09
G2P820,農試鳳山分所,2014-04-03,22.646611,120.356083,6.9243483e-06
C0Z270,蕃薯寮,2014-04-03,23.73835,121.540108,2.0779547e-08
C0F9Q0,外埔,2014-04-03,24.347817,120.705686,4.661778e-10
C0K580,高鐵雲林,2014-04-03,23.737456,120.417944,8.5194013e-10
C2I090,鳳凰,2014-04-03,23.728081,120.787347,4.4415935e-10
C0U990,員山,2014-04-03,24.74435,121.72247,0.5828884
C0V770,大社,2014-04-03,22.730306,120.346639,2.2494207e-07
C0X120,麻豆,2014-04-03,23.183289,120.248611,3.74511e-09
C0C670,龍潭,2014-04-03,24.870056,121.221389,2.6820476e-10
C0D680,香山濕地,2014-04-03,24.783581,120.914988,1.0547583e-09
C0S980,勝林山,2014-04-03,22.430439,120.8938,6.0988774e-09
C0V730,大寮,2014-04-03,22.605614,120.395717,0.00010479711
C0R570,麟洛,2014-04-03,22.65078,120.52719,1.887627e-08
C2M930,石卓,2014-04-03,23.478744,120.702264,1.120865e-09
C0G9B0,和美,2014-04-03,24.105169,120.492131,1.1254494e-09
CAG100,王功漁港,2014-04-03,23.96824,120.32586,8.8037116e-10
C0X290,北門,2014-04-03,23.267772,120.125481,4.030889e-09
C2F930,大甲,2014-04-03,24.347667,120.640403,9.104923e-10
C0D650,湖口,2014-04-03,24.904794,121.043628,1.2376213e-07
C0E420,竹南,2014-04-03,24.708978,120.888897,9.828897e-10
C0U780,五結,2014-04-03,24.68637,121.79794,0.6163078
C1I250,鯉潭,2014-04-03,23.961922,120.991131,3.9636053e-10
C0R130,阿禮,2014-04-03,22.742908,120.743678,1.1021498e-09
C0X100,臺南市北區,2014-04-03,23.010394,120.194228,5.6398615e-09
C0S920,金峰嘉蘭,2014-04-03,22.594789,120.960825,7.370006e-05
C0V490,新興,2014-04-03,22.627422,120.298803,1.1201526e-05
C0F9K0,大安,2014-04-03,24.345061,120.588025,1.0729511e-09
72N100,臺南農改,2014-04-03,23.0605,120.342194,1.3951093e-09
467290,古坑,2014-04-03,23.633639,120.551889,5.6703303e-10
C2E970,八甲,2014-04-03,24.535811,120.795983,4.659547e-10
C0V440,鳳山,2014-04-03,22.646653,120.356122,6.9243547e-06
C1T940,大觀,2014-04-03,23.714206,121.373133,1.3422733e-08
72T250,花蓮農改,2014-04-03,23.975222,121.563889,8.683626e-09
C0E740,造橋,2014-04-03,24.637056,120.864778,4.8677173e-10
C0R100,尾寮山,2014-04-03,22.833111,120.683889,7.3995254e-10
A2K630,臺大雲林校區,2014-04-03,23.730628,120.423903,8.5194013e-10
C0D580,寶山,2014-04-03,24.735006,121.025192,3.0233743e-10
E2P990,林試扇平站,2014-04-03,22.9677,120.6857,7.784809e-10
C0AI30,三重,2014-04-03,25.057328,121.500629,1.0007134e-08
C0AH00,汐止,2014-04-03,25.066881,121.658778,1.7338885e-05
C1Z040,立山,2014-04-03,23.443356,121.327375,1.9203355e-08
C0W130,花嶼,2014-04-03,23.40007,119.32276,0.0009817012
C0A950,鼻頭角,2014-04-03,25.129036,121.923372,0.019959876
C0K470,林內,2014-04-03,23.748675,120.609642,6.3609906e-10
C2F990,摩天嶺,2014-04-03,24.322458,120.936819,4.6660303e-10
82C160,茶改場,2014-04-03,24.908472,121.185333,5.6339566e-10
C0Z320,清水林道,2014-04-03,23.27125,121.188272,4.5989e-09
C0R760,南仁湖,2014-04-03,22.084681,120.863353,0.9988859
C0M670,大林,2014-04-03,23.600616,120.45841,6.146052e-10
C0M800,茶山,2014-04-03,23.299075,120.664767,5.854121e-10
C0A9C0,天母,2014-04-03,25.117494,121.537169,9.298702e-09
72K220,南改斗南分場,2014-04-03,23.634556,120.477333,7.217701e-10
72AI40,桃改樹林分場,2014-04-03,24.944503,121.386972,9.037244e-09
C0S910,蘭嶼燈塔,2014-04-03,22.081197,121.503117,0.99901295
C0B050,八斗子,2014-04-03,25.144754,121.79167,2.2910723e-05
C0U900,內城,2014-04-03,24.71813,121.68766,7.985973e-07
C0X320,柳營,2014-04-03,23.253328,120.375253,7.463281e-10
C0M790,新港,2014-04-03,23.553269,120.345728,8.879837e-10
C0F9T0,西屯,2014-04-03,24.179494,120.641275,7.1957623e-10
C0SA30,都歷,2014-04-03,23.020333,121.323642,0.014057082
C0C620,蘆竹,2014-04-03,25.084275,121.265767,1.5007938e-08
C0R730,大坪頂,2014-04-03,22.024633,120.69355,0.9982604
C0AJ40,石門,2014-04-03,25.273672,121.601198,1.1726684e-07
C0E750,苗栗,2014-04-03,24.564569,120.824575,5.80791e-10
C0T870,鯉魚潭,2014-04-03,23.935639,121.508944,4.211594e-08
C1V170,排雲,2014-04-03,23.463619,120.954147,1.3947986e-08
C2H950,中寮,2014-04-03,23.884447,120.766406,4.552277e-10
C0R350,貓鼻頭,2014-04-03,21.921774,120.7358,0.99823844
C0V660,岡山,2014-04-03,22.797078,120.294958,8.078175e-09
C1H941,雙冬,2014-04-03,23.967378,120.802189,3.8002776e-10
C0AJ70,田寮,2014-04-03,25.2698,121.4886,1.7557029e-07
C0AI00,五股,2014-04-03,25.07445,121.42728,1.7120383e-09
C0Z280,德武,2014-04-03,23.47426,121.41071,4.797834e-08
C0R700,枋山,2014-04-03,22.246844,120.661086,0.8711466
C0C460,復興,2014-04-03,24.820208,121.352281,1.3830674e-09
E2H360,蓮華池,2014-04-03,23.918333,120.885278,3.8768946e-10
C0M640,中埔,2014-04-03,23.42538,120.5229,5.950054e-10
C0W140,金沙,2014-04-03,24.488292,118.408778,8.495281e-08
C2A540,四堵,2014-04-03,24.8926,121.745736,7.1268595e-08
C0ACA0,新莊,2014-04-03,25.051478,121.446756,2.3606072e-08
C0R220,潮州,2014-04-03,22.534361,120.54,0.00025511417
U2HA40,臺大內茅埔,2014-04-03,23.689722,120.851117,4.3510104e-10
467490,臺中,2014-04-03,24.145736,120.684075,5.4775795e-10
C0U960,翠峰湖,2014-04-03,24.510856,121.608044,3.3662766e-09
E2HA20,林試畢祿溪站,2014-04-03,24.226944,121.308522,1.9340232e-09
C0V890,前鎮,2014-04-03,22.5718,120.3117,1.8163773e-05
467620,蘭嶼,2014-04-03,22.036969,121.558339,0.9994504
C1F941,雪嶺,2014-04-03,24.280586,121.026642,4.013658e-09
C2H9E0,國姓南港,2014-04-03,23.911108,120.846556,6.7348266e-10
C0AC80,文山,2014-04-03,25.00235,121.575728,1.0232456e-08
C0F9R0,龍井,2014-04-03,24.184536,120.528972,1.1043403e-09
C0M760,民雄,2014-04-03,23.551754,120.428457,5.6182464e-10
C0UA40,西德山,2014-04-03,24.560647,121.752608,8.098415e-09
C1T920,中興,2014-04-03,23.769503,121.498653,6.569178e-08
C0D550,雪霸,2014-04-03,24.526972,121.11605,1.4516667e-09
C2F860,梨山,2014-04-03,24.247522,121.243669,2.0495263e-09
C0R320,車城,2014-04-03,22.0744,120.716247,0.99811196
C1S870,南美山,2014-04-03,23.15025,121.382333,3.1455264e-05
C0B020,基隆嶼,2014-04-03,25.19141,121.78391,1.7338885e-05
C1U501,牛鬥,2014-04-03,24.637836,121.573656,2.4101798e-08
C0M730,嘉義市東區,2014-04-03,23.457673,120.460531,5.7084626e-10
C0S700,知本,2014-04-03,22.684866,121.005642,7.3636413e-09
C1N001,沙崙,2014-04-03,22.935472,120.309406,2.8202576e-09
C0V760,橋頭,2014-04-03,22.757806,120.30575,7.2528397e-09
C0G960,福寶,2014-04-03,24.0443,120.3814,1.2529817e-09
C0X210,白河,2014-04-03,23.347466,120.414427,7.314588e-10
C0S810,東河,2014-04-03,22.972672,121.303986,7.2580426e-09
C2R170,屏東,2014-04-03,22.66027,120.49403,2.1173951e-08
C0R670,楓港,2014-04-03,22.190131,120.692156,0.8711466
C0FA50,霧峰,2014-04-03,24.0419,120.6995,5.568223e-10
C0UB10,蘇澳,2014-04-03,24.5969,121.8571,0.21634227
C0G950,防潮門,2014-04-03,24.1835,120.4871,1.1168274e-09
C0M740,六腳,2014-04-03,23.492871,120.290625,9.1141317e-10
C1R250,力里,2014-04-03,22.428117,120.629228,0.13549815
C0K330,虎尾,2014-04-03,23.719183,120.442036,8.205946e-10
C2FA00,烏石坑,2014-04-03,24.273503,120.947617,4.5709483e-10
C0V620,永安,2014-04-03,22.82315,120.236856,8.388269e-09
C1I330,楓樹林,2014-04-03,23.986803,121.076117,5.091506e-10
C0W200,湖西,2014-04-03,23.596314,119.67275,0.00028691153
72Q010,高雄農改場,2014-04-03,22.709333,120.525889,1.7575063e-08
C0SA40,瑞和,2014-04-03,22.974361,121.156697,0.00022637437
C0C680,龜山,2014-04-03,25.02846,121.38656,7.968923e-09
C2V260,月眉,2014-04-03,22.971003,120.539853,4.921256e-10
C0V450,鳳森,2014-04-03,22.545064,120.392592,2.988525e-05
C0U720,南山,2014-04-03,24.43742,121.38167,1.9677198e-09
A2N290,臺南蘭花園區,2014-04-03,23.340258,120.379661,7.4672823e-10
C0R560,新園,2014-04-03,22.5434,120.461558,2.0171588e-05
C0U890,三星,2014-04-03,24.66812,121.65302,3.8401825e-07
C1V300,御油山,2014-04-03,23.001983,120.715364,3.88819e-09
C0U600,礁溪,2014-04-03,24.817539,121.765608,1.2072459e-06
C1T980,龍澗,2014-04-03,24.023289,121.411328,3.3424763e-09
C0D670,海天一線,2014-04-03,24.831986,120.914438,1.0754979e-09
C0SA00,歷坵,2014-04-03,22.520969,120.89185,1.0513403e-08
C0M710,東石,2014-04-03,23.458927,120.15385,1.5703027e-09
C0M780,鹿草,2014-04-03,23.41134,120.30835,8.8470403e-10
C0U520,雙連埤,2014-04-03,24.753033,121.641303,5.1027476e-09
C0B010,七堵,2014-04-03,25.094819,121.71713,1.3363413e-05
C0R480,長治,2014-04-03,22.693128,120.542622,7.362774e-08
C1V830,國三S383K,2014-04-03,22.781967,120.426475,2.5959686e-09
12Q980,恆春工作站,2014-04-03,22.079678,120.714425,0.99811065
C1O940,東山服務區,2014-04-03,23.286016,120.398472,7.1169637e-10
C1U840,東澳嶺,2014-04-03,24.5378,121.8485,1.6025858e-08
C1D630,飛鳳山,2014-04-03,24.766464,121.119178,2.8729916e-10
C0S940,石寧山,2014-04-03,23.223772,121.406639,2.0324416e-08
C0K410,北港,2014-04-03,23.573957,120.292802,9.381125e-10
C2M620,瑞里,2014-04-03,23.545133,120.675197,1.1783725e-09
C0SB70,小港漁港,2014-04-03,23.158558,121.400431,4.2291504e-08
C2O950,安南,2014-04-03,23.076694,120.144861,1.2489308e-08
C0F0E0,南湖圈谷,2014-04-03,24.363714,121.444667,1.634275e-08
467610,成功,2014-04-03,23.097486,121.373428,0.099923514
C0G890,伸港,2014-04-03,24.148933,120.484403,1.0963672e-09
C2E540,龍溪,2014-04-03,24.606489,120.783933,6.5900546e-10
C1V200,梅山,2014-04-03,23.268447,120.823556,1.3702093e-09
C0T9H0,加路蘭山,2014-04-03,23.682947,121.5274,9.113129e-09
C2O930,玉井,2014-04-03,23.126042,120.46055,5.208968e-10
C1F911,新伯公,2014-04-03,24.221361,120.841069,4.2129633e-10
C0R490,九如,2014-04-03,22.7405,120.490503,1.887627e-08
C0X200,左鎮,2014-04-03,23.056758,120.408522,5.687097e-10
C0SB50,叭嗡嗡,2014-04-03,23.047062,121.343223,8.419204e-09
C1F891,稍來,2014-04-03,24.265689,121.001142,1.9107986e-09
72N240,七股研究中心,2014-04-03,23.081672,120.062894,1.43265755e-08
C0C700,中壢,2014-04-03,24.977661,121.256375,9.285635e-10
C0M690,水上,2014-04-03,23.419734,120.388909,5.6075833e-10
C0V690,鼓山,2014-04-03,22.623325,120.275575,1.1201526e-05
C0O860,大內,2014-04-03,23.11885,120.36083,5.7055344e-10
C0Z200,萬榮,2014-04-03,23.709219,121.420106,4.211594e-08
C0T9D0,和中,2014-04-03,24.26676,121.74103,0.0036306218
C1O921,楠西,2014-04-03,23.183511,120.484083,5.6599786e-10
C0AJ30,淡水觀海,2014-04-03,25.184591,121.408616,1.6163323e-08
C0V810,左營,2014-04-03,22.67491,120.28491,2.3896757e-07
C0UA70,桃源谷,2014-04-03,24.962606,121.888875,3.1740345e-07
C0X130,官田,2014-04-03,23.193217,120.315422,1.2548113e-09
C1H000,翠峰,2014-04-03,24.109397,121.205211,2.6367988e-09
C0UA90,石城,2014-04-03,24.980444,121.951214,0.05648324
C1E681,南勢山,2014-04-03,24.421669,120.923831,4.015325e-10
C0A9F0,內湖,2014-04-03,25.079422,121.57545,1.2824024e-08
C0K291,宜梧,2014-04-03,23.536281,120.169329,1.6107425e-09
C1K540,口湖,2014-04-03,23.585344,120.180517,1.66148e-09
C0R780,滿州,2014-04-03,22.024403,120.839892,0.9982516
C0V870,文安,2014-04-03,22.8025,120.2164,8.9496925e-09
C0U650,玉蘭,2014-04-03,24.675286,121.587061,1.8722087e-08
C0R640,東港,2014-04-03,22.46247,120.44074,1.8029697e-05
K2E360,苗栗農改,2014-04-03,24.495722,120.829111,5.3853905e-10
C0AJ80,板橋,2014-04-03,25.0107,121.4489,9.699173e-09
C0S660,下馬,2014-04-03,23.150427,121.070312,2.5467681e-09
C1H9B1,阿眉,2014-04-03,24.1263,120.994672,1.1146483e-09
C0UA20,多加屯,2014-04-03,24.368614,121.373189,3.793769e-09
C0E730,頭份,2014-04-03,24.688247,120.912206,9.828897e-10
72V140,高改旗南分場,2014-04-03,22.857861,120.516667,2.3318942e-09
C0K480,莿桐,2014-04-03,23.761192,120.502372,7.3174766e-10
C0U980,坪林石牌,2014-04-03,24.86478,121.77396,2.0065228e-08
C0T900,西林,2014-04-03,23.8119,121.441458,3.6199516e-08
C1I150,青雲,2014-04-03,23.793361,120.949378,4.2263157e-10
467350,澎湖,2014-04-03,23.565503,119.563094,9.176941e-05
C0G800,埔鹽,2014-04-03,24.000394,120.431683,1.2108996e-09
C0H960,草屯,2014-04-03,23.973672,120.68085,4.702842e-10
C1V780,多納林道,2014-04-03,22.888028,120.737917,1.3089776e-09
C0E920,通霄漁港,2014-04-03,24.498589,120.673876,1.1964978e-09
C0Z330,安通山,2014-04-03,23.290728,121.348528,4.7428035e-09
C0AH10,永和,2014-04-03,25.01125,121.508111,1.3776576e-08
C0AK10,太平里,2014-04-03,25.134937,121.364899,2.3606072e-08
C2G640,鹿港,2014-04-03,24.0753,120.430481,1.21184e-09
C1E890,國三N149K,2014-04-03,24.463414,120.680019,1.078711e-09
C1R110,口社,2014-04-03,22.770111,120.645222,4.5708464e-09
C1M870,國三N285K,2014-04-03,23.550319,120.505833,5.926314e-10
467050,新屋,2014-04-03,25.006744,121.047486,3.4434373e-07
C1E480,鳳美,2014-04-03,24.554803,121.034747,3.340295e-10
C0M530,奮起湖,2014-04-03,23.493903,120.699253,1.3844293e-09
C0C590,觀音,2014-04-03,25.027072,121.153317,8.254788e-09
C0T9M0,靜浦,2014-04-03,23.455167,121.495028,6.398536e-08
C2H9M0,發祥,2014-04-03,24.154094,121.164517,4.6522292e-10
C0AI40,石牌,2014-04-03,25.115597,121.513139,9.70539e-09
C1F871,上谷關,2014-04-03,24.203483,121.018644,4.6010296e-10
C2H9G0,百勝,2014-04-03,24.051142,120.909361,4.367157e-10
C0G880,二水,2014-04-03,23.810742,120.6173,6.160135e-10
C0R940,加祿堂,2014-04-03,22.3363,120.6217,0.040421728
C0W220,北竿,2014-04-03,26.220358,119.974881,1.896681e-09
C0O960,崎頂,2014-04-03,22.959547,120.369317,5.923466e-10
C0S750,向陽,2014-04-03,23.248397,120.986133,4.869967e-09
C0T9F0,水璉,2014-04-03,23.797131,121.542514,2.6264651e-08
C1M600,頭凍,2014-04-03,23.406364,120.603339,9.150327e-10
467660,臺東,2014-04-03,22.752211,121.154586,3.6481065e-08
C1D380,新埔,2014-04-03,24.84745,121.03834,8.654074e-10
C2G980,田頭村,2014-04-03,23.8263,120.444175,9.799994e-10
C0V750,路竹,2014-04-03,22.854997,120.259439,3.5152203e-09
C0N050,蚵寮,2014-04-03,23.301,120.1104,2.4504554e-09
72M700,南改鹿草分場,2014-04-03,23.416869,120.283061,9.985431e-10
C1SA50,利嘉林道,2014-04-03,22.82325,121.009389,4.9134363e-09
467550,玉山,2014-04-03,23.487614,120.959522,1.6303336e-08
C0A940,金山,2014-04-03,25.223628,121.643967,1.6110221e-07
C1V340,大津,2014-04-03,22.888322,120.645986,6.6491435e-10
C0W180,七美,2014-04-03,23.219333,119.444892,0.0038406479
C1F9C1,白冷,2014-04-03,24.182844,120.929889,3.7926165e-10
K2E710,苗改生物防治研究中心,2014-04-03,24.422861,120.871833,3.8035045e-10
C0N040,蘆竹溝,2014-04-03,23.2344,120.0961,2.4504554e-09
C2W230,畜試所澎湖,2014-04-03,23.628342,119.513206,0.000328855
C0R880,後壁湖,2014-04-03,21.9457,120.7457,0.99805903
C1I280,埔中,2014-04-03,23.820778,120.642594,5.3923077e-10
467790,墾丁雷達站,2014-04-03,21.948235,120.808028,0.9982846
C0W190,望安,2014-04-03,23.380564,119.494075,2.6102622e-05
466881,新北,2014-04-03,24.9593,121.52,1.169881e-08
C0Z170,卓溪,2014-04-03,23.3443,121.3029,3.9551363e-08
C0F850,東勢,2014-04-03,24.246428,120.833047,4.1823311e-10
466900,淡水,2014-04-03,25.164889,121.448906,1.5708098e-08
C0I370,魚池,2014-04-03,23.895703,120.94135,3.815057e-10
C0C630,大溪,2014-04-03,24.882853,121.265547,5.6478466e-10
C0A520,山佳,2014-04-03,24.974944,121.402008,9.037244e-09
C0I110,竹山,2014-04-03,23.761225,120.688156,4.600775e-10
82H840,茶改南部分場,2014-04-03,23.762528,120.7405,4.1119022e-10
C0G660,溪湖,2014-04-03,23.94835,120.479122,8.1948254e-10
C1T800,洛韶,2014-04-03,24.204558,121.453956,4.4332253e-09
C1T810,慈恩,2014-04-03,24.192044,121.388386,2.72428e-09
C1E451,象鼻,2014-04-03,24.368617,120.940228,4.0034792e-10
C0AC60,三峽,2014-04-03,24.939025,121.369728,1.1435962e-08
C0I490,萬大林道,2014-04-03,23.928228,121.091411,1.3173329e-09
C1I290,豐丘,2014-04-03,23.668178,120.887417,6.472744e-10
C1I320,奧萬大,2014-04-03,23.952956,121.178556,5.153902e-10
C2M910,嘉義大學,2014-04-03,23.471325,120.485903,5.952154e-10
C0U770,南澳,2014-04-03,24.44935,121.81022,0.0016089284
C0A980,社子,2014-04-03,25.109508,121.469681,1.0472315e-08
C0V800,六龜,2014-04-03,22.997889,120.633583,4.1875195e-10
C1G9D0,國一S218K,2014-04-03,23.890641,120.493253,8.0469986e-10
C0E570,白沙屯,2014-04-03,24.549447,120.696803,1.1964978e-09
C2F9A0,中竹林,2014-04-03,24.103556,120.751061,4.3590015e-10
C0FA40,臺中電廠,2014-04-03,24.2146,120.4907,1.1043403e-09
C2G9A0,畜試所彰化,2014-04-03,23.86045,120.557964,5.7836125e-10
C0H9C0,合歡山,2014-04-03,24.143442,121.272547,1.1415281e-08
C0X060,下營,2014-04-03,23.22695,120.256261,1.4541858e-09
G2M350,農試溪口農場,2014-04-03,23.58565,120.408111,5.8855587e-10
C0U860,頭城,2014-04-03,24.85323,121.8308,1.4030737e-06
C0R580,南州,2014-04-03,22.48591,120.50274,2.375582e-05
C0D430,峨眉,2014-04-03,24.6905,121.017189,7.8411383e-10
C0G780,秀水,2014-04-03,24.03405,120.503869,9.543862e-10
72N100,臺南農改場,2014-04-03,23.0605,120.342194,1.3951093e-09
C0S900,蘭嶼高中,2014-04-03,22.04909,121.51214,0.99852943
467540,大武,2014-04-03,22.355675,120.903789,0.08703465
C1F9W0,德基,2014-04-03,24.254783,121.190261,1.4136721e-09
C1Z120,壽豐,2014-04-03,23.870853,121.508081,8.5018456e-08
C0W160,烏坵,2014-04-03,24.9944,119.44956,1.0493618e-06
C1I240,外大坪,2014-04-03,23.958697,120.917931,4.0359796e-10
C1I550,國六W023K,2014-04-03,23.979067,120.867742,4.2339804e-10
C0R870,興海,2014-04-03,21.9752,120.8439,0.99818355
C0R140,瑪家,2014-04-03,22.682903,120.686639,9.283085e-10
C0A530,坪林,2014-04-03,24.938183,121.70975,4.649555e-08
C0X260,後壁,2014-04-03,23.366358,120.362326,7.9659707e-10
C0Z230,和平,2014-04-03,24.30717,121.77007,0.0036218367
C0G770,福興,2014-04-03,24.041289,120.437669,1.21126e-09
C0H9A0,神木村,2014-04-03,23.532742,120.843667,1.4657e-09
C0I460,南投,2014-04-03,23.911469,120.687331,4.8198795e-10
C0I480,梅峰,2014-04-03,24.085272,121.173572,1.8263665e-09
C1V570,吉東,2014-04-03,22.85422,120.5454,2.1080655e-09
C2D740,屯原,2014-04-03,24.067969,121.209389,1.5703656e-09
C2A560,福山,2014-04-03,24.776203,121.502811,3.0227876e-09
C0AH30,五分山,2014-04-03,25.07125,121.780794,3.885123e-08
C0FA10,松柏,2014-04-03,24.429115,120.617482,1.1747191e-09
72S200,東改班鳩分場,2014-04-03,22.829528,121.077694,3.9522554e-08
72HA00,中改埔里分場,2014-04-03,23.903208,120.963364,3.7222056e-10
C2H9W0,大坪頂農水,2014-04-03,24.043122,120.932781,4.011972e-10
C0C650,平鎮,2014-04-03,24.897503,121.214636,5.6339566e-10
C0S930,延平,2014-04-03,22.902581,121.084058,1.1430424e-08
C0UA60,樟樹山,2014-04-03,24.41393,121.78325,1.6609572e-07
C1S670,摩天,2014-04-03,23.199503,121.027,3.6590664e-09
C0V630,茄萣,2014-04-03,22.906642,120.182608,7.7411775e-09
466940,基隆,2014-04-03,25.133314,121.740475,2.095504e-05
C0X050,東河,2014-04-03,23.296598,120.385608,7.463281e-10
C0R770,保力,2014-04-03,22.071122,120.764111,0.99832666
G2L020,農試嘉義分所,2014-04-03,23.485028,120.473806,5.8014554e-10
C0X240,關子嶺,2014-04-03,23.331169,120.508025,6.560395e-10
C0I380,集集,2014-04-03,23.828206,120.801467,4.9090215e-10
466990,花蓮,2014-04-03,23.975128,121.613275,9.4008685e-09
C1V220,小關山,2014-04-03,23.154217,120.813603,4.480028e-09
C1F9G1,慶福山,2014-04-03,24.180853,120.848378,3.9218537e-10
C0Z250,瑞穗林道,2014-04-03,23.49284,121.30688,5.22009e-09
C0D590,新豐,2014-04-03,24.87068,120.97721,3.0288891e-05
C0A870,五指山,2014-04-03,25.132153,121.608692,1.8483439e-08
C0UA50,西帽山,2014-04-03,24.555361,121.802628,9.625878e-09
C0X160,仁德,2014-04-03,22.968258,120.257689,1.9129245e-09
C1H971,六分寮,2014-04-03,23.92507,120.6378,4.880165e-10
C0W120,西嶼,2014-04-03,23.5626,119.468436,9.176959e-05
C0G650,員林,2014-04-03,23.946503,120.585597,6.038902e-10
C0AD50,鶯歌,2014-04-03,24.951533,121.346294,8.190251e-09
C2H9Q0,北東眼山,2014-04-03,24.120939,121.189303,1.5016778e-09
C2H9T0,名間竹圍,2014-04-03,23.859914,120.637572,4.702653e-10
C0S990,山豬窟,2014-04-03,22.318619,120.857372,0.051631887
72Q010,高雄農改,2014-04-03,22.709333,120.525889,1.7575063e-08
C0X190,安平,2014-04-03,22.993161,120.152181,5.6398615e-09
C0K400,斗六,2014-04-03,23.720583,120.541127,6.890108e-10
12J990,口湖工作站,2014-04-03,23.589978,120.180394,1.6212839e-09
C0O830,北寮,2014-04-03,23.079561,120.495008,5.892152e-10
C1D410,白蘭,2014-04-03,24.579364,121.079947,5.788711e-10
C0S970,加津林,2014-04-03,22.416211,120.926942,0.11239053
C0D700,關西,2014-04-03,24.7977,121.1732,6.090621e-10
C0M810,里佳,2014-04-03,23.389125,120.716647,1.3844293e-09
C0U750,龜山島,2014-04-03,24.841667,121.953133,2.154461e-06
C0R810,內獅,2014-04-03,22.305064,120.642986,0.040387657
C1M390,龍美,2014-04-03,23.406728,120.654417,1.080111e-09
C2FB60,頭櫃山,2014-04-03,24.129842,120.858925,5.225088e-10
C1H840,國三N238K,2014-04-03,23.841008,120.707711,4.895604e-10
CAQ030,崎峰國小,2014-04-03,22.42565,120.49521,2.375582e-05
C2E520,大湖,2014-04-03,24.414939,120.870872,3.18898e-10
467530,阿里山,2014-04-03,23.508208,120.813242,5.0469744e-09
C1E691,南湖,2014-04-03,24.40135,120.837533,3.329996e-10
C0FA30,梧棲,2014-04-03,24.256003,120.523381,1.1043403e-09
C1V231,高中,2014-04-03,23.134911,120.716711,6.1087235e-10
C0F9V0,新社,2014-04-03,24.200172,120.815806,4.593138e-10
C0H890,埔里,2014-04-03,23.972169,120.952425,3.6502884e-10
C0R690,墾丁,2014-04-03,21.966756,120.810269,0.99869484
C0F0D0,審馬陣,2014-04-03,24.381675,121.4203,8.5494065e-09
C0R820,白鷺,2014-04-03,22.454275,120.666219,2.8819799e-05
U2H480,臺大溪頭,2014-04-03,23.670306,120.798194,6.3729527e-10
C1V190,南天池,2014-04-03,23.27403,120.91176,5.783725e-09
K2E360,苗栗農改場,2014-04-03,24.495722,120.829111,5.3853905e-10
CAJ050,海口故事園區,2014-04-03,23.57543,120.14121,1.6608336e-09
C2H9D0,三隻寮,2014-04-03,24.093078,120.861578,4.0876924e-10
C0O990,媽廟,2014-04-03,22.99175,120.293525,1.7970536e-09
C0D480,打鐵坑,2014-04-03,24.849664,121.150789,2.286934e-10
C0Z220,和平林道,2014-04-03,24.343922,121.656317,1.5783803e-07
C0TA10,花蓮漁港,2014-04-03,23.995322,121.638331,1.0006408e-08
72C440,桃園農改場,2014-04-03,24.950944,121.030583,2.2615178e-07
C1E711,馬拉邦山,2014-04-03,24.367306,120.901656,3.4688355e-10
C0SB20,富岡,2014-04-03,22.792467,121.192669,3.2896413e-08
C0D560,竹東,2014-04-03,24.767147,121.057881,7.2352885e-10
C0F9U0,南屯,2014-04-03,24.137006,120.637969,6.498945e-10
C0M720,番路,2014-04-03,23.464657,120.554156,5.5370125e-10
C0F0A0,雪山圈谷,2014-04-03,24.388594,121.236339,1.3918832e-08
C1A9N0,四十份,2014-04-03,24.934158,121.593283,2.7949443e-09
C0U760,東澳,2014-04-03,24.52196,121.83318,9.0119323e-07
C0X230,鹽水,2014-04-03,23.272621,120.247641,3.0528184e-09
C2H9H0,苗改南投蜂場,2014-04-03,23.852589,120.693481,4.600775e-10
C0R950,萬隆國小,2014-04-03,22.507667,120.587817,2.6695097e-05
C0V370,古亭坑,2014-04-03,22.893178,120.401947,6.5260247e-10
C1I340,新興橋,2014-04-03,23.563333,120.868728,4.938322e-10
C0SA80,土坂,2014-04-03,22.453108,120.887572,9.94245e-06
C0R160,鹽埔,2014-04-03,22.739558,120.530778,8.6662396e-08
C0AC40,大屯山,2014-04-03,25.175675,121.522408,1.2572171e-08
466850,五分山雷達站,2014-04-03,25.071182,121.781205,3.7813162e-08
C2H9L0,馬烈霸,2014-04-03,24.1512,121.201772,1.4589782e-09
C1AI50,國三N016K,2014-04-03,25.034164,121.619664,1.0749344e-08
C1V600,藤枝,2014-04-03,23.071961,120.757042,3.670271e-09
C1E601,南勢,2014-04-03,24.572486,120.734842,7.664482e-10
C0Z180,新城,2014-04-03,24.03946,121.60454,8.950785e-09
C0O980,新市,2014-04-03,23.061614,120.298197,1.5005354e-09
C0K420,西螺,2014-04-03,23.800407,120.467394,7.6101037e-10
C0Z050,佳心,2014-04-03,23.34567,121.21316,2.6935016e-09
C0AD30,蘆洲,2014-04-03,25.086594,121.472331,1.0007134e-08
C0V610,梓官,2014-04-03,22.760558,120.267211,8.078175e-09
K2F750,種苗改良場,2014-04-03,24.225972,120.800917,4.3396725e-10
C0UA80,大溪漁港,2014-04-03,24.941801,121.902955,1.20698e-06
C1AI60,國一39K邊坡,2014-04-03,25.064361,121.383836,3.384431e-07
C0W150,金寧,2014-04-03,24.457703,118.328989,6.1186995e-08
C0R960,內埔,2014-04-03,22.608483,120.570714,4.93592e-05
V2C250,八德合作社,2014-04-03,24.93775,121.266389,6.123562e-10
C2H9S0,龍南,2014-04-03,23.953536,120.833183,6.559531e-10
C0AH40,平等,2014-04-03,25.129142,121.577086,5.077139e-08
C0R540,佳冬,2014-04-03,22.419456,120.552375,2.415913e-05
466950,彭佳嶼,2014-04-03,25.627975,122.079744,0.00011897571
C0A890,雙溪,2014-04-03,25.036003,121.864242,1.0205693e-05
C0C480,桃園,2014-04-03,24.992425,121.323172,9.540476e-10
C0AH50,林口,2014-04-03,25.072181,121.38084,4.4438266e-08
A2K360,水試臺西試驗場,2014-04-03,23.717231,120.190522,1.2598138e-09
B2N890,畜試所,2014-04-03,23.058972,120.336406,1.3951093e-09
C2M960,外寮,2014-04-03,23.562643,120.665688,9.1248814e-10
C0F9S0,烏日,2014-04-03,24.107058,120.624103,6.6916883e-10
C0C490,八德,2014-04-03,24.928708,121.283289,6.2729405e-10
C0R190,赤山,2014-04-03,22.592333,120.614306,3.5611938e-05
C0T820,天祥,2014-04-03,24.179597,121.495639,9.838355e-09
C1F9E1,龍安,2014-04-03,24.1605,120.831961,4.7521737e-10
C0V820,小林,2014-04-03,23.148408,120.63325,4.713771e-10
C2G870,芳苑,2014-04-03,23.922303,120.320025,1.0654565e-09
C0E850,大河,2014-04-03,24.618069,120.948578,4.770691e-10
C1U670,寒溪,2014-04-03,24.634,121.71691,0.13035284
C0N020,城西,2014-04-03,23.0568,120.0956,1.17902506e-08
C1Z110,三棧,2014-04-03,24.11557,121.60501,3.6062495e-09
C0R280,檳榔,2014-04-03,22.076078,120.836777,0.99860203
C2H9J0,中台,2014-04-03,23.9996,120.938739,3.7890663e-10
C0F9L0,后里,2014-04-03,24.310436,120.729725,4.6329166e-10
C0D540,橫山,2014-04-03,24.71116,121.11693,2.9855873e-10
C1D420,太閣南,2014-04-03,24.632808,121.160575,5.7975397e-10
C1E770,公館,2014-04-03,24.526914,120.830806,1.0499049e-09
CAN130,水試所海水繁養殖中心,2014-04-03,23.120802,120.07968,1.43265755e-08
C1I430,翠華,2014-04-03,24.191961,121.224339,2.6857705e-09
C1M400,菜瓜坪,2014-04-03,23.251928,120.576103,5.835938e-10
C0G730,二林,2014-04-03,23.903325,120.376081,1.1919945e-09
72M360,南改義竹分場,2014-04-03,23.360694,120.279361,1.3356785e-09
V2K620,麥寮合作社,2014-04-03,23.753836,120.294783,9.169108e-10
C0Z070,舞鶴,2014-04-03,23.46811,121.37407,3.667509e-08
C0B040,大武崙,2014-04-03,25.166676,121.706993,1.3363413e-05
C1Z030,紅葉,2014-04-03,23.493119,121.338806,4.4943228e-08
C1I050,丹大,2014-04-03,23.753747,121.141147,5.5495226e-09
C0I080,信義,2014-04-03,23.689694,120.851036,4.3510104e-10
C2M920,朴子農改,2014-04-03,23.469889,120.259383,9.117435e-10
C2A880,福隆,2014-04-03,25.017842,121.942083,0.012317998
C0Z160,鳳林,2014-04-03,23.746114,121.453411,8.668439e-08
C0V210,復興,2014-04-03,23.222403,120.806089,1.2519425e-09
C0H990,昆陽,2014-04-03,24.121322,121.273642,6.819783e-09
C0R741,獅子,2014-04-03,22.202308,120.705236,0.8249459
C0S710,鹿野,2014-04-03,22.917711,121.122994,3.678569e-09
C0I530,小奇萊,2014-04-03,24.131764,121.295717,7.866519e-09
C2K630,荷苞,2014-04-03,23.657717,120.595144,5.741341e-10
C0Z080,富源,2014-04-03,23.587642,121.378225,2.963933e-08
467441,高雄,2014-04-03,22.7304,120.3125,2.3896757e-07
C0SB10,美和,2014-04-03,22.682078,121.060236,2.8479385e-06
C2K620,馬光農場,2014-04-03,23.721453,120.378864,8.6658014e-10
C1I140,卡奈托灣,2014-04-03,23.754364,121.087872,1.1078551e-09
C0I520,玉山風口,2014-04-03,23.470489,120.955994,1.6969219e-08
C1G691,下水埔,2014-04-03,23.816114,120.5676,6.712525e-10
C0X110,臺南市南區,2014-04-03,22.961189,120.188378,5.422478e-09
C0V680,仁武,2014-04-03,22.701083,120.347722,2.2494207e-07
C2G840,北斗,2014-04-03,23.877586,120.514222,7.782374e-10
C0R900,竹坑,2014-04-03,22.1385,120.7022,0.9671516
C0K250,崙背,2014-04-03,23.75555,120.318925,9.0077257e-10
C0G860,社頭,2014-04-03,23.897647,120.5862,5.9466615e-10
C0X150,安定,2014-04-03,23.102614,120.227839,4.403695e-09
C0R590,里港,2014-04-03,22.77919,120.49459,5.536223e-09
C0E610,馬都安,2014-04-03,24.451272,120.930192,3.9770015e-10
C0E550,明德,2014-04-03,24.583486,120.885411,4.8843835e-10
C0R150,三地門,2014-04-03,22.709889,120.639944,8.856521e-08
C0G910,花壇,2014-04-03,24.032076,120.549461,9.046483e-10
C1D400,鳥嘴山,2014-04-03,24.71909,121.28387,9.671919e-10
C0K500,元長,2014-04-03,23.64981,120.315024,7.4914197e-10
C0F0B0,石岡,2014-04-03,24.276061,120.777644,4.1017192e-10
C2V250,甲仙,2014-04-03,23.080106,120.591758,6.2186895e-10
C0SA20,金崙山,2014-04-03,22.567419,120.959667,2.7545008e-09
C0V350,溪埔,2014-04-03,22.738578,120.446797,3.4213055e-08
C0M660,溪口,2014-04-03,23.604131,120.403569,5.8855587e-10
C1S880,壽卡,2014-04-03,22.238911,120.858903,0.00040070026
72D680,桃改新埔分場,2014-04-03,24.834444,121.066111,8.21622e-10
