站號,站名,日期,lat,lon,BLBTSLS
C0R710,龍磐,2014-12-08,21.931672,120.838942,0.98842806
C1F9D1,白毛台,2014-12-08,24.158325,120.886933,2.0139141e-09
C0G940,竹塘,2014-12-08,23.848253,120.386764,1.5721158e-09
467590,恆春,2014-12-08,22.003897,120.746339,0.9909859
C1O850,環湖,2014-12-08,23.148617,120.418633,1.6744417e-08
C0U710,太平山,2014-12-08,24.505486,121.525656,1.9590924e-08
C0E820,獅潭,2014-12-08,24.539133,120.920042,5.0682454e-09
C0V880,興達,2014-12-08,22.8778,120.2127,1.757158e-06
C0S890,關山,2014-12-08,23.0395,121.175017,5.2052386e-08
C0SB30,新蘭,2014-12-08,22.869214,121.223228,0.00037584951
C2R970,屏科大,2014-12-08,22.648275,120.619247,3.877969e-09
K2F750,種苗繁殖,2014-12-08,24.225972,120.800917,1.6322679e-09
C1Z130,銅門,2014-12-08,23.965694,121.492842,5.2897715e-08
C0AD40,土城,2014-12-08,24.973208,121.445169,3.3451192e-07
CAN140,六官養殖協會,2014-12-08,23.22881,120.29962,2.896914e-08
C0X180,山上,2014-12-08,23.0757,120.363253,7.8133295e-09
C0F9Z0,雪山東峰,2014-12-08,24.388792,121.268675,1.9893479e-08
C1M480,獨立山,2014-12-08,23.537022,120.607797,3.980593e-09
C0X220,學甲,2014-12-08,23.230367,120.182187,1.914174e-06
467650,日月潭,2014-12-08,23.881325,120.90805,3.8940384e-09
C0K600,箔子寮,2014-12-08,23.6197,120.14,1.0316289e-06
C0G830,埤頭,2014-12-08,23.866003,120.452806,1.36982e-09
C0S950,七塊厝,2014-12-08,22.954453,121.229922,1.27343505e-08
467110,金門,2014-12-08,24.407306,118.289281,9.293971e-08
C0AH80,深坑,2014-12-08,25.002703,121.628328,1.3193622e-07
467990,馬祖,2014-12-08,26.169269,119.923419,2.4206331e-08
C0A970,三貂角,2014-12-08,25.007606,122.002058,1.5801732e-05
C2D730,寶山農場,2014-12-08,24.732444,120.976153,4.3779073e-07
C0K430,褒忠,2014-12-08,23.690938,120.303634,5.090526e-07
467480,嘉義,2014-12-08,23.495925,120.432906,4.579671e-08
C2E540,後龍,2014-12-08,24.606489,120.783933,3.6253503e-05
C0V400,阿公店,2014-12-08,22.804194,120.355528,8.983607e-09
C0R440,大漢山,2014-12-08,22.405264,120.753181,1.3183919e-08
C0K280,四湖,2014-12-08,23.630414,120.227125,1.8319957e-05
C1F9B1,桐林,2014-12-08,24.066172,120.735194,9.2422736e-10
C2H9U0,鳳鵬,2014-12-08,23.763919,120.788061,1.2702324e-09
C0K390,土庫,2014-12-08,23.679029,120.395574,1.2896009e-09
C1I450,望鄉山,2014-12-08,23.594153,120.944286,1.7826652e-08
C0E910,海埔,2014-12-08,24.648767,120.772435,1.5269224e-07
B2E890,畜試北區分所,2014-12-08,24.527806,120.770972,7.874621e-05
C0R750,四林格山,2014-12-08,22.076989,120.802439,0.99413306
C0F0C0,中坑,2014-12-08,24.248517,120.903319,3.0011238e-09
C1I121,大鞍,2014-12-08,23.678381,120.760017,5.408781e-09
72U480,花改蘭陽分場,2014-12-08,24.686306,121.716583,0.16698422
C0A770,科教館,2014-12-08,25.096356,121.516507,3.6772948e-07
C0AJ60,六塊厝,2014-12-08,25.24,121.4481,0.000195527
C0R620,墾雷,2014-12-08,21.900836,120.855269,0.9907057
467420,永康,2014-12-08,23.038386,120.2367,8.6270103e-07
467300,東吉島,2014-12-08,23.25695,119.667467,0.7630777
C0I410,名間,2014-12-08,23.837053,120.701447,1.2526448e-09
A2C560,農工中心,2014-12-08,24.985917,121.239833,8.4311964e-08
C0V740,旗山,2014-12-08,22.888614,120.483597,1.3745002e-08
C0Z061,玉里,2014-12-08,23.3215,121.339656,8.4315175e-08
C0S840,南田,2014-12-08,22.279725,120.889208,0.84829
C1I470,杉林溪,2014-12-08,23.639517,120.786444,7.1218555e-09
C1X040,東原,2014-12-08,23.291597,120.463822,2.4636524e-09
C0R660,枋寮,2014-12-08,22.367722,120.590647,0.9681501
C1R120,上德文,2014-12-08,22.763272,120.704442,1.6560643e-08
C0K450,大埤,2014-12-08,23.646074,120.431537,1.3169938e-09
C0UA00,土場,2014-12-08,24.576533,121.495333,1.3895994e-08
467080,宜蘭,2014-12-08,24.763975,121.756528,7.278167e-07
C0N030,四草,2014-12-08,23.0235,120.1116,1.03788725e-05
C0V650,彌陀,2014-12-08,22.783806,120.246361,2.4866856e-07
C0D660,新竹市東區,2014-12-08,24.798681,120.986942,8.554423e-07
82S580,茶改東部分場,2014-12-08,22.907694,121.130139,1.8492184e-08
C0SB40,興隆,2014-12-08,22.913661,121.257469,3.022674e-08
C0C710,大溪永福,2014-12-08,24.892936,121.324975,7.593611e-08
C0FA20,溫寮,2014-12-08,24.372177,120.583125,9.243542e-05
C0V640,湖內,2014-12-08,22.887139,120.2445,1.2278534e-06
C0R910,下寮,2014-12-08,22.3929,120.5548,0.71294403
C0Z020,明里,2014-12-08,23.208717,121.262342,3.220057e-08
C0M770,嘉義梅山,2014-12-08,23.585398,120.555587,1.4328974e-09
G2F820,農業試驗所,2014-12-08,24.031261,120.688133,1.214582e-07
C0C660,楊梅,2014-12-08,24.912375,121.143047,5.2783626e-08
C1E511,新開,2014-12-08,24.347703,120.827019,1.837285e-09
G2F820,農試所(霧峰),2014-12-08,24.031261,120.688133,1.214582e-07
C1I070,和社,2014-12-08,23.591131,120.888861,2.0175666e-09
C2F000,大肚,2014-12-08,24.15295,120.572117,2.292499e-09
C1S850,豐南,2014-12-08,23.122139,121.262389,1.5045542e-08
C2A920,富貴角,2014-12-08,25.263783,121.565258,0.00021135995
CAH030,茶改場竹圍站,2014-12-08,23.860083,120.637528,1.434229e-09
C0T960,光復,2014-12-08,23.660694,121.424964,1.8829041e-07
C0F9M0,豐原,2014-12-08,24.254322,120.720692,5.056012e-09
C0R720,旭海,2014-12-08,22.205403,120.887614,0.9998295
C0V710,苓雅,2014-12-08,22.622742,120.330669,3.3291906e-07
C0C740,觀音工業區,2014-12-08,25.064764,121.114856,2.837081e-05
CAC040,拉拉山,2014-12-08,24.699317,121.427133,7.1956974e-09
C0V790,萬山,2014-12-08,22.905944,120.688056,1.8147132e-09
U2HA30,臺大和社,2014-12-08,23.590856,120.888864,2.0175666e-09
C0AJ90,澳底,2014-12-08,25.0552,121.9253,3.0432788e-05
C0Z100,東華,2014-12-08,23.89525,121.549833,1.5446959e-07
C0G970,三豐,2014-12-08,23.882,120.2895,0.00011112848
V2K610,大庄合作社,2014-12-08,23.8068,120.367939,3.6871097e-07
C0V900,汕尾,2014-12-08,22.4782,120.4151,1.7866128e-07
C1R630,龍泉,2014-12-08,22.66701,120.59091,8.8788863e-07
C1AC50,關渡,2014-12-08,25.133486,121.469331,3.5847177e-05
C0F9I0,神岡,2014-12-08,24.272481,120.658314,5.7890337e-09
C0K460,斗南,2014-12-08,23.678734,120.478359,1.4978161e-09
467410,臺南,2014-12-08,22.993239,120.204772,6.2740173e-07
C2O810,曾文,2014-12-08,23.219681,120.497328,7.769608e-09
467280,後龍,2014-12-08,24.648563,120.831834,6.3318964e-08
C1F9J1,清水林,2014-12-08,24.071242,120.820419,1.9003745e-09
C2A650,火燒寮,2014-12-08,25.002719,121.742892,2.3275744e-07
466930,竹子湖,2014-12-08,25.162078,121.544547,9.968386e-09
C1I220,樟湖,2014-12-08,23.905333,120.846983,3.4755658e-09
C0I390,仁愛,2014-12-08,24.022122,121.132206,3.3654999e-09
C0Z300,東里,2014-12-08,23.26853,121.30547,7.576742e-08
C1V590,新發,2014-12-08,23.057019,120.646064,1.2902313e-08
C0K510,水林,2014-12-08,23.572924,120.24597,9.248001e-07
72S590,東改賓朗果園,2014-12-08,22.813889,121.071278,2.4422234e-05
82A750,茶改北部分場,2014-12-08,24.955778,121.631222,3.9964014e-09
C1A750,石碇服務區,2014-12-08,25.00872,121.646242,1.1413696e-07
C0X300,鹿寮,2014-12-08,23.386047,120.477331,1.2643057e-09
G2AI50,關渡,2014-12-08,25.11575,121.492,4.3899817e-07
C0K590,雲林東勢,2014-12-08,23.674192,120.255721,5.090526e-07
C0A570,桶後,2014-12-08,24.848222,121.597992,3.986689e-08
C1S800,華源,2014-12-08,22.657883,121.02325,0.067624055
C0G720,溪州,2014-12-08,23.851589,120.499093,1.3160171e-09
C1V160,達卡努瓦,2014-12-08,23.279811,120.705319,1.0648678e-08
C2M410,馬頭山,2014-12-08,23.324361,120.582017,2.0631281e-09
C0V850,蚵仔寮,2014-12-08,22.7256,120.2527,3.8567165e-07
C0S740,池上,2014-12-08,23.119628,121.209469,1.574073e-08
C1V390,尖山,2014-12-08,22.813153,120.367789,6.6067463e-09
C0AH70,松山,2014-12-08,25.04871,121.55042,2.1184076e-07
C0N010,鯤鯓國小,2014-12-08,23.1879,120.0889,2.048607e-05
C0R550,新埤,2014-12-08,22.467947,120.582894,3.3554657e-05
C0SA60,知本（水試所）,2014-12-08,22.702394,121.082761,0.9992058
C0T9I0,豐濱,2014-12-08,23.583897,121.514806,2.0234084e-07
C0UB00,淡江大學蘭陽校園,2014-12-08,24.823239,121.730383,1.5662295e-08
C0W240,九宮,2014-12-08,24.423753,118.240186,8.654924e-08
C0T9N0,富里,2014-12-08,23.171639,121.249378,2.7462765e-08
U2HA50,臺大竹山,2014-12-08,23.756972,120.681556,8.8072893e-10
C0V840,鳳鼻頭,2014-12-08,22.5083,120.3591,4.6320508e-07
C0X140,西港,2014-12-08,23.125608,120.203108,8.311544e-06
72D080,桃改五峰分場,2014-12-08,24.612194,121.157167,2.8330676e-09
C2H9P0,伊拿谷,2014-12-08,23.963211,121.088264,2.0983415e-09
C2H9F0,柑林,2014-12-08,24.018658,120.847072,1.0973421e-09
C0TA20,加灣,2014-12-08,24.082025,121.608944,8.7899785e-08
C0V530,阿蓮,2014-12-08,22.883208,120.327508,8.106238e-08
C1O880,關山,2014-12-08,23.173397,120.594092,2.3892934e-09
C0E791,卓蘭,2014-12-08,24.3126,120.8244,1.8288868e-09
C1I030,武界,2014-12-08,23.913225,121.052483,2.9224079e-09
C0R520,崁頂,2014-12-08,22.514781,120.506914,0.5408606
C0R341,牡丹,2014-12-08,22.130036,120.792639,0.99981
C0R930,萬丹,2014-12-08,22.5885,120.4851,5.5109875e-05
C0S760,紅石,2014-12-08,23.069131,121.126219,1.1999905e-08
C1M610,石磐龍,2014-12-08,23.496606,120.663506,5.550941e-09
C0UA10,鴛鴦湖,2014-12-08,24.590269,121.412228,7.609513e-09
V2C260,八德蔬果,2014-12-08,24.978508,121.281819,1.7381153e-07
C0R800,丹路,2014-12-08,22.204481,120.750989,0.9998187
C0G920,永靖,2014-12-08,23.924703,120.547533,1.7292855e-08
C2M950,太和,2014-12-08,23.538372,120.702961,6.3621344e-09
C1A630,下盆,2014-12-08,24.771003,121.538622,1.3469923e-08
B2N890,畜產試驗所,2014-12-08,23.058972,120.336406,1.818144e-08
C0UA30,白嶺,2014-12-08,24.527819,121.519031,1.0375074e-08
C1V580,溪南(特生中心),2014-12-08,23.084972,120.788475,9.769056e-09
C1T970,大農,2014-12-08,23.615233,121.413331,1.3480621e-07
E2S960,林試太麻里2,2014-12-08,22.598014,120.989761,0.9977602
C0R650,竹田,2014-12-08,22.58486,120.54344,5.5232093e-05
C1H900,清流,2014-12-08,24.080775,120.962997,2.1919284e-09
C1C510,水尾,2014-12-08,24.940081,121.087161,1.4378719e-07
C0F9X0,大雅(中科園區),2014-12-08,24.21528,120.62445,9.148747e-08
C0SB60,白守蓮,2014-12-08,23.126769,121.401914,1.2905152e-06
C0O970,虎頭埤,2014-12-08,23.021375,120.347878,4.3989292e-08
C0C730,中大臨海站,2014-12-08,24.966126,121.008581,2.6944237e-05
C0X250,新營,2014-12-08,23.310689,120.316681,1.77601e-08
C0V700,三民,2014-12-08,22.645017,120.311233,3.3291906e-07
C0U870,大礁溪,2014-12-08,24.791042,121.675047,6.42289e-09
C0E870,高鐵苗栗,2014-12-08,24.60725,120.826094,2.6058897e-05
A2K570,古坑花卉中心,2014-12-08,23.63353,120.55239,1.8706194e-09
C0M860,新美,2014-12-08,23.338017,120.683169,4.1328354e-09
C1E701,八卦,2014-12-08,24.491756,120.927619,5.691006e-09
C0I420,國姓,2014-12-08,24.037803,120.855072,1.1292489e-09
C2D720,關西工作站,2014-12-08,24.757275,121.184792,1.8344917e-08
C0S960,香蘭,2014-12-08,22.587569,120.993375,0.9977602
C0R260,春日,2014-12-08,22.370361,120.628306,0.99880385
72G600,臺中農改場,2014-12-08,24.003028,120.534389,4.894796e-08
C0Z210,瑞穗,2014-12-08,23.5239,121.39021,2.4131106e-07
C0M820,達邦,2014-12-08,23.453994,120.749517,3.1708585e-09
C0V860,南寮,2014-12-08,22.7616,120.2339,3.3344938e-07
C0G740,大城,2014-12-08,23.852487,120.320935,7.911269e-05
C0R920,塭仔,2014-12-08,22.4169,120.5197,0.84171367
C0R470,高樹,2014-12-08,22.826389,120.600806,6.422317e-08
C0R680,佳樂水,2014-12-08,21.993578,120.861633,0.9911536
C1O870,大棟山,2014-12-08,23.31157,120.52226,5.6830873e-09
C0D360,梅花,2014-12-08,24.678347,121.208558,3.196557e-09
C0Z190,富世,2014-12-08,24.14743,121.6297,6.4792225e-08
C0AI10,屈尺,2014-12-08,24.92184,121.54475,1.3193622e-07
B2U990,畜試東區分所,2014-12-08,24.669039,121.832561,0.7207883
C0SB80,長濱漁港,2014-12-08,23.313644,121.459994,2.0473887e-07
C0R240,來義,2014-12-08,22.527306,120.625111,0.99883527
C0V910,大樹,2014-12-08,22.684645,120.432803,2.532161e-08
C1R610,西大武山,2014-12-08,22.617719,120.7322,1.4008962e-08
C0G900,線西,2014-12-08,24.143358,120.443536,1.7275901e-05
C0M700,竹崎,2014-12-08,23.526178,120.555508,1.8123576e-09
C2E880,三義,2014-12-08,24.405478,120.749819,2.0821709e-09
C0C720,竹圍,2014-12-08,25.112692,121.239824,0.00011208577
C0F9P0,清水,2014-12-08,24.312297,120.562242,6.997382e-06
C0Z150,吉安光華,2014-12-08,23.930925,121.595153,1.7919876e-07
C1D640,外坪(五指山),2014-12-08,24.644447,121.090961,3.2597527e-09
C0F9O0,潭子,2014-12-08,24.213106,120.703933,3.999261e-09
C2H9R0,卓社,2014-12-08,23.887894,121.000086,3.8319414e-09
72T250,花蓮農改場,2014-12-08,23.975222,121.563889,8.290783e-08
C0E780,銅鑼,2014-12-08,24.489681,120.790853,9.067425e-09
C1T950,太安,2014-12-08,23.666719,121.370128,1.2648224e-08
C0E830,苑裡,2014-12-08,24.439714,120.653053,3.520643e-05
467270,田中,2014-12-08,23.873803,120.581286,1.0709781e-09
C0SA10,檳榔四格山,2014-12-08,22.810031,121.109308,4.5856204e-06
C1T830,布洛灣,2014-12-08,24.17184,121.57127,1.0040155e-07
C0F970,大坑,2014-12-08,24.173142,120.722289,5.3079738e-08
C1U920,思源,2014-12-08,24.393125,121.347214,1.388574e-08
C0A931,三和,2014-12-08,25.233153,121.595236,1.4688513e-07
C0I010,廬山,2014-12-08,24.033311,121.181808,7.139945e-09
C2M940,日野賀,2014-12-08,23.434056,120.727169,5.8622804e-09
C0R860,鼻頭,2014-12-08,22.1043,120.8979,0.9895695
C0UB20,壯圍,2014-12-08,24.7359,121.8163,0.7207883
C0R790,九棚,2014-12-08,22.14195,120.889281,0.9995958
C0W110,東莒,2014-12-08,25.9652,119.98069,0.9946758
C1U930,粉鳥林,2014-12-08,24.497088,121.842479,2.2026946e-07
C1I211,蘆竹湳,2014-12-08,23.934019,120.811994,1.6180186e-09
C0S830,長濱,2014-12-08,23.286817,121.411975,2.8973837e-08
C1F9F1,伯公龍,2014-12-08,24.272392,120.849047,2.0693196e-09
C0E810,西湖,2014-12-08,24.562947,120.7485,1.49459065e-05
C1I440,新高口,2014-12-08,23.478744,120.878939,1.2703226e-08
C0O840,王爺宮,2014-12-08,23.222064,120.40085,7.769608e-09
C0T9G0,鳳林山,2014-12-08,23.735269,121.420131,4.390371e-08
C0X080,佳里,2014-12-08,23.173039,120.145086,2.9716823e-06
C0FB70,大甲溪埔,2014-12-08,24.370625,120.620067,2.7538475e-05
C0Z310,清水斷崖,2014-12-08,24.218294,121.689142,6.743869e-07
C0M680,太保,2014-12-08,23.455062,120.331455,2.329468e-08
C1S820,金峰,2014-12-08,22.590969,120.933236,0.73399234
C0AD10,八里,2014-12-08,25.150211,121.403947,0.00011208577
C2K240,草嶺,2014-12-08,23.59555,120.693461,4.3227315e-09
C1SA70,都蘭,2014-12-08,22.87794,121.226881,3.0226797e-08
C0K440,二崙,2014-12-08,23.772797,120.408944,1.52402e-09
C1A760,坪林交控,2014-12-08,24.94284,121.713442,2.679872e-08
C0F9N0,大里,2014-12-08,24.092464,120.701378,2.1509716e-07
C0SA90,達仁林場,2014-12-08,22.264347,120.823972,0.9998557
C1R290,石門山,2014-12-08,22.112611,120.756597,0.9816597
42HA10,萬大發電廠,2014-12-08,23.978875,121.139639,5.0000444e-09
C0R890,山海,2014-12-08,21.9878,120.7091,0.9914898
C0T9A0,月眉山,2014-12-08,23.809928,121.539828,4.318687e-08
C0AC70,信義,2014-12-08,25.037822,121.564597,2.1184076e-07
C0K560,棋山,2014-12-08,23.68645,120.603417,1.5266035e-09
C2FB50,出雲,2014-12-08,24.206469,120.902794,3.18251e-09
C1Z240,中平林道,2014-12-08,23.42115,121.26763,1.487417e-08
U2H480,溪頭,2014-12-08,23.670306,120.798194,3.3730958e-09
C0M880,好美里,2014-12-08,23.3364,120.138,2.9716823e-06
C0T9E0,大坑,2014-12-08,23.880628,121.581981,5.0665562e-08
C0K530,臺西,2014-12-08,23.701547,120.197559,1.714177e-05
C1E900,國一N128K,2014-12-08,24.560997,120.844186,7.3631413e-06
C0AJ50,水湳洞,2014-12-08,25.123695,121.862238,0.51978797
C0AI20,白沙灣,2014-12-08,25.283128,121.519058,0.004710125
C0A860,大坪,2014-12-08,25.165914,121.632969,2.5887507e-08
C1U850,觀音海岸,2014-12-08,24.38319,121.77856,2.456779e-08
C2K610,草嶺石壁,2014-12-08,23.602469,120.707731,5.6747256e-09
C0U950,鶯子嶺,2014-12-08,24.89754,121.79244,1.1236525e-08
C0O900,善化,2014-12-08,23.112883,120.297219,2.1655746e-08
C0K550,蔦松,2014-12-08,23.514319,120.229736,3.7561398e-07
E2P980,林試六龜中心,2014-12-08,22.991703,120.645722,2.4839886e-09
C0E590,通霄,2014-12-08,24.471892,120.704622,0.00025695082
C1I310,西巒,2014-12-08,23.754486,120.883956,3.475685e-09
C0A550,泰平,2014-12-08,24.971197,121.823711,4.941907e-08
C0I360,水里,2014-12-08,23.812553,120.849792,1.4977104e-09
C0R830,高士,2014-12-08,22.121825,120.836781,0.9624576
C1I101,溪頭,2014-12-08,23.661789,120.807647,6.7141928e-09
C0AJ20,野柳,2014-12-08,25.20703,121.690021,0.52101034
C0B060,暖暖,2014-12-08,25.0957,121.7403,0.058647048
C1H920,長豐,2014-12-08,24.102039,120.879897,1.8665707e-09
C0V360,內門,2014-12-08,22.975481,120.466769,8.439704e-09
C0R850,林邊,2014-12-08,22.4634,120.5339,0.5408606
C0E930,龍鳳,2014-12-08,24.700034,120.859125,9.71836e-08
C0U910,冬山,2014-12-08,24.63373,121.7937,0.7207883
C1E721,泰安,2014-12-08,24.489017,120.968036,3.835247e-09
82H320,茶改中部分場,2014-12-08,23.875611,120.913583,2.0275195e-09
C0M750,布袋,2014-12-08,23.380878,120.167789,3.529496e-07
C1S860,利嘉,2014-12-08,22.809417,121.050528,5.848412e-07
72C440,桃園農改,2014-12-08,24.950944,121.030583,4.1693597e-06
E2S980,林試太麻里1,2014-12-08,22.598922,120.980044,0.995286
C0X170,關廟,2014-12-08,22.963017,120.327797,2.3899826e-08
C0V720,林園,2014-12-08,22.507747,120.394511,3.3291937e-07
C1I510,線浸林道,2014-12-08,23.761508,120.832956,3.0858185e-09
C0D690,外湖,2014-12-08,24.917735,120.968711,2.8538157e-05
C0C750,新興坑尾,2014-12-08,25.0061,121.0971,2.9550959e-06
B2Q810,畜試南區分所,2014-12-08,21.945583,120.802167,0.99112964
C0S790,金崙,2014-12-08,22.538122,120.966875,0.18701997
C0AH90,福山植物園,2014-12-08,24.760717,121.58135,1.0579724e-08
C0I540,奇萊稜線,2014-12-08,24.109231,121.326456,2.3247543e-08
C0M850,表湖,2014-12-08,23.24186,120.64166,3.4084853e-09
C0S770,大溪山,2014-12-08,22.478475,120.943325,1.3830525e-05
C0AG80,中和,2014-12-08,24.991622,121.491792,2.1098892e-07
C0T790,大禹嶺,2014-12-08,24.186117,121.316086,1.6361088e-08
C0T9B0,水源,2014-12-08,23.991861,121.537169,3.8065203e-08
C0R840,牡丹池山,2014-12-08,22.168389,120.841225,0.9997952
C1I131,桶頭,2014-12-08,23.641944,120.654117,1.6090629e-09
CAL110,布袋國中,2014-12-08,23.35893,120.18026,8.1220705e-08
467571,新竹,2014-12-08,24.827853,121.014219,1.2406281e-06
C0Z290,赤柯山,2014-12-08,23.36893,121.38293,2.2047347e-08
C0X280,將軍,2014-12-08,23.214999,120.13577,2.9716823e-06
C0S690,太麻里,2014-12-08,22.60902,120.98533,8.076003e-07
C0U880,北關,2014-12-08,24.9072,121.8734,0.021934466
C1H860,瑞岩,2014-12-08,24.123772,121.18345,6.607767e-09
C0G810,埔心,2014-12-08,23.947633,120.525456,1.9323318e-08
C0U970,大福,2014-12-08,24.80064,121.81389,8.493634e-07
C2H9N0,仁愛東眼,2014-12-08,24.026875,121.1205,4.4305035e-09
C1E670,南礦,2014-12-08,24.538278,121.002836,3.3937724e-09
C0M520,東後寮,2014-12-08,23.369908,120.248065,7.677804e-08
C1E461,松安,2014-12-08,24.397972,120.986022,3.6466228e-09
72G600,臺中農改,2014-12-08,24.003028,120.534389,4.894796e-08
C2N160,西拉雅風管處,2014-12-08,23.189481,120.335297,2.3968715e-08
C2M970,碧湖,2014-12-08,23.568632,120.624165,4.0347117e-09
C0A640,石碇,2014-12-08,24.993969,121.662917,3.847793e-07
E2S960,林試太麻里2,2014-12-08,22.598,120.99775,0.9978586
C0F9Y0,桃山,2014-12-08,24.432739,121.303808,2.1428203e-08
C1I020,萬大,2014-12-08,23.979817,121.132261,3.390059e-09
C0U940,羅東,2014-12-08,24.68184,121.74934,0.48724017
C0M650,朴子,2014-12-08,23.43463,120.23902,3.251248e-07
C1I500,大尖山,2014-12-08,23.858572,120.994889,1.31596e-08
C0G820,田尾,2014-12-08,23.901669,120.509389,1.7292855e-08
E2K600,四湖植物園,2014-12-08,23.676986,120.163433,1.714177e-05
C0S730,綠島,2014-12-08,22.6672,121.47533,1.6289991e-07
12Q970,東港工作站,2014-12-08,22.479997,120.466058,0.71294403
C0E430,南庄,2014-12-08,24.601775,121.000214,4.735536e-09
C1TA00,太魯閣,2014-12-08,24.15773,121.6236,7.052647e-07
466920,臺北,2014-12-08,25.037658,121.514853,2.1184076e-07
C0R600,舊泰武,2014-12-08,22.588194,120.664944,1.7488347e-07
C1I260,北坑,2014-12-08,23.9246,121.006903,1.6080319e-09
466910,鞍部,2014-12-08,25.182586,121.529731,8.421019e-09
C1I230,九份二山,2014-12-08,23.961944,120.845,1.9806503e-09
C2A660,瑞芳,2014-12-08,25.113169,121.801147,2.301911e-06
C0R270,琉球嶼,2014-12-08,22.332244,120.362236,0.99880385
C1T990,高寮,2014-12-08,23.394239,121.356808,3.5874302e-07
C0G620,芬園,2014-12-08,24.015678,120.6213,5.738333e-09
C1Z140,荖溪,2014-12-08,23.890575,121.45964,2.0133237e-08
C1I201,中心崙,2014-12-08,23.728722,120.712097,2.1832414e-09
C1I400,凌霄,2014-12-08,24.018778,121.004456,4.3681254e-09
C1M640,十字,2014-12-08,23.492153,120.753683,5.5939764e-09
G2P820,農試鳳山分所,2014-12-08,22.646611,120.356083,1.9956398e-07
C0Z270,蕃薯寮,2014-12-08,23.73835,121.540108,1.0057942e-07
C0F9Q0,外埔,2014-12-08,24.347817,120.705686,7.0134614e-09
C0K580,高鐵雲林,2014-12-08,23.737456,120.417944,1.2896009e-09
C2I090,鳳凰,2014-12-08,23.728081,120.787347,2.0519828e-09
C0U990,員山,2014-12-08,24.74435,121.72247,0.48724017
C0V770,大社,2014-12-08,22.730306,120.346639,2.255317e-07
C0X120,麻豆,2014-12-08,23.183289,120.248611,1.914174e-06
C0C670,龍潭,2014-12-08,24.870056,121.221389,2.8225609e-09
C0D680,香山濕地,2014-12-08,24.783581,120.914988,1.1952029e-05
C0S980,勝林山,2014-12-08,22.430439,120.8938,1.9371572e-07
C0V730,大寮,2014-12-08,22.605614,120.395717,0.00048148265
C0R570,麟洛,2014-12-08,22.65078,120.52719,1.07770175e-08
C2M930,石卓,2014-12-08,23.478744,120.702264,5.5109695e-09
C0G9B0,和美,2014-12-08,24.105169,120.492131,1.8125147e-07
CAG100,王功漁港,2014-12-08,23.96824,120.32586,1.1277339e-05
C0X290,北門,2014-12-08,23.267772,120.125481,2.9716823e-06
C2F930,大甲,2014-12-08,24.347667,120.640403,7.518316e-07
C0D650,湖口,2014-12-08,24.904794,121.043628,7.67172e-07
C0E420,竹南,2014-12-08,24.708978,120.888897,5.58706e-06
C0U780,五結,2014-12-08,24.68637,121.79794,0.7207883
C1I250,鯉潭,2014-12-08,23.961922,120.991131,1.8665707e-09
C0R130,阿禮,2014-12-08,22.742908,120.743678,5.2550044e-09
C0X100,臺南市北區,2014-12-08,23.010394,120.194228,1.0083949e-06
C0S920,金峰嘉蘭,2014-12-08,22.594789,120.960825,0.99488235
C0V490,新興,2014-12-08,22.627422,120.298803,3.3291906e-07
C0F9K0,大安,2014-12-08,24.345061,120.588025,4.516155e-06
72N100,臺南農改,2014-12-08,23.0605,120.342194,1.818144e-08
467290,古坑,2014-12-08,23.633639,120.551889,1.8706194e-09
C2E970,八甲,2014-12-08,24.535811,120.795983,8.762205e-09
C0V440,鳳山,2014-12-08,22.646653,120.356122,1.9956398e-07
C1T940,大觀,2014-12-08,23.714206,121.373133,5.6323287e-08
72T250,花蓮農改,2014-12-08,23.975222,121.563889,8.290783e-08
C0E740,造橋,2014-12-08,24.637056,120.864778,5.841935e-08
C0R100,尾寮山,2014-12-08,22.833111,120.683889,5.106369e-09
A2K630,臺大雲林校區,2014-12-08,23.730628,120.423903,1.2896009e-09
C0D580,寶山,2014-12-08,24.735006,121.025192,1.2820208e-08
E2P990,林試扇平站,2014-12-08,22.9677,120.6857,1.220416e-08
C0AI30,三重,2014-12-08,25.057328,121.500629,3.6772948e-07
C0AH00,汐止,2014-12-08,25.066881,121.658778,0.52101076
C1Z040,立山,2014-12-08,23.443356,121.327375,7.188896e-08
C0W130,花嶼,2014-12-08,23.40007,119.32276,0.8728502
C0A950,鼻頭角,2014-12-08,25.129036,121.923372,4.0231196e-05
C0K470,林內,2014-12-08,23.748675,120.609642,1.5777692e-09
C2F990,摩天嶺,2014-12-08,24.322458,120.936819,3.0367202e-09
82C160,茶改場,2014-12-08,24.908472,121.185333,1.39512055e-08
C0Z320,清水林道,2014-12-08,23.27125,121.188272,1.71121e-08
C0R760,南仁湖,2014-12-08,22.084681,120.863353,0.98079586
C0M670,大林,2014-12-08,23.600616,120.45841,1.6188753e-07
C0M800,茶山,2014-12-08,23.299075,120.664767,2.8701175e-09
C0A9C0,天母,2014-12-08,25.117494,121.537169,2.8553254e-07
72K220,南改斗南分場,2014-12-08,23.634556,120.477333,1.7291228e-09
72AI40,桃改樹林分場,2014-12-08,24.944503,121.386972,2.6290272e-07
C0S910,蘭嶼燈塔,2014-12-08,22.081197,121.503117,0.49732625
C0B050,八斗子,2014-12-08,25.144754,121.79167,0.70566124
C0U900,內城,2014-12-08,24.71813,121.68766,4.7812586e-07
C0X320,柳營,2014-12-08,23.253328,120.375253,1.6332592e-08
C0M790,新港,2014-12-08,23.553269,120.345728,3.9968228e-08
C0F9T0,西屯,2014-12-08,24.179494,120.641275,2.3488923e-07
C0SA30,都歷,2014-12-08,23.020333,121.323642,2.6633552e-07
C0C620,蘆竹,2014-12-08,25.084275,121.265767,5.410883e-05
C0R730,大坪頂,2014-12-08,22.024633,120.69355,0.98528224
C0AJ40,石門,2014-12-08,25.273672,121.601198,1.5553565e-05
C0E750,苗栗,2014-12-08,24.564569,120.824575,8.934139e-06
C0T870,鯉魚潭,2014-12-08,23.935639,121.508944,9.45177e-08
C1V170,排雲,2014-12-08,23.463619,120.954147,2.6263498e-08
C2H950,中寮,2014-12-08,23.884447,120.766406,8.7035024e-10
C0R350,貓鼻頭,2014-12-08,21.921774,120.7358,0.9907057
C0V660,岡山,2014-12-08,22.797078,120.294958,1.2259797e-07
C1H941,雙冬,2014-12-08,23.967378,120.802189,1.6140701e-09
C0AJ70,田寮,2014-12-08,25.2698,121.4886,0.006287128
C0AI00,五股,2014-12-08,25.07445,121.42728,2.5614902e-06
C0Z280,德武,2014-12-08,23.47426,121.41071,1.5898937e-07
C0R700,枋山,2014-12-08,22.246844,120.661086,0.9996815
C0C460,復興,2014-12-08,24.820208,121.352281,6.989237e-09
E2H360,蓮華池,2014-12-08,23.918333,120.885278,1.9282183e-09
C0M640,中埔,2014-12-08,23.42538,120.5229,2.0500346e-09
C0W140,金沙,2014-12-08,24.488292,118.408778,2.1622031e-07
C2A540,四堵,2014-12-08,24.8926,121.745736,9.788158e-08
C0ACA0,新莊,2014-12-08,25.051478,121.446756,0.003765684
C0R220,潮州,2014-12-08,22.534361,120.54,0.95225257
U2HA40,臺大內茅埔,2014-12-08,23.689722,120.851117,1.530662e-09
467490,臺中,2014-12-08,24.145736,120.684075,5.550457e-08
C0U960,翠峰湖,2014-12-08,24.510856,121.608044,1.933729e-08
E2HA20,林試畢祿溪站,2014-12-08,24.226944,121.308522,9.094792e-09
C0V890,前鎮,2014-12-08,22.5718,120.3117,4.6320508e-07
467620,蘭嶼,2014-12-08,22.036969,121.558339,0.99915296
C1F941,雪嶺,2014-12-08,24.280586,121.026642,1.1946352e-08
C2H9E0,國姓南港,2014-12-08,23.911108,120.846556,3.5974697e-09
C0AC80,文山,2014-12-08,25.00235,121.575728,1.3193622e-07
C0F9R0,龍井,2014-12-08,24.184536,120.528972,9.4061925e-06
C0M760,民雄,2014-12-08,23.551754,120.428457,6.564719e-08
C0UA40,西德山,2014-12-08,24.560647,121.752608,1.7525254e-08
C1T920,中興,2014-12-08,23.769503,121.498653,1.2942593e-07
C0D550,雪霸,2014-12-08,24.526972,121.11605,6.600398e-09
C2F860,梨山,2014-12-08,24.247522,121.243669,9.3454116e-09
C0R320,車城,2014-12-08,22.0744,120.716247,0.9915122
C1S870,南美山,2014-12-08,23.15025,121.382333,4.6873804e-08
C0B020,基隆嶼,2014-12-08,25.19141,121.78391,0.51978797
C1U501,牛鬥,2014-12-08,24.637836,121.573656,5.9024046e-08
C0M730,嘉義市東區,2014-12-08,23.457673,120.460531,9.695661e-08
C0S700,知本,2014-12-08,22.684866,121.005642,1.1617979e-06
C1N001,沙崙,2014-12-08,22.935472,120.309406,8.106238e-08
C0V760,橋頭,2014-12-08,22.757806,120.30575,9.62065e-08
C0G960,福寶,2014-12-08,24.0443,120.3814,3.3889754e-07
C0X210,白河,2014-12-08,23.347466,120.414427,1.5415651e-08
C0S810,東河,2014-12-08,22.972672,121.303986,3.25015e-08
C2R170,屏東,2014-12-08,22.66027,120.49403,1.2217715e-08
C0R670,楓港,2014-12-08,22.190131,120.692156,0.9996815
C0FA50,霧峰,2014-12-08,24.0419,120.6995,7.512705e-08
C0UB10,蘇澳,2014-12-08,24.5969,121.8571,2.6094363e-06
C0G950,防潮門,2014-12-08,24.1835,120.4871,1.2403817e-05
C0M740,六腳,2014-12-08,23.492871,120.290625,2.6087461e-08
C1R250,力里,2014-12-08,22.428117,120.629228,0.99883527
C0K330,虎尾,2014-12-08,23.719183,120.442036,1.2737843e-09
C2FA00,烏石坑,2014-12-08,24.273503,120.947617,3.009418e-09
C0V620,永安,2014-12-08,22.82315,120.236856,2.4866856e-07
C1I330,楓樹林,2014-12-08,23.986803,121.076117,3.7316976e-09
C0W200,湖西,2014-12-08,23.596314,119.67275,0.71585256
72Q010,高雄農改場,2014-12-08,22.709333,120.525889,1.0041434e-08
C0SA40,瑞和,2014-12-08,22.974361,121.156697,6.7939624e-08
C0C680,龜山,2014-12-08,25.02846,121.38656,4.5309094e-09
C2V260,月眉,2014-12-08,22.971003,120.539853,2.4337985e-09
C0V450,鳳森,2014-12-08,22.545064,120.392592,5.647208e-05
C0U720,南山,2014-12-08,24.43742,121.38167,1.47915875e-08
A2N290,臺南蘭花園區,2014-12-08,23.340258,120.379661,1.6332592e-08
C0R560,新園,2014-12-08,22.5434,120.461558,0.5408606
C0U890,三星,2014-12-08,24.66812,121.65302,2.6740395e-07
C1V300,御油山,2014-12-08,23.001983,120.715364,9.648211e-09
C0U600,礁溪,2014-12-08,24.817539,121.765608,6.7793667e-07
C1T980,龍澗,2014-12-08,24.023289,121.411328,1.43286245e-08
C0D670,海天一線,2014-12-08,24.831986,120.914438,1.4676019e-05
C0SA00,歷坵,2014-12-08,22.520969,120.89185,2.9086714e-06
C0M710,東石,2014-12-08,23.458927,120.15385,3.7561398e-07
C0M780,鹿草,2014-12-08,23.41134,120.30835,2.7707632e-08
C0U520,雙連埤,2014-12-08,24.753033,121.641303,6.4372028e-09
C0B010,七堵,2014-12-08,25.094819,121.71713,0.3371997
C0R480,長治,2014-12-08,22.693128,120.542622,1.05469475e-07
C1V830,國三S383K,2014-12-08,22.781967,120.426475,3.4163086e-09
12Q980,恆春工作站,2014-12-08,22.079678,120.714425,0.9915122
C1O940,東山服務區,2014-12-08,23.286016,120.398472,1.4391155e-08
C1U840,東澳嶺,2014-12-08,24.5378,121.8485,2.3650058e-08
C1D630,飛鳳山,2014-12-08,24.766464,121.119178,3.5790044e-09
C0S940,石寧山,2014-12-08,23.223772,121.406639,4.8544543e-08
C0K410,北港,2014-12-08,23.573957,120.292802,4.5968413e-08
C2M620,瑞里,2014-12-08,23.545133,120.675197,5.984109e-09
C0SB70,小港漁港,2014-12-08,23.158558,121.400431,1.0206807e-07
C2O950,安南,2014-12-08,23.076694,120.144861,0.0002833296
C0F0E0,南湖圈谷,2014-12-08,24.363714,121.444667,3.429747e-08
467610,成功,2014-12-08,23.097486,121.373428,7.240278e-07
C0G890,伸港,2014-12-08,24.148933,120.484403,8.572884e-06
C2E540,龍溪,2014-12-08,24.606489,120.783933,3.6253503e-05
C1V200,梅山,2014-12-08,23.268447,120.823556,1.0425321e-08
C0T9H0,加路蘭山,2014-12-08,23.682947,121.5274,3.4759058e-08
C2O930,玉井,2014-12-08,23.126042,120.46055,1.6744417e-08
C1F911,新伯公,2014-12-08,24.221361,120.841069,1.6329716e-09
C0R490,九如,2014-12-08,22.7405,120.490503,1.07770175e-08
C0X200,左鎮,2014-12-08,23.056758,120.408522,8.3959515e-09
C0SB50,叭嗡嗡,2014-12-08,23.047062,121.343223,4.05618e-08
C1F891,稍來,2014-12-08,24.265689,121.001142,8.151477e-09
72N240,七股研究中心,2014-12-08,23.081672,120.062894,0.007279347
C0C700,中壢,2014-12-08,24.977661,121.256375,1.3804333e-07
C0M690,水上,2014-12-08,23.419734,120.388909,5.7080435e-08
C0V690,鼓山,2014-12-08,22.623325,120.275575,3.3291906e-07
C0O860,大內,2014-12-08,23.11885,120.36083,4.6865383e-09
C0Z200,萬榮,2014-12-08,23.709219,121.420106,9.45177e-08
C0T9D0,和中,2014-12-08,24.26676,121.74103,2.6636499e-06
C1O921,楠西,2014-12-08,23.183511,120.484083,1.2618321e-08
C0AJ30,淡水觀海,2014-12-08,25.184591,121.408616,0.000195527
C0V810,左營,2014-12-08,22.67491,120.28491,2.843269e-07
C0UA70,桃源谷,2014-12-08,24.962606,121.888875,2.8147292e-08
C0X130,官田,2014-12-08,23.193217,120.315422,2.7083447e-08
C1H000,翠峰,2014-12-08,24.109397,121.205211,1.20317845e-08
C0UA90,石城,2014-12-08,24.980444,121.951214,0.00020827455
C1E681,南勢山,2014-12-08,24.421669,120.923831,2.96599e-09
C0A9F0,內湖,2014-12-08,25.079422,121.57545,2.1184076e-07
C0K291,宜梧,2014-12-08,23.536281,120.169329,4.850128e-07
C1K540,口湖,2014-12-08,23.585344,120.180517,1.1223373e-06
C0R780,滿州,2014-12-08,22.024403,120.839892,0.99053174
C0V870,文安,2014-12-08,22.8025,120.2164,3.3562202e-07
C0U650,玉蘭,2014-12-08,24.675286,121.587061,2.2099469e-08
C0R640,東港,2014-12-08,22.46247,120.44074,4.6320508e-07
K2E360,苗栗農改,2014-12-08,24.495722,120.829111,1.44420245e-08
C0AJ80,板橋,2014-12-08,25.0107,121.4489,3.3451192e-07
C0S660,下馬,2014-12-08,23.150427,121.070312,1.288881e-08
C1H9B1,阿眉,2014-12-08,24.1263,120.994672,5.6653815e-09
C0UA20,多加屯,2014-12-08,24.368614,121.373189,1.475687e-08
C0E730,頭份,2014-12-08,24.688247,120.912206,4.9625214e-06
72V140,高改旗南分場,2014-12-08,22.857861,120.516667,3.054212e-08
C0K480,莿桐,2014-12-08,23.761192,120.502372,1.384939e-09
C0U980,坪林石牌,2014-12-08,24.86478,121.77396,1.3476065e-08
C0T900,西林,2014-12-08,23.8119,121.441458,8.4691685e-08
C1I150,青雲,2014-12-08,23.793361,120.949378,1.2907525e-09
467350,澎湖,2014-12-08,23.565503,119.563094,0.8505936
C0G800,埔鹽,2014-12-08,24.000394,120.431683,2.922062e-07
C0H960,草屯,2014-12-08,23.973672,120.68085,7.1652073e-10
C1V780,多納林道,2014-12-08,22.888028,120.737917,7.744575e-09
C0E920,通霄漁港,2014-12-08,24.498589,120.673876,0.0010153546
C0Z330,安通山,2014-12-08,23.290728,121.348528,1.9711239e-08
C0AH10,永和,2014-12-08,25.01125,121.508111,2.2218153e-07
C0AK10,太平里,2014-12-08,25.134937,121.364899,0.003765684
C2G640,鹿港,2014-12-08,24.0753,120.430481,2.926019e-07
C1E890,國三N149K,2014-12-08,24.463414,120.680019,0.00014191412
C1R110,口社,2014-12-08,22.770111,120.645222,4.4923002e-08
C1M870,國三N285K,2014-12-08,23.550319,120.505833,1.5190227e-09
467050,新屋,2014-12-08,25.006744,121.047486,1.1953283e-05
C1E480,鳳美,2014-12-08,24.554803,121.034747,1.6770649e-09
C0M530,奮起湖,2014-12-08,23.493903,120.699253,6.399986e-09
C0C590,觀音,2014-12-08,25.027072,121.153317,1.111963e-07
C0T9M0,靜浦,2014-12-08,23.455167,121.495028,3.4350734e-07
C2H9M0,發祥,2014-12-08,24.154094,121.164517,3.4386927e-09
C0AI40,石牌,2014-12-08,25.115597,121.513139,3.3451192e-07
C1F871,上谷關,2014-12-08,24.203483,121.018644,3.009418e-09
C2H9G0,百勝,2014-12-08,24.051142,120.909361,1.6374754e-09
C0G880,二水,2014-12-08,23.810742,120.6173,1.3093097e-09
C0R940,加祿堂,2014-12-08,22.3363,120.6217,0.9985361
C0W220,北竿,2014-12-08,26.220358,119.974881,1.4623583e-08
C0O960,崎頂,2014-12-08,22.959547,120.369317,2.7846e-09
C0S750,向陽,2014-12-08,23.248397,120.986133,1.2714764e-08
C0T9F0,水璉,2014-12-08,23.797131,121.542514,6.50478e-08
C1M600,頭凍,2014-12-08,23.406364,120.603339,4.1646775e-09
467660,臺東,2014-12-08,22.752211,121.154586,0.0033705104
C1D380,新埔,2014-12-08,24.84745,121.03834,3.388662e-07
C2G980,田頭村,2014-12-08,23.8263,120.444175,1.52402e-09
C0V750,路竹,2014-12-08,22.854997,120.259439,3.7595047e-08
C0N050,蚵寮,2014-12-08,23.301,120.1104,2.048607e-05
72M700,南改鹿草分場,2014-12-08,23.416869,120.283061,3.0169257e-08
C1SA50,利嘉林道,2014-12-08,22.82325,121.009389,1.6739437e-08
467550,玉山,2014-12-08,23.487614,120.959522,2.9071597e-08
C0A940,金山,2014-12-08,25.223628,121.643967,0.0018598286
C1V340,大津,2014-12-08,22.888322,120.645986,2.2220088e-09
C0W180,七美,2014-12-08,23.219333,119.444892,0.8671562
C1F9C1,白冷,2014-12-08,24.182844,120.929889,2.0279372e-09
K2E710,苗改生物防治研究中心,2014-12-08,24.422861,120.871833,4.1259907e-09
C0N040,蘆竹溝,2014-12-08,23.2344,120.0961,2.048607e-05
C2W230,畜試所澎湖,2014-12-08,23.628342,119.513206,0.8954633
C0R880,後壁湖,2014-12-08,21.9457,120.7457,0.9923086
C1I280,埔中,2014-12-08,23.820778,120.642594,1.8306842e-09
467790,墾丁雷達站,2014-12-08,21.948235,120.808028,0.9902526
C0W190,望安,2014-12-08,23.380564,119.494075,0.9042157
466881,新北,2014-12-08,24.9593,121.52,1.7528053e-07
C0Z170,卓溪,2014-12-08,23.3443,121.3029,6.8548275e-08
C0F850,東勢,2014-12-08,24.246428,120.833047,1.7032897e-09
466900,淡水,2014-12-08,25.164889,121.448906,0.00011195214
C0I370,魚池,2014-12-08,23.895703,120.94135,1.904097e-09
C0C630,大溪,2014-12-08,24.882853,121.265547,3.256815e-08
C0A520,山佳,2014-12-08,24.974944,121.402008,2.6290272e-07
C0I110,竹山,2014-12-08,23.761225,120.688156,8.787607e-10
82H840,茶改南部分場,2014-12-08,23.762528,120.7405,1.2528933e-09
C0G660,溪湖,2014-12-08,23.94835,120.479122,2.0705642e-08
C1T800,洛韶,2014-12-08,24.204558,121.453956,1.9041561e-08
C1T810,慈恩,2014-12-08,24.192044,121.388386,1.4049019e-08
C1E451,象鼻,2014-12-08,24.368617,120.940228,2.9582554e-09
C0AC60,三峽,2014-12-08,24.939025,121.369728,1.5453088e-07
C0I490,萬大林道,2014-12-08,23.928228,121.091411,9.065246e-09
C1I290,豐丘,2014-12-08,23.668178,120.887417,3.0858185e-09
C1I320,奧萬大,2014-12-08,23.952956,121.178556,3.762975e-09
C2M910,嘉義大學,2014-12-08,23.471325,120.485903,1.9547617e-09
C0U770,南澳,2014-12-08,24.44935,121.81022,1.394068e-06
C0A980,社子,2014-12-08,25.109508,121.469681,4.3899817e-07
C0V800,六龜,2014-12-08,22.997889,120.633583,2.5057687e-09
C1G9D0,國一S218K,2014-12-08,23.890641,120.493253,1.9323318e-08
C0E570,白沙屯,2014-12-08,24.549447,120.696803,0.0010153546
C2F9A0,中竹林,2014-12-08,24.103556,120.751061,1.3346395e-09
C0FA40,臺中電廠,2014-12-08,24.2146,120.4907,9.4061925e-06
C2G9A0,畜試所彰化,2014-12-08,23.86045,120.557964,1.071452e-09
C0H9C0,合歡山,2014-12-08,24.143442,121.272547,2.3654884e-08
C0X060,下營,2014-12-08,23.22695,120.256261,3.3378594e-08
G2M350,農試溪口農場,2014-12-08,23.58565,120.408111,8.106346e-08
C0U860,頭城,2014-12-08,24.85323,121.8308,7.278167e-07
C0R580,南州,2014-12-08,22.48591,120.50274,0.71294403
C0D430,峨眉,2014-12-08,24.6905,121.017189,4.3744436e-07
C0G780,秀水,2014-12-08,24.03405,120.503869,5.9498326e-08
72N100,臺南農改場,2014-12-08,23.0605,120.342194,1.818144e-08
C0S900,蘭嶼高中,2014-12-08,22.04909,121.51214,0.43728825
467540,大武,2014-12-08,22.355675,120.903789,0.12034069
C1F9W0,德基,2014-12-08,24.254783,121.190261,7.082166e-09
C1Z120,壽豐,2014-12-08,23.870853,121.508081,1.5446959e-07
C0W160,烏坵,2014-12-08,24.9944,119.44956,0.99660635
C1I240,外大坪,2014-12-08,23.958697,120.917931,1.8856505e-09
C1I550,國六W023K,2014-12-08,23.979067,120.867742,1.1126473e-09
C0R870,興海,2014-12-08,21.9752,120.8439,0.99112964
C0R140,瑪家,2014-12-08,22.682903,120.686639,1.1684582e-08
C0A530,坪林,2014-12-08,24.938183,121.70975,4.420115e-08
C0X260,後壁,2014-12-08,23.366358,120.362326,6.123799e-09
C0Z230,和平,2014-12-08,24.30717,121.77007,2.2400154e-06
C0G770,福興,2014-12-08,24.041289,120.437669,2.922062e-07
C0H9A0,神木村,2014-12-08,23.532742,120.843667,6.4555725e-09
C0I460,南投,2014-12-08,23.911469,120.687331,9.225507e-10
C0I480,梅峰,2014-12-08,24.085272,121.173572,8.861349e-09
C1V570,吉東,2014-12-08,22.85422,120.5454,2.6731078e-08
C2D740,屯原,2014-12-08,24.067969,121.209389,8.232241e-09
C2A560,福山,2014-12-08,24.776203,121.502811,3.9964014e-09
C0AH30,五分山,2014-12-08,25.07125,121.780794,1.741506e-08
C0FA10,松柏,2014-12-08,24.429115,120.617482,9.243542e-05
72S200,東改班鳩分場,2014-12-08,22.829528,121.077694,0.00010009693
72HA00,中改埔里分場,2014-12-08,23.903208,120.963364,1.8783992e-09
C2H9W0,大坪頂農水,2014-12-08,24.043122,120.932781,1.8700415e-09
C0C650,平鎮,2014-12-08,24.897503,121.214636,1.3929828e-08
C0S930,延平,2014-12-08,22.902581,121.084058,4.092916e-08
C0UA60,樟樹山,2014-12-08,24.41393,121.78325,4.2039854e-08
C1S670,摩天,2014-12-08,23.199503,121.027,1.2831486e-08
C0V630,茄萣,2014-12-08,22.906642,120.182608,1.7633624e-06
466940,基隆,2014-12-08,25.133314,121.740475,0.6034145
C0X050,東河,2014-12-08,23.296598,120.385608,1.6332592e-08
C0R770,保力,2014-12-08,22.071122,120.764111,0.9895879
G2L020,農試嘉義分所,2014-12-08,23.485028,120.473806,1.9236632e-09
C0X240,關子嶺,2014-12-08,23.331169,120.508025,2.6167382e-09
C0I380,集集,2014-12-08,23.828206,120.801467,1.5081217e-09
466990,花蓮,2014-12-08,23.975128,121.613275,8.892931e-08
C1V220,小關山,2014-12-08,23.154217,120.813603,1.0503021e-08
C1F9G1,慶福山,2014-12-08,24.180853,120.848378,2.7405453e-09
C0Z250,瑞穗林道,2014-12-08,23.49284,121.30688,2.0492264e-08
C0D590,新豐,2014-12-08,24.87068,120.97721,2.9090511e-08
C0A870,五指山,2014-12-08,25.132153,121.608692,1.8104652e-08
C0UA50,西帽山,2014-12-08,24.555361,121.802628,2.2360995e-08
C0X160,仁德,2014-12-08,22.968258,120.257689,3.505915e-08
C1H971,六分寮,2014-12-08,23.92507,120.6378,1.4963513e-09
C0W120,西嶼,2014-12-08,23.5626,119.468436,0.8505936
C0G650,員林,2014-12-08,23.946503,120.585597,1.27356135e-08
C0AD50,鶯歌,2014-12-08,24.951533,121.346294,3.0252178e-07
C2H9Q0,北東眼山,2014-12-08,24.120939,121.189303,8.056494e-09
C2H9T0,名間竹圍,2014-12-08,23.859914,120.637572,1.434229e-09
C0S990,山豬窟,2014-12-08,22.318619,120.857372,0.9999734
72Q010,高雄農改,2014-12-08,22.709333,120.525889,1.0041434e-08
C0X190,安平,2014-12-08,22.993161,120.152181,1.0083949e-06
C0K400,斗六,2014-12-08,23.720583,120.541127,1.4550124e-09
12J990,口湖工作站,2014-12-08,23.589978,120.180394,1.031628e-06
C0O830,北寮,2014-12-08,23.079561,120.495008,3.0349947e-09
C1D410,白蘭,2014-12-08,24.579364,121.079947,3.4374141e-09
C0S970,加津林,2014-12-08,22.416211,120.926942,0.14029218
C0D700,關西,2014-12-08,24.7977,121.1732,2.0997318e-08
C0M810,里佳,2014-12-08,23.389125,120.716647,6.399986e-09
C0U750,龜山島,2014-12-08,24.841667,121.953133,5.5835752e-08
C0R810,內獅,2014-12-08,22.305064,120.642986,0.9985361
C1M390,龍美,2014-12-08,23.406728,120.654417,5.849726e-09
C2FB60,頭櫃山,2014-12-08,24.129842,120.858925,3.2536094e-09
C1H840,國三N238K,2014-12-08,23.841008,120.707711,1.5029501e-09
CAQ030,崎峰國小,2014-12-08,22.42565,120.49521,0.71294403
C2E520,大湖,2014-12-08,24.414939,120.870872,1.7582037e-08
467530,阿里山,2014-12-08,23.508208,120.813242,1.2357561e-08
C1E691,南湖,2014-12-08,24.40135,120.837533,2.5330051e-09
C0FA30,梧棲,2014-12-08,24.256003,120.523381,9.4061925e-06
C1V231,高中,2014-12-08,23.134911,120.716711,2.949438e-09
C0F9V0,新社,2014-12-08,24.200172,120.815806,1.6592473e-09
C0H890,埔里,2014-12-08,23.972169,120.952425,2.0043873e-09
C0R690,墾丁,2014-12-08,21.966756,120.810269,0.97835714
C0F0D0,審馬陣,2014-12-08,24.381675,121.4203,2.1729642e-08
C0R820,白鷺,2014-12-08,22.454275,120.666219,0.9985773
U2H480,臺大溪頭,2014-12-08,23.670306,120.798194,3.3730958e-09
C1V190,南天池,2014-12-08,23.27403,120.91176,1.4083763e-08
K2E360,苗栗農改場,2014-12-08,24.495722,120.829111,1.44420245e-08
CAJ050,海口故事園區,2014-12-08,23.57543,120.14121,1.1223373e-06
C2H9D0,三隻寮,2014-12-08,24.093078,120.861578,1.8677673e-09
C0O990,媽廟,2014-12-08,22.99175,120.293525,3.2252508e-08
C0D480,打鐵坑,2014-12-08,24.849664,121.150789,3.0835121e-09
C0Z220,和平林道,2014-12-08,24.343922,121.656317,4.175656e-08
C0TA10,花蓮漁港,2014-12-08,23.995322,121.638331,9.424588e-08
72C440,桃園農改場,2014-12-08,24.950944,121.030583,4.1693597e-06
C1E711,馬拉邦山,2014-12-08,24.367306,120.901656,2.5319329e-09
C0SB20,富岡,2014-12-08,22.792467,121.192669,0.0017871973
C0D560,竹東,2014-12-08,24.767147,121.057881,3.0624076e-08
C0F9U0,南屯,2014-12-08,24.137006,120.637969,2.1509716e-07
C0M720,番路,2014-12-08,23.464657,120.554156,1.9439717e-09
C0F0A0,雪山圈谷,2014-12-08,24.388594,121.236339,2.7054947e-08
C1A9N0,四十份,2014-12-08,24.934158,121.593283,1.2165209e-08
C0U760,東澳,2014-12-08,24.52196,121.83318,1.880781e-07
C0X230,鹽水,2014-12-08,23.272621,120.247641,2.0087462e-07
C2H9H0,苗改南投蜂場,2014-12-08,23.852589,120.693481,8.787607e-10
C0R950,萬隆國小,2014-12-08,22.507667,120.587817,1.694462e-05
C0V370,古亭坑,2014-12-08,22.893178,120.401947,1.6820858e-08
C1I340,新興橋,2014-12-08,23.563333,120.868728,2.2520636e-09
C0SA80,土坂,2014-12-08,22.453108,120.887572,0.9847051
C0R160,鹽埔,2014-12-08,22.739558,120.530778,1.2807419e-07
C0AC40,大屯山,2014-12-08,25.175675,121.522408,8.845526e-09
466850,五分山雷達站,2014-12-08,25.071182,121.781205,1.7251411e-08
C2H9L0,馬烈霸,2014-12-08,24.1512,121.201772,7.951827e-09
C1AI50,國三N016K,2014-12-08,25.034164,121.619664,1.4838233e-07
C1V600,藤枝,2014-12-08,23.071961,120.757042,9.370507e-09
C1E601,南勢,2014-12-08,24.572486,120.734842,4.8450282e-08
C0Z180,新城,2014-12-08,24.03946,121.60454,8.350519e-08
C0O980,新市,2014-12-08,23.061614,120.298197,2.346337e-08
C0K420,西螺,2014-12-08,23.800407,120.467394,1.4153826e-09
C0Z050,佳心,2014-12-08,23.34567,121.21316,1.257728e-08
C0AD30,蘆洲,2014-12-08,25.086594,121.472331,3.6772948e-07
C0V610,梓官,2014-12-08,22.760558,120.267211,1.2259797e-07
K2F750,種苗改良場,2014-12-08,24.225972,120.800917,1.6322679e-09
C0UA80,大溪漁港,2014-12-08,24.941801,121.902955,6.7793667e-07
C1AI60,國一39K邊坡,2014-12-08,25.064361,121.383836,1.8429847e-07
C0W150,金寧,2014-12-08,24.457703,118.328989,1.3789452e-07
C0R960,內埔,2014-12-08,22.608483,120.570714,3.406501e-05
V2C250,八德合作社,2014-12-08,24.93775,121.266389,2.320488e-08
C2H9S0,龍南,2014-12-08,23.953536,120.833183,3.1850667e-09
C0AH40,平等,2014-12-08,25.129142,121.577086,3.6904478e-08
C0R540,佳冬,2014-12-08,22.419456,120.552375,0.71294403
466950,彭佳嶼,2014-12-08,25.627975,122.079744,0.014427206
C0A890,雙溪,2014-12-08,25.036003,121.864242,0.15831566
C0C480,桃園,2014-12-08,24.992425,121.323172,1.8352551e-07
C0AH50,林口,2014-12-08,25.072181,121.38084,6.1837795e-08
A2K360,水試臺西試驗場,2014-12-08,23.717231,120.190522,1.9032403e-05
B2N890,畜試所,2014-12-08,23.058972,120.336406,1.818144e-08
C2M960,外寮,2014-12-08,23.562643,120.665688,4.1791677e-09
C0F9S0,烏日,2014-12-08,24.107058,120.624103,1.8389409e-08
C0C490,八德,2014-12-08,24.928708,121.283289,4.5630696e-08
C0R190,赤山,2014-12-08,22.592333,120.614306,2.7422642e-05
C0T820,天祥,2014-12-08,24.179597,121.495639,3.9835573e-08
C1F9E1,龍安,2014-12-08,24.1605,120.831961,1.6913987e-09
C0V820,小林,2014-12-08,23.148408,120.63325,2.1739417e-09
C2G870,芳苑,2014-12-08,23.922303,120.320025,0.00011112848
C0E850,大河,2014-12-08,24.618069,120.948578,2.2217554e-08
C1U670,寒溪,2014-12-08,24.634,121.71691,0.0012094117
C0N020,城西,2014-12-08,23.0568,120.0956,0.004334269
C1Z110,三棧,2014-12-08,24.11557,121.60501,4.9654716e-08
C0R280,檳榔,2014-12-08,22.076078,120.836777,0.98051983
C2H9J0,中台,2014-12-08,23.9996,120.938739,1.8064181e-09
C0F9L0,后里,2014-12-08,24.310436,120.729725,4.5124446e-09
C0D540,橫山,2014-12-08,24.71116,121.11693,8.362645e-09
C1D420,太閣南,2014-12-08,24.632808,121.160575,3.9250736e-09
C1E770,公館,2014-12-08,24.526914,120.830806,7.874621e-05
CAN130,水試所海水繁養殖中心,2014-12-08,23.120802,120.07968,0.007279347
C1I430,翠華,2014-12-08,24.191961,121.224339,1.2358669e-08
C1M400,菜瓜坪,2014-12-08,23.251928,120.576103,2.9029692e-09
C0G730,二林,2014-12-08,23.903325,120.376081,1.5857884e-07
72M360,南改義竹分場,2014-12-08,23.360694,120.279361,1.3114847e-08
V2K620,麥寮合作社,2014-12-08,23.753836,120.294783,2.022752e-06
C0Z070,舞鶴,2014-12-08,23.46811,121.37407,1.0894079e-07
C0B040,大武崙,2014-12-08,25.166676,121.706993,0.3371997
C1Z030,紅葉,2014-12-08,23.493119,121.338806,1.4867724e-07
C1I050,丹大,2014-12-08,23.753747,121.141147,2.5013671e-08
C0I080,信義,2014-12-08,23.689694,120.851036,1.530662e-09
C2M920,朴子農改,2014-12-08,23.469889,120.259383,2.6099505e-08
C2A880,福隆,2014-12-08,25.017842,121.942083,3.0432788e-05
C0Z160,鳳林,2014-12-08,23.746114,121.453411,2.0771328e-07
C0V210,復興,2014-12-08,23.222403,120.806089,1.047625e-08
C0H990,昆陽,2014-12-08,24.121322,121.273642,1.967199e-08
C0R741,獅子,2014-12-08,22.202308,120.705236,0.9997477
C0S710,鹿野,2014-12-08,22.917711,121.122994,1.3269441e-08
C0I530,小奇萊,2014-12-08,24.131764,121.295717,1.9895262e-08
C2K630,荷苞,2014-12-08,23.657717,120.595144,1.423369e-09
C0Z080,富源,2014-12-08,23.587642,121.378225,1.2908755e-07
467441,高雄,2014-12-08,22.7304,120.3125,2.843266e-07
C0SB10,美和,2014-12-08,22.682078,121.060236,0.9992058
C2K620,馬光農場,2014-12-08,23.721453,120.378864,1.3172802e-09
C1I140,卡奈托灣,2014-12-08,23.754364,121.087872,1.0866702e-08
C0I520,玉山風口,2014-12-08,23.470489,120.955994,2.9843093e-08
C1G691,下水埔,2014-12-08,23.816114,120.5676,1.39537e-09
C0X110,臺南市南區,2014-12-08,22.961189,120.188378,8.6270103e-07
C0V680,仁武,2014-12-08,22.701083,120.347722,2.255317e-07
C2G840,北斗,2014-12-08,23.877586,120.514222,1.7292855e-08
C0R900,竹坑,2014-12-08,22.1385,120.7022,0.9999375
C0K250,崙背,2014-12-08,23.75555,120.318925,1.6910258e-06
C0G860,社頭,2014-12-08,23.897647,120.5862,1.197889e-08
C0X150,安定,2014-12-08,23.102614,120.227839,1.0789471e-06
C0R590,里港,2014-12-08,22.77919,120.49459,4.1893934e-08
C0E610,馬都安,2014-12-08,24.451272,120.930192,5.4289044e-09
C0E550,明德,2014-12-08,24.583486,120.885411,2.845085e-08
C0R150,三地門,2014-12-08,22.709889,120.639944,2.0172929e-07
C0G910,花壇,2014-12-08,24.032076,120.549461,4.497916e-08
C1D400,鳥嘴山,2014-12-08,24.71909,121.28387,4.7926e-09
C0K500,元長,2014-12-08,23.64981,120.315024,4.2360244e-07
C0F0B0,石岡,2014-12-08,24.276061,120.777644,1.8356913e-09
C2V250,甲仙,2014-12-08,23.080106,120.591758,2.2076752e-09
C0SA20,金崙山,2014-12-08,22.567419,120.959667,5.2546962e-08
C0V350,溪埔,2014-12-08,22.738578,120.446797,2.5303649e-08
C0M660,溪口,2014-12-08,23.604131,120.403569,8.106346e-08
C1S880,壽卡,2014-12-08,22.238911,120.858903,0.99979675
72D680,桃改新埔分場,2014-12-08,24.834444,121.066111,5.0912973e-08
