站號,站名,日期,lat,lon,BLBTSLS
C0R710,龍磐,2014-03-22,21.931672,120.838942,0.9998995
C1F9D1,白毛台,2014-03-22,24.158325,120.886933,1.8421661e-09
C0G940,竹塘,2014-03-22,23.848253,120.386764,8.408576e-10
467590,恆春,2014-03-22,22.003897,120.746339,0.99963063
C1O850,環湖,2014-03-22,23.148617,120.418633,1.194596e-09
C0U710,太平山,2014-03-22,24.505486,121.525656,1.646273e-08
C0E820,獅潭,2014-03-22,24.539133,120.920042,2.7162272e-09
C0V880,興達,2014-03-22,22.8778,120.2127,5.775058e-10
C0S890,關山,2014-03-22,23.0395,121.175017,3.131636e-08
C0SB30,新蘭,2014-03-22,22.869214,121.223228,6.1713834e-08
C2R970,屏科大,2014-03-22,22.648275,120.619247,5.250684e-10
K2F750,種苗繁殖,2014-03-22,24.225972,120.800917,2.1572173e-09
C1Z130,銅門,2014-03-22,23.965694,121.492842,2.1588606e-08
C0AD40,土城,2014-03-22,24.973208,121.445169,5.7826774e-09
CAN140,六官養殖協會,2014-03-22,23.22881,120.29962,1.0863733e-09
C0X180,山上,2014-03-22,23.0757,120.363253,1.0725726e-09
C0F9Z0,雪山東峰,2014-03-22,24.388792,121.268675,2.1415373e-08
C1M480,獨立山,2014-03-22,23.537022,120.607797,2.8972993e-09
C0X220,學甲,2014-03-22,23.230367,120.182187,1.9107622e-09
467650,日月潭,2014-03-22,23.881325,120.90805,2.5303928e-09
C0K600,箔子寮,2014-03-22,23.6197,120.14,1.3852244e-09
C0G830,埤頭,2014-03-22,23.866003,120.452806,1.0113548e-09
C0S950,七塊厝,2014-03-22,22.954453,121.229922,9.19798e-09
467110,金門,2014-03-22,24.407306,118.289281,2.0487836e-09
C0AH80,深坑,2014-03-22,25.002703,121.628328,4.9550435e-09
467990,馬祖,2014-03-22,26.169269,119.923419,8.581133e-09
C0A970,三貂角,2014-03-22,25.007606,122.002058,1.4956908e-06
C2D730,寶山農場,2014-03-22,24.732444,120.976153,5.2559166e-09
C0K430,褒忠,2014-03-22,23.690938,120.303634,8.244917e-10
467480,嘉義,2014-03-22,23.495925,120.432906,9.969712e-10
C2E540,後龍,2014-03-22,24.606489,120.783933,3.0372183e-09
C0V400,阿公店,2014-03-22,22.804194,120.355528,3.7266457e-10
C0R440,大漢山,2014-03-22,22.405264,120.753181,6.6002217e-09
C0K280,四湖,2014-03-22,23.630414,120.227125,1.1534359e-09
C1F9B1,桐林,2014-03-22,24.066172,120.735194,1.3116792e-09
C2H9U0,鳳鵬,2014-03-22,23.763919,120.788061,2.101662e-09
C0K390,土庫,2014-03-22,23.679029,120.395574,8.083873e-10
C1I450,望鄉山,2014-03-22,23.594153,120.944286,1.57407e-08
C0E910,海埔,2014-03-22,24.648767,120.772435,2.9932805e-09
B2E890,畜試北區分所,2014-03-22,24.527806,120.770972,2.3109377e-09
C0R750,四林格山,2014-03-22,22.076989,120.802439,0.999985
C0F0C0,中坑,2014-03-22,24.248517,120.903319,2.624556e-09
C1I121,大鞍,2014-03-22,23.678381,120.760017,3.9968895e-09
72U480,花改蘭陽分場,2014-03-22,24.686306,121.716583,3.7340603e-06
C0A770,科教館,2014-03-22,25.096356,121.516507,5.6727667e-09
C0AJ60,六塊厝,2014-03-22,25.24,121.4481,1.1137158e-08
C0R620,墾雷,2014-03-22,21.900836,120.855269,0.99966186
467420,永康,2014-03-22,23.038386,120.2367,8.119151e-10
467300,東吉島,2014-03-22,23.25695,119.667467,0.00088584493
C0I410,名間,2014-03-22,23.837053,120.701447,1.7332438e-09
A2C560,農工中心,2014-03-22,24.985917,121.239833,3.286673e-09
C0V740,旗山,2014-03-22,22.888614,120.483597,7.959895e-10
C0Z061,玉里,2014-03-22,23.3215,121.339656,2.1520524e-08
C0S840,南田,2014-03-22,22.279725,120.889208,0.9992813
C1I470,杉林溪,2014-03-22,23.639517,120.786444,4.8691406e-09
C1X040,東原,2014-03-22,23.291597,120.463822,1.8814041e-09
C0R660,枋寮,2014-03-22,22.367722,120.590647,1.3956402e-07
C1R120,上德文,2014-03-22,22.763272,120.704442,4.377258e-09
C0K450,大埤,2014-03-22,23.646074,120.431537,8.716178e-10
C0UA00,土場,2014-03-22,24.576533,121.495333,6.258662e-09
467080,宜蘭,2014-03-22,24.763975,121.756528,4.598218e-08
C0N030,四草,2014-03-22,23.0235,120.1116,8.7123386e-10
C0V650,彌陀,2014-03-22,22.783806,120.246361,5.3559396e-10
C0D660,新竹市東區,2014-03-22,24.798681,120.986942,1.09108775e-08
82S580,茶改東部分場,2014-03-22,22.907694,121.130139,9.725274e-09
C0SB40,興隆,2014-03-22,22.913661,121.257469,9.620059e-09
C0C710,大溪永福,2014-03-22,24.892936,121.324975,3.2521636e-09
C0FA20,溫寮,2014-03-22,24.372177,120.583125,1.7958818e-09
C0V640,湖內,2014-03-22,22.887139,120.2445,5.728423e-10
C0R910,下寮,2014-03-22,22.3929,120.5548,4.6758326e-09
C0Z020,明里,2014-03-22,23.208717,121.262342,1.3689665e-08
C0M770,嘉義梅山,2014-03-22,23.585398,120.555587,1.7255976e-09
G2F820,農業試驗所,2014-03-22,24.031261,120.688133,1.1536208e-09
C0C660,楊梅,2014-03-22,24.912375,121.143047,4.059173e-09
C1E511,新開,2014-03-22,24.347703,120.827019,1.6395849e-09
G2F820,農試所(霧峰),2014-03-22,24.031261,120.688133,1.1536208e-09
C1I070,和社,2014-03-22,23.591131,120.888861,1.7421196e-09
C2F000,大肚,2014-03-22,24.15295,120.572117,1.8996895e-09
C1S850,豐南,2014-03-22,23.122139,121.262389,9.454309e-09
C2A920,富貴角,2014-03-22,25.263783,121.565258,8.675981e-08
CAH030,茶改場竹圍站,2014-03-22,23.860083,120.637528,1.9392796e-09
C0T960,光復,2014-03-22,23.660694,121.424964,2.1760625e-08
C0F9M0,豐原,2014-03-22,24.254322,120.720692,1.4481435e-09
C0R720,旭海,2014-03-22,22.205403,120.887614,0.99906665
C0V710,苓雅,2014-03-22,22.622742,120.330669,8.814331e-10
C0C740,觀音工業區,2014-03-22,25.064764,121.114856,4.0951393e-09
CAC040,拉拉山,2014-03-22,24.699317,121.427133,6.636831e-09
C0V790,萬山,2014-03-22,22.905944,120.688056,1.2695639e-09
U2HA30,臺大和社,2014-03-22,23.590856,120.888864,1.7421196e-09
C0AJ90,澳底,2014-03-22,25.0552,121.9253,1.355956e-06
C0Z100,東華,2014-03-22,23.89525,121.549833,2.5534233e-08
C0G970,三豐,2014-03-22,23.882,120.2895,1.2227315e-09
V2K610,大庄合作社,2014-03-22,23.8068,120.367939,9.375025e-10
C0V900,汕尾,2014-03-22,22.4782,120.4151,6.3023947e-10
C1R630,龍泉,2014-03-22,22.66701,120.59091,5.483896e-09
C1AC50,關渡,2014-03-22,25.133486,121.469331,1.3480666e-08
C0F9I0,神岡,2014-03-22,24.272481,120.658314,1.3869904e-09
C0K460,斗南,2014-03-22,23.678734,120.478359,1.1368668e-09
467410,臺南,2014-03-22,22.993239,120.204772,8.0336104e-10
C2O810,曾文,2014-03-22,23.219681,120.497328,1.4160253e-09
467280,後龍,2014-03-22,24.648563,120.831834,2.797547e-09
C1F9J1,清水林,2014-03-22,24.071242,120.820419,1.9359683e-09
C2A650,火燒寮,2014-03-22,25.002719,121.742892,1.344553e-07
466930,竹子湖,2014-03-22,25.162078,121.544547,1.6873782e-08
C1I220,樟湖,2014-03-22,23.905333,120.846983,2.642503e-09
C0I390,仁愛,2014-03-22,24.022122,121.132206,3.044387e-09
C0Z300,東里,2014-03-22,23.26853,121.30547,2.1042702e-08
C1V590,新發,2014-03-22,23.057019,120.646064,4.9823274e-09
C0K510,水林,2014-03-22,23.572924,120.24597,1.3728803e-09
72S590,東改賓朗果園,2014-03-22,22.813889,121.071278,3.691074e-08
82A750,茶改北部分場,2014-03-22,24.955778,121.631222,3.6744177e-09
C1A750,石碇服務區,2014-03-22,25.00872,121.646242,5.018647e-09
C0X300,鹿寮,2014-03-22,23.386047,120.477331,1.0725153e-09
G2AI50,關渡,2014-03-22,25.11575,121.492,5.7261094e-09
C0K590,雲林東勢,2014-03-22,23.674192,120.255721,8.244917e-10
C0A570,桶後,2014-03-22,24.848222,121.597992,6.2436745e-09
C1S800,華源,2014-03-22,22.657883,121.02325,6.048545e-08
C0G720,溪州,2014-03-22,23.851589,120.499093,1.0235964e-09
C1V160,達卡努瓦,2014-03-22,23.279811,120.705319,5.637044e-09
C2M410,馬頭山,2014-03-22,23.324361,120.582017,1.953912e-09
C0V850,蚵仔寮,2014-03-22,22.7256,120.2527,8.1192125e-10
C0S740,池上,2014-03-22,23.119628,121.209469,8.774481e-09
C1V390,尖山,2014-03-22,22.813153,120.367789,3.6502604e-10
C0AH70,松山,2014-03-22,25.04871,121.55042,4.8227324e-09
C0N010,鯤鯓國小,2014-03-22,23.1879,120.0889,2.3943618e-09
C0R550,新埤,2014-03-22,22.467947,120.582894,7.904481e-09
C0SA60,知本（水試所）,2014-03-22,22.702394,121.082761,1.07177584e-07
C0T9I0,豐濱,2014-03-22,23.583897,121.514806,2.536855e-08
C0UB00,淡江大學蘭陽校園,2014-03-22,24.823239,121.730383,8.273087e-09
C0W240,九宮,2014-03-22,24.423753,118.240186,2.7702176e-09
C0T9N0,富里,2014-03-22,23.171639,121.249378,8.893402e-09
U2HA50,臺大竹山,2014-03-22,23.756972,120.681556,1.6621012e-09
C0V840,鳳鼻頭,2014-03-22,22.5083,120.3591,8.722032e-10
C0X140,西港,2014-03-22,23.125608,120.203108,1.6141071e-09
72D080,桃改五峰分場,2014-03-22,24.612194,121.157167,3.9481924e-09
C2H9P0,伊拿谷,2014-03-22,23.963211,121.088264,1.9913664e-09
C2H9F0,柑林,2014-03-22,24.018658,120.847072,1.8706978e-09
C0TA20,加灣,2014-03-22,24.082025,121.608944,2.4555328e-08
C0V530,阿蓮,2014-03-22,22.883208,120.327508,4.671338e-10
C1O880,關山,2014-03-22,23.173397,120.594092,1.9846966e-09
C0E791,卓蘭,2014-03-22,24.3126,120.8244,1.6694851e-09
C1I030,武界,2014-03-22,23.913225,121.052483,2.3954216e-09
C0R520,崁頂,2014-03-22,22.514781,120.506914,4.177566e-09
C0R341,牡丹,2014-03-22,22.130036,120.792639,0.6888862
C0R930,萬丹,2014-03-22,22.5885,120.4851,8.711346e-09
C0S760,紅石,2014-03-22,23.069131,121.126219,1.1850198e-08
C1M610,石磐龍,2014-03-22,23.496606,120.663506,3.626072e-09
C0UA10,鴛鴦湖,2014-03-22,24.590269,121.412228,8.636929e-09
V2C260,八德蔬果,2014-03-22,24.978508,121.281819,2.783464e-09
C0R800,丹路,2014-03-22,22.204481,120.750989,0.9601091
C0G920,永靖,2014-03-22,23.924703,120.547533,1.1360952e-09
C2M950,太和,2014-03-22,23.538372,120.702961,4.628838e-09
C1A630,下盆,2014-03-22,24.771003,121.538622,1.0592728e-08
B2N890,畜產試驗所,2014-03-22,23.058972,120.336406,6.401338e-10
C0UA30,白嶺,2014-03-22,24.527819,121.519031,6.7634462e-09
C1V580,溪南(特生中心),2014-03-22,23.084972,120.788475,9.443874e-09
C1T970,大農,2014-03-22,23.615233,121.413331,2.0762393e-08
E2S960,林試太麻里2,2014-03-22,22.598014,120.989761,5.5176617e-08
C0R650,竹田,2014-03-22,22.58486,120.54344,8.707177e-09
C1H900,清流,2014-03-22,24.080775,120.962997,2.3362525e-09
C1C510,水尾,2014-03-22,24.940081,121.087161,3.6719794e-09
C0F9X0,大雅(中科園區),2014-03-22,24.21528,120.62445,1.4017668e-09
C0SB60,白守蓮,2014-03-22,23.126769,121.401914,1.5307249e-07
C0O970,虎頭埤,2014-03-22,23.021375,120.347878,6.895788e-10
C0C730,中大臨海站,2014-03-22,24.966126,121.008581,1.7193535e-06
C0X250,新營,2014-03-22,23.310689,120.316681,9.497719e-10
C0V700,三民,2014-03-22,22.645017,120.311233,8.814314e-10
C0U870,大礁溪,2014-03-22,24.791042,121.675047,5.508027e-09
C0E870,高鐵苗栗,2014-03-22,24.60725,120.826094,2.7900549e-09
A2K570,古坑花卉中心,2014-03-22,23.63353,120.55239,1.3526634e-09
C0M860,新美,2014-03-22,23.338017,120.683169,2.1833662e-09
C1E701,八卦,2014-03-22,24.491756,120.927619,2.3748452e-09
C0I420,國姓,2014-03-22,24.037803,120.855072,1.7178967e-09
C2D720,關西工作站,2014-03-22,24.757275,121.184792,2.1126583e-09
C0S960,香蘭,2014-03-22,22.587569,120.993375,5.5176617e-08
C0R260,春日,2014-03-22,22.370361,120.628306,0.9158991
72G600,臺中農改場,2014-03-22,24.003028,120.534389,1.2383817e-09
C0Z210,瑞穗,2014-03-22,23.5239,121.39021,2.6076318e-08
C0M820,達邦,2014-03-22,23.453994,120.749517,2.7701805e-09
C0V860,南寮,2014-03-22,22.7616,120.2339,5.4032e-10
C0G740,大城,2014-03-22,23.852487,120.320935,1.2280041e-09
C0R920,塭仔,2014-03-22,22.4169,120.5197,5.0158624e-09
C0R470,高樹,2014-03-22,22.826389,120.600806,4.2550643e-09
C0R680,佳樂水,2014-03-22,21.993578,120.861633,0.9995391
C1O870,大棟山,2014-03-22,23.31157,120.52226,5.124742e-09
C0D360,梅花,2014-03-22,24.678347,121.208558,1.8915436e-09
C0Z190,富世,2014-03-22,24.14743,121.6297,6.166254e-08
C0AI10,屈尺,2014-03-22,24.92184,121.54475,4.9550435e-09
B2U990,畜試東區分所,2014-03-22,24.669039,121.832561,5.9034173e-06
C0SB80,長濱漁港,2014-03-22,23.313644,121.459994,2.7272758e-08
C0R240,來義,2014-03-22,22.527306,120.625111,0.8567608
C0V910,大樹,2014-03-22,22.684645,120.432803,4.325995e-10
C1R610,西大武山,2014-03-22,22.617719,120.7322,8.423348e-09
C0G900,線西,2014-03-22,24.143358,120.443536,1.2590403e-09
C0M700,竹崎,2014-03-22,23.526178,120.555508,1.3744916e-09
C2E880,三義,2014-03-22,24.405478,120.749819,2.1342332e-09
C0C720,竹圍,2014-03-22,25.112692,121.239824,1.12440715e-08
C0F9P0,清水,2014-03-22,24.312297,120.562242,1.5866476e-09
C0Z150,吉安光華,2014-03-22,23.930925,121.595153,2.7204544e-08
C1D640,外坪(五指山),2014-03-22,24.644447,121.090961,2.8924239e-09
C0F9O0,潭子,2014-03-22,24.213106,120.703933,1.3403257e-09
C2H9R0,卓社,2014-03-22,23.887894,121.000086,3.1987404e-09
72T250,花蓮農改場,2014-03-22,23.975222,121.563889,2.4185287e-08
C0E780,銅鑼,2014-03-22,24.489681,120.790853,1.9554478e-09
C1T950,太安,2014-03-22,23.666719,121.370128,1.1520095e-08
C0E830,苑裡,2014-03-22,24.439714,120.653053,1.7986757e-09
467270,田中,2014-03-22,23.873803,120.581286,1.0448706e-09
C0SA10,檳榔四格山,2014-03-22,22.810031,121.109308,3.2796425e-08
C1T830,布洛灣,2014-03-22,24.17184,121.57127,1.7153184e-07
C0F970,大坑,2014-03-22,24.173142,120.722289,1.4423849e-09
C1U920,思源,2014-03-22,24.393125,121.347214,1.3330373e-08
C0A931,三和,2014-03-22,25.233153,121.595236,1.322272e-07
C0I010,廬山,2014-03-22,24.033311,121.181808,4.396377e-09
C2M940,日野賀,2014-03-22,23.434056,120.727169,4.067264e-09
C0R860,鼻頭,2014-03-22,22.1043,120.8979,0.9976011
C0UB20,壯圍,2014-03-22,24.7359,121.8163,5.9034173e-06
C0R790,九棚,2014-03-22,22.14195,120.889281,0.99956167
C0W110,東莒,2014-03-22,25.9652,119.98069,1.5536024e-08
C1U930,粉鳥林,2014-03-22,24.497088,121.842479,4.0029644e-08
C1I211,蘆竹湳,2014-03-22,23.934019,120.811994,1.73756e-09
C0S830,長濱,2014-03-22,23.286817,121.411975,1.3569201e-08
C1F9F1,伯公龍,2014-03-22,24.272392,120.849047,2.0137183e-09
C0E810,西湖,2014-03-22,24.562947,120.7485,2.7931057e-09
C1I440,新高口,2014-03-22,23.478744,120.878939,1.0304589e-08
C0O840,王爺宮,2014-03-22,23.222064,120.40085,1.4162549e-09
C0T9G0,鳳林山,2014-03-22,23.735269,121.420131,1.6007498e-08
C0X080,佳里,2014-03-22,23.173039,120.145086,1.9647795e-09
C0FB70,大甲溪埔,2014-03-22,24.370625,120.620067,1.8158176e-09
C0Z310,清水斷崖,2014-03-22,24.218294,121.689142,9.698979e-07
C0M680,太保,2014-03-22,23.455062,120.331455,9.677511e-10
C1S820,金峰,2014-03-22,22.590969,120.933236,1.7880899e-08
C0AD10,八里,2014-03-22,25.150211,121.403947,1.12440715e-08
C2K240,草嶺,2014-03-22,23.59555,120.693461,3.5932453e-09
C1SA70,都蘭,2014-03-22,22.87794,121.226881,9.620059e-09
C0K440,二崙,2014-03-22,23.772797,120.408944,8.42299e-10
C1A760,坪林交控,2014-03-22,24.94284,121.713442,1.4253475e-08
C0F9N0,大里,2014-03-22,24.092464,120.701378,1.216894e-09
C0SA90,達仁林場,2014-03-22,22.264347,120.823972,0.0031505032
C1R290,石門山,2014-03-22,22.112611,120.756597,0.9999882
42HA10,萬大發電廠,2014-03-22,23.978875,121.139639,3.517058e-09
C0R890,山海,2014-03-22,21.9878,120.7091,0.99935836
C0T9A0,月眉山,2014-03-22,23.809928,121.539828,2.5976192e-08
C0AC70,信義,2014-03-22,25.037822,121.564597,4.8227324e-09
C0K560,棋山,2014-03-22,23.68645,120.603417,1.7500326e-09
C2FB50,出雲,2014-03-22,24.206469,120.902794,2.6762337e-09
C1Z240,中平林道,2014-03-22,23.42115,121.26763,1.6883119e-08
U2H480,溪頭,2014-03-22,23.670306,120.798194,1.9567388e-09
C0M880,好美里,2014-03-22,23.3364,120.138,1.9647795e-09
C0T9E0,大坑,2014-03-22,23.880628,121.581981,2.6757043e-08
C0K530,臺西,2014-03-22,23.701547,120.197559,1.0793942e-09
C1E900,國一N128K,2014-03-22,24.560997,120.844186,2.769293e-09
C0AJ50,水湳洞,2014-03-22,25.123695,121.862238,4.574123e-07
C0AI20,白沙灣,2014-03-22,25.283128,121.519058,1.02670626e-07
C0A860,大坪,2014-03-22,25.165914,121.632969,1.6622923e-08
C1U850,觀音海岸,2014-03-22,24.38319,121.77856,2.1213284e-08
C2K610,草嶺石壁,2014-03-22,23.602469,120.707731,3.803441e-09
C0U950,鶯子嶺,2014-03-22,24.89754,121.79244,9.175657e-09
C0O900,善化,2014-03-22,23.112883,120.297219,6.444731e-10
C0K550,蔦松,2014-03-22,23.514319,120.229736,1.2234359e-09
E2P980,林試六龜中心,2014-03-22,22.991703,120.645722,1.4426298e-09
C0E590,通霄,2014-03-22,24.471892,120.704622,2.2833655e-09
C1I310,西巒,2014-03-22,23.754486,120.883956,2.7376459e-09
C0A550,泰平,2014-03-22,24.971197,121.823711,5.0511563e-08
C0I360,水里,2014-03-22,23.812553,120.849792,1.8518469e-09
C0R830,高士,2014-03-22,22.121825,120.836781,0.99998844
C1I101,溪頭,2014-03-22,23.661789,120.807647,4.6895963e-09
C0AJ20,野柳,2014-03-22,25.20703,121.690021,4.574123e-07
C0B060,暖暖,2014-03-22,25.0957,121.7403,3.3815854e-07
C1H920,長豐,2014-03-22,24.102039,120.879897,1.9806126e-09
C0V360,內門,2014-03-22,22.975481,120.466769,1.1152692e-09
C0R850,林邊,2014-03-22,22.4634,120.5339,4.177566e-09
C0E930,龍鳳,2014-03-22,24.700034,120.859125,4.291473e-09
C0U910,冬山,2014-03-22,24.63373,121.7937,5.9034173e-06
C1E721,泰安,2014-03-22,24.489017,120.968036,4.392287e-09
82H320,茶改中部分場,2014-03-22,23.875611,120.913583,1.5936568e-09
C0M750,布袋,2014-03-22,23.380878,120.167789,1.2822575e-09
C1S860,利嘉,2014-03-22,22.809417,121.050528,3.617998e-08
72C440,桃園農改,2014-03-22,24.950944,121.030583,7.177284e-07
E2S980,林試太麻里1,2014-03-22,22.598922,120.980044,3.1969613e-08
C0X170,關廟,2014-03-22,22.963017,120.327797,5.0536186e-10
C0V720,林園,2014-03-22,22.507747,120.394511,8.781943e-10
C1I510,線浸林道,2014-03-22,23.761508,120.832956,2.0323514e-09
C0D690,外湖,2014-03-22,24.917735,120.968711,1.7193535e-06
C0C750,新興坑尾,2014-03-22,25.0061,121.0971,4.1764188e-09
B2Q810,畜試南區分所,2014-03-22,21.945583,120.802167,0.99953943
C0S790,金崙,2014-03-22,22.538122,120.966875,1.5568476e-08
C0AH90,福山植物園,2014-03-22,24.760717,121.58135,3.5312273e-09
C0I540,奇萊稜線,2014-03-22,24.109231,121.326456,2.5229962e-08
C0M850,表湖,2014-03-22,23.24186,120.64166,2.8121843e-09
C0S770,大溪山,2014-03-22,22.478475,120.943325,9.3543635e-09
C0AG80,中和,2014-03-22,24.991622,121.491792,4.8193853e-09
C0T790,大禹嶺,2014-03-22,24.186117,121.316086,1.8251487e-08
C0T9B0,水源,2014-03-22,23.991861,121.537169,2.549141e-08
C0R840,牡丹池山,2014-03-22,22.168389,120.841225,0.0047088354
C1I131,桶頭,2014-03-22,23.641944,120.654117,1.8507805e-09
CAL110,布袋國中,2014-03-22,23.35893,120.18026,1.1230349e-09
467571,新竹,2014-03-22,24.827853,121.014219,1.1195942e-08
C0Z290,赤柯山,2014-03-22,23.36893,121.38293,1.6224883e-08
C0X280,將軍,2014-03-22,23.214999,120.13577,1.9647795e-09
C0S690,太麻里,2014-03-22,22.60902,120.98533,2.3723247e-08
C0U880,北關,2014-03-22,24.9072,121.8734,3.588501e-08
C1H860,瑞岩,2014-03-22,24.123772,121.18345,6.3210095e-09
C0G810,埔心,2014-03-22,23.947633,120.525456,1.1292338e-09
C0U970,大福,2014-03-22,24.80064,121.81389,4.7605788e-08
C2H9N0,仁愛東眼,2014-03-22,24.026875,121.1205,3.805974e-09
C1E670,南礦,2014-03-22,24.538278,121.002836,4.929159e-09
C0M520,東後寮,2014-03-22,23.369908,120.248065,1.093433e-09
C1E461,松安,2014-03-22,24.397972,120.986022,3.968774e-09
72G600,臺中農改,2014-03-22,24.003028,120.534389,1.2383841e-09
C2N160,西拉雅風管處,2014-03-22,23.189481,120.335297,1.0618211e-09
C2M970,碧湖,2014-03-22,23.568632,120.624165,3.2612202e-09
C0A640,石碇,2014-03-22,24.993969,121.662917,1.6709538e-07
E2S960,林試太麻里2,2014-03-22,22.598,120.99775,6.4278815e-08
C0F9Y0,桃山,2014-03-22,24.432739,121.303808,2.2809681e-08
C1I020,萬大,2014-03-22,23.979817,121.132261,3.0709693e-09
C0U940,羅東,2014-03-22,24.68184,121.74934,5.120117e-06
C0M650,朴子,2014-03-22,23.43463,120.23902,1.2443103e-09
C1I500,大尖山,2014-03-22,23.858572,120.994889,7.3549664e-09
C0G820,田尾,2014-03-22,23.901669,120.509389,1.1360952e-09
E2K600,四湖植物園,2014-03-22,23.676986,120.163433,1.04318e-09
C0S730,綠島,2014-03-22,22.6672,121.47533,5.648929e-08
12Q970,東港工作站,2014-03-22,22.479997,120.466058,4.6758326e-09
C0E430,南庄,2014-03-22,24.601775,121.000214,2.7624876e-09
C1TA00,太魯閣,2014-03-22,24.15773,121.6236,1.0627606e-06
466920,臺北,2014-03-22,25.037658,121.514853,4.8227324e-09
C0R600,舊泰武,2014-03-22,22.588194,120.664944,2.4488527e-09
C1I260,北坑,2014-03-22,23.9246,121.006903,1.8392942e-09
466910,鞍部,2014-03-22,25.182586,121.529731,1.7013555e-08
C1I230,九份二山,2014-03-22,23.961944,120.845,2.3753346e-09
C2A660,瑞芳,2014-03-22,25.113169,121.801147,6.594587e-07
C0R270,琉球嶼,2014-03-22,22.332244,120.362236,0.9158991
C1T990,高寮,2014-03-22,23.394239,121.356808,3.6418776e-08
C0G620,芬園,2014-03-22,24.015678,120.6213,1.1556336e-09
C1Z140,荖溪,2014-03-22,23.890575,121.45964,2.2528594e-08
C1I201,中心崙,2014-03-22,23.728722,120.712097,2.1739084e-09
C1I400,凌霄,2014-03-22,24.018778,121.004456,3.6857395e-09
C1M640,十字,2014-03-22,23.492153,120.753683,4.289803e-09
G2P820,農試鳳山分所,2014-03-22,22.646611,120.356083,8.0270396e-10
C0Z270,蕃薯寮,2014-03-22,23.73835,121.540108,2.0496914e-08
C0F9Q0,外埔,2014-03-22,24.347817,120.705686,1.3109214e-09
C0K580,高鐵雲林,2014-03-22,23.737456,120.417944,8.083873e-10
C2I090,鳳凰,2014-03-22,23.728081,120.787347,1.6997425e-09
C0U990,員山,2014-03-22,24.74435,121.72247,5.0942976e-06
C0V770,大社,2014-03-22,22.730306,120.346639,7.3363565e-10
C0X120,麻豆,2014-03-22,23.183289,120.248611,1.9107622e-09
C0C670,龍潭,2014-03-22,24.870056,121.221389,1.8075624e-09
C0D680,香山濕地,2014-03-22,24.783581,120.914988,1.1044567e-08
C0S980,勝林山,2014-03-22,22.430439,120.8938,2.8980456e-09
C0V730,大寮,2014-03-22,22.605614,120.395717,1.5878838e-08
C0R570,麟洛,2014-03-22,22.65078,120.52719,3.9236195e-10
C2M930,石卓,2014-03-22,23.478744,120.702264,4.2018433e-09
C0G9B0,和美,2014-03-22,24.105169,120.492131,1.3966988e-09
CAG100,王功漁港,2014-03-22,23.96824,120.32586,1.3247332e-09
C0X290,北門,2014-03-22,23.267772,120.125481,1.9647795e-09
C2F930,大甲,2014-03-22,24.347667,120.640403,1.5962092e-09
C0D650,湖口,2014-03-22,24.904794,121.043628,2.9891234e-07
C0E420,竹南,2014-03-22,24.708978,120.888897,1.0545374e-08
C0U780,五結,2014-03-22,24.68637,121.79794,5.9034173e-06
C1I250,鯉潭,2014-03-22,23.961922,120.991131,1.9806126e-09
C0R130,阿禮,2014-03-22,22.742908,120.743678,1.1216263e-09
C0X100,臺南市北區,2014-03-22,23.010394,120.194228,8.2427e-10
C0S920,金峰嘉蘭,2014-03-22,22.594789,120.960825,3.1382854e-08
C0V490,新興,2014-03-22,22.627422,120.298803,8.781943e-10
C0F9K0,大安,2014-03-22,24.345061,120.588025,1.5583589e-09
72N100,臺南農改,2014-03-22,23.0605,120.342194,6.3979566e-10
467290,古坑,2014-03-22,23.633639,120.551889,1.3526634e-09
C2E970,八甲,2014-03-22,24.535811,120.795983,1.9765216e-09
C0V440,鳳山,2014-03-22,22.646653,120.356122,8.0270396e-10
C1T940,大觀,2014-03-22,23.714206,121.373133,1.7805617e-08
72T250,花蓮農改,2014-03-22,23.975222,121.563889,2.4185287e-08
C0E740,造橋,2014-03-22,24.637056,120.864778,4.330026e-09
C0R100,尾寮山,2014-03-22,22.833111,120.683889,1.5760668e-09
A2K630,臺大雲林校區,2014-03-22,23.730628,120.423903,8.0810364e-10
C0D580,寶山,2014-03-22,24.735006,121.025192,3.4247771e-09
E2P990,林試扇平站,2014-03-22,22.9677,120.6857,3.8777546e-09
C0AI30,三重,2014-03-22,25.057328,121.500629,5.6727667e-09
C0AH00,汐止,2014-03-22,25.066881,121.658778,4.574123e-07
C1Z040,立山,2014-03-22,23.443356,121.327375,2.2476017e-08
C0W130,花嶼,2014-03-22,23.40007,119.32276,0.00028358633
C0A950,鼻頭角,2014-03-22,25.129036,121.923372,1.5203517e-06
C0K470,林內,2014-03-22,23.748675,120.609642,1.3894317e-09
C2F990,摩天嶺,2014-03-22,24.322458,120.936819,2.7586544e-09
82C160,茶改場,2014-03-22,24.908472,121.185333,2.3642515e-09
C0Z320,清水林道,2014-03-22,23.27125,121.188272,1.5243872e-08
C0R760,南仁湖,2014-03-22,22.084681,120.863353,0.9999883
C0M670,大林,2014-03-22,23.600616,120.45841,1.759538e-09
C0M800,茶山,2014-03-22,23.299075,120.664767,2.2084543e-09
C0A9C0,天母,2014-03-22,25.117494,121.537169,5.7336504e-09
72K220,南改斗南分場,2014-03-22,23.634556,120.477333,1.3947048e-09
72AI40,桃改樹林分場,2014-03-22,24.944503,121.386972,5.841152e-09
C0S910,蘭嶼燈塔,2014-03-22,22.081197,121.503117,0.99997807
C0B050,八斗子,2014-03-22,25.144754,121.79167,5.257634e-07
C0U900,內城,2014-03-22,24.71813,121.68766,4.243468e-08
C0X320,柳營,2014-03-22,23.253328,120.375253,1.2456995e-09
C0M790,新港,2014-03-22,23.553269,120.345728,8.9388885e-10
C0F9T0,西屯,2014-03-22,24.179494,120.641275,1.3992051e-09
C0SA30,都歷,2014-03-22,23.020333,121.323642,6.703447e-08
C0C620,蘆竹,2014-03-22,25.084275,121.265767,1.1241069e-08
C0R730,大坪頂,2014-03-22,22.024633,120.69355,0.9999624
C0AJ40,石門,2014-03-22,25.273672,121.601198,6.1392505e-08
C0E750,苗栗,2014-03-22,24.564569,120.824575,2.7660465e-09
C0T870,鯉魚潭,2014-03-22,23.935639,121.508944,2.2810378e-08
C1V170,排雲,2014-03-22,23.463619,120.954147,2.4473083e-08
C2H950,中寮,2014-03-22,23.884447,120.766406,1.7082089e-09
C0R350,貓鼻頭,2014-03-22,21.921774,120.7358,0.9996617
C0V660,岡山,2014-03-22,22.797078,120.294958,4.72945e-10
C1H941,雙冬,2014-03-22,23.967378,120.802189,1.8784674e-09
C0AJ70,田寮,2014-03-22,25.2698,121.4886,1.05615825e-07
C0AI00,五股,2014-03-22,25.07445,121.42728,4.1911177e-09
C0Z280,德武,2014-03-22,23.47426,121.41071,3.0137166e-08
C0R700,枋山,2014-03-22,22.246844,120.661086,0.99728763
C0C460,復興,2014-03-22,24.820208,121.352281,3.0676792e-09
E2H360,蓮華池,2014-03-22,23.918333,120.885278,1.9021587e-09
C0M640,中埔,2014-03-22,23.42538,120.5229,1.6311164e-09
C0W140,金沙,2014-03-22,24.488292,118.408778,1.9563433e-09
C2A540,四堵,2014-03-22,24.8926,121.745736,1.7425592e-08
C0ACA0,新莊,2014-03-22,25.051478,121.446756,1.0772167e-08
C0R220,潮州,2014-03-22,22.534361,120.54,1.12656174e-07
U2HA40,臺大內茅埔,2014-03-22,23.689722,120.851117,1.6703674e-09
467490,臺中,2014-03-22,24.145736,120.684075,1.3730636e-09
C0U960,翠峰湖,2014-03-22,24.510856,121.608044,1.605529e-08
E2HA20,林試畢祿溪站,2014-03-22,24.226944,121.308522,9.246211e-09
C0V890,前鎮,2014-03-22,22.5718,120.3117,9.057429e-10
467620,蘭嶼,2014-03-22,22.036969,121.558339,0.9999878
C1F941,雪嶺,2014-03-22,24.280586,121.026642,1.3379612e-08
C2H9E0,國姓南港,2014-03-22,23.911108,120.846556,2.7463904e-09
C0AC80,文山,2014-03-22,25.00235,121.575728,4.9550435e-09
C0F9R0,龍井,2014-03-22,24.184536,120.528972,1.479268e-09
C0M760,民雄,2014-03-22,23.551754,120.428457,1.0007244e-09
C0UA40,西德山,2014-03-22,24.560647,121.752608,1.1274158e-08
C1T920,中興,2014-03-22,23.769503,121.498653,2.4695437e-08
C0D550,雪霸,2014-03-22,24.526972,121.11605,8.3301215e-09
C2F860,梨山,2014-03-22,24.247522,121.243669,9.548036e-09
C0R320,車城,2014-03-22,22.0744,120.716247,0.99935836
C1S870,南美山,2014-03-22,23.15025,121.382333,2.5816306e-08
C0B020,基隆嶼,2014-03-22,25.19141,121.78391,4.574123e-07
C1U501,牛鬥,2014-03-22,24.637836,121.573656,1.6008933e-08
C0M730,嘉義市東區,2014-03-22,23.457673,120.460531,1.630908e-09
C0S700,知本,2014-03-22,22.684866,121.005642,2.3915605e-08
C1N001,沙崙,2014-03-22,22.935472,120.309406,4.671338e-10
C0V760,橋頭,2014-03-22,22.757806,120.30575,4.6771503e-10
C0G960,福寶,2014-03-22,24.0443,120.3814,1.3242204e-09
C0X210,白河,2014-03-22,23.347466,120.414427,1.2315672e-09
C0S810,東河,2014-03-22,22.972672,121.303986,9.649113e-09
C2R170,屏東,2014-03-22,22.66027,120.49403,4.0061987e-10
C0R670,楓港,2014-03-22,22.190131,120.692156,0.99728763
C0FA50,霧峰,2014-03-22,24.0419,120.6995,1.1328127e-09
C0UB10,蘇澳,2014-03-22,24.5969,121.8571,9.638738e-07
C0G950,防潮門,2014-03-22,24.1835,120.4871,1.4758496e-09
C0M740,六腳,2014-03-22,23.492871,120.290625,9.878043e-10
C1R250,力里,2014-03-22,22.428117,120.629228,0.8567608
C0K330,虎尾,2014-03-22,23.719183,120.442036,8.08705e-10
C2FA00,烏石坑,2014-03-22,24.273503,120.947617,2.716165e-09
C0V620,永安,2014-03-22,22.82315,120.236856,5.3559396e-10
C1I330,楓樹林,2014-03-22,23.986803,121.076117,3.0564247e-09
C0W200,湖西,2014-03-22,23.596314,119.67275,0.00014882286
72Q010,高雄農改場,2014-03-22,22.709333,120.525889,3.8867642e-10
C0SA40,瑞和,2014-03-22,22.974361,121.156697,3.6716173e-08
C0C680,龜山,2014-03-22,25.02846,121.38656,8.967668e-09
C2V260,月眉,2014-03-22,22.971003,120.539853,1.1868356e-09
C0V450,鳳森,2014-03-22,22.545064,120.392592,1.0947691e-08
C0U720,南山,2014-03-22,24.43742,121.38167,7.963301e-09
A2N290,臺南蘭花園區,2014-03-22,23.340258,120.379661,1.2456995e-09
C0R560,新園,2014-03-22,22.5434,120.461558,4.179981e-09
C0U890,三星,2014-03-22,24.66812,121.65302,3.749207e-08
C1V300,御油山,2014-03-22,23.001983,120.715364,9.272967e-09
C0U600,礁溪,2014-03-22,24.817539,121.765608,4.5640967e-08
C1T980,龍澗,2014-03-22,24.023289,121.411328,1.3139434e-08
C0D670,海天一線,2014-03-22,24.831986,120.914438,1.1015282e-08
C0SA00,歷坵,2014-03-22,22.520969,120.89185,8.608395e-09
C0M710,東石,2014-03-22,23.458927,120.15385,1.2234359e-09
C0M780,鹿草,2014-03-22,23.41134,120.30835,1.0253355e-09
C0U520,雙連埤,2014-03-22,24.753033,121.641303,5.5563225e-09
C0B010,七堵,2014-03-22,25.094819,121.71713,4.01389e-07
C0R480,長治,2014-03-22,22.693128,120.542622,2.4560938e-09
C1V830,國三S383K,2014-03-22,22.781967,120.426475,4.8414855e-10
12Q980,恆春工作站,2014-03-22,22.079678,120.714425,0.99935836
C1O940,東山服務區,2014-03-22,23.286016,120.398472,1.2313722e-09
C1U840,東澳嶺,2014-03-22,24.5378,121.8485,1.596469e-08
C1D630,飛鳳山,2014-03-22,24.766464,121.119178,2.6979954e-09
C0S940,石寧山,2014-03-22,23.223772,121.406639,1.4354228e-08
C0K410,北港,2014-03-22,23.573957,120.292802,8.986978e-10
C2M620,瑞里,2014-03-22,23.545133,120.675197,4.203831e-09
C0SB70,小港漁港,2014-03-22,23.158558,121.400431,1.669069e-08
C2O950,安南,2014-03-22,23.076694,120.144861,1.8114901e-09
C0F0E0,南湖圈谷,2014-03-22,24.363714,121.444667,3.9050036e-08
467610,成功,2014-03-22,23.097486,121.373428,1.1150872e-07
C0G890,伸港,2014-03-22,24.148933,120.484403,1.3388413e-09
C2E540,龍溪,2014-03-22,24.606489,120.783933,3.0372183e-09
C1V200,梅山,2014-03-22,23.268447,120.823556,5.4081313e-09
C0T9H0,加路蘭山,2014-03-22,23.682947,121.5274,1.5988427e-08
C2O930,玉井,2014-03-22,23.126042,120.46055,1.194596e-09
C1F911,新伯公,2014-03-22,24.221361,120.841069,1.999538e-09
C0R490,九如,2014-03-22,22.7405,120.490503,3.9229983e-10
C0X200,左鎮,2014-03-22,23.056758,120.408522,1.0654565e-09
C0SB50,叭嗡嗡,2014-03-22,23.047062,121.343223,9.849207e-09
C1F891,稍來,2014-03-22,24.265689,121.001142,9.248204e-09
72N240,七股研究中心,2014-03-22,23.081672,120.062894,3.0860128e-09
C0C700,中壢,2014-03-22,24.977661,121.256375,2.8133484e-09
C0M690,水上,2014-03-22,23.419734,120.388909,1.143092e-09
C0V690,鼓山,2014-03-22,22.623325,120.275575,8.781943e-10
C0O860,大內,2014-03-22,23.11885,120.36083,8.6680163e-10
C0Z200,萬榮,2014-03-22,23.709219,121.420106,2.2810378e-08
C0T9D0,和中,2014-03-22,24.26676,121.74103,4.219625e-06
C1O921,楠西,2014-03-22,23.183511,120.484083,1.4163765e-09
C0AJ30,淡水觀海,2014-03-22,25.184591,121.408616,1.1137158e-08
C0V810,左營,2014-03-22,22.67491,120.28491,7.4884055e-10
C0UA70,桃源谷,2014-03-22,24.962606,121.888875,3.853867e-08
C0X130,官田,2014-03-22,23.193217,120.315422,1.0705186e-09
C1H000,翠峰,2014-03-22,24.109397,121.205211,1.3252115e-08
C0UA90,石城,2014-03-22,24.980444,121.951214,3.7732257e-06
C1E681,南勢山,2014-03-22,24.421669,120.923831,2.259283e-09
C0A9F0,內湖,2014-03-22,25.079422,121.57545,4.8227324e-09
C0K291,宜梧,2014-03-22,23.536281,120.169329,1.2274e-09
C1K540,口湖,2014-03-22,23.585344,120.180517,1.4035219e-09
C0R780,滿州,2014-03-22,22.024403,120.839892,0.9997261
C0V870,文安,2014-03-22,22.8025,120.2164,5.4032e-10
C0U650,玉蘭,2014-03-22,24.675286,121.587061,1.967852e-08
C0R640,東港,2014-03-22,22.46247,120.44074,9.041342e-10
K2E360,苗栗農改,2014-03-22,24.495722,120.829111,1.8701662e-09
C0AJ80,板橋,2014-03-22,25.0107,121.4489,5.7826774e-09
C0S660,下馬,2014-03-22,23.150427,121.070312,1.5855202e-08
C1H9B1,阿眉,2014-03-22,24.1263,120.994672,5.316462e-09
C0UA20,多加屯,2014-03-22,24.368614,121.373189,1.559347e-08
C0E730,頭份,2014-03-22,24.688247,120.912206,1.0545374e-08
72V140,高改旗南分場,2014-03-22,22.857861,120.516667,5.5160805e-09
C0K480,莿桐,2014-03-22,23.761192,120.502372,9.602492e-10
C0U980,坪林石牌,2014-03-22,24.86478,121.77396,1.8751106e-08
C0T900,西林,2014-03-22,23.8119,121.441458,2.2722965e-08
C1I150,青雲,2014-03-22,23.793361,120.949378,2.3992945e-09
467350,澎湖,2014-03-22,23.565503,119.563094,0.0002856459
C0G800,埔鹽,2014-03-22,24.000394,120.431683,1.3232508e-09
C0H960,草屯,2014-03-22,23.973672,120.68085,1.3473591e-09
C1V780,多納林道,2014-03-22,22.888028,120.737917,5.0378954e-09
C0E920,通霄漁港,2014-03-22,24.498589,120.673876,2.248544e-09
C0Z330,安通山,2014-03-22,23.290728,121.348528,1.3699487e-08
C0AH10,永和,2014-03-22,25.01125,121.508111,4.845229e-09
C0AK10,太平里,2014-03-22,25.134937,121.364899,1.0772167e-08
C2G640,鹿港,2014-03-22,24.0753,120.430481,1.3232508e-09
C1E890,國三N149K,2014-03-22,24.463414,120.680019,2.2938638e-09
C1R110,口社,2014-03-22,22.770111,120.645222,3.844387e-09
C1M870,國三N285K,2014-03-22,23.550319,120.505833,1.3988742e-09
467050,新屋,2014-03-22,25.006744,121.047486,1.4975062e-06
C1E480,鳳美,2014-03-22,24.554803,121.034747,3.165867e-09
C0M530,奮起湖,2014-03-22,23.493903,120.699253,4.6524358e-09
C0C590,觀音,2014-03-22,25.027072,121.153317,9.636919e-09
C0T9M0,靜浦,2014-03-22,23.455167,121.495028,2.7619622e-08
C2H9M0,發祥,2014-03-22,24.154094,121.164517,3.0301532e-09
C0AI40,石牌,2014-03-22,25.115597,121.513139,5.7826774e-09
C1F871,上谷關,2014-03-22,24.203483,121.018644,2.716165e-09
C2H9G0,百勝,2014-03-22,24.051142,120.909361,2.1716622e-09
C0G880,二水,2014-03-22,23.810742,120.6173,1.3479478e-09
C0R940,加祿堂,2014-03-22,22.3363,120.6217,0.9622362
C0W220,北竿,2014-03-22,26.220358,119.974881,4.142329e-09
C0O960,崎頂,2014-03-22,22.959547,120.369317,8.7945146e-10
C0S750,向陽,2014-03-22,23.248397,120.986133,1.26854784e-08
C0T9F0,水璉,2014-03-22,23.797131,121.542514,2.158881e-08
C1M600,頭凍,2014-03-22,23.406364,120.603339,3.5115546e-09
467660,臺東,2014-03-22,22.752211,121.154586,7.2157114e-08
C1D380,新埔,2014-03-22,24.84745,121.03834,1.02526565e-08
C2G980,田頭村,2014-03-22,23.8263,120.444175,8.42299e-10
C0V750,路竹,2014-03-22,22.854997,120.259439,4.3026332e-10
C0N050,蚵寮,2014-03-22,23.301,120.1104,2.3943618e-09
72M700,南改鹿草分場,2014-03-22,23.416869,120.283061,1.0365397e-09
C1SA50,利嘉林道,2014-03-22,22.82325,121.009389,8.618202e-09
467550,玉山,2014-03-22,23.487614,120.959522,2.7363527e-08
C0A940,金山,2014-03-22,25.223628,121.643967,9.704598e-08
C1V340,大津,2014-03-22,22.888322,120.645986,9.552585e-10
C0W180,七美,2014-03-22,23.219333,119.444892,0.0015452869
C1F9C1,白冷,2014-03-22,24.182844,120.929889,1.8009619e-09
K2E710,苗改生物防治研究中心,2014-03-22,24.422861,120.871833,1.6523152e-09
C0N040,蘆竹溝,2014-03-22,23.2344,120.0961,2.3943618e-09
C2W230,畜試所澎湖,2014-03-22,23.628342,119.513206,3.5334982e-05
C0R880,後壁湖,2014-03-22,21.9457,120.7457,0.9992917
C1I280,埔中,2014-03-22,23.820778,120.642594,1.8954731e-09
467790,墾丁雷達站,2014-03-22,21.948235,120.808028,0.99974746
C0W190,望安,2014-03-22,23.380564,119.494075,0.00010613284
466881,新北,2014-03-22,24.9593,121.52,4.88638e-09
C0Z170,卓溪,2014-03-22,23.3443,121.3029,2.0635385e-08
C0F850,東勢,2014-03-22,24.246428,120.833047,1.9798798e-09
466900,淡水,2014-03-22,25.164889,121.448906,1.1243514e-08
C0I370,魚池,2014-03-22,23.895703,120.94135,1.859187e-09
C0C630,大溪,2014-03-22,24.882853,121.265547,1.5616736e-09
C0A520,山佳,2014-03-22,24.974944,121.402008,5.841152e-09
C0I110,竹山,2014-03-22,23.761225,120.688156,1.6552929e-09
82H840,茶改南部分場,2014-03-22,23.762528,120.7405,2.2822246e-09
C0G660,溪湖,2014-03-22,23.94835,120.479122,1.1368582e-09
C1T800,洛韶,2014-03-22,24.204558,121.453956,1.9930773e-08
C1T810,慈恩,2014-03-22,24.192044,121.388386,1.5420591e-08
C1E451,象鼻,2014-03-22,24.368617,120.940228,2.2579087e-09
C0AC60,三峽,2014-03-22,24.939025,121.369728,4.890063e-09
C0I490,萬大林道,2014-03-22,23.928228,121.091411,6.024088e-09
C1I290,豐丘,2014-03-22,23.668178,120.887417,2.0323514e-09
C1I320,奧萬大,2014-03-22,23.952956,121.178556,3.077883e-09
C2M910,嘉義大學,2014-03-22,23.471325,120.485903,1.3465652e-09
C0U770,南澳,2014-03-22,24.44935,121.81022,2.0672854e-07
C0A980,社子,2014-03-22,25.109508,121.469681,5.7260987e-09
C0V800,六龜,2014-03-22,22.997889,120.633583,1.4381736e-09
C1G9D0,國一S218K,2014-03-22,23.890641,120.493253,1.1292338e-09
C0E570,白沙屯,2014-03-22,24.549447,120.696803,2.248544e-09
C2F9A0,中竹林,2014-03-22,24.103556,120.751061,2.4916473e-09
C0FA40,臺中電廠,2014-03-22,24.2146,120.4907,1.479268e-09
C2G9A0,畜試所彰化,2014-03-22,23.86045,120.557964,1.0448706e-09
C0H9C0,合歡山,2014-03-22,24.143442,121.272547,2.5600944e-08
C0X060,下營,2014-03-22,23.22695,120.256261,1.0962543e-09
G2M350,農試溪口農場,2014-03-22,23.58565,120.408111,1.0066935e-09
C0U860,頭城,2014-03-22,24.85323,121.8308,4.598218e-08
C0R580,南州,2014-03-22,22.48591,120.50274,4.6758326e-09
C0D430,峨眉,2014-03-22,24.6905,121.017189,5.2559166e-09
C0G780,秀水,2014-03-22,24.03405,120.503869,1.2369817e-09
72N100,臺南農改場,2014-03-22,23.0605,120.342194,6.3979566e-10
C0S900,蘭嶼高中,2014-03-22,22.04909,121.51214,0.9998401
467540,大武,2014-03-22,22.355675,120.903789,0.99206275
C1F9W0,德基,2014-03-22,24.254783,121.190261,7.1001005e-09
C1Z120,壽豐,2014-03-22,23.870853,121.508081,2.5534233e-08
C0W160,烏坵,2014-03-22,24.9944,119.44956,3.7365357e-08
C1I240,外大坪,2014-03-22,23.958697,120.917931,2.0292799e-09
C1I550,國六W023K,2014-03-22,23.979067,120.867742,1.8791662e-09
C0R870,興海,2014-03-22,21.9752,120.8439,0.99953943
C0R140,瑪家,2014-03-22,22.682903,120.686639,2.2533269e-09
C0A530,坪林,2014-03-22,24.938183,121.70975,1.3821899e-08
C0X260,後壁,2014-03-22,23.366358,120.362326,1.0181541e-09
C0Z230,和平,2014-03-22,24.30717,121.77007,4.219625e-06
C0G770,福興,2014-03-22,24.041289,120.437669,1.3232508e-09
C0H9A0,神木村,2014-03-22,23.532742,120.843667,5.4739893e-09
C0I460,南投,2014-03-22,23.911469,120.687331,1.5986863e-09
C0I480,梅峰,2014-03-22,24.085272,121.173572,8.9556345e-09
C1V570,吉東,2014-03-22,22.85422,120.5454,5.2218825e-09
C2D740,屯原,2014-03-22,24.067969,121.209389,7.5896835e-09
C2A560,福山,2014-03-22,24.776203,121.502811,3.677187e-09
C0AH30,五分山,2014-03-22,25.07125,121.780794,1.6363211e-08
C0FA10,松柏,2014-03-22,24.429115,120.617482,1.7958818e-09
72S200,東改班鳩分場,2014-03-22,22.829528,121.077694,4.1193406e-08
72HA00,中改埔里分場,2014-03-22,23.903208,120.963364,1.8105298e-09
C2H9W0,大坪頂農水,2014-03-22,24.043122,120.932781,2.0074407e-09
C0C650,平鎮,2014-03-22,24.897503,121.214636,2.3642606e-09
C0S930,延平,2014-03-22,22.902581,121.084058,9.012663e-09
C0UA60,樟樹山,2014-03-22,24.41393,121.78325,7.675037e-08
C1S670,摩天,2014-03-22,23.199503,121.027,1.2767475e-08
C0V630,茄萣,2014-03-22,22.906642,120.182608,5.775058e-10
466940,基隆,2014-03-22,25.133314,121.740475,4.966912e-07
C0X050,東河,2014-03-22,23.296598,120.385608,1.2456995e-09
C0R770,保力,2014-03-22,22.071122,120.764111,0.9998372
G2L020,農試嘉義分所,2014-03-22,23.485028,120.473806,1.3494397e-09
C0X240,關子嶺,2014-03-22,23.331169,120.508025,2.0017321e-09
C0I380,集集,2014-03-22,23.828206,120.801467,1.8306109e-09
466990,花蓮,2014-03-22,23.975128,121.613275,2.4874224e-08
C1V220,小關山,2014-03-22,23.154217,120.813603,1.06144284e-08
C1F9G1,慶福山,2014-03-22,24.180853,120.848378,2.1213842e-09
C0Z250,瑞穗林道,2014-03-22,23.49284,121.30688,1.6945059e-08
C0D590,新豐,2014-03-22,24.87068,120.97721,8.003938e-06
C0A870,五指山,2014-03-22,25.132153,121.608692,1.3898458e-08
C0UA50,西帽山,2014-03-22,24.555361,121.802628,9.966713e-09
C0X160,仁德,2014-03-22,22.968258,120.257689,5.5202565e-10
C1H971,六分寮,2014-03-22,23.92507,120.6378,2.2714763e-09
C0W120,西嶼,2014-03-22,23.5626,119.468436,0.00028630765
C0G650,員林,2014-03-22,23.946503,120.585597,1.1890969e-09
C0AD50,鶯歌,2014-03-22,24.951533,121.346294,7.77944e-09
C2H9Q0,北東眼山,2014-03-22,24.120939,121.189303,7.421735e-09
C2H9T0,名間竹圍,2014-03-22,23.859914,120.637572,1.9392796e-09
C0S990,山豬窟,2014-03-22,22.318619,120.857372,0.7898653
72Q010,高雄農改,2014-03-22,22.709333,120.525889,3.8867642e-10
C0X190,安平,2014-03-22,22.993161,120.152181,8.2427e-10
C0K400,斗六,2014-03-22,23.720583,120.541127,1.1274733e-09
12J990,口湖工作站,2014-03-22,23.589978,120.180394,1.3852244e-09
C0O830,北寮,2014-03-22,23.079561,120.495008,1.8113865e-09
C1D410,白蘭,2014-03-22,24.579364,121.079947,4.837528e-09
C0S970,加津林,2014-03-22,22.416211,120.926942,0.9905455
C0D700,關西,2014-03-22,24.7977,121.1732,2.0633721e-09
C0M810,里佳,2014-03-22,23.389125,120.716647,4.6524358e-09
C0U750,龜山島,2014-03-22,24.841667,121.953133,5.4629044e-08
C0R810,內獅,2014-03-22,22.305064,120.642986,0.9622362
C1M390,龍美,2014-03-22,23.406728,120.654417,4.0472288e-09
C2FB60,頭櫃山,2014-03-22,24.129842,120.858925,2.8443674e-09
C1H840,國三N238K,2014-03-22,23.841008,120.707711,1.8588856e-09
CAQ030,崎峰國小,2014-03-22,22.42565,120.49521,4.6758415e-09
C2E520,大湖,2014-03-22,24.414939,120.870872,1.9477018e-09
467530,阿里山,2014-03-22,23.508208,120.813242,1.105907e-08
C1E691,南湖,2014-03-22,24.40135,120.837533,2.0779298e-09
C0FA30,梧棲,2014-03-22,24.256003,120.523381,1.479268e-09
C1V231,高中,2014-03-22,23.134911,120.716711,2.1635136e-09
C0F9V0,新社,2014-03-22,24.200172,120.815806,2.3551598e-09
C0H890,埔里,2014-03-22,23.972169,120.952425,1.620916e-09
C0R690,墾丁,2014-03-22,21.966756,120.810269,0.99998343
C0F0D0,審馬陣,2014-03-22,24.381675,121.4203,2.3942304e-08
C0R820,白鷺,2014-03-22,22.454275,120.666219,4.637595e-06
U2H480,臺大溪頭,2014-03-22,23.670306,120.798194,1.9567388e-09
C1V190,南天池,2014-03-22,23.27403,120.91176,1.4295922e-08
K2E360,苗栗農改場,2014-03-22,24.495722,120.829111,1.8701662e-09
CAJ050,海口故事園區,2014-03-22,23.57543,120.14121,1.4035219e-09
C2H9D0,三隻寮,2014-03-22,24.093078,120.861578,2.0572182e-09
C0O990,媽廟,2014-03-22,22.99175,120.293525,5.222199e-10
C0D480,打鐵坑,2014-03-22,24.849664,121.150789,1.2252621e-09
C0Z220,和平林道,2014-03-22,24.343922,121.656317,7.556781e-08
C0TA10,花蓮漁港,2014-03-22,23.995322,121.638331,2.4947205e-08
72C440,桃園農改場,2014-03-22,24.950944,121.030583,7.177284e-07
C1E711,馬拉邦山,2014-03-22,24.367306,120.901656,2.9516103e-09
C0SB20,富岡,2014-03-22,22.792467,121.192669,6.897031e-08
C0D560,竹東,2014-03-22,24.767147,121.057881,2.9137976e-09
C0F9U0,南屯,2014-03-22,24.137006,120.637969,1.216894e-09
C0M720,番路,2014-03-22,23.464657,120.554156,1.6452927e-09
C0F0A0,雪山圈谷,2014-03-22,24.388594,121.236339,2.8472892e-08
C1A9N0,四十份,2014-03-22,24.934158,121.593283,4.0310506e-09
C0U760,東澳,2014-03-22,24.52196,121.83318,3.778108e-08
C0X230,鹽水,2014-03-22,23.272621,120.247641,1.3362594e-09
C2H9H0,苗改南投蜂場,2014-03-22,23.852589,120.693481,1.6552929e-09
C0R950,萬隆國小,2014-03-22,22.507667,120.587817,6.485773e-09
C0V370,古亭坑,2014-03-22,22.893178,120.401947,6.0697347e-10
C1I340,新興橋,2014-03-22,23.563333,120.868728,2.0159778e-09
C0SA80,土坂,2014-03-22,22.453108,120.887572,2.3324645e-08
C0R160,鹽埔,2014-03-22,22.739558,120.530778,2.5505793e-09
C0AC40,大屯山,2014-03-22,25.175675,121.522408,1.9071694e-08
466850,五分山雷達站,2014-03-22,25.071182,121.781205,1.6462133e-08
C2H9L0,馬烈霸,2014-03-22,24.1512,121.201772,7.292512e-09
C1AI50,國三N016K,2014-03-22,25.034164,121.619664,4.952492e-09
C1V600,藤枝,2014-03-22,23.071961,120.757042,8.7096845e-09
C1E601,南勢,2014-03-22,24.572486,120.734842,2.2826905e-09
C0Z180,新城,2014-03-22,24.03946,121.60454,2.4479338e-08
C0O980,新市,2014-03-22,23.061614,120.298197,6.444731e-10
C0K420,西螺,2014-03-22,23.800407,120.467394,9.566881e-10
C0Z050,佳心,2014-03-22,23.34567,121.21316,1.617464e-08
C0AD30,蘆洲,2014-03-22,25.086594,121.472331,5.6728098e-09
C0V610,梓官,2014-03-22,22.760558,120.267211,4.72945e-10
K2F750,種苗改良場,2014-03-22,24.225972,120.800917,2.1572173e-09
C0UA80,大溪漁港,2014-03-22,24.941801,121.902955,4.5640967e-08
C1AI60,國一39K邊坡,2014-03-22,25.064361,121.383836,6.0546625e-08
C0W150,金寧,2014-03-22,24.457703,118.328989,2.017559e-09
C0R960,內埔,2014-03-22,22.608483,120.570714,7.903893e-09
V2C250,八德合作社,2014-03-22,24.93775,121.266389,2.054254e-09
C2H9S0,龍南,2014-03-22,23.953536,120.833183,3.6183412e-09
C0AH40,平等,2014-03-22,25.129142,121.577086,1.3212112e-08
C0R540,佳冬,2014-03-22,22.419456,120.552375,4.6884603e-09
466950,彭佳嶼,2014-03-22,25.627975,122.079744,1.8010724e-05
C0A890,雙溪,2014-03-22,25.036003,121.864242,3.5493505e-07
C0C480,桃園,2014-03-22,24.992425,121.323172,2.717134e-09
C0AH50,林口,2014-03-22,25.072181,121.38084,1.6038456e-08
A2K360,水試臺西試驗場,2014-03-22,23.717231,120.190522,1.0915139e-09
B2N890,畜試所,2014-03-22,23.058972,120.336406,6.401338e-10
C2M960,外寮,2014-03-22,23.562643,120.665688,3.3881649e-09
C0F9S0,烏日,2014-03-22,24.107058,120.624103,1.2305434e-09
C0C490,八德,2014-03-22,24.928708,121.283289,1.46596e-09
C0R190,赤山,2014-03-22,22.592333,120.614306,7.198841e-09
C0T820,天祥,2014-03-22,24.179597,121.495639,9.743602e-08
C1F9E1,龍安,2014-03-22,24.1605,120.831961,2.46408e-09
C0V820,小林,2014-03-22,23.148408,120.63325,1.8166456e-09
C2G870,芳苑,2014-03-22,23.922303,120.320025,1.2227315e-09
C0E850,大河,2014-03-22,24.618069,120.948578,2.8642495e-09
C1U670,寒溪,2014-03-22,24.634,121.71691,1.3922929e-06
C0N020,城西,2014-03-22,23.0568,120.0956,2.973881e-09
C1Z110,三棧,2014-03-22,24.11557,121.60501,3.7699596e-08
C0R280,檳榔,2014-03-22,22.076078,120.836777,0.99998146
C2H9J0,中台,2014-03-22,23.9996,120.938739,1.8158212e-09
C0F9L0,后里,2014-03-22,24.310436,120.729725,1.5220999e-09
C0D540,橫山,2014-03-22,24.71116,121.11693,3.54588e-09
C1D420,太閣南,2014-03-22,24.632808,121.160575,4.306051e-09
C1E770,公館,2014-03-22,24.526914,120.830806,2.3109377e-09
CAN130,水試所海水繁養殖中心,2014-03-22,23.120802,120.07968,3.0860128e-09
C1I430,翠華,2014-03-22,24.191961,121.224339,1.3485836e-08
C1M400,菜瓜坪,2014-03-22,23.251928,120.576103,2.2054065e-09
C0G730,二林,2014-03-22,23.903325,120.376081,1.1750463e-09
72M360,南改義竹分場,2014-03-22,23.360694,120.279361,8.991281e-10
V2K620,麥寮合作社,2014-03-22,23.753836,120.294783,1.0390833e-09
C0Z070,舞鶴,2014-03-22,23.46811,121.37407,2.67978e-08
C0B040,大武崙,2014-03-22,25.166676,121.706993,4.01389e-07
C1Z030,紅葉,2014-03-22,23.493119,121.338806,2.949299e-08
C1I050,丹大,2014-03-22,23.753747,121.141147,1.513465e-08
C0I080,信義,2014-03-22,23.689694,120.851036,1.6703674e-09
C2M920,朴子農改,2014-03-22,23.469889,120.259383,9.885526e-10
C2A880,福隆,2014-03-22,25.017842,121.942083,1.355956e-06
C0Z160,鳳林,2014-03-22,23.746114,121.453411,2.2139423e-08
C0V210,復興,2014-03-22,23.222403,120.806089,4.690509e-09
C0H990,昆陽,2014-03-22,24.121322,121.273642,2.2199847e-08
C0R741,獅子,2014-03-22,22.202308,120.705236,0.9926199
C0S710,鹿野,2014-03-22,22.917711,121.122994,9.051648e-09
C0I530,小奇萊,2014-03-22,24.131764,121.295717,2.2401206e-08
C2K630,荷苞,2014-03-22,23.657717,120.595144,1.7259004e-09
C0Z080,富源,2014-03-22,23.587642,121.378225,2.6899349e-08
467441,高雄,2014-03-22,22.7304,120.3125,7.4884055e-10
C0SB10,美和,2014-03-22,22.682078,121.060236,1.0701376e-07
C2K620,馬光農場,2014-03-22,23.721453,120.378864,7.9993756e-10
C1I140,卡奈托灣,2014-03-22,23.754364,121.087872,5.326815e-09
C0I520,玉山風口,2014-03-22,23.470489,120.955994,2.8158999e-08
C1G691,下水埔,2014-03-22,23.816114,120.5676,1.3324215e-09
C0X110,臺南市南區,2014-03-22,22.961189,120.188378,8.119151e-10
C0V680,仁武,2014-03-22,22.701083,120.347722,7.3363565e-10
C2G840,北斗,2014-03-22,23.877586,120.514222,1.1360952e-09
C0R900,竹坑,2014-03-22,22.1385,120.7022,0.9998382
C0K250,崙背,2014-03-22,23.75555,120.318925,1.0315577e-09
C0G860,社頭,2014-03-22,23.897647,120.5862,1.1845877e-09
C0X150,安定,2014-03-22,23.102614,120.227839,1.0247607e-09
C0R590,里港,2014-03-22,22.77919,120.49459,3.2635474e-09
C0E610,馬都安,2014-03-22,24.451272,120.930192,2.5857196e-09
C0E550,明德,2014-03-22,24.583486,120.885411,2.8265421e-09
C0R150,三地門,2014-03-22,22.709889,120.639944,3.4858694e-09
C0G910,花壇,2014-03-22,24.032076,120.549461,1.2361162e-09
C1D400,鳥嘴山,2014-03-22,24.71909,121.28387,3.4159306e-09
C0K500,元長,2014-03-22,23.64981,120.315024,8.6157653e-10
C0F0B0,石岡,2014-03-22,24.276061,120.777644,1.5819367e-09
C2V250,甲仙,2014-03-22,23.080106,120.591758,1.6958727e-09
C0SA20,金崙山,2014-03-22,22.567419,120.959667,7.642342e-09
C0V350,溪埔,2014-03-22,22.738578,120.446797,4.324939e-10
C0M660,溪口,2014-03-22,23.604131,120.403569,1.0064132e-09
C1S880,壽卡,2014-03-22,22.238911,120.858903,0.005373373
72D680,桃改新埔分場,2014-03-22,24.834444,121.066111,2.7900282e-09
