站號,站名,日期,lat,lon,BLBTSLS
C0R710,龍磐,2014-07-05,21.931672,120.838942,0.0060613127
C1F9D1,白毛台,2014-07-05,24.158325,120.886933,0.0014608782
C0G940,竹塘,2014-07-05,23.848253,120.386764,0.07706116
467590,恆春,2014-07-05,22.003897,120.746339,0.005016069
C1O850,環湖,2014-07-05,23.148617,120.418633,0.09932673
C0U710,太平山,2014-07-05,24.505486,121.525656,1.8806372e-08
C0E820,獅潭,2014-07-05,24.539133,120.920042,0.022486577
C0V880,興達,2014-07-05,22.8778,120.2127,0.34308788
C0S890,關山,2014-07-05,23.0395,121.175017,0.049697805
C0SB30,新蘭,2014-07-05,22.869214,121.223228,0.79231465
C2R970,屏科大,2014-07-05,22.648275,120.619247,0.8876522
K2F750,種苗繁殖,2014-07-05,24.225972,120.800917,0.01720997
C1Z130,銅門,2014-07-05,23.965694,121.492842,0.9537051
C0AD40,土城,2014-07-05,24.973208,121.445169,0.0084259715
CAN140,六官養殖協會,2014-07-05,23.22881,120.29962,0.4406171
C0X180,山上,2014-07-05,23.0757,120.363253,0.5814104
C0F9Z0,雪山東峰,2014-07-05,24.388792,121.268675,7.970778e-09
C1M480,獨立山,2014-07-05,23.537022,120.607797,0.00016559688
C0X220,學甲,2014-07-05,23.230367,120.182187,0.056255292
467650,日月潭,2014-07-05,23.881325,120.90805,5.3904178e-06
C0K600,箔子寮,2014-07-05,23.6197,120.14,0.013755569
C0G830,埤頭,2014-07-05,23.866003,120.452806,0.032052167
C0S950,七塊厝,2014-07-05,22.954453,121.229922,0.9952324
467110,金門,2014-07-05,24.407306,118.289281,0.29241574
C0AH80,深坑,2014-07-05,25.002703,121.628328,0.0053266645
467990,馬祖,2014-07-05,26.169269,119.923419,0.99985147
C0A970,三貂角,2014-07-05,25.007606,122.002058,0.12252098
C2D730,寶山農場,2014-07-05,24.732444,120.976153,0.11298625
C0K430,褒忠,2014-07-05,23.690938,120.303634,0.035896033
467480,嘉義,2014-07-05,23.495925,120.432906,0.012923179
C2E540,後龍,2014-07-05,24.606489,120.783933,0.00060471345
C0V400,阿公店,2014-07-05,22.804194,120.355528,0.93980515
C0R440,大漢山,2014-07-05,22.405264,120.753181,3.916571e-09
C0K280,四湖,2014-07-05,23.630414,120.227125,0.0010763182
C1F9B1,桐林,2014-07-05,24.066172,120.735194,0.018842997
C2H9U0,鳳鵬,2014-07-05,23.763919,120.788061,0.014367743
C0K390,土庫,2014-07-05,23.679029,120.395574,0.36942488
C1I450,望鄉山,2014-07-05,23.594153,120.944286,8.553451e-09
C0E910,海埔,2014-07-05,24.648767,120.772435,0.008721327
B2E890,畜試北區分所,2014-07-05,24.527806,120.770972,0.00032805154
C0R750,四林格山,2014-07-05,22.076989,120.802439,1.7148751e-07
C0F0C0,中坑,2014-07-05,24.248517,120.903319,4.786847e-08
C1I121,大鞍,2014-07-05,23.678381,120.760017,1.3890819e-07
72U480,花改蘭陽分場,2014-07-05,24.686306,121.716583,0.0046010935
C0A770,科教館,2014-07-05,25.096356,121.516507,0.011163073
C0AJ60,六塊厝,2014-07-05,25.24,121.4481,0.0036616519
C0R620,墾雷,2014-07-05,21.900836,120.855269,0.005562065
467420,永康,2014-07-05,23.038386,120.2367,0.12458765
467300,東吉島,2014-07-05,23.25695,119.667467,0.9996919
C0I410,名間,2014-07-05,23.837053,120.701447,0.03828232
A2C560,農工中心,2014-07-05,24.985917,121.239833,0.025024038
C0V740,旗山,2014-07-05,22.888614,120.483597,0.67612857
C0Z061,玉里,2014-07-05,23.3215,121.339656,0.9751944
C0S840,南田,2014-07-05,22.279725,120.889208,0.025057962
C1I470,杉林溪,2014-07-05,23.639517,120.786444,5.223987e-08
C1X040,東原,2014-07-05,23.291597,120.463822,0.3230484
C0R660,枋寮,2014-07-05,22.367722,120.590647,0.5938221
C1R120,上德文,2014-07-05,22.763272,120.704442,1.5276437e-05
C0K450,大埤,2014-07-05,23.646074,120.431537,0.49690604
C0UA00,土場,2014-07-05,24.576533,121.495333,0.798157
467080,宜蘭,2014-07-05,24.763975,121.756528,0.076113746
C0N030,四草,2014-07-05,23.0235,120.1116,0.24357127
C0V650,彌陀,2014-07-05,22.783806,120.246361,0.4924561
C0D660,新竹市東區,2014-07-05,24.798681,120.986942,0.058237083
82S580,茶改東部分場,2014-07-05,22.907694,121.130139,0.9929053
C0SB40,興隆,2014-07-05,22.913661,121.257469,0.97301686
C0C710,大溪永福,2014-07-05,24.892936,121.324975,0.024761477
C0FA20,溫寮,2014-07-05,24.372177,120.583125,0.00018528616
C0V640,湖內,2014-07-05,22.887139,120.2445,0.3461073
C0R910,下寮,2014-07-05,22.3929,120.5548,0.97265446
C0Z020,明里,2014-07-05,23.208717,121.262342,0.9003183
C0M770,嘉義梅山,2014-07-05,23.585398,120.555587,0.07999888
G2F820,農業試驗所,2014-07-05,24.031261,120.688133,0.000650156
C0C660,楊梅,2014-07-05,24.912375,121.143047,0.058217168
C1E511,新開,2014-07-05,24.347703,120.827019,0.20161581
G2F820,農試所(霧峰),2014-07-05,24.031261,120.688133,0.000650156
C1I070,和社,2014-07-05,23.591131,120.888861,0.00047788917
C2F000,大肚,2014-07-05,24.15295,120.572117,0.11701521
C1S850,豐南,2014-07-05,23.122139,121.262389,0.8714279
C2A920,富貴角,2014-07-05,25.263783,121.565258,0.007413144
CAH030,茶改場竹圍站,2014-07-05,23.860083,120.637528,0.015008228
C0T960,光復,2014-07-05,23.660694,121.424964,0.99268365
C0F9M0,豐原,2014-07-05,24.254322,120.720692,0.00726729
C0R720,旭海,2014-07-05,22.205403,120.887614,0.112148896
C0V710,苓雅,2014-07-05,22.622742,120.330669,0.92972344
C0C740,觀音工業區,2014-07-05,25.064764,121.114856,0.008227098
CAC040,拉拉山,2014-07-05,24.699317,121.427133,1.4611706e-08
C0V790,萬山,2014-07-05,22.905944,120.688056,0.5335087
U2HA30,臺大和社,2014-07-05,23.590856,120.888864,0.00047788917
C0AJ90,澳底,2014-07-05,25.0552,121.9253,0.06649266
C0Z100,東華,2014-07-05,23.89525,121.549833,0.110685825
C0G970,三豐,2014-07-05,23.882,120.2895,0.0009239519
V2K610,大庄合作社,2014-07-05,23.8068,120.367939,0.004304222
C0V900,汕尾,2014-07-05,22.4782,120.4151,0.9424566
C1R630,龍泉,2014-07-05,22.66701,120.59091,0.84111404
C1AC50,關渡,2014-07-05,25.133486,121.469331,0.0023750835
C0F9I0,神岡,2014-07-05,24.272481,120.658314,0.0072412053
C0K460,斗南,2014-07-05,23.678734,120.478359,0.3274249
467410,臺南,2014-07-05,22.993239,120.204772,0.15432078
C2O810,曾文,2014-07-05,23.219681,120.497328,0.053923976
467280,後龍,2014-07-05,24.648563,120.831834,0.009778284
C1F9J1,清水林,2014-07-05,24.071242,120.820419,0.004535884
C2A650,火燒寮,2014-07-05,25.002719,121.742892,0.7120029
466930,竹子湖,2014-07-05,25.162078,121.544547,0.008113008
C1I220,樟湖,2014-07-05,23.905333,120.846983,5.243333e-08
C0I390,仁愛,2014-07-05,24.022122,121.132206,4.9917713e-07
C0Z300,東里,2014-07-05,23.26853,121.30547,0.97063553
C1V590,新發,2014-07-05,23.057019,120.646064,0.23440473
C0K510,水林,2014-07-05,23.572924,120.24597,0.014233461
72S590,東改賓朗果園,2014-07-05,22.813889,121.071278,0.11315113
82A750,茶改北部分場,2014-07-05,24.955778,121.631222,0.9638425
C1A750,石碇服務區,2014-07-05,25.00872,121.646242,0.0046363478
C0X300,鹿寮,2014-07-05,23.386047,120.477331,0.027128879
G2AI50,關渡,2014-07-05,25.11575,121.492,0.012058352
C0K590,雲林東勢,2014-07-05,23.674192,120.255721,0.03589606
C0A570,桶後,2014-07-05,24.848222,121.597992,0.5151313
C1S800,華源,2014-07-05,22.657883,121.02325,0.22210251
C0G720,溪州,2014-07-05,23.851589,120.499093,0.033332955
C1V160,達卡努瓦,2014-07-05,23.279811,120.705319,9.652559e-06
C2M410,馬頭山,2014-07-05,23.324361,120.582017,0.097085595
C0V850,蚵仔寮,2014-07-05,22.7256,120.2527,0.41701564
C0S740,池上,2014-07-05,23.119628,121.209469,0.9989204
C1V390,尖山,2014-07-05,22.813153,120.367789,0.93757564
C0AH70,松山,2014-07-05,25.04871,121.55042,0.007436633
C0N010,鯤鯓國小,2014-07-05,23.1879,120.0889,0.004314928
C0R550,新埤,2014-07-05,22.467947,120.582894,0.580375
C0SA60,知本（水試所）,2014-07-05,22.702394,121.082761,0.093969375
C0T9I0,豐濱,2014-07-05,23.583897,121.514806,0.99893075
C0UB00,淡江大學蘭陽校園,2014-07-05,24.823239,121.730383,0.9349637
C0W240,九宮,2014-07-05,24.423753,118.240186,0.9884865
C0T9N0,富里,2014-07-05,23.171639,121.249378,0.95280904
U2HA50,臺大竹山,2014-07-05,23.756972,120.681556,0.027761156
C0V840,鳳鼻頭,2014-07-05,22.5083,120.3591,0.9341067
C0X140,西港,2014-07-05,23.125608,120.203108,0.037518874
72D080,桃改五峰分場,2014-07-05,24.612194,121.157167,1.518899e-08
C2H9P0,伊拿谷,2014-07-05,23.963211,121.088264,3.9594006e-06
C2H9F0,柑林,2014-07-05,24.018658,120.847072,0.13564652
C0TA20,加灣,2014-07-05,24.082025,121.608944,0.40715936
C0V530,阿蓮,2014-07-05,22.883208,120.327508,0.8822985
C1O880,關山,2014-07-05,23.173397,120.594092,0.15669334
C0E791,卓蘭,2014-07-05,24.3126,120.8244,0.22051859
C1I030,武界,2014-07-05,23.913225,121.052483,2.525452e-05
C0R520,崁頂,2014-07-05,22.514781,120.506914,0.9739036
C0R341,牡丹,2014-07-05,22.130036,120.792639,0.9329865
C0R930,萬丹,2014-07-05,22.5885,120.4851,0.5514695
C0S760,紅石,2014-07-05,23.069131,121.126219,6.740346e-08
C1M610,石磐龍,2014-07-05,23.496606,120.663506,7.7659945e-07
C0UA10,鴛鴦湖,2014-07-05,24.590269,121.412228,2.938221e-08
V2C260,八德蔬果,2014-07-05,24.978508,121.281819,0.032410055
C0R800,丹路,2014-07-05,22.204481,120.750989,0.6225336
C0G920,永靖,2014-07-05,23.924703,120.547533,0.0018518092
C2M950,太和,2014-07-05,23.538372,120.702961,2.8221262e-08
C1A630,下盆,2014-07-05,24.771003,121.538622,0.9953743
B2N890,畜產試驗所,2014-07-05,23.058972,120.336406,0.95291984
C0UA30,白嶺,2014-07-05,24.527819,121.519031,3.5069027e-06
C1V580,溪南(特生中心),2014-07-05,23.084972,120.788475,2.3225514e-08
C1T970,大農,2014-07-05,23.615233,121.413331,0.9983834
E2S960,林試太麻里2,2014-07-05,22.598014,120.989761,0.9761735
C0R650,竹田,2014-07-05,22.58486,120.54344,0.5514695
C1H900,清流,2014-07-05,24.080775,120.962997,0.0018143489
C1C510,水尾,2014-07-05,24.940081,121.087161,0.061044455
C0F9X0,大雅(中科園區),2014-07-05,24.21528,120.62445,0.0004241378
C0SB60,白守蓮,2014-07-05,23.126769,121.401914,0.052040517
C0O970,虎頭埤,2014-07-05,23.021375,120.347878,0.4515222
C0C730,中大臨海站,2014-07-05,24.966126,121.008581,0.06121657
C0X250,新營,2014-07-05,23.310689,120.316681,0.7643404
C0V700,三民,2014-07-05,22.645017,120.311233,0.92972344
C0U870,大礁溪,2014-07-05,24.791042,121.675047,0.9216081
C0E870,高鐵苗栗,2014-07-05,24.60725,120.826094,0.0005905182
A2K570,古坑花卉中心,2014-07-05,23.63353,120.55239,0.22197206
C0M860,新美,2014-07-05,23.338017,120.683169,0.08702504
C1E701,八卦,2014-07-05,24.491756,120.927619,0.26881614
C0I420,國姓,2014-07-05,24.037803,120.855072,0.33420822
C2D720,關西工作站,2014-07-05,24.757275,121.184792,0.15238892
C0S960,香蘭,2014-07-05,22.587569,120.993375,0.97611946
C0R260,春日,2014-07-05,22.370361,120.628306,0.009467201
72G600,臺中農改場,2014-07-05,24.003028,120.534389,0.0012889077
C0Z210,瑞穗,2014-07-05,23.5239,121.39021,0.9983601
C0M820,達邦,2014-07-05,23.453994,120.749517,1.5869542e-05
C0V860,南寮,2014-07-05,22.7616,120.2339,0.4834076
C0G740,大城,2014-07-05,23.852487,120.320935,0.0009329378
C0R920,塭仔,2014-07-05,22.4169,120.5197,0.9749843
C0R470,高樹,2014-07-05,22.826389,120.600806,0.73842657
C0R680,佳樂水,2014-07-05,21.993578,120.861633,0.0045976196
C1O870,大棟山,2014-07-05,23.31157,120.52226,2.3824457e-08
C0D360,梅花,2014-07-05,24.678347,121.208558,0.9350757
C0Z190,富世,2014-07-05,24.14743,121.6297,0.92322737
C0AI10,屈尺,2014-07-05,24.92184,121.54475,0.0053407988
B2U990,畜試東區分所,2014-07-05,24.669039,121.832561,0.004761925
C0SB80,長濱漁港,2014-07-05,23.313644,121.459994,0.9851782
C0R240,來義,2014-07-05,22.527306,120.625111,0.012138093
C0V910,大樹,2014-07-05,22.684645,120.432803,0.950168
C1R610,西大武山,2014-07-05,22.617719,120.7322,2.8791587e-09
C0G900,線西,2014-07-05,24.143358,120.443536,0.00033398677
C0M700,竹崎,2014-07-05,23.526178,120.555508,0.16018254
C2E880,三義,2014-07-05,24.405478,120.749819,0.011941104
C0C720,竹圍,2014-07-05,25.112692,121.239824,0.0035152815
C0F9P0,清水,2014-07-05,24.312297,120.562242,0.00020302997
C0Z150,吉安光華,2014-07-05,23.930925,121.595153,0.05052109
C1D640,外坪(五指山),2014-07-05,24.644447,121.090961,0.00042778844
C0F9O0,潭子,2014-07-05,24.213106,120.703933,0.0025905888
C2H9R0,卓社,2014-07-05,23.887894,121.000086,3.1730746e-08
72T250,花蓮農改場,2014-07-05,23.975222,121.563889,0.4736189
C0E780,銅鑼,2014-07-05,24.489681,120.790853,0.017002484
C1T950,太安,2014-07-05,23.666719,121.370128,1.1908329e-05
C0E830,苑裡,2014-07-05,24.439714,120.653053,0.0001866444
467270,田中,2014-07-05,23.873803,120.581286,0.122306764
C0SA10,檳榔四格山,2014-07-05,22.810031,121.109308,0.10343409
C1T830,布洛灣,2014-07-05,24.17184,121.57127,0.999307
C0F970,大坑,2014-07-05,24.173142,120.722289,0.0009413613
C1U920,思源,2014-07-05,24.393125,121.347214,2.3230786e-08
C0A931,三和,2014-07-05,25.233153,121.595236,0.5043907
C0I010,廬山,2014-07-05,24.033311,121.181808,1.04219644e-07
C2M940,日野賀,2014-07-05,23.434056,120.727169,3.496543e-07
C0R860,鼻頭,2014-07-05,22.1043,120.8979,0.0045945635
C0UB20,壯圍,2014-07-05,24.7359,121.8163,0.004757098
C0R790,九棚,2014-07-05,22.14195,120.889281,0.079031475
C0W110,東莒,2014-07-05,25.9652,119.98069,0.9997449
C1U930,粉鳥林,2014-07-05,24.497088,121.842479,0.3483761
C1I211,蘆竹湳,2014-07-05,23.934019,120.811994,1.2318717e-05
C0S830,長濱,2014-07-05,23.286817,121.411975,0.86258286
C1F9F1,伯公龍,2014-07-05,24.272392,120.849047,0.030502655
C0E810,西湖,2014-07-05,24.562947,120.7485,0.000584789
C1I440,新高口,2014-07-05,23.478744,120.878939,8.668732e-09
C0O840,王爺宮,2014-07-05,23.222064,120.40085,0.053923976
C0T9G0,鳳林山,2014-07-05,23.735269,121.420131,0.9996627
C0X080,佳里,2014-07-05,23.173039,120.145086,0.054375887
C0FB70,大甲溪埔,2014-07-05,24.370625,120.620067,0.0001864596
C0Z310,清水斷崖,2014-07-05,24.218294,121.689142,0.92331505
C0M680,太保,2014-07-05,23.455062,120.331455,0.45445785
C1S820,金峰,2014-07-05,22.590969,120.933236,0.41457778
C0AD10,八里,2014-07-05,25.150211,121.403947,0.0035152815
C2K240,草嶺,2014-07-05,23.59555,120.693461,1.509195e-07
C1SA70,都蘭,2014-07-05,22.87794,121.226881,0.97301686
C0K440,二崙,2014-07-05,23.772797,120.408944,0.07970115
C1A760,坪林交控,2014-07-05,24.94284,121.713442,0.5507556
C0F9N0,大里,2014-07-05,24.092464,120.701378,0.00033906268
C0SA90,達仁林場,2014-07-05,22.264347,120.823972,0.0003580084
C1R290,石門山,2014-07-05,22.112611,120.756597,3.5148758e-05
42HA10,萬大發電廠,2014-07-05,23.978875,121.139639,8.928926e-06
C0R890,山海,2014-07-05,21.9878,120.7091,0.0037042124
C0T9A0,月眉山,2014-07-05,23.809928,121.539828,0.9918481
C0AC70,信義,2014-07-05,25.037822,121.564597,0.007436633
C0K560,棋山,2014-07-05,23.68645,120.603417,0.06451623
C2FB50,出雲,2014-07-05,24.206469,120.902794,7.21394e-06
C1Z240,中平林道,2014-07-05,23.42115,121.26763,0.0057690716
U2H480,溪頭,2014-07-05,23.670306,120.798194,7.08779e-07
C0M880,好美里,2014-07-05,23.3364,120.138,0.054375887
C0T9E0,大坑,2014-07-05,23.880628,121.581981,0.9475314
C0K530,臺西,2014-07-05,23.701547,120.197559,0.0014293764
C1E900,國一N128K,2014-07-05,24.560997,120.844186,0.0005909081
C0AJ50,水湳洞,2014-07-05,25.123695,121.862238,0.027814057
C0AI20,白沙灣,2014-07-05,25.283128,121.519058,0.0041767624
C0A860,大坪,2014-07-05,25.165914,121.632969,0.66338617
C1U850,觀音海岸,2014-07-05,24.38319,121.77856,0.99855363
C2K610,草嶺石壁,2014-07-05,23.602469,120.707731,3.2058094e-07
C0U950,鶯子嶺,2014-07-05,24.89754,121.79244,1.9118452e-05
C0O900,善化,2014-07-05,23.112883,120.297219,0.9492001
C0K550,蔦松,2014-07-05,23.514319,120.229736,0.014120137
E2P980,林試六龜中心,2014-07-05,22.991703,120.645722,0.8223372
C0E590,通霄,2014-07-05,24.471892,120.704622,0.0002545631
C1I310,西巒,2014-07-05,23.754486,120.883956,5.421379e-07
C0A550,泰平,2014-07-05,24.971197,121.823711,0.98853505
C0I360,水里,2014-07-05,23.812553,120.849792,0.039480884
C0R830,高士,2014-07-05,22.121825,120.836781,5.951398e-06
C1I101,溪頭,2014-07-05,23.661789,120.807647,3.381001e-08
C0AJ20,野柳,2014-07-05,25.20703,121.690021,0.027814057
C0B060,暖暖,2014-07-05,25.0957,121.7403,0.103052065
C1H920,長豐,2014-07-05,24.102039,120.879897,0.0026759123
C0V360,內門,2014-07-05,22.975481,120.466769,0.5940659
C0R850,林邊,2014-07-05,22.4634,120.5339,0.9739036
C0E930,龍鳳,2014-07-05,24.700034,120.859125,0.008698037
C0U910,冬山,2014-07-05,24.63373,121.7937,0.0047619273
C1E721,泰安,2014-07-05,24.489017,120.968036,6.676727e-08
82H320,茶改中部分場,2014-07-05,23.875611,120.913583,6.172308e-07
C0M750,布袋,2014-07-05,23.380878,120.167789,0.018241853
C1S860,利嘉,2014-07-05,22.809417,121.050528,0.6568322
72C440,桃園農改,2014-07-05,24.950944,121.030583,0.06912028
E2S980,林試太麻里1,2014-07-05,22.598922,120.980044,0.9274004
C0X170,關廟,2014-07-05,22.963017,120.327797,0.93610275
C0V720,林園,2014-07-05,22.507747,120.394511,0.9302316
C1I510,線浸林道,2014-07-05,23.761508,120.832956,1.1363161e-07
C0D690,外湖,2014-07-05,24.917735,120.968711,0.061077427
C0C750,新興坑尾,2014-07-05,25.0061,121.0971,0.0110620195
B2Q810,畜試南區分所,2014-07-05,21.945583,120.802167,0.004600613
C0S790,金崙,2014-07-05,22.538122,120.966875,0.19026126
C0AH90,福山植物園,2014-07-05,24.760717,121.58135,0.012753507
C0I540,奇萊稜線,2014-07-05,24.109231,121.326456,7.54422e-09
C0M850,表湖,2014-07-05,23.24186,120.64166,0.0063149724
C0S770,大溪山,2014-07-05,22.478475,120.943325,0.00042748632
C0AG80,中和,2014-07-05,24.991622,121.491792,0.007436633
C0T790,大禹嶺,2014-07-05,24.186117,121.316086,7.330961e-09
C0T9B0,水源,2014-07-05,23.991861,121.537169,0.99565995
C0R840,牡丹池山,2014-07-05,22.168389,120.841225,0.0004899038
C1I131,桶頭,2014-07-05,23.641944,120.654117,0.08257556
CAL110,布袋國中,2014-07-05,23.35893,120.18026,0.26784503
467571,新竹,2014-07-05,24.827853,121.014219,0.054103404
C0Z290,赤柯山,2014-07-05,23.36893,121.38293,0.26416025
C0X280,將軍,2014-07-05,23.214999,120.13577,0.054375887
C0S690,太麻里,2014-07-05,22.60902,120.98533,0.00031628794
C0U880,北關,2014-07-05,24.9072,121.8734,0.0071222414
C1H860,瑞岩,2014-07-05,24.123772,121.18345,1.5781614e-08
C0G810,埔心,2014-07-05,23.947633,120.525456,0.001892216
C0U970,大福,2014-07-05,24.80064,121.81389,0.0724283
C2H9N0,仁愛東眼,2014-07-05,24.026875,121.1205,4.4167865e-07
C1E670,南礦,2014-07-05,24.538278,121.002836,1.3403641e-07
C0M520,東後寮,2014-07-05,23.369908,120.248065,0.25926334
C1E461,松安,2014-07-05,24.397972,120.986022,3.594132e-07
72G600,臺中農改,2014-07-05,24.003028,120.534389,0.0012889077
C2N160,西拉雅風管處,2014-07-05,23.189481,120.335297,0.4107376
C2M970,碧湖,2014-07-05,23.568632,120.624165,1.6884749e-06
C0A640,石碇,2014-07-05,24.993969,121.662917,0.510272
E2S960,林試太麻里2,2014-07-05,22.598,120.99775,0.97735786
C0F9Y0,桃山,2014-07-05,24.432739,121.303808,8.748411e-09
C1I020,萬大,2014-07-05,23.979817,121.132261,3.967842e-07
C0U940,羅東,2014-07-05,24.68184,121.74934,0.0046301116
C0M650,朴子,2014-07-05,23.43463,120.23902,0.017931372
C1I500,大尖山,2014-07-05,23.858572,120.994889,2.1771294e-08
C0G820,田尾,2014-07-05,23.901669,120.509389,0.0018518092
E2K600,四湖植物園,2014-07-05,23.676986,120.163433,0.0014293764
C0S730,綠島,2014-07-05,22.6672,121.47533,0.046678986
12Q970,東港工作站,2014-07-05,22.479997,120.466058,0.97265446
C0E430,南庄,2014-07-05,24.601775,121.000214,0.025501959
C1TA00,太魯閣,2014-07-05,24.15773,121.6236,0.90854967
466920,臺北,2014-07-05,25.037658,121.514853,0.007436633
C0R600,舊泰武,2014-07-05,22.588194,120.664944,0.07637717
C1I260,北坑,2014-07-05,23.9246,121.006903,0.002175313
466910,鞍部,2014-07-05,25.182586,121.529731,1.1450016e-06
C1I230,九份二山,2014-07-05,23.961944,120.845,1.1462316e-05
C2A660,瑞芳,2014-07-05,25.113169,121.801147,0.10252899
C0R270,琉球嶼,2014-07-05,22.332244,120.362236,0.009467201
C1T990,高寮,2014-07-05,23.394239,121.356808,0.6372983
C0G620,芬園,2014-07-05,24.015678,120.6213,0.0025430033
C1Z140,荖溪,2014-07-05,23.890575,121.45964,8.514449e-06
C1I201,中心崙,2014-07-05,23.728722,120.712097,0.0016351289
C1I400,凌霄,2014-07-05,24.018778,121.004456,7.684681e-07
C1M640,十字,2014-07-05,23.492153,120.753683,7.570501e-08
G2P820,農試鳳山分所,2014-07-05,22.646611,120.356083,0.9356724
C0Z270,蕃薯寮,2014-07-05,23.73835,121.540108,0.9943035
C0F9Q0,外埔,2014-07-05,24.347817,120.705686,0.006116804
C0K580,高鐵雲林,2014-07-05,23.737456,120.417944,0.36942488
C2I090,鳳凰,2014-07-05,23.728081,120.787347,2.930258e-07
C0U990,員山,2014-07-05,24.74435,121.72247,0.0046301116
C0V770,大社,2014-07-05,22.730306,120.346639,0.4598449
C0X120,麻豆,2014-07-05,23.183289,120.248611,0.056255292
C0C670,龍潭,2014-07-05,24.870056,121.221389,0.0020969803
C0D680,香山濕地,2014-07-05,24.783581,120.914988,0.06992845
C0S980,勝林山,2014-07-05,22.430439,120.8938,0.00030595303
C0V730,大寮,2014-07-05,22.605614,120.395717,0.13122487
C0R570,麟洛,2014-07-05,22.65078,120.52719,0.9118639
C2M930,石卓,2014-07-05,23.478744,120.702264,9.218374e-08
C0G9B0,和美,2014-07-05,24.105169,120.492131,0.0007134478
CAG100,王功漁港,2014-07-05,23.96824,120.32586,0.00075749366
C0X290,北門,2014-07-05,23.267772,120.125481,0.054375887
C2F930,大甲,2014-07-05,24.347667,120.640403,0.00018946288
C0D650,湖口,2014-07-05,24.904794,121.043628,0.09115975
C0E420,竹南,2014-07-05,24.708978,120.888897,0.07918054
C0U780,五結,2014-07-05,24.68637,121.79794,0.0047619273
C1I250,鯉潭,2014-07-05,23.961922,120.991131,0.0026759123
C0R130,阿禮,2014-07-05,22.742908,120.743678,5.7670445e-07
C0X100,臺南市北區,2014-07-05,23.010394,120.194228,0.11734647
C0S920,金峰嘉蘭,2014-07-05,22.594789,120.960825,0.90668905
C0V490,新興,2014-07-05,22.627422,120.298803,0.9302316
C0F9K0,大安,2014-07-05,24.345061,120.588025,0.0002001348
72N100,臺南農改,2014-07-05,23.0605,120.342194,0.95291984
467290,古坑,2014-07-05,23.633639,120.551889,0.22197191
C2E970,八甲,2014-07-05,24.535811,120.795983,0.019921647
C0V440,鳳山,2014-07-05,22.646653,120.356122,0.9356724
C1T940,大觀,2014-07-05,23.714206,121.373133,0.99969816
72T250,花蓮農改,2014-07-05,23.975222,121.563889,0.4736189
C0E740,造橋,2014-07-05,24.637056,120.864778,0.00939951
C0R100,尾寮山,2014-07-05,22.833111,120.683889,9.207898e-07
A2K630,臺大雲林校區,2014-07-05,23.730628,120.423903,0.36942488
C0D580,寶山,2014-07-05,24.735006,121.025192,0.10189543
E2P990,林試扇平站,2014-07-05,22.9677,120.6857,0.6540461
C0AI30,三重,2014-07-05,25.057328,121.500629,0.011163073
C0AH00,汐止,2014-07-05,25.066881,121.658778,0.027814057
C1Z040,立山,2014-07-05,23.443356,121.327375,0.99975187
C0W130,花嶼,2014-07-05,23.40007,119.32276,0.99982494
C0A950,鼻頭角,2014-07-05,25.129036,121.923372,0.06524492
C0K470,林內,2014-07-05,23.748675,120.609642,0.16196957
C2F990,摩天嶺,2014-07-05,24.322458,120.936819,2.7686395e-08
82C160,茶改場,2014-07-05,24.908472,121.185333,0.107879326
C0Z320,清水林道,2014-07-05,23.27125,121.188272,0.053903777
C0R760,南仁湖,2014-07-05,22.084681,120.863353,2.6231686e-05
C0M670,大林,2014-07-05,23.600616,120.45841,0.006013276
C0M800,茶山,2014-07-05,23.299075,120.664767,0.35103258
C0A9C0,天母,2014-07-05,25.117494,121.537169,0.0077933026
72K220,南改斗南分場,2014-07-05,23.634556,120.477333,0.19531119
72AI40,桃改樹林分場,2014-07-05,24.944503,121.386972,0.0074220826
C0S910,蘭嶼燈塔,2014-07-05,22.081197,121.503117,0.0016192319
C0B050,八斗子,2014-07-05,25.144754,121.79167,0.019865716
C0U900,內城,2014-07-05,24.71813,121.68766,0.077466734
C0X320,柳營,2014-07-05,23.253328,120.375253,0.19310412
C0M790,新港,2014-07-05,23.553269,120.345728,0.33056507
C0F9T0,西屯,2014-07-05,24.179494,120.641275,0.00024103762
C0SA30,都歷,2014-07-05,23.020333,121.323642,0.046723694
C0C620,蘆竹,2014-07-05,25.084275,121.265767,0.0032500562
C0R730,大坪頂,2014-07-05,22.024633,120.69355,0.0042390865
C0AJ40,石門,2014-07-05,25.273672,121.601198,0.006369109
C0E750,苗栗,2014-07-05,24.564569,120.824575,0.00058763596
C0T870,鯉魚潭,2014-07-05,23.935639,121.508944,0.9547522
C1V170,排雲,2014-07-05,23.463619,120.954147,1.2961263e-08
C2H950,中寮,2014-07-05,23.884447,120.766406,0.013994235
C0R350,貓鼻頭,2014-07-05,21.921774,120.7358,0.005562065
C0V660,岡山,2014-07-05,22.797078,120.294958,0.81388223
C1H941,雙冬,2014-07-05,23.967378,120.802189,0.0014516687
C0AJ70,田寮,2014-07-05,25.2698,121.4886,0.0039558886
C0AI00,五股,2014-07-05,25.07445,121.42728,0.017646117
C0Z280,德武,2014-07-05,23.47426,121.41071,0.9625036
C0R700,枋山,2014-07-05,22.246844,120.661086,0.025169186
C0C460,復興,2014-07-05,24.820208,121.352281,0.9051602
E2H360,蓮華池,2014-07-05,23.918333,120.885278,5.711883e-06
C0M640,中埔,2014-07-05,23.42538,120.5229,0.160506
C0W140,金沙,2014-07-05,24.488292,118.408778,0.2936665
C2A540,四堵,2014-07-05,24.8926,121.745736,0.6560533
C0ACA0,新莊,2014-07-05,25.051478,121.446756,0.005343218
C0R220,潮州,2014-07-05,22.534361,120.54,0.588177
U2HA40,臺大內茅埔,2014-07-05,23.689722,120.851117,0.0005837143
467490,臺中,2014-07-05,24.145736,120.684075,0.0012313765
C0U960,翠峰湖,2014-07-05,24.510856,121.608044,2.1112694e-08
E2HA20,林試畢祿溪站,2014-07-05,24.226944,121.308522,4.444384e-09
C0V890,前鎮,2014-07-05,22.5718,120.3117,0.9341067
467620,蘭嶼,2014-07-05,22.036969,121.558339,4.3695894e-05
C1F941,雪嶺,2014-07-05,24.280586,121.026642,5.3426477e-09
C2H9E0,國姓南港,2014-07-05,23.911108,120.846556,4.066157e-08
C0AC80,文山,2014-07-05,25.00235,121.575728,0.0053266645
C0F9R0,龍井,2014-07-05,24.184536,120.528972,0.00024745174
C0M760,民雄,2014-07-05,23.551754,120.428457,0.016842578
C0UA40,西德山,2014-07-05,24.560647,121.752608,7.153216e-06
C1T920,中興,2014-07-05,23.769503,121.498653,0.46105468
C0D550,雪霸,2014-07-05,24.526972,121.11605,6.8071513e-09
C2F860,梨山,2014-07-05,24.247522,121.243669,4.400488e-09
C0R320,車城,2014-07-05,22.0744,120.716247,0.0037042124
C1S870,南美山,2014-07-05,23.15025,121.382333,0.05275155
C0B020,基隆嶼,2014-07-05,25.19141,121.78391,0.027814057
C1U501,牛鬥,2014-07-05,24.637836,121.573656,0.7135707
C0M730,嘉義市東區,2014-07-05,23.457673,120.460531,0.020205606
C0S700,知本,2014-07-05,22.684866,121.005642,0.0008101762
C1N001,沙崙,2014-07-05,22.935472,120.309406,0.8822985
C0V760,橋頭,2014-07-05,22.757806,120.30575,0.83964425
C0G960,福寶,2014-07-05,24.0443,120.3814,0.0007562372
C0X210,白河,2014-07-05,23.347466,120.414427,0.21502507
C0S810,東河,2014-07-05,22.972672,121.303986,0.96653575
C2R170,屏東,2014-07-05,22.66027,120.49403,0.9175037
C0R670,楓港,2014-07-05,22.190131,120.692156,0.025169186
C0FA50,霧峰,2014-07-05,24.0419,120.6995,0.0005890235
C0UB10,蘇澳,2014-07-05,24.5969,121.8571,0.019787578
C0G950,防潮門,2014-07-05,24.1835,120.4871,0.0002480018
C0M740,六腳,2014-07-05,23.492871,120.290625,0.47262782
C1R250,力里,2014-07-05,22.428117,120.629228,0.012138093
C0K330,虎尾,2014-07-05,23.719183,120.442036,0.3686009
C2FA00,烏石坑,2014-07-05,24.273503,120.947617,3.14092e-08
C0V620,永安,2014-07-05,22.82315,120.236856,0.4924561
C1I330,楓樹林,2014-07-05,23.986803,121.076117,4.7691852e-08
C0W200,湖西,2014-07-05,23.596314,119.67275,0.99953717
72Q010,高雄農改場,2014-07-05,22.709333,120.525889,0.9069387
C0SA40,瑞和,2014-07-05,22.974361,121.156697,0.047606066
C0C680,龜山,2014-07-05,25.02846,121.38656,0.9866487
C2V260,月眉,2014-07-05,22.971003,120.539853,0.60134876
C0V450,鳳森,2014-07-05,22.545064,120.392592,0.18635379
C0U720,南山,2014-07-05,24.43742,121.38167,0.064778745
A2N290,臺南蘭花園區,2014-07-05,23.340258,120.379661,0.19310412
C0R560,新園,2014-07-05,22.5434,120.461558,0.9739036
C0U890,三星,2014-07-05,24.66812,121.65302,0.10468561
C1V300,御油山,2014-07-05,23.001983,120.715364,2.7794863e-08
C0U600,礁溪,2014-07-05,24.817539,121.765608,0.07323513
C1T980,龍澗,2014-07-05,24.023289,121.411328,8.7148734e-08
C0D670,海天一線,2014-07-05,24.831986,120.914438,0.06872487
C0SA00,歷坵,2014-07-05,22.520969,120.89185,7.0002294e-05
C0M710,東石,2014-07-05,23.458927,120.15385,0.014120137
C0M780,鹿草,2014-07-05,23.41134,120.30835,0.16861609
C0U520,雙連埤,2014-07-05,24.753033,121.641303,0.9247992
C0B010,七堵,2014-07-05,25.094819,121.71713,0.0416551
C0R480,長治,2014-07-05,22.693128,120.542622,0.6666593
C1V830,國三S383K,2014-07-05,22.781967,120.426475,0.50624335
12Q980,恆春工作站,2014-07-05,22.079678,120.714425,0.0037042124
C1O940,東山服務區,2014-07-05,23.286016,120.398472,0.23009399
C1U840,東澳嶺,2014-07-05,24.5378,121.8485,0.9988404
C1D630,飛鳳山,2014-07-05,24.766464,121.119178,6.9673183e-06
C0S940,石寧山,2014-07-05,23.223772,121.406639,0.9507954
C0K410,北港,2014-07-05,23.573957,120.292802,0.32364416
C2M620,瑞里,2014-07-05,23.545133,120.675197,7.226772e-08
C0SB70,小港漁港,2014-07-05,23.158558,121.400431,0.98332834
C2O950,安南,2014-07-05,23.076694,120.144861,0.021691544
C0F0E0,南湖圈谷,2014-07-05,24.363714,121.444667,1.7214433e-08
467610,成功,2014-07-05,23.097486,121.373428,0.047963955
C0G890,伸港,2014-07-05,24.148933,120.484403,0.0003150967
C2E540,龍溪,2014-07-05,24.606489,120.783933,0.00060471345
C1V200,梅山,2014-07-05,23.268447,120.823556,0.013086677
C0T9H0,加路蘭山,2014-07-05,23.682947,121.5274,0.9991564
C2O930,玉井,2014-07-05,23.126042,120.46055,0.09932673
C1F911,新伯公,2014-07-05,24.221361,120.841069,0.05483869
C0R490,九如,2014-07-05,22.7405,120.490503,0.9118639
C0X200,左鎮,2014-07-05,23.056758,120.408522,0.57834345
C0SB50,叭嗡嗡,2014-07-05,23.047062,121.343223,0.94272476
C1F891,稍來,2014-07-05,24.265689,121.001142,6.1058376e-09
72N240,七股研究中心,2014-07-05,23.081672,120.062894,0.016578937
C0C700,中壢,2014-07-05,24.977661,121.256375,0.030269848
C0M690,水上,2014-07-05,23.419734,120.388909,0.004665552
C0V690,鼓山,2014-07-05,22.623325,120.275575,0.9351411
C0O860,大內,2014-07-05,23.11885,120.36083,0.9079564
C0Z200,萬榮,2014-07-05,23.709219,121.420106,0.9547522
C0T9D0,和中,2014-07-05,24.26676,121.74103,0.76540625
C1O921,楠西,2014-07-05,23.183511,120.484083,0.075537875
C0AJ30,淡水觀海,2014-07-05,25.184591,121.408616,0.0036616502
C0V810,左營,2014-07-05,22.67491,120.28491,0.42195708
C0UA70,桃源谷,2014-07-05,24.962606,121.888875,0.99925464
C0X130,官田,2014-07-05,23.193217,120.315422,0.4229958
C1H000,翠峰,2014-07-05,24.109397,121.205211,5.7505387e-09
C0UA90,石城,2014-07-05,24.980444,121.951214,0.07888262
C1E681,南勢山,2014-07-05,24.421669,120.923831,2.4478481e-07
C0A9F0,內湖,2014-07-05,25.079422,121.57545,0.007436633
C0K291,宜梧,2014-07-05,23.536281,120.169329,0.0144281555
C1K540,口湖,2014-07-05,23.585344,120.180517,0.013417565
C0R780,滿州,2014-07-05,22.024403,120.839892,0.0057709147
C0V870,文安,2014-07-05,22.8025,120.2164,0.4834076
C0U650,玉蘭,2014-07-05,24.675286,121.587061,0.99797976
C0R640,東港,2014-07-05,22.46247,120.44074,0.9341067
K2E360,苗栗農改,2014-07-05,24.495722,120.829111,0.009674085
C0AJ80,板橋,2014-07-05,25.0107,121.4489,0.008425975
C0S660,下馬,2014-07-05,23.150427,121.070312,0.9958386
C1H9B1,阿眉,2014-07-05,24.1263,120.994672,1.09551275e-08
C0UA20,多加屯,2014-07-05,24.368614,121.373189,7.648189e-09
C0E730,頭份,2014-07-05,24.688247,120.912206,0.07768953
72V140,高改旗南分場,2014-07-05,22.857861,120.516667,0.63409114
C0K480,莿桐,2014-07-05,23.761192,120.502372,0.27355787
C0U980,坪林石牌,2014-07-05,24.86478,121.77396,0.9995543
C0T900,西林,2014-07-05,23.8119,121.441458,0.9885415
C1I150,青雲,2014-07-05,23.793361,120.949378,0.00042054997
467350,澎湖,2014-07-05,23.565503,119.563094,0.99986684
C0G800,埔鹽,2014-07-05,24.000394,120.431683,0.00073800934
C0H960,草屯,2014-07-05,23.973672,120.68085,0.06904588
C1V780,多納林道,2014-07-05,22.888028,120.737917,3.4096453e-07
C0E920,通霄漁港,2014-07-05,24.498589,120.673876,0.0002512414
C0Z330,安通山,2014-07-05,23.290728,121.348528,0.8913837
C0AH10,永和,2014-07-05,25.01125,121.508111,0.0087327985
C0AK10,太平里,2014-07-05,25.134937,121.364899,0.005343218
C2G640,鹿港,2014-07-05,24.0753,120.430481,0.00073800934
C1E890,國三N149K,2014-07-05,24.463414,120.680019,0.00027862273
C1R110,口社,2014-07-05,22.770111,120.645222,0.7810307
C1M870,國三N285K,2014-07-05,23.550319,120.505833,0.14875245
467050,新屋,2014-07-05,25.006744,121.047486,0.06440156
C1E480,鳳美,2014-07-05,24.554803,121.034747,0.013377
C0M530,奮起湖,2014-07-05,23.493903,120.699253,2.6401416e-08
C0C590,觀音,2014-07-05,25.027072,121.153317,0.0046476945
C0T9M0,靜浦,2014-07-05,23.455167,121.495028,0.99571234
C2H9M0,發祥,2014-07-05,24.154094,121.164517,2.1840737e-07
C0AI40,石牌,2014-07-05,25.115597,121.513139,0.008425975
C1F871,上谷關,2014-07-05,24.203483,121.018644,3.14092e-08
C2H9G0,百勝,2014-07-05,24.051142,120.909361,0.01270915
C0G880,二水,2014-07-05,23.810742,120.6173,0.11928243
C0R940,加祿堂,2014-07-05,22.3363,120.6217,0.008113165
C0W220,北竿,2014-07-05,26.220358,119.974881,0.96473783
C0O960,崎頂,2014-07-05,22.959547,120.369317,0.59056324
C0S750,向陽,2014-07-05,23.248397,120.986133,8.895387e-09
C0T9F0,水璉,2014-07-05,23.797131,121.542514,0.9986786
C1M600,頭凍,2014-07-05,23.406364,120.603339,0.00017952404
467660,臺東,2014-07-05,22.752211,121.154586,0.74263215
C1D380,新埔,2014-07-05,24.84745,121.03834,0.075746186
C2G980,田頭村,2014-07-05,23.8263,120.444175,0.07970115
C0V750,路竹,2014-07-05,22.854997,120.259439,0.9231363
C0N050,蚵寮,2014-07-05,23.301,120.1104,0.004314928
72M700,南改鹿草分場,2014-07-05,23.416869,120.283061,0.1766835
C1SA50,利嘉林道,2014-07-05,22.82325,121.009389,2.5364614e-07
467550,玉山,2014-07-05,23.487614,120.959522,1.4842826e-08
C0A940,金山,2014-07-05,25.223628,121.643967,0.004400836
C1V340,大津,2014-07-05,22.888322,120.645986,0.9044684
C0W180,七美,2014-07-05,23.219333,119.444892,0.9998142
C1F9C1,白冷,2014-07-05,24.182844,120.929889,0.0024560473
K2E710,苗改生物防治研究中心,2014-07-05,24.422861,120.871833,0.04238713
C0N040,蘆竹溝,2014-07-05,23.2344,120.0961,0.004314928
C2W230,畜試所澎湖,2014-07-05,23.628342,119.513206,0.9997235
C0R880,後壁湖,2014-07-05,21.9457,120.7457,0.0031427941
C1I280,埔中,2014-07-05,23.820778,120.642594,0.2120286
467790,墾丁雷達站,2014-07-05,21.948235,120.808028,0.0061505344
C0W190,望安,2014-07-05,23.380564,119.494075,0.9998393
466881,新北,2014-07-05,24.9593,121.52,0.006386783
C0Z170,卓溪,2014-07-05,23.3443,121.3029,0.9663358
C0F850,東勢,2014-07-05,24.246428,120.833047,0.06689627
466900,淡水,2014-07-05,25.164889,121.448906,0.0035152815
C0I370,魚池,2014-07-05,23.895703,120.94135,1.053574e-05
C0C630,大溪,2014-07-05,24.882853,121.265547,0.21811384
C0A520,山佳,2014-07-05,24.974944,121.402008,0.0074220826
C0I110,竹山,2014-07-05,23.761225,120.688156,0.030865354
82H840,茶改南部分場,2014-07-05,23.762528,120.7405,0.0028374335
C0G660,溪湖,2014-07-05,23.94835,120.479122,0.0018946022
C1T800,洛韶,2014-07-05,24.204558,121.453956,1.5959732e-06
C1T810,慈恩,2014-07-05,24.192044,121.388386,7.628957e-09
C1E451,象鼻,2014-07-05,24.368617,120.940228,2.4478481e-07
C0AC60,三峽,2014-07-05,24.939025,121.369728,0.006285383
C0I490,萬大林道,2014-07-05,23.928228,121.091411,1.8842496e-07
C1I290,豐丘,2014-07-05,23.668178,120.887417,1.1363161e-07
C1I320,奧萬大,2014-07-05,23.952956,121.178556,4.3841116e-08
C2M910,嘉義大學,2014-07-05,23.471325,120.485903,0.23793775
C0U770,南澳,2014-07-05,24.44935,121.81022,0.52424294
C0A980,社子,2014-07-05,25.109508,121.469681,0.010155551
C0V800,六龜,2014-07-05,22.997889,120.633583,0.81972796
C1G9D0,國一S218K,2014-07-05,23.890641,120.493253,0.001892216
C0E570,白沙屯,2014-07-05,24.549447,120.696803,0.00026238261
C2F9A0,中竹林,2014-07-05,24.103556,120.751061,0.15129957
C0FA40,臺中電廠,2014-07-05,24.2146,120.4907,0.00024745174
C2G9A0,畜試所彰化,2014-07-05,23.86045,120.557964,0.122306764
C0H9C0,合歡山,2014-07-05,24.143442,121.272547,8.1782785e-09
C0X060,下營,2014-07-05,23.22695,120.256261,0.4565834
G2M350,農試溪口農場,2014-07-05,23.58565,120.408111,0.016840484
C0U860,頭城,2014-07-05,24.85323,121.8308,0.07611371
C0R580,南州,2014-07-05,22.48591,120.50274,0.97265446
C0D430,峨眉,2014-07-05,24.6905,121.017189,0.113916375
C0G780,秀水,2014-07-05,24.03405,120.503869,0.0013090252
72N100,臺南農改場,2014-07-05,23.0605,120.342194,0.95291984
C0S900,蘭嶼高中,2014-07-05,22.04909,121.51214,0.00524571
467540,大武,2014-07-05,22.355675,120.903789,0.33842424
C1F9W0,德基,2014-07-05,24.254783,121.190261,6.5065513e-09
C1Z120,壽豐,2014-07-05,23.870853,121.508081,0.110685825
C0W160,烏坵,2014-07-05,24.9944,119.44956,0.9997655
C1I240,外大坪,2014-07-05,23.958697,120.917931,0.0015188819
C1I550,國六W023K,2014-07-05,23.979067,120.867742,0.12060107
C0R870,興海,2014-07-05,21.9752,120.8439,0.0046006194
C0R140,瑪家,2014-07-05,22.682903,120.686639,0.31609148
C0A530,坪林,2014-07-05,24.938183,121.70975,0.7343895
C0X260,後壁,2014-07-05,23.366358,120.362326,0.7499921
C0Z230,和平,2014-07-05,24.30717,121.77007,0.76540625
C0G770,福興,2014-07-05,24.041289,120.437669,0.00073800934
C0H9A0,神木村,2014-07-05,23.532742,120.843667,2.8693416e-08
C0I460,南投,2014-07-05,23.911469,120.687331,0.065130286
C0I480,梅峰,2014-07-05,24.085272,121.173572,4.518689e-09
C1V570,吉東,2014-07-05,22.85422,120.5454,0.64980847
C2D740,屯原,2014-07-05,24.067969,121.209389,3.679067e-09
C2A560,福山,2014-07-05,24.776203,121.502811,0.96716905
C0AH30,五分山,2014-07-05,25.07125,121.780794,0.99897814
C0FA10,松柏,2014-07-05,24.429115,120.617482,0.00018528616
72S200,東改班鳩分場,2014-07-05,22.829528,121.077694,0.11513079
72HA00,中改埔里分場,2014-07-05,23.903208,120.963364,2.8991202e-05
C2H9W0,大坪頂農水,2014-07-05,24.043122,120.932781,0.0018927961
C0C650,平鎮,2014-07-05,24.897503,121.214636,0.107879326
C0S930,延平,2014-07-05,22.902581,121.084058,0.7169714
C0UA60,樟樹山,2014-07-05,24.41393,121.78325,0.99989337
C1S670,摩天,2014-07-05,23.199503,121.027,1.3759225e-07
C0V630,茄萣,2014-07-05,22.906642,120.182608,0.34335688
466940,基隆,2014-07-05,25.133314,121.740475,0.022819372
C0X050,東河,2014-07-05,23.296598,120.385608,0.19310412
C0R770,保力,2014-07-05,22.071122,120.764111,0.006337597
G2L020,農試嘉義分所,2014-07-05,23.485028,120.473806,0.23278126
C0X240,關子嶺,2014-07-05,23.331169,120.508025,0.12112187
C0I380,集集,2014-07-05,23.828206,120.801467,0.052755505
466990,花蓮,2014-07-05,23.975128,121.613275,0.38728186
C1V220,小關山,2014-07-05,23.154217,120.813603,9.272526e-09
C1F9G1,慶福山,2014-07-05,24.180853,120.848378,2.1673189e-07
C0Z250,瑞穗林道,2014-07-05,23.49284,121.30688,2.3579648e-06
C0D590,新豐,2014-07-05,24.87068,120.97721,0.84957796
C0A870,五指山,2014-07-05,25.132153,121.608692,0.3921122
C0UA50,西帽山,2014-07-05,24.555361,121.802628,0.9982628
C0X160,仁德,2014-07-05,22.968258,120.257689,0.9141289
C1H971,六分寮,2014-07-05,23.92507,120.6378,0.003009349
C0W120,西嶼,2014-07-05,23.5626,119.468436,0.9998658
C0G650,員林,2014-07-05,23.946503,120.585597,0.0025546
C0AD50,鶯歌,2014-07-05,24.951533,121.346294,0.004272614
C2H9Q0,北東眼山,2014-07-05,24.120939,121.189303,3.7366976e-09
C2H9T0,名間竹圍,2014-07-05,23.859914,120.637572,0.015054257
C0S990,山豬窟,2014-07-05,22.318619,120.857372,0.03834932
72Q010,高雄農改,2014-07-05,22.709333,120.525889,0.9069387
C0X190,安平,2014-07-05,22.993161,120.152181,0.11734647
C0K400,斗六,2014-07-05,23.720583,120.541127,0.29536203
12J990,口湖工作站,2014-07-05,23.589978,120.180394,0.013755569
C0O830,北寮,2014-07-05,23.079561,120.495008,0.6680953
C1D410,白蘭,2014-07-05,24.579364,121.079947,1.2099928e-08
C0S970,加津林,2014-07-05,22.416211,120.926942,0.34490827
C0D700,關西,2014-07-05,24.7977,121.1732,0.16451855
C0M810,里佳,2014-07-05,23.389125,120.716647,2.6401416e-08
C0U750,龜山島,2014-07-05,24.841667,121.953133,0.010647025
C0R810,內獅,2014-07-05,22.305064,120.642986,0.008113165
C1M390,龍美,2014-07-05,23.406728,120.654417,4.3226345e-07
C2FB60,頭櫃山,2014-07-05,24.129842,120.858925,1.8198061e-06
C1H840,國三N238K,2014-07-05,23.841008,120.707711,0.04501091
CAQ030,崎峰國小,2014-07-05,22.42565,120.49521,0.97265446
C2E520,大湖,2014-07-05,24.414939,120.870872,0.06631661
467530,阿里山,2014-07-05,23.508208,120.813242,7.369121e-09
C1E691,南湖,2014-07-05,24.40135,120.837533,0.00090774556
C0FA30,梧棲,2014-07-05,24.256003,120.523381,0.00024745174
C1V231,高中,2014-07-05,23.134911,120.716711,0.07488822
C0F9V0,新社,2014-07-05,24.200172,120.815806,0.0029378333
C0H890,埔里,2014-07-05,23.972169,120.952425,0.0145424185
C0R690,墾丁,2014-07-05,21.966756,120.810269,0.0012715377
C0F0D0,審馬陣,2014-07-05,24.381675,121.4203,1.2536612e-08
C0R820,白鷺,2014-07-05,22.454275,120.666219,0.58410716
U2H480,臺大溪頭,2014-07-05,23.670306,120.798194,7.08779e-07
C1V190,南天池,2014-07-05,23.27403,120.91176,7.1696813e-09
K2E360,苗栗農改場,2014-07-05,24.495722,120.829111,0.009674085
CAJ050,海口故事園區,2014-07-05,23.57543,120.14121,0.013417565
C2H9D0,三隻寮,2014-07-05,24.093078,120.861578,0.0010463175
C0O990,媽廟,2014-07-05,22.99175,120.293525,0.92535126
C0D480,打鐵坑,2014-07-05,24.849664,121.150789,0.00037665459
C0Z220,和平林道,2014-07-05,24.343922,121.656317,0.9998886
C0TA10,花蓮漁港,2014-07-05,23.995322,121.638331,0.33873183
72C440,桃園農改場,2014-07-05,24.950944,121.030583,0.06912028
C1E711,馬拉邦山,2014-07-05,24.367306,120.901656,0.0002740857
C0SB20,富岡,2014-07-05,22.792467,121.192669,0.7600468
C0D560,竹東,2014-07-05,24.767147,121.057881,0.15285394
C0F9U0,南屯,2014-07-05,24.137006,120.637969,0.00033906268
C0M720,番路,2014-07-05,23.464657,120.554156,0.09454159
C0F0A0,雪山圈谷,2014-07-05,24.388594,121.236339,1.1654179e-08
C1A9N0,四十份,2014-07-05,24.934158,121.593283,0.50306475
C0U760,東澳,2014-07-05,24.52196,121.83318,0.35694245
C0X230,鹽水,2014-07-05,23.272621,120.247641,0.123702206
C2H9H0,苗改南投蜂場,2014-07-05,23.852589,120.693481,0.030865354
C0R950,萬隆國小,2014-07-05,22.507667,120.587817,0.6061266
C0V370,古亭坑,2014-07-05,22.893178,120.401947,0.55155337
C1I340,新興橋,2014-07-05,23.563333,120.868728,1.8609868e-06
C0SA80,土坂,2014-07-05,22.453108,120.887572,0.7433935
C0R160,鹽埔,2014-07-05,22.739558,120.530778,0.670509
C0AC40,大屯山,2014-07-05,25.175675,121.522408,1.7299287e-08
466850,五分山雷達站,2014-07-05,25.071182,121.781205,0.99890864
C2H9L0,馬烈霸,2014-07-05,24.1512,121.201772,3.804392e-09
C1AI50,國三N016K,2014-07-05,25.034164,121.619664,0.0054698423
C1V600,藤枝,2014-07-05,23.071961,120.757042,6.2133715e-08
C1E601,南勢,2014-07-05,24.572486,120.734842,0.0108296145
C0Z180,新城,2014-07-05,24.03946,121.60454,0.44883978
C0O980,新市,2014-07-05,23.061614,120.298197,0.9491486
C0K420,西螺,2014-07-05,23.800407,120.467394,0.25621623
C0Z050,佳心,2014-07-05,23.34567,121.21316,0.96056145
C0AD30,蘆洲,2014-07-05,25.086594,121.472331,0.011148776
C0V610,梓官,2014-07-05,22.760558,120.267211,0.81388223
K2F750,種苗改良場,2014-07-05,24.225972,120.800917,0.01720997
C0UA80,大溪漁港,2014-07-05,24.941801,121.902955,0.0731928
C1AI60,國一39K邊坡,2014-07-05,25.064361,121.383836,0.50263363
C0W150,金寧,2014-07-05,24.457703,118.328989,0.289521
C0R960,內埔,2014-07-05,22.608483,120.570714,0.580375
V2C250,八德合作社,2014-07-05,24.93775,121.266389,0.17185077
C2H9S0,龍南,2014-07-05,23.953536,120.833183,2.2799834e-07
C0AH40,平等,2014-07-05,25.129142,121.577086,0.8121472
C0R540,佳冬,2014-07-05,22.419456,120.552375,0.9723589
466950,彭佳嶼,2014-07-05,25.627975,122.079744,0.08450797
C0A890,雙溪,2014-07-05,25.036003,121.864242,0.06061246
C0C480,桃園,2014-07-05,24.992425,121.323172,0.03307316
C0AH50,林口,2014-07-05,25.072181,121.38084,0.15743993
A2K360,水試臺西試驗場,2014-07-05,23.717231,120.190522,0.0014629149
B2N890,畜試所,2014-07-05,23.058972,120.336406,0.95291984
C2M960,外寮,2014-07-05,23.562643,120.665688,4.4925272e-07
C0F9S0,烏日,2014-07-05,24.107058,120.624103,0.0010535577
C0C490,八德,2014-07-05,24.928708,121.283289,0.27301702
C0R190,赤山,2014-07-05,22.592333,120.614306,0.5740524
C0T820,天祥,2014-07-05,24.179597,121.495639,0.99401015
C1F9E1,龍安,2014-07-05,24.1605,120.831961,0.0010997975
C0V820,小林,2014-07-05,23.148408,120.63325,0.1750665
C2G870,芳苑,2014-07-05,23.922303,120.320025,0.0009239519
C0E850,大河,2014-07-05,24.618069,120.948578,0.014473221
C1U670,寒溪,2014-07-05,24.634,121.71691,0.005019911
C0N020,城西,2014-07-05,23.0568,120.0956,0.016650269
C1Z110,三棧,2014-07-05,24.11557,121.60501,0.9123573
C0R280,檳榔,2014-07-05,22.076078,120.836777,0.0017541127
C2H9J0,中台,2014-07-05,23.9996,120.938739,0.0008648406
C0F9L0,后里,2014-07-05,24.310436,120.729725,0.0059932154
C0D540,橫山,2014-07-05,24.71116,121.11693,0.14035651
C1D420,太閣南,2014-07-05,24.632808,121.160575,4.9021565e-09
C1E770,公館,2014-07-05,24.526914,120.830806,0.00032805154
CAN130,水試所海水繁養殖中心,2014-07-05,23.120802,120.07968,0.016578937
C1I430,翠華,2014-07-05,24.191961,121.224339,7.229512e-09
C1M400,菜瓜坪,2014-07-05,23.251928,120.576103,0.36275262
C0G730,二林,2014-07-05,23.903325,120.376081,0.0013143998
72M360,南改義竹分場,2014-07-05,23.360694,120.279361,0.8498369
V2K620,麥寮合作社,2014-07-05,23.753836,120.294783,0.002428995
C0Z070,舞鶴,2014-07-05,23.46811,121.37407,0.99203694
C0B040,大武崙,2014-07-05,25.166676,121.706993,0.0416551
C1Z030,紅葉,2014-07-05,23.493119,121.338806,0.9688465
C1I050,丹大,2014-07-05,23.753747,121.141147,1.0462252e-08
C0I080,信義,2014-07-05,23.689694,120.851036,0.0005837143
C2M920,朴子農改,2014-07-05,23.469889,120.259383,0.47262782
C2A880,福隆,2014-07-05,25.017842,121.942083,0.06649266
C0Z160,鳳林,2014-07-05,23.746114,121.453411,0.9880134
C0V210,復興,2014-07-05,23.222403,120.806089,0.55830234
C0H990,昆陽,2014-07-05,24.121322,121.273642,6.9305885e-09
C0R741,獅子,2014-07-05,22.202308,120.705236,0.06522161
C0S710,鹿野,2014-07-05,22.917711,121.122994,0.99779063
C0I530,小奇萊,2014-07-05,24.131764,121.295717,7.3969186e-09
C2K630,荷苞,2014-07-05,23.657717,120.595144,0.07827942
C0Z080,富源,2014-07-05,23.587642,121.378225,0.99789155
467441,高雄,2014-07-05,22.7304,120.3125,0.42195708
C0SB10,美和,2014-07-05,22.682078,121.060236,0.093969375
C2K620,馬光農場,2014-07-05,23.721453,120.378864,0.36360714
C1I140,卡奈托灣,2014-07-05,23.754364,121.087872,5.0455043e-08
C0I520,玉山風口,2014-07-05,23.470489,120.955994,1.5323016e-08
C1G691,下水埔,2014-07-05,23.816114,120.5676,0.1257871
C0X110,臺南市南區,2014-07-05,22.961189,120.188378,0.12458765
C0V680,仁武,2014-07-05,22.701083,120.347722,0.4598449
C2G840,北斗,2014-07-05,23.877586,120.514222,0.0018518092
C0R900,竹坑,2014-07-05,22.1385,120.7022,0.010395468
C0K250,崙背,2014-07-05,23.75555,120.318925,0.0023962702
C0G860,社頭,2014-07-05,23.897647,120.5862,0.0025544516
C0X150,安定,2014-07-05,23.102614,120.227839,0.090287715
C0R590,里港,2014-07-05,22.77919,120.49459,0.5662242
C0E610,馬都安,2014-07-05,24.451272,120.930192,0.03511759
C0E550,明德,2014-07-05,24.583486,120.885411,0.012429538
C0R150,三地門,2014-07-05,22.709889,120.639944,0.81164277
C0G910,花壇,2014-07-05,24.032076,120.549461,0.0012970947
C1D400,鳥嘴山,2014-07-05,24.71909,121.28387,0.974438
C0K500,元長,2014-07-05,23.64981,120.315024,0.0150775
C0F0B0,石岡,2014-07-05,24.276061,120.777644,0.14069611
C2V250,甲仙,2014-07-05,23.080106,120.591758,0.5621311
C0SA20,金崙山,2014-07-05,22.567419,120.959667,3.7439062e-05
C0V350,溪埔,2014-07-05,22.738578,120.446797,0.9491749
C0M660,溪口,2014-07-05,23.604131,120.403569,0.016840484
C1S880,壽卡,2014-07-05,22.238911,120.858903,0.000546818
72D680,桃改新埔分場,2014-07-05,24.834444,121.066111,0.20804697
