站號,站名,日期,lat,lon,BLBTSLS
C0R710,龍磐,2014-05-27,21.931672,120.838942,0.18062685
C1F9D1,白毛台,2014-05-27,24.158325,120.886933,1.8253894e-07
C0G940,竹塘,2014-05-27,23.848253,120.386764,0.4816956
467590,恆春,2014-05-27,22.003897,120.746339,0.030532276
C1O850,環湖,2014-05-27,23.148617,120.418633,5.094723e-05
C0U710,太平山,2014-05-27,24.505486,121.525656,3.1812295e-09
C0E820,獅潭,2014-05-27,24.539133,120.920042,4.808553e-07
C0V880,興達,2014-05-27,22.8778,120.2127,0.9658173
C0S890,關山,2014-05-27,23.0395,121.175017,0.9204575
C0SB30,新蘭,2014-05-27,22.869214,121.223228,0.0009130956
C2R970,屏科大,2014-05-27,22.648275,120.619247,0.9858236
K2F750,種苗繁殖,2014-05-27,24.225972,120.800917,3.362599e-07
C1Z130,銅門,2014-05-27,23.965694,121.492842,0.9123516
C0AD40,土城,2014-05-27,24.973208,121.445169,0.8329339
CAN140,六官養殖協會,2014-05-27,23.22881,120.29962,0.9149469
C0X180,山上,2014-05-27,23.0757,120.363253,0.090008266
C0F9Z0,雪山東峰,2014-05-27,24.388792,121.268675,1.1293076e-08
C1M480,獨立山,2014-05-27,23.537022,120.607797,7.785378e-09
C0X220,學甲,2014-05-27,23.230367,120.182187,0.9912413
467650,日月潭,2014-05-27,23.881325,120.90805,6.2818755e-09
C0K600,箔子寮,2014-05-27,23.6197,120.14,0.7675884
C0G830,埤頭,2014-05-27,23.866003,120.452806,0.30281794
C0S950,七塊厝,2014-05-27,22.954453,121.229922,2.0863834e-05
467110,金門,2014-05-27,24.407306,118.289281,0.9871103
C0AH80,深坑,2014-05-27,25.002703,121.628328,0.5693573
467990,馬祖,2014-05-27,26.169269,119.923419,2.7950933e-05
C0A970,三貂角,2014-05-27,25.007606,122.002058,0.9997735
C2D730,寶山農場,2014-05-27,24.732444,120.976153,4.294392e-05
C0K430,褒忠,2014-05-27,23.690938,120.303634,0.00011802777
467480,嘉義,2014-05-27,23.495925,120.432906,8.000375e-08
C2E540,後龍,2014-05-27,24.606489,120.783933,0.000105392886
C0V400,阿公店,2014-05-27,22.804194,120.355528,0.8649461
C0R440,大漢山,2014-05-27,22.405264,120.753181,1.697002e-09
C0K280,四湖,2014-05-27,23.630414,120.227125,0.04224532
C1F9B1,桐林,2014-05-27,24.066172,120.735194,0.0023925551
C2H9U0,鳳鵬,2014-05-27,23.763919,120.788061,2.7543717e-07
C0K390,土庫,2014-05-27,23.679029,120.395574,0.24957883
C1I450,望鄉山,2014-05-27,23.594153,120.944286,7.015401e-09
C0E910,海埔,2014-05-27,24.648767,120.772435,2.241522e-06
B2E890,畜試北區分所,2014-05-27,24.527806,120.770972,0.00017874209
C0R750,四林格山,2014-05-27,22.076989,120.802439,4.831698e-07
C0F0C0,中坑,2014-05-27,24.248517,120.903319,1.1845425e-09
C1I121,大鞍,2014-05-27,23.678381,120.760017,2.6037292e-09
72U480,花改蘭陽分場,2014-05-27,24.686306,121.716583,0.999706
C0A770,科教館,2014-05-27,25.096356,121.516507,0.8418505
C0AJ60,六塊厝,2014-05-27,25.24,121.4481,0.95430285
C0R620,墾雷,2014-05-27,21.900836,120.855269,0.034193944
467420,永康,2014-05-27,23.038386,120.2367,0.99242675
467300,東吉島,2014-05-27,23.25695,119.667467,0.9997527
C0I410,名間,2014-05-27,23.837053,120.701447,4.964906e-05
A2C560,農工中心,2014-05-27,24.985917,121.239833,6.008885e-06
C0V740,旗山,2014-05-27,22.888614,120.483597,0.85701364
C0Z061,玉里,2014-05-27,23.3215,121.339656,0.99977726
C0S840,南田,2014-05-27,22.279725,120.889208,0.066824295
C1I470,杉林溪,2014-05-27,23.639517,120.786444,3.1222527e-09
C1X040,東原,2014-05-27,23.291597,120.463822,0.0005231173
C0R660,枋寮,2014-05-27,22.367722,120.590647,0.87068045
C1R120,上德文,2014-05-27,22.763272,120.704442,3.823329e-07
C0K450,大埤,2014-05-27,23.646074,120.431537,0.0463743
C0UA00,土場,2014-05-27,24.576533,121.495333,0.2795338
467080,宜蘭,2014-05-27,24.763975,121.756528,0.99239624
C0N030,四草,2014-05-27,23.0235,120.1116,0.94714034
C0V650,彌陀,2014-05-27,22.783806,120.246361,0.8232804
C0D660,新竹市東區,2014-05-27,24.798681,120.986942,0.00016664357
82S580,茶改東部分場,2014-05-27,22.907694,121.130139,0.99301517
C0SB40,興隆,2014-05-27,22.913661,121.257469,0.9699701
C0C710,大溪永福,2014-05-27,24.892936,121.324975,3.3142048e-06
C0FA20,溫寮,2014-05-27,24.372177,120.583125,0.13920598
C0V640,湖內,2014-05-27,22.887139,120.2445,0.9668119
C0R910,下寮,2014-05-27,22.3929,120.5548,0.65855676
C0Z020,明里,2014-05-27,23.208717,121.262342,0.52748924
C0M770,嘉義梅山,2014-05-27,23.585398,120.555587,0.059823934
G2F820,農業試驗所,2014-05-27,24.031261,120.688133,1.6511746e-06
C0C660,楊梅,2014-05-27,24.912375,121.143047,7.1209806e-06
C1E511,新開,2014-05-27,24.347703,120.827019,0.016772864
G2F820,農試所(霧峰),2014-05-27,24.031261,120.688133,1.6511746e-06
C1I070,和社,2014-05-27,23.591131,120.888861,1.7576673e-08
C2F000,大肚,2014-05-27,24.15295,120.572117,0.018269653
C1S850,豐南,2014-05-27,23.122139,121.262389,2.483783e-05
C2A920,富貴角,2014-05-27,25.263783,121.565258,0.6212584
CAH030,茶改場竹圍站,2014-05-27,23.860083,120.637528,2.0654206e-06
C0T960,光復,2014-05-27,23.660694,121.424964,0.9995273
C0F9M0,豐原,2014-05-27,24.254322,120.720692,1.5656104e-07
C0R720,旭海,2014-05-27,22.205403,120.887614,0.16169725
C0V710,苓雅,2014-05-27,22.622742,120.330669,0.572878
C0C740,觀音工業區,2014-05-27,25.064764,121.114856,0.00056408084
CAC040,拉拉山,2014-05-27,24.699317,121.427133,1.8195307e-09
C0V790,萬山,2014-05-27,22.905944,120.688056,0.67783296
U2HA30,臺大和社,2014-05-27,23.590856,120.888864,1.7576673e-08
C0AJ90,澳底,2014-05-27,25.0552,121.9253,0.9997762
C0Z100,東華,2014-05-27,23.89525,121.549833,0.9983583
C0G970,三豐,2014-05-27,23.882,120.2895,0.0011128618
V2K610,大庄合作社,2014-05-27,23.8068,120.367939,2.2300965e-05
C0V900,汕尾,2014-05-27,22.4782,120.4151,0.9547289
C1R630,龍泉,2014-05-27,22.66701,120.59091,0.95100594
C1AC50,關渡,2014-05-27,25.133486,121.469331,0.71527183
C0F9I0,神岡,2014-05-27,24.272481,120.658314,3.2101508e-07
C0K460,斗南,2014-05-27,23.678734,120.478359,0.034080297
467410,臺南,2014-05-27,22.993239,120.204772,0.99265796
C2O810,曾文,2014-05-27,23.219681,120.497328,4.3425544e-07
467280,後龍,2014-05-27,24.648563,120.831834,1.2012739e-06
C1F9J1,清水林,2014-05-27,24.071242,120.820419,2.2024777e-08
C2A650,火燒寮,2014-05-27,25.002719,121.742892,0.99211437
466930,竹子湖,2014-05-27,25.162078,121.544547,9.8170446e-08
C1I220,樟湖,2014-05-27,23.905333,120.846983,2.7733895e-09
C0I390,仁愛,2014-05-27,24.022122,121.132206,3.3523022e-09
C0Z300,東里,2014-05-27,23.26853,121.30547,0.9997435
C1V590,新發,2014-05-27,23.057019,120.646064,0.0023521888
C0K510,水林,2014-05-27,23.572924,120.24597,0.73470944
72S590,東改賓朗果園,2014-05-27,22.813889,121.071278,8.9684145e-06
82A750,茶改北部分場,2014-05-27,24.955778,121.631222,0.09917415
C1A750,石碇服務區,2014-05-27,25.00872,121.646242,0.50021416
C0X300,鹿寮,2014-05-27,23.386047,120.477331,0.0047062906
G2AI50,關渡,2014-05-27,25.11575,121.492,0.8517387
C0K590,雲林東勢,2014-05-27,23.674192,120.255721,0.00011802777
C0A570,桶後,2014-05-27,24.848222,121.597992,0.0068519106
C1S800,華源,2014-05-27,22.657883,121.02325,0.003879065
C0G720,溪州,2014-05-27,23.851589,120.499093,0.25074077
C1V160,達卡努瓦,2014-05-27,23.279811,120.705319,3.810572e-09
C2M410,馬頭山,2014-05-27,23.324361,120.582017,8.9346184e-05
C0V850,蚵仔寮,2014-05-27,22.7256,120.2527,0.6400262
C0S740,池上,2014-05-27,23.119628,121.209469,0.6994681
C1V390,尖山,2014-05-27,22.813153,120.367789,0.84841824
C0AH70,松山,2014-05-27,25.04871,121.55042,0.7028044
C0N010,鯤鯓國小,2014-05-27,23.1879,120.0889,0.78268206
C0R550,新埤,2014-05-27,22.467947,120.582894,0.9736875
C0SA60,知本（水試所）,2014-05-27,22.702394,121.082761,0.012508528
C0T9I0,豐濱,2014-05-27,23.583897,121.514806,0.9996253
C0UB00,淡江大學蘭陽校園,2014-05-27,24.823239,121.730383,0.11432301
C0W240,九宮,2014-05-27,24.423753,118.240186,0.9951619
C0T9N0,富里,2014-05-27,23.171639,121.249378,0.7942651
U2HA50,臺大竹山,2014-05-27,23.756972,120.681556,2.1236174e-06
C0V840,鳳鼻頭,2014-05-27,22.5083,120.3591,0.5700773
C0X140,西港,2014-05-27,23.125608,120.203108,0.987273
72D080,桃改五峰分場,2014-05-27,24.612194,121.157167,8.8583363e-10
C2H9P0,伊拿谷,2014-05-27,23.963211,121.088264,1.7567423e-08
C2H9F0,柑林,2014-05-27,24.018658,120.847072,4.416009e-06
C0TA20,加灣,2014-05-27,24.082025,121.608944,0.8863351
C0V530,阿蓮,2014-05-27,22.883208,120.327508,0.9461041
C1O880,關山,2014-05-27,23.173397,120.594092,3.544977e-05
C0E791,卓蘭,2014-05-27,24.3126,120.8244,0.012237477
C1I030,武界,2014-05-27,23.913225,121.052483,1.1043598e-08
C0R520,崁頂,2014-05-27,22.514781,120.506914,0.6654242
C0R341,牡丹,2014-05-27,22.130036,120.792639,0.14687617
C0R930,萬丹,2014-05-27,22.5885,120.4851,0.9738556
C0S760,紅石,2014-05-27,23.069131,121.126219,3.2175258e-09
C1M610,石磐龍,2014-05-27,23.496606,120.663506,3.3243244e-09
C0UA10,鴛鴦湖,2014-05-27,24.590269,121.412228,2.9055618e-09
V2C260,八德蔬果,2014-05-27,24.978508,121.281819,1.3232045e-06
C0R800,丹路,2014-05-27,22.204481,120.750989,0.033765968
C0G920,永靖,2014-05-27,23.924703,120.547533,0.29987526
C2M950,太和,2014-05-27,23.538372,120.702961,2.549986e-09
C1A630,下盆,2014-05-27,24.771003,121.538622,0.20666909
B2N890,畜產試驗所,2014-05-27,23.058972,120.336406,0.9669966
C0UA30,白嶺,2014-05-27,24.527819,121.519031,9.092988e-09
C1V580,溪南(特生中心),2014-05-27,23.084972,120.788475,2.8149425e-09
C1T970,大農,2014-05-27,23.615233,121.413331,0.9996688
E2S960,林試太麻里2,2014-05-27,22.598014,120.989761,0.38511685
C0R650,竹田,2014-05-27,22.58486,120.54344,0.9738623
C1H900,清流,2014-05-27,24.080775,120.962997,1.1176888e-08
C1C510,水尾,2014-05-27,24.940081,121.087161,8.497789e-05
C0F9X0,大雅(中科園區),2014-05-27,24.21528,120.62445,5.594886e-05
C0SB60,白守蓮,2014-05-27,23.126769,121.401914,0.02112213
C0O970,虎頭埤,2014-05-27,23.021375,120.347878,0.90542156
C0C730,中大臨海站,2014-05-27,24.966126,121.008581,0.0027766426
C0X250,新營,2014-05-27,23.310689,120.316681,0.90825266
C0V700,三民,2014-05-27,22.645017,120.311233,0.572878
C0U870,大礁溪,2014-05-27,24.791042,121.675047,0.07308373
C0E870,高鐵苗栗,2014-05-27,24.60725,120.826094,7.6044154e-05
A2K570,古坑花卉中心,2014-05-27,23.63353,120.55239,8.622755e-05
C0M860,新美,2014-05-27,23.338017,120.683169,1.4632338e-06
C1E701,八卦,2014-05-27,24.491756,120.927619,3.7022336e-09
C0I420,國姓,2014-05-27,24.037803,120.855072,0.00267901
C2D720,關西工作站,2014-05-27,24.757275,121.184792,5.0370227e-06
C0S960,香蘭,2014-05-27,22.587569,120.993375,0.38511685
C0R260,春日,2014-05-27,22.370361,120.628306,0.030622762
72G600,臺中農改場,2014-05-27,24.003028,120.534389,0.5975779
C0Z210,瑞穗,2014-05-27,23.5239,121.39021,0.99957377
C0M820,達邦,2014-05-27,23.453994,120.749517,5.1203255e-09
C0V860,南寮,2014-05-27,22.7616,120.2339,0.8086783
C0G740,大城,2014-05-27,23.852487,120.320935,0.00069838436
C0R920,塭仔,2014-05-27,22.4169,120.5197,0.64795065
C0R470,高樹,2014-05-27,22.826389,120.600806,0.97541946
C0R680,佳樂水,2014-05-27,21.993578,120.861633,0.026308708
C1O870,大棟山,2014-05-27,23.31157,120.52226,2.6982683e-09
C0D360,梅花,2014-05-27,24.678347,121.208558,1.4448638e-08
C0Z190,富世,2014-05-27,24.14743,121.6297,0.92854875
C0AI10,屈尺,2014-05-27,24.92184,121.54475,0.5694598
B2U990,畜試東區分所,2014-05-27,24.669039,121.832561,0.9995879
C0SB80,長濱漁港,2014-05-27,23.313644,121.459994,0.9995828
C0R240,來義,2014-05-27,22.527306,120.625111,0.04735678
C0V910,大樹,2014-05-27,22.684645,120.432803,0.8605518
C1R610,西大武山,2014-05-27,22.617719,120.7322,1.196548e-09
C0G900,線西,2014-05-27,24.143358,120.443536,0.017897604
C0M700,竹崎,2014-05-27,23.526178,120.555508,1.1699094e-05
C2E880,三義,2014-05-27,24.405478,120.749819,2.0518003e-07
C0C720,竹圍,2014-05-27,25.112692,121.239824,0.9511887
C0F9P0,清水,2014-05-27,24.312297,120.562242,0.22907265
C0Z150,吉安光華,2014-05-27,23.930925,121.595153,0.99792576
C1D640,外坪(五指山),2014-05-27,24.644447,121.090961,4.005437e-09
C0F9O0,潭子,2014-05-27,24.213106,120.703933,1.6869156e-07
C2H9R0,卓社,2014-05-27,23.887894,121.000086,3.0092746e-09
72T250,花蓮農改場,2014-05-27,23.975222,121.563889,0.8941042
C0E780,銅鑼,2014-05-27,24.489681,120.790853,1.431828e-06
C1T950,太安,2014-05-27,23.666719,121.370128,1.628093e-08
C0E830,苑裡,2014-05-27,24.439714,120.653053,0.05574308
467270,田中,2014-05-27,23.873803,120.581286,0.039096463
C0SA10,檳榔四格山,2014-05-27,22.810031,121.109308,9.315149e-07
C1T830,布洛灣,2014-05-27,24.17184,121.57127,0.99934435
C0F970,大坑,2014-05-27,24.173142,120.722289,3.9259253e-06
C1U920,思源,2014-05-27,24.393125,121.347214,3.1343892e-09
C0A931,三和,2014-05-27,25.233153,121.595236,0.98839635
C0I010,廬山,2014-05-27,24.033311,121.181808,1.828831e-09
C2M940,日野賀,2014-05-27,23.434056,120.727169,3.9770263e-09
C0R860,鼻頭,2014-05-27,22.1043,120.8979,0.04113956
C0UB20,壯圍,2014-05-27,24.7359,121.8163,0.9995879
C0R790,九棚,2014-05-27,22.14195,120.889281,0.09558041
C0W110,東莒,2014-05-27,25.9652,119.98069,0.0034376904
C1U930,粉鳥林,2014-05-27,24.497088,121.842479,0.982674
C1I211,蘆竹湳,2014-05-27,23.934019,120.811994,1.985898e-08
C0S830,長濱,2014-05-27,23.286817,121.411975,0.047727358
C1F9F1,伯公龍,2014-05-27,24.272392,120.849047,7.47698e-07
C0E810,西湖,2014-05-27,24.562947,120.7485,4.8998136e-05
C1I440,新高口,2014-05-27,23.478744,120.878939,4.176403e-09
C0O840,王爺宮,2014-05-27,23.222064,120.40085,4.3425544e-07
C0T9G0,鳳林山,2014-05-27,23.735269,121.420131,0.90354526
C0X080,佳里,2014-05-27,23.173039,120.145086,0.99260277
C0FB70,大甲溪埔,2014-05-27,24.370625,120.620067,0.033182867
C0Z310,清水斷崖,2014-05-27,24.218294,121.689142,0.99704725
C0M680,太保,2014-05-27,23.455062,120.331455,0.009417655
C1S820,金峰,2014-05-27,22.590969,120.933236,0.7608962
C0AD10,八里,2014-05-27,25.150211,121.403947,0.9511887
C2K240,草嶺,2014-05-27,23.59555,120.693461,2.4494367e-09
C1SA70,都蘭,2014-05-27,22.87794,121.226881,0.96998066
C0K440,二崙,2014-05-27,23.772797,120.408944,0.4299349
C1A760,坪林交控,2014-05-27,24.94284,121.713442,0.89781094
C0F9N0,大里,2014-05-27,24.092464,120.701378,0.00033799798
C0SA90,達仁林場,2014-05-27,22.264347,120.823972,0.26518977
C1R290,石門山,2014-05-27,22.112611,120.756597,0.0018235208
42HA10,萬大發電廠,2014-05-27,23.978875,121.139639,1.3307764e-08
C0R890,山海,2014-05-27,21.9878,120.7091,0.020547245
C0T9A0,月眉山,2014-05-27,23.809928,121.539828,0.38809595
C0AC70,信義,2014-05-27,25.037822,121.564597,0.7028044
C0K560,棋山,2014-05-27,23.68645,120.603417,0.14817637
C2FB50,出雲,2014-05-27,24.206469,120.902794,5.04838e-09
C1Z240,中平林道,2014-05-27,23.42115,121.26763,8.923886e-09
U2H480,溪頭,2014-05-27,23.670306,120.798194,6.11382e-09
C0M880,好美里,2014-05-27,23.3364,120.138,0.99260277
C0T9E0,大坑,2014-05-27,23.880628,121.581981,0.7553497
C0K530,臺西,2014-05-27,23.701547,120.197559,0.043603107
C1E900,國一N128K,2014-05-27,24.560997,120.844186,2.437421e-05
C0AJ50,水湳洞,2014-05-27,25.123695,121.862238,0.99795127
C0AI20,白沙灣,2014-05-27,25.283128,121.519058,0.8375292
C0A860,大坪,2014-05-27,25.165914,121.632969,8.741467e-06
C1U850,觀音海岸,2014-05-27,24.38319,121.77856,2.0095906e-06
C2K610,草嶺石壁,2014-05-27,23.602469,120.707731,3.0461644e-09
C0U950,鶯子嶺,2014-05-27,24.89754,121.79244,2.2288692e-08
C0O900,善化,2014-05-27,23.112883,120.297219,0.9685632
C0K550,蔦松,2014-05-27,23.514319,120.229736,0.6334369
E2P980,林試六龜中心,2014-05-27,22.991703,120.645722,0.9411418
C0E590,通霄,2014-05-27,24.471892,120.704622,0.00063269713
C1I310,西巒,2014-05-27,23.754486,120.883956,3.2231091e-09
C0A550,泰平,2014-05-27,24.971197,121.823711,0.9041758
C0I360,水里,2014-05-27,23.812553,120.849792,5.744535e-06
C0R830,高士,2014-05-27,22.121825,120.836781,0.00025808637
C1I101,溪頭,2014-05-27,23.661789,120.807647,3.4838687e-09
C0AJ20,野柳,2014-05-27,25.20703,121.690021,0.99795127
C0B060,暖暖,2014-05-27,25.0957,121.7403,0.994528
C1H920,長豐,2014-05-27,24.102039,120.879897,1.7691702e-08
C0V360,內門,2014-05-27,22.975481,120.466769,0.380945
C0R850,林邊,2014-05-27,22.4634,120.5339,0.6654242
C0E930,龍鳳,2014-05-27,24.700034,120.859125,1.0851502e-05
C0U910,冬山,2014-05-27,24.63373,121.7937,0.9995879
C1E721,泰安,2014-05-27,24.489017,120.968036,3.0966496e-09
82H320,茶改中部分場,2014-05-27,23.875611,120.913583,9.409766e-09
C0M750,布袋,2014-05-27,23.380878,120.167789,0.5806099
C1S860,利嘉,2014-05-27,22.809417,121.050528,7.826354e-08
72C440,桃園農改,2014-05-27,24.950944,121.030583,0.0025230355
E2S980,林試太麻里1,2014-05-27,22.598922,120.980044,0.6195596
C0X170,關廟,2014-05-27,22.963017,120.327797,0.9620131
C0V720,林園,2014-05-27,22.507747,120.394511,0.5886863
C1I510,線浸林道,2014-05-27,23.761508,120.832956,4.644988e-09
C0D690,外湖,2014-05-27,24.917735,120.968711,0.0027766426
C0C750,新興坑尾,2014-05-27,25.0061,121.0971,7.139511e-05
B2Q810,畜試南區分所,2014-05-27,21.945583,120.802167,0.026302546
C0S790,金崙,2014-05-27,22.538122,120.966875,0.78448004
C0AH90,福山植物園,2014-05-27,24.760717,121.58135,7.790101e-09
C0I540,奇萊稜線,2014-05-27,24.109231,121.326456,9.363503e-09
C0M850,表湖,2014-05-27,23.24186,120.64166,2.4086756e-07
C0S770,大溪山,2014-05-27,22.478475,120.943325,0.0024235859
C0AG80,中和,2014-05-27,24.991622,121.491792,0.7028044
C0T790,大禹嶺,2014-05-27,24.186117,121.316086,7.237873e-09
C0T9B0,水源,2014-05-27,23.991861,121.537169,0.06403617
C0R840,牡丹池山,2014-05-27,22.168389,120.841225,0.34512547
C1I131,桶頭,2014-05-27,23.641944,120.654117,0.0004862415
CAL110,布袋國中,2014-05-27,23.35893,120.18026,0.9896396
467571,新竹,2014-05-27,24.827853,121.014219,0.00025404638
C0Z290,赤柯山,2014-05-27,23.36893,121.38293,4.2256428e-08
C0X280,將軍,2014-05-27,23.214999,120.13577,0.99260205
C0S690,太麻里,2014-05-27,22.60902,120.98533,4.761523e-08
C0U880,北關,2014-05-27,24.9072,121.8734,0.86496544
C1H860,瑞岩,2014-05-27,24.123772,121.18345,2.3182354e-09
C0G810,埔心,2014-05-27,23.947633,120.525456,0.33050627
C0U970,大福,2014-05-27,24.80064,121.81389,0.9932921
C2H9N0,仁愛東眼,2014-05-27,24.026875,121.1205,2.2555458e-09
C1E670,南礦,2014-05-27,24.538278,121.002836,2.253705e-09
C0M520,東後寮,2014-05-27,23.369908,120.248065,0.98922217
C1E461,松安,2014-05-27,24.397972,120.986022,3.669312e-09
72G600,臺中農改,2014-05-27,24.003028,120.534389,0.5975779
C2N160,西拉雅風管處,2014-05-27,23.189481,120.335297,0.88923365
C2M970,碧湖,2014-05-27,23.568632,120.624165,3.0615592e-09
C0A640,石碇,2014-05-27,24.993969,121.662917,0.99523807
E2S960,林試太麻里2,2014-05-27,22.598,120.99775,0.34659243
C0F9Y0,桃山,2014-05-27,24.432739,121.303808,1.2410519e-08
C1I020,萬大,2014-05-27,23.979817,121.132261,3.2830767e-09
C0U940,羅東,2014-05-27,24.68184,121.74934,0.99962866
C0M650,朴子,2014-05-27,23.43463,120.23902,0.5721145
C1I500,大尖山,2014-05-27,23.858572,120.994889,2.6703038e-09
C0G820,田尾,2014-05-27,23.901669,120.509389,0.2998752
E2K600,四湖植物園,2014-05-27,23.676986,120.163433,0.043603107
C0S730,綠島,2014-05-27,22.6672,121.47533,0.21859536
12Q970,東港工作站,2014-05-27,22.479997,120.466058,0.6585569
C0E430,南庄,2014-05-27,24.601775,121.000214,4.5263766e-07
C1TA00,太魯閣,2014-05-27,24.15773,121.6236,0.9967158
466920,臺北,2014-05-27,25.037658,121.514853,0.7028044
C0R600,舊泰武,2014-05-27,22.588194,120.664944,0.04284189
C1I260,北坑,2014-05-27,23.9246,121.006903,2.7432401e-08
466910,鞍部,2014-05-27,25.182586,121.529731,2.4523173e-08
C1I230,九份二山,2014-05-27,23.961944,120.845,6.275636e-09
C2A660,瑞芳,2014-05-27,25.113169,121.801147,0.9997629
C0R270,琉球嶼,2014-05-27,22.332244,120.362236,0.030622762
C1T990,高寮,2014-05-27,23.394239,121.356808,0.9983932
C0G620,芬園,2014-05-27,24.015678,120.6213,0.015776556
C1Z140,荖溪,2014-05-27,23.890575,121.45964,8.3851655e-09
C1I201,中心崙,2014-05-27,23.728722,120.712097,2.051295e-08
C1I400,凌霄,2014-05-27,24.018778,121.004456,2.4541598e-09
C1M640,十字,2014-05-27,23.492153,120.753683,2.5981581e-09
G2P820,農試鳳山分所,2014-05-27,22.646611,120.356083,0.6283433
C0Z270,蕃薯寮,2014-05-27,23.73835,121.540108,0.99871016
C0F9Q0,外埔,2014-05-27,24.347817,120.705686,8.8221157e-07
C0K580,高鐵雲林,2014-05-27,23.737456,120.417944,0.2501652
C2I090,鳳凰,2014-05-27,23.728081,120.787347,7.303049e-09
C0U990,員山,2014-05-27,24.74435,121.72247,0.99962866
C0V770,大社,2014-05-27,22.730306,120.346639,0.6358446
C0X120,麻豆,2014-05-27,23.183289,120.248611,0.9912413
C0C670,龍潭,2014-05-27,24.870056,121.221389,1.5385776e-08
C0D680,香山濕地,2014-05-27,24.783581,120.914988,6.505279e-05
C0S980,勝林山,2014-05-27,22.430439,120.8938,0.00015909034
C0V730,大寮,2014-05-27,22.605614,120.395717,0.961527
C0R570,麟洛,2014-05-27,22.65078,120.52719,0.95828277
C2M930,石卓,2014-05-27,23.478744,120.702264,2.5858824e-09
C0G9B0,和美,2014-05-27,24.105169,120.492131,0.875156
CAG100,王功漁港,2014-05-27,23.96824,120.32586,0.0009894907
C0X290,北門,2014-05-27,23.267772,120.125481,0.99260277
C2F930,大甲,2014-05-27,24.347667,120.640403,0.00531313
C0D650,湖口,2014-05-27,24.904794,121.043628,0.0019265505
C0E420,竹南,2014-05-27,24.708978,120.888897,5.0510967e-05
C0U780,五結,2014-05-27,24.68637,121.79794,0.9995879
C1I250,鯉潭,2014-05-27,23.961922,120.991131,1.7691702e-08
C0R130,阿禮,2014-05-27,22.742908,120.743678,7.039461e-09
C0X100,臺南市北區,2014-05-27,23.010394,120.194228,0.991945
C0S920,金峰嘉蘭,2014-05-27,22.594789,120.960825,0.6404775
C0V490,新興,2014-05-27,22.627422,120.298803,0.5886863
C0F9K0,大安,2014-05-27,24.345061,120.588025,0.14398405
72N100,臺南農改,2014-05-27,23.0605,120.342194,0.9669966
467290,古坑,2014-05-27,23.633639,120.551889,8.622755e-05
C2E970,八甲,2014-05-27,24.535811,120.795983,1.3021362e-06
C0V440,鳳山,2014-05-27,22.646653,120.356122,0.6283433
C1T940,大觀,2014-05-27,23.714206,121.373133,0.9673867
72T250,花蓮農改,2014-05-27,23.975222,121.563889,0.8941042
C0E740,造橋,2014-05-27,24.637056,120.864778,6.2816603e-06
C0R100,尾寮山,2014-05-27,22.833111,120.683889,7.599317e-09
A2K630,臺大雲林校區,2014-05-27,23.730628,120.423903,0.24949111
C0D580,寶山,2014-05-27,24.735006,121.025192,4.6940596e-07
E2P990,林試扇平站,2014-05-27,22.9677,120.6857,0.6100278
C0AI30,三重,2014-05-27,25.057328,121.500629,0.8418505
C0AH00,汐止,2014-05-27,25.066881,121.658778,0.99795127
C1Z040,立山,2014-05-27,23.443356,121.327375,0.9961856
C0W130,花嶼,2014-05-27,23.40007,119.32276,0.9718469
C0A950,鼻頭角,2014-05-27,25.129036,121.923372,0.9997666
C0K470,林內,2014-05-27,23.748675,120.609642,0.0033059337
C2F990,摩天嶺,2014-05-27,24.322458,120.936819,1.1519936e-09
82C160,茶改場,2014-05-27,24.908472,121.185333,1.5784193e-06
C0Z320,清水林道,2014-05-27,23.27125,121.188272,1.0840436e-07
C0R760,南仁湖,2014-05-27,22.084681,120.863353,0.001478264
C0M670,大林,2014-05-27,23.600616,120.45841,9.799205e-07
C0M800,茶山,2014-05-27,23.299075,120.664767,0.00052047713
C0A9C0,天母,2014-05-27,25.117494,121.537169,0.8224173
72K220,南改斗南分場,2014-05-27,23.634556,120.477333,0.029194241
72AI40,桃改樹林分場,2014-05-27,24.944503,121.386972,0.8129149
C0S910,蘭嶼燈塔,2014-05-27,22.081197,121.503117,1.660911e-06
C0B050,八斗子,2014-05-27,25.144754,121.79167,0.9985045
C0U900,內城,2014-05-27,24.71813,121.68766,0.9877881
C0X320,柳營,2014-05-27,23.253328,120.375253,3.519958e-05
C0M790,新港,2014-05-27,23.553269,120.345728,0.011849127
C0F9T0,西屯,2014-05-27,24.179494,120.641275,0.0010174135
C0SA30,都歷,2014-05-27,23.020333,121.323642,0.060248043
C0C620,蘆竹,2014-05-27,25.084275,121.265767,0.9446646
C0R730,大坪頂,2014-05-27,22.024633,120.69355,0.18846704
C0AJ40,石門,2014-05-27,25.273672,121.601198,0.0058171186
C0E750,苗栗,2014-05-27,24.564569,120.824575,3.233285e-05
C0T870,鯉魚潭,2014-05-27,23.935639,121.508944,0.9994035
C1V170,排雲,2014-05-27,23.463619,120.954147,1.2698357e-08
C2H950,中寮,2014-05-27,23.884447,120.766406,8.5741965e-07
C0R350,貓鼻頭,2014-05-27,21.921774,120.7358,0.034193944
C0V660,岡山,2014-05-27,22.797078,120.294958,0.80785435
C1H941,雙冬,2014-05-27,23.967378,120.802189,2.4290738e-08
C0AJ70,田寮,2014-05-27,25.2698,121.4886,0.87936836
C0AI00,五股,2014-05-27,25.07445,121.42728,1.2592852e-07
C0Z280,德武,2014-05-27,23.47426,121.41071,0.999258
C0R700,枋山,2014-05-27,22.246844,120.661086,0.016609345
C0C460,復興,2014-05-27,24.820208,121.352281,7.503811e-05
E2H360,蓮華池,2014-05-27,23.918333,120.885278,1.0538538e-08
C0M640,中埔,2014-05-27,23.42538,120.5229,0.00015873714
C0W140,金沙,2014-05-27,24.488292,118.408778,0.986854
C2A540,四堵,2014-05-27,24.8926,121.745736,0.014950787
C0ACA0,新莊,2014-05-27,25.051478,121.446756,0.9375099
C0R220,潮州,2014-05-27,22.534361,120.54,0.9089941
U2HA40,臺大內茅埔,2014-05-27,23.689722,120.851117,1.171354e-07
467490,臺中,2014-05-27,24.145736,120.684075,2.8761474e-06
C0U960,翠峰湖,2014-05-27,24.510856,121.608044,3.0412877e-09
E2HA20,林試畢祿溪站,2014-05-27,24.226944,121.308522,4.009205e-09
C0V890,前鎮,2014-05-27,22.5718,120.3117,0.5700773
467620,蘭嶼,2014-05-27,22.036969,121.558339,6.669154e-08
C1F941,雪嶺,2014-05-27,24.280586,121.026642,5.586875e-09
C2H9E0,國姓南港,2014-05-27,23.911108,120.846556,2.6553058e-09
C0AC80,文山,2014-05-27,25.00235,121.575728,0.5693573
C0F9R0,龍井,2014-05-27,24.184536,120.528972,0.13952641
C0M760,民雄,2014-05-27,23.551754,120.428457,5.408025e-07
C0UA40,西德山,2014-05-27,24.560647,121.752608,2.6407308e-08
C1T920,中興,2014-05-27,23.769503,121.498653,0.99893886
C0D550,雪霸,2014-05-27,24.526972,121.11605,2.1546718e-09
C2F860,梨山,2014-05-27,24.247522,121.243669,4.1440598e-09
C0R320,車城,2014-05-27,22.0744,120.716247,0.020547245
C1S870,南美山,2014-05-27,23.15025,121.382333,0.9502235
C0B020,基隆嶼,2014-05-27,25.19141,121.78391,0.99795127
C1U501,牛鬥,2014-05-27,24.637836,121.573656,0.8569221
C0M730,嘉義市東區,2014-05-27,23.457673,120.460531,1.4750418e-07
C0S700,知本,2014-05-27,22.684866,121.005642,1.1738052e-07
C1N001,沙崙,2014-05-27,22.935472,120.309406,0.94612443
C0V760,橋頭,2014-05-27,22.757806,120.30575,0.8058338
C0G960,福寶,2014-05-27,24.0443,120.3814,0.89897615
C0X210,白河,2014-05-27,23.347466,120.414427,2.2561428e-05
C0S810,東河,2014-05-27,22.972672,121.303986,0.9614728
C2R170,屏東,2014-05-27,22.66027,120.49403,0.9622693
C0R670,楓港,2014-05-27,22.190131,120.692156,0.016609345
C0FA50,霧峰,2014-05-27,24.0419,120.6995,7.392764e-06
C0UB10,蘇澳,2014-05-27,24.5969,121.8571,0.8729772
C0G950,防潮門,2014-05-27,24.1835,120.4871,0.17371629
C0M740,六腳,2014-05-27,23.492871,120.290625,0.014615559
C1R250,力里,2014-05-27,22.428117,120.629228,0.04735678
C0K330,虎尾,2014-05-27,23.719183,120.442036,0.1997154
C2FA00,烏石坑,2014-05-27,24.273503,120.947617,1.1629571e-09
C0V620,永安,2014-05-27,22.82315,120.236856,0.8232804
C1I330,楓樹林,2014-05-27,23.986803,121.076117,3.2054832e-09
C0W200,湖西,2014-05-27,23.596314,119.67275,0.9966772
72Q010,高雄農改場,2014-05-27,22.709333,120.525889,0.9584951
C0SA40,瑞和,2014-05-27,22.974361,121.156697,0.8573238
C0C680,龜山,2014-05-27,25.02846,121.38656,0.8907046
C2V260,月眉,2014-05-27,22.971003,120.539853,0.65691495
C0V450,鳳森,2014-05-27,22.545064,120.392592,0.96405643
C0U720,南山,2014-05-27,24.43742,121.38167,2.4508818e-08
A2N290,臺南蘭花園區,2014-05-27,23.340258,120.379661,3.5213416e-05
C0R560,新園,2014-05-27,22.5434,120.461558,0.6654242
C0U890,三星,2014-05-27,24.66812,121.65302,0.9711086
C1V300,御油山,2014-05-27,23.001983,120.715364,2.8513312e-09
C0U600,礁溪,2014-05-27,24.817539,121.765608,0.99131703
C1T980,龍澗,2014-05-27,24.023289,121.411328,8.200021e-09
C0D670,海天一線,2014-05-27,24.831986,120.914438,7.4989184e-05
C0SA00,歷坵,2014-05-27,22.520969,120.89185,2.003411e-05
C0M710,東石,2014-05-27,23.458927,120.15385,0.633437
C0M780,鹿草,2014-05-27,23.41134,120.30835,0.01430501
C0U520,雙連埤,2014-05-27,24.753033,121.641303,0.054309342
C0B010,七堵,2014-05-27,25.094819,121.71713,0.99729216
C0R480,長治,2014-05-27,22.693128,120.542622,0.9756187
C1V830,國三S383K,2014-05-27,22.781967,120.426475,0.9700972
12Q980,恆春工作站,2014-05-27,22.079678,120.714425,0.020547245
C1O940,東山服務區,2014-05-27,23.286016,120.398472,1.6800817e-05
C1U840,東澳嶺,2014-05-27,24.5378,121.8485,1.1050857e-06
C1D630,飛鳳山,2014-05-27,24.766464,121.119178,2.331685e-09
C0S940,石寧山,2014-05-27,23.223772,121.406639,0.9990863
C0K410,北港,2014-05-27,23.573957,120.292802,0.01895816
C2M620,瑞里,2014-05-27,23.545133,120.675197,2.6764482e-09
C0SB70,小港漁港,2014-05-27,23.158558,121.400431,0.99890286
C2O950,安南,2014-05-27,23.076694,120.144861,0.99562395
C0F0E0,南湖圈谷,2014-05-27,24.363714,121.444667,1.579131e-08
467610,成功,2014-05-27,23.097486,121.373428,0.026054526
C0G890,伸港,2014-05-27,24.148933,120.484403,0.10784142
C2E540,龍溪,2014-05-27,24.606489,120.783933,0.000105392886
C1V200,梅山,2014-05-27,23.268447,120.823556,3.232882e-08
C0T9H0,加路蘭山,2014-05-27,23.682947,121.5274,0.25071374
C2O930,玉井,2014-05-27,23.126042,120.46055,5.094723e-05
C1F911,新伯公,2014-05-27,24.221361,120.841069,1.7758492e-06
C0R490,九如,2014-05-27,22.7405,120.490503,0.95828277
C0X200,左鎮,2014-05-27,23.056758,120.408522,0.12097698
C0SB50,叭嗡嗡,2014-05-27,23.047062,121.343223,0.9272152
C1F891,稍來,2014-05-27,24.265689,121.001142,3.575129e-09
72N240,七股研究中心,2014-05-27,23.081672,120.062894,0.99854994
C0C700,中壢,2014-05-27,24.977661,121.256375,8.728478e-07
C0M690,水上,2014-05-27,23.419734,120.388909,3.006652e-07
C0V690,鼓山,2014-05-27,22.623325,120.275575,0.5886863
C0O860,大內,2014-05-27,23.11885,120.36083,0.8897237
C0Z200,萬榮,2014-05-27,23.709219,121.420106,0.9994035
C0T9D0,和中,2014-05-27,24.26676,121.74103,0.9818911
C1O921,楠西,2014-05-27,23.183511,120.484083,5.3496788e-06
C0AJ30,淡水觀海,2014-05-27,25.184591,121.408616,0.95430285
C0V810,左營,2014-05-27,22.67491,120.28491,0.64406055
C0UA70,桃源谷,2014-05-27,24.962606,121.888875,0.0056499853
C0X130,官田,2014-05-27,23.193217,120.315422,0.91037047
C1H000,翠峰,2014-05-27,24.109397,121.205211,4.269136e-09
C0UA90,石城,2014-05-27,24.980444,121.951214,0.9997336
C1E681,南勢山,2014-05-27,24.421669,120.923831,1.1465267e-09
C0A9F0,內湖,2014-05-27,25.079422,121.57545,0.7028044
C0K291,宜梧,2014-05-27,23.536281,120.169329,0.6926805
C1K540,口湖,2014-05-27,23.585344,120.180517,0.78232604
C0R780,滿州,2014-05-27,22.024403,120.839892,0.040421925
C0V870,文安,2014-05-27,22.8025,120.2164,0.8086783
C0U650,玉蘭,2014-05-27,24.675286,121.587061,0.6843204
C0R640,東港,2014-05-27,22.46247,120.44074,0.5700773
K2E360,苗栗農改,2014-05-27,24.495722,120.829111,3.701117e-06
C0AJ80,板橋,2014-05-27,25.0107,121.4489,0.8329463
C0S660,下馬,2014-05-27,23.150427,121.070312,8.4524665e-08
C1H9B1,阿眉,2014-05-27,24.1263,120.994672,1.9577542e-09
C0UA20,多加屯,2014-05-27,24.368614,121.373189,5.7362097e-09
C0E730,頭份,2014-05-27,24.688247,120.912206,5.0510967e-05
72V140,高改旗南分場,2014-05-27,22.857861,120.516667,0.8828832
C0K480,莿桐,2014-05-27,23.761192,120.502372,0.061076146
C0U980,坪林石牌,2014-05-27,24.86478,121.77396,0.5129561
C0T900,西林,2014-05-27,23.8119,121.441458,0.99952054
C1I150,青雲,2014-05-27,23.793361,120.949378,3.113085e-08
467350,澎湖,2014-05-27,23.565503,119.563094,0.99521965
C0G800,埔鹽,2014-05-27,24.000394,120.431683,0.8725535
C0H960,草屯,2014-05-27,23.973672,120.68085,0.0008446918
C1V780,多納林道,2014-05-27,22.888028,120.737917,8.032359e-09
C0E920,通霄漁港,2014-05-27,24.498589,120.673876,0.0042877253
C0Z330,安通山,2014-05-27,23.290728,121.348528,1.4013985e-05
C0AH10,永和,2014-05-27,25.01125,121.508111,0.7335062
C0AK10,太平里,2014-05-27,25.134937,121.364899,0.9375099
C2G640,鹿港,2014-05-27,24.0753,120.430481,0.8725535
C1E890,國三N149K,2014-05-27,24.463414,120.680019,0.00032898298
C1R110,口社,2014-05-27,22.770111,120.645222,0.9824948
C1M870,國三N285K,2014-05-27,23.550319,120.505833,0.00056651165
467050,新屋,2014-05-27,25.006744,121.047486,0.0027472628
C1E480,鳳美,2014-05-27,24.554803,121.034747,2.4387515e-07
C0M530,奮起湖,2014-05-27,23.493903,120.699253,2.533957e-09
C0C590,觀音,2014-05-27,25.027072,121.153317,0.9100875
C0T9M0,靜浦,2014-05-27,23.455167,121.495028,0.9994421
C2H9M0,發祥,2014-05-27,24.154094,121.164517,5.7303704e-09
C0AI40,石牌,2014-05-27,25.115597,121.513139,0.8329463
C1F871,上谷關,2014-05-27,24.203483,121.018644,1.1629571e-09
C2H9G0,百勝,2014-05-27,24.051142,120.909361,2.811098e-07
C0G880,二水,2014-05-27,23.810742,120.6173,0.012475829
C0R940,加祿堂,2014-05-27,22.3363,120.6217,0.020386439
C0W220,北竿,2014-05-27,26.220358,119.974881,4.734983e-06
C0O960,崎頂,2014-05-27,22.959547,120.369317,0.29608262
C0S750,向陽,2014-05-27,23.248397,120.986133,3.8491415e-09
C0T9F0,水璉,2014-05-27,23.797131,121.542514,0.99929345
C1M600,頭凍,2014-05-27,23.406364,120.603339,1.4778362e-08
467660,臺東,2014-05-27,22.752211,121.154586,0.0051723635
C1D380,新埔,2014-05-27,24.84745,121.03834,4.289448e-05
C2G980,田頭村,2014-05-27,23.8263,120.444175,0.4299349
C0V750,路竹,2014-05-27,22.854997,120.259439,0.86814463
C0N050,蚵寮,2014-05-27,23.301,120.1104,0.78300184
72M700,南改鹿草分場,2014-05-27,23.416869,120.283061,0.023814972
C1SA50,利嘉林道,2014-05-27,22.82325,121.009389,1.8379369e-09
467550,玉山,2014-05-27,23.487614,120.959522,1.4746938e-08
C0A940,金山,2014-05-27,25.223628,121.643967,0.75074446
C1V340,大津,2014-05-27,22.888322,120.645986,0.9843015
C0W180,七美,2014-05-27,23.219333,119.444892,0.9967356
C1F9C1,白冷,2014-05-27,24.182844,120.929889,2.913464e-07
K2E710,苗改生物防治研究中心,2014-05-27,24.422861,120.871833,3.3339563e-07
C0N040,蘆竹溝,2014-05-27,23.2344,120.0961,0.78300184
C2W230,畜試所澎湖,2014-05-27,23.628342,119.513206,0.9293821
C0R880,後壁湖,2014-05-27,21.9457,120.7457,0.019027589
C1I280,埔中,2014-05-27,23.820778,120.642594,0.00042928703
467790,墾丁雷達站,2014-05-27,21.948235,120.808028,0.046377625
C0W190,望安,2014-05-27,23.380564,119.494075,0.9575071
466881,新北,2014-05-27,24.9593,121.52,0.64861673
C0Z170,卓溪,2014-05-27,23.3443,121.3029,0.9996742
C0F850,東勢,2014-05-27,24.246428,120.833047,4.005041e-06
466900,淡水,2014-05-27,25.164889,121.448906,0.9511887
C0I370,魚池,2014-05-27,23.895703,120.94135,1.2160918e-08
C0C630,大溪,2014-05-27,24.882853,121.265547,3.008823e-06
C0A520,山佳,2014-05-27,24.974944,121.402008,0.8129148
C0I110,竹山,2014-05-27,23.761225,120.688156,2.9349585e-06
82H840,茶改南部分場,2014-05-27,23.762528,120.7405,7.220668e-08
C0G660,溪湖,2014-05-27,23.94835,120.479122,0.36262578
C1T800,洛韶,2014-05-27,24.204558,121.453956,1.5187135e-08
C1T810,慈恩,2014-05-27,24.192044,121.388386,3.2016214e-09
C1E451,象鼻,2014-05-27,24.368617,120.940228,1.1465267e-09
C0AC60,三峽,2014-05-27,24.939025,121.369728,0.63245976
C0I490,萬大林道,2014-05-27,23.928228,121.091411,2.5310976e-09
C1I290,豐丘,2014-05-27,23.668178,120.887417,4.644988e-09
C1I320,奧萬大,2014-05-27,23.952956,121.178556,3.176379e-09
C2M910,嘉義大學,2014-05-27,23.471325,120.485903,0.00041681164
C0U770,南澳,2014-05-27,24.44935,121.81022,0.9787288
C0A980,社子,2014-05-27,25.109508,121.469681,0.8517387
C0V800,六龜,2014-05-27,22.997889,120.633583,0.9548716
C1G9D0,國一S218K,2014-05-27,23.890641,120.493253,0.33050612
C0E570,白沙屯,2014-05-27,24.549447,120.696803,0.0042877253
C2F9A0,中竹林,2014-05-27,24.103556,120.751061,2.208798e-06
C0FA40,臺中電廠,2014-05-27,24.2146,120.4907,0.13952641
C2G9A0,畜試所彰化,2014-05-27,23.86045,120.557964,0.039096463
C0H9C0,合歡山,2014-05-27,24.143442,121.272547,1.1502333e-08
C0X060,下營,2014-05-27,23.22695,120.256261,0.9282189
G2M350,農試溪口農場,2014-05-27,23.58565,120.408111,8.597672e-07
C0U860,頭城,2014-05-27,24.85323,121.8308,0.99239624
C0R580,南州,2014-05-27,22.48591,120.50274,0.6585569
C0D430,峨眉,2014-05-27,24.6905,121.017189,4.310895e-05
C0G780,秀水,2014-05-27,24.03405,120.503869,0.623595
72N100,臺南農改場,2014-05-27,23.0605,120.342194,0.9669966
C0S900,蘭嶼高中,2014-05-27,22.04909,121.51214,9.999712e-06
467540,大武,2014-05-27,22.355675,120.903789,0.1928221
C1F9W0,德基,2014-05-27,24.254783,121.190261,3.0670182e-09
C1Z120,壽豐,2014-05-27,23.870853,121.508081,0.9983583
C0W160,烏坵,2014-05-27,24.9944,119.44956,0.9990167
C1I240,外大坪,2014-05-27,23.958697,120.917931,1.4494015e-08
C1I550,國六W023K,2014-05-27,23.979067,120.867742,3.7929887e-05
C0R870,興海,2014-05-27,21.9752,120.8439,0.026302546
C0R140,瑪家,2014-05-27,22.682903,120.686639,0.67336035
C0A530,坪林,2014-05-27,24.938183,121.70975,0.7051535
C0X260,後壁,2014-05-27,23.366358,120.362326,0.032045584
C0Z230,和平,2014-05-27,24.30717,121.77007,0.9818911
C0G770,福興,2014-05-27,24.041289,120.437669,0.8725535
C0H9A0,神木村,2014-05-27,23.532742,120.843667,3.2402694e-09
C0I460,南投,2014-05-27,23.911469,120.687331,1.7634937e-05
C0I480,梅峰,2014-05-27,24.085272,121.173572,3.8791823e-09
C1V570,吉東,2014-05-27,22.85422,120.5454,0.77644217
C2D740,屯原,2014-05-27,24.067969,121.209389,2.9846834e-09
C2A560,福山,2014-05-27,24.776203,121.502811,0.09930427
C0AH30,五分山,2014-05-27,25.07125,121.780794,2.367387e-07
C0FA10,松柏,2014-05-27,24.429115,120.617482,0.13920598
72S200,東改班鳩分場,2014-05-27,22.829528,121.077694,5.3417978e-05
72HA00,中改埔里分場,2014-05-27,23.903208,120.963364,1.5771924e-08
C2H9W0,大坪頂農水,2014-05-27,24.043122,120.932781,1.54922e-08
C0C650,平鎮,2014-05-27,24.897503,121.214636,1.5784193e-06
C0S930,延平,2014-05-27,22.902581,121.084058,0.96734035
C0UA60,樟樹山,2014-05-27,24.41393,121.78325,0.90264714
C1S670,摩天,2014-05-27,23.199503,121.027,3.0938807e-09
C0V630,茄萣,2014-05-27,22.906642,120.182608,0.9658173
466940,基隆,2014-05-27,25.133314,121.740475,0.9983746
C0X050,東河,2014-05-27,23.296598,120.385608,3.519958e-05
C0R770,保力,2014-05-27,22.071122,120.764111,0.081724115
G2L020,農試嘉義分所,2014-05-27,23.485028,120.473806,0.00018644395
C0X240,關子嶺,2014-05-27,23.331169,120.508025,4.0423672e-07
C0I380,集集,2014-05-27,23.828206,120.801467,1.0180488e-05
466990,花蓮,2014-05-27,23.975128,121.613275,0.8820967
C1V220,小關山,2014-05-27,23.154217,120.813603,2.8886749e-09
C1F9G1,慶福山,2014-05-27,24.180853,120.848378,1.1079714e-09
C0Z250,瑞穗林道,2014-05-27,23.49284,121.30688,1.6951008e-08
C0D590,新豐,2014-05-27,24.87068,120.97721,1.7382974e-05
C0A870,五指山,2014-05-27,25.132153,121.608692,2.1008138e-07
C0UA50,西帽山,2014-05-27,24.555361,121.802628,8.99778e-07
C0X160,仁德,2014-05-27,22.968258,120.257689,0.96060514
C1H971,六分寮,2014-05-27,23.92507,120.6378,3.8438282e-07
C0W120,西嶼,2014-05-27,23.5626,119.468436,0.99521965
C0G650,員林,2014-05-27,23.946503,120.585597,0.029094065
C0AD50,鶯歌,2014-05-27,24.951533,121.346294,0.9056643
C2H9Q0,北東眼山,2014-05-27,24.120939,121.189303,2.905584e-09
C2H9T0,名間竹圍,2014-05-27,23.859914,120.637572,2.0654206e-06
C0S990,山豬窟,2014-05-27,22.318619,120.857372,0.3575922
72Q010,高雄農改,2014-05-27,22.709333,120.525889,0.9584951
C0X190,安平,2014-05-27,22.993161,120.152181,0.99190956
C0K400,斗六,2014-05-27,23.720583,120.541127,0.018478127
12J990,口湖工作站,2014-05-27,23.589978,120.180394,0.7675884
C0O830,北寮,2014-05-27,23.079561,120.495008,0.2585968
C1D410,白蘭,2014-05-27,24.579364,121.079947,2.4000544e-09
C0S970,加津林,2014-05-27,22.416211,120.926942,0.19675794
C0D700,關西,2014-05-27,24.7977,121.1732,8.724736e-06
C0M810,里佳,2014-05-27,23.389125,120.716647,2.533957e-09
C0U750,龜山島,2014-05-27,24.841667,121.953133,0.9982468
C0R810,內獅,2014-05-27,22.305064,120.642986,0.020386439
C1M390,龍美,2014-05-27,23.406728,120.654417,4.1058463e-09
C2FB60,頭櫃山,2014-05-27,24.129842,120.858925,4.084297e-09
C1H840,國三N238K,2014-05-27,23.841008,120.707711,8.203775e-06
CAQ030,崎峰國小,2014-05-27,22.42565,120.49521,0.6585569
C2E520,大湖,2014-05-27,24.414939,120.870872,1.9218891e-08
467530,阿里山,2014-05-27,23.508208,120.813242,5.458444e-09
C1E691,南湖,2014-05-27,24.40135,120.837533,1.5762712e-09
C0FA30,梧棲,2014-05-27,24.256003,120.523381,0.13952641
C1V231,高中,2014-05-27,23.134911,120.716711,0.111450404
C0F9V0,新社,2014-05-27,24.200172,120.815806,5.090579e-08
C0H890,埔里,2014-05-27,23.972169,120.952425,2.7111232e-06
C0R690,墾丁,2014-05-27,21.966756,120.810269,0.1014271
C0F0D0,審馬陣,2014-05-27,24.381675,121.4203,1.4236304e-08
C0R820,白鷺,2014-05-27,22.454275,120.666219,0.60741717
U2H480,臺大溪頭,2014-05-27,23.670306,120.798194,6.11382e-09
C1V190,南天池,2014-05-27,23.27403,120.91176,4.3809916e-09
K2E360,苗栗農改場,2014-05-27,24.495722,120.829111,3.701117e-06
CAJ050,海口故事園區,2014-05-27,23.57543,120.14121,0.78232604
C2H9D0,三隻寮,2014-05-27,24.093078,120.861578,1.2848899e-08
C0O990,媽廟,2014-05-27,22.99175,120.293525,0.96076363
C0D480,打鐵坑,2014-05-27,24.849664,121.150789,2.1575104e-08
C0Z220,和平林道,2014-05-27,24.343922,121.656317,0.8865677
C0TA10,花蓮漁港,2014-05-27,23.995322,121.638331,0.88030267
72C440,桃園農改場,2014-05-27,24.950944,121.030583,0.0025230355
C1E711,馬拉邦山,2014-05-27,24.367306,120.901656,1.1051052e-09
C0SB20,富岡,2014-05-27,22.792467,121.192669,0.0034266994
C0D560,竹東,2014-05-27,24.767147,121.057881,8.0608215e-06
C0F9U0,南屯,2014-05-27,24.137006,120.637969,0.00033799798
C0M720,番路,2014-05-27,23.464657,120.554156,9.004424e-06
C0F0A0,雪山圈谷,2014-05-27,24.388594,121.236339,1.646248e-08
C1A9N0,四十份,2014-05-27,24.934158,121.593283,0.002244278
C0U760,東澳,2014-05-27,24.52196,121.83318,0.985263
C0X230,鹽水,2014-05-27,23.272621,120.247641,0.99147636
C2H9H0,苗改南投蜂場,2014-05-27,23.852589,120.693481,2.4935896e-06
C0R950,萬隆國小,2014-05-27,22.507667,120.587817,0.97704655
C0V370,古亭坑,2014-05-27,22.893178,120.401947,0.79303694
C1I340,新興橋,2014-05-27,23.563333,120.868728,6.6176176e-09
C0SA80,土坂,2014-05-27,22.453108,120.887572,0.6925625
C0R160,鹽埔,2014-05-27,22.739558,120.530778,0.97723943
C0AC40,大屯山,2014-05-27,25.175675,121.522408,1.3613192e-08
466850,五分山雷達站,2014-05-27,25.071182,121.781205,2.222894e-07
C2H9L0,馬烈霸,2014-05-27,24.1512,121.201772,2.9152318e-09
C1AI50,國三N016K,2014-05-27,25.034164,121.619664,0.58734065
C1V600,藤枝,2014-05-27,23.071961,120.757042,3.1036624e-09
C1E601,南勢,2014-05-27,24.572486,120.734842,5.9937815e-07
C0Z180,新城,2014-05-27,24.03946,121.60454,0.8891468
C0O980,新市,2014-05-27,23.061614,120.298197,0.9685632
C0K420,西螺,2014-05-27,23.800407,120.467394,0.0780135
C0Z050,佳心,2014-05-27,23.34567,121.21316,3.9356983e-08
C0AD30,蘆洲,2014-05-27,25.086594,121.472331,0.8418505
C0V610,梓官,2014-05-27,22.760558,120.267211,0.80785435
K2F750,種苗改良場,2014-05-27,24.225972,120.800917,3.362599e-07
C0UA80,大溪漁港,2014-05-27,24.941801,121.902955,0.99131703
C1AI60,國一39K邊坡,2014-05-27,25.064361,121.383836,0.96973455
C0W150,金寧,2014-05-27,24.457703,118.328989,0.9868598
C0R960,內埔,2014-05-27,22.608483,120.570714,0.97705203
V2C250,八德合作社,2014-05-27,24.93775,121.266389,1.1224303e-05
C2H9S0,龍南,2014-05-27,23.953536,120.833183,2.2184556e-09
C0AH40,平等,2014-05-27,25.129142,121.577086,0.0002971293
C0R540,佳冬,2014-05-27,22.419456,120.552375,0.6585569
466950,彭佳嶼,2014-05-27,25.627975,122.079744,0.046652578
C0A890,雙溪,2014-05-27,25.036003,121.864242,0.99640673
C0C480,桃園,2014-05-27,24.992425,121.323172,1.6419273e-06
C0AH50,林口,2014-05-27,25.072181,121.38084,0.0045626843
A2K360,水試臺西試驗場,2014-05-27,23.717231,120.190522,0.077886805
B2N890,畜試所,2014-05-27,23.058972,120.336406,0.9669966
C2M960,外寮,2014-05-27,23.562643,120.665688,2.781691e-09
C0F9S0,烏日,2014-05-27,24.107058,120.624103,0.43975547
C0C490,八德,2014-05-27,24.928708,121.283289,1.51235645e-05
C0R190,赤山,2014-05-27,22.592333,120.614306,0.9777891
C0T820,天祥,2014-05-27,24.179597,121.495639,0.4834649
C1F9E1,龍安,2014-05-27,24.1605,120.831961,2.854494e-08
C0V820,小林,2014-05-27,23.148408,120.63325,0.0011737099
C2G870,芳苑,2014-05-27,23.922303,120.320025,0.0011128618
C0E850,大河,2014-05-27,24.618069,120.948578,4.489024e-07
C1U670,寒溪,2014-05-27,24.634,121.71691,0.999844
C0N020,城西,2014-05-27,23.0568,120.0956,0.9986134
C1Z110,三棧,2014-05-27,24.11557,121.60501,0.0031418577
C0R280,檳榔,2014-05-27,22.076078,120.836777,0.1359972
C2H9J0,中台,2014-05-27,23.9996,120.938739,1.4289003e-07
C0F9L0,后里,2014-05-27,24.310436,120.729725,8.097074e-08
C0D540,橫山,2014-05-27,24.71116,121.11693,4.969432e-08
C1D420,太閣南,2014-05-27,24.632808,121.160575,1.3042598e-09
C1E770,公館,2014-05-27,24.526914,120.830806,0.00017874209
CAN130,水試所海水繁養殖中心,2014-05-27,23.120802,120.07968,0.99854994
C1I430,翠華,2014-05-27,24.191961,121.224339,4.936893e-09
C1M400,菜瓜坪,2014-05-27,23.251928,120.576103,0.00066768186
C0G730,二林,2014-05-27,23.903325,120.376081,0.8927385
72M360,南改義竹分場,2014-05-27,23.360694,120.279361,0.92298234
V2K620,麥寮合作社,2014-05-27,23.753836,120.294783,0.0004492174
C0Z070,舞鶴,2014-05-27,23.46811,121.37407,0.9994377
C0B040,大武崙,2014-05-27,25.166676,121.706993,0.9972872
C1Z030,紅葉,2014-05-27,23.493119,121.338806,0.99928504
C1I050,丹大,2014-05-27,23.753747,121.141147,4.6089195e-09
C0I080,信義,2014-05-27,23.689694,120.851036,1.171354e-07
C2M920,朴子農改,2014-05-27,23.469889,120.259383,0.014615559
C2A880,福隆,2014-05-27,25.017842,121.942083,0.9997762
C0Z160,鳳林,2014-05-27,23.746114,121.453411,0.99946827
C0V210,復興,2014-05-27,23.222403,120.806089,0.0001239752
C0H990,昆陽,2014-05-27,24.121322,121.273642,7.217291e-09
C0R741,獅子,2014-05-27,22.202308,120.705236,0.0200717
C0S710,鹿野,2014-05-27,22.917711,121.122994,0.00013851958
C0I530,小奇萊,2014-05-27,24.131764,121.295717,8.766384e-09
C2K630,荷苞,2014-05-27,23.657717,120.595144,0.04055611
C0Z080,富源,2014-05-27,23.587642,121.378225,0.9992506
467441,高雄,2014-05-27,22.7304,120.3125,0.64406055
C0SB10,美和,2014-05-27,22.682078,121.060236,0.012508528
C2K620,馬光農場,2014-05-27,23.721453,120.378864,0.28849983
C1I140,卡奈托灣,2014-05-27,23.754364,121.087872,1.9037594e-09
C0I520,玉山風口,2014-05-27,23.470489,120.955994,1.5329302e-08
C1G691,下水埔,2014-05-27,23.816114,120.5676,0.02236085
C0X110,臺南市南區,2014-05-27,22.961189,120.188378,0.9924242
C0V680,仁武,2014-05-27,22.701083,120.347722,0.6358446
C2G840,北斗,2014-05-27,23.877586,120.514222,0.2998752
C0R900,竹坑,2014-05-27,22.1385,120.7022,0.009306812
C0K250,崙背,2014-05-27,23.75555,120.318925,0.00031314706
C0G860,社頭,2014-05-27,23.897647,120.5862,0.021608047
C0X150,安定,2014-05-27,23.102614,120.227839,0.9952291
C0R590,里港,2014-05-27,22.77919,120.49459,0.96939415
C0E610,馬都安,2014-05-27,24.451272,120.930192,2.327353e-09
C0E550,明德,2014-05-27,24.583486,120.885411,6.017832e-07
C0R150,三地門,2014-05-27,22.709889,120.639944,0.9737497
C0G910,花壇,2014-05-27,24.032076,120.549461,0.5702159
C1D400,鳥嘴山,2014-05-27,24.71909,121.28387,1.6764925e-07
C0K500,元長,2014-05-27,23.64981,120.315024,5.964946e-05
C0F0B0,石岡,2014-05-27,24.276061,120.777644,0.06306867
C2V250,甲仙,2014-05-27,23.080106,120.591758,0.0012139481
C0SA20,金崙山,2014-05-27,22.567419,120.959667,1.8888839e-08
C0V350,溪埔,2014-05-27,22.738578,120.446797,0.86111474
C0M660,溪口,2014-05-27,23.604131,120.403569,8.597672e-07
C1S880,壽卡,2014-05-27,22.238911,120.858903,0.3626738
72D680,桃改新埔分場,2014-05-27,24.834444,121.066111,4.6493682e-05
