站號,站名,日期,lat,lon,BLBTSLS
C0R710,龍磐,2014-01-27,21.931672,120.838942,0.9997114
C1F9D1,白毛台,2014-01-27,24.158325,120.886933,3.125649e-09
C0G940,竹塘,2014-01-27,23.848253,120.386764,1.5464322e-09
467590,恆春,2014-01-27,22.003897,120.746339,0.99964124
C1O850,環湖,2014-01-27,23.148617,120.418633,1.2216638e-09
C0U710,太平山,2014-01-27,24.505486,121.525656,2.5379826e-08
C0E820,獅潭,2014-01-27,24.539133,120.920042,2.2747422e-08
C0V880,興達,2014-01-27,22.8778,120.2127,2.7273472e-09
C0S890,關山,2014-01-27,23.0395,121.175017,3.0835196e-08
C0SB30,新蘭,2014-01-27,22.869214,121.223228,1.3980834e-07
C2R970,屏科大,2014-01-27,22.648275,120.619247,9.0536983e-10
K2F750,種苗繁殖,2014-01-27,24.225972,120.800917,3.2810108e-09
C1Z130,銅門,2014-01-27,23.965694,121.492842,2.624507e-08
C0AD40,土城,2014-01-27,24.973208,121.445169,6.230793e-07
CAN140,六官養殖協會,2014-01-27,23.22881,120.29962,2.1918614e-09
C0X180,山上,2014-01-27,23.0757,120.363253,1.1603492e-09
C0F9Z0,雪山東峰,2014-01-27,24.388792,121.268675,3.2622985e-08
C1M480,獨立山,2014-01-27,23.537022,120.607797,6.6302643e-09
C0X220,學甲,2014-01-27,23.230367,120.182187,8.05883e-09
467650,日月潭,2014-01-27,23.881325,120.90805,5.7895195e-09
C0K600,箔子寮,2014-01-27,23.6197,120.14,4.7447672e-09
C0G830,埤頭,2014-01-27,23.866003,120.452806,3.8303485e-09
C0S950,七塊厝,2014-01-27,22.954453,121.229922,2.223201e-08
467110,金門,2014-01-27,24.407306,118.289281,3.7345693e-08
C0AH80,深坑,2014-01-27,25.002703,121.628328,3.8213095e-08
467990,馬祖,2014-01-27,26.169269,119.923419,6.55591e-08
C0A970,三貂角,2014-01-27,25.007606,122.002058,0.06540901
C2D730,寶山農場,2014-01-27,24.732444,120.976153,2.5538455e-07
C0K430,褒忠,2014-01-27,23.690938,120.303634,3.63461e-09
467480,嘉義,2014-01-27,23.495925,120.432906,1.7910311e-09
C2E540,後龍,2014-01-27,24.606489,120.783933,5.274373e-07
C0V400,阿公店,2014-01-27,22.804194,120.355528,7.6977974e-10
C0R440,大漢山,2014-01-27,22.405264,120.753181,2.2266596e-08
C0K280,四湖,2014-01-27,23.630414,120.227125,8.055787e-09
C1F9B1,桐林,2014-01-27,24.066172,120.735194,2.0840663e-09
C2H9U0,鳳鵬,2014-01-27,23.763919,120.788061,6.2235337e-09
C0K390,土庫,2014-01-27,23.679029,120.395574,1.09963e-09
C1I450,望鄉山,2014-01-27,23.594153,120.944286,2.8798523e-08
C0E910,海埔,2014-01-27,24.648767,120.772435,1.6543176e-07
B2E890,畜試北區分所,2014-01-27,24.527806,120.770972,1.37558245e-05
C0R750,四林格山,2014-01-27,22.076989,120.802439,0.9999749
C0F0C0,中坑,2014-01-27,24.248517,120.903319,6.8622676e-09
C1I121,大鞍,2014-01-27,23.678381,120.760017,1.0773544e-08
72U480,花改蘭陽分場,2014-01-27,24.686306,121.716583,0.439002
C0A770,科教館,2014-01-27,25.096356,121.516507,6.8282e-07
C0AJ60,六塊厝,2014-01-27,25.24,121.4481,0.2942548
C0R620,墾雷,2014-01-27,21.900836,120.855269,0.9996411
467420,永康,2014-01-27,23.038386,120.2367,4.098085e-09
467300,東吉島,2014-01-27,23.25695,119.667467,0.9972189
C0I410,名間,2014-01-27,23.837053,120.701447,4.611021e-09
A2C560,農工中心,2014-01-27,24.985917,121.239833,0.023060549
C0V740,旗山,2014-01-27,22.888614,120.483597,1.2099507e-09
C0Z061,玉里,2014-01-27,23.3215,121.339656,4.7715872e-08
C0S840,南田,2014-01-27,22.279725,120.889208,0.99997365
C1I470,杉林溪,2014-01-27,23.639517,120.786444,1.025295e-08
C1X040,東原,2014-01-27,23.291597,120.463822,2.5334448e-09
C0R660,枋寮,2014-01-27,22.367722,120.590647,7.5677653e-10
C1R120,上德文,2014-01-27,22.763272,120.704442,1.29184174e-08
C0K450,大埤,2014-01-27,23.646074,120.431537,1.445464e-09
C0UA00,土場,2014-01-27,24.576533,121.495333,8.802424e-09
467080,宜蘭,2014-01-27,24.763975,121.756528,2.319457e-08
C0N030,四草,2014-01-27,23.0235,120.1116,3.5996934e-09
C0V650,彌陀,2014-01-27,22.783806,120.246361,1.9997746e-09
C0D660,新竹市東區,2014-01-27,24.798681,120.986942,1.5481835e-05
82S580,茶改東部分場,2014-01-27,22.907694,121.130139,2.266319e-08
C0SB40,興隆,2014-01-27,22.913661,121.257469,2.3717817e-08
C0C710,大溪永福,2014-01-27,24.892936,121.324975,0.014874029
C0FA20,溫寮,2014-01-27,24.372177,120.583125,7.313255e-05
C0V640,湖內,2014-01-27,22.887139,120.2445,2.7376772e-09
C0R910,下寮,2014-01-27,22.3929,120.5548,6.8243206e-10
C0Z020,明里,2014-01-27,23.208717,121.262342,3.097183e-08
C0M770,嘉義梅山,2014-01-27,23.585398,120.555587,2.0955178e-09
G2F820,農業試驗所,2014-01-27,24.031261,120.688133,7.1873165e-09
C0C660,楊梅,2014-01-27,24.912375,121.143047,2.0833531e-05
C1E511,新開,2014-01-27,24.347703,120.827019,4.148441e-09
G2F820,農試所(霧峰),2014-01-27,24.031261,120.688133,7.1873165e-09
C1I070,和社,2014-01-27,23.591131,120.888861,5.760814e-09
C2F000,大肚,2014-01-27,24.15295,120.572117,7.631766e-09
C1S850,豐南,2014-01-27,23.122139,121.262389,2.0940366e-08
C2A920,富貴角,2014-01-27,25.263783,121.565258,0.7913328
CAH030,茶改場竹圍站,2014-01-27,23.860083,120.637528,5.8133987e-09
C0T960,光復,2014-01-27,23.660694,121.424964,2.4405677e-08
C0F9M0,豐原,2014-01-27,24.254322,120.720692,2.1338678e-08
C0R720,旭海,2014-01-27,22.205403,120.887614,0.9999677
C0V710,苓雅,2014-01-27,22.622742,120.330669,1.1544198e-09
C0C740,觀音工業區,2014-01-27,25.064764,121.114856,0.95462173
CAC040,拉拉山,2014-01-27,24.699317,121.427133,1.7319856e-08
C0V790,萬山,2014-01-27,22.905944,120.688056,2.5161855e-09
U2HA30,臺大和社,2014-01-27,23.590856,120.888864,5.760814e-09
C0AJ90,澳底,2014-01-27,25.0552,121.9253,0.5869501
C0Z100,東華,2014-01-27,23.89525,121.549833,2.6698824e-08
C0G970,三豐,2014-01-27,23.882,120.2895,3.4213187e-08
V2K610,大庄合作社,2014-01-27,23.8068,120.367939,1.4526554e-09
C0V900,汕尾,2014-01-27,22.4782,120.4151,5.115198e-10
C1R630,龍泉,2014-01-27,22.66701,120.59091,9.2511626e-10
C1AC50,關渡,2014-01-27,25.133486,121.469331,0.00014716433
C0F9I0,神岡,2014-01-27,24.272481,120.658314,2.2673566e-08
C0K460,斗南,2014-01-27,23.678734,120.478359,1.6558487e-09
467410,臺南,2014-01-27,22.993239,120.204772,4.1122967e-09
C2O810,曾文,2014-01-27,23.219681,120.497328,1.4099398e-09
467280,後龍,2014-01-27,24.648563,120.831834,1.5250524e-07
C1F9J1,清水林,2014-01-27,24.071242,120.820419,3.7407197e-09
C2A650,火燒寮,2014-01-27,25.002719,121.742892,0.00025605233
466930,竹子湖,2014-01-27,25.162078,121.544547,1.3584549e-05
C1I220,樟湖,2014-01-27,23.905333,120.846983,9.259836e-09
C0I390,仁愛,2014-01-27,24.022122,121.132206,6.511306e-09
C0Z300,東里,2014-01-27,23.26853,121.30547,4.6802604e-08
C1V590,新發,2014-01-27,23.057019,120.646064,7.613229e-09
C0K510,水林,2014-01-27,23.572924,120.24597,4.717389e-09
72S590,東改賓朗果園,2014-01-27,22.813889,121.071278,8.573104e-08
82A750,茶改北部分場,2014-01-27,24.955778,121.631222,8.833859e-09
C1A750,石碇服務區,2014-01-27,25.00872,121.646242,3.826619e-08
C0X300,鹿寮,2014-01-27,23.386047,120.477331,1.2143644e-09
G2AI50,關渡,2014-01-27,25.11575,121.492,7.074561e-07
C0K590,雲林東勢,2014-01-27,23.674192,120.255721,3.6340069e-09
C0A570,桶後,2014-01-27,24.848222,121.597992,2.464396e-08
C1S800,華源,2014-01-27,22.657883,121.02325,1.6291887e-07
C0G720,溪州,2014-01-27,23.851589,120.499093,3.8781467e-09
C1V160,達卡努瓦,2014-01-27,23.279811,120.705319,9.290565e-09
C2M410,馬頭山,2014-01-27,23.324361,120.582017,2.4887121e-09
C0V850,蚵仔寮,2014-01-27,22.7256,120.2527,4.8517954e-09
C0S740,池上,2014-01-27,23.119628,121.209469,2.1926988e-08
C1V390,尖山,2014-01-27,22.813153,120.367789,8.007818e-10
C0AH70,松山,2014-01-27,25.04871,121.55042,4.1123144e-08
C0N010,鯤鯓國小,2014-01-27,23.1879,120.0889,7.1880706e-09
C0R550,新埤,2014-01-27,22.467947,120.582894,6.41761e-10
C0SA60,知本（水試所）,2014-01-27,22.702394,121.082761,3.6399194e-07
C0T9I0,豐濱,2014-01-27,23.583897,121.514806,4.604019e-08
C0UB00,淡江大學蘭陽校園,2014-01-27,24.823239,121.730383,1.1902048e-08
C0W240,九宮,2014-01-27,24.423753,118.240186,2.969988e-08
C0T9N0,富里,2014-01-27,23.171639,121.249378,2.0291841e-08
U2HA50,臺大竹山,2014-01-27,23.756972,120.681556,4.3751966e-09
C0V840,鳳鼻頭,2014-01-27,22.5083,120.3591,1.1610001e-09
C0X140,西港,2014-01-27,23.125608,120.203108,9.039209e-09
72D080,桃改五峰分場,2014-01-27,24.612194,121.157167,9.468764e-09
C2H9P0,伊拿谷,2014-01-27,23.963211,121.088264,4.2241015e-09
C2H9F0,柑林,2014-01-27,24.018658,120.847072,5.8431913e-09
C0TA20,加灣,2014-01-27,24.082025,121.608944,2.723715e-08
C0V530,阿蓮,2014-01-27,22.883208,120.327508,1.4071136e-09
C1O880,關山,2014-01-27,23.173397,120.594092,2.8837919e-09
C0E791,卓蘭,2014-01-27,24.3126,120.8244,4.18361e-09
C1I030,武界,2014-01-27,23.913225,121.052483,5.301091e-09
C0R520,崁頂,2014-01-27,22.514781,120.506914,6.8094075e-10
C0R341,牡丹,2014-01-27,22.130036,120.792639,0.043718114
C0R930,萬丹,2014-01-27,22.5885,120.4851,6.327412e-10
C0S760,紅石,2014-01-27,23.069131,121.126219,1.849102e-08
C1M610,石磐龍,2014-01-27,23.496606,120.663506,8.465806e-09
C0UA10,鴛鴦湖,2014-01-27,24.590269,121.412228,1.554207e-08
V2C260,八德蔬果,2014-01-27,24.978508,121.281819,0.00020328232
C0R800,丹路,2014-01-27,22.204481,120.750989,0.157341
C0G920,永靖,2014-01-27,23.924703,120.547533,5.5824647e-09
C2M950,太和,2014-01-27,23.538372,120.702961,1.1172199e-08
C1A630,下盆,2014-01-27,24.771003,121.538622,1.0547486e-08
B2N890,畜產試驗所,2014-01-27,23.058972,120.336406,1.5891068e-09
C0UA30,白嶺,2014-01-27,24.527819,121.519031,1.5852207e-08
C1V580,溪南(特生中心),2014-01-27,23.084972,120.788475,1.4483955e-08
C1T970,大農,2014-01-27,23.615233,121.413331,2.4336927e-08
E2S960,林試太麻里2,2014-01-27,22.598014,120.989761,8.039796e-08
C0R650,竹田,2014-01-27,22.58486,120.54344,6.327412e-10
C1H900,清流,2014-01-27,24.080775,120.962997,4.6925845e-09
C1C510,水尾,2014-01-27,24.940081,121.087161,5.710596e-05
C0F9X0,大雅(中科園區),2014-01-27,24.21528,120.62445,4.3820177e-07
C0SB60,白守蓮,2014-01-27,23.126769,121.401914,5.1006868e-08
C0O970,虎頭埤,2014-01-27,23.021375,120.347878,1.4881938e-09
C0C730,中大臨海站,2014-01-27,24.966126,121.008581,0.99964666
C0X250,新營,2014-01-27,23.310689,120.316681,1.5776067e-09
C0V700,三民,2014-01-27,22.645017,120.311233,1.1544198e-09
C0U870,大礁溪,2014-01-27,24.791042,121.675047,1.1443316e-08
C0E870,高鐵苗栗,2014-01-27,24.60725,120.826094,4.570016e-07
A2K570,古坑花卉中心,2014-01-27,23.63353,120.55239,2.2992603e-09
C0M860,新美,2014-01-27,23.338017,120.683169,4.913811e-09
C1E701,八卦,2014-01-27,24.491756,120.927619,1.669486e-08
C0I420,國姓,2014-01-27,24.037803,120.855072,3.1506264e-09
C2D720,關西工作站,2014-01-27,24.757275,121.184792,1.4129026e-06
C0S960,香蘭,2014-01-27,22.587569,120.993375,8.044873e-08
C0R260,春日,2014-01-27,22.370361,120.628306,2.959871e-08
72G600,臺中農改場,2014-01-27,24.003028,120.534389,9.9612805e-08
C0Z210,瑞穗,2014-01-27,23.5239,121.39021,4.6958192e-08
C0M820,達邦,2014-01-27,23.453994,120.749517,6.4368835e-09
C0V860,南寮,2014-01-27,22.7616,120.2339,1.9897377e-09
C0G740,大城,2014-01-27,23.852487,120.320935,3.3027497e-08
C0R920,塭仔,2014-01-27,22.4169,120.5197,6.759703e-10
C0R470,高樹,2014-01-27,22.826389,120.600806,1.2781675e-09
C0R680,佳樂水,2014-01-27,21.993578,120.861633,0.9996351
C1O870,大棟山,2014-01-27,23.31157,120.52226,1.0195052e-08
C0D360,梅花,2014-01-27,24.678347,121.208558,2.0793026e-08
C0Z190,富世,2014-01-27,24.14743,121.6297,1.2955184e-08
C0AI10,屈尺,2014-01-27,24.92184,121.54475,3.8196262e-08
B2U990,畜試東區分所,2014-01-27,24.669039,121.832561,0.666314
C0SB80,長濱漁港,2014-01-27,23.313644,121.459994,5.514968e-08
C0R240,來義,2014-01-27,22.527306,120.625111,2.2600425e-08
C0V910,大樹,2014-01-27,22.684645,120.432803,7.940728e-10
C1R610,西大武山,2014-01-27,22.617719,120.7322,2.4567836e-08
C0G900,線西,2014-01-27,24.143358,120.443536,0.009663036
C0M700,竹崎,2014-01-27,23.526178,120.555508,2.4887405e-09
C2E880,三義,2014-01-27,24.405478,120.749819,5.4778746e-09
C0C720,竹圍,2014-01-27,25.112692,121.239824,0.25378028
C0F9P0,清水,2014-01-27,24.312297,120.562242,1.0505681e-05
C0Z150,吉安光華,2014-01-27,23.930925,121.595153,2.6706413e-08
C1D640,外坪(五指山),2014-01-27,24.644447,121.090961,1.4671301e-08
C0F9O0,潭子,2014-01-27,24.213106,120.703933,8.810285e-09
C2H9R0,卓社,2014-01-27,23.887894,121.000086,7.6293505e-09
72T250,花蓮農改場,2014-01-27,23.975222,121.563889,2.610249e-08
C0E780,銅鑼,2014-01-27,24.489681,120.790853,8.21452e-08
C1T950,太安,2014-01-27,23.666719,121.370128,2.061033e-08
C0E830,苑裡,2014-01-27,24.439714,120.653053,3.4587287e-05
467270,田中,2014-01-27,23.873803,120.581286,3.0134906e-09
C0SA10,檳榔四格山,2014-01-27,22.810031,121.109308,6.980487e-08
C1T830,布洛灣,2014-01-27,24.17184,121.57127,3.869371e-08
C0F970,大坑,2014-01-27,24.173142,120.722289,2.0564661e-08
C1U920,思源,2014-01-27,24.393125,121.347214,1.9376722e-08
C0A931,三和,2014-01-27,25.233153,121.595236,0.0023926618
C0I010,廬山,2014-01-27,24.033311,121.181808,1.0286484e-08
C2M940,日野賀,2014-01-27,23.434056,120.727169,8.927324e-09
C0R860,鼻頭,2014-01-27,22.1043,120.8979,0.9997782
C0UB20,壯圍,2014-01-27,24.7359,121.8163,0.666314
C0R790,九棚,2014-01-27,22.14195,120.889281,0.99997914
C0W110,東莒,2014-01-27,25.9652,119.98069,6.1325786e-06
C1U930,粉鳥林,2014-01-27,24.497088,121.842479,2.8135268e-08
C1I211,蘆竹湳,2014-01-27,23.934019,120.811994,7.431282e-09
C0S830,長濱,2014-01-27,23.286817,121.411975,3.2223486e-08
C1F9F1,伯公龍,2014-01-27,24.272392,120.849047,5.1723195e-09
C0E810,西湖,2014-01-27,24.562947,120.7485,4.091839e-07
C1I440,新高口,2014-01-27,23.478744,120.878939,1.8878394e-08
C0O840,王爺宮,2014-01-27,23.222064,120.40085,1.4099398e-09
C0T9G0,鳳林山,2014-01-27,23.735269,121.420131,2.5475856e-08
C0X080,佳里,2014-01-27,23.173039,120.145086,8.3027745e-09
C0FB70,大甲溪埔,2014-01-27,24.370625,120.620067,2.7644885e-05
C0Z310,清水斷崖,2014-01-27,24.218294,121.689142,5.7086858e-08
C0M680,太保,2014-01-27,23.455062,120.331455,1.1859328e-09
C1S820,金峰,2014-01-27,22.590969,120.933236,3.4157306e-08
C0AD10,八里,2014-01-27,25.150211,121.403947,0.2541579
C2K240,草嶺,2014-01-27,23.59555,120.693461,8.918713e-09
C1SA70,都蘭,2014-01-27,22.87794,121.226881,2.3717817e-08
C0K440,二崙,2014-01-27,23.772797,120.408944,1.5708299e-09
C1A760,坪林交控,2014-01-27,24.94284,121.713442,3.1844184e-08
C0F9N0,大里,2014-01-27,24.092464,120.701378,6.778268e-07
C0SA90,達仁林場,2014-01-27,22.264347,120.823972,0.0009430571
C1R290,石門山,2014-01-27,22.112611,120.756597,0.9999793
42HA10,萬大發電廠,2014-01-27,23.978875,121.139639,8.640653e-09
C0R890,山海,2014-01-27,21.9878,120.7091,0.99961793
C0T9A0,月眉山,2014-01-27,23.809928,121.539828,2.8000521e-08
C0AC70,信義,2014-01-27,25.037822,121.564597,4.1123144e-08
C0K560,棋山,2014-01-27,23.68645,120.603417,1.9527047e-09
C2FB50,出雲,2014-01-27,24.206469,120.902794,5.8093086e-09
C1Z240,中平林道,2014-01-27,23.42115,121.26763,2.8720684e-08
U2H480,溪頭,2014-01-27,23.670306,120.798194,8.907594e-09
C0M880,好美里,2014-01-27,23.3364,120.138,8.3027745e-09
C0T9E0,大坑,2014-01-27,23.880628,121.581981,2.7660109e-08
C0K530,臺西,2014-01-27,23.701547,120.197559,1.5449178e-08
C1E900,國一N128K,2014-01-27,24.560997,120.844186,3.453033e-07
C0AJ50,水湳洞,2014-01-27,25.123695,121.862238,0.9978329
C0AI20,白沙灣,2014-01-27,25.283128,121.519058,0.9973125
C0A860,大坪,2014-01-27,25.165914,121.632969,0.00023949702
C1U850,觀音海岸,2014-01-27,24.38319,121.77856,4.6955236e-08
C2K610,草嶺石壁,2014-01-27,23.602469,120.707731,8.851265e-09
C0U950,鶯子嶺,2014-01-27,24.89754,121.79244,4.245986e-08
C0O900,善化,2014-01-27,23.112883,120.297219,1.5975858e-09
C0K550,蔦松,2014-01-27,23.514319,120.229736,2.540093e-09
E2P980,林試六龜中心,2014-01-27,22.991703,120.645722,2.215462e-09
C0E590,通霄,2014-01-27,24.471892,120.704622,3.422303e-05
C1I310,西巒,2014-01-27,23.754486,120.883956,9.359182e-09
C0A550,泰平,2014-01-27,24.971197,121.823711,1.923004e-06
C0I360,水里,2014-01-27,23.812553,120.849792,5.5574776e-09
C0R830,高士,2014-01-27,22.121825,120.836781,0.99998885
C1I101,溪頭,2014-01-27,23.661789,120.807647,1.3136929e-08
C0AJ20,野柳,2014-01-27,25.20703,121.690021,0.9978329
C0B060,暖暖,2014-01-27,25.0957,121.7403,0.9885838
C1H920,長豐,2014-01-27,24.102039,120.879897,3.841704e-09
C0V360,內門,2014-01-27,22.975481,120.466769,1.4102788e-09
C0R850,林邊,2014-01-27,22.4634,120.5339,6.8094075e-10
C0E930,龍鳳,2014-01-27,24.700034,120.859125,2.2903984e-07
C0U910,冬山,2014-01-27,24.63373,121.7937,0.666314
C1E721,泰安,2014-01-27,24.489017,120.968036,8.736572e-09
82H320,茶改中部分場,2014-01-27,23.875611,120.913583,5.418208e-09
C0M750,布袋,2014-01-27,23.380878,120.167789,2.620824e-09
C1S860,利嘉,2014-01-27,22.809417,121.050528,1.4800505e-08
72C440,桃園農改,2014-01-27,24.950944,121.030583,0.99913466
E2S980,林試太麻里1,2014-01-27,22.598922,120.980044,5.3944525e-08
C0X170,關廟,2014-01-27,22.963017,120.327797,1.3161702e-09
C0V720,林園,2014-01-27,22.507747,120.394511,1.1543559e-09
C1I510,線浸林道,2014-01-27,23.761508,120.832956,8.883094e-09
C0D690,外湖,2014-01-27,24.917735,120.968711,0.999644
C0C750,新興坑尾,2014-01-27,25.0061,121.0971,0.7167258
B2Q810,畜試南區分所,2014-01-27,21.945583,120.802167,0.9996336
C0S790,金崙,2014-01-27,22.538122,120.966875,3.1099276e-08
C0AH90,福山植物園,2014-01-27,24.760717,121.58135,1.9723762e-08
C0I540,奇萊稜線,2014-01-27,24.109231,121.326456,3.8017316e-08
C0M850,表湖,2014-01-27,23.24186,120.64166,5.1334e-09
C0S770,大溪山,2014-01-27,22.478475,120.943325,2.2220181e-08
C0AG80,中和,2014-01-27,24.991622,121.491792,4.1123144e-08
C0T790,大禹嶺,2014-01-27,24.186117,121.316086,2.6862535e-08
C0T9B0,水源,2014-01-27,23.991861,121.537169,2.8421075e-08
C0R840,牡丹池山,2014-01-27,22.168389,120.841225,0.0016363647
C1I131,桶頭,2014-01-27,23.641944,120.654117,3.0578593e-09
CAL110,布袋國中,2014-01-27,23.35893,120.18026,2.900202e-09
467571,新竹,2014-01-27,24.827853,121.014219,2.0672673e-05
C0Z290,赤柯山,2014-01-27,23.36893,121.38293,2.5813746e-08
C0X280,將軍,2014-01-27,23.214999,120.13577,8.3027745e-09
C0S690,太麻里,2014-01-27,22.60902,120.98533,4.5681986e-08
C0U880,北關,2014-01-27,24.9072,121.8734,1.0965396e-07
C1H860,瑞岩,2014-01-27,24.123772,121.18345,1.1540482e-08
C0G810,埔心,2014-01-27,23.947633,120.525456,5.640206e-09
C0U970,大福,2014-01-27,24.80064,121.81389,2.3171799e-08
C2H9N0,仁愛東眼,2014-01-27,24.026875,121.1205,8.345929e-09
C1E670,南礦,2014-01-27,24.538278,121.002836,1.1985883e-08
C0M520,東後寮,2014-01-27,23.369908,120.248065,2.8728833e-09
C1E461,松安,2014-01-27,24.397972,120.986022,7.986681e-09
72G600,臺中農改,2014-01-27,24.003028,120.534389,9.9612805e-08
C2N160,西拉雅風管處,2014-01-27,23.189481,120.335297,2.2298545e-09
C2M970,碧湖,2014-01-27,23.568632,120.624165,7.8255145e-09
C0A640,石碇,2014-01-27,24.993969,121.662917,0.00066185574
E2S960,林試太麻里2,2014-01-27,22.598,120.99775,8.5564416e-08
C0F9Y0,桃山,2014-01-27,24.432739,121.303808,3.511101e-08
C1I020,萬大,2014-01-27,23.979817,121.132261,6.608649e-09
C0U940,羅東,2014-01-27,24.68184,121.74934,0.58521205
C0M650,朴子,2014-01-27,23.43463,120.23902,2.5902906e-09
C1I500,大尖山,2014-01-27,23.858572,120.994889,1.5990013e-08
C0G820,田尾,2014-01-27,23.901669,120.509389,5.5680878e-09
E2K600,四湖植物園,2014-01-27,23.676986,120.163433,1.5495273e-08
C0S730,綠島,2014-01-27,22.6672,121.47533,3.9398667e-08
12Q970,東港工作站,2014-01-27,22.479997,120.466058,6.8243206e-10
C0E430,南庄,2014-01-27,24.601775,121.000214,2.2908042e-08
C1TA00,太魯閣,2014-01-27,24.15773,121.6236,5.7995692e-08
466920,臺北,2014-01-27,25.037658,121.514853,4.1123144e-08
C0R600,舊泰武,2014-01-27,22.588194,120.664944,6.150863e-09
C1I260,北坑,2014-01-27,23.9246,121.006903,3.3402585e-09
466910,鞍部,2014-01-27,25.182586,121.529731,3.0480833e-06
C1I230,九份二山,2014-01-27,23.961944,120.845,4.52294e-09
C2A660,瑞芳,2014-01-27,25.113169,121.801147,0.09453486
C0R270,琉球嶼,2014-01-27,22.332244,120.362236,2.9670495e-08
C1T990,高寮,2014-01-27,23.394239,121.356808,8.848146e-08
C0G620,芬園,2014-01-27,24.015678,120.6213,7.4194846e-09
C1Z140,荖溪,2014-01-27,23.890575,121.45964,2.3596888e-08
C1I201,中心崙,2014-01-27,23.728722,120.712097,5.2115845e-09
C1I400,凌霄,2014-01-27,24.018778,121.004456,8.088165e-09
C1M640,十字,2014-01-27,23.492153,120.753683,1.1503474e-08
G2P820,農試鳳山分所,2014-01-27,22.646611,120.356083,1.1535789e-09
C0Z270,蕃薯寮,2014-01-27,23.73835,121.540108,3.4755146e-08
C0F9Q0,外埔,2014-01-27,24.347817,120.705686,2.5274998e-08
C0K580,高鐵雲林,2014-01-27,23.737456,120.417944,1.09963e-09
C2I090,鳳凰,2014-01-27,23.728081,120.787347,5.7449365e-09
C0U990,員山,2014-01-27,24.74435,121.72247,0.58521205
C0V770,大社,2014-01-27,22.730306,120.346639,4.65264e-09
C0X120,麻豆,2014-01-27,23.183289,120.248611,8.05883e-09
C0C670,龍潭,2014-01-27,24.870056,121.221389,1.3960847e-07
C0D680,香山濕地,2014-01-27,24.783581,120.914988,6.674332e-05
C0S980,勝林山,2014-01-27,22.430439,120.8938,1.1628488e-08
C0V730,大寮,2014-01-27,22.605614,120.395717,1.1506189e-09
C0R570,麟洛,2014-01-27,22.65078,120.52719,6.225205e-10
C2M930,石卓,2014-01-27,23.478744,120.702264,1.130122e-08
C0G9B0,和美,2014-01-27,24.105169,120.492131,4.577776e-07
CAG100,王功漁港,2014-01-27,23.96824,120.32586,1.8727609e-07
C0X290,北門,2014-01-27,23.267772,120.125481,8.3027745e-09
C2F930,大甲,2014-01-27,24.347667,120.640403,1.791497e-06
C0D650,湖口,2014-01-27,24.904794,121.043628,0.99664015
C0E420,竹南,2014-01-27,24.708978,120.888897,4.3044416e-05
C0U780,五結,2014-01-27,24.68637,121.79794,0.666314
C1I250,鯉潭,2014-01-27,23.961922,120.991131,3.841704e-09
C0R130,阿禮,2014-01-27,22.742908,120.743678,5.8641256e-09
C0X100,臺南市北區,2014-01-27,23.010394,120.194228,4.2223136e-09
C0S920,金峰嘉蘭,2014-01-27,22.594789,120.960825,5.057847e-08
C0V490,新興,2014-01-27,22.627422,120.298803,1.1543559e-09
C0F9K0,大安,2014-01-27,24.345061,120.588025,7.4938366e-06
72N100,臺南農改,2014-01-27,23.0605,120.342194,1.5860788e-09
467290,古坑,2014-01-27,23.633639,120.551889,2.2992603e-09
C2E970,八甲,2014-01-27,24.535811,120.795983,7.973198e-08
C0V440,鳳山,2014-01-27,22.646653,120.356122,1.1535789e-09
C1T940,大觀,2014-01-27,23.714206,121.373133,3.439239e-08
72T250,花蓮農改,2014-01-27,23.975222,121.563889,2.610249e-08
C0E740,造橋,2014-01-27,24.637056,120.864778,1.892254e-07
C0R100,尾寮山,2014-01-27,22.833111,120.683889,6.4148713e-09
A2K630,臺大雲林校區,2014-01-27,23.730628,120.423903,1.09963e-09
C0D580,寶山,2014-01-27,24.735006,121.025192,4.342434e-08
E2P990,林試扇平站,2014-01-27,22.9677,120.6857,6.8530985e-09
C0AI30,三重,2014-01-27,25.057328,121.500629,6.8282e-07
C0AH00,汐止,2014-01-27,25.066881,121.658778,0.9978329
C1Z040,立山,2014-01-27,23.443356,121.327375,3.8045677e-08
C0W130,花嶼,2014-01-27,23.40007,119.32276,0.99866563
C0A950,鼻頭角,2014-01-27,25.129036,121.923372,0.6425713
C0K470,林內,2014-01-27,23.748675,120.609642,2.4362552e-09
C2F990,摩天嶺,2014-01-27,24.322458,120.936819,7.1601014e-09
82C160,茶改場,2014-01-27,24.908472,121.185333,9.699627e-07
C0Z320,清水林道,2014-01-27,23.27125,121.188272,3.0178867e-08
C0R760,南仁湖,2014-01-27,22.084681,120.863353,0.99998116
C0M670,大林,2014-01-27,23.600616,120.45841,3.0198772e-09
C0M800,茶山,2014-01-27,23.299075,120.664767,3.33355e-09
C0A9C0,天母,2014-01-27,25.117494,121.537169,6.036144e-07
72K220,南改斗南分場,2014-01-27,23.634556,120.477333,2.2509814e-09
72AI40,桃改樹林分場,2014-01-27,24.944503,121.386972,5.5598923e-07
C0S910,蘭嶼燈塔,2014-01-27,22.081197,121.503117,0.9996691
C0B050,八斗子,2014-01-27,25.144754,121.79167,0.9986308
C0U900,內城,2014-01-27,24.71813,121.68766,2.2592323e-08
C0X320,柳營,2014-01-27,23.253328,120.375253,1.2708722e-09
C0M790,新港,2014-01-27,23.553269,120.345728,1.5248953e-09
C0F9T0,西屯,2014-01-27,24.179494,120.641275,1.2644023e-06
C0SA30,都歷,2014-01-27,23.020333,121.323642,4.2744094e-08
C0C620,蘆竹,2014-01-27,25.084275,121.265767,0.15472397
C0R730,大坪頂,2014-01-27,22.024633,120.69355,0.9995795
C0AJ40,石門,2014-01-27,25.273672,121.601198,0.92403877
C0E750,苗栗,2014-01-27,24.564569,120.824575,3.4988346e-07
C0T870,鯉魚潭,2014-01-27,23.935639,121.508944,2.6010847e-08
C1V170,排雲,2014-01-27,23.463619,120.954147,4.3799158e-08
C2H950,中寮,2014-01-27,23.884447,120.766406,4.6890416e-09
C0R350,貓鼻頭,2014-01-27,21.921774,120.7358,0.9996411
C0V660,岡山,2014-01-27,22.797078,120.294958,1.6949543e-09
C1H941,雙冬,2014-01-27,23.967378,120.802189,3.394038e-09
C0AJ70,田寮,2014-01-27,25.2698,121.4886,0.9976533
C0AI00,五股,2014-01-27,25.07445,121.42728,0.1105235
C0Z280,德武,2014-01-27,23.47426,121.41071,7.669827e-08
C0R700,枋山,2014-01-27,22.246844,120.661086,0.79329777
C0C460,復興,2014-01-27,24.820208,121.352281,1.6271398e-08
E2H360,蓮華池,2014-01-27,23.918333,120.885278,4.5890163e-09
C0M640,中埔,2014-01-27,23.42538,120.5229,2.3300846e-09
C0W140,金沙,2014-01-27,24.488292,118.408778,3.5211944e-08
C2A540,四堵,2014-01-27,24.8926,121.745736,4.4233917e-07
C0ACA0,新莊,2014-01-27,25.051478,121.446756,0.26727617
C0R220,潮州,2014-01-27,22.534361,120.54,7.6684886e-10
U2HA40,臺大內茅埔,2014-01-27,23.689722,120.851117,7.997214e-09
467490,臺中,2014-01-27,24.145736,120.684075,6.833442e-09
C0U960,翠峰湖,2014-01-27,24.510856,121.608044,2.4711127e-08
E2HA20,林試畢祿溪站,2014-01-27,24.226944,121.308522,1.5974953e-08
C0V890,前鎮,2014-01-27,22.5718,120.3117,1.1619549e-09
467620,蘭嶼,2014-01-27,22.036969,121.558339,0.9995137
C1F941,雪嶺,2014-01-27,24.280586,121.026642,2.2794415e-08
C2H9E0,國姓南港,2014-01-27,23.911108,120.846556,9.630083e-09
C0AC80,文山,2014-01-27,25.00235,121.575728,3.8196262e-08
C0F9R0,龍井,2014-01-27,24.184536,120.528972,0.0003960744
C0M760,民雄,2014-01-27,23.551754,120.428457,1.9403747e-09
C0UA40,西德山,2014-01-27,24.560647,121.752608,3.0568696e-08
C1T920,中興,2014-01-27,23.769503,121.498653,2.6050218e-08
C0D550,雪霸,2014-01-27,24.526972,121.11605,1.6541701e-08
C2F860,梨山,2014-01-27,24.247522,121.243669,1.6435655e-08
C0R320,車城,2014-01-27,22.0744,120.716247,0.99961793
C1S870,南美山,2014-01-27,23.15025,121.382333,2.9720677e-08
C0B020,基隆嶼,2014-01-27,25.19141,121.78391,0.9978329
C1U501,牛鬥,2014-01-27,24.637836,121.573656,9.709057e-09
C0M730,嘉義市東區,2014-01-27,23.457673,120.460531,3.26483e-09
C0S700,知本,2014-01-27,22.684866,121.005642,4.7377426e-08
C1N001,沙崙,2014-01-27,22.935472,120.309406,1.4071136e-09
C0V760,橋頭,2014-01-27,22.757806,120.30575,1.6867305e-09
C0G960,福寶,2014-01-27,24.0443,120.3814,8.170133e-07
C0X210,白河,2014-01-27,23.347466,120.414427,1.2936608e-09
C0S810,東河,2014-01-27,22.972672,121.303986,2.3896225e-08
C2R170,屏東,2014-01-27,22.66027,120.49403,6.16439e-10
C0R670,楓港,2014-01-27,22.190131,120.692156,0.79329777
C0FA50,霧峰,2014-01-27,24.0419,120.6995,4.0024602e-08
C0UB10,蘇澳,2014-01-27,24.5969,121.8571,6.1456535e-07
C0G950,防潮門,2014-01-27,24.1835,120.4871,0.00057595235
C0M740,六腳,2014-01-27,23.492871,120.290625,1.1819696e-09
C1R250,力里,2014-01-27,22.428117,120.629228,2.2575007e-08
C0K330,虎尾,2014-01-27,23.719183,120.442036,1.1138321e-09
C2FA00,烏石坑,2014-01-27,24.273503,120.947617,7.1319963e-09
C0V620,永安,2014-01-27,22.82315,120.236856,1.9997706e-09
C1I330,楓樹林,2014-01-27,23.986803,121.076117,7.3508573e-09
C0W200,湖西,2014-01-27,23.596314,119.67275,0.9974005
72Q010,高雄農改場,2014-01-27,22.709333,120.525889,6.321248e-10
C0SA40,瑞和,2014-01-27,22.974361,121.156697,3.3416175e-08
C0C680,龜山,2014-01-27,25.02846,121.38656,2.9312409e-08
C2V260,月眉,2014-01-27,22.971003,120.539853,1.6673498e-09
C0V450,鳳森,2014-01-27,22.545064,120.392592,1.1732032e-09
C0U720,南山,2014-01-27,24.43742,121.38167,1.5489304e-08
A2N290,臺南蘭花園區,2014-01-27,23.340258,120.379661,1.2712528e-09
C0R560,新園,2014-01-27,22.5434,120.461558,6.8094075e-10
C0U890,三星,2014-01-27,24.66812,121.65302,2.1769965e-08
C1V300,御油山,2014-01-27,23.001983,120.715364,1.4195631e-08
C0U600,礁溪,2014-01-27,24.817539,121.765608,2.289223e-08
C1T980,龍澗,2014-01-27,24.023289,121.411328,2.2692387e-08
C0D670,海天一線,2014-01-27,24.831986,120.914438,8.411154e-05
C0SA00,歷坵,2014-01-27,22.520969,120.89185,2.0781608e-08
C0M710,東石,2014-01-27,23.458927,120.15385,2.540093e-09
C0M780,鹿草,2014-01-27,23.41134,120.30835,1.1710392e-09
C0U520,雙連埤,2014-01-27,24.753033,121.641303,1.1509685e-08
C0B010,七堵,2014-01-27,25.094819,121.71713,0.9965047
C0R480,長治,2014-01-27,22.693128,120.542622,8.2166746e-10
C1V830,國三S383K,2014-01-27,22.781967,120.426475,1.163272e-09
12Q980,恆春工作站,2014-01-27,22.079678,120.714425,0.99961793
C1O940,東山服務區,2014-01-27,23.286016,120.398472,1.297699e-09
C1U840,東澳嶺,2014-01-27,24.5378,121.8485,3.601412e-08
C1D630,飛鳳山,2014-01-27,24.766464,121.119178,1.4907231e-08
C0S940,石寧山,2014-01-27,23.223772,121.406639,3.2864367e-08
C0K410,北港,2014-01-27,23.573957,120.292802,1.5272035e-09
C2M620,瑞里,2014-01-27,23.545133,120.675197,9.885549e-09
C0SB70,小港漁港,2014-01-27,23.158558,121.400431,3.544631e-08
C2O950,安南,2014-01-27,23.076694,120.144861,2.3931301e-08
C0F0E0,南湖圈谷,2014-01-27,24.363714,121.444667,4.901878e-08
467610,成功,2014-01-27,23.097486,121.373428,4.8364416e-08
C0G890,伸港,2014-01-27,24.148933,120.484403,0.0052864966
C2E540,龍溪,2014-01-27,24.606489,120.783933,5.274378e-07
C1V200,梅山,2014-01-27,23.268447,120.823556,7.524806e-09
C0T9H0,加路蘭山,2014-01-27,23.682947,121.5274,2.619456e-08
C2O930,玉井,2014-01-27,23.126042,120.46055,1.2216638e-09
C1F911,新伯公,2014-01-27,24.221361,120.841069,2.9577418e-09
C0R490,九如,2014-01-27,22.7405,120.490503,6.2238037e-10
C0X200,左鎮,2014-01-27,23.056758,120.408522,1.1519716e-09
C0SB50,叭嗡嗡,2014-01-27,23.047062,121.343223,2.4753158e-08
C1F891,稍來,2014-01-27,24.265689,121.001142,1.5748627e-08
72N240,七股研究中心,2014-01-27,23.081672,120.062894,4.8717997e-08
C0C700,中壢,2014-01-27,24.977661,121.256375,0.00013988248
C0M690,水上,2014-01-27,23.419734,120.388909,1.903309e-09
C0V690,鼓山,2014-01-27,22.623325,120.275575,1.1543559e-09
C0O860,大內,2014-01-27,23.11885,120.36083,1.0206331e-09
C0Z200,萬榮,2014-01-27,23.709219,121.420106,2.6010847e-08
C0T9D0,和中,2014-01-27,24.26676,121.74103,6.934241e-08
C1O921,楠西,2014-01-27,23.183511,120.484083,1.2686223e-09
C0AJ30,淡水觀海,2014-01-27,25.184591,121.408616,0.29425475
C0V810,左營,2014-01-27,22.67491,120.28491,4.6949213e-09
C0UA70,桃源谷,2014-01-27,24.962606,121.888875,1.0243468e-06
C0X130,官田,2014-01-27,23.193217,120.315422,2.1679665e-09
C1H000,翠峰,2014-01-27,24.109397,121.205211,2.0189418e-08
C0UA90,石城,2014-01-27,24.980444,121.951214,0.43057388
C1E681,南勢山,2014-01-27,24.421669,120.923831,7.378474e-09
C0A9F0,內湖,2014-01-27,25.079422,121.57545,4.1123144e-08
C0K291,宜梧,2014-01-27,23.536281,120.169329,2.5470646e-09
C1K540,口湖,2014-01-27,23.585344,120.180517,4.7575357e-09
C0R780,滿州,2014-01-27,22.024403,120.839892,0.9996454
C0V870,文安,2014-01-27,22.8025,120.2164,1.9897377e-09
C0U650,玉蘭,2014-01-27,24.675286,121.587061,1.3431107e-08
C0R640,東港,2014-01-27,22.46247,120.44074,1.1619549e-09
K2E360,苗栗農改,2014-01-27,24.495722,120.829111,1.0391575e-07
C0AJ80,板橋,2014-01-27,25.0107,121.4489,6.230793e-07
C0S660,下馬,2014-01-27,23.150427,121.070312,2.6688793e-08
C1H9B1,阿眉,2014-01-27,24.1263,120.994672,1.3107495e-08
C0UA20,多加屯,2014-01-27,24.368614,121.373189,2.278933e-08
C0E730,頭份,2014-01-27,24.688247,120.912206,4.2952728e-05
72V140,高改旗南分場,2014-01-27,22.857861,120.516667,1.426285e-09
C0K480,莿桐,2014-01-27,23.761192,120.502372,1.9337023e-09
C0U980,坪林石牌,2014-01-27,24.86478,121.77396,2.4641421e-08
C0T900,西林,2014-01-27,23.8119,121.441458,2.5807346e-08
C1I150,青雲,2014-01-27,23.793361,120.949378,6.871331e-09
467350,澎湖,2014-01-27,23.565503,119.563094,0.9984153
C0G800,埔鹽,2014-01-27,24.000394,120.431683,7.339869e-07
C0H960,草屯,2014-01-27,23.973672,120.68085,3.1115694e-09
C1V780,多納林道,2014-01-27,22.888028,120.737917,9.01378e-09
C0E920,通霄漁港,2014-01-27,24.498589,120.673876,0.00011777649
C0Z330,安通山,2014-01-27,23.290728,121.348528,2.3831864e-08
C0AH10,永和,2014-01-27,25.01125,121.508111,4.1488466e-08
C0AK10,太平里,2014-01-27,25.134937,121.364899,0.26727617
C2G640,鹿港,2014-01-27,24.0753,120.430481,7.339869e-07
C1E890,國三N149K,2014-01-27,24.463414,120.680019,2.1342326e-05
C1R110,口社,2014-01-27,22.770111,120.645222,1.3077124e-09
C1M870,國三N285K,2014-01-27,23.550319,120.505833,2.5550833e-09
467050,新屋,2014-01-27,25.006744,121.047486,0.9995739
C1E480,鳳美,2014-01-27,24.554803,121.034747,6.3389143e-09
C0M530,奮起湖,2014-01-27,23.493903,120.699253,1.1254542e-08
C0C590,觀音,2014-01-27,25.027072,121.153317,0.0014204469
C0T9M0,靜浦,2014-01-27,23.455167,121.495028,5.0207078e-08
C2H9M0,發祥,2014-01-27,24.154094,121.164517,6.4430865e-09
C0AI40,石牌,2014-01-27,25.115597,121.513139,6.230793e-07
C1F871,上谷關,2014-01-27,24.203483,121.018644,7.1113497e-09
C2H9G0,百勝,2014-01-27,24.051142,120.909361,3.3313445e-09
C0G880,二水,2014-01-27,23.810742,120.6173,4.106152e-09
C0R940,加祿堂,2014-01-27,22.3363,120.6217,5.745849e-08
C0W220,北竿,2014-01-27,26.220358,119.974881,1.173103e-08
C0O960,崎頂,2014-01-27,22.959547,120.369317,1.404044e-09
C0S750,向陽,2014-01-27,23.248397,120.986133,1.9457385e-08
C0T9F0,水璉,2014-01-27,23.797131,121.542514,2.5998695e-08
C1M600,頭凍,2014-01-27,23.406364,120.603339,6.082103e-09
467660,臺東,2014-01-27,22.752211,121.154586,1.6541803e-07
C1D380,新埔,2014-01-27,24.84745,121.03834,7.4151044e-06
C2G980,田頭村,2014-01-27,23.8263,120.444175,1.5708299e-09
C0V750,路竹,2014-01-27,22.854997,120.259439,1.1403112e-09
C0N050,蚵寮,2014-01-27,23.301,120.1104,7.1880706e-09
72M700,南改鹿草分場,2014-01-27,23.416869,120.283061,1.1690462e-09
C1SA50,利嘉林道,2014-01-27,22.82325,121.009389,1.6961163e-08
467550,玉山,2014-01-27,23.487614,120.959522,4.813306e-08
C0A940,金山,2014-01-27,25.223628,121.643967,0.9959741
C1V340,大津,2014-01-27,22.888322,120.645986,1.5316726e-09
C0W180,七美,2014-01-27,23.219333,119.444892,0.99800533
C1F9C1,白冷,2014-01-27,24.182844,120.929889,3.048786e-09
K2E710,苗改生物防治研究中心,2014-01-27,24.422861,120.871833,2.2877565e-08
C0N040,蘆竹溝,2014-01-27,23.2344,120.0961,7.1880706e-09
C2W230,畜試所澎湖,2014-01-27,23.628342,119.513206,0.99810135
C0R880,後壁湖,2014-01-27,21.9457,120.7457,0.9996114
C1I280,埔中,2014-01-27,23.820778,120.642594,3.0871548e-09
467790,墾丁雷達站,2014-01-27,21.948235,120.808028,0.9996556
C0W190,望安,2014-01-27,23.380564,119.494075,0.9978459
466881,新北,2014-01-27,24.9593,121.52,3.957302e-08
C0Z170,卓溪,2014-01-27,23.3443,121.3029,4.673811e-08
C0F850,東勢,2014-01-27,24.246428,120.833047,2.8534148e-09
466900,淡水,2014-01-27,25.164889,121.448906,0.2553586
C0I370,魚池,2014-01-27,23.895703,120.94135,4.478379e-09
C0C630,大溪,2014-01-27,24.882853,121.265547,2.768371e-07
C0A520,山佳,2014-01-27,24.974944,121.402008,5.5598923e-07
C0I110,竹山,2014-01-27,23.761225,120.688156,4.3435753e-09
82H840,茶改南部分場,2014-01-27,23.762528,120.7405,6.559647e-09
C0G660,溪湖,2014-01-27,23.94835,120.479122,5.685874e-09
C1T800,洛韶,2014-01-27,24.204558,121.453956,2.493108e-08
C1T810,慈恩,2014-01-27,24.192044,121.388386,2.3067333e-08
C1E451,象鼻,2014-01-27,24.368617,120.940228,7.378488e-09
C0AC60,三峽,2014-01-27,24.939025,121.369728,3.8975998e-08
C0I490,萬大林道,2014-01-27,23.928228,121.091411,1.3067355e-08
C1I290,豐丘,2014-01-27,23.668178,120.887417,8.883992e-09
C1I320,奧萬大,2014-01-27,23.952956,121.178556,7.4327278e-09
C2M910,嘉義大學,2014-01-27,23.471325,120.485903,2.178067e-09
C0U770,南澳,2014-01-27,24.44935,121.81022,3.7392843e-07
C0A980,社子,2014-01-27,25.109508,121.469681,7.074561e-07
C0V800,六龜,2014-01-27,22.997889,120.633583,2.1884192e-09
C1G9D0,國一S218K,2014-01-27,23.890641,120.493253,5.640206e-09
C0E570,白沙屯,2014-01-27,24.549447,120.696803,0.000117568685
C2F9A0,中竹林,2014-01-27,24.103556,120.751061,2.9912144e-09
C0FA40,臺中電廠,2014-01-27,24.2146,120.4907,0.0003960744
C2G9A0,畜試所彰化,2014-01-27,23.86045,120.557964,3.0134906e-09
C0H9C0,合歡山,2014-01-27,24.143442,121.272547,4.0194898e-08
C0X060,下營,2014-01-27,23.22695,120.256261,2.188745e-09
G2M350,農試溪口農場,2014-01-27,23.58565,120.408111,1.9315975e-09
C0U860,頭城,2014-01-27,24.85323,121.8308,2.319457e-08
C0R580,南州,2014-01-27,22.48591,120.50274,6.8243206e-10
C0D430,峨眉,2014-01-27,24.6905,121.017189,2.558809e-07
C0G780,秀水,2014-01-27,24.03405,120.503869,1.0154011e-07
72N100,臺南農改場,2014-01-27,23.0605,120.342194,1.5860788e-09
C0S900,蘭嶼高中,2014-01-27,22.04909,121.51214,0.9996335
467540,大武,2014-01-27,22.355675,120.903789,0.9998472
C1F9W0,德基,2014-01-27,24.254783,121.190261,1.3595833e-08
C1Z120,壽豐,2014-01-27,23.870853,121.508081,2.6698824e-08
C0W160,烏坵,2014-01-27,24.9944,119.44956,0.31817973
C1I240,外大坪,2014-01-27,23.958697,120.917931,3.9401353e-09
C1I550,國六W023K,2014-01-27,23.979067,120.867742,3.525581e-09
C0R870,興海,2014-01-27,21.9752,120.8439,0.9996336
C0R140,瑪家,2014-01-27,22.682903,120.686639,5.728108e-09
C0A530,坪林,2014-01-27,24.938183,121.70975,1.3323637e-08
C0X260,後壁,2014-01-27,23.366358,120.362326,1.3007893e-09
C0Z230,和平,2014-01-27,24.30717,121.77007,6.9391895e-08
C0G770,福興,2014-01-27,24.041289,120.437669,7.339869e-07
C0H9A0,神木村,2014-01-27,23.532742,120.843667,1.3803931e-08
C0I460,南投,2014-01-27,23.911469,120.687331,4.2051385e-09
C0I480,梅峰,2014-01-27,24.085272,121.173572,1.5502604e-08
C1V570,吉東,2014-01-27,22.85422,120.5454,1.4672721e-09
C2D740,屯原,2014-01-27,24.067969,121.209389,1.5770901e-08
C2A560,福山,2014-01-27,24.776203,121.502811,8.830288e-09
C0AH30,五分山,2014-01-27,25.07125,121.780794,7.6974067e-07
C0FA10,松柏,2014-01-27,24.429115,120.617482,7.3262316e-05
72S200,東改班鳩分場,2014-01-27,22.829528,121.077694,9.879671e-08
72HA00,中改埔里分場,2014-01-27,23.903208,120.963364,4.291776e-09
C2H9W0,大坪頂農水,2014-01-27,24.043122,120.932781,3.889822e-09
C0C650,平鎮,2014-01-27,24.897503,121.214636,9.699618e-07
C0S930,延平,2014-01-27,22.902581,121.084058,2.1061897e-08
C0UA60,樟樹山,2014-01-27,24.41393,121.78325,3.5217653e-08
C1S670,摩天,2014-01-27,23.199503,121.027,2.1172337e-08
C0V630,茄萣,2014-01-27,22.906642,120.182608,2.7273472e-09
466940,基隆,2014-01-27,25.133314,121.740475,0.998285
C0X050,東河,2014-01-27,23.296598,120.385608,1.2708722e-09
C0R770,保力,2014-01-27,22.071122,120.764111,0.9996767
G2L020,農試嘉義分所,2014-01-27,23.485028,120.473806,2.2381892e-09
C0X240,關子嶺,2014-01-27,23.331169,120.508025,3.4783378e-09
C0I380,集集,2014-01-27,23.828206,120.801467,5.4813025e-09
466990,花蓮,2014-01-27,23.975128,121.613275,2.7164411e-08
C1V220,小關山,2014-01-27,23.154217,120.813603,1.6226213e-08
C1F9G1,慶福山,2014-01-27,24.180853,120.848378,5.706865e-09
C0Z250,瑞穗林道,2014-01-27,23.49284,121.30688,2.7913922e-08
C0D590,新豐,2014-01-27,24.87068,120.97721,0.0008258322
C0A870,五指山,2014-01-27,25.132153,121.608692,3.4151483e-07
C0UA50,西帽山,2014-01-27,24.555361,121.802628,3.017743e-08
C0X160,仁德,2014-01-27,22.968258,120.257689,1.2982931e-09
C1H971,六分寮,2014-01-27,23.92507,120.6378,7.321892e-09
C0W120,西嶼,2014-01-27,23.5626,119.468436,0.9984153
C0G650,員林,2014-01-27,23.946503,120.585597,2.9497644e-09
C0AD50,鶯歌,2014-01-27,24.951533,121.346294,2.501287e-05
C2H9Q0,北東眼山,2014-01-27,24.120939,121.189303,1.5388066e-08
C2H9T0,名間竹圍,2014-01-27,23.859914,120.637572,5.8133987e-09
C0S990,山豬窟,2014-01-27,22.318619,120.857372,0.95548254
72Q010,高雄農改,2014-01-27,22.709333,120.525889,6.321248e-10
C0X190,安平,2014-01-27,22.993161,120.152181,4.2223136e-09
C0K400,斗六,2014-01-27,23.720583,120.541127,1.7066782e-09
12J990,口湖工作站,2014-01-27,23.589978,120.180394,4.7447672e-09
C0O830,北寮,2014-01-27,23.079561,120.495008,1.9967443e-09
C1D410,白蘭,2014-01-27,24.579364,121.079947,9.11245e-09
C0S970,加津林,2014-01-27,22.416211,120.926942,0.9998077
C0D700,關西,2014-01-27,24.7977,121.1732,1.6556354e-06
C0M810,里佳,2014-01-27,23.389125,120.716647,1.1254542e-08
C0U750,龜山島,2014-01-27,24.841667,121.953133,9.674104e-08
C0R810,內獅,2014-01-27,22.305064,120.642986,5.7369785e-08
C1M390,龍美,2014-01-27,23.406728,120.654417,8.830962e-09
C2FB60,頭櫃山,2014-01-27,24.129842,120.858925,6.1175065e-09
C1H840,國三N238K,2014-01-27,23.841008,120.707711,5.5236713e-09
CAQ030,崎峰國小,2014-01-27,22.42565,120.49521,6.8243206e-10
C2E520,大湖,2014-01-27,24.414939,120.870872,1.1542115e-07
467530,阿里山,2014-01-27,23.508208,120.813242,1.9502416e-08
C1E691,南湖,2014-01-27,24.40135,120.837533,8.157932e-09
C0FA30,梧棲,2014-01-27,24.256003,120.523381,0.0003960744
C1V231,高中,2014-01-27,23.134911,120.716711,4.152787e-09
C0F9V0,新社,2014-01-27,24.200172,120.815806,3.6915297e-09
C0H890,埔里,2014-01-27,23.972169,120.952425,2.373532e-09
C0R690,墾丁,2014-01-27,21.966756,120.810269,0.99979514
C0F0D0,審馬陣,2014-01-27,24.381675,121.4203,3.0959484e-08
C0R820,白鷺,2014-01-27,22.454275,120.666219,2.8669346e-08
U2H480,臺大溪頭,2014-01-27,23.670306,120.798194,8.907594e-09
C1V190,南天池,2014-01-27,23.27403,120.91176,2.1850669e-08
K2E360,苗栗農改場,2014-01-27,24.495722,120.829111,1.0391575e-07
CAJ050,海口故事園區,2014-01-27,23.57543,120.14121,4.7575357e-09
C2H9D0,三隻寮,2014-01-27,24.093078,120.861578,3.988961e-09
C0O990,媽廟,2014-01-27,22.99175,120.293525,1.3136146e-09
C0D480,打鐵坑,2014-01-27,24.849664,121.150789,2.0555955e-08
C0Z220,和平林道,2014-01-27,24.343922,121.656317,3.5627217e-08
C0TA10,花蓮漁港,2014-01-27,23.995322,121.638331,2.7435279e-08
72C440,桃園農改場,2014-01-27,24.950944,121.030583,0.99913466
C1E711,馬拉邦山,2014-01-27,24.367306,120.901656,9.369828e-09
C0SB20,富岡,2014-01-27,22.792467,121.192669,1.630502e-07
C0D560,竹東,2014-01-27,24.767147,121.057881,2.1587931e-07
C0F9U0,南屯,2014-01-27,24.137006,120.637969,6.778268e-07
C0M720,番路,2014-01-27,23.464657,120.554156,2.5849602e-09
C0F0A0,雪山圈谷,2014-01-27,24.388594,121.236339,4.3306557e-08
C1A9N0,四十份,2014-01-27,24.934158,121.593283,2.0576627e-08
C0U760,東澳,2014-01-27,24.52196,121.83318,2.6042866e-08
C0X230,鹽水,2014-01-27,23.272621,120.247641,4.125125e-09
C2H9H0,苗改南投蜂場,2014-01-27,23.852589,120.693481,4.3406847e-09
C0R950,萬隆國小,2014-01-27,22.507667,120.587817,6.557142e-10
C0V370,古亭坑,2014-01-27,22.893178,120.401947,1.0876858e-09
C1I340,新興橋,2014-01-27,23.563333,120.868728,6.954875e-09
C0SA80,土坂,2014-01-27,22.453108,120.887572,4.018256e-08
C0R160,鹽埔,2014-01-27,22.739558,120.530778,8.1335344e-10
C0AC40,大屯山,2014-01-27,25.175675,121.522408,1.4122897e-06
466850,五分山雷達站,2014-01-27,25.071182,121.781205,7.9903305e-07
C2H9L0,馬烈霸,2014-01-27,24.1512,121.201772,1.517156e-08
C1AI50,國三N016K,2014-01-27,25.034164,121.619664,3.8697106e-08
C1V600,藤枝,2014-01-27,23.071961,120.757042,1.32894e-08
C1E601,南勢,2014-01-27,24.572486,120.734842,9.4403896e-07
C0Z180,新城,2014-01-27,24.03946,121.60454,2.6962322e-08
C0O980,新市,2014-01-27,23.061614,120.298197,1.5975858e-09
C0K420,西螺,2014-01-27,23.800407,120.467394,1.9211333e-09
C0Z050,佳心,2014-01-27,23.34567,121.21316,2.7557267e-08
C0AD30,蘆洲,2014-01-27,25.086594,121.472331,6.828135e-07
C0V610,梓官,2014-01-27,22.760558,120.267211,1.6949543e-09
K2F750,種苗改良場,2014-01-27,24.225972,120.800917,3.2810108e-09
C0UA80,大溪漁港,2014-01-27,24.941801,121.902955,2.285349e-08
C1AI60,國一39K邊坡,2014-01-27,25.064361,121.383836,0.0016479525
C0W150,金寧,2014-01-27,24.457703,118.328989,3.40542e-08
C0R960,內埔,2014-01-27,22.608483,120.570714,6.418393e-10
V2C250,八德合作社,2014-01-27,24.93775,121.266389,1.7000729e-06
C2H9S0,龍南,2014-01-27,23.953536,120.833183,7.106699e-09
C0AH40,平等,2014-01-27,25.129142,121.577086,8.925572e-07
C0R540,佳冬,2014-01-27,22.419456,120.552375,6.823826e-10
466950,彭佳嶼,2014-01-27,25.627975,122.079744,0.9980257
C0A890,雙溪,2014-01-27,25.036003,121.864242,0.9943674
C0C480,桃園,2014-01-27,24.992425,121.323172,0.00025155972
C0AH50,林口,2014-01-27,25.072181,121.38084,0.0021429278
A2K360,水試臺西試驗場,2014-01-27,23.717231,120.190522,1.5591834e-08
B2N890,畜試所,2014-01-27,23.058972,120.336406,1.5891068e-09
C2M960,外寮,2014-01-27,23.562643,120.665688,8.228096e-09
C0F9S0,烏日,2014-01-27,24.107058,120.624103,2.164311e-08
C0C490,八德,2014-01-27,24.928708,121.283289,3.4762147e-07
C0R190,赤山,2014-01-27,22.592333,120.614306,6.489717e-10
C0T820,天祥,2014-01-27,24.179597,121.495639,1.7568897e-08
C1F9E1,龍安,2014-01-27,24.1605,120.831961,3.9098236e-09
C0V820,小林,2014-01-27,23.148408,120.63325,3.1054626e-09
C2G870,芳苑,2014-01-27,23.922303,120.320025,3.4213187e-08
C0E850,大河,2014-01-27,24.618069,120.948578,1.1278367e-07
C1U670,寒溪,2014-01-27,24.634,121.71691,0.054638717
C0N020,城西,2014-01-27,23.0568,120.0956,4.4867683e-08
C1Z110,三棧,2014-01-27,24.11557,121.60501,3.5513846e-08
C0R280,檳榔,2014-01-27,22.076078,120.836777,0.9997482
C2H9J0,中台,2014-01-27,23.9996,120.938739,2.7953442e-09
C0F9L0,后里,2014-01-27,24.310436,120.729725,2.0061401e-08
C0D540,橫山,2014-01-27,24.71116,121.11693,4.0619867e-08
C1D420,太閣南,2014-01-27,24.632808,121.160575,1.4084488e-08
C1E770,公館,2014-01-27,24.526914,120.830806,1.37558245e-05
CAN130,水試所海水繁養殖中心,2014-01-27,23.120802,120.07968,4.8717997e-08
C1I430,翠華,2014-01-27,24.191961,121.224339,1.9482822e-08
C1M400,菜瓜坪,2014-01-27,23.251928,120.576103,3.3012992e-09
C0G730,二林,2014-01-27,23.903325,120.376081,2.4976057e-08
72M360,南改義竹分場,2014-01-27,23.360694,120.279361,1.1783747e-09
V2K620,麥寮合作社,2014-01-27,23.753836,120.294783,4.98e-09
C0Z070,舞鶴,2014-01-27,23.46811,121.37407,7.036175e-08
C0B040,大武崙,2014-01-27,25.166676,121.706993,0.9965047
C1Z030,紅葉,2014-01-27,23.493119,121.338806,7.546238e-08
C1I050,丹大,2014-01-27,23.753747,121.141147,2.8006983e-08
C0I080,信義,2014-01-27,23.689694,120.851036,7.997214e-09
C2M920,朴子農改,2014-01-27,23.469889,120.259383,1.1819696e-09
C2A880,福隆,2014-01-27,25.017842,121.942083,0.5869501
C0Z160,鳳林,2014-01-27,23.746114,121.453411,2.4442015e-08
C0V210,復興,2014-01-27,23.222403,120.806089,6.515294e-09
C0H990,昆陽,2014-01-27,24.121322,121.273642,3.140315e-08
C0R741,獅子,2014-01-27,22.202308,120.705236,0.51931673
C0S710,鹿野,2014-01-27,22.917711,121.122994,2.2101998e-08
C0I530,小奇萊,2014-01-27,24.131764,121.295717,3.3123765e-08
C2K630,荷苞,2014-01-27,23.657717,120.595144,2.118679e-09
C0Z080,富源,2014-01-27,23.587642,121.378225,4.0317598e-08
467441,高雄,2014-01-27,22.7304,120.3125,4.6949213e-09
C0SB10,美和,2014-01-27,22.682078,121.060236,3.63671e-07
C2K620,馬光農場,2014-01-27,23.721453,120.378864,1.0825426e-09
C1I140,卡奈托灣,2014-01-27,23.754364,121.087872,1.3028706e-08
C0I520,玉山風口,2014-01-27,23.470489,120.955994,4.9397777e-08
C1G691,下水埔,2014-01-27,23.816114,120.5676,3.9630557e-09
C0X110,臺南市南區,2014-01-27,22.961189,120.188378,4.0813064e-09
C0V680,仁武,2014-01-27,22.701083,120.347722,4.65264e-09
C2G840,北斗,2014-01-27,23.877586,120.514222,5.5824647e-09
C0R900,竹坑,2014-01-27,22.1385,120.7022,0.99667096
C0K250,崙背,2014-01-27,23.75555,120.318925,4.835148e-09
C0G860,社頭,2014-01-27,23.897647,120.5862,3.1574545e-09
C0X150,安定,2014-01-27,23.102614,120.227839,6.437645e-09
C0R590,里港,2014-01-27,22.77919,120.49459,1.0467877e-09
C0E610,馬都安,2014-01-27,24.451272,120.930192,1.715959e-08
C0E550,明德,2014-01-27,24.583486,120.885411,1.2006355e-07
C0R150,三地門,2014-01-27,22.709889,120.639944,1.0006194e-09
C0G910,花壇,2014-01-27,24.032076,120.549461,9.024208e-08
C1D400,鳥嘴山,2014-01-27,24.71909,121.28387,1.5908425e-08
C0K500,元長,2014-01-27,23.64981,120.315024,2.3600344e-09
C0F0B0,石岡,2014-01-27,24.276061,120.777644,3.6905583e-09
C2V250,甲仙,2014-01-27,23.080106,120.591758,2.6318145e-09
C0SA20,金崙山,2014-01-27,22.567419,120.959667,2.0647315e-08
C0V350,溪埔,2014-01-27,22.738578,120.446797,7.9314644e-10
C0M660,溪口,2014-01-27,23.604131,120.403569,1.9315975e-09
C1S880,壽卡,2014-01-27,22.238911,120.858903,0.0018860617
72D680,桃改新埔分場,2014-01-27,24.834444,121.066111,2.6952227e-07
