站號,站名,日期,lat,lon,BLBTSLS
C0R710,龍磐,2014-08-28,21.931672,120.838942,0.018951287
C1F9D1,白毛台,2014-08-28,24.158325,120.886933,2.170438e-07
C0G940,竹塘,2014-08-28,23.848253,120.386764,0.070286505
467590,恆春,2014-08-28,22.003897,120.746339,0.011974061
C1O850,環湖,2014-08-28,23.148617,120.418633,0.14560358
C0U710,太平山,2014-08-28,24.505486,121.525656,7.551015e-09
C0E820,獅潭,2014-08-28,24.539133,120.920042,0.13743469
C0V880,興達,2014-08-28,22.8778,120.2127,0.69662184
C0S890,關山,2014-08-28,23.0395,121.175017,0.63820416
C0SB30,新蘭,2014-08-28,22.869214,121.223228,0.7660607
C2R970,屏科大,2014-08-28,22.648275,120.619247,0.9139848
K2F750,種苗繁殖,2014-08-28,24.225972,120.800917,1.0929936e-06
C1Z130,銅門,2014-08-28,23.965694,121.492842,0.85508096
C0AD40,土城,2014-08-28,24.973208,121.445169,0.02299257
CAN140,六官養殖協會,2014-08-28,23.22881,120.29962,0.5390272
C0X180,山上,2014-08-28,23.0757,120.363253,0.2787718
C0F9Z0,雪山東峰,2014-08-28,24.388792,121.268675,9.523373e-09
C1M480,獨立山,2014-08-28,23.537022,120.607797,8.2128906e-08
C0X220,學甲,2014-08-28,23.230367,120.182187,0.0794604
467650,日月潭,2014-08-28,23.881325,120.90805,1.990365e-08
C0K600,箔子寮,2014-08-28,23.6197,120.14,0.066885084
C0G830,埤頭,2014-08-28,23.866003,120.452806,0.0356844
C0S950,七塊厝,2014-08-28,22.954453,121.229922,0.23664896
467110,金門,2014-08-28,24.407306,118.289281,0.00021898474
C0AH80,深坑,2014-08-28,25.002703,121.628328,0.022718903
467990,馬祖,2014-08-28,26.169269,119.923419,0.9961959
C0A970,三貂角,2014-08-28,25.007606,122.002058,0.009829703
C2D730,寶山農場,2014-08-28,24.732444,120.976153,0.2793195
C0K430,褒忠,2014-08-28,23.690938,120.303634,0.17358568
467480,嘉義,2014-08-28,23.495925,120.432906,0.034348015
C2E540,後龍,2014-08-28,24.606489,120.783933,0.015968552
C0V400,阿公店,2014-08-28,22.804194,120.355528,0.2234507
C0R440,大漢山,2014-08-28,22.405264,120.753181,6.0873253e-09
C0K280,四湖,2014-08-28,23.630414,120.227125,0.008718668
C1F9B1,桐林,2014-08-28,24.066172,120.735194,0.016138708
C2H9U0,鳳鵬,2014-08-28,23.763919,120.788061,1.4901651e-06
C0K390,土庫,2014-08-28,23.679029,120.395574,0.10460331
C1I450,望鄉山,2014-08-28,23.594153,120.944286,9.657122e-09
C0E910,海埔,2014-08-28,24.648767,120.772435,0.091906786
B2E890,畜試北區分所,2014-08-28,24.527806,120.770972,0.014302209
C0R750,四林格山,2014-08-28,22.076989,120.802439,0.9977636
C0F0C0,中坑,2014-08-28,24.248517,120.903319,5.3384e-09
C1I121,大鞍,2014-08-28,23.678381,120.760017,1.0573309e-08
72U480,花改蘭陽分場,2014-08-28,24.686306,121.716583,0.031202104
C0A770,科教館,2014-08-28,25.096356,121.516507,0.020729598
C0AJ60,六塊厝,2014-08-28,25.24,121.4481,0.012619786
C0R620,墾雷,2014-08-28,21.900836,120.855269,0.012359583
467420,永康,2014-08-28,23.038386,120.2367,0.4554896
467300,東吉島,2014-08-28,23.25695,119.667467,0.011157785
C0I410,名間,2014-08-28,23.837053,120.701447,0.009606589
A2C560,農工中心,2014-08-28,24.985917,121.239833,0.14473133
C0V740,旗山,2014-08-28,22.888614,120.483597,0.18811809
C0Z061,玉里,2014-08-28,23.3215,121.339656,0.7036219
C0S840,南田,2014-08-28,22.279725,120.889208,0.016030125
C1I470,杉林溪,2014-08-28,23.639517,120.786444,8.852599e-09
C1X040,東原,2014-08-28,23.291597,120.463822,0.42489356
C0R660,枋寮,2014-08-28,22.367722,120.590647,0.35808992
C1R120,上德文,2014-08-28,22.763272,120.704442,5.187896e-06
C0K450,大埤,2014-08-28,23.646074,120.431537,0.36763328
C0UA00,土場,2014-08-28,24.576533,121.495333,0.90146244
467080,宜蘭,2014-08-28,24.763975,121.756528,0.49123478
C0N030,四草,2014-08-28,23.0235,120.1116,0.8804218
C0V650,彌陀,2014-08-28,22.783806,120.246361,0.4874986
C0D660,新竹市東區,2014-08-28,24.798681,120.986942,0.14651808
82S580,茶改東部分場,2014-08-28,22.907694,121.130139,0.54256445
C0SB40,興隆,2014-08-28,22.913661,121.257469,0.49797243
C0C710,大溪永福,2014-08-28,24.892936,121.324975,0.18404791
C0FA20,溫寮,2014-08-28,24.372177,120.583125,0.0072169793
C0V640,湖內,2014-08-28,22.887139,120.2445,0.6914171
C0R910,下寮,2014-08-28,22.3929,120.5548,0.01897844
C0Z020,明里,2014-08-28,23.208717,121.262342,0.7570522
C0M770,嘉義梅山,2014-08-28,23.585398,120.555587,0.07950389
G2F820,農業試驗所,2014-08-28,24.031261,120.688133,9.836499e-06
C0C660,楊梅,2014-08-28,24.912375,121.143047,0.17270304
C1E511,新開,2014-08-28,24.347703,120.827019,0.056976825
G2F820,農試所(霧峰),2014-08-28,24.031261,120.688133,9.836499e-06
C1I070,和社,2014-08-28,23.591131,120.888861,1.3101965e-07
C2F000,大肚,2014-08-28,24.15295,120.572117,0.16059376
C1S850,豐南,2014-08-28,23.122139,121.262389,0.22855194
C2A920,富貴角,2014-08-28,25.263783,121.565258,0.010407995
CAH030,茶改場竹圍站,2014-08-28,23.860083,120.637528,6.138995e-05
C0T960,光復,2014-08-28,23.660694,121.424964,0.96676975
C0F9M0,豐原,2014-08-28,24.254322,120.720692,0.0074247173
C0R720,旭海,2014-08-28,22.205403,120.887614,0.23642883
C0V710,苓雅,2014-08-28,22.622742,120.330669,0.022968803
C0C740,觀音工業區,2014-08-28,25.064764,121.114856,0.09688369
CAC040,拉拉山,2014-08-28,24.699317,121.427133,6.285531e-09
C0V790,萬山,2014-08-28,22.905944,120.688056,0.11719238
U2HA30,臺大和社,2014-08-28,23.590856,120.888864,1.3101965e-07
C0AJ90,澳底,2014-08-28,25.0552,121.9253,0.010460795
C0Z100,東華,2014-08-28,23.89525,121.549833,0.9441635
C0G970,三豐,2014-08-28,23.882,120.2895,0.0124491155
V2K610,大庄合作社,2014-08-28,23.8068,120.367939,0.0038321523
C0V900,汕尾,2014-08-28,22.4782,120.4151,0.06510329
C1R630,龍泉,2014-08-28,22.66701,120.59091,0.6385377
C1AC50,關渡,2014-08-28,25.133486,121.469331,0.015006021
C0F9I0,神岡,2014-08-28,24.272481,120.658314,0.014738181
C0K460,斗南,2014-08-28,23.678734,120.478359,0.12041762
467410,臺南,2014-08-28,22.993239,120.204772,0.43714467
C2O810,曾文,2014-08-28,23.219681,120.497328,0.049568914
467280,後龍,2014-08-28,24.648563,120.831834,0.13622233
C1F9J1,清水林,2014-08-28,24.071242,120.820419,4.914535e-08
C2A650,火燒寮,2014-08-28,25.002719,121.742892,0.3213688
466930,竹子湖,2014-08-28,25.162078,121.544547,0.8516818
C1I220,樟湖,2014-08-28,23.905333,120.846983,1.1323898e-08
C0I390,仁愛,2014-08-28,24.022122,121.132206,6.8690773e-09
C0Z300,東里,2014-08-28,23.26853,121.30547,0.7404084
C1V590,新發,2014-08-28,23.057019,120.646064,0.39568457
C0K510,水林,2014-08-28,23.572924,120.24597,0.066190526
72S590,東改賓朗果園,2014-08-28,22.813889,121.071278,0.93985695
82A750,茶改北部分場,2014-08-28,24.955778,121.631222,0.5436379
C1A750,石碇服務區,2014-08-28,25.00872,121.646242,0.022975545
C0X300,鹿寮,2014-08-28,23.386047,120.477331,0.34401596
G2AI50,關渡,2014-08-28,25.11575,121.492,0.018578973
C0K590,雲林東勢,2014-08-28,23.674192,120.255721,0.17358565
C0A570,桶後,2014-08-28,24.848222,121.597992,0.5169075
C1S800,華源,2014-08-28,22.657883,121.02325,0.8351046
C0G720,溪州,2014-08-28,23.851589,120.499093,0.041456785
C1V160,達卡努瓦,2014-08-28,23.279811,120.705319,2.9413272e-06
C2M410,馬頭山,2014-08-28,23.324361,120.582017,0.37938306
C0V850,蚵仔寮,2014-08-28,22.7256,120.2527,0.19484892
C0S740,池上,2014-08-28,23.119628,121.209469,0.57242763
C1V390,尖山,2014-08-28,22.813153,120.367789,0.20129222
C0AH70,松山,2014-08-28,25.04871,121.55042,0.015495121
C0N010,鯤鯓國小,2014-08-28,23.1879,120.0889,0.047501627
C0R550,新埤,2014-08-28,22.467947,120.582894,0.71314293
C0SA60,知本（水試所）,2014-08-28,22.702394,121.082761,0.7015749
C0T9I0,豐濱,2014-08-28,23.583897,121.514806,0.9787335
C0UB00,淡江大學蘭陽校園,2014-08-28,24.823239,121.730383,0.88084716
C0W240,九宮,2014-08-28,24.423753,118.240186,0.067904554
C0T9N0,富里,2014-08-28,23.171639,121.249378,0.589662
U2HA50,臺大竹山,2014-08-28,23.756972,120.681556,0.00011749762
C0V840,鳳鼻頭,2014-08-28,22.5083,120.3591,0.02812977
C0X140,西港,2014-08-28,23.125608,120.203108,0.15240005
72D080,桃改五峰分場,2014-08-28,24.612194,121.157167,9.058073e-09
C2H9P0,伊拿谷,2014-08-28,23.963211,121.088264,1.0299991e-08
C2H9F0,柑林,2014-08-28,24.018658,120.847072,1.1312605e-05
C0TA20,加灣,2014-08-28,24.082025,121.608944,0.97158164
C0V530,阿蓮,2014-08-28,22.883208,120.327508,0.9504761
C1O880,關山,2014-08-28,23.173397,120.594092,0.24871932
C0E791,卓蘭,2014-08-28,24.3126,120.8244,0.0444083
C1I030,武界,2014-08-28,23.913225,121.052483,2.8178878e-08
C0R520,崁頂,2014-08-28,22.514781,120.506914,0.02430014
C0R341,牡丹,2014-08-28,22.130036,120.792639,0.0461582
C0R930,萬丹,2014-08-28,22.5885,120.4851,0.7284815
C0S760,紅石,2014-08-28,23.069131,121.126219,4.161208e-09
C1M610,石磐龍,2014-08-28,23.496606,120.663506,5.7240594e-08
C0UA10,鴛鴦湖,2014-08-28,24.590269,121.412228,7.0748754e-09
V2C260,八德蔬果,2014-08-28,24.978508,121.281819,0.07660569
C0R800,丹路,2014-08-28,22.204481,120.750989,0.039459392
C0G920,永靖,2014-08-28,23.924703,120.547533,0.0040428
C2M950,太和,2014-08-28,23.538372,120.702961,1.0570002e-08
C1A630,下盆,2014-08-28,24.771003,121.538622,0.43857586
B2N890,畜產試驗所,2014-08-28,23.058972,120.336406,0.6263872
C0UA30,白嶺,2014-08-28,24.527819,121.519031,3.3843108e-08
C1V580,溪南(特生中心),2014-08-28,23.084972,120.788475,5.863611e-09
C1T970,大農,2014-08-28,23.615233,121.413331,0.94675183
E2S960,林試太麻里2,2014-08-28,22.598014,120.989761,0.94639987
C0R650,竹田,2014-08-28,22.58486,120.54344,0.7284815
C1H900,清流,2014-08-28,24.080775,120.962997,1.31934526e-08
C1C510,水尾,2014-08-28,24.940081,121.087161,0.10458616
C0F9X0,大雅(中科園區),2014-08-28,24.21528,120.62445,0.00028134492
C0SB60,白守蓮,2014-08-28,23.126769,121.401914,0.23622616
C0O970,虎頭埤,2014-08-28,23.021375,120.347878,0.814497
C0C730,中大臨海站,2014-08-28,24.966126,121.008581,0.4759722
C0X250,新營,2014-08-28,23.310689,120.316681,0.6839014
C0V700,三民,2014-08-28,22.645017,120.311233,0.022968803
C0U870,大礁溪,2014-08-28,24.791042,121.675047,0.65674347
C0E870,高鐵苗栗,2014-08-28,24.60725,120.826094,0.015529062
A2K570,古坑花卉中心,2014-08-28,23.63353,120.55239,0.21809272
C0M860,新美,2014-08-28,23.338017,120.683169,0.010773224
C1E701,八卦,2014-08-28,24.491756,120.927619,8.907128e-06
C0I420,國姓,2014-08-28,24.037803,120.855072,0.004958143
C2D720,關西工作站,2014-08-28,24.757275,121.184792,0.0399457
C0S960,香蘭,2014-08-28,22.587569,120.993375,0.94639987
C0R260,春日,2014-08-28,22.370361,120.628306,0.002336984
72G600,臺中農改場,2014-08-28,24.003028,120.534389,0.004501201
C0Z210,瑞穗,2014-08-28,23.5239,121.39021,0.9797116
C0M820,達邦,2014-08-28,23.453994,120.749517,2.0686299e-08
C0V860,南寮,2014-08-28,22.7616,120.2339,0.4871152
C0G740,大城,2014-08-28,23.852487,120.320935,0.0104162395
C0R920,塭仔,2014-08-28,22.4169,120.5197,0.017345438
C0R470,高樹,2014-08-28,22.826389,120.600806,0.26131514
C0R680,佳樂水,2014-08-28,21.993578,120.861633,0.011717109
C1O870,大棟山,2014-08-28,23.31157,120.52226,8.016533e-09
C0D360,梅花,2014-08-28,24.678347,121.208558,0.0018862608
C0Z190,富世,2014-08-28,24.14743,121.6297,0.9436052
C0AI10,屈尺,2014-08-28,24.92184,121.54475,0.022718903
B2U990,畜試東區分所,2014-08-28,24.669039,121.832561,0.037017494
C0SB80,長濱漁港,2014-08-28,23.313644,121.459994,0.2939768
C0R240,來義,2014-08-28,22.527306,120.625111,0.0024629391
C0V910,大樹,2014-08-28,22.684645,120.432803,0.09925329
C1R610,西大武山,2014-08-28,22.617719,120.7322,5.896393e-09
C0G900,線西,2014-08-28,24.143358,120.443536,0.005746521
C0M700,竹崎,2014-08-28,23.526178,120.555508,0.13479534
C2E880,三義,2014-08-28,24.405478,120.749819,9.3315805e-07
C0C720,竹圍,2014-08-28,25.112692,121.239824,0.012686881
C0F9P0,清水,2014-08-28,24.312297,120.562242,0.006341851
C0Z150,吉安光華,2014-08-28,23.930925,121.595153,0.95197135
C1D640,外坪(五指山),2014-08-28,24.644447,121.090961,7.8122895e-08
C0F9O0,潭子,2014-08-28,24.213106,120.703933,0.0019031551
C2H9R0,卓社,2014-08-28,23.887894,121.000086,3.0616234e-09
72T250,花蓮農改場,2014-08-28,23.975222,121.563889,0.96393263
C0E780,銅鑼,2014-08-28,24.489681,120.790853,0.08228381
C1T950,太安,2014-08-28,23.666719,121.370128,9.034438e-08
C0E830,苑裡,2014-08-28,24.439714,120.653053,0.008998886
467270,田中,2014-08-28,23.873803,120.581286,0.010358796
C0SA10,檳榔四格山,2014-08-28,22.810031,121.109308,0.8960266
C1T830,布洛灣,2014-08-28,24.17184,121.57127,0.99139845
C0F970,大坑,2014-08-28,24.173142,120.722289,3.8494927e-05
C1U920,思源,2014-08-28,24.393125,121.347214,6.9003696e-09
C0A931,三和,2014-08-28,25.233153,121.595236,0.047985457
C0I010,廬山,2014-08-28,24.033311,121.181808,2.9662388e-09
C2M940,日野賀,2014-08-28,23.434056,120.727169,5.4996423e-08
C0R860,鼻頭,2014-08-28,22.1043,120.8979,0.013537382
C0UB20,壯圍,2014-08-28,24.7359,121.8163,0.03679287
C0R790,九棚,2014-08-28,22.14195,120.889281,0.10971688
C0W110,東莒,2014-08-28,25.9652,119.98069,0.06729101
C1U930,粉鳥林,2014-08-28,24.497088,121.842479,0.40338743
C1I211,蘆竹湳,2014-08-28,23.934019,120.811994,5.1328733e-08
C0S830,長濱,2014-08-28,23.286817,121.411975,0.7364975
C1F9F1,伯公龍,2014-08-28,24.272392,120.849047,4.2567817e-06
C0E810,西湖,2014-08-28,24.562947,120.7485,0.014375633
C1I440,新高口,2014-08-28,23.478744,120.878939,8.493398e-09
C0O840,王爺宮,2014-08-28,23.222064,120.40085,0.04956887
C0T9G0,鳳林山,2014-08-28,23.735269,121.420131,0.77184606
C0X080,佳里,2014-08-28,23.173039,120.145086,0.09222833
C0FB70,大甲溪埔,2014-08-28,24.370625,120.620067,0.008737207
C0Z310,清水斷崖,2014-08-28,24.218294,121.689142,0.9892122
C0M680,太保,2014-08-28,23.455062,120.331455,0.87763613
C1S820,金峰,2014-08-28,22.590969,120.933236,0.93798
C0AD10,八里,2014-08-28,25.150211,121.403947,0.012686881
C2K240,草嶺,2014-08-28,23.59555,120.693461,1.5802879e-08
C1SA70,都蘭,2014-08-28,22.87794,121.226881,0.49797243
C0K440,二崙,2014-08-28,23.772797,120.408944,0.077741735
C1A760,坪林交控,2014-08-28,24.94284,121.713442,0.6833849
C0F9N0,大里,2014-08-28,24.092464,120.701378,0.00046938958
C0SA90,達仁林場,2014-08-28,22.264347,120.823972,0.8312227
C1R290,石門山,2014-08-28,22.112611,120.756597,0.8161221
42HA10,萬大發電廠,2014-08-28,23.978875,121.139639,4.4836714e-08
C0R890,山海,2014-08-28,21.9878,120.7091,0.011240723
C0T9A0,月眉山,2014-08-28,23.809928,121.539828,0.686084
C0AC70,信義,2014-08-28,25.037822,121.564597,0.015495135
C0K560,棋山,2014-08-28,23.68645,120.603417,0.10376449
C2FB50,出雲,2014-08-28,24.206469,120.902794,1.534498e-08
C1Z240,中平林道,2014-08-28,23.42115,121.26763,5.081421e-08
U2H480,溪頭,2014-08-28,23.670306,120.798194,4.1971916e-08
C0M880,好美里,2014-08-28,23.3364,120.138,0.09222833
C0T9E0,大坑,2014-08-28,23.880628,121.581981,0.82640386
C0K530,臺西,2014-08-28,23.701547,120.197559,0.012087312
C1E900,國一N128K,2014-08-28,24.560997,120.844186,0.012274606
C0AJ50,水湳洞,2014-08-28,25.123695,121.862238,0.003881085
C0AI20,白沙灣,2014-08-28,25.283128,121.519058,0.0063795405
C0A860,大坪,2014-08-28,25.165914,121.632969,0.3009727
C1U850,觀音海岸,2014-08-28,24.38319,121.77856,0.9951854
C2K610,草嶺石壁,2014-08-28,23.602469,120.707731,3.7782453e-08
C0U950,鶯子嶺,2014-08-28,24.89754,121.79244,1.2211116e-07
C0O900,善化,2014-08-28,23.112883,120.297219,0.6956168
C0K550,蔦松,2014-08-28,23.514319,120.229736,0.13260832
E2P980,林試六龜中心,2014-08-28,22.991703,120.645722,0.51522183
C0E590,通霄,2014-08-28,24.471892,120.704622,0.015522408
C1I310,西巒,2014-08-28,23.754486,120.883956,2.2803025e-08
C0A550,泰平,2014-08-28,24.971197,121.823711,0.5743585
C0I360,水里,2014-08-28,23.812553,120.849792,0.0009438054
C0R830,高士,2014-08-28,22.121825,120.836781,0.9398461
C1I101,溪頭,2014-08-28,23.661789,120.807647,1.7636784e-08
C0AJ20,野柳,2014-08-28,25.20703,121.690021,0.0038763722
C0B060,暖暖,2014-08-28,25.0957,121.7403,0.00548314
C1H920,長豐,2014-08-28,24.102039,120.879897,3.8182492e-08
C0V360,內門,2014-08-28,22.975481,120.466769,0.10656641
C0R850,林邊,2014-08-28,22.4634,120.5339,0.02430014
C0E930,龍鳳,2014-08-28,24.700034,120.859125,0.044978518
C0U910,冬山,2014-08-28,24.63373,121.7937,0.037017494
C1E721,泰安,2014-08-28,24.489017,120.968036,4.7222684e-09
82H320,茶改中部分場,2014-08-28,23.875611,120.913583,2.755774e-08
C0M750,布袋,2014-08-28,23.380878,120.167789,0.09634631
C1S860,利嘉,2014-08-28,22.809417,121.050528,0.6891169
72C440,桃園農改,2014-08-28,24.950944,121.030583,0.50084656
E2S980,林試太麻里1,2014-08-28,22.598922,120.980044,0.9586084
C0X170,關廟,2014-08-28,22.963017,120.327797,0.72807103
C0V720,林園,2014-08-28,22.507747,120.394511,0.022716237
C1I510,線浸林道,2014-08-28,23.761508,120.832956,2.9268442e-08
C0D690,外湖,2014-08-28,24.917735,120.968711,0.47584784
C0C750,新興坑尾,2014-08-28,25.0061,121.0971,0.13966028
B2Q810,畜試南區分所,2014-08-28,21.945583,120.802167,0.011717109
C0S790,金崙,2014-08-28,22.538122,120.966875,0.9173405
C0AH90,福山植物園,2014-08-28,24.760717,121.58135,4.5812667e-06
C0I540,奇萊稜線,2014-08-28,24.109231,121.326456,7.291427e-09
C0M850,表湖,2014-08-28,23.24186,120.64166,2.3699657e-05
C0S770,大溪山,2014-08-28,22.478475,120.943325,0.51606846
C0AG80,中和,2014-08-28,24.991622,121.491792,0.015478726
C0T790,大禹嶺,2014-08-28,24.186117,121.316086,6.124149e-09
C0T9B0,水源,2014-08-28,23.991861,121.537169,0.42357877
C0R840,牡丹池山,2014-08-28,22.168389,120.841225,0.8309919
C1I131,桶頭,2014-08-28,23.641944,120.654117,0.008207903
CAL110,布袋國中,2014-08-28,23.35893,120.18026,0.17330833
467571,新竹,2014-08-28,24.827853,121.014219,0.11645561
C0Z290,赤柯山,2014-08-28,23.36893,121.38293,5.041328e-05
C0X280,將軍,2014-08-28,23.214999,120.13577,0.09222833
C0S690,太麻里,2014-08-28,22.60902,120.98533,0.20848444
C0U880,北關,2014-08-28,24.9072,121.8734,0.03698371
C1H860,瑞岩,2014-08-28,24.123772,121.18345,3.0057983e-09
C0G810,埔心,2014-08-28,23.947633,120.525456,0.0040784287
C0U970,大福,2014-08-28,24.80064,121.81389,0.46356857
C2H9N0,仁愛東眼,2014-08-28,24.026875,121.1205,4.094171e-09
C1E670,南礦,2014-08-28,24.538278,121.002836,9.3546495e-09
C0M520,東後寮,2014-08-28,23.369908,120.248065,0.17060934
C1E461,松安,2014-08-28,24.397972,120.986022,5.927289e-09
72G600,臺中農改,2014-08-28,24.003028,120.534389,0.004501201
C2N160,西拉雅風管處,2014-08-28,23.189481,120.335297,0.48468536
C2M970,碧湖,2014-08-28,23.568632,120.624165,3.7274813e-08
C0A640,石碇,2014-08-28,24.993969,121.662917,0.16916594
E2S960,林試太麻里2,2014-08-28,22.598,120.99775,0.94332576
C0F9Y0,桃山,2014-08-28,24.432739,121.303808,1.04977325e-08
C1I020,萬大,2014-08-28,23.979817,121.132261,6.6684263e-09
C0U940,羅東,2014-08-28,24.68184,121.74934,0.035713814
C0M650,朴子,2014-08-28,23.43463,120.23902,0.095229246
C1I500,大尖山,2014-08-28,23.858572,120.994889,6.245783e-09
C0G820,田尾,2014-08-28,23.901669,120.509389,0.0037875567
E2K600,四湖植物園,2014-08-28,23.676986,120.163433,0.012244758
C0S730,綠島,2014-08-28,22.6672,121.47533,0.27805722
12Q970,東港工作站,2014-08-28,22.479997,120.466058,0.018946111
C0E430,南庄,2014-08-28,24.601775,121.000214,0.1201043
C1TA00,太魯閣,2014-08-28,24.15773,121.6236,0.98785895
466920,臺北,2014-08-28,25.037658,121.514853,0.015495121
C0R600,舊泰武,2014-08-28,22.588194,120.664944,0.7310706
C1I260,北坑,2014-08-28,23.9246,121.006903,1.17991185e-07
466910,鞍部,2014-08-28,25.182586,121.529731,0.00027820517
C1I230,九份二山,2014-08-28,23.961944,120.845,1.1792859e-08
C2A660,瑞芳,2014-08-28,25.113169,121.801147,0.012915421
C0R270,琉球嶼,2014-08-28,22.332244,120.362236,0.002336984
C1T990,高寮,2014-08-28,23.394239,121.356808,0.9699633
C0G620,芬園,2014-08-28,24.015678,120.6213,0.00011490039
C1Z140,荖溪,2014-08-28,23.890575,121.45964,3.1863843e-07
C1I201,中心崙,2014-08-28,23.728722,120.712097,1.05836634e-07
C1I400,凌霄,2014-08-28,24.018778,121.004456,4.543995e-09
C1M640,十字,2014-08-28,23.492153,120.753683,9.43185e-09
G2P820,農試鳳山分所,2014-08-28,22.646611,120.356083,0.01919964
C0Z270,蕃薯寮,2014-08-28,23.73835,121.540108,0.9753073
C0F9Q0,外埔,2014-08-28,24.347817,120.705686,0.022840807
C0K580,高鐵雲林,2014-08-28,23.737456,120.417944,0.10460331
C2I090,鳳凰,2014-08-28,23.728081,120.787347,1.9649903e-08
C0U990,員山,2014-08-28,24.74435,121.72247,0.035713814
C0V770,大社,2014-08-28,22.730306,120.346639,0.23413031
C0X120,麻豆,2014-08-28,23.183289,120.248611,0.07946045
C0C670,龍潭,2014-08-28,24.870056,121.221389,0.04542258
C0D680,香山濕地,2014-08-28,24.783581,120.914988,0.083488725
C0S980,勝林山,2014-08-28,22.430439,120.8938,7.343558e-05
C0V730,大寮,2014-08-28,22.605614,120.395717,0.69613457
C0R570,麟洛,2014-08-28,22.65078,120.52719,0.089226335
C2M930,石卓,2014-08-28,23.478744,120.702264,9.702873e-09
C0G9B0,和美,2014-08-28,24.105169,120.492131,0.004422653
CAG100,王功漁港,2014-08-28,23.96824,120.32586,0.0027249672
C0X290,北門,2014-08-28,23.267772,120.125481,0.09222833
C2F930,大甲,2014-08-28,24.347667,120.640403,0.0044250875
C0D650,湖口,2014-08-28,24.904794,121.043628,0.51844025
C0E420,竹南,2014-08-28,24.708978,120.888897,0.089260034
C0U780,五結,2014-08-28,24.68637,121.79794,0.037017494
C1I250,鯉潭,2014-08-28,23.961922,120.991131,3.8182492e-08
C0R130,阿禮,2014-08-28,22.742908,120.743678,2.5813088e-07
C0X100,臺南市北區,2014-08-28,23.010394,120.194228,0.4750748
C0S920,金峰嘉蘭,2014-08-28,22.594789,120.960825,0.95777017
C0V490,新興,2014-08-28,22.627422,120.298803,0.022716237
C0F9K0,大安,2014-08-28,24.345061,120.588025,0.00690291
72N100,臺南農改,2014-08-28,23.0605,120.342194,0.6263872
467290,古坑,2014-08-28,23.633639,120.551889,0.21809272
C2E970,八甲,2014-08-28,24.535811,120.795983,0.0852928
C0V440,鳳山,2014-08-28,22.646653,120.356122,0.01919964
C1T940,大觀,2014-08-28,23.714206,121.373133,0.93767077
72T250,花蓮農改,2014-08-28,23.975222,121.563889,0.96393263
C0E740,造橋,2014-08-28,24.637056,120.864778,0.07870372
C0R100,尾寮山,2014-08-28,22.833111,120.683889,2.453509e-07
A2K630,臺大雲林校區,2014-08-28,23.730628,120.423903,0.10460331
C0D580,寶山,2014-08-28,24.735006,121.025192,0.8433455
E2P990,林試扇平站,2014-08-28,22.9677,120.6857,0.42701942
C0AI30,三重,2014-08-28,25.057328,121.500629,0.020729598
C0AH00,汐止,2014-08-28,25.066881,121.658778,0.0038763722
C1Z040,立山,2014-08-28,23.443356,121.327375,0.9644615
C0W130,花嶼,2014-08-28,23.40007,119.32276,0.012407795
C0A950,鼻頭角,2014-08-28,25.129036,121.923372,0.010348844
C0K470,林內,2014-08-28,23.748675,120.609642,0.16715041
C2F990,摩天嶺,2014-08-28,24.322458,120.936819,4.3756554e-09
82C160,茶改場,2014-08-28,24.908472,121.185333,0.025311358
C0Z320,清水林道,2014-08-28,23.27125,121.188272,0.004869125
C0R760,南仁湖,2014-08-28,22.084681,120.863353,0.8318233
C0M670,大林,2014-08-28,23.600616,120.45841,0.0023954124
C0M800,茶山,2014-08-28,23.299075,120.664767,0.31861886
C0A9C0,天母,2014-08-28,25.117494,121.537169,0.025596682
72K220,南改斗南分場,2014-08-28,23.634556,120.477333,0.16658042
72AI40,桃改樹林分場,2014-08-28,24.944503,121.386972,0.027958253
C0S910,蘭嶼燈塔,2014-08-28,22.081197,121.503117,0.616379
C0B050,八斗子,2014-08-28,25.144754,121.79167,0.00365989
C0U900,內城,2014-08-28,24.71813,121.68766,0.6447633
C0X320,柳營,2014-08-28,23.253328,120.375253,0.16247335
C0M790,新港,2014-08-28,23.553269,120.345728,0.5012035
C0F9T0,西屯,2014-08-28,24.179494,120.641275,0.0012030998
C0SA30,都歷,2014-08-28,23.020333,121.323642,0.24594973
C0C620,蘆竹,2014-08-28,25.084275,121.265767,0.012805706
C0R730,大坪頂,2014-08-28,22.024633,120.69355,0.07652246
C0AJ40,石門,2014-08-28,25.273672,121.601198,0.012993182
C0E750,苗栗,2014-08-28,24.564569,120.824575,0.013515571
C0T870,鯉魚潭,2014-08-28,23.935639,121.508944,0.7837787
C1V170,排雲,2014-08-28,23.463619,120.954147,1.5058461e-08
C2H950,中寮,2014-08-28,23.884447,120.766406,2.580473e-05
C0R350,貓鼻頭,2014-08-28,21.921774,120.7358,0.012359583
C0V660,岡山,2014-08-28,22.797078,120.294958,0.70295125
C1H941,雙冬,2014-08-28,23.967378,120.802189,1.08512346e-07
C0AJ70,田寮,2014-08-28,25.2698,121.4886,0.0061541563
C0AI00,五股,2014-08-28,25.07445,121.42728,0.0970926
C0Z280,德武,2014-08-28,23.47426,121.41071,0.99556243
C0R700,枋山,2014-08-28,22.246844,120.661086,0.005923677
C0C460,復興,2014-08-28,24.820208,121.352281,0.41340247
E2H360,蓮華池,2014-08-28,23.918333,120.885278,3.2615457e-08
C0M640,中埔,2014-08-28,23.42538,120.5229,0.27933937
C0W140,金沙,2014-08-28,24.488292,118.408778,0.00029483033
C2A540,四堵,2014-08-28,24.8926,121.745736,0.3418815
C0ACA0,新莊,2014-08-28,25.051478,121.446756,0.009866007
C0R220,潮州,2014-08-28,22.534361,120.54,0.37595055
U2HA40,臺大內茅埔,2014-08-28,23.689722,120.851117,2.6250586e-07
467490,臺中,2014-08-28,24.145736,120.684075,2.207894e-05
C0U960,翠峰湖,2014-08-28,24.510856,121.608044,7.69692e-09
E2HA20,林試畢祿溪站,2014-08-28,24.226944,121.308522,3.1207523e-09
C0V890,前鎮,2014-08-28,22.5718,120.3117,0.02812977
467620,蘭嶼,2014-08-28,22.036969,121.558339,0.8369728
C1F941,雪嶺,2014-08-28,24.280586,121.026642,5.7604406e-09
C2H9E0,國姓南港,2014-08-28,23.911108,120.846556,1.0137134e-08
C0AC80,文山,2014-08-28,25.00235,121.575728,0.022718903
C0F9R0,龍井,2014-08-28,24.184536,120.528972,0.0065473113
C0M760,民雄,2014-08-28,23.551754,120.428457,0.020720266
C0UA40,西德山,2014-08-28,24.560647,121.752608,1.11112975e-07
C1T920,中興,2014-08-28,23.769503,121.498653,0.8752405
C0D550,雪霸,2014-08-28,24.526972,121.11605,5.626549e-09
C2F860,梨山,2014-08-28,24.247522,121.243669,3.1497913e-09
C0R320,車城,2014-08-28,22.0744,120.716247,0.011250644
C1S870,南美山,2014-08-28,23.15025,121.382333,0.754017
C0B020,基隆嶼,2014-08-28,25.19141,121.78391,0.003881085
C1U501,牛鬥,2014-08-28,24.637836,121.573656,0.948303
C0M730,嘉義市東區,2014-08-28,23.457673,120.460531,0.00615382
C0S700,知本,2014-08-28,22.684866,121.005642,0.43987504
C1N001,沙崙,2014-08-28,22.935472,120.309406,0.9504761
C0V760,橋頭,2014-08-28,22.757806,120.30575,0.6922761
C0G960,福寶,2014-08-28,24.0443,120.3814,0.0054010004
C0X210,白河,2014-08-28,23.347466,120.414427,0.16313973
C0S810,東河,2014-08-28,22.972672,121.303986,0.539637
C2R170,屏東,2014-08-28,22.66027,120.49403,0.088471584
C0R670,楓港,2014-08-28,22.190131,120.692156,0.005923677
C0FA50,霧峰,2014-08-28,24.0419,120.6995,2.1171578e-05
C0UB10,蘇澳,2014-08-28,24.5969,121.8571,0.088281445
C0G950,防潮門,2014-08-28,24.1835,120.4871,0.006480538
C0M740,六腳,2014-08-28,23.492871,120.290625,0.90029734
C1R250,力里,2014-08-28,22.428117,120.629228,0.0024629391
C0K330,虎尾,2014-08-28,23.719183,120.442036,0.11257045
C2FA00,烏石坑,2014-08-28,24.273503,120.947617,4.5957695e-09
C0V620,永安,2014-08-28,22.82315,120.236856,0.4874986
C1I330,楓樹林,2014-08-28,23.986803,121.076117,3.654254e-09
C0W200,湖西,2014-08-28,23.596314,119.67275,0.025346752
72Q010,高雄農改場,2014-08-28,22.709333,120.525889,0.09098165
C0SA40,瑞和,2014-08-28,22.974361,121.156697,0.50454426
C0C680,龜山,2014-08-28,25.02846,121.38656,0.63037825
C2V260,月眉,2014-08-28,22.971003,120.539853,0.72378236
C0V450,鳳森,2014-08-28,22.545064,120.392592,0.42682365
C0U720,南山,2014-08-28,24.43742,121.38167,4.7359087e-08
A2N290,臺南蘭花園區,2014-08-28,23.340258,120.379661,0.16247335
C0R560,新園,2014-08-28,22.5434,120.461558,0.02430014
C0U890,三星,2014-08-28,24.66812,121.65302,0.827516
C1V300,御油山,2014-08-28,23.001983,120.715364,6.301749e-09
C0U600,礁溪,2014-08-28,24.817539,121.765608,0.5388877
C1T980,龍澗,2014-08-28,24.023289,121.411328,2.4419833e-08
C0D670,海天一線,2014-08-28,24.831986,120.914438,0.08353767
C0SA00,歷坵,2014-08-28,22.520969,120.89185,0.11012405
C0M710,東石,2014-08-28,23.458927,120.15385,0.13260832
C0M780,鹿草,2014-08-28,23.41134,120.30835,0.6261936
C0U520,雙連埤,2014-08-28,24.753033,121.641303,0.64263684
C0B010,七堵,2014-08-28,25.094819,121.71713,0.004193533
C0R480,長治,2014-08-28,22.693128,120.542622,0.40189412
C1V830,國三S383K,2014-08-28,22.781967,120.426475,0.8997398
12Q980,恆春工作站,2014-08-28,22.079678,120.714425,0.011250644
C1O940,東山服務區,2014-08-28,23.286016,120.398472,0.15519172
C1U840,東澳嶺,2014-08-28,24.5378,121.8485,0.6746529
C1D630,飛鳳山,2014-08-28,24.766464,121.119178,2.2855392e-07
C0S940,石寧山,2014-08-28,23.223772,121.406639,0.6840235
C0K410,北港,2014-08-28,23.573957,120.292802,0.5250648
C2M620,瑞里,2014-08-28,23.545133,120.675197,1.703008e-08
C0SB70,小港漁港,2014-08-28,23.158558,121.400431,0.42749435
C2O950,安南,2014-08-28,23.076694,120.144861,0.01959571
C0F0E0,南湖圈谷,2014-08-28,24.363714,121.444667,1.38747795e-08
467610,成功,2014-08-28,23.097486,121.373428,0.23213606
C0G890,伸港,2014-08-28,24.148933,120.484403,0.0072787097
C2E540,龍溪,2014-08-28,24.606489,120.783933,0.015968552
C1V200,梅山,2014-08-28,23.268447,120.823556,0.019600166
C0T9H0,加路蘭山,2014-08-28,23.682947,121.5274,0.18217993
C2O930,玉井,2014-08-28,23.126042,120.46055,0.14560358
C1F911,新伯公,2014-08-28,24.221361,120.841069,1.108568e-05
C0R490,九如,2014-08-28,22.7405,120.490503,0.0892478
C0X200,左鎮,2014-08-28,23.056758,120.408522,0.2988771
C0SB50,叭嗡嗡,2014-08-28,23.047062,121.343223,0.59644103
C1F891,稍來,2014-08-28,24.265689,121.001142,4.763674e-09
72N240,七股研究中心,2014-08-28,23.081672,120.062894,0.029760486
C0C700,中壢,2014-08-28,24.977661,121.256375,0.08552655
C0M690,水上,2014-08-28,23.419734,120.388909,0.03781552
C0V690,鼓山,2014-08-28,22.623325,120.275575,0.022716237
C0O860,大內,2014-08-28,23.11885,120.36083,0.25515053
C0Z200,萬榮,2014-08-28,23.709219,121.420106,0.7837787
C0T9D0,和中,2014-08-28,24.26676,121.74103,0.94077855
C1O921,楠西,2014-08-28,23.183511,120.484083,0.075057395
C0AJ30,淡水觀海,2014-08-28,25.184591,121.408616,0.012619786
C0V810,左營,2014-08-28,22.67491,120.28491,0.2396268
C0UA70,桃源谷,2014-08-28,24.962606,121.888875,0.9709691
C0X130,官田,2014-08-28,23.193217,120.315422,0.54081017
C1H000,翠峰,2014-08-28,24.109397,121.205211,4.0448906e-09
C0UA90,石城,2014-08-28,24.980444,121.951214,0.0077281343
C1E681,南勢山,2014-08-28,24.421669,120.923831,6.3278853e-09
C0A9F0,內湖,2014-08-28,25.079422,121.57545,0.015495121
C0K291,宜梧,2014-08-28,23.536281,120.169329,0.1508217
C1K540,口湖,2014-08-28,23.585344,120.180517,0.071073204
C0R780,滿州,2014-08-28,22.024403,120.839892,0.012675699
C0V870,文安,2014-08-28,22.8025,120.2164,0.4871152
C0U650,玉蘭,2014-08-28,24.675286,121.587061,0.95301133
C0R640,東港,2014-08-28,22.46247,120.44074,0.02812977
K2E360,苗栗農改,2014-08-28,24.495722,120.829111,0.08427232
C0AJ80,板橋,2014-08-28,25.0107,121.4489,0.023047982
C0S660,下馬,2014-08-28,23.150427,121.070312,5.426463e-05
C1H9B1,阿眉,2014-08-28,24.1263,120.994672,3.3227776e-09
C0UA20,多加屯,2014-08-28,24.368614,121.373189,6.2782703e-09
C0E730,頭份,2014-08-28,24.688247,120.912206,0.089260034
72V140,高改旗南分場,2014-08-28,22.857861,120.516667,0.54629076
C0K480,莿桐,2014-08-28,23.761192,120.502372,0.057423286
C0U980,坪林石牌,2014-08-28,24.86478,121.77396,0.931566
C0T900,西林,2014-08-28,23.8119,121.441458,0.760711
C1I150,青雲,2014-08-28,23.793361,120.949378,7.911256e-08
467350,澎湖,2014-08-28,23.565503,119.563094,0.11181344
C0G800,埔鹽,2014-08-28,24.000394,120.431683,0.005710928
C0H960,草屯,2014-08-28,23.973672,120.68085,0.006240227
C1V780,多納林道,2014-08-28,22.888028,120.737917,8.030478e-08
C0E920,通霄漁港,2014-08-28,24.498589,120.673876,0.014125727
C0Z330,安通山,2014-08-28,23.290728,121.348528,0.43301195
C0AH10,永和,2014-08-28,25.01125,121.508111,0.014269816
C0AK10,太平里,2014-08-28,25.134937,121.364899,0.009866007
C2G640,鹿港,2014-08-28,24.0753,120.430481,0.005710928
C1E890,國三N149K,2014-08-28,24.463414,120.680019,0.015009481
C1R110,口社,2014-08-28,22.770111,120.645222,0.30082172
C1M870,國三N285K,2014-08-28,23.550319,120.505833,0.13383485
467050,新屋,2014-08-28,25.006744,121.047486,0.48873752
C1E480,鳳美,2014-08-28,24.554803,121.034747,0.00014105286
C0M530,奮起湖,2014-08-28,23.493903,120.699253,1.0201315e-08
C0C590,觀音,2014-08-28,25.027072,121.153317,0.008356024
C0T9M0,靜浦,2014-08-28,23.455167,121.495028,0.9610121
C2H9M0,發祥,2014-08-28,24.154094,121.164517,7.728962e-09
C0AI40,石牌,2014-08-28,25.115597,121.513139,0.023047982
C1F871,上谷關,2014-08-28,24.203483,121.018644,4.471107e-09
C2H9G0,百勝,2014-08-28,24.051142,120.909361,9.050984e-07
C0G880,二水,2014-08-28,23.810742,120.6173,0.03299411
C0R940,加祿堂,2014-08-28,22.3363,120.6217,0.002474587
C0W220,北竿,2014-08-28,26.220358,119.974881,0.45264047
C0O960,崎頂,2014-08-28,22.959547,120.369317,0.8652353
C0S750,向陽,2014-08-28,23.248397,120.986133,5.060122e-09
C0T9F0,水璉,2014-08-28,23.797131,121.542514,0.6964704
C1M600,頭凍,2014-08-28,23.406364,120.603339,4.3938893e-08
467660,臺東,2014-08-28,22.752211,121.154586,0.72956634
C1D380,新埔,2014-08-28,24.84745,121.03834,0.27077085
C2G980,田頭村,2014-08-28,23.8263,120.444175,0.077741735
C0V750,路竹,2014-08-28,22.854997,120.259439,0.85957545
C0N050,蚵寮,2014-08-28,23.301,120.1104,0.04750164
72M700,南改鹿草分場,2014-08-28,23.416869,120.283061,0.6543766
C1SA50,利嘉林道,2014-08-28,22.82325,121.009389,9.828302e-09
467550,玉山,2014-08-28,23.487614,120.959522,1.7081772e-08
C0A940,金山,2014-08-28,25.223628,121.643967,0.0069942414
C1V340,大津,2014-08-28,22.888322,120.645986,0.48186392
C0W180,七美,2014-08-28,23.219333,119.444892,0.06374747
C1F9C1,白冷,2014-08-28,24.182844,120.929889,3.432984e-07
K2E710,苗改生物防治研究中心,2014-08-28,24.422861,120.871833,0.002037023
C0N040,蘆竹溝,2014-08-28,23.2344,120.0961,0.047501627
C2W230,畜試所澎湖,2014-08-28,23.628342,119.513206,0.0033539284
C0R880,後壁湖,2014-08-28,21.9457,120.7457,0.010977594
C1I280,埔中,2014-08-28,23.820778,120.642594,0.009461609
467790,墾丁雷達站,2014-08-28,21.948235,120.808028,0.013227178
C0W190,望安,2014-08-28,23.380564,119.494075,0.055118244
466881,新北,2014-08-28,24.9593,121.52,0.018526686
C0Z170,卓溪,2014-08-28,23.3443,121.3029,0.7737188
C0F850,東勢,2014-08-28,24.246428,120.833047,5.2941174e-05
466900,淡水,2014-08-28,25.164889,121.448906,0.012686881
C0I370,魚池,2014-08-28,23.895703,120.94135,3.885864e-08
C0C630,大溪,2014-08-28,24.882853,121.265547,0.03738856
C0A520,山佳,2014-08-28,24.974944,121.402008,0.027958253
C0I110,竹山,2014-08-28,23.761225,120.688156,0.00021703704
82H840,茶改南部分場,2014-08-28,23.762528,120.7405,2.0340553e-07
C0G660,溪湖,2014-08-28,23.94835,120.479122,0.0037491377
C1T800,洛韶,2014-08-28,24.204558,121.453956,5.7774656e-08
C1T810,慈恩,2014-08-28,24.192044,121.388386,6.7223938e-09
C1E451,象鼻,2014-08-28,24.368617,120.940228,6.3278853e-09
C0AC60,三峽,2014-08-28,24.939025,121.369728,0.02028656
C0I490,萬大林道,2014-08-28,23.928228,121.091411,3.1006626e-09
C1I290,豐丘,2014-08-28,23.668178,120.887417,2.9186882e-08
C1I320,奧萬大,2014-08-28,23.952956,121.178556,3.4252474e-09
C2M910,嘉義大學,2014-08-28,23.471325,120.485903,0.26980603
C0U770,南澳,2014-08-28,24.44935,121.81022,0.115805686
C0A980,社子,2014-08-28,25.109508,121.469681,0.018578973
C0V800,六龜,2014-08-28,22.997889,120.633583,0.5529669
C1G9D0,國一S218K,2014-08-28,23.890641,120.493253,0.0040784287
C0E570,白沙屯,2014-08-28,24.549447,120.696803,0.014125727
C2F9A0,中竹林,2014-08-28,24.103556,120.751061,1.9064866e-05
C0FA40,臺中電廠,2014-08-28,24.2146,120.4907,0.006523977
C2G9A0,畜試所彰化,2014-08-28,23.86045,120.557964,0.010399287
C0H9C0,合歡山,2014-08-28,24.143442,121.272547,8.104333e-09
C0X060,下營,2014-08-28,23.22695,120.256261,0.6005915
G2M350,農試溪口農場,2014-08-28,23.58565,120.408111,0.026027769
C0U860,頭城,2014-08-28,24.85323,121.8308,0.49137568
C0R580,南州,2014-08-28,22.48591,120.50274,0.01897844
C0D430,峨眉,2014-08-28,24.6905,121.017189,0.2793195
C0G780,秀水,2014-08-28,24.03405,120.503869,0.0041453484
72N100,臺南農改場,2014-08-28,23.0605,120.342194,0.6263872
C0S900,蘭嶼高中,2014-08-28,22.04909,121.51214,0.23589888
467540,大武,2014-08-28,22.355675,120.903789,0.0464587
C1F9W0,德基,2014-08-28,24.254783,121.190261,3.5052177e-09
C1Z120,壽豐,2014-08-28,23.870853,121.508081,0.9441635
C0W160,烏坵,2014-08-28,24.9944,119.44956,0.0019191251
C1I240,外大坪,2014-08-28,23.958697,120.917931,3.0375155e-08
C1I550,國六W023K,2014-08-28,23.979067,120.867742,6.589279e-05
C0R870,興海,2014-08-28,21.9752,120.8439,0.011717109
C0R140,瑪家,2014-08-28,22.682903,120.686639,0.6352823
C0A530,坪林,2014-08-28,24.938183,121.70975,0.86977416
C0X260,後壁,2014-08-28,23.366358,120.362326,0.47861362
C0Z230,和平,2014-08-28,24.30717,121.77007,0.94077855
C0G770,福興,2014-08-28,24.041289,120.437669,0.005710928
C0H9A0,神木村,2014-08-28,23.532742,120.843667,2.124203e-08
C0I460,南投,2014-08-28,23.911469,120.687331,0.0022890423
C0I480,梅峰,2014-08-28,24.085272,121.173572,3.103248e-09
C1V570,吉東,2014-08-28,22.85422,120.5454,0.52930176
C2D740,屯原,2014-08-28,24.067969,121.209389,2.4280444e-09
C2A560,福山,2014-08-28,24.776203,121.502811,0.5436379
C0AH30,五分山,2014-08-28,25.07125,121.780794,0.9980395
C0FA10,松柏,2014-08-28,24.429115,120.617482,0.0072169863
72S200,東改班鳩分場,2014-08-28,22.829528,121.077694,0.93688846
72HA00,中改埔里分場,2014-08-28,23.903208,120.963364,4.9120704e-08
C2H9W0,大坪頂農水,2014-08-28,24.043122,120.932781,3.5786243e-08
C0C650,平鎮,2014-08-28,24.897503,121.214636,0.025311358
C0S930,延平,2014-08-28,22.902581,121.084058,0.5406155
C0UA60,樟樹山,2014-08-28,24.41393,121.78325,0.976761
C1S670,摩天,2014-08-28,23.199503,121.027,7.89419e-09
C0V630,茄萣,2014-08-28,22.906642,120.182608,0.69662184
466940,基隆,2014-08-28,25.133314,121.740475,0.0037991144
C0X050,東河,2014-08-28,23.296598,120.385608,0.16247335
C0R770,保力,2014-08-28,22.071122,120.764111,0.015531722
G2L020,農試嘉義分所,2014-08-28,23.485028,120.473806,0.24286395
C0X240,關子嶺,2014-08-28,23.331169,120.508025,0.04080052
C0I380,集集,2014-08-28,23.828206,120.801467,0.0024176734
466990,花蓮,2014-08-28,23.975128,121.613275,0.9727114
C1V220,小關山,2014-08-28,23.154217,120.813603,4.8641837e-09
C1F9G1,慶福山,2014-08-28,24.180853,120.848378,1.4233561e-08
C0Z250,瑞穗林道,2014-08-28,23.49284,121.30688,2.2543408e-07
C0D590,新豐,2014-08-28,24.87068,120.97721,0.7196835
C0A870,五指山,2014-08-28,25.132153,121.608692,0.7543085
C0UA50,西帽山,2014-08-28,24.555361,121.802628,0.24878815
C0X160,仁德,2014-08-28,22.968258,120.257689,0.81972015
C1H971,六分寮,2014-08-28,23.92507,120.6378,3.5281903e-07
C0W120,西嶼,2014-08-28,23.5626,119.468436,0.11181339
C0G650,員林,2014-08-28,23.946503,120.585597,0.0001972484
C0AD50,鶯歌,2014-08-28,24.951533,121.346294,0.013969523
C2H9Q0,北東眼山,2014-08-28,24.120939,121.189303,2.4586388e-09
C2H9T0,名間竹圍,2014-08-28,23.859914,120.637572,6.138995e-05
C0S990,山豬窟,2014-08-28,22.318619,120.857372,0.9343474
72Q010,高雄農改,2014-08-28,22.709333,120.525889,0.09098165
C0X190,安平,2014-08-28,22.993161,120.152181,0.47544608
C0K400,斗六,2014-08-28,23.720583,120.541127,0.12108101
12J990,口湖工作站,2014-08-28,23.589978,120.180394,0.066885084
C0O830,北寮,2014-08-28,23.079561,120.495008,0.7555571
C1D410,白蘭,2014-08-28,24.579364,121.079947,6.093296e-09
C0S970,加津林,2014-08-28,22.416211,120.926942,0.049011182
C0D700,關西,2014-08-28,24.7977,121.1732,0.040169246
C0M810,里佳,2014-08-28,23.389125,120.716647,1.0201315e-08
C0U750,龜山島,2014-08-28,24.841667,121.953133,0.0774738
C0R810,內獅,2014-08-28,22.305064,120.642986,0.002474587
C1M390,龍美,2014-08-28,23.406728,120.654417,6.044912e-08
C2FB60,頭櫃山,2014-08-28,24.129842,120.858925,9.672588e-09
C1H840,國三N238K,2014-08-28,23.841008,120.707711,0.0012142123
CAQ030,崎峰國小,2014-08-28,22.42565,120.49521,0.018978434
C2E520,大湖,2014-08-28,24.414939,120.870872,0.021393728
467530,阿里山,2014-08-28,23.508208,120.813242,7.006228e-09
C1E691,南湖,2014-08-28,24.40135,120.837533,5.643071e-08
C0FA30,梧棲,2014-08-28,24.256003,120.523381,0.006523977
C1V231,高中,2014-08-28,23.134911,120.716711,9.0246744e-05
C0F9V0,新社,2014-08-28,24.200172,120.815806,1.8907136e-07
C0H890,埔里,2014-08-28,23.972169,120.952425,2.653112e-05
C0R690,墾丁,2014-08-28,21.966756,120.810269,0.3567889
C0F0D0,審馬陣,2014-08-28,24.381675,121.4203,1.0335809e-08
C0R820,白鷺,2014-08-28,22.454275,120.666219,0.9758505
U2H480,臺大溪頭,2014-08-28,23.670306,120.798194,4.1971916e-08
C1V190,南天池,2014-08-28,23.27403,120.91176,5.072365e-09
K2E360,苗栗農改場,2014-08-28,24.495722,120.829111,0.08427232
CAJ050,海口故事園區,2014-08-28,23.57543,120.14121,0.071073204
C2H9D0,三隻寮,2014-08-28,24.093078,120.861578,2.8663386e-08
C0O990,媽廟,2014-08-28,22.99175,120.293525,0.7959248
C0D480,打鐵坑,2014-08-28,24.849664,121.150789,0.00023719638
C0Z220,和平林道,2014-08-28,24.343922,121.656317,0.97387135
C0TA10,花蓮漁港,2014-08-28,23.995322,121.638331,0.9760485
72C440,桃園農改場,2014-08-28,24.950944,121.030583,0.50084656
C1E711,馬拉邦山,2014-08-28,24.367306,120.901656,4.4711264e-08
C0SB20,富岡,2014-08-28,22.792467,121.192669,0.7302595
C0D560,竹東,2014-08-28,24.767147,121.057881,0.0321161
C0F9U0,南屯,2014-08-28,24.137006,120.637969,0.00046938958
C0M720,番路,2014-08-28,23.464657,120.554156,0.18734042
C0F0A0,雪山圈谷,2014-08-28,24.388594,121.236339,1.3966968e-08
C1A9N0,四十份,2014-08-28,24.934158,121.593283,0.6471937
C0U760,東澳,2014-08-28,24.52196,121.83318,0.45102885
C0X230,鹽水,2014-08-28,23.272621,120.247641,0.19644235
C2H9H0,苗改南投蜂場,2014-08-28,23.852589,120.693481,0.00021703704
C0R950,萬隆國小,2014-08-28,22.507667,120.587817,0.6407431
C0V370,古亭坑,2014-08-28,22.893178,120.401947,0.57508856
C1I340,新興橋,2014-08-28,23.563333,120.868728,2.7512783e-08
C0SA80,土坂,2014-08-28,22.453108,120.887572,0.9527579
C0R160,鹽埔,2014-08-28,22.739558,120.530778,0.42645302
C0AC40,大屯山,2014-08-28,25.175675,121.522408,1.6285993e-08
466850,五分山雷達站,2014-08-28,25.071182,121.781205,0.9978819
C2H9L0,馬烈霸,2014-08-28,24.1512,121.201772,2.5283087e-09
C1AI50,國三N016K,2014-08-28,25.034164,121.619664,0.021130167
C1V600,藤枝,2014-08-28,23.071961,120.757042,8.24349e-09
C1E601,南勢,2014-08-28,24.572486,120.734842,0.17435151
C0Z180,新城,2014-08-28,24.03946,121.60454,0.9657368
C0O980,新市,2014-08-28,23.061614,120.298197,0.6962209
C0K420,西螺,2014-08-28,23.800407,120.467394,0.05324702
C0Z050,佳心,2014-08-28,23.34567,121.21316,2.0598657e-06
C0AD30,蘆洲,2014-08-28,25.086594,121.472331,0.020729598
C0V610,梓官,2014-08-28,22.760558,120.267211,0.7029514
K2F750,種苗改良場,2014-08-28,24.225972,120.800917,1.0929936e-06
C0UA80,大溪漁港,2014-08-28,24.941801,121.902955,0.5388877
C1AI60,國一39K邊坡,2014-08-28,25.064361,121.383836,0.0705754
C0W150,金寧,2014-08-28,24.457703,118.328989,0.00030396171
C0R960,內埔,2014-08-28,22.608483,120.570714,0.71314293
V2C250,八德合作社,2014-08-28,24.93775,121.266389,0.037836708
C2H9S0,龍南,2014-08-28,23.953536,120.833183,8.294876e-09
C0AH40,平等,2014-08-28,25.129142,121.577086,0.62253803
C0R540,佳冬,2014-08-28,22.419456,120.552375,0.018946111
466950,彭佳嶼,2014-08-28,25.627975,122.079744,0.09034773
C0A890,雙溪,2014-08-28,25.036003,121.864242,0.004570058
C0C480,桃園,2014-08-28,24.992425,121.323172,0.07169396
C0AH50,林口,2014-08-28,25.072181,121.38084,0.076748095
A2K360,水試臺西試驗場,2014-08-28,23.717231,120.190522,0.013635123
B2N890,畜試所,2014-08-28,23.058972,120.336406,0.6263872
C2M960,外寮,2014-08-28,23.562643,120.665688,2.4306356e-08
C0F9S0,烏日,2014-08-28,24.107058,120.624103,0.0024472617
C0C490,八德,2014-08-28,24.928708,121.283289,0.034511372
C0R190,赤山,2014-08-28,22.592333,120.614306,0.6567096
C0T820,天祥,2014-08-28,24.179597,121.495639,0.85222054
C1F9E1,龍安,2014-08-28,24.1605,120.831961,8.739976e-08
C0V820,小林,2014-08-28,23.148408,120.63325,0.16095777
C2G870,芳苑,2014-08-28,23.922303,120.320025,0.0124491155
C0E850,大河,2014-08-28,24.618069,120.948578,0.19407898
C1U670,寒溪,2014-08-28,24.634,121.71691,0.025305992
C0N020,城西,2014-08-28,23.0568,120.0956,0.027348189
C1Z110,三棧,2014-08-28,24.11557,121.60501,0.2790284
C0R280,檳榔,2014-08-28,22.076078,120.836777,0.28424433
C2H9J0,中台,2014-08-28,23.9996,120.938739,4.903314e-07
C0F9L0,后里,2014-08-28,24.310436,120.729725,0.004484766
C0D540,橫山,2014-08-28,24.71116,121.11693,0.6293108
C1D420,太閣南,2014-08-28,24.632808,121.160575,2.6854017e-09
C1E770,公館,2014-08-28,24.526914,120.830806,0.014302209
CAN130,水試所海水繁養殖中心,2014-08-28,23.120802,120.07968,0.029760486
C1I430,翠華,2014-08-28,24.191961,121.224339,4.8043334e-09
C1M400,菜瓜坪,2014-08-28,23.251928,120.576103,0.33739692
C0G730,二林,2014-08-28,23.903325,120.376081,0.007179598
72M360,南改義竹分場,2014-08-28,23.360694,120.279361,0.7390695
V2K620,麥寮合作社,2014-08-28,23.753836,120.294783,0.013246381
C0Z070,舞鶴,2014-08-28,23.46811,121.37407,0.9946296
C0B040,大武崙,2014-08-28,25.166676,121.706993,0.004193533
C1Z030,紅葉,2014-08-28,23.493119,121.338806,0.9955186
C1I050,丹大,2014-08-28,23.753747,121.141147,6.710045e-09
C0I080,信義,2014-08-28,23.689694,120.851036,2.6250586e-07
C2M920,朴子農改,2014-08-28,23.469889,120.259383,0.90029734
C2A880,福隆,2014-08-28,25.017842,121.942083,0.010460795
C0Z160,鳳林,2014-08-28,23.746114,121.453411,0.95603096
C0V210,復興,2014-08-28,23.222403,120.806089,0.43852386
C0H990,昆陽,2014-08-28,24.121322,121.273642,6.0394463e-09
C0R741,獅子,2014-08-28,22.202308,120.705236,0.010827121
C0S710,鹿野,2014-08-28,22.917711,121.122994,0.34534207
C0I530,小奇萊,2014-08-28,24.131764,121.295717,6.784041e-09
C2K630,荷苞,2014-08-28,23.657717,120.595144,0.0720624
C0Z080,富源,2014-08-28,23.587642,121.378225,0.9740284
467441,高雄,2014-08-28,22.7304,120.3125,0.2396268
C0SB10,美和,2014-08-28,22.682078,121.060236,0.7015749
C2K620,馬光農場,2014-08-28,23.721453,120.378864,0.10776194
C1I140,卡奈托灣,2014-08-28,23.754364,121.087872,4.187602e-09
C0I520,玉山風口,2014-08-28,23.470489,120.955994,1.7695077e-08
C1G691,下水埔,2014-08-28,23.816114,120.5676,0.056738388
C0X110,臺南市南區,2014-08-28,22.961189,120.188378,0.4554896
C0V680,仁武,2014-08-28,22.701083,120.347722,0.23413031
C2G840,北斗,2014-08-28,23.877586,120.514222,0.0040428
C0R900,竹坑,2014-08-28,22.1385,120.7022,0.0036726296
C0K250,崙背,2014-08-28,23.75555,120.318925,0.013512444
C0G860,社頭,2014-08-28,23.897647,120.5862,0.00018310678
C0X150,安定,2014-08-28,23.102614,120.227839,0.13105096
C0R590,里港,2014-08-28,22.77919,120.49459,0.2976321
C0E610,馬都安,2014-08-28,24.451272,120.930192,4.7197582e-07
C0E550,明德,2014-08-28,24.583486,120.885411,0.17971456
C0R150,三地門,2014-08-28,22.709889,120.639944,0.44686407
C0G910,花壇,2014-08-28,24.032076,120.549461,0.004046407
C1D400,鳥嘴山,2014-08-28,24.71909,121.28387,1.7534768e-06
C0K500,元長,2014-08-28,23.64981,120.315024,0.06570791
C0F0B0,石岡,2014-08-28,24.276061,120.777644,0.10084814
C2V250,甲仙,2014-08-28,23.080106,120.591758,0.41187933
C0SA20,金崙山,2014-08-28,22.567419,120.959667,7.738264e-07
C0V350,溪埔,2014-08-28,22.738578,120.446797,0.09925329
C0M660,溪口,2014-08-28,23.604131,120.403569,0.026027769
C1S880,壽卡,2014-08-28,22.238911,120.858903,0.84006596
72D680,桃改新埔分場,2014-08-28,24.834444,121.066111,0.033823337
