站號,站名,日期,lat,lon,BLBTSLS
C0R710,龍磐,2014-11-25,21.931672,120.838942,0.99417454
C1F9D1,白毛台,2014-11-25,24.158325,120.886933,1.765267e-08
C0G940,竹塘,2014-11-25,23.848253,120.386764,6.62306e-09
467590,恆春,2014-11-25,22.003897,120.746339,0.9965684
C1O850,環湖,2014-11-25,23.148617,120.418633,2.3952272e-05
C0U710,太平山,2014-11-25,24.505486,121.525656,4.7462354e-08
C0E820,獅潭,2014-11-25,24.539133,120.920042,0.00070689584
C0V880,興達,2014-11-25,22.8778,120.2127,0.00044937286
C0S890,關山,2014-11-25,23.0395,121.175017,0.99770385
C0SB30,新蘭,2014-11-25,22.869214,121.223228,0.99861646
C2R970,屏科大,2014-11-25,22.648275,120.619247,1.464694e-09
K2F750,種苗繁殖,2014-11-25,24.225972,120.800917,1.0061105e-08
C1Z130,銅門,2014-11-25,23.965694,121.492842,1.8630489e-07
C0AD40,土城,2014-11-25,24.973208,121.445169,0.9999858
CAN140,六官養殖協會,2014-11-25,23.22881,120.29962,2.573454e-05
C0X180,山上,2014-11-25,23.0757,120.363253,9.492109e-07
C0F9Z0,雪山東峰,2014-11-25,24.388792,121.268675,2.9641477e-08
C1M480,獨立山,2014-11-25,23.537022,120.607797,6.1782472e-09
C0X220,學甲,2014-11-25,23.230367,120.182187,0.0174318
467650,日月潭,2014-11-25,23.881325,120.90805,8.524136e-09
C0K600,箔子寮,2014-11-25,23.6197,120.14,0.004673717
C0G830,埤頭,2014-11-25,23.866003,120.452806,1.3171627e-08
C0S950,七塊厝,2014-11-25,22.954453,121.229922,2.5143714e-07
467110,金門,2014-11-25,24.407306,118.289281,0.9870157
C0AH80,深坑,2014-11-25,25.002703,121.628328,0.99994856
467990,馬祖,2014-11-25,26.169269,119.923419,0.9831817
C0A970,三貂角,2014-11-25,25.007606,122.002058,0.9991376
C2D730,寶山農場,2014-11-25,24.732444,120.976153,0.9999762
C0K430,褒忠,2014-11-25,23.690938,120.303634,0.04421367
467480,嘉義,2014-11-25,23.495925,120.432906,0.0012938135
C2E540,後龍,2014-11-25,24.606489,120.783933,0.9993928
C0V400,阿公店,2014-11-25,22.804194,120.355528,3.2431586e-08
C0R440,大漢山,2014-11-25,22.405264,120.753181,1.1510234e-08
C0K280,四湖,2014-11-25,23.630414,120.227125,0.9184117
C1F9B1,桐林,2014-11-25,24.066172,120.735194,2.260533e-09
C2H9U0,鳳鵬,2014-11-25,23.763919,120.788061,2.3487359e-09
C0K390,土庫,2014-11-25,23.679029,120.395574,3.5923406e-09
C1I450,望鄉山,2014-11-25,23.594153,120.944286,2.7791417e-08
C0E910,海埔,2014-11-25,24.648767,120.772435,0.9995266
B2E890,畜試北區分所,2014-11-25,24.527806,120.770972,0.99964976
C0R750,四林格山,2014-11-25,22.076989,120.802439,0.31831682
C0F0C0,中坑,2014-11-25,24.248517,120.903319,1.2534269e-08
C1I121,大鞍,2014-11-25,23.678381,120.760017,9.432299e-09
72U480,花改蘭陽分場,2014-11-25,24.686306,121.716583,0.9999847
C0A770,科教館,2014-11-25,25.096356,121.516507,0.9999867
C0AJ60,六塊厝,2014-11-25,25.24,121.4481,0.99999493
C0R620,墾雷,2014-11-25,21.900836,120.855269,0.9963472
467420,永康,2014-11-25,23.038386,120.2367,0.00134783
467300,東吉島,2014-11-25,23.25695,119.667467,0.99165547
C0I410,名間,2014-11-25,23.837053,120.701447,3.0586933e-09
A2C560,農工中心,2014-11-25,24.985917,121.239833,0.99998635
C0V740,旗山,2014-11-25,22.888614,120.483597,2.7403308e-07
C0Z061,玉里,2014-11-25,23.3215,121.339656,0.008958934
C0S840,南田,2014-11-25,22.279725,120.889208,0.3268773
C1I470,杉林溪,2014-11-25,23.639517,120.786444,1.1842628e-08
C1X040,東原,2014-11-25,23.291597,120.463822,4.3723434e-09
C0R660,枋寮,2014-11-25,22.367722,120.590647,3.2437695e-09
C1R120,上德文,2014-11-25,22.763272,120.704442,7.039692e-08
C0K450,大埤,2014-11-25,23.646074,120.431537,3.1868106e-09
C0UA00,土場,2014-11-25,24.576533,121.495333,9.760704e-07
467080,宜蘭,2014-11-25,24.763975,121.756528,0.99938375
C0N030,四草,2014-11-25,23.0235,120.1116,0.00576426
C0V650,彌陀,2014-11-25,22.783806,120.246361,1.0751368e-05
C0D660,新竹市東區,2014-11-25,24.798681,120.986942,0.99998885
82S580,茶改東部分場,2014-11-25,22.907694,121.130139,0.0030494495
C0SB40,興隆,2014-11-25,22.913661,121.257469,0.44797352
C0C710,大溪永福,2014-11-25,24.892936,121.324975,0.9999855
C0FA20,溫寮,2014-11-25,24.372177,120.583125,0.99918234
C0V640,湖內,2014-11-25,22.887139,120.2445,0.0003060134
C0R910,下寮,2014-11-25,22.3929,120.5548,4.6130726e-08
C0Z020,明里,2014-11-25,23.208717,121.262342,1.4734246e-05
C0M770,嘉義梅山,2014-11-25,23.585398,120.555587,4.572285e-09
G2F820,農業試驗所,2014-11-25,24.031261,120.688133,0.99799615
C0C660,楊梅,2014-11-25,24.912375,121.143047,0.9999549
C1E511,新開,2014-11-25,24.347703,120.827019,4.304844e-09
G2F820,農試所(霧峰),2014-11-25,24.031261,120.688133,0.99799615
C1I070,和社,2014-11-25,23.591131,120.888861,3.0770906e-09
C2F000,大肚,2014-11-25,24.15295,120.572117,4.123135e-09
C1S850,豐南,2014-11-25,23.122139,121.262389,4.8461237e-07
C2A920,富貴角,2014-11-25,25.263783,121.565258,0.9999943
CAH030,茶改場竹圍站,2014-11-25,23.860083,120.637528,1.7580284e-09
C0T960,光復,2014-11-25,23.660694,121.424964,8.855252e-06
C0F9M0,豐原,2014-11-25,24.254322,120.720692,0.9629873
C0R720,旭海,2014-11-25,22.205403,120.887614,0.72503525
C0V710,苓雅,2014-11-25,22.622742,120.330669,1.4719798e-07
C0C740,觀音工業區,2014-11-25,25.064764,121.114856,0.9999907
CAC040,拉拉山,2014-11-25,24.699317,121.427133,1.7501403e-08
C0V790,萬山,2014-11-25,22.905944,120.688056,2.6468312e-09
U2HA30,臺大和社,2014-11-25,23.590856,120.888864,3.0771024e-09
C0AJ90,澳底,2014-11-25,25.0552,121.9253,0.9998179
C0Z100,東華,2014-11-25,23.89525,121.549833,3.1931133e-05
C0G970,三豐,2014-11-25,23.882,120.2895,0.99612623
V2K610,大庄合作社,2014-11-25,23.8068,120.367939,0.16316748
C0V900,汕尾,2014-11-25,22.4782,120.4151,2.5618968e-08
C1R630,龍泉,2014-11-25,22.66701,120.59091,1.8412105e-09
C1AC50,關渡,2014-11-25,25.133486,121.469331,0.9999919
C0F9I0,神岡,2014-11-25,24.272481,120.658314,0.9844097
C0K460,斗南,2014-11-25,23.678734,120.478359,4.5544333e-09
467410,臺南,2014-11-25,22.993239,120.204772,0.0008905368
C2O810,曾文,2014-11-25,23.219681,120.497328,1.1245293e-06
467280,後龍,2014-11-25,24.648563,120.831834,0.99925643
C1F9J1,清水林,2014-11-25,24.071242,120.820419,3.1177776e-09
C2A650,火燒寮,2014-11-25,25.002719,121.742892,0.9683901
466930,竹子湖,2014-11-25,25.162078,121.544547,4.4832468e-05
C1I220,樟湖,2014-11-25,23.905333,120.846983,5.842924e-09
C0I390,仁愛,2014-11-25,24.022122,121.132206,7.1377393e-09
C0Z300,東里,2014-11-25,23.26853,121.30547,0.0058443197
C1V590,新發,2014-11-25,23.057019,120.646064,2.4013833e-08
C0K510,水林,2014-11-25,23.572924,120.24597,0.0031729739
72S590,東改賓朗果園,2014-11-25,22.813889,121.071278,0.9993786
82A750,茶改北部分場,2014-11-25,24.955778,121.631222,1.7200426e-07
C1A750,石碇服務區,2014-11-25,25.00872,121.646242,0.9999418
C0X300,鹿寮,2014-11-25,23.386047,120.477331,6.01714e-09
G2AI50,關渡,2014-11-25,25.11575,121.492,0.99998707
C0K590,雲林東勢,2014-11-25,23.674192,120.255721,0.04421367
C0A570,桶後,2014-11-25,24.848222,121.597992,0.00025905843
C1S800,華源,2014-11-25,22.657883,121.02325,0.9991585
C0G720,溪州,2014-11-25,23.851589,120.499093,9.72455e-09
C1V160,達卡努瓦,2014-11-25,23.279811,120.705319,1.4993775e-08
C2M410,馬頭山,2014-11-25,23.324361,120.582017,3.930535e-09
C0V850,蚵仔寮,2014-11-25,22.7256,120.2527,1.0425499e-06
C0S740,池上,2014-11-25,23.119628,121.209469,1.6190526e-06
C1V390,尖山,2014-11-25,22.813153,120.367789,2.4544137e-08
C0AH70,松山,2014-11-25,25.04871,121.55042,0.9999604
C0N010,鯤鯓國小,2014-11-25,23.1879,120.0889,0.761507
C0R550,新埤,2014-11-25,22.467947,120.582894,2.2962714e-09
C0SA60,知本（水試所）,2014-11-25,22.702394,121.082761,0.9949622
C0T9I0,豐濱,2014-11-25,23.583897,121.514806,2.8194286e-06
C0UB00,淡江大學蘭陽校園,2014-11-25,24.823239,121.730383,5.489733e-07
C0W240,九宮,2014-11-25,24.423753,118.240186,0.9973835
C0T9N0,富里,2014-11-25,23.171639,121.249378,2.5414886e-06
U2HA50,臺大竹山,2014-11-25,23.756972,120.681556,2.1473732e-09
C0V840,鳳鼻頭,2014-11-25,22.5083,120.3591,1.8431534e-07
C0X140,西港,2014-11-25,23.125608,120.203108,0.04035398
72D080,桃改五峰分場,2014-11-25,24.612194,121.157167,4.0276076e-09
C2H9P0,伊拿谷,2014-11-25,23.963211,121.088264,3.9415187e-09
C2H9F0,柑林,2014-11-25,24.018658,120.847072,2.1147708e-09
C0TA20,加灣,2014-11-25,24.082025,121.608944,9.928416e-07
C0V530,阿蓮,2014-11-25,22.883208,120.327508,2.5777836e-06
C1O880,關山,2014-11-25,23.173397,120.594092,3.8532697e-09
C0E791,卓蘭,2014-11-25,24.3126,120.8244,4.2632693e-09
C1I030,武界,2014-11-25,23.913225,121.052483,7.146362e-09
C0R520,崁頂,2014-11-25,22.514781,120.506914,4.1487517e-08
C0R341,牡丹,2014-11-25,22.130036,120.792639,0.9996996
C0R930,萬丹,2014-11-25,22.5885,120.4851,2.336814e-09
C0S760,紅石,2014-11-25,23.069131,121.126219,1.2530181e-08
C1M610,石磐龍,2014-11-25,23.496606,120.663506,9.936646e-09
C0UA10,鴛鴦湖,2014-11-25,24.590269,121.412228,1.370142e-08
V2C260,八德蔬果,2014-11-25,24.978508,121.281819,0.9999857
C0R800,丹路,2014-11-25,22.204481,120.750989,0.9991257
C0G920,永靖,2014-11-25,23.924703,120.547533,0.84475034
C2M950,太和,2014-11-25,23.538372,120.702961,1.0199214e-08
C1A630,下盆,2014-11-25,24.771003,121.538622,2.543132e-07
B2N890,畜產試驗所,2014-11-25,23.058972,120.336406,1.6636315e-06
C0UA30,白嶺,2014-11-25,24.527819,121.519031,2.9468923e-08
C1V580,溪南(特生中心),2014-11-25,23.084972,120.788475,1.14126255e-08
C1T970,大農,2014-11-25,23.615233,121.413331,2.332188e-06
E2S960,林試太麻里2,2014-11-25,22.598014,120.989761,0.8151532
C0R650,竹田,2014-11-25,22.58486,120.54344,2.336814e-09
C1H900,清流,2014-11-25,24.080775,120.962997,3.2319922e-09
C1C510,水尾,2014-11-25,24.940081,121.087161,0.99997514
C0F9X0,大雅(中科園區),2014-11-25,24.21528,120.62445,0.9954208
C0SB60,白守蓮,2014-11-25,23.126769,121.401914,0.9982303
C0O970,虎頭埤,2014-11-25,23.021375,120.347878,1.326401e-05
C0C730,中大臨海站,2014-11-25,24.966126,121.008581,0.999976
C0X250,新營,2014-11-25,23.310689,120.316681,3.40856e-06
C0V700,三民,2014-11-25,22.645017,120.311233,1.4719798e-07
C0U870,大礁溪,2014-11-25,24.791042,121.675047,2.1647843e-07
C0E870,高鐵苗栗,2014-11-25,24.60725,120.826094,0.9993843
A2K570,古坑花卉中心,2014-11-25,23.63353,120.55239,5.620157e-09
C0M860,新美,2014-11-25,23.338017,120.683169,7.301099e-09
C1E701,八卦,2014-11-25,24.491756,120.927619,5.0324807e-06
C0I420,國姓,2014-11-25,24.037803,120.855072,2.3671574e-09
C2D720,關西工作站,2014-11-25,24.757275,121.184792,0.99983305
C0S960,香蘭,2014-11-25,22.587569,120.993375,0.81573427
C0R260,春日,2014-11-25,22.370361,120.628306,1.3267426e-06
72G600,臺中農改場,2014-11-25,24.003028,120.534389,0.9998495
C0Z210,瑞穗,2014-11-25,23.5239,121.39021,5.0170647e-06
C0M820,達邦,2014-11-25,23.453994,120.749517,4.8074957e-09
C0V860,南寮,2014-11-25,22.7616,120.2339,1.521402e-05
C0G740,大城,2014-11-25,23.852487,120.320935,0.9950794
C0R920,塭仔,2014-11-25,22.4169,120.5197,5.5473347e-08
C0R470,高樹,2014-11-25,22.826389,120.600806,2.682975e-09
C0R680,佳樂水,2014-11-25,21.993578,120.861633,0.99666303
C1O870,大棟山,2014-11-25,23.31157,120.52226,8.7375716e-09
C0D360,梅花,2014-11-25,24.678347,121.208558,1.2810412e-07
C0Z190,富世,2014-11-25,24.14743,121.6297,3.1144534e-06
C0AI10,屈尺,2014-11-25,24.92184,121.54475,0.99994856
B2U990,畜試東區分所,2014-11-25,24.669039,121.832561,0.9999878
C0SB80,長濱漁港,2014-11-25,23.313644,121.459994,0.8974321
C0R240,來義,2014-11-25,22.527306,120.625111,3.57742e-07
C0V910,大樹,2014-11-25,22.684645,120.432803,5.039243e-08
C1R610,西大武山,2014-11-25,22.617719,120.7322,1.5657397e-08
C0G900,線西,2014-11-25,24.143358,120.443536,0.9995399
C0M700,竹崎,2014-11-25,23.526178,120.555508,4.7526654e-09
C2E880,三義,2014-11-25,24.405478,120.749819,8.124856e-09
C0C720,竹圍,2014-11-25,25.112692,121.239824,0.999995
C0F9P0,清水,2014-11-25,24.312297,120.562242,0.9983677
C0Z150,吉安光華,2014-11-25,23.930925,121.595153,8.1235376e-05
C1D640,外坪(五指山),2014-11-25,24.644447,121.090961,3.977203e-08
C0F9O0,潭子,2014-11-25,24.213106,120.703933,0.9365122
C2H9R0,卓社,2014-11-25,23.887894,121.000086,6.690709e-09
72T250,花蓮農改場,2014-11-25,23.975222,121.563889,7.9435733e-07
C0E780,銅鑼,2014-11-25,24.489681,120.790853,0.9995368
C1T950,太安,2014-11-25,23.666719,121.370128,3.7588162e-08
C0E830,苑裡,2014-11-25,24.439714,120.653053,0.99918306
467270,田中,2014-11-25,23.873803,120.581286,1.2872718e-08
C0SA10,檳榔四格山,2014-11-25,22.810031,121.109308,0.99877065
C1T830,布洛灣,2014-11-25,24.17184,121.57127,3.7257296e-06
C0F970,大坑,2014-11-25,24.173142,120.722289,0.9024088
C1U920,思源,2014-11-25,24.393125,121.347214,3.2506833e-08
C0A931,三和,2014-11-25,25.233153,121.595236,0.99943364
C0I010,廬山,2014-11-25,24.033311,121.181808,1.2812997e-08
C2M940,日野賀,2014-11-25,23.434056,120.727169,9.9746815e-09
C0R860,鼻頭,2014-11-25,22.1043,120.8979,0.9958624
C0UB20,壯圍,2014-11-25,24.7359,121.8163,0.9999878
C0R790,九棚,2014-11-25,22.14195,120.889281,0.67848223
C0W110,東莒,2014-11-25,25.9652,119.98069,0.97888696
C1U930,粉鳥林,2014-11-25,24.497088,121.842479,0.0003838661
C1I211,蘆竹湳,2014-11-25,23.934019,120.811994,8.527534e-09
C0S830,長濱,2014-11-25,23.286817,121.411975,6.055718e-06
C1F9F1,伯公龍,2014-11-25,24.272392,120.849047,1.07585745e-08
C0E810,西湖,2014-11-25,24.562947,120.7485,0.9992424
C1I440,新高口,2014-11-25,23.478744,120.878939,2.238378e-08
C0O840,王爺宮,2014-11-25,23.222064,120.40085,1.1253961e-06
C0T9G0,鳳林山,2014-11-25,23.735269,121.420131,4.2540722e-07
C0X080,佳里,2014-11-25,23.173039,120.145086,0.029685223
C0FB70,大甲溪埔,2014-11-25,24.370625,120.620067,0.9991921
C0Z310,清水斷崖,2014-11-25,24.218294,121.689142,0.0013662837
C0M680,太保,2014-11-25,23.455062,120.331455,4.9211244e-06
C1S820,金峰,2014-11-25,22.590969,120.933236,0.99292237
C0AD10,八里,2014-11-25,25.150211,121.403947,0.999995
C2K240,草嶺,2014-11-25,23.59555,120.693461,6.8334676e-09
C1SA70,都蘭,2014-11-25,22.87794,121.226881,0.44615483
C0K440,二崙,2014-11-25,23.772797,120.408944,6.0275704e-09
C1A760,坪林交控,2014-11-25,24.94284,121.713442,0.52200764
C0F9N0,大里,2014-11-25,24.092464,120.701378,0.9989719
C0SA90,達仁林場,2014-11-25,22.264347,120.823972,0.9983698
C1R290,石門山,2014-11-25,22.112611,120.756597,0.9562876
42HA10,萬大發電廠,2014-11-25,23.978875,121.139639,1.0289015e-08
C0R890,山海,2014-11-25,21.9878,120.7091,0.9969446
C0T9A0,月眉山,2014-11-25,23.809928,121.539828,1.3521243e-07
C0AC70,信義,2014-11-25,25.037822,121.564597,0.9999604
C0K560,棋山,2014-11-25,23.68645,120.603417,6.0731074e-09
C2FB50,出雲,2014-11-25,24.206469,120.902794,6.894831e-09
C1Z240,中平林道,2014-11-25,23.42115,121.26763,5.2866646e-08
U2H480,溪頭,2014-11-25,23.670306,120.798194,6.215052e-09
C0M880,好美里,2014-11-25,23.3364,120.138,0.029685223
C0T9E0,大坑,2014-11-25,23.880628,121.581981,2.1263763e-07
C0K530,臺西,2014-11-25,23.701547,120.197559,0.97705835
C1E900,國一N128K,2014-11-25,24.560997,120.844186,0.99865544
C0AJ50,水湳洞,2014-11-25,25.123695,121.862238,0.9999947
C0AI20,白沙灣,2014-11-25,25.283128,121.519058,0.9999895
C0A860,大坪,2014-11-25,25.165914,121.632969,0.27029648
C1U850,觀音海岸,2014-11-25,24.38319,121.77856,2.846549e-07
C2K610,草嶺石壁,2014-11-25,23.602469,120.707731,1.0017656e-08
C0U950,鶯子嶺,2014-11-25,24.89754,121.79244,5.5475358e-08
C0O900,善化,2014-11-25,23.112883,120.297219,4.375881e-06
C0K550,蔦松,2014-11-25,23.514319,120.229736,0.00043790258
E2P980,林試六龜中心,2014-11-25,22.991703,120.645722,3.8143604e-09
C0E590,通霄,2014-11-25,24.471892,120.704622,0.99966186
C1I310,西巒,2014-11-25,23.754486,120.883956,5.9840866e-09
C0A550,泰平,2014-11-25,24.971197,121.823711,5.8089125e-07
C0I360,水里,2014-11-25,23.812553,120.849792,1.8115212e-09
C0R830,高士,2014-11-25,22.121825,120.836781,0.91613376
C1I101,溪頭,2014-11-25,23.661789,120.807647,1.1869041e-08
C0AJ20,野柳,2014-11-25,25.20703,121.690021,0.9999947
C0B060,暖暖,2014-11-25,25.0957,121.7403,0.9999944
C1H920,長豐,2014-11-25,24.102039,120.879897,3.1472691e-09
C0V360,內門,2014-11-25,22.975481,120.466769,2.3102805e-07
C0R850,林邊,2014-11-25,22.4634,120.5339,4.1487517e-08
C0E930,龍鳳,2014-11-25,24.700034,120.859125,0.98662126
C0U910,冬山,2014-11-25,24.63373,121.7937,0.9999878
C1E721,泰安,2014-11-25,24.489017,120.968036,5.011148e-09
82H320,茶改中部分場,2014-11-25,23.875611,120.913583,2.9272502e-09
C0M750,布袋,2014-11-25,23.380878,120.167789,0.0007054843
C1S860,利嘉,2014-11-25,22.809417,121.050528,5.8558797e-08
72C440,桃園農改,2014-11-25,24.950944,121.030583,0.9999843
E2S980,林試太麻里1,2014-11-25,22.598922,120.980044,0.9484747
C0X170,關廟,2014-11-25,22.963017,120.327797,1.6098286e-06
C0V720,林園,2014-11-25,22.507747,120.394511,1.4719798e-07
C1I510,線浸林道,2014-11-25,23.761508,120.832956,5.1076743e-09
C0D690,外湖,2014-11-25,24.917735,120.968711,0.999976
C0C750,新興坑尾,2014-11-25,25.0061,121.0971,0.99999154
B2Q810,畜試南區分所,2014-11-25,21.945583,120.802167,0.9966458
C0S790,金崙,2014-11-25,22.538122,120.966875,0.99660176
C0AH90,福山植物園,2014-11-25,24.760717,121.58135,1.7921087e-06
C0I540,奇萊稜線,2014-11-25,24.109231,121.326456,3.6108354e-08
C0M850,表湖,2014-11-25,23.24186,120.64166,6.0156142e-09
C0S770,大溪山,2014-11-25,22.478475,120.943325,0.99896073
C0AG80,中和,2014-11-25,24.991622,121.491792,0.9999605
C0T790,大禹嶺,2014-11-25,24.186117,121.316086,2.7300967e-08
C0T9B0,水源,2014-11-25,23.991861,121.537169,1.04309535e-07
C0R840,牡丹池山,2014-11-25,22.168389,120.841225,0.99771494
C1I131,桶頭,2014-11-25,23.641944,120.654117,1.8915798e-09
CAL110,布袋國中,2014-11-25,23.35893,120.18026,2.3460418e-05
467571,新竹,2014-11-25,24.827853,121.014219,0.9999897
C0Z290,赤柯山,2014-11-25,23.36893,121.38293,1.0464651e-07
C0X280,將軍,2014-11-25,23.214999,120.13577,0.029685223
C0S690,太麻里,2014-11-25,22.60902,120.98533,0.97208095
C0U880,北關,2014-11-25,24.9072,121.8734,0.99993265
C1H860,瑞岩,2014-11-25,24.123772,121.18345,1.2894637e-08
C0G810,埔心,2014-11-25,23.947633,120.525456,0.90474325
C0U970,大福,2014-11-25,24.80064,121.81389,0.9995353
C2H9N0,仁愛東眼,2014-11-25,24.026875,121.1205,7.935978e-09
C1E670,南礦,2014-11-25,24.538278,121.002836,3.26587e-09
C0M520,東後寮,2014-11-25,23.369908,120.248065,2.0836711e-05
C1E461,松安,2014-11-25,24.397972,120.986022,4.7625384e-09
72G600,臺中農改,2014-11-25,24.003028,120.534389,0.9998495
C2N160,西拉雅風管處,2014-11-25,23.189481,120.335297,1.4339788e-05
C2M970,碧湖,2014-11-25,23.568632,120.624165,6.6919212e-09
C0A640,石碇,2014-11-25,24.993969,121.662917,0.9923465
E2S960,林試太麻里2,2014-11-25,22.598,120.99775,0.7894128
C0F9Y0,桃山,2014-11-25,24.432739,121.303808,3.152317e-08
C1I020,萬大,2014-11-25,23.979817,121.132261,7.1812325e-09
C0U940,羅東,2014-11-25,24.68184,121.74934,0.9999869
C0M650,朴子,2014-11-25,23.43463,120.23902,0.00060045
C1I500,大尖山,2014-11-25,23.858572,120.994889,2.3628505e-08
C0G820,田尾,2014-11-25,23.901669,120.509389,0.84475034
E2K600,四湖植物園,2014-11-25,23.676986,120.163433,0.97705835
C0S730,綠島,2014-11-25,22.6672,121.47533,0.9990192
12Q970,東港工作站,2014-11-25,22.479997,120.466058,4.6130726e-08
C0E430,南庄,2014-11-25,24.601775,121.000214,0.00023239218
C1TA00,太魯閣,2014-11-25,24.15773,121.6236,0.0021264793
466920,臺北,2014-11-25,25.037658,121.514853,0.9999604
C0R600,舊泰武,2014-11-25,22.588194,120.664944,7.2724684e-09
C1I260,北坑,2014-11-25,23.9246,121.006903,2.705901e-09
466910,鞍部,2014-11-25,25.182586,121.529731,1.5055509e-06
C1I230,九份二山,2014-11-25,23.961944,120.845,3.4045153e-09
C2A660,瑞芳,2014-11-25,25.113169,121.801147,0.99905753
C0R270,琉球嶼,2014-11-25,22.332244,120.362236,1.3267426e-06
C1T990,高寮,2014-11-25,23.394239,121.356808,4.5151293e-05
C0G620,芬園,2014-11-25,24.015678,120.6213,0.9578998
C1Z140,荖溪,2014-11-25,23.890575,121.45964,3.1533816e-08
C1I201,中心崙,2014-11-25,23.728722,120.712097,2.7536182e-09
C1I400,凌霄,2014-11-25,24.018778,121.004456,7.792836e-09
C1M640,十字,2014-11-25,23.492153,120.753683,9.757585e-09
G2P820,農試鳳山分所,2014-11-25,22.646611,120.356083,1.0522092e-07
C0Z270,蕃薯寮,2014-11-25,23.73835,121.540108,4.7510407e-06
C0F9Q0,外埔,2014-11-25,24.347817,120.705686,0.9935668
C0K580,高鐵雲林,2014-11-25,23.737456,120.417944,3.5923406e-09
C2I090,鳳凰,2014-11-25,23.728081,120.787347,3.0384177e-09
C0U990,員山,2014-11-25,24.74435,121.72247,0.9999869
C0V770,大社,2014-11-25,22.730306,120.346639,6.333521e-07
C0X120,麻豆,2014-11-25,23.183289,120.248611,0.0174318
C0C670,龍潭,2014-11-25,24.870056,121.221389,7.741016e-05
C0D680,香山濕地,2014-11-25,24.783581,120.914988,0.9999897
C0S980,勝林山,2014-11-25,22.430439,120.8938,1.0044503e-07
C0V730,大寮,2014-11-25,22.605614,120.395717,9.393591e-09
C0R570,麟洛,2014-11-25,22.65078,120.52719,1.3790195e-08
C2M930,石卓,2014-11-25,23.478744,120.702264,9.677349e-09
C0G9B0,和美,2014-11-25,24.105169,120.492131,0.9998165
CAG100,王功漁港,2014-11-25,23.96824,120.32586,0.99969804
C0X290,北門,2014-11-25,23.267772,120.125481,0.029685223
C2F930,大甲,2014-11-25,24.347667,120.640403,0.9973854
C0D650,湖口,2014-11-25,24.904794,121.043628,0.99998814
C0E420,竹南,2014-11-25,24.708978,120.888897,0.9999891
C0U780,五結,2014-11-25,24.68637,121.79794,0.9999878
C1I250,鯉潭,2014-11-25,23.961922,120.991131,3.147275e-09
C0R130,阿禮,2014-11-25,22.742908,120.743678,2.9779166e-09
C0X100,臺南市北區,2014-11-25,23.010394,120.194228,0.0025977902
C0S920,金峰嘉蘭,2014-11-25,22.594789,120.960825,0.9564489
C0V490,新興,2014-11-25,22.627422,120.298803,1.4719798e-07
C0F9K0,大安,2014-11-25,24.345061,120.588025,0.9983635
72N100,臺南農改,2014-11-25,23.0605,120.342194,1.6636299e-06
467290,古坑,2014-11-25,23.633639,120.551889,5.620157e-09
C2E970,八甲,2014-11-25,24.535811,120.795983,0.99942994
C0V440,鳳山,2014-11-25,22.646653,120.356122,1.0522092e-07
C1T940,大觀,2014-11-25,23.714206,121.373133,5.4222994e-07
72T250,花蓮農改,2014-11-25,23.975222,121.563889,7.9435733e-07
C0E740,造橋,2014-11-25,24.637056,120.864778,0.9516248
C0R100,尾寮山,2014-11-25,22.833111,120.683889,3.938302e-09
A2K630,臺大雲林校區,2014-11-25,23.730628,120.423903,3.5923406e-09
C0D580,寶山,2014-11-25,24.735006,121.025192,0.05784064
E2P990,林試扇平站,2014-11-25,22.9677,120.6857,1.6556411e-08
C0AI30,三重,2014-11-25,25.057328,121.500629,0.9999867
C0AH00,汐止,2014-11-25,25.066881,121.658778,0.9999947
C1Z040,立山,2014-11-25,23.443356,121.327375,3.8224212e-07
C0W130,花嶼,2014-11-25,23.40007,119.32276,0.96364963
C0A950,鼻頭角,2014-11-25,25.129036,121.923372,0.99983317
C0K470,林內,2014-11-25,23.748675,120.609642,4.706227e-09
C2F990,摩天嶺,2014-11-25,24.322458,120.936819,1.2168365e-08
82C160,茶改場,2014-11-25,24.908472,121.185333,0.99974006
C0Z320,清水林道,2014-11-25,23.27125,121.188272,5.350978e-07
C0R760,南仁湖,2014-11-25,22.084681,120.863353,0.95295876
C0M670,大林,2014-11-25,23.600616,120.45841,0.04370414
C0M800,茶山,2014-11-25,23.299075,120.664767,5.547533e-09
C0A9C0,天母,2014-11-25,25.117494,121.537169,0.9999854
72K220,南改斗南分場,2014-11-25,23.634556,120.477333,6.6128356e-09
72AI40,桃改樹林分場,2014-11-25,24.944503,121.386972,0.9999843
C0S910,蘭嶼燈塔,2014-11-25,22.081197,121.503117,0.9800825
C0B050,八斗子,2014-11-25,25.144754,121.79167,0.99999464
C0U900,內城,2014-11-25,24.71813,121.68766,0.9981188
C0X320,柳營,2014-11-25,23.253328,120.375253,2.5516265e-05
C0M790,新港,2014-11-25,23.553269,120.345728,1.51209115e-05
C0F9T0,西屯,2014-11-25,24.179494,120.641275,0.99797875
C0SA30,都歷,2014-11-25,23.020333,121.323642,0.99888736
C0C620,蘆竹,2014-11-25,25.084275,121.265767,0.99999493
C0R730,大坪頂,2014-11-25,22.024633,120.69355,0.99269956
C0AJ40,石門,2014-11-25,25.273672,121.601198,0.9999928
C0E750,苗栗,2014-11-25,24.564569,120.824575,0.99901336
C0T870,鯉魚潭,2014-11-25,23.935639,121.508944,2.2421764e-06
C1V170,排雲,2014-11-25,23.463619,120.954147,3.845885e-08
C2H950,中寮,2014-11-25,23.884447,120.766406,1.973173e-09
C0R350,貓鼻頭,2014-11-25,21.921774,120.7358,0.9963472
C0V660,岡山,2014-11-25,22.797078,120.294958,8.9917233e-07
C1H941,雙冬,2014-11-25,23.967378,120.802189,2.69886e-09
C0AJ70,田寮,2014-11-25,25.2698,121.4886,0.99998903
C0AI00,五股,2014-11-25,25.07445,121.42728,0.99999297
C0Z280,德武,2014-11-25,23.47426,121.41071,4.982163e-06
C0R700,枋山,2014-11-25,22.246844,120.661086,0.99951464
C0C460,復興,2014-11-25,24.820208,121.352281,5.1769202e-06
E2H360,蓮華池,2014-11-25,23.918333,120.885278,3.0644745e-09
C0M640,中埔,2014-11-25,23.42538,120.5229,7.8852365e-09
C0W140,金沙,2014-11-25,24.488292,118.408778,0.97833925
C2A540,四堵,2014-11-25,24.8926,121.745736,0.00017664254
C0ACA0,新莊,2014-11-25,25.051478,121.446756,0.99999475
C0R220,潮州,2014-11-25,22.534361,120.54,2.8732887e-09
U2HA40,臺大內茅埔,2014-11-25,23.689722,120.851117,2.8488196e-09
467490,臺中,2014-11-25,24.145736,120.684075,0.98820525
C0U960,翠峰湖,2014-11-25,24.510856,121.608044,4.7376705e-08
E2HA20,林試畢祿溪站,2014-11-25,24.226944,121.308522,1.494689e-08
C0V890,前鎮,2014-11-25,22.5718,120.3117,1.8431534e-07
467620,蘭嶼,2014-11-25,22.036969,121.558339,0.91517544
C1F941,雪嶺,2014-11-25,24.280586,121.026642,1.7371203e-08
C2H9E0,國姓南港,2014-11-25,23.911108,120.846556,6.0070033e-09
C0AC80,文山,2014-11-25,25.00235,121.575728,0.99994856
C0F9R0,龍井,2014-11-25,24.184536,120.528972,0.9990064
C0M760,民雄,2014-11-25,23.551754,120.428457,0.008294889
C0UA40,西德山,2014-11-25,24.560647,121.752608,6.085134e-08
C1T920,中興,2014-11-25,23.769503,121.498653,8.932623e-06
C0D550,雪霸,2014-11-25,24.526972,121.11605,9.282523e-09
C2F860,梨山,2014-11-25,24.247522,121.243669,1.5288364e-08
C0R320,車城,2014-11-25,22.0744,120.716247,0.9969446
C1S870,南美山,2014-11-25,23.15025,121.382333,0.99637705
C0B020,基隆嶼,2014-11-25,25.19141,121.78391,0.9999947
C1U501,牛鬥,2014-11-25,24.637836,121.573656,0.018163664
C0M730,嘉義市東區,2014-11-25,23.457673,120.460531,0.010713748
C0S700,知本,2014-11-25,22.684866,121.005642,0.9875399
C1N001,沙崙,2014-11-25,22.935472,120.309406,2.5777836e-06
C0V760,橋頭,2014-11-25,22.757806,120.30575,7.293398e-07
C0G960,福寶,2014-11-25,24.0443,120.3814,0.9998615
C0X210,白河,2014-11-25,23.347466,120.414427,2.0975194e-05
C0S810,東河,2014-11-25,22.972672,121.303986,0.59979826
C2R170,屏東,2014-11-25,22.66027,120.49403,1.4206791e-08
C0R670,楓港,2014-11-25,22.190131,120.692156,0.9995142
C0FA50,霧峰,2014-11-25,24.0419,120.6995,0.9988488
C0UB10,蘇澳,2014-11-25,24.5969,121.8571,0.9213569
C0G950,防潮門,2014-11-25,24.1835,120.4871,0.998984
C0M740,六腳,2014-11-25,23.492871,120.290625,6.6363164e-06
C1R250,力里,2014-11-25,22.428117,120.629228,3.57742e-07
C0K330,虎尾,2014-11-25,23.719183,120.442036,3.3365843e-09
C2FA00,烏石坑,2014-11-25,24.273503,120.947617,1.242262e-08
C0V620,永安,2014-11-25,22.82315,120.236856,1.0751368e-05
C1I330,楓樹林,2014-11-25,23.986803,121.076117,6.5281687e-09
C0W200,湖西,2014-11-25,23.596314,119.67275,0.9715013
72Q010,高雄農改場,2014-11-25,22.709333,120.525889,1.21837855e-08
C0SA40,瑞和,2014-11-25,22.974361,121.156697,0.99850714
C0C680,龜山,2014-11-25,25.02846,121.38656,0.00012794827
C2V260,月眉,2014-11-25,22.971003,120.539853,3.761884e-09
C0V450,鳳森,2014-11-25,22.545064,120.392592,6.218135e-09
C0U720,南山,2014-11-25,24.43742,121.38167,6.982991e-08
A2N290,臺南蘭花園區,2014-11-25,23.340258,120.379661,2.5866322e-05
C0R560,新園,2014-11-25,22.5434,120.461558,4.151158e-08
C0U890,三星,2014-11-25,24.66812,121.65302,0.98175114
C1V300,御油山,2014-11-25,23.001983,120.715364,1.1341276e-08
C0U600,礁溪,2014-11-25,24.817539,121.765608,0.99930686
C1T980,龍澗,2014-11-25,24.023289,121.411328,3.0176967e-08
C0D670,海天一線,2014-11-25,24.831986,120.914438,0.9999899
C0SA00,歷坵,2014-11-25,22.520969,120.89185,0.99823505
C0M710,東石,2014-11-25,23.458927,120.15385,0.00043790258
C0M780,鹿草,2014-11-25,23.41134,120.30835,1.7903401e-05
C0U520,雙連埤,2014-11-25,24.753033,121.641303,2.0758002e-07
C0B010,七堵,2014-11-25,25.094819,121.71713,0.99999464
C0R480,長治,2014-11-25,22.693128,120.542622,1.976891e-09
C1V830,國三S383K,2014-11-25,22.781967,120.426475,3.257217e-09
12Q980,恆春工作站,2014-11-25,22.079678,120.714425,0.9969446
C1O940,東山服務區,2014-11-25,23.286016,120.398472,1.3598536e-05
C1U840,東澳嶺,2014-11-25,24.5378,121.8485,2.7664314e-07
C1D630,飛鳳山,2014-11-25,24.766464,121.119178,2.979504e-07
C0S940,石寧山,2014-11-25,23.223772,121.406639,0.004064791
C0K410,北港,2014-11-25,23.573957,120.292802,1.957412e-05
C2M620,瑞里,2014-11-25,23.545133,120.675197,1.0125269e-08
C0SB70,小港漁港,2014-11-25,23.158558,121.400431,0.7653539
C2O950,安南,2014-11-25,23.076694,120.144861,0.85070133
C0F0E0,南湖圈谷,2014-11-25,24.363714,121.444667,5.065126e-08
467610,成功,2014-11-25,23.097486,121.373428,0.99854857
C0G890,伸港,2014-11-25,24.148933,120.484403,0.9993458
C2E540,龍溪,2014-11-25,24.606489,120.783933,0.9993928
C1V200,梅山,2014-11-25,23.268447,120.823556,1.5421502e-08
C0T9H0,加路蘭山,2014-11-25,23.682947,121.5274,2.0297864e-07
C2O930,玉井,2014-11-25,23.126042,120.46055,2.3952272e-05
C1F911,新伯公,2014-11-25,24.221361,120.841069,1.4227942e-08
C0R490,九如,2014-11-25,22.7405,120.490503,1.3768565e-08
C0X200,左鎮,2014-11-25,23.056758,120.408522,1.2126542e-06
C0SB50,叭嗡嗡,2014-11-25,23.047062,121.343223,0.8642438
C1F891,稍來,2014-11-25,24.265689,121.001142,1.2693199e-08
72N240,七股研究中心,2014-11-25,23.081672,120.062894,0.9800472
C0C700,中壢,2014-11-25,24.977661,121.256375,0.99998397
C0M690,水上,2014-11-25,23.419734,120.388909,0.00683233
C0V690,鼓山,2014-11-25,22.623325,120.275575,1.4719798e-07
C0O860,大內,2014-11-25,23.11885,120.36083,2.0182975e-07
C0Z200,萬榮,2014-11-25,23.709219,121.420106,2.2421764e-06
C0T9D0,和中,2014-11-25,24.26676,121.74103,0.14454406
C1O921,楠西,2014-11-25,23.183511,120.484083,8.4089315e-06
C0AJ30,淡水觀海,2014-11-25,25.184591,121.408616,0.99999493
C0V810,左營,2014-11-25,22.67491,120.28491,7.921612e-07
C0UA70,桃源谷,2014-11-25,24.962606,121.888875,2.1692813e-07
C0X130,官田,2014-11-25,23.193217,120.315422,1.8425575e-05
C1H000,翠峰,2014-11-25,24.109397,121.205211,2.3009855e-08
C0UA90,石城,2014-11-25,24.980444,121.951214,0.999775
C1E681,南勢山,2014-11-25,24.421669,120.923831,9.599952e-09
C0A9F0,內湖,2014-11-25,25.079422,121.57545,0.9999604
C0K291,宜梧,2014-11-25,23.536281,120.169329,0.00050915603
C1K540,口湖,2014-11-25,23.585344,120.180517,0.005339114
C0R780,滿州,2014-11-25,22.024403,120.839892,0.9962033
C0V870,文安,2014-11-25,22.8025,120.2164,1.521402e-05
C0U650,玉蘭,2014-11-25,24.675286,121.587061,7.0099196e-07
C0R640,東港,2014-11-25,22.46247,120.44074,1.8431534e-07
K2E360,苗栗農改,2014-11-25,24.495722,120.829111,0.9995961
C0AJ80,板橋,2014-11-25,25.0107,121.4489,0.9999859
C0S660,下馬,2014-11-25,23.150427,121.070312,5.5666888e-08
C1H9B1,阿眉,2014-11-25,24.1263,120.994672,1.4255133e-08
C0UA20,多加屯,2014-11-25,24.368614,121.373189,2.4421183e-08
C0E730,頭份,2014-11-25,24.688247,120.912206,0.9999891
72V140,高改旗南分場,2014-11-25,22.857861,120.516667,3.4945769e-09
C0K480,莿桐,2014-11-25,23.761192,120.502372,4.046889e-09
C0U980,坪林石牌,2014-11-25,24.86478,121.77396,1.1500571e-07
C0T900,西林,2014-11-25,23.8119,121.441458,1.3150576e-06
C1I150,青雲,2014-11-25,23.793361,120.949378,2.3196285e-09
467350,澎湖,2014-11-25,23.565503,119.563094,0.96711445
C0G800,埔鹽,2014-11-25,24.000394,120.431683,0.9998613
C0H960,草屯,2014-11-25,23.973672,120.68085,2.3491302e-09
C1V780,多納林道,2014-11-25,22.888028,120.737917,7.0670665e-09
C0E920,通霄漁港,2014-11-25,24.498589,120.673876,0.9996511
C0Z330,安通山,2014-11-25,23.290728,121.348528,1.3443623e-06
C0AH10,永和,2014-11-25,25.01125,121.508111,0.9999625
C0AK10,太平里,2014-11-25,25.134937,121.364899,0.99999475
C2G640,鹿港,2014-11-25,24.0753,120.430481,0.9998613
C1E890,國三N149K,2014-11-25,24.463414,120.680019,0.9996585
C1R110,口社,2014-11-25,22.770111,120.645222,2.3328328e-09
C1M870,國三N285K,2014-11-25,23.550319,120.505833,3.8280916e-09
467050,新屋,2014-11-25,25.006744,121.047486,0.99998
C1E480,鳳美,2014-11-25,24.554803,121.034747,1.2514364e-09
C0M530,奮起湖,2014-11-25,23.493903,120.699253,1.0236341e-08
C0C590,觀音,2014-11-25,25.027072,121.153317,0.9999876
C0T9M0,靜浦,2014-11-25,23.455167,121.495028,1.3617041e-05
C2H9M0,發祥,2014-11-25,24.154094,121.164517,5.8464464e-09
C0AI40,石牌,2014-11-25,25.115597,121.513139,0.9999859
C1F871,上谷關,2014-11-25,24.203483,121.018644,1.242262e-08
C2H9G0,百勝,2014-11-25,24.051142,120.909361,9.623987e-09
C0G880,二水,2014-11-25,23.810742,120.6173,2.9280487e-09
C0R940,加祿堂,2014-11-25,22.3363,120.6217,1.1110203e-05
C0W220,北竿,2014-11-25,26.220358,119.974881,0.46291223
C0O960,崎頂,2014-11-25,22.959547,120.369317,3.829735e-09
C0S750,向陽,2014-11-25,23.248397,120.986133,1.9267157e-08
C0T9F0,水璉,2014-11-25,23.797131,121.542514,5.502186e-07
C1M600,頭凍,2014-11-25,23.406364,120.603339,5.736407e-09
467660,臺東,2014-11-25,22.752211,121.154586,0.9984752
C1D380,新埔,2014-11-25,24.84745,121.03834,0.99998236
C2G980,田頭村,2014-11-25,23.8263,120.444175,6.0275704e-09
C0V750,路竹,2014-11-25,22.854997,120.259439,2.6182906e-07
C0N050,蚵寮,2014-11-25,23.301,120.1104,0.761507
72M700,南改鹿草分場,2014-11-25,23.416869,120.283061,2.1410882e-05
C1SA50,利嘉林道,2014-11-25,22.82325,121.009389,1.1434523e-08
467550,玉山,2014-11-25,23.487614,120.959522,4.1713733e-08
C0A940,金山,2014-11-25,25.223628,121.643967,0.9999907
C1V340,大津,2014-11-25,22.888322,120.645986,2.9064264e-09
C0W180,七美,2014-11-25,23.219333,119.444892,0.972076
C1F9C1,白冷,2014-11-25,24.182844,120.929889,1.9060783e-08
K2E710,苗改生物防治研究中心,2014-11-25,24.422861,120.871833,0.98850995
C0N040,蘆竹溝,2014-11-25,23.2344,120.0961,0.76150703
C2W230,畜試所澎湖,2014-11-25,23.628342,119.513206,0.9757424
C0R880,後壁湖,2014-11-25,21.9457,120.7457,0.9971562
C1I280,埔中,2014-11-25,23.820778,120.642594,4.414443e-09
467790,墾丁雷達站,2014-11-25,21.948235,120.808028,0.9959082
C0W190,望安,2014-11-25,23.380564,119.494075,0.9590718
466881,新北,2014-11-25,24.9593,121.52,0.9999563
C0Z170,卓溪,2014-11-25,23.3443,121.3029,0.0016171343
C0F850,東勢,2014-11-25,24.246428,120.833047,1.7805176e-08
466900,淡水,2014-11-25,25.164889,121.448906,0.999995
C0I370,魚池,2014-11-25,23.895703,120.94135,3.0266818e-09
C0C630,大溪,2014-11-25,24.882853,121.265547,0.99989635
C0A520,山佳,2014-11-25,24.974944,121.402008,0.9999843
C0I110,竹山,2014-11-25,23.761225,120.688156,2.1717617e-09
82H840,茶改南部分場,2014-11-25,23.762528,120.7405,2.3309514e-09
C0G660,溪湖,2014-11-25,23.94835,120.479122,0.9340266
C1T800,洛韶,2014-11-25,24.204558,121.453956,4.6807603e-08
C1T810,慈恩,2014-11-25,24.192044,121.388386,2.8177588e-08
C1E451,象鼻,2014-11-25,24.368617,120.940228,9.589941e-09
C0AC60,三峽,2014-11-25,24.939025,121.369728,0.99995416
C0I490,萬大林道,2014-11-25,23.928228,121.091411,1.965965e-08
C1I290,豐丘,2014-11-25,23.668178,120.887417,5.1076743e-09
C1I320,奧萬大,2014-11-25,23.952956,121.178556,6.5982833e-09
C2M910,嘉義大學,2014-11-25,23.471325,120.485903,6.4945618e-09
C0U770,南澳,2014-11-25,24.44935,121.81022,0.0075430777
C0A980,社子,2014-11-25,25.109508,121.469681,0.999987
C0V800,六龜,2014-11-25,22.997889,120.633583,3.949307e-09
C1G9D0,國一S218K,2014-11-25,23.890641,120.493253,0.90474325
C0E570,白沙屯,2014-11-25,24.549447,120.696803,0.99965054
C2F9A0,中竹林,2014-11-25,24.103556,120.751061,2.5961122e-09
C0FA40,臺中電廠,2014-11-25,24.2146,120.4907,0.9990064
C2G9A0,畜試所彰化,2014-11-25,23.86045,120.557964,1.2872718e-08
C0H9C0,合歡山,2014-11-25,24.143442,121.272547,3.568659e-08
C0X060,下營,2014-11-25,23.22695,120.256261,2.7281058e-05
G2M350,農試溪口農場,2014-11-25,23.58565,120.408111,0.013466186
C0U860,頭城,2014-11-25,24.85323,121.8308,0.99938375
C0R580,南州,2014-11-25,22.48591,120.50274,4.6130726e-08
C0D430,峨眉,2014-11-25,24.6905,121.017189,0.99997604
C0G780,秀水,2014-11-25,24.03405,120.503869,0.9998541
72N100,臺南農改場,2014-11-25,23.0605,120.342194,1.6636315e-06
C0S900,蘭嶼高中,2014-11-25,22.04909,121.51214,0.9873903
467540,大武,2014-11-25,22.355675,120.903789,0.19202965
C1F9W0,德基,2014-11-25,24.254783,121.190261,1.23548975e-08
C1Z120,壽豐,2014-11-25,23.870853,121.508081,3.1931133e-05
C0W160,烏坵,2014-11-25,24.9944,119.44956,0.9554406
C1I240,外大坪,2014-11-25,23.958697,120.917931,3.1810172e-09
C1I550,國六W023K,2014-11-25,23.979067,120.867742,2.276321e-09
C0R870,興海,2014-11-25,21.9752,120.8439,0.9966458
C0R140,瑪家,2014-11-25,22.682903,120.686639,1.29137865e-08
C0A530,坪林,2014-11-25,24.938183,121.70975,0.009689949
C0X260,後壁,2014-11-25,23.366358,120.362326,2.0362447e-07
C0Z230,和平,2014-11-25,24.30717,121.77007,0.14454406
C0G770,福興,2014-11-25,24.041289,120.437669,0.9998613
C0H9A0,神木村,2014-11-25,23.532742,120.843667,1.2548861e-08
C0I460,南投,2014-11-25,23.911469,120.687331,2.7662048e-09
C0I480,梅峰,2014-11-25,24.085272,121.173572,1.4619679e-08
C1V570,吉東,2014-11-25,22.85422,120.5454,3.2680822e-09
C2D740,屯原,2014-11-25,24.067969,121.209389,1.4413571e-08
C2A560,福山,2014-11-25,24.776203,121.502811,1.7200426e-07
C0AH30,五分山,2014-11-25,25.07125,121.780794,6.761076e-08
C0FA10,松柏,2014-11-25,24.429115,120.617482,0.99918234
72S200,東改班鳩分場,2014-11-25,22.829528,121.077694,0.9995596
72HA00,中改埔里分場,2014-11-25,23.903208,120.963364,2.9445255e-09
C2H9W0,大坪頂農水,2014-11-25,24.043122,120.932781,3.1554377e-09
C0C650,平鎮,2014-11-25,24.897503,121.214636,0.99974006
C0S930,延平,2014-11-25,22.902581,121.084058,0.93416846
C0UA60,樟樹山,2014-11-25,24.41393,121.78325,5.017516e-07
C1S670,摩天,2014-11-25,23.199503,121.027,2.0260861e-08
C0V630,茄萣,2014-11-25,22.906642,120.182608,0.00044937286
466940,基隆,2014-11-25,25.133314,121.740475,0.9999947
C0X050,東河,2014-11-25,23.296598,120.385608,2.5516265e-05
C0R770,保力,2014-11-25,22.071122,120.764111,0.99530745
G2L020,農試嘉義分所,2014-11-25,23.485028,120.473806,6.020125e-09
C0X240,關子嶺,2014-11-25,23.331169,120.508025,3.9885886e-09
C0I380,集集,2014-11-25,23.828206,120.801467,1.8452747e-09
466990,花蓮,2014-11-25,23.975128,121.613275,1.1168289e-06
C1V220,小關山,2014-11-25,23.154217,120.813603,1.205625e-08
C1F9G1,慶福山,2014-11-25,24.180853,120.848378,1.830001e-08
C0Z250,瑞穗林道,2014-11-25,23.49284,121.30688,7.060818e-08
C0D590,新豐,2014-11-25,24.87068,120.97721,0.92225814
C0A870,五指山,2014-11-25,25.132153,121.608692,1.6268037e-06
C0UA50,西帽山,2014-11-25,24.555361,121.802628,2.8774977e-07
C0X160,仁德,2014-11-25,22.968258,120.257689,4.6514897e-06
C1H971,六分寮,2014-11-25,23.92507,120.6378,2.3912856e-09
C0W120,西嶼,2014-11-25,23.5626,119.468436,0.96711445
C0G650,員林,2014-11-25,23.946503,120.585597,0.97284275
C0AD50,鶯歌,2014-11-25,24.951533,121.346294,0.99998605
C2H9Q0,北東眼山,2014-11-25,24.120939,121.189303,1.4098868e-08
C2H9T0,名間竹圍,2014-11-25,23.859914,120.637572,1.7580284e-09
C0S990,山豬窟,2014-11-25,22.318619,120.857372,0.9909552
72Q010,高雄農改,2014-11-25,22.709333,120.525889,1.21837855e-08
C0X190,安平,2014-11-25,22.993161,120.152181,0.00262019
C0K400,斗六,2014-11-25,23.720583,120.541127,3.9999706e-09
12J990,口湖工作站,2014-11-25,23.589978,120.180394,0.004673717
C0O830,北寮,2014-11-25,23.079561,120.495008,5.52968e-09
C1D410,白蘭,2014-11-25,24.579364,121.079947,5.014064e-09
C0S970,加津林,2014-11-25,22.416211,120.926942,0.18444832
C0D700,關西,2014-11-25,24.7977,121.1732,0.99986714
C0M810,里佳,2014-11-25,23.389125,120.716647,1.02309725e-08
C0U750,龜山島,2014-11-25,24.841667,121.953133,8.898834e-06
C0R810,內獅,2014-11-25,22.305064,120.642986,1.1110203e-05
C1M390,龍美,2014-11-25,23.406728,120.654417,9.9432445e-09
C2FB60,頭櫃山,2014-11-25,24.129842,120.858925,6.987571e-09
C1H840,國三N238K,2014-11-25,23.841008,120.707711,1.8109927e-09
CAQ030,崎峰國小,2014-11-25,22.42565,120.49521,4.6130726e-08
C2E520,大湖,2014-11-25,24.414939,120.870872,0.99997777
467530,阿里山,2014-11-25,23.508208,120.813242,1.784121e-08
C1E691,南湖,2014-11-25,24.40135,120.837533,1.2158042e-08
C0FA30,梧棲,2014-11-25,24.256003,120.523381,0.99900734
C1V231,高中,2014-11-25,23.134911,120.716711,3.1192526e-09
C0F9V0,新社,2014-11-25,24.200172,120.815806,7.888381e-09
C0H890,埔里,2014-11-25,23.972169,120.952425,3.3335073e-08
C0R690,墾丁,2014-11-25,21.966756,120.810269,0.9883035
C0F0D0,審馬陣,2014-11-25,24.381675,121.4203,3.5223835e-08
C0R820,白鷺,2014-11-25,22.454275,120.666219,2.882087e-07
U2H480,臺大溪頭,2014-11-25,23.670306,120.798194,6.215052e-09
C1V190,南天池,2014-11-25,23.27403,120.91176,2.0632708e-08
K2E360,苗栗農改場,2014-11-25,24.495722,120.829111,0.9995961
CAJ050,海口故事園區,2014-11-25,23.57543,120.14121,0.005339114
C2H9D0,三隻寮,2014-11-25,24.093078,120.861578,3.1925356e-09
C0O990,媽廟,2014-11-25,22.99175,120.293525,3.3994247e-06
C0D480,打鐵坑,2014-11-25,24.849664,121.150789,4.800027e-06
C0Z220,和平林道,2014-11-25,24.343922,121.656317,4.785825e-07
C0TA10,花蓮漁港,2014-11-25,23.995322,121.638331,1.2742936e-06
72C440,桃園農改場,2014-11-25,24.950944,121.030583,0.9999843
C1E711,馬拉邦山,2014-11-25,24.367306,120.901656,3.579537e-09
C0SB20,富岡,2014-11-25,22.792467,121.192669,0.9985196
C0D560,竹東,2014-11-25,24.767147,121.057881,0.99990934
C0F9U0,南屯,2014-11-25,24.137006,120.637969,0.9989719
C0M720,番路,2014-11-25,23.464657,120.554156,5.9789524e-09
C0F0A0,雪山圈谷,2014-11-25,24.388594,121.236339,3.7540016e-08
C1A9N0,四十份,2014-11-25,24.934158,121.593283,2.3315242e-05
C0U760,東澳,2014-11-25,24.52196,121.83318,0.00023989218
C0X230,鹽水,2014-11-25,23.272621,120.247641,0.00024715744
C2H9H0,苗改南投蜂場,2014-11-25,23.852589,120.693481,2.1727187e-09
C0R950,萬隆國小,2014-11-25,22.507667,120.587817,2.1291346e-09
C0V370,古亭坑,2014-11-25,22.893178,120.401947,5.050526e-07
C1I340,新興橋,2014-11-25,23.563333,120.868728,3.2911707e-09
C0SA80,土坂,2014-11-25,22.453108,120.887572,0.9805418
C0R160,鹽埔,2014-11-25,22.739558,120.530778,1.9864348e-09
C0AC40,大屯山,2014-11-25,25.175675,121.522408,3.0981641e-07
466850,五分山雷達站,2014-11-25,25.071182,121.781205,6.6274474e-08
C2H9L0,馬烈霸,2014-11-25,24.1512,121.201772,1.3986589e-08
C1AI50,國三N016K,2014-11-25,25.034164,121.619664,0.9999511
C1V600,藤枝,2014-11-25,23.071961,120.757042,1.1009337e-08
C1E601,南勢,2014-11-25,24.572486,120.734842,0.99981624
C0Z180,新城,2014-11-25,24.03946,121.60454,8.848565e-07
C0O980,新市,2014-11-25,23.061614,120.298197,4.375881e-06
C0K420,西螺,2014-11-25,23.800407,120.467394,4.3633626e-09
C0Z050,佳心,2014-11-25,23.34567,121.21316,4.721505e-08
C0AD30,蘆洲,2014-11-25,25.086594,121.472331,0.9999867
C0V610,梓官,2014-11-25,22.760558,120.267211,8.9917233e-07
K2F750,種苗改良場,2014-11-25,24.225972,120.800917,1.0061105e-08
C0UA80,大溪漁港,2014-11-25,24.941801,121.902955,0.99930775
C1AI60,國一39K邊坡,2014-11-25,25.064361,121.383836,0.99952245
C0W150,金寧,2014-11-25,24.457703,118.328989,0.98311895
C0R960,內埔,2014-11-25,22.608483,120.570714,2.2962714e-09
V2C250,八德合作社,2014-11-25,24.93775,121.266389,0.99988884
C2H9S0,龍南,2014-11-25,23.953536,120.833183,6.5594845e-09
C0AH40,平等,2014-11-25,25.129142,121.577086,6.205747e-05
C0R540,佳冬,2014-11-25,22.419456,120.552375,4.6218535e-08
466950,彭佳嶼,2014-11-25,25.627975,122.079744,0.9931093
C0A890,雙溪,2014-11-25,25.036003,121.864242,0.9999946
C0C480,桃園,2014-11-25,24.992425,121.323172,0.99998623
C0AH50,林口,2014-11-25,25.072181,121.38084,0.93893903
A2K360,水試臺西試驗場,2014-11-25,23.717231,120.190522,0.98289883
B2N890,畜試所,2014-11-25,23.058972,120.336406,1.6636315e-06
C2M960,外寮,2014-11-25,23.562643,120.665688,6.8390875e-09
C0F9S0,烏日,2014-11-25,24.107058,120.624103,0.9993406
C0C490,八德,2014-11-25,24.928708,121.283289,0.99993396
C0R190,赤山,2014-11-25,22.592333,120.614306,2.163072e-09
C0T820,天祥,2014-11-25,24.179597,121.495639,1.7641161e-06
C1F9E1,龍安,2014-11-25,24.1605,120.831961,6.844203e-09
C0V820,小林,2014-11-25,23.148408,120.63325,3.761547e-09
C2G870,芳苑,2014-11-25,23.922303,120.320025,0.99612623
C0E850,大河,2014-11-25,24.618069,120.948578,0.99563766
C1U670,寒溪,2014-11-25,24.634,121.71691,0.9999631
C0N020,城西,2014-11-25,23.0568,120.0956,0.9607144
C1Z110,三棧,2014-11-25,24.11557,121.60501,1.3670403e-07
C0R280,檳榔,2014-11-25,22.076078,120.836777,0.9895748
C2H9J0,中台,2014-11-25,23.9996,120.938739,1.688402e-08
C0F9L0,后里,2014-11-25,24.310436,120.729725,0.9312795
C0D540,橫山,2014-11-25,24.71116,121.11693,0.0013066927
C1D420,太閣南,2014-11-25,24.632808,121.160575,1.0376974e-08
C1E770,公館,2014-11-25,24.526914,120.830806,0.99964976
CAN130,水試所海水繁養殖中心,2014-11-25,23.120802,120.07968,0.9800472
C1I430,翠華,2014-11-25,24.191961,121.224339,2.3036291e-08
C1M400,菜瓜坪,2014-11-25,23.251928,120.576103,5.5857665e-09
C0G730,二林,2014-11-25,23.903325,120.376081,0.99913543
72M360,南改義竹分場,2014-11-25,23.360694,120.279361,1.3913691e-06
V2K620,麥寮合作社,2014-11-25,23.753836,120.294783,0.78100747
C0Z070,舞鶴,2014-11-25,23.46811,121.37407,1.7685109e-06
C0B040,大武崙,2014-11-25,25.166676,121.706993,0.99999464
C1Z030,紅葉,2014-11-25,23.493119,121.338806,4.04974e-06
C1I050,丹大,2014-11-25,23.753747,121.141147,3.9796312e-08
C0I080,信義,2014-11-25,23.689694,120.851036,2.8488196e-09
C2M920,朴子農改,2014-11-25,23.469889,120.259383,6.6363164e-06
C2A880,福隆,2014-11-25,25.017842,121.942083,0.9998179
C0Z160,鳳林,2014-11-25,23.746114,121.453411,1.3563487e-05
C0V210,復興,2014-11-25,23.222403,120.806089,1.5046288e-08
C0H990,昆陽,2014-11-25,24.121322,121.273642,3.2700296e-08
C0R741,獅子,2014-11-25,22.202308,120.705236,0.9994129
C0S710,鹿野,2014-11-25,22.917711,121.122994,3.5032218e-07
C0I530,小奇萊,2014-11-25,24.131764,121.295717,3.1919466e-08
C2K630,荷苞,2014-11-25,23.657717,120.595144,4.298149e-09
C0Z080,富源,2014-11-25,23.587642,121.378225,1.6227393e-06
467441,高雄,2014-11-25,22.7304,120.3125,7.921612e-07
C0SB10,美和,2014-11-25,22.682078,121.060236,0.9949622
C2K620,馬光農場,2014-11-25,23.721453,120.378864,4.004444e-09
C1I140,卡奈托灣,2014-11-25,23.754364,121.087872,2.3466995e-08
C0I520,玉山風口,2014-11-25,23.470489,120.955994,4.2619376e-08
C1G691,下水埔,2014-11-25,23.816114,120.5676,3.6617753e-09
C0X110,臺南市南區,2014-11-25,22.961189,120.188378,0.00134783
C0V680,仁武,2014-11-25,22.701083,120.347722,6.333521e-07
C2G840,北斗,2014-11-25,23.877586,120.514222,0.84475034
C0R900,竹坑,2014-11-25,22.1385,120.7022,0.9999256
C0K250,崙背,2014-11-25,23.75555,120.318925,0.7291206
C0G860,社頭,2014-11-25,23.897647,120.5862,0.9450723
C0X150,安定,2014-11-25,23.102614,120.227839,0.0022200984
C0R590,里港,2014-11-25,22.77919,120.49459,2.334226e-09
C0E610,馬都安,2014-11-25,24.451272,120.930192,1.763978e-06
C0E550,明德,2014-11-25,24.583486,120.885411,0.99779195
C0R150,三地門,2014-11-25,22.709889,120.639944,1.4268101e-09
C0G910,花壇,2014-11-25,24.032076,120.549461,0.9998458
C1D400,鳥嘴山,2014-11-25,24.71909,121.28387,4.13697e-08
C0K500,元長,2014-11-25,23.64981,120.315024,0.062480804
C0F0B0,石岡,2014-11-25,24.276061,120.777644,4.6461044e-09
C2V250,甲仙,2014-11-25,23.080106,120.591758,4.6546016e-09
C0SA20,金崙山,2014-11-25,22.567419,120.959667,1.30896e-07
C0V350,溪埔,2014-11-25,22.738578,120.446797,5.039243e-08
C0M660,溪口,2014-11-25,23.604131,120.403569,0.013466186
C1S880,壽卡,2014-11-25,22.238911,120.858903,0.99712825
72D680,桃改新埔分場,2014-11-25,24.834444,121.066111,0.999957
