站號,站名,日期,lat,lon,BLBTSLS
C0R710,龍磐,2014-04-04,21.931672,120.838942,0.99844456
C1F9D1,白毛台,2014-04-04,24.158325,120.886933,3.0491681e-10
C0G940,竹塘,2014-04-04,23.848253,120.386764,1.077282e-09
467590,恆春,2014-04-04,22.003897,120.746339,0.99543834
C1O850,環湖,2014-04-04,23.148617,120.418633,4.7029136e-10
C0U710,太平山,2014-04-04,24.505486,121.525656,4.0358663e-09
C0E820,獅潭,2014-04-04,24.539133,120.920042,6.161404e-10
C0V880,興達,2014-04-04,22.8778,120.2127,1.6758412e-08
C0S890,關山,2014-04-04,23.0395,121.175017,0.00043612815
C0SB30,新蘭,2014-04-04,22.869214,121.223228,1.1564125e-08
C2R970,屏科大,2014-04-04,22.648275,120.619247,1.1186367e-05
K2F750,種苗繁殖,2014-04-04,24.225972,120.800917,4.0028683e-10
C1Z130,銅門,2014-04-04,23.965694,121.492842,6.9168937e-09
C0AD40,土城,2014-04-04,24.973208,121.445169,2.3951656e-09
CAN140,六官養殖協會,2014-04-04,23.22881,120.29962,1.8907356e-09
C0X180,山上,2014-04-04,23.0757,120.363253,5.9400523e-10
C0F9Z0,雪山東峰,2014-04-04,24.388792,121.268675,7.286811e-09
C1M480,獨立山,2014-04-04,23.537022,120.607797,4.931084e-10
C0X220,學甲,2014-04-04,23.230367,120.182187,4.226955e-09
467650,日月潭,2014-04-04,23.881325,120.90805,3.3074615e-10
C0K600,箔子寮,2014-04-04,23.6197,120.14,1.0696388e-09
C0G830,埤頭,2014-04-04,23.866003,120.452806,8.813053e-10
C0S950,七塊厝,2014-04-04,22.954453,121.229922,4.002718e-09
467110,金門,2014-04-04,24.407306,118.289281,1.6624318e-08
C0AH80,深坑,2014-04-04,25.002703,121.628328,2.5936226e-09
467990,馬祖,2014-04-04,26.169269,119.923419,7.893753e-09
C0A970,三貂角,2014-04-04,25.007606,122.002058,5.96416e-08
C2D730,寶山農場,2014-04-04,24.732444,120.976153,6.133896e-10
C0K430,褒忠,2014-04-04,23.690938,120.303634,6.4238065e-10
467480,嘉義,2014-04-04,23.495925,120.432906,4.4530366e-10
C2E540,後龍,2014-04-04,24.606489,120.783933,6.341342e-10
C0V400,阿公店,2014-04-04,22.804194,120.355528,3.162451e-09
C0R440,大漢山,2014-04-04,22.405264,120.753181,2.490412e-09
C0K280,四湖,2014-04-04,23.630414,120.227125,9.536146e-10
C1F9B1,桐林,2014-04-04,24.066172,120.735194,4.274332e-10
C2H9U0,鳳鵬,2014-04-04,23.763919,120.788061,3.523233e-10
C0K390,土庫,2014-04-04,23.679029,120.395574,1.0344422e-09
C1I450,望鄉山,2014-04-04,23.594153,120.944286,6.3817986e-09
C0E910,海埔,2014-04-04,24.648767,120.772435,9.639156e-10
B2E890,畜試北區分所,2014-04-04,24.527806,120.770972,7.0263784e-10
C0R750,四林格山,2014-04-04,22.076989,120.802439,0.66409034
C0F0C0,中坑,2014-04-04,24.248517,120.903319,3.637403e-10
C1I121,大鞍,2014-04-04,23.678381,120.760017,7.462484e-10
72U480,花改蘭陽分場,2014-04-04,24.686306,121.716583,5.202629e-07
C0A770,科教館,2014-04-04,25.096356,121.516507,2.424763e-09
C0AJ60,六塊厝,2014-04-04,25.24,121.4481,3.1212761e-09
C0R620,墾雷,2014-04-04,21.900836,120.855269,0.9959322
467420,永康,2014-04-04,23.038386,120.2367,6.1153482e-09
467300,東吉島,2014-04-04,23.25695,119.667467,0.00012929678
C0I410,名間,2014-04-04,23.837053,120.701447,6.0373245e-10
A2C560,農工中心,2014-04-04,24.985917,121.239833,6.6160744e-10
C0V740,旗山,2014-04-04,22.888614,120.483597,2.035948e-09
C0Z061,玉里,2014-04-04,23.3215,121.339656,1.5576763e-08
C0S840,南田,2014-04-04,22.279725,120.889208,0.004426356
C1I470,杉林溪,2014-04-04,23.639517,120.786444,1.0748068e-09
C1X040,東原,2014-04-04,23.291597,120.463822,6.649917e-10
C0R660,枋寮,2014-04-04,22.367722,120.590647,1.6879145e-06
C1R120,上德文,2014-04-04,22.763272,120.704442,5.8312755e-10
C0K450,大埤,2014-04-04,23.646074,120.431537,1.0447471e-09
C0UA00,土場,2014-04-04,24.576533,121.495333,3.6825916e-09
467080,宜蘭,2014-04-04,24.763975,121.756528,1.2286795e-08
C0N030,四草,2014-04-04,23.0235,120.1116,3.316568e-08
C0V650,彌陀,2014-04-04,22.783806,120.246361,8.79296e-09
C0D660,新竹市東區,2014-04-04,24.798681,120.986942,7.3965056e-10
82S580,茶改東部分場,2014-04-04,22.907694,121.130139,5.776482e-09
C0SB40,興隆,2014-04-04,22.913661,121.257469,8.590172e-09
C0C710,大溪永福,2014-04-04,24.892936,121.324975,6.5568295e-10
C0FA20,溫寮,2014-04-04,24.372177,120.583125,7.9900436e-10
C0V640,湖內,2014-04-04,22.887139,120.2445,1.3988669e-08
C0R910,下寮,2014-04-04,22.3929,120.5548,4.1627853e-05
C0Z020,明里,2014-04-04,23.208717,121.262342,1.1391508e-08
C0M770,嘉義梅山,2014-04-04,23.585398,120.555587,5.418588e-10
G2F820,農業試驗所,2014-04-04,24.031261,120.688133,4.7480603e-10
C0C660,楊梅,2014-04-04,24.912375,121.143047,6.471596e-10
C1E511,新開,2014-04-04,24.347703,120.827019,3.2791325e-10
G2F820,農試所(霧峰),2014-04-04,24.031261,120.688133,4.7480603e-10
C1I070,和社,2014-04-04,23.591131,120.888861,3.4967154e-10
C2F000,大肚,2014-04-04,24.15295,120.572117,4.5715848e-10
C1S850,豐南,2014-04-04,23.122139,121.262389,4.6269317e-09
C2A920,富貴角,2014-04-04,25.263783,121.565258,7.862829e-09
CAH030,茶改場竹圍站,2014-04-04,23.860083,120.637528,4.467456e-10
C0T960,光復,2014-04-04,23.660694,121.424964,3.753257e-08
C0F9M0,豐原,2014-04-04,24.254322,120.720692,3.8212178e-10
C0R720,旭海,2014-04-04,22.205403,120.887614,0.008125535
C0V710,苓雅,2014-04-04,22.622742,120.330669,0.00017592851
C0C740,觀音工業區,2014-04-04,25.064764,121.114856,1.0555673e-09
CAC040,拉拉山,2014-04-04,24.699317,121.427133,1.2617617e-09
C0V790,萬山,2014-04-04,22.905944,120.688056,3.0667768e-10
U2HA30,臺大和社,2014-04-04,23.590856,120.888864,3.4967154e-10
C0AJ90,澳底,2014-04-04,25.0552,121.9253,6.735886e-08
C0Z100,東華,2014-04-04,23.89525,121.549833,2.9720677e-08
C0G970,三豐,2014-04-04,23.882,120.2895,7.6228585e-10
V2K610,大庄合作社,2014-04-04,23.8068,120.367939,4.706593e-10
C0V900,汕尾,2014-04-04,22.4782,120.4151,0.0032159144
C1R630,龍泉,2014-04-04,22.66701,120.59091,4.1724437e-07
C1AC50,關渡,2014-04-04,25.133486,121.469331,3.598506e-09
C0F9I0,神岡,2014-04-04,24.272481,120.658314,3.9924986e-10
C0K460,斗南,2014-04-04,23.678734,120.478359,1.1836391e-09
467410,臺南,2014-04-04,22.993239,120.204772,5.090761e-09
C2O810,曾文,2014-04-04,23.219681,120.497328,4.813586e-10
467280,後龍,2014-04-04,24.648563,120.831834,7.2488804e-10
C1F9J1,清水林,2014-04-04,24.071242,120.820419,2.869366e-10
C2A650,火燒寮,2014-04-04,25.002719,121.742892,1.43524765e-08
466930,竹子湖,2014-04-04,25.162078,121.544547,1.9939244e-09
C1I220,樟湖,2014-04-04,23.905333,120.846983,4.1748313e-10
C0I390,仁愛,2014-04-04,24.022122,121.132206,3.6741846e-10
C0Z300,東里,2014-04-04,23.26853,121.30547,1.4478983e-08
C1V590,新發,2014-04-04,23.057019,120.646064,1.063972e-09
C0K510,水林,2014-04-04,23.572924,120.24597,1.0549855e-09
72S590,東改賓朗果園,2014-04-04,22.813889,121.071278,7.3539987e-09
82A750,茶改北部分場,2014-04-04,24.955778,121.631222,1.4397022e-09
C1A750,石碇服務區,2014-04-04,25.00872,121.646242,2.503848e-09
C0X300,鹿寮,2014-04-04,23.386047,120.477331,1.0202361e-09
G2AI50,關渡,2014-04-04,25.11575,121.492,2.5048656e-09
C0K590,雲林東勢,2014-04-04,23.674192,120.255721,6.4238065e-10
C0A570,桶後,2014-04-04,24.848222,121.597992,3.5235979e-09
C1S800,華源,2014-04-04,22.657883,121.02325,2.0552584e-08
C0G720,溪州,2014-04-04,23.851589,120.499093,8.0273e-10
C1V160,達卡努瓦,2014-04-04,23.279811,120.705319,9.792072e-10
C2M410,馬頭山,2014-04-04,23.324361,120.582017,5.826506e-10
C0V850,蚵仔寮,2014-04-04,22.7256,120.2527,5.215872e-05
C0S740,池上,2014-04-04,23.119628,121.209469,5.0521947e-09
C1V390,尖山,2014-04-04,22.813153,120.367789,2.5142473e-09
C0AH70,松山,2014-04-04,25.04871,121.55042,2.9811218e-09
C0N010,鯤鯓國小,2014-04-04,23.1879,120.0889,2.5381024e-09
C0R550,新埤,2014-04-04,22.467947,120.582894,4.4245076e-06
C0SA60,知本（水試所）,2014-04-04,22.702394,121.082761,1.1256704e-07
C0T9I0,豐濱,2014-04-04,23.583897,121.514806,1.6414289e-08
C0UB00,淡江大學蘭陽校園,2014-04-04,24.823239,121.730383,3.764339e-09
C0W240,九宮,2014-04-04,24.423753,118.240186,1.6349547e-08
C0T9N0,富里,2014-04-04,23.171639,121.249378,9.583487e-09
U2HA50,臺大竹山,2014-04-04,23.756972,120.681556,4.386466e-10
C0V840,鳳鼻頭,2014-04-04,22.5083,120.3591,0.0005009202
C0X140,西港,2014-04-04,23.125608,120.203108,5.999412e-09
72D080,桃改五峰分場,2014-04-04,24.612194,121.157167,4.5396178e-10
C2H9P0,伊拿谷,2014-04-04,23.963211,121.088264,2.8636254e-10
C2H9F0,柑林,2014-04-04,24.018658,120.847072,4.205914e-10
C0TA20,加灣,2014-04-04,24.082025,121.608944,9.739326e-09
C0V530,阿蓮,2014-04-04,22.883208,120.327508,4.922826e-09
C1O880,關山,2014-04-04,23.173397,120.594092,5.6822286e-10
C0E791,卓蘭,2014-04-04,24.3126,120.8244,3.2555755e-10
C1I030,武界,2014-04-04,23.913225,121.052483,3.2430567e-10
C0R520,崁頂,2014-04-04,22.514781,120.506914,3.1673586e-05
C0R341,牡丹,2014-04-04,22.130036,120.792639,8.1839295e-05
C0R930,萬丹,2014-04-04,22.5885,120.4851,6.4393084e-06
C0S760,紅石,2014-04-04,23.069131,121.126219,4.7508073e-09
C1M610,石磐龍,2014-04-04,23.496606,120.663506,6.9980244e-10
C0UA10,鴛鴦湖,2014-04-04,24.590269,121.412228,1.579142e-09
V2C260,八德蔬果,2014-04-04,24.978508,121.281819,6.9739864e-10
C0R800,丹路,2014-04-04,22.204481,120.750989,8.621167e-06
C0G920,永靖,2014-04-04,23.924703,120.547533,8.7773716e-10
C2M950,太和,2014-04-04,23.538372,120.702961,9.602328e-10
C1A630,下盆,2014-04-04,24.771003,121.538622,5.016752e-09
B2N890,畜產試驗所,2014-04-04,23.058972,120.336406,1.2905778e-09
C0UA30,白嶺,2014-04-04,24.527819,121.519031,1.8569968e-09
C1V580,溪南(特生中心),2014-04-04,23.084972,120.788475,2.5483862e-09
C1T970,大農,2014-04-04,23.615233,121.413331,2.9116213e-08
E2S960,林試太麻里2,2014-04-04,22.598014,120.989761,0.0010177909
C0R650,竹田,2014-04-04,22.58486,120.54344,6.4393084e-06
C1H900,清流,2014-04-04,24.080775,120.962997,3.130355e-10
C1C510,水尾,2014-04-04,24.940081,121.087161,6.945724e-10
C0F9X0,大雅(中科園區),2014-04-04,24.21528,120.62445,4.4515588e-10
C0SB60,白守蓮,2014-04-04,23.126769,121.401914,0.55128294
C0O970,虎頭埤,2014-04-04,23.021375,120.347878,1.5874165e-09
C0C730,中大臨海站,2014-04-04,24.966126,121.008581,9.325898e-08
C0X250,新營,2014-04-04,23.310689,120.316681,1.4610695e-09
C0V700,三民,2014-04-04,22.645017,120.311233,0.00017592851
C0U870,大礁溪,2014-04-04,24.791042,121.675047,1.9471111e-09
C0E870,高鐵苗栗,2014-04-04,24.60725,120.826094,5.9639155e-10
A2K570,古坑花卉中心,2014-04-04,23.63353,120.55239,6.2292904e-10
C0M860,新美,2014-04-04,23.338017,120.683169,4.1527373e-10
C1E701,八卦,2014-04-04,24.491756,120.927619,2.8937358e-10
C0I420,國姓,2014-04-04,24.037803,120.855072,3.5057174e-10
C2D720,關西工作站,2014-04-04,24.757275,121.184792,4.923819e-10
C0S960,香蘭,2014-04-04,22.587569,120.993375,0.0010177909
C0R260,春日,2014-04-04,22.370361,120.628306,0.0026258144
72G600,臺中農改場,2014-04-04,24.003028,120.534389,9.382789e-10
C0Z210,瑞穗,2014-04-04,23.5239,121.39021,1.7639408e-08
C0M820,達邦,2014-04-04,23.453994,120.749517,4.92957e-10
C0V860,南寮,2014-04-04,22.7616,120.2339,1.0168058e-08
C0G740,大城,2014-04-04,23.852487,120.320935,7.4035206e-10
C0R920,塭仔,2014-04-04,22.4169,120.5197,6.883846e-05
C0R470,高樹,2014-04-04,22.826389,120.600806,3.5999064e-09
C0R680,佳樂水,2014-04-04,21.993578,120.861633,0.9948108
C1O870,大棟山,2014-04-04,23.31157,120.52226,9.834823e-10
C0D360,梅花,2014-04-04,24.678347,121.208558,4.5291182e-10
C0Z190,富世,2014-04-04,24.14743,121.6297,2.0547175e-08
C0AI10,屈尺,2014-04-04,24.92184,121.54475,2.5916398e-09
B2U990,畜試東區分所,2014-04-04,24.669039,121.832561,9.527325e-07
C0SB80,長濱漁港,2014-04-04,23.313644,121.459994,3.6098232e-08
C0R240,來義,2014-04-04,22.527306,120.625111,0.001901875
C0V910,大樹,2014-04-04,22.684645,120.432803,1.0566499e-07
C1R610,西大武山,2014-04-04,22.617719,120.7322,2.0044677e-09
C0G900,線西,2014-04-04,24.143358,120.443536,8.985778e-10
C0M700,竹崎,2014-04-04,23.526178,120.555508,5.465223e-10
C2E880,三義,2014-04-04,24.405478,120.749819,3.881297e-10
C0C720,竹圍,2014-04-04,25.112692,121.239824,3.0747556e-09
C0F9P0,清水,2014-04-04,24.312297,120.562242,7.748929e-10
C0Z150,吉安光華,2014-04-04,23.930925,121.595153,3.4839104e-08
C1D640,外坪(五指山),2014-04-04,24.644447,121.090961,4.2485498e-10
C0F9O0,潭子,2014-04-04,24.213106,120.703933,3.6597694e-10
C2H9R0,卓社,2014-04-04,23.887894,121.000086,3.506045e-10
72T250,花蓮農改場,2014-04-04,23.975222,121.563889,9.249651e-09
C0E780,銅鑼,2014-04-04,24.489681,120.790853,4.744394e-10
C1T950,太安,2014-04-04,23.666719,121.370128,5.147165e-09
C0E830,苑裡,2014-04-04,24.439714,120.653053,7.6197043e-10
467270,田中,2014-04-04,23.873803,120.581286,7.766789e-10
C0SA10,檳榔四格山,2014-04-04,22.810031,121.109308,5.780075e-09
C1T830,布洛灣,2014-04-04,24.17184,121.57127,3.4544198e-07
C0F970,大坑,2014-04-04,24.173142,120.722289,3.951656e-10
C1U920,思源,2014-04-04,24.393125,121.347214,2.1462634e-09
C0A931,三和,2014-04-04,25.233153,121.595236,7.469323e-09
C0I010,廬山,2014-04-04,24.033311,121.181808,6.3791794e-10
C2M940,日野賀,2014-04-04,23.434056,120.727169,7.4692336e-10
C0R860,鼻頭,2014-04-04,22.1043,120.8979,0.98805904
C0UB20,壯圍,2014-04-04,24.7359,121.8163,9.520985e-07
C0R790,九棚,2014-04-04,22.14195,120.889281,0.019236814
C0W110,東莒,2014-04-04,25.9652,119.98069,3.5721524e-08
C1U930,粉鳥林,2014-04-04,24.497088,121.842479,5.4652702e-08
C1I211,蘆竹湳,2014-04-04,23.934019,120.811994,4.2018086e-10
C0S830,長濱,2014-04-04,23.286817,121.411975,1.03116875e-08
C1F9F1,伯公龍,2014-04-04,24.272392,120.849047,3.806618e-10
C0E810,西湖,2014-04-04,24.562947,120.7485,5.48427e-10
C1I440,新高口,2014-04-04,23.478744,120.878939,3.215992e-09
C0O840,王爺宮,2014-04-04,23.222064,120.40085,4.8153675e-10
C0T9G0,鳳林山,2014-04-04,23.735269,121.420131,1.1760289e-08
C0X080,佳里,2014-04-04,23.173039,120.145086,4.5002393e-09
C0FB70,大甲溪埔,2014-04-04,24.370625,120.620067,7.5074974e-10
C0Z310,清水斷崖,2014-04-04,24.218294,121.689142,1.3380208e-05
C0M680,太保,2014-04-04,23.455062,120.331455,6.898379e-10
C1S820,金峰,2014-04-04,22.590969,120.933236,4.6756253e-07
C0AD10,八里,2014-04-04,25.150211,121.403947,3.0747556e-09
C2K240,草嶺,2014-04-04,23.59555,120.693461,7.049965e-10
C1SA70,都蘭,2014-04-04,22.87794,121.226881,8.572103e-09
C0K440,二崙,2014-04-04,23.772797,120.408944,1.0100439e-09
C1A760,坪林交控,2014-04-04,24.94284,121.713442,3.1030114e-09
C0F9N0,大里,2014-04-04,24.092464,120.701378,4.383313e-10
C0SA90,達仁林場,2014-04-04,22.264347,120.823972,1.819435e-07
C1R290,石門山,2014-04-04,22.112611,120.756597,0.99904025
42HA10,萬大發電廠,2014-04-04,23.978875,121.139639,4.40639e-10
C0R890,山海,2014-04-04,21.9878,120.7091,0.99344003
C0T9A0,月眉山,2014-04-04,23.809928,121.539828,6.595855e-09
C0AC70,信義,2014-04-04,25.037822,121.564597,2.9811218e-09
C0K560,棋山,2014-04-04,23.68645,120.603417,6.451151e-10
C2FB50,出雲,2014-04-04,24.206469,120.902794,3.311432e-10
C1Z240,中平林道,2014-04-04,23.42115,121.26763,3.388753e-09
U2H480,溪頭,2014-04-04,23.670306,120.798194,3.7182676e-10
C0M880,好美里,2014-04-04,23.3364,120.138,4.5002393e-09
C0T9E0,大坑,2014-04-04,23.880628,121.581981,7.1010215e-09
C0K530,臺西,2014-04-04,23.701547,120.197559,9.173219e-10
C1E900,國一N128K,2014-04-04,24.560997,120.844186,5.00911e-10
C0AJ50,水湳洞,2014-04-04,25.123695,121.862238,3.872317e-08
C0AI20,白沙灣,2014-04-04,25.283128,121.519058,6.6407058e-09
C0A860,大坪,2014-04-04,25.165914,121.632969,1.9878563e-09
C1U850,觀音海岸,2014-04-04,24.38319,121.77856,1.423196e-08
C2K610,草嶺石壁,2014-04-04,23.602469,120.707731,7.2918405e-10
C0U950,鶯子嶺,2014-04-04,24.89754,121.79244,3.5834034e-09
C0O900,善化,2014-04-04,23.112883,120.297219,1.5344533e-09
C0K550,蔦松,2014-04-04,23.514319,120.229736,9.725287e-10
E2P980,林試六龜中心,2014-04-04,22.991703,120.645722,4.3449896e-10
C0E590,通霄,2014-04-04,24.471892,120.704622,7.4769735e-10
C1I310,西巒,2014-04-04,23.754486,120.883956,4.5230925e-10
C0A550,泰平,2014-04-04,24.971197,121.823711,1.839474e-08
C0I360,水里,2014-04-04,23.812553,120.849792,4.8167176e-10
C0R830,高士,2014-04-04,22.121825,120.836781,0.9982464
C1I101,溪頭,2014-04-04,23.661789,120.807647,9.0699454e-10
C0AJ20,野柳,2014-04-04,25.20703,121.690021,3.872317e-08
C0B060,暖暖,2014-04-04,25.0957,121.7403,2.9617402e-08
C1H920,長豐,2014-04-04,24.102039,120.879897,2.9016892e-10
C0V360,內門,2014-04-04,22.975481,120.466769,7.116027e-10
C0R850,林邊,2014-04-04,22.4634,120.5339,3.1673586e-05
C0E930,龍鳳,2014-04-04,24.700034,120.859125,6.1829364e-10
C0U910,冬山,2014-04-04,24.63373,121.7937,9.527325e-07
C1E721,泰安,2014-04-04,24.489017,120.968036,4.7372867e-10
82H320,茶改中部分場,2014-04-04,23.875611,120.913583,3.2167266e-10
C0M750,布袋,2014-04-04,23.380878,120.167789,1.3073956e-09
C1S860,利嘉,2014-04-04,22.809417,121.050528,6.065606e-09
72C440,桃園農改,2014-04-04,24.950944,121.030583,5.4729373e-08
E2S980,林試太麻里1,2014-04-04,22.598922,120.980044,3.1103904e-05
C0X170,關廟,2014-04-04,22.963017,120.327797,1.4646242e-09
C0V720,林園,2014-04-04,22.507747,120.394511,0.00017212934
C1I510,線浸林道,2014-04-04,23.761508,120.832956,3.9288317e-10
C0D690,外湖,2014-04-04,24.917735,120.968711,9.326361e-08
C0C750,新興坑尾,2014-04-04,25.0061,121.0971,9.946161e-10
B2Q810,畜試南區分所,2014-04-04,21.945583,120.802167,0.9948577
C0S790,金崙,2014-04-04,22.538122,120.966875,1.211662e-07
C0AH90,福山植物園,2014-04-04,24.760717,121.58135,1.1436765e-09
C0I540,奇萊稜線,2014-04-04,24.109231,121.326456,8.5954985e-09
C0M850,表湖,2014-04-04,23.24186,120.64166,4.704403e-10
C0S770,大溪山,2014-04-04,22.478475,120.943325,9.128681e-09
C0AG80,中和,2014-04-04,24.991622,121.491792,2.9811218e-09
C0T790,大禹嶺,2014-04-04,24.186117,121.316086,4.217838e-09
C0T9B0,水源,2014-04-04,23.991861,121.537169,6.4840533e-09
C0R840,牡丹池山,2014-04-04,22.168389,120.841225,2.530134e-07
C1I131,桶頭,2014-04-04,23.641944,120.654117,4.2810305e-10
CAL110,布袋國中,2014-04-04,23.35893,120.18026,1.8854562e-09
467571,新竹,2014-04-04,24.827853,121.014219,7.6653006e-10
C0Z290,赤柯山,2014-04-04,23.36893,121.38293,5.258895e-09
C0X280,將軍,2014-04-04,23.214999,120.13577,4.5002393e-09
C0S690,太麻里,2014-04-04,22.60902,120.98533,4.7126494e-09
C0U880,北關,2014-04-04,24.9072,121.8734,1.0882383e-08
C1H860,瑞岩,2014-04-04,24.123772,121.18345,6.653761e-10
C0G810,埔心,2014-04-04,23.947633,120.525456,9.237198e-10
C0U970,大福,2014-04-04,24.80064,121.81389,1.3048552e-08
C2H9N0,仁愛東眼,2014-04-04,24.026875,121.1205,3.9920034e-10
C1E670,南礦,2014-04-04,24.538278,121.002836,4.9035476e-10
C0M520,東後寮,2014-04-04,23.369908,120.248065,1.8919766e-09
C1E461,松安,2014-04-04,24.397972,120.986022,4.216372e-10
72G600,臺中農改,2014-04-04,24.003028,120.534389,9.382789e-10
C2N160,西拉雅風管處,2014-04-04,23.189481,120.335297,1.5925355e-09
C2M970,碧湖,2014-04-04,23.568632,120.624165,6.156095e-10
C0A640,石碇,2014-04-04,24.993969,121.662917,1.6919385e-08
E2S960,林試太麻里2,2014-04-04,22.598,120.99775,0.0014668894
C0F9Y0,桃山,2014-04-04,24.432739,121.303808,8.260552e-09
C1I020,萬大,2014-04-04,23.979817,121.132261,3.7270081e-10
C0U940,羅東,2014-04-04,24.68184,121.74934,7.942036e-07
C0M650,朴子,2014-04-04,23.43463,120.23902,1.2997203e-09
C1I500,大尖山,2014-04-04,23.858572,120.994889,1.3485186e-09
C0G820,田尾,2014-04-04,23.901669,120.509389,8.7753793e-10
E2K600,四湖植物園,2014-04-04,23.676986,120.163433,9.173219e-10
C0S730,綠島,2014-04-04,22.6672,121.47533,0.056275938
12Q970,東港工作站,2014-04-04,22.479997,120.466058,4.2280866e-05
C0E430,南庄,2014-04-04,24.601775,121.000214,5.9515975e-10
C1TA00,太魯閣,2014-04-04,24.15773,121.6236,1.6363234e-05
466920,臺北,2014-04-04,25.037658,121.514853,2.9811218e-09
C0R600,舊泰武,2014-04-04,22.588194,120.664944,9.3003956e-07
C1I260,北坑,2014-04-04,23.9246,121.006903,2.856245e-10
466910,鞍部,2014-04-04,25.182586,121.529731,2.2790405e-09
C1I230,九份二山,2014-04-04,23.961944,120.845,3.197714e-10
C2A660,瑞芳,2014-04-04,25.113169,121.801147,3.9950468e-08
C0R270,琉球嶼,2014-04-04,22.332244,120.362236,0.002628762
C1T990,高寮,2014-04-04,23.394239,121.356808,2.5186834e-08
C0G620,芬園,2014-04-04,24.015678,120.6213,4.974776e-10
C1Z140,荖溪,2014-04-04,23.890575,121.45964,2.6862164e-09
C1I201,中心崙,2014-04-04,23.728722,120.712097,3.807475e-10
C1I400,凌霄,2014-04-04,24.018778,121.004456,3.8620232e-10
C1M640,十字,2014-04-04,23.492153,120.753683,8.0560897e-10
G2P820,農試鳳山分所,2014-04-04,22.646611,120.356083,6.168817e-05
C0Z270,蕃薯寮,2014-04-04,23.73835,121.540108,1.3353175e-08
C0F9Q0,外埔,2014-04-04,24.347817,120.705686,4.1312095e-10
C0K580,高鐵雲林,2014-04-04,23.737456,120.417944,1.0344422e-09
C2I090,鳳凰,2014-04-04,23.728081,120.787347,3.15658e-10
C0U990,員山,2014-04-04,24.74435,121.72247,7.9227374e-07
C0V770,大社,2014-04-04,22.730306,120.346639,1.808687e-05
C0X120,麻豆,2014-04-04,23.183289,120.248611,4.226955e-09
C0C670,龍潭,2014-04-04,24.870056,121.221389,2.962958e-10
C0D680,香山濕地,2014-04-04,24.783581,120.914988,7.9589235e-10
C0S980,勝林山,2014-04-04,22.430439,120.8938,3.355021e-09
C0V730,大寮,2014-04-04,22.605614,120.395717,1.1825433e-05
C0R570,麟洛,2014-04-04,22.65078,120.52719,1.0741928e-07
C2M930,石卓,2014-04-04,23.478744,120.702264,7.8486945e-10
C0G9B0,和美,2014-04-04,24.105169,120.492131,1.0437433e-09
CAG100,王功漁港,2014-04-04,23.96824,120.32586,5.732117e-10
C0X290,北門,2014-04-04,23.267772,120.125481,4.5002393e-09
C2F930,大甲,2014-04-04,24.347667,120.640403,6.429923e-10
C0D650,湖口,2014-04-04,24.904794,121.043628,3.0664058e-08
C0E420,竹南,2014-04-04,24.708978,120.888897,7.352032e-10
C0U780,五結,2014-04-04,24.68637,121.79794,9.527325e-07
C1I250,鯉潭,2014-04-04,23.961922,120.991131,2.9016892e-10
C0R130,阿禮,2014-04-04,22.742908,120.743678,8.403541e-10
C0X100,臺南市北區,2014-04-04,23.010394,120.194228,6.77433e-09
C0S920,金峰嘉蘭,2014-04-04,22.594789,120.960825,1.9565645e-05
C0V490,新興,2014-04-04,22.627422,120.298803,0.00017212934
C0F9K0,大安,2014-04-04,24.345061,120.588025,7.4180373e-10
72N100,臺南農改,2014-04-04,23.0605,120.342194,1.2905778e-09
467290,古坑,2014-04-04,23.633639,120.551889,6.2292904e-10
C2E970,八甲,2014-04-04,24.535811,120.795983,4.6040757e-10
C0V440,鳳山,2014-04-04,22.646653,120.356122,6.168817e-05
C1T940,大觀,2014-04-04,23.714206,121.373133,9.858285e-09
72T250,花蓮農改,2014-04-04,23.975222,121.563889,9.249615e-09
C0E740,造橋,2014-04-04,24.637056,120.864778,5.525123e-10
C0R100,尾寮山,2014-04-04,22.833111,120.683889,6.723442e-10
A2K630,臺大雲林校區,2014-04-04,23.730628,120.423903,1.0344422e-09
C0D580,寶山,2014-04-04,24.735006,121.025192,3.5163317e-10
E2P990,林試扇平站,2014-04-04,22.9677,120.6857,8.7104446e-10
C0AI30,三重,2014-04-04,25.057328,121.500629,2.424763e-09
C0AH00,汐止,2014-04-04,25.066881,121.658778,3.872317e-08
C1Z040,立山,2014-04-04,23.443356,121.327375,9.86293e-09
C0W130,花嶼,2014-04-04,23.40007,119.32276,4.3085815e-06
C0A950,鼻頭角,2014-04-04,25.129036,121.923372,7.214445e-08
C0K470,林內,2014-04-04,23.748675,120.609642,7.772272e-10
C2F990,摩天嶺,2014-04-04,24.322458,120.936819,3.824871e-10
82C160,茶改場,2014-04-04,24.908472,121.185333,4.6514573e-10
C0Z320,清水林道,2014-04-04,23.27125,121.188272,4.629951e-09
C0R760,南仁湖,2014-04-04,22.084681,120.863353,0.99903566
C0M670,大林,2014-04-04,23.600616,120.45841,4.762954e-10
C0M800,茶山,2014-04-04,23.299075,120.664767,4.3316675e-10
C0A9C0,天母,2014-04-04,25.117494,121.537169,2.3239772e-09
72K220,南改斗南分場,2014-04-04,23.634556,120.477333,1.0577238e-09
72AI40,桃改樹林分場,2014-04-04,24.944503,121.386972,2.2996156e-09
C0S910,蘭嶼燈塔,2014-04-04,22.081197,121.503117,0.4969929
C0B050,八斗子,2014-04-04,25.144754,121.79167,4.2034003e-08
C0U900,內城,2014-04-04,24.71813,121.68766,1.0953915e-08
C0X320,柳營,2014-04-04,23.253328,120.375253,7.175985e-10
C0M790,新港,2014-04-04,23.553269,120.345728,6.2953187e-10
C0F9T0,西屯,2014-04-04,24.179494,120.641275,4.858451e-10
C0SA30,都歷,2014-04-04,23.020333,121.323642,0.17921352
C0C620,蘆竹,2014-04-04,25.084275,121.265767,2.9745333e-09
C0R730,大坪頂,2014-04-04,22.024633,120.69355,0.99895984
C0AJ40,石門,2014-04-04,25.273672,121.601198,5.758474e-09
C0E750,苗栗,2014-04-04,24.564569,120.824575,5.1183313e-10
C0T870,鯉魚潭,2014-04-04,23.935639,121.508944,1.8391198e-08
C1V170,排雲,2014-04-04,23.463619,120.954147,1.2454269e-08
C2H950,中寮,2014-04-04,23.884447,120.766406,4.1427217e-10
C0R350,貓鼻頭,2014-04-04,21.921774,120.7358,0.99594367
C0V660,岡山,2014-04-04,22.797078,120.294958,1.8338095e-08
C1H941,雙冬,2014-04-04,23.967378,120.802189,2.8586813e-10
C0AJ70,田寮,2014-04-04,25.2698,121.4886,6.769112e-09
C0AI00,五股,2014-04-04,25.07445,121.42728,1.0646277e-09
C0Z280,德武,2014-04-04,23.47426,121.41071,1.7307242e-08
C0R700,枋山,2014-04-04,22.246844,120.661086,0.0002443199
C0C460,復興,2014-04-04,24.820208,121.352281,1.2054221e-09
E2H360,蓮華池,2014-04-04,23.918333,120.885278,3.185442e-10
C0M640,中埔,2014-04-04,23.42538,120.5229,6.101132e-10
C0W140,金沙,2014-04-04,24.488292,118.408778,2.4878874e-08
C2A540,四堵,2014-04-04,24.8926,121.745736,7.678123e-09
C0ACA0,新莊,2014-04-04,25.051478,121.446756,3.7132941e-09
C0R220,潮州,2014-04-04,22.534361,120.54,1.2025439e-06
U2HA40,臺大內茅埔,2014-04-04,23.689722,120.851117,3.4797032e-10
467490,臺中,2014-04-04,24.145736,120.684075,3.9255732e-10
C0U960,翠峰湖,2014-04-04,24.510856,121.608044,3.8266976e-09
E2HA20,林試畢祿溪站,2014-04-04,24.226944,121.308522,1.3180241e-09
C0V890,前鎮,2014-04-04,22.5718,120.3117,0.00050538353
467620,蘭嶼,2014-04-04,22.036969,121.558339,0.0021340153
C1F941,雪嶺,2014-04-04,24.280586,121.026642,3.4682748e-09
C2H9E0,國姓南港,2014-04-04,23.911108,120.846556,4.3282317e-10
C0AC80,文山,2014-04-04,25.00235,121.575728,2.5916398e-09
C0F9R0,龍井,2014-04-04,24.184536,120.528972,7.284098e-10
C0M760,民雄,2014-04-04,23.551754,120.428457,4.6270351e-10
C0UA40,西德山,2014-04-04,24.560647,121.752608,6.2341665e-09
C1T920,中興,2014-04-04,23.769503,121.498653,2.4918766e-08
C0D550,雪霸,2014-04-04,24.526972,121.11605,1.3545818e-09
C2F860,梨山,2014-04-04,24.247522,121.243669,1.4057991e-09
C0R320,車城,2014-04-04,22.0744,120.716247,0.99341434
C1S870,南美山,2014-04-04,23.15025,121.382333,0.0001900926
C0B020,基隆嶼,2014-04-04,25.19141,121.78391,3.872317e-08
C1U501,牛鬥,2014-04-04,24.637836,121.573656,4.762202e-09
C0M730,嘉義市東區,2014-04-04,23.457673,120.460531,4.3583612e-10
C0S700,知本,2014-04-04,22.684866,121.005642,5.298392e-09
C1N001,沙崙,2014-04-04,22.935472,120.309406,4.9254933e-09
C0V760,橋頭,2014-04-04,22.757806,120.30575,1.5502161e-08
C0G960,福寶,2014-04-04,24.0443,120.3814,1.4148779e-09
C0X210,白河,2014-04-04,23.347466,120.414427,7.0785433e-10
C0S810,東河,2014-04-04,22.972672,121.303986,9.237591e-09
C2R170,屏東,2014-04-04,22.66027,120.49403,1.2225239e-07
C0R670,楓港,2014-04-04,22.190131,120.692156,0.0002443199
C0FA50,霧峰,2014-04-04,24.0419,120.6995,4.071787e-10
C0UB10,蘇澳,2014-04-04,24.5969,121.8571,0.0027836119
C0G950,防潮門,2014-04-04,24.1835,120.4871,7.4299034e-10
C0M740,六腳,2014-04-04,23.492871,120.290625,7.2288187e-10
C1R250,力里,2014-04-04,22.428117,120.629228,0.001901875
C0K330,虎尾,2014-04-04,23.719183,120.442036,9.574365e-10
C2FA00,烏石坑,2014-04-04,24.273503,120.947617,3.7493605e-10
C0V620,永安,2014-04-04,22.82315,120.236856,8.79296e-09
C1I330,楓樹林,2014-04-04,23.986803,121.076117,3.3485048e-10
C0W200,湖西,2014-04-04,23.596314,119.67275,2.9198077e-06
72Q010,高雄農改場,2014-04-04,22.709333,120.525889,8.064e-08
C0SA40,瑞和,2014-04-04,22.974361,121.156697,0.0017751625
C0C680,龜山,2014-04-04,25.02846,121.38656,1.2377819e-09
C2V260,月眉,2014-04-04,22.971003,120.539853,6.324709e-10
C0V450,鳳森,2014-04-04,22.545064,120.392592,3.5519072e-06
C0U720,南山,2014-04-04,24.43742,121.38167,2.6807039e-09
A2N290,臺南蘭花園區,2014-04-04,23.340258,120.379661,7.178969e-10
C0R560,新園,2014-04-04,22.5434,120.461558,3.1673586e-05
C0U890,三星,2014-04-04,24.66812,121.65302,1.0035805e-08
C1V300,御油山,2014-04-04,23.001983,120.715364,2.5233946e-09
C0U600,礁溪,2014-04-04,24.817539,121.765608,1.2240481e-08
C1T980,龍澗,2014-04-04,24.023289,121.411328,3.7343324e-09
C0D670,海天一線,2014-04-04,24.831986,120.914438,8.2447127e-10
C0SA00,歷坵,2014-04-04,22.520969,120.89185,5.940055e-09
C0M710,東石,2014-04-04,23.458927,120.15385,9.725287e-10
C0M780,鹿草,2014-04-04,23.41134,120.30835,7.9289686e-10
C0U520,雙連埤,2014-04-04,24.753033,121.641303,1.9437345e-09
C0B010,七堵,2014-04-04,25.094819,121.71713,3.5844035e-08
C0R480,長治,2014-04-04,22.693128,120.542622,3.0413357e-08
C1V830,國三S383K,2014-04-04,22.781967,120.426475,3.4658214e-09
12Q980,恆春工作站,2014-04-04,22.079678,120.714425,0.99341434
C1O940,東山服務區,2014-04-04,23.286016,120.398472,6.727675e-10
C1U840,東澳嶺,2014-04-04,24.5378,121.8485,9.826446e-09
C1D630,飛鳳山,2014-04-04,24.766464,121.119178,3.1842573e-10
C0S940,石寧山,2014-04-04,23.223772,121.406639,1.7144835e-08
C0K410,北港,2014-04-04,23.573957,120.292802,6.5678696e-10
C2M620,瑞里,2014-04-04,23.545133,120.675197,8.2355966e-10
C0SB70,小港漁港,2014-04-04,23.158558,121.400431,3.698121e-08
C2O950,安南,2014-04-04,23.076694,120.144861,7.796657e-09
C0F0E0,南湖圈谷,2014-04-04,24.363714,121.444667,1.5640861e-08
467610,成功,2014-04-04,23.097486,121.373428,0.46880645
C0G890,伸港,2014-04-04,24.148933,120.484403,7.5185747e-10
C2E540,龍溪,2014-04-04,24.606489,120.783933,6.341342e-10
C1V200,梅山,2014-04-04,23.268447,120.823556,9.3129143e-10
C0T9H0,加路蘭山,2014-04-04,23.682947,121.5274,9.90123e-09
C2O930,玉井,2014-04-04,23.126042,120.46055,4.7023574e-10
C1F911,新伯公,2014-04-04,24.221361,120.841069,4.0263454e-10
C0R490,九如,2014-04-04,22.7405,120.490503,1.0741928e-07
C0X200,左鎮,2014-04-04,23.056758,120.408522,6.1599004e-10
C0SB50,叭嗡嗡,2014-04-04,23.047062,121.343223,1.1454562e-08
C1F891,稍來,2014-04-04,24.265689,121.001142,1.6123286e-09
72N240,七股研究中心,2014-04-04,23.081672,120.062894,1.4695891e-08
C0C700,中壢,2014-04-04,24.977661,121.256375,6.862552e-10
C0M690,水上,2014-04-04,23.419734,120.388909,5.0601e-10
C0V690,鼓山,2014-04-04,22.623325,120.275575,0.00017212934
C0O860,大內,2014-04-04,23.11885,120.36083,5.501473e-10
C0Z200,萬榮,2014-04-04,23.709219,121.420106,1.8391198e-08
C0T9D0,和中,2014-04-04,24.26676,121.74103,0.00036429754
C1O921,楠西,2014-04-04,23.183511,120.484083,5.3915056e-10
C0AJ30,淡水觀海,2014-04-04,25.184591,121.408616,3.1212761e-09
C0V810,左營,2014-04-04,22.67491,120.28491,2.9612507e-05
C0UA70,桃源谷,2014-04-04,24.962606,121.888875,1.3215112e-08
C0X130,官田,2014-04-04,23.193217,120.315422,1.6522521e-09
C1H000,翠峰,2014-04-04,24.109397,121.205211,2.068838e-09
C0UA90,石城,2014-04-04,24.980444,121.951214,1.1445273e-07
C1E681,南勢山,2014-04-04,24.421669,120.923831,3.397566e-10
C0A9F0,內湖,2014-04-04,25.079422,121.57545,2.9811218e-09
C0K291,宜梧,2014-04-04,23.536281,120.169329,9.93433e-10
C1K540,口湖,2014-04-04,23.585344,120.180517,1.0841358e-09
C0R780,滿州,2014-04-04,22.024403,120.839892,0.99642676
C0V870,文安,2014-04-04,22.8025,120.2164,1.0168058e-08
C0U650,玉蘭,2014-04-04,24.675286,121.587061,1.2449187e-08
C0R640,東港,2014-04-04,22.46247,120.44074,0.0005009202
K2E360,苗栗農改,2014-04-04,24.495722,120.829111,6.3017336e-10
C0AJ80,板橋,2014-04-04,25.0107,121.4489,2.3951656e-09
C0S660,下馬,2014-04-04,23.150427,121.070312,2.8830385e-09
C1H9B1,阿眉,2014-04-04,24.1263,120.994672,7.918721e-10
C0UA20,多加屯,2014-04-04,24.368614,121.373189,3.4698893e-09
C0E730,頭份,2014-04-04,24.688247,120.912206,7.352032e-10
72V140,高改旗南分場,2014-04-04,22.857861,120.516667,1.4457452e-09
C0K480,莿桐,2014-04-04,23.761192,120.502372,1.0492283e-09
C0U980,坪林石牌,2014-04-04,24.86478,121.77396,6.3205876e-09
C0T900,西林,2014-04-04,23.8119,121.441458,1.5553665e-08
C1I150,青雲,2014-04-04,23.793361,120.949378,3.3603412e-10
467350,澎湖,2014-04-04,23.565503,119.563094,2.9283296e-06
C0G800,埔鹽,2014-04-04,24.000394,120.431683,1.3450713e-09
C0H960,草屯,2014-04-04,23.973672,120.68085,4.6768295e-10
C1V780,多納林道,2014-04-04,22.888028,120.737917,8.412233e-10
C0E920,通霄漁港,2014-04-04,24.498589,120.673876,8.125177e-10
C0Z330,安通山,2014-04-04,23.290728,121.348528,5.1338893e-09
C0AH10,永和,2014-04-04,25.01125,121.508111,3.0318588e-09
C0AK10,太平里,2014-04-04,25.134937,121.364899,3.7132941e-09
C2G640,鹿港,2014-04-04,24.0753,120.430481,1.3455999e-09
C1E890,國三N149K,2014-04-04,24.463414,120.680019,7.231825e-10
C1R110,口社,2014-04-04,22.770111,120.645222,2.908234e-09
C1M870,國三N285K,2014-04-04,23.550319,120.505833,6.691982e-10
467050,新屋,2014-04-04,25.006744,121.047486,8.2487475e-08
C1E480,鳳美,2014-04-04,24.554803,121.034747,3.8629588e-10
C0M530,奮起湖,2014-04-04,23.493903,120.699253,9.764767e-10
C0C590,觀音,2014-04-04,25.027072,121.153317,1.874137e-09
C0T9M0,靜浦,2014-04-04,23.455167,121.495028,1.9707329e-08
C2H9M0,發祥,2014-04-04,24.154094,121.164517,2.9453892e-10
C0AI40,石牌,2014-04-04,25.115597,121.513139,2.3966737e-09
C1F871,上谷關,2014-04-04,24.203483,121.018644,3.7871806e-10
C2H9G0,百勝,2014-04-04,24.051142,120.909361,4.010985e-10
C0G880,二水,2014-04-04,23.810742,120.6173,9.43368e-10
C0R940,加祿堂,2014-04-04,22.3363,120.6217,0.0039717495
C0W220,北竿,2014-04-04,26.220358,119.974881,1.655116e-09
C0O960,崎頂,2014-04-04,22.959547,120.369317,5.8900845e-10
C0S750,向陽,2014-04-04,23.248397,120.986133,4.240958e-09
C0T9F0,水璉,2014-04-04,23.797131,121.542514,1.26478135e-08
C1M600,頭凍,2014-04-04,23.406364,120.603339,5.982281e-10
467660,臺東,2014-04-04,22.752211,121.154586,1.4934608e-08
C1D380,新埔,2014-04-04,24.84745,121.03834,6.9399375e-10
C2G980,田頭村,2014-04-04,23.8263,120.444175,1.0100439e-09
C0V750,路竹,2014-04-04,22.854997,120.259439,3.9685775e-09
C0N050,蚵寮,2014-04-04,23.301,120.1104,2.5381024e-09
72M700,南改鹿草分場,2014-04-04,23.416869,120.283061,8.679498e-10
C1SA50,利嘉林道,2014-04-04,22.82325,121.009389,3.6000918e-09
467550,玉山,2014-04-04,23.487614,120.959522,1.4543557e-08
C0A940,金山,2014-04-04,25.223628,121.643967,6.446418e-09
C1V340,大津,2014-04-04,22.888322,120.645986,1.5186403e-09
C0W180,七美,2014-04-04,23.219333,119.444892,8.968071e-05
C1F9C1,白冷,2014-04-04,24.182844,120.929889,3.0360353e-10
K2E710,苗改生物防治研究中心,2014-04-04,24.422861,120.871833,3.0014946e-10
C0N040,蘆竹溝,2014-04-04,23.2344,120.0961,2.5381024e-09
C2W230,畜試所澎湖,2014-04-04,23.628342,119.513206,4.1854756e-07
C0R880,後壁湖,2014-04-04,21.9457,120.7457,0.9924701
C1I280,埔中,2014-04-04,23.820778,120.642594,4.1134082e-10
467790,墾丁雷達站,2014-04-04,21.948235,120.808028,0.9968212
C0W190,望安,2014-04-04,23.380564,119.494075,1.4652741e-06
466881,新北,2014-04-04,24.9593,121.52,2.784887e-09
C0Z170,卓溪,2014-04-04,23.3443,121.3029,1.3540916e-08
C0F850,東勢,2014-04-04,24.246428,120.833047,4.1154566e-10
466900,淡水,2014-04-04,25.164889,121.448906,3.0733893e-09
C0I370,魚池,2014-04-04,23.895703,120.94135,3.1751177e-10
C0C630,大溪,2014-04-04,24.882853,121.265547,5.8500577e-10
C0A520,山佳,2014-04-04,24.974944,121.402008,2.2996156e-09
C0I110,竹山,2014-04-04,23.761225,120.688156,4.4556703e-10
82H840,茶改南部分場,2014-04-04,23.762528,120.7405,3.4538422e-10
C0G660,溪湖,2014-04-04,23.94835,120.479122,9.614222e-10
C1T800,洛韶,2014-04-04,24.204558,121.453956,5.0055693e-09
C1T810,慈恩,2014-04-04,24.192044,121.388386,2.5163343e-09
C1E451,象鼻,2014-04-04,24.368617,120.940228,3.4005485e-10
C0AC60,三峽,2014-04-04,24.939025,121.369728,2.7166729e-09
C0I490,萬大林道,2014-04-04,23.928228,121.091411,9.472788e-10
C1I290,豐丘,2014-04-04,23.668178,120.887417,3.9288317e-10
C1I320,奧萬大,2014-04-04,23.952956,121.178556,3.3693903e-10
C2M910,嘉義大學,2014-04-04,23.471325,120.485903,6.9929407e-10
C0U770,南澳,2014-04-04,24.44935,121.81022,1.5276972e-06
C0A980,社子,2014-04-04,25.109508,121.469681,2.5048656e-09
C0V800,六龜,2014-04-04,22.997889,120.633583,4.4905651e-10
C1G9D0,國一S218K,2014-04-04,23.890641,120.493253,9.237198e-10
C0E570,白沙屯,2014-04-04,24.549447,120.696803,8.125177e-10
C2F9A0,中竹林,2014-04-04,24.103556,120.751061,3.4727146e-10
C0FA40,臺中電廠,2014-04-04,24.2146,120.4907,7.284098e-10
C2G9A0,畜試所彰化,2014-04-04,23.86045,120.557964,7.766789e-10
C0H9C0,合歡山,2014-04-04,24.143442,121.272547,1.0030696e-08
C0X060,下營,2014-04-04,23.22695,120.256261,1.9721873e-09
G2M350,農試溪口農場,2014-04-04,23.58565,120.408111,4.88525e-10
C0U860,頭城,2014-04-04,24.85323,121.8308,1.2293171e-08
C0R580,南州,2014-04-04,22.48591,120.50274,4.1627853e-05
C0D430,峨眉,2014-04-04,24.6905,121.017189,6.133896e-10
C0G780,秀水,2014-04-04,24.03405,120.503869,9.81071e-10
72N100,臺南農改場,2014-04-04,23.0605,120.342194,1.2905778e-09
C0S900,蘭嶼高中,2014-04-04,22.04909,121.51214,0.9608365
467540,大武,2014-04-04,22.355675,120.903789,0.00055665075
C1F9W0,德基,2014-04-04,24.254783,121.190261,9.62411e-10
C1Z120,壽豐,2014-04-04,23.870853,121.508081,2.9720677e-08
C0W160,烏坵,2014-04-04,24.9944,119.44956,5.4606232e-08
C1I240,外大坪,2014-04-04,23.958697,120.917931,2.9365543e-10
C1I550,國六W023K,2014-04-04,23.979067,120.867742,3.45605e-10
C0R870,興海,2014-04-04,21.9752,120.8439,0.99484587
C0R140,瑪家,2014-04-04,22.682903,120.686639,3.4974708e-09
C0A530,坪林,2014-04-04,24.938183,121.70975,4.037668e-09
C0X260,後壁,2014-04-04,23.366358,120.362326,7.600501e-10
C0Z230,和平,2014-04-04,24.30717,121.77007,0.00036429754
C0G770,福興,2014-04-04,24.041289,120.437669,1.3450507e-09
C0H9A0,神木村,2014-04-04,23.532742,120.843667,9.728812e-10
C0I460,南投,2014-04-04,23.911469,120.687331,5.207051e-10
C0I480,梅峰,2014-04-04,24.085272,121.173572,1.2373947e-09
C1V570,吉東,2014-04-04,22.85422,120.5454,1.362264e-09
C2D740,屯原,2014-04-04,24.067969,121.209389,1.0744051e-09
C2A560,福山,2014-04-04,24.776203,121.502811,1.4397022e-09
C0AH30,五分山,2014-04-04,25.07125,121.780794,7.3788256e-09
C0FA10,松柏,2014-04-04,24.429115,120.617482,7.9900436e-10
72S200,東改班鳩分場,2014-04-04,22.829528,121.077694,9.110626e-09
72HA00,中改埔里分場,2014-04-04,23.903208,120.963364,3.1761352e-10
C2H9W0,大坪頂農水,2014-04-04,24.043122,120.932781,2.9292316e-10
C0C650,平鎮,2014-04-04,24.897503,121.214636,4.6514573e-10
C0S930,延平,2014-04-04,22.902581,121.084058,9.451839e-09
C0UA60,樟樹山,2014-04-04,24.41393,121.78325,7.502995e-08
C1S670,摩天,2014-04-04,23.199503,121.027,3.5605254e-09
C0V630,茄萣,2014-04-04,22.906642,120.182608,1.6758412e-08
466940,基隆,2014-04-04,25.133314,121.740475,4.031483e-08
C0X050,東河,2014-04-04,23.296598,120.385608,7.175985e-10
C0R770,保力,2014-04-04,22.071122,120.764111,0.99775815
G2L020,農試嘉義分所,2014-04-04,23.485028,120.473806,6.5778233e-10
C0X240,關子嶺,2014-04-04,23.331169,120.508025,5.272421e-10
C0I380,集集,2014-04-04,23.828206,120.801467,4.9980775e-10
466990,花蓮,2014-04-04,23.975128,121.613275,1.0091374e-08
C1V220,小關山,2014-04-04,23.154217,120.813603,2.931217e-09
C1F9G1,慶福山,2014-04-04,24.180853,120.848378,3.1982386e-10
C0Z250,瑞穗林道,2014-04-04,23.49284,121.30688,5.5351457e-09
C0D590,新豐,2014-04-04,24.87068,120.97721,0.015817635
C0A870,五指山,2014-04-04,25.132153,121.608692,3.7239545e-09
C0UA50,西帽山,2014-04-04,24.555361,121.802628,6.2057772e-09
C0X160,仁德,2014-04-04,22.968258,120.257689,2.2000708e-09
C1H971,六分寮,2014-04-04,23.92507,120.6378,3.9417794e-10
C0W120,西嶼,2014-04-04,23.5626,119.468436,2.9283296e-06
C0G650,員林,2014-04-04,23.946503,120.585597,7.6102924e-10
C0AD50,鶯歌,2014-04-04,24.951533,121.346294,1.9806277e-09
C2H9Q0,北東眼山,2014-04-04,24.120939,121.189303,1.024112e-09
C2H9T0,名間竹圍,2014-04-04,23.859914,120.637572,4.467456e-10
C0S990,山豬窟,2014-04-04,22.318619,120.857372,2.7582173e-06
72Q010,高雄農改,2014-04-04,22.709333,120.525889,8.064e-08
C0X190,安平,2014-04-04,22.993161,120.152181,6.77433e-09
C0K400,斗六,2014-04-04,23.720583,120.541127,1.0017556e-09
12J990,口湖工作站,2014-04-04,23.589978,120.180394,1.0696388e-09
C0O830,北寮,2014-04-04,23.079561,120.495008,6.1111594e-10
C1D410,白蘭,2014-04-04,24.579364,121.079947,5.785808e-10
C0S970,加津林,2014-04-04,22.416211,120.926942,0.00068570534
C0D700,關西,2014-04-04,24.7977,121.1732,5.040863e-10
C0M810,里佳,2014-04-04,23.389125,120.716647,9.764767e-10
C0U750,龜山島,2014-04-04,24.841667,121.953133,5.9239127e-08
C0R810,內獅,2014-04-04,22.305064,120.642986,0.0039717495
C1M390,龍美,2014-04-04,23.406728,120.654417,7.368358e-10
C2FB60,頭櫃山,2014-04-04,24.129842,120.858925,3.4586878e-10
C1H840,國三N238K,2014-04-04,23.841008,120.707711,4.893578e-10
CAQ030,崎峰國小,2014-04-04,22.42565,120.49521,4.1627853e-05
C2E520,大湖,2014-04-04,24.414939,120.870872,2.8433247e-10
467530,阿里山,2014-04-04,23.508208,120.813242,3.860582e-09
C1E691,南湖,2014-04-04,24.40135,120.837533,3.3074046e-10
C0FA30,梧棲,2014-04-04,24.256003,120.523381,7.284098e-10
C1V231,高中,2014-04-04,23.134911,120.716711,4.3112588e-10
C0F9V0,新社,2014-04-04,24.200172,120.815806,3.9849818e-10
C0H890,埔里,2014-04-04,23.972169,120.952425,3.2489383e-10
C0R690,墾丁,2014-04-04,21.966756,120.810269,0.99929506
C0F0D0,審馬陣,2014-04-04,24.381675,121.4203,7.1682864e-09
C0R820,白鷺,2014-04-04,22.454275,120.666219,1.05789816e-07
U2H480,臺大溪頭,2014-04-04,23.670306,120.798194,3.7182676e-10
C1V190,南天池,2014-04-04,23.27403,120.91176,5.0803144e-09
K2E360,苗栗農改場,2014-04-04,24.495722,120.829111,6.3017336e-10
CAJ050,海口故事園區,2014-04-04,23.57543,120.14121,1.0837181e-09
C2H9D0,三隻寮,2014-04-04,24.093078,120.861578,2.9667693e-10
C0O990,媽廟,2014-04-04,22.99175,120.293525,1.9631012e-09
C0D480,打鐵坑,2014-04-04,24.849664,121.150789,3.119037e-10
C0Z220,和平林道,2014-04-04,24.343922,121.656317,7.212946e-08
C0TA10,花蓮漁港,2014-04-04,23.995322,121.638331,1.0579926e-08
72C440,桃園農改場,2014-04-04,24.950944,121.030583,5.4729373e-08
C1E711,馬拉邦山,2014-04-04,24.367306,120.901656,3.5917566e-10
C0SB20,富岡,2014-04-04,22.792467,121.192669,1.4125354e-08
C0D560,竹東,2014-04-04,24.767147,121.057881,6.0194905e-10
C0F9U0,南屯,2014-04-04,24.137006,120.637969,4.383313e-10
C0M720,番路,2014-04-04,23.464657,120.554156,5.190244e-10
C0F0A0,雪山圈谷,2014-04-04,24.388594,121.236339,1.2158946e-08
C1A9N0,四十份,2014-04-04,24.934158,121.593283,1.7656263e-09
C0U760,東澳,2014-04-04,24.52196,121.83318,4.7557958e-08
C0X230,鹽水,2014-04-04,23.272621,120.247641,3.1751797e-09
C2H9H0,苗改南投蜂場,2014-04-04,23.852589,120.693481,4.4556703e-10
C0R950,萬隆國小,2014-04-04,22.507667,120.587817,2.602413e-06
C0V370,古亭坑,2014-04-04,22.893178,120.401947,1.1252992e-09
C1I340,新興橋,2014-04-04,23.563333,120.868728,3.5187336e-10
C0SA80,土坂,2014-04-04,22.453108,120.887572,3.181027e-06
C0R160,鹽埔,2014-04-04,22.739558,120.530778,3.4064076e-08
C0AC40,大屯山,2014-04-04,25.175675,121.522408,3.0279579e-09
466850,五分山雷達站,2014-04-04,25.071182,121.781205,7.3685866e-09
C2H9L0,馬烈霸,2014-04-04,24.1512,121.201772,9.919788e-10
C1AI50,國三N016K,2014-04-04,25.034164,121.619664,2.6748763e-09
C1V600,藤枝,2014-04-04,23.071961,120.757042,2.32263e-09
C1E601,南勢,2014-04-04,24.572486,120.734842,6.540118e-10
C0Z180,新城,2014-04-04,24.03946,121.60454,9.563948e-09
C0O980,新市,2014-04-04,23.061614,120.298197,1.5344533e-09
C0K420,西螺,2014-04-04,23.800407,120.467394,1.1532247e-09
C0Z050,佳心,2014-04-04,23.34567,121.21316,2.966601e-09
C0AD30,蘆洲,2014-04-04,25.086594,121.472331,2.424763e-09
C0V610,梓官,2014-04-04,22.760558,120.267211,1.8338095e-08
K2F750,種苗改良場,2014-04-04,24.225972,120.800917,4.0028683e-10
C0UA80,大溪漁港,2014-04-04,24.941801,121.902955,1.2244239e-08
C1AI60,國一39K邊坡,2014-04-04,25.064361,121.383836,3.4793333e-09
C0W150,金寧,2014-04-04,24.457703,118.328989,2.0134081e-08
C0R960,內埔,2014-04-04,22.608483,120.570714,4.4245076e-06
V2C250,八德合作社,2014-04-04,24.93775,121.266389,5.060467e-10
C2H9S0,龍南,2014-04-04,23.953536,120.833183,4.5195828e-10
C0AH40,平等,2014-04-04,25.129142,121.577086,4.333e-09
C0R540,佳冬,2014-04-04,22.419456,120.552375,4.3072418e-05
466950,彭佳嶼,2014-04-04,25.627975,122.079744,4.480581e-07
C0A890,雙溪,2014-04-04,25.036003,121.864242,3.291179e-08
C0C480,桃園,2014-04-04,24.992425,121.323172,7.0591283e-10
C0AH50,林口,2014-04-04,25.072181,121.38084,2.194522e-09
A2K360,水試臺西試驗場,2014-04-04,23.717231,120.190522,9.536274e-10
B2N890,畜試所,2014-04-04,23.058972,120.336406,1.2905778e-09
C2M960,外寮,2014-04-04,23.562643,120.665688,6.492614e-10
C0F9S0,烏日,2014-04-04,24.107058,120.624103,6.60765e-10
C0C490,八德,2014-04-04,24.928708,121.283289,6.282148e-10
C0R190,赤山,2014-04-04,22.592333,120.614306,3.7153654e-06
C0T820,天祥,2014-04-04,24.179597,121.495639,1.3718706e-08
C1F9E1,龍安,2014-04-04,24.1605,120.831961,4.0630438e-10
C0V820,小林,2014-04-04,23.148408,120.63325,3.60101e-10
C2G870,芳苑,2014-04-04,23.922303,120.320025,7.6228585e-10
C0E850,大河,2014-04-04,24.618069,120.948578,5.33395e-10
C1U670,寒溪,2014-04-04,24.634,121.71691,1.3661723e-07
C0N020,城西,2014-04-04,23.0568,120.0956,1.2305885e-08
C1Z110,三棧,2014-04-04,24.11557,121.60501,4.0210524e-09
C0R280,檳榔,2014-04-04,22.076078,120.836777,0.99925816
C2H9J0,中台,2014-04-04,23.9996,120.938739,3.133981e-10
C0F9L0,后里,2014-04-04,24.310436,120.729725,3.8145692e-10
C0D540,橫山,2014-04-04,24.71116,121.11693,3.2186415e-10
C1D420,太閣南,2014-04-04,24.632808,121.160575,7.9449697e-10
C1E770,公館,2014-04-04,24.526914,120.830806,7.0263784e-10
CAN130,水試所海水繁養殖中心,2014-04-04,23.120802,120.07968,1.4695891e-08
C1I430,翠華,2014-04-04,24.191961,121.224339,2.1551938e-09
C1M400,菜瓜坪,2014-04-04,23.251928,120.576103,4.339805e-10
C0G730,二林,2014-04-04,23.903325,120.376081,1.3666909e-09
72M360,南改義竹分場,2014-04-04,23.360694,120.279361,1.1868855e-09
V2K620,麥寮合作社,2014-04-04,23.753836,120.294783,6.4677463e-10
C0Z070,舞鶴,2014-04-04,23.46811,121.37407,1.4777009e-08
C0B040,大武崙,2014-04-04,25.166676,121.706993,3.5844035e-08
C1Z030,紅葉,2014-04-04,23.493119,121.338806,1.6700401e-08
C1I050,丹大,2014-04-04,23.753747,121.141147,4.917205e-09
C0I080,信義,2014-04-04,23.689694,120.851036,3.4797032e-10
C2M920,朴子農改,2014-04-04,23.469889,120.259383,7.2288187e-10
C2A880,福隆,2014-04-04,25.017842,121.942083,6.735886e-08
C0Z160,鳳林,2014-04-04,23.746114,121.453411,4.0558085e-08
C0V210,復興,2014-04-04,23.222403,120.806089,9.736238e-10
C0H990,昆陽,2014-04-04,24.121322,121.273642,5.513724e-09
C0R741,獅子,2014-04-04,22.202308,120.705236,6.7806e-05
C0S710,鹿野,2014-04-04,22.917711,121.122994,4.142187e-09
C0I530,小奇萊,2014-04-04,24.131764,121.295717,6.5739383e-09
C2K630,荷苞,2014-04-04,23.657717,120.595144,5.325177e-10
C0Z080,富源,2014-04-04,23.587642,121.378225,1.3574844e-08
467441,高雄,2014-04-04,22.7304,120.3125,2.9612507e-05
C0SB10,美和,2014-04-04,22.682078,121.060236,1.1256704e-07
C2K620,馬光農場,2014-04-04,23.721453,120.378864,1.0502074e-09
C1I140,卡奈托灣,2014-04-04,23.754364,121.087872,7.616057e-10
C0I520,玉山風口,2014-04-04,23.470489,120.955994,1.5171763e-08
C1G691,下水埔,2014-04-04,23.816114,120.5676,1.1151394e-09
C0X110,臺南市南區,2014-04-04,22.961189,120.188378,6.0919247e-09
C0V680,仁武,2014-04-04,22.701083,120.347722,1.808687e-05
C2G840,北斗,2014-04-04,23.877586,120.514222,8.777388e-10
C0R900,竹坑,2014-04-04,22.1385,120.7022,0.025953257
C0K250,崙背,2014-04-04,23.75555,120.318925,6.311453e-10
C0G860,社頭,2014-04-04,23.897647,120.5862,7.4761464e-10
C0X150,安定,2014-04-04,23.102614,120.227839,4.014401e-09
C0R590,里港,2014-04-04,22.77919,120.49459,3.3565442e-09
C0E610,馬都安,2014-04-04,24.451272,120.930192,2.9030234e-10
C0E550,明德,2014-04-04,24.583486,120.885411,5.698411e-10
C0R150,三地門,2014-04-04,22.709889,120.639944,6.977106e-08
C0G910,花壇,2014-04-04,24.032076,120.549461,9.0486574e-10
C1D400,鳥嘴山,2014-04-04,24.71909,121.28387,1.0414465e-09
C0K500,元長,2014-04-04,23.64981,120.315024,5.836071e-10
C0F0B0,石岡,2014-04-04,24.276061,120.777644,3.3586045e-10
C2V250,甲仙,2014-04-04,23.080106,120.591758,4.912478e-10
C0SA20,金崙山,2014-04-04,22.567419,120.959667,2.7216727e-09
C0V350,溪埔,2014-04-04,22.738578,120.446797,1.0566499e-07
C0M660,溪口,2014-04-04,23.604131,120.403569,4.88525e-10
C1S880,壽卡,2014-04-04,22.238911,120.858903,2.7155846e-07
72D680,桃改新埔分場,2014-04-04,24.834444,121.066111,6.9029465e-10
