站號,站名,日期,lat,lon,BLBTSLS
C0R710,龍磐,2015-05-11,21.931672,120.838942,0.020928627
C1F9D1,白毛台,2015-05-11,24.158325,120.886933,6.8870337e-10
C0G940,竹塘,2015-05-11,23.848253,120.386764,0.0008226473
467590,恆春,2015-05-11,22.003897,120.746339,0.0023757615
C1O850,環湖,2015-05-11,23.148617,120.418633,3.9189286e-05
C0U710,太平山,2015-05-11,24.505486,121.525656,5.5522964e-09
C0E820,獅潭,2015-05-11,24.539133,120.920042,1.4073452e-08
C0V880,興達,2015-05-11,22.8778,120.2127,0.9617426
C0S890,關山,2015-05-11,23.0395,121.175017,0.9985735
C0SB30,新蘭,2015-05-11,22.869214,121.223228,0.9987066
C2R970,屏科大,2015-05-11,22.648275,120.619247,0.9987533
K2F750,種苗繁殖,2015-05-11,24.225972,120.800917,7.7942286e-10
C1Z130,銅門,2015-05-11,23.965694,121.492842,0.005849367
C0AD40,土城,2015-05-11,24.973208,121.445169,0.44981742
CAN140,六官養殖協會,2015-05-11,23.22881,120.29962,0.77430326
C0X180,山上,2015-05-11,23.0757,120.363253,3.4865432e-05
C0F9Z0,雪山東峰,2015-05-11,24.388792,121.268675,9.564003e-09
C1M480,獨立山,2015-05-11,23.537022,120.607797,1.4842535e-09
C0X220,學甲,2015-05-11,23.230367,120.182187,0.86411816
467650,日月潭,2015-05-11,23.881325,120.90805,6.280938e-10
C0K600,箔子寮,2015-05-11,23.6197,120.14,0.2089581
C0G830,埤頭,2015-05-11,23.866003,120.452806,3.5749888e-06
C0S950,七塊厝,2015-05-11,22.954453,121.229922,0.00020974505
467110,金門,2015-05-11,24.407306,118.289281,6.6718e-08
C0AH80,深坑,2015-05-11,25.002703,121.628328,0.10834638
467990,馬祖,2015-05-11,26.169269,119.923419,3.485014e-08
C0A970,三貂角,2015-05-11,25.007606,122.002058,0.9965654
C2D730,寶山農場,2015-05-11,24.732444,120.976153,0.010414942
C0K430,褒忠,2015-05-11,23.690938,120.303634,0.0147659015
467480,嘉義,2015-05-11,23.495925,120.432906,9.0200405e-07
C2E540,後龍,2015-05-11,24.606489,120.783933,8.254303e-08
C0V400,阿公店,2015-05-11,22.804194,120.355528,0.99693036
C0R440,大漢山,2015-05-11,22.405264,120.753181,1.7469644e-09
C0K280,四湖,2015-05-11,23.630414,120.227125,0.23920834
C1F9B1,桐林,2015-05-11,24.066172,120.735194,4.4198853e-09
C2H9U0,鳳鵬,2015-05-11,23.763919,120.788061,8.538483e-10
C0K390,土庫,2015-05-11,23.679029,120.395574,9.861141e-05
C1I450,望鄉山,2015-05-11,23.594153,120.944286,6.5711676e-09
C0E910,海埔,2015-05-11,24.648767,120.772435,1.1562707e-07
B2E890,畜試北區分所,2015-05-11,24.527806,120.770972,8.1054495e-08
C0R750,四林格山,2015-05-11,22.076989,120.802439,0.00061193784
C0F0C0,中坑,2015-05-11,24.248517,120.903319,4.4477905e-10
C1I121,大鞍,2015-05-11,23.678381,120.760017,1.1393719e-09
72U480,花改蘭陽分場,2015-05-11,24.686306,121.716583,0.9994957
C0A770,科教館,2015-05-11,25.096356,121.516507,0.5157277
C0AJ60,六塊厝,2015-05-11,25.24,121.4481,0.8761971
C0R620,墾雷,2015-05-11,21.900836,120.855269,0.003171276
467420,永康,2015-05-11,23.038386,120.2367,0.89701474
467300,東吉島,2015-05-11,23.25695,119.667467,0.9878159
C0I410,名間,2015-05-11,23.837053,120.701447,4.060234e-09
A2C560,農工中心,2015-05-11,24.985917,121.239833,5.8337202e-05
C0V740,旗山,2015-05-11,22.888614,120.483597,0.8914901
C0Z061,玉里,2015-05-11,23.3215,121.339656,0.9952423
C0S840,南田,2015-05-11,22.279725,120.889208,0.048872508
C1I470,杉林溪,2015-05-11,23.639517,120.786444,1.6354216e-09
C1X040,東原,2015-05-11,23.291597,120.463822,6.4529286e-07
C0R660,枋寮,2015-05-11,22.367722,120.590647,0.015368292
C1R120,上德文,2015-05-11,22.763272,120.704442,0.011185559
C0K450,大埤,2015-05-11,23.646074,120.431537,2.9336064e-05
C0UA00,土場,2015-05-11,24.576533,121.495333,2.7043114e-05
467080,宜蘭,2015-05-11,24.763975,121.756528,0.97970545
C0N030,四草,2015-05-11,23.0235,120.1116,0.9302443
C0V650,彌陀,2015-05-11,22.783806,120.246361,0.96754134
C0D660,新竹市東區,2015-05-11,24.798681,120.986942,0.10506285
82S580,茶改東部分場,2015-05-11,22.907694,121.130139,0.9994585
C0SB40,興隆,2015-05-11,22.913661,121.257469,0.99941444
C0C710,大溪永福,2015-05-11,24.892936,121.324975,2.3967423e-05
C0FA20,溫寮,2015-05-11,24.372177,120.583125,8.290241e-06
C0V640,湖內,2015-05-11,22.887139,120.2445,0.96324813
C0R910,下寮,2015-05-11,22.3929,120.5548,0.9869304
C0Z020,明里,2015-05-11,23.208717,121.262342,0.017863734
C0M770,嘉義梅山,2015-05-11,23.585398,120.555587,1.4027457e-07
G2F820,農業試驗所,2015-05-11,24.031261,120.688133,9.425771e-07
C0C660,楊梅,2015-05-11,24.912375,121.143047,0.00012187996
C1E511,新開,2015-05-11,24.347703,120.827019,9.893788e-10
G2F820,農試所(霧峰),2015-05-11,24.031261,120.688133,9.425771e-07
C1I070,和社,2015-05-11,23.591131,120.888861,8.5205876e-10
C2F000,大肚,2015-05-11,24.15295,120.572117,1.7716681e-09
C1S850,豐南,2015-05-11,23.122139,121.262389,0.000111020025
C2A920,富貴角,2015-05-11,25.263783,121.565258,0.9047822
CAH030,茶改場竹圍站,2015-05-11,23.860083,120.637528,1.2158476e-09
C0T960,光復,2015-05-11,23.660694,121.424964,0.9981404
C0F9M0,豐原,2015-05-11,24.254322,120.720692,4.1186237e-09
C0R720,旭海,2015-05-11,22.205403,120.887614,0.048590742
C0V710,苓雅,2015-05-11,22.622742,120.330669,0.99586505
C0C740,觀音工業區,2015-05-11,25.064764,121.114856,0.016852988
CAC040,拉拉山,2015-05-11,24.699317,121.427133,2.0536586e-09
C0V790,萬山,2015-05-11,22.905944,120.688056,1.4412287e-06
U2HA30,臺大和社,2015-05-11,23.590856,120.888864,8.5205876e-10
C0AJ90,澳底,2015-05-11,25.0552,121.9253,0.99742055
C0Z100,東華,2015-05-11,23.89525,121.549833,0.9995847
C0G970,三豐,2015-05-11,23.882,120.2895,0.036801178
V2K610,大庄合作社,2015-05-11,23.8068,120.367939,3.8035591e-06
C0V900,汕尾,2015-05-11,22.4782,120.4151,0.99815226
C1R630,龍泉,2015-05-11,22.66701,120.59091,0.56644666
C1AC50,關渡,2015-05-11,25.133486,121.469331,0.5222939
C0F9I0,神岡,2015-05-11,24.272481,120.658314,5.5165748e-09
C0K460,斗南,2015-05-11,23.678734,120.478359,1.2373833e-06
467410,臺南,2015-05-11,22.993239,120.204772,0.8991972
C2O810,曾文,2015-05-11,23.219681,120.497328,5.0863374e-08
467280,後龍,2015-05-11,24.648563,120.831834,4.354693e-08
C1F9J1,清水林,2015-05-11,24.071242,120.820419,5.9303507e-10
C2A650,火燒寮,2015-05-11,25.002719,121.742892,0.04605447
466930,竹子湖,2015-05-11,25.162078,121.544547,1.9834488e-08
C1I220,樟湖,2015-05-11,23.905333,120.846983,6.4873656e-10
C0I390,仁愛,2015-05-11,24.022122,121.132206,5.6040333e-10
C0Z300,東里,2015-05-11,23.26853,121.30547,0.9913995
C1V590,新發,2015-05-11,23.057019,120.646064,2.4158024e-07
C0K510,水林,2015-05-11,23.572924,120.24597,0.19160724
72S590,東改賓朗果園,2015-05-11,22.813889,121.071278,0.98428607
82A750,茶改北部分場,2015-05-11,24.955778,121.631222,5.1652444e-07
C1A750,石碇服務區,2015-05-11,25.00872,121.646242,0.06429284
C0X300,鹿寮,2015-05-11,23.386047,120.477331,0.00028632153
G2AI50,關渡,2015-05-11,25.11575,121.492,0.53468513
C0K590,雲林東勢,2015-05-11,23.674192,120.255721,0.0147659015
C0A570,桶後,2015-05-11,24.848222,121.597992,3.0221145e-06
C1S800,華源,2015-05-11,22.657883,121.02325,0.99240077
C0G720,溪州,2015-05-11,23.851589,120.499093,1.6383813e-06
C1V160,達卡努瓦,2015-05-11,23.279811,120.705319,1.6316173e-09
C2M410,馬頭山,2015-05-11,23.324361,120.582017,7.104804e-08
C0V850,蚵仔寮,2015-05-11,22.7256,120.2527,0.99373555
C0S740,池上,2015-05-11,23.119628,121.209469,0.9357065
C1V390,尖山,2015-05-11,22.813153,120.367789,0.9965606
C0AH70,松山,2015-05-11,25.04871,121.55042,0.29687935
C0N010,鯤鯓國小,2015-05-11,23.1879,120.0889,0.941452
C0R550,新埤,2015-05-11,22.467947,120.582894,0.6878169
C0SA60,知本（水試所）,2015-05-11,22.702394,121.082761,0.9253947
C0T9I0,豐濱,2015-05-11,23.583897,121.514806,0.9948527
C0UB00,淡江大學蘭陽校園,2015-05-11,24.823239,121.730383,3.5742355e-06
C0W240,九宮,2015-05-11,24.423753,118.240186,0.016888164
C0T9N0,富里,2015-05-11,23.171639,121.249378,0.5909079
U2HA50,臺大竹山,2015-05-11,23.756972,120.681556,2.08736e-09
C0V840,鳳鼻頭,2015-05-11,22.5083,120.3591,0.9955362
C0X140,西港,2015-05-11,23.125608,120.203108,0.83964574
72D080,桃改五峰分場,2015-05-11,24.612194,121.157167,7.7427537e-10
C2H9P0,伊拿谷,2015-05-11,23.963211,121.088264,5.654842e-10
C2H9F0,柑林,2015-05-11,24.018658,120.847072,1.1266414e-09
C0TA20,加灣,2015-05-11,24.082025,121.608944,0.9994776
C0V530,阿蓮,2015-05-11,22.883208,120.327508,0.98683906
C1O880,關山,2015-05-11,23.173397,120.594092,4.0342215e-08
C0E791,卓蘭,2015-05-11,24.3126,120.8244,9.42192e-10
C1I030,武界,2015-05-11,23.913225,121.052483,5.626568e-10
C0R520,崁頂,2015-05-11,22.514781,120.506914,0.9883919
C0R341,牡丹,2015-05-11,22.130036,120.792639,0.0036485775
C0R930,萬丹,2015-05-11,22.5885,120.4851,0.728113
C0S760,紅石,2015-05-11,23.069131,121.126219,4.929366e-09
C1M610,石磐龍,2015-05-11,23.496606,120.663506,1.1793484e-09
C0UA10,鴛鴦湖,2015-05-11,24.590269,121.412228,3.1888596e-09
V2C260,八德蔬果,2015-05-11,24.978508,121.281819,2.7513183e-06
C0R800,丹路,2015-05-11,22.204481,120.750989,0.0042696414
C0G920,永靖,2015-05-11,23.924703,120.547533,7.488557e-06
C2M950,太和,2015-05-11,23.538372,120.702961,1.2745766e-09
C1A630,下盆,2015-05-11,24.771003,121.538622,2.3668617e-06
B2N890,畜產試驗所,2015-05-11,23.058972,120.336406,0.9149859
C0UA30,白嶺,2015-05-11,24.527819,121.519031,7.3215847e-09
C1V580,溪南(特生中心),2015-05-11,23.084972,120.788475,2.1308164e-09
C1T970,大農,2015-05-11,23.615233,121.413331,0.9867157
E2S960,林試太麻里2,2015-05-11,22.598014,120.989761,0.70419526
C0R650,竹田,2015-05-11,22.58486,120.54344,0.72364515
C1H900,清流,2015-05-11,24.080775,120.962997,5.1387067e-10
C1C510,水尾,2015-05-11,24.940081,121.087161,0.008512289
C0F9X0,大雅(中科園區),2015-05-11,24.21528,120.62445,1.0240444e-07
C0SB60,白守蓮,2015-05-11,23.126769,121.401914,0.8697826
C0O970,虎頭埤,2015-05-11,23.021375,120.347878,0.78251857
C0C730,中大臨海站,2015-05-11,24.966126,121.008581,0.021094827
C0X250,新營,2015-05-11,23.310689,120.316681,0.29343918
C0V700,三民,2015-05-11,22.645017,120.311233,0.99586505
C0U870,大礁溪,2015-05-11,24.791042,121.675047,6.010525e-07
C0E870,高鐵苗栗,2015-05-11,24.60725,120.826094,6.198895e-08
A2K570,古坑花卉中心,2015-05-11,23.63353,120.55239,2.1224702e-07
C0M860,新美,2015-05-11,23.338017,120.683169,2.7468934e-09
C1E701,八卦,2015-05-11,24.491756,120.927619,1.1534668e-09
C0I420,國姓,2015-05-11,24.037803,120.855072,6.0837966e-09
C2D720,關西工作站,2015-05-11,24.757275,121.184792,0.00025252622
C0S960,香蘭,2015-05-11,22.587569,120.993375,0.70419526
C0R260,春日,2015-05-11,22.370361,120.628306,0.65759087
72G600,臺中農改場,2015-05-11,24.003028,120.534389,9.75962e-05
C0Z210,瑞穗,2015-05-11,23.5239,121.39021,0.9975015
C0M820,達邦,2015-05-11,23.453994,120.749517,9.53271e-10
C0V860,南寮,2015-05-11,22.7616,120.2339,0.9662893
C0G740,大城,2015-05-11,23.852487,120.320935,0.020196166
C0R920,塭仔,2015-05-11,22.4169,120.5197,0.9858876
C0R470,高樹,2015-05-11,22.826389,120.600806,0.0047137383
C0R680,佳樂水,2015-05-11,21.993578,120.861633,0.0019455763
C1O870,大棟山,2015-05-11,23.31157,120.52226,1.2031641e-09
C0D360,梅花,2015-05-11,24.678347,121.208558,4.9448845e-09
C0Z190,富世,2015-05-11,24.14743,121.6297,0.96096426
C0AI10,屈尺,2015-05-11,24.92184,121.54475,0.10834638
B2U990,畜試東區分所,2015-05-11,24.669039,121.832561,0.99962044
C0SB80,長濱漁港,2015-05-11,23.313644,121.459994,0.99962914
C0R240,來義,2015-05-11,22.527306,120.625111,0.69252205
C0V910,大樹,2015-05-11,22.684645,120.432803,0.99813133
C1R610,西大武山,2015-05-11,22.617719,120.7322,1.962929e-09
C0G900,線西,2015-05-11,24.143358,120.443536,0.020941641
C0M700,竹崎,2015-05-11,23.526178,120.555508,4.4867342e-08
C2E880,三義,2015-05-11,24.405478,120.749819,6.461926e-10
C0C720,竹圍,2015-05-11,25.112692,121.239824,0.85901093
C0F9P0,清水,2015-05-11,24.312297,120.562242,1.47889805e-05
C0Z150,吉安光華,2015-05-11,23.930925,121.595153,0.9996142
C1D640,外坪(五指山),2015-05-11,24.644447,121.090961,3.4189096e-09
C0F9O0,潭子,2015-05-11,24.213106,120.703933,6.3421677e-09
C2H9R0,卓社,2015-05-11,23.887894,121.000086,6.310261e-10
72T250,花蓮農改場,2015-05-11,23.975222,121.563889,0.999247
C0E780,銅鑼,2015-05-11,24.489681,120.790853,8.9824415e-09
C1T950,太安,2015-05-11,23.666719,121.370128,2.8182908e-08
C0E830,苑裡,2015-05-11,24.439714,120.653053,1.9780007e-06
467270,田中,2015-05-11,23.873803,120.581286,9.1675076e-08
C0SA10,檳榔四格山,2015-05-11,22.810031,121.109308,0.04799672
C1T830,布洛灣,2015-05-11,24.17184,121.57127,0.893843
C0F970,大坑,2015-05-11,24.173142,120.722289,1.6056944e-08
C1U920,思源,2015-05-11,24.393125,121.347214,3.78262e-09
C0A931,三和,2015-05-11,25.233153,121.595236,0.10043708
C0I010,廬山,2015-05-11,24.033311,121.181808,8.902154e-10
C2M940,日野賀,2015-05-11,23.434056,120.727169,1.3183635e-09
C0R860,鼻頭,2015-05-11,22.1043,120.8979,0.00035023288
C0UB20,壯圍,2015-05-11,24.7359,121.8163,0.99962044
C0R790,九棚,2015-05-11,22.14195,120.889281,0.018575728
C0W110,東莒,2015-05-11,25.9652,119.98069,2.4590493e-06
C1U930,粉鳥林,2015-05-11,24.497088,121.842479,0.9956145
C1I211,蘆竹湳,2015-05-11,23.934019,120.811994,7.8290185e-10
C0S830,長濱,2015-05-11,23.286817,121.411975,0.0018250863
C1F9F1,伯公龍,2015-05-11,24.272392,120.849047,7.0239e-10
C0E810,西湖,2015-05-11,24.562947,120.7485,4.088539e-08
C1I440,新高口,2015-05-11,23.478744,120.878939,3.6336325e-09
C0O840,王爺宮,2015-05-11,23.222064,120.40085,5.0854354e-08
C0T9G0,鳳林山,2015-05-11,23.735269,121.420131,0.55918044
C0X080,佳里,2015-05-11,23.173039,120.145086,0.88689697
C0FB70,大甲溪埔,2015-05-11,24.370625,120.620067,1.6714396e-06
C0Z310,清水斷崖,2015-05-11,24.218294,121.689142,0.99938375
C0M680,太保,2015-05-11,23.455062,120.331455,0.26256502
C1S820,金峰,2015-05-11,22.590969,120.933236,0.85276216
C0AD10,八里,2015-05-11,25.150211,121.403947,0.85901093
C2K240,草嶺,2015-05-11,23.59555,120.693461,9.897752e-10
C1SA70,都蘭,2015-05-11,22.87794,121.226881,0.99941444
C0K440,二崙,2015-05-11,23.772797,120.408944,0.000571929
C1A760,坪林交控,2015-05-11,24.94284,121.713442,0.0032973175
C0F9N0,大里,2015-05-11,24.092464,120.701378,5.906729e-06
C0SA90,達仁林場,2015-05-11,22.264347,120.823972,0.8581586
C1R290,石門山,2015-05-11,22.112611,120.756597,0.0055414997
42HA10,萬大發電廠,2015-05-11,23.978875,121.139639,1.7605216e-09
C0R890,山海,2015-05-11,21.9878,120.7091,0.001367628
C0T9A0,月眉山,2015-05-11,23.809928,121.539828,7.694957e-05
C0AC70,信義,2015-05-11,25.037822,121.564597,0.2968793
C0K560,棋山,2015-05-11,23.68645,120.603417,5.944688e-07
C2FB50,出雲,2015-05-11,24.206469,120.902794,5.50834e-10
C1Z240,中平林道,2015-05-11,23.42115,121.26763,9.7231435e-08
U2H480,溪頭,2015-05-11,23.670306,120.798194,7.8460904e-10
C0M880,好美里,2015-05-11,23.3364,120.138,0.88689697
C0T9E0,大坑,2015-05-11,23.880628,121.581981,0.0053746784
C0K530,臺西,2015-05-11,23.701547,120.197559,0.07018551
C1E900,國一N128K,2015-05-11,24.560997,120.844186,2.409766e-08
C0AJ50,水湳洞,2015-05-11,25.123695,121.862238,0.99970794
C0AI20,白沙灣,2015-05-11,25.283128,121.519058,0.96274024
C0A860,大坪,2015-05-11,25.165914,121.632969,1.0627641e-07
C1U850,觀音海岸,2015-05-11,24.38319,121.77856,1.6613089e-07
C2K610,草嶺石壁,2015-05-11,23.602469,120.707731,1.1786108e-09
C0U950,鶯子嶺,2015-05-11,24.89754,121.79244,1.5330178e-08
C0O900,善化,2015-05-11,23.112883,120.297219,0.96014965
C0K550,蔦松,2015-05-11,23.514319,120.229736,0.58289886
E2P980,林試六龜中心,2015-05-11,22.991703,120.645722,0.00026393594
C0E590,通霄,2015-05-11,24.471892,120.704622,1.9537065e-07
C1I310,西巒,2015-05-11,23.754486,120.883956,7.4052436e-10
C0A550,泰平,2015-05-11,24.971197,121.823711,8.498956e-05
C0I360,水里,2015-05-11,23.812553,120.849792,1.4817163e-09
C0R830,高士,2015-05-11,22.121825,120.836781,0.004602277
C1I101,溪頭,2015-05-11,23.661789,120.807647,1.5101107e-09
C0AJ20,野柳,2015-05-11,25.20703,121.690021,0.9997079
C0B060,暖暖,2015-05-11,25.0957,121.7403,0.99915326
C1H920,長豐,2015-05-11,24.102039,120.879897,5.801345e-10
C0V360,內門,2015-05-11,22.975481,120.466769,0.009963988
C0R850,林邊,2015-05-11,22.4634,120.5339,0.9883919
C0E930,龍鳳,2015-05-11,24.700034,120.859125,2.2829055e-07
C0U910,冬山,2015-05-11,24.63373,121.7937,0.99962044
C1E721,泰安,2015-05-11,24.489017,120.968036,7.0431505e-10
82H320,茶改中部分場,2015-05-11,23.875611,120.913583,6.559519e-10
C0M750,布袋,2015-05-11,23.380878,120.167789,0.8837775
C1S860,利嘉,2015-05-11,22.809417,121.050528,1.6797742e-08
72C440,桃園農改,2015-05-11,24.950944,121.030583,0.015790857
E2S980,林試太麻里1,2015-05-11,22.598922,120.980044,0.7758275
C0X170,關廟,2015-05-11,22.963017,120.327797,0.9638713
C0V720,林園,2015-05-11,22.507747,120.394511,0.99586505
C1I510,線浸林道,2015-05-11,23.761508,120.832956,8.149032e-10
C0D690,外湖,2015-05-11,24.917735,120.968711,0.021035668
C0C750,新興坑尾,2015-05-11,25.0061,121.0971,0.0011871848
B2Q810,畜試南區分所,2015-05-11,21.945583,120.802167,0.0021997008
C0S790,金崙,2015-05-11,22.538122,120.966875,0.8584179
C0AH90,福山植物園,2015-05-11,24.760717,121.58135,7.652596e-09
C0I540,奇萊稜線,2015-05-11,24.109231,121.326456,9.394325e-09
C0M850,表湖,2015-05-11,23.24186,120.64166,1.978264e-09
C0S770,大溪山,2015-05-11,22.478475,120.943325,0.7260765
C0AG80,中和,2015-05-11,24.991622,121.491792,0.2957792
C0T790,大禹嶺,2015-05-11,24.186117,121.316086,6.4424968e-09
C0T9B0,水源,2015-05-11,23.991861,121.537169,8.857786e-06
C0R840,牡丹池山,2015-05-11,22.168389,120.841225,0.81940204
C1I131,桶頭,2015-05-11,23.641944,120.654117,3.2826257e-09
CAL110,布袋國中,2015-05-11,23.35893,120.18026,0.7177985
467571,新竹,2015-05-11,24.827853,121.014219,0.17981404
C0Z290,赤柯山,2015-05-11,23.36893,121.38293,3.219428e-07
C0X280,將軍,2015-05-11,23.214999,120.13577,0.88689697
C0S690,太麻里,2015-05-11,22.60902,120.98533,1.3318208e-05
C0U880,北關,2015-05-11,24.9072,121.8734,0.9969882
C1H860,瑞岩,2015-05-11,24.123772,121.18345,1.1508166e-09
C0G810,埔心,2015-05-11,23.947633,120.525456,1.248004e-05
C0U970,大福,2015-05-11,24.80064,121.81389,0.98112017
C2H9N0,仁愛東眼,2015-05-11,24.026875,121.1205,7.218967e-10
C1E670,南礦,2015-05-11,24.538278,121.002836,7.2152784e-10
C0M520,東後寮,2015-05-11,23.369908,120.248065,0.6670063
C1E461,松安,2015-05-11,24.397972,120.986022,6.5176525e-10
72G600,臺中農改,2015-05-11,24.003028,120.534389,9.75962e-05
C2N160,西拉雅風管處,2015-05-11,23.189481,120.335297,0.5503033
C2M970,碧湖,2015-05-11,23.568632,120.624165,9.897714e-10
C0A640,石碇,2015-05-11,24.993969,121.662917,0.5447036
E2S960,林試太麻里2,2015-05-11,22.598,120.99775,0.697811
C0F9Y0,桃山,2015-05-11,24.432739,121.303808,1.0497232e-08
C1I020,萬大,2015-05-11,23.979817,121.132261,5.581994e-10
C0U940,羅東,2015-05-11,24.68184,121.74934,0.9995866
C0M650,朴子,2015-05-11,23.43463,120.23902,0.8620499
C1I500,大尖山,2015-05-11,23.858572,120.994889,1.5616944e-09
C0G820,田尾,2015-05-11,23.901669,120.509389,7.4868003e-06
E2K600,四湖植物園,2015-05-11,23.676986,120.163433,0.07018551
C0S730,綠島,2015-05-11,22.6672,121.47533,0.9859798
12Q970,東港工作站,2015-05-11,22.479997,120.466058,0.9869304
C0E430,南庄,2015-05-11,24.601775,121.000214,1.1453775e-08
C1TA00,太魯閣,2015-05-11,24.15773,121.6236,0.99947745
466920,臺北,2015-05-11,25.037658,121.514853,0.29687935
C0R600,舊泰武,2015-05-11,22.588194,120.664944,0.9201672
C1I260,北坑,2015-05-11,23.9246,121.006903,8.4023555e-10
466910,鞍部,2015-05-11,25.182586,121.529731,1.1778697e-08
C1I230,九份二山,2015-05-11,23.961944,120.845,5.302767e-10
C2A660,瑞芳,2015-05-11,25.113169,121.801147,0.98949325
C0R270,琉球嶼,2015-05-11,22.332244,120.362236,0.65759087
C1T990,高寮,2015-05-11,23.394239,121.356808,0.9994515
C0G620,芬園,2015-05-11,24.015678,120.6213,5.6323824e-08
C1Z140,荖溪,2015-05-11,23.890575,121.45964,1.6816111e-08
C1I201,中心崙,2015-05-11,23.728722,120.712097,9.413478e-10
C1I400,凌霄,2015-05-11,24.018778,121.004456,7.116081e-10
C1M640,十字,2015-05-11,23.492153,120.753683,1.2028705e-09
G2P820,農試鳳山分所,2015-05-11,22.646611,120.356083,0.9963859
C0Z270,蕃薯寮,2015-05-11,23.73835,121.540108,0.99527
C0F9Q0,外埔,2015-05-11,24.347817,120.705686,9.0658e-09
C0K580,高鐵雲林,2015-05-11,23.737456,120.417944,9.861141e-05
C2I090,鳳凰,2015-05-11,23.728081,120.787347,6.3792405e-10
C0U990,員山,2015-05-11,24.74435,121.72247,0.9995866
C0V770,大社,2015-05-11,22.730306,120.346639,0.9946462
C0X120,麻豆,2015-05-11,23.183289,120.248611,0.8641181
C0C670,龍潭,2015-05-11,24.870056,121.221389,6.992424e-09
C0D680,香山濕地,2015-05-11,24.783581,120.914988,0.097379275
C0S980,勝林山,2015-05-11,22.430439,120.8938,0.8913785
C0V730,大寮,2015-05-11,22.605614,120.395717,0.73226434
C0R570,麟洛,2015-05-11,22.65078,120.52719,0.998918
C2M930,石卓,2015-05-11,23.478744,120.702264,1.1824972e-09
C0G9B0,和美,2015-05-11,24.105169,120.492131,0.0007924429
CAG100,王功漁港,2015-05-11,23.96824,120.32586,6.770475e-05
C0X290,北門,2015-05-11,23.267772,120.125481,0.88689697
C2F930,大甲,2015-05-11,24.347667,120.640403,3.8120606e-07
C0D650,湖口,2015-05-11,24.904794,121.043628,0.007836082
C0E420,竹南,2015-05-11,24.708978,120.888897,0.050686877
C0U780,五結,2015-05-11,24.68637,121.79794,0.99962044
C1I250,鯉潭,2015-05-11,23.961922,120.991131,5.801345e-10
C0R130,阿禮,2015-05-11,22.742908,120.743678,5.6664756e-08
C0X100,臺南市北區,2015-05-11,23.010394,120.194228,0.8896467
C0S920,金峰嘉蘭,2015-05-11,22.594789,120.960825,0.7937252
C0V490,新興,2015-05-11,22.627422,120.298803,0.99586505
C0F9K0,大安,2015-05-11,24.345061,120.588025,7.425415e-06
72N100,臺南農改,2015-05-11,23.0605,120.342194,0.9149859
467290,古坑,2015-05-11,23.633639,120.551889,2.1224702e-07
C2E970,八甲,2015-05-11,24.535811,120.795983,7.677918e-09
C0V440,鳳山,2015-05-11,22.646653,120.356122,0.9963859
C1T940,大觀,2015-05-11,23.714206,121.373133,0.02619709
72T250,花蓮農改,2015-05-11,23.975222,121.563889,0.999247
C0E740,造橋,2015-05-11,24.637056,120.864778,9.290071e-08
C0R100,尾寮山,2015-05-11,22.833111,120.683889,4.0405186e-09
A2K630,臺大雲林校區,2015-05-11,23.730628,120.423903,9.861141e-05
C0D580,寶山,2015-05-11,24.735006,121.025192,5.4691494e-08
E2P990,林試扇平站,2015-05-11,22.9677,120.6857,7.7072356e-05
C0AI30,三重,2015-05-11,25.057328,121.500629,0.5157277
C0AH00,汐止,2015-05-11,25.066881,121.658778,0.9997079
C1Z040,立山,2015-05-11,23.443356,121.327375,0.01486048
C0W130,花嶼,2015-05-11,23.40007,119.32276,0.9997647
C0A950,鼻頭角,2015-05-11,25.129036,121.923372,0.9976996
C0K470,林內,2015-05-11,23.748675,120.609642,6.10371e-07
C2F990,摩天嶺,2015-05-11,24.322458,120.936819,4.4756523e-10
82C160,茶改場,2015-05-11,24.908472,121.185333,3.0182493e-05
C0Z320,清水林道,2015-05-11,23.27125,121.188272,9.79884e-07
C0R760,南仁湖,2015-05-11,22.084681,120.863353,0.0058917976
C0M670,大林,2015-05-11,23.600616,120.45841,5.205969e-07
C0M800,茶山,2015-05-11,23.299075,120.664767,4.085031e-08
C0A9C0,天母,2015-05-11,25.117494,121.537169,0.4287591
72K220,南改斗南分場,2015-05-11,23.634556,120.477333,8.158135e-06
72AI40,桃改樹林分場,2015-05-11,24.944503,121.386972,0.35738483
C0S910,蘭嶼燈塔,2015-05-11,22.081197,121.503117,0.05300806
C0B050,八斗子,2015-05-11,25.144754,121.79167,0.9997648
C0U900,內城,2015-05-11,24.71813,121.68766,0.9606764
C0X320,柳營,2015-05-11,23.253328,120.375253,2.6673135e-05
C0M790,新港,2015-05-11,23.553269,120.345728,0.0061909743
C0F9T0,西屯,2015-05-11,24.179494,120.641275,9.875911e-07
C0SA30,都歷,2015-05-11,23.020333,121.323642,0.9719684
C0C620,蘆竹,2015-05-11,25.084275,121.265767,0.8102662
C0R730,大坪頂,2015-05-11,22.024633,120.69355,0.012169282
C0AJ40,石門,2015-05-11,25.273672,121.601198,0.03626102
C0E750,苗栗,2015-05-11,24.564569,120.824575,2.8325125e-08
C0T870,鯉魚潭,2015-05-11,23.935639,121.508944,0.99849004
C1V170,排雲,2015-05-11,23.463619,120.954147,1.23748976e-08
C2H950,中寮,2015-05-11,23.884447,120.766406,1.6510896e-09
C0R350,貓鼻頭,2015-05-11,21.921774,120.7358,0.0031820557
C0V660,岡山,2015-05-11,22.797078,120.294958,0.9933209
C1H941,雙冬,2015-05-11,23.967378,120.802189,8.305922e-10
C0AJ70,田寮,2015-05-11,25.2698,121.4886,0.9675821
C0AI00,五股,2015-05-11,25.07445,121.42728,4.981665e-07
C0Z280,德武,2015-05-11,23.47426,121.41071,0.99545
C0R700,枋山,2015-05-11,22.246844,120.661086,0.0024828964
C0C460,復興,2015-05-11,24.820208,121.352281,8.784867e-08
E2H360,蓮華池,2015-05-11,23.918333,120.885278,6.3974565e-10
C0M640,中埔,2015-05-11,23.42538,120.5229,1.5017309e-06
C0W140,金沙,2015-05-11,24.488292,118.408778,1.8368644e-07
C2A540,四堵,2015-05-11,24.8926,121.745736,1.2415155e-05
C0ACA0,新莊,2015-05-11,25.051478,121.446756,0.89898944
C0R220,潮州,2015-05-11,22.534361,120.54,0.010419645
U2HA40,臺大內茅埔,2015-05-11,23.689722,120.851117,7.6570883e-10
467490,臺中,2015-05-11,24.145736,120.684075,4.5772694e-08
C0U960,翠峰湖,2015-05-11,24.510856,121.608044,5.389945e-09
E2HA20,林試畢祿溪站,2015-05-11,24.226944,121.308522,2.5724671e-09
C0V890,前鎮,2015-05-11,22.5718,120.3117,0.9955362
467620,蘭嶼,2015-05-11,22.036969,121.558339,0.69288886
C1F941,雪嶺,2015-05-11,24.280586,121.026642,4.06555e-09
C2H9E0,國姓南港,2015-05-11,23.911108,120.846556,6.6148503e-10
C0AC80,文山,2015-05-11,25.00235,121.575728,0.10834638
C0F9R0,龍井,2015-05-11,24.184536,120.528972,0.00027524473
C0M760,民雄,2015-05-11,23.551754,120.428457,6.4490774e-07
C0UA40,西德山,2015-05-11,24.560647,121.752608,2.3738636e-08
C1T920,中興,2015-05-11,23.769503,121.498653,0.9994989
C0D550,雪霸,2015-05-11,24.526972,121.11605,1.6786939e-09
C2F860,梨山,2015-05-11,24.247522,121.243669,2.6857807e-09
C0R320,車城,2015-05-11,22.0744,120.716247,0.001367628
C1S870,南美山,2015-05-11,23.15025,121.382333,0.9989923
C0B020,基隆嶼,2015-05-11,25.19141,121.78391,0.9997084
C1U501,牛鬥,2015-05-11,24.637836,121.573656,0.0012543979
C0M730,嘉義市東區,2015-05-11,23.457673,120.460531,2.4555078e-07
C0S700,知本,2015-05-11,22.684866,121.005642,9.43941e-05
C1N001,沙崙,2015-05-11,22.935472,120.309406,0.9868386
C0V760,橋頭,2015-05-11,22.757806,120.30575,0.9933663
C0G960,福寶,2015-05-11,24.0443,120.3814,0.024201939
C0X210,白河,2015-05-11,23.347466,120.414427,2.0638947e-05
C0S810,東河,2015-05-11,22.972672,121.303986,0.99931043
C2R170,屏東,2015-05-11,22.66027,120.49403,0.99892056
C0R670,楓港,2015-05-11,22.190131,120.692156,0.0024828964
C0FA50,霧峰,2015-05-11,24.0419,120.6995,1.612004e-06
C0UB10,蘇澳,2015-05-11,24.5969,121.8571,0.99911433
C0G950,防潮門,2015-05-11,24.1835,120.4871,0.0003484742
C0M740,六腳,2015-05-11,23.492871,120.290625,0.39253312
C1R250,力里,2015-05-11,22.428117,120.629228,0.69252205
C0K330,虎尾,2015-05-11,23.719183,120.442036,5.3054282e-05
C2FA00,烏石坑,2015-05-11,24.273503,120.947617,4.447867e-10
C0V620,永安,2015-05-11,22.82315,120.236856,0.96754134
C1I330,楓樹林,2015-05-11,23.986803,121.076117,6.1770306e-10
C0W200,湖西,2015-05-11,23.596314,119.67275,0.9971838
72Q010,高雄農改場,2015-05-11,22.709333,120.525889,0.9989139
C0SA40,瑞和,2015-05-11,22.974361,121.156697,0.9975995
C0C680,龜山,2015-05-11,25.02846,121.38656,0.09395583
C2V260,月眉,2015-05-11,22.971003,120.539853,0.00025423252
C0V450,鳳森,2015-05-11,22.545064,120.392592,0.64137536
C0U720,南山,2015-05-11,24.43742,121.38167,1.5135026e-08
A2N290,臺南蘭花園區,2015-05-11,23.340258,120.379661,2.6669471e-05
C0R560,新園,2015-05-11,22.5434,120.461558,0.9883919
C0U890,三星,2015-05-11,24.66812,121.65302,0.78484964
C1V300,御油山,2015-05-11,23.001983,120.715364,2.1364122e-09
C0U600,礁溪,2015-05-11,24.817539,121.765608,0.9738089
C1T980,龍澗,2015-05-11,24.023289,121.411328,1.3801931e-08
C0D670,海天一線,2015-05-11,24.831986,120.914438,0.122967474
C0SA00,歷坵,2015-05-11,22.520969,120.89185,0.6024936
C0M710,東石,2015-05-11,23.458927,120.15385,0.58289886
C0M780,鹿草,2015-05-11,23.41134,120.30835,0.4553136
C0U520,雙連埤,2015-05-11,24.753033,121.641303,5.1802954e-07
C0B010,七堵,2015-05-11,25.094819,121.71713,0.999597
C0R480,長治,2015-05-11,22.693128,120.542622,0.022982622
C1V830,國三S383K,2015-05-11,22.781967,120.426475,0.9861477
12Q980,恆春工作站,2015-05-11,22.079678,120.714425,0.001367628
C1O940,東山服務區,2015-05-11,23.286016,120.398472,8.089446e-06
C1U840,東澳嶺,2015-05-11,24.5378,121.8485,1.7693381e-07
C1D630,飛鳳山,2015-05-11,24.766464,121.119178,3.4537517e-09
C0S940,石寧山,2015-05-11,23.223772,121.406639,0.97411495
C0K410,北港,2015-05-11,23.573957,120.292802,0.009959436
C2M620,瑞里,2015-05-11,23.545133,120.675197,1.2103893e-09
C0SB70,小港漁港,2015-05-11,23.158558,121.400431,0.9995875
C2O950,安南,2015-05-11,23.076694,120.144861,0.3543939
C0F0E0,南湖圈谷,2015-05-11,24.363714,121.444667,1.8777769e-08
467610,成功,2015-05-11,23.097486,121.373428,0.9184686
C0G890,伸港,2015-05-11,24.148933,120.484403,0.0017243663
C2E540,龍溪,2015-05-11,24.606489,120.783933,8.254303e-08
C1V200,梅山,2015-05-11,23.268447,120.823556,4.0574704e-09
C0T9H0,加路蘭山,2015-05-11,23.682947,121.5274,0.00012884583
C2O930,玉井,2015-05-11,23.126042,120.46055,3.9189286e-05
C1F911,新伯公,2015-05-11,24.221361,120.841069,9.211968e-10
C0R490,九如,2015-05-11,22.7405,120.490503,0.998918
C0X200,左鎮,2015-05-11,23.056758,120.408522,5.5905606e-05
C0SB50,叭嗡嗡,2015-05-11,23.047062,121.343223,0.99885166
C1F891,稍來,2015-05-11,24.265689,121.001142,2.2241118e-09
72N240,七股研究中心,2015-05-11,23.081672,120.062894,0.25236925
C0C700,中壢,2015-05-11,24.977661,121.256375,1.6315223e-06
C0M690,水上,2015-05-11,23.419734,120.388909,4.133946e-05
C0V690,鼓山,2015-05-11,22.623325,120.275575,0.99586505
C0O860,大內,2015-05-11,23.11885,120.36083,0.0013547286
C0Z200,萬榮,2015-05-11,23.709219,121.420106,0.99849004
C0T9D0,和中,2015-05-11,24.26676,121.74103,0.99970984
C1O921,楠西,2015-05-11,23.183511,120.484083,1.2040667e-06
C0AJ30,淡水觀海,2015-05-11,25.184591,121.408616,0.8761971
C0V810,左營,2015-05-11,22.67491,120.28491,0.99437314
C0UA70,桃源谷,2015-05-11,24.962606,121.888875,3.2656033e-06
C0X130,官田,2015-05-11,23.193217,120.315422,0.6507536
C1H000,翠峰,2015-05-11,24.109397,121.205211,3.5876229e-09
C0UA90,石城,2015-05-11,24.980444,121.951214,0.9985617
C1E681,南勢山,2015-05-11,24.421669,120.923831,4.1964746e-10
C0A9F0,內湖,2015-05-11,25.079422,121.57545,0.29687935
C0K291,宜梧,2015-05-11,23.536281,120.169329,0.7061532
C1K540,口湖,2015-05-11,23.585344,120.180517,0.288942
C0R780,滿州,2015-05-11,22.024403,120.839892,0.0038142568
C0V870,文安,2015-05-11,22.8025,120.2164,0.96665454
C0U650,玉蘭,2015-05-11,24.675286,121.587061,0.0007266721
C0R640,東港,2015-05-11,22.46247,120.44074,0.9955362
K2E360,苗栗農改,2015-05-11,24.495722,120.829111,2.4777627e-08
C0AJ80,板橋,2015-05-11,25.0107,121.4489,0.44981742
C0S660,下馬,2015-05-11,23.150427,121.070312,5.5566975e-06
C1H9B1,阿眉,2015-05-11,24.1263,120.994672,1.0242057e-09
C0UA20,多加屯,2015-05-11,24.368614,121.373189,5.167212e-09
C0E730,頭份,2015-05-11,24.688247,120.912206,0.050686877
72V140,高改旗南分場,2015-05-11,22.857861,120.516667,2.041216e-05
C0K480,莿桐,2015-05-11,23.761192,120.502372,7.4469915e-07
C0U980,坪林石牌,2015-05-11,24.86478,121.77396,4.790222e-06
C0T900,西林,2015-05-11,23.8119,121.441458,0.99441916
C1I150,青雲,2015-05-11,23.793361,120.949378,6.329452e-10
467350,澎湖,2015-05-11,23.565503,119.563094,0.99969375
C0G800,埔鹽,2015-05-11,24.000394,120.431683,0.019501807
C0H960,草屯,2015-05-11,23.973672,120.68085,6.4595875e-09
C1V780,多納林道,2015-05-11,22.888028,120.737917,1.2723881e-09
C0E920,通霄漁港,2015-05-11,24.498589,120.673876,7.155646e-07
C0Z330,安通山,2015-05-11,23.290728,121.348528,0.0003044298
C0AH10,永和,2015-05-11,25.01125,121.508111,0.34456038
C0AK10,太平里,2015-05-11,25.134937,121.364899,0.89898944
C2G640,鹿港,2015-05-11,24.0753,120.430481,0.019521024
C1E890,國三N149K,2015-05-11,24.463414,120.680019,1.217089e-07
C1R110,口社,2015-05-11,22.770111,120.645222,0.002566336
C1M870,國三N285K,2015-05-11,23.550319,120.505833,1.3688914e-07
467050,新屋,2015-05-11,25.006744,121.047486,0.019923577
C1E480,鳳美,2015-05-11,24.554803,121.034747,9.576447e-10
C0M530,奮起湖,2015-05-11,23.493903,120.699253,1.2801754e-09
C0C590,觀音,2015-05-11,25.027072,121.153317,0.80838805
C0T9M0,靜浦,2015-05-11,23.455167,121.495028,0.9989674
C2H9M0,發祥,2015-05-11,24.154094,121.164517,6.1773137e-10
C0AI40,石牌,2015-05-11,25.115597,121.513139,0.44981742
C1F871,上谷關,2015-05-11,24.203483,121.018644,4.447519e-10
C2H9G0,百勝,2015-05-11,24.051142,120.909361,7.5609263e-10
C0G880,二水,2015-05-11,23.810742,120.6173,2.811156e-08
C0R940,加祿堂,2015-05-11,22.3363,120.6217,0.56806916
C0W220,北竿,2015-05-11,26.220358,119.974881,2.8419556e-08
C0O960,崎頂,2015-05-11,22.959547,120.369317,4.515461e-05
C0S750,向陽,2015-05-11,23.248397,120.986133,4.131566e-09
C0T9F0,水璉,2015-05-11,23.797131,121.542514,0.57611847
C1M600,頭凍,2015-05-11,23.406364,120.603339,1.8017624e-09
467660,臺東,2015-05-11,22.752211,121.154586,0.9985089
C1D380,新埔,2015-05-11,24.84745,121.03834,0.012502616
C2G980,田頭村,2015-05-11,23.8263,120.444175,0.000571929
C0V750,路竹,2015-05-11,22.854997,120.259439,0.9852439
C0N050,蚵寮,2015-05-11,23.301,120.1104,0.9414521
72M700,南改鹿草分場,2015-05-11,23.416869,120.283061,0.5711114
C1SA50,利嘉林道,2015-05-11,22.82325,121.009389,3.7767878e-09
467550,玉山,2015-05-11,23.487614,120.959522,1.44447245e-08
C0A940,金山,2015-05-11,25.223628,121.643967,0.9418449
C1V340,大津,2015-05-11,22.888322,120.645986,0.98187876
C0W180,七美,2015-05-11,23.219333,119.444892,0.9996394
C1F9C1,白冷,2015-05-11,24.182844,120.929889,7.210229e-10
K2E710,苗改生物防治研究中心,2015-05-11,24.422861,120.871833,2.3345865e-09
C0N040,蘆竹溝,2015-05-11,23.2344,120.0961,0.941452
C2W230,畜試所澎湖,2015-05-11,23.628342,119.513206,0.99957824
C0R880,後壁湖,2015-05-11,21.9457,120.7457,0.0011002314
C1I280,埔中,2015-05-11,23.820778,120.642594,2.334649e-09
467790,墾丁雷達站,2015-05-11,21.948235,120.808028,0.004958369
C0W190,望安,2015-05-11,23.380564,119.494075,0.99971837
466881,新北,2015-05-11,24.9593,121.52,0.20821086
C0Z170,卓溪,2015-05-11,23.3443,121.3029,0.98307097
C0F850,東勢,2015-05-11,24.246428,120.833047,1.0450281e-09
466900,淡水,2015-05-11,25.164889,121.448906,0.85901093
C0I370,魚池,2015-05-11,23.895703,120.94135,6.5205624e-10
C0C630,大溪,2015-05-11,24.882853,121.265547,2.6070084e-05
C0A520,山佳,2015-05-11,24.974944,121.402008,0.35738483
C0I110,竹山,2015-05-11,23.761225,120.688156,2.161579e-09
82H840,茶改南部分場,2015-05-11,23.762528,120.7405,7.1080913e-10
C0G660,溪湖,2015-05-11,23.94835,120.479122,1.755587e-05
C1T800,洛韶,2015-05-11,24.204558,121.453956,1.7670457e-08
C1T810,慈恩,2015-05-11,24.192044,121.388386,3.9187302e-09
C1E451,象鼻,2015-05-11,24.368617,120.940228,4.1964746e-10
C0AC60,三峽,2015-05-11,24.939025,121.369728,0.1703053
C0I490,萬大林道,2015-05-11,23.928228,121.091411,1.437085e-09
C1I290,豐丘,2015-05-11,23.668178,120.887417,8.149032e-10
C1I320,奧萬大,2015-05-11,23.952956,121.178556,6.2023187e-10
C2M910,嘉義大學,2015-05-11,23.471325,120.485903,1.0327049e-06
C0U770,南澳,2015-05-11,24.44935,121.81022,0.99926525
C0A980,社子,2015-05-11,25.109508,121.469681,0.53468513
C0V800,六龜,2015-05-11,22.997889,120.633583,0.00045132806
C1G9D0,國一S218K,2015-05-11,23.890641,120.493253,1.248004e-05
C0E570,白沙屯,2015-05-11,24.549447,120.696803,7.155646e-07
C2F9A0,中竹林,2015-05-11,24.103556,120.751061,8.580899e-10
C0FA40,臺中電廠,2015-05-11,24.2146,120.4907,0.00023839029
C2G9A0,畜試所彰化,2015-05-11,23.86045,120.557964,9.1588916e-08
C0H9C0,合歡山,2015-05-11,24.143442,121.272547,1.0421046e-08
C0X060,下營,2015-05-11,23.22695,120.256261,0.8217743
G2M350,農試溪口農場,2015-05-11,23.58565,120.408111,1.6657683e-06
C0U860,頭城,2015-05-11,24.85323,121.8308,0.97970545
C0R580,南州,2015-05-11,22.48591,120.50274,0.9869304
C0D430,峨眉,2015-05-11,24.6905,121.017189,0.010414942
C0G780,秀水,2015-05-11,24.03405,120.503869,0.0001308787
72N100,臺南農改場,2015-05-11,23.0605,120.342194,0.9149859
C0S900,蘭嶼高中,2015-05-11,22.04909,121.51214,0.00250477
467540,大武,2015-05-11,22.355675,120.903789,0.22378768
C1F9W0,德基,2015-05-11,24.254783,121.190261,1.4614959e-09
C1Z120,壽豐,2015-05-11,23.870853,121.508081,0.9995847
C0W160,烏坵,2015-05-11,24.9944,119.44956,0.47144476
C1I240,外大坪,2015-05-11,23.958697,120.917931,5.691177e-10
C1I550,國六W023K,2015-05-11,23.979067,120.867742,2.7971094e-09
C0R870,興海,2015-05-11,21.9752,120.8439,0.0021997008
C0R140,瑪家,2015-05-11,22.682903,120.686639,0.044376764
C0A530,坪林,2015-05-11,24.938183,121.70975,0.016877372
C0X260,後壁,2015-05-11,23.366358,120.362326,1.7294462e-05
C0Z230,和平,2015-05-11,24.30717,121.77007,0.99970984
C0G770,福興,2015-05-11,24.041289,120.437669,0.01951141
C0H9A0,神木村,2015-05-11,23.532742,120.843667,1.6099777e-09
C0I460,南投,2015-05-11,23.911469,120.687331,3.6373216e-09
C0I480,梅峰,2015-05-11,24.085272,121.173572,2.4597693e-09
C1V570,吉東,2015-05-11,22.85422,120.5454,1.084813e-05
C2D740,屯原,2015-05-11,24.067969,121.209389,1.8380492e-09
C2A560,福山,2015-05-11,24.776203,121.502811,5.1652444e-07
C0AH30,五分山,2015-05-11,25.07125,121.780794,5.1708522e-08
C0FA10,松柏,2015-05-11,24.429115,120.617482,8.290225e-06
72S200,東改班鳩分場,2015-05-11,22.829528,121.077694,0.99609476
72HA00,中改埔里分場,2015-05-11,23.903208,120.963364,6.773448e-10
C2H9W0,大坪頂農水,2015-05-11,24.043122,120.932781,5.710031e-10
C0C650,平鎮,2015-05-11,24.897503,121.214636,2.8103388e-05
C0S930,延平,2015-05-11,22.902581,121.084058,0.9988956
C0UA60,樟樹山,2015-05-11,24.41393,121.78325,0.00019720044
C1S670,摩天,2015-05-11,23.199503,121.027,6.977529e-09
C0V630,茄萣,2015-05-11,22.906642,120.182608,0.9617426
466940,基隆,2015-05-11,25.133314,121.740475,0.9997431
C0X050,東河,2015-05-11,23.296598,120.385608,2.6673135e-05
C0R770,保力,2015-05-11,22.071122,120.764111,0.008341942
G2L020,農試嘉義分所,2015-05-11,23.485028,120.473806,4.5612813e-07
C0X240,關子嶺,2015-05-11,23.331169,120.508025,6.2796595e-09
C0I380,集集,2015-05-11,23.828206,120.801467,1.6300901e-09
466990,花蓮,2015-05-11,23.975128,121.613275,0.9995524
C1V220,小關山,2015-05-11,23.154217,120.813603,2.2274358e-09
C1F9G1,慶福山,2015-05-11,24.180853,120.848378,4.8101445e-10
C0Z250,瑞穗林道,2015-05-11,23.49284,121.30688,8.050399e-08
C0D590,新豐,2015-05-11,24.87068,120.97721,0.086616315
C0A870,五指山,2015-05-11,25.132153,121.608692,7.0253265e-08
C0UA50,西帽山,2015-05-11,24.555361,121.802628,1.2788526e-07
C0X160,仁德,2015-05-11,22.968258,120.257689,0.98453826
C1H971,六分寮,2015-05-11,23.92507,120.6378,8.1041124e-10
C0W120,西嶼,2015-05-11,23.5626,119.468436,0.99969375
C0G650,員林,2015-05-11,23.946503,120.585597,4.6347066e-07
C0AD50,鶯歌,2015-05-11,24.951533,121.346294,0.5577393
C2H9Q0,北東眼山,2015-05-11,24.120939,121.189303,1.7732165e-09
C2H9T0,名間竹圍,2015-05-11,23.859914,120.637572,1.2158476e-09
C0S990,山豬窟,2015-05-11,22.318619,120.857372,0.793885
72Q010,高雄農改,2015-05-11,22.709333,120.525889,0.9989139
C0X190,安平,2015-05-11,22.993161,120.152181,0.8899471
C0K400,斗六,2015-05-11,23.720583,120.541127,5.937798e-07
12J990,口湖工作站,2015-05-11,23.589978,120.180394,0.2089581
C0O830,北寮,2015-05-11,23.079561,120.495008,8.869799e-06
C1D410,白蘭,2015-05-11,24.579364,121.079947,1.1384118e-09
C0S970,加津林,2015-05-11,22.416211,120.926942,0.2482878
C0D700,關西,2015-05-11,24.7977,121.1732,0.00072745467
C0M810,里佳,2015-05-11,23.389125,120.716647,1.2801754e-09
C0U750,龜山島,2015-05-11,24.841667,121.953133,0.006651215
C0R810,內獅,2015-05-11,22.305064,120.642986,0.56806916
C1M390,龍美,2015-05-11,23.406728,120.654417,1.3178029e-09
C2FB60,頭櫃山,2015-05-11,24.129842,120.858925,5.544717e-10
C1H840,國三N238K,2015-05-11,23.841008,120.707711,1.5731596e-09
CAQ030,崎峰國小,2015-05-11,22.42565,120.49521,0.9869304
C2E520,大湖,2015-05-11,24.414939,120.870872,4.776511e-09
467530,阿里山,2015-05-11,23.508208,120.813242,4.1842645e-09
C1E691,南湖,2015-05-11,24.40135,120.837533,4.5049947e-10
C0FA30,梧棲,2015-05-11,24.256003,120.523381,0.00023839029
C1V231,高中,2015-05-11,23.134911,120.716711,1.8796905e-08
C0F9V0,新社,2015-05-11,24.200172,120.815806,6.508311e-10
C0H890,埔里,2015-05-11,23.972169,120.952425,1.90968e-09
C0R690,墾丁,2015-05-11,21.966756,120.810269,0.09138692
C0F0D0,審馬陣,2015-05-11,24.381675,121.4203,1.23629595e-08
C0R820,白鷺,2015-05-11,22.454275,120.666219,0.4508495
U2H480,臺大溪頭,2015-05-11,23.670306,120.798194,7.8460904e-10
C1V190,南天池,2015-05-11,23.27403,120.91176,4.7638555e-09
K2E360,苗栗農改場,2015-05-11,24.495722,120.829111,2.4777627e-08
CAJ050,海口故事園區,2015-05-11,23.57543,120.14121,0.288942
C2H9D0,三隻寮,2015-05-11,24.093078,120.861578,5.609231e-10
C0O990,媽廟,2015-05-11,22.99175,120.293525,0.98114467
C0D480,打鐵坑,2015-05-11,24.849664,121.150789,1.1086567e-08
C0Z220,和平林道,2015-05-11,24.343922,121.656317,0.0001536264
C0TA10,花蓮漁港,2015-05-11,23.995322,121.638331,0.99960077
72C440,桃園農改場,2015-05-11,24.950944,121.030583,0.015790857
C1E711,馬拉邦山,2015-05-11,24.367306,120.901656,5.9813676e-10
C0SB20,富岡,2015-05-11,22.792467,121.192669,0.9985844
C0D560,竹東,2015-05-11,24.767147,121.057881,0.00048937224
C0F9U0,南屯,2015-05-11,24.137006,120.637969,5.9106505e-06
C0M720,番路,2015-05-11,23.464657,120.554156,6.182824e-08
C0F0A0,雪山圈谷,2015-05-11,24.388594,121.236339,1.4287116e-08
C1A9N0,四十份,2015-05-11,24.934158,121.593283,4.3556233e-07
C0U760,東澳,2015-05-11,24.52196,121.83318,0.9929973
C0X230,鹽水,2015-05-11,23.272621,120.247641,0.69055766
C2H9H0,苗改南投蜂場,2015-05-11,23.852589,120.693481,2.1642894e-09
C0R950,萬隆國小,2015-05-11,22.507667,120.587817,0.6093821
C0V370,古亭坑,2015-05-11,22.893178,120.401947,0.18972652
C1I340,新興橋,2015-05-11,23.563333,120.868728,7.462128e-10
C0SA80,土坂,2015-05-11,22.453108,120.887572,0.8196031
C0R160,鹽埔,2015-05-11,22.739558,120.530778,0.03538148
C0AC40,大屯山,2015-05-11,25.175675,121.522408,9.557347e-09
466850,五分山雷達站,2015-05-11,25.071182,121.781205,5.0583292e-08
C2H9L0,馬烈霸,2015-05-11,24.1512,121.201772,1.7320276e-09
C1AI50,國三N016K,2015-05-11,25.034164,121.619664,0.13735864
C1V600,藤枝,2015-05-11,23.071961,120.757042,2.1930324e-09
C1E601,南勢,2015-05-11,24.572486,120.734842,2.8862255e-08
C0Z180,新城,2015-05-11,24.03946,121.60454,0.99938774
C0O980,新市,2015-05-11,23.061614,120.298197,0.96014965
C0K420,西螺,2015-05-11,23.800407,120.467394,1.0064714e-06
C0Z050,佳心,2015-05-11,23.34567,121.21316,1.4156636e-06
C0AD30,蘆洲,2015-05-11,25.086594,121.472331,0.5157277
C0V610,梓官,2015-05-11,22.760558,120.267211,0.9933209
K2F750,種苗改良場,2015-05-11,24.225972,120.800917,7.7942286e-10
C0UA80,大溪漁港,2015-05-11,24.941801,121.902955,0.9740653
C1AI60,國一39K邊坡,2015-05-11,25.064361,121.383836,0.035840787
C0W150,金寧,2015-05-11,24.457703,118.328989,1.0495174e-07
C0R960,內埔,2015-05-11,22.608483,120.570714,0.6878169
V2C250,八德合作社,2015-05-11,24.93775,121.266389,0.0015687781
C2H9S0,龍南,2015-05-11,23.953536,120.833183,5.216614e-10
C0AH40,平等,2015-05-11,25.129142,121.577086,1.0821983e-06
C0R540,佳冬,2015-05-11,22.419456,120.552375,0.9869304
466950,彭佳嶼,2015-05-11,25.627975,122.079744,0.94662786
C0A890,雙溪,2015-05-11,25.036003,121.864242,0.9994415
C0C480,桃園,2015-05-11,24.992425,121.323172,4.127727e-06
C0AH50,林口,2015-05-11,25.072181,121.38084,6.736766e-07
A2K360,水試臺西試驗場,2015-05-11,23.717231,120.190522,0.10071687
B2N890,畜試所,2015-05-11,23.058972,120.336406,0.9149859
C2M960,外寮,2015-05-11,23.562643,120.665688,9.82125e-10
C0F9S0,烏日,2015-05-11,24.107058,120.624103,2.9711382e-06
C0C490,八德,2015-05-11,24.928708,121.283289,0.0005124168
C0R190,赤山,2015-05-11,22.592333,120.614306,0.657865
C0T820,天祥,2015-05-11,24.179597,121.495639,0.0121662505
C1F9E1,龍安,2015-05-11,24.1605,120.831961,6.159736e-10
C0V820,小林,2015-05-11,23.148408,120.63325,1.7409803e-07
C2G870,芳苑,2015-05-11,23.922303,120.320025,0.03657386
C0E850,大河,2015-05-11,24.618069,120.948578,1.23507515e-08
C1U670,寒溪,2015-05-11,24.634,121.71691,0.9987799
C0N020,城西,2015-05-11,23.0568,120.0956,0.2624652
C1Z110,三棧,2015-05-11,24.11557,121.60501,9.846709e-07
C0R280,檳榔,2015-05-11,22.076078,120.836777,0.06744311
C2H9J0,中台,2015-05-11,23.9996,120.938739,1.0534373e-09
C0F9L0,后里,2015-05-11,24.310436,120.729725,3.2287637e-09
C0D540,橫山,2015-05-11,24.71116,121.11693,1.4088841e-08
C1D420,太閣南,2015-05-11,24.632808,121.160575,1.2114934e-09
C1E770,公館,2015-05-11,24.526914,120.830806,8.1054495e-08
CAN130,水試所海水繁養殖中心,2015-05-11,23.120802,120.07968,0.25236925
C1I430,翠華,2015-05-11,24.191961,121.224339,4.0784114e-09
C1M400,菜瓜坪,2015-05-11,23.251928,120.576103,4.615757e-08
C0G730,二林,2015-05-11,23.903325,120.376081,0.03002179
72M360,南改義竹分場,2015-05-11,23.360694,120.279361,0.41007176
V2K620,麥寮合作社,2015-05-11,23.753836,120.294783,0.0018777525
C0Z070,舞鶴,2015-05-11,23.46811,121.37407,0.9588563
C0B040,大武崙,2015-05-11,25.166676,121.706993,0.99959445
C1Z030,紅葉,2015-05-11,23.493119,121.338806,0.9935321
C1I050,丹大,2015-05-11,23.753747,121.141147,4.0487578e-09
C0I080,信義,2015-05-11,23.689694,120.851036,7.6570883e-10
C2M920,朴子農改,2015-05-11,23.469889,120.259383,0.39253312
C2A880,福隆,2015-05-11,25.017842,121.942083,0.99742055
C0Z160,鳳林,2015-05-11,23.746114,121.453411,0.99877524
C0V210,復興,2015-05-11,23.222403,120.806089,1.2904652e-08
C0H990,昆陽,2015-05-11,24.121322,121.273642,7.2744104e-09
C0R741,獅子,2015-05-11,22.202308,120.705236,0.0020491467
C0S710,鹿野,2015-05-11,22.917711,121.122994,0.0011729565
C0I530,小奇萊,2015-05-11,24.131764,121.295717,8.029954e-09
C2K630,荷苞,2015-05-11,23.657717,120.595144,9.327802e-08
C0Z080,富源,2015-05-11,23.587642,121.378225,0.9258904
467441,高雄,2015-05-11,22.7304,120.3125,0.99437314
C0SB10,美和,2015-05-11,22.682078,121.060236,0.9253947
C2K620,馬光農場,2015-05-11,23.721453,120.378864,0.00017923824
C1I140,卡奈托灣,2015-05-11,23.754364,121.087872,1.0819213e-09
C0I520,玉山風口,2015-05-11,23.470489,120.955994,1.5050881e-08
C1G691,下水埔,2015-05-11,23.816114,120.5676,8.796855e-08
C0X110,臺南市南區,2015-05-11,22.961189,120.188378,0.89679116
C0V680,仁武,2015-05-11,22.701083,120.347722,0.9946462
C2G840,北斗,2015-05-11,23.877586,120.514222,7.488557e-06
C0R900,竹坑,2015-05-11,22.1385,120.7022,0.0022651206
C0K250,崙背,2015-05-11,23.75555,120.318925,0.00077431154
C0G860,社頭,2015-05-11,23.897647,120.5862,3.2446442e-07
C0X150,安定,2015-05-11,23.102614,120.227839,0.91665584
C0R590,里港,2015-05-11,22.77919,120.49459,0.00035003544
C0E610,馬都安,2015-05-11,24.451272,120.930192,1.0296941e-09
C0E550,明德,2015-05-11,24.583486,120.885411,1.6499037e-08
C0R150,三地門,2015-05-11,22.709889,120.639944,0.17236286
C0G910,花壇,2015-05-11,24.032076,120.549461,5.401768e-05
C1D400,鳥嘴山,2015-05-11,24.71909,121.28387,1.0497232e-08
C0K500,元長,2015-05-11,23.64981,120.315024,0.021884426
C0F0B0,石岡,2015-05-11,24.276061,120.777644,1.1475878e-09
C2V250,甲仙,2015-05-11,23.080106,120.591758,2.4012184e-08
C0SA20,金崙山,2015-05-11,22.567419,120.959667,1.7746692e-06
C0V350,溪埔,2015-05-11,22.738578,120.446797,0.99813354
C0M660,溪口,2015-05-11,23.604131,120.403569,1.6701011e-06
C1S880,壽卡,2015-05-11,22.238911,120.858903,0.81060237
72D680,桃改新埔分場,2015-05-11,24.834444,121.066111,0.010554566
