站號,站名,日期,lat,lon,BLBTSLS
C0R710,龍磐,2015-04-28,21.931672,120.838942,0.8837412
C1F9D1,白毛台,2015-04-28,24.158325,120.886933,5.091664e-09
C0G940,竹塘,2015-04-28,23.848253,120.386764,2.970192e-08
467590,恆春,2015-04-28,22.003897,120.746339,0.9178318
C1O850,環湖,2015-04-28,23.148617,120.418633,4.5915004e-07
C0U710,太平山,2015-04-28,24.505486,121.525656,6.737078e-09
C0E820,獅潭,2015-04-28,24.539133,120.920042,2.9469092e-08
C0V880,興達,2015-04-28,22.8778,120.2127,0.72498834
C0S890,關山,2015-04-28,23.0395,121.175017,0.021239035
C0SB30,新蘭,2015-04-28,22.869214,121.223228,0.021519993
C2R970,屏科大,2015-04-28,22.648275,120.619247,0.08875534
K2F750,種苗繁殖,2015-04-28,24.225972,120.800917,2.6277114e-09
C1Z130,銅門,2015-04-28,23.965694,121.492842,5.875979e-07
C0AD40,土城,2015-04-28,24.973208,121.445169,1.1778992e-05
CAN140,六官養殖協會,2015-04-28,23.22881,120.29962,8.071025e-05
C0X180,山上,2015-04-28,23.0757,120.363253,5.342263e-08
C0F9Z0,雪山東峰,2015-04-28,24.388792,121.268675,8.3462e-09
C1M480,獨立山,2015-04-28,23.537022,120.607797,9.743706e-10
C0X220,學甲,2015-04-28,23.230367,120.182187,0.020385474
467650,日月潭,2015-04-28,23.881325,120.90805,1.0281438e-09
C0K600,箔子寮,2015-04-28,23.6197,120.14,8.391204e-06
C0G830,埤頭,2015-04-28,23.866003,120.452806,2.5693693e-08
C0S950,七塊厝,2015-04-28,22.954453,121.229922,1.5860273e-07
467110,金門,2015-04-28,24.407306,118.289281,0.00034459043
C0AH80,深坑,2015-04-28,25.002703,121.628328,2.9446278e-06
467990,馬祖,2015-04-28,26.169269,119.923419,1.4873744e-08
C0A970,三貂角,2015-04-28,25.007606,122.002058,0.02630556
C2D730,寶山農場,2015-04-28,24.732444,120.976153,0.020131338
C0K430,褒忠,2015-04-28,23.690938,120.303634,2.9128325e-06
467480,嘉義,2015-04-28,23.495925,120.432906,2.0778877e-07
C2E540,後龍,2015-04-28,24.606489,120.783933,1.5698625e-07
C0V400,阿公店,2015-04-28,22.804194,120.355528,0.001226982
C0R440,大漢山,2015-04-28,22.405264,120.753181,1.9575637e-09
C0K280,四湖,2015-04-28,23.630414,120.227125,3.0173831e-05
C1F9B1,桐林,2015-04-28,24.066172,120.735194,3.641306e-09
C2H9U0,鳳鵬,2015-04-28,23.763919,120.788061,1.3212156e-09
C0K390,土庫,2015-04-28,23.679029,120.395574,3.095978e-08
C1I450,望鄉山,2015-04-28,23.594153,120.944286,6.315297e-09
C0E910,海埔,2015-04-28,24.648767,120.772435,9.816764e-08
B2E890,畜試北區分所,2015-04-28,24.527806,120.770972,7.64128e-08
C0R750,四林格山,2015-04-28,22.076989,120.802439,0.62742025
C0F0C0,中坑,2015-04-28,24.248517,120.903319,1.440977e-09
C1I121,大鞍,2015-04-28,23.678381,120.760017,1.248704e-09
72U480,花改蘭陽分場,2015-04-28,24.686306,121.716583,0.06451331
C0A770,科教館,2015-04-28,25.096356,121.516507,1.5012001e-05
C0AJ60,六塊厝,2015-04-28,25.24,121.4481,0.004025253
C0R620,墾雷,2015-04-28,21.900836,120.855269,0.9158856
467420,永康,2015-04-28,23.038386,120.2367,0.116597876
467300,東吉島,2015-04-28,23.25695,119.667467,0.104241244
C0I410,名間,2015-04-28,23.837053,120.701447,5.17011e-09
A2C560,農工中心,2015-04-28,24.985917,121.239833,1.3453164e-05
C0V740,旗山,2015-04-28,22.888614,120.483597,1.5911708e-06
C0Z061,玉里,2015-04-28,23.3215,121.339656,2.176091e-05
C0S840,南田,2015-04-28,22.279725,120.889208,0.0654381
C1I470,杉林溪,2015-04-28,23.639517,120.786444,1.4566619e-09
C1X040,東原,2015-04-28,23.291597,120.463822,4.584117e-09
C0R660,枋寮,2015-04-28,22.367722,120.590647,0.00032648494
C1R120,上德文,2015-04-28,22.763272,120.704442,3.8629634e-07
C0K450,大埤,2015-04-28,23.646074,120.431537,2.9172913e-08
C0UA00,土場,2015-04-28,24.576533,121.495333,3.0134924e-08
467080,宜蘭,2015-04-28,24.763975,121.756528,5.2752807e-06
C0N030,四草,2015-04-28,23.0235,120.1116,0.8921061
C0V650,彌陀,2015-04-28,22.783806,120.246361,0.046889372
C0D660,新竹市東區,2015-04-28,24.798681,120.986942,0.0007222653
82S580,茶改東部分場,2015-04-28,22.907694,121.130139,5.4183015e-06
C0SB40,興隆,2015-04-28,22.913661,121.257469,0.0010411915
C0C710,大溪永福,2015-04-28,24.892936,121.324975,9.613754e-06
C0FA20,溫寮,2015-04-28,24.372177,120.583125,2.874001e-07
C0V640,湖內,2015-04-28,22.887139,120.2445,0.68158895
C0R910,下寮,2015-04-28,22.3929,120.5548,0.0016005818
C0Z020,明里,2015-04-28,23.208717,121.262342,4.136201e-07
C0M770,嘉義梅山,2015-04-28,23.585398,120.555587,1.1928547e-08
G2F820,農業試驗所,2015-04-28,24.031261,120.688133,2.8602046e-05
C0C660,楊梅,2015-04-28,24.912375,121.143047,5.4189886e-06
C1E511,新開,2015-04-28,24.347703,120.827019,3.7415333e-09
G2F820,農試所(霧峰),2015-04-28,24.031261,120.688133,2.8602046e-05
C1I070,和社,2015-04-28,23.591131,120.888861,9.217873e-10
C2F000,大肚,2015-04-28,24.15295,120.572117,1.7188964e-09
C1S850,豐南,2015-04-28,23.122139,121.262389,8.7421434e-08
C2A920,富貴角,2015-04-28,25.263783,121.565258,0.032575317
CAH030,茶改場竹圍站,2015-04-28,23.860083,120.637528,1.9412558e-09
C0T960,光復,2015-04-28,23.660694,121.424964,0.0003736777
C0F9M0,豐原,2015-04-28,24.254322,120.720692,1.9661075e-08
C0R720,旭海,2015-04-28,22.205403,120.887614,0.42718643
C0V710,苓雅,2015-04-28,22.622742,120.330669,0.5036125
C0C740,觀音工業區,2015-04-28,25.064764,121.114856,0.0009384302
CAC040,拉拉山,2015-04-28,24.699317,121.427133,1.661705e-09
C0V790,萬山,2015-04-28,22.905944,120.688056,1.7441211e-09
U2HA30,臺大和社,2015-04-28,23.590856,120.888864,9.217873e-10
C0AJ90,澳底,2015-04-28,25.0552,121.9253,0.022317318
C0Z100,東華,2015-04-28,23.89525,121.549833,0.003663444
C0G970,三豐,2015-04-28,23.882,120.2895,7.831279e-07
V2K610,大庄合作社,2015-04-28,23.8068,120.367939,3.095757e-07
C0V900,汕尾,2015-04-28,22.4782,120.4151,0.14547737
C1R630,龍泉,2015-04-28,22.66701,120.59091,0.007477389
C1AC50,關渡,2015-04-28,25.133486,121.469331,0.00028330937
C0F9I0,神岡,2015-04-28,24.272481,120.658314,3.0453005e-08
C0K460,斗南,2015-04-28,23.678734,120.478359,1.8981114e-08
467410,臺南,2015-04-28,22.993239,120.204772,0.08991438
C2O810,曾文,2015-04-28,23.219681,120.497328,1.7299486e-08
467280,後龍,2015-04-28,24.648563,120.831834,3.852801e-08
C1F9J1,清水林,2015-04-28,24.071242,120.820419,1.1723241e-09
C2A650,火燒寮,2015-04-28,25.002719,121.742892,3.622508e-06
466930,竹子湖,2015-04-28,25.162078,121.544547,5.8069187e-08
C1I220,樟湖,2015-04-28,23.905333,120.846983,8.555829e-10
C0I390,仁愛,2015-04-28,24.022122,121.132206,9.481881e-10
C0Z300,東里,2015-04-28,23.26853,121.30547,1.2252017e-05
C1V590,新發,2015-04-28,23.057019,120.646064,1.0584003e-08
C0K510,水林,2015-04-28,23.572924,120.24597,6.6305465e-06
72S590,東改賓朗果園,2015-04-28,22.813889,121.071278,0.0015218462
82A750,茶改北部分場,2015-04-28,24.955778,121.631222,5.3976814e-09
C1A750,石碇服務區,2015-04-28,25.00872,121.646242,2.0387974e-06
C0X300,鹿寮,2015-04-28,23.386047,120.477331,1.7156546e-08
G2AI50,關渡,2015-04-28,25.11575,121.492,2.8951583e-05
C0K590,雲林東勢,2015-04-28,23.674192,120.255721,2.9194234e-06
C0A570,桶後,2015-04-28,24.848222,121.597992,3.4867432e-07
C1S800,華源,2015-04-28,22.657883,121.02325,0.028110573
C0G720,溪州,2015-04-28,23.851589,120.499093,1.703921e-08
C1V160,達卡努瓦,2015-04-28,23.279811,120.705319,2.1839326e-09
C2M410,馬頭山,2015-04-28,23.324361,120.582017,2.6343858e-09
C0V850,蚵仔寮,2015-04-28,22.7256,120.2527,0.93971324
C0S740,池上,2015-04-28,23.119628,121.209469,1.8309001e-06
C1V390,尖山,2015-04-28,22.813153,120.367789,0.00028198084
C0AH70,松山,2015-04-28,25.04871,121.55042,8.211838e-06
C0N010,鯤鯓國小,2015-04-28,23.1879,120.0889,0.38915047
C0R550,新埤,2015-04-28,22.467947,120.582894,0.043219246
C0SA60,知本（水試所）,2015-04-28,22.702394,121.082761,0.047980726
C0T9I0,豐濱,2015-04-28,23.583897,121.514806,0.0005982943
C0UB00,淡江大學蘭陽校園,2015-04-28,24.823239,121.730383,2.479143e-08
C0W240,九宮,2015-04-28,24.423753,118.240186,9.64066e-07
C0T9N0,富里,2015-04-28,23.171639,121.249378,7.7689947e-07
U2HA50,臺大竹山,2015-04-28,23.756972,120.681556,2.5978657e-09
C0V840,鳳鼻頭,2015-04-28,22.5083,120.3591,0.57074285
C0X140,西港,2015-04-28,23.125608,120.203108,0.16589956
72D080,桃改五峰分場,2015-04-28,24.612194,121.157167,6.986475e-10
C2H9P0,伊拿谷,2015-04-28,23.963211,121.088264,8.463476e-10
C2H9F0,柑林,2015-04-28,24.018658,120.847072,1.3285693e-09
C0TA20,加灣,2015-04-28,24.082025,121.608944,3.7387003e-05
C0V530,阿蓮,2015-04-28,22.883208,120.327508,0.7572797
C1O880,關山,2015-04-28,23.173397,120.594092,2.6137055e-09
C0E791,卓蘭,2015-04-28,24.3126,120.8244,3.438942e-09
C1I030,武界,2015-04-28,23.913225,121.052483,1.017009e-09
C0R520,崁頂,2015-04-28,22.514781,120.506914,0.0011969109
C0R341,牡丹,2015-04-28,22.130036,120.792639,1.5751197e-05
C0R930,萬丹,2015-04-28,22.5885,120.4851,0.05139151
C0S760,紅石,2015-04-28,23.069131,121.126219,2.7432492e-09
C1M610,石磐龍,2015-04-28,23.496606,120.663506,1.1386767e-09
C0UA10,鴛鴦湖,2015-04-28,24.590269,121.412228,2.8879588e-09
V2C260,八德蔬果,2015-04-28,24.978508,121.281819,2.9823773e-06
C0R800,丹路,2015-04-28,22.204481,120.750989,1.026047e-05
C0G920,永靖,2015-04-28,23.924703,120.547533,2.5041533e-07
C2M950,太和,2015-04-28,23.538372,120.702961,1.3206185e-09
C1A630,下盆,2015-04-28,24.771003,121.538622,2.4151083e-08
B2N890,畜產試驗所,2015-04-28,23.058972,120.336406,9.38903e-06
C0UA30,白嶺,2015-04-28,24.527819,121.519031,4.3468407e-09
C1V580,溪南(特生中心),2015-04-28,23.084972,120.788475,1.9243458e-09
C1T970,大農,2015-04-28,23.615233,121.413331,3.237391e-05
E2S960,林試太麻里2,2015-04-28,22.598014,120.989761,0.39788505
C0R650,竹田,2015-04-28,22.58486,120.54344,0.0505992
C1H900,清流,2015-04-28,24.080775,120.962997,9.95155e-10
C1C510,水尾,2015-04-28,24.940081,121.087161,2.9384277e-05
C0F9X0,大雅(中科園區),2015-04-28,24.21528,120.62445,7.8828634e-08
C0SB60,白守蓮,2015-04-28,23.126769,121.401914,0.30891505
C0O970,虎頭埤,2015-04-28,23.021375,120.347878,0.011433441
C0C730,中大臨海站,2015-04-28,24.966126,121.008581,0.00018472307
C0X250,新營,2015-04-28,23.310689,120.316681,9.209091e-06
C0V700,三民,2015-04-28,22.645017,120.311233,0.5036127
C0U870,大礁溪,2015-04-28,24.791042,121.675047,1.0409703e-08
C0E870,高鐵苗栗,2015-04-28,24.60725,120.826094,8.767575e-08
A2K570,古坑花卉中心,2015-04-28,23.63353,120.55239,5.433307e-09
C0M860,新美,2015-04-28,23.338017,120.683169,1.8355092e-09
C1E701,八卦,2015-04-28,24.491756,120.927619,4.794303e-08
C0I420,國姓,2015-04-28,24.037803,120.855072,2.3872526e-09
C2D720,關西工作站,2015-04-28,24.757275,121.184792,1.8543398e-06
C0S960,香蘭,2015-04-28,22.587569,120.993375,0.39788505
C0R260,春日,2015-04-28,22.370361,120.628306,0.031090494
72G600,臺中農改場,2015-04-28,24.003028,120.534389,2.8093103e-07
C0Z210,瑞穗,2015-04-28,23.5239,121.39021,0.0017473515
C0M820,達邦,2015-04-28,23.453994,120.749517,8.464832e-10
C0V860,南寮,2015-04-28,22.7616,120.2339,0.05764552
C0G740,大城,2015-04-28,23.852487,120.320935,4.104009e-07
C0R920,塭仔,2015-04-28,22.4169,120.5197,0.0018582968
C0R470,高樹,2015-04-28,22.826389,120.600806,3.4062202e-06
C0R680,佳樂水,2015-04-28,21.993578,120.861633,0.92198294
C1O870,大棟山,2015-04-28,23.31157,120.52226,1.2549406e-09
C0D360,梅花,2015-04-28,24.678347,121.208558,1.994925e-09
C0Z190,富世,2015-04-28,24.14743,121.6297,0.000102714694
C0AI10,屈尺,2015-04-28,24.92184,121.54475,2.9446278e-06
B2U990,畜試東區分所,2015-04-28,24.669039,121.832561,0.1237998
C0SB80,長濱漁港,2015-04-28,23.313644,121.459994,0.0077684415
C0R240,來義,2015-04-28,22.527306,120.625111,0.020829378
C0V910,大樹,2015-04-28,22.684645,120.432803,0.11779798
C1R610,西大武山,2015-04-28,22.617719,120.7322,2.5524773e-09
C0G900,線西,2015-04-28,24.143358,120.443536,1.8223545e-05
C0M700,竹崎,2015-04-28,23.526178,120.555508,3.5822416e-09
C2E880,三義,2015-04-28,24.405478,120.749819,2.6807856e-09
C0C720,竹圍,2015-04-28,25.112692,121.239824,0.0034349912
C0F9P0,清水,2015-04-28,24.312297,120.562242,7.344767e-06
C0Z150,吉安光華,2015-04-28,23.930925,121.595153,0.012013417
C1D640,外坪(五指山),2015-04-28,24.644447,121.090961,1.910835e-09
C0F9O0,潭子,2015-04-28,24.213106,120.703933,5.3960786e-08
C2H9R0,卓社,2015-04-28,23.887894,121.000086,9.87727e-10
72T250,花蓮農改場,2015-04-28,23.975222,121.563889,2.007659e-05
C0E780,銅鑼,2015-04-28,24.489681,120.790853,3.8969976e-08
C1T950,太安,2015-04-28,23.666719,121.370128,1.6010887e-08
C0E830,苑裡,2015-04-28,24.439714,120.653053,1.3969864e-07
467270,田中,2015-04-28,23.873803,120.581286,1.0336459e-08
C0SA10,檳榔四格山,2015-04-28,22.810031,121.109308,0.00016074695
C1T830,布洛灣,2015-04-28,24.17184,121.57127,0.00032297184
C0F970,大坑,2015-04-28,24.173142,120.722289,7.088804e-07
C1U920,思源,2015-04-28,24.393125,121.347214,4.097796e-09
C0A931,三和,2015-04-28,25.233153,121.595236,1.1812842e-05
C0I010,廬山,2015-04-28,24.033311,121.181808,1.509912e-09
C2M940,日野賀,2015-04-28,23.434056,120.727169,1.174587e-09
C0R860,鼻頭,2015-04-28,22.1043,120.8979,0.10472651
C0UB20,壯圍,2015-04-28,24.7359,121.8163,0.1237998
C0R790,九棚,2015-04-28,22.14195,120.889281,0.41826996
C0W110,東莒,2015-04-28,25.9652,119.98069,2.3568002e-06
C1U930,粉鳥林,2015-04-28,24.497088,121.842479,1.2424157e-05
C1I211,蘆竹湳,2015-04-28,23.934019,120.811994,2.0627309e-09
C0S830,長濱,2015-04-28,23.286817,121.411975,2.6037534e-07
C1F9F1,伯公龍,2015-04-28,24.272392,120.849047,3.4838288e-09
C0E810,西湖,2015-04-28,24.562947,120.7485,5.413552e-08
C1I440,新高口,2015-04-28,23.478744,120.878939,3.4746908e-09
C0O840,王爺宮,2015-04-28,23.222064,120.40085,1.7299486e-08
C0T9G0,鳳林山,2015-04-28,23.735269,121.420131,1.5117101e-06
C0X080,佳里,2015-04-28,23.173039,120.145086,0.025451018
C0FB70,大甲溪埔,2015-04-28,24.370625,120.620067,1.0003263e-07
C0Z310,清水斷崖,2015-04-28,24.218294,121.689142,0.7902713
C0M680,太保,2015-04-28,23.455062,120.331455,9.706681e-06
C1S820,金峰,2015-04-28,22.590969,120.933236,0.03244066
C0AD10,八里,2015-04-28,25.150211,121.403947,0.0034349912
C2K240,草嶺,2015-04-28,23.59555,120.693461,1.057984e-09
C1SA70,都蘭,2015-04-28,22.87794,121.226881,0.0010411915
C0K440,二崙,2015-04-28,23.772797,120.408944,2.4293842e-08
C1A760,坪林交控,2015-04-28,24.94284,121.713442,8.65755e-08
C0F9N0,大里,2015-04-28,24.092464,120.701378,3.591839e-05
C0SA90,達仁林場,2015-04-28,22.264347,120.823972,0.0010937044
C1R290,石門山,2015-04-28,22.112611,120.756597,0.20099841
42HA10,萬大發電廠,2015-04-28,23.978875,121.139639,4.6975726e-09
C0R890,山海,2015-04-28,21.9878,120.7091,0.92471
C0T9A0,月眉山,2015-04-28,23.809928,121.539828,2.9112502e-07
C0AC70,信義,2015-04-28,25.037822,121.564597,8.211838e-06
C0K560,棋山,2015-04-28,23.68645,120.603417,2.412231e-08
C2FB50,出雲,2015-04-28,24.206469,120.902794,9.97481e-10
C1Z240,中平林道,2015-04-28,23.42115,121.26763,1.1210108e-08
U2H480,溪頭,2015-04-28,23.670306,120.798194,8.986515e-10
C0M880,好美里,2015-04-28,23.3364,120.138,0.025451018
C0T9E0,大坑,2015-04-28,23.880628,121.581981,8.847721e-07
C0K530,臺西,2015-04-28,23.701547,120.197559,1.9730307e-05
C1E900,國一N128K,2015-04-28,24.560997,120.844186,3.3921825e-08
C0AJ50,水湳洞,2015-04-28,25.123695,121.862238,0.8984397
C0AI20,白沙灣,2015-04-28,25.283128,121.519058,0.061656483
C0A860,大坪,2015-04-28,25.165914,121.632969,4.7326174e-07
C1U850,觀音海岸,2015-04-28,24.38319,121.77856,1.9702993e-07
C2K610,草嶺石壁,2015-04-28,23.602469,120.707731,1.1478221e-09
C0U950,鶯子嶺,2015-04-28,24.89754,121.79244,1.4096394e-08
C0O900,善化,2015-04-28,23.112883,120.297219,8.296388e-05
C0K550,蔦松,2015-04-28,23.514319,120.229736,9.423149e-05
E2P980,林試六龜中心,2015-04-28,22.991703,120.645722,5.81504e-09
C0E590,通霄,2015-04-28,24.471892,120.704622,2.0690942e-07
C1I310,西巒,2015-04-28,23.754486,120.883956,9.005544e-10
C0A550,泰平,2015-04-28,24.971197,121.823711,8.3599826e-07
C0I360,水里,2015-04-28,23.812553,120.849792,2.4175406e-09
C0R830,高士,2015-04-28,22.121825,120.836781,0.24709874
C1I101,溪頭,2015-04-28,23.661789,120.807647,1.6771193e-09
C0AJ20,野柳,2015-04-28,25.20703,121.690021,0.8984397
C0B060,暖暖,2015-04-28,25.0957,121.7403,0.6413278
C1H920,長豐,2015-04-28,24.102039,120.879897,1.1099955e-09
C0V360,內門,2015-04-28,22.975481,120.466769,6.100683e-08
C0R850,林邊,2015-04-28,22.4634,120.5339,0.0011969109
C0E930,龍鳳,2015-04-28,24.700034,120.859125,2.869993e-08
C0U910,冬山,2015-04-28,24.63373,121.7937,0.1237998
C1E721,泰安,2015-04-28,24.489017,120.968036,9.387318e-10
82H320,茶改中部分場,2015-04-28,23.875611,120.913583,8.0429474e-10
C0M750,布袋,2015-04-28,23.380878,120.167789,0.003132304
C1S860,利嘉,2015-04-28,22.809417,121.050528,1.6325677e-08
72C440,桃園農改,2015-04-28,24.950944,121.030583,0.000121581885
E2S980,林試太麻里1,2015-04-28,22.598922,120.980044,0.1132203
C0X170,關廟,2015-04-28,22.963017,120.327797,0.00057491194
C0V720,林園,2015-04-28,22.507747,120.394511,0.5036125
C1I510,線浸林道,2015-04-28,23.761508,120.832956,9.2513036e-10
C0D690,外湖,2015-04-28,24.917735,120.968711,0.00018472307
C0C750,新興坑尾,2015-04-28,25.0061,121.0971,0.00020910788
B2Q810,畜試南區分所,2015-04-28,21.945583,120.802167,0.92298716
C0S790,金崙,2015-04-28,22.538122,120.966875,0.02434966
C0AH90,福山植物園,2015-04-28,24.760717,121.58135,6.6877233e-09
C0I540,奇萊稜線,2015-04-28,24.109231,121.326456,1.0792672e-08
C0M850,表湖,2015-04-28,23.24186,120.64166,1.4289726e-09
C0S770,大溪山,2015-04-28,22.478475,120.943325,0.0032111576
C0AG80,中和,2015-04-28,24.991622,121.491792,8.211838e-06
C0T790,大禹嶺,2015-04-28,24.186117,121.316086,6.511095e-09
C0T9B0,水源,2015-04-28,23.991861,121.537169,1.5966629e-07
C0R840,牡丹池山,2015-04-28,22.168389,120.841225,0.001040479
C1I131,桶頭,2015-04-28,23.641944,120.654117,2.609541e-09
CAL110,布袋國中,2015-04-28,23.35893,120.18026,4.161658e-05
467571,新竹,2015-04-28,24.827853,121.014219,0.0010862843
C0Z290,赤柯山,2015-04-28,23.36893,121.38293,2.3231895e-08
C0X280,將軍,2015-04-28,23.214999,120.13577,0.025451018
C0S690,太麻里,2015-04-28,22.60902,120.98533,4.920791e-06
C0U880,北關,2015-04-28,24.9072,121.8734,0.027982302
C1H860,瑞岩,2015-04-28,24.123772,121.18345,1.8345921e-09
C0G810,埔心,2015-04-28,23.947633,120.525456,3.0295024e-07
C0U970,大福,2015-04-28,24.80064,121.81389,6.584453e-06
C2H9N0,仁愛東眼,2015-04-28,24.026875,121.1205,1.304546e-09
C1E670,南礦,2015-04-28,24.538278,121.002836,7.895089e-10
C0M520,東後寮,2015-04-28,23.369908,120.248065,3.1220574e-05
C1E461,松安,2015-04-28,24.397972,120.986022,9.048588e-10
72G600,臺中農改,2015-04-28,24.003028,120.534389,2.8093103e-07
C2N160,西拉雅風管處,2015-04-28,23.189481,120.335297,2.3327808e-05
C2M970,碧湖,2015-04-28,23.568632,120.624165,1.0206935e-09
C0A640,石碇,2015-04-28,24.993969,121.662917,1.0417586e-05
E2S960,林試太麻里2,2015-04-28,22.598,120.99775,0.47498712
C0F9Y0,桃山,2015-04-28,24.432739,121.303808,9.3239745e-09
C1I020,萬大,2015-04-28,23.979817,121.132261,9.500473e-10
C0U940,羅東,2015-04-28,24.68184,121.74934,0.103623435
C0M650,朴子,2015-04-28,23.43463,120.23902,0.0023614967
C1I500,大尖山,2015-04-28,23.858572,120.994889,2.6144134e-09
C0G820,田尾,2015-04-28,23.901669,120.509389,2.5041533e-07
E2K600,四湖植物園,2015-04-28,23.676986,120.163433,1.8775047e-05
C0S730,綠島,2015-04-28,22.6672,121.47533,0.1740862
12Q970,東港工作站,2015-04-28,22.479997,120.466058,0.0016005818
C0E430,南庄,2015-04-28,24.601775,121.000214,2.0978783e-08
C1TA00,太魯閣,2015-04-28,24.15773,121.6236,0.8134909
466920,臺北,2015-04-28,25.037658,121.514853,8.211838e-06
C0R600,舊泰武,2015-04-28,22.588194,120.664944,2.969981e-05
C1I260,北坑,2015-04-28,23.9246,121.006903,1.1327522e-09
466910,鞍部,2015-04-28,25.182586,121.529731,2.7385507e-08
C1I230,九份二山,2015-04-28,23.961944,120.845,8.8147173e-10
C2A660,瑞芳,2015-04-28,25.113169,121.801147,0.0008053831
C0R270,琉球嶼,2015-04-28,22.332244,120.362236,0.031090494
C1T990,高寮,2015-04-28,23.394239,121.356808,0.009072691
C0G620,芬園,2015-04-28,24.015678,120.6213,8.925179e-09
C1Z140,荖溪,2015-04-28,23.890575,121.45964,1.27862645e-08
C1I201,中心崙,2015-04-28,23.728722,120.712097,9.0872615e-10
C1I400,凌霄,2015-04-28,24.018778,121.004456,1.3032726e-09
C1M640,十字,2015-04-28,23.492153,120.753683,1.3071837e-09
G2P820,農試鳳山分所,2015-04-28,22.646611,120.356083,0.37071997
C0Z270,蕃薯寮,2015-04-28,23.73835,121.540108,0.00055551325
C0F9Q0,外埔,2015-04-28,24.347817,120.705686,6.229201e-08
C0K580,高鐵雲林,2015-04-28,23.737456,120.417944,3.095978e-08
C2I090,鳳凰,2015-04-28,23.728081,120.787347,7.4611034e-10
C0U990,員山,2015-04-28,24.74435,121.72247,0.103623435
C0V770,大社,2015-04-28,22.730306,120.346639,0.90964603
C0X120,麻豆,2015-04-28,23.183289,120.248611,0.020385474
C0C670,龍潭,2015-04-28,24.870056,121.221389,2.4366364e-09
C0D680,香山濕地,2015-04-28,24.783581,120.914988,0.07614537
C0S980,勝林山,2015-04-28,22.430439,120.8938,3.6161862e-05
C0V730,大寮,2015-04-28,22.605614,120.395717,0.51108754
C0R570,麟洛,2015-04-28,22.65078,120.52719,0.0054407376
C2M930,石卓,2015-04-28,23.478744,120.702264,1.2871975e-09
C0G9B0,和美,2015-04-28,24.105169,120.492131,1.4541885e-07
CAG100,王功漁港,2015-04-28,23.96824,120.32586,1.4240669e-07
C0X290,北門,2015-04-28,23.267772,120.125481,0.025451018
C2F930,大甲,2015-04-28,24.347667,120.640403,1.432344e-07
C0D650,湖口,2015-04-28,24.904794,121.043628,3.8724425e-05
C0E420,竹南,2015-04-28,24.708978,120.888897,0.05163259
C0U780,五結,2015-04-28,24.68637,121.79794,0.1237998
C1I250,鯉潭,2015-04-28,23.961922,120.991131,1.1099934e-09
C0R130,阿禮,2015-04-28,22.742908,120.743678,1.0376573e-09
C0X100,臺南市北區,2015-04-28,23.010394,120.194228,0.16782537
C0S920,金峰嘉蘭,2015-04-28,22.594789,120.960825,0.099762104
C0V490,新興,2015-04-28,22.627422,120.298803,0.5036125
C0F9K0,大安,2015-04-28,24.345061,120.588025,2.741397e-06
72N100,臺南農改,2015-04-28,23.0605,120.342194,9.38903e-06
467290,古坑,2015-04-28,23.633639,120.551889,5.433307e-09
C2E970,八甲,2015-04-28,24.535811,120.795983,3.3678585e-08
C0V440,鳳山,2015-04-28,22.646653,120.356122,0.37071997
C1T940,大觀,2015-04-28,23.714206,121.373133,2.025155e-06
72T250,花蓮農改,2015-04-28,23.975222,121.563889,2.007659e-05
C0E740,造橋,2015-04-28,24.637056,120.864778,1.4289297e-08
C0R100,尾寮山,2015-04-28,22.833111,120.683889,8.721682e-10
A2K630,臺大雲林校區,2015-04-28,23.730628,120.423903,3.095978e-08
C0D580,寶山,2015-04-28,24.735006,121.025192,7.188663e-08
E2P990,林試扇平站,2015-04-28,22.9677,120.6857,1.1271276e-08
C0AI30,三重,2015-04-28,25.057328,121.500629,1.5012001e-05
C0AH00,汐止,2015-04-28,25.066881,121.658778,0.8984397
C1Z040,立山,2015-04-28,23.443356,121.327375,1.7572619e-06
C0W130,花嶼,2015-04-28,23.40007,119.32276,0.23094895
C0A950,鼻頭角,2015-04-28,25.129036,121.923372,0.02567181
C0K470,林內,2015-04-28,23.748675,120.609642,9.081323e-09
C2F990,摩天嶺,2015-04-28,24.322458,120.936819,1.3671054e-09
82C160,茶改場,2015-04-28,24.908472,121.185333,8.8350987e-07
C0Z320,清水林道,2015-04-28,23.27125,121.188272,4.594238e-08
C0R760,南仁湖,2015-04-28,22.084681,120.863353,0.20199643
C0M670,大林,2015-04-28,23.600616,120.45841,2.777341e-07
C0M800,茶山,2015-04-28,23.299075,120.664767,3.9698116e-09
C0A9C0,天母,2015-04-28,25.117494,121.537169,8.797081e-06
72K220,南改斗南分場,2015-04-28,23.634556,120.477333,1.9806663e-08
72AI40,桃改樹林分場,2015-04-28,24.944503,121.386972,7.0611063e-06
C0S910,蘭嶼燈塔,2015-04-28,22.081197,121.503117,0.010562616
C0B050,八斗子,2015-04-28,25.144754,121.79167,0.92843425
C0U900,內城,2015-04-28,24.71813,121.68766,2.8539146e-06
C0X320,柳營,2015-04-28,23.253328,120.375253,1.527221e-07
C0M790,新港,2015-04-28,23.553269,120.345728,9.957156e-07
C0F9T0,西屯,2015-04-28,24.179494,120.641275,8.0802016e-07
C0SA30,都歷,2015-04-28,23.020333,121.323642,0.23479977
C0C620,蘆竹,2015-04-28,25.084275,121.265767,0.0020711818
C0R730,大坪頂,2015-04-28,22.024633,120.69355,0.6430064
C0AJ40,石門,2015-04-28,25.273672,121.601198,0.0012104104
C0E750,苗栗,2015-04-28,24.564569,120.824575,3.6650682e-08
C0T870,鯉魚潭,2015-04-28,23.935639,121.508944,2.462953e-05
C1V170,排雲,2015-04-28,23.463619,120.954147,1.2324513e-08
C2H950,中寮,2015-04-28,23.884447,120.766406,2.1246924e-09
C0R350,貓鼻頭,2015-04-28,21.921774,120.7358,0.91695327
C0V660,岡山,2015-04-28,22.797078,120.294958,0.47433147
C1H941,雙冬,2015-04-28,23.967378,120.802189,1.1176585e-09
C0AJ70,田寮,2015-04-28,25.2698,121.4886,0.06748988
C0AI00,五股,2015-04-28,25.07445,121.42728,2.0596417e-06
C0Z280,德武,2015-04-28,23.47426,121.41071,0.00012156137
C0R700,枋山,2015-04-28,22.246844,120.661086,0.00026440393
C0C460,復興,2015-04-28,24.820208,121.352281,2.213748e-08
E2H360,蓮華池,2015-04-28,23.918333,120.885278,8.6423296e-10
C0M640,中埔,2015-04-28,23.42538,120.5229,7.1097763e-09
C0W140,金沙,2015-04-28,24.488292,118.408778,0.0015289148
C2A540,四堵,2015-04-28,24.8926,121.745736,3.4018992e-06
C0ACA0,新莊,2015-04-28,25.051478,121.446756,0.0052286037
C0R220,潮州,2015-04-28,22.534361,120.54,0.0001921511
U2HA40,臺大內茅埔,2015-04-28,23.689722,120.851117,1.0696674e-09
467490,臺中,2015-04-28,24.145736,120.684075,9.13273e-06
C0U960,翠峰湖,2015-04-28,24.510856,121.608044,6.5492833e-09
E2HA20,林試畢祿溪站,2015-04-28,24.226944,121.308522,2.8405398e-09
C0V890,前鎮,2015-04-28,22.5718,120.3117,0.57074285
467620,蘭嶼,2015-04-28,22.036969,121.558339,0.016690055
C1F941,雪嶺,2015-04-28,24.280586,121.026642,4.2749866e-09
C2H9E0,國姓南港,2015-04-28,23.911108,120.846556,8.686984e-10
C0AC80,文山,2015-04-28,25.00235,121.575728,2.9446278e-06
C0F9R0,龍井,2015-04-28,24.184536,120.528972,5.6380914e-06
C0M760,民雄,2015-04-28,23.551754,120.428457,3.3284095e-07
C0UA40,西德山,2015-04-28,24.560647,121.752608,1.3644308e-08
C1T920,中興,2015-04-28,23.769503,121.498653,0.00042759927
C0D550,雪霸,2015-04-28,24.526972,121.11605,1.6433984e-09
C2F860,梨山,2015-04-28,24.247522,121.243669,2.9593896e-09
C0R320,車城,2015-04-28,22.0744,120.716247,0.92471
C1S870,南美山,2015-04-28,23.15025,121.382333,0.009725128
C0B020,基隆嶼,2015-04-28,25.19141,121.78391,0.8984397
C1U501,牛鬥,2015-04-28,24.637836,121.573656,1.8150885e-07
C0M730,嘉義市東區,2015-04-28,23.457673,120.460531,1.13941525e-07
C0S700,知本,2015-04-28,22.684866,121.005642,1.1129354e-05
C1N001,沙崙,2015-04-28,22.935472,120.309406,0.7572797
C0V760,橋頭,2015-04-28,22.757806,120.30575,0.38379
C0G960,福寶,2015-04-28,24.0443,120.3814,2.493696e-07
C0X210,白河,2015-04-28,23.347466,120.414427,1.2465337e-07
C0S810,東河,2015-04-28,22.972672,121.303986,0.0021002206
C2R170,屏東,2015-04-28,22.66027,120.49403,0.007913294
C0R670,楓港,2015-04-28,22.190131,120.692156,0.00026440393
C0FA50,霧峰,2015-04-28,24.0419,120.6995,1.5233734e-06
C0UB10,蘇澳,2015-04-28,24.5969,121.8571,0.06338671
C0G950,防潮門,2015-04-28,24.1835,120.4871,1.3345035e-05
C0M740,六腳,2015-04-28,23.492871,120.290625,1.7107623e-05
C1R250,力里,2015-04-28,22.428117,120.629228,0.02141639
C0K330,虎尾,2015-04-28,23.719183,120.442036,2.6405143e-08
C2FA00,烏石坑,2015-04-28,24.273503,120.947617,1.3817069e-09
C0V620,永安,2015-04-28,22.82315,120.236856,0.046889372
C1I330,楓樹林,2015-04-28,23.986803,121.076117,9.683696e-10
C0W200,湖西,2015-04-28,23.596314,119.67275,0.08130378
72Q010,高雄農改場,2015-04-28,22.709333,120.525889,0.003712685
C0SA40,瑞和,2015-04-28,22.974361,121.156697,0.04618351
C0C680,龜山,2015-04-28,25.02846,121.38656,1.0259268e-08
C2V260,月眉,2015-04-28,22.971003,120.539853,1.1884173e-08
C0V450,鳳森,2015-04-28,22.545064,120.392592,0.26615715
C0U720,南山,2015-04-28,24.43742,121.38167,1.0211361e-08
A2N290,臺南蘭花園區,2015-04-28,23.340258,120.379661,1.5248938e-07
C0R560,新園,2015-04-28,22.5434,120.461558,0.0011969109
C0U890,三星,2015-04-28,24.66812,121.65302,1.1811711e-06
C1V300,御油山,2015-04-28,23.001983,120.715364,1.888818e-09
C0U600,礁溪,2015-04-28,24.817539,121.765608,4.5875627e-06
C1T980,龍澗,2015-04-28,24.023289,121.411328,1.0369041e-08
C0D670,海天一線,2015-04-28,24.831986,120.914438,0.08787005
C0SA00,歷坵,2015-04-28,22.520969,120.89185,0.00091612735
C0M710,東石,2015-04-28,23.458927,120.15385,9.423149e-05
C0M780,鹿草,2015-04-28,23.41134,120.30835,0.00016670441
C0U520,雙連埤,2015-04-28,24.753033,121.641303,1.0314913e-08
C0B010,七堵,2015-04-28,25.094819,121.71713,0.8581817
C0R480,長治,2015-04-28,22.693128,120.542622,0.001212182
C1V830,國三S383K,2015-04-28,22.781967,120.426475,0.0014432082
12Q980,恆春工作站,2015-04-28,22.079678,120.714425,0.92471
C1O940,東山服務區,2015-04-28,23.286016,120.398472,9.462755e-08
C1U840,東澳嶺,2015-04-28,24.5378,121.8485,1.1066269e-07
C1D630,飛鳳山,2015-04-28,24.766464,121.119178,3.6201913e-09
C0S940,石寧山,2015-04-28,23.223772,121.406639,3.4622897e-06
C0K410,北港,2015-04-28,23.573957,120.292802,1.4154408e-06
C2M620,瑞里,2015-04-28,23.545133,120.675197,1.2115973e-09
C0SB70,小港漁港,2015-04-28,23.158558,121.400431,0.00045514322
C2O950,安南,2015-04-28,23.076694,120.144861,0.027622677
C0F0E0,南湖圈谷,2015-04-28,24.363714,121.444667,2.0713069e-08
467610,成功,2015-04-28,23.097486,121.373428,0.30557927
C0G890,伸港,2015-04-28,24.148933,120.484403,6.0307437e-05
C2E540,龍溪,2015-04-28,24.606489,120.783933,1.5698625e-07
C1V200,梅山,2015-04-28,23.268447,120.823556,3.0477219e-09
C0T9H0,加路蘭山,2015-04-28,23.682947,121.5274,2.838162e-07
C2O930,玉井,2015-04-28,23.126042,120.46055,4.5915004e-07
C1F911,新伯公,2015-04-28,24.221361,120.841069,3.9954564e-09
C0R490,九如,2015-04-28,22.7405,120.490503,0.005484185
C0X200,左鎮,2015-04-28,23.056758,120.408522,6.9132966e-08
C0SB50,叭嗡嗡,2015-04-28,23.047062,121.343223,0.0090994
C1F891,稍來,2015-04-28,24.265689,121.001142,2.389585e-09
72N240,七股研究中心,2015-04-28,23.081672,120.062894,0.3442631
C0C700,中壢,2015-04-28,24.977661,121.256375,2.0240814e-06
C0M690,水上,2015-04-28,23.419734,120.388909,3.9779886e-07
C0V690,鼓山,2015-04-28,22.623325,120.275575,0.5036125
C0O860,大內,2015-04-28,23.11885,120.36083,4.6499274e-08
C0Z200,萬榮,2015-04-28,23.709219,121.420106,2.462953e-05
C0T9D0,和中,2015-04-28,24.26676,121.74103,0.9231466
C1O921,楠西,2015-04-28,23.183511,120.484083,5.987126e-08
C0AJ30,淡水觀海,2015-04-28,25.184591,121.408616,0.0040343953
C0V810,左營,2015-04-28,22.67491,120.28491,0.92056835
C0UA70,桃源谷,2015-04-28,24.962606,121.888875,2.1691241e-07
C0X130,官田,2015-04-28,23.193217,120.315422,5.035025e-05
C1H000,翠峰,2015-04-28,24.109397,121.205211,3.940421e-09
C0UA90,石城,2015-04-28,24.980444,121.951214,0.2314339
C1E681,南勢山,2015-04-28,24.421669,120.923831,2.191084e-09
C0A9F0,內湖,2015-04-28,25.079422,121.57545,8.211838e-06
C0K291,宜梧,2015-04-28,23.536281,120.169329,0.00023780711
C1K540,口湖,2015-04-28,23.585344,120.180517,1.0504869e-05
C0R780,滿州,2015-04-28,22.024403,120.839892,0.91085404
C0V870,文安,2015-04-28,22.8025,120.2164,0.058204338
C0U650,玉蘭,2015-04-28,24.675286,121.587061,1.1764321e-07
C0R640,東港,2015-04-28,22.46247,120.44074,0.57074285
K2E360,苗栗農改,2015-04-28,24.495722,120.829111,1.7671256e-07
C0AJ80,板橋,2015-04-28,25.0107,121.4489,1.1778992e-05
C0S660,下馬,2015-04-28,23.150427,121.070312,2.409063e-08
C1H9B1,阿眉,2015-04-28,24.1263,120.994672,1.603389e-09
C0UA20,多加屯,2015-04-28,24.368614,121.373189,5.0238476e-09
C0E730,頭份,2015-04-28,24.688247,120.912206,0.051506612
72V140,高改旗南分場,2015-04-28,22.857861,120.516667,4.9621394e-07
C0K480,莿桐,2015-04-28,23.761192,120.502372,1.555859e-08
C0U980,坪林石牌,2015-04-28,24.86478,121.77396,4.3191566e-08
C0T900,西林,2015-04-28,23.8119,121.441458,7.5833495e-06
C1I150,青雲,2015-04-28,23.793361,120.949378,9.658738e-10
467350,澎湖,2015-04-28,23.565503,119.563094,0.17926219
C0G800,埔鹽,2015-04-28,24.000394,120.431683,1.5708778e-07
C0H960,草屯,2015-04-28,23.973672,120.68085,4.287554e-09
C1V780,多納林道,2015-04-28,22.888028,120.737917,1.1084955e-09
C0E920,通霄漁港,2015-04-28,24.498589,120.673876,1.0326901e-06
C0Z330,安通山,2015-04-28,23.290728,121.348528,1.39825e-07
C0AH10,永和,2015-04-28,25.01125,121.508111,1.03679795e-05
C0AK10,太平里,2015-04-28,25.134937,121.364899,0.0052286037
C2G640,鹿港,2015-04-28,24.0753,120.430481,1.5690333e-07
C1E890,國三N149K,2015-04-28,24.463414,120.680019,1.1993171e-07
C1R110,口社,2015-04-28,22.770111,120.645222,1.7688886e-06
C1M870,國三N285K,2015-04-28,23.550319,120.505833,6.183623e-09
467050,新屋,2015-04-28,25.006744,121.047486,0.0001410924
C1E480,鳳美,2015-04-28,24.554803,121.034747,8.947622e-10
C0M530,奮起湖,2015-04-28,23.493903,120.699253,1.3067698e-09
C0C590,觀音,2015-04-28,25.027072,121.153317,0.0005328914
C0T9M0,靜浦,2015-04-28,23.455167,121.495028,0.016150039
C2H9M0,發祥,2015-04-28,24.154094,121.164517,9.249116e-10
C0AI40,石牌,2015-04-28,25.115597,121.513139,1.1778992e-05
C1F871,上谷關,2015-04-28,24.203483,121.018644,1.3820918e-09
C2H9G0,百勝,2015-04-28,24.051142,120.909361,2.560855e-09
C0G880,二水,2015-04-28,23.810742,120.6173,9.437266e-09
C0R940,加祿堂,2015-04-28,22.3363,120.6217,0.056121115
C0W220,北竿,2015-04-28,26.220358,119.974881,2.6335167e-09
C0O960,崎頂,2015-04-28,22.959547,120.369317,4.2809532e-08
C0S750,向陽,2015-04-28,23.248397,120.986133,3.2654963e-09
C0T9F0,水璉,2015-04-28,23.797131,121.542514,1.3051161e-06
C1M600,頭凍,2015-04-28,23.406364,120.603339,1.0888254e-09
467660,臺東,2015-04-28,22.752211,121.154586,0.027670933
C1D380,新埔,2015-04-28,24.84745,121.03834,0.00020027626
C2G980,田頭村,2015-04-28,23.8263,120.444175,2.4240244e-08
C0V750,路竹,2015-04-28,22.854997,120.259439,0.041815322
C0N050,蚵寮,2015-04-28,23.301,120.1104,0.38915047
72M700,南改鹿草分場,2015-04-28,23.416869,120.283061,0.00046745414
C1SA50,利嘉林道,2015-04-28,22.82325,121.009389,2.6057014e-09
467550,玉山,2015-04-28,23.487614,120.959522,1.4357788e-08
C0A940,金山,2015-04-28,25.223628,121.643967,0.040107943
C1V340,大津,2015-04-28,22.888322,120.645986,1.0669196e-07
C0W180,七美,2015-04-28,23.219333,119.444892,0.16388798
C1F9C1,白冷,2015-04-28,24.182844,120.929889,5.9720797e-09
K2E710,苗改生物防治研究中心,2015-04-28,24.422861,120.871833,1.4204786e-08
C0N040,蘆竹溝,2015-04-28,23.2344,120.0961,0.38915047
C2W230,畜試所澎湖,2015-04-28,23.628342,119.513206,0.26249254
C0R880,後壁湖,2015-04-28,21.9457,120.7457,0.92253226
C1I280,埔中,2015-04-28,23.820778,120.642594,2.1040605e-09
467790,墾丁雷達站,2015-04-28,21.948235,120.808028,0.91124505
C0W190,望安,2015-04-28,23.380564,119.494075,0.10417213
466881,新北,2015-04-28,24.9593,121.52,5.2887403e-06
C0Z170,卓溪,2015-04-28,23.3443,121.3029,7.3009664e-06
C0F850,東勢,2015-04-28,24.246428,120.833047,5.404357e-09
466900,淡水,2015-04-28,25.164889,121.448906,0.0032908437
C0I370,魚池,2015-04-28,23.895703,120.94135,8.8742325e-10
C0C630,大溪,2015-04-28,24.882853,121.265547,4.036372e-06
C0A520,山佳,2015-04-28,24.974944,121.402008,7.0611063e-06
C0I110,竹山,2015-04-28,23.761225,120.688156,2.7469458e-09
82H840,茶改南部分場,2015-04-28,23.762528,120.7405,1.1028227e-09
C0G660,溪湖,2015-04-28,23.94835,120.479122,5.1764926e-07
C1T800,洛韶,2015-04-28,24.204558,121.453956,1.8126006e-08
C1T810,慈恩,2015-04-28,24.192044,121.388386,4.2251815e-09
C1E451,象鼻,2015-04-28,24.368617,120.940228,2.191084e-09
C0AC60,三峽,2015-04-28,24.939025,121.369728,4.3543296e-06
C0I490,萬大林道,2015-04-28,23.928228,121.091411,2.5235871e-09
C1I290,豐丘,2015-04-28,23.668178,120.887417,9.2513036e-10
C1I320,奧萬大,2015-04-28,23.952956,121.178556,9.687317e-10
C2M910,嘉義大學,2015-04-28,23.471325,120.485903,7.988951e-09
C0U770,南澳,2015-04-28,24.44935,121.81022,0.26558653
C0A980,社子,2015-04-28,25.109508,121.469681,2.8951583e-05
C0V800,六龜,2015-04-28,22.997889,120.633583,6.54701e-09
C1G9D0,國一S218K,2015-04-28,23.890641,120.493253,3.0295024e-07
C0E570,白沙屯,2015-04-28,24.549447,120.696803,1.0326901e-06
C2F9A0,中竹林,2015-04-28,24.103556,120.751061,1.2903587e-09
C0FA40,臺中電廠,2015-04-28,24.2146,120.4907,5.6380914e-06
C2G9A0,畜試所彰化,2015-04-28,23.86045,120.557964,1.0325425e-08
C0H9C0,合歡山,2015-04-28,24.143442,121.272547,1.1502377e-08
C0X060,下營,2015-04-28,23.22695,120.256261,0.00018753689
G2M350,農試溪口農場,2015-04-28,23.58565,120.408111,6.097246e-07
C0U860,頭城,2015-04-28,24.85323,121.8308,5.2752807e-06
C0R580,南州,2015-04-28,22.48591,120.50274,0.0016005818
C0D430,峨眉,2015-04-28,24.6905,121.017189,0.020148562
C0G780,秀水,2015-04-28,24.03405,120.503869,4.830067e-07
72N100,臺南農改場,2015-04-28,23.0605,120.342194,9.38903e-06
C0S900,蘭嶼高中,2015-04-28,22.04909,121.51214,0.016600642
467540,大武,2015-04-28,22.355675,120.903789,0.3154276
C1F9W0,德基,2015-04-28,24.254783,121.190261,2.0212372e-09
C1Z120,壽豐,2015-04-28,23.870853,121.508081,0.0036634372
C0W160,烏坵,2015-04-28,24.9944,119.44956,0.0015781187
C1I240,外大坪,2015-04-28,23.958697,120.917931,1.0637691e-09
C1I550,國六W023K,2015-04-28,23.979067,120.867742,1.6016651e-09
C0R870,興海,2015-04-28,21.9752,120.8439,0.92298716
C0R140,瑪家,2015-04-28,22.682903,120.686639,6.654326e-08
C0A530,坪林,2015-04-28,24.938183,121.70975,1.8498433e-07
C0X260,後壁,2015-04-28,23.366358,120.362326,3.3393174e-08
C0Z230,和平,2015-04-28,24.30717,121.77007,0.9231466
C0G770,福興,2015-04-28,24.041289,120.437669,1.5708778e-07
C0H9A0,神木村,2015-04-28,23.532742,120.843667,1.8459083e-09
C0I460,南投,2015-04-28,23.911469,120.687331,4.6124633e-09
C0I480,梅峰,2015-04-28,24.085272,121.173572,2.7289708e-09
C1V570,吉東,2015-04-28,22.85422,120.5454,3.5605416e-07
C2D740,屯原,2015-04-28,24.067969,121.209389,2.320416e-09
C2A560,福山,2015-04-28,24.776203,121.502811,5.3976814e-09
C0AH30,五分山,2015-04-28,25.07125,121.780794,6.5307496e-08
C0FA10,松柏,2015-04-28,24.429115,120.617482,2.874001e-07
72S200,東改班鳩分場,2015-04-28,22.829528,121.077694,0.005249413
72HA00,中改埔里分場,2015-04-28,23.903208,120.963364,9.1782765e-10
C2H9W0,大坪頂農水,2015-04-28,24.043122,120.932781,1.0819337e-09
C0C650,平鎮,2015-04-28,24.897503,121.214636,8.8350987e-07
C0S930,延平,2015-04-28,22.902581,121.084058,1.2550147e-05
C0UA60,樟樹山,2015-04-28,24.41393,121.78325,1.5036096e-06
C1S670,摩天,2015-04-28,23.199503,121.027,3.2161207e-09
C0V630,茄萣,2015-04-28,22.906642,120.182608,0.72498834
466940,基隆,2015-04-28,25.133314,121.740475,0.90659374
C0X050,東河,2015-04-28,23.296598,120.385608,1.527221e-07
C0R770,保力,2015-04-28,22.071122,120.764111,0.89735943
G2L020,農試嘉義分所,2015-04-28,23.485028,120.473806,6.646636e-09
C0X240,關子嶺,2015-04-28,23.331169,120.508025,1.6571441e-09
C0I380,集集,2015-04-28,23.828206,120.801467,2.6645444e-09
466990,花蓮,2015-04-28,23.975128,121.613275,5.5556226e-05
C1V220,小關山,2015-04-28,23.154217,120.813603,2.1597533e-09
C1F9G1,慶福山,2015-04-28,24.180853,120.848378,1.8210827e-09
C0Z250,瑞穗林道,2015-04-28,23.49284,121.30688,1.4356008e-08
C0D590,新豐,2015-04-28,24.87068,120.97721,3.0248596e-06
C0A870,五指山,2015-04-28,25.132153,121.608692,8.958508e-08
C0UA50,西帽山,2015-04-28,24.555361,121.802628,5.9295196e-08
C0X160,仁德,2015-04-28,22.968258,120.257689,0.013763399
C1H971,六分寮,2015-04-28,23.92507,120.6378,1.0064746e-09
C0W120,西嶼,2015-04-28,23.5626,119.468436,0.17926219
C0G650,員林,2015-04-28,23.946503,120.585597,1.5890645e-07
C0AD50,鶯歌,2015-04-28,24.951533,121.346294,8.96036e-05
C2H9Q0,北東眼山,2015-04-28,24.120939,121.189303,2.2386846e-09
C2H9T0,名間竹圍,2015-04-28,23.859914,120.637572,1.9412558e-09
C0S990,山豬窟,2015-04-28,22.318619,120.857372,0.020919137
72Q010,高雄農改,2015-04-28,22.709333,120.525889,0.003712687
C0X190,安平,2015-04-28,22.993161,120.152181,0.16822715
C0K400,斗六,2015-04-28,23.720583,120.541127,1.4165284e-08
12J990,口湖工作站,2015-04-28,23.589978,120.180394,8.391204e-06
C0O830,北寮,2015-04-28,23.079561,120.495008,6.804464e-09
C1D410,白蘭,2015-04-28,24.579364,121.079947,7.799924e-10
C0S970,加津林,2015-04-28,22.416211,120.926942,0.27483505
C0D700,關西,2015-04-28,24.7977,121.1732,2.6003836e-06
C0M810,里佳,2015-04-28,23.389125,120.716647,1.3067698e-09
C0U750,龜山島,2015-04-28,24.841667,121.953133,5.042253e-07
C0R810,內獅,2015-04-28,22.305064,120.642986,0.056121115
C1M390,龍美,2015-04-28,23.406728,120.654417,1.1776176e-09
C2FB60,頭櫃山,2015-04-28,24.129842,120.858925,9.609143e-10
C1H840,國三N238K,2015-04-28,23.841008,120.707711,2.5112374e-09
CAQ030,崎峰國小,2015-04-28,22.42565,120.49521,0.0016005818
C2E520,大湖,2015-04-28,24.414939,120.870872,7.2749654e-06
467530,阿里山,2015-04-28,23.508208,120.813242,3.6346306e-09
C1E691,南湖,2015-04-28,24.40135,120.837533,1.8669908e-09
C0FA30,梧棲,2015-04-28,24.256003,120.523381,5.6818935e-06
C1V231,高中,2015-04-28,23.134911,120.716711,1.2725653e-09
C0F9V0,新社,2015-04-28,24.200172,120.815806,1.8709798e-09
C0H890,埔里,2015-04-28,23.972169,120.952425,1.4893531e-08
C0R690,墾丁,2015-04-28,21.966756,120.810269,0.5858026
C0F0D0,審馬陣,2015-04-28,24.381675,121.4203,1.1304217e-08
C0R820,白鷺,2015-04-28,22.454275,120.666219,5.074531e-07
U2H480,臺大溪頭,2015-04-28,23.670306,120.798194,8.986515e-10
C1V190,南天池,2015-04-28,23.27403,120.91176,3.9113823e-09
K2E360,苗栗農改場,2015-04-28,24.495722,120.829111,1.7671256e-07
CAJ050,海口故事園區,2015-04-28,23.57543,120.14121,1.0496938e-05
C2H9D0,三隻寮,2015-04-28,24.093078,120.861578,1.0382255e-09
C0O990,媽廟,2015-04-28,22.99175,120.293525,0.0076880157
C0D480,打鐵坑,2015-04-28,24.849664,121.150789,4.1789368e-09
C0Z220,和平林道,2015-04-28,24.343922,121.656317,1.3732092e-06
C0TA10,花蓮漁港,2015-04-28,23.995322,121.638331,7.776425e-05
72C440,桃園農改場,2015-04-28,24.950944,121.030583,0.000121581885
C1E711,馬拉邦山,2015-04-28,24.367306,120.901656,9.0280733e-10
C0SB20,富岡,2015-04-28,22.792467,121.192669,0.026307674
C0D560,竹東,2015-04-28,24.767147,121.057881,4.2918007e-05
C0F9U0,南屯,2015-04-28,24.137006,120.637969,3.591839e-05
C0M720,番路,2015-04-28,23.464657,120.554156,3.4332401e-09
C0F0A0,雪山圈谷,2015-04-28,24.388594,121.236339,1.304365e-08
C1A9N0,四十份,2015-04-28,24.934158,121.593283,8.504895e-08
C0U760,東澳,2015-04-28,24.52196,121.83318,7.651871e-06
C0X230,鹽水,2015-04-28,23.272621,120.247641,0.0013758399
C2H9H0,苗改南投蜂場,2015-04-28,23.852589,120.693481,2.7461233e-09
C0R950,萬隆國小,2015-04-28,22.507667,120.587817,0.024604088
C0V370,古亭坑,2015-04-28,22.893178,120.401947,0.00043891495
C1I340,新興橋,2015-04-28,23.563333,120.868728,8.2053986e-10
C0SA80,土坂,2015-04-28,22.453108,120.887572,0.05554896
C0R160,鹽埔,2015-04-28,22.739558,120.530778,0.0017161375
C0AC40,大屯山,2015-04-28,25.175675,121.522408,2.045934e-08
466850,五分山雷達站,2015-04-28,25.071182,121.781205,6.3488514e-08
C2H9L0,馬烈霸,2015-04-28,24.1512,121.201772,2.1894464e-09
C1AI50,國三N016K,2015-04-28,25.034164,121.619664,3.5532453e-06
C1V600,藤枝,2015-04-28,23.071961,120.757042,1.8072729e-09
C1E601,南勢,2015-04-28,24.572486,120.734842,1.647825e-08
C0Z180,新城,2015-04-28,24.03946,121.60454,2.8001463e-05
C0O980,新市,2015-04-28,23.061614,120.298197,8.296388e-05
C0K420,西螺,2015-04-28,23.800407,120.467394,1.9810592e-08
C0Z050,佳心,2015-04-28,23.34567,121.21316,1.7366597e-08
C0AD30,蘆洲,2015-04-28,25.086594,121.472331,1.5050762e-05
C0V610,梓官,2015-04-28,22.760558,120.267211,0.4743317
K2F750,種苗改良場,2015-04-28,24.225972,120.800917,2.6277114e-09
C0UA80,大溪漁港,2015-04-28,24.941801,121.902955,4.594721e-06
C1AI60,國一39K邊坡,2015-04-28,25.064361,121.383836,1.1665353e-06
C0W150,金寧,2015-04-28,24.457703,118.328989,0.0007107524
C0R960,內埔,2015-04-28,22.608483,120.570714,0.043219246
V2C250,八德合作社,2015-04-28,24.93775,121.266389,3.3113993e-06
C2H9S0,龍南,2015-04-28,23.953536,120.833183,9.0186936e-10
C0AH40,平等,2015-04-28,25.129142,121.577086,8.179941e-07
C0R540,佳冬,2015-04-28,22.419456,120.552375,0.0015995223
466950,彭佳嶼,2015-04-28,25.627975,122.079744,0.017372627
C0A890,雙溪,2015-04-28,25.036003,121.864242,0.80290073
C0C480,桃園,2015-04-28,24.992425,121.323172,3.8717635e-06
C0AH50,林口,2015-04-28,25.072181,121.38084,7.655111e-06
A2K360,水試臺西試驗場,2015-04-28,23.717231,120.190522,3.0277886e-05
B2N890,畜試所,2015-04-28,23.058972,120.336406,9.38903e-06
C2M960,外寮,2015-04-28,23.562643,120.665688,1.0287989e-09
C0F9S0,烏日,2015-04-28,24.107058,120.624103,2.823169e-07
C0C490,八德,2015-04-28,24.928708,121.283289,1.6483425e-05
C0R190,赤山,2015-04-28,22.592333,120.614306,0.029985253
C0T820,天祥,2015-04-28,24.179597,121.495639,1.8778823e-05
C1F9E1,龍安,2015-04-28,24.1605,120.831961,1.6490943e-09
C0V820,小林,2015-04-28,23.148408,120.63325,2.78451e-09
C2G870,芳苑,2015-04-28,23.922303,120.320025,7.831279e-07
C0E850,大河,2015-04-28,24.618069,120.948578,9.629661e-09
C1U670,寒溪,2015-04-28,24.634,121.71691,0.0096489275
C0N020,城西,2015-04-28,23.0568,120.0956,0.2791606
C1Z110,三棧,2015-04-28,24.11557,121.60501,1.4517995e-07
C0R280,檳榔,2015-04-28,22.076078,120.836777,0.5908262
C2H9J0,中台,2015-04-28,23.9996,120.938739,4.699105e-09
C0F9L0,后里,2015-04-28,24.310436,120.729725,1.2611607e-08
C0D540,橫山,2015-04-28,24.71116,121.11693,1.458236e-08
C1D420,太閣南,2015-04-28,24.632808,121.160575,1.0205475e-09
C1E770,公館,2015-04-28,24.526914,120.830806,7.64128e-08
CAN130,水試所海水繁養殖中心,2015-04-28,23.120802,120.07968,0.3442631
C1I430,翠華,2015-04-28,24.191961,121.224339,4.1604933e-09
C1M400,菜瓜坪,2015-04-28,23.251928,120.576103,4.158946e-09
C0G730,二林,2015-04-28,23.903325,120.376081,2.9851208e-07
72M360,南改義竹分場,2015-04-28,23.360694,120.279361,3.606438e-06
V2K620,麥寮合作社,2015-04-28,23.753836,120.294783,5.2423985e-07
C0Z070,舞鶴,2015-04-28,23.46811,121.37407,1.9081692e-05
C0B040,大武崙,2015-04-28,25.166676,121.706993,0.85503566
C1Z030,紅葉,2015-04-28,23.493119,121.338806,8.572219e-05
C1I050,丹大,2015-04-28,23.753747,121.141147,6.065918e-09
C0I080,信義,2015-04-28,23.689694,120.851036,1.0696674e-09
C2M920,朴子農改,2015-04-28,23.469889,120.259383,1.7107623e-05
C2A880,福隆,2015-04-28,25.017842,121.942083,0.022317318
C0Z160,鳳林,2015-04-28,23.746114,121.453411,0.00079384254
C0V210,復興,2015-04-28,23.222403,120.806089,3.951967e-09
C0H990,昆陽,2015-04-28,24.121322,121.273642,8.274982e-09
C0R741,獅子,2015-04-28,22.202308,120.705236,7.4209165e-05
C0S710,鹿野,2015-04-28,22.917711,121.122994,2.5299192e-07
C0I530,小奇萊,2015-04-28,24.131764,121.295717,8.641213e-09
C2K630,荷苞,2015-04-28,23.657717,120.595144,1.0591192e-08
C0Z080,富源,2015-04-28,23.587642,121.378225,5.0673607e-05
467441,高雄,2015-04-28,22.7304,120.3125,0.92056835
C0SB10,美和,2015-04-28,22.682078,121.060236,0.047980726
C2K620,馬光農場,2015-04-28,23.721453,120.378864,3.8777124e-08
C1I140,卡奈托灣,2015-04-28,23.754364,121.087872,1.9016544e-09
C0I520,玉山風口,2015-04-28,23.470489,120.955994,1.4932558e-08
C1G691,下水埔,2015-04-28,23.816114,120.5676,1.655155e-08
C0X110,臺南市南區,2015-04-28,22.961189,120.188378,0.116597876
C0V680,仁武,2015-04-28,22.701083,120.347722,0.90964603
C2G840,北斗,2015-04-28,23.877586,120.514222,2.5041533e-07
C0R900,竹坑,2015-04-28,22.1385,120.7022,0.055044822
C0K250,崙背,2015-04-28,23.75555,120.318925,3.9502473e-07
C0G860,社頭,2015-04-28,23.897647,120.5862,1.0321175e-07
C0X150,安定,2015-04-28,23.102614,120.227839,0.009727438
C0R590,里港,2015-04-28,22.77919,120.49459,9.377361e-06
C0E610,馬都安,2015-04-28,24.451272,120.930192,2.1585848e-08
C0E550,明德,2015-04-28,24.583486,120.885411,1.2655777e-08
C0R150,三地門,2015-04-28,22.709889,120.639944,0.0016262472
C0G910,花壇,2015-04-28,24.032076,120.549461,2.4306433e-07
C1D400,鳥嘴山,2015-04-28,24.71909,121.28387,4.4368966e-09
C0K500,元長,2015-04-28,23.64981,120.315024,9.075195e-06
C0F0B0,石岡,2015-04-28,24.276061,120.777644,5.244001e-09
C2V250,甲仙,2015-04-28,23.080106,120.591758,1.9306767e-09
C0SA20,金崙山,2015-04-28,22.567419,120.959667,1.8547041e-08
C0V350,溪埔,2015-04-28,22.738578,120.446797,0.11779798
C0M660,溪口,2015-04-28,23.604131,120.403569,6.097246e-07
C1S880,壽卡,2015-04-28,22.238911,120.858903,0.0010898074
72D680,桃改新埔分場,2015-04-28,24.834444,121.066111,0.00037882113
