站號,站名,日期,lat,lon,BLBTSLS
C0R710,龍磐,2015-09-16,21.931672,120.838942,0.4635933
C1F9D1,白毛台,2015-09-16,24.158325,120.886933,4.973287e-07
C0G940,竹塘,2015-09-16,23.848253,120.386764,0.0015426752
467590,恆春,2015-09-16,22.003897,120.746339,0.32976943
C1O850,環湖,2015-09-16,23.148617,120.418633,0.045016423
C0U710,太平山,2015-09-16,24.505486,121.525656,5.494879e-09
C0E820,獅潭,2015-09-16,24.539133,120.920042,0.8563551
C0V880,興達,2015-09-16,22.8778,120.2127,0.0039017089
C0S890,關山,2015-09-16,23.0395,121.175017,0.024703762
C0SB30,新蘭,2015-09-16,22.869214,121.223228,0.7909373
C2R970,屏科大,2015-09-16,22.648275,120.619247,0.92643166
K2F750,種苗繁殖,2015-09-16,24.225972,120.800917,6.6972996e-07
C1Z130,銅門,2015-09-16,23.965694,121.492842,0.9718076
C0AD40,土城,2015-09-16,24.973208,121.445169,0.97174245
CAN140,六官養殖協會,2015-09-16,23.22881,120.29962,0.15224233
C0X180,山上,2015-09-16,23.0757,120.363253,0.04627989
C0F9Z0,雪山東峰,2015-09-16,24.388792,121.268675,8.619386e-09
C1M480,獨立山,2015-09-16,23.537022,120.607797,2.8313027e-08
C0X220,學甲,2015-09-16,23.230367,120.182187,0.011953577
467650,日月潭,2015-09-16,23.881325,120.90805,9.586795e-09
C0K600,箔子寮,2015-09-16,23.6197,120.14,0.0005226078
C0G830,埤頭,2015-09-16,23.866003,120.452806,0.10626605
C0S950,七塊厝,2015-09-16,22.954453,121.229922,0.45539606
467110,金門,2015-09-16,24.407306,118.289281,0.56754243
C0AH80,深坑,2015-09-16,25.002703,121.628328,0.9753563
467990,馬祖,2015-09-16,26.169269,119.923419,0.9945358
C0A970,三貂角,2015-09-16,25.007606,122.002058,0.92421556
C2D730,寶山農場,2015-09-16,24.732444,120.976153,0.18097284
C0K430,褒忠,2015-09-16,23.690938,120.303634,0.00020236973
467480,嘉義,2015-09-16,23.495925,120.432906,0.017032547
C2E540,後龍,2015-09-16,24.606489,120.783933,0.2043345
C0V400,阿公店,2015-09-16,22.804194,120.355528,0.0026292559
C0R440,大漢山,2015-09-16,22.405264,120.753181,1.0334173e-08
C0K280,四湖,2015-09-16,23.630414,120.227125,0.0009459021
C1F9B1,桐林,2015-09-16,24.066172,120.735194,0.0031701007
C2H9U0,鳳鵬,2015-09-16,23.763919,120.788061,6.896031e-08
C0K390,土庫,2015-09-16,23.679029,120.395574,6.8571346e-05
C1I450,望鄉山,2015-09-16,23.594153,120.944286,1.41556695e-08
C0E910,海埔,2015-09-16,24.648767,120.772435,0.4827731
B2E890,畜試北區分所,2015-09-16,24.527806,120.770972,0.42602566
C0R750,四林格山,2015-09-16,22.076989,120.802439,0.9437625
C0F0C0,中坑,2015-09-16,24.248517,120.903319,5.47748e-08
C1I121,大鞍,2015-09-16,23.678381,120.760017,1.4303558e-08
72U480,花改蘭陽分場,2015-09-16,24.686306,121.716583,0.7445497
C0A770,科教館,2015-09-16,25.096356,121.516507,0.97307354
C0AJ60,六塊厝,2015-09-16,25.24,121.4481,0.6073468
C0R620,墾雷,2015-09-16,21.900836,120.855269,0.33617523
467420,永康,2015-09-16,23.038386,120.2367,0.019005856
467300,東吉島,2015-09-16,23.25695,119.667467,0.024141587
C0I410,名間,2015-09-16,23.837053,120.701447,0.026343701
A2C560,農工中心,2015-09-16,24.985917,121.239833,0.91009223
C0V740,旗山,2015-09-16,22.888614,120.483597,0.14966346
C0Z061,玉里,2015-09-16,23.3215,121.339656,0.9979706
C0S840,南田,2015-09-16,22.279725,120.889208,0.25083998
C1I470,杉林溪,2015-09-16,23.639517,120.786444,1.27209985e-08
C1X040,東原,2015-09-16,23.291597,120.463822,0.009157634
C0R660,枋寮,2015-09-16,22.367722,120.590647,0.25717372
C1R120,上德文,2015-09-16,22.763272,120.704442,0.11196206
C0K450,大埤,2015-09-16,23.646074,120.431537,0.007147914
C0UA00,土場,2015-09-16,24.576533,121.495333,0.69266087
467080,宜蘭,2015-09-16,24.763975,121.756528,0.5395042
C0N030,四草,2015-09-16,23.0235,120.1116,0.0047982153
C0V650,彌陀,2015-09-16,22.783806,120.246361,0.0016966817
C0D660,新竹市東區,2015-09-16,24.798681,120.986942,0.17112133
82S580,茶改東部分場,2015-09-16,22.907694,121.130139,0.9623933
C0SB40,興隆,2015-09-16,22.913661,121.257469,0.6142743
C0C710,大溪永福,2015-09-16,24.892936,121.324975,0.9180698
C0FA20,溫寮,2015-09-16,24.372177,120.583125,0.0010402933
C0V640,湖內,2015-09-16,22.887139,120.2445,0.003462793
C0R910,下寮,2015-09-16,22.3929,120.5548,0.14325924
C0Z020,明里,2015-09-16,23.208717,121.262342,0.9978731
C0M770,嘉義梅山,2015-09-16,23.585398,120.555587,0.42943558
G2F820,農業試驗所,2015-09-16,24.031261,120.688133,0.90647477
C0C660,楊梅,2015-09-16,24.912375,121.143047,0.7881686
C1E511,新開,2015-09-16,24.347703,120.827019,2.4224028e-07
G2F820,農試所(霧峰),2015-09-16,24.031261,120.688133,0.90647477
C1I070,和社,2015-09-16,23.591131,120.888861,5.874215e-08
C2F000,大肚,2015-09-16,24.15295,120.572117,6.2142604e-08
C1S850,豐南,2015-09-16,23.122139,121.262389,0.26580697
C2A920,富貴角,2015-09-16,25.263783,121.565258,0.98093945
CAH030,茶改場竹圍站,2015-09-16,23.860083,120.637528,2.1583498e-06
C0T960,光復,2015-09-16,23.660694,121.424964,0.9802636
C0F9M0,豐原,2015-09-16,24.254322,120.720692,0.19390035
C0R720,旭海,2015-09-16,22.205403,120.887614,0.8420101
C0V710,苓雅,2015-09-16,22.622742,120.330669,0.097152464
C0C740,觀音工業區,2015-09-16,25.064764,121.114856,0.7672631
CAC040,拉拉山,2015-09-16,24.699317,121.427133,2.4010571e-09
C0V790,萬山,2015-09-16,22.905944,120.688056,0.00096272654
U2HA30,臺大和社,2015-09-16,23.590856,120.888864,5.874215e-08
C0AJ90,澳底,2015-09-16,25.0552,121.9253,0.98206514
C0Z100,東華,2015-09-16,23.89525,121.549833,0.619036
C0G970,三豐,2015-09-16,23.882,120.2895,0.00047915473
V2K610,大庄合作社,2015-09-16,23.8068,120.367939,0.0022388168
C0V900,汕尾,2015-09-16,22.4782,120.4151,0.21752289
C1R630,龍泉,2015-09-16,22.66701,120.59091,0.85572064
C1AC50,關渡,2015-09-16,25.133486,121.469331,0.7741445
C0F9I0,神岡,2015-09-16,24.272481,120.658314,0.2775787
C0K460,斗南,2015-09-16,23.678734,120.478359,0.24092275
467410,臺南,2015-09-16,22.993239,120.204772,0.019013718
C2O810,曾文,2015-09-16,23.219681,120.497328,0.013203903
467280,後龍,2015-09-16,24.648563,120.831834,0.6661091
C1F9J1,清水林,2015-09-16,24.071242,120.820419,1.6572493e-08
C2A650,火燒寮,2015-09-16,25.002719,121.742892,0.9970389
466930,竹子湖,2015-09-16,25.162078,121.544547,0.99863994
C1I220,樟湖,2015-09-16,23.905333,120.846983,1.0122777e-08
C0I390,仁愛,2015-09-16,24.022122,121.132206,3.3328e-09
C0Z300,東里,2015-09-16,23.26853,121.30547,0.9985669
C1V590,新發,2015-09-16,23.057019,120.646064,0.1124441
C0K510,水林,2015-09-16,23.572924,120.24597,0.0004727812
72S590,東改賓朗果園,2015-09-16,22.813889,121.071278,0.9847348
82A750,茶改北部分場,2015-09-16,24.955778,121.631222,5.0466065e-07
C1A750,石碇服務區,2015-09-16,25.00872,121.646242,0.96938485
C0X300,鹿寮,2015-09-16,23.386047,120.477331,0.019546064
G2AI50,關渡,2015-09-16,25.11575,121.492,0.96928835
C0K590,雲林東勢,2015-09-16,23.674192,120.255721,0.00020150059
C0A570,桶後,2015-09-16,24.848222,121.597992,0.9672222
C1S800,華源,2015-09-16,22.657883,121.02325,0.5080152
C0G720,溪州,2015-09-16,23.851589,120.499093,0.07313204
C1V160,達卡努瓦,2015-09-16,23.279811,120.705319,1.1592717e-07
C2M410,馬頭山,2015-09-16,23.324361,120.582017,0.00012248347
C0V850,蚵仔寮,2015-09-16,22.7256,120.2527,0.0128200315
C0S740,池上,2015-09-16,23.119628,121.209469,0.9711732
C1V390,尖山,2015-09-16,22.813153,120.367789,0.00038205204
C0AH70,松山,2015-09-16,25.04871,121.55042,0.9804307
C0N010,鯤鯓國小,2015-09-16,23.1879,120.0889,0.006810937
C0R550,新埤,2015-09-16,22.467947,120.582894,0.9242176
C0SA60,知本（水試所）,2015-09-16,22.702394,121.082761,0.37088853
C0T9I0,豐濱,2015-09-16,23.583897,121.514806,0.9990348
C0UB00,淡江大學蘭陽校園,2015-09-16,24.823239,121.730383,0.90648186
C0W240,九宮,2015-09-16,24.423753,118.240186,0.014940565
C0T9N0,富里,2015-09-16,23.171639,121.249378,0.9858783
U2HA50,臺大竹山,2015-09-16,23.756972,120.681556,0.00061708683
C0V840,鳳鼻頭,2015-09-16,22.5083,120.3591,0.1271746
C0X140,西港,2015-09-16,23.125608,120.203108,0.015372638
72D080,桃改五峰分場,2015-09-16,24.612194,121.157167,4.9272035e-09
C2H9P0,伊拿谷,2015-09-16,23.963211,121.088264,4.875841e-09
C2H9F0,柑林,2015-09-16,24.018658,120.847072,1.3472909e-07
C0TA20,加灣,2015-09-16,24.082025,121.608944,0.9304884
C0V530,阿蓮,2015-09-16,22.883208,120.327508,0.04174199
C1O880,關山,2015-09-16,23.173397,120.594092,9.5329786e-05
C0E791,卓蘭,2015-09-16,24.3126,120.8244,2.0582894e-07
C1I030,武界,2015-09-16,23.913225,121.052483,5.7077796e-09
C0R520,崁頂,2015-09-16,22.514781,120.506914,0.14508544
C0R341,牡丹,2015-09-16,22.130036,120.792639,0.98860186
C0R930,萬丹,2015-09-16,22.5885,120.4851,0.922723
C0S760,紅石,2015-09-16,23.069131,121.126219,1.383931e-08
C1M610,石磐龍,2015-09-16,23.496606,120.663506,1.951611e-08
C0UA10,鴛鴦湖,2015-09-16,24.590269,121.412228,3.3017338e-09
V2C260,八德蔬果,2015-09-16,24.978508,121.281819,0.08252816
C0R800,丹路,2015-09-16,22.204481,120.750989,0.97637826
C0G920,永靖,2015-09-16,23.924703,120.547533,0.0114808045
C2M950,太和,2015-09-16,23.538372,120.702961,9.610908e-09
C1A630,下盆,2015-09-16,24.771003,121.538622,1.3507814e-05
B2N890,畜產試驗所,2015-09-16,23.058972,120.336406,0.05094171
C0UA30,白嶺,2015-09-16,24.527819,121.519031,5.710567e-09
C1V580,溪南(特生中心),2015-09-16,23.084972,120.788475,1.6713402e-08
C1T970,大農,2015-09-16,23.615233,121.413331,0.9962882
E2S960,林試太麻里2,2015-09-16,22.598014,120.989761,0.73935986
C0R650,竹田,2015-09-16,22.58486,120.54344,0.9261444
C1H900,清流,2015-09-16,24.080775,120.962997,6.6669257e-09
C1C510,水尾,2015-09-16,24.940081,121.087161,0.7139379
C0F9X0,大雅(中科園區),2015-09-16,24.21528,120.62445,0.004794762
C0SB60,白守蓮,2015-09-16,23.126769,121.401914,0.02195772
C0O970,虎頭埤,2015-09-16,23.021375,120.347878,0.0076216864
C0C730,中大臨海站,2015-09-16,24.966126,121.008581,0.45694286
C0X250,新營,2015-09-16,23.310689,120.316681,0.023955725
C0V700,三民,2015-09-16,22.645017,120.311233,0.097152464
C0U870,大礁溪,2015-09-16,24.791042,121.675047,5.7886333e-05
C0E870,高鐵苗栗,2015-09-16,24.60725,120.826094,0.21994123
A2K570,古坑花卉中心,2015-09-16,23.63353,120.55239,0.051118538
C0M860,新美,2015-09-16,23.338017,120.683169,2.0223583e-06
C1E701,八卦,2015-09-16,24.491756,120.927619,0.030412035
C0I420,國姓,2015-09-16,24.037803,120.855072,2.704443e-07
C2D720,關西工作站,2015-09-16,24.757275,121.184792,0.52015114
C0S960,香蘭,2015-09-16,22.587569,120.993375,0.73935986
C0R260,春日,2015-09-16,22.370361,120.628306,0.017448027
72G600,臺中農改場,2015-09-16,24.003028,120.534389,0.0010731872
C0Z210,瑞穗,2015-09-16,23.5239,121.39021,0.9981964
C0M820,達邦,2015-09-16,23.453994,120.749517,1.6100646e-08
C0V860,南寮,2015-09-16,22.7616,120.2339,0.0021895242
C0G740,大城,2015-09-16,23.852487,120.320935,0.0003933646
C0R920,塭仔,2015-09-16,22.4169,120.5197,0.13600278
C0R470,高樹,2015-09-16,22.826389,120.600806,0.964781
C0R680,佳樂水,2015-09-16,21.993578,120.861633,0.31724834
C1O870,大棟山,2015-09-16,23.31157,120.52226,9.359075e-09
C0D360,梅花,2015-09-16,24.678347,121.208558,7.4802274e-06
C0Z190,富世,2015-09-16,24.14743,121.6297,0.90833503
C0AI10,屈尺,2015-09-16,24.92184,121.54475,0.9754991
B2U990,畜試東區分所,2015-09-16,24.669039,121.832561,0.72234404
C0SB80,長濱漁港,2015-09-16,23.313644,121.459994,0.9734529
C0R240,來義,2015-09-16,22.527306,120.625111,0.028854327
C0V910,大樹,2015-09-16,22.684645,120.432803,0.03892572
C1R610,西大武山,2015-09-16,22.617719,120.7322,1.9191784e-08
C0G900,線西,2015-09-16,24.143358,120.443536,0.00040743174
C0M700,竹崎,2015-09-16,23.526178,120.555508,0.0043030316
C2E880,三義,2015-09-16,24.405478,120.749819,7.5342726e-08
C0C720,竹圍,2015-09-16,25.112692,121.239824,0.6267075
C0F9P0,清水,2015-09-16,24.312297,120.562242,0.014194868
C0Z150,吉安光華,2015-09-16,23.930925,121.595153,0.5761398
C1D640,外坪(五指山),2015-09-16,24.644447,121.090961,4.2478615e-07
C0F9O0,潭子,2015-09-16,24.213106,120.703933,0.19596389
C2H9R0,卓社,2015-09-16,23.887894,121.000086,1.6402074e-09
72T250,花蓮農改場,2015-09-16,23.975222,121.563889,0.9453367
C0E780,銅鑼,2015-09-16,24.489681,120.790853,0.48280415
C1T950,太安,2015-09-16,23.666719,121.370128,2.1368822e-07
C0E830,苑裡,2015-09-16,24.439714,120.653053,0.0010283442
467270,田中,2015-09-16,23.873803,120.581286,0.56109625
C0SA10,檳榔四格山,2015-09-16,22.810031,121.109308,0.99454784
C1T830,布洛灣,2015-09-16,24.17184,121.57127,0.99354
C0F970,大坑,2015-09-16,24.173142,120.722289,0.07577918
C1U920,思源,2015-09-16,24.393125,121.347214,4.6743347e-09
C0A931,三和,2015-09-16,25.233153,121.595236,0.9969987
C0I010,廬山,2015-09-16,24.033311,121.181808,3.0650649e-09
C2M940,日野賀,2015-09-16,23.434056,120.727169,1.8018632e-08
C0R860,鼻頭,2015-09-16,22.1043,120.8979,0.39373493
C0UB20,壯圍,2015-09-16,24.7359,121.8163,0.72234404
C0R790,九棚,2015-09-16,22.14195,120.889281,0.7345829
C0W110,東莒,2015-09-16,25.9652,119.98069,0.97571546
C1U930,粉鳥林,2015-09-16,24.497088,121.842479,0.72019184
C1I211,蘆竹湳,2015-09-16,23.934019,120.811994,1.021136e-06
C0S830,長濱,2015-09-16,23.286817,121.411975,0.99656355
C1F9F1,伯公龍,2015-09-16,24.272392,120.849047,1.6286636e-07
C0E810,西湖,2015-09-16,24.562947,120.7485,0.27797368
C1I440,新高口,2015-09-16,23.478744,120.878939,1.3272301e-08
C0O840,王爺宮,2015-09-16,23.222064,120.40085,0.013203903
C0T9G0,鳳林山,2015-09-16,23.735269,121.420131,0.9957992
C0X080,佳里,2015-09-16,23.173039,120.145086,0.011468948
C0FB70,大甲溪埔,2015-09-16,24.370625,120.620067,0.00092297705
C0Z310,清水斷崖,2015-09-16,24.218294,121.689142,0.30073568
C0M680,太保,2015-09-16,23.455062,120.331455,0.011083852
C1S820,金峰,2015-09-16,22.590969,120.933236,0.94837314
C0AD10,八里,2015-09-16,25.150211,121.403947,0.6267075
C2K240,草嶺,2015-09-16,23.59555,120.693461,1.0220752e-08
C1SA70,都蘭,2015-09-16,22.87794,121.226881,0.614828
C0K440,二崙,2015-09-16,23.772797,120.408944,0.00090448605
C1A760,坪林交控,2015-09-16,24.94284,121.713442,0.8975268
C0F9N0,大里,2015-09-16,24.092464,120.701378,0.016304458
C0SA90,達仁林場,2015-09-16,22.264347,120.823972,0.996792
C1R290,石門山,2015-09-16,22.112611,120.756597,0.26710844
42HA10,萬大發電廠,2015-09-16,23.978875,121.139639,5.956554e-07
C0R890,山海,2015-09-16,21.9878,120.7091,0.30093342
C0T9A0,月眉山,2015-09-16,23.809928,121.539828,0.76963294
C0AC70,信義,2015-09-16,25.037822,121.564597,0.9804307
C0K560,棋山,2015-09-16,23.68645,120.603417,0.62325037
C2FB50,出雲,2015-09-16,24.206469,120.902794,4.319591e-09
C1Z240,中平林道,2015-09-16,23.42115,121.26763,6.286031e-07
U2H480,溪頭,2015-09-16,23.670306,120.798194,2.5455746e-08
C0M880,好美里,2015-09-16,23.3364,120.138,0.011468948
C0T9E0,大坑,2015-09-16,23.880628,121.581981,0.93576646
C0K530,臺西,2015-09-16,23.701547,120.197559,0.00047435757
C1E900,國一N128K,2015-09-16,24.560997,120.844186,0.40768713
C0AJ50,水湳洞,2015-09-16,25.123695,121.862238,0.8548001
C0AI20,白沙灣,2015-09-16,25.283128,121.519058,0.73331904
C0A860,大坪,2015-09-16,25.165914,121.632969,0.999355
C1U850,觀音海岸,2015-09-16,24.38319,121.77856,0.7581615
C2K610,草嶺石壁,2015-09-16,23.602469,120.707731,1.6554075e-08
C0U950,鶯子嶺,2015-09-16,24.89754,121.79244,9.895737e-09
C0O900,善化,2015-09-16,23.112883,120.297219,0.08734955
C0K550,蔦松,2015-09-16,23.514319,120.229736,0.009782948
E2P980,林試六龜中心,2015-09-16,22.991703,120.645722,0.7297087
C0E590,通霄,2015-09-16,24.471892,120.704622,0.2621546
C1I310,西巒,2015-09-16,23.754486,120.883956,1.697631e-08
C0A550,泰平,2015-09-16,24.971197,121.823711,0.9993965
C0I360,水里,2015-09-16,23.812553,120.849792,3.5666388e-05
C0R830,高士,2015-09-16,22.121825,120.836781,0.4747877
C1I101,溪頭,2015-09-16,23.661789,120.807647,2.2009155e-08
C0AJ20,野柳,2015-09-16,25.20703,121.690021,0.8548001
C0B060,暖暖,2015-09-16,25.0957,121.7403,0.9426538
C1H920,長豐,2015-09-16,24.102039,120.879897,1.4306832e-08
C0V360,內門,2015-09-16,22.975481,120.466769,0.18587452
C0R850,林邊,2015-09-16,22.4634,120.5339,0.14508544
C0E930,龍鳳,2015-09-16,24.700034,120.859125,0.6958646
C0U910,冬山,2015-09-16,24.63373,121.7937,0.72234404
C1E721,泰安,2015-09-16,24.489017,120.968036,3.0185932e-09
82H320,茶改中部分場,2015-09-16,23.875611,120.913583,1.9851557e-08
C0M750,布袋,2015-09-16,23.380878,120.167789,0.0060299714
C1S860,利嘉,2015-09-16,22.809417,121.050528,0.983166
72C440,桃園農改,2015-09-16,24.950944,121.030583,0.47972494
E2S980,林試太麻里1,2015-09-16,22.598922,120.980044,0.82738024
C0X170,關廟,2015-09-16,22.963017,120.327797,0.010640874
C0V720,林園,2015-09-16,22.507747,120.394511,0.107252724
C1I510,線浸林道,2015-09-16,23.761508,120.832956,1.7407753e-08
C0D690,外湖,2015-09-16,24.917735,120.968711,0.45694286
C0C750,新興坑尾,2015-09-16,25.0061,121.0971,0.9100171
B2Q810,畜試南區分所,2015-09-16,21.945583,120.802167,0.31724834
C0S790,金崙,2015-09-16,22.538122,120.966875,0.97243005
C0AH90,福山植物園,2015-09-16,24.760717,121.58135,1.3060883e-07
C0I540,奇萊稜線,2015-09-16,24.109231,121.326456,1.072972e-08
C0M850,表湖,2015-09-16,23.24186,120.64166,4.3863326e-07
C0S770,大溪山,2015-09-16,22.478475,120.943325,0.9982902
C0AG80,中和,2015-09-16,24.991622,121.491792,0.98051316
C0T790,大禹嶺,2015-09-16,24.186117,121.316086,6.6325536e-09
C0T9B0,水源,2015-09-16,23.991861,121.537169,0.39780074
C0R840,牡丹池山,2015-09-16,22.168389,120.841225,0.99581915
C1I131,桶頭,2015-09-16,23.641944,120.654117,0.00013770703
CAL110,布袋國中,2015-09-16,23.35893,120.18026,0.011290564
467571,新竹,2015-09-16,24.827853,121.014219,0.14580049
C0Z290,赤柯山,2015-09-16,23.36893,121.38293,6.2803842e-06
C0X280,將軍,2015-09-16,23.214999,120.13577,0.011468948
C0S690,太麻里,2015-09-16,22.60902,120.98533,0.97631824
C0U880,北關,2015-09-16,24.9072,121.8734,0.4778757
C1H860,瑞岩,2015-09-16,24.123772,121.18345,3.8371564e-09
C0G810,埔心,2015-09-16,23.947633,120.525456,0.012396815
C0U970,大福,2015-09-16,24.80064,121.81389,0.50663793
C2H9N0,仁愛東眼,2015-09-16,24.026875,121.1205,2.5666644e-09
C1E670,南礦,2015-09-16,24.538278,121.002836,3.412232e-09
C0M520,東後寮,2015-09-16,23.369908,120.248065,0.010557431
C1E461,松安,2015-09-16,24.397972,120.986022,3.4801164e-09
72G600,臺中農改,2015-09-16,24.003028,120.534389,0.0010731872
C2N160,西拉雅風管處,2015-09-16,23.189481,120.335297,0.12564425
C2M970,碧湖,2015-09-16,23.568632,120.624165,1.5276296e-08
C0A640,石碇,2015-09-16,24.993969,121.662917,0.99527514
E2S960,林試太麻里2,2015-09-16,22.598,120.99775,0.73338217
C0F9Y0,桃山,2015-09-16,24.432739,121.303808,9.498412e-09
C1I020,萬大,2015-09-16,23.979817,121.132261,3.3421448e-09
C0U940,羅東,2015-09-16,24.68184,121.74934,0.7145559
C0M650,朴子,2015-09-16,23.43463,120.23902,0.0056550023
C1I500,大尖山,2015-09-16,23.858572,120.994889,6.365157e-09
C0G820,田尾,2015-09-16,23.901669,120.509389,0.0114808045
E2K600,四湖植物園,2015-09-16,23.676986,120.163433,0.00047435757
C0S730,綠島,2015-09-16,22.6672,121.47533,0.019748088
12Q970,東港工作站,2015-09-16,22.479997,120.466058,0.14325924
C0E430,南庄,2015-09-16,24.601775,121.000214,0.8621308
C1TA00,太魯閣,2015-09-16,24.15773,121.6236,0.26083702
466920,臺北,2015-09-16,25.037658,121.514853,0.9804307
C0R600,舊泰武,2015-09-16,22.588194,120.664944,0.9370267
C1I260,北坑,2015-09-16,23.9246,121.006903,2.4154813e-08
466910,鞍部,2015-09-16,25.182586,121.529731,0.9542365
C1I230,九份二山,2015-09-16,23.961944,120.845,6.047262e-09
C2A660,瑞芳,2015-09-16,25.113169,121.801147,0.9950196
C0R270,琉球嶼,2015-09-16,22.332244,120.362236,0.017448027
C1T990,高寮,2015-09-16,23.394239,121.356808,0.9983099
C0G620,芬園,2015-09-16,24.015678,120.6213,0.0028289764
C1Z140,荖溪,2015-09-16,23.890575,121.45964,4.1882546e-07
C1I201,中心崙,2015-09-16,23.728722,120.712097,2.9391796e-08
C1I400,凌霄,2015-09-16,24.018778,121.004456,2.7621083e-09
C1M640,十字,2015-09-16,23.492153,120.753683,1.3005987e-08
G2P820,農試鳳山分所,2015-09-16,22.646611,120.356083,0.07415206
C0Z270,蕃薯寮,2015-09-16,23.73835,121.540108,0.99806195
C0F9Q0,外埔,2015-09-16,24.347817,120.705686,0.43315527
C0K580,高鐵雲林,2015-09-16,23.737456,120.417944,6.8571346e-05
C2I090,鳳凰,2015-09-16,23.728081,120.787347,1.6078152e-08
C0U990,員山,2015-09-16,24.74435,121.72247,0.7145559
C0V770,大社,2015-09-16,22.730306,120.346639,0.008713786
C0X120,麻豆,2015-09-16,23.183289,120.248611,0.011953583
C0C670,龍潭,2015-09-16,24.870056,121.221389,0.011162273
C0D680,香山濕地,2015-09-16,24.783581,120.914988,0.07295264
C0S980,勝林山,2015-09-16,22.430439,120.8938,0.92910206
C0V730,大寮,2015-09-16,22.605614,120.395717,0.7904073
C0R570,麟洛,2015-09-16,22.65078,120.52719,0.035616163
C2M930,石卓,2015-09-16,23.478744,120.702264,1.3366935e-08
C0G9B0,和美,2015-09-16,24.105169,120.492131,0.00243763
CAG100,王功漁港,2015-09-16,23.96824,120.32586,0.011336964
C0X290,北門,2015-09-16,23.267772,120.125481,0.011468948
C2F930,大甲,2015-09-16,24.347667,120.640403,0.0075127636
C0D650,湖口,2015-09-16,24.904794,121.043628,0.52099496
C0E420,竹南,2015-09-16,24.708978,120.888897,0.07175171
C0U780,五結,2015-09-16,24.68637,121.79794,0.72234404
C1I250,鯉潭,2015-09-16,23.961922,120.991131,1.4306832e-08
C0R130,阿禮,2015-09-16,22.742908,120.743678,6.448573e-08
C0X100,臺南市北區,2015-09-16,23.010394,120.194228,0.02112441
C0S920,金峰嘉蘭,2015-09-16,22.594789,120.960825,0.8446219
C0V490,新興,2015-09-16,22.627422,120.298803,0.107252724
C0F9K0,大安,2015-09-16,24.345061,120.588025,0.012814655
72N100,臺南農改,2015-09-16,23.0605,120.342194,0.05094171
467290,古坑,2015-09-16,23.633639,120.551889,0.051118538
C2E970,八甲,2015-09-16,24.535811,120.795983,0.50520295
C0V440,鳳山,2015-09-16,22.646653,120.356122,0.07415206
C1T940,大觀,2015-09-16,23.714206,121.373133,0.99962014
72T250,花蓮農改,2015-09-16,23.975222,121.563889,0.9453367
C0E740,造橋,2015-09-16,24.637056,120.864778,0.797446
C0R100,尾寮山,2015-09-16,22.833111,120.683889,6.984043e-08
A2K630,臺大雲林校區,2015-09-16,23.730628,120.423903,6.8571346e-05
C0D580,寶山,2015-09-16,24.735006,121.025192,0.07179569
E2P990,林試扇平站,2015-09-16,22.9677,120.6857,0.30216455
C0AI30,三重,2015-09-16,25.057328,121.500629,0.97307354
C0AH00,汐止,2015-09-16,25.066881,121.658778,0.8548001
C1Z040,立山,2015-09-16,23.443356,121.327375,0.99961203
C0W130,花嶼,2015-09-16,23.40007,119.32276,0.7519188
C0A950,鼻頭角,2015-09-16,25.129036,121.923372,0.9791972
C0K470,林內,2015-09-16,23.748675,120.609642,0.17913337
C2F990,摩天嶺,2015-09-16,24.322458,120.936819,3.840087e-08
82C160,茶改場,2015-09-16,24.908472,121.185333,0.7030173
C0Z320,清水林道,2015-09-16,23.27125,121.188272,6.0050854e-05
C0R760,南仁湖,2015-09-16,22.084681,120.863353,0.2918905
C0M670,大林,2015-09-16,23.600616,120.45841,0.46011662
C0M800,茶山,2015-09-16,23.299075,120.664767,0.01915313
C0A9C0,天母,2015-09-16,25.117494,121.537169,0.9743203
72K220,南改斗南分場,2015-09-16,23.634556,120.477333,0.4447521
72AI40,桃改樹林分場,2015-09-16,24.944503,121.386972,0.97308
C0S910,蘭嶼燈塔,2015-09-16,22.081197,121.503117,0.7846253
C0B050,八斗子,2015-09-16,25.144754,121.79167,0.83415335
C0U900,內城,2015-09-16,24.71813,121.68766,0.74173254
C0X320,柳營,2015-09-16,23.253328,120.375253,0.16070823
C0M790,新港,2015-09-16,23.553269,120.345728,0.005101418
C0F9T0,西屯,2015-09-16,24.179494,120.641275,0.0039521945
C0SA30,都歷,2015-09-16,23.020333,121.323642,0.01986034
C0C620,蘆竹,2015-09-16,25.084275,121.265767,0.69608283
C0R730,大坪頂,2015-09-16,22.024633,120.69355,0.3338502
C0AJ40,石門,2015-09-16,25.273672,121.601198,0.9944416
C0E750,苗栗,2015-09-16,24.564569,120.824575,0.3636952
C0T870,鯉魚潭,2015-09-16,23.935639,121.508944,0.8649573
C1V170,排雲,2015-09-16,23.463619,120.954147,1.9733132e-08
C2H950,中寮,2015-09-16,23.884447,120.766406,7.649121e-05
C0R350,貓鼻頭,2015-09-16,21.921774,120.7358,0.33569476
C0V660,岡山,2015-09-16,22.797078,120.294958,0.018680496
C1H941,雙冬,2015-09-16,23.967378,120.802189,2.2750243e-08
C0AJ70,田寮,2015-09-16,25.2698,121.4886,0.7103353
C0AI00,五股,2015-09-16,25.07445,121.42728,0.31087047
C0Z280,德武,2015-09-16,23.47426,121.41071,0.99963814
C0R700,枋山,2015-09-16,22.246844,120.661086,0.7674963
C0C460,復興,2015-09-16,24.820208,121.352281,8.462909e-07
E2H360,蓮華池,2015-09-16,23.918333,120.885278,1.8603302e-08
C0M640,中埔,2015-09-16,23.42538,120.5229,0.1092613
C0W140,金沙,2015-09-16,24.488292,118.408778,0.5612833
C2A540,四堵,2015-09-16,24.8926,121.745736,0.9779087
C0ACA0,新莊,2015-09-16,25.051478,121.446756,0.39926285
C0R220,潮州,2015-09-16,22.534361,120.54,0.3117568
U2HA40,臺大內茅埔,2015-09-16,23.689722,120.851117,8.752454e-08
467490,臺中,2015-09-16,24.145736,120.684075,0.56452286
C0U960,翠峰湖,2015-09-16,24.510856,121.608044,5.435245e-09
E2HA20,林試畢祿溪站,2015-09-16,24.226944,121.308522,3.586494e-09
C0V890,前鎮,2015-09-16,22.5718,120.3117,0.1271746
467620,蘭嶼,2015-09-16,22.036969,121.558339,0.98003465
C1F941,雪嶺,2015-09-16,24.280586,121.026642,5.7288734e-09
C2H9E0,國姓南港,2015-09-16,23.911108,120.846556,9.499861e-09
C0AC80,文山,2015-09-16,25.00235,121.575728,0.9754991
C0F9R0,龍井,2015-09-16,24.184536,120.528972,0.00059110386
C0M760,民雄,2015-09-16,23.551754,120.428457,0.014019351
C0UA40,西德山,2015-09-16,24.560647,121.752608,2.8814291e-08
C1T920,中興,2015-09-16,23.769503,121.498653,0.7139559
C0D550,雪霸,2015-09-16,24.526972,121.11605,3.6374326e-09
C2F860,梨山,2015-09-16,24.247522,121.243669,3.6923256e-09
C0R320,車城,2015-09-16,22.0744,120.716247,0.30094773
C1S870,南美山,2015-09-16,23.15025,121.382333,0.027558673
C0B020,基隆嶼,2015-09-16,25.19141,121.78391,0.8548001
C1U501,牛鬥,2015-09-16,24.637836,121.573656,0.9988929
C0M730,嘉義市東區,2015-09-16,23.457673,120.460531,0.41683772
C0S700,知本,2015-09-16,22.684866,121.005642,0.988923
C1N001,沙崙,2015-09-16,22.935472,120.309406,0.04174199
C0V760,橋頭,2015-09-16,22.757806,120.30575,0.012001656
C0G960,福寶,2015-09-16,24.0443,120.3814,0.0007755255
C0X210,白河,2015-09-16,23.347466,120.414427,0.13919006
C0S810,東河,2015-09-16,22.972672,121.303986,0.5903417
C2R170,屏東,2015-09-16,22.66027,120.49403,0.052768257
C0R670,楓港,2015-09-16,22.190131,120.692156,0.7674963
C0FA50,霧峰,2015-09-16,24.0419,120.6995,0.34790516
C0UB10,蘇澳,2015-09-16,24.5969,121.8571,0.8174181
C0G950,防潮門,2015-09-16,24.1835,120.4871,0.000628403
C0M740,六腳,2015-09-16,23.492871,120.290625,0.01578142
C1R250,力里,2015-09-16,22.428117,120.629228,0.028854327
C0K330,虎尾,2015-09-16,23.719183,120.442036,3.1970925e-05
C2FA00,烏石坑,2015-09-16,24.273503,120.947617,4.031429e-08
C0V620,永安,2015-09-16,22.82315,120.236856,0.0016966817
C1I330,楓樹林,2015-09-16,23.986803,121.076117,1.680693e-09
C0W200,湖西,2015-09-16,23.596314,119.67275,0.17423964
72Q010,高雄農改場,2015-09-16,22.709333,120.525889,0.022916608
C0SA40,瑞和,2015-09-16,22.974361,121.156697,0.022262154
C0C680,龜山,2015-09-16,25.02846,121.38656,0.9527302
C2V260,月眉,2015-09-16,22.971003,120.539853,0.79712844
C0V450,鳳森,2015-09-16,22.545064,120.392592,0.83831376
C0U720,南山,2015-09-16,24.43742,121.38167,4.47669e-08
A2N290,臺南蘭花園區,2015-09-16,23.340258,120.379661,0.16070823
C0R560,新園,2015-09-16,22.5434,120.461558,0.14508544
C0U890,三星,2015-09-16,24.66812,121.65302,0.93414074
C1V300,御油山,2015-09-16,23.001983,120.715364,1.7848427e-08
C0U600,礁溪,2015-09-16,24.817539,121.765608,0.6021805
C1T980,龍澗,2015-09-16,24.023289,121.411328,7.277578e-08
C0D670,海天一線,2015-09-16,24.831986,120.914438,0.071896784
C0SA00,歷坵,2015-09-16,22.520969,120.89185,0.9979519
C0M710,東石,2015-09-16,23.458927,120.15385,0.009789399
C0M780,鹿草,2015-09-16,23.41134,120.30835,0.0152312955
C0U520,雙連埤,2015-09-16,24.753033,121.641303,3.582582e-05
C0B010,七堵,2015-09-16,25.094819,121.71713,0.8851239
C0R480,長治,2015-09-16,22.693128,120.542622,0.91445947
C1V830,國三S383K,2015-09-16,22.781967,120.426475,0.4337065
12Q980,恆春工作站,2015-09-16,22.079678,120.714425,0.30094773
C1O940,東山服務區,2015-09-16,23.286016,120.398472,0.11639388
C1U840,東澳嶺,2015-09-16,24.5378,121.8485,0.051032964
C1D630,飛鳳山,2015-09-16,24.766464,121.119178,0.005293977
C0S940,石寧山,2015-09-16,23.223772,121.406639,0.9978399
C0K410,北港,2015-09-16,23.573957,120.292802,0.007287784
C2M620,瑞里,2015-09-16,23.545133,120.675197,1.2007071e-08
C0SB70,小港漁港,2015-09-16,23.158558,121.400431,0.97879374
C2O950,安南,2015-09-16,23.076694,120.144861,0.0059833154
C0F0E0,南湖圈谷,2015-09-16,24.363714,121.444667,1.65748e-08
467610,成功,2015-09-16,23.097486,121.373428,0.021326046
C0G890,伸港,2015-09-16,24.148933,120.484403,0.00057414506
C2E540,龍溪,2015-09-16,24.606489,120.783933,0.2043345
C1V200,梅山,2015-09-16,23.268447,120.823556,5.6714557e-06
C0T9H0,加路蘭山,2015-09-16,23.682947,121.5274,0.8823348
C2O930,玉井,2015-09-16,23.126042,120.46055,0.045016423
C1F911,新伯公,2015-09-16,24.221361,120.841069,1.3915024e-05
C0R490,九如,2015-09-16,22.7405,120.490503,0.035616163
C0X200,左鎮,2015-09-16,23.056758,120.408522,0.071509205
C0SB50,叭嗡嗡,2015-09-16,23.047062,121.343223,0.54855865
C1F891,稍來,2015-09-16,24.265689,121.001142,3.9951438e-09
72N240,七股研究中心,2015-09-16,23.081672,120.062894,0.0027257577
C0C700,中壢,2015-09-16,24.977661,121.256375,0.10526489
C0M690,水上,2015-09-16,23.419734,120.388909,0.09776268
C0V690,鼓山,2015-09-16,22.623325,120.275575,0.107252724
C0O860,大內,2015-09-16,23.11885,120.36083,0.13049339
C0Z200,萬榮,2015-09-16,23.709219,121.420106,0.8649573
C0T9D0,和中,2015-09-16,24.26676,121.74103,0.11386948
C1O921,楠西,2015-09-16,23.183511,120.484083,0.061197475
C0AJ30,淡水觀海,2015-09-16,25.184591,121.408616,0.6073468
C0V810,左營,2015-09-16,22.67491,120.28491,0.009682668
C0UA70,桃源谷,2015-09-16,24.962606,121.888875,0.99958366
C0X130,官田,2015-09-16,23.193217,120.315422,0.14369248
C1H000,翠峰,2015-09-16,24.109397,121.205211,4.3567927e-09
C0UA90,石城,2015-09-16,24.980444,121.951214,0.7286502
C1E681,南勢山,2015-09-16,24.421669,120.923831,5.3715258e-08
C0A9F0,內湖,2015-09-16,25.079422,121.57545,0.9804307
C0K291,宜梧,2015-09-16,23.536281,120.169329,0.014089808
C1K540,口湖,2015-09-16,23.585344,120.180517,0.0006887915
C0R780,滿州,2015-09-16,22.024403,120.839892,0.34913242
C0V870,文安,2015-09-16,22.8025,120.2164,0.0021895242
C0U650,玉蘭,2015-09-16,24.675286,121.587061,0.9512034
C0R640,東港,2015-09-16,22.46247,120.44074,0.1271746
K2E360,苗栗農改,2015-09-16,24.495722,120.829111,0.42227224
C0AJ80,板橋,2015-09-16,25.0107,121.4489,0.9717136
C0S660,下馬,2015-09-16,23.150427,121.070312,0.0031244163
C1H9B1,阿眉,2015-09-16,24.1263,120.994672,5.0255915e-09
C0UA20,多加屯,2015-09-16,24.368614,121.373189,5.4687397e-09
C0E730,頭份,2015-09-16,24.688247,120.912206,0.07175171
72V140,高改旗南分場,2015-09-16,22.857861,120.516667,0.95055455
C0K480,莿桐,2015-09-16,23.761192,120.502372,0.076400064
C0U980,坪林石牌,2015-09-16,24.86478,121.77396,0.0035943592
C0T900,西林,2015-09-16,23.8119,121.441458,0.9182479
C1I150,青雲,2015-09-16,23.793361,120.949378,1.8343972e-08
467350,澎湖,2015-09-16,23.565503,119.563094,0.56124586
C0G800,埔鹽,2015-09-16,24.000394,120.431683,0.00075654936
C0H960,草屯,2015-09-16,23.973672,120.68085,0.009248117
C1V780,多納林道,2015-09-16,22.888028,120.737917,4.3967315e-08
C0E920,通霄漁港,2015-09-16,24.498589,120.673876,0.23640555
C0Z330,安通山,2015-09-16,23.290728,121.348528,0.39968812
C0AH10,永和,2015-09-16,25.01125,121.508111,0.98174375
C0AK10,太平里,2015-09-16,25.134937,121.364899,0.36942938
C2G640,鹿港,2015-09-16,24.0753,120.430481,0.0007574698
C1E890,國三N149K,2015-09-16,24.463414,120.680019,0.28026107
C1R110,口社,2015-09-16,22.770111,120.645222,0.9747561
C1M870,國三N285K,2015-09-16,23.550319,120.505833,0.05004725
467050,新屋,2015-09-16,25.006744,121.047486,0.4650812
C1E480,鳳美,2015-09-16,24.554803,121.034747,0.00087850605
C0M530,奮起湖,2015-09-16,23.493903,120.699253,9.399577e-09
C0C590,觀音,2015-09-16,25.027072,121.153317,0.9626317
C0T9M0,靜浦,2015-09-16,23.455167,121.495028,0.9953513
C2H9M0,發祥,2015-09-16,24.154094,121.164517,2.193731e-09
C0AI40,石牌,2015-09-16,25.115597,121.513139,0.9716847
C1F871,上谷關,2015-09-16,24.203483,121.018644,4.031429e-08
C2H9G0,百勝,2015-09-16,24.051142,120.909361,4.859239e-07
C0G880,二水,2015-09-16,23.810742,120.6173,0.5533238
C0R940,加祿堂,2015-09-16,22.3363,120.6217,0.010161856
C0W220,北竿,2015-09-16,26.220358,119.974881,0.4933365
C0O960,崎頂,2015-09-16,22.959547,120.369317,0.087691955
C0S750,向陽,2015-09-16,23.248397,120.986133,1.2030775e-08
C0T9F0,水璉,2015-09-16,23.797131,121.542514,0.9761136
C1M600,頭凍,2015-09-16,23.406364,120.603339,3.586284e-08
467660,臺東,2015-09-16,22.752211,121.154586,0.6769502
C1D380,新埔,2015-09-16,24.84745,121.03834,0.28827882
C2G980,田頭村,2015-09-16,23.8263,120.444175,0.00090448605
C0V750,路竹,2015-09-16,22.854997,120.259439,0.0043172105
C0N050,蚵寮,2015-09-16,23.301,120.1104,0.006810934
72M700,南改鹿草分場,2015-09-16,23.416869,120.283061,0.018143432
C1SA50,利嘉林道,2015-09-16,22.82325,121.009389,8.930343e-08
467550,玉山,2015-09-16,23.487614,120.959522,2.191645e-08
C0A940,金山,2015-09-16,25.223628,121.643967,0.779711
C1V340,大津,2015-09-16,22.888322,120.645986,0.9735855
C0W180,七美,2015-09-16,23.219333,119.444892,0.27747732
C1F9C1,白冷,2015-09-16,24.182844,120.929889,7.7851263e-07
K2E710,苗改生物防治研究中心,2015-09-16,24.422861,120.871833,0.7335322
C0N040,蘆竹溝,2015-09-16,23.2344,120.0961,0.006810937
C2W230,畜試所澎湖,2015-09-16,23.628342,119.513206,0.86600196
C0R880,後壁湖,2015-09-16,21.9457,120.7457,0.29670402
C1I280,埔中,2015-09-16,23.820778,120.642594,2.7122223e-06
467790,墾丁雷達站,2015-09-16,21.948235,120.808028,0.35756868
C0W190,望安,2015-09-16,23.380564,119.494075,0.61825246
466881,新北,2015-09-16,24.9593,121.52,0.9783209
C0Z170,卓溪,2015-09-16,23.3443,121.3029,0.99905944
C0F850,東勢,2015-09-16,24.246428,120.833047,0.00014434614
466900,淡水,2015-09-16,25.164889,121.448906,0.6268968
C0I370,魚池,2015-09-16,23.895703,120.94135,2.1070816e-08
C0C630,大溪,2015-09-16,24.882853,121.265547,0.8700937
C0A520,山佳,2015-09-16,24.974944,121.402008,0.9730561
C0I110,竹山,2015-09-16,23.761225,120.688156,0.0010780746
82H840,茶改南部分場,2015-09-16,23.762528,120.7405,3.1935482e-08
C0G660,溪湖,2015-09-16,23.94835,120.479122,0.011741838
C1T800,洛韶,2015-09-16,24.204558,121.453956,7.335762e-08
C1T810,慈恩,2015-09-16,24.192044,121.388386,6.768673e-09
C1E451,象鼻,2015-09-16,24.368617,120.940228,5.3687092e-08
C0AC60,三峽,2015-09-16,24.939025,121.369728,0.97930187
C0I490,萬大林道,2015-09-16,23.928228,121.091411,7.0115487e-09
C1I290,豐丘,2015-09-16,23.668178,120.887417,1.7407753e-08
C1I320,奧萬大,2015-09-16,23.952956,121.178556,1.6717092e-09
C2M910,嘉義大學,2015-09-16,23.471325,120.485903,0.17718555
C0U770,南澳,2015-09-16,24.44935,121.81022,0.24790357
C0A980,社子,2015-09-16,25.109508,121.469681,0.96928835
C0V800,六龜,2015-09-16,22.997889,120.633583,0.8086909
C1G9D0,國一S218K,2015-09-16,23.890641,120.493253,0.012396815
C0E570,白沙屯,2015-09-16,24.549447,120.696803,0.23640555
C2F9A0,中竹林,2015-09-16,24.103556,120.751061,2.5399197e-08
C0FA40,臺中電廠,2015-09-16,24.2146,120.4907,0.00059110386
C2G9A0,畜試所彰化,2015-09-16,23.86045,120.557964,0.5613259
C0H9C0,合歡山,2015-09-16,24.143442,121.272547,1.15601555e-08
C0X060,下營,2015-09-16,23.22695,120.256261,0.16781719
G2M350,農試溪口農場,2015-09-16,23.58565,120.408111,0.0214463
C0U860,頭城,2015-09-16,24.85323,121.8308,0.5395042
C0R580,南州,2015-09-16,22.48591,120.50274,0.14325924
C0D430,峨眉,2015-09-16,24.6905,121.017189,0.18097284
C0G780,秀水,2015-09-16,24.03405,120.503869,0.0012018827
72N100,臺南農改場,2015-09-16,23.0605,120.342194,0.05094171
C0S900,蘭嶼高中,2015-09-16,22.04909,121.51214,0.54564506
467540,大武,2015-09-16,22.355675,120.903789,0.08276457
C1F9W0,德基,2015-09-16,24.254783,121.190261,3.9203902e-09
C1Z120,壽豐,2015-09-16,23.870853,121.508081,0.619036
C0W160,烏坵,2015-09-16,24.9944,119.44956,0.952109
C1I240,外大坪,2015-09-16,23.958697,120.917931,1.2488332e-08
C1I550,國六W023K,2015-09-16,23.979067,120.867742,2.9019853e-08
C0R870,興海,2015-09-16,21.9752,120.8439,0.31724834
C0R140,瑪家,2015-09-16,22.682903,120.686639,0.64811236
C0A530,坪林,2015-09-16,24.938183,121.70975,0.9909315
C0X260,後壁,2015-09-16,23.366358,120.362326,0.21288702
C0Z230,和平,2015-09-16,24.30717,121.77007,0.11386948
C0G770,福興,2015-09-16,24.041289,120.437669,0.0007574698
C0H9A0,神木村,2015-09-16,23.532742,120.843667,2.829915e-08
C0I460,南投,2015-09-16,23.911469,120.687331,0.018109389
C0I480,梅峰,2015-09-16,24.085272,121.173572,3.4867074e-09
C1V570,吉東,2015-09-16,22.85422,120.5454,0.88053364
C2D740,屯原,2015-09-16,24.067969,121.209389,2.8572489e-09
C2A560,福山,2015-09-16,24.776203,121.502811,5.0466065e-07
C0AH30,五分山,2015-09-16,25.07125,121.780794,0.9721789
C0FA10,松柏,2015-09-16,24.429115,120.617482,0.0010402942
72S200,東改班鳩分場,2015-09-16,22.829528,121.077694,0.9324417
72HA00,中改埔里分場,2015-09-16,23.903208,120.963364,2.6702287e-08
C2H9W0,大坪頂農水,2015-09-16,24.043122,120.932781,1.2905562e-08
C0C650,平鎮,2015-09-16,24.897503,121.214636,0.70379025
C0S930,延平,2015-09-16,22.902581,121.084058,0.6640111
C0UA60,樟樹山,2015-09-16,24.41393,121.78325,0.9871481
C1S670,摩天,2015-09-16,23.199503,121.027,2.3535174e-08
C0V630,茄萣,2015-09-16,22.906642,120.182608,0.0039017089
466940,基隆,2015-09-16,25.133314,121.740475,0.84981096
C0X050,東河,2015-09-16,23.296598,120.385608,0.16070823
C0R770,保力,2015-09-16,22.071122,120.764111,0.41008776
G2L020,農試嘉義分所,2015-09-16,23.485028,120.473806,0.107578605
C0X240,關子嶺,2015-09-16,23.331169,120.508025,1.1591717e-06
C0I380,集集,2015-09-16,23.828206,120.801467,8.65849e-05
466990,花蓮,2015-09-16,23.975128,121.613275,0.92105085
C1V220,小關山,2015-09-16,23.154217,120.813603,1.2094621e-08
C1F9G1,慶福山,2015-09-16,24.180853,120.848378,5.4461384e-07
C0Z250,瑞穗林道,2015-09-16,23.49284,121.30688,2.681422e-07
C0D590,新豐,2015-09-16,24.87068,120.97721,0.49881887
C0A870,五指山,2015-09-16,25.132153,121.608692,0.00020265108
C0UA50,西帽山,2015-09-16,24.555361,121.802628,0.011145292
C0X160,仁德,2015-09-16,22.968258,120.257689,0.07442057
C1H971,六分寮,2015-09-16,23.92507,120.6378,2.6595902e-08
C0W120,西嶼,2015-09-16,23.5626,119.468436,0.5644223
C0G650,員林,2015-09-16,23.946503,120.585597,0.18625098
C0AD50,鶯歌,2015-09-16,24.951533,121.346294,0.49473664
C2H9Q0,北東眼山,2015-09-16,24.120939,121.189303,2.8210645e-09
C2H9T0,名間竹圍,2015-09-16,23.859914,120.637572,2.1583498e-06
C0S990,山豬窟,2015-09-16,22.318619,120.857372,0.9983729
72Q010,高雄農改,2015-09-16,22.709333,120.525889,0.022916608
C0X190,安平,2015-09-16,22.993161,120.152181,0.02112441
C0K400,斗六,2015-09-16,23.720583,120.541127,0.16577931
12J990,口湖工作站,2015-09-16,23.589978,120.180394,0.0005226078
C0O830,北寮,2015-09-16,23.079561,120.495008,0.88854116
C1D410,白蘭,2015-09-16,24.579364,121.079947,1.1707398e-09
C0S970,加津林,2015-09-16,22.416211,120.926942,0.08583929
C0D700,關西,2015-09-16,24.7977,121.1732,0.3850789
C0M810,里佳,2015-09-16,23.389125,120.716647,9.399577e-09
C0U750,龜山島,2015-09-16,24.841667,121.953133,0.9444942
C0R810,內獅,2015-09-16,22.305064,120.642986,0.010161856
C1M390,龍美,2015-09-16,23.406728,120.654417,1.8820906e-08
C2FB60,頭櫃山,2015-09-16,24.129842,120.858925,3.8188666e-09
C1H840,國三N238K,2015-09-16,23.841008,120.707711,4.6971156e-05
CAQ030,崎峰國小,2015-09-16,22.42565,120.49521,0.14325923
C2E520,大湖,2015-09-16,24.414939,120.870872,0.6303807
467530,阿里山,2015-09-16,23.508208,120.813242,1.3017751e-08
C1E691,南湖,2015-09-16,24.40135,120.837533,6.984635e-07
C0FA30,梧棲,2015-09-16,24.256003,120.523381,0.00059110386
C1V231,高中,2015-09-16,23.134911,120.716711,1.2397031e-06
C0F9V0,新社,2015-09-16,24.200172,120.815806,1.0167305e-07
C0H890,埔里,2015-09-16,23.972169,120.952425,0.0002079384
C0R690,墾丁,2015-09-16,21.966756,120.810269,0.40206745
C0F0D0,審馬陣,2015-09-16,24.381675,121.4203,9.426562e-09
C0R820,白鷺,2015-09-16,22.454275,120.666219,0.9956637
U2H480,臺大溪頭,2015-09-16,23.670306,120.798194,2.5455746e-08
C1V190,南天池,2015-09-16,23.27403,120.91176,1.1441395e-08
K2E360,苗栗農改場,2015-09-16,24.495722,120.829111,0.42227224
CAJ050,海口故事園區,2015-09-16,23.57543,120.14121,0.0006887915
C2H9D0,三隻寮,2015-09-16,24.093078,120.861578,1.1337405e-08
C0O990,媽廟,2015-09-16,22.99175,120.293525,0.03854944
C0D480,打鐵坑,2015-09-16,24.849664,121.150789,0.41948646
C0Z220,和平林道,2015-09-16,24.343922,121.656317,0.9800261
C0TA10,花蓮漁港,2015-09-16,23.995322,121.638331,0.9080227
72C440,桃園農改場,2015-09-16,24.950944,121.030583,0.47972494
C1E711,馬拉邦山,2015-09-16,24.367306,120.901656,3.0131105e-07
C0SB20,富岡,2015-09-16,22.792467,121.192669,0.6950305
C0D560,竹東,2015-09-16,24.767147,121.057881,0.5487926
C0F9U0,南屯,2015-09-16,24.137006,120.637969,0.016304458
C0M720,番路,2015-09-16,23.464657,120.554156,0.003742557
C0F0A0,雪山圈谷,2015-09-16,24.388594,121.236339,1.3176628e-08
C1A9N0,四十份,2015-09-16,24.934158,121.593283,0.0009646464
C0U760,東澳,2015-09-16,24.52196,121.83318,0.71226555
C0X230,鹽水,2015-09-16,23.272621,120.247641,0.014737717
C2H9H0,苗改南投蜂場,2015-09-16,23.852589,120.693481,0.0010792176
C0R950,萬隆國小,2015-09-16,22.507667,120.587817,0.9219892
C0V370,古亭坑,2015-09-16,22.893178,120.401947,0.009341335
C1I340,新興橋,2015-09-16,23.563333,120.868728,2.3434522e-08
C0SA80,土坂,2015-09-16,22.453108,120.887572,0.8937095
C0R160,鹽埔,2015-09-16,22.739558,120.530778,0.92818624
C0AC40,大屯山,2015-09-16,25.175675,121.522408,0.23394856
466850,五分山雷達站,2015-09-16,25.071182,121.781205,0.9537741
C2H9L0,馬烈霸,2015-09-16,24.1512,121.201772,2.783623e-09
C1AI50,國三N016K,2015-09-16,25.034164,121.619664,0.9753134
C1V600,藤枝,2015-09-16,23.071961,120.757042,2.4484708e-08
C1E601,南勢,2015-09-16,24.572486,120.734842,0.9168957
C0Z180,新城,2015-09-16,24.03946,121.60454,0.939941
C0O980,新市,2015-09-16,23.061614,120.298197,0.08734955
C0K420,西螺,2015-09-16,23.800407,120.467394,0.08654828
C0Z050,佳心,2015-09-16,23.34567,121.21316,4.3918517e-05
C0AD30,蘆洲,2015-09-16,25.086594,121.472331,0.9731026
C0V610,梓官,2015-09-16,22.760558,120.267211,0.018680483
K2F750,種苗改良場,2015-09-16,24.225972,120.800917,6.6972996e-07
C0UA80,大溪漁港,2015-09-16,24.941801,121.902955,0.60218006
C1AI60,國一39K邊坡,2015-09-16,25.064361,121.383836,0.9940016
C0W150,金寧,2015-09-16,24.457703,118.328989,0.5650421
C0R960,內埔,2015-09-16,22.608483,120.570714,0.9242176
V2C250,八德合作社,2015-09-16,24.93775,121.266389,0.34775448
C2H9S0,龍南,2015-09-16,23.953536,120.833183,4.109278e-09
C0AH40,平等,2015-09-16,25.129142,121.577086,0.79551697
C0R540,佳冬,2015-09-16,22.419456,120.552375,0.14310943
466950,彭佳嶼,2015-09-16,25.627975,122.079744,0.97301656
C0A890,雙溪,2015-09-16,25.036003,121.864242,0.9127065
C0C480,桃園,2015-09-16,24.992425,121.323172,0.078072004
C0AH50,林口,2015-09-16,25.072181,121.38084,0.9974468
A2K360,水試臺西試驗場,2015-09-16,23.717231,120.190522,0.0005014873
B2N890,畜試所,2015-09-16,23.058972,120.336406,0.05094171
C2M960,外寮,2015-09-16,23.562643,120.665688,1.2552141e-08
C0F9S0,烏日,2015-09-16,24.107058,120.624103,0.004722619
C0C490,八德,2015-09-16,24.928708,121.283289,0.86745656
C0R190,赤山,2015-09-16,22.592333,120.614306,0.9250683
C0T820,天祥,2015-09-16,24.179597,121.495639,0.26567882
C1F9E1,龍安,2015-09-16,24.1605,120.831961,5.4399877e-08
C0V820,小林,2015-09-16,23.148408,120.63325,0.002896245
C2G870,芳苑,2015-09-16,23.922303,120.320025,0.00047915473
C0E850,大河,2015-09-16,24.618069,120.948578,0.91773385
C1U670,寒溪,2015-09-16,24.634,121.71691,0.8076711
C0N020,城西,2015-09-16,23.0568,120.0956,0.00255908
C1Z110,三棧,2015-09-16,24.11557,121.60501,0.10943824
C0R280,檳榔,2015-09-16,22.076078,120.836777,0.38600713
C2H9J0,中台,2015-09-16,23.9996,120.938739,1.2228624e-06
C0F9L0,后里,2015-09-16,24.310436,120.729725,0.12649426
C0D540,橫山,2015-09-16,24.71116,121.11693,0.18500116
C1D420,太閣南,2015-09-16,24.632808,121.160575,1.4939956e-09
C1E770,公館,2015-09-16,24.526914,120.830806,0.42602566
CAN130,水試所海水繁養殖中心,2015-09-16,23.120802,120.07968,0.0027216792
C1I430,翠華,2015-09-16,24.191961,121.224339,4.6006896e-09
C1M400,菜瓜坪,2015-09-16,23.251928,120.576103,0.026182164
C0G730,二林,2015-09-16,23.903325,120.376081,0.00022273533
72M360,南改義竹分場,2015-09-16,23.360694,120.279361,0.041956477
V2K620,麥寮合作社,2015-09-16,23.753836,120.294783,0.0009129938
C0Z070,舞鶴,2015-09-16,23.46811,121.37407,0.9997673
C0B040,大武崙,2015-09-16,25.166676,121.706993,0.8851239
C1Z030,紅葉,2015-09-16,23.493119,121.338806,0.999671
C1I050,丹大,2015-09-16,23.753747,121.141147,6.542691e-09
C0I080,信義,2015-09-16,23.689694,120.851036,8.752454e-08
C2M920,朴子農改,2015-09-16,23.469889,120.259383,0.01578142
C2A880,福隆,2015-09-16,25.017842,121.942083,0.98206514
C0Z160,鳳林,2015-09-16,23.746114,121.453411,0.96931547
C0V210,復興,2015-09-16,23.222403,120.806089,0.0011140434
C0H990,昆陽,2015-09-16,24.121322,121.273642,7.997336e-09
C0R741,獅子,2015-09-16,22.202308,120.705236,0.91409075
C0S710,鹿野,2015-09-16,22.917711,121.122994,0.7360938
C0I530,小奇萊,2015-09-16,24.131764,121.295717,8.417824e-09
C2K630,荷苞,2015-09-16,23.657717,120.595144,0.3917602
C0Z080,富源,2015-09-16,23.587642,121.378225,0.9997108
467441,高雄,2015-09-16,22.7304,120.3125,0.009682668
C0SB10,美和,2015-09-16,22.682078,121.060236,0.37088853
C2K620,馬光農場,2015-09-16,23.721453,120.378864,9.201275e-05
C1I140,卡奈托灣,2015-09-16,23.754364,121.087872,6.9010806e-09
C0I520,玉山風口,2015-09-16,23.470489,120.955994,2.2566827e-08
C1G691,下水埔,2015-09-16,23.816114,120.5676,0.70047814
C0X110,臺南市南區,2015-09-16,22.961189,120.188378,0.019005856
C0V680,仁武,2015-09-16,22.701083,120.347722,0.008713786
C2G840,北斗,2015-09-16,23.877586,120.514222,0.0114808045
C0R900,竹坑,2015-09-16,22.1385,120.7022,0.6652906
C0K250,崙背,2015-09-16,23.75555,120.318925,0.0008169183
C0G860,社頭,2015-09-16,23.897647,120.5862,0.19905105
C0X150,安定,2015-09-16,23.102614,120.227839,0.0169628
C0R590,里港,2015-09-16,22.77919,120.49459,0.94399
C0E610,馬都安,2015-09-16,24.451272,120.930192,0.007989997
C0E550,明德,2015-09-16,24.583486,120.885411,0.8295763
C0R150,三地門,2015-09-16,22.709889,120.639944,0.95839685
C0G910,花壇,2015-09-16,24.032076,120.549461,0.0010910404
C1D400,鳥嘴山,2015-09-16,24.71909,121.28387,9.974358e-09
C0K500,元長,2015-09-16,23.64981,120.315024,0.004115062
C0F0B0,石岡,2015-09-16,24.276061,120.777644,6.3996043e-07
C2V250,甲仙,2015-09-16,23.080106,120.591758,0.00062683306
C0SA20,金崙山,2015-09-16,22.567419,120.959667,0.20158888
C0V350,溪埔,2015-09-16,22.738578,120.446797,0.03892572
C0M660,溪口,2015-09-16,23.604131,120.403569,0.0214463
C1S880,壽卡,2015-09-16,22.238911,120.858903,0.99567086
72D680,桃改新埔分場,2015-09-16,24.834444,121.066111,0.15780152
