站號,站名,日期,lat,lon,BLBTSLS
C0R710,龍磐,2015-03-18,21.931672,120.838942,0.044396117
C1F9D1,白毛台,2015-03-18,24.158325,120.886933,2.6760651e-09
C0G940,竹塘,2015-03-18,23.848253,120.386764,1.8591196e-09
467590,恆春,2015-03-18,22.003897,120.746339,0.0059840647
C1O850,環湖,2015-03-18,23.148617,120.418633,2.9294132e-08
C0U710,太平山,2015-03-18,24.505486,121.525656,2.0816557e-08
C0E820,獅潭,2015-03-18,24.539133,120.920042,3.6457257e-09
C0V880,興達,2015-03-18,22.8778,120.2127,2.9207413e-07
C0S890,關山,2015-03-18,23.0395,121.175017,1.164122e-07
C0SB30,新蘭,2015-03-18,22.869214,121.223228,4.918516e-07
C2R970,屏科大,2015-03-18,22.648275,120.619247,4.9209087e-10
K2F750,種苗繁殖,2015-03-18,24.225972,120.800917,2.85113e-09
C1Z130,銅門,2015-03-18,23.965694,121.492842,7.2040365e-08
C0AD40,土城,2015-03-18,24.973208,121.445169,5.614727e-08
CAN140,六官養殖協會,2015-03-18,23.22881,120.29962,4.4608278e-08
C0X180,山上,2015-03-18,23.0757,120.363253,1.5747966e-08
C0F9Z0,雪山東峰,2015-03-18,24.388792,121.268675,2.4016948e-08
C1M480,獨立山,2015-03-18,23.537022,120.607797,2.598842e-09
C0X220,學甲,2015-03-18,23.230367,120.182187,2.362984e-07
467650,日月潭,2015-03-18,23.881325,120.90805,2.5463602e-09
C0K600,箔子寮,2015-03-18,23.6197,120.14,1.305188e-07
C0G830,埤頭,2015-03-18,23.866003,120.452806,1.5816259e-09
C0S950,七塊厝,2015-03-18,22.954453,121.229922,5.193735e-08
467110,金門,2015-03-18,24.407306,118.289281,5.899734e-09
C0AH80,深坑,2015-03-18,25.002703,121.628328,6.130591e-08
467990,馬祖,2015-03-18,26.169269,119.923419,1.6812358e-08
C0A970,三貂角,2015-03-18,25.007606,122.002058,7.203679e-08
C2D730,寶山農場,2015-03-18,24.732444,120.976153,6.947096e-08
C0K430,褒忠,2015-03-18,23.690938,120.303634,3.2508015e-07
467480,嘉義,2015-03-18,23.495925,120.432906,1.560761e-07
C2E540,後龍,2015-03-18,24.606489,120.783933,4.2842453e-07
C0V400,阿公店,2015-03-18,22.804194,120.355528,6.05145e-09
C0R440,大漢山,2015-03-18,22.405264,120.753181,6.639819e-09
C0K280,四湖,2015-03-18,23.630414,120.227125,2.158638e-06
C1F9B1,桐林,2015-03-18,24.066172,120.735194,1.56294e-09
C2H9U0,鳳鵬,2015-03-18,23.763919,120.788061,1.3011986e-09
C0K390,土庫,2015-03-18,23.679029,120.395574,1.7532266e-09
C1I450,望鄉山,2015-03-18,23.594153,120.944286,1.6467409e-08
C0E910,海埔,2015-03-18,24.648767,120.772435,8.904282e-09
B2E890,畜試北區分所,2015-03-18,24.527806,120.770972,7.42566e-07
C0R750,四林格山,2015-03-18,22.076989,120.802439,0.996902
C0F0C0,中坑,2015-03-18,24.248517,120.903319,3.5859469e-09
C1I121,大鞍,2015-03-18,23.678381,120.760017,3.1722498e-09
72U480,花改蘭陽分場,2015-03-18,24.686306,121.716583,8.047405e-08
C0A770,科教館,2015-03-18,25.096356,121.516507,5.6727586e-08
C0AJ60,六塊厝,2015-03-18,25.24,121.4481,7.499819e-08
C0R620,墾雷,2015-03-18,21.900836,120.855269,0.0065896288
467420,永康,2015-03-18,23.038386,120.2367,2.0462507e-07
467300,東吉島,2015-03-18,23.25695,119.667467,0.9910227
C0I410,名間,2015-03-18,23.837053,120.701447,1.2241432e-09
A2C560,農工中心,2015-03-18,24.985917,121.239833,3.564319e-08
C0V740,旗山,2015-03-18,22.888614,120.483597,1.3219271e-08
C0Z061,玉里,2015-03-18,23.3215,121.339656,1.8198794e-07
C0S840,南田,2015-03-18,22.279725,120.889208,0.99983644
C1I470,杉林溪,2015-03-18,23.639517,120.786444,4.121193e-09
C1X040,東原,2015-03-18,23.291597,120.463822,1.8824307e-09
C0R660,枋寮,2015-03-18,22.367722,120.590647,9.346511e-10
C1R120,上德文,2015-03-18,22.763272,120.704442,4.0562087e-09
C0K450,大埤,2015-03-18,23.646074,120.431537,1.7336438e-09
C0UA00,土場,2015-03-18,24.576533,121.495333,2.252069e-08
467080,宜蘭,2015-03-18,24.763975,121.756528,6.4054596e-08
C0N030,四草,2015-03-18,23.0235,120.1116,7.9498335e-07
C0V650,彌陀,2015-03-18,22.783806,120.246361,6.1498454e-08
C0D660,新竹市東區,2015-03-18,24.798681,120.986942,7.514926e-08
82S580,茶改東部分場,2015-03-18,22.907694,121.130139,7.153675e-08
C0SB40,興隆,2015-03-18,22.913661,121.257469,1.13793625e-07
C0C710,大溪永福,2015-03-18,24.892936,121.324975,3.4380783e-08
C0FA20,溫寮,2015-03-18,24.372177,120.583125,1.3873849e-06
C0V640,湖內,2015-03-18,22.887139,120.2445,2.606894e-07
C0R910,下寮,2015-03-18,22.3929,120.5548,4.2886846e-08
C0Z020,明里,2015-03-18,23.208717,121.262342,9.442797e-08
C0M770,嘉義梅山,2015-03-18,23.585398,120.555587,1.6584215e-09
G2F820,農業試驗所,2015-03-18,24.031261,120.688133,2.2569782e-07
C0C660,楊梅,2015-03-18,24.912375,121.143047,3.63885e-08
C1E511,新開,2015-03-18,24.347703,120.827019,2.16552e-09
G2F820,農試所(霧峰),2015-03-18,24.031261,120.688133,2.2569782e-07
C1I070,和社,2015-03-18,23.591131,120.888861,1.2200198e-09
C2F000,大肚,2015-03-18,24.15295,120.572117,3.1889995e-09
C1S850,豐南,2015-03-18,23.122139,121.262389,4.949246e-08
C2A920,富貴角,2015-03-18,25.263783,121.565258,9.7389574e-08
CAH030,茶改場竹圍站,2015-03-18,23.860083,120.637528,1.2269482e-09
C0T960,光復,2015-03-18,23.660694,121.424964,1.9557048e-07
C0F9M0,豐原,2015-03-18,24.254322,120.720692,8.506027e-09
C0R720,旭海,2015-03-18,22.205403,120.887614,0.9996296
C0V710,苓雅,2015-03-18,22.622742,120.330669,3.5495834e-08
C0C740,觀音工業區,2015-03-18,25.064764,121.114856,1.11845694e-07
CAC040,拉拉山,2015-03-18,24.699317,121.427133,1.0376954e-08
C0V790,萬山,2015-03-18,22.905944,120.688056,1.3125652e-09
U2HA30,臺大和社,2015-03-18,23.590856,120.888864,1.2200198e-09
C0AJ90,澳底,2015-03-18,25.0552,121.9253,9.163295e-08
C0Z100,東華,2015-03-18,23.89525,121.549833,2.0945423e-07
C0G970,三豐,2015-03-18,23.882,120.2895,5.522457e-07
V2K610,大庄合作社,2015-03-18,23.8068,120.367939,2.0548434e-07
C0V900,汕尾,2015-03-18,22.4782,120.4151,4.7539164e-09
C1R630,龍泉,2015-03-18,22.66701,120.59091,5.919265e-10
C1AC50,關渡,2015-03-18,25.133486,121.469331,6.6493655e-08
C0F9I0,神岡,2015-03-18,24.272481,120.658314,8.90858e-09
C0K460,斗南,2015-03-18,23.678734,120.478359,1.7968856e-09
467410,臺南,2015-03-18,22.993239,120.204772,1.8518449e-07
C2O810,曾文,2015-03-18,23.219681,120.497328,1.6849276e-08
467280,後龍,2015-03-18,24.648563,120.831834,8.334635e-09
C1F9J1,清水林,2015-03-18,24.071242,120.820419,2.1500042e-09
C2A650,火燒寮,2015-03-18,25.002719,121.742892,3.4802643e-08
466930,竹子湖,2015-03-18,25.162078,121.544547,1.6466656e-08
C1I220,樟湖,2015-03-18,23.905333,120.846983,2.0722264e-09
C0I390,仁愛,2015-03-18,24.022122,121.132206,3.833016e-09
C0Z300,東里,2015-03-18,23.26853,121.30547,1.6892724e-07
C1V590,新發,2015-03-18,23.057019,120.646064,4.181871e-09
C0K510,水林,2015-03-18,23.572924,120.24597,1.227133e-07
72S590,東改賓朗果園,2015-03-18,22.813889,121.071278,1.3823501e-07
82A750,茶改北部分場,2015-03-18,24.955778,121.631222,1.2390202e-08
C1A750,石碇服務區,2015-03-18,25.00872,121.646242,5.932608e-08
C0X300,鹿寮,2015-03-18,23.386047,120.477331,1.5876315e-09
G2AI50,關渡,2015-03-18,25.11575,121.492,5.8149766e-08
C0K590,雲林東勢,2015-03-18,23.674192,120.255721,3.2507984e-07
C0A570,桶後,2015-03-18,24.848222,121.597992,3.6090313e-08
C1S800,華源,2015-03-18,22.657883,121.02325,4.0699206e-07
C0G720,溪州,2015-03-18,23.851589,120.499093,1.56467e-09
C1V160,達卡努瓦,2015-03-18,23.279811,120.705319,4.3679758e-09
C2M410,馬頭山,2015-03-18,23.324361,120.582017,1.9447357e-09
C0V850,蚵仔寮,2015-03-18,22.7256,120.2527,8.488349e-08
C0S740,池上,2015-03-18,23.119628,121.209469,6.6042794e-08
C1V390,尖山,2015-03-18,22.813153,120.367789,4.9854836e-09
C0AH70,松山,2015-03-18,25.04871,121.55042,6.670554e-08
C0N010,鯤鯓國小,2015-03-18,23.1879,120.0889,1.2458509e-06
C0R550,新埤,2015-03-18,22.467947,120.582894,3.4532363e-10
C0SA60,知本（水試所）,2015-03-18,22.702394,121.082761,1.4003466e-06
C0T9I0,豐濱,2015-03-18,23.583897,121.514806,3.2252422e-07
C0UB00,淡江大學蘭陽校園,2015-03-18,24.823239,121.730383,2.0504892e-08
C0W240,九宮,2015-03-18,24.423753,118.240186,1.0022224e-08
C0T9N0,富里,2015-03-18,23.171639,121.249378,5.2931625e-08
U2HA50,臺大竹山,2015-03-18,23.756972,120.681556,1.2255846e-09
C0V840,鳳鼻頭,2015-03-18,22.5083,120.3591,4.2640355e-08
C0X140,西港,2015-03-18,23.125608,120.203108,4.4307382e-07
72D080,桃改五峰分場,2015-03-18,24.612194,121.157167,5.196378e-09
C2H9P0,伊拿谷,2015-03-18,23.963211,121.088264,2.4526716e-09
C2H9F0,柑林,2015-03-18,24.018658,120.847072,1.3335656e-09
C0TA20,加灣,2015-03-18,24.082025,121.608944,9.97868e-08
C0V530,阿蓮,2015-03-18,22.883208,120.327508,5.2873304e-08
C1O880,關山,2015-03-18,23.173397,120.594092,1.949932e-09
C0E791,卓蘭,2015-03-18,24.3126,120.8244,2.1812434e-09
C1I030,武界,2015-03-18,23.913225,121.052483,2.961253e-09
C0R520,崁頂,2015-03-18,22.514781,120.506914,3.8651667e-08
C0R341,牡丹,2015-03-18,22.130036,120.792639,1.2615138e-07
C0R930,萬丹,2015-03-18,22.5885,120.4851,3.5396547e-10
C0S760,紅石,2015-03-18,23.069131,121.126219,1.2015388e-08
C1M610,石磐龍,2015-03-18,23.496606,120.663506,2.982424e-09
C0UA10,鴛鴦湖,2015-03-18,24.590269,121.412228,1.2415656e-08
V2C260,八德蔬果,2015-03-18,24.978508,121.281819,3.7364572e-08
C0R800,丹路,2015-03-18,22.204481,120.750989,2.7050854e-07
C0G920,永靖,2015-03-18,23.924703,120.547533,2.9382322e-08
C2M950,太和,2015-03-18,23.538372,120.702961,3.957428e-09
C1A630,下盆,2015-03-18,24.771003,121.538622,3.3364525e-08
B2N890,畜產試驗所,2015-03-18,23.058972,120.336406,2.4957675e-08
C0UA30,白嶺,2015-03-18,24.527819,121.519031,1.4359541e-08
C1V580,溪南(特生中心),2015-03-18,23.084972,120.788475,8.101226e-09
C1T970,大農,2015-03-18,23.615233,121.413331,1.5867566e-07
E2S960,林試太麻里2,2015-03-18,22.598014,120.989761,5.3585914e-08
C0R650,竹田,2015-03-18,22.58486,120.54344,3.5396547e-10
C1H900,清流,2015-03-18,24.080775,120.962997,2.6343456e-09
C1C510,水尾,2015-03-18,24.940081,121.087161,4.4002466e-08
C0F9X0,大雅(中科園區),2015-03-18,24.21528,120.62445,1.975692e-07
C0SB60,白守蓮,2015-03-18,23.126769,121.401914,5.1356307e-07
C0O970,虎頭埤,2015-03-18,23.021375,120.347878,6.0126915e-08
C0C730,中大臨海站,2015-03-18,24.966126,121.008581,3.5022456e-08
C0X250,新營,2015-03-18,23.310689,120.316681,3.3257848e-08
C0V700,三民,2015-03-18,22.645017,120.311233,3.5495834e-08
C0U870,大礁溪,2015-03-18,24.791042,121.675047,1.4564126e-08
C0E870,高鐵苗栗,2015-03-18,24.60725,120.826094,3.862116e-07
A2K570,古坑花卉中心,2015-03-18,23.63353,120.55239,1.8123195e-09
C0M860,新美,2015-03-18,23.338017,120.683169,1.892944e-09
C1E701,八卦,2015-03-18,24.491756,120.927619,5.0118363e-09
C0I420,國姓,2015-03-18,24.037803,120.855072,1.4374276e-09
C2D720,關西工作站,2015-03-18,24.757275,121.184792,2.560319e-08
C0S960,香蘭,2015-03-18,22.587569,120.993375,5.3585914e-08
C0R260,春日,2015-03-18,22.370361,120.628306,2.6329353e-08
72G600,臺中農改場,2015-03-18,24.003028,120.534389,2.6847117e-08
C0Z210,瑞穗,2015-03-18,23.5239,121.39021,3.7070762e-07
C0M820,達邦,2015-03-18,23.453994,120.749517,2.1631752e-09
C0V860,南寮,2015-03-18,22.7616,120.2339,6.69845e-08
C0G740,大城,2015-03-18,23.852487,120.320935,5.092944e-07
C0R920,塭仔,2015-03-18,22.4169,120.5197,4.9442644e-08
C0R470,高樹,2015-03-18,22.826389,120.600806,8.474509e-10
C0R680,佳樂水,2015-03-18,21.993578,120.861633,0.005826541
C1O870,大棟山,2015-03-18,23.31157,120.52226,4.778662e-09
C0D360,梅花,2015-03-18,24.678347,121.208558,8.846184e-09
C0Z190,富世,2015-03-18,24.14743,121.6297,1.3340974e-07
C0AI10,屈尺,2015-03-18,24.92184,121.54475,6.125846e-08
B2U990,畜試東區分所,2015-03-18,24.669039,121.832561,8.6353516e-08
C0SB80,長濱漁港,2015-03-18,23.313644,121.459994,3.783564e-07
C0R240,來義,2015-03-18,22.527306,120.625111,1.2583639e-08
C0V910,大樹,2015-03-18,22.684645,120.432803,6.6803416e-09
C1R610,西大武山,2015-03-18,22.617719,120.7322,8.14714e-09
C0G900,線西,2015-03-18,24.143358,120.443536,3.1659915e-06
C0M700,竹崎,2015-03-18,23.526178,120.555508,1.7979004e-09
C2E880,三義,2015-03-18,24.405478,120.749819,3.2686183e-09
C0C720,竹圍,2015-03-18,25.112692,121.239824,7.242641e-08
C0F9P0,清水,2015-03-18,24.312297,120.562242,1.0765984e-06
C0Z150,吉安光華,2015-03-18,23.930925,121.595153,2.247881e-07
C1D640,外坪(五指山),2015-03-18,24.644447,121.090961,7.918349e-09
C0F9O0,潭子,2015-03-18,24.213106,120.703933,6.675425e-09
C2H9R0,卓社,2015-03-18,23.887894,121.000086,4.713899e-09
72T250,花蓮農改場,2015-03-18,23.975222,121.563889,9.6031044e-08
C0E780,銅鑼,2015-03-18,24.489681,120.790853,6.5025443e-09
C1T950,太安,2015-03-18,23.666719,121.370128,2.1102549e-08
C0E830,苑裡,2015-03-18,24.439714,120.653053,1.0557691e-06
467270,田中,2015-03-18,23.873803,120.581286,1.2158894e-09
C0SA10,檳榔四格山,2015-03-18,22.810031,121.109308,1.02077415e-07
C1T830,布洛灣,2015-03-18,24.17184,121.57127,7.503053e-08
C0F970,大坑,2015-03-18,24.173142,120.722289,1.4151195e-07
C1U920,思源,2015-03-18,24.393125,121.347214,1.5425416e-08
C0A931,三和,2015-03-18,25.233153,121.595236,2.4485923e-08
C0I010,廬山,2015-03-18,24.033311,121.181808,5.1496003e-09
C2M940,日野賀,2015-03-18,23.434056,120.727169,3.278196e-09
C0R860,鼻頭,2015-03-18,22.1043,120.8979,0.0016951641
C0UB20,壯圍,2015-03-18,24.7359,121.8163,8.635368e-08
C0R790,九棚,2015-03-18,22.14195,120.889281,0.99987537
C0W110,東莒,2015-03-18,25.9652,119.98069,3.4505643e-07
C1U930,粉鳥林,2015-03-18,24.497088,121.842479,3.6073107e-08
C1I211,蘆竹湳,2015-03-18,23.934019,120.811994,1.4127988e-09
C0S830,長濱,2015-03-18,23.286817,121.411975,8.603704e-08
C1F9F1,伯公龍,2015-03-18,24.272392,120.849047,3.1689964e-09
C0E810,西湖,2015-03-18,24.562947,120.7485,3.3324687e-07
C1I440,新高口,2015-03-18,23.478744,120.878939,1.0600469e-08
C0O840,王爺宮,2015-03-18,23.222064,120.40085,1.6849276e-08
C0T9G0,鳳林山,2015-03-18,23.735269,121.420131,5.59984e-08
C0X080,佳里,2015-03-18,23.173039,120.145086,2.7273342e-07
C0FB70,大甲溪埔,2015-03-18,24.370625,120.620067,9.4246656e-07
C0Z310,清水斷崖,2015-03-18,24.218294,121.689142,1.3476932e-07
C0M680,太保,2015-03-18,23.455062,120.331455,5.5757425e-08
C1S820,金峰,2015-03-18,22.590969,120.933236,1.836911e-08
C0AD10,八里,2015-03-18,25.150211,121.403947,7.242641e-08
C2K240,草嶺,2015-03-18,23.59555,120.693461,2.986477e-09
C1SA70,都蘭,2015-03-18,22.87794,121.226881,1.13793625e-07
C0K440,二崙,2015-03-18,23.772797,120.408944,1.8681627e-09
C1A760,坪林交控,2015-03-18,24.94284,121.713442,2.4516906e-08
C0F9N0,大里,2015-03-18,24.092464,120.701378,3.2098262e-07
C0SA90,達仁林場,2015-03-18,22.264347,120.823972,6.5412465e-08
C1R290,石門山,2015-03-18,22.112611,120.756597,0.9983212
42HA10,萬大發電廠,2015-03-18,23.978875,121.139639,4.174165e-09
C0R890,山海,2015-03-18,21.9878,120.7091,0.0053868387
C0T9A0,月眉山,2015-03-18,23.809928,121.539828,7.799366e-08
C0AC70,信義,2015-03-18,25.037822,121.564597,6.670554e-08
C0K560,棋山,2015-03-18,23.68645,120.603417,1.6933774e-09
C2FB50,出雲,2015-03-18,24.206469,120.902794,3.546908e-09
C1Z240,中平林道,2015-03-18,23.42115,121.26763,3.502827e-08
U2H480,溪頭,2015-03-18,23.670306,120.798194,1.5618762e-09
C0M880,好美里,2015-03-18,23.3364,120.138,2.7273342e-07
C0T9E0,大坑,2015-03-18,23.880628,121.581981,8.848635e-08
C0K530,臺西,2015-03-18,23.701547,120.197559,7.190521e-07
C1E900,國一N128K,2015-03-18,24.560997,120.844186,2.7493252e-07
C0AJ50,水湳洞,2015-03-18,25.123695,121.862238,8.8226204e-07
C0AI20,白沙灣,2015-03-18,25.283128,121.519058,1.3519929e-07
C0A860,大坪,2015-03-18,25.165914,121.632969,1.598989e-08
C1U850,觀音海岸,2015-03-18,24.38319,121.77856,2.73605e-08
C2K610,草嶺石壁,2015-03-18,23.602469,120.707731,3.1431417e-09
C0U950,鶯子嶺,2015-03-18,24.89754,121.79244,2.0492498e-08
C0O900,善化,2015-03-18,23.112883,120.297219,3.2631757e-08
C0K550,蔦松,2015-03-18,23.514319,120.229736,1.0748671e-07
E2P980,林試六龜中心,2015-03-18,22.991703,120.645722,1.3014121e-09
C0E590,通霄,2015-03-18,24.471892,120.704622,1.0057307e-06
C1I310,西巒,2015-03-18,23.754486,120.883956,2.0285522e-09
C0A550,泰平,2015-03-18,24.971197,121.823711,2.4239087e-08
C0I360,水里,2015-03-18,23.812553,120.849792,1.16703e-09
C0R830,高士,2015-03-18,22.121825,120.836781,0.9990869
C1I101,溪頭,2015-03-18,23.661789,120.807647,3.6391188e-09
C0AJ20,野柳,2015-03-18,25.20703,121.690021,8.8396246e-07
C0B060,暖暖,2015-03-18,25.0957,121.7403,5.1620384e-07
C1H920,長豐,2015-03-18,24.102039,120.879897,2.1904072e-09
C0V360,內門,2015-03-18,22.975481,120.466769,1.4539562e-08
C0R850,林邊,2015-03-18,22.4634,120.5339,3.8651667e-08
C0E930,龍鳳,2015-03-18,24.700034,120.859125,8.560078e-09
C0U910,冬山,2015-03-18,24.63373,121.7937,8.635368e-08
C1E721,泰安,2015-03-18,24.489017,120.968036,4.790626e-09
82H320,茶改中部分場,2015-03-18,23.875611,120.913583,1.2163788e-09
C0M750,布袋,2015-03-18,23.380878,120.167789,1.2979291e-07
C1S860,利嘉,2015-03-18,22.809417,121.050528,8.280239e-09
72C440,桃園農改,2015-03-18,24.950944,121.030583,3.1717917e-08
E2S980,林試太麻里1,2015-03-18,22.598922,120.980044,3.2253492e-08
C0X170,關廟,2015-03-18,22.963017,120.327797,3.528745e-08
C0V720,林園,2015-03-18,22.507747,120.394511,3.548527e-08
C1I510,線浸林道,2015-03-18,23.761508,120.832956,1.5424789e-09
C0D690,外湖,2015-03-18,24.917735,120.968711,3.5022456e-08
C0C750,新興坑尾,2015-03-18,25.0061,121.0971,8.96032e-08
B2Q810,畜試南區分所,2015-03-18,21.945583,120.802167,0.0058265436
C0S790,金崙,2015-03-18,22.538122,120.966875,1.6126924e-08
C0AH90,福山植物園,2015-03-18,24.760717,121.58135,1.8674118e-08
C0I540,奇萊稜線,2015-03-18,24.109231,121.326456,3.1841815e-08
C0M850,表湖,2015-03-18,23.24186,120.64166,2.434439e-09
C0S770,大溪山,2015-03-18,22.478475,120.943325,9.855389e-09
C0AG80,中和,2015-03-18,24.991622,121.491792,6.670554e-08
C0T790,大禹嶺,2015-03-18,24.186117,121.316086,1.9838573e-08
C0T9B0,水源,2015-03-18,23.991861,121.537169,7.17056e-08
C0R840,牡丹池山,2015-03-18,22.168389,120.841225,8.498911e-08
C1I131,桶頭,2015-03-18,23.641944,120.654117,1.53573e-09
CAL110,布袋國中,2015-03-18,23.35893,120.18026,4.863861e-08
467571,新竹,2015-03-18,24.827853,121.014219,8.0055194e-08
C0Z290,赤柯山,2015-03-18,23.36893,121.38293,4.6526598e-08
C0X280,將軍,2015-03-18,23.214999,120.13577,2.7273342e-07
C0S690,太麻里,2015-03-18,22.60902,120.98533,3.4169492e-08
C0U880,北關,2015-03-18,24.9072,121.8734,4.2255098e-07
C1H860,瑞岩,2015-03-18,24.123772,121.18345,7.523255e-09
C0G810,埔心,2015-03-18,23.947633,120.525456,3.0158958e-08
C0U970,大福,2015-03-18,24.80064,121.81389,6.571409e-08
C2H9N0,仁愛東眼,2015-03-18,24.026875,121.1205,5.2216236e-09
C1E670,南礦,2015-03-18,24.538278,121.002836,4.649207e-09
C0M520,東後寮,2015-03-18,23.369908,120.248065,4.5702034e-08
C1E461,松安,2015-03-18,24.397972,120.986022,4.407325e-09
72G600,臺中農改,2015-03-18,24.003028,120.534389,2.6847117e-08
C2N160,西拉雅風管處,2015-03-18,23.189481,120.335297,3.7609748e-08
C2M970,碧湖,2015-03-18,23.568632,120.624165,2.6080385e-09
C0A640,石碇,2015-03-18,24.993969,121.662917,3.6971265e-08
E2S960,林試太麻里2,2015-03-18,22.598,120.99775,5.8963284e-08
C0F9Y0,桃山,2015-03-18,24.432739,121.303808,2.58506e-08
C1I020,萬大,2015-03-18,23.979817,121.132261,3.879079e-09
C0U940,羅東,2015-03-18,24.68184,121.74934,8.466536e-08
C0M650,朴子,2015-03-18,23.43463,120.23902,1.2001959e-07
C1I500,大尖山,2015-03-18,23.858572,120.994889,6.86668e-09
C0G820,田尾,2015-03-18,23.901669,120.509389,2.9408001e-08
E2K600,四湖植物園,2015-03-18,23.676986,120.163433,7.190521e-07
C0S730,綠島,2015-03-18,22.6672,121.47533,2.1052081e-07
12Q970,東港工作站,2015-03-18,22.479997,120.466058,4.2886846e-08
C0E430,南庄,2015-03-18,24.601775,121.000214,3.6159058e-09
C1TA00,太魯閣,2015-03-18,24.15773,121.6236,1.3984928e-07
466920,臺北,2015-03-18,25.037658,121.514853,6.670554e-08
C0R600,舊泰武,2015-03-18,22.588194,120.664944,1.884852e-09
C1I260,北坑,2015-03-18,23.9246,121.006903,1.7693514e-09
466910,鞍部,2015-03-18,25.182586,121.529731,1.8759048e-08
C1I230,九份二山,2015-03-18,23.961944,120.845,2.4518112e-09
C2A660,瑞芳,2015-03-18,25.113169,121.801147,6.55511e-08
C0R270,琉球嶼,2015-03-18,22.332244,120.362236,2.6329353e-08
C1T990,高寮,2015-03-18,23.394239,121.356808,4.0637693e-07
C0G620,芬園,2015-03-18,24.015678,120.6213,1.0027845e-08
C1Z140,荖溪,2015-03-18,23.890575,121.45964,3.79755e-08
C1I201,中心崙,2015-03-18,23.728722,120.712097,1.6032851e-09
C1I400,凌霄,2015-03-18,24.018778,121.004456,5.077321e-09
C1M640,十字,2015-03-18,23.492153,120.753683,3.434668e-09
G2P820,農試鳳山分所,2015-03-18,22.646611,120.356083,2.9179702e-08
C0Z270,蕃薯寮,2015-03-18,23.73835,121.540108,1.5744173e-07
C0F9Q0,外埔,2015-03-18,24.347817,120.705686,9.542247e-09
C0K580,高鐵雲林,2015-03-18,23.737456,120.417944,1.7532266e-09
C2I090,鳳凰,2015-03-18,23.728081,120.787347,1.2854163e-09
C0U990,員山,2015-03-18,24.74435,121.72247,8.466536e-08
C0V770,大社,2015-03-18,22.730306,120.346639,5.808082e-08
C0X120,麻豆,2015-03-18,23.183289,120.248611,2.3575032e-07
C0C670,龍潭,2015-03-18,24.870056,121.221389,7.611255e-09
C0D680,香山濕地,2015-03-18,24.783581,120.914988,1.5711895e-07
C0S980,勝林山,2015-03-18,22.430439,120.8938,3.2867857e-09
C0V730,大寮,2015-03-18,22.605614,120.395717,8.801815e-10
C0R570,麟洛,2015-03-18,22.65078,120.52719,2.9526352e-09
C2M930,石卓,2015-03-18,23.478744,120.702264,3.3584653e-09
C0G9B0,和美,2015-03-18,24.105169,120.492131,4.484039e-08
CAG100,王功漁港,2015-03-18,23.96824,120.32586,2.4726813e-07
C0X290,北門,2015-03-18,23.267772,120.125481,2.7273342e-07
C2F930,大甲,2015-03-18,24.347667,120.640403,4.5067182e-07
C0D650,湖口,2015-03-18,24.904794,121.043628,2.8884008e-08
C0E420,竹南,2015-03-18,24.708978,120.888897,1.2703208e-07
C0U780,五結,2015-03-18,24.68637,121.79794,8.635368e-08
C1I250,鯉潭,2015-03-18,23.961922,120.991131,2.1904072e-09
C0R130,阿禮,2015-03-18,22.742908,120.743678,1.320742e-09
C0X100,臺南市北區,2015-03-18,23.010394,120.194228,2.5766604e-07
C0S920,金峰嘉蘭,2015-03-18,22.594789,120.960825,3.1249353e-08
C0V490,新興,2015-03-18,22.627422,120.298803,3.548527e-08
C0F9K0,大安,2015-03-18,24.345061,120.588025,8.926857e-07
72N100,臺南農改,2015-03-18,23.0605,120.342194,2.4957675e-08
467290,古坑,2015-03-18,23.633639,120.551889,1.8123161e-09
C2E970,八甲,2015-03-18,24.535811,120.795983,6.4179306e-09
C0V440,鳳山,2015-03-18,22.646653,120.356122,2.9179702e-08
C1T940,大觀,2015-03-18,23.714206,121.373133,9.5868536e-08
72T250,花蓮農改,2015-03-18,23.975222,121.563889,9.6031044e-08
C0E740,造橋,2015-03-18,24.637056,120.864778,8.180993e-09
C0R100,尾寮山,2015-03-18,22.833111,120.683889,1.8028488e-09
A2K630,臺大雲林校區,2015-03-18,23.730628,120.423903,1.7532266e-09
C0D580,寶山,2015-03-18,24.735006,121.025192,1.1469034e-08
E2P990,林試扇平站,2015-03-18,22.9677,120.6857,3.1748042e-09
C0AI30,三重,2015-03-18,25.057328,121.500629,5.6727586e-08
C0AH00,汐止,2015-03-18,25.066881,121.658778,8.8396246e-07
C1Z040,立山,2015-03-18,23.443356,121.327375,1.07780494e-07
C0W130,花嶼,2015-03-18,23.40007,119.32276,0.9991019
C0A950,鼻頭角,2015-03-18,25.129036,121.923372,9.5492595e-08
C0K470,林內,2015-03-18,23.748675,120.609642,1.9500472e-09
C2F990,摩天嶺,2015-03-18,24.322458,120.936819,3.7234076e-09
82C160,茶改場,2015-03-18,24.908472,121.185333,2.4206516e-08
C0Z320,清水林道,2015-03-18,23.27125,121.188272,5.8796175e-08
C0R760,南仁湖,2015-03-18,22.084681,120.863353,0.99848926
C0M670,大林,2015-03-18,23.600616,120.45841,2.4977993e-07
C0M800,茶山,2015-03-18,23.299075,120.664767,2.431854e-09
C0A9C0,天母,2015-03-18,25.117494,121.537169,5.482351e-08
72K220,南改斗南分場,2015-03-18,23.634556,120.477333,2.0135877e-09
72AI40,桃改樹林分場,2015-03-18,24.944503,121.386972,5.4240736e-08
C0S910,蘭嶼燈塔,2015-03-18,22.081197,121.503117,0.6000927
C0B050,八斗子,2015-03-18,25.144754,121.79167,1.0197647e-06
C0U900,內城,2015-03-18,24.71813,121.68766,6.014779e-08
C0X320,柳營,2015-03-18,23.253328,120.375253,3.3708854e-08
C0M790,新港,2015-03-18,23.553269,120.345728,4.885786e-08
C0F9T0,西屯,2015-03-18,24.179494,120.641275,2.9994834e-07
C0SA30,都歷,2015-03-18,23.020333,121.323642,2.6229617e-07
C0C620,蘆竹,2015-03-18,25.084275,121.265767,6.9475064e-08
C0R730,大坪頂,2015-03-18,22.024633,120.69355,0.11935813
C0AJ40,石門,2015-03-18,25.273672,121.601198,8.6942194e-08
C0E750,苗栗,2015-03-18,24.564569,120.824575,2.8775747e-07
C0T870,鯉魚潭,2015-03-18,23.935639,121.508944,1.498259e-07
C1V170,排雲,2015-03-18,23.463619,120.954147,2.6102093e-08
C2H950,中寮,2015-03-18,23.884447,120.766406,1.2565405e-09
C0R350,貓鼻頭,2015-03-18,21.921774,120.7358,0.0065896288
C0V660,岡山,2015-03-18,22.797078,120.294958,2.7893645e-08
C1H941,雙冬,2015-03-18,23.967378,120.802189,1.7671256e-09
C0AJ70,田寮,2015-03-18,25.2698,121.4886,1.3897763e-07
C0AI00,五股,2015-03-18,25.07445,121.42728,5.4842857e-08
C0Z280,德武,2015-03-18,23.47426,121.41071,2.4572554e-07
C0R700,枋山,2015-03-18,22.246844,120.661086,0.00026931605
C0C460,復興,2015-03-18,24.820208,121.352281,1.955889e-08
E2H360,蓮華池,2015-03-18,23.918333,120.885278,1.4831725e-09
C0M640,中埔,2015-03-18,23.42538,120.5229,1.9720632e-09
C0W140,金沙,2015-03-18,24.488292,118.408778,5.647774e-09
C2A540,四堵,2015-03-18,24.8926,121.745736,4.09729e-08
C0ACA0,新莊,2015-03-18,25.051478,121.446756,9.279836e-08
C0R220,潮州,2015-03-18,22.534361,120.54,8.602563e-10
U2HA40,臺大內茅埔,2015-03-18,23.689722,120.851117,1.14109e-09
467490,臺中,2015-03-18,24.145736,120.684075,1.4756343e-07
C0U960,翠峰湖,2015-03-18,24.510856,121.608044,2.0247496e-08
E2HA20,林試畢祿溪站,2015-03-18,24.226944,121.308522,1.1432364e-08
C0V890,前鎮,2015-03-18,22.5718,120.3117,4.2640355e-08
467620,蘭嶼,2015-03-18,22.036969,121.558339,0.9068678
C1F941,雪嶺,2015-03-18,24.280586,121.026642,1.5170835e-08
C2H9E0,國姓南港,2015-03-18,23.911108,120.846556,2.1690294e-09
C0AC80,文山,2015-03-18,25.00235,121.575728,6.125846e-08
C0F9R0,龍井,2015-03-18,24.184536,120.528972,1.2845404e-06
C0M760,民雄,2015-03-18,23.551754,120.428457,1.7858565e-07
C0UA40,西德山,2015-03-18,24.560647,121.752608,2.1957288e-08
C1T920,中興,2015-03-18,23.769503,121.498653,1.8331141e-07
C0D550,雪霸,2015-03-18,24.526972,121.11605,8.7859355e-09
C2F860,梨山,2015-03-18,24.247522,121.243669,1.1750132e-08
C0R320,車城,2015-03-18,22.0744,120.716247,0.005398693
C1S870,南美山,2015-03-18,23.15025,121.382333,1.0410183e-07
C0B020,基隆嶼,2015-03-18,25.19141,121.78391,8.8226204e-07
C1U501,牛鬥,2015-03-18,24.637836,121.573656,4.3210186e-08
C0M730,嘉義市東區,2015-03-18,23.457673,120.460531,1.9667587e-07
C0S700,知本,2015-03-18,22.684866,121.005642,3.7418346e-08
C1N001,沙崙,2015-03-18,22.935472,120.309406,5.2873304e-08
C0V760,橋頭,2015-03-18,22.757806,120.30575,2.5089406e-08
C0G960,福寶,2015-03-18,24.0443,120.3814,5.0461296e-08
C0X210,白河,2015-03-18,23.347466,120.414427,3.1702918e-08
C0S810,東河,2015-03-18,22.972672,121.303986,1.2173699e-07
C2R170,屏東,2015-03-18,22.66027,120.49403,3.1155127e-09
C0R670,楓港,2015-03-18,22.190131,120.692156,0.00026931605
C0FA50,霧峰,2015-03-18,24.0419,120.6995,1.7349704e-07
C0UB10,蘇澳,2015-03-18,24.5969,121.8571,3.5581515e-08
C0G950,防潮門,2015-03-18,24.1835,120.4871,1.4234927e-06
C0M740,六腳,2015-03-18,23.492871,120.290625,6.220878e-08
C1R250,力里,2015-03-18,22.428117,120.629228,1.2583639e-08
C0K330,虎尾,2015-03-18,23.719183,120.442036,1.7353707e-09
C2FA00,烏石坑,2015-03-18,24.273503,120.947617,3.7146544e-09
C0V620,永安,2015-03-18,22.82315,120.236856,6.1498454e-08
C1I330,楓樹林,2015-03-18,23.986803,121.076117,4.5702535e-09
C0W200,湖西,2015-03-18,23.596314,119.67275,0.9920578
72Q010,高雄農改場,2015-03-18,22.709333,120.525889,2.8708074e-09
C0SA40,瑞和,2015-03-18,22.974361,121.156697,1.3450135e-07
C0C680,龜山,2015-03-18,25.02846,121.38656,1.1152356e-08
C2V260,月眉,2015-03-18,22.971003,120.539853,1.0059872e-09
C0V450,鳳森,2015-03-18,22.545064,120.392592,6.4676475e-10
C0U720,南山,2015-03-18,24.43742,121.38167,1.771767e-08
A2N290,臺南蘭花園區,2015-03-18,23.340258,120.379661,3.3708854e-08
C0R560,新園,2015-03-18,22.5434,120.461558,3.8651667e-08
C0U890,三星,2015-03-18,24.66812,121.65302,5.4716743e-08
C1V300,御油山,2015-03-18,23.001983,120.715364,7.944187e-09
C0U600,礁溪,2015-03-18,24.817539,121.765608,6.353491e-08
C1T980,龍澗,2015-03-18,24.023289,121.411328,2.5800405e-08
C0D670,海天一線,2015-03-18,24.831986,120.914438,1.5942649e-07
C0SA00,歷坵,2015-03-18,22.520969,120.89185,8.862431e-09
C0M710,東石,2015-03-18,23.458927,120.15385,1.07873454e-07
C0M780,鹿草,2015-03-18,23.41134,120.30835,6.096717e-08
C0U520,雙連埤,2015-03-18,24.753033,121.641303,1.4624978e-08
C0B010,七堵,2015-03-18,25.094819,121.71713,7.7045604e-07
C0R480,長治,2015-03-18,22.693128,120.542622,3.5996847e-10
C1V830,國三S383K,2015-03-18,22.781967,120.426475,5.767628e-10
12Q980,恆春工作站,2015-03-18,22.079678,120.714425,0.0053912904
C1O940,東山服務區,2015-03-18,23.286016,120.398472,3.0336363e-08
C1U840,東澳嶺,2015-03-18,24.5378,121.8485,3.016212e-08
C1D630,飛鳳山,2015-03-18,24.766464,121.119178,9.42935e-09
C0S940,石寧山,2015-03-18,23.223772,121.406639,1.386464e-07
C0K410,北港,2015-03-18,23.573957,120.292802,5.2510693e-08
C2M620,瑞里,2015-03-18,23.545133,120.675197,3.5237053e-09
C0SB70,小港漁港,2015-03-18,23.158558,121.400431,2.4217053e-07
C2O950,安南,2015-03-18,23.076694,120.144861,7.2921114e-07
C0F0E0,南湖圈谷,2015-03-18,24.363714,121.444667,4.5171742e-08
467610,成功,2015-03-18,23.097486,121.373428,3.852232e-07
C0G890,伸港,2015-03-18,24.148933,120.484403,2.4786784e-06
C2E540,龍溪,2015-03-18,24.606489,120.783933,4.2842453e-07
C1V200,梅山,2015-03-18,23.268447,120.823556,4.391994e-09
C0T9H0,加路蘭山,2015-03-18,23.682947,121.5274,4.71036e-08
C2O930,玉井,2015-03-18,23.126042,120.46055,2.9294132e-08
C1F911,新伯公,2015-03-18,24.221361,120.841069,2.7585756e-09
C0R490,九如,2015-03-18,22.7405,120.490503,2.9526352e-09
C0X200,左鎮,2015-03-18,23.056758,120.408522,1.6396891e-08
C0SB50,叭嗡嗡,2015-03-18,23.047062,121.343223,1.4889774e-07
C1F891,稍來,2015-03-18,24.265689,121.001142,1.0288132e-08
72N240,七股研究中心,2015-03-18,23.081672,120.062894,3.2944718e-06
C0C700,中壢,2015-03-18,24.977661,121.256375,3.63387e-08
C0M690,水上,2015-03-18,23.419734,120.388909,2.8875343e-07
C0V690,鼓山,2015-03-18,22.623325,120.275575,3.546734e-08
C0O860,大內,2015-03-18,23.11885,120.36083,1.1662851e-08
C0Z200,萬榮,2015-03-18,23.709219,121.420106,1.498259e-07
C0T9D0,和中,2015-03-18,24.26676,121.74103,2.0032194e-07
C1O921,楠西,2015-03-18,23.183511,120.484083,2.4979535e-08
C0AJ30,淡水觀海,2015-03-18,25.184591,121.408616,7.499819e-08
C0V810,左營,2015-03-18,22.67491,120.28491,6.8965306e-08
C0UA70,桃源谷,2015-03-18,24.962606,121.888875,2.3355586e-08
C0X130,官田,2015-03-18,23.193217,120.315422,3.9284313e-08
C1H000,翠峰,2015-03-18,24.109397,121.205211,1.5688396e-08
C0UA90,石城,2015-03-18,24.980444,121.951214,9.067947e-08
C1E681,南勢山,2015-03-18,24.421669,120.923831,3.6721406e-09
C0A9F0,內湖,2015-03-18,25.079422,121.57545,6.670554e-08
C0K291,宜梧,2015-03-18,23.536281,120.169329,1.17976555e-07
C1K540,口湖,2015-03-18,23.585344,120.180517,1.3702916e-07
C0R780,滿州,2015-03-18,22.024403,120.839892,0.0069541275
C0V870,文安,2015-03-18,22.8025,120.2164,6.69845e-08
C0U650,玉蘭,2015-03-18,24.675286,121.587061,4.2908773e-08
C0R640,東港,2015-03-18,22.46247,120.44074,4.2640355e-08
K2E360,苗栗農改,2015-03-18,24.495722,120.829111,7.069399e-09
C0AJ80,板橋,2015-03-18,25.0107,121.4489,5.6147165e-08
C0S660,下馬,2015-03-18,23.150427,121.070312,4.3229722e-08
C1H9B1,阿眉,2015-03-18,24.1263,120.994672,7.1069697e-09
C0UA20,多加屯,2015-03-18,24.368614,121.373189,1.7577678e-08
C0E730,頭份,2015-03-18,24.688247,120.912206,1.2721453e-07
72V140,高改旗南分場,2015-03-18,22.857861,120.516667,8.2508794e-10
C0K480,莿桐,2015-03-18,23.761192,120.502372,1.5489827e-09
C0U980,坪林石牌,2015-03-18,24.86478,121.77396,2.7868863e-08
C0T900,西林,2015-03-18,23.8119,121.441458,1.3542653e-07
C1I150,青雲,2015-03-18,23.793361,120.949378,1.4572566e-09
467350,澎湖,2015-03-18,23.565503,119.563094,0.9982592
C0G800,埔鹽,2015-03-18,24.000394,120.431683,4.638987e-08
C0H960,草屯,2015-03-18,23.973672,120.68085,1.2033798e-09
C1V780,多納林道,2015-03-18,22.888028,120.737917,3.7779118e-09
C0E920,通霄漁港,2015-03-18,24.498589,120.673876,1.5903288e-06
C0Z330,安通山,2015-03-18,23.290728,121.348528,6.2156e-08
C0AH10,永和,2015-03-18,25.01125,121.508111,6.8122844e-08
C0AK10,太平里,2015-03-18,25.134937,121.364899,9.279836e-08
C2G640,鹿港,2015-03-18,24.0753,120.430481,4.644051e-08
C1E890,國三N149K,2015-03-18,24.463414,120.680019,8.6614693e-07
C1R110,口社,2015-03-18,22.770111,120.645222,8.1479906e-10
C1M870,國三N285K,2015-03-18,23.550319,120.505833,1.926013e-09
467050,新屋,2015-03-18,25.006744,121.047486,3.3458207e-08
C1E480,鳳美,2015-03-18,24.554803,121.034747,2.9369756e-09
C0M530,奮起湖,2015-03-18,23.493903,120.699253,3.9942143e-09
C0C590,觀音,2015-03-18,25.027072,121.153317,3.6946595e-08
C0T9M0,靜浦,2015-03-18,23.455167,121.495028,4.55872e-07
C2H9M0,發祥,2015-03-18,24.154094,121.164517,4.369867e-09
C0AI40,石牌,2015-03-18,25.115597,121.513139,5.6147165e-08
C1F871,上谷關,2015-03-18,24.203483,121.018644,3.7146544e-09
C2H9G0,百勝,2015-03-18,24.051142,120.909361,2.876705e-09
C0G880,二水,2015-03-18,23.810742,120.6173,1.4069955e-09
C0R940,加祿堂,2015-03-18,22.3363,120.6217,1.2744987e-07
C0W220,北竿,2015-03-18,26.220358,119.974881,1.0078698e-08
C0O960,崎頂,2015-03-18,22.959547,120.369317,8.055122e-10
C0S750,向陽,2015-03-18,23.248397,120.986133,1.3299339e-08
C0T9F0,水璉,2015-03-18,23.797131,121.542514,1.1161937e-07
C1M600,頭凍,2015-03-18,23.406364,120.603339,3.028056e-09
467660,臺東,2015-03-18,22.752211,121.154586,7.095277e-07
C1D380,新埔,2015-03-18,24.84745,121.03834,6.333358e-08
C2G980,田頭村,2015-03-18,23.8263,120.444175,1.8681627e-09
C0V750,路竹,2015-03-18,22.854997,120.259439,1.9652452e-08
C0N050,蚵寮,2015-03-18,23.301,120.1104,1.2458532e-06
72M700,南改鹿草分場,2015-03-18,23.416869,120.283061,6.8271135e-08
C1SA50,利嘉林道,2015-03-18,22.82325,121.009389,8.550548e-09
467550,玉山,2015-03-18,23.487614,120.959522,2.9070044e-08
C0A940,金山,2015-03-18,25.223628,121.643967,1.2273485e-07
C1V340,大津,2015-03-18,22.888322,120.645986,1.0715889e-09
C0W180,七美,2015-03-18,23.219333,119.444892,0.9980108
C1F9C1,白冷,2015-03-18,24.182844,120.929889,2.6625835e-09
K2E710,苗改生物防治研究中心,2015-03-18,24.422861,120.871833,5.9520544e-09
C0N040,蘆竹溝,2015-03-18,23.2344,120.0961,1.2458532e-06
C2W230,畜試所澎湖,2015-03-18,23.628342,119.513206,0.9982303
C0R880,後壁湖,2015-03-18,21.9457,120.7457,0.0049687787
C1I280,埔中,2015-03-18,23.820778,120.642594,1.236128e-09
467790,墾丁雷達站,2015-03-18,21.948235,120.808028,0.008395009
C0W190,望安,2015-03-18,23.380564,119.494075,0.9978014
466881,新北,2015-03-18,24.9593,121.52,6.438569e-08
C0Z170,卓溪,2015-03-18,23.3443,121.3029,1.5725311e-07
C0F850,東勢,2015-03-18,24.246428,120.833047,2.7072122e-09
466900,淡水,2015-03-18,25.164889,121.448906,7.242641e-08
C0I370,魚池,2015-03-18,23.895703,120.94135,1.4514396e-09
C0C630,大溪,2015-03-18,24.882853,121.265547,3.710613e-08
C0A520,山佳,2015-03-18,24.974944,121.402008,5.427789e-08
C0I110,竹山,2015-03-18,23.761225,120.688156,1.2192242e-09
82H840,茶改南部分場,2015-03-18,23.762528,120.7405,1.3742925e-09
C0G660,溪湖,2015-03-18,23.94835,120.479122,3.277154e-08
C1T800,洛韶,2015-03-18,24.204558,121.453956,2.7266829e-08
C1T810,慈恩,2015-03-18,24.192044,121.388386,1.9793521e-08
C1E451,象鼻,2015-03-18,24.368617,120.940228,3.6721477e-09
C0AC60,三峽,2015-03-18,24.939025,121.369728,6.3355934e-08
C0I490,萬大林道,2015-03-18,23.928228,121.091411,6.6625017e-09
C1I290,豐丘,2015-03-18,23.668178,120.887417,1.5424789e-09
C1I320,奧萬大,2015-03-18,23.952956,121.178556,4.590767e-09
C2M910,嘉義大學,2015-03-18,23.471325,120.485903,1.8182437e-09
C0U770,南澳,2015-03-18,24.44935,121.81022,5.09054e-08
C0A980,社子,2015-03-18,25.109508,121.469681,5.8149766e-08
C0V800,六龜,2015-03-18,22.997889,120.633583,1.3114191e-09
C1G9D0,國一S218K,2015-03-18,23.890641,120.493253,3.0158958e-08
C0E570,白沙屯,2015-03-18,24.549447,120.696803,1.5958803e-06
C2F9A0,中竹林,2015-03-18,24.103556,120.751061,1.9320654e-09
C0FA40,臺中電廠,2015-03-18,24.2146,120.4907,1.2845404e-06
C2G9A0,畜試所彰化,2015-03-18,23.86045,120.557964,1.2010685e-09
C0H9C0,合歡山,2015-03-18,24.143442,121.272547,3.2253247e-08
C0X060,下營,2015-03-18,23.22695,120.256261,4.680323e-08
G2M350,農試溪口農場,2015-03-18,23.58565,120.408111,2.0739817e-07
C0U860,頭城,2015-03-18,24.85323,121.8308,6.4054596e-08
C0R580,南州,2015-03-18,22.48591,120.50274,4.2886846e-08
C0D430,峨眉,2015-03-18,24.6905,121.017189,6.947096e-08
C0G780,秀水,2015-03-18,24.03405,120.503869,2.8942024e-08
72N100,臺南農改場,2015-03-18,23.0605,120.342194,2.4957675e-08
C0S900,蘭嶼高中,2015-03-18,22.04909,121.51214,0.050377846
467540,大武,2015-03-18,22.355675,120.903789,0.99642664
C1F9W0,德基,2015-03-18,24.254783,121.190261,8.566987e-09
C1Z120,壽豐,2015-03-18,23.870853,121.508081,2.0945423e-07
C0W160,烏坵,2015-03-18,24.9944,119.44956,0.0058542467
C1I240,外大坪,2015-03-18,23.958697,120.917931,2.1949866e-09
C1I550,國六W023K,2015-03-18,23.979067,120.867742,1.5319735e-09
C0R870,興海,2015-03-18,21.9752,120.8439,0.005826541
C0R140,瑪家,2015-03-18,22.682903,120.686639,2.4058293e-09
C0A530,坪林,2015-03-18,24.938183,121.70975,3.708172e-08
C0X260,後壁,2015-03-18,23.366358,120.362326,1.9248606e-08
C0Z230,和平,2015-03-18,24.30717,121.77007,2.0032194e-07
C0G770,福興,2015-03-18,24.041289,120.437669,4.638987e-08
C0H9A0,神木村,2015-03-18,23.532742,120.843667,4.115977e-09
C0I460,南投,2015-03-18,23.911469,120.687331,1.1771101e-09
C0I480,梅峰,2015-03-18,24.085272,121.173572,1.1111463e-08
C1V570,吉東,2015-03-18,22.85422,120.5454,8.148006e-10
C2D740,屯原,2015-03-18,24.067969,121.209389,1.135931e-08
C2A560,福山,2015-03-18,24.776203,121.502811,1.2390202e-08
C0AH30,五分山,2015-03-18,25.07125,121.780794,2.1957623e-08
C0FA10,松柏,2015-03-18,24.429115,120.617482,1.3873849e-06
72S200,東改班鳩分場,2015-03-18,22.829528,121.077694,1.7500159e-07
72HA00,中改埔里分場,2015-03-18,23.903208,120.963364,1.4204589e-09
C2H9W0,大坪頂農水,2015-03-18,24.043122,120.932781,2.213215e-09
C0C650,平鎮,2015-03-18,24.897503,121.214636,2.4206516e-08
C0S930,延平,2015-03-18,22.902581,121.084058,6.15367e-08
C0UA60,樟樹山,2015-03-18,24.41393,121.78325,5.1702507e-08
C1S670,摩天,2015-03-18,23.199503,121.027,1.4401726e-08
C0V630,茄萣,2015-03-18,22.906642,120.182608,2.9212595e-07
466940,基隆,2015-03-18,25.133314,121.740475,9.63917e-07
C0X050,東河,2015-03-18,23.296598,120.385608,3.3708854e-08
C0R770,保力,2015-03-18,22.071122,120.764111,0.013341464
G2L020,農試嘉義分所,2015-03-18,23.485028,120.473806,1.8075796e-09
C0X240,關子嶺,2015-03-18,23.331169,120.508025,1.9378301e-09
C0I380,集集,2015-03-18,23.828206,120.801467,1.1451149e-09
466990,花蓮,2015-03-18,23.975128,121.613275,1.00847004e-07
C1V220,小關山,2015-03-18,23.154217,120.813603,9.1473655e-09
C1F9G1,慶福山,2015-03-18,24.180853,120.848378,2.9585656e-09
C0Z250,瑞穗林道,2015-03-18,23.49284,121.30688,4.176803e-08
C0D590,新豐,2015-03-18,24.87068,120.97721,5.8935146e-09
C0A870,五指山,2015-03-18,25.132153,121.608692,2.7051387e-08
C0UA50,西帽山,2015-03-18,24.555361,121.802628,2.6555604e-08
C0X160,仁德,2015-03-18,22.968258,120.257689,4.6297057e-08
C1H971,六分寮,2015-03-18,23.92507,120.6378,1.4889207e-09
C0W120,西嶼,2015-03-18,23.5626,119.468436,0.9982592
C0G650,員林,2015-03-18,23.946503,120.585597,1.7271066e-08
C0AD50,鶯歌,2015-03-18,24.951533,121.346294,3.987282e-08
C2H9Q0,北東眼山,2015-03-18,24.120939,121.189303,1.1134524e-08
C2H9T0,名間竹圍,2015-03-18,23.859914,120.637572,1.2269482e-09
C0S990,山豬窟,2015-03-18,22.318619,120.857372,5.3700067e-05
72Q010,高雄農改,2015-03-18,22.709333,120.525889,2.8708074e-09
C0X190,安平,2015-03-18,22.993161,120.152181,2.5766604e-07
C0K400,斗六,2015-03-18,23.720583,120.541127,1.7868104e-09
12J990,口湖工作站,2015-03-18,23.589978,120.180394,1.305188e-07
C0O830,北寮,2015-03-18,23.079561,120.495008,1.3021222e-09
C1D410,白蘭,2015-03-18,24.579364,121.079947,5.6523e-09
C0S970,加津林,2015-03-18,22.416211,120.926942,0.9966104
C0D700,關西,2015-03-18,24.7977,121.1732,2.6296982e-08
C0M810,里佳,2015-03-18,23.389125,120.716647,3.9924704e-09
C0U750,龜山島,2015-03-18,24.841667,121.953133,2.5600798e-08
C0R810,內獅,2015-03-18,22.305064,120.642986,1.2744987e-07
C1M390,龍美,2015-03-18,23.406728,120.654417,3.24458e-09
C2FB60,頭櫃山,2015-03-18,24.129842,120.858925,3.6307781e-09
C1H840,國三N238K,2015-03-18,23.841008,120.707711,1.1569392e-09
CAQ030,崎峰國小,2015-03-18,22.42565,120.49521,4.2886846e-08
C2E520,大湖,2015-03-18,24.414939,120.870872,1.0563311e-08
467530,阿里山,2015-03-18,23.508208,120.813242,1.0142142e-08
C1E691,南湖,2015-03-18,24.40135,120.837533,2.924566e-09
C0FA30,梧棲,2015-03-18,24.256003,120.523381,1.2845404e-06
C1V231,高中,2015-03-18,23.134911,120.716711,2.017582e-09
C0F9V0,新社,2015-03-18,24.200172,120.815806,2.9955594e-09
C0H890,埔里,2015-03-18,23.972169,120.952425,2.3410254e-09
C0R690,墾丁,2015-03-18,21.966756,120.810269,0.9533856
C0F0D0,審馬陣,2015-03-18,24.381675,121.4203,2.7228838e-08
C0R820,白鷺,2015-03-18,22.454275,120.666219,2.48533e-09
U2H480,臺大溪頭,2015-03-18,23.670306,120.798194,1.5618762e-09
C1V190,南天池,2015-03-18,23.27403,120.91176,1.4903279e-08
K2E360,苗栗農改場,2015-03-18,24.495722,120.829111,7.069399e-09
CAJ050,海口故事園區,2015-03-18,23.57543,120.14121,1.3702916e-07
C2H9D0,三隻寮,2015-03-18,24.093078,120.861578,2.218422e-09
C0O990,媽廟,2015-03-18,22.99175,120.293525,4.8017707e-08
C0D480,打鐵坑,2015-03-18,24.849664,121.150789,7.7952285e-09
C0Z220,和平林道,2015-03-18,24.343922,121.656317,5.1364776e-08
C0TA10,花蓮漁港,2015-03-18,23.995322,121.638331,1.0366592e-07
72C440,桃園農改場,2015-03-18,24.950944,121.030583,3.1717917e-08
C1E711,馬拉邦山,2015-03-18,24.367306,120.901656,3.5032794e-09
C0SB20,富岡,2015-03-18,22.792467,121.192669,6.3700963e-07
C0D560,竹東,2015-03-18,24.767147,121.057881,3.6458946e-08
C0F9U0,南屯,2015-03-18,24.137006,120.637969,3.2098262e-07
C0M720,番路,2015-03-18,23.464657,120.554156,1.9204665e-09
C0F0A0,雪山圈谷,2015-03-18,24.388594,121.236339,3.206916e-08
C1A9N0,四十份,2015-03-18,24.934158,121.593283,2.3807377e-08
C0U760,東澳,2015-03-18,24.52196,121.83318,3.4722877e-08
C0X230,鹽水,2015-03-18,23.272621,120.247641,7.682052e-08
C2H9H0,苗改南投蜂場,2015-03-18,23.852589,120.693481,1.2201036e-09
C0R950,萬隆國小,2015-03-18,22.507667,120.587817,3.3042394e-10
C0V370,古亭坑,2015-03-18,22.893178,120.401947,1.47373775e-08
C1I340,新興橋,2015-03-18,23.563333,120.868728,1.423836e-09
C0SA80,土坂,2015-03-18,22.453108,120.887572,2.415827e-08
C0R160,鹽埔,2015-03-18,22.739558,120.530778,3.6394363e-10
C0AC40,大屯山,2015-03-18,25.175675,121.522408,2.119755e-08
466850,五分山雷達站,2015-03-18,25.071182,121.781205,2.1872811e-08
C2H9L0,馬烈霸,2015-03-18,24.1512,121.201772,1.1000752e-08
C1AI50,國三N016K,2015-03-18,25.034164,121.619664,6.215043e-08
C1V600,藤枝,2015-03-18,23.071961,120.757042,7.4198665e-09
C1E601,南勢,2015-03-18,24.572486,120.734842,1.6506089e-08
C0Z180,新城,2015-03-18,24.03946,121.60454,9.7167295e-08
C0O980,新市,2015-03-18,23.061614,120.298197,3.2631757e-08
C0K420,西螺,2015-03-18,23.800407,120.467394,1.5532016e-09
C0Z050,佳心,2015-03-18,23.34567,121.21316,4.1290633e-08
C0AD30,蘆洲,2015-03-18,25.086594,121.472331,5.6727586e-08
C0V610,梓官,2015-03-18,22.760558,120.267211,2.7893645e-08
K2F750,種苗改良場,2015-03-18,24.225972,120.800917,2.85113e-09
C0UA80,大溪漁港,2015-03-18,24.941801,121.902955,6.353491e-08
C1AI60,國一39K邊坡,2015-03-18,25.064361,121.383836,1.7283853e-08
C0W150,金寧,2015-03-18,24.457703,118.328989,5.718862e-09
C0R960,內埔,2015-03-18,22.608483,120.570714,3.4531375e-10
V2C250,八德合作社,2015-03-18,24.93775,121.266389,2.7858022e-08
C2H9S0,龍南,2015-03-18,23.953536,120.833183,3.616713e-09
C0AH40,平等,2015-03-18,25.129142,121.577086,2.906511e-08
C0R540,佳冬,2015-03-18,22.419456,120.552375,4.1905842e-08
466950,彭佳嶼,2015-03-18,25.627975,122.079744,0.00026138788
C0A890,雙溪,2015-03-18,25.036003,121.864242,6.7079424e-07
C0C480,桃園,2015-03-18,24.992425,121.323172,3.779636e-08
C0AH50,林口,2015-03-18,25.072181,121.38084,1.6661396e-08
A2K360,水試臺西試驗場,2015-03-18,23.717231,120.190522,7.940733e-07
B2N890,畜試所,2015-03-18,23.058972,120.336406,2.4957675e-08
C2M960,外寮,2015-03-18,23.562643,120.665688,2.7736065e-09
C0F9S0,烏日,2015-03-18,24.107058,120.624103,1.9829344e-08
C0C490,八德,2015-03-18,24.928708,121.283289,4.0585945e-08
C0R190,赤山,2015-03-18,22.592333,120.614306,3.3801528e-10
C0T820,天祥,2015-03-18,24.179597,121.495639,8.837756e-08
C1F9E1,龍安,2015-03-18,24.1605,120.831961,3.0904777e-09
C0V820,小林,2015-03-18,23.148408,120.63325,1.9575674e-09
C2G870,芳苑,2015-03-18,23.922303,120.320025,5.522457e-07
C0E850,大河,2015-03-18,24.618069,120.948578,7.547301e-09
C1U670,寒溪,2015-03-18,24.634,121.71691,6.652232e-08
C0N020,城西,2015-03-18,23.0568,120.0956,2.7642263e-06
C1Z110,三棧,2015-03-18,24.11557,121.60501,8.706151e-08
C0R280,檳榔,2015-03-18,22.076078,120.836777,0.8993774
C2H9J0,中台,2015-03-18,23.9996,120.938739,2.316211e-09
C0F9L0,后里,2015-03-18,24.310436,120.729725,8.1957054e-09
C0D540,橫山,2015-03-18,24.71116,121.11693,1.09035545e-08
C1D420,太閣南,2015-03-18,24.632808,121.160575,8.32407e-09
C1E770,公館,2015-03-18,24.526914,120.830806,7.42566e-07
CAN130,水試所海水繁養殖中心,2015-03-18,23.120802,120.07968,3.2944718e-06
C1I430,翠華,2015-03-18,24.191961,121.224339,1.4451587e-08
C1M400,菜瓜坪,2015-03-18,23.251928,120.576103,2.421805e-09
C0G730,二林,2015-03-18,23.903325,120.376081,6.1044545e-08
72M360,南改義竹分場,2015-03-18,23.360694,120.279361,2.9699994e-08
V2K620,麥寮合作社,2015-03-18,23.753836,120.294783,3.7413818e-07
C0Z070,舞鶴,2015-03-18,23.46811,121.37407,1.9290566e-07
C0B040,大武崙,2015-03-18,25.166676,121.706993,7.6626316e-07
C1Z030,紅葉,2015-03-18,23.493119,121.338806,2.3643771e-07
C1I050,丹大,2015-03-18,23.753747,121.141147,1.4797852e-08
C0I080,信義,2015-03-18,23.689694,120.851036,1.14109e-09
C2M920,朴子農改,2015-03-18,23.469889,120.259383,6.220878e-08
C2A880,福隆,2015-03-18,25.017842,121.942083,9.163295e-08
C0Z160,鳳林,2015-03-18,23.746114,121.453411,2.0894268e-07
C0V210,復興,2015-03-18,23.222403,120.806089,3.560023e-09
C0H990,昆陽,2015-03-18,24.121322,121.273642,2.5204278e-08
C0R741,獅子,2015-03-18,22.202308,120.705236,9.711154e-06
C0S710,鹿野,2015-03-18,22.917711,121.122994,5.478891e-08
C0I530,小奇萊,2015-03-18,24.131764,121.295717,2.56176e-08
C2K630,荷苞,2015-03-18,23.657717,120.595144,1.6578269e-09
C0Z080,富源,2015-03-18,23.587642,121.378225,1.7153526e-07
467441,高雄,2015-03-18,22.7304,120.3125,6.8965306e-08
C0SB10,美和,2015-03-18,22.682078,121.060236,1.4003466e-06
C2K620,馬光農場,2015-03-18,23.721453,120.378864,1.7662629e-09
C1I140,卡奈托灣,2015-03-18,23.754364,121.087872,5.3544302e-09
C0I520,玉山風口,2015-03-18,23.470489,120.955994,2.9918322e-08
C1G691,下水埔,2015-03-18,23.816114,120.5676,1.4135454e-09
C0X110,臺南市南區,2015-03-18,22.961189,120.188378,2.1857615e-07
C0V680,仁武,2015-03-18,22.701083,120.347722,5.808082e-08
C2G840,北斗,2015-03-18,23.877586,120.514222,2.9382322e-08
C0R900,竹坑,2015-03-18,22.1385,120.7022,0.08212726
C0K250,崙背,2015-03-18,23.75555,120.318925,3.5397233e-07
C0G860,社頭,2015-03-18,23.897647,120.5862,1.6191247e-08
C0X150,安定,2015-03-18,23.102614,120.227839,1.593751e-07
C0R590,里港,2015-03-18,22.77919,120.49459,5.2790017e-10
C0E610,馬都安,2015-03-18,24.451272,120.930192,5.2240545e-09
C0E550,明德,2015-03-18,24.583486,120.885411,7.796269e-09
C0R150,三地門,2015-03-18,22.709889,120.639944,5.3110777e-10
C0G910,花壇,2015-03-18,24.032076,120.549461,2.5962272e-08
C1D400,鳥嘴山,2015-03-18,24.71909,121.28387,1.2368762e-08
C0K500,元長,2015-03-18,23.64981,120.315024,5.010792e-07
C0F0B0,石岡,2015-03-18,24.276061,120.777644,2.0881286e-09
C2V250,甲仙,2015-03-18,23.080106,120.591758,1.6936165e-09
C0SA20,金崙山,2015-03-18,22.567419,120.959667,9.6453405e-09
C0V350,溪埔,2015-03-18,22.738578,120.446797,6.6791443e-09
C0M660,溪口,2015-03-18,23.604131,120.403569,2.0739817e-07
C1S880,壽卡,2015-03-18,22.238911,120.858903,8.694137e-08
72D680,桃改新埔分場,2015-03-18,24.834444,121.066111,4.2007873e-08
