站號,站名,日期,lat,lon,BLBTSLS
C0R710,龍磐,2015-07-16,21.931672,120.838942,0.07578942
C1F9D1,白毛台,2015-07-16,24.158325,120.886933,0.9404066
C0G940,竹塘,2015-07-16,23.848253,120.386764,0.2109341
467590,恆春,2015-07-16,22.003897,120.746339,0.08046574
C1O850,環湖,2015-07-16,23.148617,120.418633,0.14331628
C0U710,太平山,2015-07-16,24.505486,121.525656,2.360408e-09
C0E820,獅潭,2015-07-16,24.539133,120.920042,0.685483
C0V880,興達,2015-07-16,22.8778,120.2127,0.015480681
C0S890,關山,2015-07-16,23.0395,121.175017,0.6714345
C0SB30,新蘭,2015-07-16,22.869214,121.223228,0.46284387
C2R970,屏科大,2015-07-16,22.648275,120.619247,0.27756837
K2F750,種苗繁殖,2015-07-16,24.225972,120.800917,0.9961252
C1Z130,銅門,2015-07-16,23.965694,121.492842,0.37329295
C0AD40,土城,2015-07-16,24.973208,121.445169,0.0021581652
CAN140,六官養殖協會,2015-07-16,23.22881,120.29962,0.008264361
C0X180,山上,2015-07-16,23.0757,120.363253,0.120482534
C0F9Z0,雪山東峰,2015-07-16,24.388792,121.268675,6.1099033e-09
C1M480,獨立山,2015-07-16,23.537022,120.607797,0.00039463563
C0X220,學甲,2015-07-16,23.230367,120.182187,0.0039288965
467650,日月潭,2015-07-16,23.881325,120.90805,1.6984364e-07
C0K600,箔子寮,2015-07-16,23.6197,120.14,0.0020476084
C0G830,埤頭,2015-07-16,23.866003,120.452806,0.22660355
C0S950,七塊厝,2015-07-16,22.954453,121.229922,4.377514e-05
467110,金門,2015-07-16,24.407306,118.289281,0.9996394
C0AH80,深坑,2015-07-16,25.002703,121.628328,0.0043806373
467990,馬祖,2015-07-16,26.169269,119.923419,0.0071236105
C0A970,三貂角,2015-07-16,25.007606,122.002058,0.02007637
C2D730,寶山農場,2015-07-16,24.732444,120.976153,0.075770706
C0K430,褒忠,2015-07-16,23.690938,120.303634,0.0094083045
467480,嘉義,2015-07-16,23.495925,120.432906,0.21164691
C2E540,後龍,2015-07-16,24.606489,120.783933,0.19953585
C0V400,阿公店,2015-07-16,22.804194,120.355528,0.045857847
C0R440,大漢山,2015-07-16,22.405264,120.753181,4.6873336e-09
C0K280,四湖,2015-07-16,23.630414,120.227125,0.003405196
C1F9B1,桐林,2015-07-16,24.066172,120.735194,0.41531438
C2H9U0,鳳鵬,2015-07-16,23.763919,120.788061,0.97695917
C0K390,土庫,2015-07-16,23.679029,120.395574,0.24349254
C1I450,望鄉山,2015-07-16,23.594153,120.944286,1.2051261e-08
C0E910,海埔,2015-07-16,24.648767,120.772435,0.44662324
B2E890,畜試北區分所,2015-07-16,24.527806,120.770972,0.31909573
C0R750,四林格山,2015-07-16,22.076989,120.802439,0.32040516
C0F0C0,中坑,2015-07-16,24.248517,120.903319,2.9353082e-08
C1I121,大鞍,2015-07-16,23.678381,120.760017,1.4077888e-07
72U480,花改蘭陽分場,2015-07-16,24.686306,121.716583,0.0008017451
C0A770,科教館,2015-07-16,25.096356,121.516507,0.0021498187
C0AJ60,六塊厝,2015-07-16,25.24,121.4481,0.010554128
C0R620,墾雷,2015-07-16,21.900836,120.855269,0.08030958
467420,永康,2015-07-16,23.038386,120.2367,0.007075202
467300,東吉島,2015-07-16,23.25695,119.667467,0.0065364526
C0I410,名間,2015-07-16,23.837053,120.701447,0.6122177
A2C560,農工中心,2015-07-16,24.985917,121.239833,0.00014771025
C0V740,旗山,2015-07-16,22.888614,120.483597,0.28527603
C0Z061,玉里,2015-07-16,23.3215,121.339656,0.019244682
C0S840,南田,2015-07-16,22.279725,120.889208,0.015793897
C1I470,杉林溪,2015-07-16,23.639517,120.786444,1.1301839e-07
C1X040,東原,2015-07-16,23.291597,120.463822,0.41819388
C0R660,枋寮,2015-07-16,22.367722,120.590647,0.00277156
C1R120,上德文,2015-07-16,22.763272,120.704442,0.008661046
C0K450,大埤,2015-07-16,23.646074,120.431537,0.30542928
C0UA00,土場,2015-07-16,24.576533,121.495333,3.0716155e-08
467080,宜蘭,2015-07-16,24.763975,121.756528,0.55856746
C0N030,四草,2015-07-16,23.0235,120.1116,0.011139059
C0V650,彌陀,2015-07-16,22.783806,120.246361,0.0073512075
C0D660,新竹市東區,2015-07-16,24.798681,120.986942,0.003341792
82S580,茶改東部分場,2015-07-16,22.907694,121.130139,0.09888417
C0SB40,興隆,2015-07-16,22.913661,121.257469,0.03173128
C0C710,大溪永福,2015-07-16,24.892936,121.324975,0.00011201385
C0FA20,溫寮,2015-07-16,24.372177,120.583125,0.031189298
C0V640,湖內,2015-07-16,22.887139,120.2445,0.01537154
C0R910,下寮,2015-07-16,22.3929,120.5548,0.013184285
C0Z020,明里,2015-07-16,23.208717,121.262342,0.2584577
C0M770,嘉義梅山,2015-07-16,23.585398,120.555587,0.5148091
G2F820,農業試驗所,2015-07-16,24.031261,120.688133,0.85866994
C0C660,楊梅,2015-07-16,24.912375,121.143047,0.00039552583
C1E511,新開,2015-07-16,24.347703,120.827019,0.8229477
G2F820,農試所(霧峰),2015-07-16,24.031261,120.688133,0.85866994
C1I070,和社,2015-07-16,23.591131,120.888861,0.003424131
C2F000,大肚,2015-07-16,24.15295,120.572117,0.65838975
C1S850,豐南,2015-07-16,23.122139,121.262389,0.015135675
C2A920,富貴角,2015-07-16,25.263783,121.565258,0.007498758
CAH030,茶改場竹圍站,2015-07-16,23.860083,120.637528,0.7961225
C0T960,光復,2015-07-16,23.660694,121.424964,0.027847154
C0F9M0,豐原,2015-07-16,24.254322,120.720692,0.8562062
C0R720,旭海,2015-07-16,22.205403,120.887614,0.03131936
C0V710,苓雅,2015-07-16,22.622742,120.330669,0.007386012
C0C740,觀音工業區,2015-07-16,25.064764,121.114856,0.0012021902
CAC040,拉拉山,2015-07-16,24.699317,121.427133,1.0577641e-09
C0V790,萬山,2015-07-16,22.905944,120.688056,0.92390585
U2HA30,臺大和社,2015-07-16,23.590856,120.888864,0.003424131
C0AJ90,澳底,2015-07-16,25.0552,121.9253,0.0025586977
C0Z100,東華,2015-07-16,23.89525,121.549833,0.1222913
C0G970,三豐,2015-07-16,23.882,120.2895,0.0037950666
V2K610,大庄合作社,2015-07-16,23.8068,120.367939,0.029924091
C0V900,汕尾,2015-07-16,22.4782,120.4151,0.032793425
C1R630,龍泉,2015-07-16,22.66701,120.59091,0.018739646
C1AC50,關渡,2015-07-16,25.133486,121.469331,0.00398607
C0F9I0,神岡,2015-07-16,24.272481,120.658314,0.83988804
C0K460,斗南,2015-07-16,23.678734,120.478359,0.3777941
467410,臺南,2015-07-16,22.993239,120.204772,0.0072844415
C2O810,曾文,2015-07-16,23.219681,120.497328,0.22565778
467280,後龍,2015-07-16,24.648563,120.831834,0.5038907
C1F9J1,清水林,2015-07-16,24.071242,120.820419,0.0018576495
C2A650,火燒寮,2015-07-16,25.002719,121.742892,0.06316957
466930,竹子湖,2015-07-16,25.162078,121.544547,7.3417357e-09
C1I220,樟湖,2015-07-16,23.905333,120.846983,5.0410502e-08
C0I390,仁愛,2015-07-16,24.022122,121.132206,4.3397762e-08
C0Z300,東里,2015-07-16,23.26853,121.30547,0.019730462
C1V590,新發,2015-07-16,23.057019,120.646064,0.9433357
C0K510,水林,2015-07-16,23.572924,120.24597,0.002091732
72S590,東改賓朗果園,2015-07-16,22.813889,121.071278,0.029877607
82A750,茶改北部分場,2015-07-16,24.955778,121.631222,1.4830855e-08
C1A750,石碇服務區,2015-07-16,25.00872,121.646242,0.003982584
C0X300,鹿寮,2015-07-16,23.386047,120.477331,0.31211808
G2AI50,關渡,2015-07-16,25.11575,121.492,0.0023336355
C0K590,雲林東勢,2015-07-16,23.674192,120.255721,0.0094083045
C0A570,桶後,2015-07-16,24.848222,121.597992,3.1768313e-06
C1S800,華源,2015-07-16,22.657883,121.02325,0.4983178
C0G720,溪州,2015-07-16,23.851589,120.499093,0.25191733
C1V160,達卡努瓦,2015-07-16,23.279811,120.705319,5.931617e-06
C2M410,馬頭山,2015-07-16,23.324361,120.582017,0.5185971
C0V850,蚵仔寮,2015-07-16,22.7256,120.2527,0.0054374128
C0S740,池上,2015-07-16,23.119628,121.209469,0.002124867
C1V390,尖山,2015-07-16,22.813153,120.367789,0.059665363
C0AH70,松山,2015-07-16,25.04871,121.55042,0.0057337712
C0N010,鯤鯓國小,2015-07-16,23.1879,120.0889,0.0022480355
C0R550,新埤,2015-07-16,22.467947,120.582894,0.008015215
C0SA60,知本（水試所）,2015-07-16,22.702394,121.082761,0.970526
C0T9I0,豐濱,2015-07-16,23.583897,121.514806,0.010470425
C0UB00,淡江大學蘭陽校園,2015-07-16,24.823239,121.730383,1.7097749e-06
C0W240,九宮,2015-07-16,24.423753,118.240186,0.34003994
C0T9N0,富里,2015-07-16,23.171639,121.249378,0.04594541
U2HA50,臺大竹山,2015-07-16,23.756972,120.681556,0.6015051
C0V840,鳳鼻頭,2015-07-16,22.5083,120.3591,0.0069268793
C0X140,西港,2015-07-16,23.125608,120.203108,0.0039627426
72D080,桃改五峰分場,2015-07-16,24.612194,121.157167,1.6526083e-09
C2H9P0,伊拿谷,2015-07-16,23.963211,121.088264,5.126133e-07
C2H9F0,柑林,2015-07-16,24.018658,120.847072,0.99045527
C0TA20,加灣,2015-07-16,24.082025,121.608944,0.5800601
C0V530,阿蓮,2015-07-16,22.883208,120.327508,0.015497769
C1O880,關山,2015-07-16,23.173397,120.594092,0.588656
C0E791,卓蘭,2015-07-16,24.3126,120.8244,0.835908
C1I030,武界,2015-07-16,23.913225,121.052483,1.106534e-07
C0R520,崁頂,2015-07-16,22.514781,120.506914,0.0150300665
C0R341,牡丹,2015-07-16,22.130036,120.792639,0.0011183945
C0R930,萬丹,2015-07-16,22.5885,120.4851,0.007635411
C0S760,紅石,2015-07-16,23.069131,121.126219,6.4226455e-09
C1M610,石磐龍,2015-07-16,23.496606,120.663506,4.8012316e-05
C0UA10,鴛鴦湖,2015-07-16,24.590269,121.412228,1.1373592e-09
V2C260,八德蔬果,2015-07-16,24.978508,121.281819,0.00013076482
C0R800,丹路,2015-07-16,22.204481,120.750989,0.0006292297
C0G920,永靖,2015-07-16,23.924703,120.547533,0.23038894
C2M950,太和,2015-07-16,23.538372,120.702961,5.0179653e-07
C1A630,下盆,2015-07-16,24.771003,121.538622,1.6699351e-08
B2N890,畜產試驗所,2015-07-16,23.058972,120.336406,0.01779257
C0UA30,白嶺,2015-07-16,24.527819,121.519031,1.3733125e-09
C1V580,溪南(特生中心),2015-07-16,23.084972,120.788475,3.1370345e-08
C1T970,大農,2015-07-16,23.615233,121.413331,0.02959618
E2S960,林試太麻里2,2015-07-16,22.598014,120.989761,0.02931034
C0R650,竹田,2015-07-16,22.58486,120.54344,0.0076397774
C1H900,清流,2015-07-16,24.080775,120.962997,1.3980108e-05
C1C510,水尾,2015-07-16,24.940081,121.087161,0.00070597965
C0F9X0,大雅(中科園區),2015-07-16,24.21528,120.62445,0.6344821
C0SB60,白守蓮,2015-07-16,23.126769,121.401914,0.8436357
C0O970,虎頭埤,2015-07-16,23.021375,120.347878,0.011727296
C0C730,中大臨海站,2015-07-16,24.966126,121.008581,0.9897797
C0X250,新營,2015-07-16,23.310689,120.316681,0.008153907
C0V700,三民,2015-07-16,22.645017,120.311233,0.0073860083
C0U870,大礁溪,2015-07-16,24.791042,121.675047,6.3600986e-08
C0E870,高鐵苗栗,2015-07-16,24.60725,120.826094,0.22127639
A2K570,古坑花卉中心,2015-07-16,23.63353,120.55239,0.5620993
C0M860,新美,2015-07-16,23.338017,120.683169,0.9916134
C1E701,八卦,2015-07-16,24.491756,120.927619,5.279135e-09
C0I420,國姓,2015-07-16,24.037803,120.855072,0.9959411
C2D720,關西工作站,2015-07-16,24.757275,121.184792,5.2003274e-05
C0S960,香蘭,2015-07-16,22.587569,120.993375,0.02931034
C0R260,春日,2015-07-16,22.370361,120.628306,0.0018045058
72G600,臺中農改場,2015-07-16,24.003028,120.534389,0.16301386
C0Z210,瑞穗,2015-07-16,23.5239,121.39021,0.010670432
C0M820,達邦,2015-07-16,23.453994,120.749517,5.8007292e-05
C0V860,南寮,2015-07-16,22.7616,120.2339,0.0071021756
C0G740,大城,2015-07-16,23.852487,120.320935,0.0044068233
C0R920,塭仔,2015-07-16,22.4169,120.5197,0.011643108
C0R470,高樹,2015-07-16,22.826389,120.600806,0.020442907
C0R680,佳樂水,2015-07-16,21.993578,120.861633,0.08317079
C1O870,大棟山,2015-07-16,23.31157,120.52226,2.897172e-07
C0D360,梅花,2015-07-16,24.678347,121.208558,3.1229554e-09
C0Z190,富世,2015-07-16,24.14743,121.6297,0.038181636
C0AI10,屈尺,2015-07-16,24.92184,121.54475,0.0043806373
B2U990,畜試東區分所,2015-07-16,24.669039,121.832561,0.00083342486
C0SB80,長濱漁港,2015-07-16,23.313644,121.459994,0.021609964
C0R240,來義,2015-07-16,22.527306,120.625111,0.0016158875
C0V910,大樹,2015-07-16,22.684645,120.432803,0.01894321
C1R610,西大武山,2015-07-16,22.617719,120.7322,5.862694e-09
C0G900,線西,2015-07-16,24.143358,120.443536,0.26981327
C0M700,竹崎,2015-07-16,23.526178,120.555508,0.6342666
C2E880,三義,2015-07-16,24.405478,120.749819,0.9934383
C0C720,竹圍,2015-07-16,25.112692,121.239824,0.0100330515
C0F9P0,清水,2015-07-16,24.312297,120.562242,0.045920886
C0Z150,吉安光華,2015-07-16,23.930925,121.595153,0.11514886
C1D640,外坪(五指山),2015-07-16,24.644447,121.090961,1.1153458e-09
C0F9O0,潭子,2015-07-16,24.213106,120.703933,0.90196216
C2H9R0,卓社,2015-07-16,23.887894,121.000086,7.692943e-09
72T250,花蓮農改場,2015-07-16,23.975222,121.563889,0.56162506
C0E780,銅鑼,2015-07-16,24.489681,120.790853,0.7637946
C1T950,太安,2015-07-16,23.666719,121.370128,1.15759796e-07
C0E830,苑裡,2015-07-16,24.439714,120.653053,0.06286854
467270,田中,2015-07-16,23.873803,120.581286,0.3065707
C0SA10,檳榔四格山,2015-07-16,22.810031,121.109308,0.037453897
C1T830,布洛灣,2015-07-16,24.17184,121.57127,0.009992496
C0F970,大坑,2015-07-16,24.173142,120.722289,0.8604186
C1U920,思源,2015-07-16,24.393125,121.347214,2.0736934e-09
C0A931,三和,2015-07-16,25.233153,121.595236,0.00042350488
C0I010,廬山,2015-07-16,24.033311,121.181808,7.215791e-09
C2M940,日野賀,2015-07-16,23.434056,120.727169,1.5011744e-05
C0R860,鼻頭,2015-07-16,22.1043,120.8979,0.119127944
C0UB20,壯圍,2015-07-16,24.7359,121.8163,0.00083342486
C0R790,九棚,2015-07-16,22.14195,120.889281,0.034431163
C0W110,東莒,2015-07-16,25.9652,119.98069,0.020037372
C1U930,粉鳥林,2015-07-16,24.497088,121.842479,0.044399053
C1I211,蘆竹湳,2015-07-16,23.934019,120.811994,0.8967001
C0S830,長濱,2015-07-16,23.286817,121.411975,0.3627828
C1F9F1,伯公龍,2015-07-16,24.272392,120.849047,0.98917586
C0E810,西湖,2015-07-16,24.562947,120.7485,0.2520442
C1I440,新高口,2015-07-16,23.478744,120.878939,1.2476023e-08
C0O840,王爺宮,2015-07-16,23.222064,120.40085,0.22565778
C0T9G0,鳳林山,2015-07-16,23.735269,121.420131,0.40165606
C0X080,佳里,2015-07-16,23.173039,120.145086,0.0038491585
C0FB70,大甲溪埔,2015-07-16,24.370625,120.620067,0.07112473
C0Z310,清水斷崖,2015-07-16,24.218294,121.689142,0.0199939
C0M680,太保,2015-07-16,23.455062,120.331455,0.0051838546
C1S820,金峰,2015-07-16,22.590969,120.933236,0.016623987
C0AD10,八里,2015-07-16,25.150211,121.403947,0.0100330515
C2K240,草嶺,2015-07-16,23.59555,120.693461,4.247066e-06
C1SA70,都蘭,2015-07-16,22.87794,121.226881,0.03173128
C0K440,二崙,2015-07-16,23.772797,120.408944,0.22708833
C1A760,坪林交控,2015-07-16,24.94284,121.713442,0.00038954723
C0F9N0,大里,2015-07-16,24.092464,120.701378,0.5528547
C0SA90,達仁林場,2015-07-16,22.264347,120.823972,0.0037873392
C1R290,石門山,2015-07-16,22.112611,120.756597,0.11953274
42HA10,萬大發電廠,2015-07-16,23.978875,121.139639,1.6704607e-08
C0R890,山海,2015-07-16,21.9878,120.7091,0.0864681
C0T9A0,月眉山,2015-07-16,23.809928,121.539828,0.77605003
C0AC70,信義,2015-07-16,25.037822,121.564597,0.0057337712
C0K560,棋山,2015-07-16,23.68645,120.603417,0.45641237
C2FB50,出雲,2015-07-16,24.206469,120.902794,9.478055e-08
C1Z240,中平林道,2015-07-16,23.42115,121.26763,1.748848e-09
U2H480,溪頭,2015-07-16,23.670306,120.798194,7.29038e-07
C0M880,好美里,2015-07-16,23.3364,120.138,0.0038491585
C0T9E0,大坑,2015-07-16,23.880628,121.581981,0.14393586
C0K530,臺西,2015-07-16,23.701547,120.197559,0.002972742
C1E900,國一N128K,2015-07-16,24.560997,120.844186,0.29151928
C0AJ50,水湳洞,2015-07-16,25.123695,121.862238,0.0031287384
C0AI20,白沙灣,2015-07-16,25.283128,121.519058,0.008994009
C0A860,大坪,2015-07-16,25.165914,121.632969,4.9964523e-08
C1U850,觀音海岸,2015-07-16,24.38319,121.77856,0.41291887
C2K610,草嶺石壁,2015-07-16,23.602469,120.707731,1.3051539e-05
C0U950,鶯子嶺,2015-07-16,24.89754,121.79244,3.0177756e-09
C0O900,善化,2015-07-16,23.112883,120.297219,0.016911507
C0K550,蔦松,2015-07-16,23.514319,120.229736,0.0030227667
E2P980,林試六龜中心,2015-07-16,22.991703,120.645722,0.42691773
C0E590,通霄,2015-07-16,24.471892,120.704622,0.22658347
C1I310,西巒,2015-07-16,23.754486,120.883956,9.723707e-07
C0A550,泰平,2015-07-16,24.971197,121.823711,0.8861817
C0I360,水里,2015-07-16,23.812553,120.849792,0.7177375
C0R830,高士,2015-07-16,22.121825,120.836781,0.15994813
C1I101,溪頭,2015-07-16,23.661789,120.807647,5.0920065e-08
C0AJ20,野柳,2015-07-16,25.20703,121.690021,0.0031287384
C0B060,暖暖,2015-07-16,25.0957,121.7403,0.006747392
C1H920,長豐,2015-07-16,24.102039,120.879897,0.0005831156
C0V360,內門,2015-07-16,22.975481,120.466769,0.3553968
C0R850,林邊,2015-07-16,22.4634,120.5339,0.014989515
C0E930,龍鳳,2015-07-16,24.700034,120.859125,0.19054626
C0U910,冬山,2015-07-16,24.63373,121.7937,0.00083342486
C1E721,泰安,2015-07-16,24.489017,120.968036,1.16635634e-08
82H320,茶改中部分場,2015-07-16,23.875611,120.913583,1.0762423e-06
C0M750,布袋,2015-07-16,23.380878,120.167789,0.0028597058
C1S860,利嘉,2015-07-16,22.809417,121.050528,0.12847166
72C440,桃園農改,2015-07-16,24.950944,121.030583,0.9861136
E2S980,林試太麻里1,2015-07-16,22.598922,120.980044,0.024267701
C0X170,關廟,2015-07-16,22.963017,120.327797,0.01733965
C0V720,林園,2015-07-16,22.507747,120.394511,0.0073860083
C1I510,線浸林道,2015-07-16,23.761508,120.832956,1.7244244e-06
C0D690,外湖,2015-07-16,24.917735,120.968711,0.98979735
C0C750,新興坑尾,2015-07-16,25.0061,121.0971,0.001250802
B2Q810,畜試南區分所,2015-07-16,21.945583,120.802167,0.08315562
C0S790,金崙,2015-07-16,22.538122,120.966875,0.010975963
C0AH90,福山植物園,2015-07-16,24.760717,121.58135,1.931104e-09
C0I540,奇萊稜線,2015-07-16,24.109231,121.326456,5.9146856e-09
C0M850,表湖,2015-07-16,23.24186,120.64166,0.98678815
C0S770,大溪山,2015-07-16,22.478475,120.943325,0.0043983255
C0AG80,中和,2015-07-16,24.991622,121.491792,0.0057091764
C0T790,大禹嶺,2015-07-16,24.186117,121.316086,3.9344883e-09
C0T9B0,水源,2015-07-16,23.991861,121.537169,0.9322558
C0R840,牡丹池山,2015-07-16,22.168389,120.841225,0.0041616196
C1I131,桶頭,2015-07-16,23.641944,120.654117,0.83070594
CAL110,布袋國中,2015-07-16,23.35893,120.18026,0.004221712
467571,新竹,2015-07-16,24.827853,121.014219,0.002667557
C0Z290,赤柯山,2015-07-16,23.36893,121.38293,0.0008293272
C0X280,將軍,2015-07-16,23.214999,120.13577,0.0038491585
C0S690,太麻里,2015-07-16,22.60902,120.98533,0.017741783
C0U880,北關,2015-07-16,24.9072,121.8734,0.5562449
C1H860,瑞岩,2015-07-16,24.123772,121.18345,4.1539754e-09
C0G810,埔心,2015-07-16,23.947633,120.525456,0.21911758
C0U970,大福,2015-07-16,24.80064,121.81389,0.5340298
C2H9N0,仁愛東眼,2015-07-16,24.026875,121.1205,5.263973e-09
C1E670,南礦,2015-07-16,24.538278,121.002836,5.898024e-09
C0M520,東後寮,2015-07-16,23.369908,120.248065,0.004206205
C1E461,松安,2015-07-16,24.397972,120.986022,1.603243e-08
72G600,臺中農改,2015-07-16,24.003028,120.534389,0.16301398
C2N160,西拉雅風管處,2015-07-16,23.189481,120.335297,0.008656282
C2M970,碧湖,2015-07-16,23.568632,120.624165,0.00010444763
C0A640,石碇,2015-07-16,24.993969,121.662917,0.02976875
E2S960,林試太麻里2,2015-07-16,22.598,120.99775,0.030092733
C0F9Y0,桃山,2015-07-16,24.432739,121.303808,6.8822703e-09
C1I020,萬大,2015-07-16,23.979817,121.132261,4.0536587e-08
C0U940,羅東,2015-07-16,24.68184,121.74934,0.00082135334
C0M650,朴子,2015-07-16,23.43463,120.23902,0.0029247717
C1I500,大尖山,2015-07-16,23.858572,120.994889,1.1623189e-08
C0G820,田尾,2015-07-16,23.901669,120.509389,0.23038894
E2K600,四湖植物園,2015-07-16,23.676986,120.163433,0.002972742
C0S730,綠島,2015-07-16,22.6672,121.47533,0.6939718
12Q970,東港工作站,2015-07-16,22.479997,120.466058,0.013184285
C0E430,南庄,2015-07-16,24.601775,121.000214,0.67826575
C1TA00,太魯閣,2015-07-16,24.15773,121.6236,0.020044303
466920,臺北,2015-07-16,25.037658,121.514853,0.0057337712
C0R600,舊泰武,2015-07-16,22.588194,120.664944,3.1568285e-05
C1I260,北坑,2015-07-16,23.9246,121.006903,0.00055605813
466910,鞍部,2015-07-16,25.182586,121.529731,2.8455722e-09
C1I230,九份二山,2015-07-16,23.961944,120.845,4.3405776e-06
C2A660,瑞芳,2015-07-16,25.113169,121.801147,0.016654454
C0R270,琉球嶼,2015-07-16,22.332244,120.362236,0.0018045058
C1T990,高寮,2015-07-16,23.394239,121.356808,0.02231297
C0G620,芬園,2015-07-16,24.015678,120.6213,0.731736
C1Z140,荖溪,2015-07-16,23.890575,121.45964,1.5000423e-05
C1I201,中心崙,2015-07-16,23.728722,120.712097,0.028298473
C1I400,凌霄,2015-07-16,24.018778,121.004456,5.619256e-09
C1M640,十字,2015-07-16,23.492153,120.753683,1.0128691e-07
G2P820,農試鳳山分所,2015-07-16,22.646611,120.356083,0.008373978
C0Z270,蕃薯寮,2015-07-16,23.73835,121.540108,0.15905286
C0F9Q0,外埔,2015-07-16,24.347817,120.705686,0.82027525
C0K580,高鐵雲林,2015-07-16,23.737456,120.417944,0.24349265
C2I090,鳳凰,2015-07-16,23.728081,120.787347,5.2347497e-07
C0U990,員山,2015-07-16,24.74435,121.72247,0.00082135334
C0V770,大社,2015-07-16,22.730306,120.346639,0.005838767
C0X120,麻豆,2015-07-16,23.183289,120.248611,0.0039288965
C0C670,龍潭,2015-07-16,24.870056,121.221389,0.0001323478
C0D680,香山濕地,2015-07-16,24.783581,120.914988,0.012963307
C0S980,勝林山,2015-07-16,22.430439,120.8938,2.9994771e-06
C0V730,大寮,2015-07-16,22.605614,120.395717,0.0034220065
C0R570,麟洛,2015-07-16,22.65078,120.52719,0.17324942
C2M930,石卓,2015-07-16,23.478744,120.702264,1.1074398e-07
C0G9B0,和美,2015-07-16,24.105169,120.492131,0.025795257
CAG100,王功漁港,2015-07-16,23.96824,120.32586,0.010950231
C0X290,北門,2015-07-16,23.267772,120.125481,0.0038491585
C2F930,大甲,2015-07-16,24.347667,120.640403,0.33736673
C0D650,湖口,2015-07-16,24.904794,121.043628,0.9788557
C0E420,竹南,2015-07-16,24.708978,120.888897,0.019285373
C0U780,五結,2015-07-16,24.68637,121.79794,0.00083342445
C1I250,鯉潭,2015-07-16,23.961922,120.991131,0.0005831156
C0R130,阿禮,2015-07-16,22.742908,120.743678,5.9148128e-08
C0X100,臺南市北區,2015-07-16,23.010394,120.194228,0.0071198884
C0S920,金峰嘉蘭,2015-07-16,22.594789,120.960825,0.02465184
C0V490,新興,2015-07-16,22.627422,120.298803,0.0073860083
C0F9K0,大安,2015-07-16,24.345061,120.588025,0.07327722
72N100,臺南農改,2015-07-16,23.0605,120.342194,0.01779257
467290,古坑,2015-07-16,23.633639,120.551889,0.5620993
C2E970,八甲,2015-07-16,24.535811,120.795983,0.76887435
C0V440,鳳山,2015-07-16,22.646653,120.356122,0.008373978
C1T940,大觀,2015-07-16,23.714206,121.373133,0.4451554
72T250,花蓮農改,2015-07-16,23.975222,121.563889,0.56162506
C0E740,造橋,2015-07-16,24.637056,120.864778,0.24568886
C0R100,尾寮山,2015-07-16,22.833111,120.683889,1.8388309e-07
A2K630,臺大雲林校區,2015-07-16,23.730628,120.423903,0.24349265
C0D580,寶山,2015-07-16,24.735006,121.025192,0.12119497
E2P990,林試扇平站,2015-07-16,22.9677,120.6857,0.95508033
C0AI30,三重,2015-07-16,25.057328,121.500629,0.0021498187
C0AH00,汐止,2015-07-16,25.066881,121.658778,0.0031287384
C1Z040,立山,2015-07-16,23.443356,121.327375,0.43330505
C0W130,花嶼,2015-07-16,23.40007,119.32276,0.037604693
C0A950,鼻頭角,2015-07-16,25.129036,121.923372,0.0023576478
C0K470,林內,2015-07-16,23.748675,120.609642,0.48956826
C2F990,摩天嶺,2015-07-16,24.322458,120.936819,2.3186962e-08
82C160,茶改場,2015-07-16,24.908472,121.185333,2.3514467e-05
C0Z320,清水林道,2015-07-16,23.27125,121.188272,0.00034481718
C0R760,南仁湖,2015-07-16,22.084681,120.863353,0.12180963
C0M670,大林,2015-07-16,23.600616,120.45841,0.23710188
C0M800,茶山,2015-07-16,23.299075,120.664767,0.73978657
C0A9C0,天母,2015-07-16,25.117494,121.537169,0.0019766479
72K220,南改斗南分場,2015-07-16,23.634556,120.477333,0.41860226
72AI40,桃改樹林分場,2015-07-16,24.944503,121.386972,0.0019899956
C0S910,蘭嶼燈塔,2015-07-16,22.081197,121.503117,0.01931563
C0B050,八斗子,2015-07-16,25.144754,121.79167,0.0027194575
C0U900,內城,2015-07-16,24.71813,121.68766,0.63082194
C0X320,柳營,2015-07-16,23.253328,120.375253,0.050534185
C0M790,新港,2015-07-16,23.553269,120.345728,0.004377444
C0F9T0,西屯,2015-07-16,24.179494,120.641275,0.53020173
C0SA30,都歷,2015-07-16,23.020333,121.323642,0.7287529
C0C620,蘆竹,2015-07-16,25.084275,121.265767,0.008976448
C0R730,大坪頂,2015-07-16,22.024633,120.69355,0.04979375
C0AJ40,石門,2015-07-16,25.273672,121.601198,0.009915102
C0E750,苗栗,2015-07-16,24.564569,120.824575,0.28265363
C0T870,鯉魚潭,2015-07-16,23.935639,121.508944,0.08146618
C1V170,排雲,2015-07-16,23.463619,120.954147,1.6999444e-08
C2H950,中寮,2015-07-16,23.884447,120.766406,0.6461802
C0R350,貓鼻頭,2015-07-16,21.921774,120.7358,0.08030956
C0V660,岡山,2015-07-16,22.797078,120.294958,0.008627143
C1H941,雙冬,2015-07-16,23.967378,120.802189,0.00032854793
C0AJ70,田寮,2015-07-16,25.2698,121.4886,0.009087699
C0AI00,五股,2015-07-16,25.07445,121.42728,0.0006429986
C0Z280,德武,2015-07-16,23.47426,121.41071,0.029704535
C0R700,枋山,2015-07-16,22.246844,120.661086,0.0005778879
C0C460,復興,2015-07-16,24.820208,121.352281,4.88135e-09
E2H360,蓮華池,2015-07-16,23.918333,120.885278,2.8281643e-06
C0M640,中埔,2015-07-16,23.42538,120.5229,0.54332286
C0W140,金沙,2015-07-16,24.488292,118.408778,0.99966544
C2A540,四堵,2015-07-16,24.8926,121.745736,0.78242093
C0ACA0,新莊,2015-07-16,25.051478,121.446756,0.008721204
C0R220,潮州,2015-07-16,22.534361,120.54,0.002894238
U2HA40,臺大內茅埔,2015-07-16,23.689722,120.851117,0.4927526
467490,臺中,2015-07-16,24.145736,120.684075,0.8670384
C0U960,翠峰湖,2015-07-16,24.510856,121.608044,2.3280722e-09
E2HA20,林試畢祿溪站,2015-07-16,24.226944,121.308522,2.364044e-09
C0V890,前鎮,2015-07-16,22.5718,120.3117,0.0069268793
467620,蘭嶼,2015-07-16,22.036969,121.558339,0.03756499
C1F941,雪嶺,2015-07-16,24.280586,121.026642,5.3822506e-09
C2H9E0,國姓南港,2015-07-16,23.911108,120.846556,4.3524757e-08
C0AC80,文山,2015-07-16,25.00235,121.575728,0.0043806373
C0F9R0,龍井,2015-07-16,24.184536,120.528972,0.054838233
C0M760,民雄,2015-07-16,23.551754,120.428457,0.11144733
C0UA40,西德山,2015-07-16,24.560647,121.752608,7.649677e-09
C1T920,中興,2015-07-16,23.769503,121.498653,0.10032467
C0D550,雪霸,2015-07-16,24.526972,121.11605,2.7566873e-09
C2F860,梨山,2015-07-16,24.247522,121.243669,2.4275442e-09
C0R320,車城,2015-07-16,22.0744,120.716247,0.0864681
C1S870,南美山,2015-07-16,23.15025,121.382333,0.6966188
C0B020,基隆嶼,2015-07-16,25.19141,121.78391,0.0031269633
C1U501,牛鬥,2015-07-16,24.637836,121.573656,1.8671572e-05
C0M730,嘉義市東區,2015-07-16,23.457673,120.460531,0.34561467
C0S700,知本,2015-07-16,22.684866,121.005642,0.016132971
C1N001,沙崙,2015-07-16,22.935472,120.309406,0.015497769
C0V760,橋頭,2015-07-16,22.757806,120.30575,0.009003846
C0G960,福寶,2015-07-16,24.0443,120.3814,0.06008389
C0X210,白河,2015-07-16,23.347466,120.414427,0.059754603
C0S810,東河,2015-07-16,22.972672,121.303986,0.02542793
C2R170,屏東,2015-07-16,22.66027,120.49403,0.16034605
C0R670,楓港,2015-07-16,22.190131,120.692156,0.0005778879
C0FA50,霧峰,2015-07-16,24.0419,120.6995,0.84513754
C0UB10,蘇澳,2015-07-16,24.5969,121.8571,0.0042185993
C0G950,防潮門,2015-07-16,24.1835,120.4871,0.042262547
C0M740,六腳,2015-07-16,23.492871,120.290625,0.0048422334
C1R250,力里,2015-07-16,22.428117,120.629228,0.0016154676
C0K330,虎尾,2015-07-16,23.719183,120.442036,0.25660002
C2FA00,烏石坑,2015-07-16,24.273503,120.947617,2.4072303e-08
C0V620,永安,2015-07-16,22.82315,120.236856,0.0073512043
C1I330,楓樹林,2015-07-16,23.986803,121.076117,8.9793755e-09
C0W200,湖西,2015-07-16,23.596314,119.67275,0.006794667
72Q010,高雄農改場,2015-07-16,22.709333,120.525889,0.19271639
C0SA40,瑞和,2015-07-16,22.974361,121.156697,0.6581862
C0C680,龜山,2015-07-16,25.02846,121.38656,3.0236345e-07
C2V260,月眉,2015-07-16,22.971003,120.539853,0.2738444
C0V450,鳳森,2015-07-16,22.545064,120.392592,0.0040908004
C0U720,南山,2015-07-16,24.43742,121.38167,2.3690725e-09
A2N290,臺南蘭花園區,2015-07-16,23.340258,120.379661,0.049405932
C0R560,新園,2015-07-16,22.5434,120.461558,0.014989515
C0U890,三星,2015-07-16,24.66812,121.65302,0.7058446
C1V300,御油山,2015-07-16,23.001983,120.715364,3.361601e-08
C0U600,礁溪,2015-07-16,24.817539,121.765608,0.57440436
C1T980,龍澗,2015-07-16,24.023289,121.411328,4.445539e-08
C0D670,海天一線,2015-07-16,24.831986,120.914438,0.012080139
C0SA00,歷坵,2015-07-16,22.520969,120.89185,0.0050697685
C0M710,東石,2015-07-16,23.458927,120.15385,0.0030227667
C0M780,鹿草,2015-07-16,23.41134,120.30835,0.005285479
C0U520,雙連埤,2015-07-16,24.753033,121.641303,5.9353244e-08
C0B010,七堵,2015-07-16,25.094819,121.71713,0.003713244
C0R480,長治,2015-07-16,22.693128,120.542622,0.015494553
C1V830,國三S383K,2015-07-16,22.781967,120.426475,0.14413203
12Q980,恆春工作站,2015-07-16,22.079678,120.714425,0.0864681
C1O940,東山服務區,2015-07-16,23.286016,120.398472,0.065392084
C1U840,東澳嶺,2015-07-16,24.5378,121.8485,1.598568e-05
C1D630,飛鳳山,2015-07-16,24.766464,121.119178,3.47156e-07
C0S940,石寧山,2015-07-16,23.223772,121.406639,0.045129273
C0K410,北港,2015-07-16,23.573957,120.292802,0.0039128438
C2M620,瑞里,2015-07-16,23.545133,120.675197,1.824037e-06
C0SB70,小港漁港,2015-07-16,23.158558,121.400431,0.022107251
C2O950,安南,2015-07-16,23.076694,120.144861,0.0039993357
C0F0E0,南湖圈谷,2015-07-16,24.363714,121.444667,8.961e-09
467610,成功,2015-07-16,23.097486,121.373428,0.8018438
C0G890,伸港,2015-07-16,24.148933,120.484403,0.09660394
C2E540,龍溪,2015-07-16,24.606489,120.783933,0.19953585
C1V200,梅山,2015-07-16,23.268447,120.823556,0.06117897
C0T9H0,加路蘭山,2015-07-16,23.682947,121.5274,0.18743108
C2O930,玉井,2015-07-16,23.126042,120.46055,0.14331628
C1F911,新伯公,2015-07-16,24.221361,120.841069,0.9913774
C0R490,九如,2015-07-16,22.7405,120.490503,0.17324942
C0X200,左鎮,2015-07-16,23.056758,120.408522,0.092002444
C0SB50,叭嗡嗡,2015-07-16,23.047062,121.343223,0.015904048
C1F891,稍來,2015-07-16,24.265689,121.001142,3.920794e-09
72N240,七股研究中心,2015-07-16,23.081672,120.062894,0.002339204
C0C700,中壢,2015-07-16,24.977661,121.256375,9.8652126e-05
C0M690,水上,2015-07-16,23.419734,120.388909,0.15698978
C0V690,鼓山,2015-07-16,22.623325,120.275575,0.007386012
C0O860,大內,2015-07-16,23.11885,120.36083,0.04271222
C0Z200,萬榮,2015-07-16,23.709219,121.420106,0.08146618
C0T9D0,和中,2015-07-16,24.26676,121.74103,0.017622303
C1O921,楠西,2015-07-16,23.183511,120.484083,0.12527941
C0AJ30,淡水觀海,2015-07-16,25.184591,121.408616,0.010554128
C0V810,左營,2015-07-16,22.67491,120.28491,0.00556306
C0UA70,桃源谷,2015-07-16,24.962606,121.888875,0.00787737
C0X130,官田,2015-07-16,23.193217,120.315422,0.008594489
C1H000,翠峰,2015-07-16,24.109397,121.205211,2.027825e-09
C0UA90,石城,2015-07-16,24.980444,121.951214,0.0032194024
C1E681,南勢山,2015-07-16,24.421669,120.923831,2.2091166e-08
C0A9F0,內湖,2015-07-16,25.079422,121.57545,0.0057337712
C0K291,宜梧,2015-07-16,23.536281,120.169329,0.0029632247
C1K540,口湖,2015-07-16,23.585344,120.180517,0.0020306355
C0R780,滿州,2015-07-16,22.024403,120.839892,0.07789584
C0V870,文安,2015-07-16,22.8025,120.2164,0.007093761
C0U650,玉蘭,2015-07-16,24.675286,121.587061,3.2184354e-05
C0R640,東港,2015-07-16,22.46247,120.44074,0.0069268793
K2E360,苗栗農改,2015-07-16,24.495722,120.829111,0.74545586
C0AJ80,板橋,2015-07-16,25.0107,121.4489,0.0021581652
C0S660,下馬,2015-07-16,23.150427,121.070312,5.4085465e-08
C1H9B1,阿眉,2015-07-16,24.1263,120.994672,3.5143823e-09
C0UA20,多加屯,2015-07-16,24.368614,121.373189,3.4380632e-09
C0E730,頭份,2015-07-16,24.688247,120.912206,0.019285373
72V140,高改旗南分場,2015-07-16,22.857861,120.516667,0.019519115
C0K480,莿桐,2015-07-16,23.761192,120.502372,0.33120495
C0U980,坪林石牌,2015-07-16,24.86478,121.77396,3.1372133e-06
C0T900,西林,2015-07-16,23.8119,121.441458,0.06380669
C1I150,青雲,2015-07-16,23.793361,120.949378,0.069076106
467350,澎湖,2015-07-16,23.565503,119.563094,0.04336876
C0G800,埔鹽,2015-07-16,24.000394,120.431683,0.07088314
C0H960,草屯,2015-07-16,23.973672,120.68085,0.4300231
C1V780,多納林道,2015-07-16,22.888028,120.737917,3.8246748e-07
C0E920,通霄漁港,2015-07-16,24.498589,120.673876,0.12316973
C0Z330,安通山,2015-07-16,23.290728,121.348528,0.324331
C0AH10,永和,2015-07-16,25.01125,121.508111,0.005554764
C0AK10,太平里,2015-07-16,25.134937,121.364899,0.008721204
C2G640,鹿港,2015-07-16,24.0753,120.430481,0.07088314
C1E890,國三N149K,2015-07-16,24.463414,120.680019,0.27349928
C1R110,口社,2015-07-16,22.770111,120.645222,0.025289088
C1M870,國三N285K,2015-07-16,23.550319,120.505833,0.5281597
467050,新屋,2015-07-16,25.006744,121.047486,0.98848915
C1E480,鳳美,2015-07-16,24.554803,121.034747,0.0017438867
C0M530,奮起湖,2015-07-16,23.493903,120.699253,4.6959894e-07
C0C590,觀音,2015-07-16,25.027072,121.153317,0.0010849996
C0T9M0,靜浦,2015-07-16,23.455167,121.495028,0.0101796985
C2H9M0,發祥,2015-07-16,24.154094,121.164517,2.023082e-08
C0AI40,石牌,2015-07-16,25.115597,121.513139,0.0021581652
C1F871,上谷關,2015-07-16,24.203483,121.018644,2.4072257e-08
C2H9G0,百勝,2015-07-16,24.051142,120.909361,0.9962157
C0G880,二水,2015-07-16,23.810742,120.6173,0.4519653
C0R940,加祿堂,2015-07-16,22.3363,120.6217,0.0022476974
C0W220,北竿,2015-07-16,26.220358,119.974881,0.257006
C0O960,崎頂,2015-07-16,22.959547,120.369317,0.294491
C0S750,向陽,2015-07-16,23.248397,120.986133,6.914124e-09
C0T9F0,水璉,2015-07-16,23.797131,121.542514,0.11083785
C1M600,頭凍,2015-07-16,23.406364,120.603339,9.987259e-05
467660,臺東,2015-07-16,22.752211,121.154586,0.77414024
C1D380,新埔,2015-07-16,24.84745,121.03834,0.005920039
C2G980,田頭村,2015-07-16,23.8263,120.444175,0.22708833
C0V750,路竹,2015-07-16,22.854997,120.259439,0.014294439
C0N050,蚵寮,2015-07-16,23.301,120.1104,0.0022480355
72M700,南改鹿草分場,2015-07-16,23.416869,120.283061,0.004985895
C1SA50,利嘉林道,2015-07-16,22.82325,121.009389,9.67209e-09
467550,玉山,2015-07-16,23.487614,120.959522,1.9033935e-08
C0A940,金山,2015-07-16,25.223628,121.643967,0.009128889
C1V340,大津,2015-07-16,22.888322,120.645986,0.3012742
C0W180,七美,2015-07-16,23.219333,119.444892,0.029102067
C1F9C1,白冷,2015-07-16,24.182844,120.929889,0.9729316
K2E710,苗改生物防治研究中心,2015-07-16,24.422861,120.871833,0.9335122
C0N040,蘆竹溝,2015-07-16,23.2344,120.0961,0.0022480355
C2W230,畜試所澎湖,2015-07-16,23.628342,119.513206,0.06791343
C0R880,後壁湖,2015-07-16,21.9457,120.7457,0.08690698
C1I280,埔中,2015-07-16,23.820778,120.642594,0.9780596
467790,墾丁雷達站,2015-07-16,21.948235,120.808028,0.07780852
C0W190,望安,2015-07-16,23.380564,119.494075,0.061050724
466881,新北,2015-07-16,24.9593,121.52,0.0054322714
C0Z170,卓溪,2015-07-16,23.3443,121.3029,0.01916082
C0F850,東勢,2015-07-16,24.246428,120.833047,0.9802423
466900,淡水,2015-07-16,25.164889,121.448906,0.0100330515
C0I370,魚池,2015-07-16,23.895703,120.94135,4.468004e-06
C0C630,大溪,2015-07-16,24.882853,121.265547,6.233143e-05
C0A520,山佳,2015-07-16,24.974944,121.402008,0.0019899956
C0I110,竹山,2015-07-16,23.761225,120.688156,0.58504856
82H840,茶改南部分場,2015-07-16,23.762528,120.7405,0.7998057
C0G660,溪湖,2015-07-16,23.94835,120.479122,0.20647673
C1T800,洛韶,2015-07-16,24.204558,121.453956,1.7053621e-07
C1T810,慈恩,2015-07-16,24.192044,121.388386,1.0180939e-09
C1E451,象鼻,2015-07-16,24.368617,120.940228,2.2091166e-08
C0AC60,三峽,2015-07-16,24.939025,121.369728,0.004974775
C0I490,萬大林道,2015-07-16,23.928228,121.091411,6.1328924e-09
C1I290,豐丘,2015-07-16,23.668178,120.887417,1.7244244e-06
C1I320,奧萬大,2015-07-16,23.952956,121.178556,8.916501e-09
C2M910,嘉義大學,2015-07-16,23.471325,120.485903,0.5159776
C0U770,南澳,2015-07-16,24.44935,121.81022,0.0043736007
C0A980,社子,2015-07-16,25.109508,121.469681,0.0023336355
C0V800,六龜,2015-07-16,22.997889,120.633583,0.40120846
C1G9D0,國一S218K,2015-07-16,23.890641,120.493253,0.21911758
C0E570,白沙屯,2015-07-16,24.549447,120.696803,0.12316973
C2F9A0,中竹林,2015-07-16,24.103556,120.751061,0.9863818
C0FA40,臺中電廠,2015-07-16,24.2146,120.4907,0.054838233
C2G9A0,畜試所彰化,2015-07-16,23.86045,120.557964,0.3065707
C0H9C0,合歡山,2015-07-16,24.143442,121.272547,6.663836e-09
C0X060,下營,2015-07-16,23.22695,120.256261,0.008228604
G2M350,農試溪口農場,2015-07-16,23.58565,120.408111,0.098100185
C0U860,頭城,2015-07-16,24.85323,121.8308,0.55856746
C0R580,南州,2015-07-16,22.48591,120.50274,0.013184285
C0D430,峨眉,2015-07-16,24.6905,121.017189,0.075770706
C0G780,秀水,2015-07-16,24.03405,120.503869,0.14872657
72N100,臺南農改場,2015-07-16,23.0605,120.342194,0.01779257
C0S900,蘭嶼高中,2015-07-16,22.04909,121.51214,0.028827202
467540,大武,2015-07-16,22.355675,120.903789,0.026799165
C1F9W0,德基,2015-07-16,24.254783,121.190261,3.7913455e-09
C1Z120,壽豐,2015-07-16,23.870853,121.508081,0.1222913
C0W160,烏坵,2015-07-16,24.9944,119.44956,0.01551923
C1I240,外大坪,2015-07-16,23.958697,120.917931,0.00021109449
C1I550,國六W023K,2015-07-16,23.979067,120.867742,0.9871574
C0R870,興海,2015-07-16,21.9752,120.8439,0.08315562
C0R140,瑪家,2015-07-16,22.682903,120.686639,0.6017677
C0A530,坪林,2015-07-16,24.938183,121.70975,0.0001905321
C0X260,後壁,2015-07-16,23.366358,120.362326,0.0556308
C0Z230,和平,2015-07-16,24.30717,121.77007,0.017610386
C0G770,福興,2015-07-16,24.041289,120.437669,0.07088314
C0H9A0,神木村,2015-07-16,23.532742,120.843667,1.0999456e-07
C0I460,南投,2015-07-16,23.911469,120.687331,0.5202308
C0I480,梅峰,2015-07-16,24.085272,121.173572,2.3066222e-09
C1V570,吉東,2015-07-16,22.85422,120.5454,0.022881925
C2D740,屯原,2015-07-16,24.067969,121.209389,1.8905084e-09
C2A560,福山,2015-07-16,24.776203,121.502811,1.5088823e-08
C0AH30,五分山,2015-07-16,25.07125,121.780794,1.0139844e-07
C0FA10,松柏,2015-07-16,24.429115,120.617482,0.031189298
72S200,東改班鳩分場,2015-07-16,22.829528,121.077694,0.0586311
72HA00,中改埔里分場,2015-07-16,23.903208,120.963364,9.42096e-06
C2H9W0,大坪頂農水,2015-07-16,24.043122,120.932781,0.00035695228
C0C650,平鎮,2015-07-16,24.897503,121.214636,2.3502384e-05
C0S930,延平,2015-07-16,22.902581,121.084058,0.109410174
C0UA60,樟樹山,2015-07-16,24.41393,121.78325,0.21762374
C1S670,摩天,2015-07-16,23.199503,121.027,2.635592e-09
C0V630,茄萣,2015-07-16,22.906642,120.182608,0.015480681
466940,基隆,2015-07-16,25.133314,121.740475,0.0029566837
C0X050,東河,2015-07-16,23.296598,120.385608,0.050534185
C0R770,保力,2015-07-16,22.071122,120.764111,0.07389901
G2L020,農試嘉義分所,2015-07-16,23.485028,120.473806,0.5396947
C0X240,關子嶺,2015-07-16,23.331169,120.508025,0.934214
C0I380,集集,2015-07-16,23.828206,120.801467,0.68237823
466990,花蓮,2015-07-16,23.975128,121.613275,0.5746115
C1V220,小關山,2015-07-16,23.154217,120.813603,2.1312118e-08
C1F9G1,慶福山,2015-07-16,24.180853,120.848378,1.0523016e-07
C0Z250,瑞穗林道,2015-07-16,23.49284,121.30688,2.5217486e-07
C0D590,新豐,2015-07-16,24.87068,120.97721,0.02434758
C0A870,五指山,2015-07-16,25.132153,121.608692,1.8667748e-07
C0UA50,西帽山,2015-07-16,24.555361,121.802628,1.7036156e-08
C0X160,仁德,2015-07-16,22.968258,120.257689,0.016751
C1H971,六分寮,2015-07-16,23.92507,120.6378,0.8973023
C0W120,西嶼,2015-07-16,23.5626,119.468436,0.043411806
C0G650,員林,2015-07-16,23.946503,120.585597,0.4888224
C0AD50,鶯歌,2015-07-16,24.951533,121.346294,0.00064220245
C2H9Q0,北東眼山,2015-07-16,24.120939,121.189303,1.8403995e-09
C2H9T0,名間竹圍,2015-07-16,23.859914,120.637572,0.7961225
C0S990,山豬窟,2015-07-16,22.318619,120.857372,0.009781812
72Q010,高雄農改,2015-07-16,22.709333,120.525889,0.19271639
C0X190,安平,2015-07-16,22.993161,120.152181,0.0071198884
C0K400,斗六,2015-07-16,23.720583,120.541127,0.40379864
12J990,口湖工作站,2015-07-16,23.589978,120.180394,0.0020476074
C0O830,北寮,2015-07-16,23.079561,120.495008,0.31402734
C1D410,白蘭,2015-07-16,24.579364,121.079947,1.696015e-09
C0S970,加津林,2015-07-16,22.416211,120.926942,0.028586892
C0D700,關西,2015-07-16,24.7977,121.1732,6.7653506e-05
C0M810,里佳,2015-07-16,23.389125,120.716647,4.6959894e-07
C0U750,龜山島,2015-07-16,24.841667,121.953133,0.05177537
C0R810,內獅,2015-07-16,22.305064,120.642986,0.0022476974
C1M390,龍美,2015-07-16,23.406728,120.654417,1.8371291e-05
C2FB60,頭櫃山,2015-07-16,24.129842,120.858925,6.453741e-08
C1H840,國三N238K,2015-07-16,23.841008,120.707711,0.69670516
CAQ030,崎峰國小,2015-07-16,22.42565,120.49521,0.013184285
C2E520,大湖,2015-07-16,24.414939,120.870872,0.33087435
467530,阿里山,2015-07-16,23.508208,120.813242,2.0609464e-08
C1E691,南湖,2015-07-16,24.40135,120.837533,5.2840235e-08
C0FA30,梧棲,2015-07-16,24.256003,120.523381,0.054838233
C1V231,高中,2015-07-16,23.134911,120.716711,0.9409078
C0F9V0,新社,2015-07-16,24.200172,120.815806,0.99399155
C0H890,埔里,2015-07-16,23.972169,120.952425,0.99573076
C0R690,墾丁,2015-07-16,21.966756,120.810269,0.07633505
C0F0D0,審馬陣,2015-07-16,24.381675,121.4203,5.496556e-09
C0R820,白鷺,2015-07-16,22.454275,120.666219,0.1700473
U2H480,臺大溪頭,2015-07-16,23.670306,120.798194,7.29038e-07
C1V190,南天池,2015-07-16,23.27403,120.91176,6.914282e-09
K2E360,苗栗農改場,2015-07-16,24.495722,120.829111,0.74545586
CAJ050,海口故事園區,2015-07-16,23.57543,120.14121,0.0020306355
C2H9D0,三隻寮,2015-07-16,24.093078,120.861578,0.00013425248
C0O990,媽廟,2015-07-16,22.99175,120.293525,0.017002922
C0D480,打鐵坑,2015-07-16,24.849664,121.150789,9.84487e-06
C0Z220,和平林道,2015-07-16,24.343922,121.656317,0.22799799
C0TA10,花蓮漁港,2015-07-16,23.995322,121.638331,0.6113983
72C440,桃園農改場,2015-07-16,24.950944,121.030583,0.9861136
C1E711,馬拉邦山,2015-07-16,24.367306,120.901656,5.003794e-09
C0SB20,富岡,2015-07-16,22.792467,121.192669,0.74703205
C0D560,竹東,2015-07-16,24.767147,121.057881,0.0005943771
C0F9U0,南屯,2015-07-16,24.137006,120.637969,0.5528547
C0M720,番路,2015-07-16,23.464657,120.554156,0.6371889
C0F0A0,雪山圈谷,2015-07-16,24.388594,121.236339,1.0316291e-08
C1A9N0,四十份,2015-07-16,24.934158,121.593283,3.6199655e-08
C0U760,東澳,2015-07-16,24.52196,121.83318,0.06661794
C0X230,鹽水,2015-07-16,23.272621,120.247641,0.004123773
C2H9H0,苗改南投蜂場,2015-07-16,23.852589,120.693481,0.58504856
C0R950,萬隆國小,2015-07-16,22.507667,120.587817,0.008904177
C0V370,古亭坑,2015-07-16,22.893178,120.401947,0.1251589
C1I340,新興橋,2015-07-16,23.563333,120.868728,1.4169821e-05
C0SA80,土坂,2015-07-16,22.453108,120.887572,0.023004347
C0R160,鹽埔,2015-07-16,22.739558,120.530778,0.01489329
C0AC40,大屯山,2015-07-16,25.175675,121.522408,1.6433952e-09
466850,五分山雷達站,2015-07-16,25.071182,121.781205,9.578756e-08
C2H9L0,馬烈霸,2015-07-16,24.1512,121.201772,1.8291834e-09
C1AI50,國三N016K,2015-07-16,25.034164,121.619664,0.0050715245
C1V600,藤枝,2015-07-16,23.071961,120.757042,4.8440025e-08
C1E601,南勢,2015-07-16,24.572486,120.734842,0.5201648
C0Z180,新城,2015-07-16,24.03946,121.60454,0.5527723
C0O980,新市,2015-07-16,23.061614,120.298197,0.016911507
C0K420,西螺,2015-07-16,23.800407,120.467394,0.32019612
C0Z050,佳心,2015-07-16,23.34567,121.21316,2.0855424e-08
C0AD30,蘆洲,2015-07-16,25.086594,121.472331,0.0021498187
C0V610,梓官,2015-07-16,22.760558,120.267211,0.008627143
K2F750,種苗改良場,2015-07-16,24.225972,120.800917,0.9961252
C0UA80,大溪漁港,2015-07-16,24.941801,121.902955,0.5744044
C1AI60,國一39K邊坡,2015-07-16,25.064361,121.383836,6.3516853e-07
C0W150,金寧,2015-07-16,24.457703,118.328989,0.9996528
C0R960,內埔,2015-07-16,22.608483,120.570714,0.008015215
V2C250,八德合作社,2015-07-16,24.93775,121.266389,3.6084144e-05
C2H9S0,龍南,2015-07-16,23.953536,120.833183,8.106053e-08
C0AH40,平等,2015-07-16,25.129142,121.577086,0.00025370513
C0R540,佳冬,2015-07-16,22.419456,120.552375,0.013184285
466950,彭佳嶼,2015-07-16,25.627975,122.079744,0.7498126
C0A890,雙溪,2015-07-16,25.036003,121.864242,0.0045573744
C0C480,桃園,2015-07-16,24.992425,121.323172,0.00015951537
C0AH50,林口,2015-07-16,25.072181,121.38084,1.6399791e-07
A2K360,水試臺西試驗場,2015-07-16,23.717231,120.190522,0.0026951635
B2N890,畜試所,2015-07-16,23.058972,120.336406,0.01779257
C2M960,外寮,2015-07-16,23.562643,120.665688,2.0010968e-05
C0F9S0,烏日,2015-07-16,24.107058,120.624103,0.10799266
C0C490,八德,2015-07-16,24.928708,121.283289,0.00011349588
C0R190,赤山,2015-07-16,22.592333,120.614306,0.008413944
C0T820,天祥,2015-07-16,24.179597,121.495639,0.06392917
C1F9E1,龍安,2015-07-16,24.1605,120.831961,0.98773015
C0V820,小林,2015-07-16,23.148408,120.63325,0.84828264
C2G870,芳苑,2015-07-16,23.922303,120.320025,0.0037920685
C0E850,大河,2015-07-16,24.618069,120.948578,0.57943225
C1U670,寒溪,2015-07-16,24.634,121.71691,0.00076654775
C0N020,城西,2015-07-16,23.0568,120.0956,0.0023969715
C1Z110,三棧,2015-07-16,24.11557,121.60501,0.94794536
C0R280,檳榔,2015-07-16,22.076078,120.836777,0.070165254
C2H9J0,中台,2015-07-16,23.9996,120.938739,0.8984923
C0F9L0,后里,2015-07-16,24.310436,120.729725,0.87243885
C0D540,橫山,2015-07-16,24.71116,121.11693,0.06699989
C1D420,太閣南,2015-07-16,24.632808,121.160575,8.639264e-10
C1E770,公館,2015-07-16,24.526914,120.830806,0.31909573
CAN130,水試所海水繁養殖中心,2015-07-16,23.120802,120.07968,0.0023392064
C1I430,翠華,2015-07-16,24.191961,121.224339,2.4550446e-09
C1M400,菜瓜坪,2015-07-16,23.251928,120.576103,0.7087791
C0G730,二林,2015-07-16,23.903325,120.376081,0.098052435
72M360,南改義竹分場,2015-07-16,23.360694,120.279361,0.006433587
V2K620,麥寮合作社,2015-07-16,23.753836,120.294783,0.008789069
C0Z070,舞鶴,2015-07-16,23.46811,121.37407,0.033704083
C0B040,大武崙,2015-07-16,25.166676,121.706993,0.003713244
C1Z030,紅葉,2015-07-16,23.493119,121.338806,0.03009102
C1I050,丹大,2015-07-16,23.753747,121.141147,6.2162258e-09
C0I080,信義,2015-07-16,23.689694,120.851036,0.4927526
C2M920,朴子農改,2015-07-16,23.469889,120.259383,0.0048422334
C2A880,福隆,2015-07-16,25.017842,121.942083,0.0025586977
C0Z160,鳳林,2015-07-16,23.746114,121.453411,0.026815772
C0V210,復興,2015-07-16,23.222403,120.806089,0.93385476
C0H990,昆陽,2015-07-16,24.121322,121.273642,4.593027e-09
C0R741,獅子,2015-07-16,22.202308,120.705236,0.0005602818
C0S710,鹿野,2015-07-16,22.917711,121.122994,0.00015659709
C0I530,小奇萊,2015-07-16,24.131764,121.295717,5.069918e-09
C2K630,荷苞,2015-07-16,23.657717,120.595144,0.52216184
C0Z080,富源,2015-07-16,23.587642,121.378225,0.05688609
467441,高雄,2015-07-16,22.7304,120.3125,0.00556306
C0SB10,美和,2015-07-16,22.682078,121.060236,0.9705486
C2K620,馬光農場,2015-07-16,23.721453,120.378864,0.23348063
C1I140,卡奈托灣,2015-07-16,23.754364,121.087872,1.33079165e-08
C0I520,玉山風口,2015-07-16,23.470489,120.955994,1.965695e-08
C1G691,下水埔,2015-07-16,23.816114,120.5676,0.40625602
C0X110,臺南市南區,2015-07-16,22.961189,120.188378,0.007075202
C0V680,仁武,2015-07-16,22.701083,120.347722,0.005838767
C2G840,北斗,2015-07-16,23.877586,120.514222,0.23038894
C0R900,竹坑,2015-07-16,22.1385,120.7022,0.0006281865
C0K250,崙背,2015-07-16,23.75555,120.318925,0.009721601
C0G860,社頭,2015-07-16,23.897647,120.5862,0.50321084
C0X150,安定,2015-07-16,23.102614,120.227839,0.007054774
C0R590,里港,2015-07-16,22.77919,120.49459,0.010388672
C0E610,馬都安,2015-07-16,24.451272,120.930192,4.2445754e-09
C0E550,明德,2015-07-16,24.583486,120.885411,0.5601478
C0R150,三地門,2015-07-16,22.709889,120.639944,0.02548583
C0G910,花壇,2015-07-16,24.032076,120.549461,0.18495016
C1D400,鳥嘴山,2015-07-16,24.71909,121.28387,1.1256384e-09
C0K500,元長,2015-07-16,23.64981,120.315024,0.013295702
C0F0B0,石岡,2015-07-16,24.276061,120.777644,0.74546194
C2V250,甲仙,2015-07-16,23.080106,120.591758,0.8634807
C0SA20,金崙山,2015-07-16,22.567419,120.959667,1.3138266e-06
C0V350,溪埔,2015-07-16,22.738578,120.446797,0.01894321
C0M660,溪口,2015-07-16,23.604131,120.403569,0.098100185
C1S880,壽卡,2015-07-16,22.238911,120.858903,0.004252577
72D680,桃改新埔分場,2015-07-16,24.834444,121.066111,0.0012155025
