站號,站名,日期,lat,lon,BLBTSLS
C0R710,龍磐,2015-11-28,21.931672,120.838942,0.86725694
C1F9D1,白毛台,2015-11-28,24.158325,120.886933,2.1567688e-09
C0G940,竹塘,2015-11-28,23.848253,120.386764,0.96873665
467590,恆春,2015-11-28,22.003897,120.746339,0.94112134
C1O850,環湖,2015-11-28,23.148617,120.418633,0.9852488
C0U710,太平山,2015-11-28,24.505486,121.525656,1.2596198e-08
C0E820,獅潭,2015-11-28,24.539133,120.920042,0.9993843
C0V880,興達,2015-11-28,22.8778,120.2127,0.99910975
C0S890,關山,2015-11-28,23.0395,121.175017,0.9857901
C0SB30,新蘭,2015-11-28,22.869214,121.223228,0.904011
C2R970,屏科大,2015-11-28,22.648275,120.619247,0.9984207
K2F750,種苗繁殖,2015-11-28,24.225972,120.800917,7.960416e-09
C1Z130,銅門,2015-11-28,23.965694,121.492842,3.5417696e-07
C0AD40,土城,2015-11-28,24.973208,121.445169,0.97006476
CAN140,六官養殖協會,2015-11-28,23.22881,120.29962,0.9995883
C0X180,山上,2015-11-28,23.0757,120.363253,0.6287041
C0F9Z0,雪山東峰,2015-11-28,24.388792,121.268675,9.756953e-09
C1M480,獨立山,2015-11-28,23.537022,120.607797,3.4671834e-09
C0X220,學甲,2015-11-28,23.230367,120.182187,0.99949974
467650,日月潭,2015-11-28,23.881325,120.90805,2.1466564e-09
C0K600,箔子寮,2015-11-28,23.6197,120.14,0.99947166
C0G830,埤頭,2015-11-28,23.866003,120.452806,0.5482473
C0S950,七塊厝,2015-11-28,22.954453,121.229922,3.580024e-07
467110,金門,2015-11-28,24.407306,118.289281,0.9673512
C0AH80,深坑,2015-11-28,25.002703,121.628328,0.93889374
467990,馬祖,2015-11-28,26.169269,119.923419,1.5123377e-05
C0A970,三貂角,2015-11-28,25.007606,122.002058,0.99990964
C2D730,寶山農場,2015-11-28,24.732444,120.976153,0.99195707
C0K430,褒忠,2015-11-28,23.690938,120.303634,0.99935967
467480,嘉義,2015-11-28,23.495925,120.432906,0.98432827
C2E540,後龍,2015-11-28,24.606489,120.783933,0.9991417
C0V400,阿公店,2015-11-28,22.804194,120.355528,0.95637363
C0R440,大漢山,2015-11-28,22.405264,120.753181,8.596171e-09
C0K280,四湖,2015-11-28,23.630414,120.227125,0.9991132
C1F9B1,桐林,2015-11-28,24.066172,120.735194,3.8019418e-06
C2H9U0,鳳鵬,2015-11-28,23.763919,120.788061,3.647729e-09
C0K390,土庫,2015-11-28,23.679029,120.395574,0.3919115
C1I450,望鄉山,2015-11-28,23.594153,120.944286,1.2992326e-08
C0E910,海埔,2015-11-28,24.648767,120.772435,0.99864405
B2E890,畜試北區分所,2015-11-28,24.527806,120.770972,0.9988505
C0R750,四林格山,2015-11-28,22.076989,120.802439,0.19846757
C0F0C0,中坑,2015-11-28,24.248517,120.903319,1.4799736e-09
C1I121,大鞍,2015-11-28,23.678381,120.760017,4.576866e-09
72U480,花改蘭陽分場,2015-11-28,24.686306,121.716583,0.99940646
C0A770,科教館,2015-11-28,25.096356,121.516507,0.9718942
C0AJ60,六塊厝,2015-11-28,25.24,121.4481,0.9927104
C0R620,墾雷,2015-11-28,21.900836,120.855269,0.93711233
467420,永康,2015-11-28,23.038386,120.2367,0.9990584
467300,東吉島,2015-11-28,23.25695,119.667467,0.70269644
C0I410,名間,2015-11-28,23.837053,120.701447,5.3139173e-09
A2C560,農工中心,2015-11-28,24.985917,121.239833,0.97877085
C0V740,旗山,2015-11-28,22.888614,120.483597,0.9972641
C0Z061,玉里,2015-11-28,23.3215,121.339656,0.014500643
C0S840,南田,2015-11-28,22.279725,120.889208,0.14264505
C1I470,杉林溪,2015-11-28,23.639517,120.786444,5.0645443e-09
C1X040,東原,2015-11-28,23.291597,120.463822,2.0521702e-07
C0R660,枋寮,2015-11-28,22.367722,120.590647,0.6964527
C1R120,上德文,2015-11-28,22.763272,120.704442,0.01498501
C0K450,大埤,2015-11-28,23.646074,120.431537,0.015250011
C0UA00,土場,2015-11-28,24.576533,121.495333,0.037399493
467080,宜蘭,2015-11-28,24.763975,121.756528,0.9942693
C0N030,四草,2015-11-28,23.0235,120.1116,0.99812394
C0V650,彌陀,2015-11-28,22.783806,120.246361,0.9993031
C0D660,新竹市東區,2015-11-28,24.798681,120.986942,0.9478423
82S580,茶改東部分場,2015-11-28,22.907694,121.130139,0.0014814171
C0SB40,興隆,2015-11-28,22.913661,121.257469,0.31353122
C0C710,大溪永福,2015-11-28,24.892936,121.324975,0.980457
C0FA20,溫寮,2015-11-28,24.372177,120.583125,0.9990649
C0V640,湖內,2015-11-28,22.887139,120.2445,0.99917805
C0R910,下寮,2015-11-28,22.3929,120.5548,0.99892193
C0Z020,明里,2015-11-28,23.208717,121.262342,2.4204306e-05
C0M770,嘉義梅山,2015-11-28,23.585398,120.555587,8.235196e-08
G2F820,農業試驗所,2015-11-28,24.031261,120.688133,0.99786174
C0C660,楊梅,2015-11-28,24.912375,121.143047,0.98124814
C1E511,新開,2015-11-28,24.347703,120.827019,2.1793423e-07
G2F820,農試所(霧峰),2015-11-28,24.031261,120.688133,0.99786174
C1I070,和社,2015-11-28,23.591131,120.888861,2.5344888e-09
C2F000,大肚,2015-11-28,24.15295,120.572117,3.2544822e-06
C1S850,豐南,2015-11-28,23.122139,121.262389,1.6959018e-07
C2A920,富貴角,2015-11-28,25.263783,121.565258,0.99968445
CAH030,茶改場竹圍站,2015-11-28,23.860083,120.637528,2.8194616e-09
C0T960,光復,2015-11-28,23.660694,121.424964,0.001066155
C0F9M0,豐原,2015-11-28,24.254322,120.720692,0.99480426
C0R720,旭海,2015-11-28,22.205403,120.887614,0.060031492
C0V710,苓雅,2015-11-28,22.622742,120.330669,0.99913734
C0C740,觀音工業區,2015-11-28,25.064764,121.114856,0.97142
CAC040,拉拉山,2015-11-28,24.699317,121.427133,5.2207474e-09
C0V790,萬山,2015-11-28,22.905944,120.688056,1.3599431e-07
U2HA30,臺大和社,2015-11-28,23.590856,120.888864,2.5344888e-09
C0AJ90,澳底,2015-11-28,25.0552,121.9253,0.99989265
C0Z100,東華,2015-11-28,23.89525,121.549833,0.01672839
C0G970,三豐,2015-11-28,23.882,120.2895,0.9966104
V2K610,大庄合作社,2015-11-28,23.8068,120.367939,0.99909776
C0V900,汕尾,2015-11-28,22.4782,120.4151,0.9989069
C1R630,龍泉,2015-11-28,22.66701,120.59091,0.9826926
C1AC50,關渡,2015-11-28,25.133486,121.469331,0.9943849
C0F9I0,神岡,2015-11-28,24.272481,120.658314,0.998114
C0K460,斗南,2015-11-28,23.678734,120.478359,7.791612e-05
467410,臺南,2015-11-28,22.993239,120.204772,0.99909514
C2O810,曾文,2015-11-28,23.219681,120.497328,0.024001004
467280,後龍,2015-11-28,24.648563,120.831834,0.9986552
C1F9J1,清水林,2015-11-28,24.071242,120.820419,8.526554e-10
C2A650,火燒寮,2015-11-28,25.002719,121.742892,0.9992635
466930,竹子湖,2015-11-28,25.162078,121.544547,0.2805531
C1I220,樟湖,2015-11-28,23.905333,120.846983,3.1919998e-09
C0I390,仁愛,2015-11-28,24.022122,121.132206,9.992138e-10
C0Z300,東里,2015-11-28,23.26853,121.30547,0.009545364
C1V590,新發,2015-11-28,23.057019,120.646064,2.6608783e-05
C0K510,水林,2015-11-28,23.572924,120.24597,0.9994606
72S590,東改賓朗果園,2015-11-28,22.813889,121.071278,0.98216456
82A750,茶改北部分場,2015-11-28,24.955778,121.631222,0.023055317
C1A750,石碇服務區,2015-11-28,25.00872,121.646242,0.929829
C0X300,鹿寮,2015-11-28,23.386047,120.477331,4.225459e-05
G2AI50,關渡,2015-11-28,25.11575,121.492,0.97333926
C0K590,雲林東勢,2015-11-28,23.674192,120.255721,0.99935967
C0A570,桶後,2015-11-28,24.848222,121.597992,0.6893804
C1S800,華源,2015-11-28,22.657883,121.02325,0.8112761
C0G720,溪州,2015-11-28,23.851589,120.499093,0.19652271
C1V160,達卡努瓦,2015-11-28,23.279811,120.705319,1.4736815e-08
C2M410,馬頭山,2015-11-28,23.324361,120.582017,6.528209e-08
C0V850,蚵仔寮,2015-11-28,22.7256,120.2527,0.99948686
C0S740,池上,2015-11-28,23.119628,121.209469,7.1095533e-06
C1V390,尖山,2015-11-28,22.813153,120.367789,0.74508184
C0AH70,松山,2015-11-28,25.04871,121.55042,0.9574828
C0N010,鯤鯓國小,2015-11-28,23.1879,120.0889,0.9988104
C0R550,新埤,2015-11-28,22.467947,120.582894,0.83681077
C0SA60,知本（水試所）,2015-11-28,22.702394,121.082761,0.6307444
C0T9I0,豐濱,2015-11-28,23.583897,121.514806,0.029292729
C0UB00,淡江大學蘭陽校園,2015-11-28,24.823239,121.730383,0.027031621
C0W240,九宮,2015-11-28,24.423753,118.240186,0.7932317
C0T9N0,富里,2015-11-28,23.171639,121.249378,2.8126071e-06
U2HA50,臺大竹山,2015-11-28,23.756972,120.681556,3.8110954e-09
C0V840,鳳鼻頭,2015-11-28,22.5083,120.3591,0.9992591
C0X140,西港,2015-11-28,23.125608,120.203108,0.9992875
72D080,桃改五峰分場,2015-11-28,24.612194,121.157167,5.009867e-09
C2H9P0,伊拿谷,2015-11-28,23.963211,121.088264,8.218837e-10
C2H9F0,柑林,2015-11-28,24.018658,120.847072,3.6856411e-09
C0TA20,加灣,2015-11-28,24.082025,121.608944,1.435436e-05
C0V530,阿蓮,2015-11-28,22.883208,120.327508,0.9993193
C1O880,關山,2015-11-28,23.173397,120.594092,5.0536716e-08
C0E791,卓蘭,2015-11-28,24.3126,120.8244,1.8641828e-07
C1I030,武界,2015-11-28,23.913225,121.052483,1.3013352e-09
C0R520,崁頂,2015-11-28,22.514781,120.506914,0.9988753
C0R341,牡丹,2015-11-28,22.130036,120.792639,0.9690266
C0R930,萬丹,2015-11-28,22.5885,120.4851,0.8742306
C0S760,紅石,2015-11-28,23.069131,121.126219,8.98251e-09
C1M610,石磐龍,2015-11-28,23.496606,120.663506,4.3590203e-09
C0UA10,鴛鴦湖,2015-11-28,24.590269,121.412228,4.0105053e-09
V2C260,八德蔬果,2015-11-28,24.978508,121.281819,0.9557607
C0R800,丹路,2015-11-28,22.204481,120.750989,0.96930546
C0G920,永靖,2015-11-28,23.924703,120.547533,0.9982425
C2M950,太和,2015-11-28,23.538372,120.702961,4.1292108e-09
C1A630,下盆,2015-11-28,24.771003,121.538622,5.2385134e-05
B2N890,畜產試驗所,2015-11-28,23.058972,120.336406,0.99915224
C0UA30,白嶺,2015-11-28,24.527819,121.519031,1.1619243e-08
C1V580,溪南(特生中心),2015-11-28,23.084972,120.788475,5.719942e-09
C1T970,大農,2015-11-28,23.615233,121.413331,9.483926e-05
E2S960,林試太麻里2,2015-11-28,22.598014,120.989761,0.97901815
C0R650,竹田,2015-11-28,22.58486,120.54344,0.8742306
C1H900,清流,2015-11-28,24.080775,120.962997,7.6462886e-10
C1C510,水尾,2015-11-28,24.940081,121.087161,0.9795283
C0F9X0,大雅(中科園區),2015-11-28,24.21528,120.62445,0.9995101
C0SB60,白守蓮,2015-11-28,23.126769,121.401914,0.5368521
C0O970,虎頭埤,2015-11-28,23.021375,120.347878,0.999349
C0C730,中大臨海站,2015-11-28,24.966126,121.008581,0.18204659
C0X250,新營,2015-11-28,23.310689,120.316681,0.9995522
C0V700,三民,2015-11-28,22.645017,120.311233,0.99913734
C0U870,大礁溪,2015-11-28,24.791042,121.675047,0.018159434
C0E870,高鐵苗栗,2015-11-28,24.60725,120.826094,0.99916464
A2K570,古坑花卉中心,2015-11-28,23.63353,120.55239,5.3449037e-07
C0M860,新美,2015-11-28,23.338017,120.683169,1.40665275e-08
C1E701,八卦,2015-11-28,24.491756,120.927619,0.0061144936
C0I420,國姓,2015-11-28,24.037803,120.855072,5.4270926e-09
C2D720,關西工作站,2015-11-28,24.757275,121.184792,0.9977949
C0S960,香蘭,2015-11-28,22.587569,120.993375,0.97900516
C0R260,春日,2015-11-28,22.370361,120.628306,0.07332379
72G600,臺中農改場,2015-11-28,24.003028,120.534389,0.9995303
C0Z210,瑞穗,2015-11-28,23.5239,121.39021,0.059223242
C0M820,達邦,2015-11-28,23.453994,120.749517,2.6334113e-09
C0V860,南寮,2015-11-28,22.7616,120.2339,0.999328
C0G740,大城,2015-11-28,23.852487,120.320935,0.9967116
C0R920,塭仔,2015-11-28,22.4169,120.5197,0.9990024
C0R470,高樹,2015-11-28,22.826389,120.600806,0.6863069
C0R680,佳樂水,2015-11-28,21.993578,120.861633,0.9458827
C1O870,大棟山,2015-11-28,23.31157,120.52226,3.314903e-09
C0D360,梅花,2015-11-28,24.678347,121.208558,0.11630211
C0Z190,富世,2015-11-28,24.14743,121.6297,0.13901699
C0AI10,屈尺,2015-11-28,24.92184,121.54475,0.93891746
B2U990,畜試東區分所,2015-11-28,24.669039,121.832561,0.99904627
C0SB80,長濱漁港,2015-11-28,23.313644,121.459994,0.16853072
C0R240,來義,2015-11-28,22.527306,120.625111,0.09806377
C0V910,大樹,2015-11-28,22.684645,120.432803,0.99632007
C1R610,西大武山,2015-11-28,22.617719,120.7322,1.9561202e-08
C0G900,線西,2015-11-28,24.143358,120.443536,0.9996775
C0M700,竹崎,2015-11-28,23.526178,120.555508,1.3615353e-07
C2E880,三義,2015-11-28,24.405478,120.749819,8.857513e-09
C0C720,竹圍,2015-11-28,25.112692,121.239824,0.9932028
C0F9P0,清水,2015-11-28,24.312297,120.562242,0.9994683
C0Z150,吉安光華,2015-11-28,23.930925,121.595153,0.04930667
C1D640,外坪(五指山),2015-11-28,24.644447,121.090961,0.022042885
C0F9O0,潭子,2015-11-28,24.213106,120.703933,0.9855849
C2H9R0,卓社,2015-11-28,23.887894,121.000086,1.2777823e-09
72T250,花蓮農改場,2015-11-28,23.975222,121.563889,8.543844e-06
C0E780,銅鑼,2015-11-28,24.489681,120.790853,0.99887544
C1T950,太安,2015-11-28,23.666719,121.370128,9.221465e-09
C0E830,苑裡,2015-11-28,24.439714,120.653053,0.9991019
467270,田中,2015-11-28,23.873803,120.581286,0.0022723123
C0SA10,檳榔四格山,2015-11-28,22.810031,121.109308,0.9924705
C1T830,布洛灣,2015-11-28,24.17184,121.57127,0.0042392076
C0F970,大坑,2015-11-28,24.173142,120.722289,0.9980894
C1U920,思源,2015-11-28,24.393125,121.347214,7.0152137e-09
C0A931,三和,2015-11-28,25.233153,121.595236,0.99960995
C0I010,廬山,2015-11-28,24.033311,121.181808,3.0642116e-09
C2M940,日野賀,2015-11-28,23.434056,120.727169,4.6522053e-09
C0R860,鼻頭,2015-11-28,22.1043,120.8979,0.91679704
C0UB20,壯圍,2015-11-28,24.7359,121.8163,0.99904627
C0R790,九棚,2015-11-28,22.14195,120.889281,0.054075193
C0W110,東莒,2015-11-28,25.9652,119.98069,0.9677294
C1U930,粉鳥林,2015-11-28,24.497088,121.842479,0.997166
C1I211,蘆竹湳,2015-11-28,23.934019,120.811994,2.5210132e-09
C0S830,長濱,2015-11-28,23.286817,121.411975,6.9218722e-06
C1F9F1,伯公龍,2015-11-28,24.272392,120.849047,1.5636356e-08
C0E810,西湖,2015-11-28,24.562947,120.7485,0.9992194
C1I440,新高口,2015-11-28,23.478744,120.878939,9.2414325e-09
C0O840,王爺宮,2015-11-28,23.222064,120.40085,0.024001004
C0T9G0,鳳林山,2015-11-28,23.735269,121.420131,1.3367642e-07
C0X080,佳里,2015-11-28,23.173039,120.145086,0.9994929
C0FB70,大甲溪埔,2015-11-28,24.370625,120.620067,0.9991467
C0Z310,清水斷崖,2015-11-28,24.218294,121.689142,0.9900801
C0M680,太保,2015-11-28,23.455062,120.331455,0.99949557
C1S820,金峰,2015-11-28,22.590969,120.933236,0.9874253
C0AD10,八里,2015-11-28,25.150211,121.403947,0.9932028
C2K240,草嶺,2015-11-28,23.59555,120.693461,3.1106735e-09
C1SA70,都蘭,2015-11-28,22.87794,121.226881,0.29466558
C0K440,二崙,2015-11-28,23.772797,120.408944,0.95235765
C1A760,坪林交控,2015-11-28,24.94284,121.713442,0.8934869
C0F9N0,大里,2015-11-28,24.092464,120.701378,0.9996237
C0SA90,達仁林場,2015-11-28,22.264347,120.823972,0.8775902
C1R290,石門山,2015-11-28,22.112611,120.756597,0.38640094
42HA10,萬大發電廠,2015-11-28,23.978875,121.139639,2.1183395e-09
C0R890,山海,2015-11-28,21.9878,120.7091,0.9532941
C0T9A0,月眉山,2015-11-28,23.809928,121.539828,1.4938018e-07
C0AC70,信義,2015-11-28,25.037822,121.564597,0.9574828
C0K560,棋山,2015-11-28,23.68645,120.603417,3.3930598e-07
C2FB50,出雲,2015-11-28,24.206469,120.902794,1.0930598e-09
C1Z240,中平林道,2015-11-28,23.42115,121.26763,1.7649976e-08
U2H480,溪頭,2015-11-28,23.670306,120.798194,4.6218687e-09
C0M880,好美里,2015-11-28,23.3364,120.138,0.9994929
C0T9E0,大坑,2015-11-28,23.880628,121.581981,4.4287907e-07
C0K530,臺西,2015-11-28,23.701547,120.197559,0.9990636
C1E900,國一N128K,2015-11-28,24.560997,120.844186,0.99925053
C0AJ50,水湳洞,2015-11-28,25.123695,121.862238,0.9996658
C0AI20,白沙灣,2015-11-28,25.283128,121.519058,0.9995736
C0A860,大坪,2015-11-28,25.165914,121.632969,0.96429914
C1U850,觀音海岸,2015-11-28,24.38319,121.77856,9.897445e-07
C2K610,草嶺石壁,2015-11-28,23.602469,120.707731,4.2268824e-09
C0U950,鶯子嶺,2015-11-28,24.89754,121.79244,2.4478481e-07
C0O900,善化,2015-11-28,23.112883,120.297219,0.9993979
C0K550,蔦松,2015-11-28,23.514319,120.229736,0.9996673
E2P980,林試六龜中心,2015-11-28,22.991703,120.645722,9.595499e-05
C0E590,通霄,2015-11-28,24.471892,120.704622,0.9986796
C1I310,西巒,2015-11-28,23.754486,120.883956,3.64631e-09
C0A550,泰平,2015-11-28,24.971197,121.823711,0.8779257
C0I360,水里,2015-11-28,23.812553,120.849792,3.432507e-09
C0R830,高士,2015-11-28,22.121825,120.836781,0.21542482
C1I101,溪頭,2015-11-28,23.661789,120.807647,5.650198e-09
C0AJ20,野柳,2015-11-28,25.20703,121.690021,0.9996658
C0B060,暖暖,2015-11-28,25.0957,121.7403,0.99979043
C1H920,長豐,2015-11-28,24.102039,120.879897,8.2884827e-10
C0V360,內門,2015-11-28,22.975481,120.466769,0.94194424
C0R850,林邊,2015-11-28,22.4634,120.5339,0.9988753
C0E930,龍鳳,2015-11-28,24.700034,120.859125,0.9988285
C0U910,冬山,2015-11-28,24.63373,121.7937,0.99904627
C1E721,泰安,2015-11-28,24.489017,120.968036,9.648445e-10
82H320,茶改中部分場,2015-11-28,23.875611,120.913583,2.1603426e-09
C0M750,布袋,2015-11-28,23.380878,120.167789,0.9996495
C1S860,利嘉,2015-11-28,22.809417,121.050528,0.0056305695
72C440,桃園農改,2015-11-28,24.950944,121.030583,0.19760619
E2S980,林試太麻里1,2015-11-28,22.598922,120.980044,0.9833966
C0X170,關廟,2015-11-28,22.963017,120.327797,0.99912107
C0V720,林園,2015-11-28,22.507747,120.394511,0.9991367
C1I510,線浸林道,2015-11-28,23.761508,120.832956,3.587137e-09
C0D690,外湖,2015-11-28,24.917735,120.968711,0.18371002
C0C750,新興坑尾,2015-11-28,25.0061,121.0971,0.98929906
B2Q810,畜試南區分所,2015-11-28,21.945583,120.802167,0.9458826
C0S790,金崙,2015-11-28,22.538122,120.966875,0.989302
C0AH90,福山植物園,2015-11-28,24.760717,121.58135,0.0035912627
C0I540,奇萊稜線,2015-11-28,24.109231,121.326456,1.321433e-08
C0M850,表湖,2015-11-28,23.24186,120.64166,7.740853e-09
C0S770,大溪山,2015-11-28,22.478475,120.943325,0.99896145
C0AG80,中和,2015-11-28,24.991622,121.491792,0.959499
C0T790,大禹嶺,2015-11-28,24.186117,121.316086,7.1499753e-09
C0T9B0,水源,2015-11-28,23.991861,121.537169,8.209336e-08
C0R840,牡丹池山,2015-11-28,22.168389,120.841225,0.861763
C1I131,桶頭,2015-11-28,23.641944,120.654117,7.602448e-09
CAL110,布袋國中,2015-11-28,23.35893,120.18026,0.9997185
467571,新竹,2015-11-28,24.827853,121.014219,0.93768007
C0Z290,赤柯山,2015-11-28,23.36893,121.38293,3.998279e-08
C0X280,將軍,2015-11-28,23.214999,120.13577,0.9994941
C0S690,太麻里,2015-11-28,22.60902,120.98533,0.81291217
C0U880,北關,2015-11-28,24.9072,121.8734,0.9989501
C1H860,瑞岩,2015-11-28,24.123772,121.18345,1.8847515e-09
C0G810,埔心,2015-11-28,23.947633,120.525456,0.99860185
C0U970,大福,2015-11-28,24.80064,121.81389,0.9952548
C2H9N0,仁愛東眼,2015-11-28,24.026875,121.1205,1.5368581e-09
C1E670,南礦,2015-11-28,24.538278,121.002836,1.2180063e-09
C0M520,東後寮,2015-11-28,23.369908,120.248065,0.99971414
C1E461,松安,2015-11-28,24.397972,120.986022,9.805491e-10
72G600,臺中農改,2015-11-28,24.003028,120.534389,0.9995303
C2N160,西拉雅風管處,2015-11-28,23.189481,120.335297,0.99956155
C2M970,碧湖,2015-11-28,23.568632,120.624165,3.2343357e-09
C0A640,石碇,2015-11-28,24.993969,121.662917,0.99963105
E2S960,林試太麻里2,2015-11-28,22.598,120.99775,0.978447
C0F9Y0,桃山,2015-11-28,24.432739,121.303808,1.0898481e-08
C1I020,萬大,2015-11-28,23.979817,121.132261,9.986345e-10
C0U940,羅東,2015-11-28,24.68184,121.74934,0.9992198
C0M650,朴子,2015-11-28,23.43463,120.23902,0.99964994
C1I500,大尖山,2015-11-28,23.858572,120.994889,6.1616188e-09
C0G820,田尾,2015-11-28,23.901669,120.509389,0.9982425
E2K600,四湖植物園,2015-11-28,23.676986,120.163433,0.9990799
C0S730,綠島,2015-11-28,22.6672,121.47533,0.9771123
12Q970,東港工作站,2015-11-28,22.479997,120.466058,0.99892193
C0E430,南庄,2015-11-28,24.601775,121.000214,0.9993432
C1TA00,太魯閣,2015-11-28,24.15773,121.6236,0.9898146
466920,臺北,2015-11-28,25.037658,121.514853,0.9574828
C0R600,舊泰武,2015-11-28,22.588194,120.664944,0.85480833
C1I260,北坑,2015-11-28,23.9246,121.006903,8.602399e-10
466910,鞍部,2015-11-28,25.182586,121.529731,4.290221e-05
C1I230,九份二山,2015-11-28,23.961944,120.845,7.478357e-10
C2A660,瑞芳,2015-11-28,25.113169,121.801147,0.9999069
C0R270,琉球嶼,2015-11-28,22.332244,120.362236,0.07332379
C1T990,高寮,2015-11-28,23.394239,121.356808,0.05004257
C0G620,芬園,2015-11-28,24.015678,120.6213,0.986782
C1Z140,荖溪,2015-11-28,23.890575,121.45964,1.3608363e-08
C1I201,中心崙,2015-11-28,23.728722,120.712097,2.1014537e-09
C1I400,凌霄,2015-11-28,24.018778,121.004456,1.5015862e-09
C1M640,十字,2015-11-28,23.492153,120.753683,4.70937e-09
G2P820,農試鳳山分所,2015-11-28,22.646611,120.356083,0.9988758
C0Z270,蕃薯寮,2015-11-28,23.73835,121.540108,2.7065302e-05
C0F9Q0,外埔,2015-11-28,24.347817,120.705686,0.9991294
C0K580,高鐵雲林,2015-11-28,23.737456,120.417944,0.3919115
C2I090,鳳凰,2015-11-28,23.728081,120.787347,2.185466e-09
C0U990,員山,2015-11-28,24.74435,121.72247,0.9992198
C0V770,大社,2015-11-28,22.730306,120.346639,0.99941987
C0X120,麻豆,2015-11-28,23.183289,120.248611,0.99949974
C0C670,龍潭,2015-11-28,24.870056,121.221389,0.99411196
C0D680,香山濕地,2015-11-28,24.783581,120.914988,0.97898823
C0S980,勝林山,2015-11-28,22.430439,120.8938,0.557934
C0V730,大寮,2015-11-28,22.605614,120.395717,0.93114305
C0R570,麟洛,2015-11-28,22.65078,120.52719,0.9761715
C2M930,石卓,2015-11-28,23.478744,120.702264,4.665303e-09
C0G9B0,和美,2015-11-28,24.105169,120.492131,0.9996029
CAG100,王功漁港,2015-11-28,23.96824,120.32586,0.99928474
C0X290,北門,2015-11-28,23.267772,120.125481,0.9994929
C2F930,大甲,2015-11-28,24.347667,120.640403,0.9996376
C0D650,湖口,2015-11-28,24.904794,121.043628,0.23078844
C0E420,竹南,2015-11-28,24.708978,120.888897,0.9828638
C0U780,五結,2015-11-28,24.68637,121.79794,0.99904627
C1I250,鯉潭,2015-11-28,23.961922,120.991131,8.2884827e-10
C0R130,阿禮,2015-11-28,22.742908,120.743678,4.401791e-08
C0X100,臺南市北區,2015-11-28,23.010394,120.194228,0.9990436
C0S920,金峰嘉蘭,2015-11-28,22.594789,120.960825,0.984024
C0V490,新興,2015-11-28,22.627422,120.298803,0.9991367
C0F9K0,大安,2015-11-28,24.345061,120.588025,0.99952215
72N100,臺南農改,2015-11-28,23.0605,120.342194,0.99915224
467290,古坑,2015-11-28,23.633639,120.551889,5.3449037e-07
C2E970,八甲,2015-11-28,24.535811,120.795983,0.99867177
C0V440,鳳山,2015-11-28,22.646653,120.356122,0.9988758
C1T940,大觀,2015-11-28,23.714206,121.373133,5.396001e-07
72T250,花蓮農改,2015-11-28,23.975222,121.563889,8.543844e-06
C0E740,造橋,2015-11-28,24.637056,120.864778,0.9987786
C0R100,尾寮山,2015-11-28,22.833111,120.683889,3.673705e-08
A2K630,臺大雲林校區,2015-11-28,23.730628,120.423903,0.3919115
C0D580,寶山,2015-11-28,24.735006,121.025192,0.9995612
E2P990,林試扇平站,2015-11-28,22.9677,120.6857,0.003478796
C0AI30,三重,2015-11-28,25.057328,121.500629,0.9718942
C0AH00,汐止,2015-11-28,25.066881,121.658778,0.9996658
C1Z040,立山,2015-11-28,23.443356,121.327375,4.1580906e-06
C0W130,花嶼,2015-11-28,23.40007,119.32276,0.94070506
C0A950,鼻頭角,2015-11-28,25.129036,121.923372,0.9998845
C0K470,林內,2015-11-28,23.748675,120.609642,2.0816317e-06
C2F990,摩天嶺,2015-11-28,24.322458,120.936819,1.4664076e-09
82C160,茶改場,2015-11-28,24.908472,121.185333,0.9972525
C0Z320,清水林道,2015-11-28,23.27125,121.188272,1.0597036e-07
C0R760,南仁湖,2015-11-28,22.084681,120.863353,0.35222673
C0M670,大林,2015-11-28,23.600616,120.45841,0.9879507
C0M800,茶山,2015-11-28,23.299075,120.664767,1.07881064e-07
C0A9C0,天母,2015-11-28,25.117494,121.537169,0.96697086
72K220,南改斗南分場,2015-11-28,23.634556,120.477333,8.09211e-05
72AI40,桃改樹林分場,2015-11-28,24.944503,121.386972,0.9644861
C0S910,蘭嶼燈塔,2015-11-28,22.081197,121.503117,0.08652343
C0B050,八斗子,2015-11-28,25.144754,121.79167,0.9995974
C0U900,內城,2015-11-28,24.71813,121.68766,0.9871186
C0X320,柳營,2015-11-28,23.253328,120.375253,0.9925426
C0M790,新港,2015-11-28,23.553269,120.345728,0.999487
C0F9T0,西屯,2015-11-28,24.179494,120.641275,0.9996988
C0SA30,都歷,2015-11-28,23.020333,121.323642,0.95650643
C0C620,蘆竹,2015-11-28,25.084275,121.265767,0.9944917
C0R730,大坪頂,2015-11-28,22.024633,120.69355,0.797874
C0AJ40,石門,2015-11-28,25.273672,121.601198,0.9997522
C0E750,苗栗,2015-11-28,24.564569,120.824575,0.99925095
C0T870,鯉魚潭,2015-11-28,23.935639,121.508944,0.00010014916
C1V170,排雲,2015-11-28,23.463619,120.954147,2.0265887e-08
C2H950,中寮,2015-11-28,23.884447,120.766406,2.90585e-09
C0R350,貓鼻頭,2015-11-28,21.921774,120.7358,0.93711233
C0V660,岡山,2015-11-28,22.797078,120.294958,0.99903125
C1H941,雙冬,2015-11-28,23.967378,120.802189,8.4373813e-10
C0AJ70,田寮,2015-11-28,25.2698,121.4886,0.9995375
C0AI00,五股,2015-11-28,25.07445,121.42728,0.99020505
C0Z280,德武,2015-11-28,23.47426,121.41071,0.004523858
C0R700,枋山,2015-11-28,22.246844,120.661086,0.6272723
C0C460,復興,2015-11-28,24.820208,121.352281,0.22379372
E2H360,蓮華池,2015-11-28,23.918333,120.885278,1.8861757e-09
C0M640,中埔,2015-11-28,23.42538,120.5229,5.4955103e-07
C0W140,金沙,2015-11-28,24.488292,118.408778,0.9386838
C2A540,四堵,2015-11-28,24.8926,121.745736,0.942845
C0ACA0,新莊,2015-11-28,25.051478,121.446756,0.995024
C0R220,潮州,2015-11-28,22.534361,120.54,0.65997624
U2HA40,臺大內茅埔,2015-11-28,23.689722,120.851117,2.328916e-09
467490,臺中,2015-11-28,24.145736,120.684075,0.98998743
C0U960,翠峰湖,2015-11-28,24.510856,121.608044,1.2602566e-08
E2HA20,林試畢祿溪站,2015-11-28,24.226944,121.308522,3.1299803e-09
C0V890,前鎮,2015-11-28,22.5718,120.3117,0.9992591
467620,蘭嶼,2015-11-28,22.036969,121.558339,0.18196766
C1F941,雪嶺,2015-11-28,24.280586,121.026642,4.7110857e-09
C2H9E0,國姓南港,2015-11-28,23.911108,120.846556,3.232282e-09
C0AC80,文山,2015-11-28,25.00235,121.575728,0.93889374
C0F9R0,龍井,2015-11-28,24.184536,120.528972,0.99958485
C0M760,民雄,2015-11-28,23.551754,120.428457,0.9942887
C0UA40,西德山,2015-11-28,24.560647,121.752608,3.6234194e-08
C1T920,中興,2015-11-28,23.769503,121.498653,0.0018812787
C0D550,雪霸,2015-11-28,24.526972,121.11605,2.5995361e-09
C2F860,梨山,2015-11-28,24.247522,121.243669,3.260623e-09
C0R320,車城,2015-11-28,22.0744,120.716247,0.9532941
C1S870,南美山,2015-11-28,23.15025,121.382333,0.9840858
C0B020,基隆嶼,2015-11-28,25.19141,121.78391,0.9996658
C1U501,牛鬥,2015-11-28,24.637836,121.573656,0.6662261
C0M730,嘉義市東區,2015-11-28,23.457673,120.460531,0.8176577
C0S700,知本,2015-11-28,22.684866,121.005642,0.89591324
C1N001,沙崙,2015-11-28,22.935472,120.309406,0.99932027
C0V760,橋頭,2015-11-28,22.757806,120.30575,0.9989346
C0G960,福寶,2015-11-28,24.0443,120.3814,0.9995079
C0X210,白河,2015-11-28,23.347466,120.414427,0.98993117
C0S810,東河,2015-11-28,22.972672,121.303986,0.47925606
C2R170,屏東,2015-11-28,22.66027,120.49403,0.9859974
C0R670,楓港,2015-11-28,22.190131,120.692156,0.6270759
C0FA50,霧峰,2015-11-28,24.0419,120.6995,0.9986863
C0UB10,蘇澳,2015-11-28,24.5969,121.8571,0.8655126
C0G950,防潮門,2015-11-28,24.1835,120.4871,0.9995516
C0M740,六腳,2015-11-28,23.492871,120.290625,0.9995143
C1R250,力里,2015-11-28,22.428117,120.629228,0.09806377
C0K330,虎尾,2015-11-28,23.719183,120.442036,0.2918731
C2FA00,烏石坑,2015-11-28,24.273503,120.947617,1.5033658e-09
C0V620,永安,2015-11-28,22.82315,120.236856,0.9993031
C1I330,楓樹林,2015-11-28,23.986803,121.076117,1.2666759e-09
C0W200,湖西,2015-11-28,23.596314,119.67275,0.32355094
72Q010,高雄農改場,2015-11-28,22.709333,120.525889,0.9547697
C0SA40,瑞和,2015-11-28,22.974361,121.156697,0.9863651
C0C680,龜山,2015-11-28,25.02846,121.38656,0.9449538
C2V260,月眉,2015-11-28,22.971003,120.539853,0.00024305507
C0V450,鳳森,2015-11-28,22.545064,120.392592,0.8153268
C0U720,南山,2015-11-28,24.43742,121.38167,3.2113352e-08
A2N290,臺南蘭花園區,2015-11-28,23.340258,120.379661,0.9925426
C0R560,新園,2015-11-28,22.5434,120.461558,0.9988753
C0U890,三星,2015-11-28,24.66812,121.65302,0.96355456
C1V300,御油山,2015-11-28,23.001983,120.715364,5.70099e-09
C0U600,礁溪,2015-11-28,24.817539,121.765608,0.9931386
C1T980,龍澗,2015-11-28,24.023289,121.411328,6.6435053e-09
C0D670,海天一線,2015-11-28,24.831986,120.914438,0.97713506
C0SA00,歷坵,2015-11-28,22.520969,120.89185,0.99847215
C0M710,東石,2015-11-28,23.458927,120.15385,0.99966675
C0M780,鹿草,2015-11-28,23.41134,120.30835,0.99954623
C0U520,雙連埤,2015-11-28,24.753033,121.641303,0.014337785
C0B010,七堵,2015-11-28,25.094819,121.71713,0.9997165
C0R480,長治,2015-11-28,22.693128,120.542622,0.23231328
C1V830,國三S383K,2015-11-28,22.781967,120.426475,0.68160504
12Q980,恆春工作站,2015-11-28,22.079678,120.714425,0.95329404
C1O940,東山服務區,2015-11-28,23.286016,120.398472,0.9834816
C1U840,東澳嶺,2015-11-28,24.5378,121.8485,1.0421334e-06
C1D630,飛鳳山,2015-11-28,24.766464,121.119178,0.38372996
C0S940,石寧山,2015-11-28,23.223772,121.406639,0.0006364265
C0K410,北港,2015-11-28,23.573957,120.292802,0.9995349
C2M620,瑞里,2015-11-28,23.545133,120.675197,4.1042414e-09
C0SB70,小港漁港,2015-11-28,23.158558,121.400431,0.022046588
C2O950,安南,2015-11-28,23.076694,120.144861,0.9971811
C0F0E0,南湖圈谷,2015-11-28,24.363714,121.444667,2.001046e-08
467610,成功,2015-11-28,23.097486,121.373428,0.78388476
C0G890,伸港,2015-11-28,24.148933,120.484403,0.9997197
C2E540,龍溪,2015-11-28,24.606489,120.783933,0.9991417
C1V200,梅山,2015-11-28,23.268447,120.823556,5.610638e-08
C0T9H0,加路蘭山,2015-11-28,23.682947,121.5274,5.81684e-08
C2O930,玉井,2015-11-28,23.126042,120.46055,0.9852488
C1F911,新伯公,2015-11-28,24.221361,120.841069,1.6008505e-08
C0R490,九如,2015-11-28,22.7405,120.490503,0.9761715
C0X200,左鎮,2015-11-28,23.056758,120.408522,0.69772226
C0SB50,叭嗡嗡,2015-11-28,23.047062,121.343223,0.81374633
C1F891,稍來,2015-11-28,24.265689,121.001142,2.7079352e-09
72N240,七股研究中心,2015-11-28,23.081672,120.062894,0.99510264
C0C700,中壢,2015-11-28,24.977661,121.256375,0.959564
C0M690,水上,2015-11-28,23.419734,120.388909,0.98139507
C0V690,鼓山,2015-11-28,22.623325,120.275575,0.9991367
C0O860,大內,2015-11-28,23.11885,120.36083,0.14101325
C0Z200,萬榮,2015-11-28,23.709219,121.420106,0.00010014916
C0T9D0,和中,2015-11-28,24.26676,121.74103,0.9720785
C1O921,楠西,2015-11-28,23.183511,120.484083,0.77250403
C0AJ30,淡水觀海,2015-11-28,25.184591,121.408616,0.9927104
C0V810,左營,2015-11-28,22.67491,120.28491,0.9994477
C0UA70,桃源谷,2015-11-28,24.962606,121.888875,0.0055952575
C0X130,官田,2015-11-28,23.193217,120.315422,0.9995846
C1H000,翠峰,2015-11-28,24.109397,121.205211,4.6568394e-09
C0UA90,石城,2015-11-28,24.980444,121.951214,0.9998836
C1E681,南勢山,2015-11-28,24.421669,120.923831,2.1018385e-09
C0A9F0,內湖,2015-11-28,25.079422,121.57545,0.9574828
C0K291,宜梧,2015-11-28,23.536281,120.169329,0.9996647
C1K540,口湖,2015-11-28,23.585344,120.180517,0.9994598
C0R780,滿州,2015-11-28,22.024403,120.839892,0.93097925
C0V870,文安,2015-11-28,22.8025,120.2164,0.999328
C0U650,玉蘭,2015-11-28,24.675286,121.587061,7.5434045e-06
C0R640,東港,2015-11-28,22.46247,120.44074,0.9992591
K2E360,苗栗農改,2015-11-28,24.495722,120.829111,0.99921256
C0AJ80,板橋,2015-11-28,25.0107,121.4489,0.97006476
C0S660,下馬,2015-11-28,23.150427,121.070312,2.9770435e-08
C1H9B1,阿眉,2015-11-28,24.1263,120.994672,1.5478723e-09
C0UA20,多加屯,2015-11-28,24.368614,121.373189,6.4438117e-09
C0E730,頭份,2015-11-28,24.688247,120.912206,0.9828638
72V140,高改旗南分場,2015-11-28,22.857861,120.516667,0.01855113
C0K480,莿桐,2015-11-28,23.761192,120.502372,0.00068024086
C0U980,坪林石牌,2015-11-28,24.86478,121.77396,0.004936964
C0T900,西林,2015-11-28,23.8119,121.441458,1.7879394e-05
C1I150,青雲,2015-11-28,23.793361,120.949378,2.2136921e-09
467350,澎湖,2015-11-28,23.565503,119.563094,0.79531455
C0G800,埔鹽,2015-11-28,24.000394,120.431683,0.9994862
C0H960,草屯,2015-11-28,23.973672,120.68085,1.5587216e-07
C1V780,多納林道,2015-11-28,22.888028,120.737917,1.36854625e-08
C0E920,通霄漁港,2015-11-28,24.498589,120.673876,0.99827635
C0Z330,安通山,2015-11-28,23.290728,121.348528,3.6281952e-07
C0AH10,永和,2015-11-28,25.01125,121.508111,0.9629502
C0AK10,太平里,2015-11-28,25.134937,121.364899,0.995024
C2G640,鹿港,2015-11-28,24.0753,120.430481,0.9994862
C1E890,國三N149K,2015-11-28,24.463414,120.680019,0.9987717
C1R110,口社,2015-11-28,22.770111,120.645222,0.40550366
C1M870,國三N285K,2015-11-28,23.550319,120.505833,4.6364883e-07
467050,新屋,2015-11-28,25.006744,121.047486,0.18857688
C1E480,鳳美,2015-11-28,24.554803,121.034747,2.9179034e-08
C0M530,奮起湖,2015-11-28,23.493903,120.699253,4.1409307e-09
C0C590,觀音,2015-11-28,25.027072,121.153317,0.985691
C0T9M0,靜浦,2015-11-28,23.455167,121.495028,0.17309698
C2H9M0,發祥,2015-11-28,24.154094,121.164517,1.0504918e-09
C0AI40,石牌,2015-11-28,25.115597,121.513139,0.97006476
C1F871,上谷關,2015-11-28,24.203483,121.018644,1.5042148e-09
C2H9G0,百勝,2015-11-28,24.051142,120.909361,7.0959305e-09
C0G880,二水,2015-11-28,23.810742,120.6173,8.728264e-08
C0R940,加祿堂,2015-11-28,22.3363,120.6217,0.05058365
C0W220,北竿,2015-11-28,26.220358,119.974881,0.13682425
C0O960,崎頂,2015-11-28,22.959547,120.369317,0.000442361
C0S750,向陽,2015-11-28,23.248397,120.986133,7.689819e-09
C0T9F0,水璉,2015-11-28,23.797131,121.542514,1.720651e-06
C1M600,頭凍,2015-11-28,23.406364,120.603339,3.7932915e-09
467660,臺東,2015-11-28,22.752211,121.154586,0.849923
C1D380,新埔,2015-11-28,24.84745,121.03834,0.96864307
C2G980,田頭村,2015-11-28,23.8263,120.444175,0.95235765
C0V750,路竹,2015-11-28,22.854997,120.259439,0.9987324
C0N050,蚵寮,2015-11-28,23.301,120.1104,0.9988069
72M700,南改鹿草分場,2015-11-28,23.416869,120.283061,0.9995629
C1SA50,利嘉林道,2015-11-28,22.82325,121.009389,2.1211788e-08
467550,玉山,2015-11-28,23.487614,120.959522,2.2714428e-08
C0A940,金山,2015-11-28,25.223628,121.643967,0.99963486
C1V340,大津,2015-11-28,22.888322,120.645986,0.51740795
C0W180,七美,2015-11-28,23.219333,119.444892,0.91966593
C1F9C1,白冷,2015-11-28,24.182844,120.929889,2.4079594e-09
K2E710,苗改生物防治研究中心,2015-11-28,24.422861,120.871833,0.9787558
C0N040,蘆竹溝,2015-11-28,23.2344,120.0961,0.9988069
C2W230,畜試所澎湖,2015-11-28,23.628342,119.513206,0.79023117
C0R880,後壁湖,2015-11-28,21.9457,120.7457,0.9559631
C1I280,埔中,2015-11-28,23.820778,120.642594,7.64017e-09
467790,墾丁雷達站,2015-11-28,21.948235,120.808028,0.9259944
C0W190,望安,2015-11-28,23.380564,119.494075,0.8716808
466881,新北,2015-11-28,24.9593,121.52,0.95095074
C0Z170,卓溪,2015-11-28,23.3443,121.3029,0.0059353835
C0F850,東勢,2015-11-28,24.246428,120.833047,2.7948925e-08
466900,淡水,2015-11-28,25.164889,121.448906,0.9932028
C0I370,魚池,2015-11-28,23.895703,120.94135,1.9392612e-09
C0C630,大溪,2015-11-28,24.882853,121.265547,0.99450016
C0A520,山佳,2015-11-28,24.974944,121.402008,0.9644861
C0I110,竹山,2015-11-28,23.761225,120.688156,4.1301087e-09
82H840,茶改南部分場,2015-11-28,23.762528,120.7405,2.8560012e-09
C0G660,溪湖,2015-11-28,23.94835,120.479122,0.99871075
C1T800,洛韶,2015-11-28,24.204558,121.453956,1.7274953e-08
C1T810,慈恩,2015-11-28,24.192044,121.388386,6.9751738e-09
C1E451,象鼻,2015-11-28,24.368617,120.940228,2.1001794e-09
C0AC60,三峽,2015-11-28,24.939025,121.369728,0.947875
C0I490,萬大林道,2015-11-28,23.928228,121.091411,4.166386e-09
C1I290,豐丘,2015-11-28,23.668178,120.887417,3.5848389e-09
C1I320,奧萬大,2015-11-28,23.952956,121.178556,1.2693363e-09
C2M910,嘉義大學,2015-11-28,23.471325,120.485903,1.7073243e-06
C0U770,南澳,2015-11-28,24.44935,121.81022,0.9991109
C0A980,社子,2015-11-28,25.109508,121.469681,0.97333926
C0V800,六龜,2015-11-28,22.997889,120.633583,0.00017027506
C1G9D0,國一S218K,2015-11-28,23.890641,120.493253,0.99860185
C0E570,白沙屯,2015-11-28,24.549447,120.696803,0.99827635
C2F9A0,中竹林,2015-11-28,24.103556,120.751061,3.1607987e-09
C0FA40,臺中電廠,2015-11-28,24.2146,120.4907,0.99958485
C2G9A0,畜試所彰化,2015-11-28,23.86045,120.557964,0.0022723123
C0H9C0,合歡山,2015-11-28,24.143442,121.272547,1.3691337e-08
C0X060,下營,2015-11-28,23.22695,120.256261,0.9996067
G2M350,農試溪口農場,2015-11-28,23.58565,120.408111,0.99636006
C0U860,頭城,2015-11-28,24.85323,121.8308,0.9942693
C0R580,南州,2015-11-28,22.48591,120.50274,0.99892193
C0D430,峨眉,2015-11-28,24.6905,121.017189,0.9919732
C0G780,秀水,2015-11-28,24.03405,120.503869,0.9995717
72N100,臺南農改場,2015-11-28,23.0605,120.342194,0.99915224
C0S900,蘭嶼高中,2015-11-28,22.04909,121.51214,0.1492046
467540,大武,2015-11-28,22.355675,120.903789,0.16501896
C1F9W0,德基,2015-11-28,24.254783,121.190261,2.1258761e-09
C1Z120,壽豐,2015-11-28,23.870853,121.508081,0.01672839
C0W160,烏坵,2015-11-28,24.9944,119.44956,0.95535994
C1I240,外大坪,2015-11-28,23.958697,120.917931,8.0930834e-10
C1I550,國六W023K,2015-11-28,23.979067,120.867742,2.6625429e-09
C0R870,興海,2015-11-28,21.9752,120.8439,0.9458827
C0R140,瑪家,2015-11-28,22.682903,120.686639,0.031216623
C0A530,坪林,2015-11-28,24.938183,121.70975,0.6719676
C0X260,後壁,2015-11-28,23.366358,120.362326,0.7607715
C0Z230,和平,2015-11-28,24.30717,121.77007,0.9721186
C0G770,福興,2015-11-28,24.041289,120.437669,0.9994862
C0H9A0,神木村,2015-11-28,23.532742,120.843667,5.4146336e-09
C0I460,南投,2015-11-28,23.911469,120.687331,8.237927e-09
C0I480,梅峰,2015-11-28,24.085272,121.173572,3.01341e-09
C1V570,吉東,2015-11-28,22.85422,120.5454,0.009919363
C2D740,屯原,2015-11-28,24.067969,121.209389,2.9674725e-09
C2A560,福山,2015-11-28,24.776203,121.502811,0.023055317
C0AH30,五分山,2015-11-28,25.07125,121.780794,4.4105836e-06
C0FA10,松柏,2015-11-28,24.429115,120.617482,0.9990649
72S200,東改班鳩分場,2015-11-28,22.829528,121.077694,0.96125317
72HA00,中改埔里分場,2015-11-28,23.903208,120.963364,1.9703148e-09
C2H9W0,大坪頂農水,2015-11-28,24.043122,120.932781,8.1820495e-10
C0C650,平鎮,2015-11-28,24.897503,121.214636,0.9972525
C0S930,延平,2015-11-28,22.902581,121.084058,0.67851645
C0UA60,樟樹山,2015-11-28,24.41393,121.78325,6.7712256e-07
C1S670,摩天,2015-11-28,23.199503,121.027,1.0001562e-08
C0V630,茄萣,2015-11-28,22.906642,120.182608,0.99910975
466940,基隆,2015-11-28,25.133314,121.740475,0.99961656
C0X050,東河,2015-11-28,23.296598,120.385608,0.9925426
C0R770,保力,2015-11-28,22.071122,120.764111,0.90382224
G2L020,農試嘉義分所,2015-11-28,23.485028,120.473806,9.2458845e-07
C0X240,關子嶺,2015-11-28,23.331169,120.508025,1.7908647e-08
C0I380,集集,2015-11-28,23.828206,120.801467,3.7960635e-09
466990,花蓮,2015-11-28,23.975128,121.613275,2.3682778e-05
C1V220,小關山,2015-11-28,23.154217,120.813603,5.8183462e-09
C1F9G1,慶福山,2015-11-28,24.180853,120.848378,2.1102822e-09
C0Z250,瑞穗林道,2015-11-28,23.49284,121.30688,2.2814728e-08
C0D590,新豐,2015-11-28,24.87068,120.97721,0.19427988
C0A870,五指山,2015-11-28,25.132153,121.608692,0.27424926
C0UA50,西帽山,2015-11-28,24.555361,121.802628,8.744575e-07
C0X160,仁德,2015-11-28,22.968258,120.257689,0.9994063
C1H971,六分寮,2015-11-28,23.92507,120.6378,2.1998317e-09
C0W120,西嶼,2015-11-28,23.5626,119.468436,0.79531455
C0G650,員林,2015-11-28,23.946503,120.585597,0.99505216
C0AD50,鶯歌,2015-11-28,24.951533,121.346294,0.96670526
C2H9Q0,北東眼山,2015-11-28,24.120939,121.189303,2.8946094e-09
C2H9T0,名間竹圍,2015-11-28,23.859914,120.637572,2.8194616e-09
C0S990,山豬窟,2015-11-28,22.318619,120.857372,0.2494333
72Q010,高雄農改,2015-11-28,22.709333,120.525889,0.9547697
C0X190,安平,2015-11-28,22.993161,120.152181,0.9990436
C0K400,斗六,2015-11-28,23.720583,120.541127,2.1198408e-05
12J990,口湖工作站,2015-11-28,23.589978,120.180394,0.99947166
C0O830,北寮,2015-11-28,23.079561,120.495008,7.1227005e-05
C1D410,白蘭,2015-11-28,24.579364,121.079947,1.926509e-09
C0S970,加津林,2015-11-28,22.416211,120.926942,0.16663195
C0D700,關西,2015-11-28,24.7977,121.1732,0.997612
C0M810,里佳,2015-11-28,23.389125,120.716647,4.1409307e-09
C0U750,龜山島,2015-11-28,24.841667,121.953133,0.9673881
C0R810,內獅,2015-11-28,22.305064,120.642986,0.05058365
C1M390,龍美,2015-11-28,23.406728,120.654417,4.639569e-09
C2FB60,頭櫃山,2015-11-28,24.129842,120.858925,1.0138154e-09
C1H840,國三N238K,2015-11-28,23.841008,120.707711,3.6988457e-09
CAQ030,崎峰國小,2015-11-28,22.42565,120.49521,0.99892193
C2E520,大湖,2015-11-28,24.414939,120.870872,0.99918824
467530,阿里山,2015-11-28,23.508208,120.813242,7.95389e-09
C1E691,南湖,2015-11-28,24.40135,120.837533,1.0806493e-08
C0FA30,梧棲,2015-11-28,24.256003,120.523381,0.99958485
C1V231,高中,2015-11-28,23.134911,120.716711,2.8135162e-08
C0F9V0,新社,2015-11-28,24.200172,120.815806,4.397736e-09
C0H890,埔里,2015-11-28,23.972169,120.952425,5.904631e-09
C0R690,墾丁,2015-11-28,21.966756,120.810269,0.49110892
C0F0D0,審馬陣,2015-11-28,24.381675,121.4203,1.1825812e-08
C0R820,白鷺,2015-11-28,22.454275,120.666219,0.98191947
U2H480,臺大溪頭,2015-11-28,23.670306,120.798194,4.6218687e-09
C1V190,南天池,2015-11-28,23.27403,120.91176,8.399364e-09
K2E360,苗栗農改場,2015-11-28,24.495722,120.829111,0.99921256
CAJ050,海口故事園區,2015-11-28,23.57543,120.14121,0.9994598
C2H9D0,三隻寮,2015-11-28,24.093078,120.861578,7.997301e-10
C0O990,媽廟,2015-11-28,22.99175,120.293525,0.9993512
C0D480,打鐵坑,2015-11-28,24.849664,121.150789,0.9988988
C0Z220,和平林道,2015-11-28,24.343922,121.656317,5.9392875e-07
C0TA10,花蓮漁港,2015-11-28,23.995322,121.638331,2.6184498e-05
72C440,桃園農改場,2015-11-28,24.950944,121.030583,0.19760619
C1E711,馬拉邦山,2015-11-28,24.367306,120.901656,5.4951097e-09
C0SB20,富岡,2015-11-28,22.792467,121.192669,0.8592161
C0D560,竹東,2015-11-28,24.767147,121.057881,0.9970207
C0F9U0,南屯,2015-11-28,24.137006,120.637969,0.9996237
C0M720,番路,2015-11-28,23.464657,120.554156,7.532045e-08
C0F0A0,雪山圈谷,2015-11-28,24.388594,121.236339,1.5086808e-08
C1A9N0,四十份,2015-11-28,24.934158,121.593283,0.47769788
C0U760,東澳,2015-11-28,24.52196,121.83318,0.99637777
C0X230,鹽水,2015-11-28,23.272621,120.247641,0.99969864
C2H9H0,苗改南投蜂場,2015-11-28,23.852589,120.693481,4.1301087e-09
C0R950,萬隆國小,2015-11-28,22.507667,120.587817,0.72671115
C0V370,古亭坑,2015-11-28,22.893178,120.401947,0.99645936
C1I340,新興橋,2015-11-28,23.563333,120.868728,2.378762e-09
C0SA80,土坂,2015-11-28,22.453108,120.887572,0.9854651
C0R160,鹽埔,2015-11-28,22.739558,120.530778,0.3009027
C0AC40,大屯山,2015-11-28,25.175675,121.522408,1.1246269e-06
466850,五分山雷達站,2015-11-28,25.071182,121.781205,3.927944e-06
C2H9L0,馬烈霸,2015-11-28,24.1512,121.201772,2.8394402e-09
C1AI50,國三N016K,2015-11-28,25.034164,121.619664,0.9420936
C1V600,藤枝,2015-11-28,23.071961,120.757042,6.0005907e-09
C1E601,南勢,2015-11-28,24.572486,120.734842,0.9972248
C0Z180,新城,2015-11-28,24.03946,121.60454,1.3113695e-05
C0O980,新市,2015-11-28,23.061614,120.298197,0.9993979
C0K420,西螺,2015-11-28,23.800407,120.467394,0.0010184685
C0Z050,佳心,2015-11-28,23.34567,121.21316,2.1565189e-08
C0AD30,蘆洲,2015-11-28,25.086594,121.472331,0.9718942
C0V610,梓官,2015-11-28,22.760558,120.267211,0.99903125
K2F750,種苗改良場,2015-11-28,24.225972,120.800917,7.960416e-09
C0UA80,大溪漁港,2015-11-28,24.941801,121.902955,0.9931386
C1AI60,國一39K邊坡,2015-11-28,25.064361,121.383836,0.99497557
C0W150,金寧,2015-11-28,24.457703,118.328989,0.955039
C0R960,內埔,2015-11-28,22.608483,120.570714,0.83681077
V2C250,八德合作社,2015-11-28,24.93775,121.266389,0.9974927
C2H9S0,龍南,2015-11-28,23.953536,120.833183,1.2305199e-09
C0AH40,平等,2015-11-28,25.129142,121.577086,0.9286698
C0R540,佳冬,2015-11-28,22.419456,120.552375,0.99892193
466950,彭佳嶼,2015-11-28,25.627975,122.079744,0.99990845
C0A890,雙溪,2015-11-28,25.036003,121.864242,0.999755
C0C480,桃園,2015-11-28,24.992425,121.323172,0.954158
C0AH50,林口,2015-11-28,25.072181,121.38084,0.9916005
A2K360,水試臺西試驗場,2015-11-28,23.717231,120.190522,0.9990255
B2N890,畜試所,2015-11-28,23.058972,120.336406,0.99915224
C2M960,外寮,2015-11-28,23.562643,120.665688,3.115287e-09
C0F9S0,烏日,2015-11-28,24.107058,120.624103,0.9995813
C0C490,八德,2015-11-28,24.928708,121.283289,0.9945145
C0R190,赤山,2015-11-28,22.592333,120.614306,0.79487854
C0T820,天祥,2015-11-28,24.179597,121.495639,8.7772185e-07
C1F9E1,龍安,2015-11-28,24.1605,120.831961,3.4986718e-09
C0V820,小林,2015-11-28,23.148408,120.63325,6.4397476e-08
C2G870,芳苑,2015-11-28,23.922303,120.320025,0.9966104
C0E850,大河,2015-11-28,24.618069,120.948578,0.9983255
C1U670,寒溪,2015-11-28,24.634,121.71691,0.99969614
C0N020,城西,2015-11-28,23.0568,120.0956,0.9954155
C1Z110,三棧,2015-11-28,24.11557,121.60501,1.1743651e-07
C0R280,檳榔,2015-11-28,22.076078,120.836777,0.5620285
C2H9J0,中台,2015-11-28,23.9996,120.938739,2.5288005e-09
C0F9L0,后里,2015-11-28,24.310436,120.729725,0.9823549
C0D540,橫山,2015-11-28,24.71116,121.11693,0.9992122
C1D420,太閣南,2015-11-28,24.632808,121.160575,4.5530784e-09
C1E770,公館,2015-11-28,24.526914,120.830806,0.9988505
CAN130,水試所海水繁養殖中心,2015-11-28,23.120802,120.07968,0.99510264
C1I430,翠華,2015-11-28,24.191961,121.224339,4.481207e-09
C1M400,菜瓜坪,2015-11-28,23.251928,120.576103,1.2401107e-07
C0G730,二林,2015-11-28,23.903325,120.376081,0.99938935
72M360,南改義竹分場,2015-11-28,23.360694,120.279361,0.99952644
V2K620,麥寮合作社,2015-11-28,23.753836,120.294783,0.99900854
C0Z070,舞鶴,2015-11-28,23.46811,121.37407,0.0005024251
C0B040,大武崙,2015-11-28,25.166676,121.706993,0.9997165
C1Z030,紅葉,2015-11-28,23.493119,121.338806,0.0032278171
C1I050,丹大,2015-11-28,23.753747,121.141147,1.2514084e-08
C0I080,信義,2015-11-28,23.689694,120.851036,2.328916e-09
C2M920,朴子農改,2015-11-28,23.469889,120.259383,0.99951285
C2A880,福隆,2015-11-28,25.017842,121.942083,0.99989265
C0Z160,鳳林,2015-11-28,23.746114,121.453411,0.0020043433
C0V210,復興,2015-11-28,23.222403,120.806089,3.9529533e-07
C0H990,昆陽,2015-11-28,24.121322,121.273642,9.540391e-09
C0R741,獅子,2015-11-28,22.202308,120.705236,0.82663405
C0S710,鹿野,2015-11-28,22.917711,121.122994,6.251822e-07
C0I530,小奇萊,2015-11-28,24.131764,121.295717,9.890245e-09
C2K630,荷苞,2015-11-28,23.657717,120.595144,6.902742e-08
C0Z080,富源,2015-11-28,23.587642,121.378225,0.0004729331
467441,高雄,2015-11-28,22.7304,120.3125,0.9994477
C0SB10,美和,2015-11-28,22.682078,121.060236,0.6307444
C2K620,馬光農場,2015-11-28,23.721453,120.378864,0.66070104
C1I140,卡奈托灣,2015-11-28,23.754364,121.087872,5.6000613e-09
C0I520,玉山風口,2015-11-28,23.470489,120.955994,2.3414819e-08
C1G691,下水埔,2015-11-28,23.816114,120.5676,3.6169706e-07
C0X110,臺南市南區,2015-11-28,22.961189,120.188378,0.9990584
C0V680,仁武,2015-11-28,22.701083,120.347722,0.99941987
C2G840,北斗,2015-11-28,23.877586,120.514222,0.9982425
C0R900,竹坑,2015-11-28,22.1385,120.7022,0.19771971
C0K250,崙背,2015-11-28,23.75555,120.318925,0.9989966
C0G860,社頭,2015-11-28,23.897647,120.5862,0.9930175
C0X150,安定,2015-11-28,23.102614,120.227839,0.9994631
C0R590,里港,2015-11-28,22.77919,120.49459,0.10259641
C0E610,馬都安,2015-11-28,24.451272,120.930192,0.00070168846
C0E550,明德,2015-11-28,24.583486,120.885411,0.99850255
C0R150,三地門,2015-11-28,22.709889,120.639944,0.8777077
C0G910,花壇,2015-11-28,24.032076,120.549461,0.99948084
C1D400,鳥嘴山,2015-11-28,24.71909,121.28387,5.728182e-07
C0K500,元長,2015-11-28,23.64981,120.315024,0.9993356
C0F0B0,石岡,2015-11-28,24.276061,120.777644,7.694156e-07
C2V250,甲仙,2015-11-28,23.080106,120.591758,8.156753e-08
C0SA20,金崙山,2015-11-28,22.567419,120.959667,0.001715721
C0V350,溪埔,2015-11-28,22.738578,120.446797,0.99632007
C0M660,溪口,2015-11-28,23.604131,120.403569,0.99636006
C1S880,壽卡,2015-11-28,22.238911,120.858903,0.85932416
72D680,桃改新埔分場,2015-11-28,24.834444,121.066111,0.99653554
