站號,站名,日期,lat,lon,BLBTSLS
C0R710,龍磐,2015-02-10,21.931672,120.838942,0.9965902
C1F9D1,白毛台,2015-02-10,24.158325,120.886933,5.9787015e-09
C0G940,竹塘,2015-02-10,23.848253,120.386764,2.7593123e-09
467590,恆春,2015-02-10,22.003897,120.746339,0.95820874
C1O850,環湖,2015-02-10,23.148617,120.418633,7.2577414e-08
C0U710,太平山,2015-02-10,24.505486,121.525656,4.0765237e-08
C0E820,獅潭,2015-02-10,24.539133,120.920042,1.80531e-08
C0V880,興達,2015-02-10,22.8778,120.2127,2.09319e-08
C0S890,關山,2015-02-10,23.0395,121.175017,7.8217704e-07
C0SB30,新蘭,2015-02-10,22.869214,121.223228,4.4030236e-05
C2R970,屏科大,2015-02-10,22.648275,120.619247,1.2884847e-09
K2F750,種苗繁殖,2015-02-10,24.225972,120.800917,5.0343028e-09
C1Z130,銅門,2015-02-10,23.965694,121.492842,3.8254774e-07
C0AD40,土城,2015-02-10,24.973208,121.445169,5.7516763e-07
CAN140,六官養殖協會,2015-02-10,23.22881,120.29962,3.2031625e-08
C0X180,山上,2015-02-10,23.0757,120.363253,1.1952825e-08
C0F9Z0,雪山東峰,2015-02-10,24.388792,121.268675,3.4334843e-08
C1M480,獨立山,2015-02-10,23.537022,120.607797,5.6941327e-09
C0X220,學甲,2015-02-10,23.230367,120.182187,6.69135e-08
467650,日月潭,2015-02-10,23.881325,120.90805,6.11837e-09
C0K600,箔子寮,2015-02-10,23.6197,120.14,6.200101e-08
C0G830,埤頭,2015-02-10,23.866003,120.452806,2.8630152e-09
C0S950,七塊厝,2015-02-10,22.954453,121.229922,1.4388198e-07
467110,金門,2015-02-10,24.407306,118.289281,3.1428257e-08
C0AH80,深坑,2015-02-10,25.002703,121.628328,7.353251e-07
467990,馬祖,2015-02-10,26.169269,119.923419,6.2997806e-08
C0A970,三貂角,2015-02-10,25.007606,122.002058,1.4074773e-07
C2D730,寶山農場,2015-02-10,24.732444,120.976153,1.8645277e-07
C0K430,褒忠,2015-02-10,23.690938,120.303634,3.792418e-07
467480,嘉義,2015-02-10,23.495925,120.432906,3.3781848e-07
C2E540,後龍,2015-02-10,24.606489,120.783933,7.741594e-06
C0V400,阿公店,2015-02-10,22.804194,120.355528,1.5698864e-09
C0R440,大漢山,2015-02-10,22.405264,120.753181,2.2707496e-08
C0K280,四湖,2015-02-10,23.630414,120.227125,1.1265323e-06
C1F9B1,桐林,2015-02-10,24.066172,120.735194,2.6499578e-09
C2H9U0,鳳鵬,2015-02-10,23.763919,120.788061,2.85169e-09
C0K390,土庫,2015-02-10,23.679029,120.395574,2.3803188e-09
C1I450,望鄉山,2015-02-10,23.594153,120.944286,2.2584999e-08
C0E910,海埔,2015-02-10,24.648767,120.772435,7.8152404e-08
B2E890,畜試北區分所,2015-02-10,24.527806,120.770972,5.0078783e-05
C0R750,四林格山,2015-02-10,22.076989,120.802439,0.9999728
C0F0C0,中坑,2015-02-10,24.248517,120.903319,1.0188676e-08
C1I121,大鞍,2015-02-10,23.678381,120.760017,7.38991e-09
72U480,花改蘭陽分場,2015-02-10,24.686306,121.716583,3.1925956e-07
C0A770,科教館,2015-02-10,25.096356,121.516507,6.151048e-07
C0AJ60,六塊厝,2015-02-10,25.24,121.4481,6.464083e-07
C0R620,墾雷,2015-02-10,21.900836,120.855269,0.96943104
467420,永康,2015-02-10,23.038386,120.2367,1.805496e-08
467300,東吉島,2015-02-10,23.25695,119.667467,0.98505676
C0I410,名間,2015-02-10,23.837053,120.701447,2.7771956e-09
A2C560,農工中心,2015-02-10,24.985917,121.239833,5.29543e-07
C0V740,旗山,2015-02-10,22.888614,120.483597,1.805131e-08
C0Z061,玉里,2015-02-10,23.3215,121.339656,3.7990895e-07
C0S840,南田,2015-02-10,22.279725,120.889208,0.9999861
C1I470,杉林溪,2015-02-10,23.639517,120.786444,8.575733e-09
C1X040,東原,2015-02-10,23.291597,120.463822,3.2843543e-09
C0R660,枋寮,2015-02-10,22.367722,120.590647,8.560971e-10
C1R120,上德文,2015-02-10,22.763272,120.704442,2.5623073e-08
C0K450,大埤,2015-02-10,23.646074,120.431537,2.2515396e-09
C0UA00,土場,2015-02-10,24.576533,121.495333,6.802482e-08
467080,宜蘭,2015-02-10,24.763975,121.756528,1.9642806e-07
C0N030,四草,2015-02-10,23.0235,120.1116,1.491072e-07
C0V650,彌陀,2015-02-10,22.783806,120.246361,3.4588874e-09
C0D660,新竹市東區,2015-02-10,24.798681,120.986942,5.3265745e-07
82S580,茶改東部分場,2015-02-10,22.907694,121.130139,2.8628975e-07
C0SB40,興隆,2015-02-10,22.913661,121.257469,5.5833885e-07
C0C710,大溪永福,2015-02-10,24.892936,121.324975,4.6761872e-07
C0FA20,溫寮,2015-02-10,24.372177,120.583125,5.9267695e-05
C0V640,湖內,2015-02-10,22.887139,120.2445,1.9715225e-08
C0R910,下寮,2015-02-10,22.3929,120.5548,3.3862269e-09
C0Z020,明里,2015-02-10,23.208717,121.262342,1.7406666e-07
C0M770,嘉義梅山,2015-02-10,23.585398,120.555587,3.6087953e-09
G2F820,農業試驗所,2015-02-10,24.031261,120.688133,1.2676985e-06
C0C660,楊梅,2015-02-10,24.912375,121.143047,3.7191265e-07
C1E511,新開,2015-02-10,24.347703,120.827019,3.47269e-09
G2F820,農試所(霧峰),2015-02-10,24.031261,120.688133,1.2676985e-06
C1I070,和社,2015-02-10,23.591131,120.888861,2.7703708e-09
C2F000,大肚,2015-02-10,24.15295,120.572117,4.3495194e-09
C1S850,豐南,2015-02-10,23.122139,121.262389,1.1090675e-07
C2A920,富貴角,2015-02-10,25.263783,121.565258,5.915608e-07
CAH030,茶改場竹圍站,2015-02-10,23.860083,120.637528,2.8214304e-09
C0T960,光復,2015-02-10,23.660694,121.424964,1.6500884e-06
C0F9M0,豐原,2015-02-10,24.254322,120.720692,5.9709436e-08
C0R720,旭海,2015-02-10,22.205403,120.887614,0.999937
C0V710,苓雅,2015-02-10,22.622742,120.330669,2.097189e-09
C0C740,觀音工業區,2015-02-10,25.064764,121.114856,2.4351891e-06
CAC040,拉拉山,2015-02-10,24.699317,121.427133,3.0483164e-08
C0V790,萬山,2015-02-10,22.905944,120.688056,2.6534175e-09
U2HA30,臺大和社,2015-02-10,23.590856,120.888864,2.7703762e-09
C0AJ90,澳底,2015-02-10,25.0552,121.9253,1.157577e-07
C0Z100,東華,2015-02-10,23.89525,121.549833,2.503461e-06
C0G970,三豐,2015-02-10,23.882,120.2895,2.0063121e-06
V2K610,大庄合作社,2015-02-10,23.8068,120.367939,7.14888e-07
C0V900,汕尾,2015-02-10,22.4782,120.4151,2.4064533e-09
C1R630,龍泉,2015-02-10,22.66701,120.59091,1.2543614e-09
C1AC50,關渡,2015-02-10,25.133486,121.469331,5.4304707e-07
C0F9I0,神岡,2015-02-10,24.272481,120.658314,7.999963e-08
C0K460,斗南,2015-02-10,23.678734,120.478359,3.0507694e-09
467410,臺南,2015-02-10,22.993239,120.204772,1.6300723e-08
C2O810,曾文,2015-02-10,23.219681,120.497328,4.073508e-08
467280,後龍,2015-02-10,24.648563,120.831834,5.961669e-08
C1F9J1,清水林,2015-02-10,24.071242,120.820419,3.936207e-09
C2A650,火燒寮,2015-02-10,25.002719,121.742892,7.1496785e-08
466930,竹子湖,2015-02-10,25.162078,121.544547,4.7349783e-08
C1I220,樟湖,2015-02-10,23.905333,120.846983,5.2610822e-09
C0I390,仁愛,2015-02-10,24.022122,121.132206,7.462588e-09
C0Z300,東里,2015-02-10,23.26853,121.30547,3.5322742e-07
C1V590,新發,2015-02-10,23.057019,120.646064,9.362503e-09
C0K510,水林,2015-02-10,23.572924,120.24597,5.950434e-08
72S590,東改賓朗果園,2015-02-10,22.813889,121.071278,2.594644e-06
82A750,茶改北部分場,2015-02-10,24.955778,121.631222,4.1439748e-08
C1A750,石碇服務區,2015-02-10,25.00872,121.646242,6.7165075e-07
C0X300,鹿寮,2015-02-10,23.386047,120.477331,2.4321e-09
G2AI50,關渡,2015-02-10,25.11575,121.492,6.540367e-07
C0K590,雲林東勢,2015-02-10,23.674192,120.255721,3.7865817e-07
C0A570,桶後,2015-02-10,24.848222,121.597992,1.02790146e-07
C1S800,華源,2015-02-10,22.657883,121.02325,7.244192e-05
C0G720,溪州,2015-02-10,23.851589,120.499093,2.973308e-09
C1V160,達卡努瓦,2015-02-10,23.279811,120.705319,9.502779e-09
C2M410,馬頭山,2015-02-10,23.324361,120.582017,3.1660419e-09
C0V850,蚵仔寮,2015-02-10,22.7256,120.2527,2.573223e-09
C0S740,池上,2015-02-10,23.119628,121.209469,2.0666428e-07
C1V390,尖山,2015-02-10,22.813153,120.367789,1.5304169e-09
C0AH70,松山,2015-02-10,25.04871,121.55042,9.2423227e-07
C0N010,鯤鯓國小,2015-02-10,23.1879,120.0889,8.4771744e-07
C0R550,新埤,2015-02-10,22.467947,120.582894,7.9005724e-10
C0SA60,知本（水試所）,2015-02-10,22.702394,121.082761,0.014559786
C0T9I0,豐濱,2015-02-10,23.583897,121.514806,1.5040713e-06
C0UB00,淡江大學蘭陽校園,2015-02-10,24.823239,121.730383,4.421911e-08
C0W240,九宮,2015-02-10,24.423753,118.240186,4.1509363e-08
C0T9N0,富里,2015-02-10,23.171639,121.249378,1.2048773e-07
U2HA50,臺大竹山,2015-02-10,23.756972,120.681556,2.8760851e-09
C0V840,鳳鼻頭,2015-02-10,22.5083,120.3591,2.2083069e-09
C0X140,西港,2015-02-10,23.125608,120.203108,1.04763735e-07
72D080,桃改五峰分場,2015-02-10,24.612194,121.157167,1.4743732e-08
C2H9P0,伊拿谷,2015-02-10,23.963211,121.088264,4.970482e-09
C2H9F0,柑林,2015-02-10,24.018658,120.847072,3.1554317e-09
C0TA20,加灣,2015-02-10,24.082025,121.608944,7.2297763e-07
C0V530,阿蓮,2015-02-10,22.883208,120.327508,7.0494304e-09
C1O880,關山,2015-02-10,23.173397,120.594092,3.5657652e-09
C0E791,卓蘭,2015-02-10,24.3126,120.8244,3.491299e-09
C1I030,武界,2015-02-10,23.913225,121.052483,6.6363626e-09
C0R520,崁頂,2015-02-10,22.514781,120.506914,3.1668634e-09
C0R341,牡丹,2015-02-10,22.130036,120.792639,9.18289e-08
C0R930,萬丹,2015-02-10,22.5885,120.4851,7.812118e-10
C0S760,紅石,2015-02-10,23.069131,121.126219,1.9775408e-08
C1M610,石磐龍,2015-02-10,23.496606,120.663506,7.013448e-09
C0UA10,鴛鴦湖,2015-02-10,24.590269,121.412228,2.9968298e-08
V2C260,八德蔬果,2015-02-10,24.978508,121.281819,6.8578015e-07
C0R800,丹路,2015-02-10,22.204481,120.750989,2.2121103e-08
C0G920,永靖,2015-02-10,23.924703,120.547533,1.4502137e-07
C2M950,太和,2015-02-10,23.538372,120.702961,8.9395416e-09
C1A630,下盆,2015-02-10,24.771003,121.538622,1.1188666e-07
B2N890,畜產試驗所,2015-02-10,23.058972,120.336406,4.999453e-09
C0UA30,白嶺,2015-02-10,24.527819,121.519031,3.8891116e-08
C1V580,溪南(特生中心),2015-02-10,23.084972,120.788475,1.4490975e-08
C1T970,大農,2015-02-10,23.615233,121.413331,1.1898359e-06
E2S960,林試太麻里2,2015-02-10,22.598014,120.989761,0.0008365916
C0R650,竹田,2015-02-10,22.58486,120.54344,7.812118e-10
C1H900,清流,2015-02-10,24.080775,120.962997,4.611971e-09
C1C510,水尾,2015-02-10,24.940081,121.087161,5.902517e-07
C0F9X0,大雅(中科園區),2015-02-10,24.21528,120.62445,3.978637e-06
C0SB60,白守蓮,2015-02-10,23.126769,121.401914,1.656281e-05
C0O970,虎頭埤,2015-02-10,23.021375,120.347878,2.757125e-08
C0C730,中大臨海站,2015-02-10,24.966126,121.008581,2.5072912e-05
C0X250,新營,2015-02-10,23.310689,120.316681,2.0595788e-08
C0V700,三民,2015-02-10,22.645017,120.311233,2.097189e-09
C0U870,大礁溪,2015-02-10,24.791042,121.675047,4.2601418e-08
C0E870,高鐵苗栗,2015-02-10,24.60725,120.826094,6.8906793e-06
A2K570,古坑花卉中心,2015-02-10,23.63353,120.55239,3.9129495e-09
C0M860,新美,2015-02-10,23.338017,120.683169,5.268563e-09
C1E701,八卦,2015-02-10,24.491756,120.927619,1.756893e-08
C0I420,國姓,2015-02-10,24.037803,120.855072,3.1270384e-09
C2D720,關西工作站,2015-02-10,24.757275,121.184792,3.530183e-07
C0S960,香蘭,2015-02-10,22.587569,120.993375,0.0008365916
C0R260,春日,2015-02-10,22.370361,120.628306,1.18231e-09
72G600,臺中農改場,2015-02-10,24.003028,120.534389,2.3611145e-07
C0Z210,瑞穗,2015-02-10,23.5239,121.39021,1.7393817e-06
C0M820,達邦,2015-02-10,23.453994,120.749517,4.8750506e-09
C0V860,南寮,2015-02-10,22.7616,120.2339,3.5520331e-09
C0G740,大城,2015-02-10,23.852487,120.320935,1.8315149e-06
C0R920,塭仔,2015-02-10,22.4169,120.5197,3.5530021e-09
C0R470,高樹,2015-02-10,22.826389,120.600806,1.4368986e-09
C0R680,佳樂水,2015-02-10,21.993578,120.861633,0.9470106
C1O870,大棟山,2015-02-10,23.31157,120.52226,8.913117e-09
C0D360,梅花,2015-02-10,24.678347,121.208558,5.257423e-08
C0Z190,富世,2015-02-10,24.14743,121.6297,3.7613196e-07
C0AI10,屈尺,2015-02-10,24.92184,121.54475,7.34772e-07
B2U990,畜試東區分所,2015-02-10,24.669039,121.832561,3.7566053e-07
C0SB80,長濱漁港,2015-02-10,23.313644,121.459994,7.269746e-07
C0R240,來義,2015-02-10,22.527306,120.625111,1.0959845e-09
C0V910,大樹,2015-02-10,22.684645,120.432803,1.5340875e-09
C1R610,西大武山,2015-02-10,22.617719,120.7322,2.7551117e-08
C0G900,線西,2015-02-10,24.143358,120.443536,0.00012259647
C0M700,竹崎,2015-02-10,23.526178,120.555508,4.0043675e-09
C2E880,三義,2015-02-10,24.405478,120.749819,5.924147e-09
C0C720,竹圍,2015-02-10,25.112692,121.239824,5.9173004e-07
C0F9P0,清水,2015-02-10,24.312297,120.562242,4.4383254e-05
C0Z150,吉安光華,2015-02-10,23.930925,121.595153,2.8668037e-06
C1D640,外坪(五指山),2015-02-10,24.644447,121.090961,3.6868876e-08
C0F9O0,潭子,2015-02-10,24.213106,120.703933,7.1522294e-08
C2H9R0,卓社,2015-02-10,23.887894,121.000086,9.957041e-09
72T250,花蓮農改場,2015-02-10,23.975222,121.563889,6.731853e-07
C0E780,銅鑼,2015-02-10,24.489681,120.790853,8.790314e-08
C1T950,太安,2015-02-10,23.666719,121.370128,6.7167065e-08
C0E830,苑裡,2015-02-10,24.439714,120.653053,3.679009e-05
467270,田中,2015-02-10,23.873803,120.581286,2.3247486e-09
C0SA10,檳榔四格山,2015-02-10,22.810031,121.109308,1.276455e-06
C1T830,布洛灣,2015-02-10,24.17184,121.57127,1.1573794e-07
C0F970,大坑,2015-02-10,24.173142,120.722289,2.9358962e-06
C1U920,思源,2015-02-10,24.393125,121.347214,3.024877e-08
C0A931,三和,2015-02-10,25.233153,121.595236,8.076899e-08
C0I010,廬山,2015-02-10,24.033311,121.181808,1.1352466e-08
C2M940,日野賀,2015-02-10,23.434056,120.727169,7.666621e-09
C0R860,鼻頭,2015-02-10,22.1043,120.8979,0.9370246
C0UB20,壯圍,2015-02-10,24.7359,121.8163,3.6127508e-07
C0R790,九棚,2015-02-10,22.14195,120.889281,0.9999823
C0W110,東莒,2015-02-10,25.9652,119.98069,0.05860205
C1U930,粉鳥林,2015-02-10,24.497088,121.842479,4.448058e-08
C1I211,蘆竹湳,2015-02-10,23.934019,120.811994,3.2423344e-09
C0S830,長濱,2015-02-10,23.286817,121.411975,1.6011947e-07
C1F9F1,伯公龍,2015-02-10,24.272392,120.849047,5.7851044e-09
C0E810,西湖,2015-02-10,24.562947,120.7485,5.8746073e-06
C1I440,新高口,2015-02-10,23.478744,120.878939,1.537677e-08
C0O840,王爺宮,2015-02-10,23.222064,120.40085,4.073508e-08
C0T9G0,鳳林山,2015-02-10,23.735269,121.420131,3.904963e-07
C0X080,佳里,2015-02-10,23.173039,120.145086,7.339891e-08
C0FB70,大甲溪埔,2015-02-10,24.370625,120.620067,3.4535704e-05
C0Z310,清水斷崖,2015-02-10,24.218294,121.689142,2.3988892e-07
C0M680,太保,2015-02-10,23.455062,120.331455,3.1731048e-08
C1S820,金峰,2015-02-10,22.590969,120.933236,3.2637506e-06
C0AD10,八里,2015-02-10,25.150211,121.403947,5.9173004e-07
C2K240,草嶺,2015-02-10,23.59555,120.693461,6.78254e-09
C1SA70,都蘭,2015-02-10,22.87794,121.226881,5.5833885e-07
C0K440,二崙,2015-02-10,23.772797,120.408944,2.7567504e-09
C1A760,坪林交控,2015-02-10,24.94284,121.713442,9.324778e-08
C0F9N0,大里,2015-02-10,24.092464,120.701378,8.073084e-06
C0SA90,達仁林場,2015-02-10,22.264347,120.823972,1.5612999e-06
C1R290,石門山,2015-02-10,22.112611,120.756597,0.9999714
42HA10,萬大發電廠,2015-02-10,23.978875,121.139639,1.4373049e-08
C0R890,山海,2015-02-10,21.9878,120.7091,0.9122052
C0T9A0,月眉山,2015-02-10,23.809928,121.539828,3.5945604e-07
C0AC70,信義,2015-02-10,25.037822,121.564597,9.2423227e-07
C0K560,棋山,2015-02-10,23.68645,120.603417,3.5906762e-09
C2FB50,出雲,2015-02-10,24.206469,120.902794,6.8045938e-09
C1Z240,中平林道,2015-02-10,23.42115,121.26763,7.8470705e-08
U2H480,溪頭,2015-02-10,23.670306,120.798194,3.6506382e-09
C0M880,好美里,2015-02-10,23.3364,120.138,7.339891e-08
C0T9E0,大坑,2015-02-10,23.880628,121.581981,4.500928e-07
C0K530,臺西,2015-02-10,23.701547,120.197559,1.3132541e-06
C1E900,國一N128K,2015-02-10,24.560997,120.844186,4.616559e-06
C0AJ50,水湳洞,2015-02-10,25.123695,121.862238,1.8256346e-06
C0AI20,白沙灣,2015-02-10,25.283128,121.519058,1.4545687e-06
C0A860,大坪,2015-02-10,25.165914,121.632969,5.5392466e-08
C1U850,觀音海岸,2015-02-10,24.38319,121.77856,4.3462705e-08
C2K610,草嶺石壁,2015-02-10,23.602469,120.707731,7.3158613e-09
C0U950,鶯子嶺,2015-02-10,24.89754,121.79244,4.243258e-08
C0O900,善化,2015-02-10,23.112883,120.297219,5.76099e-09
C0K550,蔦松,2015-02-10,23.514319,120.229736,5.6984383e-08
E2P980,林試六龜中心,2015-02-10,22.991703,120.645722,2.4028897e-09
C0E590,通霄,2015-02-10,24.471892,120.704622,9.505122e-05
C1I310,西巒,2015-02-10,23.754486,120.883956,5.1099547e-09
C0A550,泰平,2015-02-10,24.971197,121.823711,3.281801e-08
C0I360,水里,2015-02-10,23.812553,120.849792,2.6713634e-09
C0R830,高士,2015-02-10,22.121825,120.836781,0.9999796
C1I101,溪頭,2015-02-10,23.661789,120.807647,8.025575e-09
C0AJ20,野柳,2015-02-10,25.20703,121.690021,1.827603e-06
C0B060,暖暖,2015-02-10,25.0957,121.7403,1.0207494e-06
C1H920,長豐,2015-02-10,24.102039,120.879897,4.018093e-09
C0V360,內門,2015-02-10,22.975481,120.466769,1.38144935e-08
C0R850,林邊,2015-02-10,22.4634,120.5339,3.1668634e-09
C0E930,龍鳳,2015-02-10,24.700034,120.859125,7.8481335e-08
C0U910,冬山,2015-02-10,24.63373,121.7937,3.7566053e-07
C1E721,泰安,2015-02-10,24.489017,120.968036,8.641873e-09
82H320,茶改中部分場,2015-02-10,23.875611,120.913583,2.5487994e-09
C0M750,布袋,2015-02-10,23.380878,120.167789,7.668437e-08
C1S860,利嘉,2015-02-10,22.809417,121.050528,2.2028264e-08
72C440,桃園農改,2015-02-10,24.950944,121.030583,1.0243165e-05
E2S980,林試太麻里1,2015-02-10,22.598922,120.980044,4.0271192e-05
C0X170,關廟,2015-02-10,22.963017,120.327797,5.2366143e-09
C0V720,林園,2015-02-10,22.507747,120.394511,2.0959374e-09
C1I510,線浸林道,2015-02-10,23.761508,120.832956,3.3680043e-09
C0D690,外湖,2015-02-10,24.917735,120.968711,2.5072912e-05
C0C750,新興坑尾,2015-02-10,25.0061,121.0971,1.1919233e-06
B2Q810,畜試南區分所,2015-02-10,21.945583,120.802167,0.9470106
C0S790,金崙,2015-02-10,22.538122,120.966875,1.920922e-06
C0AH90,福山植物園,2015-02-10,24.760717,121.58135,1.13622505e-07
C0I540,奇萊稜線,2015-02-10,24.109231,121.326456,4.089217e-08
C0M850,表湖,2015-02-10,23.24186,120.64166,5.414396e-09
C0S770,大溪山,2015-02-10,22.478475,120.943325,2.6186652e-07
C0AG80,中和,2015-02-10,24.991622,121.491792,9.2423227e-07
C0T790,大禹嶺,2015-02-10,24.186117,121.316086,2.7853028e-08
C0T9B0,水源,2015-02-10,23.991861,121.537169,3.005677e-07
C0R840,牡丹池山,2015-02-10,22.168389,120.841225,2.1210792e-06
C1I131,桶頭,2015-02-10,23.641944,120.654117,3.3871506e-09
CAL110,布袋國中,2015-02-10,23.35893,120.18026,1.8469095e-08
467571,新竹,2015-02-10,24.827853,121.014219,6.025033e-07
C0Z290,赤柯山,2015-02-10,23.36893,121.38293,8.953588e-08
C0X280,將軍,2015-02-10,23.214999,120.13577,7.339891e-08
C0S690,太麻里,2015-02-10,22.60902,120.98533,2.719934e-07
C0U880,北關,2015-02-10,24.9072,121.8734,3.1033885e-06
C1H860,瑞岩,2015-02-10,24.123772,121.18345,1.2538501e-08
C0G810,埔心,2015-02-10,23.947633,120.525456,1.4015836e-07
C0U970,大福,2015-02-10,24.80064,121.81389,2.0295019e-07
C2H9N0,仁愛東眼,2015-02-10,24.026875,121.1205,9.7653485e-09
C1E670,南礦,2015-02-10,24.538278,121.002836,9.608104e-09
C0M520,東後寮,2015-02-10,23.369908,120.248065,1.8090466e-08
C1E461,松安,2015-02-10,24.397972,120.986022,8.0570475e-09
72G600,臺中農改,2015-02-10,24.003028,120.534389,2.3611145e-07
C2N160,西拉雅風管處,2015-02-10,23.189481,120.335297,2.8723369e-08
C2M970,碧湖,2015-02-10,23.568632,120.624165,6.141438e-09
C0A640,石碇,2015-02-10,24.993969,121.662917,7.7919466e-08
E2S960,林試太麻里2,2015-02-10,22.598,120.99775,0.0013348814
C0F9Y0,桃山,2015-02-10,24.432739,121.303808,3.6258182e-08
C1I020,萬大,2015-02-10,23.979817,121.132261,7.510624e-09
C0U940,羅東,2015-02-10,24.68184,121.74934,3.5524863e-07
C0M650,朴子,2015-02-10,23.43463,120.23902,7.4973016e-08
C1I500,大尖山,2015-02-10,23.858572,120.994889,1.5726265e-08
C0G820,田尾,2015-02-10,23.901669,120.509389,1.4502137e-07
E2K600,四湖植物園,2015-02-10,23.676986,120.163433,1.3115982e-06
C0S730,綠島,2015-02-10,22.6672,121.47533,2.5546642e-06
12Q970,東港工作站,2015-02-10,22.479997,120.466058,3.3835217e-09
C0E430,南庄,2015-02-10,24.601775,121.000214,1.7700579e-08
C1TA00,太魯閣,2015-02-10,24.15773,121.6236,2.4632854e-07
466920,臺北,2015-02-10,25.037658,121.514853,9.2423227e-07
C0R600,舊泰武,2015-02-10,22.588194,120.664944,6.8122556e-09
C1I260,北坑,2015-02-10,23.9246,121.006903,3.7002852e-09
466910,鞍部,2015-02-10,25.182586,121.529731,4.670451e-08
C1I230,九份二山,2015-02-10,23.961944,120.845,4.5974966e-09
C2A660,瑞芳,2015-02-10,25.113169,121.801147,8.9974655e-08
C0R270,琉球嶼,2015-02-10,22.332244,120.362236,1.18231e-09
C1T990,高寮,2015-02-10,23.394239,121.356808,1.4558831e-06
C0G620,芬園,2015-02-10,24.015678,120.6213,5.427437e-08
C1Z140,荖溪,2015-02-10,23.890575,121.45964,8.472788e-08
C1I201,中心崙,2015-02-10,23.728722,120.712097,3.6323713e-09
C1I400,凌霄,2015-02-10,24.018778,121.004456,9.5662465e-09
C1M640,十字,2015-02-10,23.492153,120.753683,7.773966e-09
G2P820,農試鳳山分所,2015-02-10,22.646611,120.356083,1.895907e-09
C0Z270,蕃薯寮,2015-02-10,23.73835,121.540108,1.0001077e-06
C0F9Q0,外埔,2015-02-10,24.347817,120.705686,1.2119612e-07
C0K580,高鐵雲林,2015-02-10,23.737456,120.417944,2.368562e-09
C2I090,鳳凰,2015-02-10,23.728081,120.787347,2.7457776e-09
C0U990,員山,2015-02-10,24.74435,121.72247,3.6723918e-07
C0V770,大社,2015-02-10,22.730306,120.346639,2.2868698e-09
C0X120,麻豆,2015-02-10,23.183289,120.248611,6.691363e-08
C0C670,龍潭,2015-02-10,24.870056,121.221389,1.0931045e-07
C0D680,香山濕地,2015-02-10,24.783581,120.914988,5.838047e-07
C0S980,勝林山,2015-02-10,22.430439,120.8938,2.8216364e-08
C0V730,大寮,2015-02-10,22.605614,120.395717,6.689519e-10
C0R570,麟洛,2015-02-10,22.65078,120.52719,1.9290938e-09
C2M930,石卓,2015-02-10,23.478744,120.702264,7.714941e-09
C0G9B0,和美,2015-02-10,24.105169,120.492131,2.2537863e-07
CAG100,王功漁港,2015-02-10,23.96824,120.32586,3.874363e-06
C0X290,北門,2015-02-10,23.267772,120.125481,7.339891e-08
C2F930,大甲,2015-02-10,24.347667,120.640403,9.023018e-06
C0D650,湖口,2015-02-10,24.904794,121.043628,5.3759154e-06
C0E420,竹南,2015-02-10,24.708978,120.888897,4.81332e-07
C0U780,五結,2015-02-10,24.68637,121.79794,3.7566053e-07
C1I250,鯉潭,2015-02-10,23.961922,120.991131,4.018093e-09
C0R130,阿禮,2015-02-10,22.742908,120.743678,5.865177e-09
C0X100,臺南市北區,2015-02-10,23.010394,120.194228,1.9379678e-08
C0S920,金峰嘉蘭,2015-02-10,22.594789,120.960825,2.9595398e-05
C0V490,新興,2015-02-10,22.627422,120.298803,2.0959374e-09
C0F9K0,大安,2015-02-10,24.345061,120.588025,3.336006e-05
72N100,臺南農改,2015-02-10,23.0605,120.342194,4.993392e-09
467290,古坑,2015-02-10,23.633639,120.551889,3.9129495e-09
C2E970,八甲,2015-02-10,24.535811,120.795983,8.437052e-08
C0V440,鳳山,2015-02-10,22.646653,120.356122,1.895907e-09
C1T940,大觀,2015-02-10,23.714206,121.373133,4.952925e-07
72T250,花蓮農改,2015-02-10,23.975222,121.563889,6.731853e-07
C0E740,造橋,2015-02-10,24.637056,120.864778,6.3723505e-08
C0R100,尾寮山,2015-02-10,22.833111,120.683889,6.5143126e-09
A2K630,臺大雲林校區,2015-02-10,23.730628,120.423903,2.368562e-09
C0D580,寶山,2015-02-10,24.735006,121.025192,6.724834e-08
E2P990,林試扇平站,2015-02-10,22.9677,120.6857,8.39616e-09
C0AI30,三重,2015-02-10,25.057328,121.500629,6.151048e-07
C0AH00,汐止,2015-02-10,25.066881,121.658778,1.8276065e-06
C1Z040,立山,2015-02-10,23.443356,121.327375,4.2694109e-07
C0W130,花嶼,2015-02-10,23.40007,119.32276,0.996242
C0A950,鼻頭角,2015-02-10,25.129036,121.923372,1.209141e-07
C0K470,林內,2015-02-10,23.748675,120.609642,3.7150722e-09
C2F990,摩天嶺,2015-02-10,24.322458,120.936819,1.0392583e-08
82C160,茶改場,2015-02-10,24.908472,121.185333,2.863927e-07
C0Z320,清水林道,2015-02-10,23.27125,121.188272,1.3236169e-07
C0R760,南仁湖,2015-02-10,22.084681,120.863353,0.9999728
C0M670,大林,2015-02-10,23.600616,120.45841,9.692959e-07
C0M800,茶山,2015-02-10,23.299075,120.664767,3.9258e-09
C0A9C0,天母,2015-02-10,25.117494,121.537169,5.4280787e-07
72K220,南改斗南分場,2015-02-10,23.634556,120.477333,3.6431398e-09
72AI40,桃改樹林分場,2015-02-10,24.944503,121.386972,5.2371115e-07
C0S910,蘭嶼燈塔,2015-02-10,22.081197,121.503117,0.9984319
C0B050,八斗子,2015-02-10,25.144754,121.79167,2.2286306e-06
C0U900,內城,2015-02-10,24.71813,121.68766,1.7855346e-07
C0X320,柳營,2015-02-10,23.253328,120.375253,6.6575886e-08
C0M790,新港,2015-02-10,23.553269,120.345728,3.5683936e-08
C0F9T0,西屯,2015-02-10,24.179494,120.641275,7.908291e-06
C0SA30,都歷,2015-02-10,23.020333,121.323642,4.039399e-06
C0C620,蘆竹,2015-02-10,25.084275,121.265767,5.193458e-07
C0R730,大坪頂,2015-02-10,22.024633,120.69355,0.99961513
C0AJ40,石門,2015-02-10,25.273672,121.601198,4.5359135e-07
C0E750,苗栗,2015-02-10,24.564569,120.824575,5.020712e-06
C0T870,鯉魚潭,2015-02-10,23.935639,121.508944,1.3674461e-06
C1V170,排雲,2015-02-10,23.463619,120.954147,3.3696317e-08
C2H950,中寮,2015-02-10,23.884447,120.766406,2.9809284e-09
C0R350,貓鼻頭,2015-02-10,21.921774,120.7358,0.97021264
C0V660,岡山,2015-02-10,22.797078,120.294958,2.2780107e-09
C1H941,雙冬,2015-02-10,23.967378,120.802189,3.762982e-09
C0AJ70,田寮,2015-02-10,25.2698,121.4886,1.6283419e-06
C0AI00,五股,2015-02-10,25.07445,121.42728,8.9132124e-07
C0Z280,德武,2015-02-10,23.47426,121.41071,8.632656e-07
C0R700,枋山,2015-02-10,22.246844,120.661086,9.465373e-08
C0C460,復興,2015-02-10,24.820208,121.352281,7.777796e-08
E2H360,蓮華池,2015-02-10,23.918333,120.885278,3.3249332e-09
C0M640,中埔,2015-02-10,23.42538,120.5229,4.1164245e-09
C0W140,金沙,2015-02-10,24.488292,118.408778,3.3471228e-08
C2A540,四堵,2015-02-10,24.8926,121.745736,7.6665216e-08
C0ACA0,新莊,2015-02-10,25.051478,121.446756,1.0047365e-06
C0R220,潮州,2015-02-10,22.534361,120.54,8.6330704e-10
U2HA40,臺大內茅埔,2015-02-10,23.689722,120.851117,2.4412419e-09
467490,臺中,2015-02-10,24.145736,120.684075,2.704453e-06
C0U960,翠峰湖,2015-02-10,24.510856,121.608044,4.0301224e-08
E2HA20,林試畢祿溪站,2015-02-10,24.226944,121.308522,1.7608617e-08
C0V890,前鎮,2015-02-10,22.5718,120.3117,2.2073425e-09
467620,蘭嶼,2015-02-10,22.036969,121.558339,0.999973
C1F941,雪嶺,2015-02-10,24.280586,121.026642,2.2710356e-08
C2H9E0,國姓南港,2015-02-10,23.911108,120.846556,5.493318e-09
C0AC80,文山,2015-02-10,25.00235,121.575728,7.34772e-07
C0F9R0,龍井,2015-02-10,24.184536,120.528972,6.005303e-05
C0M760,民雄,2015-02-10,23.551754,120.428457,3.300694e-07
C0UA40,西德山,2015-02-10,24.560647,121.752608,3.571778e-08
C1T920,中興,2015-02-10,23.769503,121.498653,1.9746742e-06
C0D550,雪霸,2015-02-10,24.526972,121.11605,1.7499701e-08
C2F860,梨山,2015-02-10,24.247522,121.243669,1.803142e-08
C0R320,車城,2015-02-10,22.0744,120.716247,0.9122052
C1S870,南美山,2015-02-10,23.15025,121.382333,6.4741454e-07
C0B020,基隆嶼,2015-02-10,25.19141,121.78391,1.8256346e-06
C1U501,牛鬥,2015-02-10,24.637836,121.573656,1.52776e-07
C0M730,嘉義市東區,2015-02-10,23.457673,120.460531,5.044124e-07
C0S700,知本,2015-02-10,22.684866,121.005642,3.1997342e-07
C1N001,沙崙,2015-02-10,22.935472,120.309406,7.0494304e-09
C0V760,橋頭,2015-02-10,22.757806,120.30575,2.1984015e-09
C0G960,福寶,2015-02-10,24.0443,120.3814,3.2986958e-07
C0X210,白河,2015-02-10,23.347466,120.414427,6.243142e-08
C0S810,東河,2015-02-10,22.972672,121.303986,6.219923e-07
C2R170,屏東,2015-02-10,22.66027,120.49403,1.961387e-09
C0R670,楓港,2015-02-10,22.190131,120.692156,9.465373e-08
C0FA50,霧峰,2015-02-10,24.0419,120.6995,3.1932855e-06
C0UB10,蘇澳,2015-02-10,24.5969,121.8571,9.187095e-08
C0G950,防潮門,2015-02-10,24.1835,120.4871,7.31313e-05
C0M740,六腳,2015-02-10,23.492871,120.290625,3.3826332e-08
C1R250,力里,2015-02-10,22.428117,120.629228,1.0959845e-09
C0K330,虎尾,2015-02-10,23.719183,120.442036,2.3619078e-09
C2FA00,烏石坑,2015-02-10,24.273503,120.947617,1.0371949e-08
C0V620,永安,2015-02-10,22.82315,120.236856,3.4588874e-09
C1I330,楓樹林,2015-02-10,23.986803,121.076117,9.694382e-09
C0W200,湖西,2015-02-10,23.596314,119.67275,0.9879933
72Q010,高雄農改場,2015-02-10,22.709333,120.525889,1.8972273e-09
C0SA40,瑞和,2015-02-10,22.974361,121.156697,1.0317018e-06
C0C680,龜山,2015-02-10,25.02846,121.38656,4.501658e-08
C2V260,月眉,2015-02-10,22.971003,120.539853,1.9416966e-09
C0V450,鳳森,2015-02-10,22.545064,120.392592,6.79029e-10
C0U720,南山,2015-02-10,24.43742,121.38167,4.7483272e-08
A2N290,臺南蘭花園區,2015-02-10,23.340258,120.379661,6.6575886e-08
C0R560,新園,2015-02-10,22.5434,120.461558,3.1668634e-09
C0U890,三星,2015-02-10,24.66812,121.65302,1.5379372e-07
C1V300,御油山,2015-02-10,23.001983,120.715364,1.4225229e-08
C0U600,礁溪,2015-02-10,24.817539,121.765608,1.9283577e-07
C1T980,龍澗,2015-02-10,24.023289,121.411328,5.6938315e-08
C0D670,海天一線,2015-02-10,24.831986,120.914438,6.631563e-07
C0SA00,歷坵,2015-02-10,22.520969,120.89185,1.7103868e-07
C0M710,東石,2015-02-10,23.458927,120.15385,5.6984383e-08
C0M780,鹿草,2015-02-10,23.41134,120.30835,5.172529e-08
C0U520,雙連埤,2015-02-10,24.753033,121.641303,4.2405475e-08
C0B010,七堵,2015-02-10,25.094819,121.71713,1.52954e-06
C0R480,長治,2015-02-10,22.693128,120.542622,9.932265e-10
C1V830,國三S383K,2015-02-10,22.781967,120.426475,1.1627042e-09
12Q980,恆春工作站,2015-02-10,22.079678,120.714425,0.9120991
C1O940,東山服務區,2015-02-10,23.286016,120.398472,6.070921e-08
C1U840,東澳嶺,2015-02-10,24.5378,121.8485,4.2897724e-08
C1D630,飛鳳山,2015-02-10,24.766464,121.119178,5.801472e-08
C0S940,石寧山,2015-02-10,23.223772,121.406639,2.3948593e-07
C0K410,北港,2015-02-10,23.573957,120.292802,3.643837e-08
C2M620,瑞里,2015-02-10,23.545133,120.675197,8.100099e-09
C0SB70,小港漁港,2015-02-10,23.158558,121.400431,3.9267198e-07
C2O950,安南,2015-02-10,23.076694,120.144861,2.025298e-08
C0F0E0,南湖圈谷,2015-02-10,24.363714,121.444667,6.354933e-08
467610,成功,2015-02-10,23.097486,121.373428,9.821118e-06
C0G890,伸港,2015-02-10,24.148933,120.484403,5.2860007e-05
C2E540,龍溪,2015-02-10,24.606489,120.783933,7.741594e-06
C1V200,梅山,2015-02-10,23.268447,120.823556,8.547922e-09
C0T9H0,加路蘭山,2015-02-10,23.682947,121.5274,2.763441e-07
C2O930,玉井,2015-02-10,23.126042,120.46055,7.2577414e-08
C1F911,新伯公,2015-02-10,24.221361,120.841069,4.773852e-09
C0R490,九如,2015-02-10,22.7405,120.490503,1.9290938e-09
C0X200,左鎮,2015-02-10,23.056758,120.408522,1.2928327e-08
C0SB50,叭嗡嗡,2015-02-10,23.047062,121.343223,8.1973945e-07
C1F891,稍來,2015-02-10,24.265689,121.001142,1.681438e-08
72N240,七股研究中心,2015-02-10,23.081672,120.062894,1.9311476e-07
C0C700,中壢,2015-02-10,24.977661,121.256375,6.153847e-07
C0M690,水上,2015-02-10,23.419734,120.388909,5.023577e-07
C0V690,鼓山,2015-02-10,22.623325,120.275575,2.0968411e-09
C0O860,大內,2015-02-10,23.11885,120.36083,3.936582e-09
C0Z200,萬榮,2015-02-10,23.709219,121.420106,1.3674461e-06
C0T9D0,和中,2015-02-10,24.26676,121.74103,4.043335e-07
C1O921,楠西,2015-02-10,23.183511,120.484083,6.351104e-08
C0AJ30,淡水觀海,2015-02-10,25.184591,121.408616,6.464083e-07
C0V810,左營,2015-02-10,22.67491,120.28491,2.4307552e-09
C0UA70,桃源谷,2015-02-10,24.962606,121.888875,3.3029448e-08
C0X130,官田,2015-02-10,23.193217,120.315422,2.989579e-08
C1H000,翠峰,2015-02-10,24.109397,121.205211,2.4346445e-08
C0UA90,石城,2015-02-10,24.980444,121.951214,1.7968392e-07
C1E681,南勢山,2015-02-10,24.421669,120.923831,9.363789e-09
C0A9F0,內湖,2015-02-10,25.079422,121.57545,9.2423227e-07
C0K291,宜梧,2015-02-10,23.536281,120.169329,6.160552e-08
C1K540,口湖,2015-02-10,23.585344,120.180517,6.2305084e-08
C0R780,滿州,2015-02-10,22.024403,120.839892,0.97563154
C0V870,文安,2015-02-10,22.8025,120.2164,3.5520331e-09
C0U650,玉蘭,2015-02-10,24.675286,121.587061,8.4560135e-08
C0R640,東港,2015-02-10,22.46247,120.44074,2.2073425e-09
K2E360,苗栗農改,2015-02-10,24.495722,120.829111,1.3402554e-07
C0AJ80,板橋,2015-02-10,25.0107,121.4489,5.9030634e-07
C0S660,下馬,2015-02-10,23.150427,121.070312,9.85246e-08
C1H9B1,阿眉,2015-02-10,24.1263,120.994672,1.46027626e-08
C0UA20,多加屯,2015-02-10,24.368614,121.373189,2.778193e-08
C0E730,頭份,2015-02-10,24.688247,120.912206,4.81332e-07
72V140,高改旗南分場,2015-02-10,22.857861,120.516667,1.3979914e-09
C0K480,莿桐,2015-02-10,23.761192,120.502372,2.7379539e-09
C0U980,坪林石牌,2015-02-10,24.86478,121.77396,6.160505e-08
C0T900,西林,2015-02-10,23.8119,121.441458,1.1214813e-06
C1I150,青雲,2015-02-10,23.793361,120.949378,3.2324239e-09
467350,澎湖,2015-02-10,23.565503,119.563094,0.99527115
C0G800,埔鹽,2015-02-10,24.000394,120.431683,3.2687953e-07
C0H960,草屯,2015-02-10,23.973672,120.68085,2.6628373e-09
C1V780,多納林道,2015-02-10,22.888028,120.737917,8.727579e-09
C0E920,通霄漁港,2015-02-10,24.498589,120.673876,0.00019853978
C0Z330,安通山,2015-02-10,23.290728,121.348528,1.5917506e-07
C0AH10,永和,2015-02-10,25.01125,121.508111,9.800691e-07
C0AK10,太平里,2015-02-10,25.134937,121.364899,1.0047365e-06
C2G640,鹿港,2015-02-10,24.0753,120.430481,3.1749065e-07
C1E890,國三N149K,2015-02-10,24.463414,120.680019,6.5498985e-05
C1R110,口社,2015-02-10,22.770111,120.645222,1.4545934e-09
C1M870,國三N285K,2015-02-10,23.550319,120.505833,3.7790504e-09
467050,新屋,2015-02-10,25.006744,121.047486,1.744758e-05
C1E480,鳳美,2015-02-10,24.554803,121.034747,6.107911e-09
C0M530,奮起湖,2015-02-10,23.493903,120.699253,9.00895e-09
C0C590,觀音,2015-02-10,25.027072,121.153317,2.104634e-07
C0T9M0,靜浦,2015-02-10,23.455167,121.495028,2.248328e-06
C2H9M0,發祥,2015-02-10,24.154094,121.164517,8.532774e-09
C0AI40,石牌,2015-02-10,25.115597,121.513139,5.9030634e-07
C1F871,上谷關,2015-02-10,24.203483,121.018644,1.0371949e-08
C2H9G0,百勝,2015-02-10,24.051142,120.909361,5.0391926e-09
C0G880,二水,2015-02-10,23.810742,120.6173,2.8847327e-09
C0R940,加祿堂,2015-02-10,22.3363,120.6217,1.3610122e-09
C0W220,北竿,2015-02-10,26.220358,119.974881,3.3754276e-08
C0O960,崎頂,2015-02-10,22.959547,120.369317,1.7169925e-09
C0S750,向陽,2015-02-10,23.248397,120.986133,1.9070384e-08
C0T9F0,水璉,2015-02-10,23.797131,121.542514,7.796709e-07
C1M600,頭凍,2015-02-10,23.406364,120.603339,5.3348983e-09
467660,臺東,2015-02-10,22.752211,121.154586,0.00011954351
C1D380,新埔,2015-02-10,24.84745,121.03834,3.8643523e-07
C2G980,田頭村,2015-02-10,23.8263,120.444175,2.757981e-09
C0V750,路竹,2015-02-10,22.854997,120.259439,1.95462e-09
C0N050,蚵寮,2015-02-10,23.301,120.1104,8.4771744e-07
72M700,南改鹿草分場,2015-02-10,23.416869,120.283061,5.4865144e-08
C1SA50,利嘉林道,2015-02-10,22.82325,121.009389,1.798639e-08
467550,玉山,2015-02-10,23.487614,120.959522,3.7278156e-08
C0A940,金山,2015-02-10,25.223628,121.643967,1.2081455e-06
C1V340,大津,2015-02-10,22.888322,120.645986,1.7274582e-09
C0W180,七美,2015-02-10,23.219333,119.444892,0.9949206
C1F9C1,白冷,2015-02-10,24.182844,120.929889,5.9340537e-09
K2E710,苗改生物防治研究中心,2015-02-10,24.422861,120.871833,4.848717e-08
C0N040,蘆竹溝,2015-02-10,23.2344,120.0961,8.4859016e-07
C2W230,畜試所澎湖,2015-02-10,23.628342,119.513206,0.98774976
C0R880,後壁湖,2015-02-10,21.9457,120.7457,0.8868075
C1I280,埔中,2015-02-10,23.820778,120.642594,2.9278588e-09
467790,墾丁雷達站,2015-02-10,21.948235,120.808028,0.9822164
C0W190,望安,2015-02-10,23.380564,119.494075,0.9941365
466881,新北,2015-02-10,24.9593,121.52,8.360804e-07
C0Z170,卓溪,2015-02-10,23.3443,121.3029,3.293123e-07
C0F850,東勢,2015-02-10,24.246428,120.833047,4.666896e-09
466900,淡水,2015-02-10,25.164889,121.448906,5.9173004e-07
C0I370,魚池,2015-02-10,23.895703,120.94135,3.2484935e-09
C0C630,大溪,2015-02-10,24.882853,121.265547,7.374586e-07
C0A520,山佳,2015-02-10,24.974944,121.402008,5.2371115e-07
C0I110,竹山,2015-02-10,23.761225,120.688156,2.8569382e-09
82H840,茶改南部分場,2015-02-10,23.762528,120.7405,3.0470475e-09
C0G660,溪湖,2015-02-10,23.94835,120.479122,1.4924136e-07
C1T800,洛韶,2015-02-10,24.204558,121.453956,5.4141303e-08
C1T810,慈恩,2015-02-10,24.192044,121.388386,3.1723967e-08
C1E451,象鼻,2015-02-10,24.368617,120.940228,9.363789e-09
C0AC60,三峽,2015-02-10,24.939025,121.369728,8.0454765e-07
C0I490,萬大林道,2015-02-10,23.928228,121.091411,1.5607215e-08
C1I290,豐丘,2015-02-10,23.668178,120.887417,3.3673748e-09
C1I320,奧萬大,2015-02-10,23.952956,121.178556,9.767491e-09
C2M910,嘉義大學,2015-02-10,23.471325,120.485903,3.8571373e-09
C0U770,南澳,2015-02-10,24.44935,121.81022,4.3200544e-08
C0A980,社子,2015-02-10,25.109508,121.469681,6.540367e-07
C0V800,六龜,2015-02-10,22.997889,120.633583,2.380487e-09
C1G9D0,國一S218K,2015-02-10,23.890641,120.493253,1.4015836e-07
C0E570,白沙屯,2015-02-10,24.549447,120.696803,0.00019853978
C2F9A0,中竹林,2015-02-10,24.103556,120.751061,3.6489745e-09
C0FA40,臺中電廠,2015-02-10,24.2146,120.4907,6.005303e-05
C2G9A0,畜試所彰化,2015-02-10,23.86045,120.557964,2.3247486e-09
C0H9C0,合歡山,2015-02-10,24.143442,121.272547,4.3499114e-08
C0X060,下營,2015-02-10,23.22695,120.256261,3.3490767e-08
G2M350,農試溪口農場,2015-02-10,23.58565,120.408111,3.611831e-07
C0U860,頭城,2015-02-10,24.85323,121.8308,1.9642806e-07
C0R580,南州,2015-02-10,22.48591,120.50274,3.3862269e-09
C0D430,峨眉,2015-02-10,24.6905,121.017189,1.8629618e-07
C0G780,秀水,2015-02-10,24.03405,120.503869,2.6220113e-07
72N100,臺南農改場,2015-02-10,23.0605,120.342194,4.993392e-09
C0S900,蘭嶼高中,2015-02-10,22.04909,121.51214,0.98794085
467540,大武,2015-02-10,22.355675,120.903789,0.99993616
C1F9W0,德基,2015-02-10,24.254783,121.190261,1.4805842e-08
C1Z120,壽豐,2015-02-10,23.870853,121.508081,2.503461e-06
C0W160,烏坵,2015-02-10,24.9944,119.44956,0.88787305
C1I240,外大坪,2015-02-10,23.958697,120.917931,4.1063712e-09
C1I550,國六W023K,2015-02-10,23.979067,120.867742,3.391637e-09
C0R870,興海,2015-02-10,21.9752,120.8439,0.9470106
C0R140,瑪家,2015-02-10,22.682903,120.686639,7.903094e-09
C0A530,坪林,2015-02-10,24.938183,121.70975,1.2772193e-07
C0X260,後壁,2015-02-10,23.366358,120.362326,9.850804e-09
C0Z230,和平,2015-02-10,24.30717,121.77007,4.043335e-07
C0G770,福興,2015-02-10,24.041289,120.437669,3.2687953e-07
C0H9A0,神木村,2015-02-10,23.532742,120.843667,9.883532e-09
C0I460,南投,2015-02-10,23.911469,120.687331,2.6619538e-09
C0I480,梅峰,2015-02-10,24.085272,121.173572,1.7191006e-08
C1V570,吉東,2015-02-10,22.85422,120.5454,1.4227582e-09
C2D740,屯原,2015-02-10,24.067969,121.209389,1.9120428e-08
C2A560,福山,2015-02-10,24.776203,121.502811,4.1482135e-08
C0AH30,五分山,2015-02-10,25.07125,121.780794,3.596621e-08
C0FA10,松柏,2015-02-10,24.429115,120.617482,5.9267695e-05
72S200,東改班鳩分場,2015-02-10,22.829528,121.077694,4.8523943e-06
72HA00,中改埔里分場,2015-02-10,23.903208,120.963364,3.124171e-09
C2H9W0,大坪頂農水,2015-02-10,24.043122,120.932781,4.0494914e-09
C0C650,平鎮,2015-02-10,24.897503,121.214636,2.8614318e-07
C0S930,延平,2015-02-10,22.902581,121.084058,2.4833204e-07
C0UA60,樟樹山,2015-02-10,24.41393,121.78325,7.798147e-08
C1S670,摩天,2015-02-10,23.199503,121.027,2.5957322e-08
C0V630,茄萣,2015-02-10,22.906642,120.182608,2.09319e-08
466940,基隆,2015-02-10,25.133314,121.740475,2.0237803e-06
C0X050,東河,2015-02-10,23.296598,120.385608,6.6575886e-08
C0R770,保力,2015-02-10,22.071122,120.764111,0.9906459
G2L020,農試嘉義分所,2015-02-10,23.485028,120.473806,3.887226e-09
C0X240,關子嶺,2015-02-10,23.331169,120.508025,4.1911896e-09
C0I380,集集,2015-02-10,23.828206,120.801467,2.6106513e-09
466990,花蓮,2015-02-10,23.975128,121.613275,7.58564e-07
C1V220,小關山,2015-02-10,23.154217,120.813603,1.5951752e-08
C1F9G1,慶福山,2015-02-10,24.180853,120.848378,1.0430691e-08
C0Z250,瑞穗林道,2015-02-10,23.49284,121.30688,7.940206e-08
C0D590,新豐,2015-02-10,24.87068,120.97721,1.87673e-07
C0A870,五指山,2015-02-10,25.132153,121.608692,5.2329423e-08
C0UA50,西帽山,2015-02-10,24.555361,121.802628,4.5650893e-08
C0X160,仁德,2015-02-10,22.968258,120.257689,6.5698518e-09
C1H971,六分寮,2015-02-10,23.92507,120.6378,3.4834833e-09
C0W120,西嶼,2015-02-10,23.5626,119.468436,0.99527115
C0G650,員林,2015-02-10,23.946503,120.585597,4.8508166e-08
C0AD50,鶯歌,2015-02-10,24.951533,121.346294,2.9913076e-07
C2H9Q0,北東眼山,2015-02-10,24.120939,121.189303,1.8796905e-08
C2H9T0,名間竹圍,2015-02-10,23.859914,120.637572,2.8214304e-09
C0S990,山豬窟,2015-02-10,22.318619,120.857372,0.0018593285
72Q010,高雄農改,2015-02-10,22.709333,120.525889,1.8972273e-09
C0X190,安平,2015-02-10,22.993161,120.152181,1.9379678e-08
C0K400,斗六,2015-02-10,23.720583,120.541127,3.0832474e-09
12J990,口湖工作站,2015-02-10,23.589978,120.180394,6.200101e-08
C0O830,北寮,2015-02-10,23.079561,120.495008,2.4712294e-09
C1D410,白蘭,2015-02-10,24.579364,121.079947,1.3651363e-08
C0S970,加津林,2015-02-10,22.416211,120.926942,0.99994576
C0D700,關西,2015-02-10,24.7977,121.1732,3.8440922e-07
C0M810,里佳,2015-02-10,23.389125,120.716647,9.007164e-09
C0U750,龜山島,2015-02-10,24.841667,121.953133,4.993461e-08
C0R810,內獅,2015-02-10,22.305064,120.642986,1.3610122e-09
C1M390,龍美,2015-02-10,23.406728,120.654417,7.628332e-09
C2FB60,頭櫃山,2015-02-10,24.129842,120.858925,7.109139e-09
C1H840,國三N238K,2015-02-10,23.841008,120.707711,2.6367333e-09
CAQ030,崎峰國小,2015-02-10,22.42565,120.49521,3.3862269e-09
C2E520,大湖,2015-02-10,24.414939,120.870872,7.936284e-08
467530,阿里山,2015-02-10,23.508208,120.813242,1.5539847e-08
C1E691,南湖,2015-02-10,24.40135,120.837533,8.824378e-09
C0FA30,梧棲,2015-02-10,24.256003,120.523381,6.005303e-05
C1V231,高中,2015-02-10,23.134911,120.716711,4.3930326e-09
C0F9V0,新社,2015-02-10,24.200172,120.815806,5.3302807e-09
C0H890,埔里,2015-02-10,23.972169,120.952425,6.044344e-09
C0R690,墾丁,2015-02-10,21.966756,120.810269,0.99994546
C0F0D0,審馬陣,2015-02-10,24.381675,121.4203,3.8608636e-08
C0R820,白鷺,2015-02-10,22.454275,120.666219,7.6386835e-09
U2H480,臺大溪頭,2015-02-10,23.670306,120.798194,3.6506382e-09
C1V190,南天池,2015-02-10,23.27403,120.91176,2.0829386e-08
K2E360,苗栗農改場,2015-02-10,24.495722,120.829111,1.3402554e-07
CAJ050,海口故事園區,2015-02-10,23.57543,120.14121,6.2305084e-08
C2H9D0,三隻寮,2015-02-10,24.093078,120.861578,4.1365498e-09
C0O990,媽廟,2015-02-10,22.99175,120.293525,6.136918e-09
C0D480,打鐵坑,2015-02-10,24.849664,121.150789,1.1611084e-07
C0Z220,和平林道,2015-02-10,24.343922,121.656317,7.747548e-08
C0TA10,花蓮漁港,2015-02-10,23.995322,121.638331,7.7941667e-07
72C440,桃園農改場,2015-02-10,24.950944,121.030583,1.0243165e-05
C1E711,馬拉邦山,2015-02-10,24.367306,120.901656,1.0144541e-08
C0SB20,富岡,2015-02-10,22.792467,121.192669,0.0001015106
C0D560,竹東,2015-02-10,24.767147,121.057881,2.5091734e-07
C0F9U0,南屯,2015-02-10,24.137006,120.637969,8.073084e-06
C0M720,番路,2015-02-10,23.464657,120.554156,4.243531e-09
C0F0A0,雪山圈谷,2015-02-10,24.388594,121.236339,4.3227743e-08
C1A9N0,四十份,2015-02-10,24.934158,121.593283,8.6170886e-08
C0U760,東澳,2015-02-10,24.52196,121.83318,4.3634643e-08
C0X230,鹽水,2015-02-10,23.272621,120.247641,3.3864417e-08
C2H9H0,苗改南投蜂場,2015-02-10,23.852589,120.693481,2.808309e-09
C0R950,萬隆國小,2015-02-10,22.507667,120.587817,7.796622e-10
C0V370,古亭坑,2015-02-10,22.893178,120.401947,1.2748713e-08
C1I340,新興橋,2015-02-10,23.563333,120.868728,3.2954295e-09
C0SA80,土坂,2015-02-10,22.453108,120.887572,9.829354e-06
C0R160,鹽埔,2015-02-10,22.739558,120.530778,9.800181e-10
C0AC40,大屯山,2015-02-10,25.175675,121.522408,4.9758814e-08
466850,五分山雷達站,2015-02-10,25.071182,121.781205,3.585689e-08
C2H9L0,馬烈霸,2015-02-10,24.1512,121.201772,1.8621764e-08
C1AI50,國三N016K,2015-02-10,25.034164,121.619664,7.6266235e-07
C1V600,藤枝,2015-02-10,23.071961,120.757042,1.3444179e-08
C1E601,南勢,2015-02-10,24.572486,120.734842,1.5468865e-07
C0Z180,新城,2015-02-10,24.03946,121.60454,7.0500516e-07
C0O980,新市,2015-02-10,23.061614,120.298197,5.76099e-09
C0K420,西螺,2015-02-10,23.800407,120.467394,2.7333884e-09
C0Z050,佳心,2015-02-10,23.34567,121.21316,9.186867e-08
C0AD30,蘆洲,2015-02-10,25.086594,121.472331,6.151048e-07
C0V610,梓官,2015-02-10,22.760558,120.267211,2.2780107e-09
K2F750,種苗改良場,2015-02-10,24.225972,120.800917,5.0343028e-09
C0UA80,大溪漁港,2015-02-10,24.941801,121.902955,1.9283577e-07
C1AI60,國一39K邊坡,2015-02-10,25.064361,121.383836,7.516259e-08
C0W150,金寧,2015-02-10,24.457703,118.328989,3.2392208e-08
C0R960,內埔,2015-02-10,22.608483,120.570714,7.8987794e-10
V2C250,八德合作社,2015-02-10,24.93775,121.266389,3.9943805e-07
C2H9S0,龍南,2015-02-10,23.953536,120.833183,7.3719324e-09
C0AH40,平等,2015-02-10,25.129142,121.577086,6.0636886e-08
C0R540,佳冬,2015-02-10,22.419456,120.552375,3.3835217e-09
466950,彭佳嶼,2015-02-10,25.627975,122.079744,0.9969994
C0A890,雙溪,2015-02-10,25.036003,121.864242,1.2839231e-06
C0C480,桃園,2015-02-10,24.992425,121.323172,7.3196185e-07
C0AH50,林口,2015-02-10,25.072181,121.38084,6.103139e-08
A2K360,水試臺西試驗場,2015-02-10,23.717231,120.190522,1.3927153e-06
B2N890,畜試所,2015-02-10,23.058972,120.336406,4.999453e-09
C2M960,外寮,2015-02-10,23.562643,120.665688,6.4423125e-09
C0F9S0,烏日,2015-02-10,24.107058,120.624103,1.141276e-07
C0C490,八德,2015-02-10,24.928708,121.283289,9.325735e-07
C0R190,赤山,2015-02-10,22.592333,120.614306,7.855824e-10
C0T820,天祥,2015-02-10,24.179597,121.495639,1.5397364e-07
C1F9E1,龍安,2015-02-10,24.1605,120.831961,5.4179603e-09
C0V820,小林,2015-02-10,23.148408,120.63325,3.5314698e-09
C2G870,芳苑,2015-02-10,23.922303,120.320025,2.0063121e-06
C0E850,大河,2015-02-10,24.618069,120.948578,4.105919e-08
C1U670,寒溪,2015-02-10,24.634,121.71691,2.2037263e-07
C0N020,城西,2015-02-10,23.0568,120.0956,1.7516973e-07
C1Z110,三棧,2015-02-10,24.11557,121.60501,3.7882612e-07
C0R280,檳榔,2015-02-10,22.076078,120.836777,0.99992806
C2H9J0,中台,2015-02-10,23.9996,120.938739,6.163864e-09
C0F9L0,后里,2015-02-10,24.310436,120.729725,4.7411234e-08
C0D540,橫山,2015-02-10,24.71116,121.11693,5.781511e-08
C1D420,太閣南,2015-02-10,24.632808,121.160575,3.0709124e-08
C1E770,公館,2015-02-10,24.526914,120.830806,5.0078783e-05
CAN130,水試所海水繁養殖中心,2015-02-10,23.120802,120.07968,1.9311476e-07
C1I430,翠華,2015-02-10,24.191961,121.224339,2.1692207e-08
C1M400,菜瓜坪,2015-02-10,23.251928,120.576103,3.9139048e-09
C0G730,二林,2015-02-10,23.903325,120.376081,2.2042055e-07
72M360,南改義竹分場,2015-02-10,23.360694,120.279361,1.4235842e-08
V2K620,麥寮合作社,2015-02-10,23.753836,120.294783,8.2389096e-07
C0Z070,舞鶴,2015-02-10,23.46811,121.37407,6.581632e-07
C0B040,大武崙,2015-02-10,25.166676,121.706993,1.52954e-06
C1Z030,紅葉,2015-02-10,23.493119,121.338806,8.3385476e-07
C1I050,丹大,2015-02-10,23.753747,121.141147,2.706971e-08
C0I080,信義,2015-02-10,23.689694,120.851036,2.4412419e-09
C2M920,朴子農改,2015-02-10,23.469889,120.259383,3.3826332e-08
C2A880,福隆,2015-02-10,25.017842,121.942083,1.157577e-07
C0Z160,鳳林,2015-02-10,23.746114,121.453411,1.8036841e-06
C0V210,復興,2015-02-10,23.222403,120.806089,7.479474e-09
C0H990,昆陽,2015-02-10,24.121322,121.273642,3.3392986e-08
C0R741,獅子,2015-02-10,22.202308,120.705236,4.6870408e-08
C0S710,鹿野,2015-02-10,22.917711,121.122994,1.5518424e-07
C0I530,小奇萊,2015-02-10,24.131764,121.295717,3.54869e-08
C2K630,荷苞,2015-02-10,23.657717,120.595144,3.599872e-09
C0Z080,富源,2015-02-10,23.587642,121.378225,7.4879904e-07
467441,高雄,2015-02-10,22.7304,120.3125,2.4307598e-09
C0SB10,美和,2015-02-10,22.682078,121.060236,0.014559786
C2K620,馬光農場,2015-02-10,23.721453,120.378864,2.3575735e-09
C1I140,卡奈托灣,2015-02-10,23.754364,121.087872,1.3168739e-08
C0I520,玉山風口,2015-02-10,23.470489,120.955994,3.8240728e-08
C1G691,下水埔,2015-02-10,23.816114,120.5676,2.8222702e-09
C0X110,臺南市南區,2015-02-10,22.961189,120.188378,1.8072393e-08
C0V680,仁武,2015-02-10,22.701083,120.347722,2.2868698e-09
C2G840,北斗,2015-02-10,23.877586,120.514222,1.4502137e-07
C0R900,竹坑,2015-02-10,22.1385,120.7022,0.002008381
C0K250,崙背,2015-02-10,23.75555,120.318925,7.509573e-07
C0G860,社頭,2015-02-10,23.897647,120.5862,4.710962e-08
C0X150,安定,2015-02-10,23.102614,120.227839,1.3667437e-08
C0R590,里港,2015-02-10,22.77919,120.49459,1.129012e-09
C0E610,馬都安,2015-02-10,24.451272,120.930192,1.7413365e-08
C0E550,明德,2015-02-10,24.583486,120.885411,4.4767752e-08
C0R150,三地門,2015-02-10,22.709889,120.639944,1.2708212e-09
C0G910,花壇,2015-02-10,24.032076,120.549461,2.3008084e-07
C1D400,鳥嘴山,2015-02-10,24.71909,121.28387,3.8444256e-08
C0K500,元長,2015-02-10,23.64981,120.315024,4.891721e-07
C0F0B0,石岡,2015-02-10,24.276061,120.777644,3.35011e-09
C2V250,甲仙,2015-02-10,23.080106,120.591758,3.148692e-09
C0SA20,金崙山,2015-02-10,22.567419,120.959667,4.5410946e-08
C0V350,溪埔,2015-02-10,22.738578,120.446797,1.5340875e-09
C0M660,溪口,2015-02-10,23.604131,120.403569,3.611831e-07
C1S880,壽卡,2015-02-10,22.238911,120.858903,2.289242e-06
72D680,桃改新埔分場,2015-02-10,24.834444,121.066111,2.978825e-07
