站號,站名,日期,lat,lon,BLBTSLS
C0R710,龍磐,2015-05-09,21.931672,120.838942,0.0008215327
C1F9D1,白毛台,2015-05-09,24.158325,120.886933,1.1796999e-08
C0G940,竹塘,2015-05-09,23.848253,120.386764,0.087997735
467590,恆春,2015-05-09,22.003897,120.746339,0.004143325
C1O850,環湖,2015-05-09,23.148617,120.418633,0.0029174471
C0U710,太平山,2015-05-09,24.505486,121.525656,3.3108778e-09
C0E820,獅潭,2015-05-09,24.539133,120.920042,0.0041248733
C0V880,興達,2015-05-09,22.8778,120.2127,0.99515
C0S890,關山,2015-05-09,23.0395,121.175017,0.73029107
C0SB30,新蘭,2015-05-09,22.869214,121.223228,0.0006163618
C2R970,屏科大,2015-05-09,22.648275,120.619247,0.9989367
K2F750,種苗繁殖,2015-05-09,24.225972,120.800917,1.7335886e-08
C1Z130,銅門,2015-05-09,23.965694,121.492842,6.633886e-06
C0AD40,土城,2015-05-09,24.973208,121.445169,0.08229649
CAN140,六官養殖協會,2015-05-09,23.22881,120.29962,0.9813279
C0X180,山上,2015-05-09,23.0757,120.363253,0.06613007
C0F9Z0,雪山東峰,2015-05-09,24.388792,121.268675,9.051441e-09
C1M480,獨立山,2015-05-09,23.537022,120.607797,1.0354332e-09
C0X220,學甲,2015-05-09,23.230367,120.182187,0.9800161
467650,日月潭,2015-05-09,23.881325,120.90805,7.395984e-10
C0K600,箔子寮,2015-05-09,23.6197,120.14,0.623938
C0G830,埤頭,2015-05-09,23.866003,120.452806,0.4097083
C0S950,七塊厝,2015-05-09,22.954453,121.229922,5.901639e-07
467110,金門,2015-05-09,24.407306,118.289281,0.9432109
C0AH80,深坑,2015-05-09,25.002703,121.628328,0.036645226
467990,馬祖,2015-05-09,26.169269,119.923419,2.8061256e-08
C0A970,三貂角,2015-05-09,25.007606,122.002058,0.99662805
C2D730,寶山農場,2015-05-09,24.732444,120.976153,4.0099814e-05
C0K430,褒忠,2015-05-09,23.690938,120.303634,0.00016947635
467480,嘉義,2015-05-09,23.495925,120.432906,1.18923e-06
C2E540,後龍,2015-05-09,24.606489,120.783933,0.00022369367
C0V400,阿公店,2015-05-09,22.804194,120.355528,0.9953527
C0R440,大漢山,2015-05-09,22.405264,120.753181,9.0590185e-10
C0K280,四湖,2015-05-09,23.630414,120.227125,0.0006237889
C1F9B1,桐林,2015-05-09,24.066172,120.735194,0.00021068148
C2H9U0,鳳鵬,2015-05-09,23.763919,120.788061,8.266431e-09
C0K390,土庫,2015-05-09,23.679029,120.395574,0.008221971
C1I450,望鄉山,2015-05-09,23.594153,120.944286,4.9192406e-09
C0E910,海埔,2015-05-09,24.648767,120.772435,0.0034481874
B2E890,畜試北區分所,2015-05-09,24.527806,120.770972,8.8456875e-07
C0R750,四林格山,2015-05-09,22.076989,120.802439,3.4511e-08
C0F0C0,中坑,2015-05-09,24.248517,120.903319,5.412525e-10
C1I121,大鞍,2015-05-09,23.678381,120.760017,6.10566e-10
72U480,花改蘭陽分場,2015-05-09,24.686306,121.716583,0.9954362
C0A770,科教館,2015-05-09,25.096356,121.516507,0.08738284
C0AJ60,六塊厝,2015-05-09,25.24,121.4481,0.2075085
C0R620,墾雷,2015-05-09,21.900836,120.855269,0.004087041
467420,永康,2015-05-09,23.038386,120.2367,0.98773164
467300,東吉島,2015-05-09,23.25695,119.667467,0.44056177
C0I410,名間,2015-05-09,23.837053,120.701447,2.4509134e-06
A2C560,農工中心,2015-05-09,24.985917,121.239833,2.0651646e-06
C0V740,旗山,2015-05-09,22.888614,120.483597,0.99893713
C0Z061,玉里,2015-05-09,23.3215,121.339656,0.003226489
C0S840,南田,2015-05-09,22.279725,120.889208,0.01621487
C1I470,杉林溪,2015-05-09,23.639517,120.786444,8.6205654e-10
C1X040,東原,2015-05-09,23.291597,120.463822,3.3185006e-05
C0R660,枋寮,2015-05-09,22.367722,120.590647,0.00051299424
C1R120,上德文,2015-05-09,22.763272,120.704442,0.004138873
C0K450,大埤,2015-05-09,23.646074,120.431537,0.014070473
C0UA00,土場,2015-05-09,24.576533,121.495333,6.166419e-05
467080,宜蘭,2015-05-09,24.763975,121.756528,0.707529
C0N030,四草,2015-05-09,23.0235,120.1116,0.997084
C0V650,彌陀,2015-05-09,22.783806,120.246361,0.9617058
C0D660,新竹市東區,2015-05-09,24.798681,120.986942,0.00019151457
82S580,茶改東部分場,2015-05-09,22.907694,121.130139,0.004021718
C0SB40,興隆,2015-05-09,22.913661,121.257469,0.491127
C0C710,大溪永福,2015-05-09,24.892936,121.324975,1.3618759e-06
C0FA20,溫寮,2015-05-09,24.372177,120.583125,8.743433e-07
C0V640,湖內,2015-05-09,22.887139,120.2445,0.99533814
C0R910,下寮,2015-05-09,22.3929,120.5548,0.99088293
C0Z020,明里,2015-05-09,23.208717,121.262342,1.0729345e-05
C0M770,嘉義梅山,2015-05-09,23.585398,120.555587,0.0026111745
G2F820,農業試驗所,2015-05-09,24.031261,120.688133,5.550976e-08
C0C660,楊梅,2015-05-09,24.912375,121.143047,6.9992375e-06
C1E511,新開,2015-05-09,24.347703,120.827019,1.1173328e-06
G2F820,農試所(霧峰),2015-05-09,24.031261,120.688133,5.550976e-08
C1I070,和社,2015-05-09,23.591131,120.888861,1.4761676e-09
C2F000,大肚,2015-05-09,24.15295,120.572117,7.82228e-08
C1S850,豐南,2015-05-09,23.122139,121.262389,6.631911e-07
C2A920,富貴角,2015-05-09,25.263783,121.565258,0.3244848
CAH030,茶改場竹圍站,2015-05-09,23.860083,120.637528,3.7572608e-08
C0T960,光復,2015-05-09,23.660694,121.424964,0.99664336
C0F9M0,豐原,2015-05-09,24.254322,120.720692,1.5174049e-08
C0R720,旭海,2015-05-09,22.205403,120.887614,0.024172086
C0V710,苓雅,2015-05-09,22.622742,120.330669,0.99813724
C0C740,觀音工業區,2015-05-09,25.064764,121.114856,8.9397574e-05
CAC040,拉拉山,2015-05-09,24.699317,121.427133,1.5126678e-09
C0V790,萬山,2015-05-09,22.905944,120.688056,7.989769e-05
U2HA30,臺大和社,2015-05-09,23.590856,120.888864,1.4761676e-09
C0AJ90,澳底,2015-05-09,25.0552,121.9253,0.99843884
C0Z100,東華,2015-05-09,23.89525,121.549833,0.99794084
C0G970,三豐,2015-05-09,23.882,120.2895,0.00020402274
V2K610,大庄合作社,2015-05-09,23.8068,120.367939,7.816954e-06
C0V900,汕尾,2015-05-09,22.4782,120.4151,0.9985853
C1R630,龍泉,2015-05-09,22.66701,120.59091,0.71269697
C1AC50,關渡,2015-05-09,25.133486,121.469331,0.12424217
C0F9I0,神岡,2015-05-09,24.272481,120.658314,2.1392184e-08
C0K460,斗南,2015-05-09,23.678734,120.478359,0.016189788
467410,臺南,2015-05-09,22.993239,120.204772,0.9870839
C2O810,曾文,2015-05-09,23.219681,120.497328,1.3475689e-06
467280,後龍,2015-05-09,24.648563,120.831834,0.00080829504
C1F9J1,清水林,2015-05-09,24.071242,120.820419,1.3679852e-08
C2A650,火燒寮,2015-05-09,25.002719,121.742892,0.80281126
466930,竹子湖,2015-05-09,25.162078,121.544547,2.1829466e-08
C1I220,樟湖,2015-05-09,23.905333,120.846983,4.1709233e-10
C0I390,仁愛,2015-05-09,24.022122,121.132206,7.0129225e-10
C0Z300,東里,2015-05-09,23.26853,121.30547,0.0013984938
C1V590,新發,2015-05-09,23.057019,120.646064,1.0693185e-05
C0K510,水林,2015-05-09,23.572924,120.24597,0.6084985
72S590,東改賓朗果園,2015-05-09,22.813889,121.071278,7.530079e-06
82A750,茶改北部分場,2015-05-09,24.955778,121.631222,1.5908886e-06
C1A750,石碇服務區,2015-05-09,25.00872,121.646242,0.027421745
C0X300,鹿寮,2015-05-09,23.386047,120.477331,0.019694947
G2AI50,關渡,2015-05-09,25.11575,121.492,0.09317533
C0K590,雲林東勢,2015-05-09,23.674192,120.255721,0.00016947635
C0A570,桶後,2015-05-09,24.848222,121.597992,4.0928217e-06
C1S800,華源,2015-05-09,22.657883,121.02325,0.0018804373
C0G720,溪州,2015-05-09,23.851589,120.499093,0.20361221
C1V160,達卡努瓦,2015-05-09,23.279811,120.705319,1.1670768e-09
C2M410,馬頭山,2015-05-09,23.324361,120.582017,1.4330096e-06
C0V850,蚵仔寮,2015-05-09,22.7256,120.2527,0.9973633
C0S740,池上,2015-05-09,23.119628,121.209469,3.4654044e-05
C1V390,尖山,2015-05-09,22.813153,120.367789,0.99057245
C0AH70,松山,2015-05-09,25.04871,121.55042,0.060411695
C0N010,鯤鯓國小,2015-05-09,23.1879,120.0889,0.9618101
C0R550,新埤,2015-05-09,22.467947,120.582894,0.10628324
C0SA60,知本（水試所）,2015-05-09,22.702394,121.082761,0.018583303
C0T9I0,豐濱,2015-05-09,23.583897,121.514806,0.99513346
C0UB00,淡江大學蘭陽校園,2015-05-09,24.823239,121.730383,5.1483294e-06
C0W240,九宮,2015-05-09,24.423753,118.240186,0.30851555
C0T9N0,富里,2015-05-09,23.171639,121.249378,2.3058436e-05
U2HA50,臺大竹山,2015-05-09,23.756972,120.681556,2.4181304e-07
C0V840,鳳鼻頭,2015-05-09,22.5083,120.3591,0.998089
C0X140,西港,2015-05-09,23.125608,120.203108,0.9883611
72D080,桃改五峰分場,2015-05-09,24.612194,121.157167,6.7164696e-10
C2H9P0,伊拿谷,2015-05-09,23.963211,121.088264,4.6542996e-09
C2H9F0,柑林,2015-05-09,24.018658,120.847072,1.3205159e-08
C0TA20,加灣,2015-05-09,24.082025,121.608944,0.12698698
C0V530,阿蓮,2015-05-09,22.883208,120.327508,0.9976771
C1O880,關山,2015-05-09,23.173397,120.594092,1.580902e-06
C0E791,卓蘭,2015-05-09,24.3126,120.8244,8.7684003e-07
C1I030,武界,2015-05-09,23.913225,121.052483,1.426889e-09
C0R520,崁頂,2015-05-09,22.514781,120.506914,0.9898156
C0R341,牡丹,2015-05-09,22.130036,120.792639,0.00086883036
C0R930,萬丹,2015-05-09,22.5885,120.4851,0.13206685
C0S760,紅石,2015-05-09,23.069131,121.126219,2.799602e-09
C1M610,石磐龍,2015-05-09,23.496606,120.663506,7.151745e-10
C0UA10,鴛鴦湖,2015-05-09,24.590269,121.412228,2.175692e-09
V2C260,八德蔬果,2015-05-09,24.978508,121.281819,6.111328e-07
C0R800,丹路,2015-05-09,22.204481,120.750989,0.000666232
C0G920,永靖,2015-05-09,23.924703,120.547533,0.0005913078
C2M950,太和,2015-05-09,23.538372,120.702961,7.163513e-10
C1A630,下盆,2015-05-09,24.771003,121.538622,2.568917e-06
B2N890,畜產試驗所,2015-05-09,23.058972,120.336406,0.9821415
C0UA30,白嶺,2015-05-09,24.527819,121.519031,4.1692556e-09
C1V580,溪南(特生中心),2015-05-09,23.084972,120.788475,1.7560813e-09
C1T970,大農,2015-05-09,23.615233,121.413331,0.9556462
E2S960,林試太麻里2,2015-05-09,22.598014,120.989761,0.9357414
C0R650,竹田,2015-05-09,22.58486,120.54344,0.132067
C1H900,清流,2015-05-09,24.080775,120.962997,1.9260864e-09
C1C510,水尾,2015-05-09,24.940081,121.087161,9.831461e-05
C0F9X0,大雅(中科園區),2015-05-09,24.21528,120.62445,2.9893567e-08
C0SB60,白守蓮,2015-05-09,23.126769,121.401914,0.032188203
C0O970,虎頭埤,2015-05-09,23.021375,120.347878,0.99418694
C0C730,中大臨海站,2015-05-09,24.966126,121.008581,0.00025271074
C0X250,新營,2015-05-09,23.310689,120.316681,0.95369804
C0V700,三民,2015-05-09,22.645017,120.311233,0.99813724
C0U870,大礁溪,2015-05-09,24.791042,121.675047,1.8261413e-06
C0E870,高鐵苗栗,2015-05-09,24.60725,120.826094,0.00012580332
A2K570,古坑花卉中心,2015-05-09,23.63353,120.55239,8.0332466e-05
C0M860,新美,2015-05-09,23.338017,120.683169,2.208766e-09
C1E701,八卦,2015-05-09,24.491756,120.927619,6.5239584e-07
C0I420,國姓,2015-05-09,24.037803,120.855072,4.07392e-08
C2D720,關西工作站,2015-05-09,24.757275,121.184792,6.1167084e-06
C0S960,香蘭,2015-05-09,22.587569,120.993375,0.9357414
C0R260,春日,2015-05-09,22.370361,120.628306,0.98454916
72G600,臺中農改場,2015-05-09,24.003028,120.534389,0.004268405
C0Z210,瑞穗,2015-05-09,23.5239,121.39021,0.99751633
C0M820,達邦,2015-05-09,23.453994,120.749517,6.679943e-10
C0V860,南寮,2015-05-09,22.7616,120.2339,0.96118003
C0G740,大城,2015-05-09,23.852487,120.320935,0.00015080205
C0R920,塭仔,2015-05-09,22.4169,120.5197,0.9907314
C0R470,高樹,2015-05-09,22.826389,120.600806,0.08693547
C0R680,佳樂水,2015-05-09,21.993578,120.861633,0.004195005
C1O870,大棟山,2015-05-09,23.31157,120.52226,6.744892e-10
C0D360,梅花,2015-05-09,24.678347,121.208558,4.1635895e-09
C0Z190,富世,2015-05-09,24.14743,121.6297,0.49585465
C0AI10,屈尺,2015-05-09,24.92184,121.54475,0.036645226
B2U990,畜試東區分所,2015-05-09,24.669039,121.832561,0.9969694
C0SB80,長濱漁港,2015-05-09,23.313644,121.459994,0.5920501
C0R240,來義,2015-05-09,22.527306,120.625111,0.9903966
C0V910,大樹,2015-05-09,22.684645,120.432803,0.99847287
C1R610,西大武山,2015-05-09,22.617719,120.7322,1.1171193e-09
C0G900,線西,2015-05-09,24.143358,120.443536,1.6029533e-06
C0M700,竹崎,2015-05-09,23.526178,120.555508,1.0294431e-05
C2E880,三義,2015-05-09,24.405478,120.749819,7.0394877e-09
C0C720,竹圍,2015-05-09,25.112692,121.239824,0.19327335
C0F9P0,清水,2015-05-09,24.312297,120.562242,5.3196754e-07
C0Z150,吉安光華,2015-05-09,23.930925,121.595153,0.99831885
C1D640,外坪(五指山),2015-05-09,24.644447,121.090961,3.5607564e-09
C0F9O0,潭子,2015-05-09,24.213106,120.703933,2.8766571e-08
C2H9R0,卓社,2015-05-09,23.887894,121.000086,6.34663e-10
72T250,花蓮農改場,2015-05-09,23.975222,121.563889,0.031953186
C0E780,銅鑼,2015-05-09,24.489681,120.790853,2.592265e-05
C1T950,太安,2015-05-09,23.666719,121.370128,1.6051525e-08
C0E830,苑裡,2015-05-09,24.439714,120.653053,4.6855482e-07
467270,田中,2015-05-09,23.873803,120.581286,0.006338961
C0SA10,檳榔四格山,2015-05-09,22.810031,121.109308,4.170451e-07
C1T830,布洛灣,2015-05-09,24.17184,121.57127,0.5950136
C0F970,大坑,2015-05-09,24.173142,120.722289,5.3159777e-08
C1U920,思源,2015-05-09,24.393125,121.347214,2.572114e-09
C0A931,三和,2015-05-09,25.233153,121.595236,0.79581076
C0I010,廬山,2015-05-09,24.033311,121.181808,6.1947286e-10
C2M940,日野賀,2015-05-09,23.434056,120.727169,7.949578e-10
C0R860,鼻頭,2015-05-09,22.1043,120.8979,1.7752598e-05
C0UB20,壯圍,2015-05-09,24.7359,121.8163,0.9969694
C0R790,九棚,2015-05-09,22.14195,120.889281,0.014843888
C0W110,東莒,2015-05-09,25.9652,119.98069,1.0686808e-06
C1U930,粉鳥林,2015-05-09,24.497088,121.842479,0.9988238
C1I211,蘆竹湳,2015-05-09,23.934019,120.811994,2.0806028e-09
C0S830,長濱,2015-05-09,23.286817,121.411975,4.6320743e-06
C1F9F1,伯公龍,2015-05-09,24.272392,120.849047,1.11122045e-08
C0E810,西湖,2015-05-09,24.562947,120.7485,5.5685487e-05
C1I440,新高口,2015-05-09,23.478744,120.878939,2.401428e-09
C0O840,王爺宮,2015-05-09,23.222064,120.40085,1.3467863e-06
C0T9G0,鳳林山,2015-05-09,23.735269,121.420131,0.0429011
C0X080,佳里,2015-05-09,23.173039,120.145086,0.98132366
C0FB70,大甲溪埔,2015-05-09,24.370625,120.620067,3.8410286e-07
C0Z310,清水斷崖,2015-05-09,24.218294,121.689142,0.99862856
C0M680,太保,2015-05-09,23.455062,120.331455,0.6476162
C1S820,金峰,2015-05-09,22.590969,120.933236,0.9846604
C0AD10,八里,2015-05-09,25.150211,121.403947,0.19327335
C2K240,草嶺,2015-05-09,23.59555,120.693461,5.490131e-10
C1SA70,都蘭,2015-05-09,22.87794,121.226881,0.49112725
C0K440,二崙,2015-05-09,23.772797,120.408944,0.063836165
C1A760,坪林交控,2015-05-09,24.94284,121.713442,0.23402937
C0F9N0,大里,2015-05-09,24.092464,120.701378,3.5798226e-07
C0SA90,達仁林場,2015-05-09,22.264347,120.823972,0.81695205
C1R290,石門山,2015-05-09,22.112611,120.756597,5.2794303e-07
42HA10,萬大發電廠,2015-05-09,23.978875,121.139639,2.614244e-09
C0R890,山海,2015-05-09,21.9878,120.7091,0.0040946347
C0T9A0,月眉山,2015-05-09,23.809928,121.539828,8.3200393e-07
C0AC70,信義,2015-05-09,25.037822,121.564597,0.060411695
C0K560,棋山,2015-05-09,23.68645,120.603417,0.16031131
C2FB50,出雲,2015-05-09,24.206469,120.902794,9.667511e-10
C1Z240,中平林道,2015-05-09,23.42115,121.26763,1.7240524e-08
U2H480,溪頭,2015-05-09,23.670306,120.798194,6.0803135e-10
C0M880,好美里,2015-05-09,23.3364,120.138,0.98132366
C0T9E0,大坑,2015-05-09,23.880628,121.581981,5.3852436e-06
C0K530,臺西,2015-05-09,23.701547,120.197559,0.0006538283
C1E900,國一N128K,2015-05-09,24.560997,120.844186,2.01794e-05
C0AJ50,水湳洞,2015-05-09,25.123695,121.862238,0.9288851
C0AI20,白沙灣,2015-05-09,25.283128,121.519058,0.5717857
C0A860,大坪,2015-05-09,25.165914,121.632969,1.885276e-07
C1U850,觀音海岸,2015-05-09,24.38319,121.77856,6.651534e-08
C2K610,草嶺石壁,2015-05-09,23.602469,120.707731,6.972444e-10
C0U950,鶯子嶺,2015-05-09,24.89754,121.79244,1.0805359e-08
C0O900,善化,2015-05-09,23.112883,120.297219,0.99027085
C0K550,蔦松,2015-05-09,23.514319,120.229736,0.8868066
E2P980,林試六龜中心,2015-05-09,22.991703,120.645722,0.16651756
C0E590,通霄,2015-05-09,24.471892,120.704622,2.2215556e-06
C1I310,西巒,2015-05-09,23.754486,120.883956,4.813779e-10
C0A550,泰平,2015-05-09,24.971197,121.823711,0.00054609915
C0I360,水里,2015-05-09,23.812553,120.849792,9.374907e-08
C0R830,高士,2015-05-09,22.121825,120.836781,1.9601674e-07
C1I101,溪頭,2015-05-09,23.661789,120.807647,1.0276792e-09
C0AJ20,野柳,2015-05-09,25.20703,121.690021,0.92874277
C0B060,暖暖,2015-05-09,25.0957,121.7403,0.8610915
C1H920,長豐,2015-05-09,24.102039,120.879897,9.823092e-09
C0V360,內門,2015-05-09,22.975481,120.466769,0.9949729
C0R850,林邊,2015-05-09,22.4634,120.5339,0.9898156
C0E930,龍鳳,2015-05-09,24.700034,120.859125,4.413062e-05
C0U910,冬山,2015-05-09,24.63373,121.7937,0.9969694
C1E721,泰安,2015-05-09,24.489017,120.968036,6.7901995e-10
82H320,茶改中部分場,2015-05-09,23.875611,120.913583,1.1519233e-09
C0M750,布袋,2015-05-09,23.380878,120.167789,0.9162279
C1S860,利嘉,2015-05-09,22.809417,121.050528,2.8462235e-09
72C440,桃園農改,2015-05-09,24.950944,121.030583,9.763531e-05
E2S980,林試太麻里1,2015-05-09,22.598922,120.980044,0.98539174
C0X170,關廟,2015-05-09,22.963017,120.327797,0.9932676
C0V720,林園,2015-05-09,22.507747,120.394511,0.99813724
C1I510,線浸林道,2015-05-09,23.761508,120.832956,6.6084066e-10
C0D690,外湖,2015-05-09,24.917735,120.968711,0.00024893353
C0C750,新興坑尾,2015-05-09,25.0061,121.0971,1.278433e-05
B2Q810,畜試南區分所,2015-05-09,21.945583,120.802167,0.0044146082
C0S790,金崙,2015-05-09,22.538122,120.966875,0.9801609
C0AH90,福山植物園,2015-05-09,24.760717,121.58135,6.622719e-09
C0I540,奇萊稜線,2015-05-09,24.109231,121.326456,7.702545e-09
C0M850,表湖,2015-05-09,23.24186,120.64166,1.2575043e-09
C0S770,大溪山,2015-05-09,22.478475,120.943325,0.14414196
C0AG80,中和,2015-05-09,24.991622,121.491792,0.060410704
C0T790,大禹嶺,2015-05-09,24.186117,121.316086,5.383236e-09
C0T9B0,水源,2015-05-09,23.991861,121.537169,3.0041525e-07
C0R840,牡丹池山,2015-05-09,22.168389,120.841225,0.8335339
C1I131,桶頭,2015-05-09,23.641944,120.654117,6.649377e-07
CAL110,布袋國中,2015-05-09,23.35893,120.18026,0.97250134
467571,新竹,2015-05-09,24.827853,121.014219,0.0002356837
C0Z290,赤柯山,2015-05-09,23.36893,121.38293,6.792809e-08
C0X280,將軍,2015-05-09,23.214999,120.13577,0.98132366
C0S690,太麻里,2015-05-09,22.60902,120.98533,8.8705185e-08
C0U880,北關,2015-05-09,24.9072,121.8734,0.29521248
C1H860,瑞岩,2015-05-09,24.123772,121.18345,9.178469e-10
C0G810,埔心,2015-05-09,23.947633,120.525456,0.0009995246
C0U970,大福,2015-05-09,24.80064,121.81389,0.7199117
C2H9N0,仁愛東眼,2015-05-09,24.026875,121.1205,7.536967e-10
C1E670,南礦,2015-05-09,24.538278,121.002836,7.196819e-10
C0M520,東後寮,2015-05-09,23.369908,120.248065,0.97143054
C1E461,松安,2015-05-09,24.397972,120.986022,6.965558e-10
72G600,臺中農改,2015-05-09,24.003028,120.534389,0.0042684088
C2N160,西拉雅風管處,2015-05-09,23.189481,120.335297,0.9680853
C2M970,碧湖,2015-05-09,23.568632,120.624165,5.7091487e-10
C0A640,石碇,2015-05-09,24.993969,121.662917,0.90624446
E2S960,林試太麻里2,2015-05-09,22.598,120.99775,0.91688615
C0F9Y0,桃山,2015-05-09,24.432739,121.303808,1.010241e-08
C1I020,萬大,2015-05-09,23.979817,121.132261,6.812551e-10
C0U940,羅東,2015-05-09,24.68184,121.74934,0.99612427
C0M650,朴子,2015-05-09,23.43463,120.23902,0.9086118
C1I500,大尖山,2015-05-09,23.858572,120.994889,1.174504e-09
C0G820,田尾,2015-05-09,23.901669,120.509389,0.0005913078
E2K600,四湖植物園,2015-05-09,23.676986,120.163433,0.0006538283
C0S730,綠島,2015-05-09,22.6672,121.47533,0.30611962
12Q970,東港工作站,2015-05-09,22.479997,120.466058,0.99088293
C0E430,南庄,2015-05-09,24.601775,121.000214,0.0050933748
C1TA00,太魯閣,2015-05-09,24.15773,121.6236,0.9987997
466920,臺北,2015-05-09,25.037658,121.514853,0.060411695
C0R600,舊泰武,2015-05-09,22.588194,120.664944,0.16584143
C1I260,北坑,2015-05-09,23.9246,121.006903,7.7505e-09
466910,鞍部,2015-05-09,25.182586,121.529731,1.0848354e-08
C1I230,九份二山,2015-05-09,23.961944,120.845,1.7139038e-09
C2A660,瑞芳,2015-05-09,25.113169,121.801147,0.9941442
C0R270,琉球嶼,2015-05-09,22.332244,120.362236,0.98454916
C1T990,高寮,2015-05-09,23.394239,121.356808,0.9976297
C0G620,芬園,2015-05-09,24.015678,120.6213,1.4745737e-06
C1Z140,荖溪,2015-05-09,23.890575,121.45964,4.5696957e-09
C1I201,中心崙,2015-05-09,23.728722,120.712097,1.3532673e-09
C1I400,凌霄,2015-05-09,24.018778,121.004456,7.7786194e-10
C1M640,十字,2015-05-09,23.492153,120.753683,6.379946e-10
G2P820,農試鳳山分所,2015-05-09,22.646611,120.356083,0.99816996
C0Z270,蕃薯寮,2015-05-09,23.73835,121.540108,0.97937965
C0F9Q0,外埔,2015-05-09,24.347817,120.705686,3.5820797e-08
C0K580,高鐵雲林,2015-05-09,23.737456,120.417944,0.008221971
C2I090,鳳凰,2015-05-09,23.728081,120.787347,9.604983e-10
C0U990,員山,2015-05-09,24.74435,121.72247,0.99612427
C0V770,大社,2015-05-09,22.730306,120.346639,0.9974908
C0X120,麻豆,2015-05-09,23.183289,120.248611,0.9800161
C0C670,龍潭,2015-05-09,24.870056,121.221389,1.6043842e-08
C0D680,香山濕地,2015-05-09,24.783581,120.914988,0.00034394587
C0S980,勝林山,2015-05-09,22.430439,120.8938,0.11108751
C0V730,大寮,2015-05-09,22.605614,120.395717,0.37853715
C0R570,麟洛,2015-05-09,22.65078,120.52719,0.9983351
C2M930,石卓,2015-05-09,23.478744,120.702264,6.282472e-10
C0G9B0,和美,2015-05-09,24.105169,120.492131,0.005756452
CAG100,王功漁港,2015-05-09,23.96824,120.32586,2.1018206e-05
C0X290,北門,2015-05-09,23.267772,120.125481,0.9813236
C2F930,大甲,2015-05-09,24.347667,120.640403,8.696309e-08
C0D650,湖口,2015-05-09,24.904794,121.043628,2.8462704e-05
C0E420,竹南,2015-05-09,24.708978,120.888897,0.00011128414
C0U780,五結,2015-05-09,24.68637,121.79794,0.9969694
C1I250,鯉潭,2015-05-09,23.961922,120.991131,9.823092e-09
C0R130,阿禮,2015-05-09,22.742908,120.743678,1.827594e-08
C0X100,臺南市北區,2015-05-09,23.010394,120.194228,0.9869394
C0S920,金峰嘉蘭,2015-05-09,22.594789,120.960825,0.987223
C0V490,新興,2015-05-09,22.627422,120.298803,0.99813724
C0F9K0,大安,2015-05-09,24.345061,120.588025,3.5840245e-07
72N100,臺南農改,2015-05-09,23.0605,120.342194,0.9821415
467290,古坑,2015-05-09,23.633639,120.551889,8.0332466e-05
C2E970,八甲,2015-05-09,24.535811,120.795983,1.7984892e-05
C0V440,鳳山,2015-05-09,22.646653,120.356122,0.99816996
C1T940,大觀,2015-05-09,23.714206,121.373133,5.2285715e-05
72T250,花蓮農改,2015-05-09,23.975222,121.563889,0.031953186
C0E740,造橋,2015-05-09,24.637056,120.864778,1.5244781e-05
C0R100,尾寮山,2015-05-09,22.833111,120.683889,5.9619962e-09
A2K630,臺大雲林校區,2015-05-09,23.730628,120.423903,0.008221971
C0D580,寶山,2015-05-09,24.735006,121.025192,1.1952584e-06
E2P990,林試扇平站,2015-05-09,22.9677,120.6857,0.056116555
C0AI30,三重,2015-05-09,25.057328,121.500629,0.08738284
C0AH00,汐止,2015-05-09,25.066881,121.658778,0.92874277
C1Z040,立山,2015-05-09,23.443356,121.327375,2.4964638e-05
C0W130,花嶼,2015-05-09,23.40007,119.32276,0.0006543931
C0A950,鼻頭角,2015-05-09,25.129036,121.923372,0.9986954
C0K470,林內,2015-05-09,23.748675,120.609642,0.0002365058
C2F990,摩天嶺,2015-05-09,24.322458,120.936819,5.0940996e-10
82C160,茶改場,2015-05-09,24.908472,121.185333,1.7403108e-06
C0Z320,清水林道,2015-05-09,23.27125,121.188272,5.561913e-08
C0R760,南仁湖,2015-05-09,22.084681,120.863353,4.5060563e-07
C0M670,大林,2015-05-09,23.600616,120.45841,8.440534e-07
C0M800,茶山,2015-05-09,23.299075,120.664767,7.183619e-08
C0A9C0,天母,2015-05-09,25.117494,121.537169,0.07665762
72K220,南改斗南分場,2015-05-09,23.634556,120.477333,0.004527377
72AI40,桃改樹林分場,2015-05-09,24.944503,121.386972,0.07134369
C0S910,蘭嶼燈塔,2015-05-09,22.081197,121.503117,4.639913e-06
C0B050,八斗子,2015-05-09,25.144754,121.79167,0.94753814
C0U900,內城,2015-05-09,24.71813,121.68766,0.6682687
C0X320,柳營,2015-05-09,23.253328,120.375253,0.0042869076
C0M790,新港,2015-05-09,23.553269,120.345728,0.48061344
C0F9T0,西屯,2015-05-09,24.179494,120.641275,7.9990016e-08
C0SA30,都歷,2015-05-09,23.020333,121.323642,0.12116759
C0C620,蘆竹,2015-05-09,25.084275,121.265767,0.1562969
C0R730,大坪頂,2015-05-09,22.024633,120.69355,2.2202503e-05
C0AJ40,石門,2015-05-09,25.273672,121.601198,0.044471923
C0E750,苗栗,2015-05-09,24.564569,120.824575,2.5998284e-05
C0T870,鯉魚潭,2015-05-09,23.935639,121.508944,0.9767779
C1V170,排雲,2015-05-09,23.463619,120.954147,1.0205168e-08
C2H950,中寮,2015-05-09,23.884447,120.766406,1.0381768e-07
C0R350,貓鼻頭,2015-05-09,21.921774,120.7358,0.004108878
C0V660,岡山,2015-05-09,22.797078,120.294958,0.9943807
C1H941,雙冬,2015-05-09,23.967378,120.802189,6.6407817e-09
C0AJ70,田寮,2015-05-09,25.2698,121.4886,0.6055647
C0AI00,五股,2015-05-09,25.07445,121.42728,2.1399698e-07
C0Z280,德武,2015-05-09,23.47426,121.41071,0.92443216
C0R700,枋山,2015-05-09,22.246844,120.661086,0.00203531
C0C460,復興,2015-05-09,24.820208,121.352281,1.4585886e-07
E2H360,蓮華池,2015-05-09,23.918333,120.885278,1.3713467e-09
C0M640,中埔,2015-05-09,23.42538,120.5229,0.00017321235
C0W140,金沙,2015-05-09,24.488292,118.408778,0.9647475
C2A540,四堵,2015-05-09,24.8926,121.745736,1.553517e-05
C0ACA0,新莊,2015-05-09,25.051478,121.446756,0.2939323
C0R220,潮州,2015-05-09,22.534361,120.54,0.0002405564
U2HA40,臺大內茅埔,2015-05-09,23.689722,120.851117,4.720242e-09
467490,臺中,2015-05-09,24.145736,120.684075,1.0367857e-07
C0U960,翠峰湖,2015-05-09,24.510856,121.608044,3.1898209e-09
E2HA20,林試畢祿溪站,2015-05-09,24.226944,121.308522,2.0870097e-09
C0V890,前鎮,2015-05-09,22.5718,120.3117,0.998089
467620,蘭嶼,2015-05-09,22.036969,121.558339,1.0827889e-06
C1F941,雪嶺,2015-05-09,24.280586,121.026642,3.6051973e-09
C2H9E0,國姓南港,2015-05-09,23.911108,120.846556,4.111918e-10
C0AC80,文山,2015-05-09,25.00235,121.575728,0.036645226
C0F9R0,龍井,2015-05-09,24.184536,120.528972,1.3893962e-06
C0M760,民雄,2015-05-09,23.551754,120.428457,1.5023068e-06
C0UA40,西德山,2015-05-09,24.560647,121.752608,1.42287835e-08
C1T920,中興,2015-05-09,23.769503,121.498653,0.9971641
C0D550,雪霸,2015-05-09,24.526972,121.11605,1.4452599e-09
C2F860,梨山,2015-05-09,24.247522,121.243669,2.1732658e-09
C0R320,車城,2015-05-09,22.0744,120.716247,0.004094637
C1S870,南美山,2015-05-09,23.15025,121.382333,0.7637561
C0B020,基隆嶼,2015-05-09,25.19141,121.78391,0.9288851
C1U501,牛鬥,2015-05-09,24.637836,121.573656,0.046954278
C0M730,嘉義市東區,2015-05-09,23.457673,120.460531,4.5262513e-07
C0S700,知本,2015-05-09,22.684866,121.005642,2.0229648e-07
C1N001,沙崙,2015-05-09,22.935472,120.309406,0.9976812
C0V760,橋頭,2015-05-09,22.757806,120.30575,0.9942004
C0G960,福寶,2015-05-09,24.0443,120.3814,0.0040451433
C0X210,白河,2015-05-09,23.347466,120.414427,0.002533243
C0S810,東河,2015-05-09,22.972672,121.303986,0.628269
C2R170,屏東,2015-05-09,22.66027,120.49403,0.99837905
C0R670,楓港,2015-05-09,22.190131,120.692156,0.00203531
C0FA50,霧峰,2015-05-09,24.0419,120.6995,9.266465e-08
C0UB10,蘇澳,2015-05-09,24.5969,121.8571,0.9770263
C0G950,防潮門,2015-05-09,24.1835,120.4871,1.956113e-06
C0M740,六腳,2015-05-09,23.492871,120.290625,0.7662979
C1R250,力里,2015-05-09,22.428117,120.629228,0.9881656
C0K330,虎尾,2015-05-09,23.719183,120.442036,0.0067769173
C2FA00,烏石坑,2015-05-09,24.273503,120.947617,5.195533e-10
C0V620,永安,2015-05-09,22.82315,120.236856,0.9617058
C1I330,楓樹林,2015-05-09,23.986803,121.076117,6.603316e-10
C0W200,湖西,2015-05-09,23.596314,119.67275,0.0046832156
72Q010,高雄農改場,2015-05-09,22.709333,120.525889,0.9979918
C0SA40,瑞和,2015-05-09,22.974361,121.156697,0.63427037
C0C680,龜山,2015-05-09,25.02846,121.38656,0.27424777
C2V260,月眉,2015-05-09,22.971003,120.539853,0.05879206
C0V450,鳳森,2015-05-09,22.545064,120.392592,0.0828426
C0U720,南山,2015-05-09,24.43742,121.38167,7.3366544e-09
A2N290,臺南蘭花園區,2015-05-09,23.340258,120.379661,0.004284278
C0R560,新園,2015-05-09,22.5434,120.461558,0.9898156
C0U890,三星,2015-05-09,24.66812,121.65302,0.55797577
C1V300,御油山,2015-05-09,23.001983,120.715364,1.8130248e-09
C0U600,礁溪,2015-05-09,24.817539,121.765608,0.7009085
C1T980,龍澗,2015-05-09,24.023289,121.411328,6.770532e-09
C0D670,海天一線,2015-05-09,24.831986,120.914438,0.0004587487
C0SA00,歷坵,2015-05-09,22.520969,120.89185,0.000954674
C0M710,東石,2015-05-09,23.458927,120.15385,0.8868066
C0M780,鹿草,2015-05-09,23.41134,120.30835,0.8244892
C0U520,雙連埤,2015-05-09,24.753033,121.641303,1.6521922e-06
C0B010,七堵,2015-05-09,25.094819,121.71713,0.91182005
C0R480,長治,2015-05-09,22.693128,120.542622,0.0016022561
C1V830,國三S383K,2015-05-09,22.781967,120.426475,0.9822012
12Q980,恆春工作站,2015-05-09,22.079678,120.714425,0.004094637
C1O940,東山服務區,2015-05-09,23.286016,120.398472,0.0009503171
C1U840,東澳嶺,2015-05-09,24.5378,121.8485,5.57369e-08
C1D630,飛鳳山,2015-05-09,24.766464,121.119178,9.716689e-09
C0S940,石寧山,2015-05-09,23.223772,121.406639,0.0005373799
C0K410,北港,2015-05-09,23.573957,120.292802,0.5610989
C2M620,瑞里,2015-05-09,23.545133,120.675197,7.0110634e-10
C0SB70,小港漁港,2015-05-09,23.158558,121.400431,0.17868118
C2O950,安南,2015-05-09,23.076694,120.144861,0.9380017
C0F0E0,南湖圈谷,2015-05-09,24.363714,121.444667,1.5721886e-08
467610,成功,2015-05-09,23.097486,121.373428,0.04187084
C0G890,伸港,2015-05-09,24.148933,120.484403,4.3184873e-06
C2E540,龍溪,2015-05-09,24.606489,120.783933,0.00022369367
C1V200,梅山,2015-05-09,23.268447,120.823556,3.5294767e-09
C0T9H0,加路蘭山,2015-05-09,23.682947,121.5274,1.9513858e-05
C2O930,玉井,2015-05-09,23.126042,120.46055,0.0029054708
C1F911,新伯公,2015-05-09,24.221361,120.841069,4.282611e-08
C0R490,九如,2015-05-09,22.7405,120.490503,0.9983351
C0X200,左鎮,2015-05-09,23.056758,120.408522,0.16895889
C0SB50,叭嗡嗡,2015-05-09,23.047062,121.343223,0.8836371
C1F891,稍來,2015-05-09,24.265689,121.001142,1.9556343e-09
72N240,七股研究中心,2015-05-09,23.081672,120.062894,0.9518008
C0C700,中壢,2015-05-09,24.977661,121.256375,3.9536508e-07
C0M690,水上,2015-05-09,23.419734,120.388909,3.950326e-06
C0V690,鼓山,2015-05-09,22.623325,120.275575,0.99813724
C0O860,大內,2015-05-09,23.11885,120.36083,0.63331395
C0Z200,萬榮,2015-05-09,23.709219,121.420106,0.9767779
C0T9D0,和中,2015-05-09,24.26676,121.74103,0.9994041
C1O921,楠西,2015-05-09,23.183511,120.484083,3.7835165e-05
C0AJ30,淡水觀海,2015-05-09,25.184591,121.408616,0.2075085
C0V810,左營,2015-05-09,22.67491,120.28491,0.9974265
C0UA70,桃源谷,2015-05-09,24.962606,121.888875,5.9142703e-06
C0X130,官田,2015-05-09,23.193217,120.315422,0.9783001
C1H000,翠峰,2015-05-09,24.109397,121.205211,2.711098e-09
C0UA90,石城,2015-05-09,24.980444,121.951214,0.99844855
C1E681,南勢山,2015-05-09,24.421669,120.923831,6.7666045e-10
C0A9F0,內湖,2015-05-09,25.079422,121.57545,0.060411695
C0K291,宜梧,2015-05-09,23.536281,120.169329,0.91738605
C1K540,口湖,2015-05-09,23.585344,120.180517,0.7061967
C0R780,滿州,2015-05-09,22.024403,120.839892,0.003792504
C0V870,文安,2015-05-09,22.8025,120.2164,0.96118003
C0U650,玉蘭,2015-05-09,24.675286,121.587061,0.0006398063
C0R640,東港,2015-05-09,22.46247,120.44074,0.998089
K2E360,苗栗農改,2015-05-09,24.495722,120.829111,0.0003113087
C0AJ80,板橋,2015-05-09,25.0107,121.4489,0.08229649
C0S660,下馬,2015-05-09,23.150427,121.070312,1.5379622e-07
C1H9B1,阿眉,2015-05-09,24.1263,120.994672,8.825501e-10
C0UA20,多加屯,2015-05-09,24.368614,121.373189,4.354666e-09
C0E730,頭份,2015-05-09,24.688247,120.912206,0.00011128414
72V140,高改旗南分場,2015-05-09,22.857861,120.516667,2.5151196e-05
C0K480,莿桐,2015-05-09,23.761192,120.502372,0.07094526
C0U980,坪林石牌,2015-05-09,24.86478,121.77396,8.79589e-06
C0T900,西林,2015-05-09,23.8119,121.441458,0.7866807
C1I150,青雲,2015-05-09,23.793361,120.949378,1.7956147e-09
467350,澎湖,2015-05-09,23.565503,119.563094,0.014013104
C0G800,埔鹽,2015-05-09,24.000394,120.431683,0.0022866554
C0H960,草屯,2015-05-09,23.973672,120.68085,0.00012062468
C1V780,多納林道,2015-05-09,22.888028,120.737917,1.2175069e-09
C0E920,通霄漁港,2015-05-09,24.498589,120.673876,8.131524e-06
C0Z330,安通山,2015-05-09,23.290728,121.348528,7.3073085e-07
C0AH10,永和,2015-05-09,25.01125,121.508111,0.0672047
C0AK10,太平里,2015-05-09,25.134937,121.364899,0.2939323
C2G640,鹿港,2015-05-09,24.0753,120.430481,0.0022612377
C1E890,國三N149K,2015-05-09,24.463414,120.680019,1.3755554e-06
C1R110,口社,2015-05-09,22.770111,120.645222,0.036432058
C1M870,國三N285K,2015-05-09,23.550319,120.505833,4.6273228e-05
467050,新屋,2015-05-09,25.006744,121.047486,0.00017089755
C1E480,鳳美,2015-05-09,24.554803,121.034747,1.8025437e-08
C0M530,奮起湖,2015-05-09,23.493903,120.699253,7.252227e-10
C0C590,觀音,2015-05-09,25.027072,121.153317,0.08864248
C0T9M0,靜浦,2015-05-09,23.455167,121.495028,0.9984265
C2H9M0,發祥,2015-05-09,24.154094,121.164517,8.0611007e-10
C0AI40,石牌,2015-05-09,25.115597,121.513139,0.08229649
C1F871,上谷關,2015-05-09,24.203483,121.018644,5.202266e-10
C2H9G0,百勝,2015-05-09,24.051142,120.909361,1.4883989e-08
C0G880,二水,2015-05-09,23.810742,120.6173,0.0017856949
C0R940,加祿堂,2015-05-09,22.3363,120.6217,0.9623294
C0W220,北竿,2015-05-09,26.220358,119.974881,3.911517e-09
C0O960,崎頂,2015-05-09,22.959547,120.369317,0.0009820972
C0S750,向陽,2015-05-09,23.248397,120.986133,2.6921816e-09
C0T9F0,水璉,2015-05-09,23.797131,121.542514,0.0048205177
C1M600,頭凍,2015-05-09,23.406364,120.603339,1.7972456e-09
467660,臺東,2015-05-09,22.752211,121.154586,0.0027377112
C1D380,新埔,2015-05-09,24.84745,121.03834,8.893401e-05
C2G980,田頭村,2015-05-09,23.8263,120.444175,0.06383615
C0V750,路竹,2015-05-09,22.854997,120.259439,0.9625921
C0N050,蚵寮,2015-05-09,23.301,120.1104,0.9618101
72M700,南改鹿草分場,2015-05-09,23.416869,120.283061,0.84752804
C1SA50,利嘉林道,2015-05-09,22.82325,121.009389,1.7178082e-09
467550,玉山,2015-05-09,23.487614,120.959522,1.208791e-08
C0A940,金山,2015-05-09,25.223628,121.643967,0.5024971
C1V340,大津,2015-05-09,22.888322,120.645986,0.9968811
C0W180,七美,2015-05-09,23.219333,119.444892,0.042442057
C1F9C1,白冷,2015-05-09,24.182844,120.929889,1.455574e-08
K2E710,苗改生物防治研究中心,2015-05-09,24.422861,120.871833,1.5779467e-07
C0N040,蘆竹溝,2015-05-09,23.2344,120.0961,0.9618101
C2W230,畜試所澎湖,2015-05-09,23.628342,119.513206,0.0014264692
C0R880,後壁湖,2015-05-09,21.9457,120.7457,0.0037450434
C1I280,埔中,2015-05-09,23.820778,120.642594,3.26599e-08
467790,墾丁雷達站,2015-05-09,21.948235,120.808028,0.003523062
C0W190,望安,2015-05-09,23.380564,119.494075,0.003989623
466881,新北,2015-05-09,24.9593,121.52,0.050065737
C0Z170,卓溪,2015-05-09,23.3443,121.3029,0.0006423444
C0F850,東勢,2015-05-09,24.246428,120.833047,8.106563e-08
466900,淡水,2015-05-09,25.164889,121.448906,0.19327335
C0I370,魚池,2015-05-09,23.895703,120.94135,1.5640315e-09
C0C630,大溪,2015-05-09,24.882853,121.265547,3.9072684e-06
C0A520,山佳,2015-05-09,24.974944,121.402008,0.07134369
C0I110,竹山,2015-05-09,23.761225,120.688156,3.5976265e-07
82H840,茶改南部分場,2015-05-09,23.762528,120.7405,3.829209e-09
C0G660,溪湖,2015-05-09,23.94835,120.479122,0.0018339745
C1T800,洛韶,2015-05-09,24.204558,121.453956,8.224017e-09
C1T810,慈恩,2015-05-09,24.192044,121.388386,2.278558e-09
C1E451,象鼻,2015-05-09,24.368617,120.940228,6.7666045e-10
C0AC60,三峽,2015-05-09,24.939025,121.369728,0.046558328
C0I490,萬大林道,2015-05-09,23.928228,121.091411,1.2173977e-09
C1I290,豐丘,2015-05-09,23.668178,120.887417,6.6084066e-10
C1I320,奧萬大,2015-05-09,23.952956,121.178556,6.4888633e-10
C2M910,嘉義大學,2015-05-09,23.471325,120.485903,0.00042670628
C0U770,南澳,2015-05-09,24.44935,121.81022,0.9992575
C0A980,社子,2015-05-09,25.109508,121.469681,0.09317533
C0V800,六龜,2015-05-09,22.997889,120.633583,0.32597798
C1G9D0,國一S218K,2015-05-09,23.890641,120.493253,0.0009995246
C0E570,白沙屯,2015-05-09,24.549447,120.696803,8.131524e-06
C2F9A0,中竹林,2015-05-09,24.103556,120.751061,2.4512838e-08
C0FA40,臺中電廠,2015-05-09,24.2146,120.4907,1.13494e-06
C2G9A0,畜試所彰化,2015-05-09,23.86045,120.557964,0.0062577715
C0H9C0,合歡山,2015-05-09,24.143442,121.272547,8.8189935e-09
C0X060,下營,2015-05-09,23.22695,120.256261,0.9853853
G2M350,農試溪口農場,2015-05-09,23.58565,120.408111,3.023005e-06
C0U860,頭城,2015-05-09,24.85323,121.8308,0.707529
C0R580,南州,2015-05-09,22.48591,120.50274,0.99088293
C0D430,峨眉,2015-05-09,24.6905,121.017189,4.0099814e-05
C0G780,秀水,2015-05-09,24.03405,120.503869,0.0072267368
72N100,臺南農改場,2015-05-09,23.0605,120.342194,0.9821415
C0S900,蘭嶼高中,2015-05-09,22.04909,121.51214,1.0266959e-05
467540,大武,2015-05-09,22.355675,120.903789,0.17463472
C1F9W0,德基,2015-05-09,24.254783,121.190261,1.1216905e-09
C1Z120,壽豐,2015-05-09,23.870853,121.508081,0.99794084
C0W160,烏坵,2015-05-09,24.9944,119.44956,1.3169228e-05
C1I240,外大坪,2015-05-09,23.958697,120.917931,6.7804447e-09
C1I550,國六W023K,2015-05-09,23.979067,120.867742,1.2303797e-08
C0R870,興海,2015-05-09,21.9752,120.8439,0.0044146082
C0R140,瑪家,2015-05-09,22.682903,120.686639,0.71967685
C0A530,坪林,2015-05-09,24.938183,121.70975,0.10019006
C0X260,後壁,2015-05-09,23.366358,120.362326,0.078424126
C0Z230,和平,2015-05-09,24.30717,121.77007,0.9994041
C0G770,福興,2015-05-09,24.041289,120.437669,0.0022716334
C0H9A0,神木村,2015-05-09,23.532742,120.843667,1.1214958e-09
C0I460,南投,2015-05-09,23.911469,120.687331,2.343668e-06
C0I480,梅峰,2015-05-09,24.085272,121.173572,1.9925024e-09
C1V570,吉東,2015-05-09,22.85422,120.5454,1.0593884e-05
C2D740,屯原,2015-05-09,24.067969,121.209389,1.4024301e-09
C2A560,福山,2015-05-09,24.776203,121.502811,1.5908886e-06
C0AH30,五分山,2015-05-09,25.07125,121.780794,3.659201e-08
C0FA10,松柏,2015-05-09,24.429115,120.617482,8.743433e-07
72S200,東改班鳩分場,2015-05-09,22.829528,121.077694,5.6655965e-05
72HA00,中改埔里分場,2015-05-09,23.903208,120.963364,2.0588786e-09
C2H9W0,大坪頂農水,2015-05-09,24.043122,120.932781,9.024411e-09
C0C650,平鎮,2015-05-09,24.897503,121.214636,1.6354667e-06
C0S930,延平,2015-05-09,22.902581,121.084058,0.08584837
C0UA60,樟樹山,2015-05-09,24.41393,121.78325,2.8655695e-05
C1S670,摩天,2015-05-09,23.199503,121.027,3.3399272e-09
C0V630,茄萣,2015-05-09,22.906642,120.182608,0.99515
466940,基隆,2015-05-09,25.133314,121.740475,0.9370605
C0X050,東河,2015-05-09,23.296598,120.385608,0.0042869076
C0R770,保力,2015-05-09,22.071122,120.764111,0.0021266048
G2L020,農試嘉義分所,2015-05-09,23.485028,120.473806,0.00017609364
C0X240,關子嶺,2015-05-09,23.331169,120.508025,1.16333245e-08
C0I380,集集,2015-05-09,23.828206,120.801467,1.3688823e-07
466990,花蓮,2015-05-09,23.975128,121.613275,0.23986155
C1V220,小關山,2015-05-09,23.154217,120.813603,1.724469e-09
C1F9G1,慶福山,2015-05-09,24.180853,120.848378,9.186263e-10
C0Z250,瑞穗林道,2015-05-09,23.49284,121.30688,2.6174883e-08
C0D590,新豐,2015-05-09,24.87068,120.97721,0.9978139
C0A870,五指山,2015-05-09,25.132153,121.608692,6.009172e-08
C0UA50,西帽山,2015-05-09,24.555361,121.802628,5.2448833e-08
C0X160,仁德,2015-05-09,22.968258,120.257689,0.9962138
C1H971,六分寮,2015-05-09,23.92507,120.6378,3.4272993e-09
C0W120,西嶼,2015-05-09,23.5626,119.468436,0.014013104
C0G650,員林,2015-05-09,23.946503,120.585597,1.8383189e-05
C0AD50,鶯歌,2015-05-09,24.951533,121.346294,0.05405627
C2H9Q0,北東眼山,2015-05-09,24.120939,121.189303,1.3495092e-09
C2H9T0,名間竹圍,2015-05-09,23.859914,120.637572,3.757268e-08
C0S990,山豬窟,2015-05-09,22.318619,120.857372,0.41417032
72Q010,高雄農改,2015-05-09,22.709333,120.525889,0.9979918
C0X190,安平,2015-05-09,22.993161,120.152181,0.9869541
C0K400,斗六,2015-05-09,23.720583,120.541127,0.004889434
12J990,口湖工作站,2015-05-09,23.589978,120.180394,0.623938
C0O830,北寮,2015-05-09,23.079561,120.495008,0.00016329801
C1D410,白蘭,2015-05-09,24.579364,121.079947,8.067161e-10
C0S970,加津林,2015-05-09,22.416211,120.926942,0.1818919
C0D700,關西,2015-05-09,24.7977,121.1732,1.0319091e-05
C0M810,里佳,2015-05-09,23.389125,120.716647,7.252227e-10
C0U750,龜山島,2015-05-09,24.841667,121.953133,0.3646581
C0R810,內獅,2015-05-09,22.305064,120.642986,0.9623294
C1M390,龍美,2015-05-09,23.406728,120.654417,7.9972096e-10
C2FB60,頭櫃山,2015-05-09,24.129842,120.858925,8.2195745e-10
C1H840,國三N238K,2015-05-09,23.841008,120.707711,1.2047911e-07
CAQ030,崎峰國小,2015-05-09,22.42565,120.49521,0.99088293
C2E520,大湖,2015-05-09,24.414939,120.870872,2.6894585e-07
467530,阿里山,2015-05-09,23.508208,120.813242,3.0391654e-09
C1E691,南湖,2015-05-09,24.40135,120.837533,6.3277765e-09
C0FA30,梧棲,2015-05-09,24.256003,120.523381,1.13494e-06
C1V231,高中,2015-05-09,23.134911,120.716711,2.0109965e-07
C0F9V0,新社,2015-05-09,24.200172,120.815806,7.400828e-09
C0H890,埔里,2015-05-09,23.972169,120.952425,3.5260268e-08
C0R690,墾丁,2015-05-09,21.966756,120.810269,2.71603e-06
C0F0D0,審馬陣,2015-05-09,24.381675,121.4203,1.0813132e-08
C0R820,白鷺,2015-05-09,22.454275,120.666219,8.3219575e-06
U2H480,臺大溪頭,2015-05-09,23.670306,120.798194,6.0803135e-10
C1V190,南天池,2015-05-09,23.27403,120.91176,3.23807e-09
K2E360,苗栗農改場,2015-05-09,24.495722,120.829111,0.0003113084
CAJ050,海口故事園區,2015-05-09,23.57543,120.14121,0.7061967
C2H9D0,三隻寮,2015-05-09,24.093078,120.861578,5.9112346e-09
C0O990,媽廟,2015-05-09,22.99175,120.293525,0.99541265
C0D480,打鐵坑,2015-05-09,24.849664,121.150789,3.838132e-08
C0Z220,和平林道,2015-05-09,24.343922,121.656317,2.1925936e-05
C0TA10,花蓮漁港,2015-05-09,23.995322,121.638331,0.3551026
72C440,桃園農改場,2015-05-09,24.950944,121.030583,9.763531e-05
C1E711,馬拉邦山,2015-05-09,24.367306,120.901656,1.4834044e-09
C0SB20,富岡,2015-05-09,22.792467,121.192669,0.0020544035
C0D560,竹東,2015-05-09,24.767147,121.057881,2.6944108e-05
C0F9U0,南屯,2015-05-09,24.137006,120.637969,3.5762332e-07
C0M720,番路,2015-05-09,23.464657,120.554156,8.07531e-06
C0F0A0,雪山圈谷,2015-05-09,24.388594,121.236339,1.39150895e-08
C1A9N0,四十份,2015-05-09,24.934158,121.593283,9.966685e-07
C0U760,東澳,2015-05-09,24.52196,121.83318,0.998561
C0X230,鹽水,2015-05-09,23.272621,120.247641,0.9739106
C2H9H0,苗改南投蜂場,2015-05-09,23.852589,120.693481,3.5881797e-07
C0R950,萬隆國小,2015-05-09,22.507667,120.587817,0.05126851
C0V370,古亭坑,2015-05-09,22.893178,120.401947,0.9973438
C1I340,新興橋,2015-05-09,23.563333,120.868728,8.283141e-10
C0SA80,土坂,2015-05-09,22.453108,120.887572,0.98702466
C0R160,鹽埔,2015-05-09,22.739558,120.530778,0.0019039006
C0AC40,大屯山,2015-05-09,25.175675,121.522408,8.194486e-09
466850,五分山雷達站,2015-05-09,25.071182,121.781205,3.5221483e-08
C2H9L0,馬烈霸,2015-05-09,24.1512,121.201772,1.3183937e-09
C1AI50,國三N016K,2015-05-09,25.034164,121.619664,0.039992712
C1V600,藤枝,2015-05-09,23.071961,120.757042,1.942919e-09
C1E601,南勢,2015-05-09,24.572486,120.734842,7.571279e-07
C0Z180,新城,2015-05-09,24.03946,121.60454,0.073557645
C0O980,新市,2015-05-09,23.061614,120.298197,0.99027085
C0K420,西螺,2015-05-09,23.800407,120.467394,0.13449283
C0Z050,佳心,2015-05-09,23.34567,121.21316,7.6521175e-08
C0AD30,蘆洲,2015-05-09,25.086594,121.472331,0.08738284
C0V610,梓官,2015-05-09,22.760558,120.267211,0.9943807
K2F750,種苗改良場,2015-05-09,24.225972,120.800917,1.7335886e-08
C0UA80,大溪漁港,2015-05-09,24.941801,121.902955,0.70099443
C1AI60,國一39K邊坡,2015-05-09,25.064361,121.383836,0.5060511
C0W150,金寧,2015-05-09,24.457703,118.328989,0.955032
C0R960,內埔,2015-05-09,22.608483,120.570714,0.10628324
V2C250,八德合作社,2015-05-09,24.93775,121.266389,1.4245128e-05
C2H9S0,龍南,2015-05-09,23.953536,120.833183,4.9831994e-10
C0AH40,平等,2015-05-09,25.129142,121.577086,1.555784e-06
C0R540,佳冬,2015-05-09,22.419456,120.552375,0.9909608
466950,彭佳嶼,2015-05-09,25.627975,122.079744,0.567654
C0A890,雙溪,2015-05-09,25.036003,121.864242,0.8928567
C0C480,桃園,2015-05-09,24.992425,121.323172,8.1741155e-07
C0AH50,林口,2015-05-09,25.072181,121.38084,1.9439285e-06
A2K360,水試臺西試驗場,2015-05-09,23.717231,120.190522,0.0009309949
B2N890,畜試所,2015-05-09,23.058972,120.336406,0.9821415
C2M960,外寮,2015-05-09,23.562643,120.665688,5.556203e-10
C0F9S0,烏日,2015-05-09,24.107058,120.624103,0.0018341796
C0C490,八德,2015-05-09,24.928708,121.283289,2.3081448e-05
C0R190,赤山,2015-05-09,22.592333,120.614306,0.06556994
C0T820,天祥,2015-05-09,24.179597,121.495639,7.818392e-05
C1F9E1,龍安,2015-05-09,24.1605,120.831961,4.4406727e-09
C0V820,小林,2015-05-09,23.148408,120.63325,1.2167244e-07
C2G870,芳苑,2015-05-09,23.922303,120.320025,0.0002037129
C0E850,大河,2015-05-09,24.618069,120.948578,5.072379e-05
C1U670,寒溪,2015-05-09,24.634,121.71691,0.9938755
C0N020,城西,2015-05-09,23.0568,120.0956,0.9512117
C1Z110,三棧,2015-05-09,24.11557,121.60501,3.9366217e-08
C0R280,檳榔,2015-05-09,22.076078,120.836777,3.6863466e-06
C2H9J0,中台,2015-05-09,23.9996,120.938739,8.6729495e-09
C0F9L0,后里,2015-05-09,24.310436,120.729725,1.1197757e-08
C0D540,橫山,2015-05-09,24.71116,121.11693,2.5883764e-07
C1D420,太閣南,2015-05-09,24.632808,121.160575,8.0531093e-10
C1E770,公館,2015-05-09,24.526914,120.830806,8.8456875e-07
CAN130,水試所海水繁養殖中心,2015-05-09,23.120802,120.07968,0.9518008
C1I430,翠華,2015-05-09,24.191961,121.224339,3.3032266e-09
C1M400,菜瓜坪,2015-05-09,23.251928,120.576103,8.873277e-08
C0G730,二林,2015-05-09,23.903325,120.376081,0.0033635232
72M360,南改義竹分場,2015-05-09,23.360694,120.279361,0.9643939
V2K620,麥寮合作社,2015-05-09,23.753836,120.294783,6.802069e-05
C0Z070,舞鶴,2015-05-09,23.46811,121.37407,0.031746075
C0B040,大武崙,2015-05-09,25.166676,121.706993,0.91184664
C1Z030,紅葉,2015-05-09,23.493119,121.338806,0.816174
C1I050,丹大,2015-05-09,23.753747,121.141147,3.3346121e-09
C0I080,信義,2015-05-09,23.689694,120.851036,4.720242e-09
C2M920,朴子農改,2015-05-09,23.469889,120.259383,0.7662979
C2A880,福隆,2015-05-09,25.017842,121.942083,0.99843884
C0Z160,鳳林,2015-05-09,23.746114,121.453411,0.9978027
C0V210,復興,2015-05-09,23.222403,120.806089,7.775512e-08
C0H990,昆陽,2015-05-09,24.121322,121.273642,5.8028746e-09
C0R741,獅子,2015-05-09,22.202308,120.705236,0.0017637342
C0S710,鹿野,2015-05-09,22.917711,121.122994,1.1159942e-06
C0I530,小奇萊,2015-05-09,24.131764,121.295717,6.645837e-09
C2K630,荷苞,2015-05-09,23.657717,120.595144,0.0019655875
C0Z080,富源,2015-05-09,23.587642,121.378225,0.1780108
467441,高雄,2015-05-09,22.7304,120.3125,0.9974265
C0SB10,美和,2015-05-09,22.682078,121.060236,0.018583303
C2K620,馬光農場,2015-05-09,23.721453,120.378864,0.01838307
C1I140,卡奈托灣,2015-05-09,23.754364,121.087872,8.0727947e-10
C0I520,玉山風口,2015-05-09,23.470489,120.955994,1.2655729e-08
C1G691,下水埔,2015-05-09,23.816114,120.5676,0.005143511
C0X110,臺南市南區,2015-05-09,22.961189,120.188378,0.98768705
C0V680,仁武,2015-05-09,22.701083,120.347722,0.9974908
C2G840,北斗,2015-05-09,23.877586,120.514222,0.0005913078
C0R900,竹坑,2015-05-09,22.1385,120.7022,0.026316226
C0K250,崙背,2015-05-09,23.75555,120.318925,5.2126506e-05
C0G860,社頭,2015-05-09,23.897647,120.5862,9.5558935e-06
C0X150,安定,2015-05-09,23.102614,120.227839,0.9843212
C0R590,里港,2015-05-09,22.77919,120.49459,0.0003999014
C0E610,馬都安,2015-05-09,24.451272,120.930192,1.276859e-07
C0E550,明德,2015-05-09,24.583486,120.885411,0.00010355527
C0R150,三地門,2015-05-09,22.709889,120.639944,0.18622807
C0G910,花壇,2015-05-09,24.032076,120.549461,0.0022618922
C1D400,鳥嘴山,2015-05-09,24.71909,121.28387,7.0843815e-09
C0K500,元長,2015-05-09,23.64981,120.315024,0.00034372575
C0F0B0,石岡,2015-05-09,24.276061,120.777644,5.7713096e-06
C2V250,甲仙,2015-05-09,23.080106,120.591758,9.04399e-08
C0SA20,金崙山,2015-05-09,22.567419,120.959667,1.05625496e-07
C0V350,溪埔,2015-05-09,22.738578,120.446797,0.9984813
C0M660,溪口,2015-05-09,23.604131,120.403569,3.023005e-06
C1S880,壽卡,2015-05-09,22.238911,120.858903,0.8263093
72D680,桃改新埔分場,2015-05-09,24.834444,121.066111,0.00015242233
