站號,站名,日期,lat,lon,BLBTSLS
C0R710,龍磐,2015-04-04,21.931672,120.838942,0.9968415
C1F9D1,白毛台,2015-04-04,24.158325,120.886933,2.398169e-09
C0G940,竹塘,2015-04-04,23.848253,120.386764,3.733948e-09
467590,恆春,2015-04-04,22.003897,120.746339,0.996357
C1O850,環湖,2015-04-04,23.148617,120.418633,2.38861e-06
C0U710,太平山,2015-04-04,24.505486,121.525656,1.6097237e-08
C0E820,獅潭,2015-04-04,24.539133,120.920042,5.7365412e-08
C0V880,興達,2015-04-04,22.8778,120.2127,6.560065e-06
C0S890,關山,2015-04-04,23.0395,121.175017,1.0199087e-06
C0SB30,新蘭,2015-04-04,22.869214,121.223228,0.9895343
C2R970,屏科大,2015-04-04,22.648275,120.619247,3.1021457e-06
K2F750,種苗繁殖,2015-04-04,24.225972,120.800917,2.4597178e-09
C1Z130,銅門,2015-04-04,23.965694,121.492842,1.0547088e-07
C0AD40,土城,2015-04-04,24.973208,121.445169,0.00012430937
CAN140,六官養殖協會,2015-04-04,23.22881,120.29962,8.3314654e-07
C0X180,山上,2015-04-04,23.0757,120.363253,2.6300904e-07
C0F9Z0,雪山東峰,2015-04-04,24.388792,121.268675,2.3425585e-08
C1M480,獨立山,2015-04-04,23.537022,120.607797,1.8522638e-09
C0X220,學甲,2015-04-04,23.230367,120.182187,4.2272177e-06
467650,日月潭,2015-04-04,23.881325,120.90805,1.9475865e-09
C0K600,箔子寮,2015-04-04,23.6197,120.14,1.8529838e-06
C0G830,埤頭,2015-04-04,23.866003,120.452806,3.356301e-09
C0S950,七塊厝,2015-04-04,22.954453,121.229922,7.997171e-08
467110,金門,2015-04-04,24.407306,118.289281,5.2422107e-09
C0AH80,深坑,2015-04-04,25.002703,121.628328,7.22877e-05
467990,馬祖,2015-04-04,26.169269,119.923419,1.6070945e-08
C0A970,三貂角,2015-04-04,25.007606,122.002058,0.00011233808
C2D730,寶山農場,2015-04-04,24.732444,120.976153,8.687564e-06
C0K430,褒忠,2015-04-04,23.690938,120.303634,0.00017017686
467480,嘉義,2015-04-04,23.495925,120.432906,2.3414777e-05
C2E540,後龍,2015-04-04,24.606489,120.783933,0.00076303154
C0V400,阿公店,2015-04-04,22.804194,120.355528,8.81592e-08
C0R440,大漢山,2015-04-04,22.405264,120.753181,7.1818214e-09
C0K280,四湖,2015-04-04,23.630414,120.227125,0.0003558967
C1F9B1,桐林,2015-04-04,24.066172,120.735194,1.7126948e-09
C2H9U0,鳳鵬,2015-04-04,23.763919,120.788061,9.1198005e-10
C0K390,土庫,2015-04-04,23.679029,120.395574,3.2466971e-09
C1I450,望鄉山,2015-04-04,23.594153,120.944286,1.9178684e-08
C0E910,海埔,2015-04-04,24.648767,120.772435,1.4361399e-06
B2E890,畜試北區分所,2015-04-04,24.527806,120.770972,0.0024165553
C0R750,四林格山,2015-04-04,22.076989,120.802439,0.9998614
C0F0C0,中坑,2015-04-04,24.248517,120.903319,2.676249e-09
C1I121,大鞍,2015-04-04,23.678381,120.760017,3.9645904e-09
72U480,花改蘭陽分場,2015-04-04,24.686306,121.716583,8.73471e-05
C0A770,科教館,2015-04-04,25.096356,121.516507,0.00013807017
C0AJ60,六塊厝,2015-04-04,25.24,121.4481,0.0023177068
C0R620,墾雷,2015-04-04,21.900836,120.855269,0.9965465
467420,永康,2015-04-04,23.038386,120.2367,1.7108172e-06
467300,東吉島,2015-04-04,23.25695,119.667467,0.9890505
C0I410,名間,2015-04-04,23.837053,120.701447,2.1091353e-09
A2C560,農工中心,2015-04-04,24.985917,121.239833,6.7249243e-06
C0V740,旗山,2015-04-04,22.888614,120.483597,7.0099395e-07
C0Z061,玉里,2015-04-04,23.3215,121.339656,2.181043e-07
C0S840,南田,2015-04-04,22.279725,120.889208,0.073175706
C1I470,杉林溪,2015-04-04,23.639517,120.786444,5.4603913e-09
C1X040,東原,2015-04-04,23.291597,120.463822,1.1270884e-09
C0R660,枋寮,2015-04-04,22.367722,120.590647,0.017432552
C1R120,上德文,2015-04-04,22.763272,120.704442,2.0358053e-08
C0K450,大埤,2015-04-04,23.646074,120.431537,2.5584093e-09
C0UA00,土場,2015-04-04,24.576533,121.495333,4.251456e-08
467080,宜蘭,2015-04-04,24.763975,121.756528,5.353098e-05
C0N030,四草,2015-04-04,23.0235,120.1116,0.00016412928
C0V650,彌陀,2015-04-04,22.783806,120.246361,1.2914719e-06
C0D660,新竹市東區,2015-04-04,24.798681,120.986942,3.1445095e-05
82S580,茶改東部分場,2015-04-04,22.907694,121.130139,3.1986602e-07
C0SB40,興隆,2015-04-04,22.913661,121.257469,1.3705521e-06
C0C710,大溪永福,2015-04-04,24.892936,121.324975,5.2679907e-06
C0FA20,溫寮,2015-04-04,24.372177,120.583125,0.0038598015
C0V640,湖內,2015-04-04,22.887139,120.2445,5.0051317e-06
C0R910,下寮,2015-04-04,22.3929,120.5548,0.98863596
C0Z020,明里,2015-04-04,23.208717,121.262342,7.108885e-08
C0M770,嘉義梅山,2015-04-04,23.585398,120.555587,3.833404e-09
G2F820,農業試驗所,2015-04-04,24.031261,120.688133,0.0005831595
C0C660,楊梅,2015-04-04,24.912375,121.143047,3.986822e-06
C1E511,新開,2015-04-04,24.347703,120.827019,1.336443e-09
G2F820,農試所(霧峰),2015-04-04,24.031261,120.688133,0.0005831595
C1I070,和社,2015-04-04,23.591131,120.888861,1.2054152e-09
C2F000,大肚,2015-04-04,24.15295,120.572117,1.5271335e-09
C1S850,豐南,2015-04-04,23.122139,121.262389,5.1602314e-08
C2A920,富貴角,2015-04-04,25.263783,121.565258,0.002143752
CAH030,茶改場竹圍站,2015-04-04,23.860083,120.637528,1.0443905e-09
C0T960,光復,2015-04-04,23.660694,121.424964,6.945896e-07
C0F9M0,豐原,2015-04-04,24.254322,120.720692,1.5566344e-06
C0R720,旭海,2015-04-04,22.205403,120.887614,0.99981475
C0V710,苓雅,2015-04-04,22.622742,120.330669,0.011708283
C0C740,觀音工業區,2015-04-04,25.064764,121.114856,0.00027499633
CAC040,拉拉山,2015-04-04,24.699317,121.427133,6.7834582e-09
C0V790,萬山,2015-04-04,22.905944,120.688056,4.0434536e-10
U2HA30,臺大和社,2015-04-04,23.590856,120.888864,1.2054152e-09
C0AJ90,澳底,2015-04-04,25.0552,121.9253,0.0006807276
C0Z100,東華,2015-04-04,23.89525,121.549833,9.254741e-07
C0G970,三豐,2015-04-04,23.882,120.2895,0.0007165048
V2K610,大庄合作社,2015-04-04,23.8068,120.367939,0.00024600382
C0V900,汕尾,2015-04-04,22.4782,120.4151,0.15519208
C1R630,龍泉,2015-04-04,22.66701,120.59091,0.00026693253
C1AC50,關渡,2015-04-04,25.133486,121.469331,0.00029031248
C0F9I0,神岡,2015-04-04,24.272481,120.658314,4.076045e-06
C0K460,斗南,2015-04-04,23.678734,120.478359,3.011359e-09
467410,臺南,2015-04-04,22.993239,120.204772,1.2870001e-06
C2O810,曾文,2015-04-04,23.219681,120.497328,2.478529e-07
467280,後龍,2015-04-04,24.648563,120.831834,5.595793e-07
C1F9J1,清水林,2015-04-04,24.071242,120.820419,9.460276e-10
C2A650,火燒寮,2015-04-04,25.002719,121.742892,3.1058103e-06
466930,竹子湖,2015-04-04,25.162078,121.544547,2.9225431e-08
C1I220,樟湖,2015-04-04,23.905333,120.846983,1.8081624e-09
C0I390,仁愛,2015-04-04,24.022122,121.132206,2.2437072e-09
C0Z300,東里,2015-04-04,23.26853,121.30547,1.9455385e-07
C1V590,新發,2015-04-04,23.057019,120.646064,4.202212e-09
C0K510,水林,2015-04-04,23.572924,120.24597,1.8108695e-06
72S590,東改賓朗果園,2015-04-04,22.813889,121.071278,0.4480986
82A750,茶改北部分場,2015-04-04,24.955778,121.631222,1.4871503e-08
C1A750,石碇服務區,2015-04-04,25.00872,121.646242,5.64849e-05
C0X300,鹿寮,2015-04-04,23.386047,120.477331,2.954252e-09
G2AI50,關渡,2015-04-04,25.11575,121.492,0.00015722594
C0K590,雲林東勢,2015-04-04,23.674192,120.255721,0.00016993786
C0A570,桶後,2015-04-04,24.848222,121.597992,1.1704182e-07
C1S800,華源,2015-04-04,22.657883,121.02325,0.99898195
C0G720,溪州,2015-04-04,23.851589,120.499093,3.0522769e-09
C1V160,達卡努瓦,2015-04-04,23.279811,120.705319,4.565549e-09
C2M410,馬頭山,2015-04-04,23.324361,120.582017,9.999688e-10
C0V850,蚵仔寮,2015-04-04,22.7256,120.2527,8.551571e-05
C0S740,池上,2015-04-04,23.119628,121.209469,1.5156236e-07
C1V390,尖山,2015-04-04,22.813153,120.367789,4.8211252e-08
C0AH70,松山,2015-04-04,25.04871,121.55042,0.00014637476
C0N010,鯤鯓國小,2015-04-04,23.1879,120.0889,0.00011750557
C0R550,新埤,2015-04-04,22.467947,120.582894,3.5304286e-06
C0SA60,知本（水試所）,2015-04-04,22.702394,121.082761,0.9998698
C0T9I0,豐濱,2015-04-04,23.583897,121.514806,2.8917452e-07
C0UB00,淡江大學蘭陽校園,2015-04-04,24.823239,121.730383,4.1649972e-08
C0W240,九宮,2015-04-04,24.423753,118.240186,4.512935e-09
C0T9N0,富里,2015-04-04,23.171639,121.249378,7.109671e-08
U2HA50,臺大竹山,2015-04-04,23.756972,120.681556,1.3990717e-09
C0V840,鳳鼻頭,2015-04-04,22.5083,120.3591,0.027094105
C0X140,西港,2015-04-04,23.125608,120.203108,1.8348877e-05
72D080,桃改五峰分場,2015-04-04,24.612194,121.157167,3.649963e-09
C2H9P0,伊拿谷,2015-04-04,23.963211,121.088264,1.1585756e-09
C2H9F0,柑林,2015-04-04,24.018658,120.847072,1.0199287e-09
C0TA20,加灣,2015-04-04,24.082025,121.608944,2.2790748e-07
C0V530,阿蓮,2015-04-04,22.883208,120.327508,4.3979603e-07
C1O880,關山,2015-04-04,23.173397,120.594092,1.0804015e-09
C0E791,卓蘭,2015-04-04,24.3126,120.8244,1.3447276e-09
C1I030,武界,2015-04-04,23.913225,121.052483,1.7029779e-09
C0R520,崁頂,2015-04-04,22.514781,120.506914,0.9797304
C0R341,牡丹,2015-04-04,22.130036,120.792639,0.13696946
C0R930,萬丹,2015-04-04,22.5885,120.4851,5.27908e-06
C0S760,紅石,2015-04-04,23.069131,121.126219,1.1788811e-08
C1M610,石磐龍,2015-04-04,23.496606,120.663506,3.1957157e-09
C0UA10,鴛鴦湖,2015-04-04,24.590269,121.412228,8.106961e-09
V2C260,八德蔬果,2015-04-04,24.978508,121.281819,5.215647e-06
C0R800,丹路,2015-04-04,22.204481,120.750989,0.9925899
C0G920,永靖,2015-04-04,23.924703,120.547533,2.6604534e-06
C2M950,太和,2015-04-04,23.538372,120.702961,4.0728536e-09
C1A630,下盆,2015-04-04,24.771003,121.538622,4.8291593e-08
B2N890,畜產試驗所,2015-04-04,23.058972,120.336406,7.4539415e-08
C0UA30,白嶺,2015-04-04,24.527819,121.519031,9.066872e-09
C1V580,溪南(特生中心),2015-04-04,23.084972,120.788475,7.463613e-09
C1T970,大農,2015-04-04,23.615233,121.413331,4.241041e-07
E2S960,林試太麻里2,2015-04-04,22.598014,120.989761,0.9965382
C0R650,竹田,2015-04-04,22.58486,120.54344,5.27908e-06
C1H900,清流,2015-04-04,24.080775,120.962997,1.3421344e-09
C1C510,水尾,2015-04-04,24.940081,121.087161,1.3356826e-05
C0F9X0,大雅(中科園區),2015-04-04,24.21528,120.62445,0.00088892237
C0SB60,白守蓮,2015-04-04,23.126769,121.401914,0.50375676
C0O970,虎頭埤,2015-04-04,23.021375,120.347878,1.0057489e-06
C0C730,中大臨海站,2015-04-04,24.966126,121.008581,0.00011390614
C0X250,新營,2015-04-04,23.310689,120.316681,2.460583e-07
C0V700,三民,2015-04-04,22.645017,120.311233,0.011708283
C0U870,大礁溪,2015-04-04,24.791042,121.675047,2.0341208e-08
C0E870,高鐵苗栗,2015-04-04,24.60725,120.826094,0.00067450607
A2K570,古坑花卉中心,2015-04-04,23.63353,120.55239,2.177743e-09
C0M860,新美,2015-04-04,23.338017,120.683169,1.4743724e-09
C1E701,八卦,2015-04-04,24.491756,120.927619,4.7810413e-09
C0I420,國姓,2015-04-04,24.037803,120.855072,9.1252467e-10
C2D720,關西工作站,2015-04-04,24.757275,121.184792,1.3195979e-06
C0S960,香蘭,2015-04-04,22.587569,120.993375,0.9965382
C0R260,春日,2015-04-04,22.370361,120.628306,0.9962106
72G600,臺中農改場,2015-04-04,24.003028,120.534389,2.4901103e-06
C0Z210,瑞穗,2015-04-04,23.5239,121.39021,3.4248285e-07
C0M820,達邦,2015-04-04,23.453994,120.749517,2.047553e-09
C0V860,南寮,2015-04-04,22.7616,120.2339,1.7067122e-06
C0G740,大城,2015-04-04,23.852487,120.320935,0.0006673733
C0R920,塭仔,2015-04-04,22.4169,120.5197,0.9918333
C0R470,高樹,2015-04-04,22.826389,120.600806,5.665249e-07
C0R680,佳樂水,2015-04-04,21.993578,120.861633,0.996269
C1O870,大棟山,2015-04-04,23.31157,120.52226,3.298379e-09
C0D360,梅花,2015-04-04,24.678347,121.208558,5.966057e-09
C0Z190,富世,2015-04-04,24.14743,121.6297,9.844804e-07
C0AI10,屈尺,2015-04-04,24.92184,121.54475,7.22877e-05
B2U990,畜試東區分所,2015-04-04,24.669039,121.832561,0.00015832961
C0SB80,長濱漁港,2015-04-04,23.313644,121.459994,6.9631596e-07
C0R240,來義,2015-04-04,22.527306,120.625111,0.99480975
C0V910,大樹,2015-04-04,22.684645,120.432803,3.55209e-06
C1R610,西大武山,2015-04-04,22.617719,120.7322,8.41479e-09
C0G900,線西,2015-04-04,24.143358,120.443536,0.0019764623
C0M700,竹崎,2015-04-04,23.526178,120.555508,1.9421336e-09
C2E880,三義,2015-04-04,24.405478,120.749819,2.5773983e-09
C0C720,竹圍,2015-04-04,25.112692,121.239824,0.0017756865
C0F9P0,清水,2015-04-04,24.312297,120.562242,0.0030376345
C0Z150,吉安光華,2015-04-04,23.930925,121.595153,1.2011959e-06
C1D640,外坪(五指山),2015-04-04,24.644447,121.090961,5.9629173e-09
C0F9O0,潭子,2015-04-04,24.213106,120.703933,4.554307e-06
C2H9R0,卓社,2015-04-04,23.887894,121.000086,2.8108382e-09
72T250,花蓮農改場,2015-04-04,23.975222,121.563889,2.0605695e-07
C0E780,銅鑼,2015-04-04,24.489681,120.790853,4.37265e-07
C1T950,太安,2015-04-04,23.666719,121.370128,1.8129326e-08
C0E830,苑裡,2015-04-04,24.439714,120.653053,0.0033965604
467270,田中,2015-04-04,23.873803,120.581286,2.528897e-09
C0SA10,檳榔四格山,2015-04-04,22.810031,121.109308,0.03529402
C1T830,布洛灣,2015-04-04,24.17184,121.57127,5.847358e-07
C0F970,大坑,2015-04-04,24.173142,120.722289,0.00052664423
C1U920,思源,2015-04-04,24.393125,121.347214,1.2081548e-08
C0A931,三和,2015-04-04,25.233153,121.595236,2.054151e-06
C0I010,廬山,2015-04-04,24.033311,121.181808,4.1914054e-09
C2M940,日野賀,2015-04-04,23.434056,120.727169,3.5300152e-09
C0R860,鼻頭,2015-04-04,22.1043,120.8979,0.99552983
C0UB20,壯圍,2015-04-04,24.7359,121.8163,0.00015832961
C0R790,九棚,2015-04-04,22.14195,120.889281,0.99952865
C0W110,東莒,2015-04-04,25.9652,119.98069,0.00865314
C1U930,粉鳥林,2015-04-04,24.497088,121.842479,5.087745e-07
C1I211,蘆竹湳,2015-04-04,23.934019,120.811994,1.7900237e-09
C0S830,長濱,2015-04-04,23.286817,121.411975,6.3855516e-08
C1F9F1,伯公龍,2015-04-04,24.272392,120.849047,2.6005675e-09
C0E810,西湖,2015-04-04,24.562947,120.7485,0.0005693313
C1I440,新高口,2015-04-04,23.478744,120.878939,1.3105845e-08
C0O840,王爺宮,2015-04-04,23.222064,120.40085,2.478529e-07
C0T9G0,鳳林山,2015-04-04,23.735269,121.420131,9.512937e-08
C0X080,佳里,2015-04-04,23.173039,120.145086,5.3385374e-06
C0FB70,大甲溪埔,2015-04-04,24.370625,120.620067,0.0032469141
C0Z310,清水斷崖,2015-04-04,24.218294,121.689142,1.5115447e-05
C0M680,太保,2015-04-04,23.455062,120.331455,3.282456e-07
C1S820,金峰,2015-04-04,22.590969,120.933236,0.999708
C0AD10,八里,2015-04-04,25.150211,121.403947,0.0017756865
C2K240,草嶺,2015-04-04,23.59555,120.693461,3.0077023e-09
C1SA70,都蘭,2015-04-04,22.87794,121.226881,1.3705521e-06
C0K440,二崙,2015-04-04,23.772797,120.408944,3.4849255e-09
C1A760,坪林交控,2015-04-04,24.94284,121.713442,1.0585709e-06
C0F9N0,大里,2015-04-04,24.092464,120.701378,0.00094204495
C0SA90,達仁林場,2015-04-04,22.264347,120.823972,0.99913764
C1R290,石門山,2015-04-04,22.112611,120.756597,0.9923626
42HA10,萬大發電廠,2015-04-04,23.978875,121.139639,2.659462e-09
C0R890,山海,2015-04-04,21.9878,120.7091,0.9961486
C0T9A0,月眉山,2015-04-04,23.809928,121.539828,8.58297e-08
C0AC70,信義,2015-04-04,25.037822,121.564597,0.00014637476
C0K560,棋山,2015-04-04,23.68645,120.603417,4.67036e-09
C2FB50,出雲,2015-04-04,24.206469,120.902794,2.046698e-09
C1Z240,中平林道,2015-04-04,23.42115,121.26763,2.7761272e-08
U2H480,溪頭,2015-04-04,23.670306,120.798194,1.8075487e-09
C0M880,好美里,2015-04-04,23.3364,120.138,5.3385374e-06
C0T9E0,大坑,2015-04-04,23.880628,121.581981,1.06146146e-07
C0K530,臺西,2015-04-04,23.701547,120.197559,0.00038318126
C1E900,國一N128K,2015-04-04,24.560997,120.844186,0.00043662213
C0AJ50,水湳洞,2015-04-04,25.123695,121.862238,0.83267415
C0AI20,白沙灣,2015-04-04,25.283128,121.519058,0.021781918
C0A860,大坪,2015-04-04,25.165914,121.632969,4.1812985e-08
C1U850,觀音海岸,2015-04-04,24.38319,121.77856,3.5857163e-08
C2K610,草嶺石壁,2015-04-04,23.602469,120.707731,3.3311411e-09
C0U950,鶯子嶺,2015-04-04,24.89754,121.79244,1.7191235e-08
C0O900,善化,2015-04-04,23.112883,120.297219,1.0946881e-07
C0K550,蔦松,2015-04-04,23.514319,120.229736,1.5953067e-06
E2P980,林試六龜中心,2015-04-04,22.991703,120.645722,9.161207e-10
C0E590,通霄,2015-04-04,24.471892,120.704622,0.0031179106
C1I310,西巒,2015-04-04,23.754486,120.883956,2.2286726e-09
C0A550,泰平,2015-04-04,24.971197,121.823711,5.830414e-08
C0I360,水里,2015-04-04,23.812553,120.849792,1.0254235e-09
C0R830,高士,2015-04-04,22.121825,120.836781,0.9962441
C1I101,溪頭,2015-04-04,23.661789,120.807647,4.9890034e-09
C0AJ20,野柳,2015-04-04,25.20703,121.690021,0.83282
C0B060,暖暖,2015-04-04,25.0957,121.7403,0.2764664
C1H920,長豐,2015-04-04,24.102039,120.879897,9.636031e-10
C0V360,內門,2015-04-04,22.975481,120.466769,3.1768994e-07
C0R850,林邊,2015-04-04,22.4634,120.5339,0.9798762
C0E930,龍鳳,2015-04-04,24.700034,120.859125,1.2051386e-06
C0U910,冬山,2015-04-04,24.63373,121.7937,0.00015832961
C1E721,泰安,2015-04-04,24.489017,120.968036,3.160232e-09
82H320,茶改中部分場,2015-04-04,23.875611,120.913583,9.048312e-10
C0M750,布袋,2015-04-04,23.380878,120.167789,4.2148313e-06
C1S860,利嘉,2015-04-04,22.809417,121.050528,2.9595165e-07
72C440,桃園農改,2015-04-04,24.950944,121.030583,2.9836414e-05
E2S980,林試太麻里1,2015-04-04,22.598922,120.980044,0.99893993
C0X170,關廟,2015-04-04,22.963017,120.327797,1.0956051e-07
C0V720,林園,2015-04-04,22.507747,120.394511,0.011708283
C1I510,線浸林道,2015-04-04,23.761508,120.832956,1.6433795e-09
C0D690,外湖,2015-04-04,24.917735,120.968711,0.00011419968
C0C750,新興坑尾,2015-04-04,25.0061,121.0971,7.056582e-05
B2Q810,畜試南區分所,2015-04-04,21.945583,120.802167,0.9962695
C0S790,金崙,2015-04-04,22.538122,120.966875,0.9997466
C0AH90,福山植物園,2015-04-04,24.760717,121.58135,2.176623e-08
C0I540,奇萊稜線,2015-04-04,24.109231,121.326456,2.8207916e-08
C0M850,表湖,2015-04-04,23.24186,120.64166,1.5705692e-09
C0S770,大溪山,2015-04-04,22.478475,120.943325,0.21268463
C0AG80,中和,2015-04-04,24.991622,121.491792,0.00014637476
C0T790,大禹嶺,2015-04-04,24.186117,121.316086,1.823955e-08
C0T9B0,水源,2015-04-04,23.991861,121.537169,7.467959e-08
C0R840,牡丹池山,2015-04-04,22.168389,120.841225,0.99903935
C1I131,桶頭,2015-04-04,23.641944,120.654117,1.4341113e-09
CAL110,布袋國中,2015-04-04,23.35893,120.18026,2.545124e-07
467571,新竹,2015-04-04,24.827853,121.014219,4.324553e-05
C0Z290,赤柯山,2015-04-04,23.36893,121.38293,3.2978523e-08
C0X280,將軍,2015-04-04,23.214999,120.13577,5.3385374e-06
C0S690,太麻里,2015-04-04,22.60902,120.98533,0.00010950806
C0U880,北關,2015-04-04,24.9072,121.8734,0.016771922
C1H860,瑞岩,2015-04-04,24.123772,121.18345,6.059512e-09
C0G810,埔心,2015-04-04,23.947633,120.525456,3.134178e-06
C0U970,大福,2015-04-04,24.80064,121.81389,5.823415e-05
C2H9N0,仁愛東眼,2015-04-04,24.026875,121.1205,3.4236014e-09
C1E670,南礦,2015-04-04,24.538278,121.002836,2.7855989e-09
C0M520,東後寮,2015-04-04,23.369908,120.248065,2.205669e-07
C1E461,松安,2015-04-04,24.397972,120.986022,2.8822467e-09
72G600,臺中農改,2015-04-04,24.003028,120.534389,2.4901103e-06
C2N160,西拉雅風管處,2015-04-04,23.189481,120.335297,6.0174017e-07
C2M970,碧湖,2015-04-04,23.568632,120.624165,2.7029092e-09
C0A640,石碇,2015-04-04,24.993969,121.662917,6.034819e-06
E2S960,林試太麻里2,2015-04-04,22.598,120.99775,0.9962022
C0F9Y0,桃山,2015-04-04,24.432739,121.303808,2.5292454e-08
C1I020,萬大,2015-04-04,23.979817,121.132261,2.2472064e-09
C0U940,羅東,2015-04-04,24.68184,121.74934,0.00013052575
C0M650,朴子,2015-04-04,23.43463,120.23902,3.3576814e-06
C1I500,大尖山,2015-04-04,23.858572,120.994889,8.11643e-09
C0G820,田尾,2015-04-04,23.901669,120.509389,2.6604534e-06
E2K600,四湖植物園,2015-04-04,23.676986,120.163433,0.00038268758
C0S730,綠島,2015-04-04,22.6672,121.47533,5.2158175e-05
12Q970,東港工作站,2015-04-04,22.479997,120.466058,0.98863596
C0E430,南庄,2015-04-04,24.601775,121.000214,5.4354345e-08
C1TA00,太魯閣,2015-04-04,24.15773,121.6236,1.9970417e-05
466920,臺北,2015-04-04,25.037658,121.514853,0.00014637476
C0R600,舊泰武,2015-04-04,22.588194,120.664944,0.0015608047
C1I260,北坑,2015-04-04,23.9246,121.006903,7.98261e-10
466910,鞍部,2015-04-04,25.182586,121.529731,2.4302462e-08
C1I230,九份二山,2015-04-04,23.961944,120.845,1.1044182e-09
C2A660,瑞芳,2015-04-04,25.113169,121.801147,8.4125655e-05
C0R270,琉球嶼,2015-04-04,22.332244,120.362236,0.9961887
C1T990,高寮,2015-04-04,23.394239,121.356808,2.8556957e-07
C0G620,芬園,2015-04-04,24.015678,120.6213,1.2775702e-07
C1Z140,荖溪,2015-04-04,23.890575,121.45964,2.3385809e-08
C1I201,中心崙,2015-04-04,23.728722,120.712097,1.4191942e-09
C1I400,凌霄,2015-04-04,24.018778,121.004456,3.3392646e-09
C1M640,十字,2015-04-04,23.492153,120.753683,4.1846793e-09
G2P820,農試鳳山分所,2015-04-04,22.646611,120.356083,0.0027790572
C0Z270,蕃薯寮,2015-04-04,23.73835,121.540108,2.6935732e-07
C0F9Q0,外埔,2015-04-04,24.347817,120.705686,1.736879e-05
C0K580,高鐵雲林,2015-04-04,23.737456,120.417944,3.2466971e-09
C2I090,鳳凰,2015-04-04,23.728081,120.787347,9.311884e-10
C0U990,員山,2015-04-04,24.74435,121.72247,0.00013084589
C0V770,大社,2015-04-04,22.730306,120.346639,2.9016373e-05
C0X120,麻豆,2015-04-04,23.183289,120.248611,4.2272177e-06
C0C670,龍潭,2015-04-04,24.870056,121.221389,1.8613454e-08
C0D680,香山濕地,2015-04-04,24.783581,120.914988,9.4337585e-05
C0S980,勝林山,2015-04-04,22.430439,120.8938,3.5748147e-07
C0V730,大寮,2015-04-04,22.605614,120.395717,1.4829294e-06
C0R570,麟洛,2015-04-04,22.65078,120.52719,1.8995795e-05
C2M930,石卓,2015-04-04,23.478744,120.702264,4.1081103e-09
C0G9B0,和美,2015-04-04,24.105169,120.492131,6.723026e-06
CAG100,王功漁港,2015-04-04,23.96824,120.32586,0.000417667
C0X290,北門,2015-04-04,23.267772,120.125481,5.3385374e-06
C2F930,大甲,2015-04-04,24.347667,120.640403,0.0018822101
C0D650,湖口,2015-04-04,24.904794,121.043628,1.1099061e-05
C0E420,竹南,2015-04-04,24.708978,120.888897,5.4100678e-05
C0U780,五結,2015-04-04,24.68637,121.79794,0.00015832961
C1I250,鯉潭,2015-04-04,23.961922,120.991131,9.636031e-10
C0R130,阿禮,2015-04-04,22.742908,120.743678,1.5125812e-09
C0X100,臺南市北區,2015-04-04,23.010394,120.194228,2.023846e-06
C0S920,金峰嘉蘭,2015-04-04,22.594789,120.960825,0.9991324
C0V490,新興,2015-04-04,22.627422,120.298803,0.011708283
C0F9K0,大安,2015-04-04,24.345061,120.588025,0.0028190825
72N100,臺南農改,2015-04-04,23.0605,120.342194,7.4539415e-08
467290,古坑,2015-04-04,23.633639,120.551889,2.177743e-09
C2E970,八甲,2015-04-04,24.535811,120.795983,3.5826986e-07
C0V440,鳳山,2015-04-04,22.646653,120.356122,0.0027790572
C1T940,大觀,2015-04-04,23.714206,121.373133,1.2135261e-07
72T250,花蓮農改,2015-04-04,23.975222,121.563889,2.0605695e-07
C0E740,造橋,2015-04-04,24.637056,120.864778,5.9113785e-07
C0R100,尾寮山,2015-04-04,22.833111,120.683889,1.1637648e-09
A2K630,臺大雲林校區,2015-04-04,23.730628,120.423903,3.2466971e-09
C0D580,寶山,2015-04-04,24.735006,121.025192,4.2790347e-08
E2P990,林試扇平站,2015-04-04,22.9677,120.6857,3.1290968e-09
C0AI30,三重,2015-04-04,25.057328,121.500629,0.00013807017
C0AH00,汐止,2015-04-04,25.066881,121.658778,0.83282
C1Z040,立山,2015-04-04,23.443356,121.327375,9.924073e-08
C0W130,花嶼,2015-04-04,23.40007,119.32276,0.9843127
C0A950,鼻頭角,2015-04-04,25.129036,121.923372,0.00083309895
C0K470,林內,2015-04-04,23.748675,120.609642,2.7941982e-09
C2F990,摩天嶺,2015-04-04,24.322458,120.936819,2.7454476e-09
82C160,茶改場,2015-04-04,24.908472,121.185333,8.236867e-07
C0Z320,清水林道,2015-04-04,23.27125,121.188272,5.482351e-08
C0R760,南仁湖,2015-04-04,22.084681,120.863353,0.993105
C0M670,大林,2015-04-04,23.600616,120.45841,0.00015952754
C0M800,茶山,2015-04-04,23.299075,120.664767,1.6414905e-09
C0A9C0,天母,2015-04-04,25.117494,121.537169,0.0001103113
72K220,南改斗南分場,2015-04-04,23.634556,120.477333,3.4935106e-09
72AI40,桃改樹林分場,2015-04-04,24.944503,121.386972,9.603737e-05
C0S910,蘭嶼燈塔,2015-04-04,22.081197,121.503117,0.99813104
C0B050,八斗子,2015-04-04,25.144754,121.79167,0.9157007
C0U900,內城,2015-04-04,24.71813,121.68766,3.2263695e-05
C0X320,柳營,2015-04-04,23.253328,120.375253,7.18928e-07
C0M790,新港,2015-04-04,23.553269,120.345728,3.215574e-07
C0F9T0,西屯,2015-04-04,24.179494,120.641275,0.0013720342
C0SA30,都歷,2015-04-04,23.020333,121.323642,0.0004754703
C0C620,蘆竹,2015-04-04,25.084275,121.265767,0.0013634397
C0R730,大坪頂,2015-04-04,22.024633,120.69355,0.99136
C0AJ40,石門,2015-04-04,25.273672,121.601198,0.00038390962
C0E750,苗栗,2015-04-04,24.564569,120.824575,0.000460289
C0T870,鯉魚潭,2015-04-04,23.935639,121.508944,3.5953593e-07
C1V170,排雲,2015-04-04,23.463619,120.954147,2.8838649e-08
C2H950,中寮,2015-04-04,23.884447,120.766406,1.3199714e-09
C0R350,貓鼻頭,2015-04-04,21.921774,120.7358,0.9965465
C0V660,岡山,2015-04-04,22.797078,120.294958,1.5767374e-06
C1H941,雙冬,2015-04-04,23.967378,120.802189,8.0873735e-10
C0AJ70,田寮,2015-04-04,25.2698,121.4886,0.031863995
C0AI00,五股,2015-04-04,25.07445,121.42728,7.220286e-06
C0Z280,德武,2015-04-04,23.47426,121.41071,1.6611504e-07
C0R700,枋山,2015-04-04,22.246844,120.661086,0.9922165
C0C460,復興,2015-04-04,24.820208,121.352281,2.4296298e-08
E2H360,蓮華池,2015-04-04,23.918333,120.885278,8.8407986e-10
C0M640,中埔,2015-04-04,23.42538,120.5229,2.5834568e-09
C0W140,金沙,2015-04-04,24.488292,118.408778,6.0678738e-09
C2A540,四堵,2015-04-04,24.8926,121.745736,2.084672e-07
C0ACA0,新莊,2015-04-04,25.051478,121.446756,0.0024634113
C0R220,潮州,2015-04-04,22.534361,120.54,0.009019994
U2HA40,臺大內茅埔,2015-04-04,23.689722,120.851117,9.960189e-10
467490,臺中,2015-04-04,24.145736,120.684075,0.00045884555
C0U960,翠峰湖,2015-04-04,24.510856,121.608044,1.574154e-08
E2HA20,林試畢祿溪站,2015-04-04,24.226944,121.308522,9.640466e-09
C0V890,前鎮,2015-04-04,22.5718,120.3117,0.028380677
467620,蘭嶼,2015-04-04,22.036969,121.558339,0.9997476
C1F941,雪嶺,2015-04-04,24.280586,121.026642,1.29951765e-08
C2H9E0,國姓南港,2015-04-04,23.911108,120.846556,1.887068e-09
C0AC80,文山,2015-04-04,25.00235,121.575728,7.22877e-05
C0F9R0,龍井,2015-04-04,24.184536,120.528972,0.0034447694
C0M760,民雄,2015-04-04,23.551754,120.428457,6.0623242e-05
C0UA40,西德山,2015-04-04,24.560647,121.752608,1.8672338e-08
C1T920,中興,2015-04-04,23.769503,121.498653,6.574712e-07
C0D550,雪霸,2015-04-04,24.526972,121.11605,6.985972e-09
C2F860,梨山,2015-04-04,24.247522,121.243669,9.947986e-09
C0R320,車城,2015-04-04,22.0744,120.716247,0.9961486
C1S870,南美山,2015-04-04,23.15025,121.382333,6.5276924e-07
C0B020,基隆嶼,2015-04-04,25.19141,121.78391,0.83267415
C1U501,牛鬥,2015-04-04,24.637836,121.573656,2.3565171e-06
C0M730,嘉義市東區,2015-04-04,23.457673,120.460531,5.975262e-05
C0S700,知本,2015-04-04,22.684866,121.005642,0.0003614503
C1N001,沙崙,2015-04-04,22.935472,120.309406,4.410216e-07
C0V760,橋頭,2015-04-04,22.757806,120.30575,1.2663331e-06
C0G960,福寶,2015-04-04,24.0443,120.3814,5.550141e-06
C0X210,白河,2015-04-04,23.347466,120.414427,5.4953796e-07
C0S810,東河,2015-04-04,22.972672,121.303986,1.7990166e-06
C2R170,屏東,2015-04-04,22.66027,120.49403,3.0833762e-05
C0R670,楓港,2015-04-04,22.190131,120.692156,0.9922165
C0FA50,霧峰,2015-04-04,24.0419,120.6995,0.00030670824
C0UB10,蘇澳,2015-04-04,24.5969,121.8571,7.768159e-08
C0G950,防潮門,2015-04-04,24.1835,120.4871,0.0036036288
C0M740,六腳,2015-04-04,23.492871,120.290625,3.4478472e-07
C1R250,力里,2015-04-04,22.428117,120.629228,0.99480975
C0K330,虎尾,2015-04-04,23.719183,120.442036,3.08719e-09
C2FA00,烏石坑,2015-04-04,24.273503,120.947617,2.7287315e-09
C0V620,永安,2015-04-04,22.82315,120.236856,1.2914719e-06
C1I330,楓樹林,2015-04-04,23.986803,121.076117,2.714803e-09
C0W200,湖西,2015-04-04,23.596314,119.67275,0.9777831
72Q010,高雄農改場,2015-04-04,22.709333,120.525889,1.5314947e-05
C0SA40,瑞和,2015-04-04,22.974361,121.156697,2.201041e-06
C0C680,龜山,2015-04-04,25.02846,121.38656,1.52184e-07
C2V260,月眉,2015-04-04,22.971003,120.539853,7.1695955e-10
C0V450,鳳森,2015-04-04,22.545064,120.392592,4.8929394e-07
C0U720,南山,2015-04-04,24.43742,121.38167,1.1126818e-08
A2N290,臺南蘭花園區,2015-04-04,23.340258,120.379661,7.18928e-07
C0R560,新園,2015-04-04,22.5434,120.461558,0.9798762
C0U890,三星,2015-04-04,24.66812,121.65302,1.3615275e-05
C1V300,御油山,2015-04-04,23.001983,120.715364,7.4299216e-09
C0U600,礁溪,2015-04-04,24.817539,121.765608,4.4969915e-05
C1T980,龍澗,2015-04-04,24.023289,121.411328,1.3520502e-08
C0D670,海天一線,2015-04-04,24.831986,120.914438,0.00011459698
C0SA00,歷坵,2015-04-04,22.520969,120.89185,0.0014327884
C0M710,東石,2015-04-04,23.458927,120.15385,1.5953067e-06
C0M780,鹿草,2015-04-04,23.41134,120.30835,6.677497e-07
C0U520,雙連埤,2015-04-04,24.753033,121.641303,2.0217897e-08
C0B010,七堵,2015-04-04,25.094819,121.71713,0.69447
C0R480,長治,2015-04-04,22.693128,120.542622,3.4065934e-07
C1V830,國三S383K,2015-04-04,22.781967,120.426475,1.0578085e-09
12Q980,恆春工作站,2015-04-04,22.079678,120.714425,0.9961486
C1O940,東山服務區,2015-04-04,23.286016,120.398472,5.1450235e-07
C1U840,東澳嶺,2015-04-04,24.5378,121.8485,3.24186e-08
C1D630,飛鳳山,2015-04-04,24.766464,121.119178,1.2907679e-08
C0S940,石寧山,2015-04-04,23.223772,121.406639,1.155553e-07
C0K410,北港,2015-04-04,23.573957,120.292802,3.926379e-07
C2M620,瑞里,2015-04-04,23.545133,120.675197,3.6650383e-09
C0SB70,小港漁港,2015-04-04,23.158558,121.400431,2.7728709e-07
C2O950,安南,2015-04-04,23.076694,120.144861,2.4305884e-06
C0F0E0,南湖圈谷,2015-04-04,24.363714,121.444667,3.9364792e-08
467610,成功,2015-04-04,23.097486,121.373428,0.05863863
C0G890,伸港,2015-04-04,24.148933,120.484403,0.0027524305
C2E540,龍溪,2015-04-04,24.606489,120.783933,0.00076303154
C1V200,梅山,2015-04-04,23.268447,120.823556,4.39761e-09
C0T9H0,加路蘭山,2015-04-04,23.682947,121.5274,7.000127e-08
C2O930,玉井,2015-04-04,23.126042,120.46055,2.4056665e-06
C1F911,新伯公,2015-04-04,24.221361,120.841069,2.6397224e-09
C0R490,九如,2015-04-04,22.7405,120.490503,1.9338404e-05
C0X200,左鎮,2015-04-04,23.056758,120.408522,3.0217086e-07
C0SB50,叭嗡嗡,2015-04-04,23.047062,121.343223,4.154432e-06
C1F891,稍來,2015-04-04,24.265689,121.001142,8.441008e-09
72N240,七股研究中心,2015-04-04,23.081672,120.062894,0.0001215164
C0C700,中壢,2015-04-04,24.977661,121.256375,4.2619727e-06
C0M690,水上,2015-04-04,23.419734,120.388909,7.528395e-05
C0V690,鼓山,2015-04-04,22.623325,120.275575,0.011708283
C0O860,大內,2015-04-04,23.11885,120.36083,4.049308e-08
C0Z200,萬榮,2015-04-04,23.709219,121.420106,3.5953593e-07
C0T9D0,和中,2015-04-04,24.26676,121.74103,0.00017491919
C1O921,楠西,2015-04-04,23.183511,120.484083,7.7272756e-07
C0AJ30,淡水觀海,2015-04-04,25.184591,121.408616,0.0023177068
C0V810,左營,2015-04-04,22.67491,120.28491,4.2737523e-05
C0UA70,桃源谷,2015-04-04,24.962606,121.888875,4.406016e-08
C0X130,官田,2015-04-04,23.193217,120.315422,7.690385e-07
C1H000,翠峰,2015-04-04,24.109397,121.205211,1.328869e-08
C0UA90,石城,2015-04-04,24.980444,121.951214,0.00059338997
C1E681,南勢山,2015-04-04,24.421669,120.923831,2.8378973e-09
C0A9F0,內湖,2015-04-04,25.079422,121.57545,0.00014637476
C0K291,宜梧,2015-04-04,23.536281,120.169329,1.8728194e-06
C1K540,口湖,2015-04-04,23.585344,120.180517,2.2619415e-06
C0R780,滿州,2015-04-04,22.024403,120.839892,0.9966423
C0V870,文安,2015-04-04,22.8025,120.2164,1.7068701e-06
C0U650,玉蘭,2015-04-04,24.675286,121.587061,1.2295298e-07
C0R640,東港,2015-04-04,22.46247,120.44074,0.027094105
K2E360,苗栗農改,2015-04-04,24.495722,120.829111,1.85658e-06
C0AJ80,板橋,2015-04-04,25.0107,121.4489,0.00012430937
C0S660,下馬,2015-04-04,23.150427,121.070312,3.9869324e-08
C1H9B1,阿眉,2015-04-04,24.1263,120.994672,5.015135e-09
C0UA20,多加屯,2015-04-04,24.368614,121.373189,1.5293555e-08
C0E730,頭份,2015-04-04,24.688247,120.912206,5.4100678e-05
72V140,高改旗南分場,2015-04-04,22.857861,120.516667,1.2129204e-08
C0K480,莿桐,2015-04-04,23.761192,120.502372,2.793207e-09
C0U980,坪林石牌,2015-04-04,24.86478,121.77396,4.2578346e-08
C0T900,西林,2015-04-04,23.8119,121.441458,2.8670806e-07
C1I150,青雲,2015-04-04,23.793361,120.949378,9.439242e-10
467350,澎湖,2015-04-04,23.565503,119.563094,0.99077755
C0G800,埔鹽,2015-04-04,24.000394,120.431683,4.6258583e-06
C0H960,草屯,2015-04-04,23.973672,120.68085,1.5573991e-09
C1V780,多納林道,2015-04-04,22.888028,120.737917,2.1327071e-09
C0E920,通霄漁港,2015-04-04,24.498589,120.673876,0.0039938353
C0Z330,安通山,2015-04-04,23.290728,121.348528,6.4939826e-08
C0AH10,永和,2015-04-04,25.01125,121.508111,0.0001611807
C0AK10,太平里,2015-04-04,25.134937,121.364899,0.0024634113
C2G640,鹿港,2015-04-04,24.0753,120.430481,4.6258583e-06
C1E890,國三N149K,2015-04-04,24.463414,120.680019,0.0027563258
C1R110,口社,2015-04-04,22.770111,120.645222,3.394976e-07
C1M870,國三N285K,2015-04-04,23.550319,120.505833,2.4769489e-09
467050,新屋,2015-04-04,25.006744,121.047486,6.5887696e-05
C1E480,鳳美,2015-04-04,24.554803,121.034747,1.9992787e-09
C0M530,奮起湖,2015-04-04,23.493903,120.699253,4.067163e-09
C0C590,觀音,2015-04-04,25.027072,121.153317,0.0002505635
C0T9M0,靜浦,2015-04-04,23.455167,121.495028,4.5661167e-07
C2H9M0,發祥,2015-04-04,24.154094,121.164517,2.750474e-09
C0AI40,石牌,2015-04-04,25.115597,121.513139,0.00012430937
C1F871,上谷關,2015-04-04,24.203483,121.018644,2.7287315e-09
C2H9G0,百勝,2015-04-04,24.051142,120.909361,2.454745e-09
C0G880,二水,2015-04-04,23.810742,120.6173,2.48424e-09
C0R940,加祿堂,2015-04-04,22.3363,120.6217,0.99660784
C0W220,北竿,2015-04-04,26.220358,119.974881,5.418322e-09
C0O960,崎頂,2015-04-04,22.959547,120.369317,6.2711225e-10
C0S750,向陽,2015-04-04,23.248397,120.986133,1.6124709e-08
C0T9F0,水璉,2015-04-04,23.797131,121.542514,1.8432677e-07
C1M600,頭凍,2015-04-04,23.406364,120.603339,2.61583e-09
467660,臺東,2015-04-04,22.752211,121.154586,0.99771595
C1D380,新埔,2015-04-04,24.84745,121.03834,1.2459205e-05
C2G980,田頭村,2015-04-04,23.8263,120.444175,3.4849255e-09
C0V750,路竹,2015-04-04,22.854997,120.259439,1.212344e-07
C0N050,蚵寮,2015-04-04,23.301,120.1104,0.00011750557
72M700,南改鹿草分場,2015-04-04,23.416869,120.283061,7.778558e-07
C1SA50,利嘉林道,2015-04-04,22.82325,121.009389,1.1283365e-08
467550,玉山,2015-04-04,23.487614,120.959522,3.2037e-08
C0A940,金山,2015-04-04,25.223628,121.643967,0.012087146
C1V340,大津,2015-04-04,22.888322,120.645986,2.1682642e-09
C0W180,七美,2015-04-04,23.219333,119.444892,0.99692726
C1F9C1,白冷,2015-04-04,24.182844,120.929889,2.4533642e-09
K2E710,苗改生物防治研究中心,2015-04-04,24.422861,120.871833,1.2567945e-07
C0N040,蘆竹溝,2015-04-04,23.2344,120.0961,0.00011750557
C2W230,畜試所澎湖,2015-04-04,23.628342,119.513206,0.9330569
C0R880,後壁湖,2015-04-04,21.9457,120.7457,0.99607635
C1I280,埔中,2015-04-04,23.820778,120.642594,1.5872621e-09
467790,墾丁雷達站,2015-04-04,21.948235,120.808028,0.99688506
C0W190,望安,2015-04-04,23.380564,119.494075,0.98863673
466881,新北,2015-04-04,24.9593,121.52,0.000110430236
C0Z170,卓溪,2015-04-04,23.3443,121.3029,1.7491367e-07
C0F850,東勢,2015-04-04,24.246428,120.833047,2.7747442e-09
466900,淡水,2015-04-04,25.164889,121.448906,0.0017756865
C0I370,魚池,2015-04-04,23.895703,120.94135,8.7489904e-10
C0C630,大溪,2015-04-04,24.882853,121.265547,1.9447648e-06
C0A520,山佳,2015-04-04,24.974944,121.402008,9.603737e-05
C0I110,竹山,2015-04-04,23.761225,120.688156,1.4047967e-09
82H840,茶改南部分場,2015-04-04,23.762528,120.7405,9.310499e-10
C0G660,溪湖,2015-04-04,23.94835,120.479122,4.280217e-06
C1T800,洛韶,2015-04-04,24.204558,121.453956,2.077804e-08
C1T810,慈恩,2015-04-04,24.192044,121.388386,1.5480296e-08
C1E451,象鼻,2015-04-04,24.368617,120.940228,2.8378973e-09
C0AC60,三峽,2015-04-04,24.939025,121.369728,9.289943e-05
C0I490,萬大林道,2015-04-04,23.928228,121.091411,6.377029e-09
C1I290,豐丘,2015-04-04,23.668178,120.887417,1.6433795e-09
C1I320,奧萬大,2015-04-04,23.952956,121.178556,2.742883e-09
C2M910,嘉義大學,2015-04-04,23.471325,120.485903,2.43495e-09
C0U770,南澳,2015-04-04,24.44935,121.81022,1.7695991e-06
C0A980,社子,2015-04-04,25.109508,121.469681,0.00015722594
C0V800,六龜,2015-04-04,22.997889,120.633583,9.640352e-10
C1G9D0,國一S218K,2015-04-04,23.890641,120.493253,3.134184e-06
C0E570,白沙屯,2015-04-04,24.549447,120.696803,0.0039938353
C2F9A0,中竹林,2015-04-04,24.103556,120.751061,1.1226515e-09
C0FA40,臺中電廠,2015-04-04,24.2146,120.4907,0.0034447694
C2G9A0,畜試所彰化,2015-04-04,23.86045,120.557964,2.5428124e-09
C0H9C0,合歡山,2015-04-04,24.143442,121.272547,2.8525564e-08
C0X060,下營,2015-04-04,23.22695,120.256261,1.0770555e-06
G2M350,農試溪口農場,2015-04-04,23.58565,120.408111,7.542717e-05
C0U860,頭城,2015-04-04,24.85323,121.8308,5.353098e-05
C0R580,南州,2015-04-04,22.48591,120.50274,0.98863596
C0D430,峨眉,2015-04-04,24.6905,121.017189,8.647581e-06
C0G780,秀水,2015-04-04,24.03405,120.503869,2.829713e-06
72N100,臺南農改場,2015-04-04,23.0605,120.342194,7.4539415e-08
C0S900,蘭嶼高中,2015-04-04,22.04909,121.51214,0.9970366
467540,大武,2015-04-04,22.355675,120.903789,0.09268602
C1F9W0,德基,2015-04-04,24.254783,121.190261,6.6502883e-09
C1Z120,壽豐,2015-04-04,23.870853,121.508081,9.254741e-07
C0W160,烏坵,2015-04-04,24.9944,119.44956,0.5359155
C1I240,外大坪,2015-04-04,23.958697,120.917931,9.824923e-10
C1I550,國六W023K,2015-04-04,23.979067,120.867742,9.195098e-10
C0R870,興海,2015-04-04,21.9752,120.8439,0.996269
C0R140,瑪家,2015-04-04,22.682903,120.686639,5.8250085e-09
C0A530,坪林,2015-04-04,24.938183,121.70975,1.452768e-06
C0X260,後壁,2015-04-04,23.366358,120.362326,4.2281016e-08
C0Z230,和平,2015-04-04,24.30717,121.77007,0.00017491919
C0G770,福興,2015-04-04,24.041289,120.437669,4.6258583e-06
C0H9A0,神木村,2015-04-04,23.532742,120.843667,4.9998725e-09
C0I460,南投,2015-04-04,23.911469,120.687331,1.5787084e-09
C0I480,梅峰,2015-04-04,24.085272,121.173572,9.3307e-09
C1V570,吉東,2015-04-04,22.85422,120.5454,1.0396211e-08
C2D740,屯原,2015-04-04,24.067969,121.209389,8.268056e-09
C2A560,福山,2015-04-04,24.776203,121.502811,1.4880129e-08
C0AH30,五分山,2015-04-04,25.07125,121.780794,2.3301835e-08
C0FA10,松柏,2015-04-04,24.429115,120.617482,0.0038598015
72S200,東改班鳩分場,2015-04-04,22.829528,121.077694,0.8641243
72HA00,中改埔里分場,2015-04-04,23.903208,120.963364,8.4825785e-10
C2H9W0,大坪頂農水,2015-04-04,24.043122,120.932781,9.766704e-10
C0C650,平鎮,2015-04-04,24.897503,121.214636,8.236867e-07
C0S930,延平,2015-04-04,22.902581,121.084058,8.157598e-07
C0UA60,樟樹山,2015-04-04,24.41393,121.78325,1.6139316e-07
C1S670,摩天,2015-04-04,23.199503,121.027,1.7595054e-08
C0V630,茄萣,2015-04-04,22.906642,120.182608,6.560065e-06
466940,基隆,2015-04-04,25.133314,121.740475,0.87863
C0X050,東河,2015-04-04,23.296598,120.385608,7.18928e-07
C0R770,保力,2015-04-04,22.071122,120.764111,0.99730664
G2L020,農試嘉義分所,2015-04-04,23.485028,120.473806,2.2970337e-09
C0X240,關子嶺,2015-04-04,23.331169,120.508025,9.724082e-10
C0I380,集集,2015-04-04,23.828206,120.801467,1.0238113e-09
466990,花蓮,2015-04-04,23.975128,121.613275,2.3562646e-07
C1V220,小關山,2015-04-04,23.154217,120.813603,8.35767e-09
C1F9G1,慶福山,2015-04-04,24.180853,120.848378,1.9311885e-09
C0Z250,瑞穗林道,2015-04-04,23.49284,121.30688,3.0360848e-08
C0D590,新豐,2015-04-04,24.87068,120.97721,4.1899685e-08
C0A870,五指山,2015-04-04,25.132153,121.608692,4.979489e-08
C0UA50,西帽山,2015-04-04,24.555361,121.802628,2.47009e-08
C0X160,仁德,2015-04-04,22.968258,120.257689,2.0294206e-07
C1H971,六分寮,2015-04-04,23.92507,120.6378,1.2267025e-09
C0W120,西嶼,2015-04-04,23.5626,119.468436,0.99077755
C0G650,員林,2015-04-04,23.946503,120.585597,1.3026951e-06
C0AD50,鶯歌,2015-04-04,24.951533,121.346294,0.000108246226
C2H9Q0,北東眼山,2015-04-04,24.120939,121.189303,8.015784e-09
C2H9T0,名間竹圍,2015-04-04,23.859914,120.637572,1.0443905e-09
C0S990,山豬窟,2015-04-04,22.318619,120.857372,0.9999652
72Q010,高雄農改,2015-04-04,22.709333,120.525889,1.5314947e-05
C0X190,安平,2015-04-04,22.993161,120.152181,2.023846e-06
C0K400,斗六,2015-04-04,23.720583,120.541127,2.888438e-09
12J990,口湖工作站,2015-04-04,23.589978,120.180394,1.8529838e-06
C0O830,北寮,2015-04-04,23.079561,120.495008,9.039342e-10
C1D410,白蘭,2015-04-04,24.579364,121.079947,4.0875543e-09
C0S970,加津林,2015-04-04,22.416211,120.926942,0.09959029
C0D700,關西,2015-04-04,24.7977,121.1732,1.6145841e-06
C0M810,里佳,2015-04-04,23.389125,120.716647,4.067163e-09
C0U750,龜山島,2015-04-04,24.841667,121.953133,2.0571251e-08
C0R810,內獅,2015-04-04,22.305064,120.642986,0.99660784
C1M390,龍美,2015-04-04,23.406728,120.654417,3.497871e-09
C2FB60,頭櫃山,2015-04-04,24.129842,120.858925,2.1437063e-09
C1H840,國三N238K,2015-04-04,23.841008,120.707711,1.0306432e-09
CAQ030,崎峰國小,2015-04-04,22.42565,120.49521,0.98863596
C2E520,大湖,2015-04-04,24.414939,120.870872,8.757196e-08
467530,阿里山,2015-04-04,23.508208,120.813242,1.3949503e-08
C1E691,南湖,2015-04-04,24.40135,120.837533,1.996356e-09
C0FA30,梧棲,2015-04-04,24.256003,120.523381,0.0034447694
C1V231,高中,2015-04-04,23.134911,120.716711,9.0622504e-10
C0F9V0,新社,2015-04-04,24.200172,120.815806,2.36353e-09
C0H890,埔里,2015-04-04,23.972169,120.952425,2.8951395e-09
C0R690,墾丁,2015-04-04,21.966756,120.810269,0.9902181
C0F0D0,審馬陣,2015-04-04,24.381675,121.4203,2.4566525e-08
C0R820,白鷺,2015-04-04,22.454275,120.666219,0.9723534
U2H480,臺大溪頭,2015-04-04,23.670306,120.798194,1.8075487e-09
C1V190,南天池,2015-04-04,23.27403,120.91176,1.7670255e-08
K2E360,苗栗農改場,2015-04-04,24.495722,120.829111,1.85658e-06
CAJ050,海口故事園區,2015-04-04,23.57543,120.14121,2.2619415e-06
C2H9D0,三隻寮,2015-04-04,24.093078,120.861578,9.946654e-10
C0O990,媽廟,2015-04-04,22.99175,120.293525,1.8069606e-07
C0D480,打鐵坑,2015-04-04,24.849664,121.150789,2.2025448e-08
C0Z220,和平林道,2015-04-04,24.343922,121.656317,1.5420892e-07
C0TA10,花蓮漁港,2015-04-04,23.995322,121.638331,2.5365776e-07
72C440,桃園農改場,2015-04-04,24.950944,121.030583,2.9836414e-05
C1E711,馬拉邦山,2015-04-04,24.367306,120.901656,2.3138487e-09
C0SB20,富岡,2015-04-04,22.792467,121.192669,0.9969404
C0D560,竹東,2015-04-04,24.767147,121.057881,1.9655397e-06
C0F9U0,南屯,2015-04-04,24.137006,120.637969,0.00094204495
C0M720,番路,2015-04-04,23.464657,120.554156,1.961896e-09
C0F0A0,雪山圈谷,2015-04-04,24.388594,121.236339,3.1685328e-08
C1A9N0,四十份,2015-04-04,24.934158,121.593283,4.2103892e-08
C0U760,東澳,2015-04-04,24.52196,121.83318,4.359962e-07
C0X230,鹽水,2015-04-04,23.272621,120.247641,1.0480727e-06
C2H9H0,苗改南投蜂場,2015-04-04,23.852589,120.693481,1.4047967e-09
C0R950,萬隆國小,2015-04-04,22.507667,120.587817,2.2189006e-06
C0V370,古亭坑,2015-04-04,22.893178,120.401947,4.4536654e-07
C1I340,新興橋,2015-04-04,23.563333,120.868728,1.3631737e-09
C0SA80,土坂,2015-04-04,22.453108,120.887572,0.9995064
C0R160,鹽埔,2015-04-04,22.739558,120.530778,4.358237e-07
C0AC40,大屯山,2015-04-04,25.175675,121.522408,2.4057156e-08
466850,五分山雷達站,2015-04-04,25.071182,121.781205,2.3181522e-08
C2H9L0,馬烈霸,2015-04-04,24.1512,121.201772,7.886334e-09
C1AI50,國三N016K,2015-04-04,25.034164,121.619664,8.5254505e-05
C1V600,藤枝,2015-04-04,23.071961,120.757042,7.0291164e-09
C1E601,南勢,2015-04-04,24.572486,120.734842,4.261896e-06
C0Z180,新城,2015-04-04,24.03946,121.60454,2.1258289e-07
C0O980,新市,2015-04-04,23.061614,120.298197,1.094686e-07
C0K420,西螺,2015-04-04,23.800407,120.467394,2.965724e-09
C0Z050,佳心,2015-04-04,23.34567,121.21316,3.595105e-08
C0AD30,蘆洲,2015-04-04,25.086594,121.472331,0.00014365671
C0V610,梓官,2015-04-04,22.760558,120.267211,1.5767374e-06
K2F750,種苗改良場,2015-04-04,24.225972,120.800917,2.4597178e-09
C0UA80,大溪漁港,2015-04-04,24.941801,121.902955,4.4969915e-05
C1AI60,國一39K邊坡,2015-04-04,25.064361,121.383836,1.2939635e-06
C0W150,金寧,2015-04-04,24.457703,118.328989,5.6209286e-09
C0R960,內埔,2015-04-04,22.608483,120.570714,3.549337e-06
V2C250,八德合作社,2015-04-04,24.93775,121.266389,1.7817323e-06
C2H9S0,龍南,2015-04-04,23.953536,120.833183,1.953774e-09
C0AH40,平等,2015-04-04,25.129142,121.577086,9.511123e-08
C0R540,佳冬,2015-04-04,22.419456,120.552375,0.98867506
466950,彭佳嶼,2015-04-04,25.627975,122.079744,0.9993475
C0A890,雙溪,2015-04-04,25.036003,121.864242,0.52032804
C0C480,桃園,2015-04-04,24.992425,121.323172,5.8002383e-06
C0AH50,林口,2015-04-04,25.072181,121.38084,6.8671156e-08
A2K360,水試臺西試驗場,2015-04-04,23.717231,120.190522,0.00040600979
B2N890,畜試所,2015-04-04,23.058972,120.336406,7.4539415e-08
C2M960,外寮,2015-04-04,23.562643,120.665688,2.8208602e-09
C0F9S0,烏日,2015-04-04,24.107058,120.624103,1.8384185e-06
C0C490,八德,2015-04-04,24.928708,121.283289,2.966164e-06
C0R190,赤山,2015-04-04,22.592333,120.614306,2.9949838e-06
C0T820,天祥,2015-04-04,24.179597,121.495639,2.9998154e-07
C1F9E1,龍安,2015-04-04,24.1605,120.831961,2.3429194e-09
C0V820,小林,2015-04-04,23.148408,120.63325,8.857441e-10
C2G870,芳苑,2015-04-04,23.922303,120.320025,0.0007154206
C0E850,大河,2015-04-04,24.618069,120.948578,1.5068623e-07
C1U670,寒溪,2015-04-04,24.634,121.71691,2.0002135e-05
C0N020,城西,2015-04-04,23.0568,120.0956,9.313688e-05
C1Z110,三棧,2015-04-04,24.11557,121.60501,7.214762e-08
C0R280,檳榔,2015-04-04,22.076078,120.836777,0.98971367
C2H9J0,中台,2015-04-04,23.9996,120.938739,2.1927897e-09
C0F9L0,后里,2015-04-04,24.310436,120.729725,6.559393e-07
C0D540,橫山,2015-04-04,24.71116,121.11693,2.2695893e-08
C1D420,太閣南,2015-04-04,24.632808,121.160575,5.715351e-09
C1E770,公館,2015-04-04,24.526914,120.830806,0.0024165553
CAN130,水試所海水繁養殖中心,2015-04-04,23.120802,120.07968,0.0001215164
C1I430,翠華,2015-04-04,24.191961,121.224339,1.2956938e-08
C1M400,菜瓜坪,2015-04-04,23.251928,120.576103,1.666787e-09
C0G730,二林,2015-04-04,23.903325,120.376081,6.5202717e-06
72M360,南改義竹分場,2015-04-04,23.360694,120.279361,9.310294e-08
V2K620,麥寮合作社,2015-04-04,23.753836,120.294783,0.00035550437
C0Z070,舞鶴,2015-04-04,23.46811,121.37407,1.2630787e-07
C0B040,大武崙,2015-04-04,25.166676,121.706993,0.69447
C1Z030,紅葉,2015-04-04,23.493119,121.338806,1.5933347e-07
C1I050,丹大,2015-04-04,23.753747,121.141147,1.8486507e-08
C0I080,信義,2015-04-04,23.689694,120.851036,9.960189e-10
C2M920,朴子農改,2015-04-04,23.469889,120.259383,3.4478472e-07
C2A880,福隆,2015-04-04,25.017842,121.942083,0.0006807276
C0Z160,鳳林,2015-04-04,23.746114,121.453411,8.7595237e-07
C0V210,復興,2015-04-04,23.222403,120.806089,3.342693e-09
C0H990,昆陽,2015-04-04,24.121322,121.273642,2.3132584e-08
C0R741,獅子,2015-04-04,22.202308,120.705236,0.9932667
C0S710,鹿野,2015-04-04,22.917711,121.122994,9.438241e-08
C0I530,小奇萊,2015-04-04,24.131764,121.295717,2.3272698e-08
C2K630,荷苞,2015-04-04,23.657717,120.595144,3.6513e-09
C0Z080,富源,2015-04-04,23.587642,121.378225,1.7324159e-07
467441,高雄,2015-04-04,22.7304,120.3125,4.2737523e-05
C0SB10,美和,2015-04-04,22.682078,121.060236,0.9998698
C2K620,馬光農場,2015-04-04,23.721453,120.378864,3.4145629e-09
C1I140,卡奈托灣,2015-04-04,23.754364,121.087872,6.084841e-09
C0I520,玉山風口,2015-04-04,23.470489,120.955994,3.2863362e-08
C1G691,下水埔,2015-04-04,23.816114,120.5676,2.8227816e-09
C0X110,臺南市南區,2015-04-04,22.961189,120.188378,1.7197635e-06
C0V680,仁武,2015-04-04,22.701083,120.347722,2.9016373e-05
C2G840,北斗,2015-04-04,23.877586,120.514222,2.6604534e-06
C0R900,竹坑,2015-04-04,22.1385,120.7022,0.99303293
C0K250,崙背,2015-04-04,23.75555,120.318925,0.00032540574
C0G860,社頭,2015-04-04,23.897647,120.5862,1.0911439e-06
C0X150,安定,2015-04-04,23.102614,120.227839,6.728663e-07
C0R590,里港,2015-04-04,22.77919,120.49459,5.5563675e-08
C0E610,馬都安,2015-04-04,24.451272,120.930192,4.7299213e-09
C0E550,明德,2015-04-04,24.583486,120.885411,2.266339e-07
C0R150,三地門,2015-04-04,22.709889,120.639944,2.1698288e-05
C0G910,花壇,2015-04-04,24.032076,120.549461,1.7964397e-06
C1D400,鳥嘴山,2015-04-04,24.71909,121.28387,7.1365007e-09
C0K500,元長,2015-04-04,23.64981,120.315024,0.00014870045
C0F0B0,石岡,2015-04-04,24.276061,120.777644,1.3340261e-09
C2V250,甲仙,2015-04-04,23.080106,120.591758,7.162406e-10
C0SA20,金崙山,2015-04-04,22.567419,120.959667,5.112209e-08
C0V350,溪埔,2015-04-04,22.738578,120.446797,3.5723067e-06
C0M660,溪口,2015-04-04,23.604131,120.403569,7.5427095e-05
C1S880,壽卡,2015-04-04,22.238911,120.858903,0.9990132
72D680,桃改新埔分場,2015-04-04,24.834444,121.066111,4.9231944e-06
