站號,站名,日期,lat,lon,BLBTSLS
C0R710,龍磐,2015-06-12,21.931672,120.838942,0.708295
C1F9D1,白毛台,2015-06-12,24.158325,120.886933,2.9795185e-05
C0G940,竹塘,2015-06-12,23.848253,120.386764,0.89480585
467590,恆春,2015-06-12,22.003897,120.746339,0.7158742
C1O850,環湖,2015-06-12,23.148617,120.418633,0.1054921
C0U710,太平山,2015-06-12,24.505486,121.525656,3.108064e-09
C0E820,獅潭,2015-06-12,24.539133,120.920042,0.43186933
C0V880,興達,2015-06-12,22.8778,120.2127,0.056740623
C0S890,關山,2015-06-12,23.0395,121.175017,0.03955978
C0SB30,新蘭,2015-06-12,22.869214,121.223228,0.17492753
C2R970,屏科大,2015-06-12,22.648275,120.619247,0.9981855
K2F750,種苗繁殖,2015-06-12,24.225972,120.800917,0.0018071472
C1Z130,銅門,2015-06-12,23.965694,121.492842,0.96126705
C0AD40,土城,2015-06-12,24.973208,121.445169,0.05088643
CAN140,六官養殖協會,2015-06-12,23.22881,120.29962,0.758446
C0X180,山上,2015-06-12,23.0757,120.363253,0.49193513
C0F9Z0,雪山東峰,2015-06-12,24.388792,121.268675,6.2392225e-09
C1M480,獨立山,2015-06-12,23.537022,120.607797,3.0082777e-08
C0X220,學甲,2015-06-12,23.230367,120.182187,0.012279197
467650,日月潭,2015-06-12,23.881325,120.90805,1.3979808e-07
C0K600,箔子寮,2015-06-12,23.6197,120.14,0.01356125
C0G830,埤頭,2015-06-12,23.866003,120.452806,0.7802911
C0S950,七塊厝,2015-06-12,22.954453,121.229922,0.62629277
467110,金門,2015-06-12,24.407306,118.289281,0.8066034
C0AH80,深坑,2015-06-12,25.002703,121.628328,0.047621656
467990,馬祖,2015-06-12,26.169269,119.923419,7.7453566e-05
C0A970,三貂角,2015-06-12,25.007606,122.002058,0.95806205
C2D730,寶山農場,2015-06-12,24.732444,120.976153,0.1536851
C0K430,褒忠,2015-06-12,23.690938,120.303634,0.034551054
467480,嘉義,2015-06-12,23.495925,120.432906,0.003944045
C2E540,後龍,2015-06-12,24.606489,120.783933,0.010430946
C0V400,阿公店,2015-06-12,22.804194,120.355528,0.98170805
C0R440,大漢山,2015-06-12,22.405264,120.753181,2.4387565e-09
C0K280,四湖,2015-06-12,23.630414,120.227125,0.0024835663
C1F9B1,桐林,2015-06-12,24.066172,120.735194,0.41123623
C2H9U0,鳳鵬,2015-06-12,23.763919,120.788061,0.00019330494
C0K390,土庫,2015-06-12,23.679029,120.395574,0.9643784
C1I450,望鄉山,2015-06-12,23.594153,120.944286,5.2475224e-09
C0E910,海埔,2015-06-12,24.648767,120.772435,0.07900518
B2E890,畜試北區分所,2015-06-12,24.527806,120.770972,0.048788223
C0R750,四林格山,2015-06-12,22.076989,120.802439,5.701525e-05
C0F0C0,中坑,2015-06-12,24.248517,120.903319,2.4735272e-08
C1I121,大鞍,2015-06-12,23.678381,120.760017,4.190534e-09
72U480,花改蘭陽分場,2015-06-12,24.686306,121.716583,0.013827351
C0A770,科教館,2015-06-12,25.096356,121.516507,0.054567914
C0AJ60,六塊厝,2015-06-12,25.24,121.4481,0.005701364
C0R620,墾雷,2015-06-12,21.900836,120.855269,0.7080199
467420,永康,2015-06-12,23.038386,120.2367,0.035198677
467300,東吉島,2015-06-12,23.25695,119.667467,0.998881
C0I410,名間,2015-06-12,23.837053,120.701447,0.051260076
A2C560,農工中心,2015-06-12,24.985917,121.239833,0.00069117785
C0V740,旗山,2015-06-12,22.888614,120.483597,0.4974981
C0Z061,玉里,2015-06-12,23.3215,121.339656,0.97388214
C0S840,南田,2015-06-12,22.279725,120.889208,0.026956044
C1I470,杉林溪,2015-06-12,23.639517,120.786444,3.3523087e-09
C1X040,東原,2015-06-12,23.291597,120.463822,0.10738081
C0R660,枋寮,2015-06-12,22.367722,120.590647,0.12248268
C1R120,上德文,2015-06-12,22.763272,120.704442,0.02079998
C0K450,大埤,2015-06-12,23.646074,120.431537,0.9618692
C0UA00,土場,2015-06-12,24.576533,121.495333,0.94117177
467080,宜蘭,2015-06-12,24.763975,121.756528,0.746684
C0N030,四草,2015-06-12,23.0235,120.1116,0.015337376
C0V650,彌陀,2015-06-12,22.783806,120.246361,0.09066476
C0D660,新竹市東區,2015-06-12,24.798681,120.986942,0.07160224
82S580,茶改東部分場,2015-06-12,22.907694,121.130139,0.9236212
C0SB40,興隆,2015-06-12,22.913661,121.257469,0.8955959
C0C710,大溪永福,2015-06-12,24.892936,121.324975,0.0004770501
C0FA20,溫寮,2015-06-12,24.372177,120.583125,0.004367617
C0V640,湖內,2015-06-12,22.887139,120.2445,0.05679375
C0R910,下寮,2015-06-12,22.3929,120.5548,0.31945592
C0Z020,明里,2015-06-12,23.208717,121.262342,0.78817946
C0M770,嘉義梅山,2015-06-12,23.585398,120.555587,0.90195245
G2F820,農業試驗所,2015-06-12,24.031261,120.688133,0.012363653
C0C660,楊梅,2015-06-12,24.912375,121.143047,0.0006029288
C1E511,新開,2015-06-12,24.347703,120.827019,0.8158295
G2F820,農試所(霧峰),2015-06-12,24.031261,120.688133,0.012363653
C1I070,和社,2015-06-12,23.591131,120.888861,1.8032543e-07
C2F000,大肚,2015-06-12,24.15295,120.572117,0.687817
C1S850,豐南,2015-06-12,23.122139,121.262389,0.17442918
C2A920,富貴角,2015-06-12,25.263783,121.565258,0.071284994
CAH030,茶改場竹圍站,2015-06-12,23.860083,120.637528,0.00022406189
C0T960,光復,2015-06-12,23.660694,121.424964,0.9929195
C0F9M0,豐原,2015-06-12,24.254322,120.720692,0.055989236
C0R720,旭海,2015-06-12,22.205403,120.887614,0.37381545
C0V710,苓雅,2015-06-12,22.622742,120.330669,0.8526286
C0C740,觀音工業區,2015-06-12,25.064764,121.114856,0.004935512
CAC040,拉拉山,2015-06-12,24.699317,121.427133,1.7389425e-09
C0V790,萬山,2015-06-12,22.905944,120.688056,0.24591702
U2HA30,臺大和社,2015-06-12,23.590856,120.888864,1.8032543e-07
C0AJ90,澳底,2015-06-12,25.0552,121.9253,0.8846049
C0Z100,東華,2015-06-12,23.89525,121.549833,0.59589285
C0G970,三豐,2015-06-12,23.882,120.2895,0.0021501633
V2K610,大庄合作社,2015-06-12,23.8068,120.367939,0.012527301
C0V900,汕尾,2015-06-12,22.4782,120.4151,0.9863251
C1R630,龍泉,2015-06-12,22.66701,120.59091,0.9967549
C1AC50,關渡,2015-06-12,25.133486,121.469331,0.019732086
C0F9I0,神岡,2015-06-12,24.272481,120.658314,0.08700893
C0K460,斗南,2015-06-12,23.678734,120.478359,0.97234386
467410,臺南,2015-06-12,22.993239,120.204772,0.03628232
C2O810,曾文,2015-06-12,23.219681,120.497328,0.006453292
467280,後龍,2015-06-12,24.648563,120.831834,0.14343506
C1F9J1,清水林,2015-06-12,24.071242,120.820419,3.3453147e-05
C2A650,火燒寮,2015-06-12,25.002719,121.742892,0.9624131
466930,竹子湖,2015-06-12,25.162078,121.544547,1.857687e-05
C1I220,樟湖,2015-06-12,23.905333,120.846983,4.2689896e-09
C0I390,仁愛,2015-06-12,24.022122,121.132206,2.129554e-08
C0Z300,東里,2015-06-12,23.26853,121.30547,0.9724814
C1V590,新發,2015-06-12,23.057019,120.646064,0.11474485
C0K510,水林,2015-06-12,23.572924,120.24597,0.013990011
72S590,東改賓朗果園,2015-06-12,22.813889,121.071278,0.1350467
82A750,茶改北部分場,2015-06-12,24.955778,121.631222,0.9036158
C1A750,石碇服務區,2015-06-12,25.00872,121.646242,0.04746021
C0X300,鹿寮,2015-06-12,23.386047,120.477331,0.73219717
G2AI50,關渡,2015-06-12,25.11575,121.492,0.051899545
C0K590,雲林東勢,2015-06-12,23.674192,120.255721,0.034551024
C0A570,桶後,2015-06-12,24.848222,121.597992,0.84058136
C1S800,華源,2015-06-12,22.657883,121.02325,0.43404335
C0G720,溪州,2015-06-12,23.851589,120.499093,0.7496193
C1V160,達卡努瓦,2015-06-12,23.279811,120.705319,7.366212e-09
C2M410,馬頭山,2015-06-12,23.324361,120.582017,0.0048590424
C0V850,蚵仔寮,2015-06-12,22.7256,120.2527,0.64697325
C0S740,池上,2015-06-12,23.119628,121.209469,0.8699226
C1V390,尖山,2015-06-12,22.813153,120.367789,0.97545886
C0AH70,松山,2015-06-12,25.04871,121.55042,0.07186693
C0N010,鯤鯓國小,2015-06-12,23.1879,120.0889,0.004187806
C0R550,新埤,2015-06-12,22.467947,120.582894,0.9857617
C0SA60,知本（水試所）,2015-06-12,22.702394,121.082761,0.8076553
C0T9I0,豐濱,2015-06-12,23.583897,121.514806,0.99862504
C0UB00,淡江大學蘭陽校園,2015-06-12,24.823239,121.730383,0.9192107
C0W240,九宮,2015-06-12,24.423753,118.240186,0.9363999
C0T9N0,富里,2015-06-12,23.171639,121.249378,0.7819172
U2HA50,臺大竹山,2015-06-12,23.756972,120.681556,0.011327394
C0V840,鳳鼻頭,2015-06-12,22.5083,120.3591,0.8828732
C0X140,西港,2015-06-12,23.125608,120.203108,0.007746768
72D080,桃改五峰分場,2015-06-12,24.612194,121.157167,5.4391345e-09
C2H9P0,伊拿谷,2015-06-12,23.963211,121.088264,5.4831503e-07
C2H9F0,柑林,2015-06-12,24.018658,120.847072,0.006855056
C0TA20,加灣,2015-06-12,24.082025,121.608944,0.8498737
C0V530,阿蓮,2015-06-12,22.883208,120.327508,0.9492095
C1O880,關山,2015-06-12,23.173397,120.594092,0.00605283
C0E791,卓蘭,2015-06-12,24.3126,120.8244,0.82017267
C1I030,武界,2015-06-12,23.913225,121.052483,4.499595e-06
C0R520,崁頂,2015-06-12,22.514781,120.506914,0.32014212
C0R341,牡丹,2015-06-12,22.130036,120.792639,0.11506518
C0R930,萬丹,2015-06-12,22.5885,120.4851,0.9866439
C0S760,紅石,2015-06-12,23.069131,121.126219,1.02033e-08
C1M610,石磐龍,2015-06-12,23.496606,120.663506,6.9255406e-09
C0UA10,鴛鴦湖,2015-06-12,24.590269,121.412228,3.0126688e-09
V2C260,八德蔬果,2015-06-12,24.978508,121.281819,0.000587601
C0R800,丹路,2015-06-12,22.204481,120.750989,0.056234002
C0G920,永靖,2015-06-12,23.924703,120.547533,0.58642167
C2M950,太和,2015-06-12,23.538372,120.702961,2.2593045e-09
C1A630,下盆,2015-06-12,24.771003,121.538622,0.8766447
B2N890,畜產試驗所,2015-06-12,23.058972,120.336406,0.97687
C0UA30,白嶺,2015-06-12,24.527819,121.519031,5.148601e-08
C1V580,溪南(特生中心),2015-06-12,23.084972,120.788475,5.3224074e-09
C1T970,大農,2015-06-12,23.615233,121.413331,0.9980867
E2S960,林試太麻里2,2015-06-12,22.598014,120.989761,0.9986605
C0R650,竹田,2015-06-12,22.58486,120.54344,0.9866439
C1H900,清流,2015-06-12,24.080775,120.962997,0.0002590646
C1C510,水尾,2015-06-12,24.940081,121.087161,0.0026987006
C0F9X0,大雅(中科園區),2015-06-12,24.21528,120.62445,0.049958374
C0SB60,白守蓮,2015-06-12,23.126769,121.401914,0.02085793
C0O970,虎頭埤,2015-06-12,23.021375,120.347878,0.4486823
C0C730,中大臨海站,2015-06-12,24.966126,121.008581,0.042696357
C0X250,新營,2015-06-12,23.310689,120.316681,0.9068409
C0V700,三民,2015-06-12,22.645017,120.311233,0.8526286
C0U870,大礁溪,2015-06-12,24.791042,121.675047,0.8286665
C0E870,高鐵苗栗,2015-06-12,24.60725,120.826094,0.011771291
A2K570,古坑花卉中心,2015-06-12,23.63353,120.55239,0.52733445
C0M860,新美,2015-06-12,23.338017,120.683169,1.0207007e-05
C1E701,八卦,2015-06-12,24.491756,120.927619,0.004893231
C0I420,國姓,2015-06-12,24.037803,120.855072,0.3286461
C2D720,關西工作站,2015-06-12,24.757275,121.184792,0.00079130987
C0S960,香蘭,2015-06-12,22.587569,120.993375,0.9986605
C0R260,春日,2015-06-12,22.370361,120.628306,0.036853865
72G600,臺中農改場,2015-06-12,24.003028,120.534389,0.06617156
C0Z210,瑞穗,2015-06-12,23.5239,121.39021,0.99819535
C0M820,達邦,2015-06-12,23.453994,120.749517,2.037021e-08
C0V860,南寮,2015-06-12,22.7616,120.2339,0.09021279
C0G740,大城,2015-06-12,23.852487,120.320935,0.0023515453
C0R920,塭仔,2015-06-12,22.4169,120.5197,0.36167786
C0R470,高樹,2015-06-12,22.826389,120.600806,0.99703854
C0R680,佳樂水,2015-06-12,21.993578,120.861633,0.7038603
C1O870,大棟山,2015-06-12,23.31157,120.52226,1.8835835e-09
C0D360,梅花,2015-06-12,24.678347,121.208558,4.6552777e-05
C0Z190,富世,2015-06-12,24.14743,121.6297,0.96539253
C0AI10,屈尺,2015-06-12,24.92184,121.54475,0.047606364
B2U990,畜試東區分所,2015-06-12,24.669039,121.832561,0.013154036
C0SB80,長濱漁港,2015-06-12,23.313644,121.459994,0.9780587
C0R240,來義,2015-06-12,22.527306,120.625111,0.051549878
C0V910,大樹,2015-06-12,22.684645,120.432803,0.9724242
C1R610,西大武山,2015-06-12,22.617719,120.7322,2.2071571e-09
C0G900,線西,2015-06-12,24.143358,120.443536,0.017699419
C0M700,竹崎,2015-06-12,23.526178,120.555508,0.16951174
C2E880,三義,2015-06-12,24.405478,120.749819,0.15863429
C0C720,竹圍,2015-06-12,25.112692,121.239824,0.005963157
C0F9P0,清水,2015-06-12,24.312297,120.562242,0.0034808877
C0Z150,吉安光華,2015-06-12,23.930925,121.595153,0.5297778
C1D640,外坪(五指山),2015-06-12,24.644447,121.090961,6.649429e-08
C0F9O0,潭子,2015-06-12,24.213106,120.703933,0.0022662901
C2H9R0,卓社,2015-06-12,23.887894,121.000086,6.938882e-09
72T250,花蓮農改場,2015-06-12,23.975222,121.563889,0.88806784
C0E780,銅鑼,2015-06-12,24.489681,120.790853,0.5856795
C1T950,太安,2015-06-12,23.666719,121.370128,3.1351287e-06
C0E830,苑裡,2015-06-12,24.439714,120.653053,0.0064071715
467270,田中,2015-06-12,23.873803,120.581286,0.90635383
C0SA10,檳榔四格山,2015-06-12,22.810031,121.109308,0.053480845
C1T830,布洛灣,2015-06-12,24.17184,121.57127,0.9990197
C0F970,大坑,2015-06-12,24.173142,120.722289,0.028967617
C1U920,思源,2015-06-12,24.393125,121.347214,2.3959699e-09
C0A931,三和,2015-06-12,25.233153,121.595236,0.64300126
C0I010,廬山,2015-06-12,24.033311,121.181808,3.178197e-09
C2M940,日野賀,2015-06-12,23.434056,120.727169,5.167271e-09
C0R860,鼻頭,2015-06-12,22.1043,120.8979,0.6882978
C0UB20,壯圍,2015-06-12,24.7359,121.8163,0.013154036
C0R790,九棚,2015-06-12,22.14195,120.889281,0.14903188
C0W110,東莒,2015-06-12,25.9652,119.98069,0.014075693
C1U930,粉鳥林,2015-06-12,24.497088,121.842479,0.5299574
C1I211,蘆竹湳,2015-06-12,23.934019,120.811994,3.7908742e-07
C0S830,長濱,2015-06-12,23.286817,121.411975,0.71264595
C1F9F1,伯公龍,2015-06-12,24.272392,120.849047,0.31146735
C0E810,西湖,2015-06-12,24.562947,120.7485,0.014862812
C1I440,新高口,2015-06-12,23.478744,120.878939,3.5330665e-09
C0O840,王爺宮,2015-06-12,23.222064,120.40085,0.0064532887
C0T9G0,鳳林山,2015-06-12,23.735269,121.420131,0.95193607
C0X080,佳里,2015-06-12,23.173039,120.145086,0.012995084
C0FB70,大甲溪埔,2015-06-12,24.370625,120.620067,0.007557692
C0Z310,清水斷崖,2015-06-12,24.218294,121.689142,0.9766163
C0M680,太保,2015-06-12,23.455062,120.331455,0.87568367
C1S820,金峰,2015-06-12,22.590969,120.933236,0.9941585
C0AD10,八里,2015-06-12,25.150211,121.403947,0.005963157
C2K240,草嶺,2015-06-12,23.59555,120.693461,3.826041e-09
C1SA70,都蘭,2015-06-12,22.87794,121.226881,0.8955959
C0K440,二崙,2015-06-12,23.772797,120.408944,0.8732213
C1A760,坪林交控,2015-06-12,24.94284,121.713442,0.79848236
C0F9N0,大里,2015-06-12,24.092464,120.701378,0.02705575
C0SA90,達仁林場,2015-06-12,22.264347,120.823972,0.31986788
C1R290,石門山,2015-06-12,22.112611,120.756597,0.011117115
42HA10,萬大發電廠,2015-06-12,23.978875,121.139639,3.5138091e-06
C0R890,山海,2015-06-12,21.9878,120.7091,0.6983498
C0T9A0,月眉山,2015-06-12,23.809928,121.539828,0.9369921
C0AC70,信義,2015-06-12,25.037822,121.564597,0.07186696
C0K560,棋山,2015-06-12,23.68645,120.603417,0.9632092
C2FB50,出雲,2015-06-12,24.206469,120.902794,4.9136406e-07
C1Z240,中平林道,2015-06-12,23.42115,121.26763,2.6503267e-07
U2H480,溪頭,2015-06-12,23.670306,120.798194,1.6997856e-08
C0M880,好美里,2015-06-12,23.3364,120.138,0.012995084
C0T9E0,大坑,2015-06-12,23.880628,121.581981,0.929578
C0K530,臺西,2015-06-12,23.701547,120.197559,0.0018503071
C1E900,國一N128K,2015-06-12,24.560997,120.844186,0.02162826
C0AJ50,水湳洞,2015-06-12,25.123695,121.862238,0.85746306
C0AI20,白沙灣,2015-06-12,25.283128,121.519058,0.015648577
C0A860,大坪,2015-06-12,25.165914,121.632969,0.68392664
C1U850,觀音海岸,2015-06-12,24.38319,121.77856,0.09268972
C2K610,草嶺石壁,2015-06-12,23.602469,120.707731,5.0719877e-09
C0U950,鶯子嶺,2015-06-12,24.89754,121.79244,1.1119605e-06
C0O900,善化,2015-06-12,23.112883,120.297219,0.9818537
C0K550,蔦松,2015-06-12,23.514319,120.229736,0.029451365
E2P980,林試六龜中心,2015-06-12,22.991703,120.645722,0.9394391
C0E590,通霄,2015-06-12,24.471892,120.704622,0.017293708
C1I310,西巒,2015-06-12,23.754486,120.883956,1.07062315e-08
C0A550,泰平,2015-06-12,24.971197,121.823711,0.9983992
C0I360,水里,2015-06-12,23.812553,120.849792,0.0012590243
C0R830,高士,2015-06-12,22.121825,120.836781,0.0021219715
C1I101,溪頭,2015-06-12,23.661789,120.807647,4.9346522e-09
C0AJ20,野柳,2015-06-12,25.20703,121.690021,0.85746306
C0B060,暖暖,2015-06-12,25.0957,121.7403,0.91134864
C1H920,長豐,2015-06-12,24.102039,120.879897,1.1911884e-05
C0V360,內門,2015-06-12,22.975481,120.466769,0.23573603
C0R850,林邊,2015-06-12,22.4634,120.5339,0.32014212
C0E930,龍鳳,2015-06-12,24.700034,120.859125,0.06008836
C0U910,冬山,2015-06-12,24.63373,121.7937,0.013154036
C1E721,泰安,2015-06-12,24.489017,120.968036,2.0136001e-08
82H320,茶改中部分場,2015-06-12,23.875611,120.913583,1.9569413e-08
C0M750,布袋,2015-06-12,23.380878,120.167789,0.022341399
C1S860,利嘉,2015-06-12,22.809417,121.050528,0.10130848
72C440,桃園農改,2015-06-12,24.950944,121.030583,0.04544544
E2S980,林試太麻里1,2015-06-12,22.598922,120.980044,0.9981704
C0X170,關廟,2015-06-12,22.963017,120.327797,0.9559811
C0V720,林園,2015-06-12,22.507747,120.394511,0.8526286
C1I510,線浸林道,2015-06-12,23.761508,120.832956,7.1786714e-09
C0D690,外湖,2015-06-12,24.917735,120.968711,0.042696357
C0C750,新興坑尾,2015-06-12,25.0061,121.0971,0.0041924343
B2Q810,畜試南區分所,2015-06-12,21.945583,120.802167,0.7038603
C0S790,金崙,2015-06-12,22.538122,120.966875,0.9887331
C0AH90,福山植物園,2015-06-12,24.760717,121.58135,2.4404173e-07
C0I540,奇萊稜線,2015-06-12,24.109231,121.326456,5.1571294e-09
C0M850,表湖,2015-06-12,23.24186,120.64166,5.9249464e-07
C0S770,大溪山,2015-06-12,22.478475,120.943325,0.009083401
C0AG80,中和,2015-06-12,24.991622,121.491792,0.07199334
C0T790,大禹嶺,2015-06-12,24.186117,121.316086,3.5868224e-09
C0T9B0,水源,2015-06-12,23.991861,121.537169,0.8950005
C0R840,牡丹池山,2015-06-12,22.168389,120.841225,0.37783527
C1I131,桶頭,2015-06-12,23.641944,120.654117,0.04001464
CAL110,布袋國中,2015-06-12,23.35893,120.18026,0.1129626
467571,新竹,2015-06-12,24.827853,121.014219,0.06271301
C0Z290,赤柯山,2015-06-12,23.36893,121.38293,3.6245066e-05
C0X280,將軍,2015-06-12,23.214999,120.13577,0.012995084
C0S690,太麻里,2015-06-12,22.60902,120.98533,0.00065968814
C0U880,北關,2015-06-12,24.9072,121.8734,0.06610593
C1H860,瑞岩,2015-06-12,24.123772,121.18345,1.8155648e-09
C0G810,埔心,2015-06-12,23.947633,120.525456,0.5852554
C0U970,大福,2015-06-12,24.80064,121.81389,0.7208177
C2H9N0,仁愛東眼,2015-06-12,24.026875,121.1205,1.5809693e-08
C1E670,南礦,2015-06-12,24.538278,121.002836,1.09298774e-07
C0M520,東後寮,2015-06-12,23.369908,120.248065,0.10457427
C1E461,松安,2015-06-12,24.397972,120.986022,2.1547618e-07
72G600,臺中農改,2015-06-12,24.003028,120.534389,0.06617156
C2N160,西拉雅風管處,2015-06-12,23.189481,120.335297,0.74007803
C2M970,碧湖,2015-06-12,23.568632,120.624165,7.955559e-09
C0A640,石碇,2015-06-12,24.993969,121.662917,0.9653751
E2S960,林試太麻里2,2015-06-12,22.598,120.99775,0.9987196
C0F9Y0,桃山,2015-06-12,24.432739,121.303808,7.0177832e-09
C1I020,萬大,2015-06-12,23.979817,121.132261,1.6626158e-08
C0U940,羅東,2015-06-12,24.68184,121.74934,0.012475617
C0M650,朴子,2015-06-12,23.43463,120.23902,0.021603744
C1I500,大尖山,2015-06-12,23.858572,120.994889,2.5099685e-09
C0G820,田尾,2015-06-12,23.901669,120.509389,0.58642167
E2K600,四湖植物園,2015-06-12,23.676986,120.163433,0.0018503071
C0S730,綠島,2015-06-12,22.6672,121.47533,0.02033115
12Q970,東港工作站,2015-06-12,22.479997,120.466058,0.31945592
C0E430,南庄,2015-06-12,24.601775,121.000214,0.45850754
C1TA00,太魯閣,2015-06-12,24.15773,121.6236,0.97339803
466920,臺北,2015-06-12,25.037658,121.514853,0.07186693
C0R600,舊泰武,2015-06-12,22.588194,120.664944,0.21813008
C1I260,北坑,2015-06-12,23.9246,121.006903,5.389143e-06
466910,鞍部,2015-06-12,25.182586,121.529731,4.2947583e-08
C1I230,九份二山,2015-06-12,23.961944,120.845,2.1802072e-07
C2A660,瑞芳,2015-06-12,25.113169,121.801147,0.98442006
C0R270,琉球嶼,2015-06-12,22.332244,120.362236,0.03693476
C1T990,高寮,2015-06-12,23.394239,121.356808,0.96052927
C0G620,芬園,2015-06-12,24.015678,120.6213,0.33489263
C1Z140,荖溪,2015-06-12,23.890575,121.45964,1.1781993e-07
C1I201,中心崙,2015-06-12,23.728722,120.712097,1.9697313e-06
C1I400,凌霄,2015-06-12,24.018778,121.004456,2.488101e-08
C1M640,十字,2015-06-12,23.492153,120.753683,3.6563037e-09
G2P820,農試鳳山分所,2015-06-12,22.646611,120.356083,0.8152473
C0Z270,蕃薯寮,2015-06-12,23.73835,121.540108,0.916183
C0F9Q0,外埔,2015-06-12,24.347817,120.705686,0.10861777
C0K580,高鐵雲林,2015-06-12,23.737456,120.417944,0.9643784
C2I090,鳳凰,2015-06-12,23.728081,120.787347,1.2704365e-08
C0U990,員山,2015-06-12,24.74435,121.72247,0.012475617
C0V770,大社,2015-06-12,22.730306,120.346639,0.7017645
C0X120,麻豆,2015-06-12,23.183289,120.248611,0.01227919
C0C670,龍潭,2015-06-12,24.870056,121.221389,1.5856144e-06
C0D680,香山濕地,2015-06-12,24.783581,120.914988,0.31203246
C0S980,勝林山,2015-06-12,22.430439,120.8938,0.023418542
C0V730,大寮,2015-06-12,22.605614,120.395717,0.79362166
C0R570,麟洛,2015-06-12,22.65078,120.52719,0.98843306
C2M930,石卓,2015-06-12,23.478744,120.702264,3.7854204e-09
C0G9B0,和美,2015-06-12,24.105169,120.492131,0.013438353
CAG100,王功漁港,2015-06-12,23.96824,120.32586,0.0067700846
C0X290,北門,2015-06-12,23.267772,120.125481,0.012995084
C2F930,大甲,2015-06-12,24.347667,120.640403,0.012188477
C0D650,湖口,2015-06-12,24.904794,121.043628,0.05226905
C0E420,竹南,2015-06-12,24.708978,120.888897,0.33934242
C0U780,五結,2015-06-12,24.68637,121.79794,0.013154036
C1I250,鯉潭,2015-06-12,23.961922,120.991131,1.1911884e-05
C0R130,阿禮,2015-06-12,22.742908,120.743678,9.5285365e-08
C0X100,臺南市北區,2015-06-12,23.010394,120.194228,0.035204966
C0S920,金峰嘉蘭,2015-06-12,22.594789,120.960825,0.99807525
C0V490,新興,2015-06-12,22.627422,120.298803,0.8526286
C0F9K0,大安,2015-06-12,24.345061,120.588025,0.0038249525
72N100,臺南農改,2015-06-12,23.0605,120.342194,0.97687
467290,古坑,2015-06-12,23.633639,120.551889,0.52733445
C2E970,八甲,2015-06-12,24.535811,120.795983,0.6007813
C0V440,鳳山,2015-06-12,22.646653,120.356122,0.8152473
C1T940,大觀,2015-06-12,23.714206,121.373133,0.9922219
72T250,花蓮農改,2015-06-12,23.975222,121.563889,0.88806784
C0E740,造橋,2015-06-12,24.637056,120.864778,0.09112015
C0R100,尾寮山,2015-06-12,22.833111,120.683889,4.684239e-07
A2K630,臺大雲林校區,2015-06-12,23.730628,120.423903,0.9643784
C0D580,寶山,2015-06-12,24.735006,121.025192,0.18468685
E2P990,林試扇平站,2015-06-12,22.9677,120.6857,0.98405033
C0AI30,三重,2015-06-12,25.057328,121.500629,0.054567914
C0AH00,汐止,2015-06-12,25.066881,121.658778,0.85746306
C1Z040,立山,2015-06-12,23.443356,121.327375,0.9986802
C0W130,花嶼,2015-06-12,23.40007,119.32276,0.99891
C0A950,鼻頭角,2015-06-12,25.129036,121.923372,0.8613603
C0K470,林內,2015-06-12,23.748675,120.609642,0.7819513
C2F990,摩天嶺,2015-06-12,24.322458,120.936819,1.1808975e-08
82C160,茶改場,2015-06-12,24.908472,121.185333,0.00014155272
C0Z320,清水林道,2015-06-12,23.27125,121.188272,0.022355169
C0R760,南仁湖,2015-06-12,22.084681,120.863353,0.009716374
C0M670,大林,2015-06-12,23.600616,120.45841,0.0032587925
C0M800,茶山,2015-06-12,23.299075,120.664767,0.0016108083
C0A9C0,天母,2015-06-12,25.117494,121.537169,0.05397413
72K220,南改斗南分場,2015-06-12,23.634556,120.477333,0.94398266
72AI40,桃改樹林分場,2015-06-12,24.944503,121.386972,0.05198349
C0S910,蘭嶼燈塔,2015-06-12,22.081197,121.503117,0.86048293
C0B050,八斗子,2015-06-12,25.144754,121.79167,0.80491716
C0U900,內城,2015-06-12,24.71813,121.68766,0.82948464
C0X320,柳營,2015-06-12,23.253328,120.375253,0.24166562
C0M790,新港,2015-06-12,23.553269,120.345728,0.6479948
C0F9T0,西屯,2015-06-12,24.179494,120.641275,0.030152787
C0SA30,都歷,2015-06-12,23.020333,121.323642,0.018582964
C0C620,蘆竹,2015-06-12,25.084275,121.265767,0.0066272104
C0R730,大坪頂,2015-06-12,22.024633,120.69355,0.34960753
C0AJ40,石門,2015-06-12,25.273672,121.601198,0.024673304
C0E750,苗栗,2015-06-12,24.564569,120.824575,0.01991125
C0T870,鯉魚潭,2015-06-12,23.935639,121.508944,0.94205153
C1V170,排雲,2015-06-12,23.463619,120.954147,9.777072e-09
C2H950,中寮,2015-06-12,23.884447,120.766406,0.0034883139
C0R350,貓鼻頭,2015-06-12,21.921774,120.7358,0.7080199
C0V660,岡山,2015-06-12,22.797078,120.294958,0.9468394
C1H941,雙冬,2015-06-12,23.967378,120.802189,4.053658e-06
C0AJ70,田寮,2015-06-12,25.2698,121.4886,0.012848855
C0AI00,五股,2015-06-12,25.07445,121.42728,0.00015480736
C0Z280,德武,2015-06-12,23.47426,121.41071,0.9957831
C0R700,枋山,2015-06-12,22.246844,120.661086,0.022135857
C0C460,復興,2015-06-12,24.820208,121.352281,0.9398855
E2H360,蓮華池,2015-06-12,23.918333,120.885278,6.776582e-08
C0M640,中埔,2015-06-12,23.42538,120.5229,0.30451941
C0W140,金沙,2015-06-12,24.488292,118.408778,0.7984058
C2A540,四堵,2015-06-12,24.8926,121.745736,0.8597102
C0ACA0,新莊,2015-06-12,25.051478,121.446756,0.004943902
C0R220,潮州,2015-06-12,22.534361,120.54,0.14536734
U2HA40,臺大內茅埔,2015-06-12,23.689722,120.851117,6.718405e-06
467490,臺中,2015-06-12,24.145736,120.684075,0.0048143333
C0U960,翠峰湖,2015-06-12,24.510856,121.608044,3.0702958e-09
E2HA20,林試畢祿溪站,2015-06-12,24.226944,121.308522,1.5363775e-09
C0V890,前鎮,2015-06-12,22.5718,120.3117,0.8828732
467620,蘭嶼,2015-06-12,22.036969,121.558339,0.2610469
C1F941,雪嶺,2015-06-12,24.280586,121.026642,3.451888e-09
C2H9E0,國姓南港,2015-06-12,23.911108,120.846556,3.797555e-09
C0AC80,文山,2015-06-12,25.00235,121.575728,0.047606364
C0F9R0,龍井,2015-06-12,24.184536,120.528972,0.008919641
C0M760,民雄,2015-06-12,23.551754,120.428457,0.010659834
C0UA40,西德山,2015-06-12,24.560647,121.752608,4.88321e-07
C1T920,中興,2015-06-12,23.769503,121.498653,0.74734026
C0D550,雪霸,2015-06-12,24.526972,121.11605,2.231216e-09
C2F860,梨山,2015-06-12,24.247522,121.243669,1.5805824e-09
C0R320,車城,2015-06-12,22.0744,120.716247,0.6983498
C1S870,南美山,2015-06-12,23.15025,121.382333,0.047002308
C0B020,基隆嶼,2015-06-12,25.19141,121.78391,0.85741216
C1U501,牛鬥,2015-06-12,24.637836,121.573656,0.98212814
C0M730,嘉義市東區,2015-06-12,23.457673,120.460531,0.0013097423
C0S700,知本,2015-06-12,22.684866,121.005642,0.002229152
C1N001,沙崙,2015-06-12,22.935472,120.309406,0.9492095
C0V760,橋頭,2015-06-12,22.757806,120.30575,0.95099896
C0G960,福寶,2015-06-12,24.0443,120.3814,0.012566079
C0X210,白河,2015-06-12,23.347466,120.414427,0.21647955
C0S810,東河,2015-06-12,22.972672,121.303986,0.8826398
C2R170,屏東,2015-06-12,22.66027,120.49403,0.98906815
C0R670,楓港,2015-06-12,22.190131,120.692156,0.022135857
C0FA50,霧峰,2015-06-12,24.0419,120.6995,0.023622518
C0UB10,蘇澳,2015-06-12,24.5969,121.8571,0.035840247
C0G950,防潮門,2015-06-12,24.1835,120.4871,0.007555951
C0M740,六腳,2015-06-12,23.492871,120.290625,0.8864508
C1R250,力里,2015-06-12,22.428117,120.629228,0.051239282
C0K330,虎尾,2015-06-12,23.719183,120.442036,0.9606717
C2FA00,烏石坑,2015-06-12,24.273503,120.947617,1.409169e-08
C0V620,永安,2015-06-12,22.82315,120.236856,0.09066476
C1I330,楓樹林,2015-06-12,23.986803,121.076117,1.414946e-08
C0W200,湖西,2015-06-12,23.596314,119.67275,0.99922276
72Q010,高雄農改場,2015-06-12,22.709333,120.525889,0.9859353
C0SA40,瑞和,2015-06-12,22.974361,121.156697,0.03179314
C0C680,龜山,2015-06-12,25.02846,121.38656,0.97980154
C2V260,月眉,2015-06-12,22.971003,120.539853,0.9359021
C0V450,鳳森,2015-06-12,22.545064,120.392592,0.80155027
C0U720,南山,2015-06-12,24.43742,121.38167,1.4613652e-06
A2N290,臺南蘭花園區,2015-06-12,23.340258,120.379661,0.24166562
C0R560,新園,2015-06-12,22.5434,120.461558,0.32014212
C0U890,三星,2015-06-12,24.66812,121.65302,0.9238433
C1V300,御油山,2015-06-12,23.001983,120.715364,5.885449e-09
C0U600,礁溪,2015-06-12,24.817539,121.765608,0.7690772
C1T980,龍澗,2015-06-12,24.023289,121.411328,3.6885265e-08
C0D670,海天一線,2015-06-12,24.831986,120.914438,0.30819428
C0SA00,歷坵,2015-06-12,22.520969,120.89185,0.00046667855
C0M710,東石,2015-06-12,23.458927,120.15385,0.029451365
C0M780,鹿草,2015-06-12,23.41134,120.30835,0.6497276
C0U520,雙連埤,2015-06-12,24.753033,121.641303,0.8242011
C0B010,七堵,2015-06-12,25.094819,121.71713,0.89032495
C0R480,長治,2015-06-12,22.693128,120.542622,0.9907067
C1V830,國三S383K,2015-06-12,22.781967,120.426475,0.9928982
12Q980,恆春工作站,2015-06-12,22.079678,120.714425,0.6983498
C1O940,東山服務區,2015-06-12,23.286016,120.398472,0.17251652
C1U840,東澳嶺,2015-06-12,24.5378,121.8485,0.15783685
C1D630,飛鳳山,2015-06-12,24.766464,121.119178,4.1352266e-08
C0S940,石寧山,2015-06-12,23.223772,121.406639,0.8868775
C0K410,北港,2015-06-12,23.573957,120.292802,0.65055096
C2M620,瑞里,2015-06-12,23.545133,120.675197,2.9700546e-09
C0SB70,小港漁港,2015-06-12,23.158558,121.400431,0.91397
C2O950,安南,2015-06-12,23.076694,120.144861,0.009547592
C0F0E0,南湖圈谷,2015-06-12,24.363714,121.444667,1.2222166e-08
467610,成功,2015-06-12,23.097486,121.373428,0.0206918
C0G890,伸港,2015-06-12,24.148933,120.484403,0.009280368
C2E540,龍溪,2015-06-12,24.606489,120.783933,0.010430946
C1V200,梅山,2015-06-12,23.268447,120.823556,1.4958248e-06
C0T9H0,加路蘭山,2015-06-12,23.682947,121.5274,0.8682034
C2O930,玉井,2015-06-12,23.126042,120.46055,0.1054921
C1F911,新伯公,2015-06-12,24.221361,120.841069,0.030934457
C0R490,九如,2015-06-12,22.7405,120.490503,0.98843306
C0X200,左鎮,2015-06-12,23.056758,120.408522,0.51242715
C0SB50,叭嗡嗡,2015-06-12,23.047062,121.343223,0.84778416
C1F891,稍來,2015-06-12,24.265689,121.001142,2.1685083e-09
72N240,七股研究中心,2015-06-12,23.081672,120.062894,0.0075340015
C0C700,中壢,2015-06-12,24.977661,121.256375,0.00038909278
C0M690,水上,2015-06-12,23.419734,120.388909,0.004047555
C0V690,鼓山,2015-06-12,22.623325,120.275575,0.8526286
C0O860,大內,2015-06-12,23.11885,120.36083,0.8725848
C0Z200,萬榮,2015-06-12,23.709219,121.420106,0.94205153
C0T9D0,和中,2015-06-12,24.26676,121.74103,0.88505095
C1O921,楠西,2015-06-12,23.183511,120.484083,0.045157444
C0AJ30,淡水觀海,2015-06-12,25.184591,121.408616,0.005701364
C0V810,左營,2015-06-12,22.67491,120.28491,0.67585486
C0UA70,桃源谷,2015-06-12,24.962606,121.888875,0.9925719
C0X130,官田,2015-06-12,23.193217,120.315422,0.74756145
C1H000,翠峰,2015-06-12,24.109397,121.205211,1.7738288e-09
C0UA90,石城,2015-06-12,24.980444,121.951214,0.8237402
C1E681,南勢山,2015-06-12,24.421669,120.923831,2.0952315e-07
C0A9F0,內湖,2015-06-12,25.079422,121.57545,0.07186693
C0K291,宜梧,2015-06-12,23.536281,120.169329,0.02868841
C1K540,口湖,2015-06-12,23.585344,120.180517,0.01307631
C0R780,滿州,2015-06-12,22.024403,120.839892,0.71967
C0V870,文安,2015-06-12,22.8025,120.2164,0.09021279
C0U650,玉蘭,2015-06-12,24.675286,121.587061,0.9797539
C0R640,東港,2015-06-12,22.46247,120.44074,0.8828732
K2E360,苗栗農改,2015-06-12,24.495722,120.829111,0.40391183
C0AJ80,板橋,2015-06-12,25.0107,121.4489,0.05088643
C0S660,下馬,2015-06-12,23.150427,121.070312,0.0045337747
C1H9B1,阿眉,2015-06-12,24.1263,120.994672,1.5344943e-09
C0UA20,多加屯,2015-06-12,24.368614,121.373189,2.9358556e-09
C0E730,頭份,2015-06-12,24.688247,120.912206,0.33934242
72V140,高改旗南分場,2015-06-12,22.857861,120.516667,0.98246694
C0K480,莿桐,2015-06-12,23.761192,120.502372,0.9232638
C0U980,坪林石牌,2015-06-12,24.86478,121.77396,0.9151674
C0T900,西林,2015-06-12,23.8119,121.441458,0.9803427
C1I150,青雲,2015-06-12,23.793361,120.949378,4.4968237e-06
467350,澎湖,2015-06-12,23.565503,119.563094,0.9995992
C0G800,埔鹽,2015-06-12,24.000394,120.431683,0.013220272
C0H960,草屯,2015-06-12,23.973672,120.68085,0.3359739
C1V780,多納林道,2015-06-12,22.888028,120.737917,2.3431573e-08
C0E920,通霄漁港,2015-06-12,24.498589,120.673876,0.0053411652
C0Z330,安通山,2015-06-12,23.290728,121.348528,0.32018626
C0AH10,永和,2015-06-12,25.01125,121.508111,0.08160956
C0AK10,太平里,2015-06-12,25.134937,121.364899,0.004943902
C2G640,鹿港,2015-06-12,24.0753,120.430481,0.013183552
C1E890,國三N149K,2015-06-12,24.463414,120.680019,0.030128255
C1R110,口社,2015-06-12,22.770111,120.645222,0.996924
C1M870,國三N285K,2015-06-12,23.550319,120.505833,0.5325828
467050,新屋,2015-06-12,25.006744,121.047486,0.04405668
C1E480,鳳美,2015-06-12,24.554803,121.034747,0.6027712
C0M530,奮起湖,2015-06-12,23.493903,120.699253,2.2246465e-09
C0C590,觀音,2015-06-12,25.027072,121.153317,0.008779167
C0T9M0,靜浦,2015-06-12,23.455167,121.495028,0.99686587
C2H9M0,發祥,2015-06-12,24.154094,121.164517,7.265442e-08
C0AI40,石牌,2015-06-12,25.115597,121.513139,0.05088643
C1F871,上谷關,2015-06-12,24.203483,121.018644,1.409169e-08
C2H9G0,百勝,2015-06-12,24.051142,120.909361,0.001153114
C0G880,二水,2015-06-12,23.810742,120.6173,0.83177394
C0R940,加祿堂,2015-06-12,22.3363,120.6217,0.024560995
C0W220,北竿,2015-06-12,26.220358,119.974881,0.21818025
C0O960,崎頂,2015-06-12,22.959547,120.369317,0.9875172
C0S750,向陽,2015-06-12,23.248397,120.986133,3.3993244e-09
C0T9F0,水璉,2015-06-12,23.797131,121.542514,0.99636793
C1M600,頭凍,2015-06-12,23.406364,120.603339,3.4976797e-08
467660,臺東,2015-06-12,22.752211,121.154586,0.20774423
C1D380,新埔,2015-06-12,24.84745,121.03834,0.095744915
C2G980,田頭村,2015-06-12,23.8263,120.444175,0.8732213
C0V750,路竹,2015-06-12,22.854997,120.259439,0.9595421
C0N050,蚵寮,2015-06-12,23.301,120.1104,0.004187802
72M700,南改鹿草分場,2015-06-12,23.416869,120.283061,0.6419476
C1SA50,利嘉林道,2015-06-12,22.82325,121.009389,2.5997752e-08
467550,玉山,2015-06-12,23.487614,120.959522,1.1559296e-08
C0A940,金山,2015-06-12,25.223628,121.643967,0.024797935
C1V340,大津,2015-06-12,22.888322,120.645986,0.9976884
C0W180,七美,2015-06-12,23.219333,119.444892,0.99940836
C1F9C1,白冷,2015-06-12,24.182844,120.929889,7.3837095e-05
K2E710,苗改生物防治研究中心,2015-06-12,24.422861,120.871833,0.6012736
C0N040,蘆竹溝,2015-06-12,23.2344,120.0961,0.004187806
C2W230,畜試所澎湖,2015-06-12,23.628342,119.513206,0.99802876
C0R880,後壁湖,2015-06-12,21.9457,120.7457,0.706759
C1I280,埔中,2015-06-12,23.820778,120.642594,0.037849773
467790,墾丁雷達站,2015-06-12,21.948235,120.808028,0.7116263
C0W190,望安,2015-06-12,23.380564,119.494075,0.9994433
466881,新北,2015-06-12,24.9593,121.52,0.050770745
C0Z170,卓溪,2015-06-12,23.3443,121.3029,0.9706933
C0F850,東勢,2015-06-12,24.246428,120.833047,0.08626766
466900,淡水,2015-06-12,25.164889,121.448906,0.005963157
C0I370,魚池,2015-06-12,23.895703,120.94135,1.10368006e-07
C0C630,大溪,2015-06-12,24.882853,121.265547,0.00057071896
C0A520,山佳,2015-06-12,24.974944,121.402008,0.05198349
C0I110,竹山,2015-06-12,23.761225,120.688156,0.015306636
82H840,茶改南部分場,2015-06-12,23.762528,120.7405,2.7291857e-05
C0G660,溪湖,2015-06-12,23.94835,120.479122,0.5947522
C1T800,洛韶,2015-06-12,24.204558,121.453956,5.5602264e-08
C1T810,慈恩,2015-06-12,24.192044,121.388386,1.9816402e-09
C1E451,象鼻,2015-06-12,24.368617,120.940228,2.104654e-07
C0AC60,三峽,2015-06-12,24.939025,121.369728,0.050420266
C0I490,萬大林道,2015-06-12,23.928228,121.091411,7.253462e-09
C1I290,豐丘,2015-06-12,23.668178,120.887417,7.1786714e-09
C1I320,奧萬大,2015-06-12,23.952956,121.178556,1.1685719e-08
C2M910,嘉義大學,2015-06-12,23.471325,120.485903,0.75613403
C0U770,南澳,2015-06-12,24.44935,121.81022,0.49615982
C0A980,社子,2015-06-12,25.109508,121.469681,0.051899545
C0V800,六龜,2015-06-12,22.997889,120.633583,0.9529757
C1G9D0,國一S218K,2015-06-12,23.890641,120.493253,0.5852554
C0E570,白沙屯,2015-06-12,24.549447,120.696803,0.005337231
C2F9A0,中竹林,2015-06-12,24.103556,120.751061,0.020030703
C0FA40,臺中電廠,2015-06-12,24.2146,120.4907,0.008919641
C2G9A0,畜試所彰化,2015-06-12,23.86045,120.557964,0.90635383
C0H9C0,合歡山,2015-06-12,24.143442,121.272547,5.994802e-09
C0X060,下營,2015-06-12,23.22695,120.256261,0.7665618
G2M350,農試溪口農場,2015-06-12,23.58565,120.408111,0.017330002
C0U860,頭城,2015-06-12,24.85323,121.8308,0.746684
C0R580,南州,2015-06-12,22.48591,120.50274,0.31945592
C0D430,峨眉,2015-06-12,24.6905,121.017189,0.15454017
C0G780,秀水,2015-06-12,24.03405,120.503869,0.062298812
72N100,臺南農改場,2015-06-12,23.0605,120.342194,0.97687
C0S900,蘭嶼高中,2015-06-12,22.04909,121.51214,0.94347835
467540,大武,2015-06-12,22.355675,120.903789,0.22620165
C1F9W0,德基,2015-06-12,24.254783,121.190261,1.4734559e-09
C1Z120,壽豐,2015-06-12,23.870853,121.508081,0.59589285
C0W160,烏坵,2015-06-12,24.9944,119.44956,0.250676
C1I240,外大坪,2015-06-12,23.958697,120.917931,5.3707604e-06
C1I550,國六W023K,2015-06-12,23.979067,120.867742,0.073567525
C0R870,興海,2015-06-12,21.9752,120.8439,0.7038603
C0R140,瑪家,2015-06-12,22.682903,120.686639,0.9907737
C0A530,坪林,2015-06-12,24.938183,121.70975,0.8611396
C0X260,後壁,2015-06-12,23.366358,120.362326,0.78585476
C0Z230,和平,2015-06-12,24.30717,121.77007,0.88505095
C0G770,福興,2015-06-12,24.041289,120.437669,0.013220272
C0H9A0,神木村,2015-06-12,23.532742,120.843667,4.619366e-09
C0I460,南投,2015-06-12,23.911469,120.687331,0.09276922
C0I480,梅峰,2015-06-12,24.085272,121.173572,1.5066296e-09
C1V570,吉東,2015-06-12,22.85422,120.5454,0.97618014
C2D740,屯原,2015-06-12,24.067969,121.209389,1.1376651e-09
C2A560,福山,2015-06-12,24.776203,121.502811,0.9036158
C0AH30,五分山,2015-06-12,25.07125,121.780794,0.03600267
C0FA10,松柏,2015-06-12,24.429115,120.617482,0.004367621
72S200,東改班鳩分場,2015-06-12,22.829528,121.077694,0.14268339
72HA00,中改埔里分場,2015-06-12,23.903208,120.963364,2.8720228e-07
C2H9W0,大坪頂農水,2015-06-12,24.043122,120.932781,8.674004e-06
C0C650,平鎮,2015-06-12,24.897503,121.214636,0.00014155272
C0S930,延平,2015-06-12,22.902581,121.084058,0.89953846
C0UA60,樟樹山,2015-06-12,24.41393,121.78325,0.97511446
C1S670,摩天,2015-06-12,23.199503,121.027,7.682313e-09
C0V630,茄萣,2015-06-12,22.906642,120.182608,0.056740623
466940,基隆,2015-06-12,25.133314,121.740475,0.8315586
C0X050,東河,2015-06-12,23.296598,120.385608,0.24166562
C0R770,保力,2015-06-12,22.071122,120.764111,0.7201322
G2L020,農試嘉義分所,2015-06-12,23.485028,120.473806,0.6537856
C0X240,關子嶺,2015-06-12,23.331169,120.508025,0.00012885418
C0I380,集集,2015-06-12,23.828206,120.801467,0.0023867155
466990,花蓮,2015-06-12,23.975128,121.613275,0.82600236
C1V220,小關山,2015-06-12,23.154217,120.813603,3.4637e-09
C1F9G1,慶福山,2015-06-12,24.180853,120.848378,1.7057387e-08
C0Z250,瑞穗林道,2015-06-12,23.49284,121.30688,2.7503165e-07
C0D590,新豐,2015-06-12,24.87068,120.97721,0.9071393
C0A870,五指山,2015-06-12,25.132153,121.608692,0.0002822221
C0UA50,西帽山,2015-06-12,24.555361,121.802628,0.90060437
C0X160,仁德,2015-06-12,22.968258,120.257689,0.9636728
C1H971,六分寮,2015-06-12,23.92507,120.6378,4.4523014e-05
C0W120,西嶼,2015-06-12,23.5626,119.468436,0.9995992
C0G650,員林,2015-06-12,23.946503,120.585597,0.58011657
C0AD50,鶯歌,2015-06-12,24.951533,121.346294,0.020714676
C2H9Q0,北東眼山,2015-06-12,24.120939,121.189303,1.1378669e-09
C2H9T0,名間竹圍,2015-06-12,23.859914,120.637572,0.00022406189
C0S990,山豬窟,2015-06-12,22.318619,120.857372,0.8858957
72Q010,高雄農改,2015-06-12,22.709333,120.525889,0.9859353
C0X190,安平,2015-06-12,22.993161,120.152181,0.035204966
C0K400,斗六,2015-06-12,23.720583,120.541127,0.9562845
12J990,口湖工作站,2015-06-12,23.589978,120.180394,0.01356125
C0O830,北寮,2015-06-12,23.079561,120.495008,0.8520285
C1D410,白蘭,2015-06-12,24.579364,121.079947,3.1153464e-09
C0S970,加津林,2015-06-12,22.416211,120.926942,0.25476378
C0D700,關西,2015-06-12,24.7977,121.1732,0.0016612856
C0M810,里佳,2015-06-12,23.389125,120.716647,2.2246465e-09
C0U750,龜山島,2015-06-12,24.841667,121.953133,0.4079021
C0R810,內獅,2015-06-12,22.305064,120.642986,0.024560995
C1M390,龍美,2015-06-12,23.406728,120.654417,5.443296e-09
C2FB60,頭櫃山,2015-06-12,24.129842,120.858925,1.0773096e-07
C1H840,國三N238K,2015-06-12,23.841008,120.707711,0.0016651428
CAQ030,崎峰國小,2015-06-12,22.42565,120.49521,0.31945592
C2E520,大湖,2015-06-12,24.414939,120.870872,0.35479072
467530,阿里山,2015-06-12,23.508208,120.813242,3.9528567e-09
C1E691,南湖,2015-06-12,24.40135,120.837533,2.7003889e-05
C0FA30,梧棲,2015-06-12,24.256003,120.523381,0.008946948
C1V231,高中,2015-06-12,23.134911,120.716711,0.0013467047
C0F9V0,新社,2015-06-12,24.200172,120.815806,4.817201e-05
C0H890,埔里,2015-06-12,23.972169,120.952425,0.00021599226
C0R690,墾丁,2015-06-12,21.966756,120.810269,0.14872544
C0F0D0,審馬陣,2015-06-12,24.381675,121.4203,8.774547e-09
C0R820,白鷺,2015-06-12,22.454275,120.666219,0.45594966
U2H480,臺大溪頭,2015-06-12,23.670306,120.798194,1.6997856e-08
C1V190,南天池,2015-06-12,23.27403,120.91176,3.5927792e-09
K2E360,苗栗農改場,2015-06-12,24.495722,120.829111,0.40391183
CAJ050,海口故事園區,2015-06-12,23.57543,120.14121,0.01307631
C2H9D0,三隻寮,2015-06-12,24.093078,120.861578,4.02893e-06
C0O990,媽廟,2015-06-12,22.99175,120.293525,0.9647685
C0D480,打鐵坑,2015-06-12,24.849664,121.150789,1.3604765e-06
C0Z220,和平林道,2015-06-12,24.343922,121.656317,0.9733197
C0TA10,花蓮漁港,2015-06-12,23.995322,121.638331,0.7976975
72C440,桃園農改場,2015-06-12,24.950944,121.030583,0.04544544
C1E711,馬拉邦山,2015-06-12,24.367306,120.901656,4.665177e-06
C0SB20,富岡,2015-06-12,22.792467,121.192669,0.19314961
C0D560,竹東,2015-06-12,24.767147,121.057881,0.0011579407
C0F9U0,南屯,2015-06-12,24.137006,120.637969,0.02705575
C0M720,番路,2015-06-12,23.464657,120.554156,0.033585984
C0F0A0,雪山圈谷,2015-06-12,24.388594,121.236339,1.0190056e-08
C1A9N0,四十份,2015-06-12,24.934158,121.593283,0.8750147
C0U760,東澳,2015-06-12,24.52196,121.83318,0.56289893
C0X230,鹽水,2015-06-12,23.272621,120.247641,0.021022601
C2H9H0,苗改南投蜂場,2015-06-12,23.852589,120.693481,0.013738296
C0R950,萬隆國小,2015-06-12,22.507667,120.587817,0.9841419
C0V370,古亭坑,2015-06-12,22.893178,120.401947,0.53608507
C1I340,新興橋,2015-06-12,23.563333,120.868728,2.2659991e-08
C0SA80,土坂,2015-06-12,22.453108,120.887572,0.99710685
C0R160,鹽埔,2015-06-12,22.739558,120.530778,0.99092335
C0AC40,大屯山,2015-06-12,25.175675,121.522408,7.3155264e-09
466850,五分山雷達站,2015-06-12,25.071182,121.781205,0.026413128
C2H9L0,馬烈霸,2015-06-12,24.1512,121.201772,1.1332363e-09
C1AI50,國三N016K,2015-06-12,25.034164,121.619664,0.047007967
C1V600,藤枝,2015-06-12,23.071961,120.757042,9.684753e-09
C1E601,南勢,2015-06-12,24.572486,120.734842,0.2689635
C0Z180,新城,2015-06-12,24.03946,121.60454,0.86855954
C0O980,新市,2015-06-12,23.061614,120.298197,0.9818537
C0K420,西螺,2015-06-12,23.800407,120.467394,0.9392277
C0Z050,佳心,2015-06-12,23.34567,121.21316,7.267344e-05
C0AD30,蘆洲,2015-06-12,25.086594,121.472331,0.054567914
C0V610,梓官,2015-06-12,22.760558,120.267211,0.9468394
K2F750,種苗改良場,2015-06-12,24.225972,120.800917,0.0018071472
C0UA80,大溪漁港,2015-06-12,24.941801,121.902955,0.7690771
C1AI60,國一39K邊坡,2015-06-12,25.064361,121.383836,0.7036435
C0W150,金寧,2015-06-12,24.457703,118.328989,0.80464303
C0R960,內埔,2015-06-12,22.608483,120.570714,0.9857617
V2C250,八德合作社,2015-06-12,24.93775,121.266389,0.0019982385
C2H9S0,龍南,2015-06-12,23.953536,120.833183,7.2952524e-09
C0AH40,平等,2015-06-12,25.129142,121.577086,0.7656425
C0R540,佳冬,2015-06-12,22.419456,120.552375,0.31945592
466950,彭佳嶼,2015-06-12,25.627975,122.079744,0.9965375
C0A890,雙溪,2015-06-12,25.036003,121.864242,0.9062191
C0C480,桃園,2015-06-12,24.992425,121.323172,0.00071509444
C0AH50,林口,2015-06-12,25.072181,121.38084,0.97983557
A2K360,水試臺西試驗場,2015-06-12,23.717231,120.190522,0.0017381833
B2N890,畜試所,2015-06-12,23.058972,120.336406,0.97687
C2M960,外寮,2015-06-12,23.562643,120.665688,5.5343223e-09
C0F9S0,烏日,2015-06-12,24.107058,120.624103,0.31952742
C0C490,八德,2015-06-12,24.928708,121.283289,0.0027808654
C0R190,赤山,2015-06-12,22.592333,120.614306,0.98535305
C0T820,天祥,2015-06-12,24.179597,121.495639,0.581229
C1F9E1,龍安,2015-06-12,24.1605,120.831961,1.2716017e-05
C0V820,小林,2015-06-12,23.148408,120.63325,0.000797227
C2G870,芳苑,2015-06-12,23.922303,120.320025,0.0021502106
C0E850,大河,2015-06-12,24.618069,120.948578,0.38258675
C1U670,寒溪,2015-06-12,24.634,121.71691,0.025418868
C0N020,城西,2015-06-12,23.0568,120.0956,0.0077908435
C1Z110,三棧,2015-06-12,24.11557,121.60501,0.26124778
C0R280,檳榔,2015-06-12,22.076078,120.836777,0.18917483
C2H9J0,中台,2015-06-12,23.9996,120.938739,5.3756744e-06
C0F9L0,后里,2015-06-12,24.310436,120.729725,0.025420465
C0D540,橫山,2015-06-12,24.71116,121.11693,0.023898732
C1D420,太閣南,2015-06-12,24.632808,121.160575,1.3202734e-09
C1E770,公館,2015-06-12,24.526914,120.830806,0.048788223
CAN130,水試所海水繁養殖中心,2015-06-12,23.120802,120.07968,0.0075340015
C1I430,翠華,2015-06-12,24.191961,121.224339,2.160841e-09
C1M400,菜瓜坪,2015-06-12,23.251928,120.576103,0.0018598887
C0G730,二林,2015-06-12,23.903325,120.376081,0.03190116
72M360,南改義竹分場,2015-06-12,23.360694,120.279361,0.89375246
V2K620,麥寮合作社,2015-06-12,23.753836,120.294783,0.010259632
C0Z070,舞鶴,2015-06-12,23.46811,121.37407,0.9982628
C0B040,大武崙,2015-06-12,25.166676,121.706993,0.89032495
C1Z030,紅葉,2015-06-12,23.493119,121.338806,0.99644285
C1I050,丹大,2015-06-12,23.753747,121.141147,2.8920157e-09
C0I080,信義,2015-06-12,23.689694,120.851036,6.718405e-06
C2M920,朴子農改,2015-06-12,23.469889,120.259383,0.8857926
C2A880,福隆,2015-06-12,25.017842,121.942083,0.8846049
C0Z160,鳳林,2015-06-12,23.746114,121.453411,0.98906285
C0V210,復興,2015-06-12,23.222403,120.806089,0.0074166465
C0H990,昆陽,2015-06-12,24.121322,121.273642,3.821723e-09
C0R741,獅子,2015-06-12,22.202308,120.705236,0.03172307
C0S710,鹿野,2015-06-12,22.917711,121.122994,0.72208667
C0I530,小奇萊,2015-06-12,24.131764,121.295717,4.4819766e-09
C2K630,荷苞,2015-06-12,23.657717,120.595144,0.88789016
C0Z080,富源,2015-06-12,23.587642,121.378225,0.99758583
467441,高雄,2015-06-12,22.7304,120.3125,0.67585486
C0SB10,美和,2015-06-12,22.682078,121.060236,0.8076553
C2K620,馬光農場,2015-06-12,23.721453,120.378864,0.96851754
C1I140,卡奈托灣,2015-06-12,23.754364,121.087872,3.1624028e-09
C0I520,玉山風口,2015-06-12,23.470489,120.955994,1.2081687e-08
C1G691,下水埔,2015-06-12,23.816114,120.5676,0.930838
C0X110,臺南市南區,2015-06-12,22.961189,120.188378,0.035198677
C0V680,仁武,2015-06-12,22.701083,120.347722,0.7017645
C2G840,北斗,2015-06-12,23.877586,120.514222,0.58642167
C0R900,竹坑,2015-06-12,22.1385,120.7022,0.011937437
C0K250,崙背,2015-06-12,23.75555,120.318925,0.011212405
C0G860,社頭,2015-06-12,23.897647,120.5862,0.5733422
C0X150,安定,2015-06-12,23.102614,120.227839,0.025843872
C0R590,里港,2015-06-12,22.77919,120.49459,0.98838097
C0E610,馬都安,2015-06-12,24.451272,120.930192,0.00031426537
C0E550,明德,2015-06-12,24.583486,120.885411,0.3048504
C0R150,三地門,2015-06-12,22.709889,120.639944,0.9964834
C0G910,花壇,2015-06-12,24.032076,120.549461,0.069246635
C1D400,鳥嘴山,2015-06-12,24.71909,121.28387,0.113773175
C0K500,元長,2015-06-12,23.64981,120.315024,0.048890807
C0F0B0,石岡,2015-06-12,24.276061,120.777644,0.80597025
C2V250,甲仙,2015-06-12,23.080106,120.591758,0.031463295
C0SA20,金崙山,2015-06-12,22.567419,120.959667,0.00063663244
C0V350,溪埔,2015-06-12,22.738578,120.446797,0.97248006
C0M660,溪口,2015-06-12,23.604131,120.403569,0.017330002
C1S880,壽卡,2015-06-12,22.238911,120.858903,0.3856813
72D680,桃改新埔分場,2015-06-12,24.834444,121.066111,0.0060550105
