站號,站名,日期,lat,lon,BLBTSLS
C0R710,龍磐,2015-04-03,21.931672,120.838942,0.96582043
C1F9D1,白毛台,2015-04-03,24.158325,120.886933,3.5959191e-09
C0G940,竹塘,2015-04-03,23.848253,120.386764,2.6933116e-09
467590,恆春,2015-04-03,22.003897,120.746339,0.98230326
C1O850,環湖,2015-04-03,23.148617,120.418633,1.2920423e-06
C0U710,太平山,2015-04-03,24.505486,121.525656,1.7238879e-08
C0E820,獅潭,2015-04-03,24.539133,120.920042,2.7837519e-08
C0V880,興達,2015-04-03,22.8778,120.2127,2.0316102e-06
C0S890,關山,2015-04-03,23.0395,121.175017,6.078509e-06
C0SB30,新蘭,2015-04-03,22.869214,121.223228,0.99667203
C2R970,屏科大,2015-04-03,22.648275,120.619247,2.5667032e-07
K2F750,種苗繁殖,2015-04-03,24.225972,120.800917,3.4360834e-09
C1Z130,銅門,2015-04-03,23.965694,121.492842,1.4030374e-07
C0AD40,土城,2015-04-03,24.973208,121.445169,0.0071086083
CAN140,六官養殖協會,2015-04-03,23.22881,120.29962,4.5663433e-07
C0X180,山上,2015-04-03,23.0757,120.363253,2.437266e-07
C0F9Z0,雪山東峰,2015-04-03,24.388792,121.268675,2.8728738e-08
C1M480,獨立山,2015-04-03,23.537022,120.607797,3.0187544e-09
C0X220,學甲,2015-04-03,23.230367,120.182187,2.5949905e-06
467650,日月潭,2015-04-03,23.881325,120.90805,2.7962774e-09
C0K600,箔子寮,2015-04-03,23.6197,120.14,3.696422e-07
C0G830,埤頭,2015-04-03,23.866003,120.452806,2.7320801e-09
C0S950,七塊厝,2015-04-03,22.954453,121.229922,2.4931683e-07
467110,金門,2015-04-03,24.407306,118.289281,3.6235002e-09
C0AH80,深坑,2015-04-03,25.002703,121.628328,0.0062884153
467990,馬祖,2015-04-03,26.169269,119.923419,1.43193635e-08
C0A970,三貂角,2015-04-03,25.007606,122.002058,7.676773e-06
C2D730,寶山農場,2015-04-03,24.732444,120.976153,2.5172241e-05
C0K430,褒忠,2015-04-03,23.690938,120.303634,4.3075048e-05
467480,嘉義,2015-04-03,23.495925,120.432906,8.785545e-06
C2E540,後龍,2015-04-03,24.606489,120.783933,3.7121692e-05
C0V400,阿公店,2015-04-03,22.804194,120.355528,1.9873948e-08
C0R440,大漢山,2015-04-03,22.405264,120.753181,5.4554565e-09
C0K280,四湖,2015-04-03,23.630414,120.227125,0.00019122445
C1F9B1,桐林,2015-04-03,24.066172,120.735194,1.9057103e-09
C2H9U0,鳳鵬,2015-04-03,23.763919,120.788061,1.2363143e-09
C0K390,土庫,2015-04-03,23.679029,120.395574,2.539066e-09
C1I450,望鄉山,2015-04-03,23.594153,120.944286,2.3144368e-08
C0E910,海埔,2015-04-03,24.648767,120.772435,9.575012e-08
B2E890,畜試北區分所,2015-04-03,24.527806,120.770972,0.0008719487
C0R750,四林格山,2015-04-03,22.076989,120.802439,0.99787533
C0F0C0,中坑,2015-04-03,24.248517,120.903319,3.708849e-09
C1I121,大鞍,2015-04-03,23.678381,120.760017,5.2240345e-09
72U480,花改蘭陽分場,2015-04-03,24.686306,121.716583,7.491936e-06
C0A770,科教館,2015-04-03,25.096356,121.516507,0.007931748
C0AJ60,六塊厝,2015-04-03,25.24,121.4481,0.1782565
C0R620,墾雷,2015-04-03,21.900836,120.855269,0.9818171
467420,永康,2015-04-03,23.038386,120.2367,7.7970736e-07
467300,東吉島,2015-04-03,23.25695,119.667467,0.99372816
C0I410,名間,2015-04-03,23.837053,120.701447,2.1704614e-09
A2C560,農工中心,2015-04-03,24.985917,121.239833,7.420743e-06
C0V740,旗山,2015-04-03,22.888614,120.483597,6.004257e-07
C0Z061,玉里,2015-04-03,23.3215,121.339656,5.6261655e-07
C0S840,南田,2015-04-03,22.279725,120.889208,0.06005129
C1I470,杉林溪,2015-04-03,23.639517,120.786444,7.761817e-09
C1X040,東原,2015-04-03,23.291597,120.463822,1.9089699e-09
C0R660,枋寮,2015-04-03,22.367722,120.590647,4.168753e-07
C1R120,上德文,2015-04-03,22.763272,120.704442,3.9329294e-08
C0K450,大埤,2015-04-03,23.646074,120.431537,2.3206066e-09
C0UA00,土場,2015-04-03,24.576533,121.495333,3.3546645e-08
467080,宜蘭,2015-04-03,24.763975,121.756528,4.545874e-05
C0N030,四草,2015-04-03,23.0235,120.1116,4.713161e-05
C0V650,彌陀,2015-04-03,22.783806,120.246361,9.118974e-08
C0D660,新竹市東區,2015-04-03,24.798681,120.986942,0.00018523741
82S580,茶改東部分場,2015-04-03,22.907694,121.130139,1.3310807e-06
C0SB40,興隆,2015-04-03,22.913661,121.257469,1.0646876e-05
C0C710,大溪永福,2015-04-03,24.892936,121.324975,5.226985e-06
C0FA20,溫寮,2015-04-03,24.372177,120.583125,0.0041562635
C0V640,湖內,2015-04-03,22.887139,120.2445,1.6450792e-06
C0R910,下寮,2015-04-03,22.3929,120.5548,0.0012897219
C0Z020,明里,2015-04-03,23.208717,121.262342,2.4304302e-07
C0M770,嘉義梅山,2015-04-03,23.585398,120.555587,4.4527755e-09
G2F820,農業試驗所,2015-04-03,24.031261,120.688133,0.0008558684
C0C660,楊梅,2015-04-03,24.912375,121.143047,4.0845944e-06
C1E511,新開,2015-04-03,24.347703,120.827019,1.7983395e-09
G2F820,農試所(霧峰),2015-04-03,24.031261,120.688133,0.0008558684
C1I070,和社,2015-04-03,23.591131,120.888861,1.6053566e-09
C2F000,大肚,2015-04-03,24.15295,120.572117,1.9758055e-09
C1S850,豐南,2015-04-03,23.122139,121.262389,1.496394e-07
C2A920,富貴角,2015-04-03,25.263783,121.565258,0.020582244
CAH030,茶改場竹圍站,2015-04-03,23.860083,120.637528,1.4266278e-09
C0T960,光復,2015-04-03,23.660694,121.424964,1.6181496e-06
C0F9M0,豐原,2015-04-03,24.254322,120.720692,6.4710036e-07
C0R720,旭海,2015-04-03,22.205403,120.887614,0.99952954
C0V710,苓雅,2015-04-03,22.622742,120.330669,2.7974263e-06
C0C740,觀音工業區,2015-04-03,25.064764,121.114856,0.011502764
CAC040,拉拉山,2015-04-03,24.699317,121.427133,8.150389e-09
C0V790,萬山,2015-04-03,22.905944,120.688056,6.135487e-10
U2HA30,臺大和社,2015-04-03,23.590856,120.888864,1.6053566e-09
C0AJ90,澳底,2015-04-03,25.0552,121.9253,1.9210434e-05
C0Z100,東華,2015-04-03,23.89525,121.549833,1.1568161e-06
C0G970,三豐,2015-04-03,23.882,120.2895,0.0003419262
V2K610,大庄合作社,2015-04-03,23.8068,120.367939,0.0001352337
C0V900,汕尾,2015-04-03,22.4782,120.4151,1.08676995e-05
C1R630,龍泉,2015-04-03,22.66701,120.59091,4.7962743e-07
C1AC50,關渡,2015-04-03,25.133486,121.469331,0.01110295
C0F9I0,神岡,2015-04-03,24.272481,120.658314,1.665287e-06
C0K460,斗南,2015-04-03,23.678734,120.478359,2.9874798e-09
467410,臺南,2015-04-03,22.993239,120.204772,6.1150536e-07
C2O810,曾文,2015-04-03,23.219681,120.497328,1.9411961e-07
467280,後龍,2015-04-03,24.648563,120.831834,6.853389e-08
C1F9J1,清水林,2015-04-03,24.071242,120.820419,1.4940982e-09
C2A650,火燒寮,2015-04-03,25.002719,121.742892,8.26726e-07
466930,竹子湖,2015-04-03,25.162078,121.544547,4.093642e-08
C1I220,樟湖,2015-04-03,23.905333,120.846983,2.1311823e-09
C0I390,仁愛,2015-04-03,24.022122,121.132206,3.610241e-09
C0Z300,東里,2015-04-03,23.26853,121.30547,4.895838e-07
C1V590,新發,2015-04-03,23.057019,120.646064,7.106238e-09
C0K510,水林,2015-04-03,23.572924,120.24597,3.6593062e-07
72S590,東改賓朗果園,2015-04-03,22.813889,121.071278,0.5020266
82A750,茶改北部分場,2015-04-03,24.955778,121.631222,1.3865441e-08
C1A750,石碇服務區,2015-04-03,25.00872,121.646242,0.004164502
C0X300,鹿寮,2015-04-03,23.386047,120.477331,2.757697e-09
G2AI50,關渡,2015-04-03,25.11575,121.492,0.010075196
C0K590,雲林東勢,2015-04-03,23.674192,120.255721,4.299678e-05
C0A570,桶後,2015-04-03,24.848222,121.597992,1.8076828e-07
C1S800,華源,2015-04-03,22.657883,121.02325,0.9993996
C0G720,溪州,2015-04-03,23.851589,120.499093,2.5769902e-09
C1V160,達卡努瓦,2015-04-03,23.279811,120.705319,6.7454486e-09
C2M410,馬頭山,2015-04-03,23.324361,120.582017,1.7188275e-09
C0V850,蚵仔寮,2015-04-03,22.7256,120.2527,9.038494e-07
C0S740,池上,2015-04-03,23.119628,121.209469,6.99344e-07
C1V390,尖山,2015-04-03,22.813153,120.367789,1.3307992e-08
C0AH70,松山,2015-04-03,25.04871,121.55042,0.01784145
C0N010,鯤鯓國小,2015-04-03,23.1879,120.0889,4.0457653e-05
C0R550,新埤,2015-04-03,22.467947,120.582894,2.8039267e-08
C0SA60,知本（水試所）,2015-04-03,22.702394,121.082761,0.9998362
C0T9I0,豐濱,2015-04-03,23.583897,121.514806,6.4360887e-07
C0UB00,淡江大學蘭陽校園,2015-04-03,24.823239,121.730383,3.264483e-08
C0W240,九宮,2015-04-03,24.423753,118.240186,5.1369944e-09
C0T9N0,富里,2015-04-03,23.171639,121.249378,2.6664506e-07
U2HA50,臺大竹山,2015-04-03,23.756972,120.681556,1.5830927e-09
C0V840,鳳鼻頭,2015-04-03,22.5083,120.3591,4.703556e-06
C0X140,西港,2015-04-03,23.125608,120.203108,1.0095359e-05
72D080,桃改五峰分場,2015-04-03,24.612194,121.157167,3.892212e-09
C2H9P0,伊拿谷,2015-04-03,23.963211,121.088264,1.9316786e-09
C2H9F0,柑林,2015-04-03,24.018658,120.847072,1.412295e-09
C0TA20,加灣,2015-04-03,24.082025,121.608944,2.8560527e-07
C0V530,阿蓮,2015-04-03,22.883208,120.327508,2.6963798e-07
C1O880,關山,2015-04-03,23.173397,120.594092,1.8293299e-09
C0E791,卓蘭,2015-04-03,24.3126,120.8244,1.8161432e-09
C1I030,武界,2015-04-03,23.913225,121.052483,2.8373344e-09
C0R520,崁頂,2015-04-03,22.514781,120.506914,0.00048856874
C0R341,牡丹,2015-04-03,22.130036,120.792639,8.8305445e-05
C0R930,萬丹,2015-04-03,22.5885,120.4851,3.809244e-08
C0S760,紅石,2015-04-03,23.069131,121.126219,1.36568055e-08
C1M610,石磐龍,2015-04-03,23.496606,120.663506,4.8841624e-09
C0UA10,鴛鴦湖,2015-04-03,24.590269,121.412228,9.025014e-09
V2C260,八德蔬果,2015-04-03,24.978508,121.281819,1.3265844e-05
C0R800,丹路,2015-04-03,22.204481,120.750989,0.5861464
C0G920,永靖,2015-04-03,23.924703,120.547533,1.6548651e-06
C2M950,太和,2015-04-03,23.538372,120.702961,5.861643e-09
C1A630,下盆,2015-04-03,24.771003,121.538622,4.200451e-08
B2N890,畜產試驗所,2015-04-03,23.058972,120.336406,6.022149e-08
C0UA30,白嶺,2015-04-03,24.527819,121.519031,1.103124e-08
C1V580,溪南(特生中心),2015-04-03,23.084972,120.788475,1.02890345e-08
C1T970,大農,2015-04-03,23.615233,121.413331,9.258034e-07
E2S960,林試太麻里2,2015-04-03,22.598014,120.989761,0.98334205
C0R650,竹田,2015-04-03,22.58486,120.54344,3.809244e-08
C1H900,清流,2015-04-03,24.080775,120.962997,2.0255675e-09
C1C510,水尾,2015-04-03,24.940081,121.087161,2.2590317e-05
C0F9X0,大雅(中科園區),2015-04-03,24.21528,120.62445,0.00088129967
C0SB60,白守蓮,2015-04-03,23.126769,121.401914,0.8493055
C0O970,虎頭埤,2015-04-03,23.021375,120.347878,6.6209276e-07
C0C730,中大臨海站,2015-04-03,24.966126,121.008581,0.00012087927
C0X250,新營,2015-04-03,23.310689,120.316681,1.6110667e-07
C0V700,三民,2015-04-03,22.645017,120.311233,2.7974263e-06
C0U870,大礁溪,2015-04-03,24.791042,121.675047,1.827176e-08
C0E870,高鐵苗栗,2015-04-03,24.60725,120.826094,2.7512067e-05
A2K570,古坑花卉中心,2015-04-03,23.63353,120.55239,2.8157696e-09
C0M860,新美,2015-04-03,23.338017,120.683169,2.464992e-09
C1E701,八卦,2015-04-03,24.491756,120.927619,7.337718e-09
C0I420,國姓,2015-04-03,24.037803,120.855072,1.3724849e-09
C2D720,關西工作站,2015-04-03,24.757275,121.184792,5.897453e-07
C0S960,香蘭,2015-04-03,22.587569,120.993375,0.98334205
C0R260,春日,2015-04-03,22.370361,120.628306,0.9798527
72G600,臺中農改場,2015-04-03,24.003028,120.534389,1.2459577e-06
C0Z210,瑞穗,2015-04-03,23.5239,121.39021,7.660739e-07
C0M820,達邦,2015-04-03,23.453994,120.749517,3.0118472e-09
C0V860,南寮,2015-04-03,22.7616,120.2339,1.0788168e-07
C0G740,大城,2015-04-03,23.852487,120.320935,0.0003037798
C0R920,塭仔,2015-04-03,22.4169,120.5197,0.00264052
C0R470,高樹,2015-04-03,22.826389,120.600806,1.4248228e-08
C0R680,佳樂水,2015-04-03,21.993578,120.861633,0.9838555
C1O870,大棟山,2015-04-03,23.31157,120.52226,4.822585e-09
C0D360,梅花,2015-04-03,24.678347,121.208558,6.985905e-09
C0Z190,富世,2015-04-03,24.14743,121.6297,5.5242424e-07
C0AI10,屈尺,2015-04-03,24.92184,121.54475,0.0062884153
B2U990,畜試東區分所,2015-04-03,24.669039,121.832561,1.1390451e-05
C0SB80,長濱漁港,2015-04-03,23.313644,121.459994,2.2620688e-06
C0R240,來義,2015-04-03,22.527306,120.625111,0.95142674
C0V910,大樹,2015-04-03,22.684645,120.432803,1.05877625e-07
C1R610,西大武山,2015-04-03,22.617719,120.7322,8.242265e-09
C0G900,線西,2015-04-03,24.143358,120.443536,0.0035334493
C0M700,竹崎,2015-04-03,23.526178,120.555508,2.5318603e-09
C2E880,三義,2015-04-03,24.405478,120.749819,3.5886563e-09
C0C720,竹圍,2015-04-03,25.112692,121.239824,0.13428253
C0F9P0,清水,2015-04-03,24.312297,120.562242,0.0042628567
C0Z150,吉安光華,2015-04-03,23.930925,121.595153,1.4453828e-06
C1D640,外坪(五指山),2015-04-03,24.644447,121.090961,7.531224e-09
C0F9O0,潭子,2015-04-03,24.213106,120.703933,2.7954716e-06
C2H9R0,卓社,2015-04-03,23.887894,121.000086,4.534947e-09
72T250,花蓮農改場,2015-04-03,23.975222,121.563889,2.6081574e-07
C0E780,銅鑼,2015-04-03,24.489681,120.790853,6.630722e-08
C1T950,太安,2015-04-03,23.666719,121.370128,2.6522802e-08
C0E830,苑裡,2015-04-03,24.439714,120.653053,0.0035875617
467270,田中,2015-04-03,23.873803,120.581286,2.3807047e-09
C0SA10,檳榔四格山,2015-04-03,22.810031,121.109308,0.027802264
C1T830,布洛灣,2015-04-03,24.17184,121.57127,3.0239775e-07
C0F970,大坑,2015-04-03,24.173142,120.722289,0.00055928645
C1U920,思源,2015-04-03,24.393125,121.347214,1.4294967e-08
C0A931,三和,2015-04-03,25.233153,121.595236,7.0832965e-07
C0I010,廬山,2015-04-03,24.033311,121.181808,6.0410135e-09
C2M940,日野賀,2015-04-03,23.434056,120.727169,5.3106546e-09
C0R860,鼻頭,2015-04-03,22.1043,120.8979,0.99198574
C0UB20,壯圍,2015-04-03,24.7359,121.8163,1.1390451e-05
C0R790,九棚,2015-04-03,22.14195,120.889281,0.99867666
C0W110,東莒,2015-04-03,25.9652,119.98069,0.05083964
C1U930,粉鳥林,2015-04-03,24.497088,121.842479,2.4692642e-07
C1I211,蘆竹湳,2015-04-03,23.934019,120.811994,2.2943625e-09
C0S830,長濱,2015-04-03,23.286817,121.411975,1.9962376e-07
C1F9F1,伯公龍,2015-04-03,24.272392,120.849047,3.5820913e-09
C0E810,西湖,2015-04-03,24.562947,120.7485,1.7557946e-05
C1I440,新高口,2015-04-03,23.478744,120.878939,1.6854193e-08
C0O840,王爺宮,2015-04-03,23.222064,120.40085,1.9411961e-07
C0T9G0,鳳林山,2015-04-03,23.735269,121.420131,2.1572579e-07
C0X080,佳里,2015-04-03,23.173039,120.145086,3.1554118e-06
C0FB70,大甲溪埔,2015-04-03,24.370625,120.620067,0.0033452
C0Z310,清水斷崖,2015-04-03,24.218294,121.689142,3.3402334e-06
C0M680,太保,2015-04-03,23.455062,120.331455,1.3561018e-07
C1S820,金峰,2015-04-03,22.590969,120.933236,0.9993563
C0AD10,八里,2015-04-03,25.150211,121.403947,0.13428253
C2K240,草嶺,2015-04-03,23.59555,120.693461,4.2873576e-09
C1SA70,都蘭,2015-04-03,22.87794,121.226881,1.0646876e-05
C0K440,二崙,2015-04-03,23.772797,120.408944,2.5768674e-09
C1A760,坪林交控,2015-04-03,24.94284,121.713442,6.2617033e-07
C0F9N0,大里,2015-04-03,24.092464,120.701378,0.0014949321
C0SA90,達仁林場,2015-04-03,22.264347,120.823972,0.9985845
C1R290,石門山,2015-04-03,22.112611,120.756597,0.93467087
42HA10,萬大發電廠,2015-04-03,23.978875,121.139639,4.4657464e-09
C0R890,山海,2015-04-03,21.9878,120.7091,0.98531586
C0T9A0,月眉山,2015-04-03,23.809928,121.539828,1.566626e-07
C0AC70,信義,2015-04-03,25.037822,121.564597,0.01784145
C0K560,棋山,2015-04-03,23.68645,120.603417,5.1581623e-09
C2FB50,出雲,2015-04-03,24.206469,120.902794,3.3287786e-09
C1Z240,中平林道,2015-04-03,23.42115,121.26763,5.3634995e-08
U2H480,溪頭,2015-04-03,23.670306,120.798194,2.0685738e-09
C0M880,好美里,2015-04-03,23.3364,120.138,3.1554118e-06
C0T9E0,大坑,2015-04-03,23.880628,121.581981,2.0775906e-07
C0K530,臺西,2015-04-03,23.701547,120.197559,0.0001746579
C1E900,國一N128K,2015-04-03,24.560997,120.844186,9.583173e-06
C0AJ50,水湳洞,2015-04-03,25.123695,121.862238,0.9850435
C0AI20,白沙灣,2015-04-03,25.283128,121.519058,0.26420113
C0A860,大坪,2015-04-03,25.165914,121.632969,6.1156776e-08
C1U850,觀音海岸,2015-04-03,24.38319,121.77856,4.0149157e-08
C2K610,草嶺石壁,2015-04-03,23.602469,120.707731,5.0204756e-09
C0U950,鶯子嶺,2015-04-03,24.89754,121.79244,1.9963837e-08
C0O900,善化,2015-04-03,23.112883,120.297219,8.757013e-08
C0K550,蔦松,2015-04-03,23.514319,120.229736,3.32169e-07
E2P980,林試六龜中心,2015-04-03,22.991703,120.645722,8.199406e-10
C0E590,通霄,2015-04-03,24.471892,120.704622,0.0013071004
C1I310,西巒,2015-04-03,23.754486,120.883956,2.8813343e-09
C0A550,泰平,2015-04-03,24.971197,121.823711,3.221568e-08
C0I360,水里,2015-04-03,23.812553,120.849792,1.3948325e-09
C0R830,高士,2015-04-03,22.121825,120.836781,0.9425951
C1I101,溪頭,2015-04-03,23.661789,120.807647,6.4283934e-09
C0AJ20,野柳,2015-04-03,25.20703,121.690021,0.9853666
C0B060,暖暖,2015-04-03,25.0957,121.7403,0.7953797
C1H920,長豐,2015-04-03,24.102039,120.879897,1.5230466e-09
C0V360,內門,2015-04-03,22.975481,120.466769,2.9492438e-07
C0R850,林邊,2015-04-03,22.4634,120.5339,0.00048856874
C0E930,龍鳳,2015-04-03,24.700034,120.859125,9.270601e-08
C0U910,冬山,2015-04-03,24.63373,121.7937,1.1390451e-05
C1E721,泰安,2015-04-03,24.489017,120.968036,4.1250545e-09
82H320,茶改中部分場,2015-04-03,23.875611,120.913583,1.1039192e-09
C0M750,布袋,2015-04-03,23.380878,120.167789,7.3289436e-07
C1S860,利嘉,2015-04-03,22.809417,121.050528,4.2304734e-08
72C440,桃園農改,2015-04-03,24.950944,121.030583,2.4895739e-05
E2S980,林試太麻里1,2015-04-03,22.598922,120.980044,0.9954371
C0X170,關廟,2015-04-03,22.963017,120.327797,8.996762e-08
C0V720,林園,2015-04-03,22.507747,120.394511,2.8020238e-06
C1I510,線浸林道,2015-04-03,23.761508,120.832956,1.939705e-09
C0D690,外湖,2015-04-03,24.917735,120.968711,0.00012383719
C0C750,新興坑尾,2015-04-03,25.0061,121.0971,0.001268188
B2Q810,畜試南區分所,2015-04-03,21.945583,120.802167,0.983834
C0S790,金崙,2015-04-03,22.538122,120.966875,0.9994885
C0AH90,福山植物園,2015-04-03,24.760717,121.58135,2.696973e-08
C0I540,奇萊稜線,2015-04-03,24.109231,121.326456,3.259947e-08
C0M850,表湖,2015-04-03,23.24186,120.64166,2.588646e-09
C0S770,大溪山,2015-04-03,22.478475,120.943325,0.000556842
C0AG80,中和,2015-04-03,24.991622,121.491792,0.01784145
C0T790,大禹嶺,2015-04-03,24.186117,121.316086,2.3030974e-08
C0T9B0,水源,2015-04-03,23.991861,121.537169,1.3057021e-07
C0R840,牡丹池山,2015-04-03,22.168389,120.841225,0.99855506
C1I131,桶頭,2015-04-03,23.641944,120.654117,2.0752762e-09
CAL110,布袋國中,2015-04-03,23.35893,120.18026,1.3224131e-07
467571,新竹,2015-04-03,24.827853,121.014219,0.00031847195
C0Z290,赤柯山,2015-04-03,23.36893,121.38293,5.4531395e-08
C0X280,將軍,2015-04-03,23.214999,120.13577,3.1554118e-06
C0S690,太麻里,2015-04-03,22.60902,120.98533,2.6918708e-05
C0U880,北關,2015-04-03,24.9072,121.8734,0.65199995
C1H860,瑞岩,2015-04-03,24.123772,121.18345,8.949265e-09
C0G810,埔心,2015-04-03,23.947633,120.525456,1.8993264e-06
C0U970,大福,2015-04-03,24.80064,121.81389,5.1914525e-05
C2H9N0,仁愛東眼,2015-04-03,24.026875,121.1205,5.7021103e-09
C1E670,南礦,2015-04-03,24.538278,121.002836,3.1501577e-09
C0M520,東後寮,2015-04-03,23.369908,120.248065,1.1907911e-07
C1E461,松安,2015-04-03,24.397972,120.986022,3.7873558e-09
72G600,臺中農改,2015-04-03,24.003028,120.534389,1.2459577e-06
C2N160,西拉雅風管處,2015-04-03,23.189481,120.335297,3.744455e-07
C2M970,碧湖,2015-04-03,23.568632,120.624165,3.91001e-09
C0A640,石碇,2015-04-03,24.993969,121.662917,1.2216501e-06
E2S960,林試太麻里2,2015-04-03,22.598,120.99775,0.98125166
C0F9Y0,桃山,2015-04-03,24.432739,121.303808,3.0728344e-08
C1I020,萬大,2015-04-03,23.979817,121.132261,3.627006e-09
C0U940,羅東,2015-04-03,24.68184,121.74934,1.00903735e-05
C0M650,朴子,2015-04-03,23.43463,120.23902,6.2579187e-07
C1I500,大尖山,2015-04-03,23.858572,120.994889,1.0240891e-08
C0G820,田尾,2015-04-03,23.901669,120.509389,1.6548651e-06
E2K600,四湖植物園,2015-04-03,23.676986,120.163433,0.00017442773
C0S730,綠島,2015-04-03,22.6672,121.47533,0.00049126794
12Q970,東港工作站,2015-04-03,22.479997,120.466058,0.0012897219
C0E430,南庄,2015-04-03,24.601775,121.000214,2.6696533e-08
C1TA00,太魯閣,2015-04-03,24.15773,121.6236,4.0907807e-06
466920,臺北,2015-04-03,25.037658,121.514853,0.01784145
C0R600,舊泰武,2015-04-03,22.588194,120.664944,3.1488403e-06
C1I260,北坑,2015-04-03,23.9246,121.006903,1.2715365e-09
466910,鞍部,2015-04-03,25.182586,121.529731,3.3979326e-08
C1I230,九份二山,2015-04-03,23.961944,120.845,1.7327016e-09
C2A660,瑞芳,2015-04-03,25.113169,121.801147,5.108913e-06
C0R270,琉球嶼,2015-04-03,22.332244,120.362236,0.9798527
C1T990,高寮,2015-04-03,23.394239,121.356808,6.925081e-07
C0G620,芬園,2015-04-03,24.015678,120.6213,1.40697e-07
C1Z140,荖溪,2015-04-03,23.890575,121.45964,3.0130384e-08
C1I201,中心崙,2015-04-03,23.728722,120.712097,2.139801e-09
C1I400,凌霄,2015-04-03,24.018778,121.004456,5.659722e-09
C1M640,十字,2015-04-03,23.492153,120.753683,5.5053277e-09
G2P820,農試鳳山分所,2015-04-03,22.646611,120.356083,1.2650548e-06
C0Z270,蕃薯寮,2015-04-03,23.73835,121.540108,6.110408e-07
C0F9Q0,外埔,2015-04-03,24.347817,120.705686,6.7958094e-06
C0K580,高鐵雲林,2015-04-03,23.737456,120.417944,2.539066e-09
C2I090,鳳凰,2015-04-03,23.728081,120.787347,1.154358e-09
C0U990,員山,2015-04-03,24.74435,121.72247,1.009175e-05
C0V770,大社,2015-04-03,22.730306,120.346639,4.822666e-07
C0X120,麻豆,2015-04-03,23.183289,120.248611,2.5949905e-06
C0C670,龍潭,2015-04-03,24.870056,121.221389,6.799132e-09
C0D680,香山濕地,2015-04-03,24.783581,120.914988,0.0014073108
C0S980,勝林山,2015-04-03,22.430439,120.8938,8.009949e-08
C0V730,大寮,2015-04-03,22.605614,120.395717,2.1166079e-08
C0R570,麟洛,2015-04-03,22.65078,120.52719,2.2126574e-07
C2M930,石卓,2015-04-03,23.478744,120.702264,5.4205858e-09
C0G9B0,和美,2015-04-03,24.105169,120.492131,2.118029e-06
CAG100,王功漁港,2015-04-03,23.96824,120.32586,0.00025552872
C0X290,北門,2015-04-03,23.267772,120.125481,3.1554118e-06
C2F930,大甲,2015-04-03,24.347667,120.640403,0.0023059193
C0D650,湖口,2015-04-03,24.904794,121.043628,5.7684592e-06
C0E420,竹南,2015-04-03,24.708978,120.888897,0.0005257509
C0U780,五結,2015-04-03,24.68637,121.79794,1.1390451e-05
C1I250,鯉潭,2015-04-03,23.961922,120.991131,1.5230466e-09
C0R130,阿禮,2015-04-03,22.742908,120.743678,9.920318e-10
C0X100,臺南市北區,2015-04-03,23.010394,120.194228,8.827603e-07
C0S920,金峰嘉蘭,2015-04-03,22.594789,120.960825,0.9963111
C0V490,新興,2015-04-03,22.627422,120.298803,2.7974263e-06
C0F9K0,大安,2015-04-03,24.345061,120.588025,0.0038367861
72N100,臺南農改,2015-04-03,23.0605,120.342194,6.022149e-08
467290,古坑,2015-04-03,23.633639,120.551889,2.8157696e-09
C2E970,八甲,2015-04-03,24.535811,120.795983,6.174893e-08
C0V440,鳳山,2015-04-03,22.646653,120.356122,1.2650548e-06
C1T940,大觀,2015-04-03,23.714206,121.373133,2.4147036e-07
72T250,花蓮農改,2015-04-03,23.975222,121.563889,2.6081574e-07
C0E740,造橋,2015-04-03,24.637056,120.864778,7.010495e-08
C0R100,尾寮山,2015-04-03,22.833111,120.683889,1.0033235e-09
A2K630,臺大雲林校區,2015-04-03,23.730628,120.423903,2.539066e-09
C0D580,寶山,2015-04-03,24.735006,121.025192,1.739524e-08
E2P990,林試扇平站,2015-04-03,22.9677,120.6857,4.5056074e-09
C0AI30,三重,2015-04-03,25.057328,121.500629,0.007931736
C0AH00,汐止,2015-04-03,25.066881,121.658778,0.9853666
C1Z040,立山,2015-04-03,23.443356,121.327375,1.752202e-07
C0W130,花嶼,2015-04-03,23.40007,119.32276,0.98657537
C0A950,鼻頭角,2015-04-03,25.129036,121.923372,2.1224987e-05
C0K470,林內,2015-04-03,23.748675,120.609642,3.0437366e-09
C2F990,摩天嶺,2015-04-03,24.322458,120.936819,3.817082e-09
82C160,茶改場,2015-04-03,24.908472,121.185333,3.5909764e-07
C0Z320,清水林道,2015-04-03,23.27125,121.188272,1.1634516e-07
C0R760,南仁湖,2015-04-03,22.084681,120.863353,0.93684584
C0M670,大林,2015-04-03,23.600616,120.45841,9.6895805e-05
C0M800,茶山,2015-04-03,23.299075,120.664767,3.0162508e-09
C0A9C0,天母,2015-04-03,25.117494,121.537169,0.0055810846
72K220,南改斗南分場,2015-04-03,23.634556,120.477333,3.541392e-09
72AI40,桃改樹林分場,2015-04-03,24.944503,121.386972,0.004659619
C0S910,蘭嶼燈塔,2015-04-03,22.081197,121.503117,0.96783227
C0B050,八斗子,2015-04-03,25.144754,121.79167,0.99341446
C0U900,內城,2015-04-03,24.71813,121.68766,2.4841074e-05
C0X320,柳營,2015-04-03,23.253328,120.375253,3.4578377e-07
C0M790,新港,2015-04-03,23.553269,120.345728,1.2402514e-07
C0F9T0,西屯,2015-04-03,24.179494,120.641275,0.0015565326
C0SA30,都歷,2015-04-03,23.020333,121.323642,0.0039408426
C0C620,蘆竹,2015-04-03,25.084275,121.265767,0.09019251
C0R730,大坪頂,2015-04-03,22.024633,120.69355,0.9370327
C0AJ40,石門,2015-04-03,25.273672,121.601198,0.0015499747
C0E750,苗栗,2015-04-03,24.564569,120.824575,1.0984704e-05
C0T870,鯉魚潭,2015-04-03,23.935639,121.508944,5.1509244e-07
C1V170,排雲,2015-04-03,23.463619,120.954147,3.331645e-08
C2H950,中寮,2015-04-03,23.884447,120.766406,1.5450818e-09
C0R350,貓鼻頭,2015-04-03,21.921774,120.7358,0.9818171
C0V660,岡山,2015-04-03,22.797078,120.294958,9.121966e-08
C1H941,雙冬,2015-04-03,23.967378,120.802189,1.3061867e-09
C0AJ70,田寮,2015-04-03,25.2698,121.4886,0.3920921
C0AI00,五股,2015-04-03,25.07445,121.42728,2.5909207e-05
C0Z280,德武,2015-04-03,23.47426,121.41071,3.6906735e-07
C0R700,枋山,2015-04-03,22.246844,120.661086,0.9739113
C0C460,復興,2015-04-03,24.820208,121.352281,4.0514326e-08
E2H360,蓮華池,2015-04-03,23.918333,120.885278,1.2248719e-09
C0M640,中埔,2015-04-03,23.42538,120.5229,3.4565462e-09
C0W140,金沙,2015-04-03,24.488292,118.408778,4.3414548e-09
C2A540,四堵,2015-04-03,24.8926,121.745736,2.396415e-07
C0ACA0,新莊,2015-04-03,25.051478,121.446756,0.14338747
C0R220,潮州,2015-04-03,22.534361,120.54,2.6814604e-07
U2HA40,臺大內茅埔,2015-04-03,23.689722,120.851117,1.2626091e-09
467490,臺中,2015-04-03,24.145736,120.684075,0.00053085026
C0U960,翠峰湖,2015-04-03,24.510856,121.608044,1.6957152e-08
E2HA20,林試畢祿溪站,2015-04-03,24.226944,121.308522,1.4020804e-08
C0V890,前鎮,2015-04-03,22.5718,120.3117,4.8196084e-06
467620,蘭嶼,2015-04-03,22.036969,121.558339,0.99844426
C1F941,雪嶺,2015-04-03,24.280586,121.026642,1.5561202e-08
C2H9E0,國姓南港,2015-04-03,23.911108,120.846556,2.224621e-09
C0AC80,文山,2015-04-03,25.00235,121.575728,0.0062884153
C0F9R0,龍井,2015-04-03,24.184536,120.528972,0.0047121546
C0M760,民雄,2015-04-03,23.551754,120.428457,2.364886e-05
C0UA40,西德山,2015-04-03,24.560647,121.752608,2.0916973e-08
C1T920,中興,2015-04-03,23.769503,121.498653,8.4282755e-07
C0D550,雪霸,2015-04-03,24.526972,121.11605,8.184458e-09
C2F860,梨山,2015-04-03,24.247522,121.243669,1.4376038e-08
C0R320,車城,2015-04-03,22.0744,120.716247,0.98531586
C1S870,南美山,2015-04-03,23.15025,121.382333,3.5419723e-06
C0B020,基隆嶼,2015-04-03,25.19141,121.78391,0.9850435
C1U501,牛鬥,2015-04-03,24.637836,121.573656,2.142963e-06
C0M730,嘉義市東區,2015-04-03,23.457673,120.460531,4.5803772e-05
C0S700,知本,2015-04-03,22.684866,121.005642,8.371202e-05
C1N001,沙崙,2015-04-03,22.935472,120.309406,2.7025686e-07
C0V760,橋頭,2015-04-03,22.757806,120.30575,7.791545e-08
C0G960,福寶,2015-04-03,24.0443,120.3814,2.6523114e-06
C0X210,白河,2015-04-03,23.347466,120.414427,2.8358434e-07
C0S810,東河,2015-04-03,22.972672,121.303986,1.5940495e-05
C2R170,屏東,2015-04-03,22.66027,120.49403,2.879345e-07
C0R670,楓港,2015-04-03,22.190131,120.692156,0.9739113
C0FA50,霧峰,2015-04-03,24.0419,120.6995,0.0004663308
C0UB10,蘇澳,2015-04-03,24.5969,121.8571,3.9295628e-08
C0G950,防潮門,2015-04-03,24.1835,120.4871,0.005071611
C0M740,六腳,2015-04-03,23.492871,120.290625,1.424151e-07
C1R250,力里,2015-04-03,22.428117,120.629228,0.9514448
C0K330,虎尾,2015-04-03,23.719183,120.442036,2.4775157e-09
C2FA00,烏石坑,2015-04-03,24.273503,120.947617,3.7967296e-09
C0V620,永安,2015-04-03,22.82315,120.236856,9.118974e-08
C1I330,楓樹林,2015-04-03,23.986803,121.076117,4.397803e-09
C0W200,湖西,2015-04-03,23.596314,119.67275,0.9843046
72Q010,高雄農改場,2015-04-03,22.709333,120.525889,1.8387817e-07
C0SA40,瑞和,2015-04-03,22.974361,121.156697,1.629251e-05
C0C680,龜山,2015-04-03,25.02846,121.38656,7.007915e-08
C2V260,月眉,2015-04-03,22.971003,120.539853,5.8338456e-10
C0V450,鳳森,2015-04-03,22.545064,120.392592,9.917144e-09
C0U720,南山,2015-04-03,24.43742,121.38167,1.4006103e-08
A2N290,臺南蘭花園區,2015-04-03,23.340258,120.379661,3.4578377e-07
C0R560,新園,2015-04-03,22.5434,120.461558,0.00048856874
C0U890,三星,2015-04-03,24.66812,121.65302,9.399252e-06
C1V300,御油山,2015-04-03,23.001983,120.715364,1.0438493e-08
C0U600,礁溪,2015-04-03,24.817539,121.765608,3.8053797e-05
C1T980,龍澗,2015-04-03,24.023289,121.411328,1.8541806e-08
C0D670,海天一線,2015-04-03,24.831986,120.914438,0.0019784088
C0SA00,歷坵,2015-04-03,22.520969,120.89185,1.3744167e-05
C0M710,東石,2015-04-03,23.458927,120.15385,3.32169e-07
C0M780,鹿草,2015-04-03,23.41134,120.30835,2.4740376e-07
C0U520,雙連埤,2015-04-03,24.753033,121.641303,1.8152438e-08
C0B010,七堵,2015-04-03,25.094819,121.71713,0.96784616
C0R480,長治,2015-04-03,22.693128,120.542622,8.699839e-09
C1V830,國三S383K,2015-04-03,22.781967,120.426475,5.008174e-10
12Q980,恆春工作站,2015-04-03,22.079678,120.714425,0.98531586
C1O940,東山服務區,2015-04-03,23.286016,120.398472,2.7247603e-07
C1U840,東澳嶺,2015-04-03,24.5378,121.8485,3.8379852e-08
C1D630,飛鳳山,2015-04-03,24.766464,121.119178,1.10374065e-08
C0S940,石寧山,2015-04-03,23.223772,121.406639,5.0093877e-07
C0K410,北港,2015-04-03,23.573957,120.292802,1.4023873e-07
C2M620,瑞里,2015-04-03,23.545133,120.675197,5.3809264e-09
C0SB70,小港漁港,2015-04-03,23.158558,121.400431,1.667011e-06
C2O950,安南,2015-04-03,23.076694,120.144861,1.3048125e-06
C0F0E0,南湖圈谷,2015-04-03,24.363714,121.444667,4.1905203e-08
467610,成功,2015-04-03,23.097486,121.373428,0.25840825
C0G890,伸港,2015-04-03,24.148933,120.484403,0.0037307509
C2E540,龍溪,2015-04-03,24.606489,120.783933,3.7121692e-05
C1V200,梅山,2015-04-03,23.268447,120.823556,7.1767823e-09
C0T9H0,加路蘭山,2015-04-03,23.682947,121.5274,1.4068935e-07
C2O930,玉井,2015-04-03,23.126042,120.46055,1.3037863e-06
C1F911,新伯公,2015-04-03,24.221361,120.841069,3.7092593e-09
C0R490,九如,2015-04-03,22.7405,120.490503,2.2250532e-07
C0X200,左鎮,2015-04-03,23.056758,120.408522,2.7223473e-07
C0SB50,叭嗡嗡,2015-04-03,23.047062,121.343223,5.3768574e-05
C1F891,稍來,2015-04-03,24.265689,121.001142,1.0684241e-08
72N240,七股研究中心,2015-04-03,23.081672,120.062894,5.28139e-05
C0C700,中壢,2015-04-03,24.977661,121.256375,9.22092e-06
C0M690,水上,2015-04-03,23.419734,120.388909,4.5903074e-05
C0V690,鼓山,2015-04-03,22.623325,120.275575,2.8020238e-06
C0O860,大內,2015-04-03,23.11885,120.36083,4.572889e-08
C0Z200,萬榮,2015-04-03,23.709219,121.420106,5.1509244e-07
C0T9D0,和中,2015-04-03,24.26676,121.74103,3.2647302e-05
C1O921,楠西,2015-04-03,23.183511,120.484083,4.799953e-07
C0AJ30,淡水觀海,2015-04-03,25.184591,121.408616,0.1782565
C0V810,左營,2015-04-03,22.67491,120.28491,6.4059054e-07
C0UA70,桃源谷,2015-04-03,24.962606,121.888875,2.7622677e-08
C0X130,官田,2015-04-03,23.193217,120.315422,4.2127147e-07
C1H000,翠峰,2015-04-03,24.109397,121.205211,1.7995276e-08
C0UA90,石城,2015-04-03,24.980444,121.951214,2.5362067e-05
C1E681,南勢山,2015-04-03,24.421669,120.923831,3.7593164e-09
C0A9F0,內湖,2015-04-03,25.079422,121.57545,0.01784145
C0K291,宜梧,2015-04-03,23.536281,120.169329,3.7431948e-07
C1K540,口湖,2015-04-03,23.585344,120.180517,4.130001e-07
C0R780,滿州,2015-04-03,22.024403,120.839892,0.9802203
C0V870,文安,2015-04-03,22.8025,120.2164,1.0780804e-07
C0U650,玉蘭,2015-04-03,24.675286,121.587061,8.848551e-08
C0R640,東港,2015-04-03,22.46247,120.44074,4.703556e-06
K2E360,苗栗農改,2015-04-03,24.495722,120.829111,1.102771e-07
C0AJ80,板橋,2015-04-03,25.0107,121.4489,0.0071086083
C0S660,下馬,2015-04-03,23.150427,121.070312,9.986982e-08
C1H9B1,阿眉,2015-04-03,24.1263,120.994672,7.507115e-09
C0UA20,多加屯,2015-04-03,24.368614,121.373189,1.867939e-08
C0E730,頭份,2015-04-03,24.688247,120.912206,0.00052575016
72V140,高改旗南分場,2015-04-03,22.857861,120.516667,9.732729e-10
C0K480,莿桐,2015-04-03,23.761192,120.502372,2.4978903e-09
C0U980,坪林石牌,2015-04-03,24.86478,121.77396,3.489956e-08
C0T900,西林,2015-04-03,23.8119,121.441458,4.1020328e-07
C1I150,青雲,2015-04-03,23.793361,120.949378,1.2719295e-09
467350,澎湖,2015-04-03,23.565503,119.563094,0.99126136
C0G800,埔鹽,2015-04-03,24.000394,120.431683,2.2375111e-06
C0H960,草屯,2015-04-03,23.973672,120.68085,1.7904335e-09
C1V780,多納林道,2015-04-03,22.888028,120.737917,3.0066183e-09
C0E920,通霄漁港,2015-04-03,24.498589,120.673876,0.0019533676
C0Z330,安通山,2015-04-03,23.290728,121.348528,1.9235638e-07
C0AH10,永和,2015-04-03,25.01125,121.508111,0.021675963
C0AK10,太平里,2015-04-03,25.134937,121.364899,0.14338747
C2G640,鹿港,2015-04-03,24.0753,120.430481,2.2375111e-06
C1E890,國三N149K,2015-04-03,24.463414,120.680019,0.0010772409
C1R110,口社,2015-04-03,22.770111,120.645222,9.446162e-09
C1M870,國三N285K,2015-04-03,23.550319,120.505833,2.8015839e-09
467050,新屋,2015-04-03,25.006744,121.047486,6.2838124e-05
C1E480,鳳美,2015-04-03,24.554803,121.034747,1.921082e-09
C0M530,奮起湖,2015-04-03,23.493903,120.699253,5.889166e-09
C0C590,觀音,2015-04-03,25.027072,121.153317,0.0025316735
C0T9M0,靜浦,2015-04-03,23.455167,121.495028,1.0777511e-06
C2H9M0,發祥,2015-04-03,24.154094,121.164517,4.596602e-09
C0AI40,石牌,2015-04-03,25.115597,121.513139,0.0071086083
C1F871,上谷關,2015-04-03,24.203483,121.018644,3.7967296e-09
C2H9G0,百勝,2015-04-03,24.051142,120.909361,3.4422758e-09
C0G880,二水,2015-04-03,23.810742,120.6173,2.547288e-09
C0R940,加祿堂,2015-04-03,22.3363,120.6217,0.98883355
C0W220,北竿,2015-04-03,26.220358,119.974881,4.4903965e-09
C0O960,崎頂,2015-04-03,22.959547,120.369317,5.480401e-10
C0S750,向陽,2015-04-03,23.248397,120.986133,2.0742482e-08
C0T9F0,水璉,2015-04-03,23.797131,121.542514,2.621756e-07
C1M600,頭凍,2015-04-03,23.406364,120.603339,4.1510133e-09
467660,臺東,2015-04-03,22.752211,121.154586,0.99875855
C1D380,新埔,2015-04-03,24.84745,121.03834,4.0789964e-05
C2G980,田頭村,2015-04-03,23.8263,120.444175,2.5768674e-09
C0V750,路竹,2015-04-03,22.854997,120.259439,2.7229618e-08
C0N050,蚵寮,2015-04-03,23.301,120.1104,4.0457653e-05
72M700,南改鹿草分場,2015-04-03,23.416869,120.283061,2.747205e-07
C1SA50,利嘉林道,2015-04-03,22.82325,121.009389,8.836926e-09
467550,玉山,2015-04-03,23.487614,120.959522,3.6498605e-08
C0A940,金山,2015-04-03,25.223628,121.643967,0.1375997
C1V340,大津,2015-04-03,22.888322,120.645986,1.0111156e-09
C0W180,七美,2015-04-03,23.219333,119.444892,0.9962077
C1F9C1,白冷,2015-04-03,24.182844,120.929889,3.6681713e-09
K2E710,苗改生物防治研究中心,2015-04-03,24.422861,120.871833,5.734867e-08
C0N040,蘆竹溝,2015-04-03,23.2344,120.0961,4.0457653e-05
C2W230,畜試所澎湖,2015-04-03,23.628342,119.513206,0.9679148
C0R880,後壁湖,2015-04-03,21.9457,120.7457,0.9856354
C1I280,埔中,2015-04-03,23.820778,120.642594,2.283361e-09
467790,墾丁雷達站,2015-04-03,21.948235,120.808028,0.97962576
C0W190,望安,2015-04-03,23.380564,119.494075,0.99060935
466881,新北,2015-04-03,24.9593,121.52,0.011722952
C0Z170,卓溪,2015-04-03,23.3443,121.3029,4.2971675e-07
C0F850,東勢,2015-04-03,24.246428,120.833047,3.8270334e-09
466900,淡水,2015-04-03,25.164889,121.448906,0.13428253
C0I370,魚池,2015-04-03,23.895703,120.94135,1.2210487e-09
C0C630,大溪,2015-04-03,24.882853,121.265547,1.6982143e-06
C0A520,山佳,2015-04-03,24.974944,121.402008,0.004659619
C0I110,竹山,2015-04-03,23.761225,120.688156,1.5911147e-09
82H840,茶改南部分場,2015-04-03,23.762528,120.7405,1.2682836e-09
C0G660,溪湖,2015-04-03,23.94835,120.479122,2.6088414e-06
C1T800,洛韶,2015-04-03,24.204558,121.453956,2.1372854e-08
C1T810,慈恩,2015-04-03,24.192044,121.388386,1.9454452e-08
C1E451,象鼻,2015-04-03,24.368617,120.940228,3.754644e-09
C0AC60,三峽,2015-04-03,24.939025,121.369728,0.009432011
C0I490,萬大林道,2015-04-03,23.928228,121.091411,9.456383e-09
C1I290,豐丘,2015-04-03,23.668178,120.887417,1.939705e-09
C1I320,奧萬大,2015-04-03,23.952956,121.178556,4.4392836e-09
C2M910,嘉義大學,2015-04-03,23.471325,120.485903,3.0606366e-09
C0U770,南澳,2015-04-03,24.44935,121.81022,5.669362e-07
C0A980,社子,2015-04-03,25.109508,121.469681,0.010075196
C0V800,六龜,2015-04-03,22.997889,120.633583,8.4608937e-10
C1G9D0,國一S218K,2015-04-03,23.890641,120.493253,1.8993264e-06
C0E570,白沙屯,2015-04-03,24.549447,120.696803,0.0019533676
C2F9A0,中竹林,2015-04-03,24.103556,120.751061,1.6732468e-09
C0FA40,臺中電廠,2015-04-03,24.2146,120.4907,0.0047121546
C2G9A0,畜試所彰化,2015-04-03,23.86045,120.557964,2.4039395e-09
C0H9C0,合歡山,2015-04-03,24.143442,121.272547,3.3501756e-08
C0X060,下營,2015-04-03,23.22695,120.256261,5.634805e-07
G2M350,農試溪口農場,2015-04-03,23.58565,120.408111,3.30126e-05
C0U860,頭城,2015-04-03,24.85323,121.8308,4.545874e-05
C0R580,南州,2015-04-03,22.48591,120.50274,0.0012897219
C0D430,峨眉,2015-04-03,24.6905,121.017189,2.5063397e-05
C0G780,秀水,2015-04-03,24.03405,120.503869,1.4179417e-06
72N100,臺南農改場,2015-04-03,23.0605,120.342194,6.022149e-08
C0S900,蘭嶼高中,2015-04-03,22.04909,121.51214,0.96795964
467540,大武,2015-04-03,22.355675,120.903789,0.08472762
C1F9W0,德基,2015-04-03,24.254783,121.190261,9.604567e-09
C1Z120,壽豐,2015-04-03,23.870853,121.508081,1.1568161e-06
C0W160,烏坵,2015-04-03,24.9944,119.44956,0.92482704
C1I240,外大坪,2015-04-03,23.958697,120.917931,1.5537052e-09
C1I550,國六W023K,2015-04-03,23.979067,120.867742,1.3973036e-09
C0R870,興海,2015-04-03,21.9752,120.8439,0.9838555
C0R140,瑪家,2015-04-03,22.682903,120.686639,5.4163687e-09
C0A530,坪林,2015-04-03,24.938183,121.70975,9.3632264e-07
C0X260,後壁,2015-04-03,23.366358,120.362326,4.4284945e-08
C0Z230,和平,2015-04-03,24.30717,121.77007,3.2647302e-05
C0G770,福興,2015-04-03,24.041289,120.437669,2.2375111e-06
C0H9A0,神木村,2015-04-03,23.532742,120.843667,7.0901405e-09
C0I460,南投,2015-04-03,23.911469,120.687331,1.6951871e-09
C0I480,梅峰,2015-04-03,24.085272,121.173572,1.365842e-08
C1V570,吉東,2015-04-03,22.85422,120.5454,8.950012e-10
C2D740,屯原,2015-04-03,24.067969,121.209389,1.1676451e-08
C2A560,福山,2015-04-03,24.776203,121.502811,1.3871393e-08
C0AH30,五分山,2015-04-03,25.07125,121.780794,2.128157e-08
C0FA10,松柏,2015-04-03,24.429115,120.617482,0.0041562635
72S200,東改班鳩分場,2015-04-03,22.829528,121.077694,0.920909
72HA00,中改埔里分場,2015-04-03,23.903208,120.963364,1.1808474e-09
C2H9W0,大坪頂農水,2015-04-03,24.043122,120.932781,1.5471934e-09
C0C650,平鎮,2015-04-03,24.897503,121.214636,3.5909764e-07
C0S930,延平,2015-04-03,22.902581,121.084058,1.8853276e-06
C0UA60,樟樹山,2015-04-03,24.41393,121.78325,1.2007271e-07
C1S670,摩天,2015-04-03,23.199503,121.027,2.6942942e-08
C0V630,茄萣,2015-04-03,22.906642,120.182608,2.0316102e-06
466940,基隆,2015-04-03,25.133314,121.740475,0.98970586
C0X050,東河,2015-04-03,23.296598,120.385608,3.4578377e-07
C0R770,保力,2015-04-03,22.071122,120.764111,0.97386104
G2L020,農試嘉義分所,2015-04-03,23.485028,120.473806,2.9288196e-09
C0X240,關子嶺,2015-04-03,23.331169,120.508025,1.6116706e-09
C0I380,集集,2015-04-03,23.828206,120.801467,1.3870645e-09
466990,花蓮,2015-04-03,23.975128,121.613275,2.932654e-07
C1V220,小關山,2015-04-03,23.154217,120.813603,1.1131488e-08
C1F9G1,慶福山,2015-04-03,24.180853,120.848378,2.7719775e-09
C0Z250,瑞穗林道,2015-04-03,23.49284,121.30688,4.6503267e-08
C0D590,新豐,2015-04-03,24.87068,120.97721,8.912795e-09
C0A870,五指山,2015-04-03,25.132153,121.608692,6.369422e-08
C0UA50,西帽山,2015-04-03,24.555361,121.802628,3.291047e-08
C0X160,仁德,2015-04-03,22.968258,120.257689,1.547245e-07
C1H971,六分寮,2015-04-03,23.92507,120.6378,1.7112646e-09
C0W120,西嶼,2015-04-03,23.5626,119.468436,0.99126136
C0G650,員林,2015-04-03,23.946503,120.585597,7.322565e-07
C0AD50,鶯歌,2015-04-03,24.951533,121.346294,0.0021631585
C2H9Q0,北東眼山,2015-04-03,24.120939,121.189303,1.1390617e-08
C2H9T0,名間竹圍,2015-04-03,23.859914,120.637572,1.4266278e-09
C0S990,山豬窟,2015-04-03,22.318619,120.857372,0.9999217
72Q010,高雄農改,2015-04-03,22.709333,120.525889,1.8387817e-07
C0X190,安平,2015-04-03,22.993161,120.152181,8.827603e-07
C0K400,斗六,2015-04-03,23.720583,120.541127,2.8845675e-09
12J990,口湖工作站,2015-04-03,23.589978,120.180394,3.696422e-07
C0O830,北寮,2015-04-03,23.079561,120.495008,8.8187363e-10
C1D410,白蘭,2015-04-03,24.579364,121.079947,4.6873248e-09
C0S970,加津林,2015-04-03,22.416211,120.926942,0.08733991
C0D700,關西,2015-04-03,24.7977,121.1732,7.3696435e-07
C0M810,里佳,2015-04-03,23.389125,120.716647,5.889166e-09
C0U750,龜山島,2015-04-03,24.841667,121.953133,1.7335754e-08
C0R810,內獅,2015-04-03,22.305064,120.642986,0.98883355
C1M390,龍美,2015-04-03,23.406728,120.654417,5.276075e-09
C2FB60,頭櫃山,2015-04-03,24.129842,120.858925,3.4599892e-09
C1H840,國三N238K,2015-04-03,23.841008,120.707711,1.3973569e-09
CAQ030,崎峰國小,2015-04-03,22.42565,120.49521,0.0012897219
C2E520,大湖,2015-04-03,24.414939,120.870872,9.201352e-08
467530,阿里山,2015-04-03,23.508208,120.813242,1.7743135e-08
C1E691,南湖,2015-04-03,24.40135,120.837533,2.395714e-09
C0FA30,梧棲,2015-04-03,24.256003,120.523381,0.0047121546
C1V231,高中,2015-04-03,23.134911,120.716711,1.4880122e-09
C0F9V0,新社,2015-04-03,24.200172,120.815806,3.3391565e-09
C0H890,埔里,2015-04-03,23.972169,120.952425,4.792929e-09
C0R690,墾丁,2015-04-03,21.966756,120.810269,0.9293186
C0F0D0,審馬陣,2015-04-03,24.381675,121.4203,2.973247e-08
C0R820,白鷺,2015-04-03,22.454275,120.666219,0.4426719
U2H480,臺大溪頭,2015-04-03,23.670306,120.798194,2.0685738e-09
C1V190,南天池,2015-04-03,23.27403,120.91176,2.2164096e-08
K2E360,苗栗農改場,2015-04-03,24.495722,120.829111,1.102771e-07
CAJ050,海口故事園區,2015-04-03,23.57543,120.14121,4.130001e-07
C2H9D0,三隻寮,2015-04-03,24.093078,120.861578,1.5782688e-09
C0O990,媽廟,2015-04-03,22.99175,120.293525,1.3995815e-07
C0D480,打鐵坑,2015-04-03,24.849664,121.150789,9.619271e-09
C0Z220,和平林道,2015-04-03,24.343922,121.656317,1.16821916e-07
C0TA10,花蓮漁港,2015-04-03,23.995322,121.638331,3.1286245e-07
72C440,桃園農改場,2015-04-03,24.950944,121.030583,2.4895739e-05
C1E711,馬拉邦山,2015-04-03,24.367306,120.901656,2.5900238e-09
C0SB20,富岡,2015-04-03,22.792467,121.192669,0.9985495
C0D560,竹東,2015-04-03,24.767147,121.057881,1.7004621e-06
C0F9U0,南屯,2015-04-03,24.137006,120.637969,0.00149493
C0M720,番路,2015-04-03,23.464657,120.554156,2.7851632e-09
C0F0A0,雪山圈谷,2015-04-03,24.388594,121.236339,3.7711104e-08
C1A9N0,四十份,2015-04-03,24.934158,121.593283,7.0527825e-08
C0U760,東澳,2015-04-03,24.52196,121.83318,2.2152733e-07
C0X230,鹽水,2015-04-03,23.272621,120.247641,4.923998e-07
C2H9H0,苗改南投蜂場,2015-04-03,23.852589,120.693481,1.5911147e-09
C0R950,萬隆國小,2015-04-03,22.507667,120.587817,2.0305313e-08
C0V370,古亭坑,2015-04-03,22.893178,120.401947,3.8916536e-07
C1I340,新興橋,2015-04-03,23.563333,120.868728,1.8052677e-09
C0SA80,土坂,2015-04-03,22.453108,120.887572,0.9984559
C0R160,鹽埔,2015-04-03,22.739558,120.530778,1.0126022e-08
C0AC40,大屯山,2015-04-03,25.175675,121.522408,3.2656164e-08
466850,五分山雷達站,2015-04-03,25.071182,121.781205,2.114917e-08
C2H9L0,馬烈霸,2015-04-03,24.1512,121.201772,1.1237618e-08
C1AI50,國三N016K,2015-04-03,25.034164,121.619664,0.007800617
C1V600,藤枝,2015-04-03,23.071961,120.757042,1.0114479e-08
C1E601,南勢,2015-04-03,24.572486,120.734842,2.1595798e-07
C0Z180,新城,2015-04-03,24.03946,121.60454,2.6913958e-07
C0O980,新市,2015-04-03,23.061614,120.298197,8.757013e-08
C0K420,西螺,2015-04-03,23.800407,120.467394,2.5759042e-09
C0Z050,佳心,2015-04-03,23.34567,121.21316,8.302224e-08
C0AD30,蘆洲,2015-04-03,25.086594,121.472331,0.008521655
C0V610,梓官,2015-04-03,22.760558,120.267211,9.144787e-08
K2F750,種苗改良場,2015-04-03,24.225972,120.800917,3.4360834e-09
C0UA80,大溪漁港,2015-04-03,24.941801,121.902955,3.8053797e-05
C1AI60,國一39K邊坡,2015-04-03,25.064361,121.383836,5.568191e-07
C0W150,金寧,2015-04-03,24.457703,118.328989,3.947989e-09
C0R960,內埔,2015-04-03,22.608483,120.570714,2.8115045e-08
V2C250,八德合作社,2015-04-03,24.93775,121.266389,8.069744e-07
C2H9S0,龍南,2015-04-03,23.953536,120.833183,2.9890357e-09
C0AH40,平等,2015-04-03,25.129142,121.577086,1.222918e-07
C0R540,佳冬,2015-04-03,22.419456,120.552375,0.0013164781
466950,彭佳嶼,2015-04-03,25.627975,122.079744,0.9998063
C0A890,雙溪,2015-04-03,25.036003,121.864242,0.92983794
C0C480,桃園,2015-04-03,24.992425,121.323172,1.6159987e-05
C0AH50,林口,2015-04-03,25.072181,121.38084,1.05058085e-07
A2K360,水試臺西試驗場,2015-04-03,23.717231,120.190522,0.00019253699
B2N890,畜試所,2015-04-03,23.058972,120.336406,6.022149e-08
C2M960,外寮,2015-04-03,23.562643,120.665688,4.052899e-09
C0F9S0,烏日,2015-04-03,24.107058,120.624103,1.2564606e-06
C0C490,八德,2015-04-03,24.928708,121.283289,3.2524406e-06
C0R190,赤山,2015-04-03,22.592333,120.614306,2.5578931e-08
C0T820,天祥,2015-04-03,24.179597,121.495639,2.0939491e-07
C1F9E1,龍安,2015-04-03,24.1605,120.831961,3.3284993e-09
C0V820,小林,2015-04-03,23.148408,120.63325,1.6721174e-09
C2G870,芳苑,2015-04-03,23.922303,120.320025,0.00034140472
C0E850,大河,2015-04-03,24.618069,120.948578,3.7711896e-08
C1U670,寒溪,2015-04-03,24.634,121.71691,2.644013e-06
C0N020,城西,2015-04-03,23.0568,120.0956,4.050834e-05
C1Z110,三棧,2015-04-03,24.11557,121.60501,1.189428e-07
C0R280,檳榔,2015-04-03,22.076078,120.836777,0.9325321
C2H9J0,中台,2015-04-03,23.9996,120.938739,3.573084e-09
C0F9L0,后里,2015-04-03,24.310436,120.729725,3.0175332e-07
C0D540,橫山,2015-04-03,24.71116,121.11693,1.268572e-08
C1D420,太閣南,2015-04-03,24.632808,121.160575,6.2225602e-09
C1E770,公館,2015-04-03,24.526914,120.830806,0.0008719487
CAN130,水試所海水繁養殖中心,2015-04-03,23.120802,120.07968,5.28139e-05
C1I430,翠華,2015-04-03,24.191961,121.224339,1.755677e-08
C1M400,菜瓜坪,2015-04-03,23.251928,120.576103,3.0775895e-09
C0G730,二林,2015-04-03,23.903325,120.376081,3.566564e-06
72M360,南改義竹分場,2015-04-03,23.360694,120.279361,6.891955e-08
V2K620,麥寮合作社,2015-04-03,23.753836,120.294783,0.00014384436
C0Z070,舞鶴,2015-04-03,23.46811,121.37407,2.664694e-07
C0B040,大武崙,2015-04-03,25.166676,121.706993,0.9671559
C1Z030,紅葉,2015-04-03,23.493119,121.338806,3.5111722e-07
C1I050,丹大,2015-04-03,23.753747,121.141147,2.2248553e-08
C0I080,信義,2015-04-03,23.689694,120.851036,1.2626091e-09
C2M920,朴子農改,2015-04-03,23.469889,120.259383,1.424151e-07
C2A880,福隆,2015-04-03,25.017842,121.942083,1.9210434e-05
C0Z160,鳳林,2015-04-03,23.746114,121.453411,1.9027076e-06
C0V210,復興,2015-04-03,23.222403,120.806089,5.8802874e-09
C0H990,昆陽,2015-04-03,24.121322,121.273642,2.8166303e-08
C0R741,獅子,2015-04-03,22.202308,120.705236,0.93169504
C0S710,鹿野,2015-04-03,22.917711,121.122994,3.3402833e-07
C0I530,小奇萊,2015-04-03,24.131764,121.295717,2.8636828e-08
C2K630,荷苞,2015-04-03,23.657717,120.595144,4.2726227e-09
C0Z080,富源,2015-04-03,23.587642,121.378225,3.373108e-07
467441,高雄,2015-04-03,22.7304,120.3125,6.4059054e-07
C0SB10,美和,2015-04-03,22.682078,121.060236,0.9998362
C2K620,馬光農場,2015-04-03,23.721453,120.378864,2.627085e-09
C1I140,卡奈托灣,2015-04-03,23.754364,121.087872,7.748357e-09
C0I520,玉山風口,2015-04-03,23.470489,120.955994,3.7320984e-08
C1G691,下水埔,2015-04-03,23.816114,120.5676,2.764364e-09
C0X110,臺南市南區,2015-04-03,22.961189,120.188378,7.8221655e-07
C0V680,仁武,2015-04-03,22.701083,120.347722,4.822666e-07
C2G840,北斗,2015-04-03,23.877586,120.514222,1.6548651e-06
C0R900,竹坑,2015-04-03,22.1385,120.7022,0.51502275
C0K250,崙背,2015-04-03,23.75555,120.318925,0.00011977777
C0G860,社頭,2015-04-03,23.897647,120.5862,6.622513e-07
C0X150,安定,2015-04-03,23.102614,120.227839,4.5010097e-07
C0R590,里港,2015-04-03,22.77919,120.49459,1.7212782e-09
C0E610,馬都安,2015-04-03,24.451272,120.930192,7.28149e-09
C0E550,明德,2015-04-03,24.583486,120.885411,4.435105e-08
C0R150,三地門,2015-04-03,22.709889,120.639944,1.1906015e-07
C0G910,花壇,2015-04-03,24.032076,120.549461,9.539326e-07
C1D400,鳥嘴山,2015-04-03,24.71909,121.28387,8.726563e-09
C0K500,元長,2015-04-03,23.64981,120.315024,5.8352663e-05
C0F0B0,石岡,2015-04-03,24.276061,120.777644,1.7807645e-09
C2V250,甲仙,2015-04-03,23.080106,120.591758,1.1531676e-09
C0SA20,金崙山,2015-04-03,22.567419,120.959667,3.0926905e-08
C0V350,溪埔,2015-04-03,22.738578,120.446797,1.05877625e-07
C0M660,溪口,2015-04-03,23.604131,120.403569,3.3012566e-05
C1S880,壽卡,2015-04-03,22.238911,120.858903,0.9985322
72D680,桃改新埔分場,2015-04-03,24.834444,121.066111,5.314581e-06
