站號,站名,日期,lat,lon,BLBTSLS
C0R710,龍磐,2015-02-21,21.931672,120.838942,0.9627604
C1F9D1,白毛台,2015-02-21,24.158325,120.886933,1.1246962e-09
C0G940,竹塘,2015-02-21,23.848253,120.386764,7.410189e-10
467590,恆春,2015-02-21,22.003897,120.746339,0.9527777
C1O850,環湖,2015-02-21,23.148617,120.418633,5.670698e-10
C0U710,太平山,2015-02-21,24.505486,121.525656,1.8307935e-08
C0E820,獅潭,2015-02-21,24.539133,120.920042,1.4751431e-09
C0V880,興達,2015-02-21,22.8778,120.2127,5.4337607e-10
C0S890,關山,2015-02-21,23.0395,121.175017,1.2493001e-08
C0SB30,新蘭,2015-02-21,22.869214,121.223228,1.2875124e-08
C2R970,屏科大,2015-02-21,22.648275,120.619247,6.7040035e-10
K2F750,種苗繁殖,2015-02-21,24.225972,120.800917,1.2081036e-09
C1Z130,銅門,2015-02-21,23.965694,121.492842,3.3776235e-08
C0AD40,土城,2015-02-21,24.973208,121.445169,3.8891246e-09
CAN140,六官養殖協會,2015-02-21,23.22881,120.29962,5.528138e-10
C0X180,山上,2015-02-21,23.0757,120.363253,5.2521865e-10
C0F9Z0,雪山東峰,2015-02-21,24.388792,121.268675,2.2679968e-08
C1M480,獨立山,2015-02-21,23.537022,120.607797,2.9711253e-09
C0X220,學甲,2015-02-21,23.230367,120.182187,8.870696e-10
467650,日月潭,2015-02-21,23.881325,120.90805,1.905772e-09
C0K600,箔子寮,2015-02-21,23.6197,120.14,6.337606e-10
C0G830,埤頭,2015-02-21,23.866003,120.452806,9.402119e-10
C0S950,七塊厝,2015-02-21,22.954453,121.229922,8.481127e-09
467110,金門,2015-02-21,24.407306,118.289281,7.046379e-09
C0AH80,深坑,2015-02-21,25.002703,121.628328,5.0925384e-09
467990,馬祖,2015-02-21,26.169269,119.923419,7.012458e-09
C0A970,三貂角,2015-02-21,25.007606,122.002058,6.2375e-08
C2D730,寶山農場,2015-02-21,24.732444,120.976153,2.0881525e-09
C0K430,褒忠,2015-02-21,23.690938,120.303634,5.914796e-10
467480,嘉義,2015-02-21,23.495925,120.432906,6.672316e-10
C2E540,後龍,2015-02-21,24.606489,120.783933,2.5671443e-09
C0V400,阿公店,2015-02-21,22.804194,120.355528,3.8014375e-10
C0R440,大漢山,2015-02-21,22.405264,120.753181,7.561594e-09
C0K280,四湖,2015-02-21,23.630414,120.227125,5.806448e-10
C1F9B1,桐林,2015-02-21,24.066172,120.735194,6.5053324e-10
C2H9U0,鳳鵬,2015-02-21,23.763919,120.788061,1.2619662e-09
C0K390,土庫,2015-02-21,23.679029,120.395574,7.3014433e-10
C1I450,望鄉山,2015-02-21,23.594153,120.944286,1.514265e-08
C0E910,海埔,2015-02-21,24.648767,120.772435,3.8123456e-09
B2E890,畜試北區分所,2015-02-21,24.527806,120.770972,2.4389193e-09
C0R750,四林格山,2015-02-21,22.076989,120.802439,0.0011719938
C0F0C0,中坑,2015-02-21,24.248517,120.903319,2.0861064e-09
C1I121,大鞍,2015-02-21,23.678381,120.760017,3.5395686e-09
72U480,花改蘭陽分場,2015-02-21,24.686306,121.716583,6.970509e-08
C0A770,科教館,2015-02-21,25.096356,121.516507,3.8602725e-09
C0AJ60,六塊厝,2015-02-21,25.24,121.4481,8.075848e-09
C0R620,墾雷,2015-02-21,21.900836,120.855269,0.9513256
467420,永康,2015-02-21,23.038386,120.2367,6.626215e-10
467300,東吉島,2015-02-21,23.25695,119.667467,0.25897083
C0I410,名間,2015-02-21,23.837053,120.701447,1.1175476e-09
A2C560,農工中心,2015-02-21,24.985917,121.239833,4.1621124e-09
C0V740,旗山,2015-02-21,22.888614,120.483597,5.6885613e-10
C0Z061,玉里,2015-02-21,23.3215,121.339656,1.9233854e-08
C0S840,南田,2015-02-21,22.279725,120.889208,0.9910902
C1I470,杉林溪,2015-02-21,23.639517,120.786444,4.130353e-09
C1X040,東原,2015-02-21,23.291597,120.463822,1.0029754e-09
C0R660,枋寮,2015-02-21,22.367722,120.590647,2.0553004e-09
C1R120,上德文,2015-02-21,22.763272,120.704442,3.0981264e-09
C0K450,大埤,2015-02-21,23.646074,120.431537,7.96114e-10
C0UA00,土場,2015-02-21,24.576533,121.495333,5.8036496e-09
467080,宜蘭,2015-02-21,24.763975,121.756528,9.876221e-09
C0N030,四草,2015-02-21,23.0235,120.1116,5.813507e-10
C0V650,彌陀,2015-02-21,22.783806,120.246361,4.920552e-10
C0D660,新竹市東區,2015-02-21,24.798681,120.986942,4.747936e-09
82S580,茶改東部分場,2015-02-21,22.907694,121.130139,7.828067e-09
C0SB40,興隆,2015-02-21,22.913661,121.257469,8.071152e-09
C0C710,大溪永福,2015-02-21,24.892936,121.324975,4.1398334e-09
C0FA20,溫寮,2015-02-21,24.372177,120.583125,1.4594485e-09
C0V640,湖內,2015-02-21,22.887139,120.2445,5.414445e-10
C0R910,下寮,2015-02-21,22.3929,120.5548,9.018556e-10
C0Z020,明里,2015-02-21,23.208717,121.262342,1.4920031e-08
C0M770,嘉義梅山,2015-02-21,23.585398,120.555587,8.9532215e-10
G2F820,農業試驗所,2015-02-21,24.031261,120.688133,1.0124086e-09
C0C660,楊梅,2015-02-21,24.912375,121.143047,5.0929656e-09
C1E511,新開,2015-02-21,24.347703,120.827019,9.271053e-10
G2F820,農試所(霧峰),2015-02-21,24.031261,120.688133,1.0124086e-09
C1I070,和社,2015-02-21,23.591131,120.888861,1.6350847e-09
C2F000,大肚,2015-02-21,24.15295,120.572117,1.3771683e-09
C1S850,豐南,2015-02-21,23.122139,121.262389,9.789817e-09
C2A920,富貴角,2015-02-21,25.263783,121.565258,4.2148162e-08
CAH030,茶改場竹圍站,2015-02-21,23.860083,120.637528,1.3878002e-09
C0T960,光復,2015-02-21,23.660694,121.424964,8.478317e-08
C0F9M0,豐原,2015-02-21,24.254322,120.720692,1.0882336e-09
C0R720,旭海,2015-02-21,22.205403,120.887614,0.8726573
C0V710,苓雅,2015-02-21,22.622742,120.330669,1.2493663e-09
C0C740,觀音工業區,2015-02-21,25.064764,121.114856,7.864643e-09
CAC040,拉拉山,2015-02-21,24.699317,121.427133,7.471275e-09
C0V790,萬山,2015-02-21,22.905944,120.688056,1.0943698e-09
U2HA30,臺大和社,2015-02-21,23.590856,120.888864,1.6350847e-09
C0AJ90,澳底,2015-02-21,25.0552,121.9253,6.349796e-08
C0Z100,東華,2015-02-21,23.89525,121.549833,1.06181176e-07
C0G970,三豐,2015-02-21,23.882,120.2895,6.188163e-10
V2K610,大庄合作社,2015-02-21,23.8068,120.367939,6.211233e-10
C0V900,汕尾,2015-02-21,22.4782,120.4151,7.141467e-10
C1R630,龍泉,2015-02-21,22.66701,120.59091,8.6687607e-10
C1AC50,關渡,2015-02-21,25.133486,121.469331,5.9421743e-09
C0F9I0,神岡,2015-02-21,24.272481,120.658314,1.0336947e-09
C0K460,斗南,2015-02-21,23.678734,120.478359,1.0726093e-09
467410,臺南,2015-02-21,22.993239,120.204772,6.552629e-10
C2O810,曾文,2015-02-21,23.219681,120.497328,6.5552413e-10
467280,後龍,2015-02-21,24.648563,120.831834,3.750729e-09
C1F9J1,清水林,2015-02-21,24.071242,120.820419,1.4049628e-09
C2A650,火燒寮,2015-02-21,25.002719,121.742892,2.0118035e-08
466930,竹子湖,2015-02-21,25.162078,121.544547,1.712121e-08
C1I220,樟湖,2015-02-21,23.905333,120.846983,2.908395e-09
C0I390,仁愛,2015-02-21,24.022122,121.132206,2.4566607e-09
C0Z300,東里,2015-02-21,23.26853,121.30547,1.908898e-08
C1V590,新發,2015-02-21,23.057019,120.646064,4.2788124e-09
C0K510,水林,2015-02-21,23.572924,120.24597,6.359632e-10
72S590,東改賓朗果園,2015-02-21,22.813889,121.071278,1.1711737e-08
82A750,茶改北部分場,2015-02-21,24.955778,121.631222,4.3753134e-09
C1A750,石碇服務區,2015-02-21,25.00872,121.646242,5.153157e-09
C0X300,鹿寮,2015-02-21,23.386047,120.477331,6.0691097e-10
G2AI50,關渡,2015-02-21,25.11575,121.492,3.8300856e-09
C0K590,雲林東勢,2015-02-21,23.674192,120.255721,5.914796e-10
C0A570,桶後,2015-02-21,24.848222,121.597992,9.389202e-09
C1S800,華源,2015-02-21,22.657883,121.02325,1.6817008e-08
C0G720,溪州,2015-02-21,23.851589,120.499093,9.484123e-10
C1V160,達卡努瓦,2015-02-21,23.279811,120.705319,4.3087374e-09
C2M410,馬頭山,2015-02-21,23.324361,120.582017,1.0686967e-09
C0V850,蚵仔寮,2015-02-21,22.7256,120.2527,2.116942e-09
C0S740,池上,2015-02-21,23.119628,121.209469,8.056617e-09
C1V390,尖山,2015-02-21,22.813153,120.367789,3.8123e-10
C0AH70,松山,2015-02-21,25.04871,121.55042,4.970425e-09
C0N010,鯤鯓國小,2015-02-21,23.1879,120.0889,9.0381697e-10
C0R550,新埤,2015-02-21,22.467947,120.582894,1.064914e-09
C0SA60,知本（水試所）,2015-02-21,22.702394,121.082761,2.9449707e-08
C0T9I0,豐濱,2015-02-21,23.583897,121.514806,1.0811754e-07
C0UB00,淡江大學蘭陽校園,2015-02-21,24.823239,121.730383,7.848385e-09
C0W240,九宮,2015-02-21,24.423753,118.240186,3.3122738e-09
C0T9N0,富里,2015-02-21,23.171639,121.249378,7.4006445e-09
U2HA50,臺大竹山,2015-02-21,23.756972,120.681556,1.1651018e-09
C0V840,鳳鼻頭,2015-02-21,22.5083,120.3591,1.2827247e-09
C0X140,西港,2015-02-21,23.125608,120.203108,7.991232e-10
72D080,桃改五峰分場,2015-02-21,24.612194,121.157167,3.1547336e-09
C2H9P0,伊拿谷,2015-02-21,23.963211,121.088264,1.517896e-09
C2H9F0,柑林,2015-02-21,24.018658,120.847072,1.5354868e-09
C0TA20,加灣,2015-02-21,24.082025,121.608944,3.7530278e-08
C0V530,阿蓮,2015-02-21,22.883208,120.327508,4.307963e-10
C1O880,關山,2015-02-21,23.173397,120.594092,1.1402568e-09
C0E791,卓蘭,2015-02-21,24.3126,120.8244,9.35709e-10
C1I030,武界,2015-02-21,23.913225,121.052483,1.8795892e-09
C0R520,崁頂,2015-02-21,22.514781,120.506914,8.613071e-10
C0R341,牡丹,2015-02-21,22.130036,120.792639,1.1514653e-05
C0R930,萬丹,2015-02-21,22.5885,120.4851,1.1275227e-09
C0S760,紅石,2015-02-21,23.069131,121.126219,1.2401361e-08
C1M610,石磐龍,2015-02-21,23.496606,120.663506,3.382528e-09
C0UA10,鴛鴦湖,2015-02-21,24.590269,121.412228,8.780374e-09
V2C260,八德蔬果,2015-02-21,24.978508,121.281819,3.5197154e-09
C0R800,丹路,2015-02-21,22.204481,120.750989,5.1188486e-05
C0G920,永靖,2015-02-21,23.924703,120.547533,9.889637e-10
C2M950,太和,2015-02-21,23.538372,120.702961,4.768228e-09
C1A630,下盆,2015-02-21,24.771003,121.538622,9.756078e-09
B2N890,畜產試驗所,2015-02-21,23.058972,120.336406,4.791693e-10
C0UA30,白嶺,2015-02-21,24.527819,121.519031,7.3495676e-09
C1V580,溪南(特生中心),2015-02-21,23.084972,120.788475,9.199892e-09
C1T970,大農,2015-02-21,23.615233,121.413331,7.7103095e-08
E2S960,林試太麻里2,2015-02-21,22.598014,120.989761,2.5918585e-08
C0R650,竹田,2015-02-21,22.58486,120.54344,1.1262031e-09
C1H900,清流,2015-02-21,24.080775,120.962997,1.6101313e-09
C1C510,水尾,2015-02-21,24.940081,121.087161,4.8495377e-09
C0F9X0,大雅(中科園區),2015-02-21,24.21528,120.62445,9.537766e-10
C0SB60,白守蓮,2015-02-21,23.126769,121.401914,3.138824e-08
C0O970,虎頭埤,2015-02-21,23.021375,120.347878,4.6086884e-10
C0C730,中大臨海站,2015-02-21,24.966126,121.008581,8.847112e-09
C0X250,新營,2015-02-21,23.310689,120.316681,6.042105e-10
C0V700,三民,2015-02-21,22.645017,120.311233,1.2493663e-09
C0U870,大礁溪,2015-02-21,24.791042,121.675047,5.2735096e-09
C0E870,高鐵苗栗,2015-02-21,24.60725,120.826094,2.56782e-09
A2K570,古坑花卉中心,2015-02-21,23.63353,120.55239,1.0521963e-09
C0M860,新美,2015-02-21,23.338017,120.683169,1.9097892e-09
C1E701,八卦,2015-02-21,24.491756,120.927619,1.879435e-09
C0I420,國姓,2015-02-21,24.037803,120.855072,8.499616e-10
C2D720,關西工作站,2015-02-21,24.757275,121.184792,2.5565945e-09
C0S960,香蘭,2015-02-21,22.587569,120.993375,2.5925159e-08
C0R260,春日,2015-02-21,22.370361,120.628306,9.7391985e-06
72G600,臺中農改場,2015-02-21,24.003028,120.534389,8.4571505e-10
C0Z210,瑞穗,2015-02-21,23.5239,121.39021,1.1296107e-07
C0M820,達邦,2015-02-21,23.453994,120.749517,2.285518e-09
C0V860,南寮,2015-02-21,22.7616,120.2339,4.9199606e-10
C0G740,大城,2015-02-21,23.852487,120.320935,5.9820754e-10
C0R920,塭仔,2015-02-21,22.4169,120.5197,9.217592e-10
C0R470,高樹,2015-02-21,22.826389,120.600806,8.406042e-10
C0R680,佳樂水,2015-02-21,21.993578,120.861633,0.95090747
C1O870,大棟山,2015-02-21,23.31157,120.52226,5.2279416e-09
C0D360,梅花,2015-02-21,24.678347,121.208558,2.68276e-09
C0Z190,富世,2015-02-21,24.14743,121.6297,2.8321992e-08
C0AI10,屈尺,2015-02-21,24.92184,121.54475,5.0925384e-09
B2U990,畜試東區分所,2015-02-21,24.669039,121.832561,7.818282e-08
C0SB80,長濱漁港,2015-02-21,23.313644,121.459994,2.1285183e-08
C0R240,來義,2015-02-21,22.527306,120.625111,2.8021068e-06
C0V910,大樹,2015-02-21,22.684645,120.432803,5.0118143e-10
C1R610,西大武山,2015-02-21,22.617719,120.7322,7.975081e-09
C0G900,線西,2015-02-21,24.143358,120.443536,1.0435581e-09
C0M700,竹崎,2015-02-21,23.526178,120.555508,1.1349018e-09
C2E880,三義,2015-02-21,24.405478,120.749819,1.3621237e-09
C0C720,竹圍,2015-02-21,25.112692,121.239824,8.062812e-09
C0F9P0,清水,2015-02-21,24.312297,120.562242,1.1335324e-09
C0Z150,吉安光華,2015-02-21,23.930925,121.595153,1.10947795e-07
C1D640,外坪(五指山),2015-02-21,24.644447,121.090961,3.0111291e-09
C0F9O0,潭子,2015-02-21,24.213106,120.703933,7.7052303e-10
C2H9R0,卓社,2015-02-21,23.887894,121.000086,2.4640048e-09
72T250,花蓮農改場,2015-02-21,23.975222,121.563889,3.6907572e-08
C0E780,銅鑼,2015-02-21,24.489681,120.790853,2.3050564e-09
C1T950,太安,2015-02-21,23.666719,121.370128,1.3146202e-08
C0E830,苑裡,2015-02-21,24.439714,120.653053,1.4918942e-09
467270,田中,2015-02-21,23.873803,120.581286,9.2124597e-10
C0SA10,檳榔四格山,2015-02-21,22.810031,121.109308,1.08638005e-08
C1T830,布洛灣,2015-02-21,24.17184,121.57127,2.632132e-08
C0F970,大坑,2015-02-21,24.173142,120.722289,7.3885675e-10
C1U920,思源,2015-02-21,24.393125,121.347214,1.292882e-08
C0A931,三和,2015-02-21,25.233153,121.595236,2.123312e-08
C0I010,廬山,2015-02-21,24.033311,121.181808,3.744703e-09
C2M940,日野賀,2015-02-21,23.434056,120.727169,3.8271937e-09
C0R860,鼻頭,2015-02-21,22.1043,120.8979,0.9497706
C0UB20,壯圍,2015-02-21,24.7359,121.8163,7.818282e-08
C0R790,九棚,2015-02-21,22.14195,120.889281,0.9617239
C0W110,東莒,2015-02-21,25.9652,119.98069,1.8460184e-08
C1U930,粉鳥林,2015-02-21,24.497088,121.842479,1.07281855e-08
C1I211,蘆竹湳,2015-02-21,23.934019,120.811994,1.6049678e-09
C0S830,長濱,2015-02-21,23.286817,121.411975,1.4595077e-08
C1F9F1,伯公龍,2015-02-21,24.272392,120.849047,1.269622e-09
C0E810,西湖,2015-02-21,24.562947,120.7485,2.5506572e-09
C1I440,新高口,2015-02-21,23.478744,120.878939,8.758395e-09
C0O840,王爺宮,2015-02-21,23.222064,120.40085,6.5561795e-10
C0T9G0,鳳林山,2015-02-21,23.735269,121.420131,4.9587236e-08
C0X080,佳里,2015-02-21,23.173039,120.145086,9.0025215e-10
C0FB70,大甲溪埔,2015-02-21,24.370625,120.620067,1.4791919e-09
C0Z310,清水斷崖,2015-02-21,24.218294,121.689142,3.25899e-08
C0M680,太保,2015-02-21,23.455062,120.331455,6.9896866e-10
C1S820,金峰,2015-02-21,22.590969,120.933236,8.679155e-09
C0AD10,八里,2015-02-21,25.150211,121.403947,8.062828e-09
C2K240,草嶺,2015-02-21,23.59555,120.693461,3.171185e-09
C1SA70,都蘭,2015-02-21,22.87794,121.226881,8.071152e-09
C0K440,二崙,2015-02-21,23.772797,120.408944,7.4126344e-10
C1A760,坪林交控,2015-02-21,24.94284,121.713442,4.801063e-09
C0F9N0,大里,2015-02-21,24.092464,120.701378,8.331261e-10
C0SA90,達仁林場,2015-02-21,22.264347,120.823972,9.331592e-08
C1R290,石門山,2015-02-21,22.112611,120.756597,0.32879817
42HA10,萬大發電廠,2015-02-21,23.978875,121.139639,2.4826057e-09
C0R890,山海,2015-02-21,21.9878,120.7091,0.94609785
C0T9A0,月眉山,2015-02-21,23.809928,121.539828,4.6007095e-08
C0AC70,信義,2015-02-21,25.037822,121.564597,4.970425e-09
C0K560,棋山,2015-02-21,23.68645,120.603417,8.6447366e-10
C2FB50,出雲,2015-02-21,24.206469,120.902794,2.0604776e-09
C1Z240,中平林道,2015-02-21,23.42115,121.26763,1.5004447e-08
U2H480,溪頭,2015-02-21,23.670306,120.798194,1.6055526e-09
C0M880,好美里,2015-02-21,23.3364,120.138,9.0025215e-10
C0T9E0,大坑,2015-02-21,23.880628,121.581981,4.7887188e-08
C0K530,臺西,2015-02-21,23.701547,120.197559,5.7582406e-10
C1E900,國一N128K,2015-02-21,24.560997,120.844186,2.5375941e-09
C0AJ50,水湳洞,2015-02-21,25.123695,121.862238,2.2779709e-07
C0AI20,白沙灣,2015-02-21,25.283128,121.519058,5.3734013e-08
C0A860,大坪,2015-02-21,25.165914,121.632969,1.8928692e-08
C1U850,觀音海岸,2015-02-21,24.38319,121.77856,1.3749748e-08
C2K610,草嶺石壁,2015-02-21,23.602469,120.707731,3.603128e-09
C0U950,鶯子嶺,2015-02-21,24.89754,121.79244,9.936002e-09
C0O900,善化,2015-02-21,23.112883,120.297219,4.7765364e-10
C0K550,蔦松,2015-02-21,23.514319,120.229736,6.6541295e-10
E2P980,林試六龜中心,2015-02-21,22.991703,120.645722,9.678913e-10
C0E590,通霄,2015-02-21,24.471892,120.704622,2.4169504e-09
C1I310,西巒,2015-02-21,23.754486,120.883956,2.744631e-09
C0A550,泰平,2015-02-21,24.971197,121.823711,2.0939007e-08
C0I360,水里,2015-02-21,23.812553,120.849792,1.3037151e-09
C0R830,高士,2015-02-21,22.121825,120.836781,0.12679787
C1I101,溪頭,2015-02-21,23.661789,120.807647,3.4710343e-09
C0AJ20,野柳,2015-02-21,25.20703,121.690021,2.2746842e-07
C0B060,暖暖,2015-02-21,25.0957,121.7403,1.8590944e-07
C1H920,長豐,2015-02-21,24.102039,120.879897,1.4504683e-09
C0V360,內門,2015-02-21,22.975481,120.466769,6.130843e-10
C0R850,林邊,2015-02-21,22.4634,120.5339,8.613071e-10
C0E930,龍鳳,2015-02-21,24.700034,120.859125,2.1228697e-09
C0U910,冬山,2015-02-21,24.63373,121.7937,7.818282e-08
C1E721,泰安,2015-02-21,24.489017,120.968036,3.138493e-09
82H320,茶改中部分場,2015-02-21,23.875611,120.913583,1.597979e-09
C0M750,布袋,2015-02-21,23.380878,120.167789,6.6215156e-10
C1S860,利嘉,2015-02-21,22.809417,121.050528,1.4398238e-08
72C440,桃園農改,2015-02-21,24.950944,121.030583,7.989149e-09
E2S980,林試太麻里1,2015-02-21,22.598922,120.980044,1.5101664e-08
C0X170,關廟,2015-02-21,22.963017,120.327797,4.3142942e-10
C0V720,林園,2015-02-21,22.507747,120.394511,1.2457756e-09
C1I510,線浸林道,2015-02-21,23.761508,120.832956,1.6123347e-09
C0D690,外湖,2015-02-21,24.917735,120.968711,8.823621e-09
C0C750,新興坑尾,2015-02-21,25.0061,121.0971,8.038842e-09
B2Q810,畜試南區分所,2015-02-21,21.945583,120.802167,0.95095354
C0S790,金崙,2015-02-21,22.538122,120.966875,7.730333e-09
C0AH90,福山植物園,2015-02-21,24.760717,121.58135,5.9818497e-09
C0I540,奇萊稜線,2015-02-21,24.109231,121.326456,2.6187067e-08
C0M850,表湖,2015-02-21,23.24186,120.64166,2.3374158e-09
C0S770,大溪山,2015-02-21,22.478475,120.943325,5.2719606e-09
C0AG80,中和,2015-02-21,24.991622,121.491792,4.9681126e-09
C0T790,大禹嶺,2015-02-21,24.186117,121.316086,1.7131041e-08
C0T9B0,水源,2015-02-21,23.991861,121.537169,4.4630234e-08
C0R840,牡丹池山,2015-02-21,22.168389,120.841225,1.0981282e-07
C1I131,桶頭,2015-02-21,23.641944,120.654117,1.2175464e-09
CAL110,布袋國中,2015-02-21,23.35893,120.18026,6.5053574e-10
467571,新竹,2015-02-21,24.827853,121.014219,4.7050692e-09
C0Z290,赤柯山,2015-02-21,23.36893,121.38293,2.0806555e-08
C0X280,將軍,2015-02-21,23.214999,120.13577,9.0025215e-10
C0S690,太麻里,2015-02-21,22.60902,120.98533,9.830177e-09
C0U880,北關,2015-02-21,24.9072,121.8734,1.7039373e-08
C1H860,瑞岩,2015-02-21,24.123772,121.18345,4.6428976e-09
C0G810,埔心,2015-02-21,23.947633,120.525456,9.901282e-10
C0U970,大福,2015-02-21,24.80064,121.81389,9.948613e-09
C2H9N0,仁愛東眼,2015-02-21,24.026875,121.1205,2.8759426e-09
C1E670,南礦,2015-02-21,24.538278,121.002836,3.65915e-09
C0M520,東後寮,2015-02-21,23.369908,120.248065,6.562961e-10
C1E461,松安,2015-02-21,24.397972,120.986022,2.769219e-09
72G600,臺中農改,2015-02-21,24.003028,120.534389,8.4571505e-10
C2N160,西拉雅風管處,2015-02-21,23.189481,120.335297,5.5158467e-10
C2M970,碧湖,2015-02-21,23.568632,120.624165,2.6582956e-09
C0A640,石碇,2015-02-21,24.993969,121.662917,2.065862e-08
E2S960,林試太麻里2,2015-02-21,22.598,120.99775,2.8213943e-08
C0F9Y0,桃山,2015-02-21,24.432739,121.303808,2.4463516e-08
C1I020,萬大,2015-02-21,23.979817,121.132261,2.4900035e-09
C0U940,羅東,2015-02-21,24.68184,121.74934,7.517736e-08
C0M650,朴子,2015-02-21,23.43463,120.23902,6.663159e-10
C1I500,大尖山,2015-02-21,23.858572,120.994889,6.0340577e-09
C0G820,田尾,2015-02-21,23.901669,120.509389,9.889637e-10
E2K600,四湖植物園,2015-02-21,23.676986,120.163433,5.7582406e-10
C0S730,綠島,2015-02-21,22.6672,121.47533,1.9823709e-08
12Q970,東港工作站,2015-02-21,22.479997,120.466058,9.018556e-10
C0E430,南庄,2015-02-21,24.601775,121.000214,1.4775141e-09
C1TA00,太魯閣,2015-02-21,24.15773,121.6236,3.2481484e-08
466920,臺北,2015-02-21,25.037658,121.514853,4.970425e-09
C0R600,舊泰武,2015-02-21,22.588194,120.664944,3.8069685e-09
C1I260,北坑,2015-02-21,23.9246,121.006903,1.31818e-09
466910,鞍部,2015-02-21,25.182586,121.529731,1.8720836e-08
C1I230,九份二山,2015-02-21,23.961944,120.845,1.7392112e-09
C2A660,瑞芳,2015-02-21,25.113169,121.801147,5.5449654e-08
C0R270,琉球嶼,2015-02-21,22.332244,120.362236,9.910055e-06
C1T990,高寮,2015-02-21,23.394239,121.356808,9.041161e-08
C0G620,芬園,2015-02-21,24.015678,120.6213,6.910917e-10
C1Z140,荖溪,2015-02-21,23.890575,121.45964,2.0153676e-08
C1I201,中心崙,2015-02-21,23.728722,120.712097,1.7120089e-09
C1I400,凌霄,2015-02-21,24.018778,121.004456,2.7766076e-09
C1M640,十字,2015-02-21,23.492153,120.753683,3.904376e-09
G2P820,農試鳳山分所,2015-02-21,22.646611,120.356083,1.1627486e-09
C0Z270,蕃薯寮,2015-02-21,23.73835,121.540108,6.97011e-08
C0F9Q0,外埔,2015-02-21,24.347817,120.705686,9.821869e-10
C0K580,高鐵雲林,2015-02-21,23.737456,120.417944,7.301457e-10
C2I090,鳳凰,2015-02-21,23.728081,120.787347,1.7134234e-09
C0U990,員山,2015-02-21,24.74435,121.72247,7.5255976e-08
C0V770,大社,2015-02-21,22.730306,120.346639,1.9456707e-09
C0X120,麻豆,2015-02-21,23.183289,120.248611,8.87579e-10
C0C670,龍潭,2015-02-21,24.870056,121.221389,1.9705366e-09
C0D680,香山濕地,2015-02-21,24.783581,120.914988,3.3054703e-09
C0S980,勝林山,2015-02-21,22.430439,120.8938,3.6636685e-09
C0V730,大寮,2015-02-21,22.605614,120.395717,1.7820114e-09
C0R570,麟洛,2015-02-21,22.65078,120.52719,4.0902426e-10
C2M930,石卓,2015-02-21,23.478744,120.702264,3.8040797e-09
C0G9B0,和美,2015-02-21,24.105169,120.492131,8.4328927e-10
CAG100,王功漁港,2015-02-21,23.96824,120.32586,6.936721e-10
C0X290,北門,2015-02-21,23.267772,120.125481,8.997303e-10
C2F930,大甲,2015-02-21,24.347667,120.640403,1.1574514e-09
C0D650,湖口,2015-02-21,24.904794,121.043628,7.2846573e-09
C0E420,竹南,2015-02-21,24.708978,120.888897,3.385129e-09
C0U780,五結,2015-02-21,24.68637,121.79794,7.818282e-08
C1I250,鯉潭,2015-02-21,23.961922,120.991131,1.4504683e-09
C0R130,阿禮,2015-02-21,22.742908,120.743678,2.3778957e-09
C0X100,臺南市北區,2015-02-21,23.010394,120.194228,6.6248634e-10
C0S920,金峰嘉蘭,2015-02-21,22.594789,120.960825,1.4359349e-08
C0V490,新興,2015-02-21,22.627422,120.298803,1.2467597e-09
C0F9K0,大安,2015-02-21,24.345061,120.588025,1.1302035e-09
72N100,臺南農改,2015-02-21,23.0605,120.342194,4.791693e-10
467290,古坑,2015-02-21,23.633639,120.551889,1.0521963e-09
C2E970,八甲,2015-02-21,24.535811,120.795983,2.299041e-09
C0V440,鳳山,2015-02-21,22.646653,120.356122,1.1627486e-09
C1T940,大觀,2015-02-21,23.714206,121.373133,5.8592317e-08
72T250,花蓮農改,2015-02-21,23.975222,121.563889,3.6907572e-08
C0E740,造橋,2015-02-21,24.637056,120.864778,2.1363429e-09
C0R100,尾寮山,2015-02-21,22.833111,120.683889,2.7485756e-09
A2K630,臺大雲林校區,2015-02-21,23.730628,120.423903,7.304327e-10
C0D580,寶山,2015-02-21,24.735006,121.025192,1.5574675e-09
E2P990,林試扇平站,2015-02-21,22.9677,120.6857,3.6608465e-09
C0AI30,三重,2015-02-21,25.057328,121.500629,3.8602725e-09
C0AH00,汐止,2015-02-21,25.066881,121.658778,2.2746842e-07
C1Z040,立山,2015-02-21,23.443356,121.327375,7.356331e-08
C0W130,花嶼,2015-02-21,23.40007,119.32276,7.623896e-05
C0A950,鼻頭角,2015-02-21,25.129036,121.923372,6.449102e-08
C0K470,林內,2015-02-21,23.748675,120.609642,1.178377e-09
C2F990,摩天嶺,2015-02-21,24.322458,120.936819,2.2279458e-09
82C160,茶改場,2015-02-21,24.908472,121.185333,2.6702986e-09
C0Z320,清水林道,2015-02-21,23.27125,121.188272,1.857143e-08
C0R760,南仁湖,2015-02-21,22.084681,120.863353,0.3218241
C0M670,大林,2015-02-21,23.600616,120.45841,9.54774e-10
C0M800,茶山,2015-02-21,23.299075,120.664767,1.5112979e-09
C0A9C0,天母,2015-02-21,25.117494,121.537169,3.9219605e-09
72K220,南改斗南分場,2015-02-21,23.634556,120.477333,1.1156904e-09
72AI40,桃改樹林分場,2015-02-21,24.944503,121.386972,3.9068344e-09
C0S910,蘭嶼燈塔,2015-02-21,22.081197,121.503117,0.9861138
C0B050,八斗子,2015-02-21,25.144754,121.79167,2.4812846e-07
C0U900,內城,2015-02-21,24.71813,121.68766,9.880045e-09
C0X320,柳營,2015-02-21,23.253328,120.375253,5.6561583e-10
C0M790,新港,2015-02-21,23.553269,120.345728,6.5627603e-10
C0F9T0,西屯,2015-02-21,24.179494,120.641275,9.344854e-10
C0SA30,都歷,2015-02-21,23.020333,121.323642,2.4123736e-08
C0C620,蘆竹,2015-02-21,25.084275,121.265767,8.070797e-09
C0R730,大坪頂,2015-02-21,22.024633,120.69355,0.91377294
C0AJ40,石門,2015-02-21,25.273672,121.601198,4.536593e-08
C0E750,苗栗,2015-02-21,24.564569,120.824575,2.5461757e-09
C0T870,鯉魚潭,2015-02-21,23.935639,121.508944,8.463517e-08
C1V170,排雲,2015-02-21,23.463619,120.954147,2.5171898e-08
C2H950,中寮,2015-02-21,23.884447,120.766406,1.2155416e-09
C0R350,貓鼻頭,2015-02-21,21.921774,120.7358,0.9551171
C0V660,岡山,2015-02-21,22.797078,120.294958,4.779161e-10
C1H941,雙冬,2015-02-21,23.967378,120.802189,1.3431254e-09
C0AJ70,田寮,2015-02-21,25.2698,121.4886,5.6026067e-08
C0AI00,五股,2015-02-21,25.07445,121.42728,4.7785615e-09
C0Z280,德武,2015-02-21,23.47426,121.41071,7.09592e-08
C0R700,枋山,2015-02-21,22.246844,120.661086,0.04041285
C0C460,復興,2015-02-21,24.820208,121.352281,5.4099263e-09
E2H360,蓮華池,2015-02-21,23.918333,120.885278,1.3621366e-09
C0M640,中埔,2015-02-21,23.42538,120.5229,9.448897e-10
C0W140,金沙,2015-02-21,24.488292,118.408778,7.383542e-09
C2A540,四堵,2015-02-21,24.8926,121.745736,1.0294473e-08
C0ACA0,新莊,2015-02-21,25.051478,121.446756,6.7039045e-09
C0R220,潮州,2015-02-21,22.534361,120.54,1.8214822e-09
U2HA40,臺大內茅埔,2015-02-21,23.689722,120.851117,1.5205764e-09
467490,臺中,2015-02-21,24.145736,120.684075,6.549293e-10
C0U960,翠峰湖,2015-02-21,24.510856,121.608044,1.781421e-08
E2HA20,林試畢祿溪站,2015-02-21,24.226944,121.308522,8.028422e-09
C0V890,前鎮,2015-02-21,22.5718,120.3117,1.2827223e-09
467620,蘭嶼,2015-02-21,22.036969,121.558339,0.7966923
C1F941,雪嶺,2015-02-21,24.280586,121.026642,1.443916e-08
C2H9E0,國姓南港,2015-02-21,23.911108,120.846556,3.0702314e-09
C0AC80,文山,2015-02-21,25.00235,121.575728,5.0925384e-09
C0F9R0,龍井,2015-02-21,24.184536,120.528972,1.0557989e-09
C0M760,民雄,2015-02-21,23.551754,120.428457,6.86686e-10
C0UA40,西德山,2015-02-21,24.560647,121.752608,1.4031692e-08
C1T920,中興,2015-02-21,23.769503,121.498653,9.602317e-08
C0D550,雪霸,2015-02-21,24.526972,121.11605,7.900939e-09
C2F860,梨山,2015-02-21,24.247522,121.243669,8.25293e-09
C0R320,車城,2015-02-21,22.0744,120.716247,0.94609785
C1S870,南美山,2015-02-21,23.15025,121.382333,1.1914313e-08
C0B020,基隆嶼,2015-02-21,25.19141,121.78391,2.2779709e-07
C1U501,牛鬥,2015-02-21,24.637836,121.573656,7.332807e-09
C0M730,嘉義市東區,2015-02-21,23.457673,120.460531,8.5508206e-10
C0S700,知本,2015-02-21,22.684866,121.005642,9.995383e-09
C1N001,沙崙,2015-02-21,22.935472,120.309406,4.307963e-10
C0V760,橋頭,2015-02-21,22.757806,120.30575,4.791483e-10
C0G960,福寶,2015-02-21,24.0443,120.3814,8.610426e-10
C0X210,白河,2015-02-21,23.347466,120.414427,5.696824e-10
C0S810,東河,2015-02-21,22.972672,121.303986,8.18246e-09
C2R170,屏東,2015-02-21,22.66027,120.49403,4.0755865e-10
C0R670,楓港,2015-02-21,22.190131,120.692156,0.04041285
C0FA50,霧峰,2015-02-21,24.0419,120.6995,7.493449e-10
C0UB10,蘇澳,2015-02-21,24.5969,121.8571,1.5486764e-08
C0G950,防潮門,2015-02-21,24.1835,120.4871,1.0501052e-09
C0M740,六腳,2015-02-21,23.492871,120.290625,7.037779e-10
C1R250,力里,2015-02-21,22.428117,120.629228,2.8021068e-06
C0K330,虎尾,2015-02-21,23.719183,120.442036,7.437092e-10
C2FA00,烏石坑,2015-02-21,24.273503,120.947617,2.1962931e-09
C0V620,永安,2015-02-21,22.82315,120.236856,4.920552e-10
C1I330,楓樹林,2015-02-21,23.986803,121.076117,2.327615e-09
C0W200,湖西,2015-02-21,23.596314,119.67275,0.07069274
72Q010,高雄農改場,2015-02-21,22.709333,120.525889,4.0494505e-10
C0SA40,瑞和,2015-02-21,22.974361,121.156697,1.3614309e-08
C0C680,龜山,2015-02-21,25.02846,121.38656,2.6462506e-09
C2V260,月眉,2015-02-21,22.971003,120.539853,7.1948153e-10
C0V450,鳳森,2015-02-21,22.545064,120.392592,1.42243e-09
C0U720,南山,2015-02-21,24.43742,121.38167,8.466177e-09
A2N290,臺南蘭花園區,2015-02-21,23.340258,120.379661,5.6561583e-10
C0R560,新園,2015-02-21,22.5434,120.461558,8.613071e-10
C0U890,三星,2015-02-21,24.66812,121.65302,1.0010341e-08
C1V300,御油山,2015-02-21,23.001983,120.715364,9.0190255e-09
C0U600,礁溪,2015-02-21,24.817539,121.765608,9.952332e-09
C1T980,龍澗,2015-02-21,24.023289,121.411328,1.1550347e-08
C0D670,海天一線,2015-02-21,24.831986,120.914438,3.3146628e-09
C0SA00,歷坵,2015-02-21,22.520969,120.89185,5.0205617e-09
C0M710,東石,2015-02-21,23.458927,120.15385,6.6541295e-10
C0M780,鹿草,2015-02-21,23.41134,120.30835,6.410734e-10
C0U520,雙連埤,2015-02-21,24.753033,121.641303,5.3532663e-09
C0B010,七堵,2015-02-21,25.094819,121.71713,2.0845488e-07
C0R480,長治,2015-02-21,22.693128,120.542622,5.609038e-10
C1V830,國三S383K,2015-02-21,22.781967,120.426475,4.9586996e-10
12Q980,恆春工作站,2015-02-21,22.079678,120.714425,0.94609785
C1O940,東山服務區,2015-02-21,23.286016,120.398472,5.73309e-10
C1U840,東澳嶺,2015-02-21,24.5378,121.8485,1.131319e-08
C1D630,飛鳳山,2015-02-21,24.766464,121.119178,2.0190756e-09
C0S940,石寧山,2015-02-21,23.223772,121.406639,1.5045256e-08
C0K410,北港,2015-02-21,23.573957,120.292802,6.617008e-10
C2M620,瑞里,2015-02-21,23.545133,120.675197,4.1583594e-09
C0SB70,小港漁港,2015-02-21,23.158558,121.400431,1.5721437e-08
C2O950,安南,2015-02-21,23.076694,120.144861,2.0085704e-09
C0F0E0,南湖圈谷,2015-02-21,24.363714,121.444667,3.985602e-08
467610,成功,2015-02-21,23.097486,121.373428,2.575591e-08
C0G890,伸港,2015-02-21,24.148933,120.484403,1.0235887e-09
C2E540,龍溪,2015-02-21,24.606489,120.783933,2.5671443e-09
C1V200,梅山,2015-02-21,23.268447,120.823556,4.129321e-09
C0T9H0,加路蘭山,2015-02-21,23.682947,121.5274,4.4492037e-08
C2O930,玉井,2015-02-21,23.126042,120.46055,5.670687e-10
C1F911,新伯公,2015-02-21,24.221361,120.841069,1.104983e-09
C0R490,九如,2015-02-21,22.7405,120.490503,4.087747e-10
C0X200,左鎮,2015-02-21,23.056758,120.408522,5.229405e-10
C0SB50,叭嗡嗡,2015-02-21,23.047062,121.343223,8.358627e-09
C1F891,稍來,2015-02-21,24.265689,121.001142,8.8656265e-09
72N240,七股研究中心,2015-02-21,23.081672,120.062894,1.9546946e-09
C0C700,中壢,2015-02-21,24.977661,121.256375,3.5754906e-09
C0M690,水上,2015-02-21,23.419734,120.388909,5.8222954e-10
C0V690,鼓山,2015-02-21,22.623325,120.275575,1.2457756e-09
C0O860,大內,2015-02-21,23.11885,120.36083,4.7799265e-10
C0Z200,萬榮,2015-02-21,23.709219,121.420106,8.463517e-08
C0T9D0,和中,2015-02-21,24.26676,121.74103,3.8892825e-08
C1O921,楠西,2015-02-21,23.183511,120.484083,6.0382e-10
C0AJ30,淡水觀海,2015-02-21,25.184591,121.408616,8.075848e-09
C0V810,左營,2015-02-21,22.67491,120.28491,1.9796795e-09
C0UA70,桃源谷,2015-02-21,24.962606,121.888875,2.0822156e-08
C0X130,官田,2015-02-21,23.193217,120.315422,5.541682e-10
C1H000,翠峰,2015-02-21,24.109397,121.205211,1.1593453e-08
C0UA90,石城,2015-02-21,24.980444,121.951214,7.66737e-08
C1E681,南勢山,2015-02-21,24.421669,120.923831,1.8427458e-09
C0A9F0,內湖,2015-02-21,25.079422,121.57545,4.970425e-09
C0K291,宜梧,2015-02-21,23.536281,120.169329,6.773926e-10
C1K540,口湖,2015-02-21,23.585344,120.180517,6.348797e-10
C0R780,滿州,2015-02-21,22.024403,120.839892,0.9532959
C0V870,文安,2015-02-21,22.8025,120.2164,4.9199606e-10
C0U650,玉蘭,2015-02-21,24.675286,121.587061,1.3650191e-08
C0R640,東港,2015-02-21,22.46247,120.44074,1.2827223e-09
K2E360,苗栗農改,2015-02-21,24.495722,120.829111,2.2060545e-09
C0AJ80,板橋,2015-02-21,25.0107,121.4489,3.8891246e-09
C0S660,下馬,2015-02-21,23.150427,121.070312,1.3235822e-08
C1H9B1,阿眉,2015-02-21,24.1263,120.994672,5.101716e-09
C0UA20,多加屯,2015-02-21,24.368614,121.373189,1.5424622e-08
C0E730,頭份,2015-02-21,24.688247,120.912206,3.3851224e-09
72V140,高改旗南分場,2015-02-21,22.857861,120.516667,6.9061595e-10
C0K480,莿桐,2015-02-21,23.761192,120.502372,1.2234452e-09
C0U980,坪林石牌,2015-02-21,24.86478,121.77396,1.0444945e-08
C0T900,西林,2015-02-21,23.8119,121.441458,7.8784595e-08
C1I150,青雲,2015-02-21,23.793361,120.949378,1.4949249e-09
467350,澎湖,2015-02-21,23.565503,119.563094,0.0052077053
C0G800,埔鹽,2015-02-21,24.000394,120.431683,8.615502e-10
C0H960,草屯,2015-02-21,23.973672,120.68085,7.065001e-10
C1V780,多納林道,2015-02-21,22.888028,120.737917,4.617331e-09
C0E920,通霄漁港,2015-02-21,24.498589,120.673876,2.3867244e-09
C0Z330,安通山,2015-02-21,23.290728,121.348528,1.40626115e-08
C0AH10,永和,2015-02-21,25.01125,121.508111,4.9302873e-09
C0AK10,太平里,2015-02-21,25.134937,121.364899,6.7039045e-09
C2G640,鹿港,2015-02-21,24.0753,120.430481,8.6148777e-10
C1E890,國三N149K,2015-02-21,24.463414,120.680019,2.4249527e-09
C1R110,口社,2015-02-21,22.770111,120.645222,8.547135e-10
C1M870,國三N285K,2015-02-21,23.550319,120.505833,1.2277231e-09
467050,新屋,2015-02-21,25.006744,121.047486,8.469052e-09
C1E480,鳳美,2015-02-21,24.554803,121.034747,1.9364668e-09
C0M530,奮起湖,2015-02-21,23.493903,120.699253,4.8324926e-09
C0C590,觀音,2015-02-21,25.027072,121.153317,5.6044316e-09
C0T9M0,靜浦,2015-02-21,23.455167,121.495028,1.2465718e-07
C2H9M0,發祥,2015-02-21,24.154094,121.164517,2.3278324e-09
C0AI40,石牌,2015-02-21,25.115597,121.513139,3.889117e-09
C1F871,上谷關,2015-02-21,24.203483,121.018644,2.1964608e-09
C2H9G0,百勝,2015-02-21,24.051142,120.909361,1.238547e-09
C0G880,二水,2015-02-21,23.810742,120.6173,1.4919339e-09
C0R940,加祿堂,2015-02-21,22.3363,120.6217,8.424535e-05
C0W220,北竿,2015-02-21,26.220358,119.974881,2.7746436e-09
C0O960,崎頂,2015-02-21,22.959547,120.369317,5.972225e-10
C0S750,向陽,2015-02-21,23.248397,120.986133,1.227527e-08
C0T9F0,水璉,2015-02-21,23.797131,121.542514,7.0099205e-08
C1M600,頭凍,2015-02-21,23.406364,120.603339,2.988044e-09
467660,臺東,2015-02-21,22.752211,121.154586,1.3920824e-08
C1D380,新埔,2015-02-21,24.84745,121.03834,4.893263e-09
C2G980,田頭村,2015-02-21,23.8263,120.444175,7.4126344e-10
C0V750,路竹,2015-02-21,22.854997,120.259439,3.9945017e-10
C0N050,蚵寮,2015-02-21,23.301,120.1104,9.0327584e-10
72M700,南改鹿草分場,2015-02-21,23.416869,120.283061,6.508932e-10
C1SA50,利嘉林道,2015-02-21,22.82325,121.009389,7.968756e-09
467550,玉山,2015-02-21,23.487614,120.959522,2.818178e-08
C0A940,金山,2015-02-21,25.223628,121.643967,5.1261228e-08
C1V340,大津,2015-02-21,22.888322,120.645986,7.630117e-10
C0W180,七美,2015-02-21,23.219333,119.444892,0.023391895
C1F9C1,白冷,2015-02-21,24.182844,120.929889,1.089004e-09
K2E710,苗改生物防治研究中心,2015-02-21,24.422861,120.871833,1.0429015e-09
C0N040,蘆竹溝,2015-02-21,23.2344,120.0961,9.0327584e-10
C2W230,畜試所澎湖,2015-02-21,23.628342,119.513206,9.388e-06
C0R880,後壁湖,2015-02-21,21.9457,120.7457,0.94085485
C1I280,埔中,2015-02-21,23.820778,120.642594,1.1043846e-09
467790,墾丁雷達站,2015-02-21,21.948235,120.808028,0.95492226
C0W190,望安,2015-02-21,23.380564,119.494075,0.0013796478
466881,新北,2015-02-21,24.9593,121.52,5.027241e-09
C0Z170,卓溪,2015-02-21,23.3443,121.3029,1.8943897e-08
C0F850,東勢,2015-02-21,24.246428,120.833047,1.0405112e-09
466900,淡水,2015-02-21,25.164889,121.448906,8.055326e-09
C0I370,魚池,2015-02-21,23.895703,120.94135,1.320747e-09
C0C630,大溪,2015-02-21,24.882853,121.265547,2.4012174e-09
C0A520,山佳,2015-02-21,24.974944,121.402008,3.9068344e-09
C0I110,竹山,2015-02-21,23.761225,120.688156,1.1525166e-09
82H840,茶改南部分場,2015-02-21,23.762528,120.7405,1.3651069e-09
C0G660,溪湖,2015-02-21,23.94835,120.479122,9.89477e-10
C1T800,洛韶,2015-02-21,24.204558,121.453956,1.6072295e-08
C1T810,慈恩,2015-02-21,24.192044,121.388386,1.546616e-08
C1E451,象鼻,2015-02-21,24.368617,120.940228,1.8427458e-09
C0AC60,三峽,2015-02-21,24.939025,121.369728,5.0253135e-09
C0I490,萬大林道,2015-02-21,23.928228,121.091411,4.9517177e-09
C1I290,豐丘,2015-02-21,23.668178,120.887417,1.6121502e-09
C1I320,奧萬大,2015-02-21,23.952956,121.178556,2.367022e-09
C2M910,嘉義大學,2015-02-21,23.471325,120.485903,1.0032317e-09
C0U770,南澳,2015-02-21,24.44935,121.81022,2.761409e-08
C0A980,社子,2015-02-21,25.109508,121.469681,3.8311083e-09
C0V800,六龜,2015-02-21,22.997889,120.633583,9.604709e-10
C1G9D0,國一S218K,2015-02-21,23.890641,120.493253,9.901282e-10
C0E570,白沙屯,2015-02-21,24.549447,120.696803,2.3867244e-09
C2F9A0,中竹林,2015-02-21,24.103556,120.751061,1.0296117e-09
C0FA40,臺中電廠,2015-02-21,24.2146,120.4907,1.0557989e-09
C2G9A0,畜試所彰化,2015-02-21,23.86045,120.557964,9.2124597e-10
C0H9C0,合歡山,2015-02-21,24.143442,121.272547,2.8192586e-08
C0X060,下營,2015-02-21,23.22695,120.256261,5.562534e-10
G2M350,農試溪口農場,2015-02-21,23.58565,120.408111,6.8449174e-10
C0U860,頭城,2015-02-21,24.85323,121.8308,9.876221e-09
C0R580,南州,2015-02-21,22.48591,120.50274,9.018556e-10
C0D430,峨眉,2015-02-21,24.6905,121.017189,2.087838e-09
C0G780,秀水,2015-02-21,24.03405,120.503869,8.5257734e-10
72N100,臺南農改場,2015-02-21,23.0605,120.342194,4.791693e-10
C0S900,蘭嶼高中,2015-02-21,22.04909,121.51214,0.988367
467540,大武,2015-02-21,22.355675,120.903789,0.9264511
C1F9W0,德基,2015-02-21,24.254783,121.190261,6.0876038e-09
C1Z120,壽豐,2015-02-21,23.870853,121.508081,1.06181176e-07
C0W160,烏坵,2015-02-21,24.9944,119.44956,3.5956468e-08
C1I240,外大坪,2015-02-21,23.958697,120.917931,1.497282e-09
C1I550,國六W023K,2015-02-21,23.979067,120.867742,9.746625e-10
C0R870,興海,2015-02-21,21.9752,120.8439,0.9509213
C0R140,瑪家,2015-02-21,22.682903,120.686639,3.1953926e-09
C0A530,坪林,2015-02-21,24.938183,121.70975,7.4608515e-09
C0X260,後壁,2015-02-21,23.366358,120.362326,5.8695054e-10
C0Z230,和平,2015-02-21,24.30717,121.77007,3.8885332e-08
C0G770,福興,2015-02-21,24.041289,120.437669,8.615502e-10
C0H9A0,神木村,2015-02-21,23.532742,120.843667,4.7322315e-09
C0I460,南投,2015-02-21,23.911469,120.687331,1.0793489e-09
C0I480,梅峰,2015-02-21,24.085272,121.173572,7.724349e-09
C1V570,吉東,2015-02-21,22.85422,120.5454,7.027196e-10
C2D740,屯原,2015-02-21,24.067969,121.209389,6.965761e-09
C2A560,福山,2015-02-21,24.776203,121.502811,4.3753134e-09
C0AH30,五分山,2015-02-21,25.07125,121.780794,1.9419494e-08
C0FA10,松柏,2015-02-21,24.429115,120.617482,1.4594485e-09
72S200,東改班鳩分場,2015-02-21,22.829528,121.077694,1.245845e-08
72HA00,中改埔里分場,2015-02-21,23.903208,120.963364,1.2635029e-09
C2H9W0,大坪頂農水,2015-02-21,24.043122,120.932781,1.4779792e-09
C0C650,平鎮,2015-02-21,24.897503,121.214636,2.674769e-09
C0S930,延平,2015-02-21,22.902581,121.084058,8.349002e-09
C0UA60,樟樹山,2015-02-21,24.41393,121.78325,2.548091e-08
C1S670,摩天,2015-02-21,23.199503,121.027,1.3141239e-08
C0V630,茄萣,2015-02-21,22.906642,120.182608,5.4337607e-10
466940,基隆,2015-02-21,25.133314,121.740475,2.3465167e-07
C0X050,東河,2015-02-21,23.296598,120.385608,5.6561583e-10
C0R770,保力,2015-02-21,22.071122,120.764111,0.95589674
G2L020,農試嘉義分所,2015-02-21,23.485028,120.473806,1.0273558e-09
C0X240,關子嶺,2015-02-21,23.331169,120.508025,1.35082e-09
C0I380,集集,2015-02-21,23.828206,120.801467,1.2760945e-09
466990,花蓮,2015-02-21,23.975128,121.613275,3.7476415e-08
C1V220,小關山,2015-02-21,23.154217,120.813603,1.0439687e-08
C1F9G1,慶福山,2015-02-21,24.180853,120.848378,1.6335262e-09
C0Z250,瑞穗林道,2015-02-21,23.49284,121.30688,2.2190026e-08
C0D590,新豐,2015-02-21,24.87068,120.97721,7.387782e-09
C0A870,五指山,2015-02-21,25.132153,121.608692,1.1439889e-08
C0UA50,西帽山,2015-02-21,24.555361,121.802628,1.2000386e-08
C0X160,仁德,2015-02-21,22.968258,120.257689,4.3693732e-10
C1H971,六分寮,2015-02-21,23.92507,120.6378,1.8734188e-09
C0W120,西嶼,2015-02-21,23.5626,119.468436,0.0052077053
C0G650,員林,2015-02-21,23.946503,120.585597,9.159704e-10
C0AD50,鶯歌,2015-02-21,24.951533,121.346294,4.813754e-09
C2H9Q0,北東眼山,2015-02-21,24.120939,121.189303,6.753366e-09
C2H9T0,名間竹圍,2015-02-21,23.859914,120.637572,1.3877975e-09
C0S990,山豬窟,2015-02-21,22.318619,120.857372,1.4184639e-05
72Q010,高雄農改,2015-02-21,22.709333,120.525889,4.0494505e-10
C0X190,安平,2015-02-21,22.993161,120.152181,6.6248634e-10
C0K400,斗六,2015-02-21,23.720583,120.541127,1.0874037e-09
12J990,口湖工作站,2015-02-21,23.589978,120.180394,6.337606e-10
C0O830,北寮,2015-02-21,23.079561,120.495008,8.0638224e-10
C1D410,白蘭,2015-02-21,24.579364,121.079947,4.9255218e-09
C0S970,加津林,2015-02-21,22.416211,120.926942,0.91277593
C0D700,關西,2015-02-21,24.7977,121.1732,2.4137532e-09
C0M810,里佳,2015-02-21,23.389125,120.716647,4.8324926e-09
C0U750,龜山島,2015-02-21,24.841667,121.953133,1.050845e-08
C0R810,內獅,2015-02-21,22.305064,120.642986,8.424535e-05
C1M390,龍美,2015-02-21,23.406728,120.654417,3.789632e-09
C2FB60,頭櫃山,2015-02-21,24.129842,120.858925,2.231148e-09
C1H840,國三N238K,2015-02-21,23.841008,120.707711,1.2959478e-09
CAQ030,崎峰國小,2015-02-21,22.42565,120.49521,9.018556e-10
C2E520,大湖,2015-02-21,24.414939,120.870872,1.1259154e-09
467530,阿里山,2015-02-21,23.508208,120.813242,9.715095e-09
C1E691,南湖,2015-02-21,24.40135,120.837533,1.8118633e-09
C0FA30,梧棲,2015-02-21,24.256003,120.523381,1.0554445e-09
C1V231,高中,2015-02-21,23.134911,120.716711,2.1193174e-09
C0F9V0,新社,2015-02-21,24.200172,120.815806,1.37074e-09
C0H890,埔里,2015-02-21,23.972169,120.952425,8.7685864e-10
C0R690,墾丁,2015-02-21,21.966756,120.810269,0.85045063
C0F0D0,審馬陣,2015-02-21,24.381675,121.4203,2.2966315e-08
C0R820,白鷺,2015-02-21,22.454275,120.666219,2.2568463e-08
U2H480,臺大溪頭,2015-02-21,23.670306,120.798194,1.6055526e-09
C1V190,南天池,2015-02-21,23.27403,120.91176,1.400792e-08
K2E360,苗栗農改場,2015-02-21,24.495722,120.829111,2.2060545e-09
CAJ050,海口故事園區,2015-02-21,23.57543,120.14121,6.348797e-10
C2H9D0,三隻寮,2015-02-21,24.093078,120.861578,1.5255469e-09
C0O990,媽廟,2015-02-21,22.99175,120.293525,4.387169e-10
C0D480,打鐵坑,2015-02-21,24.849664,121.150789,1.4327907e-09
C0Z220,和平林道,2015-02-21,24.343922,121.656317,2.5611591e-08
C0TA10,花蓮漁港,2015-02-21,23.995322,121.638331,3.811497e-08
72C440,桃園農改場,2015-02-21,24.950944,121.030583,7.989149e-09
C1E711,馬拉邦山,2015-02-21,24.367306,120.901656,2.1150006e-09
C0SB20,富岡,2015-02-21,22.792467,121.192669,1.3725485e-08
C0D560,竹東,2015-02-21,24.767147,121.057881,2.5647264e-09
C0F9U0,南屯,2015-02-21,24.137006,120.637969,8.331245e-10
C0M720,番路,2015-02-21,23.464657,120.554156,1.0669838e-09
C0F0A0,雪山圈谷,2015-02-21,24.388594,121.236339,3.1334285e-08
C1A9N0,四十份,2015-02-21,24.934158,121.593283,5.8967755e-09
C0U760,東澳,2015-02-21,24.52196,121.83318,1.0669212e-08
C0X230,鹽水,2015-02-21,23.272621,120.247641,7.218637e-10
C2H9H0,苗改南投蜂場,2015-02-21,23.852589,120.693481,1.1525166e-09
C0R950,萬隆國小,2015-02-21,22.507667,120.587817,1.0170691e-09
C0V370,古亭坑,2015-02-21,22.893178,120.401947,4.811539e-10
C1I340,新興橋,2015-02-21,23.563333,120.868728,1.927549e-09
C0SA80,土坂,2015-02-21,22.453108,120.887572,1.1228833e-08
C0R160,鹽埔,2015-02-21,22.739558,120.530778,5.5791943e-10
C0AC40,大屯山,2015-02-21,25.175675,121.522408,2.2358861e-08
466850,五分山雷達站,2015-02-21,25.071182,121.781205,1.9405755e-08
C2H9L0,馬烈霸,2015-02-21,24.1512,121.201772,6.616835e-09
C1AI50,國三N016K,2015-02-21,25.034164,121.619664,5.068371e-09
C1V600,藤枝,2015-02-21,23.071961,120.757042,8.396112e-09
C1E601,南勢,2015-02-21,24.572486,120.734842,3.0878615e-09
C0Z180,新城,2015-02-21,24.03946,121.60454,3.6880763e-08
C0O980,新市,2015-02-21,23.061614,120.298197,4.7802e-10
C0K420,西螺,2015-02-21,23.800407,120.467394,1.2154721e-09
C0Z050,佳心,2015-02-21,23.34567,121.21316,1.3612127e-08
C0AD30,蘆洲,2015-02-21,25.086594,121.472331,3.8602725e-09
C0V610,梓官,2015-02-21,22.760558,120.267211,4.779161e-10
K2F750,種苗改良場,2015-02-21,24.225972,120.800917,1.2081036e-09
C0UA80,大溪漁港,2015-02-21,24.941801,121.902955,9.952332e-09
C1AI60,國一39K邊坡,2015-02-21,25.064361,121.383836,1.3236377e-08
C0W150,金寧,2015-02-21,24.457703,118.328989,7.111024e-09
C0R960,內埔,2015-02-21,22.608483,120.570714,1.064914e-09
V2C250,八德合作社,2015-02-21,24.93775,121.266389,2.3777098e-09
C2H9S0,龍南,2015-02-21,23.953536,120.833183,2.9704454e-09
C0AH40,平等,2015-02-21,25.129142,121.577086,1.0177819e-08
C0R540,佳冬,2015-02-21,22.419456,120.552375,9.018556e-10
466950,彭佳嶼,2015-02-21,25.627975,122.079744,1.3934013e-05
C0A890,雙溪,2015-02-21,25.036003,121.864242,1.9115838e-07
C0C480,桃園,2015-02-21,24.992425,121.323172,3.468288e-09
C0AH50,林口,2015-02-21,25.072181,121.38084,2.2286352e-08
A2K360,水試臺西試驗場,2015-02-21,23.717231,120.190522,5.806703e-10
B2N890,畜試所,2015-02-21,23.058972,120.336406,4.791693e-10
C2M960,外寮,2015-02-21,23.562643,120.665688,2.869696e-09
C0F9S0,烏日,2015-02-21,24.107058,120.624103,7.1710865e-10
C0C490,八德,2015-02-21,24.928708,121.283289,2.2788103e-09
C0R190,赤山,2015-02-21,22.592333,120.614306,1.0686539e-09
C0T820,天祥,2015-02-21,24.179597,121.495639,2.7927289e-08
C1F9E1,龍安,2015-02-21,24.1605,120.831961,1.4612785e-09
C0V820,小林,2015-02-21,23.148408,120.63325,1.3769477e-09
C2G870,芳苑,2015-02-21,23.922303,120.320025,6.188163e-10
C0E850,大河,2015-02-21,24.618069,120.948578,3.74199e-09
C1U670,寒溪,2015-02-21,24.634,121.71691,5.7719035e-08
C0N020,城西,2015-02-21,23.0568,120.0956,1.9422557e-09
C1Z110,三棧,2015-02-21,24.11557,121.60501,5.4655832e-08
C0R280,檳榔,2015-02-21,22.076078,120.836777,0.8695161
C2H9J0,中台,2015-02-21,23.9996,120.938739,1.0483601e-09
C0F9L0,后里,2015-02-21,24.310436,120.729725,1.1462905e-09
C0D540,橫山,2015-02-21,24.71116,121.11693,1.7572909e-09
C1D420,太閣南,2015-02-21,24.632808,121.160575,5.3629545e-09
C1E770,公館,2015-02-21,24.526914,120.830806,2.4389193e-09
CAN130,水試所海水繁養殖中心,2015-02-21,23.120802,120.07968,1.9546946e-09
C1I430,翠華,2015-02-21,24.191961,121.224339,1.1804066e-08
C1M400,菜瓜坪,2015-02-21,23.251928,120.576103,1.4872064e-09
C0G730,二林,2015-02-21,23.903325,120.376081,8.0385615e-10
72M360,南改義竹分場,2015-02-21,23.360694,120.279361,6.0956645e-10
V2K620,麥寮合作社,2015-02-21,23.753836,120.294783,5.4371196e-10
C0Z070,舞鶴,2015-02-21,23.46811,121.37407,6.469677e-08
C0B040,大武崙,2015-02-21,25.166676,121.706993,2.086269e-07
C1Z030,紅葉,2015-02-21,23.493119,121.338806,7.0467316e-08
C1I050,丹大,2015-02-21,23.753747,121.141147,1.3327068e-08
C0I080,信義,2015-02-21,23.689694,120.851036,1.5205764e-09
C2M920,朴子農改,2015-02-21,23.469889,120.259383,7.037779e-10
C2A880,福隆,2015-02-21,25.017842,121.942083,6.349917e-08
C0Z160,鳳林,2015-02-21,23.746114,121.453411,8.7198615e-08
C0V210,復興,2015-02-21,23.222403,120.806089,3.6316716e-09
C0H990,昆陽,2015-02-21,24.121322,121.273642,2.0431653e-08
C0R741,獅子,2015-02-21,22.202308,120.705236,0.003985511
C0S710,鹿野,2015-02-21,22.917711,121.122994,8.3543075e-09
C0I530,小奇萊,2015-02-21,24.131764,121.295717,2.1969186e-08
C2K630,荷苞,2015-02-21,23.657717,120.595144,9.0796903e-10
C0Z080,富源,2015-02-21,23.587642,121.378225,8.7353094e-08
467441,高雄,2015-02-21,22.7304,120.3125,1.9796795e-09
C0SB10,美和,2015-02-21,22.682078,121.060236,2.9449707e-08
C2K620,馬光農場,2015-02-21,23.721453,120.378864,7.299007e-10
C1I140,卡奈托灣,2015-02-21,23.754364,121.087872,4.2959116e-09
C0I520,玉山風口,2015-02-21,23.470489,120.955994,2.9096393e-08
C1G691,下水埔,2015-02-21,23.816114,120.5676,1.4668831e-09
C0X110,臺南市南區,2015-02-21,22.961189,120.188378,6.626215e-10
C0V680,仁武,2015-02-21,22.701083,120.347722,1.9456707e-09
C2G840,北斗,2015-02-21,23.877586,120.514222,9.889637e-10
C0R900,竹坑,2015-02-21,22.1385,120.7022,0.8795698
C0K250,崙背,2015-02-21,23.75555,120.318925,5.458754e-10
C0G860,社頭,2015-02-21,23.897647,120.5862,9.358696e-10
C0X150,安定,2015-02-21,23.102614,120.227839,7.927925e-10
C0R590,里港,2015-02-21,22.77919,120.49459,5.621269e-10
C0E610,馬都安,2015-02-21,24.451272,120.930192,2.0320956e-09
C0E550,明德,2015-02-21,24.583486,120.885411,3.7288306e-09
C0R150,三地門,2015-02-21,22.709889,120.639944,8.5522395e-10
C0G910,花壇,2015-02-21,24.032076,120.549461,8.523871e-10
C1D400,鳥嘴山,2015-02-21,24.71909,121.28387,4.873266e-09
C0K500,元長,2015-02-21,23.64981,120.315024,6.359632e-10
C0F0B0,石岡,2015-02-21,24.276061,120.777644,8.7456703e-10
C2V250,甲仙,2015-02-21,23.080106,120.591758,1.0197244e-09
C0SA20,金崙山,2015-02-21,22.567419,120.959667,6.3244223e-09
C0V350,溪埔,2015-02-21,22.738578,120.446797,5.015573e-10
C0M660,溪口,2015-02-21,23.604131,120.403569,6.8449174e-10
C1S880,壽卡,2015-02-21,22.238911,120.858903,1.15943095e-07
72D680,桃改新埔分場,2015-02-21,24.834444,121.066111,2.3987639e-09
