站號,站名,日期,lat,lon,BLBTSLS
C0R710,龍磐,2016-10-08,21.931672,120.838942,0.00236067
C1F9D1,白毛台,2016-10-08,24.158325,120.886933,0.0033149864
C0G940,竹塘,2016-10-08,23.848253,120.386764,0.0119642215
467590,恆春,2016-10-08,22.003897,120.746339,0.0030113629
C1O850,環湖,2016-10-08,23.148617,120.418633,7.067594e-06
C0U710,太平山,2016-10-08,24.505486,121.525656,2.7199407e-08
C0E820,獅潭,2016-10-08,24.539133,120.920042,0.9932011
C0V880,興達,2016-10-08,22.8778,120.2127,0.095623985
C0S890,關山,2016-10-08,23.0395,121.175017,0.0015476207
C0SB30,新蘭,2016-10-08,22.869214,121.223228,0.0011857937
C2R970,屏科大,2016-10-08,22.648275,120.619247,8.9744526e-07
K2F750,種苗繁殖,2016-10-08,24.225972,120.800917,0.034336675
C1Z130,銅門,2016-10-08,23.965694,121.492842,0.99422777
C0AD40,土城,2016-10-08,24.973208,121.445169,0.9776452
CAN140,六官養殖協會,2016-10-08,23.22881,120.29962,0.013141848
C0X180,山上,2016-10-08,23.0757,120.363253,3.1872764e-06
C0F9Z0,雪山東峰,2016-10-08,24.388792,121.268675,3.8412956e-08
C1M480,獨立山,2016-10-08,23.537022,120.607797,5.6307925e-08
C0X220,學甲,2016-10-08,23.230367,120.182187,0.35678253
467650,日月潭,2016-10-08,23.881325,120.90805,5.923664e-08
C0K600,箔子寮,2016-10-08,23.6197,120.14,0.061400857
C0G830,埤頭,2016-10-08,23.866003,120.452806,0.0074707703
C0S950,七塊厝,2016-10-08,22.954453,121.229922,2.189823e-06
467110,金門,2016-10-08,24.407306,118.289281,0.009655063
C0AH80,深坑,2016-10-08,25.002703,121.628328,0.98210156
467990,馬祖,2016-10-08,26.169269,119.923419,0.32543898
C0A970,三貂角,2016-10-08,25.007606,122.002058,0.99263173
C2D730,寶山農場,2016-10-08,24.732444,120.976153,0.9768115
C0K430,褒忠,2016-10-08,23.690938,120.303634,0.015517614
467480,嘉義,2016-10-08,23.495925,120.432906,0.00028239138
C2E540,後龍,2016-10-08,24.606489,120.783933,0.055899683
C0V400,阿公店,2016-10-08,22.804194,120.355528,8.599546e-06
C0R440,大漢山,2016-10-08,22.405264,120.753181,3.328533e-08
C0K280,四湖,2016-10-08,23.630414,120.227125,0.013296509
C1F9B1,桐林,2016-10-08,24.066172,120.735194,0.0057373387
C2H9U0,鳳鵬,2016-10-08,23.763919,120.788061,2.873826e-05
C0K390,土庫,2016-10-08,23.679029,120.395574,0.0073398654
C1I450,望鄉山,2016-10-08,23.594153,120.944286,3.3616267e-08
C0E910,海埔,2016-10-08,24.648767,120.772435,0.97280896
B2E890,畜試北區分所,2016-10-08,24.527806,120.770972,0.0037384667
C0R750,四林格山,2016-10-08,22.076989,120.802439,0.07991509
C0F0C0,中坑,2016-10-08,24.248517,120.903319,1.1109461e-06
C1I121,大鞍,2016-10-08,23.678381,120.760017,4.7334794e-08
72U480,花改蘭陽分場,2016-10-08,24.686306,121.716583,0.88604826
C0A770,科教館,2016-10-08,25.096356,121.516507,0.974647
C0AJ60,六塊厝,2016-10-08,25.24,121.4481,0.9201769
C0R620,墾雷,2016-10-08,21.900836,120.855269,0.00285467
467420,永康,2016-10-08,23.038386,120.2367,0.31132904
467300,東吉島,2016-10-08,23.25695,119.667467,0.039470688
C0I410,名間,2016-10-08,23.837053,120.701447,0.003994486
A2C560,農工中心,2016-10-08,24.985917,121.239833,0.9280112
C0V740,旗山,2016-10-08,22.888614,120.483597,8.70311e-07
C0Z061,玉里,2016-10-08,23.3215,121.339656,0.60100156
C0S840,南田,2016-10-08,22.279725,120.889208,0.0012068017
C1I470,杉林溪,2016-10-08,23.639517,120.786444,3.5534512e-08
C1X040,東原,2016-10-08,23.291597,120.463822,0.0006026028
C0R660,枋寮,2016-10-08,22.367722,120.590647,0.5895996
C1R120,上德文,2016-10-08,22.763272,120.704442,4.4253706e-08
C0K450,大埤,2016-10-08,23.646074,120.431537,0.005767745
C0UA00,土場,2016-10-08,24.576533,121.495333,0.64244825
467080,宜蘭,2016-10-08,24.763975,121.756528,0.9884731
C0N030,四草,2016-10-08,23.0235,120.1116,0.042769123
C0V650,彌陀,2016-10-08,22.783806,120.246361,0.2971478
C0D660,新竹市東區,2016-10-08,24.798681,120.986942,0.93149644
82S580,茶改東部分場,2016-10-08,22.907694,121.130139,0.13943925
C0SB40,興隆,2016-10-08,22.913661,121.257469,0.65674615
C0C710,大溪永福,2016-10-08,24.892936,121.324975,0.943187
C0FA20,溫寮,2016-10-08,24.372177,120.583125,0.007134198
C0V640,湖內,2016-10-08,22.887139,120.2445,0.07834418
C0R910,下寮,2016-10-08,22.3929,120.5548,0.000111987356
C0Z020,明里,2016-10-08,23.208717,121.262342,0.060412675
C0M770,嘉義梅山,2016-10-08,23.585398,120.555587,0.001723622
G2F820,農業試驗所,2016-10-08,24.031261,120.688133,0.008867922
C0C660,楊梅,2016-10-08,24.912375,121.143047,0.9817329
C1E511,新開,2016-10-08,24.347703,120.827019,0.010831208
G2F820,農試所(霧峰),2016-10-08,24.031261,120.688133,0.008867922
C1I070,和社,2016-10-08,23.591131,120.888861,4.27192e-07
C2F000,大肚,2016-10-08,24.15295,120.572117,0.016110914
C1S850,豐南,2016-10-08,23.122139,121.262389,4.3738833e-05
C2A920,富貴角,2016-10-08,25.263783,121.565258,0.93300456
CAH030,茶改場竹圍站,2016-10-08,23.860083,120.637528,0.00012542839
C0T960,光復,2016-10-08,23.660694,121.424964,0.9994934
C0F9M0,豐原,2016-10-08,24.254322,120.720692,0.99689996
C0R720,旭海,2016-10-08,22.205403,120.887614,0.0033818237
C0V710,苓雅,2016-10-08,22.622742,120.330669,7.017553e-05
C0C740,觀音工業區,2016-10-08,25.064764,121.114856,0.57058257
CAC040,拉拉山,2016-10-08,24.699317,121.427133,7.4739866e-08
C0V790,萬山,2016-10-08,22.905944,120.688056,1.1022663e-07
U2HA30,臺大和社,2016-10-08,23.590856,120.888864,4.27192e-07
C0AJ90,澳底,2016-10-08,25.0552,121.9253,0.9861257
C0Z100,東華,2016-10-08,23.89525,121.549833,0.9988895
C0G970,三豐,2016-10-08,23.882,120.2895,0.011376635
V2K610,大庄合作社,2016-10-08,23.8068,120.367939,0.008755605
C0V900,汕尾,2016-10-08,22.4782,120.4151,7.952511e-06
C1R630,龍泉,2016-10-08,22.66701,120.59091,0.002525885
C1AC50,關渡,2016-10-08,25.133486,121.469331,0.95199674
C0F9I0,神岡,2016-10-08,24.272481,120.658314,0.99543434
C0K460,斗南,2016-10-08,23.678734,120.478359,0.0057951836
467410,臺南,2016-10-08,22.993239,120.204772,0.2753014
C2O810,曾文,2016-10-08,23.219681,120.497328,2.2869922e-06
467280,後龍,2016-10-08,24.648563,120.831834,0.9807428
C1F9J1,清水林,2016-10-08,24.071242,120.820419,3.0468462e-07
C2A650,火燒寮,2016-10-08,25.002719,121.742892,0.9965122
466930,竹子湖,2016-10-08,25.162078,121.544547,0.9987201
C1I220,樟湖,2016-10-08,23.905333,120.846983,2.5699624e-08
C0I390,仁愛,2016-10-08,24.022122,121.132206,3.0693197e-08
C0Z300,東里,2016-10-08,23.26853,121.30547,0.5686179
C1V590,新發,2016-10-08,23.057019,120.646064,1.781179e-07
C0K510,水林,2016-10-08,23.572924,120.24597,0.05976968
72S590,東改賓朗果園,2016-10-08,22.813889,121.071278,0.00010107268
82A750,茶改北部分場,2016-10-08,24.955778,121.631222,0.6522649
C1A750,石碇服務區,2016-10-08,25.00872,121.646242,0.98587114
C0X300,鹿寮,2016-10-08,23.386047,120.477331,0.0039041298
G2AI50,關渡,2016-10-08,25.11575,121.492,0.97245073
C0K590,雲林東勢,2016-10-08,23.674192,120.255721,0.015517614
C0A570,桶後,2016-10-08,24.848222,121.597992,0.995305
C1S800,華源,2016-10-08,22.657883,121.02325,0.18844108
C0G720,溪州,2016-10-08,23.851589,120.499093,0.008226766
C1V160,達卡努瓦,2016-10-08,23.279811,120.705319,2.2376359e-07
C2M410,馬頭山,2016-10-08,23.324361,120.582017,2.028844e-05
C0V850,蚵仔寮,2016-10-08,22.7256,120.2527,0.0006409251
C0S740,池上,2016-10-08,23.119628,121.209469,0.0028596611
C1V390,尖山,2016-10-08,22.813153,120.367789,5.1133047e-06
C0AH70,松山,2016-10-08,25.04871,121.55042,0.9680269
C0N010,鯤鯓國小,2016-10-08,23.1879,120.0889,0.05695177
C0R550,新埤,2016-10-08,22.467947,120.582894,0.0011536888
C0SA60,知本（水試所）,2016-10-08,22.702394,121.082761,0.44188824
C0T9I0,豐濱,2016-10-08,23.583897,121.514806,0.99872994
C0UB00,淡江大學蘭陽校園,2016-10-08,24.823239,121.730383,0.7261109
C0W240,九宮,2016-10-08,24.423753,118.240186,0.5502336
C0T9N0,富里,2016-10-08,23.171639,121.249378,0.016959803
U2HA50,臺大竹山,2016-10-08,23.756972,120.681556,0.0019027303
C0V840,鳳鼻頭,2016-10-08,22.5083,120.3591,8.6211185e-05
C0X140,西港,2016-10-08,23.125608,120.203108,0.20580344
72D080,桃改五峰分場,2016-10-08,24.612194,121.157167,3.2210434e-07
C2H9P0,伊拿谷,2016-10-08,23.963211,121.088264,1.7170688e-08
C2H9F0,柑林,2016-10-08,24.018658,120.847072,9.509627e-05
C0TA20,加灣,2016-10-08,24.082025,121.608944,0.9996219
C0V530,阿蓮,2016-10-08,22.883208,120.327508,0.0006995948
C1O880,關山,2016-10-08,23.173397,120.594092,1.1886928e-05
C0E791,卓蘭,2016-10-08,24.3126,120.8244,0.0075005675
C1I030,武界,2016-10-08,23.913225,121.052483,5.3141225e-08
C0R520,崁頂,2016-10-08,22.514781,120.506914,9.8743236e-05
C0R341,牡丹,2016-10-08,22.130036,120.792639,0.26499948
C0R930,萬丹,2016-10-08,22.5885,120.4851,0.0016261867
C0S760,紅石,2016-10-08,23.069131,121.126219,1.3061717e-07
C1M610,石磐龍,2016-10-08,23.496606,120.663506,5.6294933e-08
C0UA10,鴛鴦湖,2016-10-08,24.590269,121.412228,3.748621e-08
V2C260,八德蔬果,2016-10-08,24.978508,121.281819,0.92289245
C0R800,丹路,2016-10-08,22.204481,120.750989,0.7871467
C0G920,永靖,2016-10-08,23.924703,120.547533,0.001574919
C2M950,太和,2016-10-08,23.538372,120.702961,3.1989618e-08
C1A630,下盆,2016-10-08,24.771003,121.538622,0.1238167
B2N890,畜產試驗所,2016-10-08,23.058972,120.336406,0.00024049699
C0UA30,白嶺,2016-10-08,24.527819,121.519031,1.131196e-06
C1V580,溪南(特生中心),2016-10-08,23.084972,120.788475,1.1111043e-07
C1T970,大農,2016-10-08,23.615233,121.413331,0.9995001
E2S960,林試太麻里2,2016-10-08,22.598014,120.989761,0.0035422496
C0R650,竹田,2016-10-08,22.58486,120.54344,0.0016261867
C1H900,清流,2016-10-08,24.080775,120.962997,5.5851515e-08
C1C510,水尾,2016-10-08,24.940081,121.087161,0.8900078
C0F9X0,大雅(中科園區),2016-10-08,24.21528,120.62445,0.0070426827
C0SB60,白守蓮,2016-10-08,23.126769,121.401914,0.006621879
C0O970,虎頭埤,2016-10-08,23.021375,120.347878,0.0003357993
C0C730,中大臨海站,2016-10-08,24.966126,121.008581,0.026676083
C0X250,新營,2016-10-08,23.310689,120.316681,0.0048351837
C0V700,三民,2016-10-08,22.645017,120.311233,7.017553e-05
C0U870,大礁溪,2016-10-08,24.791042,121.675047,0.7703885
C0E870,高鐵苗栗,2016-10-08,24.60725,120.826094,0.055098422
A2K570,古坑花卉中心,2016-10-08,23.63353,120.55239,0.0014273905
C0M860,新美,2016-10-08,23.338017,120.683169,1.5588405e-07
C1E701,八卦,2016-10-08,24.491756,120.927619,0.9886178
C0I420,國姓,2016-10-08,24.037803,120.855072,6.9035144e-05
C2D720,關西工作站,2016-10-08,24.757275,121.184792,0.95526505
C0S960,香蘭,2016-10-08,22.587569,120.993375,0.0035422496
C0R260,春日,2016-10-08,22.370361,120.628306,0.054416295
72G600,臺中農改場,2016-10-08,24.003028,120.534389,0.000778336
C0Z210,瑞穗,2016-10-08,23.5239,121.39021,0.9987995
C0M820,達邦,2016-10-08,23.453994,120.749517,5.8241785e-08
C0V860,南寮,2016-10-08,22.7616,120.2339,0.3460206
C0G740,大城,2016-10-08,23.852487,120.320935,0.012902698
C0R920,塭仔,2016-10-08,22.4169,120.5197,0.00018575705
C0R470,高樹,2016-10-08,22.826389,120.600806,0.00040028378
C0R680,佳樂水,2016-10-08,21.993578,120.861633,0.003125257
C1O870,大棟山,2016-10-08,23.31157,120.52226,2.0577255e-08
C0D360,梅花,2016-10-08,24.678347,121.208558,0.8467283
C0Z190,富世,2016-10-08,24.14743,121.6297,0.8015901
C0AI10,屈尺,2016-10-08,24.92184,121.54475,0.98210156
B2U990,畜試東區分所,2016-10-08,24.669039,121.832561,0.8520736
C0SB80,長濱漁港,2016-10-08,23.313644,121.459994,0.644307
C0R240,來義,2016-10-08,22.527306,120.625111,0.008250291
C0V910,大樹,2016-10-08,22.684645,120.432803,1.374713e-05
C1R610,西大武山,2016-10-08,22.617719,120.7322,3.2437836e-08
C0G900,線西,2016-10-08,24.143358,120.443536,0.04497364
C0M700,竹崎,2016-10-08,23.526178,120.555508,0.00020614514
C2E880,三義,2016-10-08,24.405478,120.749819,9.3266906e-05
C0C720,竹圍,2016-10-08,25.112692,121.239824,0.92863804
C0F9P0,清水,2016-10-08,24.312297,120.562242,0.017064143
C0Z150,吉安光華,2016-10-08,23.930925,121.595153,0.99859345
C1D640,外坪(五指山),2016-10-08,24.644447,121.090961,0.5189187
C0F9O0,潭子,2016-10-08,24.213106,120.703933,0.9960897
C2H9R0,卓社,2016-10-08,23.887894,121.000086,1.294471e-08
72T250,花蓮農改場,2016-10-08,23.975222,121.563889,0.9996216
C0E780,銅鑼,2016-10-08,24.489681,120.790853,0.9902003
C1T950,太安,2016-10-08,23.666719,121.370128,7.964626e-08
C0E830,苑裡,2016-10-08,24.439714,120.653053,0.0049841423
467270,田中,2016-10-08,23.873803,120.581286,0.0029068924
C0SA10,檳榔四格山,2016-10-08,22.810031,121.109308,2.2810632e-06
C1T830,布洛灣,2016-10-08,24.17184,121.57127,0.7285097
C0F970,大坑,2016-10-08,24.173142,120.722289,0.023455434
C1U920,思源,2016-10-08,24.393125,121.347214,4.2661018e-08
C0A931,三和,2016-10-08,25.233153,121.595236,0.9905974
C0I010,廬山,2016-10-08,24.033311,121.181808,3.643392e-08
C2M940,日野賀,2016-10-08,23.434056,120.727169,4.6962043e-08
C0R860,鼻頭,2016-10-08,22.1043,120.8979,0.00010393109
C0UB20,壯圍,2016-10-08,24.7359,121.8163,0.8520736
C0R790,九棚,2016-10-08,22.14195,120.889281,0.0022797035
C0W110,東莒,2016-10-08,25.9652,119.98069,0.49672773
C1U930,粉鳥林,2016-10-08,24.497088,121.842479,0.5818243
C1I211,蘆竹湳,2016-10-08,23.934019,120.811994,1.3639617e-05
C0S830,長濱,2016-10-08,23.286817,121.411975,0.023360364
C1F9F1,伯公龍,2016-10-08,24.272392,120.849047,0.001647293
C0E810,西湖,2016-10-08,24.562947,120.7485,0.050369404
C1I440,新高口,2016-10-08,23.478744,120.878939,3.2079864e-08
C0O840,王爺宮,2016-10-08,23.222064,120.40085,2.2869922e-06
C0T9G0,鳳林山,2016-10-08,23.735269,121.420131,0.99606425
C0X080,佳里,2016-10-08,23.173039,120.145086,0.3707467
C0FB70,大甲溪埔,2016-10-08,24.370625,120.620067,0.0048434716
C0Z310,清水斷崖,2016-10-08,24.218294,121.689142,0.8412686
C0M680,太保,2016-10-08,23.455062,120.331455,0.0070498628
C1S820,金峰,2016-10-08,22.590969,120.933236,1.1407063e-06
C0AD10,八里,2016-10-08,25.150211,121.403947,0.92863804
C2K240,草嶺,2016-10-08,23.59555,120.693461,4.15714e-08
C1SA70,都蘭,2016-10-08,22.87794,121.226881,0.6565994
C0K440,二崙,2016-10-08,23.772797,120.408944,0.011492987
C1A760,坪林交控,2016-10-08,24.94284,121.713442,0.98595405
C0F9N0,大里,2016-10-08,24.092464,120.701378,0.007012689
C0SA90,達仁林場,2016-10-08,22.264347,120.823972,0.00027467246
C1R290,石門山,2016-10-08,22.112611,120.756597,0.06614579
42HA10,萬大發電廠,2016-10-08,23.978875,121.139639,1.07583936e-07
C0R890,山海,2016-10-08,21.9878,120.7091,0.003305027
C0T9A0,月眉山,2016-10-08,23.809928,121.539828,0.6220444
C0AC70,信義,2016-10-08,25.037822,121.564597,0.96801597
C0K560,棋山,2016-10-08,23.68645,120.603417,0.0020578504
C2FB50,出雲,2016-10-08,24.206469,120.902794,4.818156e-08
C1Z240,中平林道,2016-10-08,23.42115,121.26763,5.0043493e-08
U2H480,溪頭,2016-10-08,23.670306,120.798194,4.9455565e-08
C0M880,好美里,2016-10-08,23.3364,120.138,0.3707467
C0T9E0,大坑,2016-10-08,23.880628,121.581981,0.9939889
C0K530,臺西,2016-10-08,23.701547,120.197559,0.018755866
C1E900,國一N128K,2016-10-08,24.560997,120.844186,0.04392688
C0AJ50,水湳洞,2016-10-08,25.123695,121.862238,0.87630516
C0AI20,白沙灣,2016-10-08,25.283128,121.519058,0.6851482
C0A860,大坪,2016-10-08,25.165914,121.632969,0.9693352
C1U850,觀音海岸,2016-10-08,24.38319,121.77856,0.7194545
C2K610,草嶺石壁,2016-10-08,23.602469,120.707731,4.960833e-08
C0U950,鶯子嶺,2016-10-08,24.89754,121.79244,1.8877688e-05
C0O900,善化,2016-10-08,23.112883,120.297219,0.00096899056
C0K550,蔦松,2016-10-08,23.514319,120.229736,0.03613394
E2P980,林試六龜中心,2016-10-08,22.991703,120.645722,7.2209224e-07
C0E590,通霄,2016-10-08,24.471892,120.704622,0.0026084785
C1I310,西巒,2016-10-08,23.754486,120.883956,3.4656516e-08
C0A550,泰平,2016-10-08,24.971197,121.823711,0.97818685
C0I360,水里,2016-10-08,23.812553,120.849792,0.00086789083
C0R830,高士,2016-10-08,22.121825,120.836781,0.07604951
C1I101,溪頭,2016-10-08,23.661789,120.807647,4.6807514e-08
C0AJ20,野柳,2016-10-08,25.20703,121.690021,0.87630516
C0B060,暖暖,2016-10-08,25.0957,121.7403,0.9608078
C1H920,長豐,2016-10-08,24.102039,120.879897,2.4198746e-07
C0V360,內門,2016-10-08,22.975481,120.466769,9.3572453e-07
C0R850,林邊,2016-10-08,22.4634,120.5339,9.8743236e-05
C0E930,龍鳳,2016-10-08,24.700034,120.859125,0.9775282
C0U910,冬山,2016-10-08,24.63373,121.7937,0.8520736
C1E721,泰安,2016-10-08,24.489017,120.968036,1.7644592e-08
82H320,茶改中部分場,2016-10-08,23.875611,120.913583,1.0647362e-07
C0M750,布袋,2016-10-08,23.380878,120.167789,0.031818826
C1S860,利嘉,2016-10-08,22.809417,121.050528,2.180517e-07
72C440,桃園農改,2016-10-08,24.950944,121.030583,0.013132149
E2S980,林試太麻里1,2016-10-08,22.598922,120.980044,6.982208e-05
C0X170,關廟,2016-10-08,22.963017,120.327797,0.00049585226
C0V720,林園,2016-10-08,22.507747,120.394511,7.07298e-05
C1I510,線浸林道,2016-10-08,23.761508,120.832956,4.590235e-08
C0D690,外湖,2016-10-08,24.917735,120.968711,0.026610894
C0C750,新興坑尾,2016-10-08,25.0061,121.0971,0.8537433
B2Q810,畜試南區分所,2016-10-08,21.945583,120.802167,0.0031212782
C0S790,金崙,2016-10-08,22.538122,120.966875,5.542908e-07
C0AH90,福山植物園,2016-10-08,24.760717,121.58135,0.14188354
C0I540,奇萊稜線,2016-10-08,24.109231,121.326456,2.6686351e-08
C0M850,表湖,2016-10-08,23.24186,120.64166,4.4733184e-08
C0S770,大溪山,2016-10-08,22.478475,120.943325,7.915996e-08
C0AG80,中和,2016-10-08,24.991622,121.491792,0.9680085
C0T790,大禹嶺,2016-10-08,24.186117,121.316086,2.6435782e-08
C0T9B0,水源,2016-10-08,23.991861,121.537169,0.0031337065
C0R840,牡丹池山,2016-10-08,22.168389,120.841225,0.00056088687
C1I131,桶頭,2016-10-08,23.641944,120.654117,1.1341177e-05
CAL110,布袋國中,2016-10-08,23.35893,120.18026,0.13684258
467571,新竹,2016-10-08,24.827853,121.014219,0.899652
C0Z290,赤柯山,2016-10-08,23.36893,121.38293,5.3976066e-07
C0X280,將軍,2016-10-08,23.214999,120.13577,0.3707467
C0S690,太麻里,2016-10-08,22.60902,120.98533,6.371293e-08
C0U880,北關,2016-10-08,24.9072,121.8734,0.9896611
C1H860,瑞岩,2016-10-08,24.123772,121.18345,1.2721308e-07
C0G810,埔心,2016-10-08,23.947633,120.525456,0.0014566504
C0U970,大福,2016-10-08,24.80064,121.81389,0.987569
C2H9N0,仁愛東眼,2016-10-08,24.026875,121.1205,6.3568486e-08
C1E670,南礦,2016-10-08,24.538278,121.002836,1.7499534e-08
C0M520,東後寮,2016-10-08,23.369908,120.248065,0.13411233
C1E461,松安,2016-10-08,24.397972,120.986022,2.0883487e-08
72G600,臺中農改,2016-10-08,24.003028,120.534389,0.000778336
C2N160,西拉雅風管處,2016-10-08,23.189481,120.335297,0.005306622
C2M970,碧湖,2016-10-08,23.568632,120.624165,5.632866e-08
C0A640,石碇,2016-10-08,24.993969,121.662917,0.9949946
E2S960,林試太麻里2,2016-10-08,22.598,120.99775,0.006523498
C0F9Y0,桃山,2016-10-08,24.432739,121.303808,4.131474e-08
C1I020,萬大,2016-10-08,23.979817,121.132261,3.0485374e-08
C0U940,羅東,2016-10-08,24.68184,121.74934,0.8639154
C0M650,朴子,2016-10-08,23.43463,120.23902,0.03208475
C1I500,大尖山,2016-10-08,23.858572,120.994889,3.3028947e-08
C0G820,田尾,2016-10-08,23.901669,120.509389,0.0015749198
E2K600,四湖植物園,2016-10-08,23.676986,120.163433,0.018749645
C0S730,綠島,2016-10-08,22.6672,121.47533,0.0031060628
12Q970,東港工作站,2016-10-08,22.479997,120.466058,0.000111987356
C0E430,南庄,2016-10-08,24.601775,121.000214,0.9938383
C1TA00,太魯閣,2016-10-08,24.15773,121.6236,0.8382995
466920,臺北,2016-10-08,25.037658,121.514853,0.9680269
C0R600,舊泰武,2016-10-08,22.588194,120.664944,2.6456473e-07
C1I260,北坑,2016-10-08,23.9246,121.006903,1.476914e-07
466910,鞍部,2016-10-08,25.182586,121.529731,0.99886966
C1I230,九份二山,2016-10-08,23.961944,120.845,7.0351284e-08
C2A660,瑞芳,2016-10-08,25.113169,121.801147,0.99370766
C0R270,琉球嶼,2016-10-08,22.332244,120.362236,0.054416295
C1T990,高寮,2016-10-08,23.394239,121.356808,0.99931866
C0G620,芬園,2016-10-08,24.015678,120.6213,0.0012962489
C1Z140,荖溪,2016-10-08,23.890575,121.45964,4.4554113e-08
C1I201,中心崙,2016-10-08,23.728722,120.712097,4.213044e-07
C1I400,凌霄,2016-10-08,24.018778,121.004456,7.17268e-08
C1M640,十字,2016-10-08,23.492153,120.753683,4.084673e-08
G2P820,農試鳳山分所,2016-10-08,22.646611,120.356083,3.963364e-05
C0Z270,蕃薯寮,2016-10-08,23.73835,121.540108,0.99969
C0F9Q0,外埔,2016-10-08,24.347817,120.705686,0.99251753
C0K580,高鐵雲林,2016-10-08,23.737456,120.417944,0.0073398654
C2I090,鳳凰,2016-10-08,23.728081,120.787347,7.541447e-08
C0U990,員山,2016-10-08,24.74435,121.72247,0.8639154
C0V770,大社,2016-10-08,22.730306,120.346639,0.00023674585
C0X120,麻豆,2016-10-08,23.183289,120.248611,0.35678253
C0C670,龍潭,2016-10-08,24.870056,121.221389,0.9684135
C0D680,香山濕地,2016-10-08,24.783581,120.914988,0.4357315
C0S980,勝林山,2016-10-08,22.430439,120.8938,7.7845044e-08
C0V730,大寮,2016-10-08,22.605614,120.395717,0.33049425
C0R570,麟洛,2016-10-08,22.65078,120.52719,2.319461e-06
C2M930,石卓,2016-10-08,23.478744,120.702264,4.219345e-08
C0G9B0,和美,2016-10-08,24.105169,120.492131,0.0010752452
CAG100,王功漁港,2016-10-08,23.96824,120.32586,0.0018572191
C0X290,北門,2016-10-08,23.267772,120.125481,0.3707467
C2F930,大甲,2016-10-08,24.347667,120.640403,0.004059939
C0D650,湖口,2016-10-08,24.904794,121.043628,0.008712377
C0E420,竹南,2016-10-08,24.708978,120.888897,0.59741485
C0U780,五結,2016-10-08,24.68637,121.79794,0.8520736
C1I250,鯉潭,2016-10-08,23.961922,120.991131,2.4198746e-07
C0R130,阿禮,2016-10-08,22.742908,120.743678,2.0604654e-07
C0X100,臺南市北區,2016-10-08,23.010394,120.194228,0.37511292
C0S920,金峰嘉蘭,2016-10-08,22.594789,120.960825,5.5868775e-05
C0V490,新興,2016-10-08,22.627422,120.298803,7.07298e-05
C0F9K0,大安,2016-10-08,24.345061,120.588025,0.012362876
72N100,臺南農改,2016-10-08,23.0605,120.342194,0.00024049699
467290,古坑,2016-10-08,23.633639,120.551889,0.0014273905
C2E970,八甲,2016-10-08,24.535811,120.795983,0.99098855
C0V440,鳳山,2016-10-08,22.646653,120.356122,3.963364e-05
C1T940,大觀,2016-10-08,23.714206,121.373133,0.99604005
72T250,花蓮農改,2016-10-08,23.975222,121.563889,0.9996216
C0E740,造橋,2016-10-08,24.637056,120.864778,0.98181796
C0R100,尾寮山,2016-10-08,22.833111,120.683889,1.8387117e-07
A2K630,臺大雲林校區,2016-10-08,23.730628,120.423903,0.0073398654
C0D580,寶山,2016-10-08,24.735006,121.025192,0.9709264
E2P990,林試扇平站,2016-10-08,22.9677,120.6857,1.7518711e-07
C0AI30,三重,2016-10-08,25.057328,121.500629,0.974647
C0AH00,汐止,2016-10-08,25.066881,121.658778,0.87630516
C1Z040,立山,2016-10-08,23.443356,121.327375,0.99539906
C0W130,花嶼,2016-10-08,23.40007,119.32276,0.001540587
C0A950,鼻頭角,2016-10-08,25.129036,121.923372,0.98553246
C0K470,林內,2016-10-08,23.748675,120.609642,0.0026866808
C2F990,摩天嶺,2016-10-08,24.322458,120.936819,5.9267717e-07
82C160,茶改場,2016-10-08,24.908472,121.185333,0.982076
C0Z320,清水林道,2016-10-08,23.27125,121.188272,7.945915e-07
C0R760,南仁湖,2016-10-08,22.084681,120.863353,0.06786194
C0M670,大林,2016-10-08,23.600616,120.45841,0.0014980186
C0M800,茶山,2016-10-08,23.299075,120.664767,3.0702716e-07
C0A9C0,天母,2016-10-08,25.117494,121.537169,0.9793529
72K220,南改斗南分場,2016-10-08,23.634556,120.477333,0.005005399
72AI40,桃改樹林分場,2016-10-08,24.944503,121.386972,0.98177993
C0S910,蘭嶼燈塔,2016-10-08,22.081197,121.503117,1.9965259e-05
C0B050,八斗子,2016-10-08,25.144754,121.79167,0.8341102
C0U900,內城,2016-10-08,24.71813,121.68766,0.99119705
C0X320,柳營,2016-10-08,23.253328,120.375253,0.00027747618
C0M790,新港,2016-10-08,23.553269,120.345728,0.021803292
C0F9T0,西屯,2016-10-08,24.179494,120.641275,0.005099008
C0SA30,都歷,2016-10-08,23.020333,121.323642,0.0041742306
C0C620,蘆竹,2016-10-08,25.084275,121.265767,0.9432042
C0R730,大坪頂,2016-10-08,22.024633,120.69355,0.0075070956
C0AJ40,石門,2016-10-08,25.273672,121.601198,0.9624725
C0E750,苗栗,2016-10-08,24.564569,120.824575,0.047308233
C0T870,鯉魚潭,2016-10-08,23.935639,121.508944,0.999337
C1V170,排雲,2016-10-08,23.463619,120.954147,4.1830855e-08
C2H950,中寮,2016-10-08,23.884447,120.766406,0.0008234591
C0R350,貓鼻頭,2016-10-08,21.921774,120.7358,0.002916062
C0V660,岡山,2016-10-08,22.797078,120.294958,0.056235954
C1H941,雙冬,2016-10-08,23.967378,120.802189,1.4433412e-07
C0AJ70,田寮,2016-10-08,25.2698,121.4886,0.66348124
C0AI00,五股,2016-10-08,25.07445,121.42728,0.88322264
C0Z280,德武,2016-10-08,23.47426,121.41071,0.99925166
C0R700,枋山,2016-10-08,22.246844,120.661086,0.97340196
C0C460,復興,2016-10-08,24.820208,121.352281,0.99532264
E2H360,蓮華池,2016-10-08,23.918333,120.885278,1.1094631e-07
C0M640,中埔,2016-10-08,23.42538,120.5229,0.0012612292
C0W140,金沙,2016-10-08,24.488292,118.408778,0.015925735
C2A540,四堵,2016-10-08,24.8926,121.745736,0.98835605
C0ACA0,新莊,2016-10-08,25.051478,121.446756,0.86148506
C0R220,潮州,2016-10-08,22.534361,120.54,0.3712142
U2HA40,臺大內茅埔,2016-10-08,23.689722,120.851117,1.9967301e-06
467490,臺中,2016-10-08,24.145736,120.684075,0.01732224
C0U960,翠峰湖,2016-10-08,24.510856,121.608044,2.8724793e-08
E2HA20,林試畢祿溪站,2016-10-08,24.226944,121.308522,3.0099535e-08
C0V890,前鎮,2016-10-08,22.5718,120.3117,8.6211185e-05
467620,蘭嶼,2016-10-08,22.036969,121.558339,3.304287e-05
C1F941,雪嶺,2016-10-08,24.280586,121.026642,3.737897e-08
C2H9E0,國姓南港,2016-10-08,23.911108,120.846556,2.3938195e-08
C0AC80,文山,2016-10-08,25.00235,121.575728,0.98210156
C0F9R0,龍井,2016-10-08,24.184536,120.528972,0.021214325
C0M760,民雄,2016-10-08,23.551754,120.428457,0.0035557651
C0UA40,西德山,2016-10-08,24.560647,121.752608,4.5952643e-06
C1T920,中興,2016-10-08,23.769503,121.498653,0.9991801
C0D550,雪霸,2016-10-08,24.526972,121.11605,4.971916e-08
C2F860,梨山,2016-10-08,24.247522,121.243669,2.8895249e-08
C0R320,車城,2016-10-08,22.0744,120.716247,0.003305027
C1S870,南美山,2016-10-08,23.15025,121.382333,0.0012928335
C0B020,基隆嶼,2016-10-08,25.19141,121.78391,0.87630516
C1U501,牛鬥,2016-10-08,24.637836,121.573656,0.9986373
C0M730,嘉義市東區,2016-10-08,23.457673,120.460531,0.0011227572
C0S700,知本,2016-10-08,22.684866,121.005642,7.460627e-08
C1N001,沙崙,2016-10-08,22.935472,120.309406,0.0006995948
C0V760,橋頭,2016-10-08,22.757806,120.30575,0.041215967
C0G960,福寶,2016-10-08,24.0443,120.3814,0.001372091
C0X210,白河,2016-10-08,23.347466,120.414427,0.00021575864
C0S810,東河,2016-10-08,22.972672,121.303986,0.69230115
C2R170,屏東,2016-10-08,22.66027,120.49403,2.7905412e-06
C0R670,楓港,2016-10-08,22.190131,120.692156,0.97340196
C0FA50,霧峰,2016-10-08,24.0419,120.6995,0.017096316
C0UB10,蘇澳,2016-10-08,24.5969,121.8571,0.30024183
C0G950,防潮門,2016-10-08,24.1835,120.4871,0.02116723
C0M740,六腳,2016-10-08,23.492871,120.290625,0.008819626
C1R250,力里,2016-10-08,22.428117,120.629228,0.009735075
C0K330,虎尾,2016-10-08,23.719183,120.442036,0.0073423786
C2FA00,烏石坑,2016-10-08,24.273503,120.947617,6.867173e-07
C0V620,永安,2016-10-08,22.82315,120.236856,0.2971478
C1I330,楓樹林,2016-10-08,23.986803,121.076117,1.4393735e-08
C0W200,湖西,2016-10-08,23.596314,119.67275,0.0006876869
72Q010,高雄農改場,2016-10-08,22.709333,120.525889,2.2243837e-06
C0SA40,瑞和,2016-10-08,22.974361,121.156697,0.001793413
C0C680,龜山,2016-10-08,25.02846,121.38656,0.99469066
C2V260,月眉,2016-10-08,22.971003,120.539853,9.4301765e-07
C0V450,鳳森,2016-10-08,22.545064,120.392592,0.04925864
C0U720,南山,2016-10-08,24.43742,121.38167,0.0001672783
A2N290,臺南蘭花園區,2016-10-08,23.340258,120.379661,0.00027747618
C0R560,新園,2016-10-08,22.5434,120.461558,9.8743236e-05
C0U890,三星,2016-10-08,24.66812,121.65302,0.99451727
C1V300,御油山,2016-10-08,23.001983,120.715364,1.15924294e-07
C0U600,礁溪,2016-10-08,24.817539,121.765608,0.9891297
C1T980,龍澗,2016-10-08,24.023289,121.411328,2.91331e-08
C0D670,海天一線,2016-10-08,24.831986,120.914438,0.40194187
C0SA00,歷坵,2016-10-08,22.520969,120.89185,5.103071e-08
C0M710,東石,2016-10-08,23.458927,120.15385,0.036133952
C0M780,鹿草,2016-10-08,23.41134,120.30835,0.00427645
C0U520,雙連埤,2016-10-08,24.753033,121.641303,0.77349323
C0B010,七堵,2016-10-08,25.094819,121.71713,0.9098367
C0R480,長治,2016-10-08,22.693128,120.542622,3.5127076e-05
C1V830,國三S383K,2016-10-08,22.781967,120.426475,5.2518485e-06
12Q980,恆春工作站,2016-10-08,22.079678,120.714425,0.003305027
C1O940,東山服務區,2016-10-08,23.286016,120.398472,0.00011480643
C1U840,東澳嶺,2016-10-08,24.5378,121.8485,0.27310845
C1D630,飛鳳山,2016-10-08,24.766464,121.119178,0.99921
C0S940,石寧山,2016-10-08,23.223772,121.406639,0.34532666
C0K410,北港,2016-10-08,23.573957,120.292802,0.023969408
C2M620,瑞里,2016-10-08,23.545133,120.675197,3.8857305e-08
C0SB70,小港漁港,2016-10-08,23.158558,121.400431,0.6158419
C2O950,安南,2016-10-08,23.076694,120.144861,0.6526854
C0F0E0,南湖圈谷,2016-10-08,24.363714,121.444667,4.270148e-08
467610,成功,2016-10-08,23.097486,121.373428,0.0057506333
C0G890,伸港,2016-10-08,24.148933,120.484403,0.04091402
C2E540,龍溪,2016-10-08,24.606489,120.783933,0.055899683
C1V200,梅山,2016-10-08,23.268447,120.823556,4.4607089e-07
C0T9H0,加路蘭山,2016-10-08,23.682947,121.5274,0.012236312
C2O930,玉井,2016-10-08,23.126042,120.46055,7.067594e-06
C1F911,新伯公,2016-10-08,24.221361,120.841069,0.87195647
C0R490,九如,2016-10-08,22.7405,120.490503,2.319461e-06
C0X200,左鎮,2016-10-08,23.056758,120.408522,3.940641e-06
C0SB50,叭嗡嗡,2016-10-08,23.047062,121.343223,0.75260925
C1F891,稍來,2016-10-08,24.265689,121.001142,5.3798825e-08
72N240,七股研究中心,2016-10-08,23.081672,120.062894,0.25765288
C0C700,中壢,2016-10-08,24.977661,121.256375,0.93426627
C0M690,水上,2016-10-08,23.419734,120.388909,0.0007224752
C0V690,鼓山,2016-10-08,22.623325,120.275575,7.07298e-05
C0O860,大內,2016-10-08,23.11885,120.36083,4.236924e-06
C0Z200,萬榮,2016-10-08,23.709219,121.420106,0.999337
C0T9D0,和中,2016-10-08,24.26676,121.74103,0.87023306
C1O921,楠西,2016-10-08,23.183511,120.484083,1.5039242e-05
C0AJ30,淡水觀海,2016-10-08,25.184591,121.408616,0.9201363
C0V810,左營,2016-10-08,22.67491,120.28491,0.0004785577
C0UA70,桃源谷,2016-10-08,24.962606,121.888875,0.9840405
C0X130,官田,2016-10-08,23.193217,120.315422,0.006896937
C1H000,翠峰,2016-10-08,24.109397,121.205211,2.7507587e-08
C0UA90,石城,2016-10-08,24.980444,121.951214,0.9855073
C1E681,南勢山,2016-10-08,24.421669,120.923831,2.1859544e-06
C0A9F0,內湖,2016-10-08,25.079422,121.57545,0.9680269
C0K291,宜梧,2016-10-08,23.536281,120.169329,0.03554735
C1K540,口湖,2016-10-08,23.585344,120.180517,0.059106495
C0R780,滿州,2016-10-08,22.024403,120.839892,0.0027471506
C0V870,文安,2016-10-08,22.8025,120.2164,0.3460206
C0U650,玉蘭,2016-10-08,24.675286,121.587061,0.20460871
C0R640,東港,2016-10-08,22.46247,120.44074,8.6211185e-05
K2E360,苗栗農改,2016-10-08,24.495722,120.829111,0.9821675
C0AJ80,板橋,2016-10-08,25.0107,121.4489,0.97761226
C0S660,下馬,2016-10-08,23.150427,121.070312,3.2629677e-07
C1H9B1,阿眉,2016-10-08,24.1263,120.994672,1.0935299e-07
C0UA20,多加屯,2016-10-08,24.368614,121.373189,2.8122606e-08
C0E730,頭份,2016-10-08,24.688247,120.912206,0.59741485
72V140,高改旗南分場,2016-10-08,22.857861,120.516667,4.2415104e-05
C0K480,莿桐,2016-10-08,23.761192,120.502372,0.005369318
C0U980,坪林石牌,2016-10-08,24.86478,121.77396,0.42999762
C0T900,西林,2016-10-08,23.8119,121.441458,0.9991904
C1I150,青雲,2016-10-08,23.793361,120.949378,1.2035351e-06
467350,澎湖,2016-10-08,23.565503,119.563094,0.0019080273
C0G800,埔鹽,2016-10-08,24.000394,120.431683,0.0014268713
C0H960,草屯,2016-10-08,23.973672,120.68085,0.0033067223
C1V780,多納林道,2016-10-08,22.888028,120.737917,1.6964373e-07
C0E920,通霄漁港,2016-10-08,24.498589,120.673876,0.0024507653
C0Z330,安通山,2016-10-08,23.290728,121.348528,0.00020515436
C0AH10,永和,2016-10-08,25.01125,121.508111,0.963998
C0AK10,太平里,2016-10-08,25.134937,121.364899,0.86148506
C2G640,鹿港,2016-10-08,24.0753,120.430481,0.0014268713
C1E890,國三N149K,2016-10-08,24.463414,120.680019,0.0030557986
C1R110,口社,2016-10-08,22.770111,120.645222,8.8081324e-05
C1M870,國三N285K,2016-10-08,23.550319,120.505833,0.0017748761
467050,新屋,2016-10-08,25.006744,121.047486,0.020352025
C1E480,鳳美,2016-10-08,24.554803,121.034747,0.00014796146
C0M530,奮起湖,2016-10-08,23.493903,120.699253,3.1621752e-08
C0C590,觀音,2016-10-08,25.027072,121.153317,0.9869709
C0T9M0,靜浦,2016-10-08,23.455167,121.495028,0.9985991
C2H9M0,發祥,2016-10-08,24.154094,121.164517,3.0848316e-08
C0AI40,石牌,2016-10-08,25.115597,121.513139,0.97761226
C1F871,上谷關,2016-10-08,24.203483,121.018644,6.867173e-07
C2H9G0,百勝,2016-10-08,24.051142,120.909361,0.018217616
C0G880,二水,2016-10-08,23.810742,120.6173,0.002737309
C0R940,加祿堂,2016-10-08,22.3363,120.6217,0.3316525
C0W220,北竿,2016-10-08,26.220358,119.974881,0.014390098
C0O960,崎頂,2016-10-08,22.959547,120.369317,2.8331044e-06
C0S750,向陽,2016-10-08,23.248397,120.986133,3.5026265e-08
C0T9F0,水璉,2016-10-08,23.797131,121.542514,0.99461013
C1M600,頭凍,2016-10-08,23.406364,120.603339,5.4136656e-08
467660,臺東,2016-10-08,22.752211,121.154586,0.00943695
C1D380,新埔,2016-10-08,24.84745,121.03834,0.9824309
C2G980,田頭村,2016-10-08,23.8263,120.444175,0.011492987
C0V750,路竹,2016-10-08,22.854997,120.259439,0.004135527
C0N050,蚵寮,2016-10-08,23.301,120.1104,0.05695177
72M700,南改鹿草分場,2016-10-08,23.416869,120.283061,0.0053869765
C1SA50,利嘉林道,2016-10-08,22.82325,121.009389,3.842058e-07
467550,玉山,2016-10-08,23.487614,120.959522,4.4762373e-08
C0A940,金山,2016-10-08,25.223628,121.643967,0.7391676
C1V340,大津,2016-10-08,22.888322,120.645986,9.3184894e-07
C0W180,七美,2016-10-08,23.219333,119.444892,0.08611365
C1F9C1,白冷,2016-10-08,24.182844,120.929889,0.01402065
K2E710,苗改生物防治研究中心,2016-10-08,24.422861,120.871833,0.99786896
C0N040,蘆竹溝,2016-10-08,23.2344,120.0961,0.05695177
C2W230,畜試所澎湖,2016-10-08,23.628342,119.513206,0.00019256909
C0R880,後壁湖,2016-10-08,21.9457,120.7457,0.0033572086
C1I280,埔中,2016-10-08,23.820778,120.642594,0.00023492228
467790,墾丁雷達站,2016-10-08,21.948235,120.808028,0.0026578978
C0W190,望安,2016-10-08,23.380564,119.494075,0.0018153483
466881,新北,2016-10-08,24.9593,121.52,0.97471535
C0Z170,卓溪,2016-10-08,23.3443,121.3029,0.5356095
C0F850,東勢,2016-10-08,24.246428,120.833047,0.99112785
466900,淡水,2016-10-08,25.164889,121.448906,0.92863804
C0I370,魚池,2016-10-08,23.895703,120.94135,1.298027e-07
C0C630,大溪,2016-10-08,24.882853,121.265547,0.96370405
C0A520,山佳,2016-10-08,24.974944,121.402008,0.98178
C0I110,竹山,2016-10-08,23.761225,120.688156,0.002266
82H840,茶改南部分場,2016-10-08,23.762528,120.7405,4.4376793e-06
C0G660,溪湖,2016-10-08,23.94835,120.479122,0.0013114049
C1T800,洛韶,2016-10-08,24.204558,121.453956,4.861552e-08
C1T810,慈恩,2016-10-08,24.192044,121.388386,3.089943e-08
C1E451,象鼻,2016-10-08,24.368617,120.940228,2.1772744e-06
C0AC60,三峽,2016-10-08,24.939025,121.369728,0.97738516
C0I490,萬大林道,2016-10-08,23.928228,121.091411,1.4661306e-07
C1I290,豐丘,2016-10-08,23.668178,120.887417,4.3824812e-08
C1I320,奧萬大,2016-10-08,23.952956,121.178556,1.4024521e-08
C2M910,嘉義大學,2016-10-08,23.471325,120.485903,0.0037254537
C0U770,南澳,2016-10-08,24.44935,121.81022,0.4158641
C0A980,社子,2016-10-08,25.109508,121.469681,0.97245073
C0V800,六龜,2016-10-08,22.997889,120.633583,7.7243584e-07
C1G9D0,國一S218K,2016-10-08,23.890641,120.493253,0.0014566497
C0E570,白沙屯,2016-10-08,24.549447,120.696803,0.0024600178
C2F9A0,中竹林,2016-10-08,24.103556,120.751061,1.034923e-05
C0FA40,臺中電廠,2016-10-08,24.2146,120.4907,0.021214325
C2G9A0,畜試所彰化,2016-10-08,23.86045,120.557964,0.0029068924
C0H9C0,合歡山,2016-10-08,24.143442,121.272547,2.8237684e-08
C0X060,下營,2016-10-08,23.22695,120.256261,0.016337492
G2M350,農試溪口農場,2016-10-08,23.58565,120.408111,0.004109272
C0U860,頭城,2016-10-08,24.85323,121.8308,0.9884731
C0R580,南州,2016-10-08,22.48591,120.50274,0.000111987356
C0D430,峨眉,2016-10-08,24.6905,121.017189,0.97686034
C0G780,秀水,2016-10-08,24.03405,120.503869,0.00074014656
72N100,臺南農改場,2016-10-08,23.0605,120.342194,0.00024049699
C0S900,蘭嶼高中,2016-10-08,22.04909,121.51214,4.2795768e-05
467540,大武,2016-10-08,22.355675,120.903789,0.0282992
C1F9W0,德基,2016-10-08,24.254783,121.190261,5.788043e-08
C1Z120,壽豐,2016-10-08,23.870853,121.508081,0.9988895
C0W160,烏坵,2016-10-08,24.9944,119.44956,0.93053705
C1I240,外大坪,2016-10-08,23.958697,120.917931,1.9539915e-07
C1I550,國六W023K,2016-10-08,23.979067,120.867742,1.378785e-06
C0R870,興海,2016-10-08,21.9752,120.8439,0.0031212782
C0R140,瑪家,2016-10-08,22.682903,120.686639,2.0273953e-07
C0A530,坪林,2016-10-08,24.938183,121.70975,0.9981837
C0X260,後壁,2016-10-08,23.366358,120.362326,5.566329e-05
C0Z230,和平,2016-10-08,24.30717,121.77007,0.87023306
C0G770,福興,2016-10-08,24.041289,120.437669,0.0014268713
C0H9A0,神木村,2016-10-08,23.532742,120.843667,9.4317265e-08
C0I460,南投,2016-10-08,23.911469,120.687331,0.0046923067
C0I480,梅峰,2016-10-08,24.085272,121.173572,3.1513974e-08
C1V570,吉東,2016-10-08,22.85422,120.5454,2.4582458e-05
C2D740,屯原,2016-10-08,24.067969,121.209389,2.9323425e-08
C2A560,福山,2016-10-08,24.776203,121.502811,0.6520385
C0AH30,五分山,2016-10-08,25.07125,121.780794,0.9994978
C0FA10,松柏,2016-10-08,24.429115,120.617482,0.007134198
72S200,東改班鳩分場,2016-10-08,22.829528,121.077694,0.003709573
72HA00,中改埔里分場,2016-10-08,23.903208,120.963364,1.6636189e-07
C2H9W0,大坪頂農水,2016-10-08,24.043122,120.932781,2.2154043e-07
C0C650,平鎮,2016-10-08,24.897503,121.214636,0.98211354
C0S930,延平,2016-10-08,22.902581,121.084058,0.7325839
C0UA60,樟樹山,2016-10-08,24.41393,121.78325,0.9107528
C1S670,摩天,2016-10-08,23.199503,121.027,9.167333e-08
C0V630,茄萣,2016-10-08,22.906642,120.182608,0.095623955
466940,基隆,2016-10-08,25.133314,121.740475,0.8617658
C0X050,東河,2016-10-08,23.296598,120.385608,0.00027747618
C0R770,保力,2016-10-08,22.071122,120.764111,0.0024469274
G2L020,農試嘉義分所,2016-10-08,23.485028,120.473806,0.0024146345
C0X240,關子嶺,2016-10-08,23.331169,120.508025,1.0463793e-07
C0I380,集集,2016-10-08,23.828206,120.801467,0.002042236
466990,花蓮,2016-10-08,23.975128,121.613275,0.9996112
C1V220,小關山,2016-10-08,23.154217,120.813603,7.856056e-08
C1F9G1,慶福山,2016-10-08,24.180853,120.848378,0.00011652923
C0Z250,瑞穗林道,2016-10-08,23.49284,121.30688,8.433769e-08
C0D590,新豐,2016-10-08,24.87068,120.97721,0.006310486
C0A870,五指山,2016-10-08,25.132153,121.608692,0.9995047
C0UA50,西帽山,2016-10-08,24.555361,121.802628,0.046554547
C0X160,仁德,2016-10-08,22.968258,120.257689,0.0035189565
C1H971,六分寮,2016-10-08,23.92507,120.6378,7.79923e-07
C0W120,西嶼,2016-10-08,23.5626,119.468436,0.0019047256
C0G650,員林,2016-10-08,23.946503,120.585597,0.00077161007
C0AD50,鶯歌,2016-10-08,24.951533,121.346294,0.98367625
C2H9Q0,北東眼山,2016-10-08,24.120939,121.189303,3.052424e-08
C2H9T0,名間竹圍,2016-10-08,23.859914,120.637572,0.00012542839
C0S990,山豬窟,2016-10-08,22.318619,120.857372,0.011753736
72Q010,高雄農改,2016-10-08,22.709333,120.525889,2.2243837e-06
C0X190,安平,2016-10-08,22.993161,120.152181,0.3751132
C0K400,斗六,2016-10-08,23.720583,120.541127,0.005464974
12J990,口湖工作站,2016-10-08,23.589978,120.180394,0.061400857
C0O830,北寮,2016-10-08,23.079561,120.495008,1.0705996e-06
C1D410,白蘭,2016-10-08,24.579364,121.079947,1.4904103e-08
C0S970,加津林,2016-10-08,22.416211,120.926942,0.03683456
C0D700,關西,2016-10-08,24.7977,121.1732,0.9373163
C0M810,里佳,2016-10-08,23.389125,120.716647,3.1621752e-08
C0U750,龜山島,2016-10-08,24.841667,121.953133,0.39259556
C0R810,內獅,2016-10-08,22.305064,120.642986,0.3316525
C1M390,龍美,2016-10-08,23.406728,120.654417,4.7319087e-08
C2FB60,頭櫃山,2016-10-08,24.129842,120.858925,3.7943206e-08
C1H840,國三N238K,2016-10-08,23.841008,120.707711,0.001596762
CAQ030,崎峰國小,2016-10-08,22.42565,120.49521,0.000111987356
C2E520,大湖,2016-10-08,24.414939,120.870872,0.99519306
467530,阿里山,2016-10-08,23.508208,120.813242,3.3094842e-08
C1E691,南湖,2016-10-08,24.40135,120.837533,0.00014726484
C0FA30,梧棲,2016-10-08,24.256003,120.523381,0.01704205
C1V231,高中,2016-10-08,23.134911,120.716711,6.292227e-08
C0F9V0,新社,2016-10-08,24.200172,120.815806,0.00017446863
C0H890,埔里,2016-10-08,23.972169,120.952425,0.9306113
C0R690,墾丁,2016-10-08,21.966756,120.810269,0.030273072
C0F0D0,審馬陣,2016-10-08,24.381675,121.4203,3.8539405e-08
C0R820,白鷺,2016-10-08,22.454275,120.666219,2.1538117e-06
U2H480,臺大溪頭,2016-10-08,23.670306,120.798194,4.9455657e-08
C1V190,南天池,2016-10-08,23.27403,120.91176,3.267735e-08
K2E360,苗栗農改場,2016-10-08,24.495722,120.829111,0.98216754
CAJ050,海口故事園區,2016-10-08,23.57543,120.14121,0.059106495
C2H9D0,三隻寮,2016-10-08,24.093078,120.861578,1.8030067e-07
C0O990,媽廟,2016-10-08,22.99175,120.293525,0.0019609905
C0D480,打鐵坑,2016-10-08,24.849664,121.150789,0.9831419
C0Z220,和平林道,2016-10-08,24.343922,121.656317,0.91149366
C0TA10,花蓮漁港,2016-10-08,23.995322,121.638331,0.9996056
72C440,桃園農改場,2016-10-08,24.950944,121.030583,0.013132149
C1E711,馬拉邦山,2016-10-08,24.367306,120.901656,6.035413e-07
C0SB20,富岡,2016-10-08,22.792467,121.192669,0.007842443
C0D560,竹東,2016-10-08,24.767147,121.057881,0.9889334
C0F9U0,南屯,2016-10-08,24.137006,120.637969,0.007012689
C0M720,番路,2016-10-08,23.464657,120.554156,5.6159362e-05
C0F0A0,雪山圈谷,2016-10-08,24.388594,121.236339,5.1753712e-08
C1A9N0,四十份,2016-10-08,24.934158,121.593283,0.9955219
C0U760,東澳,2016-10-08,24.52196,121.83318,0.6148763
C0X230,鹽水,2016-10-08,23.272621,120.247641,0.2525434
C2H9H0,苗改南投蜂場,2016-10-08,23.852589,120.693481,0.002266
C0R950,萬隆國小,2016-10-08,22.507667,120.587817,0.0004013167
C0V370,古亭坑,2016-10-08,22.893178,120.401947,1.8765919e-06
C1I340,新興橋,2016-10-08,23.563333,120.868728,1.0581201e-07
C0SA80,土坂,2016-10-08,22.453108,120.887572,5.816973e-06
C0R160,鹽埔,2016-10-08,22.739558,120.530778,5.7815112e-05
C0AC40,大屯山,2016-10-08,25.175675,121.522408,0.86506504
466850,五分山雷達站,2016-10-08,25.071182,121.781205,0.99946135
C2H9L0,馬烈霸,2016-10-08,24.1512,121.201772,3.153436e-08
C1AI50,國三N016K,2016-10-08,25.034164,121.619664,0.97999334
C1V600,藤枝,2016-10-08,23.071961,120.757042,1.539296e-07
C1E601,南勢,2016-10-08,24.572486,120.734842,0.98066676
C0Z180,新城,2016-10-08,24.03946,121.60454,0.9996232
C0O980,新市,2016-10-08,23.061614,120.298197,0.00096899056
C0K420,西螺,2016-10-08,23.800407,120.467394,0.0054244343
C0Z050,佳心,2016-10-08,23.34567,121.21316,1.4303237e-07
C0AD30,蘆洲,2016-10-08,25.086594,121.472331,0.974647
C0V610,梓官,2016-10-08,22.760558,120.267211,0.056269698
K2F750,種苗改良場,2016-10-08,24.225972,120.800917,0.034336675
C0UA80,大溪漁港,2016-10-08,24.941801,121.902955,0.9891297
C1AI60,國一39K邊坡,2016-10-08,25.064361,121.383836,0.9883151
C0W150,金寧,2016-10-08,24.457703,118.328989,0.0126116425
C0R960,內埔,2016-10-08,22.608483,120.570714,0.0011536888
V2C250,八德合作社,2016-10-08,24.93775,121.266389,0.92939717
C2H9S0,龍南,2016-10-08,23.953536,120.833183,3.746162e-08
C0AH40,平等,2016-10-08,25.129142,121.577086,0.9929202
C0R540,佳冬,2016-10-08,22.419456,120.552375,0.000111987356
466950,彭佳嶼,2016-10-08,25.627975,122.079744,0.99388194
C0A890,雙溪,2016-10-08,25.036003,121.864242,0.9349803
C0C480,桃園,2016-10-08,24.992425,121.323172,0.9154238
C0AH50,林口,2016-10-08,25.072181,121.38084,0.7818301
A2K360,水試臺西試驗場,2016-10-08,23.717231,120.190522,0.016460216
B2N890,畜試所,2016-10-08,23.058972,120.336406,0.00024049699
C2M960,外寮,2016-10-08,23.562643,120.665688,4.815326e-08
C0F9S0,烏日,2016-10-08,24.107058,120.624103,0.000388253
C0C490,八德,2016-10-08,24.928708,121.283289,0.9213971
C0R190,赤山,2016-10-08,22.592333,120.614306,0.0005379033
C0T820,天祥,2016-10-08,24.179597,121.495639,0.60146624
C1F9E1,龍安,2016-10-08,24.1605,120.831961,3.157042e-05
C0V820,小林,2016-10-08,23.148408,120.63325,1.2426229e-07
C2G870,芳苑,2016-10-08,23.922303,120.320025,0.011376635
C0E850,大河,2016-10-08,24.618069,120.948578,0.99036723
C1U670,寒溪,2016-10-08,24.634,121.71691,0.9487369
C0N020,城西,2016-10-08,23.0568,120.0956,0.25923687
C1Z110,三棧,2016-10-08,24.11557,121.60501,3.7307498e-07
C0R280,檳榔,2016-10-08,22.076078,120.836777,0.022981979
C2H9J0,中台,2016-10-08,23.9996,120.938739,0.000930375
C0F9L0,后里,2016-10-08,24.310436,120.729725,0.9977781
C0D540,橫山,2016-10-08,24.71116,121.11693,0.9927639
C1D420,太閣南,2016-10-08,24.632808,121.160575,2.4856961e-08
C1E770,公館,2016-10-08,24.526914,120.830806,0.0037384648
CAN130,水試所海水繁養殖中心,2016-10-08,23.120802,120.07968,0.25740412
C1I430,翠華,2016-10-08,24.191961,121.224339,3.2078887e-08
C1M400,菜瓜坪,2016-10-08,23.251928,120.576103,3.6845998e-07
C0G730,二林,2016-10-08,23.903325,120.376081,0.0018995771
72M360,南改義竹分場,2016-10-08,23.360694,120.279361,0.0040256414
V2K620,麥寮合作社,2016-10-08,23.753836,120.294783,0.014991191
C0Z070,舞鶴,2016-10-08,23.46811,121.37407,0.998622
C0B040,大武崙,2016-10-08,25.166676,121.706993,0.9098367
C1Z030,紅葉,2016-10-08,23.493119,121.338806,0.9991638
C1I050,丹大,2016-10-08,23.753747,121.141147,2.7747031e-08
C0I080,信義,2016-10-08,23.689694,120.851036,1.9967301e-06
C2M920,朴子農改,2016-10-08,23.469889,120.259383,0.008819626
C2A880,福隆,2016-10-08,25.017842,121.942083,0.9861257
C0Z160,鳳林,2016-10-08,23.746114,121.453411,0.9994362
C0V210,復興,2016-10-08,23.222403,120.806089,1.2724914e-06
C0H990,昆陽,2016-10-08,24.121322,121.273642,2.8040873e-08
C0R741,獅子,2016-10-08,22.202308,120.705236,0.9480101
C0S710,鹿野,2016-10-08,22.917711,121.122994,6.0316197e-06
C0I530,小奇萊,2016-10-08,24.131764,121.295717,2.5961233e-08
C2K630,荷苞,2016-10-08,23.657717,120.595144,0.0016488457
C0Z080,富源,2016-10-08,23.587642,121.378225,0.9996209
467441,高雄,2016-10-08,22.7304,120.3125,0.0004785577
C0SB10,美和,2016-10-08,22.682078,121.060236,0.44188824
C2K620,馬光農場,2016-10-08,23.721453,120.378864,0.006987095
C1I140,卡奈托灣,2016-10-08,23.754364,121.087872,1.5361519e-07
C0I520,玉山風口,2016-10-08,23.470489,120.955994,4.579898e-08
C1G691,下水埔,2016-10-08,23.816114,120.5676,0.0030002198
C0X110,臺南市南區,2016-10-08,22.961189,120.188378,0.31132904
C0V680,仁武,2016-10-08,22.701083,120.347722,0.00023674585
C2G840,北斗,2016-10-08,23.877586,120.514222,0.0015749198
C0R900,竹坑,2016-10-08,22.1385,120.7022,0.071541026
C0K250,崙背,2016-10-08,23.75555,120.318925,0.015199117
C0G860,社頭,2016-10-08,23.897647,120.5862,0.0007341022
C0X150,安定,2016-10-08,23.102614,120.227839,0.37001127
C0R590,里港,2016-10-08,22.77919,120.49459,4.042337e-05
C0E610,馬都安,2016-10-08,24.451272,120.930192,0.96530205
C0E550,明德,2016-10-08,24.583486,120.885411,0.987804
C0R150,三地門,2016-10-08,22.709889,120.639944,9.0312846e-05
C0G910,花壇,2016-10-08,24.032076,120.549461,0.0008324752
C1D400,鳥嘴山,2016-10-08,24.71909,121.28387,0.0002927386
C0K500,元長,2016-10-08,23.64981,120.315024,0.011058515
C0F0B0,石岡,2016-10-08,24.276061,120.777644,0.059630964
C2V250,甲仙,2016-10-08,23.080106,120.591758,1.2899723e-07
C0SA20,金崙山,2016-10-08,22.567419,120.959667,6.0408546e-08
C0V350,溪埔,2016-10-08,22.738578,120.446797,1.374713e-05
C0M660,溪口,2016-10-08,23.604131,120.403569,0.004109272
C1S880,壽卡,2016-10-08,22.238911,120.858903,0.00061241456
72D680,桃改新埔分場,2016-10-08,24.834444,121.066111,0.96854335
