站號,站名,日期,lat,lon,BLBTSLS
C0R710,龍磐,2016-05-01,21.931672,120.838942,0.05372705
C1F9D1,白毛台,2016-05-01,24.158325,120.886933,2.5604982e-07
C0G940,竹塘,2016-05-01,23.848253,120.386764,0.0013210394
467590,恆春,2016-05-01,22.003897,120.746339,0.022547523
C1O850,環湖,2016-05-01,23.148617,120.418633,0.0027028439
C0U710,太平山,2016-05-01,24.505486,121.525656,2.3985762e-09
C0E820,獅潭,2016-05-01,24.539133,120.920042,6.926342e-07
C0V880,興達,2016-05-01,22.8778,120.2127,0.9971591
C0S890,關山,2016-05-01,23.0395,121.175017,0.7395154
C0SB30,新蘭,2016-05-01,22.869214,121.223228,1.6498398e-05
C2R970,屏科大,2016-05-01,22.648275,120.619247,0.99794394
K2F750,種苗繁殖,2016-05-01,24.225972,120.800917,4.2744057e-07
C1Z130,銅門,2016-05-01,23.965694,121.492842,0.0024661405
C0AD40,土城,2016-05-01,24.973208,121.445169,0.0075514065
CAN140,六官養殖協會,2016-05-01,23.22881,120.29962,0.9929637
C0X180,山上,2016-05-01,23.0757,120.363253,0.10919724
C0F9Z0,雪山東峰,2016-05-01,24.388792,121.268675,9.254009e-09
C1M480,獨立山,2016-05-01,23.537022,120.607797,1.5553537e-09
C0X220,學甲,2016-05-01,23.230367,120.182187,0.90895194
467650,日月潭,2016-05-01,23.881325,120.90805,1.5527454e-09
C0K600,箔子寮,2016-05-01,23.6197,120.14,0.12120539
C0G830,埤頭,2016-05-01,23.866003,120.452806,2.1217742e-05
C0S950,七塊厝,2016-05-01,22.954453,121.229922,3.0164365e-08
467110,金門,2016-05-01,24.407306,118.289281,1.1307891e-05
C0AH80,深坑,2016-05-01,25.002703,121.628328,0.0072849523
467990,馬祖,2016-05-01,26.169269,119.923419,8.370308e-08
C0A970,三貂角,2016-05-01,25.007606,122.002058,0.3606867
C2D730,寶山農場,2016-05-01,24.732444,120.976153,2.0152079e-06
C0K430,褒忠,2016-05-01,23.690938,120.303634,7.920275e-05
467480,嘉義,2016-05-01,23.495925,120.432906,2.2332271e-07
C2E540,後龍,2016-05-01,24.606489,120.783933,4.1601015e-06
C0V400,阿公店,2016-05-01,22.804194,120.355528,0.9958032
C0R440,大漢山,2016-05-01,22.405264,120.753181,6.237911e-10
C0K280,四湖,2016-05-01,23.630414,120.227125,0.00079973676
C1F9B1,桐林,2016-05-01,24.066172,120.735194,2.225571e-07
C2H9U0,鳳鵬,2016-05-01,23.763919,120.788061,3.3074758e-09
C0K390,土庫,2016-05-01,23.679029,120.395574,0.0004380126
C1I450,望鄉山,2016-05-01,23.594153,120.944286,4.779592e-09
C0E910,海埔,2016-05-01,24.648767,120.772435,2.1197468e-06
B2E890,畜試北區分所,2016-05-01,24.527806,120.770972,2.1639395e-05
C0R750,四林格山,2016-05-01,22.076989,120.802439,3.0682977e-06
C0F0C0,中坑,2016-05-01,24.248517,120.903319,3.6659473e-09
C1I121,大鞍,2016-05-01,23.678381,120.760017,1.4391175e-09
72U480,花改蘭陽分場,2016-05-01,24.686306,121.716583,0.49074388
C0A770,科教館,2016-05-01,25.096356,121.516507,0.008050746
C0AJ60,六塊厝,2016-05-01,25.24,121.4481,0.012796741
C0R620,墾雷,2016-05-01,21.900836,120.855269,0.026649253
467420,永康,2016-05-01,23.038386,120.2367,0.99554265
467300,東吉島,2016-05-01,23.25695,119.667467,0.99826455
C0I410,名間,2016-05-01,23.837053,120.701447,6.261698e-08
A2C560,農工中心,2016-05-01,24.985917,121.239833,4.8789883e-07
C0V740,旗山,2016-05-01,22.888614,120.483597,0.9597557
C0Z061,玉里,2016-05-01,23.3215,121.339656,0.0061728433
C0S840,南田,2016-05-01,22.279725,120.889208,0.019168852
C1I470,杉林溪,2016-05-01,23.639517,120.786444,1.4172493e-09
C1X040,東原,2016-05-01,23.291597,120.463822,6.6732205e-06
C0R660,枋寮,2016-05-01,22.367722,120.590647,0.0027853202
C1R120,上德文,2016-05-01,22.763272,120.704442,3.477306e-06
C0K450,大埤,2016-05-01,23.646074,120.431537,0.00031875868
C0UA00,土場,2016-05-01,24.576533,121.495333,0.003350304
467080,宜蘭,2016-05-01,24.763975,121.756528,0.057005897
C0N030,四草,2016-05-01,23.0235,120.1116,0.99753857
C0V650,彌陀,2016-05-01,22.783806,120.246361,0.9955071
C0D660,新竹市東區,2016-05-01,24.798681,120.986942,1.0014677e-06
82S580,茶改東部分場,2016-05-01,22.907694,121.130139,7.916041e-06
C0SB40,興隆,2016-05-01,22.913661,121.257469,0.0007721412
C0C710,大溪永福,2016-05-01,24.892936,121.324975,3.1889257e-07
C0FA20,溫寮,2016-05-01,24.372177,120.583125,0.00013396614
C0V640,湖內,2016-05-01,22.887139,120.2445,0.9973963
C0R910,下寮,2016-05-01,22.3929,120.5548,0.4894888
C0Z020,明里,2016-05-01,23.208717,121.262342,2.0157884e-06
C0M770,嘉義梅山,2016-05-01,23.585398,120.555587,1.1698413e-05
G2F820,農業試驗所,2016-05-01,24.031261,120.688133,1.2913459e-07
C0C660,楊梅,2016-05-01,24.912375,121.143047,1.6292198e-07
C1E511,新開,2016-05-01,24.347703,120.827019,0.0066236174
G2F820,農試所(霧峰),2016-05-01,24.031261,120.688133,1.2913459e-07
C1I070,和社,2016-05-01,23.591131,120.888861,2.2992253e-09
C2F000,大肚,2016-05-01,24.15295,120.572117,2.213148e-06
C1S850,豐南,2016-05-01,23.122139,121.262389,2.5829703e-08
C2A920,富貴角,2016-05-01,25.263783,121.565258,0.016981283
CAH030,茶改場竹圍站,2016-05-01,23.860083,120.637528,9.145761e-09
C0T960,光復,2016-05-01,23.660694,121.424964,0.32798153
C0F9M0,豐原,2016-05-01,24.254322,120.720692,8.935025e-07
C0R720,旭海,2016-05-01,22.205403,120.887614,0.06922657
C0V710,苓雅,2016-05-01,22.622742,120.330669,0.9864236
C0C740,觀音工業區,2016-05-01,25.064764,121.114856,1.5049284e-05
CAC040,拉拉山,2016-05-01,24.699317,121.427133,2.027968e-09
C0V790,萬山,2016-05-01,22.905944,120.688056,0.037486978
U2HA30,臺大和社,2016-05-01,23.590856,120.888864,2.2992253e-09
C0AJ90,澳底,2016-05-01,25.0552,121.9253,0.3263155
C0Z100,東華,2016-05-01,23.89525,121.549833,0.067241296
C0G970,三豐,2016-05-01,23.882,120.2895,5.1208986e-05
V2K610,大庄合作社,2016-05-01,23.8068,120.367939,6.507889e-07
C0V900,汕尾,2016-05-01,22.4782,120.4151,0.98981047
C1R630,龍泉,2016-05-01,22.66701,120.59091,0.950926
C1AC50,關渡,2016-05-01,25.133486,121.469331,0.008879333
C0F9I0,神岡,2016-05-01,24.272481,120.658314,1.952868e-06
C0K460,斗南,2016-05-01,23.678734,120.478359,3.5669756e-05
467410,臺南,2016-05-01,22.993239,120.204772,0.99518126
C2O810,曾文,2016-05-01,23.219681,120.497328,2.9775829e-06
467280,後龍,2016-05-01,24.648563,120.831834,9.354551e-07
C1F9J1,清水林,2016-05-01,24.071242,120.820419,2.0540277e-08
C2A650,火燒寮,2016-05-01,25.002719,121.742892,0.0047991034
466930,竹子湖,2016-05-01,25.162078,121.544547,3.6733404e-08
C1I220,樟湖,2016-05-01,23.905333,120.846983,1.1225252e-09
C0I390,仁愛,2016-05-01,24.022122,121.132206,2.6520917e-09
C0Z300,東里,2016-05-01,23.26853,121.30547,0.0033056256
C1V590,新發,2016-05-01,23.057019,120.646064,9.019993e-05
C0K510,水林,2016-05-01,23.572924,120.24597,0.11336721
72S590,東改賓朗果園,2016-05-01,22.813889,121.071278,1.7211418e-06
82A750,茶改北部分場,2016-05-01,24.955778,121.631222,0.00085643464
C1A750,石碇服務區,2016-05-01,25.00872,121.646242,0.0057964013
C0X300,鹿寮,2016-05-01,23.386047,120.477331,0.00072138227
G2AI50,關渡,2016-05-01,25.11575,121.492,0.008472748
C0K590,雲林東勢,2016-05-01,23.674192,120.255721,7.920275e-05
C0A570,桶後,2016-05-01,24.848222,121.597992,0.00010085634
C1S800,華源,2016-05-01,22.657883,121.02325,0.0008714902
C0G720,溪州,2016-05-01,23.851589,120.499093,1.0711791e-05
C1V160,達卡努瓦,2016-05-01,23.279811,120.705319,9.173919e-10
C2M410,馬頭山,2016-05-01,23.324361,120.582017,1.9267177e-06
C0V850,蚵仔寮,2016-05-01,22.7256,120.2527,0.9926524
C0S740,池上,2016-05-01,23.119628,121.209469,2.6538953e-07
C1V390,尖山,2016-05-01,22.813153,120.367789,0.99420184
C0AH70,松山,2016-05-01,25.04871,121.55042,0.01080285
C0N010,鯤鯓國小,2016-05-01,23.1879,120.0889,0.6416207
C0R550,新埤,2016-05-01,22.467947,120.582894,0.07687959
C0SA60,知本（水試所）,2016-05-01,22.702394,121.082761,0.012001391
C0T9I0,豐濱,2016-05-01,23.583897,121.514806,0.6673717
C0UB00,淡江大學蘭陽校園,2016-05-01,24.823239,121.730383,0.00014670816
C0W240,九宮,2016-05-01,24.423753,118.240186,5.9126225e-05
C0T9N0,富里,2016-05-01,23.171639,121.249378,1.7296783e-06
U2HA50,臺大竹山,2016-05-01,23.756972,120.681556,1.5346913e-08
C0V840,鳳鼻頭,2016-05-01,22.5083,120.3591,0.9845821
C0X140,西港,2016-05-01,23.125608,120.203108,0.94576705
72D080,桃改五峰分場,2016-05-01,24.612194,121.157167,1.0902946e-09
C2H9P0,伊拿谷,2016-05-01,23.963211,121.088264,8.818186e-09
C2H9F0,柑林,2016-05-01,24.018658,120.847072,3.2218552e-09
C0TA20,加灣,2016-05-01,24.082025,121.608944,0.20906162
C0V530,阿蓮,2016-05-01,22.883208,120.327508,0.99936664
C1O880,關山,2016-05-01,23.173397,120.594092,5.369912e-07
C0E791,卓蘭,2016-05-01,24.3126,120.8244,0.0045704287
C1I030,武界,2016-05-01,23.913225,121.052483,5.9361023e-09
C0R520,崁頂,2016-05-01,22.514781,120.506914,0.51093787
C0R341,牡丹,2016-05-01,22.130036,120.792639,0.028802363
C0R930,萬丹,2016-05-01,22.5885,120.4851,0.12618592
C0S760,紅石,2016-05-01,23.069131,121.126219,1.3947048e-09
C1M610,石磐龍,2016-05-01,23.496606,120.663506,9.611875e-10
C0UA10,鴛鴦湖,2016-05-01,24.590269,121.412228,2.199861e-09
V2C260,八德蔬果,2016-05-01,24.978508,121.281819,1.2262011e-06
C0R800,丹路,2016-05-01,22.204481,120.750989,0.0027644404
C0G920,永靖,2016-05-01,23.924703,120.547533,4.105382e-06
C2M950,太和,2016-05-01,23.538372,120.702961,8.9579016e-10
C1A630,下盆,2016-05-01,24.771003,121.538622,0.00056165195
B2N890,畜產試驗所,2016-05-01,23.058972,120.336406,0.9985801
C0UA30,白嶺,2016-05-01,24.527819,121.519031,6.623679e-09
C1V580,溪南(特生中心),2016-05-01,23.084972,120.788475,9.0513674e-10
C1T970,大農,2016-05-01,23.615233,121.413331,0.26456338
E2S960,林試太麻里2,2016-05-01,22.598014,120.989761,0.35186422
C0R650,竹田,2016-05-01,22.58486,120.54344,0.12618592
C1H900,清流,2016-05-01,24.080775,120.962997,6.9530074e-08
C1C510,水尾,2016-05-01,24.940081,121.087161,1.5082527e-06
C0F9X0,大雅(中科園區),2016-05-01,24.21528,120.62445,4.389856e-07
C0SB60,白守蓮,2016-05-01,23.126769,121.401914,0.044320025
C0O970,虎頭埤,2016-05-01,23.021375,120.347878,0.99808204
C0C730,中大臨海站,2016-05-01,24.966126,121.008581,0.0060746195
C0X250,新營,2016-05-01,23.310689,120.316681,0.9819838
C0V700,三民,2016-05-01,22.645017,120.311233,0.9864236
C0U870,大礁溪,2016-05-01,24.791042,121.675047,6.639512e-05
C0E870,高鐵苗栗,2016-05-01,24.60725,120.826094,3.408976e-06
A2K570,古坑花卉中心,2016-05-01,23.63353,120.55239,3.9830747e-06
C0M860,新美,2016-05-01,23.338017,120.683169,4.271068e-08
C1E701,八卦,2016-05-01,24.491756,120.927619,2.3057517e-06
C0I420,國姓,2016-05-01,24.037803,120.855072,6.2314236e-08
C2D720,關西工作站,2016-05-01,24.757275,121.184792,8.129895e-07
C0S960,香蘭,2016-05-01,22.587569,120.993375,0.3472427
C0R260,春日,2016-05-01,22.370361,120.628306,0.008086816
72G600,臺中農改場,2016-05-01,24.003028,120.534389,7.1121167e-06
C0Z210,瑞穗,2016-05-01,23.5239,121.39021,0.71257293
C0M820,達邦,2016-05-01,23.453994,120.749517,9.313768e-10
C0V860,南寮,2016-05-01,22.7616,120.2339,0.99554634
C0G740,大城,2016-05-01,23.852487,120.320935,3.2395066e-05
C0R920,塭仔,2016-05-01,22.4169,120.5197,0.48222512
C0R470,高樹,2016-05-01,22.826389,120.600806,0.9826872
C0R680,佳樂水,2016-05-01,21.993578,120.861633,0.020400641
C1O870,大棟山,2016-05-01,23.31157,120.52226,9.0046337e-10
C0D360,梅花,2016-05-01,24.678347,121.208558,2.3238277e-08
C0Z190,富世,2016-05-01,24.14743,121.6297,0.15379332
C0AI10,屈尺,2016-05-01,24.92184,121.54475,0.007283542
B2U990,畜試東區分所,2016-05-01,24.669039,121.832561,0.5024636
C0SB80,長濱漁港,2016-05-01,23.313644,121.459994,0.32426494
C0R240,來義,2016-05-01,22.527306,120.625111,0.011656932
C0V910,大樹,2016-05-01,22.684645,120.432803,0.9937032
C1R610,西大武山,2016-05-01,22.617719,120.7322,5.949634e-10
C0G900,線西,2016-05-01,24.143358,120.443536,8.423957e-06
C0M700,竹崎,2016-05-01,23.526178,120.555508,7.7729595e-07
C2E880,三義,2016-05-01,24.405478,120.749819,1.0362229e-06
C0C720,竹圍,2016-05-01,25.112692,121.239824,0.0124661615
C0F9P0,清水,2016-05-01,24.312297,120.562242,0.00014153548
C0Z150,吉安光華,2016-05-01,23.930925,121.595153,0.08719278
C1D640,外坪(五指山),2016-05-01,24.644447,121.090961,3.91442e-09
C0F9O0,潭子,2016-05-01,24.213106,120.703933,1.4775127e-07
C2H9R0,卓社,2016-05-01,23.887894,121.000086,1.3681358e-09
72T250,花蓮農改場,2016-05-01,23.975222,121.563889,0.14360456
C0E780,銅鑼,2016-05-01,24.489681,120.790853,7.343401e-06
C1T950,太安,2016-05-01,23.666719,121.370128,6.5664194e-09
C0E830,苑裡,2016-05-01,24.439714,120.653053,4.9951293e-05
467270,田中,2016-05-01,23.873803,120.581286,1.4074667e-06
C0SA10,檳榔四格山,2016-05-01,22.810031,121.109308,2.3800959e-07
C1T830,布洛灣,2016-05-01,24.17184,121.57127,0.4508048
C0F970,大坑,2016-05-01,24.173142,120.722289,1.7369863e-06
C1U920,思源,2016-05-01,24.393125,121.347214,1.6638203e-09
C0A931,三和,2016-05-01,25.233153,121.595236,0.021365304
C0I010,廬山,2016-05-01,24.033311,121.181808,1.0005984e-09
C2M940,日野賀,2016-05-01,23.434056,120.727169,9.498878e-10
C0R860,鼻頭,2016-05-01,22.1043,120.8979,0.007164708
C0UB20,壯圍,2016-05-01,24.7359,121.8163,0.5024636
C0R790,九棚,2016-05-01,22.14195,120.889281,0.052038565
C0W110,東莒,2016-05-01,25.9652,119.98069,1.8246949e-07
C1U930,粉鳥林,2016-05-01,24.497088,121.842479,0.40003905
C1I211,蘆竹湳,2016-05-01,23.934019,120.811994,1.8450143e-09
C0S830,長濱,2016-05-01,23.286817,121.411975,7.169807e-07
C1F9F1,伯公龍,2016-05-01,24.272392,120.849047,3.1066813e-06
C0E810,西湖,2016-05-01,24.562947,120.7485,2.3515197e-06
C1I440,新高口,2016-05-01,23.478744,120.878939,2.3083606e-09
C0O840,王爺宮,2016-05-01,23.222064,120.40085,2.9775829e-06
C0T9G0,鳳林山,2016-05-01,23.735269,121.420131,0.0010732674
C0X080,佳里,2016-05-01,23.173039,120.145086,0.9158088
C0FB70,大甲溪埔,2016-05-01,24.370625,120.620067,4.040976e-05
C0Z310,清水斷崖,2016-05-01,24.218294,121.689142,0.65176284
C0M680,太保,2016-05-01,23.455062,120.331455,0.115627125
C1S820,金峰,2016-05-01,22.590969,120.933236,0.001862727
C0AD10,八里,2016-05-01,25.150211,121.403947,0.012466179
C2K240,草嶺,2016-05-01,23.59555,120.693461,8.593363e-10
C1SA70,都蘭,2016-05-01,22.87794,121.226881,0.0007721412
C0K440,二崙,2016-05-01,23.772797,120.408944,0.0010074542
C1A760,坪林交控,2016-05-01,24.94284,121.713442,0.015990544
C0F9N0,大里,2016-05-01,24.092464,120.701378,4.3539995e-07
C0SA90,達仁林場,2016-05-01,22.264347,120.823972,0.0008070025
C1R290,石門山,2016-05-01,22.112611,120.756597,8.567692e-05
42HA10,萬大發電廠,2016-05-01,23.978875,121.139639,2.5256577e-09
C0R890,山海,2016-05-01,21.9878,120.7091,0.015007246
C0T9A0,月眉山,2016-05-01,23.809928,121.539828,1.0533845e-06
C0AC70,信義,2016-05-01,25.037822,121.564597,0.01080285
C0K560,棋山,2016-05-01,23.68645,120.603417,9.539609e-05
C2FB50,出雲,2016-05-01,24.206469,120.902794,6.295922e-09
C1Z240,中平林道,2016-05-01,23.42115,121.26763,2.0843682e-09
U2H480,溪頭,2016-05-01,23.670306,120.798194,1.4860381e-09
C0M880,好美里,2016-05-01,23.3364,120.138,0.9158088
C0T9E0,大坑,2016-05-01,23.880628,121.581981,1.6629365e-05
C0K530,臺西,2016-05-01,23.701547,120.197559,0.00049793674
C1E900,國一N128K,2016-05-01,24.560997,120.844186,1.4055875e-06
C0AJ50,水湳洞,2016-05-01,25.123695,121.862238,0.13154794
C0AI20,白沙灣,2016-05-01,25.283128,121.519058,0.02874656
C0A860,大坪,2016-05-01,25.165914,121.632969,1.3544245e-06
C1U850,觀音海岸,2016-05-01,24.38319,121.77856,1.8304395e-07
C2K610,草嶺石壁,2016-05-01,23.602469,120.707731,9.230858e-10
C0U950,鶯子嶺,2016-05-01,24.89754,121.79244,1.7470853e-08
C0O900,善化,2016-05-01,23.112883,120.297219,0.99894685
C0K550,蔦松,2016-05-01,23.514319,120.229736,0.20799054
E2P980,林試六龜中心,2016-05-01,22.991703,120.645722,0.81069773
C0E590,通霄,2016-05-01,24.471892,120.704622,7.577039e-05
C1I310,西巒,2016-05-01,23.754486,120.883956,1.2036645e-09
C0A550,泰平,2016-05-01,24.971197,121.823711,0.00013997457
C0I360,水里,2016-05-01,23.812553,120.849792,1.7329803e-08
C0R830,高士,2016-05-01,22.121825,120.836781,3.4093773e-05
C1I101,溪頭,2016-05-01,23.661789,120.807647,1.904889e-09
C0AJ20,野柳,2016-05-01,25.20703,121.690021,0.13154794
C0B060,暖暖,2016-05-01,25.0957,121.7403,0.08572869
C1H920,長豐,2016-05-01,24.102039,120.879897,1.2611944e-08
C0V360,內門,2016-05-01,22.975481,120.466769,0.36029416
C0R850,林邊,2016-05-01,22.4634,120.5339,0.51093787
C0E930,龍鳳,2016-05-01,24.700034,120.859125,9.008813e-07
C0U910,冬山,2016-05-01,24.63373,121.7937,0.5024636
C1E721,泰安,2016-05-01,24.489017,120.968036,1.4902446e-09
82H320,茶改中部分場,2016-05-01,23.875611,120.913583,1.7301621e-09
C0M750,布袋,2016-05-01,23.380878,120.167789,0.20989576
C1S860,利嘉,2016-05-01,22.809417,121.050528,3.4363342e-08
72C440,桃園農改,2016-05-01,24.950944,121.030583,0.0025579154
E2S980,林試太麻里1,2016-05-01,22.598922,120.980044,0.08150882
C0X170,關廟,2016-05-01,22.963017,120.327797,0.999186
C0V720,林園,2016-05-01,22.507747,120.394511,0.98636234
C1I510,線浸林道,2016-05-01,23.761508,120.832956,1.5179048e-09
C0D690,外湖,2016-05-01,24.917735,120.968711,0.0060746195
C0C750,新興坑尾,2016-05-01,25.0061,121.0971,8.907578e-07
B2Q810,畜試南區分所,2016-05-01,21.945583,120.802167,0.02039419
C0S790,金崙,2016-05-01,22.538122,120.966875,0.00050844386
C0AH90,福山植物園,2016-05-01,24.760717,121.58135,1.6180998e-08
C0I540,奇萊稜線,2016-05-01,24.109231,121.326456,6.8649646e-09
C0M850,表湖,2016-05-01,23.24186,120.64166,2.0732752e-08
C0S770,大溪山,2016-05-01,22.478475,120.943325,1.8026575e-06
C0AG80,中和,2016-05-01,24.991622,121.491792,0.01080285
C0T790,大禹嶺,2016-05-01,24.186117,121.316086,3.6497472e-09
C0T9B0,水源,2016-05-01,23.991861,121.537169,2.6611184e-07
C0R840,牡丹池山,2016-05-01,22.168389,120.841225,0.0014668845
C1I131,桶頭,2016-05-01,23.641944,120.654117,1.0869401e-07
CAL110,布袋國中,2016-05-01,23.35893,120.18026,0.8561011
467571,新竹,2016-05-01,24.827853,121.014219,1.7387896e-06
C0Z290,赤柯山,2016-05-01,23.36893,121.38293,4.8946074e-09
C0X280,將軍,2016-05-01,23.214999,120.13577,0.9158088
C0S690,太麻里,2016-05-01,22.60902,120.98533,1.46971795e-08
C0U880,北關,2016-05-01,24.9072,121.8734,0.024436405
C1H860,瑞岩,2016-05-01,24.123772,121.18345,2.189747e-09
C0G810,埔心,2016-05-01,23.947633,120.525456,4.5368843e-06
C0U970,大福,2016-05-01,24.80064,121.81389,0.058913525
C2H9N0,仁愛東眼,2016-05-01,24.026875,121.1205,7.6464675e-09
C1E670,南礦,2016-05-01,24.538278,121.002836,1.6180803e-09
C0M520,東後寮,2016-05-01,23.369908,120.248065,0.85409886
C1E461,松安,2016-05-01,24.397972,120.986022,1.8083728e-09
72G600,臺中農改,2016-05-01,24.003028,120.534389,7.1121167e-06
C2N160,西拉雅風管處,2016-05-01,23.189481,120.335297,0.98682094
C2M970,碧湖,2016-05-01,23.568632,120.624165,9.473999e-10
C0A640,石碇,2016-05-01,24.993969,121.662917,0.030981598
E2S960,林試太麻里2,2016-05-01,22.598,120.99775,0.4032034
C0F9Y0,桃山,2016-05-01,24.432739,121.303808,1.0361785e-08
C1I020,萬大,2016-05-01,23.979817,121.132261,2.5465157e-09
C0U940,羅東,2016-05-01,24.68184,121.74934,0.49701616
C0M650,朴子,2016-05-01,23.43463,120.23902,0.20633939
C1I500,大尖山,2016-05-01,23.858572,120.994889,1.6506205e-09
C0G820,田尾,2016-05-01,23.901669,120.509389,4.105382e-06
E2K600,四湖植物園,2016-05-01,23.676986,120.163433,0.000496022
C0S730,綠島,2016-05-01,22.6672,121.47533,0.5066585
12Q970,東港工作站,2016-05-01,22.479997,120.466058,0.4894888
C0E430,南庄,2016-05-01,24.601775,121.000214,6.042566e-07
C1TA00,太魯閣,2016-05-01,24.15773,121.6236,0.6643672
466920,臺北,2016-05-01,25.037658,121.514853,0.01080285
C0R600,舊泰武,2016-05-01,22.588194,120.664944,7.513788e-06
C1I260,北坑,2016-05-01,23.9246,121.006903,4.5156474e-09
466910,鞍部,2016-05-01,25.182586,121.529731,1.1828813e-08
C1I230,九份二山,2016-05-01,23.961944,120.845,2.473946e-09
C2A660,瑞芳,2016-05-01,25.113169,121.801147,0.2081395
C0R270,琉球嶼,2016-05-01,22.332244,120.362236,0.008086816
C1T990,高寮,2016-05-01,23.394239,121.356808,0.7586623
C0G620,芬園,2016-05-01,24.015678,120.6213,7.044702e-08
C1Z140,荖溪,2016-05-01,23.890575,121.45964,2.4277989e-09
C1I201,中心崙,2016-05-01,23.728722,120.712097,1.6518614e-09
C1I400,凌霄,2016-05-01,24.018778,121.004456,9.878952e-09
C1M640,十字,2016-05-01,23.492153,120.753683,1.4870531e-09
G2P820,農試鳳山分所,2016-05-01,22.646611,120.356083,0.9861256
C0Z270,蕃薯寮,2016-05-01,23.73835,121.540108,0.12366058
C0F9Q0,外埔,2016-05-01,24.347817,120.705686,3.984059e-06
C0K580,高鐵雲林,2016-05-01,23.737456,120.417944,0.0004380126
C2I090,鳳凰,2016-05-01,23.728081,120.787347,1.5270724e-09
C0U990,員山,2016-05-01,24.74435,121.72247,0.49701607
C0V770,大社,2016-05-01,22.730306,120.346639,0.99344075
C0X120,麻豆,2016-05-01,23.183289,120.248611,0.90895194
C0C670,龍潭,2016-05-01,24.870056,121.221389,1.0551853e-08
C0D680,香山濕地,2016-05-01,24.783581,120.914988,2.3424223e-05
C0S980,勝林山,2016-05-01,22.430439,120.8938,3.5302705e-07
C0V730,大寮,2016-05-01,22.605614,120.395717,0.124020204
C0R570,麟洛,2016-05-01,22.65078,120.52719,0.99371994
C2M930,石卓,2016-05-01,23.478744,120.702264,1.4723378e-09
C0G9B0,和美,2016-05-01,24.105169,120.492131,0.00022611293
CAG100,王功漁港,2016-05-01,23.96824,120.32586,7.7798046e-07
C0X290,北門,2016-05-01,23.267772,120.125481,0.9158088
C2F930,大甲,2016-05-01,24.347667,120.640403,7.631217e-06
C0D650,湖口,2016-05-01,24.904794,121.043628,0.0012329579
C0E420,竹南,2016-05-01,24.708978,120.888897,9.864729e-06
C0U780,五結,2016-05-01,24.68637,121.79794,0.5024636
C1I250,鯉潭,2016-05-01,23.961922,120.991131,1.2611944e-08
C0R130,阿禮,2016-05-01,22.742908,120.743678,2.1754265e-09
C0X100,臺南市北區,2016-05-01,23.010394,120.194228,0.99588203
C0S920,金峰嘉蘭,2016-05-01,22.594789,120.960825,0.06645521
C0V490,新興,2016-05-01,22.627422,120.298803,0.98636234
C0F9K0,大安,2016-05-01,24.345061,120.588025,8.020333e-05
72N100,臺南農改,2016-05-01,23.0605,120.342194,0.9985801
467290,古坑,2016-05-01,23.633639,120.551889,3.9830747e-06
C2E970,八甲,2016-05-01,24.535811,120.795983,6.04502e-06
C0V440,鳳山,2016-05-01,22.646653,120.356122,0.9861256
C1T940,大觀,2016-05-01,23.714206,121.373133,0.0035404016
72T250,花蓮農改,2016-05-01,23.975222,121.563889,0.14360456
C0E740,造橋,2016-05-01,24.637056,120.864778,4.9040386e-07
C0R100,尾寮山,2016-05-01,22.833111,120.683889,2.5537434e-09
A2K630,臺大雲林校區,2016-05-01,23.730628,120.423903,0.0004380126
C0D580,寶山,2016-05-01,24.735006,121.025192,4.4781846e-08
E2P990,林試扇平站,2016-05-01,22.9677,120.6857,0.0375262
C0AI30,三重,2016-05-01,25.057328,121.500629,0.008050746
C0AH00,汐止,2016-05-01,25.066881,121.658778,0.13154794
C1Z040,立山,2016-05-01,23.443356,121.327375,0.0017948014
C0W130,花嶼,2016-05-01,23.40007,119.32276,0.7478567
C0A950,鼻頭角,2016-05-01,25.129036,121.923372,0.33459535
C0K470,林內,2016-05-01,23.748675,120.609642,5.1197553e-06
C2F990,摩天嶺,2016-05-01,24.322458,120.936819,2.9037832e-09
82C160,茶改場,2016-05-01,24.908472,121.185333,2.59655e-07
C0Z320,清水林道,2016-05-01,23.27125,121.188272,4.1477923e-09
C0R760,南仁湖,2016-05-01,22.084681,120.863353,7.333676e-05
C0M670,大林,2016-05-01,23.600616,120.45841,2.3450357e-07
C0M800,茶山,2016-05-01,23.299075,120.664767,4.896631e-06
C0A9C0,天母,2016-05-01,25.117494,121.537169,0.0071653635
72K220,南改斗南分場,2016-05-01,23.634556,120.477333,4.082491e-05
72AI40,桃改樹林分場,2016-05-01,24.944503,121.386972,0.0067131985
C0S910,蘭嶼燈塔,2016-05-01,22.081197,121.503117,0.013959458
C0B050,八斗子,2016-05-01,25.144754,121.79167,0.13598925
C0U900,內城,2016-05-01,24.71813,121.68766,0.052353065
C0X320,柳營,2016-05-01,23.253328,120.375253,0.00035137177
C0M790,新港,2016-05-01,23.553269,120.345728,0.009185032
C0F9T0,西屯,2016-05-01,24.179494,120.641275,2.3278017e-06
C0SA30,都歷,2016-05-01,23.020333,121.323642,0.3391126
C0C620,蘆竹,2016-05-01,25.084275,121.265767,0.011062234
C0R730,大坪頂,2016-05-01,22.024633,120.69355,0.0060895802
C0AJ40,石門,2016-05-01,25.273672,121.601198,0.0009941899
C0E750,苗栗,2016-05-01,24.564569,120.824575,1.6493221e-06
C0T870,鯉魚潭,2016-05-01,23.935639,121.508944,0.036591247
C1V170,排雲,2016-05-01,23.463619,120.954147,1.0239933e-08
C2H950,中寮,2016-05-01,23.884447,120.766406,8.5863885e-09
C0R350,貓鼻頭,2016-05-01,21.921774,120.7358,0.026649253
C0V660,岡山,2016-05-01,22.797078,120.294958,0.99765074
C1H941,雙冬,2016-05-01,23.967378,120.802189,4.049368e-09
C0AJ70,田寮,2016-05-01,25.2698,121.4886,0.029937143
C0AI00,五股,2016-05-01,25.07445,121.42728,7.4774505e-07
C0Z280,德武,2016-05-01,23.47426,121.41071,0.62954587
C0R700,枋山,2016-05-01,22.246844,120.661086,0.00295034
C0C460,復興,2016-05-01,24.820208,121.352281,2.894857e-06
E2H360,蓮華池,2016-05-01,23.918333,120.885278,1.7680089e-09
C0M640,中埔,2016-05-01,23.42538,120.5229,1.29408345e-05
C0W140,金沙,2016-05-01,24.488292,118.408778,3.7311034e-05
C2A540,四堵,2016-05-01,24.8926,121.745736,3.6357647e-05
C0ACA0,新莊,2016-05-01,25.051478,121.446756,0.0151443845
C0R220,潮州,2016-05-01,22.534361,120.54,0.0021119146
U2HA40,臺大內茅埔,2016-05-01,23.689722,120.851117,2.6082225e-09
467490,臺中,2016-05-01,24.145736,120.684075,2.1533566e-07
C0U960,翠峰湖,2016-05-01,24.510856,121.608044,2.283814e-09
E2HA20,林試畢祿溪站,2016-05-01,24.226944,121.308522,1.6180217e-09
C0V890,前鎮,2016-05-01,22.5718,120.3117,0.9858732
467620,蘭嶼,2016-05-01,22.036969,121.558339,0.00084344525
C1F941,雪嶺,2016-05-01,24.280586,121.026642,4.4042245e-09
C2H9E0,國姓南港,2016-05-01,23.911108,120.846556,1.1121254e-09
C0AC80,文山,2016-05-01,25.00235,121.575728,0.007283542
C0F9R0,龍井,2016-05-01,24.184536,120.528972,3.3297893e-05
C0M760,民雄,2016-05-01,23.551754,120.428457,3.1093438e-07
C0UA40,西德山,2016-05-01,24.560647,121.752608,3.4026346e-08
C1T920,中興,2016-05-01,23.769503,121.498653,0.046685852
C0D550,雪霸,2016-05-01,24.526972,121.11605,1.8187848e-09
C2F860,梨山,2016-05-01,24.247522,121.243669,1.7018446e-09
C0R320,車城,2016-05-01,22.0744,120.716247,0.015007246
C1S870,南美山,2016-05-01,23.15025,121.382333,0.7297257
C0B020,基隆嶼,2016-05-01,25.19141,121.78391,0.13129023
C1U501,牛鬥,2016-05-01,24.637836,121.573656,0.011730939
C0M730,嘉義市東區,2016-05-01,23.457673,120.460531,1.4932009e-07
C0S700,知本,2016-05-01,22.684866,121.005642,2.2805809e-08
C1N001,沙崙,2016-05-01,22.935472,120.309406,0.99936664
C0V760,橋頭,2016-05-01,22.757806,120.30575,0.9977938
C0G960,福寶,2016-05-01,24.0443,120.3814,0.00032450765
C0X210,白河,2016-05-01,23.347466,120.414427,0.0002485408
C0S810,東河,2016-05-01,22.972672,121.303986,0.0013381259
C2R170,屏東,2016-05-01,22.66027,120.49403,0.99425036
C0R670,楓港,2016-05-01,22.190131,120.692156,0.00295034
C0FA50,霧峰,2016-05-01,24.0419,120.6995,1.0014393e-07
C0UB10,蘇澳,2016-05-01,24.5969,121.8571,0.7175573
C0G950,防潮門,2016-05-01,24.1835,120.4871,4.4462813e-05
C0M740,六腳,2016-05-01,23.492871,120.290625,0.19706482
C1R250,力里,2016-05-01,22.428117,120.629228,0.011656932
C0K330,虎尾,2016-05-01,23.719183,120.442036,0.0003246837
C2FA00,烏石坑,2016-05-01,24.273503,120.947617,3.084177e-09
C0V620,永安,2016-05-01,22.82315,120.236856,0.9955071
C1I330,楓樹林,2016-05-01,23.986803,121.076117,1.5515197e-09
C0W200,湖西,2016-05-01,23.596314,119.67275,0.9753069
72Q010,高雄農改場,2016-05-01,22.709333,120.525889,0.99188197
C0SA40,瑞和,2016-05-01,22.974361,121.156697,0.7257492
C0C680,龜山,2016-05-01,25.02846,121.38656,0.0065271696
C2V260,月眉,2016-05-01,22.971003,120.539853,0.35449588
C0V450,鳳森,2016-05-01,22.545064,120.392592,0.040444892
C0U720,南山,2016-05-01,24.43742,121.38167,1.3923851e-08
A2N290,臺南蘭花園區,2016-05-01,23.340258,120.379661,0.00035137177
C0R560,新園,2016-05-01,22.5434,120.461558,0.51093787
C0U890,三星,2016-05-01,24.66812,121.65302,0.048121512
C1V300,御油山,2016-05-01,23.001983,120.715364,8.9575775e-10
C0U600,礁溪,2016-05-01,24.817539,121.765608,0.055455428
C1T980,龍澗,2016-05-01,24.023289,121.411328,3.560084e-09
C0D670,海天一線,2016-05-01,24.831986,120.914438,3.255363e-05
C0SA00,歷坵,2016-05-01,22.520969,120.89185,3.5691667e-07
C0M710,東石,2016-05-01,23.458927,120.15385,0.20799042
C0M780,鹿草,2016-05-01,23.41134,120.30835,0.040962934
C0U520,雙連埤,2016-05-01,24.753033,121.641303,4.747856e-05
C0B010,七堵,2016-05-01,25.094819,121.71713,0.122527905
C0R480,長治,2016-05-01,22.693128,120.542622,0.23618819
C1V830,國三S383K,2016-05-01,22.781967,120.426475,0.9882829
12Q980,恆春工作站,2016-05-01,22.079678,120.714425,0.015007246
C1O940,東山服務區,2016-05-01,23.286016,120.398472,0.0001303853
C1U840,東澳嶺,2016-05-01,24.5378,121.8485,2.3166479e-07
C1D630,飛鳳山,2016-05-01,24.766464,121.119178,2.0584312e-09
C0S940,石寧山,2016-05-01,23.223772,121.406639,0.00034257534
C0K410,北港,2016-05-01,23.573957,120.292802,0.016828125
C2M620,瑞里,2016-05-01,23.545133,120.675197,8.960243e-10
C0SB70,小港漁港,2016-05-01,23.158558,121.400431,0.020627929
C2O950,安南,2016-05-01,23.076694,120.144861,0.45444208
C0F0E0,南湖圈谷,2016-05-01,24.363714,121.444667,1.1571317e-08
467610,成功,2016-05-01,23.097486,121.373428,0.082147986
C0G890,伸港,2016-05-01,24.148933,120.484403,1.3491386e-05
C2E540,龍溪,2016-05-01,24.606489,120.783933,4.1601015e-06
C1V200,梅山,2016-05-01,23.268447,120.823556,3.6197356e-09
C0T9H0,加路蘭山,2016-05-01,23.682947,121.5274,3.3886724e-06
C2O930,玉井,2016-05-01,23.126042,120.46055,0.002690918
C1F911,新伯公,2016-05-01,24.221361,120.841069,2.4186754e-06
C0R490,九如,2016-05-01,22.7405,120.490503,0.9937248
C0X200,左鎮,2016-05-01,23.056758,120.408522,0.20030715
C0SB50,叭嗡嗡,2016-05-01,23.047062,121.343223,0.0048549543
C1F891,稍來,2016-05-01,24.265689,121.001142,2.4266322e-09
72N240,七股研究中心,2016-05-01,23.081672,120.062894,0.26849473
C0C700,中壢,2016-05-01,24.977661,121.256375,7.5352125e-07
C0M690,水上,2016-05-01,23.419734,120.388909,3.4046153e-07
C0V690,鼓山,2016-05-01,22.623325,120.275575,0.98636234
C0O860,大內,2016-05-01,23.11885,120.36083,0.9318975
C0Z200,萬榮,2016-05-01,23.709219,121.420106,0.036574777
C0T9D0,和中,2016-05-01,24.26676,121.74103,0.74139106
C1O921,楠西,2016-05-01,23.183511,120.484083,3.7882564e-05
C0AJ30,淡水觀海,2016-05-01,25.184591,121.408616,0.012796741
C0V810,左營,2016-05-01,22.67491,120.28491,0.99318564
C0UA70,桃源谷,2016-05-01,24.962606,121.888875,2.5348972e-06
C0X130,官田,2016-05-01,23.193217,120.315422,0.98985857
C1H000,翠峰,2016-05-01,24.109397,121.205211,1.7894911e-09
C0UA90,石城,2016-05-01,24.980444,121.951214,0.3938723
C1E681,南勢山,2016-05-01,24.421669,120.923831,7.648087e-09
C0A9F0,內湖,2016-05-01,25.079422,121.57545,0.01080285
C0K291,宜梧,2016-05-01,23.536281,120.169329,0.264428
C1K540,口湖,2016-05-01,23.585344,120.180517,0.12202579
C0R780,滿州,2016-05-01,22.024403,120.839892,0.029178305
C0V870,文安,2016-05-01,22.8025,120.2164,0.99554634
C0U650,玉蘭,2016-05-01,24.675286,121.587061,0.025015134
C0R640,東港,2016-05-01,22.46247,120.44074,0.9846582
K2E360,苗栗農改,2016-05-01,24.495722,120.829111,3.8814855e-05
C0AJ80,板橋,2016-05-01,25.0107,121.4489,0.0075528002
C0S660,下馬,2016-05-01,23.150427,121.070312,3.6957286e-09
C1H9B1,阿眉,2016-05-01,24.1263,120.994672,1.8478599e-09
C0UA20,多加屯,2016-05-01,24.368614,121.373189,3.2480474e-09
C0E730,頭份,2016-05-01,24.688247,120.912206,9.864729e-06
72V140,高改旗南分場,2016-05-01,22.857861,120.516667,0.045197576
C0K480,莿桐,2016-05-01,23.761192,120.502372,1.8957138e-05
C0U980,坪林石牌,2016-05-01,24.86478,121.77396,0.00032087747
C0T900,西林,2016-05-01,23.8119,121.441458,0.030628717
C1I150,青雲,2016-05-01,23.793361,120.949378,1.5172911e-09
467350,澎湖,2016-05-01,23.565503,119.563094,0.9688198
C0G800,埔鹽,2016-05-01,24.000394,120.431683,0.00019405046
C0H960,草屯,2016-05-01,23.973672,120.68085,1.296352e-07
C1V780,多納林道,2016-05-01,22.888028,120.737917,1.1442044e-09
C0E920,通霄漁港,2016-05-01,24.498589,120.673876,0.0003783617
C0Z330,安通山,2016-05-01,23.290728,121.348528,2.4737865e-08
C0AH10,永和,2016-05-01,25.01125,121.508111,0.011262692
C0AK10,太平里,2016-05-01,25.134937,121.364899,0.0151443845
C2G640,鹿港,2016-05-01,24.0753,120.430481,0.00019436877
C1E890,國三N149K,2016-05-01,24.463414,120.680019,3.9767663e-05
C1R110,口社,2016-05-01,22.770111,120.645222,0.97877383
C1M870,國三N285K,2016-05-01,23.550319,120.505833,1.6854615e-06
467050,新屋,2016-05-01,25.006744,121.047486,0.0044487976
C1E480,鳳美,2016-05-01,24.554803,121.034747,2.3699052e-08
C0M530,奮起湖,2016-05-01,23.493903,120.699253,9.021481e-10
C0C590,觀音,2016-05-01,25.027072,121.153317,0.004364321
C0T9M0,靜浦,2016-05-01,23.455167,121.495028,0.78657335
C2H9M0,發祥,2016-05-01,24.154094,121.164517,6.944403e-09
C0AI40,石牌,2016-05-01,25.115597,121.513139,0.0075528002
C1F871,上谷關,2016-05-01,24.203483,121.018644,3.084177e-09
C2H9G0,百勝,2016-05-01,24.051142,120.909361,3.496343e-07
C0G880,二水,2016-05-01,23.810742,120.6173,1.1524929e-06
C0R940,加祿堂,2016-05-01,22.3363,120.6217,0.0068445
C0W220,北竿,2016-05-01,26.220358,119.974881,2.2756085e-07
C0O960,崎頂,2016-05-01,22.959547,120.369317,0.23391722
C0S750,向陽,2016-05-01,23.248397,120.986133,1.8344697e-09
C0T9F0,水璉,2016-05-01,23.797131,121.542514,0.0034246563
C1M600,頭凍,2016-05-01,23.406364,120.603339,1.1814512e-09
467660,臺東,2016-05-01,22.752211,121.154586,8.341837e-05
C1D380,新埔,2016-05-01,24.84745,121.03834,1.8789865e-07
C2G980,田頭村,2016-05-01,23.8263,120.444175,0.0010074542
C0V750,路竹,2016-05-01,22.854997,120.259439,0.99858946
C0N050,蚵寮,2016-05-01,23.301,120.1104,0.6416207
72M700,南改鹿草分場,2016-05-01,23.416869,120.283061,0.04873625
C1SA50,利嘉林道,2016-05-01,22.82325,121.009389,5.9585487e-10
467550,玉山,2016-05-01,23.487614,120.959522,1.2224335e-08
C0A940,金山,2016-05-01,25.223628,121.643967,0.026219072
C1V340,大津,2016-05-01,22.888322,120.645986,0.99725235
C0W180,七美,2016-05-01,23.219333,119.444892,0.9927304
C1F9C1,白冷,2016-05-01,24.182844,120.929889,4.3964044e-07
K2E710,苗改生物防治研究中心,2016-05-01,24.422861,120.871833,5.3845247e-06
C0N040,蘆竹溝,2016-05-01,23.2344,120.0961,0.6416207
C2W230,畜試所澎湖,2016-05-01,23.628342,119.513206,0.2948766
C0R880,後壁湖,2016-05-01,21.9457,120.7457,0.0121305315
C1I280,埔中,2016-05-01,23.820778,120.642594,2.4794646e-08
467790,墾丁雷達站,2016-05-01,21.948235,120.808028,0.034103367
C0W190,望安,2016-05-01,23.380564,119.494075,0.91098
466881,新北,2016-05-01,24.9593,121.52,0.009337872
C0Z170,卓溪,2016-05-01,23.3443,121.3029,0.0017450076
C0F850,東勢,2016-05-01,24.246428,120.833047,8.550903e-06
466900,淡水,2016-05-01,25.164889,121.448906,0.012424558
C0I370,魚池,2016-05-01,23.895703,120.94135,1.936116e-09
C0C630,大溪,2016-05-01,24.882853,121.265547,2.7282858e-06
C0A520,山佳,2016-05-01,24.974944,121.402008,0.0067132018
C0I110,竹山,2016-05-01,23.761225,120.688156,1.7811663e-08
82H840,茶改南部分場,2016-05-01,23.762528,120.7405,2.1001354e-09
C0G660,溪湖,2016-05-01,23.94835,120.479122,7.4674476e-06
C1T800,洛韶,2016-05-01,24.204558,121.453956,4.3492454e-09
C1T810,慈恩,2016-05-01,24.192044,121.388386,1.6082099e-09
C1E451,象鼻,2016-05-01,24.368617,120.940228,7.648087e-09
C0AC60,三峽,2016-05-01,24.939025,121.369728,0.008408854
C0I490,萬大林道,2016-05-01,23.928228,121.091411,1.9546498e-09
C1I290,豐丘,2016-05-01,23.668178,120.887417,1.5179048e-09
C1I320,奧萬大,2016-05-01,23.952956,121.178556,1.5200081e-09
C2M910,嘉義大學,2016-05-01,23.471325,120.485903,8.907876e-06
C0U770,南澳,2016-05-01,24.44935,121.81022,0.78632
C0A980,社子,2016-05-01,25.109508,121.469681,0.008485949
C0V800,六龜,2016-05-01,22.997889,120.633583,0.84887874
C1G9D0,國一S218K,2016-05-01,23.890641,120.493253,4.5407714e-06
C0E570,白沙屯,2016-05-01,24.549447,120.696803,0.00037836135
C2F9A0,中竹林,2016-05-01,24.103556,120.751061,1.3255629e-08
C0FA40,臺中電廠,2016-05-01,24.2146,120.4907,3.3297893e-05
C2G9A0,畜試所彰化,2016-05-01,23.86045,120.557964,1.4030643e-06
C0H9C0,合歡山,2016-05-01,24.143442,121.272547,8.002371e-09
C0X060,下營,2016-05-01,23.22695,120.256261,0.9944191
G2M350,農試溪口農場,2016-05-01,23.58565,120.408111,4.718669e-07
C0U860,頭城,2016-05-01,24.85323,121.8308,0.057005897
C0R580,南州,2016-05-01,22.48591,120.50274,0.4894888
C0D430,峨眉,2016-05-01,24.6905,121.017189,2.0162615e-06
C0G780,秀水,2016-05-01,24.03405,120.503869,1.25549595e-05
72N100,臺南農改場,2016-05-01,23.0605,120.342194,0.9985801
C0S900,蘭嶼高中,2016-05-01,22.04909,121.51214,0.04901216
467540,大武,2016-05-01,22.355675,120.903789,0.9276133
C1F9W0,德基,2016-05-01,24.254783,121.190261,2.153045e-09
C1Z120,壽豐,2016-05-01,23.870853,121.508081,0.067241296
C0W160,烏坵,2016-05-01,24.9944,119.44956,7.506015e-07
C1I240,外大坪,2016-05-01,23.958697,120.917931,8.511593e-09
C1I550,國六W023K,2016-05-01,23.979067,120.867742,1.2093145e-08
C0R870,興海,2016-05-01,21.9752,120.8439,0.02039419
C0R140,瑪家,2016-05-01,22.682903,120.686639,0.34862474
C0A530,坪林,2016-05-01,24.938183,121.70975,0.0061046057
C0X260,後壁,2016-05-01,23.366358,120.362326,0.00095589407
C0Z230,和平,2016-05-01,24.30717,121.77007,0.7270031
C0G770,福興,2016-05-01,24.041289,120.437669,0.00019405046
C0H9A0,神木村,2016-05-01,23.532742,120.843667,1.5678217e-09
C0I460,南投,2016-05-01,23.911469,120.687331,4.5740403e-08
C0I480,梅峰,2016-05-01,24.085272,121.173572,1.5240026e-09
C1V570,吉東,2016-05-01,22.85422,120.5454,0.012429966
C2D740,屯原,2016-05-01,24.067969,121.209389,1.4376388e-09
C2A560,福山,2016-05-01,24.776203,121.502811,0.00085643464
C0AH30,五分山,2016-05-01,25.07125,121.780794,9.4843486e-08
C0FA10,松柏,2016-05-01,24.429115,120.617482,0.00013396614
72S200,東改班鳩分場,2016-05-01,22.829528,121.077694,9.162907e-06
72HA00,中改埔里分場,2016-05-01,23.903208,120.963364,2.2436601e-09
C2H9W0,大坪頂農水,2016-05-01,24.043122,120.932781,1.1291805e-08
C0C650,平鎮,2016-05-01,24.897503,121.214636,2.5959187e-07
C0S930,延平,2016-05-01,22.902581,121.084058,0.00036596262
C0UA60,樟樹山,2016-05-01,24.41393,121.78325,6.212759e-05
C1S670,摩天,2016-05-01,23.199503,121.027,1.3512478e-09
C0V630,茄萣,2016-05-01,22.906642,120.182608,0.9971591
466940,基隆,2016-05-01,25.133314,121.740475,0.13680092
C0X050,東河,2016-05-01,23.296598,120.385608,0.00035137177
C0R770,保力,2016-05-01,22.071122,120.764111,0.042930428
G2L020,農試嘉義分所,2016-05-01,23.485028,120.473806,4.5122288e-06
C0X240,關子嶺,2016-05-01,23.331169,120.508025,3.3291993e-08
C0I380,集集,2016-05-01,23.828206,120.801467,2.3464892e-08
466990,花蓮,2016-05-01,23.975128,121.613275,0.25857162
C1V220,小關山,2016-05-01,23.154217,120.813603,9.97911e-10
C1F9G1,慶福山,2016-05-01,24.180853,120.848378,2.3492468e-09
C0Z250,瑞穗林道,2016-05-01,23.49284,121.30688,3.6345267e-09
C0D590,新豐,2016-05-01,24.87068,120.97721,0.05569748
C0A870,五指山,2016-05-01,25.132153,121.608692,6.036501e-08
C0UA50,西帽山,2016-05-01,24.555361,121.802628,3.05402e-07
C0X160,仁德,2016-05-01,22.968258,120.257689,0.99940884
C1H971,六分寮,2016-05-01,23.92507,120.6378,1.7120578e-09
C0W120,西嶼,2016-05-01,23.5626,119.468436,0.9688198
C0G650,員林,2016-05-01,23.946503,120.585597,7.0065374e-07
C0AD50,鶯歌,2016-05-01,24.951533,121.346294,0.004939249
C2H9Q0,北東眼山,2016-05-01,24.120939,121.189303,1.4176845e-09
C2H9T0,名間竹圍,2016-05-01,23.859914,120.637572,9.145761e-09
C0S990,山豬窟,2016-05-01,22.318619,120.857372,0.0025024812
72Q010,高雄農改,2016-05-01,22.709333,120.525889,0.99188197
C0X190,安平,2016-05-01,22.993161,120.152181,0.99588203
C0K400,斗六,2016-05-01,23.720583,120.541127,1.989981e-05
12J990,口湖工作站,2016-05-01,23.589978,120.180394,0.12120539
C0O830,北寮,2016-05-01,23.079561,120.495008,0.022826241
C1D410,白蘭,2016-05-01,24.579364,121.079947,1.2397974e-09
C0S970,加津林,2016-05-01,22.416211,120.926942,0.94302374
C0D700,關西,2016-05-01,24.7977,121.1732,1.3621734e-06
C0M810,里佳,2016-05-01,23.389125,120.716647,9.021481e-10
C0U750,龜山島,2016-05-01,24.841667,121.953133,0.1320378
C0R810,內獅,2016-05-01,22.305064,120.642986,0.0068445
C1M390,龍美,2016-05-01,23.406728,120.654417,9.598428e-10
C2FB60,頭櫃山,2016-05-01,24.129842,120.858925,3.8772e-09
C1H840,國三N238K,2016-05-01,23.841008,120.707711,2.0153715e-08
CAQ030,崎峰國小,2016-05-01,22.42565,120.49521,0.4894888
C2E520,大湖,2016-05-01,24.414939,120.870872,2.2002791e-06
467530,阿里山,2016-05-01,23.508208,120.813242,2.4958806e-09
C1E691,南湖,2016-05-01,24.40135,120.837533,2.1355943e-08
C0FA30,梧棲,2016-05-01,24.256003,120.523381,4.5939465e-05
C1V231,高中,2016-05-01,23.134911,120.716711,2.2919269e-06
C0F9V0,新社,2016-05-01,24.200172,120.815806,7.5632556e-08
C0H890,埔里,2016-05-01,23.972169,120.952425,2.0156949e-07
C0R690,墾丁,2016-05-01,21.966756,120.810269,0.0030946117
C0F0D0,審馬陣,2016-05-01,24.381675,121.4203,1.0262399e-08
C0R820,白鷺,2016-05-01,22.454275,120.666219,0.00011233625
U2H480,臺大溪頭,2016-05-01,23.670306,120.798194,1.4860381e-09
C1V190,南天池,2016-05-01,23.27403,120.91176,2.3163877e-09
K2E360,苗栗農改場,2016-05-01,24.495722,120.829111,3.8814927e-05
CAJ050,海口故事園區,2016-05-01,23.57543,120.14121,0.12202579
C2H9D0,三隻寮,2016-05-01,24.093078,120.861578,7.746805e-09
C0O990,媽廟,2016-05-01,22.99175,120.293525,0.9993942
C0D480,打鐵坑,2016-05-01,24.849664,121.150789,1.0996809e-08
C0Z220,和平林道,2016-05-01,24.343922,121.656317,5.22911e-05
C0TA10,花蓮漁港,2016-05-01,23.995322,121.638331,0.29886606
72C440,桃園農改場,2016-05-01,24.950944,121.030583,0.0025579154
C1E711,馬拉邦山,2016-05-01,24.367306,120.901656,2.6466442e-09
C0SB20,富岡,2016-05-01,22.792467,121.192669,6.44459e-05
C0D560,竹東,2016-05-01,24.767147,121.057881,1.9746523e-07
C0F9U0,南屯,2016-05-01,24.137006,120.637969,4.3539995e-07
C0M720,番路,2016-05-01,23.464657,120.554156,6.315806e-07
C0F0A0,雪山圈谷,2016-05-01,24.388594,121.236339,1.4443512e-08
C1A9N0,四十份,2016-05-01,24.934158,121.593283,2.1284417e-05
C0U760,東澳,2016-05-01,24.52196,121.83318,0.3487548
C0X230,鹽水,2016-05-01,23.272621,120.247641,0.93819666
C2H9H0,苗改南投蜂場,2016-05-01,23.852589,120.693481,1.7811663e-08
C0R950,萬隆國小,2016-05-01,22.507667,120.587817,0.046730813
C0V370,古亭坑,2016-05-01,22.893178,120.401947,0.98708785
C1I340,新興橋,2016-05-01,23.563333,120.868728,1.5340349e-09
C0SA80,土坂,2016-05-01,22.453108,120.887572,0.013733024
C0R160,鹽埔,2016-05-01,22.739558,120.530778,0.3506265
C0AC40,大屯山,2016-05-01,25.175675,121.522408,8.171698e-09
466850,五分山雷達站,2016-05-01,25.071182,121.781205,9.124333e-08
C2H9L0,馬烈霸,2016-05-01,24.1512,121.201772,1.3965709e-09
C1AI50,國三N016K,2016-05-01,25.034164,121.619664,0.008085833
C1V600,藤枝,2016-05-01,23.071961,120.757042,9.108466e-10
C1E601,南勢,2016-05-01,24.572486,120.734842,8.7456175e-07
C0Z180,新城,2016-05-01,24.03946,121.60454,0.17875758
C0O980,新市,2016-05-01,23.061614,120.298197,0.99894685
C0K420,西螺,2016-05-01,23.800407,120.467394,2.3232322e-05
C0Z050,佳心,2016-05-01,23.34567,121.21316,3.1294967e-09
C0AD30,蘆洲,2016-05-01,25.086594,121.472331,0.008046308
C0V610,梓官,2016-05-01,22.760558,120.267211,0.99765074
K2F750,種苗改良場,2016-05-01,24.225972,120.800917,4.2744057e-07
C0UA80,大溪漁港,2016-05-01,24.941801,121.902955,0.055455428
C1AI60,國一39K邊坡,2016-05-01,25.064361,121.383836,0.02462912
C0W150,金寧,2016-05-01,24.457703,118.328989,1.9699512e-05
C0R960,內埔,2016-05-01,22.608483,120.570714,0.07687959
V2C250,八德合作社,2016-05-01,24.93775,121.266389,1.6895831e-06
C2H9S0,龍南,2016-05-01,23.953536,120.833183,8.844307e-10
C0AH40,平等,2016-05-01,25.129142,121.577086,3.617347e-06
C0R540,佳冬,2016-05-01,22.419456,120.552375,0.4894888
466950,彭佳嶼,2016-05-01,25.627975,122.079744,0.0005832257
C0A890,雙溪,2016-05-01,25.036003,121.864242,0.10937809
C0C480,桃園,2016-05-01,24.992425,121.323172,1.5238747e-06
C0AH50,林口,2016-05-01,25.072181,121.38084,0.000114733426
A2K360,水試臺西試驗場,2016-05-01,23.717231,120.190522,0.00063010235
B2N890,畜試所,2016-05-01,23.058972,120.336406,0.9985801
C2M960,外寮,2016-05-01,23.562643,120.665688,8.8913615e-10
C0F9S0,烏日,2016-05-01,24.107058,120.624103,2.8552104e-06
C0C490,八德,2016-05-01,24.928708,121.283289,1.75688e-05
C0R190,赤山,2016-05-01,22.592333,120.614306,0.06260695
C0T820,天祥,2016-05-01,24.179597,121.495639,0.002600672
C1F9E1,龍安,2016-05-01,24.1605,120.831961,3.6030887e-08
C0V820,小林,2016-05-01,23.148408,120.63325,5.8499018e-06
C2G870,芳苑,2016-05-01,23.922303,120.320025,5.1208986e-05
C0E850,大河,2016-05-01,24.618069,120.948578,2.6888432e-07
C1U670,寒溪,2016-05-01,24.634,121.71691,0.3897016
C0N020,城西,2016-05-01,23.0568,120.0956,0.29709253
C1Z110,三棧,2016-05-01,24.11557,121.60501,5.9691786e-08
C0R280,檳榔,2016-05-01,22.076078,120.836777,0.0036259915
C2H9J0,中台,2016-05-01,23.9996,120.938739,3.1702314e-08
C0F9L0,后里,2016-05-01,24.310436,120.729725,3.654009e-07
C0D540,橫山,2016-05-01,24.71116,121.11693,8.39355e-09
C1D420,太閣南,2016-05-01,24.632808,121.160575,1.3952796e-09
C1E770,公館,2016-05-01,24.526914,120.830806,2.1639395e-05
CAN130,水試所海水繁養殖中心,2016-05-01,23.120802,120.07968,0.26922506
C1I430,翠華,2016-05-01,24.191961,121.224339,2.0049915e-09
C1M400,菜瓜坪,2016-05-01,23.251928,120.576103,7.4553936e-06
C0G730,二林,2016-05-01,23.903325,120.376081,0.0021858956
72M360,南改義竹分場,2016-05-01,23.360694,120.279361,0.90424067
V2K620,麥寮合作社,2016-05-01,23.753836,120.294783,2.9877414e-05
C0Z070,舞鶴,2016-05-01,23.46811,121.37407,0.40558285
C0B040,大武崙,2016-05-01,25.166676,121.706993,0.122728415
C1Z030,紅葉,2016-05-01,23.493119,121.338806,0.62224007
C1I050,丹大,2016-05-01,23.753747,121.141147,3.8446215e-09
C0I080,信義,2016-05-01,23.689694,120.851036,2.6082225e-09
C2M920,朴子農改,2016-05-01,23.469889,120.259383,0.19706482
C2A880,福隆,2016-05-01,25.017842,121.942083,0.3263155
C0Z160,鳳林,2016-05-01,23.746114,121.453411,0.34298068
C0V210,復興,2016-05-01,23.222403,120.806089,3.918273e-07
C0H990,昆陽,2016-05-01,24.121322,121.273642,4.3597024e-09
C0R741,獅子,2016-05-01,22.202308,120.705236,0.0021748533
C0S710,鹿野,2016-05-01,22.917711,121.122994,4.7203343e-08
C0I530,小奇萊,2016-05-01,24.131764,121.295717,5.203926e-09
C2K630,荷苞,2016-05-01,23.657717,120.595144,6.830761e-06
C0Z080,富源,2016-05-01,23.587642,121.378225,0.25345445
467441,高雄,2016-05-01,22.7304,120.3125,0.99318564
C0SB10,美和,2016-05-01,22.682078,121.060236,0.012001391
C2K620,馬光農場,2016-05-01,23.721453,120.378864,0.0006354268
C1I140,卡奈托灣,2016-05-01,23.754364,121.087872,1.0369747e-09
C0I520,玉山風口,2016-05-01,23.470489,120.955994,1.2782143e-08
C1G691,下水埔,2016-05-01,23.816114,120.5676,3.6556123e-06
C0X110,臺南市南區,2016-05-01,22.961189,120.188378,0.99554265
C0V680,仁武,2016-05-01,22.701083,120.347722,0.99344075
C2G840,北斗,2016-05-01,23.877586,120.514222,4.105382e-06
C0R900,竹坑,2016-05-01,22.1385,120.7022,0.023124412
C0K250,崙背,2016-05-01,23.75555,120.318925,2.1538264e-05
C0G860,社頭,2016-05-01,23.897647,120.5862,5.152035e-07
C0X150,安定,2016-05-01,23.102614,120.227839,0.97764647
C0R590,里港,2016-05-01,22.77919,120.49459,0.54597014
C0E610,馬都安,2016-05-01,24.451272,120.930192,2.530484e-07
C0E550,明德,2016-05-01,24.583486,120.885411,3.6683383e-07
C0R150,三地門,2016-05-01,22.709889,120.639944,0.92478216
C0G910,花壇,2016-05-01,24.032076,120.549461,6.1507467e-06
C1D400,鳥嘴山,2016-05-01,24.71909,121.28387,3.5601946e-08
C0K500,元長,2016-05-01,23.64981,120.315024,2.6935373e-05
C0F0B0,石岡,2016-05-01,24.276061,120.777644,0.049800575
C2V250,甲仙,2016-05-01,23.080106,120.591758,4.200017e-06
C0SA20,金崙山,2016-05-01,22.567419,120.959667,5.7432055e-09
C0V350,溪埔,2016-05-01,22.738578,120.446797,0.9937032
C0M660,溪口,2016-05-01,23.604131,120.403569,4.718669e-07
C1S880,壽卡,2016-05-01,22.238911,120.858903,0.00047784433
72D680,桃改新埔分場,2016-05-01,24.834444,121.066111,1.3717851e-06
