站號,站名,日期,lat,lon,BLBTSLS
C0R710,龍磐,2016-03-23,21.931672,120.838942,0.9998995
C1F9D1,白毛台,2016-03-23,24.158325,120.886933,3.6517387e-09
C0G940,竹塘,2016-03-23,23.848253,120.386764,3.5560326e-09
467590,恆春,2016-03-23,22.003897,120.746339,0.99984944
C1O850,環湖,2016-03-23,23.148617,120.418633,4.2856323e-09
C0U710,太平山,2016-03-23,24.505486,121.525656,1.6227018e-08
C0E820,獅潭,2016-03-23,24.539133,120.920042,5.7132143e-09
C0V880,興達,2016-03-23,22.8778,120.2127,3.586371e-09
C0S890,關山,2016-03-23,23.0395,121.175017,1.2865108e-08
C0SB30,新蘭,2016-03-23,22.869214,121.223228,3.2258352e-08
C2R970,屏科大,2016-03-23,22.648275,120.619247,2.2209112e-09
K2F750,種苗繁殖,2016-03-23,24.225972,120.800917,4.269152e-09
C1Z130,銅門,2016-03-23,23.965694,121.492842,2.3497677e-08
C0AD40,土城,2016-03-23,24.973208,121.445169,1.7427055e-08
CAN140,六官養殖協會,2016-03-23,23.22881,120.29962,2.1699604e-09
C0X180,山上,2016-03-23,23.0757,120.363253,2.524444e-09
C0F9Z0,雪山東峰,2016-03-23,24.388792,121.268675,3.1631163e-08
C1M480,獨立山,2016-03-23,23.537022,120.607797,3.5515995e-09
C0X220,學甲,2016-03-23,23.230367,120.182187,3.2873877e-09
467650,日月潭,2016-03-23,23.881325,120.90805,3.3021368e-09
C0K600,箔子寮,2016-03-23,23.6197,120.14,5.252209e-09
C0G830,埤頭,2016-03-23,23.866003,120.452806,3.8839727e-09
C0S950,七塊厝,2016-03-23,22.954453,121.229922,1.006193e-08
467110,金門,2016-03-23,24.407306,118.289281,2.0029972e-08
C0AH80,深坑,2016-03-23,25.002703,121.628328,1.9210718e-08
467990,馬祖,2016-03-23,26.169269,119.923419,1.4323624e-08
C0A970,三貂角,2016-03-23,25.007606,122.002058,2.9886785e-08
C2D730,寶山農場,2016-03-23,24.732444,120.976153,1.3076406e-08
C0K430,褒忠,2016-03-23,23.690938,120.303634,2.175855e-08
467480,嘉義,2016-03-23,23.495925,120.432906,1.825671e-08
C2E540,後龍,2016-03-23,24.606489,120.783933,4.444081e-08
C0V400,阿公店,2016-03-23,22.804194,120.355528,2.5725753e-09
C0R440,大漢山,2016-03-23,22.405264,120.753181,1.0647785e-08
C0K280,四湖,2016-03-23,23.630414,120.227125,3.224722e-08
C1F9B1,桐林,2016-03-23,24.066172,120.735194,3.7390575e-09
C2H9U0,鳳鵬,2016-03-23,23.763919,120.788061,2.8139333e-09
C0K390,土庫,2016-03-23,23.679029,120.395574,3.0549152e-09
C1I450,望鄉山,2016-03-23,23.594153,120.944286,2.0687642e-08
C0E910,海埔,2016-03-23,24.648767,120.772435,7.7200335e-09
B2E890,畜試北區分所,2016-03-23,24.527806,120.770972,6.599004e-08
C0R750,四林格山,2016-03-23,22.076989,120.802439,0.91167295
C0F0C0,中坑,2016-03-23,24.248517,120.903319,3.8013455e-09
C1I121,大鞍,2016-03-23,23.678381,120.760017,6.420612e-09
72U480,花改蘭陽分場,2016-03-23,24.686306,121.716583,3.568135e-08
C0A770,科教館,2016-03-23,25.096356,121.516507,1.7563904e-08
C0AJ60,六塊厝,2016-03-23,25.24,121.4481,2.2185032e-08
C0R620,墾雷,2016-03-23,21.900836,120.855269,0.9998581
467420,永康,2016-03-23,23.038386,120.2367,3.8601105e-09
467300,東吉島,2016-03-23,23.25695,119.667467,0.9611715
C0I410,名間,2016-03-23,23.837053,120.701447,2.6183757e-09
A2C560,農工中心,2016-03-23,24.985917,121.239833,1.1773082e-08
C0V740,旗山,2016-03-23,22.888614,120.483597,3.0781355e-09
C0Z061,玉里,2016-03-23,23.3215,121.339656,2.5638668e-08
C0S840,南田,2016-03-23,22.279725,120.889208,0.096197315
C1I470,杉林溪,2016-03-23,23.639517,120.786444,8.2525995e-09
C1X040,東原,2016-03-23,23.291597,120.463822,2.0761906e-09
C0R660,枋寮,2016-03-23,22.367722,120.590647,3.3690856e-08
C1R120,上德文,2016-03-23,22.763272,120.704442,4.4160515e-09
C0K450,大埤,2016-03-23,23.646074,120.431537,2.9302107e-09
C0UA00,土場,2016-03-23,24.576533,121.495333,9.255368e-09
467080,宜蘭,2016-03-23,24.763975,121.756528,2.0270681e-08
C0N030,四草,2016-03-23,23.0235,120.1116,4.604219e-09
C0V650,彌陀,2016-03-23,22.783806,120.246361,3.977884e-09
C0D660,新竹市東區,2016-03-23,24.798681,120.986942,1.3851246e-08
82S580,茶改東部分場,2016-03-23,22.907694,121.130139,1.2338296e-08
C0SB40,興隆,2016-03-23,22.913661,121.257469,1.3861421e-08
C0C710,大溪永福,2016-03-23,24.892936,121.324975,1.16732e-08
C0FA20,溫寮,2016-03-23,24.372177,120.583125,1.1315773e-07
C0V640,湖內,2016-03-23,22.887139,120.2445,3.5711354e-09
C0R910,下寮,2016-03-23,22.3929,120.5548,1.0387806e-08
C0Z020,明里,2016-03-23,23.208717,121.262342,8.2398754e-09
C0M770,嘉義梅山,2016-03-23,23.585398,120.555587,2.7496612e-09
G2F820,農業試驗所,2016-03-23,24.031261,120.688133,6.70745e-08
C0C660,楊梅,2016-03-23,24.912375,121.143047,1.2274708e-08
C1E511,新開,2016-03-23,24.347703,120.827019,3.819923e-09
G2F820,農試所(霧峰),2016-03-23,24.031261,120.688133,6.70745e-08
C1I070,和社,2016-03-23,23.591131,120.888861,2.9544605e-09
C2F000,大肚,2016-03-23,24.15295,120.572117,4.7339106e-09
C1S850,豐南,2016-03-23,23.122139,121.262389,7.225266e-09
C2A920,富貴角,2016-03-23,25.263783,121.565258,2.940699e-08
CAH030,茶改場竹圍站,2016-03-23,23.860083,120.637528,2.1209188e-09
C0T960,光復,2016-03-23,23.660694,121.424964,1.2251347e-07
C0F9M0,豐原,2016-03-23,24.254322,120.720692,6.98384e-09
C0R720,旭海,2016-03-23,22.205403,120.887614,0.0019100179
C0V710,苓雅,2016-03-23,22.622742,120.330669,3.5467322e-09
C0C740,觀音工業區,2016-03-23,25.064764,121.114856,1.8645611e-08
CAC040,拉拉山,2016-03-23,24.699317,121.427133,8.636419e-09
C0V790,萬山,2016-03-23,22.905944,120.688056,1.9653603e-09
U2HA30,臺大和社,2016-03-23,23.590856,120.888864,2.9544605e-09
C0AJ90,澳底,2016-03-23,25.0552,121.9253,2.9695746e-08
C0Z100,東華,2016-03-23,23.89525,121.549833,9.1771476e-08
C0G970,三豐,2016-03-23,23.882,120.2895,2.2772427e-08
V2K610,大庄合作社,2016-03-23,23.8068,120.367939,2.4805336e-08
C0V900,汕尾,2016-03-23,22.4782,120.4151,3.1615102e-09
C1R630,龍泉,2016-03-23,22.66701,120.59091,6.4736363e-09
C1AC50,關渡,2016-03-23,25.133486,121.469331,2.7655256e-08
C0F9I0,神岡,2016-03-23,24.272481,120.658314,7.125606e-09
C0K460,斗南,2016-03-23,23.678734,120.478359,3.0330272e-09
467410,臺南,2016-03-23,22.993239,120.204772,3.7920906e-09
C2O810,曾文,2016-03-23,23.219681,120.497328,3.7209582e-09
467280,後龍,2016-03-23,24.648563,120.831834,7.4153674e-09
C1F9J1,清水林,2016-03-23,24.071242,120.820419,2.6074167e-09
C2A650,火燒寮,2016-03-23,25.002719,121.742892,1.7634767e-08
466930,竹子湖,2016-03-23,25.162078,121.544547,1.7135942e-08
C1I220,樟湖,2016-03-23,23.905333,120.846983,3.5238665e-09
C0I390,仁愛,2016-03-23,24.022122,121.132206,4.2142836e-09
C0Z300,東里,2016-03-23,23.26853,121.30547,2.482654e-08
C1V590,新發,2016-03-23,23.057019,120.646064,3.8559382e-09
C0K510,水林,2016-03-23,23.572924,120.24597,5.2216236e-09
72S590,東改賓朗果園,2016-03-23,22.813889,121.071278,1.7421936e-08
82A750,茶改北部分場,2016-03-23,24.955778,121.631222,8.663674e-09
C1A750,石碇服務區,2016-03-23,25.00872,121.646242,1.8965661e-08
C0X300,鹿寮,2016-03-23,23.386047,120.477331,2.8307396e-09
G2AI50,關渡,2016-03-23,25.11575,121.492,1.767767e-08
C0K590,雲林東勢,2016-03-23,23.674192,120.255721,2.1732959e-08
C0A570,桶後,2016-03-23,24.848222,121.597992,1.2646173e-08
C1S800,華源,2016-03-23,22.657883,121.02325,2.4198483e-08
C0G720,溪州,2016-03-23,23.851589,120.499093,3.870255e-09
C1V160,達卡努瓦,2016-03-23,23.279811,120.705319,5.1454867e-09
C2M410,馬頭山,2016-03-23,23.324361,120.582017,2.2925122e-09
C0V850,蚵仔寮,2016-03-23,22.7256,120.2527,2.5384268e-09
C0S740,池上,2016-03-23,23.119628,121.209469,1.02724265e-08
C1V390,尖山,2016-03-23,22.813153,120.367789,2.4012174e-09
C0AH70,松山,2016-03-23,25.04871,121.55042,1.9759685e-08
C0N010,鯤鯓國小,2016-03-23,23.1879,120.0889,5.770205e-09
C0R550,新埤,2016-03-23,22.467947,120.582894,6.331036e-09
C0SA60,知本（水試所）,2016-03-23,22.702394,121.082761,3.951336e-08
C0T9I0,豐濱,2016-03-23,23.583897,121.514806,1.644154e-07
C0UB00,淡江大學蘭陽校園,2016-03-23,24.823239,121.730383,9.276984e-09
C0W240,九宮,2016-03-23,24.423753,118.240186,1.7951121e-08
C0T9N0,富里,2016-03-23,23.171639,121.249378,5.957574e-09
U2HA50,臺大竹山,2016-03-23,23.756972,120.681556,3.102301e-09
C0V840,鳳鼻頭,2016-03-23,22.5083,120.3591,3.5997414e-09
C0X140,西港,2016-03-23,23.125608,120.203108,3.8495673e-09
72D080,桃改五峰分場,2016-03-23,24.612194,121.157167,7.060128e-09
C2H9P0,伊拿谷,2016-03-23,23.963211,121.088264,3.164418e-09
C2H9F0,柑林,2016-03-23,24.018658,120.847072,3.2108127e-09
C0TA20,加灣,2016-03-23,24.082025,121.608944,2.713624e-08
C0V530,阿蓮,2016-03-23,22.883208,120.327508,2.3227675e-09
C1O880,關山,2016-03-23,23.173397,120.594092,2.2294888e-09
C0E791,卓蘭,2016-03-23,24.3126,120.8244,3.836037e-09
C1I030,武界,2016-03-23,23.913225,121.052483,3.1957157e-09
C0R520,崁頂,2016-03-23,22.514781,120.506914,9.975157e-09
C0R341,牡丹,2016-03-23,22.130036,120.792639,0.0001866955
C0R930,萬丹,2016-03-23,22.5885,120.4851,6.387693e-09
C0S760,紅石,2016-03-23,23.069131,121.126219,1.1171092e-08
C1M610,石磐龍,2016-03-23,23.496606,120.663506,5.1572773e-09
C0UA10,鴛鴦湖,2016-03-23,24.590269,121.412228,8.9408205e-09
V2C260,八德蔬果,2016-03-23,24.978508,121.281819,1.3181002e-08
C0R800,丹路,2016-03-23,22.204481,120.750989,0.0015759998
C0G920,永靖,2016-03-23,23.924703,120.547533,1.694923e-08
C2M950,太和,2016-03-23,23.538372,120.702961,6.391837e-09
C1A630,下盆,2016-03-23,24.771003,121.538622,1.2827179e-08
B2N890,畜產試驗所,2016-03-23,23.058972,120.336406,1.9559254e-09
C0UA30,白嶺,2016-03-23,24.527819,121.519031,7.463001e-09
C1V580,溪南(特生中心),2016-03-23,23.084972,120.788475,9.026615e-09
C1T970,大農,2016-03-23,23.615233,121.413331,9.956798e-08
E2S960,林試太麻里2,2016-03-23,22.598014,120.989761,4.245306e-08
C0R650,竹田,2016-03-23,22.58486,120.54344,6.387705e-09
C1H900,清流,2016-03-23,24.080775,120.962997,3.5436827e-09
C1C510,水尾,2016-03-23,24.940081,121.087161,1.2958643e-08
C0F9X0,大雅(中科園區),2016-03-23,24.21528,120.62445,3.696323e-08
C0SB60,白守蓮,2016-03-23,23.126769,121.401914,2.3619178e-08
C0O970,虎頭埤,2016-03-23,23.021375,120.347878,2.3916233e-09
C0C730,中大臨海站,2016-03-23,24.966126,121.008581,2.071852e-08
C0X250,新營,2016-03-23,23.310689,120.316681,2.0298643e-09
C0V700,三民,2016-03-23,22.645017,120.311233,3.5467322e-09
C0U870,大礁溪,2016-03-23,24.791042,121.675047,9.965762e-09
C0E870,高鐵苗栗,2016-03-23,24.60725,120.826094,4.1530033e-08
A2K570,古坑花卉中心,2016-03-23,23.63353,120.55239,2.6917555e-09
C0M860,新美,2016-03-23,23.338017,120.683169,2.578357e-09
C1E701,八卦,2016-03-23,24.491756,120.927619,5.3662186e-09
C0I420,國姓,2016-03-23,24.037803,120.855072,2.802936e-09
C2D720,關西工作站,2016-03-23,24.757275,121.184792,9.937784e-09
C0S960,香蘭,2016-03-23,22.587569,120.993375,4.245306e-08
C0R260,春日,2016-03-23,22.370361,120.628306,1.8880883e-07
72G600,臺中農改場,2016-03-23,24.003028,120.534389,1.6650498e-08
C0Z210,瑞穗,2016-03-23,23.5239,121.39021,1.8560777e-07
C0M820,達邦,2016-03-23,23.453994,120.749517,4.362805e-09
C0V860,南寮,2016-03-23,22.7616,120.2339,3.992988e-09
C0G740,大城,2016-03-23,23.852487,120.320935,2.2067036e-08
C0R920,塭仔,2016-03-23,22.4169,120.5197,1.0959579e-08
C0R470,高樹,2016-03-23,22.826389,120.600806,4.95304e-09
C0R680,佳樂水,2016-03-23,21.993578,120.861633,0.9998397
C1O870,大棟山,2016-03-23,23.31157,120.52226,4.8294337e-09
C0D360,梅花,2016-03-23,24.678347,121.208558,4.9260946e-09
C0Z190,富世,2016-03-23,24.14743,121.6297,2.2928413e-08
C0AI10,屈尺,2016-03-23,24.92184,121.54475,1.9203686e-08
B2U990,畜試東區分所,2016-03-23,24.669039,121.832561,3.7870905e-08
C0SB80,長濱漁港,2016-03-23,23.313644,121.459994,3.5956194e-08
C0R240,來義,2016-03-23,22.527306,120.625111,1.15551664e-07
C0V910,大樹,2016-03-23,22.684645,120.432803,2.5928213e-09
C1R610,西大武山,2016-03-23,22.617719,120.7322,1.0063177e-08
C0G900,線西,2016-03-23,24.143358,120.443536,1.2168405e-07
C0M700,竹崎,2016-03-23,23.526178,120.555508,2.7030433e-09
C2E880,三義,2016-03-23,24.405478,120.749819,4.969458e-09
C0C720,竹圍,2016-03-23,25.112692,121.239824,2.1811985e-08
C0F9P0,清水,2016-03-23,24.312297,120.562242,1.1111552e-07
C0Z150,吉安光華,2016-03-23,23.930925,121.595153,1.0473736e-07
C1D640,外坪(五指山),2016-03-23,24.644447,121.090961,7.3343736e-09
C0F9O0,潭子,2016-03-23,24.213106,120.703933,6.540308e-09
C2H9R0,卓社,2016-03-23,23.887894,121.000086,5.792679e-09
72T250,花蓮農改場,2016-03-23,23.975222,121.563889,2.6616606e-08
C0E780,銅鑼,2016-03-23,24.489681,120.790853,7.73259e-09
C1T950,太安,2016-03-23,23.666719,121.370128,1.2133462e-08
C0E830,苑裡,2016-03-23,24.439714,120.653053,8.9208264e-08
467270,田中,2016-03-23,23.873803,120.581286,3.1693952e-09
C0SA10,檳榔四格山,2016-03-23,22.810031,121.109308,1.5815454e-08
C1T830,布洛灣,2016-03-23,24.17184,121.57127,9.5144976e-08
C0F970,大坑,2016-03-23,24.173142,120.722289,4.978758e-08
C1U920,思源,2016-03-23,24.393125,121.347214,1.5543522e-08
C0A931,三和,2016-03-23,25.233153,121.595236,1.5531016e-08
C0I010,廬山,2016-03-23,24.033311,121.181808,6.590121e-09
C2M940,日野賀,2016-03-23,23.434056,120.727169,5.1204037e-09
C0R860,鼻頭,2016-03-23,22.1043,120.8979,0.9998756
C0UB20,壯圍,2016-03-23,24.7359,121.8163,3.7870905e-08
C0R790,九棚,2016-03-23,22.14195,120.889281,0.009773436
C0W110,東莒,2016-03-23,25.9652,119.98069,6.59738e-08
C1U930,粉鳥林,2016-03-23,24.497088,121.842479,4.0431726e-08
C1I211,蘆竹湳,2016-03-23,23.934019,120.811994,3.2540686e-09
C0S830,長濱,2016-03-23,23.286817,121.411975,8.353622e-09
C1F9F1,伯公龍,2016-03-23,24.272392,120.849047,4.8376942e-09
C0E810,西湖,2016-03-23,24.562947,120.7485,3.7426197e-08
C1I440,新高口,2016-03-23,23.478744,120.878939,1.3879491e-08
C0O840,王爺宮,2016-03-23,23.222064,120.40085,3.7209582e-09
C0T9G0,鳳林山,2016-03-23,23.735269,121.420131,3.093912e-08
C0X080,佳里,2016-03-23,23.173039,120.145086,3.3075893e-09
C0FB70,大甲溪埔,2016-03-23,24.370625,120.620067,8.4877335e-08
C0Z310,清水斷崖,2016-03-23,24.218294,121.689142,2.9410535e-07
C0M680,太保,2016-03-23,23.455062,120.331455,3.456935e-09
C1S820,金峰,2016-03-23,22.590969,120.933236,1.9546135e-08
C0AD10,八里,2016-03-23,25.150211,121.403947,2.1811985e-08
C2K240,草嶺,2016-03-23,23.59555,120.693461,4.8627364e-09
C1SA70,都蘭,2016-03-23,22.87794,121.226881,1.3861421e-08
C0K440,二崙,2016-03-23,23.772797,120.408944,3.543304e-09
C1A760,坪林交控,2016-03-23,24.94284,121.713442,1.291423e-08
C0F9N0,大里,2016-03-23,24.092464,120.701378,6.7975144e-08
C0SA90,達仁林場,2016-03-23,22.264347,120.823972,6.1639845e-08
C1R290,石門山,2016-03-23,22.112611,120.756597,0.9998272
42HA10,萬大發電廠,2016-03-23,23.978875,121.139639,3.713797e-09
C0R890,山海,2016-03-23,21.9878,120.7091,0.9998155
C0T9A0,月眉山,2016-03-23,23.809928,121.539828,2.7287797e-08
C0AC70,信義,2016-03-23,25.037822,121.564597,1.9752376e-08
C0K560,棋山,2016-03-23,23.68645,120.603417,2.7960374e-09
C2FB50,出雲,2016-03-23,24.206469,120.902794,3.8944616e-09
C1Z240,中平林道,2016-03-23,23.42115,121.26763,1.33753e-08
U2H480,溪頭,2016-03-23,23.670306,120.798194,3.5293286e-09
C0M880,好美里,2016-03-23,23.3364,120.138,3.3075893e-09
C0T9E0,大坑,2016-03-23,23.880628,121.581981,2.9656746e-08
C0K530,臺西,2016-03-23,23.701547,120.197559,2.4801551e-08
C1E900,國一N128K,2016-03-23,24.560997,120.844186,3.274948e-08
C0AJ50,水湳洞,2016-03-23,25.123695,121.862238,7.357341e-08
C0AI20,白沙灣,2016-03-23,25.283128,121.519058,3.209829e-08
C0A860,大坪,2016-03-23,25.165914,121.632969,1.8600925e-08
C1U850,觀音海岸,2016-03-23,24.38319,121.77856,2.8195007e-08
C2K610,草嶺石壁,2016-03-23,23.602469,120.707731,5.352511e-09
C0U950,鶯子嶺,2016-03-23,24.89754,121.79244,1.5467723e-08
C0O900,善化,2016-03-23,23.112883,120.297219,1.9674946e-09
C0K550,蔦松,2016-03-23,23.514319,120.229736,4.664351e-09
E2P980,林試六龜中心,2016-03-23,22.991703,120.645722,2.0938997e-09
C0E590,通霄,2016-03-23,24.471892,120.704622,9.275678e-08
C1I310,西巒,2016-03-23,23.754486,120.883956,3.61563e-09
C0A550,泰平,2016-03-23,24.971197,121.823711,1.7805753e-08
C0I360,水里,2016-03-23,23.812553,120.849792,2.046862e-09
C0R830,高士,2016-03-23,22.121825,120.836781,0.9997094
C1I101,溪頭,2016-03-23,23.661789,120.807647,7.57934e-09
C0AJ20,野柳,2016-03-23,25.20703,121.690021,7.870965e-08
C0B060,暖暖,2016-03-23,25.0957,121.7403,5.973962e-08
C1H920,長豐,2016-03-23,24.102039,120.879897,2.6549056e-09
C0V360,內門,2016-03-23,22.975481,120.466769,2.8945764e-09
C0R850,林邊,2016-03-23,22.4634,120.5339,9.975157e-09
C0E930,龍鳳,2016-03-23,24.700034,120.859125,7.579008e-09
C0U910,冬山,2016-03-23,24.63373,121.7937,3.787098e-08
C1E721,泰安,2016-03-23,24.489017,120.968036,7.862513e-09
82H320,茶改中部分場,2016-03-23,23.875611,120.913583,2.6933422e-09
C0M750,布袋,2016-03-23,23.380878,120.167789,4.790507e-09
C1S860,利嘉,2016-03-23,22.809417,121.050528,1.5813583e-08
72C440,桃園農改,2016-03-23,24.950944,121.030583,1.9156785e-08
E2S980,林試太麻里1,2016-03-23,22.598922,120.980044,2.8680011e-08
C0X170,關廟,2016-03-23,22.963017,120.327797,2.1179638e-09
C0V720,林園,2016-03-23,22.507747,120.394511,3.5467322e-09
C1I510,線浸林道,2016-03-23,23.761508,120.832956,3.640424e-09
C0D690,外湖,2016-03-23,24.917735,120.968711,2.071852e-08
C0C750,新興坑尾,2016-03-23,25.0061,121.0971,1.7243943e-08
B2Q810,畜試南區分所,2016-03-23,21.945583,120.802167,0.9998397
C0S790,金崙,2016-03-23,22.538122,120.966875,1.7560387e-08
C0AH90,福山植物園,2016-03-23,24.760717,121.58135,6.4295707e-09
C0I540,奇萊稜線,2016-03-23,24.109231,121.326456,3.0390744e-08
C0M850,表湖,2016-03-23,23.24186,120.64166,2.5959785e-09
C0S770,大溪山,2016-03-23,22.478475,120.943325,1.1947447e-08
C0AG80,中和,2016-03-23,24.991622,121.491792,1.9752376e-08
C0T790,大禹嶺,2016-03-23,24.186117,121.316086,2.22301e-08
C0T9B0,水源,2016-03-23,23.991861,121.537169,2.6825415e-08
C0R840,牡丹池山,2016-03-23,22.168389,120.841225,6.8299e-08
C1I131,桶頭,2016-03-23,23.641944,120.654117,2.1694142e-09
CAL110,布袋國中,2016-03-23,23.35893,120.18026,2.9936003e-09
467571,新竹,2016-03-23,24.827853,121.014219,1.40626115e-08
C0Z290,赤柯山,2016-03-23,23.36893,121.38293,1.3914055e-08
C0X280,將軍,2016-03-23,23.214999,120.13577,3.3075893e-09
C0S690,太麻里,2016-03-23,22.60902,120.98533,1.1719692e-08
C0U880,北關,2016-03-23,24.9072,121.8734,5.1390057e-08
C1H860,瑞岩,2016-03-23,24.123772,121.18345,8.069197e-09
C0G810,埔心,2016-03-23,23.947633,120.525456,1.7736504e-08
C0U970,大福,2016-03-23,24.80064,121.81389,2.0560464e-08
C2H9N0,仁愛東眼,2016-03-23,24.026875,121.1205,5.5081952e-09
C1E670,南礦,2016-03-23,24.538278,121.002836,8.168862e-09
C0M520,東後寮,2016-03-23,23.369908,120.248065,2.9440537e-09
C1E461,松安,2016-03-23,24.397972,120.986022,7.2780604e-09
72G600,臺中農改,2016-03-23,24.003028,120.534389,1.6650498e-08
C2N160,西拉雅風管處,2016-03-23,23.189481,120.335297,2.1454776e-09
C2M970,碧湖,2016-03-23,23.568632,120.624165,4.4430957e-09
C0A640,石碇,2016-03-23,24.993969,121.662917,1.830371e-08
E2S960,林試太麻里2,2016-03-23,22.598,120.99775,4.5406008e-08
C0F9Y0,桃山,2016-03-23,24.432739,121.303808,3.357039e-08
C1I020,萬大,2016-03-23,23.979817,121.132261,4.2654897e-09
C0U940,羅東,2016-03-23,24.68184,121.74934,3.6934406e-08
C0M650,朴子,2016-03-23,23.43463,120.23902,4.6858677e-09
C1I500,大尖山,2016-03-23,23.858572,120.994889,9.328137e-09
C0G820,田尾,2016-03-23,23.901669,120.509389,1.694923e-08
E2K600,四湖植物園,2016-03-23,23.676986,120.163433,2.4763736e-08
C0S730,綠島,2016-03-23,22.6672,121.47533,1.5488506e-08
12Q970,東港工作站,2016-03-23,22.479997,120.466058,1.0387806e-08
C0E430,南庄,2016-03-23,24.601775,121.000214,5.700414e-09
C1TA00,太魯閣,2016-03-23,24.15773,121.6236,3.1447271e-07
466920,臺北,2016-03-23,25.037658,121.514853,1.9759685e-08
C0R600,舊泰武,2016-03-23,22.588194,120.664944,6.435484e-09
C1I260,北坑,2016-03-23,23.9246,121.006903,2.3161182e-09
466910,鞍部,2016-03-23,25.182586,121.529731,1.7663986e-08
C1I230,九份二山,2016-03-23,23.961944,120.845,2.979422e-09
C2A660,瑞芳,2016-03-23,25.113169,121.801147,2.3984583e-08
C0R270,琉球嶼,2016-03-23,22.332244,120.362236,1.8880883e-07
C1T990,高寮,2016-03-23,23.394239,121.356808,1.8099496e-07
C0G620,芬園,2016-03-23,24.015678,120.6213,9.663718e-09
C1Z140,荖溪,2016-03-23,23.890575,121.45964,1.2963241e-08
C1I201,中心崙,2016-03-23,23.728722,120.712097,2.867841e-09
C1I400,凌霄,2016-03-23,24.018778,121.004456,5.3704885e-09
C1M640,十字,2016-03-23,23.492153,120.753683,6.814998e-09
G2P820,農試鳳山分所,2016-03-23,22.646611,120.356083,3.3666556e-09
C0Z270,蕃薯寮,2016-03-23,23.73835,121.540108,6.9975236e-08
C0F9Q0,外埔,2016-03-23,24.347817,120.705686,7.586702e-09
C0K580,高鐵雲林,2016-03-23,23.737456,120.417944,3.0549152e-09
C2I090,鳳凰,2016-03-23,23.728081,120.787347,2.8193057e-09
C0U990,員山,2016-03-23,24.74435,121.72247,3.6934406e-08
C0V770,大社,2016-03-23,22.730306,120.346639,2.4231541e-09
C0X120,麻豆,2016-03-23,23.183289,120.248611,3.2873877e-09
C0C670,龍潭,2016-03-23,24.870056,121.221389,5.8391136e-09
C0D680,香山濕地,2016-03-23,24.783581,120.914988,1.4811208e-08
C0S980,勝林山,2016-03-23,22.430439,120.8938,7.047602e-09
C0V730,大寮,2016-03-23,22.605614,120.395717,6.94635e-09
C0R570,麟洛,2016-03-23,22.65078,120.52719,2.4159366e-09
C2M930,石卓,2016-03-23,23.478744,120.702264,6.7071273e-09
C0G9B0,和美,2016-03-23,24.105169,120.492131,1.8831102e-08
CAG100,王功漁港,2016-03-23,23.96824,120.32586,3.001532e-08
C0X290,北門,2016-03-23,23.267772,120.125481,3.313904e-09
C2F930,大甲,2016-03-23,24.347667,120.640403,6.1217925e-08
C0D650,湖口,2016-03-23,24.904794,121.043628,1.8149427e-08
C0E420,竹南,2016-03-23,24.708978,120.888897,1.43604995e-08
C0U780,五結,2016-03-23,24.68637,121.79794,3.7870905e-08
C1I250,鯉潭,2016-03-23,23.961922,120.991131,2.6549056e-09
C0R130,阿禮,2016-03-23,22.742908,120.743678,3.898899e-09
C0X100,臺南市北區,2016-03-23,23.010394,120.194228,3.916444e-09
C0S920,金峰嘉蘭,2016-03-23,22.594789,120.960825,2.780987e-08
C0V490,新興,2016-03-23,22.627422,120.298803,3.5467322e-09
C0F9K0,大安,2016-03-23,24.345061,120.588025,9.9038964e-08
72N100,臺南農改,2016-03-23,23.0605,120.342194,1.9559254e-09
467290,古坑,2016-03-23,23.633639,120.551889,2.6917555e-09
C2E970,八甲,2016-03-23,24.535811,120.795983,7.825843e-09
C0V440,鳳山,2016-03-23,22.646653,120.356122,3.3666556e-09
C1T940,大觀,2016-03-23,23.714206,121.373133,4.874021e-08
72T250,花蓮農改,2016-03-23,23.975222,121.563889,2.6616606e-08
C0E740,造橋,2016-03-23,24.637056,120.864778,7.3652284e-09
C0R100,尾寮山,2016-03-23,22.833111,120.683889,4.3485238e-09
A2K630,臺大雲林校區,2016-03-23,23.730628,120.423903,3.0521021e-09
C0D580,寶山,2016-03-23,24.735006,121.025192,6.964034e-09
E2P990,林試扇平站,2016-03-23,22.9677,120.6857,3.5608243e-09
C0AI30,三重,2016-03-23,25.057328,121.500629,1.7563904e-08
C0AH00,汐止,2016-03-23,25.066881,121.658778,7.870965e-08
C1Z040,立山,2016-03-23,23.443356,121.327375,5.7185485e-08
C0W130,花嶼,2016-03-23,23.40007,119.32276,0.99367034
C0A950,鼻頭角,2016-03-23,25.129036,121.923372,3.0269316e-08
C0K470,林內,2016-03-23,23.748675,120.609642,2.769124e-09
C2F990,摩天嶺,2016-03-23,24.322458,120.936819,3.9397974e-09
82C160,茶改場,2016-03-23,24.908472,121.185333,9.758217e-09
C0Z320,清水林道,2016-03-23,23.27125,121.188272,9.918052e-09
C0R760,南仁湖,2016-03-23,22.084681,120.863353,0.9998179
C0M670,大林,2016-03-23,23.600616,120.45841,4.3845464e-08
C0M800,茶山,2016-03-23,23.299075,120.664767,2.1454285e-09
C0A9C0,天母,2016-03-23,25.117494,121.537169,1.7325373e-08
72K220,南改斗南分場,2016-03-23,23.634556,120.477333,2.8004086e-09
72AI40,桃改樹林分場,2016-03-23,24.944503,121.386972,1.7202748e-08
C0S910,蘭嶼燈塔,2016-03-23,22.081197,121.503117,0.9994173
C0B050,八斗子,2016-03-23,25.144754,121.79167,7.982024e-08
C0U900,內城,2016-03-23,24.71813,121.68766,1.9632445e-08
C0X320,柳營,2016-03-23,23.253328,120.375253,4.4559956e-09
C0M790,新港,2016-03-23,23.553269,120.345728,3.9490584e-09
C0F9T0,西屯,2016-03-23,24.179494,120.641275,5.607867e-08
C0SA30,都歷,2016-03-23,23.020333,121.323642,1.6736626e-08
C0C620,蘆竹,2016-03-23,25.084275,121.265767,2.1325658e-08
C0R730,大坪頂,2016-03-23,22.024633,120.69355,0.99992186
C0AJ40,石門,2016-03-23,25.273672,121.601198,2.5737886e-08
C0E750,苗栗,2016-03-23,24.564569,120.824575,3.3929847e-08
C0T870,鯉魚潭,2016-03-23,23.935639,121.508944,6.802754e-08
C1V170,排雲,2016-03-23,23.463619,120.954147,3.1136967e-08
C2H950,中寮,2016-03-23,23.884447,120.766406,3.1372303e-09
C0R350,貓鼻頭,2016-03-23,21.921774,120.7358,0.9998584
C0V660,岡山,2016-03-23,22.797078,120.294958,2.9043925e-09
C1H941,雙冬,2016-03-23,23.967378,120.802189,2.3356466e-09
C0AJ70,田寮,2016-03-23,25.2698,121.4886,3.3907334e-08
C0AI00,五股,2016-03-23,25.07445,121.42728,1.78206e-08
C0Z280,德武,2016-03-23,23.47426,121.41071,1.1704093e-07
C0R700,枋山,2016-03-23,22.246844,120.661086,0.023116643
C0C460,復興,2016-03-23,24.820208,121.352281,1.1584059e-08
E2H360,蓮華池,2016-03-23,23.918333,120.885278,2.5025972e-09
C0M640,中埔,2016-03-23,23.42538,120.5229,2.735198e-09
C0W140,金沙,2016-03-23,24.488292,118.408778,2.021489e-08
C2A540,四堵,2016-03-23,24.8926,121.745736,2.2612843e-08
C0ACA0,新莊,2016-03-23,25.051478,121.446756,2.5904498e-08
C0R220,潮州,2016-03-23,22.534361,120.54,2.9369156e-08
U2HA40,臺大內茅埔,2016-03-23,23.689722,120.851117,2.6721176e-09
467490,臺中,2016-03-23,24.145736,120.684075,7.385785e-08
C0U960,翠峰湖,2016-03-23,24.510856,121.608044,1.5712653e-08
E2HA20,林試畢祿溪站,2016-03-23,24.226944,121.308522,1.3112596e-08
C0V890,前鎮,2016-03-23,22.5718,120.3117,3.6003938e-09
467620,蘭嶼,2016-03-23,22.036969,121.558339,0.17810433
C1F941,雪嶺,2016-03-23,24.280586,121.026642,2.0688194e-08
C2H9E0,國姓南港,2016-03-23,23.911108,120.846556,3.5985126e-09
C0AC80,文山,2016-03-23,25.00235,121.575728,1.9203686e-08
C0F9R0,龍井,2016-03-23,24.184536,120.528972,1.15278254e-07
C0M760,民雄,2016-03-23,23.551754,120.428457,2.1409534e-08
C0UA40,西德山,2016-03-23,24.560647,121.752608,1.9654664e-08
C1T920,中興,2016-03-23,23.769503,121.498653,8.1869594e-08
C0D550,雪霸,2016-03-23,24.526972,121.11605,1.2489142e-08
C2F860,梨山,2016-03-23,24.247522,121.243669,1.3438308e-08
C0R320,車城,2016-03-23,22.0744,120.716247,0.99981505
C1S870,南美山,2016-03-23,23.15025,121.382333,1.2514418e-08
C0B020,基隆嶼,2016-03-23,25.19141,121.78391,7.357341e-08
C1U501,牛鬥,2016-03-23,24.637836,121.573656,1.6377637e-08
C0M730,嘉義市東區,2016-03-23,23.457673,120.460531,4.1497884e-08
C0S700,知本,2016-03-23,22.684866,121.005642,1.1848706e-08
C1N001,沙崙,2016-03-23,22.935472,120.309406,2.3227675e-09
C0V760,橋頭,2016-03-23,22.757806,120.30575,2.8441831e-09
C0G960,福寶,2016-03-23,24.0443,120.3814,2.0137884e-08
C0X210,白河,2016-03-23,23.347466,120.414427,4.420712e-09
C0S810,東河,2016-03-23,22.972672,121.303986,1.4154562e-08
C2R170,屏東,2016-03-23,22.66027,120.49403,2.4499038e-09
C0R670,楓港,2016-03-23,22.190131,120.692156,0.023116643
C0FA50,霧峰,2016-03-23,24.0419,120.6995,4.917404e-08
C0UB10,蘇澳,2016-03-23,24.5969,121.8571,3.8766842e-08
C0G950,防潮門,2016-03-23,24.1835,120.4871,1.2101445e-07
C0M740,六腳,2016-03-23,23.492871,120.290625,3.4827792e-09
C1R250,力里,2016-03-23,22.428117,120.629228,1.15551664e-07
C0K330,虎尾,2016-03-23,23.719183,120.442036,3.06472e-09
C2FA00,烏石坑,2016-03-23,24.273503,120.947617,3.920061e-09
C0V620,永安,2016-03-23,22.82315,120.236856,3.977884e-09
C1I330,楓樹林,2016-03-23,23.986803,121.076117,5.608784e-09
C0W200,湖西,2016-03-23,23.596314,119.67275,0.9739904
72Q010,高雄農改場,2016-03-23,22.709333,120.525889,2.4064442e-09
C0SA40,瑞和,2016-03-23,22.974361,121.156697,1.3462115e-08
C0C680,龜山,2016-03-23,25.02846,121.38656,6.6080945e-09
C2V260,月眉,2016-03-23,22.971003,120.539853,2.159951e-09
C0V450,鳳森,2016-03-23,22.545064,120.392592,6.0266965e-09
C0U720,南山,2016-03-23,24.43742,121.38167,1.0053489e-08
A2N290,臺南蘭花園區,2016-03-23,23.340258,120.379661,4.458546e-09
C0R560,新園,2016-03-23,22.5434,120.461558,9.975157e-09
C0U890,三星,2016-03-23,24.66812,121.65302,1.8822197e-08
C1V300,御油山,2016-03-23,23.001983,120.715364,8.933524e-09
C0U600,礁溪,2016-03-23,24.817539,121.765608,2.020213e-08
C1T980,龍澗,2016-03-23,24.023289,121.411328,9.2718e-09
C0D670,海天一線,2016-03-23,24.831986,120.914438,1.5041755e-08
C0SA00,歷坵,2016-03-23,22.520969,120.89185,1.1117993e-08
C0M710,東石,2016-03-23,23.458927,120.15385,4.664351e-09
C0M780,鹿草,2016-03-23,23.41134,120.30835,3.5199301e-09
C0U520,雙連埤,2016-03-23,24.753033,121.641303,1.0000685e-08
C0B010,七堵,2016-03-23,25.094819,121.71713,6.956178e-08
C0R480,長治,2016-03-23,22.693128,120.542622,4.288241e-09
C1V830,國三S383K,2016-03-23,22.781967,120.426475,2.0029276e-09
12Q980,恆春工作站,2016-03-23,22.079678,120.714425,0.99981505
C1O940,東山服務區,2016-03-23,23.286016,120.398472,4.3263193e-09
C1U840,東澳嶺,2016-03-23,24.5378,121.8485,2.599438e-08
C1D630,飛鳳山,2016-03-23,24.766464,121.119178,7.85475e-09
C0S940,石寧山,2016-03-23,23.223772,121.406639,8.420859e-09
C0K410,北港,2016-03-23,23.573957,120.292802,4.09653e-09
C2M620,瑞里,2016-03-23,23.545133,120.675197,5.8331246e-09
C0SB70,小港漁港,2016-03-23,23.158558,121.400431,9.184113e-09
C2O950,安南,2016-03-23,23.076694,120.144861,1.157538e-08
C0F0E0,南湖圈谷,2016-03-23,24.363714,121.444667,4.0549345e-08
467610,成功,2016-03-23,23.097486,121.373428,2.0445258e-08
C0G890,伸港,2016-03-23,24.148933,120.484403,1.1930294e-07
C2E540,龍溪,2016-03-23,24.606489,120.783933,4.444081e-08
C1V200,梅山,2016-03-23,23.268447,120.823556,4.245976e-09
C0T9H0,加路蘭山,2016-03-23,23.682947,121.5274,2.7628474e-08
C2O930,玉井,2016-03-23,23.126042,120.46055,4.2928647e-09
C1F911,新伯公,2016-03-23,24.221361,120.841069,4.154134e-09
C0R490,九如,2016-03-23,22.7405,120.490503,2.4159366e-09
C0X200,左鎮,2016-03-23,23.056758,120.408522,2.5346096e-09
C0SB50,叭嗡嗡,2016-03-23,23.047062,121.343223,1.517787e-08
C1F891,稍來,2016-03-23,24.265689,121.001142,1.5149785e-08
72N240,七股研究中心,2016-03-23,23.081672,120.062894,1.4000147e-08
C0C700,中壢,2016-03-23,24.977661,121.256375,1.3064664e-08
C0M690,水上,2016-03-23,23.419734,120.388909,2.2892449e-08
C0V690,鼓山,2016-03-23,22.623325,120.275575,3.5467322e-09
C0O860,大內,2016-03-23,23.11885,120.36083,2.2567979e-09
C0Z200,萬榮,2016-03-23,23.709219,121.420106,6.9406056e-08
C0T9D0,和中,2016-03-23,24.26676,121.74103,6.1053396e-07
C1O921,楠西,2016-03-23,23.183511,120.484083,4.020876e-09
C0AJ30,淡水觀海,2016-03-23,25.184591,121.408616,2.2164647e-08
C0V810,左營,2016-03-23,22.67491,120.28491,2.4665203e-09
C0UA70,桃源谷,2016-03-23,24.962606,121.888875,1.6847187e-08
C0X130,官田,2016-03-23,23.193217,120.315422,2.1374067e-09
C1H000,翠峰,2016-03-23,24.109397,121.205211,1.5946247e-08
C0UA90,石城,2016-03-23,24.980444,121.951214,3.547634e-08
C1E681,南勢山,2016-03-23,24.421669,120.923831,4.2180957e-09
C0A9F0,內湖,2016-03-23,25.079422,121.57545,1.9759685e-08
C0K291,宜梧,2016-03-23,23.536281,120.169329,4.72975e-09
C1K540,口湖,2016-03-23,23.585344,120.180517,5.2771116e-09
C0R780,滿州,2016-03-23,22.024403,120.839892,0.99986535
C0V870,文安,2016-03-23,22.8025,120.2164,3.992988e-09
C0U650,玉蘭,2016-03-23,24.675286,121.587061,2.312332e-08
C0R640,東港,2016-03-23,22.46247,120.44074,3.5997414e-09
K2E360,苗栗農改,2016-03-23,24.495722,120.829111,8.258362e-09
C0AJ80,板橋,2016-03-23,25.0107,121.4489,1.7427055e-08
C0S660,下馬,2016-03-23,23.150427,121.070312,1.056327e-08
C1H9B1,阿眉,2016-03-23,24.1263,120.994672,6.8689068e-09
C0UA20,多加屯,2016-03-23,24.368614,121.373189,2.1480048e-08
C0E730,頭份,2016-03-23,24.688247,120.912206,1.43765595e-08
72V140,高改旗南分場,2016-03-23,22.857861,120.516667,4.3304307e-09
C0K480,莿桐,2016-03-23,23.761192,120.502372,3.1899667e-09
C0U980,坪林石牌,2016-03-23,24.86478,121.77396,1.5950201e-08
C0T900,西林,2016-03-23,23.8119,121.441458,6.289071e-08
C1I150,青雲,2016-03-23,23.793361,120.949378,3.0401568e-09
467350,澎湖,2016-03-23,23.565503,119.563094,0.99139196
C0G800,埔鹽,2016-03-23,24.000394,120.431683,1.9365343e-08
C0H960,草屯,2016-03-23,23.973672,120.68085,3.3948149e-09
C1V780,多納林道,2016-03-23,22.888028,120.737917,4.6820086e-09
C0E920,通霄漁港,2016-03-23,24.498589,120.673876,1.3807453e-07
C0Z330,安通山,2016-03-23,23.290728,121.348528,9.037348e-09
C0AH10,永和,2016-03-23,25.01125,121.508111,2.0107677e-08
C0AK10,太平里,2016-03-23,25.134937,121.364899,2.5904498e-08
C2G640,鹿港,2016-03-23,24.0753,120.430481,1.9389736e-08
C1E890,國三N149K,2016-03-23,24.463414,120.680019,7.5156855e-08
C1R110,口社,2016-03-23,22.770111,120.645222,4.760785e-09
C1M870,國三N285K,2016-03-23,23.550319,120.505833,2.8055143e-09
467050,新屋,2016-03-23,25.006744,121.047486,2.0069745e-08
C1E480,鳳美,2016-03-23,24.554803,121.034747,6.070698e-09
C0M530,奮起湖,2016-03-23,23.493903,120.699253,6.4428534e-09
C0C590,觀音,2016-03-23,25.027072,121.153317,1.3772399e-08
C0T9M0,靜浦,2016-03-23,23.455167,121.495028,2.2237761e-07
C2H9M0,發祥,2016-03-23,24.154094,121.164517,5.3737264e-09
C0AI40,石牌,2016-03-23,25.115597,121.513139,1.7427055e-08
C1F871,上谷關,2016-03-23,24.203483,121.018644,3.920061e-09
C2H9G0,百勝,2016-03-23,24.051142,120.909361,4.271775e-09
C0G880,二水,2016-03-23,23.810742,120.6173,2.7106482e-09
C0R940,加祿堂,2016-03-23,22.3363,120.6217,4.9585583e-07
C0W220,北竿,2016-03-23,26.220358,119.974881,1.1004237e-08
C0O960,崎頂,2016-03-23,22.959547,120.369317,2.2597828e-09
C0S750,向陽,2016-03-23,23.248397,120.986133,1.4398266e-08
C0T9F0,水璉,2016-03-23,23.797131,121.542514,5.440704e-08
C1M600,頭凍,2016-03-23,23.406364,120.603339,4.710277e-09
467660,臺東,2016-03-23,22.752211,121.154586,3.7144932e-08
C1D380,新埔,2016-03-23,24.84745,121.03834,1.3351595e-08
C2G980,田頭村,2016-03-23,23.8263,120.444175,3.5433108e-09
C0V750,路竹,2016-03-23,22.854997,120.259439,2.3892113e-09
C0N050,蚵寮,2016-03-23,23.301,120.1104,5.788316e-09
72M700,南改鹿草分場,2016-03-23,23.416869,120.283061,3.5891699e-09
C1SA50,利嘉林道,2016-03-23,22.82325,121.009389,9.407074e-09
467550,玉山,2016-03-23,23.487614,120.959522,3.4460154e-08
C0A940,金山,2016-03-23,25.223628,121.643967,3.10659e-08
C1V340,大津,2016-03-23,22.888322,120.645986,1.94103e-09
C0W180,七美,2016-03-23,23.219333,119.444892,0.9934041
C1F9C1,白冷,2016-03-23,24.182844,120.929889,3.6974137e-09
K2E710,苗改生物防治研究中心,2016-03-23,24.422861,120.871833,6.5507075e-09
C0N040,蘆竹溝,2016-03-23,23.2344,120.0961,5.788316e-09
C2W230,畜試所澎湖,2016-03-23,23.628342,119.513206,0.97178674
C0R880,後壁湖,2016-03-23,21.9457,120.7457,0.9998
C1I280,埔中,2016-03-23,23.820778,120.642594,2.9191711e-09
467790,墾丁雷達站,2016-03-23,21.948235,120.808028,0.99987197
C0W190,望安,2016-03-23,23.380564,119.494075,0.98837
466881,新北,2016-03-23,24.9593,121.52,1.9430571e-08
C0Z170,卓溪,2016-03-23,23.3443,121.3029,2.4060414e-08
C0F850,東勢,2016-03-23,24.246428,120.833047,4.1094426e-09
466900,淡水,2016-03-23,25.164889,121.448906,2.1811985e-08
C0I370,魚池,2016-03-23,23.895703,120.94135,2.4917233e-09
C0C630,大溪,2016-03-23,24.882853,121.265547,9.693736e-09
C0A520,山佳,2016-03-23,24.974944,121.402008,1.7202748e-08
C0I110,竹山,2016-03-23,23.761225,120.688156,3.1044796e-09
82H840,茶改南部分場,2016-03-23,23.762528,120.7405,2.923406e-09
C0G660,溪湖,2016-03-23,23.94835,120.479122,1.8551923e-08
C1T800,洛韶,2016-03-23,24.204558,121.453956,1.5959117e-08
C1T810,慈恩,2016-03-23,24.192044,121.388386,1.5365424e-08
C1E451,象鼻,2016-03-23,24.368617,120.940228,4.2180957e-09
C0AC60,三峽,2016-03-23,24.939025,121.369728,1.9485388e-08
C0I490,萬大林道,2016-03-23,23.928228,121.091411,8.337608e-09
C1I290,豐丘,2016-03-23,23.668178,120.887417,3.640417e-09
C1I320,奧萬大,2016-03-23,23.952956,121.178556,5.6614713e-09
C2M910,嘉義大學,2016-03-23,23.471325,120.485903,2.695326e-09
C0U770,南澳,2016-03-23,24.44935,121.81022,9.820285e-08
C0A980,社子,2016-03-23,25.109508,121.469681,1.767767e-08
C0V800,六龜,2016-03-23,22.997889,120.633583,2.0815236e-09
C1G9D0,國一S218K,2016-03-23,23.890641,120.493253,1.7736504e-08
C0E570,白沙屯,2016-03-23,24.549447,120.696803,1.3807453e-07
C2F9A0,中竹林,2016-03-23,24.103556,120.751061,3.4857697e-09
C0FA40,臺中電廠,2016-03-23,24.2146,120.4907,1.15278254e-07
C2G9A0,畜試所彰化,2016-03-23,23.86045,120.557964,3.1693952e-09
C0H9C0,合歡山,2016-03-23,24.143442,121.272547,3.309295e-08
C0X060,下營,2016-03-23,23.22695,120.256261,2.1630555e-09
G2M350,農試溪口農場,2016-03-23,23.58565,120.408111,2.3879185e-08
C0U860,頭城,2016-03-23,24.85323,121.8308,2.0284643e-08
C0R580,南州,2016-03-23,22.48591,120.50274,1.0387806e-08
C0D430,峨眉,2016-03-23,24.6905,121.017189,1.3076406e-08
C0G780,秀水,2016-03-23,24.03405,120.503869,1.7088746e-08
72N100,臺南農改場,2016-03-23,23.0605,120.342194,1.9559254e-09
C0S900,蘭嶼高中,2016-03-23,22.04909,121.51214,0.99981767
467540,大武,2016-03-23,22.355675,120.903789,0.050418455
C1F9W0,德基,2016-03-23,24.254783,121.190261,1.01156745e-08
C1Z120,壽豐,2016-03-23,23.870853,121.508081,9.1771476e-08
C0W160,烏坵,2016-03-23,24.9944,119.44956,0.0039853165
C1I240,外大坪,2016-03-23,23.958697,120.917931,2.704967e-09
C1I550,國六W023K,2016-03-23,23.979067,120.867742,2.8758658e-09
C0R870,興海,2016-03-23,21.9752,120.8439,0.9998397
C0R140,瑪家,2016-03-23,22.682903,120.686639,3.7490766e-09
C0A530,坪林,2016-03-23,24.938183,121.70975,1.01055315e-08
C0X260,後壁,2016-03-23,23.366358,120.362326,2.3311604e-09
C0Z230,和平,2016-03-23,24.30717,121.77007,6.1053396e-07
C0G770,福興,2016-03-23,24.041289,120.437669,1.9365343e-08
C0H9A0,神木村,2016-03-23,23.532742,120.843667,7.496255e-09
C0I460,南投,2016-03-23,23.911469,120.687331,3.070325e-09
C0I480,梅峰,2016-03-23,24.085272,121.173572,1.27477655e-08
C1V570,吉東,2016-03-23,22.85422,120.5454,4.2714654e-09
C2D740,屯原,2016-03-23,24.067969,121.209389,1.1452814e-08
C2A560,福山,2016-03-23,24.776203,121.502811,8.67022e-09
C0AH30,五分山,2016-03-23,25.07125,121.780794,1.803892e-08
C0FA10,松柏,2016-03-23,24.429115,120.617482,1.1315773e-07
72S200,東改班鳩分場,2016-03-23,22.829528,121.077694,1.8780169e-08
72HA00,中改埔里分場,2016-03-23,23.903208,120.963364,2.4281788e-09
C2H9W0,大坪頂農水,2016-03-23,24.043122,120.932781,2.6804075e-09
C0C650,平鎮,2016-03-23,24.897503,121.214636,9.752004e-09
C0S930,延平,2016-03-23,22.902581,121.084058,1.01367466e-08
C0UA60,樟樹山,2016-03-23,24.41393,121.78325,5.61082e-08
C1S670,摩天,2016-03-23,23.199503,121.027,1.0308541e-08
C0V630,茄萣,2016-03-23,22.906642,120.182608,3.586371e-09
466940,基隆,2016-03-23,25.133314,121.740475,7.723424e-08
C0X050,東河,2016-03-23,23.296598,120.385608,4.4559956e-09
C0R770,保力,2016-03-23,22.071122,120.764111,0.9998877
G2L020,農試嘉義分所,2016-03-23,23.485028,120.473806,2.6928697e-09
C0X240,關子嶺,2016-03-23,23.331169,120.508025,2.4430864e-09
C0I380,集集,2016-03-23,23.828206,120.801467,2.0159818e-09
466990,花蓮,2016-03-23,23.975128,121.613275,2.720169e-08
C1V220,小關山,2016-03-23,23.154217,120.813603,1.0189259e-08
C1F9G1,慶福山,2016-03-23,24.180853,120.848378,2.7887566e-09
C0Z250,瑞穗林道,2016-03-23,23.49284,121.30688,1.48019454e-08
C0D590,新豐,2016-03-23,24.87068,120.97721,8.325626e-09
C0A870,五指山,2016-03-23,25.132153,121.608692,1.9527095e-08
C0UA50,西帽山,2016-03-23,24.555361,121.802628,2.1546276e-08
C0X160,仁德,2016-03-23,22.968258,120.257689,2.1690956e-09
C1H971,六分寮,2016-03-23,23.92507,120.6378,2.9419711e-09
C0W120,西嶼,2016-03-23,23.5626,119.468436,0.99139196
C0G650,員林,2016-03-23,23.946503,120.585597,1.3985521e-08
C0AD50,鶯歌,2016-03-23,24.951533,121.346294,1.523893e-08
C2H9Q0,北東眼山,2016-03-23,24.120939,121.189303,1.1229647e-08
C2H9T0,名間竹圍,2016-03-23,23.859914,120.637572,2.1209188e-09
C0S990,山豬窟,2016-03-23,22.318619,120.857372,4.277354e-07
72Q010,高雄農改,2016-03-23,22.709333,120.525889,2.4064442e-09
C0X190,安平,2016-03-23,22.993161,120.152181,3.917639e-09
C0K400,斗六,2016-03-23,23.720583,120.541127,3.0260237e-09
12J990,口湖工作站,2016-03-23,23.589978,120.180394,5.252209e-09
C0O830,北寮,2016-03-23,23.079561,120.495008,2.3241413e-09
C1D410,白蘭,2016-03-23,24.579364,121.079947,9.0179935e-09
C0S970,加津林,2016-03-23,22.416211,120.926942,0.028453492
C0D700,關西,2016-03-23,24.7977,121.1732,1.0009157e-08
C0M810,里佳,2016-03-23,23.389125,120.716647,6.439929e-09
C0U750,龜山島,2016-03-23,24.841667,121.953133,2.4086127e-08
C0R810,內獅,2016-03-23,22.305064,120.642986,4.9585583e-07
C1M390,龍美,2016-03-23,23.406728,120.654417,5.064583e-09
C2FB60,頭櫃山,2016-03-23,24.129842,120.858925,4.048279e-09
C1H840,國三N238K,2016-03-23,23.841008,120.707711,2.0250113e-09
CAQ030,崎峰國小,2016-03-23,22.42565,120.49521,1.0387806e-08
C2E520,大湖,2016-03-23,24.414939,120.870872,6.9997097e-09
467530,阿里山,2016-03-23,23.508208,120.813242,1.5367828e-08
C1E691,南湖,2016-03-23,24.40135,120.837533,3.8995234e-09
C0FA30,梧棲,2016-03-23,24.256003,120.523381,1.15278254e-07
C1V231,高中,2016-03-23,23.134911,120.716711,2.9869272e-09
C0F9V0,新社,2016-03-23,24.200172,120.815806,4.4199613e-09
C0H890,埔里,2016-03-23,23.972169,120.952425,3.359138e-09
C0R690,墾丁,2016-03-23,21.966756,120.810269,0.9999102
C0F0D0,審馬陣,2016-03-23,24.381675,121.4203,3.2014828e-08
C0R820,白鷺,2016-03-23,22.454275,120.666219,8.5531454e-08
U2H480,臺大溪頭,2016-03-23,23.670306,120.798194,3.5293286e-09
C1V190,南天池,2016-03-23,23.27403,120.91176,1.6007375e-08
K2E360,苗栗農改場,2016-03-23,24.495722,120.829111,8.258347e-09
CAJ050,海口故事園區,2016-03-23,23.57543,120.14121,5.2771116e-09
C2H9D0,三隻寮,2016-03-23,24.093078,120.861578,2.7312725e-09
C0O990,媽廟,2016-03-23,22.99175,120.293525,2.1708961e-09
C0D480,打鐵坑,2016-03-23,24.849664,121.150789,6.5437145e-09
C0Z220,和平林道,2016-03-23,24.343922,121.656317,5.509774e-08
C0TA10,花蓮漁港,2016-03-23,23.995322,121.638331,2.7657313e-08
72C440,桃園農改場,2016-03-23,24.950944,121.030583,1.9156785e-08
C1E711,馬拉邦山,2016-03-23,24.367306,120.901656,5.6739786e-09
C0SB20,富岡,2016-03-23,22.792467,121.192669,3.5825853e-08
C0D560,竹東,2016-03-23,24.767147,121.057881,1.0946459e-08
C0F9U0,南屯,2016-03-23,24.137006,120.637969,6.7975144e-08
C0M720,番路,2016-03-23,23.464657,120.554156,2.7467624e-09
C0F0A0,雪山圈谷,2016-03-23,24.388594,121.236339,4.0033e-08
C1A9N0,四十份,2016-03-23,24.934158,121.593283,1.3086361e-08
C0U760,東澳,2016-03-23,24.52196,121.83318,3.8888594e-08
C0X230,鹽水,2016-03-23,23.272621,120.247641,3.0509382e-09
C2H9H0,苗改南投蜂場,2016-03-23,23.852589,120.693481,3.1044796e-09
C0R950,萬隆國小,2016-03-23,22.507667,120.587817,5.9747003e-09
C0V370,古亭坑,2016-03-23,22.893178,120.401947,2.798321e-09
C1I340,新興橋,2016-03-23,23.563333,120.868728,3.2948955e-09
C0SA80,土坂,2016-03-23,22.453108,120.887572,2.361215e-08
C0R160,鹽埔,2016-03-23,22.739558,120.530778,4.3737614e-09
C0AC40,大屯山,2016-03-23,25.175675,121.522408,1.9912042e-08
466850,五分山雷達站,2016-03-23,25.071182,121.781205,1.8090086e-08
C2H9L0,馬烈霸,2016-03-23,24.1512,121.201772,1.1062614e-08
C1AI50,國三N016K,2016-03-23,25.034164,121.619664,1.9158723e-08
C1V600,藤枝,2016-03-23,23.071961,120.757042,8.340614e-09
C1E601,南勢,2016-03-23,24.572486,120.734842,1.0156177e-08
C0Z180,新城,2016-03-23,24.03946,121.60454,2.6715124e-08
C0O980,新市,2016-03-23,23.061614,120.298197,1.9674946e-09
C0K420,西螺,2016-03-23,23.800407,120.467394,3.1702356e-09
C0Z050,佳心,2016-03-23,23.34567,121.21316,1.077823e-08
C0AD30,蘆洲,2016-03-23,25.086594,121.472331,1.7546125e-08
C0V610,梓官,2016-03-23,22.760558,120.267211,2.9043925e-09
K2F750,種苗改良場,2016-03-23,24.225972,120.800917,4.269152e-09
C0UA80,大溪漁港,2016-03-23,24.941801,121.902955,2.020213e-08
C1AI60,國一39K邊坡,2016-03-23,25.064361,121.383836,1.5635461e-08
C0W150,金寧,2016-03-23,24.457703,118.328989,2.0123101e-08
C0R960,內埔,2016-03-23,22.608483,120.570714,6.3261476e-09
V2C250,八德合作社,2016-03-23,24.93775,121.266389,9.944989e-09
C2H9S0,龍南,2016-03-23,23.953536,120.833183,3.6302519e-09
C0AH40,平等,2016-03-23,25.129142,121.577086,2.0997799e-08
C0R540,佳冬,2016-03-23,22.419456,120.552375,1.0387806e-08
466950,彭佳嶼,2016-03-23,25.627975,122.079744,4.4748205e-08
C0A890,雙溪,2016-03-23,25.036003,121.864242,6.5170994e-08
C0C480,桃園,2016-03-23,24.992425,121.323172,1.3180097e-08
C0AH50,林口,2016-03-23,25.072181,121.38084,2.1073067e-08
A2K360,水試臺西試驗場,2016-03-23,23.717231,120.190522,2.6563912e-08
B2N890,畜試所,2016-03-23,23.058972,120.336406,1.9559254e-09
C2M960,外寮,2016-03-23,23.562643,120.665688,4.5913273e-09
C0F9S0,烏日,2016-03-23,24.107058,120.624103,1.5496603e-08
C0C490,八德,2016-03-23,24.928708,121.283289,9.850578e-09
C0R190,赤山,2016-03-23,22.592333,120.614306,6.0285705e-09
C0T820,天祥,2016-03-23,24.179597,121.495639,2.9135935e-08
C1F9E1,龍安,2016-03-23,24.1605,120.831961,4.4914756e-09
C0V820,小林,2016-03-23,23.148408,120.63325,2.0526285e-09
C2G870,芳苑,2016-03-23,23.922303,120.320025,2.2698188e-08
C0E850,大河,2016-03-23,24.618069,120.948578,7.0622157e-09
C1U670,寒溪,2016-03-23,24.634,121.71691,3.0399093e-08
C0N020,城西,2016-03-23,23.0568,120.0956,1.3397309e-08
C1Z110,三棧,2016-03-23,24.11557,121.60501,2.7462294e-08
C0R280,檳榔,2016-03-23,22.076078,120.836777,0.99991316
C2H9J0,中台,2016-03-23,23.9996,120.938739,3.3182936e-09
C0F9L0,后里,2016-03-23,24.310436,120.729725,6.830731e-09
C0D540,橫山,2016-03-23,24.71116,121.11693,6.9313555e-09
C1D420,太閣南,2016-03-23,24.632808,121.160575,5.507523e-09
C1E770,公館,2016-03-23,24.526914,120.830806,6.599004e-08
CAN130,水試所海水繁養殖中心,2016-03-23,23.120802,120.07968,1.4000147e-08
C1I430,翠華,2016-03-23,24.191961,121.224339,1.6679424e-08
C1M400,菜瓜坪,2016-03-23,23.251928,120.576103,2.1380346e-09
C0G730,二林,2016-03-23,23.903325,120.376081,1.7115363e-08
72M360,南改義竹分場,2016-03-23,23.360694,120.279361,2.1699398e-09
V2K620,麥寮合作社,2016-03-23,23.753836,120.294783,2.7739306e-08
C0Z070,舞鶴,2016-03-23,23.46811,121.37407,9.3569895e-08
C0B040,大武崙,2016-03-23,25.166676,121.706993,6.948619e-08
C1Z030,紅葉,2016-03-23,23.493119,121.338806,1.11951984e-07
C1I050,丹大,2016-03-23,23.753747,121.141147,1.765139e-08
C0I080,信義,2016-03-23,23.689694,120.851036,2.6721176e-09
C2M920,朴子農改,2016-03-23,23.469889,120.259383,3.48692e-09
C2A880,福隆,2016-03-23,25.017842,121.942083,2.9695746e-08
C0Z160,鳳林,2016-03-23,23.746114,121.453411,1.300742e-07
C0V210,復興,2016-03-23,23.222403,120.806089,3.9010857e-09
C0H990,昆陽,2016-03-23,24.121322,121.273642,2.4319897e-08
C0R741,獅子,2016-03-23,22.202308,120.705236,0.0077657327
C0S710,鹿野,2016-03-23,22.917711,121.122994,1.002123e-08
C0I530,小奇萊,2016-03-23,24.131764,121.295717,2.6571056e-08
C2K630,荷苞,2016-03-23,23.657717,120.595144,2.74953e-09
C0Z080,富源,2016-03-23,23.587642,121.378225,8.4409145e-08
467441,高雄,2016-03-23,22.7304,120.3125,2.4665203e-09
C0SB10,美和,2016-03-23,22.682078,121.060236,3.94638e-08
C2K620,馬光農場,2016-03-23,23.721453,120.378864,3.0800265e-09
C1I140,卡奈托灣,2016-03-23,23.754364,121.087872,7.002407e-09
C0I520,玉山風口,2016-03-23,23.470489,120.955994,3.5401715e-08
C1G691,下水埔,2016-03-23,23.816114,120.5676,2.7170461e-09
C0X110,臺南市南區,2016-03-23,22.961189,120.188378,3.8601105e-09
C0V680,仁武,2016-03-23,22.701083,120.347722,2.4231588e-09
C2G840,北斗,2016-03-23,23.877586,120.514222,1.694923e-08
C0R900,竹坑,2016-03-23,22.1385,120.7022,0.3484342
C0K250,崙背,2016-03-23,23.75555,120.318925,2.605494e-08
C0G860,社頭,2016-03-23,23.897647,120.5862,1.3443333e-08
C0X150,安定,2016-03-23,23.102614,120.227839,3.384154e-09
C0R590,里港,2016-03-23,22.77919,120.49459,4.4308077e-09
C0E610,馬都安,2016-03-23,24.451272,120.930192,5.577367e-09
C0E550,明德,2016-03-23,24.583486,120.885411,7.145299e-09
C0R150,三地門,2016-03-23,22.709889,120.639944,5.5283196e-09
C0G910,花壇,2016-03-23,24.032076,120.549461,1.5824355e-08
C1D400,鳥嘴山,2016-03-23,24.71909,121.28387,8.703076e-09
C0K500,元長,2016-03-23,23.64981,120.315024,2.6097961e-08
C0F0B0,石岡,2016-03-23,24.276061,120.777644,3.742789e-09
C2V250,甲仙,2016-03-23,23.080106,120.591758,2.1469595e-09
C0SA20,金崙山,2016-03-23,22.567419,120.959667,8.143676e-09
C0V350,溪埔,2016-03-23,22.738578,120.446797,2.5928313e-09
C0M660,溪口,2016-03-23,23.604131,120.403569,2.3879185e-08
C1S880,壽卡,2016-03-23,22.238911,120.858903,7.061855e-08
72D680,桃改新埔分場,2016-03-23,24.834444,121.066111,1.1411014e-08
