站號,站名,日期,lat,lon,BLBTSLS
C0R710,龍磐,2016-01-16,21.931672,120.838942,0.9998369
C1F9D1,白毛台,2016-01-16,24.158325,120.886933,2.3898448e-09
C0G940,竹塘,2016-01-16,23.848253,120.386764,1.1989679e-08
467590,恆春,2016-01-16,22.003897,120.746339,0.9997931
C1O850,環湖,2016-01-16,23.148617,120.418633,3.99908e-08
C0U710,太平山,2016-01-16,24.505486,121.525656,2.2075119e-08
C0E820,獅潭,2016-01-16,24.539133,120.920042,2.6201855e-08
C0V880,興達,2016-01-16,22.8778,120.2127,4.010305e-07
C0S890,關山,2016-01-16,23.0395,121.175017,8.2797425e-07
C0SB30,新蘭,2016-01-16,22.869214,121.223228,1.8949313e-05
C2R970,屏科大,2016-01-16,22.648275,120.619247,3.3418963e-09
K2F750,種苗繁殖,2016-01-16,24.225972,120.800917,4.27105e-09
C1Z130,銅門,2016-01-16,23.965694,121.492842,1.1568111e-07
C0AD40,土城,2016-01-16,24.973208,121.445169,2.2831254e-07
CAN140,六官養殖協會,2016-01-16,23.22881,120.29962,5.3210194e-08
C0X180,山上,2016-01-16,23.0757,120.363253,1.2703396e-08
C0F9Z0,雪山東峰,2016-01-16,24.388792,121.268675,2.4921809e-08
C1M480,獨立山,2016-01-16,23.537022,120.607797,3.742104e-09
C0X220,學甲,2016-01-16,23.230367,120.182187,1.678585e-07
467650,日月潭,2016-01-16,23.881325,120.90805,4.663461e-09
C0K600,箔子寮,2016-01-16,23.6197,120.14,1.7390886e-07
C0G830,埤頭,2016-01-16,23.866003,120.452806,9.640007e-09
C0S950,七塊厝,2016-01-16,22.954453,121.229922,4.5938787e-08
467110,金門,2016-01-16,24.407306,118.289281,6.185655e-08
C0AH80,深坑,2016-01-16,25.002703,121.628328,2.423103e-07
467990,馬祖,2016-01-16,26.169269,119.923419,6.7647136e-08
C0A970,三貂角,2016-01-16,25.007606,122.002058,5.6297832e-08
C2D730,寶山農場,2016-01-16,24.732444,120.976153,2.0168082e-07
C0K430,褒忠,2016-01-16,23.690938,120.303634,7.605524e-07
467480,嘉義,2016-01-16,23.495925,120.432906,2.6645316e-07
C2E540,後龍,2016-01-16,24.606489,120.783933,1.137711e-06
C0V400,阿公店,2016-01-16,22.804194,120.355528,1.3035939e-08
C0R440,大漢山,2016-01-16,22.405264,120.753181,1.8585853e-08
C0K280,四湖,2016-01-16,23.630414,120.227125,1.5776985e-06
C1F9B1,桐林,2016-01-16,24.066172,120.735194,5.1795856e-09
C2H9U0,鳳鵬,2016-01-16,23.763919,120.788061,3.1351663e-09
C0K390,土庫,2016-01-16,23.679029,120.395574,9.324686e-09
C1I450,望鄉山,2016-01-16,23.594153,120.944286,2.2116293e-08
C0E910,海埔,2016-01-16,24.648767,120.772435,6.8418565e-08
B2E890,畜試北區分所,2016-01-16,24.527806,120.770972,3.6186962e-06
C0R750,四林格山,2016-01-16,22.076989,120.802439,0.05613873
C0F0C0,中坑,2016-01-16,24.248517,120.903319,4.3381934e-09
C1I121,大鞍,2016-01-16,23.678381,120.760017,7.873334e-09
72U480,花改蘭陽分場,2016-01-16,24.686306,121.716583,1.5568675e-07
C0A770,科教館,2016-01-16,25.096356,121.516507,2.3886003e-07
C0AJ60,六塊厝,2016-01-16,25.24,121.4481,4.2749357e-07
C0R620,墾雷,2016-01-16,21.900836,120.855269,0.99979854
467420,永康,2016-01-16,23.038386,120.2367,3.3006404e-07
467300,東吉島,2016-01-16,23.25695,119.667467,0.98000693
C0I410,名間,2016-01-16,23.837053,120.701447,3.9640007e-09
A2C560,農工中心,2016-01-16,24.985917,121.239833,1.9725329e-07
C0V740,旗山,2016-01-16,22.888614,120.483597,1.6106634e-08
C0Z061,玉里,2016-01-16,23.3215,121.339656,2.8986452e-07
C0S840,南田,2016-01-16,22.279725,120.889208,0.99986273
C1I470,杉林溪,2016-01-16,23.639517,120.786444,8.709951e-09
C1X040,東原,2016-01-16,23.291597,120.463822,4.4011093e-09
C0R660,枋寮,2016-01-16,22.367722,120.590647,6.0605867e-09
C1R120,上德文,2016-01-16,22.763272,120.704442,1.6122556e-08
C0K450,大埤,2016-01-16,23.646074,120.431537,8.632532e-09
C0UA00,土場,2016-01-16,24.576533,121.495333,3.533473e-08
467080,宜蘭,2016-01-16,24.763975,121.756528,5.7712647e-08
C0N030,四草,2016-01-16,23.0235,120.1116,1.2006176e-06
C0V650,彌陀,2016-01-16,22.783806,120.246361,1.3135944e-07
C0D660,新竹市東區,2016-01-16,24.798681,120.986942,3.6743185e-07
82S580,茶改東部分場,2016-01-16,22.907694,121.130139,1.2566088e-07
C0SB40,興隆,2016-01-16,22.913661,121.257469,2.906648e-07
C0C710,大溪永福,2016-01-16,24.892936,121.324975,1.7896343e-07
C0FA20,溫寮,2016-01-16,24.372177,120.583125,4.0320206e-06
C0V640,湖內,2016-01-16,22.887139,120.2445,3.3606273e-07
C0R910,下寮,2016-01-16,22.3929,120.5548,8.305883e-08
C0Z020,明里,2016-01-16,23.208717,121.262342,8.928367e-08
C0M770,嘉義梅山,2016-01-16,23.585398,120.555587,4.9144298e-09
G2F820,農業試驗所,2016-01-16,24.031261,120.688133,2.6676895e-07
C0C660,楊梅,2016-01-16,24.912375,121.143047,1.5920679e-07
C1E511,新開,2016-01-16,24.347703,120.827019,3.5849348e-09
G2F820,農試所(霧峰),2016-01-16,24.031261,120.688133,2.6676895e-07
C1I070,和社,2016-01-16,23.591131,120.888861,4.083728e-09
C2F000,大肚,2016-01-16,24.15295,120.572117,6.74855e-09
C1S850,豐南,2016-01-16,23.122139,121.262389,4.141241e-08
C2A920,富貴角,2016-01-16,25.263783,121.565258,5.651419e-07
CAH030,茶改場竹圍站,2016-01-16,23.860083,120.637528,4.5625193e-09
C0T960,光復,2016-01-16,23.660694,121.424964,3.5148256e-05
C0F9M0,豐原,2016-01-16,24.254322,120.720692,1.8024716e-08
C0R720,旭海,2016-01-16,22.205403,120.887614,0.9998956
C0V710,苓雅,2016-01-16,22.622742,120.330669,5.6186053e-08
C0C740,觀音工業區,2016-01-16,25.064764,121.114856,1.2220568e-06
CAC040,拉拉山,2016-01-16,24.699317,121.427133,1.5662893e-08
C0V790,萬山,2016-01-16,22.905944,120.688056,2.4784894e-09
U2HA30,臺大和社,2016-01-16,23.590856,120.888864,4.083728e-09
C0AJ90,澳底,2016-01-16,25.0552,121.9253,1.0765003e-07
C0Z100,東華,2016-01-16,23.89525,121.549833,2.2664442e-05
C0G970,三豐,2016-01-16,23.882,120.2895,1.7998128e-06
V2K610,大庄合作社,2016-01-16,23.8068,120.367939,5.419146e-07
C0V900,汕尾,2016-01-16,22.4782,120.4151,2.3672714e-08
C1R630,龍泉,2016-01-16,22.66701,120.59091,3.1251304e-09
C1AC50,關渡,2016-01-16,25.133486,121.469331,3.3211992e-07
C0F9I0,神岡,2016-01-16,24.272481,120.658314,1.9575387e-08
C0K460,斗南,2016-01-16,23.678734,120.478359,6.441993e-09
467410,臺南,2016-01-16,22.993239,120.204772,2.9213905e-07
C2O810,曾文,2016-01-16,23.219681,120.497328,2.1910182e-08
467280,後龍,2016-01-16,24.648563,120.831834,5.802656e-08
C1F9J1,清水林,2016-01-16,24.071242,120.820419,2.4229694e-09
C2A650,火燒寮,2016-01-16,25.002719,121.742892,3.6085357e-08
466930,竹子湖,2016-01-16,25.162078,121.544547,4.0418694e-08
C1I220,樟湖,2016-01-16,23.905333,120.846983,5.1345457e-09
C0I390,仁愛,2016-01-16,24.022122,121.132206,3.9324775e-09
C0Z300,東里,2016-01-16,23.26853,121.30547,2.610611e-07
C1V590,新發,2016-01-16,23.057019,120.646064,7.558724e-09
C0K510,水林,2016-01-16,23.572924,120.24597,1.65012e-07
72S590,東改賓朗果園,2016-01-16,22.813889,121.071278,7.8342755e-06
82A750,茶改北部分場,2016-01-16,24.955778,121.631222,1.9330432e-08
C1A750,石碇服務區,2016-01-16,25.00872,121.646242,2.2120581e-07
C0X300,鹿寮,2016-01-16,23.386047,120.477331,6.563865e-09
G2AI50,關渡,2016-01-16,25.11575,121.492,2.509894e-07
C0K590,雲林東勢,2016-01-16,23.674192,120.255721,7.605524e-07
C0A570,桶後,2016-01-16,24.848222,121.597992,6.417872e-08
C1S800,華源,2016-01-16,22.657883,121.02325,0.029449638
C0G720,溪州,2016-01-16,23.851589,120.499093,9.453246e-09
C1V160,達卡努瓦,2016-01-16,23.279811,120.705319,5.2870854e-09
C2M410,馬頭山,2016-01-16,23.324361,120.582017,3.9793178e-09
C0V850,蚵仔寮,2016-01-16,22.7256,120.2527,7.584752e-08
C0S740,池上,2016-01-16,23.119628,121.209469,6.967691e-08
C1V390,尖山,2016-01-16,22.813153,120.367789,1.08463265e-08
C0AH70,松山,2016-01-16,25.04871,121.55042,3.1187105e-07
C0N010,鯤鯓國小,2016-01-16,23.1879,120.0889,9.969556e-07
C0R550,新埤,2016-01-16,22.467947,120.582894,3.325707e-09
C0SA60,知本（水試所）,2016-01-16,22.702394,121.082761,0.9926928
C0T9I0,豐濱,2016-01-16,23.583897,121.514806,4.167623e-05
C0UB00,淡江大學蘭陽校園,2016-01-16,24.823239,121.730383,3.0475377e-08
C0W240,九宮,2016-01-16,24.423753,118.240186,1.2739203e-07
C0T9N0,富里,2016-01-16,23.171639,121.249378,6.889458e-08
U2HA50,臺大竹山,2016-01-16,23.756972,120.681556,3.6077286e-09
C0V840,鳳鼻頭,2016-01-16,22.5083,120.3591,6.304481e-08
C0X140,西港,2016-01-16,23.125608,120.203108,4.557555e-07
72D080,桃改五峰分場,2016-01-16,24.612194,121.157167,1.3018148e-08
C2H9P0,伊拿谷,2016-01-16,23.963211,121.088264,2.8675566e-09
C2H9F0,柑林,2016-01-16,24.018658,120.847072,4.1986388e-09
C0TA20,加灣,2016-01-16,24.082025,121.608944,2.9477786e-07
C0V530,阿蓮,2016-01-16,22.883208,120.327508,6.754915e-08
C1O880,關山,2016-01-16,23.173397,120.594092,4.305049e-09
C0E791,卓蘭,2016-01-16,24.3126,120.8244,3.5988559e-09
C1I030,武界,2016-01-16,23.913225,121.052483,3.4645062e-09
C0R520,崁頂,2016-01-16,22.514781,120.506914,7.273152e-08
C0R341,牡丹,2016-01-16,22.130036,120.792639,2.6102274e-05
C0R930,萬丹,2016-01-16,22.5885,120.4851,3.3291467e-09
C0S760,紅石,2016-01-16,23.069131,121.126219,1.773576e-08
C1M610,石磐龍,2016-01-16,23.496606,120.663506,5.749135e-09
C0UA10,鴛鴦湖,2016-01-16,24.590269,121.412228,1.5820673e-08
V2C260,八德蔬果,2016-01-16,24.978508,121.281819,3.2481333e-07
C0R800,丹路,2016-01-16,22.204481,120.750989,2.244842e-06
C0G920,永靖,2016-01-16,23.924703,120.547533,4.4070415e-08
C2M950,太和,2016-01-16,23.538372,120.702961,7.097068e-09
C1A630,下盆,2016-01-16,24.771003,121.538622,7.234122e-08
B2N890,畜產試驗所,2016-01-16,23.058972,120.336406,2.5976885e-08
C0UA30,白嶺,2016-01-16,24.527819,121.519031,1.8118367e-08
C1V580,溪南(特生中心),2016-01-16,23.084972,120.788475,1.0903451e-08
C1T970,大農,2016-01-16,23.615233,121.413331,7.260237e-06
E2S960,林試太麻里2,2016-01-16,22.598014,120.989761,0.99719536
C0R650,竹田,2016-01-16,22.58486,120.54344,3.3291467e-09
C1H900,清流,2016-01-16,24.080775,120.962997,3.4169734e-09
C1C510,水尾,2016-01-16,24.940081,121.087161,2.3958438e-07
C0F9X0,大雅(中科園區),2016-01-16,24.21528,120.62445,4.0913906e-07
C0SB60,白守蓮,2016-01-16,23.126769,121.401914,0.00035704317
C0O970,虎頭埤,2016-01-16,23.021375,120.347878,6.848189e-08
C0C730,中大臨海站,2016-01-16,24.966126,121.008581,3.6009562e-06
C0X250,新營,2016-01-16,23.310689,120.316681,3.5994827e-08
C0V700,三民,2016-01-16,22.645017,120.311233,5.6186053e-08
C0U870,大礁溪,2016-01-16,24.791042,121.675047,2.2360226e-08
C0E870,高鐵苗栗,2016-01-16,24.60725,120.826094,1.0381576e-06
A2K570,古坑花卉中心,2016-01-16,23.63353,120.55239,4.4559445e-09
C0M860,新美,2016-01-16,23.338017,120.683169,3.0322231e-09
C1E701,八卦,2016-01-16,24.491756,120.927619,7.67559e-09
C0I420,國姓,2016-01-16,24.037803,120.855072,2.811487e-09
C2D720,關西工作站,2016-01-16,24.757275,121.184792,1.1967397e-07
C0S960,香蘭,2016-01-16,22.587569,120.993375,0.99719536
C0R260,春日,2016-01-16,22.370361,120.628306,1.459349e-08
72G600,臺中農改場,2016-01-16,24.003028,120.534389,6.741966e-08
C0Z210,瑞穗,2016-01-16,23.5239,121.39021,8.326672e-05
C0M820,達邦,2016-01-16,23.453994,120.749517,5.129798e-09
C0V860,南寮,2016-01-16,22.7616,120.2339,1.5278052e-07
C0G740,大城,2016-01-16,23.852487,120.320935,1.45396e-06
C0R920,塭仔,2016-01-16,22.4169,120.5197,8.880151e-08
C0R470,高樹,2016-01-16,22.826389,120.600806,2.921037e-09
C0R680,佳樂水,2016-01-16,21.993578,120.861633,0.9997823
C1O870,大棟山,2016-01-16,23.31157,120.52226,5.1254556e-09
C0D360,梅花,2016-01-16,24.678347,121.208558,2.5170841e-08
C0Z190,富世,2016-01-16,24.14743,121.6297,1.3055167e-07
C0AI10,屈尺,2016-01-16,24.92184,121.54475,2.4206963e-07
B2U990,畜試東區分所,2016-01-16,24.669039,121.832561,1.8635642e-07
C0SB80,長濱漁港,2016-01-16,23.313644,121.459994,8.339049e-07
C0R240,來義,2016-01-16,22.527306,120.625111,1.1449013e-08
C0V910,大樹,2016-01-16,22.684645,120.432803,2.213026e-08
C1R610,西大武山,2016-01-16,22.617719,120.7322,1.7893454e-08
C0G900,線西,2016-01-16,24.143358,120.443536,8.62268e-06
C0M700,竹崎,2016-01-16,23.526178,120.555508,4.2707895e-09
C2E880,三義,2016-01-16,24.405478,120.749819,4.420366e-09
C0C720,竹圍,2016-01-16,25.112692,121.239824,3.847217e-07
C0F9P0,清水,2016-01-16,24.312297,120.562242,3.1313398e-06
C0Z150,吉安光華,2016-01-16,23.930925,121.595153,4.6128538e-05
C1D640,外坪(五指山),2016-01-16,24.644447,121.090961,1.9448331e-08
C0F9O0,潭子,2016-01-16,24.213106,120.703933,1.7140977e-08
C2H9R0,卓社,2016-01-16,23.887894,121.000086,5.2894156e-09
72T250,花蓮農改場,2016-01-16,23.975222,121.563889,2.5841882e-07
C0E780,銅鑼,2016-01-16,24.489681,120.790853,3.533567e-08
C1T950,太安,2016-01-16,23.666719,121.370128,2.2955586e-08
C0E830,苑裡,2016-01-16,24.439714,120.653053,2.3675502e-06
467270,田中,2016-01-16,23.873803,120.581286,5.688987e-09
C0SA10,檳榔四格山,2016-01-16,22.810031,121.109308,1.9858012e-06
C1T830,布洛灣,2016-01-16,24.17184,121.57127,1.4943676e-07
C0F970,大坑,2016-01-16,24.173142,120.722289,2.563391e-07
C1U920,思源,2016-01-16,24.393125,121.347214,1.5182298e-08
C0A931,三和,2016-01-16,25.233153,121.595236,3.8715044e-08
C0I010,廬山,2016-01-16,24.033311,121.181808,8.680049e-09
C2M940,日野賀,2016-01-16,23.434056,120.727169,5.097193e-09
C0R860,鼻頭,2016-01-16,22.1043,120.8979,0.9985415
C0UB20,壯圍,2016-01-16,24.7359,121.8163,1.8635642e-07
C0R790,九棚,2016-01-16,22.14195,120.889281,0.999917
C0W110,東莒,2016-01-16,25.9652,119.98069,0.0016152514
C1U930,粉鳥林,2016-01-16,24.497088,121.842479,1.486503e-07
C1I211,蘆竹湳,2016-01-16,23.934019,120.811994,3.937686e-09
C0S830,長濱,2016-01-16,23.286817,121.411975,7.888715e-08
C1F9F1,伯公龍,2016-01-16,24.272392,120.849047,4.3796966e-09
C0E810,西湖,2016-01-16,24.562947,120.7485,8.771963e-07
C1I440,新高口,2016-01-16,23.478744,120.878939,1.5493944e-08
C0O840,王爺宮,2016-01-16,23.222064,120.40085,2.1910182e-08
C0T9G0,鳳林山,2016-01-16,23.735269,121.420131,5.871302e-07
C0X080,佳里,2016-01-16,23.173039,120.145086,1.8518467e-07
C0FB70,大甲溪埔,2016-01-16,24.370625,120.620067,2.215456e-06
C0Z310,清水斷崖,2016-01-16,24.218294,121.689142,1.519753e-06
C0M680,太保,2016-01-16,23.455062,120.331455,7.49683e-08
C1S820,金峰,2016-01-16,22.590969,120.933236,0.13177009
C0AD10,八里,2016-01-16,25.150211,121.403947,3.847217e-07
C2K240,草嶺,2016-01-16,23.59555,120.693461,6.6577255e-09
C1SA70,都蘭,2016-01-16,22.87794,121.226881,2.906648e-07
C0K440,二崙,2016-01-16,23.772797,120.408944,1.1915586e-08
C1A760,坪林交控,2016-01-16,24.94284,121.713442,2.9178144e-08
C0F9N0,大里,2016-01-16,24.092464,120.701378,6.1152986e-07
C0SA90,達仁林場,2016-01-16,22.264347,120.823972,7.4421673e-06
C1R290,石門山,2016-01-16,22.112611,120.756597,0.9994688
42HA10,萬大發電廠,2016-01-16,23.978875,121.139639,6.4618795e-09
C0R890,山海,2016-01-16,21.9878,120.7091,0.9997568
C0T9A0,月眉山,2016-01-16,23.809928,121.539828,1.342206e-07
C0AC70,信義,2016-01-16,25.037822,121.564597,3.1187105e-07
C0K560,棋山,2016-01-16,23.68645,120.603417,5.0951128e-09
C2FB50,出雲,2016-01-16,24.206469,120.902794,3.621697e-09
C1Z240,中平林道,2016-01-16,23.42115,121.26763,2.4617512e-08
U2H480,溪頭,2016-01-16,23.670306,120.798194,4.7951056e-09
C0M880,好美里,2016-01-16,23.3364,120.138,1.8518467e-07
C0T9E0,大坑,2016-01-16,23.880628,121.581981,1.9347164e-07
C0K530,臺西,2016-01-16,23.701547,120.197559,1.6864777e-06
C1E900,國一N128K,2016-01-16,24.560997,120.844186,6.8963e-07
C0AJ50,水湳洞,2016-01-16,25.123695,121.862238,3.3894794e-05
C0AI20,白沙灣,2016-01-16,25.283128,121.519058,1.3069608e-06
C0A860,大坪,2016-01-16,25.165914,121.632969,5.4001454e-08
C1U850,觀音海岸,2016-01-16,24.38319,121.77856,2.4557343e-08
C2K610,草嶺石壁,2016-01-16,23.602469,120.707731,5.9799787e-09
C0U950,鶯子嶺,2016-01-16,24.89754,121.79244,2.663113e-08
C0O900,善化,2016-01-16,23.112883,120.297219,3.4038614e-08
C0K550,蔦松,2016-01-16,23.514319,120.229736,1.4466471e-07
E2P980,林試六龜中心,2016-01-16,22.991703,120.645722,2.2197424e-09
C0E590,通霄,2016-01-16,24.471892,120.704622,6.706652e-06
C1I310,西巒,2016-01-16,23.754486,120.883956,5.798482e-09
C0A550,泰平,2016-01-16,24.971197,121.823711,3.4336875e-08
C0I360,水里,2016-01-16,23.812553,120.849792,4.5490074e-09
C0R830,高士,2016-01-16,22.121825,120.836781,0.99764466
C1I101,溪頭,2016-01-16,23.661789,120.807647,9.075125e-09
C0AJ20,野柳,2016-01-16,25.20703,121.690021,3.3894794e-05
C0B060,暖暖,2016-01-16,25.0957,121.7403,6.005453e-06
C1H920,長豐,2016-01-16,24.102039,120.879897,2.4694577e-09
C0V360,內門,2016-01-16,22.975481,120.466769,8.725315e-09
C0R850,林邊,2016-01-16,22.4634,120.5339,7.273152e-08
C0E930,龍鳳,2016-01-16,24.700034,120.859125,6.47947e-08
C0U910,冬山,2016-01-16,24.63373,121.7937,1.8635642e-07
C1E721,泰安,2016-01-16,24.489017,120.968036,7.591334e-09
82H320,茶改中部分場,2016-01-16,23.875611,120.913583,3.3094194e-09
C0M750,布袋,2016-01-16,23.380878,120.167789,1.9460748e-07
C1S860,利嘉,2016-01-16,22.809417,121.050528,3.512595e-08
72C440,桃園農改,2016-01-16,24.950944,121.030583,1.6463113e-06
E2S980,林試太麻里1,2016-01-16,22.598922,120.980044,0.99394053
C0X170,關廟,2016-01-16,22.963017,120.327797,3.643399e-08
C0V720,林園,2016-01-16,22.507747,120.394511,5.6164946e-08
C1I510,線浸林道,2016-01-16,23.761508,120.832956,4.976743e-09
C0D690,外湖,2016-01-16,24.917735,120.968711,3.6009562e-06
C0C750,新興坑尾,2016-01-16,25.0061,121.0971,6.4022777e-07
B2Q810,畜試南區分所,2016-01-16,21.945583,120.802167,0.9997823
C0S790,金崙,2016-01-16,22.538122,120.966875,0.0066229547
C0AH90,福山植物園,2016-01-16,24.760717,121.58135,3.6276653e-08
C0I540,奇萊稜線,2016-01-16,24.109231,121.326456,2.5304036e-08
C0M850,表湖,2016-01-16,23.24186,120.64166,2.6637823e-09
C0S770,大溪山,2016-01-16,22.478475,120.943325,2.4639976e-06
C0AG80,中和,2016-01-16,24.991622,121.491792,3.1187105e-07
C0T790,大禹嶺,2016-01-16,24.186117,121.316086,1.7553523e-08
C0T9B0,水源,2016-01-16,23.991861,121.537169,1.06568706e-07
C0R840,牡丹池山,2016-01-16,22.168389,120.841225,1.1159644e-05
C1I131,桶頭,2016-01-16,23.641944,120.654117,5.0267515e-09
CAL110,布袋國中,2016-01-16,23.35893,120.18026,5.7916985e-08
467571,新竹,2016-01-16,24.827853,121.014219,4.1703476e-07
C0Z290,赤柯山,2016-01-16,23.36893,121.38293,3.981757e-08
C0X280,將軍,2016-01-16,23.214999,120.13577,1.849136e-07
C0S690,太麻里,2016-01-16,22.60902,120.98533,6.7384497e-07
C0U880,北關,2016-01-16,24.9072,121.8734,1.5469117e-06
C1H860,瑞岩,2016-01-16,24.123772,121.18345,6.471747e-09
C0G810,埔心,2016-01-16,23.947633,120.525456,4.62539e-08
C0U970,大福,2016-01-16,24.80064,121.81389,5.9798104e-08
C2H9N0,仁愛東眼,2016-01-16,24.026875,121.1205,5.1703175e-09
C1E670,南礦,2016-01-16,24.538278,121.002836,8.95058e-09
C0M520,東後寮,2016-01-16,23.369908,120.248065,5.4831876e-08
C1E461,松安,2016-01-16,24.397972,120.986022,7.071071e-09
72G600,臺中農改,2016-01-16,24.003028,120.534389,6.741966e-08
C2N160,西拉雅風管處,2016-01-16,23.189481,120.335297,4.6002356e-08
C2M970,碧湖,2016-01-16,23.568632,120.624165,6.085259e-09
C0A640,石碇,2016-01-16,24.993969,121.662917,3.9837776e-08
E2S960,林試太麻里2,2016-01-16,22.598,120.99775,0.9972596
C0F9Y0,桃山,2016-01-16,24.432739,121.303808,2.6763882e-08
C1I020,萬大,2016-01-16,23.979817,121.132261,3.974782e-09
C0U940,羅東,2016-01-16,24.68184,121.74934,1.7635463e-07
C0M650,朴子,2016-01-16,23.43463,120.23902,1.8266903e-07
C1I500,大尖山,2016-01-16,23.858572,120.994889,1.4583083e-08
C0G820,田尾,2016-01-16,23.901669,120.509389,4.4070415e-08
E2K600,四湖植物園,2016-01-16,23.676986,120.163433,1.6864777e-06
C0S730,綠島,2016-01-16,22.6672,121.47533,6.4789347e-06
12Q970,東港工作站,2016-01-16,22.479997,120.466058,8.305883e-08
C0E430,南庄,2016-01-16,24.601775,121.000214,2.6057275e-08
C1TA00,太魯閣,2016-01-16,24.15773,121.6236,1.7160445e-06
466920,臺北,2016-01-16,25.037658,121.514853,3.1187105e-07
C0R600,舊泰武,2016-01-16,22.588194,120.664944,1.5345304e-08
C1I260,北坑,2016-01-16,23.9246,121.006903,2.2208138e-09
466910,鞍部,2016-01-16,25.182586,121.529731,3.5261813e-08
C1I230,九份二山,2016-01-16,23.961944,120.845,2.7564822e-09
C2A660,瑞芳,2016-01-16,25.113169,121.801147,6.310929e-08
C0R270,琉球嶼,2016-01-16,22.332244,120.362236,1.459349e-08
C1T990,高寮,2016-01-16,23.394239,121.356808,1.3676242e-05
C0G620,芬園,2016-01-16,24.015678,120.6213,1.5189395e-08
C1Z140,荖溪,2016-01-16,23.890575,121.45964,1.982265e-08
C1I201,中心崙,2016-01-16,23.728722,120.712097,4.895018e-09
C1I400,凌霄,2016-01-16,24.018778,121.004456,5.0258313e-09
C1M640,十字,2016-01-16,23.492153,120.753683,8.293516e-09
G2P820,農試鳳山分所,2016-01-16,22.646611,120.356083,4.3175174e-08
C0Z270,蕃薯寮,2016-01-16,23.73835,121.540108,3.8743333e-06
C0F9Q0,外埔,2016-01-16,24.347817,120.705686,2.172956e-08
C0K580,高鐵雲林,2016-01-16,23.737456,120.417944,9.324686e-09
C2I090,鳳凰,2016-01-16,23.728081,120.787347,3.4380632e-09
C0U990,員山,2016-01-16,24.74435,121.72247,1.7635463e-07
C0V770,大社,2016-01-16,22.730306,120.346639,5.5952917e-08
C0X120,麻豆,2016-01-16,23.183289,120.248611,1.678585e-07
C0C670,龍潭,2016-01-16,24.870056,121.221389,4.8222287e-08
C0D680,香山濕地,2016-01-16,24.783581,120.914988,6.078261e-07
C0S980,勝林山,2016-01-16,22.430439,120.8938,4.925045e-08
C0V730,大寮,2016-01-16,22.605614,120.395717,5.118031e-09
C0R570,麟洛,2016-01-16,22.65078,120.52719,9.53286e-09
C2M930,石卓,2016-01-16,23.478744,120.702264,8.186159e-09
C0G9B0,和美,2016-01-16,24.105169,120.492131,9.586725e-08
CAG100,王功漁港,2016-01-16,23.96824,120.32586,1.1113509e-06
C0X290,北門,2016-01-16,23.267772,120.125481,1.8518467e-07
C2F930,大甲,2016-01-16,24.347667,120.640403,1.0348324e-06
C0D650,湖口,2016-01-16,24.904794,121.043628,9.787157e-07
C0E420,竹南,2016-01-16,24.708978,120.888897,4.887329e-07
C0U780,五結,2016-01-16,24.68637,121.79794,1.8635642e-07
C1I250,鯉潭,2016-01-16,23.961922,120.991131,2.469453e-09
C0R130,阿禮,2016-01-16,22.742908,120.743678,8.705234e-09
C0X100,臺南市北區,2016-01-16,23.010394,120.194228,3.8859645e-07
C0S920,金峰嘉蘭,2016-01-16,22.594789,120.960825,0.99171084
C0V490,新興,2016-01-16,22.627422,120.298803,5.6164946e-08
C0F9K0,大安,2016-01-16,24.345061,120.588025,2.407886e-06
72N100,臺南農改,2016-01-16,23.0605,120.342194,2.5976885e-08
467290,古坑,2016-01-16,23.633639,120.551889,4.4559445e-09
C2E970,八甲,2016-01-16,24.535811,120.795983,3.3838916e-08
C0V440,鳳山,2016-01-16,22.646653,120.356122,4.3175174e-08
C1T940,大觀,2016-01-16,23.714206,121.373133,6.6212243e-07
72T250,花蓮農改,2016-01-16,23.975222,121.563889,2.5841882e-07
C0E740,造橋,2016-01-16,24.637056,120.864778,5.7404705e-08
C0R100,尾寮山,2016-01-16,22.833111,120.683889,8.924328e-09
A2K630,臺大雲林校區,2016-01-16,23.730628,120.423903,9.324686e-09
C0D580,寶山,2016-01-16,24.735006,121.025192,7.267396e-08
E2P990,林試扇平站,2016-01-16,22.9677,120.6857,9.6481925e-09
C0AI30,三重,2016-01-16,25.057328,121.500629,2.3886025e-07
C0AH00,汐止,2016-01-16,25.066881,121.658778,3.3894794e-05
C1Z040,立山,2016-01-16,23.443356,121.327375,5.4175644e-07
C0W130,花嶼,2016-01-16,23.40007,119.32276,0.99043137
C0A950,鼻頭角,2016-01-16,25.129036,121.923372,1.2012804e-07
C0K470,林內,2016-01-16,23.748675,120.609642,5.488134e-09
C2F990,摩天嶺,2016-01-16,24.322458,120.936819,4.440952e-09
82C160,茶改場,2016-01-16,24.908472,121.185333,9.813057e-08
C0Z320,清水林道,2016-01-16,23.27125,121.188272,4.2058783e-08
C0R760,南仁湖,2016-01-16,22.084681,120.863353,0.9994067
C0M670,大林,2016-01-16,23.600616,120.45841,2.443552e-07
C0M800,茶山,2016-01-16,23.299075,120.664767,2.3845586e-09
C0A9C0,天母,2016-01-16,25.117494,121.537169,2.1776283e-07
72K220,南改斗南分場,2016-01-16,23.634556,120.477333,5.704906e-09
72AI40,桃改樹林分場,2016-01-16,24.944503,121.386972,2.0867346e-07
C0S910,蘭嶼燈塔,2016-01-16,22.081197,121.503117,0.9929617
C0B050,八斗子,2016-01-16,25.144754,121.79167,6.603647e-05
C0U900,內城,2016-01-16,24.71813,121.68766,5.2559994e-08
C0X320,柳營,2016-01-16,23.253328,120.375253,4.7628674e-08
C0M790,新港,2016-01-16,23.553269,120.345728,8.7926786e-08
C0F9T0,西屯,2016-01-16,24.179494,120.641275,6.653792e-07
C0SA30,都歷,2016-01-16,23.020333,121.323642,1.641777e-05
C0C620,蘆竹,2016-01-16,25.084275,121.265767,3.3887005e-07
C0R730,大坪頂,2016-01-16,22.024633,120.69355,0.9998654
C0AJ40,石門,2016-01-16,25.273672,121.601198,3.3588842e-07
C0E750,苗栗,2016-01-16,24.564569,120.824575,7.463593e-07
C0T870,鯉魚潭,2016-01-16,23.935639,121.508944,2.719586e-06
C1V170,排雲,2016-01-16,23.463619,120.954147,3.232999e-08
C2H950,中寮,2016-01-16,23.884447,120.766406,3.635227e-09
C0R350,貓鼻頭,2016-01-16,21.921774,120.7358,0.9998017
C0V660,岡山,2016-01-16,22.797078,120.294958,5.985059e-08
C1H941,雙冬,2016-01-16,23.967378,120.802189,2.2591364e-09
C0AJ70,田寮,2016-01-16,25.2698,121.4886,1.5159821e-06
C0AI00,五股,2016-01-16,25.07445,121.42728,5.2826385e-07
C0Z280,德武,2016-01-16,23.47426,121.41071,3.1265474e-06
C0R700,枋山,2016-01-16,22.246844,120.661086,0.0016875024
C0C460,復興,2016-01-16,24.820208,121.352281,3.235152e-08
E2H360,蓮華池,2016-01-16,23.918333,120.885278,2.8344675e-09
C0M640,中埔,2016-01-16,23.42538,120.5229,4.238702e-09
C0W140,金沙,2016-01-16,24.488292,118.408778,6.7633074e-08
C2A540,四堵,2016-01-16,24.8926,121.745736,6.113415e-08
C0ACA0,新莊,2016-01-16,25.051478,121.446756,5.591189e-07
C0R220,潮州,2016-01-16,22.534361,120.54,5.7332348e-09
U2HA40,臺大內茅埔,2016-01-16,23.689722,120.851117,3.3365335e-09
467490,臺中,2016-01-16,24.145736,120.684075,2.3360158e-07
C0U960,翠峰湖,2016-01-16,24.510856,121.608044,2.1644514e-08
E2HA20,林試畢祿溪站,2016-01-16,24.226944,121.308522,1.0187121e-08
C0V890,前鎮,2016-01-16,22.5718,120.3117,6.279399e-08
467620,蘭嶼,2016-01-16,22.036969,121.558339,0.99879354
C1F941,雪嶺,2016-01-16,24.280586,121.026642,1.7236117e-08
C2H9E0,國姓南港,2016-01-16,23.911108,120.846556,5.3172324e-09
C0AC80,文山,2016-01-16,25.00235,121.575728,2.4206963e-07
C0F9R0,龍井,2016-01-16,24.184536,120.528972,3.7236302e-06
C0M760,民雄,2016-01-16,23.551754,120.428457,3.3134293e-07
C0UA40,西德山,2016-01-16,24.560647,121.752608,2.8419395e-08
C1T920,中興,2016-01-16,23.769503,121.498653,9.34467e-06
C0D550,雪霸,2016-01-16,24.526972,121.11605,1.3022047e-08
C2F860,梨山,2016-01-16,24.247522,121.243669,1.04932685e-08
C0R320,車城,2016-01-16,22.0744,120.716247,0.9997568
C1S870,南美山,2016-01-16,23.15025,121.382333,6.1403694e-07
C0B020,基隆嶼,2016-01-16,25.19141,121.78391,3.3707347e-05
C1U501,牛鬥,2016-01-16,24.637836,121.573656,4.3179455e-08
C0M730,嘉義市東區,2016-01-16,23.457673,120.460531,1.4798353e-07
C0S700,知本,2016-01-16,22.684866,121.005642,9.4837213e-07
C1N001,沙崙,2016-01-16,22.935472,120.309406,6.742918e-08
C0V760,橋頭,2016-01-16,22.757806,120.30575,5.563515e-08
C0G960,福寶,2016-01-16,24.0443,120.3814,1.3240663e-07
C0X210,白河,2016-01-16,23.347466,120.414427,4.4127106e-08
C0S810,東河,2016-01-16,22.972672,121.303986,3.380447e-07
C2R170,屏東,2016-01-16,22.66027,120.49403,9.911944e-09
C0R670,楓港,2016-01-16,22.190131,120.692156,0.0016875032
C0FA50,霧峰,2016-01-16,24.0419,120.6995,3.309046e-07
C0UB10,蘇澳,2016-01-16,24.5969,121.8571,3.2535868e-07
C0G950,防潮門,2016-01-16,24.1835,120.4871,4.4608682e-06
C0M740,六腳,2016-01-16,23.492871,120.290625,7.9089325e-08
C1R250,力里,2016-01-16,22.428117,120.629228,1.1449013e-08
C0K330,虎尾,2016-01-16,23.719183,120.442036,9.331856e-09
C2FA00,烏石坑,2016-01-16,24.273503,120.947617,4.452037e-09
C0V620,永安,2016-01-16,22.82315,120.236856,1.3135944e-07
C1I330,楓樹林,2016-01-16,23.986803,121.076117,5.1832028e-09
C0W200,湖西,2016-01-16,23.596314,119.67275,0.97833484
72Q010,高雄農改場,2016-01-16,22.709333,120.525889,8.813949e-09
C0SA40,瑞和,2016-01-16,22.974361,121.156697,1.36748e-06
C0C680,龜山,2016-01-16,25.02846,121.38656,1.7120719e-08
C2V260,月眉,2016-01-16,22.971003,120.539853,3.1010234e-09
C0V450,鳳森,2016-01-16,22.545064,120.392592,4.557579e-09
C0U720,南山,2016-01-16,24.43742,121.38167,2.1039051e-08
A2N290,臺南蘭花園區,2016-01-16,23.340258,120.379661,4.7628674e-08
C0R560,新園,2016-01-16,22.5434,120.461558,7.273152e-08
C0U890,三星,2016-01-16,24.66812,121.65302,4.4364924e-08
C1V300,御油山,2016-01-16,23.001983,120.715364,1.0788061e-08
C0U600,礁溪,2016-01-16,24.817539,121.765608,5.679785e-08
C1T980,龍澗,2016-01-16,24.023289,121.411328,2.1903496e-08
C0D670,海天一線,2016-01-16,24.831986,120.914438,6.521706e-07
C0SA00,歷坵,2016-01-16,22.520969,120.89185,8.424659e-07
C0M710,東石,2016-01-16,23.458927,120.15385,1.4466471e-07
C0M780,鹿草,2016-01-16,23.41134,120.30835,8.583035e-08
C0U520,雙連埤,2016-01-16,24.753033,121.641303,2.2283292e-08
C0B010,七堵,2016-01-16,25.094819,121.71713,1.56281e-05
C0R480,長治,2016-01-16,22.693128,120.542622,2.8088551e-09
C1V830,國三S383K,2016-01-16,22.781967,120.426475,4.7815067e-09
12Q980,恆春工作站,2016-01-16,22.079678,120.714425,0.9997568
C1O940,東山服務區,2016-01-16,23.286016,120.398472,4.0117772e-08
C1U840,東澳嶺,2016-01-16,24.5378,121.8485,3.6728782e-08
C1D630,飛鳳山,2016-01-16,24.766464,121.119178,3.838527e-08
C0S940,石寧山,2016-01-16,23.223772,121.406639,1.4447555e-07
C0K410,北港,2016-01-16,23.573957,120.292802,9.466384e-08
C2M620,瑞里,2016-01-16,23.545133,120.675197,6.555282e-09
C0SB70,小港漁港,2016-01-16,23.158558,121.400431,3.2652775e-07
C2O950,安南,2016-01-16,23.076694,120.144861,8.030797e-07
C0F0E0,南湖圈谷,2016-01-16,24.363714,121.444667,3.7343767e-08
467610,成功,2016-01-16,23.097486,121.373428,9.368728e-05
C0G890,伸港,2016-01-16,24.148933,120.484403,5.4350216e-06
C2E540,龍溪,2016-01-16,24.606489,120.783933,1.137711e-06
C1V200,梅山,2016-01-16,23.268447,120.823556,4.570428e-09
C0T9H0,加路蘭山,2016-01-16,23.682947,121.5274,2.743835e-07
C2O930,玉井,2016-01-16,23.126042,120.46055,3.99908e-08
C1F911,新伯公,2016-01-16,24.221361,120.841069,4.109623e-09
C0R490,九如,2016-01-16,22.7405,120.490503,9.522829e-09
C0X200,左鎮,2016-01-16,23.056758,120.408522,1.3644881e-08
C0SB50,叭嗡嗡,2016-01-16,23.047062,121.343223,5.446487e-07
C1F891,稍來,2016-01-16,24.265689,121.001142,1.243305e-08
72N240,七股研究中心,2016-01-16,23.081672,120.062894,4.8053766e-06
C0C700,中壢,2016-01-16,24.977661,121.256375,2.9162243e-07
C0M690,水上,2016-01-16,23.419734,120.388909,3.7244575e-07
C0V690,鼓山,2016-01-16,22.623325,120.275575,5.6164946e-08
C0O860,大內,2016-01-16,23.11885,120.36083,8.822965e-09
C0Z200,萬榮,2016-01-16,23.709219,121.420106,2.719586e-06
C0T9D0,和中,2016-01-16,24.26676,121.74103,1.457604e-05
C1O921,楠西,2016-01-16,23.183511,120.484083,3.6813223e-08
C0AJ30,淡水觀海,2016-01-16,25.184591,121.408616,4.2749357e-07
C0V810,左營,2016-01-16,22.67491,120.28491,7.1775524e-08
C0UA70,桃源谷,2016-01-16,24.962606,121.888875,2.9587365e-08
C0X130,官田,2016-01-16,23.193217,120.315422,4.8209778e-08
C1H000,翠峰,2016-01-16,24.109397,121.205211,1.2985092e-08
C0UA90,石城,2016-01-16,24.980444,121.951214,8.4952e-08
C1E681,南勢山,2016-01-16,24.421669,120.923831,4.8324007e-09
C0A9F0,內湖,2016-01-16,25.079422,121.57545,3.1187105e-07
C0K291,宜梧,2016-01-16,23.536281,120.169329,1.5491261e-07
C1K540,口湖,2016-01-16,23.585344,120.180517,1.7555254e-07
C0R780,滿州,2016-01-16,22.024403,120.839892,0.99980646
C0V870,文安,2016-01-16,22.8025,120.2164,1.5278052e-07
C0U650,玉蘭,2016-01-16,24.675286,121.587061,1.170905e-07
C0R640,東港,2016-01-16,22.46247,120.44074,6.279399e-08
K2E360,苗栗農改,2016-01-16,24.495722,120.829111,4.3674945e-08
C0AJ80,板橋,2016-01-16,25.0107,121.4489,2.2831254e-07
C0S660,下馬,2016-01-16,23.150427,121.070312,2.8027344e-08
C1H9B1,阿眉,2016-01-16,24.1263,120.994672,7.606843e-09
C0UA20,多加屯,2016-01-16,24.368614,121.373189,1.8528265e-08
C0E730,頭份,2016-01-16,24.688247,120.912206,4.8919736e-07
72V140,高改旗南分場,2016-01-16,22.857861,120.516667,3.0013871e-09
C0K480,莿桐,2016-01-16,23.761192,120.502372,7.3979063e-09
C0U980,坪林石牌,2016-01-16,24.86478,121.77396,5.917758e-08
C0T900,西林,2016-01-16,23.8119,121.441458,1.6944449e-06
C1I150,青雲,2016-01-16,23.793361,120.949378,3.3597276e-09
467350,澎湖,2016-01-16,23.565503,119.563094,0.987832
C0G800,埔鹽,2016-01-16,24.000394,120.431683,1.2643164e-07
C0H960,草屯,2016-01-16,23.973672,120.68085,3.8073606e-09
C1V780,多納林道,2016-01-16,22.888028,120.737917,6.8448687e-09
C0E920,通霄漁港,2016-01-16,24.498589,120.673876,2.2507722e-05
C0Z330,安通山,2016-01-16,23.290728,121.348528,5.3880154e-08
C0AH10,永和,2016-01-16,25.01125,121.508111,3.2921244e-07
C0AK10,太平里,2016-01-16,25.134937,121.364899,5.584933e-07
C2G640,鹿港,2016-01-16,24.0753,120.430481,1.2643164e-07
C1E890,國三N149K,2016-01-16,24.463414,120.680019,4.8495217e-06
C1R110,口社,2016-01-16,22.770111,120.645222,2.8046154e-09
C1M870,國三N285K,2016-01-16,23.550319,120.505833,5.3653793e-09
467050,新屋,2016-01-16,25.006744,121.047486,2.623462e-06
C1E480,鳳美,2016-01-16,24.554803,121.034747,9.647806e-09
C0M530,奮起湖,2016-01-16,23.493903,120.699253,7.145163e-09
C0C590,觀音,2016-01-16,25.027072,121.153317,9.013835e-08
C0T9M0,靜浦,2016-01-16,23.455167,121.495028,0.0003153891
C2H9M0,發祥,2016-01-16,24.154094,121.164517,4.1597237e-09
C0AI40,石牌,2016-01-16,25.115597,121.513139,2.2831254e-07
C1F871,上谷關,2016-01-16,24.203483,121.018644,4.39631e-09
C2H9G0,百勝,2016-01-16,24.051142,120.909361,4.2397934e-09
C0G880,二水,2016-01-16,23.810742,120.6173,4.9427156e-09
C0R940,加祿堂,2016-01-16,22.3363,120.6217,2.2599046e-08
C0W220,北竿,2016-01-16,26.220358,119.974881,7.654438e-08
C0O960,崎頂,2016-01-16,22.959547,120.369317,4.616653e-09
C0S750,向陽,2016-01-16,23.248397,120.986133,1.6373107e-08
C0T9F0,水璉,2016-01-16,23.797131,121.542514,6.9135064e-07
C1M600,頭凍,2016-01-16,23.406364,120.603339,3.7653227e-09
467660,臺東,2016-01-16,22.752211,121.154586,7.396063e-05
C1D380,新埔,2016-01-16,24.84745,121.03834,2.4363547e-07
C2G980,田頭村,2016-01-16,23.8263,120.444175,1.1915586e-08
C0V750,路竹,2016-01-16,22.854997,120.259439,3.353372e-08
C0N050,蚵寮,2016-01-16,23.301,120.1104,9.986513e-07
72M700,南改鹿草分場,2016-01-16,23.416869,120.283061,8.92217e-08
C1SA50,利嘉林道,2016-01-16,22.82325,121.009389,1.9383155e-08
467550,玉山,2016-01-16,23.487614,120.959522,3.5584296e-08
C0A940,金山,2016-01-16,25.223628,121.643967,1.0465525e-06
C1V340,大津,2016-01-16,22.888322,120.645986,2.102889e-09
C0W180,七美,2016-01-16,23.219333,119.444892,0.99216217
C1F9C1,白冷,2016-01-16,24.182844,120.929889,2.3660107e-09
K2E710,苗改生物防治研究中心,2016-01-16,24.422861,120.871833,1.1435744e-08
C0N040,蘆竹溝,2016-01-16,23.2344,120.0961,9.986513e-07
C2W230,畜試所澎湖,2016-01-16,23.628342,119.513206,0.98035324
C0R880,後壁湖,2016-01-16,21.9457,120.7457,0.99974394
C1I280,埔中,2016-01-16,23.820778,120.642594,4.4684048e-09
467790,墾丁雷達站,2016-01-16,21.948235,120.808028,0.99981344
C0W190,望安,2016-01-16,23.380564,119.494075,0.988276
466881,新北,2016-01-16,24.9593,121.52,2.8052384e-07
C0Z170,卓溪,2016-01-16,23.3443,121.3029,2.364923e-07
C0F850,東勢,2016-01-16,24.246428,120.833047,4.074244e-09
466900,淡水,2016-01-16,25.164889,121.448906,3.8354207e-07
C0I370,魚池,2016-01-16,23.895703,120.94135,2.7843134e-09
C0C630,大溪,2016-01-16,24.882853,121.265547,2.0298755e-07
C0A520,山佳,2016-01-16,24.974944,121.402008,2.0867346e-07
C0I110,竹山,2016-01-16,23.761225,120.688156,3.612707e-09
82H840,茶改南部分場,2016-01-16,23.762528,120.7405,3.2411287e-09
C0G660,溪湖,2016-01-16,23.94835,120.479122,5.0378688e-08
C1T800,洛韶,2016-01-16,24.204558,121.453956,2.327758e-08
C1T810,慈恩,2016-01-16,24.192044,121.388386,1.5614273e-08
C1E451,象鼻,2016-01-16,24.368617,120.940228,4.8324007e-09
C0AC60,三峽,2016-01-16,24.939025,121.369728,2.66397e-07
C0I490,萬大林道,2016-01-16,23.928228,121.091411,1.0702209e-08
C1I290,豐丘,2016-01-16,23.668178,120.887417,4.976743e-09
C1I320,奧萬大,2016-01-16,23.952956,121.178556,5.197032e-09
C2M910,嘉義大學,2016-01-16,23.471325,120.485903,4.5503783e-09
C0U770,南澳,2016-01-16,24.44935,121.81022,4.266216e-07
C0A980,社子,2016-01-16,25.109508,121.469681,2.509894e-07
C0V800,六龜,2016-01-16,22.997889,120.633583,2.2189677e-09
C1G9D0,國一S218K,2016-01-16,23.890641,120.493253,4.62539e-08
C0E570,白沙屯,2016-01-16,24.549447,120.696803,2.2507722e-05
C2F9A0,中竹林,2016-01-16,24.103556,120.751061,3.3980538e-09
C0FA40,臺中電廠,2016-01-16,24.2146,120.4907,3.7236302e-06
C2G9A0,畜試所彰化,2016-01-16,23.86045,120.557964,5.688987e-09
C0H9C0,合歡山,2016-01-16,24.143442,121.272547,2.7811355e-08
C0X060,下營,2016-01-16,23.22695,120.256261,5.581861e-08
G2M350,農試溪口農場,2016-01-16,23.58565,120.408111,3.9303688e-07
C0U860,頭城,2016-01-16,24.85323,121.8308,5.7712647e-08
C0R580,南州,2016-01-16,22.48591,120.50274,8.305883e-08
C0D430,峨眉,2016-01-16,24.6905,121.017189,2.0144554e-07
C0G780,秀水,2016-01-16,24.03405,120.503869,7.282771e-08
72N100,臺南農改場,2016-01-16,23.0605,120.342194,2.5976885e-08
C0S900,蘭嶼高中,2016-01-16,22.04909,121.51214,0.899281
467540,大武,2016-01-16,22.355675,120.903789,0.99928576
C1F9W0,德基,2016-01-16,24.254783,121.190261,8.35979e-09
C1Z120,壽豐,2016-01-16,23.870853,121.508081,2.2664442e-05
C0W160,烏坵,2016-01-16,24.9944,119.44956,0.32599968
C1I240,外大坪,2016-01-16,23.958697,120.917931,2.5166558e-09
C1I550,國六W023K,2016-01-16,23.979067,120.867742,2.9225975e-09
C0R870,興海,2016-01-16,21.9752,120.8439,0.9997823
C0R140,瑪家,2016-01-16,22.682903,120.686639,1.1302471e-08
C0A530,坪林,2016-01-16,24.938183,121.70975,3.6451087e-08
C0X260,後壁,2016-01-16,23.366358,120.362326,1.3658498e-08
C0Z230,和平,2016-01-16,24.30717,121.77007,1.457604e-05
C0G770,福興,2016-01-16,24.041289,120.437669,1.2643164e-07
C0H9A0,神木村,2016-01-16,23.532742,120.843667,8.854405e-09
C0I460,南投,2016-01-16,23.911469,120.687331,3.5597105e-09
C0I480,梅峰,2016-01-16,24.085272,121.173572,9.886285e-09
C1V570,吉東,2016-01-16,22.85422,120.5454,2.9701281e-09
C2D740,屯原,2016-01-16,24.067969,121.209389,1.0056116e-08
C2A560,福山,2016-01-16,24.776203,121.502811,1.9355815e-08
C0AH30,五分山,2016-01-16,25.07125,121.780794,3.061824e-08
C0FA10,松柏,2016-01-16,24.429115,120.617482,4.0320206e-06
72S200,東改班鳩分場,2016-01-16,22.829528,121.077694,3.129086e-05
72HA00,中改埔里分場,2016-01-16,23.903208,120.963364,2.7246383e-09
C2H9W0,大坪頂農水,2016-01-16,24.043122,120.932781,2.4874403e-09
C0C650,平鎮,2016-01-16,24.897503,121.214636,9.813057e-08
C0S930,延平,2016-01-16,22.902581,121.084058,4.703313e-07
C0UA60,樟樹山,2016-01-16,24.41393,121.78325,6.1166105e-08
C1S670,摩天,2016-01-16,23.199503,121.027,1.6440922e-08
C0V630,茄萣,2016-01-16,22.906642,120.182608,4.010305e-07
466940,基隆,2016-01-16,25.133314,121.740475,5.0644478e-05
C0X050,東河,2016-01-16,23.296598,120.385608,4.7628674e-08
C0R770,保力,2016-01-16,22.071122,120.764111,0.99982834
G2L020,農試嘉義分所,2016-01-16,23.485028,120.473806,4.5080055e-09
C0X240,關子嶺,2016-01-16,23.331169,120.508025,4.5478967e-09
C0I380,集集,2016-01-16,23.828206,120.801467,4.5380015e-09
466990,花蓮,2016-01-16,23.975128,121.613275,3.077885e-07
C1V220,小關山,2016-01-16,23.154217,120.813603,1.1997388e-08
C1F9G1,慶福山,2016-01-16,24.180853,120.848378,2.9792915e-09
C0Z250,瑞穗林道,2016-01-16,23.49284,121.30688,3.4437683e-08
C0D590,新豐,2016-01-16,24.87068,120.97721,1.1632386e-07
C0A870,五指山,2016-01-16,25.132153,121.608692,3.928918e-08
C0UA50,西帽山,2016-01-16,24.555361,121.802628,3.931137e-08
C0X160,仁德,2016-01-16,22.968258,120.257689,5.1316988e-08
C1H971,六分寮,2016-01-16,23.92507,120.6378,4.7908086e-09
C0W120,西嶼,2016-01-16,23.5626,119.468436,0.987832
C0G650,員林,2016-01-16,23.946503,120.585597,1.5773038e-08
C0AD50,鶯歌,2016-01-16,24.951533,121.346294,1.5175488e-07
C2H9Q0,北東眼山,2016-01-16,24.120939,121.189303,9.838467e-09
C2H9T0,名間竹圍,2016-01-16,23.859914,120.637572,4.5625193e-09
C0S990,山豬窟,2016-01-16,22.318619,120.857372,0.033906616
72Q010,高雄農改,2016-01-16,22.709333,120.525889,8.813949e-09
C0X190,安平,2016-01-16,22.993161,120.152181,3.8859645e-07
C0K400,斗六,2016-01-16,23.720583,120.541127,6.361916e-09
12J990,口湖工作站,2016-01-16,23.589978,120.180394,1.7390886e-07
C0O830,北寮,2016-01-16,23.079561,120.495008,3.0963778e-09
C1D410,白蘭,2016-01-16,24.579364,121.079947,1.0858974e-08
C0S970,加津林,2016-01-16,22.416211,120.926942,0.99941427
C0D700,關西,2016-01-16,24.7977,121.1732,1.284839e-07
C0M810,里佳,2016-01-16,23.389125,120.716647,7.145163e-09
C0U750,龜山島,2016-01-16,24.841667,121.953133,5.434367e-08
C0R810,內獅,2016-01-16,22.305064,120.642986,2.2599046e-08
C1M390,龍美,2016-01-16,23.406728,120.654417,5.0720073e-09
C2FB60,頭櫃山,2016-01-16,24.129842,120.858925,3.766292e-09
C1H840,國三N238K,2016-01-16,23.841008,120.707711,4.517991e-09
CAQ030,崎峰國小,2016-01-16,22.42565,120.49521,8.305883e-08
C2E520,大湖,2016-01-16,24.414939,120.870872,2.510525e-08
467530,阿里山,2016-01-16,23.508208,120.813242,1.5274491e-08
C1E691,南湖,2016-01-16,24.40135,120.837533,5.258213e-09
C0FA30,梧棲,2016-01-16,24.256003,120.523381,3.7236302e-06
C1V231,高中,2016-01-16,23.134911,120.716711,4.616521e-09
C0F9V0,新社,2016-01-16,24.200172,120.815806,4.3837e-09
C0H890,埔里,2016-01-16,23.972169,120.952425,2.3437865e-09
C0R690,墾丁,2016-01-16,21.966756,120.810269,0.9998142
C0F0D0,審馬陣,2016-01-16,24.381675,121.4203,2.6216853e-08
C0R820,白鷺,2016-01-16,22.454275,120.666219,1.599831e-08
U2H480,臺大溪頭,2016-01-16,23.670306,120.798194,4.7951056e-09
C1V190,南天池,2016-01-16,23.27403,120.91176,1.793613e-08
K2E360,苗栗農改場,2016-01-16,24.495722,120.829111,4.3674945e-08
CAJ050,海口故事園區,2016-01-16,23.57543,120.14121,1.7555254e-07
C2H9D0,三隻寮,2016-01-16,24.093078,120.861578,2.536191e-09
C0O990,媽廟,2016-01-16,22.99175,120.293525,4.7870294e-08
C0D480,打鐵坑,2016-01-16,24.849664,121.150789,5.1837194e-08
C0Z220,和平林道,2016-01-16,24.343922,121.656317,6.032139e-08
C0TA10,花蓮漁港,2016-01-16,23.995322,121.638331,3.3384106e-07
72C440,桃園農改場,2016-01-16,24.950944,121.030583,1.6463113e-06
C1E711,馬拉邦山,2016-01-16,24.367306,120.901656,8.168207e-09
C0SB20,富岡,2016-01-16,22.792467,121.192669,4.9516813e-05
C0D560,竹東,2016-01-16,24.767147,121.057881,1.2178064e-07
C0F9U0,南屯,2016-01-16,24.137006,120.637969,6.115304e-07
C0M720,番路,2016-01-16,23.464657,120.554156,4.115922e-09
C0F0A0,雪山圈谷,2016-01-16,24.388594,121.236339,3.2938164e-08
C1A9N0,四十份,2016-01-16,24.934158,121.593283,4.188163e-08
C0U760,東澳,2016-01-16,24.52196,121.83318,1.3546747e-07
C0X230,鹽水,2016-01-16,23.272621,120.247641,8.468232e-08
C2H9H0,苗改南投蜂場,2016-01-16,23.852589,120.693481,3.612707e-09
C0R950,萬隆國小,2016-01-16,22.507667,120.587817,3.2453475e-09
C0V370,古亭坑,2016-01-16,22.893178,120.401947,2.1324396e-08
C1I340,新興橋,2016-01-16,23.563333,120.868728,4.53084e-09
C0SA80,土坂,2016-01-16,22.453108,120.887572,0.93855083
C0R160,鹽埔,2016-01-16,22.739558,120.530778,2.8173275e-09
C0AC40,大屯山,2016-01-16,25.175675,121.522408,3.641794e-08
466850,五分山雷達站,2016-01-16,25.071182,121.781205,3.1693666e-08
C2H9L0,馬烈霸,2016-01-16,24.1512,121.201772,9.700709e-09
C1AI50,國三N016K,2016-01-16,25.034164,121.619664,2.541566e-07
C1V600,藤枝,2016-01-16,23.071961,120.757042,1.0213503e-08
C1E601,南勢,2016-01-16,24.572486,120.734842,9.680011e-08
C0Z180,新城,2016-01-16,24.03946,121.60454,2.7318973e-07
C0O980,新市,2016-01-16,23.061614,120.298197,3.4038614e-08
C0K420,西螺,2016-01-16,23.800407,120.467394,7.469964e-09
C0Z050,佳心,2016-01-16,23.34567,121.21316,2.6216352e-08
C0AD30,蘆洲,2016-01-16,25.086594,121.472331,2.3886025e-07
C0V610,梓官,2016-01-16,22.760558,120.267211,5.985059e-08
K2F750,種苗改良場,2016-01-16,24.225972,120.800917,4.27105e-09
C0UA80,大溪漁港,2016-01-16,24.941801,121.902955,5.6854972e-08
C1AI60,國一39K邊坡,2016-01-16,25.064361,121.383836,2.9133266e-08
C0W150,金寧,2016-01-16,24.457703,118.328989,6.464323e-08
C0R960,內埔,2016-01-16,22.608483,120.570714,3.325707e-09
V2C250,八德合作社,2016-01-16,24.93775,121.266389,1.3854384e-07
C2H9S0,龍南,2016-01-16,23.953536,120.833183,3.986086e-09
C0AH40,平等,2016-01-16,25.129142,121.577086,5.358622e-08
C0R540,佳冬,2016-01-16,22.419456,120.552375,8.2805265e-08
466950,彭佳嶼,2016-01-16,25.627975,122.079744,0.9853872
C0A890,雙溪,2016-01-16,25.036003,121.864242,1.0293313e-05
C0C480,桃園,2016-01-16,24.992425,121.323172,3.40382e-07
C0AH50,林口,2016-01-16,25.072181,121.38084,7.64268e-08
A2K360,水試臺西試驗場,2016-01-16,23.717231,120.190522,1.7613221e-06
B2N890,畜試所,2016-01-16,23.058972,120.336406,2.5976885e-08
C2M960,外寮,2016-01-16,23.562643,120.665688,6.347892e-09
C0F9S0,烏日,2016-01-16,24.107058,120.624103,3.1983028e-08
C0C490,八德,2016-01-16,24.928708,121.283289,2.6305017e-07
C0R190,赤山,2016-01-16,22.592333,120.614306,3.2492495e-09
C0T820,天祥,2016-01-16,24.179597,121.495639,7.0975986e-08
C1F9E1,龍安,2016-01-16,24.1605,120.831961,4.49133e-09
C0V820,小林,2016-01-16,23.148408,120.63325,2.0207014e-09
C2G870,芳苑,2016-01-16,23.922303,120.320025,1.7931037e-06
C0E850,大河,2016-01-16,24.618069,120.948578,4.5665786e-08
C1U670,寒溪,2016-01-16,24.634,121.71691,1.0221672e-07
C0N020,城西,2016-01-16,23.0568,120.0956,3.6974445e-06
C1Z110,三棧,2016-01-16,24.11557,121.60501,8.246152e-08
C0R280,檳榔,2016-01-16,22.076078,120.836777,0.99983007
C2H9J0,中台,2016-01-16,23.9996,120.938739,2.3580502e-09
C0F9L0,后里,2016-01-16,24.310436,120.729725,1.6799953e-08
C0D540,橫山,2016-01-16,24.71116,121.11693,5.6130247e-08
C1D420,太閣南,2016-01-16,24.632808,121.160575,1.72037e-08
C1E770,公館,2016-01-16,24.526914,120.830806,3.6186962e-06
CAN130,水試所海水繁養殖中心,2016-01-16,23.120802,120.07968,4.8053766e-06
C1I430,翠華,2016-01-16,24.191961,121.224339,1.2816737e-08
C1M400,菜瓜坪,2016-01-16,23.251928,120.576103,2.405641e-09
C0G730,二林,2016-01-16,23.903325,120.376081,1.4412382e-07
72M360,南改義竹分場,2016-01-16,23.360694,120.279361,2.8823745e-08
V2K620,麥寮合作社,2016-01-16,23.753836,120.294783,1.5258438e-06
C0Z070,舞鶴,2016-01-16,23.46811,121.37407,1.615462e-06
C0B040,大武崙,2016-01-16,25.166676,121.706993,1.5589843e-05
C1Z030,紅葉,2016-01-16,23.493119,121.338806,2.8303066e-06
C1I050,丹大,2016-01-16,23.753747,121.141147,2.6607268e-08
C0I080,信義,2016-01-16,23.689694,120.851036,3.3365335e-09
C2M920,朴子農改,2016-01-16,23.469889,120.259383,7.9174455e-08
C2A880,福隆,2016-01-16,25.017842,121.942083,1.0765003e-07
C0Z160,鳳林,2016-01-16,23.746114,121.453411,5.4783482e-05
C0V210,復興,2016-01-16,23.222403,120.806089,5.2453513e-09
C0H990,昆陽,2016-01-16,24.121322,121.273642,1.976236e-08
C0R741,獅子,2016-01-16,22.202308,120.705236,5.765011e-05
C0S710,鹿野,2016-01-16,22.917711,121.122994,5.0209568e-08
C0I530,小奇萊,2016-01-16,24.131764,121.295717,2.1847752e-08
C2K630,荷苞,2016-01-16,23.657717,120.595144,4.83954e-09
C0Z080,富源,2016-01-16,23.587642,121.378225,1.9959798e-06
467441,高雄,2016-01-16,22.7304,120.3125,7.1775524e-08
C0SB10,美和,2016-01-16,22.682078,121.060236,0.9926928
C2K620,馬光農場,2016-01-16,23.721453,120.378864,9.516092e-09
C1I140,卡奈托灣,2016-01-16,23.754364,121.087872,1.1180897e-08
C0I520,玉山風口,2016-01-16,23.470489,120.955994,3.6529805e-08
C1G691,下水埔,2016-01-16,23.816114,120.5676,5.0278928e-09
C0X110,臺南市南區,2016-01-16,22.961189,120.188378,3.3006404e-07
C0V680,仁武,2016-01-16,22.701083,120.347722,5.5952917e-08
C2G840,北斗,2016-01-16,23.877586,120.514222,4.4070415e-08
C0R900,竹坑,2016-01-16,22.1385,120.7022,0.9970329
C0K250,崙背,2016-01-16,23.75555,120.318925,1.3683097e-06
C0G860,社頭,2016-01-16,23.897647,120.5862,1.5071247e-08
C0X150,安定,2016-01-16,23.102614,120.227839,1.4965752e-07
C0R590,里港,2016-01-16,22.77919,120.49459,2.7346971e-09
C0E610,馬都安,2016-01-16,24.451272,120.930192,7.900562e-09
C0E550,明德,2016-01-16,24.583486,120.885411,4.8728868e-08
C0R150,三地門,2016-01-16,22.709889,120.639944,2.839072e-09
C0G910,花壇,2016-01-16,24.032076,120.549461,6.292599e-08
C1D400,鳥嘴山,2016-01-16,24.71909,121.28387,2.107158e-08
C0K500,元長,2016-01-16,23.64981,120.315024,8.2256884e-07
C0F0B0,石岡,2016-01-16,24.276061,120.777644,3.5974146e-09
C2V250,甲仙,2016-01-16,23.080106,120.591758,3.6882923e-09
C0SA20,金崙山,2016-01-16,22.567419,120.959667,5.5119813e-08
C0V350,溪埔,2016-01-16,22.738578,120.446797,2.2101071e-08
C0M660,溪口,2016-01-16,23.604131,120.403569,3.923961e-07
C1S880,壽卡,2016-01-16,22.238911,120.858903,1.3583008e-05
72D680,桃改新埔分場,2016-01-16,24.834444,121.066111,1.5997996e-07
