站號,站名,日期,lat,lon,BLBTSLS
C0R710,龍磐,2016-12-21,21.931672,120.838942,0.9748379
C1F9D1,白毛台,2016-12-21,24.158325,120.886933,1.4385138e-09
C0G940,竹塘,2016-12-21,23.848253,120.386764,1.9241925e-08
467590,恆春,2016-12-21,22.003897,120.746339,0.98257357
C1O850,環湖,2016-12-21,23.148617,120.418633,1.3136703e-08
C0U710,太平山,2016-12-21,24.505486,121.525656,3.6344456e-08
C0E820,獅潭,2016-12-21,24.539133,120.920042,4.16485e-05
C0V880,興達,2016-12-21,22.8778,120.2127,1.6861259e-07
C0S890,關山,2016-12-21,23.0395,121.175017,6.5349366e-07
C0SB30,新蘭,2016-12-21,22.869214,121.223228,0.98224545
C2R970,屏科大,2016-12-21,22.648275,120.619247,1.4595404e-09
K2F750,種苗繁殖,2016-12-21,24.225972,120.800917,3.0647842e-09
C1Z130,銅門,2016-12-21,23.965694,121.492842,9.7704756e-08
C0AD40,土城,2016-12-21,24.973208,121.445169,6.597288e-06
CAN140,六官養殖協會,2016-12-21,23.22881,120.29962,3.0651602e-08
C0X180,山上,2016-12-21,23.0757,120.363253,4.81256e-09
C0F9Z0,雪山東峰,2016-12-21,24.388792,121.268675,3.341178e-08
C1M480,獨立山,2016-12-21,23.537022,120.607797,3.3665013e-09
C0X220,學甲,2016-12-21,23.230367,120.182187,1.4180052e-06
467650,日月潭,2016-12-21,23.881325,120.90805,3.2917358e-09
C0K600,箔子寮,2016-12-21,23.6197,120.14,0.00016412786
C0G830,埤頭,2016-12-21,23.866003,120.452806,1.840727e-08
C0S950,七塊厝,2016-12-21,22.954453,121.229922,9.129503e-08
467110,金門,2016-12-21,24.407306,118.289281,0.008765721
C0AH80,深坑,2016-12-21,25.002703,121.628328,2.565773e-06
467990,馬祖,2016-12-21,26.169269,119.923419,3.388187e-07
C0A970,三貂角,2016-12-21,25.007606,122.002058,3.6202218e-06
C2D730,寶山農場,2016-12-21,24.732444,120.976153,0.0007265506
C0K430,褒忠,2016-12-21,23.690938,120.303634,0.00048329364
467480,嘉義,2016-12-21,23.495925,120.432906,1.3843976e-07
C2E540,後龍,2016-12-21,24.606489,120.783933,0.8681208
C0V400,阿公店,2016-12-21,22.804194,120.355528,2.2049103e-09
C0R440,大漢山,2016-12-21,22.405264,120.753181,2.2233664e-08
C0K280,四湖,2016-12-21,23.630414,120.227125,0.11457843
C1F9B1,桐林,2016-12-21,24.066172,120.735194,1.1403198e-09
C2H9U0,鳳鵬,2016-12-21,23.763919,120.788061,9.67633e-10
C0K390,土庫,2016-12-21,23.679029,120.395574,5.332365e-09
C1I450,望鄉山,2016-12-21,23.594153,120.944286,1.8901778e-08
C0E910,海埔,2016-12-21,24.648767,120.772435,0.3358382
B2E890,畜試北區分所,2016-12-21,24.527806,120.770972,0.9723443
C0R750,四林格山,2016-12-21,22.076989,120.802439,0.84312356
C0F0C0,中坑,2016-12-21,24.248517,120.903319,6.8894543e-09
C1I121,大鞍,2016-12-21,23.678381,120.760017,5.2771822e-09
72U480,花改蘭陽分場,2016-12-21,24.686306,121.716583,5.866764e-05
C0A770,科教館,2016-12-21,25.096356,121.516507,7.6191964e-06
C0AJ60,六塊厝,2016-12-21,25.24,121.4481,0.00173901
C0R620,墾雷,2016-12-21,21.900836,120.855269,0.982362
467420,永康,2016-12-21,23.038386,120.2367,3.5923878e-07
467300,東吉島,2016-12-21,23.25695,119.667467,0.9996611
C0I410,名間,2016-12-21,23.837053,120.701447,8.485022e-10
A2C560,農工中心,2016-12-21,24.985917,121.239833,0.03762449
C0V740,旗山,2016-12-21,22.888614,120.483597,6.448582e-09
C0Z061,玉里,2016-12-21,23.3215,121.339656,2.721304e-07
C0S840,南田,2016-12-21,22.279725,120.889208,0.8900831
C1I470,杉林溪,2016-12-21,23.639517,120.786444,6.4164007e-09
C1X040,東原,2016-12-21,23.291597,120.463822,2.3190136e-09
C0R660,枋寮,2016-12-21,22.367722,120.590647,6.0249037e-09
C1R120,上德文,2016-12-21,22.763272,120.704442,4.597876e-08
C0K450,大埤,2016-12-21,23.646074,120.431537,2.0103987e-09
C0UA00,土場,2016-12-21,24.576533,121.495333,2.3212406e-08
467080,宜蘭,2016-12-21,24.763975,121.756528,1.1640665e-07
C0N030,四草,2016-12-21,23.0235,120.1116,5.730882e-06
C0V650,彌陀,2016-12-21,22.783806,120.246361,1.9216436e-08
C0D660,新竹市東區,2016-12-21,24.798681,120.986942,0.07934664
82S580,茶改東部分場,2016-12-21,22.907694,121.130139,2.615196e-07
C0SB40,興隆,2016-12-21,22.913661,121.257469,6.114943e-07
C0C710,大溪永福,2016-12-21,24.892936,121.324975,0.021907404
C0FA20,溫寮,2016-12-21,24.372177,120.583125,0.99638855
C0V640,湖內,2016-12-21,22.887139,120.2445,1.5773419e-07
C0R910,下寮,2016-12-21,22.3929,120.5548,2.97828e-09
C0Z020,明里,2016-12-21,23.208717,121.262342,1.3123912e-07
C0M770,嘉義梅山,2016-12-21,23.585398,120.555587,1.0106375e-09
G2F820,農業試驗所,2016-12-21,24.031261,120.688133,0.00088621007
C0C660,楊梅,2016-12-21,24.912375,121.143047,0.0005902056
C1E511,新開,2016-12-21,24.347703,120.827019,8.695775e-09
G2F820,農試所(霧峰),2016-12-21,24.031261,120.688133,0.00088621007
C1I070,和社,2016-12-21,23.591131,120.888861,1.5530771e-09
C2F000,大肚,2016-12-21,24.15295,120.572117,2.6251278e-08
C1S850,豐南,2016-12-21,23.122139,121.262389,6.192029e-08
C2A920,富貴角,2016-12-21,25.263783,121.565258,0.002510458
CAH030,茶改場竹圍站,2016-12-21,23.860083,120.637528,1.096363e-09
C0T960,光復,2016-12-21,23.660694,121.424964,2.9516298e-07
C0F9M0,豐原,2016-12-21,24.254322,120.720692,0.0018632121
C0R720,旭海,2016-12-21,22.205403,120.887614,0.99975777
C0V710,苓雅,2016-12-21,22.622742,120.330669,3.646157e-09
C0C740,觀音工業區,2016-12-21,25.064764,121.114856,0.9874703
CAC040,拉拉山,2016-12-21,24.699317,121.427133,2.0139613e-08
C0V790,萬山,2016-12-21,22.905944,120.688056,1.918343e-09
U2HA30,臺大和社,2016-12-21,23.590856,120.888864,1.5530771e-09
C0AJ90,澳底,2016-12-21,25.0552,121.9253,1.4931062e-05
C0Z100,東華,2016-12-21,23.89525,121.549833,4.684284e-07
C0G970,三豐,2016-12-21,23.882,120.2895,0.6516397
V2K610,大庄合作社,2016-12-21,23.8068,120.367939,0.023364393
C0V900,汕尾,2016-12-21,22.4782,120.4151,1.4910236e-09
C1R630,龍泉,2016-12-21,22.66701,120.59091,3.0703544e-09
C1AC50,關渡,2016-12-21,25.133486,121.469331,4.8809263e-05
C0F9I0,神岡,2016-12-21,24.272481,120.658314,0.010489492
C0K460,斗南,2016-12-21,23.678734,120.478359,1.6601052e-09
467410,臺南,2016-12-21,22.993239,120.204772,2.929244e-07
C2O810,曾文,2016-12-21,23.219681,120.497328,6.4914905e-09
467280,後龍,2016-12-21,24.648563,120.831834,0.05978761
C1F9J1,清水林,2016-12-21,24.071242,120.820419,1.3633479e-09
C2A650,火燒寮,2016-12-21,25.002719,121.742892,5.1201675e-07
466930,竹子湖,2016-12-21,25.162078,121.544547,4.7185117e-07
C1I220,樟湖,2016-12-21,23.905333,120.846983,2.6365774e-09
C0I390,仁愛,2016-12-21,24.022122,121.132206,3.5105032e-09
C0Z300,東里,2016-12-21,23.26853,121.30547,2.448119e-07
C1V590,新發,2016-12-21,23.057019,120.646064,8.574016e-09
C0K510,水林,2016-12-21,23.572924,120.24597,0.00013086037
72S590,東改賓朗果園,2016-12-21,22.813889,121.071278,0.06472583
82A750,茶改北部分場,2016-12-21,24.955778,121.631222,1.7899087e-08
C1A750,石碇服務區,2016-12-21,25.00872,121.646242,2.229113e-06
C0X300,鹿寮,2016-12-21,23.386047,120.477331,1.7232294e-09
G2AI50,關渡,2016-12-21,25.11575,121.492,7.98063e-06
C0K590,雲林東勢,2016-12-21,23.674192,120.255721,0.00048329364
C0A570,桶後,2016-12-21,24.848222,121.597992,7.6753295e-08
C1S800,華源,2016-12-21,22.657883,121.02325,0.9975388
C0G720,溪州,2016-12-21,23.851589,120.499093,1.6215322e-08
C1V160,達卡努瓦,2016-12-21,23.279811,120.705319,6.9632238e-09
C2M410,馬頭山,2016-12-21,23.324361,120.582017,2.396555e-09
C0V850,蚵仔寮,2016-12-21,22.7256,120.2527,1.2271922e-08
C0S740,池上,2016-12-21,23.119628,121.209469,1.3610135e-07
C1V390,尖山,2016-12-21,22.813153,120.367789,2.0799362e-09
C0AH70,松山,2016-12-21,25.04871,121.55042,3.7424168e-06
C0N010,鯤鯓國小,2016-12-21,23.1879,120.0889,3.5638845e-05
C0R550,新埤,2016-12-21,22.467947,120.582894,2.397977e-09
C0SA60,知本（水試所）,2016-12-21,22.702394,121.082761,0.9993334
C0T9I0,豐濱,2016-12-21,23.583897,121.514806,2.769459e-07
C0UB00,淡江大學蘭陽校園,2016-12-21,24.823239,121.730383,1.8268796e-08
C0W240,九宮,2016-12-21,24.423753,118.240186,0.00013323987
C0T9N0,富里,2016-12-21,23.171639,121.249378,1.0129637e-07
U2HA50,臺大竹山,2016-12-21,23.756972,120.681556,1.0878435e-09
C0V840,鳳鼻頭,2016-12-21,22.5083,120.3591,3.937536e-09
C0X140,西港,2016-12-21,23.125608,120.203108,9.728523e-06
72D080,桃改五峰分場,2016-12-21,24.612194,121.157167,1.21754224e-08
C2H9P0,伊拿谷,2016-12-21,23.963211,121.088264,2.000133e-09
C2H9F0,柑林,2016-12-21,24.018658,120.847072,1.6200568e-09
C0TA20,加灣,2016-12-21,24.082025,121.608944,1.6805986e-07
C0V530,阿蓮,2016-12-21,22.883208,120.327508,2.0616108e-08
C1O880,關山,2016-12-21,23.173397,120.594092,2.5374685e-09
C0E791,卓蘭,2016-12-21,24.3126,120.8244,8.613963e-09
C1I030,武界,2016-12-21,23.913225,121.052483,3.0164464e-09
C0R520,崁頂,2016-12-21,22.514781,120.506914,2.7743632e-09
C0R341,牡丹,2016-12-21,22.130036,120.792639,0.5380274
C0R930,萬丹,2016-12-21,22.5885,120.4851,2.4335152e-09
C0S760,紅石,2016-12-21,23.069131,121.126219,1.5365718e-08
C1M610,石磐龍,2016-12-21,23.496606,120.663506,4.5133484e-09
C0UA10,鴛鴦湖,2016-12-21,24.590269,121.412228,1.860238e-08
V2C260,八德蔬果,2016-12-21,24.978508,121.281819,0.00143654
C0R800,丹路,2016-12-21,22.204481,120.750989,0.9985746
C0G920,永靖,2016-12-21,23.924703,120.547533,2.9730898e-05
C2M950,太和,2016-12-21,23.538372,120.702961,5.838245e-09
C1A630,下盆,2016-12-21,24.771003,121.538622,2.8137201e-08
B2N890,畜產試驗所,2016-12-21,23.058972,120.336406,4.807395e-09
C0UA30,白嶺,2016-12-21,24.527819,121.519031,2.0782876e-08
C1V580,溪南(特生中心),2016-12-21,23.084972,120.788475,1.1289436e-08
C1T970,大農,2016-12-21,23.615233,121.413331,2.1775931e-07
E2S960,林試太麻里2,2016-12-21,22.598014,120.989761,0.99899864
C0R650,竹田,2016-12-21,22.58486,120.54344,2.4335152e-09
C1H900,清流,2016-12-21,24.080775,120.962997,2.3366447e-09
C1C510,水尾,2016-12-21,24.940081,121.087161,0.00840083
C0F9X0,大雅(中科園區),2016-12-21,24.21528,120.62445,0.8949934
C0SB60,白守蓮,2016-12-21,23.126769,121.401914,8.0305035e-05
C0O970,虎頭埤,2016-12-21,23.021375,120.347878,5.735239e-08
C0C730,中大臨海站,2016-12-21,24.966126,121.008581,0.99992603
C0X250,新營,2016-12-21,23.310689,120.316681,1.7952766e-08
C0V700,三民,2016-12-21,22.645017,120.311233,3.646157e-09
C0U870,大礁溪,2016-12-21,24.791042,121.675047,1.9056458e-08
C0E870,高鐵苗栗,2016-12-21,24.60725,120.826094,0.7999126
A2K570,古坑花卉中心,2016-12-21,23.63353,120.55239,1.7767442e-09
C0M860,新美,2016-12-21,23.338017,120.683169,2.7443587e-09
C1E701,八卦,2016-12-21,24.491756,120.927619,2.0589195e-07
C0I420,國姓,2016-12-21,24.037803,120.855072,8.805257e-10
C2D720,關西工作站,2016-12-21,24.757275,121.184792,3.4557284e-05
C0S960,香蘭,2016-12-21,22.587569,120.993375,0.99899846
C0R260,春日,2016-12-21,22.370361,120.628306,0.2296587
72G600,臺中農改場,2016-12-21,24.003028,120.534389,0.013606647
C0Z210,瑞穗,2016-12-21,23.5239,121.39021,3.2749796e-07
C0M820,達邦,2016-12-21,23.453994,120.749517,2.9865113e-09
C0V860,南寮,2016-12-21,22.7616,120.2339,2.0240005e-08
C0G740,大城,2016-12-21,23.852487,120.320935,0.55799353
C0R920,塭仔,2016-12-21,22.4169,120.5197,3.163881e-09
C0R470,高樹,2016-12-21,22.826389,120.600806,2.8940352e-09
C0R680,佳樂水,2016-12-21,21.993578,120.861633,0.9837682
C1O870,大棟山,2016-12-21,23.31157,120.52226,5.99063e-09
C0D360,梅花,2016-12-21,24.678347,121.208558,5.784633e-08
C0Z190,富世,2016-12-21,24.14743,121.6297,5.3997645e-08
C0AI10,屈尺,2016-12-21,24.92184,121.54475,2.5592558e-06
B2U990,畜試東區分所,2016-12-21,24.669039,121.832561,9.705524e-05
C0SB80,長濱漁港,2016-12-21,23.313644,121.459994,7.707757e-07
C0R240,來義,2016-12-21,22.527306,120.625111,0.025069723
C0V910,大樹,2016-12-21,22.684645,120.432803,2.4026467e-09
C1R610,西大武山,2016-12-21,22.617719,120.7322,2.391606e-08
C0G900,線西,2016-12-21,24.143358,120.443536,0.9995078
C0M700,竹崎,2016-12-21,23.526178,120.555508,1.7859347e-09
C2E880,三義,2016-12-21,24.405478,120.749819,1.4721392e-08
C0C720,竹圍,2016-12-21,25.112692,121.239824,0.0012512346
C0F9P0,清水,2016-12-21,24.312297,120.562242,0.9965801
C0Z150,吉安光華,2016-12-21,23.930925,121.595153,5.336072e-07
C1D640,外坪(五指山),2016-12-21,24.644447,121.090961,4.1193562e-08
C0F9O0,潭子,2016-12-21,24.213106,120.703933,0.00267149
C2H9R0,卓社,2016-12-21,23.887894,121.000086,5.4628915e-09
72T250,花蓮農改場,2016-12-21,23.975222,121.563889,1.548324e-07
C0E780,銅鑼,2016-12-21,24.489681,120.790853,0.07480008
C1T950,太安,2016-12-21,23.666719,121.370128,2.6297283e-08
C0E830,苑裡,2016-12-21,24.439714,120.653053,0.9935763
467270,田中,2016-12-21,23.873803,120.581286,1.9006137e-09
C0SA10,檳榔四格山,2016-12-21,22.810031,121.109308,0.00073416554
C1T830,布洛灣,2016-12-21,24.17184,121.57127,4.8588078e-08
C0F970,大坑,2016-12-21,24.173142,120.722289,0.501856
C1U920,思源,2016-12-21,24.393125,121.347214,2.2716032e-08
C0A931,三和,2016-12-21,25.233153,121.595236,5.3295084e-06
C0I010,廬山,2016-12-21,24.033311,121.181808,7.2257484e-09
C2M940,日野賀,2016-12-21,23.434056,120.727169,4.8737676e-09
C0R860,鼻頭,2016-12-21,22.1043,120.8979,0.9927738
C0UB20,壯圍,2016-12-21,24.7359,121.8163,9.705524e-05
C0R790,九棚,2016-12-21,22.14195,120.889281,0.9992376
C0W110,東莒,2016-12-21,25.9652,119.98069,0.99893856
C1U930,粉鳥林,2016-12-21,24.497088,121.842479,3.885553e-08
C1I211,蘆竹湳,2016-12-21,23.934019,120.811994,1.25189e-09
C0S830,長濱,2016-12-21,23.286817,121.411975,1.0943937e-07
C1F9F1,伯公龍,2016-12-21,24.272392,120.849047,1.6084869e-08
C0E810,西湖,2016-12-21,24.562947,120.7485,0.67737484
C1I440,新高口,2016-12-21,23.478744,120.878939,1.1712653e-08
C0O840,王爺宮,2016-12-21,23.222064,120.40085,6.492939e-09
C0T9G0,鳳林山,2016-12-21,23.735269,121.420131,8.493547e-08
C0X080,佳里,2016-12-21,23.173039,120.145086,1.8379434e-06
C0FB70,大甲溪埔,2016-12-21,24.370625,120.620067,0.9915785
C0Z310,清水斷崖,2016-12-21,24.218294,121.689142,9.778044e-08
C0M680,太保,2016-12-21,23.455062,120.331455,8.0305085e-08
C1S820,金峰,2016-12-21,22.590969,120.933236,0.99782336
C0AD10,八里,2016-12-21,25.150211,121.403947,0.0012512346
C2K240,草嶺,2016-12-21,23.59555,120.693461,4.5140887e-09
C1SA70,都蘭,2016-12-21,22.87794,121.226881,6.114943e-07
C0K440,二崙,2016-12-21,23.772797,120.408944,1.8589859e-08
C1A760,坪林交控,2016-12-21,24.94284,121.713442,8.159273e-08
C0F9N0,大里,2016-12-21,24.092464,120.701378,0.970805
C0SA90,達仁林場,2016-12-21,22.264347,120.823972,0.9999818
C1R290,石門山,2016-12-21,22.112611,120.756597,0.9239875
42HA10,萬大發電廠,2016-12-21,23.978875,121.139639,6.5110455e-09
C0R890,山海,2016-12-21,21.9878,120.7091,0.98523086
C0T9A0,月眉山,2016-12-21,23.809928,121.539828,9.730732e-08
C0AC70,信義,2016-12-21,25.037822,121.564597,3.7424168e-06
C0K560,棋山,2016-12-21,23.68645,120.603417,1.0463924e-09
C2FB50,出雲,2016-12-21,24.206469,120.902794,3.184113e-09
C1Z240,中平林道,2016-12-21,23.42115,121.26763,3.5415628e-08
U2H480,溪頭,2016-12-21,23.670306,120.798194,2.4361764e-09
C0M880,好美里,2016-12-21,23.3364,120.138,1.8379434e-06
C0T9E0,大坑,2016-12-21,23.880628,121.581981,1.1713361e-07
C0K530,臺西,2016-12-21,23.701547,120.197559,0.59820473
C1E900,國一N128K,2016-12-21,24.560997,120.844186,0.49123266
C0AJ50,水湳洞,2016-12-21,25.123695,121.862238,0.011647152
C0AI20,白沙灣,2016-12-21,25.283128,121.519058,0.22169448
C0A860,大坪,2016-12-21,25.165914,121.632969,3.2153578e-06
C1U850,觀音海岸,2016-12-21,24.38319,121.77856,4.3216698e-08
C2K610,草嶺石壁,2016-12-21,23.602469,120.707731,4.710349e-09
C0U950,鶯子嶺,2016-12-21,24.89754,121.79244,2.8852293e-08
C0O900,善化,2016-12-21,23.112883,120.297219,5.72777e-09
C0K550,蔦松,2016-12-21,23.514319,120.229736,6.7604383e-06
E2P980,林試六龜中心,2016-12-21,22.991703,120.645722,1.9106674e-09
C0E590,通霄,2016-12-21,24.471892,120.704622,0.99166846
C1I310,西巒,2016-12-21,23.754486,120.883956,3.3075451e-09
C0A550,泰平,2016-12-21,24.971197,121.823711,5.749719e-08
C0I360,水里,2016-12-21,23.812553,120.849792,1.038483e-09
C0R830,高士,2016-12-21,22.121825,120.836781,0.9077772
C1I101,溪頭,2016-12-21,23.661789,120.807647,5.711068e-09
C0AJ20,野柳,2016-12-21,25.20703,121.690021,0.013040065
C0B060,暖暖,2016-12-21,25.0957,121.7403,0.0041680867
C1H920,長豐,2016-12-21,24.102039,120.879897,1.3957453e-09
C0V360,內門,2016-12-21,22.975481,120.466769,3.757739e-09
C0R850,林邊,2016-12-21,22.4634,120.5339,2.7743632e-09
C0E930,龍鳳,2016-12-21,24.700034,120.859125,0.001995471
C0U910,冬山,2016-12-21,24.63373,121.7937,9.705524e-05
C1E721,泰安,2016-12-21,24.489017,120.968036,9.511429e-09
82H320,茶改中部分場,2016-12-21,23.875611,120.913583,1.153194e-09
C0M750,布袋,2016-12-21,23.380878,120.167789,1.5678262e-06
C1S860,利嘉,2016-12-21,22.809417,121.050528,3.6298523e-08
72C440,桃園農改,2016-12-21,24.950944,121.030583,0.99983966
E2S980,林試太麻里1,2016-12-21,22.598922,120.980044,0.9990427
C0X170,關廟,2016-12-21,22.963017,120.327797,8.936984e-09
C0V720,林園,2016-12-21,22.507747,120.394511,3.6495245e-09
C1I510,線浸林道,2016-12-21,23.761508,120.832956,2.048135e-09
C0D690,外湖,2016-12-21,24.917735,120.968711,0.99992603
C0C750,新興坑尾,2016-12-21,25.0061,121.0971,0.937552
B2Q810,畜試南區分所,2016-12-21,21.945583,120.802167,0.9837682
C0S790,金崙,2016-12-21,22.538122,120.966875,0.994336
C0AH90,福山植物園,2016-12-21,24.760717,121.58135,7.8689084e-08
C0I540,奇萊稜線,2016-12-21,24.109231,121.326456,3.990904e-08
C0M850,表湖,2016-12-21,23.24186,120.64166,2.9553735e-09
C0S770,大溪山,2016-12-21,22.478475,120.943325,0.00074628426
C0AG80,中和,2016-12-21,24.991622,121.491792,3.7424168e-06
C0T790,大禹嶺,2016-12-21,24.186117,121.316086,2.5109129e-08
C0T9B0,水源,2016-12-21,23.991861,121.537169,8.515673e-08
C0R840,牡丹池山,2016-12-21,22.168389,120.841225,0.99998355
C1I131,桶頭,2016-12-21,23.641944,120.654117,1.2286883e-09
CAL110,布袋國中,2016-12-21,23.35893,120.18026,2.0609252e-07
467571,新竹,2016-12-21,24.827853,121.014219,0.104102045
C0Z290,赤柯山,2016-12-21,23.36893,121.38293,3.9721918e-08
C0X280,將軍,2016-12-21,23.214999,120.13577,1.8379434e-06
C0S690,太麻里,2016-12-21,22.60902,120.98533,3.5534283e-06
C0U880,北關,2016-12-21,24.9072,121.8734,1.0805156e-05
C1H860,瑞岩,2016-12-21,24.123772,121.18345,9.958086e-09
C0G810,埔心,2016-12-21,23.947633,120.525456,4.2507265e-05
C0U970,大福,2016-12-21,24.80064,121.81389,1.234069e-07
C2H9N0,仁愛東眼,2016-12-21,24.026875,121.1205,6.065143e-09
C1E670,南礦,2016-12-21,24.538278,121.002836,1.3380735e-08
C0M520,東後寮,2016-12-21,23.369908,120.248065,1.9522797e-07
C1E461,松安,2016-12-21,24.397972,120.986022,8.984583e-09
72G600,臺中農改,2016-12-21,24.003028,120.534389,0.013606647
C2N160,西拉雅風管處,2016-12-21,23.189481,120.335297,2.6271163e-08
C2M970,碧湖,2016-12-21,23.568632,120.624165,3.9980637e-09
C0A640,石碇,2016-12-21,24.993969,121.662917,7.179913e-07
E2S960,林試太麻里2,2016-12-21,22.598,120.99775,0.9989814
C0F9Y0,桃山,2016-12-21,24.432739,121.303808,3.5692786e-08
C1I020,萬大,2016-12-21,23.979817,121.132261,3.5403858e-09
C0U940,羅東,2016-12-21,24.68184,121.74934,8.6522006e-05
C0M650,朴子,2016-12-21,23.43463,120.23902,1.462733e-06
C1I500,大尖山,2016-12-21,23.858572,120.994889,1.1032523e-08
C0G820,田尾,2016-12-21,23.901669,120.509389,2.9730898e-05
E2K600,四湖植物園,2016-12-21,23.676986,120.163433,0.5750529
C0S730,綠島,2016-12-21,22.6672,121.47533,3.7526668e-06
12Q970,東港工作站,2016-12-21,22.479997,120.466058,2.97828e-09
C0E430,南庄,2016-12-21,24.601775,121.000214,3.264506e-05
C1TA00,太魯閣,2016-12-21,24.15773,121.6236,9.947364e-08
466920,臺北,2016-12-21,25.037658,121.514853,3.7424168e-06
C0R600,舊泰武,2016-12-21,22.588194,120.664944,1.3627819e-08
C1I260,北坑,2016-12-21,23.9246,121.006903,1.1740695e-09
466910,鞍部,2016-12-21,25.182586,121.529731,2.022579e-07
C1I230,九份二山,2016-12-21,23.961944,120.845,1.635091e-09
C2A660,瑞芳,2016-12-21,25.113169,121.801147,5.4700695e-06
C0R270,琉球嶼,2016-12-21,22.332244,120.362236,0.2303379
C1T990,高寮,2016-12-21,23.394239,121.356808,4.9450006e-07
C0G620,芬園,2016-12-21,24.015678,120.6213,3.0147685e-08
C1Z140,荖溪,2016-12-21,23.890575,121.45964,4.8556394e-08
C1I201,中心崙,2016-12-21,23.728722,120.712097,1.7753112e-09
C1I400,凌霄,2016-12-21,24.018778,121.004456,5.9641914e-09
C1M640,十字,2016-12-21,23.492153,120.753683,5.5811236e-09
G2P820,農試鳳山分所,2016-12-21,22.646611,120.356083,3.2750584e-09
C0Z270,蕃薯寮,2016-12-21,23.73835,121.540108,2.1580769e-07
C0F9Q0,外埔,2016-12-21,24.347817,120.705686,0.08921938
C0K580,高鐵雲林,2016-12-21,23.737456,120.417944,5.332365e-09
C2I090,鳳凰,2016-12-21,23.728081,120.787347,1.223086e-09
C0U990,員山,2016-12-21,24.74435,121.72247,8.6522006e-05
C0V770,大社,2016-12-21,22.730306,120.346639,1.0131006e-08
C0X120,麻豆,2016-12-21,23.183289,120.248611,1.4180052e-06
C0C670,龍潭,2016-12-21,24.870056,121.221389,8.393623e-07
C0D680,香山濕地,2016-12-21,24.783581,120.914988,0.9684199
C0S980,勝林山,2016-12-21,22.430439,120.8938,1.09777005e-07
C0V730,大寮,2016-12-21,22.605614,120.395717,5.4785643e-09
C0R570,麟洛,2016-12-21,22.65078,120.52719,1.095786e-09
C2M930,石卓,2016-12-21,23.478744,120.702264,5.514934e-09
C0G9B0,和美,2016-12-21,24.105169,120.492131,0.14328647
CAG100,王功漁港,2016-12-21,23.96824,120.32586,0.96570915
C0X290,北門,2016-12-21,23.267772,120.125481,1.8379434e-06
C2F930,大甲,2016-12-21,24.347667,120.640403,0.96744794
C0D650,湖口,2016-12-21,24.904794,121.043628,0.99952483
C0E420,竹南,2016-12-21,24.708978,120.888897,0.93822646
C0U780,五結,2016-12-21,24.68637,121.79794,9.705524e-05
C1I250,鯉潭,2016-12-21,23.961922,120.991131,1.3957453e-09
C0R130,阿禮,2016-12-21,22.742908,120.743678,4.889886e-09
C0X100,臺南市北區,2016-12-21,23.010394,120.194228,4.10505e-07
C0S920,金峰嘉蘭,2016-12-21,22.594789,120.960825,0.99899966
C0V490,新興,2016-12-21,22.627422,120.298803,3.6495245e-09
C0F9K0,大安,2016-12-21,24.345061,120.588025,0.99524057
72N100,臺南農改,2016-12-21,23.0605,120.342194,4.81189e-09
467290,古坑,2016-12-21,23.633639,120.551889,1.7767442e-09
C2E970,八甲,2016-12-21,24.535811,120.795983,0.061008144
C0V440,鳳山,2016-12-21,22.646653,120.356122,3.2750584e-09
C1T940,大觀,2016-12-21,23.714206,121.373133,1.1164599e-07
72T250,花蓮農改,2016-12-21,23.975222,121.563889,1.548324e-07
C0E740,造橋,2016-12-21,24.637056,120.864778,0.0010450832
C0R100,尾寮山,2016-12-21,22.833111,120.683889,5.509729e-09
A2K630,臺大雲林校區,2016-12-21,23.730628,120.423903,5.329498e-09
C0D580,寶山,2016-12-21,24.735006,121.025192,2.5232517e-05
E2P990,林試扇平站,2016-12-21,22.9677,120.6857,8.360699e-09
C0AI30,三重,2016-12-21,25.057328,121.500629,7.6191964e-06
C0AH00,汐止,2016-12-21,25.066881,121.658778,0.013040065
C1Z040,立山,2016-12-21,23.443356,121.327375,1.0305772e-07
C0W130,花嶼,2016-12-21,23.40007,119.32276,0.9900528
C0A950,鼻頭角,2016-12-21,25.129036,121.923372,1.852804e-05
C0K470,林內,2016-12-21,23.748675,120.609642,1.7553244e-09
C2F990,摩天嶺,2016-12-21,24.322458,120.936819,6.9636488e-09
82C160,茶改場,2016-12-21,24.908472,121.185333,1.7058537e-05
C0Z320,清水林道,2016-12-21,23.27125,121.188272,7.874794e-08
C0R760,南仁湖,2016-12-21,22.084681,120.863353,0.9214604
C0M670,大林,2016-12-21,23.600616,120.45841,3.0745318e-07
C0M800,茶山,2016-12-21,23.299075,120.664767,2.7268012e-09
C0A9C0,天母,2016-12-21,25.117494,121.537169,6.323916e-06
72K220,南改斗南分場,2016-12-21,23.634556,120.477333,1.814201e-09
72AI40,桃改樹林分場,2016-12-21,24.944503,121.386972,5.5299956e-06
C0S910,蘭嶼燈塔,2016-12-21,22.081197,121.503117,0.98389965
C0B050,八斗子,2016-12-21,25.144754,121.79167,0.01992534
C0U900,內城,2016-12-21,24.71813,121.68766,1.0225845e-07
C0X320,柳營,2016-12-21,23.253328,120.375253,1.2871171e-08
C0M790,新港,2016-12-21,23.553269,120.345728,5.985904e-07
C0F9T0,西屯,2016-12-21,24.179494,120.641275,0.9891884
C0SA30,都歷,2016-12-21,23.020333,121.323642,7.873434e-06
C0C620,蘆竹,2016-12-21,25.084275,121.265767,0.0008502404
C0R730,大坪頂,2016-12-21,22.024633,120.69355,0.9676964
C0AJ40,石門,2016-12-21,25.273672,121.601198,0.005872338
C0E750,苗栗,2016-12-21,24.564569,120.824575,0.5331669
C0T870,鯉魚潭,2016-12-21,23.935639,121.508944,2.690041e-07
C1V170,排雲,2016-12-21,23.463619,120.954147,3.0080656e-08
C2H950,中寮,2016-12-21,23.884447,120.766406,1.1198392e-09
C0R350,貓鼻頭,2016-12-21,21.921774,120.7358,0.9823306
C0V660,岡山,2016-12-21,22.797078,120.294958,1.3442384e-08
C1H941,雙冬,2016-12-21,23.967378,120.802189,1.1860933e-09
C0AJ70,田寮,2016-12-21,25.2698,121.4886,0.2978502
C0AI00,五股,2016-12-21,25.07445,121.42728,0.053689126
C0Z280,德武,2016-12-21,23.47426,121.41071,2.8461636e-07
C0R700,枋山,2016-12-21,22.246844,120.661086,0.9997289
C0C460,復興,2016-12-21,24.820208,121.352281,5.726713e-08
E2H360,蓮華池,2016-12-21,23.918333,120.885278,1.2711704e-09
C0M640,中埔,2016-12-21,23.42538,120.5229,1.8592438e-09
C0W140,金沙,2016-12-21,24.488292,118.408778,0.045291997
C2A540,四堵,2016-12-21,24.8926,121.745736,1.095181e-07
C0ACA0,新莊,2016-12-21,25.051478,121.446756,0.0020185616
C0R220,潮州,2016-12-21,22.534361,120.54,5.358047e-09
U2HA40,臺大內茅埔,2016-12-21,23.689722,120.851117,1.0740936e-09
467490,臺中,2016-12-21,24.145736,120.684075,1.4553857e-05
C0U960,翠峰湖,2016-12-21,24.510856,121.608044,3.6296793e-08
E2HA20,林試畢祿溪站,2016-12-21,24.226944,121.308522,1.7336811e-08
C0V890,前鎮,2016-12-21,22.5718,120.3117,3.935171e-09
467620,蘭嶼,2016-12-21,22.036969,121.558339,0.9751707
C1F941,雪嶺,2016-12-21,24.280586,121.026642,2.572591e-08
C2H9E0,國姓南港,2016-12-21,23.911108,120.846556,2.7593596e-09
C0AC80,文山,2016-12-21,25.00235,121.575728,2.561859e-06
C0F9R0,龍井,2016-12-21,24.184536,120.528972,0.99927795
C0M760,民雄,2016-12-21,23.551754,120.428457,8.299665e-07
C0UA40,西德山,2016-12-21,24.560647,121.752608,2.6459945e-08
C1T920,中興,2016-12-21,23.769503,121.498653,3.7311625e-07
C0D550,雪霸,2016-12-21,24.526972,121.11605,1.8291773e-08
C2F860,梨山,2016-12-21,24.247522,121.243669,1.7864501e-08
C0R320,車城,2016-12-21,22.0744,120.716247,0.98523086
C1S870,南美山,2016-12-21,23.15025,121.382333,5.188072e-07
C0B020,基隆嶼,2016-12-21,25.19141,121.78391,0.011647152
C1U501,牛鬥,2016-12-21,24.637836,121.573656,5.466073e-08
C0M730,嘉義市東區,2016-12-21,23.457673,120.460531,7.309574e-08
C0S700,知本,2016-12-21,22.684866,121.005642,5.680073e-06
C1N001,沙崙,2016-12-21,22.935472,120.309406,2.0616108e-08
C0V760,橋頭,2016-12-21,22.757806,120.30575,1.197126e-08
C0G960,福寶,2016-12-21,24.0443,120.3814,0.23697485
C0X210,白河,2016-12-21,23.347466,120.414427,1.1594581e-08
C0S810,東河,2016-12-21,22.972672,121.303986,7.053757e-07
C2R170,屏東,2016-12-21,22.66027,120.49403,1.119583e-09
C0R670,楓港,2016-12-21,22.190131,120.692156,0.9997289
C0FA50,霧峰,2016-12-21,24.0419,120.6995,0.004992812
C0UB10,蘇澳,2016-12-21,24.5969,121.8571,1.841084e-07
C0G950,防潮門,2016-12-21,24.1835,120.4871,0.99940854
C0M740,六腳,2016-12-21,23.492871,120.290625,8.705802e-08
C1R250,力里,2016-12-21,22.428117,120.629228,0.025069723
C0K330,虎尾,2016-12-21,23.719183,120.442036,5.2281113e-09
C2FA00,烏石坑,2016-12-21,24.273503,120.947617,6.9059e-09
C0V620,永安,2016-12-21,22.82315,120.236856,1.9216436e-08
C1I330,楓樹林,2016-12-21,23.986803,121.076117,5.2976747e-09
C0W200,湖西,2016-12-21,23.596314,119.67275,0.9989945
72Q010,高雄農改場,2016-12-21,22.709333,120.525889,1.0815416e-09
C0SA40,瑞和,2016-12-21,22.974361,121.156697,9.933796e-07
C0C680,龜山,2016-12-21,25.02846,121.38656,4.7836433e-08
C2V260,月眉,2016-12-21,22.971003,120.539853,2.0428057e-09
C0V450,鳳森,2016-12-21,22.545064,120.392592,4.719882e-09
C0U720,南山,2016-12-21,24.43742,121.38167,2.7330143e-08
A2N290,臺南蘭花園區,2016-12-21,23.340258,120.379661,1.2871171e-08
C0R560,新園,2016-12-21,22.5434,120.461558,2.7743632e-09
C0U890,三星,2016-12-21,24.66812,121.65302,8.5724174e-08
C1V300,御油山,2016-12-21,23.001983,120.715364,1.1147465e-08
C0U600,礁溪,2016-12-21,24.817539,121.765608,1.1520253e-07
C1T980,龍澗,2016-12-21,24.023289,121.411328,3.279661e-08
C0D670,海天一線,2016-12-21,24.831986,120.914438,0.9780242
C0SA00,歷坵,2016-12-21,22.520969,120.89185,4.9568684e-05
C0M710,東石,2016-12-21,23.458927,120.15385,6.7604383e-06
C0M780,鹿草,2016-12-21,23.41134,120.30835,5.629676e-08
C0U520,雙連埤,2016-12-21,24.753033,121.641303,1.9080062e-08
C0B010,七堵,2016-12-21,25.094819,121.71713,0.0076794857
C0R480,長治,2016-12-21,22.693128,120.542622,2.117475e-09
C1V830,國三S383K,2016-12-21,22.781967,120.426475,2.7989775e-09
12Q980,恆春工作站,2016-12-21,22.079678,120.714425,0.98523086
C1O940,東山服務區,2016-12-21,23.286016,120.398472,1.1258342e-08
C1U840,東澳嶺,2016-12-21,24.5378,121.8485,3.988735e-08
C1D630,飛鳳山,2016-12-21,24.766464,121.119178,1.376e-07
C0S940,石寧山,2016-12-21,23.223772,121.406639,2.2076367e-07
C0K410,北港,2016-12-21,23.573957,120.292802,6.813583e-07
C2M620,瑞里,2016-12-21,23.545133,120.675197,5.243921e-09
C0SB70,小港漁港,2016-12-21,23.158558,121.400431,4.962149e-07
C2O950,安南,2016-12-21,23.076694,120.144861,2.8731629e-05
C0F0E0,南湖圈谷,2016-12-21,24.363714,121.444667,5.1231805e-08
467610,成功,2016-12-21,23.097486,121.373428,3.147543e-05
C0G890,伸港,2016-12-21,24.148933,120.484403,0.99959064
C2E540,龍溪,2016-12-21,24.606489,120.783933,0.8681208
C1V200,梅山,2016-12-21,23.268447,120.823556,7.037125e-09
C0T9H0,加路蘭山,2016-12-21,23.682947,121.5274,6.558787e-08
C2O930,玉井,2016-12-21,23.126042,120.46055,1.3136703e-08
C1F911,新伯公,2016-12-21,24.221361,120.841069,3.0187775e-09
C0R490,九如,2016-12-21,22.7405,120.490503,1.0938899e-09
C0X200,左鎮,2016-12-21,23.056758,120.408522,5.116528e-09
C0SB50,叭嗡嗡,2016-12-21,23.047062,121.343223,1.0979027e-06
C1F891,稍來,2016-12-21,24.265689,121.001142,1.8241394e-08
72N240,七股研究中心,2016-12-21,23.081672,120.062894,0.012964503
C0C700,中壢,2016-12-21,24.977661,121.256375,0.00092872995
C0M690,水上,2016-12-21,23.419734,120.388909,1.2520057e-07
C0V690,鼓山,2016-12-21,22.623325,120.275575,3.6495245e-09
C0O860,大內,2016-12-21,23.11885,120.36083,2.3450744e-09
C0Z200,萬榮,2016-12-21,23.709219,121.420106,2.6900435e-07
C0T9D0,和中,2016-12-21,24.26676,121.74103,1.6915632e-07
C1O921,楠西,2016-12-21,23.183511,120.484083,9.306012e-09
C0AJ30,淡水觀海,2016-12-21,25.184591,121.408616,0.00173901
C0V810,左營,2016-12-21,22.67491,120.28491,1.1257612e-08
C0UA70,桃源谷,2016-12-21,24.962606,121.888875,4.2747764e-08
C0X130,官田,2016-12-21,23.193217,120.315422,2.785526e-08
C1H000,翠峰,2016-12-21,24.109397,121.205211,1.9162377e-08
C0UA90,石城,2016-12-21,24.980444,121.951214,9.447079e-06
C1E681,南勢山,2016-12-21,24.421669,120.923831,9.523392e-09
C0A9F0,內湖,2016-12-21,25.079422,121.57545,3.7424168e-06
C0K291,宜梧,2016-12-21,23.536281,120.169329,8.169103e-06
C1K540,口湖,2016-12-21,23.585344,120.180517,0.00019790418
C0R780,滿州,2016-12-21,22.024403,120.839892,0.981169
C0V870,文安,2016-12-21,22.8025,120.2164,2.0240005e-08
C0U650,玉蘭,2016-12-21,24.675286,121.587061,2.6479533e-08
C0R640,東港,2016-12-21,22.46247,120.44074,3.933948e-09
K2E360,苗栗農改,2016-12-21,24.495722,120.829111,0.61937684
C0AJ80,板橋,2016-12-21,25.0107,121.4489,6.597288e-06
C0S660,下馬,2016-12-21,23.150427,121.070312,4.135345e-08
C1H9B1,阿眉,2016-12-21,24.1263,120.994672,1.0934627e-08
C0UA20,多加屯,2016-12-21,24.368614,121.373189,2.3837774e-08
C0E730,頭份,2016-12-21,24.688247,120.912206,0.93855655
72V140,高改旗南分場,2016-12-21,22.857861,120.516667,2.7648122e-09
C0K480,莿桐,2016-12-21,23.761192,120.502372,2.4640094e-09
C0U980,坪林石牌,2016-12-21,24.86478,121.77396,2.4348303e-08
C0T900,西林,2016-12-21,23.8119,121.441458,2.2652694e-07
C1I150,青雲,2016-12-21,23.793361,120.949378,1.1101353e-09
467350,澎湖,2016-12-21,23.565503,119.563094,0.99563605
C0G800,埔鹽,2016-12-21,24.000394,120.431683,0.14546365
C0H960,草屯,2016-12-21,23.973672,120.68085,7.8398077e-10
C1V780,多納林道,2016-12-21,22.888028,120.737917,7.152799e-09
C0E920,通霄漁港,2016-12-21,24.498589,120.673876,0.997507
C0Z330,安通山,2016-12-21,23.290728,121.348528,8.711001e-08
C0AH10,永和,2016-12-21,25.01125,121.508111,4.005232e-06
C0AK10,太平里,2016-12-21,25.134937,121.364899,0.0020181444
C2G640,鹿港,2016-12-21,24.0753,120.430481,0.1404872
C1E890,國三N149K,2016-12-21,24.463414,120.680019,0.984265
C1R110,口社,2016-12-21,22.770111,120.645222,2.699854e-09
C1M870,國三N285K,2016-12-21,23.550319,120.505833,1.7619224e-09
467050,新屋,2016-12-21,25.006744,121.047486,0.99990636
C1E480,鳳美,2016-12-21,24.554803,121.034747,1.2403467e-08
C0M530,奮起湖,2016-12-21,23.493903,120.699253,5.9206e-09
C0C590,觀音,2016-12-21,25.027072,121.153317,6.507886e-05
C0T9M0,靜浦,2016-12-21,23.455167,121.495028,4.010106e-07
C2H9M0,發祥,2016-12-21,24.154094,121.164517,4.91971e-09
C0AI40,石牌,2016-12-21,25.115597,121.513139,6.597288e-06
C1F871,上谷關,2016-12-21,24.203483,121.018644,6.8973303e-09
C2H9G0,百勝,2016-12-21,24.051142,120.909361,3.0490532e-09
C0G880,二水,2016-12-21,23.810742,120.6173,1.4155068e-09
C0R940,加祿堂,2016-12-21,22.3363,120.6217,0.8162973
C0W220,北竿,2016-12-21,26.220358,119.974881,9.293492e-08
C0O960,崎頂,2016-12-21,22.959547,120.369317,2.3915092e-09
C0S750,向陽,2016-12-21,23.248397,120.986133,1.3908191e-08
C0T9F0,水璉,2016-12-21,23.797131,121.542514,1.6370976e-07
C1M600,頭凍,2016-12-21,23.406364,120.603339,3.512593e-09
467660,臺東,2016-12-21,22.752211,121.154586,0.9950433
C1D380,新埔,2016-12-21,24.84745,121.03834,0.016093342
C2G980,田頭村,2016-12-21,23.8263,120.444175,1.8589859e-08
C0V750,路竹,2016-12-21,22.854997,120.259439,5.5947447e-09
C0N050,蚵寮,2016-12-21,23.301,120.1104,3.5638845e-05
72M700,南改鹿草分場,2016-12-21,23.416869,120.283061,6.1787446e-08
C1SA50,利嘉林道,2016-12-21,22.82325,121.009389,1.6631994e-08
467550,玉山,2016-12-21,23.487614,120.959522,3.3670748e-08
C0A940,金山,2016-12-21,25.223628,121.643967,0.13763878
C1V340,大津,2016-12-21,22.888322,120.645986,1.5240724e-09
C0W180,七美,2016-12-21,23.219333,119.444892,0.99905545
C1F9C1,白冷,2016-12-21,24.182844,120.929889,1.4400703e-09
K2E710,苗改生物防治研究中心,2016-12-21,24.422861,120.871833,0.0030376115
C0N040,蘆竹溝,2016-12-21,23.2344,120.0961,3.5638845e-05
C2W230,畜試所澎湖,2016-12-21,23.628342,119.513206,0.9726532
C0R880,後壁湖,2016-12-21,21.9457,120.7457,0.9854965
C1I280,埔中,2016-12-21,23.820778,120.642594,1.3956655e-09
467790,墾丁雷達站,2016-12-21,21.948235,120.808028,0.9809639
C0W190,望安,2016-12-21,23.380564,119.494075,0.99680424
466881,新北,2016-12-21,24.9593,121.52,3.2184503e-06
C0Z170,卓溪,2016-12-21,23.3443,121.3029,2.2128746e-07
C0F850,東勢,2016-12-21,24.246428,120.833047,3.0503156e-09
466900,淡水,2016-12-21,25.164889,121.448906,0.0012512346
C0I370,魚池,2016-12-21,23.895703,120.94135,1.2429535e-09
C0C630,大溪,2016-12-21,24.882853,121.265547,1.5828566e-05
C0A520,山佳,2016-12-21,24.974944,121.402008,5.5299956e-06
C0I110,竹山,2016-12-21,23.761225,120.688156,1.0798618e-09
82H840,茶改南部分場,2016-12-21,23.762528,120.7405,1.0345448e-09
C0G660,溪湖,2016-12-21,23.94835,120.479122,6.5855165e-05
C1T800,洛韶,2016-12-21,24.204558,121.453956,3.031178e-08
C1T810,慈恩,2016-12-21,24.192044,121.388386,2.7116734e-08
C1E451,象鼻,2016-12-21,24.368617,120.940228,9.521666e-09
C0AC60,三峽,2016-12-21,24.939025,121.369728,2.9602634e-06
C0I490,萬大林道,2016-12-21,23.928228,121.091411,1.0435547e-08
C1I290,豐丘,2016-12-21,23.668178,120.887417,2.0470885e-09
C1I320,奧萬大,2016-12-21,23.952956,121.178556,5.3236158e-09
C2M910,嘉義大學,2016-12-21,23.471325,120.485903,1.7194866e-09
C0U770,南澳,2016-12-21,24.44935,121.81022,7.951678e-08
C0A980,社子,2016-12-21,25.109508,121.469681,7.98063e-06
C0V800,六龜,2016-12-21,22.997889,120.633583,1.893381e-09
C1G9D0,國一S218K,2016-12-21,23.890641,120.493253,4.2507265e-05
C0E570,白沙屯,2016-12-21,24.549447,120.696803,0.997507
C2F9A0,中竹林,2016-12-21,24.103556,120.751061,1.191074e-09
C0FA40,臺中電廠,2016-12-21,24.2146,120.4907,0.99927795
C2G9A0,畜試所彰化,2016-12-21,23.86045,120.557964,1.9006137e-09
C0H9C0,合歡山,2016-12-21,24.143442,121.272547,4.1599876e-08
C0X060,下營,2016-12-21,23.22695,120.256261,3.254275e-08
G2M350,農試溪口農場,2016-12-21,23.58565,120.408111,1.1249895e-06
C0U860,頭城,2016-12-21,24.85323,121.8308,1.1640665e-07
C0R580,南州,2016-12-21,22.48591,120.50274,2.97828e-09
C0D430,峨眉,2016-12-21,24.6905,121.017189,0.00072531844
C0G780,秀水,2016-12-21,24.03405,120.503869,0.022378668
72N100,臺南農改場,2016-12-21,23.0605,120.342194,4.81189e-09
C0S900,蘭嶼高中,2016-12-21,22.04909,121.51214,0.9882224
467540,大武,2016-12-21,22.355675,120.903789,0.5281325
C1F9W0,德基,2016-12-21,24.254783,121.190261,1.172309e-08
C1Z120,壽豐,2016-12-21,23.870853,121.508081,4.684284e-07
C0W160,烏坵,2016-12-21,24.9944,119.44956,0.99733937
C1I240,外大坪,2016-12-21,23.958697,120.917931,1.4308518e-09
C1I550,國六W023K,2016-12-21,23.979067,120.867742,9.554043e-10
C0R870,興海,2016-12-21,21.9752,120.8439,0.9837682
C0R140,瑪家,2016-12-21,22.682903,120.686639,8.713307e-09
C0A530,坪林,2016-12-21,24.938183,121.70975,4.394744e-08
C0X260,後壁,2016-12-21,23.366358,120.362326,4.2301243e-09
C0Z230,和平,2016-12-21,24.30717,121.77007,1.6916988e-07
C0G770,福興,2016-12-21,24.041289,120.437669,0.1429753
C0H9A0,神木村,2016-12-21,23.532742,120.843667,7.0795054e-09
C0I460,南投,2016-12-21,23.911469,120.687331,1.0460771e-09
C0I480,梅峰,2016-12-21,24.085272,121.173572,1.6811942e-08
C1V570,吉東,2016-12-21,22.85422,120.5454,2.7318352e-09
C2D740,屯原,2016-12-21,24.067969,121.209389,1.50818e-08
C2A560,福山,2016-12-21,24.776203,121.502811,1.7899087e-08
C0AH30,五分山,2016-12-21,25.07125,121.780794,5.2247643e-08
C0FA10,松柏,2016-12-21,24.429115,120.617482,0.99638855
72S200,東改班鳩分場,2016-12-21,22.829528,121.077694,0.69888645
72HA00,中改埔里分場,2016-12-21,23.903208,120.963364,1.2061971e-09
C2H9W0,大坪頂農水,2016-12-21,24.043122,120.932781,1.4084696e-09
C0C650,平鎮,2016-12-21,24.897503,121.214636,1.7058537e-05
C0S930,延平,2016-12-21,22.902581,121.084058,3.529705e-07
C0UA60,樟樹山,2016-12-21,24.41393,121.78325,3.4325613e-08
C1S670,摩天,2016-12-21,23.199503,121.027,1.7614664e-08
C0V630,茄萣,2016-12-21,22.906642,120.182608,1.6861259e-07
466940,基隆,2016-12-21,25.133314,121.740475,0.018308861
C0X050,東河,2016-12-21,23.296598,120.385608,1.2871171e-08
C0R770,保力,2016-12-21,22.071122,120.764111,0.9782168
G2L020,農試嘉義分所,2016-12-21,23.485028,120.473806,1.7318624e-09
C0X240,關子嶺,2016-12-21,23.331169,120.508025,3.2385827e-09
C0I380,集集,2016-12-21,23.828206,120.801467,1.022492e-09
466990,花蓮,2016-12-21,23.975128,121.613275,1.7239134e-07
C1V220,小關山,2016-12-21,23.154217,120.813603,1.26223405e-08
C1F9G1,慶福山,2016-12-21,24.180853,120.848378,4.2217576e-09
C0Z250,瑞穗林道,2016-12-21,23.49284,121.30688,3.5396923e-08
C0D590,新豐,2016-12-21,24.87068,120.97721,0.99703354
C0A870,五指山,2016-12-21,25.132153,121.608692,7.364403e-08
C0UA50,西帽山,2016-12-21,24.555361,121.802628,3.361646e-08
C0X160,仁德,2016-12-21,22.968258,120.257689,1.2105584e-08
C1H971,六分寮,2016-12-21,23.92507,120.6378,1.4780722e-09
C0W120,西嶼,2016-12-21,23.5626,119.468436,0.99563605
C0G650,員林,2016-12-21,23.946503,120.585597,7.893305e-08
C0AD50,鶯歌,2016-12-21,24.951533,121.346294,1.47631645e-05
C2H9Q0,北東眼山,2016-12-21,24.120939,121.189303,1.4709912e-08
C2H9T0,名間竹圍,2016-12-21,23.859914,120.637572,1.096363e-09
C0S990,山豬窟,2016-12-21,22.318619,120.857372,0.99998814
72Q010,高雄農改,2016-12-21,22.709333,120.525889,1.0815416e-09
C0X190,安平,2016-12-21,22.993161,120.152181,4.10505e-07
C0K400,斗六,2016-12-21,23.720583,120.541127,1.6445743e-09
12J990,口湖工作站,2016-12-21,23.589978,120.180394,0.00016412786
C0O830,北寮,2016-12-21,23.079561,120.495008,2.4368547e-09
C1D410,白蘭,2016-12-21,24.579364,121.079947,1.00454e-08
C0S970,加津林,2016-12-21,22.416211,120.926942,0.6065383
C0D700,關西,2016-12-21,24.7977,121.1732,4.528307e-05
C0M810,里佳,2016-12-21,23.389125,120.716647,5.9206e-09
C0U750,龜山島,2016-12-21,24.841667,121.953133,3.5338502e-08
C0R810,內獅,2016-12-21,22.305064,120.642986,0.8162973
C1M390,龍美,2016-12-21,23.406728,120.654417,4.8350373e-09
C2FB60,頭櫃山,2016-12-21,24.129842,120.858925,3.3435283e-09
C1H840,國三N238K,2016-12-21,23.841008,120.707711,1.0392003e-09
CAQ030,崎峰國小,2016-12-21,22.42565,120.49521,2.97828e-09
C2E520,大湖,2016-12-21,24.414939,120.870872,0.5455055
467530,阿里山,2016-12-21,23.508208,120.813242,1.2028067e-08
C1E691,南湖,2016-12-21,24.40135,120.837533,2.9196904e-08
C0FA30,梧棲,2016-12-21,24.256003,120.523381,0.9992767
C1V231,高中,2016-12-21,23.134911,120.716711,2.9072746e-09
C0F9V0,新社,2016-12-21,24.200172,120.815806,3.175955e-09
C0H890,埔里,2016-12-21,23.972169,120.952425,1.3018043e-09
C0R690,墾丁,2016-12-21,21.966756,120.810269,0.9602013
C0F0D0,審馬陣,2016-12-21,24.381675,121.4203,3.1292835e-08
C0R820,白鷺,2016-12-21,22.454275,120.666219,6.576769e-07
U2H480,臺大溪頭,2016-12-21,23.670306,120.798194,2.4361764e-09
C1V190,南天池,2016-12-21,23.27403,120.91176,1.5696358e-08
K2E360,苗栗農改場,2016-12-21,24.495722,120.829111,0.61937684
CAJ050,海口故事園區,2016-12-21,23.57543,120.14121,0.0001979038
C2H9D0,三隻寮,2016-12-21,24.093078,120.861578,1.4433563e-09
C0O990,媽廟,2016-12-21,22.99175,120.293525,1.1065822e-08
C0D480,打鐵坑,2016-12-21,24.849664,121.150789,2.473049e-07
C0Z220,和平林道,2016-12-21,24.343922,121.656317,3.4413915e-08
C0TA10,花蓮漁港,2016-12-21,23.995322,121.638331,1.7924424e-07
72C440,桃園農改場,2016-12-21,24.950944,121.030583,0.99983966
C1E711,馬拉邦山,2016-12-21,24.367306,120.901656,1.6244018e-08
C0SB20,富岡,2016-12-21,22.792467,121.192669,0.9931942
C0D560,竹東,2016-12-21,24.767147,121.057881,1.9212852e-05
C0F9U0,南屯,2016-12-21,24.137006,120.637969,0.970805
C0M720,番路,2016-12-21,23.464657,120.554156,1.9573099e-09
C0F0A0,雪山圈谷,2016-12-21,24.388594,121.236339,4.2974623e-08
C1A9N0,四十份,2016-12-21,24.934158,121.593283,6.792486e-08
C0U760,東澳,2016-12-21,24.52196,121.83318,3.6492203e-08
C0X230,鹽水,2016-12-21,23.272621,120.247641,5.0776964e-07
C2H9H0,苗改南投蜂場,2016-12-21,23.852589,120.693481,1.0798618e-09
C0R950,萬隆國小,2016-12-21,22.507667,120.587817,2.254363e-09
C0V370,古亭坑,2016-12-21,22.893178,120.401947,1.54457e-08
C1I340,新興橋,2016-12-21,23.563333,120.868728,1.8021302e-09
C0SA80,土坂,2016-12-21,22.453108,120.887572,0.9987799
C0R160,鹽埔,2016-12-21,22.739558,120.530778,2.1447943e-09
C0AC40,大屯山,2016-12-21,25.175675,121.522408,1.2842203e-07
466850,五分山雷達站,2016-12-21,25.071182,121.781205,5.1458127e-08
C2H9L0,馬烈霸,2016-12-21,24.1512,121.201772,1.4490476e-08
C1AI50,國三N016K,2016-12-21,25.034164,121.619664,2.7767608e-06
C1V600,藤枝,2016-12-21,23.071961,120.757042,1.0473872e-08
C1E601,南勢,2016-12-21,24.572486,120.734842,0.1444521
C0Z180,新城,2016-12-21,24.03946,121.60454,1.6189895e-07
C0O980,新市,2016-12-21,23.061614,120.298197,5.72777e-09
C0K420,西螺,2016-12-21,23.800407,120.467394,2.4955855e-09
C0Z050,佳心,2016-12-21,23.34567,121.21316,3.9366217e-08
C0AD30,蘆洲,2016-12-21,25.086594,121.472331,7.619189e-06
C0V610,梓官,2016-12-21,22.760558,120.267211,1.3442384e-08
K2F750,種苗改良場,2016-12-21,24.225972,120.800917,3.0647842e-09
C0UA80,大溪漁港,2016-12-21,24.941801,121.902955,1.1550264e-07
C1AI60,國一39K邊坡,2016-12-21,25.064361,121.383836,3.2197242e-06
C0W150,金寧,2016-12-21,24.457703,118.328989,0.019485338
C0R960,內埔,2016-12-21,22.608483,120.570714,2.397977e-09
V2C250,八德合作社,2016-12-21,24.93775,121.266389,4.8970243e-05
C2H9S0,龍南,2016-12-21,23.953536,120.833183,3.20763e-09
C0AH40,平等,2016-12-21,25.129142,121.577086,1.202313e-07
C0R540,佳冬,2016-12-21,22.419456,120.552375,2.97828e-09
466950,彭佳嶼,2016-12-21,25.627975,122.079744,0.9910808
C0A890,雙溪,2016-12-21,25.036003,121.864242,0.0044698548
C0C480,桃園,2016-12-21,24.992425,121.323172,0.0019073345
C0AH50,林口,2016-12-21,25.072181,121.38084,1.2393187e-05
A2K360,水試臺西試驗場,2016-12-21,23.717231,120.190522,0.6943915
B2N890,畜試所,2016-12-21,23.058972,120.336406,4.807395e-09
C2M960,外寮,2016-12-21,23.562643,120.665688,4.242398e-09
C0F9S0,烏日,2016-12-21,24.107058,120.624103,1.5447678e-05
C0C490,八德,2016-12-21,24.928708,121.283289,2.8487933e-05
C0R190,赤山,2016-12-21,22.592333,120.614306,2.2881657e-09
C0T820,天祥,2016-12-21,24.179597,121.495639,4.7146745e-08
C1F9E1,龍安,2016-12-21,24.1605,120.831961,3.2358043e-09
C0V820,小林,2016-12-21,23.148408,120.63325,2.2175124e-09
C2G870,芳苑,2016-12-21,23.922303,120.320025,0.65960634
C0E850,大河,2016-12-21,24.618069,120.948578,0.0025359665
C1U670,寒溪,2016-12-21,24.634,121.71691,1.408849e-05
C0N020,城西,2016-12-21,23.0568,120.0956,0.009149763
C1Z110,三棧,2016-12-21,24.11557,121.60501,1.392067e-07
C0R280,檳榔,2016-12-21,22.076078,120.836777,0.96221554
C2H9J0,中台,2016-12-21,23.9996,120.938739,1.3233947e-09
C0F9L0,后里,2016-12-21,24.310436,120.729725,0.00038603766
C0D540,橫山,2016-12-21,24.71116,121.11693,4.1000094e-06
C1D420,太閣南,2016-12-21,24.632808,121.160575,1.699497e-08
C1E770,公館,2016-12-21,24.526914,120.830806,0.9723443
CAN130,水試所海水繁養殖中心,2016-12-21,23.120802,120.07968,0.01296448
C1I430,翠華,2016-12-21,24.191961,121.224339,1.8427539e-08
C1M400,菜瓜坪,2016-12-21,23.251928,120.576103,2.7075686e-09
C0G730,二林,2016-12-21,23.903325,120.376081,0.0067627775
72M360,南改義竹分場,2016-12-21,23.360694,120.279361,1.8119438e-08
V2K620,麥寮合作社,2016-12-21,23.753836,120.294783,0.13228856
C0Z070,舞鶴,2016-12-21,23.46811,121.37407,2.1158232e-07
C0B040,大武崙,2016-12-21,25.166676,121.706993,0.0076794857
C1Z030,紅葉,2016-12-21,23.493119,121.338806,2.6865592e-07
C1I050,丹大,2016-12-21,23.753747,121.141147,2.2834842e-08
C0I080,信義,2016-12-21,23.689694,120.851036,1.0740936e-09
C2M920,朴子農改,2016-12-21,23.469889,120.259383,8.705802e-08
C2A880,福隆,2016-12-21,25.017842,121.942083,1.4931075e-05
C0Z160,鳳林,2016-12-21,23.746114,121.453411,3.305974e-07
C0V210,復興,2016-12-21,23.222403,120.806089,6.617188e-09
C0H990,昆陽,2016-12-21,24.121322,121.273642,3.043959e-08
C0R741,獅子,2016-12-21,22.202308,120.705236,0.9996007
C0S710,鹿野,2016-12-21,22.917711,121.122994,9.777429e-08
C0I530,小奇萊,2016-12-21,24.131764,121.295717,3.180867e-08
C2K630,荷苞,2016-12-21,23.657717,120.595144,1.0150962e-09
C0Z080,富源,2016-12-21,23.587642,121.378225,1.8822794e-07
467441,高雄,2016-12-21,22.7304,120.3125,1.1257612e-08
C0SB10,美和,2016-12-21,22.682078,121.060236,0.99933445
C2K620,馬光農場,2016-12-21,23.721453,120.378864,5.5094667e-09
C1I140,卡奈托灣,2016-12-21,23.754364,121.087872,9.792095e-09
C0I520,玉山風口,2016-12-21,23.470489,120.955994,3.4676482e-08
C1G691,下水埔,2016-12-21,23.816114,120.5676,1.4585468e-09
C0X110,臺南市南區,2016-12-21,22.961189,120.188378,3.5923878e-07
C0V680,仁武,2016-12-21,22.701083,120.347722,1.0131006e-08
C2G840,北斗,2016-12-21,23.877586,120.514222,2.9730898e-05
C0R900,竹坑,2016-12-21,22.1385,120.7022,0.9996693
C0K250,崙背,2016-12-21,23.75555,120.318925,0.10852289
C0G860,社頭,2016-12-21,23.897647,120.5862,6.999366e-08
C0X150,安定,2016-12-21,23.102614,120.227839,2.2683413e-07
C0R590,里港,2016-12-21,22.77919,120.49459,2.4905926e-09
C0E610,馬都安,2016-12-21,24.451272,120.930192,1.3076898e-07
C0E550,明德,2016-12-21,24.583486,120.885411,0.0055070305
C0R150,三地門,2016-12-21,22.709889,120.639944,2.5834717e-09
C0G910,花壇,2016-12-21,24.032076,120.549461,0.00851043
C1D400,鳥嘴山,2016-12-21,24.71909,121.28387,2.325752e-08
C0K500,元長,2016-12-21,23.64981,120.315024,8.0231715e-05
C0F0B0,石岡,2016-12-21,24.276061,120.777644,9.159395e-09
C2V250,甲仙,2016-12-21,23.080106,120.591758,2.697872e-09
C0SA20,金崙山,2016-12-21,22.567419,120.959667,7.21395e-08
C0V350,溪埔,2016-12-21,22.738578,120.446797,2.4026467e-09
C0M660,溪口,2016-12-21,23.604131,120.403569,1.1249895e-06
C1S880,壽卡,2016-12-21,22.238911,120.858903,0.9999836
72D680,桃改新埔分場,2016-12-21,24.834444,121.066111,4.7836547e-05
