站號,站名,日期,lat,lon,BLBTSLS
C0R710,龍磐,2016-01-27,21.931672,120.838942,0.9994929
C1F9D1,白毛台,2016-01-27,24.158325,120.886933,4.3239763e-09
C0G940,竹塘,2016-01-27,23.848253,120.386764,3.3799419e-09
467590,恆春,2016-01-27,22.003897,120.746339,0.99862313
C1O850,環湖,2016-01-27,23.148617,120.418633,6.2899326e-09
C0U710,太平山,2016-01-27,24.505486,121.525656,3.0233196e-08
C0E820,獅潭,2016-01-27,24.539133,120.920042,1.2036674e-08
C0V880,興達,2016-01-27,22.8778,120.2127,3.3034029e-09
C0S890,關山,2016-01-27,23.0395,121.175017,1.2250143e-07
C0SB30,新蘭,2016-01-27,22.869214,121.223228,6.7562604e-07
C2R970,屏科大,2016-01-27,22.648275,120.619247,2.4279008e-09
K2F750,種苗繁殖,2016-01-27,24.225972,120.800917,5.794491e-09
C1Z130,銅門,2016-01-27,23.965694,121.492842,2.1775931e-07
C0AD40,土城,2016-01-27,24.973208,121.445169,8.572267e-07
CAN140,六官養殖協會,2016-01-27,23.22881,120.29962,3.0943057e-09
C0X180,山上,2016-01-27,23.0757,120.363253,3.9069983e-09
C0F9Z0,雪山東峰,2016-01-27,24.388792,121.268675,3.2599594e-08
C1M480,獨立山,2016-01-27,23.537022,120.607797,4.3122563e-09
C0X220,學甲,2016-01-27,23.230367,120.182187,4.3612576e-09
467650,日月潭,2016-01-27,23.881325,120.90805,6.377163e-09
C0K600,箔子寮,2016-01-27,23.6197,120.14,6.739906e-09
C0G830,埤頭,2016-01-27,23.866003,120.452806,3.282676e-09
C0S950,七塊厝,2016-01-27,22.954453,121.229922,6.104466e-08
467110,金門,2016-01-27,24.407306,118.289281,3.2723943e-08
C0AH80,深坑,2016-01-27,25.002703,121.628328,8.855513e-07
467990,馬祖,2016-01-27,26.169269,119.923419,2.6016057e-08
C0A970,三貂角,2016-01-27,25.007606,122.002058,4.9863893e-08
C2D730,寶山農場,2016-01-27,24.732444,120.976153,2.693858e-06
C0K430,褒忠,2016-01-27,23.690938,120.303634,1.7932779e-08
467480,嘉義,2016-01-27,23.495925,120.432906,2.2694595e-08
C2E540,後龍,2016-01-27,24.606489,120.783933,1.8407749e-07
C0V400,阿公店,2016-01-27,22.804194,120.355528,2.0717799e-09
C0R440,大漢山,2016-01-27,22.405264,120.753181,1.6613669e-08
C0K280,四湖,2016-01-27,23.630414,120.227125,2.6675307e-08
C1F9B1,桐林,2016-01-27,24.066172,120.735194,3.1018812e-09
C2H9U0,鳳鵬,2016-01-27,23.763919,120.788061,3.6570849e-09
C0K390,土庫,2016-01-27,23.679029,120.395574,3.2606355e-09
C1I450,望鄉山,2016-01-27,23.594153,120.944286,2.1082554e-08
C0E910,海埔,2016-01-27,24.648767,120.772435,2.031895e-08
B2E890,畜試北區分所,2016-01-27,24.527806,120.770972,2.4556857e-07
C0R750,四林格山,2016-01-27,22.076989,120.802439,0.99328566
C0F0C0,中坑,2016-01-27,24.248517,120.903319,5.782082e-09
C1I121,大鞍,2016-01-27,23.678381,120.760017,7.8061495e-09
72U480,花改蘭陽分場,2016-01-27,24.686306,121.716583,9.6400285e-08
C0A770,科教館,2016-01-27,25.096356,121.516507,9.068056e-07
C0AJ60,六塊厝,2016-01-27,25.24,121.4481,1.0497122e-06
C0R620,墾雷,2016-01-27,21.900836,120.855269,0.9987626
467420,永康,2016-01-27,23.038386,120.2367,3.6353724e-09
467300,東吉島,2016-01-27,23.25695,119.667467,0.9414477
C0I410,名間,2016-01-27,23.837053,120.701447,3.4947703e-09
A2C560,農工中心,2016-01-27,24.985917,121.239833,8.6013137e-07
C0V740,旗山,2016-01-27,22.888614,120.483597,4.6014184e-09
C0Z061,玉里,2016-01-27,23.3215,121.339656,9.060807e-08
C0S840,南田,2016-01-27,22.279725,120.889208,0.9988946
C1I470,杉林溪,2016-01-27,23.639517,120.786444,8.675464e-09
C1X040,東原,2016-01-27,23.291597,120.463822,4.1942765e-09
C0R660,枋寮,2016-01-27,22.367722,120.590647,1.673234e-09
C1R120,上德文,2016-01-27,22.763272,120.704442,1.911587e-08
C0K450,大埤,2016-01-27,23.646074,120.431537,3.7184114e-09
C0UA00,土場,2016-01-27,24.576533,121.495333,3.672682e-08
467080,宜蘭,2016-01-27,24.763975,121.756528,8.2383856e-08
C0N030,四草,2016-01-27,23.0235,120.1116,7.579673e-09
C0V650,彌陀,2016-01-27,22.783806,120.246361,2.4220546e-09
C0D660,新竹市東區,2016-01-27,24.798681,120.986942,1.6028065e-06
82S580,茶改東部分場,2016-01-27,22.907694,121.130139,9.941958e-08
C0SB40,興隆,2016-01-27,22.913661,121.257469,1.6243979e-07
C0C710,大溪永福,2016-01-27,24.892936,121.324975,7.5431143e-07
C0FA20,溫寮,2016-01-27,24.372177,120.583125,2.4193577e-07
C0V640,湖內,2016-01-27,22.887139,120.2445,3.2560676e-09
C0R910,下寮,2016-01-27,22.3929,120.5548,1.6925088e-09
C0Z020,明里,2016-01-27,23.208717,121.262342,3.9917715e-08
C0M770,嘉義梅山,2016-01-27,23.585398,120.555587,4.1142187e-09
G2F820,農業試驗所,2016-01-27,24.031261,120.688133,9.696605e-08
C0C660,楊梅,2016-01-27,24.912375,121.143047,6.7138626e-07
C1E511,新開,2016-01-27,24.347703,120.827019,4.349876e-09
G2F820,農試所(霧峰),2016-01-27,24.031261,120.688133,9.696605e-08
C1I070,和社,2016-01-27,23.591131,120.888861,4.0655657e-09
C2F000,大肚,2016-01-27,24.15295,120.572117,5.414365e-09
C1S850,豐南,2016-01-27,23.122139,121.262389,3.3810462e-08
C2A920,富貴角,2016-01-27,25.263783,121.565258,4.7817736e-07
CAH030,茶改場竹圍站,2016-01-27,23.860083,120.637528,3.933828e-09
C0T960,光復,2016-01-27,23.660694,121.424964,6.8619823e-07
C0F9M0,豐原,2016-01-27,24.254322,120.720692,1.493649e-08
C0R720,旭海,2016-01-27,22.205403,120.887614,0.09722902
C0V710,苓雅,2016-01-27,22.622742,120.330669,2.118962e-09
C0C740,觀音工業區,2016-01-27,25.064764,121.114856,2.6617656e-06
CAC040,拉拉山,2016-01-27,24.699317,121.427133,2.1235994e-08
C0V790,萬山,2016-01-27,22.905944,120.688056,3.5998444e-09
U2HA30,臺大和社,2016-01-27,23.590856,120.888864,4.0655657e-09
C0AJ90,澳底,2016-01-27,25.0552,121.9253,4.945434e-08
C0Z100,東華,2016-01-27,23.89525,121.549833,1.4404153e-06
C0G970,三豐,2016-01-27,23.882,120.2895,2.9027603e-08
V2K610,大庄合作社,2016-01-27,23.8068,120.367939,2.1777607e-08
C0V900,汕尾,2016-01-27,22.4782,120.4151,1.9840607e-09
C1R630,龍泉,2016-01-27,22.66701,120.59091,2.8524951e-09
C1AC50,關渡,2016-01-27,25.133486,121.469331,8.886739e-07
C0F9I0,神岡,2016-01-27,24.272481,120.658314,1.5401161e-08
C0K460,斗南,2016-01-27,23.678734,120.478359,4.4011426e-09
467410,臺南,2016-01-27,22.993239,120.204772,3.6205159e-09
C2O810,曾文,2016-01-27,23.219681,120.497328,5.622698e-09
467280,後龍,2016-01-27,24.648563,120.831834,1.8511699e-08
C1F9J1,清水林,2016-01-27,24.071242,120.820419,3.52587e-09
C2A650,火燒寮,2016-01-27,25.002719,121.742892,3.399793e-08
466930,竹子湖,2016-01-27,25.162078,121.544547,3.3293073e-08
C1I220,樟湖,2016-01-27,23.905333,120.846983,5.684627e-09
C0I390,仁愛,2016-01-27,24.022122,121.132206,6.942059e-09
C0Z300,東里,2016-01-27,23.26853,121.30547,8.655948e-08
C1V590,新發,2016-01-27,23.057019,120.646064,1.4374668e-08
C0K510,水林,2016-01-27,23.572924,120.24597,6.6986385e-09
72S590,東改賓朗果園,2016-01-27,22.813889,121.071278,2.544908e-07
82A750,茶改北部分場,2016-01-27,24.955778,121.631222,2.5957469e-08
C1A750,石碇服務區,2016-01-27,25.00872,121.646242,7.800956e-07
C0X300,鹿寮,2016-01-27,23.386047,120.477331,3.20968e-09
G2AI50,關渡,2016-01-27,25.11575,121.492,9.622399e-07
C0K590,雲林東勢,2016-01-27,23.674192,120.255721,1.7932779e-08
C0A570,桶後,2016-01-27,24.848222,121.597992,7.925755e-08
C1S800,華源,2016-01-27,22.657883,121.02325,1.4757202e-06
C0G720,溪州,2016-01-27,23.851589,120.499093,3.2793903e-09
C1V160,達卡努瓦,2016-01-27,23.279811,120.705319,9.004673e-09
C2M410,馬頭山,2016-01-27,23.324361,120.582017,4.061713e-09
C0V850,蚵仔寮,2016-01-27,22.7256,120.2527,1.8053814e-09
C0S740,池上,2016-01-27,23.119628,121.209469,7.920723e-08
C1V390,尖山,2016-01-27,22.813153,120.367789,2.0637974e-09
C0AH70,松山,2016-01-27,25.04871,121.55042,1.1635265e-06
C0N010,鯤鯓國小,2016-01-27,23.1879,120.0889,8.308208e-09
C0R550,新埤,2016-01-27,22.467947,120.582894,1.9919895e-09
C0SA60,知本（水試所）,2016-01-27,22.702394,121.082761,1.65486e-05
C0T9I0,豐濱,2016-01-27,23.583897,121.514806,1.4459991e-06
C0UB00,淡江大學蘭陽校園,2016-01-27,24.823239,121.730383,2.54407e-08
C0W240,九宮,2016-01-27,24.423753,118.240186,4.4642835e-08
C0T9N0,富里,2016-01-27,23.171639,121.249378,3.6376427e-08
U2HA50,臺大竹山,2016-01-27,23.756972,120.681556,3.3883136e-09
C0V840,鳳鼻頭,2016-01-27,22.5083,120.3591,2.1517887e-09
C0X140,西港,2016-01-27,23.125608,120.203108,5.1062425e-09
72D080,桃改五峰分場,2016-01-27,24.612194,121.157167,1.3307891e-08
C2H9P0,伊拿谷,2016-01-27,23.963211,121.088264,4.311426e-09
C2H9F0,柑林,2016-01-27,24.018658,120.847072,4.267443e-09
C0TA20,加灣,2016-01-27,24.082025,121.608944,3.8051377e-07
C0V530,阿蓮,2016-01-27,22.883208,120.327508,3.1920848e-09
C1O880,關山,2016-01-27,23.173397,120.594092,4.3140664e-09
C0E791,卓蘭,2016-01-27,24.3126,120.8244,4.381911e-09
C1I030,武界,2016-01-27,23.913225,121.052483,5.6766956e-09
C0R520,崁頂,2016-01-27,22.514781,120.506914,1.6846374e-09
C0R341,牡丹,2016-01-27,22.130036,120.792639,8.069693e-08
C0R930,萬丹,2016-01-27,22.5885,120.4851,1.9953015e-09
C0S760,紅石,2016-01-27,23.069131,121.126219,2.17347e-08
C1M610,石磐龍,2016-01-27,23.496606,120.663506,6.3477343e-09
C0UA10,鴛鴦湖,2016-01-27,24.590269,121.412228,2.424436e-08
V2C260,八德蔬果,2016-01-27,24.978508,121.281819,7.2710424e-07
C0R800,丹路,2016-01-27,22.204481,120.750989,1.7855908e-07
C0G920,永靖,2016-01-27,23.924703,120.547533,6.647308e-09
C2M950,太和,2016-01-27,23.538372,120.702961,7.7584135e-09
C1A630,下盆,2016-01-27,24.771003,121.538622,5.923924e-08
B2N890,畜產試驗所,2016-01-27,23.058972,120.336406,2.270519e-09
C0UA30,白嶺,2016-01-27,24.527819,121.519031,2.7298988e-08
C1V580,溪南(特生中心),2016-01-27,23.084972,120.788475,1.5405217e-08
C1T970,大農,2016-01-27,23.615233,121.413331,4.9626647e-07
E2S960,林試太麻里2,2016-01-27,22.598014,120.989761,1.276827e-05
C0R650,竹田,2016-01-27,22.58486,120.54344,2.0329485e-09
C1H900,清流,2016-01-27,24.080775,120.962997,3.7881147e-09
C1C510,水尾,2016-01-27,24.940081,121.087161,1.2088681e-06
C0F9X0,大雅(中科園區),2016-01-27,24.21528,120.62445,6.022953e-08
C0SB60,白守蓮,2016-01-27,23.126769,121.401914,9.836601e-07
C0O970,虎頭埤,2016-01-27,23.021375,120.347878,4.275484e-09
C0C730,中大臨海站,2016-01-27,24.966126,121.008581,1.5668751e-05
C0X250,新營,2016-01-27,23.310689,120.316681,2.8984104e-09
C0V700,三民,2016-01-27,22.645017,120.311233,2.118962e-09
C0U870,大礁溪,2016-01-27,24.791042,121.675047,2.5506875e-08
C0E870,高鐵苗栗,2016-01-27,24.60725,120.826094,1.6581116e-07
A2K570,古坑花卉中心,2016-01-27,23.63353,120.55239,4.0917354e-09
C0M860,新美,2016-01-27,23.338017,120.683169,3.4267895e-09
C1E701,八卦,2016-01-27,24.491756,120.927619,2.3920304e-08
C0I420,國姓,2016-01-27,24.037803,120.855072,3.311743e-09
C2D720,關西工作站,2016-01-27,24.757275,121.184792,6.619633e-07
C0S960,香蘭,2016-01-27,22.587569,120.993375,1.276827e-05
C0R260,春日,2016-01-27,22.370361,120.628306,2.6636298e-09
72G600,臺中農改場,2016-01-27,24.003028,120.534389,5.9906418e-09
C0Z210,瑞穗,2016-01-27,23.5239,121.39021,1.6259553e-06
C0M820,達邦,2016-01-27,23.453994,120.749517,5.668678e-09
C0V860,南寮,2016-01-27,22.7616,120.2339,2.444219e-09
C0G740,大城,2016-01-27,23.852487,120.320935,2.8553817e-08
C0R920,塭仔,2016-01-27,22.4169,120.5197,1.7286612e-09
C0R470,高樹,2016-01-27,22.826389,120.600806,3.0229663e-09
C0R680,佳樂水,2016-01-27,21.993578,120.861633,0.998315
C1O870,大棟山,2016-01-27,23.31157,120.52226,6.3284045e-09
C0D360,梅花,2016-01-27,24.678347,121.208558,3.6895397e-08
C0Z190,富世,2016-01-27,24.14743,121.6297,1.4028956e-07
C0AI10,屈尺,2016-01-27,24.92184,121.54475,8.855513e-07
B2U990,畜試東區分所,2016-01-27,24.669039,121.832561,1.0539808e-07
C0SB80,長濱漁港,2016-01-27,23.313644,121.459994,1.3226982e-07
C0R240,來義,2016-01-27,22.527306,120.625111,2.5279614e-09
C0V910,大樹,2016-01-27,22.684645,120.432803,2.1680864e-09
C1R610,西大武山,2016-01-27,22.617719,120.7322,2.153999e-08
C0G900,線西,2016-01-27,24.143358,120.443536,2.6292102e-07
C0M700,竹崎,2016-01-27,23.526178,120.555508,3.998521e-09
C2E880,三義,2016-01-27,24.405478,120.749819,6.5637646e-09
C0C720,竹圍,2016-01-27,25.112692,121.239824,9.619904e-07
C0F9P0,清水,2016-01-27,24.312297,120.562242,2.6173268e-07
C0Z150,吉安光華,2016-01-27,23.930925,121.595153,1.6558674e-06
C1D640,外坪(五指山),2016-01-27,24.644447,121.090961,3.298752e-08
C0F9O0,潭子,2016-01-27,24.213106,120.703933,1.3012414e-08
C2H9R0,卓社,2016-01-27,23.887894,121.000086,8.018261e-09
72T250,花蓮農改場,2016-01-27,23.975222,121.563889,3.5587254e-07
C0E780,銅鑼,2016-01-27,24.489681,120.790853,1.5901719e-08
C1T950,太安,2016-01-27,23.666719,121.370128,3.4535166e-08
C0E830,苑裡,2016-01-27,24.439714,120.653053,2.004085e-07
467270,田中,2016-01-27,23.873803,120.581286,3.2842289e-09
C0SA10,檳榔四格山,2016-01-27,22.810031,121.109308,1.6698449e-07
C1T830,布洛灣,2016-01-27,24.17184,121.57127,8.593454e-08
C0F970,大坑,2016-01-27,24.173142,120.722289,5.539912e-08
C1U920,思源,2016-01-27,24.393125,121.347214,2.4354712e-08
C0A931,三和,2016-01-27,25.233153,121.595236,3.4163172e-08
C0I010,廬山,2016-01-27,24.033311,121.181808,1.0008928e-08
C2M940,日野賀,2016-01-27,23.434056,120.727169,6.4414034e-09
C0R860,鼻頭,2016-01-27,22.1043,120.8979,0.9969818
C0UB20,壯圍,2016-01-27,24.7359,121.8163,1.0539808e-07
C0R790,九棚,2016-01-27,22.14195,120.889281,0.6850734
C0W110,東莒,2016-01-27,25.9652,119.98069,1.1044725e-06
C1U930,粉鳥林,2016-01-27,24.497088,121.842479,3.4780015e-08
C1I211,蘆竹湳,2016-01-27,23.934019,120.811994,4.642791e-09
C0S830,長濱,2016-01-27,23.286817,121.411975,3.8186208e-08
C1F9F1,伯公龍,2016-01-27,24.272392,120.849047,6.38684e-09
C0E810,西湖,2016-01-27,24.562947,120.7485,1.4214454e-07
C1I440,新高口,2016-01-27,23.478744,120.878939,1.44403725e-08
C0O840,王爺宮,2016-01-27,23.222064,120.40085,5.622698e-09
C0T9G0,鳳林山,2016-01-27,23.735269,121.420131,3.3630928e-07
C0X080,佳里,2016-01-27,23.173039,120.145086,4.3814263e-09
C0FB70,大甲溪埔,2016-01-27,24.370625,120.620067,1.86972e-07
C0Z310,清水斷崖,2016-01-27,24.218294,121.689142,1.6072562e-07
C0M680,太保,2016-01-27,23.455062,120.331455,5.138523e-09
C1S820,金峰,2016-01-27,22.590969,120.933236,4.7140497e-07
C0AD10,八里,2016-01-27,25.150211,121.403947,9.619886e-07
C2K240,草嶺,2016-01-27,23.59555,120.693461,7.2070154e-09
C1SA70,都蘭,2016-01-27,22.87794,121.226881,1.6243979e-07
C0K440,二崙,2016-01-27,23.772797,120.408944,3.4061263e-09
C1A760,坪林交控,2016-01-27,24.94284,121.713442,4.99109e-08
C0F9N0,大里,2016-01-27,24.092464,120.701378,8.2195506e-08
C0SA90,達仁林場,2016-01-27,22.264347,120.823972,2.4650478e-07
C1R290,石門山,2016-01-27,22.112611,120.756597,0.99968773
42HA10,萬大發電廠,2016-01-27,23.978875,121.139639,1.1479539e-08
C0R890,山海,2016-01-27,21.9878,120.7091,0.9976223
C0T9A0,月眉山,2016-01-27,23.809928,121.539828,2.2369275e-07
C0AC70,信義,2016-01-27,25.037822,121.564597,1.1635265e-06
C0K560,棋山,2016-01-27,23.68645,120.603417,4.115702e-09
C2FB50,出雲,2016-01-27,24.206469,120.902794,6.471278e-09
C1Z240,中平林道,2016-01-27,23.42115,121.26763,4.508154e-08
U2H480,溪頭,2016-01-27,23.670306,120.798194,5.2083844e-09
C0M880,好美里,2016-01-27,23.3364,120.138,4.3814263e-09
C0T9E0,大坑,2016-01-27,23.880628,121.581981,2.7739978e-07
C0K530,臺西,2016-01-27,23.701547,120.197559,2.3370559e-08
C1E900,國一N128K,2016-01-27,24.560997,120.844186,9.562838e-08
C0AJ50,水湳洞,2016-01-27,25.123695,121.862238,3.7181053e-06
C0AI20,白沙灣,2016-01-27,25.283128,121.519058,6.070649e-07
C0A860,大坪,2016-01-27,25.165914,121.632969,3.7815255e-08
C1U850,觀音海岸,2016-01-27,24.38319,121.77856,3.831929e-08
C2K610,草嶺石壁,2016-01-27,23.602469,120.707731,6.5507826e-09
C0U950,鶯子嶺,2016-01-27,24.89754,121.79244,2.7801278e-08
C0O900,善化,2016-01-27,23.112883,120.297219,2.2709523e-09
C0K550,蔦松,2016-01-27,23.514319,120.229736,5.7192984e-09
E2P980,林試六龜中心,2016-01-27,22.991703,120.645722,3.1773242e-09
C0E590,通霄,2016-01-27,24.471892,120.704622,3.5980108e-07
C1I310,西巒,2016-01-27,23.754486,120.883956,6.3670145e-09
C0A550,泰平,2016-01-27,24.971197,121.823711,1.8859032e-08
C0I360,水里,2016-01-27,23.812553,120.849792,3.862998e-09
C0R830,高士,2016-01-27,22.121825,120.836781,0.9995599
C1I101,溪頭,2016-01-27,23.661789,120.807647,8.20664e-09
C0AJ20,野柳,2016-01-27,25.20703,121.690021,3.7181053e-06
C0B060,暖暖,2016-01-27,25.0957,121.7403,1.7198307e-06
C1H920,長豐,2016-01-27,24.102039,120.879897,3.5869798e-09
C0V360,內門,2016-01-27,22.975481,120.466769,4.6545483e-09
C0R850,林邊,2016-01-27,22.4634,120.5339,1.6846374e-09
C0E930,龍鳳,2016-01-27,24.700034,120.859125,1.5710645e-08
C0U910,冬山,2016-01-27,24.63373,121.7937,1.0539808e-07
C1E721,泰安,2016-01-27,24.489017,120.968036,1.0039175e-08
82H320,茶改中部分場,2016-01-27,23.875611,120.913583,3.5308838e-09
C0M750,布袋,2016-01-27,23.380878,120.167789,6.025191e-09
C1S860,利嘉,2016-01-27,22.809417,121.050528,2.8579153e-08
72C440,桃園農改,2016-01-27,24.950944,121.030583,7.4029444e-06
E2S980,林試太麻里1,2016-01-27,22.598922,120.980044,2.2975773e-06
C0X170,關廟,2016-01-27,22.963017,120.327797,2.7640001e-09
C0V720,林園,2016-01-27,22.507747,120.394511,2.1215742e-09
C1I510,線浸林道,2016-01-27,23.761508,120.832956,4.7783613e-09
C0D690,外湖,2016-01-27,24.917735,120.968711,1.569178e-05
C0C750,新興坑尾,2016-01-27,25.0061,121.0971,1.3616084e-06
B2Q810,畜試南區分所,2016-01-27,21.945583,120.802167,0.99831647
C0S790,金崙,2016-01-27,22.538122,120.966875,3.1781448e-07
C0AH90,福山植物園,2016-01-27,24.760717,121.58135,5.5494937e-08
C0I540,奇萊稜線,2016-01-27,24.109231,121.326456,3.676565e-08
C0M850,表湖,2016-01-27,23.24186,120.64166,3.4031067e-09
C0S770,大溪山,2016-01-27,22.478475,120.943325,8.315409e-08
C0AG80,中和,2016-01-27,24.991622,121.491792,1.1628864e-06
C0T790,大禹嶺,2016-01-27,24.186117,121.316086,2.6086365e-08
C0T9B0,水源,2016-01-27,23.991861,121.537169,1.9085745e-07
C0R840,牡丹池山,2016-01-27,22.168389,120.841225,2.9118638e-07
C1I131,桶頭,2016-01-27,23.641944,120.654117,4.500471e-09
CAL110,布袋國中,2016-01-27,23.35893,120.18026,3.695764e-09
467571,新竹,2016-01-27,24.827853,121.014219,1.8799145e-06
C0Z290,赤柯山,2016-01-27,23.36893,121.38293,5.6451057e-08
C0X280,將軍,2016-01-27,23.214999,120.13577,4.3814263e-09
C0S690,太麻里,2016-01-27,22.60902,120.98533,7.730557e-08
C0U880,北關,2016-01-27,24.9072,121.8734,4.8492534e-06
C1H860,瑞岩,2016-01-27,24.123772,121.18345,1.1694482e-08
C0G810,埔心,2016-01-27,23.947633,120.525456,6.8348887e-09
C0U970,大福,2016-01-27,24.80064,121.81389,8.367387e-08
C2H9N0,仁愛東眼,2016-01-27,24.026875,121.1205,8.122424e-09
C1E670,南礦,2016-01-27,24.538278,121.002836,1.02355004e-08
C0M520,東後寮,2016-01-27,23.369908,120.248065,3.6147405e-09
C1E461,松安,2016-01-27,24.397972,120.986022,9.5388435e-09
72G600,臺中農改,2016-01-27,24.003028,120.534389,5.9906418e-09
C2N160,西拉雅風管處,2016-01-27,23.189481,120.335297,3.0531444e-09
C2M970,碧湖,2016-01-27,23.568632,120.624165,6.6461796e-09
C0A640,石碇,2016-01-27,24.993969,121.662917,3.587926e-08
E2S960,林試太麻里2,2016-01-27,22.598,120.99775,1.8992136e-05
C0F9Y0,桃山,2016-01-27,24.432739,121.303808,3.448626e-08
C1I020,萬大,2016-01-27,23.979817,121.132261,6.9767307e-09
C0U940,羅東,2016-01-27,24.68184,121.74934,1.0237437e-07
C0M650,朴子,2016-01-27,23.43463,120.23902,5.787433e-09
C1I500,大尖山,2016-01-27,23.858572,120.994889,1.46796415e-08
C0G820,田尾,2016-01-27,23.901669,120.509389,6.7661046e-09
E2K600,四湖植物園,2016-01-27,23.676986,120.163433,2.3370559e-08
C0S730,綠島,2016-01-27,22.6672,121.47533,2.843749e-07
12Q970,東港工作站,2016-01-27,22.479997,120.466058,1.6903441e-09
C0E430,南庄,2016-01-27,24.601775,121.000214,1.2006201e-08
C1TA00,太魯閣,2016-01-27,24.15773,121.6236,1.6666344e-07
466920,臺北,2016-01-27,25.037658,121.514853,1.1635265e-06
C0R600,舊泰武,2016-01-27,22.588194,120.664944,1.0940573e-08
C1I260,北坑,2016-01-27,23.9246,121.006903,3.1309177e-09
466910,鞍部,2016-01-27,25.182586,121.529731,3.2345348e-08
C1I230,九份二山,2016-01-27,23.961944,120.845,3.98468e-09
C2A660,瑞芳,2016-01-27,25.113169,121.801147,4.0824062e-08
C0R270,琉球嶼,2016-01-27,22.332244,120.362236,2.6613547e-09
C1T990,高寮,2016-01-27,23.394239,121.356808,1.2615333e-06
C0G620,芬園,2016-01-27,24.015678,120.6213,4.5052637e-09
C1Z140,荖溪,2016-01-27,23.890575,121.45964,4.0507988e-08
C1I201,中心崙,2016-01-27,23.728722,120.712097,4.914467e-09
C1I400,凌霄,2016-01-27,24.018778,121.004456,7.950462e-09
C1M640,十字,2016-01-27,23.492153,120.753683,8.232648e-09
G2P820,農試鳳山分所,2016-01-27,22.646611,120.356083,2.0815634e-09
C0Z270,蕃薯寮,2016-01-27,23.73835,121.540108,8.8530214e-07
C0F9Q0,外埔,2016-01-27,24.347817,120.705686,1.6108816e-08
C0K580,高鐵雲林,2016-01-27,23.737456,120.417944,3.2606355e-09
C2I090,鳳凰,2016-01-27,23.728081,120.787347,3.6783163e-09
C0U990,員山,2016-01-27,24.74435,121.72247,1.0237437e-07
C0V770,大社,2016-01-27,22.730306,120.346639,1.788836e-09
C0X120,麻豆,2016-01-27,23.183289,120.248611,4.3612576e-09
C0C670,龍潭,2016-01-27,24.870056,121.221389,4.634353e-08
C0D680,香山濕地,2016-01-27,24.783581,120.914988,4.733913e-06
C0S980,勝林山,2016-01-27,22.430439,120.8938,2.1799426e-08
C0V730,大寮,2016-01-27,22.605614,120.395717,2.060352e-09
C0R570,麟洛,2016-01-27,22.65078,120.52719,2.141712e-09
C2M930,石卓,2016-01-27,23.478744,120.702264,8.118876e-09
C0G9B0,和美,2016-01-27,24.105169,120.492131,7.476849e-09
CAG100,王功漁港,2016-01-27,23.96824,120.32586,2.3897273e-08
C0X290,北門,2016-01-27,23.267772,120.125481,4.3814263e-09
C2F930,大甲,2016-01-27,24.347667,120.640403,1.4164142e-07
C0D650,湖口,2016-01-27,24.904794,121.043628,4.3025866e-06
C0E420,竹南,2016-01-27,24.708978,120.888897,3.4767656e-06
C0U780,五結,2016-01-27,24.68637,121.79794,1.0539808e-07
C1I250,鯉潭,2016-01-27,23.961922,120.991131,3.5869798e-09
C0R130,阿禮,2016-01-27,22.742908,120.743678,7.549777e-09
C0X100,臺南市北區,2016-01-27,23.010394,120.194228,3.6812502e-09
C0S920,金峰嘉蘭,2016-01-27,22.594789,120.960825,2.0813002e-06
C0V490,新興,2016-01-27,22.627422,120.298803,2.1215703e-09
C0F9K0,大安,2016-01-27,24.345061,120.588025,2.3455435e-07
72N100,臺南農改,2016-01-27,23.0605,120.342194,2.270519e-09
467290,古坑,2016-01-27,23.633639,120.551889,4.0917354e-09
C2E970,八甲,2016-01-27,24.535811,120.795983,1.5699532e-08
C0V440,鳳山,2016-01-27,22.646653,120.356122,2.0815634e-09
C1T940,大觀,2016-01-27,23.714206,121.373133,3.8831712e-07
72T250,花蓮農改,2016-01-27,23.975222,121.563889,3.5587254e-07
C0E740,造橋,2016-01-27,24.637056,120.864778,1.5150219e-08
C0R100,尾寮山,2016-01-27,22.833111,120.683889,8.940854e-09
A2K630,臺大雲林校區,2016-01-27,23.730628,120.423903,3.2606355e-09
C0D580,寶山,2016-01-27,24.735006,121.025192,8.4809855e-08
E2P990,林試扇平站,2016-01-27,22.9677,120.6857,1.602002e-08
C0AI30,三重,2016-01-27,25.057328,121.500629,9.068056e-07
C0AH00,汐止,2016-01-27,25.066881,121.658778,3.7181053e-06
C1Z040,立山,2016-01-27,23.443356,121.327375,3.4029696e-07
C0W130,花嶼,2016-01-27,23.40007,119.32276,0.9916684
C0A950,鼻頭角,2016-01-27,25.129036,121.923372,5.042743e-08
C0K470,林內,2016-01-27,23.748675,120.609642,4.2355497e-09
C2F990,摩天嶺,2016-01-27,24.322458,120.936819,5.9558016e-09
82C160,茶改場,2016-01-27,24.908472,121.185333,5.1710697e-07
C0Z320,清水林道,2016-01-27,23.27125,121.188272,5.247555e-08
C0R760,南仁湖,2016-01-27,22.084681,120.863353,0.99967355
C0M670,大林,2016-01-27,23.600616,120.45841,6.582774e-08
C0M800,茶山,2016-01-27,23.299075,120.664767,3.3275342e-09
C0A9C0,天母,2016-01-27,25.117494,121.537169,8.098879e-07
72K220,南改斗南分場,2016-01-27,23.634556,120.477333,4.3641863e-09
72AI40,桃改樹林分場,2016-01-27,24.944503,121.386972,7.6574156e-07
C0S910,蘭嶼燈塔,2016-01-27,22.081197,121.503117,0.96187055
C0B050,八斗子,2016-01-27,25.144754,121.79167,5.0050503e-06
C0U900,內城,2016-01-27,24.71813,121.68766,7.642228e-08
C0X320,柳營,2016-01-27,23.253328,120.375253,6.7773414e-09
C0M790,新港,2016-01-27,23.553269,120.345728,5.548094e-09
C0F9T0,西屯,2016-01-27,24.179494,120.641275,9.5510444e-08
C0SA30,都歷,2016-01-27,23.020333,121.323642,3.938143e-07
C0C620,蘆竹,2016-01-27,25.084275,121.265767,8.207165e-07
C0R730,大坪頂,2016-01-27,22.024633,120.69355,0.9997773
C0AJ40,石門,2016-01-27,25.273672,121.601198,2.5858276e-07
C0E750,苗栗,2016-01-27,24.564569,120.824575,1.006368e-07
C0T870,鯉魚潭,2016-01-27,23.935639,121.508944,7.694258e-07
C1V170,排雲,2016-01-27,23.463619,120.954147,3.1302147e-08
C2H950,中寮,2016-01-27,23.884447,120.766406,3.4959236e-09
C0R350,貓鼻頭,2016-01-27,21.921774,120.7358,0.99876267
C0V660,岡山,2016-01-27,22.797078,120.294958,2.3810318e-09
C1H941,雙冬,2016-01-27,23.967378,120.802189,3.1156493e-09
C0AJ70,田寮,2016-01-27,25.2698,121.4886,6.349632e-07
C0AI00,五股,2016-01-27,25.07445,121.42728,7.131693e-07
C0Z280,德武,2016-01-27,23.47426,121.41071,6.148016e-07
C0R700,枋山,2016-01-27,22.246844,120.661086,3.8072646e-06
C0C460,復興,2016-01-27,24.820208,121.352281,6.0851455e-08
E2H360,蓮華池,2016-01-27,23.918333,120.885278,3.392478e-09
C0M640,中埔,2016-01-27,23.42538,120.5229,3.9164814e-09
C0W140,金沙,2016-01-27,24.488292,118.408778,3.349524e-08
C2A540,四堵,2016-01-27,24.8926,121.745736,6.114814e-08
C0ACA0,新莊,2016-01-27,25.051478,121.446756,1.1907848e-06
C0R220,潮州,2016-01-27,22.534361,120.54,1.6596302e-09
U2HA40,臺大內茅埔,2016-01-27,23.689722,120.851117,3.5968384e-09
467490,臺中,2016-01-27,24.145736,120.684075,8.9776144e-08
C0U960,翠峰湖,2016-01-27,24.510856,121.608044,2.9783894e-08
E2HA20,林試畢祿溪站,2016-01-27,24.226944,121.308522,1.5973034e-08
C0V890,前鎮,2016-01-27,22.5718,120.3117,2.150074e-09
467620,蘭嶼,2016-01-27,22.036969,121.558339,0.8152814
C1F941,雪嶺,2016-01-27,24.280586,121.026642,2.1981508e-08
C2H9E0,國姓南港,2016-01-27,23.911108,120.846556,5.861833e-09
C0AC80,文山,2016-01-27,25.00235,121.575728,8.855513e-07
C0F9R0,龍井,2016-01-27,24.184536,120.528972,2.0388835e-07
C0M760,民雄,2016-01-27,23.551754,120.428457,2.285798e-08
C0UA40,西德山,2016-01-27,24.560647,121.752608,2.7563049e-08
C1T920,中興,2016-01-27,23.769503,121.498653,1.1062424e-06
C0D550,雪霸,2016-01-27,24.526972,121.11605,1.6243058e-08
C2F860,梨山,2016-01-27,24.247522,121.243669,1.6352853e-08
C0R320,車城,2016-01-27,22.0744,120.716247,0.9976223
C1S870,南美山,2016-01-27,23.15025,121.382333,1.0638268e-07
C0B020,基隆嶼,2016-01-27,25.19141,121.78391,3.7181053e-06
C1U501,牛鬥,2016-01-27,24.637836,121.573656,7.242599e-08
C0M730,嘉義市東區,2016-01-27,23.457673,120.460531,7.8190425e-08
C0S700,知本,2016-01-27,22.684866,121.005642,8.688053e-08
C1N001,沙崙,2016-01-27,22.935472,120.309406,3.1895409e-09
C0V760,橋頭,2016-01-27,22.757806,120.30575,2.4130167e-09
C0G960,福寶,2016-01-27,24.0443,120.3814,8.455994e-09
C0X210,白河,2016-01-27,23.347466,120.414427,6.6366663e-09
C0S810,東河,2016-01-27,22.972672,121.303986,1.7667061e-07
C2R170,屏東,2016-01-27,22.66027,120.49403,2.1390991e-09
C0R670,楓港,2016-01-27,22.190131,120.692156,3.817536e-06
C0FA50,霧峰,2016-01-27,24.0419,120.6995,5.318574e-08
C0UB10,蘇澳,2016-01-27,24.5969,121.8571,5.1311606e-08
C0G950,防潮門,2016-01-27,24.1835,120.4871,2.1319094e-07
C0M740,六腳,2016-01-27,23.492871,120.290625,5.2672067e-09
C1R250,力里,2016-01-27,22.428117,120.629228,2.5279614e-09
C0K330,虎尾,2016-01-27,23.719183,120.442036,3.2741778e-09
C2FA00,烏石坑,2016-01-27,24.273503,120.947617,5.901884e-09
C0V620,永安,2016-01-27,22.82315,120.236856,2.4220546e-09
C1I330,楓樹林,2016-01-27,23.986803,121.076117,7.805182e-09
C0W200,湖西,2016-01-27,23.596314,119.67275,0.96528864
72Q010,高雄農改場,2016-01-27,22.709333,120.525889,2.1277908e-09
C0SA40,瑞和,2016-01-27,22.974361,121.156697,1.506555e-07
C0C680,龜山,2016-01-27,25.02846,121.38656,3.8677697e-08
C2V260,月眉,2016-01-27,22.971003,120.539853,2.9136753e-09
C0V450,鳳森,2016-01-27,22.545064,120.392592,2.056057e-09
C0U720,南山,2016-01-27,24.43742,121.38167,3.0476073e-08
A2N290,臺南蘭花園區,2016-01-27,23.340258,120.379661,6.7773414e-09
C0R560,新園,2016-01-27,22.5434,120.461558,1.6846374e-09
C0U890,三星,2016-01-27,24.66812,121.65302,6.7867354e-08
C1V300,御油山,2016-01-27,23.001983,120.715364,1.5173324e-08
C0U600,礁溪,2016-01-27,24.817539,121.765608,8.0463e-08
C1T980,龍澗,2016-01-27,24.023289,121.411328,3.1567033e-08
C0D670,海天一線,2016-01-27,24.831986,120.914438,5.3297063e-06
C0SA00,歷坵,2016-01-27,22.520969,120.89185,6.195656e-08
C0M710,東石,2016-01-27,23.458927,120.15385,5.7192984e-09
C0M780,鹿草,2016-01-27,23.41134,120.30835,5.1402287e-09
C0U520,雙連埤,2016-01-27,24.753033,121.641303,2.5540174e-08
C0B010,七堵,2016-01-27,25.094819,121.71713,2.9550338e-06
C0R480,長治,2016-01-27,22.693128,120.542622,2.3304223e-09
C1V830,國三S383K,2016-01-27,22.781967,120.426475,2.5514941e-09
12Q980,恆春工作站,2016-01-27,22.079678,120.714425,0.9976223
C1O940,東山服務區,2016-01-27,23.286016,120.398472,6.5654175e-09
C1U840,東澳嶺,2016-01-27,24.5378,121.8485,3.917873e-08
C1D630,飛鳳山,2016-01-27,24.766464,121.119178,5.3289824e-08
C0S940,石寧山,2016-01-27,23.223772,121.406639,4.7144677e-08
C0K410,北港,2016-01-27,23.573957,120.292802,5.594894e-09
C2M620,瑞里,2016-01-27,23.545133,120.675197,7.14019e-09
C0SB70,小港漁港,2016-01-27,23.158558,121.400431,6.246858e-08
C2O950,安南,2016-01-27,23.076694,120.144861,6.597151e-09
C0F0E0,南湖圈谷,2016-01-27,24.363714,121.444667,5.6109375e-08
467610,成功,2016-01-27,23.097486,121.373428,7.0397857e-07
C0G890,伸港,2016-01-27,24.148933,120.484403,1.9654162e-07
C2E540,龍溪,2016-01-27,24.606489,120.783933,1.8407749e-07
C1V200,梅山,2016-01-27,23.268447,120.823556,9.83963e-09
C0T9H0,加路蘭山,2016-01-27,23.682947,121.5274,2.3360604e-07
C2O930,玉井,2016-01-27,23.126042,120.46055,6.2899326e-09
C1F911,新伯公,2016-01-27,24.221361,120.841069,5.6244676e-09
C0R490,九如,2016-01-27,22.7405,120.490503,2.1396378e-09
C0X200,左鎮,2016-01-27,23.056758,120.408522,3.9568318e-09
C0SB50,叭嗡嗡,2016-01-27,23.047062,121.343223,2.2445799e-07
C1F891,稍來,2016-01-27,24.265689,121.001142,1.6818676e-08
72N240,七股研究中心,2016-01-27,23.081672,120.062894,1.2301802e-08
C0C700,中壢,2016-01-27,24.977661,121.256375,6.505481e-07
C0M690,水上,2016-01-27,23.419734,120.388909,3.5342886e-08
C0V690,鼓山,2016-01-27,22.623325,120.275575,2.1215703e-09
C0O860,大內,2016-01-27,23.11885,120.36083,2.811755e-09
C0Z200,萬榮,2016-01-27,23.709219,121.420106,7.694258e-07
C0T9D0,和中,2016-01-27,24.26676,121.74103,2.4207816e-07
C1O921,楠西,2016-01-27,23.183511,120.484083,6.1192686e-09
C0AJ30,淡水觀海,2016-01-27,25.184591,121.408616,1.0497122e-06
C0V810,左營,2016-01-27,22.67491,120.28491,1.7952927e-09
C0UA70,桃源谷,2016-01-27,24.962606,121.888875,1.884925e-08
C0X130,官田,2016-01-27,23.193217,120.315422,3.0994267e-09
C1H000,翠峰,2016-01-27,24.109397,121.205211,2.058817e-08
C0UA90,石城,2016-01-27,24.980444,121.951214,5.95885e-08
C1E681,南勢山,2016-01-27,24.421669,120.923831,7.826216e-09
C0A9F0,內湖,2016-01-27,25.079422,121.57545,1.1635265e-06
C0K291,宜梧,2016-01-27,23.536281,120.169329,5.825142e-09
C1K540,口湖,2016-01-27,23.585344,120.180517,6.7767725e-09
C0R780,滿州,2016-01-27,22.024403,120.839892,0.9989726
C0V870,文安,2016-01-27,22.8025,120.2164,2.4401896e-09
C0U650,玉蘭,2016-01-27,24.675286,121.587061,5.7553475e-08
C0R640,東港,2016-01-27,22.46247,120.44074,2.1517887e-09
K2E360,苗栗農改,2016-01-27,24.495722,120.829111,1.7034596e-08
C0AJ80,板橋,2016-01-27,25.0107,121.4489,8.572267e-07
C0S660,下馬,2016-01-27,23.150427,121.070312,5.166012e-08
C1H9B1,阿眉,2016-01-27,24.1263,120.994672,1.1823399e-08
C0UA20,多加屯,2016-01-27,24.368614,121.373189,2.5358341e-08
C0E730,頭份,2016-01-27,24.688247,120.912206,3.4836294e-06
72V140,高改旗南分場,2016-01-27,22.857861,120.516667,2.5924505e-09
C0K480,莿桐,2016-01-27,23.761192,120.502372,3.822233e-09
C0U980,坪林石牌,2016-01-27,24.86478,121.77396,3.6103533e-08
C0T900,西林,2016-01-27,23.8119,121.441458,6.31297e-07
C1I150,青雲,2016-01-27,23.793361,120.949378,3.9035717e-09
467350,澎湖,2016-01-27,23.565503,119.563094,0.99020565
C0G800,埔鹽,2016-01-27,24.000394,120.431683,8.410634e-09
C0H960,草屯,2016-01-27,23.973672,120.68085,2.757192e-09
C1V780,多納林道,2016-01-27,22.888028,120.737917,1.09457075e-08
C0E920,通霄漁港,2016-01-27,24.498589,120.673876,6.030241e-07
C0Z330,安通山,2016-01-27,23.290728,121.348528,4.5716504e-08
C0AH10,永和,2016-01-27,25.01125,121.508111,1.2362875e-06
C0AK10,太平里,2016-01-27,25.134937,121.364899,1.1907848e-06
C2G640,鹿港,2016-01-27,24.0753,120.430481,8.410634e-09
C1E890,國三N149K,2016-01-27,24.463414,120.680019,2.9720434e-07
C1R110,口社,2016-01-27,22.770111,120.645222,2.9646665e-09
C1M870,國三N285K,2016-01-27,23.550319,120.505833,4.2578328e-09
467050,新屋,2016-01-27,25.006744,121.047486,1.1767539e-05
C1E480,鳳美,2016-01-27,24.554803,121.034747,8.1296925e-09
C0M530,奮起湖,2016-01-27,23.493903,120.699253,7.84837e-09
C0C590,觀音,2016-01-27,25.027072,121.153317,7.19347e-07
C0T9M0,靜浦,2016-01-27,23.455167,121.495028,2.2144e-06
C2H9M0,發祥,2016-01-27,24.154094,121.164517,7.662133e-09
C0AI40,石牌,2016-01-27,25.115597,121.513139,8.572267e-07
C1F871,上谷關,2016-01-27,24.203483,121.018644,5.901884e-09
C2H9G0,百勝,2016-01-27,24.051142,120.909361,5.83594e-09
C0G880,二水,2016-01-27,23.810742,120.6173,3.6895589e-09
C0R940,加祿堂,2016-01-27,22.3363,120.6217,2.9604341e-09
C0W220,北竿,2016-01-27,26.220358,119.974881,2.8314753e-08
C0O960,崎頂,2016-01-27,22.959547,120.369317,2.906238e-09
C0S750,向陽,2016-01-27,23.248397,120.986133,1.7148105e-08
C0T9F0,水璉,2016-01-27,23.797131,121.542514,4.3461338e-07
C1M600,頭凍,2016-01-27,23.406364,120.603339,5.5854685e-09
467660,臺東,2016-01-27,22.752211,121.154586,1.0269731e-06
C1D380,新埔,2016-01-27,24.84745,121.03834,1.0054151e-06
C2G980,田頭村,2016-01-27,23.8263,120.444175,3.4061263e-09
C0V750,路竹,2016-01-27,22.854997,120.259439,2.5115632e-09
C0N050,蚵寮,2016-01-27,23.301,120.1104,8.308208e-09
72M700,南改鹿草分場,2016-01-27,23.416869,120.283061,5.174234e-09
C1SA50,利嘉林道,2016-01-27,22.82325,121.009389,1.9963494e-08
467550,玉山,2016-01-27,23.487614,120.959522,3.440617e-08
C0A940,金山,2016-01-27,25.223628,121.643967,5.367925e-07
C1V340,大津,2016-01-27,22.888322,120.645986,2.59632e-09
C0W180,七美,2016-01-27,23.219333,119.444892,0.9847383
C1F9C1,白冷,2016-01-27,24.182844,120.929889,4.3082857e-09
K2E710,苗改生物防治研究中心,2016-01-27,24.422861,120.871833,1.2136656e-08
C0N040,蘆竹溝,2016-01-27,23.2344,120.0961,8.308208e-09
C2W230,畜試所澎湖,2016-01-27,23.628342,119.513206,0.98781604
C0R880,後壁湖,2016-01-27,21.9457,120.7457,0.9972828
C1I280,埔中,2016-01-27,23.820778,120.642594,4.5421493e-09
467790,墾丁雷達站,2016-01-27,21.948235,120.808028,0.9990639
C0W190,望安,2016-01-27,23.380564,119.494075,0.98764074
466881,新北,2016-01-27,24.9593,121.52,1.0373125e-06
C0Z170,卓溪,2016-01-27,23.3443,121.3029,8.246985e-08
C0F850,東勢,2016-01-27,24.246428,120.833047,5.582859e-09
466900,淡水,2016-01-27,25.164889,121.448906,9.617363e-07
C0I370,魚池,2016-01-27,23.895703,120.94135,3.3376537e-09
C0C630,大溪,2016-01-27,24.882853,121.265547,9.0528744e-07
C0A520,山佳,2016-01-27,24.974944,121.402008,7.6574156e-07
C0I110,竹山,2016-01-27,23.761225,120.688156,3.417234e-09
82H840,茶改南部分場,2016-01-27,23.762528,120.7405,3.782656e-09
C0G660,溪湖,2016-01-27,23.94835,120.479122,6.9050965e-09
C1T800,洛韶,2016-01-27,24.204558,121.453956,4.0205634e-08
C1T810,慈恩,2016-01-27,24.192044,121.388386,2.6310126e-08
C1E451,象鼻,2016-01-27,24.368617,120.940228,7.822963e-09
C0AC60,三峽,2016-01-27,24.939025,121.369728,9.840599e-07
C0I490,萬大林道,2016-01-27,23.928228,121.091411,1.2972393e-08
C1I290,豐丘,2016-01-27,23.668178,120.887417,4.7783613e-09
C1I320,奧萬大,2016-01-27,23.952956,121.178556,7.846394e-09
C2M910,嘉義大學,2016-01-27,23.471325,120.485903,4.071634e-09
C0U770,南澳,2016-01-27,24.44935,121.81022,4.4816108e-08
C0A980,社子,2016-01-27,25.109508,121.469681,9.622399e-07
C0V800,六龜,2016-01-27,22.997889,120.633583,3.1639351e-09
C1G9D0,國一S218K,2016-01-27,23.890641,120.493253,6.8348887e-09
C0E570,白沙屯,2016-01-27,24.549447,120.696803,6.030241e-07
C2F9A0,中竹林,2016-01-27,24.103556,120.751061,3.938302e-09
C0FA40,臺中電廠,2016-01-27,24.2146,120.4907,2.0388835e-07
C2G9A0,畜試所彰化,2016-01-27,23.86045,120.557964,3.2842289e-09
C0H9C0,合歡山,2016-01-27,24.143442,121.272547,3.825196e-08
C0X060,下營,2016-01-27,23.22695,120.256261,3.1487162e-09
G2M350,農試溪口農場,2016-01-27,23.58565,120.408111,2.4737865e-08
C0U860,頭城,2016-01-27,24.85323,121.8308,8.242613e-08
C0R580,南州,2016-01-27,22.48591,120.50274,1.6925088e-09
C0D430,峨眉,2016-01-27,24.6905,121.017189,2.6865591e-06
C0G780,秀水,2016-01-27,24.03405,120.503869,6.0180128e-09
72N100,臺南農改場,2016-01-27,23.0605,120.342194,2.270519e-09
C0S900,蘭嶼高中,2016-01-27,22.04909,121.51214,0.5712654
467540,大武,2016-01-27,22.355675,120.903789,0.99922156
C1F9W0,德基,2016-01-27,24.254783,121.190261,1.3563146e-08
C1Z120,壽豐,2016-01-27,23.870853,121.508081,1.4404153e-06
C0W160,烏坵,2016-01-27,24.9944,119.44956,0.0460169
C1I240,外大坪,2016-01-27,23.958697,120.917931,3.6477568e-09
C1I550,國六W023K,2016-01-27,23.979067,120.867742,3.3877967e-09
C0R870,興海,2016-01-27,21.9752,120.8439,0.998315
C0R140,瑪家,2016-01-27,22.682903,120.686639,1.4454012e-08
C0A530,坪林,2016-01-27,24.938183,121.70975,6.34338e-08
C0X260,後壁,2016-01-27,23.366358,120.362326,4.808844e-09
C0Z230,和平,2016-01-27,24.30717,121.77007,2.4207816e-07
C0G770,福興,2016-01-27,24.041289,120.437669,8.410634e-09
C0H9A0,神木村,2016-01-27,23.532742,120.843667,1.0419675e-08
C0I460,南投,2016-01-27,23.911469,120.687331,3.2714873e-09
C0I480,梅峰,2016-01-27,24.085272,121.173572,1.5625861e-08
C1V570,吉東,2016-01-27,22.85422,120.5454,2.6108653e-09
C2D740,屯原,2016-01-27,24.067969,121.209389,1.5116044e-08
C2A560,福山,2016-01-27,24.776203,121.502811,2.5957469e-08
C0AH30,五分山,2016-01-27,25.07125,121.780794,2.2683862e-08
C0FA10,松柏,2016-01-27,24.429115,120.617482,2.4193577e-07
72S200,東改班鳩分場,2016-01-27,22.829528,121.077694,3.660053e-07
72HA00,中改埔里分場,2016-01-27,23.903208,120.963364,3.2608969e-09
C2H9W0,大坪頂農水,2016-01-27,24.043122,120.932781,3.6316647e-09
C0C650,平鎮,2016-01-27,24.897503,121.214636,5.1710697e-07
C0S930,延平,2016-01-27,22.902581,121.084058,1.1933355e-07
C0UA60,樟樹山,2016-01-27,24.41393,121.78325,6.0916605e-08
C1S670,摩天,2016-01-27,23.199503,121.027,2.008353e-08
C0V630,茄萣,2016-01-27,22.906642,120.182608,3.3034029e-09
466940,基隆,2016-01-27,25.133314,121.740475,4.3447026e-06
C0X050,東河,2016-01-27,23.296598,120.385608,6.7773414e-09
C0R770,保力,2016-01-27,22.071122,120.764111,0.99924076
G2L020,農試嘉義分所,2016-01-27,23.485028,120.473806,4.080847e-09
C0X240,關子嶺,2016-01-27,23.331169,120.508025,4.6385247e-09
C0I380,集集,2016-01-27,23.828206,120.801467,3.815823e-09
466990,花蓮,2016-01-27,23.975128,121.613275,3.9872026e-07
C1V220,小關山,2016-01-27,23.154217,120.813603,1.6508764e-08
C1F9G1,慶福山,2016-01-27,24.180853,120.848378,5.38939e-09
C0Z250,瑞穗林道,2016-01-27,23.49284,121.30688,5.172549e-08
C0D590,新豐,2016-01-27,24.87068,120.97721,1.4275574e-07
C0A870,五指山,2016-01-27,25.132153,121.608692,4.039226e-08
C0UA50,西帽山,2016-01-27,24.555361,121.802628,3.6589636e-08
C0X160,仁德,2016-01-27,22.968258,120.257689,2.80945e-09
C1H971,六分寮,2016-01-27,23.92507,120.6378,4.7252504e-09
C0W120,西嶼,2016-01-27,23.5626,119.468436,0.99020565
C0G650,員林,2016-01-27,23.946503,120.585597,6.7333144e-09
C0AD50,鶯歌,2016-01-27,24.951533,121.346294,5.7678585e-07
C2H9Q0,北東眼山,2016-01-27,24.120939,121.189303,1.4893417e-08
C2H9T0,名間竹圍,2016-01-27,23.859914,120.637572,3.933828e-09
C0S990,山豬窟,2016-01-27,22.318619,120.857372,3.2357957e-06
72Q010,高雄農改,2016-01-27,22.709333,120.525889,2.1277908e-09
C0X190,安平,2016-01-27,22.993161,120.152181,3.6812502e-09
C0K400,斗六,2016-01-27,23.720583,120.541127,4.4171045e-09
12J990,口湖工作站,2016-01-27,23.589978,120.180394,6.739906e-09
C0O830,北寮,2016-01-27,23.079561,120.495008,3.2214311e-09
C1D410,白蘭,2016-01-27,24.579364,121.079947,1.3804932e-08
C0S970,加津林,2016-01-27,22.416211,120.926942,0.99918836
C0D700,關西,2016-01-27,24.7977,121.1732,7.4562513e-07
C0M810,里佳,2016-01-27,23.389125,120.716647,7.84837e-09
C0U750,龜山島,2016-01-27,24.841667,121.953133,3.1570288e-08
C0R810,內獅,2016-01-27,22.305064,120.642986,2.9604341e-09
C1M390,龍美,2016-01-27,23.406728,120.654417,6.4221064e-09
C2FB60,頭櫃山,2016-01-27,24.129842,120.858925,6.690543e-09
C1H840,國三N238K,2016-01-27,23.841008,120.707711,3.822452e-09
CAQ030,崎峰國小,2016-01-27,22.42565,120.49521,1.6925088e-09
C2E520,大湖,2016-01-27,24.414939,120.870872,8.871991e-08
467530,阿里山,2016-01-27,23.508208,120.813242,1.5381435e-08
C1E691,南湖,2016-01-27,24.40135,120.837533,7.6812725e-09
C0FA30,梧棲,2016-01-27,24.256003,120.523381,2.03547e-07
C1V231,高中,2016-01-27,23.134911,120.716711,6.1675918e-09
C0F9V0,新社,2016-01-27,24.200172,120.815806,6.005743e-09
C0H890,埔里,2016-01-27,23.972169,120.952425,3.992805e-09
C0R690,墾丁,2016-01-27,21.966756,120.810269,0.99980474
C0F0D0,審馬陣,2016-01-27,24.381675,121.4203,3.5648355e-08
C0R820,白鷺,2016-01-27,22.454275,120.666219,1.479029e-08
U2H480,臺大溪頭,2016-01-27,23.670306,120.798194,5.2083844e-09
C1V190,南天池,2016-01-27,23.27403,120.91176,1.8998971e-08
K2E360,苗栗農改場,2016-01-27,24.495722,120.829111,1.7034596e-08
CAJ050,海口故事園區,2016-01-27,23.57543,120.14121,6.7767725e-09
C2H9D0,三隻寮,2016-01-27,24.093078,120.861578,3.6913537e-09
C0O990,媽廟,2016-01-27,22.99175,120.293525,2.7942408e-09
C0D480,打鐵坑,2016-01-27,24.849664,121.150789,6.013965e-08
C0Z220,和平林道,2016-01-27,24.343922,121.656317,6.044301e-08
C0TA10,花蓮漁港,2016-01-27,23.995322,121.638331,4.090142e-07
72C440,桃園農改場,2016-01-27,24.950944,121.030583,7.4029444e-06
C1E711,馬拉邦山,2016-01-27,24.367306,120.901656,9.930337e-09
C0SB20,富岡,2016-01-27,22.792467,121.192669,9.273507e-07
C0D560,竹東,2016-01-27,24.767147,121.057881,6.960212e-07
C0F9U0,南屯,2016-01-27,24.137006,120.637969,8.234474e-08
C0M720,番路,2016-01-27,23.464657,120.554156,3.9557304e-09
C0F0A0,雪山圈谷,2016-01-27,24.388594,121.236339,4.070502e-08
C1A9N0,四十份,2016-01-27,24.934158,121.593283,6.509447e-08
C0U760,東澳,2016-01-27,24.52196,121.83318,3.413829e-08
C0X230,鹽水,2016-01-27,23.272621,120.247641,4.019603e-09
C2H9H0,苗改南投蜂場,2016-01-27,23.852589,120.693481,3.4211536e-09
C0R950,萬隆國小,2016-01-27,22.507667,120.587817,1.98706e-09
C0V370,古亭坑,2016-01-27,22.893178,120.401947,4.8883937e-09
C1I340,新興橋,2016-01-27,23.563333,120.868728,4.4820707e-09
C0SA80,土坂,2016-01-27,22.453108,120.887572,9.3336007e-07
C0R160,鹽埔,2016-01-27,22.739558,120.530778,2.3240747e-09
C0AC40,大屯山,2016-01-27,25.175675,121.522408,3.385686e-08
466850,五分山雷達站,2016-01-27,25.071182,121.781205,2.255921e-08
C2H9L0,馬烈霸,2016-01-27,24.1512,121.201772,1.4808666e-08
C1AI50,國三N016K,2016-01-27,25.034164,121.619664,9.312262e-07
C1V600,藤枝,2016-01-27,23.071961,120.757042,1.4875361e-08
C1E601,南勢,2016-01-27,24.572486,120.734842,2.4208502e-08
C0Z180,新城,2016-01-27,24.03946,121.60454,3.7169423e-07
C0O980,新市,2016-01-27,23.061614,120.298197,2.2709523e-09
C0K420,西螺,2016-01-27,23.800407,120.467394,3.8081813e-09
C0Z050,佳心,2016-01-27,23.34567,121.21316,4.874179e-08
C0AD30,蘆洲,2016-01-27,25.086594,121.472331,9.0644073e-07
C0V610,梓官,2016-01-27,22.760558,120.267211,2.3810318e-09
K2F750,種苗改良場,2016-01-27,24.225972,120.800917,5.794491e-09
C0UA80,大溪漁港,2016-01-27,24.941801,121.902955,8.0463e-08
C1AI60,國一39K邊坡,2016-01-27,25.064361,121.383836,3.6285304e-08
C0W150,金寧,2016-01-27,24.457703,118.328989,3.3335393e-08
C0R960,內埔,2016-01-27,22.608483,120.570714,1.9908615e-09
V2C250,八德合作社,2016-01-27,24.93775,121.266389,8.1971365e-07
C2H9S0,龍南,2016-01-27,23.953536,120.833183,6.089625e-09
C0AH40,平等,2016-01-27,25.129142,121.577086,4.876569e-08
C0R540,佳冬,2016-01-27,22.419456,120.552375,1.6903441e-09
466950,彭佳嶼,2016-01-27,25.627975,122.079744,0.001692852
C0A890,雙溪,2016-01-27,25.036003,121.864242,2.1991339e-06
C0C480,桃園,2016-01-27,24.992425,121.323172,7.774843e-07
C0AH50,林口,2016-01-27,25.072181,121.38084,4.520915e-08
A2K360,水試臺西試驗場,2016-01-27,23.717231,120.190522,2.5048763e-08
B2N890,畜試所,2016-01-27,23.058972,120.336406,2.270519e-09
C2M960,外寮,2016-01-27,23.562643,120.665688,6.872288e-09
C0F9S0,烏日,2016-01-27,24.107058,120.624103,5.40842e-09
C0C490,八德,2016-01-27,24.928708,121.283289,1.2709742e-06
C0R190,赤山,2016-01-27,22.592333,120.614306,1.9867115e-09
C0T820,天祥,2016-01-27,24.179597,121.495639,9.060513e-08
C1F9E1,龍安,2016-01-27,24.1605,120.831961,5.976558e-09
C0V820,小林,2016-01-27,23.148408,120.63325,3.591868e-09
C2G870,芳苑,2016-01-27,23.922303,120.320025,2.9027603e-08
C0E850,大河,2016-01-27,24.618069,120.948578,1.595583e-08
C1U670,寒溪,2016-01-27,24.634,121.71691,7.6192904e-08
C0N020,城西,2016-01-27,23.0568,120.0956,1.2152176e-08
C1Z110,三棧,2016-01-27,24.11557,121.60501,1.8827372e-07
C0R280,檳榔,2016-01-27,22.076078,120.836777,0.9998057
C2H9J0,中台,2016-01-27,23.9996,120.938739,3.963804e-09
C0F9L0,后里,2016-01-27,24.310436,120.729725,1.4244588e-08
C0D540,橫山,2016-01-27,24.71116,121.11693,6.5099805e-08
C1D420,太閣南,2016-01-27,24.632808,121.160575,1.9343414e-08
C1E770,公館,2016-01-27,24.526914,120.830806,2.4556883e-07
CAN130,水試所海水繁養殖中心,2016-01-27,23.120802,120.07968,1.2301802e-08
C1I430,翠華,2016-01-27,24.191961,121.224339,2.0538947e-08
C1M400,菜瓜坪,2016-01-27,23.251928,120.576103,3.3351146e-09
C0G730,二林,2016-01-27,23.903325,120.376081,8.676556e-09
72M360,南改義竹分場,2016-01-27,23.360694,120.279361,3.2157894e-09
V2K620,麥寮合作社,2016-01-27,23.753836,120.294783,2.2301576e-08
C0Z070,舞鶴,2016-01-27,23.46811,121.37407,4.5445907e-07
C0B040,大武崙,2016-01-27,25.166676,121.706993,2.9550338e-06
C1Z030,紅葉,2016-01-27,23.493119,121.338806,6.0026423e-07
C1I050,丹大,2016-01-27,23.753747,121.141147,2.4214504e-08
C0I080,信義,2016-01-27,23.689694,120.851036,3.5968384e-09
C2M920,朴子農改,2016-01-27,23.469889,120.259383,5.2672067e-09
C2A880,福隆,2016-01-27,25.017842,121.942083,4.945434e-08
C0Z160,鳳林,2016-01-27,23.746114,121.453411,7.515462e-07
C0V210,復興,2016-01-27,23.222403,120.806089,1.1158612e-08
C0H990,昆陽,2016-01-27,24.121322,121.273642,2.968929e-08
C0R741,獅子,2016-01-27,22.202308,120.705236,8.360756e-07
C0S710,鹿野,2016-01-27,22.917711,121.122994,6.457903e-08
C0I530,小奇萊,2016-01-27,24.131764,121.295717,3.0938587e-08
C2K630,荷苞,2016-01-27,23.657717,120.595144,4.12308e-09
C0Z080,富源,2016-01-27,23.587642,121.378225,7.145336e-07
467441,高雄,2016-01-27,22.7304,120.3125,1.7952927e-09
C0SB10,美和,2016-01-27,22.682078,121.060236,1.650603e-05
C2K620,馬光農場,2016-01-27,23.721453,120.378864,3.2391139e-09
C1I140,卡奈托灣,2016-01-27,23.754364,121.087872,1.21816015e-08
C0I520,玉山風口,2016-01-27,23.470489,120.955994,3.529115e-08
C1G691,下水埔,2016-01-27,23.816114,120.5676,3.637835e-09
C0X110,臺南市南區,2016-01-27,22.961189,120.188378,3.6353724e-09
C0V680,仁武,2016-01-27,22.701083,120.347722,1.788836e-09
C2G840,北斗,2016-01-27,23.877586,120.514222,6.647308e-09
C0R900,竹坑,2016-01-27,22.1385,120.7022,0.0009663067
C0K250,崙背,2016-01-27,23.75555,120.318925,2.1687905e-08
C0G860,社頭,2016-01-27,23.897647,120.5862,6.644697e-09
C0X150,安定,2016-01-27,23.102614,120.227839,3.1229257e-09
C0R590,里港,2016-01-27,22.77919,120.49459,2.4888736e-09
C0E610,馬都安,2016-01-27,24.451272,120.930192,2.320581e-08
C0E550,明德,2016-01-27,24.583486,120.885411,1.6221477e-08
C0R150,三地門,2016-01-27,22.709889,120.639944,2.7237759e-09
C0G910,花壇,2016-01-27,24.032076,120.549461,5.9336687e-09
C1D400,鳥嘴山,2016-01-27,24.71909,121.28387,2.8140796e-08
C0K500,元長,2016-01-27,23.64981,120.315024,2.0696877e-08
C0F0B0,石岡,2016-01-27,24.276061,120.777644,4.249087e-09
C2V250,甲仙,2016-01-27,23.080106,120.591758,3.9007286e-09
C0SA20,金崙山,2016-01-27,22.567419,120.959667,2.6848756e-08
C0V350,溪埔,2016-01-27,22.738578,120.446797,2.1664577e-09
C0M660,溪口,2016-01-27,23.604131,120.403569,2.4737865e-08
C1S880,壽卡,2016-01-27,22.238911,120.858903,3.076597e-07
72D680,桃改新埔分場,2016-01-27,24.834444,121.066111,1.0852214e-06
