站號,站名,日期,lat,lon,BLBTSLS
C0R710,龍磐,2016-05-24,21.931672,120.838942,0.978748
C1F9D1,白毛台,2016-05-24,24.158325,120.886933,8.672656e-08
C0G940,竹塘,2016-05-24,23.848253,120.386764,0.99190414
467590,恆春,2016-05-24,22.003897,120.746339,0.9848304
C1O850,環湖,2016-05-24,23.148617,120.418633,0.9993435
C0U710,太平山,2016-05-24,24.505486,121.525656,1.1227827e-08
C0E820,獅潭,2016-05-24,24.539133,120.920042,0.9957439
C0V880,興達,2016-05-24,22.8778,120.2127,0.8494931
C0S890,關山,2016-05-24,23.0395,121.175017,0.87938064
C0SB30,新蘭,2016-05-24,22.869214,121.223228,0.8747298
C2R970,屏科大,2016-05-24,22.648275,120.619247,0.98932016
K2F750,種苗繁殖,2016-05-24,24.225972,120.800917,4.901883e-07
C1Z130,銅門,2016-05-24,23.965694,121.492842,0.83493626
C0AD40,土城,2016-05-24,24.973208,121.445169,0.9989877
CAN140,六官養殖協會,2016-05-24,23.22881,120.29962,0.9984293
C0X180,山上,2016-05-24,23.0757,120.363253,0.9980484
C0F9Z0,雪山東峰,2016-05-24,24.388792,121.268675,1.4262395e-08
C1M480,獨立山,2016-05-24,23.537022,120.607797,3.3961554e-09
C0X220,學甲,2016-05-24,23.230367,120.182187,0.864544
467650,日月潭,2016-05-24,23.881325,120.90805,4.7106723e-09
C0K600,箔子寮,2016-05-24,23.6197,120.14,0.94633615
C0G830,埤頭,2016-05-24,23.866003,120.452806,0.9927943
C0S950,七塊厝,2016-05-24,22.954453,121.229922,0.909293
467110,金門,2016-05-24,24.407306,118.289281,0.89447576
C0AH80,深坑,2016-05-24,25.002703,121.628328,0.99860305
467990,馬祖,2016-05-24,26.169269,119.923419,0.99853253
C0A970,三貂角,2016-05-24,25.007606,122.002058,0.99988717
C2D730,寶山農場,2016-05-24,24.732444,120.976153,0.99493194
C0K430,褒忠,2016-05-24,23.690938,120.303634,0.9795802
467480,嘉義,2016-05-24,23.495925,120.432906,0.9991238
C2E540,後龍,2016-05-24,24.606489,120.783933,0.9789854
C0V400,阿公店,2016-05-24,22.804194,120.355528,0.99649125
C0R440,大漢山,2016-05-24,22.405264,120.753181,1.1756252e-08
C0K280,四湖,2016-05-24,23.630414,120.227125,0.84077734
C1F9B1,桐林,2016-05-24,24.066172,120.735194,0.47944108
C2H9U0,鳳鵬,2016-05-24,23.763919,120.788061,5.5048897e-08
C0K390,土庫,2016-05-24,23.679029,120.395574,0.97777194
C1I450,望鄉山,2016-05-24,23.594153,120.944286,1.4201074e-08
C0E910,海埔,2016-05-24,24.648767,120.772435,0.86988497
B2E890,畜試北區分所,2016-05-24,24.527806,120.770972,0.9861375
C0R750,四林格山,2016-05-24,22.076989,120.802439,0.28102827
C0F0C0,中坑,2016-05-24,24.248517,120.903319,3.8252965e-09
C1I121,大鞍,2016-05-24,23.678381,120.760017,5.3709597e-09
72U480,花改蘭陽分場,2016-05-24,24.686306,121.716583,0.99896324
C0A770,科教館,2016-05-24,25.096356,121.516507,0.99892616
C0AJ60,六塊厝,2016-05-24,25.24,121.4481,0.99821806
C0R620,墾雷,2016-05-24,21.900836,120.855269,0.98450893
467420,永康,2016-05-24,23.038386,120.2367,0.5625337
467300,東吉島,2016-05-24,23.25695,119.667467,0.2810875
C0I410,名間,2016-05-24,23.837053,120.701447,0.00041836314
A2C560,農工中心,2016-05-24,24.985917,121.239833,0.9983155
C0V740,旗山,2016-05-24,22.888614,120.483597,0.99875
C0Z061,玉里,2016-05-24,23.3215,121.339656,0.9994945
C0S840,南田,2016-05-24,22.279725,120.889208,0.05276549
C1I470,杉林溪,2016-05-24,23.639517,120.786444,5.9943446e-09
C1X040,東原,2016-05-24,23.291597,120.463822,0.00192417
C0R660,枋寮,2016-05-24,22.367722,120.590647,0.0031080805
C1R120,上德文,2016-05-24,22.763272,120.704442,0.80042195
C0K450,大埤,2016-05-24,23.646074,120.431537,0.9721907
C0UA00,土場,2016-05-24,24.576533,121.495333,5.5094426e-07
467080,宜蘭,2016-05-24,24.763975,121.756528,0.99591666
C0N030,四草,2016-05-24,23.0235,120.1116,0.9673059
C0V650,彌陀,2016-05-24,22.783806,120.246361,0.5317749
C0D660,新竹市東區,2016-05-24,24.798681,120.986942,0.9820174
82S580,茶改東部分場,2016-05-24,22.907694,121.130139,0.9975006
C0SB40,興隆,2016-05-24,22.913661,121.257469,0.9836987
C0C710,大溪永福,2016-05-24,24.892936,121.324975,0.9986964
C0FA20,溫寮,2016-05-24,24.372177,120.583125,0.89756477
C0V640,湖內,2016-05-24,22.887139,120.2445,0.86797637
C0R910,下寮,2016-05-24,22.3929,120.5548,0.194211
C0Z020,明里,2016-05-24,23.208717,121.262342,0.99958605
C0M770,嘉義梅山,2016-05-24,23.585398,120.555587,0.0058577163
G2F820,農業試驗所,2016-05-24,24.031261,120.688133,0.9984731
C0C660,楊梅,2016-05-24,24.912375,121.143047,0.99811953
C1E511,新開,2016-05-24,24.347703,120.827019,5.685194e-06
G2F820,農試所(霧峰),2016-05-24,24.031261,120.688133,0.9984731
C1I070,和社,2016-05-24,23.591131,120.888861,9.098522e-09
C2F000,大肚,2016-05-24,24.15295,120.572117,7.323794e-05
C1S850,豐南,2016-05-24,23.122139,121.262389,0.98520416
C2A920,富貴角,2016-05-24,25.263783,121.565258,0.99971384
CAH030,茶改場竹圍站,2016-05-24,23.860083,120.637528,3.6719186e-08
C0T960,光復,2016-05-24,23.660694,121.424964,0.99919415
C0F9M0,豐原,2016-05-24,24.254322,120.720692,0.99077857
C0R720,旭海,2016-05-24,22.205403,120.887614,0.013059453
C0V710,苓雅,2016-05-24,22.622742,120.330669,0.7542778
C0C740,觀音工業區,2016-05-24,25.064764,121.114856,0.8869612
CAC040,拉拉山,2016-05-24,24.699317,121.427133,8.763525e-09
C0V790,萬山,2016-05-24,22.905944,120.688056,2.0019163e-06
U2HA30,臺大和社,2016-05-24,23.590856,120.888864,9.098522e-09
C0AJ90,澳底,2016-05-24,25.0552,121.9253,0.9998456
C0Z100,東華,2016-05-24,23.89525,121.549833,0.9969899
C0G970,三豐,2016-05-24,23.882,120.2895,0.85662204
V2K610,大庄合作社,2016-05-24,23.8068,120.367939,0.98932827
C0V900,汕尾,2016-05-24,22.4782,120.4151,0.9848491
C1R630,龍泉,2016-05-24,22.66701,120.59091,0.100243054
C1AC50,關渡,2016-05-24,25.133486,121.469331,0.9992556
C0F9I0,神岡,2016-05-24,24.272481,120.658314,0.9852824
C0K460,斗南,2016-05-24,23.678734,120.478359,0.39819092
467410,臺南,2016-05-24,22.993239,120.204772,0.58830124
C2O810,曾文,2016-05-24,23.219681,120.497328,0.9975168
467280,後龍,2016-05-24,24.648563,120.831834,0.9274767
C1F9J1,清水林,2016-05-24,24.071242,120.820419,4.169828e-09
C2A650,火燒寮,2016-05-24,25.002719,121.742892,0.99978787
466930,竹子湖,2016-05-24,25.162078,121.544547,0.00020895201
C1I220,樟湖,2016-05-24,23.905333,120.846983,3.8919445e-09
C0I390,仁愛,2016-05-24,24.022122,121.132206,2.28078e-09
C0Z300,東里,2016-05-24,23.26853,121.30547,0.99955374
C1V590,新發,2016-05-24,23.057019,120.646064,0.0025775197
C0K510,水林,2016-05-24,23.572924,120.24597,0.9494747
72S590,東改賓朗果園,2016-05-24,22.813889,121.071278,0.996511
82A750,茶改北部分場,2016-05-24,24.955778,121.631222,1.2826072e-07
C1A750,石碇服務區,2016-05-24,25.00872,121.646242,0.9984246
C0X300,鹿寮,2016-05-24,23.386047,120.477331,0.96823305
G2AI50,關渡,2016-05-24,25.11575,121.492,0.9987196
C0K590,雲林東勢,2016-05-24,23.674192,120.255721,0.9795802
C0A570,桶後,2016-05-24,24.848222,121.597992,0.012247943
C1S800,華源,2016-05-24,22.657883,121.02325,0.80513316
C0G720,溪州,2016-05-24,23.851589,120.499093,0.9896143
C1V160,達卡努瓦,2016-05-24,23.279811,120.705319,1.4911269e-08
C2M410,馬頭山,2016-05-24,23.324361,120.582017,2.7792863e-05
C0V850,蚵仔寮,2016-05-24,22.7256,120.2527,0.5900941
C0S740,池上,2016-05-24,23.119628,121.209469,0.99639714
C1V390,尖山,2016-05-24,22.813153,120.367789,0.9967509
C0AH70,松山,2016-05-24,25.04871,121.55042,0.9987352
C0N010,鯤鯓國小,2016-05-24,23.1879,120.0889,0.96988434
C0R550,新埤,2016-05-24,22.467947,120.582894,0.054669704
C0SA60,知本（水試所）,2016-05-24,22.702394,121.082761,0.51700604
C0T9I0,豐濱,2016-05-24,23.583897,121.514806,0.9992503
C0UB00,淡江大學蘭陽校園,2016-05-24,24.823239,121.730383,9.775907e-07
C0W240,九宮,2016-05-24,24.423753,118.240186,0.9949594
C0T9N0,富里,2016-05-24,23.171639,121.249378,0.99961776
U2HA50,臺大竹山,2016-05-24,23.756972,120.681556,6.992409e-05
C0V840,鳳鼻頭,2016-05-24,22.5083,120.3591,0.69322973
C0X140,西港,2016-05-24,23.125608,120.203108,0.87066567
72D080,桃改五峰分場,2016-05-24,24.612194,121.157167,9.229595e-09
C2H9P0,伊拿谷,2016-05-24,23.963211,121.088264,2.2867084e-09
C2H9F0,柑林,2016-05-24,24.018658,120.847072,1.3732102e-07
C0TA20,加灣,2016-05-24,24.082025,121.608944,0.9961484
C0V530,阿蓮,2016-05-24,22.883208,120.327508,0.9990586
C1O880,關山,2016-05-24,23.173397,120.594092,4.8948536e-05
C0E791,卓蘭,2016-05-24,24.3126,120.8244,3.404619e-06
C1I030,武界,2016-05-24,23.913225,121.052483,3.5043486e-09
C0R520,崁頂,2016-05-24,22.514781,120.506914,0.20354947
C0R341,牡丹,2016-05-24,22.130036,120.792639,0.6684013
C0R930,萬丹,2016-05-24,22.5885,120.4851,0.05493386
C0S760,紅石,2016-05-24,23.069131,121.126219,1.888005e-08
C1M610,石磐龍,2016-05-24,23.496606,120.663506,3.9771324e-09
C0UA10,鴛鴦湖,2016-05-24,24.590269,121.412228,1.0953686e-08
V2C260,八德蔬果,2016-05-24,24.978508,121.281819,0.9990212
C0R800,丹路,2016-05-24,22.204481,120.750989,0.011909449
C0G920,永靖,2016-05-24,23.924703,120.547533,0.995258
C2M950,太和,2016-05-24,23.538372,120.702961,3.167262e-09
C1A630,下盆,2016-05-24,24.771003,121.538622,1.8065386e-07
B2N890,畜產試驗所,2016-05-24,23.058972,120.336406,0.99848783
C0UA30,白嶺,2016-05-24,24.527819,121.519031,1.6463515e-08
C1V580,溪南(特生中心),2016-05-24,23.084972,120.788475,1.2831535e-08
C1T970,大農,2016-05-24,23.615233,121.413331,0.9976854
E2S960,林試太麻里2,2016-05-24,22.598014,120.989761,0.87997186
C0R650,竹田,2016-05-24,22.58486,120.54344,0.05493386
C1H900,清流,2016-05-24,24.080775,120.962997,2.868875e-09
C1C510,水尾,2016-05-24,24.940081,121.087161,0.98826367
C0F9X0,大雅(中科園區),2016-05-24,24.21528,120.62445,0.9837429
C0SB60,白守蓮,2016-05-24,23.126769,121.401914,0.059513785
C0O970,虎頭埤,2016-05-24,23.021375,120.347878,0.99956214
C0C730,中大臨海站,2016-05-24,24.966126,121.008581,0.04606438
C0X250,新營,2016-05-24,23.310689,120.316681,0.9987333
C0V700,三民,2016-05-24,22.645017,120.311233,0.7542778
C0U870,大礁溪,2016-05-24,24.791042,121.675047,1.689216e-07
C0E870,高鐵苗栗,2016-05-24,24.60725,120.826094,0.98247904
A2K570,古坑花卉中心,2016-05-24,23.63353,120.55239,0.18558615
C0M860,新美,2016-05-24,23.338017,120.683169,3.7113843e-08
C1E701,八卦,2016-05-24,24.491756,120.927619,4.7063324e-07
C0I420,國姓,2016-05-24,24.037803,120.855072,4.051146e-06
C2D720,關西工作站,2016-05-24,24.757275,121.184792,0.9974459
C0S960,香蘭,2016-05-24,22.587569,120.993375,0.87997186
C0R260,春日,2016-05-24,22.370361,120.628306,0.06372398
72G600,臺中農改場,2016-05-24,24.003028,120.534389,0.983195
C0Z210,瑞穗,2016-05-24,23.5239,121.39021,0.99945766
C0M820,達邦,2016-05-24,23.453994,120.749517,3.6062495e-09
C0V860,南寮,2016-05-24,22.7616,120.2339,0.5103955
C0G740,大城,2016-05-24,23.852487,120.320935,0.8651109
C0R920,塭仔,2016-05-24,22.4169,120.5197,0.18433483
C0R470,高樹,2016-05-24,22.826389,120.600806,0.10403818
C0R680,佳樂水,2016-05-24,21.993578,120.861633,0.98545265
C1O870,大棟山,2016-05-24,23.31157,120.52226,2.6640465e-09
C0D360,梅花,2016-05-24,24.678347,121.208558,6.6513627e-07
C0Z190,富世,2016-05-24,24.14743,121.6297,0.6511175
C0AI10,屈尺,2016-05-24,24.92184,121.54475,0.99860305
B2U990,畜試東區分所,2016-05-24,24.669039,121.832561,0.9980133
C0SB80,長濱漁港,2016-05-24,23.313644,121.459994,0.9978586
C0R240,來義,2016-05-24,22.527306,120.625111,0.05358414
C0V910,大樹,2016-05-24,22.684645,120.432803,0.9938526
C1R610,西大武山,2016-05-24,22.617719,120.7322,1.9238513e-08
C0G900,線西,2016-05-24,24.143358,120.443536,0.92950314
C0M700,竹崎,2016-05-24,23.526178,120.555508,0.008516919
C2E880,三義,2016-05-24,24.405478,120.749819,7.761628e-08
C0C720,竹圍,2016-05-24,25.112692,121.239824,0.998495
C0F9P0,清水,2016-05-24,24.312297,120.562242,0.87587893
C0Z150,吉安光華,2016-05-24,23.930925,121.595153,0.9966275
C1D640,外坪(五指山),2016-05-24,24.644447,121.090961,1.5256416e-07
C0F9O0,潭子,2016-05-24,24.213106,120.703933,0.9926988
C2H9R0,卓社,2016-05-24,23.887894,121.000086,1.5612031e-09
72T250,花蓮農改場,2016-05-24,23.975222,121.563889,0.99531186
C0E780,銅鑼,2016-05-24,24.489681,120.790853,0.9648202
C1T950,太安,2016-05-24,23.666719,121.370128,7.773214e-08
C0E830,苑裡,2016-05-24,24.439714,120.653053,0.9208138
467270,田中,2016-05-24,23.873803,120.581286,0.82027537
C0SA10,檳榔四格山,2016-05-24,22.810031,121.109308,0.99884444
C1T830,布洛灣,2016-05-24,24.17184,121.57127,0.82694304
C0F970,大坑,2016-05-24,24.173142,120.722289,0.99532205
C1U920,思源,2016-05-24,24.393125,121.347214,9.4044905e-09
C0A931,三和,2016-05-24,25.233153,121.595236,0.99985546
C0I010,廬山,2016-05-24,24.033311,121.181808,3.2848617e-09
C2M940,日野賀,2016-05-24,23.434056,120.727169,4.7212687e-09
C0R860,鼻頭,2016-05-24,22.1043,120.8979,0.9792619
C0UB20,壯圍,2016-05-24,24.7359,121.8163,0.9980133
C0R790,九棚,2016-05-24,22.14195,120.889281,0.012197764
C0W110,東莒,2016-05-24,25.9652,119.98069,0.9944676
C1U930,粉鳥林,2016-05-24,24.497088,121.842479,0.9965279
C1I211,蘆竹湳,2016-05-24,23.934019,120.811994,6.071732e-08
C0S830,長濱,2016-05-24,23.286817,121.411975,0.9993237
C1F9F1,伯公龍,2016-05-24,24.272392,120.849047,1.9925686e-07
C0E810,西湖,2016-05-24,24.562947,120.7485,0.986453
C1I440,新高口,2016-05-24,23.478744,120.878939,1.11858025e-08
C0O840,王爺宮,2016-05-24,23.222064,120.40085,0.9975168
C0T9G0,鳳林山,2016-05-24,23.735269,121.420131,0.99448186
C0X080,佳里,2016-05-24,23.173039,120.145086,0.84552777
C0FB70,大甲溪埔,2016-05-24,24.370625,120.620067,0.92348564
C0Z310,清水斷崖,2016-05-24,24.218294,121.689142,0.99933815
C0M680,太保,2016-05-24,23.455062,120.331455,0.9990905
C1S820,金峰,2016-05-24,22.590969,120.933236,0.9158824
C0AD10,八里,2016-05-24,25.150211,121.403947,0.998495
C2K240,草嶺,2016-05-24,23.59555,120.693461,2.9768261e-09
C1SA70,都蘭,2016-05-24,22.87794,121.226881,0.9836987
C0K440,二崙,2016-05-24,23.772797,120.408944,0.9907675
C1A760,坪林交控,2016-05-24,24.94284,121.713442,0.88650954
C0F9N0,大里,2016-05-24,24.092464,120.701378,0.9912552
C0SA90,達仁林場,2016-05-24,22.264347,120.823972,0.12849922
C1R290,石門山,2016-05-24,22.112611,120.756597,0.9212182
42HA10,萬大發電廠,2016-05-24,23.978875,121.139639,1.2244543e-08
C0R890,山海,2016-05-24,21.9878,120.7091,0.9864208
C0T9A0,月眉山,2016-05-24,23.809928,121.539828,0.032197267
C0AC70,信義,2016-05-24,25.037822,121.564597,0.9987352
C0K560,棋山,2016-05-24,23.68645,120.603417,0.09738845
C2FB50,出雲,2016-05-24,24.206469,120.902794,2.9001468e-09
C1Z240,中平林道,2016-05-24,23.42115,121.26763,3.5456326e-06
U2H480,溪頭,2016-05-24,23.670306,120.798194,7.67824e-09
C0M880,好美里,2016-05-24,23.3364,120.138,0.84552777
C0T9E0,大坑,2016-05-24,23.880628,121.581981,0.47768334
C0K530,臺西,2016-05-24,23.701547,120.197559,0.8577957
C1E900,國一N128K,2016-05-24,24.560997,120.844186,0.9899223
C0AJ50,水湳洞,2016-05-24,25.123695,121.862238,0.998108
C0AI20,白沙灣,2016-05-24,25.283128,121.519058,0.9988211
C0A860,大坪,2016-05-24,25.165914,121.632969,0.97133636
C1U850,觀音海岸,2016-05-24,24.38319,121.77856,3.2186958e-06
C2K610,草嶺石壁,2016-05-24,23.602469,120.707731,3.68977e-09
C0U950,鶯子嶺,2016-05-24,24.89754,121.79244,3.2688757e-08
C0O900,善化,2016-05-24,23.112883,120.297219,0.9980031
C0K550,蔦松,2016-05-24,23.514319,120.229736,0.99039
E2P980,林試六龜中心,2016-05-24,22.991703,120.645722,0.03657856
C0E590,通霄,2016-05-24,24.471892,120.704622,0.97867733
C1I310,西巒,2016-05-24,23.754486,120.883956,5.8830136e-09
C0A550,泰平,2016-05-24,24.971197,121.823711,0.02696987
C0I360,水里,2016-05-24,23.812553,120.849792,1.0937844e-07
C0R830,高士,2016-05-24,22.121825,120.836781,0.8450298
C1I101,溪頭,2016-05-24,23.661789,120.807647,8.072306e-09
C0AJ20,野柳,2016-05-24,25.20703,121.690021,0.9981024
C0B060,暖暖,2016-05-24,25.0957,121.7403,0.9993296
C1H920,長豐,2016-05-24,24.102039,120.879897,3.7325663e-09
C0V360,內門,2016-05-24,22.975481,120.466769,0.9969251
C0R850,林邊,2016-05-24,22.4634,120.5339,0.20354947
C0E930,龍鳳,2016-05-24,24.700034,120.859125,0.9562505
C0U910,冬山,2016-05-24,24.63373,121.7937,0.9980133
C1E721,泰安,2016-05-24,24.489017,120.968036,2.897117e-09
82H320,茶改中部分場,2016-05-24,23.875611,120.913583,5.240671e-09
C0M750,布袋,2016-05-24,23.380878,120.167789,0.99265987
C1S860,利嘉,2016-05-24,22.809417,121.050528,3.584753e-06
72C440,桃園農改,2016-05-24,24.950944,121.030583,0.05093947
E2S980,林試太麻里1,2016-05-24,22.598922,120.980044,0.9080219
C0X170,關廟,2016-05-24,22.963017,120.327797,0.99886376
C0V720,林園,2016-05-24,22.507747,120.394511,0.75338167
C1I510,線浸林道,2016-05-24,23.761508,120.832956,5.113562e-09
C0D690,外湖,2016-05-24,24.917735,120.968711,0.05033869
C0C750,新興坑尾,2016-05-24,25.0061,121.0971,0.98645407
B2Q810,畜試南區分所,2016-05-24,21.945583,120.802167,0.98545265
C0S790,金崙,2016-05-24,22.538122,120.966875,0.9087862
C0AH90,福山植物園,2016-05-24,24.760717,121.58135,1.1347556e-07
C0I540,奇萊稜線,2016-05-24,24.109231,121.326456,1.3120276e-08
C0M850,表湖,2016-05-24,23.24186,120.64166,1.2460898e-08
C0S770,大溪山,2016-05-24,22.478475,120.943325,0.83122766
C0AG80,中和,2016-05-24,24.991622,121.491792,0.9987352
C0T790,大禹嶺,2016-05-24,24.186117,121.316086,9.101907e-09
C0T9B0,水源,2016-05-24,23.991861,121.537169,0.00046053258
C0R840,牡丹池山,2016-05-24,22.168389,120.841225,0.12276581
C1I131,桶頭,2016-05-24,23.641944,120.654117,4.488155e-08
CAL110,布袋國中,2016-05-24,23.35893,120.18026,0.9751555
467571,新竹,2016-05-24,24.827853,121.014219,0.97013336
C0Z290,赤柯山,2016-05-24,23.36893,121.38293,2.1306452e-05
C0X280,將軍,2016-05-24,23.214999,120.13577,0.84552777
C0S690,太麻里,2016-05-24,22.60902,120.98533,0.99902266
C0U880,北關,2016-05-24,24.9072,121.8734,0.9990892
C1H860,瑞岩,2016-05-24,24.123772,121.18345,2.7637104e-09
C0G810,埔心,2016-05-24,23.947633,120.525456,0.9950788
C0U970,大福,2016-05-24,24.80064,121.81389,0.9967366
C2H9N0,仁愛東眼,2016-05-24,24.026875,121.1205,2.0551396e-09
C1E670,南礦,2016-05-24,24.538278,121.002836,3.7303387e-09
C0M520,東後寮,2016-05-24,23.369908,120.248065,0.9763507
C1E461,松安,2016-05-24,24.397972,120.986022,3.0784055e-09
72G600,臺中農改,2016-05-24,24.003028,120.534389,0.983195
C2N160,西拉雅風管處,2016-05-24,23.189481,120.335297,0.99870396
C2M970,碧湖,2016-05-24,23.568632,120.624165,3.547172e-09
C0A640,石碇,2016-05-24,24.993969,121.662917,0.99985874
E2S960,林試太麻里2,2016-05-24,22.598,120.99775,0.87465525
C0F9Y0,桃山,2016-05-24,24.432739,121.303808,1.524358e-08
C1I020,萬大,2016-05-24,23.979817,121.132261,2.249269e-09
C0U940,羅東,2016-05-24,24.68184,121.74934,0.9984115
C0M650,朴子,2016-05-24,23.43463,120.23902,0.99293405
C1I500,大尖山,2016-05-24,23.858572,120.994889,7.5168005e-09
C0G820,田尾,2016-05-24,23.901669,120.509389,0.995258
E2K600,四湖植物園,2016-05-24,23.676986,120.163433,0.8579552
C0S730,綠島,2016-05-24,22.6672,121.47533,0.23154767
12Q970,東港工作站,2016-05-24,22.479997,120.466058,0.194211
C0E430,南庄,2016-05-24,24.601775,121.000214,0.9961681
C1TA00,太魯閣,2016-05-24,24.15773,121.6236,0.9992497
466920,臺北,2016-05-24,25.037658,121.514853,0.9987352
C0R600,舊泰武,2016-05-24,22.588194,120.664944,0.96949184
C1I260,北坑,2016-05-24,23.9246,121.006903,4.6712687e-09
466910,鞍部,2016-05-24,25.182586,121.529731,1.0411301e-06
C1I230,九份二山,2016-05-24,23.961944,120.845,2.1667346e-09
C2A660,瑞芳,2016-05-24,25.113169,121.801147,0.99990886
C0R270,琉球嶼,2016-05-24,22.332244,120.362236,0.06372398
C1T990,高寮,2016-05-24,23.394239,121.356808,0.9997077
C0G620,芬園,2016-05-24,24.015678,120.6213,0.99922305
C1Z140,荖溪,2016-05-24,23.890575,121.45964,5.5312228e-08
C1I201,中心崙,2016-05-24,23.728722,120.712097,5.448136e-09
C1I400,凌霄,2016-05-24,24.018778,121.004456,2.0857005e-09
C1M640,十字,2016-05-24,23.492153,120.753683,5.20472e-09
G2P820,農試鳳山分所,2016-05-24,22.646611,120.356083,0.87833875
C0Z270,蕃薯寮,2016-05-24,23.73835,121.540108,0.99916905
C0F9Q0,外埔,2016-05-24,24.347817,120.705686,0.96553713
C0K580,高鐵雲林,2016-05-24,23.737456,120.417944,0.97527367
C2I090,鳳凰,2016-05-24,23.728081,120.787347,4.3397823e-09
C0U990,員山,2016-05-24,24.74435,121.72247,0.9984083
C0V770,大社,2016-05-24,22.730306,120.346639,0.6427938
C0X120,麻豆,2016-05-24,23.183289,120.248611,0.864544
C0C670,龍潭,2016-05-24,24.870056,121.221389,0.95326436
C0D680,香山濕地,2016-05-24,24.783581,120.914988,0.89127666
C0S980,勝林山,2016-05-24,22.430439,120.8938,0.97105366
C0V730,大寮,2016-05-24,22.605614,120.395717,0.024823839
C0R570,麟洛,2016-05-24,22.65078,120.52719,0.9972629
C2M930,石卓,2016-05-24,23.478744,120.702264,5.234148e-09
C0G9B0,和美,2016-05-24,24.105169,120.492131,0.8602149
CAG100,王功漁港,2016-05-24,23.96824,120.32586,0.94111305
C0X290,北門,2016-05-24,23.267772,120.125481,0.84552777
C2F930,大甲,2016-05-24,24.347667,120.640403,0.9121707
C0D650,湖口,2016-05-24,24.904794,121.043628,0.063248195
C0E420,竹南,2016-05-24,24.708978,120.888897,0.9367273
C0U780,五結,2016-05-24,24.68637,121.79794,0.9980133
C1I250,鯉潭,2016-05-24,23.961922,120.991131,3.7325663e-09
C0R130,阿禮,2016-05-24,22.742908,120.743678,3.2640223e-08
C0X100,臺南市北區,2016-05-24,23.010394,120.194228,0.5369853
C0S920,金峰嘉蘭,2016-05-24,22.594789,120.960825,0.9116909
C0V490,新興,2016-05-24,22.627422,120.298803,0.7542778
C0F9K0,大安,2016-05-24,24.345061,120.588025,0.8800649
72N100,臺南農改,2016-05-24,23.0605,120.342194,0.99848783
467290,古坑,2016-05-24,23.633639,120.551889,0.18558615
C2E970,八甲,2016-05-24,24.535811,120.795983,0.96982944
C0V440,鳳山,2016-05-24,22.646653,120.356122,0.87833875
C1T940,大觀,2016-05-24,23.714206,121.373133,0.81764996
72T250,花蓮農改,2016-05-24,23.975222,121.563889,0.99531186
C0E740,造橋,2016-05-24,24.637056,120.864778,0.9762443
C0R100,尾寮山,2016-05-24,22.833111,120.683889,1.6447194e-08
A2K630,臺大雲林校區,2016-05-24,23.730628,120.423903,0.97527367
C0D580,寶山,2016-05-24,24.735006,121.025192,0.9810812
E2P990,林試扇平站,2016-05-24,22.9677,120.6857,0.07588468
C0AI30,三重,2016-05-24,25.057328,121.500629,0.99892616
C0AH00,汐止,2016-05-24,25.066881,121.658778,0.9981024
C1Z040,立山,2016-05-24,23.443356,121.327375,0.68311805
C0W130,花嶼,2016-05-24,23.40007,119.32276,0.7632515
C0A950,鼻頭角,2016-05-24,25.129036,121.923372,0.99983096
C0K470,林內,2016-05-24,23.748675,120.609642,0.24510811
C2F990,摩天嶺,2016-05-24,24.322458,120.936819,3.3007954e-09
82C160,茶改場,2016-05-24,24.908472,121.185333,0.99640346
C0Z320,清水林道,2016-05-24,23.27125,121.188272,0.02894467
C0R760,南仁湖,2016-05-24,22.084681,120.863353,0.9144426
C0M670,大林,2016-05-24,23.600616,120.45841,0.9986454
C0M800,茶山,2016-05-24,23.299075,120.664767,1.2015354e-05
C0A9C0,天母,2016-05-24,25.117494,121.537169,0.9990916
72K220,南改斗南分場,2016-05-24,23.634556,120.477333,0.8893892
72AI40,桃改樹林分場,2016-05-24,24.944503,121.386972,0.999132
C0S910,蘭嶼燈塔,2016-05-24,22.081197,121.503117,0.10604539
C0B050,八斗子,2016-05-24,25.144754,121.79167,0.9975045
C0U900,內城,2016-05-24,24.71813,121.68766,0.99308324
C0X320,柳營,2016-05-24,23.253328,120.375253,0.9993355
C0M790,新港,2016-05-24,23.553269,120.345728,0.9974712
C0F9T0,西屯,2016-05-24,24.179494,120.641275,0.9600316
C0SA30,都歷,2016-05-24,23.020333,121.323642,0.14572395
C0C620,蘆竹,2016-05-24,25.084275,121.265767,0.99891883
C0R730,大坪頂,2016-05-24,22.024633,120.69355,0.97414833
C0AJ40,石門,2016-05-24,25.273672,121.601198,0.99987537
C0E750,苗栗,2016-05-24,24.564569,120.824575,0.9892378
C0T870,鯉魚潭,2016-05-24,23.935639,121.508944,0.99268734
C1V170,排雲,2016-05-24,23.463619,120.954147,2.1449916e-08
C2H950,中寮,2016-05-24,23.884447,120.766406,9.92357e-06
C0R350,貓鼻頭,2016-05-24,21.921774,120.7358,0.98450893
C0V660,岡山,2016-05-24,22.797078,120.294958,0.83267975
C1H941,雙冬,2016-05-24,23.967378,120.802189,4.374729e-09
C0AJ70,田寮,2016-05-24,25.2698,121.4886,0.9985454
C0AI00,五股,2016-05-24,25.07445,121.42728,0.99959654
C0Z280,德武,2016-05-24,23.47426,121.41071,0.99954206
C0R700,枋山,2016-05-24,22.246844,120.661086,0.0047128145
C0C460,復興,2016-05-24,24.820208,121.352281,1.1117643e-06
E2H360,蓮華池,2016-05-24,23.918333,120.885278,3.8753516e-09
C0M640,中埔,2016-05-24,23.42538,120.5229,0.47973886
C0W140,金沙,2016-05-24,24.488292,118.408778,0.81622905
C2A540,四堵,2016-05-24,24.8926,121.745736,0.7264052
C0ACA0,新莊,2016-05-24,25.051478,121.446756,0.9979978
C0R220,潮州,2016-05-24,22.534361,120.54,0.0025171908
U2HA40,臺大內茅埔,2016-05-24,23.689722,120.851117,3.0296e-08
467490,臺中,2016-05-24,24.145736,120.684075,0.9976513
C0U960,翠峰湖,2016-05-24,24.510856,121.608044,1.12308465e-08
E2HA20,林試畢祿溪站,2016-05-24,24.226944,121.308522,3.777804e-09
C0V890,前鎮,2016-05-24,22.5718,120.3117,0.6942185
467620,蘭嶼,2016-05-24,22.036969,121.558339,0.062120557
C1F941,雪嶺,2016-05-24,24.280586,121.026642,7.4512805e-09
C2H9E0,國姓南港,2016-05-24,23.911108,120.846556,3.696356e-09
C0AC80,文山,2016-05-24,25.00235,121.575728,0.99860305
C0F9R0,龍井,2016-05-24,24.184536,120.528972,0.88840145
C0M760,民雄,2016-05-24,23.551754,120.428457,0.9980416
C0UA40,西德山,2016-05-24,24.560647,121.752608,2.6844916e-08
C1T920,中興,2016-05-24,23.769503,121.498653,0.9970093
C0D550,雪霸,2016-05-24,24.526972,121.11605,5.921187e-09
C2F860,梨山,2016-05-24,24.247522,121.243669,3.9140393e-09
C0R320,車城,2016-05-24,22.0744,120.716247,0.9864208
C1S870,南美山,2016-05-24,23.15025,121.382333,0.9267968
C0B020,基隆嶼,2016-05-24,25.19141,121.78391,0.998108
C1U501,牛鬥,2016-05-24,24.637836,121.573656,0.07346917
C0M730,嘉義市東區,2016-05-24,23.457673,120.460531,0.9991247
C0S700,知本,2016-05-24,22.684866,121.005642,0.9985569
C1N001,沙崙,2016-05-24,22.935472,120.309406,0.99906045
C0V760,橋頭,2016-05-24,22.757806,120.30575,0.87504977
C0G960,福寶,2016-05-24,24.0443,120.3814,0.89249593
C0X210,白河,2016-05-24,23.347466,120.414427,0.9993226
C0S810,東河,2016-05-24,22.972672,121.303986,0.97676903
C2R170,屏東,2016-05-24,22.66027,120.49403,0.99711394
C0R670,楓港,2016-05-24,22.190131,120.692156,0.004712817
C0FA50,霧峰,2016-05-24,24.0419,120.6995,0.9985318
C0UB10,蘇澳,2016-05-24,24.5969,121.8571,0.9809079
C0G950,防潮門,2016-05-24,24.1835,120.4871,0.8968636
C0M740,六腳,2016-05-24,23.492871,120.290625,0.9990125
C1R250,力里,2016-05-24,22.428117,120.629228,0.052785154
C0K330,虎尾,2016-05-24,23.719183,120.442036,0.9663276
C2FA00,烏石坑,2016-05-24,24.273503,120.947617,3.4588412e-09
C0V620,永安,2016-05-24,22.82315,120.236856,0.5317749
C1I330,楓樹林,2016-05-24,23.986803,121.076117,1.588822e-09
C0W200,湖西,2016-05-24,23.596314,119.67275,0.13855469
72Q010,高雄農改場,2016-05-24,22.709333,120.525889,0.9972481
C0SA40,瑞和,2016-05-24,22.974361,121.156697,0.7722629
C0C680,龜山,2016-05-24,25.02846,121.38656,0.73508453
C2V260,月眉,2016-05-24,22.971003,120.539853,0.0847916
C0V450,鳳森,2016-05-24,22.545064,120.392592,0.021365229
C0U720,南山,2016-05-24,24.43742,121.38167,3.7573827e-08
A2N290,臺南蘭花園區,2016-05-24,23.340258,120.379661,0.9993355
C0R560,新園,2016-05-24,22.5434,120.461558,0.20354947
C0U890,三星,2016-05-24,24.66812,121.65302,0.97339815
C1V300,御油山,2016-05-24,23.001983,120.715364,1.3369229e-08
C0U600,礁溪,2016-05-24,24.817539,121.765608,0.99552894
C1T980,龍澗,2016-05-24,24.023289,121.411328,2.5439487e-08
C0D670,海天一線,2016-05-24,24.831986,120.914438,0.8808953
C0SA00,歷坵,2016-05-24,22.520969,120.89185,0.89074475
C0M710,東石,2016-05-24,23.458927,120.15385,0.99039
C0M780,鹿草,2016-05-24,23.41134,120.30835,0.9991498
C0U520,雙連埤,2016-05-24,24.753033,121.641303,1.6101804e-07
C0B010,七堵,2016-05-24,25.094819,121.71713,0.99857944
C0R480,長治,2016-05-24,22.693128,120.542622,0.46033433
C1V830,國三S383K,2016-05-24,22.781967,120.426475,0.97186446
12Q980,恆春工作站,2016-05-24,22.079678,120.714425,0.9864208
C1O940,東山服務區,2016-05-24,23.286016,120.398472,0.9992803
C1U840,東澳嶺,2016-05-24,24.5378,121.8485,1.4855664e-06
C1D630,飛鳳山,2016-05-24,24.766464,121.119178,0.000494748
C0S940,石寧山,2016-05-24,23.223772,121.406639,0.9997124
C0K410,北港,2016-05-24,23.573957,120.292802,0.9973278
C2M620,瑞里,2016-05-24,23.545133,120.675197,3.305899e-09
C0SB70,小港漁港,2016-05-24,23.158558,121.400431,0.9989875
C2O950,安南,2016-05-24,23.076694,120.144861,0.23706122
C0F0E0,南湖圈谷,2016-05-24,24.363714,121.444667,2.4247134e-08
467610,成功,2016-05-24,23.097486,121.373428,0.07349079
C0G890,伸港,2016-05-24,24.148933,120.484403,0.9087987
C2E540,龍溪,2016-05-24,24.606489,120.783933,0.9789854
C1V200,梅山,2016-05-24,23.268447,120.823556,1.7235485e-07
C0T9H0,加路蘭山,2016-05-24,23.682947,121.5274,0.54632074
C2O930,玉井,2016-05-24,23.126042,120.46055,0.9993435
C1F911,新伯公,2016-05-24,24.221361,120.841069,7.5906864e-06
C0R490,九如,2016-05-24,22.7405,120.490503,0.9972477
C0X200,左鎮,2016-05-24,23.056758,120.408522,0.9983543
C0SB50,叭嗡嗡,2016-05-24,23.047062,121.343223,0.92435837
C1F891,稍來,2016-05-24,24.265689,121.001142,5.2813607e-09
72N240,七股研究中心,2016-05-24,23.081672,120.062894,0.36612657
C0C700,中壢,2016-05-24,24.977661,121.256375,0.99909693
C0M690,水上,2016-05-24,23.419734,120.388909,0.99894714
C0V690,鼓山,2016-05-24,22.623325,120.275575,0.7519479
C0O860,大內,2016-05-24,23.11885,120.36083,0.99587697
C0Z200,萬榮,2016-05-24,23.709219,121.420106,0.99268734
C0T9D0,和中,2016-05-24,24.26676,121.74103,0.9977398
C1O921,楠西,2016-05-24,23.183511,120.484083,0.99912775
C0AJ30,淡水觀海,2016-05-24,25.184591,121.408616,0.99821806
C0V810,左營,2016-05-24,22.67491,120.28491,0.6250969
C0UA70,桃源谷,2016-05-24,24.962606,121.888875,0.00013049513
C0X130,官田,2016-05-24,23.193217,120.315422,0.9985889
C1H000,翠峰,2016-05-24,24.109397,121.205211,5.8315783e-09
C0UA90,石城,2016-05-24,24.980444,121.951214,0.99981624
C1E681,南勢山,2016-05-24,24.421669,120.923831,3.480103e-09
C0A9F0,內湖,2016-05-24,25.079422,121.57545,0.9987352
C0K291,宜梧,2016-05-24,23.536281,120.169329,0.9888022
C1K540,口湖,2016-05-24,23.585344,120.180517,0.9389678
C0R780,滿州,2016-05-24,22.024403,120.839892,0.9840043
C0V870,文安,2016-05-24,22.8025,120.2164,0.5103955
C0U650,玉蘭,2016-05-24,24.675286,121.587061,4.065381e-06
C0R640,東港,2016-05-24,22.46247,120.44074,0.69322973
K2E360,苗栗農改,2016-05-24,24.495722,120.829111,0.8943299
C0AJ80,板橋,2016-05-24,25.0107,121.4489,0.9989877
C0S660,下馬,2016-05-24,23.150427,121.070312,0.0007397788
C1H9B1,阿眉,2016-05-24,24.1263,120.994672,2.5438698e-09
C0UA20,多加屯,2016-05-24,24.368614,121.373189,9.461687e-09
C0E730,頭份,2016-05-24,24.688247,120.912206,0.9367273
72V140,高改旗南分場,2016-05-24,22.857861,120.516667,0.03776324
C0K480,莿桐,2016-05-24,23.761192,120.502372,0.71330744
C0U980,坪林石牌,2016-05-24,24.86478,121.77396,6.6468476e-07
C0T900,西林,2016-05-24,23.8119,121.441458,0.98296314
C1I150,青雲,2016-05-24,23.793361,120.949378,1.3429801e-08
467350,澎湖,2016-05-24,23.565503,119.563094,0.5121049
C0G800,埔鹽,2016-05-24,24.000394,120.431683,0.90797174
C0H960,草屯,2016-05-24,23.973672,120.68085,0.1828105
C1V780,多納林道,2016-05-24,22.888028,120.737917,1.0080005e-08
C0E920,通霄漁港,2016-05-24,24.498589,120.673876,0.96152353
C0Z330,安通山,2016-05-24,23.290728,121.348528,0.9986366
C0AH10,永和,2016-05-24,25.01125,121.508111,0.99870265
C0AK10,太平里,2016-05-24,25.134937,121.364899,0.9979978
C2G640,鹿港,2016-05-24,24.0753,120.430481,0.9076458
C1E890,國三N149K,2016-05-24,24.463414,120.680019,0.98222023
C1R110,口社,2016-05-24,22.770111,120.645222,0.11101667
C1M870,國三N285K,2016-05-24,23.550319,120.505833,0.034607474
467050,新屋,2016-05-24,25.006744,121.047486,0.047062714
C1E480,鳳美,2016-05-24,24.554803,121.034747,1.7134806e-07
C0M530,奮起湖,2016-05-24,23.493903,120.699253,3.1586893e-09
C0C590,觀音,2016-05-24,25.027072,121.153317,0.9984579
C0T9M0,靜浦,2016-05-24,23.455167,121.495028,0.9995672
C2H9M0,發祥,2016-05-24,24.154094,121.164517,1.7432265e-09
C0AI40,石牌,2016-05-24,25.115597,121.513139,0.9989877
C1F871,上谷關,2016-05-24,24.203483,121.018644,3.4560121e-09
C2H9G0,百勝,2016-05-24,24.051142,120.909361,4.093869e-07
C0G880,二水,2016-05-24,23.810742,120.6173,0.0087918155
C0R940,加祿堂,2016-05-24,22.3363,120.6217,0.085188985
C0W220,北竿,2016-05-24,26.220358,119.974881,0.9968424
C0O960,崎頂,2016-05-24,22.959547,120.369317,0.094330065
C0S750,向陽,2016-05-24,23.248397,120.986133,1.2943674e-08
C0T9F0,水璉,2016-05-24,23.797131,121.542514,0.8063893
C1M600,頭凍,2016-05-24,23.406364,120.603339,8.8014e-09
467660,臺東,2016-05-24,22.752211,121.154586,0.74549335
C1D380,新埔,2016-05-24,24.84745,121.03834,0.99598706
C2G980,田頭村,2016-05-24,23.8263,120.444175,0.9907675
C0V750,路竹,2016-05-24,22.854997,120.259439,0.9958885
C0N050,蚵寮,2016-05-24,23.301,120.1104,0.96988434
72M700,南改鹿草分場,2016-05-24,23.416869,120.283061,0.999118
C1SA50,利嘉林道,2016-05-24,22.82325,121.009389,2.417477e-08
467550,玉山,2016-05-24,23.487614,120.959522,2.4102533e-08
C0A940,金山,2016-05-24,25.223628,121.643967,0.9992101
C1V340,大津,2016-05-24,22.888322,120.645986,0.94040656
C0W180,七美,2016-05-24,23.219333,119.444892,0.49084413
C1F9C1,白冷,2016-05-24,24.182844,120.929889,1.2804745e-07
K2E710,苗改生物防治研究中心,2016-05-24,24.422861,120.871833,0.9955475
C0N040,蘆竹溝,2016-05-24,23.2344,120.0961,0.96988434
C2W230,畜試所澎湖,2016-05-24,23.628342,119.513206,0.40002117
C0R880,後壁湖,2016-05-24,21.9457,120.7457,0.98677206
C1I280,埔中,2016-05-24,23.820778,120.642594,1.0438104e-06
467790,墾丁雷達站,2016-05-24,21.948235,120.808028,0.9835656
C0W190,望安,2016-05-24,23.380564,119.494075,0.59082407
466881,新北,2016-05-24,24.9593,121.52,0.9987355
C0Z170,卓溪,2016-05-24,23.3443,121.3029,0.99959105
C0F850,東勢,2016-05-24,24.246428,120.833047,0.00014980882
466900,淡水,2016-05-24,25.164889,121.448906,0.9985013
C0I370,魚池,2016-05-24,23.895703,120.94135,4.152732e-09
C0C630,大溪,2016-05-24,24.882853,121.265547,0.9810161
C0A520,山佳,2016-05-24,24.974944,121.402008,0.999132
C0I110,竹山,2016-05-24,23.761225,120.688156,0.00010557353
82H840,茶改南部分場,2016-05-24,23.762528,120.7405,2.2966315e-08
C0G660,溪湖,2016-05-24,23.94835,120.479122,0.9941334
C1T800,洛韶,2016-05-24,24.204558,121.453956,6.2774944e-08
C1T810,慈恩,2016-05-24,24.192044,121.388386,7.511255e-09
C1E451,象鼻,2016-05-24,24.368617,120.940228,3.4765868e-09
C0AC60,三峽,2016-05-24,24.939025,121.369728,0.9986989
C0I490,萬大林道,2016-05-24,23.928228,121.091411,5.2712066e-09
C1I290,豐丘,2016-05-24,23.668178,120.887417,5.113562e-09
C1I320,奧萬大,2016-05-24,23.952956,121.178556,1.5844551e-09
C2M910,嘉義大學,2016-05-24,23.471325,120.485903,0.7375815
C0U770,南澳,2016-05-24,24.44935,121.81022,0.9977431
C0A980,社子,2016-05-24,25.109508,121.469681,0.9987196
C0V800,六龜,2016-05-24,22.997889,120.633583,0.05055446
C1G9D0,國一S218K,2016-05-24,23.890641,120.493253,0.9950788
C0E570,白沙屯,2016-05-24,24.549447,120.696803,0.96152353
C2F9A0,中竹林,2016-05-24,24.103556,120.751061,9.381776e-08
C0FA40,臺中電廠,2016-05-24,24.2146,120.4907,0.88840145
C2G9A0,畜試所彰化,2016-05-24,23.86045,120.557964,0.8202753
C0H9C0,合歡山,2016-05-24,24.143442,121.272547,1.3425268e-08
C0X060,下營,2016-05-24,23.22695,120.256261,0.9982704
G2M350,農試溪口農場,2016-05-24,23.58565,120.408111,0.997903
C0U860,頭城,2016-05-24,24.85323,121.8308,0.99591666
C0R580,南州,2016-05-24,22.48591,120.50274,0.194211
C0D430,峨眉,2016-05-24,24.6905,121.017189,0.99493194
C0G780,秀水,2016-05-24,24.03405,120.503869,0.9789171
72N100,臺南農改場,2016-05-24,23.0605,120.342194,0.99848783
C0S900,蘭嶼高中,2016-05-24,22.04909,121.51214,0.5508451
467540,大武,2016-05-24,22.355675,120.903789,0.12626426
C1F9W0,德基,2016-05-24,24.254783,121.190261,2.8304048e-09
C1Z120,壽豐,2016-05-24,23.870853,121.508081,0.9969899
C0W160,烏坵,2016-05-24,24.9944,119.44956,0.8218057
C1I240,外大坪,2016-05-24,23.958697,120.917931,3.3731988e-09
C1I550,國六W023K,2016-05-24,23.979067,120.867742,1.2658522e-07
C0R870,興海,2016-05-24,21.9752,120.8439,0.98545265
C0R140,瑪家,2016-05-24,22.682903,120.686639,0.3468226
C0A530,坪林,2016-05-24,24.938183,121.70975,0.08496167
C0X260,後壁,2016-05-24,23.366358,120.362326,0.99739844
C0Z230,和平,2016-05-24,24.30717,121.77007,0.9977419
C0G770,福興,2016-05-24,24.041289,120.437669,0.90797174
C0H9A0,神木村,2016-05-24,23.532742,120.843667,9.469722e-09
C0I460,南投,2016-05-24,23.911469,120.687331,0.0018938811
C0I480,梅峰,2016-05-24,24.085272,121.173572,3.6504573e-09
C1V570,吉東,2016-05-24,22.85422,120.5454,0.019717652
C2D740,屯原,2016-05-24,24.067969,121.209389,2.8540679e-09
C2A560,福山,2016-05-24,24.776203,121.502811,1.2826096e-07
C0AH30,五分山,2016-05-24,25.07125,121.780794,9.340359e-07
C0FA10,松柏,2016-05-24,24.429115,120.617482,0.89756477
72S200,東改班鳩分場,2016-05-24,22.829528,121.077694,0.9910848
72HA00,中改埔里分場,2016-05-24,23.903208,120.963364,4.625573e-09
C2H9W0,大坪頂農水,2016-05-24,24.043122,120.932781,3.5452172e-09
C0C650,平鎮,2016-05-24,24.897503,121.214636,0.99640346
C0S930,延平,2016-05-24,22.902581,121.084058,0.9970588
C0UA60,樟樹山,2016-05-24,24.41393,121.78325,0.00012110944
C1S670,摩天,2016-05-24,23.199503,121.027,4.4285624e-08
C0V630,茄萣,2016-05-24,22.906642,120.182608,0.8494931
466940,基隆,2016-05-24,25.133314,121.740475,0.99778104
C0X050,東河,2016-05-24,23.296598,120.385608,0.9993355
C0R770,保力,2016-05-24,22.071122,120.764111,0.98176616
G2L020,農試嘉義分所,2016-05-24,23.485028,120.473806,0.4461092
C0X240,關子嶺,2016-05-24,23.331169,120.508025,7.195619e-08
C0I380,集集,2016-05-24,23.828206,120.801467,2.0748067e-07
466990,花蓮,2016-05-24,23.975128,121.613275,0.99623114
C1V220,小關山,2016-05-24,23.154217,120.813603,1.0337149e-08
C1F9G1,慶福山,2016-05-24,24.180853,120.848378,7.829382e-09
C0Z250,瑞穗林道,2016-05-24,23.49284,121.30688,7.386115e-07
C0D590,新豐,2016-05-24,24.87068,120.97721,0.06031299
C0A870,五指山,2016-05-24,25.132153,121.608692,8.473816e-06
C0UA50,西帽山,2016-05-24,24.555361,121.802628,4.7445295e-07
C0X160,仁德,2016-05-24,22.968258,120.257689,0.99848545
C1H971,六分寮,2016-05-24,23.92507,120.6378,2.00063e-08
C0W120,西嶼,2016-05-24,23.5626,119.468436,0.5121049
C0G650,員林,2016-05-24,23.946503,120.585597,0.9991132
C0AD50,鶯歌,2016-05-24,24.951533,121.346294,0.99923337
C2H9Q0,北東眼山,2016-05-24,24.120939,121.189303,2.789278e-09
C2H9T0,名間竹圍,2016-05-24,23.859914,120.637572,3.6719186e-08
C0S990,山豬窟,2016-05-24,22.318619,120.857372,0.027512588
72Q010,高雄農改,2016-05-24,22.709333,120.525889,0.9972481
C0X190,安平,2016-05-24,22.993161,120.152181,0.5369853
C0K400,斗六,2016-05-24,23.720583,120.541127,0.17505491
12J990,口湖工作站,2016-05-24,23.589978,120.180394,0.94633615
C0O830,北寮,2016-05-24,23.079561,120.495008,0.037397373
C1D410,白蘭,2016-05-24,24.579364,121.079947,6.7981336e-09
C0S970,加津林,2016-05-24,22.416211,120.926942,0.11041913
C0D700,關西,2016-05-24,24.7977,121.1732,0.9974471
C0M810,里佳,2016-05-24,23.389125,120.716647,3.1586893e-09
C0U750,龜山島,2016-05-24,24.841667,121.953133,0.8033208
C0R810,內獅,2016-05-24,22.305064,120.642986,0.085188985
C1M390,龍美,2016-05-24,23.406728,120.654417,4.825088e-09
C2FB60,頭櫃山,2016-05-24,24.129842,120.858925,2.5585507e-09
C1H840,國三N238K,2016-05-24,23.841008,120.707711,1.3798673e-07
CAQ030,崎峰國小,2016-05-24,22.42565,120.49521,0.194211
C2E520,大湖,2016-05-24,24.414939,120.870872,0.947597
467530,阿里山,2016-05-24,23.508208,120.813242,9.860823e-09
C1E691,南湖,2016-05-24,24.40135,120.837533,1.4728301e-08
C0FA30,梧棲,2016-05-24,24.256003,120.523381,0.88840145
C1V231,高中,2016-05-24,23.134911,120.716711,9.831417e-08
C0F9V0,新社,2016-05-24,24.200172,120.815806,9.352761e-08
C0H890,埔里,2016-05-24,23.972169,120.952425,5.860372e-06
C0R690,墾丁,2016-05-24,21.966756,120.810269,0.95735294
C0F0D0,審馬陣,2016-05-24,24.381675,121.4203,1.6858117e-08
C0R820,白鷺,2016-05-24,22.454275,120.666219,0.21445657
U2H480,臺大溪頭,2016-05-24,23.670306,120.798194,7.67824e-09
C1V190,南天池,2016-05-24,23.27403,120.91176,1.29229525e-08
K2E360,苗栗農改場,2016-05-24,24.495722,120.829111,0.8943299
CAJ050,海口故事園區,2016-05-24,23.57543,120.14121,0.9389678
C2H9D0,三隻寮,2016-05-24,24.093078,120.861578,3.2190235e-09
C0O990,媽廟,2016-05-24,22.99175,120.293525,0.9985666
C0D480,打鐵坑,2016-05-24,24.849664,121.150789,0.50720304
C0Z220,和平林道,2016-05-24,24.343922,121.656317,8.653818e-05
C0TA10,花蓮漁港,2016-05-24,23.995322,121.638331,0.9966257
72C440,桃園農改場,2016-05-24,24.950944,121.030583,0.05093947
C1E711,馬拉邦山,2016-05-24,24.367306,120.901656,1.3014002e-08
C0SB20,富岡,2016-05-24,22.792467,121.192669,0.7815138
C0D560,竹東,2016-05-24,24.767147,121.057881,0.9982816
C0F9U0,南屯,2016-05-24,24.137006,120.637969,0.9912552
C0M720,番路,2016-05-24,23.464657,120.554156,0.0067602033
C0F0A0,雪山圈谷,2016-05-24,24.388594,121.236339,1.9702593e-08
C1A9N0,四十份,2016-05-24,24.934158,121.593283,1.6832651e-05
C0U760,東澳,2016-05-24,24.52196,121.83318,0.9959278
C0X230,鹽水,2016-05-24,23.272621,120.247641,0.93952274
C2H9H0,苗改南投蜂場,2016-05-24,23.852589,120.693481,7.572431e-05
C0R950,萬隆國小,2016-05-24,22.507667,120.587817,0.071342625
C0V370,古亭坑,2016-05-24,22.893178,120.401947,0.9994385
C1I340,新興橋,2016-05-24,23.563333,120.868728,5.400328e-09
C0SA80,土坂,2016-05-24,22.453108,120.887572,0.91472256
C0R160,鹽埔,2016-05-24,22.739558,120.530778,0.44983372
C0AC40,大屯山,2016-05-24,25.175675,121.522408,1.2354455e-07
466850,五分山雷達站,2016-05-24,25.071182,121.781205,8.434603e-07
C2H9L0,馬烈霸,2016-05-24,24.1512,121.201772,2.7421716e-09
C1AI50,國三N016K,2016-05-24,25.034164,121.619664,0.9986718
C1V600,藤枝,2016-05-24,23.071961,120.757042,1.6472374e-08
C1E601,南勢,2016-05-24,24.572486,120.734842,0.98686916
C0Z180,新城,2016-05-24,24.03946,121.60454,0.9955269
C0O980,新市,2016-05-24,23.061614,120.298197,0.9980031
C0K420,西螺,2016-05-24,23.800407,120.467394,0.75338423
C0Z050,佳心,2016-05-24,23.34567,121.21316,4.0797473e-05
C0AD30,蘆洲,2016-05-24,25.086594,121.472331,0.99892616
C0V610,梓官,2016-05-24,22.760558,120.267211,0.83267975
K2F750,種苗改良場,2016-05-24,24.225972,120.800917,4.901883e-07
C0UA80,大溪漁港,2016-05-24,24.941801,121.902955,0.99554855
C1AI60,國一39K邊坡,2016-05-24,25.064361,121.383836,0.9996496
C0W150,金寧,2016-05-24,24.457703,118.328989,0.85536957
C0R960,內埔,2016-05-24,22.608483,120.570714,0.054669667
V2C250,八德合作社,2016-05-24,24.93775,121.266389,0.9973543
C2H9S0,龍南,2016-05-24,23.953536,120.833183,2.119738e-09
C0AH40,平等,2016-05-24,25.129142,121.577086,0.23621517
C0R540,佳冬,2016-05-24,22.419456,120.552375,0.19430695
466950,彭佳嶼,2016-05-24,25.627975,122.079744,0.99948686
C0A890,雙溪,2016-05-24,25.036003,121.864242,0.99895525
C0C480,桃園,2016-05-24,24.992425,121.323172,0.99894667
C0AH50,林口,2016-05-24,25.072181,121.38084,0.9993984
A2K360,水試臺西試驗場,2016-05-24,23.717231,120.190522,0.83814394
B2N890,畜試所,2016-05-24,23.058972,120.336406,0.99848783
C2M960,外寮,2016-05-24,23.562643,120.665688,3.1456366e-09
C0F9S0,烏日,2016-05-24,24.107058,120.624103,0.99584013
C0C490,八德,2016-05-24,24.928708,121.283289,0.9914086
C0R190,赤山,2016-05-24,22.592333,120.614306,0.06971712
C0T820,天祥,2016-05-24,24.179597,121.495639,0.015750255
C1F9E1,龍安,2016-05-24,24.1605,120.831961,4.9551403e-08
C0V820,小林,2016-05-24,23.148408,120.63325,2.6947164e-06
C2G870,芳苑,2016-05-24,23.922303,120.320025,0.85662204
C0E850,大河,2016-05-24,24.618069,120.948578,0.9815254
C1U670,寒溪,2016-05-24,24.634,121.71691,0.9996472
C0N020,城西,2016-05-24,23.0568,120.0956,0.38886288
C1Z110,三棧,2016-05-24,24.11557,121.60501,0.00054060516
C0R280,檳榔,2016-05-24,22.076078,120.836777,0.96111244
C2H9J0,中台,2016-05-24,23.9996,120.938739,1.2667157e-07
C0F9L0,后里,2016-05-24,24.310436,120.729725,0.99319446
C0D540,橫山,2016-05-24,24.71116,121.11693,0.9890608
C1D420,太閣南,2016-05-24,24.632808,121.160575,6.86854e-09
C1E770,公館,2016-05-24,24.526914,120.830806,0.9861375
CAN130,水試所海水繁養殖中心,2016-05-24,23.120802,120.07968,0.3659587
C1I430,翠華,2016-05-24,24.191961,121.224339,6.787898e-09
C1M400,菜瓜坪,2016-05-24,23.251928,120.576103,1.8299754e-05
C0G730,二林,2016-05-24,23.903325,120.376081,0.9053954
72M360,南改義竹分場,2016-05-24,23.360694,120.279361,0.9985377
V2K620,麥寮合作社,2016-05-24,23.753836,120.294783,0.90413076
C0Z070,舞鶴,2016-05-24,23.46811,121.37407,0.99886334
C0B040,大武崙,2016-05-24,25.166676,121.706993,0.99857944
C1Z030,紅葉,2016-05-24,23.493119,121.338806,0.9994865
C1I050,丹大,2016-05-24,23.753747,121.141147,1.3461242e-08
C0I080,信義,2016-05-24,23.689694,120.851036,3.0296e-08
C2M920,朴子農改,2016-05-24,23.469889,120.259383,0.9990125
C2A880,福隆,2016-05-24,25.017842,121.942083,0.9998456
C0Z160,鳳林,2016-05-24,23.746114,121.453411,0.99932057
C0V210,復興,2016-05-24,23.222403,120.806089,2.0416421e-06
C0H990,昆陽,2016-05-24,24.121322,121.273642,1.0674219e-08
C0R741,獅子,2016-05-24,22.202308,120.705236,0.005329257
C0S710,鹿野,2016-05-24,22.917711,121.122994,0.9781797
C0I530,小奇萊,2016-05-24,24.131764,121.295717,1.0835202e-08
C2K630,荷苞,2016-05-24,23.657717,120.595144,0.0043202904
C0Z080,富源,2016-05-24,23.587642,121.378225,0.99902916
467441,高雄,2016-05-24,22.7304,120.3125,0.6250969
C0SB10,美和,2016-05-24,22.682078,121.060236,0.51700604
C2K620,馬光農場,2016-05-24,23.721453,120.378864,0.9812249
C1I140,卡奈托灣,2016-05-24,23.754364,121.087872,6.133033e-09
C0I520,玉山風口,2016-05-24,23.470489,120.955994,2.485568e-08
C1G691,下水埔,2016-05-24,23.816114,120.5676,0.081963144
C0X110,臺南市南區,2016-05-24,22.961189,120.188378,0.5625337
C0V680,仁武,2016-05-24,22.701083,120.347722,0.6427938
C2G840,北斗,2016-05-24,23.877586,120.514222,0.995258
C0R900,竹坑,2016-05-24,22.1385,120.7022,0.006776764
C0K250,崙背,2016-05-24,23.75555,120.318925,0.9028408
C0G860,社頭,2016-05-24,23.897647,120.5862,0.99912035
C0X150,安定,2016-05-24,23.102614,120.227839,0.55411786
C0R590,里港,2016-05-24,22.77919,120.49459,0.118206754
C0E610,馬都安,2016-05-24,24.451272,120.930192,1.3688118e-07
C0E550,明德,2016-05-24,24.583486,120.885411,0.97331506
C0R150,三地門,2016-05-24,22.709889,120.639944,0.22974579
C0G910,花壇,2016-05-24,24.032076,120.549461,0.9850561
C1D400,鳥嘴山,2016-05-24,24.71909,121.28387,3.177017e-08
C0K500,元長,2016-05-24,23.64981,120.315024,0.9875876
C0F0B0,石岡,2016-05-24,24.276061,120.777644,6.0954073e-05
C2V250,甲仙,2016-05-24,23.080106,120.591758,7.441454e-07
C0SA20,金崙山,2016-05-24,22.567419,120.959667,0.0024761881
C0V350,溪埔,2016-05-24,22.738578,120.446797,0.9938526
C0M660,溪口,2016-05-24,23.604131,120.403569,0.997903
C1S880,壽卡,2016-05-24,22.238911,120.858903,0.114033364
72D680,桃改新埔分場,2016-05-24,24.834444,121.066111,0.9970608
