站號,站名,日期,lat,lon,BLBTSLS
C0R710,龍磐,2016-10-02,21.931672,120.838942,0.048879266
C1F9D1,白毛台,2016-10-02,24.158325,120.886933,0.00094327773
C0G940,竹塘,2016-10-02,23.848253,120.386764,0.7285031
467590,恆春,2016-10-02,22.003897,120.746339,0.05399314
C1O850,環湖,2016-10-02,23.148617,120.418633,0.0060586995
C0U710,太平山,2016-10-02,24.505486,121.525656,2.612093e-07
C0E820,獅潭,2016-10-02,24.539133,120.920042,0.82751787
C0V880,興達,2016-10-02,22.8778,120.2127,6.436494e-08
C0S890,關山,2016-10-02,23.0395,121.175017,0.004463375
C0SB30,新蘭,2016-10-02,22.869214,121.223228,0.12648426
C2R970,屏科大,2016-10-02,22.648275,120.619247,2.5125262e-09
K2F750,種苗繁殖,2016-10-02,24.225972,120.800917,0.033564843
C1Z130,銅門,2016-10-02,23.965694,121.492842,0.9940524
C0AD40,土城,2016-10-02,24.973208,121.445169,0.23569919
CAN140,六官養殖協會,2016-10-02,23.22881,120.29962,0.0061618984
C0X180,山上,2016-10-02,23.0757,120.363253,2.0824287e-07
C0F9Z0,雪山東峰,2016-10-02,24.388792,121.268675,3.350054e-08
C1M480,獨立山,2016-10-02,23.537022,120.607797,7.0769e-09
C0X220,學甲,2016-10-02,23.230367,120.182187,0.5432686
467650,日月潭,2016-10-02,23.881325,120.90805,7.2580844e-09
C0K600,箔子寮,2016-10-02,23.6197,120.14,0.28146428
C0G830,埤頭,2016-10-02,23.866003,120.452806,0.854902
C0S950,七塊厝,2016-10-02,22.954453,121.229922,0.87856436
467110,金門,2016-10-02,24.407306,118.289281,0.998961
C0AH80,深坑,2016-10-02,25.002703,121.628328,0.9742178
467990,馬祖,2016-10-02,26.169269,119.923419,0.005694813
C0A970,三貂角,2016-10-02,25.007606,122.002058,0.15577471
C2D730,寶山農場,2016-10-02,24.732444,120.976153,0.5764536
C0K430,褒忠,2016-10-02,23.690938,120.303634,0.36235347
467480,嘉義,2016-10-02,23.495925,120.432906,0.93259186
C2E540,後龍,2016-10-02,24.606489,120.783933,0.05565006
C0V400,阿公店,2016-10-02,22.804194,120.355528,1.3774836e-09
C0R440,大漢山,2016-10-02,22.405264,120.753181,1.4083763e-08
C0K280,四湖,2016-10-02,23.630414,120.227125,0.07305515
C1F9B1,桐林,2016-10-02,24.066172,120.735194,0.9140137
C2H9U0,鳳鵬,2016-10-02,23.763919,120.788061,4.1693957e-06
C0K390,土庫,2016-10-02,23.679029,120.395574,0.91912913
C1I450,望鄉山,2016-10-02,23.594153,120.944286,2.1301876e-08
C0E910,海埔,2016-10-02,24.648767,120.772435,0.15668826
B2E890,畜試北區分所,2016-10-02,24.527806,120.770972,0.032718852
C0R750,四林格山,2016-10-02,22.076989,120.802439,0.07211519
C0F0C0,中坑,2016-10-02,24.248517,120.903319,3.2703545e-05
C1I121,大鞍,2016-10-02,23.678381,120.760017,1.8127215e-08
72U480,花改蘭陽分場,2016-10-02,24.686306,121.716583,0.13225494
C0A770,科教館,2016-10-02,25.096356,121.516507,0.21943375
C0AJ60,六塊厝,2016-10-02,25.24,121.4481,0.5991069
C0R620,墾雷,2016-10-02,21.900836,120.855269,0.054056525
467420,永康,2016-10-02,23.038386,120.2367,1.604798e-07
467300,東吉島,2016-10-02,23.25695,119.667467,0.0529584
C0I410,名間,2016-10-02,23.837053,120.701447,0.22576477
A2C560,農工中心,2016-10-02,24.985917,121.239833,0.4892083
C0V740,旗山,2016-10-02,22.888614,120.483597,2.7211861e-08
C0Z061,玉里,2016-10-02,23.3215,121.339656,0.34722462
C0S840,南田,2016-10-02,22.279725,120.889208,0.024326093
C1I470,杉林溪,2016-10-02,23.639517,120.786444,1.7602506e-08
C1X040,東原,2016-10-02,23.291597,120.463822,1.0831424e-05
C0R660,枋寮,2016-10-02,22.367722,120.590647,2.9973082e-09
C1R120,上德文,2016-10-02,22.763272,120.704442,1.4102956e-08
C0K450,大埤,2016-10-02,23.646074,120.431537,0.9381198
C0UA00,土場,2016-10-02,24.576533,121.495333,0.9925256
467080,宜蘭,2016-10-02,24.763975,121.756528,0.99244434
C0N030,四草,2016-10-02,23.0235,120.1116,0.13796778
C0V650,彌陀,2016-10-02,22.783806,120.246361,5.467384e-09
C0D660,新竹市東區,2016-10-02,24.798681,120.986942,0.86030877
82S580,茶改東部分場,2016-10-02,22.907694,121.130139,0.6511636
C0SB40,興隆,2016-10-02,22.913661,121.257469,0.20184642
C0C710,大溪永福,2016-10-02,24.892936,121.324975,0.3933325
C0FA20,溫寮,2016-10-02,24.372177,120.583125,0.015909849
C0V640,湖內,2016-10-02,22.887139,120.2445,4.7709957e-08
C0R910,下寮,2016-10-02,22.3929,120.5548,4.0502792e-09
C0Z020,明里,2016-10-02,23.208717,121.262342,0.9604337
C0M770,嘉義梅山,2016-10-02,23.585398,120.555587,0.9802411
G2F820,農業試驗所,2016-10-02,24.031261,120.688133,0.96024907
C0C660,楊梅,2016-10-02,24.912375,121.143047,0.27637744
C1E511,新開,2016-10-02,24.347703,120.827019,1.5368025e-07
G2F820,農試所(霧峰),2016-10-02,24.031261,120.688133,0.96024907
C1I070,和社,2016-10-02,23.591131,120.888861,9.600794e-09
C2F000,大肚,2016-10-02,24.15295,120.572117,0.0012778499
C1S850,豐南,2016-10-02,23.122139,121.262389,0.95236236
C2A920,富貴角,2016-10-02,25.263783,121.565258,0.3685307
CAH030,茶改場竹圍站,2016-10-02,23.860083,120.637528,2.2090813e-07
C0T960,光復,2016-10-02,23.660694,121.424964,0.99157697
C0F9M0,豐原,2016-10-02,24.254322,120.720692,0.96398294
C0R720,旭海,2016-10-02,22.205403,120.887614,0.041097175
C0V710,苓雅,2016-10-02,22.622742,120.330669,7.0058537e-09
C0C740,觀音工業區,2016-10-02,25.064764,121.114856,0.93080765
CAC040,拉拉山,2016-10-02,24.699317,121.427133,2.5154702e-06
C0V790,萬山,2016-10-02,22.905944,120.688056,2.6466644e-09
U2HA30,臺大和社,2016-10-02,23.590856,120.888864,9.600794e-09
C0AJ90,澳底,2016-10-02,25.0552,121.9253,0.09417544
C0Z100,東華,2016-10-02,23.89525,121.549833,0.97570366
C0G970,三豐,2016-10-02,23.882,120.2895,0.016349636
V2K610,大庄合作社,2016-10-02,23.8068,120.367939,0.49811354
C0V900,汕尾,2016-10-02,22.4782,120.4151,1.4305733e-09
C1R630,龍泉,2016-10-02,22.66701,120.59091,1.0132586e-09
C1AC50,關渡,2016-10-02,25.133486,121.469331,0.17167816
C0F9I0,神岡,2016-10-02,24.272481,120.658314,0.9607123
C0K460,斗南,2016-10-02,23.678734,120.478359,0.97873485
467410,臺南,2016-10-02,22.993239,120.204772,1.5203618e-07
C2O810,曾文,2016-10-02,23.219681,120.497328,0.0032817945
467280,後龍,2016-10-02,24.648563,120.831834,0.19973427
C1F9J1,清水林,2016-10-02,24.071242,120.820419,2.0624475e-09
C2A650,火燒寮,2016-10-02,25.002719,121.742892,0.72656703
466930,竹子湖,2016-10-02,25.162078,121.544547,0.99877834
C1I220,樟湖,2016-10-02,23.905333,120.846983,5.6197385e-09
C0I390,仁愛,2016-10-02,24.022122,121.132206,5.7326006e-09
C0Z300,東里,2016-10-02,23.26853,121.30547,0.46648666
C1V590,新發,2016-10-02,23.057019,120.646064,1.2961363e-08
C0K510,水林,2016-10-02,23.572924,120.24597,0.3230143
72S590,東改賓朗果園,2016-10-02,22.813889,121.071278,0.106538035
82A750,茶改北部分場,2016-10-02,24.955778,121.631222,0.9924257
C1A750,石碇服務區,2016-10-02,25.00872,121.646242,0.9803786
C0X300,鹿寮,2016-10-02,23.386047,120.477331,0.86084044
G2AI50,關渡,2016-10-02,25.11575,121.492,0.21155407
C0K590,雲林東勢,2016-10-02,23.674192,120.255721,0.36235347
C0A570,桶後,2016-10-02,24.848222,121.597992,0.99946517
C1S800,華源,2016-10-02,22.657883,121.02325,0.26347163
C0G720,溪州,2016-10-02,23.851589,120.499093,0.89162153
C1V160,達卡努瓦,2016-10-02,23.279811,120.705319,2.9250694e-08
C2M410,馬頭山,2016-10-02,23.324361,120.582017,8.806374e-08
C0V850,蚵仔寮,2016-10-02,22.7256,120.2527,1.18006e-08
C0S740,池上,2016-10-02,23.119628,121.209469,0.8327469
C1V390,尖山,2016-10-02,22.813153,120.367789,1.3028625e-09
C0AH70,松山,2016-10-02,25.04871,121.55042,0.9405025
C0N010,鯤鯓國小,2016-10-02,23.1879,120.0889,0.19137388
C0R550,新埤,2016-10-02,22.467947,120.582894,1.2457542e-09
C0SA60,知本（水試所）,2016-10-02,22.702394,121.082761,0.5814994
C0T9I0,豐濱,2016-10-02,23.583897,121.514806,0.44536984
C0UB00,淡江大學蘭陽校園,2016-10-02,24.823239,121.730383,0.9921983
C0W240,九宮,2016-10-02,24.423753,118.240186,0.95903105
C0T9N0,富里,2016-10-02,23.171639,121.249378,0.75722253
U2HA50,臺大竹山,2016-10-02,23.756972,120.681556,0.022090202
C0V840,鳳鼻頭,2016-10-02,22.5083,120.3591,7.5137905e-09
C0X140,西港,2016-10-02,23.125608,120.203108,0.42980987
72D080,桃改五峰分場,2016-10-02,24.612194,121.157167,1.3402098e-06
C2H9P0,伊拿谷,2016-10-02,23.963211,121.088264,1.6409647e-09
C2H9F0,柑林,2016-10-02,24.018658,120.847072,3.315463e-06
C0TA20,加灣,2016-10-02,24.082025,121.608944,0.9950451
C0V530,阿蓮,2016-10-02,22.883208,120.327508,2.9696523e-09
C1O880,關山,2016-10-02,23.173397,120.594092,3.5293144e-07
C0E791,卓蘭,2016-10-02,24.3126,120.8244,1.3188816e-07
C1I030,武界,2016-10-02,23.913225,121.052483,6.5697767e-09
C0R520,崁頂,2016-10-02,22.514781,120.506914,3.9391588e-09
C0R341,牡丹,2016-10-02,22.130036,120.792639,0.00060184137
C0R930,萬丹,2016-10-02,22.5885,120.4851,1.254639e-09
C0S760,紅石,2016-10-02,23.069131,121.126219,1.7168723e-08
C1M610,石磐龍,2016-10-02,23.496606,120.663506,8.5744905e-09
C0UA10,鴛鴦湖,2016-10-02,24.590269,121.412228,8.048986e-08
V2C260,八德蔬果,2016-10-02,24.978508,121.281819,0.14571017
C0R800,丹路,2016-10-02,22.204481,120.750989,5.2496002e-06
C0G920,永靖,2016-10-02,23.924703,120.547533,0.27460727
C2M950,太和,2016-10-02,23.538372,120.702961,7.878847e-09
C1A630,下盆,2016-10-02,24.771003,121.538622,0.89983827
B2N890,畜產試驗所,2016-10-02,23.058972,120.336406,2.5124351e-09
C0UA30,白嶺,2016-10-02,24.527819,121.519031,0.008186868
C1V580,溪南(特生中心),2016-10-02,23.084972,120.788475,1.8777161e-08
C1T970,大農,2016-10-02,23.615233,121.413331,0.99708116
E2S960,林試太麻里2,2016-10-02,22.598014,120.989761,2.5039336e-07
C0R650,竹田,2016-10-02,22.58486,120.54344,1.2562865e-09
C1H900,清流,2016-10-02,24.080775,120.962997,1.8117043e-09
C1C510,水尾,2016-10-02,24.940081,121.087161,0.67370445
C0F9X0,大雅(中科園區),2016-10-02,24.21528,120.62445,0.5488379
C0SB60,白守蓮,2016-10-02,23.126769,121.401914,0.0039553232
C0O970,虎頭埤,2016-10-02,23.021375,120.347878,0.00036885648
C0C730,中大臨海站,2016-10-02,24.966126,121.008581,0.9898221
C0X250,新營,2016-10-02,23.310689,120.316681,0.00036533427
C0V700,三民,2016-10-02,22.645017,120.311233,7.0058537e-09
C0U870,大礁溪,2016-10-02,24.791042,121.675047,0.99293387
C0E870,高鐵苗栗,2016-10-02,24.60725,120.826094,0.05620084
A2K570,古坑花卉中心,2016-10-02,23.63353,120.55239,0.97469324
C0M860,新美,2016-10-02,23.338017,120.683169,6.848238e-09
C1E701,八卦,2016-10-02,24.491756,120.927619,0.89789176
C0I420,國姓,2016-10-02,24.037803,120.855072,3.4682635e-08
C2D720,關西工作站,2016-10-02,24.757275,121.184792,0.14726178
C0S960,香蘭,2016-10-02,22.587569,120.993375,2.5039336e-07
C0R260,春日,2016-10-02,22.370361,120.628306,1.5342603e-07
72G600,臺中農改場,2016-10-02,24.003028,120.534389,0.04295588
C0Z210,瑞穗,2016-10-02,23.5239,121.39021,0.14220065
C0M820,達邦,2016-10-02,23.453994,120.749517,5.8542353e-09
C0V860,南寮,2016-10-02,22.7616,120.2339,6.2216583e-09
C0G740,大城,2016-10-02,23.852487,120.320935,0.01797178
C0R920,塭仔,2016-10-02,22.4169,120.5197,4.397853e-09
C0R470,高樹,2016-10-02,22.826389,120.600806,9.182847e-10
C0R680,佳樂水,2016-10-02,21.993578,120.861633,0.055189352
C1O870,大棟山,2016-10-02,23.31157,120.52226,7.1331665e-09
C0D360,梅花,2016-10-02,24.678347,121.208558,0.7636959
C0Z190,富世,2016-10-02,24.14743,121.6297,0.5528999
C0AI10,屈尺,2016-10-02,24.92184,121.54475,0.9742178
B2U990,畜試東區分所,2016-10-02,24.669039,121.832561,0.16821313
C0SB80,長濱漁港,2016-10-02,23.313644,121.459994,0.013539389
C0R240,來義,2016-10-02,22.527306,120.625111,1.02725075e-07
C0V910,大樹,2016-10-02,22.684645,120.432803,2.3693798e-09
C1R610,西大武山,2016-10-02,22.617719,120.7322,1.4077505e-08
C0G900,線西,2016-10-02,24.143358,120.443536,0.018953346
C0M700,竹崎,2016-10-02,23.526178,120.555508,0.48780996
C2E880,三義,2016-10-02,24.405478,120.749819,5.2572e-05
C0C720,竹圍,2016-10-02,25.112692,121.239824,0.541021
C0F9P0,清水,2016-10-02,24.312297,120.562242,0.035038173
C0Z150,吉安光華,2016-10-02,23.930925,121.595153,0.9546313
C1D640,外坪(五指山),2016-10-02,24.644447,121.090961,0.8676504
C0F9O0,潭子,2016-10-02,24.213106,120.703933,0.9541089
C2H9R0,卓社,2016-10-02,23.887894,121.000086,7.2731896e-09
72T250,花蓮農改場,2016-10-02,23.975222,121.563889,0.9959064
C0E780,銅鑼,2016-10-02,24.489681,120.790853,0.80098945
C1T950,太安,2016-10-02,23.666719,121.370128,5.566381e-08
C0E830,苑裡,2016-10-02,24.439714,120.653053,0.018773777
467270,田中,2016-10-02,23.873803,120.581286,0.91397154
C0SA10,檳榔四格山,2016-10-02,22.810031,121.109308,0.032644093
C1T830,布洛灣,2016-10-02,24.17184,121.57127,0.98465747
C0F970,大坑,2016-10-02,24.173142,120.722289,0.9543444
C1U920,思源,2016-10-02,24.393125,121.347214,2.430931e-07
C0A931,三和,2016-10-02,25.233153,121.595236,0.08608464
C0I010,廬山,2016-10-02,24.033311,121.181808,9.575356e-09
C2M940,日野賀,2016-10-02,23.434056,120.727169,7.734507e-09
C0R860,鼻頭,2016-10-02,22.1043,120.8979,0.26469383
C0UB20,壯圍,2016-10-02,24.7359,121.8163,0.16821313
C0R790,九棚,2016-10-02,22.14195,120.889281,0.021670882
C0W110,東莒,2016-10-02,25.9652,119.98069,0.9427633
C1U930,粉鳥林,2016-10-02,24.497088,121.842479,0.97474706
C1I211,蘆竹湳,2016-10-02,23.934019,120.811994,0.07031949
C0S830,長濱,2016-10-02,23.286817,121.411975,0.978358
C1F9F1,伯公龍,2016-10-02,24.272392,120.849047,0.00075456814
C0E810,西湖,2016-10-02,24.562947,120.7485,0.06002796
C1I440,新高口,2016-10-02,23.478744,120.878939,1.711086e-08
C0O840,王爺宮,2016-10-02,23.222064,120.40085,0.0032817945
C0T9G0,鳳林山,2016-10-02,23.735269,121.420131,0.97412956
C0X080,佳里,2016-10-02,23.173039,120.145086,0.5232997
C0FB70,大甲溪埔,2016-10-02,24.370625,120.620067,0.020254752
C0Z310,清水斷崖,2016-10-02,24.218294,121.689142,0.7594243
C0M680,太保,2016-10-02,23.455062,120.331455,0.33071324
C1S820,金峰,2016-10-02,22.590969,120.933236,3.5369858e-08
C0AD10,八里,2016-10-02,25.150211,121.403947,0.541021
C2K240,草嶺,2016-10-02,23.59555,120.693461,6.9032264e-09
C1SA70,都蘭,2016-10-02,22.87794,121.226881,0.20184639
C0K440,二崙,2016-10-02,23.772797,120.408944,0.7520192
C1A760,坪林交控,2016-10-02,24.94284,121.713442,0.99248326
C0F9N0,大里,2016-10-02,24.092464,120.701378,0.7860339
C0SA90,達仁林場,2016-10-02,22.264347,120.823972,2.7914082e-08
C1R290,石門山,2016-10-02,22.112611,120.756597,0.0076095453
42HA10,萬大發電廠,2016-10-02,23.978875,121.139639,4.692739e-08
C0R890,山海,2016-10-02,21.9878,120.7091,0.055729307
C0T9A0,月眉山,2016-10-02,23.809928,121.539828,0.00018603179
C0AC70,信義,2016-10-02,25.037822,121.564597,0.9405025
C0K560,棋山,2016-10-02,23.68645,120.603417,0.9885286
C2FB50,出雲,2016-10-02,24.206469,120.902794,6.6587034e-09
C1Z240,中平林道,2016-10-02,23.42115,121.26763,2.4189163e-08
U2H480,溪頭,2016-10-02,23.670306,120.798194,8.590385e-09
C0M880,好美里,2016-10-02,23.3364,120.138,0.5232997
C0T9E0,大坑,2016-10-02,23.880628,121.581981,0.16913605
C0K530,臺西,2016-10-02,23.701547,120.197559,0.053470477
C1E900,國一N128K,2016-10-02,24.560997,120.844186,0.07363772
C0AJ50,水湳洞,2016-10-02,25.123695,121.862238,0.26153266
C0AI20,白沙灣,2016-10-02,25.283128,121.519058,0.90849364
C0A860,大坪,2016-10-02,25.165914,121.632969,0.25621656
C1U850,觀音海岸,2016-10-02,24.38319,121.77856,0.9932971
C2K610,草嶺石壁,2016-10-02,23.602469,120.707731,8.300289e-09
C0U950,鶯子嶺,2016-10-02,24.89754,121.79244,0.9269803
C0O900,善化,2016-10-02,23.112883,120.297219,2.8069165e-09
C0K550,蔦松,2016-10-02,23.514319,120.229736,0.69894123
E2P980,林試六龜中心,2016-10-02,22.991703,120.645722,2.277463e-09
C0E590,通霄,2016-10-02,24.471892,120.704622,0.031828124
C1I310,西巒,2016-10-02,23.754486,120.883956,9.08167e-09
C0A550,泰平,2016-10-02,24.971197,121.823711,0.8878322
C0I360,水里,2016-10-02,23.812553,120.849792,9.673391e-07
C0R830,高士,2016-10-02,22.121825,120.836781,0.011432553
C1I101,溪頭,2016-10-02,23.661789,120.807647,1.6191557e-08
C0AJ20,野柳,2016-10-02,25.20703,121.690021,0.26153266
C0B060,暖暖,2016-10-02,25.0957,121.7403,0.13898776
C1H920,長豐,2016-10-02,24.102039,120.879897,2.001274e-09
C0V360,內門,2016-10-02,22.975481,120.466769,1.8195735e-08
C0R850,林邊,2016-10-02,22.4634,120.5339,3.934668e-09
C0E930,龍鳳,2016-10-02,24.700034,120.859125,0.101363234
C0U910,冬山,2016-10-02,24.63373,121.7937,0.16821313
C1E721,泰安,2016-10-02,24.489017,120.968036,5.547586e-09
82H320,茶改中部分場,2016-10-02,23.875611,120.913583,2.4604496e-09
C0M750,布袋,2016-10-02,23.380878,120.167789,0.7932989
C1S860,利嘉,2016-10-02,22.809417,121.050528,3.2048229e-09
72C440,桃園農改,2016-10-02,24.950944,121.030583,0.98907965
E2S980,林試太麻里1,2016-10-02,22.598922,120.980044,8.291653e-08
C0X170,關廟,2016-10-02,22.963017,120.327797,2.3170241e-09
C0V720,林園,2016-10-02,22.507747,120.394511,6.997614e-09
C1I510,線浸林道,2016-10-02,23.761508,120.832956,4.419523e-09
C0D690,外湖,2016-10-02,24.917735,120.968711,0.98981386
C0C750,新興坑尾,2016-10-02,25.0061,121.0971,0.8967537
B2Q810,畜試南區分所,2016-10-02,21.945583,120.802167,0.055156667
C0S790,金崙,2016-10-02,22.538122,120.966875,2.905613e-08
C0AH90,福山植物園,2016-10-02,24.760717,121.58135,0.9920379
C0I540,奇萊稜線,2016-10-02,24.109231,121.326456,2.3971731e-08
C0M850,表湖,2016-10-02,23.24186,120.64166,3.6004213e-09
C0S770,大溪山,2016-10-02,22.478475,120.943325,1.4085644e-08
C0AG80,中和,2016-10-02,24.991622,121.491792,0.9405025
C0T790,大禹嶺,2016-10-02,24.186117,121.316086,3.2839175e-08
C0T9B0,水源,2016-10-02,23.991861,121.537169,3.937166e-06
C0R840,牡丹池山,2016-10-02,22.168389,120.841225,3.259742e-08
C1I131,桶頭,2016-10-02,23.641944,120.654117,1.4685112e-06
CAL110,布袋國中,2016-10-02,23.35893,120.18026,0.2393529
467571,新竹,2016-10-02,24.827853,121.014219,0.87937135
C0Z290,赤柯山,2016-10-02,23.36893,121.38293,5.6523726e-07
C0X280,將軍,2016-10-02,23.214999,120.13577,0.5232997
C0S690,太麻里,2016-10-02,22.60902,120.98533,2.2805418e-08
C0U880,北關,2016-10-02,24.9072,121.8734,0.9905635
C1H860,瑞岩,2016-10-02,24.123772,121.18345,1.6646243e-08
C0G810,埔心,2016-10-02,23.947633,120.525456,0.24377619
C0U970,大福,2016-10-02,24.80064,121.81389,0.9918259
C2H9N0,仁愛東眼,2016-10-02,24.026875,121.1205,8.214893e-09
C1E670,南礦,2016-10-02,24.538278,121.002836,4.6619673e-09
C0M520,東後寮,2016-10-02,23.369908,120.248065,0.19022758
C1E461,松安,2016-10-02,24.397972,120.986022,6.2556307e-09
72G600,臺中農改,2016-10-02,24.003028,120.534389,0.04295588
C2N160,西拉雅風管處,2016-10-02,23.189481,120.335297,0.0038286117
C2M970,碧湖,2016-10-02,23.568632,120.624165,7.1833695e-09
C0A640,石碇,2016-10-02,24.993969,121.662917,0.28766358
E2S960,林試太麻里2,2016-10-02,22.598,120.99775,3.0306725e-07
C0F9Y0,桃山,2016-10-02,24.432739,121.303808,3.4642635e-08
C1I020,萬大,2016-10-02,23.979817,121.132261,5.738957e-09
C0U940,羅東,2016-10-02,24.68184,121.74934,0.15660961
C0M650,朴子,2016-10-02,23.43463,120.23902,0.7784475
C1I500,大尖山,2016-10-02,23.858572,120.994889,1.2849389e-08
C0G820,田尾,2016-10-02,23.901669,120.509389,0.27458912
E2K600,四湖植物園,2016-10-02,23.676986,120.163433,0.050587267
C0S730,綠島,2016-10-02,22.6672,121.47533,0.0035697662
12Q970,東港工作站,2016-10-02,22.479997,120.466058,4.0502717e-09
C0E430,南庄,2016-10-02,24.601775,121.000214,0.8506876
C1TA00,太魯閣,2016-10-02,24.15773,121.6236,0.75202537
466920,臺北,2016-10-02,25.037658,121.514853,0.9405025
C0R600,舊泰武,2016-10-02,22.588194,120.664944,1.7356365e-08
C1I260,北坑,2016-10-02,23.9246,121.006903,2.0398272e-09
466910,鞍部,2016-10-02,25.182586,121.529731,0.9993033
C1I230,九份二山,2016-10-02,23.961944,120.845,1.6847338e-09
C2A660,瑞芳,2016-10-02,25.113169,121.801147,0.13016194
C0R270,琉球嶼,2016-10-02,22.332244,120.362236,1.5310505e-07
C1T990,高寮,2016-10-02,23.394239,121.356808,0.07402765
C0G620,芬園,2016-10-02,24.015678,120.6213,0.8277147
C1Z140,荖溪,2016-10-02,23.890575,121.45964,5.7541182e-08
C1I201,中心崙,2016-10-02,23.728722,120.712097,1.9504276e-08
C1I400,凌霄,2016-10-02,24.018778,121.004456,8.360795e-09
C1M640,十字,2016-10-02,23.492153,120.753683,1.7215484e-08
G2P820,農試鳳山分所,2016-10-02,22.646611,120.356083,5.978724e-09
C0Z270,蕃薯寮,2016-10-02,23.73835,121.540108,0.9850239
C0F9Q0,外埔,2016-10-02,24.347817,120.705686,0.95527136
C0K580,高鐵雲林,2016-10-02,23.737456,120.417944,0.91912913
C2I090,鳳凰,2016-10-02,23.728081,120.787347,2.296162e-09
C0U990,員山,2016-10-02,24.74435,121.72247,0.15653671
C0V770,大社,2016-10-02,22.730306,120.346639,9.48364e-09
C0X120,麻豆,2016-10-02,23.183289,120.248611,0.5432686
C0C670,龍潭,2016-10-02,24.870056,121.221389,0.4328333
C0D680,香山濕地,2016-10-02,24.783581,120.914988,0.94669473
C0S980,勝林山,2016-10-02,22.430439,120.8938,1.846885e-08
C0V730,大寮,2016-10-02,22.605614,120.395717,4.4719854e-09
C0R570,麟洛,2016-10-02,22.65078,120.52719,1.0956293e-09
C2M930,石卓,2016-10-02,23.478744,120.702264,1.7421472e-08
C0G9B0,和美,2016-10-02,24.105169,120.492131,0.015361597
CAG100,王功漁港,2016-10-02,23.96824,120.32586,0.026721066
C0X290,北門,2016-10-02,23.267772,120.125481,0.5232998
C2F930,大甲,2016-10-02,24.347667,120.640403,0.09721318
C0D650,湖口,2016-10-02,24.904794,121.043628,0.98794985
C0E420,竹南,2016-10-02,24.708978,120.888897,0.9379155
C0U780,五結,2016-10-02,24.68637,121.79794,0.16821313
C1I250,鯉潭,2016-10-02,23.961922,120.991131,2.001274e-09
C0R130,阿禮,2016-10-02,22.742908,120.743678,1.8818321e-08
C0X100,臺南市北區,2016-10-02,23.010394,120.194228,2.266726e-07
C0S920,金峰嘉蘭,2016-10-02,22.594789,120.960825,7.712943e-08
C0V490,新興,2016-10-02,22.627422,120.298803,6.997614e-09
C0F9K0,大安,2016-10-02,24.345061,120.588025,0.040851142
72N100,臺南農改,2016-10-02,23.0605,120.342194,2.5124351e-09
467290,古坑,2016-10-02,23.633639,120.551889,0.97469324
C2E970,八甲,2016-10-02,24.535811,120.795983,0.82852817
C0V440,鳳山,2016-10-02,22.646653,120.356122,5.978724e-09
C1T940,大觀,2016-10-02,23.714206,121.373133,0.9973918
72T250,花蓮農改,2016-10-02,23.975222,121.563889,0.9959064
C0E740,造橋,2016-10-02,24.637056,120.864778,0.103071496
C0R100,尾寮山,2016-10-02,22.833111,120.683889,1.7774095e-08
A2K630,臺大雲林校區,2016-10-02,23.730628,120.423903,0.91912913
C0D580,寶山,2016-10-02,24.735006,121.025192,0.1595259
E2P990,林試扇平站,2016-10-02,22.9677,120.6857,1.2062897e-08
C0AI30,三重,2016-10-02,25.057328,121.500629,0.21943375
C0AH00,汐止,2016-10-02,25.066881,121.658778,0.26153266
C1Z040,立山,2016-10-02,23.443356,121.327375,0.99865764
C0W130,花嶼,2016-10-02,23.40007,119.32276,0.96328884
C0A950,鼻頭角,2016-10-02,25.129036,121.923372,0.091997765
C0K470,林內,2016-10-02,23.748675,120.609642,0.95973855
C2F990,摩天嶺,2016-10-02,24.322458,120.936819,1.239015e-05
82C160,茶改場,2016-10-02,24.908472,121.185333,0.15485254
C0Z320,清水林道,2016-10-02,23.27125,121.188272,0.037292745
C0R760,南仁湖,2016-10-02,22.084681,120.863353,0.0074592275
C0M670,大林,2016-10-02,23.600616,120.45841,0.9567706
C0M800,茶山,2016-10-02,23.299075,120.664767,6.6990347e-09
C0A9C0,天母,2016-10-02,25.117494,121.537169,0.24721752
72K220,南改斗南分場,2016-10-02,23.634556,120.477333,0.9899488
72AI40,桃改樹林分場,2016-10-02,24.944503,121.386972,0.27961296
C0S910,蘭嶼燈塔,2016-10-02,22.081197,121.503117,0.4501513
C0B050,八斗子,2016-10-02,25.144754,121.79167,0.3520299
C0U900,內城,2016-10-02,24.71813,121.68766,0.9944314
C0X320,柳營,2016-10-02,23.253328,120.375253,0.020395463
C0M790,新港,2016-10-02,23.553269,120.345728,0.81074756
C0F9T0,西屯,2016-10-02,24.179494,120.641275,0.3349446
C0SA30,都歷,2016-10-02,23.020333,121.323642,0.003638688
C0C620,蘆竹,2016-10-02,25.084275,121.265767,0.44570717
C0R730,大坪頂,2016-10-02,22.024633,120.69355,0.02630406
C0AJ40,石門,2016-10-02,25.273672,121.601198,0.4954916
C0E750,苗栗,2016-10-02,24.564569,120.824575,0.06592961
C0T870,鯉魚潭,2016-10-02,23.935639,121.508944,0.9961468
C1V170,排雲,2016-10-02,23.463619,120.954147,2.9046655e-08
C2H950,中寮,2016-10-02,23.884447,120.766406,0.0018813799
C0R350,貓鼻頭,2016-10-02,21.921774,120.7358,0.053951226
C0V660,岡山,2016-10-02,22.797078,120.294958,4.4760817e-09
C1H941,雙冬,2016-10-02,23.967378,120.802189,1.9867494e-09
C0AJ70,田寮,2016-10-02,25.2698,121.4886,0.91500664
C0AI00,五股,2016-10-02,25.07445,121.42728,0.13790306
C0Z280,德武,2016-10-02,23.47426,121.41071,0.9519324
C0R700,枋山,2016-10-02,22.246844,120.661086,5.1665615e-05
C0C460,復興,2016-10-02,24.820208,121.352281,0.99878556
E2H360,蓮華池,2016-10-02,23.918333,120.885278,1.9361344e-09
C0M640,中埔,2016-10-02,23.42538,120.5229,0.95654273
C0W140,金沙,2016-10-02,24.488292,118.408778,0.9992333
C2A540,四堵,2016-10-02,24.8926,121.745736,0.998803
C0ACA0,新莊,2016-10-02,25.051478,121.446756,0.3969051
C0R220,潮州,2016-10-02,22.534361,120.54,2.7407911e-09
U2HA40,臺大內茅埔,2016-10-02,23.689722,120.851117,2.2390746e-07
467490,臺中,2016-10-02,24.145736,120.684075,0.9715527
C0U960,翠峰湖,2016-10-02,24.510856,121.608044,3.0709157e-07
E2HA20,林試畢祿溪站,2016-10-02,24.226944,121.308522,3.8660513e-08
C0V890,前鎮,2016-10-02,22.5718,120.3117,7.5137905e-09
467620,蘭嶼,2016-10-02,22.036969,121.558339,0.19003488
C1F941,雪嶺,2016-10-02,24.280586,121.026642,2.5915568e-08
C2H9E0,國姓南港,2016-10-02,23.911108,120.846556,5.5956195e-09
C0AC80,文山,2016-10-02,25.00235,121.575728,0.9742178
C0F9R0,龍井,2016-10-02,24.184536,120.528972,0.020560324
C0M760,民雄,2016-10-02,23.551754,120.428457,0.91756195
C0UA40,西德山,2016-10-02,24.560647,121.752608,0.07958137
C1T920,中興,2016-10-02,23.769503,121.498653,0.98836696
C0D550,雪霸,2016-10-02,24.526972,121.11605,6.240772e-08
C2F860,梨山,2016-10-02,24.247522,121.243669,3.5687407e-08
C0R320,車城,2016-10-02,22.0744,120.716247,0.05578401
C1S870,南美山,2016-10-02,23.15025,121.382333,0.0049656983
C0B020,基隆嶼,2016-10-02,25.19141,121.78391,0.26153266
C1U501,牛鬥,2016-10-02,24.637836,121.573656,0.999154
C0M730,嘉義市東區,2016-10-02,23.457673,120.460531,0.967572
C0S700,知本,2016-10-02,22.684866,121.005642,2.5863521e-08
C1N001,沙崙,2016-10-02,22.935472,120.309406,2.9696523e-09
C0V760,橋頭,2016-10-02,22.757806,120.30575,4.240489e-09
C0G960,福寶,2016-10-02,24.0443,120.3814,0.013571282
C0X210,白河,2016-10-02,23.347466,120.414427,0.017106047
C0S810,東河,2016-10-02,22.972672,121.303986,0.159044
C2R170,屏東,2016-10-02,22.66027,120.49403,1.1106118e-09
C0R670,楓港,2016-10-02,22.190131,120.692156,5.1665615e-05
C0FA50,霧峰,2016-10-02,24.0419,120.6995,0.9612035
C0UB10,蘇澳,2016-10-02,24.5969,121.8571,0.15367037
C0G950,防潮門,2016-10-02,24.1835,120.4871,0.019019539
C0M740,六腳,2016-10-02,23.492871,120.290625,0.3448622
C1R250,力里,2016-10-02,22.428117,120.629228,1.027531e-07
C0K330,虎尾,2016-10-02,23.719183,120.442036,0.92811424
C2FA00,烏石坑,2016-10-02,24.273503,120.947617,1.6612863e-05
C0V620,永安,2016-10-02,22.82315,120.236856,5.467384e-09
C1I330,楓樹林,2016-10-02,23.986803,121.076117,7.874851e-09
C0W200,湖西,2016-10-02,23.596314,119.67275,0.44681603
72Q010,高雄農改場,2016-10-02,22.709333,120.525889,1.0872793e-09
C0SA40,瑞和,2016-10-02,22.974361,121.156697,0.0040200492
C0C680,龜山,2016-10-02,25.02846,121.38656,0.9839259
C2V260,月眉,2016-10-02,22.971003,120.539853,3.2649297e-09
C0V450,鳳森,2016-10-02,22.545064,120.392592,3.3064351e-09
C0U720,南山,2016-10-02,24.43742,121.38167,0.586282
A2N290,臺南蘭花園區,2016-10-02,23.340258,120.379661,0.020395463
C0R560,新園,2016-10-02,22.5434,120.461558,3.934668e-09
C0U890,三星,2016-10-02,24.66812,121.65302,0.9967972
C1V300,御油山,2016-10-02,23.001983,120.715364,1.8874864e-08
C0U600,礁溪,2016-10-02,24.817539,121.765608,0.992917
C1T980,龍澗,2016-10-02,24.023289,121.411328,2.7165552e-08
C0D670,海天一線,2016-10-02,24.831986,120.914438,0.94888395
C0SA00,歷坵,2016-10-02,22.520969,120.89185,1.1529042e-08
C0M710,東石,2016-10-02,23.458927,120.15385,0.6988498
C0M780,鹿草,2016-10-02,23.41134,120.30835,0.29742455
C0U520,雙連埤,2016-10-02,24.753033,121.641303,0.99291
C0B010,七堵,2016-10-02,25.094819,121.71713,0.19676685
C0R480,長治,2016-10-02,22.693128,120.542622,1.0126925e-09
C1V830,國三S383K,2016-10-02,22.781967,120.426475,3.2604117e-09
12Q980,恆春工作站,2016-10-02,22.079678,120.714425,0.05578401
C1O940,東山服務區,2016-10-02,23.286016,120.398472,0.012354787
C1U840,東澳嶺,2016-10-02,24.5378,121.8485,0.9955423
C1D630,飛鳳山,2016-10-02,24.766464,121.119178,0.98060894
C0S940,石寧山,2016-10-02,23.223772,121.406639,0.6746627
C0K410,北港,2016-10-02,23.573957,120.292802,0.82899696
C2M620,瑞里,2016-10-02,23.545133,120.675197,8.015279e-09
C0SB70,小港漁港,2016-10-02,23.158558,121.400431,0.08161253
C2O950,安南,2016-10-02,23.076694,120.144861,0.0014351071
C0F0E0,南湖圈谷,2016-10-02,24.363714,121.444667,5.178679e-08
467610,成功,2016-10-02,23.097486,121.373428,0.0036389767
C0G890,伸港,2016-10-02,24.148933,120.484403,0.0207215
C2E540,龍溪,2016-10-02,24.606489,120.783933,0.05565006
C1V200,梅山,2016-10-02,23.268447,120.823556,2.9323033e-08
C0T9H0,加路蘭山,2016-10-02,23.682947,121.5274,0.00038885677
C2O930,玉井,2016-10-02,23.126042,120.46055,0.0060586995
C1F911,新伯公,2016-10-02,24.221361,120.841069,0.87029344
C0R490,九如,2016-10-02,22.7405,120.490503,1.0956293e-09
C0X200,左鎮,2016-10-02,23.056758,120.408522,3.2581107e-07
C0SB50,叭嗡嗡,2016-10-02,23.047062,121.343223,0.072033174
C1F891,稍來,2016-10-02,24.265689,121.001142,4.351762e-08
72N240,七股研究中心,2016-10-02,23.081672,120.062894,0.14265777
C0C700,中壢,2016-10-02,24.977661,121.256375,0.14517383
C0M690,水上,2016-10-02,23.419734,120.388909,0.9387357
C0V690,鼓山,2016-10-02,22.623325,120.275575,6.997614e-09
C0O860,大內,2016-10-02,23.11885,120.36083,1.2947026e-09
C0Z200,萬榮,2016-10-02,23.709219,121.420106,0.9961468
C0T9D0,和中,2016-10-02,24.26676,121.74103,0.71399766
C1O921,楠西,2016-10-02,23.183511,120.484083,0.026663674
C0AJ30,淡水觀海,2016-10-02,25.184591,121.408616,0.5992016
C0V810,左營,2016-10-02,22.67491,120.28491,1.1387381e-08
C0UA70,桃源谷,2016-10-02,24.962606,121.888875,0.97235185
C0X130,官田,2016-10-02,23.193217,120.315422,0.0046283957
C1H000,翠峰,2016-10-02,24.109397,121.205211,4.953458e-08
C0UA90,石城,2016-10-02,24.980444,121.951214,0.10650592
C1E681,南勢山,2016-10-02,24.421669,120.923831,5.7382927e-06
C0A9F0,內湖,2016-10-02,25.079422,121.57545,0.9405025
C0K291,宜梧,2016-10-02,23.536281,120.169329,0.6777497
C1K540,口湖,2016-10-02,23.585344,120.180517,0.26020458
C0R780,滿州,2016-10-02,22.024403,120.839892,0.053005017
C0V870,文安,2016-10-02,22.8025,120.2164,6.2216583e-09
C0U650,玉蘭,2016-10-02,24.675286,121.587061,0.9714224
C0R640,東港,2016-10-02,22.46247,120.44074,7.5137905e-09
K2E360,苗栗農改,2016-10-02,24.495722,120.829111,0.6564162
C0AJ80,板橋,2016-10-02,25.0107,121.4489,0.23569919
C0S660,下馬,2016-10-02,23.150427,121.070312,1.2349685e-07
C1H9B1,阿眉,2016-10-02,24.1263,120.994672,9.8808e-07
C0UA20,多加屯,2016-10-02,24.368614,121.373189,4.2146155e-08
C0E730,頭份,2016-10-02,24.688247,120.912206,0.9379155
72V140,高改旗南分場,2016-10-02,22.857861,120.516667,9.420087e-10
C0K480,莿桐,2016-10-02,23.761192,120.502372,0.9424927
C0U980,坪林石牌,2016-10-02,24.86478,121.77396,0.9288565
C0T900,西林,2016-10-02,23.8119,121.441458,0.9969906
C1I150,青雲,2016-10-02,23.793361,120.949378,1.6757284e-07
467350,澎湖,2016-10-02,23.565503,119.563094,0.8540917
C0G800,埔鹽,2016-10-02,24.000394,120.431683,0.0143301515
C0H960,草屯,2016-10-02,23.973672,120.68085,0.90787774
C1V780,多納林道,2016-10-02,22.888028,120.737917,1.6807132e-08
C0E920,通霄漁港,2016-10-02,24.498589,120.673876,0.03059546
C0Z330,安通山,2016-10-02,23.290728,121.348528,0.93997276
C0AH10,永和,2016-10-02,25.01125,121.508111,0.9290711
C0AK10,太平里,2016-10-02,25.134937,121.364899,0.39686
C2G640,鹿港,2016-10-02,24.0753,120.430481,0.0143301515
C1E890,國三N149K,2016-10-02,24.463414,120.680019,0.032028273
C1R110,口社,2016-10-02,22.770111,120.645222,9.0861346e-10
C1M870,國三N285K,2016-10-02,23.550319,120.505833,0.78563964
467050,新屋,2016-10-02,25.006744,121.047486,0.9894095
C1E480,鳳美,2016-10-02,24.554803,121.034747,2.0934507e-05
C0M530,奮起湖,2016-10-02,23.493903,120.699253,7.930258e-09
C0C590,觀音,2016-10-02,25.027072,121.153317,0.5612623
C0T9M0,靜浦,2016-10-02,23.455167,121.495028,0.039494477
C2H9M0,發祥,2016-10-02,24.154094,121.164517,9.726628e-09
C0AI40,石牌,2016-10-02,25.115597,121.513139,0.23569919
C1F871,上谷關,2016-10-02,24.203483,121.018644,1.6576558e-05
C2H9G0,百勝,2016-10-02,24.051142,120.909361,0.019613521
C0G880,二水,2016-10-02,23.810742,120.6173,0.9567141
C0R940,加祿堂,2016-10-02,22.3363,120.6217,2.7001263e-07
C0W220,北竿,2016-10-02,26.220358,119.974881,0.03966558
C0O960,崎頂,2016-10-02,22.959547,120.369317,3.2945748e-09
C0S750,向陽,2016-10-02,23.248397,120.986133,1.4070338e-08
C0T9F0,水璉,2016-10-02,23.797131,121.542514,0.9794645
C1M600,頭凍,2016-10-02,23.406364,120.603339,4.226858e-09
467660,臺東,2016-10-02,22.752211,121.154586,0.15014768
C1D380,新埔,2016-10-02,24.84745,121.03834,0.77050966
C2G980,田頭村,2016-10-02,23.8263,120.444175,0.7520192
C0V750,路竹,2016-10-02,22.854997,120.259439,1.9277109e-09
C0N050,蚵寮,2016-10-02,23.301,120.1104,0.19137388
72M700,南改鹿草分場,2016-10-02,23.416869,120.283061,0.37407655
C1SA50,利嘉林道,2016-10-02,22.82325,121.009389,2.5495202e-08
467550,玉山,2016-10-02,23.487614,120.959522,3.1841026e-08
C0A940,金山,2016-10-02,25.223628,121.643967,0.8943257
C1V340,大津,2016-10-02,22.888322,120.645986,1.9966035e-09
C0W180,七美,2016-10-02,23.219333,119.444892,0.3696629
C1F9C1,白冷,2016-10-02,24.182844,120.929889,0.003166706
K2E710,苗改生物防治研究中心,2016-10-02,24.422861,120.871833,0.972081
C0N040,蘆竹溝,2016-10-02,23.2344,120.0961,0.19137388
C2W230,畜試所澎湖,2016-10-02,23.628342,119.513206,0.97888696
C0R880,後壁湖,2016-10-02,21.9457,120.7457,0.055826873
C1I280,埔中,2016-10-02,23.820778,120.642594,0.0023863646
467790,墾丁雷達站,2016-10-02,21.948235,120.808028,0.053135417
C0W190,望安,2016-10-02,23.380564,119.494075,0.84015316
466881,新北,2016-10-02,24.9593,121.52,0.9578328
C0Z170,卓溪,2016-10-02,23.3443,121.3029,0.58270687
C0F850,東勢,2016-10-02,24.246428,120.833047,0.9726956
466900,淡水,2016-10-02,25.164889,121.448906,0.5411816
C0I370,魚池,2016-10-02,23.895703,120.94135,1.9695294e-09
C0C630,大溪,2016-10-02,24.882853,121.265547,0.31084454
C0A520,山佳,2016-10-02,24.974944,121.402008,0.27961296
C0I110,竹山,2016-10-02,23.761225,120.688156,0.06134586
82H840,茶改南部分場,2016-10-02,23.762528,120.7405,6.307024e-07
C0G660,溪湖,2016-10-02,23.94835,120.479122,0.21003658
C1T800,洛韶,2016-10-02,24.204558,121.453956,1.5814207e-07
C1T810,慈恩,2016-10-02,24.192044,121.388386,1.1739216e-07
C1E451,象鼻,2016-10-02,24.368617,120.940228,5.712962e-06
C0AC60,三峽,2016-10-02,24.939025,121.369728,0.96429896
C0I490,萬大林道,2016-10-02,23.928228,121.091411,1.4929538e-08
C1I290,豐丘,2016-10-02,23.668178,120.887417,4.4195314e-09
C1I320,奧萬大,2016-10-02,23.952956,121.178556,7.689291e-09
C2M910,嘉義大學,2016-10-02,23.471325,120.485903,0.9925348
C0U770,南澳,2016-10-02,24.44935,121.81022,0.97333676
C0A980,社子,2016-10-02,25.109508,121.469681,0.21155407
C0V800,六龜,2016-10-02,22.997889,120.633583,2.2706275e-09
C1G9D0,國一S218K,2016-10-02,23.890641,120.493253,0.24377619
C0E570,白沙屯,2016-10-02,24.549447,120.696803,0.030637862
C2F9A0,中竹林,2016-10-02,24.103556,120.751061,2.5910676e-08
C0FA40,臺中電廠,2016-10-02,24.2146,120.4907,0.020560324
C2G9A0,畜試所彰化,2016-10-02,23.86045,120.557964,0.91397154
C0H9C0,合歡山,2016-10-02,24.143442,121.272547,3.123428e-08
C0X060,下營,2016-10-02,23.22695,120.256261,0.009160954
G2M350,農試溪口農場,2016-10-02,23.58565,120.408111,0.9044571
C0U860,頭城,2016-10-02,24.85323,121.8308,0.99244434
C0R580,南州,2016-10-02,22.48591,120.50274,4.0502792e-09
C0D430,峨眉,2016-10-02,24.6905,121.017189,0.5766067
C0G780,秀水,2016-10-02,24.03405,120.503869,0.037829384
72N100,臺南農改場,2016-10-02,23.0605,120.342194,2.5124351e-09
C0S900,蘭嶼高中,2016-10-02,22.04909,121.51214,0.67654693
467540,大武,2016-10-02,22.355675,120.903789,0.02992744
C1F9W0,德基,2016-10-02,24.254783,121.190261,6.505326e-08
C1Z120,壽豐,2016-10-02,23.870853,121.508081,0.97570366
C0W160,烏坵,2016-10-02,24.9944,119.44956,0.9867784
C1I240,外大坪,2016-10-02,23.958697,120.917931,1.9486828e-09
C1I550,國六W023K,2016-10-02,23.979067,120.867742,1.084612e-08
C0R870,興海,2016-10-02,21.9752,120.8439,0.055156667
C0R140,瑪家,2016-10-02,22.682903,120.686639,1.2658288e-08
C0A530,坪林,2016-10-02,24.938183,121.70975,0.998757
C0X260,後壁,2016-10-02,23.366358,120.362326,1.8637505e-05
C0Z230,和平,2016-10-02,24.30717,121.77007,0.71399766
C0G770,福興,2016-10-02,24.041289,120.437669,0.0143301515
C0H9A0,神木村,2016-10-02,23.532742,120.843667,2.9310955e-08
C0I460,南投,2016-10-02,23.911469,120.687331,0.6709219
C0I480,梅峰,2016-10-02,24.085272,121.173572,4.0978605e-08
C1V570,吉東,2016-10-02,22.85422,120.5454,9.2645475e-10
C2D740,屯原,2016-10-02,24.067969,121.209389,4.721379e-08
C2A560,福山,2016-10-02,24.776203,121.502811,0.9924249
C0AH30,五分山,2016-10-02,25.07125,121.780794,0.99773926
C0FA10,松柏,2016-10-02,24.429115,120.617482,0.015909849
72S200,東改班鳩分場,2016-10-02,22.829528,121.077694,0.16221021
72HA00,中改埔里分場,2016-10-02,23.903208,120.963364,2.0373776e-09
C2H9W0,大坪頂農水,2016-10-02,24.043122,120.932781,1.9776945e-09
C0C650,平鎮,2016-10-02,24.897503,121.214636,0.15485254
C0S930,延平,2016-10-02,22.902581,121.084058,0.31292814
C0UA60,樟樹山,2016-10-02,24.41393,121.78325,0.9771231
C1S670,摩天,2016-10-02,23.199503,121.027,1.495322e-08
C0V630,茄萣,2016-10-02,22.906642,120.182608,6.42391e-08
466940,基隆,2016-10-02,25.133314,121.740475,0.3088317
C0X050,東河,2016-10-02,23.296598,120.385608,0.020395473
C0R770,保力,2016-10-02,22.071122,120.764111,0.050995335
G2L020,農試嘉義分所,2016-10-02,23.485028,120.473806,0.9874303
C0X240,關子嶺,2016-10-02,23.331169,120.508025,2.5184517e-09
C0I380,集集,2016-10-02,23.828206,120.801467,2.0362559e-06
466990,花蓮,2016-10-02,23.975128,121.613275,0.99417514
C1V220,小關山,2016-10-02,23.154217,120.813603,1.897098e-08
C1F9G1,慶福山,2016-10-02,24.180853,120.848378,0.0006281515
C0Z250,瑞穗林道,2016-10-02,23.49284,121.30688,4.507423e-08
C0D590,新豐,2016-10-02,24.87068,120.97721,0.9531355
C0A870,五指山,2016-10-02,25.132153,121.608692,0.9997298
C0UA50,西帽山,2016-10-02,24.555361,121.802628,0.9921613
C0X160,仁德,2016-10-02,22.968258,120.257689,2.8768916e-09
C1H971,六分寮,2016-10-02,23.92507,120.6378,1.5414466e-07
C0W120,西嶼,2016-10-02,23.5626,119.468436,0.8540917
C0G650,員林,2016-10-02,23.946503,120.585597,0.5295425
C0AD50,鶯歌,2016-10-02,24.951533,121.346294,0.15916406
C2H9Q0,北東眼山,2016-10-02,24.120939,121.189303,4.976223e-08
C2H9T0,名間竹圍,2016-10-02,23.859914,120.637572,2.2090813e-07
C0S990,山豬窟,2016-10-02,22.318619,120.857372,0.030347614
72Q010,高雄農改,2016-10-02,22.709333,120.525889,1.0872793e-09
C0X190,安平,2016-10-02,22.993161,120.152181,2.266726e-07
C0K400,斗六,2016-10-02,23.720583,120.541127,0.9765479
12J990,口湖工作站,2016-10-02,23.589978,120.180394,0.28146428
C0O830,北寮,2016-10-02,23.079561,120.495008,3.4212775e-09
C1D410,白蘭,2016-10-02,24.579364,121.079947,5.53026e-09
C0S970,加津林,2016-10-02,22.416211,120.926942,0.02659528
C0D700,關西,2016-10-02,24.7977,121.1732,0.14704229
C0M810,里佳,2016-10-02,23.389125,120.716647,7.930258e-09
C0U750,龜山島,2016-10-02,24.841667,121.953133,0.6897605
C0R810,內獅,2016-10-02,22.305064,120.642986,2.6993797e-07
C1M390,龍美,2016-10-02,23.406728,120.654417,7.673204e-09
C2FB60,頭櫃山,2016-10-02,24.129842,120.858925,6.1036487e-09
C1H840,國三N238K,2016-10-02,23.841008,120.707711,1.2154017e-06
CAQ030,崎峰國小,2016-10-02,22.42565,120.49521,4.0502792e-09
C2E520,大湖,2016-10-02,24.414939,120.870872,0.9279427
467530,阿里山,2016-10-02,23.508208,120.813242,1.9015356e-08
C1E691,南湖,2016-10-02,24.40135,120.837533,0.00018739891
C0FA30,梧棲,2016-10-02,24.256003,120.523381,0.020560324
C1V231,高中,2016-10-02,23.134911,120.716711,1.5180872e-09
C0F9V0,新社,2016-10-02,24.200172,120.815806,9.592214e-05
C0H890,埔里,2016-10-02,23.972169,120.952425,0.29970992
C0R690,墾丁,2016-10-02,21.966756,120.810269,0.024346733
C0F0D0,審馬陣,2016-10-02,24.381675,121.4203,4.5349317e-08
C0R820,白鷺,2016-10-02,22.454275,120.666219,2.9056615e-09
U2H480,臺大溪頭,2016-10-02,23.670306,120.798194,8.590385e-09
C1V190,南天池,2016-10-02,23.27403,120.91176,1.5094377e-08
K2E360,苗栗農改場,2016-10-02,24.495722,120.829111,0.6564161
CAJ050,海口故事園區,2016-10-02,23.57543,120.14121,0.26020458
C2H9D0,三隻寮,2016-10-02,24.093078,120.861578,1.9291602e-09
C0O990,媽廟,2016-10-02,22.99175,120.293525,2.8012632e-09
C0D480,打鐵坑,2016-10-02,24.849664,121.150789,0.82688546
C0Z220,和平林道,2016-10-02,24.343922,121.656317,0.97258097
C0TA10,花蓮漁港,2016-10-02,23.995322,121.638331,0.99378926
72C440,桃園農改場,2016-10-02,24.950944,121.030583,0.98907965
C1E711,馬拉邦山,2016-10-02,24.367306,120.901656,5.9414283e-06
C0SB20,富岡,2016-10-02,22.792467,121.192669,0.15002729
C0D560,竹東,2016-10-02,24.767147,121.057881,0.15588984
C0F9U0,南屯,2016-10-02,24.137006,120.637969,0.7860339
C0M720,番路,2016-10-02,23.464657,120.554156,0.04067791
C0F0A0,雪山圈谷,2016-10-02,24.388594,121.236339,4.0697028e-08
C1A9N0,四十份,2016-10-02,24.934158,121.593283,0.9992569
C0U760,東澳,2016-10-02,24.52196,121.83318,0.97766
C0X230,鹽水,2016-10-02,23.272621,120.247641,0.09020753
C2H9H0,苗改南投蜂場,2016-10-02,23.852589,120.693481,0.06134586
C0R950,萬隆國小,2016-10-02,22.507667,120.587817,1.2131096e-09
C0V370,古亭坑,2016-10-02,22.893178,120.401947,1.5007252e-08
C1I340,新興橋,2016-10-02,23.563333,120.868728,5.3443294e-09
C0SA80,土坂,2016-10-02,22.453108,120.887572,5.0823616e-08
C0R160,鹽埔,2016-10-02,22.739558,120.530778,1.0192208e-09
C0AC40,大屯山,2016-10-02,25.175675,121.522408,0.9989868
466850,五分山雷達站,2016-10-02,25.071182,121.781205,0.9976643
C2H9L0,馬烈霸,2016-10-02,24.1512,121.201772,5.1717596e-08
C1AI50,國三N016K,2016-10-02,25.034164,121.619664,0.9696311
C1V600,藤枝,2016-10-02,23.071961,120.757042,1.9610852e-08
C1E601,南勢,2016-10-02,24.572486,120.734842,0.09770533
C0Z180,新城,2016-10-02,24.03946,121.60454,0.99530095
C0O980,新市,2016-10-02,23.061614,120.298197,2.9895375e-09
C0K420,西螺,2016-10-02,23.800407,120.467394,0.9354581
C0Z050,佳心,2016-10-02,23.34567,121.21316,6.746018e-08
C0AD30,蘆洲,2016-10-02,25.086594,121.472331,0.21943375
C0V610,梓官,2016-10-02,22.760558,120.267211,4.4760817e-09
K2F750,種苗改良場,2016-10-02,24.225972,120.800917,0.033564843
C0UA80,大溪漁港,2016-10-02,24.941801,121.902955,0.992917
C1AI60,國一39K邊坡,2016-10-02,25.064361,121.383836,0.09252734
C0W150,金寧,2016-10-02,24.457703,118.328989,0.9991164
C0R960,內埔,2016-10-02,22.608483,120.570714,1.2457542e-09
V2C250,八德合作社,2016-10-02,24.93775,121.266389,0.14728858
C2H9S0,龍南,2016-10-02,23.953536,120.833183,5.55002e-09
C0AH40,平等,2016-10-02,25.129142,121.577086,0.99897504
C0R540,佳冬,2016-10-02,22.419456,120.552375,4.0502792e-09
466950,彭佳嶼,2016-10-02,25.627975,122.079744,0.9923253
C0A890,雙溪,2016-10-02,25.036003,121.864242,0.15856022
C0C480,桃園,2016-10-02,24.992425,121.323172,0.14575584
C0AH50,林口,2016-10-02,25.072181,121.38084,0.08295237
A2K360,水試臺西試驗場,2016-10-02,23.717231,120.190522,0.048015375
B2N890,畜試所,2016-10-02,23.058972,120.336406,2.5124351e-09
C2M960,外寮,2016-10-02,23.562643,120.665688,7.0068027e-09
C0F9S0,烏日,2016-10-02,24.107058,120.624103,0.15337202
C0C490,八德,2016-10-02,24.928708,121.283289,0.19873925
C0R190,赤山,2016-10-02,22.592333,120.614306,1.2231256e-09
C0T820,天祥,2016-10-02,24.179597,121.495639,0.983979
C1F9E1,龍安,2016-10-02,24.1605,120.831961,1.2204997e-05
C0V820,小林,2016-10-02,23.148408,120.63325,3.5778647e-09
C2G870,芳苑,2016-10-02,23.922303,120.320025,0.016349636
C0E850,大河,2016-10-02,24.618069,120.948578,0.30452052
C1U670,寒溪,2016-10-02,24.634,121.71691,0.09460898
C0N020,城西,2016-10-02,23.0568,120.0956,0.1713685
C1Z110,三棧,2016-10-02,24.11557,121.60501,1.1484038e-06
C0R280,檳榔,2016-10-02,22.076078,120.836777,0.024523979
C2H9J0,中台,2016-10-02,23.9996,120.938739,0.00025686953
C0F9L0,后里,2016-10-02,24.310436,120.729725,0.97547126
C0D540,橫山,2016-10-02,24.71116,121.11693,0.17293231
C1D420,太閣南,2016-10-02,24.632808,121.160575,2.759454e-07
C1E770,公館,2016-10-02,24.526914,120.830806,0.032718852
CAN130,水試所海水繁養殖中心,2016-10-02,23.120802,120.07968,0.14255182
C1I430,翠華,2016-10-02,24.191961,121.224339,5.0638704e-08
C1M400,菜瓜坪,2016-10-02,23.251928,120.576103,7.43304e-09
C0G730,二林,2016-10-02,23.903325,120.376081,0.023583006
72M360,南改義竹分場,2016-10-02,23.360694,120.279361,0.00096838234
V2K620,麥寮合作社,2016-10-02,23.753836,120.294783,0.07923876
C0Z070,舞鶴,2016-10-02,23.46811,121.37407,0.98949575
C0B040,大武崙,2016-10-02,25.166676,121.706993,0.19673458
C1Z030,紅葉,2016-10-02,23.493119,121.338806,0.95993364
C1I050,丹大,2016-10-02,23.753747,121.141147,1.5276122e-08
C0I080,信義,2016-10-02,23.689694,120.851036,2.2390746e-07
C2M920,朴子農改,2016-10-02,23.469889,120.259383,0.34486216
C2A880,福隆,2016-10-02,25.017842,121.942083,0.09417544
C0Z160,鳳林,2016-10-02,23.746114,121.453411,0.9878212
C0V210,復興,2016-10-02,23.222403,120.806089,3.1760052e-08
C0H990,昆陽,2016-10-02,24.121322,121.273642,2.1792898e-08
C0R741,獅子,2016-10-02,22.202308,120.705236,1.664426e-05
C0S710,鹿野,2016-10-02,22.917711,121.122994,0.9270586
C0I530,小奇萊,2016-10-02,24.131764,121.295717,3.005829e-08
C2K630,荷苞,2016-10-02,23.657717,120.595144,0.97629535
C0Z080,富源,2016-10-02,23.587642,121.378225,0.9886872
467441,高雄,2016-10-02,22.7304,120.3125,1.1387381e-08
C0SB10,美和,2016-10-02,22.682078,121.060236,0.5814994
C2K620,馬光農場,2016-10-02,23.721453,120.378864,0.91899276
C1I140,卡奈托灣,2016-10-02,23.754364,121.087872,2.7485665e-08
C0I520,玉山風口,2016-10-02,23.470489,120.955994,3.265492e-08
C1G691,下水埔,2016-10-02,23.816114,120.5676,0.97698045
C0X110,臺南市南區,2016-10-02,22.961189,120.188378,1.604798e-07
C0V680,仁武,2016-10-02,22.701083,120.347722,9.48364e-09
C2G840,北斗,2016-10-02,23.877586,120.514222,0.27460727
C0R900,竹坑,2016-10-02,22.1385,120.7022,0.0022151836
C0K250,崙背,2016-10-02,23.75555,120.318925,0.08886198
C0G860,社頭,2016-10-02,23.897647,120.5862,0.5752595
C0X150,安定,2016-10-02,23.102614,120.227839,2.7837953e-07
C0R590,里港,2016-10-02,22.77919,120.49459,9.678545e-10
C0E610,馬都安,2016-10-02,24.451272,120.930192,0.81891185
C0E550,明德,2016-10-02,24.583486,120.885411,0.26030028
C0R150,三地門,2016-10-02,22.709889,120.639944,9.816082e-10
C0G910,花壇,2016-10-02,24.032076,120.549461,0.045861445
C1D400,鳥嘴山,2016-10-02,24.71909,121.28387,0.93412846
C0K500,元長,2016-10-02,23.64981,120.315024,0.46708414
C0F0B0,石岡,2016-10-02,24.276061,120.777644,4.674863e-07
C2V250,甲仙,2016-10-02,23.080106,120.591758,4.2352992e-09
C0SA20,金崙山,2016-10-02,22.567419,120.959667,1.6057893e-08
C0V350,溪埔,2016-10-02,22.738578,120.446797,2.3693798e-09
C0M660,溪口,2016-10-02,23.604131,120.403569,0.9044571
C1S880,壽卡,2016-10-02,22.238911,120.858903,3.2916684e-08
72D680,桃改新埔分場,2016-10-02,24.834444,121.066111,0.23717089
