站號,站名,日期,lat,lon,BLBTSLS
C0R710,龍磐,2016-11-29,21.931672,120.838942,0.9655929
C1F9D1,白毛台,2016-11-29,24.158325,120.886933,4.8191096e-09
C0G940,竹塘,2016-11-29,23.848253,120.386764,5.3748874e-08
467590,恆春,2016-11-29,22.003897,120.746339,0.9739626
C1O850,環湖,2016-11-29,23.148617,120.418633,0.0007249191
C0U710,太平山,2016-11-29,24.505486,121.525656,4.1865338e-08
C0E820,獅潭,2016-11-29,24.539133,120.920042,0.03710744
C0V880,興達,2016-11-29,22.8778,120.2127,0.011680189
C0S890,關山,2016-11-29,23.0395,121.175017,0.93620944
C0SB30,新蘭,2016-11-29,22.869214,121.223228,0.9772048
C2R970,屏科大,2016-11-29,22.648275,120.619247,1.7276822e-07
K2F750,種苗繁殖,2016-11-29,24.225972,120.800917,6.551682e-09
C1Z130,銅門,2016-11-29,23.965694,121.492842,1.3606669e-05
C0AD40,土城,2016-11-29,24.973208,121.445169,0.4683088
CAN140,六官養殖協會,2016-11-29,23.22881,120.29962,0.0003067779
C0X180,山上,2016-11-29,23.0757,120.363253,1.403145e-05
C0F9Z0,雪山東峰,2016-11-29,24.388792,121.268675,2.7698333e-08
C1M480,獨立山,2016-11-29,23.537022,120.607797,5.0584235e-09
C0X220,學甲,2016-11-29,23.230367,120.182187,0.032993652
467650,日月潭,2016-11-29,23.881325,120.90805,9.08387e-09
C0K600,箔子寮,2016-11-29,23.6197,120.14,0.016815767
C0G830,埤頭,2016-11-29,23.866003,120.452806,7.047699e-08
C0S950,七塊厝,2016-11-29,22.954453,121.229922,0.00012144643
467110,金門,2016-11-29,24.407306,118.289281,0.20643789
C0AH80,深坑,2016-11-29,25.002703,121.628328,0.4546037
467990,馬祖,2016-11-29,26.169269,119.923419,6.687031e-07
C0A970,三貂角,2016-11-29,25.007606,122.002058,0.97158253
C2D730,寶山農場,2016-11-29,24.732444,120.976153,0.67593133
C0K430,褒忠,2016-11-29,23.690938,120.303634,0.024667718
467480,嘉義,2016-11-29,23.495925,120.432906,0.0009838988
C2E540,後龍,2016-11-29,24.606489,120.783933,0.8520878
C0V400,阿公店,2016-11-29,22.804194,120.355528,4.026426e-06
C0R440,大漢山,2016-11-29,22.405264,120.753181,4.6062237e-08
C0K280,四湖,2016-11-29,23.630414,120.227125,0.5328103
C1F9B1,桐林,2016-11-29,24.066172,120.735194,1.2177722e-08
C2H9U0,鳳鵬,2016-11-29,23.763919,120.788061,2.105032e-09
C0K390,土庫,2016-11-29,23.679029,120.395574,2.7555847e-08
C1I450,望鄉山,2016-11-29,23.594153,120.944286,3.0546083e-08
C0E910,海埔,2016-11-29,24.648767,120.772435,0.9962573
B2E890,畜試北區分所,2016-11-29,24.527806,120.770972,0.9822246
C0R750,四林格山,2016-11-29,22.076989,120.802439,0.5706599
C0F0C0,中坑,2016-11-29,24.248517,120.903319,1.5303769e-08
C1I121,大鞍,2016-11-29,23.678381,120.760017,1.2130362e-08
72U480,花改蘭陽分場,2016-11-29,24.686306,121.716583,0.9419658
C0A770,科教館,2016-11-29,25.096356,121.516507,0.4737044
C0AJ60,六塊厝,2016-11-29,25.24,121.4481,0.8326263
C0R620,墾雷,2016-11-29,21.900836,120.855269,0.9734221
467420,永康,2016-11-29,23.038386,120.2367,0.0075473376
467300,東吉島,2016-11-29,23.25695,119.667467,0.4221915
C0I410,名間,2016-11-29,23.837053,120.701447,4.327029e-09
A2C560,農工中心,2016-11-29,24.985917,121.239833,0.63151664
C0V740,旗山,2016-11-29,22.888614,120.483597,8.765249e-05
C0Z061,玉里,2016-11-29,23.3215,121.339656,0.018316755
C0S840,南田,2016-11-29,22.279725,120.889208,0.084588006
C1I470,杉林溪,2016-11-29,23.639517,120.786444,1.3893263e-08
C1X040,東原,2016-11-29,23.291597,120.463822,2.2894413e-08
C0R660,枋寮,2016-11-29,22.367722,120.590647,0.0067124073
C1R120,上德文,2016-11-29,22.763272,120.704442,0.065182544
C0K450,大埤,2016-11-29,23.646074,120.431537,1.5314047e-08
C0UA00,土場,2016-11-29,24.576533,121.495333,2.6482041e-06
467080,宜蘭,2016-11-29,24.763975,121.756528,0.63323087
C0N030,四草,2016-11-29,23.0235,120.1116,0.38611382
C0V650,彌陀,2016-11-29,22.783806,120.246361,0.0024154868
C0D660,新竹市東區,2016-11-29,24.798681,120.986942,0.8339093
82S580,茶改東部分場,2016-11-29,22.907694,121.130139,0.2113955
C0SB40,興隆,2016-11-29,22.913661,121.257469,0.82956517
C0C710,大溪永福,2016-11-29,24.892936,121.324975,0.6286633
C0FA20,溫寮,2016-11-29,24.372177,120.583125,0.98040897
C0V640,湖內,2016-11-29,22.887139,120.2445,0.0072331163
C0R910,下寮,2016-11-29,22.3929,120.5548,0.0020183711
C0Z020,明里,2016-11-29,23.208717,121.262342,8.479948e-05
C0M770,嘉義梅山,2016-11-29,23.585398,120.555587,5.480268e-09
G2F820,農業試驗所,2016-11-29,24.031261,120.688133,0.0063701076
C0C660,楊梅,2016-11-29,24.912375,121.143047,0.6275868
C1E511,新開,2016-11-29,24.347703,120.827019,3.653787e-09
G2F820,農試所(霧峰),2016-11-29,24.031261,120.688133,0.0063701076
C1I070,和社,2016-11-29,23.591131,120.888861,3.457423e-09
C2F000,大肚,2016-11-29,24.15295,120.572117,9.523046e-09
C1S850,豐南,2016-11-29,23.122139,121.262389,8.992361e-06
C2A920,富貴角,2016-11-29,25.263783,121.565258,0.9789512
CAH030,茶改場竹圍站,2016-11-29,23.860083,120.637528,2.5491593e-09
C0T960,光復,2016-11-29,23.660694,121.424964,0.0116007775
C0F9M0,豐原,2016-11-29,24.254322,120.720692,0.37257254
C0R720,旭海,2016-11-29,22.205403,120.887614,0.056775086
C0V710,苓雅,2016-11-29,22.622742,120.330669,0.00022285662
C0C740,觀音工業區,2016-11-29,25.064764,121.114856,0.9166663
CAC040,拉拉山,2016-11-29,24.699317,121.427133,2.4498815e-08
C0V790,萬山,2016-11-29,22.905944,120.688056,1.2977788e-08
U2HA30,臺大和社,2016-11-29,23.590856,120.888864,3.457423e-09
C0AJ90,澳底,2016-11-29,25.0552,121.9253,0.9732605
C0Z100,東華,2016-11-29,23.89525,121.549833,0.11333646
C0G970,三豐,2016-11-29,23.882,120.2895,0.92346734
V2K610,大庄合作社,2016-11-29,23.8068,120.367939,0.01227297
C0V900,汕尾,2016-11-29,22.4782,120.4151,1.6319162e-05
C1R630,龍泉,2016-11-29,22.66701,120.59091,6.7350907e-06
C1AC50,關渡,2016-11-29,25.133486,121.469331,0.81349266
C0F9I0,神岡,2016-11-29,24.272481,120.658314,0.5249155
C0K460,斗南,2016-11-29,23.678734,120.478359,9.963253e-09
467410,臺南,2016-11-29,22.993239,120.204772,0.006554294
C2O810,曾文,2016-11-29,23.219681,120.497328,1.7564846e-05
467280,後龍,2016-11-29,24.648563,120.831834,0.9927359
C1F9J1,清水林,2016-11-29,24.071242,120.820419,1.5308023e-09
C2A650,火燒寮,2016-11-29,25.002719,121.742892,0.7531955
466930,竹子湖,2016-11-29,25.162078,121.544547,1.5324587e-06
C1I220,樟湖,2016-11-29,23.905333,120.846983,6.0517618e-09
C0I390,仁愛,2016-11-29,24.022122,121.132206,4.8338573e-09
C0Z300,東里,2016-11-29,23.26853,121.30547,0.008044173
C1V590,新發,2016-11-29,23.057019,120.646064,1.6989554e-05
C0K510,水林,2016-11-29,23.572924,120.24597,0.011946838
72S590,東改賓朗果園,2016-11-29,22.813889,121.071278,0.9961089
82A750,茶改北部分場,2016-11-29,24.955778,121.631222,2.532478e-07
C1A750,石碇服務區,2016-11-29,25.00872,121.646242,0.44448948
C0X300,鹿寮,2016-11-29,23.386047,120.477331,2.8202912e-08
G2AI50,關渡,2016-11-29,25.11575,121.492,0.47699484
C0K590,雲林東勢,2016-11-29,23.674192,120.255721,0.024667718
C0A570,桶後,2016-11-29,24.848222,121.597992,0.0038113154
C1S800,華源,2016-11-29,22.657883,121.02325,0.9387948
C0G720,溪州,2016-11-29,23.851589,120.499093,5.016295e-08
C1V160,達卡努瓦,2016-11-29,23.279811,120.705319,4.787632e-08
C2M410,馬頭山,2016-11-29,23.324361,120.582017,1.3853942e-08
C0V850,蚵仔寮,2016-11-29,22.7256,120.2527,0.0008011338
C0S740,池上,2016-11-29,23.119628,121.209469,0.035457596
C1V390,尖山,2016-11-29,22.813153,120.367789,1.9258414e-06
C0AH70,松山,2016-11-29,25.04871,121.55042,0.47413787
C0N010,鯤鯓國小,2016-11-29,23.1879,120.0889,0.8969468
C0R550,新埤,2016-11-29,22.467947,120.582894,1.1070772e-06
C0SA60,知本（水試所）,2016-11-29,22.702394,121.082761,0.7056869
C0T9I0,豐濱,2016-11-29,23.583897,121.514806,0.0031537472
C0UB00,淡江大學蘭陽校園,2016-11-29,24.823239,121.730383,1.0348008e-06
C0W240,九宮,2016-11-29,24.423753,118.240186,0.30926764
C0T9N0,富里,2016-11-29,23.171639,121.249378,0.0023545139
U2HA50,臺大竹山,2016-11-29,23.756972,120.681556,2.699514e-09
C0V840,鳳鼻頭,2016-11-29,22.5083,120.3591,0.00030696538
C0X140,西港,2016-11-29,23.125608,120.203108,0.27529973
72D080,桃改五峰分場,2016-11-29,24.612194,121.157167,1.9106027e-08
C2H9P0,伊拿谷,2016-11-29,23.963211,121.088264,2.4166693e-09
C2H9F0,柑林,2016-11-29,24.018658,120.847072,2.4971376e-09
C0TA20,加灣,2016-11-29,24.082025,121.608944,0.0031445173
C0V530,阿蓮,2016-11-29,22.883208,120.327508,0.00010336437
C1O880,關山,2016-11-29,23.173397,120.594092,1.1848503e-08
C0E791,卓蘭,2016-11-29,24.3126,120.8244,3.5939993e-09
C1I030,武界,2016-11-29,23.913225,121.052483,5.3695257e-09
C0R520,崁頂,2016-11-29,22.514781,120.506914,0.0011241345
C0R341,牡丹,2016-11-29,22.130036,120.792639,0.99801517
C0R930,萬丹,2016-11-29,22.5885,120.4851,1.4927581e-06
C0S760,紅石,2016-11-29,23.069131,121.126219,5.3055242e-08
C1M610,石磐龍,2016-11-29,23.496606,120.663506,1.1034776e-08
C0UA10,鴛鴦湖,2016-11-29,24.590269,121.412228,1.3474934e-08
V2C260,八德蔬果,2016-11-29,24.978508,121.281819,0.54915047
C0R800,丹路,2016-11-29,22.204481,120.750989,0.92928344
C0G920,永靖,2016-11-29,23.924703,120.547533,9.470017e-06
C2M950,太和,2016-11-29,23.538372,120.702961,9.228152e-09
C1A630,下盆,2016-11-29,24.771003,121.538622,2.07395e-07
B2N890,畜產試驗所,2016-11-29,23.058972,120.336406,1.0138709e-05
C0UA30,白嶺,2016-11-29,24.527819,121.519031,2.9020628e-08
C1V580,溪南(特生中心),2016-11-29,23.084972,120.788475,3.6677676e-08
C1T970,大農,2016-11-29,23.615233,121.413331,0.00090221455
E2S960,林試太麻里2,2016-11-29,22.598014,120.989761,0.59657097
C0R650,竹田,2016-11-29,22.58486,120.54344,1.4927581e-06
C1H900,清流,2016-11-29,24.080775,120.962997,1.5230757e-09
C1C510,水尾,2016-11-29,24.940081,121.087161,0.63874775
C0F9X0,大雅(中科園區),2016-11-29,24.21528,120.62445,0.1066873
C0SB60,白守蓮,2016-11-29,23.126769,121.401914,0.93689936
C0O970,虎頭埤,2016-11-29,23.021375,120.347878,0.00020788489
C0C730,中大臨海站,2016-11-29,24.966126,121.008581,0.78160715
C0X250,新營,2016-11-29,23.310689,120.316681,3.9386134e-05
C0V700,三民,2016-11-29,22.645017,120.311233,0.00022285662
C0U870,大礁溪,2016-11-29,24.791042,121.675047,3.5168156e-07
C0E870,高鐵苗栗,2016-11-29,24.60725,120.826094,0.8250858
A2K570,古坑花卉中心,2016-11-29,23.63353,120.55239,9.5431565e-09
C0M860,新美,2016-11-29,23.338017,120.683169,1.1579509e-08
C1E701,八卦,2016-11-29,24.491756,120.927619,0.00017993257
C0I420,國姓,2016-11-29,24.037803,120.855072,1.4619476e-09
C2D720,關西工作站,2016-11-29,24.757275,121.184792,0.3951912
C0S960,香蘭,2016-11-29,22.587569,120.993375,0.59657097
C0R260,春日,2016-11-29,22.370361,120.628306,0.18322206
72G600,臺中農改場,2016-11-29,24.003028,120.534389,0.0005308067
C0Z210,瑞穗,2016-11-29,23.5239,121.39021,0.009352138
C0M820,達邦,2016-11-29,23.453994,120.749517,4.3233004e-09
C0V860,南寮,2016-11-29,22.7616,120.2339,0.0039719245
C0G740,大城,2016-11-29,23.852487,120.320935,0.9200968
C0R920,塭仔,2016-11-29,22.4169,120.5197,0.0026418085
C0R470,高樹,2016-11-29,22.826389,120.600806,1.0264571e-05
C0R680,佳樂水,2016-11-29,21.993578,120.861633,0.9750414
C1O870,大棟山,2016-11-29,23.31157,120.52226,6.814946e-09
C0D360,梅花,2016-11-29,24.678347,121.208558,5.173564e-06
C0Z190,富世,2016-11-29,24.14743,121.6297,0.00017533265
C0AI10,屈尺,2016-11-29,24.92184,121.54475,0.45444536
B2U990,畜試東區分所,2016-11-29,24.669039,121.832561,0.9273824
C0SB80,長濱漁港,2016-11-29,23.313644,121.459994,0.972147
C0R240,來義,2016-11-29,22.527306,120.625111,0.08772152
C0V910,大樹,2016-11-29,22.684645,120.432803,1.2269907e-05
C1R610,西大武山,2016-11-29,22.617719,120.7322,1.6423517e-07
C0G900,線西,2016-11-29,24.143358,120.443536,0.98718536
C0M700,竹崎,2016-11-29,23.526178,120.555508,6.910327e-09
C2E880,三義,2016-11-29,24.405478,120.749819,5.781762e-09
C0C720,竹圍,2016-11-29,25.112692,121.239824,0.838295
C0F9P0,清水,2016-11-29,24.312297,120.562242,0.9773297
C0Z150,吉安光華,2016-11-29,23.930925,121.595153,0.21949014
C1D640,外坪(五指山),2016-11-29,24.644447,121.090961,8.6830386e-07
C0F9O0,潭子,2016-11-29,24.213106,120.703933,0.098671146
C2H9R0,卓社,2016-11-29,23.887894,121.000086,8.686028e-09
72T250,花蓮農改場,2016-11-29,23.975222,121.563889,0.0014347949
C0E780,銅鑼,2016-11-29,24.489681,120.790853,0.9528358
C1T950,太安,2016-11-29,23.666719,121.370128,1.1250833e-07
C0E830,苑裡,2016-11-29,24.439714,120.653053,0.97882956
467270,田中,2016-11-29,23.873803,120.581286,1.2759977e-08
C0SA10,檳榔四格山,2016-11-29,22.810031,121.109308,0.99748397
C1T830,布洛灣,2016-11-29,24.17184,121.57127,1.796552e-05
C0F970,大坑,2016-11-29,24.173142,120.722289,0.017560275
C1U920,思源,2016-11-29,24.393125,121.347214,2.9056796e-08
C0A931,三和,2016-11-29,25.233153,121.595236,0.8576119
C0I010,廬山,2016-11-29,24.033311,121.181808,1.7075779e-08
C2M940,日野賀,2016-11-29,23.434056,120.727169,1.1783641e-08
C0R860,鼻頭,2016-11-29,22.1043,120.8979,0.9686653
C0UB20,壯圍,2016-11-29,24.7359,121.8163,0.9273824
C0R790,九棚,2016-11-29,22.14195,120.889281,0.052106675
C0W110,東莒,2016-11-29,25.9652,119.98069,0.99760896
C1U930,粉鳥林,2016-11-29,24.497088,121.842479,0.3744114
C1I211,蘆竹湳,2016-11-29,23.934019,120.811994,7.207703e-09
C0S830,長濱,2016-11-29,23.286817,121.411975,3.103931e-05
C1F9F1,伯公龍,2016-11-29,24.272392,120.849047,6.6086745e-09
C0E810,西湖,2016-11-29,24.562947,120.7485,0.7116205
C1I440,新高口,2016-11-29,23.478744,120.878939,3.049968e-08
C0O840,王爺宮,2016-11-29,23.222064,120.40085,1.7564846e-05
C0T9G0,鳳林山,2016-11-29,23.735269,121.420131,1.19245915e-05
C0X080,佳里,2016-11-29,23.173039,120.145086,0.044691857
C0FB70,大甲溪埔,2016-11-29,24.370625,120.620067,0.9788329
C0Z310,清水斷崖,2016-11-29,24.218294,121.689142,0.2145978
C0M680,太保,2016-11-29,23.455062,120.331455,5.8935846e-05
C1S820,金峰,2016-11-29,22.590969,120.933236,0.5942298
C0AD10,八里,2016-11-29,25.150211,121.403947,0.838295
C2K240,草嶺,2016-11-29,23.59555,120.693461,7.48731e-09
C1SA70,都蘭,2016-11-29,22.87794,121.226881,0.8277657
C0K440,二崙,2016-11-29,23.772797,120.408944,4.4435044e-08
C1A760,坪林交控,2016-11-29,24.94284,121.713442,0.3383267
C0F9N0,大里,2016-11-29,24.092464,120.701378,0.25770834
C0SA90,達仁林場,2016-11-29,22.264347,120.823972,0.4184062
C1R290,石門山,2016-11-29,22.112611,120.756597,0.91662776
42HA10,萬大發電廠,2016-11-29,23.978875,121.139639,1.0744609e-08
C0R890,山海,2016-11-29,21.9878,120.7091,0.9759578
C0T9A0,月眉山,2016-11-29,23.809928,121.539828,1.891761e-06
C0AC70,信義,2016-11-29,25.037822,121.564597,0.4732437
C0K560,棋山,2016-11-29,23.68645,120.603417,7.978748e-09
C2FB50,出雲,2016-11-29,24.206469,120.902794,5.004681e-09
C1Z240,中平林道,2016-11-29,23.42115,121.26763,2.0124507e-07
U2H480,溪頭,2016-11-29,23.670306,120.798194,9.5138235e-09
C0M880,好美里,2016-11-29,23.3364,120.138,0.044691857
C0T9E0,大坑,2016-11-29,23.880628,121.581981,5.776298e-06
C0K530,臺西,2016-11-29,23.701547,120.197559,0.74286145
C1E900,國一N128K,2016-11-29,24.560997,120.844186,0.43489462
C0AJ50,水湳洞,2016-11-29,25.123695,121.862238,0.9980337
C0AI20,白沙灣,2016-11-29,25.283128,121.519058,0.9962926
C0A860,大坪,2016-11-29,25.165914,121.632969,0.00018377126
C1U850,觀音海岸,2016-11-29,24.38319,121.77856,6.9047496e-07
C2K610,草嶺石壁,2016-11-29,23.602469,120.707731,1.0680329e-08
C0U950,鶯子嶺,2016-11-29,24.89754,121.79244,7.175554e-08
C0O900,善化,2016-11-29,23.112883,120.297219,2.0823243e-05
C0K550,蔦松,2016-11-29,23.514319,120.229736,0.0021539622
E2P980,林試六龜中心,2016-11-29,22.991703,120.645722,6.320458e-08
C0E590,通霄,2016-11-29,24.471892,120.704622,0.9896389
C1I310,西巒,2016-11-29,23.754486,120.883956,7.3712436e-09
C0A550,泰平,2016-11-29,24.971197,121.823711,6.2170448e-06
C0I360,水里,2016-11-29,23.812553,120.849792,2.9022384e-09
C0R830,高士,2016-11-29,22.121825,120.836781,0.90091914
C1I101,溪頭,2016-11-29,23.661789,120.807647,1.801248e-08
C0AJ20,野柳,2016-11-29,25.20703,121.690021,0.9980337
C0B060,暖暖,2016-11-29,25.0957,121.7403,0.99673426
C1H920,長豐,2016-11-29,24.102039,120.879897,1.5276987e-09
C0V360,內門,2016-11-29,22.975481,120.466769,9.075678e-05
C0R850,林邊,2016-11-29,22.4634,120.5339,0.0011241345
C0E930,龍鳳,2016-11-29,24.700034,120.859125,0.9929111
C0U910,冬山,2016-11-29,24.63373,121.7937,0.9273824
C1E721,泰安,2016-11-29,24.489017,120.968036,4.882048e-09
82H320,茶改中部分場,2016-11-29,23.875611,120.913583,2.8194778e-09
C0M750,布袋,2016-11-29,23.380878,120.167789,0.008602821
C1S860,利嘉,2016-11-29,22.809417,121.050528,3.9870876e-05
72C440,桃園農改,2016-11-29,24.950944,121.030583,0.82039684
E2S980,林試太麻里1,2016-11-29,22.598922,120.980044,0.5970187
C0X170,關廟,2016-11-29,22.963017,120.327797,1.8953577e-05
C0V720,林園,2016-11-29,22.507747,120.394511,0.00022314898
C1I510,線浸林道,2016-11-29,23.761508,120.832956,6.8785564e-09
C0D690,外湖,2016-11-29,24.917735,120.968711,0.78160715
C0C750,新興坑尾,2016-11-29,25.0061,121.0971,0.908389
B2Q810,畜試南區分所,2016-11-29,21.945583,120.802167,0.9750414
C0S790,金崙,2016-11-29,22.538122,120.966875,0.6050539
C0AH90,福山植物園,2016-11-29,24.760717,121.58135,5.763103e-06
C0I540,奇萊稜線,2016-11-29,24.109231,121.326456,3.1590286e-08
C0M850,表湖,2016-11-29,23.24186,120.64166,7.806165e-09
C0S770,大溪山,2016-11-29,22.478475,120.943325,0.8517196
C0AG80,中和,2016-11-29,24.991622,121.491792,0.4732437
C0T790,大禹嶺,2016-11-29,24.186117,121.316086,2.3355586e-08
C0T9B0,水源,2016-11-29,23.991861,121.537169,9.579293e-07
C0R840,牡丹池山,2016-11-29,22.168389,120.841225,0.3774293
C1I131,桶頭,2016-11-29,23.641944,120.654117,2.8427785e-09
CAL110,布袋國中,2016-11-29,23.35893,120.18026,0.0001977742
467571,新竹,2016-11-29,24.827853,121.014219,0.84716666
C0Z290,赤柯山,2016-11-29,23.36893,121.38293,4.2445288e-07
C0X280,將軍,2016-11-29,23.214999,120.13577,0.044691812
C0S690,太麻里,2016-11-29,22.60902,120.98533,0.9924261
C0U880,北關,2016-11-29,24.9072,121.8734,0.8962684
C1H860,瑞岩,2016-11-29,24.123772,121.18345,1.0832619e-08
C0G810,埔心,2016-11-29,23.947633,120.525456,1.3331017e-05
C0U970,大福,2016-11-29,24.80064,121.81389,0.6376477
C2H9N0,仁愛東眼,2016-11-29,24.026875,121.1205,8.5617105e-09
C1E670,南礦,2016-11-29,24.538278,121.002836,5.347684e-09
C0M520,東後寮,2016-11-29,23.369908,120.248065,0.00017606326
C1E461,松安,2016-11-29,24.397972,120.986022,4.7022164e-09
72G600,臺中農改,2016-11-29,24.003028,120.534389,0.0005308067
C2N160,西拉雅風管處,2016-11-29,23.189481,120.335297,0.00017119193
C2M970,碧湖,2016-11-29,23.568632,120.624165,7.681199e-09
C0A640,石碇,2016-11-29,24.993969,121.662917,0.82556146
E2S960,林試太麻里2,2016-11-29,22.598,120.99775,0.5967165
C0F9Y0,桃山,2016-11-29,24.432739,121.303808,2.886721e-08
C1I020,萬大,2016-11-29,23.979817,121.132261,4.853091e-09
C0U940,羅東,2016-11-29,24.68184,121.74934,0.9333049
C0M650,朴子,2016-11-29,23.43463,120.23902,0.007382289
C1I500,大尖山,2016-11-29,23.858572,120.994889,3.890284e-08
C0G820,田尾,2016-11-29,23.901669,120.509389,9.489019e-06
E2K600,四湖植物園,2016-11-29,23.676986,120.163433,0.7425293
C0S730,綠島,2016-11-29,22.6672,121.47533,0.97638434
12Q970,東港工作站,2016-11-29,22.479997,120.466058,0.0020183711
C0E430,南庄,2016-11-29,24.601775,121.000214,0.02236769
C1TA00,太魯閣,2016-11-29,24.15773,121.6236,0.24515282
466920,臺北,2016-11-29,25.037658,121.514853,0.47413775
C0R600,舊泰武,2016-11-29,22.588194,120.664944,0.0005140533
C1I260,北坑,2016-11-29,23.9246,121.006903,1.3720374e-09
466910,鞍部,2016-11-29,25.182586,121.529731,2.8925672e-07
C1I230,九份二山,2016-11-29,23.961944,120.845,1.5610124e-09
C2A660,瑞芳,2016-11-29,25.113169,121.801147,0.95840544
C0R270,琉球嶼,2016-11-29,22.332244,120.362236,0.1832221
C1T990,高寮,2016-11-29,23.394239,121.356808,0.0012771033
C0G620,芬園,2016-11-29,24.015678,120.6213,7.394185e-07
C1Z140,荖溪,2016-11-29,23.890575,121.45964,6.381473e-08
C1I201,中心崙,2016-11-29,23.728722,120.712097,2.874873e-09
C1I400,凌霄,2016-11-29,24.018778,121.004456,8.5085095e-09
C1M640,十字,2016-11-29,23.492153,120.753683,1.2018642e-08
G2P820,農試鳳山分所,2016-11-29,22.646611,120.356083,0.00010642968
C0Z270,蕃薯寮,2016-11-29,23.73835,121.540108,0.00070706895
C0F9Q0,外埔,2016-11-29,24.347817,120.705686,0.7814674
C0K580,高鐵雲林,2016-11-29,23.737456,120.417944,2.7555847e-08
C2I090,鳳凰,2016-11-29,23.728081,120.787347,2.8192195e-09
C0U990,員山,2016-11-29,24.74435,121.72247,0.9333049
C0V770,大社,2016-11-29,22.730306,120.346639,0.000378543
C0X120,麻豆,2016-11-29,23.183289,120.248611,0.032993652
C0C670,龍潭,2016-11-29,24.870056,121.221389,0.1700447
C0D680,香山濕地,2016-11-29,24.783581,120.914988,0.9551033
C0S980,勝林山,2016-11-29,22.430439,120.8938,0.6621876
C0V730,大寮,2016-11-29,22.605614,120.395717,8.6678e-05
C0R570,麟洛,2016-11-29,22.65078,120.52719,7.0575993e-07
C2M930,石卓,2016-11-29,23.478744,120.702264,1.2045562e-08
C0G9B0,和美,2016-11-29,24.105169,120.492131,0.009493758
CAG100,王功漁港,2016-11-29,23.96824,120.32586,0.93050313
C0X290,北門,2016-11-29,23.267772,120.125481,0.044691857
C2F930,大甲,2016-11-29,24.347667,120.640403,0.9552144
C0D650,湖口,2016-11-29,24.904794,121.043628,0.8361177
C0E420,竹南,2016-11-29,24.708978,120.888897,0.95209956
C0U780,五結,2016-11-29,24.68637,121.79794,0.9273824
C1I250,鯉潭,2016-11-29,23.961922,120.991131,1.5276987e-09
C0R130,阿禮,2016-11-29,22.742908,120.743678,2.635558e-08
C0X100,臺南市北區,2016-11-29,23.010394,120.194228,0.014153644
C0S920,金峰嘉蘭,2016-11-29,22.594789,120.960825,0.59941137
C0V490,新興,2016-11-29,22.627422,120.298803,0.00022314856
C0F9K0,大安,2016-11-29,24.345061,120.588025,0.97662127
72N100,臺南農改,2016-11-29,23.0605,120.342194,1.0138709e-05
467290,古坑,2016-11-29,23.633639,120.551889,9.5431565e-09
C2E970,八甲,2016-11-29,24.535811,120.795983,0.9433846
C0V440,鳳山,2016-11-29,22.646653,120.356122,0.00010642968
C1T940,大觀,2016-11-29,23.714206,121.373133,8.347002e-06
72T250,花蓮農改,2016-11-29,23.975222,121.563889,0.0014347961
C0E740,造橋,2016-11-29,24.637056,120.864778,0.9795067
C0R100,尾寮山,2016-11-29,22.833111,120.683889,3.21049e-08
A2K630,臺大雲林校區,2016-11-29,23.730628,120.423903,2.7555847e-08
C0D580,寶山,2016-11-29,24.735006,121.025192,0.63004476
E2P990,林試扇平站,2016-11-29,22.9677,120.6857,6.168518e-05
C0AI30,三重,2016-11-29,25.057328,121.500629,0.4737044
C0AH00,汐止,2016-11-29,25.066881,121.658778,0.9980337
C1Z040,立山,2016-11-29,23.443356,121.327375,3.8585968e-06
C0W130,花嶼,2016-11-29,23.40007,119.32276,0.08252831
C0A950,鼻頭角,2016-11-29,25.129036,121.923372,0.9741746
C0K470,林內,2016-11-29,23.748675,120.609642,8.148259e-09
C2F990,摩天嶺,2016-11-29,24.322458,120.936819,1.2449828e-08
82C160,茶改場,2016-11-29,24.908472,121.185333,0.35174674
C0Z320,清水林道,2016-11-29,23.27125,121.188272,2.2245536e-06
C0R760,南仁湖,2016-11-29,22.084681,120.863353,0.9125071
C0M670,大林,2016-11-29,23.600616,120.45841,0.030329654
C0M800,茶山,2016-11-29,23.299075,120.664767,4.201781e-08
C0A9C0,天母,2016-11-29,25.117494,121.537169,0.4652317
72K220,南改斗南分場,2016-11-29,23.634556,120.477333,1.283156e-08
72AI40,桃改樹林分場,2016-11-29,24.944503,121.386972,0.4603758
C0S910,蘭嶼燈塔,2016-11-29,22.081197,121.503117,0.49045885
C0B050,八斗子,2016-11-29,25.144754,121.79167,0.9981998
C0U900,內城,2016-11-29,24.71813,121.68766,0.60642743
C0X320,柳營,2016-11-29,23.253328,120.375253,0.0005307371
C0M790,新港,2016-11-29,23.553269,120.345728,0.000100580306
C0F9T0,西屯,2016-11-29,24.179494,120.641275,0.60201097
C0SA30,都歷,2016-11-29,23.020333,121.323642,0.97480285
C0C620,蘆竹,2016-11-29,25.084275,121.265767,0.84336716
C0R730,大坪頂,2016-11-29,22.024633,120.69355,0.96963847
C0AJ40,石門,2016-11-29,25.273672,121.601198,0.98489743
C0E750,苗栗,2016-11-29,24.564569,120.824575,0.5547132
C0T870,鯉魚潭,2016-11-29,23.935639,121.508944,0.0008193526
C1V170,排雲,2016-11-29,23.463619,120.954147,3.698664e-08
C2H950,中寮,2016-11-29,23.884447,120.766406,2.3682774e-09
C0R350,貓鼻頭,2016-11-29,21.921774,120.7358,0.9734
C0V660,岡山,2016-11-29,22.797078,120.294958,0.00030319014
C1H941,雙冬,2016-11-29,23.967378,120.802189,1.3649455e-09
C0AJ70,田寮,2016-11-29,25.2698,121.4886,0.99667805
C0AI00,五股,2016-11-29,25.07445,121.42728,0.8547299
C0Z280,德武,2016-11-29,23.47426,121.41071,9.229493e-05
C0R700,枋山,2016-11-29,22.246844,120.661086,0.23947465
C0C460,復興,2016-11-29,24.820208,121.352281,5.941814e-06
E2H360,蓮華池,2016-11-29,23.918333,120.885278,2.0745519e-09
C0M640,中埔,2016-11-29,23.42538,120.5229,1.2635372e-08
C0W140,金沙,2016-11-29,24.488292,118.408778,0.62747735
C2A540,四堵,2016-11-29,24.8926,121.745736,0.0065856124
C0ACA0,新莊,2016-11-29,25.051478,121.446756,0.8818362
C0R220,潮州,2016-11-29,22.534361,120.54,0.0026345516
U2HA40,臺大內茅埔,2016-11-29,23.689722,120.851117,3.0647083e-09
467490,臺中,2016-11-29,24.145736,120.684075,0.0151697025
C0U960,翠峰湖,2016-11-29,24.510856,121.608044,4.2381135e-08
E2HA20,林試畢祿溪站,2016-11-29,24.226944,121.308522,1.7174816e-08
C0V890,前鎮,2016-11-29,22.5718,120.3117,0.00030696538
467620,蘭嶼,2016-11-29,22.036969,121.558339,0.1118304
C1F941,雪嶺,2016-11-29,24.280586,121.026642,1.600759e-08
C2H9E0,國姓南港,2016-11-29,23.911108,120.846556,6.07115e-09
C0AC80,文山,2016-11-29,25.00235,121.575728,0.45444536
C0F9R0,龍井,2016-11-29,24.184536,120.528972,0.98227435
C0M760,民雄,2016-11-29,23.551754,120.428457,0.0016595054
C0UA40,西德山,2016-11-29,24.560647,121.752608,5.977712e-08
C1T920,中興,2016-11-29,23.769503,121.498653,0.025932191
C0D550,雪霸,2016-11-29,24.526972,121.11605,1.13828635e-08
C2F860,梨山,2016-11-29,24.247522,121.243669,1.736024e-08
C0R320,車城,2016-11-29,22.0744,120.716247,0.9759578
C1S870,南美山,2016-11-29,23.15025,121.382333,0.90479547
C0B020,基隆嶼,2016-11-29,25.19141,121.78391,0.9980337
C1U501,牛鬥,2016-11-29,24.637836,121.573656,0.2589907
C0M730,嘉義市東區,2016-11-29,23.457673,120.460531,0.04234088
C0S700,知本,2016-11-29,22.684866,121.005642,0.9922292
C1N001,沙崙,2016-11-29,22.935472,120.309406,0.00010336437
C0V760,橋頭,2016-11-29,22.757806,120.30575,0.00020301291
C0G960,福寶,2016-11-29,24.0443,120.3814,0.01390731
C0X210,白河,2016-11-29,23.347466,120.414427,0.00036109623
C0S810,東河,2016-11-29,22.972672,121.303986,0.88172525
C2R170,屏東,2016-11-29,22.66027,120.49403,8.649393e-07
C0R670,楓港,2016-11-29,22.190131,120.692156,0.23947465
C0FA50,霧峰,2016-11-29,24.0419,120.6995,0.0082980655
C0UB10,蘇澳,2016-11-29,24.5969,121.8571,0.9327155
C0G950,防潮門,2016-11-29,24.1835,120.4871,0.9842226
C0M740,六腳,2016-11-29,23.492871,120.290625,8.2001236e-05
C1R250,力里,2016-11-29,22.428117,120.629228,0.08784851
C0K330,虎尾,2016-11-29,23.719183,120.442036,2.3879277e-08
C2FA00,烏石坑,2016-11-29,24.273503,120.947617,1.2486188e-08
C0V620,永安,2016-11-29,22.82315,120.236856,0.0024154868
C1I330,楓樹林,2016-11-29,23.986803,121.076117,8.753235e-09
C0W200,湖西,2016-11-29,23.596314,119.67275,0.12245816
72Q010,高雄農改場,2016-11-29,22.709333,120.525889,5.6090596e-07
C0SA40,瑞和,2016-11-29,22.974361,121.156697,0.9612963
C0C680,龜山,2016-11-29,25.02846,121.38656,0.07868242
C2V260,月眉,2016-11-29,22.971003,120.539853,5.474681e-08
C0V450,鳳森,2016-11-29,22.545064,120.392592,5.4061666e-06
C0U720,南山,2016-11-29,24.43742,121.38167,6.89632e-08
A2N290,臺南蘭花園區,2016-11-29,23.340258,120.379661,0.0005307371
C0R560,新園,2016-11-29,22.5434,120.461558,0.0011241345
C0U890,三星,2016-11-29,24.66812,121.65302,0.5463649
C1V300,御油山,2016-11-29,23.001983,120.715364,3.8539405e-08
C0U600,礁溪,2016-11-29,24.817539,121.765608,0.624892
C1T980,龍澗,2016-11-29,24.023289,121.411328,4.3907477e-08
C0D670,海天一線,2016-11-29,24.831986,120.914438,0.95602894
C0SA00,歷坵,2016-11-29,22.520969,120.89185,0.9663725
C0M710,東石,2016-11-29,23.458927,120.15385,0.0021539622
C0M780,鹿草,2016-11-29,23.41134,120.30835,0.0002800582
C0U520,雙連埤,2016-11-29,24.753033,121.641303,3.445073e-07
C0B010,七堵,2016-11-29,25.094819,121.71713,0.9977414
C0R480,長治,2016-11-29,22.693128,120.542622,8.8751726e-08
C1V830,國三S383K,2016-11-29,22.781967,120.426475,3.7831487e-08
12Q980,恆春工作站,2016-11-29,22.079678,120.714425,0.9759578
C1O940,東山服務區,2016-11-29,23.286016,120.398472,0.00026364144
C1U840,東澳嶺,2016-11-29,24.5378,121.8485,6.0836777e-07
C1D630,飛鳳山,2016-11-29,24.766464,121.119178,0.057654493
C0S940,石寧山,2016-11-29,23.223772,121.406639,0.0043594483
C0K410,北港,2016-11-29,23.573957,120.292802,0.00012375576
C2M620,瑞里,2016-11-29,23.545133,120.675197,9.77118e-09
C0SB70,小港漁港,2016-11-29,23.158558,121.400431,0.5643315
C2O950,安南,2016-11-29,23.076694,120.144861,0.6178038
C0F0E0,南湖圈谷,2016-11-29,24.363714,121.444667,3.5894388e-08
467610,成功,2016-11-29,23.097486,121.373428,0.9621057
C0G890,伸港,2016-11-29,24.148933,120.484403,0.98225254
C2E540,龍溪,2016-11-29,24.606489,120.783933,0.8520878
C1V200,梅山,2016-11-29,23.268447,120.823556,2.0826035e-07
C0T9H0,加路蘭山,2016-11-29,23.682947,121.5274,2.2964362e-06
C2O930,玉井,2016-11-29,23.126042,120.46055,0.0007249191
C1F911,新伯公,2016-11-29,24.221361,120.841069,8.937888e-09
C0R490,九如,2016-11-29,22.7405,120.490503,7.0575993e-07
C0X200,左鎮,2016-11-29,23.056758,120.408522,1.9267842e-05
C0SB50,叭嗡嗡,2016-11-29,23.047062,121.343223,0.9526088
C1F891,稍來,2016-11-29,24.265689,121.001142,1.23842945e-08
72N240,七股研究中心,2016-11-29,23.081672,120.062894,0.97123504
C0C700,中壢,2016-11-29,24.977661,121.256375,0.53309923
C0M690,水上,2016-11-29,23.419734,120.388909,0.018611804
C0V690,鼓山,2016-11-29,22.623325,120.275575,0.00022314898
C0O860,大內,2016-11-29,23.11885,120.36083,2.379511e-06
C0Z200,萬榮,2016-11-29,23.709219,121.420106,0.0008193526
C0T9D0,和中,2016-11-29,24.26676,121.74103,0.767683
C1O921,楠西,2016-11-29,23.183511,120.484083,0.00017568494
C0AJ30,淡水觀海,2016-11-29,25.184591,121.408616,0.8324463
C0V810,左營,2016-11-29,22.67491,120.28491,0.00061351777
C0UA70,桃源谷,2016-11-29,24.962606,121.888875,9.944099e-07
C0X130,官田,2016-11-29,23.193217,120.315422,0.00027633674
C1H000,翠峰,2016-11-29,24.109397,121.205211,2.0850214e-08
C0UA90,石城,2016-11-29,24.980444,121.951214,0.9773102
C1E681,南勢山,2016-11-29,24.421669,120.923831,1.8431793e-08
C0A9F0,內湖,2016-11-29,25.079422,121.57545,0.47413775
C0K291,宜梧,2016-11-29,23.536281,120.169329,0.0030875308
C1K540,口湖,2016-11-29,23.585344,120.180517,0.018868368
C0R780,滿州,2016-11-29,22.024403,120.839892,0.97222394
C0V870,文安,2016-11-29,22.8025,120.2164,0.0039719245
C0U650,玉蘭,2016-11-29,24.675286,121.587061,6.0967227e-07
C0R640,東港,2016-11-29,22.46247,120.44074,0.00030696538
K2E360,苗栗農改,2016-11-29,24.495722,120.829111,0.9887728
C0AJ80,板橋,2016-11-29,25.0107,121.4489,0.46868026
C0S660,下馬,2016-11-29,23.150427,121.070312,5.757483e-07
C1H9B1,阿眉,2016-11-29,24.1263,120.994672,9.649959e-09
C0UA20,多加屯,2016-11-29,24.368614,121.373189,2.2523482e-08
C0E730,頭份,2016-11-29,24.688247,120.912206,0.9520383
72V140,高改旗南分場,2016-11-29,22.857861,120.516667,2.7512135e-07
C0K480,莿桐,2016-11-29,23.761192,120.502372,9.086452e-09
C0U980,坪林石牌,2016-11-29,24.86478,121.77396,1.680956e-07
C0T900,西林,2016-11-29,23.8119,121.441458,0.00018577227
C1I150,青雲,2016-11-29,23.793361,120.949378,1.9140998e-09
467350,澎湖,2016-11-29,23.565503,119.563094,0.10097015
C0G800,埔鹽,2016-11-29,24.000394,120.431683,0.009938897
C0H960,草屯,2016-11-29,23.973672,120.68085,6.0647265e-09
C1V780,多納林道,2016-11-29,22.888028,120.737917,3.494339e-08
C0E920,通霄漁港,2016-11-29,24.498589,120.673876,0.99243885
C0Z330,安通山,2016-11-29,23.290728,121.348528,3.2042622e-05
C0AH10,永和,2016-11-29,25.01125,121.508111,0.48035946
C0AK10,太平里,2016-11-29,25.134937,121.364899,0.8818362
C2G640,鹿港,2016-11-29,24.0753,120.430481,0.00998366
C1E890,國三N149K,2016-11-29,24.463414,120.680019,0.9871391
C1R110,口社,2016-11-29,22.770111,120.645222,2.8689178e-06
C1M870,國三N285K,2016-11-29,23.550319,120.505833,6.4649863e-09
467050,新屋,2016-11-29,25.006744,121.047486,0.80096155
C1E480,鳳美,2016-11-29,24.554803,121.034747,6.05302e-09
C0M530,奮起湖,2016-11-29,23.493903,120.699253,9.1471914e-09
C0C590,觀音,2016-11-29,25.027072,121.153317,0.59410995
C0T9M0,靜浦,2016-11-29,23.455167,121.495028,0.051866088
C2H9M0,發祥,2016-11-29,24.154094,121.164517,7.541976e-09
C0AI40,石牌,2016-11-29,25.115597,121.513139,0.46868026
C1F871,上谷關,2016-11-29,24.203483,121.018644,1.2486188e-08
C2H9G0,百勝,2016-11-29,24.051142,120.909361,6.1887087e-09
C0G880,二水,2016-11-29,23.810742,120.6173,4.2544555e-09
C0R940,加祿堂,2016-11-29,22.3363,120.6217,0.3161702
C0W220,北竿,2016-11-29,26.220358,119.974881,4.5058414e-07
C0O960,崎頂,2016-11-29,22.959547,120.369317,2.3601254e-08
C0S750,向陽,2016-11-29,23.248397,120.986133,3.344321e-08
C0T9F0,水璉,2016-11-29,23.797131,121.542514,1.4799166e-05
C1M600,頭凍,2016-11-29,23.406364,120.603339,7.4073383e-09
467660,臺東,2016-11-29,22.752211,121.154586,0.95061874
C1D380,新埔,2016-11-29,24.84745,121.03834,0.82070905
C2G980,田頭村,2016-11-29,23.8263,120.444175,4.4435044e-08
C0V750,路竹,2016-11-29,22.854997,120.259439,5.0317318e-05
C0N050,蚵寮,2016-11-29,23.301,120.1104,0.8969468
72M700,南改鹿草分場,2016-11-29,23.416869,120.283061,0.00039867
C1SA50,利嘉林道,2016-11-29,22.82325,121.009389,9.850488e-08
467550,玉山,2016-11-29,23.487614,120.959522,3.9789782e-08
C0A940,金山,2016-11-29,25.223628,121.643967,0.9955181
C1V340,大津,2016-11-29,22.888322,120.645986,4.3696735e-07
C0W180,七美,2016-11-29,23.219333,119.444892,0.11624987
C1F9C1,白冷,2016-11-29,24.182844,120.929889,5.1339875e-09
K2E710,苗改生物防治研究中心,2016-11-29,24.422861,120.871833,0.03514068
C0N040,蘆竹溝,2016-11-29,23.2344,120.0961,0.8969468
C2W230,畜試所澎湖,2016-11-29,23.628342,119.513206,0.09425665
C0R880,後壁湖,2016-11-29,21.9457,120.7457,0.97643596
C1I280,埔中,2016-11-29,23.820778,120.642594,4.7933497e-09
467790,墾丁雷達站,2016-11-29,21.948235,120.808028,0.9716568
C0W190,望安,2016-11-29,23.380564,119.494075,0.10656766
466881,新北,2016-11-29,24.9593,121.52,0.4651692
C0Z170,卓溪,2016-11-29,23.3443,121.3029,0.003697904
C0F850,東勢,2016-11-29,24.246428,120.833047,1.1289306e-08
466900,淡水,2016-11-29,25.164889,121.448906,0.838295
C0I370,魚池,2016-11-29,23.895703,120.94135,2.0713493e-09
C0C630,大溪,2016-11-29,24.882853,121.265547,0.259247
C0A520,山佳,2016-11-29,24.974944,121.402008,0.4603758
C0I110,竹山,2016-11-29,23.761225,120.688156,2.8308853e-09
82H840,茶改南部分場,2016-11-29,23.762528,120.7405,1.9571904e-09
C0G660,溪湖,2016-11-29,23.94835,120.479122,1.5777538e-05
C1T800,洛韶,2016-11-29,24.204558,121.453956,4.986789e-08
C1T810,慈恩,2016-11-29,24.192044,121.388386,3.2920138e-08
C1E451,象鼻,2016-11-29,24.368617,120.940228,1.8431793e-08
C0AC60,三峽,2016-11-29,24.939025,121.369728,0.46277657
C0I490,萬大林道,2016-11-29,23.928228,121.091411,2.544497e-08
C1I290,豐丘,2016-11-29,23.668178,120.887417,6.8785564e-09
C1I320,奧萬大,2016-11-29,23.952956,121.178556,8.734506e-09
C2M910,嘉義大學,2016-11-29,23.471325,120.485903,1.2248935e-08
C0U770,南澳,2016-11-29,24.44935,121.81022,0.8569612
C0A980,社子,2016-11-29,25.109508,121.469681,0.47699484
C0V800,六龜,2016-11-29,22.997889,120.633583,6.822206e-08
C1G9D0,國一S218K,2016-11-29,23.890641,120.493253,1.3331017e-05
C0E570,白沙屯,2016-11-29,24.549447,120.696803,0.99243885
C2F9A0,中竹林,2016-11-29,24.103556,120.751061,1.8409015e-09
C0FA40,臺中電廠,2016-11-29,24.2146,120.4907,0.98227435
C2G9A0,畜試所彰化,2016-11-29,23.86045,120.557964,1.2759977e-08
C0H9C0,合歡山,2016-11-29,24.143442,121.272547,3.3391455e-08
C0X060,下營,2016-11-29,23.22695,120.256261,0.00049737847
G2M350,農試溪口農場,2016-11-29,23.58565,120.408111,0.0034876743
C0U860,頭城,2016-11-29,24.85323,121.8308,0.63323087
C0R580,南州,2016-11-29,22.48591,120.50274,0.0020183711
C0D430,峨眉,2016-11-29,24.6905,121.017189,0.6761972
C0G780,秀水,2016-11-29,24.03405,120.503869,0.0006612971
72N100,臺南農改場,2016-11-29,23.0605,120.342194,1.0138709e-05
C0S900,蘭嶼高中,2016-11-29,22.04909,121.51214,0.7294326
467540,大武,2016-11-29,22.355675,120.903789,0.11867165
C1F9W0,德基,2016-11-29,24.254783,121.190261,1.1711692e-08
C1Z120,壽豐,2016-11-29,23.870853,121.508081,0.11333646
C0W160,烏坵,2016-11-29,24.9944,119.44956,0.9587423
C1I240,外大坪,2016-11-29,23.958697,120.917931,1.5261231e-09
C1I550,國六W023K,2016-11-29,23.979067,120.867742,1.300943e-09
C0R870,興海,2016-11-29,21.9752,120.8439,0.97504133
C0R140,瑪家,2016-11-29,22.682903,120.686639,0.00013099107
C0A530,坪林,2016-11-29,24.938183,121.70975,0.16884401
C0X260,後壁,2016-11-29,23.366358,120.362326,2.3978216e-06
C0Z230,和平,2016-11-29,24.30717,121.77007,0.76764405
C0G770,福興,2016-11-29,24.041289,120.437669,0.009938897
C0H9A0,神木村,2016-11-29,23.532742,120.843667,1.9804057e-08
C0I460,南投,2016-11-29,23.911469,120.687331,3.7616834e-09
C0I480,梅峰,2016-11-29,24.085272,121.173572,1.6993997e-08
C1V570,吉東,2016-11-29,22.85422,120.5454,1.8974548e-07
C2D740,屯原,2016-11-29,24.067969,121.209389,1.6790855e-08
C2A560,福山,2016-11-29,24.776203,121.502811,2.532478e-07
C0AH30,五分山,2016-11-29,25.07125,121.780794,2.7597068e-07
C0FA10,松柏,2016-11-29,24.429115,120.617482,0.98040897
72S200,東改班鳩分場,2016-11-29,22.829528,121.077694,0.99361557
72HA00,中改埔里分場,2016-11-29,23.903208,120.963364,2.0675244e-09
C2H9W0,大坪頂農水,2016-11-29,24.043122,120.932781,1.5268102e-09
C0C650,平鎮,2016-11-29,24.897503,121.214636,0.35174695
C0S930,延平,2016-11-29,22.902581,121.084058,0.8545183
C0UA60,樟樹山,2016-11-29,24.41393,121.78325,6.5881187e-07
C1S670,摩天,2016-11-29,23.199503,121.027,6.726347e-08
C0V630,茄萣,2016-11-29,22.906642,120.182608,0.011680189
466940,基隆,2016-11-29,25.133314,121.740475,0.9981535
C0X050,東河,2016-11-29,23.296598,120.385608,0.0005307371
C0R770,保力,2016-11-29,22.071122,120.764111,0.96964866
G2L020,農試嘉義分所,2016-11-29,23.485028,120.473806,1.0734306e-08
C0X240,關子嶺,2016-11-29,23.331169,120.508025,9.002217e-09
C0I380,集集,2016-11-29,23.828206,120.801467,3.0901948e-09
466990,花蓮,2016-11-29,23.975128,121.613275,0.0048255064
C1V220,小關山,2016-11-29,23.154217,120.813603,2.858515e-08
C1F9G1,慶福山,2016-11-29,24.180853,120.848378,3.266445e-08
C0Z250,瑞穗林道,2016-11-29,23.49284,121.30688,1.8494059e-07
C0D590,新豐,2016-11-29,24.87068,120.97721,0.96481955
C0A870,五指山,2016-11-29,25.132153,121.608692,1.891761e-06
C0UA50,西帽山,2016-11-29,24.555361,121.802628,5.03468e-07
C0X160,仁德,2016-11-29,22.968258,120.257689,6.239637e-05
C1H971,六分寮,2016-11-29,23.92507,120.6378,2.4407856e-09
C0W120,西嶼,2016-11-29,23.5626,119.468436,0.10095357
C0G650,員林,2016-11-29,23.946503,120.585597,1.2627273e-06
C0AD50,鶯歌,2016-11-29,24.951533,121.346294,0.56612366
C2H9Q0,北東眼山,2016-11-29,24.120939,121.189303,1.672115e-08
C2H9T0,名間竹圍,2016-11-29,23.859914,120.637572,2.5491593e-09
C0S990,山豬窟,2016-11-29,22.318619,120.857372,0.18598983
72Q010,高雄農改,2016-11-29,22.709333,120.525889,5.6090596e-07
C0X190,安平,2016-11-29,22.993161,120.152181,0.014153644
C0K400,斗六,2016-11-29,23.720583,120.541127,8.487552e-09
12J990,口湖工作站,2016-11-29,23.589978,120.180394,0.016815767
C0O830,北寮,2016-11-29,23.079561,120.495008,4.491846e-08
C1D410,白蘭,2016-11-29,24.579364,121.079947,7.632873e-09
C0S970,加津林,2016-11-29,22.416211,120.926942,0.114608355
C0D700,關西,2016-11-29,24.7977,121.1732,0.4132388
C0M810,里佳,2016-11-29,23.389125,120.716647,9.1471914e-09
C0U750,龜山島,2016-11-29,24.841667,121.953133,0.000102658596
C0R810,內獅,2016-11-29,22.305064,120.642986,0.3161702
C1M390,龍美,2016-11-29,23.406728,120.654417,1.1871939e-08
C2FB60,頭櫃山,2016-11-29,24.129842,120.858925,4.9039333e-09
C1H840,國三N238K,2016-11-29,23.841008,120.707711,2.9767921e-09
CAQ030,崎峰國小,2016-11-29,22.42565,120.49521,0.0020183711
C2E520,大湖,2016-11-29,24.414939,120.870872,0.5780359
467530,阿里山,2016-11-29,23.508208,120.813242,2.2212596e-08
C1E691,南湖,2016-11-29,24.40135,120.837533,3.835885e-08
C0FA30,梧棲,2016-11-29,24.256003,120.523381,0.98227435
C1V231,高中,2016-11-29,23.134911,120.716711,2.9215121e-08
C0F9V0,新社,2016-11-29,24.200172,120.815806,4.9928395e-09
C0H890,埔里,2016-11-29,23.972169,120.952425,9.6733075e-09
C0R690,墾丁,2016-11-29,21.966756,120.810269,0.95619196
C0F0D0,審馬陣,2016-11-29,24.381675,121.4203,2.8778755e-08
C0R820,白鷺,2016-11-29,22.454275,120.666219,0.9463418
U2H480,臺大溪頭,2016-11-29,23.670306,120.798194,9.5138235e-09
C1V190,南天池,2016-11-29,23.27403,120.91176,3.1372977e-08
K2E360,苗栗農改場,2016-11-29,24.495722,120.829111,0.9887728
CAJ050,海口故事園區,2016-11-29,23.57543,120.14121,0.018868368
C2H9D0,三隻寮,2016-11-29,24.093078,120.861578,1.5266094e-09
C0O990,媽廟,2016-11-29,22.99175,120.293525,4.4280863e-05
C0D480,打鐵坑,2016-11-29,24.849664,121.150789,0.12547398
C0Z220,和平林道,2016-11-29,24.343922,121.656317,6.420817e-07
C0TA10,花蓮漁港,2016-11-29,23.995322,121.638331,0.006733212
72C440,桃園農改場,2016-11-29,24.950944,121.030583,0.82039684
C1E711,馬拉邦山,2016-11-29,24.367306,120.901656,2.0505556e-08
C0SB20,富岡,2016-11-29,22.792467,121.192669,0.9569339
C0D560,竹東,2016-11-29,24.767147,121.057881,0.4639892
C0F9U0,南屯,2016-11-29,24.137006,120.637969,0.25770816
C0M720,番路,2016-11-29,23.464657,120.554156,7.768349e-09
C0F0A0,雪山圈谷,2016-11-29,24.388594,121.236339,3.4311014e-08
C1A9N0,四十份,2016-11-29,24.934158,121.593283,6.416461e-05
C0U760,東澳,2016-11-29,24.52196,121.83318,0.30621016
C0X230,鹽水,2016-11-29,23.272621,120.247641,0.0016633526
C2H9H0,苗改南投蜂場,2016-11-29,23.852589,120.693481,2.8340026e-09
C0R950,萬隆國小,2016-11-29,22.507667,120.587817,5.9524774e-07
C0V370,古亭坑,2016-11-29,22.893178,120.401947,6.5638604e-05
C1I340,新興橋,2016-11-29,23.563333,120.868728,3.3745244e-09
C0SA80,土坂,2016-11-29,22.453108,120.887572,0.58723843
C0R160,鹽埔,2016-11-29,22.739558,120.530778,9.878861e-08
C0AC40,大屯山,2016-11-29,25.175675,121.522408,1.1589434e-07
466850,五分山雷達站,2016-11-29,25.071182,121.781205,2.6629107e-07
C2H9L0,馬烈霸,2016-11-29,24.1512,121.201772,1.682503e-08
C1AI50,國三N016K,2016-11-29,25.034164,121.619664,0.45685294
C1V600,藤枝,2016-11-29,23.071961,120.757042,4.9756064e-08
C1E601,南勢,2016-11-29,24.572486,120.734842,0.9973782
C0Z180,新城,2016-11-29,24.03946,121.60454,0.00214133
C0O980,新市,2016-11-29,23.061614,120.298197,2.0823243e-05
C0K420,西螺,2016-11-29,23.800407,120.467394,9.761028e-09
C0Z050,佳心,2016-11-29,23.34567,121.21316,3.3357722e-07
C0AD30,蘆洲,2016-11-29,25.086594,121.472331,0.4737044
C0V610,梓官,2016-11-29,22.760558,120.267211,0.00030319014
K2F750,種苗改良場,2016-11-29,24.225972,120.800917,6.551682e-09
C0UA80,大溪漁港,2016-11-29,24.941801,121.902955,0.624892
C1AI60,國一39K邊坡,2016-11-29,25.064361,121.383836,0.67040485
C0W150,金寧,2016-11-29,24.457703,118.328989,0.39297438
C0R960,內埔,2016-11-29,22.608483,120.570714,1.1070772e-06
V2C250,八德合作社,2016-11-29,24.93775,121.266389,0.4210538
C2H9S0,龍南,2016-11-29,23.953536,120.833183,3.164279e-09
C0AH40,平等,2016-11-29,25.129142,121.577086,0.00038799582
C0R540,佳冬,2016-11-29,22.419456,120.552375,0.002018372
466950,彭佳嶼,2016-11-29,25.627975,122.079744,0.8741437
C0A890,雙溪,2016-11-29,25.036003,121.864242,0.99733615
C0C480,桃園,2016-11-29,24.992425,121.323172,0.5535679
C0AH50,林口,2016-11-29,25.072181,121.38084,0.014571299
A2K360,水試臺西試驗場,2016-11-29,23.717231,120.190522,0.770291
B2N890,畜試所,2016-11-29,23.058972,120.336406,1.0138709e-05
C2M960,外寮,2016-11-29,23.562643,120.665688,7.686182e-09
C0F9S0,烏日,2016-11-29,24.107058,120.624103,8.828355e-05
C0C490,八德,2016-11-29,24.928708,121.283289,0.29404175
C0R190,赤山,2016-11-29,22.592333,120.614306,8.2520023e-07
C0T820,天祥,2016-11-29,24.179597,121.495639,1.8830078e-06
C1F9E1,龍安,2016-11-29,24.1605,120.831961,4.5011324e-09
C0V820,小林,2016-11-29,23.148408,120.63325,2.3539753e-08
C2G870,芳苑,2016-11-29,23.922303,120.320025,0.9237063
C0E850,大河,2016-11-29,24.618069,120.948578,0.9157011
C1U670,寒溪,2016-11-29,24.634,121.71691,0.95517707
C0N020,城西,2016-11-29,23.0568,120.0956,0.96299124
C1Z110,三棧,2016-11-29,24.11557,121.60501,1.4192364e-06
C0R280,檳榔,2016-11-29,22.076078,120.836777,0.95896983
C2H9J0,中台,2016-11-29,23.9996,120.938739,5.231104e-09
C0F9L0,后里,2016-11-29,24.310436,120.729725,0.1296979
C0D540,橫山,2016-11-29,24.71116,121.11693,0.5339348
C1D420,太閣南,2016-11-29,24.632808,121.160575,2.543221e-08
C1E770,公館,2016-11-29,24.526914,120.830806,0.9822246
CAN130,水試所海水繁養殖中心,2016-11-29,23.120802,120.07968,0.97123504
C1I430,翠華,2016-11-29,24.191961,121.224339,2.1021322e-08
C1M400,菜瓜坪,2016-11-29,23.251928,120.576103,4.597832e-08
C0G730,二林,2016-11-29,23.903325,120.376081,0.0004928568
72M360,南改義竹分場,2016-11-29,23.360694,120.279361,1.3029676e-05
V2K620,麥寮合作社,2016-11-29,23.753836,120.294783,0.34658036
C0Z070,舞鶴,2016-11-29,23.46811,121.37407,1.7812274e-05
C0B040,大武崙,2016-11-29,25.166676,121.706993,0.9977149
C1Z030,紅葉,2016-11-29,23.493119,121.338806,6.740655e-05
C1I050,丹大,2016-11-29,23.753747,121.141147,5.8619477e-08
C0I080,信義,2016-11-29,23.689694,120.851036,3.0647083e-09
C2M920,朴子農改,2016-11-29,23.469889,120.259383,8.21729e-05
C2A880,福隆,2016-11-29,25.017842,121.942083,0.9732605
C0Z160,鳳林,2016-11-29,23.746114,121.453411,0.02421823
C0V210,復興,2016-11-29,23.222403,120.806089,9.650264e-07
C0H990,昆陽,2016-11-29,24.121322,121.273642,2.5275046e-08
C0R741,獅子,2016-11-29,22.202308,120.705236,0.7080537
C0S710,鹿野,2016-11-29,22.917711,121.122994,0.00048652664
C0I530,小奇萊,2016-11-29,24.131764,121.295717,2.6809456e-08
C2K630,荷苞,2016-11-29,23.657717,120.595144,5.2784603e-09
C0Z080,富源,2016-11-29,23.587642,121.378225,6.51156e-05
467441,高雄,2016-11-29,22.7304,120.3125,0.00061351777
C0SB10,美和,2016-11-29,22.682078,121.060236,0.70568705
C2K620,馬光農場,2016-11-29,23.721453,120.378864,3.0835196e-08
C1I140,卡奈托灣,2016-11-29,23.754364,121.087872,4.2609056e-08
C0I520,玉山風口,2016-11-29,23.470489,120.955994,4.054803e-08
C1G691,下水埔,2016-11-29,23.816114,120.5676,5.6008944e-09
C0X110,臺南市南區,2016-11-29,22.961189,120.188378,0.007563095
C0V680,仁武,2016-11-29,22.701083,120.347722,0.000378543
C2G840,北斗,2016-11-29,23.877586,120.514222,9.470017e-06
C0R900,竹坑,2016-11-29,22.1385,120.7022,0.94088984
C0K250,崙背,2016-11-29,23.75555,120.318925,0.30431217
C0G860,社頭,2016-11-29,23.897647,120.5862,1.0310398e-06
C0X150,安定,2016-11-29,23.102614,120.227839,0.0076475893
C0R590,里港,2016-11-29,22.77919,120.49459,2.7757233e-07
C0E610,馬都安,2016-11-29,24.451272,120.930192,1.5644235e-05
C0E550,明德,2016-11-29,24.583486,120.885411,0.97025365
C0R150,三地門,2016-11-29,22.709889,120.639944,9.637838e-07
C0G910,花壇,2016-11-29,24.032076,120.549461,0.00032410384
C1D400,鳥嘴山,2016-11-29,24.71909,121.28387,5.5889984e-08
C0K500,元長,2016-11-29,23.64981,120.315024,0.012911167
C0F0B0,石岡,2016-11-29,24.276061,120.777644,4.122962e-09
C2V250,甲仙,2016-11-29,23.080106,120.591758,1.18432615e-08
C0SA20,金崙山,2016-11-29,22.567419,120.959667,0.011950002
C0V350,溪埔,2016-11-29,22.738578,120.446797,1.2269907e-05
C0M660,溪口,2016-11-29,23.604131,120.403569,0.0034876743
C1S880,壽卡,2016-11-29,22.238911,120.858903,0.3612124
72D680,桃改新埔分場,2016-11-29,24.834444,121.066111,0.50199926
