站號,站名,日期,lat,lon,BLBTSLS
C0R710,龍磐,2017-03-11,21.931672,120.838942,0.95580107
C1F9D1,白毛台,2017-03-11,24.158325,120.886933,1.0750487e-09
C0G940,竹塘,2017-03-11,23.848253,120.386764,2.961455e-10
467590,恆春,2017-03-11,22.003897,120.746339,0.011065934
C1O850,環湖,2017-03-11,23.148617,120.418633,0.0037574107
C0U710,太平山,2017-03-11,24.505486,121.525656,1.8496875e-08
C0E820,獅潭,2017-03-11,24.539133,120.920042,2.2865514e-09
C0V880,興達,2017-03-11,22.8778,120.2127,1.8852584e-09
C0S890,關山,2017-03-11,23.0395,121.175017,1.7284568e-09
C0SB30,新蘭,2017-03-11,22.869214,121.223228,1.0188593e-09
C2R970,屏科大,2017-03-11,22.648275,120.619247,3.2311025e-06
K2F750,種苗繁殖,2017-03-11,24.225972,120.800917,1.0705695e-09
C1Z130,銅門,2017-03-11,23.965694,121.492842,3.3248444e-09
C0AD40,土城,2017-03-11,24.973208,121.445169,3.4328276e-09
CAN140,六官養殖協會,2017-03-11,23.22881,120.29962,2.0407505e-08
C0X180,山上,2017-03-11,23.0757,120.363253,0.00022765249
C0F9Z0,雪山東峰,2017-03-11,24.388792,121.268675,2.838559e-08
C1M480,獨立山,2017-03-11,23.537022,120.607797,7.6851514e-10
C0X220,學甲,2017-03-11,23.230367,120.182187,1.4822873e-09
467650,日月潭,2017-03-11,23.881325,120.90805,2.8297733e-09
C0K600,箔子寮,2017-03-11,23.6197,120.14,4.419919e-09
C0G830,埤頭,2017-03-11,23.866003,120.452806,2.601618e-10
C0S950,七塊厝,2017-03-11,22.954453,121.229922,1.4269897e-09
467110,金門,2017-03-11,24.407306,118.289281,4.1122497e-09
C0AH80,深坑,2017-03-11,25.002703,121.628328,3.4738956e-09
467990,馬祖,2017-03-11,26.169269,119.923419,3.2752478e-08
C0A970,三貂角,2017-03-11,25.007606,122.002058,2.9579281e-09
C2D730,寶山農場,2017-03-11,24.732444,120.976153,1.8089558e-09
C0K430,褒忠,2017-03-11,23.690938,120.303634,2.7348784e-10
467480,嘉義,2017-03-11,23.495925,120.432906,5.0780205e-08
C2E540,後龍,2017-03-11,24.606489,120.783933,1.9437048e-09
C0V400,阿公店,2017-03-11,22.804194,120.355528,3.1732018e-08
C0R440,大漢山,2017-03-11,22.405264,120.753181,5.930885e-09
C0K280,四湖,2017-03-11,23.630414,120.227125,2.4536917e-09
C1F9B1,桐林,2017-03-11,24.066172,120.735194,4.3303952e-10
C2H9U0,鳳鵬,2017-03-11,23.763919,120.788061,4.0534842e-10
C0K390,土庫,2017-03-11,23.679029,120.395574,3.0187242e-10
C1I450,望鄉山,2017-03-11,23.594153,120.944286,1.5260367e-08
C0E910,海埔,2017-03-11,24.648767,120.772435,1.939483e-09
B2E890,畜試北區分所,2017-03-11,24.527806,120.770972,1.0219344e-09
C0R750,四林格山,2017-03-11,22.076989,120.802439,6.752577e-10
C0F0C0,中坑,2017-03-11,24.248517,120.903319,2.627511e-09
C1I121,大鞍,2017-03-11,23.678381,120.760017,4.9303153e-09
72U480,花改蘭陽分場,2017-03-11,24.686306,121.716583,1.3550314e-09
C0A770,科教館,2017-03-11,25.096356,121.516507,2.852838e-09
C0AJ60,六塊厝,2017-03-11,25.24,121.4481,1.4593435e-08
C0R620,墾雷,2017-03-11,21.900836,120.855269,0.0189909
467420,永康,2017-03-11,23.038386,120.2367,6.9653714e-07
467300,東吉島,2017-03-11,23.25695,119.667467,0.64129174
C0I410,名間,2017-03-11,23.837053,120.701447,8.494819e-10
A2C560,農工中心,2017-03-11,24.985917,121.239833,5.5277924e-09
C0V740,旗山,2017-03-11,22.888614,120.483597,0.0016654363
C0Z061,玉里,2017-03-11,23.3215,121.339656,2.0751216e-09
C0S840,南田,2017-03-11,22.279725,120.889208,1.7395314e-07
C1I470,杉林溪,2017-03-11,23.639517,120.786444,6.2931247e-09
C1X040,東原,2017-03-11,23.291597,120.463822,2.167186e-08
C0R660,枋寮,2017-03-11,22.367722,120.590647,4.0060152e-10
C1R120,上德文,2017-03-11,22.763272,120.704442,7.4114326e-10
C0K450,大埤,2017-03-11,23.646074,120.431537,1.464423e-09
C0UA00,土場,2017-03-11,24.576533,121.495333,6.4660717e-09
467080,宜蘭,2017-03-11,24.763975,121.756528,1.3181876e-09
C0N030,四草,2017-03-11,23.0235,120.1116,4.3657766e-09
C0V650,彌陀,2017-03-11,22.783806,120.246361,2.4667003e-08
C0D660,新竹市東區,2017-03-11,24.798681,120.986942,1.8975133e-09
82S580,茶改東部分場,2017-03-11,22.907694,121.130139,9.450591e-10
C0SB40,興隆,2017-03-11,22.913661,121.257469,9.972679e-10
C0C710,大溪永福,2017-03-11,24.892936,121.324975,4.9412265e-09
C0FA20,溫寮,2017-03-11,24.372177,120.583125,1.3322665e-09
C0V640,湖內,2017-03-11,22.887139,120.2445,1.7484578e-09
C0R910,下寮,2017-03-11,22.3929,120.5548,4.0060152e-10
C0Z020,明里,2017-03-11,23.208717,121.262342,3.6809271e-09
C0M770,嘉義梅山,2017-03-11,23.585398,120.555587,3.878859e-08
G2F820,農業試驗所,2017-03-11,24.031261,120.688133,3.4806588e-10
C0C660,楊梅,2017-03-11,24.912375,121.143047,3.9072368e-09
C1E511,新開,2017-03-11,24.347703,120.827019,7.7126705e-10
G2F820,農試所(霧峰),2017-03-11,24.031261,120.688133,3.4806588e-10
C1I070,和社,2017-03-11,23.591131,120.888861,1.5682464e-09
C2F000,大肚,2017-03-11,24.15295,120.572117,4.745281e-10
C1S850,豐南,2017-03-11,23.122139,121.262389,2.9683103e-09
C2A920,富貴角,2017-03-11,25.263783,121.565258,1.2306496e-08
CAH030,茶改場竹圍站,2017-03-11,23.860083,120.637528,3.7173173e-10
C0T960,光復,2017-03-11,23.660694,121.424964,1.898784e-09
C0F9M0,豐原,2017-03-11,24.254322,120.720692,5.5954036e-10
C0R720,旭海,2017-03-11,22.205403,120.887614,1.4582909e-09
C0V710,苓雅,2017-03-11,22.622742,120.330669,5.4462686e-07
C0C740,觀音工業區,2017-03-11,25.064764,121.114856,1.7609626e-08
CAC040,拉拉山,2017-03-11,24.699317,121.427133,2.603497e-08
C0V790,萬山,2017-03-11,22.905944,120.688056,8.201557e-08
U2HA30,臺大和社,2017-03-11,23.590856,120.888864,1.5682464e-09
C0AJ90,澳底,2017-03-11,25.0552,121.9253,2.911703e-09
C0Z100,東華,2017-03-11,23.89525,121.549833,2.4719318e-09
C0G970,三豐,2017-03-11,23.882,120.2895,3.2152314e-09
V2K610,大庄合作社,2017-03-11,23.8068,120.367939,2.692093e-10
C0V900,汕尾,2017-03-11,22.4782,120.4151,2.864079e-10
C1R630,龍泉,2017-03-11,22.66701,120.59091,1.1017742e-05
C1AC50,關渡,2017-03-11,25.133486,121.469331,5.236694e-09
C0F9I0,神岡,2017-03-11,24.272481,120.658314,5.7887223e-10
C0K460,斗南,2017-03-11,23.678734,120.478359,1.4383299e-09
467410,臺南,2017-03-11,22.993239,120.204772,3.3770935e-09
C2O810,曾文,2017-03-11,23.219681,120.497328,3.1354755e-06
467280,後龍,2017-03-11,24.648563,120.831834,1.9788038e-09
C1F9J1,清水林,2017-03-11,24.071242,120.820419,8.3735735e-10
C2A650,火燒寮,2017-03-11,25.002719,121.742892,3.6238113e-09
466930,竹子湖,2017-03-11,25.162078,121.544547,6.364052e-09
C1I220,樟湖,2017-03-11,23.905333,120.846983,3.251469e-09
C0I390,仁愛,2017-03-11,24.022122,121.132206,4.431695e-09
C0Z300,東里,2017-03-11,23.26853,121.30547,3.5154415e-09
C1V590,新發,2017-03-11,23.057019,120.646064,1.1363097e-09
C0K510,水林,2017-03-11,23.572924,120.24597,3.732194e-10
72S590,東改賓朗果園,2017-03-11,22.813889,121.071278,1.3193546e-09
82A750,茶改北部分場,2017-03-11,24.955778,121.631222,6.6965433e-09
C1A750,石碇服務區,2017-03-11,25.00872,121.646242,2.8418297e-09
C0X300,鹿寮,2017-03-11,23.386047,120.477331,5.017721e-05
G2AI50,關渡,2017-03-11,25.11575,121.492,7.2533237e-09
C0K590,雲林東勢,2017-03-11,23.674192,120.255721,3.2328662e-10
C0A570,桶後,2017-03-11,24.848222,121.597992,4.601901e-09
C1S800,華源,2017-03-11,22.657883,121.02325,4.2229096e-09
C0G720,溪州,2017-03-11,23.851589,120.499093,2.5901312e-10
C1V160,達卡努瓦,2017-03-11,23.279811,120.705319,1.2908855e-09
C2M410,馬頭山,2017-03-11,23.324361,120.582017,6.0047123e-09
C0V850,蚵仔寮,2017-03-11,22.7256,120.2527,1.6738309e-07
C0S740,池上,2017-03-11,23.119628,121.209469,2.1701136e-09
C1V390,尖山,2017-03-11,22.813153,120.367789,1.5675056e-08
C0AH70,松山,2017-03-11,25.04871,121.55042,2.8622398e-09
C0N010,鯤鯓國小,2017-03-11,23.1879,120.0889,2.9970453e-09
C0R550,新埤,2017-03-11,22.467947,120.582894,2.6818994e-10
C0SA60,知本（水試所）,2017-03-11,22.702394,121.082761,4.741013e-09
C0T9I0,豐濱,2017-03-11,23.583897,121.514806,1.9503745e-09
C0UB00,淡江大學蘭陽校園,2017-03-11,24.823239,121.730383,4.933109e-09
C0W240,九宮,2017-03-11,24.423753,118.240186,4.1101167e-09
C0T9N0,富里,2017-03-11,23.171639,121.249378,2.8463103e-09
U2HA50,臺大竹山,2017-03-11,23.756972,120.681556,9.884583e-10
C0V840,鳳鼻頭,2017-03-11,22.5083,120.3591,8.9421626e-10
C0X140,西港,2017-03-11,23.125608,120.203108,1.0370266e-08
72D080,桃改五峰分場,2017-03-11,24.612194,121.157167,8.128545e-09
C2H9P0,伊拿谷,2017-03-11,23.963211,121.088264,2.2122064e-09
C2H9F0,柑林,2017-03-11,24.018658,120.847072,3.056849e-10
C0TA20,加灣,2017-03-11,24.082025,121.608944,5.3833697e-09
C0V530,阿蓮,2017-03-11,22.883208,120.327508,2.4728525e-08
C1O880,關山,2017-03-11,23.173397,120.594092,3.6680895e-08
C0E791,卓蘭,2017-03-11,24.3126,120.8244,6.731654e-10
C1I030,武界,2017-03-11,23.913225,121.052483,2.3341948e-09
C0R520,崁頂,2017-03-11,22.514781,120.506914,2.428754e-08
C0R341,牡丹,2017-03-11,22.130036,120.792639,1.8682802e-09
C0R930,萬丹,2017-03-11,22.5885,120.4851,2.0120976e-07
C0S760,紅石,2017-03-11,23.069131,121.126219,1.1051289e-08
C1M610,石磐龍,2017-03-11,23.496606,120.663506,1.6512881e-09
C0UA10,鴛鴦湖,2017-03-11,24.590269,121.412228,1.4166878e-08
V2C260,八德蔬果,2017-03-11,24.978508,121.281819,3.6060774e-09
C0R800,丹路,2017-03-11,22.204481,120.750989,2.680663e-09
C0G920,永靖,2017-03-11,23.924703,120.547533,2.7318964e-10
C2M950,太和,2017-03-11,23.538372,120.702961,2.5661406e-09
C1A630,下盆,2017-03-11,24.771003,121.538622,5.867538e-09
B2N890,畜產試驗所,2017-03-11,23.058972,120.336406,1.4269981e-06
C0UA30,白嶺,2017-03-11,24.527819,121.519031,1.5496456e-08
C1V580,溪南(特生中心),2017-03-11,23.084972,120.788475,3.26711e-09
C1T970,大農,2017-03-11,23.615233,121.413331,2.0357656e-09
E2S960,林試太麻里2,2017-03-11,22.598014,120.989761,6.700223e-09
C0R650,竹田,2017-03-11,22.58486,120.54344,1.2622237e-07
C1H900,清流,2017-03-11,24.080775,120.962997,1.5959839e-09
C1C510,水尾,2017-03-11,24.940081,121.087161,5.6475797e-09
C0F9X0,大雅(中科園區),2017-03-11,24.21528,120.62445,4.463751e-10
C0SB60,白守蓮,2017-03-11,23.126769,121.401914,2.3682367e-09
C0O970,虎頭埤,2017-03-11,23.021375,120.347878,1.7839848e-05
C0C730,中大臨海站,2017-03-11,24.966126,121.008581,1.1867864e-08
C0X250,新營,2017-03-11,23.310689,120.316681,8.377016e-08
C0V700,三民,2017-03-11,22.645017,120.311233,2.918414e-07
C0U870,大礁溪,2017-03-11,24.791042,121.675047,5.383996e-09
C0E870,高鐵苗栗,2017-03-11,24.60725,120.826094,1.9733875e-09
A2K570,古坑花卉中心,2017-03-11,23.63353,120.55239,8.641213e-09
C0M860,新美,2017-03-11,23.338017,120.683169,3.628561e-10
C1E701,八卦,2017-03-11,24.491756,120.927619,4.8202584e-09
C0I420,國姓,2017-03-11,24.037803,120.855072,3.135787e-10
C2D720,關西工作站,2017-03-11,24.757275,121.184792,2.7337377e-09
C0S960,香蘭,2017-03-11,22.587569,120.993375,6.700223e-09
C0R260,春日,2017-03-11,22.370361,120.628306,3.1786684e-10
72G600,臺中農改場,2017-03-11,24.003028,120.534389,2.9185965e-10
C0Z210,瑞穗,2017-03-11,23.5239,121.39021,2.1261803e-09
C0M820,達邦,2017-03-11,23.453994,120.749517,1.017529e-09
C0V860,南寮,2017-03-11,22.7616,120.2339,1.6738309e-07
C0G740,大城,2017-03-11,23.852487,120.320935,2.959401e-09
C0R920,塭仔,2017-03-11,22.4169,120.5197,4.2470996e-10
C0R470,高樹,2017-03-11,22.826389,120.600806,0.004254185
C0R680,佳樂水,2017-03-11,21.993578,120.861633,0.02050284
C1O870,大棟山,2017-03-11,23.31157,120.52226,8.3033563e-10
C0D360,梅花,2017-03-11,24.678347,121.208558,5.1143423e-09
C0Z190,富世,2017-03-11,24.14743,121.6297,5.512042e-09
C0AI10,屈尺,2017-03-11,24.92184,121.54475,6.2441154e-09
B2U990,畜試東區分所,2017-03-11,24.669039,121.832561,1.5196544e-09
C0SB80,長濱漁港,2017-03-11,23.313644,121.459994,1.8133465e-09
C0R240,來義,2017-03-11,22.527306,120.625111,1.0263143e-08
C0V910,大樹,2017-03-11,22.684645,120.432803,5.16286e-08
C1R610,西大武山,2017-03-11,22.617719,120.7322,1.10519e-08
C0G900,線西,2017-03-11,24.143358,120.443536,5.946945e-10
C0M700,竹崎,2017-03-11,23.526178,120.555508,9.605211e-08
C2E880,三義,2017-03-11,24.405478,120.749819,1.5060464e-09
C0C720,竹圍,2017-03-11,25.112692,121.239824,7.240013e-09
C0F9P0,清水,2017-03-11,24.312297,120.562242,9.602016e-10
C0Z150,吉安光華,2017-03-11,23.930925,121.595153,2.9368636e-09
C1D640,外坪(五指山),2017-03-11,24.644447,121.090961,5.4615996e-09
C0F9O0,潭子,2017-03-11,24.213106,120.703933,5.144316e-10
C2H9R0,卓社,2017-03-11,23.887894,121.000086,3.4707035e-09
72T250,花蓮農改場,2017-03-11,23.975222,121.563889,4.6803654e-09
C0E780,銅鑼,2017-03-11,24.489681,120.790853,1.1611994e-09
C1T950,太安,2017-03-11,23.666719,121.370128,1.8145618e-08
C0E830,苑裡,2017-03-11,24.439714,120.653053,1.4247786e-09
467270,田中,2017-03-11,23.873803,120.581286,3.2667408e-10
C0SA10,檳榔四格山,2017-03-11,22.810031,121.109308,1.2968082e-09
C1T830,布洛灣,2017-03-11,24.17184,121.57127,9.589652e-08
C0F970,大坑,2017-03-11,24.173142,120.722289,4.5392887e-10
C1U920,思源,2017-03-11,24.393125,121.347214,8.251324e-09
C0A931,三和,2017-03-11,25.233153,121.595236,4.553886e-09
C0I010,廬山,2017-03-11,24.033311,121.181808,7.650961e-09
C2M940,日野賀,2017-03-11,23.434056,120.727169,1.5036669e-09
C0R860,鼻頭,2017-03-11,22.1043,120.8979,5.791654e-08
C0UB20,壯圍,2017-03-11,24.7359,121.8163,1.3042722e-09
C0R790,九棚,2017-03-11,22.14195,120.889281,3.2969951e-09
C0W110,東莒,2017-03-11,25.9652,119.98069,2.2666951e-08
C1U930,粉鳥林,2017-03-11,24.497088,121.842479,1.6802251e-09
C1I211,蘆竹湳,2017-03-11,23.934019,120.811994,5.4046434e-10
C0S830,長濱,2017-03-11,23.286817,121.411975,2.363025e-09
C1F9F1,伯公龍,2017-03-11,24.272392,120.849047,1.145744e-09
C0E810,西湖,2017-03-11,24.562947,120.7485,2.5999822e-09
C1I440,新高口,2017-03-11,23.478744,120.878939,1.0626947e-08
C0O840,王爺宮,2017-03-11,23.222064,120.40085,1.7433205e-08
C0T9G0,鳳林山,2017-03-11,23.735269,121.420131,5.1715303e-09
C0X080,佳里,2017-03-11,23.173039,120.145086,2.9905014e-09
C0FB70,大甲溪埔,2017-03-11,24.370625,120.620067,1.3343086e-09
C0Z310,清水斷崖,2017-03-11,24.218294,121.689142,7.053802e-09
C0M680,太保,2017-03-11,23.455062,120.331455,1.445861e-07
C1S820,金峰,2017-03-11,22.590969,120.933236,5.694285e-09
C0AD10,八里,2017-03-11,25.150211,121.403947,7.240013e-09
C2K240,草嶺,2017-03-11,23.59555,120.693461,1.8577762e-09
C1SA70,都蘭,2017-03-11,22.87794,121.226881,9.972679e-10
C0K440,二崙,2017-03-11,23.772797,120.408944,2.6311206e-10
C1A760,坪林交控,2017-03-11,24.94284,121.713442,2.905739e-09
C0F9N0,大里,2017-03-11,24.092464,120.701378,4.5357576e-10
C0SA90,達仁林場,2017-03-11,22.264347,120.823972,1.2517611e-09
C1R290,石門山,2017-03-11,22.112611,120.756597,1.0367216e-09
42HA10,萬大發電廠,2017-03-11,23.978875,121.139639,3.3844383e-09
C0R890,山海,2017-03-11,21.9878,120.7091,0.009636625
C0T9A0,月眉山,2017-03-11,23.809928,121.539828,4.469496e-09
C0AC70,信義,2017-03-11,25.037822,121.564597,2.8622398e-09
C0K560,棋山,2017-03-11,23.68645,120.603417,6.851818e-09
C2FB50,出雲,2017-03-11,24.206469,120.902794,3.0729028e-09
C1Z240,中平林道,2017-03-11,23.42115,121.26763,1.6953432e-08
U2H480,溪頭,2017-03-11,23.670306,120.798194,1.7263416e-09
C0M880,好美里,2017-03-11,23.3364,120.138,1.1560415e-09
C0T9E0,大坑,2017-03-11,23.880628,121.581981,3.7389936e-09
C0K530,臺西,2017-03-11,23.701547,120.197559,2.0258573e-09
C1E900,國一N128K,2017-03-11,24.560997,120.844186,1.6866726e-09
C0AJ50,水湳洞,2017-03-11,25.123695,121.862238,3.6650034e-09
C0AI20,白沙灣,2017-03-11,25.283128,121.519058,1.42726e-08
C0A860,大坪,2017-03-11,25.165914,121.632969,4.7095763e-09
C1U850,觀音海岸,2017-03-11,24.38319,121.77856,5.1775113e-09
C2K610,草嶺石壁,2017-03-11,23.602469,120.707731,1.9507764e-09
C0U950,鶯子嶺,2017-03-11,24.89754,121.79244,1.08320615e-08
C0O900,善化,2017-03-11,23.112883,120.297219,4.3174787e-06
C0K550,蔦松,2017-03-11,23.514319,120.229736,6.620846e-10
E2P980,林試六龜中心,2017-03-11,22.991703,120.645722,4.1551482e-09
C0E590,通霄,2017-03-11,24.471892,120.704622,1.5362895e-09
C1I310,西巒,2017-03-11,23.754486,120.883956,2.2104898e-09
C0A550,泰平,2017-03-11,24.971197,121.823711,5.2507865e-09
C0I360,水里,2017-03-11,23.812553,120.849792,3.902416e-10
C0R830,高士,2017-03-11,22.121825,120.836781,8.1871077e-10
C1I101,溪頭,2017-03-11,23.661789,120.807647,6.7833676e-09
C0AJ20,野柳,2017-03-11,25.20703,121.690021,3.863263e-09
C0B060,暖暖,2017-03-11,25.0957,121.7403,2.735892e-09
C1H920,長豐,2017-03-11,24.102039,120.879897,1.146295e-09
C0V360,內門,2017-03-11,22.975481,120.466769,3.2726413e-05
C0R850,林邊,2017-03-11,22.4634,120.5339,2.8737807e-10
C0E930,龍鳳,2017-03-11,24.700034,120.859125,1.9378856e-09
C0U910,冬山,2017-03-11,24.63373,121.7937,1.5196515e-09
C1E721,泰安,2017-03-11,24.489017,120.968036,8.509451e-09
82H320,茶改中部分場,2017-03-11,23.875611,120.913583,2.297726e-09
C0M750,布袋,2017-03-11,23.380878,120.167789,1.3686631e-09
C1S860,利嘉,2017-03-11,22.809417,121.050528,5.337728e-09
72C440,桃園農改,2017-03-11,24.950944,121.030583,5.913941e-09
E2S980,林試太麻里1,2017-03-11,22.598922,120.980044,6.153198e-09
C0X170,關廟,2017-03-11,22.963017,120.327797,7.7026647e-07
C0V720,林園,2017-03-11,22.507747,120.394511,8.5354873e-10
C1I510,線浸林道,2017-03-11,23.761508,120.832956,3.2301928e-09
C0D690,外湖,2017-03-11,24.917735,120.968711,6.0928893e-09
C0C750,新興坑尾,2017-03-11,25.0061,121.0971,1.0657822e-08
B2Q810,畜試南區分所,2017-03-11,21.945583,120.802167,0.02162165
C0S790,金崙,2017-03-11,22.538122,120.966875,3.7582337e-09
C0AH90,福山植物園,2017-03-11,24.760717,121.58135,1.19853345e-08
C0I540,奇萊稜線,2017-03-11,24.109231,121.326456,2.6125004e-08
C0M850,表湖,2017-03-11,23.24186,120.64166,5.801389e-10
C0S770,大溪山,2017-03-11,22.478475,120.943325,2.3161846e-09
C0AG80,中和,2017-03-11,24.991622,121.491792,3.4328276e-09
C0T790,大禹嶺,2017-03-11,24.186117,121.316086,2.1945272e-08
C0T9B0,水源,2017-03-11,23.991861,121.537169,6.4548336e-09
C0R840,牡丹池山,2017-03-11,22.168389,120.841225,1.2566053e-09
C1I131,桶頭,2017-03-11,23.641944,120.654117,2.0864406e-09
CAL110,布袋國中,2017-03-11,23.35893,120.18026,1.3686631e-09
467571,新竹,2017-03-11,24.827853,121.014219,2.488622e-09
C0Z290,赤柯山,2017-03-11,23.36893,121.38293,9.483278e-09
C0X280,將軍,2017-03-11,23.214999,120.13577,1.6408426e-09
C0S690,太麻里,2017-03-11,22.60902,120.98533,5.8189347e-09
C0U880,北關,2017-03-11,24.9072,121.8734,2.3629352e-09
C1H860,瑞岩,2017-03-11,24.123772,121.18345,1.836186e-08
C0G810,埔心,2017-03-11,23.947633,120.525456,2.7322353e-10
C0U970,大福,2017-03-11,24.80064,121.81389,1.2968924e-09
C2H9N0,仁愛東眼,2017-03-11,24.026875,121.1205,6.6253847e-09
C1E670,南礦,2017-03-11,24.538278,121.002836,8.648831e-09
C0M520,東後寮,2017-03-11,23.369908,120.248065,1.3173556e-09
C1E461,松安,2017-03-11,24.397972,120.986022,8.509483e-09
72G600,臺中農改,2017-03-11,24.003028,120.534389,2.918602e-10
C2N160,西拉雅風管處,2017-03-11,23.189481,120.335297,1.2853239e-05
C2M970,碧湖,2017-03-11,23.568632,120.624165,1.5426496e-09
C0A640,石碇,2017-03-11,24.993969,121.662917,3.4239345e-09
E2S960,林試太麻里2,2017-03-11,22.598,120.99775,7.0411392e-09
C0F9Y0,桃山,2017-03-11,24.432739,121.303808,2.584158e-08
C1I020,萬大,2017-03-11,23.979817,121.132261,4.4790536e-09
C0U940,羅東,2017-03-11,24.68184,121.74934,1.3429794e-09
C0M650,朴子,2017-03-11,23.43463,120.23902,9.632246e-10
C1I500,大尖山,2017-03-11,23.858572,120.994889,8.996793e-09
C0G820,田尾,2017-03-11,23.901669,120.509389,2.73198e-10
E2K600,四湖植物園,2017-03-11,23.676986,120.163433,2.453701e-09
C0S730,綠島,2017-03-11,22.6672,121.47533,0.18739781
12Q970,東港工作站,2017-03-11,22.479997,120.466058,2.8657127e-10
C0E430,南庄,2017-03-11,24.601775,121.000214,2.3257998e-09
C1TA00,太魯閣,2017-03-11,24.15773,121.6236,5.7893432e-09
466920,臺北,2017-03-11,25.037658,121.514853,2.8622398e-09
C0R600,舊泰武,2017-03-11,22.588194,120.664944,6.180425e-10
C1I260,北坑,2017-03-11,23.9246,121.006903,5.7579114e-10
466910,鞍部,2017-03-11,25.182586,121.529731,9.0758e-09
C1I230,九份二山,2017-03-11,23.961944,120.845,1.9601978e-09
C2A660,瑞芳,2017-03-11,25.113169,121.801147,3.886648e-09
C0R270,琉球嶼,2017-03-11,22.332244,120.362236,1.5324426e-07
C1T990,高寮,2017-03-11,23.394239,121.356808,2.3066882e-09
C0G620,芬園,2017-03-11,24.015678,120.6213,3.379257e-10
C1Z140,荖溪,2017-03-11,23.890575,121.45964,2.8953066e-08
C1I201,中心崙,2017-03-11,23.728722,120.712097,6.3496447e-10
C1I400,凌霄,2017-03-11,24.018778,121.004456,6.4041985e-09
C1M640,十字,2017-03-11,23.492153,120.753683,4.082762e-09
G2P820,農試鳳山分所,2017-03-11,22.646611,120.356083,2.0812176e-07
C0Z270,蕃薯寮,2017-03-11,23.73835,121.540108,3.834859e-09
C0F9Q0,外埔,2017-03-11,24.347817,120.705686,6.824555e-10
C0K580,高鐵雲林,2017-03-11,23.737456,120.417944,2.6169916e-10
C2I090,鳳凰,2017-03-11,23.728081,120.787347,1.3495478e-09
C0U990,員山,2017-03-11,24.74435,121.72247,1.3129408e-09
C0V770,大社,2017-03-11,22.730306,120.346639,9.8743584e-08
C0X120,麻豆,2017-03-11,23.183289,120.248611,9.5168e-09
C0C670,龍潭,2017-03-11,24.870056,121.221389,4.040827e-09
C0D680,香山濕地,2017-03-11,24.783581,120.914988,1.828695e-09
C0S980,勝林山,2017-03-11,22.430439,120.8938,3.5048633e-09
C0V730,大寮,2017-03-11,22.605614,120.395717,3.9069187e-07
C0R570,麟洛,2017-03-11,22.65078,120.52719,7.733415e-05
C2M930,石卓,2017-03-11,23.478744,120.702264,4.2850603e-09
C0G9B0,和美,2017-03-11,24.105169,120.492131,4.735859e-10
CAG100,王功漁港,2017-03-11,23.96824,120.32586,5.5118106e-09
C0X290,北門,2017-03-11,23.267772,120.125481,1.6375441e-09
C2F930,大甲,2017-03-11,24.347667,120.640403,1.3748692e-09
C0D650,湖口,2017-03-11,24.904794,121.043628,5.6242317e-09
C0E420,竹南,2017-03-11,24.708978,120.888897,1.930165e-09
C0U780,五結,2017-03-11,24.68637,121.79794,1.3042722e-09
C1I250,鯉潭,2017-03-11,23.961922,120.991131,1.6723183e-09
C0R130,阿禮,2017-03-11,22.742908,120.743678,1.0550902e-09
C0X100,臺南市北區,2017-03-11,23.010394,120.194228,3.948697e-09
C0S920,金峰嘉蘭,2017-03-11,22.594789,120.960825,6.133501e-09
C0V490,新興,2017-03-11,22.627422,120.298803,5.4462686e-07
C0F9K0,大安,2017-03-11,24.345061,120.588025,1.3377538e-09
72N100,臺南農改,2017-03-11,23.0605,120.342194,1.4269981e-06
467290,古坑,2017-03-11,23.633639,120.551889,8.641213e-09
C2E970,八甲,2017-03-11,24.535811,120.795983,1.940382e-09
C0V440,鳳山,2017-03-11,22.646653,120.356122,2.0812176e-07
C1T940,大觀,2017-03-11,23.714206,121.373133,4.606731e-09
72T250,花蓮農改,2017-03-11,23.975222,121.563889,4.6803654e-09
C0E740,造橋,2017-03-11,24.637056,120.864778,1.9733875e-09
C0R100,尾寮山,2017-03-11,22.833111,120.683889,1.1678072e-09
A2K630,臺大雲林校區,2017-03-11,23.730628,120.423903,2.6169916e-10
C0D580,寶山,2017-03-11,24.735006,121.025192,2.480277e-09
E2P990,林試扇平站,2017-03-11,22.9677,120.6857,6.21352e-10
C0AI30,三重,2017-03-11,25.057328,121.500629,2.852838e-09
C0AH00,汐止,2017-03-11,25.066881,121.658778,2.8622398e-09
C1Z040,立山,2017-03-11,23.443356,121.327375,1.2442539e-08
C0W130,花嶼,2017-03-11,23.40007,119.32276,0.31624034
C0A950,鼻頭角,2017-03-11,25.129036,121.923372,6.680571e-09
C0K470,林內,2017-03-11,23.748675,120.609642,1.2054842e-09
C2F990,摩天嶺,2017-03-11,24.322458,120.936819,3.2308336e-09
82C160,茶改場,2017-03-11,24.908472,121.185333,4.01437e-09
C0Z320,清水林道,2017-03-11,23.27125,121.188272,8.350962e-09
C0R760,南仁湖,2017-03-11,22.084681,120.863353,1.0367216e-09
C0M670,大林,2017-03-11,23.600616,120.45841,4.755676e-09
C0M800,茶山,2017-03-11,23.299075,120.664767,3.5781017e-10
C0A9C0,天母,2017-03-11,25.117494,121.537169,4.857027e-09
72K220,南改斗南分場,2017-03-11,23.634556,120.477333,1.4415598e-09
72AI40,桃改樹林分場,2017-03-11,24.944503,121.386972,3.5482817e-09
C0S910,蘭嶼燈塔,2017-03-11,22.081197,121.503117,0.98487496
C0B050,八斗子,2017-03-11,25.144754,121.79167,3.5350012e-09
C0U900,內城,2017-03-11,24.71813,121.68766,1.3988288e-09
C0X320,柳營,2017-03-11,23.253328,120.375253,5.182232e-07
C0M790,新港,2017-03-11,23.553269,120.345728,5.399574e-10
C0F9T0,西屯,2017-03-11,24.179494,120.641275,3.7770378e-10
C0SA30,都歷,2017-03-11,23.020333,121.323642,1.8488259e-09
C0C620,蘆竹,2017-03-11,25.084275,121.265767,5.538663e-09
C0R730,大坪頂,2017-03-11,22.024633,120.69355,6.492701e-07
C0AJ40,石門,2017-03-11,25.273672,121.601198,1.267503e-08
C0E750,苗栗,2017-03-11,24.564569,120.824575,1.6718942e-09
C0T870,鯉魚潭,2017-03-11,23.935639,121.508944,3.2319922e-09
C1V170,排雲,2017-03-11,23.463619,120.954147,1.8343588e-08
C2H950,中寮,2017-03-11,23.884447,120.766406,8.1952317e-10
C0R350,貓鼻頭,2017-03-11,21.921774,120.7358,0.94891185
C0V660,岡山,2017-03-11,22.797078,120.294958,2.4667003e-08
C1H941,雙冬,2017-03-11,23.967378,120.802189,5.9201005e-10
C0AJ70,田寮,2017-03-11,25.2698,121.4886,1.4347029e-08
C0AI00,五股,2017-03-11,25.07445,121.42728,4.1562185e-09
C0Z280,德武,2017-03-11,23.47426,121.41071,1.9457262e-09
C0R700,枋山,2017-03-11,22.246844,120.661086,4.2206565e-08
C0C460,復興,2017-03-11,24.820208,121.352281,7.525193e-09
E2H360,蓮華池,2017-03-11,23.918333,120.885278,6.7249684e-10
C0M640,中埔,2017-03-11,23.42538,120.5229,4.207297e-06
C0W140,金沙,2017-03-11,24.488292,118.408778,9.243143e-09
C2A540,四堵,2017-03-11,24.8926,121.745736,3.53246e-09
C0ACA0,新莊,2017-03-11,25.051478,121.446756,4.5697828e-09
C0R220,潮州,2017-03-11,22.534361,120.54,2.1240329e-08
U2HA40,臺大內茅埔,2017-03-11,23.689722,120.851117,4.58876e-10
467490,臺中,2017-03-11,24.145736,120.684075,4.6289594e-10
C0U960,翠峰湖,2017-03-11,24.510856,121.608044,2.205029e-08
E2HA20,林試畢祿溪站,2017-03-11,24.226944,121.308522,3.0276418e-08
C0V890,前鎮,2017-03-11,22.5718,120.3117,7.3023205e-07
467620,蘭嶼,2017-03-11,22.036969,121.558339,0.9631311
C1F941,雪嶺,2017-03-11,24.280586,121.026642,3.521396e-08
C2H9E0,國姓南港,2017-03-11,23.911108,120.846556,3.4214993e-09
C0AC80,文山,2017-03-11,25.00235,121.575728,3.4738956e-09
C0F9R0,龍井,2017-03-11,24.184536,120.528972,6.866886e-10
C0M760,民雄,2017-03-11,23.551754,120.428457,5.1325086e-09
C0UA40,西德山,2017-03-11,24.560647,121.752608,1.5160914e-08
C1T920,中興,2017-03-11,23.769503,121.498653,2.7366018e-09
C0D550,雪霸,2017-03-11,24.526972,121.11605,1.047609e-08
C2F860,梨山,2017-03-11,24.247522,121.243669,3.070842e-08
C0R320,車城,2017-03-11,22.0744,120.716247,2.8161903e-06
C1S870,南美山,2017-03-11,23.15025,121.382333,2.807179e-09
C0B020,基隆嶼,2017-03-11,25.19141,121.78391,9.8989075e-09
C1U501,牛鬥,2017-03-11,24.637836,121.573656,4.092867e-09
C0M730,嘉義市東區,2017-03-11,23.457673,120.460531,5.053048e-05
C0S700,知本,2017-03-11,22.684866,121.005642,4.7727866e-09
C1N001,沙崙,2017-03-11,22.935472,120.309406,1.0143631e-06
C0V760,橋頭,2017-03-11,22.757806,120.30575,1.2211336e-07
C0G960,福寶,2017-03-11,24.0443,120.3814,4.7663523e-10
C0X210,白河,2017-03-11,23.347466,120.414427,0.00016795579
C0S810,東河,2017-03-11,22.972672,121.303986,4.367834e-09
C2R170,屏東,2017-03-11,22.66027,120.49403,7.7165314e-05
C0R670,楓港,2017-03-11,22.190131,120.692156,2.1490254e-05
C0FA50,霧峰,2017-03-11,24.0419,120.6995,3.4721717e-10
C0UB10,蘇澳,2017-03-11,24.5969,121.8571,3.0545715e-09
C0G950,防潮門,2017-03-11,24.1835,120.4871,6.8717343e-10
C0M740,六腳,2017-03-11,23.492871,120.290625,8.3168605e-10
C1R250,力里,2017-03-11,22.428117,120.629228,3.4429437e-10
C0K330,虎尾,2017-03-11,23.719183,120.442036,2.6104757e-10
C2FA00,烏石坑,2017-03-11,24.273503,120.947617,3.1533558e-09
C0V620,永安,2017-03-11,22.82315,120.236856,2.4667003e-08
C1I330,楓樹林,2017-03-11,23.986803,121.076117,5.2164273e-09
C0W200,湖西,2017-03-11,23.596314,119.67275,0.13672216
72Q010,高雄農改場,2017-03-11,22.709333,120.525889,0.0057298657
C0SA40,瑞和,2017-03-11,22.974361,121.156697,1.284637e-09
C0C680,龜山,2017-03-11,25.02846,121.38656,4.422238e-09
C2V260,月眉,2017-03-11,22.971003,120.539853,1.5442936e-05
C0V450,鳳森,2017-03-11,22.545064,120.392592,5.4737154e-10
C0U720,南山,2017-03-11,24.43742,121.38167,1.0802165e-08
A2N290,臺南蘭花園區,2017-03-11,23.340258,120.379661,1.0983062e-07
C0R560,新園,2017-03-11,22.5434,120.461558,8.5354873e-10
C0U890,三星,2017-03-11,24.66812,121.65302,3.2495842e-09
C1V300,御油山,2017-03-11,23.001983,120.715364,3.49054e-09
C0U600,礁溪,2017-03-11,24.817539,121.765608,1.7840179e-09
C1T980,龍澗,2017-03-11,24.023289,121.411328,7.1529655e-08
C0D670,海天一線,2017-03-11,24.831986,120.914438,7.832787e-09
C0SA00,歷坵,2017-03-11,22.520969,120.89185,3.861959e-09
C0M710,東石,2017-03-11,23.458927,120.15385,8.3856405e-10
C0M780,鹿草,2017-03-11,23.41134,120.30835,9.468724e-10
C0U520,雙連埤,2017-03-11,24.753033,121.641303,5.4355564e-09
C0B010,七堵,2017-03-11,25.094819,121.71713,2.6047524e-09
C0R480,長治,2017-03-11,22.693128,120.542622,3.1165605e-08
C1V830,國三S383K,2017-03-11,22.781967,120.426475,9.231258e-06
12Q980,恆春工作站,2017-03-11,22.079678,120.714425,2.8161903e-06
C1O940,東山服務區,2017-03-11,23.286016,120.398472,4.409532e-05
C1U840,東澳嶺,2017-03-11,24.5378,121.8485,7.895154e-09
C1D630,飛鳳山,2017-03-11,24.766464,121.119178,4.25655e-09
C0S940,石寧山,2017-03-11,23.223772,121.406639,3.4541339e-09
C0K410,北港,2017-03-11,23.573957,120.292802,3.712145e-10
C2M620,瑞里,2017-03-11,23.545133,120.675197,2.146026e-09
C0SB70,小港漁港,2017-03-11,23.158558,121.400431,2.723324e-09
C2O950,安南,2017-03-11,23.076694,120.144861,1.0724871e-08
C0F0E0,南湖圈谷,2017-03-11,24.363714,121.444667,2.9142381e-08
467610,成功,2017-03-11,23.097486,121.373428,2.2819853e-09
C0G890,伸港,2017-03-11,24.148933,120.484403,5.945743e-10
C2E540,龍溪,2017-03-11,24.606489,120.783933,1.9437048e-09
C1V200,梅山,2017-03-11,23.268447,120.823556,1.0543177e-09
C0T9H0,加路蘭山,2017-03-11,23.682947,121.5274,5.7342957e-09
C2O930,玉井,2017-03-11,23.126042,120.46055,0.00022765249
C1F911,新伯公,2017-03-11,24.221361,120.841069,1.0023137e-09
C0R490,九如,2017-03-11,22.7405,120.490503,0.0068104984
C0X200,左鎮,2017-03-11,23.056758,120.408522,2.2947937e-05
C0SB50,叭嗡嗡,2017-03-11,23.047062,121.343223,2.127166e-09
C1F891,稍來,2017-03-11,24.265689,121.001142,2.4303436e-08
72N240,七股研究中心,2017-03-11,23.081672,120.062894,1.3073189e-08
C0C700,中壢,2017-03-11,24.977661,121.256375,3.6899248e-09
C0M690,水上,2017-03-11,23.419734,120.388909,1.1488535e-07
C0V690,鼓山,2017-03-11,22.623325,120.275575,5.4462686e-07
C0O860,大內,2017-03-11,23.11885,120.36083,2.1992178e-06
C0Z200,萬榮,2017-03-11,23.709219,121.420106,3.1745195e-09
C0T9D0,和中,2017-03-11,24.26676,121.74103,3.2841851e-09
C1O921,楠西,2017-03-11,23.183511,120.484083,0.0011308511
C0AJ30,淡水觀海,2017-03-11,25.184591,121.408616,6.8585515e-09
C0V810,左營,2017-03-11,22.67491,120.28491,2.918414e-07
C0UA70,桃源谷,2017-03-11,24.962606,121.888875,5.884035e-09
C0X130,官田,2017-03-11,23.193217,120.315422,1.8844448e-05
C1H000,翠峰,2017-03-11,24.109397,121.205211,1.3993126e-08
C0UA90,石城,2017-03-11,24.980444,121.951214,2.9043317e-09
C1E681,南勢山,2017-03-11,24.421669,120.923831,3.921437e-09
C0A9F0,內湖,2017-03-11,25.079422,121.57545,2.8622398e-09
C0K291,宜梧,2017-03-11,23.536281,120.169329,6.620846e-10
C1K540,口湖,2017-03-11,23.585344,120.180517,4.419919e-09
C0R780,滿州,2017-03-11,22.024403,120.839892,0.0065414305
C0V870,文安,2017-03-11,22.8025,120.2164,2.9195457e-08
C0U650,玉蘭,2017-03-11,24.675286,121.587061,6.223462e-09
C0R640,東港,2017-03-11,22.46247,120.44074,2.8657127e-10
K2E360,苗栗農改,2017-03-11,24.495722,120.829111,1.0721511e-09
C0AJ80,板橋,2017-03-11,25.0107,121.4489,3.3811605e-09
C0S660,下馬,2017-03-11,23.150427,121.070312,9.046384e-09
C1H9B1,阿眉,2017-03-11,24.1263,120.994672,1.3843217e-08
C0UA20,多加屯,2017-03-11,24.368614,121.373189,1.6230329e-08
C0E730,頭份,2017-03-11,24.688247,120.912206,1.9227389e-09
72V140,高改旗南分場,2017-03-11,22.857861,120.516667,0.0023756386
C0K480,莿桐,2017-03-11,23.761192,120.502372,4.2074946e-10
C0U980,坪林石牌,2017-03-11,24.86478,121.77396,6.2279866e-09
C0T900,西林,2017-03-11,23.8119,121.441458,3.1355312e-09
C1I150,青雲,2017-03-11,23.793361,120.949378,4.5419302e-10
467350,澎湖,2017-03-11,23.565503,119.563094,0.19309232
C0G800,埔鹽,2017-03-11,24.000394,120.431683,4.5230236e-10
C0H960,草屯,2017-03-11,23.973672,120.68085,3.3786188e-10
C1V780,多納林道,2017-03-11,22.888028,120.737917,1.1438968e-09
C0E920,通霄漁港,2017-03-11,24.498589,120.673876,1.4813178e-09
C0Z330,安通山,2017-03-11,23.290728,121.348528,3.1762337e-09
C0AH10,永和,2017-03-11,25.01125,121.508111,3.3811605e-09
C0AK10,太平里,2017-03-11,25.134937,121.364899,7.1150534e-09
C2G640,鹿港,2017-03-11,24.0753,120.430481,4.764435e-10
C1E890,國三N149K,2017-03-11,24.463414,120.680019,1.4689298e-09
C1R110,口社,2017-03-11,22.770111,120.645222,1.2268502e-05
C1M870,國三N285K,2017-03-11,23.550319,120.505833,8.3921286e-08
467050,新屋,2017-03-11,25.006744,121.047486,1.15416485e-08
C1E480,鳳美,2017-03-11,24.554803,121.034747,4.7272066e-09
C0M530,奮起湖,2017-03-11,23.493903,120.699253,2.5927076e-09
C0C590,觀音,2017-03-11,25.027072,121.153317,1.5736406e-08
C0T9M0,靜浦,2017-03-11,23.455167,121.495028,1.6150987e-09
C2H9M0,發祥,2017-03-11,24.154094,121.164517,9.7545705e-09
C0AI40,石牌,2017-03-11,25.115597,121.513139,4.854924e-09
C1F871,上谷關,2017-03-11,24.203483,121.018644,2.7422187e-09
C2H9G0,百勝,2017-03-11,24.051142,120.909361,5.5345417e-10
C0G880,二水,2017-03-11,23.810742,120.6173,8.6487273e-10
C0R940,加祿堂,2017-03-11,22.3363,120.6217,2.709914e-09
C0W220,北竿,2017-03-11,26.220358,119.974881,2.6205553e-08
C0O960,崎頂,2017-03-11,22.959547,120.369317,5.5214304e-08
C0S750,向陽,2017-03-11,23.248397,120.986133,6.758288e-09
C0T9F0,水璉,2017-03-11,23.797131,121.542514,3.3754064e-09
C1M600,頭凍,2017-03-11,23.406364,120.603339,1.656866e-09
467660,臺東,2017-03-11,22.752211,121.154586,1.7269739e-09
C1D380,新埔,2017-03-11,24.84745,121.03834,2.5311555e-09
C2G980,田頭村,2017-03-11,23.8263,120.444175,2.631241e-10
C0V750,路竹,2017-03-11,22.854997,120.259439,1.633277e-09
C0N050,蚵寮,2017-03-11,23.301,120.1104,1.1560415e-09
72M700,南改鹿草分場,2017-03-11,23.416869,120.283061,9.632246e-10
C1SA50,利嘉林道,2017-03-11,22.82325,121.009389,5.5186584e-09
467550,玉山,2017-03-11,23.487614,120.959522,2.8514522e-08
C0A940,金山,2017-03-11,25.223628,121.643967,3.8975383e-09
C1V340,大津,2017-03-11,22.888322,120.645986,4.4181736e-05
C0W180,七美,2017-03-11,23.219333,119.444892,0.67251974
C1F9C1,白冷,2017-03-11,24.182844,120.929889,1.3694882e-09
K2E710,苗改生物防治研究中心,2017-03-11,24.422861,120.871833,9.671642e-10
C0N040,蘆竹溝,2017-03-11,23.2344,120.0961,1.6375472e-09
C2W230,畜試所澎湖,2017-03-11,23.628342,119.513206,0.28342882
C0R880,後壁湖,2017-03-11,21.9457,120.7457,0.011317441
C1I280,埔中,2017-03-11,23.820778,120.642594,4.2924692e-10
467790,墾丁雷達站,2017-03-11,21.948235,120.808028,0.011965777
C0W190,望安,2017-03-11,23.380564,119.494075,0.19409381
466881,新北,2017-03-11,24.9593,121.52,3.3953005e-09
C0Z170,卓溪,2017-03-11,23.3443,121.3029,2.5248148e-09
C0F850,東勢,2017-03-11,24.246428,120.833047,6.042451e-10
466900,淡水,2017-03-11,25.164889,121.448906,7.1150534e-09
C0I370,魚池,2017-03-11,23.895703,120.94135,6.1013644e-10
C0C630,大溪,2017-03-11,24.882853,121.265547,3.888027e-09
C0A520,山佳,2017-03-11,24.974944,121.402008,3.277158e-09
C0I110,竹山,2017-03-11,23.761225,120.688156,7.218995e-10
82H840,茶改南部分場,2017-03-11,23.762528,120.7405,4.1857548e-10
C0G660,溪湖,2017-03-11,23.94835,120.479122,2.7027483e-10
C1T800,洛韶,2017-03-11,24.204558,121.453956,4.7508095e-08
C1T810,慈恩,2017-03-11,24.192044,121.388386,7.094266e-09
C1E451,象鼻,2017-03-11,24.368617,120.940228,2.835906e-09
C0AC60,三峽,2017-03-11,24.939025,121.369728,3.5703727e-09
C0I490,萬大林道,2017-03-11,23.928228,121.091411,6.9776886e-09
C1I290,豐丘,2017-03-11,23.668178,120.887417,1.8993165e-09
C1I320,奧萬大,2017-03-11,23.952956,121.178556,4.389247e-09
C2M910,嘉義大學,2017-03-11,23.471325,120.485903,2.5799709e-05
C0U770,南澳,2017-03-11,24.44935,121.81022,4.302562e-09
C0A980,社子,2017-03-11,25.109508,121.469681,7.135997e-09
C0V800,六龜,2017-03-11,22.997889,120.633583,5.220578e-09
C1G9D0,國一S218K,2017-03-11,23.890641,120.493253,2.601618e-10
C0E570,白沙屯,2017-03-11,24.549447,120.696803,2.6062383e-09
C2F9A0,中竹林,2017-03-11,24.103556,120.751061,4.7783955e-10
C0FA40,臺中電廠,2017-03-11,24.2146,120.4907,6.866886e-10
C2G9A0,畜試所彰化,2017-03-11,23.86045,120.557964,3.2667408e-10
C0H9C0,合歡山,2017-03-11,24.143442,121.272547,3.251322e-08
C0X060,下營,2017-03-11,23.22695,120.256261,2.0336437e-08
G2M350,農試溪口農場,2017-03-11,23.58565,120.408111,5.5685976e-09
C0U860,頭城,2017-03-11,24.85323,121.8308,1.7796745e-09
C0R580,南州,2017-03-11,22.48591,120.50274,2.8657127e-10
C0D430,峨眉,2017-03-11,24.6905,121.017189,1.8089558e-09
C0G780,秀水,2017-03-11,24.03405,120.503869,2.9185965e-10
72N100,臺南農改場,2017-03-11,23.0605,120.342194,1.4269981e-06
C0S900,蘭嶼高中,2017-03-11,22.04909,121.51214,0.86328244
467540,大武,2017-03-11,22.355675,120.903789,3.9423758e-09
C1F9W0,德基,2017-03-11,24.254783,121.190261,2.1298138e-08
C1Z120,壽豐,2017-03-11,23.870853,121.508081,2.4719318e-09
C0W160,烏坵,2017-03-11,24.9944,119.44956,8.469346e-08
C1I240,外大坪,2017-03-11,23.958697,120.917931,1.7116824e-09
C1I550,國六W023K,2017-03-11,23.979067,120.867742,3.8684372e-10
C0R870,興海,2017-03-11,21.9752,120.8439,0.02162165
C0R140,瑪家,2017-03-11,22.682903,120.686639,5.302171e-10
C0A530,坪林,2017-03-11,24.938183,121.70975,3.2379837e-09
C0X260,後壁,2017-03-11,23.366358,120.362326,1.09129e-07
C0Z230,和平,2017-03-11,24.30717,121.77007,3.2778458e-09
C0G770,福興,2017-03-11,24.041289,120.437669,4.5246457e-10
C0H9A0,神木村,2017-03-11,23.532742,120.843667,4.250335e-09
C0I460,南投,2017-03-11,23.911469,120.687331,4.145876e-10
C0I480,梅峰,2017-03-11,24.085272,121.173572,1.3932007e-08
C1V570,吉東,2017-03-11,22.85422,120.5454,0.00110673
C2D740,屯原,2017-03-11,24.067969,121.209389,1.2590889e-08
C2A560,福山,2017-03-11,24.776203,121.502811,1.0058495e-08
C0AH30,五分山,2017-03-11,25.07125,121.780794,6.672319e-09
C0FA10,松柏,2017-03-11,24.429115,120.617482,1.4134914e-09
72S200,東改班鳩分場,2017-03-11,22.829528,121.077694,1.4091226e-09
72HA00,中改埔里分場,2017-03-11,23.903208,120.963364,6.2644995e-10
C2H9W0,大坪頂農水,2017-03-11,24.043122,120.932781,1.1638801e-09
C0C650,平鎮,2017-03-11,24.897503,121.214636,3.882306e-09
C0S930,延平,2017-03-11,22.902581,121.084058,9.4042e-10
C0UA60,樟樹山,2017-03-11,24.41393,121.78325,1.104543e-08
C1S670,摩天,2017-03-11,23.199503,121.027,1.5926215e-08
C0V630,茄萣,2017-03-11,22.906642,120.182608,1.8852584e-09
466940,基隆,2017-03-11,25.133314,121.740475,3.557145e-09
C0X050,東河,2017-03-11,23.296598,120.385608,7.101812e-05
C0R770,保力,2017-03-11,22.071122,120.764111,1.2445894e-05
G2L020,農試嘉義分所,2017-03-11,23.485028,120.473806,3.0973843e-07
C0X240,關子嶺,2017-03-11,23.331169,120.508025,3.1695464e-09
C0I380,集集,2017-03-11,23.828206,120.801467,3.8734652e-10
466990,花蓮,2017-03-11,23.975128,121.613275,4.665979e-09
C1V220,小關山,2017-03-11,23.154217,120.813603,3.6759737e-09
C1F9G1,慶福山,2017-03-11,24.180853,120.848378,1.3389945e-09
C0Z250,瑞穗林道,2017-03-11,23.49284,121.30688,2.635518e-08
C0D590,新豐,2017-03-11,24.87068,120.97721,5.697207e-09
C0A870,五指山,2017-03-11,25.132153,121.608692,6.854772e-09
C0UA50,西帽山,2017-03-11,24.555361,121.802628,1.1506677e-08
C0X160,仁德,2017-03-11,22.968258,120.257689,2.530949e-08
C1H971,六分寮,2017-03-11,23.92507,120.6378,4.3256568e-10
C0W120,西嶼,2017-03-11,23.5626,119.468436,0.24685176
C0G650,員林,2017-03-11,23.946503,120.585597,3.9081216e-10
C0AD50,鶯歌,2017-03-11,24.951533,121.346294,3.5672891e-09
C2H9Q0,北東眼山,2017-03-11,24.120939,121.189303,2.1011019e-08
C2H9T0,名間竹圍,2017-03-11,23.859914,120.637572,3.7173245e-10
C0S990,山豬窟,2017-03-11,22.318619,120.857372,1.8049578e-09
72Q010,高雄農改,2017-03-11,22.709333,120.525889,0.0057298657
C0X190,安平,2017-03-11,22.993161,120.152181,3.954048e-09
C0K400,斗六,2017-03-11,23.720583,120.541127,3.7933617e-10
12J990,口湖工作站,2017-03-11,23.589978,120.180394,4.419919e-09
C0O830,北寮,2017-03-11,23.079561,120.495008,2.91577e-05
C1D410,白蘭,2017-03-11,24.579364,121.079947,9.380807e-09
C0S970,加津林,2017-03-11,22.416211,120.926942,3.681222e-09
C0D700,關西,2017-03-11,24.7977,121.1732,2.675611e-09
C0M810,里佳,2017-03-11,23.389125,120.716647,3.3119452e-09
C0U750,龜山島,2017-03-11,24.841667,121.953133,4.9581255e-09
C0R810,內獅,2017-03-11,22.305064,120.642986,2.9366845e-09
C1M390,龍美,2017-03-11,23.406728,120.654417,2.2974453e-09
C2FB60,頭櫃山,2017-03-11,24.129842,120.858925,4.276324e-09
C1H840,國三N238K,2017-03-11,23.841008,120.707711,3.616718e-10
CAQ030,崎峰國小,2017-03-11,22.42565,120.49521,2.8657127e-10
C2E520,大湖,2017-03-11,24.414939,120.870872,1.0247138e-09
467530,阿里山,2017-03-11,23.508208,120.813242,1.4717883e-08
C1E691,南湖,2017-03-11,24.40135,120.837533,2.969454e-09
C0FA30,梧棲,2017-03-11,24.256003,120.523381,9.602016e-10
C1V231,高中,2017-03-11,23.134911,120.716711,6.517777e-10
C0F9V0,新社,2017-03-11,24.200172,120.815806,1.1598447e-09
C0H890,埔里,2017-03-11,23.972169,120.952425,4.2384163e-10
C0R690,墾丁,2017-03-11,21.966756,120.810269,2.192857e-05
C0F0D0,審馬陣,2017-03-11,24.381675,121.4203,2.2142125e-08
C0R820,白鷺,2017-03-11,22.454275,120.666219,4.2009754e-10
U2H480,臺大溪頭,2017-03-11,23.670306,120.798194,1.7263416e-09
C1V190,南天池,2017-03-11,23.27403,120.91176,7.5203e-09
K2E360,苗栗農改場,2017-03-11,24.495722,120.829111,1.0721553e-09
CAJ050,海口故事園區,2017-03-11,23.57543,120.14121,4.419919e-09
C2H9D0,三隻寮,2017-03-11,24.093078,120.861578,1.1986838e-09
C0O990,媽廟,2017-03-11,22.99175,120.293525,3.056911e-07
C0D480,打鐵坑,2017-03-11,24.849664,121.150789,4.050488e-09
C0Z220,和平林道,2017-03-11,24.343922,121.656317,4.5765516e-09
C0TA10,花蓮漁港,2017-03-11,23.995322,121.638331,4.663319e-09
72C440,桃園農改場,2017-03-11,24.950944,121.030583,5.913941e-09
C1E711,馬拉邦山,2017-03-11,24.367306,120.901656,2.9683611e-09
C0SB20,富岡,2017-03-11,22.792467,121.192669,8.673479e-09
C0D560,竹東,2017-03-11,24.767147,121.057881,2.6248013e-09
C0F9U0,南屯,2017-03-11,24.137006,120.637969,3.7613368e-10
C0M720,番路,2017-03-11,23.464657,120.554156,1.2714676e-06
C0F0A0,雪山圈谷,2017-03-11,24.388594,121.236339,3.053839e-08
C1A9N0,四十份,2017-03-11,24.934158,121.593283,6.4419683e-09
C0U760,東澳,2017-03-11,24.52196,121.83318,1.7102758e-09
C0X230,鹽水,2017-03-11,23.272621,120.247641,1.1237248e-09
C2H9H0,苗改南投蜂場,2017-03-11,23.852589,120.693481,8.8507535e-10
C0R950,萬隆國小,2017-03-11,22.507667,120.587817,1.5244453e-08
C0V370,古亭坑,2017-03-11,22.893178,120.401947,3.5323043e-07
C1I340,新興橋,2017-03-11,23.563333,120.868728,1.2577945e-09
C0SA80,土坂,2017-03-11,22.453108,120.887572,2.3078763e-09
C0R160,鹽埔,2017-03-11,22.739558,120.530778,0.0057298657
C0AC40,大屯山,2017-03-11,25.175675,121.522408,1.1683446e-08
466850,五分山雷達站,2017-03-11,25.071182,121.781205,6.7816086e-09
C2H9L0,馬烈霸,2017-03-11,24.1512,121.201772,2.0806118e-08
C1AI50,國三N016K,2017-03-11,25.034164,121.619664,2.9431553e-09
C1V600,藤枝,2017-03-11,23.071961,120.757042,2.7177924e-09
C1E601,南勢,2017-03-11,24.572486,120.734842,2.7077338e-09
C0Z180,新城,2017-03-11,24.03946,121.60454,4.6730153e-09
C0O980,新市,2017-03-11,23.061614,120.298197,4.3174828e-06
C0K420,西螺,2017-03-11,23.800407,120.467394,2.6339675e-10
C0Z050,佳心,2017-03-11,23.34567,121.21316,8.617479e-09
C0AD30,蘆洲,2017-03-11,25.086594,121.472331,2.852838e-09
C0V610,梓官,2017-03-11,22.760558,120.267211,1.2211336e-07
K2F750,種苗改良場,2017-03-11,24.225972,120.800917,1.0705695e-09
C0UA80,大溪漁港,2017-03-11,24.941801,121.902955,2.389494e-09
C1AI60,國一39K邊坡,2017-03-11,25.064361,121.383836,4.286401e-09
C0W150,金寧,2017-03-11,24.457703,118.328989,4.042723e-09
C0R960,內埔,2017-03-11,22.608483,120.570714,1.0448755e-07
V2C250,八德合作社,2017-03-11,24.93775,121.266389,3.777494e-09
C2H9S0,龍南,2017-03-11,23.953536,120.833183,1.2829033e-09
C0AH40,平等,2017-03-11,25.129142,121.577086,5.0304156e-09
C0R540,佳冬,2017-03-11,22.419456,120.552375,4.0060152e-10
466950,彭佳嶼,2017-03-11,25.627975,122.079744,3.6322625e-08
C0A890,雙溪,2017-03-11,25.036003,121.864242,3.0447063e-09
C0C480,桃園,2017-03-11,24.992425,121.323172,3.5964953e-09
C0AH50,林口,2017-03-11,25.072181,121.38084,4.541205e-09
A2K360,水試臺西試驗場,2017-03-11,23.717231,120.190522,2.1247126e-09
B2N890,畜試所,2017-03-11,23.058972,120.336406,1.4269981e-06
C2M960,外寮,2017-03-11,23.562643,120.665688,1.6718336e-09
C0F9S0,烏日,2017-03-11,24.107058,120.624103,4.6984305e-10
C0C490,八德,2017-03-11,24.928708,121.283289,3.8123895e-09
C0R190,赤山,2017-03-11,22.592333,120.614306,8.965636e-08
C0T820,天祥,2017-03-11,24.179597,121.495639,6.765036e-08
C1F9E1,龍安,2017-03-11,24.1605,120.831961,9.3130564e-10
C0V820,小林,2017-03-11,23.148408,120.63325,5.3565756e-09
C2G870,芳苑,2017-03-11,23.922303,120.320025,5.0580664e-09
C0E850,大河,2017-03-11,24.618069,120.948578,2.182159e-09
C1U670,寒溪,2017-03-11,24.634,121.71691,1.7750573e-09
C0N020,城西,2017-03-11,23.0568,120.0956,3.948697e-09
C1Z110,三棧,2017-03-11,24.11557,121.60501,5.5000303e-08
C0R280,檳榔,2017-03-11,22.076078,120.836777,1.7387004e-09
C2H9J0,中台,2017-03-11,23.9996,120.938739,5.398328e-10
C0F9L0,后里,2017-03-11,24.310436,120.729725,5.7866245e-10
C0D540,橫山,2017-03-11,24.71116,121.11693,2.78781e-09
C1D420,太閣南,2017-03-11,24.632808,121.160575,1.1578139e-08
C1E770,公館,2017-03-11,24.526914,120.830806,1.0219344e-09
CAN130,水試所海水繁養殖中心,2017-03-11,23.120802,120.07968,1.3073189e-08
C1I430,翠華,2017-03-11,24.191961,121.224339,1.6642117e-08
C1M400,菜瓜坪,2017-03-11,23.251928,120.576103,5.0601967e-10
C0G730,二林,2017-03-11,23.903325,120.376081,3.9990758e-10
72M360,南改義竹分場,2017-03-11,23.360694,120.279361,1.319181e-09
V2K620,麥寮合作社,2017-03-11,23.753836,120.294783,2.7348784e-10
C0Z070,舞鶴,2017-03-11,23.46811,121.37407,2.11265e-09
C0B040,大武崙,2017-03-11,25.166676,121.706993,3.7044232e-09
C1Z030,紅葉,2017-03-11,23.493119,121.338806,2.2904798e-09
C1I050,丹大,2017-03-11,23.753747,121.141147,9.469469e-09
C0I080,信義,2017-03-11,23.689694,120.851036,4.58876e-10
C2M920,朴子農改,2017-03-11,23.469889,120.259383,9.632246e-10
C2A880,福隆,2017-03-11,25.017842,121.942083,2.8826315e-09
C0Z160,鳳林,2017-03-11,23.746114,121.453411,3.052504e-09
C0V210,復興,2017-03-11,23.222403,120.806089,8.8053576e-10
C0H990,昆陽,2017-03-11,24.121322,121.273642,1.961478e-08
C0R741,獅子,2017-03-11,22.202308,120.705236,6.581943e-09
C0S710,鹿野,2017-03-11,22.917711,121.122994,1.3788505e-09
C0I530,小奇萊,2017-03-11,24.131764,121.295717,2.0524691e-08
C2K630,荷苞,2017-03-11,23.657717,120.595144,4.3911643e-09
C0Z080,富源,2017-03-11,23.587642,121.378225,4.773715e-09
467441,高雄,2017-03-11,22.7304,120.3125,9.8743584e-08
C0SB10,美和,2017-03-11,22.682078,121.060236,4.741013e-09
C2K620,馬光農場,2017-03-11,23.721453,120.378864,2.6436764e-10
C1I140,卡奈托灣,2017-03-11,23.754364,121.087872,3.5685956e-09
C0I520,玉山風口,2017-03-11,23.470489,120.955994,3.050975e-08
C1G691,下水埔,2017-03-11,23.816114,120.5676,4.0208814e-10
C0X110,臺南市南區,2017-03-11,22.961189,120.188378,2.530949e-08
C0V680,仁武,2017-03-11,22.701083,120.347722,2.9184082e-07
C2G840,北斗,2017-03-11,23.877586,120.514222,2.5893163e-10
C0R900,竹坑,2017-03-11,22.1385,120.7022,2.1597705e-06
C0K250,崙背,2017-03-11,23.75555,120.318925,2.7348784e-10
C0G860,社頭,2017-03-11,23.897647,120.5862,3.3334976e-10
C0X150,安定,2017-03-11,23.102614,120.227839,1.0370266e-08
C0R590,里港,2017-03-11,22.77919,120.49459,9.275726e-05
C0E610,馬都安,2017-03-11,24.451272,120.930192,3.2206449e-09
C0E550,明德,2017-03-11,24.583486,120.885411,1.6998657e-09
C0R150,三地門,2017-03-11,22.709889,120.639944,1.5264932e-05
C0G910,花壇,2017-03-11,24.032076,120.549461,2.9306566e-10
C1D400,鳥嘴山,2017-03-11,24.71909,121.28387,8.71713e-09
C0K500,元長,2017-03-11,23.64981,120.315024,3.229027e-10
C0F0B0,石岡,2017-03-11,24.276061,120.777644,6.362835e-10
C2V250,甲仙,2017-03-11,23.080106,120.591758,6.1809203e-07
C0SA20,金崙山,2017-03-11,22.567419,120.959667,7.552657e-09
C0V350,溪埔,2017-03-11,22.738578,120.446797,4.9554183e-06
C0M660,溪口,2017-03-11,23.604131,120.403569,5.587557e-09
C1S880,壽卡,2017-03-11,22.238911,120.858903,1.2620505e-09
72D680,桃改新埔分場,2017-03-11,24.834444,121.066111,2.557887e-09
