站號,站名,日期,lat,lon,BLBTSLS
C0R710,龍磐,2017-04-26,21.931672,120.838942,0.0823119
C1F9D1,白毛台,2017-04-26,24.158325,120.886933,2.9500248e-08
C0G940,竹塘,2017-04-26,23.848253,120.386764,5.534752e-07
467590,恆春,2017-04-26,22.003897,120.746339,0.036172107
C1O850,環湖,2017-04-26,23.148617,120.418633,0.8870038
C0U710,太平山,2017-04-26,24.505486,121.525656,8.715518e-09
C0E820,獅潭,2017-04-26,24.539133,120.920042,4.2563872e-09
C0V880,興達,2017-04-26,22.8778,120.2127,4.0592298e-07
C0S890,關山,2017-04-26,23.0395,121.175017,0.008841596
C0SB30,新蘭,2017-04-26,22.869214,121.223228,0.97055
C2R970,屏科大,2017-04-26,22.648275,120.619247,0.99988174
K2F750,種苗繁殖,2017-04-26,24.225972,120.800917,1.766227e-05
C1Z130,銅門,2017-04-26,23.965694,121.492842,0.01950182
C0AD40,土城,2017-04-26,24.973208,121.445169,2.678906e-08
CAN140,六官養殖協會,2017-04-26,23.22881,120.29962,0.01567148
C0X180,山上,2017-04-26,23.0757,120.363253,0.93919575
C0F9Z0,雪山東峰,2017-04-26,24.388792,121.268675,1.8034138e-08
C1M480,獨立山,2017-04-26,23.537022,120.607797,1.3236294e-09
C0X220,學甲,2017-04-26,23.230367,120.182187,3.162438e-07
467650,日月潭,2017-04-26,23.881325,120.90805,2.4605247e-09
C0K600,箔子寮,2017-04-26,23.6197,120.14,1.8884646e-07
C0G830,埤頭,2017-04-26,23.866003,120.452806,3.077033e-06
C0S950,七塊厝,2017-04-26,22.954453,121.229922,1.3370232e-05
467110,金門,2017-04-26,24.407306,118.289281,2.0655508e-08
C0AH80,深坑,2017-04-26,25.002703,121.628328,1.592749e-08
467990,馬祖,2017-04-26,26.169269,119.923419,1.12065216e-07
C0A970,三貂角,2017-04-26,25.007606,122.002058,3.2702935e-06
C2D730,寶山農場,2017-04-26,24.732444,120.976153,1.4684843e-09
C0K430,褒忠,2017-04-26,23.690938,120.303634,7.602901e-06
467480,嘉義,2017-04-26,23.495925,120.432906,0.03784007
C2E540,後龍,2017-04-26,24.606489,120.783933,2.3607638e-09
C0V400,阿公店,2017-04-26,22.804194,120.355528,0.99014544
C0R440,大漢山,2017-04-26,22.405264,120.753181,1.7617275e-09
C0K280,四湖,2017-04-26,23.630414,120.227125,3.2260544e-07
C1F9B1,桐林,2017-04-26,24.066172,120.735194,0.007242347
C2H9U0,鳳鵬,2017-04-26,23.763919,120.788061,1.3162738e-08
C0K390,土庫,2017-04-26,23.679029,120.395574,4.5116863e-06
C1I450,望鄉山,2017-04-26,23.594153,120.944286,5.1341638e-09
C0E910,海埔,2017-04-26,24.648767,120.772435,2.6625937e-09
B2E890,畜試北區分所,2017-04-26,24.527806,120.770972,3.2159754e-08
C0R750,四林格山,2017-04-26,22.076989,120.802439,6.6360335e-09
C0F0C0,中坑,2017-04-26,24.248517,120.903319,2.0867392e-09
C1I121,大鞍,2017-04-26,23.678381,120.760017,2.1132627e-09
72U480,花改蘭陽分場,2017-04-26,24.686306,121.716583,0.015155619
C0A770,科教館,2017-04-26,25.096356,121.516507,2.6264186e-09
C0AJ60,六塊厝,2017-04-26,25.24,121.4481,3.2884664e-09
C0R620,墾雷,2017-04-26,21.900836,120.855269,0.04811402
467420,永康,2017-04-26,23.038386,120.2367,0.040917046
467300,東吉島,2017-04-26,23.25695,119.667467,4.1781086e-06
C0I410,名間,2017-04-26,23.837053,120.701447,0.005752766
A2C560,農工中心,2017-04-26,24.985917,121.239833,7.1714146e-10
C0V740,旗山,2017-04-26,22.888614,120.483597,0.99853367
C0Z061,玉里,2017-04-26,23.3215,121.339656,0.032958582
C0S840,南田,2017-04-26,22.279725,120.889208,4.8423764e-05
C1I470,杉林溪,2017-04-26,23.639517,120.786444,2.41269e-09
C1X040,東原,2017-04-26,23.291597,120.463822,0.56438214
C0R660,枋寮,2017-04-26,22.367722,120.590647,0.002193979
C1R120,上德文,2017-04-26,22.763272,120.704442,1.114425e-09
C0K450,大埤,2017-04-26,23.646074,120.431537,0.0003640144
C0UA00,土場,2017-04-26,24.576533,121.495333,0.00059534976
467080,宜蘭,2017-04-26,24.763975,121.756528,0.14088553
C0N030,四草,2017-04-26,23.0235,120.1116,9.0869804e-07
C0V650,彌陀,2017-04-26,22.783806,120.246361,0.0009829716
C0D660,新竹市東區,2017-04-26,24.798681,120.986942,8.2403734e-10
82S580,茶改東部分場,2017-04-26,22.907694,121.130139,0.16237795
C0SB40,興隆,2017-04-26,22.913661,121.257469,0.95149475
C0C710,大溪永福,2017-04-26,24.892936,121.324975,3.1787064e-09
C0FA20,溫寮,2017-04-26,24.372177,120.583125,1.9423999e-07
C0V640,湖內,2017-04-26,22.887139,120.2445,3.2293264e-07
C0R910,下寮,2017-04-26,22.3929,120.5548,0.002193979
C0Z020,明里,2017-04-26,23.208717,121.262342,0.037253637
C0M770,嘉義梅山,2017-04-26,23.585398,120.555587,0.06976634
G2F820,農業試驗所,2017-04-26,24.031261,120.688133,0.10956511
C0C660,楊梅,2017-04-26,24.912375,121.143047,5.466433e-10
C1E511,新開,2017-04-26,24.347703,120.827019,1.5144374e-07
G2F820,農試所(霧峰),2017-04-26,24.031261,120.688133,0.10956511
C1I070,和社,2017-04-26,23.591131,120.888861,1.0848627e-07
C2F000,大肚,2017-04-26,24.15295,120.572117,5.7370066e-06
C1S850,豐南,2017-04-26,23.122139,121.262389,3.2690352e-07
C2A920,富貴角,2017-04-26,25.263783,121.565258,2.046741e-09
CAH030,茶改場竹圍站,2017-04-26,23.860083,120.637528,5.4164957e-08
C0T960,光復,2017-04-26,23.660694,121.424964,0.0052609593
C0F9M0,豐原,2017-04-26,24.254322,120.720692,0.000166734
C0R720,旭海,2017-04-26,22.205403,120.887614,8.9805144e-07
C0V710,苓雅,2017-04-26,22.622742,120.330669,0.005553447
C0C740,觀音工業區,2017-04-26,25.064764,121.114856,1.3312631e-09
CAC040,拉拉山,2017-04-26,24.699317,121.427133,6.7621824e-09
C0V790,萬山,2017-04-26,22.905944,120.688056,0.5161044
U2HA30,臺大和社,2017-04-26,23.590856,120.888864,1.0848627e-07
C0AJ90,澳底,2017-04-26,25.0552,121.9253,2.7179705e-05
C0Z100,東華,2017-04-26,23.89525,121.549833,0.8148574
C0G970,三豐,2017-04-26,23.882,120.2895,8.351044e-08
V2K610,大庄合作社,2017-04-26,23.8068,120.367939,3.9686213e-07
C0V900,汕尾,2017-04-26,22.4782,120.4151,1.5462995e-06
C1R630,龍泉,2017-04-26,22.66701,120.59091,0.9998549
C1AC50,關渡,2017-04-26,25.133486,121.469331,2.155646e-09
C0F9I0,神岡,2017-04-26,24.272481,120.658314,8.3343686e-08
C0K460,斗南,2017-04-26,23.678734,120.478359,0.000151319
467410,臺南,2017-04-26,22.993239,120.204772,4.0248835e-07
C2O810,曾文,2017-04-26,23.219681,120.497328,0.91319466
467280,後龍,2017-04-26,24.648563,120.831834,1.823968e-09
C1F9J1,清水林,2017-04-26,24.071242,120.820419,3.3271916e-09
C2A650,火燒寮,2017-04-26,25.002719,121.742892,6.804454e-08
466930,竹子湖,2017-04-26,25.162078,121.544547,1.2006196e-09
C1I220,樟湖,2017-04-26,23.905333,120.846983,3.5217098e-09
C0I390,仁愛,2017-04-26,24.022122,121.132206,2.0509419e-09
C0Z300,東里,2017-04-26,23.26853,121.30547,0.1273771
C1V590,新發,2017-04-26,23.057019,120.646064,1.8346651e-06
C0K510,水林,2017-04-26,23.572924,120.24597,5.282092e-06
72S590,東改賓朗果園,2017-04-26,22.813889,121.071278,0.028070124
82A750,茶改北部分場,2017-04-26,24.955778,121.631222,3.618845e-09
C1A750,石碇服務區,2017-04-26,25.00872,121.646242,7.631577e-09
C0X300,鹿寮,2017-04-26,23.386047,120.477331,0.97523427
G2AI50,關渡,2017-04-26,25.11575,121.492,3.3621121e-09
C0K590,雲林東勢,2017-04-26,23.674192,120.255721,2.1567801e-05
C0A570,桶後,2017-04-26,24.848222,121.597992,1.8595307e-07
C1S800,華源,2017-04-26,22.657883,121.02325,0.059683528
C0G720,溪州,2017-04-26,23.851589,120.499093,1.9979548e-06
C1V160,達卡努瓦,2017-04-26,23.279811,120.705319,1.3057633e-09
C2M410,馬頭山,2017-04-26,23.324361,120.582017,0.00510713
C0V850,蚵仔寮,2017-04-26,22.7256,120.2527,0.86098164
C0S740,池上,2017-04-26,23.119628,121.209469,0.000743519
C1V390,尖山,2017-04-26,22.813153,120.367789,0.98112535
C0AH70,松山,2017-04-26,25.04871,121.55042,2.4165725e-09
C0N010,鯤鯓國小,2017-04-26,23.1879,120.0889,1.4239964e-06
C0R550,新埤,2017-04-26,22.467947,120.582894,7.652459e-07
C0SA60,知本（水試所）,2017-04-26,22.702394,121.082761,0.40511242
C0T9I0,豐濱,2017-04-26,23.583897,121.514806,0.008663621
C0UB00,淡江大學蘭陽校園,2017-04-26,24.823239,121.730383,6.906469e-08
C0W240,九宮,2017-04-26,24.423753,118.240186,2.1316914e-08
C0T9N0,富里,2017-04-26,23.171639,121.249378,0.0022630966
U2HA50,臺大竹山,2017-04-26,23.756972,120.681556,1.7000624e-05
C0V840,鳳鼻頭,2017-04-26,22.5083,120.3591,2.2955861e-05
C0X140,西港,2017-04-26,23.125608,120.203108,0.00013879222
72D080,桃改五峰分場,2017-04-26,24.612194,121.157167,5.373232e-10
C2H9P0,伊拿谷,2017-04-26,23.963211,121.088264,9.993496e-09
C2H9F0,柑林,2017-04-26,24.018658,120.847072,0.0016282676
C0TA20,加灣,2017-04-26,24.082025,121.608944,0.013745922
C0V530,阿蓮,2017-04-26,22.883208,120.327508,0.07025952
C1O880,關山,2017-04-26,23.173397,120.594092,7.1166914e-07
C0E791,卓蘭,2017-04-26,24.3126,120.8244,1.2423792e-06
C1I030,武界,2017-04-26,23.913225,121.052483,7.966248e-09
C0R520,崁頂,2017-04-26,22.514781,120.506914,0.9992034
C0R341,牡丹,2017-04-26,22.130036,120.792639,1.3623358e-06
C0R930,萬丹,2017-04-26,22.5885,120.4851,0.9895152
C0S760,紅石,2017-04-26,23.069131,121.126219,1.2438405e-09
C1M610,石磐龍,2017-04-26,23.496606,120.663506,1.236635e-09
C0UA10,鴛鴦湖,2017-04-26,24.590269,121.412228,2.0227375e-09
V2C260,八德蔬果,2017-04-26,24.978508,121.281819,1.1108852e-09
C0R800,丹路,2017-04-26,22.204481,120.750989,2.7359452e-05
C0G920,永靖,2017-04-26,23.924703,120.547533,9.009337e-07
C2M950,太和,2017-04-26,23.538372,120.702961,1.3340694e-09
C1A630,下盆,2017-04-26,24.771003,121.538622,2.2685333e-08
B2N890,畜產試驗所,2017-04-26,23.058972,120.336406,0.90700096
C0UA30,白嶺,2017-04-26,24.527819,121.519031,4.6487814e-09
C1V580,溪南(特生中心),2017-04-26,23.084972,120.788475,1.1050799e-09
C1T970,大農,2017-04-26,23.615233,121.413331,0.0025138669
E2S960,林試太麻里2,2017-04-26,22.598014,120.989761,0.093581654
C0R650,竹田,2017-04-26,22.58486,120.54344,0.9985801
C1H900,清流,2017-04-26,24.080775,120.962997,3.1067127e-09
C1C510,水尾,2017-04-26,24.940081,121.087161,5.9581057e-10
C0F9X0,大雅(中科園區),2017-04-26,24.21528,120.62445,1.5585194e-07
C0SB60,白守蓮,2017-04-26,23.126769,121.401914,0.3050005
C0O970,虎頭埤,2017-04-26,23.021375,120.347878,0.9614094
C0C730,中大臨海站,2017-04-26,24.966126,121.008581,8.789149e-10
C0X250,新營,2017-04-26,23.310689,120.316681,0.0013006439
C0V700,三民,2017-04-26,22.645017,120.311233,0.00221814
C0U870,大礁溪,2017-04-26,24.791042,121.675047,3.3906947e-08
C0E870,高鐵苗栗,2017-04-26,24.60725,120.826094,2.005703e-09
A2K570,古坑花卉中心,2017-04-26,23.63353,120.55239,0.047346387
C0M860,新美,2017-04-26,23.338017,120.683169,6.0140652e-09
C1E701,八卦,2017-04-26,24.491756,120.927619,7.487563e-10
C0I420,國姓,2017-04-26,24.037803,120.855072,0.00027827045
C2D720,關西工作站,2017-04-26,24.757275,121.184792,1.437551e-09
C0S960,香蘭,2017-04-26,22.587569,120.993375,0.09359013
C0R260,春日,2017-04-26,22.370361,120.628306,0.000121737925
72G600,臺中農改場,2017-04-26,24.003028,120.534389,7.752002e-07
C0Z210,瑞穗,2017-04-26,23.5239,121.39021,0.011411183
C0M820,達邦,2017-04-26,23.453994,120.749517,1.1730332e-09
C0V860,南寮,2017-04-26,22.7616,120.2339,0.86098164
C0G740,大城,2017-04-26,23.852487,120.320935,7.332195e-08
C0R920,塭仔,2017-04-26,22.4169,120.5197,0.0038278697
C0R470,高樹,2017-04-26,22.826389,120.600806,0.9978358
C0R680,佳樂水,2017-04-26,21.993578,120.861633,0.014564165
C1O870,大棟山,2017-04-26,23.31157,120.52226,1.2496618e-09
C0D360,梅花,2017-04-26,24.678347,121.208558,2.7068507e-09
C0Z190,富世,2017-04-26,24.14743,121.6297,1.9485017e-06
C0AI10,屈尺,2017-04-26,24.92184,121.54475,7.776711e-07
B2U990,畜試東區分所,2017-04-26,24.669039,121.832561,0.05241589
C0SB80,長濱漁港,2017-04-26,23.313644,121.459994,0.6652506
C0R240,來義,2017-04-26,22.527306,120.625111,0.9993458
C0V910,大樹,2017-04-26,22.684645,120.432803,0.9856454
C1R610,西大武山,2017-04-26,22.617719,120.7322,1.8371134e-09
C0G900,線西,2017-04-26,24.143358,120.443536,7.8938015e-08
C0M700,竹崎,2017-04-26,23.526178,120.555508,0.7867276
C2E880,三義,2017-04-26,24.405478,120.749819,1.9954423e-09
C0C720,竹圍,2017-04-26,25.112692,121.239824,3.3588945e-09
C0F9P0,清水,2017-04-26,24.312297,120.562242,3.9895153e-07
C0Z150,吉安光華,2017-04-26,23.930925,121.595153,0.8257864
C1D640,外坪(五指山),2017-04-26,24.644447,121.090961,5.229415e-10
C0F9O0,潭子,2017-04-26,24.213106,120.703933,0.020963829
C2H9R0,卓社,2017-04-26,23.887894,121.000086,2.301792e-09
72T250,花蓮農改場,2017-04-26,23.975222,121.563889,0.66374993
C0E780,銅鑼,2017-04-26,24.489681,120.790853,7.781533e-09
C1T950,太安,2017-04-26,23.666719,121.370128,1.6081117e-07
C0E830,苑裡,2017-04-26,24.439714,120.653053,5.242303e-08
467270,田中,2017-04-26,23.873803,120.581286,0.016918456
C0SA10,檳榔四格山,2017-04-26,22.810031,121.109308,0.001542551
C1T830,布洛灣,2017-04-26,24.17184,121.57127,0.02818216
C0F970,大坑,2017-04-26,24.173142,120.722289,0.012985895
C1U920,思源,2017-04-26,24.393125,121.347214,1.3420576e-09
C0A931,三和,2017-04-26,25.233153,121.595236,2.3109599e-09
C0I010,廬山,2017-04-26,24.033311,121.181808,2.2368662e-09
C2M940,日野賀,2017-04-26,23.434056,120.727169,1.0742637e-09
C0R860,鼻頭,2017-04-26,22.1043,120.8979,0.017114323
C0UB20,壯圍,2017-04-26,24.7359,121.8163,0.033633184
C0R790,九棚,2017-04-26,22.14195,120.889281,2.8196808e-05
C0W110,東莒,2017-04-26,25.9652,119.98069,1.3073089e-08
C1U930,粉鳥林,2017-04-26,24.497088,121.842479,0.44515887
C1I211,蘆竹湳,2017-04-26,23.934019,120.811994,4.768128e-09
C0S830,長濱,2017-04-26,23.286817,121.411975,0.0016787202
C1F9F1,伯公龍,2017-04-26,24.272392,120.849047,3.4518675e-07
C0E810,西湖,2017-04-26,24.562947,120.7485,6.6525083e-09
C1I440,新高口,2017-04-26,23.478744,120.878939,2.140544e-09
C0O840,王爺宮,2017-04-26,23.222064,120.40085,0.87120426
C0T9G0,鳳林山,2017-04-26,23.735269,121.420131,4.394761e-08
C0X080,佳里,2017-04-26,23.173039,120.145086,1.4239964e-06
C0FB70,大甲溪埔,2017-04-26,24.370625,120.620067,1.191892e-07
C0Z310,清水斷崖,2017-04-26,24.218294,121.689142,1.4150358e-07
C0M680,太保,2017-04-26,23.455062,120.331455,0.051014725
C1S820,金峰,2017-04-26,22.590969,120.933236,0.007269592
C0AD10,八里,2017-04-26,25.150211,121.403947,3.3588945e-09
C2K240,草嶺,2017-04-26,23.59555,120.693461,1.1705188e-09
C1SA70,都蘭,2017-04-26,22.87794,121.226881,0.95149475
C0K440,二崙,2017-04-26,23.772797,120.408944,7.30168e-07
C1A760,坪林交控,2017-04-26,24.94284,121.713442,7.4679224e-07
C0F9N0,大里,2017-04-26,24.092464,120.701378,0.043271814
C0SA90,達仁林場,2017-04-26,22.264347,120.823972,5.6489373e-09
C1R290,石門山,2017-04-26,22.112611,120.756597,8.448243e-08
42HA10,萬大發電廠,2017-04-26,23.978875,121.139639,2.126748e-09
C0R890,山海,2017-04-26,21.9878,120.7091,0.00017114199
C0T9A0,月眉山,2017-04-26,23.809928,121.539828,8.7802604e-08
C0AC70,信義,2017-04-26,25.037822,121.564597,2.4165725e-09
C0K560,棋山,2017-04-26,23.68645,120.603417,0.027780838
C2FB50,出雲,2017-04-26,24.206469,120.902794,1.8236445e-09
C1Z240,中平林道,2017-04-26,23.42115,121.26763,1.173488e-08
U2H480,溪頭,2017-04-26,23.670306,120.798194,9.621229e-10
C0M880,好美里,2017-04-26,23.3364,120.138,2.0864282e-07
C0T9E0,大坑,2017-04-26,23.880628,121.581981,1.3746728e-06
C0K530,臺西,2017-04-26,23.701547,120.197559,4.0640987e-07
C1E900,國一N128K,2017-04-26,24.560997,120.844186,8.1186755e-09
C0AJ50,水湳洞,2017-04-26,25.123695,121.862238,2.0193255e-07
C0AI20,白沙灣,2017-04-26,25.283128,121.519058,3.1027747e-09
C0A860,大坪,2017-04-26,25.165914,121.632969,1.2452743e-09
C1U850,觀音海岸,2017-04-26,24.38319,121.77856,4.1320963e-08
C2K610,草嶺石壁,2017-04-26,23.602469,120.707731,1.162651e-09
C0U950,鶯子嶺,2017-04-26,24.89754,121.79244,4.0823496e-09
C0O900,善化,2017-04-26,23.112883,120.297219,0.94555837
C0K550,蔦松,2017-04-26,23.514319,120.229736,7.6082665e-07
E2P980,林試六龜中心,2017-04-26,22.991703,120.645722,1.346704e-05
C0E590,通霄,2017-04-26,24.471892,120.704622,2.1212353e-08
C1I310,西巒,2017-04-26,23.754486,120.883956,1.7558267e-09
C0A550,泰平,2017-04-26,24.971197,121.823711,2.6800087e-09
C0I360,水里,2017-04-26,23.812553,120.849792,1.7429987e-07
C0R830,高士,2017-04-26,22.121825,120.836781,3.2544055e-08
C1I101,溪頭,2017-04-26,23.661789,120.807647,3.6948264e-09
C0AJ20,野柳,2017-04-26,25.20703,121.690021,5.974461e-09
C0B060,暖暖,2017-04-26,25.0957,121.7403,2.6793339e-09
C1H920,長豐,2017-04-26,24.102039,120.879897,7.614086e-09
C0V360,內門,2017-04-26,22.975481,120.466769,0.9869713
C0R850,林邊,2017-04-26,22.4634,120.5339,1.1749156e-06
C0E930,龍鳳,2017-04-26,24.700034,120.859125,1.0015684e-09
C0U910,冬山,2017-04-26,24.63373,121.7937,0.05241589
C1E721,泰安,2017-04-26,24.489017,120.968036,8.684101e-10
82H320,茶改中部分場,2017-04-26,23.875611,120.913583,3.5618024e-09
C0M750,布袋,2017-04-26,23.380878,120.167789,6.0322026e-07
C1S860,利嘉,2017-04-26,22.809417,121.050528,2.6799551e-05
72C440,桃園農改,2017-04-26,24.950944,121.030583,6.653e-10
E2S980,林試太麻里1,2017-04-26,22.598922,120.980044,0.03058039
C0X170,關廟,2017-04-26,22.963017,120.327797,0.5684987
C0V720,林園,2017-04-26,22.507747,120.394511,1.4828241e-05
C1I510,線浸林道,2017-04-26,23.761508,120.832956,2.119374e-09
C0D690,外湖,2017-04-26,24.917735,120.968711,7.4660145e-10
C0C750,新興坑尾,2017-04-26,25.0061,121.0971,7.76833e-10
B2Q810,畜試南區分所,2017-04-26,21.945583,120.802167,0.017388998
C0S790,金崙,2017-04-26,22.538122,120.966875,2.233145e-06
C0AH90,福山植物園,2017-04-26,24.760717,121.58135,2.127873e-08
C0I540,奇萊稜線,2017-04-26,24.109231,121.326456,8.367272e-09
C0M850,表湖,2017-04-26,23.24186,120.64166,4.7987196e-09
C0S770,大溪山,2017-04-26,22.478475,120.943325,3.4337923e-08
C0AG80,中和,2017-04-26,24.991622,121.491792,2.678906e-08
C0T790,大禹嶺,2017-04-26,24.186117,121.316086,6.3695045e-09
C0T9B0,水源,2017-04-26,23.991861,121.537169,6.2274076e-08
C0R840,牡丹池山,2017-04-26,22.168389,120.841225,3.9420973e-09
C1I131,桶頭,2017-04-26,23.641944,120.654117,2.5411614e-06
CAL110,布袋國中,2017-04-26,23.35893,120.18026,6.0322026e-07
467571,新竹,2017-04-26,24.827853,121.014219,8.018287e-10
C0Z290,赤柯山,2017-04-26,23.36893,121.38293,2.5914778e-08
C0X280,將軍,2017-04-26,23.214999,120.13577,3.7343023e-07
C0S690,太麻里,2017-04-26,22.60902,120.98533,2.82732e-08
C0U880,北關,2017-04-26,24.9072,121.8734,0.036340218
C1H860,瑞岩,2017-04-26,24.123772,121.18345,6.0057777e-09
C0G810,埔心,2017-04-26,23.947633,120.525456,9.009337e-07
C0U970,大福,2017-04-26,24.80064,121.81389,0.1571694
C2H9N0,仁愛東眼,2017-04-26,24.026875,121.1205,2.105562e-09
C1E670,南礦,2017-04-26,24.538278,121.002836,5.3449184e-10
C0M520,東後寮,2017-04-26,23.369908,120.248065,4.3544313e-07
C1E461,松安,2017-04-26,24.397972,120.986022,1.3649273e-09
72G600,臺中農改,2017-04-26,24.003028,120.534389,7.752002e-07
C2N160,西拉雅風管處,2017-04-26,23.189481,120.335297,0.96395344
C2M970,碧湖,2017-04-26,23.568632,120.624165,1.2237861e-09
C0A640,石碇,2017-04-26,24.993969,121.662917,2.4806177e-09
E2S960,林試太麻里2,2017-04-26,22.598,120.99775,0.09645614
C0F9Y0,桃山,2017-04-26,24.432739,121.303808,1.3031887e-08
C1I020,萬大,2017-04-26,23.979817,121.132261,2.0299573e-09
C0U940,羅東,2017-04-26,24.68184,121.74934,0.020476896
C0M650,朴子,2017-04-26,23.43463,120.23902,2.618805e-06
C1I500,大尖山,2017-04-26,23.858572,120.994889,4.214549e-09
C0G820,田尾,2017-04-26,23.901669,120.509389,9.009346e-07
E2K600,四湖植物園,2017-04-26,23.676986,120.163433,3.2268235e-07
C0S730,綠島,2017-04-26,22.6672,121.47533,0.9981307
12Q970,東港工作站,2017-04-26,22.479997,120.466058,1.5462995e-06
C0E430,南庄,2017-04-26,24.601775,121.000214,3.9452415e-09
C1TA00,太魯閣,2017-04-26,24.15773,121.6236,7.577513e-07
466920,臺北,2017-04-26,25.037658,121.514853,2.4165725e-09
C0R600,舊泰武,2017-04-26,22.588194,120.664944,3.9865804e-09
C1I260,北坑,2017-04-26,23.9246,121.006903,3.664549e-09
466910,鞍部,2017-04-26,25.182586,121.529731,1.8557433e-09
C1I230,九份二山,2017-04-26,23.961944,120.845,2.0470152e-08
C2A660,瑞芳,2017-04-26,25.113169,121.801147,4.4319762e-08
C0R270,琉球嶼,2017-04-26,22.332244,120.362236,7.0826877e-06
C1T990,高寮,2017-04-26,23.394239,121.356808,0.021541525
C0G620,芬園,2017-04-26,24.015678,120.6213,0.025946816
C1Z140,荖溪,2017-04-26,23.890575,121.45964,1.8625852e-07
C1I201,中心崙,2017-04-26,23.728722,120.712097,1.1280842e-09
C1I400,凌霄,2017-04-26,24.018778,121.004456,2.060674e-09
C1M640,十字,2017-04-26,23.492153,120.753683,1.7950154e-09
G2P820,農試鳳山分所,2017-04-26,22.646611,120.356083,0.0010867878
C0Z270,蕃薯寮,2017-04-26,23.73835,121.540108,4.2402385e-06
C0F9Q0,外埔,2017-04-26,24.347817,120.705686,8.5512696e-08
C0K580,高鐵雲林,2017-04-26,23.737456,120.417944,1.5153837e-06
C2I090,鳳凰,2017-04-26,23.728081,120.787347,1.6365855e-09
C0U990,員山,2017-04-26,24.74435,121.72247,0.024957532
C0V770,大社,2017-04-26,22.730306,120.346639,0.79113805
C0X120,麻豆,2017-04-26,23.183289,120.248611,0.009120904
C0C670,龍潭,2017-04-26,24.870056,121.221389,1.4290243e-09
C0D680,香山濕地,2017-04-26,24.783581,120.914988,1.008273e-09
C0S980,勝林山,2017-04-26,22.430439,120.8938,1.2661832e-09
C0V730,大寮,2017-04-26,22.605614,120.395717,0.0037814747
C0R570,麟洛,2017-04-26,22.65078,120.52719,0.99888927
C2M930,石卓,2017-04-26,23.478744,120.702264,1.8026081e-09
C0G9B0,和美,2017-04-26,24.105169,120.492131,9.907505e-08
CAG100,王功漁港,2017-04-26,23.96824,120.32586,6.716566e-08
C0X290,北門,2017-04-26,23.267772,120.125481,3.7368886e-07
C2F930,大甲,2017-04-26,24.347667,120.640403,4.2333145e-08
C0D650,湖口,2017-04-26,24.904794,121.043628,6.069237e-10
C0E420,竹南,2017-04-26,24.708978,120.888897,8.1225277e-10
C0U780,五結,2017-04-26,24.68637,121.79794,0.033633184
C1I250,鯉潭,2017-04-26,23.961922,120.991131,1.007259e-07
C0R130,阿禮,2017-04-26,22.742908,120.743678,7.0579165e-10
C0X100,臺南市北區,2017-04-26,23.010394,120.194228,6.767584e-07
C0S920,金峰嘉蘭,2017-04-26,22.594789,120.960825,0.024920156
C0V490,新興,2017-04-26,22.627422,120.298803,0.0055625183
C0F9K0,大安,2017-04-26,24.345061,120.588025,1.4093699e-07
72N100,臺南農改,2017-04-26,23.0605,120.342194,0.90700096
467290,古坑,2017-04-26,23.633639,120.551889,0.047346387
C2E970,八甲,2017-04-26,24.535811,120.795983,1.578335e-09
C0V440,鳳山,2017-04-26,22.646653,120.356122,0.0010867893
C1T940,大觀,2017-04-26,23.714206,121.373133,1.18163584e-07
72T250,花蓮農改,2017-04-26,23.975222,121.563889,0.66374993
C0E740,造橋,2017-04-26,24.637056,120.864778,2.005703e-09
C0R100,尾寮山,2017-04-26,22.833111,120.683889,7.6093637e-10
A2K630,臺大雲林校區,2017-04-26,23.730628,120.423903,1.5153837e-06
C0D580,寶山,2017-04-26,24.735006,121.025192,5.239282e-09
E2P990,林試扇平站,2017-04-26,22.9677,120.6857,1.5156196e-05
C0AI30,三重,2017-04-26,25.057328,121.500629,2.6264186e-09
C0AH00,汐止,2017-04-26,25.066881,121.658778,2.4165725e-09
C1Z040,立山,2017-04-26,23.443356,121.327375,2.5236126e-05
C0W130,花嶼,2017-04-26,23.40007,119.32276,3.313859e-07
C0A950,鼻頭角,2017-04-26,25.129036,121.923372,4.0466475e-06
C0K470,林內,2017-04-26,23.748675,120.609642,0.0002616462
C2F990,摩天嶺,2017-04-26,24.322458,120.936819,1.2048957e-09
82C160,茶改場,2017-04-26,24.908472,121.185333,4.968546e-10
C0Z320,清水林道,2017-04-26,23.27125,121.188272,5.693582e-07
C0R760,南仁湖,2017-04-26,22.084681,120.863353,8.448243e-08
C0M670,大林,2017-04-26,23.600616,120.45841,0.0051829377
C0M800,茶山,2017-04-26,23.299075,120.664767,6.578482e-08
C0A9C0,天母,2017-04-26,25.117494,121.537169,3.3464633e-09
72K220,南改斗南分場,2017-04-26,23.634556,120.477333,0.000151319
72AI40,桃改樹林分場,2017-04-26,24.944503,121.386972,2.0864088e-09
C0S910,蘭嶼燈塔,2017-04-26,22.081197,121.503117,9.093326e-06
C0B050,八斗子,2017-04-26,25.144754,121.79167,3.7167436e-07
C0U900,內城,2017-04-26,24.71813,121.68766,0.009049946
C0X320,柳營,2017-04-26,23.253328,120.375253,0.9715825
C0M790,新港,2017-04-26,23.553269,120.345728,1.8822446e-05
C0F9T0,西屯,2017-04-26,24.179494,120.641275,2.8029598e-07
C0SA30,都歷,2017-04-26,23.020333,121.323642,0.5895933
C0C620,蘆竹,2017-04-26,25.084275,121.265767,1.6267542e-09
C0R730,大坪頂,2017-04-26,22.024633,120.69355,7.799818e-07
C0AJ40,石門,2017-04-26,25.273672,121.601198,2.2148832e-09
C0E750,苗栗,2017-04-26,24.564569,120.824575,9.640742e-09
C0T870,鯉魚潭,2017-04-26,23.935639,121.508944,0.055011358
C1V170,排雲,2017-04-26,23.463619,120.954147,7.948566e-09
C2H950,中寮,2017-04-26,23.884447,120.766406,0.0010198103
C0R350,貓鼻頭,2017-04-26,21.921774,120.7358,0.19010742
C0V660,岡山,2017-04-26,22.797078,120.294958,0.0009851932
C1H941,雙冬,2017-04-26,23.967378,120.802189,3.3156933e-09
C0AJ70,田寮,2017-04-26,25.2698,121.4886,3.1737446e-09
C0AI00,五股,2017-04-26,25.07445,121.42728,1.2967661e-09
C0Z280,德武,2017-04-26,23.47426,121.41071,0.0008995939
C0R700,枋山,2017-04-26,22.246844,120.661086,3.928908e-05
C0C460,復興,2017-04-26,24.820208,121.352281,2.056061e-09
E2H360,蓮華池,2017-04-26,23.918333,120.885278,2.189672e-09
C0M640,中埔,2017-04-26,23.42538,120.5229,0.98267365
C0W140,金沙,2017-04-26,24.488292,118.408778,1.1678371e-07
C2A540,四堵,2017-04-26,24.8926,121.745736,7.424882e-08
C0ACA0,新莊,2017-04-26,25.051478,121.446756,2.6206541e-09
C0R220,潮州,2017-04-26,22.534361,120.54,0.9992457
U2HA40,臺大內茅埔,2017-04-26,23.689722,120.851117,5.6306932e-09
467490,臺中,2017-04-26,24.145736,120.684075,0.057777207
C0U960,翠峰湖,2017-04-26,24.510856,121.608044,6.6722685e-09
E2HA20,林試畢祿溪站,2017-04-26,24.226944,121.308522,9.432101e-09
C0V890,前鎮,2017-04-26,22.5718,120.3117,0.00768935
467620,蘭嶼,2017-04-26,22.036969,121.558339,1.0248364e-06
C1F941,雪嶺,2017-04-26,24.280586,121.026642,1.8343412e-08
C2H9E0,國姓南港,2017-04-26,23.911108,120.846556,3.3367435e-09
C0AC80,文山,2017-04-26,25.00235,121.575728,1.5923177e-08
C0F9R0,龍井,2017-04-26,24.184536,120.528972,4.4600665e-07
C0M760,民雄,2017-04-26,23.551754,120.428457,0.009132871
C0UA40,西德山,2017-04-26,24.560647,121.752608,1.1436704e-08
C1T920,中興,2017-04-26,23.769503,121.498653,0.054047372
C0D550,雪霸,2017-04-26,24.526972,121.11605,1.9143518e-09
C2F860,梨山,2017-04-26,24.247522,121.243669,9.620243e-09
C0R320,車城,2017-04-26,22.0744,120.716247,2.6397473e-07
C1S870,南美山,2017-04-26,23.15025,121.382333,0.0028721357
C0B020,基隆嶼,2017-04-26,25.19141,121.78391,2.8396187e-07
C1U501,牛鬥,2017-04-26,24.637836,121.573656,0.0013270235
C0M730,嘉義市東區,2017-04-26,23.457673,120.460531,0.9962407
C0S700,知本,2017-04-26,22.684866,121.005642,6.721371e-08
C1N001,沙崙,2017-04-26,22.935472,120.309406,0.5878263
C0V760,橋頭,2017-04-26,22.757806,120.30575,0.8456466
C0G960,福寶,2017-04-26,24.0443,120.3814,1.1024051e-07
C0X210,白河,2017-04-26,23.347466,120.414427,0.9792546
C0S810,東河,2017-04-26,22.972672,121.303986,0.008393171
C2R170,屏東,2017-04-26,22.66027,120.49403,0.99888927
C0R670,楓港,2017-04-26,22.190131,120.692156,8.709982e-05
C0FA50,霧峰,2017-04-26,24.0419,120.6995,0.075066164
C0UB10,蘇澳,2017-04-26,24.5969,121.8571,0.28715768
C0G950,防潮門,2017-04-26,24.1835,120.4871,4.4600665e-07
C0M740,六腳,2017-04-26,23.492871,120.290625,1.4237305e-05
C1R250,力里,2017-04-26,22.428117,120.629228,0.9997432
C0K330,虎尾,2017-04-26,23.719183,120.442036,1.1553486e-06
C2FA00,烏石坑,2017-04-26,24.273503,120.947617,1.2102439e-09
C0V620,永安,2017-04-26,22.82315,120.236856,0.0009829716
C1I330,楓樹林,2017-04-26,23.986803,121.076117,1.9641313e-09
C0W200,湖西,2017-04-26,23.596314,119.67275,7.638425e-08
72Q010,高雄農改場,2017-04-26,22.709333,120.525889,0.9965801
C0SA40,瑞和,2017-04-26,22.974361,121.156697,0.03177866
C0C680,龜山,2017-04-26,25.02846,121.38656,1.0699449e-09
C2V260,月眉,2017-04-26,22.971003,120.539853,0.9716697
C0V450,鳳森,2017-04-26,22.545064,120.392592,1.5128236e-06
C0U720,南山,2017-04-26,24.43742,121.38167,1.6859232e-09
A2N290,臺南蘭花園區,2017-04-26,23.340258,120.379661,0.00093473727
C0R560,新園,2017-04-26,22.5434,120.461558,1.4828241e-05
C0U890,三星,2017-04-26,24.66812,121.65302,0.055537686
C1V300,御油山,2017-04-26,23.001983,120.715364,1.0333457e-09
C0U600,礁溪,2017-04-26,24.817539,121.765608,0.16619965
C1T980,龍澗,2017-04-26,24.023289,121.411328,7.099007e-08
C0D670,海天一線,2017-04-26,24.831986,120.914438,7.878347e-10
C0SA00,歷坵,2017-04-26,22.520969,120.89185,1.6806458e-08
C0M710,東石,2017-04-26,23.458927,120.15385,3.3715224e-07
C0M780,鹿草,2017-04-26,23.41134,120.30835,1.7079839e-06
C0U520,雙連埤,2017-04-26,24.753033,121.641303,3.264402e-08
C0B010,七堵,2017-04-26,25.094819,121.71713,3.6617263e-09
C0R480,長治,2017-04-26,22.693128,120.542622,0.9789689
C1V830,國三S383K,2017-04-26,22.781967,120.426475,0.99902993
12Q980,恆春工作站,2017-04-26,22.079678,120.714425,2.6397473e-07
C1O940,東山服務區,2017-04-26,23.286016,120.398472,0.9130346
C1U840,東澳嶺,2017-04-26,24.5378,121.8485,2.6491607e-08
C1D630,飛鳳山,2017-04-26,24.766464,121.119178,1.6643568e-09
C0S940,石寧山,2017-04-26,23.223772,121.406639,0.30579594
C0K410,北港,2017-04-26,23.573957,120.292802,3.397189e-06
C2M620,瑞里,2017-04-26,23.545133,120.675197,1.2501291e-09
C0SB70,小港漁港,2017-04-26,23.158558,121.400431,0.24673285
C2O950,安南,2017-04-26,23.076694,120.144861,3.8378103e-06
C0F0E0,南湖圈谷,2017-04-26,24.363714,121.444667,1.2228322e-08
467610,成功,2017-04-26,23.097486,121.373428,0.19414236
C0G890,伸港,2017-04-26,24.148933,120.484403,7.888369e-08
C2E540,龍溪,2017-04-26,24.606489,120.783933,2.3607638e-09
C1V200,梅山,2017-04-26,23.268447,120.823556,6.514539e-08
C0T9H0,加路蘭山,2017-04-26,23.682947,121.5274,5.82068e-08
C2O930,玉井,2017-04-26,23.126042,120.46055,0.93844926
C1F911,新伯公,2017-04-26,24.221361,120.841069,0.00013461731
C0R490,九如,2017-04-26,22.7405,120.490503,0.99678093
C0X200,左鎮,2017-04-26,23.056758,120.408522,0.96828693
C0SB50,叭嗡嗡,2017-04-26,23.047062,121.343223,0.9713732
C1F891,稍來,2017-04-26,24.265689,121.001142,1.04602975e-08
72N240,七股研究中心,2017-04-26,23.081672,120.062894,4.579183e-06
C0C700,中壢,2017-04-26,24.977661,121.256375,1.0015645e-09
C0M690,水上,2017-04-26,23.419734,120.388909,0.026996048
C0V690,鼓山,2017-04-26,22.623325,120.275575,0.0055715865
C0O860,大內,2017-04-26,23.11885,120.36083,0.9257746
C0Z200,萬榮,2017-04-26,23.709219,121.420106,0.022195386
C0T9D0,和中,2017-04-26,24.26676,121.74103,0.13572985
C1O921,楠西,2017-04-26,23.183511,120.484083,0.88677776
C0AJ30,淡水觀海,2017-04-26,25.184591,121.408616,3.1262155e-09
C0V810,左營,2017-04-26,22.67491,120.28491,0.00221814
C0UA70,桃源谷,2017-04-26,24.962606,121.888875,2.2675417e-09
C0X130,官田,2017-04-26,23.193217,120.315422,0.9673106
C1H000,翠峰,2017-04-26,24.109397,121.205211,2.8538447e-09
C0UA90,石城,2017-04-26,24.980444,121.951214,0.00011161764
C1E681,南勢山,2017-04-26,24.421669,120.923831,1.0521822e-09
C0A9F0,內湖,2017-04-26,25.079422,121.57545,2.4165725e-09
C0K291,宜梧,2017-04-26,23.536281,120.169329,7.6082665e-07
C1K540,口湖,2017-04-26,23.585344,120.180517,1.8843431e-07
C0R780,滿州,2017-04-26,22.024403,120.839892,0.023027226
C0V870,文安,2017-04-26,22.8025,120.2164,0.001273115
C0U650,玉蘭,2017-04-26,24.675286,121.587061,1.5179627e-07
C0R640,東港,2017-04-26,22.46247,120.44074,1.5462995e-06
K2E360,苗栗農改,2017-04-26,24.495722,120.829111,1.896172e-08
C0AJ80,板橋,2017-04-26,25.0107,121.4489,2.98751e-08
C0S660,下馬,2017-04-26,23.150427,121.070312,5.950343e-08
C1H9B1,阿眉,2017-04-26,24.1263,120.994672,6.4993575e-09
C0UA20,多加屯,2017-04-26,24.368614,121.373189,6.710237e-09
C0E730,頭份,2017-04-26,24.688247,120.912206,8.7147817e-10
72V140,高改旗南分場,2017-04-26,22.857861,120.516667,0.9985277
C0K480,莿桐,2017-04-26,23.761192,120.502372,0.0001257558
C0U980,坪林石牌,2017-04-26,24.86478,121.77396,1.8588192e-08
C0T900,西林,2017-04-26,23.8119,121.441458,0.00092155125
C1I150,青雲,2017-04-26,23.793361,120.949378,4.589156e-09
467350,澎湖,2017-04-26,23.565503,119.563094,1.5197486e-07
C0G800,埔鹽,2017-04-26,24.000394,120.431683,2.0075895e-07
C0H960,草屯,2017-04-26,23.973672,120.68085,0.0333703
C1V780,多納林道,2017-04-26,22.888028,120.737917,6.458094e-10
C0E920,通霄漁港,2017-04-26,24.498589,120.673876,3.9633147e-08
C0Z330,安通山,2017-04-26,23.290728,121.348528,2.1797622e-07
C0AH10,永和,2017-04-26,25.01125,121.508111,2.98751e-08
C0AK10,太平里,2017-04-26,25.134937,121.364899,3.2558627e-09
C2G640,鹿港,2017-04-26,24.0753,120.430481,1.1024051e-07
C1E890,國三N149K,2017-04-26,24.463414,120.680019,2.9682948e-08
C1R110,口社,2017-04-26,22.770111,120.645222,0.99964845
C1M870,國三N285K,2017-04-26,23.550319,120.505833,0.3659282
467050,新屋,2017-04-26,25.006744,121.047486,8.4472196e-10
C1E480,鳳美,2017-04-26,24.554803,121.034747,5.0990867e-10
C0M530,奮起湖,2017-04-26,23.493903,120.699253,1.3521914e-09
C0C590,觀音,2017-04-26,25.027072,121.153317,1.2014648e-09
C0T9M0,靜浦,2017-04-26,23.455167,121.495028,0.052130897
C2H9M0,發祥,2017-04-26,24.154094,121.164517,5.6574123e-09
C0AI40,石牌,2017-04-26,25.115597,121.513139,3.5230332e-09
C1F871,上谷關,2017-04-26,24.203483,121.018644,2.006361e-09
C2H9G0,百勝,2017-04-26,24.051142,120.909361,3.3302726e-08
C0G880,二水,2017-04-26,23.810742,120.6173,0.0015472996
C0R940,加祿堂,2017-04-26,22.3363,120.6217,8.584362e-06
C0W220,北竿,2017-04-26,26.220358,119.974881,9.1090655e-08
C0O960,崎頂,2017-04-26,22.959547,120.369317,0.14093314
C0S750,向陽,2017-04-26,23.248397,120.986133,1.7396227e-09
C0T9F0,水璉,2017-04-26,23.797131,121.542514,8.9394325e-06
C1M600,頭凍,2017-04-26,23.406364,120.603339,1.8064802e-09
467660,臺東,2017-04-26,22.752211,121.154586,0.62414753
C1D380,新埔,2017-04-26,24.84745,121.03834,6.6025985e-10
C2G980,田頭村,2017-04-26,23.8263,120.444175,7.30168e-07
C0V750,路竹,2017-04-26,22.854997,120.259439,2.6790755e-07
C0N050,蚵寮,2017-04-26,23.301,120.1104,2.0874252e-07
72M700,南改鹿草分場,2017-04-26,23.416869,120.283061,2.618805e-06
C1SA50,利嘉林道,2017-04-26,22.82325,121.009389,5.5433735e-10
467550,玉山,2017-04-26,23.487614,120.959522,1.2988461e-08
C0A940,金山,2017-04-26,25.223628,121.643967,5.377951e-09
C1V340,大津,2017-04-26,22.888322,120.645986,0.9984633
C0W180,七美,2017-04-26,23.219333,119.444892,6.9384674e-07
C1F9C1,白冷,2017-04-26,24.182844,120.929889,2.5978753e-07
K2E710,苗改生物防治研究中心,2017-04-26,24.422861,120.871833,5.5401763e-08
C0N040,蘆竹溝,2017-04-26,23.2344,120.0961,3.7368886e-07
C2W230,畜試所澎湖,2017-04-26,23.628342,119.513206,1.1392588e-07
C0R880,後壁湖,2017-04-26,21.9457,120.7457,0.0002247035
C1I280,埔中,2017-04-26,23.820778,120.642594,4.44725e-09
467790,墾丁雷達站,2017-04-26,21.948235,120.808028,0.004918362
C0W190,望安,2017-04-26,23.380564,119.494075,1.7427278e-07
466881,新北,2017-04-26,24.9593,121.52,2.2536803e-08
C0Z170,卓溪,2017-04-26,23.3443,121.3029,0.0015426098
C0F850,東勢,2017-04-26,24.246428,120.833047,3.6914338e-07
466900,淡水,2017-04-26,25.164889,121.448906,3.2541865e-09
C0I370,魚池,2017-04-26,23.895703,120.94135,1.8398696e-09
C0C630,大溪,2017-04-26,24.882853,121.265547,1.7216164e-09
C0A520,山佳,2017-04-26,24.974944,121.402008,5.1095452e-09
C0I110,竹山,2017-04-26,23.761225,120.688156,7.7803714e-05
82H840,茶改南部分場,2017-04-26,23.762528,120.7405,6.4464425e-09
C0G660,溪湖,2017-04-26,23.94835,120.479122,1.2205147e-06
C1T800,洛韶,2017-04-26,24.204558,121.453956,1.9011296e-08
C1T810,慈恩,2017-04-26,24.192044,121.388386,1.1924425e-09
C1E451,象鼻,2017-04-26,24.368617,120.940228,1.0921699e-09
C0AC60,三峽,2017-04-26,24.939025,121.369728,1.8435333e-09
C0I490,萬大林道,2017-04-26,23.928228,121.091411,2.729054e-09
C1I290,豐丘,2017-04-26,23.668178,120.887417,9.917726e-10
C1I320,奧萬大,2017-04-26,23.952956,121.178556,2.5531006e-09
C2M910,嘉義大學,2017-04-26,23.471325,120.485903,0.9954248
C0U770,南澳,2017-04-26,24.44935,121.81022,7.0561044e-05
C0A980,社子,2017-04-26,25.109508,121.469681,3.4940837e-09
C0V800,六龜,2017-04-26,22.997889,120.633583,3.183147e-05
C1G9D0,國一S218K,2017-04-26,23.890641,120.493253,3.077033e-06
C0E570,白沙屯,2017-04-26,24.549447,120.696803,1.1107946e-08
C2F9A0,中竹林,2017-04-26,24.103556,120.751061,2.9462846e-05
C0FA40,臺中電廠,2017-04-26,24.2146,120.4907,4.4600665e-07
C2G9A0,畜試所彰化,2017-04-26,23.86045,120.557964,0.016918456
C0H9C0,合歡山,2017-04-26,24.143442,121.272547,1.1913177e-08
C0X060,下營,2017-04-26,23.22695,120.256261,0.01567148
G2M350,農試溪口農場,2017-04-26,23.58565,120.408111,0.01814283
C0U860,頭城,2017-04-26,24.85323,121.8308,0.17670982
C0R580,南州,2017-04-26,22.48591,120.50274,1.5462995e-06
C0D430,峨眉,2017-04-26,24.6905,121.017189,1.4684843e-09
C0G780,秀水,2017-04-26,24.03405,120.503869,7.752002e-07
72N100,臺南農改場,2017-04-26,23.0605,120.342194,0.90700096
C0S900,蘭嶼高中,2017-04-26,22.04909,121.51214,9.1643575e-05
467540,大武,2017-04-26,22.355675,120.903789,0.000868719
C1F9W0,德基,2017-04-26,24.254783,121.190261,8.832848e-09
C1Z120,壽豐,2017-04-26,23.870853,121.508081,0.8148574
C0W160,烏坵,2017-04-26,24.9944,119.44956,2.532354e-08
C1I240,外大坪,2017-04-26,23.958697,120.917931,7.591308e-08
C1I550,國六W023K,2017-04-26,23.979067,120.867742,8.909259e-09
C0R870,興海,2017-04-26,21.9752,120.8439,0.017388998
C0R140,瑪家,2017-04-26,22.682903,120.686639,1.1447332e-08
C0A530,坪林,2017-04-26,24.938183,121.70975,1.6569275e-07
C0X260,後壁,2017-04-26,23.366358,120.362326,0.00093473727
C0Z230,和平,2017-04-26,24.30717,121.77007,0.14555423
C0G770,福興,2017-04-26,24.041289,120.437669,2.0075895e-07
C0H9A0,神木村,2017-04-26,23.532742,120.843667,1.8222641e-09
C0I460,南投,2017-04-26,23.911469,120.687331,0.49325147
C0I480,梅峰,2017-04-26,24.085272,121.173572,2.8680325e-09
C1V570,吉東,2017-04-26,22.85422,120.5454,0.9984417
C2D740,屯原,2017-04-26,24.067969,121.209389,2.3974647e-09
C2A560,福山,2017-04-26,24.776203,121.502811,2.5800807e-07
C0AH30,五分山,2017-04-26,25.07125,121.780794,1.2653647e-09
C0FA10,松柏,2017-04-26,24.429115,120.617482,6.915486e-08
72S200,東改班鳩分場,2017-04-26,22.829528,121.077694,0.17215356
72HA00,中改埔里分場,2017-04-26,23.903208,120.963364,2.7204479e-09
C2H9W0,大坪頂農水,2017-04-26,24.043122,120.932781,7.343066e-09
C0C650,平鎮,2017-04-26,24.897503,121.214636,8.6195623e-10
C0S930,延平,2017-04-26,22.902581,121.084058,0.02408765
C0UA60,樟樹山,2017-04-26,24.41393,121.78325,3.5303815e-06
C1S670,摩天,2017-04-26,23.199503,121.027,2.8523102e-09
C0V630,茄萣,2017-04-26,22.906642,120.182608,4.0592298e-07
466940,基隆,2017-04-26,25.133314,121.740475,3.0687843e-07
C0X050,東河,2017-04-26,23.296598,120.385608,0.9087339
C0R770,保力,2017-04-26,22.071122,120.764111,2.544798e-05
G2L020,農試嘉義分所,2017-04-26,23.485028,120.473806,0.94557846
C0X240,關子嶺,2017-04-26,23.331169,120.508025,1.1368573e-05
C0I380,集集,2017-04-26,23.828206,120.801467,2.212364e-07
466990,花蓮,2017-04-26,23.975128,121.613275,0.77432525
C1V220,小關山,2017-04-26,23.154217,120.813603,1.4647974e-09
C1F9G1,慶福山,2017-04-26,24.180853,120.848378,8.288076e-09
C0Z250,瑞穗林道,2017-04-26,23.49284,121.30688,1.5393937e-08
C0D590,新豐,2017-04-26,24.87068,120.97721,5.93284e-10
C0A870,五指山,2017-04-26,25.132153,121.608692,1.2454999e-09
C0UA50,西帽山,2017-04-26,24.555361,121.802628,4.326453e-08
C0X160,仁德,2017-04-26,22.968258,120.257689,7.2214665e-05
C1H971,六分寮,2017-04-26,23.92507,120.6378,4.335255e-07
C0W120,西嶼,2017-04-26,23.5626,119.468436,2.2105587e-07
C0G650,員林,2017-04-26,23.946503,120.585597,0.8928842
C0AD50,鶯歌,2017-04-26,24.951533,121.346294,1.5745856e-09
C2H9Q0,北東眼山,2017-04-26,24.120939,121.189303,7.268932e-09
C2H9T0,名間竹圍,2017-04-26,23.859914,120.637572,5.4164957e-08
C0S990,山豬窟,2017-04-26,22.318619,120.857372,1.0908879e-08
72Q010,高雄農改,2017-04-26,22.709333,120.525889,0.9965801
C0X190,安平,2017-04-26,22.993161,120.152181,6.767584e-07
C0K400,斗六,2017-04-26,23.720583,120.541127,2.7796654e-05
12J990,口湖工作站,2017-04-26,23.589978,120.180394,1.8884646e-07
C0O830,北寮,2017-04-26,23.079561,120.495008,0.08205186
C1D410,白蘭,2017-04-26,24.579364,121.079947,6.007138e-10
C0S970,加津林,2017-04-26,22.416211,120.926942,0.00037582588
C0D700,關西,2017-04-26,24.7977,121.1732,1.5712525e-09
C0M810,里佳,2017-04-26,23.389125,120.716647,1.325226e-09
C0U750,龜山島,2017-04-26,24.841667,121.953133,5.249022e-07
C0R810,內獅,2017-04-26,22.305064,120.642986,1.18070075e-05
C1M390,龍美,2017-04-26,23.406728,120.654417,1.3471355e-09
C2FB60,頭櫃山,2017-04-26,24.129842,120.858925,3.6550416e-09
C1H840,國三N238K,2017-04-26,23.841008,120.707711,3.6586326e-07
CAQ030,崎峰國小,2017-04-26,22.42565,120.49521,1.5462995e-06
C2E520,大湖,2017-04-26,24.414939,120.870872,2.750806e-08
467530,阿里山,2017-04-26,23.508208,120.813242,5.357209e-09
C1E691,南湖,2017-04-26,24.40135,120.837533,1.1099744e-09
C0FA30,梧棲,2017-04-26,24.256003,120.523381,3.9895153e-07
C1V231,高中,2017-04-26,23.134911,120.716711,3.5495948e-09
C0F9V0,新社,2017-04-26,24.200172,120.815806,2.8819518e-06
C0H890,埔里,2017-04-26,23.972169,120.952425,3.2966114e-09
C0R690,墾丁,2017-04-26,21.966756,120.810269,7.016293e-06
C0F0D0,審馬陣,2017-04-26,24.381675,121.4203,1.0363821e-08
C0R820,白鷺,2017-04-26,22.454275,120.666219,1.7533703e-09
U2H480,臺大溪頭,2017-04-26,23.670306,120.798194,9.621229e-10
C1V190,南天池,2017-04-26,23.27403,120.91176,1.7408673e-09
K2E360,苗栗農改場,2017-04-26,24.495722,120.829111,1.896172e-08
CAJ050,海口故事園區,2017-04-26,23.57543,120.14121,1.8843431e-07
C2H9D0,三隻寮,2017-04-26,24.093078,120.861578,6.5201924e-09
C0O990,媽廟,2017-04-26,22.99175,120.293525,0.02427999
C0D480,打鐵坑,2017-04-26,24.849664,121.150789,1.3873502e-09
C0Z220,和平林道,2017-04-26,24.343922,121.656317,9.800375e-08
C0TA10,花蓮漁港,2017-04-26,23.995322,121.638331,0.8187155
72C440,桃園農改場,2017-04-26,24.950944,121.030583,6.653e-10
C1E711,馬拉邦山,2017-04-26,24.367306,120.901656,1.0849694e-09
C0SB20,富岡,2017-04-26,22.792467,121.192669,0.98345757
C0D560,竹東,2017-04-26,24.767147,121.057881,1.763247e-09
C0F9U0,南屯,2017-04-26,24.137006,120.637969,6.965777e-07
C0M720,番路,2017-04-26,23.464657,120.554156,0.7157106
C0F0A0,雪山圈谷,2017-04-26,24.388594,121.236339,1.5889745e-08
C1A9N0,四十份,2017-04-26,24.934158,121.593283,4.1943564e-09
C0U760,東澳,2017-04-26,24.52196,121.83318,0.40743804
C0X230,鹽水,2017-04-26,23.272621,120.247641,1.76752e-07
C2H9H0,苗改南投蜂場,2017-04-26,23.852589,120.693481,0.013506776
C0R950,萬隆國小,2017-04-26,22.507667,120.587817,0.9993296
C0V370,古亭坑,2017-04-26,22.893178,120.401947,0.994561
C1I340,新興橋,2017-04-26,23.563333,120.868728,1.3947526e-09
C0SA80,土坂,2017-04-26,22.453108,120.887572,7.3902333e-06
C0R160,鹽埔,2017-04-26,22.739558,120.530778,0.9965801
C0AC40,大屯山,2017-04-26,25.175675,121.522408,2.3878082e-09
466850,五分山雷達站,2017-04-26,25.071182,121.781205,1.2730217e-09
C2H9L0,馬烈霸,2017-04-26,24.1512,121.201772,7.163831e-09
C1AI50,國三N016K,2017-04-26,25.034164,121.619664,1.9457895e-09
C1V600,藤枝,2017-04-26,23.071961,120.757042,9.787441e-10
C1E601,南勢,2017-04-26,24.572486,120.734842,1.9477575e-09
C0Z180,新城,2017-04-26,24.03946,121.60454,0.73601925
C0O980,新市,2017-04-26,23.061614,120.298197,0.94555837
C0K420,西螺,2017-04-26,23.800407,120.467394,5.407721e-07
C0Z050,佳心,2017-04-26,23.34567,121.21316,4.6116035e-08
C0AD30,蘆洲,2017-04-26,25.086594,121.472331,2.6264186e-09
C0V610,梓官,2017-04-26,22.760558,120.267211,0.8456466
K2F750,種苗改良場,2017-04-26,24.225972,120.800917,1.766227e-05
C0UA80,大溪漁港,2017-04-26,24.941801,121.902955,0.02974068
C1AI60,國一39K邊坡,2017-04-26,25.064361,121.383836,1.1753758e-09
C0W150,金寧,2017-04-26,24.457703,118.328989,2.2199256e-08
C0R960,內埔,2017-04-26,22.608483,120.570714,0.99866945
V2C250,八德合作社,2017-04-26,24.93775,121.266389,1.0441674e-09
C2H9S0,龍南,2017-04-26,23.953536,120.833183,1.2733009e-09
C0AH40,平等,2017-04-26,25.129142,121.577086,1.2032811e-09
C0R540,佳冬,2017-04-26,22.419456,120.552375,0.002193979
466950,彭佳嶼,2017-04-26,25.627975,122.079744,8.819233e-08
C0A890,雙溪,2017-04-26,25.036003,121.864242,3.5218402e-06
C0C480,桃園,2017-04-26,24.992425,121.323172,1.1603293e-09
C0AH50,林口,2017-04-26,25.072181,121.38084,1.0230967e-09
A2K360,水試臺西試驗場,2017-04-26,23.717231,120.190522,5.134142e-07
B2N890,畜試所,2017-04-26,23.058972,120.336406,0.90700096
C2M960,外寮,2017-04-26,23.562643,120.665688,1.1897163e-09
C0F9S0,烏日,2017-04-26,24.107058,120.624103,0.13422613
C0C490,八德,2017-04-26,24.928708,121.283289,1.0206448e-09
C0R190,赤山,2017-04-26,22.592333,120.614306,0.9987505
C0T820,天祥,2017-04-26,24.179597,121.495639,2.6429993e-06
C1F9E1,龍安,2017-04-26,24.1605,120.831961,1.0017285e-06
C0V820,小林,2017-04-26,23.148408,120.63325,2.9469541e-08
C2G870,芳苑,2017-04-26,23.922303,120.320025,5.752549e-08
C0E850,大河,2017-04-26,24.618069,120.948578,3.5137724e-09
C1U670,寒溪,2017-04-26,24.634,121.71691,0.00060258294
C0N020,城西,2017-04-26,23.0568,120.0956,6.767584e-07
C1Z110,三棧,2017-04-26,24.11557,121.60501,6.4849964e-08
C0R280,檳榔,2017-04-26,22.076078,120.836777,9.739987e-07
C2H9J0,中台,2017-04-26,23.9996,120.938739,1.9321806e-08
C0F9L0,后里,2017-04-26,24.310436,120.729725,5.1538802e-05
C0D540,橫山,2017-04-26,24.71116,121.11693,2.5820628e-09
C1D420,太閣南,2017-04-26,24.632808,121.160575,2.7324814e-09
C1E770,公館,2017-04-26,24.526914,120.830806,3.2159754e-08
CAN130,水試所海水繁養殖中心,2017-04-26,23.120802,120.07968,4.579183e-06
C1I430,翠華,2017-04-26,24.191961,121.224339,3.934248e-09
C1M400,菜瓜坪,2017-04-26,23.251928,120.576103,3.0780548e-08
C0G730,二林,2017-04-26,23.903325,120.376081,3.1029217e-07
72M360,南改義竹分場,2017-04-26,23.360694,120.279361,4.3544313e-07
V2K620,麥寮合作社,2017-04-26,23.753836,120.294783,7.602901e-06
C0Z070,舞鶴,2017-04-26,23.46811,121.37407,0.00015815669
C0B040,大武崙,2017-04-26,25.166676,121.706993,1.3947607e-07
C1Z030,紅葉,2017-04-26,23.493119,121.338806,0.00091548427
C1I050,丹大,2017-04-26,23.753747,121.141147,2.3062263e-09
C0I080,信義,2017-04-26,23.689694,120.851036,5.6306932e-09
C2M920,朴子農改,2017-04-26,23.469889,120.259383,2.618805e-06
C2A880,福隆,2017-04-26,25.017842,121.942083,0.00024262346
C0Z160,鳳林,2017-04-26,23.746114,121.453411,0.06899908
C0V210,復興,2017-04-26,23.222403,120.806089,2.8212305e-06
C0H990,昆陽,2017-04-26,24.121322,121.273642,6.228426e-09
C0R741,獅子,2017-04-26,22.202308,120.705236,0.00080714555
C0S710,鹿野,2017-04-26,22.917711,121.122994,4.48305e-05
C0I530,小奇萊,2017-04-26,24.131764,121.295717,6.702792e-09
C2K630,荷苞,2017-04-26,23.657717,120.595144,0.0039041426
C0Z080,富源,2017-04-26,23.587642,121.378225,0.0059251427
467441,高雄,2017-04-26,22.7304,120.3125,0.7907983
C0SB10,美和,2017-04-26,22.682078,121.060236,0.40546212
C2K620,馬光農場,2017-04-26,23.721453,120.378864,2.4887074e-06
C1I140,卡奈托灣,2017-04-26,23.754364,121.087872,8.551652e-10
C0I520,玉山風口,2017-04-26,23.470489,120.955994,1.3544894e-08
C1G691,下水埔,2017-04-26,23.816114,120.5676,4.4312583e-05
C0X110,臺南市南區,2017-04-26,22.961189,120.188378,7.176905e-05
C0V680,仁武,2017-04-26,22.701083,120.347722,0.002236775
C2G840,北斗,2017-04-26,23.877586,120.514222,1.9997867e-06
C0R900,竹坑,2017-04-26,22.1385,120.7022,1.974914e-07
C0K250,崙背,2017-04-26,23.75555,120.318925,7.602901e-06
C0G860,社頭,2017-04-26,23.897647,120.5862,0.029281087
C0X150,安定,2017-04-26,23.102614,120.227839,0.00013879222
C0R590,里港,2017-04-26,22.77919,120.49459,0.99932903
C0E610,馬都安,2017-04-26,24.451272,120.930192,1.0646399e-09
C0E550,明德,2017-04-26,24.583486,120.885411,7.770735e-09
C0R150,三地門,2017-04-26,22.709889,120.639944,0.99965686
C0G910,花壇,2017-04-26,24.032076,120.549461,4.64971e-07
C1D400,鳥嘴山,2017-04-26,24.71909,121.28387,5.1926627e-09
C0K500,元長,2017-04-26,23.64981,120.315024,3.571577e-05
C0F0B0,石岡,2017-04-26,24.276061,120.777644,5.338894e-06
C2V250,甲仙,2017-04-26,23.080106,120.591758,1.3144695e-06
C0SA20,金崙山,2017-04-26,22.567419,120.959667,3.7213204e-09
C0V350,溪埔,2017-04-26,22.738578,120.446797,0.9991272
C0M660,溪口,2017-04-26,23.604131,120.403569,0.01814283
C1S880,壽卡,2017-04-26,22.238911,120.858903,6.328718e-09
72D680,桃改新埔分場,2017-04-26,24.834444,121.066111,6.673194e-10
