站號,站名,日期,lat,lon,BLBTSLS
C0R710,龍磐,2017-12-27,21.931672,120.838942,0.9115022
C1F9D1,白毛台,2017-12-27,24.158325,120.886933,2.489652e-09
C0G940,竹塘,2017-12-27,23.848253,120.386764,1.6923239e-05
467590,恆春,2017-12-27,22.003897,120.746339,0.9993335
C1O850,環湖,2017-12-27,23.148617,120.418633,5.201244e-10
C0U710,太平山,2017-12-27,24.505486,121.525656,2.9267213e-08
C0E820,獅潭,2017-12-27,24.539133,120.920042,5.1484417e-09
C0V880,興達,2017-12-27,22.8778,120.2127,1.5389526e-07
C0S890,關山,2017-12-27,23.0395,121.175017,2.767529e-07
C0SB30,新蘭,2017-12-27,22.869214,121.223228,0.9974192
C2R970,屏科大,2017-12-27,22.648275,120.619247,1.0490322e-09
K2F750,種苗繁殖,2017-12-27,24.225972,120.800917,1.2914249e-09
C1Z130,銅門,2017-12-27,23.965694,121.492842,1.5521925e-08
C0AD40,土城,2017-12-27,24.973208,121.445169,0.011105217
CAN140,六官養殖協會,2017-12-27,23.22881,120.29962,7.84746e-08
C0X180,山上,2017-12-27,23.0757,120.363253,1.4361725e-09
C0F9Z0,雪山東峰,2017-12-27,24.388792,121.268675,2.6970449e-08
C1M480,獨立山,2017-12-27,23.537022,120.607797,3.0144678e-09
C0X220,學甲,2017-12-27,23.230367,120.182187,0.7052725
467650,日月潭,2017-12-27,23.881325,120.90805,7.188468e-09
C0K600,箔子寮,2017-12-27,23.6197,120.14,0.9562381
C0G830,埤頭,2017-12-27,23.866003,120.452806,2.4967674e-08
C0S950,七塊厝,2017-12-27,22.954453,121.229922,4.1859587e-07
467110,金門,2017-12-27,24.407306,118.289281,0.99947065
C0AH80,深坑,2017-12-27,25.002703,121.628328,0.0048007956
467990,馬祖,2017-12-27,26.169269,119.923419,2.2095269e-06
C0A970,三貂角,2017-12-27,25.007606,122.002058,2.4870081e-07
C2D730,寶山農場,2017-12-27,24.732444,120.976153,4.7463487e-07
C0K430,褒忠,2017-12-27,23.690938,120.303634,1.10249e-05
467480,嘉義,2017-12-27,23.495925,120.432906,1.38144145e-08
C2E540,後龍,2017-12-27,24.606489,120.783933,0.6068601
C0V400,阿公店,2017-12-27,22.804194,120.355528,1.547639e-09
C0R440,大漢山,2017-12-27,22.405264,120.753181,5.3157954e-08
C0K280,四湖,2017-12-27,23.630414,120.227125,0.9944814
C1F9B1,桐林,2017-12-27,24.066172,120.735194,7.5526385e-10
C2H9U0,鳳鵬,2017-12-27,23.763919,120.788061,1.0477864e-09
C0K390,土庫,2017-12-27,23.679029,120.395574,8.5796636e-08
C1I450,望鄉山,2017-12-27,23.594153,120.944286,1.6774434e-08
C0E910,海埔,2017-12-27,24.648767,120.772435,0.6494235
B2E890,畜試北區分所,2017-12-27,24.527806,120.770972,5.8548636e-08
C0R750,四林格山,2017-12-27,22.076989,120.802439,0.974193
C0F0C0,中坑,2017-12-27,24.248517,120.903319,3.2577823e-09
C1I121,大鞍,2017-12-27,23.678381,120.760017,5.8617884e-09
72U480,花改蘭陽分場,2017-12-27,24.686306,121.716583,2.5630882e-09
C0A770,科教館,2017-12-27,25.096356,121.516507,0.018005233
C0AJ60,六塊厝,2017-12-27,25.24,121.4481,0.9999668
C0R620,墾雷,2017-12-27,21.900836,120.855269,0.99567044
467420,永康,2017-12-27,23.038386,120.2367,7.531626e-09
467300,東吉島,2017-12-27,23.25695,119.667467,0.9965088
C0I410,名間,2017-12-27,23.837053,120.701447,6.0693756e-10
A2C560,農工中心,2017-12-27,24.985917,121.239833,0.031568017
C0V740,旗山,2017-12-27,22.888614,120.483597,5.3964233e-10
C0Z061,玉里,2017-12-27,23.3215,121.339656,4.81684e-09
C0S840,南田,2017-12-27,22.279725,120.889208,0.9991359
C1I470,杉林溪,2017-12-27,23.639517,120.786444,7.1941604e-09
C1X040,東原,2017-12-27,23.291597,120.463822,5.491608e-10
C0R660,枋寮,2017-12-27,22.367722,120.590647,0.00036596454
C1R120,上德文,2017-12-27,22.763272,120.704442,3.1910439e-09
C0K450,大埤,2017-12-27,23.646074,120.431537,1.9462534e-09
C0UA00,土場,2017-12-27,24.576533,121.495333,3.9399872e-08
467080,宜蘭,2017-12-27,24.763975,121.756528,8.759013e-09
C0N030,四草,2017-12-27,23.0235,120.1116,5.731898e-07
C0V650,彌陀,2017-12-27,22.783806,120.246361,4.0186773e-08
C0D660,新竹市東區,2017-12-27,24.798681,120.986942,0.04440002
82S580,茶改東部分場,2017-12-27,22.907694,121.130139,0.91406673
C0SB40,興隆,2017-12-27,22.913661,121.257469,0.9962349
C0C710,大溪永福,2017-12-27,24.892936,121.324975,1.9331853e-06
C0FA20,溫寮,2017-12-27,24.372177,120.583125,0.12644577
C0V640,湖內,2017-12-27,22.887139,120.2445,1.4007578e-07
C0R910,下寮,2017-12-27,22.3929,120.5548,0.00036596454
C0Z020,明里,2017-12-27,23.208717,121.262342,6.45657e-09
C0M770,嘉義梅山,2017-12-27,23.585398,120.555587,1.0815437e-09
G2F820,農業試驗所,2017-12-27,24.031261,120.688133,7.875507e-10
C0C660,楊梅,2017-12-27,24.912375,121.143047,3.8230192e-07
C1E511,新開,2017-12-27,24.347703,120.827019,2.6049212e-09
G2F820,農試所(霧峰),2017-12-27,24.031261,120.688133,7.875507e-10
C1I070,和社,2017-12-27,23.591131,120.888861,1.9513866e-09
C2F000,大肚,2017-12-27,24.15295,120.572117,1.311014e-09
C1S850,豐南,2017-12-27,23.122139,121.262389,8.89834e-09
C2A920,富貴角,2017-12-27,25.263783,121.565258,0.99698883
CAH030,茶改場竹圍站,2017-12-27,23.860083,120.637528,9.1386587e-10
C0T960,光復,2017-12-27,23.660694,121.424964,2.8397622e-07
C0F9M0,豐原,2017-12-27,24.254322,120.720692,2.7085603e-09
C0R720,旭海,2017-12-27,22.205403,120.887614,0.99993825
C0V710,苓雅,2017-12-27,22.622742,120.330669,4.933956e-09
C0C740,觀音工業區,2017-12-27,25.064764,121.114856,0.99999887
CAC040,拉拉山,2017-12-27,24.699317,121.427133,8.6196366e-08
C0V790,萬山,2017-12-27,22.905944,120.688056,2.417642e-09
U2HA30,臺大和社,2017-12-27,23.590856,120.888864,1.9513866e-09
C0AJ90,澳底,2017-12-27,25.0552,121.9253,0.6969549
C0Z100,東華,2017-12-27,23.89525,121.549833,4.5003787e-08
C0G970,三豐,2017-12-27,23.882,120.2895,0.6725972
V2K610,大庄合作社,2017-12-27,23.8068,120.367939,6.926521e-06
C0V900,汕尾,2017-12-27,22.4782,120.4151,8.2678614e-10
C1R630,龍泉,2017-12-27,22.66701,120.59091,9.618678e-10
C1AC50,關渡,2017-12-27,25.133486,121.469331,0.00010131614
C0F9I0,神岡,2017-12-27,24.272481,120.658314,1.8313068e-08
C0K460,斗南,2017-12-27,23.678734,120.478359,1.9293662e-09
467410,臺南,2017-12-27,22.993239,120.204772,4.2226134e-07
C2O810,曾文,2017-12-27,23.219681,120.497328,3.7074044e-10
467280,後龍,2017-12-27,24.648563,120.831834,0.5177504
C1F9J1,清水林,2017-12-27,24.071242,120.820419,2.6325073e-09
C2A650,火燒寮,2017-12-27,25.002719,121.742892,1.4745834e-07
466930,竹子湖,2017-12-27,25.162078,121.544547,1.0682981e-07
C1I220,樟湖,2017-12-27,23.905333,120.846983,4.310209e-09
C0I390,仁愛,2017-12-27,24.022122,121.132206,2.908445e-09
C0Z300,東里,2017-12-27,23.26853,121.30547,6.171475e-09
C1V590,新發,2017-12-27,23.057019,120.646064,8.4615115e-09
C0K510,水林,2017-12-27,23.572924,120.24597,0.00022068777
72S590,東改賓朗果園,2017-12-27,22.813889,121.071278,0.99967253
82A750,茶改北部分場,2017-12-27,24.955778,121.631222,1.2969664e-07
C1A750,石碇服務區,2017-12-27,25.00872,121.646242,4.5598044e-06
C0X300,鹿寮,2017-12-27,23.386047,120.477331,9.920393e-10
G2AI50,關渡,2017-12-27,25.11575,121.492,0.99950665
C0K590,雲林東勢,2017-12-27,23.674192,120.255721,4.5749417e-05
C0A570,桶後,2017-12-27,24.848222,121.597992,1.9243394e-08
C1S800,華源,2017-12-27,22.657883,121.02325,1.0837166e-08
C0G720,溪州,2017-12-27,23.851589,120.499093,2.2855364e-08
C1V160,達卡努瓦,2017-12-27,23.279811,120.705319,1.0482767e-08
C2M410,馬頭山,2017-12-27,23.324361,120.582017,6.256153e-10
C0V850,蚵仔寮,2017-12-27,22.7256,120.2527,6.1933374e-09
C0S740,池上,2017-12-27,23.119628,121.209469,1.2191945e-08
C1V390,尖山,2017-12-27,22.813153,120.367789,1.4414663e-09
C0AH70,松山,2017-12-27,25.04871,121.55042,0.014103261
C0N010,鯤鯓國小,2017-12-27,23.1879,120.0889,0.20503044
C0R550,新埤,2017-12-27,22.467947,120.582894,8.2177876e-10
C0SA60,知本（水試所）,2017-12-27,22.702394,121.082761,1.3275669e-08
C0T9I0,豐濱,2017-12-27,23.583897,121.514806,1.12170175e-08
C0UB00,淡江大學蘭陽校園,2017-12-27,24.823239,121.730383,1.9918081e-08
C0W240,九宮,2017-12-27,24.423753,118.240186,0.9995657
C0T9N0,富里,2017-12-27,23.171639,121.249378,1.1672197e-08
U2HA50,臺大竹山,2017-12-27,23.756972,120.681556,9.988441e-10
C0V840,鳳鼻頭,2017-12-27,22.5083,120.3591,5.6297482e-09
C0X140,西港,2017-12-27,23.125608,120.203108,8.0591256e-08
72D080,桃改五峰分場,2017-12-27,24.612194,121.157167,7.932164e-09
C2H9P0,伊拿谷,2017-12-27,23.963211,121.088264,3.0505483e-09
C2H9F0,柑林,2017-12-27,24.018658,120.847072,6.1840094e-10
C0TA20,加灣,2017-12-27,24.082025,121.608944,7.887541e-05
C0V530,阿蓮,2017-12-27,22.883208,120.327508,6.9028707e-09
C1O880,關山,2017-12-27,23.173397,120.594092,8.9750896e-10
C0E791,卓蘭,2017-12-27,24.3126,120.8244,2.7645644e-09
C1I030,武界,2017-12-27,23.913225,121.052483,3.2027514e-09
C0R520,崁頂,2017-12-27,22.514781,120.506914,1.0139023e-09
C0R341,牡丹,2017-12-27,22.130036,120.792639,0.9999701
C0R930,萬丹,2017-12-27,22.5885,120.4851,7.9554935e-10
C0S760,紅石,2017-12-27,23.069131,121.126219,1.887249e-08
C1M610,石磐龍,2017-12-27,23.496606,120.663506,7.866879e-09
C0UA10,鴛鴦湖,2017-12-27,24.590269,121.412228,1.36888305e-08
V2C260,八德蔬果,2017-12-27,24.978508,121.281819,0.0017627982
C0R800,丹路,2017-12-27,22.204481,120.750989,0.9995959
C0G920,永靖,2017-12-27,23.924703,120.547533,2.0719074e-08
C2M950,太和,2017-12-27,23.538372,120.702961,9.74399e-09
C1A630,下盆,2017-12-27,24.771003,121.538622,1.4137106e-08
B2N890,畜產試驗所,2017-12-27,23.058972,120.336406,4.0882013e-09
C0UA30,白嶺,2017-12-27,24.527819,121.519031,3.6430933e-08
C1V580,溪南(特生中心),2017-12-27,23.084972,120.788475,7.865574e-09
C1T970,大農,2017-12-27,23.615233,121.413331,1.0373432e-08
E2S960,林試太麻里2,2017-12-27,22.598014,120.989761,3.4554643e-07
C0R650,竹田,2017-12-27,22.58486,120.54344,8.6216506e-10
C1H900,清流,2017-12-27,24.080775,120.962997,3.8631156e-09
C1C510,水尾,2017-12-27,24.940081,121.087161,0.8984963
C0F9X0,大雅(中科園區),2017-12-27,24.21528,120.62445,1.7948178e-08
C0SB60,白守蓮,2017-12-27,23.126769,121.401914,2.4490953e-07
C0O970,虎頭埤,2017-12-27,23.021375,120.347878,3.1799918e-09
C0C730,中大臨海站,2017-12-27,24.966126,121.008581,0.9999915
C0X250,新營,2017-12-27,23.310689,120.316681,3.081509e-08
C0V700,三民,2017-12-27,22.645017,120.311233,3.4402824e-08
C0U870,大礁溪,2017-12-27,24.791042,121.675047,1.3230774e-08
C0E870,高鐵苗栗,2017-12-27,24.60725,120.826094,0.5610136
A2K570,古坑花卉中心,2017-12-27,23.63353,120.55239,9.683733e-10
C0M860,新美,2017-12-27,23.338017,120.683169,3.3381313e-09
C1E701,八卦,2017-12-27,24.491756,120.927619,4.902605e-09
C0I420,國姓,2017-12-27,24.037803,120.855072,6.553454e-10
C2D720,關西工作站,2017-12-27,24.757275,121.184792,1.0843182e-08
C0S960,香蘭,2017-12-27,22.587569,120.993375,3.4554643e-07
C0R260,春日,2017-12-27,22.370361,120.628306,3.545921e-05
72G600,臺中農改場,2017-12-27,24.003028,120.534389,1.873727e-08
C0Z210,瑞穗,2017-12-27,23.5239,121.39021,5.279125e-09
C0M820,達邦,2017-12-27,23.453994,120.749517,7.470449e-09
C0V860,南寮,2017-12-27,22.7616,120.2339,6.1933374e-09
C0G740,大城,2017-12-27,23.852487,120.320935,0.6526716
C0R920,塭仔,2017-12-27,22.4169,120.5197,0.00049751805
C0R470,高樹,2017-12-27,22.826389,120.600806,7.262124e-10
C0R680,佳樂水,2017-12-27,21.993578,120.861633,0.9997849
C1O870,大棟山,2017-12-27,23.31157,120.52226,6.941847e-09
C0D360,梅花,2017-12-27,24.678347,121.208558,6.9749477e-09
C0Z190,富世,2017-12-27,24.14743,121.6297,2.8941254e-06
C0AI10,屈尺,2017-12-27,24.92184,121.54475,1.3652954e-05
B2U990,畜試東區分所,2017-12-27,24.669039,121.832561,7.99267e-09
C0SB80,長濱漁港,2017-12-27,23.313644,121.459994,4.4034434e-09
C0R240,來義,2017-12-27,22.527306,120.625111,1.0143202e-09
C0V910,大樹,2017-12-27,22.684645,120.432803,7.648287e-10
C1R610,西大武山,2017-12-27,22.617719,120.7322,2.7433133e-08
C0G900,線西,2017-12-27,24.143358,120.443536,0.03307181
C0M700,竹崎,2017-12-27,23.526178,120.555508,9.094804e-10
C2E880,三義,2017-12-27,24.405478,120.749819,3.2994611e-09
C0C720,竹圍,2017-12-27,25.112692,121.239824,0.99950665
C0F9P0,清水,2017-12-27,24.312297,120.562242,0.057516072
C0Z150,吉安光華,2017-12-27,23.930925,121.595153,2.3845233e-08
C1D640,外坪(五指山),2017-12-27,24.644447,121.090961,4.420543e-09
C0F9O0,潭子,2017-12-27,24.213106,120.703933,2.2099584e-09
C2H9R0,卓社,2017-12-27,23.887894,121.000086,3.7057095e-09
72T250,花蓮農改場,2017-12-27,23.975222,121.563889,2.2715295e-08
C0E780,銅鑼,2017-12-27,24.489681,120.790853,2.9927683e-08
C1T950,太安,2017-12-27,23.666719,121.370128,1.8163798e-08
C0E830,苑裡,2017-12-27,24.439714,120.653053,0.4919457
467270,田中,2017-12-27,23.873803,120.581286,3.2657392e-09
C0SA10,檳榔四格山,2017-12-27,22.810031,121.109308,0.99906695
C1T830,布洛灣,2017-12-27,24.17184,121.57127,1.0448632e-08
C0F970,大坑,2017-12-27,24.173142,120.722289,1.2791015e-09
C1U920,思源,2017-12-27,24.393125,121.347214,1.5062367e-08
C0A931,三和,2017-12-27,25.233153,121.595236,1.1718143e-05
C0I010,廬山,2017-12-27,24.033311,121.181808,5.158251e-09
C2M940,日野賀,2017-12-27,23.434056,120.727169,8.763877e-09
C0R860,鼻頭,2017-12-27,22.1043,120.8979,0.9887545
C0UB20,壯圍,2017-12-27,24.7359,121.8163,2.4595628e-09
C0R790,九棚,2017-12-27,22.14195,120.889281,0.9999003
C0W110,東莒,2017-12-27,25.9652,119.98069,0.9691271
C1U930,粉鳥林,2017-12-27,24.497088,121.842479,1.3091454e-08
C1I211,蘆竹湳,2017-12-27,23.934019,120.811994,2.619215e-09
C0S830,長濱,2017-12-27,23.286817,121.411975,5.4439604e-09
C1F9F1,伯公龍,2017-12-27,24.272392,120.849047,1.5629311e-09
C0E810,西湖,2017-12-27,24.562947,120.7485,0.99989367
C1I440,新高口,2017-12-27,23.478744,120.878939,6.754126e-09
C0O840,王爺宮,2017-12-27,23.222064,120.40085,1.0692166e-09
C0T9G0,鳳林山,2017-12-27,23.735269,121.420131,7.2537802e-09
C0X080,佳里,2017-12-27,23.173039,120.145086,0.20503044
C0FB70,大甲溪埔,2017-12-27,24.370625,120.620067,0.089156084
C0Z310,清水斷崖,2017-12-27,24.218294,121.689142,6.455538e-08
C0M680,太保,2017-12-27,23.455062,120.331455,1.7412502e-08
C1S820,金峰,2017-12-27,22.590969,120.933236,7.801048e-08
C0AD10,八里,2017-12-27,25.150211,121.403947,0.99950445
C2K240,草嶺,2017-12-27,23.59555,120.693461,7.908266e-09
C1SA70,都蘭,2017-12-27,22.87794,121.226881,0.9962349
C0K440,二崙,2017-12-27,23.772797,120.408944,3.0743234e-08
C1A760,坪林交控,2017-12-27,24.94284,121.713442,3.5695507e-08
C0F9N0,大里,2017-12-27,24.092464,120.701378,7.609712e-10
C0SA90,達仁林場,2017-12-27,22.264347,120.823972,0.9896128
C1R290,石門山,2017-12-27,22.112611,120.756597,0.99998474
42HA10,萬大發電廠,2017-12-27,23.978875,121.139639,3.4435759e-09
C0R890,山海,2017-12-27,21.9878,120.7091,0.9247287
C0T9A0,月眉山,2017-12-27,23.809928,121.539828,1.34082505e-08
C0AC70,信義,2017-12-27,25.037822,121.564597,0.014103261
C0K560,棋山,2017-12-27,23.68645,120.603417,9.705496e-10
C2FB50,出雲,2017-12-27,24.206469,120.902794,3.753563e-09
C1Z240,中平林道,2017-12-27,23.42115,121.26763,2.2458577e-08
U2H480,溪頭,2017-12-27,23.670306,120.798194,8.230058e-09
C0M880,好美里,2017-12-27,23.3364,120.138,0.007799683
C0T9E0,大坑,2017-12-27,23.880628,121.581981,1.8462016e-08
C0K530,臺西,2017-12-27,23.701547,120.197559,0.9835787
C1E900,國一N128K,2017-12-27,24.560997,120.844186,2.4036846e-05
C0AJ50,水湳洞,2017-12-27,25.123695,121.862238,0.99631655
C0AI20,白沙灣,2017-12-27,25.283128,121.519058,0.9999548
C0A860,大坪,2017-12-27,25.165914,121.632969,1.7801923e-07
C1U850,觀音海岸,2017-12-27,24.38319,121.77856,9.339709e-09
C2K610,草嶺石壁,2017-12-27,23.602469,120.707731,7.954375e-09
C0U950,鶯子嶺,2017-12-27,24.89754,121.79244,4.546884e-08
C0O900,善化,2017-12-27,23.112883,120.297219,4.718865e-09
C0K550,蔦松,2017-12-27,23.514319,120.229736,0.010909766
E2P980,林試六龜中心,2017-12-27,22.991703,120.645722,1.7035658e-09
C0E590,通霄,2017-12-27,24.471892,120.704622,0.99977285
C1I310,西巒,2017-12-27,23.754486,120.883956,4.639144e-09
C0A550,泰平,2017-12-27,24.971197,121.823711,5.2215068e-08
C0I360,水里,2017-12-27,23.812553,120.849792,8.9085916e-10
C0R830,高士,2017-12-27,22.121825,120.836781,0.9999796
C1I101,溪頭,2017-12-27,23.661789,120.807647,1.0639522e-08
C0AJ20,野柳,2017-12-27,25.20703,121.690021,0.004972632
C0B060,暖暖,2017-12-27,25.0957,121.7403,0.00023920562
C1H920,長豐,2017-12-27,24.102039,120.879897,3.0570195e-09
C0V360,內門,2017-12-27,22.975481,120.466769,4.3366935e-10
C0R850,林邊,2017-12-27,22.4634,120.5339,8.18767e-10
C0E930,龍鳳,2017-12-27,24.700034,120.859125,0.9998991
C0U910,冬山,2017-12-27,24.63373,121.7937,7.99267e-09
C1E721,泰安,2017-12-27,24.489017,120.968036,4.616204e-09
82H320,茶改中部分場,2017-12-27,23.875611,120.913583,6.3564216e-09
C0M750,布袋,2017-12-27,23.380878,120.167789,4.085673e-05
C1S860,利嘉,2017-12-27,22.809417,121.050528,5.7902487e-09
72C440,桃園農改,2017-12-27,24.950944,121.030583,0.9909302
E2S980,林試太麻里1,2017-12-27,22.598922,120.980044,2.6486944e-07
C0X170,關廟,2017-12-27,22.963017,120.327797,4.728262e-09
C0V720,林園,2017-12-27,22.507747,120.394511,5.411309e-09
C1I510,線浸林道,2017-12-27,23.761508,120.832956,8.756308e-09
C0D690,外湖,2017-12-27,24.917735,120.968711,0.99933094
C0C750,新興坑尾,2017-12-27,25.0061,121.0971,0.9999835
B2Q810,畜試南區分所,2017-12-27,21.945583,120.802167,0.9997952
C0S790,金崙,2017-12-27,22.538122,120.966875,1.1839356e-05
C0AH90,福山植物園,2017-12-27,24.760717,121.58135,5.1847675e-08
C0I540,奇萊稜線,2017-12-27,24.109231,121.326456,3.5006895e-08
C0M850,表湖,2017-12-27,23.24186,120.64166,6.2124803e-09
C0S770,大溪山,2017-12-27,22.478475,120.943325,6.387268e-05
C0AG80,中和,2017-12-27,24.991622,121.491792,0.011105217
C0T790,大禹嶺,2017-12-27,24.186117,121.316086,1.9481226e-08
C0T9B0,水源,2017-12-27,23.991861,121.537169,1.3202767e-08
C0R840,牡丹池山,2017-12-27,22.168389,120.841225,0.9998204
C1I131,桶頭,2017-12-27,23.641944,120.654117,1.1391851e-09
CAL110,布袋國中,2017-12-27,23.35893,120.18026,4.085065e-05
467571,新竹,2017-12-27,24.827853,121.014219,0.06854493
C0Z290,赤柯山,2017-12-27,23.36893,121.38293,1.8227274e-08
C0X280,將軍,2017-12-27,23.214999,120.13577,0.72817767
C0S690,太麻里,2017-12-27,22.60902,120.98533,2.1145821e-08
C0U880,北關,2017-12-27,24.9072,121.8734,4.510089e-08
C1H860,瑞岩,2017-12-27,24.123772,121.18345,6.2376517e-09
C0G810,埔心,2017-12-27,23.947633,120.525456,2.0679515e-08
C0U970,大福,2017-12-27,24.80064,121.81389,8.7972545e-09
C2H9N0,仁愛東眼,2017-12-27,24.026875,121.1205,4.4897623e-09
C1E670,南礦,2017-12-27,24.538278,121.002836,7.2962965e-09
C0M520,東後寮,2017-12-27,23.369908,120.248065,2.9527146e-05
C1E461,松安,2017-12-27,24.397972,120.986022,3.1355671e-09
72G600,臺中農改,2017-12-27,24.003028,120.534389,1.873727e-08
C2N160,西拉雅風管處,2017-12-27,23.189481,120.335297,5.600702e-09
C2M970,碧湖,2017-12-27,23.568632,120.624165,7.2512902e-09
C0A640,石碇,2017-12-27,24.993969,121.662917,8.948984e-07
E2S960,林試太麻里2,2017-12-27,22.598,120.99775,3.9067137e-07
C0F9Y0,桃山,2017-12-27,24.432739,121.303808,1.9544832e-08
C1I020,萬大,2017-12-27,23.979817,121.132261,2.9484875e-09
C0U940,羅東,2017-12-27,24.68184,121.74934,2.5270697e-09
C0M650,朴子,2017-12-27,23.43463,120.23902,8.6327384e-07
C1I500,大尖山,2017-12-27,23.858572,120.994889,9.839687e-09
C0G820,田尾,2017-12-27,23.901669,120.509389,2.0679515e-08
E2K600,四湖植物園,2017-12-27,23.676986,120.163433,0.9944814
C0S730,綠島,2017-12-27,22.6672,121.47533,0.9979732
12Q970,東港工作站,2017-12-27,22.479997,120.466058,8.2678614e-10
C0E430,南庄,2017-12-27,24.601775,121.000214,5.1493942e-09
C1TA00,太魯閣,2017-12-27,24.15773,121.6236,1.3250785e-06
466920,臺北,2017-12-27,25.037658,121.514853,0.014103261
C0R600,舊泰武,2017-12-27,22.588194,120.664944,2.8477276e-09
C1I260,北坑,2017-12-27,23.9246,121.006903,2.7563456e-09
466910,鞍部,2017-12-27,25.182586,121.529731,3.9278282e-07
C1I230,九份二山,2017-12-27,23.961944,120.845,2.758465e-09
C2A660,瑞芳,2017-12-27,25.113169,121.801147,0.9157332
C0R270,琉球嶼,2017-12-27,22.332244,120.362236,2.4622723e-08
C1T990,高寮,2017-12-27,23.394239,121.356808,3.929493e-09
C0G620,芬園,2017-12-27,24.015678,120.6213,7.7316265e-10
C1Z140,荖溪,2017-12-27,23.890575,121.45964,1.9436984e-08
C1I201,中心崙,2017-12-27,23.728722,120.712097,2.104779e-09
C1I400,凌霄,2017-12-27,24.018778,121.004456,4.3289194e-09
C1M640,十字,2017-12-27,23.492153,120.753683,4.636915e-09
G2P820,農試鳳山分所,2017-12-27,22.646611,120.356083,2.729144e-08
C0Z270,蕃薯寮,2017-12-27,23.73835,121.540108,5.6162563e-09
C0F9Q0,外埔,2017-12-27,24.347817,120.705686,2.7308467e-08
C0K580,高鐵雲林,2017-12-27,23.737456,120.417944,4.882786e-08
C2I090,鳳凰,2017-12-27,23.728081,120.787347,5.5090252e-09
C0U990,員山,2017-12-27,24.74435,121.72247,2.494472e-09
C0V770,大社,2017-12-27,22.730306,120.346639,5.5220597e-09
C0X120,麻豆,2017-12-27,23.183289,120.248611,4.401598e-08
C0C670,龍潭,2017-12-27,24.870056,121.221389,4.4991342e-08
C0D680,香山濕地,2017-12-27,24.783581,120.914988,0.76117384
C0S980,勝林山,2017-12-27,22.430439,120.8938,8.085407e-08
C0V730,大寮,2017-12-27,22.605614,120.395717,4.661914e-09
C0R570,麟洛,2017-12-27,22.65078,120.52719,2.942549e-09
C2M930,石卓,2017-12-27,23.478744,120.702264,6.432024e-09
C0G9B0,和美,2017-12-27,24.105169,120.492131,0.1371236
CAG100,王功漁港,2017-12-27,23.96824,120.32586,0.84121907
C0X290,北門,2017-12-27,23.267772,120.125481,0.72817767
C2F930,大甲,2017-12-27,24.347667,120.640403,0.037751213
C0D650,湖口,2017-12-27,24.904794,121.043628,0.9426599
C0E420,竹南,2017-12-27,24.708978,120.888897,0.9998199
C0U780,五結,2017-12-27,24.68637,121.79794,2.4595628e-09
C1I250,鯉潭,2017-12-27,23.961922,120.991131,2.349184e-09
C0R130,阿禮,2017-12-27,22.742908,120.743678,4.1328825e-09
C0X100,臺南市北區,2017-12-27,23.010394,120.194228,5.388755e-07
C0S920,金峰嘉蘭,2017-12-27,22.594789,120.960825,2.3652048e-07
C0V490,新興,2017-12-27,22.627422,120.298803,4.9339466e-09
C0F9K0,大安,2017-12-27,24.345061,120.588025,0.09967371
72N100,臺南農改,2017-12-27,23.0605,120.342194,4.0896286e-09
467290,古坑,2017-12-27,23.633639,120.551889,9.683733e-10
C2E970,八甲,2017-12-27,24.535811,120.795983,5.2668383e-07
C0V440,鳳山,2017-12-27,22.646653,120.356122,2.729144e-08
C1T940,大觀,2017-12-27,23.714206,121.373133,6.543689e-09
72T250,花蓮農改,2017-12-27,23.975222,121.563889,2.2715295e-08
C0E740,造橋,2017-12-27,24.637056,120.864778,0.5610136
C0R100,尾寮山,2017-12-27,22.833111,120.683889,6.154618e-09
A2K630,臺大雲林校區,2017-12-27,23.730628,120.423903,4.882786e-08
C0D580,寶山,2017-12-27,24.735006,121.025192,4.53988e-09
E2P990,林試扇平站,2017-12-27,22.9677,120.6857,6.2953216e-09
C0AI30,三重,2017-12-27,25.057328,121.500629,0.018005233
C0AH00,汐止,2017-12-27,25.066881,121.658778,0.014103261
C1Z040,立山,2017-12-27,23.443356,121.327375,1.4115039e-08
C0W130,花嶼,2017-12-27,23.40007,119.32276,0.9808762
C0A950,鼻頭角,2017-12-27,25.129036,121.923372,0.99999964
C0K470,林內,2017-12-27,23.748675,120.609642,8.932395e-10
C2F990,摩天嶺,2017-12-27,24.322458,120.936819,2.5296978e-09
82C160,茶改場,2017-12-27,24.908472,121.185333,2.7068143e-07
C0Z320,清水林道,2017-12-27,23.27125,121.188272,1.6248077e-08
C0R760,南仁湖,2017-12-27,22.084681,120.863353,0.99998474
C0M670,大林,2017-12-27,23.600616,120.45841,3.970546e-09
C0M800,茶山,2017-12-27,23.299075,120.664767,2.8645992e-09
C0A9C0,天母,2017-12-27,25.117494,121.537169,0.0015147814
72K220,南改斗南分場,2017-12-27,23.634556,120.477333,1.937176e-09
72AI40,桃改樹林分場,2017-12-27,24.944503,121.386972,7.731492e-07
C0S910,蘭嶼燈塔,2017-12-27,22.081197,121.503117,0.9998571
C0B050,八斗子,2017-12-27,25.144754,121.79167,0.99856037
C0U900,內城,2017-12-27,24.71813,121.68766,2.6334213e-09
C0X320,柳營,2017-12-27,23.253328,120.375253,1.5883735e-09
C0M790,新港,2017-12-27,23.553269,120.345728,2.437933e-07
C0F9T0,西屯,2017-12-27,24.179494,120.641275,2.0631687e-08
C0SA30,都歷,2017-12-27,23.020333,121.323642,8.005915e-06
C0C620,蘆竹,2017-12-27,25.084275,121.265767,0.9999818
C0R730,大坪頂,2017-12-27,22.024633,120.69355,0.9994894
C0AJ40,石門,2017-12-27,25.273672,121.601198,0.99890983
C0E750,苗栗,2017-12-27,24.564569,120.824575,3.277242e-05
C0T870,鯉魚潭,2017-12-27,23.935639,121.508944,1.6397266e-08
C1V170,排雲,2017-12-27,23.463619,120.954147,2.7762542e-08
C2H950,中寮,2017-12-27,23.884447,120.766406,6.2570715e-10
C0R350,貓鼻頭,2017-12-27,21.921774,120.7358,0.8776018
C0V660,岡山,2017-12-27,22.797078,120.294958,4.0186773e-08
C1H941,雙冬,2017-12-27,23.967378,120.802189,2.8199187e-09
C0AJ70,田寮,2017-12-27,25.2698,121.4886,0.9999609
C0AI00,五股,2017-12-27,25.07445,121.42728,0.9896447
C0Z280,德武,2017-12-27,23.47426,121.41071,5.4980034e-09
C0R700,枋山,2017-12-27,22.246844,120.661086,0.9999446
C0C460,復興,2017-12-27,24.820208,121.352281,1.5535971e-07
E2H360,蓮華池,2017-12-27,23.918333,120.885278,3.1054626e-09
C0M640,中埔,2017-12-27,23.42538,120.5229,9.781319e-10
C0W140,金沙,2017-12-27,24.488292,118.408778,0.58344454
C2A540,四堵,2017-12-27,24.8926,121.745736,3.1829366e-08
C0ACA0,新莊,2017-12-27,25.051478,121.446756,0.9691195
C0R220,潮州,2017-12-27,22.534361,120.54,1.0100131e-09
U2HA40,臺大內茅埔,2017-12-27,23.689722,120.851117,4.6725877e-09
467490,臺中,2017-12-27,24.145736,120.684075,1.3368662e-09
C0U960,翠峰湖,2017-12-27,24.510856,121.608044,4.446065e-08
E2HA20,林試畢祿溪站,2017-12-27,24.226944,121.308522,1.2892227e-08
C0V890,前鎮,2017-12-27,22.5718,120.3117,5.150563e-09
467620,蘭嶼,2017-12-27,22.036969,121.558339,0.99979264
C1F941,雪嶺,2017-12-27,24.280586,121.026642,1.1613549e-08
C2H9E0,國姓南港,2017-12-27,23.911108,120.846556,4.49115e-09
C0AC80,文山,2017-12-27,25.00235,121.575728,0.0048671477
C0F9R0,龍井,2017-12-27,24.184536,120.528972,0.03980939
C0M760,民雄,2017-12-27,23.551754,120.428457,4.2945514e-09
C0UA40,西德山,2017-12-27,24.560647,121.752608,3.271714e-08
C1T920,中興,2017-12-27,23.769503,121.498653,1.6706169e-08
C0D550,雪霸,2017-12-27,24.526972,121.11605,5.558156e-09
C2F860,梨山,2017-12-27,24.247522,121.243669,1.3410654e-08
C0R320,車城,2017-12-27,22.0744,120.716247,0.99810314
C1S870,南美山,2017-12-27,23.15025,121.382333,1.1894945e-08
C0B020,基隆嶼,2017-12-27,25.19141,121.78391,0.9999997
C1U501,牛鬥,2017-12-27,24.637836,121.573656,7.115854e-09
C0M730,嘉義市東區,2017-12-27,23.457673,120.460531,1.0312076e-09
C0S700,知本,2017-12-27,22.684866,121.005642,8.669873e-09
C1N001,沙崙,2017-12-27,22.935472,120.309406,5.05797e-09
C0V760,橋頭,2017-12-27,22.757806,120.30575,5.7143916e-09
C0G960,福寶,2017-12-27,24.0443,120.3814,0.15803865
C0X210,白河,2017-12-27,23.347466,120.414427,1.0284498e-09
C0S810,東河,2017-12-27,22.972672,121.303986,0.9999328
C2R170,屏東,2017-12-27,22.66027,120.49403,2.9375022e-09
C0R670,楓港,2017-12-27,22.190131,120.692156,0.99961317
C0FA50,霧峰,2017-12-27,24.0419,120.6995,7.839837e-10
C0UB10,蘇澳,2017-12-27,24.5969,121.8571,1.0299245e-08
C0G950,防潮門,2017-12-27,24.1835,120.4871,0.03967493
C0M740,六腳,2017-12-27,23.492871,120.290625,3.7835025e-07
C1R250,力里,2017-12-27,22.428117,120.629228,1.3388872e-09
C0K330,虎尾,2017-12-27,23.719183,120.442036,4.582091e-08
C2FA00,烏石坑,2017-12-27,24.273503,120.947617,2.4678193e-09
C0V620,永安,2017-12-27,22.82315,120.236856,4.0186773e-08
C1I330,楓樹林,2017-12-27,23.986803,121.076117,3.47932e-09
C0W200,湖西,2017-12-27,23.596314,119.67275,0.98998785
72Q010,高雄農改場,2017-12-27,22.709333,120.525889,1.065983e-09
C0SA40,瑞和,2017-12-27,22.974361,121.156697,5.3971595e-05
C0C680,龜山,2017-12-27,25.02846,121.38656,0.9744007
C2V260,月眉,2017-12-27,22.971003,120.539853,7.74172e-10
C0V450,鳳森,2017-12-27,22.545064,120.392592,4.0234074e-09
C0U720,南山,2017-12-27,24.43742,121.38167,1.139342e-08
A2N290,臺南蘭花園區,2017-12-27,23.340258,120.379661,1.3496386e-08
C0R560,新園,2017-12-27,22.5434,120.461558,5.411309e-09
C0U890,三星,2017-12-27,24.66812,121.65302,5.8942904e-09
C1V300,御油山,2017-12-27,23.001983,120.715364,1.0509713e-08
C0U600,礁溪,2017-12-27,24.817539,121.765608,3.248384e-08
C1T980,龍澗,2017-12-27,24.023289,121.411328,3.0019443e-08
C0D670,海天一線,2017-12-27,24.831986,120.914438,0.9999943
C0SA00,歷坵,2017-12-27,22.520969,120.89185,3.1091452e-07
C0M710,東石,2017-12-27,23.458927,120.15385,0.33651182
C0M780,鹿草,2017-12-27,23.41134,120.30835,8.086292e-07
C0U520,雙連埤,2017-12-27,24.753033,121.641303,1.3442333e-08
C0B010,七堵,2017-12-27,25.094819,121.71713,0.0010509053
C0R480,長治,2017-12-27,22.693128,120.542622,7.771679e-10
C1V830,國三S383K,2017-12-27,22.781967,120.426475,5.485128e-10
12Q980,恆春工作站,2017-12-27,22.079678,120.714425,0.99810314
C1O940,東山服務區,2017-12-27,23.286016,120.398472,9.370752e-10
C1U840,東澳嶺,2017-12-27,24.5378,121.8485,1.9727036e-08
C1D630,飛鳳山,2017-12-27,24.766464,121.119178,1.1313514e-08
C0S940,石寧山,2017-12-27,23.223772,121.406639,6.0691816e-09
C0K410,北港,2017-12-27,23.573957,120.292802,0.00019610449
C2M620,瑞里,2017-12-27,23.545133,120.675197,8.9163485e-09
C0SB70,小港漁港,2017-12-27,23.158558,121.400431,1.0329505e-07
C2O950,安南,2017-12-27,23.076694,120.144861,0.2583183
C0F0E0,南湖圈谷,2017-12-27,24.363714,121.444667,4.123774e-08
467610,成功,2017-12-27,23.097486,121.373428,1.3595904e-07
C0G890,伸港,2017-12-27,24.148933,120.484403,0.03307181
C2E540,龍溪,2017-12-27,24.606489,120.783933,0.6068601
C1V200,梅山,2017-12-27,23.268447,120.823556,6.5607857e-09
C0T9H0,加路蘭山,2017-12-27,23.682947,121.5274,7.799215e-09
C2O930,玉井,2017-12-27,23.126042,120.46055,1.4361725e-09
C1F911,新伯公,2017-12-27,24.221361,120.841069,1.1312538e-09
C0R490,九如,2017-12-27,22.7405,120.490503,1.0542937e-09
C0X200,左鎮,2017-12-27,23.056758,120.408522,3.319965e-09
C0SB50,叭嗡嗡,2017-12-27,23.047062,121.343223,0.0001316776
C1F891,稍來,2017-12-27,24.265689,121.001142,7.58566e-09
72N240,七股研究中心,2017-12-27,23.081672,120.062894,0.31113654
C0C700,中壢,2017-12-27,24.977661,121.256375,0.00077172514
C0M690,水上,2017-12-27,23.419734,120.388909,1.648853e-08
C0V690,鼓山,2017-12-27,22.623325,120.275575,4.923859e-09
C0O860,大內,2017-12-27,23.11885,120.36083,4.2615946e-09
C0Z200,萬榮,2017-12-27,23.709219,121.420106,4.839189e-09
C0T9D0,和中,2017-12-27,24.26676,121.74103,6.720538e-08
C1O921,楠西,2017-12-27,23.183511,120.484083,5.105169e-10
C0AJ30,淡水觀海,2017-12-27,25.184591,121.408616,0.66575444
C0V810,左營,2017-12-27,22.67491,120.28491,3.4430524e-08
C0UA70,桃源谷,2017-12-27,24.962606,121.888875,4.9254957e-08
C0X130,官田,2017-12-27,23.193217,120.315422,6.083982e-09
C1H000,翠峰,2017-12-27,24.109397,121.205211,1.7162437e-08
C0UA90,石城,2017-12-27,24.980444,121.951214,4.1197808e-07
C1E681,南勢山,2017-12-27,24.421669,120.923831,4.421015e-09
C0A9F0,內湖,2017-12-27,25.079422,121.57545,0.014103261
C0K291,宜梧,2017-12-27,23.536281,120.169329,0.010879701
C1K540,口湖,2017-12-27,23.585344,120.180517,0.95547456
C0R780,滿州,2017-12-27,22.024403,120.839892,0.999146
C0V870,文安,2017-12-27,22.8025,120.2164,4.3475886e-08
C0U650,玉蘭,2017-12-27,24.675286,121.587061,1.1018791e-08
C0R640,東港,2017-12-27,22.46247,120.44074,8.2678614e-10
K2E360,苗栗農改,2017-12-27,24.495722,120.829111,4.4868024e-08
C0AJ80,板橋,2017-12-27,25.0107,121.4489,0.01285114
C0S660,下馬,2017-12-27,23.150427,121.070312,1.0943432e-08
C1H9B1,阿眉,2017-12-27,24.1263,120.994672,5.0361084e-09
C0UA20,多加屯,2017-12-27,24.368614,121.373189,2.2019274e-08
C0E730,頭份,2017-12-27,24.688247,120.912206,0.9998601
72V140,高改旗南分場,2017-12-27,22.857861,120.516667,5.3361476e-10
C0K480,莿桐,2017-12-27,23.761192,120.502372,2.696015e-09
C0U980,坪林石牌,2017-12-27,24.86478,121.77396,2.1941295e-08
C0T900,西林,2017-12-27,23.8119,121.441458,1.4222923e-08
C1I150,青雲,2017-12-27,23.793361,120.949378,2.9564897e-09
467350,澎湖,2017-12-27,23.565503,119.563094,0.99141175
C0G800,埔鹽,2017-12-27,24.000394,120.431683,0.008866883
C0H960,草屯,2017-12-27,23.973672,120.68085,7.783903e-10
C1V780,多納林道,2017-12-27,22.888028,120.737917,5.042529e-09
C0E920,通霄漁港,2017-12-27,24.498589,120.673876,0.99986595
C0Z330,安通山,2017-12-27,23.290728,121.348528,6.5847807e-09
C0AH10,永和,2017-12-27,25.01125,121.508111,0.012005394
C0AK10,太平里,2017-12-27,25.134937,121.364899,0.9993159
C2G640,鹿港,2017-12-27,24.0753,120.430481,0.15803865
C1E890,國三N149K,2017-12-27,24.463414,120.680019,0.28053132
C1R110,口社,2017-12-27,22.770111,120.645222,1.303653e-09
C1M870,國三N285K,2017-12-27,23.550319,120.505833,1.0747966e-09
467050,新屋,2017-12-27,25.006744,121.047486,0.9999898
C1E480,鳳美,2017-12-27,24.554803,121.034747,6.6519754e-09
C0M530,奮起湖,2017-12-27,23.493903,120.699253,9.824253e-09
C0C590,觀音,2017-12-27,25.027072,121.153317,0.99999857
C0T9M0,靜浦,2017-12-27,23.455167,121.495028,5.5350933e-09
C2H9M0,發祥,2017-12-27,24.154094,121.164517,2.6634368e-09
C0AI40,石牌,2017-12-27,25.115597,121.513139,0.0021278723
C1F871,上谷關,2017-12-27,24.203483,121.018644,3.3851095e-09
C2H9G0,百勝,2017-12-27,24.051142,120.909361,1.8240619e-09
C0G880,二水,2017-12-27,23.810742,120.6173,8.0947504e-10
C0R940,加祿堂,2017-12-27,22.3363,120.6217,0.99998206
C0W220,北竿,2017-12-27,26.220358,119.974881,0.044982
C0O960,崎頂,2017-12-27,22.959547,120.369317,3.5453525e-09
C0S750,向陽,2017-12-27,23.248397,120.986133,8.419622e-09
C0T9F0,水璉,2017-12-27,23.797131,121.542514,1.2861085e-08
C1M600,頭凍,2017-12-27,23.406364,120.603339,6.79873e-09
467660,臺東,2017-12-27,22.752211,121.154586,0.9999457
C1D380,新埔,2017-12-27,24.84745,121.03834,0.00015594713
C2G980,田頭村,2017-12-27,23.8263,120.444175,3.0743234e-08
C0V750,路竹,2017-12-27,22.854997,120.259439,1.2821144e-07
C0N050,蚵寮,2017-12-27,23.301,120.1104,0.007799683
72M700,南改鹿草分場,2017-12-27,23.416869,120.283061,8.6327384e-07
C1SA50,利嘉林道,2017-12-27,22.82325,121.009389,1.9464956e-08
467550,玉山,2017-12-27,23.487614,120.959522,2.9388936e-08
C0A940,金山,2017-12-27,25.223628,121.643967,0.0031047228
C1V340,大津,2017-12-27,22.888322,120.645986,1.7450428e-09
C0W180,七美,2017-12-27,23.219333,119.444892,0.9974849
C1F9C1,白冷,2017-12-27,24.182844,120.929889,1.7187127e-09
K2E710,苗改生物防治研究中心,2017-12-27,24.422861,120.871833,2.6962823e-09
C0N040,蘆竹溝,2017-12-27,23.2344,120.0961,0.72817767
C2W230,畜試所澎湖,2017-12-27,23.628342,119.513206,0.9861533
C0R880,後壁湖,2017-12-27,21.9457,120.7457,0.92943287
C1I280,埔中,2017-12-27,23.820778,120.642594,1.2242063e-09
467790,墾丁雷達站,2017-12-27,21.948235,120.808028,0.9997654
C0W190,望安,2017-12-27,23.380564,119.494075,0.99568945
466881,新北,2017-12-27,24.9593,121.52,0.00868322
C0Z170,卓溪,2017-12-27,23.3443,121.3029,4.1704484e-09
C0F850,東勢,2017-12-27,24.246428,120.833047,2.3311026e-09
466900,淡水,2017-12-27,25.164889,121.448906,0.9993159
C0I370,魚池,2017-12-27,23.895703,120.94135,3.1879352e-09
C0C630,大溪,2017-12-27,24.882853,121.265547,4.9833467e-08
C0A520,山佳,2017-12-27,24.974944,121.402008,0.7161221
C0I110,竹山,2017-12-27,23.761225,120.688156,8.410757e-10
82H840,茶改南部分場,2017-12-27,23.762528,120.7405,1.1506848e-09
C0G660,溪湖,2017-12-27,23.94835,120.479122,2.2319831e-08
C1T800,洛韶,2017-12-27,24.204558,121.453956,1.644478e-08
C1T810,慈恩,2017-12-27,24.192044,121.388386,1.0014504e-08
C1E451,象鼻,2017-12-27,24.368617,120.940228,4.053548e-09
C0AC60,三峽,2017-12-27,24.939025,121.369728,6.720672e-07
C0I490,萬大林道,2017-12-27,23.928228,121.091411,6.680724e-09
C1I290,豐丘,2017-12-27,23.668178,120.887417,8.630441e-09
C1I320,奧萬大,2017-12-27,23.952956,121.178556,4.17857e-09
C2M910,嘉義大學,2017-12-27,23.471325,120.485903,9.842216e-10
C0U770,南澳,2017-12-27,24.44935,121.81022,1.20015535e-08
C0A980,社子,2017-12-27,25.109508,121.469681,0.9995557
C0V800,六龜,2017-12-27,22.997889,120.633583,1.6851163e-09
C1G9D0,國一S218K,2017-12-27,23.890641,120.493253,2.5004178e-08
C0E570,白沙屯,2017-12-27,24.549447,120.696803,0.9998707
C2F9A0,中竹林,2017-12-27,24.103556,120.751061,1.2634739e-09
C0FA40,臺中電廠,2017-12-27,24.2146,120.4907,0.03980939
C2G9A0,畜試所彰化,2017-12-27,23.86045,120.557964,3.2657392e-09
C0H9C0,合歡山,2017-12-27,24.143442,121.272547,3.122147e-08
C0X060,下營,2017-12-27,23.22695,120.256261,7.861167e-08
G2M350,農試溪口農場,2017-12-27,23.58565,120.408111,4.429988e-09
C0U860,頭城,2017-12-27,24.85323,121.8308,3.367152e-08
C0R580,南州,2017-12-27,22.48591,120.50274,8.2678614e-10
C0D430,峨眉,2017-12-27,24.6905,121.017189,4.6006699e-07
C0G780,秀水,2017-12-27,24.03405,120.503869,1.8731624e-08
72N100,臺南農改場,2017-12-27,23.0605,120.342194,4.0896286e-09
C0S900,蘭嶼高中,2017-12-27,22.04909,121.51214,0.9998742
467540,大武,2017-12-27,22.355675,120.903789,0.99998033
C1F9W0,德基,2017-12-27,24.254783,121.190261,5.583061e-09
C1Z120,壽豐,2017-12-27,23.870853,121.508081,4.5003787e-08
C0W160,烏坵,2017-12-27,24.9944,119.44956,0.99453557
C1I240,外大坪,2017-12-27,23.958697,120.917931,2.4082212e-09
C1I550,國六W023K,2017-12-27,23.979067,120.867742,1.2010501e-09
C0R870,興海,2017-12-27,21.9752,120.8439,0.9997952
C0R140,瑪家,2017-12-27,22.682903,120.686639,2.4573028e-09
C0A530,坪林,2017-12-27,24.938183,121.70975,3.3340925e-08
C0X260,後壁,2017-12-27,23.366358,120.362326,1.3496386e-08
C0Z230,和平,2017-12-27,24.30717,121.77007,7.202319e-08
C0G770,福興,2017-12-27,24.041289,120.437669,0.008866883
C0H9A0,神木村,2017-12-27,23.532742,120.843667,4.80679e-09
C0I460,南投,2017-12-27,23.911469,120.687331,4.360257e-10
C0I480,梅峰,2017-12-27,24.085272,121.173572,8.4825835e-09
C1V570,吉東,2017-12-27,22.85422,120.5454,5.4991545e-10
C2D740,屯原,2017-12-27,24.067969,121.209389,7.27931e-09
C2A560,福山,2017-12-27,24.776203,121.502811,5.287613e-08
C0AH30,五分山,2017-12-27,25.07125,121.780794,1.3320607e-07
C0FA10,松柏,2017-12-27,24.429115,120.617482,0.57196075
72S200,東改班鳩分場,2017-12-27,22.829528,121.077694,0.9998218
72HA00,中改埔里分場,2017-12-27,23.903208,120.963364,2.946576e-09
C2H9W0,大坪頂農水,2017-12-27,24.043122,120.932781,3.1036802e-09
C0C650,平鎮,2017-12-27,24.897503,121.214636,2.6486842e-07
C0S930,延平,2017-12-27,22.902581,121.084058,0.62342054
C0UA60,樟樹山,2017-12-27,24.41393,121.78325,1.2572794e-08
C1S670,摩天,2017-12-27,23.199503,121.027,2.3557316e-08
C0V630,茄萣,2017-12-27,22.906642,120.182608,1.5389526e-07
466940,基隆,2017-12-27,25.133314,121.740475,0.99806696
C0X050,東河,2017-12-27,23.296598,120.385608,9.779473e-10
C0R770,保力,2017-12-27,22.071122,120.764111,0.9890441
G2L020,農試嘉義分所,2017-12-27,23.485028,120.473806,9.515815e-10
C0X240,關子嶺,2017-12-27,23.331169,120.508025,7.5582735e-10
C0I380,集集,2017-12-27,23.828206,120.801467,8.783367e-10
466990,花蓮,2017-12-27,23.975128,121.613275,2.4396696e-08
C1V220,小關山,2017-12-27,23.154217,120.813603,7.875451e-09
C1F9G1,慶福山,2017-12-27,24.180853,120.848378,2.971114e-09
C0Z250,瑞穗林道,2017-12-27,23.49284,121.30688,2.1985155e-08
C0D590,新豐,2017-12-27,24.87068,120.97721,0.9999954
C0A870,五指山,2017-12-27,25.132153,121.608692,1.0443595e-07
C0UA50,西帽山,2017-12-27,24.555361,121.802628,2.674796e-08
C0X160,仁德,2017-12-27,22.968258,120.257689,2.5991158e-08
C1H971,六分寮,2017-12-27,23.92507,120.6378,7.502688e-10
C0W120,西嶼,2017-12-27,23.5626,119.468436,0.9876802
C0G650,員林,2017-12-27,23.946503,120.585597,1.4997342e-09
C0AD50,鶯歌,2017-12-27,24.951533,121.346294,5.6281135e-07
C2H9Q0,北東眼山,2017-12-27,24.120939,121.189303,8.305103e-09
C2H9T0,名間竹圍,2017-12-27,23.859914,120.637572,9.1386587e-10
C0S990,山豬窟,2017-12-27,22.318619,120.857372,0.8689018
72Q010,高雄農改,2017-12-27,22.709333,120.525889,1.065983e-09
C0X190,安平,2017-12-27,22.993161,120.152181,5.388755e-07
C0K400,斗六,2017-12-27,23.720583,120.541127,1.7625341e-09
12J990,口湖工作站,2017-12-27,23.589978,120.180394,0.9562381
C0O830,北寮,2017-12-27,23.079561,120.495008,3.9223774e-10
C1D410,白蘭,2017-12-27,24.579364,121.079947,8.05777e-09
C0S970,加津林,2017-12-27,22.416211,120.926942,0.9999761
C0D700,關西,2017-12-27,24.7977,121.1732,1.1369888e-08
C0M810,里佳,2017-12-27,23.389125,120.716647,9.144923e-09
C0U750,龜山島,2017-12-27,24.841667,121.953133,0.9999977
C0R810,內獅,2017-12-27,22.305064,120.642986,0.9999817
C1M390,龍美,2017-12-27,23.406728,120.654417,7.608178e-09
C2FB60,頭櫃山,2017-12-27,24.129842,120.858925,3.1353458e-09
C1H840,國三N238K,2017-12-27,23.841008,120.707711,8.199438e-10
CAQ030,崎峰國小,2017-12-27,22.42565,120.49521,8.267846e-10
C2E520,大湖,2017-12-27,24.414939,120.870872,2.7378912e-09
467530,阿里山,2017-12-27,23.508208,120.813242,1.5586838e-08
C1E691,南湖,2017-12-27,24.40135,120.837533,3.2718306e-09
C0FA30,梧棲,2017-12-27,24.256003,120.523381,0.057637077
C1V231,高中,2017-12-27,23.134911,120.716711,5.7798104e-09
C0F9V0,新社,2017-12-27,24.200172,120.815806,1.4300305e-09
C0H890,埔里,2017-12-27,23.972169,120.952425,1.3854542e-09
C0R690,墾丁,2017-12-27,21.966756,120.810269,0.999627
C0F0D0,審馬陣,2017-12-27,24.381675,121.4203,3.3210434e-08
C0R820,白鷺,2017-12-27,22.454275,120.666219,4.5288617e-09
U2H480,臺大溪頭,2017-12-27,23.670306,120.798194,8.230058e-09
C1V190,南天池,2017-12-27,23.27403,120.91176,8.710814e-09
K2E360,苗栗農改場,2017-12-27,24.495722,120.829111,4.4868024e-08
CAJ050,海口故事園區,2017-12-27,23.57543,120.14121,0.9562381
C2H9D0,三隻寮,2017-12-27,24.093078,120.861578,3.1741503e-09
C0O990,媽廟,2017-12-27,22.99175,120.293525,6.573838e-09
C0D480,打鐵坑,2017-12-27,24.849664,121.150789,4.480252e-08
C0Z220,和平林道,2017-12-27,24.343922,121.656317,8.57109e-09
C0TA10,花蓮漁港,2017-12-27,23.995322,121.638331,2.595034e-08
72C440,桃園農改場,2017-12-27,24.950944,121.030583,0.9909302
C1E711,馬拉邦山,2017-12-27,24.367306,120.901656,4.255486e-09
C0SB20,富岡,2017-12-27,22.792467,121.192669,0.9999373
C0D560,竹東,2017-12-27,24.767147,121.057881,1.20645085e-08
C0F9U0,南屯,2017-12-27,24.137006,120.637969,2.5150925e-08
C0M720,番路,2017-12-27,23.464657,120.554156,9.495962e-10
C0F0A0,雪山圈谷,2017-12-27,24.388594,121.236339,5.080588e-08
C1A9N0,四十份,2017-12-27,24.934158,121.593283,6.144575e-07
C0U760,東澳,2017-12-27,24.52196,121.83318,1.26349615e-08
C0X230,鹽水,2017-12-27,23.272621,120.247641,0.007169228
C2H9H0,苗改南投蜂場,2017-12-27,23.852589,120.693481,5.979828e-10
C0R950,萬隆國小,2017-12-27,22.507667,120.587817,1.0046775e-09
C0V370,古亭坑,2017-12-27,22.893178,120.401947,8.147664e-10
C1I340,新興橋,2017-12-27,23.563333,120.868728,6.565668e-09
C0SA80,土坂,2017-12-27,22.453108,120.887572,0.3138845
C0R160,鹽埔,2017-12-27,22.739558,120.530778,1.065983e-09
C0AC40,大屯山,2017-12-27,25.175675,121.522408,2.9542178e-07
466850,五分山雷達站,2017-12-27,25.071182,121.781205,1.3187986e-07
C2H9L0,馬烈霸,2017-12-27,24.1512,121.201772,8.079099e-09
C1AI50,國三N016K,2017-12-27,25.034164,121.619664,0.010265386
C1V600,藤枝,2017-12-27,23.071961,120.757042,7.084733e-09
C1E601,南勢,2017-12-27,24.572486,120.734842,0.99988157
C0Z180,新城,2017-12-27,24.03946,121.60454,2.4007102e-08
C0O980,新市,2017-12-27,23.061614,120.298197,4.718865e-09
C0K420,西螺,2017-12-27,23.800407,120.467394,2.9454874e-08
C0Z050,佳心,2017-12-27,23.34567,121.21316,1.7393946e-08
C0AD30,蘆洲,2017-12-27,25.086594,121.472331,0.018005233
C0V610,梓官,2017-12-27,22.760558,120.267211,5.7068323e-09
K2F750,種苗改良場,2017-12-27,24.225972,120.800917,1.2914249e-09
C0UA80,大溪漁港,2017-12-27,24.941801,121.902955,4.422974e-08
C1AI60,國一39K邊坡,2017-12-27,25.064361,121.383836,0.98308474
C0W150,金寧,2017-12-27,24.457703,118.328989,0.9996174
C0R960,內埔,2017-12-27,22.608483,120.570714,8.683687e-10
V2C250,八德合作社,2017-12-27,24.93775,121.266389,4.0484088e-07
C2H9S0,龍南,2017-12-27,23.953536,120.833183,4.772468e-09
C0AH40,平等,2017-12-27,25.129142,121.577086,1.5180306e-07
C0R540,佳冬,2017-12-27,22.419456,120.552375,0.00036596454
466950,彭佳嶼,2017-12-27,25.627975,122.079744,0.99999976
C0A890,雙溪,2017-12-27,25.036003,121.864242,0.3227303
C0C480,桃園,2017-12-27,24.992425,121.323172,0.002065198
C0AH50,林口,2017-12-27,25.072181,121.38084,0.96252567
A2K360,水試臺西試驗場,2017-12-27,23.717231,120.190522,0.9892961
B2N890,畜試所,2017-12-27,23.058972,120.336406,4.0882013e-09
C2M960,外寮,2017-12-27,23.562643,120.665688,7.542767e-09
C0F9S0,烏日,2017-12-27,24.107058,120.624103,7.751368e-10
C0C490,八德,2017-12-27,24.928708,121.283289,3.7962357e-07
C0R190,赤山,2017-12-27,22.592333,120.614306,8.7864e-10
C0T820,天祥,2017-12-27,24.179597,121.495639,1.0990917e-08
C1F9E1,龍安,2017-12-27,24.1605,120.831961,1.6987863e-09
C0V820,小林,2017-12-27,23.148408,120.63325,1.1565465e-09
C2G870,芳苑,2017-12-27,23.922303,120.320025,0.81844956
C0E850,大河,2017-12-27,24.618069,120.948578,7.418989e-09
C1U670,寒溪,2017-12-27,24.634,121.71691,8.241855e-09
C0N020,城西,2017-12-27,23.0568,120.0956,5.388755e-07
C1Z110,三棧,2017-12-27,24.11557,121.60501,1.1967517e-08
C0R280,檳榔,2017-12-27,22.076078,120.836777,0.9999729
C2H9J0,中台,2017-12-27,23.9996,120.938739,2.7973444e-09
C0F9L0,后里,2017-12-27,24.310436,120.729725,2.6652103e-09
C0D540,橫山,2017-12-27,24.71116,121.11693,3.891351e-09
C1D420,太閣南,2017-12-27,24.632808,121.160575,1.0707701e-08
C1E770,公館,2017-12-27,24.526914,120.830806,5.8548636e-08
CAN130,水試所海水繁養殖中心,2017-12-27,23.120802,120.07968,0.3111365
C1I430,翠華,2017-12-27,24.191961,121.224339,1.2683011e-08
C1M400,菜瓜坪,2017-12-27,23.251928,120.576103,1.8958273e-09
C0G730,二林,2017-12-27,23.903325,120.376081,6.92046e-05
72M360,南改義竹分場,2017-12-27,23.360694,120.279361,2.9524808e-05
V2K620,麥寮合作社,2017-12-27,23.753836,120.294783,1.10249e-05
C0Z070,舞鶴,2017-12-27,23.46811,121.37407,5.613429e-09
C0B040,大武崙,2017-12-27,25.166676,121.706993,0.9915858
C1Z030,紅葉,2017-12-27,23.493119,121.338806,4.7572453e-09
C1I050,丹大,2017-12-27,23.753747,121.141147,1.2268388e-08
C0I080,信義,2017-12-27,23.689694,120.851036,4.6725877e-09
C2M920,朴子農改,2017-12-27,23.469889,120.259383,8.618392e-07
C2A880,福隆,2017-12-27,25.017842,121.942083,4.457898e-07
C0Z160,鳳林,2017-12-27,23.746114,121.453411,4.7025033e-09
C0V210,復興,2017-12-27,23.222403,120.806089,6.1332437e-09
C0H990,昆陽,2017-12-27,24.121322,121.273642,2.4300887e-08
C0R741,獅子,2017-12-27,22.202308,120.705236,0.99230427
C0S710,鹿野,2017-12-27,22.917711,121.122994,5.3382865e-07
C0I530,小奇萊,2017-12-27,24.131764,121.295717,2.546507e-08
C2K630,荷苞,2017-12-27,23.657717,120.595144,1.005803e-09
C0Z080,富源,2017-12-27,23.587642,121.378225,6.8261725e-09
467441,高雄,2017-12-27,22.7304,120.3125,5.5220597e-09
C0SB10,美和,2017-12-27,22.682078,121.060236,1.3275669e-08
C2K620,馬光農場,2017-12-27,23.721453,120.378864,5.3458407e-08
C1I140,卡奈托灣,2017-12-27,23.754364,121.087872,5.93179e-09
C0I520,玉山風口,2017-12-27,23.470489,120.955994,2.7340937e-08
C1G691,下水埔,2017-12-27,23.816114,120.5676,2.5072269e-09
C0X110,臺南市南區,2017-12-27,22.961189,120.188378,2.5991158e-08
C0V680,仁武,2017-12-27,22.701083,120.347722,3.4430524e-08
C2G840,北斗,2017-12-27,23.877586,120.514222,2.2780593e-08
C0R900,竹坑,2017-12-27,22.1385,120.7022,0.9984895
C0K250,崙背,2017-12-27,23.75555,120.318925,1.10249e-05
C0G860,社頭,2017-12-27,23.897647,120.5862,3.485557e-09
C0X150,安定,2017-12-27,23.102614,120.227839,8.0591256e-08
C0R590,里港,2017-12-27,22.77919,120.49459,5.095217e-10
C0E610,馬都安,2017-12-27,24.451272,120.930192,3.559405e-09
C0E550,明德,2017-12-27,24.583486,120.885411,1.7330405e-05
C0R150,三地門,2017-12-27,22.709889,120.639944,1.2871018e-09
C0G910,花壇,2017-12-27,24.032076,120.549461,1.6581408e-08
C1D400,鳥嘴山,2017-12-27,24.71909,121.28387,2.266146e-08
C0K500,元長,2017-12-27,23.64981,120.315024,5.5210447e-05
C0F0B0,石岡,2017-12-27,24.276061,120.777644,2.7440341e-09
C2V250,甲仙,2017-12-27,23.080106,120.591758,5.235763e-10
C0SA20,金崙山,2017-12-27,22.567419,120.959667,1.6904481e-08
C0V350,溪埔,2017-12-27,22.738578,120.446797,7.3917533e-10
C0M660,溪口,2017-12-27,23.604131,120.403569,4.4451895e-09
C1S880,壽卡,2017-12-27,22.238911,120.858903,0.99389505
72D680,桃改新埔分場,2017-12-27,24.834444,121.066111,0.00028334255
