站號,站名,日期,lat,lon,BLBTSLS
C0R710,龍磐,2017-06-08,21.931672,120.838942,0.0033656338
C1F9D1,白毛台,2017-06-08,24.158325,120.886933,1.4890245e-06
C0G940,竹塘,2017-06-08,23.848253,120.386764,0.13343483
467590,恆春,2017-06-08,22.003897,120.746339,0.012120495
C1O850,環湖,2017-06-08,23.148617,120.418633,0.9768521
C0U710,太平山,2017-06-08,24.505486,121.525656,2.697158e-08
C0E820,獅潭,2017-06-08,24.539133,120.920042,0.004401927
C0V880,興達,2017-06-08,22.8778,120.2127,0.4990084
C0S890,關山,2017-06-08,23.0395,121.175017,0.689519
C0SB30,新蘭,2017-06-08,22.869214,121.223228,0.81297433
C2R970,屏科大,2017-06-08,22.648275,120.619247,0.8200987
K2F750,種苗繁殖,2017-06-08,24.225972,120.800917,0.8557502
C1Z130,銅門,2017-06-08,23.965694,121.492842,0.7551049
C0AD40,土城,2017-06-08,24.973208,121.445169,0.00043928876
CAN140,六官養殖協會,2017-06-08,23.22881,120.29962,0.88092965
C0X180,山上,2017-06-08,23.0757,120.363253,0.94361293
C0F9Z0,雪山東峰,2017-06-08,24.388792,121.268675,3.667166e-08
C1M480,獨立山,2017-06-08,23.537022,120.607797,1.8277397e-05
C0X220,學甲,2017-06-08,23.230367,120.182187,0.9608805
467650,日月潭,2017-06-08,23.881325,120.90805,3.644164e-07
C0K600,箔子寮,2017-06-08,23.6197,120.14,0.9972541
C0G830,埤頭,2017-06-08,23.866003,120.452806,3.6196832e-06
C0S950,七塊厝,2017-06-08,22.954453,121.229922,0.00053940254
467110,金門,2017-06-08,24.407306,118.289281,0.993873
C0AH80,深坑,2017-06-08,25.002703,121.628328,0.00017107952
467990,馬祖,2017-06-08,26.169269,119.923419,0.99879515
C0A970,三貂角,2017-06-08,25.007606,122.002058,0.9865871
C2D730,寶山農場,2017-06-08,24.732444,120.976153,5.4157283e-09
C0K430,褒忠,2017-06-08,23.690938,120.303634,0.955278
467480,嘉義,2017-06-08,23.495925,120.432906,0.8137605
C2E540,後龍,2017-06-08,24.606489,120.783933,2.6954692e-06
C0V400,阿公店,2017-06-08,22.804194,120.355528,0.34818152
C0R440,大漢山,2017-06-08,22.405264,120.753181,1.0179158e-08
C0K280,四湖,2017-06-08,23.630414,120.227125,0.9889559
C1F9B1,桐林,2017-06-08,24.066172,120.735194,0.8389818
C2H9U0,鳳鵬,2017-06-08,23.763919,120.788061,1.3881185e-08
C0K390,土庫,2017-06-08,23.679029,120.395574,0.22038107
C1I450,望鄉山,2017-06-08,23.594153,120.944286,2.0356268e-08
C0E910,海埔,2017-06-08,24.648767,120.772435,3.8496833e-06
B2E890,畜試北區分所,2017-06-08,24.527806,120.770972,0.034885503
C0R750,四林格山,2017-06-08,22.076989,120.802439,0.0002270475
C0F0C0,中坑,2017-06-08,24.248517,120.903319,9.443373e-08
C1I121,大鞍,2017-06-08,23.678381,120.760017,1.6996884e-08
72U480,花改蘭陽分場,2017-06-08,24.686306,121.716583,0.99941164
C0A770,科教館,2017-06-08,25.096356,121.516507,0.0015225384
C0AJ60,六塊厝,2017-06-08,25.24,121.4481,0.9993819
C0R620,墾雷,2017-06-08,21.900836,120.855269,0.15286784
467420,永康,2017-06-08,23.038386,120.2367,0.844267
467300,東吉島,2017-06-08,23.25695,119.667467,0.16704664
C0I410,名間,2017-06-08,23.837053,120.701447,0.0012338297
A2C560,農工中心,2017-06-08,24.985917,121.239833,4.0613867e-07
C0V740,旗山,2017-06-08,22.888614,120.483597,0.7743014
C0Z061,玉里,2017-06-08,23.3215,121.339656,0.98284507
C0S840,南田,2017-06-08,22.279725,120.889208,0.004026037
C1I470,杉林溪,2017-06-08,23.639517,120.786444,1.4080083e-08
C1X040,東原,2017-06-08,23.291597,120.463822,0.95723933
C0R660,枋寮,2017-06-08,22.367722,120.590647,2.0414263e-05
C1R120,上德文,2017-06-08,22.763272,120.704442,2.0246569e-08
C0K450,大埤,2017-06-08,23.646074,120.431537,0.6045725
C0UA00,土場,2017-06-08,24.576533,121.495333,0.8164152
467080,宜蘭,2017-06-08,24.763975,121.756528,0.9956425
C0N030,四草,2017-06-08,23.0235,120.1116,0.7145743
C0V650,彌陀,2017-06-08,22.783806,120.246361,0.58052814
C0D660,新竹市東區,2017-06-08,24.798681,120.986942,4.756211e-09
82S580,茶改東部分場,2017-06-08,22.907694,121.130139,0.90665615
C0SB40,興隆,2017-06-08,22.913661,121.257469,0.846406
C0C710,大溪永福,2017-06-08,24.892936,121.324975,1.0553729e-07
C0FA20,溫寮,2017-06-08,24.372177,120.583125,0.9736947
C0V640,湖內,2017-06-08,22.887139,120.2445,0.47484908
C0R910,下寮,2017-06-08,22.3929,120.5548,2.0414263e-05
C0Z020,明里,2017-06-08,23.208717,121.262342,0.982659
C0M770,嘉義梅山,2017-06-08,23.585398,120.555587,0.9864008
G2F820,農業試驗所,2017-06-08,24.031261,120.688133,0.722268
C0C660,楊梅,2017-06-08,24.912375,121.143047,1.1241841e-08
C1E511,新開,2017-06-08,24.347703,120.827019,0.061397918
G2F820,農試所(霧峰),2017-06-08,24.031261,120.688133,0.722268
C1I070,和社,2017-06-08,23.591131,120.888861,0.0017477883
C2F000,大肚,2017-06-08,24.15295,120.572117,0.55267
C1S850,豐南,2017-06-08,23.122139,121.262389,1.5227418e-05
C2A920,富貴角,2017-06-08,25.263783,121.565258,0.9940998
CAH030,茶改場竹圍站,2017-06-08,23.860083,120.637528,3.7482206e-08
C0T960,光復,2017-06-08,23.660694,121.424964,0.98188895
C0F9M0,豐原,2017-06-08,24.254322,120.720692,0.9082262
C0R720,旭海,2017-06-08,22.205403,120.887614,0.006633341
C0V710,苓雅,2017-06-08,22.622742,120.330669,0.020716755
C0C740,觀音工業區,2017-06-08,25.064764,121.114856,5.7694547e-06
CAC040,拉拉山,2017-06-08,24.699317,121.427133,3.7808693e-08
C0V790,萬山,2017-06-08,22.905944,120.688056,0.8502239
U2HA30,臺大和社,2017-06-08,23.590856,120.888864,0.0017477883
C0AJ90,澳底,2017-06-08,25.0552,121.9253,0.9984267
C0Z100,東華,2017-06-08,23.89525,121.549833,0.9836724
C0G970,三豐,2017-06-08,23.882,120.2895,0.9674258
V2K610,大庄合作社,2017-06-08,23.8068,120.367939,0.5176887
C0V900,汕尾,2017-06-08,22.4782,120.4151,0.00021151878
C1R630,龍泉,2017-06-08,22.66701,120.59091,0.44728878
C1AC50,關渡,2017-06-08,25.133486,121.469331,0.0050776685
C0F9I0,神岡,2017-06-08,24.272481,120.658314,0.7221845
C0K460,斗南,2017-06-08,23.678734,120.478359,0.5301421
467410,臺南,2017-06-08,22.993239,120.204772,0.6479615
C2O810,曾文,2017-06-08,23.219681,120.497328,0.9726647
467280,後龍,2017-06-08,24.648563,120.831834,1.3837736e-06
C1F9J1,清水林,2017-06-08,24.071242,120.820419,3.4264653e-07
C2A650,火燒寮,2017-06-08,25.002719,121.742892,0.05303269
466930,竹子湖,2017-06-08,25.162078,121.544547,2.8052543e-07
C1I220,樟湖,2017-06-08,23.905333,120.846983,7.832163e-08
C0I390,仁愛,2017-06-08,24.022122,121.132206,5.4973977e-08
C0Z300,東里,2017-06-08,23.26853,121.30547,0.96392167
C1V590,新發,2017-06-08,23.057019,120.646064,0.0002247995
C0K510,水林,2017-06-08,23.572924,120.24597,0.9625667
72S590,東改賓朗果園,2017-06-08,22.813889,121.071278,0.911154
82A750,茶改北部分場,2017-06-08,24.955778,121.631222,0.7605046
C1A750,石碇服務區,2017-06-08,25.00872,121.646242,0.12800695
C0X300,鹿寮,2017-06-08,23.386047,120.477331,0.929672
G2AI50,關渡,2017-06-08,25.11575,121.492,0.0001989216
C0K590,雲林東勢,2017-06-08,23.674192,120.255721,0.9764668
C0A570,桶後,2017-06-08,24.848222,121.597992,0.62478274
C1S800,華源,2017-06-08,22.657883,121.02325,0.9368134
C0G720,溪州,2017-06-08,23.851589,120.499093,2.5242946e-06
C1V160,達卡努瓦,2017-06-08,23.279811,120.705319,2.0823373e-07
C2M410,馬頭山,2017-06-08,23.324361,120.582017,0.9295818
C0V850,蚵仔寮,2017-06-08,22.7256,120.2527,0.16274676
C0S740,池上,2017-06-08,23.119628,121.209469,0.9739294
C1V390,尖山,2017-06-08,22.813153,120.367789,0.293808
C0AH70,松山,2017-06-08,25.04871,121.55042,0.0013999429
C0N010,鯤鯓國小,2017-06-08,23.1879,120.0889,0.97685236
C0R550,新埤,2017-06-08,22.467947,120.582894,0.00024289613
C0SA60,知本（水試所）,2017-06-08,22.702394,121.082761,0.79254735
C0T9I0,豐濱,2017-06-08,23.583897,121.514806,0.99225897
C0UB00,淡江大學蘭陽校園,2017-06-08,24.823239,121.730383,0.21505576
C0W240,九宮,2017-06-08,24.423753,118.240186,0.9937156
C0T9N0,富里,2017-06-08,23.171639,121.249378,0.9822441
U2HA50,臺大竹山,2017-06-08,23.756972,120.681556,2.7328164e-05
C0V840,鳳鼻頭,2017-06-08,22.5083,120.3591,0.01624938
C0X140,西港,2017-06-08,23.125608,120.203108,0.8504253
72D080,桃改五峰分場,2017-06-08,24.612194,121.157167,1.878607e-09
C2H9P0,伊拿谷,2017-06-08,23.963211,121.088264,5.3375635e-07
C2H9F0,柑林,2017-06-08,24.018658,120.847072,0.7023398
C0TA20,加灣,2017-06-08,24.082025,121.608944,0.8585023
C0V530,阿蓮,2017-06-08,22.883208,120.327508,0.7987434
C1O880,關山,2017-06-08,23.173397,120.594092,0.75598854
C0E791,卓蘭,2017-06-08,24.3126,120.8244,0.7206118
C1I030,武界,2017-06-08,23.913225,121.052483,3.4555762e-07
C0R520,崁頂,2017-06-08,22.514781,120.506914,0.23978294
C0R341,牡丹,2017-06-08,22.130036,120.792639,0.0075345263
C0R930,萬丹,2017-06-08,22.5885,120.4851,0.19146168
C0S760,紅石,2017-06-08,23.069131,121.126219,1.1730292e-08
C1M610,石磐龍,2017-06-08,23.496606,120.663506,1.0178695e-07
C0UA10,鴛鴦湖,2017-06-08,24.590269,121.412228,1.2774758e-08
V2C260,八德蔬果,2017-06-08,24.978508,121.281819,3.4708748e-07
C0R800,丹路,2017-06-08,22.204481,120.750989,0.00880107
C0G920,永靖,2017-06-08,23.924703,120.547533,0.0005318781
C2M950,太和,2017-06-08,23.538372,120.702961,4.4498314e-08
C1A630,下盆,2017-06-08,24.771003,121.538622,2.0514673e-05
B2N890,畜產試驗所,2017-06-08,23.058972,120.336406,0.9117724
C0UA30,白嶺,2017-06-08,24.527819,121.519031,3.4125073e-08
C1V580,溪南(特生中心),2017-06-08,23.084972,120.788475,4.819277e-08
C1T970,大農,2017-06-08,23.615233,121.413331,0.9803597
E2S960,林試太麻里2,2017-06-08,22.598014,120.989761,0.81187254
C0R650,竹田,2017-06-08,22.58486,120.54344,0.6305719
C1H900,清流,2017-06-08,24.080775,120.962997,4.7709413e-08
C1C510,水尾,2017-06-08,24.940081,121.087161,6.506592e-08
C0F9X0,大雅(中科園區),2017-06-08,24.21528,120.62445,0.16342954
C0SB60,白守蓮,2017-06-08,23.126769,121.401914,0.43178844
C0O970,虎頭埤,2017-06-08,23.021375,120.347878,0.9335414
C0C730,中大臨海站,2017-06-08,24.966126,121.008581,1.7311354e-06
C0X250,新營,2017-06-08,23.310689,120.316681,0.9513028
C0V700,三民,2017-06-08,22.645017,120.311233,0.0044420576
C0U870,大礁溪,2017-06-08,24.791042,121.675047,0.00021677624
C0E870,高鐵苗栗,2017-06-08,24.60725,120.826094,1.9335505e-06
A2K570,古坑花卉中心,2017-06-08,23.63353,120.55239,0.74002606
C0M860,新美,2017-06-08,23.338017,120.683169,0.004893127
C1E701,八卦,2017-06-08,24.491756,120.927619,1.2485806e-06
C0I420,國姓,2017-06-08,24.037803,120.855072,0.6263842
C2D720,關西工作站,2017-06-08,24.757275,121.184792,5.999469e-09
C0S960,香蘭,2017-06-08,22.587569,120.993375,0.81187254
C0R260,春日,2017-06-08,22.370361,120.628306,5.228541e-06
72G600,臺中農改場,2017-06-08,24.003028,120.534389,0.06041735
C0Z210,瑞穗,2017-06-08,23.5239,121.39021,0.9857185
C0M820,達邦,2017-06-08,23.453994,120.749517,4.863217e-07
C0V860,南寮,2017-06-08,22.7616,120.2339,0.16274676
C0G740,大城,2017-06-08,23.852487,120.320935,0.9635157
C0R920,塭仔,2017-06-08,22.4169,120.5197,2.4817964e-05
C0R470,高樹,2017-06-08,22.826389,120.600806,0.79920805
C0R680,佳樂水,2017-06-08,21.993578,120.861633,0.009981567
C1O870,大棟山,2017-06-08,23.31157,120.52226,6.8782185e-08
C0D360,梅花,2017-06-08,24.678347,121.208558,1.5580349e-09
C0Z190,富世,2017-06-08,24.14743,121.6297,0.022366283
C0AI10,屈尺,2017-06-08,24.92184,121.54475,0.006923738
B2U990,畜試東區分所,2017-06-08,24.669039,121.832561,0.9994657
C0SB80,長濱漁港,2017-06-08,23.313644,121.459994,0.91270494
C0R240,來義,2017-06-08,22.527306,120.625111,0.11202922
C0V910,大樹,2017-06-08,22.684645,120.432803,0.11673513
C1R610,西大武山,2017-06-08,22.617719,120.7322,8.293168e-09
C0G900,線西,2017-06-08,24.143358,120.443536,0.9744611
C0M700,竹崎,2017-06-08,23.526178,120.555508,0.9965211
C2E880,三義,2017-06-08,24.405478,120.749819,5.200528e-06
C0C720,竹圍,2017-06-08,25.112692,121.239824,0.0001989216
C0F9P0,清水,2017-06-08,24.312297,120.562242,0.9705294
C0Z150,吉安光華,2017-06-08,23.930925,121.595153,0.9553305
C1D640,外坪(五指山),2017-06-08,24.644447,121.090961,2.6025821e-09
C0F9O0,潭子,2017-06-08,24.213106,120.703933,0.9321077
C2H9R0,卓社,2017-06-08,23.887894,121.000086,3.4926597e-08
72T250,花蓮農改場,2017-06-08,23.975222,121.563889,0.98392797
C0E780,銅鑼,2017-06-08,24.489681,120.790853,0.0009478168
C1T950,太安,2017-06-08,23.666719,121.370128,4.2135665e-07
C0E830,苑裡,2017-06-08,24.439714,120.653053,0.9591148
467270,田中,2017-06-08,23.873803,120.581286,0.0001767057
C0SA10,檳榔四格山,2017-06-08,22.810031,121.109308,0.6882863
C1T830,布洛灣,2017-06-08,24.17184,121.57127,0.9992927
C0F970,大坑,2017-06-08,24.173142,120.722289,0.9359171
C1U920,思源,2017-06-08,24.393125,121.347214,1.6780898e-08
C0A931,三和,2017-06-08,25.233153,121.595236,0.88913953
C0I010,廬山,2017-06-08,24.033311,121.181808,3.3522017e-08
C2M940,日野賀,2017-06-08,23.434056,120.727169,1.3230931e-07
C0R860,鼻頭,2017-06-08,22.1043,120.8979,0.009936625
C0UB20,壯圍,2017-06-08,24.7359,121.8163,0.99955314
C0R790,九棚,2017-06-08,22.14195,120.889281,0.009681314
C0W110,東莒,2017-06-08,25.9652,119.98069,0.9995558
C1U930,粉鳥林,2017-06-08,24.497088,121.842479,0.99982846
C1I211,蘆竹湳,2017-06-08,23.934019,120.811994,1.9637936e-07
C0S830,長濱,2017-06-08,23.286817,121.411975,0.24446726
C1F9F1,伯公龍,2017-06-08,24.272392,120.849047,0.56029224
C0E810,西湖,2017-06-08,24.562947,120.7485,0.00052560144
C1I440,新高口,2017-06-08,23.478744,120.878939,1.9658e-08
C0O840,王爺宮,2017-06-08,23.222064,120.40085,0.97900665
C0T9G0,鳳林山,2017-06-08,23.735269,121.420131,8.311049e-08
C0X080,佳里,2017-06-08,23.173039,120.145086,0.97685236
C0FB70,大甲溪埔,2017-06-08,24.370625,120.620067,0.9600513
C0Z310,清水斷崖,2017-06-08,24.218294,121.689142,1.4156071e-05
C0M680,太保,2017-06-08,23.455062,120.331455,0.96397054
C1S820,金峰,2017-06-08,22.590969,120.933236,0.95639265
C0AD10,八里,2017-06-08,25.150211,121.403947,0.0001989216
C2K240,草嶺,2017-06-08,23.59555,120.693461,2.3939792e-08
C1SA70,都蘭,2017-06-08,22.87794,121.226881,0.846406
C0K440,二崙,2017-06-08,23.772797,120.408944,2.153502e-05
C1A760,坪林交控,2017-06-08,24.94284,121.713442,0.97791195
C0F9N0,大里,2017-06-08,24.092464,120.701378,0.8976539
C0SA90,達仁林場,2017-06-08,22.264347,120.823972,1.2369557e-07
C1R290,石門山,2017-06-08,22.112611,120.756597,0.0041560186
42HA10,萬大發電廠,2017-06-08,23.978875,121.139639,1.2816584e-07
C0R890,山海,2017-06-08,21.9878,120.7091,0.0037396902
C0T9A0,月眉山,2017-06-08,23.809928,121.539828,1.3273966e-07
C0AC70,信義,2017-06-08,25.037822,121.564597,0.0013999429
C0K560,棋山,2017-06-08,23.68645,120.603417,0.6373806
C2FB50,出雲,2017-06-08,24.206469,120.902794,6.514042e-08
C1Z240,中平林道,2017-06-08,23.42115,121.26763,1.8296487e-06
U2H480,溪頭,2017-06-08,23.670306,120.798194,8.547613e-09
C0M880,好美里,2017-06-08,23.3364,120.138,0.9219527
C0T9E0,大坑,2017-06-08,23.880628,121.581981,2.3186394e-07
C0K530,臺西,2017-06-08,23.701547,120.197559,0.96930027
C1E900,國一N128K,2017-06-08,24.560997,120.844186,5.5337798e-05
C0AJ50,水湳洞,2017-06-08,25.123695,121.862238,0.9982332
C0AI20,白沙灣,2017-06-08,25.283128,121.519058,0.99938154
C0A860,大坪,2017-06-08,25.165914,121.632969,1.6781905e-05
C1U850,觀音海岸,2017-06-08,24.38319,121.77856,8.8521267e-07
C2K610,草嶺石壁,2017-06-08,23.602469,120.707731,2.3040553e-08
C0U950,鶯子嶺,2017-06-08,24.89754,121.79244,2.069706e-07
C0O900,善化,2017-06-08,23.112883,120.297219,0.9177553
C0K550,蔦松,2017-06-08,23.514319,120.229736,0.98469126
E2P980,林試六龜中心,2017-06-08,22.991703,120.645722,0.66319025
C0E590,通霄,2017-06-08,24.471892,120.704622,0.42532402
C1I310,西巒,2017-06-08,23.754486,120.883956,2.415883e-07
C0A550,泰平,2017-06-08,24.971197,121.823711,0.36773464
C0I360,水里,2017-06-08,23.812553,120.849792,3.7555985e-08
C0R830,高士,2017-06-08,22.121825,120.836781,0.0021914816
C1I101,溪頭,2017-06-08,23.661789,120.807647,2.4235112e-08
C0AJ20,野柳,2017-06-08,25.20703,121.690021,0.9971055
C0B060,暖暖,2017-06-08,25.0957,121.7403,0.117434174
C1H920,長豐,2017-06-08,24.102039,120.879897,1.9580114e-07
C0V360,內門,2017-06-08,22.975481,120.466769,0.70111203
C0R850,林邊,2017-06-08,22.4634,120.5339,0.0002162723
C0E930,龍鳳,2017-06-08,24.700034,120.859125,1.0449828e-08
C0U910,冬山,2017-06-08,24.63373,121.7937,0.9994657
C1E721,泰安,2017-06-08,24.489017,120.968036,1.0593495e-08
82H320,茶改中部分場,2017-06-08,23.875611,120.913583,3.759175e-06
C0M750,布袋,2017-06-08,23.380878,120.167789,0.8635841
C1S860,利嘉,2017-06-08,22.809417,121.050528,0.32021144
72C440,桃園農改,2017-06-08,24.950944,121.030583,9.264804e-08
E2S980,林試太麻里1,2017-06-08,22.598922,120.980044,0.8972433
C0X170,關廟,2017-06-08,22.963017,120.327797,0.85847545
C0V720,林園,2017-06-08,22.507747,120.394511,0.017415073
C1I510,線浸林道,2017-06-08,23.761508,120.832956,6.2372024e-08
C0D690,外湖,2017-06-08,24.917735,120.968711,1.3255723e-07
C0C750,新興坑尾,2017-06-08,25.0061,121.0971,9.804197e-07
B2Q810,畜試南區分所,2017-06-08,21.945583,120.802167,0.010663456
C0S790,金崙,2017-06-08,22.538122,120.966875,0.2242258
C0AH90,福山植物園,2017-06-08,24.760717,121.58135,0.00050049444
C0I540,奇萊稜線,2017-06-08,24.109231,121.326456,2.5060613e-08
C0M850,表湖,2017-06-08,23.24186,120.64166,1.2454253e-05
C0S770,大溪山,2017-06-08,22.478475,120.943325,0.000103360624
C0AG80,中和,2017-06-08,24.991622,121.491792,0.00043776297
C0T790,大禹嶺,2017-06-08,24.186117,121.316086,1.9616463e-08
C0T9B0,水源,2017-06-08,23.991861,121.537169,1.4266196e-07
C0R840,牡丹池山,2017-06-08,22.168389,120.841225,4.9653767e-08
C1I131,桶頭,2017-06-08,23.641944,120.654117,0.00020192719
CAL110,布袋國中,2017-06-08,23.35893,120.18026,0.8635841
467571,新竹,2017-06-08,24.827853,121.014219,9.380503e-09
C0Z290,赤柯山,2017-06-08,23.36893,121.38293,1.5874437e-07
C0X280,將軍,2017-06-08,23.214999,120.13577,0.96318126
C0S690,太麻里,2017-06-08,22.60902,120.98533,0.36915118
C0U880,北關,2017-06-08,24.9072,121.8734,0.99810654
C1H860,瑞岩,2017-06-08,24.123772,121.18345,6.906048e-08
C0G810,埔心,2017-06-08,23.947633,120.525456,0.0005371338
C0U970,大福,2017-06-08,24.80064,121.81389,0.99606997
C2H9N0,仁愛東眼,2017-06-08,24.026875,121.1205,3.5942275e-08
C1E670,南礦,2017-06-08,24.538278,121.002836,3.647896e-09
C0M520,東後寮,2017-06-08,23.369908,120.248065,0.8476632
C1E461,松安,2017-06-08,24.397972,120.986022,3.096462e-08
72G600,臺中農改,2017-06-08,24.003028,120.534389,0.06041735
C2N160,西拉雅風管處,2017-06-08,23.189481,120.335297,0.94946533
C2M970,碧湖,2017-06-08,23.568632,120.624165,3.274798e-08
C0A640,石碇,2017-06-08,24.993969,121.662917,0.7255538
E2S960,林試太麻里2,2017-06-08,22.598,120.99775,0.8014393
C0F9Y0,桃山,2017-06-08,24.432739,121.303808,2.9800317e-08
C1I020,萬大,2017-06-08,23.979817,121.132261,5.4401642e-08
C0U940,羅東,2017-06-08,24.68184,121.74934,0.99948245
C0M650,朴子,2017-06-08,23.43463,120.23902,0.8292751
C1I500,大尖山,2017-06-08,23.858572,120.994889,2.2860291e-08
C0G820,田尾,2017-06-08,23.901669,120.509389,0.0005371338
E2K600,四湖植物園,2017-06-08,23.676986,120.163433,0.9889559
C0S730,綠島,2017-06-08,22.6672,121.47533,0.0015936862
12Q970,東港工作站,2017-06-08,22.479997,120.466058,0.00021151878
C0E430,南庄,2017-06-08,24.601775,121.000214,0.0033231445
C1TA00,太魯閣,2017-06-08,24.15773,121.6236,0.0012514199
466920,臺北,2017-06-08,25.037658,121.514853,0.0013999429
C0R600,舊泰武,2017-06-08,22.588194,120.664944,2.245385e-07
C1I260,北坑,2017-06-08,23.9246,121.006903,1.2015404e-07
466910,鞍部,2017-06-08,25.182586,121.529731,2.8762412e-07
C1I230,九份二山,2017-06-08,23.961944,120.845,1.8761338e-06
C2A660,瑞芳,2017-06-08,25.113169,121.801147,0.9952985
C0R270,琉球嶼,2017-06-08,22.332244,120.362236,9.2603125e-09
C1T990,高寮,2017-06-08,23.394239,121.356808,0.96759665
C0G620,芬園,2017-06-08,24.015678,120.6213,0.62242997
C1Z140,荖溪,2017-06-08,23.890575,121.45964,6.5933505e-06
C1I201,中心崙,2017-06-08,23.728722,120.712097,5.534386e-09
C1I400,凌霄,2017-06-08,24.018778,121.004456,3.6788936e-08
C1M640,十字,2017-06-08,23.492153,120.753683,5.558742e-08
G2P820,農試鳳山分所,2017-06-08,22.646611,120.356083,0.0021832287
C0Z270,蕃薯寮,2017-06-08,23.73835,121.540108,1.0704357e-05
C0F9Q0,外埔,2017-06-08,24.347817,120.705686,0.65331817
C0K580,高鐵雲林,2017-06-08,23.737456,120.417944,0.00077045546
C2I090,鳳凰,2017-06-08,23.728081,120.787347,5.881454e-09
C0U990,員山,2017-06-08,24.74435,121.72247,0.99951655
C0V770,大社,2017-06-08,22.730306,120.346639,0.13155665
C0X120,麻豆,2017-06-08,23.183289,120.248611,0.8457105
C0C670,龍潭,2017-06-08,24.870056,121.221389,5.93179e-09
C0D680,香山濕地,2017-06-08,24.783581,120.914988,6.2450085e-09
C0S980,勝林山,2017-06-08,22.430439,120.8938,1.7858676e-08
C0V730,大寮,2017-06-08,22.605614,120.395717,0.018164804
C0R570,麟洛,2017-06-08,22.65078,120.52719,0.36918265
C2M930,石卓,2017-06-08,23.478744,120.702264,7.872992e-08
C0G9B0,和美,2017-06-08,24.105169,120.492131,0.9780864
CAG100,王功漁港,2017-06-08,23.96824,120.32586,0.983726
C0X290,北門,2017-06-08,23.267772,120.125481,0.96318126
C2F930,大甲,2017-06-08,24.347667,120.640403,0.8635127
C0D650,湖口,2017-06-08,24.904794,121.043628,6.8501485e-08
C0E420,竹南,2017-06-08,24.708978,120.888897,6.877048e-09
C0U780,五結,2017-06-08,24.68637,121.79794,0.9995534
C1I250,鯉潭,2017-06-08,23.961922,120.991131,4.189488e-05
C0R130,阿禮,2017-06-08,22.742908,120.743678,1.3810331e-08
C0X100,臺南市北區,2017-06-08,23.010394,120.194228,0.7002856
C0S920,金峰嘉蘭,2017-06-08,22.594789,120.960825,0.9065434
C0V490,新興,2017-06-08,22.627422,120.298803,0.020948151
C0F9K0,大安,2017-06-08,24.345061,120.588025,0.96453595
72N100,臺南農改,2017-06-08,23.0605,120.342194,0.9117724
467290,古坑,2017-06-08,23.633639,120.551889,0.74002606
C2E970,八甲,2017-06-08,24.535811,120.795983,1.7947872e-06
C0V440,鳳山,2017-06-08,22.646653,120.356122,0.0021832287
C1T940,大觀,2017-06-08,23.714206,121.373133,2.3493268e-07
72T250,花蓮農改,2017-06-08,23.975222,121.563889,0.98392797
C0E740,造橋,2017-06-08,24.637056,120.864778,1.9335505e-06
C0R100,尾寮山,2017-06-08,22.833111,120.683889,1.40002e-08
A2K630,臺大雲林校區,2017-06-08,23.730628,120.423903,0.00077045546
C0D580,寶山,2017-06-08,24.735006,121.025192,8.559555e-09
E2P990,林試扇平站,2017-06-08,22.9677,120.6857,3.3755314e-05
C0AI30,三重,2017-06-08,25.057328,121.500629,0.0015225384
C0AH00,汐止,2017-06-08,25.066881,121.658778,0.0013999429
C1Z040,立山,2017-06-08,23.443356,121.327375,0.00067258964
C0W130,花嶼,2017-06-08,23.40007,119.32276,0.10993647
C0A950,鼻頭角,2017-06-08,25.129036,121.923372,0.99959207
C0K470,林內,2017-06-08,23.748675,120.609642,0.00090457476
C2F990,摩天嶺,2017-06-08,24.322458,120.936819,5.932857e-08
82C160,茶改場,2017-06-08,24.908472,121.185333,8.3543545e-09
C0Z320,清水林道,2017-06-08,23.27125,121.188272,0.00034487902
C0R760,南仁湖,2017-06-08,22.084681,120.863353,0.0041560186
C0M670,大林,2017-06-08,23.600616,120.45841,0.36902165
C0M800,茶山,2017-06-08,23.299075,120.664767,0.8461051
C0A9C0,天母,2017-06-08,25.117494,121.537169,0.17433457
72K220,南改斗南分場,2017-06-08,23.634556,120.477333,0.5301421
72AI40,桃改樹林分場,2017-06-08,24.944503,121.386972,7.5895706e-08
C0S910,蘭嶼燈塔,2017-06-08,22.081197,121.503117,0.0036813584
C0B050,八斗子,2017-06-08,25.144754,121.79167,0.99846965
C0U900,內城,2017-06-08,24.71813,121.68766,0.99922943
C0X320,柳營,2017-06-08,23.253328,120.375253,0.98462254
C0M790,新港,2017-06-08,23.553269,120.345728,0.6922435
C0F9T0,西屯,2017-06-08,24.179494,120.641275,0.00569934
C0SA30,都歷,2017-06-08,23.020333,121.323642,0.98273814
C0C620,蘆竹,2017-06-08,25.084275,121.265767,4.0780865e-06
C0R730,大坪頂,2017-06-08,22.024633,120.69355,0.014433744
C0AJ40,石門,2017-06-08,25.273672,121.601198,0.9983962
C0E750,苗栗,2017-06-08,24.564569,120.824575,6.698082e-05
C0T870,鯉魚潭,2017-06-08,23.935639,121.508944,0.9615765
C1V170,排雲,2017-06-08,23.463619,120.954147,2.129225e-08
C2H950,中寮,2017-06-08,23.884447,120.766406,0.00015595992
C0R350,貓鼻頭,2017-06-08,21.921774,120.7358,0.0035049221
C0V660,岡山,2017-06-08,22.797078,120.294958,0.5804074
C1H941,雙冬,2017-06-08,23.967378,120.802189,1.011182e-07
C0AJ70,田寮,2017-06-08,25.2698,121.4886,0.99938893
C0AI00,五股,2017-06-08,25.07445,121.42728,8.1548137e-07
C0Z280,德武,2017-06-08,23.47426,121.41071,0.020387601
C0R700,枋山,2017-06-08,22.246844,120.661086,1.5958088e-06
C0C460,復興,2017-06-08,24.820208,121.352281,5.270724e-09
E2H360,蓮華池,2017-06-08,23.918333,120.885278,5.397633e-08
C0M640,中埔,2017-06-08,23.42538,120.5229,0.9862738
C0W140,金沙,2017-06-08,24.488292,118.408778,0.99888545
C2A540,四堵,2017-06-08,24.8926,121.745736,0.19460359
C0ACA0,新莊,2017-06-08,25.051478,121.446756,9.502131e-06
C0R220,潮州,2017-06-08,22.534361,120.54,0.22313528
U2HA40,臺大內茅埔,2017-06-08,23.689722,120.851117,1.6481665e-06
467490,臺中,2017-06-08,24.145736,120.684075,0.96049815
C0U960,翠峰湖,2017-06-08,24.510856,121.608044,2.043364e-08
E2HA20,林試畢祿溪站,2017-06-08,24.226944,121.308522,4.1564185e-08
C0V890,前鎮,2017-06-08,22.5718,120.3117,0.025605602
467620,蘭嶼,2017-06-08,22.036969,121.558339,0.0015402598
C1F941,雪嶺,2017-06-08,24.280586,121.026642,5.0074622e-08
C2H9E0,國姓南港,2017-06-08,23.911108,120.846556,6.86633e-08
C0AC80,文山,2017-06-08,25.00235,121.575728,0.00016991387
C0F9R0,龍井,2017-06-08,24.184536,120.528972,0.9601863
C0M760,民雄,2017-06-08,23.551754,120.428457,0.4563991
C0UA40,西德山,2017-06-08,24.560647,121.752608,1.0976905e-07
C1T920,中興,2017-06-08,23.769503,121.498653,0.9015612
C0D550,雪霸,2017-06-08,24.526972,121.11605,1.1446219e-08
C2F860,梨山,2017-06-08,24.247522,121.243669,4.1314188e-08
C0R320,車城,2017-06-08,22.0744,120.716247,0.00038921522
C1S870,南美山,2017-06-08,23.15025,121.382333,0.9806037
C0B020,基隆嶼,2017-06-08,25.19141,121.78391,0.9989055
C1U501,牛鬥,2017-06-08,24.637836,121.573656,0.99206734
C0M730,嘉義市東區,2017-06-08,23.457673,120.460531,0.98250186
C0S700,知本,2017-06-08,22.684866,121.005642,0.65312135
C1N001,沙崙,2017-06-08,22.935472,120.309406,0.86592203
C0V760,橋頭,2017-06-08,22.757806,120.30575,0.14897119
C0G960,福寶,2017-06-08,24.0443,120.3814,0.9804661
C0X210,白河,2017-06-08,23.347466,120.414427,0.90610087
C0S810,東河,2017-06-08,22.972672,121.303986,0.53464675
C2R170,屏東,2017-06-08,22.66027,120.49403,0.36901185
C0R670,楓港,2017-06-08,22.190131,120.692156,0.00023058652
C0FA50,霧峰,2017-06-08,24.0419,120.6995,0.7022022
C0UB10,蘇澳,2017-06-08,24.5969,121.8571,0.99939406
C0G950,防潮門,2017-06-08,24.1835,120.4871,0.9605359
C0M740,六腳,2017-06-08,23.492871,120.290625,0.8112255
C1R250,力里,2017-06-08,22.428117,120.629228,0.08484533
C0K330,虎尾,2017-06-08,23.719183,120.442036,0.0005800146
C2FA00,烏石坑,2017-06-08,24.273503,120.947617,6.315035e-08
C0V620,永安,2017-06-08,22.82315,120.236856,0.58052814
C1I330,楓樹林,2017-06-08,23.986803,121.076117,4.3757243e-08
C0W200,湖西,2017-06-08,23.596314,119.67275,0.8301249
72Q010,高雄農改場,2017-06-08,22.709333,120.525889,0.5706944
C0SA40,瑞和,2017-06-08,22.974361,121.156697,0.9609592
C0C680,龜山,2017-06-08,25.02846,121.38656,5.236218e-07
C2V260,月眉,2017-06-08,22.971003,120.539853,0.8383796
C0V450,鳳森,2017-06-08,22.545064,120.392592,0.022843577
C0U720,南山,2017-06-08,24.43742,121.38167,5.2458495e-07
A2N290,臺南蘭花園區,2017-06-08,23.340258,120.379661,0.9460714
C0R560,新園,2017-06-08,22.5434,120.461558,0.017415073
C0U890,三星,2017-06-08,24.66812,121.65302,0.9989639
C1V300,御油山,2017-06-08,23.001983,120.715364,2.561081e-08
C0U600,礁溪,2017-06-08,24.817539,121.765608,0.99970233
C1T980,龍澗,2017-06-08,24.023289,121.411328,3.8522685e-07
C0D670,海天一線,2017-06-08,24.831986,120.914438,2.8009602e-08
C0SA00,歷坵,2017-06-08,22.520969,120.89185,3.5125495e-06
C0M710,東石,2017-06-08,23.458927,120.15385,0.99886346
C0M780,鹿草,2017-06-08,23.41134,120.30835,0.8145464
C0U520,雙連埤,2017-06-08,24.753033,121.641303,0.00019616152
C0B010,七堵,2017-06-08,25.094819,121.71713,0.23853768
C0R480,長治,2017-06-08,22.693128,120.542622,0.10497805
C1V830,國三S383K,2017-06-08,22.781967,120.426475,0.40253374
12Q980,恆春工作站,2017-06-08,22.079678,120.714425,0.00038921522
C1O940,東山服務區,2017-06-08,23.286016,120.398472,0.9746493
C1U840,東澳嶺,2017-06-08,24.5378,121.8485,7.7943156e-07
C1D630,飛鳳山,2017-06-08,24.766464,121.119178,1.9845678e-09
C0S940,石寧山,2017-06-08,23.223772,121.406639,0.9404926
C0K410,北港,2017-06-08,23.573957,120.292802,0.95842266
C2M620,瑞里,2017-06-08,23.545133,120.675197,5.7140237e-08
C0SB70,小港漁港,2017-06-08,23.158558,121.400431,0.6654227
C2O950,安南,2017-06-08,23.076694,120.144861,0.99516016
C0F0E0,南湖圈谷,2017-06-08,24.363714,121.444667,3.2307614e-08
467610,成功,2017-06-08,23.097486,121.373428,0.44122797
C0G890,伸港,2017-06-08,24.148933,120.484403,0.9744611
C2E540,龍溪,2017-06-08,24.606489,120.783933,2.6954692e-06
C1V200,梅山,2017-06-08,23.268447,120.823556,1.8441291e-05
C0T9H0,加路蘭山,2017-06-08,23.682947,121.5274,1.2118608e-07
C2O930,玉井,2017-06-08,23.126042,120.46055,0.943453
C1F911,新伯公,2017-06-08,24.221361,120.841069,0.89530265
C0R490,九如,2017-06-08,22.7405,120.490503,0.55437773
C0X200,左鎮,2017-06-08,23.056758,120.408522,0.93551004
C0SB50,叭嗡嗡,2017-06-08,23.047062,121.343223,0.96106356
C1F891,稍來,2017-06-08,24.265689,121.001142,5.491749e-08
72N240,七股研究中心,2017-06-08,23.081672,120.062894,0.9957204
C0C700,中壢,2017-06-08,24.977661,121.256375,2.829368e-07
C0M690,水上,2017-06-08,23.419734,120.388909,0.96412003
C0V690,鼓山,2017-06-08,22.623325,120.275575,0.020948125
C0O860,大內,2017-06-08,23.11885,120.36083,0.9139362
C0Z200,萬榮,2017-06-08,23.709219,121.420106,0.3606245
C0T9D0,和中,2017-06-08,24.26676,121.74103,0.9980015
C1O921,楠西,2017-06-08,23.183511,120.484083,0.97562593
C0AJ30,淡水觀海,2017-06-08,25.184591,121.408616,0.9926581
C0V810,左營,2017-06-08,22.67491,120.28491,0.0044420576
C0UA70,桃源谷,2017-06-08,24.962606,121.888875,0.0022808404
C0X130,官田,2017-06-08,23.193217,120.315422,0.95052177
C1H000,翠峰,2017-06-08,24.109397,121.205211,1.5926124e-08
C0UA90,石城,2017-06-08,24.980444,121.951214,0.9959476
C1E681,南勢山,2017-06-08,24.421669,120.923831,4.1521758e-07
C0A9F0,內湖,2017-06-08,25.079422,121.57545,0.0013999429
C0K291,宜梧,2017-06-08,23.536281,120.169329,0.98469126
C1K540,口湖,2017-06-08,23.585344,120.180517,0.9972541
C0R780,滿州,2017-06-08,22.024403,120.839892,0.0093257455
C0V870,文安,2017-06-08,22.8025,120.2164,0.58831936
C0U650,玉蘭,2017-06-08,24.675286,121.587061,0.009853941
C0R640,東港,2017-06-08,22.46247,120.44074,0.00021151878
K2E360,苗栗農改,2017-06-08,24.495722,120.829111,0.009878158
C0AJ80,板橋,2017-06-08,25.0107,121.4489,0.00050548965
C0S660,下馬,2017-06-08,23.150427,121.070312,0.00022975038
C1H9B1,阿眉,2017-06-08,24.1263,120.994672,3.0677018e-07
C0UA20,多加屯,2017-06-08,24.368614,121.373189,2.0313564e-08
C0E730,頭份,2017-06-08,24.688247,120.912206,7.618153e-09
72V140,高改旗南分場,2017-06-08,22.857861,120.516667,0.7774171
C0K480,莿桐,2017-06-08,23.761192,120.502372,1.3448201e-06
C0U980,坪林石牌,2017-06-08,24.86478,121.77396,3.0700143e-05
C0T900,西林,2017-06-08,23.8119,121.441458,0.0005923632
C1I150,青雲,2017-06-08,23.793361,120.949378,7.487856e-08
467350,澎湖,2017-06-08,23.565503,119.563094,0.48659286
C0G800,埔鹽,2017-06-08,24.000394,120.431683,0.9712677
C0H960,草屯,2017-06-08,23.973672,120.68085,0.6360555
C1V780,多納林道,2017-06-08,22.888028,120.737917,1.5973887e-08
C0E920,通霄漁港,2017-06-08,24.498589,120.673876,0.8211997
C0Z330,安通山,2017-06-08,23.290728,121.348528,7.551715e-07
C0AH10,永和,2017-06-08,25.01125,121.508111,0.0005066345
C0AK10,太平里,2017-06-08,25.134937,121.364899,0.00018936537
C2G640,鹿港,2017-06-08,24.0753,120.430481,0.9804661
C1E890,國三N149K,2017-06-08,24.463414,120.680019,0.86919576
C1R110,口社,2017-06-08,22.770111,120.645222,0.99247
C1M870,國三N285K,2017-06-08,23.550319,120.505833,0.9944194
467050,新屋,2017-06-08,25.006744,121.047486,1.4310198e-06
C1E480,鳳美,2017-06-08,24.554803,121.034747,3.981575e-07
C0M530,奮起湖,2017-06-08,23.493903,120.699253,4.3717616e-08
C0C590,觀音,2017-06-08,25.027072,121.153317,3.090871e-06
C0T9M0,靜浦,2017-06-08,23.455167,121.495028,0.964708
C2H9M0,發祥,2017-06-08,24.154094,121.164517,2.924983e-06
C0AI40,石牌,2017-06-08,25.115597,121.513139,0.21939439
C1F871,上谷關,2017-06-08,24.203483,121.018644,8.487604e-08
C2H9G0,百勝,2017-06-08,24.051142,120.909361,0.0025923797
C0G880,二水,2017-06-08,23.810742,120.6173,0.00014802763
C0R940,加祿堂,2017-06-08,22.3363,120.6217,1.0435238e-06
C0W220,北竿,2017-06-08,26.220358,119.974881,0.9989688
C0O960,崎頂,2017-06-08,22.959547,120.369317,0.8127308
C0S750,向陽,2017-06-08,23.248397,120.986133,1.3603225e-08
C0T9F0,水璉,2017-06-08,23.797131,121.542514,8.340199e-06
C1M600,頭凍,2017-06-08,23.406364,120.603339,5.2206233e-06
467660,臺東,2017-06-08,22.752211,121.154586,0.9484551
C1D380,新埔,2017-06-08,24.84745,121.03834,6.383004e-09
C2G980,田頭村,2017-06-08,23.8263,120.444175,2.153502e-05
C0V750,路竹,2017-06-08,22.854997,120.259439,0.45018163
C0N050,蚵寮,2017-06-08,23.301,120.1104,0.9219527
72M700,南改鹿草分場,2017-06-08,23.416869,120.283061,0.8287647
C1SA50,利嘉林道,2017-06-08,22.82325,121.009389,5.801148e-09
467550,玉山,2017-06-08,23.487614,120.959522,3.306008e-08
C0A940,金山,2017-06-08,25.223628,121.643967,0.996752
C1V340,大津,2017-06-08,22.888322,120.645986,0.965008
C0W180,七美,2017-06-08,23.219333,119.444892,0.20344758
C1F9C1,白冷,2017-06-08,24.182844,120.929889,0.39831012
K2E710,苗改生物防治研究中心,2017-06-08,24.422861,120.871833,0.040446278
C0N040,蘆竹溝,2017-06-08,23.2344,120.0961,0.96318126
C2W230,畜試所澎湖,2017-06-08,23.628342,119.513206,0.20087013
C0R880,後壁湖,2017-06-08,21.9457,120.7457,0.003838702
C1I280,埔中,2017-06-08,23.820778,120.642594,7.387049e-09
467790,墾丁雷達站,2017-06-08,21.948235,120.808028,0.0065455223
C0W190,望安,2017-06-08,23.380564,119.494075,0.44448438
466881,新北,2017-06-08,24.9593,121.52,0.0003644443
C0Z170,卓溪,2017-06-08,23.3443,121.3029,0.0374092
C0F850,東勢,2017-06-08,24.246428,120.833047,0.75789756
466900,淡水,2017-06-08,25.164889,121.448906,0.00018936537
C0I370,魚池,2017-06-08,23.895703,120.94135,3.2558212e-08
C0C630,大溪,2017-06-08,24.882853,121.265547,7.578372e-09
C0A520,山佳,2017-06-08,24.974944,121.402008,1.4210593e-06
C0I110,竹山,2017-06-08,23.761225,120.688156,3.751325e-06
82H840,茶改南部分場,2017-06-08,23.762528,120.7405,8.980163e-09
C0G660,溪湖,2017-06-08,23.94835,120.479122,0.0007015872
C1T800,洛韶,2017-06-08,24.204558,121.453956,1.8149622e-07
C1T810,慈恩,2017-06-08,24.192044,121.388386,1.1234639e-08
C1E451,象鼻,2017-06-08,24.368617,120.940228,2.0974366e-07
C0AC60,三峽,2017-06-08,24.939025,121.369728,6.3526066e-08
C0I490,萬大林道,2017-06-08,23.928228,121.091411,2.698527e-08
C1I290,豐丘,2017-06-08,23.668178,120.887417,8.107055e-09
C1I320,奧萬大,2017-06-08,23.952956,121.178556,3.7497077e-08
C2M910,嘉義大學,2017-06-08,23.471325,120.485903,0.9845135
C0U770,南澳,2017-06-08,24.44935,121.81022,0.6573993
C0A980,社子,2017-06-08,25.109508,121.469681,0.00027370287
C0V800,六龜,2017-06-08,22.997889,120.633583,0.69650763
C1G9D0,國一S218K,2017-06-08,23.890641,120.493253,3.6196832e-06
C0E570,白沙屯,2017-06-08,24.549447,120.696803,0.003439908
C2F9A0,中竹林,2017-06-08,24.103556,120.751061,0.80493194
C0FA40,臺中電廠,2017-06-08,24.2146,120.4907,0.9601863
C2G9A0,畜試所彰化,2017-06-08,23.86045,120.557964,0.0001767057
C0H9C0,合歡山,2017-06-08,24.143442,121.272547,2.8524802e-08
C0X060,下營,2017-06-08,23.22695,120.256261,0.88092965
G2M350,農試溪口農場,2017-06-08,23.58565,120.408111,0.503503
C0U860,頭城,2017-06-08,24.85323,121.8308,0.9996991
C0R580,南州,2017-06-08,22.48591,120.50274,0.00021151878
C0D430,峨眉,2017-06-08,24.6905,121.017189,5.4157283e-09
C0G780,秀水,2017-06-08,24.03405,120.503869,0.06041735
72N100,臺南農改場,2017-06-08,23.0605,120.342194,0.9117724
C0S900,蘭嶼高中,2017-06-08,22.04909,121.51214,0.013598758
467540,大武,2017-06-08,22.355675,120.903789,0.014838855
C1F9W0,德基,2017-06-08,24.254783,121.190261,5.7063563e-08
C1Z120,壽豐,2017-06-08,23.870853,121.508081,0.9836724
C0W160,烏坵,2017-06-08,24.9944,119.44956,0.99364275
C1I240,外大坪,2017-06-08,23.958697,120.917931,2.1817432e-05
C1I550,國六W023K,2017-06-08,23.979067,120.867742,0.0011248369
C0R870,興海,2017-06-08,21.9752,120.8439,0.0106634665
C0R140,瑪家,2017-06-08,22.682903,120.686639,8.500181e-07
C0A530,坪林,2017-06-08,24.938183,121.70975,0.8357856
C0X260,後壁,2017-06-08,23.366358,120.362326,0.9460714
C0Z230,和平,2017-06-08,24.30717,121.77007,0.9977693
C0G770,福興,2017-06-08,24.041289,120.437669,0.9712677
C0H9A0,神木村,2017-06-08,23.532742,120.843667,5.3114068e-08
C0I460,南投,2017-06-08,23.911469,120.687331,0.94604546
C0I480,梅峰,2017-06-08,24.085272,121.173572,1.7627032e-08
C1V570,吉東,2017-06-08,22.85422,120.5454,0.77332246
C2D740,屯原,2017-06-08,24.067969,121.209389,1.678317e-08
C2A560,福山,2017-06-08,24.776203,121.502811,0.44777346
C0AH30,五分山,2017-06-08,25.07125,121.780794,2.40562e-07
C0FA10,松柏,2017-06-08,24.429115,120.617482,0.9728537
72S200,東改班鳩分場,2017-06-08,22.829528,121.077694,0.93684745
72HA00,中改埔里分場,2017-06-08,23.903208,120.963364,7.6818615e-08
C2H9W0,大坪頂農水,2017-06-08,24.043122,120.932781,1.7485128e-07
C0C650,平鎮,2017-06-08,24.897503,121.214636,1.529592e-08
C0S930,延平,2017-06-08,22.902581,121.084058,0.87285346
C0UA60,樟樹山,2017-06-08,24.41393,121.78325,0.26735887
C1S670,摩天,2017-06-08,23.199503,121.027,1.4811434e-08
C0V630,茄萣,2017-06-08,22.906642,120.182608,0.4990084
466940,基隆,2017-06-08,25.133314,121.740475,0.99841875
C0X050,東河,2017-06-08,23.296598,120.385608,0.97110784
C0R770,保力,2017-06-08,22.071122,120.764111,0.012876034
G2L020,農試嘉義分所,2017-06-08,23.485028,120.473806,0.99683183
C0X240,關子嶺,2017-06-08,23.331169,120.508025,0.87881666
C0I380,集集,2017-06-08,23.828206,120.801467,4.0881957e-08
466990,花蓮,2017-06-08,23.975128,121.613275,0.97553617
C1V220,小關山,2017-06-08,23.154217,120.813603,3.1901696e-08
C1F9G1,慶福山,2017-06-08,24.180853,120.848378,2.3811266e-07
C0Z250,瑞穗林道,2017-06-08,23.49284,121.30688,1.7437104e-07
C0D590,新豐,2017-06-08,24.87068,120.97721,7.580396e-09
C0A870,五指山,2017-06-08,25.132153,121.608692,1.6864185e-07
C0UA50,西帽山,2017-06-08,24.555361,121.802628,5.0455033e-06
C0X160,仁德,2017-06-08,22.968258,120.257689,0.758118
C1H971,六分寮,2017-06-08,23.92507,120.6378,3.3664314e-06
C0W120,西嶼,2017-06-08,23.5626,119.468436,0.42907408
C0G650,員林,2017-06-08,23.946503,120.585597,0.3495461
C0AD50,鶯歌,2017-06-08,24.951533,121.346294,4.706723e-08
C2H9Q0,北東眼山,2017-06-08,24.120939,121.189303,6.106656e-08
C2H9T0,名間竹圍,2017-06-08,23.859914,120.637572,3.7482206e-08
C0S990,山豬窟,2017-06-08,22.318619,120.857372,5.893832e-06
72Q010,高雄農改,2017-06-08,22.709333,120.525889,0.5706944
C0X190,安平,2017-06-08,22.993161,120.152181,0.7002856
C0K400,斗六,2017-06-08,23.720583,120.541127,0.00016943821
12J990,口湖工作站,2017-06-08,23.589978,120.180394,0.9972541
C0O830,北寮,2017-06-08,23.079561,120.495008,0.89081573
C1D410,白蘭,2017-06-08,24.579364,121.079947,3.745389e-09
C0S970,加津林,2017-06-08,22.416211,120.926942,0.013567318
C0D700,關西,2017-06-08,24.7977,121.1732,6.72945e-09
C0M810,里佳,2017-06-08,23.389125,120.716647,8.912203e-08
C0U750,龜山島,2017-06-08,24.841667,121.953133,0.024352612
C0R810,內獅,2017-06-08,22.305064,120.642986,1.1266451e-06
C1M390,龍美,2017-06-08,23.406728,120.654417,3.430281e-07
C2FB60,頭櫃山,2017-06-08,24.129842,120.858925,7.009854e-08
C1H840,國三N238K,2017-06-08,23.841008,120.707711,6.769967e-08
CAQ030,崎峰國小,2017-06-08,22.42565,120.49521,0.00021151878
C2E520,大湖,2017-06-08,24.414939,120.870872,0.009275056
467530,阿里山,2017-06-08,23.508208,120.813242,3.2583433e-08
C1E691,南湖,2017-06-08,24.40135,120.837533,4.222427e-06
C0FA30,梧棲,2017-06-08,24.256003,120.523381,0.9705294
C1V231,高中,2017-06-08,23.134911,120.716711,1.2399642e-05
C0F9V0,新社,2017-06-08,24.200172,120.815806,0.7831964
C0H890,埔里,2017-06-08,23.972169,120.952425,9.405932e-06
C0R690,墾丁,2017-06-08,21.966756,120.810269,0.002489569
C0F0D0,審馬陣,2017-06-08,24.381675,121.4203,2.5266562e-08
C0R820,白鷺,2017-06-08,22.454275,120.666219,4.515555e-08
U2H480,臺大溪頭,2017-06-08,23.670306,120.798194,8.547613e-09
C1V190,南天池,2017-06-08,23.27403,120.91176,1.4570238e-08
K2E360,苗栗農改場,2017-06-08,24.495722,120.829111,0.009878158
CAJ050,海口故事園區,2017-06-08,23.57543,120.14121,0.9972541
C2H9D0,三隻寮,2017-06-08,24.093078,120.861578,1.4708208e-07
C0O990,媽廟,2017-06-08,22.99175,120.293525,0.8379458
C0D480,打鐵坑,2017-06-08,24.849664,121.150789,5.6883147e-09
C0Z220,和平林道,2017-06-08,24.343922,121.656317,7.1140435e-06
C0TA10,花蓮漁港,2017-06-08,23.995322,121.638331,0.9665121
72C440,桃園農改場,2017-06-08,24.950944,121.030583,9.264804e-08
C1E711,馬拉邦山,2017-06-08,24.367306,120.901656,1.7770866e-07
C0SB20,富岡,2017-06-08,22.792467,121.192669,0.7676353
C0D560,竹東,2017-06-08,24.767147,121.057881,7.684745e-09
C0F9U0,南屯,2017-06-08,24.137006,120.637969,0.031786866
C0M720,番路,2017-06-08,23.464657,120.554156,0.98795503
C0F0A0,雪山圈谷,2017-06-08,24.388594,121.236339,3.252966e-08
C1A9N0,四十份,2017-06-08,24.934158,121.593283,0.6826372
C0U760,東澳,2017-06-08,24.52196,121.83318,0.9997841
C0X230,鹽水,2017-06-08,23.272621,120.247641,0.916482
C2H9H0,苗改南投蜂場,2017-06-08,23.852589,120.693481,0.0047673793
C0R950,萬隆國小,2017-06-08,22.507667,120.587817,0.17449038
C0V370,古亭坑,2017-06-08,22.893178,120.401947,0.50972754
C1I340,新興橋,2017-06-08,23.563333,120.868728,5.912523e-08
C0SA80,土坂,2017-06-08,22.453108,120.887572,0.010924655
C0R160,鹽埔,2017-06-08,22.739558,120.530778,0.57765
C0AC40,大屯山,2017-06-08,25.175675,121.522408,1.1117488e-07
466850,五分山雷達站,2017-06-08,25.071182,121.781205,2.2513501e-07
C2H9L0,馬烈霸,2017-06-08,24.1512,121.201772,6.146796e-08
C1AI50,國三N016K,2017-06-08,25.034164,121.619664,0.00057793583
C1V600,藤枝,2017-06-08,23.071961,120.757042,5.3190004e-08
C1E601,南勢,2017-06-08,24.572486,120.734842,1.3428143e-05
C0Z180,新城,2017-06-08,24.03946,121.60454,0.9786275
C0O980,新市,2017-06-08,23.061614,120.298197,0.9177553
C0K420,西螺,2017-06-08,23.800407,120.467394,1.3270843e-05
C0Z050,佳心,2017-06-08,23.34567,121.21316,4.1917752e-07
C0AD30,蘆洲,2017-06-08,25.086594,121.472331,0.0015225384
C0V610,梓官,2017-06-08,22.760558,120.267211,0.14897119
K2F750,種苗改良場,2017-06-08,24.225972,120.800917,0.8557502
C0UA80,大溪漁港,2017-06-08,24.941801,121.902955,0.9981798
C1AI60,國一39K邊坡,2017-06-08,25.064361,121.383836,6.536021e-07
C0W150,金寧,2017-06-08,24.457703,118.328989,0.9936703
C0R960,內埔,2017-06-08,22.608483,120.570714,0.6362519
V2C250,八德合作社,2017-06-08,24.93775,121.266389,2.2769038e-08
C2H9S0,龍南,2017-06-08,23.953536,120.833183,1.3580904e-08
C0AH40,平等,2017-06-08,25.129142,121.577086,4.4021835e-06
C0R540,佳冬,2017-06-08,22.419456,120.552375,2.0414263e-05
466950,彭佳嶼,2017-06-08,25.627975,122.079744,0.99898064
C0A890,雙溪,2017-06-08,25.036003,121.864242,0.99834496
C0C480,桃園,2017-06-08,24.992425,121.323172,3.827696e-07
C0AH50,林口,2017-06-08,25.072181,121.38084,4.624715e-07
A2K360,水試臺西試驗場,2017-06-08,23.717231,120.190522,0.9702801
B2N890,畜試所,2017-06-08,23.058972,120.336406,0.9117724
C2M960,外寮,2017-06-08,23.562643,120.665688,2.8993075e-08
C0F9S0,烏日,2017-06-08,24.107058,120.624103,0.92389166
C0C490,八德,2017-06-08,24.928708,121.283289,2.2453223e-08
C0R190,赤山,2017-06-08,22.592333,120.614306,0.6416566
C0T820,天祥,2017-06-08,24.179597,121.495639,0.99786496
C1F9E1,龍安,2017-06-08,24.1605,120.831961,0.62909317
C0V820,小林,2017-06-08,23.148408,120.63325,0.33144256
C2G870,芳苑,2017-06-08,23.922303,120.320025,0.9804727
C0E850,大河,2017-06-08,24.618069,120.948578,2.0040634e-06
C1U670,寒溪,2017-06-08,24.634,121.71691,0.99823487
C0N020,城西,2017-06-08,23.0568,120.0956,0.7002856
C1Z110,三棧,2017-06-08,24.11557,121.60501,0.049304124
C0R280,檳榔,2017-06-08,22.076078,120.836777,0.0075827907
C2H9J0,中台,2017-06-08,23.9996,120.938739,1.3076138e-07
C0F9L0,后里,2017-06-08,24.310436,120.729725,0.8903285
C0D540,橫山,2017-06-08,24.71116,121.11693,4.5416986e-09
C1D420,太閣南,2017-06-08,24.632808,121.160575,4.0494683e-09
C1E770,公館,2017-06-08,24.526914,120.830806,0.034885503
CAN130,水試所海水繁養殖中心,2017-06-08,23.120802,120.07968,0.9957204
C1I430,翠華,2017-06-08,24.191961,121.224339,1.6147762e-08
C1M400,菜瓜坪,2017-06-08,23.251928,120.576103,0.4741455
C0G730,二林,2017-06-08,23.903325,120.376081,0.52175725
72M360,南改義竹分場,2017-06-08,23.360694,120.279361,0.8476632
V2K620,麥寮合作社,2017-06-08,23.753836,120.294783,0.95527804
C0Z070,舞鶴,2017-06-08,23.46811,121.37407,0.00012356011
C0B040,大武崙,2017-06-08,25.166676,121.706993,0.99800533
C1Z030,紅葉,2017-06-08,23.493119,121.338806,0.96654963
C1I050,丹大,2017-06-08,23.753747,121.141147,1.0674239e-08
C0I080,信義,2017-06-08,23.689694,120.851036,1.6481665e-06
C2M920,朴子農改,2017-06-08,23.469889,120.259383,0.8292751
C2A880,福隆,2017-06-08,25.017842,121.942083,0.99644595
C0Z160,鳳林,2017-06-08,23.746114,121.453411,0.8585435
C0V210,復興,2017-06-08,23.222403,120.806089,0.008055561
C0H990,昆陽,2017-06-08,24.121322,121.273642,1.8739128e-08
C0R741,獅子,2017-06-08,22.202308,120.705236,0.008831784
C0S710,鹿野,2017-06-08,22.917711,121.122994,0.0058498695
C0I530,小奇萊,2017-06-08,24.131764,121.295717,1.9471047e-08
C2K630,荷苞,2017-06-08,23.657717,120.595144,0.3177614
C0Z080,富源,2017-06-08,23.587642,121.378225,0.36438042
467441,高雄,2017-06-08,22.7304,120.3125,0.13155665
C0SB10,美和,2017-06-08,22.682078,121.060236,0.79254735
C2K620,馬光農場,2017-06-08,23.721453,120.378864,0.0014038875
C1I140,卡奈托灣,2017-06-08,23.754364,121.087872,9.439247e-09
C0I520,玉山風口,2017-06-08,23.470489,120.955994,3.9778858e-08
C1G691,下水埔,2017-06-08,23.816114,120.5676,8.027604e-07
C0X110,臺南市南區,2017-06-08,22.961189,120.188378,0.758118
C0V680,仁武,2017-06-08,22.701083,120.347722,0.0044420576
C2G840,北斗,2017-06-08,23.877586,120.514222,2.5242946e-06
C0R900,竹坑,2017-06-08,22.1385,120.7022,0.00035621307
C0K250,崙背,2017-06-08,23.75555,120.318925,0.955278
C0G860,社頭,2017-06-08,23.897647,120.5862,0.000248446
C0X150,安定,2017-06-08,23.102614,120.227839,0.8504253
C0R590,里港,2017-06-08,22.77919,120.49459,0.5283264
C0E610,馬都安,2017-06-08,24.451272,120.930192,1.9837419e-06
C0E550,明德,2017-06-08,24.583486,120.885411,3.9079376e-05
C0R150,三地門,2017-06-08,22.709889,120.639944,0.991928
C0G910,花壇,2017-06-08,24.032076,120.549461,0.025742322
C1D400,鳥嘴山,2017-06-08,24.71909,121.28387,3.010997e-09
C0K500,元長,2017-06-08,23.64981,120.315024,0.97780216
C0F0B0,石岡,2017-06-08,24.276061,120.777644,0.82518643
C2V250,甲仙,2017-06-08,23.080106,120.591758,0.72390586
C0SA20,金崙山,2017-06-08,22.567419,120.959667,6.938421e-07
C0V350,溪埔,2017-06-08,22.738578,120.446797,0.12923087
C0M660,溪口,2017-06-08,23.604131,120.403569,0.503503
C1S880,壽卡,2017-06-08,22.238911,120.858903,1.4663516e-07
72D680,桃改新埔分場,2017-06-08,24.834444,121.066111,6.596421e-09
