站號,站名,日期,lat,lon,BLBTSLS
C0R710,龍磐,2017-03-01,21.931672,120.838942,0.9996528
C1F9D1,白毛台,2017-03-01,24.158325,120.886933,9.762848e-10
C0G940,竹塘,2017-03-01,23.848253,120.386764,2.2034305e-09
467590,恆春,2017-03-01,22.003897,120.746339,0.9979865
C1O850,環湖,2017-03-01,23.148617,120.418633,2.8575964e-10
C0U710,太平山,2017-03-01,24.505486,121.525656,1.8932049e-08
C0E820,獅潭,2017-03-01,24.539133,120.920042,2.739218e-09
C0V880,興達,2017-03-01,22.8778,120.2127,4.1037068e-10
C0S890,關山,2017-03-01,23.0395,121.175017,1.0502273e-09
C0SB30,新蘭,2017-03-01,22.869214,121.223228,1.1648928e-09
C2R970,屏科大,2017-03-01,22.648275,120.619247,3.2570304e-09
K2F750,種苗繁殖,2017-03-01,24.225972,120.800917,1.094921e-09
C1Z130,銅門,2017-03-01,23.965694,121.492842,1.9385733e-09
C0AD40,土城,2017-03-01,24.973208,121.445169,6.3301306e-09
CAN140,六官養殖協會,2017-03-01,23.22881,120.29962,4.127492e-10
C0X180,山上,2017-03-01,23.0757,120.363253,2.9379885e-10
C0F9Z0,雪山東峰,2017-03-01,24.388792,121.268675,2.0467771e-08
C1M480,獨立山,2017-03-01,23.537022,120.607797,5.954493e-10
C0X220,學甲,2017-03-01,23.230367,120.182187,9.495291e-10
467650,日月潭,2017-03-01,23.881325,120.90805,2.1569497e-09
C0K600,箔子寮,2017-03-01,23.6197,120.14,2.064066e-08
C0G830,埤頭,2017-03-01,23.866003,120.452806,7.536996e-10
C0S950,七塊厝,2017-03-01,22.954453,121.229922,1.1581514e-09
467110,金門,2017-03-01,24.407306,118.289281,1.136845e-07
C0AH80,深坑,2017-03-01,25.002703,121.628328,6.32622e-09
467990,馬祖,2017-03-01,26.169269,119.923419,3.257275e-07
C0A970,三貂角,2017-03-01,25.007606,122.002058,1.9648255e-08
C2D730,寶山農場,2017-03-01,24.732444,120.976153,3.1167786e-09
C0K430,褒忠,2017-03-01,23.690938,120.303634,1.4914332e-09
467480,嘉義,2017-03-01,23.495925,120.432906,3.194154e-10
C2E540,後龍,2017-03-01,24.606489,120.783933,8.712077e-09
C0V400,阿公店,2017-03-01,22.804194,120.355528,8.02358e-10
C0R440,大漢山,2017-03-01,22.405264,120.753181,2.1444515e-08
C0K280,四湖,2017-03-01,23.630414,120.227125,1.177526e-08
C1F9B1,桐林,2017-03-01,24.066172,120.735194,4.4710108e-10
C2H9U0,鳳鵬,2017-03-01,23.763919,120.788061,5.843601e-10
C0K390,土庫,2017-03-01,23.679029,120.395574,5.7694766e-10
C1I450,望鄉山,2017-03-01,23.594153,120.944286,1.0674341e-08
C0E910,海埔,2017-03-01,24.648767,120.772435,8.829344e-09
B2E890,畜試北區分所,2017-03-01,24.527806,120.770972,2.9487968e-09
C0R750,四林格山,2017-03-01,22.076989,120.802439,2.2958132e-07
C0F0C0,中坑,2017-03-01,24.248517,120.903319,2.1840618e-09
C1I121,大鞍,2017-03-01,23.678381,120.760017,3.8999253e-09
72U480,花改蘭陽分場,2017-03-01,24.686306,121.716583,1.5214032e-09
C0A770,科教館,2017-03-01,25.096356,121.516507,5.481888e-09
C0AJ60,六塊厝,2017-03-01,25.24,121.4481,9.833143e-08
C0R620,墾雷,2017-03-01,21.900836,120.855269,0.8424687
467420,永康,2017-03-01,23.038386,120.2367,7.0454886e-10
467300,東吉島,2017-03-01,23.25695,119.667467,0.9233135
C0I410,名間,2017-03-01,23.837053,120.701447,4.944854e-10
A2C560,農工中心,2017-03-01,24.985917,121.239833,1.885414e-08
C0V740,旗山,2017-03-01,22.888614,120.483597,1.356702e-09
C0Z061,玉里,2017-03-01,23.3215,121.339656,1.7533904e-09
C0S840,南田,2017-03-01,22.279725,120.889208,0.033639587
C1I470,杉林溪,2017-03-01,23.639517,120.786444,4.8130833e-09
C1X040,東原,2017-03-01,23.291597,120.463822,2.9856215e-10
C0R660,枋寮,2017-03-01,22.367722,120.590647,3.1028712e-08
C1R120,上德文,2017-03-01,22.763272,120.704442,1.0143337e-09
C0K450,大埤,2017-03-01,23.646074,120.431537,3.667372e-10
C0UA00,土場,2017-03-01,24.576533,121.495333,7.3246853e-09
467080,宜蘭,2017-03-01,24.763975,121.756528,3.022528e-09
C0N030,四草,2017-03-01,23.0235,120.1116,5.9669875e-10
C0V650,彌陀,2017-03-01,22.783806,120.246361,9.814416e-10
C0D660,新竹市東區,2017-03-01,24.798681,120.986942,5.4259126e-09
82S580,茶改東部分場,2017-03-01,22.907694,121.130139,1.1333897e-09
C0SB40,興隆,2017-03-01,22.913661,121.257469,1.1464107e-09
C0C710,大溪永福,2017-03-01,24.892936,121.324975,9.36629e-09
C0FA20,溫寮,2017-03-01,24.372177,120.583125,1.0783453e-08
C0V640,湖內,2017-03-01,22.887139,120.2445,4.0808526e-10
C0R910,下寮,2017-03-01,22.3929,120.5548,3.1028712e-08
C0Z020,明里,2017-03-01,23.208717,121.262342,2.087376e-09
C0M770,嘉義梅山,2017-03-01,23.585398,120.555587,3.5320338e-10
G2F820,農業試驗所,2017-03-01,24.031261,120.688133,4.6026358e-10
C0C660,楊梅,2017-03-01,24.912375,121.143047,1.0697617e-08
C1E511,新開,2017-03-01,24.347703,120.827019,8.9079627e-10
G2F820,農試所(霧峰),2017-03-01,24.031261,120.688133,4.6026358e-10
C1I070,和社,2017-03-01,23.591131,120.888861,8.9752267e-10
C2F000,大肚,2017-03-01,24.15295,120.572117,5.988902e-10
C1S850,豐南,2017-03-01,23.122139,121.262389,1.5563538e-09
C2A920,富貴角,2017-03-01,25.263783,121.565258,7.084682e-08
CAH030,茶改場竹圍站,2017-03-01,23.860083,120.637528,6.7576406e-10
C0T960,光復,2017-03-01,23.660694,121.424964,1.153348e-09
C0F9M0,豐原,2017-03-01,24.254322,120.720692,7.881924e-10
C0R720,旭海,2017-03-01,22.205403,120.887614,1.1883381e-05
C0V710,苓雅,2017-03-01,22.622742,120.330669,3.7431893e-09
C0C740,觀音工業區,2017-03-01,25.064764,121.114856,2.2477523e-07
CAC040,拉拉山,2017-03-01,24.699317,121.427133,3.1275828e-08
C0V790,萬山,2017-03-01,22.905944,120.688056,7.885728e-10
U2HA30,臺大和社,2017-03-01,23.590856,120.888864,8.9752267e-10
C0AJ90,澳底,2017-03-01,25.0552,121.9253,5.301488e-08
C0Z100,東華,2017-03-01,23.89525,121.549833,1.857925e-09
C0G970,三豐,2017-03-01,23.882,120.2895,3.478718e-08
V2K610,大庄合作社,2017-03-01,23.8068,120.367939,1.7171662e-09
C0V900,汕尾,2017-03-01,22.4782,120.4151,5.4006244e-10
C1R630,龍泉,2017-03-01,22.66701,120.59091,1.4137213e-08
C1AC50,關渡,2017-03-01,25.133486,121.469331,1.4530941e-08
C0F9I0,神岡,2017-03-01,24.272481,120.658314,1.3768742e-09
C0K460,斗南,2017-03-01,23.678734,120.478359,3.6987943e-10
467410,臺南,2017-03-01,22.993239,120.204772,5.8351807e-10
C2O810,曾文,2017-03-01,23.219681,120.497328,2.6839464e-10
467280,後龍,2017-03-01,24.648563,120.831834,8.631956e-09
C1F9J1,清水林,2017-03-01,24.071242,120.820419,7.84621e-10
C2A650,火燒寮,2017-03-01,25.002719,121.742892,1.7841856e-08
466930,竹子湖,2017-03-01,25.162078,121.544547,1.4175528e-08
C1I220,樟湖,2017-03-01,23.905333,120.846983,1.794057e-09
C0I390,仁愛,2017-03-01,24.022122,121.132206,1.5498427e-09
C0Z300,東里,2017-03-01,23.26853,121.30547,1.9894835e-09
C1V590,新發,2017-03-01,23.057019,120.646064,1.1053835e-09
C0K510,水林,2017-03-01,23.572924,120.24597,9.734418e-10
72S590,東改賓朗果園,2017-03-01,22.813889,121.071278,1.377234e-09
82A750,茶改北部分場,2017-03-01,24.955778,121.631222,2.6366441e-08
C1A750,石碇服務區,2017-03-01,25.00872,121.646242,1.3775526e-08
C0X300,鹿寮,2017-03-01,23.386047,120.477331,3.5722372e-10
G2AI50,關渡,2017-03-01,25.11575,121.492,3.7347046e-08
C0K590,雲林東勢,2017-03-01,23.674192,120.255721,1.1082503e-09
C0A570,桶後,2017-03-01,24.848222,121.597992,9.309492e-09
C1S800,華源,2017-03-01,22.657883,121.02325,2.1932593e-08
C0G720,溪州,2017-03-01,23.851589,120.499093,7.6257234e-10
C1V160,達卡努瓦,2017-03-01,23.279811,120.705319,1.0284222e-09
C2M410,馬頭山,2017-03-01,23.324361,120.582017,3.0904998e-10
C0V850,蚵仔寮,2017-03-01,22.7256,120.2527,5.616706e-09
C0S740,池上,2017-03-01,23.119628,121.209469,1.456012e-09
C1V390,尖山,2017-03-01,22.813153,120.367789,6.809238e-10
C0AH70,松山,2017-03-01,25.04871,121.55042,5.475493e-09
C0N010,鯤鯓國小,2017-03-01,23.1879,120.0889,1.1519123e-09
C0R550,新埤,2017-03-01,22.467947,120.582894,5.0416415e-10
C0SA60,知本（水試所）,2017-03-01,22.702394,121.082761,4.695219e-08
C0T9I0,豐濱,2017-03-01,23.583897,121.514806,1.191333e-09
C0UB00,淡江大學蘭陽校園,2017-03-01,24.823239,121.730383,9.593014e-09
C0W240,九宮,2017-03-01,24.423753,118.240186,1.1538297e-07
C0T9N0,富里,2017-03-01,23.171639,121.249378,1.5182174e-09
U2HA50,臺大竹山,2017-03-01,23.756972,120.681556,3.9327902e-10
C0V840,鳳鼻頭,2017-03-01,22.5083,120.3591,5.78774e-10
C0X140,西港,2017-03-01,23.125608,120.203108,4.7271953e-10
72D080,桃改五峰分場,2017-03-01,24.612194,121.157167,4.073335e-09
C2H9P0,伊拿谷,2017-03-01,23.963211,121.088264,1.2706298e-09
C2H9F0,柑林,2017-03-01,24.018658,120.847072,4.709071e-10
C0TA20,加灣,2017-03-01,24.082025,121.608944,4.9256252e-09
C0V530,阿蓮,2017-03-01,22.883208,120.327508,1.520214e-09
C1O880,關山,2017-03-01,23.173397,120.594092,3.3893266e-10
C0E791,卓蘭,2017-03-01,24.3126,120.8244,8.8327423e-10
C1I030,武界,2017-03-01,23.913225,121.052483,1.3287669e-09
C0R520,崁頂,2017-03-01,22.514781,120.506914,2.9864031e-09
C0R341,牡丹,2017-03-01,22.130036,120.792639,0.048004907
C0R930,萬丹,2017-03-01,22.5885,120.4851,1.011785e-09
C0S760,紅石,2017-03-01,23.069131,121.126219,1.677357e-08
C1M610,石磐龍,2017-03-01,23.496606,120.663506,1.9900035e-09
C0UA10,鴛鴦湖,2017-03-01,24.590269,121.412228,1.3710152e-08
V2C260,八德蔬果,2017-03-01,24.978508,121.281819,8.2369995e-09
C0R800,丹路,2017-03-01,22.204481,120.750989,0.0026204924
C0G920,永靖,2017-03-01,23.924703,120.547533,7.531995e-10
C2M950,太和,2017-03-01,23.538372,120.702961,2.7874059e-09
C1A630,下盆,2017-03-01,24.771003,121.538622,9.080647e-09
B2N890,畜產試驗所,2017-03-01,23.058972,120.336406,5.195583e-10
C0UA30,白嶺,2017-03-01,24.527819,121.519031,1.2372467e-08
C1V580,溪南(特生中心),2017-03-01,23.084972,120.788475,3.7531693e-09
C1T970,大農,2017-03-01,23.615233,121.413331,1.2709449e-09
E2S960,林試太麻里2,2017-03-01,22.598014,120.989761,4.774801e-08
C0R650,竹田,2017-03-01,22.58486,120.54344,8.182273e-09
C1H900,清流,2017-03-01,24.080775,120.962997,1.27856e-09
C1C510,水尾,2017-03-01,24.940081,121.087161,2.8227669e-08
C0F9X0,大雅(中科園區),2017-03-01,24.21528,120.62445,1.023128e-09
C0SB60,白守蓮,2017-03-01,23.126769,121.401914,1.4400016e-09
C0O970,虎頭埤,2017-03-01,23.021375,120.347878,3.7610498e-10
C0C730,中大臨海站,2017-03-01,24.966126,121.008581,7.556998e-08
C0X250,新營,2017-03-01,23.310689,120.316681,3.8203216e-10
C0V700,三民,2017-03-01,22.645017,120.311233,2.6299076e-09
C0U870,大礁溪,2017-03-01,24.791042,121.675047,8.70809e-09
C0E870,高鐵苗栗,2017-03-01,24.60725,120.826094,8.63571e-09
A2K570,古坑花卉中心,2017-03-01,23.63353,120.55239,3.736097e-10
C0M860,新美,2017-03-01,23.338017,120.683169,4.291004e-10
C1E701,八卦,2017-03-01,24.491756,120.927619,3.604386e-09
C0I420,國姓,2017-03-01,24.037803,120.855072,4.8307486e-10
C2D720,關西工作站,2017-03-01,24.757275,121.184792,2.7413505e-09
C0S960,香蘭,2017-03-01,22.587569,120.993375,4.774801e-08
C0R260,春日,2017-03-01,22.370361,120.628306,1.5988e-08
72G600,臺中農改場,2017-03-01,24.003028,120.534389,8.094226e-10
C0Z210,瑞穗,2017-03-01,23.5239,121.39021,1.2644672e-09
C0M820,達邦,2017-03-01,23.453994,120.749517,1.3853856e-09
C0V860,南寮,2017-03-01,22.7616,120.2339,5.616706e-09
C0G740,大城,2017-03-01,23.852487,120.320935,3.369574e-08
C0R920,塭仔,2017-03-01,22.4169,120.5197,3.0974782e-08
C0R470,高樹,2017-03-01,22.826389,120.600806,1.5788319e-07
C0R680,佳樂水,2017-03-01,21.993578,120.861633,0.9986769
C1O870,大棟山,2017-03-01,23.31157,120.52226,1.196021e-09
C0D360,梅花,2017-03-01,24.678347,121.208558,2.2835005e-09
C0Z190,富世,2017-03-01,24.14743,121.6297,9.137182e-09
C0AI10,屈尺,2017-03-01,24.92184,121.54475,1.5800287e-08
B2U990,畜試東區分所,2017-03-01,24.669039,121.832561,1.8186009e-09
C0SB80,長濱漁港,2017-03-01,23.313644,121.459994,1.6006695e-09
C0R240,來義,2017-03-01,22.527306,120.625111,1.2326552e-09
C0V910,大樹,2017-03-01,22.684645,120.432803,9.337798e-10
C1R610,西大武山,2017-03-01,22.617719,120.7322,2.0558934e-08
C0G900,線西,2017-03-01,24.143358,120.443536,6.972181e-09
C0M700,竹崎,2017-03-01,23.526178,120.555508,2.8405603e-10
C2E880,三義,2017-03-01,24.405478,120.749819,1.8095114e-09
C0C720,竹圍,2017-03-01,25.112692,121.239824,3.7347046e-08
C0F9P0,清水,2017-03-01,24.312297,120.562242,7.2796573e-09
C0Z150,吉安光華,2017-03-01,23.930925,121.595153,1.7495253e-09
C1D640,外坪(五指山),2017-03-01,24.644447,121.090961,2.5158207e-09
C0F9O0,潭子,2017-03-01,24.213106,120.703933,7.211233e-10
C2H9R0,卓社,2017-03-01,23.887894,121.000086,1.6101958e-09
72T250,花蓮農改場,2017-03-01,23.975222,121.563889,2.317117e-09
C0E780,銅鑼,2017-03-01,24.489681,120.790853,3.160901e-09
C1T950,太安,2017-03-01,23.666719,121.370128,2.6885806e-08
C0E830,苑裡,2017-03-01,24.439714,120.653053,1.2308585e-08
467270,田中,2017-03-01,23.873803,120.581286,4.400284e-10
C0SA10,檳榔四格山,2017-03-01,22.810031,121.109308,1.4035219e-09
C1T830,布洛灣,2017-03-01,24.17184,121.57127,1.3116248e-08
C0F970,大坑,2017-03-01,24.173142,120.722289,5.1968113e-10
C1U920,思源,2017-03-01,24.393125,121.347214,1.0139086e-08
C0A931,三和,2017-03-01,25.233153,121.595236,3.4120582e-08
C0I010,廬山,2017-03-01,24.033311,121.181808,2.9486844e-09
C2M940,日野賀,2017-03-01,23.434056,120.727169,1.85095e-09
C0R860,鼻頭,2017-03-01,22.1043,120.8979,0.95395404
C0UB20,壯圍,2017-03-01,24.7359,121.8163,1.4594485e-09
C0R790,九棚,2017-03-01,22.14195,120.889281,0.37001005
C0W110,東莒,2017-03-01,25.9652,119.98069,2.971896e-07
C1U930,粉鳥林,2017-03-01,24.497088,121.842479,1.6164177e-09
C1I211,蘆竹湳,2017-03-01,23.934019,120.811994,6.832278e-10
C0S830,長濱,2017-03-01,23.286817,121.411975,1.9443018e-09
C1F9F1,伯公龍,2017-03-01,24.272392,120.849047,1.354481e-09
C0E810,西湖,2017-03-01,24.562947,120.7485,4.0074866e-08
C1I440,新高口,2017-03-01,23.478744,120.878939,7.932785e-09
C0O840,王爺宮,2017-03-01,23.222064,120.40085,3.3080924e-10
C0T9G0,鳳林山,2017-03-01,23.735269,121.420131,3.8152845e-09
C0X080,佳里,2017-03-01,23.173039,120.145086,1.1519123e-09
C0FB70,大甲溪埔,2017-03-01,24.370625,120.620067,1.0510776e-08
C0Z310,清水斷崖,2017-03-01,24.218294,121.689142,1.0983561e-08
C0M680,太保,2017-03-01,23.455062,120.331455,2.982144e-10
C1S820,金峰,2017-03-01,22.590969,120.933236,1.837675e-08
C0AD10,八里,2017-03-01,25.150211,121.403947,3.7347046e-08
C2K240,草嶺,2017-03-01,23.59555,120.693461,2.1146418e-09
C1SA70,都蘭,2017-03-01,22.87794,121.226881,1.1464107e-09
C0K440,二崙,2017-03-01,23.772797,120.408944,7.12514e-10
C1A760,坪林交控,2017-03-01,24.94284,121.713442,1.3942161e-08
C0F9N0,大里,2017-03-01,24.092464,120.701378,4.2016646e-10
C0SA90,達仁林場,2017-03-01,22.264347,120.823972,2.3110197e-06
C1R290,石門山,2017-03-01,22.112611,120.756597,5.024659e-05
42HA10,萬大發電廠,2017-03-01,23.978875,121.139639,1.4881825e-09
C0R890,山海,2017-03-01,21.9878,120.7091,0.99453944
C0T9A0,月眉山,2017-03-01,23.809928,121.539828,2.985862e-09
C0AC70,信義,2017-03-01,25.037822,121.564597,5.475493e-09
C0K560,棋山,2017-03-01,23.68645,120.603417,3.7641215e-10
C2FB50,出雲,2017-03-01,24.206469,120.902794,2.4819145e-09
C1Z240,中平林道,2017-03-01,23.42115,121.26763,1.9785519e-08
U2H480,溪頭,2017-03-01,23.670306,120.798194,2.2788014e-09
C0M880,好美里,2017-03-01,23.3364,120.138,7.3617135e-10
C0T9E0,大坑,2017-03-01,23.880628,121.581981,2.763141e-09
C0K530,臺西,2017-03-01,23.701547,120.197559,1.1019485e-08
C1E900,國一N128K,2017-03-01,24.560997,120.844186,4.705895e-09
C0AJ50,水湳洞,2017-03-01,25.123695,121.862238,6.877838e-08
C0AI20,白沙灣,2017-03-01,25.283128,121.519058,9.369241e-08
C0A860,大坪,2017-03-01,25.165914,121.632969,1.2782607e-08
C1U850,觀音海岸,2017-03-01,24.38319,121.77856,2.6617506e-09
C2K610,草嶺石壁,2017-03-01,23.602469,120.707731,2.1801618e-09
C0U950,鶯子嶺,2017-03-01,24.89754,121.79244,2.3077277e-08
C0O900,善化,2017-03-01,23.112883,120.297219,5.4317606e-10
C0K550,蔦松,2017-03-01,23.514319,120.229736,1.0988438e-09
E2P980,林試六龜中心,2017-03-01,22.991703,120.645722,5.5451294e-10
C0E590,通霄,2017-03-01,24.471892,120.704622,1.3824272e-08
C1I310,西巒,2017-03-01,23.754486,120.883956,1.9781812e-09
C0A550,泰平,2017-03-01,24.971197,121.823711,2.5731456e-08
C0I360,水里,2017-03-01,23.812553,120.849792,5.542644e-10
C0R830,高士,2017-03-01,22.121825,120.836781,4.0558157e-06
C1I101,溪頭,2017-03-01,23.661789,120.807647,5.4075433e-09
C0AJ20,野柳,2017-03-01,25.20703,121.690021,4.0903014e-08
C0B060,暖暖,2017-03-01,25.0957,121.7403,1.6808126e-08
C1H920,長豐,2017-03-01,24.102039,120.879897,1.0395056e-09
C0V360,內門,2017-03-01,22.975481,120.466769,2.9570976e-10
C0R850,林邊,2017-03-01,22.4634,120.5339,5.264231e-10
C0E930,龍鳳,2017-03-01,24.700034,120.859125,1.8014473e-08
C0U910,冬山,2017-03-01,24.63373,121.7937,1.8186009e-09
C1E721,泰安,2017-03-01,24.489017,120.968036,7.16379e-09
82H320,茶改中部分場,2017-03-01,23.875611,120.913583,1.7665156e-09
C0M750,布袋,2017-03-01,23.380878,120.167789,5.741341e-10
C1S860,利嘉,2017-03-01,22.809417,121.050528,8.607738e-09
72C440,桃園農改,2017-03-01,24.950944,121.030583,3.0490376e-08
E2S980,林試太麻里1,2017-03-01,22.598922,120.980044,2.964583e-08
C0X170,關廟,2017-03-01,22.963017,120.327797,5.915879e-10
C0V720,林園,2017-03-01,22.507747,120.394511,5.598649e-10
C1I510,線浸林道,2017-03-01,23.761508,120.832956,2.9541392e-09
C0D690,外湖,2017-03-01,24.917735,120.968711,3.3265017e-08
C0C750,新興坑尾,2017-03-01,25.0061,121.0971,6.241868e-08
B2Q810,畜試南區分所,2017-03-01,21.945583,120.802167,0.99859565
C0S790,金崙,2017-03-01,22.538122,120.966875,1.8542796e-08
C0AH90,福山植物園,2017-03-01,24.760717,121.58135,2.6963969e-08
C0I540,奇萊稜線,2017-03-01,24.109231,121.326456,1.9474388e-08
C0M850,表湖,2017-03-01,23.24186,120.64166,5.840247e-10
C0S770,大溪山,2017-03-01,22.478475,120.943325,2.314812e-08
C0AG80,中和,2017-03-01,24.991622,121.491792,6.3266663e-09
C0T790,大禹嶺,2017-03-01,24.186117,121.316086,1.381842e-08
C0T9B0,水源,2017-03-01,23.991861,121.537169,3.2442706e-09
C0R840,牡丹池山,2017-03-01,22.168389,120.841225,5.925234e-06
C1I131,桶頭,2017-03-01,23.641944,120.654117,4.3707318e-10
CAL110,布袋國中,2017-03-01,23.35893,120.18026,5.741341e-10
467571,新竹,2017-03-01,24.827853,121.014219,1.2895572e-08
C0Z290,赤柯山,2017-03-01,23.36893,121.38293,8.554463e-09
C0X280,將軍,2017-03-01,23.214999,120.13577,9.55725e-10
C0S690,太麻里,2017-03-01,22.60902,120.98533,8.705549e-09
C0U880,北關,2017-03-01,24.9072,121.8734,1.5376683e-08
C1H860,瑞岩,2017-03-01,24.123772,121.18345,1.0289683e-08
C0G810,埔心,2017-03-01,23.947633,120.525456,7.531995e-10
C0U970,大福,2017-03-01,24.80064,121.81389,3.0016103e-09
C2H9N0,仁愛東眼,2017-03-01,24.026875,121.1205,2.4762354e-09
C1E670,南礦,2017-03-01,24.538278,121.002836,5.951214e-09
C0M520,東後寮,2017-03-01,23.369908,120.248065,5.748496e-10
C1E461,松安,2017-03-01,24.397972,120.986022,5.199541e-09
72G600,臺中農改,2017-03-01,24.003028,120.534389,8.094226e-10
C2N160,西拉雅風管處,2017-03-01,23.189481,120.335297,4.2885165e-10
C2M970,碧湖,2017-03-01,23.568632,120.624165,1.846021e-09
C0A640,石碇,2017-03-01,24.993969,121.662917,1.3346554e-08
E2S960,林試太麻里2,2017-03-01,22.598,120.99775,5.3789794e-08
C0F9Y0,桃山,2017-03-01,24.432739,121.303808,1.86465e-08
C1I020,萬大,2017-03-01,23.979817,121.132261,1.5736278e-09
C0U940,羅東,2017-03-01,24.68184,121.74934,1.4918144e-09
C0M650,朴子,2017-03-01,23.43463,120.23902,5.333482e-10
C1I500,大尖山,2017-03-01,23.858572,120.994889,5.0734585e-09
C0G820,田尾,2017-03-01,23.901669,120.509389,7.531995e-10
E2K600,四湖植物園,2017-03-01,23.676986,120.163433,1.1751679e-08
C0S730,綠島,2017-03-01,22.6672,121.47533,4.8478465e-05
12Q970,東港工作站,2017-03-01,22.479997,120.466058,5.4010985e-10
C0E430,南庄,2017-03-01,24.601775,121.000214,2.7530722e-09
C1TA00,太魯閣,2017-03-01,24.15773,121.6236,9.082865e-09
466920,臺北,2017-03-01,25.037658,121.514853,5.475493e-09
C0R600,舊泰武,2017-03-01,22.588194,120.664944,7.191207e-10
C1I260,北坑,2017-03-01,23.9246,121.006903,7.2474843e-10
466910,鞍部,2017-03-01,25.182586,121.529731,3.23898e-08
C1I230,九份二山,2017-03-01,23.961944,120.845,1.1529124e-09
C2A660,瑞芳,2017-03-01,25.113169,121.801147,6.068513e-08
C0R270,琉球嶼,2017-03-01,22.332244,120.362236,1.1230525e-08
C1T990,高寮,2017-03-01,23.394239,121.356808,1.3494191e-09
C0G620,芬園,2017-03-01,24.015678,120.6213,4.6911597e-10
C1Z140,荖溪,2017-03-01,23.890575,121.45964,1.959982e-08
C1I201,中心崙,2017-03-01,23.728722,120.712097,7.409115e-10
C1I400,凌霄,2017-03-01,24.018778,121.004456,2.379806e-09
C1M640,十字,2017-03-01,23.492153,120.753683,3.0841298e-09
G2P820,農試鳳山分所,2017-03-01,22.646611,120.356083,2.24521e-09
C0Z270,蕃薯寮,2017-03-01,23.73835,121.540108,2.8004086e-09
C0F9Q0,外埔,2017-03-01,24.347817,120.705686,1.5523722e-09
C0K580,高鐵雲林,2017-03-01,23.737456,120.417944,7.0929634e-10
C2I090,鳳凰,2017-03-01,23.728081,120.787347,1.1484746e-09
C0U990,員山,2017-03-01,24.74435,121.72247,1.4614095e-09
C0V770,大社,2017-03-01,22.730306,120.346639,4.811826e-09
C0X120,麻豆,2017-03-01,23.183289,120.248611,4.5182985e-10
C0C670,龍潭,2017-03-01,24.870056,121.221389,4.936055e-09
C0D680,香山濕地,2017-03-01,24.783581,120.914988,5.4428497e-09
C0S980,勝林山,2017-03-01,22.430439,120.8938,4.913401e-08
C0V730,大寮,2017-03-01,22.605614,120.395717,3.1756824e-09
C0R570,麟洛,2017-03-01,22.65078,120.52719,9.041653e-10
C2M930,石卓,2017-03-01,23.478744,120.702264,4.079174e-09
C0G9B0,和美,2017-03-01,24.105169,120.492131,5.123061e-09
CAG100,王功漁港,2017-03-01,23.96824,120.32586,1.0830371e-07
C0X290,北門,2017-03-01,23.267772,120.125481,9.562904e-10
C2F930,大甲,2017-03-01,24.347667,120.640403,9.8768425e-09
C0D650,湖口,2017-03-01,24.904794,121.043628,2.858335e-08
C0E420,竹南,2017-03-01,24.708978,120.888897,1.7336315e-08
C0U780,五結,2017-03-01,24.68637,121.79794,1.4594457e-09
C1I250,鯉潭,2017-03-01,23.961922,120.991131,1.0174243e-09
C0R130,阿禮,2017-03-01,22.742908,120.743678,1.3174486e-09
C0X100,臺南市北區,2017-03-01,23.010394,120.194228,5.876137e-10
C0S920,金峰嘉蘭,2017-03-01,22.594789,120.960825,2.9362377e-08
C0V490,新興,2017-03-01,22.627422,120.298803,3.7431893e-09
C0F9K0,大安,2017-03-01,24.345061,120.588025,1.0552075e-08
72N100,臺南農改,2017-03-01,23.0605,120.342194,5.195583e-10
467290,古坑,2017-03-01,23.633639,120.551889,3.736097e-10
C2E970,八甲,2017-03-01,24.535811,120.795983,4.8227324e-09
C0V440,鳳山,2017-03-01,22.646653,120.356122,2.24521e-09
C1T940,大觀,2017-03-01,23.714206,121.373133,3.3918506e-09
72T250,花蓮農改,2017-03-01,23.975222,121.563889,2.317117e-09
C0E740,造橋,2017-03-01,24.637056,120.864778,8.63571e-09
C0R100,尾寮山,2017-03-01,22.833111,120.683889,1.3029098e-09
A2K630,臺大雲林校區,2017-03-01,23.730628,120.423903,7.0913947e-10
C0D580,寶山,2017-03-01,24.735006,121.025192,1.8963626e-09
E2P990,林試扇平站,2017-03-01,22.9677,120.6857,1.0633918e-09
C0AI30,三重,2017-03-01,25.057328,121.500629,5.481888e-09
C0AH00,汐止,2017-03-01,25.066881,121.658778,5.475493e-09
C1Z040,立山,2017-03-01,23.443356,121.327375,8.207751e-09
C0W130,花嶼,2017-03-01,23.40007,119.32276,0.960144
C0A950,鼻頭角,2017-03-01,25.129036,121.923372,8.683883e-07
C0K470,林內,2017-03-01,23.748675,120.609642,3.7234058e-10
C2F990,摩天嶺,2017-03-01,24.322458,120.936819,2.5968847e-09
82C160,茶改場,2017-03-01,24.908472,121.185333,1.0602996e-08
C0Z320,清水林道,2017-03-01,23.27125,121.188272,6.964698e-09
C0R760,南仁湖,2017-03-01,22.084681,120.863353,5.024659e-05
C0M670,大林,2017-03-01,23.600616,120.45841,3.238507e-10
C0M800,茶山,2017-03-01,23.299075,120.664767,3.6952053e-10
C0A9C0,天母,2017-03-01,25.117494,121.537169,1.43902215e-08
72K220,南改斗南分場,2017-03-01,23.634556,120.477333,3.6987943e-10
72AI40,桃改樹林分場,2017-03-01,24.944503,121.386972,7.487024e-09
C0S910,蘭嶼燈塔,2017-03-01,22.081197,121.503117,0.9979359
C0B050,八斗子,2017-03-01,25.144754,121.79167,7.2187675e-08
C0U900,內城,2017-03-01,24.71813,121.68766,1.5104362e-09
C0X320,柳營,2017-03-01,23.253328,120.375253,3.184816e-10
C0M790,新港,2017-03-01,23.553269,120.345728,4.961188e-10
C0F9T0,西屯,2017-03-01,24.179494,120.641275,7.379526e-10
C0SA30,都歷,2017-03-01,23.020333,121.323642,1.0055305e-09
C0C620,蘆竹,2017-03-01,25.084275,121.265767,3.9662034e-08
C0R730,大坪頂,2017-03-01,22.024633,120.69355,0.966606
C0AJ40,石門,2017-03-01,25.273672,121.601198,7.54526e-08
C0E750,苗栗,2017-03-01,24.564569,120.824575,4.7933315e-09
C0T870,鯉魚潭,2017-03-01,23.935639,121.508944,1.907674e-09
C1V170,排雲,2017-03-01,23.463619,120.954147,1.5070759e-08
C2H950,中寮,2017-03-01,23.884447,120.766406,5.006359e-10
C0R350,貓鼻頭,2017-03-01,21.921774,120.7358,0.9961516
C0V660,岡山,2017-03-01,22.797078,120.294958,9.81803e-10
C1H941,雙冬,2017-03-01,23.967378,120.802189,7.3865386e-10
C0AJ70,田寮,2017-03-01,25.2698,121.4886,9.663629e-08
C0AI00,五股,2017-03-01,25.07445,121.42728,1.1301113e-08
C0Z280,德武,2017-03-01,23.47426,121.41071,1.2784039e-09
C0R700,枋山,2017-03-01,22.246844,120.661086,0.44660637
C0C460,復興,2017-03-01,24.820208,121.352281,1.0829438e-08
E2H360,蓮華池,2017-03-01,23.918333,120.885278,8.106833e-10
C0M640,中埔,2017-03-01,23.42538,120.5229,3.0204636e-10
C0W140,金沙,2017-03-01,24.488292,118.408778,4.532143e-07
C2A540,四堵,2017-03-01,24.8926,121.745736,1.4126701e-08
C0ACA0,新莊,2017-03-01,25.051478,121.446756,4.867766e-09
C0R220,潮州,2017-03-01,22.534361,120.54,2.7398555e-09
U2HA40,臺大內茅埔,2017-03-01,23.689722,120.851117,9.2064173e-10
467490,臺中,2017-03-01,24.145736,120.684075,4.997715e-10
C0U960,翠峰湖,2017-03-01,24.510856,121.608044,1.8326835e-08
E2HA20,林試畢祿溪站,2017-03-01,24.226944,121.308522,1.4947318e-08
C0V890,前鎮,2017-03-01,22.5718,120.3117,4.366193e-09
467620,蘭嶼,2017-03-01,22.036969,121.558339,0.98592854
C1F941,雪嶺,2017-03-01,24.280586,121.026642,2.2457206e-08
C2H9E0,國姓南港,2017-03-01,23.911108,120.846556,1.8900255e-09
C0AC80,文山,2017-03-01,25.00235,121.575728,6.32622e-09
C0F9R0,龍井,2017-03-01,24.184536,120.528972,7.0538286e-09
C0M760,民雄,2017-03-01,23.551754,120.428457,3.2411518e-10
C0UA40,西德山,2017-03-01,24.560647,121.752608,1.4906947e-08
C1T920,中興,2017-03-01,23.769503,121.498653,1.8476344e-09
C0D550,雪霸,2017-03-01,24.526972,121.11605,7.948339e-09
C2F860,梨山,2017-03-01,24.247522,121.243669,1.5328453e-08
C0R320,車城,2017-03-01,22.0744,120.716247,0.9933833
C1S870,南美山,2017-03-01,23.15025,121.382333,1.5127629e-09
C0B020,基隆嶼,2017-03-01,25.19141,121.78391,1.4128191e-06
C1U501,牛鬥,2017-03-01,24.637836,121.573656,5.054257e-09
C0M730,嘉義市東區,2017-03-01,23.457673,120.460531,2.949583e-10
C0S700,知本,2017-03-01,22.684866,121.005642,8.377683e-09
C1N001,沙崙,2017-03-01,22.935472,120.309406,6.0858946e-10
C0V760,橋頭,2017-03-01,22.757806,120.30575,5.2494245e-09
C0G960,福寶,2017-03-01,24.0443,120.3814,5.1590576e-09
C0X210,白河,2017-03-01,23.347466,120.414427,3.535296e-10
C0S810,東河,2017-03-01,22.972672,121.303986,3.4444694e-09
C2R170,屏東,2017-03-01,22.66027,120.49403,9.041653e-10
C0R670,楓港,2017-03-01,22.190131,120.692156,0.9852692
C0FA50,霧峰,2017-03-01,24.0419,120.6995,4.6334733e-10
C0UB10,蘇澳,2017-03-01,24.5969,121.8571,4.1496357e-09
C0G950,防潮門,2017-03-01,24.1835,120.4871,7.064991e-09
C0M740,六腳,2017-03-01,23.492871,120.290625,5.7132554e-10
C1R250,力里,2017-03-01,22.428117,120.629228,4.3825188e-10
C0K330,虎尾,2017-03-01,23.719183,120.442036,7.1467265e-10
C2FA00,烏石坑,2017-03-01,24.273503,120.947617,2.5393228e-09
C0V620,永安,2017-03-01,22.82315,120.236856,9.814416e-10
C1I330,楓樹林,2017-03-01,23.986803,121.076117,1.8456549e-09
C0W200,湖西,2017-03-01,23.596314,119.67275,0.89355326
72Q010,高雄農改場,2017-03-01,22.709333,120.525889,1.4265815e-09
C0SA40,瑞和,2017-03-01,22.974361,121.156697,9.780872e-10
C0C680,龜山,2017-03-01,25.02846,121.38656,1.1438821e-08
C2V260,月眉,2017-03-01,22.971003,120.539853,9.670665e-10
C0V450,鳳森,2017-03-01,22.545064,120.392592,4.735028e-10
C0U720,南山,2017-03-01,24.43742,121.38167,9.342613e-09
A2N290,臺南蘭花園區,2017-03-01,23.340258,120.379661,3.7553868e-10
C0R560,新園,2017-03-01,22.5434,120.461558,5.598649e-10
C0U890,三星,2017-03-01,24.66812,121.65302,4.3300425e-09
C1V300,御油山,2017-03-01,23.001983,120.715364,3.7168797e-09
C0U600,礁溪,2017-03-01,24.817539,121.765608,6.781919e-09
C1T980,龍澗,2017-03-01,24.023289,121.411328,2.155865e-08
C0D670,海天一線,2017-03-01,24.831986,120.914438,5.1061964e-08
C0SA00,歷坵,2017-03-01,22.520969,120.89185,1.0251679e-08
C0M710,東石,2017-03-01,23.458927,120.15385,1.6042915e-09
C0M780,鹿草,2017-03-01,23.41134,120.30835,5.3187516e-10
C0U520,雙連埤,2017-03-01,24.753033,121.641303,8.753886e-09
C0B010,七堵,2017-03-01,25.094819,121.71713,1.7334992e-08
C0R480,長治,2017-03-01,22.693128,120.542622,8.347692e-10
C1V830,國三S383K,2017-03-01,22.781967,120.426475,9.0749286e-10
12Q980,恆春工作站,2017-03-01,22.079678,120.714425,0.9933833
C1O940,東山服務區,2017-03-01,23.286016,120.398472,3.5639888e-10
C1U840,東澳嶺,2017-03-01,24.5378,121.8485,8.104488e-09
C1D630,飛鳳山,2017-03-01,24.766464,121.119178,2.866124e-09
C0S940,石寧山,2017-03-01,23.223772,121.406639,1.9302717e-09
C0K410,北港,2017-03-01,23.573957,120.292802,9.828597e-10
C2M620,瑞里,2017-03-01,23.545133,120.675197,2.408947e-09
C0SB70,小港漁港,2017-03-01,23.158558,121.400431,1.3384838e-09
C2O950,安南,2017-03-01,23.076694,120.144861,2.0317739e-09
C0F0E0,南湖圈谷,2017-03-01,24.363714,121.444667,3.062799e-08
467610,成功,2017-03-01,23.097486,121.373428,1.4162306e-09
C0G890,伸港,2017-03-01,24.148933,120.484403,6.972181e-09
C2E540,龍溪,2017-03-01,24.606489,120.783933,8.712077e-09
C1V200,梅山,2017-03-01,23.268447,120.823556,9.863038e-10
C0T9H0,加路蘭山,2017-03-01,23.682947,121.5274,4.8158753e-09
C2O930,玉井,2017-03-01,23.126042,120.46055,2.9379885e-10
C1F911,新伯公,2017-03-01,24.221361,120.841069,1.0476325e-09
C0R490,九如,2017-03-01,22.7405,120.490503,1.6536519e-09
C0X200,左鎮,2017-03-01,23.056758,120.408522,3.7526232e-10
C0SB50,叭嗡嗡,2017-03-01,23.047062,121.343223,1.0459933e-09
C1F891,稍來,2017-03-01,24.265689,121.001142,1.3947002e-08
72N240,七股研究中心,2017-03-01,23.081672,120.062894,2.0867392e-09
C0C700,中壢,2017-03-01,24.977661,121.256375,8.319785e-09
C0M690,水上,2017-03-01,23.419734,120.388909,2.9832364e-10
C0V690,鼓山,2017-03-01,22.623325,120.275575,3.7357073e-09
C0O860,大內,2017-03-01,23.11885,120.36083,5.2754384e-10
C0Z200,萬榮,2017-03-01,23.709219,121.420106,2.3042037e-09
C0T9D0,和中,2017-03-01,24.26676,121.74103,2.9793823e-09
C1O921,楠西,2017-03-01,23.183511,120.484083,2.817928e-10
C0AJ30,淡水觀海,2017-03-01,25.184591,121.408616,5.7422444e-08
C0V810,左營,2017-03-01,22.67491,120.28491,2.6299127e-09
C0UA70,桃源谷,2017-03-01,24.962606,121.888875,2.5551381e-08
C0X130,官田,2017-03-01,23.193217,120.315422,4.3219128e-10
C1H000,翠峰,2017-03-01,24.109397,121.205211,9.529133e-09
C0UA90,石城,2017-03-01,24.980444,121.951214,2.0800762e-08
C1E681,南勢山,2017-03-01,24.421669,120.923831,3.3483722e-09
C0A9F0,內湖,2017-03-01,25.079422,121.57545,5.475493e-09
C0K291,宜梧,2017-03-01,23.536281,120.169329,1.0988438e-09
C1K540,口湖,2017-03-01,23.585344,120.180517,2.064066e-08
C0R780,滿州,2017-03-01,22.024403,120.839892,0.9981417
C0V870,文安,2017-03-01,22.8025,120.2164,1.0248018e-09
C0U650,玉蘭,2017-03-01,24.675286,121.587061,7.424935e-09
C0R640,東港,2017-03-01,22.46247,120.44074,5.4011084e-10
K2E360,苗栗農改,2017-03-01,24.495722,120.829111,3.0763159e-09
C0AJ80,板橋,2017-03-01,25.0107,121.4489,6.3394103e-09
C0S660,下馬,2017-03-01,23.150427,121.070312,7.703971e-09
C1H9B1,阿眉,2017-03-01,24.1263,120.994672,9.468458e-09
C0UA20,多加屯,2017-03-01,24.368614,121.373189,1.0826898e-08
C0E730,頭份,2017-03-01,24.688247,120.912206,1.7367327e-08
72V140,高改旗南分場,2017-03-01,22.857861,120.516667,1.4823636e-09
C0K480,莿桐,2017-03-01,23.761192,120.502372,4.3416595e-10
C0U980,坪林石牌,2017-03-01,24.86478,121.77396,1.0619572e-08
C0T900,西林,2017-03-01,23.8119,121.441458,2.0940274e-09
C1I150,青雲,2017-03-01,23.793361,120.949378,6.537798e-10
467350,澎湖,2017-03-01,23.565503,119.563094,0.8970787
C0G800,埔鹽,2017-03-01,24.000394,120.431683,4.254991e-09
C0H960,草屯,2017-03-01,23.973672,120.68085,4.706036e-10
C1V780,多納林道,2017-03-01,22.888028,120.737917,1.5501679e-09
C0E920,通霄漁港,2017-03-01,24.498589,120.673876,1.4785917e-08
C0Z330,安通山,2017-03-01,23.290728,121.348528,2.5541915e-09
C0AH10,永和,2017-03-01,25.01125,121.508111,6.3435106e-09
C0AK10,太平里,2017-03-01,25.134937,121.364899,3.720726e-08
C2G640,鹿港,2017-03-01,24.0753,120.430481,5.1590576e-09
C1E890,國三N149K,2017-03-01,24.463414,120.680019,1.17511405e-08
C1R110,口社,2017-03-01,22.770111,120.645222,1.1755781e-08
C1M870,國三N285K,2017-03-01,23.550319,120.505833,3.4422412e-10
467050,新屋,2017-03-01,25.006744,121.047486,6.9498256e-08
C1E480,鳳美,2017-03-01,24.554803,121.034747,2.5887545e-09
C0M530,奮起湖,2017-03-01,23.493903,120.699253,2.8442046e-09
C0C590,觀音,2017-03-01,25.027072,121.153317,1.7648654e-07
C0T9M0,靜浦,2017-03-01,23.455167,121.495028,1.105238e-09
C2H9M0,發祥,2017-03-01,24.154094,121.164517,6.193302e-09
C0AI40,石牌,2017-03-01,25.115597,121.513139,1.4614018e-08
C1F871,上谷關,2017-03-01,24.203483,121.018644,2.2555715e-09
C2H9G0,百勝,2017-03-01,24.051142,120.909361,5.952869e-10
C0G880,二水,2017-03-01,23.810742,120.6173,3.9076817e-10
C0R940,加祿堂,2017-03-01,22.3363,120.6217,0.015195998
C0W220,北竿,2017-03-01,26.220358,119.974881,3.432624e-07
C0O960,崎頂,2017-03-01,22.959547,120.369317,5.079362e-10
C0S750,向陽,2017-03-01,23.248397,120.986133,6.170957e-09
C0T9F0,水璉,2017-03-01,23.797131,121.542514,2.3230908e-09
C1M600,頭凍,2017-03-01,23.406364,120.603339,1.3294666e-09
467660,臺東,2017-03-01,22.752211,121.154586,4.8877595e-09
C1D380,新埔,2017-03-01,24.84745,121.03834,1.1901617e-08
C2G980,田頭村,2017-03-01,23.8263,120.444175,7.1279266e-10
C0V750,路竹,2017-03-01,22.854997,120.259439,4.030018e-10
C0N050,蚵寮,2017-03-01,23.301,120.1104,7.3617135e-10
72M700,南改鹿草分場,2017-03-01,23.416869,120.283061,5.329618e-10
C1SA50,利嘉林道,2017-03-01,22.82325,121.009389,1.5374775e-08
467550,玉山,2017-03-01,23.487614,120.959522,2.1068606e-08
C0A940,金山,2017-03-01,25.223628,121.643967,4.01428e-08
C1V340,大津,2017-03-01,22.888322,120.645986,1.8261576e-09
C0W180,七美,2017-03-01,23.219333,119.444892,0.9813324
C1F9C1,白冷,2017-03-01,24.182844,120.929889,1.2730557e-09
K2E710,苗改生物防治研究中心,2017-03-01,24.422861,120.871833,1.3722414e-09
C0N040,蘆竹溝,2017-03-01,23.2344,120.0961,9.562904e-10
C2W230,畜試所澎湖,2017-03-01,23.628342,119.513206,0.89082664
C0R880,後壁湖,2017-03-01,21.9457,120.7457,0.99397063
C1I280,埔中,2017-03-01,23.820778,120.642594,6.368226e-10
467790,墾丁雷達站,2017-03-01,21.948235,120.808028,0.99880016
C0W190,望安,2017-03-01,23.380564,119.494075,0.95907086
466881,新北,2017-03-01,24.9593,121.52,6.330312e-09
C0Z170,卓溪,2017-03-01,23.3443,121.3029,1.4770971e-09
C0F850,東勢,2017-03-01,24.246428,120.833047,8.3139423e-10
466900,淡水,2017-03-01,25.164889,121.448906,3.6987558e-08
C0I370,魚池,2017-03-01,23.895703,120.94135,8.9085406e-10
C0C630,大溪,2017-03-01,24.882853,121.265547,4.908743e-09
C0A520,山佳,2017-03-01,24.974944,121.402008,5.1732765e-09
C0I110,竹山,2017-03-01,23.761225,120.688156,4.1105455e-10
82H840,茶改南部分場,2017-03-01,23.762528,120.7405,6.1293115e-10
C0G660,溪湖,2017-03-01,23.94835,120.479122,7.4003864e-10
C1T800,洛韶,2017-03-01,24.204558,121.453956,1.6043995e-08
C1T810,慈恩,2017-03-01,24.192044,121.388386,7.4336635e-09
C1E451,象鼻,2017-03-01,24.368617,120.940228,2.7659093e-09
C0AC60,三峽,2017-03-01,24.939025,121.369728,7.464367e-09
C0I490,萬大林道,2017-03-01,23.928228,121.091411,2.835722e-09
C1I290,豐丘,2017-03-01,23.668178,120.887417,2.4503946e-09
C1I320,奧萬大,2017-03-01,23.952956,121.178556,1.6550876e-09
C2M910,嘉義大學,2017-03-01,23.471325,120.485903,2.9753375e-10
C0U770,南澳,2017-03-01,24.44935,121.81022,4.2382893e-09
C0A980,社子,2017-03-01,25.109508,121.469681,3.793062e-08
C0V800,六龜,2017-03-01,22.997889,120.633583,5.629982e-10
C1G9D0,國一S218K,2017-03-01,23.890641,120.493253,7.536996e-10
C0E570,白沙屯,2017-03-01,24.549447,120.696803,4.5527678e-08
C2F9A0,中竹林,2017-03-01,24.103556,120.751061,6.8533956e-10
C0FA40,臺中電廠,2017-03-01,24.2146,120.4907,7.0538286e-09
C2G9A0,畜試所彰化,2017-03-01,23.86045,120.557964,4.400284e-10
C0H9C0,合歡山,2017-03-01,24.143442,121.272547,2.1595936e-08
C0X060,下營,2017-03-01,23.22695,120.256261,4.1250836e-10
G2M350,農試溪口農場,2017-03-01,23.58565,120.408111,3.2228986e-10
C0U860,頭城,2017-03-01,24.85323,121.8308,6.751846e-09
C0R580,南州,2017-03-01,22.48591,120.50274,5.4010985e-10
C0D430,峨眉,2017-03-01,24.6905,121.017189,3.1167786e-09
C0G780,秀水,2017-03-01,24.03405,120.503869,8.094226e-10
72N100,臺南農改場,2017-03-01,23.0605,120.342194,5.195583e-10
C0S900,蘭嶼高中,2017-03-01,22.04909,121.51214,0.9989976
467540,大武,2017-03-01,22.355675,120.903789,0.0003436119
C1F9W0,德基,2017-03-01,24.254783,121.190261,1.1520205e-08
C1Z120,壽豐,2017-03-01,23.870853,121.508081,1.8579215e-09
C0W160,烏坵,2017-03-01,24.9944,119.44956,1.6660046e-05
C1I240,外大坪,2017-03-01,23.958697,120.917931,1.0358243e-09
C1I550,國六W023K,2017-03-01,23.979067,120.867742,5.9303734e-10
C0R870,興海,2017-03-01,21.9752,120.8439,0.99859565
C0R140,瑪家,2017-03-01,22.682903,120.686639,7.513256e-10
C0A530,坪林,2017-03-01,24.938183,121.70975,1.4193276e-08
C0X260,後壁,2017-03-01,23.366358,120.362326,3.7553868e-10
C0Z230,和平,2017-03-01,24.30717,121.77007,2.9534857e-09
C0G770,福興,2017-03-01,24.041289,120.437669,4.258109e-09
C0H9A0,神木村,2017-03-01,23.532742,120.843667,3.214183e-09
C0I460,南投,2017-03-01,23.911469,120.687331,4.9048476e-10
C0I480,梅峰,2017-03-01,24.085272,121.173572,6.4932117e-09
C1V570,吉東,2017-03-01,22.85422,120.5454,1.3184717e-09
C2D740,屯原,2017-03-01,24.067969,121.209389,5.648334e-09
C2A560,福山,2017-03-01,24.776203,121.502811,2.8237793e-08
C0AH30,五分山,2017-03-01,25.07125,121.780794,3.3430393e-08
C0FA10,松柏,2017-03-01,24.429115,120.617482,1.27244935e-08
72S200,東改班鳩分場,2017-03-01,22.829528,121.077694,1.383202e-09
72HA00,中改埔里分場,2017-03-01,23.903208,120.963364,7.6884943e-10
C2H9W0,大坪頂農水,2017-03-01,24.043122,120.932781,1.0401938e-09
C0C650,平鎮,2017-03-01,24.897503,121.214636,7.3137687e-09
C0S930,延平,2017-03-01,22.902581,121.084058,1.1504522e-09
C0UA60,樟樹山,2017-03-01,24.41393,121.78325,5.7443557e-09
C1S670,摩天,2017-03-01,23.199503,121.027,1.795934e-08
C0V630,茄萣,2017-03-01,22.906642,120.182608,4.1037068e-10
466940,基隆,2017-03-01,25.133314,121.740475,7.129878e-08
C0X050,東河,2017-03-01,23.296598,120.385608,3.5575706e-10
C0R770,保力,2017-03-01,22.071122,120.764111,0.99303895
G2L020,農試嘉義分所,2017-03-01,23.485028,120.473806,2.734555e-10
C0X240,關子嶺,2017-03-01,23.331169,120.508025,3.3020847e-10
C0I380,集集,2017-03-01,23.828206,120.801467,5.485023e-10
466990,花蓮,2017-03-01,23.975128,121.613275,2.3278635e-09
C1V220,小關山,2017-03-01,23.154217,120.813603,3.4920715e-09
C1F9G1,慶福山,2017-03-01,24.180853,120.848378,1.1560128e-09
C0Z250,瑞穗林道,2017-03-01,23.49284,121.30688,2.5422654e-08
C0D590,新豐,2017-03-01,24.87068,120.97721,3.7921936e-08
C0A870,五指山,2017-03-01,25.132153,121.608692,1.462813e-08
C0UA50,西帽山,2017-03-01,24.555361,121.802628,1.1378913e-08
C0X160,仁德,2017-03-01,22.968258,120.257689,7.588102e-10
C1H971,六分寮,2017-03-01,23.92507,120.6378,6.204863e-10
C0W120,西嶼,2017-03-01,23.5626,119.468436,0.93823874
C0G650,員林,2017-03-01,23.946503,120.585597,4.1051473e-10
C0AD50,鶯歌,2017-03-01,24.951533,121.346294,7.4176874e-09
C2H9Q0,北東眼山,2017-03-01,24.120939,121.189303,1.2342179e-08
C2H9T0,名間竹圍,2017-03-01,23.859914,120.637572,6.7576406e-10
C0S990,山豬窟,2017-03-01,22.318619,120.857372,1.2917047e-06
72Q010,高雄農改,2017-03-01,22.709333,120.525889,1.4265815e-09
C0X190,安平,2017-03-01,22.993161,120.152181,5.876137e-10
C0K400,斗六,2017-03-01,23.720583,120.541127,4.3281823e-10
12J990,口湖工作站,2017-03-01,23.589978,120.180394,2.064066e-08
C0O830,北寮,2017-03-01,23.079561,120.495008,3.3861217e-10
C1D410,白蘭,2017-03-01,24.579364,121.079947,6.4890395e-09
C0S970,加津林,2017-03-01,22.416211,120.926942,7.859325e-05
C0D700,關西,2017-03-01,24.7977,121.1732,2.7112532e-09
C0M810,里佳,2017-03-01,23.389125,120.716647,2.3218507e-09
C0U750,龜山島,2017-03-01,24.841667,121.953133,8.903793e-08
C0R810,內獅,2017-03-01,22.305064,120.642986,0.018989936
C1M390,龍美,2017-03-01,23.406728,120.654417,1.6613342e-09
C2FB60,頭櫃山,2017-03-01,24.129842,120.858925,3.3653906e-09
C1H840,國三N238K,2017-03-01,23.841008,120.707711,6.4726824e-10
CAQ030,崎峰國小,2017-03-01,22.42565,120.49521,5.4010985e-10
C2E520,大湖,2017-03-01,24.414939,120.870872,1.4211825e-09
467530,阿里山,2017-03-01,23.508208,120.813242,1.0576214e-08
C1E691,南湖,2017-03-01,24.40135,120.837533,2.6518134e-09
C0FA30,梧棲,2017-03-01,24.256003,120.523381,7.286394e-09
C1V231,高中,2017-03-01,23.134911,120.716711,5.359026e-10
C0F9V0,新社,2017-03-01,24.200172,120.815806,1.1418303e-09
C0H890,埔里,2017-03-01,23.972169,120.952425,6.3115013e-10
C0R690,墾丁,2017-03-01,21.966756,120.810269,0.9750169
C0F0D0,審馬陣,2017-03-01,24.381675,121.4203,1.5714091e-08
C0R820,白鷺,2017-03-01,22.454275,120.666219,1.2472425e-09
U2H480,臺大溪頭,2017-03-01,23.670306,120.798194,2.2788014e-09
C1V190,南天池,2017-03-01,23.27403,120.91176,6.2854113e-09
K2E360,苗栗農改場,2017-03-01,24.495722,120.829111,3.0763159e-09
CAJ050,海口故事園區,2017-03-01,23.57543,120.14121,2.064066e-08
C2H9D0,三隻寮,2017-03-01,24.093078,120.861578,1.060726e-09
C0O990,媽廟,2017-03-01,22.99175,120.293525,6.816294e-10
C0D480,打鐵坑,2017-03-01,24.849664,121.150789,4.906918e-09
C0Z220,和平林道,2017-03-01,24.343922,121.656317,2.3269535e-09
C0TA10,花蓮漁港,2017-03-01,23.995322,121.638331,2.3442603e-09
72C440,桃園農改場,2017-03-01,24.950944,121.030583,3.0490376e-08
C1E711,馬拉邦山,2017-03-01,24.367306,120.901656,2.873541e-09
C0SB20,富岡,2017-03-01,22.792467,121.192669,2.265497e-09
C0D560,竹東,2017-03-01,24.767147,121.057881,2.703858e-09
C0F9U0,南屯,2017-03-01,24.137006,120.637969,7.160016e-10
C0M720,番路,2017-03-01,23.464657,120.554156,3.1647546e-10
C0F0A0,雪山圈谷,2017-03-01,24.388594,121.236339,2.2543855e-08
C1A9N0,四十份,2017-03-01,24.934158,121.593283,2.2891925e-08
C0U760,東澳,2017-03-01,24.52196,121.83318,1.6462972e-09
C0X230,鹽水,2017-03-01,23.272621,120.247641,7.376345e-10
C2H9H0,苗改南投蜂場,2017-03-01,23.852589,120.693481,4.907112e-10
C0R950,萬隆國小,2017-03-01,22.507667,120.587817,1.7023088e-09
C0V370,古亭坑,2017-03-01,22.893178,120.401947,3.6800268e-10
C1I340,新興橋,2017-03-01,23.563333,120.868728,1.5952656e-09
C0SA80,土坂,2017-03-01,22.453108,120.887572,8.340872e-08
C0R160,鹽埔,2017-03-01,22.739558,120.530778,1.4283186e-09
C0AC40,大屯山,2017-03-01,25.175675,121.522408,3.485127e-08
466850,五分山雷達站,2017-03-01,25.071182,121.781205,3.3512748e-08
C2H9L0,馬烈霸,2017-03-01,24.1512,121.201772,1.2176955e-08
C1AI50,國三N016K,2017-03-01,25.034164,121.619664,5.5449414e-09
C1V600,藤枝,2017-03-01,23.071961,120.757042,3.1738596e-09
C1E601,南勢,2017-03-01,24.572486,120.734842,3.171187e-08
C0Z180,新城,2017-03-01,24.03946,121.60454,2.3289828e-09
C0O980,新市,2017-03-01,23.061614,120.298197,5.430683e-10
C0K420,西螺,2017-03-01,23.800407,120.467394,7.2084005e-10
C0Z050,佳心,2017-03-01,23.34567,121.21316,7.944732e-09
C0AD30,蘆洲,2017-03-01,25.086594,121.472331,5.478773e-09
C0V610,梓官,2017-03-01,22.760558,120.267211,4.818319e-09
K2F750,種苗改良場,2017-03-01,24.225972,120.800917,1.094921e-09
C0UA80,大溪漁港,2017-03-01,24.941801,121.902955,1.5293672e-08
C1AI60,國一39K邊坡,2017-03-01,25.064361,121.383836,1.1383364e-08
C0W150,金寧,2017-03-01,24.457703,118.328989,1.1665403e-07
C0R960,內埔,2017-03-01,22.608483,120.570714,7.460055e-09
V2C250,八德合作社,2017-03-01,24.93775,121.266389,7.3731843e-09
C2H9S0,龍南,2017-03-01,23.953536,120.833183,1.3106188e-09
C0AH40,平等,2017-03-01,25.129142,121.577086,1.2912013e-08
C0R540,佳冬,2017-03-01,22.419456,120.552375,3.1031668e-08
466950,彭佳嶼,2017-03-01,25.627975,122.079744,2.2671052e-06
C0A890,雙溪,2017-03-01,25.036003,121.864242,4.7265054e-08
C0C480,桃園,2017-03-01,24.992425,121.323172,8.247076e-09
C0AH50,林口,2017-03-01,25.072181,121.38084,1.1461905e-08
A2K360,水試臺西試驗場,2017-03-01,23.717231,120.190522,1.14711565e-08
B2N890,畜試所,2017-03-01,23.058972,120.336406,5.195583e-10
C2M960,外寮,2017-03-01,23.562643,120.665688,1.943145e-09
C0F9S0,烏日,2017-03-01,24.107058,120.624103,4.1157314e-10
C0C490,八德,2017-03-01,24.928708,121.283289,7.229181e-09
C0R190,赤山,2017-03-01,22.592333,120.614306,5.43109e-09
C0T820,天祥,2017-03-01,24.179597,121.495639,1.2308351e-08
C1F9E1,龍安,2017-03-01,24.1605,120.831961,1.0429413e-09
C0V820,小林,2017-03-01,23.148408,120.63325,3.5771464e-10
C2G870,芳苑,2017-03-01,23.922303,120.320025,1.0058882e-07
C0E850,大河,2017-03-01,24.618069,120.948578,2.991568e-09
C1U670,寒溪,2017-03-01,24.634,121.71691,2.0263595e-09
C0N020,城西,2017-03-01,23.0568,120.0956,5.876137e-10
C1Z110,三棧,2017-03-01,24.11557,121.60501,1.2180254e-08
C0R280,檳榔,2017-03-01,22.076078,120.836777,0.027557213
C2H9J0,中台,2017-03-01,23.9996,120.938739,6.850129e-10
C0F9L0,后里,2017-03-01,24.310436,120.729725,8.086664e-10
C0D540,橫山,2017-03-01,24.71116,121.11693,1.9525148e-09
C1D420,太閣南,2017-03-01,24.632808,121.160575,6.5459362e-09
C1E770,公館,2017-03-01,24.526914,120.830806,2.9487968e-09
CAN130,水試所海水繁養殖中心,2017-03-01,23.120802,120.07968,2.0867392e-09
C1I430,翠華,2017-03-01,24.191961,121.224339,9.9037045e-09
C1M400,菜瓜坪,2017-03-01,23.251928,120.576103,3.7499756e-10
C0G730,二林,2017-03-01,23.903325,120.376081,3.6934877e-09
72M360,南改義竹分場,2017-03-01,23.360694,120.279361,5.748496e-10
V2K620,麥寮合作社,2017-03-01,23.753836,120.294783,1.4914332e-09
C0Z070,舞鶴,2017-03-01,23.46811,121.37407,1.359541e-09
C0B040,大武崙,2017-03-01,25.166676,121.706993,6.637125e-08
C1Z030,紅葉,2017-03-01,23.493119,121.338806,1.3964723e-09
C1I050,丹大,2017-03-01,23.753747,121.141147,6.4311405e-09
C0I080,信義,2017-03-01,23.689694,120.851036,9.2064173e-10
C2M920,朴子農改,2017-03-01,23.469889,120.259383,5.333482e-10
C2A880,福隆,2017-03-01,25.017842,121.942083,2.099924e-08
C0Z160,鳳林,2017-03-01,23.746114,121.453411,2.1735354e-09
C0V210,復興,2017-03-01,23.222403,120.806089,9.832234e-10
C0H990,昆陽,2017-03-01,24.121322,121.273642,1.8669882e-08
C0R741,獅子,2017-03-01,22.202308,120.705236,0.23965271
C0S710,鹿野,2017-03-01,22.917711,121.122994,1.1182982e-09
C0I530,小奇萊,2017-03-01,24.131764,121.295717,1.951369e-08
C2K630,荷苞,2017-03-01,23.657717,120.595144,3.861294e-10
C0Z080,富源,2017-03-01,23.587642,121.378225,5.7705796e-09
467441,高雄,2017-03-01,22.7304,120.3125,4.7892557e-09
C0SB10,美和,2017-03-01,22.682078,121.060236,4.695219e-08
C2K620,馬光農場,2017-03-01,23.721453,120.378864,7.047612e-10
C1I140,卡奈托灣,2017-03-01,23.754364,121.087872,1.8655135e-09
C0I520,玉山風口,2017-03-01,23.470489,120.955994,2.3788994e-08
C1G691,下水埔,2017-03-01,23.816114,120.5676,4.4088783e-10
C0X110,臺南市南區,2017-03-01,22.961189,120.188378,7.588102e-10
C0V680,仁武,2017-03-01,22.701083,120.347722,2.6299127e-09
C2G840,北斗,2017-03-01,23.877586,120.514222,7.633261e-10
C0R900,竹坑,2017-03-01,22.1385,120.7022,0.9929889
C0K250,崙背,2017-03-01,23.75555,120.318925,1.4914332e-09
C0G860,社頭,2017-03-01,23.897647,120.5862,4.3807805e-10
C0X150,安定,2017-03-01,23.102614,120.227839,4.7283044e-10
C0R590,里港,2017-03-01,22.77919,120.49459,1.4553261e-09
C0E610,馬都安,2017-03-01,24.451272,120.930192,2.8134235e-09
C0E550,明德,2017-03-01,24.583486,120.885411,4.713045e-09
C0R150,三地門,2017-03-01,22.709889,120.639944,1.3835721e-08
C0G910,花壇,2017-03-01,24.032076,120.549461,8.239556e-10
C1D400,鳥嘴山,2017-03-01,24.71909,121.28387,5.360858e-09
C0K500,元長,2017-03-01,23.64981,120.315024,1.1107644e-09
C0F0B0,石岡,2017-03-01,24.276061,120.777644,8.41387e-10
C2V250,甲仙,2017-03-01,23.080106,120.591758,2.961585e-10
C0SA20,金崙山,2017-03-01,22.567419,120.959667,8.489089e-09
C0V350,溪埔,2017-03-01,22.738578,120.446797,8.899794e-10
C0M660,溪口,2017-03-01,23.604131,120.403569,3.2228986e-10
C1S880,壽卡,2017-03-01,22.238911,120.858903,2.9926512e-06
72D680,桃改新埔分場,2017-03-01,24.834444,121.066111,1.2053468e-08
