站號,站名,日期,lat,lon,BLBTSLS
C0R710,龍磐,2017-01-14,21.931672,120.838942,0.081627734
C1F9D1,白毛台,2017-01-14,24.158325,120.886933,7.278154e-10
C0G940,竹塘,2017-01-14,23.848253,120.386764,3.3837024e-09
467590,恆春,2017-01-14,22.003897,120.746339,0.3554905
C1O850,環湖,2017-01-14,23.148617,120.418633,4.6978235e-09
C0U710,太平山,2017-01-14,24.505486,121.525656,1.4087524e-08
C0E820,獅潭,2017-01-14,24.539133,120.920042,7.046285e-09
C0V880,興達,2017-01-14,22.8778,120.2127,5.8287847e-10
C0S890,關山,2017-01-14,23.0395,121.175017,8.9092206e-10
C0SB30,新蘭,2017-01-14,22.869214,121.223228,1.7174183e-09
C2R970,屏科大,2017-01-14,22.648275,120.619247,2.3417712e-09
K2F750,種苗繁殖,2017-01-14,24.225972,120.800917,7.8090345e-10
C1Z130,銅門,2017-01-14,23.965694,121.492842,1.3366827e-09
C0AD40,土城,2017-01-14,24.973208,121.445169,1.7094504e-06
CAN140,六官養殖協會,2017-01-14,23.22881,120.29962,6.986195e-10
C0X180,山上,2017-01-14,23.0757,120.363253,7.3667844e-10
C0F9Z0,雪山東峰,2017-01-14,24.388792,121.268675,1.1752553e-08
C1M480,獨立山,2017-01-14,23.537022,120.607797,6.036588e-10
C0X220,學甲,2017-01-14,23.230367,120.182187,6.5297473e-10
467650,日月潭,2017-01-14,23.881325,120.90805,1.7848688e-09
C0K600,箔子寮,2017-01-14,23.6197,120.14,3.3478567e-08
C0G830,埤頭,2017-01-14,23.866003,120.452806,9.812225e-10
C0S950,七塊厝,2017-01-14,22.954453,121.229922,1.0100285e-09
467110,金門,2017-01-14,24.407306,118.289281,6.0835784e-05
C0AH80,深坑,2017-01-14,25.002703,121.628328,1.063448e-06
467990,馬祖,2017-01-14,26.169269,119.923419,1.9647448e-05
C0A970,三貂角,2017-01-14,25.007606,122.002058,1.2849345e-07
C2D730,寶山農場,2017-01-14,24.732444,120.976153,1.5234978e-08
C0K430,褒忠,2017-01-14,23.690938,120.303634,4.2770743e-09
467480,嘉義,2017-01-14,23.495925,120.432906,2.144108e-08
C2E540,後龍,2017-01-14,24.606489,120.783933,4.9145818e-08
C0V400,阿公店,2017-01-14,22.804194,120.355528,4.3950668e-10
C0R440,大漢山,2017-01-14,22.405264,120.753181,2.5998894e-08
C0K280,四湖,2017-01-14,23.630414,120.227125,4.3614257e-08
C1F9B1,桐林,2017-01-14,24.066172,120.735194,4.4444493e-10
C2H9U0,鳳鵬,2017-01-14,23.763919,120.788061,3.492043e-10
C0K390,土庫,2017-01-14,23.679029,120.395574,2.2657387e-09
C1I450,望鄉山,2017-01-14,23.594153,120.944286,9.104425e-09
C0E910,海埔,2017-01-14,24.648767,120.772435,5.3855494e-08
B2E890,畜試北區分所,2017-01-14,24.527806,120.770972,5.6676512e-09
C0R750,四林格山,2017-01-14,22.076989,120.802439,0.001323381
C0F0C0,中坑,2017-01-14,24.248517,120.903319,1.6279679e-09
C1I121,大鞍,2017-01-14,23.678381,120.760017,2.6752385e-09
72U480,花改蘭陽分場,2017-01-14,24.686306,121.716583,7.0927912e-09
C0A770,科教館,2017-01-14,25.096356,121.516507,3.2435353e-06
C0AJ60,六塊厝,2017-01-14,25.24,121.4481,0.056159243
C0R620,墾雷,2017-01-14,21.900836,120.855269,0.9220891
467420,永康,2017-01-14,23.038386,120.2367,7.5177287e-10
467300,東吉島,2017-01-14,23.25695,119.667467,0.9877982
C0I410,名間,2017-01-14,23.837053,120.701447,1.0677758e-09
A2C560,農工中心,2017-01-14,24.985917,121.239833,2.9743771e-05
C0V740,旗山,2017-01-14,22.888614,120.483597,9.554139e-09
C0Z061,玉里,2017-01-14,23.3215,121.339656,1.0010527e-09
C0S840,南田,2017-01-14,22.279725,120.889208,0.9949218
C1I470,杉林溪,2017-01-14,23.639517,120.786444,3.4218453e-09
C1X040,東原,2017-01-14,23.291597,120.463822,6.0325245e-10
C0R660,枋寮,2017-01-14,22.367722,120.590647,7.63852e-06
C1R120,上德文,2017-01-14,22.763272,120.704442,2.105771e-09
C0K450,大埤,2017-01-14,23.646074,120.431537,7.3861197e-09
C0UA00,土場,2017-01-14,24.576533,121.495333,8.307685e-09
467080,宜蘭,2017-01-14,24.763975,121.756528,1.5318399e-08
C0N030,四草,2017-01-14,23.0235,120.1116,6.0836547e-10
C0V650,彌陀,2017-01-14,22.783806,120.246361,3.8014883e-10
C0D660,新竹市東區,2017-01-14,24.798681,120.986942,4.998965e-07
82S580,茶改東部分場,2017-01-14,22.907694,121.130139,1.1754699e-09
C0SB40,興隆,2017-01-14,22.913661,121.257469,1.587026e-09
C0C710,大溪永福,2017-01-14,24.892936,121.324975,1.8670594e-06
C0FA20,溫寮,2017-01-14,24.372177,120.583125,8.795949e-08
C0V640,湖內,2017-01-14,22.887139,120.2445,5.7448024e-10
C0R910,下寮,2017-01-14,22.3929,120.5548,7.63852e-06
C0Z020,明里,2017-01-14,23.208717,121.262342,1.2370455e-09
C0M770,嘉義梅山,2017-01-14,23.585398,120.555587,7.508705e-09
G2F820,農業試驗所,2017-01-14,24.031261,120.688133,5.9227545e-10
C0C660,楊梅,2017-01-14,24.912375,121.143047,1.8043025e-05
C1E511,新開,2017-01-14,24.347703,120.827019,1.224615e-09
G2F820,農試所(霧峰),2017-01-14,24.031261,120.688133,5.9227545e-10
C1I070,和社,2017-01-14,23.591131,120.888861,1.0211667e-09
C2F000,大肚,2017-01-14,24.15295,120.572117,3.767526e-10
C1S850,豐南,2017-01-14,23.122139,121.262389,1.208371e-09
C2A920,富貴角,2017-01-14,25.263783,121.565258,5.6335724e-05
CAH030,茶改場竹圍站,2017-01-14,23.860083,120.637528,3.0887554e-10
C0T960,光復,2017-01-14,23.660694,121.424964,8.0782164e-10
C0F9M0,豐原,2017-01-14,24.254322,120.720692,1.4314523e-09
C0R720,旭海,2017-01-14,22.205403,120.887614,0.99977
C0V710,苓雅,2017-01-14,22.622742,120.330669,4.6493198e-10
C0C740,觀音工業區,2017-01-14,25.064764,121.114856,0.99965596
CAC040,拉拉山,2017-01-14,24.699317,121.427133,2.8064843e-08
C0V790,萬山,2017-01-14,22.905944,120.688056,1.7939201e-09
U2HA30,臺大和社,2017-01-14,23.590856,120.888864,1.0211706e-09
C0AJ90,澳底,2017-01-14,25.0552,121.9253,2.7305222e-07
C0Z100,東華,2017-01-14,23.89525,121.549833,9.797807e-10
C0G970,三豐,2017-01-14,23.882,120.2895,1.2946383e-07
V2K610,大庄合作社,2017-01-14,23.8068,120.367939,2.9730245e-09
C0V900,汕尾,2017-01-14,22.4782,120.4151,4.919989e-10
C1R630,龍泉,2017-01-14,22.66701,120.59091,4.0741353e-09
C1AC50,關渡,2017-01-14,25.133486,121.469331,8.746051e-07
C0F9I0,神岡,2017-01-14,24.272481,120.658314,1.4453398e-09
C0K460,斗南,2017-01-14,23.678734,120.478359,6.9807107e-09
467410,臺南,2017-01-14,22.993239,120.204772,5.767397e-10
C2O810,曾文,2017-01-14,23.219681,120.497328,5.72234e-10
467280,後龍,2017-01-14,24.648563,120.831834,4.316768e-08
C1F9J1,清水林,2017-01-14,24.071242,120.820419,4.7863313e-10
C2A650,火燒寮,2017-01-14,25.002719,121.742892,5.121002e-08
466930,竹子湖,2017-01-14,25.162078,121.544547,2.9679608e-08
C1I220,樟湖,2017-01-14,23.905333,120.846983,1.936042e-09
C0I390,仁愛,2017-01-14,24.022122,121.132206,1.2907648e-09
C0Z300,東里,2017-01-14,23.26853,121.30547,1.1957015e-09
C1V590,新發,2017-01-14,23.057019,120.646064,2.989703e-09
C0K510,水林,2017-01-14,23.572924,120.24597,6.080386e-09
72S590,東改賓朗果園,2017-01-14,22.813889,121.071278,2.514938e-09
82A750,茶改北部分場,2017-01-14,24.955778,121.631222,6.860923e-08
C1A750,石碇服務區,2017-01-14,25.00872,121.646242,3.080725e-07
C0X300,鹿寮,2017-01-14,23.386047,120.477331,2.2916039e-08
G2AI50,關渡,2017-01-14,25.11575,121.492,0.00023935323
C0K590,雲林東勢,2017-01-14,23.674192,120.255721,5.6354206e-09
C0A570,桶後,2017-01-14,24.848222,121.597992,2.9233403e-08
C1S800,華源,2017-01-14,22.657883,121.02325,2.3690012e-08
C0G720,溪州,2017-01-14,23.851589,120.499093,9.604966e-10
C1V160,達卡努瓦,2017-01-14,23.279811,120.705319,2.2496938e-09
C2M410,馬頭山,2017-01-14,23.324361,120.582017,4.597775e-10
C0V850,蚵仔寮,2017-01-14,22.7256,120.2527,4.6835424e-10
C0S740,池上,2017-01-14,23.119628,121.209469,1.2535004e-09
C1V390,尖山,2017-01-14,22.813153,120.367789,4.035456e-10
C0AH70,松山,2017-01-14,25.04871,121.55042,2.59846e-06
C0N010,鯤鯓國小,2017-01-14,23.1879,120.0889,8.602563e-10
C0R550,新埤,2017-01-14,22.467947,120.582894,4.7972437e-10
C0SA60,知本（水試所）,2017-01-14,22.702394,121.082761,7.6576804e-08
C0T9I0,豐濱,2017-01-14,23.583897,121.514806,7.596689e-10
C0UB00,淡江大學蘭陽校園,2017-01-14,24.823239,121.730383,2.5847298e-08
C0W240,九宮,2017-01-14,24.423753,118.240186,7.399653e-05
C0T9N0,富里,2017-01-14,23.171639,121.249378,1.114442e-09
U2HA50,臺大竹山,2017-01-14,23.756972,120.681556,1.1603115e-09
C0V840,鳳鼻頭,2017-01-14,22.5083,120.3591,5.8682964e-10
C0X140,西港,2017-01-14,23.125608,120.203108,7.196339e-10
72D080,桃改五峰分場,2017-01-14,24.612194,121.157167,6.1064664e-09
C2H9P0,伊拿谷,2017-01-14,23.963211,121.088264,1.3202786e-09
C2H9F0,柑林,2017-01-14,24.018658,120.847072,3.5030104e-10
C0TA20,加灣,2017-01-14,24.082025,121.608944,6.068441e-09
C0V530,阿蓮,2017-01-14,22.883208,120.327508,4.182371e-10
C1O880,關山,2017-01-14,23.173397,120.594092,7.0909345e-10
C0E791,卓蘭,2017-01-14,24.3126,120.8244,9.605423e-10
C1I030,武界,2017-01-14,23.913225,121.052483,1.3856498e-09
C0R520,崁頂,2017-01-14,22.514781,120.506914,6.2180966e-10
C0R341,牡丹,2017-01-14,22.130036,120.792639,0.9998448
C0R930,萬丹,2017-01-14,22.5885,120.4851,1.1395328e-09
C0S760,紅石,2017-01-14,23.069131,121.126219,1.5602453e-08
C1M610,石磐龍,2017-01-14,23.496606,120.663506,2.2132827e-09
C0UA10,鴛鴦湖,2017-01-14,24.590269,121.412228,4.75828e-09
V2C260,八德蔬果,2017-01-14,24.978508,121.281819,4.0898176e-06
C0R800,丹路,2017-01-14,22.204481,120.750989,0.999702
C0G920,永靖,2017-01-14,23.924703,120.547533,6.326869e-10
C2M950,太和,2017-01-14,23.538372,120.702961,2.9804281e-09
C1A630,下盆,2017-01-14,24.771003,121.538622,1.4179909e-08
B2N890,畜產試驗所,2017-01-14,23.058972,120.336406,7.102467e-10
C0UA30,白嶺,2017-01-14,24.527819,121.519031,8.607803e-09
C1V580,溪南(特生中心),2017-01-14,23.084972,120.788475,5.4760463e-09
C1T970,大農,2017-01-14,23.615233,121.413331,7.8763784e-10
E2S960,林試太麻里2,2017-01-14,22.598014,120.989761,2.2093974e-07
C0R650,竹田,2017-01-14,22.58486,120.54344,1.1729034e-09
C1H900,清流,2017-01-14,24.080775,120.962997,9.172239e-10
C1C510,水尾,2017-01-14,24.940081,121.087161,0.24187517
C0F9X0,大雅(中科園區),2017-01-14,24.21528,120.62445,8.5354873e-10
C0SB60,白守蓮,2017-01-14,23.126769,121.401914,1.725081e-09
C0O970,虎頭埤,2017-01-14,23.021375,120.347878,4.712414e-10
C0C730,中大臨海站,2017-01-14,24.966126,121.008581,0.9987867
C0X250,新營,2017-01-14,23.310689,120.316681,8.9393315e-10
C0V700,三民,2017-01-14,22.645017,120.311233,4.9176996e-10
C0U870,大礁溪,2017-01-14,24.791042,121.675047,1.4511221e-08
C0E870,高鐵苗栗,2017-01-14,24.60725,120.826094,4.702093e-08
A2K570,古坑花卉中心,2017-01-14,23.63353,120.55239,1.1735977e-08
C0M860,新美,2017-01-14,23.338017,120.683169,6.192543e-10
C1E701,八卦,2017-01-14,24.491756,120.927619,2.713809e-09
C0I420,國姓,2017-01-14,24.037803,120.855072,3.3552558e-10
C2D720,關西工作站,2017-01-14,24.757275,121.184792,2.638118e-08
C0S960,香蘭,2017-01-14,22.587569,120.993375,2.2093974e-07
C0R260,春日,2017-01-14,22.370361,120.628306,1.3076889e-06
72G600,臺中農改場,2017-01-14,24.003028,120.534389,4.7803095e-10
C0Z210,瑞穗,2017-01-14,23.5239,121.39021,7.6205475e-10
C0M820,達邦,2017-01-14,23.453994,120.749517,1.4305761e-09
C0V860,南寮,2017-01-14,22.7616,120.2339,4.6835424e-10
C0G740,大城,2017-01-14,23.852487,120.320935,1.16646575e-07
C0R920,塭仔,2017-01-14,22.4169,120.5197,1.101123e-05
C0R470,高樹,2017-01-14,22.826389,120.600806,9.610816e-09
C0R680,佳樂水,2017-01-14,21.993578,120.861633,0.026405388
C1O870,大棟山,2017-01-14,23.31157,120.52226,1.4388403e-09
C0D360,梅花,2017-01-14,24.678347,121.208558,3.6505687e-09
C0Z190,富世,2017-01-14,24.14743,121.6297,5.0361275e-09
C0AI10,屈尺,2017-01-14,24.92184,121.54475,1.9339893e-06
B2U990,畜試東區分所,2017-01-14,24.669039,121.832561,7.77634e-09
C0SB80,長濱漁港,2017-01-14,23.313644,121.459994,9.2204056e-10
C0R240,來義,2017-01-14,22.527306,120.625111,4.866436e-10
C0V910,大樹,2017-01-14,22.684645,120.432803,6.85775e-10
C1R610,西大武山,2017-01-14,22.617719,120.7322,2.724224e-08
C0G900,線西,2017-01-14,24.143358,120.443536,3.502197e-09
C0M700,竹崎,2017-01-14,23.526178,120.555508,1.7676447e-09
C2E880,三義,2017-01-14,24.405478,120.749819,1.2059096e-09
C0C720,竹圍,2017-01-14,25.112692,121.239824,0.00020360241
C0F9P0,清水,2017-01-14,24.312297,120.562242,1.5507219e-08
C0Z150,吉安光華,2017-01-14,23.930925,121.595153,1.3506499e-09
C1D640,外坪(五指山),2017-01-14,24.644447,121.090961,5.257982e-09
C0F9O0,潭子,2017-01-14,24.213106,120.703933,1.1242051e-09
C2H9R0,卓社,2017-01-14,23.887894,121.000086,2.2007172e-09
72T250,花蓮農改場,2017-01-14,23.975222,121.563889,1.7010463e-09
C0E780,銅鑼,2017-01-14,24.489681,120.790853,3.76093e-09
C1T950,太安,2017-01-14,23.666719,121.370128,2.4304363e-08
C0E830,苑裡,2017-01-14,24.439714,120.653053,2.0022071e-07
467270,田中,2017-01-14,23.873803,120.581286,7.8927104e-10
C0SA10,檳榔四格山,2017-01-14,22.810031,121.109308,1.9719841e-09
C1T830,布洛灣,2017-01-14,24.17184,121.57127,8.672473e-08
C0F970,大坑,2017-01-14,24.173142,120.722289,5.792621e-10
C1U920,思源,2017-01-14,24.393125,121.347214,7.500689e-09
C0A931,三和,2017-01-14,25.233153,121.595236,2.9700004e-07
C0I010,廬山,2017-01-14,24.033311,121.181808,2.5540066e-09
C2M940,日野賀,2017-01-14,23.434056,120.727169,1.9091593e-09
C0R860,鼻頭,2017-01-14,22.1043,120.8979,0.9942472
C0UB20,壯圍,2017-01-14,24.7359,121.8163,7.506299e-09
C0R790,九棚,2017-01-14,22.14195,120.889281,0.9996118
C0W110,東莒,2017-01-14,25.9652,119.98069,0.0026514474
C1U930,粉鳥林,2017-01-14,24.497088,121.842479,7.6586995e-09
C1I211,蘆竹湳,2017-01-14,23.934019,120.811994,4.958e-10
C0S830,長濱,2017-01-14,23.286817,121.411975,1.1094136e-09
C1F9F1,伯公龍,2017-01-14,24.272392,120.849047,1.1541753e-09
C0E810,西湖,2017-01-14,24.562947,120.7485,1.6843924e-05
C1I440,新高口,2017-01-14,23.478744,120.878939,4.2019552e-09
C0O840,王爺宮,2017-01-14,23.222064,120.40085,7.298756e-10
C0T9G0,鳳林山,2017-01-14,23.735269,121.420131,2.3499145e-09
C0X080,佳里,2017-01-14,23.173039,120.145086,8.603958e-10
C0FB70,大甲溪埔,2017-01-14,24.370625,120.620067,7.146665e-08
C0Z310,清水斷崖,2017-01-14,24.218294,121.689142,6.11171e-09
C0M680,太保,2017-01-14,23.455062,120.331455,1.2266915e-08
C1S820,金峰,2017-01-14,22.590969,120.933236,3.1151462e-08
C0AD10,八里,2017-01-14,25.150211,121.403947,0.00020360241
C2K240,草嶺,2017-01-14,23.59555,120.693461,2.0342168e-09
C1SA70,都蘭,2017-01-14,22.87794,121.226881,1.587026e-09
C0K440,二崙,2017-01-14,23.772797,120.408944,1.7415548e-09
C1A760,坪林交控,2017-01-14,24.94284,121.713442,5.3758512e-08
C0F9N0,大里,2017-01-14,24.092464,120.701378,5.382587e-10
C0SA90,達仁林場,2017-01-14,22.264347,120.823972,0.006003653
C1R290,石門山,2017-01-14,22.112611,120.756597,0.9997777
42HA10,萬大發電廠,2017-01-14,23.978875,121.139639,1.3624797e-09
C0R890,山海,2017-01-14,21.9878,120.7091,0.03591583
C0T9A0,月眉山,2017-01-14,23.809928,121.539828,1.6122425e-09
C0AC70,信義,2017-01-14,25.037822,121.564597,2.59846e-06
C0K560,棋山,2017-01-14,23.68645,120.603417,7.802741e-09
C2FB50,出雲,2017-01-14,24.206469,120.902794,1.8834219e-09
C1Z240,中平林道,2017-01-14,23.42115,121.26763,3.0024708e-08
U2H480,溪頭,2017-01-14,23.670306,120.798194,2.8935552e-09
C0M880,好美里,2017-01-14,23.3364,120.138,6.16372e-10
C0T9E0,大坑,2017-01-14,23.880628,121.581981,1.2611385e-09
C0K530,臺西,2017-01-14,23.701547,120.197559,5.2045934e-08
C1E900,國一N128K,2017-01-14,24.560997,120.844186,1.3203497e-08
C0AJ50,水湳洞,2017-01-14,25.123695,121.862238,2.0146392e-06
C0AI20,白沙灣,2017-01-14,25.283128,121.519058,0.02490849
C0A860,大坪,2017-01-14,25.165914,121.632969,5.0124694e-08
C1U850,觀音海岸,2017-01-14,24.38319,121.77856,4.4351873e-09
C2K610,草嶺石壁,2017-01-14,23.602469,120.707731,2.10739e-09
C0U950,鶯子嶺,2017-01-14,24.89754,121.79244,2.4708958e-08
C0O900,善化,2017-01-14,23.112883,120.297219,7.9813156e-10
C0K550,蔦松,2017-01-14,23.514319,120.229736,4.1311803e-09
E2P980,林試六龜中心,2017-01-14,22.991703,120.645722,1.6824667e-09
C0E590,通霄,2017-01-14,24.471892,120.704622,9.115345e-07
C1I310,西巒,2017-01-14,23.754486,120.883956,1.4464292e-09
C0A550,泰平,2017-01-14,24.971197,121.823711,4.02592e-08
C0I360,水里,2017-01-14,23.812553,120.849792,3.8191994e-10
C0R830,高士,2017-01-14,22.121825,120.836781,0.99417156
C1I101,溪頭,2017-01-14,23.661789,120.807647,3.3576903e-09
C0AJ20,野柳,2017-01-14,25.20703,121.690021,3.7277375e-06
C0B060,暖暖,2017-01-14,25.0957,121.7403,3.8043177e-07
C1H920,長豐,2017-01-14,24.102039,120.879897,6.740005e-10
C0V360,內門,2017-01-14,22.975481,120.466769,1.8633266e-09
C0R850,林邊,2017-01-14,22.4634,120.5339,4.901041e-10
C0E930,龍鳳,2017-01-14,24.700034,120.859125,7.3535176e-07
C0U910,冬山,2017-01-14,24.63373,121.7937,7.77634e-09
C1E721,泰安,2017-01-14,24.489017,120.968036,3.3333212e-09
82H320,茶改中部分場,2017-01-14,23.875611,120.913583,1.4489806e-09
C0M750,布袋,2017-01-14,23.380878,120.167789,6.555304e-10
C1S860,利嘉,2017-01-14,22.809417,121.050528,5.9146292e-09
72C440,桃園農改,2017-01-14,24.950944,121.030583,0.86391735
E2S980,林試太麻里1,2017-01-14,22.598922,120.980044,8.2250715e-08
C0X170,關廟,2017-01-14,22.963017,120.327797,4.3698148e-10
C0V720,林園,2017-01-14,22.507747,120.394511,5.7530813e-10
C1I510,線浸林道,2017-01-14,23.761508,120.832956,2.2446276e-09
C0D690,外湖,2017-01-14,24.917735,120.968711,0.9880512
C0C750,新興坑尾,2017-01-14,25.0061,121.0971,0.9315723
B2Q810,畜試南區分所,2017-01-14,21.945583,120.802167,0.026602454
C0S790,金崙,2017-01-14,22.538122,120.966875,1.0535467e-07
C0AH90,福山植物園,2017-01-14,24.760717,121.58135,3.374121e-08
C0I540,奇萊稜線,2017-01-14,24.109231,121.326456,1.5988885e-08
C0M850,表湖,2017-01-14,23.24186,120.64166,1.398322e-09
C0S770,大溪山,2017-01-14,22.478475,120.943325,2.0548688e-07
C0AG80,中和,2017-01-14,24.991622,121.491792,1.7094504e-06
C0T790,大禹嶺,2017-01-14,24.186117,121.316086,7.217952e-09
C0T9B0,水源,2017-01-14,23.991861,121.537169,2.2271258e-09
C0R840,牡丹池山,2017-01-14,22.168389,120.841225,0.9897447
C1I131,桶頭,2017-01-14,23.641944,120.654117,1.2042156e-09
CAL110,布袋國中,2017-01-14,23.35893,120.18026,6.555304e-10
467571,新竹,2017-01-14,24.827853,121.014219,0.008699427
C0Z290,赤柯山,2017-01-14,23.36893,121.38293,8.364017e-09
C0X280,將軍,2017-01-14,23.214999,120.13577,6.6399297e-10
C0S690,太麻里,2017-01-14,22.60902,120.98533,7.713719e-09
C0U880,北關,2017-01-14,24.9072,121.8734,1.7743905e-07
C1H860,瑞岩,2017-01-14,24.123772,121.18345,6.0418777e-09
C0G810,埔心,2017-01-14,23.947633,120.525456,6.326869e-10
C0U970,大福,2017-01-14,24.80064,121.81389,1.6675957e-08
C2H9N0,仁愛東眼,2017-01-14,24.026875,121.1205,2.1269022e-09
C1E670,南礦,2017-01-14,24.538278,121.002836,4.832244e-09
C0M520,東後寮,2017-01-14,23.369908,120.248065,6.479365e-10
C1E461,松安,2017-01-14,24.397972,120.986022,2.7615499e-09
72G600,臺中農改,2017-01-14,24.003028,120.534389,4.7803095e-10
C2N160,西拉雅風管處,2017-01-14,23.189481,120.335297,1.0822825e-09
C2M970,碧湖,2017-01-14,23.568632,120.624165,1.779936e-09
C0A640,石碇,2017-01-14,24.993969,121.662917,1.0743486e-07
E2S960,林試太麻里2,2017-01-14,22.598,120.99775,2.6627305e-07
C0F9Y0,桃山,2017-01-14,24.432739,121.303808,1.0536267e-08
C1I020,萬大,2017-01-14,23.979817,121.132261,1.2633365e-09
C0U940,羅東,2017-01-14,24.68184,121.74934,7.248497e-09
C0M650,朴子,2017-01-14,23.43463,120.23902,9.198045e-10
C1I500,大尖山,2017-01-14,23.858572,120.994889,6.1170744e-09
C0G820,田尾,2017-01-14,23.901669,120.509389,6.326869e-10
E2K600,四湖植物園,2017-01-14,23.676986,120.163433,4.3614257e-08
C0S730,綠島,2017-01-14,22.6672,121.47533,0.7398942
12Q970,東港工作站,2017-01-14,22.479997,120.466058,4.9122345e-10
C0E430,南庄,2017-01-14,24.601775,121.000214,6.8999224e-09
C1TA00,太魯閣,2017-01-14,24.15773,121.6236,4.958844e-09
466920,臺北,2017-01-14,25.037658,121.514853,2.59846e-06
C0R600,舊泰武,2017-01-14,22.588194,120.664944,1.2173931e-09
C1I260,北坑,2017-01-14,23.9246,121.006903,5.2028915e-10
466910,鞍部,2017-01-14,25.182586,121.529731,4.0273942e-08
C1I230,九份二山,2017-01-14,23.961944,120.845,1.1961213e-09
C2A660,瑞芳,2017-01-14,25.113169,121.801147,6.2416234e-07
C0R270,琉球嶼,2017-01-14,22.332244,120.362236,6.7692154e-09
C1T990,高寮,2017-01-14,23.394239,121.356808,9.599379e-10
C0G620,芬園,2017-01-14,24.015678,120.6213,5.3156685e-10
C1Z140,荖溪,2017-01-14,23.890575,121.45964,1.6919255e-08
C1I201,中心崙,2017-01-14,23.728722,120.712097,5.7920907e-10
C1I400,凌霄,2017-01-14,24.018778,121.004456,2.0234745e-09
C1M640,十字,2017-01-14,23.492153,120.753683,3.105978e-09
G2P820,農試鳳山分所,2017-01-14,22.646611,120.356083,4.6325277e-10
C0Z270,蕃薯寮,2017-01-14,23.73835,121.540108,1.6057732e-09
C0F9Q0,外埔,2017-01-14,24.347817,120.705686,2.560313e-09
C0K580,高鐵雲林,2017-01-14,23.737456,120.417944,1.3461774e-09
C2I090,鳳凰,2017-01-14,23.728081,120.787347,1.4715068e-09
C0U990,員山,2017-01-14,24.74435,121.72247,7.3163777e-09
C0V770,大社,2017-01-14,22.730306,120.346639,4.420608e-10
C0X120,麻豆,2017-01-14,23.183289,120.248611,6.8004385e-10
C0C670,龍潭,2017-01-14,24.870056,121.221389,4.344265e-07
C0D680,香山濕地,2017-01-14,24.783581,120.914988,1.3080556e-06
C0S980,勝林山,2017-01-14,22.430439,120.8938,1.5779543e-07
C0V730,大寮,2017-01-14,22.605614,120.395717,4.5489615e-10
C0R570,麟洛,2017-01-14,22.65078,120.52719,5.016953e-09
C2M930,石卓,2017-01-14,23.478744,120.702264,3.4066654e-09
C0G9B0,和美,2017-01-14,24.105169,120.492131,2.777132e-09
CAG100,王功漁港,2017-01-14,23.96824,120.32586,2.4649515e-07
C0X290,北門,2017-01-14,23.267772,120.125481,6.6399297e-10
C2F930,大甲,2017-01-14,24.347667,120.640403,4.3326303e-08
C0D650,湖口,2017-01-14,24.904794,121.043628,0.3940735
C0E420,竹南,2017-01-14,24.708978,120.888897,4.9034776e-07
C0U780,五結,2017-01-14,24.68637,121.79794,7.506299e-09
C1I250,鯉潭,2017-01-14,23.961922,120.991131,1.0520237e-09
C0R130,阿禮,2017-01-14,22.742908,120.743678,2.4311029e-09
C0X100,臺南市北區,2017-01-14,23.010394,120.194228,5.9977845e-10
C0S920,金峰嘉蘭,2017-01-14,22.594789,120.960825,7.6449254e-08
C0V490,新興,2017-01-14,22.627422,120.298803,4.6515905e-10
C0F9K0,大安,2017-01-14,24.345061,120.588025,7.588471e-08
72N100,臺南農改,2017-01-14,23.0605,120.342194,7.102467e-10
467290,古坑,2017-01-14,23.633639,120.551889,1.1735999e-08
C2E970,八甲,2017-01-14,24.535811,120.795983,7.2992195e-09
C0V440,鳳山,2017-01-14,22.646653,120.356122,4.6325277e-10
C1T940,大觀,2017-01-14,23.714206,121.373133,2.0354975e-09
72T250,花蓮農改,2017-01-14,23.975222,121.563889,1.7010463e-09
C0E740,造橋,2017-01-14,24.637056,120.864778,4.702093e-08
C0R100,尾寮山,2017-01-14,22.833111,120.683889,2.1481965e-09
A2K630,臺大雲林校區,2017-01-14,23.730628,120.423903,1.3461774e-09
C0D580,寶山,2017-01-14,24.735006,121.025192,3.3574663e-09
E2P990,林試扇平站,2017-01-14,22.9677,120.6857,2.038151e-09
C0AI30,三重,2017-01-14,25.057328,121.500629,3.2435353e-06
C0AH00,汐止,2017-01-14,25.066881,121.658778,2.59846e-06
C1Z040,立山,2017-01-14,23.443356,121.327375,4.9890034e-09
C0W130,花嶼,2017-01-14,23.40007,119.32276,0.9888546
C0A950,鼻頭角,2017-01-14,25.129036,121.923372,0.0001391195
C0K470,林內,2017-01-14,23.748675,120.609642,1.7731218e-09
C2F990,摩天嶺,2017-01-14,24.322458,120.936819,1.6452456e-09
82C160,茶改場,2017-01-14,24.908472,121.185333,5.960998e-06
C0Z320,清水林道,2017-01-14,23.27125,121.188272,5.662832e-09
C0R760,南仁湖,2017-01-14,22.084681,120.863353,0.9997777
C0M670,大林,2017-01-14,23.600616,120.45841,1.3026097e-08
C0M800,茶山,2017-01-14,23.299075,120.664767,5.788391e-10
C0A9C0,天母,2017-01-14,25.117494,121.537169,3.0621618e-06
72K220,南改斗南分場,2017-01-14,23.634556,120.477333,6.9907435e-09
72AI40,桃改樹林分場,2017-01-14,24.944503,121.386972,5.5686443e-05
C0S910,蘭嶼燈塔,2017-01-14,22.081197,121.503117,0.9376136
C0B050,八斗子,2017-01-14,25.144754,121.79167,2.9694781e-06
C0U900,內城,2017-01-14,24.71813,121.68766,6.8792647e-09
C0X320,柳營,2017-01-14,23.253328,120.375253,1.341254e-09
C0M790,新港,2017-01-14,23.553269,120.345728,2.8979792e-09
C0F9T0,西屯,2017-01-14,24.179494,120.641275,4.1852677e-10
C0SA30,都歷,2017-01-14,23.020333,121.323642,1.001385e-09
C0C620,蘆竹,2017-01-14,25.084275,121.265767,0.008092521
C0R730,大坪頂,2017-01-14,22.024633,120.69355,0.9961345
C0AJ40,石門,2017-01-14,25.273672,121.601198,0.000192696
C0E750,苗栗,2017-01-14,24.564569,120.824575,1.393788e-08
C0T870,鯉魚潭,2017-01-14,23.935639,121.508944,1.319629e-09
C1V170,排雲,2017-01-14,23.463619,120.954147,1.3282963e-08
C2H950,中寮,2017-01-14,23.884447,120.766406,9.210738e-10
C0R350,貓鼻頭,2017-01-14,21.921774,120.7358,0.07409034
C0V660,岡山,2017-01-14,22.797078,120.294958,3.8014883e-10
C1H941,雙冬,2017-01-14,23.967378,120.802189,5.320994e-10
C0AJ70,田寮,2017-01-14,25.2698,121.4886,0.034620013
C0AI00,五股,2017-01-14,25.07445,121.42728,2.20399e-06
C0Z280,德武,2017-01-14,23.47426,121.41071,8.8274704e-10
C0R700,枋山,2017-01-14,22.246844,120.661086,0.51117074
C0C460,復興,2017-01-14,24.820208,121.352281,8.232307e-08
E2H360,蓮華池,2017-01-14,23.918333,120.885278,5.8752847e-10
C0M640,中埔,2017-01-14,23.42538,120.5229,1.8252983e-08
C0W140,金沙,2017-01-14,24.488292,118.408778,0.00037120123
C2A540,四堵,2017-01-14,24.8926,121.745736,3.5079886e-08
C0ACA0,新莊,2017-01-14,25.051478,121.446756,4.127785e-05
C0R220,潮州,2017-01-14,22.534361,120.54,6.07241e-10
U2HA40,臺大內茅埔,2017-01-14,23.689722,120.851117,1.5857703e-09
467490,臺中,2017-01-14,24.145736,120.684075,7.177983e-10
C0U960,翠峰湖,2017-01-14,24.510856,121.608044,1.32220705e-08
E2HA20,林試畢祿溪站,2017-01-14,24.226944,121.308522,7.1476847e-09
C0V890,前鎮,2017-01-14,22.5718,120.3117,4.819493e-10
467620,蘭嶼,2017-01-14,22.036969,121.558339,0.8936577
C1F941,雪嶺,2017-01-14,24.280586,121.026642,1.0720187e-08
C2H9E0,國姓南港,2017-01-14,23.911108,120.846556,2.0420228e-09
C0AC80,文山,2017-01-14,25.00235,121.575728,1.063448e-06
C0F9R0,龍井,2017-01-14,24.184536,120.528972,6.3158514e-09
C0M760,民雄,2017-01-14,23.551754,120.428457,1.5480355e-08
C0UA40,西德山,2017-01-14,24.560647,121.752608,1.2745286e-08
C1T920,中興,2017-01-14,23.769503,121.498653,9.706237e-10
C0D550,雪霸,2017-01-14,24.526972,121.11605,3.099687e-09
C2F860,梨山,2017-01-14,24.247522,121.243669,7.38898e-09
C0R320,車城,2017-01-14,22.0744,120.716247,0.7765156
C1S870,南美山,2017-01-14,23.15025,121.382333,1.1134986e-09
C0B020,基隆嶼,2017-01-14,25.19141,121.78391,0.0036683155
C1U501,牛鬥,2017-01-14,24.637836,121.573656,1.7594248e-08
C0M730,嘉義市東區,2017-01-14,23.457673,120.460531,5.576763e-07
C0S700,知本,2017-01-14,22.684866,121.005642,6.2366285e-09
C1N001,沙崙,2017-01-14,22.935472,120.309406,4.5286e-10
C0V760,橋頭,2017-01-14,22.757806,120.30575,4.5577417e-10
C0G960,福寶,2017-01-14,24.0443,120.3814,2.8372422e-09
C0X210,白河,2017-01-14,23.347466,120.414427,4.87602e-08
C0S810,東河,2017-01-14,22.972672,121.303986,1.4712718e-08
C2R170,屏東,2017-01-14,22.66027,120.49403,5.016953e-09
C0R670,楓港,2017-01-14,22.190131,120.692156,0.97929156
C0FA50,霧峰,2017-01-14,24.0419,120.6995,5.8431554e-10
C0UB10,蘇澳,2017-01-14,24.5969,121.8571,6.5258905e-09
C0G950,防潮門,2017-01-14,24.1835,120.4871,6.3158514e-09
C0M740,六腳,2017-01-14,23.492871,120.290625,1.6180032e-09
C1R250,力里,2017-01-14,22.428117,120.629228,4.978345e-10
C0K330,虎尾,2017-01-14,23.719183,120.442036,1.2663812e-09
C2FA00,烏石坑,2017-01-14,24.273503,120.947617,1.6088204e-09
C0V620,永安,2017-01-14,22.82315,120.236856,3.8014883e-10
C1I330,楓樹林,2017-01-14,23.986803,121.076117,1.5394164e-09
C0W200,湖西,2017-01-14,23.596314,119.67275,0.9697563
72Q010,高雄農改場,2017-01-14,22.709333,120.525889,7.1743322e-09
C0SA40,瑞和,2017-01-14,22.974361,121.156697,9.708033e-10
C0C680,龜山,2017-01-14,25.02846,121.38656,8.5567564e-07
C2V260,月眉,2017-01-14,22.971003,120.539853,3.242646e-07
C0V450,鳳森,2017-01-14,22.545064,120.392592,4.926948e-10
C0U720,南山,2017-01-14,24.43742,121.38167,5.858368e-09
A2N290,臺南蘭花園區,2017-01-14,23.340258,120.379661,4.4536845e-09
C0R560,新園,2017-01-14,22.5434,120.461558,5.75307e-10
C0U890,三星,2017-01-14,24.66812,121.65302,2.3448607e-08
C1V300,御油山,2017-01-14,23.001983,120.715364,6.6142984e-09
C0U600,礁溪,2017-01-14,24.817539,121.765608,1.120041e-07
C1T980,龍澗,2017-01-14,24.023289,121.411328,2.3394106e-08
C0D670,海天一線,2017-01-14,24.831986,120.914438,0.99791765
C0SA00,歷坵,2017-01-14,22.520969,120.89185,1.9782538e-08
C0M710,東石,2017-01-14,23.458927,120.15385,2.7046885e-09
C0M780,鹿草,2017-01-14,23.41134,120.30835,8.721583e-10
C0U520,雙連埤,2017-01-14,24.753033,121.641303,1.4464465e-08
C0B010,七堵,2017-01-14,25.094819,121.71713,6.534132e-07
C0R480,長治,2017-01-14,22.693128,120.542622,6.571165e-10
C1V830,國三S383K,2017-01-14,22.781967,120.426475,9.032896e-10
12Q980,恆春工作站,2017-01-14,22.079678,120.714425,0.7765156
C1O940,東山服務區,2017-01-14,23.286016,120.398472,2.3210094e-09
C1U840,東澳嶺,2017-01-14,24.5378,121.8485,7.980529e-09
C1D630,飛鳳山,2017-01-14,24.766464,121.119178,1.4157937e-08
C0S940,石寧山,2017-01-14,23.223772,121.406639,1.1608251e-09
C0K410,北港,2017-01-14,23.573957,120.292802,5.7047753e-09
C2M620,瑞里,2017-01-14,23.545133,120.675197,2.5883446e-09
C0SB70,小港漁港,2017-01-14,23.158558,121.400431,1.1768048e-09
C2O950,安南,2017-01-14,23.076694,120.144861,1.1953778e-09
C0F0E0,南湖圈谷,2017-01-14,24.363714,121.444667,2.4857055e-08
467610,成功,2017-01-14,23.097486,121.373428,1.6318912e-09
C0G890,伸港,2017-01-14,24.148933,120.484403,3.502197e-09
C2E540,龍溪,2017-01-14,24.606489,120.783933,4.9145818e-08
C1V200,梅山,2017-01-14,23.268447,120.823556,2.7821263e-09
C0T9H0,加路蘭山,2017-01-14,23.682947,121.5274,3.4066525e-09
C2O930,玉井,2017-01-14,23.126042,120.46055,7.3667844e-10
C1F911,新伯公,2017-01-14,24.221361,120.841069,8.117138e-10
C0R490,九如,2017-01-14,22.7405,120.490503,8.053329e-09
C0X200,左鎮,2017-01-14,23.056758,120.408522,4.793951e-10
C0SB50,叭嗡嗡,2017-01-14,23.047062,121.343223,1.2161747e-09
C1F891,稍來,2017-01-14,24.265689,121.001142,7.3335764e-09
72N240,七股研究中心,2017-01-14,23.081672,120.062894,1.2285218e-09
C0C700,中壢,2017-01-14,24.977661,121.256375,2.6061334e-06
C0M690,水上,2017-01-14,23.419734,120.388909,1.10554845e-08
C0V690,鼓山,2017-01-14,22.623325,120.275575,4.6515905e-10
C0O860,大內,2017-01-14,23.11885,120.36083,7.3490314e-10
C0Z200,萬榮,2017-01-14,23.709219,121.420106,1.3460003e-09
C0T9D0,和中,2017-01-14,24.26676,121.74103,3.7985113e-09
C1O921,楠西,2017-01-14,23.183511,120.484083,3.0947305e-09
C0AJ30,淡水觀海,2017-01-14,25.184591,121.408616,1.6471184e-05
C0V810,左營,2017-01-14,22.67491,120.28491,4.9185156e-10
C0UA70,桃源谷,2017-01-14,24.962606,121.888875,3.384117e-08
C0X130,官田,2017-01-14,23.193217,120.315422,1.1509613e-09
C1H000,翠峰,2017-01-14,24.109397,121.205211,6.6714283e-09
C0UA90,石城,2017-01-14,24.980444,121.951214,1.9826058e-07
C1E681,南勢山,2017-01-14,24.421669,120.923831,2.0432382e-09
C0A9F0,內湖,2017-01-14,25.079422,121.57545,2.59846e-06
C0K291,宜梧,2017-01-14,23.536281,120.169329,4.133458e-09
C1K540,口湖,2017-01-14,23.585344,120.180517,3.3478567e-08
C0R780,滿州,2017-01-14,22.024403,120.839892,0.4797878
C0V870,文安,2017-01-14,22.8025,120.2164,3.8907103e-10
C0U650,玉蘭,2017-01-14,24.675286,121.587061,1.9231212e-08
C0R640,東港,2017-01-14,22.46247,120.44074,4.9175686e-10
K2E360,苗栗農改,2017-01-14,24.495722,120.829111,4.60775e-09
C0AJ80,板橋,2017-01-14,25.0107,121.4489,1.9588758e-06
C0S660,下馬,2017-01-14,23.150427,121.070312,5.1415525e-09
C1H9B1,阿眉,2017-01-14,24.1263,120.994672,6.3467662e-09
C0UA20,多加屯,2017-01-14,24.368614,121.373189,4.9267994e-09
C0E730,頭份,2017-01-14,24.688247,120.912206,5.739074e-07
72V140,高改旗南分場,2017-01-14,22.857861,120.516667,1.1785416e-08
C0K480,莿桐,2017-01-14,23.761192,120.502372,1.9987525e-09
C0U980,坪林石牌,2017-01-14,24.86478,121.77396,2.1251635e-08
C0T900,西林,2017-01-14,23.8119,121.441458,1.0561292e-09
C1I150,青雲,2017-01-14,23.793361,120.949378,8.200157e-10
467350,澎湖,2017-01-14,23.565503,119.563094,0.97870505
C0G800,埔鹽,2017-01-14,24.000394,120.431683,3.202733e-09
C0H960,草屯,2017-01-14,23.973672,120.68085,5.357319e-10
C1V780,多納林道,2017-01-14,22.888028,120.737917,2.3526456e-09
C0E920,通霄漁港,2017-01-14,24.498589,120.673876,2.352251e-06
C0Z330,安通山,2017-01-14,23.290728,121.348528,1.5035608e-09
C0AH10,永和,2017-01-14,25.01125,121.508111,1.7503642e-06
C0AK10,太平里,2017-01-14,25.134937,121.364899,0.00016989882
C2G640,鹿港,2017-01-14,24.0753,120.430481,2.8372422e-09
C1E890,國三N149K,2017-01-14,24.463414,120.680019,1.2641006e-07
C1R110,口社,2017-01-14,22.770111,120.645222,5.925978e-09
C1M870,國三N285K,2017-01-14,23.550319,120.505833,2.2585688e-08
467050,新屋,2017-01-14,25.006744,121.047486,0.9952523
C1E480,鳳美,2017-01-14,24.554803,121.034747,4.9856737e-09
C0M530,奮起湖,2017-01-14,23.493903,120.699253,3.019866e-09
C0C590,觀音,2017-01-14,25.027072,121.153317,0.9977015
C0T9M0,靜浦,2017-01-14,23.455167,121.495028,8.236712e-10
C2H9M0,發祥,2017-01-14,24.154094,121.164517,4.0506425e-09
C0AI40,石牌,2017-01-14,25.115597,121.513139,3.507575e-06
C1F871,上谷關,2017-01-14,24.203483,121.018644,1.6957303e-09
C2H9G0,百勝,2017-01-14,24.051142,120.909361,3.5562614e-10
C0G880,二水,2017-01-14,23.810742,120.6173,1.0674418e-09
C0R940,加祿堂,2017-01-14,22.3363,120.6217,0.9619416
C0W220,北竿,2017-01-14,26.220358,119.974881,0.0017640777
C0O960,崎頂,2017-01-14,22.959547,120.369317,3.9848222e-10
C0S750,向陽,2017-01-14,23.248397,120.986133,5.4571427e-09
C0T9F0,水璉,2017-01-14,23.797131,121.542514,1.1746564e-09
C1M600,頭凍,2017-01-14,23.406364,120.603339,1.3850843e-09
467660,臺東,2017-01-14,22.752211,121.154586,0.0006288706
C1D380,新埔,2017-01-14,24.84745,121.03834,0.0002949414
C2G980,田頭村,2017-01-14,23.8263,120.444175,1.7415548e-09
C0V750,路竹,2017-01-14,22.854997,120.259439,5.6677024e-10
C0N050,蚵寮,2017-01-14,23.301,120.1104,6.16372e-10
72M700,南改鹿草分場,2017-01-14,23.416869,120.283061,9.198045e-10
C1SA50,利嘉林道,2017-01-14,22.82325,121.009389,2.3660299e-08
467550,玉山,2017-01-14,23.487614,120.959522,1.8500828e-08
C0A940,金山,2017-01-14,25.223628,121.643967,2.8668803e-06
C1V340,大津,2017-01-14,22.888322,120.645986,2.6871554e-08
C0W180,七美,2017-01-14,23.219333,119.444892,0.9760342
C1F9C1,白冷,2017-01-14,24.182844,120.929889,7.960032e-10
K2E710,苗改生物防治研究中心,2017-01-14,24.422861,120.871833,1.4032248e-09
C0N040,蘆竹溝,2017-01-14,23.2344,120.0961,6.6399297e-10
C2W230,畜試所澎湖,2017-01-14,23.628342,119.513206,0.98610455
C0R880,後壁湖,2017-01-14,21.9457,120.7457,0.035126023
C1I280,埔中,2017-01-14,23.820778,120.642594,3.4547318e-10
467790,墾丁雷達站,2017-01-14,21.948235,120.808028,0.025873452
C0W190,望安,2017-01-14,23.380564,119.494075,0.98383904
466881,新北,2017-01-14,24.9593,121.52,1.5023884e-06
C0Z170,卓溪,2017-01-14,23.3443,121.3029,1.0026865e-09
C0F850,東勢,2017-01-14,24.246428,120.833047,5.683345e-10
466900,淡水,2017-01-14,25.164889,121.448906,0.00016989882
C0I370,魚池,2017-01-14,23.895703,120.94135,5.3530597e-10
C0C630,大溪,2017-01-14,24.882853,121.265547,7.735571e-07
C0A520,山佳,2017-01-14,24.974944,121.402008,1.07084825e-05
C0I110,竹山,2017-01-14,23.761225,120.688156,7.694245e-10
82H840,茶改南部分場,2017-01-14,23.762528,120.7405,3.4855485e-10
C0G660,溪湖,2017-01-14,23.94835,120.479122,6.448813e-10
C1T800,洛韶,2017-01-14,24.204558,121.453956,2.3710896e-08
C1T810,慈恩,2017-01-14,24.192044,121.388386,4.506114e-09
C1E451,象鼻,2017-01-14,24.368617,120.940228,1.5307204e-09
C0AC60,三峽,2017-01-14,24.939025,121.369728,3.417424e-05
C0I490,萬大林道,2017-01-14,23.928228,121.091411,2.8315226e-09
C1I290,豐丘,2017-01-14,23.668178,120.887417,3.085283e-09
C1I320,奧萬大,2017-01-14,23.952956,121.178556,1.5860667e-09
C2M910,嘉義大學,2017-01-14,23.471325,120.485903,1.9592125e-07
C0U770,南澳,2017-01-14,24.44935,121.81022,8.671345e-09
C0A980,社子,2017-01-14,25.109508,121.469681,0.0003337697
C0V800,六龜,2017-01-14,22.997889,120.633583,2.1186506e-09
C1G9D0,國一S218K,2017-01-14,23.890641,120.493253,9.807062e-10
C0E570,白沙屯,2017-01-14,24.549447,120.696803,4.715588e-05
C2F9A0,中竹林,2017-01-14,24.103556,120.751061,3.510642e-10
C0FA40,臺中電廠,2017-01-14,24.2146,120.4907,6.3158514e-09
C2G9A0,畜試所彰化,2017-01-14,23.86045,120.557964,7.8927104e-10
C0H9C0,合歡山,2017-01-14,24.143442,121.272547,1.5803362e-08
C0X060,下營,2017-01-14,23.22695,120.256261,6.986195e-10
G2M350,農試溪口農場,2017-01-14,23.58565,120.408111,1.6319294e-08
C0U860,頭城,2017-01-14,24.85323,121.8308,1.1790738e-07
C0R580,南州,2017-01-14,22.48591,120.50274,4.9175686e-10
C0D430,峨眉,2017-01-14,24.6905,121.017189,1.5234978e-08
C0G780,秀水,2017-01-14,24.03405,120.503869,4.7790333e-10
72N100,臺南農改場,2017-01-14,23.0605,120.342194,7.102467e-10
C0S900,蘭嶼高中,2017-01-14,22.04909,121.51214,0.9777884
467540,大武,2017-01-14,22.355675,120.903789,0.9997863
C1F9W0,德基,2017-01-14,24.254783,121.190261,5.694252e-09
C1Z120,壽豐,2017-01-14,23.870853,121.508081,9.797807e-10
C0W160,烏坵,2017-01-14,24.9944,119.44956,0.7381866
C1I240,外大坪,2017-01-14,23.958697,120.917931,1.0713234e-09
C1I550,國六W023K,2017-01-14,23.979067,120.867742,2.7642205e-10
C0R870,興海,2017-01-14,21.9752,120.8439,0.026602454
C0R140,瑪家,2017-01-14,22.682903,120.686639,1.3940479e-09
C0A530,坪林,2017-01-14,24.938183,121.70975,4.0791527e-08
C0X260,後壁,2017-01-14,23.366358,120.362326,4.4536845e-09
C0Z230,和平,2017-01-14,24.30717,121.77007,3.9306776e-09
C0G770,福興,2017-01-14,24.041289,120.437669,3.202733e-09
C0H9A0,神木村,2017-01-14,23.532742,120.843667,3.2272922e-09
C0I460,南投,2017-01-14,23.911469,120.687331,1.1845108e-09
C0I480,梅峰,2017-01-14,24.085272,121.173572,4.2120094e-09
C1V570,吉東,2017-01-14,22.85422,120.5454,8.914988e-09
C2D740,屯原,2017-01-14,24.067969,121.209389,3.5141543e-09
C2A560,福山,2017-01-14,24.776203,121.502811,4.373705e-08
C0AH30,五分山,2017-01-14,25.07125,121.780794,2.6104285e-08
C0FA10,松柏,2017-01-14,24.429115,120.617482,2.4859813e-07
72S200,東改班鳩分場,2017-01-14,22.829528,121.077694,2.8139227e-09
72HA00,中改埔里分場,2017-01-14,23.903208,120.963364,5.515994e-10
C2H9W0,大坪頂農水,2017-01-14,24.043122,120.932781,6.808537e-10
C0C650,平鎮,2017-01-14,24.897503,121.214636,1.2394407e-06
C0S930,延平,2017-01-14,22.902581,121.084058,1.0620277e-09
C0UA60,樟樹山,2017-01-14,24.41393,121.78325,1.1700908e-08
C1S670,摩天,2017-01-14,23.199503,121.027,1.7588276e-08
C0V630,茄萣,2017-01-14,22.906642,120.182608,5.8287847e-10
466940,基隆,2017-01-14,25.133314,121.740475,2.5729378e-06
C0X050,東河,2017-01-14,23.296598,120.385608,2.7137004e-09
C0R770,保力,2017-01-14,22.071122,120.764111,0.9525052
G2L020,農試嘉義分所,2017-01-14,23.485028,120.473806,3.826041e-09
C0X240,關子嶺,2017-01-14,23.331169,120.508025,3.8829187e-10
C0I380,集集,2017-01-14,23.828206,120.801467,3.8395703e-10
466990,花蓮,2017-01-14,23.975128,121.613275,1.7544709e-09
C1V220,小關山,2017-01-14,23.154217,120.813603,4.829415e-09
C1F9G1,慶福山,2017-01-14,24.180853,120.848378,8.592232e-10
C0Z250,瑞穗林道,2017-01-14,23.49284,121.30688,2.5176652e-08
C0D590,新豐,2017-01-14,24.87068,120.97721,0.7662849
C0A870,五指山,2017-01-14,25.132153,121.608692,2.7205582e-08
C0UA50,西帽山,2017-01-14,24.555361,121.802628,1.0618033e-08
C0X160,仁德,2017-01-14,22.968258,120.257689,5.63802e-10
C1H971,六分寮,2017-01-14,23.92507,120.6378,4.1869044e-10
C0W120,西嶼,2017-01-14,23.5626,119.468436,0.9839389
C0G650,員林,2017-01-14,23.946503,120.585597,9.0674374e-10
C0AD50,鶯歌,2017-01-14,24.951533,121.346294,1.5215746e-05
C2H9Q0,北東眼山,2017-01-14,24.120939,121.189303,7.553291e-09
C2H9T0,名間竹圍,2017-01-14,23.859914,120.637572,3.0887554e-10
C0S990,山豬窟,2017-01-14,22.318619,120.857372,0.0018166587
72Q010,高雄農改,2017-01-14,22.709333,120.525889,7.1743322e-09
C0X190,安平,2017-01-14,22.993161,120.152181,5.9977845e-10
C0K400,斗六,2017-01-14,23.720583,120.541127,2.0933166e-09
12J990,口湖工作站,2017-01-14,23.589978,120.180394,3.347863e-08
C0O830,北寮,2017-01-14,23.079561,120.495008,4.520096e-08
C1D410,白蘭,2017-01-14,24.579364,121.079947,5.2071725e-09
C0S970,加津林,2017-01-14,22.416211,120.926942,0.9997027
C0D700,關西,2017-01-14,24.7977,121.1732,3.0258523e-08
C0M810,里佳,2017-01-14,23.389125,120.716647,2.5245162e-09
C0U750,龜山島,2017-01-14,24.841667,121.953133,2.4167954e-05
C0R810,內獅,2017-01-14,22.305064,120.642986,0.96190774
C1M390,龍美,2017-01-14,23.406728,120.654417,1.7863606e-09
C2FB60,頭櫃山,2017-01-14,24.129842,120.858925,2.0683448e-09
C1H840,國三N238K,2017-01-14,23.841008,120.707711,3.188256e-10
CAQ030,崎峰國小,2017-01-14,22.42565,120.49521,4.9175686e-10
C2E520,大湖,2017-01-14,24.414939,120.870872,1.3341203e-09
467530,阿里山,2017-01-14,23.508208,120.813242,6.708893e-09
C1E691,南湖,2017-01-14,24.40135,120.837533,1.6832371e-09
C0FA30,梧棲,2017-01-14,24.256003,120.523381,1.5507219e-08
C1V231,高中,2017-01-14,23.134911,120.716711,1.1040897e-09
C0F9V0,新社,2017-01-14,24.200172,120.815806,7.696065e-10
C0H890,埔里,2017-01-14,23.972169,120.952425,2.8429994e-10
C0R690,墾丁,2017-01-14,21.966756,120.810269,0.9107925
C0F0D0,審馬陣,2017-01-14,24.381675,121.4203,8.1756895e-09
C0R820,白鷺,2017-01-14,22.454275,120.666219,2.3060942e-09
U2H480,臺大溪頭,2017-01-14,23.670306,120.798194,2.8935552e-09
C1V190,南天池,2017-01-14,23.27403,120.91176,4.3294066e-09
K2E360,苗栗農改場,2017-01-14,24.495722,120.829111,4.60775e-09
CAJ050,海口故事園區,2017-01-14,23.57543,120.14121,3.3478567e-08
C2H9D0,三隻寮,2017-01-14,24.093078,120.861578,6.9974904e-10
C0O990,媽廟,2017-01-14,22.99175,120.293525,7.044306e-10
C0D480,打鐵坑,2017-01-14,24.849664,121.150789,3.921847e-07
C0Z220,和平林道,2017-01-14,24.343922,121.656317,4.0998756e-09
C0TA10,花蓮漁港,2017-01-14,23.995322,121.638331,1.787049e-09
72C440,桃園農改場,2017-01-14,24.950944,121.030583,0.86391735
C1E711,馬拉邦山,2017-01-14,24.367306,120.901656,1.5794042e-09
C0SB20,富岡,2017-01-14,22.792467,121.192669,1.4137517e-07
C0D560,竹東,2017-01-14,24.767147,121.057881,3.5156514e-08
C0F9U0,南屯,2017-01-14,24.137006,120.637969,4.460551e-10
C0M720,番路,2017-01-14,23.464657,120.554156,4.1976937e-09
C0F0A0,雪山圈谷,2017-01-14,24.388594,121.236339,1.34152085e-08
C1A9N0,四十份,2017-01-14,24.934158,121.593283,1.0150835e-07
C0U760,東澳,2017-01-14,24.52196,121.83318,7.2954194e-09
C0X230,鹽水,2017-01-14,23.272621,120.247641,5.9857164e-10
C2H9H0,苗改南投蜂場,2017-01-14,23.852589,120.693481,1.0542655e-09
C0R950,萬隆國小,2017-01-14,22.507667,120.587817,5.43741e-10
C0V370,古亭坑,2017-01-14,22.893178,120.401947,4.223632e-10
C1I340,新興橋,2017-01-14,23.563333,120.868728,1.5255207e-09
C0SA80,土坂,2017-01-14,22.453108,120.887572,4.8404603e-05
C0R160,鹽埔,2017-01-14,22.739558,120.530778,7.1743322e-09
C0AC40,大屯山,2017-01-14,25.175675,121.522408,3.3924348e-08
466850,五分山雷達站,2017-01-14,25.071182,121.781205,2.6236112e-08
C2H9L0,馬烈霸,2017-01-14,24.1512,121.201772,7.423122e-09
C1AI50,國三N016K,2017-01-14,25.034164,121.619664,1.4962101e-06
C1V600,藤枝,2017-01-14,23.071961,120.757042,4.832548e-09
C1E601,南勢,2017-01-14,24.572486,120.734842,2.8730055e-06
C0Z180,新城,2017-01-14,24.03946,121.60454,1.7264075e-09
C0O980,新市,2017-01-14,23.061614,120.298197,7.9813156e-10
C0K420,西螺,2017-01-14,23.800407,120.467394,1.5803473e-09
C0Z050,佳心,2017-01-14,23.34567,121.21316,7.736661e-09
C0AD30,蘆洲,2017-01-14,25.086594,121.472331,3.2330906e-06
C0V610,梓官,2017-01-14,22.760558,120.267211,4.558585e-10
K2F750,種苗改良場,2017-01-14,24.225972,120.800917,7.8090345e-10
C0UA80,大溪漁港,2017-01-14,24.941801,121.902955,1.6596034e-07
C1AI60,國一39K邊坡,2017-01-14,25.064361,121.383836,1.1832456e-06
C0W150,金寧,2017-01-14,24.457703,118.328989,9.489852e-05
C0R960,內埔,2017-01-14,22.608483,120.570714,1.0931015e-09
V2C250,八德合作社,2017-01-14,24.93775,121.266389,2.855845e-06
C2H9S0,龍南,2017-01-14,23.953536,120.833183,1.080824e-09
C0AH40,平等,2017-01-14,25.129142,121.577086,4.4613383e-08
C0R540,佳冬,2017-01-14,22.419456,120.552375,7.63852e-06
466950,彭佳嶼,2017-01-14,25.627975,122.079744,0.0019188138
C0A890,雙溪,2017-01-14,25.036003,121.864242,1.942009e-07
C0C480,桃園,2017-01-14,24.992425,121.323172,4.625417e-06
C0AH50,林口,2017-01-14,25.072181,121.38084,6.377926e-07
A2K360,水試臺西試驗場,2017-01-14,23.717231,120.190522,5.4419075e-08
B2N890,畜試所,2017-01-14,23.058972,120.336406,7.102467e-10
C2M960,外寮,2017-01-14,23.562643,120.665688,1.8871111e-09
C0F9S0,烏日,2017-01-14,24.107058,120.624103,6.166225e-10
C0C490,八德,2017-01-14,24.928708,121.283289,2.7082522e-06
C0R190,赤山,2017-01-14,22.592333,120.614306,1.0757851e-09
C0T820,天祥,2017-01-14,24.179597,121.495639,4.979233e-08
C1F9E1,龍安,2017-01-14,24.1605,120.831961,5.6119276e-10
C0V820,小林,2017-01-14,23.148408,120.63325,4.0872947e-10
C2G870,芳苑,2017-01-14,23.922303,120.320025,2.1634655e-07
C0E850,大河,2017-01-14,24.618069,120.948578,1.6679138e-08
C1U670,寒溪,2017-01-14,24.634,121.71691,6.80719e-09
C0N020,城西,2017-01-14,23.0568,120.0956,5.9977845e-10
C1Z110,三棧,2017-01-14,24.11557,121.60501,3.3943635e-08
C0R280,檳榔,2017-01-14,22.076078,120.836777,0.99986
C2H9J0,中台,2017-01-14,23.9996,120.938739,3.7714948e-10
C0F9L0,后里,2017-01-14,24.310436,120.729725,1.2689005e-09
C0D540,橫山,2017-01-14,24.71116,121.11693,2.8491294e-09
C1D420,太閣南,2017-01-14,24.632808,121.160575,5.964271e-09
C1E770,公館,2017-01-14,24.526914,120.830806,5.6676512e-09
CAN130,水試所海水繁養殖中心,2017-01-14,23.120802,120.07968,1.2285218e-09
C1I430,翠華,2017-01-14,24.191961,121.224339,4.4752793e-09
C1M400,菜瓜坪,2017-01-14,23.251928,120.576103,4.545735e-10
C0G730,二林,2017-01-14,23.903325,120.376081,3.5093184e-09
72M360,南改義竹分場,2017-01-14,23.360694,120.279361,6.4793526e-10
V2K620,麥寮合作社,2017-01-14,23.753836,120.294783,4.2770743e-09
C0Z070,舞鶴,2017-01-14,23.46811,121.37407,9.2657493e-10
C0B040,大武崙,2017-01-14,25.166676,121.706993,1.6019721e-06
C1Z030,紅葉,2017-01-14,23.493119,121.338806,8.27414e-10
C1I050,丹大,2017-01-14,23.753747,121.141147,6.767537e-09
C0I080,信義,2017-01-14,23.689694,120.851036,1.5857703e-09
C2M920,朴子農改,2017-01-14,23.469889,120.259383,9.198045e-10
C2A880,福隆,2017-01-14,25.017842,121.942083,2.1047022e-07
C0Z160,鳳林,2017-01-14,23.746114,121.453411,1.301293e-09
C0V210,復興,2017-01-14,23.222403,120.806089,2.6605935e-09
C0H990,昆陽,2017-01-14,24.121322,121.273642,1.278385e-08
C0R741,獅子,2017-01-14,22.202308,120.705236,0.99885595
C0S710,鹿野,2017-01-14,22.917711,121.122994,9.822019e-10
C0I530,小奇萊,2017-01-14,24.131764,121.295717,1.3532757e-08
C2K630,荷苞,2017-01-14,23.657717,120.595144,3.718156e-09
C0Z080,富源,2017-01-14,23.587642,121.378225,3.2082357e-09
467441,高雄,2017-01-14,22.7304,120.3125,4.424927e-10
C0SB10,美和,2017-01-14,22.682078,121.060236,7.6529055e-08
C2K620,馬光農場,2017-01-14,23.721453,120.378864,1.3849073e-09
C1I140,卡奈托灣,2017-01-14,23.754364,121.087872,2.289759e-09
C0I520,玉山風口,2017-01-14,23.470489,120.955994,2.0693719e-08
C1G691,下水埔,2017-01-14,23.816114,120.5676,1.6621741e-09
C0X110,臺南市南區,2017-01-14,22.961189,120.188378,5.63802e-10
C0V680,仁武,2017-01-14,22.701083,120.347722,4.919351e-10
C2G840,北斗,2017-01-14,23.877586,120.514222,9.614239e-10
C0R900,竹坑,2017-01-14,22.1385,120.7022,0.8297537
C0K250,崙背,2017-01-14,23.75555,120.318925,4.2770743e-09
C0G860,社頭,2017-01-14,23.897647,120.5862,8.1727225e-10
C0X150,安定,2017-01-14,23.102614,120.227839,7.196339e-10
C0R590,里港,2017-01-14,22.77919,120.49459,1.5368522e-09
C0E610,馬都安,2017-01-14,24.451272,120.930192,1.7468977e-09
C0E550,明德,2017-01-14,24.583486,120.885411,1.251468e-08
C0R150,三地門,2017-01-14,22.709889,120.639944,6.3775887e-09
C0G910,花壇,2017-01-14,24.032076,120.549461,4.69594e-10
C1D400,鳥嘴山,2017-01-14,24.71909,121.28387,6.1476846e-09
C0K500,元長,2017-01-14,23.64981,120.315024,6.836088e-09
C0F0B0,石岡,2017-01-14,24.276061,120.777644,1.0800286e-09
C2V250,甲仙,2017-01-14,23.080106,120.591758,4.077113e-09
C0SA20,金崙山,2017-01-14,22.567419,120.959667,6.758288e-09
C0V350,溪埔,2017-01-14,22.738578,120.446797,1.0060678e-09
C0M660,溪口,2017-01-14,23.604131,120.403569,1.6319294e-08
C1S880,壽卡,2017-01-14,22.238911,120.858903,0.013272676
72D680,桃改新埔分場,2017-01-14,24.834444,121.066111,0.00046563763
