站號,站名,日期,lat,lon,BLBTSLS
C0R710,龍磐,2017-05-02,21.931672,120.838942,0.11387857
C1F9D1,白毛台,2017-05-02,24.158325,120.886933,5.5497025e-09
C0G940,竹塘,2017-05-02,23.848253,120.386764,9.960156e-09
467590,恆春,2017-05-02,22.003897,120.746339,0.9548889
C1O850,環湖,2017-05-02,23.148617,120.418633,5.0504507e-09
C0U710,太平山,2017-05-02,24.505486,121.525656,2.8925799e-08
C0E820,獅潭,2017-05-02,24.539133,120.920042,4.5269704e-09
C0V880,興達,2017-05-02,22.8778,120.2127,5.712005e-09
C0S890,關山,2017-05-02,23.0395,121.175017,3.2446172e-09
C0SB30,新蘭,2017-05-02,22.869214,121.223228,2.8622958e-08
C2R970,屏科大,2017-05-02,22.648275,120.619247,1.8931761e-08
K2F750,種苗繁殖,2017-05-02,24.225972,120.800917,4.754941e-09
C1Z130,銅門,2017-05-02,23.965694,121.492842,5.9488765e-09
C0AD40,土城,2017-05-02,24.973208,121.445169,3.1372892e-07
CAN140,六官養殖協會,2017-05-02,23.22881,120.29962,4.1106185e-09
C0X180,山上,2017-05-02,23.0757,120.363253,4.0587627e-09
C0F9Z0,雪山東峰,2017-05-02,24.388792,121.268675,3.2149142e-08
C1M480,獨立山,2017-05-02,23.537022,120.607797,3.0002767e-09
C0X220,學甲,2017-05-02,23.230367,120.182187,1.05105755e-08
467650,日月潭,2017-05-02,23.881325,120.90805,8.1359905e-09
C0K600,箔子寮,2017-05-02,23.6197,120.14,1.6983438e-06
C0G830,埤頭,2017-05-02,23.866003,120.452806,9.331959e-10
C0S950,七塊厝,2017-05-02,22.954453,121.229922,2.2884885e-09
467110,金門,2017-05-02,24.407306,118.289281,0.59356
C0AH80,深坑,2017-05-02,25.002703,121.628328,1.5331076e-07
467990,馬祖,2017-05-02,26.169269,119.923419,1.6590954e-07
C0A970,三貂角,2017-05-02,25.007606,122.002058,3.3753633e-08
C2D730,寶山農場,2017-05-02,24.732444,120.976153,1.5241575e-08
C0K430,褒忠,2017-05-02,23.690938,120.303634,5.1532947e-09
467480,嘉義,2017-05-02,23.495925,120.432906,1.5308139e-09
C2E540,後龍,2017-05-02,24.606489,120.783933,1.9139843e-07
C0V400,阿公店,2017-05-02,22.804194,120.355528,9.1979924e-10
C0R440,大漢山,2017-05-02,22.405264,120.753181,1.5808457e-08
C0K280,四湖,2017-05-02,23.630414,120.227125,6.832414e-07
C1F9B1,桐林,2017-05-02,24.066172,120.735194,2.500951e-09
C2H9U0,鳳鵬,2017-05-02,23.763919,120.788061,2.618291e-09
C0K390,土庫,2017-05-02,23.679029,120.395574,1.7059948e-09
C1I450,望鄉山,2017-05-02,23.594153,120.944286,1.997713e-08
C0E910,海埔,2017-05-02,24.648767,120.772435,2.1510353e-07
B2E890,畜試北區分所,2017-05-02,24.527806,120.770972,2.688892e-09
C0R750,四林格山,2017-05-02,22.076989,120.802439,4.7590444e-08
C0F0C0,中坑,2017-05-02,24.248517,120.903319,5.0312408e-09
C1I121,大鞍,2017-05-02,23.678381,120.760017,5.0571693e-09
72U480,花改蘭陽分場,2017-05-02,24.686306,121.716583,1.7467855e-08
C0A770,科教館,2017-05-02,25.096356,121.516507,4.7653117e-08
C0AJ60,六塊厝,2017-05-02,25.24,121.4481,0.8516005
C0R620,墾雷,2017-05-02,21.900836,120.855269,0.0012021665
467420,永康,2017-05-02,23.038386,120.2367,1.07508615e-08
467300,東吉島,2017-05-02,23.25695,119.667467,0.7544915
C0I410,名間,2017-05-02,23.837053,120.701447,4.362439e-09
A2C560,農工中心,2017-05-02,24.985917,121.239833,2.0288459e-07
C0V740,旗山,2017-05-02,22.888614,120.483597,2.5365925e-09
C0Z061,玉里,2017-05-02,23.3215,121.339656,4.534653e-09
C0S840,南田,2017-05-02,22.279725,120.889208,0.8776544
C1I470,杉林溪,2017-05-02,23.639517,120.786444,5.9878427e-09
C1X040,東原,2017-05-02,23.291597,120.463822,6.308676e-09
C0R660,枋寮,2017-05-02,22.367722,120.590647,0.00024117668
C1R120,上德文,2017-05-02,22.763272,120.704442,1.9766875e-09
C0K450,大埤,2017-05-02,23.646074,120.431537,9.762942e-10
C0UA00,土場,2017-05-02,24.576533,121.495333,1.7206391e-08
467080,宜蘭,2017-05-02,24.763975,121.756528,1.6955438e-08
C0N030,四草,2017-05-02,23.0235,120.1116,3.134881e-08
C0V650,彌陀,2017-05-02,22.783806,120.246361,1.9664552e-09
C0D660,新竹市東區,2017-05-02,24.798681,120.986942,4.9310376e-07
82S580,茶改東部分場,2017-05-02,22.907694,121.130139,6.513033e-09
C0SB40,興隆,2017-05-02,22.913661,121.257469,2.229762e-08
C0C710,大溪永福,2017-05-02,24.892936,121.324975,1.879395e-07
C0FA20,溫寮,2017-05-02,24.372177,120.583125,1.7791078e-07
C0V640,湖內,2017-05-02,22.887139,120.2445,5.086374e-09
C0R910,下寮,2017-05-02,22.3929,120.5548,0.00024117668
C0Z020,明里,2017-05-02,23.208717,121.262342,9.485865e-09
C0M770,嘉義梅山,2017-05-02,23.585398,120.555587,3.577967e-09
G2F820,農業試驗所,2017-05-02,24.031261,120.688133,1.9830695e-09
C0C660,楊梅,2017-05-02,24.912375,121.143047,6.478604e-08
C1E511,新開,2017-05-02,24.347703,120.827019,1.596806e-09
G2F820,農試所(霧峰),2017-05-02,24.031261,120.688133,1.9830695e-09
C1I070,和社,2017-05-02,23.591131,120.888861,5.5324123e-09
C2F000,大肚,2017-05-02,24.15295,120.572117,2.7498708e-09
C1S850,豐南,2017-05-02,23.122139,121.262389,3.5305605e-09
C2A920,富貴角,2017-05-02,25.263783,121.565258,5.3063388e-05
CAH030,茶改場竹圍站,2017-05-02,23.860083,120.637528,2.707992e-09
C0T960,光復,2017-05-02,23.660694,121.424964,2.4909868e-09
C0F9M0,豐原,2017-05-02,24.254322,120.720692,2.708617e-09
C0R720,旭海,2017-05-02,22.205403,120.887614,0.00013417042
C0V710,苓雅,2017-05-02,22.622742,120.330669,5.3511022e-09
C0C740,觀音工業區,2017-05-02,25.064764,121.114856,0.88194793
CAC040,拉拉山,2017-05-02,24.699317,121.427133,2.3393035e-08
C0V790,萬山,2017-05-02,22.905944,120.688056,9.411238e-09
U2HA30,臺大和社,2017-05-02,23.590856,120.888864,5.5324123e-09
C0AJ90,澳底,2017-05-02,25.0552,121.9253,6.141421e-06
C0Z100,東華,2017-05-02,23.89525,121.549833,5.798471e-09
C0G970,三豐,2017-05-02,23.882,120.2895,8.5531055e-06
V2K610,大庄合作社,2017-05-02,23.8068,120.367939,5.589902e-09
C0V900,汕尾,2017-05-02,22.4782,120.4151,5.526472e-07
C1R630,龍泉,2017-05-02,22.66701,120.59091,5.548192e-08
C1AC50,關渡,2017-05-02,25.133486,121.469331,7.120121e-08
C0F9I0,神岡,2017-05-02,24.272481,120.658314,1.6033126e-09
C0K460,斗南,2017-05-02,23.678734,120.478359,9.431431e-10
467410,臺南,2017-05-02,22.993239,120.204772,1.7718449e-08
C2O810,曾文,2017-05-02,23.219681,120.497328,8.807747e-09
467280,後龍,2017-05-02,24.648563,120.831834,1.5288384e-07
C1F9J1,清水林,2017-05-02,24.071242,120.820419,4.2218304e-09
C2A650,火燒寮,2017-05-02,25.002719,121.742892,1.3973256e-08
466930,竹子湖,2017-05-02,25.162078,121.544547,8.7056655e-09
C1I220,樟湖,2017-05-02,23.905333,120.846983,4.6163273e-09
C0I390,仁愛,2017-05-02,24.022122,121.132206,5.747885e-09
C0Z300,東里,2017-05-02,23.26853,121.30547,1.0820312e-08
C1V590,新發,2017-05-02,23.057019,120.646064,8.281566e-09
C0K510,水林,2017-05-02,23.572924,120.24597,7.790145e-09
72S590,東改賓朗果園,2017-05-02,22.813889,121.071278,6.2377707e-09
82A750,茶改北部分場,2017-05-02,24.955778,121.631222,2.070118e-08
C1A750,石碇服務區,2017-05-02,25.00872,121.646242,3.7400508e-08
C0X300,鹿寮,2017-05-02,23.386047,120.477331,5.2610116e-09
G2AI50,關渡,2017-05-02,25.11575,121.492,0.15833768
C0K590,雲林東勢,2017-05-02,23.674192,120.255721,5.391076e-09
C0A570,桶後,2017-05-02,24.848222,121.597992,8.47091e-09
C1S800,華源,2017-05-02,22.657883,121.02325,1.9023628e-06
C0G720,溪州,2017-05-02,23.851589,120.499093,8.7784263e-10
C1V160,達卡努瓦,2017-05-02,23.279811,120.705319,4.5964357e-09
C2M410,馬頭山,2017-05-02,23.324361,120.582017,4.819937e-09
C0V850,蚵仔寮,2017-05-02,22.7256,120.2527,1.3995334e-09
C0S740,池上,2017-05-02,23.119628,121.209469,1.1337492e-08
C1V390,尖山,2017-05-02,22.813153,120.367789,8.0118817e-10
C0AH70,松山,2017-05-02,25.04871,121.55042,4.046212e-08
C0N010,鯤鯓國小,2017-05-02,23.1879,120.0889,3.7295223e-08
C0R550,新埤,2017-05-02,22.467947,120.582894,2.5347495e-07
C0SA60,知本（水試所）,2017-05-02,22.702394,121.082761,0.00029971122
C0T9I0,豐濱,2017-05-02,23.583897,121.514806,2.2023003e-09
C0UB00,淡江大學蘭陽校園,2017-05-02,24.823239,121.730383,8.1052915e-09
C0W240,九宮,2017-05-02,24.423753,118.240186,0.6284402
C0T9N0,富里,2017-05-02,23.171639,121.249378,9.152392e-09
U2HA50,臺大竹山,2017-05-02,23.756972,120.681556,2.0317312e-09
C0V840,鳳鼻頭,2017-05-02,22.5083,120.3591,5.1609497e-08
C0X140,西港,2017-05-02,23.125608,120.203108,3.59359e-08
72D080,桃改五峰分場,2017-05-02,24.612194,121.157167,5.2547238e-09
C2H9P0,伊拿谷,2017-05-02,23.963211,121.088264,4.6561377e-09
C2H9F0,柑林,2017-05-02,24.018658,120.847072,6.861941e-09
C0TA20,加灣,2017-05-02,24.082025,121.608944,7.8983504e-08
C0V530,阿蓮,2017-05-02,22.883208,120.327508,3.0273053e-09
C1O880,關山,2017-05-02,23.173397,120.594092,3.005099e-09
C0E791,卓蘭,2017-05-02,24.3126,120.8244,2.6500286e-09
C1I030,武界,2017-05-02,23.913225,121.052483,4.5202664e-09
C0R520,崁頂,2017-05-02,22.514781,120.506914,3.0857646e-07
C0R341,牡丹,2017-05-02,22.130036,120.792639,0.0005422444
C0R930,萬丹,2017-05-02,22.5885,120.4851,2.3234023e-08
C0S760,紅石,2017-05-02,23.069131,121.126219,1.2762143e-08
C1M610,石磐龍,2017-05-02,23.496606,120.663506,6.1512617e-09
C0UA10,鴛鴦湖,2017-05-02,24.590269,121.412228,1.7001163e-08
V2C260,八德蔬果,2017-05-02,24.978508,121.281819,2.1731218e-08
C0R800,丹路,2017-05-02,22.204481,120.750989,0.08614297
C0G920,永靖,2017-05-02,23.924703,120.547533,1.1999441e-09
C2M950,太和,2017-05-02,23.538372,120.702961,6.715935e-09
C1A630,下盆,2017-05-02,24.771003,121.538622,8.671114e-09
B2N890,畜產試驗所,2017-05-02,23.058972,120.336406,6.1450116e-09
C0UA30,白嶺,2017-05-02,24.527819,121.519031,1.4932017e-08
C1V580,溪南(特生中心),2017-05-02,23.084972,120.788475,5.8612852e-09
C1T970,大農,2017-05-02,23.615233,121.413331,2.1212951e-09
E2S960,林試太麻里2,2017-05-02,22.598014,120.989761,2.9090515e-05
C0R650,竹田,2017-05-02,22.58486,120.54344,1.4089588e-06
C1H900,清流,2017-05-02,24.080775,120.962997,5.370919e-09
C1C510,水尾,2017-05-02,24.940081,121.087161,0.0014618852
C0F9X0,大雅(中科園區),2017-05-02,24.21528,120.62445,1.4209413e-09
C0SB60,白守蓮,2017-05-02,23.126769,121.401914,2.695804e-07
C0O970,虎頭埤,2017-05-02,23.021375,120.347878,3.276358e-09
C0C730,中大臨海站,2017-05-02,24.966126,121.008581,0.3562078
C0X250,新營,2017-05-02,23.310689,120.316681,2.3078368e-09
C0V700,三民,2017-05-02,22.645017,120.311233,2.3465956e-09
C0U870,大礁溪,2017-05-02,24.791042,121.675047,9.054101e-09
C0E870,高鐵苗栗,2017-05-02,24.60725,120.826094,1.7079141e-07
A2K570,古坑花卉中心,2017-05-02,23.63353,120.55239,4.605422e-09
C0M860,新美,2017-05-02,23.338017,120.683169,9.032436e-09
C1E701,八卦,2017-05-02,24.491756,120.927619,6.80462e-09
C0I420,國姓,2017-05-02,24.037803,120.855072,6.3449628e-09
C2D720,關西工作站,2017-05-02,24.757275,121.184792,2.4402047e-08
C0S960,香蘭,2017-05-02,22.587569,120.993375,2.9090515e-05
C0R260,春日,2017-05-02,22.370361,120.628306,1.8982864e-05
72G600,臺中農改場,2017-05-02,24.003028,120.534389,1.3057733e-09
C0Z210,瑞穗,2017-05-02,23.5239,121.39021,2.5084321e-09
C0M820,達邦,2017-05-02,23.453994,120.749517,6.462373e-09
C0V860,南寮,2017-05-02,22.7616,120.2339,1.3995334e-09
C0G740,大城,2017-05-02,23.852487,120.320935,6.1483183e-06
C0R920,塭仔,2017-05-02,22.4169,120.5197,0.00034707406
C0R470,高樹,2017-05-02,22.826389,120.600806,1.3321604e-08
C0R680,佳樂水,2017-05-02,21.993578,120.861633,0.4418329
C1O870,大棟山,2017-05-02,23.31157,120.52226,6.976917e-09
C0D360,梅花,2017-05-02,24.678347,121.208558,1.0986305e-08
C0Z190,富世,2017-05-02,24.14743,121.6297,1.1001701e-07
C0AI10,屈尺,2017-05-02,24.92184,121.54475,6.7271037e-07
B2U990,畜試東區分所,2017-05-02,24.669039,121.832561,5.2195825e-09
C0SB80,長濱漁港,2017-05-02,23.313644,121.459994,5.6851257e-09
C0R240,來義,2017-05-02,22.527306,120.625111,5.600972e-08
C0V910,大樹,2017-05-02,22.684645,120.432803,3.9677674e-09
C1R610,西大武山,2017-05-02,22.617719,120.7322,1.1284699e-08
C0G900,線西,2017-05-02,24.143358,120.443536,9.143078e-08
C0M700,竹崎,2017-05-02,23.526178,120.555508,4.7634376e-09
C2E880,三義,2017-05-02,24.405478,120.749819,2.6472955e-09
C0C720,竹圍,2017-05-02,25.112692,121.239824,0.15824991
C0F9P0,清水,2017-05-02,24.312297,120.562242,1.0959457e-07
C0Z150,吉安光華,2017-05-02,23.930925,121.595153,8.954302e-09
C1D640,外坪(五指山),2017-05-02,24.644447,121.090961,4.5069566e-09
C0F9O0,潭子,2017-05-02,24.213106,120.703933,3.7300896e-09
C2H9R0,卓社,2017-05-02,23.887894,121.000086,5.816338e-09
72T250,花蓮農改場,2017-05-02,23.975222,121.563889,2.0571134e-08
C0E780,銅鑼,2017-05-02,24.489681,120.790853,2.4195703e-09
C1T950,太安,2017-05-02,23.666719,121.370128,1.1370445e-07
C0E830,苑裡,2017-05-02,24.439714,120.653053,2.6611386e-07
467270,田中,2017-05-02,23.873803,120.581286,1.2721721e-09
C0SA10,檳榔四格山,2017-05-02,22.810031,121.109308,4.4033426e-09
C1T830,布洛灣,2017-05-02,24.17184,121.57127,7.965573e-07
C0F970,大坑,2017-05-02,24.173142,120.722289,3.597401e-09
C1U920,思源,2017-05-02,24.393125,121.347214,1.0299107e-08
C0A931,三和,2017-05-02,25.233153,121.595236,3.013636e-08
C0I010,廬山,2017-05-02,24.033311,121.181808,7.827187e-09
C2M940,日野賀,2017-05-02,23.434056,120.727169,6.664662e-09
C0R860,鼻頭,2017-05-02,22.1043,120.8979,0.9870573
C0UB20,壯圍,2017-05-02,24.7359,121.8163,2.1636465e-08
C0R790,九棚,2017-05-02,22.14195,120.889281,0.05861891
C0W110,東莒,2017-05-02,25.9652,119.98069,1.05167956e-07
C1U930,粉鳥林,2017-05-02,24.497088,121.842479,1.4925552e-08
C1I211,蘆竹湳,2017-05-02,23.934019,120.811994,7.376687e-09
C0S830,長濱,2017-05-02,23.286817,121.411975,4.14387e-09
C1F9F1,伯公龍,2017-05-02,24.272392,120.849047,2.804765e-09
C0E810,西湖,2017-05-02,24.562947,120.7485,0.00021595662
C1I440,新高口,2017-05-02,23.478744,120.878939,1.5396669e-08
C0O840,王爺宮,2017-05-02,23.222064,120.40085,6.005766e-09
C0T9G0,鳳林山,2017-05-02,23.735269,121.420131,6.228319e-09
C0X080,佳里,2017-05-02,23.173039,120.145086,3.7295223e-08
C0FB70,大甲溪埔,2017-05-02,24.370625,120.620067,1.17917615e-07
C0Z310,清水斷崖,2017-05-02,24.218294,121.689142,8.6944354e-08
C0M680,太保,2017-05-02,23.455062,120.331455,1.4790564e-09
C1S820,金峰,2017-05-02,22.590969,120.933236,2.9558834e-07
C0AD10,八里,2017-05-02,25.150211,121.403947,0.1582498
C2K240,草嶺,2017-05-02,23.59555,120.693461,5.973185e-09
C1SA70,都蘭,2017-05-02,22.87794,121.226881,2.229762e-08
C0K440,二崙,2017-05-02,23.772797,120.408944,7.997545e-10
C1A760,坪林交控,2017-05-02,24.94284,121.713442,1.1495929e-08
C0F9N0,大里,2017-05-02,24.092464,120.701378,3.0522012e-09
C0SA90,達仁林場,2017-05-02,22.264347,120.823972,5.7132604e-07
C1R290,石門山,2017-05-02,22.112611,120.756597,1.7502874e-06
42HA10,萬大發電廠,2017-05-02,23.978875,121.139639,4.8857465e-09
C0R890,山海,2017-05-02,21.9878,120.7091,0.8716957
C0T9A0,月眉山,2017-05-02,23.809928,121.539828,4.6480366e-09
C0AC70,信義,2017-05-02,25.037822,121.564597,3.5221753e-08
C0K560,棋山,2017-05-02,23.68645,120.603417,4.3441633e-09
C2FB50,出雲,2017-05-02,24.206469,120.902794,5.33784e-09
C1Z240,中平林道,2017-05-02,23.42115,121.26763,1.0607895e-07
U2H480,溪頭,2017-05-02,23.670306,120.798194,3.9627155e-09
C0M880,好美里,2017-05-02,23.3364,120.138,1.5315157e-08
C0T9E0,大坑,2017-05-02,23.880628,121.581981,4.4623234e-09
C0K530,臺西,2017-05-02,23.701547,120.197559,2.3783473e-06
C1E900,國一N128K,2017-05-02,24.560997,120.844186,9.278842e-09
C0AJ50,水湳洞,2017-05-02,25.123695,121.862238,2.1595197e-05
C0AI20,白沙灣,2017-05-02,25.283128,121.519058,0.78581506
C0A860,大坪,2017-05-02,25.165914,121.632969,1.0631712e-08
C1U850,觀音海岸,2017-05-02,24.38319,121.77856,5.8052656e-09
C2K610,草嶺石壁,2017-05-02,23.602469,120.707731,6.0178635e-09
C0U950,鶯子嶺,2017-05-02,24.89754,121.79244,1.2636264e-08
C0O900,善化,2017-05-02,23.112883,120.297219,8.234612e-09
C0K550,蔦松,2017-05-02,23.514319,120.229736,2.0773548e-07
E2P980,林試六龜中心,2017-05-02,22.991703,120.645722,8.917981e-09
C0E590,通霄,2017-05-02,24.471892,120.704622,3.6699514e-06
C1I310,西巒,2017-05-02,23.754486,120.883956,3.2956244e-09
C0A550,泰平,2017-05-02,24.971197,121.823711,1.4501094e-08
C0I360,水里,2017-05-02,23.812553,120.849792,3.0729614e-09
C0R830,高士,2017-05-02,22.121825,120.836781,3.5581928e-07
C1I101,溪頭,2017-05-02,23.661789,120.807647,1.3869541e-08
C0AJ20,野柳,2017-05-02,25.20703,121.690021,3.5786042e-07
C0B060,暖暖,2017-05-02,25.0957,121.7403,4.4065626e-08
C1H920,長豐,2017-05-02,24.102039,120.879897,5.463673e-09
C0V360,內門,2017-05-02,22.975481,120.466769,2.0627071e-09
C0R850,林邊,2017-05-02,22.4634,120.5339,4.4388415e-07
C0E930,龍鳳,2017-05-02,24.700034,120.859125,7.330068e-05
C0U910,冬山,2017-05-02,24.63373,121.7937,5.2195825e-09
C1E721,泰安,2017-05-02,24.489017,120.968036,5.5331615e-09
82H320,茶改中部分場,2017-05-02,23.875611,120.913583,9.230335e-09
C0M750,布袋,2017-05-02,23.380878,120.167789,1.639958e-08
C1S860,利嘉,2017-05-02,22.809417,121.050528,6.359601e-08
72C440,桃園農改,2017-05-02,24.950944,121.030583,0.012812412
E2S980,林試太麻里1,2017-05-02,22.598922,120.980044,2.4963258e-06
C0X170,關廟,2017-05-02,22.963017,120.327797,6.6455965e-09
C0V720,林園,2017-05-02,22.507747,120.394511,4.0487443e-08
C1I510,線浸林道,2017-05-02,23.761508,120.832956,3.6565129e-09
C0D690,外湖,2017-05-02,24.917735,120.968711,0.043605708
C0C750,新興坑尾,2017-05-02,25.0061,121.0971,0.17175531
B2Q810,畜試南區分所,2017-05-02,21.945583,120.802167,0.44154364
C0S790,金崙,2017-05-02,22.538122,120.966875,1.767375e-07
C0AH90,福山植物園,2017-05-02,24.760717,121.58135,2.5594206e-08
C0I540,奇萊稜線,2017-05-02,24.109231,121.326456,2.4057753e-08
C0M850,表湖,2017-05-02,23.24186,120.64166,4.949678e-09
C0S770,大溪山,2017-05-02,22.478475,120.943325,3.2579333e-08
C0AG80,中和,2017-05-02,24.991622,121.491792,3.1367986e-07
C0T790,大禹嶺,2017-05-02,24.186117,121.316086,1.9834033e-08
C0T9B0,水源,2017-05-02,23.991861,121.537169,6.350011e-09
C0R840,牡丹池山,2017-05-02,22.168389,120.841225,1.8536506e-05
C1I131,桶頭,2017-05-02,23.641944,120.654117,2.8871987e-09
CAL110,布袋國中,2017-05-02,23.35893,120.18026,1.6425062e-08
467571,新竹,2017-05-02,24.827853,121.014219,0.002307878
C0Z290,赤柯山,2017-05-02,23.36893,121.38293,2.0636094e-08
C0X280,將軍,2017-05-02,23.214999,120.13577,1.1504922e-08
C0S690,太麻里,2017-05-02,22.60902,120.98533,1.8035136e-08
C0U880,北關,2017-05-02,24.9072,121.8734,2.4377718e-08
C1H860,瑞岩,2017-05-02,24.123772,121.18345,1.958547e-08
C0G810,埔心,2017-05-02,23.947633,120.525456,1.1959866e-09
C0U970,大福,2017-05-02,24.80064,121.81389,1.814465e-08
C2H9N0,仁愛東眼,2017-05-02,24.026875,121.1205,7.2677677e-09
C1E670,南礦,2017-05-02,24.538278,121.002836,6.2184315e-09
C0M520,東後寮,2017-05-02,23.369908,120.248065,1.5213315e-08
C1E461,松安,2017-05-02,24.397972,120.986022,7.516198e-09
72G600,臺中農改,2017-05-02,24.003028,120.534389,1.3057733e-09
C2N160,西拉雅風管處,2017-05-02,23.189481,120.335297,1.1640538e-08
C2M970,碧湖,2017-05-02,23.568632,120.624165,5.8541234e-09
C0A640,石碇,2017-05-02,24.993969,121.662917,1.474916e-08
E2S960,林試太麻里2,2017-05-02,22.598,120.99775,3.4881923e-05
C0F9Y0,桃山,2017-05-02,24.432739,121.303808,2.562625e-08
C1I020,萬大,2017-05-02,23.979817,121.132261,5.7604184e-09
C0U940,羅東,2017-05-02,24.68184,121.74934,1.8930821e-08
C0M650,朴子,2017-05-02,23.43463,120.23902,6.7062706e-09
C1I500,大尖山,2017-05-02,23.858572,120.994889,1.0774057e-08
C0G820,田尾,2017-05-02,23.901669,120.509389,1.1959866e-09
E2K600,四湖植物園,2017-05-02,23.676986,120.163433,6.8291376e-07
C0S730,綠島,2017-05-02,22.6672,121.47533,0.02386844
12Q970,東港工作站,2017-05-02,22.479997,120.466058,5.526472e-07
C0E430,南庄,2017-05-02,24.601775,121.000214,4.4174246e-09
C1TA00,太魯閣,2017-05-02,24.15773,121.6236,7.718726e-08
466920,臺北,2017-05-02,25.037658,121.514853,4.046212e-08
C0R600,舊泰武,2017-05-02,22.588194,120.664944,1.6870201e-09
C1I260,北坑,2017-05-02,23.9246,121.006903,6.7066797e-09
466910,鞍部,2017-05-02,25.182586,121.529731,1.0092972e-08
C1I230,九份二山,2017-05-02,23.961944,120.845,4.7788897e-09
C2A660,瑞芳,2017-05-02,25.113169,121.801147,1.2075591e-06
C0R270,琉球嶼,2017-05-02,22.332244,120.362236,9.608876e-08
C1T990,高寮,2017-05-02,23.394239,121.356808,5.0825726e-09
C0G620,芬園,2017-05-02,24.015678,120.6213,1.8359329e-09
C1Z140,荖溪,2017-05-02,23.890575,121.45964,4.0202412e-08
C1I201,中心崙,2017-05-02,23.728722,120.712097,2.0877344e-09
C1I400,凌霄,2017-05-02,24.018778,121.004456,7.088058e-09
C1M640,十字,2017-05-02,23.492153,120.753683,9.338819e-09
G2P820,農試鳳山分所,2017-05-02,22.646611,120.356083,1.9858175e-09
C0Z270,蕃薯寮,2017-05-02,23.73835,121.540108,5.584893e-09
C0F9Q0,外埔,2017-05-02,24.347817,120.705686,1.5356714e-09
C0K580,高鐵雲林,2017-05-02,23.737456,120.417944,1.0176028e-09
C2I090,鳳凰,2017-05-02,23.728081,120.787347,5.0901785e-09
C0U990,員山,2017-05-02,24.74435,121.72247,1.9786198e-08
C0V770,大社,2017-05-02,22.730306,120.346639,1.2601646e-09
C0X120,麻豆,2017-05-02,23.183289,120.248611,9.779198e-09
C0C670,龍潭,2017-05-02,24.870056,121.221389,1.1978072e-07
C0D680,香山濕地,2017-05-02,24.783581,120.914988,1.2494191e-06
C0S980,勝林山,2017-05-02,22.430439,120.8938,2.287883e-08
C0V730,大寮,2017-05-02,22.605614,120.395717,4.9589954e-09
C0R570,麟洛,2017-05-02,22.65078,120.52719,4.42325e-09
C2M930,石卓,2017-05-02,23.478744,120.702264,1.1162657e-08
C0G9B0,和美,2017-05-02,24.105169,120.492131,3.0703152e-08
CAG100,王功漁港,2017-05-02,23.96824,120.32586,0.00018518741
C0X290,北門,2017-05-02,23.267772,120.125481,1.1506283e-08
C2F930,大甲,2017-05-02,24.347667,120.640403,5.7377555e-08
C0D650,湖口,2017-05-02,24.904794,121.043628,0.002731006
C0E420,竹南,2017-05-02,24.708978,120.888897,2.208094e-05
C0U780,五結,2017-05-02,24.68637,121.79794,2.1626564e-08
C1I250,鯉潭,2017-05-02,23.961922,120.991131,5.2964118e-09
C0R130,阿禮,2017-05-02,22.742908,120.743678,2.1404214e-09
C0X100,臺南市北區,2017-05-02,23.010394,120.194228,2.7079315e-08
C0S920,金峰嘉蘭,2017-05-02,22.594789,120.960825,1.7570004e-06
C0V490,新興,2017-05-02,22.627422,120.298803,5.3513776e-09
C0F9K0,大安,2017-05-02,24.345061,120.588025,1.4196179e-07
72N100,臺南農改,2017-05-02,23.0605,120.342194,6.1450116e-09
467290,古坑,2017-05-02,23.633639,120.551889,4.605422e-09
C2E970,八甲,2017-05-02,24.535811,120.795983,5.832424e-09
C0V440,鳳山,2017-05-02,22.646653,120.356122,1.9858175e-09
C1T940,大觀,2017-05-02,23.714206,121.373133,5.88215e-09
72T250,花蓮農改,2017-05-02,23.975222,121.563889,2.0571134e-08
C0E740,造橋,2017-05-02,24.637056,120.864778,1.7079141e-07
C0R100,尾寮山,2017-05-02,22.833111,120.683889,2.3997888e-09
A2K630,臺大雲林校區,2017-05-02,23.730628,120.423903,1.0176028e-09
C0D580,寶山,2017-05-02,24.735006,121.025192,8.077327e-09
E2P990,林試扇平站,2017-05-02,22.9677,120.6857,2.5310878e-09
C0AI30,三重,2017-05-02,25.057328,121.500629,4.7653117e-08
C0AH00,汐止,2017-05-02,25.066881,121.658778,4.046212e-08
C1Z040,立山,2017-05-02,23.443356,121.327375,4.2178158e-08
C0W130,花嶼,2017-05-02,23.40007,119.32276,0.035924178
C0A950,鼻頭角,2017-05-02,25.129036,121.923372,0.021499015
C0K470,林內,2017-05-02,23.748675,120.609642,2.4118387e-09
C2F990,摩天嶺,2017-05-02,24.322458,120.936819,6.4913914e-09
82C160,茶改場,2017-05-02,24.908472,121.185333,4.1409486e-08
C0Z320,清水林道,2017-05-02,23.27125,121.188272,2.2957119e-08
C0R760,南仁湖,2017-05-02,22.084681,120.863353,1.7502874e-06
C0M670,大林,2017-05-02,23.600616,120.45841,1.4539083e-09
C0M800,茶山,2017-05-02,23.299075,120.664767,1.3900049e-08
C0A9C0,天母,2017-05-02,25.117494,121.537169,2.2685252e-07
72K220,南改斗南分場,2017-05-02,23.634556,120.477333,9.431449e-10
72AI40,桃改樹林分場,2017-05-02,24.944503,121.386972,4.113719e-07
C0S910,蘭嶼燈塔,2017-05-02,22.081197,121.503117,0.0006127295
C0B050,八斗子,2017-05-02,25.144754,121.79167,9.7386386e-05
C0U900,內城,2017-05-02,24.71813,121.68766,1.5589572e-08
C0X320,柳營,2017-05-02,23.253328,120.375253,1.9232203e-08
C0M790,新港,2017-05-02,23.553269,120.345728,1.7092975e-09
C0F9T0,西屯,2017-05-02,24.179494,120.641275,1.4350581e-09
C0SA30,都歷,2017-05-02,23.020333,121.323642,5.1909295e-09
C0C620,蘆竹,2017-05-02,25.084275,121.265767,0.0005106557
C0R730,大坪頂,2017-05-02,22.024633,120.69355,0.992494
C0AJ40,石門,2017-05-02,25.273672,121.601198,0.00085286936
C0E750,苗栗,2017-05-02,24.564569,120.824575,9.732084e-09
C0T870,鯉魚潭,2017-05-02,23.935639,121.508944,6.2637615e-09
C1V170,排雲,2017-05-02,23.463619,120.954147,2.4820102e-08
C2H950,中寮,2017-05-02,23.884447,120.766406,4.0510595e-09
C0R350,貓鼻頭,2017-05-02,21.921774,120.7358,0.33405784
C0V660,岡山,2017-05-02,22.797078,120.294958,1.966459e-09
C1H941,雙冬,2017-05-02,23.967378,120.802189,6.5677845e-09
C0AJ70,田寮,2017-05-02,25.2698,121.4886,0.8352868
C0AI00,五股,2017-05-02,25.07445,121.42728,3.398192e-08
C0Z280,德武,2017-05-02,23.47426,121.41071,3.2663685e-09
C0R700,枋山,2017-05-02,22.246844,120.661086,0.993264
C0C460,復興,2017-05-02,24.820208,121.352281,4.7774066e-08
E2H360,蓮華池,2017-05-02,23.918333,120.885278,6.148165e-09
C0M640,中埔,2017-05-02,23.42538,120.5229,2.932162e-09
C0W140,金沙,2017-05-02,24.488292,118.408778,0.94728506
C2A540,四堵,2017-05-02,24.8926,121.745736,9.193788e-09
C0ACA0,新莊,2017-05-02,25.051478,121.446756,4.0481574e-08
C0R220,潮州,2017-05-02,22.534361,120.54,2.725787e-07
U2HA40,臺大內茅埔,2017-05-02,23.689722,120.851117,4.003039e-09
467490,臺中,2017-05-02,24.145736,120.684075,4.237416e-09
C0U960,翠峰湖,2017-05-02,24.510856,121.608044,2.0730775e-08
E2HA20,林試畢祿溪站,2017-05-02,24.226944,121.308522,3.1668712e-08
C0V890,前鎮,2017-05-02,22.5718,120.3117,6.128309e-09
467620,蘭嶼,2017-05-02,22.036969,121.558339,0.010435908
C1F941,雪嶺,2017-05-02,24.280586,121.026642,4.412601e-08
C2H9E0,國姓南港,2017-05-02,23.911108,120.846556,4.709864e-09
C0AC80,文山,2017-05-02,25.00235,121.575728,1.534828e-07
C0F9R0,龍井,2017-05-02,24.184536,120.528972,6.72518e-08
C0M760,民雄,2017-05-02,23.551754,120.428457,1.5314068e-09
C0UA40,西德山,2017-05-02,24.560647,121.752608,1.9034735e-08
C1T920,中興,2017-05-02,23.769503,121.498653,4.20964e-09
C0D550,雪霸,2017-05-02,24.526972,121.11605,7.773344e-09
C2F860,梨山,2017-05-02,24.247522,121.243669,3.1876453e-08
C0R320,車城,2017-05-02,22.0744,120.716247,0.99785995
C1S870,南美山,2017-05-02,23.15025,121.382333,9.394129e-09
C0B020,基隆嶼,2017-05-02,25.19141,121.78391,0.9943783
C1U501,牛鬥,2017-05-02,24.637836,121.573656,1.6031239e-08
C0M730,嘉義市東區,2017-05-02,23.457673,120.460531,4.6985136e-09
C0S700,知本,2017-05-02,22.684866,121.005642,2.5375082e-08
C1N001,沙崙,2017-05-02,22.935472,120.309406,7.636819e-09
C0V760,橋頭,2017-05-02,22.757806,120.30575,1.33818e-09
C0G960,福寶,2017-05-02,24.0443,120.3814,3.715783e-08
C0X210,白河,2017-05-02,23.347466,120.414427,6.313539e-09
C0S810,東河,2017-05-02,22.972672,121.303986,0.0009561937
C2R170,屏東,2017-05-02,22.66027,120.49403,4.42325e-09
C0R670,楓港,2017-05-02,22.190131,120.692156,0.9980867
C0FA50,霧峰,2017-05-02,24.0419,120.6995,1.9300508e-09
C0UB10,蘇澳,2017-05-02,24.5969,121.8571,1.5626815e-08
C0G950,防潮門,2017-05-02,24.1835,120.4871,6.72518e-08
C0M740,六腳,2017-05-02,23.492871,120.290625,2.2753877e-09
C1R250,力里,2017-05-02,22.428117,120.629228,4.740373e-08
C0K330,虎尾,2017-05-02,23.719183,120.442036,9.959866e-10
C2FA00,烏石坑,2017-05-02,24.273503,120.947617,6.4746364e-09
C0V620,永安,2017-05-02,22.82315,120.236856,1.9664552e-09
C1I330,楓樹林,2017-05-02,23.986803,121.076117,6.239734e-09
C0W200,湖西,2017-05-02,23.596314,119.67275,0.17255682
72Q010,高雄農改場,2017-05-02,22.709333,120.525889,9.021916e-09
C0SA40,瑞和,2017-05-02,22.974361,121.156697,4.1262425e-09
C0C680,龜山,2017-05-02,25.02846,121.38656,1.9849399e-08
C2V260,月眉,2017-05-02,22.971003,120.539853,5.3698126e-09
C0V450,鳳森,2017-05-02,22.545064,120.392592,1.0790016e-08
C0U720,南山,2017-05-02,24.43742,121.38167,1.3075359e-08
A2N290,臺南蘭花園區,2017-05-02,23.340258,120.379661,1.7512446e-09
C0R560,新園,2017-05-02,22.5434,120.461558,4.0487443e-08
C0U890,三星,2017-05-02,24.66812,121.65302,2.8194522e-08
C1V300,御油山,2017-05-02,23.001983,120.715364,4.8918727e-09
C0U600,礁溪,2017-05-02,24.817539,121.765608,1.7188187e-08
C1T980,龍澗,2017-05-02,24.023289,121.411328,3.860039e-08
C0D670,海天一線,2017-05-02,24.831986,120.914438,0.13273676
C0SA00,歷坵,2017-05-02,22.520969,120.89185,2.2387196e-08
C0M710,東石,2017-05-02,23.458927,120.15385,2.8510536e-07
C0M780,鹿草,2017-05-02,23.41134,120.30835,6.4648384e-09
C0U520,雙連埤,2017-05-02,24.753033,121.641303,9.0304555e-09
C0B010,七堵,2017-05-02,25.094819,121.71713,7.4376665e-08
C0R480,長治,2017-05-02,22.693128,120.542622,3.4478216e-09
C1V830,國三S383K,2017-05-02,22.781967,120.426475,1.3149156e-09
12Q980,恆春工作站,2017-05-02,22.079678,120.714425,0.99785995
C1O940,東山服務區,2017-05-02,23.286016,120.398472,8.706496e-09
C1U840,東澳嶺,2017-05-02,24.5378,121.8485,1.0642891e-08
C1D630,飛鳳山,2017-05-02,24.766464,121.119178,1.8175893e-08
C0S940,石寧山,2017-05-02,23.223772,121.406639,1.1907816e-08
C0K410,北港,2017-05-02,23.573957,120.292802,7.3502266e-09
C2M620,瑞里,2017-05-02,23.545133,120.675197,6.3516343e-09
C0SB70,小港漁港,2017-05-02,23.158558,121.400431,4.107689e-08
C2O950,安南,2017-05-02,23.076694,120.144861,8.905361e-07
C0F0E0,南湖圈谷,2017-05-02,24.363714,121.444667,3.0619056e-08
467610,成功,2017-05-02,23.097486,121.373428,1.7319219e-07
C0G890,伸港,2017-05-02,24.148933,120.484403,9.1733675e-08
C2E540,龍溪,2017-05-02,24.606489,120.783933,1.9139843e-07
C1V200,梅山,2017-05-02,23.268447,120.823556,6.0961325e-09
C0T9H0,加路蘭山,2017-05-02,23.682947,121.5274,9.654838e-09
C2O930,玉井,2017-05-02,23.126042,120.46055,4.0587627e-09
C1F911,新伯公,2017-05-02,24.221361,120.841069,5.1487654e-09
C0R490,九如,2017-05-02,22.7405,120.490503,9.917598e-09
C0X200,左鎮,2017-05-02,23.056758,120.408522,3.4409497e-09
C0SB50,叭嗡嗡,2017-05-02,23.047062,121.343223,9.3379455e-09
C1F891,稍來,2017-05-02,24.265689,121.001142,2.4670296e-08
72N240,七股研究中心,2017-05-02,23.081672,120.062894,1.8463356e-06
C0C700,中壢,2017-05-02,24.977661,121.256375,1.9259403e-08
C0M690,水上,2017-05-02,23.419734,120.388909,1.3621887e-09
C0V690,鼓山,2017-05-02,22.623325,120.275575,5.3513776e-09
C0O860,大內,2017-05-02,23.11885,120.36083,6.669647e-09
C0Z200,萬榮,2017-05-02,23.709219,121.420106,5.647289e-09
C0T9D0,和中,2017-05-02,24.26676,121.74103,1.0877727e-05
C1O921,楠西,2017-05-02,23.183511,120.484083,4.396109e-09
C0AJ30,淡水觀海,2017-05-02,25.184591,121.408616,0.06780335
C0V810,左營,2017-05-02,22.67491,120.28491,2.3465956e-09
C0UA70,桃源谷,2017-05-02,24.962606,121.888875,1.37986405e-08
C0X130,官田,2017-05-02,23.193217,120.315422,1.3522617e-08
C1H000,翠峰,2017-05-02,24.109397,121.205211,1.33321025e-08
C0UA90,石城,2017-05-02,24.980444,121.951214,5.31827e-08
C1E681,南勢山,2017-05-02,24.421669,120.923831,5.4281384e-09
C0A9F0,內湖,2017-05-02,25.079422,121.57545,4.046212e-08
C0K291,宜梧,2017-05-02,23.536281,120.169329,2.0773548e-07
C1K540,口湖,2017-05-02,23.585344,120.180517,1.6997811e-06
C0R780,滿州,2017-05-02,22.024403,120.839892,0.9635159
C0V870,文安,2017-05-02,22.8025,120.2164,2.076852e-09
C0U650,玉蘭,2017-05-02,24.675286,121.587061,1.7704766e-08
C0R640,東港,2017-05-02,22.46247,120.44074,5.526472e-07
K2E360,苗栗農改,2017-05-02,24.495722,120.829111,2.5583262e-09
C0AJ80,板橋,2017-05-02,25.0107,121.4489,3.5303378e-07
C0S660,下馬,2017-05-02,23.150427,121.070312,1.993526e-08
C1H9B1,阿眉,2017-05-02,24.1263,120.994672,1.8645576e-08
C0UA20,多加屯,2017-05-02,24.368614,121.373189,1.7337804e-08
C0E730,頭份,2017-05-02,24.688247,120.912206,3.3781496e-05
72V140,高改旗南分場,2017-05-02,22.857861,120.516667,2.6240303e-09
C0K480,莿桐,2017-05-02,23.761192,120.502372,1.0429493e-09
C0U980,坪林石牌,2017-05-02,24.86478,121.77396,7.904993e-09
C0T900,西林,2017-05-02,23.8119,121.441458,4.1064574e-09
C1I150,青雲,2017-05-02,23.793361,120.949378,5.814164e-09
467350,澎湖,2017-05-02,23.565503,119.563094,0.07696346
C0G800,埔鹽,2017-05-02,24.000394,120.431683,4.68118e-08
C0H960,草屯,2017-05-02,23.973672,120.68085,1.8406101e-09
C1V780,多納林道,2017-05-02,22.888028,120.737917,2.7890652e-09
C0E920,通霄漁港,2017-05-02,24.498589,120.673876,1.5273159e-05
C0Z330,安通山,2017-05-02,23.290728,121.348528,3.9339554e-09
C0AH10,永和,2017-05-02,25.01125,121.508111,3.5303378e-07
C0AK10,太平里,2017-05-02,25.134937,121.364899,0.08708214
C2G640,鹿港,2017-05-02,24.0753,120.430481,3.715783e-08
C1E890,國三N149K,2017-05-02,24.463414,120.680019,1.3591755e-07
C1R110,口社,2017-05-02,22.770111,120.645222,8.664451e-09
C1M870,國三N285K,2017-05-02,23.550319,120.505833,3.9506105e-09
467050,新屋,2017-05-02,25.006744,121.047486,0.29348937
C1E480,鳳美,2017-05-02,24.554803,121.034747,4.749738e-09
C0M530,奮起湖,2017-05-02,23.493903,120.699253,6.766001e-09
C0C590,觀音,2017-05-02,25.027072,121.153317,0.78394717
C0T9M0,靜浦,2017-05-02,23.455167,121.495028,4.22889e-09
C2H9M0,發祥,2017-05-02,24.154094,121.164517,1.76271e-08
C0AI40,石牌,2017-05-02,25.115597,121.513139,2.8716886e-07
C1F871,上谷關,2017-05-02,24.203483,121.018644,5.0752007e-09
C2H9G0,百勝,2017-05-02,24.051142,120.909361,4.889084e-09
C0G880,二水,2017-05-02,23.810742,120.6173,4.9376934e-09
C0R940,加祿堂,2017-05-02,22.3363,120.6217,0.75043017
C0W220,北竿,2017-05-02,26.220358,119.974881,2.7332237e-07
C0O960,崎頂,2017-05-02,22.959547,120.369317,3.6134444e-09
C0S750,向陽,2017-05-02,23.248397,120.986133,1.3772478e-08
C0T9F0,水璉,2017-05-02,23.797131,121.542514,4.163772e-09
C1M600,頭凍,2017-05-02,23.406364,120.603339,6.037961e-09
467660,臺東,2017-05-02,22.752211,121.154586,0.006977751
C1D380,新埔,2017-05-02,24.84745,121.03834,7.263132e-05
C2G980,田頭村,2017-05-02,23.8263,120.444175,8.0000623e-10
C0V750,路竹,2017-05-02,22.854997,120.259439,4.460962e-09
C0N050,蚵寮,2017-05-02,23.301,120.1104,1.5315157e-08
72M700,南改鹿草分場,2017-05-02,23.416869,120.283061,6.7062706e-09
C1SA50,利嘉林道,2017-05-02,22.82325,121.009389,6.6393504e-09
467550,玉山,2017-05-02,23.487614,120.959522,3.2369357e-08
C0A940,金山,2017-05-02,25.223628,121.643967,2.6440355e-07
C1V340,大津,2017-05-02,22.888322,120.645986,3.729245e-08
C0W180,七美,2017-05-02,23.219333,119.444892,0.091060266
C1F9C1,白冷,2017-05-02,24.182844,120.929889,4.2001442e-09
K2E710,苗改生物防治研究中心,2017-05-02,24.422861,120.871833,2.2114808e-09
C0N040,蘆竹溝,2017-05-02,23.2344,120.0961,1.1506283e-08
C2W230,畜試所澎湖,2017-05-02,23.628342,119.513206,0.06527549
C0R880,後壁湖,2017-05-02,21.9457,120.7457,0.8431226
C1I280,埔中,2017-05-02,23.820778,120.642594,2.4711728e-09
467790,墾丁雷達站,2017-05-02,21.948235,120.808028,0.4979778
C0W190,望安,2017-05-02,23.380564,119.494075,0.30902714
466881,新北,2017-05-02,24.9593,121.52,2.3808406e-07
C0Z170,卓溪,2017-05-02,23.3443,121.3029,4.2897215e-09
C0F850,東勢,2017-05-02,24.246428,120.833047,3.1172187e-09
466900,淡水,2017-05-02,25.164889,121.448906,0.087082095
C0I370,魚池,2017-05-02,23.895703,120.94135,4.088038e-09
C0C630,大溪,2017-05-02,24.882853,121.265547,1.9625655e-07
C0A520,山佳,2017-05-02,24.974944,121.402008,5.6419626e-08
C0I110,竹山,2017-05-02,23.761225,120.688156,3.6017676e-09
82H840,茶改南部分場,2017-05-02,23.762528,120.7405,2.518884e-09
C0G660,溪湖,2017-05-02,23.94835,120.479122,1.2481539e-09
C1T800,洛韶,2017-05-02,24.204558,121.453956,4.1256623e-08
C1T810,慈恩,2017-05-02,24.192044,121.388386,8.761386e-09
C1E451,象鼻,2017-05-02,24.368617,120.940228,3.5650853e-09
C0AC60,三峽,2017-05-02,24.939025,121.369728,3.101475e-07
C0I490,萬大林道,2017-05-02,23.928228,121.091411,7.7081745e-09
C1I290,豐丘,2017-05-02,23.668178,120.887417,4.149422e-09
C1I320,奧萬大,2017-05-02,23.952956,121.178556,5.9396132e-09
C2M910,嘉義大學,2017-05-02,23.471325,120.485903,3.9991694e-09
C0U770,南澳,2017-05-02,24.44935,121.81022,7.71447e-09
C0A980,社子,2017-05-02,25.109508,121.469681,0.17704225
C0V800,六龜,2017-05-02,22.997889,120.633583,9.572727e-09
C1G9D0,國一S218K,2017-05-02,23.890641,120.493253,9.331976e-10
C0E570,白沙屯,2017-05-02,24.549447,120.696803,0.00030887238
C2F9A0,中竹林,2017-05-02,24.103556,120.751061,1.9613731e-08
C0FA40,臺中電廠,2017-05-02,24.2146,120.4907,6.72518e-08
C2G9A0,畜試所彰化,2017-05-02,23.86045,120.557964,1.2721721e-09
C0H9C0,合歡山,2017-05-02,24.143442,121.272547,2.7914934e-08
C0X060,下營,2017-05-02,23.22695,120.256261,4.1106185e-09
G2M350,農試溪口農場,2017-05-02,23.58565,120.408111,1.5709857e-09
C0U860,頭城,2017-05-02,24.85323,121.8308,1.773603e-08
C0R580,南州,2017-05-02,22.48591,120.50274,5.526472e-07
C0D430,峨眉,2017-05-02,24.6905,121.017189,1.5241575e-08
C0G780,秀水,2017-05-02,24.03405,120.503869,1.3057733e-09
72N100,臺南農改場,2017-05-02,23.0605,120.342194,6.1450116e-09
C0S900,蘭嶼高中,2017-05-02,22.04909,121.51214,0.0006556657
467540,大武,2017-05-02,22.355675,120.903789,0.118178174
C1F9W0,德基,2017-05-02,24.254783,121.190261,2.2808592e-08
C1Z120,壽豐,2017-05-02,23.870853,121.508081,5.798471e-09
C0W160,烏坵,2017-05-02,24.9944,119.44956,0.98382306
C1I240,外大坪,2017-05-02,23.958697,120.917931,5.1983506e-09
C1I550,國六W023K,2017-05-02,23.979067,120.867742,2.8729161e-09
C0R870,興海,2017-05-02,21.9752,120.8439,0.44154364
C0R140,瑪家,2017-05-02,22.682903,120.686639,2.9495e-09
C0A530,坪林,2017-05-02,24.938183,121.70975,9.961772e-09
C0X260,後壁,2017-05-02,23.366358,120.362326,1.7518527e-09
C0Z230,和平,2017-05-02,24.30717,121.77007,1.5224122e-05
C0G770,福興,2017-05-02,24.041289,120.437669,4.68118e-08
C0H9A0,神木村,2017-05-02,23.532742,120.843667,9.489086e-09
C0I460,南投,2017-05-02,23.911469,120.687331,6.7170878e-09
C0I480,梅峰,2017-05-02,24.085272,121.173572,1.1134206e-08
C1V570,吉東,2017-05-02,22.85422,120.5454,2.4682993e-09
C2D740,屯原,2017-05-02,24.067969,121.209389,9.919736e-09
C2A560,福山,2017-05-02,24.776203,121.502811,3.5206707e-08
C0AH30,五分山,2017-05-02,25.07125,121.780794,9.6757065e-09
C0FA10,松柏,2017-05-02,24.429115,120.617482,3.526236e-07
72S200,東改班鳩分場,2017-05-02,22.829528,121.077694,8.473043e-09
72HA00,中改埔里分場,2017-05-02,23.903208,120.963364,6.333923e-09
C2H9W0,大坪頂農水,2017-05-02,24.043122,120.932781,5.4098748e-09
C0C650,平鎮,2017-05-02,24.897503,121.214636,4.893676e-08
C0S930,延平,2017-05-02,22.902581,121.084058,4.631258e-09
C0UA60,樟樹山,2017-05-02,24.41393,121.78325,1.04419575e-08
C1S670,摩天,2017-05-02,23.199503,121.027,3.2913547e-08
C0V630,茄萣,2017-05-02,22.906642,120.182608,5.712005e-09
466940,基隆,2017-05-02,25.133314,121.740475,5.0535687e-05
C0X050,東河,2017-05-02,23.296598,120.385608,1.0042143e-08
C0R770,保力,2017-05-02,22.071122,120.764111,0.96217006
G2L020,農試嘉義分所,2017-05-02,23.485028,120.473806,6.7946853e-09
C0X240,關子嶺,2017-05-02,23.331169,120.508025,3.82165e-09
C0I380,集集,2017-05-02,23.828206,120.801467,3.119455e-09
466990,花蓮,2017-05-02,23.975128,121.613275,2.4005407e-08
C1V220,小關山,2017-05-02,23.154217,120.813603,8.649194e-09
C1F9G1,慶福山,2017-05-02,24.180853,120.848378,5.416472e-09
C0Z250,瑞穗林道,2017-05-02,23.49284,121.30688,1.5553182e-07
C0D590,新豐,2017-05-02,24.87068,120.97721,0.15200862
C0A870,五指山,2017-05-02,25.132153,121.608692,8.863056e-09
C0UA50,西帽山,2017-05-02,24.555361,121.802628,1.8042016e-08
C0X160,仁德,2017-05-02,22.968258,120.257689,5.1215077e-09
C1H971,六分寮,2017-05-02,23.92507,120.6378,3.2950902e-09
C0W120,西嶼,2017-05-02,23.5626,119.468436,0.044439726
C0G650,員林,2017-05-02,23.946503,120.585597,1.2695203e-09
C0AD50,鶯歌,2017-05-02,24.951533,121.346294,2.095909e-07
C2H9Q0,北東眼山,2017-05-02,24.120939,121.189303,2.169407e-08
C2H9T0,名間竹圍,2017-05-02,23.859914,120.637572,2.707992e-09
C0S990,山豬窟,2017-05-02,22.318619,120.857372,3.38531e-06
72Q010,高雄農改,2017-05-02,22.709333,120.525889,9.021916e-09
C0X190,安平,2017-05-02,22.993161,120.152181,2.7079315e-08
C0K400,斗六,2017-05-02,23.720583,120.541127,6.3477074e-10
12J990,口湖工作站,2017-05-02,23.589978,120.180394,1.6983438e-06
C0O830,北寮,2017-05-02,23.079561,120.495008,3.1759126e-09
C1D410,白蘭,2017-05-02,24.579364,121.079947,6.6505925e-09
C0S970,加津林,2017-05-02,22.416211,120.926942,0.0623357
C0D700,關西,2017-05-02,24.7977,121.1732,2.7880347e-08
C0M810,里佳,2017-05-02,23.389125,120.716647,7.044471e-09
C0U750,龜山島,2017-05-02,24.841667,121.953133,1.5900073e-06
C0R810,內獅,2017-05-02,22.305064,120.642986,0.7738315
C1M390,龍美,2017-05-02,23.406728,120.654417,6.221872e-09
C2FB60,頭櫃山,2017-05-02,24.129842,120.858925,1.2544864e-08
C1H840,國三N238K,2017-05-02,23.841008,120.707711,2.886235e-09
CAQ030,崎峰國小,2017-05-02,22.42565,120.49521,5.526472e-07
C2E520,大湖,2017-05-02,24.414939,120.870872,2.243626e-09
467530,阿里山,2017-05-02,23.508208,120.813242,2.3596844e-08
C1E691,南湖,2017-05-02,24.40135,120.837533,5.1239892e-09
C0FA30,梧棲,2017-05-02,24.256003,120.523381,1.09945056e-07
C1V231,高中,2017-05-02,23.134911,120.716711,4.9690696e-09
C0F9V0,新社,2017-05-02,24.200172,120.815806,4.552514e-09
C0H890,埔里,2017-05-02,23.972169,120.952425,2.6315685e-09
C0R690,墾丁,2017-05-02,21.966756,120.810269,0.94711834
C0F0D0,審馬陣,2017-05-02,24.381675,121.4203,2.3355051e-08
C0R820,白鷺,2017-05-02,22.454275,120.666219,5.3300875e-09
U2H480,臺大溪頭,2017-05-02,23.670306,120.798194,3.9627155e-09
C1V190,南天池,2017-05-02,23.27403,120.91176,1.3847522e-08
K2E360,苗栗農改場,2017-05-02,24.495722,120.829111,2.5583262e-09
CAJ050,海口故事園區,2017-05-02,23.57543,120.14121,1.6983438e-06
C2H9D0,三隻寮,2017-05-02,24.093078,120.861578,5.368174e-09
C0O990,媽廟,2017-05-02,22.99175,120.293525,8.3802245e-09
C0D480,打鐵坑,2017-05-02,24.849664,121.150789,1.1005458e-07
C0Z220,和平林道,2017-05-02,24.343922,121.656317,6.0203775e-09
C0TA10,花蓮漁港,2017-05-02,23.995322,121.638331,2.6714105e-08
72C440,桃園農改場,2017-05-02,24.950944,121.030583,0.012812412
C1E711,馬拉邦山,2017-05-02,24.367306,120.901656,3.6509518e-09
C0SB20,富岡,2017-05-02,22.792467,121.192669,6.5525535e-07
C0D560,竹東,2017-05-02,24.767147,121.057881,3.216656e-08
C0F9U0,南屯,2017-05-02,24.137006,120.637969,1.6670604e-09
C0M720,番路,2017-05-02,23.464657,120.554156,2.2464908e-09
C0F0A0,雪山圈谷,2017-05-02,24.388594,121.236339,3.2120028e-08
C1A9N0,四十份,2017-05-02,24.934158,121.593283,2.99479e-08
C0U760,東澳,2017-05-02,24.52196,121.83318,1.3516918e-08
C0X230,鹽水,2017-05-02,23.272621,120.247641,1.4067467e-08
C2H9H0,苗改南投蜂場,2017-05-02,23.852589,120.693481,4.6020587e-09
C0R950,萬隆國小,2017-05-02,22.507667,120.587817,1.3371543e-07
C0V370,古亭坑,2017-05-02,22.893178,120.401947,1.1865798e-09
C1I340,新興橋,2017-05-02,23.563333,120.868728,5.920916e-09
C0SA80,土坂,2017-05-02,22.453108,120.887572,1.1112948e-06
C0R160,鹽埔,2017-05-02,22.739558,120.530778,9.021916e-09
C0AC40,大屯山,2017-05-02,25.175675,121.522408,1.145572e-08
466850,五分山雷達站,2017-05-02,25.071182,121.781205,9.702577e-09
C2H9L0,馬烈霸,2017-05-02,24.1512,121.201772,2.1496811e-08
C1AI50,國三N016K,2017-05-02,25.034164,121.619664,2.58199e-08
C1V600,藤枝,2017-05-02,23.071961,120.757042,5.217562e-09
C1E601,南勢,2017-05-02,24.572486,120.734842,2.6016338e-05
C0Z180,新城,2017-05-02,24.03946,121.60454,2.2778465e-08
C0O980,新市,2017-05-02,23.061614,120.298197,8.2321145e-09
C0K420,西螺,2017-05-02,23.800407,120.467394,7.8354423e-10
C0Z050,佳心,2017-05-02,23.34567,121.21316,2.1407777e-08
C0AD30,蘆洲,2017-05-02,25.086594,121.472331,4.7653117e-08
C0V610,梓官,2017-05-02,22.760558,120.267211,1.33818e-09
K2F750,種苗改良場,2017-05-02,24.225972,120.800917,4.754941e-09
C0UA80,大溪漁港,2017-05-02,24.941801,121.902955,2.4076941e-08
C1AI60,國一39K邊坡,2017-05-02,25.064361,121.383836,2.6912383e-08
C0W150,金寧,2017-05-02,24.457703,118.328989,0.65620977
C0R960,內埔,2017-05-02,22.608483,120.570714,1.1117601e-06
V2C250,八德合作社,2017-05-02,24.93775,121.266389,8.28277e-08
C2H9S0,龍南,2017-05-02,23.953536,120.833183,5.890514e-09
C0AH40,平等,2017-05-02,25.129142,121.577086,9.615895e-09
C0R540,佳冬,2017-05-02,22.419456,120.552375,0.00024117668
466950,彭佳嶼,2017-05-02,25.627975,122.079744,0.937682
C0A890,雙溪,2017-05-02,25.036003,121.864242,1.8305807e-06
C0C480,桃園,2017-05-02,24.992425,121.323172,2.3194172e-08
C0AH50,林口,2017-05-02,25.072181,121.38084,1.7329043e-08
A2K360,水試臺西試驗場,2017-05-02,23.717231,120.190522,4.745765e-06
B2N890,畜試所,2017-05-02,23.058972,120.336406,6.1450116e-09
C2M960,外寮,2017-05-02,23.562643,120.665688,5.8579657e-09
C0F9S0,烏日,2017-05-02,24.107058,120.624103,3.4851249e-09
C0C490,八德,2017-05-02,24.928708,121.283289,7.823309e-08
C0R190,赤山,2017-05-02,22.592333,120.614306,8.8419347e-07
C0T820,天祥,2017-05-02,24.179597,121.495639,1.5523871e-07
C1F9E1,龍安,2017-05-02,24.1605,120.831961,9.133871e-09
C0V820,小林,2017-05-02,23.148408,120.63325,2.0322313e-09
C2G870,芳苑,2017-05-02,23.922303,120.320025,9.177423e-05
C0E850,大河,2017-05-02,24.618069,120.948578,7.2862694e-09
C1U670,寒溪,2017-05-02,24.634,121.71691,4.4741184e-09
C0N020,城西,2017-05-02,23.0568,120.0956,2.7079315e-08
C1Z110,三棧,2017-05-02,24.11557,121.60501,6.268736e-08
C0R280,檳榔,2017-05-02,22.076078,120.836777,0.00025563594
C2H9J0,中台,2017-05-02,23.9996,120.938739,7.062633e-09
C0F9L0,后里,2017-05-02,24.310436,120.729725,2.6976301e-09
C0D540,橫山,2017-05-02,24.71116,121.11693,6.063223e-09
C1D420,太閣南,2017-05-02,24.632808,121.160575,1.4479923e-08
C1E770,公館,2017-05-02,24.526914,120.830806,2.688892e-09
CAN130,水試所海水繁養殖中心,2017-05-02,23.120802,120.07968,1.8463356e-06
C1I430,翠華,2017-05-02,24.191961,121.224339,1.49718e-08
C1M400,菜瓜坪,2017-05-02,23.251928,120.576103,6.9574884e-09
C0G730,二林,2017-05-02,23.903325,120.376081,2.2212893e-08
72M360,南改義竹分場,2017-05-02,23.360694,120.279361,1.5213315e-08
V2K620,麥寮合作社,2017-05-02,23.753836,120.294783,5.1532947e-09
C0Z070,舞鶴,2017-05-02,23.46811,121.37407,3.0558478e-09
C0B040,大武崙,2017-05-02,25.166676,121.706993,1.03578595e-05
C1Z030,紅葉,2017-05-02,23.493119,121.338806,2.1814222e-09
C1I050,丹大,2017-05-02,23.753747,121.141147,1.1857863e-08
C0I080,信義,2017-05-02,23.689694,120.851036,4.003039e-09
C2M920,朴子農改,2017-05-02,23.469889,120.259383,6.7062706e-09
C2A880,福隆,2017-05-02,25.017842,121.942083,5.4715283e-08
C0Z160,鳳林,2017-05-02,23.746114,121.453411,5.9014784e-09
C0V210,復興,2017-05-02,23.222403,120.806089,7.1583264e-09
C0H990,昆陽,2017-05-02,24.121322,121.273642,1.9583004e-08
C0R741,獅子,2017-05-02,22.202308,120.705236,0.93291295
C0S710,鹿野,2017-05-02,22.917711,121.122994,2.2853348e-09
C0I530,小奇萊,2017-05-02,24.131764,121.295717,2.0456453e-08
C2K630,荷苞,2017-05-02,23.657717,120.595144,3.780312e-09
C0Z080,富源,2017-05-02,23.587642,121.378225,2.1734037e-08
467441,高雄,2017-05-02,22.7304,120.3125,1.2601646e-09
C0SB10,美和,2017-05-02,22.682078,121.060236,0.00029971122
C2K620,馬光農場,2017-05-02,23.721453,120.378864,1.0787995e-09
C1I140,卡奈托灣,2017-05-02,23.754364,121.087872,5.553038e-09
C0I520,玉山風口,2017-05-02,23.470489,120.955994,3.69956e-08
C1G691,下水埔,2017-05-02,23.816114,120.5676,9.850968e-10
C0X110,臺南市南區,2017-05-02,22.961189,120.188378,5.124204e-09
C0V680,仁武,2017-05-02,22.701083,120.347722,2.34737e-09
C2G840,北斗,2017-05-02,23.877586,120.514222,8.7867685e-10
C0R900,竹坑,2017-05-02,22.1385,120.7022,0.9980184
C0K250,崙背,2017-05-02,23.75555,120.318925,5.1512212e-09
C0G860,社頭,2017-05-02,23.897647,120.5862,1.2896796e-09
C0X150,安定,2017-05-02,23.102614,120.227839,3.59359e-08
C0R590,里港,2017-05-02,22.77919,120.49459,1.7175527e-09
C0E610,馬都安,2017-05-02,24.451272,120.930192,5.2110973e-09
C0E550,明德,2017-05-02,24.583486,120.885411,8.958779e-09
C0R150,三地門,2017-05-02,22.709889,120.639944,9.207616e-09
C0G910,花壇,2017-05-02,24.032076,120.549461,1.2180179e-09
C1D400,鳥嘴山,2017-05-02,24.71909,121.28387,1.7972363e-08
C0K500,元長,2017-05-02,23.64981,120.315024,6.2268346e-09
C0F0B0,石岡,2017-05-02,24.276061,120.777644,2.6320204e-09
C2V250,甲仙,2017-05-02,23.080106,120.591758,1.8431958e-09
C0SA20,金崙山,2017-05-02,22.567419,120.959667,8.797472e-09
C0V350,溪埔,2017-05-02,22.738578,120.446797,1.9473487e-09
C0M660,溪口,2017-05-02,23.604131,120.403569,1.5709857e-09
C1S880,壽卡,2017-05-02,22.238911,120.858903,7.462853e-07
72D680,桃改新埔分場,2017-05-02,24.834444,121.066111,0.0001109544
