站號,站名,日期,lat,lon,BLBTSLS
C0R710,龍磐,2017-07-09,21.931672,120.838942,0.041524637
C1F9D1,白毛台,2017-07-09,24.158325,120.886933,0.00019735206
C0G940,竹塘,2017-07-09,23.848253,120.386764,0.16447487
467590,恆春,2017-07-09,22.003897,120.746339,0.1706644
C1O850,環湖,2017-07-09,23.148617,120.418633,0.2188912
C0U710,太平山,2017-07-09,24.505486,121.525656,3.3237284e-09
C0E820,獅潭,2017-07-09,24.539133,120.920042,0.4844526
C0V880,興達,2017-07-09,22.8778,120.2127,0.2148747
C0S890,關山,2017-07-09,23.0395,121.175017,0.99841464
C0SB30,新蘭,2017-07-09,22.869214,121.223228,0.6982494
C2R970,屏科大,2017-07-09,22.648275,120.619247,0.14644665
K2F750,種苗繁殖,2017-07-09,24.225972,120.800917,0.03179009
C1Z130,銅門,2017-07-09,23.965694,121.492842,0.7491265
C0AD40,土城,2017-07-09,24.973208,121.445169,0.11617942
CAN140,六官養殖協會,2017-07-09,23.22881,120.29962,0.84891355
C0X180,山上,2017-07-09,23.0757,120.363253,0.6272908
C0F9Z0,雪山東峰,2017-07-09,24.388792,121.268675,6.450797e-09
C1M480,獨立山,2017-07-09,23.537022,120.607797,3.1397215e-06
C0X220,學甲,2017-07-09,23.230367,120.182187,0.2195605
467650,日月潭,2017-07-09,23.881325,120.90805,1.3471949e-06
C0K600,箔子寮,2017-07-09,23.6197,120.14,0.031680536
C0G830,埤頭,2017-07-09,23.866003,120.452806,0.7594124
C0S950,七塊厝,2017-07-09,22.954453,121.229922,0.85050046
467110,金門,2017-07-09,24.407306,118.289281,0.9947397
C0AH80,深坑,2017-07-09,25.002703,121.628328,0.12945001
467990,馬祖,2017-07-09,26.169269,119.923419,0.9996242
C0A970,三貂角,2017-07-09,25.007606,122.002058,0.99802536
C2D730,寶山農場,2017-07-09,24.732444,120.976153,0.21560188
C0K430,褒忠,2017-07-09,23.690938,120.303634,0.84597594
467480,嘉義,2017-07-09,23.495925,120.432906,0.9777776
C2E540,後龍,2017-07-09,24.606489,120.783933,0.3813161
C0V400,阿公店,2017-07-09,22.804194,120.355528,0.95652425
C0R440,大漢山,2017-07-09,22.405264,120.753181,9.733479e-08
C0K280,四湖,2017-07-09,23.630414,120.227125,0.061547875
C1F9B1,桐林,2017-07-09,24.066172,120.735194,0.98554194
C2H9U0,鳳鵬,2017-07-09,23.763919,120.788061,0.13151379
C0K390,土庫,2017-07-09,23.679029,120.395574,0.97540486
C1I450,望鄉山,2017-07-09,23.594153,120.944286,8.1456175e-09
C0E910,海埔,2017-07-09,24.648767,120.772435,0.38668257
B2E890,畜試北區分所,2017-07-09,24.527806,120.770972,0.923778
C0R750,四林格山,2017-07-09,22.076989,120.802439,0.9515746
C0F0C0,中坑,2017-07-09,24.248517,120.903319,6.7496315e-09
C1I121,大鞍,2017-07-09,23.678381,120.760017,1.5046748e-08
72U480,花改蘭陽分場,2017-07-09,24.686306,121.716583,0.121727645
C0A770,科教館,2017-07-09,25.096356,121.516507,0.82560956
C0AJ60,六塊厝,2017-07-09,25.24,121.4481,0.010130226
C0R620,墾雷,2017-07-09,21.900836,120.855269,0.032786734
467420,永康,2017-07-09,23.038386,120.2367,0.94535756
467300,東吉島,2017-07-09,23.25695,119.667467,0.9996072
C0I410,名間,2017-07-09,23.837053,120.701447,0.9129442
A2C560,農工中心,2017-07-09,24.985917,121.239833,0.67879695
C0V740,旗山,2017-07-09,22.888614,120.483597,0.8978581
C0Z061,玉里,2017-07-09,23.3215,121.339656,0.9823208
C0S840,南田,2017-07-09,22.279725,120.889208,0.7963379
C1I470,杉林溪,2017-07-09,23.639517,120.786444,8.868772e-09
C1X040,東原,2017-07-09,23.291597,120.463822,0.30413964
C0R660,枋寮,2017-07-09,22.367722,120.590647,0.791676
C1R120,上德文,2017-07-09,22.763272,120.704442,8.350936e-06
C0K450,大埤,2017-07-09,23.646074,120.431537,0.88957036
C0UA00,土場,2017-07-09,24.576533,121.495333,0.97929215
467080,宜蘭,2017-07-09,24.763975,121.756528,0.6759267
C0N030,四草,2017-07-09,23.0235,120.1116,0.91307104
C0V650,彌陀,2017-07-09,22.783806,120.246361,0.28539503
C0D660,新竹市東區,2017-07-09,24.798681,120.986942,0.174438
82S580,茶改東部分場,2017-07-09,22.907694,121.130139,0.8918474
C0SB40,興隆,2017-07-09,22.913661,121.257469,0.71843755
C0C710,大溪永福,2017-07-09,24.892936,121.324975,0.6806159
C0FA20,溫寮,2017-07-09,24.372177,120.583125,0.17275512
C0V640,湖內,2017-07-09,22.887139,120.2445,0.21941991
C0R910,下寮,2017-07-09,22.3929,120.5548,0.791676
C0Z020,明里,2017-07-09,23.208717,121.262342,0.9950172
C0M770,嘉義梅山,2017-07-09,23.585398,120.555587,0.70966756
G2F820,農業試驗所,2017-07-09,24.031261,120.688133,0.9445875
C0C660,楊梅,2017-07-09,24.912375,121.143047,0.98323417
C1E511,新開,2017-07-09,24.347703,120.827019,0.9885111
G2F820,農試所(霧峰),2017-07-09,24.031261,120.688133,0.9445875
C1I070,和社,2017-07-09,23.591131,120.888861,0.16933945
C2F000,大肚,2017-07-09,24.15295,120.572117,0.911855
C1S850,豐南,2017-07-09,23.122139,121.262389,0.88254845
C2A920,富貴角,2017-07-09,25.263783,121.565258,0.012826979
CAH030,茶改場竹圍站,2017-07-09,23.860083,120.637528,0.7262535
C0T960,光復,2017-07-09,23.660694,121.424964,0.95700777
C0F9M0,豐原,2017-07-09,24.254322,120.720692,0.9722479
C0R720,旭海,2017-07-09,22.205403,120.887614,0.90060216
C0V710,苓雅,2017-07-09,22.622742,120.330669,0.9772633
C0C740,觀音工業區,2017-07-09,25.064764,121.114856,0.010725064
CAC040,拉拉山,2017-07-09,24.699317,121.427133,5.5001954e-09
C0V790,萬山,2017-07-09,22.905944,120.688056,0.69808495
U2HA30,臺大和社,2017-07-09,23.590856,120.888864,0.16933945
C0AJ90,澳底,2017-07-09,25.0552,121.9253,0.998869
C0Z100,東華,2017-07-09,23.89525,121.549833,0.50425637
C0G970,三豐,2017-07-09,23.882,120.2895,0.04745103
V2K610,大庄合作社,2017-07-09,23.8068,120.367939,0.83012265
C0V900,汕尾,2017-07-09,22.4782,120.4151,0.85463417
C1R630,龍泉,2017-07-09,22.66701,120.59091,0.18449168
C1AC50,關渡,2017-07-09,25.133486,121.469331,0.86056966
C0F9I0,神岡,2017-07-09,24.272481,120.658314,0.9714837
C0K460,斗南,2017-07-09,23.678734,120.478359,0.89942527
467410,臺南,2017-07-09,22.993239,120.204772,0.9321619
C2O810,曾文,2017-07-09,23.219681,120.497328,0.102624245
467280,後龍,2017-07-09,24.648563,120.831834,0.37831268
C1F9J1,清水林,2017-07-09,24.071242,120.820419,4.5935283e-07
C2A650,火燒寮,2017-07-09,25.002719,121.742892,0.9958991
466930,竹子湖,2017-07-09,25.162078,121.544547,0.03948279
C1I220,樟湖,2017-07-09,23.905333,120.846983,2.2543682e-08
C0I390,仁愛,2017-07-09,24.022122,121.132206,6.7998194e-09
C0Z300,東里,2017-07-09,23.26853,121.30547,0.9928565
C1V590,新發,2017-07-09,23.057019,120.646064,0.6606201
C0K510,水林,2017-07-09,23.572924,120.24597,0.41058955
72S590,東改賓朗果園,2017-07-09,22.813889,121.071278,0.77553
82A750,茶改北部分場,2017-07-09,24.955778,121.631222,0.79963523
C1A750,石碇服務區,2017-07-09,25.00872,121.646242,0.0685401
C0X300,鹿寮,2017-07-09,23.386047,120.477331,0.9775108
G2AI50,關渡,2017-07-09,25.11575,121.492,0.04658934
C0K590,雲林東勢,2017-07-09,23.674192,120.255721,0.9342488
C0A570,桶後,2017-07-09,24.848222,121.597992,0.9637827
C1S800,華源,2017-07-09,22.657883,121.02325,0.9742019
C0G720,溪州,2017-07-09,23.851589,120.499093,0.77041376
C1V160,達卡努瓦,2017-07-09,23.279811,120.705319,1.0513907e-07
C2M410,馬頭山,2017-07-09,23.324361,120.582017,0.3589956
C0V850,蚵仔寮,2017-07-09,22.7256,120.2527,0.81796515
C0S740,池上,2017-07-09,23.119628,121.209469,0.93866605
C1V390,尖山,2017-07-09,22.813153,120.367789,0.96666723
C0AH70,松山,2017-07-09,25.04871,121.55042,0.8457202
C0N010,鯤鯓國小,2017-07-09,23.1879,120.0889,0.5036251
C0R550,新埤,2017-07-09,22.467947,120.582894,0.8937701
C0SA60,知本（水試所）,2017-07-09,22.702394,121.082761,0.9434003
C0T9I0,豐濱,2017-07-09,23.583897,121.514806,0.9865491
C0UB00,淡江大學蘭陽校園,2017-07-09,24.823239,121.730383,0.8772798
C0W240,九宮,2017-07-09,24.423753,118.240186,0.9944308
C0T9N0,富里,2017-07-09,23.171639,121.249378,0.98501605
U2HA50,臺大竹山,2017-07-09,23.756972,120.681556,0.6332142
C0V840,鳳鼻頭,2017-07-09,22.5083,120.3591,0.9846348
C0X140,西港,2017-07-09,23.125608,120.203108,0.791392
72D080,桃改五峰分場,2017-07-09,24.612194,121.157167,3.6861916e-08
C2H9P0,伊拿谷,2017-07-09,23.963211,121.088264,2.0832504e-06
C2H9F0,柑林,2017-07-09,24.018658,120.847072,0.5606773
C0TA20,加灣,2017-07-09,24.082025,121.608944,0.019762835
C0V530,阿蓮,2017-07-09,22.883208,120.327508,0.82479995
C1O880,關山,2017-07-09,23.173397,120.594092,0.84993756
C0E791,卓蘭,2017-07-09,24.3126,120.8244,0.9920136
C1I030,武界,2017-07-09,23.913225,121.052483,6.3588254e-07
C0R520,崁頂,2017-07-09,22.514781,120.506914,0.2635286
C0R341,牡丹,2017-07-09,22.130036,120.792639,0.9206493
C0R930,萬丹,2017-07-09,22.5885,120.4851,0.9427692
C0S760,紅石,2017-07-09,23.069131,121.126219,2.3515778e-09
C1M610,石磐龍,2017-07-09,23.496606,120.663506,3.3670492e-08
C0UA10,鴛鴦湖,2017-07-09,24.590269,121.412228,1.0025264e-08
V2C260,八德蔬果,2017-07-09,24.978508,121.281819,0.9892862
C0R800,丹路,2017-07-09,22.204481,120.750989,0.88009256
C0G920,永靖,2017-07-09,23.924703,120.547533,0.75284463
C2M950,太和,2017-07-09,23.538372,120.702961,7.691608e-09
C1A630,下盆,2017-07-09,24.771003,121.538622,0.2888037
B2N890,畜產試驗所,2017-07-09,23.058972,120.336406,0.9760811
C0UA30,白嶺,2017-07-09,24.527819,121.519031,1.5722486e-08
C1V580,溪南(特生中心),2017-07-09,23.084972,120.788475,3.8258654e-09
C1T970,大農,2017-07-09,23.615233,121.413331,0.9826343
E2S960,林試太麻里2,2017-07-09,22.598014,120.989761,0.97087914
C0R650,竹田,2017-07-09,22.58486,120.54344,0.42460054
C1H900,清流,2017-07-09,24.080775,120.962997,8.021033e-08
C1C510,水尾,2017-07-09,24.940081,121.087161,0.048637055
C0F9X0,大雅(中科園區),2017-07-09,24.21528,120.62445,0.98644555
C0SB60,白守蓮,2017-07-09,23.126769,121.401914,0.983296
C0O970,虎頭埤,2017-07-09,23.021375,120.347878,0.9228348
C0C730,中大臨海站,2017-07-09,24.966126,121.008581,0.009718131
C0X250,新營,2017-07-09,23.310689,120.316681,0.79965365
C0V700,三民,2017-07-09,22.645017,120.311233,0.81866044
C0U870,大礁溪,2017-07-09,24.791042,121.675047,0.6138613
C0E870,高鐵苗栗,2017-07-09,24.60725,120.826094,0.38640416
A2K570,古坑花卉中心,2017-07-09,23.63353,120.55239,0.58093923
C0M860,新美,2017-07-09,23.338017,120.683169,0.86624753
C1E701,八卦,2017-07-09,24.491756,120.927619,0.0001625768
C0I420,國姓,2017-07-09,24.037803,120.855072,0.41904166
C2D720,關西工作站,2017-07-09,24.757275,121.184792,0.915142
C0S960,香蘭,2017-07-09,22.587569,120.993375,0.97087914
C0R260,春日,2017-07-09,22.370361,120.628306,0.82065064
72G600,臺中農改場,2017-07-09,24.003028,120.534389,0.79083425
C0Z210,瑞穗,2017-07-09,23.5239,121.39021,0.98825693
C0M820,達邦,2017-07-09,23.453994,120.749517,6.752854e-08
C0V860,南寮,2017-07-09,22.7616,120.2339,0.81796515
C0G740,大城,2017-07-09,23.852487,120.320935,0.04531043
C0R920,塭仔,2017-07-09,22.4169,120.5197,0.7933602
C0R470,高樹,2017-07-09,22.826389,120.600806,0.43562248
C0R680,佳樂水,2017-07-09,21.993578,120.861633,0.10487076
C1O870,大棟山,2017-07-09,23.31157,120.52226,1.1397072e-08
C0D360,梅花,2017-07-09,24.678347,121.208558,0.51309335
C0Z190,富世,2017-07-09,24.14743,121.6297,0.004172118
C0AI10,屈尺,2017-07-09,24.92184,121.54475,0.14806707
B2U990,畜試東區分所,2017-07-09,24.669039,121.832561,0.6822922
C0SB80,長濱漁港,2017-07-09,23.313644,121.459994,0.9701677
C0R240,來義,2017-07-09,22.527306,120.625111,0.45031458
C0V910,大樹,2017-07-09,22.684645,120.432803,0.9945326
C1R610,西大武山,2017-07-09,22.617719,120.7322,1.8270782e-08
C0G900,線西,2017-07-09,24.143358,120.443536,0.10688644
C0M700,竹崎,2017-07-09,23.526178,120.555508,0.78143114
C2E880,三義,2017-07-09,24.405478,120.749819,0.86753047
C0C720,竹圍,2017-07-09,25.112692,121.239824,0.04683875
C0F9P0,清水,2017-07-09,24.312297,120.562242,0.4613013
C0Z150,吉安光華,2017-07-09,23.930925,121.595153,0.49202418
C1D640,外坪(五指山),2017-07-09,24.644447,121.090961,0.18799487
C0F9O0,潭子,2017-07-09,24.213106,120.703933,0.9875709
C2H9R0,卓社,2017-07-09,23.887894,121.000086,1.021212e-08
72T250,花蓮農改場,2017-07-09,23.975222,121.563889,0.07001994
C0E780,銅鑼,2017-07-09,24.489681,120.790853,0.9528681
C1T950,太安,2017-07-09,23.666719,121.370128,1.437433e-07
C0E830,苑裡,2017-07-09,24.439714,120.653053,0.2850021
467270,田中,2017-07-09,23.873803,120.581286,0.9032323
C0SA10,檳榔四格山,2017-07-09,22.810031,121.109308,0.84271866
C1T830,布洛灣,2017-07-09,24.17184,121.57127,0.9980615
C0F970,大坑,2017-07-09,24.173142,120.722289,0.9706685
C1U920,思源,2017-07-09,24.393125,121.347214,2.8322409e-09
C0A931,三和,2017-07-09,25.233153,121.595236,0.31186742
C0I010,廬山,2017-07-09,24.033311,121.181808,3.208817e-09
C2M940,日野賀,2017-07-09,23.434056,120.727169,9.683848e-09
C0R860,鼻頭,2017-07-09,22.1043,120.8979,0.616709
C0UB20,壯圍,2017-07-09,24.7359,121.8163,0.116757445
C0R790,九棚,2017-07-09,22.14195,120.889281,0.87872016
C0W110,東莒,2017-07-09,25.9652,119.98069,0.9994803
C1U930,粉鳥林,2017-07-09,24.497088,121.842479,0.9979353
C1I211,蘆竹湳,2017-07-09,23.934019,120.811994,0.9739492
C0S830,長濱,2017-07-09,23.286817,121.411975,0.98426956
C1F9F1,伯公龍,2017-07-09,24.272392,120.849047,0.06989497
C0E810,西湖,2017-07-09,24.562947,120.7485,0.038038187
C1I440,新高口,2017-07-09,23.478744,120.878939,2.8447744e-09
C0O840,王爺宮,2017-07-09,23.222064,120.40085,0.98951066
C0T9G0,鳳林山,2017-07-09,23.735269,121.420131,0.08663397
C0X080,佳里,2017-07-09,23.173039,120.145086,0.5033272
C0FB70,大甲溪埔,2017-07-09,24.370625,120.620067,0.19301331
C0Z310,清水斷崖,2017-07-09,24.218294,121.689142,0.001165667
C0M680,太保,2017-07-09,23.455062,120.331455,0.9781037
C1S820,金峰,2017-07-09,22.590969,120.933236,0.98382246
C0AD10,八里,2017-07-09,25.150211,121.403947,0.04683875
C2K240,草嶺,2017-07-09,23.59555,120.693461,3.9052196e-08
C1SA70,都蘭,2017-07-09,22.87794,121.226881,0.71843755
C0K440,二崙,2017-07-09,23.772797,120.408944,0.85744524
C1A760,坪林交控,2017-07-09,24.94284,121.713442,0.99855274
C0F9N0,大里,2017-07-09,24.092464,120.701378,0.9790278
C0SA90,達仁林場,2017-07-09,22.264347,120.823972,0.9582927
C1R290,石門山,2017-07-09,22.112611,120.756597,0.95391583
42HA10,萬大發電廠,2017-07-09,23.978875,121.139639,6.592698e-09
C0R890,山海,2017-07-09,21.9878,120.7091,0.11078899
C0T9A0,月眉山,2017-07-09,23.809928,121.539828,0.22760966
C0AC70,信義,2017-07-09,25.037822,121.564597,0.8457202
C0K560,棋山,2017-07-09,23.68645,120.603417,0.6323034
C2FB50,出雲,2017-07-09,24.206469,120.902794,3.844673e-09
C1Z240,中平林道,2017-07-09,23.42115,121.26763,2.3071248e-08
U2H480,溪頭,2017-07-09,23.670306,120.798194,2.8151588e-08
C0M880,好美里,2017-07-09,23.3364,120.138,0.067154296
C0T9E0,大坑,2017-07-09,23.880628,121.581981,0.84210557
C0K530,臺西,2017-07-09,23.701547,120.197559,0.15193681
C1E900,國一N128K,2017-07-09,24.560997,120.844186,0.31832436
C0AJ50,水湳洞,2017-07-09,25.123695,121.862238,0.01745442
C0AI20,白沙灣,2017-07-09,25.283128,121.519058,0.00981992
C0A860,大坪,2017-07-09,25.165914,121.632969,0.993361
C1U850,觀音海岸,2017-07-09,24.38319,121.77856,2.7845523e-05
C2K610,草嶺石壁,2017-07-09,23.602469,120.707731,2.7392351e-08
C0U950,鶯子嶺,2017-07-09,24.89754,121.79244,3.3557317e-06
C0O900,善化,2017-07-09,23.112883,120.297219,0.9699951
C0K550,蔦松,2017-07-09,23.514319,120.229736,0.050977793
E2P980,林試六龜中心,2017-07-09,22.991703,120.645722,0.91863054
C0E590,通霄,2017-07-09,24.471892,120.704622,0.05551563
C1I310,西巒,2017-07-09,23.754486,120.883956,1.5894085e-06
C0A550,泰平,2017-07-09,24.971197,121.823711,0.85517687
C0I360,水里,2017-07-09,23.812553,120.849792,0.09078714
C0R830,高士,2017-07-09,22.121825,120.836781,0.9583815
C1I101,溪頭,2017-07-09,23.661789,120.807647,7.539488e-09
C0AJ20,野柳,2017-07-09,25.20703,121.690021,0.77782875
C0B060,暖暖,2017-07-09,25.0957,121.7403,0.8477413
C1H920,長豐,2017-07-09,24.102039,120.879897,0.00017127438
C0V360,內門,2017-07-09,22.975481,120.466769,0.9637992
C0R850,林邊,2017-07-09,22.4634,120.5339,0.8725606
C0E930,龍鳳,2017-07-09,24.700034,120.859125,0.05055047
C0U910,冬山,2017-07-09,24.63373,121.7937,0.6822922
C1E721,泰安,2017-07-09,24.489017,120.968036,4.082739e-09
82H320,茶改中部分場,2017-07-09,23.875611,120.913583,0.0035198391
C0M750,布袋,2017-07-09,23.380878,120.167789,0.09737428
C1S860,利嘉,2017-07-09,22.809417,121.050528,0.2767337
72C440,桃園農改,2017-07-09,24.950944,121.030583,0.15419623
E2S980,林試太麻里1,2017-07-09,22.598922,120.980044,0.97853035
C0X170,關廟,2017-07-09,22.963017,120.327797,0.94582015
C0V720,林園,2017-07-09,22.507747,120.394511,0.9868579
C1I510,線浸林道,2017-07-09,23.761508,120.832956,4.258062e-08
C0D690,外湖,2017-07-09,24.917735,120.968711,0.21402748
C0C750,新興坑尾,2017-07-09,25.0061,121.0971,0.0032747847
B2Q810,畜試南區分所,2017-07-09,21.945583,120.802167,0.10331281
C0S790,金崙,2017-07-09,22.538122,120.966875,0.9573773
C0AH90,福山植物園,2017-07-09,24.760717,121.58135,0.09639272
C0I540,奇萊稜線,2017-07-09,24.109231,121.326456,9.243725e-09
C0M850,表湖,2017-07-09,23.24186,120.64166,0.7353118
C0S770,大溪山,2017-07-09,22.478475,120.943325,0.87617034
C0AG80,中和,2017-07-09,24.991622,121.491792,0.11623584
C0T790,大禹嶺,2017-07-09,24.186117,121.316086,2.8958573e-09
C0T9B0,水源,2017-07-09,23.991861,121.537169,0.0022568603
C0R840,牡丹池山,2017-07-09,22.168389,120.841225,0.9620304
C1I131,桶頭,2017-07-09,23.641944,120.654117,0.9935451
CAL110,布袋國中,2017-07-09,23.35893,120.18026,0.09752451
467571,新竹,2017-07-09,24.827853,121.014219,0.4437943
C0Z290,赤柯山,2017-07-09,23.36893,121.38293,1.7293868e-07
C0X280,將軍,2017-07-09,23.214999,120.13577,0.22476298
C0S690,太麻里,2017-07-09,22.60902,120.98533,0.88867784
C0U880,北關,2017-07-09,24.9072,121.8734,0.9909154
C1H860,瑞岩,2017-07-09,24.123772,121.18345,2.1584479e-09
C0G810,埔心,2017-07-09,23.947633,120.525456,0.75284463
C0U970,大福,2017-07-09,24.80064,121.81389,0.6896893
C2H9N0,仁愛東眼,2017-07-09,24.026875,121.1205,3.3804513e-09
C1E670,南礦,2017-07-09,24.538278,121.002836,6.6518866e-09
C0M520,東後寮,2017-07-09,23.369908,120.248065,0.08813279
C1E461,松安,2017-07-09,24.397972,120.986022,3.5376857e-09
72G600,臺中農改,2017-07-09,24.003028,120.534389,0.79083425
C2N160,西拉雅風管處,2017-07-09,23.189481,120.335297,0.8222134
C2M970,碧湖,2017-07-09,23.568632,120.624165,1.5718204e-07
C0A640,石碇,2017-07-09,24.993969,121.662917,0.06754179
E2S960,林試太麻里2,2017-07-09,22.598,120.99775,0.96874046
C0F9Y0,桃山,2017-07-09,24.432739,121.303808,7.599302e-09
C1I020,萬大,2017-07-09,23.979817,121.132261,6.6073382e-09
C0U940,羅東,2017-07-09,24.68184,121.74934,0.12015251
C0M650,朴子,2017-07-09,23.43463,120.23902,0.4108112
C1I500,大尖山,2017-07-09,23.858572,120.994889,5.180791e-09
C0G820,田尾,2017-07-09,23.901669,120.509389,0.75284463
E2K600,四湖植物園,2017-07-09,23.676986,120.163433,0.061547875
C0S730,綠島,2017-07-09,22.6672,121.47533,0.066534795
12Q970,東港工作站,2017-07-09,22.479997,120.466058,0.85446835
C0E430,南庄,2017-07-09,24.601775,121.000214,0.5449006
C1TA00,太魯閣,2017-07-09,24.15773,121.6236,0.0006723708
466920,臺北,2017-07-09,25.037658,121.514853,0.8457202
C0R600,舊泰武,2017-07-09,22.588194,120.664944,6.1281644e-06
C1I260,北坑,2017-07-09,23.9246,121.006903,0.9132425
466910,鞍部,2017-07-09,25.182586,121.529731,9.0878586e-08
C1I230,九份二山,2017-07-09,23.961944,120.845,7.600927e-05
C2A660,瑞芳,2017-07-09,25.113169,121.801147,0.08110416
C0R270,琉球嶼,2017-07-09,22.332244,120.362236,0.6025939
C1T990,高寮,2017-07-09,23.394239,121.356808,0.97226495
C0G620,芬園,2017-07-09,24.015678,120.6213,0.9559122
C1Z140,荖溪,2017-07-09,23.890575,121.45964,6.196327e-09
C1I201,中心崙,2017-07-09,23.728722,120.712097,0.0039417506
C1I400,凌霄,2017-07-09,24.018778,121.004456,3.43687e-09
C1M640,十字,2017-07-09,23.492153,120.753683,9.999884e-09
G2P820,農試鳳山分所,2017-07-09,22.646611,120.356083,0.84537333
C0Z270,蕃薯寮,2017-07-09,23.73835,121.540108,0.996057
C0F9Q0,外埔,2017-07-09,24.347817,120.705686,0.80615944
C0K580,高鐵雲林,2017-07-09,23.737456,120.417944,0.956484
C2I090,鳳凰,2017-07-09,23.728081,120.787347,1.5505893e-06
C0U990,員山,2017-07-09,24.74435,121.72247,0.11899763
C0V770,大社,2017-07-09,22.730306,120.346639,0.8431269
C0X120,麻豆,2017-07-09,23.183289,120.248611,0.7699836
C0C670,龍潭,2017-07-09,24.870056,121.221389,0.95161515
C0D680,香山濕地,2017-07-09,24.783581,120.914988,0.15871993
C0S980,勝林山,2017-07-09,22.430439,120.8938,0.34920487
C0V730,大寮,2017-07-09,22.605614,120.395717,0.9801651
C0R570,麟洛,2017-07-09,22.65078,120.52719,0.7352445
C2M930,石卓,2017-07-09,23.478744,120.702264,4.908865e-09
C0G9B0,和美,2017-07-09,24.105169,120.492131,0.011246522
CAG100,王功漁港,2017-07-09,23.96824,120.32586,0.03161031
C0X290,北門,2017-07-09,23.267772,120.125481,0.22476298
C2F930,大甲,2017-07-09,24.347667,120.640403,0.29724157
C0D650,湖口,2017-07-09,24.904794,121.043628,0.064185135
C0E420,竹南,2017-07-09,24.708978,120.888897,0.044602267
C0U780,五結,2017-07-09,24.68637,121.79794,0.116757445
C1I250,鯉潭,2017-07-09,23.961922,120.991131,0.020147257
C0R130,阿禮,2017-07-09,22.742908,120.743678,2.0359957e-08
C0X100,臺南市北區,2017-07-09,23.010394,120.194228,0.9203079
C0S920,金峰嘉蘭,2017-07-09,22.594789,120.960825,0.9786878
C0V490,新興,2017-07-09,22.627422,120.298803,0.9772633
C0F9K0,大安,2017-07-09,24.345061,120.588025,0.17902191
72N100,臺南農改,2017-07-09,23.0605,120.342194,0.9760811
467290,古坑,2017-07-09,23.633639,120.551889,0.58093923
C2E970,八甲,2017-07-09,24.535811,120.795983,0.4008177
C0V440,鳳山,2017-07-09,22.646653,120.356122,0.84537333
C1T940,大觀,2017-07-09,23.714206,121.373133,0.78984153
72T250,花蓮農改,2017-07-09,23.975222,121.563889,0.07001994
C0E740,造橋,2017-07-09,24.637056,120.864778,0.3864039
C0R100,尾寮山,2017-07-09,22.833111,120.683889,3.3716375e-08
A2K630,臺大雲林校區,2017-07-09,23.730628,120.423903,0.956484
C0D580,寶山,2017-07-09,24.735006,121.025192,0.1687523
E2P990,林試扇平站,2017-07-09,22.9677,120.6857,0.8859027
C0AI30,三重,2017-07-09,25.057328,121.500629,0.82560956
C0AH00,汐止,2017-07-09,25.066881,121.658778,0.8457202
C1Z040,立山,2017-07-09,23.443356,121.327375,0.9991085
C0W130,花嶼,2017-07-09,23.40007,119.32276,0.9999226
C0A950,鼻頭角,2017-07-09,25.129036,121.923372,0.9998652
C0K470,林內,2017-07-09,23.748675,120.609642,0.4579589
C2F990,摩天嶺,2017-07-09,24.322458,120.936819,1.1001172e-08
82C160,茶改場,2017-07-09,24.908472,121.185333,0.98819077
C0Z320,清水林道,2017-07-09,23.27125,121.188272,0.5133784
C0R760,南仁湖,2017-07-09,22.084681,120.863353,0.95391583
C0M670,大林,2017-07-09,23.600616,120.45841,0.93995655
C0M800,茶山,2017-07-09,23.299075,120.664767,0.88048387
C0A9C0,天母,2017-07-09,25.117494,121.537169,0.7779295
72K220,南改斗南分場,2017-07-09,23.634556,120.477333,0.89942527
72AI40,桃改樹林分場,2017-07-09,24.944503,121.386972,0.9587339
C0S910,蘭嶼燈塔,2017-07-09,22.081197,121.503117,0.17491633
C0B050,八斗子,2017-07-09,25.144754,121.79167,0.015194136
C0U900,內城,2017-07-09,24.71813,121.68766,0.12187662
C0X320,柳營,2017-07-09,23.253328,120.375253,0.9683136
C0M790,新港,2017-07-09,23.553269,120.345728,0.94336194
C0F9T0,西屯,2017-07-09,24.179494,120.641275,0.96847373
C0SA30,都歷,2017-07-09,23.020333,121.323642,0.9954197
C0C620,蘆竹,2017-07-09,25.084275,121.265767,0.15586475
C0R730,大坪頂,2017-07-09,22.024633,120.69355,0.6563008
C0AJ40,石門,2017-07-09,25.273672,121.601198,0.010332544
C0E750,苗栗,2017-07-09,24.564569,120.824575,0.33368647
C0T870,鯉魚潭,2017-07-09,23.935639,121.508944,0.7558361
C1V170,排雲,2017-07-09,23.463619,120.954147,1.190827e-08
C2H950,中寮,2017-07-09,23.884447,120.766406,0.914392
C0R350,貓鼻頭,2017-07-09,21.921774,120.7358,0.07898331
C0V660,岡山,2017-07-09,22.797078,120.294958,0.28539503
C1H941,雙冬,2017-07-09,23.967378,120.802189,0.8581864
C0AJ70,田寮,2017-07-09,25.2698,121.4886,0.009928995
C0AI00,五股,2017-07-09,25.07445,121.42728,0.90902126
C0Z280,德武,2017-07-09,23.47426,121.41071,0.9862349
C0R700,枋山,2017-07-09,22.246844,120.661086,0.36023268
C0C460,復興,2017-07-09,24.820208,121.352281,0.9233369
E2H360,蓮華池,2017-07-09,23.918333,120.885278,0.24512789
C0M640,中埔,2017-07-09,23.42538,120.5229,0.9378469
C0W140,金沙,2017-07-09,24.488292,118.408778,0.99345887
C2A540,四堵,2017-07-09,24.8926,121.745736,0.9969095
C0ACA0,新莊,2017-07-09,25.051478,121.446756,0.8239764
C0R220,潮州,2017-07-09,22.534361,120.54,0.28154534
U2HA40,臺大內茅埔,2017-07-09,23.689722,120.851117,0.88230735
467490,臺中,2017-07-09,24.145736,120.684075,0.9626254
C0U960,翠峰湖,2017-07-09,24.510856,121.608044,4.0025956e-09
E2HA20,林試畢祿溪站,2017-07-09,24.226944,121.308522,2.068262e-09
C0V890,前鎮,2017-07-09,22.5718,120.3117,0.9740103
467620,蘭嶼,2017-07-09,22.036969,121.558339,0.99978334
C1F941,雪嶺,2017-07-09,24.280586,121.026642,5.1954165e-09
C2H9E0,國姓南港,2017-07-09,23.911108,120.846556,1.6960483e-08
C0AC80,文山,2017-07-09,25.00235,121.575728,0.12945001
C0F9R0,龍井,2017-07-09,24.184536,120.528972,0.5419968
C0M760,民雄,2017-07-09,23.551754,120.428457,0.9330094
C0UA40,西德山,2017-07-09,24.560647,121.752608,1.8350697e-07
C1T920,中興,2017-07-09,23.769503,121.498653,0.9586852
C0D550,雪霸,2017-07-09,24.526972,121.11605,6.512859e-09
C2F860,梨山,2017-07-09,24.247522,121.243669,2.0981614e-09
C0R320,車城,2017-07-09,22.0744,120.716247,0.3280195
C1S870,南美山,2017-07-09,23.15025,121.382333,0.9865124
C0B020,基隆嶼,2017-07-09,25.19141,121.78391,0.08926298
C1U501,牛鬥,2017-07-09,24.637836,121.573656,0.60174423
C0M730,嘉義市東區,2017-07-09,23.457673,120.460531,0.73074937
C0S700,知本,2017-07-09,22.684866,121.005642,0.85504436
C1N001,沙崙,2017-07-09,22.935472,120.309406,0.94027835
C0V760,橋頭,2017-07-09,22.757806,120.30575,0.82748544
C0G960,福寶,2017-07-09,24.0443,120.3814,0.011228218
C0X210,白河,2017-07-09,23.347466,120.414427,0.9667144
C0S810,東河,2017-07-09,22.972672,121.303986,0.9625076
C2R170,屏東,2017-07-09,22.66027,120.49403,0.7352445
C0R670,楓港,2017-07-09,22.190131,120.692156,0.12739246
C0FA50,霧峰,2017-07-09,24.0419,120.6995,0.94885784
C0UB10,蘇澳,2017-07-09,24.5969,121.8571,0.99374527
C0G950,防潮門,2017-07-09,24.1835,120.4871,0.5419968
C0M740,六腳,2017-07-09,23.492871,120.290625,0.6325826
C1R250,力里,2017-07-09,22.428117,120.629228,0.05502579
C0K330,虎尾,2017-07-09,23.719183,120.442036,0.95958537
C2FA00,烏石坑,2017-07-09,24.273503,120.947617,1.2777317e-08
C0V620,永安,2017-07-09,22.82315,120.236856,0.28539503
C1I330,楓樹林,2017-07-09,23.986803,121.076117,4.546691e-09
C0W200,湖西,2017-07-09,23.596314,119.67275,0.9994376
72Q010,高雄農改場,2017-07-09,22.709333,120.525889,0.5173091
C0SA40,瑞和,2017-07-09,22.974361,121.156697,0.9875836
C0C680,龜山,2017-07-09,25.02846,121.38656,0.82618153
C2V260,月眉,2017-07-09,22.971003,120.539853,0.6807034
C0V450,鳳森,2017-07-09,22.545064,120.392592,0.9940241
C0U720,南山,2017-07-09,24.43742,121.38167,5.7402787e-07
A2N290,臺南蘭花園區,2017-07-09,23.340258,120.379661,0.9793557
C0R560,新園,2017-07-09,22.5434,120.461558,0.9868579
C0U890,三星,2017-07-09,24.66812,121.65302,0.6012036
C1V300,御油山,2017-07-09,23.001983,120.715364,5.383082e-09
C0U600,礁溪,2017-07-09,24.817539,121.765608,0.8629486
C1T980,龍澗,2017-07-09,24.023289,121.411328,1.7804996e-09
C0D670,海天一線,2017-07-09,24.831986,120.914438,0.009422475
C0SA00,歷坵,2017-07-09,22.520969,120.89185,0.9561184
C0M710,東石,2017-07-09,23.458927,120.15385,0.07439991
C0M780,鹿草,2017-07-09,23.41134,120.30835,0.3812882
C0U520,雙連埤,2017-07-09,24.753033,121.641303,0.5798409
C0B010,七堵,2017-07-09,25.094819,121.71713,0.7930032
C0R480,長治,2017-07-09,22.693128,120.542622,0.99530977
C1V830,國三S383K,2017-07-09,22.781967,120.426475,0.97663337
12Q980,恆春工作站,2017-07-09,22.079678,120.714425,0.32740402
C1O940,東山服務區,2017-07-09,23.286016,120.398472,0.9745645
C1U840,東澳嶺,2017-07-09,24.5378,121.8485,0.0006734327
C1D630,飛鳳山,2017-07-09,24.766464,121.119178,0.6704985
C0S940,石寧山,2017-07-09,23.223772,121.406639,0.9903995
C0K410,北港,2017-07-09,23.573957,120.292802,0.3672183
C2M620,瑞里,2017-07-09,23.545133,120.675197,1.13993766e-08
C0SB70,小港漁港,2017-07-09,23.158558,121.400431,0.9880041
C2O950,安南,2017-07-09,23.076694,120.144861,0.57622397
C0F0E0,南湖圈谷,2017-07-09,24.363714,121.444667,1.2324489e-08
467610,成功,2017-07-09,23.097486,121.373428,0.9833446
C0G890,伸港,2017-07-09,24.148933,120.484403,0.106985286
C2E540,龍溪,2017-07-09,24.606489,120.783933,0.38131604
C1V200,梅山,2017-07-09,23.268447,120.823556,1.6883421e-05
C0T9H0,加路蘭山,2017-07-09,23.682947,121.5274,0.26458716
C2O930,玉井,2017-07-09,23.126042,120.46055,0.6271011
C1F911,新伯公,2017-07-09,24.221361,120.841069,0.10972799
C0R490,九如,2017-07-09,22.7405,120.490503,0.49884403
C0X200,左鎮,2017-07-09,23.056758,120.408522,0.9198757
C0SB50,叭嗡嗡,2017-07-09,23.047062,121.343223,0.99295264
C1F891,稍來,2017-07-09,24.265689,121.001142,6.1898535e-09
72N240,七股研究中心,2017-07-09,23.081672,120.062894,0.5360701
C0C700,中壢,2017-07-09,24.977661,121.256375,0.99054235
C0M690,水上,2017-07-09,23.419734,120.388909,0.9795207
C0V690,鼓山,2017-07-09,22.623325,120.275575,0.9772633
C0O860,大內,2017-07-09,23.11885,120.36083,0.974237
C0Z200,萬榮,2017-07-09,23.709219,121.420106,0.9558722
C0T9D0,和中,2017-07-09,24.26676,121.74103,0.86818886
C1O921,楠西,2017-07-09,23.183511,120.484083,0.24031585
C0AJ30,淡水觀海,2017-07-09,25.184591,121.408616,0.079157054
C0V810,左營,2017-07-09,22.67491,120.28491,0.81866044
C0UA70,桃源谷,2017-07-09,24.962606,121.888875,0.4010715
C0X130,官田,2017-07-09,23.193217,120.315422,0.81069154
C1H000,翠峰,2017-07-09,24.109397,121.205211,4.091283e-09
C0UA90,石城,2017-07-09,24.980444,121.951214,0.99676704
C1E681,南勢山,2017-07-09,24.421669,120.923831,2.1093816e-08
C0A9F0,內湖,2017-07-09,25.079422,121.57545,0.8457202
C0K291,宜梧,2017-07-09,23.536281,120.169329,0.05096359
C1K540,口湖,2017-07-09,23.585344,120.180517,0.031680536
C0R780,滿州,2017-07-09,22.024403,120.839892,0.19592741
C0V870,文安,2017-07-09,22.8025,120.2164,0.2668129
C0U650,玉蘭,2017-07-09,24.675286,121.587061,0.64186704
C0R640,東港,2017-07-09,22.46247,120.44074,0.85446835
K2E360,苗栗農改,2017-07-09,24.495722,120.829111,0.9365167
C0AJ80,板橋,2017-07-09,25.0107,121.4489,0.112694375
C0S660,下馬,2017-07-09,23.150427,121.070312,7.072248e-08
C1H9B1,阿眉,2017-07-09,24.1263,120.994672,3.8091623e-09
C0UA20,多加屯,2017-07-09,24.368614,121.373189,2.0750583e-09
C0E730,頭份,2017-07-09,24.688247,120.912206,0.044351276
72V140,高改旗南分場,2017-07-09,22.857861,120.516667,0.8908364
C0K480,莿桐,2017-07-09,23.761192,120.502372,0.9200717
C0U980,坪林石牌,2017-07-09,24.86478,121.77396,0.27361628
C0T900,西林,2017-07-09,23.8119,121.441458,0.9894661
C1I150,青雲,2017-07-09,23.793361,120.949378,0.97849816
467350,澎湖,2017-07-09,23.565503,119.563094,0.99978113
C0G800,埔鹽,2017-07-09,24.000394,120.431683,0.01145739
C0H960,草屯,2017-07-09,23.973672,120.68085,0.95664907
C1V780,多納林道,2017-07-09,22.888028,120.737917,1.7165866e-07
C0E920,通霄漁港,2017-07-09,24.498589,120.673876,0.12285199
C0Z330,安通山,2017-07-09,23.290728,121.348528,0.9016406
C0AH10,永和,2017-07-09,25.01125,121.508111,0.11269439
C0AK10,太平里,2017-07-09,25.134937,121.364899,0.04559713
C2G640,鹿港,2017-07-09,24.0753,120.430481,0.011223109
C1E890,國三N149K,2017-07-09,24.463414,120.680019,0.14714198
C1R110,口社,2017-07-09,22.770111,120.645222,0.034355503
C1M870,國三N285K,2017-07-09,23.550319,120.505833,0.5832281
467050,新屋,2017-07-09,25.006744,121.047486,0.0077949837
C1E480,鳳美,2017-07-09,24.554803,121.034747,0.64218605
C0M530,奮起湖,2017-07-09,23.493903,120.699253,7.486425e-09
C0C590,觀音,2017-07-09,25.027072,121.153317,0.0023768763
C0T9M0,靜浦,2017-07-09,23.455167,121.495028,0.9886513
C2H9M0,發祥,2017-07-09,24.154094,121.164517,1.1451591e-08
C0AI40,石牌,2017-07-09,25.115597,121.513139,0.76959133
C1F871,上谷關,2017-07-09,24.203483,121.018644,5.645964e-09
C2H9G0,百勝,2017-07-09,24.051142,120.909361,0.033850938
C0G880,二水,2017-07-09,23.810742,120.6173,0.684371
C0R940,加祿堂,2017-07-09,22.3363,120.6217,0.34566316
C0W220,北竿,2017-07-09,26.220358,119.974881,0.99974227
C0O960,崎頂,2017-07-09,22.959547,120.369317,0.97590464
C0S750,向陽,2017-07-09,23.248397,120.986133,3.850801e-09
C0T9F0,水璉,2017-07-09,23.797131,121.542514,0.9944846
C1M600,頭凍,2017-07-09,23.406364,120.603339,2.9314936e-07
467660,臺東,2017-07-09,22.752211,121.154586,0.2371627
C1D380,新埔,2017-07-09,24.84745,121.03834,0.38956815
C2G980,田頭村,2017-07-09,23.8263,120.444175,0.85744524
C0V750,路竹,2017-07-09,22.854997,120.259439,0.2329832
C0N050,蚵寮,2017-07-09,23.301,120.1104,0.067154296
72M700,南改鹿草分場,2017-07-09,23.416869,120.283061,0.41227224
C1SA50,利嘉林道,2017-07-09,22.82325,121.009389,2.4101e-07
467550,玉山,2017-07-09,23.487614,120.959522,1.2336272e-08
C0A940,金山,2017-07-09,25.223628,121.643967,0.73522073
C1V340,大津,2017-07-09,22.888322,120.645986,0.4286469
C0W180,七美,2017-07-09,23.219333,119.444892,0.9998949
C1F9C1,白冷,2017-07-09,24.182844,120.929889,2.5046e-05
K2E710,苗改生物防治研究中心,2017-07-09,24.422861,120.871833,0.98530966
C0N040,蘆竹溝,2017-07-09,23.2344,120.0961,0.22494449
C2W230,畜試所澎湖,2017-07-09,23.628342,119.513206,0.9998382
C0R880,後壁湖,2017-07-09,21.9457,120.7457,0.10827152
C1I280,埔中,2017-07-09,23.820778,120.642594,0.21583322
467790,墾丁雷達站,2017-07-09,21.948235,120.808028,0.11430671
C0W190,望安,2017-07-09,23.380564,119.494075,0.9998328
466881,新北,2017-07-09,24.9593,121.52,0.11850577
C0Z170,卓溪,2017-07-09,23.3443,121.3029,0.9832437
C0F850,東勢,2017-07-09,24.246428,120.833047,0.9421952
466900,淡水,2017-07-09,25.164889,121.448906,0.045597177
C0I370,魚池,2017-07-09,23.895703,120.94135,0.6271588
C0C630,大溪,2017-07-09,24.882853,121.265547,0.94851226
C0A520,山佳,2017-07-09,24.974944,121.402008,0.61575073
C0I110,竹山,2017-07-09,23.761225,120.688156,0.8559928
82H840,茶改南部分場,2017-07-09,23.762528,120.7405,0.22216481
C0G660,溪湖,2017-07-09,23.94835,120.479122,0.75429064
C1T800,洛韶,2017-07-09,24.204558,121.453956,6.351513e-09
C1T810,慈恩,2017-07-09,24.192044,121.388386,2.7437934e-09
C1E451,象鼻,2017-07-09,24.368617,120.940228,1.7395871e-08
C0AC60,三峽,2017-07-09,24.939025,121.369728,0.9513151
C0I490,萬大林道,2017-07-09,23.928228,121.091411,5.350551e-09
C1I290,豐丘,2017-07-09,23.668178,120.887417,1.9568592e-08
C1I320,奧萬大,2017-07-09,23.952956,121.178556,9.801233e-09
C2M910,嘉義大學,2017-07-09,23.471325,120.485903,0.8183344
C0U770,南澳,2017-07-09,24.44935,121.81022,0.9939117
C0A980,社子,2017-07-09,25.109508,121.469681,0.052838653
C0V800,六龜,2017-07-09,22.997889,120.633583,0.8965545
C1G9D0,國一S218K,2017-07-09,23.890641,120.493253,0.7594124
C0E570,白沙屯,2017-07-09,24.549447,120.696803,0.07277
C2F9A0,中竹林,2017-07-09,24.103556,120.751061,0.2865932
C0FA40,臺中電廠,2017-07-09,24.2146,120.4907,0.5419966
C2G9A0,畜試所彰化,2017-07-09,23.86045,120.557964,0.9032323
C0H9C0,合歡山,2017-07-09,24.143442,121.272547,7.0458683e-09
C0X060,下營,2017-07-09,23.22695,120.256261,0.84891355
G2M350,農試溪口農場,2017-07-09,23.58565,120.408111,0.92089635
C0U860,頭城,2017-07-09,24.85323,121.8308,0.8582243
C0R580,南州,2017-07-09,22.48591,120.50274,0.85446835
C0D430,峨眉,2017-07-09,24.6905,121.017189,0.21560188
C0G780,秀水,2017-07-09,24.03405,120.503869,0.79040176
72N100,臺南農改場,2017-07-09,23.0605,120.342194,0.9760811
C0S900,蘭嶼高中,2017-07-09,22.04909,121.51214,0.034525022
467540,大武,2017-07-09,22.355675,120.903789,0.8700016
C1F9W0,德基,2017-07-09,24.254783,121.190261,5.6325407e-09
C1Z120,壽豐,2017-07-09,23.870853,121.508081,0.50425637
C0W160,烏坵,2017-07-09,24.9944,119.44956,0.9279458
C1I240,外大坪,2017-07-09,23.958697,120.917931,0.010151668
C1I550,國六W023K,2017-07-09,23.979067,120.867742,0.44443226
C0R870,興海,2017-07-09,21.9752,120.8439,0.10326668
C0R140,瑪家,2017-07-09,22.682903,120.686639,0.029959748
C0A530,坪林,2017-07-09,24.938183,121.70975,0.9980172
C0X260,後壁,2017-07-09,23.366358,120.362326,0.98016953
C0Z230,和平,2017-07-09,24.30717,121.77007,0.87986934
C0G770,福興,2017-07-09,24.041289,120.437669,0.011444193
C0H9A0,神木村,2017-07-09,23.532742,120.843667,9.496927e-09
C0I460,南投,2017-07-09,23.911469,120.687331,0.78149784
C0I480,梅峰,2017-07-09,24.085272,121.173572,2.2780975e-09
C1V570,吉東,2017-07-09,22.85422,120.5454,0.91305685
C2D740,屯原,2017-07-09,24.067969,121.209389,2.078465e-09
C2A560,福山,2017-07-09,24.776203,121.502811,0.8641562
C0AH30,五分山,2017-07-09,25.07125,121.780794,1.0223856e-07
C0FA10,松柏,2017-07-09,24.429115,120.617482,0.352152
72S200,東改班鳩分場,2017-07-09,22.829528,121.077694,0.70106614
72HA00,中改埔里分場,2017-07-09,23.903208,120.963364,0.6824654
C2H9W0,大坪頂農水,2017-07-09,24.043122,120.932781,9.6014846e-05
C0C650,平鎮,2017-07-09,24.897503,121.214636,0.9863443
C0S930,延平,2017-07-09,22.902581,121.084058,0.89363724
C0UA60,樟樹山,2017-07-09,24.41393,121.78325,0.9648264
C1S670,摩天,2017-07-09,23.199503,121.027,1.3476392e-09
C0V630,茄萣,2017-07-09,22.906642,120.182608,0.2148747
466940,基隆,2017-07-09,25.133314,121.740475,0.015800748
C0X050,東河,2017-07-09,23.296598,120.385608,0.9699018
C0R770,保力,2017-07-09,22.071122,120.764111,0.28967267
G2L020,農試嘉義分所,2017-07-09,23.485028,120.473806,0.57184976
C0X240,關子嶺,2017-07-09,23.331169,120.508025,0.5320754
C0I380,集集,2017-07-09,23.828206,120.801467,0.084228456
466990,花蓮,2017-07-09,23.975128,121.613275,0.07925027
C1V220,小關山,2017-07-09,23.154217,120.813603,3.8934296e-09
C1F9G1,慶福山,2017-07-09,24.180853,120.848378,1.8405397e-07
C0Z250,瑞穗林道,2017-07-09,23.49284,121.30688,1.7325506e-08
C0D590,新豐,2017-07-09,24.87068,120.97721,0.0016450813
C0A870,五指山,2017-07-09,25.132153,121.608692,0.001051062
C0UA50,西帽山,2017-07-09,24.555361,121.802628,0.614586
C0X160,仁德,2017-07-09,22.968258,120.257689,0.799554
C1H971,六分寮,2017-07-09,23.92507,120.6378,0.2666046
C0W120,西嶼,2017-07-09,23.5626,119.468436,0.9998792
C0G650,員林,2017-07-09,23.946503,120.585597,0.79793197
C0AD50,鶯歌,2017-07-09,24.951533,121.346294,0.96203667
C2H9Q0,北東眼山,2017-07-09,24.120939,121.189303,2.3815678e-09
C2H9T0,名間竹圍,2017-07-09,23.859914,120.637572,0.7262535
C0S990,山豬窟,2017-07-09,22.318619,120.857372,0.9000855
72Q010,高雄農改,2017-07-09,22.709333,120.525889,0.51730925
C0X190,安平,2017-07-09,22.993161,120.152181,0.920308
C0K400,斗六,2017-07-09,23.720583,120.541127,0.83692026
12J990,口湖工作站,2017-07-09,23.589978,120.180394,0.031680536
C0O830,北寮,2017-07-09,23.079561,120.495008,0.62410325
C1D410,白蘭,2017-07-09,24.579364,121.079947,5.2355458e-09
C0S970,加津林,2017-07-09,22.416211,120.926942,0.88742256
C0D700,關西,2017-07-09,24.7977,121.1732,0.8954222
C0M810,里佳,2017-07-09,23.389125,120.716647,6.6564554e-09
C0U750,龜山島,2017-07-09,24.841667,121.953133,0.85280305
C0R810,內獅,2017-07-09,22.305064,120.642986,0.31119138
C1M390,龍美,2017-07-09,23.406728,120.654417,2.6038148e-08
C2FB60,頭櫃山,2017-07-09,24.129842,120.858925,1.4290878e-08
C1H840,國三N238K,2017-07-09,23.841008,120.707711,0.62821376
CAQ030,崎峰國小,2017-07-09,22.42565,120.49521,0.85446835
C2E520,大湖,2017-07-09,24.414939,120.870872,0.98868895
467530,阿里山,2017-07-09,23.508208,120.813242,6.9506707e-09
C1E691,南湖,2017-07-09,24.40135,120.837533,3.6134784e-06
C0FA30,梧棲,2017-07-09,24.256003,120.523381,0.4613013
C1V231,高中,2017-07-09,23.134911,120.716711,0.32907152
C0F9V0,新社,2017-07-09,24.200172,120.815806,0.0029317094
C0H890,埔里,2017-07-09,23.972169,120.952425,0.283318
C0R690,墾丁,2017-07-09,21.966756,120.810269,0.6600203
C0F0D0,審馬陣,2017-07-09,24.381675,121.4203,3.818277e-09
C0R820,白鷺,2017-07-09,22.454275,120.666219,0.9685389
U2H480,臺大溪頭,2017-07-09,23.670306,120.798194,2.8151588e-08
C1V190,南天池,2017-07-09,23.27403,120.91176,3.9784527e-09
K2E360,苗栗農改場,2017-07-09,24.495722,120.829111,0.9365167
CAJ050,海口故事園區,2017-07-09,23.57543,120.14121,0.031680536
C2H9D0,三隻寮,2017-07-09,24.093078,120.861578,3.734286e-05
C0O990,媽廟,2017-07-09,22.99175,120.293525,0.95359635
C0D480,打鐵坑,2017-07-09,24.849664,121.150789,0.9522778
C0Z220,和平林道,2017-07-09,24.343922,121.656317,0.0035673552
C0TA10,花蓮漁港,2017-07-09,23.995322,121.638331,0.12333648
72C440,桃園農改場,2017-07-09,24.950944,121.030583,0.15419623
C1E711,馬拉邦山,2017-07-09,24.367306,120.901656,1.2338319e-08
C0SB20,富岡,2017-07-09,22.792467,121.192669,0.73427194
C0D560,竹東,2017-07-09,24.767147,121.057881,0.87133354
C0F9U0,南屯,2017-07-09,24.137006,120.637969,0.9646758
C0M720,番路,2017-07-09,23.464657,120.554156,0.96749073
C0F0A0,雪山圈谷,2017-07-09,24.388594,121.236339,7.479488e-09
C1A9N0,四十份,2017-07-09,24.934158,121.593283,0.8709752
C0U760,東澳,2017-07-09,24.52196,121.83318,0.9982091
C0X230,鹽水,2017-07-09,23.272621,120.247641,0.06454787
C2H9H0,苗改南投蜂場,2017-07-09,23.852589,120.693481,0.8916542
C0R950,萬隆國小,2017-07-09,22.507667,120.587817,0.35502604
C0V370,古亭坑,2017-07-09,22.893178,120.401947,0.96423733
C1I340,新興橋,2017-07-09,23.563333,120.868728,4.912192e-06
C0SA80,土坂,2017-07-09,22.453108,120.887572,0.89623076
C0R160,鹽埔,2017-07-09,22.739558,120.530778,0.51657844
C0AC40,大屯山,2017-07-09,25.175675,121.522408,6.266534e-09
466850,五分山雷達站,2017-07-09,25.071182,121.781205,7.540339e-08
C2H9L0,馬烈霸,2017-07-09,24.1512,121.201772,2.3531304e-09
C1AI50,國三N016K,2017-07-09,25.034164,121.619664,0.8962307
C1V600,藤枝,2017-07-09,23.071961,120.757042,4.7683555e-09
C1E601,南勢,2017-07-09,24.572486,120.734842,0.00773936
C0Z180,新城,2017-07-09,24.03946,121.60454,0.072755545
C0O980,新市,2017-07-09,23.061614,120.298197,0.9699951
C0K420,西螺,2017-07-09,23.800407,120.467394,0.8692944
C0Z050,佳心,2017-07-09,23.34567,121.21316,3.3931236e-05
C0AD30,蘆洲,2017-07-09,25.086594,121.472331,0.82560956
C0V610,梓官,2017-07-09,22.760558,120.267211,0.82748544
K2F750,種苗改良場,2017-07-09,24.225972,120.800917,0.03179009
C0UA80,大溪漁港,2017-07-09,24.941801,121.902955,0.99168223
C1AI60,國一39K邊坡,2017-07-09,25.064361,121.383836,0.87276006
C0W150,金寧,2017-07-09,24.457703,118.328989,0.99363506
C0R960,內埔,2017-07-09,22.608483,120.570714,0.43861163
V2C250,八德合作社,2017-07-09,24.93775,121.266389,0.9804748
C2H9S0,龍南,2017-07-09,23.953536,120.833183,1.8115244e-07
C0AH40,平等,2017-07-09,25.129142,121.577086,0.99013865
C0R540,佳冬,2017-07-09,22.419456,120.552375,0.791676
466950,彭佳嶼,2017-07-09,25.627975,122.079744,0.9988046
C0A890,雙溪,2017-07-09,25.036003,121.864242,0.999045
C0C480,桃園,2017-07-09,24.992425,121.323172,0.98837453
C0AH50,林口,2017-07-09,25.072181,121.38084,0.80312717
A2K360,水試臺西試驗場,2017-07-09,23.717231,120.190522,0.15870151
B2N890,畜試所,2017-07-09,23.058972,120.336406,0.9760811
C2M960,外寮,2017-07-09,23.562643,120.665688,7.853689e-08
C0F9S0,烏日,2017-07-09,24.107058,120.624103,0.9728361
C0C490,八德,2017-07-09,24.928708,121.283289,0.9806237
C0R190,赤山,2017-07-09,22.592333,120.614306,0.4593705
C0T820,天祥,2017-07-09,24.179597,121.495639,0.96095747
C1F9E1,龍安,2017-07-09,24.1605,120.831961,0.006872153
C0V820,小林,2017-07-09,23.148408,120.63325,0.9604598
C2G870,芳苑,2017-07-09,23.922303,120.320025,0.030961335
C0E850,大河,2017-07-09,24.618069,120.948578,0.20948441
C1U670,寒溪,2017-07-09,24.634,121.71691,0.6789262
C0N020,城西,2017-07-09,23.0568,120.0956,0.920308
C1Z110,三棧,2017-07-09,24.11557,121.60501,0.0022765407
C0R280,檳榔,2017-07-09,22.076078,120.836777,0.9237957
C2H9J0,中台,2017-07-09,23.9996,120.938739,0.73899704
C0F9L0,后里,2017-07-09,24.310436,120.729725,0.97794545
C0D540,橫山,2017-07-09,24.71116,121.11693,0.18293118
C1D420,太閣南,2017-07-09,24.632808,121.160575,5.6236875e-08
C1E770,公館,2017-07-09,24.526914,120.830806,0.923778
CAN130,水試所海水繁養殖中心,2017-07-09,23.120802,120.07968,0.5360701
C1I430,翠華,2017-07-09,24.191961,121.224339,1.7598837e-09
C1M400,菜瓜坪,2017-07-09,23.251928,120.576103,0.46270266
C0G730,二林,2017-07-09,23.903325,120.376081,0.02578633
72M360,南改義竹分場,2017-07-09,23.360694,120.279361,0.08813279
V2K620,麥寮合作社,2017-07-09,23.753836,120.294783,0.84669244
C0Z070,舞鶴,2017-07-09,23.46811,121.37407,0.9730001
C0B040,大武崙,2017-07-09,25.166676,121.706993,0.0202954
C1Z030,紅葉,2017-07-09,23.493119,121.338806,0.9879223
C1I050,丹大,2017-07-09,23.753747,121.141147,4.663497e-09
C0I080,信義,2017-07-09,23.689694,120.851036,0.88230735
C2M920,朴子農改,2017-07-09,23.469889,120.259383,0.4108112
C2A880,福隆,2017-07-09,25.017842,121.942083,0.99636394
C0Z160,鳳林,2017-07-09,23.746114,121.453411,0.9217718
C0V210,復興,2017-07-09,23.222403,120.806089,0.0055281976
C0H990,昆陽,2017-07-09,24.121322,121.273642,6.798445e-09
C0R741,獅子,2017-07-09,22.202308,120.705236,0.83126676
C0S710,鹿野,2017-07-09,22.917711,121.122994,0.90719736
C0I530,小奇萊,2017-07-09,24.131764,121.295717,7.253891e-09
C2K630,荷苞,2017-07-09,23.657717,120.595144,0.80725
C0Z080,富源,2017-07-09,23.587642,121.378225,0.9979607
467441,高雄,2017-07-09,22.7304,120.3125,0.8431269
C0SB10,美和,2017-07-09,22.682078,121.060236,0.9434003
C2K620,馬光農場,2017-07-09,23.721453,120.378864,0.9532746
C1I140,卡奈托灣,2017-07-09,23.754364,121.087872,3.6550347e-09
C0I520,玉山風口,2017-07-09,23.470489,120.955994,1.3802378e-08
C1G691,下水埔,2017-07-09,23.816114,120.5676,0.9357775
C0X110,臺南市南區,2017-07-09,22.961189,120.188378,0.799554
C0V680,仁武,2017-07-09,22.701083,120.347722,0.8187003
C2G840,北斗,2017-07-09,23.877586,120.514222,0.77041376
C0R900,竹坑,2017-07-09,22.1385,120.7022,0.35552275
C0K250,崙背,2017-07-09,23.75555,120.318925,0.84597594
C0G860,社頭,2017-07-09,23.897647,120.5862,0.8985893
C0X150,安定,2017-07-09,23.102614,120.227839,0.791392
C0R590,里港,2017-07-09,22.77919,120.49459,0.94385535
C0E610,馬都安,2017-07-09,24.451272,120.930192,5.818588e-07
C0E550,明德,2017-07-09,24.583486,120.885411,0.32964754
C0R150,三地門,2017-07-09,22.709889,120.639944,0.033900976
C0G910,花壇,2017-07-09,24.032076,120.549461,0.80435115
C1D400,鳥嘴山,2017-07-09,24.71909,121.28387,1.1115332e-06
C0K500,元長,2017-07-09,23.64981,120.315024,0.93004656
C0F0B0,石岡,2017-07-09,24.276061,120.777644,0.9866744
C2V250,甲仙,2017-07-09,23.080106,120.591758,0.9141436
C0SA20,金崙山,2017-07-09,22.567419,120.959667,5.8290348e-06
C0V350,溪埔,2017-07-09,22.738578,120.446797,0.95723695
C0M660,溪口,2017-07-09,23.604131,120.403569,0.92089635
C1S880,壽卡,2017-07-09,22.238911,120.858903,0.9550072
72D680,桃改新埔分場,2017-07-09,24.834444,121.066111,0.39831874
