站號,站名,日期,lat,lon,BLBTSLS
C0R710,龍磐,2017-01-06,21.931672,120.838942,0.9818362
C1F9D1,白毛台,2017-01-06,24.158325,120.886933,1.5655267e-09
C0G940,竹塘,2017-01-06,23.848253,120.386764,1.4997342e-09
467590,恆春,2017-01-06,22.003897,120.746339,0.98496586
C1O850,環湖,2017-01-06,23.148617,120.418633,1.1374031e-08
C0U710,太平山,2017-01-06,24.505486,121.525656,2.347174e-08
C0E820,獅潭,2017-01-06,24.539133,120.920042,9.652384e-10
C0V880,興達,2017-01-06,22.8778,120.2127,2.8286037e-08
C0S890,關山,2017-01-06,23.0395,121.175017,3.9665135e-08
C0SB30,新蘭,2017-01-06,22.869214,121.223228,4.675365e-05
C2R970,屏科大,2017-01-06,22.648275,120.619247,1.2012242e-09
K2F750,種苗繁殖,2017-01-06,24.225972,120.800917,1.0423089e-09
C1Z130,銅門,2017-01-06,23.965694,121.492842,1.5710375e-08
C0AD40,土城,2017-01-06,24.973208,121.445169,4.51148e-06
CAN140,六官養殖協會,2017-01-06,23.22881,120.29962,1.4969773e-08
C0X180,山上,2017-01-06,23.0757,120.363253,6.628456e-09
C0F9Z0,雪山東峰,2017-01-06,24.388792,121.268675,1.749206e-08
C1M480,獨立山,2017-01-06,23.537022,120.607797,2.5745779e-09
C0X220,學甲,2017-01-06,23.230367,120.182187,6.2550846e-08
467650,日月潭,2017-01-06,23.881325,120.90805,3.4425516e-09
C0K600,箔子寮,2017-01-06,23.6197,120.14,2.1625434e-07
C0G830,埤頭,2017-01-06,23.866003,120.452806,8.2975615e-10
C0S950,七塊厝,2017-01-06,22.954453,121.229922,1.490126e-08
467110,金門,2017-01-06,24.407306,118.289281,1.5424856e-08
C0AH80,深坑,2017-01-06,25.002703,121.628328,3.1338564e-07
467990,馬祖,2017-01-06,26.169269,119.923419,2.0495781e-08
C0A970,三貂角,2017-01-06,25.007606,122.002058,0.028187327
C2D730,寶山農場,2017-01-06,24.732444,120.976153,1.6465588e-08
C0K430,褒忠,2017-01-06,23.690938,120.303634,2.2537905e-07
467480,嘉義,2017-01-06,23.495925,120.432906,3.6157907e-08
C2E540,後龍,2017-01-06,24.606489,120.783933,6.827609e-05
C0V400,阿公店,2017-01-06,22.804194,120.355528,3.3806575e-09
C0R440,大漢山,2017-01-06,22.405264,120.753181,3.0060352e-08
C0K280,四湖,2017-01-06,23.630414,120.227125,5.9071795e-06
C1F9B1,桐林,2017-01-06,24.066172,120.735194,5.15058e-10
C2H9U0,鳳鵬,2017-01-06,23.763919,120.788061,6.316475e-10
C0K390,土庫,2017-01-06,23.679029,120.395574,8.0600243e-10
C1I450,望鄉山,2017-01-06,23.594153,120.944286,1.3011818e-08
C0E910,海埔,2017-01-06,24.648767,120.772435,1.9181611e-08
B2E890,畜試北區分所,2017-01-06,24.527806,120.770972,7.129945e-05
C0R750,四林格山,2017-01-06,22.076989,120.802439,0.99991846
C0F0C0,中坑,2017-01-06,24.248517,120.903319,2.5949636e-09
C1I121,大鞍,2017-01-06,23.678381,120.760017,3.9313224e-09
72U480,花改蘭陽分場,2017-01-06,24.686306,121.716583,1.7640538e-06
C0A770,科教館,2017-01-06,25.096356,121.516507,1.6973976e-05
C0AJ60,六塊厝,2017-01-06,25.24,121.4481,0.9298314
C0R620,墾雷,2017-01-06,21.900836,120.855269,0.9832365
467420,永康,2017-01-06,23.038386,120.2367,2.6454444e-08
467300,東吉島,2017-01-06,23.25695,119.667467,0.99962336
C0I410,名間,2017-01-06,23.837053,120.701447,4.2964993e-10
A2C560,農工中心,2017-01-06,24.985917,121.239833,1.2419526e-06
C0V740,旗山,2017-01-06,22.888614,120.483597,9.249068e-09
C0Z061,玉里,2017-01-06,23.3215,121.339656,1.2896795e-07
C0S840,南田,2017-01-06,22.279725,120.889208,0.9996646
C1I470,杉林溪,2017-01-06,23.639517,120.786444,5.518543e-09
C1X040,東原,2017-01-06,23.291597,120.463822,1.0730801e-09
C0R660,枋寮,2017-01-06,22.367722,120.590647,1.7320937e-09
C1R120,上德文,2017-01-06,22.763272,120.704442,1.1455479e-08
C0K450,大埤,2017-01-06,23.646074,120.431537,8.6876467e-10
C0UA00,土場,2017-01-06,24.576533,121.495333,1.1265474e-08
467080,宜蘭,2017-01-06,24.763975,121.756528,3.493073e-08
C0N030,四草,2017-01-06,23.0235,120.1116,6.8765786e-08
C0V650,彌陀,2017-01-06,22.783806,120.246361,1.333284e-08
C0D660,新竹市東區,2017-01-06,24.798681,120.986942,4.3652835e-07
82S580,茶改東部分場,2017-01-06,22.907694,121.130139,1.5153889e-08
C0SB40,興隆,2017-01-06,22.913661,121.257469,2.1106736e-08
C0C710,大溪永福,2017-01-06,24.892936,121.324975,1.9065703e-05
C0FA20,溫寮,2017-01-06,24.372177,120.583125,0.0002416133
C0V640,湖內,2017-01-06,22.887139,120.2445,2.5914876e-08
C0R910,下寮,2017-01-06,22.3929,120.5548,1.1533155e-08
C0Z020,明里,2017-01-06,23.208717,121.262342,6.458433e-08
C0M770,嘉義梅山,2017-01-06,23.585398,120.555587,5.3057014e-10
G2F820,農業試驗所,2017-01-06,24.031261,120.688133,1.1973184e-07
C0C660,楊梅,2017-01-06,24.912375,121.143047,1.0225553e-07
C1E511,新開,2017-01-06,24.347703,120.827019,1.137995e-09
G2F820,農試所(霧峰),2017-01-06,24.031261,120.688133,1.1973184e-07
C1I070,和社,2017-01-06,23.591131,120.888861,1.074731e-09
C2F000,大肚,2017-01-06,24.15295,120.572117,1.0998923e-09
C1S850,豐南,2017-01-06,23.122139,121.262389,1.6770434e-08
C2A920,富貴角,2017-01-06,25.263783,121.565258,0.99533975
CAH030,茶改場竹圍站,2017-01-06,23.860083,120.637528,5.9060024e-10
C0T960,光復,2017-01-06,23.660694,121.424964,1.7900794e-08
C0F9M0,豐原,2017-01-06,24.254322,120.720692,3.875736e-09
C0R720,旭海,2017-01-06,22.205403,120.887614,0.9999888
C0V710,苓雅,2017-01-06,22.622742,120.330669,7.315931e-09
C0C740,觀音工業區,2017-01-06,25.064764,121.114856,0.046105184
CAC040,拉拉山,2017-01-06,24.699317,121.427133,1.2786362e-08
C0V790,萬山,2017-01-06,22.905944,120.688056,2.0158357e-09
U2HA30,臺大和社,2017-01-06,23.590856,120.888864,1.074731e-09
C0AJ90,澳底,2017-01-06,25.0552,121.9253,0.9377487
C0Z100,東華,2017-01-06,23.89525,121.549833,3.4346044e-08
C0G970,三豐,2017-01-06,23.882,120.2895,1.983823e-05
V2K610,大庄合作社,2017-01-06,23.8068,120.367939,2.7714117e-07
C0V900,汕尾,2017-01-06,22.4782,120.4151,6.497424e-09
C1R630,龍泉,2017-01-06,22.66701,120.59091,1.2333655e-09
C1AC50,關渡,2017-01-06,25.133486,121.469331,0.0064660474
C0F9I0,神岡,2017-01-06,24.272481,120.658314,4.269079e-09
C0K460,斗南,2017-01-06,23.678734,120.478359,6.294154e-10
467410,臺南,2017-01-06,22.993239,120.204772,2.4103132e-08
C2O810,曾文,2017-01-06,23.219681,120.497328,9.869253e-09
467280,後龍,2017-01-06,24.648563,120.831834,1.1250636e-08
C1F9J1,清水林,2017-01-06,24.071242,120.820419,1.1738098e-09
C2A650,火燒寮,2017-01-06,25.002719,121.742892,0.00021221187
466930,竹子湖,2017-01-06,25.162078,121.544547,7.032076e-07
C1I220,樟湖,2017-01-06,23.905333,120.846983,2.4614495e-09
C0I390,仁愛,2017-01-06,24.022122,121.132206,2.4319886e-09
C0Z300,東里,2017-01-06,23.26853,121.30547,1.7586036e-07
C1V590,新發,2017-01-06,23.057019,120.646064,9.110973e-09
C0K510,水林,2017-01-06,23.572924,120.24597,1.0940097e-07
72S590,東改賓朗果園,2017-01-06,22.813889,121.071278,7.7593097e-07
82A750,茶改北部分場,2017-01-06,24.955778,121.631222,1.4658713e-08
C1A750,石碇服務區,2017-01-06,25.00872,121.646242,1.260118e-06
C0X300,鹿寮,2017-01-06,23.386047,120.477331,8.844206e-10
G2AI50,關渡,2017-01-06,25.11575,121.492,0.00026087376
C0K590,雲林東勢,2017-01-06,23.674192,120.255721,2.2871353e-07
C0A570,桶後,2017-01-06,24.848222,121.597992,6.6774405e-08
C1S800,華源,2017-01-06,22.657883,121.02325,0.064944334
C0G720,溪州,2017-01-06,23.851589,120.499093,8.245845e-10
C1V160,達卡努瓦,2017-01-06,23.279811,120.705319,5.7329177e-09
C2M410,馬頭山,2017-01-06,23.324361,120.582017,1.1790402e-09
C0V850,蚵仔寮,2017-01-06,22.7256,120.2527,1.0550404e-08
C0S740,池上,2017-01-06,23.119628,121.209469,2.6008118e-08
C1V390,尖山,2017-01-06,22.813153,120.367789,3.1000653e-09
C0AH70,松山,2017-01-06,25.04871,121.55042,1.0473732e-06
C0N010,鯤鯓國小,2017-01-06,23.1879,120.0889,2.1156437e-07
C0R550,新埤,2017-01-06,22.467947,120.582894,1.1811944e-09
C0SA60,知本（水試所）,2017-01-06,22.702394,121.082761,0.8731471
C0T9I0,豐濱,2017-01-06,23.583897,121.514806,3.2902438e-08
C0UB00,淡江大學蘭陽校園,2017-01-06,24.823239,121.730383,1.5878172e-08
C0W240,九宮,2017-01-06,24.423753,118.240186,1.0114424e-07
C0T9N0,富里,2017-01-06,23.171639,121.249378,2.3833593e-08
U2HA50,臺大竹山,2017-01-06,23.756972,120.681556,4.4382145e-10
C0V840,鳳鼻頭,2017-01-06,22.5083,120.3591,8.12402e-09
C0X140,西港,2017-01-06,23.125608,120.203108,7.168331e-08
72D080,桃改五峰分場,2017-01-06,24.612194,121.157167,2.2057263e-09
C2H9P0,伊拿谷,2017-01-06,23.963211,121.088264,2.332121e-09
C2H9F0,柑林,2017-01-06,24.018658,120.847072,5.071134e-10
C0TA20,加灣,2017-01-06,24.082025,121.608944,1.154929e-08
C0V530,阿蓮,2017-01-06,22.883208,120.327508,1.0716038e-08
C1O880,關山,2017-01-06,23.173397,120.594092,1.0981168e-09
C0E791,卓蘭,2017-01-06,24.3126,120.8244,1.0432556e-09
C1I030,武界,2017-01-06,23.913225,121.052483,3.3027225e-09
C0R520,崁頂,2017-01-06,22.514781,120.506914,9.019112e-09
C0R341,牡丹,2017-01-06,22.130036,120.792639,0.05578268
C0R930,萬丹,2017-01-06,22.5885,120.4851,9.061472e-10
C0S760,紅石,2017-01-06,23.069131,121.126219,2.476539e-08
C1M610,石磐龍,2017-01-06,23.496606,120.663506,4.6813744e-09
C0UA10,鴛鴦湖,2017-01-06,24.590269,121.412228,6.755079e-09
V2C260,八德蔬果,2017-01-06,24.978508,121.281819,5.921885e-07
C0R800,丹路,2017-01-06,22.204481,120.750989,0.0003891974
C0G920,永靖,2017-01-06,23.924703,120.547533,2.6531454e-08
C2M950,太和,2017-01-06,23.538372,120.702961,5.8574967e-09
C1A630,下盆,2017-01-06,24.771003,121.538622,1.0581097e-08
B2N890,畜產試驗所,2017-01-06,23.058972,120.336406,5.3324163e-09
C0UA30,白嶺,2017-01-06,24.527819,121.519031,1.2920709e-08
C1V580,溪南(特生中心),2017-01-06,23.084972,120.788475,9.752227e-09
C1T970,大農,2017-01-06,23.615233,121.413331,1.9844931e-08
E2S960,林試太麻里2,2017-01-06,22.598014,120.989761,0.9772563
C0R650,竹田,2017-01-06,22.58486,120.54344,1.0742472e-09
C1H900,清流,2017-01-06,24.080775,120.962997,1.1082673e-09
C1C510,水尾,2017-01-06,24.940081,121.087161,3.6388505e-07
C0F9X0,大雅(中科園區),2017-01-06,24.21528,120.62445,3.457531e-07
C0SB60,白守蓮,2017-01-06,23.126769,121.401914,6.208106e-07
C0O970,虎頭埤,2017-01-06,23.021375,120.347878,1.3395214e-08
C0C730,中大臨海站,2017-01-06,24.966126,121.008581,2.2701952e-05
C0X250,新營,2017-01-06,23.310689,120.316681,9.250903e-09
C0V700,三民,2017-01-06,22.645017,120.311233,7.3554154e-09
C0U870,大礁溪,2017-01-06,24.791042,121.675047,1.0321644e-08
C0E870,高鐵苗栗,2017-01-06,24.60725,120.826094,5.30028e-05
A2K570,古坑花卉中心,2017-01-06,23.63353,120.55239,9.2574465e-10
C0M860,新美,2017-01-06,23.338017,120.683169,2.1271902e-09
C1E701,八卦,2017-01-06,24.491756,120.927619,3.6385706e-09
C0I420,國姓,2017-01-06,24.037803,120.855072,5.071898e-10
C2D720,關西工作站,2017-01-06,24.757275,121.184792,3.2112066e-08
C0S960,香蘭,2017-01-06,22.587569,120.993375,0.9772563
C0R260,春日,2017-01-06,22.370361,120.628306,1.5259427e-09
72G600,臺中農改場,2017-01-06,24.003028,120.534389,9.0878245e-08
C0Z210,瑞穗,2017-01-06,23.5239,121.39021,4.335904e-08
C0M820,達邦,2017-01-06,23.453994,120.749517,2.4663322e-09
C0V860,南寮,2017-01-06,22.7616,120.2339,1.3833398e-08
C0G740,大城,2017-01-06,23.852487,120.320935,1.8011737e-05
C0R920,塭仔,2017-01-06,22.4169,120.5197,1.1918041e-08
C0R470,高樹,2017-01-06,22.826389,120.600806,1.0944241e-09
C0R680,佳樂水,2017-01-06,21.993578,120.861633,0.9925217
C1O870,大棟山,2017-01-06,23.31157,120.52226,4.7265214e-09
C0D360,梅花,2017-01-06,24.678347,121.208558,4.1482826e-09
C0Z190,富世,2017-01-06,24.14743,121.6297,7.333758e-09
C0AI10,屈尺,2017-01-06,24.92184,121.54475,2.0572237e-07
B2U990,畜試東區分所,2017-01-06,24.669039,121.832561,8.1034064e-05
C0SB80,長濱漁港,2017-01-06,23.313644,121.459994,4.222819e-07
C0R240,來義,2017-01-06,22.527306,120.625111,1.0025144e-09
C0V910,大樹,2017-01-06,22.684645,120.432803,4.7440705e-09
C1R610,西大武山,2017-01-06,22.617719,120.7322,4.181203e-08
C0G900,線西,2017-01-06,24.143358,120.443536,0.00026743131
C0M700,竹崎,2017-01-06,23.526178,120.555508,9.871131e-10
C2E880,三義,2017-01-06,24.405478,120.749819,1.2475708e-09
C0C720,竹圍,2017-01-06,25.112692,121.239824,0.65043455
C0F9P0,清水,2017-01-06,24.312297,120.562242,3.5076602e-05
C0Z150,吉安光華,2017-01-06,23.930925,121.595153,4.0080526e-08
C1D640,外坪(五指山),2017-01-06,24.644447,121.090961,3.873349e-09
C0F9O0,潭子,2017-01-06,24.213106,120.703933,3.450703e-09
C2H9R0,卓社,2017-01-06,23.887894,121.000086,4.5705586e-09
72T250,花蓮農改場,2017-01-06,23.975222,121.563889,1.9762739e-08
C0E780,銅鑼,2017-01-06,24.489681,120.790853,1.4417385e-09
C1T950,太安,2017-01-06,23.666719,121.370128,2.9587195e-08
C0E830,苑裡,2017-01-06,24.439714,120.653053,0.000107310065
467270,田中,2017-01-06,23.873803,120.581286,5.466996e-10
C0SA10,檳榔四格山,2017-01-06,22.810031,121.109308,2.1637213e-07
C1T830,布洛灣,2017-01-06,24.17184,121.57127,1.8129462e-08
C0F970,大坑,2017-01-06,24.173142,120.722289,1.7874359e-07
C1U920,思源,2017-01-06,24.393125,121.347214,1.9077333e-08
C0A931,三和,2017-01-06,25.233153,121.595236,0.07010407
C0I010,廬山,2017-01-06,24.033311,121.181808,4.4300132e-09
C2M940,日野賀,2017-01-06,23.434056,120.727169,4.856017e-09
C0R860,鼻頭,2017-01-06,22.1043,120.8979,0.9984613
C0UB20,壯圍,2017-01-06,24.7359,121.8163,3.3649644e-06
C0R790,九棚,2017-01-06,22.14195,120.889281,0.99998266
C0W110,東莒,2017-01-06,25.9652,119.98069,0.3950496
C1U930,粉鳥林,2017-01-06,24.497088,121.842479,9.891717e-09
C1I211,蘆竹湳,2017-01-06,23.934019,120.811994,7.196023e-10
C0S830,長濱,2017-01-06,23.286817,121.411975,4.4659444e-08
C1F9F1,伯公龍,2017-01-06,24.272392,120.849047,1.6834201e-09
C0E810,西湖,2017-01-06,24.562947,120.7485,3.006557e-05
C1I440,新高口,2017-01-06,23.478744,120.878939,7.803813e-09
C0O840,王爺宮,2017-01-06,23.222064,120.40085,1.0472315e-08
C0T9G0,鳳林山,2017-01-06,23.735269,121.420131,2.523747e-08
C0X080,佳里,2017-01-06,23.173039,120.145086,7.6537376e-08
C0FB70,大甲溪埔,2017-01-06,24.370625,120.620067,9.9911646e-05
C0Z310,清水斷崖,2017-01-06,24.218294,121.689142,8.093674e-09
C0M680,太保,2017-01-06,23.455062,120.331455,1.0132474e-08
C1S820,金峰,2017-01-06,22.590969,120.933236,0.00020774658
C0AD10,八里,2017-01-06,25.150211,121.403947,0.65043455
C2K240,草嶺,2017-01-06,23.59555,120.693461,3.9915564e-09
C1SA70,都蘭,2017-01-06,22.87794,121.226881,2.1106695e-08
C0K440,二崙,2017-01-06,23.772797,120.408944,9.526058e-10
C1A760,坪林交控,2017-01-06,24.94284,121.713442,6.0909514e-08
C0F9N0,大里,2017-01-06,24.092464,120.701378,7.2681513e-07
C0SA90,達仁林場,2017-01-06,22.264347,120.823972,0.5151522
C1R290,石門山,2017-01-06,22.112611,120.756597,0.8418934
42HA10,萬大發電廠,2017-01-06,23.978875,121.139639,2.8626328e-09
C0R890,山海,2017-01-06,21.9878,120.7091,0.99721473
C0T9A0,月眉山,2017-01-06,23.809928,121.539828,2.0699048e-08
C0AC70,信義,2017-01-06,25.037822,121.564597,1.0473732e-06
C0K560,棋山,2017-01-06,23.68645,120.603417,5.079401e-10
C2FB50,出雲,2017-01-06,24.206469,120.902794,3.8443133e-09
C1Z240,中平林道,2017-01-06,23.42115,121.26763,3.6412246e-08
U2H480,溪頭,2017-01-06,23.670306,120.798194,2.3911444e-09
C0M880,好美里,2017-01-06,23.3364,120.138,6.602202e-08
C0T9E0,大坑,2017-01-06,23.880628,121.581981,2.1477263e-08
C0K530,臺西,2017-01-06,23.701547,120.197559,1.655299e-05
C1E900,國一N128K,2017-01-06,24.560997,120.844186,1.3506513e-05
C0AJ50,水湳洞,2017-01-06,25.123695,121.862238,0.99955386
C0AI20,白沙灣,2017-01-06,25.283128,121.519058,0.99983054
C0A860,大坪,2017-01-06,25.165914,121.632969,0.00012667832
C1U850,觀音海岸,2017-01-06,24.38319,121.77856,1.5904904e-08
C2K610,草嶺石壁,2017-01-06,23.602469,120.707731,4.8048467e-09
C0U950,鶯子嶺,2017-01-06,24.89754,121.79244,2.3987374e-08
C0O900,善化,2017-01-06,23.112883,120.297219,6.154454e-09
C0K550,蔦松,2017-01-06,23.514319,120.229736,6.437881e-08
E2P980,林試六龜中心,2017-01-06,22.991703,120.645722,1.214223e-09
C0E590,通霄,2017-01-06,24.471892,120.704622,0.00034615377
C1I310,西巒,2017-01-06,23.754486,120.883956,2.1841784e-09
C0A550,泰平,2017-01-06,24.971197,121.823711,1.08034676e-07
C0I360,水里,2017-01-06,23.812553,120.849792,6.219947e-10
C0R830,高士,2017-01-06,22.121825,120.836781,0.99437994
C1I101,溪頭,2017-01-06,23.661789,120.807647,3.9784376e-09
C0AJ20,野柳,2017-01-06,25.20703,121.690021,0.9973834
C0B060,暖暖,2017-01-06,25.0957,121.7403,0.9964843
C1H920,長豐,2017-01-06,24.102039,120.879897,1.0799976e-09
C0V360,內門,2017-01-06,22.975481,120.466769,6.357452e-09
C0R850,林邊,2017-01-06,22.4634,120.5339,9.190597e-09
C0E930,龍鳳,2017-01-06,24.700034,120.859125,1.930847e-08
C0U910,冬山,2017-01-06,24.63373,121.7937,8.1033984e-05
C1E721,泰安,2017-01-06,24.489017,120.968036,2.6355316e-09
82H320,茶改中部分場,2017-01-06,23.875611,120.913583,1.314364e-09
C0M750,布袋,2017-01-06,23.380878,120.167789,4.3213152e-08
C1S860,利嘉,2017-01-06,22.809417,121.050528,1.9718723e-08
72C440,桃園農改,2017-01-06,24.950944,121.030583,4.728832e-06
E2S980,林試太麻里1,2017-01-06,22.598922,120.980044,0.3808518
C0X170,關廟,2017-01-06,22.963017,120.327797,6.8325425e-09
C0V720,林園,2017-01-06,22.507747,120.394511,7.756061e-09
C1I510,線浸林道,2017-01-06,23.761508,120.832956,2.1324673e-09
C0D690,外湖,2017-01-06,24.917735,120.968711,1.429908e-05
C0C750,新興坑尾,2017-01-06,25.0061,121.0971,0.00040405008
B2Q810,畜試南區分所,2017-01-06,21.945583,120.802167,0.9924504
C0S790,金崙,2017-01-06,22.538122,120.966875,9.325525e-05
C0AH90,福山植物園,2017-01-06,24.760717,121.58135,3.6982904e-08
C0I540,奇萊稜線,2017-01-06,24.109231,121.326456,2.7294563e-08
C0M850,表湖,2017-01-06,23.24186,120.64166,2.9763607e-09
C0S770,大溪山,2017-01-06,22.478475,120.943325,6.4985256e-06
C0AG80,中和,2017-01-06,24.991622,121.491792,5.2676165e-07
C0T790,大禹嶺,2017-01-06,24.186117,121.316086,1.3943597e-08
C0T9B0,水源,2017-01-06,23.991861,121.537169,2.0417083e-08
C0R840,牡丹池山,2017-01-06,22.168389,120.841225,0.3537464
C1I131,桶頭,2017-01-06,23.641944,120.654117,6.3839384e-10
CAL110,布袋國中,2017-01-06,23.35893,120.18026,2.1265219e-08
467571,新竹,2017-01-06,24.827853,121.014219,1.2064747e-06
C0Z290,赤柯山,2017-01-06,23.36893,121.38293,2.4953438e-08
C0X280,將軍,2017-01-06,23.214999,120.13577,6.8958734e-08
C0S690,太麻里,2017-01-06,22.60902,120.98533,3.186679e-07
C0U880,北關,2017-01-06,24.9072,121.8734,2.1001335e-05
C1H860,瑞岩,2017-01-06,24.123772,121.18345,5.2955733e-09
C0G810,埔心,2017-01-06,23.947633,120.525456,2.8115634e-08
C0U970,大福,2017-01-06,24.80064,121.81389,3.610615e-08
C2H9N0,仁愛東眼,2017-01-06,24.026875,121.1205,3.7562344e-09
C1E670,南礦,2017-01-06,24.538278,121.002836,3.1069733e-09
C0M520,東後寮,2017-01-06,23.369908,120.248065,2.0527276e-08
C1E461,松安,2017-01-06,24.397972,120.986022,2.4032105e-09
72G600,臺中農改,2017-01-06,24.003028,120.534389,9.0878245e-08
C2N160,西拉雅風管處,2017-01-06,23.189481,120.335297,1.2724687e-08
C2M970,碧湖,2017-01-06,23.568632,120.624165,3.5107377e-09
C0A640,石碇,2017-01-06,24.993969,121.662917,0.12565988
E2S960,林試太麻里2,2017-01-06,22.598,120.99775,0.9810127
C0F9Y0,桃山,2017-01-06,24.432739,121.303808,1.8808668e-08
C1I020,萬大,2017-01-06,23.979817,121.132261,2.4608158e-09
C0U940,羅東,2017-01-06,24.68184,121.74934,2.7845251e-06
C0M650,朴子,2017-01-06,23.43463,120.23902,4.101888e-08
C1I500,大尖山,2017-01-06,23.858572,120.994889,7.812525e-09
C0G820,田尾,2017-01-06,23.901669,120.509389,2.6546083e-08
E2K600,四湖植物園,2017-01-06,23.676986,120.163433,1.8887664e-05
C0S730,綠島,2017-01-06,22.6672,121.47533,2.5049368e-07
12Q970,東港工作站,2017-01-06,22.479997,120.466058,9.763635e-09
C0E430,南庄,2017-01-06,24.601775,121.000214,9.317019e-10
C1TA00,太魯閣,2017-01-06,24.15773,121.6236,6.196965e-09
466920,臺北,2017-01-06,25.037658,121.514853,1.0473732e-06
C0R600,舊泰武,2017-01-06,22.588194,120.664944,4.952889e-09
C1I260,北坑,2017-01-06,23.9246,121.006903,1.1537747e-09
466910,鞍部,2017-01-06,25.182586,121.529731,3.5065042e-07
C1I230,九份二山,2017-01-06,23.961944,120.845,1.6985272e-09
C2A660,瑞芳,2017-01-06,25.113169,121.801147,0.94165546
C0R270,琉球嶼,2017-01-06,22.332244,120.362236,1.2473425e-09
C1T990,高寮,2017-01-06,23.394239,121.356808,9.183013e-08
C0G620,芬園,2017-01-06,24.015678,120.6213,9.96734e-09
C1Z140,荖溪,2017-01-06,23.890575,121.45964,2.7538192e-08
C1I201,中心崙,2017-01-06,23.728722,120.712097,1.1171513e-09
C1I400,凌霄,2017-01-06,24.018778,121.004456,3.6360799e-09
C1M640,十字,2017-01-06,23.492153,120.753683,4.3377715e-09
G2P820,農試鳳山分所,2017-01-06,22.646611,120.356083,6.99133e-09
C0Z270,蕃薯寮,2017-01-06,23.73835,121.540108,3.4167797e-08
C0F9Q0,外埔,2017-01-06,24.347817,120.705686,5.975908e-09
C0K580,高鐵雲林,2017-01-06,23.737456,120.417944,8.662199e-10
C2I090,鳳凰,2017-01-06,23.728081,120.787347,1.4028474e-09
C0U990,員山,2017-01-06,24.74435,121.72247,2.8838926e-06
C0V770,大社,2017-01-06,22.730306,120.346639,9.450812e-09
C0X120,麻豆,2017-01-06,23.183289,120.248611,5.6981992e-08
C0C670,龍潭,2017-01-06,24.870056,121.221389,2.9904157e-09
C0D680,香山濕地,2017-01-06,24.783581,120.914988,4.014218e-06
C0S980,勝林山,2017-01-06,22.430439,120.8938,2.790427e-07
C0V730,大寮,2017-01-06,22.605614,120.395717,1.1807303e-09
C0R570,麟洛,2017-01-06,22.65078,120.52719,3.1422847e-09
C2M930,石卓,2017-01-06,23.478744,120.702264,4.366468e-09
C0G9B0,和美,2017-01-06,24.105169,120.492131,1.8150921e-07
CAG100,王功漁港,2017-01-06,23.96824,120.32586,2.4588437e-05
C0X290,北門,2017-01-06,23.267772,120.125481,6.89586e-08
C2F930,大甲,2017-01-06,24.347667,120.640403,4.783215e-06
C0D650,湖口,2017-01-06,24.904794,121.043628,2.126268e-06
C0E420,竹南,2017-01-06,24.708978,120.888897,6.2026006e-06
C0U780,五結,2017-01-06,24.68637,121.79794,3.3692993e-06
C1I250,鯉潭,2017-01-06,23.961922,120.991131,1.4516999e-09
C0R130,阿禮,2017-01-06,22.742908,120.743678,4.446784e-09
C0X100,臺南市北區,2017-01-06,23.010394,120.194228,2.7841184e-08
C0S920,金峰嘉蘭,2017-01-06,22.594789,120.960825,0.2044429
C0V490,新興,2017-01-06,22.627422,120.298803,7.322646e-09
C0F9K0,大安,2017-01-06,24.345061,120.588025,2.349528e-05
72N100,臺南農改,2017-01-06,23.0605,120.342194,5.327953e-09
467290,古坑,2017-01-06,23.633639,120.551889,9.2574465e-10
C2E970,八甲,2017-01-06,24.535811,120.795983,1.6308022e-09
C0V440,鳳山,2017-01-06,22.646653,120.356122,6.99133e-09
C1T940,大觀,2017-01-06,23.714206,121.373133,2.6959032e-08
72T250,花蓮農改,2017-01-06,23.975222,121.563889,1.9762739e-08
C0E740,造橋,2017-01-06,24.637056,120.864778,1.1505646e-08
C0R100,尾寮山,2017-01-06,22.833111,120.683889,5.434758e-09
A2K630,臺大雲林校區,2017-01-06,23.730628,120.423903,8.6589613e-10
C0D580,寶山,2017-01-06,24.735006,121.025192,2.3038125e-09
E2P990,林試扇平站,2017-01-06,22.9677,120.6857,8.04995e-09
C0AI30,三重,2017-01-06,25.057328,121.500629,1.6973976e-05
C0AH00,汐止,2017-01-06,25.066881,121.658778,0.99604124
C1Z040,立山,2017-01-06,23.443356,121.327375,4.4386848e-08
C0W130,花嶼,2017-01-06,23.40007,119.32276,0.99797994
C0A950,鼻頭角,2017-01-06,25.129036,121.923372,0.9489354
C0K470,林內,2017-01-06,23.748675,120.609642,7.8404205e-10
C2F990,摩天嶺,2017-01-06,24.322458,120.936819,2.9125362e-09
82C160,茶改場,2017-01-06,24.908472,121.185333,1.9069839e-08
C0Z320,清水林道,2017-01-06,23.27125,121.188272,3.766567e-08
C0R760,南仁湖,2017-01-06,22.084681,120.863353,0.8677538
C0M670,大林,2017-01-06,23.600616,120.45841,6.375536e-08
C0M800,茶山,2017-01-06,23.299075,120.664767,1.7840044e-09
C0A9C0,天母,2017-01-06,25.117494,121.537169,3.7687736e-05
72K220,南改斗南分場,2017-01-06,23.634556,120.477333,7.8861345e-10
72AI40,桃改樹林分場,2017-01-06,24.944503,121.386972,3.8885332e-08
C0S910,蘭嶼燈塔,2017-01-06,22.081197,121.503117,0.9999438
C0B050,八斗子,2017-01-06,25.144754,121.79167,0.99972457
C0U900,內城,2017-01-06,24.71813,121.68766,2.049242e-08
C0X320,柳營,2017-01-06,23.253328,120.375253,1.4284228e-08
C0M790,新港,2017-01-06,23.553269,120.345728,1.6683973e-08
C0F9T0,西屯,2017-01-06,24.179494,120.641275,6.7802074e-07
C0SA30,都歷,2017-01-06,23.020333,121.323642,1.0664292e-07
C0C620,蘆竹,2017-01-06,25.084275,121.265767,0.007459457
C0R730,大坪頂,2017-01-06,22.024633,120.69355,0.95389104
C0AJ40,石門,2017-01-06,25.273672,121.601198,0.99819803
C0E750,苗栗,2017-01-06,24.564569,120.824575,1.7242635e-05
C0T870,鯉魚潭,2017-01-06,23.935639,121.508944,2.9870655e-08
C1V170,排雲,2017-01-06,23.463619,120.954147,2.2014655e-08
C2H950,中寮,2017-01-06,23.884447,120.766406,4.5813875e-10
C0R350,貓鼻頭,2017-01-06,21.921774,120.7358,0.9928559
C0V660,岡山,2017-01-06,22.797078,120.294958,1.1191352e-08
C1H941,雙冬,2017-01-06,23.967378,120.802189,1.1659287e-09
C0AJ70,田寮,2017-01-06,25.2698,121.4886,0.9998433
C0AI00,五股,2017-01-06,25.07445,121.42728,0.00035527773
C0Z280,德武,2017-01-06,23.47426,121.41071,7.024322e-08
C0R700,枋山,2017-01-06,22.246844,120.661086,0.3031081
C0C460,復興,2017-01-06,24.820208,121.352281,7.702208e-09
E2H360,蓮華池,2017-01-06,23.918333,120.885278,1.1350924e-09
C0M640,中埔,2017-01-06,23.42538,120.5229,9.1792046e-10
C0W140,金沙,2017-01-06,24.488292,118.408778,1.6761161e-08
C2A540,四堵,2017-01-06,24.8926,121.745736,8.996985e-08
C0ACA0,新莊,2017-01-06,25.051478,121.446756,0.16215433
C0R220,潮州,2017-01-06,22.534361,120.54,1.3132614e-09
U2HA40,臺大內茅埔,2017-01-06,23.689722,120.851117,1.0622647e-09
467490,臺中,2017-01-06,24.145736,120.684075,1.7323102e-07
C0U960,翠峰湖,2017-01-06,24.510856,121.608044,2.5980354e-08
E2HA20,林試畢祿溪站,2017-01-06,24.226944,121.308522,8.975762e-09
C0V890,前鎮,2017-01-06,22.5718,120.3117,7.669546e-09
467620,蘭嶼,2017-01-06,22.036969,121.558339,0.9998988
C1F941,雪嶺,2017-01-06,24.280586,121.026642,9.737469e-09
C2H9E0,國姓南港,2017-01-06,23.911108,120.846556,2.6016689e-09
C0AC80,文山,2017-01-06,25.00235,121.575728,3.1338564e-07
C0F9R0,龍井,2017-01-06,24.184536,120.528972,6.152287e-05
C0M760,民雄,2017-01-06,23.551754,120.428457,6.186398e-08
C0UA40,西德山,2017-01-06,24.560647,121.752608,1.2157809e-08
C1T920,中興,2017-01-06,23.769503,121.498653,3.3929847e-08
C0D550,雪霸,2017-01-06,24.526972,121.11605,4.5394732e-09
C2F860,梨山,2017-01-06,24.247522,121.243669,9.255192e-09
C0R320,車城,2017-01-06,22.0744,120.716247,0.99747884
C1S870,南美山,2017-01-06,23.15025,121.382333,4.6796625e-08
C0B020,基隆嶼,2017-01-06,25.19141,121.78391,0.9997897
C1U501,牛鬥,2017-01-06,24.637836,121.573656,2.2465903e-08
C0M730,嘉義市東區,2017-01-06,23.457673,120.460531,6.566999e-08
C0S700,知本,2017-01-06,22.684866,121.005642,3.841556e-07
C1N001,沙崙,2017-01-06,22.935472,120.309406,1.0873378e-08
C0V760,橋頭,2017-01-06,22.757806,120.30575,9.713372e-09
C0G960,福寶,2017-01-06,24.0443,120.3814,4.516175e-07
C0X210,白河,2017-01-06,23.347466,120.414427,1.1950637e-08
C0S810,東河,2017-01-06,22.972672,121.303986,2.8744413e-08
C2R170,屏東,2017-01-06,22.66027,120.49403,3.249671e-09
C0R670,楓港,2017-01-06,22.190131,120.692156,0.16546977
C0FA50,霧峰,2017-01-06,24.0419,120.6995,1.8905838e-07
C0UB10,蘇澳,2017-01-06,24.5969,121.8571,4.786646e-08
C0G950,防潮門,2017-01-06,24.1835,120.4871,7.552347e-05
C0M740,六腳,2017-01-06,23.492871,120.290625,1.2619355e-08
C1R250,力里,2017-01-06,22.428117,120.629228,1.7841405e-09
C0K330,虎尾,2017-01-06,23.719183,120.442036,8.674814e-10
C2FA00,烏石坑,2017-01-06,24.273503,120.947617,2.8886198e-09
C0V620,永安,2017-01-06,22.82315,120.236856,1.333284e-08
C1I330,楓樹林,2017-01-06,23.986803,121.076117,3.6784777e-09
C0W200,湖西,2017-01-06,23.596314,119.67275,0.9991205
72Q010,高雄農改場,2017-01-06,22.709333,120.525889,3.0988594e-09
C0SA40,瑞和,2017-01-06,22.974361,121.156697,4.103093e-08
C0C680,龜山,2017-01-06,25.02846,121.38656,1.0977236e-08
C2V260,月眉,2017-01-06,22.971003,120.539853,1.0504577e-09
C0V450,鳳森,2017-01-06,22.545064,120.392592,1.2832411e-09
C0U720,南山,2017-01-06,24.43742,121.38167,1.664653e-08
A2N290,臺南蘭花園區,2017-01-06,23.340258,120.379661,1.394139e-08
C0R560,新園,2017-01-06,22.5434,120.461558,8.909412e-09
C0U890,三星,2017-01-06,24.66812,121.65302,2.7373705e-08
C1V300,御油山,2017-01-06,23.001983,120.715364,1.0352006e-08
C0U600,礁溪,2017-01-06,24.817539,121.765608,5.3233137e-08
C1T980,龍澗,2017-01-06,24.023289,121.411328,3.3394258e-08
C0D670,海天一線,2017-01-06,24.831986,120.914438,4.6216777e-05
C0SA00,歷坵,2017-01-06,22.520969,120.89185,5.0349973e-07
C0M710,東石,2017-01-06,23.458927,120.15385,7.356934e-08
C0M780,鹿草,2017-01-06,23.41134,120.30835,1.4808129e-08
C0U520,雙連埤,2017-01-06,24.753033,121.641303,1.0367182e-08
C0B010,七堵,2017-01-06,25.094819,121.71713,0.99880254
C0R480,長治,2017-01-06,22.693128,120.542622,1.0184765e-09
C1V830,國三S383K,2017-01-06,22.781967,120.426475,1.015255e-09
12Q980,恆春工作站,2017-01-06,22.079678,120.714425,0.99747884
C1O940,東山服務區,2017-01-06,23.286016,120.398472,1.3138808e-08
C1U840,東澳嶺,2017-01-06,24.5378,121.8485,1.6939921e-08
C1D630,飛鳳山,2017-01-06,24.766464,121.119178,1.8786466e-09
C0S940,石寧山,2017-01-06,23.223772,121.406639,1.08413666e-07
C0K410,北港,2017-01-06,23.573957,120.292802,2.3270077e-08
C2M620,瑞里,2017-01-06,23.545133,120.675197,5.310827e-09
C0SB70,小港漁港,2017-01-06,23.158558,121.400431,1.5565097e-07
C2O950,安南,2017-01-06,23.076694,120.144861,1.5092671e-07
C0F0E0,南湖圈谷,2017-01-06,24.363714,121.444667,3.932652e-08
467610,成功,2017-01-06,23.097486,121.373428,3.6633776e-07
C0G890,伸港,2017-01-06,24.148933,120.484403,4.408733e-05
C2E540,龍溪,2017-01-06,24.606489,120.783933,6.827609e-05
C1V200,梅山,2017-01-06,23.268447,120.823556,5.6566356e-09
C0T9H0,加路蘭山,2017-01-06,23.682947,121.5274,2.4787033e-08
C2O930,玉井,2017-01-06,23.126042,120.46055,1.236039e-08
C1F911,新伯公,2017-01-06,24.221361,120.841069,9.912393e-10
C0R490,九如,2017-01-06,22.7405,120.490503,3.2283818e-09
C0X200,左鎮,2017-01-06,23.056758,120.408522,7.565432e-09
C0SB50,叭嗡嗡,2017-01-06,23.047062,121.343223,4.2220094e-08
C1F891,稍來,2017-01-06,24.265689,121.001142,6.553244e-09
72N240,七股研究中心,2017-01-06,23.081672,120.062894,7.6804685e-07
C0C700,中壢,2017-01-06,24.977661,121.256375,4.5489224e-07
C0M690,水上,2017-01-06,23.419734,120.388909,7.8467565e-08
C0V690,鼓山,2017-01-06,22.623325,120.275575,7.3401956e-09
C0O860,大內,2017-01-06,23.11885,120.36083,3.5259038e-09
C0Z200,萬榮,2017-01-06,23.709219,121.420106,3.809956e-08
C0T9D0,和中,2017-01-06,24.26676,121.74103,1.4709155e-08
C1O921,楠西,2017-01-06,23.183511,120.484083,1.1250357e-08
C0AJ30,淡水觀海,2017-01-06,25.184591,121.408616,0.71722734
C0V810,左營,2017-01-06,22.67491,120.28491,1.0702801e-08
C0UA70,桃源谷,2017-01-06,24.962606,121.888875,7.63174e-08
C0X130,官田,2017-01-06,23.193217,120.315422,1.3586216e-08
C1H000,翠峰,2017-01-06,24.109397,121.205211,1.440898e-08
C0UA90,石城,2017-01-06,24.980444,121.951214,0.1196691
C1E681,南勢山,2017-01-06,24.421669,120.923831,1.951502e-09
C0A9F0,內湖,2017-01-06,25.079422,121.57545,1.0473732e-06
C0K291,宜梧,2017-01-06,23.536281,120.169329,6.814936e-08
C1K540,口湖,2017-01-06,23.585344,120.180517,2.3275922e-07
C0R780,滿州,2017-01-06,22.024403,120.839892,0.9828882
C0V870,文安,2017-01-06,22.8025,120.2164,1.4552186e-08
C0U650,玉蘭,2017-01-06,24.675286,121.587061,7.179082e-09
C0R640,東港,2017-01-06,22.46247,120.44074,8.372332e-09
K2E360,苗栗農改,2017-01-06,24.495722,120.829111,1.8917168e-09
C0AJ80,板橋,2017-01-06,25.0107,121.4489,4.5089723e-06
C0S660,下馬,2017-01-06,23.150427,121.070312,2.1690429e-08
C1H9B1,阿眉,2017-01-06,24.1263,120.994672,5.52048e-09
C0UA20,多加屯,2017-01-06,24.368614,121.373189,1.1155846e-08
C0E730,頭份,2017-01-06,24.688247,120.912206,6.1398223e-06
72V140,高改旗南分場,2017-01-06,22.857861,120.516667,1.0513257e-09
C0K480,莿桐,2017-01-06,23.761192,120.502372,6.2474836e-10
C0U980,坪林石牌,2017-01-06,24.86478,121.77396,1.3474137e-08
C0T900,西林,2017-01-06,23.8119,121.441458,2.878375e-08
C1I150,青雲,2017-01-06,23.793361,120.949378,8.5793606e-10
467350,澎湖,2017-01-06,23.565503,119.563094,0.9985252
C0G800,埔鹽,2017-01-06,24.000394,120.431683,4.2261223e-07
C0H960,草屯,2017-01-06,23.973672,120.68085,4.173852e-10
C1V780,多納林道,2017-01-06,22.888028,120.737917,6.9149153e-09
C0E920,通霄漁港,2017-01-06,24.498589,120.673876,0.0010181599
C0Z330,安通山,2017-01-06,23.290728,121.348528,2.3526242e-08
C0AH10,永和,2017-01-06,25.01125,121.508111,5.3896906e-07
C0AK10,太平里,2017-01-06,25.134937,121.364899,0.55731326
C2G640,鹿港,2017-01-06,24.0753,120.430481,4.222074e-07
C1E890,國三N149K,2017-01-06,24.463414,120.680019,0.00015074597
C1R110,口社,2017-01-06,22.770111,120.645222,1.6811003e-09
C1M870,國三N285K,2017-01-06,23.550319,120.505833,7.646595e-10
467050,新屋,2017-01-06,25.006744,121.047486,1.3663479e-05
C1E480,鳳美,2017-01-06,24.554803,121.034747,1.303837e-09
C0M530,奮起湖,2017-01-06,23.493903,120.699253,5.901546e-09
C0C590,觀音,2017-01-06,25.027072,121.153317,5.616622e-05
C0T9M0,靜浦,2017-01-06,23.455167,121.495028,5.569248e-08
C2H9M0,發祥,2017-01-06,24.154094,121.164517,4.2964605e-09
C0AI40,石牌,2017-01-06,25.115597,121.513139,5.0176826e-05
C1F871,上谷關,2017-01-06,24.203483,121.018644,2.673596e-09
C2H9G0,百勝,2017-01-06,24.051142,120.909361,9.063685e-10
C0G880,二水,2017-01-06,23.810742,120.6173,4.931197e-10
C0R940,加祿堂,2017-01-06,22.3363,120.6217,1.3449436e-08
C0W220,北竿,2017-01-06,26.220358,119.974881,6.3187553e-09
C0O960,崎頂,2017-01-06,22.959547,120.369317,1.2540385e-09
C0S750,向陽,2017-01-06,23.248397,120.986133,1.2806938e-08
C0T9F0,水璉,2017-01-06,23.797131,121.542514,2.4956723e-08
C1M600,頭凍,2017-01-06,23.406364,120.603339,3.431538e-09
467660,臺東,2017-01-06,22.752211,121.154586,0.00017809053
C1D380,新埔,2017-01-06,24.84745,121.03834,4.7159293e-07
C2G980,田頭村,2017-01-06,23.8263,120.444175,9.526039e-10
C0V750,路竹,2017-01-06,22.854997,120.259439,1.0258388e-08
C0N050,蚵寮,2017-01-06,23.301,120.1104,1.8271695e-07
72M700,南改鹿草分場,2017-01-06,23.416869,120.283061,1.5523494e-08
C1SA50,利嘉林道,2017-01-06,22.82325,121.009389,3.3087648e-08
467550,玉山,2017-01-06,23.487614,120.959522,2.4345981e-08
C0A940,金山,2017-01-06,25.223628,121.643967,0.9982952
C1V340,大津,2017-01-06,22.888322,120.645986,1.4134052e-09
C0W180,七美,2017-01-06,23.219333,119.444892,0.9994426
C1F9C1,白冷,2017-01-06,24.182844,120.929889,1.369901e-09
K2E710,苗改生物防治研究中心,2017-01-06,24.422861,120.871833,1.5408645e-09
C0N040,蘆竹溝,2017-01-06,23.2344,120.0961,1.908498e-07
C2W230,畜試所澎湖,2017-01-06,23.628342,119.513206,0.9966197
C0R880,後壁湖,2017-01-06,21.9457,120.7457,0.9974509
C1I280,埔中,2017-01-06,23.820778,120.642594,7.125303e-10
467790,墾丁雷達站,2017-01-06,21.948235,120.808028,0.9901566
C0W190,望安,2017-01-06,23.380564,119.494075,0.99894905
466881,新北,2017-01-06,24.9593,121.52,4.4708406e-07
C0Z170,卓溪,2017-01-06,23.3443,121.3029,9.1516796e-08
C0F850,東勢,2017-01-06,24.246428,120.833047,9.201063e-10
466900,淡水,2017-01-06,25.164889,121.448906,0.64863473
C0I370,魚池,2017-01-06,23.895703,120.94135,1.0729899e-09
C0C630,大溪,2017-01-06,24.882853,121.265547,1.3295941e-08
C0A520,山佳,2017-01-06,24.974944,121.402008,3.096182e-07
C0I110,竹山,2017-01-06,23.761225,120.688156,4.9291e-10
82H840,茶改南部分場,2017-01-06,23.762528,120.7405,7.0640577e-10
C0G660,溪湖,2017-01-06,23.94835,120.479122,3.048549e-08
C1T800,洛韶,2017-01-06,24.204558,121.453956,2.5642484e-08
C1T810,慈恩,2017-01-06,24.192044,121.388386,1.6101044e-08
C1E451,象鼻,2017-01-06,24.368617,120.940228,2.0067286e-09
C0AC60,三峽,2017-01-06,24.939025,121.369728,2.5172234e-08
C0I490,萬大林道,2017-01-06,23.928228,121.091411,5.539888e-09
C1I290,豐丘,2017-01-06,23.668178,120.887417,2.2674163e-09
C1I320,奧萬大,2017-01-06,23.952956,121.178556,3.931615e-09
C2M910,嘉義大學,2017-01-06,23.471325,120.485903,8.280645e-10
C0U770,南澳,2017-01-06,24.44935,121.81022,1.3248627e-08
C0A980,社子,2017-01-06,25.109508,121.469681,0.00026099244
C0V800,六龜,2017-01-06,22.997889,120.633583,1.1953778e-09
C1G9D0,國一S218K,2017-01-06,23.890641,120.493253,2.7936453e-08
C0E570,白沙屯,2017-01-06,24.549447,120.696803,0.0019854563
C2F9A0,中竹林,2017-01-06,24.103556,120.751061,7.0453543e-10
C0FA40,臺中電廠,2017-01-06,24.2146,120.4907,6.152287e-05
C2G9A0,畜試所彰化,2017-01-06,23.86045,120.557964,5.466996e-10
C0H9C0,合歡山,2017-01-06,24.143442,121.272547,2.4291433e-08
C0X060,下營,2017-01-06,23.22695,120.256261,1.6027723e-08
G2M350,農試溪口農場,2017-01-06,23.58565,120.408111,6.971652e-08
C0U860,頭城,2017-01-06,24.85323,121.8308,5.4254706e-08
C0R580,南州,2017-01-06,22.48591,120.50274,9.763635e-09
C0D430,峨眉,2017-01-06,24.6905,121.017189,1.6407245e-08
C0G780,秀水,2017-01-06,24.03405,120.503869,1.0157071e-07
72N100,臺南農改場,2017-01-06,23.0605,120.342194,5.327953e-09
C0S900,蘭嶼高中,2017-01-06,22.04909,121.51214,0.9999483
467540,大武,2017-01-06,22.355675,120.903789,0.9931201
C1F9W0,德基,2017-01-06,24.254783,121.190261,7.195917e-09
C1Z120,壽豐,2017-01-06,23.870853,121.508081,3.4346044e-08
C0W160,烏坵,2017-01-06,24.9944,119.44956,0.8368359
C1I240,外大坪,2017-01-06,23.958697,120.917931,1.4905516e-09
C1I550,國六W023K,2017-01-06,23.979067,120.867742,6.6811157e-10
C0R870,興海,2017-01-06,21.9752,120.8439,0.9924504
C0R140,瑪家,2017-01-06,22.682903,120.686639,5.531832e-09
C0A530,坪林,2017-01-06,24.938183,121.70975,4.2553825e-08
C0X260,後壁,2017-01-06,23.366358,120.362326,5.51848e-09
C0Z230,和平,2017-01-06,24.30717,121.77007,1.47041055e-08
C0G770,福興,2017-01-06,24.041289,120.437669,4.2261223e-07
C0H9A0,神木村,2017-01-06,23.532742,120.843667,4.733116e-09
C0I460,南投,2017-01-06,23.911469,120.687331,3.9985723e-10
C0I480,梅峰,2017-01-06,24.085272,121.173572,8.06595e-09
C1V570,吉東,2017-01-06,22.85422,120.5454,1.0578408e-09
C2D740,屯原,2017-01-06,24.067969,121.209389,8.203009e-09
C2A560,福山,2017-01-06,24.776203,121.502811,1.2590313e-08
C0AH30,五分山,2017-01-06,25.07125,121.780794,5.6890986e-08
C0FA10,松柏,2017-01-06,24.429115,120.617482,0.00020458862
72S200,東改班鳩分場,2017-01-06,22.829528,121.077694,3.4224718e-06
72HA00,中改埔里分場,2017-01-06,23.903208,120.963364,1.05703e-09
C2H9W0,大坪頂農水,2017-01-06,24.043122,120.932781,1.1003959e-09
C0C650,平鎮,2017-01-06,24.897503,121.214636,1.4614549e-08
C0S930,延平,2017-01-06,22.902581,121.084058,2.0863899e-08
C0UA60,樟樹山,2017-01-06,24.41393,121.78325,1.5634805e-08
C1S670,摩天,2017-01-06,23.199503,121.027,2.566788e-08
C0V630,茄萣,2017-01-06,22.906642,120.182608,2.8286037e-08
466940,基隆,2017-01-06,25.133314,121.740475,0.9996926
C0X050,東河,2017-01-06,23.296598,120.385608,1.409169e-08
C0R770,保力,2017-01-06,22.071122,120.764111,0.99244744
G2L020,農試嘉義分所,2017-01-06,23.485028,120.473806,9.427079e-10
C0X240,關子嶺,2017-01-06,23.331169,120.508025,1.408921e-09
C0I380,集集,2017-01-06,23.828206,120.801467,6.0518746e-10
466990,花蓮,2017-01-06,23.975128,121.613275,2.078117e-08
C1V220,小關山,2017-01-06,23.154217,120.813603,1.0723357e-08
C1F9G1,慶福山,2017-01-06,24.180853,120.848378,2.3024376e-09
C0Z250,瑞穗林道,2017-01-06,23.49284,121.30688,3.2044028e-08
C0D590,新豐,2017-01-06,24.87068,120.97721,1.6076487e-09
C0A870,五指山,2017-01-06,25.132153,121.608692,5.371106e-08
C0UA50,西帽山,2017-01-06,24.555361,121.802628,1.5103305e-08
C0X160,仁德,2017-01-06,22.968258,120.257689,1.0243411e-08
C1H971,六分寮,2017-01-06,23.92507,120.6378,6.668652e-10
C0W120,西嶼,2017-01-06,23.5626,119.468436,0.99843806
C0G650,員林,2017-01-06,23.946503,120.585597,1.1780629e-08
C0AD50,鶯歌,2017-01-06,24.951533,121.346294,6.866277e-08
C2H9Q0,北東眼山,2017-01-06,24.120939,121.189303,9.030352e-09
C2H9T0,名間竹圍,2017-01-06,23.859914,120.637572,5.9060024e-10
C0S990,山豬窟,2017-01-06,22.318619,120.857372,0.9999126
72Q010,高雄農改,2017-01-06,22.709333,120.525889,3.0988594e-09
C0X190,安平,2017-01-06,22.993161,120.152181,2.7824939e-08
C0K400,斗六,2017-01-06,23.720583,120.541127,7.0400347e-10
12J990,口湖工作站,2017-01-06,23.589978,120.180394,2.1625434e-07
C0O830,北寮,2017-01-06,23.079561,120.495008,8.049332e-10
C1D410,白蘭,2017-01-06,24.579364,121.079947,3.885721e-09
C0S970,加津林,2017-01-06,22.416211,120.926942,0.99514973
C0D700,關西,2017-01-06,24.7977,121.1732,3.8854935e-08
C0M810,里佳,2017-01-06,23.389125,120.716647,4.9556106e-09
C0U750,龜山島,2017-01-06,24.841667,121.953133,1.0409346e-08
C0R810,內獅,2017-01-06,22.305064,120.642986,1.3351722e-08
C1M390,龍美,2017-01-06,23.406728,120.654417,4.466104e-09
C2FB60,頭櫃山,2017-01-06,24.129842,120.858925,2.872686e-09
C1H840,國三N238K,2017-01-06,23.841008,120.707711,5.4291505e-10
CAQ030,崎峰國小,2017-01-06,22.42565,120.49521,9.763635e-09
C2E520,大湖,2017-01-06,24.414939,120.870872,3.4401295e-09
467530,阿里山,2017-01-06,23.508208,120.813242,1.001588e-08
C1E691,南湖,2017-01-06,24.40135,120.837533,1.3918507e-09
C0FA30,梧棲,2017-01-06,24.256003,120.523381,5.7146164e-05
C1V231,高中,2017-01-06,23.134911,120.716711,3.187996e-09
C0F9V0,新社,2017-01-06,24.200172,120.815806,1.0913057e-09
C0H890,埔里,2017-01-06,23.972169,120.952425,1.0843922e-09
C0R690,墾丁,2017-01-06,21.966756,120.810269,0.85214895
C0F0D0,審馬陣,2017-01-06,24.381675,121.4203,1.6503003e-08
C0R820,白鷺,2017-01-06,22.454275,120.666219,9.235829e-09
U2H480,臺大溪頭,2017-01-06,23.670306,120.798194,2.3911444e-09
C1V190,南天池,2017-01-06,23.27403,120.91176,1.28498545e-08
K2E360,苗栗農改場,2017-01-06,24.495722,120.829111,1.8917168e-09
CAJ050,海口故事園區,2017-01-06,23.57543,120.14121,2.3275922e-07
C2H9D0,三隻寮,2017-01-06,24.093078,120.861578,1.1325945e-09
C0O990,媽廟,2017-01-06,22.99175,120.293525,9.8345465e-09
C0D480,打鐵坑,2017-01-06,24.849664,121.150789,1.7914719e-09
C0Z220,和平林道,2017-01-06,24.343922,121.656317,9.444433e-09
C0TA10,花蓮漁港,2017-01-06,23.995322,121.638331,2.0810166e-08
72C440,桃園農改場,2017-01-06,24.950944,121.030583,4.728832e-06
C1E711,馬拉邦山,2017-01-06,24.367306,120.901656,1.3778488e-09
C0SB20,富岡,2017-01-06,22.792467,121.192669,0.00011100383
C0D560,竹東,2017-01-06,24.767147,121.057881,1.8368796e-08
C0F9U0,南屯,2017-01-06,24.137006,120.637969,6.694675e-07
C0M720,番路,2017-01-06,23.464657,120.554156,9.798293e-10
C0F0A0,雪山圈谷,2017-01-06,24.388594,121.236339,2.3906027e-08
C1A9N0,四十份,2017-01-06,24.934158,121.593283,4.6186898e-08
C0U760,東澳,2017-01-06,24.52196,121.83318,9.771535e-09
C0X230,鹽水,2017-01-06,23.272621,120.247641,2.6233609e-08
C2H9H0,苗改南投蜂場,2017-01-06,23.852589,120.693481,4.3982534e-10
C0R950,萬隆國小,2017-01-06,22.507667,120.587817,1.1532819e-09
C0V370,古亭坑,2017-01-06,22.893178,120.401947,9.205175e-09
C1I340,新興橋,2017-01-06,23.563333,120.868728,1.6551824e-09
C0SA80,土坂,2017-01-06,22.453108,120.887572,0.9134218
C0R160,鹽埔,2017-01-06,22.739558,120.530778,9.036015e-10
C0AC40,大屯山,2017-01-06,25.175675,121.522408,1.6332645e-07
466850,五分山雷達站,2017-01-06,25.071182,121.781205,5.669438e-08
C2H9L0,馬烈霸,2017-01-06,24.1512,121.201772,8.897541e-09
C1AI50,國三N016K,2017-01-06,25.034164,121.619664,6.5641615e-07
C1V600,藤枝,2017-01-06,23.071961,120.757042,9.054083e-09
C1E601,南勢,2017-01-06,24.572486,120.734842,3.217601e-08
C0Z180,新城,2017-01-06,24.03946,121.60454,2.0159174e-08
C0O980,新市,2017-01-06,23.061614,120.298197,6.154454e-09
C0K420,西螺,2017-01-06,23.800407,120.467394,6.101876e-10
C0Z050,佳心,2017-01-06,23.34567,121.21316,2.4470655e-08
C0AD30,蘆洲,2017-01-06,25.086594,121.472331,1.6993152e-05
C0V610,梓官,2017-01-06,22.760558,120.267211,1.0666974e-08
K2F750,種苗改良場,2017-01-06,24.225972,120.800917,1.0423089e-09
C0UA80,大溪漁港,2017-01-06,24.941801,121.902955,1.1319961e-07
C1AI60,國一39K邊坡,2017-01-06,25.064361,121.383836,0.00010911822
C0W150,金寧,2017-01-06,24.457703,118.328989,1.6492242e-08
C0R960,內埔,2017-01-06,22.608483,120.570714,1.0751738e-09
V2C250,八德合作社,2017-01-06,24.93775,121.266389,1.7935823e-08
C2H9S0,龍南,2017-01-06,23.953536,120.833183,2.7052818e-09
C0AH40,平等,2017-01-06,25.129142,121.577086,9.38498e-08
C0R540,佳冬,2017-01-06,22.419456,120.552375,1.1533155e-08
466950,彭佳嶼,2017-01-06,25.627975,122.079744,0.99999785
C0A890,雙溪,2017-01-06,25.036003,121.864242,0.99474883
C0C480,桃園,2017-01-06,24.992425,121.323172,7.1108707e-07
C0AH50,林口,2017-01-06,25.072181,121.38084,2.7361331e-05
A2K360,水試臺西試驗場,2017-01-06,23.717231,120.190522,1.821298e-05
B2N890,畜試所,2017-01-06,23.058972,120.336406,5.3324163e-09
C2M960,外寮,2017-01-06,23.562643,120.665688,3.696779e-09
C0F9S0,烏日,2017-01-06,24.107058,120.624103,3.1994805e-08
C0C490,八德,2017-01-06,24.928708,121.283289,1.5898232e-08
C0R190,赤山,2017-01-06,22.592333,120.614306,1.0812364e-09
C0T820,天祥,2017-01-06,24.179597,121.495639,3.2838173e-08
C1F9E1,龍安,2017-01-06,24.1605,120.831961,1.1271938e-09
C0V820,小林,2017-01-06,23.148408,120.63325,1.1598469e-09
C2G870,芳苑,2017-01-06,23.922303,120.320025,2.1473395e-05
C0E850,大河,2017-01-06,24.618069,120.948578,9.521539e-09
C1U670,寒溪,2017-01-06,24.634,121.71691,9.412483e-06
C0N020,城西,2017-01-06,23.0568,120.0956,4.0944389e-07
C1Z110,三棧,2017-01-06,24.11557,121.60501,4.8536858e-08
C0R280,檳榔,2017-01-06,22.076078,120.836777,0.91573155
C2H9J0,中台,2017-01-06,23.9996,120.938739,1.1372985e-09
C0F9L0,后里,2017-01-06,24.310436,120.729725,3.3006005e-09
C0D540,橫山,2017-01-06,24.71116,121.11693,2.40694e-09
C1D420,太閣南,2017-01-06,24.632808,121.160575,5.025908e-09
C1E770,公館,2017-01-06,24.526914,120.830806,7.129945e-05
CAN130,水試所海水繁養殖中心,2017-01-06,23.120802,120.07968,7.6804685e-07
C1I430,翠華,2017-01-06,24.191961,121.224339,9.723957e-09
C1M400,菜瓜坪,2017-01-06,23.251928,120.576103,1.6779128e-09
C0G730,二林,2017-01-06,23.903325,120.376081,1.6964793e-07
72M360,南改義竹分場,2017-01-06,23.360694,120.279361,8.887077e-09
V2K620,麥寮合作社,2017-01-06,23.753836,120.294783,1.2965846e-06
C0Z070,舞鶴,2017-01-06,23.46811,121.37407,5.2553478e-08
C0B040,大武崙,2017-01-06,25.166676,121.706993,0.999268
C1Z030,紅葉,2017-01-06,23.493119,121.338806,6.3257886e-08
C1I050,丹大,2017-01-06,23.753747,121.141147,1.5927977e-08
C0I080,信義,2017-01-06,23.689694,120.851036,1.0622647e-09
C2M920,朴子農改,2017-01-06,23.469889,120.259383,1.2679552e-08
C2A880,福隆,2017-01-06,25.017842,121.942083,0.41708565
C0Z160,鳳林,2017-01-06,23.746114,121.453411,4.2953893e-08
C0V210,復興,2017-01-06,23.222403,120.806089,5.128526e-09
C0H990,昆陽,2017-01-06,24.121322,121.273642,2.2316597e-08
C0R741,獅子,2017-01-06,22.202308,120.705236,0.005810724
C0S710,鹿野,2017-01-06,22.917711,121.122994,1.5331203e-08
C0I530,小奇萊,2017-01-06,24.131764,121.295717,2.3383622e-08
C2K630,荷苞,2017-01-06,23.657717,120.595144,5.2857624e-10
C0Z080,富源,2017-01-06,23.587642,121.378225,6.5124894e-08
467441,高雄,2017-01-06,22.7304,120.3125,9.70652e-09
C0SB10,美和,2017-01-06,22.682078,121.060236,0.8731471
C2K620,馬光農場,2017-01-06,23.721453,120.378864,8.628329e-10
C1I140,卡奈托灣,2017-01-06,23.754364,121.087872,5.0522426e-09
C0I520,玉山風口,2017-01-06,23.470489,120.955994,2.5280686e-08
C1G691,下水埔,2017-01-06,23.816114,120.5676,4.7822796e-10
C0X110,臺南市南區,2017-01-06,22.961189,120.188378,2.7456585e-08
C0V680,仁武,2017-01-06,22.701083,120.347722,1.0418324e-08
C2G840,北斗,2017-01-06,23.877586,120.514222,2.6499693e-08
C0R900,竹坑,2017-01-06,22.1385,120.7022,0.999954
C0K250,崙背,2017-01-06,23.75555,120.318925,1.0797479e-06
C0G860,社頭,2017-01-06,23.897647,120.5862,1.2886229e-08
C0X150,安定,2017-01-06,23.102614,120.227839,2.265662e-08
C0R590,里港,2017-01-06,22.77919,120.49459,9.2302416e-10
C0E610,馬都安,2017-01-06,24.451272,120.930192,3.5227778e-09
C0E550,明德,2017-01-06,24.583486,120.885411,6.5784036e-09
C0R150,三地門,2017-01-06,22.709889,120.639944,1.579847e-09
C0G910,花壇,2017-01-06,24.032076,120.549461,8.538508e-08
C1D400,鳥嘴山,2017-01-06,24.71909,121.28387,6.8127495e-09
C0K500,元長,2017-01-06,23.64981,120.315024,2.2390148e-07
C0F0B0,石岡,2017-01-06,24.276061,120.777644,9.992004e-10
C2V250,甲仙,2017-01-06,23.080106,120.591758,9.993282e-10
C0SA20,金崙山,2017-01-06,22.567419,120.959667,3.839794e-08
C0V350,溪埔,2017-01-06,22.738578,120.446797,4.335985e-09
C0M660,溪口,2017-01-06,23.604131,120.403569,6.971639e-08
C1S880,壽卡,2017-01-06,22.238911,120.858903,0.7662082
72D680,桃改新埔分場,2017-01-06,24.834444,121.066111,2.6189264e-08
