站號,站名,日期,lat,lon,BLBTSLS
C0R710,龍磐,2017-03-16,21.931672,120.838942,0.11363093
C1F9D1,白毛台,2017-03-16,24.158325,120.886933,1.7055231e-09
C0G940,竹塘,2017-03-16,23.848253,120.386764,7.4373757e-10
467590,恆春,2017-03-16,22.003897,120.746339,1.0561337e-08
C1O850,環湖,2017-03-16,23.148617,120.418633,1.9526962e-10
C0U710,太平山,2017-03-16,24.505486,121.525656,2.7356585e-08
C0E820,獅潭,2017-03-16,24.539133,120.920042,3.457001e-09
C0V880,興達,2017-03-16,22.8778,120.2127,2.3759175e-10
C0S890,關山,2017-03-16,23.0395,121.175017,1.7356753e-09
C0SB30,新蘭,2017-03-16,22.869214,121.223228,1.6625641e-09
C2R970,屏科大,2017-03-16,22.648275,120.619247,4.0468714e-10
K2F750,種苗繁殖,2017-03-16,24.225972,120.800917,2.0795872e-09
C1Z130,銅門,2017-03-16,23.965694,121.492842,4.351951e-09
C0AD40,土城,2017-03-16,24.973208,121.445169,1.5721187e-07
CAN140,六官養殖協會,2017-03-16,23.22881,120.29962,1.6941551e-10
C0X180,山上,2017-03-16,23.0757,120.363253,1.8776174e-10
C0F9Z0,雪山東峰,2017-03-16,24.388792,121.268675,2.5510282e-08
C1M480,獨立山,2017-03-16,23.537022,120.607797,9.778969e-10
C0X220,學甲,2017-03-16,23.230367,120.182187,2.718102e-10
467650,日月潭,2017-03-16,23.881325,120.90805,3.5881909e-09
C0K600,箔子寮,2017-03-16,23.6197,120.14,8.240279e-10
C0G830,埤頭,2017-03-16,23.866003,120.452806,3.847385e-10
C0S950,七塊厝,2017-03-16,22.954453,121.229922,1.8114487e-09
467110,金門,2017-03-16,24.407306,118.289281,1.9418753e-08
C0AH80,深坑,2017-03-16,25.002703,121.628328,1.2332313e-07
467990,馬祖,2017-03-16,26.169269,119.923419,8.1474546e-08
C0A970,三貂角,2017-03-16,25.007606,122.002058,2.8120525e-07
C2D730,寶山農場,2017-03-16,24.732444,120.976153,2.4800595e-09
C0K430,褒忠,2017-03-16,23.690938,120.303634,6.0052596e-10
467480,嘉義,2017-03-16,23.495925,120.432906,1.9706219e-10
C2E540,後龍,2017-03-16,24.606489,120.783933,3.997057e-09
C0V400,阿公店,2017-03-16,22.804194,120.355528,1.4902211e-10
C0R440,大漢山,2017-03-16,22.405264,120.753181,1.1229476e-08
C0K280,四湖,2017-03-16,23.630414,120.227125,6.9226447e-10
C1F9B1,桐林,2017-03-16,24.066172,120.735194,7.5269685e-10
C2H9U0,鳳鵬,2017-03-16,23.763919,120.788061,7.187176e-10
C0K390,土庫,2017-03-16,23.679029,120.395574,3.1510217e-10
C1I450,望鄉山,2017-03-16,23.594153,120.944286,1.8693399e-08
C0E910,海埔,2017-03-16,24.648767,120.772435,3.976617e-09
B2E890,畜試北區分所,2017-03-16,24.527806,120.770972,2.0061812e-09
C0R750,四林格山,2017-03-16,22.076989,120.802439,1.5670354e-09
C0F0C0,中坑,2017-03-16,24.248517,120.903319,2.6675242e-09
C1I121,大鞍,2017-03-16,23.678381,120.760017,5.4939466e-09
72U480,花改蘭陽分場,2017-03-16,24.686306,121.716583,4.7705297e-09
C0A770,科教館,2017-03-16,25.096356,121.516507,9.8423556e-08
C0AJ60,六塊厝,2017-03-16,25.24,121.4481,0.39215925
C0R620,墾雷,2017-03-16,21.900836,120.855269,0.07083034
467420,永康,2017-03-16,23.038386,120.2367,1.7832755e-10
467300,東吉島,2017-03-16,23.25695,119.667467,0.48090556
C0I410,名間,2017-03-16,23.837053,120.701447,5.967511e-10
A2C560,農工中心,2017-03-16,24.985917,121.239833,7.0846545e-07
C0V740,旗山,2017-03-16,22.888614,120.483597,2.1601518e-10
C0Z061,玉里,2017-03-16,23.3215,121.339656,5.100198e-09
C0S840,南田,2017-03-16,22.279725,120.889208,2.9554241e-09
C1I470,杉林溪,2017-03-16,23.639517,120.786444,6.7922232e-09
C1X040,東原,2017-03-16,23.291597,120.463822,3.1815134e-10
C0R660,枋寮,2017-03-16,22.367722,120.590647,8.601748e-09
C1R120,上德文,2017-03-16,22.763272,120.704442,1.0288186e-09
C0K450,大埤,2017-03-16,23.646074,120.431537,2.587687e-10
C0UA00,土場,2017-03-16,24.576533,121.495333,2.171829e-08
467080,宜蘭,2017-03-16,24.763975,121.756528,6.9884774e-09
C0N030,四草,2017-03-16,23.0235,120.1116,2.3856034e-10
C0V650,彌陀,2017-03-16,22.783806,120.246361,1.5762525e-10
C0D660,新竹市東區,2017-03-16,24.798681,120.986942,2.4974902e-09
82S580,茶改東部分場,2017-03-16,22.907694,121.130139,1.6484685e-09
C0SB40,興隆,2017-03-16,22.913661,121.257469,1.6414717e-09
C0C710,大溪永福,2017-03-16,24.892936,121.324975,5.6911606e-08
C0FA20,溫寮,2017-03-16,24.372177,120.583125,3.132829e-09
C0V640,湖內,2017-03-16,22.887139,120.2445,2.3800767e-10
C0R910,下寮,2017-03-16,22.3929,120.5548,8.601748e-09
C0Z020,明里,2017-03-16,23.208717,121.262342,6.47018e-09
C0M770,嘉義梅山,2017-03-16,23.585398,120.555587,4.8688226e-10
G2F820,農業試驗所,2017-03-16,24.031261,120.688133,8.2359425e-10
C0C660,楊梅,2017-03-16,24.912375,121.143047,7.0471216e-08
C1E511,新開,2017-03-16,24.347703,120.827019,2.4804663e-09
G2F820,農試所(霧峰),2017-03-16,24.031261,120.688133,8.2359425e-10
C1I070,和社,2017-03-16,23.591131,120.888861,2.7851261e-09
C2F000,大肚,2017-03-16,24.15295,120.572117,1.1416256e-09
C1S850,豐南,2017-03-16,23.122139,121.262389,3.2923826e-09
C2A920,富貴角,2017-03-16,25.263783,121.565258,0.0012407925
CAH030,茶改場竹圍站,2017-03-16,23.860083,120.637528,7.3633005e-10
C0T960,光復,2017-03-16,23.660694,121.424964,3.7736987e-09
C0F9M0,豐原,2017-03-16,24.254322,120.720692,1.9866508e-09
C0R720,旭海,2017-03-16,22.205403,120.887614,1.8292811e-09
C0V710,苓雅,2017-03-16,22.622742,120.330669,3.7272355e-10
C0C740,觀音工業區,2017-03-16,25.064764,121.114856,0.0011687909
CAC040,拉拉山,2017-03-16,24.699317,121.427133,4.79755e-08
C0V790,萬山,2017-03-16,22.905944,120.688056,8.524391e-10
U2HA30,臺大和社,2017-03-16,23.590856,120.888864,2.7851261e-09
C0AJ90,澳底,2017-03-16,25.0552,121.9253,1.7773351e-06
C0Z100,東華,2017-03-16,23.89525,121.549833,3.87086e-09
C0G970,三豐,2017-03-16,23.882,120.2895,2.1399276e-09
V2K610,大庄合作社,2017-03-16,23.8068,120.367939,7.4293227e-10
C0V900,汕尾,2017-03-16,22.4782,120.4151,4.214434e-10
C1R630,龍泉,2017-03-16,22.66701,120.59091,3.997093e-10
C1AC50,關渡,2017-03-16,25.133486,121.469331,7.704708e-08
C0F9I0,神岡,2017-03-16,24.272481,120.658314,1.3998858e-09
C0K460,斗南,2017-03-16,23.678734,120.478359,2.6003877e-10
467410,臺南,2017-03-16,22.993239,120.204772,2.4155392e-10
C2O810,曾文,2017-03-16,23.219681,120.497328,2.4367838e-10
467280,後龍,2017-03-16,24.648563,120.831834,4.0142014e-09
C1F9J1,清水林,2017-03-16,24.071242,120.820419,2.0587767e-09
C2A650,火燒寮,2017-03-16,25.002719,121.742892,1.0451166e-07
466930,竹子湖,2017-03-16,25.162078,121.544547,3.580932e-08
C1I220,樟湖,2017-03-16,23.905333,120.846983,3.43252e-09
C0I390,仁愛,2017-03-16,24.022122,121.132206,5.584339e-09
C0Z300,東里,2017-03-16,23.26853,121.30547,6.270288e-09
C1V590,新發,2017-03-16,23.057019,120.646064,1.4303687e-09
C0K510,水林,2017-03-16,23.572924,120.24597,4.0978249e-10
72S590,東改賓朗果園,2017-03-16,22.813889,121.071278,1.667706e-09
82A750,茶改北部分場,2017-03-16,24.955778,121.631222,7.510813e-08
C1A750,石碇服務區,2017-03-16,25.00872,121.646242,1.4198481e-07
C0X300,鹿寮,2017-03-16,23.386047,120.477331,3.366596e-10
G2AI50,關渡,2017-03-16,25.11575,121.492,1.0070801e-06
C0K590,雲林東勢,2017-03-16,23.674192,120.255721,4.9334453e-10
C0A570,桶後,2017-03-16,24.848222,121.597992,3.1190165e-08
C1S800,華源,2017-03-16,22.657883,121.02325,4.182142e-09
C0G720,溪州,2017-03-16,23.851589,120.499093,3.7984804e-10
C1V160,達卡努瓦,2017-03-16,23.279811,120.705319,1.4805552e-09
C2M410,馬頭山,2017-03-16,23.324361,120.582017,3.3767247e-10
C0V850,蚵仔寮,2017-03-16,22.7256,120.2527,2.376448e-10
C0S740,池上,2017-03-16,23.119628,121.209469,2.7514448e-09
C1V390,尖山,2017-03-16,22.813153,120.367789,1.4942372e-10
C0AH70,松山,2017-03-16,25.04871,121.55042,9.561361e-08
C0N010,鯤鯓國小,2017-03-16,23.1879,120.0889,2.9793923e-10
C0R550,新埤,2017-03-16,22.467947,120.582894,4.132486e-10
C0SA60,知本（水試所）,2017-03-16,22.702394,121.082761,4.4614894e-09
C0T9I0,豐濱,2017-03-16,23.583897,121.514806,3.4504004e-09
C0UB00,淡江大學蘭陽校園,2017-03-16,24.823239,121.730383,2.9295194e-08
C0W240,九宮,2017-03-16,24.423753,118.240186,1.9580465e-08
C0T9N0,富里,2017-03-16,23.171639,121.249378,3.3272742e-09
U2HA50,臺大竹山,2017-03-16,23.756972,120.681556,4.7006177e-10
C0V840,鳳鼻頭,2017-03-16,22.5083,120.3591,1.9340775e-10
C0X140,西港,2017-03-16,23.125608,120.203108,1.9433516e-10
72D080,桃改五峰分場,2017-03-16,24.612194,121.157167,9.405405e-09
C2H9P0,伊拿谷,2017-03-16,23.963211,121.088264,2.3887647e-09
C2H9F0,柑林,2017-03-16,24.018658,120.847072,9.818741e-10
C0TA20,加灣,2017-03-16,24.082025,121.608944,1.6902483e-08
C0V530,阿蓮,2017-03-16,22.883208,120.327508,1.5120555e-10
C1O880,關山,2017-03-16,23.173397,120.594092,2.0946335e-10
C0E791,卓蘭,2017-03-16,24.3126,120.8244,2.303527e-09
C1I030,武界,2017-03-16,23.913225,121.052483,2.5097817e-09
C0R520,崁頂,2017-03-16,22.514781,120.506914,2.0232226e-10
C0R341,牡丹,2017-03-16,22.130036,120.792639,2.1877016e-09
C0R930,萬丹,2017-03-16,22.5885,120.4851,1.9799315e-10
C0S760,紅石,2017-03-16,23.069131,121.126219,1.2672782e-08
C1M610,石磐龍,2017-03-16,23.496606,120.663506,1.9530548e-09
C0UA10,鴛鴦湖,2017-03-16,24.590269,121.412228,1.6481959e-08
V2C260,八德蔬果,2017-03-16,24.978508,121.281819,1.9364165e-07
C0R800,丹路,2017-03-16,22.204481,120.750989,2.155124e-09
C0G920,永靖,2017-03-16,23.924703,120.547533,4.8687854e-10
C2M950,太和,2017-03-16,23.538372,120.702961,2.8213067e-09
C1A630,下盆,2017-03-16,24.771003,121.538622,1.9949145e-08
B2N890,畜產試驗所,2017-03-16,23.058972,120.336406,1.8672888e-10
C0UA30,白嶺,2017-03-16,24.527819,121.519031,2.496277e-08
C1V580,溪南(特生中心),2017-03-16,23.084972,120.788475,4.02175e-09
C1T970,大農,2017-03-16,23.615233,121.413331,3.6051284e-09
E2S960,林試太麻里2,2017-03-16,22.598014,120.989761,5.290051e-09
C0R650,竹田,2017-03-16,22.58486,120.54344,2.4376254e-10
C1H900,清流,2017-03-16,24.080775,120.962997,2.8066007e-09
C1C510,水尾,2017-03-16,24.940081,121.087161,1.9482029e-07
C0F9X0,大雅(中科園區),2017-03-16,24.21528,120.62445,9.311067e-10
C0SB60,白守蓮,2017-03-16,23.126769,121.401914,2.9021388e-09
C0O970,虎頭埤,2017-03-16,23.021375,120.347878,1.7922776e-10
C0C730,中大臨海站,2017-03-16,24.966126,121.008581,5.3970358e-05
C0X250,新營,2017-03-16,23.310689,120.316681,1.8536624e-10
C0V700,三民,2017-03-16,22.645017,120.311233,6.2736827e-10
C0U870,大礁溪,2017-03-16,24.791042,121.675047,1.9753957e-08
C0E870,高鐵苗栗,2017-03-16,24.60725,120.826094,3.9974233e-09
A2K570,古坑花卉中心,2017-03-16,23.63353,120.55239,4.496256e-10
C0M860,新美,2017-03-16,23.338017,120.683169,5.7483207e-10
C1E701,八卦,2017-03-16,24.491756,120.927619,6.8799735e-09
C0I420,國姓,2017-03-16,24.037803,120.855072,1.0222834e-09
C2D720,關西工作站,2017-03-16,24.757275,121.184792,2.4142734e-09
C0S960,香蘭,2017-03-16,22.587569,120.993375,5.290051e-09
C0R260,春日,2017-03-16,22.370361,120.628306,2.814132e-09
72G600,臺中農改場,2017-03-16,24.003028,120.534389,6.024487e-10
C0Z210,瑞穗,2017-03-16,23.5239,121.39021,4.152526e-09
C0M820,達邦,2017-03-16,23.453994,120.749517,1.356407e-09
C0V860,南寮,2017-03-16,22.7616,120.2339,2.376448e-10
C0G740,大城,2017-03-16,23.852487,120.320935,2.1303086e-09
C0R920,塭仔,2017-03-16,22.4169,120.5197,1.0475211e-08
C0R470,高樹,2017-03-16,22.826389,120.600806,4.2745113e-10
C0R680,佳樂水,2017-03-16,21.993578,120.861633,1.8329027e-05
C1O870,大棟山,2017-03-16,23.31157,120.52226,1.556719e-09
C0D360,梅花,2017-03-16,24.678347,121.208558,5.2085136e-09
C0Z190,富世,2017-03-16,24.14743,121.6297,1.4288207e-08
C0AI10,屈尺,2017-03-16,24.92184,121.54475,6.9419826e-08
B2U990,畜試東區分所,2017-03-16,24.669039,121.832561,5.041058e-09
C0SB80,長濱漁港,2017-03-16,23.313644,121.459994,4.8270943e-09
C0R240,來義,2017-03-16,22.527306,120.625111,2.0300955e-10
C0V910,大樹,2017-03-16,22.684645,120.432803,1.5603688e-10
C1R610,西大武山,2017-03-16,22.617719,120.7322,1.6321225e-08
C0G900,線西,2017-03-16,24.143358,120.443536,1.8829405e-09
C0M700,竹崎,2017-03-16,23.526178,120.555508,3.7725956e-10
C2E880,三義,2017-03-16,24.405478,120.749819,2.8554346e-09
C0C720,竹圍,2017-03-16,25.112692,121.239824,1.0070801e-06
C0F9P0,清水,2017-03-16,24.312297,120.562242,1.9363855e-09
C0Z150,吉安光華,2017-03-16,23.930925,121.595153,3.867672e-09
C1D640,外坪(五指山),2017-03-16,24.644447,121.090961,6.7251382e-09
C0F9O0,潭子,2017-03-16,24.213106,120.703933,1.5360933e-09
C2H9R0,卓社,2017-03-16,23.887894,121.000086,3.7174115e-09
72T250,花蓮農改場,2017-03-16,23.975222,121.563889,4.9851985e-09
C0E780,銅鑼,2017-03-16,24.489681,120.790853,2.2314586e-09
C1T950,太安,2017-03-16,23.666719,121.370128,2.5557668e-08
C0E830,苑裡,2017-03-16,24.439714,120.653053,3.6687102e-09
467270,田中,2017-03-16,23.873803,120.581286,4.230364e-10
C0SA10,檳榔四格山,2017-03-16,22.810031,121.109308,1.6961994e-09
C1T830,布洛灣,2017-03-16,24.17184,121.57127,1.6605453e-07
C0F970,大坑,2017-03-16,24.173142,120.722289,9.240194e-10
C1U920,思源,2017-03-16,24.393125,121.347214,1.6246156e-08
C0A931,三和,2017-03-16,25.233153,121.595236,1.1270233e-06
C0I010,廬山,2017-03-16,24.033311,121.181808,8.586241e-09
C2M940,日野賀,2017-03-16,23.434056,120.727169,1.8569685e-09
C0R860,鼻頭,2017-03-16,22.1043,120.8979,7.1630795e-09
C0UB20,壯圍,2017-03-16,24.7359,121.8163,4.702234e-09
C0R790,九棚,2017-03-16,22.14195,120.889281,2.6771783e-09
C0W110,東莒,2017-03-16,25.9652,119.98069,9.1645006e-08
C1U930,粉鳥林,2017-03-16,24.497088,121.842479,5.4268754e-09
C1I211,蘆竹湳,2017-03-16,23.934019,120.811994,1.7141163e-09
C0S830,長濱,2017-03-16,23.286817,121.411975,5.499839e-09
C1F9F1,伯公龍,2017-03-16,24.272392,120.849047,2.2567548e-09
C0E810,西湖,2017-03-16,24.562947,120.7485,1.36899265e-08
C1I440,新高口,2017-03-16,23.478744,120.878939,1.5168348e-08
C0O840,王爺宮,2017-03-16,23.222064,120.40085,2.7045943e-10
C0T9G0,鳳林山,2017-03-16,23.735269,121.420131,8.627462e-09
C0X080,佳里,2017-03-16,23.173039,120.145086,2.9793923e-10
C0FB70,大甲溪埔,2017-03-16,24.370625,120.620067,3.1317957e-09
C0Z310,清水斷崖,2017-03-16,24.218294,121.689142,1.3436873e-08
C0M680,太保,2017-03-16,23.455062,120.331455,1.8648756e-10
C1S820,金峰,2017-03-16,22.590969,120.933236,4.5961377e-09
C0AD10,八里,2017-03-16,25.150211,121.403947,1.0070801e-06
C2K240,草嶺,2017-03-16,23.59555,120.693461,2.7297309e-09
C1SA70,都蘭,2017-03-16,22.87794,121.226881,1.6414717e-09
C0K440,二崙,2017-03-16,23.772797,120.408944,3.3160016e-10
C1A760,坪林交控,2017-03-16,24.94284,121.713442,7.182742e-08
C0F9N0,大里,2017-03-16,24.092464,120.701378,7.014207e-10
C0SA90,達仁林場,2017-03-16,22.264347,120.823972,3.2277723e-09
C1R290,石門山,2017-03-16,22.112611,120.756597,1.7392212e-09
42HA10,萬大發電廠,2017-03-16,23.978875,121.139639,3.3302454e-09
C0R890,山海,2017-03-16,21.9878,120.7091,5.9288155e-05
C0T9A0,月眉山,2017-03-16,23.809928,121.539828,7.223833e-09
C0AC70,信義,2017-03-16,25.037822,121.564597,9.561361e-08
C0K560,棋山,2017-03-16,23.68645,120.603417,4.5625081e-10
C2FB50,出雲,2017-03-16,24.206469,120.902794,3.0430807e-09
C1Z240,中平林道,2017-03-16,23.42115,121.26763,2.4518123e-08
U2H480,溪頭,2017-03-16,23.670306,120.798194,3.4733392e-09
C0M880,好美里,2017-03-16,23.3364,120.138,2.2721729e-10
C0T9E0,大坑,2017-03-16,23.880628,121.581981,5.3671503e-09
C0K530,臺西,2017-03-16,23.701547,120.197559,8.030424e-10
C1E900,國一N128K,2017-03-16,24.560997,120.844186,2.781914e-09
C0AJ50,水湳洞,2017-03-16,25.123695,121.862238,2.3663629e-06
C0AI20,白沙灣,2017-03-16,25.283128,121.519058,0.2672248
C0A860,大坪,2017-03-16,25.165914,121.632969,4.835464e-08
C1U850,觀音海岸,2017-03-16,24.38319,121.77856,4.7914304e-09
C2K610,草嶺石壁,2017-03-16,23.602469,120.707731,2.7436677e-09
C0U950,鶯子嶺,2017-03-16,24.89754,121.79244,3.8268233e-08
C0O900,善化,2017-03-16,23.112883,120.297219,1.8188498e-10
C0K550,蔦松,2017-03-16,23.514319,120.229736,3.2992895e-10
E2P980,林試六龜中心,2017-03-16,22.991703,120.645722,3.7678566e-10
C0E590,通霄,2017-03-16,24.471892,120.704622,5.018915e-09
C1I310,西巒,2017-03-16,23.754486,120.883956,3.7919965e-09
C0A550,泰平,2017-03-16,24.971197,121.823711,8.8901494e-08
C0I360,水里,2017-03-16,23.812553,120.849792,6.408778e-10
C0R830,高士,2017-03-16,22.121825,120.836781,1.6764573e-09
C1I101,溪頭,2017-03-16,23.661789,120.807647,8.847939e-09
C0AJ20,野柳,2017-03-16,25.20703,121.690021,1.9575184e-05
C0B060,暖暖,2017-03-16,25.0957,121.7403,3.8082018e-07
C1H920,長豐,2017-03-16,24.102039,120.879897,2.202674e-09
C0V360,內門,2017-03-16,22.975481,120.466769,1.6598416e-10
C0R850,林邊,2017-03-16,22.4634,120.5339,4.1863377e-10
C0E930,龍鳳,2017-03-16,24.700034,120.859125,4.735175e-09
C0U910,冬山,2017-03-16,24.63373,121.7937,5.041058e-09
C1E721,泰安,2017-03-16,24.489017,120.968036,7.739229e-09
82H320,茶改中部分場,2017-03-16,23.875611,120.913583,3.0029674e-09
C0M750,布袋,2017-03-16,23.380878,120.167789,2.155871e-10
C1S860,利嘉,2017-03-16,22.809417,121.050528,7.91403e-09
72C440,桃園農改,2017-03-16,24.950944,121.030583,3.222598e-07
E2S980,林試太麻里1,2017-03-16,22.598922,120.980044,4.9574824e-09
C0X170,關廟,2017-03-16,22.963017,120.327797,1.8215264e-10
C0V720,林園,2017-03-16,22.507747,120.394511,1.9462969e-10
C1I510,線浸林道,2017-03-16,23.761508,120.832956,4.6622253e-09
C0D690,外湖,2017-03-16,24.917735,120.968711,5.706329e-07
C0C750,新興坑尾,2017-03-16,25.0061,121.0971,1.2674721e-05
B2Q810,畜試南區分所,2017-03-16,21.945583,120.802167,2.1444437e-05
C0S790,金崙,2017-03-16,22.538122,120.966875,3.5809165e-09
C0AH90,福山植物園,2017-03-16,24.760717,121.58135,3.956502e-08
C0I540,奇萊稜線,2017-03-16,24.109231,121.326456,2.9783044e-08
C0M850,表湖,2017-03-16,23.24186,120.64166,1.0014805e-09
C0S770,大溪山,2017-03-16,22.478475,120.943325,3.433057e-09
C0AG80,中和,2017-03-16,24.991622,121.491792,1.5723047e-07
C0T790,大禹嶺,2017-03-16,24.186117,121.316086,2.334147e-08
C0T9B0,水源,2017-03-16,23.991861,121.537169,7.304066e-09
C0R840,牡丹池山,2017-03-16,22.168389,120.841225,2.5736353e-09
C1I131,桶頭,2017-03-16,23.641944,120.654117,5.790268e-10
CAL110,布袋國中,2017-03-16,23.35893,120.18026,2.155871e-10
467571,新竹,2017-03-16,24.827853,121.014219,1.099555e-08
C0Z290,赤柯山,2017-03-16,23.36893,121.38293,2.017106e-08
C0X280,將軍,2017-03-16,23.214999,120.13577,2.6961167e-10
C0S690,太麻里,2017-03-16,22.60902,120.98533,5.2221516e-09
C0U880,北關,2017-03-16,24.9072,121.8734,1.6583661e-07
C1H860,瑞岩,2017-03-16,24.123772,121.18345,2.0747626e-08
C0G810,埔心,2017-03-16,23.947633,120.525456,4.8687854e-10
C0U970,大福,2017-03-16,24.80064,121.81389,7.0086603e-09
C2H9N0,仁愛東眼,2017-03-16,24.026875,121.1205,7.6514866e-09
C1E670,南礦,2017-03-16,24.538278,121.002836,9.7365955e-09
C0M520,東後寮,2017-03-16,23.369908,120.248065,2.1745791e-10
C1E461,松安,2017-03-16,24.397972,120.986022,5.6475797e-09
72G600,臺中農改,2017-03-16,24.003028,120.534389,6.024487e-10
C2N160,西拉雅風管處,2017-03-16,23.189481,120.335297,1.9016026e-10
C2M970,碧湖,2017-03-16,23.568632,120.624165,2.3707991e-09
C0A640,石碇,2017-03-16,24.993969,121.662917,7.163329e-08
E2S960,林試太麻里2,2017-03-16,22.598,120.99775,5.339296e-09
C0F9Y0,桃山,2017-03-16,24.432739,121.303808,2.1418968e-08
C1I020,萬大,2017-03-16,23.979817,121.132261,5.6322613e-09
C0U940,羅東,2017-03-16,24.68184,121.74934,4.746858e-09
C0M650,朴子,2017-03-16,23.43463,120.23902,2.1980019e-10
C1I500,大尖山,2017-03-16,23.858572,120.994889,8.851703e-09
C0G820,田尾,2017-03-16,23.901669,120.509389,4.8687854e-10
E2K600,四湖植物園,2017-03-16,23.676986,120.163433,6.91784e-10
C0S730,綠島,2017-03-16,22.6672,121.47533,8.386126e-07
12Q970,東港工作站,2017-03-16,22.479997,120.466058,4.214434e-10
C0E430,南庄,2017-03-16,24.601775,121.000214,3.4886432e-09
C1TA00,太魯閣,2017-03-16,24.15773,121.6236,1.4117059e-08
466920,臺北,2017-03-16,25.037658,121.514853,9.561361e-08
C0R600,舊泰武,2017-03-16,22.588194,120.664944,9.265113e-10
C1I260,北坑,2017-03-16,23.9246,121.006903,1.8198362e-09
466910,鞍部,2017-03-16,25.182586,121.529731,8.3198834e-08
C1I230,九份二山,2017-03-16,23.961944,120.845,2.1297033e-09
C2A660,瑞芳,2017-03-16,25.113169,121.801147,9.590719e-07
C0R270,琉球嶼,2017-03-16,22.332244,120.362236,2.8001201e-09
C1T990,高寮,2017-03-16,23.394239,121.356808,4.332744e-09
C0G620,芬園,2017-03-16,24.015678,120.6213,8.5867274e-10
C1Z140,荖溪,2017-03-16,23.890575,121.45964,4.636926e-08
C1I201,中心崙,2017-03-16,23.728722,120.712097,1.0952678e-09
C1I400,凌霄,2017-03-16,24.018778,121.004456,7.466005e-09
C1M640,十字,2017-03-16,23.492153,120.753683,7.230753e-09
G2P820,農試鳳山分所,2017-03-16,22.646611,120.356083,5.974287e-10
C0Z270,蕃薯寮,2017-03-16,23.73835,121.540108,6.8708856e-09
C0F9Q0,外埔,2017-03-16,24.347817,120.705686,1.7106412e-09
C0K580,高鐵雲林,2017-03-16,23.737456,120.417944,3.4898126e-10
C2I090,鳳凰,2017-03-16,23.728081,120.787347,2.1657307e-09
C0U990,員山,2017-03-16,24.74435,121.72247,4.7226916e-09
C0V770,大社,2017-03-16,22.730306,120.346639,2.3343402e-10
C0X120,麻豆,2017-03-16,23.183289,120.248611,1.8410445e-10
C0C670,龍潭,2017-03-16,24.870056,121.221389,8.186769e-09
C0D680,香山濕地,2017-03-16,24.783581,120.914988,2.4610833e-09
C0S980,勝林山,2017-03-16,22.430439,120.8938,8.381967e-09
C0V730,大寮,2017-03-16,22.605614,120.395717,3.7244358e-10
C0R570,麟洛,2017-03-16,22.65078,120.52719,2.485798e-10
C2M930,石卓,2017-03-16,23.478744,120.702264,6.2040253e-09
C0G9B0,和美,2017-03-16,24.105169,120.492131,1.6598962e-09
CAG100,王功漁港,2017-03-16,23.96824,120.32586,3.0385743e-09
C0X290,北門,2017-03-16,23.267772,120.125481,2.6961167e-10
C2F930,大甲,2017-03-16,24.347667,120.640403,3.2456755e-09
C0D650,湖口,2017-03-16,24.904794,121.043628,2.1764865e-07
C0E420,竹南,2017-03-16,24.708978,120.888897,4.707385e-09
C0U780,五結,2017-03-16,24.68637,121.79794,4.702234e-09
C1I250,鯉潭,2017-03-16,23.961922,120.991131,1.8382841e-09
C0R130,阿禮,2017-03-16,22.742908,120.743678,1.3991545e-09
C0X100,臺南市北區,2017-03-16,23.010394,120.194228,2.3892327e-10
C0S920,金峰嘉蘭,2017-03-16,22.594789,120.960825,4.886026e-09
C0V490,新興,2017-03-16,22.627422,120.298803,3.7272355e-10
C0F9K0,大安,2017-03-16,24.345061,120.588025,3.1475873e-09
72N100,臺南農改,2017-03-16,23.0605,120.342194,1.8672888e-10
467290,古坑,2017-03-16,23.633639,120.551889,4.496256e-10
C2E970,八甲,2017-03-16,24.535811,120.795983,3.1345146e-09
C0V440,鳳山,2017-03-16,22.646653,120.356122,5.974287e-10
C1T940,大觀,2017-03-16,23.714206,121.373133,7.979661e-09
72T250,花蓮農改,2017-03-16,23.975222,121.563889,4.9851985e-09
C0E740,造橋,2017-03-16,24.637056,120.864778,4.0001993e-09
C0R100,尾寮山,2017-03-16,22.833111,120.683889,1.4769224e-09
A2K630,臺大雲林校區,2017-03-16,23.730628,120.423903,3.4898126e-10
C0D580,寶山,2017-03-16,24.735006,121.025192,2.1181212e-09
E2P990,林試扇平站,2017-03-16,22.9677,120.6857,9.965035e-10
C0AI30,三重,2017-03-16,25.057328,121.500629,9.8423556e-08
C0AH00,汐止,2017-03-16,25.066881,121.658778,9.561361e-08
C1Z040,立山,2017-03-16,23.443356,121.327375,2.4065876e-08
C0W130,花嶼,2017-03-16,23.40007,119.32276,0.9081721
C0A950,鼻頭角,2017-03-16,25.129036,121.923372,0.87566394
C0K470,林內,2017-03-16,23.748675,120.609642,4.272498e-10
C2F990,摩天嶺,2017-03-16,24.322458,120.936819,3.1605936e-09
82C160,茶改場,2017-03-16,24.908472,121.185333,5.686441e-08
C0Z320,清水林道,2017-03-16,23.27125,121.188272,1.7545522e-08
C0R760,南仁湖,2017-03-16,22.084681,120.863353,1.7392212e-09
C0M670,大林,2017-03-16,23.600616,120.45841,2.2558283e-10
C0M800,茶山,2017-03-16,23.299075,120.664767,4.859276e-10
C0A9C0,天母,2017-03-16,25.117494,121.537169,1.2501994e-07
72K220,南改斗南分場,2017-03-16,23.634556,120.477333,2.6003877e-10
72AI40,桃改樹林分場,2017-03-16,24.944503,121.386972,8.358662e-08
C0S910,蘭嶼燈塔,2017-03-16,22.081197,121.503117,2.7437212e-05
C0B050,八斗子,2017-03-16,25.144754,121.79167,3.4498344e-06
C0U900,內城,2017-03-16,24.71813,121.68766,4.820176e-09
C0X320,柳營,2017-03-16,23.253328,120.375253,2.5068525e-10
C0M790,新港,2017-03-16,23.553269,120.345728,2.606744e-10
C0F9T0,西屯,2017-03-16,24.179494,120.641275,7.051417e-10
C0SA30,都歷,2017-03-16,23.020333,121.323642,1.5555971e-09
C0C620,蘆竹,2017-03-16,25.084275,121.265767,2.7878496e-05
C0R730,大坪頂,2017-03-16,22.024633,120.69355,4.4375397e-09
C0AJ40,石門,2017-03-16,25.273672,121.601198,0.00425926
C0E750,苗栗,2017-03-16,24.564569,120.824575,2.7551628e-09
C0T870,鯉魚潭,2017-03-16,23.935639,121.508944,4.2707975e-09
C1V170,排雲,2017-03-16,23.463619,120.954147,2.2865654e-08
C2H950,中寮,2017-03-16,23.884447,120.766406,6.155872e-10
C0R350,貓鼻頭,2017-03-16,21.921774,120.7358,0.7533344
C0V660,岡山,2017-03-16,22.797078,120.294958,1.5761593e-10
C1H941,雙冬,2017-03-16,23.967378,120.802189,1.8619088e-09
C0AJ70,田寮,2017-03-16,25.2698,121.4886,0.34286132
C0AI00,五股,2017-03-16,25.07445,121.42728,1.2171701e-07
C0Z280,德武,2017-03-16,23.47426,121.41071,4.142155e-09
C0R700,枋山,2017-03-16,22.246844,120.661086,1.5243631e-07
C0C460,復興,2017-03-16,24.820208,121.352281,1.1500534e-08
E2H360,蓮華池,2017-03-16,23.918333,120.885278,2.0474478e-09
C0M640,中埔,2017-03-16,23.42538,120.5229,3.266118e-10
C0W140,金沙,2017-03-16,24.488292,118.408778,5.8971384e-08
C2A540,四堵,2017-03-16,24.8926,121.745736,5.3117514e-08
C0ACA0,新莊,2017-03-16,25.051478,121.446756,7.0298704e-08
C0R220,潮州,2017-03-16,22.534361,120.54,2.0216372e-10
U2HA40,臺大內茅埔,2017-03-16,23.689722,120.851117,1.4936565e-09
467490,臺中,2017-03-16,24.145736,120.684075,8.8566804e-10
C0U960,翠峰湖,2017-03-16,24.510856,121.608044,3.1233565e-08
E2HA20,林試畢祿溪站,2017-03-16,24.226944,121.308522,2.843897e-08
C0V890,前鎮,2017-03-16,22.5718,120.3117,3.8306827e-10
467620,蘭嶼,2017-03-16,22.036969,121.558339,1.2137819e-07
C1F941,雪嶺,2017-03-16,24.280586,121.026642,3.4989874e-08
C2H9E0,國姓南港,2017-03-16,23.911108,120.846556,3.586371e-09
C0AC80,文山,2017-03-16,25.00235,121.575728,1.2332313e-07
C0F9R0,龍井,2017-03-16,24.184536,120.528972,1.5667365e-09
C0M760,民雄,2017-03-16,23.551754,120.428457,2.2487702e-10
C0UA40,西德山,2017-03-16,24.560647,121.752608,2.484113e-08
C1T920,中興,2017-03-16,23.769503,121.498653,4.9952305e-09
C0D550,雪霸,2017-03-16,24.526972,121.11605,8.263925e-09
C2F860,梨山,2017-03-16,24.247522,121.243669,2.8943182e-08
C0R320,車城,2017-03-16,22.0744,120.716247,1.8667994e-06
C1S870,南美山,2017-03-16,23.15025,121.382333,3.3164587e-09
C0B020,基隆嶼,2017-03-16,25.19141,121.78391,0.19042063
C1U501,牛鬥,2017-03-16,24.637836,121.573656,1.1876831e-08
C0M730,嘉義市東區,2017-03-16,23.457673,120.460531,3.0181138e-10
C0S700,知本,2017-03-16,22.684866,121.005642,4.8809214e-09
C1N001,沙崙,2017-03-16,22.935472,120.309406,1.8030336e-10
C0V760,橋頭,2017-03-16,22.757806,120.30575,2.3647462e-10
C0G960,福寶,2017-03-16,24.0443,120.3814,1.6454246e-09
C0X210,白河,2017-03-16,23.347466,120.414427,3.2980751e-10
C0S810,東河,2017-03-16,22.972672,121.303986,5.216885e-09
C2R170,屏東,2017-03-16,22.66027,120.49403,2.485798e-10
C0R670,楓港,2017-03-16,22.190131,120.692156,2.5237287e-07
C0FA50,霧峰,2017-03-16,24.0419,120.6995,8.261225e-10
C0UB10,蘇澳,2017-03-16,24.5969,121.8571,1.0314834e-08
C0G950,防潮門,2017-03-16,24.1835,120.4871,1.5676781e-09
C0M740,六腳,2017-03-16,23.492871,120.290625,2.3059171e-10
C1R250,力里,2017-03-16,22.428117,120.629228,2.361663e-10
C0K330,虎尾,2017-03-16,23.719183,120.442036,3.5347364e-10
C2FA00,烏石坑,2017-03-16,24.273503,120.947617,3.0945122e-09
C0V620,永安,2017-03-16,22.82315,120.236856,1.5762525e-10
C1I330,楓樹林,2017-03-16,23.986803,121.076117,6.328139e-09
C0W200,湖西,2017-03-16,23.596314,119.67275,0.67565924
72Q010,高雄農改場,2017-03-16,22.709333,120.525889,3.072163e-10
C0SA40,瑞和,2017-03-16,22.974361,121.156697,1.4179523e-09
C0C680,龜山,2017-03-16,25.02846,121.38656,9.139661e-08
C2V260,月眉,2017-03-16,22.971003,120.539853,3.0221406e-10
C0V450,鳳森,2017-03-16,22.545064,120.392592,2.0153731e-10
C0U720,南山,2017-03-16,24.43742,121.38167,1.7523048e-08
A2N290,臺南蘭花園區,2017-03-16,23.340258,120.379661,2.0232072e-10
C0R560,新園,2017-03-16,22.5434,120.461558,1.9462969e-10
C0U890,三星,2017-03-16,24.66812,121.65302,1.1646024e-08
C1V300,御油山,2017-03-16,23.001983,120.715364,3.97272e-09
C0U600,礁溪,2017-03-16,24.817539,121.765608,2.6929738e-08
C1T980,龍澗,2017-03-16,24.023289,121.411328,7.276745e-08
C0D670,海天一線,2017-03-16,24.831986,120.914438,8.7168516e-08
C0SA00,歷坵,2017-03-16,22.520969,120.89185,4.0035504e-09
C0M710,東石,2017-03-16,23.458927,120.15385,3.8803644e-10
C0M780,鹿草,2017-03-16,23.41134,120.30835,2.1776464e-10
C0U520,雙連埤,2017-03-16,24.753033,121.641303,1.9776577e-08
C0B010,七堵,2017-03-16,25.094819,121.71713,6.3592194e-07
C0R480,長治,2017-03-16,22.693128,120.542622,1.5650842e-10
C1V830,國三S383K,2017-03-16,22.781967,120.426475,1.915713e-10
12Q980,恆春工作站,2017-03-16,22.079678,120.714425,1.8667994e-06
C1O940,東山服務區,2017-03-16,23.286016,120.398472,3.187727e-10
C1U840,東澳嶺,2017-03-16,24.5378,121.8485,1.4832835e-08
C1D630,飛鳳山,2017-03-16,24.766464,121.119178,4.54383e-09
C0S940,石寧山,2017-03-16,23.223772,121.406639,6.1173897e-09
C0K410,北港,2017-03-16,23.573957,120.292802,4.1655093e-10
C2M620,瑞里,2017-03-16,23.545133,120.675197,2.4428208e-09
C0SB70,小港漁港,2017-03-16,23.158558,121.400431,3.2649545e-09
C2O950,安南,2017-03-16,23.076694,120.144861,5.16128e-10
C0F0E0,南湖圈谷,2017-03-16,24.363714,121.444667,3.916229e-08
467610,成功,2017-03-16,23.097486,121.373428,2.881208e-09
C0G890,伸港,2017-03-16,24.148933,120.484403,1.8818633e-09
C2E540,龍溪,2017-03-16,24.606489,120.783933,3.997057e-09
C1V200,梅山,2017-03-16,23.268447,120.823556,1.1892467e-09
C0T9H0,加路蘭山,2017-03-16,23.682947,121.5274,1.0718287e-08
C2O930,玉井,2017-03-16,23.126042,120.46055,1.8774168e-10
C1F911,新伯公,2017-03-16,24.221361,120.841069,1.9312585e-09
C0R490,九如,2017-03-16,22.7405,120.490503,3.0719405e-10
C0X200,左鎮,2017-03-16,23.056758,120.408522,1.7925339e-10
C0SB50,叭嗡嗡,2017-03-16,23.047062,121.343223,1.5705782e-09
C1F891,稍來,2017-03-16,24.265689,121.001142,2.4013055e-08
72N240,七股研究中心,2017-03-16,23.081672,120.062894,5.1475846e-10
C0C700,中壢,2017-03-16,24.977661,121.256375,1.7342558e-07
C0M690,水上,2017-03-16,23.419734,120.388909,1.8716176e-10
C0V690,鼓山,2017-03-16,22.623325,120.275575,3.7272355e-10
C0O860,大內,2017-03-16,23.11885,120.36083,1.8563301e-10
C0Z200,萬榮,2017-03-16,23.709219,121.420106,6.152224e-09
C0T9D0,和中,2017-03-16,24.26676,121.74103,4.308532e-09
C1O921,楠西,2017-03-16,23.183511,120.484083,1.9480127e-10
C0AJ30,淡水觀海,2017-03-16,25.184591,121.408616,2.3798311e-05
C0V810,左營,2017-03-16,22.67491,120.28491,6.234604e-10
C0UA70,桃源谷,2017-03-16,24.962606,121.888875,7.0736505e-08
C0X130,官田,2017-03-16,23.193217,120.315422,1.8858867e-10
C1H000,翠峰,2017-03-16,24.109397,121.205211,1.7167709e-08
C0UA90,石城,2017-03-16,24.980444,121.951214,4.639558e-07
C1E681,南勢山,2017-03-16,24.421669,120.923831,5.184765e-09
C0A9F0,內湖,2017-03-16,25.079422,121.57545,9.561361e-08
C0K291,宜梧,2017-03-16,23.536281,120.169329,3.2992895e-10
C1K540,口湖,2017-03-16,23.585344,120.180517,8.2439733e-10
C0R780,滿州,2017-03-16,22.024403,120.839892,8.730309e-09
C0V870,文安,2017-03-16,22.8025,120.2164,1.5715514e-10
C0U650,玉蘭,2017-03-16,24.675286,121.587061,1.9018367e-08
C0R640,東港,2017-03-16,22.46247,120.44074,4.214434e-10
K2E360,苗栗農改,2017-03-16,24.495722,120.829111,2.087854e-09
C0AJ80,板橋,2017-03-16,25.0107,121.4489,1.701254e-07
C0S660,下馬,2017-03-16,23.150427,121.070312,1.3063966e-08
C1H9B1,阿眉,2017-03-16,24.1263,120.994672,1.6639323e-08
C0UA20,多加屯,2017-03-16,24.368614,121.373189,1.4286327e-08
C0E730,頭份,2017-03-16,24.688247,120.912206,4.688657e-09
72V140,高改旗南分場,2017-03-16,22.857861,120.516667,2.1551187e-10
C0K480,莿桐,2017-03-16,23.761192,120.502372,3.0405323e-10
C0U980,坪林石牌,2017-03-16,24.86478,121.77396,2.6895654e-08
C0T900,西林,2017-03-16,23.8119,121.441458,5.510728e-09
C1I150,青雲,2017-03-16,23.793361,120.949378,1.015563e-09
467350,澎湖,2017-03-16,23.565503,119.563094,0.7456923
C0G800,埔鹽,2017-03-16,24.000394,120.431683,1.2171261e-09
C0H960,草屯,2017-03-16,23.973672,120.68085,8.5464996e-10
C1V780,多納林道,2017-03-16,22.888028,120.737917,1.7728174e-09
C0E920,通霄漁港,2017-03-16,24.498589,120.673876,5.051983e-09
C0Z330,安通山,2017-03-16,23.290728,121.348528,6.5945467e-09
C0AH10,永和,2017-03-16,25.01125,121.508111,1.7019973e-07
C0AK10,太平里,2017-03-16,25.134937,121.364899,8.973794e-07
C2G640,鹿港,2017-03-16,24.0753,120.430481,1.6442135e-09
C1E890,國三N149K,2017-03-16,24.463414,120.680019,3.6646468e-09
C1R110,口社,2017-03-16,22.770111,120.645222,5.6075405e-10
C1M870,國三N285K,2017-03-16,23.550319,120.505833,4.684954e-10
467050,新屋,2017-03-16,25.006744,121.047486,3.297544e-05
C1E480,鳳美,2017-03-16,24.554803,121.034747,6.98408e-09
C0M530,奮起湖,2017-03-16,23.493903,120.699253,2.8480915e-09
C0C590,觀音,2017-03-16,25.027072,121.153317,0.0001308324
C0T9M0,靜浦,2017-03-16,23.455167,121.495028,3.7240113e-09
C2H9M0,發祥,2017-03-16,24.154094,121.164517,1.2105561e-08
C0AI40,石牌,2017-03-16,25.115597,121.513139,1.3859062e-07
C1F871,上谷關,2017-03-16,24.203483,121.018644,2.7454372e-09
C2H9G0,百勝,2017-03-16,24.051142,120.909361,1.5185071e-09
C0G880,二水,2017-03-16,23.810742,120.6173,4.4417375e-10
C0R940,加祿堂,2017-03-16,22.3363,120.6217,8.471378e-09
C0W220,北竿,2017-03-16,26.220358,119.974881,9.6881564e-08
C0O960,崎頂,2017-03-16,22.959547,120.369317,1.9086266e-10
C0S750,向陽,2017-03-16,23.248397,120.986133,9.064416e-09
C0T9F0,水璉,2017-03-16,23.797131,121.542514,5.8997456e-09
C1M600,頭凍,2017-03-16,23.406364,120.603339,2.1692281e-09
467660,臺東,2017-03-16,22.752211,121.154586,1.8226196e-08
C1D380,新埔,2017-03-16,24.84745,121.03834,1.0019433e-08
C2G980,田頭村,2017-03-16,23.8263,120.444175,3.3160016e-10
C0V750,路竹,2017-03-16,22.854997,120.259439,2.393753e-10
C0N050,蚵寮,2017-03-16,23.301,120.1104,2.2721729e-10
72M700,南改鹿草分場,2017-03-16,23.416869,120.283061,2.1980019e-10
C1SA50,利嘉林道,2017-03-16,22.82325,121.009389,7.782423e-09
467550,玉山,2017-03-16,23.487614,120.959522,3.370371e-08
C0A940,金山,2017-03-16,25.223628,121.643967,1.4865704e-05
C1V340,大津,2017-03-16,22.888322,120.645986,7.309539e-10
C0W180,七美,2017-03-16,23.219333,119.444892,0.917983
C1F9C1,白冷,2017-03-16,24.182844,120.929889,2.5707212e-09
K2E710,苗改生物防治研究中心,2017-03-16,24.422861,120.871833,2.0598765e-09
C0N040,蘆竹溝,2017-03-16,23.2344,120.0961,2.6961167e-10
C2W230,畜試所澎湖,2017-03-16,23.628342,119.513206,0.8730662
C0R880,後壁湖,2017-03-16,21.9457,120.7457,6.1332124e-05
C1I280,埔中,2017-03-16,23.820778,120.642594,8.1094775e-10
467790,墾丁雷達站,2017-03-16,21.948235,120.808028,4.4029307e-06
C0W190,望安,2017-03-16,23.380564,119.494075,0.848101
466881,新北,2017-03-16,24.9593,121.52,1.4934984e-07
C0Z170,卓溪,2017-03-16,23.3443,121.3029,4.608559e-09
C0F850,東勢,2017-03-16,24.246428,120.833047,1.9914994e-09
466900,淡水,2017-03-16,25.164889,121.448906,8.973794e-07
C0I370,魚池,2017-03-16,23.895703,120.94135,1.4808997e-09
C0C630,大溪,2017-03-16,24.882853,121.265547,8.144251e-09
C0A520,山佳,2017-03-16,24.974944,121.402008,2.0398832e-07
C0I110,竹山,2017-03-16,23.761225,120.688156,4.7861304e-10
82H840,茶改南部分場,2017-03-16,23.762528,120.7405,7.7272033e-10
C0G660,溪湖,2017-03-16,23.94835,120.479122,4.8006765e-10
C1T800,洛韶,2017-03-16,24.204558,121.453956,6.302497e-08
C1T810,慈恩,2017-03-16,24.192044,121.388386,1.042051e-08
C1E451,象鼻,2017-03-16,24.368617,120.940228,3.833111e-09
C0AC60,三峽,2017-03-16,24.939025,121.369728,7.353399e-08
C0I490,萬大林道,2017-03-16,23.928228,121.091411,6.080943e-09
C1I290,豐丘,2017-03-16,23.668178,120.887417,3.7008356e-09
C1I320,奧萬大,2017-03-16,23.952956,121.178556,4.0711217e-09
C2M910,嘉義大學,2017-03-16,23.471325,120.485903,3.068029e-10
C0U770,南澳,2017-03-16,24.44935,121.81022,6.6115615e-09
C0A980,社子,2017-03-16,25.109508,121.469681,1.0771726e-06
C0V800,六龜,2017-03-16,22.997889,120.633583,3.7067538e-10
C1G9D0,國一S218K,2017-03-16,23.890641,120.493253,3.847385e-10
C0E570,白沙屯,2017-03-16,24.549447,120.696803,1.4637424e-08
C2F9A0,中竹林,2017-03-16,24.103556,120.751061,1.684557e-09
C0FA40,臺中電廠,2017-03-16,24.2146,120.4907,1.5667365e-09
C2G9A0,畜試所彰化,2017-03-16,23.86045,120.557964,4.230364e-10
C0H9C0,合歡山,2017-03-16,24.143442,121.272547,3.5290206e-08
C0X060,下營,2017-03-16,23.22695,120.256261,1.6942553e-10
G2M350,農試溪口農場,2017-03-16,23.58565,120.408111,2.2278086e-10
C0U860,頭城,2017-03-16,24.85323,121.8308,2.7749996e-08
C0R580,南州,2017-03-16,22.48591,120.50274,4.214434e-10
C0D430,峨眉,2017-03-16,24.6905,121.017189,2.4800595e-09
C0G780,秀水,2017-03-16,24.03405,120.503869,6.0271765e-10
72N100,臺南農改場,2017-03-16,23.0605,120.342194,1.8672888e-10
C0S900,蘭嶼高中,2017-03-16,22.04909,121.51214,0.0011051106
467540,大武,2017-03-16,22.355675,120.903789,7.432799e-09
C1F9W0,德基,2017-03-16,24.254783,121.190261,2.1121757e-08
C1Z120,壽豐,2017-03-16,23.870853,121.508081,3.87086e-09
C0W160,烏坵,2017-03-16,24.9944,119.44956,1.0190861e-06
C1I240,外大坪,2017-03-16,23.958697,120.917931,1.8808874e-09
C1I550,國六W023K,2017-03-16,23.979067,120.867742,1.0861413e-09
C0R870,興海,2017-03-16,21.9752,120.8439,2.1444437e-05
C0R140,瑪家,2017-03-16,22.682903,120.686639,7.840555e-10
C0A530,坪林,2017-03-16,24.938183,121.70975,5.9648876e-08
C0X260,後壁,2017-03-16,23.366358,120.362326,2.0232072e-10
C0Z230,和平,2017-03-16,24.30717,121.77007,4.277654e-09
C0G770,福興,2017-03-16,24.041289,120.437669,1.217932e-09
C0H9A0,神木村,2017-03-16,23.532742,120.843667,7.3838233e-09
C0I460,南投,2017-03-16,23.911469,120.687331,6.7793937e-10
C0I480,梅峰,2017-03-16,24.085272,121.173572,1.8215665e-08
C1V570,吉東,2017-03-16,22.85422,120.5454,2.1645648e-10
C2D740,屯原,2017-03-16,24.067969,121.209389,1.6671281e-08
C2A560,福山,2017-03-16,24.776203,121.502811,4.357277e-08
C0AH30,五分山,2017-03-16,25.07125,121.780794,4.3430305e-08
C0FA10,松柏,2017-03-16,24.429115,120.617482,3.650304e-09
72S200,東改班鳩分場,2017-03-16,22.829528,121.077694,1.6849813e-09
72HA00,中改埔里分場,2017-03-16,23.903208,120.963364,1.9440496e-09
C2H9W0,大坪頂農水,2017-03-16,24.043122,120.932781,2.224239e-09
C0C650,平鎮,2017-03-16,24.897503,121.214636,3.5012103e-08
C0S930,延平,2017-03-16,22.902581,121.084058,1.6006634e-09
C0UA60,樟樹山,2017-03-16,24.41393,121.78325,1.9336111e-08
C1S670,摩天,2017-03-16,23.199503,121.027,2.1120467e-08
C0V630,茄萣,2017-03-16,22.906642,120.182608,2.3759175e-10
466940,基隆,2017-03-16,25.133314,121.740475,2.886647e-06
C0X050,東河,2017-03-16,23.296598,120.385608,3.1656602e-10
C0R770,保力,2017-03-16,22.071122,120.764111,1.6971939e-08
G2L020,農試嘉義分所,2017-03-16,23.485028,120.473806,3.5677433e-10
C0X240,關子嶺,2017-03-16,23.331169,120.508025,3.7509343e-10
C0I380,集集,2017-03-16,23.828206,120.801467,6.253707e-10
466990,花蓮,2017-03-16,23.975128,121.613275,4.966208e-09
C1V220,小關山,2017-03-16,23.154217,120.813603,5.076246e-09
C1F9G1,慶福山,2017-03-16,24.180853,120.848378,1.9974453e-09
C0Z250,瑞穗林道,2017-03-16,23.49284,121.30688,2.6057126e-08
C0D590,新豐,2017-03-16,24.87068,120.97721,3.763551e-08
C0A870,五指山,2017-03-16,25.132153,121.608692,3.4155807e-08
C0UA50,西帽山,2017-03-16,24.555361,121.802628,2.191248e-08
C0X160,仁德,2017-03-16,22.968258,120.257689,1.764464e-10
C1H971,六分寮,2017-03-16,23.92507,120.6378,1.0602769e-09
C0W120,西嶼,2017-03-16,23.5626,119.468436,0.93118584
C0G650,員林,2017-03-16,23.946503,120.585597,6.127511e-10
C0AD50,鶯歌,2017-03-16,24.951533,121.346294,6.491952e-08
C2H9Q0,北東眼山,2017-03-16,24.120939,121.189303,2.3646585e-08
C2H9T0,名間竹圍,2017-03-16,23.859914,120.637572,7.3633005e-10
C0S990,山豬窟,2017-03-16,22.318619,120.857372,5.6332286e-09
72Q010,高雄農改,2017-03-16,22.709333,120.525889,3.072163e-10
C0X190,安平,2017-03-16,22.993161,120.152181,2.3892371e-10
C0K400,斗六,2017-03-16,23.720583,120.541127,2.8503566e-10
12J990,口湖工作站,2017-03-16,23.589978,120.180394,8.240279e-10
C0O830,北寮,2017-03-16,23.079561,120.495008,1.7998483e-10
C1D410,白蘭,2017-03-16,24.579364,121.079947,1.0448453e-08
C0S970,加津林,2017-03-16,22.416211,120.926942,7.1123125e-09
C0D700,關西,2017-03-16,24.7977,121.1732,2.3671303e-09
C0M810,里佳,2017-03-16,23.389125,120.716647,3.9090855e-09
C0U750,龜山島,2017-03-16,24.841667,121.953133,2.3503494e-06
C0R810,內獅,2017-03-16,22.305064,120.642986,9.360253e-09
C1M390,龍美,2017-03-16,23.406728,120.654417,2.8123022e-09
C2FB60,頭櫃山,2017-03-16,24.129842,120.858925,5.108912e-09
C1H840,國三N238K,2017-03-16,23.841008,120.707711,6.858522e-10
CAQ030,崎峰國小,2017-03-16,22.42565,120.49521,4.214434e-10
C2E520,大湖,2017-03-16,24.414939,120.870872,2.151875e-09
467530,阿里山,2017-03-16,23.508208,120.813242,2.1101945e-08
C1E691,南湖,2017-03-16,24.40135,120.837533,4.2330544e-09
C0FA30,梧棲,2017-03-16,24.256003,120.523381,1.9363855e-09
C1V231,高中,2017-03-16,23.134911,120.716711,9.980937e-10
C0F9V0,新社,2017-03-16,24.200172,120.815806,2.241201e-09
C0H890,埔里,2017-03-16,23.972169,120.952425,1.2190429e-09
C0R690,墾丁,2017-03-16,21.966756,120.810269,5.1704947e-09
C0F0D0,審馬陣,2017-03-16,24.381675,121.4203,1.9728052e-08
C0R820,白鷺,2017-03-16,22.454275,120.666219,1.2506538e-09
U2H480,臺大溪頭,2017-03-16,23.670306,120.798194,3.4733325e-09
C1V190,南天池,2017-03-16,23.27403,120.91176,1.0019146e-08
K2E360,苗栗農改場,2017-03-16,24.495722,120.829111,2.087854e-09
CAJ050,海口故事園區,2017-03-16,23.57543,120.14121,8.240279e-10
C2H9D0,三隻寮,2017-03-16,24.093078,120.861578,2.2753357e-09
C0O990,媽廟,2017-03-16,22.99175,120.293525,1.8104322e-10
C0D480,打鐵坑,2017-03-16,24.849664,121.150789,8.198363e-09
C0Z220,和平林道,2017-03-16,24.343922,121.656317,4.257573e-09
C0TA10,花蓮漁港,2017-03-16,23.995322,121.638331,5.0655586e-09
72C440,桃園農改場,2017-03-16,24.950944,121.030583,3.222598e-07
C1E711,馬拉邦山,2017-03-16,24.367306,120.901656,3.9472963e-09
C0SB20,富岡,2017-03-16,22.792467,121.192669,3.0893579e-09
C0D560,竹東,2017-03-16,24.767147,121.057881,2.330507e-09
C0F9U0,南屯,2017-03-16,24.137006,120.637969,6.697715e-10
C0M720,番路,2017-03-16,23.464657,120.554156,3.4815023e-10
C0F0A0,雪山圈谷,2017-03-16,24.388594,121.236339,2.7567623e-08
C1A9N0,四十份,2017-03-16,24.934158,121.593283,7.38094e-08
C0U760,東澳,2017-03-16,24.52196,121.83318,5.497972e-09
C0X230,鹽水,2017-03-16,23.272621,120.247641,2.2756555e-10
C2H9H0,苗改南投蜂場,2017-03-16,23.852589,120.693481,5.859997e-10
C0R950,萬隆國小,2017-03-16,22.507667,120.587817,2.016169e-10
C0V370,古亭坑,2017-03-16,22.893178,120.401947,1.508659e-10
C1I340,新興橋,2017-03-16,23.563333,120.868728,1.9794266e-09
C0SA80,土坂,2017-03-16,22.453108,120.887572,3.4408907e-09
C0R160,鹽埔,2017-03-16,22.739558,120.530778,3.072163e-10
C0AC40,大屯山,2017-03-16,25.175675,121.522408,6.699114e-08
466850,五分山雷達站,2017-03-16,25.071182,121.781205,4.311773e-08
C2H9L0,馬烈霸,2017-03-16,24.1512,121.201772,2.3419107e-08
C1AI50,國三N016K,2017-03-16,25.034164,121.619664,8.079734e-08
C1V600,藤枝,2017-03-16,23.071961,120.757042,3.434085e-09
C1E601,南勢,2017-03-16,24.572486,120.734842,1.2255619e-08
C0Z180,新城,2017-03-16,24.03946,121.60454,4.9617297e-09
C0O980,新市,2017-03-16,23.061614,120.298197,1.8188498e-10
C0K420,西螺,2017-03-16,23.800407,120.467394,3.3352465e-10
C0Z050,佳心,2017-03-16,23.34567,121.21316,1.9262195e-08
C0AD30,蘆洲,2017-03-16,25.086594,121.472331,9.8423556e-08
C0V610,梓官,2017-03-16,22.760558,120.267211,2.3647462e-10
K2F750,種苗改良場,2017-03-16,24.225972,120.800917,2.0795872e-09
C0UA80,大溪漁港,2017-03-16,24.941801,121.902955,1.6029884e-07
C1AI60,國一39K邊坡,2017-03-16,25.064361,121.383836,1.0237164e-07
C0W150,金寧,2017-03-16,24.457703,118.328989,1.956027e-08
C0R960,內埔,2017-03-16,22.608483,120.570714,2.4408633e-10
V2C250,八德合作社,2017-03-16,24.93775,121.266389,4.0784215e-08
C2H9S0,龍南,2017-03-16,23.953536,120.833183,3.2127487e-09
C0AH40,平等,2017-03-16,25.129142,121.577086,4.4330328e-08
C0R540,佳冬,2017-03-16,22.419456,120.552375,8.601748e-09
466950,彭佳嶼,2017-03-16,25.627975,122.079744,0.9996159
C0A890,雙溪,2017-03-16,25.036003,121.864242,1.1099315e-06
C0C480,桃園,2017-03-16,24.992425,121.323172,2.1224277e-07
C0AH50,林口,2017-03-16,25.072181,121.38084,8.472433e-08
A2K360,水試臺西試驗場,2017-03-16,23.717231,120.190522,8.0353574e-10
B2N890,畜試所,2017-03-16,23.058972,120.336406,1.8672888e-10
C2M960,外寮,2017-03-16,23.562643,120.665688,2.5008078e-09
C0F9S0,烏日,2017-03-16,24.107058,120.624103,6.763159e-10
C0C490,八德,2017-03-16,24.928708,121.283289,4.025459e-08
C0R190,赤山,2017-03-16,22.592333,120.614306,2.444367e-10
C0T820,天祥,2017-03-16,24.179597,121.495639,1.0932692e-07
C1F9E1,龍安,2017-03-16,24.1605,120.831961,2.0576028e-09
C0V820,小林,2017-03-16,23.148408,120.63325,2.3428107e-10
C2G870,芳苑,2017-03-16,23.922303,120.320025,3.0507927e-09
C0E850,大河,2017-03-16,24.618069,120.948578,3.1084613e-09
C1U670,寒溪,2017-03-16,24.634,121.71691,5.4094516e-09
C0N020,城西,2017-03-16,23.0568,120.0956,2.3892327e-10
C1Z110,三棧,2017-03-16,24.11557,121.60501,8.5437534e-08
C0R280,檳榔,2017-03-16,22.076078,120.836777,2.1476885e-09
C2H9J0,中台,2017-03-16,23.9996,120.938739,1.599586e-09
C0F9L0,后里,2017-03-16,24.310436,120.729725,2.049018e-09
C0D540,橫山,2017-03-16,24.71116,121.11693,2.3048543e-09
C1D420,太閣南,2017-03-16,24.632808,121.160575,1.4925154e-08
C1E770,公館,2017-03-16,24.526914,120.830806,2.0061812e-09
CAN130,水試所海水繁養殖中心,2017-03-16,23.120802,120.07968,5.1475846e-10
C1I430,翠華,2017-03-16,24.191961,121.224339,1.8046869e-08
C1M400,菜瓜坪,2017-03-16,23.251928,120.576103,3.250029e-10
C0G730,二林,2017-03-16,23.903325,120.376081,8.953512e-10
72M360,南改義竹分場,2017-03-16,23.360694,120.279361,2.1739031e-10
V2K620,麥寮合作社,2017-03-16,23.753836,120.294783,6.0052596e-10
C0Z070,舞鶴,2017-03-16,23.46811,121.37407,4.273258e-09
C0B040,大武崙,2017-03-16,25.166676,121.706993,1.9742995e-06
C1Z030,紅葉,2017-03-16,23.493119,121.338806,4.365985e-09
C1I050,丹大,2017-03-16,23.753747,121.141147,1.1169898e-08
C0I080,信義,2017-03-16,23.689694,120.851036,1.4936565e-09
C2M920,朴子農改,2017-03-16,23.469889,120.259383,2.1980019e-10
C2A880,福隆,2017-03-16,25.017842,121.942083,5.213745e-07
C0Z160,鳳林,2017-03-16,23.746114,121.453411,5.9721708e-09
C0V210,復興,2017-03-16,23.222403,120.806089,9.817374e-10
C0H990,昆陽,2017-03-16,24.121322,121.273642,2.4480086e-08
C0R741,獅子,2017-03-16,22.202308,120.705236,2.6275813e-09
C0S710,鹿野,2017-03-16,22.917711,121.122994,1.7222765e-09
C0I530,小奇萊,2017-03-16,24.131764,121.295717,2.5446184e-08
C2K630,荷苞,2017-03-16,23.657717,120.595144,4.77283e-10
C0Z080,富源,2017-03-16,23.587642,121.378225,1.14459136e-08
467441,高雄,2017-03-16,22.7304,120.3125,2.3343402e-10
C0SB10,美和,2017-03-16,22.682078,121.060236,4.4614894e-09
C2K620,馬光農場,2017-03-16,23.721453,120.378864,3.4613076e-10
C1I140,卡奈托灣,2017-03-16,23.754364,121.087872,4.933636e-09
C0I520,玉山風口,2017-03-16,23.470489,120.955994,3.5620218e-08
C1G691,下水埔,2017-03-16,23.816114,120.5676,3.0652622e-10
C0X110,臺南市南區,2017-03-16,22.961189,120.188378,1.764464e-10
C0V680,仁武,2017-03-16,22.701083,120.347722,6.234426e-10
C2G840,北斗,2017-03-16,23.877586,120.514222,3.8619938e-10
C0R900,竹坑,2017-03-16,22.1385,120.7022,1.4884736e-06
C0K250,崙背,2017-03-16,23.75555,120.318925,5.9992605e-10
C0G860,社頭,2017-03-16,23.897647,120.5862,4.2074386e-10
C0X150,安定,2017-03-16,23.102614,120.227839,1.9433552e-10
C0R590,里港,2017-03-16,22.77919,120.49459,1.8768655e-10
C0E610,馬都安,2017-03-16,24.451272,120.930192,4.4602304e-09
C0E550,明德,2017-03-16,24.583486,120.885411,2.798641e-09
C0R150,三地門,2017-03-16,22.709889,120.639944,5.650724e-10
C0G910,花壇,2017-03-16,24.032076,120.549461,6.171802e-10
C1D400,鳥嘴山,2017-03-16,24.71909,121.28387,1.1285109e-08
C0K500,元長,2017-03-16,23.64981,120.315024,4.889902e-10
C0F0B0,石岡,2017-03-16,24.276061,120.777644,2.1847242e-09
C2V250,甲仙,2017-03-16,23.080106,120.591758,1.8655871e-10
C0SA20,金崙山,2017-03-16,22.567419,120.959667,7.01864e-09
C0V350,溪埔,2017-03-16,22.738578,120.446797,1.6659661e-10
C0M660,溪口,2017-03-16,23.604131,120.403569,2.2278086e-10
C1S880,壽卡,2017-03-16,22.238911,120.858903,3.2550804e-09
72D680,桃改新埔分場,2017-03-16,24.834444,121.066111,1.0304098e-08
