站號,站名,日期,lat,lon,BLBTSLS
C0R710,龍磐,2017-11-18,21.931672,120.838942,0.491461
C1F9D1,白毛台,2017-11-18,24.158325,120.886933,4.612789e-09
C0G940,竹塘,2017-11-18,23.848253,120.386764,0.001984451
467590,恆春,2017-11-18,22.003897,120.746339,0.061455633
C1O850,環湖,2017-11-18,23.148617,120.418633,1.1790963e-07
C0U710,太平山,2017-11-18,24.505486,121.525656,2.7260329e-08
C0E820,獅潭,2017-11-18,24.539133,120.920042,4.4959774e-07
C0V880,興達,2017-11-18,22.8778,120.2127,0.5928275
C0S890,關山,2017-11-18,23.0395,121.175017,2.2879367e-05
C0SB30,新蘭,2017-11-18,22.869214,121.223228,0.9774164
C2R970,屏科大,2017-11-18,22.648275,120.619247,0.00047843068
K2F750,種苗繁殖,2017-11-18,24.225972,120.800917,2.146816e-09
C1Z130,銅門,2017-11-18,23.965694,121.492842,0.00013137923
C0AD40,土城,2017-11-18,24.973208,121.445169,0.99878216
CAN140,六官養殖協會,2017-11-18,23.22881,120.29962,1.3948551e-07
C0X180,山上,2017-11-18,23.0757,120.363253,2.0131393e-08
C0F9Z0,雪山東峰,2017-11-18,24.388792,121.268675,2.1003647e-08
C1M480,獨立山,2017-11-18,23.537022,120.607797,3.9069534e-09
C0X220,學甲,2017-11-18,23.230367,120.182187,0.0012009209
467650,日月潭,2017-11-18,23.881325,120.90805,7.487224e-09
C0K600,箔子寮,2017-11-18,23.6197,120.14,0.98243845
C0G830,埤頭,2017-11-18,23.866003,120.452806,8.901484e-08
C0S950,七塊厝,2017-11-18,22.954453,121.229922,1.4117187e-06
467110,金門,2017-11-18,24.407306,118.289281,0.16718265
C0AH80,深坑,2017-11-18,25.002703,121.628328,0.99864644
467990,馬祖,2017-11-18,26.169269,119.923419,0.9507108
C0A970,三貂角,2017-11-18,25.007606,122.002058,0.99873185
C2D730,寶山農場,2017-11-18,24.732444,120.976153,0.980622
C0K430,褒忠,2017-11-18,23.690938,120.303634,0.00029406842
467480,嘉義,2017-11-18,23.495925,120.432906,4.8358512e-08
C2E540,後龍,2017-11-18,24.606489,120.783933,0.98837745
C0V400,阿公店,2017-11-18,22.804194,120.355528,9.4028854e-07
C0R440,大漢山,2017-11-18,22.405264,120.753181,1.057299e-07
C0K280,四湖,2017-11-18,23.630414,120.227125,0.98868465
C1F9B1,桐林,2017-11-18,24.066172,120.735194,4.2262876e-08
C2H9U0,鳳鵬,2017-11-18,23.763919,120.788061,3.8929246e-09
C0K390,土庫,2017-11-18,23.679029,120.395574,5.784848e-07
C1I450,望鄉山,2017-11-18,23.594153,120.944286,1.5655754e-08
C0E910,海埔,2017-11-18,24.648767,120.772435,0.9878043
B2E890,畜試北區分所,2017-11-18,24.527806,120.770972,4.0898176e-06
C0R750,四林格山,2017-11-18,22.076989,120.802439,0.99791634
C0F0C0,中坑,2017-11-18,24.248517,120.903319,6.874674e-09
C1I121,大鞍,2017-11-18,23.678381,120.760017,9.843085e-09
72U480,花改蘭陽分場,2017-11-18,24.686306,121.716583,0.9951939
C0A770,科教館,2017-11-18,25.096356,121.516507,0.99338347
C0AJ60,六塊厝,2017-11-18,25.24,121.4481,0.9997711
C0R620,墾雷,2017-11-18,21.900836,120.855269,0.8576266
467420,永康,2017-11-18,23.038386,120.2367,9.417801e-07
467300,東吉島,2017-11-18,23.25695,119.667467,0.339662
C0I410,名間,2017-11-18,23.837053,120.701447,8.360763e-09
A2C560,農工中心,2017-11-18,24.985917,121.239833,0.98642504
C0V740,旗山,2017-11-18,22.888614,120.483597,0.32136038
C0Z061,玉里,2017-11-18,23.3215,121.339656,3.0155647e-06
C0S840,南田,2017-11-18,22.279725,120.889208,0.26414666
C1I470,杉林溪,2017-11-18,23.639517,120.786444,8.850995e-09
C1X040,東原,2017-11-18,23.291597,120.463822,8.820511e-08
C0R660,枋寮,2017-11-18,22.367722,120.590647,0.97351736
C1R120,上德文,2017-11-18,22.763272,120.704442,5.1953993e-08
C0K450,大埤,2017-11-18,23.646074,120.431537,5.0201713e-08
C0UA00,土場,2017-11-18,24.576533,121.495333,1.0994199e-05
467080,宜蘭,2017-11-18,24.763975,121.756528,0.99972475
C0N030,四草,2017-11-18,23.0235,120.1116,0.120436676
C0V650,彌陀,2017-11-18,22.783806,120.246361,0.0001512812
C0D660,新竹市東區,2017-11-18,24.798681,120.986942,0.39698282
82S580,茶改東部分場,2017-11-18,22.907694,121.130139,0.85572165
C0SB40,興隆,2017-11-18,22.913661,121.257469,0.9755354
C0C710,大溪永福,2017-11-18,24.892936,121.324975,0.96407735
C0FA20,溫寮,2017-11-18,24.372177,120.583125,0.9959263
C0V640,湖內,2017-11-18,22.887139,120.2445,0.35267213
C0R910,下寮,2017-11-18,22.3929,120.5548,0.97351736
C0Z020,明里,2017-11-18,23.208717,121.262342,1.3976575e-05
C0M770,嘉義梅山,2017-11-18,23.585398,120.555587,7.779989e-09
G2F820,農業試驗所,2017-11-18,24.031261,120.688133,2.1726784e-08
C0C660,楊梅,2017-11-18,24.912375,121.143047,0.96914136
C1E511,新開,2017-11-18,24.347703,120.827019,1.30105775e-08
G2F820,農試所(霧峰),2017-11-18,24.031261,120.688133,2.1726784e-08
C1I070,和社,2017-11-18,23.591131,120.888861,2.9553778e-06
C2F000,大肚,2017-11-18,24.15295,120.572117,1.7532074e-08
C1S850,豐南,2017-11-18,23.122139,121.262389,1.3696881e-07
C2A920,富貴角,2017-11-18,25.263783,121.565258,0.9998993
CAH030,茶改場竹圍站,2017-11-18,23.860083,120.637528,5.8935594e-09
C0T960,光復,2017-11-18,23.660694,121.424964,0.04002521
C0F9M0,豐原,2017-11-18,24.254322,120.720692,2.943314e-08
C0R720,旭海,2017-11-18,22.205403,120.887614,0.8495331
C0V710,苓雅,2017-11-18,22.622742,120.330669,4.169102e-05
C0C740,觀音工業區,2017-11-18,25.064764,121.114856,0.5116899
CAC040,拉拉山,2017-11-18,24.699317,121.427133,1.00414375e-07
C0V790,萬山,2017-11-18,22.905944,120.688056,6.258354e-07
U2HA30,臺大和社,2017-11-18,23.590856,120.888864,2.955372e-06
C0AJ90,澳底,2017-11-18,25.0552,121.9253,0.9998814
C0Z100,東華,2017-11-18,23.89525,121.549833,1.6001693e-05
C0G970,三豐,2017-11-18,23.882,120.2895,0.9900743
V2K610,大庄合作社,2017-11-18,23.8068,120.367939,0.0003159561
C0V900,汕尾,2017-11-18,22.4782,120.4151,0.0024439052
C1R630,龍泉,2017-11-18,22.66701,120.59091,0.059452638
C1AC50,關渡,2017-11-18,25.133486,121.469331,0.97338957
C0F9I0,神岡,2017-11-18,24.272481,120.658314,1.9221444e-07
C0K460,斗南,2017-11-18,23.678734,120.478359,4.7242793e-08
467410,臺南,2017-11-18,22.993239,120.204772,0.028513117
C2O810,曾文,2017-11-18,23.219681,120.497328,1.6211077e-07
467280,後龍,2017-11-18,24.648563,120.831834,0.9898757
C1F9J1,清水林,2017-11-18,24.071242,120.820419,2.1903235e-09
C2A650,火燒寮,2017-11-18,25.002719,121.742892,0.94724447
466930,竹子湖,2017-11-18,25.162078,121.544547,0.000989191
C1I220,樟湖,2017-11-18,23.905333,120.846983,3.06212e-09
C0I390,仁愛,2017-11-18,24.022122,121.132206,4.358455e-09
C0Z300,東里,2017-11-18,23.26853,121.30547,0.00010927033
C1V590,新發,2017-11-18,23.057019,120.646064,3.5010036e-08
C0K510,水林,2017-11-18,23.572924,120.24597,0.0012181958
72S590,東改賓朗果園,2017-11-18,22.813889,121.071278,0.021678615
82A750,茶改北部分場,2017-11-18,24.955778,121.631222,0.936049
C1A750,石碇服務區,2017-11-18,25.00872,121.646242,0.997978
C0X300,鹿寮,2017-11-18,23.386047,120.477331,4.675148e-08
G2AI50,關渡,2017-11-18,25.11575,121.492,0.98069817
C0K590,雲林東勢,2017-11-18,23.674192,120.255721,0.00027600682
C0A570,桶後,2017-11-18,24.848222,121.597992,0.7061103
C1S800,華源,2017-11-18,22.657883,121.02325,0.9833319
C0G720,溪州,2017-11-18,23.851589,120.499093,7.811634e-08
C1V160,達卡努瓦,2017-11-18,23.279811,120.705319,9.204262e-09
C2M410,馬頭山,2017-11-18,23.324361,120.582017,3.3313846e-08
C0V850,蚵仔寮,2017-11-18,22.7256,120.2527,0.0001160918
C0S740,池上,2017-11-18,23.119628,121.209469,0.99277914
C1V390,尖山,2017-11-18,22.813153,120.367789,2.9044116e-07
C0AH70,松山,2017-11-18,25.04871,121.55042,0.99311954
C0N010,鯤鯓國小,2017-11-18,23.1879,120.0889,0.023943055
C0R550,新埤,2017-11-18,22.467947,120.582894,0.0006948582
C0SA60,知本（水試所）,2017-11-18,22.702394,121.082761,0.9332513
C0T9I0,豐濱,2017-11-18,23.583897,121.514806,2.6885817e-05
C0UB00,淡江大學蘭陽校園,2017-11-18,24.823239,121.730383,0.035492066
C0W240,九宮,2017-11-18,24.423753,118.240186,0.16283414
C0T9N0,富里,2017-11-18,23.171639,121.249378,0.9334007
U2HA50,臺大竹山,2017-11-18,23.756972,120.681556,7.876203e-09
C0V840,鳳鼻頭,2017-11-18,22.5083,120.3591,2.4518775e-05
C0X140,西港,2017-11-18,23.125608,120.203108,1.5568656e-05
72D080,桃改五峰分場,2017-11-18,24.612194,121.157167,1.2145224e-08
C2H9P0,伊拿谷,2017-11-18,23.963211,121.088264,4.510517e-09
C2H9F0,柑林,2017-11-18,24.018658,120.847072,7.608497e-09
C0TA20,加灣,2017-11-18,24.082025,121.608944,0.99981475
C0V530,阿蓮,2017-11-18,22.883208,120.327508,1.2421611e-06
C1O880,關山,2017-11-18,23.173397,120.594092,1.437318e-07
C0E791,卓蘭,2017-11-18,24.3126,120.8244,1.0383765e-08
C1I030,武界,2017-11-18,23.913225,121.052483,4.0283603e-09
C0R520,崁頂,2017-11-18,22.514781,120.506914,0.0010581893
C0R341,牡丹,2017-11-18,22.130036,120.792639,0.93245494
C0R930,萬丹,2017-11-18,22.5885,120.4851,9.3481576e-05
C0S760,紅石,2017-11-18,23.069131,121.126219,1.3524191e-08
C1M610,石磐龍,2017-11-18,23.496606,120.663506,1.3202993e-08
C0UA10,鴛鴦湖,2017-11-18,24.590269,121.412228,4.0034912e-08
V2C260,八德蔬果,2017-11-18,24.978508,121.281819,0.9565054
C0R800,丹路,2017-11-18,22.204481,120.750989,0.67440623
C0G920,永靖,2017-11-18,23.924703,120.547533,1.112801e-07
C2M950,太和,2017-11-18,23.538372,120.702961,9.314909e-09
C1A630,下盆,2017-11-18,24.771003,121.538622,4.866729e-06
B2N890,畜產試驗所,2017-11-18,23.058972,120.336406,1.9134328e-08
C0UA30,白嶺,2017-11-18,24.527819,121.519031,3.397978e-08
C1V580,溪南(特生中心),2017-11-18,23.084972,120.788475,9.850879e-09
C1T970,大農,2017-11-18,23.615233,121.413331,5.8191035e-06
E2S960,林試太麻里2,2017-11-18,22.598014,120.989761,0.8067661
C0R650,竹田,2017-11-18,22.58486,120.54344,0.0008357116
C1H900,清流,2017-11-18,24.080775,120.962997,4.1973816e-09
C1C510,水尾,2017-11-18,24.940081,121.087161,0.31298518
C0F9X0,大雅(中科園區),2017-11-18,24.21528,120.62445,8.057005e-08
C0SB60,白守蓮,2017-11-18,23.126769,121.401914,0.89067173
C0O970,虎頭埤,2017-11-18,23.021375,120.347878,1.3110295e-08
C0C730,中大臨海站,2017-11-18,24.966126,121.008581,0.281044
C0X250,新營,2017-11-18,23.310689,120.316681,1.12983045e-07
C0V700,三民,2017-11-18,22.645017,120.311233,0.026397645
C0U870,大礁溪,2017-11-18,24.791042,121.675047,1.26691375e-05
C0E870,高鐵苗栗,2017-11-18,24.60725,120.826094,0.9894035
A2K570,古坑花卉中心,2017-11-18,23.63353,120.55239,2.3952353e-08
C0M860,新美,2017-11-18,23.338017,120.683169,5.017022e-08
C1E701,八卦,2017-11-18,24.491756,120.927619,2.7495943e-08
C0I420,國姓,2017-11-18,24.037803,120.855072,5.6338085e-09
C2D720,關西工作站,2017-11-18,24.757275,121.184792,0.9365603
C0S960,香蘭,2017-11-18,22.587569,120.993375,0.8067661
C0R260,春日,2017-11-18,22.370361,120.628306,0.95234746
72G600,臺中農改場,2017-11-18,24.003028,120.534389,1.29917e-07
C0Z210,瑞穗,2017-11-18,23.5239,121.39021,0.00013321114
C0M820,達邦,2017-11-18,23.453994,120.749517,1.4247658e-08
C0V860,南寮,2017-11-18,22.7616,120.2339,0.0001160918
C0G740,大城,2017-11-18,23.852487,120.320935,0.98918015
C0R920,塭仔,2017-11-18,22.4169,120.5197,0.97026664
C0R470,高樹,2017-11-18,22.826389,120.600806,0.00010091733
C0R680,佳樂水,2017-11-18,21.993578,120.861633,0.10240295
C1O870,大棟山,2017-11-18,23.31157,120.52226,7.751934e-09
C0D360,梅花,2017-11-18,24.678347,121.208558,1.9174333e-06
C0Z190,富世,2017-11-18,24.14743,121.6297,0.42719963
C0AI10,屈尺,2017-11-18,24.92184,121.54475,0.99811584
B2U990,畜試東區分所,2017-11-18,24.669039,121.832561,0.00012662953
C0SB80,長濱漁港,2017-11-18,23.313644,121.459994,0.00042506613
C0R240,來義,2017-11-18,22.527306,120.625111,7.530984e-06
C0V910,大樹,2017-11-18,22.684645,120.432803,0.00069495756
C1R610,西大武山,2017-11-18,22.617719,120.7322,3.6065817e-08
C0G900,線西,2017-11-18,24.143358,120.443536,0.55227333
C0M700,竹崎,2017-11-18,23.526178,120.555508,1.30163365e-08
C2E880,三義,2017-11-18,24.405478,120.749819,1.9744795e-09
C0C720,竹圍,2017-11-18,25.112692,121.239824,0.98069817
C0F9P0,清水,2017-11-18,24.312297,120.562242,0.998031
C0Z150,吉安光華,2017-11-18,23.930925,121.595153,0.4573157
C1D640,外坪(五指山),2017-11-18,24.644447,121.090961,8.581807e-08
C0F9O0,潭子,2017-11-18,24.213106,120.703933,8.569981e-08
C2H9R0,卓社,2017-11-18,23.887894,121.000086,6.1572365e-09
72T250,花蓮農改場,2017-11-18,23.975222,121.563889,0.9321362
C0E780,銅鑼,2017-11-18,24.489681,120.790853,3.5351758e-07
C1T950,太安,2017-11-18,23.666719,121.370128,2.6239563e-08
C0E830,苑裡,2017-11-18,24.439714,120.653053,0.99315715
467270,田中,2017-11-18,23.873803,120.581286,3.6734317e-08
C0SA10,檳榔四格山,2017-11-18,22.810031,121.109308,6.833862e-05
C1T830,布洛灣,2017-11-18,24.17184,121.57127,0.0015032329
C0F970,大坑,2017-11-18,24.173142,120.722289,1.1238801e-07
C1U920,思源,2017-11-18,24.393125,121.347214,1.7181074e-08
C0A931,三和,2017-11-18,25.233153,121.595236,0.9970864
C0I010,廬山,2017-11-18,24.033311,121.181808,4.0130304e-09
C2M940,日野賀,2017-11-18,23.434056,120.727169,9.9120765e-09
C0R860,鼻頭,2017-11-18,22.1043,120.8979,0.4371499
C0UB20,壯圍,2017-11-18,24.7359,121.8163,0.9987934
C0R790,九棚,2017-11-18,22.14195,120.889281,0.8467902
C0W110,東莒,2017-11-18,25.9652,119.98069,0.8543764
C1U930,粉鳥林,2017-11-18,24.497088,121.842479,0.00012407229
C1I211,蘆竹湳,2017-11-18,23.934019,120.811994,5.3808855e-09
C0S830,長濱,2017-11-18,23.286817,121.411975,4.3678946e-07
C1F9F1,伯公龍,2017-11-18,24.272392,120.849047,3.7902175e-09
C0E810,西湖,2017-11-18,24.562947,120.7485,0.68203324
C1I440,新高口,2017-11-18,23.478744,120.878939,1.2799392e-08
C0O840,王爺宮,2017-11-18,23.222064,120.40085,1.2754161e-08
C0T9G0,鳳林山,2017-11-18,23.735269,121.420131,1.6264046e-08
C0X080,佳里,2017-11-18,23.173039,120.145086,0.023943055
C0FB70,大甲溪埔,2017-11-18,24.370625,120.620067,0.99503946
C0Z310,清水斷崖,2017-11-18,24.218294,121.689142,4.5383904e-06
C0M680,太保,2017-11-18,23.455062,120.331455,4.0642803e-08
C1S820,金峰,2017-11-18,22.590969,120.933236,0.98273706
C0AD10,八里,2017-11-18,25.150211,121.403947,0.98069817
C2K240,草嶺,2017-11-18,23.59555,120.693461,1.9650052e-08
C1SA70,都蘭,2017-11-18,22.87794,121.226881,0.9755354
C0K440,二崙,2017-11-18,23.772797,120.408944,8.89176e-08
C1A760,坪林交控,2017-11-18,24.94284,121.713442,0.97681427
C0F9N0,大里,2017-11-18,24.092464,120.701378,9.613239e-08
C0SA90,達仁林場,2017-11-18,22.264347,120.823972,0.9997948
C1R290,石門山,2017-11-18,22.112611,120.756597,0.9797009
42HA10,萬大發電廠,2017-11-18,23.978875,121.139639,3.1467229e-09
C0R890,山海,2017-11-18,21.9878,120.7091,0.067760654
C0T9A0,月眉山,2017-11-18,23.809928,121.539828,2.493455e-08
C0AC70,信義,2017-11-18,25.037822,121.564597,0.99311954
C0K560,棋山,2017-11-18,23.68645,120.603417,1.8452582e-08
C2FB50,出雲,2017-11-18,24.206469,120.902794,5.521354e-09
C1Z240,中平林道,2017-11-18,23.42115,121.26763,1.8685627e-08
U2H480,溪頭,2017-11-18,23.670306,120.798194,1.1088767e-08
C0M880,好美里,2017-11-18,23.3364,120.138,0.00017738165
C0T9E0,大坑,2017-11-18,23.880628,121.581981,5.638165e-08
C0K530,臺西,2017-11-18,23.701547,120.197559,0.99504864
C1E900,國一N128K,2017-11-18,24.560997,120.844186,0.94850385
C0AJ50,水湳洞,2017-11-18,25.123695,121.862238,0.99986625
C0AI20,白沙灣,2017-11-18,25.283128,121.519058,0.9997989
C0A860,大坪,2017-11-18,25.165914,121.632969,0.66230416
C1U850,觀音海岸,2017-11-18,24.38319,121.77856,1.1924242e-07
C2K610,草嶺石壁,2017-11-18,23.602469,120.707731,1.8261307e-08
C0U950,鶯子嶺,2017-11-18,24.89754,121.79244,4.397249e-06
C0O900,善化,2017-11-18,23.112883,120.297219,2.8219162e-08
C0K550,蔦松,2017-11-18,23.514319,120.229736,0.13252294
E2P980,林試六龜中心,2017-11-18,22.991703,120.645722,2.7118036e-05
C0E590,通霄,2017-11-18,24.471892,120.704622,0.97795147
C1I310,西巒,2017-11-18,23.754486,120.883956,1.3266809e-08
C0A550,泰平,2017-11-18,24.971197,121.823711,0.36617395
C0I360,水里,2017-11-18,23.812553,120.849792,6.250371e-09
C0R830,高士,2017-11-18,22.121825,120.836781,0.9903036
C1I101,溪頭,2017-11-18,23.661789,120.807647,7.763861e-09
C0AJ20,野柳,2017-11-18,25.20703,121.690021,0.9997687
C0B060,暖暖,2017-11-18,25.0957,121.7403,0.98909867
C1H920,長豐,2017-11-18,24.102039,120.879897,7.869565e-09
C0V360,內門,2017-11-18,22.975481,120.466769,5.703081e-07
C0R850,林邊,2017-11-18,22.4634,120.5339,0.001726325
C0E930,龍鳳,2017-11-18,24.700034,120.859125,0.55096525
C0U910,冬山,2017-11-18,24.63373,121.7937,0.00012662953
C1E721,泰安,2017-11-18,24.489017,120.968036,6.59041e-09
82H320,茶改中部分場,2017-11-18,23.875611,120.913583,1.1766056e-08
C0M750,布袋,2017-11-18,23.380878,120.167789,4.910042e-06
C1S860,利嘉,2017-11-18,22.809417,121.050528,2.5006564e-08
72C440,桃園農改,2017-11-18,24.950944,121.030583,0.21923715
E2S980,林試太麻里1,2017-11-18,22.598922,120.980044,0.915558
C0X170,關廟,2017-11-18,22.963017,120.327797,7.705576e-08
C0V720,林園,2017-11-18,22.507747,120.394511,1.0625311e-05
C1I510,線浸林道,2017-11-18,23.761508,120.832956,5.515849e-09
C0D690,外湖,2017-11-18,24.917735,120.968711,0.1740566
C0C750,新興坑尾,2017-11-18,25.0061,121.0971,0.50022644
B2Q810,畜試南區分所,2017-11-18,21.945583,120.802167,0.10503716
C0S790,金崙,2017-11-18,22.538122,120.966875,0.96351117
C0AH90,福山植物園,2017-11-18,24.760717,121.58135,7.133834e-06
C0I540,奇萊稜線,2017-11-18,24.109231,121.326456,3.2758102e-08
C0M850,表湖,2017-11-18,23.24186,120.64166,5.3419882e-08
C0S770,大溪山,2017-11-18,22.478475,120.943325,0.9983969
C0AG80,中和,2017-11-18,24.991622,121.491792,0.99883676
C0T790,大禹嶺,2017-11-18,24.186117,121.316086,1.7269683e-08
C0T9B0,水源,2017-11-18,23.991861,121.537169,4.176146e-07
C0R840,牡丹池山,2017-11-18,22.168389,120.841225,0.99986744
C1I131,桶頭,2017-11-18,23.641944,120.654117,2.7734794e-09
CAL110,布袋國中,2017-11-18,23.35893,120.18026,4.8890574e-06
467571,新竹,2017-11-18,24.827853,121.014219,0.19128528
C0Z290,赤柯山,2017-11-18,23.36893,121.38293,6.1054184e-09
C0X280,將軍,2017-11-18,23.214999,120.13577,0.0021672505
C0S690,太麻里,2017-11-18,22.60902,120.98533,8.778979e-06
C0U880,北關,2017-11-18,24.9072,121.8734,0.99931455
C1H860,瑞岩,2017-11-18,24.123772,121.18345,5.8454876e-09
C0G810,埔心,2017-11-18,23.947633,120.525456,1.114292e-07
C0U970,大福,2017-11-18,24.80064,121.81389,0.9997522
C2H9N0,仁愛東眼,2017-11-18,24.026875,121.1205,3.871894e-09
C1E670,南礦,2017-11-18,24.538278,121.002836,8.35034e-09
C0M520,東後寮,2017-11-18,23.369908,120.248065,2.966809e-06
C1E461,松安,2017-11-18,24.397972,120.986022,6.0848526e-09
72G600,臺中農改,2017-11-18,24.003028,120.534389,1.29917e-07
C2N160,西拉雅風管處,2017-11-18,23.189481,120.335297,2.2899087e-08
C2M970,碧湖,2017-11-18,23.568632,120.624165,2.7106754e-08
C0A640,石碇,2017-11-18,24.993969,121.662917,0.99381703
E2S960,林試太麻里2,2017-11-18,22.598,120.99775,0.7817424
C0F9Y0,桃山,2017-11-18,24.432739,121.303808,2.7090318e-08
C1I020,萬大,2017-11-18,23.979817,121.132261,4.2879056e-09
C0U940,羅東,2017-11-18,24.68184,121.74934,0.997073
C0M650,朴子,2017-11-18,23.43463,120.23902,2.7645904e-06
C1I500,大尖山,2017-11-18,23.858572,120.994889,7.0485298e-09
C0G820,田尾,2017-11-18,23.901669,120.509389,1.112801e-07
E2K600,四湖植物園,2017-11-18,23.676986,120.163433,0.98868465
C0S730,綠島,2017-11-18,22.6672,121.47533,0.5035476
12Q970,東港工作站,2017-11-18,22.479997,120.466058,0.002448017
C0E430,南庄,2017-11-18,24.601775,121.000214,4.0362266e-07
C1TA00,太魯閣,2017-11-18,24.15773,121.6236,0.052058823
466920,臺北,2017-11-18,25.037658,121.514853,0.99311954
C0R600,舊泰武,2017-11-18,22.588194,120.664944,1.0974263e-08
C1I260,北坑,2017-11-18,23.9246,121.006903,4.6715094e-09
466910,鞍部,2017-11-18,25.182586,121.529731,0.00030886146
C1I230,九份二山,2017-11-18,23.961944,120.845,5.9396585e-09
C2A660,瑞芳,2017-11-18,25.113169,121.801147,0.9998039
C0R270,琉球嶼,2017-11-18,22.332244,120.362236,0.0049193166
C1T990,高寮,2017-11-18,23.394239,121.356808,8.739459e-05
C0G620,芬園,2017-11-18,24.015678,120.6213,1.5177898e-08
C1Z140,荖溪,2017-11-18,23.890575,121.45964,1.6977086e-08
C1I201,中心崙,2017-11-18,23.728722,120.712097,3.0429472e-09
C1I400,凌霄,2017-11-18,24.018778,121.004456,3.8401438e-09
C1M640,十字,2017-11-18,23.492153,120.753683,1.3427599e-08
G2P820,農試鳳山分所,2017-11-18,22.646611,120.356083,0.005387881
C0Z270,蕃薯寮,2017-11-18,23.73835,121.540108,5.5083976e-08
C0F9Q0,外埔,2017-11-18,24.347817,120.705686,2.422805e-07
C0K580,高鐵雲林,2017-11-18,23.737456,120.417944,1.7406914e-07
C2I090,鳳凰,2017-11-18,23.728081,120.787347,4.8495377e-09
C0U990,員山,2017-11-18,24.74435,121.72247,0.9982472
C0V770,大社,2017-11-18,22.730306,120.346639,3.83499e-05
C0X120,麻豆,2017-11-18,23.183289,120.248611,5.8638096e-07
C0C670,龍潭,2017-11-18,24.870056,121.221389,0.86537397
C0D680,香山濕地,2017-11-18,24.783581,120.914988,0.31500006
C0S980,勝林山,2017-11-18,22.430439,120.8938,0.29098237
C0V730,大寮,2017-11-18,22.605614,120.395717,2.8315155e-05
C0R570,麟洛,2017-11-18,22.65078,120.52719,2.10141e-06
C2M930,石卓,2017-11-18,23.478744,120.702264,1.1304864e-08
C0G9B0,和美,2017-11-18,24.105169,120.492131,0.07659605
CAG100,王功漁港,2017-11-18,23.96824,120.32586,0.9786859
C0X290,北門,2017-11-18,23.267772,120.125481,0.0021672505
C2F930,大甲,2017-11-18,24.347667,120.640403,0.9907515
C0D650,湖口,2017-11-18,24.904794,121.043628,0.2881935
C0E420,竹南,2017-11-18,24.708978,120.888897,0.61792517
C0U780,五結,2017-11-18,24.68637,121.79794,0.9987934
C1I250,鯉潭,2017-11-18,23.961922,120.991131,1.0626441e-08
C0R130,阿禮,2017-11-18,22.742908,120.743678,1.7935482e-08
C0X100,臺南市北區,2017-11-18,23.010394,120.194228,0.090494834
C0S920,金峰嘉蘭,2017-11-18,22.594789,120.960825,0.9197658
C0V490,新興,2017-11-18,22.627422,120.298803,4.1777308e-05
C0F9K0,大安,2017-11-18,24.345061,120.588025,0.99570346
72N100,臺南農改,2017-11-18,23.0605,120.342194,1.9134328e-08
467290,古坑,2017-11-18,23.633639,120.551889,2.3952353e-08
C2E970,八甲,2017-11-18,24.535811,120.795983,0.05989058
C0V440,鳳山,2017-11-18,22.646653,120.356122,0.005387881
C1T940,大觀,2017-11-18,23.714206,121.373133,2.2538265e-08
72T250,花蓮農改,2017-11-18,23.975222,121.563889,0.9321362
C0E740,造橋,2017-11-18,24.637056,120.864778,0.9899744
C0R100,尾寮山,2017-11-18,22.833111,120.683889,1.4334311e-08
A2K630,臺大雲林校區,2017-11-18,23.730628,120.423903,1.7406914e-07
C0D580,寶山,2017-11-18,24.735006,121.025192,0.6824474
E2P990,林試扇平站,2017-11-18,22.9677,120.6857,1.0256493e-07
C0AI30,三重,2017-11-18,25.057328,121.500629,0.99338347
C0AH00,汐止,2017-11-18,25.066881,121.658778,0.99311954
C1Z040,立山,2017-11-18,23.443356,121.327375,1.7688127e-08
C0W130,花嶼,2017-11-18,23.40007,119.32276,0.24785304
C0A950,鼻頭角,2017-11-18,25.129036,121.923372,0.9997972
C0K470,林內,2017-11-18,23.748675,120.609642,2.3193554e-08
C2F990,摩天嶺,2017-11-18,24.322458,120.936819,1.17326415e-08
82C160,茶改場,2017-11-18,24.908472,121.185333,0.9693873
C0Z320,清水林道,2017-11-18,23.27125,121.188272,2.4003667e-08
C0R760,南仁湖,2017-11-18,22.084681,120.863353,0.97965443
C0M670,大林,2017-11-18,23.600616,120.45841,5.7025265e-08
C0M800,茶山,2017-11-18,23.299075,120.664767,2.4040008e-07
C0A9C0,天母,2017-11-18,25.117494,121.537169,0.9853349
72K220,南改斗南分場,2017-11-18,23.634556,120.477333,4.7242793e-08
72AI40,桃改樹林分場,2017-11-18,24.944503,121.386972,0.9630502
C0S910,蘭嶼燈塔,2017-11-18,22.081197,121.503117,0.09646075
C0B050,八斗子,2017-11-18,25.144754,121.79167,0.9998714
C0U900,內城,2017-11-18,24.71813,121.68766,0.9855237
C0X320,柳營,2017-11-18,23.253328,120.375253,1.2799995e-07
C0M790,新港,2017-11-18,23.553269,120.345728,3.8722914e-07
C0F9T0,西屯,2017-11-18,24.179494,120.641275,3.9555403e-07
C0SA30,都歷,2017-11-18,23.020333,121.323642,0.823915
C0C620,蘆竹,2017-11-18,25.084275,121.265767,0.9692588
C0R730,大坪頂,2017-11-18,22.024633,120.69355,0.6727125
C0AJ40,石門,2017-11-18,25.273672,121.601198,0.9998932
C0E750,苗栗,2017-11-18,24.564569,120.824575,0.95487744
C0T870,鯉魚潭,2017-11-18,23.935639,121.508944,0.0005030111
C1V170,排雲,2017-11-18,23.463619,120.954147,3.162507e-08
C2H950,中寮,2017-11-18,23.884447,120.766406,5.561327e-09
C0R350,貓鼻頭,2017-11-18,21.921774,120.7358,0.48297146
C0V660,岡山,2017-11-18,22.797078,120.294958,0.0001512812
C1H941,雙冬,2017-11-18,23.967378,120.802189,4.432405e-09
C0AJ70,田寮,2017-11-18,25.2698,121.4886,0.9997855
C0AI00,五股,2017-11-18,25.07445,121.42728,0.9837596
C0Z280,德武,2017-11-18,23.47426,121.41071,6.2087256e-06
C0R700,枋山,2017-11-18,22.246844,120.661086,0.15059385
C0C460,復興,2017-11-18,24.820208,121.352281,0.45958066
E2H360,蓮華池,2017-11-18,23.918333,120.885278,3.648049e-09
C0M640,中埔,2017-11-18,23.42538,120.5229,1.6977701e-08
C0W140,金沙,2017-11-18,24.488292,118.408778,0.3365007
C2A540,四堵,2017-11-18,24.8926,121.745736,0.54439044
C0ACA0,新莊,2017-11-18,25.051478,121.446756,0.97553086
C0R220,潮州,2017-11-18,22.534361,120.54,0.0008629082
U2HA40,臺大內茅埔,2017-11-18,23.689722,120.851117,5.580494e-06
467490,臺中,2017-11-18,24.145736,120.684075,2.855094e-07
C0U960,翠峰湖,2017-11-18,24.510856,121.608044,2.9152499e-08
E2HA20,林試畢祿溪站,2017-11-18,24.226944,121.308522,9.915896e-09
C0V890,前鎮,2017-11-18,22.5718,120.3117,8.628685e-05
467620,蘭嶼,2017-11-18,22.036969,121.558339,0.056782097
C1F941,雪嶺,2017-11-18,24.280586,121.026642,1.6197578e-08
C2H9E0,國姓南港,2017-11-18,23.911108,120.846556,3.025689e-09
C0AC80,文山,2017-11-18,25.00235,121.575728,0.9986434
C0F9R0,龍井,2017-11-18,24.184536,120.528972,0.99680024
C0M760,民雄,2017-11-18,23.551754,120.428457,6.103291e-08
C0UA40,西德山,2017-11-18,24.560647,121.752608,8.2021515e-08
C1T920,中興,2017-11-18,23.769503,121.498653,7.753525e-07
C0D550,雪霸,2017-11-18,24.526972,121.11605,1.1739716e-08
C2F860,梨山,2017-11-18,24.247522,121.243669,1.0149303e-08
C0R320,車城,2017-11-18,22.0744,120.716247,0.0917481
C1S870,南美山,2017-11-18,23.15025,121.382333,0.9510618
C0B020,基隆嶼,2017-11-18,25.19141,121.78391,0.99956566
C1U501,牛鬥,2017-11-18,24.637836,121.573656,2.3933573e-05
C0M730,嘉義市東區,2017-11-18,23.457673,120.460531,6.9983514e-08
C0S700,知本,2017-11-18,22.684866,121.005642,1.4587722e-07
C1N001,沙崙,2017-11-18,22.935472,120.309406,1.0406709e-07
C0V760,橋頭,2017-11-18,22.757806,120.30575,7.8638455e-05
C0G960,福寶,2017-11-18,24.0443,120.3814,0.12126035
C0X210,白河,2017-11-18,23.347466,120.414427,7.06552e-08
C0S810,東河,2017-11-18,22.972672,121.303986,0.535291
C2R170,屏東,2017-11-18,22.66027,120.49403,2.1014062e-06
C0R670,楓港,2017-11-18,22.190131,120.692156,0.43102473
C0FA50,霧峰,2017-11-18,24.0419,120.6995,2.0752019e-08
C0UB10,蘇澳,2017-11-18,24.5969,121.8571,0.0001369828
C0G950,防潮門,2017-11-18,24.1835,120.4871,0.99680024
C0M740,六腳,2017-11-18,23.492871,120.290625,1.3799544e-06
C1R250,力里,2017-11-18,22.428117,120.629228,7.992702e-05
C0K330,虎尾,2017-11-18,23.719183,120.442036,1.3937075e-07
C2FA00,烏石坑,2017-11-18,24.273503,120.947617,1.2398688e-08
C0V620,永安,2017-11-18,22.82315,120.236856,0.0001512812
C1I330,楓樹林,2017-11-18,23.986803,121.076117,3.910435e-09
C0W200,湖西,2017-11-18,23.596314,119.67275,0.1933045
72Q010,高雄農改場,2017-11-18,22.709333,120.525889,8.192595e-06
C0SA40,瑞和,2017-11-18,22.974361,121.156697,0.8869378
C0C680,龜山,2017-11-18,25.02846,121.38656,0.9755545
C2V260,月眉,2017-11-18,22.971003,120.539853,0.11283657
C0V450,鳳森,2017-11-18,22.545064,120.392592,8.0854437e-07
C0U720,南山,2017-11-18,24.43742,121.38167,2.4281706e-08
A2N290,臺南蘭花園區,2017-11-18,23.340258,120.379661,4.575602e-08
C0R560,新園,2017-11-18,22.5434,120.461558,1.0625311e-05
C0U890,三星,2017-11-18,24.66812,121.65302,0.05805688
C1V300,御油山,2017-11-18,23.001983,120.715364,1.0132378e-08
C0U600,礁溪,2017-11-18,24.817539,121.765608,0.9997268
C1T980,龍澗,2017-11-18,24.023289,121.411328,2.5639793e-08
C0D670,海天一線,2017-11-18,24.831986,120.914438,0.24542281
C0SA00,歷坵,2017-11-18,22.520969,120.89185,0.99876297
C0M710,東石,2017-11-18,23.458927,120.15385,0.84090954
C0M780,鹿草,2017-11-18,23.41134,120.30835,2.2092256e-06
C0U520,雙連埤,2017-11-18,24.753033,121.641303,1.0906334e-05
C0B010,七堵,2017-11-18,25.094819,121.71713,0.9934303
C0R480,長治,2017-11-18,22.693128,120.542622,0.00018622632
C1V830,國三S383K,2017-11-18,22.781967,120.426475,7.5548417e-07
12Q980,恆春工作站,2017-11-18,22.079678,120.714425,0.0917481
C1O940,東山服務區,2017-11-18,23.286016,120.398472,2.1042545e-07
C1U840,東澳嶺,2017-11-18,24.5378,121.8485,1.2291382e-07
C1D630,飛鳳山,2017-11-18,24.766464,121.119178,0.39806068
C0S940,石寧山,2017-11-18,23.223772,121.406639,0.0010332897
C0K410,北港,2017-11-18,23.573957,120.292802,0.00089901855
C2M620,瑞里,2017-11-18,23.545133,120.675197,1.0349717e-08
C0SB70,小港漁港,2017-11-18,23.158558,121.400431,0.98038644
C2O950,安南,2017-11-18,23.076694,120.144861,0.80815583
C0F0E0,南湖圈谷,2017-11-18,24.363714,121.444667,3.4788176e-08
467610,成功,2017-11-18,23.097486,121.373428,0.9271332
C0G890,伸港,2017-11-18,24.148933,120.484403,0.55227333
C2E540,龍溪,2017-11-18,24.606489,120.783933,0.98837745
C1V200,梅山,2017-11-18,23.268447,120.823556,1.4245994e-07
C0T9H0,加路蘭山,2017-11-18,23.682947,121.5274,6.19205e-09
C2O930,玉井,2017-11-18,23.126042,120.46055,2.0171866e-08
C1F911,新伯公,2017-11-18,24.221361,120.841069,2.9177016e-09
C0R490,九如,2017-11-18,22.7405,120.490503,9.49656e-06
C0X200,左鎮,2017-11-18,23.056758,120.408522,1.4889213e-08
C0SB50,叭嗡嗡,2017-11-18,23.047062,121.343223,0.9837531
C1F891,稍來,2017-11-18,24.265689,121.001142,1.31216025e-08
72N240,七股研究中心,2017-11-18,23.081672,120.062894,0.8193436
C0C700,中壢,2017-11-18,24.977661,121.256375,0.94358253
C0M690,水上,2017-11-18,23.419734,120.388909,3.4661078e-08
C0V690,鼓山,2017-11-18,22.623325,120.275575,4.1777308e-05
C0O860,大內,2017-11-18,23.11885,120.36083,2.1394307e-08
C0Z200,萬榮,2017-11-18,23.709219,121.420106,3.8609303e-07
C0T9D0,和中,2017-11-18,24.26676,121.74103,0.17778344
C1O921,楠西,2017-11-18,23.183511,120.484083,6.665911e-08
C0AJ30,淡水觀海,2017-11-18,25.184591,121.408616,0.99932355
C0V810,左營,2017-11-18,22.67491,120.28491,0.026397645
C0UA70,桃源谷,2017-11-18,24.962606,121.888875,0.005390621
C0X130,官田,2017-11-18,23.193217,120.315422,2.5644978e-08
C1H000,翠峰,2017-11-18,24.109397,121.205211,2.425324e-08
C0UA90,石城,2017-11-18,24.980444,121.951214,0.9993011
C1E681,南勢山,2017-11-18,24.421669,120.923831,3.4148364e-09
C0A9F0,內湖,2017-11-18,25.079422,121.57545,0.99311954
C0K291,宜梧,2017-11-18,23.536281,120.169329,0.13252294
C1K540,口湖,2017-11-18,23.585344,120.180517,0.98243845
C0R780,滿州,2017-11-18,22.024403,120.839892,0.062450748
C0V870,文安,2017-11-18,22.8025,120.2164,0.00033373063
C0U650,玉蘭,2017-11-18,24.675286,121.587061,1.0458258e-05
C0R640,東港,2017-11-18,22.46247,120.44074,0.002448017
K2E360,苗栗農改,2017-11-18,24.495722,120.829111,1.5500127e-06
C0AJ80,板橋,2017-11-18,25.0107,121.4489,0.9988019
C0S660,下馬,2017-11-18,23.150427,121.070312,1.6037692e-08
C1H9B1,阿眉,2017-11-18,24.1263,120.994672,8.363299e-09
C0UA20,多加屯,2017-11-18,24.368614,121.373189,1.7482186e-08
C0E730,頭份,2017-11-18,24.688247,120.912206,0.6073214
72V140,高改旗南分場,2017-11-18,22.857861,120.516667,0.45067805
C0K480,莿桐,2017-11-18,23.761192,120.502372,2.375698e-08
C0U980,坪林石牌,2017-11-18,24.86478,121.77396,9.6275864e-05
C0T900,西林,2017-11-18,23.8119,121.441458,1.6016422e-07
C1I150,青雲,2017-11-18,23.793361,120.949378,3.7529993e-08
467350,澎湖,2017-11-18,23.565503,119.563094,0.23133346
C0G800,埔鹽,2017-11-18,24.000394,120.431683,0.022773048
C0H960,草屯,2017-11-18,23.973672,120.68085,1.563224e-08
C1V780,多納林道,2017-11-18,22.888028,120.737917,1.5007451e-08
C0E920,通霄漁港,2017-11-18,24.498589,120.673876,0.9574169
C0Z330,安通山,2017-11-18,23.290728,121.348528,5.1408588e-08
C0AH10,永和,2017-11-18,25.01125,121.508111,0.9988019
C0AK10,太平里,2017-11-18,25.134937,121.364899,0.98430645
C2G640,鹿港,2017-11-18,24.0753,120.430481,0.12126035
C1E890,國三N149K,2017-11-18,24.463414,120.680019,0.99257815
C1R110,口社,2017-11-18,22.770111,120.645222,0.0007197154
C1M870,國三N285K,2017-11-18,23.550319,120.505833,1.3746916e-08
467050,新屋,2017-11-18,25.006744,121.047486,0.33567002
C1E480,鳳美,2017-11-18,24.554803,121.034747,2.2108743e-08
C0M530,奮起湖,2017-11-18,23.493903,120.699253,9.220498e-09
C0C590,觀音,2017-11-18,25.027072,121.153317,0.7937463
C0T9M0,靜浦,2017-11-18,23.455167,121.495028,0.006141325
C2H9M0,發祥,2017-11-18,24.154094,121.164517,1.034131e-08
C0AI40,石牌,2017-11-18,25.115597,121.513139,0.98656756
C1F871,上谷關,2017-11-18,24.203483,121.018644,6.3402927e-09
C2H9G0,百勝,2017-11-18,24.051142,120.909361,4.063945e-09
C0G880,二水,2017-11-18,23.810742,120.6173,1.6201811e-08
C0R940,加祿堂,2017-11-18,22.3363,120.6217,0.82850134
C0W220,北竿,2017-11-18,26.220358,119.974881,0.92640185
C0O960,崎頂,2017-11-18,22.959547,120.369317,2.2369697e-08
C0S750,向陽,2017-11-18,23.248397,120.986133,1.9090109e-08
C0T9F0,水璉,2017-11-18,23.797131,121.542514,7.309909e-08
C1M600,頭凍,2017-11-18,23.406364,120.603339,2.1406551e-08
467660,臺東,2017-11-18,22.752211,121.154586,0.6646122
C1D380,新埔,2017-11-18,24.84745,121.03834,0.23642349
C2G980,田頭村,2017-11-18,23.8263,120.444175,8.89176e-08
C0V750,路竹,2017-11-18,22.854997,120.259439,0.23551121
C0N050,蚵寮,2017-11-18,23.301,120.1104,0.00017738165
72M700,南改鹿草分場,2017-11-18,23.416869,120.283061,2.7645904e-06
C1SA50,利嘉林道,2017-11-18,22.82325,121.009389,3.982547e-08
467550,玉山,2017-11-18,23.487614,120.959522,2.8650213e-08
C0A940,金山,2017-11-18,25.223628,121.643967,0.9997553
C1V340,大津,2017-11-18,22.888322,120.645986,0.01525905
C0W180,七美,2017-11-18,23.219333,119.444892,0.19794068
C1F9C1,白冷,2017-11-18,24.182844,120.929889,1.2974366e-09
K2E710,苗改生物防治研究中心,2017-11-18,24.422861,120.871833,1.3461627e-08
C0N040,蘆竹溝,2017-11-18,23.2344,120.0961,0.0021672505
C2W230,畜試所澎湖,2017-11-18,23.628342,119.513206,0.27606928
C0R880,後壁湖,2017-11-18,21.9457,120.7457,0.06808969
C1I280,埔中,2017-11-18,23.820778,120.642594,2.862278e-09
467790,墾丁雷達站,2017-11-18,21.948235,120.808028,0.08861534
C0W190,望安,2017-11-18,23.380564,119.494075,0.1357915
466881,新北,2017-11-18,24.9593,121.52,0.9987825
C0Z170,卓溪,2017-11-18,23.3443,121.3029,4.403443e-06
C0F850,東勢,2017-11-18,24.246428,120.833047,1.0125365e-08
466900,淡水,2017-11-18,25.164889,121.448906,0.98430645
C0I370,魚池,2017-11-18,23.895703,120.94135,9.057918e-09
C0C630,大溪,2017-11-18,24.882853,121.265547,0.91235745
C0A520,山佳,2017-11-18,24.974944,121.402008,0.98721033
C0I110,竹山,2017-11-18,23.761225,120.688156,5.7332237e-09
82H840,茶改南部分場,2017-11-18,23.762528,120.7405,3.2029042e-09
C0G660,溪湖,2017-11-18,23.94835,120.479122,1.2789867e-07
C1T800,洛韶,2017-11-18,24.204558,121.453956,3.521893e-08
C1T810,慈恩,2017-11-18,24.192044,121.388386,1.620212e-08
C1E451,象鼻,2017-11-18,24.368617,120.940228,1.8434559e-09
C0AC60,三峽,2017-11-18,24.939025,121.369728,0.96248543
C0I490,萬大林道,2017-11-18,23.928228,121.091411,4.840897e-09
C1I290,豐丘,2017-11-18,23.668178,120.887417,1.0186364e-08
C1I320,奧萬大,2017-11-18,23.952956,121.178556,4.9366107e-09
C2M910,嘉義大學,2017-11-18,23.471325,120.485903,4.4307757e-08
C0U770,南澳,2017-11-18,24.44935,121.81022,2.9077255e-06
C0A980,社子,2017-11-18,25.109508,121.469681,0.9791936
C0V800,六龜,2017-11-18,22.997889,120.633583,6.7131994e-05
C1G9D0,國一S218K,2017-11-18,23.890641,120.493253,8.901484e-08
C0E570,白沙屯,2017-11-18,24.549447,120.696803,0.61341625
C2F9A0,中竹林,2017-11-18,24.103556,120.751061,2.5037288e-09
C0FA40,臺中電廠,2017-11-18,24.2146,120.4907,0.99680024
C2G9A0,畜試所彰化,2017-11-18,23.86045,120.557964,3.6734317e-08
C0H9C0,合歡山,2017-11-18,24.143442,121.272547,2.3110402e-08
C0X060,下營,2017-11-18,23.22695,120.256261,1.3965136e-07
G2M350,農試溪口農場,2017-11-18,23.58565,120.408111,7.386517e-08
C0U860,頭城,2017-11-18,24.85323,121.8308,0.99974054
C0R580,南州,2017-11-18,22.48591,120.50274,0.002448017
C0D430,峨眉,2017-11-18,24.6905,121.017189,0.980622
C0G780,秀水,2017-11-18,24.03405,120.503869,1.29917e-07
72N100,臺南農改場,2017-11-18,23.0605,120.342194,1.9134328e-08
C0S900,蘭嶼高中,2017-11-18,22.04909,121.51214,0.26283115
467540,大武,2017-11-18,22.355675,120.903789,0.74433464
C1F9W0,德基,2017-11-18,24.254783,121.190261,1.1675538e-08
C1Z120,壽豐,2017-11-18,23.870853,121.508081,1.6001693e-05
C0W160,烏坵,2017-11-18,24.9944,119.44956,0.09605948
C1I240,外大坪,2017-11-18,23.958697,120.917931,9.502652e-09
C1I550,國六W023K,2017-11-18,23.979067,120.867742,3.5519383e-09
C0R870,興海,2017-11-18,21.9752,120.8439,0.10503716
C0R140,瑪家,2017-11-18,22.682903,120.686639,1.5357688e-08
C0A530,坪林,2017-11-18,24.938183,121.70975,0.8654789
C0X260,後壁,2017-11-18,23.366358,120.362326,4.5795574e-08
C0Z230,和平,2017-11-18,24.30717,121.77007,0.23982924
C0G770,福興,2017-11-18,24.041289,120.437669,0.022773048
C0H9A0,神木村,2017-11-18,23.532742,120.843667,1.31552325e-08
C0I460,南投,2017-11-18,23.911469,120.687331,6.019921e-08
C0I480,梅峰,2017-11-18,24.085272,121.173572,8.6737435e-09
C1V570,吉東,2017-11-18,22.85422,120.5454,0.21741688
C2D740,屯原,2017-11-18,24.067969,121.209389,8.089075e-09
C2A560,福山,2017-11-18,24.776203,121.502811,0.00047916296
C0AH30,五分山,2017-11-18,25.07125,121.780794,0.0006497041
C0FA10,松柏,2017-11-18,24.429115,120.617482,0.99264437
72S200,東改班鳩分場,2017-11-18,22.829528,121.077694,0.34629688
72HA00,中改埔里分場,2017-11-18,23.903208,120.963364,4.030497e-09
C2H9W0,大坪頂農水,2017-11-18,24.043122,120.932781,7.5179765e-09
C0C650,平鎮,2017-11-18,24.897503,121.214636,0.8699118
C0S930,延平,2017-11-18,22.902581,121.084058,0.34405214
C0UA60,樟樹山,2017-11-18,24.41393,121.78325,1.2864247e-06
C1S670,摩天,2017-11-18,23.199503,121.027,1.1361845e-08
C0V630,茄萣,2017-11-18,22.906642,120.182608,0.5943202
466940,基隆,2017-11-18,25.133314,121.740475,0.9998695
C0X050,東河,2017-11-18,23.296598,120.385608,3.044659e-07
C0R770,保力,2017-11-18,22.071122,120.764111,0.41909212
G2L020,農試嘉義分所,2017-11-18,23.485028,120.473806,3.9299e-08
C0X240,關子嶺,2017-11-18,23.331169,120.508025,1.5470585e-08
C0I380,集集,2017-11-18,23.828206,120.801467,6.57602e-09
466990,花蓮,2017-11-18,23.975128,121.613275,0.9728143
C1V220,小關山,2017-11-18,23.154217,120.813603,8.64799e-09
C1F9G1,慶福山,2017-11-18,24.180853,120.848378,2.9688085e-09
C0Z250,瑞穗林道,2017-11-18,23.49284,121.30688,3.4310688e-08
C0D590,新豐,2017-11-18,24.87068,120.97721,0.21910082
C0A870,五指山,2017-11-18,25.132153,121.608692,0.00014034838
C0UA50,西帽山,2017-11-18,24.555361,121.802628,1.8433327e-07
C0X160,仁德,2017-11-18,22.968258,120.257689,0.00022698363
C1H971,六分寮,2017-11-18,23.92507,120.6378,1.6042547e-09
C0W120,西嶼,2017-11-18,23.5626,119.468436,0.2333751
C0G650,員林,2017-11-18,23.946503,120.585597,5.27647e-08
C0AD50,鶯歌,2017-11-18,24.951533,121.346294,0.96077996
C2H9Q0,北東眼山,2017-11-18,24.120939,121.189303,6.9256334e-09
C2H9T0,名間竹圍,2017-11-18,23.859914,120.637572,5.8935594e-09
C0S990,山豬窟,2017-11-18,22.318619,120.857372,0.9990646
72Q010,高雄農改,2017-11-18,22.709333,120.525889,8.192595e-06
C0X190,安平,2017-11-18,22.993161,120.152181,0.090494834
C0K400,斗六,2017-11-18,23.720583,120.541127,3.1536104e-08
12J990,口湖工作站,2017-11-18,23.589978,120.180394,0.98243845
C0O830,北寮,2017-11-18,23.079561,120.495008,1.3085831e-07
C1D410,白蘭,2017-11-18,24.579364,121.079947,7.8913e-09
C0S970,加津林,2017-11-18,22.416211,120.926942,0.8125745
C0D700,關西,2017-11-18,24.7977,121.1732,0.92175573
C0M810,里佳,2017-11-18,23.389125,120.716647,8.09352e-09
C0U750,龜山島,2017-11-18,24.841667,121.953133,0.9996341
C0R810,內獅,2017-11-18,22.305064,120.642986,0.8080801
C1M390,龍美,2017-11-18,23.406728,120.654417,1.13971375e-08
C2FB60,頭櫃山,2017-11-18,24.129842,120.858925,8.098338e-09
C1H840,國三N238K,2017-11-18,23.841008,120.707711,8.487422e-09
CAQ030,崎峰國小,2017-11-18,22.42565,120.49521,0.002448017
C2E520,大湖,2017-11-18,24.414939,120.870872,1.0451383e-08
467530,阿里山,2017-11-18,23.508208,120.813242,1.4258152e-08
C1E691,南湖,2017-11-18,24.40135,120.837533,5.905949e-09
C0FA30,梧棲,2017-11-18,24.256003,120.523381,0.998031
C1V231,高中,2017-11-18,23.134911,120.716711,1.9620579e-08
C0F9V0,新社,2017-11-18,24.200172,120.815806,1.7480409e-09
C0H890,埔里,2017-11-18,23.972169,120.952425,2.490222e-09
C0R690,墾丁,2017-11-18,21.966756,120.810269,0.10359782
C0F0D0,審馬陣,2017-11-18,24.381675,121.4203,2.230851e-08
C0R820,白鷺,2017-11-18,22.454275,120.666219,4.951201e-07
U2H480,臺大溪頭,2017-11-18,23.670306,120.798194,1.1088767e-08
C1V190,南天池,2017-11-18,23.27403,120.91176,1.8821012e-08
K2E360,苗栗農改場,2017-11-18,24.495722,120.829111,1.5500127e-06
CAJ050,海口故事園區,2017-11-18,23.57543,120.14121,0.98243845
C2H9D0,三隻寮,2017-11-18,24.093078,120.861578,6.9562147e-09
C0O990,媽廟,2017-11-18,22.99175,120.293525,5.5542426e-07
C0D480,打鐵坑,2017-11-18,24.849664,121.150789,0.8627924
C0Z220,和平林道,2017-11-18,24.343922,121.656317,2.0323898e-07
C0TA10,花蓮漁港,2017-11-18,23.995322,121.638331,0.9843346
72C440,桃園農改場,2017-11-18,24.950944,121.030583,0.21923715
C1E711,馬拉邦山,2017-11-18,24.367306,120.901656,1.8102191e-09
C0SB20,富岡,2017-11-18,22.792467,121.192669,0.8509397
C0D560,竹東,2017-11-18,24.767147,121.057881,0.9062899
C0F9U0,南屯,2017-11-18,24.137006,120.637969,1.2331247e-06
C0M720,番路,2017-11-18,23.464657,120.554156,6.562976e-09
C0F0A0,雪山圈谷,2017-11-18,24.388594,121.236339,2.9784008e-08
C1A9N0,四十份,2017-11-18,24.934158,121.593283,0.95653135
C0U760,東澳,2017-11-18,24.52196,121.83318,7.082807e-05
C0X230,鹽水,2017-11-18,23.272621,120.247641,9.921601e-05
C2H9H0,苗改南投蜂場,2017-11-18,23.852589,120.693481,1.0202833e-08
C0R950,萬隆國小,2017-11-18,22.507667,120.587817,0.00011306088
C0V370,古亭坑,2017-11-18,22.893178,120.401947,1.9031435e-07
C1I340,新興橋,2017-11-18,23.563333,120.868728,4.950908e-08
C0SA80,土坂,2017-11-18,22.453108,120.887572,0.7922556
C0R160,鹽埔,2017-11-18,22.739558,120.530778,8.192595e-06
C0AC40,大屯山,2017-11-18,25.175675,121.522408,7.287923e-06
466850,五分山雷達站,2017-11-18,25.071182,121.781205,0.0005332914
C2H9L0,馬烈霸,2017-11-18,24.1512,121.201772,6.8458217e-09
C1AI50,國三N016K,2017-11-18,25.034164,121.619664,0.9928662
C1V600,藤枝,2017-11-18,23.071961,120.757042,1.010557e-08
C1E601,南勢,2017-11-18,24.572486,120.734842,0.8408486
C0Z180,新城,2017-11-18,24.03946,121.60454,0.9643349
C0O980,新市,2017-11-18,23.061614,120.298197,2.8219162e-08
C0K420,西螺,2017-11-18,23.800407,120.467394,8.00891e-08
C0Z050,佳心,2017-11-18,23.34567,121.21316,6.4162906e-09
C0AD30,蘆洲,2017-11-18,25.086594,121.472331,0.99338347
C0V610,梓官,2017-11-18,22.760558,120.267211,7.8638455e-05
K2F750,種苗改良場,2017-11-18,24.225972,120.800917,2.146816e-09
C0UA80,大溪漁港,2017-11-18,24.941801,121.902955,0.99925923
C1AI60,國一39K邊坡,2017-11-18,25.064361,121.383836,0.98031455
C0W150,金寧,2017-11-18,24.457703,118.328989,0.14374574
C0R960,內埔,2017-11-18,22.608483,120.570714,0.00042189227
V2C250,八德合作社,2017-11-18,24.93775,121.266389,0.92460406
C2H9S0,龍南,2017-11-18,23.953536,120.833183,2.757171e-09
C0AH40,平等,2017-11-18,25.129142,121.577086,0.505433
C0R540,佳冬,2017-11-18,22.419456,120.552375,0.9734952
466950,彭佳嶼,2017-11-18,25.627975,122.079744,0.77478635
C0A890,雙溪,2017-11-18,25.036003,121.864242,0.9998519
C0C480,桃園,2017-11-18,24.992425,121.323172,0.9592741
C0AH50,林口,2017-11-18,25.072181,121.38084,0.96989137
A2K360,水試臺西試驗場,2017-11-18,23.717231,120.190522,0.9960278
B2N890,畜試所,2017-11-18,23.058972,120.336406,1.9134328e-08
C2M960,外寮,2017-11-18,23.562643,120.665688,2.3053564e-08
C0F9S0,烏日,2017-11-18,24.107058,120.624103,1.735235e-07
C0C490,八德,2017-11-18,24.928708,121.283289,0.9239665
C0R190,赤山,2017-11-18,22.592333,120.614306,0.00025128524
C0T820,天祥,2017-11-18,24.179597,121.495639,3.0610056e-06
C1F9E1,龍安,2017-11-18,24.1605,120.831961,1.8386979e-09
C0V820,小林,2017-11-18,23.148408,120.63325,2.6689099e-08
C2G870,芳苑,2017-11-18,23.922303,120.320025,0.97837716
C0E850,大河,2017-11-18,24.618069,120.948578,0.60491335
C1U670,寒溪,2017-11-18,24.634,121.71691,9.638127e-06
C0N020,城西,2017-11-18,23.0568,120.0956,0.09049488
C1Z110,三棧,2017-11-18,24.11557,121.60501,2.448259e-07
C0R280,檳榔,2017-11-18,22.076078,120.836777,0.9378024
C2H9J0,中台,2017-11-18,23.9996,120.938739,4.13278e-09
C0F9L0,后里,2017-11-18,24.310436,120.729725,2.4125853e-08
C0D540,橫山,2017-11-18,24.71116,121.11693,0.00094976305
C1D420,太閣南,2017-11-18,24.632808,121.160575,4.976394e-08
C1E770,公館,2017-11-18,24.526914,120.830806,4.0898176e-06
CAN130,水試所海水繁養殖中心,2017-11-18,23.120802,120.07968,0.8193436
C1I430,翠華,2017-11-18,24.191961,121.224339,1.3548486e-08
C1M400,菜瓜坪,2017-11-18,23.251928,120.576103,1.7541916e-07
C0G730,二林,2017-11-18,23.903325,120.376081,0.019944945
72M360,南改義竹分場,2017-11-18,23.360694,120.279361,2.962873e-06
V2K620,麥寮合作社,2017-11-18,23.753836,120.294783,0.00029442078
C0Z070,舞鶴,2017-11-18,23.46811,121.37407,1.847389e-06
C0B040,大武崙,2017-11-18,25.166676,121.706993,0.99986047
C1Z030,紅葉,2017-11-18,23.493119,121.338806,5.8703286e-06
C1I050,丹大,2017-11-18,23.753747,121.141147,2.0407077e-08
C0I080,信義,2017-11-18,23.689694,120.851036,5.580494e-06
C2M920,朴子農改,2017-11-18,23.469889,120.259383,2.768231e-06
C2A880,福隆,2017-11-18,25.017842,121.942083,0.9993298
C0Z160,鳳林,2017-11-18,23.746114,121.453411,7.366552e-07
C0V210,復興,2017-11-18,23.222403,120.806089,1.6660892e-06
C0H990,昆陽,2017-11-18,24.121322,121.273642,2.808353e-08
C0R741,獅子,2017-11-18,22.202308,120.705236,0.49224856
C0S710,鹿野,2017-11-18,22.917711,121.122994,3.9355855e-06
C0I530,小奇萊,2017-11-18,24.131764,121.295717,2.8944342e-08
C2K630,荷苞,2017-11-18,23.657717,120.595144,9.39696e-09
C0Z080,富源,2017-11-18,23.587642,121.378225,8.8017394e-08
467441,高雄,2017-11-18,22.7304,120.3125,3.83352e-05
C0SB10,美和,2017-11-18,22.682078,121.060236,0.9332513
C2K620,馬光農場,2017-11-18,23.721453,120.378864,2.0164543e-07
C1I140,卡奈托灣,2017-11-18,23.754364,121.087872,6.0413243e-09
C0I520,玉山風口,2017-11-18,23.470489,120.955994,3.0090124e-08
C1G691,下水埔,2017-11-18,23.816114,120.5676,2.0131354e-08
C0X110,臺南市南區,2017-11-18,22.961189,120.188378,0.00022653845
C0V680,仁武,2017-11-18,22.701083,120.347722,0.03326975
C2G840,北斗,2017-11-18,23.877586,120.514222,7.811634e-08
C0R900,竹坑,2017-11-18,22.1385,120.7022,0.09399494
C0K250,崙背,2017-11-18,23.75555,120.318925,0.00029406842
C0G860,社頭,2017-11-18,23.897647,120.5862,3.991513e-08
C0X150,安定,2017-11-18,23.102614,120.227839,1.5568656e-05
C0R590,里港,2017-11-18,22.77919,120.49459,1.591613e-05
C0E610,馬都安,2017-11-18,24.451272,120.930192,4.982689e-09
C0E550,明德,2017-11-18,24.583486,120.885411,0.93476087
C0R150,三地門,2017-11-18,22.709889,120.639944,0.001003254
C0G910,花壇,2017-11-18,24.032076,120.549461,9.33574e-08
C1D400,鳥嘴山,2017-11-18,24.71909,121.28387,1.0694541e-05
C0K500,元長,2017-11-18,23.64981,120.315024,0.00035611447
C0F0B0,石岡,2017-11-18,24.276061,120.777644,1.4456384e-08
C2V250,甲仙,2017-11-18,23.080106,120.591758,1.7328215e-08
C0SA20,金崙山,2017-11-18,22.567419,120.959667,3.4002795e-08
C0V350,溪埔,2017-11-18,22.738578,120.446797,6.910995e-06
C0M660,溪口,2017-11-18,23.604131,120.403569,7.386517e-08
C1S880,壽卡,2017-11-18,22.238911,120.858903,0.9997725
72D680,桃改新埔分場,2017-11-18,24.834444,121.066111,0.2323206
