站號,站名,日期,lat,lon,BLBTSLS
C0R710,龍磐,2017-05-29,21.931672,120.838942,0.0030518745
C1F9D1,白毛台,2017-05-29,24.158325,120.886933,5.0105916e-07
C0G940,竹塘,2017-05-29,23.848253,120.386764,6.394106e-05
467590,恆春,2017-05-29,22.003897,120.746339,0.0004885233
C1O850,環湖,2017-05-29,23.148617,120.418633,0.08052171
C0U710,太平山,2017-05-29,24.505486,121.525656,1.3068078e-08
C0E820,獅潭,2017-05-29,24.539133,120.920042,6.0191376e-09
C0V880,興達,2017-05-29,22.8778,120.2127,0.005468325
C0S890,關山,2017-05-29,23.0395,121.175017,3.4237482e-06
C0SB30,新蘭,2017-05-29,22.869214,121.223228,0.50173825
C2R970,屏科大,2017-05-29,22.648275,120.619247,0.00029826854
K2F750,種苗繁殖,2017-05-29,24.225972,120.800917,3.477279e-07
C1Z130,銅門,2017-05-29,23.965694,121.492842,2.1008347e-05
C0AD40,土城,2017-05-29,24.973208,121.445169,0.019066561
CAN140,六官養殖協會,2017-05-29,23.22881,120.29962,0.29322383
C0X180,山上,2017-05-29,23.0757,120.363253,0.7574456
C0F9Z0,雪山東峰,2017-05-29,24.388792,121.268675,1.3952856e-08
C1M480,獨立山,2017-05-29,23.537022,120.607797,9.11478e-09
C0X220,學甲,2017-05-29,23.230367,120.182187,0.10900227
467650,日月潭,2017-05-29,23.881325,120.90805,7.873889e-09
C0K600,箔子寮,2017-05-29,23.6197,120.14,0.035927862
C0G830,埤頭,2017-05-29,23.866003,120.452806,0.00024168288
C0S950,七塊厝,2017-05-29,22.954453,121.229922,1.0341728e-07
467110,金門,2017-05-29,24.407306,118.289281,0.99963754
C0AH80,深坑,2017-05-29,25.002703,121.628328,0.066654414
467990,馬祖,2017-05-29,26.169269,119.923419,0.9982344
C0A970,三貂角,2017-05-29,25.007606,122.002058,0.9978282
C2D730,寶山農場,2017-05-29,24.732444,120.976153,2.9091066e-08
C0K430,褒忠,2017-05-29,23.690938,120.303634,4.8372665e-05
467480,嘉義,2017-05-29,23.495925,120.432906,0.16856448
C2E540,後龍,2017-05-29,24.606489,120.783933,3.926386e-08
C0V400,阿公店,2017-05-29,22.804194,120.355528,0.024389206
C0R440,大漢山,2017-05-29,22.405264,120.753181,9.614942e-09
C0K280,四湖,2017-05-29,23.630414,120.227125,0.035359245
C1F9B1,桐林,2017-05-29,24.066172,120.735194,0.014343285
C2H9U0,鳳鵬,2017-05-29,23.763919,120.788061,4.374539e-08
C0K390,土庫,2017-05-29,23.679029,120.395574,3.253209e-05
C1I450,望鄉山,2017-05-29,23.594153,120.944286,7.662118e-09
C0E910,海埔,2017-05-29,24.648767,120.772435,4.3690193e-08
B2E890,畜試北區分所,2017-05-29,24.527806,120.770972,1.2224072e-07
C0R750,四林格山,2017-05-29,22.076989,120.802439,0.008323863
C0F0C0,中坑,2017-05-29,24.248517,120.903319,1.9494978e-08
C1I121,大鞍,2017-05-29,23.678381,120.760017,5.222092e-09
72U480,花改蘭陽分場,2017-05-29,24.686306,121.716583,0.05400833
C0A770,科教館,2017-05-29,25.096356,121.516507,0.92282724
C0AJ60,六塊厝,2017-05-29,25.24,121.4481,0.99914986
C0R620,墾雷,2017-05-29,21.900836,120.855269,0.021052875
467420,永康,2017-05-29,23.038386,120.2367,0.6266522
467300,東吉島,2017-05-29,23.25695,119.667467,0.03183186
C0I410,名間,2017-05-29,23.837053,120.701447,0.0120771
A2C560,農工中心,2017-05-29,24.985917,121.239833,0.9882912
C0V740,旗山,2017-05-29,22.888614,120.483597,0.07897684
C0Z061,玉里,2017-05-29,23.3215,121.339656,0.0004715134
C0S840,南田,2017-05-29,22.279725,120.889208,0.019958027
C1I470,杉林溪,2017-05-29,23.639517,120.786444,5.2053553e-09
C1X040,東原,2017-05-29,23.291597,120.463822,0.007207089
C0R660,枋寮,2017-05-29,22.367722,120.590647,0.086965844
C1R120,上德文,2017-05-29,22.763272,120.704442,1.7633287e-08
C0K450,大埤,2017-05-29,23.646074,120.431537,0.03548515
C0UA00,土場,2017-05-29,24.576533,121.495333,1.4084729e-05
467080,宜蘭,2017-05-29,24.763975,121.756528,0.94346005
C0N030,四草,2017-05-29,23.0235,120.1116,0.06616694
C0V650,彌陀,2017-05-29,22.783806,120.246361,0.031332616
C0D660,新竹市東區,2017-05-29,24.798681,120.986942,4.5595115e-08
82S580,茶改東部分場,2017-05-29,22.907694,121.130139,0.42774045
C0SB40,興隆,2017-05-29,22.913661,121.257469,0.5382433
C0C710,大溪永福,2017-05-29,24.892936,121.324975,0.057781503
C0FA20,溫寮,2017-05-29,24.372177,120.583125,0.00085351197
C0V640,湖內,2017-05-29,22.887139,120.2445,0.004560725
C0R910,下寮,2017-05-29,22.3929,120.5548,0.086965844
C0Z020,明里,2017-05-29,23.208717,121.262342,0.0002607417
C0M770,嘉義梅山,2017-05-29,23.585398,120.555587,0.6238905
G2F820,農業試驗所,2017-05-29,24.031261,120.688133,0.05986885
C0C660,楊梅,2017-05-29,24.912375,121.143047,4.3506208e-07
C1E511,新開,2017-05-29,24.347703,120.827019,1.9464015e-07
G2F820,農試所(霧峰),2017-05-29,24.031261,120.688133,0.05986885
C1I070,和社,2017-05-29,23.591131,120.888861,4.041731e-07
C2F000,大肚,2017-05-29,24.15295,120.572117,0.0039076805
C1S850,豐南,2017-05-29,23.122139,121.262389,9.525629e-08
C2A920,富貴角,2017-05-29,25.263783,121.565258,0.9998165
CAH030,茶改場竹圍站,2017-05-29,23.860083,120.637528,8.119809e-08
C0T960,光復,2017-05-29,23.660694,121.424964,0.86912316
C0F9M0,豐原,2017-05-29,24.254322,120.720692,0.029979663
C0R720,旭海,2017-05-29,22.205403,120.887614,0.08934903
C0V710,苓雅,2017-05-29,22.622742,120.330669,0.0039768135
C0C740,觀音工業區,2017-05-29,25.064764,121.114856,0.9979346
CAC040,拉拉山,2017-05-29,24.699317,121.427133,1.902167e-08
C0V790,萬山,2017-05-29,22.905944,120.688056,1.4499692e-06
U2HA30,臺大和社,2017-05-29,23.590856,120.888864,4.041731e-07
C0AJ90,澳底,2017-05-29,25.0552,121.9253,0.99955356
C0Z100,東華,2017-05-29,23.89525,121.549833,0.043762393
C0G970,三豐,2017-05-29,23.882,120.2895,0.0049500666
V2K610,大庄合作社,2017-05-29,23.8068,120.367939,0.00013268302
C0V900,汕尾,2017-05-29,22.4782,120.4151,5.1938296e-05
C1R630,龍泉,2017-05-29,22.66701,120.59091,0.0016568075
C1AC50,關渡,2017-05-29,25.133486,121.469331,0.99926686
C0F9I0,神岡,2017-05-29,24.272481,120.658314,0.0005490659
C0K460,斗南,2017-05-29,23.678734,120.478359,0.029067406
467410,臺南,2017-05-29,22.993239,120.204772,0.049944066
C2O810,曾文,2017-05-29,23.219681,120.497328,0.029361404
467280,後龍,2017-05-29,24.648563,120.831834,3.228852e-08
C1F9J1,清水林,2017-05-29,24.071242,120.820419,1.2893556e-08
C2A650,火燒寮,2017-05-29,25.002719,121.742892,0.9865203
466930,竹子湖,2017-05-29,25.162078,121.544547,2.033679e-05
C1I220,樟湖,2017-05-29,23.905333,120.846983,1.889128e-09
C0I390,仁愛,2017-05-29,24.022122,121.132206,3.5918406e-09
C0Z300,東里,2017-05-29,23.26853,121.30547,0.25312862
C1V590,新發,2017-05-29,23.057019,120.646064,9.638499e-09
C0K510,水林,2017-05-29,23.572924,120.24597,0.0006156095
72S590,東改賓朗果園,2017-05-29,22.813889,121.071278,0.054244544
82A750,茶改北部分場,2017-05-29,24.955778,121.631222,0.76724124
C1A750,石碇服務區,2017-05-29,25.00872,121.646242,0.9944024
C0X300,鹿寮,2017-05-29,23.386047,120.477331,0.8257744
G2AI50,關渡,2017-05-29,25.11575,121.492,0.9989934
C0K590,雲林東勢,2017-05-29,23.674192,120.255721,3.500976e-05
C0A570,桶後,2017-05-29,24.848222,121.597992,6.535099e-05
C1S800,華源,2017-05-29,22.657883,121.02325,0.9906676
C0G720,溪州,2017-05-29,23.851589,120.499093,0.00022660177
C1V160,達卡努瓦,2017-05-29,23.279811,120.705319,3.4706173e-09
C2M410,馬頭山,2017-05-29,23.324361,120.582017,0.0015363708
C0V850,蚵仔寮,2017-05-29,22.7256,120.2527,0.020914923
C0S740,池上,2017-05-29,23.119628,121.209469,0.974113
C1V390,尖山,2017-05-29,22.813153,120.367789,0.0044957264
C0AH70,松山,2017-05-29,25.04871,121.55042,0.9485609
C0N010,鯤鯓國小,2017-05-29,23.1879,120.0889,0.15289478
C0R550,新埤,2017-05-29,22.467947,120.582894,4.1970576e-05
C0SA60,知本（水試所）,2017-05-29,22.702394,121.082761,0.9284495
C0T9I0,豐濱,2017-05-29,23.583897,121.514806,0.0088908095
C0UB00,淡江大學蘭陽校園,2017-05-29,24.823239,121.730383,6.0155016e-06
C0W240,九宮,2017-05-29,24.423753,118.240186,0.9996099
C0T9N0,富里,2017-05-29,23.171639,121.249378,0.9698778
U2HA50,臺大竹山,2017-05-29,23.756972,120.681556,0.018090753
C0V840,鳳鼻頭,2017-05-29,22.5083,120.3591,7.880444e-05
C0X140,西港,2017-05-29,23.125608,120.203108,0.31448433
72D080,桃改五峰分場,2017-05-29,24.612194,121.157167,1.878987e-09
C2H9P0,伊拿谷,2017-05-29,23.963211,121.088264,2.8413472e-09
C2H9F0,柑林,2017-05-29,24.018658,120.847072,0.03045091
C0TA20,加灣,2017-05-29,24.082025,121.608944,0.022699904
C0V530,阿蓮,2017-05-29,22.883208,120.327508,0.033140708
C1O880,關山,2017-05-29,23.173397,120.594092,0.00040490838
C0E791,卓蘭,2017-05-29,24.3126,120.8244,0.00032460602
C1I030,武界,2017-05-29,23.913225,121.052483,2.562966e-09
C0R520,崁頂,2017-05-29,22.514781,120.506914,0.00037246846
C0R341,牡丹,2017-05-29,22.130036,120.792639,0.15634985
C0R930,萬丹,2017-05-29,22.5885,120.4851,5.276265e-05
C0S760,紅石,2017-05-29,23.069131,121.126219,2.1839877e-08
C1M610,石磐龍,2017-05-29,23.496606,120.663506,5.6958815e-09
C0UA10,鴛鴦湖,2017-05-29,24.590269,121.412228,9.454923e-09
V2C260,八德蔬果,2017-05-29,24.978508,121.281819,0.95963013
C0R800,丹路,2017-05-29,22.204481,120.750989,0.106093496
C0G920,永靖,2017-05-29,23.924703,120.547533,0.0017714065
C2M950,太和,2017-05-29,23.538372,120.702961,4.7342628e-09
C1A630,下盆,2017-05-29,24.771003,121.538622,1.940959e-06
B2N890,畜產試驗所,2017-05-29,23.058972,120.336406,0.9891809
C0UA30,白嶺,2017-05-29,24.527819,121.519031,1.0239972e-08
C1V580,溪南(特生中心),2017-05-29,23.084972,120.788475,9.350528e-09
C1T970,大農,2017-05-29,23.615233,121.413331,6.4071486e-05
E2S960,林試太麻里2,2017-05-29,22.598014,120.989761,0.81374395
C0R650,竹田,2017-05-29,22.58486,120.54344,0.012798415
C1H900,清流,2017-05-29,24.080775,120.962997,6.555782e-09
C1C510,水尾,2017-05-29,24.940081,121.087161,2.448862e-06
C0F9X0,大雅(中科園區),2017-05-29,24.21528,120.62445,0.0001356061
C0SB60,白守蓮,2017-05-29,23.126769,121.401914,0.46317214
C0O970,虎頭埤,2017-05-29,23.021375,120.347878,0.81481165
C0C730,中大臨海站,2017-05-29,24.966126,121.008581,0.9271584
C0X250,新營,2017-05-29,23.310689,120.316681,0.072884545
C0V700,三民,2017-05-29,22.645017,120.311233,0.0036572863
C0U870,大礁溪,2017-05-29,24.791042,121.675047,7.252424e-06
C0E870,高鐵苗栗,2017-05-29,24.60725,120.826094,3.558545e-08
A2K570,古坑花卉中心,2017-05-29,23.63353,120.55239,0.3257137
C0M860,新美,2017-05-29,23.338017,120.683169,4.1496698e-08
C1E701,八卦,2017-05-29,24.491756,120.927619,1.5725506e-09
C0I420,國姓,2017-05-29,24.037803,120.855072,0.020796137
C2D720,關西工作站,2017-05-29,24.757275,121.184792,2.3408925e-08
C0S960,香蘭,2017-05-29,22.587569,120.993375,0.81374395
C0R260,春日,2017-05-29,22.370361,120.628306,0.06687555
72G600,臺中農改場,2017-05-29,24.003028,120.534389,0.0007456789
C0Z210,瑞穗,2017-05-29,23.5239,121.39021,0.014442021
C0M820,達邦,2017-05-29,23.453994,120.749517,5.1957634e-09
C0V860,南寮,2017-05-29,22.7616,120.2339,0.020914923
C0G740,大城,2017-05-29,23.852487,120.320935,0.003764784
C0R920,塭仔,2017-05-29,22.4169,120.5197,0.08681686
C0R470,高樹,2017-05-29,22.826389,120.600806,5.819224e-05
C0R680,佳樂水,2017-05-29,21.993578,120.861633,0.0005851151
C1O870,大棟山,2017-05-29,23.31157,120.52226,2.9560274e-09
C0D360,梅花,2017-05-29,24.678347,121.208558,6.289021e-09
C0Z190,富世,2017-05-29,24.14743,121.6297,4.7800822e-06
C0AI10,屈尺,2017-05-29,24.92184,121.54475,0.7777856
B2U990,畜試東區分所,2017-05-29,24.669039,121.832561,0.25091556
C0SB80,長濱漁港,2017-05-29,23.313644,121.459994,0.9673324
C0R240,來義,2017-05-29,22.527306,120.625111,0.00011539978
C0V910,大樹,2017-05-29,22.684645,120.432803,0.030000428
C1R610,西大武山,2017-05-29,22.617719,120.7322,9.2482395e-09
C0G900,線西,2017-05-29,24.143358,120.443536,0.0003559975
C0M700,竹崎,2017-05-29,23.526178,120.555508,0.6500611
C2E880,三義,2017-05-29,24.405478,120.749819,3.753298e-09
C0C720,竹圍,2017-05-29,25.112692,121.239824,0.9989908
C0F9P0,清水,2017-05-29,24.312297,120.562242,0.00029076872
C0Z150,吉安光華,2017-05-29,23.930925,121.595153,0.978383
C1D640,外坪(五指山),2017-05-29,24.644447,121.090961,3.086154e-09
C0F9O0,潭子,2017-05-29,24.213106,120.703933,0.07202281
C2H9R0,卓社,2017-05-29,23.887894,121.000086,7.0749833e-09
72T250,花蓮農改場,2017-05-29,23.975222,121.563889,0.993313
C0E780,銅鑼,2017-05-29,24.489681,120.790853,3.669363e-08
C1T950,太安,2017-05-29,23.666719,121.370128,5.459654e-07
C0E830,苑裡,2017-05-29,24.439714,120.653053,2.590258e-06
467270,田中,2017-05-29,23.873803,120.581286,0.09172601
C0SA10,檳榔四格山,2017-05-29,22.810031,121.109308,0.0005266548
C1T830,布洛灣,2017-05-29,24.17184,121.57127,0.9992258
C0F970,大坑,2017-05-29,24.173142,120.722289,0.018008376
C1U920,思源,2017-05-29,24.393125,121.347214,1.2068674e-08
C0A931,三和,2017-05-29,25.233153,121.595236,0.9994551
C0I010,廬山,2017-05-29,24.033311,121.181808,3.6016714e-09
C2M940,日野賀,2017-05-29,23.434056,120.727169,3.9938945e-09
C0R860,鼻頭,2017-05-29,22.1043,120.8979,0.100270465
C0UB20,壯圍,2017-05-29,24.7359,121.8163,0.20526984
C0R790,九棚,2017-05-29,22.14195,120.889281,0.22389314
C0W110,東莒,2017-05-29,25.9652,119.98069,0.9989695
C1U930,粉鳥林,2017-05-29,24.497088,121.842479,0.36418095
C1I211,蘆竹湳,2017-05-29,23.934019,120.811994,9.788304e-09
C0S830,長濱,2017-05-29,23.286817,121.411975,1.4290587e-06
C1F9F1,伯公龍,2017-05-29,24.272392,120.849047,2.0255824e-07
C0E810,西湖,2017-05-29,24.562947,120.7485,3.039472e-07
C1I440,新高口,2017-05-29,23.478744,120.878939,4.7161026e-09
C0O840,王爺宮,2017-05-29,23.222064,120.40085,0.21893482
C0T9G0,鳳林山,2017-05-29,23.735269,121.420131,4.115343e-08
C0X080,佳里,2017-05-29,23.173039,120.145086,0.15289478
C0FB70,大甲溪埔,2017-05-29,24.370625,120.620067,0.00038475048
C0Z310,清水斷崖,2017-05-29,24.218294,121.689142,4.935794e-07
C0M680,太保,2017-05-29,23.455062,120.331455,0.8377997
C1S820,金峰,2017-05-29,22.590969,120.933236,0.99188894
C0AD10,八里,2017-05-29,25.150211,121.403947,0.9989908
C2K240,草嶺,2017-05-29,23.59555,120.693461,5.5606586e-09
C1SA70,都蘭,2017-05-29,22.87794,121.226881,0.5382433
C0K440,二崙,2017-05-29,23.772797,120.408944,8.4195e-05
C1A760,坪林交控,2017-05-29,24.94284,121.713442,0.9448665
C0F9N0,大里,2017-05-29,24.092464,120.701378,0.0313252
C0SA90,達仁林場,2017-05-29,22.264347,120.823972,0.081366025
C1R290,石門山,2017-05-29,22.112611,120.756597,0.060193393
42HA10,萬大發電廠,2017-05-29,23.978875,121.139639,4.0861354e-09
C0R890,山海,2017-05-29,21.9878,120.7091,0.00221498
C0T9A0,月眉山,2017-05-29,23.809928,121.539828,3.140974e-08
C0AC70,信義,2017-05-29,25.037822,121.564597,0.9485609
C0K560,棋山,2017-05-29,23.68645,120.603417,0.2679424
C2FB50,出雲,2017-05-29,24.206469,120.902794,1.2872718e-08
C1Z240,中平林道,2017-05-29,23.42115,121.26763,2.5131253e-06
U2H480,溪頭,2017-05-29,23.670306,120.798194,5.7289933e-09
C0M880,好美里,2017-05-29,23.3364,120.138,0.0182212
C0T9E0,大坑,2017-05-29,23.880628,121.581981,5.6643255e-08
C0K530,臺西,2017-05-29,23.701547,120.197559,0.005092911
C1E900,國一N128K,2017-05-29,24.560997,120.844186,2.7993739e-08
C0AJ50,水湳洞,2017-05-29,25.123695,121.862238,0.9979163
C0AI20,白沙灣,2017-05-29,25.283128,121.519058,0.99933434
C0A860,大坪,2017-05-29,25.165914,121.632969,0.9396178
C1U850,觀音海岸,2017-05-29,24.38319,121.77856,2.5803555e-08
C2K610,草嶺石壁,2017-05-29,23.602469,120.707731,5.3057745e-09
C0U950,鶯子嶺,2017-05-29,24.89754,121.79244,1.707134e-07
C0O900,善化,2017-05-29,23.112883,120.297219,0.993085
C0K550,蔦松,2017-05-29,23.514319,120.229736,0.100485444
E2P980,林試六龜中心,2017-05-29,22.991703,120.645722,0.0059376205
C0E590,通霄,2017-05-29,24.471892,120.704622,4.3172417e-07
C1I310,西巒,2017-05-29,23.754486,120.883956,1.4011554e-08
C0A550,泰平,2017-05-29,24.971197,121.823711,0.3464907
C0I360,水里,2017-05-29,23.812553,120.849792,6.6786373e-07
C0R830,高士,2017-05-29,22.121825,120.836781,0.03406999
C1I101,溪頭,2017-05-29,23.661789,120.807647,7.4381172e-09
C0AJ20,野柳,2017-05-29,25.20703,121.690021,0.99905485
C0B060,暖暖,2017-05-29,25.0957,121.7403,0.98974496
C1H920,長豐,2017-05-29,24.102039,120.879897,1.5975166e-08
C0V360,內門,2017-05-29,22.975481,120.466769,0.055793703
C0R850,林邊,2017-05-29,22.4634,120.5339,5.168823e-05
C0E930,龍鳳,2017-05-29,24.700034,120.859125,3.007991e-08
C0U910,冬山,2017-05-29,24.63373,121.7937,0.25091556
C1E721,泰安,2017-05-29,24.489017,120.968036,2.6334113e-09
82H320,茶改中部分場,2017-05-29,23.875611,120.913583,1.6872269e-08
C0M750,布袋,2017-05-29,23.380878,120.167789,0.0049932688
C1S860,利嘉,2017-05-29,22.809417,121.050528,6.5429245e-05
72C440,桃園農改,2017-05-29,24.950944,121.030583,1.967364e-05
E2S980,林試太麻里1,2017-05-29,22.598922,120.980044,0.9558428
C0X170,關廟,2017-05-29,22.963017,120.327797,0.16896889
C0V720,林園,2017-05-29,22.507747,120.394511,6.8251284e-05
C1I510,線浸林道,2017-05-29,23.761508,120.832956,5.2131948e-09
C0D690,外湖,2017-05-29,24.917735,120.968711,0.00016109878
C0C750,新興坑尾,2017-05-29,25.0061,121.0971,0.59262216
B2Q810,畜試南區分所,2017-05-29,21.945583,120.802167,0.00056249753
C0S790,金崙,2017-05-29,22.538122,120.966875,0.9939931
C0AH90,福山植物園,2017-05-29,24.760717,121.58135,0.00017885734
C0I540,奇萊稜線,2017-05-29,24.109231,121.326456,1.0807792e-08
C0M850,表湖,2017-05-29,23.24186,120.64166,1.6902353e-08
C0S770,大溪山,2017-05-29,22.478475,120.943325,0.41041982
C0AG80,中和,2017-05-29,24.991622,121.491792,0.019066561
C0T790,大禹嶺,2017-05-29,24.186117,121.316086,4.7271076e-09
C0T9B0,水源,2017-05-29,23.991861,121.537169,4.0133383e-08
C0R840,牡丹池山,2017-05-29,22.168389,120.841225,0.014987179
C1I131,桶頭,2017-05-29,23.641944,120.654117,0.0007423536
CAL110,布袋國中,2017-05-29,23.35893,120.18026,0.0049932688
467571,新竹,2017-05-29,24.827853,121.014219,9.237489e-08
C0Z290,赤柯山,2017-05-29,23.36893,121.38293,2.4380414e-08
C0X280,將軍,2017-05-29,23.214999,120.13577,0.1170527
C0S690,太麻里,2017-05-29,22.60902,120.98533,8.245613e-06
C0U880,北關,2017-05-29,24.9072,121.8734,0.9978227
C1H860,瑞岩,2017-05-29,24.123772,121.18345,5.5729434e-09
C0G810,埔心,2017-05-29,23.947633,120.525456,0.0017714065
C0U970,大福,2017-05-29,24.80064,121.81389,0.9669823
C2H9N0,仁愛東眼,2017-05-29,24.026875,121.1205,3.416804e-09
C1E670,南礦,2017-05-29,24.538278,121.002836,2.0884354e-09
C0M520,東後寮,2017-05-29,23.369908,120.248065,0.0038585055
C1E461,松安,2017-05-29,24.397972,120.986022,4.8055617e-09
72G600,臺中農改,2017-05-29,24.003028,120.534389,0.0007456789
C2N160,西拉雅風管處,2017-05-29,23.189481,120.335297,0.70479715
C2M970,碧湖,2017-05-29,23.568632,120.624165,6.5283556e-09
C0A640,石碇,2017-05-29,24.993969,121.662917,0.99774015
E2S960,林試太麻里2,2017-05-29,22.598,120.99775,0.78308153
C0F9Y0,桃山,2017-05-29,24.432739,121.303808,1.27927775e-08
C1I020,萬大,2017-05-29,23.979817,121.132261,3.5401562e-09
C0U940,羅東,2017-05-29,24.68184,121.74934,0.10084392
C0M650,朴子,2017-05-29,23.43463,120.23902,0.0046970304
C1I500,大尖山,2017-05-29,23.858572,120.994889,6.6155983e-09
C0G820,田尾,2017-05-29,23.901669,120.509389,0.0017714065
E2K600,四湖植物園,2017-05-29,23.676986,120.163433,0.035359245
C0S730,綠島,2017-05-29,22.6672,121.47533,0.002386014
12Q970,東港工作站,2017-05-29,22.479997,120.466058,5.217315e-05
C0E430,南庄,2017-05-29,24.601775,121.000214,5.555708e-09
C1TA00,太魯閣,2017-05-29,24.15773,121.6236,1.3820419e-06
466920,臺北,2017-05-29,25.037658,121.514853,0.9485609
C0R600,舊泰武,2017-05-29,22.588194,120.664944,1.4188648e-08
C1I260,北坑,2017-05-29,23.9246,121.006903,7.506686e-09
466910,鞍部,2017-05-29,25.182586,121.529731,3.7492114e-06
C1I230,九份二山,2017-05-29,23.961944,120.845,4.025841e-09
C2A660,瑞芳,2017-05-29,25.113169,121.801147,0.999209
C0R270,琉球嶼,2017-05-29,22.332244,120.362236,1.6569559e-06
C1T990,高寮,2017-05-29,23.394239,121.356808,0.004167303
C0G620,芬園,2017-05-29,24.015678,120.6213,0.035335
C1Z140,荖溪,2017-05-29,23.890575,121.45964,3.3061065e-07
C1I201,中心崙,2017-05-29,23.728722,120.712097,4.814176e-09
C1I400,凌霄,2017-05-29,24.018778,121.004456,3.3705105e-09
C1M640,十字,2017-05-29,23.492153,120.753683,6.2482495e-09
G2P820,農試鳳山分所,2017-05-29,22.646611,120.356083,0.002312788
C0Z270,蕃薯寮,2017-05-29,23.73835,121.540108,8.431869e-07
C0F9Q0,外埔,2017-05-29,24.347817,120.705686,6.828761e-06
C0K580,高鐵雲林,2017-05-29,23.737456,120.417944,6.454665e-05
C2I090,鳳凰,2017-05-29,23.728081,120.787347,7.295628e-09
C0U990,員山,2017-05-29,24.74435,121.72247,0.11807872
C0V770,大社,2017-05-29,22.730306,120.346639,0.011877898
C0X120,麻豆,2017-05-29,23.183289,120.248611,0.2416966
C0C670,龍潭,2017-05-29,24.870056,121.221389,3.1716047e-07
C0D680,香山濕地,2017-05-29,24.783581,120.914988,1.1288202e-07
C0S980,勝林山,2017-05-29,22.430439,120.8938,2.661197e-07
C0V730,大寮,2017-05-29,22.605614,120.395717,0.0031482456
C0R570,麟洛,2017-05-29,22.65078,120.52719,5.985824e-06
C2M930,石卓,2017-05-29,23.478744,120.702264,5.4630895e-09
C0G9B0,和美,2017-05-29,24.105169,120.492131,6.0960992e-06
CAG100,王功漁港,2017-05-29,23.96824,120.32586,0.00011693039
C0X290,北門,2017-05-29,23.267772,120.125481,0.1170527
C2F930,大甲,2017-05-29,24.347667,120.640403,2.760784e-05
C0D650,湖口,2017-05-29,24.904794,121.043628,3.3796002e-06
C0E420,竹南,2017-05-29,24.708978,120.888897,1.898057e-08
C0U780,五結,2017-05-29,24.68637,121.79794,0.20526984
C1I250,鯉潭,2017-05-29,23.961922,120.991131,9.2523145e-09
C0R130,阿禮,2017-05-29,22.742908,120.743678,7.805257e-09
C0X100,臺南市北區,2017-05-29,23.010394,120.194228,0.06267578
C0S920,金峰嘉蘭,2017-05-29,22.594789,120.960825,0.964725
C0V490,新興,2017-05-29,22.627422,120.298803,0.003968868
C0F9K0,大安,2017-05-29,24.345061,120.588025,0.0005681014
72N100,臺南農改,2017-05-29,23.0605,120.342194,0.9891809
467290,古坑,2017-05-29,23.633639,120.551889,0.3257137
C2E970,八甲,2017-05-29,24.535811,120.795983,8.863699e-09
C0V440,鳳山,2017-05-29,22.646653,120.356122,0.0023127857
C1T940,大觀,2017-05-29,23.714206,121.373133,8.2978865e-08
72T250,花蓮農改,2017-05-29,23.975222,121.563889,0.993313
C0E740,造橋,2017-05-29,24.637056,120.864778,3.5666446e-08
C0R100,尾寮山,2017-05-29,22.833111,120.683889,9.470751e-09
A2K630,臺大雲林校區,2017-05-29,23.730628,120.423903,6.43814e-05
C0D580,寶山,2017-05-29,24.735006,121.025192,1.7011047e-07
E2P990,林試扇平站,2017-05-29,22.9677,120.6857,2.8149745e-07
C0AI30,三重,2017-05-29,25.057328,121.500629,0.92282724
C0AH00,汐止,2017-05-29,25.066881,121.658778,0.9485609
C1Z040,立山,2017-05-29,23.443356,121.327375,5.2401845e-07
C0W130,花嶼,2017-05-29,23.40007,119.32276,0.3584668
C0A950,鼻頭角,2017-05-29,25.129036,121.923372,0.99970645
C0K470,林內,2017-05-29,23.748675,120.609642,0.118272744
C2F990,摩天嶺,2017-05-29,24.322458,120.936819,1.24536985e-08
82C160,茶改場,2017-05-29,24.908472,121.185333,1.1904743e-07
C0Z320,清水林道,2017-05-29,23.27125,121.188272,1.9111735e-07
C0R760,南仁湖,2017-05-29,22.084681,120.863353,0.060193393
C0M670,大林,2017-05-29,23.600616,120.45841,0.29802108
C0M800,茶山,2017-05-29,23.299075,120.664767,7.134339e-07
C0A9C0,天母,2017-05-29,25.117494,121.537169,0.9990199
72K220,南改斗南分場,2017-05-29,23.634556,120.477333,0.029067406
72AI40,桃改樹林分場,2017-05-29,24.944503,121.386972,0.0036983078
C0S910,蘭嶼燈塔,2017-05-29,22.081197,121.503117,0.0018890909
C0B050,八斗子,2017-05-29,25.144754,121.79167,0.9970176
C0U900,內城,2017-05-29,24.71813,121.68766,0.020180589
C0X320,柳營,2017-05-29,23.253328,120.375253,0.9901262
C0M790,新港,2017-05-29,23.553269,120.345728,0.00020315754
C0F9T0,西屯,2017-05-29,24.179494,120.641275,0.0007761188
C0SA30,都歷,2017-05-29,23.020333,121.323642,0.025712453
C0C620,蘆竹,2017-05-29,25.084275,121.265767,0.9934207
C0R730,大坪頂,2017-05-29,22.024633,120.69355,0.1875646
C0AJ40,石門,2017-05-29,25.273672,121.601198,0.9997762
C0E750,苗栗,2017-05-29,24.564569,120.824575,3.0622324e-08
C0T870,鯉魚潭,2017-05-29,23.935639,121.508944,0.00015510702
C1V170,排雲,2017-05-29,23.463619,120.954147,1.22042065e-08
C2H950,中寮,2017-05-29,23.884447,120.766406,0.007355022
C0R350,貓鼻頭,2017-05-29,21.921774,120.7358,0.0022624356
C0V660,岡山,2017-05-29,22.797078,120.294958,0.031654682
C1H941,雙冬,2017-05-29,23.967378,120.802189,6.7983152e-09
C0AJ70,田寮,2017-05-29,25.2698,121.4886,0.9991842
C0AI00,五股,2017-05-29,25.07445,121.42728,0.9983164
C0Z280,德武,2017-05-29,23.47426,121.41071,6.5790397e-07
C0R700,枋山,2017-05-29,22.246844,120.661086,0.0020314918
C0C460,復興,2017-05-29,24.820208,121.352281,1.8576837e-07
E2H360,蓮華池,2017-05-29,23.918333,120.885278,4.4821817e-09
C0M640,中埔,2017-05-29,23.42538,120.5229,0.76640964
C0W140,金沙,2017-05-29,24.488292,118.408778,0.9996931
C2A540,四堵,2017-05-29,24.8926,121.745736,0.011010585
C0ACA0,新莊,2017-05-29,25.051478,121.446756,0.08818957
C0R220,潮州,2017-05-29,22.534361,120.54,0.00044709974
U2HA40,臺大內茅埔,2017-05-29,23.689722,120.851117,2.9183573e-06
467490,臺中,2017-05-29,24.145736,120.684075,0.038515594
C0U960,翠峰湖,2017-05-29,24.510856,121.608044,1.1275147e-08
E2HA20,林試畢祿溪站,2017-05-29,24.226944,121.308522,6.00359e-09
C0V890,前鎮,2017-05-29,22.5718,120.3117,0.004208652
467620,蘭嶼,2017-05-29,22.036969,121.558339,0.0019985426
C1F941,雪嶺,2017-05-29,24.280586,121.026642,1.1945054e-08
C2H9E0,國姓南港,2017-05-29,23.911108,120.846556,1.8777688e-09
C0AC80,文山,2017-05-29,25.00235,121.575728,0.066654414
C0F9R0,龍井,2017-05-29,24.184536,120.528972,0.00071686506
C0M760,民雄,2017-05-29,23.551754,120.428457,0.3312229
C0UA40,西德山,2017-05-29,24.560647,121.752608,4.851992e-08
C1T920,中興,2017-05-29,23.769503,121.498653,0.0003010394
C0D550,雪霸,2017-05-29,24.526972,121.11605,3.7009062e-09
C2F860,梨山,2017-05-29,24.247522,121.243669,6.2011742e-09
C0R320,車城,2017-05-29,22.0744,120.716247,0.007895399
C1S870,南美山,2017-05-29,23.15025,121.382333,0.9693213
C0B020,基隆嶼,2017-05-29,25.19141,121.78391,0.9994982
C1U501,牛鬥,2017-05-29,24.637836,121.573656,0.09041029
C0M730,嘉義市東區,2017-05-29,23.457673,120.460531,0.98605293
C0S700,知本,2017-05-29,22.684866,121.005642,1.0946783e-06
C1N001,沙崙,2017-05-29,22.935472,120.309406,0.26685667
C0V760,橋頭,2017-05-29,22.757806,120.30575,0.016123058
C0G960,福寶,2017-05-29,24.0443,120.3814,6.929911e-06
C0X210,白河,2017-05-29,23.347466,120.414427,0.9204629
C0S810,東河,2017-05-29,22.972672,121.303986,0.04761648
C2R170,屏東,2017-05-29,22.66027,120.49403,5.985824e-06
C0R670,楓港,2017-05-29,22.190131,120.692156,0.050668977
C0FA50,霧峰,2017-05-29,24.0419,120.6995,0.05266336
C0UB10,蘇澳,2017-05-29,24.5969,121.8571,0.6478396
C0G950,防潮門,2017-05-29,24.1835,120.4871,0.00071686436
C0M740,六腳,2017-05-29,23.492871,120.290625,0.0001413209
C1R250,力里,2017-05-29,22.428117,120.629228,0.0036778748
C0K330,虎尾,2017-05-29,23.719183,120.442036,3.8079826e-05
C2FA00,烏石坑,2017-05-29,24.273503,120.947617,1.3339555e-08
C0V620,永安,2017-05-29,22.82315,120.236856,0.031332616
C1I330,楓樹林,2017-05-29,23.986803,121.076117,3.3763015e-09
C0W200,湖西,2017-05-29,23.596314,119.67275,0.04478594
72Q010,高雄農改場,2017-05-29,22.709333,120.525889,8.559446e-06
C0SA40,瑞和,2017-05-29,22.974361,121.156697,0.00070862455
C0C680,龜山,2017-05-29,25.02846,121.38656,0.99919194
C2V260,月眉,2017-05-29,22.971003,120.539853,0.20987697
C0V450,鳳森,2017-05-29,22.545064,120.392592,1.994931e-05
C0U720,南山,2017-05-29,24.43742,121.38167,4.6926942e-08
A2N290,臺南蘭花園區,2017-05-29,23.340258,120.379661,0.113360636
C0R560,新園,2017-05-29,22.5434,120.461558,6.8251284e-05
C0U890,三星,2017-05-29,24.66812,121.65302,0.74361664
C1V300,御油山,2017-05-29,23.001983,120.715364,7.846184e-09
C0U600,礁溪,2017-05-29,24.817539,121.765608,0.99914473
C1T980,龍澗,2017-05-29,24.023289,121.411328,1.4668271e-07
C0D670,海天一線,2017-05-29,24.831986,120.914438,3.3977258e-07
C0SA00,歷坵,2017-05-29,22.520969,120.89185,0.044475183
C0M710,東石,2017-05-29,23.458927,120.15385,0.07667342
C0M780,鹿草,2017-05-29,23.41134,120.30835,0.0037985295
C0U520,雙連埤,2017-05-29,24.753033,121.641303,6.376713e-06
C0B010,七堵,2017-05-29,25.094819,121.71713,0.9822021
C0R480,長治,2017-05-29,22.693128,120.542622,0.010780585
C1V830,國三S383K,2017-05-29,22.781967,120.426475,0.0021859144
12Q980,恆春工作站,2017-05-29,22.079678,120.714425,0.007895399
C1O940,東山服務區,2017-05-29,23.286016,120.398472,0.9698288
C1U840,東澳嶺,2017-05-29,24.5378,121.8485,5.2477453e-08
C1D630,飛鳳山,2017-05-29,24.766464,121.119178,1.01112e-08
C0S940,石寧山,2017-05-29,23.223772,121.406639,0.930497
C0K410,北港,2017-05-29,23.573957,120.292802,0.0005011659
C2M620,瑞里,2017-05-29,23.545133,120.675197,4.910045e-09
C0SB70,小港漁港,2017-05-29,23.158558,121.400431,0.6115853
C2O950,安南,2017-05-29,23.076694,120.144861,0.10737622
C0F0E0,南湖圈谷,2017-05-29,24.363714,121.444667,2.8304171e-08
467610,成功,2017-05-29,23.097486,121.373428,0.51218224
C0G890,伸港,2017-05-29,24.148933,120.484403,0.00035560507
C2E540,龍溪,2017-05-29,24.606489,120.783933,3.926386e-08
C1V200,梅山,2017-05-29,23.268447,120.823556,4.5888783e-08
C0T9H0,加路蘭山,2017-05-29,23.682947,121.5274,3.695174e-08
C2O930,玉井,2017-05-29,23.126042,120.46055,0.75744545
C1F911,新伯公,2017-05-29,24.221361,120.841069,2.1557414e-06
C0R490,九如,2017-05-29,22.7405,120.490503,9.8233e-06
C0X200,左鎮,2017-05-29,23.056758,120.408522,0.8707986
C0SB50,叭嗡嗡,2017-05-29,23.047062,121.343223,0.4892399
C1F891,稍來,2017-05-29,24.265689,121.001142,9.137078e-09
72N240,七股研究中心,2017-05-29,23.081672,120.062894,0.10195242
C0C700,中壢,2017-05-29,24.977661,121.256375,0.975591
C0M690,水上,2017-05-29,23.419734,120.388909,0.7962062
C0V690,鼓山,2017-05-29,22.623325,120.275575,0.003968868
C0O860,大內,2017-05-29,23.11885,120.36083,0.99120146
C0Z200,萬榮,2017-05-29,23.709219,121.420106,0.0006716298
C0T9D0,和中,2017-05-29,24.26676,121.74103,0.94032776
C1O921,楠西,2017-05-29,23.183511,120.484083,0.055107135
C0AJ30,淡水觀海,2017-05-29,25.184591,121.408616,0.9988722
C0V810,左營,2017-05-29,22.67491,120.28491,0.0036572863
C0UA70,桃源谷,2017-05-29,24.962606,121.888875,0.0026060839
C0X130,官田,2017-05-29,23.193217,120.315422,0.7442177
C1H000,翠峰,2017-05-29,24.109397,121.205211,4.134412e-09
C0UA90,石城,2017-05-29,24.980444,121.951214,0.99843585
C1E681,南勢山,2017-05-29,24.421669,120.923831,2.8086355e-09
C0A9F0,內湖,2017-05-29,25.079422,121.57545,0.94856083
C0K291,宜梧,2017-05-29,23.536281,120.169329,0.09989887
C1K540,口湖,2017-05-29,23.585344,120.180517,0.035927862
C0R780,滿州,2017-05-29,22.024403,120.839892,0.00054625043
C0V870,文安,2017-05-29,22.8025,120.2164,0.03730335
C0U650,玉蘭,2017-05-29,24.675286,121.587061,7.6094584e-06
C0R640,東港,2017-05-29,22.46247,120.44074,5.217315e-05
K2E360,苗栗農改,2017-05-29,24.495722,120.829111,7.438674e-08
C0AJ80,板橋,2017-05-29,25.0107,121.4489,0.016614674
C0S660,下馬,2017-05-29,23.150427,121.070312,1.8634415e-07
C1H9B1,阿眉,2017-05-29,24.1263,120.994672,1.035481e-08
C0UA20,多加屯,2017-05-29,24.368614,121.373189,4.7400546e-09
C0E730,頭份,2017-05-29,24.688247,120.912206,2.0562778e-08
72V140,高改旗南分場,2017-05-29,22.857861,120.516667,0.08742722
C0K480,莿桐,2017-05-29,23.761192,120.502372,0.08756677
C0U980,坪林石牌,2017-05-29,24.86478,121.77396,2.968021e-07
C0T900,西林,2017-05-29,23.8119,121.441458,1.8409238e-06
C1I150,青雲,2017-05-29,23.793361,120.949378,4.8366537e-08
467350,澎湖,2017-05-29,23.565503,119.563094,0.09478994
C0G800,埔鹽,2017-05-29,24.000394,120.431683,1.6254457e-05
C0H960,草屯,2017-05-29,23.973672,120.68085,0.0370671
C1V780,多納林道,2017-05-29,22.888028,120.737917,1.1238968e-08
C0E920,通霄漁港,2017-05-29,24.498589,120.673876,1.0001153e-06
C0Z330,安通山,2017-05-29,23.290728,121.348528,4.1801584e-08
C0AH10,永和,2017-05-29,25.01125,121.508111,0.016621135
C0AK10,太平里,2017-05-29,25.134937,121.364899,0.9990348
C2G640,鹿港,2017-05-29,24.0753,120.430481,6.929911e-06
C1E890,國三N149K,2017-05-29,24.463414,120.680019,9.893162e-07
C1R110,口社,2017-05-29,22.770111,120.645222,0.0005050838
C1M870,國三N285K,2017-05-29,23.550319,120.505833,0.72633123
467050,新屋,2017-05-29,25.006744,121.047486,0.8906882
C1E480,鳳美,2017-05-29,24.554803,121.034747,2.1461037e-09
C0M530,奮起湖,2017-05-29,23.493903,120.699253,4.751822e-09
C0C590,觀音,2017-05-29,25.027072,121.153317,0.9971726
C0T9M0,靜浦,2017-05-29,23.455167,121.495028,0.004606679
C2H9M0,發祥,2017-05-29,24.154094,121.164517,1.8497369e-08
C0AI40,石牌,2017-05-29,25.115597,121.513139,0.99894434
C1F871,上谷關,2017-05-29,24.203483,121.018644,1.725365e-08
C2H9G0,百勝,2017-05-29,24.051142,120.909361,1.682977e-07
C0G880,二水,2017-05-29,23.810742,120.6173,0.1586829
C0R940,加祿堂,2017-05-29,22.3363,120.6217,0.004565273
C0W220,北竿,2017-05-29,26.220358,119.974881,0.9994278
C0O960,崎頂,2017-05-29,22.959547,120.369317,0.014049129
C0S750,向陽,2017-05-29,23.248397,120.986133,6.269128e-09
C0T9F0,水璉,2017-05-29,23.797131,121.542514,2.8240467e-07
C1M600,頭凍,2017-05-29,23.406364,120.603339,7.2327393e-09
467660,臺東,2017-05-29,22.752211,121.154586,0.41810888
C1D380,新埔,2017-05-29,24.84745,121.03834,3.566672e-08
C2G980,田頭村,2017-05-29,23.8263,120.444175,8.4195e-05
C0V750,路竹,2017-05-29,22.854997,120.259439,0.0037937514
C0N050,蚵寮,2017-05-29,23.301,120.1104,0.0182212
72M700,南改鹿草分場,2017-05-29,23.416869,120.283061,0.0046970304
C1SA50,利嘉林道,2017-05-29,22.82325,121.009389,1.1699323e-08
467550,玉山,2017-05-29,23.487614,120.959522,1.6149425e-08
C0A940,金山,2017-05-29,25.223628,121.643967,0.9992609
C1V340,大津,2017-05-29,22.888322,120.645986,0.0055277944
C0W180,七美,2017-05-29,23.219333,119.444892,0.23869927
C1F9C1,白冷,2017-05-29,24.182844,120.929889,3.904445e-08
K2E710,苗改生物防治研究中心,2017-05-29,24.422861,120.871833,6.317794e-08
C0N040,蘆竹溝,2017-05-29,23.2344,120.0961,0.1170527
C2W230,畜試所澎湖,2017-05-29,23.628342,119.513206,0.1839488
C0R880,後壁湖,2017-05-29,21.9457,120.7457,0.0018639253
C1I280,埔中,2017-05-29,23.820778,120.642594,1.0242531e-08
467790,墾丁雷達站,2017-05-29,21.948235,120.808028,0.0007013111
C0W190,望安,2017-05-29,23.380564,119.494075,0.13668038
466881,新北,2017-05-29,24.9593,121.52,0.02433568
C0Z170,卓溪,2017-05-29,23.3443,121.3029,4.0432064e-06
C0F850,東勢,2017-05-29,24.246428,120.833047,0.004589725
466900,淡水,2017-05-29,25.164889,121.448906,0.9990348
C0I370,魚池,2017-05-29,23.895703,120.94135,1.3894748e-08
C0C630,大溪,2017-05-29,24.882853,121.265547,2.0656355e-06
C0A520,山佳,2017-05-29,24.974944,121.402008,0.0094470065
C0I110,竹山,2017-05-29,23.761225,120.688156,0.025723062
82H840,茶改南部分場,2017-05-29,23.762528,120.7405,1.7652502e-08
C0G660,溪湖,2017-05-29,23.94835,120.479122,0.0020398332
C1T800,洛韶,2017-05-29,24.204558,121.453956,1.3357612e-07
C1T810,慈恩,2017-05-29,24.192044,121.388386,2.2820985e-09
C1E451,象鼻,2017-05-29,24.368617,120.940228,3.6111087e-09
C0AC60,三峽,2017-05-29,24.939025,121.369728,0.002840112
C0I490,萬大林道,2017-05-29,23.928228,121.091411,3.7535988e-09
C1I290,豐丘,2017-05-29,23.668178,120.887417,5.4653926e-09
C1I320,奧萬大,2017-05-29,23.952956,121.178556,3.770979e-09
C2M910,嘉義大學,2017-05-29,23.471325,120.485903,0.96154135
C0U770,南澳,2017-05-29,24.44935,121.81022,1.7344393e-05
C0A980,社子,2017-05-29,25.109508,121.469681,0.9989142
C0V800,六龜,2017-05-29,22.997889,120.633583,0.010151228
C1G9D0,國一S218K,2017-05-29,23.890641,120.493253,0.00024168288
C0E570,白沙屯,2017-05-29,24.549447,120.696803,5.761646e-07
C2F9A0,中竹林,2017-05-29,24.103556,120.751061,0.00349906
C0FA40,臺中電廠,2017-05-29,24.2146,120.4907,0.00071686506
C2G9A0,畜試所彰化,2017-05-29,23.86045,120.557964,0.09172601
C0H9C0,合歡山,2017-05-29,24.143442,121.272547,1.1693568e-08
C0X060,下營,2017-05-29,23.22695,120.256261,0.29322383
G2M350,農試溪口農場,2017-05-29,23.58565,120.408111,0.35347113
C0U860,頭城,2017-05-29,24.85323,121.8308,0.99919236
C0R580,南州,2017-05-29,22.48591,120.50274,5.217315e-05
C0D430,峨眉,2017-05-29,24.6905,121.017189,2.9033417e-08
C0G780,秀水,2017-05-29,24.03405,120.503869,0.0007456789
72N100,臺南農改場,2017-05-29,23.0605,120.342194,0.9891809
C0S900,蘭嶼高中,2017-05-29,22.04909,121.51214,0.002891685
467540,大武,2017-05-29,22.355675,120.903789,0.7233906
C1F9W0,德基,2017-05-29,24.254783,121.190261,7.9126865e-09
C1Z120,壽豐,2017-05-29,23.870853,121.508081,0.043762393
C0W160,烏坵,2017-05-29,24.9944,119.44956,0.8958491
C1I240,外大坪,2017-05-29,23.958697,120.917931,7.933254e-09
C1I550,國六W023K,2017-05-29,23.979067,120.867742,4.4242483e-07
C0R870,興海,2017-05-29,21.9752,120.8439,0.00056249753
C0R140,瑪家,2017-05-29,22.682903,120.686639,1.0911443e-07
C0A530,坪林,2017-05-29,24.938183,121.70975,0.509687
C0X260,後壁,2017-05-29,23.366358,120.362326,0.113360636
C0Z230,和平,2017-05-29,24.30717,121.77007,0.967849
C0G770,福興,2017-05-29,24.041289,120.437669,1.6297528e-05
C0H9A0,神木村,2017-05-29,23.532742,120.843667,6.2075056e-09
C0I460,南投,2017-05-29,23.911469,120.687331,0.22606269
C0I480,梅峰,2017-05-29,24.085272,121.173572,3.808494e-09
C1V570,吉東,2017-05-29,22.85422,120.5454,0.05879162
C2D740,屯原,2017-05-29,24.067969,121.209389,3.3074505e-09
C2A560,福山,2017-05-29,24.776203,121.502811,0.46079087
C0AH30,五分山,2017-05-29,25.07125,121.780794,3.3716027e-05
C0FA10,松柏,2017-05-29,24.429115,120.617482,3.9454317e-06
72S200,東改班鳩分場,2017-05-29,22.829528,121.077694,0.35345238
72HA00,中改埔里分場,2017-05-29,23.903208,120.963364,5.608816e-09
C2H9W0,大坪頂農水,2017-05-29,24.043122,120.932781,1.531799e-08
C0C650,平鎮,2017-05-29,24.897503,121.214636,2.9648857e-06
C0S930,延平,2017-05-29,22.902581,121.084058,0.15374495
C0UA60,樟樹山,2017-05-29,24.41393,121.78325,1.0842503e-05
C1S670,摩天,2017-05-29,23.199503,121.027,3.979153e-08
C0V630,茄萣,2017-05-29,22.906642,120.182608,0.005461965
466940,基隆,2017-05-29,25.133314,121.740475,0.99729073
C0X050,東河,2017-05-29,23.296598,120.385608,0.98077285
C0R770,保力,2017-05-29,22.071122,120.764111,0.0959189
G2L020,農試嘉義分所,2017-05-29,23.485028,120.473806,0.8227145
C0X240,關子嶺,2017-05-29,23.331169,120.508025,0.00019655189
C0I380,集集,2017-05-29,23.828206,120.801467,9.3632707e-07
466990,花蓮,2017-05-29,23.975128,121.613275,0.99391997
C1V220,小關山,2017-05-29,23.154217,120.813603,9.0306616e-09
C1F9G1,慶福山,2017-05-29,24.180853,120.848378,7.264597e-08
C0Z250,瑞穗林道,2017-05-29,23.49284,121.30688,1.4216205e-06
C0D590,新豐,2017-05-29,24.87068,120.97721,4.247428e-08
C0A870,五指山,2017-05-29,25.132153,121.608692,3.6950933e-06
C0UA50,西帽山,2017-05-29,24.555361,121.802628,6.1876733e-07
C0X160,仁德,2017-05-29,22.968258,120.257689,0.015185576
C1H971,六分寮,2017-05-29,23.92507,120.6378,5.755277e-06
C0W120,西嶼,2017-05-29,23.5626,119.468436,0.20760363
C0G650,員林,2017-05-29,23.946503,120.585597,0.12118863
C0AD50,鶯歌,2017-05-29,24.951533,121.346294,0.0015471567
C2H9Q0,北東眼山,2017-05-29,24.120939,121.189303,6.4523964e-09
C2H9T0,名間竹圍,2017-05-29,23.859914,120.637572,8.119809e-08
C0S990,山豬窟,2017-05-29,22.318619,120.857372,0.393054
72Q010,高雄農改,2017-05-29,22.709333,120.525889,8.559446e-06
C0X190,安平,2017-05-29,22.993161,120.152181,0.06267578
C0K400,斗六,2017-05-29,23.720583,120.541127,0.009146732
12J990,口湖工作站,2017-05-29,23.589978,120.180394,0.035927862
C0O830,北寮,2017-05-29,23.079561,120.495008,0.0533143
C1D410,白蘭,2017-05-29,24.579364,121.079947,2.2022457e-09
C0S970,加津林,2017-05-29,22.416211,120.926942,0.8455902
C0D700,關西,2017-05-29,24.7977,121.1732,3.331963e-08
C0M810,里佳,2017-05-29,23.389125,120.716647,3.6927552e-09
C0U750,龜山島,2017-05-29,24.841667,121.953133,0.99414414
C0R810,內獅,2017-05-29,22.305064,120.642986,0.003918187
C1M390,龍美,2017-05-29,23.406728,120.654417,4.7017856e-09
C2FB60,頭櫃山,2017-05-29,24.129842,120.858925,1.0270878e-08
C1H840,國三N238K,2017-05-29,23.841008,120.707711,6.971419e-07
CAQ030,崎峰國小,2017-05-29,22.42565,120.49521,5.217315e-05
C2E520,大湖,2017-05-29,24.414939,120.870872,3.2909277e-08
467530,阿里山,2017-05-29,23.508208,120.813242,8.253182e-09
C1E691,南湖,2017-05-29,24.40135,120.837533,3.3869179e-09
C0FA30,梧棲,2017-05-29,24.256003,120.523381,0.0002926655
C1V231,高中,2017-05-29,23.134911,120.716711,8.425823e-09
C0F9V0,新社,2017-05-29,24.200172,120.815806,1.0388543e-07
C0H890,埔里,2017-05-29,23.972169,120.952425,7.499991e-08
C0R690,墾丁,2017-05-29,21.966756,120.810269,0.013079861
C0F0D0,審馬陣,2017-05-29,24.381675,121.4203,7.702193e-09
C0R820,白鷺,2017-05-29,22.454275,120.666219,1.6583465e-08
U2H480,臺大溪頭,2017-05-29,23.670306,120.798194,5.7289933e-09
C1V190,南天池,2017-05-29,23.27403,120.91176,5.748784e-09
K2E360,苗栗農改場,2017-05-29,24.495722,120.829111,7.438674e-08
CAJ050,海口故事園區,2017-05-29,23.57543,120.14121,0.035927862
C2H9D0,三隻寮,2017-05-29,24.093078,120.861578,1.3805459e-08
C0O990,媽廟,2017-05-29,22.99175,120.293525,0.5074148
C0D480,打鐵坑,2017-05-29,24.849664,121.150789,3.0729373e-07
C0Z220,和平林道,2017-05-29,24.343922,121.656317,4.687631e-08
C0TA10,花蓮漁港,2017-05-29,23.995322,121.638331,0.9939251
72C440,桃園農改場,2017-05-29,24.950944,121.030583,1.967364e-05
C1E711,馬拉邦山,2017-05-29,24.367306,120.901656,3.5752383e-09
C0SB20,富岡,2017-05-29,22.792467,121.192669,0.35490736
C0D560,竹東,2017-05-29,24.767147,121.057881,4.909326e-08
C0F9U0,南屯,2017-05-29,24.137006,120.637969,0.0011782355
C0M720,番路,2017-05-29,23.464657,120.554156,0.40291175
C0F0A0,雪山圈谷,2017-05-29,24.388594,121.236339,1.2704607e-08
C1A9N0,四十份,2017-05-29,24.934158,121.593283,0.99537313
C0U760,東澳,2017-05-29,24.52196,121.83318,0.27397418
C0X230,鹽水,2017-05-29,23.272621,120.247641,0.014993283
C2H9H0,苗改南投蜂場,2017-05-29,23.852589,120.693481,0.017319992
C0R950,萬隆國小,2017-05-29,22.507667,120.587817,0.00024733756
C0V370,古亭坑,2017-05-29,22.893178,120.401947,0.017698541
C1I340,新興橋,2017-05-29,23.563333,120.868728,9.720656e-09
C0SA80,土坂,2017-05-29,22.453108,120.887572,0.97724915
C0R160,鹽埔,2017-05-29,22.739558,120.530778,8.644539e-06
C0AC40,大屯山,2017-05-29,25.175675,121.522408,4.0329869e-07
466850,五分山雷達站,2017-05-29,25.071182,121.781205,2.9455514e-05
C2H9L0,馬烈霸,2017-05-29,24.1512,121.201772,6.376506e-09
C1AI50,國三N016K,2017-05-29,25.034164,121.619664,0.98407394
C1V600,藤枝,2017-05-29,23.071961,120.757042,9.670541e-09
C1E601,南勢,2017-05-29,24.572486,120.734842,8.290324e-08
C0Z180,新城,2017-05-29,24.03946,121.60454,0.99375755
C0O980,新市,2017-05-29,23.061614,120.298197,0.993085
C0K420,西螺,2017-05-29,23.800407,120.467394,5.7384153e-05
C0Z050,佳心,2017-05-29,23.34567,121.21316,3.181371e-08
C0AD30,蘆洲,2017-05-29,25.086594,121.472331,0.92282724
C0V610,梓官,2017-05-29,22.760558,120.267211,0.016123058
K2F750,種苗改良場,2017-05-29,24.225972,120.800917,3.477279e-07
C0UA80,大溪漁港,2017-05-29,24.941801,121.902955,0.9978058
C1AI60,國一39K邊坡,2017-05-29,25.064361,121.383836,0.99891746
C0W150,金寧,2017-05-29,24.457703,118.328989,0.9995892
C0R960,內埔,2017-05-29,22.608483,120.570714,0.010279652
V2C250,八德合作社,2017-05-29,24.93775,121.266389,4.9875995e-05
C2H9S0,龍南,2017-05-29,23.953536,120.833183,2.4496047e-09
C0AH40,平等,2017-05-29,25.129142,121.577086,0.7362438
C0R540,佳冬,2017-05-29,22.419456,120.552375,0.086965844
466950,彭佳嶼,2017-05-29,25.627975,122.079744,0.9995157
C0A890,雙溪,2017-05-29,25.036003,121.864242,0.9995511
C0C480,桃園,2017-05-29,24.992425,121.323172,0.94966894
C0AH50,林口,2017-05-29,25.072181,121.38084,0.9992877
A2K360,水試臺西試驗場,2017-05-29,23.717231,120.190522,0.0060883737
B2N890,畜試所,2017-05-29,23.058972,120.336406,0.9891809
C2M960,外寮,2017-05-29,23.562643,120.665688,5.8938743e-09
C0F9S0,烏日,2017-05-29,24.107058,120.624103,0.05475313
C0C490,八德,2017-05-29,24.928708,121.283289,2.9633748e-05
C0R190,赤山,2017-05-29,22.592333,120.614306,0.007533952
C0T820,天祥,2017-05-29,24.179597,121.495639,0.88608515
C1F9E1,龍安,2017-05-29,24.1605,120.831961,2.9150667e-06
C0V820,小林,2017-05-29,23.148408,120.63325,1.1153887e-06
C2G870,芳苑,2017-05-29,23.922303,120.320025,6.582999e-05
C0E850,大河,2017-05-29,24.618069,120.948578,2.0837572e-08
C1U670,寒溪,2017-05-29,24.634,121.71691,0.18166076
C0N020,城西,2017-05-29,23.0568,120.0956,0.06267578
C1Z110,三棧,2017-05-29,24.11557,121.60501,0.00010620239
C0R280,檳榔,2017-05-29,22.076078,120.836777,0.1498351
C2H9J0,中台,2017-05-29,23.9996,120.938739,2.6033579e-08
C0F9L0,后里,2017-05-29,24.310436,120.729725,0.018032443
C0D540,橫山,2017-05-29,24.71116,121.11693,2.2104022e-08
C1D420,太閣南,2017-05-29,24.632808,121.160575,6.003178e-09
C1E770,公館,2017-05-29,24.526914,120.830806,1.2224072e-07
CAN130,水試所海水繁養殖中心,2017-05-29,23.120802,120.07968,0.10195242
C1I430,翠華,2017-05-29,24.191961,121.224339,2.7409113e-09
C1M400,菜瓜坪,2017-05-29,23.251928,120.576103,1.2002868e-06
C0G730,二林,2017-05-29,23.903325,120.376081,1.0752475e-05
72M360,南改義竹分場,2017-05-29,23.360694,120.279361,0.003853267
V2K620,麥寮合作社,2017-05-29,23.753836,120.294783,4.8372665e-05
C0Z070,舞鶴,2017-05-29,23.46811,121.37407,1.5576606e-07
C0B040,大武崙,2017-05-29,25.166676,121.706993,0.99814004
C1Z030,紅葉,2017-05-29,23.493119,121.338806,5.5945034e-06
C1I050,丹大,2017-05-29,23.753747,121.141147,5.316898e-09
C0I080,信義,2017-05-29,23.689694,120.851036,2.9183573e-06
C2M920,朴子農改,2017-05-29,23.469889,120.259383,0.0046970304
C2A880,福隆,2017-05-29,25.017842,121.942083,0.9984257
C0Z160,鳳林,2017-05-29,23.746114,121.453411,0.0074766097
C0V210,復興,2017-05-29,23.222403,120.806089,3.4243322e-07
C0H990,昆陽,2017-05-29,24.121322,121.273642,7.4043434e-09
C0R741,獅子,2017-05-29,22.202308,120.705236,0.057313174
C0S710,鹿野,2017-05-29,22.917711,121.122994,1.7655978e-07
C0I530,小奇萊,2017-05-29,24.131764,121.295717,7.952373e-09
C2K630,荷苞,2017-05-29,23.657717,120.595144,0.13091865
C0Z080,富源,2017-05-29,23.587642,121.378225,0.00012288133
467441,高雄,2017-05-29,22.7304,120.3125,0.011877898
C0SB10,美和,2017-05-29,22.682078,121.060236,0.9284495
C2K620,馬光農場,2017-05-29,23.721453,120.378864,8.517657e-05
C1I140,卡奈托灣,2017-05-29,23.754364,121.087872,3.2167895e-09
C0I520,玉山風口,2017-05-29,23.470489,120.955994,1.8580678e-08
C1G691,下水埔,2017-05-29,23.816114,120.5676,0.05366226
C0X110,臺南市南區,2017-05-29,22.961189,120.188378,0.015185547
C0V680,仁武,2017-05-29,22.701083,120.347722,0.0036572863
C2G840,北斗,2017-05-29,23.877586,120.514222,0.00022660177
C0R900,竹坑,2017-05-29,22.1385,120.7022,0.009873173
C0K250,崙背,2017-05-29,23.75555,120.318925,4.8372665e-05
C0G860,社頭,2017-05-29,23.897647,120.5862,0.09017126
C0X150,安定,2017-05-29,23.102614,120.227839,0.3130087
C0R590,里港,2017-05-29,22.77919,120.49459,0.05571887
C0E610,馬都安,2017-05-29,24.451272,120.930192,2.9476217e-09
C0E550,明德,2017-05-29,24.583486,120.885411,2.5553476e-08
C0R150,三地門,2017-05-29,22.709889,120.639944,0.00063074223
C0G910,花壇,2017-05-29,24.032076,120.549461,0.0005866054
C1D400,鳥嘴山,2017-05-29,24.71909,121.28387,5.5936455e-09
C0K500,元長,2017-05-29,23.64981,120.315024,4.2707827e-05
C0F0B0,石岡,2017-05-29,24.276061,120.777644,0.0027543814
C2V250,甲仙,2017-05-29,23.080106,120.591758,0.00089350564
C0SA20,金崙山,2017-05-29,22.567419,120.959667,2.1274914e-08
C0V350,溪埔,2017-05-29,22.738578,120.446797,0.021076808
C0M660,溪口,2017-05-29,23.604131,120.403569,0.35347113
C1S880,壽卡,2017-05-29,22.238911,120.858903,0.10170852
72D680,桃改新埔分場,2017-05-29,24.834444,121.066111,4.1466e-08
