站號,站名,日期,lat,lon,BLBTSLS
C0R710,龍磐,2017-03-02,21.931672,120.838942,0.9997996
C1F9D1,白毛台,2017-03-02,24.158325,120.886933,2.4432867e-09
C0G940,竹塘,2017-03-02,23.848253,120.386764,2.7897302e-09
467590,恆春,2017-03-02,22.003897,120.746339,0.9995684
C1O850,環湖,2017-03-02,23.148617,120.418633,2.4577937e-10
C0U710,太平山,2017-03-02,24.505486,121.525656,2.4731545e-08
C0E820,獅潭,2017-03-02,24.539133,120.920042,6.8701516e-09
C0V880,興達,2017-03-02,22.8778,120.2127,3.2293412e-10
C0S890,關山,2017-03-02,23.0395,121.175017,1.4023899e-09
C0SB30,新蘭,2017-03-02,22.869214,121.223228,1.3747119e-09
C2R970,屏科大,2017-03-02,22.648275,120.619247,4.3830313e-09
K2F750,種苗繁殖,2017-03-02,24.225972,120.800917,2.8304588e-09
C1Z130,銅門,2017-03-02,23.965694,121.492842,3.3709284e-09
C0AD40,土城,2017-03-02,24.973208,121.445169,1.3221491e-08
CAN140,六官養殖協會,2017-03-02,23.22881,120.29962,4.4640067e-10
C0X180,山上,2017-03-02,23.0757,120.363253,3.0645783e-10
C0F9Z0,雪山東峰,2017-03-02,24.388792,121.268675,2.2957119e-08
C1M480,獨立山,2017-03-02,23.537022,120.607797,1.0328335e-09
C0X220,學甲,2017-03-02,23.230367,120.182187,9.773226e-10
467650,日月潭,2017-03-02,23.881325,120.90805,4.3043675e-09
C0K600,箔子寮,2017-03-02,23.6197,120.14,1.1999837e-08
C0G830,埤頭,2017-03-02,23.866003,120.452806,1.0620762e-09
C0S950,七塊厝,2017-03-02,22.954453,121.229922,1.3958652e-09
467110,金門,2017-03-02,24.407306,118.289281,6.466765e-08
C0AH80,深坑,2017-03-02,25.002703,121.628328,1.30319115e-08
467990,馬祖,2017-03-02,26.169269,119.923419,1.6443155e-07
C0A970,三貂角,2017-03-02,25.007606,122.002058,3.1432453e-08
C2D730,寶山農場,2017-03-02,24.732444,120.976153,6.686499e-09
C0K430,褒忠,2017-03-02,23.690938,120.303634,1.9530697e-09
467480,嘉義,2017-03-02,23.495925,120.432906,3.4575665e-10
C2E540,後龍,2017-03-02,24.606489,120.783933,1.495342e-08
C0V400,阿公店,2017-03-02,22.804194,120.355528,8.220264e-10
C0R440,大漢山,2017-03-02,22.405264,120.753181,2.5069745e-08
C0K280,四湖,2017-03-02,23.630414,120.227125,7.658334e-09
C1F9B1,桐林,2017-03-02,24.066172,120.735194,9.920488e-10
C2H9U0,鳳鵬,2017-03-02,23.763919,120.788061,1.2963483e-09
C0K390,土庫,2017-03-02,23.679029,120.395574,7.339408e-10
C1I450,望鄉山,2017-03-02,23.594153,120.944286,1.1799677e-08
C0E910,海埔,2017-03-02,24.648767,120.772435,1.5244453e-08
B2E890,畜試北區分所,2017-03-02,24.527806,120.770972,6.0269496e-09
C0R750,四林格山,2017-03-02,22.076989,120.802439,5.2573387e-07
C0F0C0,中坑,2017-03-02,24.248517,120.903319,4.203871e-09
C1I121,大鞍,2017-03-02,23.678381,120.760017,5.8233423e-09
72U480,花改蘭陽分場,2017-03-02,24.686306,121.716583,2.6494222e-09
C0A770,科教館,2017-03-02,25.096356,121.516507,1.15077095e-08
C0AJ60,六塊厝,2017-03-02,25.24,121.4481,1.9985463e-07
C0R620,墾雷,2017-03-02,21.900836,120.855269,0.802392
467420,永康,2017-03-02,23.038386,120.2367,8.419023e-10
467300,東吉島,2017-03-02,23.25695,119.667467,0.9747966
C0I410,名間,2017-03-02,23.837053,120.701447,9.960018e-10
A2C560,農工中心,2017-03-02,24.985917,121.239833,2.4421556e-08
C0V740,旗山,2017-03-02,22.888614,120.483597,1.1159587e-09
C0Z061,玉里,2017-03-02,23.3215,121.339656,2.8941678e-09
C0S840,南田,2017-03-02,22.279725,120.889208,0.571894
C1I470,杉林溪,2017-03-02,23.639517,120.786444,6.8963963e-09
C1X040,東原,2017-03-02,23.291597,120.463822,3.581755e-10
C0R660,枋寮,2017-03-02,22.367722,120.590647,7.87757e-09
C1R120,上德文,2017-03-02,22.763272,120.704442,1.3584939e-09
C0K450,大埤,2017-03-02,23.646074,120.431537,5.2556937e-10
C0UA00,土場,2017-03-02,24.576533,121.495333,1.2178628e-08
467080,宜蘭,2017-03-02,24.763975,121.756528,3.4467695e-09
C0N030,四草,2017-03-02,23.0235,120.1116,4.3893533e-10
C0V650,彌陀,2017-03-02,22.783806,120.246361,1.4821742e-09
C0D660,新竹市東區,2017-03-02,24.798681,120.986942,9.6513215e-09
82S580,茶改東部分場,2017-03-02,22.907694,121.130139,1.3869508e-09
C0SB40,興隆,2017-03-02,22.913661,121.257469,1.3564174e-09
C0C710,大溪永福,2017-03-02,24.892936,121.324975,1.4648372e-08
C0FA20,溫寮,2017-03-02,24.372177,120.583125,1.8482451e-08
C0V640,湖內,2017-03-02,22.887139,120.2445,3.234587e-10
C0R910,下寮,2017-03-02,22.3929,120.5548,7.87757e-09
C0Z020,明里,2017-03-02,23.208717,121.262342,3.4288294e-09
C0M770,嘉義梅山,2017-03-02,23.585398,120.555587,5.772162e-10
G2F820,農業試驗所,2017-03-02,24.031261,120.688133,9.611875e-10
C0C660,楊梅,2017-03-02,24.912375,121.143047,1.6270034e-08
C1E511,新開,2017-03-02,24.347703,120.827019,2.021939e-09
G2F820,農試所(霧峰),2017-03-02,24.031261,120.688133,9.611892e-10
C1I070,和社,2017-03-02,23.591131,120.888861,1.7436023e-09
C2F000,大肚,2017-03-02,24.15295,120.572117,1.4135588e-09
C1S850,豐南,2017-03-02,23.122139,121.262389,2.0648525e-09
C2A920,富貴角,2017-03-02,25.263783,121.565258,1.1850542e-07
CAH030,茶改場竹圍站,2017-03-02,23.860083,120.637528,1.306548e-09
C0T960,光復,2017-03-02,23.660694,121.424964,3.3676575e-09
C0F9M0,豐原,2017-03-02,24.254322,120.720692,1.989787e-09
C0R720,旭海,2017-03-02,22.205403,120.887614,0.00019506965
C0V710,苓雅,2017-03-02,22.622742,120.330669,1.4427846e-08
C0C740,觀音工業區,2017-03-02,25.064764,121.114856,2.2994571e-07
CAC040,拉拉山,2017-03-02,24.699317,121.427133,3.6184538e-08
C0V790,萬山,2017-03-02,22.905944,120.688056,7.025641e-10
U2HA30,臺大和社,2017-03-02,23.590856,120.888864,1.7436023e-09
C0AJ90,澳底,2017-03-02,25.0552,121.9253,1.17096974e-07
C0Z100,東華,2017-03-02,23.89525,121.549833,2.717782e-09
C0G970,三豐,2017-03-02,23.882,120.2895,1.8247658e-08
V2K610,大庄合作社,2017-03-02,23.8068,120.367939,2.3191862e-09
C0V900,汕尾,2017-03-02,22.4782,120.4151,2.783294e-09
C1R630,龍泉,2017-03-02,22.66701,120.59091,2.3039103e-08
C1AC50,關渡,2017-03-02,25.133486,121.469331,1.9235614e-08
C0F9I0,神岡,2017-03-02,24.272481,120.658314,2.9208531e-09
C0K460,斗南,2017-03-02,23.678734,120.478359,5.2806837e-10
467410,臺南,2017-03-02,22.993239,120.204772,4.3653997e-10
C2O810,曾文,2017-03-02,23.219681,120.497328,2.6999813e-10
467280,後龍,2017-03-02,24.648563,120.831834,1.475414e-08
C1F9J1,清水林,2017-03-02,24.071242,120.820419,1.8355862e-09
C2A650,火燒寮,2017-03-02,25.002719,121.742892,2.7443233e-08
466930,竹子湖,2017-03-02,25.162078,121.544547,1.682564e-08
C1I220,樟湖,2017-03-02,23.905333,120.846983,3.4467498e-09
C0I390,仁愛,2017-03-02,24.022122,121.132206,2.7738394e-09
C0Z300,東里,2017-03-02,23.26853,121.30547,3.3198446e-09
C1V590,新發,2017-03-02,23.057019,120.646064,1.4230541e-09
C0K510,水林,2017-03-02,23.572924,120.24597,1.2492472e-09
72S590,東改賓朗果園,2017-03-02,22.813889,121.071278,2.0088653e-09
82A750,茶改北部分場,2017-03-02,24.955778,121.631222,4.096954e-08
C1A750,石碇服務區,2017-03-02,25.00872,121.646242,2.8075016e-08
C0X300,鹿寮,2017-03-02,23.386047,120.477331,3.9246448e-10
G2AI50,關渡,2017-03-02,25.11575,121.492,4.4261473e-08
C0K590,雲林東勢,2017-03-02,23.674192,120.255721,1.4458554e-09
C0A570,桶後,2017-03-02,24.848222,121.597992,1.2859957e-08
C1S800,華源,2017-03-02,22.657883,121.02325,6.442979e-08
C0G720,溪州,2017-03-02,23.851589,120.499093,1.0762982e-09
C1V160,達卡努瓦,2017-03-02,23.279811,120.705319,1.5697457e-09
C2M410,馬頭山,2017-03-02,23.324361,120.582017,3.7922981e-10
C0V850,蚵仔寮,2017-03-02,22.7256,120.2527,1.5248467e-08
C0S740,池上,2017-03-02,23.119628,121.209469,1.8694886e-09
C1V390,尖山,2017-03-02,22.813153,120.367789,7.0070666e-10
C0AH70,松山,2017-03-02,25.04871,121.55042,1.1407641e-08
C0N010,鯤鯓國小,2017-03-02,23.1879,120.0889,9.119053e-10
C0R550,新埤,2017-03-02,22.467947,120.582894,2.3309648e-09
C0SA60,知本（水試所）,2017-03-02,22.702394,121.082761,1.690731e-07
C0T9I0,豐濱,2017-03-02,23.583897,121.514806,2.3980364e-09
C0UB00,淡江大學蘭陽校園,2017-03-02,24.823239,121.730383,1.3035144e-08
C0W240,九宮,2017-03-02,24.423753,118.240186,6.544741e-08
C0T9N0,富里,2017-03-02,23.171639,121.249378,2.3005455e-09
U2HA50,臺大竹山,2017-03-02,23.756972,120.681556,7.848994e-10
C0V840,鳳鼻頭,2017-03-02,22.5083,120.3591,9.215623e-10
C0X140,西港,2017-03-02,23.125608,120.203108,4.3963916e-10
72D080,桃改五峰分場,2017-03-02,24.612194,121.157167,6.792923e-09
C2H9P0,伊拿谷,2017-03-02,23.963211,121.088264,2.619315e-09
C2H9F0,柑林,2017-03-02,24.018658,120.847072,1.0452873e-09
C0TA20,加灣,2017-03-02,24.082025,121.608944,2.8495275e-08
C0V530,阿蓮,2017-03-02,22.883208,120.327508,2.143919e-09
C1O880,關山,2017-03-02,23.173397,120.594092,2.6002983e-10
C0E791,卓蘭,2017-03-02,24.3126,120.8244,2.160866e-09
C1I030,武界,2017-03-02,23.913225,121.052483,2.7108757e-09
C0R520,崁頂,2017-03-02,22.514781,120.506914,3.753128e-08
C0R341,牡丹,2017-03-02,22.130036,120.792639,0.275214
C0R930,萬丹,2017-03-02,22.5885,120.4851,1.9510666e-09
C0S760,紅石,2017-03-02,23.069131,121.126219,2.1523643e-08
C1M610,石磐龍,2017-03-02,23.496606,120.663506,2.9456377e-09
C0UA10,鴛鴦湖,2017-03-02,24.590269,121.412228,1.9345554e-08
V2C260,八德蔬果,2017-03-02,24.978508,121.281819,1.2395496e-08
C0R800,丹路,2017-03-02,22.204481,120.750989,0.04694766
C0G920,永靖,2017-03-02,23.924703,120.547533,1.2043075e-09
C2M950,太和,2017-03-02,23.538372,120.702961,3.893927e-09
C1A630,下盆,2017-03-02,24.771003,121.538622,1.1128133e-08
B2N890,畜產試驗所,2017-03-02,23.058972,120.336406,7.2709944e-10
C0UA30,白嶺,2017-03-02,24.527819,121.519031,1.7278479e-08
C1V580,溪南(特生中心),2017-03-02,23.084972,120.788475,4.1160004e-09
C1T970,大農,2017-03-02,23.615233,121.413331,2.514487e-09
E2S960,林試太麻里2,2017-03-02,22.598014,120.989761,1.5431013e-07
C0R650,竹田,2017-03-02,22.58486,120.54344,1.6458891e-07
C1H900,清流,2017-03-02,24.080775,120.962997,2.7518383e-09
C1C510,水尾,2017-03-02,24.940081,121.087161,3.9832077e-08
C0F9X0,大雅(中科園區),2017-03-02,24.21528,120.62445,2.0761748e-09
C0SB60,白守蓮,2017-03-02,23.126769,121.401914,2.144741e-09
C0O970,虎頭埤,2017-03-02,23.021375,120.347878,4.4416698e-10
C0C730,中大臨海站,2017-03-02,24.966126,121.008581,8.472562e-08
C0X250,新營,2017-03-02,23.310689,120.316681,4.2653897e-10
C0V700,三民,2017-03-02,22.645017,120.311233,2.5957618e-08
C0U870,大礁溪,2017-03-02,24.791042,121.675047,1.0686136e-08
C0E870,高鐵苗栗,2017-03-02,24.60725,120.826094,1.48751065e-08
A2K570,古坑花卉中心,2017-03-02,23.63353,120.55239,6.59974e-10
C0M860,新美,2017-03-02,23.338017,120.683169,5.889242e-10
C1E701,八卦,2017-03-02,24.491756,120.927619,7.573632e-09
C0I420,國姓,2017-03-02,24.037803,120.855072,1.0679468e-09
C2D720,關西工作站,2017-03-02,24.757275,121.184792,6.1556515e-09
C0S960,香蘭,2017-03-02,22.587569,120.993375,1.5431013e-07
C0R260,春日,2017-03-02,22.370361,120.628306,5.3676827e-09
72G600,臺中農改場,2017-03-02,24.003028,120.534389,1.4567619e-09
C0Z210,瑞穗,2017-03-02,23.5239,121.39021,2.0940314e-09
C0M820,達邦,2017-03-02,23.453994,120.749517,2.1429747e-09
C0V860,南寮,2017-03-02,22.7616,120.2339,1.5248467e-08
C0G740,大城,2017-03-02,23.852487,120.320935,1.7844e-08
C0R920,塭仔,2017-03-02,22.4169,120.5197,8.009411e-09
C0R470,高樹,2017-03-02,22.826389,120.600806,6.546539e-07
C0R680,佳樂水,2017-03-02,21.993578,120.861633,0.9995164
C1O870,大棟山,2017-03-02,23.31157,120.52226,1.5929336e-09
C0D360,梅花,2017-03-02,24.678347,121.208558,4.7634376e-09
C0Z190,富世,2017-03-02,24.14743,121.6297,1.8197122e-08
C0AI10,屈尺,2017-03-02,24.92184,121.54475,2.7832423e-08
B2U990,畜試東區分所,2017-03-02,24.669039,121.832561,3.9678585e-09
C0SB80,長濱漁港,2017-03-02,23.313644,121.459994,2.7027751e-09
C0R240,來義,2017-03-02,22.527306,120.625111,5.65078e-09
C0V910,大樹,2017-03-02,22.684645,120.432803,1.3236421e-09
C1R610,西大武山,2017-03-02,22.617719,120.7322,2.6155218e-08
C0G900,線西,2017-03-02,24.143358,120.443536,1.14663e-08
C0M700,竹崎,2017-03-02,23.526178,120.555508,4.088207e-10
C2E880,三義,2017-03-02,24.405478,120.749819,3.982355e-09
C0C720,竹圍,2017-03-02,25.112692,121.239824,4.4261473e-08
C0F9P0,清水,2017-03-02,24.312297,120.562242,1.439692e-08
C0Z150,吉安光華,2017-03-02,23.930925,121.595153,3.1391456e-09
C1D640,外坪(五指山),2017-03-02,24.644447,121.090961,4.678634e-09
C0F9O0,潭子,2017-03-02,24.213106,120.703933,1.7339316e-09
C2H9R0,卓社,2017-03-02,23.887894,121.000086,2.551825e-09
72T250,花蓮農改場,2017-03-02,23.975222,121.563889,3.9878736e-09
C0E780,銅鑼,2017-03-02,24.489681,120.790853,6.2058243e-09
C1T950,太安,2017-03-02,23.666719,121.370128,5.2487863e-08
C0E830,苑裡,2017-03-02,24.439714,120.653053,2.3004588e-08
467270,田中,2017-03-02,23.873803,120.581286,8.067376e-10
C0SA10,檳榔四格山,2017-03-02,22.810031,121.109308,2.0029962e-09
C1T830,布洛灣,2017-03-02,24.17184,121.57127,3.4192507e-08
C0F970,大坑,2017-03-02,24.173142,120.722289,1.2854776e-09
C1U920,思源,2017-03-02,24.393125,121.347214,1.4514293e-08
C0A931,三和,2017-03-02,25.233153,121.595236,5.147943e-08
C0I010,廬山,2017-03-02,24.033311,121.181808,4.6745665e-09
C2M940,日野賀,2017-03-02,23.434056,120.727169,2.7386486e-09
C0R860,鼻頭,2017-03-02,22.1043,120.8979,0.99906033
C0UB20,壯圍,2017-03-02,24.7359,121.8163,2.5629954e-09
C0R790,九棚,2017-03-02,22.14195,120.889281,0.93396986
C0W110,東莒,2017-03-02,25.9652,119.98069,1.645503e-07
C1U930,粉鳥林,2017-03-02,24.497088,121.842479,4.9900692e-09
C1I211,蘆竹湳,2017-03-02,23.934019,120.811994,1.3525628e-09
C0S830,長濱,2017-03-02,23.286817,121.411975,3.1532477e-09
C1F9F1,伯公龍,2017-03-02,24.272392,120.849047,3.0599538e-09
C0E810,西湖,2017-03-02,24.562947,120.7485,5.6063055e-08
C1I440,新高口,2017-03-02,23.478744,120.878939,8.871056e-09
C0O840,王爺宮,2017-03-02,23.222064,120.40085,3.480035e-10
C0T9G0,鳳林山,2017-03-02,23.735269,121.420131,5.9772534e-09
C0X080,佳里,2017-03-02,23.173039,120.145086,9.119053e-10
C0FB70,大甲溪埔,2017-03-02,24.370625,120.620067,1.7887277e-08
C0Z310,清水斷崖,2017-03-02,24.218294,121.689142,1.5003101e-08
C0M680,太保,2017-03-02,23.455062,120.331455,3.1516828e-10
C1S820,金峰,2017-03-02,22.590969,120.933236,5.0325387e-08
C0AD10,八里,2017-03-02,25.150211,121.403947,4.4261473e-08
C2K240,草嶺,2017-03-02,23.59555,120.693461,3.3752197e-09
C1SA70,都蘭,2017-03-02,22.87794,121.226881,1.3564174e-09
C0K440,二崙,2017-03-02,23.772797,120.408944,9.566863e-10
C1A760,坪林交控,2017-03-02,24.94284,121.713442,1.9591859e-08
C0F9N0,大里,2017-03-02,24.092464,120.701378,9.510462e-10
C0SA90,達仁林場,2017-03-02,22.264347,120.823972,3.0439267e-06
C1R290,石門山,2017-03-02,22.112611,120.756597,0.00015189886
42HA10,萬大發電廠,2017-03-02,23.978875,121.139639,3.2133431e-09
C0R890,山海,2017-03-02,21.9878,120.7091,0.9986596
C0T9A0,月眉山,2017-03-02,23.809928,121.539828,4.320893e-09
C0AC70,信義,2017-03-02,25.037822,121.564597,1.1407641e-08
C0K560,棋山,2017-03-02,23.68645,120.603417,6.6411837e-10
C2FB50,出雲,2017-03-02,24.206469,120.902794,4.6205293e-09
C1Z240,中平林道,2017-03-02,23.42115,121.26763,3.2325797e-08
U2H480,溪頭,2017-03-02,23.670306,120.798194,3.6368843e-09
C0M880,好美里,2017-03-02,23.3364,120.138,8.3678736e-10
C0T9E0,大坑,2017-03-02,23.880628,121.581981,3.7751744e-09
C0K530,臺西,2017-03-02,23.701547,120.197559,6.665603e-09
C1E900,國一N128K,2017-03-02,24.560997,120.844186,9.241486e-09
C0AJ50,水湳洞,2017-03-02,25.123695,121.862238,1.7422343e-07
C0AI20,白沙灣,2017-03-02,25.283128,121.519058,1.8692423e-07
C0A860,大坪,2017-03-02,25.165914,121.632969,1.6304174e-08
C1U850,觀音海岸,2017-03-02,24.38319,121.77856,4.466036e-09
C2K610,草嶺石壁,2017-03-02,23.602469,120.707731,3.4523753e-09
C0U950,鶯子嶺,2017-03-02,24.89754,121.79244,2.667078e-08
C0O900,善化,2017-03-02,23.112883,120.297219,7.7184537e-10
C0K550,蔦松,2017-03-02,23.514319,120.229736,1.4221858e-09
E2P980,林試六龜中心,2017-03-02,22.991703,120.645722,4.0628967e-10
C0E590,通霄,2017-03-02,24.471892,120.704622,2.60307e-08
C1I310,西巒,2017-03-02,23.754486,120.883956,3.7718424e-09
C0A550,泰平,2017-03-02,24.971197,121.823711,3.7422915e-08
C0I360,水里,2017-03-02,23.812553,120.849792,1.2418019e-09
C0R830,高士,2017-03-02,22.121825,120.836781,1.210803e-05
C1I101,溪頭,2017-03-02,23.661789,120.807647,6.0719723e-09
C0AJ20,野柳,2017-03-02,25.20703,121.690021,7.166991e-08
C0B060,暖暖,2017-03-02,25.0957,121.7403,2.7205115e-08
C1H920,長豐,2017-03-02,24.102039,120.879897,2.3526547e-09
C0V360,內門,2017-03-02,22.975481,120.466769,2.5661392e-10
C0R850,林邊,2017-03-02,22.4634,120.5339,2.5900238e-09
C0E930,龍鳳,2017-03-02,24.700034,120.859125,2.8207593e-08
C0U910,冬山,2017-03-02,24.63373,121.7937,3.9678585e-09
C1E721,泰安,2017-03-02,24.489017,120.968036,9.660844e-09
82H320,茶改中部分場,2017-03-02,23.875611,120.913583,3.7466603e-09
C0M750,布袋,2017-03-02,23.380878,120.167789,6.426098e-10
C1S860,利嘉,2017-03-02,22.809417,121.050528,1.3214431e-08
72C440,桃園農改,2017-03-02,24.950944,121.030583,4.3621828e-08
E2S980,林試太麻里1,2017-03-02,22.598922,120.980044,9.013113e-08
C0X170,關廟,2017-03-02,22.963017,120.327797,7.5657014e-10
C0V720,林園,2017-03-02,22.507747,120.394511,8.9037844e-10
C1I510,線浸林道,2017-03-02,23.761508,120.832956,5.125201e-09
C0D690,外湖,2017-03-02,24.917735,120.968711,4.8998402e-08
C0C750,新興坑尾,2017-03-02,25.0061,121.0971,7.23415e-08
B2Q810,畜試南區分所,2017-03-02,21.945583,120.802167,0.99944556
C0S790,金崙,2017-03-02,22.538122,120.966875,4.849133e-08
C0AH90,福山植物園,2017-03-02,24.760717,121.58135,2.9291897e-08
C0I540,奇萊稜線,2017-03-02,24.109231,121.326456,2.4062892e-08
C0M850,表湖,2017-03-02,23.24186,120.64166,7.262401e-10
C0S770,大溪山,2017-03-02,22.478475,120.943325,6.221412e-08
C0AG80,中和,2017-03-02,24.991622,121.491792,1.3212994e-08
C0T790,大禹嶺,2017-03-02,24.186117,121.316086,1.910785e-08
C0T9B0,水源,2017-03-02,23.991861,121.537169,5.1976565e-09
C0R840,牡丹池山,2017-03-02,22.168389,120.841225,1.0411827e-06
C1I131,桶頭,2017-03-02,23.641944,120.654117,7.5947765e-10
CAL110,布袋國中,2017-03-02,23.35893,120.18026,6.426098e-10
467571,新竹,2017-03-02,24.827853,121.014219,1.9467704e-08
C0Z290,赤柯山,2017-03-02,23.36893,121.38293,1.3873615e-08
C0X280,將軍,2017-03-02,23.214999,120.13577,9.827154e-10
C0S690,太麻里,2017-03-02,22.60902,120.98533,1.7636179e-08
C0U880,北關,2017-03-02,24.9072,121.8734,2.3178826e-08
C1H860,瑞岩,2017-03-02,24.123772,121.18345,1.2837434e-08
C0G810,埔心,2017-03-02,23.947633,120.525456,1.2043075e-09
C0U970,大福,2017-03-02,24.80064,121.81389,3.446513e-09
C2H9N0,仁愛東眼,2017-03-02,24.026875,121.1205,4.080637e-09
C1E670,南礦,2017-03-02,24.538278,121.002836,8.1214475e-09
C0M520,東後寮,2017-03-02,23.369908,120.248065,6.425608e-10
C1E461,松安,2017-03-02,24.397972,120.986022,7.659722e-09
72G600,臺中農改,2017-03-02,24.003028,120.534389,1.4567619e-09
C2N160,西拉雅風管處,2017-03-02,23.189481,120.335297,5.761987e-10
C2M970,碧湖,2017-03-02,23.568632,120.624165,3.030477e-09
C0A640,石碇,2017-03-02,24.993969,121.662917,2.6148385e-08
E2S960,林試太麻里2,2017-03-02,22.598,120.99775,1.7618939e-07
C0F9Y0,桃山,2017-03-02,24.432739,121.303808,2.0863064e-08
C1I020,萬大,2017-03-02,23.979817,121.132261,2.7972642e-09
C0U940,羅東,2017-03-02,24.68184,121.74934,2.6056666e-09
C0M650,朴子,2017-03-02,23.43463,120.23902,5.934028e-10
C1I500,大尖山,2017-03-02,23.858572,120.994889,6.6171504e-09
C0G820,田尾,2017-03-02,23.901669,120.509389,1.2043075e-09
E2K600,四湖植物園,2017-03-02,23.676986,120.163433,7.64501e-09
C0S730,綠島,2017-03-02,22.6672,121.47533,0.00016316975
12Q970,東港工作站,2017-03-02,22.479997,120.466058,2.7827578e-09
C0E430,南庄,2017-03-02,24.601775,121.000214,6.8686186e-09
C1TA00,太魯閣,2017-03-02,24.15773,121.6236,1.9395653e-08
466920,臺北,2017-03-02,25.037658,121.514853,1.1407641e-08
C0R600,舊泰武,2017-03-02,22.588194,120.664944,8.2347645e-10
C1I260,北坑,2017-03-02,23.9246,121.006903,1.4241647e-09
466910,鞍部,2017-03-02,25.182586,121.529731,3.9435808e-08
C1I230,九份二山,2017-03-02,23.961944,120.845,2.4436178e-09
C2A660,瑞芳,2017-03-02,25.113169,121.801147,1.3679401e-07
C0R270,琉球嶼,2017-03-02,22.332244,120.362236,1.4053065e-08
C1T990,高寮,2017-03-02,23.394239,121.356808,2.395531e-09
C0G620,芬園,2017-03-02,24.015678,120.6213,9.764544e-10
C1Z140,荖溪,2017-03-02,23.890575,121.45964,3.5130974e-08
C1I201,中心崙,2017-03-02,23.728722,120.712097,1.6024994e-09
C1I400,凌霄,2017-03-02,24.018778,121.004456,3.9351487e-09
C1M640,十字,2017-03-02,23.492153,120.753683,4.6692645e-09
G2P820,農試鳳山分所,2017-03-02,22.646611,120.356083,1.9744766e-08
C0Z270,蕃薯寮,2017-03-02,23.73835,121.540108,4.7257913e-09
C0F9Q0,外埔,2017-03-02,24.347817,120.705686,3.2868548e-09
C0K580,高鐵雲林,2017-03-02,23.737456,120.417944,1.0021455e-09
C2I090,鳳凰,2017-03-02,23.728081,120.787347,2.0500777e-09
C0U990,員山,2017-03-02,24.74435,121.72247,2.5695936e-09
C0V770,大社,2017-03-02,22.730306,120.346639,1.2415514e-08
C0X120,麻豆,2017-03-02,23.183289,120.248611,4.6064122e-10
C0C670,龍潭,2017-03-02,24.870056,121.221389,8.656737e-09
C0D680,香山濕地,2017-03-02,24.783581,120.914988,9.837942e-09
C0S980,勝林山,2017-03-02,22.430439,120.8938,6.1181275e-08
C0V730,大寮,2017-03-02,22.605614,120.395717,1.1655557e-08
C0R570,麟洛,2017-03-02,22.65078,120.52719,2.4787068e-09
C2M930,石卓,2017-03-02,23.478744,120.702264,5.804225e-09
C0G9B0,和美,2017-03-02,24.105169,120.492131,7.781102e-09
CAG100,王功漁港,2017-03-02,23.96824,120.32586,5.224784e-08
C0X290,北門,2017-03-02,23.267772,120.125481,9.832666e-10
C2F930,大甲,2017-03-02,24.347667,120.640403,1.671522e-08
C0D650,湖口,2017-03-02,24.904794,121.043628,4.00845e-08
C0E420,竹南,2017-03-02,24.708978,120.888897,2.711839e-08
C0U780,五結,2017-03-02,24.68637,121.79794,2.5629954e-09
C1I250,鯉潭,2017-03-02,23.961922,120.991131,2.2384539e-09
C0R130,阿禮,2017-03-02,22.742908,120.743678,1.6836224e-09
C0X100,臺南市北區,2017-03-02,23.010394,120.194228,4.3573886e-10
C0S920,金峰嘉蘭,2017-03-02,22.594789,120.960825,8.8754945e-08
C0V490,新興,2017-03-02,22.627422,120.298803,1.4271593e-08
C0F9K0,大安,2017-03-02,24.345061,120.588025,1.8080392e-08
72N100,臺南農改,2017-03-02,23.0605,120.342194,7.2709944e-10
467290,古坑,2017-03-02,23.633639,120.551889,6.59974e-10
C2E970,八甲,2017-03-02,24.535811,120.795983,9.042451e-09
C0V440,鳳山,2017-03-02,22.646653,120.356122,1.9744766e-08
C1T940,大觀,2017-03-02,23.714206,121.373133,5.441095e-09
72T250,花蓮農改,2017-03-02,23.975222,121.563889,3.9878736e-09
C0E740,造橋,2017-03-02,24.637056,120.864778,1.48751065e-08
C0R100,尾寮山,2017-03-02,22.833111,120.683889,1.7588635e-09
A2K630,臺大雲林校區,2017-03-02,23.730628,120.423903,1.0019257e-09
C0D580,寶山,2017-03-02,24.735006,121.025192,4.459005e-09
E2P990,林試扇平站,2017-03-02,22.9677,120.6857,1.4040626e-09
C0AI30,三重,2017-03-02,25.057328,121.500629,1.1507687e-08
C0AH00,汐止,2017-03-02,25.066881,121.658778,1.1407641e-08
C1Z040,立山,2017-03-02,23.443356,121.327375,1.3879703e-08
C0W130,花嶼,2017-03-02,23.40007,119.32276,0.98408383
C0A950,鼻頭角,2017-03-02,25.129036,121.923372,0.00015727109
C0K470,林內,2017-03-02,23.748675,120.609642,7.458685e-10
C2F990,摩天嶺,2017-03-02,24.322458,120.936819,3.8772e-09
82C160,茶改場,2017-03-02,24.908472,121.185333,1.5905117e-08
C0Z320,清水林道,2017-03-02,23.27125,121.188272,1.2437486e-08
C0R760,南仁湖,2017-03-02,22.084681,120.863353,0.00015189886
C0M670,大林,2017-03-02,23.600616,120.45841,3.7961626e-10
C0M800,茶山,2017-03-02,23.299075,120.664767,5.0498894e-10
C0A9C0,天母,2017-03-02,25.117494,121.537169,1.9729068e-08
72K220,南改斗南分場,2017-03-02,23.634556,120.477333,5.277592e-10
72AI40,桃改樹林分場,2017-03-02,24.944503,121.386972,1.331213e-08
C0S910,蘭嶼燈塔,2017-03-02,22.081197,121.503117,0.9006613
C0B050,八斗子,2017-03-02,25.144754,121.79167,1.8557927e-07
C0U900,內城,2017-03-02,24.71813,121.68766,2.6555034e-09
C0X320,柳營,2017-03-02,23.253328,120.375253,3.2913325e-10
C0M790,新港,2017-03-02,23.553269,120.345728,5.803282e-10
C0F9T0,西屯,2017-03-02,24.179494,120.641275,1.4661111e-09
C0SA30,都歷,2017-03-02,23.020333,121.323642,1.371671e-09
C0C620,蘆竹,2017-03-02,25.084275,121.265767,4.455539e-08
C0R730,大坪頂,2017-03-02,22.024633,120.69355,0.99422455
C0AJ40,石門,2017-03-02,25.273672,121.601198,1.3146222e-07
C0E750,苗栗,2017-03-02,24.564569,120.824575,9.340101e-09
C0T870,鯉魚潭,2017-03-02,23.935639,121.508944,3.332177e-09
C1V170,排雲,2017-03-02,23.463619,120.954147,1.5514289e-08
C2H950,中寮,2017-03-02,23.884447,120.766406,1.0038538e-09
C0R350,貓鼻頭,2017-03-02,21.921774,120.7358,0.9993429
C0V660,岡山,2017-03-02,22.797078,120.294958,1.4824824e-09
C1H941,雙冬,2017-03-02,23.967378,120.802189,1.4466444e-09
C0AJ70,田寮,2017-03-02,25.2698,121.4886,1.9174739e-07
C0AI00,五股,2017-03-02,25.07445,121.42728,1.4597053e-08
C0Z280,德武,2017-03-02,23.47426,121.41071,2.250638e-09
C0R700,枋山,2017-03-02,22.246844,120.661086,3.7938138e-05
C0C460,復興,2017-03-02,24.820208,121.352281,1.6367457e-08
E2H360,蓮華池,2017-03-02,23.918333,120.885278,1.5632828e-09
C0M640,中埔,2017-03-02,23.42538,120.5229,3.874433e-10
C0W140,金沙,2017-03-02,24.488292,118.408778,1.6726453e-07
C2A540,四堵,2017-03-02,24.8926,121.745736,1.9699813e-08
C0ACA0,新莊,2017-03-02,25.051478,121.446756,8.867469e-09
C0R220,潮州,2017-03-02,22.534361,120.54,3.5052395e-08
U2HA40,臺大內茅埔,2017-03-02,23.689722,120.851117,1.868095e-09
467490,臺中,2017-03-02,24.145736,120.684075,1.2483468e-09
C0U960,翠峰湖,2017-03-02,24.510856,121.608044,2.3496959e-08
E2HA20,林試畢祿溪站,2017-03-02,24.226944,121.308522,2.0415408e-08
C0V890,前鎮,2017-03-02,22.5718,120.3117,1.6595362e-08
467620,蘭嶼,2017-03-02,22.036969,121.558339,0.8815904
C1F941,雪嶺,2017-03-02,24.280586,121.026642,2.59494e-08
C2H9E0,國姓南港,2017-03-02,23.911108,120.846556,3.5863161e-09
C0AC80,文山,2017-03-02,25.00235,121.575728,1.30319115e-08
C0F9R0,龍井,2017-03-02,24.184536,120.528972,1.1146657e-08
C0M760,民雄,2017-03-02,23.551754,120.428457,3.7822429e-10
C0UA40,西德山,2017-03-02,24.560647,121.752608,1.8913894e-08
C1T920,中興,2017-03-02,23.769503,121.498653,3.0211218e-09
C0D550,雪霸,2017-03-02,24.526972,121.11605,9.270333e-09
C2F860,梨山,2017-03-02,24.247522,121.243669,2.0848066e-08
C0R320,車城,2017-03-02,22.0744,120.716247,0.99963725
C1S870,南美山,2017-03-02,23.15025,121.382333,2.2884799e-09
C0B020,基隆嶼,2017-03-02,25.19141,121.78391,6.6293454e-05
C1U501,牛鬥,2017-03-02,24.637836,121.573656,7.558364e-09
C0M730,嘉義市東區,2017-03-02,23.457673,120.460531,3.7606768e-10
C0S700,知本,2017-03-02,22.684866,121.005642,1.6032462e-08
C1N001,沙崙,2017-03-02,22.935472,120.309406,7.8066964e-10
C0V760,橋頭,2017-03-02,22.757806,120.30575,1.3314974e-08
C0G960,福寶,2017-03-02,24.0443,120.3814,7.844119e-09
C0X210,白河,2017-03-02,23.347466,120.414427,3.8406617e-10
C0S810,東河,2017-03-02,22.972672,121.303986,1.0469958e-08
C2R170,屏東,2017-03-02,22.66027,120.49403,2.4787068e-09
C0R670,楓港,2017-03-02,22.190131,120.692156,0.99966484
C0FA50,霧峰,2017-03-02,24.0419,120.6995,9.663805e-10
C0UB10,蘇澳,2017-03-02,24.5969,121.8571,6.9999366e-09
C0G950,防潮門,2017-03-02,24.1835,120.4871,1.1146657e-08
C0M740,六腳,2017-03-02,23.492871,120.290625,6.435408e-10
C1R250,力里,2017-03-02,22.428117,120.629228,5.950281e-10
C0K330,虎尾,2017-03-02,23.719183,120.442036,1.0081193e-09
C2FA00,烏石坑,2017-03-02,24.273503,120.947617,3.808036e-09
C0V620,永安,2017-03-02,22.82315,120.236856,1.4821742e-09
C1I330,楓樹林,2017-03-02,23.986803,121.076117,3.2041871e-09
C0W200,湖西,2017-03-02,23.596314,119.67275,0.98182994
72Q010,高雄農改場,2017-03-02,22.709333,120.525889,6.6376535e-09
C0SA40,瑞和,2017-03-02,22.974361,121.156697,1.1773391e-09
C0C680,龜山,2017-03-02,25.02846,121.38656,1.4587257e-08
C2V260,月眉,2017-03-02,22.971003,120.539853,6.9874206e-10
C0V450,鳳森,2017-03-02,22.545064,120.392592,7.3426565e-10
C0U720,南山,2017-03-02,24.43742,121.38167,1.3511711e-08
A2N290,臺南蘭花園區,2017-03-02,23.340258,120.379661,4.0686585e-10
C0R560,新園,2017-03-02,22.5434,120.461558,8.9037844e-10
C0U890,三星,2017-03-02,24.66812,121.65302,6.762569e-09
C1V300,御油山,2017-03-02,23.001983,120.715364,4.3615485e-09
C0U600,礁溪,2017-03-02,24.817539,121.765608,9.477311e-09
C1T980,龍澗,2017-03-02,24.023289,121.411328,3.544496e-08
C0D670,海天一線,2017-03-02,24.831986,120.914438,6.530725e-08
C0SA00,歷坵,2017-03-02,22.520969,120.89185,2.2209674e-08
C0M710,東石,2017-03-02,23.458927,120.15385,2.153887e-09
C0M780,鹿草,2017-03-02,23.41134,120.30835,5.9255345e-10
C0U520,雙連埤,2017-03-02,24.753033,121.641303,1.070813e-08
C0B010,七堵,2017-03-02,25.094819,121.71713,2.8558501e-08
C0R480,長治,2017-03-02,22.693128,120.542622,1.1859712e-09
C1V830,國三S383K,2017-03-02,22.781967,120.426475,8.0295665e-10
12Q980,恆春工作站,2017-03-02,22.079678,120.714425,0.99963725
C1O940,東山服務區,2017-03-02,23.286016,120.398472,3.7143832e-10
C1U840,東澳嶺,2017-03-02,24.5378,121.8485,1.14125385e-08
C1D630,飛鳳山,2017-03-02,24.766464,121.119178,5.619846e-09
C0S940,石寧山,2017-03-02,23.223772,121.406639,3.246369e-09
C0K410,北港,2017-03-02,23.573957,120.292802,1.2599316e-09
C2M620,瑞里,2017-03-02,23.545133,120.675197,3.4501042e-09
C0SB70,小港漁港,2017-03-02,23.158558,121.400431,2.155564e-09
C2O950,安南,2017-03-02,23.076694,120.144861,1.329317e-09
C0F0E0,南湖圈谷,2017-03-02,24.363714,121.444667,3.6453034e-08
467610,成功,2017-03-02,23.097486,121.373428,1.91718e-09
C0G890,伸港,2017-03-02,24.148933,120.484403,1.14663e-08
C2E540,龍溪,2017-03-02,24.606489,120.783933,1.495342e-08
C1V200,梅山,2017-03-02,23.268447,120.823556,1.2136141e-09
C0T9H0,加路蘭山,2017-03-02,23.682947,121.5274,6.96086e-09
C2O930,玉井,2017-03-02,23.126042,120.46055,3.0645783e-10
C1F911,新伯公,2017-03-02,24.221361,120.841069,2.737531e-09
C0R490,九如,2017-03-02,22.7405,120.490503,9.515276e-09
C0X200,左鎮,2017-03-02,23.056758,120.408522,4.4549225e-10
C0SB50,叭嗡嗡,2017-03-02,23.047062,121.343223,1.4234124e-09
C1F891,稍來,2017-03-02,24.265689,121.001142,1.759408e-08
72N240,七股研究中心,2017-03-02,23.081672,120.062894,1.3475081e-09
C0C700,中壢,2017-03-02,24.977661,121.256375,1.2368195e-08
C0M690,水上,2017-03-02,23.419734,120.388909,3.1540884e-10
C0V690,鼓山,2017-03-02,22.623325,120.275575,1.4247821e-08
C0O860,大內,2017-03-02,23.11885,120.36083,7.427155e-10
C0Z200,萬榮,2017-03-02,23.709219,121.420106,4.1764663e-09
C0T9D0,和中,2017-03-02,24.26676,121.74103,3.545447e-09
C1O921,楠西,2017-03-02,23.183511,120.484083,2.4421162e-10
C0AJ30,淡水觀海,2017-03-02,25.184591,121.408616,5.7709677e-08
C0V810,左營,2017-03-02,22.67491,120.28491,2.5957618e-08
C0UA70,桃源谷,2017-03-02,24.962606,121.888875,3.6181778e-08
C0X130,官田,2017-03-02,23.193217,120.315422,5.848083e-10
C1H000,翠峰,2017-03-02,24.109397,121.205211,1.2966159e-08
C0UA90,石城,2017-03-02,24.980444,121.951214,3.3768828e-08
C1E681,南勢山,2017-03-02,24.421669,120.923831,5.975612e-09
C0A9F0,內湖,2017-03-02,25.079422,121.57545,1.1407641e-08
C0K291,宜梧,2017-03-02,23.536281,120.169329,1.4221858e-09
C1K540,口湖,2017-03-02,23.585344,120.180517,1.1999837e-08
C0R780,滿州,2017-03-02,22.024403,120.839892,0.9995912
C0V870,文安,2017-03-02,22.8025,120.2164,1.5359819e-09
C0U650,玉蘭,2017-03-02,24.675286,121.587061,9.912435e-09
C0R640,東港,2017-03-02,22.46247,120.44074,2.7827578e-09
K2E360,苗栗農改,2017-03-02,24.495722,120.829111,6.1514496e-09
C0AJ80,板橋,2017-03-02,25.0107,121.4489,1.3157868e-08
C0S660,下馬,2017-03-02,23.150427,121.070312,1.08564056e-08
C1H9B1,阿眉,2017-03-02,24.1263,120.994672,1.3423296e-08
C0UA20,多加屯,2017-03-02,24.368614,121.373189,1.2760707e-08
C0E730,頭份,2017-03-02,24.688247,120.912206,2.7445537e-08
72V140,高改旗南分場,2017-03-02,22.857861,120.516667,1.2798385e-09
C0K480,莿桐,2017-03-02,23.761192,120.502372,7.352747e-10
C0U980,坪林石牌,2017-03-02,24.86478,121.77396,1.3732607e-08
C0T900,西林,2017-03-02,23.8119,121.441458,3.3223466e-09
C1I150,青雲,2017-03-02,23.793361,120.949378,1.361181e-09
467350,澎湖,2017-03-02,23.565503,119.563094,0.97715235
C0G800,埔鹽,2017-03-02,24.000394,120.431683,5.817081e-09
C0H960,草屯,2017-03-02,23.973672,120.68085,9.78227e-10
C1V780,多納林道,2017-03-02,22.888028,120.737917,1.9735344e-09
C0E920,通霄漁港,2017-03-02,24.498589,120.673876,2.8040711e-08
C0Z330,安通山,2017-03-02,23.290728,121.348528,3.9190144e-09
C0AH10,永和,2017-03-02,25.01125,121.508111,1.3167458e-08
C0AK10,太平里,2017-03-02,25.134937,121.364899,4.4012033e-08
C2G640,鹿港,2017-03-02,24.0753,120.430481,7.844119e-09
C1E890,國三N149K,2017-03-02,24.463414,120.680019,2.1820183e-08
C1R110,口社,2017-03-02,22.770111,120.645222,3.006624e-09
C1M870,國三N285K,2017-03-02,23.550319,120.505833,5.610847e-10
467050,新屋,2017-03-02,25.006744,121.047486,8.080135e-08
C1E480,鳳美,2017-03-02,24.554803,121.034747,5.5552203e-09
C0M530,奮起湖,2017-03-02,23.493903,120.699253,3.9593986e-09
C0C590,觀音,2017-03-02,25.027072,121.153317,1.7989585e-07
C0T9M0,靜浦,2017-03-02,23.455167,121.495028,2.078354e-09
C2H9M0,發祥,2017-03-02,24.154094,121.164517,9.924846e-09
C0AI40,石牌,2017-03-02,25.115597,121.513139,1.9963608e-08
C1F871,上谷關,2017-03-02,24.203483,121.018644,4.31549e-09
C2H9G0,百勝,2017-03-02,24.051142,120.909361,1.4686524e-09
C0G880,二水,2017-03-02,23.810742,120.6173,8.2822715e-10
C0R940,加祿堂,2017-03-02,22.3363,120.6217,1.0922018e-05
C0W220,北竿,2017-03-02,26.220358,119.974881,1.8252902e-07
C0O960,崎頂,2017-03-02,22.959547,120.369317,5.9183164e-10
C0S750,向陽,2017-03-02,23.248397,120.986133,6.583274e-09
C0T9F0,水璉,2017-03-02,23.797131,121.542514,3.5880814e-09
C1M600,頭凍,2017-03-02,23.406364,120.603339,2.202338e-09
467660,臺東,2017-03-02,22.752211,121.154586,9.5672865e-09
C1D380,新埔,2017-03-02,24.84745,121.03834,1.7989304e-08
C2G980,田頭村,2017-03-02,23.8263,120.444175,9.570512e-10
C0V750,路竹,2017-03-02,22.854997,120.259439,3.203037e-10
C0N050,蚵寮,2017-03-02,23.301,120.1104,8.3678736e-10
72M700,南改鹿草分場,2017-03-02,23.416869,120.283061,5.9303734e-10
C1SA50,利嘉林道,2017-03-02,22.82325,121.009389,2.176519e-08
467550,玉山,2017-03-02,23.487614,120.959522,2.3154126e-08
C0A940,金山,2017-03-02,25.223628,121.643967,6.94332e-08
C1V340,大津,2017-03-02,22.888322,120.645986,1.3929821e-09
C0W180,七美,2017-03-02,23.219333,119.444892,0.9923573
C1F9C1,白冷,2017-03-02,24.182844,120.929889,3.1818606e-09
K2E710,苗改生物防治研究中心,2017-03-02,24.422861,120.871833,3.2233918e-09
C0N040,蘆竹溝,2017-03-02,23.2344,120.0961,9.832666e-10
C2W230,畜試所澎湖,2017-03-02,23.628342,119.513206,0.97076774
C0R880,後壁湖,2017-03-02,21.9457,120.7457,0.99847466
C1I280,埔中,2017-03-02,23.820778,120.642594,1.3864403e-09
467790,墾丁雷達站,2017-03-02,21.948235,120.808028,0.99963564
C0W190,望安,2017-03-02,23.380564,119.494075,0.9894397
466881,新北,2017-03-02,24.9593,121.52,1.3043824e-08
C0Z170,卓溪,2017-03-02,23.3443,121.3029,2.5701328e-09
C0F850,東勢,2017-03-02,24.246428,120.833047,1.94016e-09
466900,淡水,2017-03-02,25.164889,121.448906,4.381796e-08
C0I370,魚池,2017-03-02,23.895703,120.94135,1.6310105e-09
C0C630,大溪,2017-03-02,24.882853,121.265547,8.858932e-09
C0A520,山佳,2017-03-02,24.974944,121.402008,8.9493e-09
C0I110,竹山,2017-03-02,23.761225,120.688156,8.6912266e-10
82H840,茶改南部分場,2017-03-02,23.762528,120.7405,1.352341e-09
C0G660,溪湖,2017-03-02,23.94835,120.479122,1.1837655e-09
C1T800,洛韶,2017-03-02,24.204558,121.453956,2.7050973e-08
C1T810,慈恩,2017-03-02,24.192044,121.388386,1.21114505e-08
C1E451,象鼻,2017-03-02,24.368617,120.940228,4.824968e-09
C0AC60,三峽,2017-03-02,24.939025,121.369728,1.3163792e-08
C0I490,萬大林道,2017-03-02,23.928228,121.091411,4.201266e-09
C1I290,豐丘,2017-03-02,23.668178,120.887417,3.8563943e-09
C1I320,奧萬大,2017-03-02,23.952956,121.178556,2.7142284e-09
C2M910,嘉義大學,2017-03-02,23.471325,120.485903,3.8211886e-10
C0U770,南澳,2017-03-02,24.44935,121.81022,7.1765083e-09
C0A980,社子,2017-03-02,25.109508,121.469681,4.506486e-08
C0V800,六龜,2017-03-02,22.997889,120.633583,4.0858683e-10
C1G9D0,國一S218K,2017-03-02,23.890641,120.493253,1.0620762e-09
C0E570,白沙屯,2017-03-02,24.549447,120.696803,6.269334e-08
C2F9A0,中竹林,2017-03-02,24.103556,120.751061,1.5932222e-09
C0FA40,臺中電廠,2017-03-02,24.2146,120.4907,1.1146657e-08
C2G9A0,畜試所彰化,2017-03-02,23.86045,120.557964,8.067376e-10
C0H9C0,合歡山,2017-03-02,24.143442,121.272547,2.7502551e-08
C0X060,下營,2017-03-02,23.22695,120.256261,4.4608403e-10
G2M350,農試溪口農場,2017-03-02,23.58565,120.408111,3.7614445e-10
C0U860,頭城,2017-03-02,24.85323,121.8308,9.536516e-09
C0R580,南州,2017-03-02,22.48591,120.50274,2.7827578e-09
C0D430,峨眉,2017-03-02,24.6905,121.017189,6.686499e-09
C0G780,秀水,2017-03-02,24.03405,120.503869,1.4567619e-09
72N100,臺南農改場,2017-03-02,23.0605,120.342194,7.2709944e-10
C0S900,蘭嶼高中,2017-03-02,22.04909,121.51214,0.82818633
467540,大武,2017-03-02,22.355675,120.903789,0.033816785
C1F9W0,德基,2017-03-02,24.254783,121.190261,1.492561e-08
C1Z120,壽豐,2017-03-02,23.870853,121.508081,2.717782e-09
C0W160,烏坵,2017-03-02,24.9944,119.44956,2.0677444e-06
C1I240,外大坪,2017-03-02,23.958697,120.917931,2.266292e-09
C1I550,國六W023K,2017-03-02,23.979067,120.867742,1.2357861e-09
C0R870,興海,2017-03-02,21.9752,120.8439,0.99944556
C0R140,瑪家,2017-03-02,22.682903,120.686639,9.093156e-10
C0A530,坪林,2017-03-02,24.938183,121.70975,2.0077326e-08
C0X260,後壁,2017-03-02,23.366358,120.362326,4.0705755e-10
C0Z230,和平,2017-03-02,24.30717,121.77007,3.5178025e-09
C0G770,福興,2017-03-02,24.041289,120.437669,5.8208327e-09
C0H9A0,神木村,2017-03-02,23.532742,120.843667,4.81797e-09
C0I460,南投,2017-03-02,23.911469,120.687331,9.997246e-10
C0I480,梅峰,2017-03-02,24.085272,121.173572,9.2322185e-09
C1V570,吉東,2017-03-02,22.85422,120.5454,1.0945201e-09
C2D740,屯原,2017-03-02,24.067969,121.209389,8.188299e-09
C2A560,福山,2017-03-02,24.776203,121.502811,3.0301493e-08
C0AH30,五分山,2017-03-02,25.07125,121.780794,3.9128693e-08
C0FA10,松柏,2017-03-02,24.429115,120.617482,2.3801157e-08
72S200,東改班鳩分場,2017-03-02,22.829528,121.077694,2.1507465e-09
72HA00,中改埔里分場,2017-03-02,23.903208,120.963364,1.4958975e-09
C2H9W0,大坪頂農水,2017-03-02,24.043122,120.932781,2.3462465e-09
C0C650,平鎮,2017-03-02,24.897503,121.214636,1.21600126e-08
C0S930,延平,2017-03-02,22.902581,121.084058,1.397253e-09
C0UA60,樟樹山,2017-03-02,24.41393,121.78325,1.0555496e-08
C1S670,摩天,2017-03-02,23.199503,121.027,2.4821475e-08
C0V630,茄萣,2017-03-02,22.906642,120.182608,3.2293412e-10
466940,基隆,2017-03-02,25.133314,121.740475,1.8457885e-07
C0X050,東河,2017-03-02,23.296598,120.385608,3.6864056e-10
C0R770,保力,2017-03-02,22.071122,120.764111,0.999293
G2L020,農試嘉義分所,2017-03-02,23.485028,120.473806,3.9086806e-10
C0X240,關子嶺,2017-03-02,23.331169,120.508025,4.1623563e-10
C0I380,集集,2017-03-02,23.828206,120.801467,1.2292883e-09
466990,花蓮,2017-03-02,23.975128,121.613275,3.993064e-09
C1V220,小關山,2017-03-02,23.154217,120.813603,3.901681e-09
C1F9G1,慶福山,2017-03-02,24.180853,120.848378,2.7532139e-09
C0Z250,瑞穗林道,2017-03-02,23.49284,121.30688,5.05969e-08
C0D590,新豐,2017-03-02,24.87068,120.97721,4.7375348e-08
C0A870,五指山,2017-03-02,25.132153,121.608692,1.724095e-08
C0UA50,西帽山,2017-03-02,24.555361,121.802628,1.5406421e-08
C0X160,仁德,2017-03-02,22.968258,120.257689,8.0116064e-10
C1H971,六分寮,2017-03-02,23.92507,120.6378,1.2307312e-09
C0W120,西嶼,2017-03-02,23.5626,119.468436,0.98452884
C0G650,員林,2017-03-02,23.946503,120.585597,8.387112e-10
C0AD50,鶯歌,2017-03-02,24.951533,121.346294,1.2971329e-08
C2H9Q0,北東眼山,2017-03-02,24.120939,121.189303,1.5073807e-08
C2H9T0,名間竹圍,2017-03-02,23.859914,120.637572,1.306548e-09
C0S990,山豬窟,2017-03-02,22.318619,120.857372,9.11485e-06
72Q010,高雄農改,2017-03-02,22.709333,120.525889,6.6376664e-09
C0X190,安平,2017-03-02,22.993161,120.152181,4.3574053e-10
C0K400,斗六,2017-03-02,23.720583,120.541127,6.912011e-10
12J990,口湖工作站,2017-03-02,23.589978,120.180394,1.1999837e-08
C0O830,北寮,2017-03-02,23.079561,120.495008,2.8811792e-10
C1D410,白蘭,2017-03-02,24.579364,121.079947,8.73264e-09
C0S970,加津林,2017-03-02,22.416211,120.926942,0.006514443
C0D700,關西,2017-03-02,24.7977,121.1732,6.1197003e-09
C0M810,里佳,2017-03-02,23.389125,120.716647,3.5078662e-09
C0U750,龜山島,2017-03-02,24.841667,121.953133,1.0881065e-06
C0R810,內獅,2017-03-02,22.305064,120.642986,1.37946945e-05
C1M390,龍美,2017-03-02,23.406728,120.654417,2.6520108e-09
C2FB60,頭櫃山,2017-03-02,24.129842,120.858925,5.7754797e-09
C1H840,國三N238K,2017-03-02,23.841008,120.707711,1.2590692e-09
CAQ030,崎峰國小,2017-03-02,22.42565,120.49521,2.7827578e-09
C2E520,大湖,2017-03-02,24.414939,120.870872,3.3048146e-09
467530,阿里山,2017-03-02,23.508208,120.813242,1.248295e-08
C1E691,南湖,2017-03-02,24.40135,120.837533,5.010049e-09
C0FA30,梧棲,2017-03-02,24.256003,120.523381,1.44091725e-08
C1V231,高中,2017-03-02,23.134911,120.716711,5.6650223e-10
C0F9V0,新社,2017-03-02,24.200172,120.815806,2.922001e-09
C0H890,埔里,2017-03-02,23.972169,120.952425,1.2989669e-09
C0R690,墾丁,2017-03-02,21.966756,120.810269,0.9919303
C0F0D0,審馬陣,2017-03-02,24.381675,121.4203,1.8081359e-08
C0R820,白鷺,2017-03-02,22.454275,120.666219,1.8173526e-09
U2H480,臺大溪頭,2017-03-02,23.670306,120.798194,3.6368843e-09
C1V190,南天池,2017-03-02,23.27403,120.91176,7.1561694e-09
K2E360,苗栗農改場,2017-03-02,24.495722,120.829111,6.1514496e-09
CAJ050,海口故事園區,2017-03-02,23.57543,120.14121,1.1999837e-08
C2H9D0,三隻寮,2017-03-02,24.093078,120.861578,2.3787168e-09
C0O990,媽廟,2017-03-02,22.99175,120.293525,8.069885e-10
C0D480,打鐵坑,2017-03-02,24.849664,121.150789,8.619567e-09
C0Z220,和平林道,2017-03-02,24.343922,121.656317,3.9999093e-09
C0TA10,花蓮漁港,2017-03-02,23.995322,121.638331,4.0101455e-09
72C440,桃園農改場,2017-03-02,24.950944,121.030583,4.3621746e-08
C1E711,馬拉邦山,2017-03-02,24.367306,120.901656,4.973583e-09
C0SB20,富岡,2017-03-02,22.792467,121.192669,3.891046e-09
C0D560,竹東,2017-03-02,24.767147,121.057881,6.138147e-09
C0F9U0,南屯,2017-03-02,24.137006,120.637969,1.4335835e-09
C0M720,番路,2017-03-02,23.464657,120.554156,4.130272e-10
C0F0A0,雪山圈谷,2017-03-02,24.388594,121.236339,2.5321512e-08
C1A9N0,四十份,2017-03-02,24.934158,121.593283,4.0579753e-08
C0U760,東澳,2017-03-02,24.52196,121.83318,5.0048627e-09
C0X230,鹽水,2017-03-02,23.272621,120.247641,8.3813234e-10
C2H9H0,苗改南投蜂場,2017-03-02,23.852589,120.693481,9.896808e-10
C0R950,萬隆國小,2017-03-02,22.507667,120.587817,1.6812262e-08
C0V370,古亭坑,2017-03-02,22.893178,120.401947,3.1990563e-10
C1I340,新興橋,2017-03-02,23.563333,120.868728,2.6935016e-09
C0SA80,土坂,2017-03-02,22.453108,120.887572,3.2950516e-07
C0R160,鹽埔,2017-03-02,22.739558,120.530778,6.6509602e-09
C0AC40,大屯山,2017-03-02,25.175675,121.522408,4.1218318e-08
466850,五分山雷達站,2017-03-02,25.071182,121.781205,3.9001204e-08
C2H9L0,馬烈霸,2017-03-02,24.1512,121.201772,1.4893247e-08
C1AI50,國三N016K,2017-03-02,25.034164,121.619664,1.14589325e-08
C1V600,藤枝,2017-03-02,23.071961,120.757042,3.543108e-09
C1E601,南勢,2017-03-02,24.572486,120.734842,4.5264542e-08
C0Z180,新城,2017-03-02,24.03946,121.60454,4.0006496e-09
C0O980,新市,2017-03-02,23.061614,120.298197,7.7158485e-10
C0K420,西螺,2017-03-02,23.800407,120.467394,9.657081e-10
C0Z050,佳心,2017-03-02,23.34567,121.21316,1.3257475e-08
C0AD30,蘆洲,2017-03-02,25.086594,121.472331,1.15013234e-08
C0V610,梓官,2017-03-02,22.760558,120.267211,1.2470195e-08
K2F750,種苗改良場,2017-03-02,24.225972,120.800917,2.8304588e-09
C0UA80,大溪漁港,2017-03-02,24.941801,121.902955,2.2403e-08
C1AI60,國一39K邊坡,2017-03-02,25.064361,121.383836,1.4587451e-08
C0W150,金寧,2017-03-02,24.457703,118.328989,6.560113e-08
C0R960,內埔,2017-03-02,22.608483,120.570714,1.5249346e-07
V2C250,八德合作社,2017-03-02,24.93775,121.266389,1.246337e-08
C2H9S0,龍南,2017-03-02,23.953536,120.833183,2.364062e-09
C0AH40,平等,2017-03-02,25.129142,121.577086,1.6304547e-08
C0R540,佳冬,2017-03-02,22.419456,120.552375,7.871922e-09
466950,彭佳嶼,2017-03-02,25.627975,122.079744,3.728624e-05
C0A890,雙溪,2017-03-02,25.036003,121.864242,1.02777406e-07
C0C480,桃園,2017-03-02,24.992425,121.323172,1.2394267e-08
C0AH50,林口,2017-03-02,25.072181,121.38084,1.4508176e-08
A2K360,水試臺西試驗場,2017-03-02,23.717231,120.190522,6.765098e-09
B2N890,畜試所,2017-03-02,23.058972,120.336406,7.2709944e-10
C2M960,外寮,2017-03-02,23.562643,120.665688,3.1542582e-09
C0F9S0,烏日,2017-03-02,24.107058,120.624103,9.366875e-10
C0C490,八德,2017-03-02,24.928708,121.283289,1.2271337e-08
C0R190,赤山,2017-03-02,22.592333,120.614306,8.956714e-08
C0T820,天祥,2017-03-02,24.179597,121.495639,2.8664918e-08
C1F9E1,龍安,2017-03-02,24.1605,120.831961,2.5335027e-09
C0V820,小林,2017-03-02,23.148408,120.63325,2.91932e-10
C2G870,芳苑,2017-03-02,23.922303,120.320025,5.0217515e-08
C0E850,大河,2017-03-02,24.618069,120.948578,7.4081576e-09
C1U670,寒溪,2017-03-02,24.634,121.71691,4.242851e-09
C0N020,城西,2017-03-02,23.0568,120.0956,4.3574053e-10
C1Z110,三棧,2017-03-02,24.11557,121.60501,2.5846557e-08
C0R280,檳榔,2017-03-02,22.076078,120.836777,0.13326137
C2H9J0,中台,2017-03-02,23.9996,120.938739,1.5886644e-09
C0F9L0,后里,2017-03-02,24.310436,120.729725,2.007567e-09
C0D540,橫山,2017-03-02,24.71116,121.11693,4.4886836e-09
C1D420,太閣南,2017-03-02,24.632808,121.160575,9.244554e-09
C1E770,公館,2017-03-02,24.526914,120.830806,6.0269496e-09
CAN130,水試所海水繁養殖中心,2017-03-02,23.120802,120.07968,1.3475081e-09
C1I430,翠華,2017-03-02,24.191961,121.224339,1.4512245e-08
C1M400,菜瓜坪,2017-03-02,23.251928,120.576103,4.0790474e-10
C0G730,二林,2017-03-02,23.903325,120.376081,4.381159e-09
72M360,南改義竹分場,2017-03-02,23.360694,120.279361,6.425608e-10
V2K620,麥寮合作社,2017-03-02,23.753836,120.294783,1.9530697e-09
C0Z070,舞鶴,2017-03-02,23.46811,121.37407,2.3607458e-09
C0B040,大武崙,2017-03-02,25.166676,121.706993,1.6457965e-07
C1Z030,紅葉,2017-03-02,23.493119,121.338806,2.2546338e-09
C1I050,丹大,2017-03-02,23.753747,121.141147,8.269207e-09
C0I080,信義,2017-03-02,23.689694,120.851036,1.868095e-09
C2M920,朴子農改,2017-03-02,23.469889,120.259383,5.934028e-10
C2A880,福隆,2017-03-02,25.017842,121.942083,3.4280532e-08
C0Z160,鳳林,2017-03-02,23.746114,121.453411,4.0393937e-09
C0V210,復興,2017-03-02,23.222403,120.806089,1.0906773e-09
C0H990,昆陽,2017-03-02,24.121322,121.273642,2.4165782e-08
C0R741,獅子,2017-03-02,22.202308,120.705236,0.9885836
C0S710,鹿野,2017-03-02,22.917711,121.122994,1.3473411e-09
C0I530,小奇萊,2017-03-02,24.131764,121.295717,2.5097734e-08
C2K630,荷苞,2017-03-02,23.657717,120.595144,6.787273e-10
C0Z080,富源,2017-03-02,23.587642,121.378225,8.350468e-09
467441,高雄,2017-03-02,22.7304,120.3125,1.2371263e-08
C0SB10,美和,2017-03-02,22.682078,121.060236,1.690731e-07
C2K620,馬光農場,2017-03-02,23.721453,120.378864,9.952935e-10
C1I140,卡奈托灣,2017-03-02,23.754364,121.087872,2.663076e-09
C0I520,玉山風口,2017-03-02,23.470489,120.955994,2.5225969e-08
C1G691,下水埔,2017-03-02,23.816114,120.5676,7.449372e-10
C0X110,臺南市南區,2017-03-02,22.961189,120.188378,8.0116064e-10
C0V680,仁武,2017-03-02,22.701083,120.347722,2.5957618e-08
C2G840,北斗,2017-03-02,23.877586,120.514222,1.077245e-09
C0R900,竹坑,2017-03-02,22.1385,120.7022,0.99963766
C0K250,崙背,2017-03-02,23.75555,120.318925,1.9530697e-09
C0G860,社頭,2017-03-02,23.897647,120.5862,8.0280194e-10
C0X150,安定,2017-03-02,23.102614,120.227839,4.3975154e-10
C0R590,里港,2017-03-02,22.77919,120.49459,1.0779952e-09
C0E610,馬都安,2017-03-02,24.451272,120.930192,5.230655e-09
C0E550,明德,2017-03-02,24.583486,120.885411,9.183657e-09
C0R150,三地門,2017-03-02,22.709889,120.639944,3.296819e-09
C0G910,花壇,2017-03-02,24.032076,120.549461,1.4772098e-09
C1D400,鳥嘴山,2017-03-02,24.71909,121.28387,1.021175e-08
C0K500,元長,2017-03-02,23.64981,120.315024,1.4470584e-09
C0F0B0,石岡,2017-03-02,24.276061,120.777644,2.0755215e-09
C2V250,甲仙,2017-03-02,23.080106,120.591758,2.5859354e-10
C0SA20,金崙山,2017-03-02,22.567419,120.959667,1.44512e-08
C0V350,溪埔,2017-03-02,22.738578,120.446797,9.2686125e-10
C0M660,溪口,2017-03-02,23.604131,120.403569,3.7614445e-10
C1S880,壽卡,2017-03-02,22.238911,120.858903,3.9382476e-06
72D680,桃改新埔分場,2017-03-02,24.834444,121.066111,1.824738e-08
