站號,站名,日期,lat,lon,BLBTSLS
C0R710,龍磐,2017-04-12,21.931672,120.838942,0.9986555
C1F9D1,白毛台,2017-04-12,24.158325,120.886933,7.39621e-10
C0G940,竹塘,2017-04-12,23.848253,120.386764,1.9910243e-07
467590,恆春,2017-04-12,22.003897,120.746339,0.6968982
C1O850,環湖,2017-04-12,23.148617,120.418633,0.9899892
C0U710,太平山,2017-04-12,24.505486,121.525656,9.240428e-09
C0E820,獅潭,2017-04-12,24.539133,120.920042,2.7993083e-09
C0V880,興達,2017-04-12,22.8778,120.2127,1.7986854e-06
C0S890,關山,2017-04-12,23.0395,121.175017,7.604416e-10
C0SB30,新蘭,2017-04-12,22.869214,121.223228,8.130127e-09
C2R970,屏科大,2017-04-12,22.648275,120.619247,4.7110027e-10
K2F750,種苗繁殖,2017-04-12,24.225972,120.800917,3.5764591e-09
C1Z130,銅門,2017-04-12,23.965694,121.492842,1.8163754e-09
C0AD40,土城,2017-04-12,24.973208,121.445169,2.8616228e-07
CAN140,六官養殖協會,2017-04-12,23.22881,120.29962,0.4686912
C0X180,山上,2017-04-12,23.0757,120.363253,0.76009536
C0F9Z0,雪山東峰,2017-04-12,24.388792,121.268675,2.3930617e-08
C1M480,獨立山,2017-04-12,23.537022,120.607797,1.01775306e-07
C0X220,學甲,2017-04-12,23.230367,120.182187,2.573869e-05
467650,日月潭,2017-04-12,23.881325,120.90805,2.1262856e-09
C0K600,箔子寮,2017-04-12,23.6197,120.14,2.7050922e-08
C0G830,埤頭,2017-04-12,23.866003,120.452806,4.5958122e-06
C0S950,七塊厝,2017-04-12,22.954453,121.229922,1.5192487e-09
467110,金門,2017-04-12,24.407306,118.289281,6.100564e-09
C0AH80,深坑,2017-04-12,25.002703,121.628328,1.8711827e-07
467990,馬祖,2017-04-12,26.169269,119.923419,8.961e-09
C0A970,三貂角,2017-04-12,25.007606,122.002058,1.1382341e-06
C2D730,寶山農場,2017-04-12,24.732444,120.976153,3.8672e-09
C0K430,褒忠,2017-04-12,23.690938,120.303634,2.614009e-07
467480,嘉義,2017-04-12,23.495925,120.432906,0.89634013
C2E540,後龍,2017-04-12,24.606489,120.783933,3.2099678e-09
C0V400,阿公店,2017-04-12,22.804194,120.355528,0.05896942
C0R440,大漢山,2017-04-12,22.405264,120.753181,2.984372e-08
C0K280,四湖,2017-04-12,23.630414,120.227125,1.4055766e-07
C1F9B1,桐林,2017-04-12,24.066172,120.735194,2.2091476e-06
C2H9U0,鳳鵬,2017-04-12,23.763919,120.788061,1.5901294e-05
C0K390,土庫,2017-04-12,23.679029,120.395574,0.000109325054
C1I450,望鄉山,2017-04-12,23.594153,120.944286,3.2518862e-08
C0E910,海埔,2017-04-12,24.648767,120.772435,3.3666812e-09
B2E890,畜試北區分所,2017-04-12,24.527806,120.770972,3.983616e-09
C0R750,四林格山,2017-04-12,22.076989,120.802439,1.6041955e-05
C0F0C0,中坑,2017-04-12,24.248517,120.903319,1.2027167e-09
C1I121,大鞍,2017-04-12,23.678381,120.760017,3.0674159e-09
72U480,花改蘭陽分場,2017-04-12,24.686306,121.716583,2.1611297e-09
C0A770,科教館,2017-04-12,25.096356,121.516507,9.957801e-09
C0AJ60,六塊厝,2017-04-12,25.24,121.4481,0.0001842123
C0R620,墾雷,2017-04-12,21.900836,120.855269,0.999928
467420,永康,2017-04-12,23.038386,120.2367,0.22032681
467300,東吉島,2017-04-12,23.25695,119.667467,0.99687904
C0I410,名間,2017-04-12,23.837053,120.701447,0.7915272
A2C560,農工中心,2017-04-12,24.985917,121.239833,5.874828e-09
C0V740,旗山,2017-04-12,22.888614,120.483597,3.02053e-08
C0Z061,玉里,2017-04-12,23.3215,121.339656,8.701527e-10
C0S840,南田,2017-04-12,22.279725,120.889208,0.9932591
C1I470,杉林溪,2017-04-12,23.639517,120.786444,3.8448413e-09
C1X040,東原,2017-04-12,23.291597,120.463822,0.0009827713
C0R660,枋寮,2017-04-12,22.367722,120.590647,0.106758624
C1R120,上德文,2017-04-12,22.763272,120.704442,6.3244193e-10
C0K450,大埤,2017-04-12,23.646074,120.431537,0.8742948
C0UA00,土場,2017-04-12,24.576533,121.495333,1.5985002e-09
467080,宜蘭,2017-04-12,24.763975,121.756528,6.8900854e-09
C0N030,四草,2017-04-12,23.0235,120.1116,1.3061608e-06
C0V650,彌陀,2017-04-12,22.783806,120.246361,0.6556503
C0D660,新竹市東區,2017-04-12,24.798681,120.986942,4.010513e-09
82S580,茶改東部分場,2017-04-12,22.907694,121.130139,4.465329e-09
C0SB40,興隆,2017-04-12,22.913661,121.257469,7.3449993e-09
C0C710,大溪永福,2017-04-12,24.892936,121.324975,1.1256216e-08
C0FA20,溫寮,2017-04-12,24.372177,120.583125,1.1401268e-08
C0V640,湖內,2017-04-12,22.887139,120.2445,1.8131418e-06
C0R910,下寮,2017-04-12,22.3929,120.5548,0.10592679
C0Z020,明里,2017-04-12,23.208717,121.262342,1.0312311e-09
C0M770,嘉義梅山,2017-04-12,23.585398,120.555587,0.9885438
G2F820,農業試驗所,2017-04-12,24.031261,120.688133,2.6306196e-07
C0C660,楊梅,2017-04-12,24.912375,121.143047,3.814324e-09
C1E511,新開,2017-04-12,24.347703,120.827019,3.0927008e-09
G2F820,農試所(霧峰),2017-04-12,24.031261,120.688133,2.6306196e-07
C1I070,和社,2017-04-12,23.591131,120.888861,2.4455806e-09
C2F000,大肚,2017-04-12,24.15295,120.572117,3.88774e-07
C1S850,豐南,2017-04-12,23.122139,121.262389,1.1061976e-09
C2A920,富貴角,2017-04-12,25.263783,121.565258,1.0681494e-05
CAH030,茶改場竹圍站,2017-04-12,23.860083,120.637528,7.195988e-07
C0T960,光復,2017-04-12,23.660694,121.424964,1.0042254e-09
C0F9M0,豐原,2017-04-12,24.254322,120.720692,2.462728e-08
C0R720,旭海,2017-04-12,22.205403,120.887614,0.8981791
C0V710,苓雅,2017-04-12,22.622742,120.330669,0.0073523913
C0C740,觀音工業區,2017-04-12,25.064764,121.114856,1.00747805e-07
CAC040,拉拉山,2017-04-12,24.699317,121.427133,8.5545935e-09
C0V790,萬山,2017-04-12,22.905944,120.688056,2.9561106e-10
U2HA30,臺大和社,2017-04-12,23.590856,120.888864,2.4455806e-09
C0AJ90,澳底,2017-04-12,25.0552,121.9253,4.1733543e-05
C0Z100,東華,2017-04-12,23.89525,121.549833,6.915492e-10
C0G970,三豐,2017-04-12,23.882,120.2895,3.84499e-08
V2K610,大庄合作社,2017-04-12,23.8068,120.367939,6.939044e-08
C0V900,汕尾,2017-04-12,22.4782,120.4151,5.7102384e-06
C1R630,龍泉,2017-04-12,22.66701,120.59091,5.2077365e-10
C1AC50,關渡,2017-04-12,25.133486,121.469331,6.1313603e-09
C0F9I0,神岡,2017-04-12,24.272481,120.658314,2.90828e-08
C0K460,斗南,2017-04-12,23.678734,120.478359,0.8420358
467410,臺南,2017-04-12,22.993239,120.204772,8.232155e-07
C2O810,曾文,2017-04-12,23.219681,120.497328,0.5996846
467280,後龍,2017-04-12,24.648563,120.831834,2.9493143e-09
C1F9J1,清水林,2017-04-12,24.071242,120.820419,6.476906e-10
C2A650,火燒寮,2017-04-12,25.002719,121.742892,6.90452e-08
466930,竹子湖,2017-04-12,25.162078,121.544547,2.1536446e-09
C1I220,樟湖,2017-04-12,23.905333,120.846983,4.1838093e-09
C0I390,仁愛,2017-04-12,24.022122,121.132206,1.4942493e-09
C0Z300,東里,2017-04-12,23.26853,121.30547,9.423232e-10
C1V590,新發,2017-04-12,23.057019,120.646064,1.277714e-09
C0K510,水林,2017-04-12,23.572924,120.24597,2.0526236e-06
72S590,東改賓朗果園,2017-04-12,22.813889,121.071278,4.614419e-08
82A750,茶改北部分場,2017-04-12,24.955778,121.631222,9.00469e-09
C1A750,石碇服務區,2017-04-12,25.00872,121.646242,2.3937906e-07
C0X300,鹿寮,2017-04-12,23.386047,120.477331,0.8498035
G2AI50,關渡,2017-04-12,25.11575,121.492,3.859369e-08
C0K590,雲林東勢,2017-04-12,23.674192,120.255721,7.960576e-07
C0A570,桶後,2017-04-12,24.848222,121.597992,8.88284e-09
C1S800,華源,2017-04-12,22.657883,121.02325,9.202104e-09
C0G720,溪州,2017-04-12,23.851589,120.499093,3.6540334e-06
C1V160,達卡努瓦,2017-04-12,23.279811,120.705319,1.4834667e-09
C2M410,馬頭山,2017-04-12,23.324361,120.582017,0.00018154546
C0V850,蚵仔寮,2017-04-12,22.7256,120.2527,0.24663875
C0S740,池上,2017-04-12,23.119628,121.209469,5.716744e-10
C1V390,尖山,2017-04-12,22.813153,120.367789,0.02248276
C0AH70,松山,2017-04-12,25.04871,121.55042,9.435646e-09
C0N010,鯤鯓國小,2017-04-12,23.1879,120.0889,4.8383654e-06
C0R550,新埤,2017-04-12,22.467947,120.582894,2.6856471e-06
C0SA60,知本（水試所）,2017-04-12,22.702394,121.082761,1.2758517e-08
C0T9I0,豐濱,2017-04-12,23.583897,121.514806,6.1740624e-10
C0UB00,淡江大學蘭陽校園,2017-04-12,24.823239,121.730383,8.3284215e-09
C0W240,九宮,2017-04-12,24.423753,118.240186,6.177576e-09
C0T9N0,富里,2017-04-12,23.171639,121.249378,7.696065e-10
U2HA50,臺大竹山,2017-04-12,23.756972,120.681556,0.652787
C0V840,鳳鼻頭,2017-04-12,22.5083,120.3591,1.6830725e-05
C0X140,西港,2017-04-12,23.125608,120.203108,0.0018052558
72D080,桃改五峰分場,2017-04-12,24.612194,121.157167,2.6532656e-09
C2H9P0,伊拿谷,2017-04-12,23.963211,121.088264,3.762322e-09
C2H9F0,柑林,2017-04-12,24.018658,120.847072,1.0786086e-08
C0TA20,加灣,2017-04-12,24.082025,121.608944,6.2708564e-06
C0V530,阿蓮,2017-04-12,22.883208,120.327508,0.5407481
C1O880,關山,2017-04-12,23.173397,120.594092,0.0003690587
C0E791,卓蘭,2017-04-12,24.3126,120.8244,5.9917955e-09
C1I030,武界,2017-04-12,23.913225,121.052483,3.7893937e-09
C0R520,崁頂,2017-04-12,22.514781,120.506914,0.0068049943
C0R341,牡丹,2017-04-12,22.130036,120.792639,0.03213727
C0R930,萬丹,2017-04-12,22.5885,120.4851,2.0558817e-08
C0S760,紅石,2017-04-12,23.069131,121.126219,1.7797163e-08
C1M610,石磐龍,2017-04-12,23.496606,120.663506,1.4848821e-09
C0UA10,鴛鴦湖,2017-04-12,24.590269,121.412228,6.658132e-09
V2C260,八德蔬果,2017-04-12,24.978508,121.281819,4.8472537e-09
C0R800,丹路,2017-04-12,22.204481,120.750989,0.98142385
C0G920,永靖,2017-04-12,23.924703,120.547533,2.79192e-06
C2M950,太和,2017-04-12,23.538372,120.702961,2.142705e-09
C1A630,下盆,2017-04-12,24.771003,121.538622,3.4793597e-09
B2N890,畜產試驗所,2017-04-12,23.058972,120.336406,0.056716166
C0UA30,白嶺,2017-04-12,24.527819,121.519031,3.991039e-09
C1V580,溪南(特生中心),2017-04-12,23.084972,120.788475,2.9261449e-09
C1T970,大農,2017-04-12,23.615233,121.413331,6.6184475e-10
E2S960,林試太麻里2,2017-04-12,22.598014,120.989761,2.2015705e-08
C0R650,竹田,2017-04-12,22.58486,120.54344,2.64275e-09
C1H900,清流,2017-04-12,24.080775,120.962997,1.1432882e-09
C1C510,水尾,2017-04-12,24.940081,121.087161,2.377874e-08
C0F9X0,大雅(中科園區),2017-04-12,24.21528,120.62445,3.4339298e-08
C0SB60,白守蓮,2017-04-12,23.126769,121.401914,4.700779e-10
C0O970,虎頭埤,2017-04-12,23.021375,120.347878,0.12773453
C0C730,中大臨海站,2017-04-12,24.966126,121.008581,8.026313e-08
C0X250,新營,2017-04-12,23.310689,120.316681,0.5793145
C0V700,三民,2017-04-12,22.645017,120.311233,0.6679167
C0U870,大礁溪,2017-04-12,24.791042,121.675047,3.2731664e-09
C0E870,高鐵苗栗,2017-04-12,24.60725,120.826094,3.0842533e-09
A2K570,古坑花卉中心,2017-04-12,23.63353,120.55239,0.99127334
C0M860,新美,2017-04-12,23.338017,120.683169,4.993361e-10
C1E701,八卦,2017-04-12,24.491756,120.927619,1.329596e-09
C0I420,國姓,2017-04-12,24.037803,120.855072,8.244214e-09
C2D720,關西工作站,2017-04-12,24.757275,121.184792,2.2471807e-09
C0S960,香蘭,2017-04-12,22.587569,120.993375,2.1995852e-08
C0R260,春日,2017-04-12,22.370361,120.628306,0.08643665
72G600,臺中農改場,2017-04-12,24.003028,120.534389,6.0892677e-07
C0Z210,瑞穗,2017-04-12,23.5239,121.39021,6.3652994e-10
C0M820,達邦,2017-04-12,23.453994,120.749517,8.315338e-10
C0V860,南寮,2017-04-12,22.7616,120.2339,0.2464129
C0G740,大城,2017-04-12,23.852487,120.320935,3.1442408e-08
C0R920,塭仔,2017-04-12,22.4169,120.5197,0.14608593
C0R470,高樹,2017-04-12,22.826389,120.600806,3.5083528e-10
C0R680,佳樂水,2017-04-12,21.993578,120.861633,0.9245593
C1O870,大棟山,2017-04-12,23.31157,120.52226,6.863757e-10
C0D360,梅花,2017-04-12,24.678347,121.208558,2.141377e-09
C0Z190,富世,2017-04-12,24.14743,121.6297,3.2226595e-07
C0AI10,屈尺,2017-04-12,24.92184,121.54475,8.5879314e-08
B2U990,畜試東區分所,2017-04-12,24.669039,121.832561,2.7924573e-08
C0SB80,長濱漁港,2017-04-12,23.313644,121.459994,7.1554973e-10
C0R240,來義,2017-04-12,22.527306,120.625111,0.00040914543
C0V910,大樹,2017-04-12,22.684645,120.432803,2.2027928e-08
C1R610,西大武山,2017-04-12,22.617719,120.7322,2.803499e-08
C0G900,線西,2017-04-12,24.143358,120.443536,5.2749606e-08
C0M700,竹崎,2017-04-12,23.526178,120.555508,0.8804809
C2E880,三義,2017-04-12,24.405478,120.749819,2.2018087e-09
C0C720,竹圍,2017-04-12,25.112692,121.239824,3.8648718e-08
C0F9P0,清水,2017-04-12,24.312297,120.562242,3.2717388e-08
C0Z150,吉安光華,2017-04-12,23.930925,121.595153,1.7667615e-09
C1D640,外坪(五指山),2017-04-12,24.644447,121.090961,1.7751013e-09
C0F9O0,潭子,2017-04-12,24.213106,120.703933,8.522267e-07
C2H9R0,卓社,2017-04-12,23.887894,121.000086,3.2852439e-09
72T250,花蓮農改場,2017-04-12,23.975222,121.563889,4.432752e-09
C0E780,銅鑼,2017-04-12,24.489681,120.790853,2.3361189e-09
C1T950,太安,2017-04-12,23.666719,121.370128,1.9346588e-08
C0E830,苑裡,2017-04-12,24.439714,120.653053,5.6779084e-09
467270,田中,2017-04-12,23.873803,120.581286,1.9362685e-06
C0SA10,檳榔四格山,2017-04-12,22.810031,121.109308,2.66892e-08
C1T830,布洛灣,2017-04-12,24.17184,121.57127,2.0110939e-08
C0F970,大坑,2017-04-12,24.173142,120.722289,1.0006715e-05
C1U920,思源,2017-04-12,24.393125,121.347214,5.8033724e-09
C0A931,三和,2017-04-12,25.233153,121.595236,2.255382e-09
C0I010,廬山,2017-04-12,24.033311,121.181808,2.7737546e-09
C2M940,日野賀,2017-04-12,23.434056,120.727169,1.0348566e-09
C0R860,鼻頭,2017-04-12,22.1043,120.8979,0.9024942
C0UB20,壯圍,2017-04-12,24.7359,121.8163,2.3692035e-09
C0R790,九棚,2017-04-12,22.14195,120.889281,0.06961918
C0W110,東莒,2017-04-12,25.9652,119.98069,8.999693e-09
C1U930,粉鳥林,2017-04-12,24.497088,121.842479,8.781909e-06
C1I211,蘆竹湳,2017-04-12,23.934019,120.811994,6.0719924e-10
C0S830,長濱,2017-04-12,23.286817,121.411975,1.0476705e-09
C1F9F1,伯公龍,2017-04-12,24.272392,120.849047,1.6780473e-09
C0E810,西湖,2017-04-12,24.562947,120.7485,3.8785927e-08
C1I440,新高口,2017-04-12,23.478744,120.878939,8.480691e-09
C0O840,王爺宮,2017-04-12,23.222064,120.40085,0.005225095
C0T9G0,鳳林山,2017-04-12,23.735269,121.420131,2.6197746e-09
C0X080,佳里,2017-04-12,23.173039,120.145086,4.8383654e-06
C0FB70,大甲溪埔,2017-04-12,24.370625,120.620067,7.822172e-09
C0Z310,清水斷崖,2017-04-12,24.218294,121.689142,6.9418505e-08
C0M680,太保,2017-04-12,23.455062,120.331455,0.22235721
C1S820,金峰,2017-04-12,22.590969,120.933236,1.1507161e-08
C0AD10,八里,2017-04-12,25.150211,121.403947,3.8648718e-08
C2K240,草嶺,2017-04-12,23.59555,120.693461,2.044396e-09
C1SA70,都蘭,2017-04-12,22.87794,121.226881,7.344985e-09
C0K440,二崙,2017-04-12,23.772797,120.408944,2.0518505e-06
C1A760,坪林交控,2017-04-12,24.94284,121.713442,7.014347e-08
C0F9N0,大里,2017-04-12,24.092464,120.701378,5.7450716e-06
C0SA90,達仁林場,2017-04-12,22.264347,120.823972,0.11093452
C1R290,石門山,2017-04-12,22.112611,120.756597,0.00043439562
42HA10,萬大發電廠,2017-04-12,23.978875,121.139639,2.113174e-09
C0R890,山海,2017-04-12,21.9878,120.7091,0.6786048
C0T9A0,月眉山,2017-04-12,23.809928,121.539828,2.2977436e-09
C0AC70,信義,2017-04-12,25.037822,121.564597,9.435646e-09
C0K560,棋山,2017-04-12,23.68645,120.603417,0.9897858
C2FB50,出雲,2017-04-12,24.206469,120.902794,1.3927032e-09
C1Z240,中平林道,2017-04-12,23.42115,121.26763,1.7479719e-08
U2H480,溪頭,2017-04-12,23.670306,120.798194,1.666609e-09
C0M880,好美里,2017-04-12,23.3364,120.138,0.0006362103
C0T9E0,大坑,2017-04-12,23.880628,121.581981,1.2634354e-09
C0K530,臺西,2017-04-12,23.701547,120.197559,4.004939e-07
C1E900,國一N128K,2017-04-12,24.560997,120.844186,5.07982e-09
C0AJ50,水湳洞,2017-04-12,25.123695,121.862238,3.0991305e-07
C0AI20,白沙灣,2017-04-12,25.283128,121.519058,0.00013491504
C0A860,大坪,2017-04-12,25.165914,121.632969,1.6584532e-09
C1U850,觀音海岸,2017-04-12,24.38319,121.77856,9.006373e-09
C2K610,草嶺石壁,2017-04-12,23.602469,120.707731,2.0918598e-09
C0U950,鶯子嶺,2017-04-12,24.89754,121.79244,1.4534461e-08
C0O900,善化,2017-04-12,23.112883,120.297219,0.12671739
C0K550,蔦松,2017-04-12,23.514319,120.229736,2.3353439e-06
E2P980,林試六龜中心,2017-04-12,22.991703,120.645722,4.3678526e-08
C0E590,通霄,2017-04-12,24.471892,120.704622,3.2288394e-08
C1I310,西巒,2017-04-12,23.754486,120.883956,2.371473e-09
C0A550,泰平,2017-04-12,24.971197,121.823711,4.3219334e-08
C0I360,水里,2017-04-12,23.812553,120.849792,6.724053e-05
C0R830,高士,2017-04-12,22.121825,120.836781,0.00017020365
C1I101,溪頭,2017-04-12,23.661789,120.807647,2.615911e-08
C0AJ20,野柳,2017-04-12,25.20703,121.690021,2.8884766e-09
C0B060,暖暖,2017-04-12,25.0957,121.7403,3.193664e-08
C1H920,長豐,2017-04-12,24.102039,120.879897,9.370628e-10
C0V360,內門,2017-04-12,22.975481,120.466769,0.75624365
C0R850,林邊,2017-04-12,22.4634,120.5339,4.079549e-06
C0E930,龍鳳,2017-04-12,24.700034,120.859125,1.2781826e-08
C0U910,冬山,2017-04-12,24.63373,121.7937,2.7924573e-08
C1E721,泰安,2017-04-12,24.489017,120.968036,2.470777e-09
82H320,茶改中部分場,2017-04-12,23.875611,120.913583,1.8182263e-09
C0M750,布袋,2017-04-12,23.380878,120.167789,0.00085885514
C1S860,利嘉,2017-04-12,22.809417,121.050528,6.672905e-09
72C440,桃園農改,2017-04-12,24.950944,121.030583,2.931621e-08
E2S980,林試太麻里1,2017-04-12,22.598922,120.980044,1.5122302e-08
C0X170,關廟,2017-04-12,22.963017,120.327797,0.046410833
C0V720,林園,2017-04-12,22.507747,120.394511,1.523747e-05
C1I510,線浸林道,2017-04-12,23.761508,120.832956,3.82734e-09
C0D690,外湖,2017-04-12,24.917735,120.968711,3.72901e-08
C0C750,新興坑尾,2017-04-12,25.0061,121.0971,4.8769873e-08
B2Q810,畜試南區分所,2017-04-12,21.945583,120.802167,0.93286806
C0S790,金崙,2017-04-12,22.538122,120.966875,1.446143e-08
C0AH90,福山植物園,2017-04-12,24.760717,121.58135,4.4730606e-09
C0I540,奇萊稜線,2017-04-12,24.109231,121.326456,1.2410637e-08
C0M850,表湖,2017-04-12,23.24186,120.64166,5.927411e-10
C0S770,大溪山,2017-04-12,22.478475,120.943325,1.968051e-08
C0AG80,中和,2017-04-12,24.991622,121.491792,2.8616228e-07
C0T790,大禹嶺,2017-04-12,24.186117,121.316086,7.319616e-09
C0T9B0,水源,2017-04-12,23.991861,121.537169,3.6965464e-09
C0R840,牡丹池山,2017-04-12,22.168389,120.841225,0.00025261941
C1I131,桶頭,2017-04-12,23.641944,120.654117,0.8930402
CAL110,布袋國中,2017-04-12,23.35893,120.18026,0.00086724607
467571,新竹,2017-04-12,24.827853,121.014219,5.25724e-09
C0Z290,赤柯山,2017-04-12,23.36893,121.38293,8.928636e-09
C0X280,將軍,2017-04-12,23.214999,120.13577,3.7182806e-05
C0S690,太麻里,2017-04-12,22.60902,120.98533,8.651009e-09
C0U880,北關,2017-04-12,24.9072,121.8734,7.1816254e-07
C1H860,瑞岩,2017-04-12,24.123772,121.18345,3.5913885e-09
C0G810,埔心,2017-04-12,23.947633,120.525456,2.7891124e-06
C0U970,大福,2017-04-12,24.80064,121.81389,7.3532274e-09
C2H9N0,仁愛東眼,2017-04-12,24.026875,121.1205,2.305483e-09
C1E670,南礦,2017-04-12,24.538278,121.002836,3.729165e-09
C0M520,東後寮,2017-04-12,23.369908,120.248065,0.00073103857
C1E461,松安,2017-04-12,24.397972,120.986022,1.7718438e-09
72G600,臺中農改,2017-04-12,24.003028,120.534389,6.0892734e-07
C2N160,西拉雅風管處,2017-04-12,23.189481,120.335297,0.76074636
C2M970,碧湖,2017-04-12,23.568632,120.624165,1.8899569e-09
C0A640,石碇,2017-04-12,24.993969,121.662917,5.08147e-08
E2S960,林試太麻里2,2017-04-12,22.598,120.99775,2.3632742e-08
C0F9Y0,桃山,2017-04-12,24.432739,121.303808,2.093765e-08
C1I020,萬大,2017-04-12,23.979817,121.132261,1.5102231e-09
C0U940,羅東,2017-04-12,24.68184,121.74934,2.2243196e-09
C0M650,朴子,2017-04-12,23.43463,120.23902,0.0042796936
C1I500,大尖山,2017-04-12,23.858572,120.994889,7.542393e-09
C0G820,田尾,2017-04-12,23.901669,120.509389,2.7891124e-06
E2K600,四湖植物園,2017-04-12,23.676986,120.163433,1.4055753e-07
C0S730,綠島,2017-04-12,22.6672,121.47533,0.9716549
12Q970,東港工作站,2017-04-12,22.479997,120.466058,5.8271785e-06
C0E430,南庄,2017-04-12,24.601775,121.000214,2.7260212e-09
C1TA00,太魯閣,2017-04-12,24.15773,121.6236,2.5221095e-07
466920,臺北,2017-04-12,25.037658,121.514853,9.435646e-09
C0R600,舊泰武,2017-04-12,22.588194,120.664944,3.5416672e-10
C1I260,北坑,2017-04-12,23.9246,121.006903,6.0806965e-10
466910,鞍部,2017-04-12,25.182586,121.529731,4.176737e-09
C1I230,九份二山,2017-04-12,23.961944,120.845,3.9688577e-09
C2A660,瑞芳,2017-04-12,25.113169,121.801147,7.522383e-08
C0R270,琉球嶼,2017-04-12,22.332244,120.362236,0.99857503
C1T990,高寮,2017-04-12,23.394239,121.356808,7.2040157e-10
C0G620,芬園,2017-04-12,24.015678,120.6213,1.278749e-07
C1Z140,荖溪,2017-04-12,23.890575,121.45964,1.5153427e-08
C1I201,中心崙,2017-04-12,23.728722,120.712097,6.394934e-09
C1I400,凌霄,2017-04-12,24.018778,121.004456,2.2094697e-09
C1M640,十字,2017-04-12,23.492153,120.753683,2.3654152e-09
G2P820,農試鳳山分所,2017-04-12,22.646611,120.356083,0.57352805
C0Z270,蕃薯寮,2017-04-12,23.73835,121.540108,1.6218005e-09
C0F9Q0,外埔,2017-04-12,24.347817,120.705686,5.9105583e-09
C0K580,高鐵雲林,2017-04-12,23.737456,120.417944,8.932861e-06
C2I090,鳳凰,2017-04-12,23.728081,120.787347,1.2827761e-09
C0U990,員山,2017-04-12,24.74435,121.72247,2.2934088e-09
C0V770,大社,2017-04-12,22.730306,120.346639,0.16267525
C0X120,麻豆,2017-04-12,23.183289,120.248611,0.033822812
C0C670,龍潭,2017-04-12,24.870056,121.221389,2.4851734e-09
C0D680,香山濕地,2017-04-12,24.783581,120.914988,4.5661146e-09
C0S980,勝林山,2017-04-12,22.430439,120.8938,3.6128057e-08
C0V730,大寮,2017-04-12,22.605614,120.395717,0.0063000885
C0R570,麟洛,2017-04-12,22.65078,120.52719,9.001697e-10
C2M930,石卓,2017-04-12,23.478744,120.702264,2.3554205e-09
C0G9B0,和美,2017-04-12,24.105169,120.492131,2.231258e-07
CAG100,王功漁港,2017-04-12,23.96824,120.32586,1.0855889e-08
C0X290,北門,2017-04-12,23.267772,120.125481,3.6871195e-05
C2F930,大甲,2017-04-12,24.347667,120.640403,3.403522e-09
C0D650,湖口,2017-04-12,24.904794,121.043628,2.5130882e-08
C0E420,竹南,2017-04-12,24.708978,120.888897,1.0212685e-08
C0U780,五結,2017-04-12,24.68637,121.79794,2.3692035e-09
C1I250,鯉潭,2017-04-12,23.961922,120.991131,4.2404484e-09
C0R130,阿禮,2017-04-12,22.742908,120.743678,9.370555e-10
C0X100,臺南市北區,2017-04-12,23.010394,120.194228,1.1117368e-06
C0S920,金峰嘉蘭,2017-04-12,22.594789,120.960825,1.4923874e-08
C0V490,新興,2017-04-12,22.627422,120.298803,0.0073523913
C0F9K0,大安,2017-04-12,24.345061,120.588025,9.148831e-09
72N100,臺南農改,2017-04-12,23.0605,120.342194,0.056716166
467290,古坑,2017-04-12,23.633639,120.551889,0.99127334
C2E970,八甲,2017-04-12,24.535811,120.795983,2.610034e-09
C0V440,鳳山,2017-04-12,22.646653,120.356122,0.57352805
C1T940,大觀,2017-04-12,23.714206,121.373133,2.1972864e-09
72T250,花蓮農改,2017-04-12,23.975222,121.563889,4.432752e-09
C0E740,造橋,2017-04-12,24.637056,120.864778,3.0813192e-09
C0R100,尾寮山,2017-04-12,22.833111,120.683889,1.0318607e-09
A2K630,臺大雲林校區,2017-04-12,23.730628,120.423903,8.932861e-06
C0D580,寶山,2017-04-12,24.735006,121.025192,3.4074323e-09
E2P990,林試扇平站,2017-04-12,22.9677,120.6857,7.391922e-10
C0AI30,三重,2017-04-12,25.057328,121.500629,9.957801e-09
C0AH00,汐止,2017-04-12,25.066881,121.658778,9.435646e-09
C1Z040,立山,2017-04-12,23.443356,121.327375,4.156583e-09
C0W130,花嶼,2017-04-12,23.40007,119.32276,0.94822973
C0A950,鼻頭角,2017-04-12,25.129036,121.923372,0.18635468
C0K470,林內,2017-04-12,23.748675,120.609642,0.87200856
C2F990,摩天嶺,2017-04-12,24.322458,120.936819,1.0984017e-09
82C160,茶改場,2017-04-12,24.908472,121.185333,3.4556824e-09
C0Z320,清水林道,2017-04-12,23.27125,121.188272,5.5418328e-09
C0R760,南仁湖,2017-04-12,22.084681,120.863353,0.0004346568
C0M670,大林,2017-04-12,23.600616,120.45841,0.923807
C0M800,茶山,2017-04-12,23.299075,120.664767,6.435923e-10
C0A9C0,天母,2017-04-12,25.117494,121.537169,9.840419e-09
72K220,南改斗南分場,2017-04-12,23.634556,120.477333,0.84210247
72AI40,桃改樹林分場,2017-04-12,24.944503,121.386972,5.359846e-09
C0S910,蘭嶼燈塔,2017-04-12,22.081197,121.503117,0.99991316
C0B050,八斗子,2017-04-12,25.144754,121.79167,4.4578638e-07
C0U900,內城,2017-04-12,24.71813,121.68766,2.028436e-09
C0X320,柳營,2017-04-12,23.253328,120.375253,0.21910311
C0M790,新港,2017-04-12,23.553269,120.345728,0.000772465
C0F9T0,西屯,2017-04-12,24.179494,120.641275,3.645909e-07
C0SA30,都歷,2017-04-12,23.020333,121.323642,6.8529776e-10
C0C620,蘆竹,2017-04-12,25.084275,121.265767,4.7878423e-08
C0R730,大坪頂,2017-04-12,22.024633,120.69355,0.95559096
C0AJ40,石門,2017-04-12,25.273672,121.601198,2.3894714e-05
C0E750,苗栗,2017-04-12,24.564569,120.824575,5.393483e-09
C0T870,鯉魚潭,2017-04-12,23.935639,121.508944,1.8406698e-09
C1V170,排雲,2017-04-12,23.463619,120.954147,3.194011e-08
C2H950,中寮,2017-04-12,23.884447,120.766406,0.6858422
C0R350,貓鼻頭,2017-04-12,21.921774,120.7358,0.998049
C0V660,岡山,2017-04-12,22.797078,120.294958,0.6556503
C1H941,雙冬,2017-04-12,23.967378,120.802189,6.102505e-10
C0AJ70,田寮,2017-04-12,25.2698,121.4886,0.00014869479
C0AI00,五股,2017-04-12,25.07445,121.42728,1.1834094e-08
C0Z280,德武,2017-04-12,23.47426,121.41071,8.1828144e-10
C0R700,枋山,2017-04-12,22.246844,120.661086,0.9930221
C0C460,復興,2017-04-12,24.820208,121.352281,3.5467458e-09
E2H360,蓮華池,2017-04-12,23.918333,120.885278,6.3355393e-10
C0M640,中埔,2017-04-12,23.42538,120.5229,0.9802994
C0W140,金沙,2017-04-12,24.488292,118.408778,3.2773475e-08
C2A540,四堵,2017-04-12,24.8926,121.745736,3.1430297e-08
C0ACA0,新莊,2017-04-12,25.051478,121.446756,1.1035323e-08
C0R220,潮州,2017-04-12,22.534361,120.54,0.005811209
U2HA40,臺大內茅埔,2017-04-12,23.689722,120.851117,1.9121913e-09
467490,臺中,2017-04-12,24.145736,120.684075,2.9240711e-05
C0U960,翠峰湖,2017-04-12,24.510856,121.608044,7.8948075e-09
E2HA20,林試畢祿溪站,2017-04-12,24.226944,121.308522,4.3261212e-09
C0V890,前鎮,2017-04-12,22.5718,120.3117,0.01007286
467620,蘭嶼,2017-04-12,22.036969,121.558339,0.9998794
C1F941,雪嶺,2017-04-12,24.280586,121.026642,9.207792e-09
C2H9E0,國姓南港,2017-04-12,23.911108,120.846556,4.311426e-09
C0AC80,文山,2017-04-12,25.00235,121.575728,1.8711827e-07
C0F9R0,龍井,2017-04-12,24.184536,120.528972,8.039044e-08
C0M760,民雄,2017-04-12,23.551754,120.428457,0.94266456
C0UA40,西德山,2017-04-12,24.560647,121.752608,5.954518e-09
C1T920,中興,2017-04-12,23.769503,121.498653,1.0701857e-09
C0D550,雪霸,2017-04-12,24.526972,121.11605,4.5352238e-09
C2F860,梨山,2017-04-12,24.247522,121.243669,4.5582396e-09
C0R320,車城,2017-04-12,22.0744,120.716247,0.770043
C1S870,南美山,2017-04-12,23.15025,121.382333,7.587204e-10
C0B020,基隆嶼,2017-04-12,25.19141,121.78391,0.0144424355
C1U501,牛鬥,2017-04-12,24.637836,121.573656,1.8328713e-09
C0M730,嘉義市東區,2017-04-12,23.457673,120.460531,0.9949502
C0S700,知本,2017-04-12,22.684866,121.005642,8.11544e-09
C1N001,沙崙,2017-04-12,22.935472,120.309406,0.057464126
C0V760,橋頭,2017-04-12,22.757806,120.30575,0.19704914
C0G960,福寶,2017-04-12,24.0443,120.3814,2.5539427e-07
C0X210,白河,2017-04-12,23.347466,120.414427,0.94887066
C0S810,東河,2017-04-12,22.972672,121.303986,8.519052e-08
C2R170,屏東,2017-04-12,22.66027,120.49403,9.001697e-10
C0R670,楓港,2017-04-12,22.190131,120.692156,0.9702951
C0FA50,霧峰,2017-04-12,24.0419,120.6995,2.1093841e-07
C0UB10,蘇澳,2017-04-12,24.5969,121.8571,3.9305638e-07
C0G950,防潮門,2017-04-12,24.1835,120.4871,8.002191e-08
C0M740,六腳,2017-04-12,23.492871,120.290625,0.0020718232
C1R250,力里,2017-04-12,22.428117,120.629228,0.59468687
C0K330,虎尾,2017-04-12,23.719183,120.442036,7.3527563e-06
C2FA00,烏石坑,2017-04-12,24.273503,120.947617,1.0764296e-09
C0V620,永安,2017-04-12,22.82315,120.236856,0.6556503
C1I330,楓樹林,2017-04-12,23.986803,121.076117,1.7666807e-09
C0W200,湖西,2017-04-12,23.596314,119.67275,0.96777153
72Q010,高雄農改場,2017-04-12,22.709333,120.525889,6.419887e-10
C0SA40,瑞和,2017-04-12,22.974361,121.156697,1.2586682e-09
C0C680,龜山,2017-04-12,25.02846,121.38656,9.503413e-09
C2V260,月眉,2017-04-12,22.971003,120.539853,0.00013396998
C0V450,鳳森,2017-04-12,22.545064,120.392592,4.8472466e-06
C0U720,南山,2017-04-12,24.43742,121.38167,2.3397666e-09
A2N290,臺南蘭花園區,2017-04-12,23.340258,120.379661,0.8668036
C0R560,新園,2017-04-12,22.5434,120.461558,1.523747e-05
C0U890,三星,2017-04-12,24.66812,121.65302,2.1893003e-09
C1V300,御油山,2017-04-12,23.001983,120.715364,3.3018912e-09
C0U600,礁溪,2017-04-12,24.817539,121.765608,2.0792946e-08
C1T980,龍澗,2017-04-12,24.023289,121.411328,1.7232896e-08
C0D670,海天一線,2017-04-12,24.831986,120.914438,1.9129947e-08
C0SA00,歷坵,2017-04-12,22.520969,120.89185,9.9613535e-09
C0M710,東石,2017-04-12,23.458927,120.15385,1.3074579e-07
C0M780,鹿草,2017-04-12,23.41134,120.30835,0.0041063847
C0U520,雙連埤,2017-04-12,24.753033,121.641303,3.3034282e-09
C0B010,七堵,2017-04-12,25.094819,121.71713,5.2195748e-08
C0R480,長治,2017-04-12,22.693128,120.542622,1.8887974e-08
C1V830,國三S383K,2017-04-12,22.781967,120.426475,4.1308965e-09
12Q980,恆春工作站,2017-04-12,22.079678,120.714425,0.770043
C1O940,東山服務區,2017-04-12,23.286016,120.398472,0.9441176
C1U840,東澳嶺,2017-04-12,24.5378,121.8485,1.0715548e-08
C1D630,飛鳳山,2017-04-12,24.766464,121.119178,2.506237e-09
C0S940,石寧山,2017-04-12,23.223772,121.406639,8.8126495e-10
C0K410,北港,2017-04-12,23.573957,120.292802,1.7312956e-06
C2M620,瑞里,2017-04-12,23.545133,120.675197,1.8316936e-09
C0SB70,小港漁港,2017-04-12,23.158558,121.400431,6.1929567e-10
C2O950,安南,2017-04-12,23.076694,120.144861,1.4746693e-06
C0F0E0,南湖圈谷,2017-04-12,24.363714,121.444667,2.346825e-08
467610,成功,2017-04-12,23.097486,121.373428,4.6940596e-10
C0G890,伸港,2017-04-12,24.148933,120.484403,5.2790067e-08
C2E540,龍溪,2017-04-12,24.606489,120.783933,3.2099678e-09
C1V200,梅山,2017-04-12,23.268447,120.823556,1.3822842e-09
C0T9H0,加路蘭山,2017-04-12,23.682947,121.5274,3.5919845e-09
C2O930,玉井,2017-04-12,23.126042,120.46055,0.75963193
C1F911,新伯公,2017-04-12,24.221361,120.841069,4.938249e-09
C0R490,九如,2017-04-12,22.7405,120.490503,6.4910294e-10
C0X200,左鎮,2017-04-12,23.056758,120.408522,0.16612904
C0SB50,叭嗡嗡,2017-04-12,23.047062,121.343223,7.6381695e-10
C1F891,稍來,2017-04-12,24.265689,121.001142,6.012345e-09
72N240,七股研究中心,2017-04-12,23.081672,120.062894,1.8366906e-06
C0C700,中壢,2017-04-12,24.977661,121.256375,4.4525295e-09
C0M690,水上,2017-04-12,23.419734,120.388909,0.19652715
C0V690,鼓山,2017-04-12,22.623325,120.275575,0.0073523913
C0O860,大內,2017-04-12,23.11885,120.36083,0.07633508
C0Z200,萬榮,2017-04-12,23.709219,121.420106,1.1997153e-09
C0T9D0,和中,2017-04-12,24.26676,121.74103,4.8769223e-08
C1O921,楠西,2017-04-12,23.183511,120.484083,0.982321
C0AJ30,淡水觀海,2017-04-12,25.184591,121.408616,8.990429e-07
C0V810,左營,2017-04-12,22.67491,120.28491,0.6679167
C0UA70,桃源谷,2017-04-12,24.962606,121.888875,3.160704e-08
C0X130,官田,2017-04-12,23.193217,120.315422,0.7961197
C1H000,翠峰,2017-04-12,24.109397,121.205211,4.2848316e-09
C0UA90,石城,2017-04-12,24.980444,121.951214,5.7519574e-06
C1E681,南勢山,2017-04-12,24.421669,120.923831,1.8958564e-09
C0A9F0,內湖,2017-04-12,25.079422,121.57545,9.435646e-09
C0K291,宜梧,2017-04-12,23.536281,120.169329,2.3353484e-06
C1K540,口湖,2017-04-12,23.585344,120.180517,2.7030342e-08
C0R780,滿州,2017-04-12,22.024403,120.839892,0.7351781
C0V870,文安,2017-04-12,22.8025,120.2164,0.7293498
C0U650,玉蘭,2017-04-12,24.675286,121.587061,1.8081555e-09
C0R640,東港,2017-04-12,22.46247,120.44074,5.74425e-06
K2E360,苗栗農改,2017-04-12,24.495722,120.829111,3.099486e-09
C0AJ80,板橋,2017-04-12,25.0107,121.4489,3.2826375e-07
C0S660,下馬,2017-04-12,23.150427,121.070312,4.5477146e-09
C1H9B1,阿眉,2017-04-12,24.1263,120.994672,4.0185144e-09
C0UA20,多加屯,2017-04-12,24.368614,121.373189,2.2665308e-08
C0E730,頭份,2017-04-12,24.688247,120.912206,1.052781e-08
72V140,高改旗南分場,2017-04-12,22.857861,120.516667,3.0431405e-08
C0K480,莿桐,2017-04-12,23.761192,120.502372,0.00010909336
C0U980,坪林石牌,2017-04-12,24.86478,121.77396,8.173537e-09
C0T900,西林,2017-04-12,23.8119,121.441458,1.3030141e-09
C1I150,青雲,2017-04-12,23.793361,120.949378,1.5742402e-09
467350,澎湖,2017-04-12,23.565503,119.563094,0.97406745
C0G800,埔鹽,2017-04-12,24.000394,120.431683,9.2248524e-07
C0H960,草屯,2017-04-12,23.973672,120.68085,1.4864293e-07
C1V780,多納林道,2017-04-12,22.888028,120.737917,1.1195552e-09
C0E920,通霄漁港,2017-04-12,24.498589,120.673876,4.5494517e-08
C0Z330,安通山,2017-04-12,23.290728,121.348528,1.6384939e-09
C0AH10,永和,2017-04-12,25.01125,121.508111,3.2826375e-07
C0AK10,太平里,2017-04-12,25.134937,121.364899,3.4800188e-08
C2G640,鹿港,2017-04-12,24.0753,120.430481,2.5539427e-07
C1E890,國三N149K,2017-04-12,24.463414,120.680019,3.700638e-09
C1R110,口社,2017-04-12,22.770111,120.645222,5.891781e-10
C1M870,國三N285K,2017-04-12,23.550319,120.505833,0.9914707
467050,新屋,2017-04-12,25.006744,121.047486,7.176279e-08
C1E480,鳳美,2017-04-12,24.554803,121.034747,1.2791795e-09
C0M530,奮起湖,2017-04-12,23.493903,120.699253,2.1704614e-09
C0C590,觀音,2017-04-12,25.027072,121.153317,7.5310254e-08
C0T9M0,靜浦,2017-04-12,23.455167,121.495028,6.8296074e-10
C2H9M0,發祥,2017-04-12,24.154094,121.164517,2.00082e-09
C0AI40,石牌,2017-04-12,25.115597,121.513139,1.0797448e-08
C1F871,上谷關,2017-04-12,24.203483,121.018644,1.2458065e-09
C2H9G0,百勝,2017-04-12,24.051142,120.909361,7.06236e-10
C0G880,二水,2017-04-12,23.810742,120.6173,0.7876804
C0R940,加祿堂,2017-04-12,22.3363,120.6217,0.9978102
C0W220,北竿,2017-04-12,26.220358,119.974881,9.283444e-09
C0O960,崎頂,2017-04-12,22.959547,120.369317,0.0075478274
C0S750,向陽,2017-04-12,23.248397,120.986133,3.2236072e-09
C0T9F0,水璉,2017-04-12,23.797131,121.542514,1.5212988e-09
C1M600,頭凍,2017-04-12,23.406364,120.603339,9.96553e-10
467660,臺東,2017-04-12,22.752211,121.154586,5.3503576e-05
C1D380,新埔,2017-04-12,24.84745,121.03834,4.409974e-09
C2G980,田頭村,2017-04-12,23.8263,120.444175,2.0518505e-06
C0V750,路竹,2017-04-12,22.854997,120.259439,1.4145016e-06
C0N050,蚵寮,2017-04-12,23.301,120.1104,0.0006362103
72M700,南改鹿草分場,2017-04-12,23.416869,120.283061,0.0050427387
C1SA50,利嘉林道,2017-04-12,22.82325,121.009389,2.4435115e-08
467550,玉山,2017-04-12,23.487614,120.959522,4.516511e-08
C0A940,金山,2017-04-12,25.223628,121.643967,2.7474591e-09
C1V340,大津,2017-04-12,22.888322,120.645986,2.6642738e-10
C0W180,七美,2017-04-12,23.219333,119.444892,0.99071217
C1F9C1,白冷,2017-04-12,24.182844,120.929889,2.0953579e-09
K2E710,苗改生物防治研究中心,2017-04-12,24.422861,120.871833,3.4949834e-09
C0N040,蘆竹溝,2017-04-12,23.2344,120.0961,3.652766e-05
C2W230,畜試所澎湖,2017-04-12,23.628342,119.513206,0.91986686
C0R880,後壁湖,2017-04-12,21.9457,120.7457,0.67906225
C1I280,埔中,2017-04-12,23.820778,120.642594,4.5992233e-06
467790,墾丁雷達站,2017-04-12,21.948235,120.808028,0.893986
C0W190,望安,2017-04-12,23.380564,119.494075,0.9820609
466881,新北,2017-04-12,24.9593,121.52,2.6815934e-07
C0Z170,卓溪,2017-04-12,23.3443,121.3029,8.2359425e-10
C0F850,東勢,2017-04-12,24.246428,120.833047,2.1356309e-08
466900,淡水,2017-04-12,25.164889,121.448906,3.4800188e-08
C0I370,魚池,2017-04-12,23.895703,120.94135,6.985142e-10
C0C630,大溪,2017-04-12,24.882853,121.265547,2.7682474e-09
C0A520,山佳,2017-04-12,24.974944,121.402008,9.5484e-09
C0I110,竹山,2017-04-12,23.761225,120.688156,0.3964186
82H840,茶改南部分場,2017-04-12,23.762528,120.7405,7.184624e-06
C0G660,溪湖,2017-04-12,23.94835,120.479122,3.0804536e-06
C1T800,洛韶,2017-04-12,24.204558,121.453956,1.892122e-08
C1T810,慈恩,2017-04-12,24.192044,121.388386,2.9213658e-09
C1E451,象鼻,2017-04-12,24.368617,120.940228,1.9723867e-09
C0AC60,三峽,2017-04-12,24.939025,121.369728,4.9855884e-09
C0I490,萬大林道,2017-04-12,23.928228,121.091411,3.6763033e-09
C1I290,豐丘,2017-04-12,23.668178,120.887417,1.780048e-09
C1I320,奧萬大,2017-04-12,23.952956,121.178556,2.3147624e-09
C2M910,嘉義大學,2017-04-12,23.471325,120.485903,0.9923935
C0U770,南澳,2017-04-12,24.44935,121.81022,3.2932013e-07
C0A980,社子,2017-04-12,25.109508,121.469681,3.8713495e-08
C0V800,六龜,2017-04-12,22.997889,120.633583,5.8651015e-08
C1G9D0,國一S218K,2017-04-12,23.890641,120.493253,4.5958122e-06
C0E570,白沙屯,2017-04-12,24.549447,120.696803,5.2478054e-08
C2F9A0,中竹林,2017-04-12,24.103556,120.751061,3.2001135e-09
C0FA40,臺中電廠,2017-04-12,24.2146,120.4907,8.039044e-08
C2G9A0,畜試所彰化,2017-04-12,23.86045,120.557964,1.9362685e-06
C0H9C0,合歡山,2017-04-12,24.143442,121.272547,1.6590489e-08
C0X060,下營,2017-04-12,23.22695,120.256261,0.46834153
G2M350,農試溪口農場,2017-04-12,23.58565,120.408111,0.9557691
C0U860,頭城,2017-04-12,24.85323,121.8308,2.1337417e-08
C0R580,南州,2017-04-12,22.48591,120.50274,5.74425e-06
C0D430,峨眉,2017-04-12,24.6905,121.017189,3.871547e-09
C0G780,秀水,2017-04-12,24.03405,120.503869,6.0892677e-07
72N100,臺南農改場,2017-04-12,23.0605,120.342194,0.056716166
C0S900,蘭嶼高中,2017-04-12,22.04909,121.51214,0.99994415
467540,大武,2017-04-12,22.355675,120.903789,0.00027399245
C1F9W0,德基,2017-04-12,24.254783,121.190261,4.5323354e-09
C1Z120,壽豐,2017-04-12,23.870853,121.508081,6.915492e-10
C0W160,烏坵,2017-04-12,24.9944,119.44956,2.1356803e-07
C1I240,外大坪,2017-04-12,23.958697,120.917931,4.166219e-09
C1I550,國六W023K,2017-04-12,23.979067,120.867742,1.2063398e-09
C0R870,興海,2017-04-12,21.9752,120.8439,0.93286806
C0R140,瑪家,2017-04-12,22.682903,120.686639,3.7872816e-10
C0A530,坪林,2017-04-12,24.938183,121.70975,4.2072504e-08
C0X260,後壁,2017-04-12,23.366358,120.362326,0.8664131
C0Z230,和平,2017-04-12,24.30717,121.77007,5.28962e-08
C0G770,福興,2017-04-12,24.041289,120.437669,9.2248524e-07
C0H9A0,神木村,2017-04-12,23.532742,120.843667,2.4088826e-09
C0I460,南投,2017-04-12,23.911469,120.687331,4.391676e-05
C0I480,梅峰,2017-04-12,24.085272,121.173572,2.8194347e-09
C1V570,吉東,2017-04-12,22.85422,120.5454,2.5459824e-08
C2D740,屯原,2017-04-12,24.067969,121.209389,2.2962363e-09
C2A560,福山,2017-04-12,24.776203,121.502811,3.845047e-09
C0AH30,五分山,2017-04-12,25.07125,121.780794,1.1824256e-08
C0FA10,松柏,2017-04-12,24.429115,120.617482,7.0983672e-09
72S200,東改班鳩分場,2017-04-12,22.829528,121.077694,6.898307e-08
72HA00,中改埔里分場,2017-04-12,23.903208,120.963364,6.171072e-10
C2H9W0,大坪頂農水,2017-04-12,24.043122,120.932781,9.499259e-10
C0C650,平鎮,2017-04-12,24.897503,121.214636,3.0509206e-09
C0S930,延平,2017-04-12,22.902581,121.084058,3.9690695e-09
C0UA60,樟樹山,2017-04-12,24.41393,121.78325,1.101835e-08
C1S670,摩天,2017-04-12,23.199503,121.027,1.7539667e-08
C0V630,茄萣,2017-04-12,22.906642,120.182608,1.7986854e-06
466940,基隆,2017-04-12,25.133314,121.740475,4.2325598e-07
C0X050,東河,2017-04-12,23.296598,120.385608,0.9651586
C0R770,保力,2017-04-12,22.071122,120.764111,0.8754716
G2L020,農試嘉義分所,2017-04-12,23.485028,120.473806,0.95400393
C0X240,關子嶺,2017-04-12,23.331169,120.508025,3.3471402e-05
C0I380,集集,2017-04-12,23.828206,120.801467,7.725102e-05
466990,花蓮,2017-04-12,23.975128,121.613275,4.0061243e-09
C1V220,小關山,2017-04-12,23.154217,120.813603,2.838249e-09
C1F9G1,慶福山,2017-04-12,24.180853,120.848378,7.7879425e-10
C0Z250,瑞穗林道,2017-04-12,23.49284,121.30688,1.818588e-08
C0D590,新豐,2017-04-12,24.87068,120.97721,1.3272428e-08
C0A870,五指山,2017-04-12,25.132153,121.608692,2.4582685e-09
C0UA50,西帽山,2017-04-12,24.555361,121.802628,4.0764516e-09
C0X160,仁德,2017-04-12,22.968258,120.257689,0.057171956
C1H971,六分寮,2017-04-12,23.92507,120.6378,2.9536545e-07
C0W120,西嶼,2017-04-12,23.5626,119.468436,0.9263342
C0G650,員林,2017-04-12,23.946503,120.585597,3.2166372e-05
C0AD50,鶯歌,2017-04-12,24.951533,121.346294,4.5566577e-09
C2H9Q0,北東眼山,2017-04-12,24.120939,121.189303,4.940925e-09
C2H9T0,名間竹圍,2017-04-12,23.859914,120.637572,7.195981e-07
C0S990,山豬窟,2017-04-12,22.318619,120.857372,3.4317545e-05
72Q010,高雄農改,2017-04-12,22.709333,120.525889,6.419887e-10
C0X190,安平,2017-04-12,22.993161,120.152181,1.1117368e-06
C0K400,斗六,2017-04-12,23.720583,120.541127,0.004774341
12J990,口湖工作站,2017-04-12,23.589978,120.180394,2.7050922e-08
C0O830,北寮,2017-04-12,23.079561,120.495008,0.6348578
C1D410,白蘭,2017-04-12,24.579364,121.079947,4.083354e-09
C0S970,加津林,2017-04-12,22.416211,120.926942,6.581819e-05
C0D700,關西,2017-04-12,24.7977,121.1732,2.3650226e-09
C0M810,里佳,2017-04-12,23.389125,120.716647,1.8128381e-09
C0U750,龜山島,2017-04-12,24.841667,121.953133,0.00013276047
C0R810,內獅,2017-04-12,22.305064,120.642986,0.9979393
C1M390,龍美,2017-04-12,23.406728,120.654417,1.2587402e-09
C2FB60,頭櫃山,2017-04-12,24.129842,120.858925,2.2886457e-09
C1H840,國三N238K,2017-04-12,23.841008,120.707711,1.4012537e-06
CAQ030,崎峰國小,2017-04-12,22.42565,120.49521,5.74425e-06
C2E520,大湖,2017-04-12,24.414939,120.870872,3.1235274e-09
467530,阿里山,2017-04-12,23.508208,120.813242,1.0421425e-08
C1E691,南湖,2017-04-12,24.40135,120.837533,1.5868171e-09
C0FA30,梧棲,2017-04-12,24.256003,120.523381,3.2717388e-08
C1V231,高中,2017-04-12,23.134911,120.716711,5.0652854e-10
C0F9V0,新社,2017-04-12,24.200172,120.815806,2.7144664e-09
C0H890,埔里,2017-04-12,23.972169,120.952425,8.880481e-10
C0R690,墾丁,2017-04-12,21.966756,120.810269,0.90455073
C0F0D0,審馬陣,2017-04-12,24.381675,121.4203,3.6285094e-08
C0R820,白鷺,2017-04-12,22.454275,120.666219,9.572447e-10
U2H480,臺大溪頭,2017-04-12,23.670306,120.798194,1.666609e-09
C1V190,南天池,2017-04-12,23.27403,120.91176,3.1481997e-09
K2E360,苗栗農改場,2017-04-12,24.495722,120.829111,3.09948e-09
CAJ050,海口故事園區,2017-04-12,23.57543,120.14121,2.7050922e-08
C2H9D0,三隻寮,2017-04-12,24.093078,120.861578,9.640002e-10
C0O990,媽廟,2017-04-12,22.99175,120.293525,0.13456158
C0D480,打鐵坑,2017-04-12,24.849664,121.150789,2.4899465e-09
C0Z220,和平林道,2017-04-12,24.343922,121.656317,9.448505e-09
C0TA10,花蓮漁港,2017-04-12,23.995322,121.638331,4.2237067e-09
72C440,桃園農改場,2017-04-12,24.950944,121.030583,2.931621e-08
C1E711,馬拉邦山,2017-04-12,24.367306,120.901656,2.0024578e-09
C0SB20,富岡,2017-04-12,22.792467,121.192669,2.672039e-05
C0D560,竹東,2017-04-12,24.767147,121.057881,2.5003977e-09
C0F9U0,南屯,2017-04-12,24.137006,120.637969,6.709267e-07
C0M720,番路,2017-04-12,23.464657,120.554156,0.9549001
C0F0A0,雪山圈谷,2017-04-12,24.388594,121.236339,5.6413384e-08
C1A9N0,四十份,2017-04-12,24.934158,121.593283,2.6188316e-08
C0U760,東澳,2017-04-12,24.52196,121.83318,5.252099e-06
C0X230,鹽水,2017-04-12,23.272621,120.247641,0.0004566129
C2H9H0,苗改南投蜂場,2017-04-12,23.852589,120.693481,0.8347429
C0R950,萬隆國小,2017-04-12,22.507667,120.587817,0.0017726563
C0V370,古亭坑,2017-04-12,22.893178,120.401947,0.15347923
C1I340,新興橋,2017-04-12,23.563333,120.868728,1.8132946e-09
C0SA80,土坂,2017-04-12,22.453108,120.887572,3.9493543e-08
C0R160,鹽埔,2017-04-12,22.739558,120.530778,6.419887e-10
C0AC40,大屯山,2017-04-12,25.175675,121.522408,5.999812e-09
466850,五分山雷達站,2017-04-12,25.071182,121.781205,1.2225687e-08
C2H9L0,馬烈霸,2017-04-12,24.1512,121.201772,4.8163344e-09
C1AI50,國三N016K,2017-04-12,25.034164,121.619664,7.411691e-09
C1V600,藤枝,2017-04-12,23.071961,120.757042,2.441619e-09
C1E601,南勢,2017-04-12,24.572486,120.734842,1.2051008e-08
C0Z180,新城,2017-04-12,24.03946,121.60454,4.6684363e-09
C0O980,新市,2017-04-12,23.061614,120.298197,0.12742218
C0K420,西螺,2017-04-12,23.800407,120.467394,1.5050513e-06
C0Z050,佳心,2017-04-12,23.34567,121.21316,8.062735e-09
C0AD30,蘆洲,2017-04-12,25.086594,121.472331,9.981704e-09
C0V610,梓官,2017-04-12,22.760558,120.267211,0.1966577
K2F750,種苗改良場,2017-04-12,24.225972,120.800917,3.5764591e-09
C0UA80,大溪漁港,2017-04-12,24.941801,121.902955,5.675469e-07
C1AI60,國一39K邊坡,2017-04-12,25.064361,121.383836,1.0535403e-08
C0W150,金寧,2017-04-12,24.457703,118.328989,6.1604672e-09
C0R960,內埔,2017-04-12,22.608483,120.570714,2.3022444e-09
V2C250,八德合作社,2017-04-12,24.93775,121.266389,3.5009013e-09
C2H9S0,龍南,2017-04-12,23.953536,120.833183,9.383935e-10
C0AH40,平等,2017-04-12,25.129142,121.577086,1.7036211e-09
C0R540,佳冬,2017-04-12,22.419456,120.552375,0.106758624
466950,彭佳嶼,2017-04-12,25.627975,122.079744,0.08460265
C0A890,雙溪,2017-04-12,25.036003,121.864242,1.4784919e-05
C0C480,桃園,2017-04-12,24.992425,121.323172,4.9870814e-09
C0AH50,林口,2017-04-12,25.072181,121.38084,8.962914e-09
A2K360,水試臺西試驗場,2017-04-12,23.717231,120.190522,4.4773816e-07
B2N890,畜試所,2017-04-12,23.058972,120.336406,0.05671613
C2M960,外寮,2017-04-12,23.562643,120.665688,1.9470072e-09
C0F9S0,烏日,2017-04-12,24.107058,120.624103,1.0998436e-05
C0C490,八德,2017-04-12,24.928708,121.283289,3.4362997e-09
C0R190,赤山,2017-04-12,22.592333,120.614306,2.1851867e-09
C0T820,天祥,2017-04-12,24.179597,121.495639,1.6185504e-08
C1F9E1,龍安,2017-04-12,24.1605,120.831961,2.5153697e-09
C0V820,小林,2017-04-12,23.148408,120.63325,2.085023e-05
C2G870,芳苑,2017-04-12,23.922303,120.320025,1.0139473e-08
C0E850,大河,2017-04-12,24.618069,120.948578,5.6337655e-09
C1U670,寒溪,2017-04-12,24.634,121.71691,1.1238454e-08
C0N020,城西,2017-04-12,23.0568,120.0956,1.1089888e-06
C1Z110,三棧,2017-04-12,24.11557,121.60501,1.5250007e-08
C0R280,檳榔,2017-04-12,22.076078,120.836777,0.016171366
C2H9J0,中台,2017-04-12,23.9996,120.938739,7.911882e-10
C0F9L0,后里,2017-04-12,24.310436,120.729725,1.7671299e-08
C0D540,橫山,2017-04-12,24.71116,121.11693,2.5929598e-09
C1D420,太閣南,2017-04-12,24.632808,121.160575,3.94936e-09
C1E770,公館,2017-04-12,24.526914,120.830806,3.983616e-09
CAN130,水試所海水繁養殖中心,2017-04-12,23.120802,120.07968,1.8366906e-06
C1I430,翠華,2017-04-12,24.191961,121.224339,3.8633075e-09
C1M400,菜瓜坪,2017-04-12,23.251928,120.576103,2.8912104e-09
C0G730,二林,2017-04-12,23.903325,120.376081,9.63907e-07
72M360,南改義竹分場,2017-04-12,23.360694,120.279361,0.0007339236
V2K620,麥寮合作社,2017-04-12,23.753836,120.294783,2.614009e-07
C0Z070,舞鶴,2017-04-12,23.46811,121.37407,9.112011e-10
C0B040,大武崙,2017-04-12,25.166676,121.706993,2.2973529e-07
C1Z030,紅葉,2017-04-12,23.493119,121.338806,7.2798895e-10
C1I050,丹大,2017-04-12,23.753747,121.141147,4.89373e-09
C0I080,信義,2017-04-12,23.689694,120.851036,1.9121913e-09
C2M920,朴子農改,2017-04-12,23.469889,120.259383,0.004266559
C2A880,福隆,2017-04-12,25.017842,121.942083,7.425238e-06
C0Z160,鳳林,2017-04-12,23.746114,121.453411,1.1460304e-09
C0V210,復興,2017-04-12,23.222403,120.806089,1.1867813e-09
C0H990,昆陽,2017-04-12,24.121322,121.273642,1.0032667e-08
C0R741,獅子,2017-04-12,22.202308,120.705236,0.98649865
C0S710,鹿野,2017-04-12,22.917711,121.122994,1.4817361e-09
C0I530,小奇萊,2017-04-12,24.131764,121.295717,1.07544915e-08
C2K630,荷苞,2017-04-12,23.657717,120.595144,0.98371136
C0Z080,富源,2017-04-12,23.587642,121.378225,3.0592593e-09
467441,高雄,2017-04-12,22.7304,120.3125,0.16267525
C0SB10,美和,2017-04-12,22.682078,121.060236,1.2738408e-08
C2K620,馬光農場,2017-04-12,23.721453,120.378864,1.1725689e-05
C1I140,卡奈托灣,2017-04-12,23.754364,121.087872,3.3520273e-09
C0I520,玉山風口,2017-04-12,23.470489,120.955994,3.760817e-08
C1G691,下水埔,2017-04-12,23.816114,120.5676,7.162144e-05
C0X110,臺南市南區,2017-04-12,22.961189,120.188378,0.057156716
C0V680,仁武,2017-04-12,22.701083,120.347722,0.668076
C2G840,北斗,2017-04-12,23.877586,120.514222,3.6540334e-06
C0R900,竹坑,2017-04-12,22.1385,120.7022,0.78881633
C0K250,崙背,2017-04-12,23.75555,120.318925,2.614009e-07
C0G860,社頭,2017-04-12,23.897647,120.5862,2.2037339e-06
C0X150,安定,2017-04-12,23.102614,120.227839,0.0018052558
C0R590,里港,2017-04-12,22.77919,120.49459,6.187009e-09
C0E610,馬都安,2017-04-12,24.451272,120.930192,1.6471012e-09
C0E550,明德,2017-04-12,24.583486,120.885411,4.9139706e-09
C0R150,三地門,2017-04-12,22.709889,120.639944,5.89783e-10
C0G910,花壇,2017-04-12,24.032076,120.549461,4.3386467e-07
C1D400,鳥嘴山,2017-04-12,24.71909,121.28387,2.4226827e-09
C0K500,元長,2017-04-12,23.64981,120.315024,8.702114e-07
C0F0B0,石岡,2017-04-12,24.276061,120.777644,8.315041e-09
C2V250,甲仙,2017-04-12,23.080106,120.591758,0.007856982
C0SA20,金崙山,2017-04-12,22.567419,120.959667,9.759837e-09
C0V350,溪埔,2017-04-12,22.738578,120.446797,1.9893289e-08
C0M660,溪口,2017-04-12,23.604131,120.403569,0.9557691
C1S880,壽卡,2017-04-12,22.238911,120.858903,0.23424229
72D680,桃改新埔分場,2017-04-12,24.834444,121.066111,4.4620427e-09
