站號,站名,日期,lat,lon,BLBTSLS
C0R710,龍磐,2017-11-30,21.931672,120.838942,0.9858593
C1F9D1,白毛台,2017-11-30,24.158325,120.886933,5.6425087e-09
C0G940,竹塘,2017-11-30,23.848253,120.386764,0.99987483
467590,恆春,2017-11-30,22.003897,120.746339,0.9805368
C1O850,環湖,2017-11-30,23.148617,120.418633,7.120371e-07
C0U710,太平山,2017-11-30,24.505486,121.525656,3.2396038e-08
C0E820,獅潭,2017-11-30,24.539133,120.920042,1.3558465e-08
C0V880,興達,2017-11-30,22.8778,120.2127,0.9923724
C0S890,關山,2017-11-30,23.0395,121.175017,2.150352e-05
C0SB30,新蘭,2017-11-30,22.869214,121.223228,0.786286
C2R970,屏科大,2017-11-30,22.648275,120.619247,4.5017248e-09
K2F750,種苗繁殖,2017-11-30,24.225972,120.800917,2.9690916e-09
C1Z130,銅門,2017-11-30,23.965694,121.492842,6.8229964e-09
C0AD40,土城,2017-11-30,24.973208,121.445169,0.40105855
CAN140,六官養殖協會,2017-11-30,23.22881,120.29962,0.9999122
C0X180,山上,2017-11-30,23.0757,120.363253,7.294402e-05
C0F9Z0,雪山東峰,2017-11-30,24.388792,121.268675,2.7329362e-08
C1M480,獨立山,2017-11-30,23.537022,120.607797,2.5146405e-09
C0X220,學甲,2017-11-30,23.230367,120.182187,0.99996203
467650,日月潭,2017-11-30,23.881325,120.90805,5.7077902e-09
C0K600,箔子寮,2017-11-30,23.6197,120.14,0.9995182
C0G830,埤頭,2017-11-30,23.866003,120.452806,8.064738e-05
C0S950,七塊厝,2017-11-30,22.954453,121.229922,1.7926077e-08
467110,金門,2017-11-30,24.407306,118.289281,0.99997765
C0AH80,深坑,2017-11-30,25.002703,121.628328,0.105141915
467990,馬祖,2017-11-30,26.169269,119.923419,0.41259784
C0A970,三貂角,2017-11-30,25.007606,122.002058,1.6845948e-05
C2D730,寶山農場,2017-11-30,24.732444,120.976153,2.4866693e-05
C0K430,褒忠,2017-11-30,23.690938,120.303634,0.9998994
467480,嘉義,2017-11-30,23.495925,120.432906,0.99975836
C2E540,後龍,2017-11-30,24.606489,120.783933,0.99471855
C0V400,阿公店,2017-11-30,22.804194,120.355528,9.512629e-08
C0R440,大漢山,2017-11-30,22.405264,120.753181,8.107892e-08
C0K280,四湖,2017-11-30,23.630414,120.227125,0.99987864
C1F9B1,桐林,2017-11-30,24.066172,120.735194,1.8875144e-09
C2H9U0,鳳鵬,2017-11-30,23.763919,120.788061,1.7384219e-09
C0K390,土庫,2017-11-30,23.679029,120.395574,0.99968565
C1I450,望鄉山,2017-11-30,23.594153,120.944286,1.3343627e-08
C0E910,海埔,2017-11-30,24.648767,120.772435,0.99456334
B2E890,畜試北區分所,2017-11-30,24.527806,120.770972,1.3582743e-08
C0R750,四林格山,2017-11-30,22.076989,120.802439,0.99987483
C0F0C0,中坑,2017-11-30,24.248517,120.903319,4.836642e-09
C1I121,大鞍,2017-11-30,23.678381,120.760017,9.808601e-09
72U480,花改蘭陽分場,2017-11-30,24.686306,121.716583,2.3335147e-08
C0A770,科教館,2017-11-30,25.096356,121.516507,0.00028378973
C0AJ60,六塊厝,2017-11-30,25.24,121.4481,0.9999654
C0R620,墾雷,2017-11-30,21.900836,120.855269,0.990799
467420,永康,2017-11-30,23.038386,120.2367,0.10618088
467300,東吉島,2017-11-30,23.25695,119.667467,0.9970509
C0I410,名間,2017-11-30,23.837053,120.701447,1.7397421e-09
A2C560,農工中心,2017-11-30,24.985917,121.239833,0.99964845
C0V740,旗山,2017-11-30,22.888614,120.483597,2.5228846e-09
C0Z061,玉里,2017-11-30,23.3215,121.339656,6.6540946e-09
C0S840,南田,2017-11-30,22.279725,120.889208,0.1459364
C1I470,杉林溪,2017-11-30,23.639517,120.786444,1.0109329e-08
C1X040,東原,2017-11-30,23.291597,120.463822,4.687432e-09
C0R660,枋寮,2017-11-30,22.367722,120.590647,0.9506262
C1R120,上德文,2017-11-30,22.763272,120.704442,8.392125e-09
C0K450,大埤,2017-11-30,23.646074,120.431537,0.4960463
C0UA00,土場,2017-11-30,24.576533,121.495333,1.1706236e-07
467080,宜蘭,2017-11-30,24.763975,121.756528,1.3976082e-08
C0N030,四草,2017-11-30,23.0235,120.1116,0.99978065
C0V650,彌陀,2017-11-30,22.783806,120.246361,0.90968806
C0D660,新竹市東區,2017-11-30,24.798681,120.986942,0.99954283
82S580,茶改東部分場,2017-11-30,22.907694,121.130139,0.017832797
C0SB40,興隆,2017-11-30,22.913661,121.257469,0.71929634
C0C710,大溪永福,2017-11-30,24.892936,121.324975,0.022844173
C0FA20,溫寮,2017-11-30,24.372177,120.583125,0.93062747
C0V640,湖內,2017-11-30,22.887139,120.2445,0.9897639
C0R910,下寮,2017-11-30,22.3929,120.5548,0.9506262
C0Z020,明里,2017-11-30,23.208717,121.262342,6.974615e-09
C0M770,嘉義梅山,2017-11-30,23.585398,120.555587,1.771017e-08
G2F820,農業試驗所,2017-11-30,24.031261,120.688133,5.133752e-09
C0C660,楊梅,2017-11-30,24.912375,121.143047,0.99924016
C1E511,新開,2017-11-30,24.347703,120.827019,3.034167e-09
G2F820,農試所(霧峰),2017-11-30,24.031261,120.688133,5.133752e-09
C1I070,和社,2017-11-30,23.591131,120.888861,2.4128889e-08
C2F000,大肚,2017-11-30,24.15295,120.572117,1.7830892e-09
C1S850,豐南,2017-11-30,23.122139,121.262389,7.740439e-09
C2A920,富貴角,2017-11-30,25.263783,121.565258,0.99982464
CAH030,茶改場竹圍站,2017-11-30,23.860083,120.637528,2.0332431e-09
C0T960,光復,2017-11-30,23.660694,121.424964,4.6128967e-08
C0F9M0,豐原,2017-11-30,24.254322,120.720692,1.0914853e-08
C0R720,旭海,2017-11-30,22.205403,120.887614,0.102300175
C0V710,苓雅,2017-11-30,22.622742,120.330669,3.9141455e-06
C0C740,觀音工業區,2017-11-30,25.064764,121.114856,0.99998575
CAC040,拉拉山,2017-11-30,24.699317,121.427133,9.1751e-08
C0V790,萬山,2017-11-30,22.905944,120.688056,2.25694e-09
U2HA30,臺大和社,2017-11-30,23.590856,120.888864,2.4128843e-08
C0AJ90,澳底,2017-11-30,25.0552,121.9253,0.62745196
C0Z100,東華,2017-11-30,23.89525,121.549833,1.3674843e-08
C0G970,三豐,2017-11-30,23.882,120.2895,0.999281
V2K610,大庄合作社,2017-11-30,23.8068,120.367939,0.999617
C0V900,汕尾,2017-11-30,22.4782,120.4151,6.508404e-08
C1R630,龍泉,2017-11-30,22.66701,120.59091,6.456151e-09
C1AC50,關渡,2017-11-30,25.133486,121.469331,2.3499515e-05
C0F9I0,神岡,2017-11-30,24.272481,120.658314,5.067426e-08
C0K460,斗南,2017-11-30,23.678734,120.478359,0.36955565
467410,臺南,2017-11-30,22.993239,120.204772,0.999647
C2O810,曾文,2017-11-30,23.219681,120.497328,8.526835e-09
467280,後龍,2017-11-30,24.648563,120.831834,0.99303085
C1F9J1,清水林,2017-11-30,24.071242,120.820419,4.244057e-09
C2A650,火燒寮,2017-11-30,25.002719,121.742892,1.0365708e-06
466930,竹子湖,2017-11-30,25.162078,121.544547,1.0677196e-07
C1I220,樟湖,2017-11-30,23.905333,120.846983,2.2313011e-09
C0I390,仁愛,2017-11-30,24.022122,121.132206,2.2100681e-09
C0Z300,東里,2017-11-30,23.26853,121.30547,7.5413e-09
C1V590,新發,2017-11-30,23.057019,120.646064,3.9063424e-09
C0K510,水林,2017-11-30,23.572924,120.24597,0.9999743
72S590,東改賓朗果園,2017-11-30,22.813889,121.071278,0.13533212
82A750,茶改北部分場,2017-11-30,24.955778,121.631222,8.972262e-07
C1A750,石碇服務區,2017-11-30,25.00872,121.646242,0.0013648071
C0X300,鹿寮,2017-11-30,23.386047,120.477331,0.86376804
G2AI50,關渡,2017-11-30,25.11575,121.492,0.99983203
C0K590,雲林東勢,2017-11-30,23.674192,120.255721,0.9999477
C0A570,桶後,2017-11-30,24.848222,121.597992,8.012607e-08
C1S800,華源,2017-11-30,22.657883,121.02325,2.4732378e-07
C0G720,溪州,2017-11-30,23.851589,120.499093,3.1411073e-05
C1V160,達卡努瓦,2017-11-30,23.279811,120.705319,4.4259005e-09
C2M410,馬頭山,2017-11-30,23.324361,120.582017,2.9727183e-09
C0V850,蚵仔寮,2017-11-30,22.7256,120.2527,0.09428812
C0S740,池上,2017-11-30,23.119628,121.209469,1.7775941e-05
C1V390,尖山,2017-11-30,22.813153,120.367789,2.2282698e-08
C0AH70,松山,2017-11-30,25.04871,121.55042,0.00018817437
C0N010,鯤鯓國小,2017-11-30,23.1879,120.0889,0.99995196
C0R550,新埤,2017-11-30,22.467947,120.582894,1.7959e-08
C0SA60,知本（水試所）,2017-11-30,22.702394,121.082761,5.8074006e-06
C0T9I0,豐濱,2017-11-30,23.583897,121.514806,9.041951e-09
C0UB00,淡江大學蘭陽校園,2017-11-30,24.823239,121.730383,6.828064e-08
C0W240,九宮,2017-11-30,24.423753,118.240186,0.9999794
C0T9N0,富里,2017-11-30,23.171639,121.249378,2.0718645e-07
U2HA50,臺大竹山,2017-11-30,23.756972,120.681556,2.5691622e-09
C0V840,鳳鼻頭,2017-11-30,22.5083,120.3591,6.610801e-07
C0X140,西港,2017-11-30,23.125608,120.203108,0.9998382
72D080,桃改五峰分場,2017-11-30,24.612194,121.157167,8.840567e-09
C2H9P0,伊拿谷,2017-11-30,23.963211,121.088264,1.7750539e-09
C2H9F0,柑林,2017-11-30,24.018658,120.847072,1.4877085e-09
C0TA20,加灣,2017-11-30,24.082025,121.608944,6.2803306e-06
C0V530,阿蓮,2017-11-30,22.883208,120.327508,0.0051360405
C1O880,關山,2017-11-30,23.173397,120.594092,2.5532663e-09
C0E791,卓蘭,2017-11-30,24.3126,120.8244,6.7297705e-09
C1I030,武界,2017-11-30,23.913225,121.052483,1.7775068e-09
C0R520,崁頂,2017-11-30,22.514781,120.506914,9.925436e-08
C0R341,牡丹,2017-11-30,22.130036,120.792639,0.1091807
C0R930,萬丹,2017-11-30,22.5885,120.4851,6.8428475e-05
C0S760,紅石,2017-11-30,23.069131,121.126219,1.7482654e-08
C1M610,石磐龍,2017-11-30,23.496606,120.663506,6.968246e-09
C0UA10,鴛鴦湖,2017-11-30,24.590269,121.412228,4.358482e-08
V2C260,八德蔬果,2017-11-30,24.978508,121.281819,0.06982978
C0R800,丹路,2017-11-30,22.204481,120.750989,0.08888231
C0G920,永靖,2017-11-30,23.924703,120.547533,5.5402603e-07
C2M950,太和,2017-11-30,23.538372,120.702961,7.246672e-09
C1A630,下盆,2017-11-30,24.771003,121.538622,4.0534267e-08
B2N890,畜產試驗所,2017-11-30,23.058972,120.336406,0.05293007
C0UA30,白嶺,2017-11-30,24.527819,121.519031,2.8202644e-08
C1V580,溪南(特生中心),2017-11-30,23.084972,120.788475,7.592029e-09
C1T970,大農,2017-11-30,23.615233,121.413331,7.3503106e-09
E2S960,林試太麻里2,2017-11-30,22.598014,120.989761,0.041725844
C0R650,竹田,2017-11-30,22.58486,120.54344,8.664699e-09
C1H900,清流,2017-11-30,24.080775,120.962997,5.7615064e-09
C1C510,水尾,2017-11-30,24.940081,121.087161,0.99995327
C0F9X0,大雅(中科園區),2017-11-30,24.21528,120.62445,3.7059518e-08
C0SB60,白守蓮,2017-11-30,23.126769,121.401914,0.99755585
C0O970,虎頭埤,2017-11-30,23.021375,120.347878,3.98648e-06
C0C730,中大臨海站,2017-11-30,24.966126,121.008581,0.9999841
C0X250,新營,2017-11-30,23.310689,120.316681,0.9998816
C0V700,三民,2017-11-30,22.645017,120.311233,0.99613076
C0U870,大礁溪,2017-11-30,24.791042,121.675047,4.263279e-08
C0E870,高鐵苗栗,2017-11-30,24.60725,120.826094,0.99407023
A2K570,古坑花卉中心,2017-11-30,23.63353,120.55239,4.856686e-08
C0M860,新美,2017-11-30,23.338017,120.683169,5.2154725e-09
C1E701,八卦,2017-11-30,24.491756,120.927619,1.0733487e-08
C0I420,國姓,2017-11-30,24.037803,120.855072,1.3916596e-09
C2D720,關西工作站,2017-11-30,24.757275,121.184792,8.962421e-06
C0S960,香蘭,2017-11-30,22.587569,120.993375,0.041725844
C0R260,春日,2017-11-30,22.370361,120.628306,0.9722152
72G600,臺中農改場,2017-11-30,24.003028,120.534389,1.3337831e-07
C0Z210,瑞穗,2017-11-30,23.5239,121.39021,8.236889e-09
C0M820,達邦,2017-11-30,23.453994,120.749517,5.8332694e-09
C0V860,南寮,2017-11-30,22.7616,120.2339,0.094180465
C0G740,大城,2017-11-30,23.852487,120.320935,0.9992905
C0R920,塭仔,2017-11-30,22.4169,120.5197,0.94285935
C0R470,高樹,2017-11-30,22.826389,120.600806,5.9994005e-09
C0R680,佳樂水,2017-11-30,21.993578,120.861633,0.992894
C1O870,大棟山,2017-11-30,23.31157,120.52226,5.151978e-09
C0D360,梅花,2017-11-30,24.678347,121.208558,1.0665021e-08
C0Z190,富世,2017-11-30,24.14743,121.6297,2.4357712e-05
C0AI10,屈尺,2017-11-30,24.92184,121.54475,0.018909583
B2U990,畜試東區分所,2017-11-30,24.669039,121.832561,4.410102e-08
C0SB80,長濱漁港,2017-11-30,23.313644,121.459994,8.341394e-09
C0R240,來義,2017-11-30,22.527306,120.625111,6.414186e-09
C0V910,大樹,2017-11-30,22.684645,120.432803,1.3105189e-09
C1R610,西大武山,2017-11-30,22.617719,120.7322,3.5492853e-08
C0G900,線西,2017-11-30,24.143358,120.443536,0.99950194
C0M700,竹崎,2017-11-30,23.526178,120.555508,0.0026529813
C2E880,三義,2017-11-30,24.405478,120.749819,2.9451432e-09
C0C720,竹圍,2017-11-30,25.112692,121.239824,0.99983203
C0F9P0,清水,2017-11-30,24.312297,120.562242,0.96726936
C0Z150,吉安光華,2017-11-30,23.930925,121.595153,1.083822e-08
C1D640,外坪(五指山),2017-11-30,24.644447,121.090961,7.6252915e-09
C0F9O0,潭子,2017-11-30,24.213106,120.703933,6.6561254e-09
C2H9R0,卓社,2017-11-30,23.887894,121.000086,1.6381345e-09
72T250,花蓮農改場,2017-11-30,23.975222,121.563889,6.6763576e-08
C0E780,銅鑼,2017-11-30,24.489681,120.790853,7.0744703e-09
C1T950,太安,2017-11-30,23.666719,121.370128,3.8792955e-08
C0E830,苑裡,2017-11-30,24.439714,120.653053,0.96017355
467270,田中,2017-11-30,23.873803,120.581286,3.2077668e-07
C0SA10,檳榔四格山,2017-11-30,22.810031,121.109308,0.013837759
C1T830,布洛灣,2017-11-30,24.17184,121.57127,8.3126345e-08
C0F970,大坑,2017-11-30,24.173142,120.722289,3.3293754e-09
C1U920,思源,2017-11-30,24.393125,121.347214,2.925471e-08
C0A931,三和,2017-11-30,25.233153,121.595236,0.0014805989
C0I010,廬山,2017-11-30,24.033311,121.181808,3.6564083e-09
C2M940,日野賀,2017-11-30,23.434056,120.727169,6.1846492e-09
C0R860,鼻頭,2017-11-30,22.1043,120.8979,0.080257855
C0UB20,壯圍,2017-11-30,24.7359,121.8163,2.4922711e-08
C0R790,九棚,2017-11-30,22.14195,120.889281,0.08195081
C0W110,東莒,2017-11-30,25.9652,119.98069,0.9904193
C1U930,粉鳥林,2017-11-30,24.497088,121.842479,1.2219165e-07
C1I211,蘆竹湳,2017-11-30,23.934019,120.811994,3.1195977e-09
C0S830,長濱,2017-11-30,23.286817,121.411975,5.830144e-09
C1F9F1,伯公龍,2017-11-30,24.272392,120.849047,3.34714e-09
C0E810,西湖,2017-11-30,24.562947,120.7485,0.9971729
C1I440,新高口,2017-11-30,23.478744,120.878939,9.5729815e-09
C0O840,王爺宮,2017-11-30,23.222064,120.40085,0.19615828
C0T9G0,鳳林山,2017-11-30,23.735269,121.420131,5.0679456e-09
C0X080,佳里,2017-11-30,23.173039,120.145086,0.99995196
C0FB70,大甲溪埔,2017-11-30,24.370625,120.620067,0.8948558
C0Z310,清水斷崖,2017-11-30,24.218294,121.689142,2.1680322e-07
C0M680,太保,2017-11-30,23.455062,120.331455,0.99977684
C1S820,金峰,2017-11-30,22.590969,120.933236,3.1591148e-06
C0AD10,八里,2017-11-30,25.150211,121.403947,0.99983203
C2K240,草嶺,2017-11-30,23.59555,120.693461,8.842962e-09
C1SA70,都蘭,2017-11-30,22.87794,121.226881,0.7194447
C0K440,二崙,2017-11-30,23.772797,120.408944,0.032137714
C1A760,坪林交控,2017-11-30,24.94284,121.713442,5.952568e-07
C0F9N0,大里,2017-11-30,24.092464,120.701378,2.9066536e-09
C0SA90,達仁林場,2017-11-30,22.264347,120.823972,0.9999779
C1R290,石門山,2017-11-30,22.112611,120.756597,0.6029799
42HA10,萬大發電廠,2017-11-30,23.978875,121.139639,1.5901438e-09
C0R890,山海,2017-11-30,21.9878,120.7091,0.99498916
C0T9A0,月眉山,2017-11-30,23.809928,121.539828,4.4143333e-09
C0AC70,信義,2017-11-30,25.037822,121.564597,0.00018817437
C0K560,棋山,2017-11-30,23.68645,120.603417,2.6567053e-08
C2FB50,出雲,2017-11-30,24.206469,120.902794,4.959393e-09
C1Z240,中平林道,2017-11-30,23.42115,121.26763,5.496748e-08
U2H480,溪頭,2017-11-30,23.670306,120.798194,7.635581e-09
C0M880,好美里,2017-11-30,23.3364,120.138,0.9999712
C0T9E0,大坑,2017-11-30,23.880628,121.581981,7.16815e-09
C0K530,臺西,2017-11-30,23.701547,120.197559,0.9997015
C1E900,國一N128K,2017-11-30,24.560997,120.844186,2.0700139e-07
C0AJ50,水湳洞,2017-11-30,25.123695,121.862238,0.99973243
C0AI20,白沙灣,2017-11-30,25.283128,121.519058,0.9999624
C0A860,大坪,2017-11-30,25.165914,121.632969,3.0610386e-07
C1U850,觀音海岸,2017-11-30,24.38319,121.77856,8.506043e-09
C2K610,草嶺石壁,2017-11-30,23.602469,120.707731,8.866878e-09
C0U950,鶯子嶺,2017-11-30,24.89754,121.79244,7.5132206e-08
C0O900,善化,2017-11-30,23.112883,120.297219,0.25950992
C0K550,蔦松,2017-11-30,23.514319,120.229736,0.9999788
E2P980,林試六龜中心,2017-11-30,22.991703,120.645722,3.2661256e-09
C0E590,通霄,2017-11-30,24.471892,120.704622,0.99705696
C1I310,西巒,2017-11-30,23.754486,120.883956,6.1759025e-09
C0A550,泰平,2017-11-30,24.971197,121.823711,5.34858e-07
C0I360,水里,2017-11-30,23.812553,120.849792,1.8736974e-09
C0R830,高士,2017-11-30,22.121825,120.836781,0.980685
C1I101,溪頭,2017-11-30,23.661789,120.807647,6.008619e-09
C0AJ20,野柳,2017-11-30,25.20703,121.690021,0.98628265
C0B060,暖暖,2017-11-30,25.0957,121.7403,9.6875854e-05
C1H920,長豐,2017-11-30,24.102039,120.879897,6.6839867e-09
C0V360,內門,2017-11-30,22.975481,120.466769,2.0291056e-09
C0R850,林邊,2017-11-30,22.4634,120.5339,3.8325283e-08
C0E930,龍鳳,2017-11-30,24.700034,120.859125,0.99937767
C0U910,冬山,2017-11-30,24.63373,121.7937,4.410102e-08
C1E721,泰安,2017-11-30,24.489017,120.968036,9.126227e-09
82H320,茶改中部分場,2017-11-30,23.875611,120.913583,5.8019007e-09
C0M750,布袋,2017-11-30,23.380878,120.167789,0.99995995
C1S860,利嘉,2017-11-30,22.809417,121.050528,5.6897687e-09
72C440,桃園農改,2017-11-30,24.950944,121.030583,0.99994457
E2S980,林試太麻里1,2017-11-30,22.598922,120.980044,0.00034547696
C0X170,關廟,2017-11-30,22.963017,120.327797,2.908785e-06
C0V720,林園,2017-11-30,22.507747,120.394511,4.6673566e-07
C1I510,線浸林道,2017-11-30,23.761508,120.832956,4.728974e-09
C0D690,外湖,2017-11-30,24.917735,120.968711,0.99993163
C0C750,新興坑尾,2017-11-30,25.0061,121.0971,0.99998504
B2Q810,畜試南區分所,2017-11-30,21.945583,120.802167,0.99294174
C0S790,金崙,2017-11-30,22.538122,120.966875,0.005851672
C0AH90,福山植物園,2017-11-30,24.760717,121.58135,1.6345531e-07
C0I540,奇萊稜線,2017-11-30,24.109231,121.326456,3.738268e-08
C0M850,表湖,2017-11-30,23.24186,120.64166,4.3924966e-09
C0S770,大溪山,2017-11-30,22.478475,120.943325,0.09106146
C0AG80,中和,2017-11-30,24.991622,121.491792,0.40105855
C0T790,大禹嶺,2017-11-30,24.186117,121.316086,2.2687583e-08
C0T9B0,水源,2017-11-30,23.991861,121.537169,9.803756e-09
C0R840,牡丹池山,2017-11-30,22.168389,120.841225,0.9999723
C1I131,桶頭,2017-11-30,23.641944,120.654117,1.6648806e-09
CAL110,布袋國中,2017-11-30,23.35893,120.18026,0.99995995
467571,新竹,2017-11-30,24.827853,121.014219,0.99987054
C0Z290,赤柯山,2017-11-30,23.36893,121.38293,1.2963043e-08
C0X280,將軍,2017-11-30,23.214999,120.13577,0.9999646
C0S690,太麻里,2017-11-30,22.60902,120.98533,2.2572424e-08
C0U880,北關,2017-11-30,24.9072,121.8734,1.1121206e-05
C1H860,瑞岩,2017-11-30,24.123772,121.18345,1.03508215e-08
C0G810,埔心,2017-11-30,23.947633,120.525456,5.523142e-07
C0U970,大福,2017-11-30,24.80064,121.81389,1.4427598e-08
C2H9N0,仁愛東眼,2017-11-30,24.026875,121.1205,3.1981668e-09
C1E670,南礦,2017-11-30,24.538278,121.002836,1.1074373e-08
C0M520,東後寮,2017-11-30,23.369908,120.248065,0.9999584
C1E461,松安,2017-11-30,24.397972,120.986022,6.905215e-09
72G600,臺中農改,2017-11-30,24.003028,120.534389,1.3337831e-07
C2N160,西拉雅風管處,2017-11-30,23.189481,120.335297,0.9923296
C2M970,碧湖,2017-11-30,23.568632,120.624165,9.085499e-09
C0A640,石碇,2017-11-30,24.993969,121.662917,4.3886448e-05
E2S960,林試太麻里2,2017-11-30,22.598,120.99775,0.093340866
C0F9Y0,桃山,2017-11-30,24.432739,121.303808,2.6741482e-08
C1I020,萬大,2017-11-30,23.979817,121.132261,2.2481066e-09
C0U940,羅東,2017-11-30,24.68184,121.74934,2.3635943e-08
C0M650,朴子,2017-11-30,23.43463,120.23902,0.99991393
C1I500,大尖山,2017-11-30,23.858572,120.994889,4.8362643e-09
C0G820,田尾,2017-11-30,23.901669,120.509389,5.523142e-07
E2K600,四湖植物園,2017-11-30,23.676986,120.163433,0.99987864
C0S730,綠島,2017-11-30,22.6672,121.47533,0.99609137
12Q970,東港工作站,2017-11-30,22.479997,120.466058,6.508404e-08
C0E430,南庄,2017-11-30,24.601775,121.000214,1.3446846e-08
C1TA00,太魯閣,2017-11-30,24.15773,121.6236,5.304622e-06
466920,臺北,2017-11-30,25.037658,121.514853,0.00018817437
C0R600,舊泰武,2017-11-30,22.588194,120.664944,1.9783848e-09
C1I260,北坑,2017-11-30,23.9246,121.006903,3.101745e-09
466910,鞍部,2017-11-30,25.182586,121.529731,3.849452e-07
C1I230,九份二山,2017-11-30,23.961944,120.845,1.7012085e-09
C2A660,瑞芳,2017-11-30,25.113169,121.801147,0.99030274
C0R270,琉球嶼,2017-11-30,22.332244,120.362236,0.00048546348
C1T990,高寮,2017-11-30,23.394239,121.356808,7.630616e-09
C0G620,芬園,2017-11-30,24.015678,120.6213,3.4221912e-09
C1Z140,荖溪,2017-11-30,23.890575,121.45964,1.8268484e-08
C1I201,中心崙,2017-11-30,23.728722,120.712097,2.2392823e-09
C1I400,凌霄,2017-11-30,24.018778,121.004456,3.11622e-09
C1M640,十字,2017-11-30,23.492153,120.753683,6.7162804e-09
G2P820,農試鳳山分所,2017-11-30,22.646611,120.356083,0.9916601
C0Z270,蕃薯寮,2017-11-30,23.73835,121.540108,4.5189474e-09
C0F9Q0,外埔,2017-11-30,24.347817,120.705686,4.1616143e-08
C0K580,高鐵雲林,2017-11-30,23.737456,120.417944,0.95951366
C2I090,鳳凰,2017-11-30,23.728081,120.787347,6.09797e-09
C0U990,員山,2017-11-30,24.74435,121.72247,2.4500919e-08
C0V770,大社,2017-11-30,22.730306,120.346639,0.052480534
C0X120,麻豆,2017-11-30,23.183289,120.248611,0.99987525
C0C670,龍潭,2017-11-30,24.870056,121.221389,0.0117232725
C0D680,香山濕地,2017-11-30,24.783581,120.914988,0.99968123
C0S980,勝林山,2017-11-30,22.430439,120.8938,2.750046e-06
C0V730,大寮,2017-11-30,22.605614,120.395717,4.8356437e-06
C0R570,麟洛,2017-11-30,22.65078,120.52719,1.7904412e-08
C2M930,石卓,2017-11-30,23.478744,120.702264,6.0663576e-09
C0G9B0,和美,2017-11-30,24.105169,120.492131,0.9998421
CAG100,王功漁港,2017-11-30,23.96824,120.32586,0.99957603
C0X290,北門,2017-11-30,23.267772,120.125481,0.9999646
C2F930,大甲,2017-11-30,24.347667,120.640403,0.6602221
C0D650,湖口,2017-11-30,24.904794,121.043628,0.99995273
C0E420,竹南,2017-11-30,24.708978,120.888897,0.9994794
C0U780,五結,2017-11-30,24.68637,121.79794,2.4922711e-08
C1I250,鯉潭,2017-11-30,23.961922,120.991131,1.6683455e-09
C0R130,阿禮,2017-11-30,22.742908,120.743678,7.3613102e-09
C0X100,臺南市北區,2017-11-30,23.010394,120.194228,0.99973404
C0S920,金峰嘉蘭,2017-11-30,22.594789,120.960825,0.00023643544
C0V490,新興,2017-11-30,22.627422,120.298803,3.961897e-06
C0F9K0,大安,2017-11-30,24.345061,120.588025,0.9055267
72N100,臺南農改,2017-11-30,23.0605,120.342194,0.05293007
467290,古坑,2017-11-30,23.633639,120.551889,4.856686e-08
C2E970,八甲,2017-11-30,24.535811,120.795983,4.484544e-08
C0V440,鳳山,2017-11-30,22.646653,120.356122,0.9916601
C1T940,大觀,2017-11-30,23.714206,121.373133,4.7149333e-09
72T250,花蓮農改,2017-11-30,23.975222,121.563889,6.6763576e-08
C0E740,造橋,2017-11-30,24.637056,120.864778,0.99406946
C0R100,尾寮山,2017-11-30,22.833111,120.683889,1.26602675e-08
A2K630,臺大雲林校區,2017-11-30,23.730628,120.423903,0.95951366
C0D580,寶山,2017-11-30,24.735006,121.025192,2.2947225e-08
E2P990,林試扇平站,2017-11-30,22.9677,120.6857,9.179034e-09
C0AI30,三重,2017-11-30,25.057328,121.500629,0.00028378973
C0AH00,汐止,2017-11-30,25.066881,121.658778,0.00018817419
C1Z040,立山,2017-11-30,23.443356,121.327375,1.4911553e-08
C0W130,花嶼,2017-11-30,23.40007,119.32276,0.9914286
C0A950,鼻頭角,2017-11-30,25.129036,121.923372,0.99975574
C0K470,林內,2017-11-30,23.748675,120.609642,5.475388e-09
C2F990,摩天嶺,2017-11-30,24.322458,120.936819,5.996289e-09
82C160,茶改場,2017-11-30,24.908472,121.185333,0.9920831
C0Z320,清水林道,2017-11-30,23.27125,121.188272,1.0668479e-08
C0R760,南仁湖,2017-11-30,22.084681,120.863353,0.6029799
C0M670,大林,2017-11-30,23.600616,120.45841,0.9992846
C0M800,茶山,2017-11-30,23.299075,120.664767,6.791148e-09
C0A9C0,天母,2017-11-30,25.117494,121.537169,0.0002387053
72K220,南改斗南分場,2017-11-30,23.634556,120.477333,0.36993566
72AI40,桃改樹林分場,2017-11-30,24.944503,121.386972,0.9993327
C0S910,蘭嶼燈塔,2017-11-30,22.081197,121.503117,0.9179865
C0B050,八斗子,2017-11-30,25.144754,121.79167,0.99985105
C0U900,內城,2017-11-30,24.71813,121.68766,2.2281082e-08
C0X320,柳營,2017-11-30,23.253328,120.375253,0.99748653
C0M790,新港,2017-11-30,23.553269,120.345728,0.999892
C0F9T0,西屯,2017-11-30,24.179494,120.641275,8.6496435e-08
C0SA30,都歷,2017-11-30,23.020333,121.323642,0.10220202
C0C620,蘆竹,2017-11-30,25.084275,121.265767,0.9999742
C0R730,大坪頂,2017-11-30,22.024633,120.69355,0.2187459
C0AJ40,石門,2017-11-30,25.273672,121.601198,0.9998935
C0E750,苗栗,2017-11-30,24.564569,120.824575,2.403556e-07
C0T870,鯉魚潭,2017-11-30,23.935639,121.508944,7.312067e-09
C1V170,排雲,2017-11-30,23.463619,120.954147,2.1877359e-08
C2H950,中寮,2017-11-30,23.884447,120.766406,1.4984505e-09
C0R350,貓鼻頭,2017-11-30,21.921774,120.7358,0.99251986
C0V660,岡山,2017-11-30,22.797078,120.294958,0.9097807
C1H941,雙冬,2017-11-30,23.967378,120.802189,3.0936387e-09
C0AJ70,田寮,2017-11-30,25.2698,121.4886,0.99996454
C0AI00,五股,2017-11-30,25.07445,121.42728,0.002889651
C0Z280,德武,2017-11-30,23.47426,121.41071,6.766853e-09
C0R700,枋山,2017-11-30,22.246844,120.661086,0.01502516
C0C460,復興,2017-11-30,24.820208,121.352281,1.93841e-06
E2H360,蓮華池,2017-11-30,23.918333,120.885278,3.0704188e-09
C0M640,中埔,2017-11-30,23.42538,120.5229,0.05314734
C0W140,金沙,2017-11-30,24.488292,118.408778,0.99908656
C2A540,四堵,2017-11-30,24.8926,121.745736,2.1801614e-07
C0ACA0,新莊,2017-11-30,25.051478,121.446756,0.0015175793
C0R220,潮州,2017-11-30,22.534361,120.54,6.5916446e-08
U2HA40,臺大內茅埔,2017-11-30,23.689722,120.851117,1.5717088e-08
467490,臺中,2017-11-30,24.145736,120.684075,4.946875e-09
C0U960,翠峰湖,2017-11-30,24.510856,121.608044,3.2636986e-08
E2HA20,林試畢祿溪站,2017-11-30,24.226944,121.308522,1.5978214e-08
C0V890,前鎮,2017-11-30,22.5718,120.3117,7.1148443e-06
467620,蘭嶼,2017-11-30,22.036969,121.558339,0.73398876
C1F941,雪嶺,2017-11-30,24.280586,121.026642,2.5237712e-08
C2H9E0,國姓南港,2017-11-30,23.911108,120.846556,2.3275262e-09
C0AC80,文山,2017-11-30,25.00235,121.575728,0.104901195
C0F9R0,龍井,2017-11-30,24.184536,120.528972,0.99851453
C0M760,民雄,2017-11-30,23.551754,120.428457,0.99939764
C0UA40,西德山,2017-11-30,24.560647,121.752608,6.3100146e-08
C1T920,中興,2017-11-30,23.769503,121.498653,6.388363e-09
C0D550,雪霸,2017-11-30,24.526972,121.11605,1.182482e-08
C2F860,梨山,2017-11-30,24.247522,121.243669,1.6294475e-08
C0R320,車城,2017-11-30,22.0744,120.716247,0.34575891
C1S870,南美山,2017-11-30,23.15025,121.382333,2.4406455e-07
C0B020,基隆嶼,2017-11-30,25.19141,121.78391,0.99956316
C1U501,牛鬥,2017-11-30,24.637836,121.573656,4.7663114e-08
C0M730,嘉義市東區,2017-11-30,23.457673,120.460531,0.9444013
C0S700,知本,2017-11-30,22.684866,121.005642,1.1556143e-08
C1N001,沙崙,2017-11-30,22.935472,120.309406,8.624777e-06
C0V760,橋頭,2017-11-30,22.757806,120.30575,0.066072315
C0G960,福寶,2017-11-30,24.0443,120.3814,0.99984485
C0X210,白河,2017-11-30,23.347466,120.414427,0.9799076
C0S810,東河,2017-11-30,22.972672,121.303986,0.99998015
C2R170,屏東,2017-11-30,22.66027,120.49403,1.7904412e-08
C0R670,楓港,2017-11-30,22.190131,120.692156,0.06717244
C0FA50,霧峰,2017-11-30,24.0419,120.6995,4.6255906e-09
C0UB10,蘇澳,2017-11-30,24.5969,121.8571,2.1532539e-07
C0G950,防潮門,2017-11-30,24.1835,120.4871,0.99838114
C0M740,六腳,2017-11-30,23.492871,120.290625,0.99992114
C1R250,力里,2017-11-30,22.428117,120.629228,4.614681e-09
C0K330,虎尾,2017-11-30,23.719183,120.442036,0.941599
C2FA00,烏石坑,2017-11-30,24.273503,120.947617,6.0015064e-09
C0V620,永安,2017-11-30,22.82315,120.236856,0.90968806
C1I330,楓樹林,2017-11-30,23.986803,121.076117,2.5267852e-09
C0W200,湖西,2017-11-30,23.596314,119.67275,0.989128
72Q010,高雄農改場,2017-11-30,22.709333,120.525889,2.3282686e-08
C0SA40,瑞和,2017-11-30,22.974361,121.156697,1.0701693e-05
C0C680,龜山,2017-11-30,25.02846,121.38656,0.00029070498
C2V260,月眉,2017-11-30,22.971003,120.539853,4.4823696e-09
C0V450,鳳森,2017-11-30,22.545064,120.392592,8.4682156e-08
C0U720,南山,2017-11-30,24.43742,121.38167,2.8129957e-08
A2N290,臺南蘭花園區,2017-11-30,23.340258,120.379661,0.99977154
C0R560,新園,2017-11-30,22.5434,120.461558,4.6673566e-07
C0U890,三星,2017-11-30,24.66812,121.65302,7.431682e-08
C1V300,御油山,2017-11-30,23.001983,120.715364,7.715132e-09
C0U600,礁溪,2017-11-30,24.817539,121.765608,2.3602995e-07
C1T980,龍澗,2017-11-30,24.023289,121.411328,3.5793818e-08
C0D670,海天一線,2017-11-30,24.831986,120.914438,0.94245005
C0SA00,歷坵,2017-11-30,22.520969,120.89185,5.0035817e-07
C0M710,東石,2017-11-30,23.458927,120.15385,0.9999683
C0M780,鹿草,2017-11-30,23.41134,120.30835,0.9999027
C0U520,雙連埤,2017-11-30,24.753033,121.641303,4.246399e-08
C0B010,七堵,2017-11-30,25.094819,121.71713,0.0003873526
C0R480,長治,2017-11-30,22.693128,120.542622,1.1226344e-09
C1V830,國三S383K,2017-11-30,22.781967,120.426475,5.492917e-10
12Q980,恆春工作站,2017-11-30,22.079678,120.714425,0.34575891
C1O940,東山服務區,2017-11-30,23.286016,120.398472,0.97675145
C1U840,東澳嶺,2017-11-30,24.5378,121.8485,3.9489173e-08
C1D630,飛鳳山,2017-11-30,24.766464,121.119178,7.980395e-08
C0S940,石寧山,2017-11-30,23.223772,121.406639,8.340789e-09
C0K410,北港,2017-11-30,23.573957,120.292802,0.9999742
C2M620,瑞里,2017-11-30,23.545133,120.675197,6.9584973e-09
C0SB70,小港漁港,2017-11-30,23.158558,121.400431,0.00061940314
C2O950,安南,2017-11-30,23.076694,120.144861,0.99992204
C0F0E0,南湖圈谷,2017-11-30,24.363714,121.444667,5.253744e-08
467610,成功,2017-11-30,23.097486,121.373428,0.990534
C0G890,伸港,2017-11-30,24.148933,120.484403,0.9995044
C2E540,龍溪,2017-11-30,24.606489,120.783933,0.99471855
C1V200,梅山,2017-11-30,23.268447,120.823556,3.55589e-09
C0T9H0,加路蘭山,2017-11-30,23.682947,121.5274,4.316412e-09
C2O930,玉井,2017-11-30,23.126042,120.46055,7.294402e-05
C1F911,新伯公,2017-11-30,24.221361,120.841069,3.1298428e-09
C0R490,九如,2017-11-30,22.7405,120.490503,2.8631586e-08
C0X200,左鎮,2017-11-30,23.056758,120.408522,7.598893e-06
C0SB50,叭嗡嗡,2017-11-30,23.047062,121.343223,0.73758024
C1F891,稍來,2017-11-30,24.265689,121.001142,1.7852818e-08
72N240,七股研究中心,2017-11-30,23.081672,120.062894,0.9999209
C0C700,中壢,2017-11-30,24.977661,121.256375,0.026057249
C0M690,水上,2017-11-30,23.419734,120.388909,0.9997553
C0V690,鼓山,2017-11-30,22.623325,120.275575,3.961897e-06
C0O860,大內,2017-11-30,23.11885,120.36083,0.086910054
C0Z200,萬榮,2017-11-30,23.709219,121.420106,4.672017e-09
C0T9D0,和中,2017-11-30,24.26676,121.74103,6.642038e-07
C1O921,楠西,2017-11-30,23.183511,120.484083,1.7313836e-07
C0AJ30,淡水觀海,2017-11-30,25.184591,121.408616,0.50266075
C0V810,左營,2017-11-30,22.67491,120.28491,0.99613076
C0UA70,桃源谷,2017-11-30,24.962606,121.888875,3.1171405e-07
C0X130,官田,2017-11-30,23.193217,120.315422,0.99483967
C1H000,翠峰,2017-11-30,24.109397,121.205211,2.4758872e-08
C0UA90,石城,2017-11-30,24.980444,121.951214,9.493654e-05
C1E681,南勢山,2017-11-30,24.421669,120.923831,6.1799796e-09
C0A9F0,內湖,2017-11-30,25.079422,121.57545,0.00018817437
C0K291,宜梧,2017-11-30,23.536281,120.169329,0.9999787
C1K540,口湖,2017-11-30,23.585344,120.180517,0.9995182
C0R780,滿州,2017-11-30,22.024403,120.839892,0.9793127
C0V870,文安,2017-11-30,22.8025,120.2164,0.93100893
C0U650,玉蘭,2017-11-30,24.675286,121.587061,3.9199733e-08
C0R640,東港,2017-11-30,22.46247,120.44074,6.508404e-08
K2E360,苗栗農改,2017-11-30,24.495722,120.829111,1.027178e-08
C0AJ80,板橋,2017-11-30,25.0107,121.4489,0.49506512
C0S660,下馬,2017-11-30,23.150427,121.070312,8.652494e-09
C1H9B1,阿眉,2017-11-30,24.1263,120.994672,1.0578857e-08
C0UA20,多加屯,2017-11-30,24.368614,121.373189,2.0802785e-08
C0E730,頭份,2017-11-30,24.688247,120.912206,0.9994557
72V140,高改旗南分場,2017-11-30,22.857861,120.516667,2.7658724e-09
C0K480,莿桐,2017-11-30,23.761192,120.502372,6.2707034e-07
C0U980,坪林石牌,2017-11-30,24.86478,121.77396,5.174039e-08
C0T900,西林,2017-11-30,23.8119,121.441458,4.8854387e-09
C1I150,青雲,2017-11-30,23.793361,120.949378,5.52697e-09
467350,澎湖,2017-11-30,23.565503,119.563094,0.9812644
C0G800,埔鹽,2017-11-30,24.000394,120.431683,0.99988526
C0H960,草屯,2017-11-30,23.973672,120.68085,3.631831e-09
C1V780,多納林道,2017-11-30,22.888028,120.737917,7.0910735e-09
C0E920,通霄漁港,2017-11-30,24.498589,120.673876,0.9968401
C0Z330,安通山,2017-11-30,23.290728,121.348528,5.4934852e-09
C0AH10,永和,2017-11-30,25.01125,121.508111,0.49514192
C0AK10,太平里,2017-11-30,25.134937,121.364899,0.9998142
C2G640,鹿港,2017-11-30,24.0753,120.430481,0.99984485
C1E890,國三N149K,2017-11-30,24.463414,120.680019,0.8573243
C1R110,口社,2017-11-30,22.770111,120.645222,5.797354e-09
C1M870,國三N285K,2017-11-30,23.550319,120.505833,6.157615e-08
467050,新屋,2017-11-30,25.006744,121.047486,0.9999846
C1E480,鳳美,2017-11-30,24.554803,121.034747,1.2206348e-08
C0M530,奮起湖,2017-11-30,23.493903,120.699253,7.2551223e-09
C0C590,觀音,2017-11-30,25.027072,121.153317,0.9999885
C0T9M0,靜浦,2017-11-30,23.455167,121.495028,1.14099485e-08
C2H9M0,發祥,2017-11-30,24.154094,121.164517,8.89744e-09
C0AI40,石牌,2017-11-30,25.115597,121.513139,0.00029382965
C1F871,上谷關,2017-11-30,24.203483,121.018644,4.8372697e-09
C2H9G0,百勝,2017-11-30,24.051142,120.909361,4.874428e-09
C0G880,二水,2017-11-30,23.810742,120.6173,2.9408491e-09
C0R940,加祿堂,2017-11-30,22.3363,120.6217,0.97260976
C0W220,北竿,2017-11-30,26.220358,119.974881,0.98551506
C0O960,崎頂,2017-11-30,22.959547,120.369317,5.5854713e-08
C0S750,向陽,2017-11-30,23.248397,120.986133,1.4360856e-08
C0T9F0,水璉,2017-11-30,23.797131,121.542514,4.6086295e-09
C1M600,頭凍,2017-11-30,23.406364,120.603339,5.1137183e-09
467660,臺東,2017-11-30,22.752211,121.154586,0.9983717
C1D380,新埔,2017-11-30,24.84745,121.03834,0.99989194
C2G980,田頭村,2017-11-30,23.8263,120.444175,0.031880748
C0V750,路竹,2017-11-30,22.854997,120.259439,0.9777899
C0N050,蚵寮,2017-11-30,23.301,120.1104,0.9999712
72M700,南改鹿草分場,2017-11-30,23.416869,120.283061,0.99991393
C1SA50,利嘉林道,2017-11-30,22.82325,121.009389,4.013905e-08
467550,玉山,2017-11-30,23.487614,120.959522,2.3494987e-08
C0A940,金山,2017-11-30,25.223628,121.643967,0.97180676
C1V340,大津,2017-11-30,22.888322,120.645986,5.8286873e-09
C0W180,七美,2017-11-30,23.219333,119.444892,0.99604625
C1F9C1,白冷,2017-11-30,24.182844,120.929889,2.8216995e-09
K2E710,苗改生物防治研究中心,2017-11-30,24.422861,120.871833,3.1024197e-09
C0N040,蘆竹溝,2017-11-30,23.2344,120.0961,0.9999646
C2W230,畜試所澎湖,2017-11-30,23.628342,119.513206,0.9892267
C0R880,後壁湖,2017-11-30,21.9457,120.7457,0.9954869
C1I280,埔中,2017-11-30,23.820778,120.642594,1.6937715e-09
467790,墾丁雷達站,2017-11-30,21.948235,120.808028,0.9917126
C0W190,望安,2017-11-30,23.380564,119.494075,0.98178226
466881,新北,2017-11-30,24.9593,121.52,0.29352522
C0Z170,卓溪,2017-11-30,23.3443,121.3029,6.5488335e-09
C0F850,東勢,2017-11-30,24.246428,120.833047,3.575668e-09
466900,淡水,2017-11-30,25.164889,121.448906,0.9998142
C0I370,魚池,2017-11-30,23.895703,120.94135,3.8410226e-09
C0C630,大溪,2017-11-30,24.882853,121.265547,0.06580903
C0A520,山佳,2017-11-30,24.974944,121.402008,0.23318975
C0I110,竹山,2017-11-30,23.761225,120.688156,1.6361829e-09
82H840,茶改南部分場,2017-11-30,23.762528,120.7405,1.7036341e-09
C0G660,溪湖,2017-11-30,23.94835,120.479122,7.090136e-07
C1T800,洛韶,2017-11-30,24.204558,121.453956,2.0246453e-08
C1T810,慈恩,2017-11-30,24.192044,121.388386,2.4335025e-08
C1E451,象鼻,2017-11-30,24.368617,120.940228,3.7176595e-09
C0AC60,三峽,2017-11-30,24.939025,121.369728,0.9985832
C0I490,萬大林道,2017-11-30,23.928228,121.091411,2.8434997e-09
C1I290,豐丘,2017-11-30,23.668178,120.887417,7.743053e-09
C1I320,奧萬大,2017-11-30,23.952956,121.178556,1.6368321e-09
C2M910,嘉義大學,2017-11-30,23.471325,120.485903,0.72536486
C0U770,南澳,2017-11-30,24.44935,121.81022,1.9934651e-08
C0A980,社子,2017-11-30,25.109508,121.469681,0.99986845
C0V800,六龜,2017-11-30,22.997889,120.633583,3.4684997e-09
C1G9D0,國一S218K,2017-11-30,23.890641,120.493253,8.1867394e-05
C0E570,白沙屯,2017-11-30,24.549447,120.696803,0.9955249
C2F9A0,中竹林,2017-11-30,24.103556,120.751061,1.7355263e-09
C0FA40,臺中電廠,2017-11-30,24.2146,120.4907,0.99851453
C2G9A0,畜試所彰化,2017-11-30,23.86045,120.557964,3.2077668e-07
C0H9C0,合歡山,2017-11-30,24.143442,121.272547,3.2718138e-08
C0X060,下營,2017-11-30,23.22695,120.256261,0.9999122
G2M350,農試溪口農場,2017-11-30,23.58565,120.408111,0.99951756
C0U860,頭城,2017-11-30,24.85323,121.8308,2.5971246e-07
C0R580,南州,2017-11-30,22.48591,120.50274,6.508404e-08
C0D430,峨眉,2017-11-30,24.6905,121.017189,2.44739e-05
C0G780,秀水,2017-11-30,24.03405,120.503869,1.3337831e-07
72N100,臺南農改場,2017-11-30,23.0605,120.342194,0.05293007
C0S900,蘭嶼高中,2017-11-30,22.04909,121.51214,0.9744793
467540,大武,2017-11-30,22.355675,120.903789,0.9946909
C1F9W0,德基,2017-11-30,24.254783,121.190261,1.6154786e-08
C1Z120,壽豐,2017-11-30,23.870853,121.508081,1.3674843e-08
C0W160,烏坵,2017-11-30,24.9944,119.44956,0.90027696
C1I240,外大坪,2017-11-30,23.958697,120.917931,1.6594657e-09
C1I550,國六W023K,2017-11-30,23.979067,120.867742,2.5951863e-09
C0R870,興海,2017-11-30,21.9752,120.8439,0.99294174
C0R140,瑪家,2017-11-30,22.682903,120.686639,2.9786267e-09
C0A530,坪林,2017-11-30,24.938183,121.70975,3.2206472e-07
C0X260,後壁,2017-11-30,23.366358,120.362326,0.99977154
C0Z230,和平,2017-11-30,24.30717,121.77007,7.574782e-07
C0G770,福興,2017-11-30,24.041289,120.437669,0.99988526
C0H9A0,神木村,2017-11-30,23.532742,120.843667,6.7993526e-09
C0I460,南投,2017-11-30,23.911469,120.687331,2.1865376e-09
C0I480,梅峰,2017-11-30,24.085272,121.173572,1.256014e-08
C1V570,吉東,2017-11-30,22.85422,120.5454,2.425443e-09
C2D740,屯原,2017-11-30,24.067969,121.209389,1.1529745e-08
C2A560,福山,2017-11-30,24.776203,121.502811,2.8160406e-07
C0AH30,五分山,2017-11-30,25.07125,121.780794,2.5027782e-07
C0FA10,松柏,2017-11-30,24.429115,120.617482,0.9739618
72S200,東改班鳩分場,2017-11-30,22.829528,121.077694,0.47646338
72HA00,中改埔里分場,2017-11-30,23.903208,120.963364,3.0843827e-09
C2H9W0,大坪頂農水,2017-11-30,24.043122,120.932781,6.656227e-09
C0C650,平鎮,2017-11-30,24.897503,121.214636,0.09594005
C0S930,延平,2017-11-30,22.902581,121.084058,0.0015587661
C0UA60,樟樹山,2017-11-30,24.41393,121.78325,2.1073388e-08
C1S670,摩天,2017-11-30,23.199503,121.027,2.7747825e-08
C0V630,茄萣,2017-11-30,22.906642,120.182608,0.99217916
466940,基隆,2017-11-30,25.133314,121.740475,0.9998254
C0X050,東河,2017-11-30,23.296598,120.385608,0.9923072
C0R770,保力,2017-11-30,22.071122,120.764111,0.73269063
G2L020,農試嘉義分所,2017-11-30,23.485028,120.473806,0.057606414
C0X240,關子嶺,2017-11-30,23.331169,120.508025,2.0538897e-09
C0I380,集集,2017-11-30,23.828206,120.801467,2.0029542e-09
466990,花蓮,2017-11-30,23.975128,121.613275,8.708376e-08
C1V220,小關山,2017-11-30,23.154217,120.813603,7.2739805e-09
C1F9G1,慶福山,2017-11-30,24.180853,120.848378,5.1302282e-09
C0Z250,瑞穗林道,2017-11-30,23.49284,121.30688,6.084786e-08
C0D590,新豐,2017-11-30,24.87068,120.97721,0.9985375
C0A870,五指山,2017-11-30,25.132153,121.608692,9.226712e-08
C0UA50,西帽山,2017-11-30,24.555361,121.802628,7.662385e-08
C0X160,仁德,2017-11-30,22.968258,120.257689,0.84784937
C1H971,六分寮,2017-11-30,23.92507,120.6378,6.9056594e-10
C0W120,西嶼,2017-11-30,23.5626,119.468436,0.99047697
C0G650,員林,2017-11-30,23.946503,120.585597,2.6901194e-08
C0AD50,鶯歌,2017-11-30,24.951533,121.346294,0.99532866
C2H9Q0,北東眼山,2017-11-30,24.120939,121.189303,1.1813683e-08
C2H9T0,名間竹圍,2017-11-30,23.859914,120.637572,2.0332431e-09
C0S990,山豬窟,2017-11-30,22.318619,120.857372,0.9999403
72Q010,高雄農改,2017-11-30,22.709333,120.525889,2.3282686e-08
C0X190,安平,2017-11-30,22.993161,120.152181,0.99973404
C0K400,斗六,2017-11-30,23.720583,120.541127,0.00013485846
12J990,口湖工作站,2017-11-30,23.589978,120.180394,0.9995182
C0O830,北寮,2017-11-30,23.079561,120.495008,3.0761693e-09
C1D410,白蘭,2017-11-30,24.579364,121.079947,1.1479364e-08
C0S970,加津林,2017-11-30,22.416211,120.926942,0.99642545
C0D700,關西,2017-11-30,24.7977,121.1732,1.4608128e-05
C0M810,里佳,2017-11-30,23.389125,120.716647,5.7295177e-09
C0U750,龜山島,2017-11-30,24.841667,121.953133,0.99975044
C0R810,內獅,2017-11-30,22.305064,120.642986,0.95484495
C1M390,龍美,2017-11-30,23.406728,120.654417,5.1395816e-09
C2FB60,頭櫃山,2017-11-30,24.129842,120.858925,9.302162e-09
C1H840,國三N238K,2017-11-30,23.841008,120.707711,2.181285e-09
CAQ030,崎峰國小,2017-11-30,22.42565,120.49521,6.508404e-08
C2E520,大湖,2017-11-30,24.414939,120.870872,3.0084137e-09
467530,阿里山,2017-11-30,23.508208,120.813242,1.1352314e-08
C1E691,南湖,2017-11-30,24.40135,120.837533,5.9587446e-09
C0FA30,梧棲,2017-11-30,24.256003,120.523381,0.96726936
C1V231,高中,2017-11-30,23.134911,120.716711,3.7579397e-09
C0F9V0,新社,2017-11-30,24.200172,120.815806,2.9265244e-09
C0H890,埔里,2017-11-30,23.972169,120.952425,2.3948779e-09
C0R690,墾丁,2017-11-30,21.966756,120.810269,0.9749106
C0F0D0,審馬陣,2017-11-30,24.381675,121.4203,2.681232e-08
C0R820,白鷺,2017-11-30,22.454275,120.666219,4.164259e-07
U2H480,臺大溪頭,2017-11-30,23.670306,120.798194,7.635581e-09
C1V190,南天池,2017-11-30,23.27403,120.91176,1.3828017e-08
K2E360,苗栗農改場,2017-11-30,24.495722,120.829111,1.027178e-08
CAJ050,海口故事園區,2017-11-30,23.57543,120.14121,0.9995182
C2H9D0,三隻寮,2017-11-30,24.093078,120.861578,6.5446506e-09
C0O990,媽廟,2017-11-30,22.99175,120.293525,0.037112784
C0D480,打鐵坑,2017-11-30,24.849664,121.150789,0.009015137
C0Z220,和平林道,2017-11-30,24.343922,121.656317,8.164563e-09
C0TA10,花蓮漁港,2017-11-30,23.995322,121.638331,1.0588732e-07
72C440,桃園農改場,2017-11-30,24.950944,121.030583,0.99994457
C1E711,馬拉邦山,2017-11-30,24.367306,120.901656,3.80363e-09
C0SB20,富岡,2017-11-30,22.792467,121.192669,0.9988444
C0D560,竹東,2017-11-30,24.767147,121.057881,2.5421177e-05
C0F9U0,南屯,2017-11-30,24.137006,120.637969,1.8896104e-07
C0M720,番路,2017-11-30,23.464657,120.554156,0.00080070336
C0F0A0,雪山圈谷,2017-11-30,24.388594,121.236339,3.5313775e-08
C1A9N0,四十份,2017-11-30,24.934158,121.593283,3.344122e-06
C0U760,東澳,2017-11-30,24.52196,121.83318,9.650422e-08
C0X230,鹽水,2017-11-30,23.272621,120.247641,0.99996924
C2H9H0,苗改南投蜂場,2017-11-30,23.852589,120.693481,2.0845392e-09
C0R950,萬隆國小,2017-11-30,22.507667,120.587817,1.679361e-08
C0V370,古亭坑,2017-11-30,22.893178,120.401947,2.0542774e-09
C1I340,新興橋,2017-11-30,23.563333,120.868728,9.969413e-09
C0SA80,土坂,2017-11-30,22.453108,120.887572,0.99987954
C0R160,鹽埔,2017-11-30,22.739558,120.530778,2.3282686e-08
C0AC40,大屯山,2017-11-30,25.175675,121.522408,1.7878553e-07
466850,五分山雷達站,2017-11-30,25.071182,121.781205,2.4243627e-07
C2H9L0,馬烈霸,2017-11-30,24.1512,121.201772,1.1683045e-08
C1AI50,國三N016K,2017-11-30,25.034164,121.619664,7.737561e-05
C1V600,藤枝,2017-11-30,23.071961,120.757042,7.073836e-09
C1E601,南勢,2017-11-30,24.572486,120.734842,0.9986366
C0Z180,新城,2017-11-30,24.03946,121.60454,7.9177624e-08
C0O980,新市,2017-11-30,23.061614,120.298197,0.25950992
C0K420,西螺,2017-11-30,23.800407,120.467394,0.0142421955
C0Z050,佳心,2017-11-30,23.34567,121.21316,1.249281e-08
C0AD30,蘆洲,2017-11-30,25.086594,121.472331,0.00028324669
C0V610,梓官,2017-11-30,22.760558,120.267211,0.066019356
K2F750,種苗改良場,2017-11-30,24.225972,120.800917,2.9690916e-09
C0UA80,大溪漁港,2017-11-30,24.941801,121.902955,9.105536e-06
C1AI60,國一39K邊坡,2017-11-30,25.064361,121.383836,0.00084600964
C0W150,金寧,2017-11-30,24.457703,118.328989,0.999979
C0R960,內埔,2017-11-30,22.608483,120.570714,7.9323765e-09
V2C250,八德合作社,2017-11-30,24.93775,121.266389,0.7280008
C2H9S0,龍南,2017-11-30,23.953536,120.833183,3.7590224e-09
C0AH40,平等,2017-11-30,25.129142,121.577086,2.289217e-07
C0R540,佳冬,2017-11-30,22.419456,120.552375,0.9506587
466950,彭佳嶼,2017-11-30,25.627975,122.079744,0.9716975
C0A890,雙溪,2017-11-30,25.036003,121.864242,0.07608964
C0C480,桃園,2017-11-30,24.992425,121.323172,0.11416848
C0AH50,林口,2017-11-30,25.072181,121.38084,0.00014904386
A2K360,水試臺西試驗場,2017-11-30,23.717231,120.190522,0.99967784
B2N890,畜試所,2017-11-30,23.058972,120.336406,0.05293007
C2M960,外寮,2017-11-30,23.562643,120.665688,9.001942e-09
C0F9S0,烏日,2017-11-30,24.107058,120.624103,4.108933e-09
C0C490,八德,2017-11-30,24.928708,121.283289,0.6532059
C0R190,赤山,2017-11-30,22.592333,120.614306,7.044014e-09
C0T820,天祥,2017-11-30,24.179597,121.495639,4.734915e-08
C1F9E1,龍安,2017-11-30,24.1605,120.831961,2.3182574e-09
C0V820,小林,2017-11-30,23.148408,120.63325,1.7750573e-09
C2G870,芳苑,2017-11-30,23.922303,120.320025,0.9995923
C0E850,大河,2017-11-30,24.618069,120.948578,2.5549822e-08
C1U670,寒溪,2017-11-30,24.634,121.71691,3.2376764e-08
C0N020,城西,2017-11-30,23.0568,120.0956,0.99973404
C1Z110,三棧,2017-11-30,24.11557,121.60501,3.4234596e-08
C0R280,檳榔,2017-11-30,22.076078,120.836777,0.11463346
C2H9J0,中台,2017-11-30,23.9996,120.938739,3.5761794e-09
C0F9L0,后里,2017-11-30,24.310436,120.729725,9.661986e-09
C0D540,橫山,2017-11-30,24.71116,121.11693,1.5787876e-08
C1D420,太閣南,2017-11-30,24.632808,121.160575,2.9712686e-08
C1E770,公館,2017-11-30,24.526914,120.830806,1.3582743e-08
CAN130,水試所海水繁養殖中心,2017-11-30,23.120802,120.07968,0.999921
C1I430,翠華,2017-11-30,24.191961,121.224339,1.7821586e-08
C1M400,菜瓜坪,2017-11-30,23.251928,120.576103,3.9077657e-09
C0G730,二林,2017-11-30,23.903325,120.376081,0.9999096
72M360,南改義竹分場,2017-11-30,23.360694,120.279361,0.9999584
V2K620,麥寮合作社,2017-11-30,23.753836,120.294783,0.9998993
C0Z070,舞鶴,2017-11-30,23.46811,121.37407,6.096993e-09
C0B040,大武崙,2017-11-30,25.166676,121.706993,0.99956584
C1Z030,紅葉,2017-11-30,23.493119,121.338806,6.242746e-09
C1I050,丹大,2017-11-30,23.753747,121.141147,1.6998634e-08
C0I080,信義,2017-11-30,23.689694,120.851036,1.5717088e-08
C2M920,朴子農改,2017-11-30,23.469889,120.259383,0.99991393
C2A880,福隆,2017-11-30,25.017842,121.942083,0.0001085169
C0Z160,鳳林,2017-11-30,23.746114,121.453411,4.894234e-09
C0V210,復興,2017-11-30,23.222403,120.806089,4.0636507e-09
C0H990,昆陽,2017-11-30,24.121322,121.273642,3.5802696e-08
C0R741,獅子,2017-11-30,22.202308,120.705236,0.10116106
C0S710,鹿野,2017-11-30,22.917711,121.122994,2.5426631e-08
C0I530,小奇萊,2017-11-30,24.131764,121.295717,3.6803677e-08
C2K630,荷苞,2017-11-30,23.657717,120.595144,8.2142035e-09
C0Z080,富源,2017-11-30,23.587642,121.378225,6.3134666e-09
467441,高雄,2017-11-30,22.7304,120.3125,0.052192792
C0SB10,美和,2017-11-30,22.682078,121.060236,5.8074006e-06
C2K620,馬光農場,2017-11-30,23.721453,120.378864,0.9810572
C1I140,卡奈托灣,2017-11-30,23.754364,121.087872,2.9545957e-09
C0I520,玉山風口,2017-11-30,23.470489,120.955994,2.6456362e-08
C1G691,下水埔,2017-11-30,23.816114,120.5676,3.0667073e-07
C0X110,臺南市南區,2017-11-30,22.961189,120.188378,0.84784937
C0V680,仁武,2017-11-30,22.701083,120.347722,0.99613076
C2G840,北斗,2017-11-30,23.877586,120.514222,3.0681505e-05
C0R900,竹坑,2017-11-30,22.1385,120.7022,0.32215425
C0K250,崙背,2017-11-30,23.75555,120.318925,0.99989945
C0G860,社頭,2017-11-30,23.897647,120.5862,4.4609513e-07
C0X150,安定,2017-11-30,23.102614,120.227839,0.99983793
C0R590,里港,2017-11-30,22.77919,120.49459,7.4064443e-10
C0E610,馬都安,2017-11-30,24.451272,120.930192,6.005812e-09
C0E550,明德,2017-11-30,24.583486,120.885411,2.1224804e-07
C0R150,三地門,2017-11-30,22.709889,120.639944,6.0888348e-09
C0G910,花壇,2017-11-30,24.032076,120.549461,8.785353e-08
C1D400,鳥嘴山,2017-11-30,24.71909,121.28387,6.517783e-08
C0K500,元長,2017-11-30,23.64981,120.315024,0.9999537
C0F0B0,石岡,2017-11-30,24.276061,120.777644,7.588873e-09
C2V250,甲仙,2017-11-30,23.080106,120.591758,1.3711348e-09
C0SA20,金崙山,2017-11-30,22.567419,120.959667,1.0791683e-08
C0V350,溪埔,2017-11-30,22.738578,120.446797,5.5229e-10
C0M660,溪口,2017-11-30,23.604131,120.403569,0.99951756
C1S880,壽卡,2017-11-30,22.238911,120.858903,0.9999777
72D680,桃改新埔分場,2017-11-30,24.834444,121.066111,0.9998933
