站號,站名,日期,lat,lon,BLBTSLS
C0R710,龍磐,2017-11-28,21.931672,120.838942,0.43123233
C1F9D1,白毛台,2017-11-28,24.158325,120.886933,4.0939994e-09
C0G940,竹塘,2017-11-28,23.848253,120.386764,0.97850794
467590,恆春,2017-11-28,22.003897,120.746339,0.3729607
C1O850,環湖,2017-11-28,23.148617,120.418633,0.007619847
C0U710,太平山,2017-11-28,24.505486,121.525656,2.1991154e-08
C0E820,獅潭,2017-11-28,24.539133,120.920042,1.652606e-08
C0V880,興達,2017-11-28,22.8778,120.2127,0.8075916
C0S890,關山,2017-11-28,23.0395,121.175017,1.4921284e-08
C0SB30,新蘭,2017-11-28,22.869214,121.223228,0.112154216
C2R970,屏科大,2017-11-28,22.648275,120.619247,2.7847184e-08
K2F750,種苗繁殖,2017-11-28,24.225972,120.800917,3.3473315e-09
C1Z130,銅門,2017-11-28,23.965694,121.492842,3.781437e-09
C0AD40,土城,2017-11-28,24.973208,121.445169,1.2104192e-07
CAN140,六官養殖協會,2017-11-28,23.22881,120.29962,0.99987614
C0X180,山上,2017-11-28,23.0757,120.363253,0.0021037222
C0F9Z0,雪山東峰,2017-11-28,24.388792,121.268675,1.5916498e-08
C1M480,獨立山,2017-11-28,23.537022,120.607797,2.2657733e-09
C0X220,學甲,2017-11-28,23.230367,120.182187,0.9996701
467650,日月潭,2017-11-28,23.881325,120.90805,2.9745446e-09
C0K600,箔子寮,2017-11-28,23.6197,120.14,0.9993006
C0G830,埤頭,2017-11-28,23.866003,120.452806,7.2238117e-06
C0S950,七塊厝,2017-11-28,22.954453,121.229922,4.7704933e-09
467110,金門,2017-11-28,24.407306,118.289281,0.99935997
C0AH80,深坑,2017-11-28,25.002703,121.628328,9.1042715e-08
467990,馬祖,2017-11-28,26.169269,119.923419,0.34553084
C0A970,三貂角,2017-11-28,25.007606,122.002058,5.9358563e-08
C2D730,寶山農場,2017-11-28,24.732444,120.976153,8.717442e-06
C0K430,褒忠,2017-11-28,23.690938,120.303634,0.9989451
467480,嘉義,2017-11-28,23.495925,120.432906,0.99921924
C2E540,後龍,2017-11-28,24.606489,120.783933,0.28192118
C0V400,阿公店,2017-11-28,22.804194,120.355528,4.953391e-06
C0R440,大漢山,2017-11-28,22.405264,120.753181,4.0142496e-08
C0K280,四湖,2017-11-28,23.630414,120.227125,0.9997807
C1F9B1,桐林,2017-11-28,24.066172,120.735194,5.0187907e-09
C2H9U0,鳳鵬,2017-11-28,23.763919,120.788061,2.1791433e-09
C0K390,土庫,2017-11-28,23.679029,120.395574,0.9992877
C1I450,望鄉山,2017-11-28,23.594153,120.944286,9.137792e-09
C0E910,海埔,2017-11-28,24.648767,120.772435,0.28941426
B2E890,畜試北區分所,2017-11-28,24.527806,120.770972,1.2949847e-08
C0R750,四林格山,2017-11-28,22.076989,120.802439,0.9989443
C0F0C0,中坑,2017-11-28,24.248517,120.903319,3.0392524e-09
C1I121,大鞍,2017-11-28,23.678381,120.760017,4.1671564e-09
72U480,花改蘭陽分場,2017-11-28,24.686306,121.716583,4.965223e-09
C0A770,科教館,2017-11-28,25.096356,121.516507,2.8425086e-08
C0AJ60,六塊厝,2017-11-28,25.24,121.4481,0.8266003
C0R620,墾雷,2017-11-28,21.900836,120.855269,0.59885126
467420,永康,2017-11-28,23.038386,120.2367,0.93441385
467300,東吉島,2017-11-28,23.25695,119.667467,0.99026954
C0I410,名間,2017-11-28,23.837053,120.701447,7.481243e-09
A2C560,農工中心,2017-11-28,24.985917,121.239833,7.826388e-05
C0V740,旗山,2017-11-28,22.888614,120.483597,2.2624794e-08
C0Z061,玉里,2017-11-28,23.3215,121.339656,3.196435e-09
C0S840,南田,2017-11-28,22.279725,120.889208,0.30282462
C1I470,杉林溪,2017-11-28,23.639517,120.786444,4.6481254e-09
C1X040,東原,2017-11-28,23.291597,120.463822,1.1520952e-08
C0R660,枋寮,2017-11-28,22.367722,120.590647,0.43771988
C1R120,上德文,2017-11-28,22.763272,120.704442,4.288985e-09
C0K450,大埤,2017-11-28,23.646074,120.431537,0.16618316
C0UA00,土場,2017-11-28,24.576533,121.495333,2.0830537e-08
467080,宜蘭,2017-11-28,24.763975,121.756528,7.3062534e-09
C0N030,四草,2017-11-28,23.0235,120.1116,0.9970354
C0V650,彌陀,2017-11-28,22.783806,120.246361,0.98908585
C0D660,新竹市東區,2017-11-28,24.798681,120.986942,0.11960778
82S580,茶改東部分場,2017-11-28,22.907694,121.130139,1.290138e-05
C0SB40,興隆,2017-11-28,22.913661,121.257469,0.03177864
C0C710,大溪永福,2017-11-28,24.892936,121.324975,7.57536e-07
C0FA20,溫寮,2017-11-28,24.372177,120.583125,0.1565986
C0V640,湖內,2017-11-28,22.887139,120.2445,0.75115323
C0R910,下寮,2017-11-28,22.3929,120.5548,0.43771988
C0Z020,明里,2017-11-28,23.208717,121.262342,3.7438603e-09
C0M770,嘉義梅山,2017-11-28,23.585398,120.555587,1.8743704e-06
G2F820,農業試驗所,2017-11-28,24.031261,120.688133,2.2128573e-08
C0C660,楊梅,2017-11-28,24.912375,121.143047,2.756541e-05
C1E511,新開,2017-11-28,24.347703,120.827019,1.9537032e-09
G2F820,農試所(霧峰),2017-11-28,24.031261,120.688133,2.2128573e-08
C1I070,和社,2017-11-28,23.591131,120.888861,1.2343803e-08
C2F000,大肚,2017-11-28,24.15295,120.572117,1.9649518e-09
C1S850,豐南,2017-11-28,23.122139,121.262389,3.6198737e-09
C2A920,富貴角,2017-11-28,25.263783,121.565258,3.4398505e-05
CAH030,茶改場竹圍站,2017-11-28,23.860083,120.637528,1.7027505e-09
C0T960,光復,2017-11-28,23.660694,121.424964,3.856924e-09
C0F9M0,豐原,2017-11-28,24.254322,120.720692,3.2225251e-09
C0R720,旭海,2017-11-28,22.205403,120.887614,0.90572536
C0V710,苓雅,2017-11-28,22.622742,120.330669,9.020127e-06
C0C740,觀音工業區,2017-11-28,25.064764,121.114856,0.99977976
CAC040,拉拉山,2017-11-28,24.699317,121.427133,4.0124736e-08
C0V790,萬山,2017-11-28,22.905944,120.688056,5.0177853e-09
U2HA30,臺大和社,2017-11-28,23.590856,120.888864,1.2343803e-08
C0AJ90,澳底,2017-11-28,25.0552,121.9253,3.8080094e-07
C0Z100,東華,2017-11-28,23.89525,121.549833,7.055228e-09
C0G970,三豐,2017-11-28,23.882,120.2895,0.9989711
V2K610,大庄合作社,2017-11-28,23.8068,120.367939,0.9163394
C0V900,汕尾,2017-11-28,22.4782,120.4151,2.3511575e-08
C1R630,龍泉,2017-11-28,22.66701,120.59091,8.069631e-08
C1AC50,關渡,2017-11-28,25.133486,121.469331,1.5170004e-07
C0F9I0,神岡,2017-11-28,24.272481,120.658314,7.775316e-09
C0K460,斗南,2017-11-28,23.678734,120.478359,0.058209017
467410,臺南,2017-11-28,22.993239,120.204772,0.991653
C2O810,曾文,2017-11-28,23.219681,120.497328,4.1483761e-07
467280,後龍,2017-11-28,24.648563,120.831834,0.23351184
C1F9J1,清水林,2017-11-28,24.071242,120.820419,3.064159e-09
C2A650,火燒寮,2017-11-28,25.002719,121.742892,3.1523474e-08
466930,竹子湖,2017-11-28,25.162078,121.544547,1.4042723e-08
C1I220,樟湖,2017-11-28,23.905333,120.846983,1.1396828e-09
C0I390,仁愛,2017-11-28,24.022122,121.132206,1.3429179e-09
C0Z300,東里,2017-11-28,23.26853,121.30547,3.9368e-09
C1V590,新發,2017-11-28,23.057019,120.646064,3.0702196e-09
C0K510,水林,2017-11-28,23.572924,120.24597,0.99985504
72S590,東改賓朗果園,2017-11-28,22.813889,121.071278,9.064123e-05
82A750,茶改北部分場,2017-11-28,24.955778,121.631222,6.0908356e-08
C1A750,石碇服務區,2017-11-28,25.00872,121.646242,6.6977215e-08
C0X300,鹿寮,2017-11-28,23.386047,120.477331,0.993723
G2AI50,關渡,2017-11-28,25.11575,121.492,0.0008338256
C0K590,雲林東勢,2017-11-28,23.674192,120.255721,0.9996748
C0A570,桶後,2017-11-28,24.848222,121.597992,1.97805e-08
C1S800,華源,2017-11-28,22.657883,121.02325,6.1054214e-07
C0G720,溪州,2017-11-28,23.851589,120.499093,4.6169203e-06
C1V160,達卡努瓦,2017-11-28,23.279811,120.705319,1.9039699e-09
C2M410,馬頭山,2017-11-28,23.324361,120.582017,5.4153255e-09
C0V850,蚵仔寮,2017-11-28,22.7256,120.2527,0.009491445
C0S740,池上,2017-11-28,23.119628,121.209469,1.9455459e-07
C1V390,尖山,2017-11-28,22.813153,120.367789,8.928713e-07
C0AH70,松山,2017-11-28,25.04871,121.55042,2.6351408e-08
C0N010,鯤鯓國小,2017-11-28,23.1879,120.0889,0.9995158
C0R550,新埤,2017-11-28,22.467947,120.582894,1.2113992e-08
C0SA60,知本（水試所）,2017-11-28,22.702394,121.082761,2.0862362e-05
C0T9I0,豐濱,2017-11-28,23.583897,121.514806,1.931104e-09
C0UB00,淡江大學蘭陽校園,2017-11-28,24.823239,121.730383,1.8042705e-08
C0W240,九宮,2017-11-28,24.423753,118.240186,0.99959385
C0T9N0,富里,2017-11-28,23.171639,121.249378,1.6582263e-08
U2HA50,臺大竹山,2017-11-28,23.756972,120.681556,5.649045e-09
C0V840,鳳鼻頭,2017-11-28,22.5083,120.3591,1.3658117e-06
C0X140,西港,2017-11-28,23.125608,120.203108,0.9996794
72D080,桃改五峰分場,2017-11-28,24.612194,121.157167,1.1421292e-08
C2H9P0,伊拿谷,2017-11-28,23.963211,121.088264,9.522751e-10
C2H9F0,柑林,2017-11-28,24.018658,120.847072,2.660984e-09
C0TA20,加灣,2017-11-28,24.082025,121.608944,1.6145196e-07
C0V530,阿蓮,2017-11-28,22.883208,120.327508,0.08976536
C1O880,關山,2017-11-28,23.173397,120.594092,3.845252e-09
C0E791,卓蘭,2017-11-28,24.3126,120.8244,2.4282343e-09
C1I030,武界,2017-11-28,23.913225,121.052483,9.639745e-10
C0R520,崁頂,2017-11-28,22.514781,120.506914,4.664563e-06
C0R341,牡丹,2017-11-28,22.130036,120.792639,0.6218961
C0R930,萬丹,2017-11-28,22.5885,120.4851,0.00034165315
C0S760,紅石,2017-11-28,23.069131,121.126219,1.381726e-08
C1M610,石磐龍,2017-11-28,23.496606,120.663506,3.9206594e-09
C0UA10,鴛鴦湖,2017-11-28,24.590269,121.412228,2.7396897e-08
V2C260,八德蔬果,2017-11-28,24.978508,121.281819,4.2660653e-07
C0R800,丹路,2017-11-28,22.204481,120.750989,0.6375127
C0G920,永靖,2017-11-28,23.924703,120.547533,7.545827e-07
C2M950,太和,2017-11-28,23.538372,120.702961,4.260367e-09
C1A630,下盆,2017-11-28,24.771003,121.538622,1.1978935e-08
B2N890,畜產試驗所,2017-11-28,23.058972,120.336406,0.78558016
C0UA30,白嶺,2017-11-28,24.527819,121.519031,1.40435805e-08
C1V580,溪南(特生中心),2017-11-28,23.084972,120.788475,3.176082e-09
C1T970,大農,2017-11-28,23.615233,121.413331,1.776053e-09
E2S960,林試太麻里2,2017-11-28,22.598014,120.989761,0.04372595
C0R650,竹田,2017-11-28,22.58486,120.54344,2.4817346e-06
C1H900,清流,2017-11-28,24.080775,120.962997,3.8470276e-09
C1C510,水尾,2017-11-28,24.940081,121.087161,0.8812595
C0F9X0,大雅(中科園區),2017-11-28,24.21528,120.62445,1.2986653e-08
C0SB60,白守蓮,2017-11-28,23.126769,121.401914,0.65358806
C0O970,虎頭埤,2017-11-28,23.021375,120.347878,4.4957953e-05
C0C730,中大臨海站,2017-11-28,24.966126,121.008581,0.9984964
C0X250,新營,2017-11-28,23.310689,120.316681,0.99985904
C0V700,三民,2017-11-28,22.645017,120.311233,0.53274447
C0U870,大礁溪,2017-11-28,24.791042,121.675047,1.19147225e-08
C0E870,高鐵苗栗,2017-11-28,24.60725,120.826094,0.2654358
A2K570,古坑花卉中心,2017-11-28,23.63353,120.55239,9.145019e-07
C0M860,新美,2017-11-28,23.338017,120.683169,4.336779e-09
C1E701,八卦,2017-11-28,24.491756,120.927619,8.265595e-09
C0I420,國姓,2017-11-28,24.037803,120.855072,2.322041e-09
C2D720,關西工作站,2017-11-28,24.757275,121.184792,6.953783e-07
C0S960,香蘭,2017-11-28,22.587569,120.993375,0.04372595
C0R260,春日,2017-11-28,22.370361,120.628306,0.7567007
72G600,臺中農改場,2017-11-28,24.003028,120.534389,1.7248475e-07
C0Z210,瑞穗,2017-11-28,23.5239,121.39021,2.6039326e-09
C0M820,達邦,2017-11-28,23.453994,120.749517,3.0242926e-09
C0V860,南寮,2017-11-28,22.7616,120.2339,0.009301937
C0G740,大城,2017-11-28,23.852487,120.320935,0.9989468
C0R920,塭仔,2017-11-28,22.4169,120.5197,0.39344177
C0R470,高樹,2017-11-28,22.826389,120.600806,5.5398274e-08
C0R680,佳樂水,2017-11-28,21.993578,120.861633,0.7324093
C1O870,大棟山,2017-11-28,23.31157,120.52226,3.8711483e-09
C0D360,梅花,2017-11-28,24.678347,121.208558,3.5399285e-08
C0Z190,富世,2017-11-28,24.14743,121.6297,4.1012336e-06
C0AI10,屈尺,2017-11-28,24.92184,121.54475,4.885968e-07
B2U990,畜試東區分所,2017-11-28,24.669039,121.832561,7.3001245e-09
C0SB80,長濱漁港,2017-11-28,23.313644,121.459994,3.849993e-09
C0R240,來義,2017-11-28,22.527306,120.625111,1.6225584e-07
C0V910,大樹,2017-11-28,22.684645,120.432803,4.7987726e-07
C1R610,西大武山,2017-11-28,22.617719,120.7322,1.799411e-08
C0G900,線西,2017-11-28,24.143358,120.443536,0.6669267
C0M700,竹崎,2017-11-28,23.526178,120.555508,0.003961973
C2E880,三義,2017-11-28,24.405478,120.749819,2.0660502e-09
C0C720,竹圍,2017-11-28,25.112692,121.239824,0.0008338256
C0F9P0,清水,2017-11-28,24.312297,120.562242,0.26365617
C0Z150,吉安光華,2017-11-28,23.930925,121.595153,5.803915e-09
C1D640,外坪(五指山),2017-11-28,24.644447,121.090961,1.208572e-08
C0F9O0,潭子,2017-11-28,24.213106,120.703933,3.951952e-09
C2H9R0,卓社,2017-11-28,23.887894,121.000086,1.4218603e-09
72T250,花蓮農改場,2017-11-28,23.975222,121.563889,1.7393084e-08
C0E780,銅鑼,2017-11-28,24.489681,120.790853,8.452301e-09
C1T950,太安,2017-11-28,23.666719,121.370128,2.1969562e-08
C0E830,苑裡,2017-11-28,24.439714,120.653053,0.3558234
467270,田中,2017-11-28,23.873803,120.581286,4.471085e-06
C0SA10,檳榔四格山,2017-11-28,22.810031,121.109308,7.266225e-07
C1T830,布洛灣,2017-11-28,24.17184,121.57127,8.699727e-08
C0F970,大坑,2017-11-28,24.173142,120.722289,5.538663e-09
C1U920,思源,2017-11-28,24.393125,121.347214,1.2307764e-08
C0A931,三和,2017-11-28,25.233153,121.595236,3.3825626e-07
C0I010,廬山,2017-11-28,24.033311,121.181808,2.212527e-09
C2M940,日野賀,2017-11-28,23.434056,120.727169,3.2884098e-09
C0R860,鼻頭,2017-11-28,22.1043,120.8979,0.20602837
C0UB20,壯圍,2017-11-28,24.7359,121.8163,5.1543365e-09
C0R790,九棚,2017-11-28,22.14195,120.889281,0.4703561
C0W110,東莒,2017-11-28,25.9652,119.98069,0.95492035
C1U930,粉鳥林,2017-11-28,24.497088,121.842479,1.152803e-08
C1I211,蘆竹湳,2017-11-28,23.934019,120.811994,2.401561e-09
C0S830,長濱,2017-11-28,23.286817,121.411975,3.0773957e-09
C1F9F1,伯公龍,2017-11-28,24.272392,120.849047,3.311023e-09
C0E810,西湖,2017-11-28,24.562947,120.7485,0.9563784
C1I440,新高口,2017-11-28,23.478744,120.878939,5.5687357e-09
C0O840,王爺宮,2017-11-28,23.222064,120.40085,0.6485819
C0T9G0,鳳林山,2017-11-28,23.735269,121.420131,3.7673127e-09
C0X080,佳里,2017-11-28,23.173039,120.145086,0.9995158
C0FB70,大甲溪埔,2017-11-28,24.370625,120.620067,0.03548506
C0Z310,清水斷崖,2017-11-28,24.218294,121.689142,1.2794979e-07
C0M680,太保,2017-11-28,23.455062,120.331455,0.99969125
C1S820,金峰,2017-11-28,22.590969,120.933236,6.2764443e-06
C0AD10,八里,2017-11-28,25.150211,121.403947,0.0008338256
C2K240,草嶺,2017-11-28,23.59555,120.693461,4.8920312e-09
C1SA70,都蘭,2017-11-28,22.87794,121.226881,0.032044884
C0K440,二崙,2017-11-28,23.772797,120.408944,0.00014281741
C1A760,坪林交控,2017-11-28,24.94284,121.713442,3.825831e-08
C0F9N0,大里,2017-11-28,24.092464,120.701378,1.4177285e-08
C0SA90,達仁林場,2017-11-28,22.264347,120.823972,0.99121016
C1R290,石門山,2017-11-28,22.112611,120.756597,0.87946063
42HA10,萬大發電廠,2017-11-28,23.978875,121.139639,1.3207672e-09
C0R890,山海,2017-11-28,21.9878,120.7091,0.4981025
C0T9A0,月眉山,2017-11-28,23.809928,121.539828,2.3528879e-09
C0AC70,信義,2017-11-28,25.037822,121.564597,2.6351408e-08
C0K560,棋山,2017-11-28,23.68645,120.603417,4.701008e-07
C2FB50,出雲,2017-11-28,24.206469,120.902794,3.1420209e-09
C1Z240,中平林道,2017-11-28,23.42115,121.26763,3.106288e-08
U2H480,溪頭,2017-11-28,23.670306,120.798194,4.123937e-09
C0M880,好美里,2017-11-28,23.3364,120.138,0.9997584
C0T9E0,大坑,2017-11-28,23.880628,121.581981,3.9501584e-09
C0K530,臺西,2017-11-28,23.701547,120.197559,0.9997052
C1E900,國一N128K,2017-11-28,24.560997,120.844186,7.222534e-07
C0AJ50,水湳洞,2017-11-28,25.123695,121.862238,2.6831849e-05
C0AI20,白沙灣,2017-11-28,25.283128,121.519058,0.65553135
C0A860,大坪,2017-11-28,25.165914,121.632969,1.6960936e-08
C1U850,觀音海岸,2017-11-28,24.38319,121.77856,3.664584e-09
C2K610,草嶺石壁,2017-11-28,23.602469,120.707731,4.9241784e-09
C0U950,鶯子嶺,2017-11-28,24.89754,121.79244,2.3024343e-08
C0O900,善化,2017-11-28,23.112883,120.297219,0.9358931
C0K550,蔦松,2017-11-28,23.514319,120.229736,0.9998569
E2P980,林試六龜中心,2017-11-28,22.991703,120.645722,4.216889e-09
C0E590,通霄,2017-11-28,24.471892,120.704622,0.8658732
C1I310,西巒,2017-11-28,23.754486,120.883956,2.7015177e-09
C0A550,泰平,2017-11-28,24.971197,121.823711,4.8134346e-08
C0I360,水里,2017-11-28,23.812553,120.849792,2.621914e-09
C0R830,高士,2017-11-28,22.121825,120.836781,0.97797376
C1I101,溪頭,2017-11-28,23.661789,120.807647,3.784901e-09
C0AJ20,野柳,2017-11-28,25.20703,121.690021,5.1426277e-06
C0B060,暖暖,2017-11-28,25.0957,121.7403,3.8010427e-08
C1H920,長豐,2017-11-28,24.102039,120.879897,4.418385e-09
C0V360,內門,2017-11-28,22.975481,120.466769,3.2214146e-08
C0R850,林邊,2017-11-28,22.4634,120.5339,1.722606e-08
C0E930,龍鳳,2017-11-28,24.700034,120.859125,0.98575383
C0U910,冬山,2017-11-28,24.63373,121.7937,7.3001245e-09
C1E721,泰安,2017-11-28,24.489017,120.968036,6.0188965e-09
82H320,茶改中部分場,2017-11-28,23.875611,120.913583,3.133588e-09
C0M750,布袋,2017-11-28,23.380878,120.167789,0.99979836
C1S860,利嘉,2017-11-28,22.809417,121.050528,8.402744e-09
72C440,桃園農改,2017-11-28,24.950944,121.030583,0.97483367
E2S980,林試太麻里1,2017-11-28,22.598922,120.980044,0.00055175903
C0X170,關廟,2017-11-28,22.963017,120.327797,9.326299e-05
C0V720,林園,2017-11-28,22.507747,120.394511,7.7430474e-07
C1I510,線浸林道,2017-11-28,23.761508,120.832956,2.3155529e-09
C0D690,外湖,2017-11-28,24.917735,120.968711,0.9884882
C0C750,新興坑尾,2017-11-28,25.0061,121.0971,0.9966105
B2Q810,畜試南區分所,2017-11-28,21.945583,120.802167,0.7402763
C0S790,金崙,2017-11-28,22.538122,120.966875,0.00077183
C0AH90,福山植物園,2017-11-28,24.760717,121.58135,4.7449685e-08
C0I540,奇萊稜線,2017-11-28,24.109231,121.326456,1.7880183e-08
C0M850,表湖,2017-11-28,23.24186,120.64166,2.5577895e-09
C0S770,大溪山,2017-11-28,22.478475,120.943325,9.772482e-05
C0AG80,中和,2017-11-28,24.991622,121.491792,1.2104192e-07
C0T790,大禹嶺,2017-11-28,24.186117,121.316086,1.2668069e-08
C0T9B0,水源,2017-11-28,23.991861,121.537169,3.7961647e-09
C0R840,牡丹池山,2017-11-28,22.168389,120.841225,0.99928427
C1I131,桶頭,2017-11-28,23.641944,120.654117,3.4552872e-09
CAL110,布袋國中,2017-11-28,23.35893,120.18026,0.999799
467571,新竹,2017-11-28,24.827853,121.014219,0.64853287
C0Z290,赤柯山,2017-11-28,23.36893,121.38293,1.1180065e-08
C0X280,將軍,2017-11-28,23.214999,120.13577,0.999668
C0S690,太麻里,2017-11-28,22.60902,120.98533,3.5138683e-08
C0U880,北關,2017-11-28,24.9072,121.8734,9.72179e-08
C1H860,瑞岩,2017-11-28,24.123772,121.18345,7.913215e-09
C0G810,埔心,2017-11-28,23.947633,120.525456,7.516638e-07
C0U970,大福,2017-11-28,24.80064,121.81389,7.470207e-09
C2H9N0,仁愛東眼,2017-11-28,24.026875,121.1205,1.9716493e-09
C1E670,南礦,2017-11-28,24.538278,121.002836,9.39352e-09
C0M520,東後寮,2017-11-28,23.369908,120.248065,0.9997917
C1E461,松安,2017-11-28,24.397972,120.986022,4.5566404e-09
72G600,臺中農改,2017-11-28,24.003028,120.534389,1.7248475e-07
C2N160,西拉雅風管處,2017-11-28,23.189481,120.335297,0.9991083
C2M970,碧湖,2017-11-28,23.568632,120.624165,4.9599604e-09
C0A640,石碇,2017-11-28,24.993969,121.662917,3.831169e-08
E2S960,林試太麻里2,2017-11-28,22.598,120.99775,0.076576926
C0F9Y0,桃山,2017-11-28,24.432739,121.303808,1.5751661e-08
C1I020,萬大,2017-11-28,23.979817,121.132261,1.3526092e-09
C0U940,羅東,2017-11-28,24.68184,121.74934,5.008826e-09
C0M650,朴子,2017-11-28,23.43463,120.23902,0.99964917
C1I500,大尖山,2017-11-28,23.858572,120.994889,3.7280765e-09
C0G820,田尾,2017-11-28,23.901669,120.509389,7.516638e-07
E2K600,四湖植物園,2017-11-28,23.676986,120.163433,0.9997807
C0S730,綠島,2017-11-28,22.6672,121.47533,0.8548765
12Q970,東港工作站,2017-11-28,22.479997,120.466058,2.346149e-08
C0E430,南庄,2017-11-28,24.601775,121.000214,1.6146592e-08
C1TA00,太魯閣,2017-11-28,24.15773,121.6236,1.3077463e-06
466920,臺北,2017-11-28,25.037658,121.514853,2.6351408e-08
C0R600,舊泰武,2017-11-28,22.588194,120.664944,2.0913213e-09
C1I260,北坑,2017-11-28,23.9246,121.006903,2.3418472e-09
466910,鞍部,2017-11-28,25.182586,121.529731,4.5343178e-08
C1I230,九份二山,2017-11-28,23.961944,120.845,9.63107e-10
C2A660,瑞芳,2017-11-28,25.113169,121.801147,2.7987257e-06
C0R270,琉球嶼,2017-11-28,22.332244,120.362236,1.7539804e-05
C1T990,高寮,2017-11-28,23.394239,121.356808,3.4693797e-09
C0G620,芬園,2017-11-28,24.015678,120.6213,1.24622295e-08
C1Z140,荖溪,2017-11-28,23.890575,121.45964,1.3068876e-08
C1I201,中心崙,2017-11-28,23.728722,120.712097,2.6900309e-09
C1I400,凌霄,2017-11-28,24.018778,121.004456,1.9017887e-09
C1M640,十字,2017-11-28,23.492153,120.753683,3.333315e-09
G2P820,農試鳳山分所,2017-11-28,22.646611,120.356083,0.17327374
C0Z270,蕃薯寮,2017-11-28,23.73835,121.540108,3.2870615e-09
C0F9Q0,外埔,2017-11-28,24.347817,120.705686,7.1210136e-09
C0K580,高鐵雲林,2017-11-28,23.737456,120.417944,0.9638086
C2I090,鳳凰,2017-11-28,23.728081,120.787347,3.4092005e-09
C0U990,員山,2017-11-28,24.74435,121.72247,5.102319e-09
C0V770,大社,2017-11-28,22.730306,120.346639,0.0019690439
C0X120,麻豆,2017-11-28,23.183289,120.248611,0.9998015
C0C670,龍潭,2017-11-28,24.870056,121.221389,2.0572113e-06
C0D680,香山濕地,2017-11-28,24.783581,120.914988,0.2462312
C0S980,勝林山,2017-11-28,22.430439,120.8938,4.1071843e-07
C0V730,大寮,2017-11-28,22.605614,120.395717,6.420085e-06
C0R570,麟洛,2017-11-28,22.65078,120.52719,4.5070962e-07
C2M930,石卓,2017-11-28,23.478744,120.702264,3.1530252e-09
C0G9B0,和美,2017-11-28,24.105169,120.492131,0.92895615
CAG100,王功漁港,2017-11-28,23.96824,120.32586,0.9987763
C0X290,北門,2017-11-28,23.267772,120.125481,0.999668
C2F930,大甲,2017-11-28,24.347667,120.640403,0.00064962084
C0D650,湖口,2017-11-28,24.904794,121.043628,0.9029633
C0E420,竹南,2017-11-28,24.708978,120.888897,0.98545
C0U780,五結,2017-11-28,24.68637,121.79794,5.1543365e-09
C1I250,鯉潭,2017-11-28,23.961922,120.991131,1.0512234e-09
C0R130,阿禮,2017-11-28,22.742908,120.743678,3.4850716e-09
C0X100,臺南市北區,2017-11-28,23.010394,120.194228,0.9957241
C0S920,金峰嘉蘭,2017-11-28,22.594789,120.960825,0.00035541356
C0V490,新興,2017-11-28,22.627422,120.298803,1.0093146e-05
C0F9K0,大安,2017-11-28,24.345061,120.588025,0.049121957
72N100,臺南農改,2017-11-28,23.0605,120.342194,0.78558016
467290,古坑,2017-11-28,23.633639,120.551889,9.145019e-07
C2E970,八甲,2017-11-28,24.535811,120.795983,9.80851e-08
C0V440,鳳山,2017-11-28,22.646653,120.356122,0.17327374
C1T940,大觀,2017-11-28,23.714206,121.373133,3.4837557e-09
72T250,花蓮農改,2017-11-28,23.975222,121.563889,1.7393084e-08
C0E740,造橋,2017-11-28,24.637056,120.864778,0.2654358
C0R100,尾寮山,2017-11-28,22.833111,120.683889,4.3839927e-09
A2K630,臺大雲林校區,2017-11-28,23.730628,120.423903,0.9638086
C0D580,寶山,2017-11-28,24.735006,121.025192,2.0586977e-07
E2P990,林試扇平站,2017-11-28,22.9677,120.6857,5.1304534e-09
C0AI30,三重,2017-11-28,25.057328,121.500629,2.8425086e-08
C0AH00,汐止,2017-11-28,25.066881,121.658778,2.6351408e-08
C1Z040,立山,2017-11-28,23.443356,121.327375,1.3363111e-08
C0W130,花嶼,2017-11-28,23.40007,119.32276,0.9213837
C0A950,鼻頭角,2017-11-28,25.129036,121.923372,0.9974315
C0K470,林內,2017-11-28,23.748675,120.609642,2.0053177e-08
C2F990,摩天嶺,2017-11-28,24.322458,120.936819,3.0192322e-09
82C160,茶改場,2017-11-28,24.908472,121.185333,7.1905188e-06
C0Z320,清水林道,2017-11-28,23.27125,121.188272,8.883688e-09
C0R760,南仁湖,2017-11-28,22.084681,120.863353,0.87946063
C0M670,大林,2017-11-28,23.600616,120.45841,0.9970262
C0M800,茶山,2017-11-28,23.299075,120.664767,6.148001e-09
C0A9C0,天母,2017-11-28,25.117494,121.537169,3.7072178e-07
72K220,南改斗南分場,2017-11-28,23.634556,120.477333,0.06028207
72AI40,桃改樹林分場,2017-11-28,24.944503,121.386972,6.365876e-05
C0S910,蘭嶼燈塔,2017-11-28,22.081197,121.503117,0.034676727
C0B050,八斗子,2017-11-28,25.144754,121.79167,0.00010263236
C0U900,內城,2017-11-28,24.71813,121.68766,4.855109e-09
C0X320,柳營,2017-11-28,23.253328,120.375253,0.9990453
C0M790,新港,2017-11-28,23.553269,120.345728,0.9997269
C0F9T0,西屯,2017-11-28,24.179494,120.641275,5.686994e-08
C0SA30,都歷,2017-11-28,23.020333,121.323642,3.1916733e-07
C0C620,蘆竹,2017-11-28,25.084275,121.265767,0.16201907
C0R730,大坪頂,2017-11-28,22.024633,120.69355,0.077345915
C0AJ40,石門,2017-11-28,25.273672,121.601198,0.00026950488
C0E750,苗栗,2017-11-28,24.564569,120.824575,9.052978e-07
C0T870,鯉魚潭,2017-11-28,23.935639,121.508944,3.9993906e-09
C1V170,排雲,2017-11-28,23.463619,120.954147,1.2992004e-08
C2H950,中寮,2017-11-28,23.884447,120.766406,5.144662e-09
C0R350,貓鼻頭,2017-11-28,21.921774,120.7358,0.60797226
C0V660,岡山,2017-11-28,22.797078,120.294958,0.98916686
C1H941,雙冬,2017-11-28,23.967378,120.802189,2.323667e-09
C0AJ70,田寮,2017-11-28,25.2698,121.4886,0.7664552
C0AI00,五股,2017-11-28,25.07445,121.42728,2.000785e-07
C0Z280,德武,2017-11-28,23.47426,121.41071,2.9581142e-09
C0R700,枋山,2017-11-28,22.246844,120.661086,0.031026952
C0C460,復興,2017-11-28,24.820208,121.352281,2.2668924e-07
E2H360,蓮華池,2017-11-28,23.918333,120.885278,2.2828255e-09
C0M640,中埔,2017-11-28,23.42538,120.5229,0.084664896
C0W140,金沙,2017-11-28,24.488292,118.408778,0.99553376
C2A540,四堵,2017-11-28,24.8926,121.745736,2.6815286e-08
C0ACA0,新莊,2017-11-28,25.051478,121.446756,1.0006908e-07
C0R220,潮州,2017-11-28,22.534361,120.54,2.7026301e-06
U2HA40,臺大內茅埔,2017-11-28,23.689722,120.851117,6.562413e-09
467490,臺中,2017-11-28,24.145736,120.684075,1.18337775e-08
C0U960,翠峰湖,2017-11-28,24.510856,121.608044,1.9071038e-08
E2HA20,林試畢祿溪站,2017-11-28,24.226944,121.308522,1.1263777e-08
C0V890,前鎮,2017-11-28,22.5718,120.3117,2.194292e-05
467620,蘭嶼,2017-11-28,22.036969,121.558339,0.010032539
C1F941,雪嶺,2017-11-28,24.280586,121.026642,1.60548e-08
C2H9E0,國姓南港,2017-11-28,23.911108,120.846556,1.183305e-09
C0AC80,文山,2017-11-28,25.00235,121.575728,9.1036114e-08
C0F9R0,龍井,2017-11-28,24.184536,120.528972,0.87880033
C0M760,民雄,2017-11-28,23.551754,120.428457,0.9976974
C0UA40,西德山,2017-11-28,24.560647,121.752608,2.161283e-08
C1T920,中興,2017-11-28,23.769503,121.498653,2.6280624e-09
C0D550,雪霸,2017-11-28,24.526972,121.11605,6.280821e-09
C2F860,梨山,2017-11-28,24.247522,121.243669,1.1554821e-08
C0R320,車城,2017-11-28,22.0744,120.716247,0.053115208
C1S870,南美山,2017-11-28,23.15025,121.382333,1.7599652e-08
C0B020,基隆嶼,2017-11-28,25.19141,121.78391,0.99753356
C1U501,牛鬥,2017-11-28,24.637836,121.573656,1.174256e-08
C0M730,嘉義市東區,2017-11-28,23.457673,120.460531,0.99466866
C0S700,知本,2017-11-28,22.684866,121.005642,1.666648e-08
C1N001,沙崙,2017-11-28,22.935472,120.309406,0.00030495648
C0V760,橋頭,2017-11-28,22.757806,120.30575,0.004361007
C0G960,福寶,2017-11-28,24.0443,120.3814,0.95754683
C0X210,白河,2017-11-28,23.347466,120.414427,0.9981314
C0S810,東河,2017-11-28,22.972672,121.303986,0.99986845
C2R170,屏東,2017-11-28,22.66027,120.49403,4.5070962e-07
C0R670,楓港,2017-11-28,22.190131,120.692156,0.083441734
C0FA50,霧峰,2017-11-28,24.0419,120.6995,1.9473127e-08
C0UB10,蘇澳,2017-11-28,24.5969,121.8571,2.1013705e-08
C0G950,防潮門,2017-11-28,24.1835,120.4871,0.8930206
C0M740,六腳,2017-11-28,23.492871,120.290625,0.99978566
C1R250,力里,2017-11-28,22.428117,120.629228,5.213881e-09
C0K330,虎尾,2017-11-28,23.719183,120.442036,0.94080514
C2FA00,烏石坑,2017-11-28,24.273503,120.947617,3.0031737e-09
C0V620,永安,2017-11-28,22.82315,120.236856,0.98908585
C1I330,楓樹林,2017-11-28,23.986803,121.076117,1.5348309e-09
C0W200,湖西,2017-11-28,23.596314,119.67275,0.9576551
72Q010,高雄農改場,2017-11-28,22.709333,120.525889,6.104513e-08
C0SA40,瑞和,2017-11-28,22.974361,121.156697,3.5442728e-08
C0C680,龜山,2017-11-28,25.02846,121.38656,1.2111953e-07
C2V260,月眉,2017-11-28,22.971003,120.539853,7.3719746e-09
C0V450,鳳森,2017-11-28,22.545064,120.392592,9.877674e-08
C0U720,南山,2017-11-28,24.43742,121.38167,1.194371e-08
A2N290,臺南蘭花園區,2017-11-28,23.340258,120.379661,0.9998007
C0R560,新園,2017-11-28,22.5434,120.461558,7.7430474e-07
C0U890,三星,2017-11-28,24.66812,121.65302,1.4646863e-08
C1V300,御油山,2017-11-28,23.001983,120.715364,3.5270136e-09
C0U600,礁溪,2017-11-28,24.817539,121.765608,3.6335443e-08
C1T980,龍澗,2017-11-28,24.023289,121.411328,2.0713424e-08
C0D670,海天一線,2017-11-28,24.831986,120.914438,0.98212135
C0SA00,歷坵,2017-11-28,22.520969,120.89185,3.8598222e-07
C0M710,東石,2017-11-28,23.458927,120.15385,0.9996446
C0M780,鹿草,2017-11-28,23.41134,120.30835,0.99961644
C0U520,雙連埤,2017-11-28,24.753033,121.641303,1.1912473e-08
C0B010,七堵,2017-11-28,25.094819,121.71713,4.9165696e-08
C0R480,長治,2017-11-28,22.693128,120.542622,1.749502e-07
C1V830,國三S383K,2017-11-28,22.781967,120.426475,6.4188e-09
12Q980,恆春工作站,2017-11-28,22.079678,120.714425,0.053115208
C1O940,東山服務區,2017-11-28,23.286016,120.398472,0.9987621
C1U840,東澳嶺,2017-11-28,24.5378,121.8485,1.2845444e-08
C1D630,飛鳳山,2017-11-28,24.766464,121.119178,8.6053944e-08
C0S940,石寧山,2017-11-28,23.223772,121.406639,4.25375e-09
C0K410,北港,2017-11-28,23.573957,120.292802,0.99985087
C2M620,瑞里,2017-11-28,23.545133,120.675197,4.0172576e-09
C0SB70,小港漁港,2017-11-28,23.158558,121.400431,1.5398201e-06
C2O950,安南,2017-11-28,23.076694,120.144861,0.99947125
C0F0E0,南湖圈谷,2017-11-28,24.363714,121.444667,3.2456466e-08
467610,成功,2017-11-28,23.097486,121.373428,0.2290726
C0G890,伸港,2017-11-28,24.148933,120.484403,0.6679404
C2E540,龍溪,2017-11-28,24.606489,120.783933,0.28192118
C1V200,梅山,2017-11-28,23.268447,120.823556,2.3917008e-09
C0T9H0,加路蘭山,2017-11-28,23.682947,121.5274,4.201819e-09
C2O930,玉井,2017-11-28,23.126042,120.46055,0.0021037222
C1F911,新伯公,2017-11-28,24.221361,120.841069,3.7028196e-09
C0R490,九如,2017-11-28,22.7405,120.490503,8.183509e-08
C0X200,左鎮,2017-11-28,23.056758,120.408522,8.922094e-05
C0SB50,叭嗡嗡,2017-11-28,23.047062,121.343223,7.437367e-05
C1F891,稍來,2017-11-28,24.265689,121.001142,1.0847009e-08
72N240,七股研究中心,2017-11-28,23.081672,120.062894,0.9994928
C0C700,中壢,2017-11-28,24.977661,121.256375,3.3756987e-07
C0M690,水上,2017-11-28,23.419734,120.388909,0.9996694
C0V690,鼓山,2017-11-28,22.623325,120.275575,1.0093146e-05
C0O860,大內,2017-11-28,23.11885,120.36083,0.8570228
C0Z200,萬榮,2017-11-28,23.709219,121.420106,3.4290648e-09
C0T9D0,和中,2017-11-28,24.26676,121.74103,5.7672594e-08
C1O921,楠西,2017-11-28,23.183511,120.484083,0.00043319294
C0AJ30,淡水觀海,2017-11-28,25.184591,121.408616,2.2271433e-06
C0V810,左營,2017-11-28,22.67491,120.28491,0.53274447
C0UA70,桃源谷,2017-11-28,24.962606,121.888875,3.9558756e-08
C0X130,官田,2017-11-28,23.193217,120.315422,0.99931675
C1H000,翠峰,2017-11-28,24.109397,121.205211,8.545983e-09
C0UA90,石城,2017-11-28,24.980444,121.951214,8.3667324e-08
C1E681,南勢山,2017-11-28,24.421669,120.923831,6.2139853e-09
C0A9F0,內湖,2017-11-28,25.079422,121.57545,2.6351408e-08
C0K291,宜梧,2017-11-28,23.536281,120.169329,0.9998569
C1K540,口湖,2017-11-28,23.585344,120.180517,0.9993006
C0R780,滿州,2017-11-28,22.024403,120.839892,0.3463187
C0V870,文安,2017-11-28,22.8025,120.2164,0.9925449
C0U650,玉蘭,2017-11-28,24.675286,121.587061,1.3571634e-08
C0R640,東港,2017-11-28,22.46247,120.44074,2.346149e-08
K2E360,苗栗農改,2017-11-28,24.495722,120.829111,1.0825534e-08
C0AJ80,板橋,2017-11-28,25.0107,121.4489,1.2960626e-07
C0S660,下馬,2017-11-28,23.150427,121.070312,9.06618e-09
C1H9B1,阿眉,2017-11-28,24.1263,120.994672,7.28174e-09
C0UA20,多加屯,2017-11-28,24.368614,121.373189,9.0129895e-09
C0E730,頭份,2017-11-28,24.688247,120.912206,0.9861646
72V140,高改旗南分場,2017-11-28,22.857861,120.516667,2.8437343e-08
C0K480,莿桐,2017-11-28,23.761192,120.502372,9.65186e-06
C0U980,坪林石牌,2017-11-28,24.86478,121.77396,1.6733434e-08
C0T900,西林,2017-11-28,23.8119,121.441458,2.2045403e-09
C1I150,青雲,2017-11-28,23.793361,120.949378,2.7202143e-09
467350,澎湖,2017-11-28,23.565503,119.563094,0.8702896
C0G800,埔鹽,2017-11-28,24.000394,120.431683,0.9759744
C0H960,草屯,2017-11-28,23.973672,120.68085,1.344659e-08
C1V780,多納林道,2017-11-28,22.888028,120.737917,2.7373326e-09
C0E920,通霄漁港,2017-11-28,24.498589,120.673876,0.91361606
C0Z330,安通山,2017-11-28,23.290728,121.348528,3.1434055e-09
C0AH10,永和,2017-11-28,25.01125,121.508111,1.2977658e-07
C0AK10,太平里,2017-11-28,25.134937,121.364899,0.00056405587
C2G640,鹿港,2017-11-28,24.0753,120.430481,0.95754683
C1E890,國三N149K,2017-11-28,24.463414,120.680019,0.057729658
C1R110,口社,2017-11-28,22.770111,120.645222,1.1275556e-08
C1M870,國三N285K,2017-11-28,23.550319,120.505833,2.356093e-05
467050,新屋,2017-11-28,25.006744,121.047486,0.9981146
C1E480,鳳美,2017-11-28,24.554803,121.034747,1.3200324e-08
C0M530,奮起湖,2017-11-28,23.493903,120.699253,4.2897543e-09
C0C590,觀音,2017-11-28,25.027072,121.153317,0.99962974
C0T9M0,靜浦,2017-11-28,23.455167,121.495028,4.1464e-09
C2H9M0,發祥,2017-11-28,24.154094,121.164517,6.0229275e-09
C0AI40,石牌,2017-11-28,25.115597,121.513139,4.1250726e-07
C1F871,上谷關,2017-11-28,24.203483,121.018644,3.05783e-09
C2H9G0,百勝,2017-11-28,24.051142,120.909361,3.7273016e-09
C0G880,二水,2017-11-28,23.810742,120.6173,1.1924407e-08
C0R940,加祿堂,2017-11-28,22.3363,120.6217,0.38612953
C0W220,北竿,2017-11-28,26.220358,119.974881,0.92491615
C0O960,崎頂,2017-11-28,22.959547,120.369317,8.576642e-07
C0S750,向陽,2017-11-28,23.248397,120.986133,4.6273905e-09
C0T9F0,水璉,2017-11-28,23.797131,121.542514,2.1357929e-09
C1M600,頭凍,2017-11-28,23.406364,120.603339,1.66245e-09
467660,臺東,2017-11-28,22.752211,121.154586,0.99659777
C1D380,新埔,2017-11-28,24.84745,121.03834,0.48516172
C2G980,田頭村,2017-11-28,23.8263,120.444175,0.00014119253
C0V750,路竹,2017-11-28,22.854997,120.259439,0.5517693
C0N050,蚵寮,2017-11-28,23.301,120.1104,0.9997584
72M700,南改鹿草分場,2017-11-28,23.416869,120.283061,0.99964917
C1SA50,利嘉林道,2017-11-28,22.82325,121.009389,1.2600499e-08
467550,玉山,2017-11-28,23.487614,120.959522,1.7871523e-08
C0A940,金山,2017-11-28,25.223628,121.643967,3.6944061e-06
C1V340,大津,2017-11-28,22.888322,120.645986,4.48759e-08
C0W180,七美,2017-11-28,23.219333,119.444892,0.96509296
C1F9C1,白冷,2017-11-28,24.182844,120.929889,2.8248552e-09
K2E710,苗改生物防治研究中心,2017-11-28,24.422861,120.871833,2.3576363e-09
C0N040,蘆竹溝,2017-11-28,23.2344,120.0961,0.999668
C2W230,畜試所澎湖,2017-11-28,23.628342,119.513206,0.9417137
C0R880,後壁湖,2017-11-28,21.9457,120.7457,0.5520097
C1I280,埔中,2017-11-28,23.820778,120.642594,1.9612525e-09
467790,墾丁雷達站,2017-11-28,21.948235,120.808028,0.65591997
C0W190,望安,2017-11-28,23.380564,119.494075,0.95094585
466881,新北,2017-11-28,24.9593,121.52,1.1116915e-07
C0Z170,卓溪,2017-11-28,23.3443,121.3029,3.1206868e-09
C0F850,東勢,2017-11-28,24.246428,120.833047,1.996196e-09
466900,淡水,2017-11-28,25.164889,121.448906,0.00056405587
C0I370,魚池,2017-11-28,23.895703,120.94135,2.0419215e-09
C0C630,大溪,2017-11-28,24.882853,121.265547,4.215201e-06
C0A520,山佳,2017-11-28,24.974944,121.402008,1.7272886e-07
C0I110,竹山,2017-11-28,23.761225,120.688156,4.211905e-09
82H840,茶改南部分場,2017-11-28,23.762528,120.7405,2.0341626e-09
C0G660,溪湖,2017-11-28,23.94835,120.479122,8.801661e-07
C1T800,洛韶,2017-11-28,24.204558,121.453956,1.3407713e-08
C1T810,慈恩,2017-11-28,24.192044,121.388386,7.2556343e-09
C1E451,象鼻,2017-11-28,24.368617,120.940228,3.1877652e-09
C0AC60,三峽,2017-11-28,24.939025,121.369728,3.5796143e-05
C0I490,萬大林道,2017-11-28,23.928228,121.091411,2.0425175e-09
C1I290,豐丘,2017-11-28,23.668178,120.887417,4.250449e-09
C1I320,奧萬大,2017-11-28,23.952956,121.178556,1.2639343e-09
C2M910,嘉義大學,2017-11-28,23.471325,120.485903,0.9760985
C0U770,南澳,2017-11-28,24.44935,121.81022,9.178124e-09
C0A980,社子,2017-11-28,25.109508,121.469681,0.0017405916
C0V800,六龜,2017-11-28,22.997889,120.633583,4.646778e-09
C1G9D0,國一S218K,2017-11-28,23.890641,120.493253,7.2680514e-06
C0E570,白沙屯,2017-11-28,24.549447,120.696803,0.9494147
C2F9A0,中竹林,2017-11-28,24.103556,120.751061,2.621029e-09
C0FA40,臺中電廠,2017-11-28,24.2146,120.4907,0.87880033
C2G9A0,畜試所彰化,2017-11-28,23.86045,120.557964,4.471085e-06
C0H9C0,合歡山,2017-11-28,24.143442,121.272547,2.121543e-08
C0X060,下營,2017-11-28,23.22695,120.256261,0.99987614
G2M350,農試溪口農場,2017-11-28,23.58565,120.408111,0.99822396
C0U860,頭城,2017-11-28,24.85323,121.8308,3.75977e-08
C0R580,南州,2017-11-28,22.48591,120.50274,2.346149e-08
C0D430,峨眉,2017-11-28,24.6905,121.017189,8.726891e-06
C0G780,秀水,2017-11-28,24.03405,120.503869,1.7248475e-07
72N100,臺南農改場,2017-11-28,23.0605,120.342194,0.78558016
C0S900,蘭嶼高中,2017-11-28,22.04909,121.51214,0.21445821
467540,大武,2017-11-28,22.355675,120.903789,0.9711227
C1F9W0,德基,2017-11-28,24.254783,121.190261,9.181661e-09
C1Z120,壽豐,2017-11-28,23.870853,121.508081,7.055228e-09
C0W160,烏坵,2017-11-28,24.9944,119.44956,0.98534256
C1I240,外大坪,2017-11-28,23.958697,120.917931,1.0176358e-09
C1I550,國六W023K,2017-11-28,23.979067,120.867742,2.007655e-09
C0R870,興海,2017-11-28,21.9752,120.8439,0.7402763
C0R140,瑪家,2017-11-28,22.682903,120.686639,2.9757816e-09
C0A530,坪林,2017-11-28,24.938183,121.70975,3.05922e-08
C0X260,後壁,2017-11-28,23.366358,120.362326,0.9998007
C0Z230,和平,2017-11-28,24.30717,121.77007,6.064301e-08
C0G770,福興,2017-11-28,24.041289,120.437669,0.9759744
C0H9A0,神木村,2017-11-28,23.532742,120.843667,3.4202663e-09
C0I460,南投,2017-11-28,23.911469,120.687331,2.0430367e-08
C0I480,梅峰,2017-11-28,24.085272,121.173572,5.639152e-09
C1V570,吉東,2017-11-28,22.85422,120.5454,1.8386498e-08
C2D740,屯原,2017-11-28,24.067969,121.209389,4.9445075e-09
C2A560,福山,2017-11-28,24.776203,121.502811,6.5933044e-08
C0AH30,五分山,2017-11-28,25.07125,121.780794,3.638281e-08
C0FA10,松柏,2017-11-28,24.429115,120.617482,0.53446424
72S200,東改班鳩分場,2017-11-28,22.829528,121.077694,0.0022072615
72HA00,中改埔里分場,2017-11-28,23.903208,120.963364,2.297257e-09
C2H9W0,大坪頂農水,2017-11-28,24.043122,120.932781,4.373394e-09
C0C650,平鎮,2017-11-28,24.897503,121.214636,1.1873648e-06
C0S930,延平,2017-11-28,22.902581,121.084058,4.8876973e-07
C0UA60,樟樹山,2017-11-28,24.41393,121.78325,5.6150244e-09
C1S670,摩天,2017-11-28,23.199503,121.027,1.525632e-08
C0V630,茄萣,2017-11-28,22.906642,120.182608,0.82623553
466940,基隆,2017-11-28,25.133314,121.740475,5.6400342e-05
C0X050,東河,2017-11-28,23.296598,120.385608,0.99923277
C0R770,保力,2017-11-28,22.071122,120.764111,0.07699724
G2L020,農試嘉義分所,2017-11-28,23.485028,120.473806,0.83734405
C0X240,關子嶺,2017-11-28,23.331169,120.508025,2.9559033e-09
C0I380,集集,2017-11-28,23.828206,120.801467,2.7496874e-09
466990,花蓮,2017-11-28,23.975128,121.613275,2.1623222e-08
C1V220,小關山,2017-11-28,23.154217,120.813603,3.1137186e-09
C1F9G1,慶福山,2017-11-28,24.180853,120.848378,3.642987e-09
C0Z250,瑞穗林道,2017-11-28,23.49284,121.30688,3.506477e-08
C0D590,新豐,2017-11-28,24.87068,120.97721,0.996269
C0A870,五指山,2017-11-28,25.132153,121.608692,1.3759298e-08
C0UA50,西帽山,2017-11-28,24.555361,121.802628,2.1207823e-08
C0X160,仁德,2017-11-28,22.968258,120.257689,0.99068135
C1H971,六分寮,2017-11-28,23.92507,120.6378,1.0843674e-09
C0W120,西嶼,2017-11-28,23.5626,119.468436,0.9138463
C0G650,員林,2017-11-28,23.946503,120.585597,2.494105e-07
C0AD50,鶯歌,2017-11-28,24.951533,121.346294,1.5191476e-05
C2H9Q0,北東眼山,2017-11-28,24.120939,121.189303,9.336753e-09
C2H9T0,名間竹圍,2017-11-28,23.859914,120.637572,1.7027505e-09
C0S990,山豬窟,2017-11-28,22.318619,120.857372,0.94838315
72Q010,高雄農改,2017-11-28,22.709333,120.525889,6.104513e-08
C0X190,安平,2017-11-28,22.993161,120.152181,0.9954927
C0K400,斗六,2017-11-28,23.720583,120.541127,0.0002550147
12J990,口湖工作站,2017-11-28,23.589978,120.180394,0.9993006
C0O830,北寮,2017-11-28,23.079561,120.495008,6.76675e-09
C1D410,白蘭,2017-11-28,24.579364,121.079947,9.771516e-09
C0S970,加津林,2017-11-28,22.416211,120.926942,0.9776358
C0D700,關西,2017-11-28,24.7977,121.1732,8.85352e-07
C0M810,里佳,2017-11-28,23.389125,120.716647,2.080218e-09
C0U750,龜山島,2017-11-28,24.841667,121.953133,1.674156e-05
C0R810,內獅,2017-11-28,22.305064,120.642986,0.28876224
C1M390,龍美,2017-11-28,23.406728,120.654417,1.7391548e-09
C2FB60,頭櫃山,2017-11-28,24.129842,120.858925,4.062062e-09
C1H840,國三N238K,2017-11-28,23.841008,120.707711,1.896692e-09
CAQ030,崎峰國小,2017-11-28,22.42565,120.49521,2.346149e-08
C2E520,大湖,2017-11-28,24.414939,120.870872,2.2896411e-09
467530,阿里山,2017-11-28,23.508208,120.813242,7.836852e-09
C1E691,南湖,2017-11-28,24.40135,120.837533,6.925435e-09
C0FA30,梧棲,2017-11-28,24.256003,120.523381,0.26365617
C1V231,高中,2017-11-28,23.134911,120.716711,3.0525271e-09
C0F9V0,新社,2017-11-28,24.200172,120.815806,3.1031238e-09
C0H890,埔里,2017-11-28,23.972169,120.952425,1.7745834e-09
C0R690,墾丁,2017-11-28,21.966756,120.810269,0.27364653
C0F0D0,審馬陣,2017-11-28,24.381675,121.4203,1.3481232e-08
C0R820,白鷺,2017-11-28,22.454275,120.666219,1.0059781e-06
U2H480,臺大溪頭,2017-11-28,23.670306,120.798194,4.123945e-09
C1V190,南天池,2017-11-28,23.27403,120.91176,4.8226405e-09
K2E360,苗栗農改場,2017-11-28,24.495722,120.829111,1.0825555e-08
CAJ050,海口故事園區,2017-11-28,23.57543,120.14121,0.9993006
C2H9D0,三隻寮,2017-11-28,24.093078,120.861578,4.2864583e-09
C0O990,媽廟,2017-11-28,22.99175,120.293525,0.85392076
C0D480,打鐵坑,2017-11-28,24.849664,121.150789,1.857136e-06
C0Z220,和平林道,2017-11-28,24.343922,121.656317,3.0803085e-09
C0TA10,花蓮漁港,2017-11-28,23.995322,121.638331,2.5558009e-08
72C440,桃園農改場,2017-11-28,24.950944,121.030583,0.97483367
C1E711,馬拉邦山,2017-11-28,24.367306,120.901656,3.2334535e-09
C0SB20,富岡,2017-11-28,22.792467,121.192669,0.99419975
C0D560,竹東,2017-11-28,24.767147,121.057881,1.224794e-06
C0F9U0,南屯,2017-11-28,24.137006,120.637969,1.1226182e-07
C0M720,番路,2017-11-28,23.464657,120.554156,4.6683475e-05
C0F0A0,雪山圈谷,2017-11-28,24.388594,121.236339,2.0260861e-08
C1A9N0,四十份,2017-11-28,24.934158,121.593283,7.8893464e-08
C0U760,東澳,2017-11-28,24.52196,121.83318,1.0626117e-08
C0X230,鹽水,2017-11-28,23.272621,120.247641,0.9997442
C2H9H0,苗改南投蜂場,2017-11-28,23.852589,120.693481,1.0006122e-08
C0R950,萬隆國小,2017-11-28,22.507667,120.587817,6.337273e-07
C0V370,古亭坑,2017-11-28,22.893178,120.401947,5.1087778e-08
C1I340,新興橋,2017-11-28,23.563333,120.868728,5.3269065e-09
C0SA80,土坂,2017-11-28,22.453108,120.887572,0.95051
C0R160,鹽埔,2017-11-28,22.739558,120.530778,6.104513e-08
C0AC40,大屯山,2017-11-28,25.175675,121.522408,3.826028e-08
466850,五分山雷達站,2017-11-28,25.071182,121.781205,3.5961268e-08
C2H9L0,馬烈霸,2017-11-28,24.1512,121.201772,9.255633e-09
C1AI50,國三N016K,2017-11-28,25.034164,121.619664,2.2428098e-08
C1V600,藤枝,2017-11-28,23.071961,120.757042,2.823724e-09
C1E601,南勢,2017-11-28,24.572486,120.734842,0.9701255
C0Z180,新城,2017-11-28,24.03946,121.60454,2.014453e-08
C0O980,新市,2017-11-28,23.061614,120.298197,0.9358931
C0K420,西螺,2017-11-28,23.800407,120.467394,8.204285e-05
C0Z050,佳心,2017-11-28,23.34567,121.21316,1.1006588e-08
C0AD30,蘆洲,2017-11-28,25.086594,121.472331,2.8357883e-08
C0V610,梓官,2017-11-28,22.760558,120.267211,0.004307806
K2F750,種苗改良場,2017-11-28,24.225972,120.800917,3.3473315e-09
C0UA80,大溪漁港,2017-11-28,24.941801,121.902955,9.300514e-08
C1AI60,國一39K邊坡,2017-11-28,25.064361,121.383836,1.5317106e-07
C0W150,金寧,2017-11-28,24.457703,118.328989,0.9996098
C0R960,內埔,2017-11-28,22.608483,120.570714,1.7900386e-06
V2C250,八德合作社,2017-11-28,24.93775,121.266389,2.794725e-06
C2H9S0,龍南,2017-11-28,23.953536,120.833183,2.6636349e-09
C0AH40,平等,2017-11-28,25.129142,121.577086,1.5832175e-08
C0R540,佳冬,2017-11-28,22.419456,120.552375,0.43771988
466950,彭佳嶼,2017-11-28,25.627975,122.079744,0.99017227
C0A890,雙溪,2017-11-28,25.036003,121.864242,2.328458e-07
C0C480,桃園,2017-11-28,24.992425,121.323172,4.737485e-07
C0AH50,林口,2017-11-28,25.072181,121.38084,1.0417155e-07
A2K360,水試臺西試驗場,2017-11-28,23.717231,120.190522,0.9997047
B2N890,畜試所,2017-11-28,23.058972,120.336406,0.78558016
C2M960,外寮,2017-11-28,23.562643,120.665688,4.9085465e-09
C0F9S0,烏日,2017-11-28,24.107058,120.624103,2.5455359e-08
C0C490,八德,2017-11-28,24.928708,121.283289,2.6919654e-06
C0R190,赤山,2017-11-28,22.592333,120.614306,1.1649055e-06
C0T820,天祥,2017-11-28,24.179597,121.495639,4.2837712e-08
C1F9E1,龍安,2017-11-28,24.1605,120.831961,2.7590017e-09
C0V820,小林,2017-11-28,23.148408,120.63325,2.1395725e-09
C2G870,芳苑,2017-11-28,23.922303,120.320025,0.9988103
C0E850,大河,2017-11-28,24.618069,120.948578,1.4299854e-07
C1U670,寒溪,2017-11-28,24.634,121.71691,6.2184196e-09
C0N020,城西,2017-11-28,23.0568,120.0956,0.9957241
C1Z110,三棧,2017-11-28,24.11557,121.60501,2.808862e-08
C0R280,檳榔,2017-11-28,22.076078,120.836777,0.64406383
C2H9J0,中台,2017-11-28,23.9996,120.938739,2.8644462e-09
C0F9L0,后里,2017-11-28,24.310436,120.729725,3.012054e-09
C0D540,橫山,2017-11-28,24.71116,121.11693,9.3309154e-08
C1D420,太閣南,2017-11-28,24.632808,121.160575,2.509089e-08
C1E770,公館,2017-11-28,24.526914,120.830806,1.2949871e-08
CAN130,水試所海水繁養殖中心,2017-11-28,23.120802,120.07968,0.9994928
C1I430,翠華,2017-11-28,24.191961,121.224339,8.8761505e-09
C1M400,菜瓜坪,2017-11-28,23.251928,120.576103,4.913071e-09
C0G730,二林,2017-11-28,23.903325,120.376081,0.98702586
72M360,南改義竹分場,2017-11-28,23.360694,120.279361,0.9997917
V2K620,麥寮合作社,2017-11-28,23.753836,120.294783,0.99893725
C0Z070,舞鶴,2017-11-28,23.46811,121.37407,2.7821794e-09
C0B040,大武崙,2017-11-28,25.166676,121.706993,1.449268e-05
C1Z030,紅葉,2017-11-28,23.493119,121.338806,2.2028421e-09
C1I050,丹大,2017-11-28,23.753747,121.141147,5.805321e-09
C0I080,信義,2017-11-28,23.689694,120.851036,6.562413e-09
C2M920,朴子農改,2017-11-28,23.469889,120.259383,0.99964917
C2A880,福隆,2017-11-28,25.017842,121.942083,8.497728e-08
C0Z160,鳳林,2017-11-28,23.746114,121.453411,3.6558503e-09
C0V210,復興,2017-11-28,23.222403,120.806089,3.5930672e-09
C0H990,昆陽,2017-11-28,24.121322,121.273642,1.619032e-08
C0R741,獅子,2017-11-28,22.202308,120.705236,0.2940068
C0S710,鹿野,2017-11-28,22.917711,121.122994,5.769721e-09
C0I530,小奇萊,2017-11-28,24.131764,121.295717,1.6953626e-08
C2K630,荷苞,2017-11-28,23.657717,120.595144,7.771301e-08
C0Z080,富源,2017-11-28,23.587642,121.378225,5.3871494e-09
467441,高雄,2017-11-28,22.7304,120.3125,0.001970706
C0SB10,美和,2017-11-28,22.682078,121.060236,2.0862362e-05
C2K620,馬光農場,2017-11-28,23.721453,120.378864,0.98066837
C1I140,卡奈托灣,2017-11-28,23.754364,121.087872,1.2107102e-09
C0I520,玉山風口,2017-11-28,23.470489,120.955994,1.9474315e-08
C1G691,下水埔,2017-11-28,23.816114,120.5676,3.8158905e-06
C0X110,臺南市南區,2017-11-28,22.961189,120.188378,0.990696
C0V680,仁武,2017-11-28,22.701083,120.347722,0.53274447
C2G840,北斗,2017-11-28,23.877586,120.514222,4.6169203e-06
C0R900,竹坑,2017-11-28,22.1385,120.7022,0.053853523
C0K250,崙背,2017-11-28,23.75555,120.318925,0.9989529
C0G860,社頭,2017-11-28,23.897647,120.5862,6.7024766e-06
C0X150,安定,2017-11-28,23.102614,120.227839,0.9996788
C0R590,里港,2017-11-28,22.77919,120.49459,3.6537543e-08
C0E610,馬都安,2017-11-28,24.451272,120.930192,6.6239316e-09
C0E550,明德,2017-11-28,24.583486,120.885411,6.056782e-07
C0R150,三地門,2017-11-28,22.709889,120.639944,1.2523969e-08
C0G910,花壇,2017-11-28,24.032076,120.549461,1.15401015e-07
C1D400,鳥嘴山,2017-11-28,24.71909,121.28387,5.9133235e-08
C0K500,元長,2017-11-28,23.64981,120.315024,0.9997135
C0F0B0,石岡,2017-11-28,24.276061,120.777644,2.5942608e-09
C2V250,甲仙,2017-11-28,23.080106,120.591758,1.8183304e-09
C0SA20,金崙山,2017-11-28,22.567419,120.959667,1.337678e-08
C0V350,溪埔,2017-11-28,22.738578,120.446797,8.188349e-08
C0M660,溪口,2017-11-28,23.604131,120.403569,0.99822396
C1S880,壽卡,2017-11-28,22.238911,120.858903,0.99387395
72D680,桃改新埔分場,2017-11-28,24.834444,121.066111,0.51395315
