站號,站名,日期,lat,lon,BlastGRU-TW
466881,新北,2018-12-11,24.9593,121.52,0.03692045
466900,淡水,2018-12-11,25.164889,121.448906,0.0007041825
466920,臺北,2018-12-11,25.037658,121.514853,0.030233582
467350,澎湖,2018-12-11,23.565503,119.563094,0.005657043
467410,臺南,2018-12-11,22.993239,120.204772,0.55372494
467420,永康,2018-12-11,23.038386,120.2367,0.5612826
467790,墾丁雷達站,2018-12-11,21.948235,120.808028,0.020132037
C0A520,山佳,2018-12-11,24.974944,121.402008,0.0058808485
C0A530,坪林,2018-12-11,24.938183,121.70975,0.039086662
C0A880,福隆,2018-12-11,25.017842,121.942083,0.5031675
C0A890,雙溪,2018-12-11,25.036003,121.864242,0.00072581146
C0A920,富貴角,2018-12-11,25.263783,121.565258,0.000392423
C0AC80,文山,2018-12-11,25.00235,121.575728,0.049955856
C0ACA0,新莊,2018-12-11,25.051478,121.446756,0.0011191394
C0AD00,三芝,2018-12-11,25.258131,121.501917,0.0002590975
C0AH70,松山,2018-12-11,25.04871,121.55042,0.030233582
C0AH80,深坑,2018-12-11,25.002703,121.628328,0.049955856
C0AI00,五股,2018-12-11,25.07445,121.42728,0.00031772317
C0AJ70,田寮,2018-12-11,25.2698,121.4886,0.00033377003
