站號,站名,日期,lat,lon,BlastGRU-TW
466881,新北,2018-10-22,24.9593,121.52,0.5336215
466900,淡水,2018-10-22,25.164889,121.448906,0.59810126
466920,臺北,2018-10-22,25.037658,121.514853,0.5750749
467441,高雄,2018-10-22,22.7304,120.3125,0.9112012
467480,嘉義,2018-10-22,23.495925,120.432906,0.77708876
467490,臺中,2018-10-22,24.145736,120.684075,0.5933348
C0A530,坪林,2018-10-22,24.938183,121.70975,0.17395404
C0A540,四堵,2018-10-22,24.8926,121.745736,0.17673647
C0A550,泰平,2018-10-22,24.971197,121.823711,0.021898827
C0A890,雙溪,2018-10-22,25.036003,121.864242,0.6977268
C0A920,富貴角,2018-10-22,25.263783,121.565258,0.18308221
C0A931,三和,2018-10-22,25.233153,121.595236,0.27237839
C0AC70,信義,2018-10-22,25.037822,121.564597,0.5750749
C0AC80,文山,2018-10-22,25.00235,121.575728,0.47101536
C0ACA0,新莊,2018-10-22,25.051478,121.446756,0.6453013
C0AH50,林口,2018-10-22,25.072181,121.38084,0.37086138
C0AH70,松山,2018-10-22,25.04871,121.55042,0.5750749
C0AH80,深坑,2018-10-22,25.002703,121.628328,0.47101536
C0AJ60,六塊厝,2018-10-22,25.24,121.4481,0.6268091
C0AJ70,田寮,2018-10-22,25.2698,121.4886,0.53769994
