站號,站名,日期,lat,lon,BLBTSLS
C0R710,龍磐,2018-01-21,21.931672,120.838942,0.9993403
C1F9D1,白毛台,2018-01-21,24.158325,120.886933,2.1451174e-09
C0G940,竹塘,2018-01-21,23.848253,120.386764,1.6741005e-06
467590,恆春,2018-01-21,22.003897,120.746339,0.99998003
C1O850,環湖,2018-01-21,23.148617,120.418633,1.6885588e-09
C0U710,太平山,2018-01-21,24.505486,121.525656,1.9818643e-08
C0E820,獅潭,2018-01-21,24.539133,120.920042,7.223709e-09
C0V880,興達,2018-01-21,22.8778,120.2127,3.0641465e-07
C0S890,關山,2018-01-21,23.0395,121.175017,1.1221339e-08
C0SB30,新蘭,2018-01-21,22.869214,121.223228,6.924857e-08
C2R970,屏科大,2018-01-21,22.648275,120.619247,2.715502e-09
K2F750,種苗繁殖,2018-01-21,24.225972,120.800917,2.4306253e-09
C1Z130,銅門,2018-01-21,23.965694,121.492842,5.391089e-08
C0AD40,土城,2018-01-21,24.973208,121.445169,4.2396415e-08
CAN140,六官養殖協會,2018-01-21,23.22881,120.29962,1.6413981e-06
C0X180,山上,2018-01-21,23.0757,120.363253,3.3357064e-09
C0F9Z0,雪山東峰,2018-01-21,24.388792,121.268675,4.002254e-08
C1M480,獨立山,2018-01-21,23.537022,120.607797,3.7729504e-09
C0X220,學甲,2018-01-21,23.230367,120.182187,1.0417757e-06
467650,日月潭,2018-01-21,23.881325,120.90805,4.572311e-09
C0K600,箔子寮,2018-01-21,23.6197,120.14,0.0002208705
C0G830,埤頭,2018-01-21,23.866003,120.452806,3.8006586e-08
C0S950,七塊厝,2018-01-21,22.954453,121.229922,1.6265876e-08
467110,金門,2018-01-21,24.407306,118.289281,5.337914e-08
C0AH80,深坑,2018-01-21,25.002703,121.628328,3.4708112e-08
467990,馬祖,2018-01-21,26.169269,119.923419,4.93345e-08
C0A970,三貂角,2018-01-21,25.007606,122.002058,3.2221095e-07
C2D730,寶山農場,2018-01-21,24.732444,120.976153,1.7289361e-06
C0K430,褒忠,2018-01-21,23.690938,120.303634,1.6223402e-06
467480,嘉義,2018-01-21,23.495925,120.432906,8.152942e-08
C2E540,後龍,2018-01-21,24.606489,120.783933,4.1914222e-06
C0V400,阿公店,2018-01-21,22.804194,120.355528,5.1207456e-09
C0R440,大漢山,2018-01-21,22.405264,120.753181,3.4469753e-08
C0K280,四湖,2018-01-21,23.630414,120.227125,0.0013298949
C1F9B1,桐林,2018-01-21,24.066172,120.735194,2.0275737e-09
C2H9U0,鳳鵬,2018-01-21,23.763919,120.788061,1.952485e-09
C0K390,土庫,2018-01-21,23.679029,120.395574,1.4964283e-07
C1I450,望鄉山,2018-01-21,23.594153,120.944286,2.2873769e-08
C0E910,海埔,2018-01-21,24.648767,120.772435,3.9554493e-06
B2E890,畜試北區分所,2018-01-21,24.527806,120.770972,1.6407808e-08
C0R750,四林格山,2018-01-21,22.076989,120.802439,2.3274634e-07
C0F0C0,中坑,2018-01-21,24.248517,120.903319,3.2858707e-09
C1I121,大鞍,2018-01-21,23.678381,120.760017,8.086653e-09
72U480,花改蘭陽分場,2018-01-21,24.686306,121.716583,3.1605214e-09
C0A770,科教館,2018-01-21,25.096356,121.516507,5.7666627e-09
C0AJ60,六塊厝,2018-01-21,25.24,121.4481,0.0045540724
C0R620,墾雷,2018-01-21,21.900836,120.855269,0.17474492
467420,永康,2018-01-21,23.038386,120.2367,1.7965017e-07
467300,東吉島,2018-01-21,23.25695,119.667467,0.9999367
C0I410,名間,2018-01-21,23.837053,120.701447,1.3088677e-09
A2C560,農工中心,2018-01-21,24.985917,121.239833,3.6288907e-07
C0V740,旗山,2018-01-21,22.888614,120.483597,2.475107e-09
C0Z061,玉里,2018-01-21,23.3215,121.339656,3.4456127e-09
C0S840,南田,2018-01-21,22.279725,120.889208,0.9999658
C1I470,杉林溪,2018-01-21,23.639517,120.786444,1.0006218e-08
C1X040,東原,2018-01-21,23.291597,120.463822,1.1235213e-09
C0R660,枋寮,2018-01-21,22.367722,120.590647,4.147862e-05
C1R120,上德文,2018-01-21,22.763272,120.704442,5.3642846e-09
C0K450,大埤,2018-01-21,23.646074,120.431537,2.0619018e-08
C0UA00,土場,2018-01-21,24.576533,121.495333,3.180368e-09
467080,宜蘭,2018-01-21,24.763975,121.756528,4.1661554e-09
C0N030,四草,2018-01-21,23.0235,120.1116,6.406663e-07
C0V650,彌陀,2018-01-21,22.783806,120.246361,1.5347857e-07
C0D660,新竹市東區,2018-01-21,24.798681,120.986942,8.305428e-05
82S580,茶改東部分場,2018-01-21,22.907694,121.130139,5.028413e-08
C0SB40,興隆,2018-01-21,22.913661,121.257469,6.515421e-08
C0C710,大溪永福,2018-01-21,24.892936,121.324975,4.7502656e-08
C0FA20,溫寮,2018-01-21,24.372177,120.583125,1.9540284e-06
C0V640,湖內,2018-01-21,22.887139,120.2445,2.8873635e-07
C0R910,下寮,2018-01-21,22.3929,120.5548,4.147862e-05
C0Z020,明里,2018-01-21,23.208717,121.262342,3.3397871e-09
C0M770,嘉義梅山,2018-01-21,23.585398,120.555587,2.174597e-09
G2F820,農業試驗所,2018-01-21,24.031261,120.688133,2.4883797e-09
C0C660,楊梅,2018-01-21,24.912375,121.143047,2.4496487e-07
C1E511,新開,2018-01-21,24.347703,120.827019,5.68595e-09
G2F820,農試所(霧峰),2018-01-21,24.031261,120.688133,2.4883797e-09
C1I070,和社,2018-01-21,23.591131,120.888861,2.0872089e-09
C2F000,大肚,2018-01-21,24.15295,120.572117,4.7049613e-09
C1S850,豐南,2018-01-21,23.122139,121.262389,7.0465136e-09
C2A920,富貴角,2018-01-21,25.263783,121.565258,7.884067e-05
CAH030,茶改場竹圍站,2018-01-21,23.860083,120.637528,1.3940665e-09
C0T960,光復,2018-01-21,23.660694,121.424964,4.884435e-08
C0F9M0,豐原,2018-01-21,24.254322,120.720692,7.54707e-09
C0R720,旭海,2018-01-21,22.205403,120.887614,0.12569022
C0V710,苓雅,2018-01-21,22.622742,120.330669,8.456188e-09
C0C740,觀音工業區,2018-01-21,25.064764,121.114856,0.011555235
CAC040,拉拉山,2018-01-21,24.699317,121.427133,1.7858948e-08
C0V790,萬山,2018-01-21,22.905944,120.688056,6.409001e-09
U2HA30,臺大和社,2018-01-21,23.590856,120.888864,2.0872089e-09
C0AJ90,澳底,2018-01-21,25.0552,121.9253,2.2151004e-05
C0Z100,東華,2018-01-21,23.89525,121.549833,1.810144e-08
C0G970,三豐,2018-01-21,23.882,120.2895,0.0015264192
V2K610,大庄合作社,2018-01-21,23.8068,120.367939,1.179927e-06
C0V900,汕尾,2018-01-21,22.4782,120.4151,1.1430114e-09
C1R630,龍泉,2018-01-21,22.66701,120.59091,2.624666e-09
C1AC50,關渡,2018-01-21,25.133486,121.469331,9.092676e-09
C0F9I0,神岡,2018-01-21,24.272481,120.658314,1.0550545e-08
C0K460,斗南,2018-01-21,23.678734,120.478359,1.9952227e-08
467410,臺南,2018-01-21,22.993239,120.204772,5.216366e-07
C2O810,曾文,2018-01-21,23.219681,120.497328,1.0566006e-09
467280,後龍,2018-01-21,24.648563,120.831834,3.3482258e-06
C1F9J1,清水林,2018-01-21,24.071242,120.820419,2.9669405e-09
C2A650,火燒寮,2018-01-21,25.002719,121.742892,1.5205069e-07
466930,竹子湖,2018-01-21,25.162078,121.544547,1.2492072e-08
C1I220,樟湖,2018-01-21,23.905333,120.846983,7.394676e-09
C0I390,仁愛,2018-01-21,24.022122,121.132206,4.4191943e-09
C0Z300,東里,2018-01-21,23.26853,121.30547,3.11729e-09
C1V590,新發,2018-01-21,23.057019,120.646064,6.152858e-09
C0K510,水林,2018-01-21,23.572924,120.24597,7.198588e-06
72S590,東改賓朗果園,2018-01-21,22.813889,121.071278,1.024766e-06
82A750,茶改北部分場,2018-01-21,24.955778,121.631222,7.681302e-09
C1A750,石碇服務區,2018-01-21,25.00872,121.646242,1.1728928e-08
C0X300,鹿寮,2018-01-21,23.386047,120.477331,3.2578942e-09
G2AI50,關渡,2018-01-21,25.11575,121.492,2.5941245e-07
C0K590,雲林東勢,2018-01-21,23.674192,120.255721,2.7070464e-06
C0A570,桶後,2018-01-21,24.848222,121.597992,5.0534474e-09
C1S800,華源,2018-01-21,22.657883,121.02325,2.6504936e-09
C0G720,溪州,2018-01-21,23.851589,120.499093,3.770161e-08
C1V160,達卡努瓦,2018-01-21,23.279811,120.705319,9.085273e-09
C2M410,馬頭山,2018-01-21,23.324361,120.582017,1.3208956e-09
C0V850,蚵仔寮,2018-01-21,22.7256,120.2527,1.2527337e-08
C0S740,池上,2018-01-21,23.119628,121.209469,3.109748e-09
C1V390,尖山,2018-01-21,22.813153,120.367789,4.8828954e-09
C0AH70,松山,2018-01-21,25.04871,121.55042,5.8238756e-09
C0N010,鯤鯓國小,2018-01-21,23.1879,120.0889,7.611097e-07
C0R550,新埤,2018-01-21,22.467947,120.582894,1.1299642e-09
C0SA60,知本（水試所）,2018-01-21,22.702394,121.082761,2.0744528e-09
C0T9I0,豐濱,2018-01-21,23.583897,121.514806,6.6829924e-09
C0UB00,淡江大學蘭陽校園,2018-01-21,24.823239,121.730383,5.5643294e-09
C0W240,九宮,2018-01-21,24.423753,118.240186,5.3979623e-08
C0T9N0,富里,2018-01-21,23.171639,121.249378,3.4749892e-09
U2HA50,臺大竹山,2018-01-21,23.756972,120.681556,1.2742193e-09
C0V840,鳳鼻頭,2018-01-21,22.5083,120.3591,3.5231946e-09
C0X140,西港,2018-01-21,23.125608,120.203108,5.3842757e-07
72D080,桃改五峰分場,2018-01-21,24.612194,121.157167,7.0869497e-09
C2H9P0,伊拿谷,2018-01-21,23.963211,121.088264,5.121498e-09
C2H9F0,柑林,2018-01-21,24.018658,120.847072,1.7663943e-09
C0TA20,加灣,2018-01-21,24.082025,121.608944,1.4508655e-06
C0V530,阿蓮,2018-01-21,22.883208,120.327508,3.050643e-08
C1O880,關山,2018-01-21,23.173397,120.594092,1.7899827e-09
C0E791,卓蘭,2018-01-21,24.3126,120.8244,7.535362e-09
C1I030,武界,2018-01-21,23.913225,121.052483,5.388506e-09
C0R520,崁頂,2018-01-21,22.514781,120.506914,3.1035263e-09
C0R341,牡丹,2018-01-21,22.130036,120.792639,0.0012780268
C0R930,萬丹,2018-01-21,22.5885,120.4851,2.2212545e-09
C0S760,紅石,2018-01-21,23.069131,121.126219,1.900651e-08
C1M610,石磐龍,2018-01-21,23.496606,120.663506,4.5000164e-09
C0UA10,鴛鴦湖,2018-01-21,24.590269,121.412228,1.26572255e-08
V2C260,八德蔬果,2018-01-21,24.978508,121.281819,4.7645937e-08
C0R800,丹路,2018-01-21,22.204481,120.750989,0.9723876
C0G920,永靖,2018-01-21,23.924703,120.547533,2.5316636e-08
C2M950,太和,2018-01-21,23.538372,120.702961,6.2782344e-09
C1A630,下盆,2018-01-21,24.771003,121.538622,7.164391e-09
B2N890,畜產試驗所,2018-01-21,23.058972,120.336406,5.930006e-08
C0UA30,白嶺,2018-01-21,24.527819,121.519031,1.3477582e-08
C1V580,溪南(特生中心),2018-01-21,23.084972,120.788475,8.735772e-09
C1T970,大農,2018-01-21,23.615233,121.413331,6.957993e-09
E2S960,林試太麻里2,2018-01-21,22.598014,120.989761,2.5681923e-09
C0R650,竹田,2018-01-21,22.58486,120.54344,1.4128311e-09
C1H900,清流,2018-01-21,24.080775,120.962997,3.9703645e-09
C1C510,水尾,2018-01-21,24.940081,121.087161,6.6463595e-05
C0F9X0,大雅(中科園區),2018-01-21,24.21528,120.62445,1.735216e-08
C0SB60,白守蓮,2018-01-21,23.126769,121.401914,2.1590656e-09
C0O970,虎頭埤,2018-01-21,23.021375,120.347878,6.0912626e-09
C0C730,中大臨海站,2018-01-21,24.966126,121.008581,0.0005114897
C0X250,新營,2018-01-21,23.310689,120.316681,1.4534387e-06
C0V700,三民,2018-01-21,22.645017,120.311233,2.7932776e-08
C0U870,大礁溪,2018-01-21,24.791042,121.675047,6.6360335e-09
C0E870,高鐵苗栗,2018-01-21,24.60725,120.826094,3.7466234e-06
A2K570,古坑花卉中心,2018-01-21,23.63353,120.55239,1.3808086e-09
C0M860,新美,2018-01-21,23.338017,120.683169,2.327544e-09
C1E701,八卦,2018-01-21,24.491756,120.927619,6.626181e-09
C0I420,國姓,2018-01-21,24.037803,120.855072,1.8736295e-09
C2D720,關西工作站,2018-01-21,24.757275,121.184792,7.8144055e-08
C0S960,香蘭,2018-01-21,22.587569,120.993375,2.57027e-09
C0R260,春日,2018-01-21,22.370361,120.628306,1.0151296e-05
72G600,臺中農改場,2018-01-21,24.003028,120.534389,2.401768e-08
C0Z210,瑞穗,2018-01-21,23.5239,121.39021,2.8757614e-09
C0M820,達邦,2018-01-21,23.453994,120.749517,4.655649e-09
C0V860,南寮,2018-01-21,22.7616,120.2339,1.2527337e-08
C0G740,大城,2018-01-21,23.852487,120.320935,0.0011436826
C0R920,塭仔,2018-01-21,22.4169,120.5197,5.413944e-05
C0R470,高樹,2018-01-21,22.826389,120.600806,9.976451e-09
C0R680,佳樂水,2018-01-21,21.993578,120.861633,0.9999849
C1O870,大棟山,2018-01-21,23.31157,120.52226,6.7098656e-09
C0D360,梅花,2018-01-21,24.678347,121.208558,9.915783e-09
C0Z190,富世,2018-01-21,24.14743,121.6297,1.3265284e-07
C0AI10,屈尺,2018-01-21,24.92184,121.54475,2.3618908e-08
B2U990,畜試東區分所,2018-01-21,24.669039,121.832561,4.412616e-09
C0SB80,長濱漁港,2018-01-21,23.313644,121.459994,2.8640965e-09
C0R240,來義,2018-01-21,22.527306,120.625111,3.0610863e-09
C0V910,大樹,2018-01-21,22.684645,120.432803,1.53799e-09
C1R610,西大武山,2018-01-21,22.617719,120.7322,2.2181224e-08
C0G900,線西,2018-01-21,24.143358,120.443536,6.1022006e-06
C0M700,竹崎,2018-01-21,23.526178,120.555508,2.6197147e-09
C2E880,三義,2018-01-21,24.405478,120.749819,8.022054e-09
C0C720,竹圍,2018-01-21,25.112692,121.239824,2.6012916e-07
C0F9P0,清水,2018-01-21,24.312297,120.562242,2.0004805e-05
C0Z150,吉安光華,2018-01-21,23.930925,121.595153,8.815617e-08
C1D640,外坪(五指山),2018-01-21,24.644447,121.090961,3.9121435e-09
C0F9O0,潭子,2018-01-21,24.213106,120.703933,1.3318861e-08
C2H9R0,卓社,2018-01-21,23.887894,121.000086,6.732351e-09
72T250,花蓮農改場,2018-01-21,23.975222,121.563889,2.9544779e-05
C0E780,銅鑼,2018-01-21,24.489681,120.790853,1.546433e-08
C1T950,太安,2018-01-21,23.666719,121.370128,1.7728116e-08
C0E830,苑裡,2018-01-21,24.439714,120.653053,2.5876557e-06
467270,田中,2018-01-21,23.873803,120.581286,1.2774709e-08
C0SA10,檳榔四格山,2018-01-21,22.810031,121.109308,7.3564496e-07
C1T830,布洛灣,2018-01-21,24.17184,121.57127,6.9913835e-09
C0F970,大坑,2018-01-21,24.173142,120.722289,4.5039403e-09
C1U920,思源,2018-01-21,24.393125,121.347214,1.6862876e-08
C0A931,三和,2018-01-21,25.233153,121.595236,3.8272324e-07
C0I010,廬山,2018-01-21,24.033311,121.181808,7.853821e-09
C2M940,日野賀,2018-01-21,23.434056,120.727169,6.0188277e-09
C0R860,鼻頭,2018-01-21,22.1043,120.8979,0.9951652
C0UB20,壯圍,2018-01-21,24.7359,121.8163,3.0379832e-09
C0R790,九棚,2018-01-21,22.14195,120.889281,0.038697585
C0W110,東莒,2018-01-21,25.9652,119.98069,9.815715e-08
C1U930,粉鳥林,2018-01-21,24.497088,121.842479,1.27883615e-08
C1I211,蘆竹湳,2018-01-21,23.934019,120.811994,2.2511102e-09
C0S830,長濱,2018-01-21,23.286817,121.411975,4.014416e-09
C1F9F1,伯公龍,2018-01-21,24.272392,120.849047,2.3125912e-09
C0E810,西湖,2018-01-21,24.562947,120.7485,0.014990466
C1I440,新高口,2018-01-21,23.478744,120.878939,1.2481355e-08
C0O840,王爺宮,2018-01-21,23.222064,120.40085,8.933917e-09
C0T9G0,鳳林山,2018-01-21,23.735269,121.420131,8.038106e-09
C0X080,佳里,2018-01-21,23.173039,120.145086,7.611097e-07
C0FB70,大甲溪埔,2018-01-21,24.370625,120.620067,1.2023077e-06
C0Z310,清水斷崖,2018-01-21,24.218294,121.689142,2.6991291e-08
C0M680,太保,2018-01-21,23.455062,120.331455,9.450148e-08
C1S820,金峰,2018-01-21,22.590969,120.933236,3.0564422e-09
C0AD10,八里,2018-01-21,25.150211,121.403947,2.6012916e-07
C2K240,草嶺,2018-01-21,23.59555,120.693461,3.6171957e-09
C1SA70,都蘭,2018-01-21,22.87794,121.226881,6.515421e-08
C0K440,二崙,2018-01-21,23.772797,120.408944,4.5536883e-08
C1A760,坪林交控,2018-01-21,24.94284,121.713442,3.1267895e-08
C0F9N0,大里,2018-01-21,24.092464,120.701378,1.8800121e-09
C0SA90,達仁林場,2018-01-21,22.264347,120.823972,1.6900411e-07
C1R290,石門山,2018-01-21,22.112611,120.756597,1.5643744e-05
42HA10,萬大發電廠,2018-01-21,23.978875,121.139639,5.832346e-09
C0R890,山海,2018-01-21,21.9878,120.7091,0.99999213
C0T9A0,月眉山,2018-01-21,23.809928,121.539828,1.4034958e-08
C0AC70,信義,2018-01-21,25.037822,121.564597,5.8297993e-09
C0K560,棋山,2018-01-21,23.68645,120.603417,1.4108034e-09
C2FB50,出雲,2018-01-21,24.206469,120.902794,3.8736965e-09
C1Z240,中平林道,2018-01-21,23.42115,121.26763,2.214183e-08
U2H480,溪頭,2018-01-21,23.670306,120.798194,4.6353055e-09
C0M880,好美里,2018-01-21,23.3364,120.138,1.4281935e-06
C0T9E0,大坑,2018-01-21,23.880628,121.581981,1.7318998e-08
C0K530,臺西,2018-01-21,23.701547,120.197559,0.001105613
C1E900,國一N128K,2018-01-21,24.560997,120.844186,8.115273e-08
C0AJ50,水湳洞,2018-01-21,25.123695,121.862238,0.00013885244
C0AI20,白沙灣,2018-01-21,25.283128,121.519058,0.0030311346
C0A860,大坪,2018-01-21,25.165914,121.632969,1.0402875e-08
C1U850,觀音海岸,2018-01-21,24.38319,121.77856,1.5408448e-08
C2K610,草嶺石壁,2018-01-21,23.602469,120.707731,3.7638292e-09
C0U950,鶯子嶺,2018-01-21,24.89754,121.79244,1.32932785e-08
C0O900,善化,2018-01-21,23.112883,120.297219,6.5732394e-08
C0K550,蔦松,2018-01-21,23.514319,120.229736,2.299098e-05
E2P980,林試六龜中心,2018-01-21,22.991703,120.645722,3.3827408e-09
C0E590,通霄,2018-01-21,24.471892,120.704622,0.00031443915
C1I310,西巒,2018-01-21,23.754486,120.883956,5.6703975e-09
C0A550,泰平,2018-01-21,24.971197,121.823711,1.6222469e-08
C0I360,水里,2018-01-21,23.812553,120.849792,1.6725417e-09
C0R830,高士,2018-01-21,22.121825,120.836781,2.407964e-06
C1I101,溪頭,2018-01-21,23.661789,120.807647,1.1817222e-08
C0AJ20,野柳,2018-01-21,25.20703,121.690021,2.3295272e-06
C0B060,暖暖,2018-01-21,25.0957,121.7403,2.0339968e-08
C1H920,長豐,2018-01-21,24.102039,120.879897,2.9698053e-09
C0V360,內門,2018-01-21,22.975481,120.466769,1.7098877e-09
C0R850,林邊,2018-01-21,22.4634,120.5339,1.1585733e-09
C0E930,龍鳳,2018-01-21,24.700034,120.859125,0.00040136033
C0U910,冬山,2018-01-21,24.63373,121.7937,4.412616e-09
C1E721,泰安,2018-01-21,24.489017,120.968036,7.646483e-09
82H320,茶改中部分場,2018-01-21,23.875611,120.913583,3.7148669e-09
C0M750,布袋,2018-01-21,23.380878,120.167789,1.224474e-06
C1S860,利嘉,2018-01-21,22.809417,121.050528,4.604658e-09
72C440,桃園農改,2018-01-21,24.950944,121.030583,0.00013520534
E2S980,林試太麻里1,2018-01-21,22.598922,120.980044,2.742747e-09
C0X170,關廟,2018-01-21,22.963017,120.327797,1.05583755e-08
C0V720,林園,2018-01-21,22.507747,120.394511,3.3486214e-09
C1I510,線浸林道,2018-01-21,23.761508,120.832956,7.836314e-09
C0D690,外湖,2018-01-21,24.917735,120.968711,0.000248492
C0C750,新興坑尾,2018-01-21,25.0061,121.0971,0.0001631349
B2Q810,畜試南區分所,2018-01-21,21.945583,120.802167,0.99998295
C0S790,金崙,2018-01-21,22.538122,120.966875,4.5195594e-09
C0AH90,福山植物園,2018-01-21,24.760717,121.58135,7.83875e-09
C0I540,奇萊稜線,2018-01-21,24.109231,121.326456,2.966925e-08
C0M850,表湖,2018-01-21,23.24186,120.64166,4.7286406e-09
C0S770,大溪山,2018-01-21,22.478475,120.943325,9.218757e-09
C0AG80,中和,2018-01-21,24.991622,121.491792,4.2396415e-08
C0T790,大禹嶺,2018-01-21,24.186117,121.316086,2.0004622e-08
C0T9B0,水源,2018-01-21,23.991861,121.537169,1.745504e-07
C0R840,牡丹池山,2018-01-21,22.168389,120.841225,9.2675214e-07
C1I131,桶頭,2018-01-21,23.641944,120.654117,2.0036572e-09
CAL110,布袋國中,2018-01-21,23.35893,120.18026,1.2266644e-06
467571,新竹,2018-01-21,24.827853,121.014219,0.00025414527
C0Z290,赤柯山,2018-01-21,23.36893,121.38293,1.01800515e-08
C0X280,將軍,2018-01-21,23.214999,120.13577,1.1385218e-06
C0S690,太麻里,2018-01-21,22.60902,120.98533,5.039625e-09
C0U880,北關,2018-01-21,24.9072,121.8734,4.1228382e-08
C1H860,瑞岩,2018-01-21,24.123772,121.18345,1.0504523e-08
C0G810,埔心,2018-01-21,23.947633,120.525456,2.5270996e-08
C0U970,大福,2018-01-21,24.80064,121.81389,4.1256523e-09
C2H9N0,仁愛東眼,2018-01-21,24.026875,121.1205,6.8415402e-09
C1E670,南礦,2018-01-21,24.538278,121.002836,6.1605845e-09
C0M520,東後寮,2018-01-21,23.369908,120.248065,1.0953561e-06
C1E461,松安,2018-01-21,24.397972,120.986022,6.7213684e-09
72G600,臺中農改,2018-01-21,24.003028,120.534389,2.401768e-08
C2N160,西拉雅風管處,2018-01-21,23.189481,120.335297,4.290951e-08
C2M970,碧湖,2018-01-21,23.568632,120.624165,3.0859892e-09
C0A640,石碇,2018-01-21,24.993969,121.662917,1.1494219e-08
E2S960,林試太麻里2,2018-01-21,22.598,120.99775,2.560186e-09
C0F9Y0,桃山,2018-01-21,24.432739,121.303808,3.891286e-08
C1I020,萬大,2018-01-21,23.979817,121.132261,4.454619e-09
C0U940,羅東,2018-01-21,24.68184,121.74934,3.107175e-09
C0M650,朴子,2018-01-21,23.43463,120.23902,1.092806e-06
C1I500,大尖山,2018-01-21,23.858572,120.994889,1.6773154e-08
C0G820,田尾,2018-01-21,23.901669,120.509389,2.5285171e-08
E2K600,四湖植物園,2018-01-21,23.676986,120.163433,0.0022322524
C0S730,綠島,2018-01-21,22.6672,121.47533,0.9046862
12Q970,東港工作站,2018-01-21,22.479997,120.466058,1.1430091e-09
C0E430,南庄,2018-01-21,24.601775,121.000214,7.2894526e-09
C1TA00,太魯閣,2018-01-21,24.15773,121.6236,1.0894245e-07
466920,臺北,2018-01-21,25.037658,121.514853,5.8238756e-09
C0R600,舊泰武,2018-01-21,22.588194,120.664944,3.368679e-09
C1I260,北坑,2018-01-21,23.9246,121.006903,2.4113052e-09
466910,鞍部,2018-01-21,25.182586,121.529731,9.933618e-08
C1I230,九份二山,2018-01-21,23.961944,120.845,4.574405e-09
C2A660,瑞芳,2018-01-21,25.113169,121.801147,2.9615641e-05
C0R270,琉球嶼,2018-01-21,22.332244,120.362236,4.5400186e-09
C1T990,高寮,2018-01-21,23.394239,121.356808,3.570325e-09
C0G620,芬園,2018-01-21,24.015678,120.6213,2.6082274e-09
C1Z140,荖溪,2018-01-21,23.890575,121.45964,1.34315945e-08
C1I201,中心崙,2018-01-21,23.728722,120.712097,2.7568239e-09
C1I400,凌霄,2018-01-21,24.018778,121.004456,6.581579e-09
C1M640,十字,2018-01-21,23.492153,120.753683,6.89019e-09
G2P820,農試鳳山分所,2018-01-21,22.646611,120.356083,2.5982782e-08
C0Z270,蕃薯寮,2018-01-21,23.73835,121.540108,5.3422196e-09
C0F9Q0,外埔,2018-01-21,24.347817,120.705686,9.9893604e-09
C0K580,高鐵雲林,2018-01-21,23.737456,120.417944,8.3628876e-08
C2I090,鳳凰,2018-01-21,23.728081,120.787347,3.4741474e-09
C0U990,員山,2018-01-21,24.74435,121.72247,3.089576e-09
C0V770,大社,2018-01-21,22.730306,120.346639,1.1968315e-08
C0X120,麻豆,2018-01-21,23.183289,120.248611,4.336938e-07
C0C670,龍潭,2018-01-21,24.870056,121.221389,4.7559137e-08
C0D680,香山濕地,2018-01-21,24.783581,120.914988,0.0001932666
C0S980,勝林山,2018-01-21,22.430439,120.8938,1.8421039e-08
C0V730,大寮,2018-01-21,22.605614,120.395717,8.225868e-09
C0R570,麟洛,2018-01-21,22.65078,120.52719,1.5878556e-09
C2M930,石卓,2018-01-21,23.478744,120.702264,7.763106e-09
C0G9B0,和美,2018-01-21,24.105169,120.492131,1.105829e-05
CAG100,王功漁港,2018-01-21,23.96824,120.32586,0.0018223104
C0X290,北門,2018-01-21,23.267772,120.125481,1.1380941e-06
C2F930,大甲,2018-01-21,24.347667,120.640403,6.449182e-07
C0D650,湖口,2018-01-21,24.904794,121.043628,7.1374896e-05
C0E420,竹南,2018-01-21,24.708978,120.888897,0.0001928197
C0U780,五結,2018-01-21,24.68637,121.79794,3.0379832e-09
C1I250,鯉潭,2018-01-21,23.961922,120.991131,3.827223e-09
C0R130,阿禮,2018-01-21,22.742908,120.743678,6.8068786e-09
C0X100,臺南市北區,2018-01-21,23.010394,120.194228,5.9967607e-07
C0S920,金峰嘉蘭,2018-01-21,22.594789,120.960825,2.778446e-09
C0V490,新興,2018-01-21,22.627422,120.298803,8.456188e-09
C0F9K0,大安,2018-01-21,24.345061,120.588025,1.4612286e-06
72N100,臺南農改,2018-01-21,23.0605,120.342194,5.9299946e-08
467290,古坑,2018-01-21,23.633639,120.551889,1.3808086e-09
C2E970,八甲,2018-01-21,24.535811,120.795983,5.129272e-08
C0V440,鳳山,2018-01-21,22.646653,120.356122,2.5982782e-08
C1T940,大觀,2018-01-21,23.714206,121.373133,7.0240773e-09
72T250,花蓮農改,2018-01-21,23.975222,121.563889,2.9544779e-05
C0E740,造橋,2018-01-21,24.637056,120.864778,3.7466234e-06
C0R100,尾寮山,2018-01-21,22.833111,120.683889,6.8454824e-09
A2K630,臺大雲林校區,2018-01-21,23.730628,120.423903,8.3628876e-08
C0D580,寶山,2018-01-21,24.735006,121.025192,3.386054e-08
E2P990,林試扇平站,2018-01-21,22.9677,120.6857,2.6863904e-09
C0AI30,三重,2018-01-21,25.057328,121.500629,5.7666734e-09
C0AH00,汐止,2018-01-21,25.066881,121.658778,5.8238756e-09
C1Z040,立山,2018-01-21,23.443356,121.327375,5.063424e-09
C0W130,花嶼,2018-01-21,23.40007,119.32276,0.999686
C0A950,鼻頭角,2018-01-21,25.129036,121.923372,0.010089782
C0K470,林內,2018-01-21,23.748675,120.609642,1.1411772e-09
C2F990,摩天嶺,2018-01-21,24.322458,120.936819,3.2771457e-09
82C160,茶改場,2018-01-21,24.908472,121.185333,1.9266463e-07
C0Z320,清水林道,2018-01-21,23.27125,121.188272,6.9551e-09
C0R760,南仁湖,2018-01-21,22.084681,120.863353,1.5610716e-05
C0M670,大林,2018-01-21,23.600616,120.45841,4.8174208e-08
C0M800,茶山,2018-01-21,23.299075,120.664767,1.785509e-09
C0A9C0,天母,2018-01-21,25.117494,121.537169,9.395598e-09
72K220,南改斗南分場,2018-01-21,23.634556,120.477333,1.9979455e-08
72AI40,桃改樹林分場,2018-01-21,24.944503,121.386972,1.4745567e-07
C0S910,蘭嶼燈塔,2018-01-21,22.081197,121.503117,0.994875
C0B050,八斗子,2018-01-21,25.144754,121.79167,0.00023293235
C0U900,內城,2018-01-21,24.71813,121.68766,3.2291578e-09
C0X320,柳營,2018-01-21,23.253328,120.375253,1.25033e-08
C0M790,新港,2018-01-21,23.553269,120.345728,4.5058457e-07
C0F9T0,西屯,2018-01-21,24.179494,120.641275,2.1273495e-08
C0SA30,都歷,2018-01-21,23.020333,121.323642,1.209303e-08
C0C620,蘆竹,2018-01-21,25.084275,121.265767,0.0003439306
C0R730,大坪頂,2018-01-21,22.024633,120.69355,0.99838513
C0AJ40,石門,2018-01-21,25.273672,121.601198,0.00017321963
C0E750,苗栗,2018-01-21,24.564569,120.824575,8.402716e-08
C0T870,鯉魚潭,2018-01-21,23.935639,121.508944,5.7675233e-08
C1V170,排雲,2018-01-21,23.463619,120.954147,3.1184396e-08
C2H950,中寮,2018-01-21,23.884447,120.766406,1.3762492e-09
C0R350,貓鼻頭,2018-01-21,21.921774,120.7358,0.81899023
C0V660,岡山,2018-01-21,22.797078,120.294958,1.5347857e-07
C1H941,雙冬,2018-01-21,23.967378,120.802189,2.4838656e-09
C0AJ70,田寮,2018-01-21,25.2698,121.4886,0.0036176597
C0AI00,五股,2018-01-21,25.07445,121.42728,9.990602e-08
C0Z280,德武,2018-01-21,23.47426,121.41071,3.3643894e-09
C0R700,枋山,2018-01-21,22.246844,120.661086,0.8897175
C0C460,復興,2018-01-21,24.820208,121.352281,1.4744969e-08
E2H360,蓮華池,2018-01-21,23.918333,120.885278,2.8385738e-09
C0M640,中埔,2018-01-21,23.42538,120.5229,2.820887e-09
C0W140,金沙,2018-01-21,24.488292,118.408778,2.8325504e-08
C2A540,四堵,2018-01-21,24.8926,121.745736,2.762157e-08
C0ACA0,新莊,2018-01-21,25.051478,121.446756,2.0291647e-08
C0R220,潮州,2018-01-21,22.534361,120.54,3.1076963e-09
U2HA40,臺大內茅埔,2018-01-21,23.689722,120.851117,1.5627731e-09
467490,臺中,2018-01-21,24.145736,120.684075,4.5136925e-09
C0U960,翠峰湖,2018-01-21,24.510856,121.608044,2.4106717e-08
E2HA20,林試畢祿溪站,2018-01-21,24.226944,121.308522,1.6249224e-08
C0V890,前鎮,2018-01-21,22.5718,120.3117,8.598959e-09
467620,蘭嶼,2018-01-21,22.036969,121.558339,0.9990229
C1F941,雪嶺,2018-01-21,24.280586,121.026642,2.3991813e-08
C2H9E0,國姓南港,2018-01-21,23.911108,120.846556,7.73672e-09
C0AC80,文山,2018-01-21,25.00235,121.575728,3.4735532e-08
C0F9R0,龍井,2018-01-21,24.184536,120.528972,1.5832793e-05
C0M760,民雄,2018-01-21,23.551754,120.428457,5.0778752e-08
C0UA40,西德山,2018-01-21,24.560647,121.752608,9.5855155e-09
C1T920,中興,2018-01-21,23.769503,121.498653,9.428162e-09
C0D550,雪霸,2018-01-21,24.526972,121.11605,1.0486306e-08
C2F860,梨山,2018-01-21,24.247522,121.243669,1.6757133e-08
C0R320,車城,2018-01-21,22.0744,120.716247,0.9998224
C1S870,南美山,2018-01-21,23.15025,121.382333,3.4209644e-09
C0B020,基隆嶼,2018-01-21,25.19141,121.78391,0.56722444
C1U501,牛鬥,2018-01-21,24.637836,121.573656,3.89141e-09
C0M730,嘉義市東區,2018-01-21,23.457673,120.460531,2.892788e-09
C0S700,知本,2018-01-21,22.684866,121.005642,4.50663e-09
C1N001,沙崙,2018-01-21,22.935472,120.309406,1.0885746e-08
C0V760,橋頭,2018-01-21,22.757806,120.30575,1.219355e-08
C0G960,福寶,2018-01-21,24.0443,120.3814,1.2630474e-05
C0X210,白河,2018-01-21,23.347466,120.414427,3.3096972e-09
C0S810,東河,2018-01-21,22.972672,121.303986,5.7032008e-08
C2R170,屏東,2018-01-21,22.66027,120.49403,1.5878525e-09
C0R670,楓港,2018-01-21,22.190131,120.692156,0.9896231
C0FA50,霧峰,2018-01-21,24.0419,120.6995,2.5224562e-09
C0UB10,蘇澳,2018-01-21,24.5969,121.8571,5.156441e-09
C0G950,防潮門,2018-01-21,24.1835,120.4871,1.580553e-05
C0M740,六腳,2018-01-21,23.492871,120.290625,8.1005555e-07
C1R250,力里,2018-01-21,22.428117,120.629228,1.3036032e-09
C0K330,虎尾,2018-01-21,23.719183,120.442036,8.088446e-08
C2FA00,烏石坑,2018-01-21,24.273503,120.947617,3.187011e-09
C0V620,永安,2018-01-21,22.82315,120.236856,1.5347857e-07
C1I330,楓樹林,2018-01-21,23.986803,121.076117,5.2727955e-09
C0W200,湖西,2018-01-21,23.596314,119.67275,0.99931294
72Q010,高雄農改場,2018-01-21,22.709333,120.525889,2.805038e-09
C0SA40,瑞和,2018-01-21,22.974361,121.156697,1.6812262e-08
C0C680,龜山,2018-01-21,25.02846,121.38656,7.846233e-08
C2V260,月眉,2018-01-21,22.971003,120.539853,3.5466579e-09
C0V450,鳳森,2018-01-21,22.545064,120.392592,3.2142748e-09
C0U720,南山,2018-01-21,24.43742,121.38167,6.9510158e-09
A2N290,臺南蘭花園區,2018-01-21,23.340258,120.379661,2.0329422e-07
C0R560,新園,2018-01-21,22.5434,120.461558,3.3486214e-09
C0U890,三星,2018-01-21,24.66812,121.65302,3.0868075e-09
C1V300,御油山,2018-01-21,23.001983,120.715364,9.9184305e-09
C0U600,礁溪,2018-01-21,24.817539,121.765608,4.7321413e-09
C1T980,龍澗,2018-01-21,24.023289,121.411328,1.9062492e-08
C0D670,海天一線,2018-01-21,24.831986,120.914438,0.47663128
C0SA00,歷坵,2018-01-21,22.520969,120.89185,6.1662155e-09
C0M710,東石,2018-01-21,23.458927,120.15385,1.2563236e-05
C0M780,鹿草,2018-01-21,23.41134,120.30835,9.828574e-07
C0U520,雙連埤,2018-01-21,24.753033,121.641303,6.6573445e-09
C0B010,七堵,2018-01-21,25.094819,121.71713,2.2410095e-08
C0R480,長治,2018-01-21,22.693128,120.542622,1.5517417e-09
C1V830,國三S383K,2018-01-21,22.781967,120.426475,2.1425128e-09
12Q980,恆春工作站,2018-01-21,22.079678,120.714425,0.9998224
C1O940,東山服務區,2018-01-21,23.286016,120.398472,8.56421e-09
C1U840,東澳嶺,2018-01-21,24.5378,121.8485,1.1501083e-08
C1D630,飛鳳山,2018-01-21,24.766464,121.119178,8.397845e-08
C0S940,石寧山,2018-01-21,23.223772,121.406639,2.8524898e-09
C0K410,北港,2018-01-21,23.573957,120.292802,6.492846e-06
C2M620,瑞里,2018-01-21,23.545133,120.675197,5.488772e-09
C0SB70,小港漁港,2018-01-21,23.158558,121.400431,2.5524725e-09
C2O950,安南,2018-01-21,23.076694,120.144861,6.2793686e-07
C0F0E0,南湖圈谷,2018-01-21,24.363714,121.444667,4.47997e-08
467610,成功,2018-01-21,23.097486,121.373428,2.211523e-09
C0G890,伸港,2018-01-21,24.148933,120.484403,6.1022006e-06
C2E540,龍溪,2018-01-21,24.606489,120.783933,4.1914222e-06
C1V200,梅山,2018-01-21,23.268447,120.823556,3.29389e-09
C0T9H0,加路蘭山,2018-01-21,23.682947,121.5274,7.755572e-09
C2O930,玉井,2018-01-21,23.126042,120.46055,3.3357064e-09
C1F911,新伯公,2018-01-21,24.221361,120.841069,2.2669016e-09
C0R490,九如,2018-01-21,22.7405,120.490503,2.8383789e-09
C0X200,左鎮,2018-01-21,23.056758,120.408522,6.1306005e-09
C0SB50,叭嗡嗡,2018-01-21,23.047062,121.343223,1.20353425e-08
C1F891,稍來,2018-01-21,24.265689,121.001142,1.571583e-08
72N240,七股研究中心,2018-01-21,23.081672,120.062894,6.9628675e-07
C0C700,中壢,2018-01-21,24.977661,121.256375,4.503238e-08
C0M690,水上,2018-01-21,23.419734,120.388909,9.060029e-08
C0V690,鼓山,2018-01-21,22.623325,120.275575,8.456188e-09
C0O860,大內,2018-01-21,23.11885,120.36083,6.08018e-08
C0Z200,萬榮,2018-01-21,23.709219,121.420106,4.2828376e-09
C0T9D0,和中,2018-01-21,24.26676,121.74103,1.75483e-08
C1O921,楠西,2018-01-21,23.183511,120.484083,1.6553277e-09
C0AJ30,淡水觀海,2018-01-21,25.184591,121.408616,3.1959615e-05
C0V810,左營,2018-01-21,22.67491,120.28491,2.7932776e-08
C0UA70,桃源谷,2018-01-21,24.962606,121.888875,1.6954338e-08
C0X130,官田,2018-01-21,23.193217,120.315422,4.4662084e-08
C1H000,翠峰,2018-01-21,24.109397,121.205211,1.5298777e-08
C0UA90,石城,2018-01-21,24.980444,121.951214,5.130667e-07
C1E681,南勢山,2018-01-21,24.421669,120.923831,7.4185786e-09
C0A9F0,內湖,2018-01-21,25.079422,121.57545,5.8238756e-09
C0K291,宜梧,2018-01-21,23.536281,120.169329,2.294936e-05
C1K540,口湖,2018-01-21,23.585344,120.180517,0.0002208705
C0R780,滿州,2018-01-21,22.024403,120.839892,0.9999794
C0V870,文安,2018-01-21,22.8025,120.2164,1.7103036e-07
C0U650,玉蘭,2018-01-21,24.675286,121.587061,5.3308806e-09
C0R640,東港,2018-01-21,22.46247,120.44074,1.1430091e-09
K2E360,苗栗農改,2018-01-21,24.495722,120.829111,1.5885654e-08
C0AJ80,板橋,2018-01-21,25.0107,121.4489,4.3481194e-08
C0S660,下馬,2018-01-21,23.150427,121.070312,7.1035684e-09
C1H9B1,阿眉,2018-01-21,24.1263,120.994672,9.165913e-09
C0UA20,多加屯,2018-01-21,24.368614,121.373189,2.5880546e-08
C0E730,頭份,2018-01-21,24.688247,120.912206,0.00023832756
72V140,高改旗南分場,2018-01-21,22.857861,120.516667,2.4963567e-09
C0K480,莿桐,2018-01-21,23.761192,120.502372,1.3228149e-08
C0U980,坪林石牌,2018-01-21,24.86478,121.77396,7.285783e-09
C0T900,西林,2018-01-21,23.8119,121.441458,1.0098287e-08
C1I150,青雲,2018-01-21,23.793361,120.949378,1.5842284e-09
467350,澎湖,2018-01-21,23.565503,119.563094,0.99957144
C0G800,埔鹽,2018-01-21,24.000394,120.431683,9.549863e-06
C0H960,草屯,2018-01-21,23.973672,120.68085,2.5740918e-09
C1V780,多納林道,2018-01-21,22.888028,120.737917,5.157513e-09
C0E920,通霄漁港,2018-01-21,24.498589,120.673876,0.00049251155
C0Z330,安通山,2018-01-21,23.290728,121.348528,5.883855e-09
C0AH10,永和,2018-01-21,25.01125,121.508111,4.3390312e-08
C0AK10,太平里,2018-01-21,25.134937,121.364899,2.3966368e-07
C2G640,鹿港,2018-01-21,24.0753,120.430481,1.2630474e-05
C1E890,國三N149K,2018-01-21,24.463414,120.680019,1.6189399e-06
C1R110,口社,2018-01-21,22.770111,120.645222,2.3068158e-09
C1M870,國三N285K,2018-01-21,23.550319,120.505833,2.1769706e-09
467050,新屋,2018-01-21,25.006744,121.047486,0.00037372313
C1E480,鳳美,2018-01-21,24.554803,121.034747,4.585936e-09
C0M530,奮起湖,2018-01-21,23.493903,120.699253,6.352119e-09
C0C590,觀音,2018-01-21,25.027072,121.153317,0.00311606
C0T9M0,靜浦,2018-01-21,23.455167,121.495028,2.800211e-09
C2H9M0,發祥,2018-01-21,24.154094,121.164517,5.210978e-09
C0AI40,石牌,2018-01-21,25.115597,121.513139,9.386319e-09
C1F871,上谷關,2018-01-21,24.203483,121.018644,3.434203e-09
C2H9G0,百勝,2018-01-21,24.051142,120.909361,1.9129938e-09
C0G880,二水,2018-01-21,23.810742,120.6173,9.718483e-10
C0R940,加祿堂,2018-01-21,22.3363,120.6217,0.013382023
C0W220,北竿,2018-01-21,26.220358,119.974881,8.108527e-08
C0O960,崎頂,2018-01-21,22.959547,120.369317,9.332106e-09
C0S750,向陽,2018-01-21,23.248397,120.986133,1.4539036e-08
C0T9F0,水璉,2018-01-21,23.797131,121.542514,1.2090077e-08
C1M600,頭凍,2018-01-21,23.406364,120.603339,4.1276045e-09
467660,臺東,2018-01-21,22.752211,121.154586,0.03326496
C1D380,新埔,2018-01-21,24.84745,121.03834,7.862503e-05
C2G980,田頭村,2018-01-21,23.8263,120.444175,4.5536883e-08
C0V750,路竹,2018-01-21,22.854997,120.259439,2.6491338e-07
C0N050,蚵寮,2018-01-21,23.301,120.1104,1.4281935e-06
72M700,南改鹿草分場,2018-01-21,23.416869,120.283061,1.092806e-06
C1SA50,利嘉林道,2018-01-21,22.82325,121.009389,2.0257925e-08
467550,玉山,2018-01-21,23.487614,120.959522,3.7793047e-08
C0A940,金山,2018-01-21,25.223628,121.643967,1.9347383e-06
C1V340,大津,2018-01-21,22.888322,120.645986,6.2876775e-09
C0W180,七美,2018-01-21,23.219333,119.444892,0.9997691
C1F9C1,白冷,2018-01-21,24.182844,120.929889,3.2807417e-09
K2E710,苗改生物防治研究中心,2018-01-21,24.422861,120.871833,6.523812e-09
C0N040,蘆竹溝,2018-01-21,23.2344,120.0961,1.1380941e-06
C2W230,畜試所澎湖,2018-01-21,23.628342,119.513206,0.9997675
C0R880,後壁湖,2018-01-21,21.9457,120.7457,0.9999919
C1I280,埔中,2018-01-21,23.820778,120.642594,2.2499942e-09
467790,墾丁雷達站,2018-01-21,21.948235,120.808028,0.99998957
C0W190,望安,2018-01-21,23.380564,119.494075,0.9997172
466881,新北,2018-01-21,24.9593,121.52,4.083699e-08
C0Z170,卓溪,2018-01-21,23.3443,121.3029,4.1258885e-09
C0F850,東勢,2018-01-21,24.246428,120.833047,1.1965759e-08
466900,淡水,2018-01-21,25.164889,121.448906,2.3966368e-07
C0I370,魚池,2018-01-21,23.895703,120.94135,2.2994269e-09
C0C630,大溪,2018-01-21,24.882853,121.265547,5.726571e-08
C0A520,山佳,2018-01-21,24.974944,121.402008,5.0949208e-08
C0I110,竹山,2018-01-21,23.761225,120.688156,1.1053581e-09
82H840,茶改南部分場,2018-01-21,23.762528,120.7405,2.1379694e-09
C0G660,溪湖,2018-01-21,23.94835,120.479122,2.5651925e-08
C1T800,洛韶,2018-01-21,24.204558,121.453956,1.7300442e-08
C1T810,慈恩,2018-01-21,24.192044,121.388386,1.1222388e-08
C1E451,象鼻,2018-01-21,24.368617,120.940228,6.481135e-09
C0AC60,三峽,2018-01-21,24.939025,121.369728,1.3278967e-07
C0I490,萬大林道,2018-01-21,23.928228,121.091411,1.1053292e-08
C1I290,豐丘,2018-01-21,23.668178,120.887417,4.960093e-09
C1I320,奧萬大,2018-01-21,23.952956,121.178556,7.0178903e-09
C2M910,嘉義大學,2018-01-21,23.471325,120.485903,2.9543026e-09
C0U770,南澳,2018-01-21,24.44935,121.81022,7.2688073e-09
C0A980,社子,2018-01-21,25.109508,121.469681,2.828985e-07
C0V800,六龜,2018-01-21,22.997889,120.633583,3.36378e-09
C1G9D0,國一S218K,2018-01-21,23.890641,120.493253,3.8006586e-08
C0E570,白沙屯,2018-01-21,24.549447,120.696803,0.036638368
C2F9A0,中竹林,2018-01-21,24.103556,120.751061,2.1174105e-09
C0FA40,臺中電廠,2018-01-21,24.2146,120.4907,1.5832793e-05
C2G9A0,畜試所彰化,2018-01-21,23.86045,120.557964,1.2757446e-08
C0H9C0,合歡山,2018-01-21,24.143442,121.272547,3.0332025e-08
C0X060,下營,2018-01-21,23.22695,120.256261,1.6413981e-06
G2M350,農試溪口農場,2018-01-21,23.58565,120.408111,4.5847138e-08
C0U860,頭城,2018-01-21,24.85323,121.8308,4.721728e-09
C0R580,南州,2018-01-21,22.48591,120.50274,1.1430091e-09
C0D430,峨眉,2018-01-21,24.6905,121.017189,1.7289361e-06
C0G780,秀水,2018-01-21,24.03405,120.503869,2.401768e-08
72N100,臺南農改場,2018-01-21,23.0605,120.342194,5.930006e-08
C0S900,蘭嶼高中,2018-01-21,22.04909,121.51214,0.97927797
467540,大武,2018-01-21,22.355675,120.903789,5.7350203e-08
C1F9W0,德基,2018-01-21,24.254783,121.190261,1.2717239e-08
C1Z120,壽豐,2018-01-21,23.870853,121.508081,1.810144e-08
C0W160,烏坵,2018-01-21,24.9944,119.44956,3.7274225e-05
C1I240,外大坪,2018-01-21,23.958697,120.917931,3.9339176e-09
C1I550,國六W023K,2018-01-21,23.979067,120.867742,1.6728957e-09
C0R870,興海,2018-01-21,21.9752,120.8439,0.99998295
C0R140,瑪家,2018-01-21,22.682903,120.686639,3.5075585e-09
C0A530,坪林,2018-01-21,24.938183,121.70975,2.888759e-08
C0X260,後壁,2018-01-21,23.366358,120.362326,2.0329422e-07
C0Z230,和平,2018-01-21,24.30717,121.77007,1.8034653e-08
C0G770,福興,2018-01-21,24.041289,120.437669,9.519428e-06
C0H9A0,神木村,2018-01-21,23.532742,120.843667,7.140994e-09
C0I460,南投,2018-01-21,23.911469,120.687331,1.0753625e-09
C0I480,梅峰,2018-01-21,24.085272,121.173572,1.0009673e-08
C1V570,吉東,2018-01-21,22.85422,120.5454,2.4558877e-09
C2D740,屯原,2018-01-21,24.067969,121.209389,8.69959e-09
C2A560,福山,2018-01-21,24.776203,121.502811,6.109379e-09
C0AH30,五分山,2018-01-21,25.07125,121.780794,2.6167244e-08
C0FA10,松柏,2018-01-21,24.429115,120.617482,3.3598724e-06
72S200,東改班鳩分場,2018-01-21,22.829528,121.077694,1.7374916e-06
72HA00,中改埔里分場,2018-01-21,23.903208,120.963364,2.6316638e-09
C2H9W0,大坪頂農水,2018-01-21,24.043122,120.932781,3.010371e-09
C0C650,平鎮,2018-01-21,24.897503,121.214636,6.4992115e-08
C0S930,延平,2018-01-21,22.902581,121.084058,4.429441e-08
C0UA60,樟樹山,2018-01-21,24.41393,121.78325,5.506861e-09
C1S670,摩天,2018-01-21,23.199503,121.027,1.985667e-08
C0V630,茄萣,2018-01-21,22.906642,120.182608,3.0641465e-07
466940,基隆,2018-01-21,25.133314,121.740475,0.00019817003
C0X050,東河,2018-01-21,23.296598,120.385608,8.950136e-09
C0R770,保力,2018-01-21,22.071122,120.764111,0.99989176
G2L020,農試嘉義分所,2018-01-21,23.485028,120.473806,2.6412383e-09
C0X240,關子嶺,2018-01-21,23.331169,120.508025,1.6465641e-09
C0I380,集集,2018-01-21,23.828206,120.801467,1.6465955e-09
466990,花蓮,2018-01-21,23.975128,121.613275,5.919917e-05
C1V220,小關山,2018-01-21,23.154217,120.813603,1.03345865e-08
C1F9G1,慶福山,2018-01-21,24.180853,120.848378,2.717813e-09
C0Z250,瑞穗林道,2018-01-21,23.49284,121.30688,2.3191872e-08
C0D590,新豐,2018-01-21,24.87068,120.97721,0.045893002
C0A870,五指山,2018-01-21,25.132153,121.608692,1.3047705e-08
C0UA50,西帽山,2018-01-21,24.555361,121.802628,6.0965974e-09
C0X160,仁德,2018-01-21,22.968258,120.257689,8.921589e-07
C1H971,六分寮,2018-01-21,23.92507,120.6378,2.054638e-09
C0W120,西嶼,2018-01-21,23.5626,119.468436,0.9995973
C0G650,員林,2018-01-21,23.946503,120.585597,5.171304e-09
C0AD50,鶯歌,2018-01-21,24.951533,121.346294,1.1263405e-07
C2H9Q0,北東眼山,2018-01-21,24.120939,121.189303,1.3375351e-08
C2H9T0,名間竹圍,2018-01-21,23.859914,120.637572,1.3940665e-09
C0S990,山豬窟,2018-01-21,22.318619,120.857372,4.3475307e-08
72Q010,高雄農改,2018-01-21,22.709333,120.525889,2.805038e-09
C0X190,安平,2018-01-21,22.993161,120.152181,5.9967607e-07
C0K400,斗六,2018-01-21,23.720583,120.541127,1.4906064e-08
12J990,口湖工作站,2018-01-21,23.589978,120.180394,0.0002208705
C0O830,北寮,2018-01-21,23.079561,120.495008,1.194596e-09
C1D410,白蘭,2018-01-21,24.579364,121.079947,6.935852e-09
C0S970,加津林,2018-01-21,22.416211,120.926942,4.9112177e-08
C0D700,關西,2018-01-21,24.7977,121.1732,8.5086754e-08
C0M810,里佳,2018-01-21,23.389125,120.716647,6.94337e-09
C0U750,龜山島,2018-01-21,24.841667,121.953133,1.710123e-05
C0R810,內獅,2018-01-21,22.305064,120.642986,0.020706432
C1M390,龍美,2018-01-21,23.406728,120.654417,5.150799e-09
C2FB60,頭櫃山,2018-01-21,24.129842,120.858925,3.845384e-09
C1H840,國三N238K,2018-01-21,23.841008,120.707711,1.2385848e-09
CAQ030,崎峰國小,2018-01-21,22.42565,120.49521,1.1430091e-09
C2E520,大湖,2018-01-21,24.414939,120.870872,6.621847e-09
467530,阿里山,2018-01-21,23.508208,120.813242,1.7186219e-08
C1E691,南湖,2018-01-21,24.40135,120.837533,5.8222094e-09
C0FA30,梧棲,2018-01-21,24.256003,120.523381,2.0038218e-05
C1V231,高中,2018-01-21,23.134911,120.716711,4.7253765e-09
C0F9V0,新社,2018-01-21,24.200172,120.815806,2.6576366e-09
C0H890,埔里,2018-01-21,23.972169,120.952425,1.9643411e-09
C0R690,墾丁,2018-01-21,21.966756,120.810269,0.9999925
C0F0D0,審馬陣,2018-01-21,24.381675,121.4203,3.619192e-08
C0R820,白鷺,2018-01-21,22.454275,120.666219,6.6448362e-09
U2H480,臺大溪頭,2018-01-21,23.670306,120.798194,4.6353055e-09
C1V190,南天池,2018-01-21,23.27403,120.91176,1.3013283e-08
K2E360,苗栗農改場,2018-01-21,24.495722,120.829111,1.5885654e-08
CAJ050,海口故事園區,2018-01-21,23.57543,120.14121,0.0002208705
C2H9D0,三隻寮,2018-01-21,24.093078,120.861578,3.0977543e-09
C0O990,媽廟,2018-01-21,22.99175,120.293525,1.6039105e-07
C0D480,打鐵坑,2018-01-21,24.849664,121.150789,4.6585296e-08
C0Z220,和平林道,2018-01-21,24.343922,121.656317,1.4696339e-08
C0TA10,花蓮漁港,2018-01-21,23.995322,121.638331,0.00010171245
72C440,桃園農改場,2018-01-21,24.950944,121.030583,0.00013520534
C1E711,馬拉邦山,2018-01-21,24.367306,120.901656,6.722035e-09
C0SB20,富岡,2018-01-21,22.792467,121.192669,0.00047030926
C0D560,竹東,2018-01-21,24.767147,121.057881,9.3923575e-08
C0F9U0,南屯,2018-01-21,24.137006,120.637969,2.23825e-08
C0M720,番路,2018-01-21,23.464657,120.554156,2.840735e-09
C0F0A0,雪山圈谷,2018-01-21,24.388594,121.236339,5.0519656e-08
C1A9N0,四十份,2018-01-21,24.934158,121.593283,1.0100406e-08
C0U760,東澳,2018-01-21,24.52196,121.83318,1.293099e-08
C0X230,鹽水,2018-01-21,23.272621,120.247641,1.3488881e-06
C2H9H0,苗改南投蜂場,2018-01-21,23.852589,120.693481,1.2687239e-09
C0R950,萬隆國小,2018-01-21,22.507667,120.587817,3.0709928e-09
C0V370,古亭坑,2018-01-21,22.893178,120.401947,3.028472e-09
C1I340,新興橋,2018-01-21,23.563333,120.868728,2.5097817e-09
C0SA80,土坂,2018-01-21,22.453108,120.887572,1.0229939e-08
C0R160,鹽埔,2018-01-21,22.739558,120.530778,2.8094231e-09
C0AC40,大屯山,2018-01-21,25.175675,121.522408,8.638663e-08
466850,五分山雷達站,2018-01-21,25.071182,121.781205,2.615916e-08
C2H9L0,馬烈霸,2018-01-21,24.1512,121.201772,1.3139284e-08
C1AI50,國三N016K,2018-01-21,25.034164,121.619664,5.831534e-09
C1V600,藤枝,2018-01-21,23.071961,120.757042,7.578459e-09
C1E601,南勢,2018-01-21,24.572486,120.734842,0.002756259
C0Z180,新城,2018-01-21,24.03946,121.60454,4.9673115e-05
C0O980,新市,2018-01-21,23.061614,120.298197,6.5732394e-08
C0K420,西螺,2018-01-21,23.800407,120.467394,4.4876757e-08
C0Z050,佳心,2018-01-21,23.34567,121.21316,8.918253e-09
C0AD30,蘆洲,2018-01-21,25.086594,121.472331,5.7666734e-09
C0V610,梓官,2018-01-21,22.760558,120.267211,1.219355e-08
K2F750,種苗改良場,2018-01-21,24.225972,120.800917,2.4306253e-09
C0UA80,大溪漁港,2018-01-21,24.941801,121.902955,4.025528e-08
C1AI60,國一39K邊坡,2018-01-21,25.064361,121.383836,8.5780435e-08
C0W150,金寧,2018-01-21,24.457703,118.328989,5.5234e-08
C0R960,內埔,2018-01-21,22.608483,120.570714,1.4230758e-09
V2C250,八德合作社,2018-01-21,24.93775,121.266389,8.1765194e-08
C2H9S0,龍南,2018-01-21,23.953536,120.833183,4.833046e-09
C0AH40,平等,2018-01-21,25.129142,121.577086,1.0725607e-08
C0R540,佳冬,2018-01-21,22.419456,120.552375,4.147862e-05
466950,彭佳嶼,2018-01-21,25.627975,122.079744,0.755858
C0A890,雙溪,2018-01-21,25.036003,121.864242,1.0547211e-05
C0C480,桃園,2018-01-21,24.992425,121.323172,4.9335252e-08
C0AH50,林口,2018-01-21,25.072181,121.38084,7.115708e-08
A2K360,水試臺西試驗場,2018-01-21,23.717231,120.190522,0.0016325808
B2N890,畜試所,2018-01-21,23.058972,120.336406,5.930006e-08
C2M960,外寮,2018-01-21,23.562643,120.665688,3.2970706e-09
C0F9S0,烏日,2018-01-21,24.107058,120.624103,1.8023331e-09
C0C490,八德,2018-01-21,24.928708,121.283289,8.1369095e-08
C0R190,赤山,2018-01-21,22.592333,120.614306,1.4321978e-09
C0T820,天祥,2018-01-21,24.179597,121.495639,8.4804155e-09
C1F9E1,龍安,2018-01-21,24.1605,120.831961,2.2672086e-09
C0V820,小林,2018-01-21,23.148408,120.63325,2.257857e-09
C2G870,芳苑,2018-01-21,23.922303,120.320025,0.0017082714
C0E850,大河,2018-01-21,24.618069,120.948578,4.449348e-08
C1U670,寒溪,2018-01-21,24.634,121.71691,4.815168e-09
C0N020,城西,2018-01-21,23.0568,120.0956,5.996755e-07
C1Z110,三棧,2018-01-21,24.11557,121.60501,1.0510014e-08
C0R280,檳榔,2018-01-21,22.076078,120.836777,0.00091395644
C2H9J0,中台,2018-01-21,23.9996,120.938739,2.7585545e-09
C0F9L0,后里,2018-01-21,24.310436,120.729725,7.566066e-09
C0D540,橫山,2018-01-21,24.71116,121.11693,2.7454124e-08
C1D420,太閣南,2018-01-21,24.632808,121.160575,9.11671e-09
C1E770,公館,2018-01-21,24.526914,120.830806,1.6407808e-08
CAN130,水試所海水繁養殖中心,2018-01-21,23.120802,120.07968,6.9628675e-07
C1I430,翠華,2018-01-21,24.191961,121.224339,1.36217375e-08
C1M400,菜瓜坪,2018-01-21,23.251928,120.576103,1.650375e-09
C0G730,二林,2018-01-21,23.903325,120.376081,1.967197e-06
72M360,南改義竹分場,2018-01-21,23.360694,120.279361,1.0972673e-06
V2K620,麥寮合作社,2018-01-21,23.753836,120.294783,1.6225785e-06
C0Z070,舞鶴,2018-01-21,23.46811,121.37407,3.6458718e-09
C0B040,大武崙,2018-01-21,25.166676,121.706993,9.992718e-05
C1Z030,紅葉,2018-01-21,23.493119,121.338806,3.302861e-09
C1I050,丹大,2018-01-21,23.753747,121.141147,1.5468785e-08
C0I080,信義,2018-01-21,23.689694,120.851036,1.5627731e-09
C2M920,朴子農改,2018-01-21,23.469889,120.259383,1.0909952e-06
C2A880,福隆,2018-01-21,25.017842,121.942083,5.456323e-07
C0Z160,鳳林,2018-01-21,23.746114,121.453411,4.043772e-09
C0V210,復興,2018-01-21,23.222403,120.806089,2.6889024e-09
C0H990,昆陽,2018-01-21,24.121322,121.273642,2.6325136e-08
C0R741,獅子,2018-01-21,22.202308,120.705236,0.9992219
C0S710,鹿野,2018-01-21,22.917711,121.122994,1.6267737e-08
C0I530,小奇萊,2018-01-21,24.131764,121.295717,2.7346465e-08
C2K630,荷苞,2018-01-21,23.657717,120.595144,1.5057476e-09
C0Z080,富源,2018-01-21,23.587642,121.378225,3.1227292e-09
467441,高雄,2018-01-21,22.7304,120.3125,1.1948358e-08
C0SB10,美和,2018-01-21,22.682078,121.060236,2.1346078e-09
C2K620,馬光農場,2018-01-21,23.721453,120.378864,8.6951815e-08
C1I140,卡奈托灣,2018-01-21,23.754364,121.087872,6.9977073e-09
C0I520,玉山風口,2018-01-21,23.470489,120.955994,3.770765e-08
C1G691,下水埔,2018-01-21,23.816114,120.5676,1.2895572e-08
C0X110,臺南市南區,2018-01-21,22.961189,120.188378,8.921589e-07
C0V680,仁武,2018-01-21,22.701083,120.347722,2.8051197e-08
C2G840,北斗,2018-01-21,23.877586,120.514222,3.770578e-08
C0R900,竹坑,2018-01-21,22.1385,120.7022,0.9997926
C0K250,崙背,2018-01-21,23.75555,120.318925,1.6223402e-06
C0G860,社頭,2018-01-21,23.897647,120.5862,1.2925417e-08
C0X150,安定,2018-01-21,23.102614,120.227839,5.3676285e-07
C0R590,里港,2018-01-21,22.77919,120.49459,2.2166877e-09
C0E610,馬都安,2018-01-21,24.451272,120.930192,6.195913e-09
C0E550,明德,2018-01-21,24.583486,120.885411,7.643584e-08
C0R150,三地門,2018-01-21,22.709889,120.639944,2.302745e-09
C0G910,花壇,2018-01-21,24.032076,120.549461,2.3326647e-08
C1D400,鳥嘴山,2018-01-21,24.71909,121.28387,8.745959e-09
C0K500,元長,2018-01-21,23.64981,120.315024,2.9981359e-06
C0F0B0,石岡,2018-01-21,24.276061,120.777644,7.5020195e-09
C2V250,甲仙,2018-01-21,23.080106,120.591758,1.455007e-09
C0SA20,金崙山,2018-01-21,22.567419,120.959667,7.93097e-09
C0V350,溪埔,2018-01-21,22.738578,120.446797,1.8783455e-09
C0M660,溪口,2018-01-21,23.604131,120.403569,4.867787e-08
C1S880,壽卡,2018-01-21,22.238911,120.858903,1.9021002e-07
72D680,桃改新埔分場,2018-01-21,24.834444,121.066111,9.1987225e-05
