站號,站名,日期,lat,lon,BlastGRU-TW
466881,新北,2018-12-25,24.9593,121.52,0.043441053
466900,淡水,2018-12-25,25.164889,121.448906,0.013704629
466920,臺北,2018-12-25,25.037658,121.514853,0.054583784
467441,高雄,2018-12-25,22.7304,120.3125,0.29681137
467480,嘉義,2018-12-25,23.495925,120.432906,0.021136533
467490,臺中,2018-12-25,24.145736,120.684075,0.0036856078
C0A530,坪林,2018-12-25,24.938183,121.70975,0.37553054
C0A540,四堵,2018-12-25,24.8926,121.745736,0.070293084
C0A550,泰平,2018-12-25,24.971197,121.823711,0.16545272
C0A890,雙溪,2018-12-25,25.036003,121.864242,0.06725743
C0A920,富貴角,2018-12-25,25.263783,121.565258,0.0053023905
C0A931,三和,2018-12-25,25.233153,121.595236,0.11602117
C0AC70,信義,2018-12-25,25.037822,121.564597,0.054583784
C0AC80,文山,2018-12-25,25.00235,121.575728,0.030940654
C0ACA0,新莊,2018-12-25,25.051478,121.446756,0.022303231
C0AH50,林口,2018-12-25,25.072181,121.38084,0.03129557
C0AH70,松山,2018-12-25,25.04871,121.55042,0.054583784
C0AH80,深坑,2018-12-25,25.002703,121.628328,0.030940654
C0AJ60,六塊厝,2018-12-25,25.24,121.4481,0.015331176
C0AJ70,田寮,2018-12-25,25.2698,121.4886,0.007726353
