站號,站名,日期,lat,lon,BlastGRU-TW
12J990,口湖工作站,2018-10-20,23.589978,120.180394,0.7974749
12Q970,東港工作站,2018-10-20,22.479997,120.466058,0.8400658
12Q980,恆春工作站,2018-10-20,22.079678,120.714425,0.2440443
466881,新北,2018-10-20,24.9593,121.52,0.7003783
466900,淡水,2018-10-20,25.164889,121.448906,0.8895755
466920,臺北,2018-10-20,25.037658,121.514853,0.74217373
466940,基隆,2018-10-20,25.133314,121.740475,0.9321623
466990,花蓮,2018-10-20,23.975128,121.613275,0.4146474
467050,新屋,2018-10-20,25.006744,121.047486,0.55202484
467060,蘇澳,2018-10-20,24.596736,121.857372,0.014426284
467080,宜蘭,2018-10-20,24.763975,121.756528,0.26399207
467270,田中,2018-10-20,23.873803,120.581286,0.46853265
467300,東吉島,2018-10-20,23.25695,119.667467,0.3278112
467350,澎湖,2018-10-20,23.565503,119.563094,0.009612257
467410,臺南,2018-10-20,22.993239,120.204772,0.8567326
467420,永康,2018-10-20,23.038386,120.2367,0.85704756
467441,高雄,2018-10-20,22.7304,120.3125,0.86597633
467480,嘉義,2018-10-20,23.495925,120.432906,0.77564335
467490,臺中,2018-10-20,24.145736,120.684075,0.7034816
467540,大武,2018-10-20,22.355675,120.903789,0.316314
467571,新竹,2018-10-20,24.827853,121.014219,0.5476177
467590,恆春,2018-10-20,22.003897,120.746339,0.28401273
467610,成功,2018-10-20,23.097486,121.373428,0.9296943
467620,蘭嶼,2018-10-20,22.036969,121.558339,0.5794552
467660,臺東,2018-10-20,22.752211,121.154586,0.8310006
467790,墾丁雷達站,2018-10-20,21.948235,120.808028,0.31669626
72AI40,桃改臺北分場,2018-10-20,24.944503,121.386972,0.7322399
72C440,桃園農改場,2018-10-20,24.950944,121.030583,0.5467413
72D680,新埔,2018-10-20,24.834444,121.066111,0.674891
72G600,臺中農改場,2018-10-20,24.003028,120.534389,0.70720965
72K220,雲林分場,2018-10-20,23.634556,120.477333,0.58401614
72L140,朴子分場,2018-10-20,23.4982,120.2414,0.83866644
72M360,義竹工作站,2018-10-20,23.360694,120.279361,0.85075617
72M700,嘉義分場,2018-10-20,23.416869,120.283061,0.8710203
72N100,臺南農改場,2018-10-20,23.0605,120.342194,0.87231195
72N240,七股研究中心,2018-10-20,23.081672,120.062894,0.824363
72Q010,高雄農改場,2018-10-20,22.709333,120.525889,0.70733917
72S200,斑鳩分場,2018-10-20,22.829528,121.077694,0.7848004
72S590,賓朗果園,2018-10-20,22.813889,121.071278,0.75629175
72T250,花蓮農改場,2018-10-20,23.975222,121.563889,0.49811408
72U480,蘭陽分場,2018-10-20,24.686306,121.716583,0.1317751
72V140,旗南,2018-10-20,22.857861,120.516667,0.66061026
82A750,文山分場,2018-10-20,24.955778,121.631222,0.9819738
82C160,茶改場(楊梅),2018-10-20,24.908472,121.185333,0.6120457
82H840,凍頂工作站,2018-10-20,23.762528,120.7405,0.4042271
82S580,龍田,2018-10-20,22.907694,121.130139,0.97264194
A0K420,麥寮,2018-10-20,23.7988,120.2177,0.84224576
A0W080,吉貝,2018-10-20,23.74,119.6042,0.0025389895
A2C560,農工中心,2018-10-20,24.985917,121.239833,0.46298346
A2K360,臺西分所,2018-10-20,23.717231,120.190522,0.80586106
A2K570,古坑(花卉中心),2018-10-20,23.633531,120.552392,0.58326143
A2K630,臺大雲林校區,2018-10-20,23.730628,120.423903,0.67424655
A2N290,臺南蘭花園區,2018-10-20,23.340258,120.379661,0.81665057
B2E890,新竹畜試,2018-10-20,24.527806,120.770972,0.16619697
B2N890,畜產試驗所,2018-10-20,23.058972,120.336406,0.87231195
B2Q810,恆春分所,2018-10-20,21.945583,120.802167,0.271548
B2U990,宜蘭畜試,2018-10-20,24.669039,121.832561,0.10583829
C0A520,山佳,2018-10-20,24.974944,121.402008,0.7322399
C0A530,坪林,2018-10-20,24.938183,121.70975,0.9933869
C0A540,四堵,2018-10-20,24.8926,121.745736,0.87798023
C0A550,泰平,2018-10-20,24.971197,121.823711,0.9767219
C0A560,福山,2018-10-20,24.776203,121.502811,0.9819738
C0A570,桶後,2018-10-20,24.848222,121.597992,0.9061185
C0A640,石碇,2018-10-20,24.993969,121.662917,0.97621226
C0A650,火燒寮,2018-10-20,25.002719,121.742892,0.98916066
C0A660,瑞芳,2018-10-20,25.113169,121.801147,0.825075
C0A770,科教館,2018-10-20,25.096356,121.516507,0.8099991
C0A860,大坪,2018-10-20,25.165914,121.632969,0.8523605
C0A880,福隆,2018-10-20,25.017842,121.942083,0.3372484
C0A890,雙溪,2018-10-20,25.036003,121.864242,0.91893214
C0A920,富貴角,2018-10-20,25.263783,121.565258,0.5524372
C0A931,三和,2018-10-20,25.233153,121.595236,0.99064994
C0A940,金山,2018-10-20,25.223628,121.643967,0.7751031
C0A950,鼻頭角,2018-10-20,25.129036,121.923372,0.2924846
C0A970,三貂角,2018-10-20,25.007606,122.002058,0.704588
C0A980,社子,2018-10-20,25.109508,121.469681,0.8318919
C0A9C0,天母,2018-10-20,25.117494,121.537169,0.76002777
C0A9F0,內湖,2018-10-20,25.079422,121.57545,0.7421738
C0AC60,三峽,2018-10-20,24.939025,121.369728,0.68428004
C0AC70,信義,2018-10-20,25.037822,121.564597,0.7421738
C0AC80,文山,2018-10-20,25.00235,121.575728,0.65848964
C0ACA0,新莊,2018-10-20,25.051478,121.446756,0.9030028
C0AD00,三芝,2018-10-20,25.258131,121.501917,0.6177324
C0AD10,八里,2018-10-20,25.150211,121.403947,0.8895755
C0AD30,蘆洲,2018-10-20,25.086594,121.472331,0.8099991
C0AD40,土城,2018-10-20,24.973208,121.445169,0.7841897
C0AD50,鶯歌,2018-10-20,24.951533,121.346294,0.7243304
C0AG80,中和,2018-10-20,24.991622,121.491792,0.7421738
C0AH00,汐止,2018-10-20,25.066881,121.658778,0.9305852
C0AH10,永和,2018-10-20,25.01125,121.508111,0.76730347
C0AH40,平等,2018-10-20,25.129142,121.577086,0.84581155
C0AH50,林口,2018-10-20,25.072181,121.38084,0.9226477
C0AH70,松山,2018-10-20,25.04871,121.55042,0.7421738
C0AH80,深坑,2018-10-20,25.002703,121.628328,0.65848964
C0AI00,五股,2018-10-20,25.07445,121.42728,0.49129263
C0AI10,屈尺,2018-10-20,24.92184,121.54475,0.65848964
C0AI20,白沙灣,2018-10-20,25.283128,121.519058,0.8309141
C0AI30,三重,2018-10-20,25.057328,121.500629,0.8099991
C0AI40,石牌,2018-10-20,25.115597,121.513139,0.7841897
C0AJ10,澳底,2018-10-20,25.057107,121.927272,0.25762478
C0AJ20,野柳,2018-10-20,25.20703,121.690021,0.9305852
C0AJ30,淡水觀海,2018-10-20,25.184591,121.408616,0.900272
C0AJ40,石門,2018-10-20,25.273672,121.601198,0.30964002
C0AJ50,水湳洞,2018-10-20,25.123695,121.862238,0.9305852
C0AJ60,六塊厝,2018-10-20,25.24,121.4481,0.900272
C0AJ70,田寮,2018-10-20,25.2698,121.4886,0.8518554
C0AJ80,板橋,2018-10-20,25.0107,121.4489,0.7841897
C0B010,七堵,2018-10-20,25.094819,121.71713,0.9259306
C0B020,基隆嶼,2018-10-20,25.19141,121.78391,0.9305852
C0B040,大武崙,2018-10-20,25.166676,121.706993,0.9259306
C0B050,八斗子,2018-10-20,25.144754,121.79167,0.9332774
C0B060,暖暖,2018-10-20,25.0957,121.7403,0.9017527
C0C460,復興,2018-10-20,24.820208,121.352281,0.8881282
C0C480,桃園,2018-10-20,24.992425,121.323172,0.59916323
C0C490,八德,2018-10-20,24.928708,121.283289,0.7731903
C0C590,觀音,2018-10-20,25.027072,121.153317,0.75469947
C0C620,蘆竹,2018-10-20,25.084275,121.265767,0.86518633
C0C630,大溪,2018-10-20,24.882853,121.265547,0.7670531
C0C650,平鎮,2018-10-20,24.897503,121.214636,0.6120457
C0C660,楊梅,2018-10-20,24.912375,121.143047,0.41064215
C0C670,龍潭,2018-10-20,24.870056,121.221389,0.20655802
C0C680,龜山,2018-10-20,25.02846,121.38656,0.90090376
C0C700,中壢,2018-10-20,24.977661,121.256375,0.581221
C0C710,大溪永福,2018-10-20,24.892936,121.324975,0.4346037
C0C720,竹圍,2018-10-20,25.112692,121.239824,0.8918792
C0C730,中大臨海站,2018-10-20,24.966126,121.008581,0.5544237
C0C740,觀音工業區,2018-10-20,25.064764,121.114856,0.46605083
C0C750,新興坑尾,2018-10-20,25.0061,121.0971,0.40432534
C0D390,關西,2018-10-20,24.7977,121.1732,0.6738171
C0D430,峨眉,2018-10-20,24.6905,121.017189,0.6991015
C0D480,打鐵坑,2018-10-20,24.849664,121.150789,0.5746359
C0D540,橫山,2018-10-20,24.71116,121.11693,0.15292154
C0D560,竹東,2018-10-20,24.767147,121.057881,0.60522807
C0D580,寶山,2018-10-20,24.735006,121.025192,0.32626846
C0D590,新豐,2018-10-20,24.87068,120.97721,0.22933888
C0D650,湖口,2018-10-20,24.904794,121.043628,0.5330894
C0D660,新竹市東區,2018-10-20,24.798681,120.986942,0.52702767
C0D670,海天一線,2018-10-20,24.831986,120.914438,0.60734016
C0D680,香山濕地,2018-10-20,24.783581,120.914988,0.6014804
C0D690,外湖,2018-10-20,24.917735,120.968711,0.5544237
C0E420,竹南,2018-10-20,24.708978,120.888897,0.580994
C0E430,南庄,2018-10-20,24.601775,121.000214,0.40497687
C0E520,大湖,2018-10-20,24.41494,120.87087,0.42950636
C0E540,後龍,2018-10-20,24.606489,120.783933,0.24788308
C0E550,明德,2018-10-20,24.583486,120.885411,0.20492256
C0E590,通霄,2018-10-20,24.471892,120.704622,0.2871798
C0E730,頭份,2018-10-20,24.688247,120.912206,0.580994
C0E740,造橋,2018-10-20,24.637056,120.864778,0.28799713
C0E750,苗栗,2018-10-20,24.564569,120.824575,0.12526986
C0E780,銅鑼,2018-10-20,24.489681,120.790853,0.39013076
C0E791,卓蘭,2018-10-20,24.3126,120.8244,0.6719566
C0E810,西湖,2018-10-20,24.562947,120.7485,0.16731796
C0E820,獅潭,2018-10-20,24.539133,120.920042,0.4135658
C0E830,苑裡,2018-10-20,24.439714,120.653053,0.71503025
C0E850,大河,2018-10-20,24.618069,120.948578,0.1639691
C0E870,高鐵苗栗,2018-10-20,24.60725,120.826094,0.21737248
C0E910,海埔,2018-10-20,24.648767,120.772435,0.42886683
C0E920,通霄漁港,2018-10-20,24.498589,120.673876,0.47537816
C0E930,龍鳳,2018-10-20,24.700034,120.859125,0.3496192
C0F000,大肚,2018-10-20,24.15295,120.572117,0.28406444
C0F0B0,石岡,2018-10-20,24.276061,120.777644,0.34363478
C0F850,東勢,2018-10-20,24.246428,120.833047,0.675799
C0F930,大甲,2018-10-20,24.347667,120.640403,0.70450026
C0F970,大坑,2018-10-20,24.173142,120.722289,0.67321855
C0F9A0,中竹林,2018-10-20,24.103556,120.751061,0.3117181
C0F9I0,神岡,2018-10-20,24.272481,120.658314,0.5976059
C0F9K0,大安,2018-10-20,24.345061,120.588025,0.74394685
C0F9L0,后里,2018-10-20,24.310436,120.729725,0.5359792
C0F9M0,豐原,2018-10-20,24.254322,120.720692,0.57448643
C0F9N0,大里,2018-10-20,24.092464,120.701378,0.74044937
C0F9O0,潭子,2018-10-20,24.213106,120.703933,0.5637959
C0F9P0,清水,2018-10-20,24.312297,120.562242,0.75080913
C0F9Q0,外埔,2018-10-20,24.347817,120.705686,0.6107319
C0F9R0,龍井,2018-10-20,24.184536,120.528972,0.73443395
C0F9S0,烏日,2018-10-20,24.107058,120.624103,0.7363476
C0F9T0,西屯,2018-10-20,24.179494,120.641275,0.69221884
C0F9U0,南屯,2018-10-20,24.137006,120.637969,0.74044937
C0F9X0,大雅(中科園區),2018-10-20,24.21528,120.62445,0.5328588
C0FA10,松柏,2018-10-20,24.429115,120.617482,0.7334452
C0FA20,溫寮,2018-10-20,24.372177,120.583125,0.7334452
C0FA30,梧棲,2018-10-20,24.256003,120.523381,0.73443395
C0FA40,臺中電廠,2018-10-20,24.2146,120.4907,0.73443395
C0FA50,霧峰,2018-10-20,24.0419,120.6995,0.6803899
C0G620,芬園,2018-10-20,24.015678,120.6213,0.67053705
C0G640,鹿港,2018-10-20,24.0753,120.430481,0.689978
C0G650,員林,2018-10-20,23.946503,120.585597,0.68874645
C0G660,溪湖,2018-10-20,23.94835,120.479122,0.7354284
C0G720,溪州,2018-10-20,23.851589,120.499093,0.514368
C0G730,二林,2018-10-20,23.903325,120.376081,0.7390489
C0G740,大城,2018-10-20,23.852487,120.320935,0.74359846
C0G770,福興,2018-10-20,24.041289,120.437669,0.689978
C0G780,秀水,2018-10-20,24.03405,120.503869,0.7149034
C0G800,埔鹽,2018-10-20,24.000394,120.431683,0.689978
C0G810,埔心,2018-10-20,23.947633,120.525456,0.7275567
C0G820,田尾,2018-10-20,23.901669,120.509389,0.7205853
C0G830,埤頭,2018-10-20,23.866003,120.452806,0.5333643
C0G840,北斗,2018-10-20,23.877586,120.514222,0.7205853
C0G860,社頭,2018-10-20,23.897647,120.5862,0.6807406
C0G870,芳苑,2018-10-20,23.922303,120.320025,0.751764
C0G880,二水,2018-10-20,23.810742,120.6173,0.413212
C0G890,伸港,2018-10-20,24.148933,120.484403,0.74182695
C0G900,線西,2018-10-20,24.143358,120.443536,0.74624383
C0G910,花壇,2018-10-20,24.032076,120.549461,0.6997376
C0G920,永靖,2018-10-20,23.924703,120.547533,0.7205853
C0G940,竹塘,2018-10-20,23.848253,120.386764,0.6003484
C0G950,防潮門,2018-10-20,24.1835,120.4871,0.7394648
C0G960,福寶,2018-10-20,24.0443,120.3814,0.69773704
C0G970,三豐,2018-10-20,23.882,120.2895,0.751764
C0H890,埔里,2018-10-20,23.972169,120.952425,0.7031565
C0H950,中寮,2018-10-20,23.884447,120.766406,0.27426028
C0H960,草屯,2018-10-20,23.973672,120.68085,0.37797195
C0I110,竹山,2018-10-20,23.761225,120.688156,0.28836566
C0I360,水里,2018-10-20,23.812553,120.849792,0.2552822
C0I380,集集,2018-10-20,23.828206,120.801467,0.2578497
C0I410,名間,2018-10-20,23.837053,120.701447,0.42348814
C0I420,國姓,2018-10-20,24.037803,120.855072,0.2848104
C0I460,南投,2018-10-20,23.911469,120.687331,0.32960993
C0K250,崙背,2018-10-20,23.75555,120.318925,0.7798021
C0K280,四湖,2018-10-20,23.630414,120.227125,0.81122696
C0K291,宜梧,2018-10-20,23.536281,120.169329,0.8436323
C0K330,虎尾,2018-10-20,23.719183,120.442036,0.6665078
C0K390,土庫,2018-10-20,23.679029,120.395574,0.67424655
C0K400,斗六,2018-10-20,23.720583,120.541127,0.556833
C0K410,北港,2018-10-20,23.573957,120.292802,0.83840865
C0K420,西螺,2018-10-20,23.800407,120.467394,0.5018656
C0K430,褒忠,2018-10-20,23.690938,120.303634,0.84224576
C0K440,二崙,2018-10-20,23.772797,120.408944,0.5906239
C0K450,大埤,2018-10-20,23.646074,120.431537,0.650361
C0K460,斗南,2018-10-20,23.678734,120.478359,0.5748674
C0K470,林內,2018-10-20,23.748675,120.609642,0.5280177
C0K480,莿桐,2018-10-20,23.761192,120.502372,0.49300936
C0K500,元長,2018-10-20,23.64981,120.315024,0.834102
C0K510,水林,2018-10-20,23.572924,120.24597,0.79107577
C0K530,臺西,2018-10-20,23.701547,120.197559,0.7966941
C0K550,蔦松,2018-10-20,23.514319,120.229736,0.83866644
C0K560,棋山,2018-10-20,23.68645,120.603417,0.6169554
C0K580,高鐵雲林,2018-10-20,23.737456,120.417944,0.67424655
C0K590,雲林東勢,2018-10-20,23.674192,120.255721,0.84224576
C0K600,箔子寮,2018-10-20,23.6197,120.14,0.7974749
C0M410,馬頭山,2018-10-20,23.324361,120.582017,0.3310421
C0M520,東後寮,2018-10-20,23.369908,120.248065,0.82335913
C0M640,中埔,2018-10-20,23.42538,120.5229,0.5619951
C0M650,朴子,2018-10-20,23.43463,120.23902,0.8549732
C0M660,溪口,2018-10-20,23.604131,120.403569,0.77544814
C0M670,大林,2018-10-20,23.600616,120.45841,0.7549652
C0M680,太保,2018-10-20,23.455062,120.331455,0.8709882
C0M690,水上,2018-10-20,23.419734,120.388909,0.76812905
C0M700,竹崎,2018-10-20,23.526178,120.555508,0.52883214
C0M710,東石,2018-10-20,23.458927,120.15385,0.83866644
C0M720,番路,2018-10-20,23.464657,120.554156,0.48149157
C0M730,嘉義市東區,2018-10-20,23.457673,120.460531,0.76199156
C0M740,六腳,2018-10-20,23.492871,120.290625,0.8761654
C0M750,布袋,2018-10-20,23.380878,120.167789,0.8549732
C0M760,民雄,2018-10-20,23.551754,120.428457,0.76264584
C0M770,嘉義梅山,2018-10-20,23.585398,120.555587,0.57195574
C0M780,鹿草,2018-10-20,23.41134,120.30835,0.8658004
C0M790,新港,2018-10-20,23.553269,120.345728,0.83208656
C0M800,茶山,2018-10-20,23.299075,120.664767,0.426837
C0M880,好美里,2018-10-20,23.3364,120.138,0.83079505
C0N010,鯤鯓國小,2018-10-20,23.1879,120.0889,0.86744666
C0N020,城西,2018-10-20,23.0568,120.0956,0.8195738
C0N030,四草,2018-10-20,23.0235,120.1116,0.90722793
C0N040,蘆竹溝,2018-10-20,23.2344,120.0961,0.86744666
C0N050,蚵寮,2018-10-20,23.301,120.1104,0.86744666
C0O810,曾文,2018-10-20,23.219681,120.497328,0.7478785
C0O830,北寮,2018-10-20,23.079561,120.495008,0.72483367
C0O840,王爺宮,2018-10-20,23.222064,120.40085,0.74787855
C0O860,大內,2018-10-20,23.11885,120.36083,0.8250156
C0O900,善化,2018-10-20,23.112883,120.297219,0.8791759
C0O930,玉井,2018-10-20,23.126042,120.46055,0.82814723
C0O950,安南,2018-10-20,23.076694,120.144861,0.7981232
C0O960,崎頂,2018-10-20,22.959547,120.369317,0.7611811
C0O970,虎頭埤,2018-10-20,23.021375,120.347878,0.9032914
C0O980,新市,2018-10-20,23.061614,120.298197,0.8791759
C0O990,媽廟,2018-10-20,22.99175,120.293525,0.90104955
C0R150,三地門,2018-10-20,22.709889,120.639944,0.7584345
C0R160,鹽埔,2018-10-20,22.739558,120.530778,0.70733917
C0R170,屏東,2018-10-20,22.660269,120.494072,0.87669605
C0R190,赤山,2018-10-20,22.592333,120.614306,0.7112603
C0R220,潮州,2018-10-20,22.534361,120.54,0.6610276
C0R240,來義,2018-10-20,22.527306,120.625111,0.59260833
C0R260,春日,2018-10-20,22.370361,120.628306,0.6008872
C0R270,琉球嶼,2018-10-20,22.332244,120.362236,0.6015267
C0R280,檳榔,2018-10-20,22.076078,120.836777,0.35062763
C0R320,車城,2018-10-20,22.0744,120.716247,0.2440443
C0R341,牡丹,2018-10-20,22.130036,120.792639,0.61545426
C0R350,貓鼻頭,2018-10-20,21.921774,120.7358,0.29566675
C0R470,高樹,2018-10-20,22.826389,120.600806,0.7393528
C0R480,長治,2018-10-20,22.693128,120.542622,0.7019792
C0R490,九如,2018-10-20,22.7405,120.490503,0.8747592
C0R520,崁頂,2018-10-20,22.514781,120.506914,0.8365752
C0R540,佳冬,2018-10-20,22.419456,120.552375,0.8400658
C0R550,新埤,2018-10-20,22.467947,120.582894,0.7161939
C0R560,新園,2018-10-20,22.5434,120.461558,0.83657503
C0R570,麟洛,2018-10-20,22.65078,120.52719,0.8747592
C0R580,南州,2018-10-20,22.48591,120.50274,0.8400658
C0R590,里港,2018-10-20,22.77919,120.49459,0.6841825
C0R620,墾雷,2018-10-20,21.900836,120.855269,0.29566675
C0R640,東港,2018-10-20,22.46247,120.44074,0.8751773
C0R650,竹田,2018-10-20,22.58486,120.54344,0.7196222
C0R660,枋寮,2018-10-20,22.367722,120.590647,0.6705274
C0R670,楓港,2018-10-20,22.190131,120.692156,0.60880625
C0R680,佳樂水,2018-10-20,21.993578,120.861633,0.271548
C0R690,墾丁,2018-10-20,21.966756,120.810269,0.33386514
C0R700,枋山,2018-10-20,22.246844,120.661086,0.60880625
C0R710,龍磐,2018-10-20,21.931672,120.838942,0.3524702
C0R720,旭海,2018-10-20,22.205403,120.887614,0.7536315
C0R730,大坪頂,2018-10-20,22.024633,120.69355,0.40290958
C0R740,獅子,2018-10-20,22.201569,120.70525,0.61259013
C0R760,南仁湖,2018-10-20,22.084681,120.863353,0.32803068
C0R770,保力,2018-10-20,22.071122,120.764111,0.3373783
C0R780,滿州,2018-10-20,22.024403,120.839892,0.30634406
C0R790,九棚,2018-10-20,22.14195,120.889281,0.76675135
C0R800,丹路,2018-10-20,22.204481,120.750989,0.60268116
C0R810,內獅,2018-10-20,22.305064,120.642986,0.5956659
C0R830,高士,2018-10-20,22.121825,120.836781,0.28003904
C0R850,林邊,2018-10-20,22.4634,120.5339,0.8365752
C0R860,鼻頭,2018-10-20,22.1043,120.8979,0.3863052
C0R870,興海,2018-10-20,21.9752,120.8439,0.271548
C0R880,後壁湖,2018-10-20,21.9457,120.7457,0.22960497
C0R890,山海,2018-10-20,21.9878,120.7091,0.2440443
C0R900,竹坑,2018-10-20,22.1385,120.7022,0.6384754
C0R910,下寮,2018-10-20,22.3929,120.5548,0.8400658
C0R920,塭仔,2018-10-20,22.4169,120.5197,0.843494
C0R930,萬丹,2018-10-20,22.5885,120.4851,0.7196222
C0R940,加祿堂,2018-10-20,22.3363,120.6217,0.5956659
C0S710,鹿野,2018-10-20,22.917711,121.122994,0.8930828
C0S730,綠島,2018-10-20,22.6672,121.47533,0.9655689
C0S740,池上,2018-10-20,23.119628,121.209469,0.9456994
C0S770,大溪山,2018-10-20,22.478475,120.943325,0.77394843
C0S790,金崙,2018-10-20,22.538122,120.966875,0.84408766
C0S810,東河,2018-10-20,22.972672,121.303986,0.9758788
C0S830,長濱,2018-10-20,23.286817,121.411975,0.89132696
C0S840,南田,2018-10-20,22.279725,120.889208,0.58943474
C0S890,關山,2018-10-20,23.0395,121.175017,0.98393744
C0S900,蘭嶼高中,2018-10-20,22.04909,121.51214,0.22541115
C0S910,蘭嶼燈塔,2018-10-20,22.081197,121.503117,0.6719655
C0S920,金峰嘉蘭,2018-10-20,22.594789,120.960825,0.5765335
C0S930,延平,2018-10-20,22.902581,121.084058,0.9791946
C0S940,石寧山,2018-10-20,23.223772,121.406639,0.95594966
C0S950,七塊厝,2018-10-20,22.954453,121.229922,0.8846915
C0S960,香蘭,2018-10-20,22.587569,120.993375,0.2281587
C0S970,加津林,2018-10-20,22.416211,120.926942,0.3537663
C0S990,山豬窟,2018-10-20,22.318619,120.857372,0.5461458
C0SA00,歷坵,2018-10-20,22.520969,120.89185,0.7266998
C0SA10,檳榔四格山,2018-10-20,22.810031,121.109308,0.71535206
C0SA30,都歷,2018-10-20,23.020333,121.323642,0.9557081
C0SA40,瑞和,2018-10-20,22.974361,121.156697,0.98299134
C0SA60,知本（水試所）,2018-10-20,22.702394,121.082761,0.45729288
C0SA80,土坂,2018-10-20,22.453108,120.887572,0.74288917
C0SA90,達仁林場,2018-10-20,22.264347,120.823972,0.602763
C0T870,鯉魚潭,2018-10-20,23.935639,121.508944,0.5471783
C0T900,西林,2018-10-20,23.8119,121.441458,0.6969463
C0T960,光復,2018-10-20,23.660694,121.424964,0.526028
C0T9A0,月眉山,2018-10-20,23.809928,121.539828,0.9928807
C0T9D0,和中,2018-10-20,24.26676,121.74103,0.013459054
C0T9E0,大坑,2018-10-20,23.880628,121.581981,0.97185636
C0T9F0,水璉,2018-10-20,23.797131,121.542514,0.92998767
C0T9I0,豐濱,2018-10-20,23.583897,121.514806,0.5330887
C0T9M0,靜浦,2018-10-20,23.455167,121.495028,0.34461096
C0T9N0,富里,2018-10-20,23.171639,121.249378,0.89713496
C0U600,礁溪,2018-10-20,24.817539,121.765608,0.31239703
C0U650,玉蘭,2018-10-20,24.675286,121.587061,0.9941761
C0U750,龜山島,2018-10-20,24.841667,121.953133,0.6424661
C0U760,東澳,2018-10-20,24.52196,121.83318,0.01668904
C0U770,南澳,2018-10-20,24.44935,121.81022,0.00980758
C0U780,五結,2018-10-20,24.68637,121.79794,0.10583829
C0U860,頭城,2018-10-20,24.85323,121.8308,0.26399207
C0U870,大礁溪,2018-10-20,24.791042,121.675047,0.9899611
C0U880,北關,2018-10-20,24.9072,121.8734,0.9046762
C0U890,三星,2018-10-20,24.66812,121.65302,0.87604004
C0U900,內城,2018-10-20,24.71813,121.68766,0.48301598
C0U910,冬山,2018-10-20,24.63373,121.7937,0.10583829
C0U940,羅東,2018-10-20,24.68184,121.74934,0.11789517
C0U970,大福,2018-10-20,24.80064,121.81389,0.22687204
C0U990,員山,2018-10-20,24.74435,121.72247,0.11789517
C0UA00,土場,2018-10-20,24.576533,121.495333,0.8686437
C0UA80,大溪漁港,2018-10-20,24.941801,121.902955,0.31239703
C0UA90,石城,2018-10-20,24.980444,121.951214,0.29598042
C0UB00,淡江大學蘭陽校園,2018-10-20,24.823239,121.730383,0.9612412
C0UB20,壯圍,2018-10-20,24.7359,121.8163,0.09555431
C0V250,甲仙,2018-10-20,23.080106,120.591758,0.42095348
C0V260,月眉,2018-10-20,22.971003,120.539853,0.732646
C0V310,美濃,2018-10-20,22.898742,120.519153,0.8725267
C0V350,溪埔,2018-10-20,22.738578,120.446797,0.8766911
C0V360,內門,2018-10-20,22.975481,120.466769,0.8309959
C0V370,古亭坑,2018-10-20,22.893178,120.401947,0.8729391
C0V400,阿公店,2018-10-20,22.804194,120.355528,0.8796297
C0V440,鳳山,2018-10-20,22.646653,120.356122,0.8699216
C0V450,鳳森,2018-10-20,22.545064,120.392592,0.7007151
C0V490,新興,2018-10-20,22.627422,120.298803,0.8739702
C0V530,阿蓮,2018-10-20,22.883208,120.327508,0.91074145
C0V610,梓官,2018-10-20,22.760558,120.267211,0.8780435
C0V620,永安,2018-10-20,22.82315,120.236856,0.83546454
C0V630,茄萣,2018-10-20,22.906642,120.182608,0.85566735
C0V640,湖內,2018-10-20,22.887139,120.2445,0.8608533
C0V650,彌陀,2018-10-20,22.783806,120.246361,0.83546454
C0V660,岡山,2018-10-20,22.797078,120.294958,0.8780435
C0V680,仁武,2018-10-20,22.701083,120.347722,0.86823905
C0V690,鼓山,2018-10-20,22.623325,120.275575,0.8739702
C0V700,三民,2018-10-20,22.645017,120.311233,0.8739702
C0V710,苓雅,2018-10-20,22.622742,120.330669,0.8739702
C0V720,林園,2018-10-20,22.507747,120.394511,0.8739702
C0V730,大寮,2018-10-20,22.605614,120.395717,0.7189397
C0V740,旗山,2018-10-20,22.888614,120.483597,0.87056947
C0V750,路竹,2018-10-20,22.854997,120.259439,0.89239526
C0V760,橋頭,2018-10-20,22.757806,120.30575,0.8823721
C0V770,大社,2018-10-20,22.730306,120.346639,0.86823905
C0V790,萬山,2018-10-20,22.905944,120.688056,0.523017
C0V800,六龜,2018-10-20,22.997889,120.633583,0.7709629
C0V810,左營,2018-10-20,22.67491,120.28491,0.86597633
C0V820,小林,2018-10-20,23.148408,120.63325,0.49632722
C0V840,鳳鼻頭,2018-10-20,22.5083,120.3591,0.8751773
C0V850,蚵仔寮,2018-10-20,22.7256,120.2527,0.86408454
C0V860,南寮,2018-10-20,22.7616,120.2339,0.82955664
C0V870,文安,2018-10-20,22.8025,120.2164,0.82955664
C0V880,興達,2018-10-20,22.8778,120.2127,0.85566735
C0V890,前鎮,2018-10-20,22.5718,120.3117,0.8751773
C0V900,汕尾,2018-10-20,22.4782,120.4151,0.8776486
C0X050,東河,2018-10-20,23.296598,120.385608,0.81665057
C0X060,下營,2018-10-20,23.22695,120.256261,0.8693086
C0X080,佳里,2018-10-20,23.173039,120.145086,0.83079517
C0X100,臺南市北區,2018-10-20,23.010394,120.194228,0.8566884
C0X110,臺南市南區,2018-10-20,22.961189,120.188378,0.85704756
C0X120,麻豆,2018-10-20,23.183289,120.248611,0.8263039
C0X130,官田,2018-10-20,23.193217,120.315422,0.8608796
C0X140,西港,2018-10-20,23.125608,120.203108,0.85375637
C0X150,安定,2018-10-20,23.102614,120.227839,0.8292084
C0X160,仁德,2018-10-20,22.968258,120.257689,0.9022636
C0X170,關廟,2018-10-20,22.963017,120.327797,0.8974053
C0X180,山上,2018-10-20,23.0757,120.363253,0.8054844
C0X190,安平,2018-10-20,22.993161,120.152181,0.8566884
C0X200,左鎮,2018-10-20,23.056758,120.408522,0.8100979
C0X210,白河,2018-10-20,23.347466,120.414427,0.81120455
C0X220,學甲,2018-10-20,23.230367,120.182187,0.8263037
C0X230,鹽水,2018-10-20,23.272621,120.247641,0.8197628
C0X240,關子嶺,2018-10-20,23.331169,120.508025,0.40098336
C0X250,新營,2018-10-20,23.310689,120.316681,0.8640125
C0X260,後壁,2018-10-20,23.366358,120.362326,0.7868677
C0X280,將軍,2018-10-20,23.214999,120.13577,0.83079505
C0X290,北門,2018-10-20,23.267772,120.125481,0.83079505
C0X300,鹿寮,2018-10-20,23.386047,120.477331,0.6532991
C0X310,七股,2018-10-20,23.147289,120.086253,0.86263984
C0X320,柳營,2018-10-20,23.253328,120.375253,0.81665057
C0Z020,明里,2018-10-20,23.208717,121.262342,0.90365916
C0Z061,玉里,2018-10-20,23.3215,121.339656,0.9714127
C0Z070,舞鶴,2018-10-20,23.46811,121.37407,0.90480703
C0Z080,富源,2018-10-20,23.587642,121.378225,0.87313986
C0Z100,東華,2018-10-20,23.89525,121.549833,0.2199688
C0Z150,吉安光華,2018-10-20,23.930925,121.595153,0.18033342
C0Z160,鳳林,2018-10-20,23.746114,121.453411,0.47118372
C0Z170,卓溪,2018-10-20,23.3443,121.3029,0.9624483
C0Z180,新城,2018-10-20,24.03946,121.60454,0.4678022
C0Z190,富世,2018-10-20,24.14743,121.6297,0.12059802
C0Z200,萬榮,2018-10-20,23.709219,121.420106,0.5471783
C0Z210,瑞穗,2018-10-20,23.5239,121.39021,0.45507187
C0Z230,和平,2018-10-20,24.30717,121.77007,0.013459054
C0Z270,蕃薯寮,2018-10-20,23.73835,121.540108,0.72829473
C0Z280,德武,2018-10-20,23.47426,121.41071,0.78645724
C0Z300,東里,2018-10-20,23.26853,121.30547,0.9674808
C0Z310,清水斷崖,2018-10-20,24.218294,121.689142,0.030600993
C0Z330,安通山,2018-10-20,23.290728,121.348528,0.88603187
CAA010,國一N013K,2018-10-20,25.06944,121.6281,0.72176325
CAA020,國一S026K,2018-10-20,25.07639,121.4964,0.8099991
CAA030,國三S010K,2018-10-20,25.08,121.6475,0.7421738
CAA040,國三S016K,2018-10-20,25.03306,121.6158,0.6453167
CAA050,國三S037K,2018-10-20,24.9828,121.471,0.72176325
CAA060,國三S042K,2018-10-20,24.96,121.4306,0.70996314
CAA070,國三N046K,2018-10-20,24.95083,121.3958,0.7322399
CAA080,國三S054K,2018-10-20,24.93917,121.3239,0.6176991
CAA090,國三A005K,2018-10-20,25.00194,121.5975,0.7003783
CAAH60,大安森林,2018-10-20,25.02955,121.53628,0.76730347
CAB010,國一S001K,2018-10-20,25.11583,121.7286,0.92301416
CAB020,國一S006K,2018-10-20,25.08694,121.6869,0.9286748
CAB030,國三S004K,2018-10-20,25.11444,121.6886,0.7888197
CAB040,國三S007K,2018-10-20,25.09694,121.6678,0.9017527
CAB050,國三K002K,2018-10-20,25.14583,121.7217,0.9017527
CAC010,國一S072K,2018-10-20,24.89583,121.1342,0.31442365
CAC020,國二E009K,2018-10-20,25.02111,121.2736,0.61448056
CAC030,國三N063K,2018-10-20,24.889,121.26,0.76891506
CAC050,西濱S023K,2018-10-20,25.11649,121.27551,0.8895755
CAC060,西濱S032K,2018-10-20,25.091966,121.192505,0.900272
CAD010,國一S105K,2018-10-20,24.726316,120.940643,0.58830285
CAD020,國一N077K,2018-10-20,24.885,121.0889,0.42784864
CAD030,國一S082K,2018-10-20,24.87667,121.0467,0.5201093
CAD040,國一S088K,2018-10-20,24.84444,121.0214,0.5476179
CAD050,國一N094K,2018-10-20,24.79778,121.0089,0.51470447
CAD060,國一S098K,2018-10-20,24.76056,120.9911,0.51470447
CAD070,國三N076K,2018-10-20,24.800303,121.195739,0.5451127
CAD080,國三N085K,2018-10-20,24.78333,121.1211,0.16477482
CAD090,國三S103K,2018-10-20,24.75861,120.9608,0.47455925
CAD100,西濱N066K,2018-10-20,24.8956,120.9649,0.5527146
CAD110,西濱S082K,2018-10-20,24.751724,120.905028,0.6014804
CAE010,國一N142K,2018-10-20,24.453119,120.783221,0.15844703
CAE020,國一S114K,2018-10-20,24.668835,120.885811,0.6014804
CAE030,國一S123K,2018-10-20,24.59594,120.86071,0.06086091
CAE040,國一S132K,2018-10-20,24.524506,120.820831,0.08080874
CAE050,國一S152K,2018-10-20,24.375492,120.749184,0.44247994
CAE060,國三N119K,2018-10-20,24.675432,120.847389,0.3291736
CAE070,國三N151K,2018-10-20,24.440218,120.681656,0.686676
CAE080,國三S140K,2018-10-20,24.522345,120.725006,0.22167087
CAE090,國三S156K,2018-10-20,24.39798,120.669487,0.6545391
CAE100,西濱N107K,2018-10-20,24.5958,120.7394,0.16731796
CAE110,西濱S129K,2018-10-20,24.4472,120.6428,0.7281487
CAF010,國一N174K,2018-10-20,24.2049,120.6552,0.67321855
CAF020,國一S162K,2018-10-20,24.295534,120.695976,0.5924218
CAF030,國一S169K,2018-10-20,24.237116,120.688271,0.5637959
CAF040,國一S188K,2018-10-20,24.118546,120.585747,0.728766
CAF050,國三N208K,2018-10-20,24.066147,120.660919,0.728766
CAF060,國三S168K,2018-10-20,24.308519,120.614471,0.72347283
CAF070,國三S173K,2018-10-20,24.27397,120.593079,0.6211795
CAF080,國三S178K,2018-10-20,24.226721,120.589058,0.5087484
CAF090,國四E5K,2018-10-20,24.296465,120.643135,0.67815244
CAF100,西濱N151K,2018-10-20,24.275964,120.547681,0.73443395
CAG010,國一N198K,2018-10-20,24.063889,120.523056,0.6767438
CAG030,國一S207K,2018-10-20,23.988304,120.508092,0.7149034
CAG040,國三N191K,2018-10-20,24.139256,120.5215,0.7277432
CAG050,國三N196K,2018-10-20,24.107155,120.554482,0.7437795
CAG060,國三S202K,2018-10-20,24.092468,120.603256,0.7437795
CAG070,西濱S173K,2018-10-20,24.1081,120.434576,0.69773704
CAG080,西濱S189K,2018-10-20,23.987857,120.369607,0.69856733
CAG090,西濱N210K,2018-10-20,23.843536,120.293236,0.7874698
CAG100,王功漁港,2018-10-20,23.96824,120.32586,0.6985672
CAH010,國三N223K,2018-10-20,23.955116,120.662376,0.39490116
CAH020,國三S217K,2018-10-20,24.00683,120.653214,0.7103365
CAH030,茶改場竹圍站,2018-10-20,23.860083,120.637528,0.2609426
CAHA00,消防署訓練中心,2018-10-20,23.82137,120.72293,0.4172712
CAJ010,國三N252K,2018-10-20,23.77412,120.64061,0.38462672
CAJ020,國一N234K,2018-10-20,23.74633,120.467926,0.5748674
CAJ030,西濱N222K,2018-10-20,23.737734,120.256132,0.84946114
CAJ040,西濱S241K,2018-10-20,23.623426,120.172646,0.7974749
CAJ050,海口故事園區,2018-10-20,23.57543,120.14121,0.7974749
CAL010,國一N250K,2018-10-20,23.610292,120.436867,0.76264584
CAL020,國一S262K,2018-10-20,23.512333,120.403038,0.78025395
CAL030,國一N268K,2018-10-20,23.460833,120.375833,0.78025395
CAL040,國一N273K,2018-10-20,23.416666,120.355,0.81139606
CAL050,國三N279K,2018-10-20,23.596111,120.523333,0.51908475
CAL060,國三S286K,2018-10-20,23.533917,120.484583,0.5909368
CAL070,國三N295K,2018-10-20,23.468598,120.499369,0.6016205
CAL080,國三N303K,2018-10-20,23.428611,120.452416,0.76812905
CAL090,西濱S257K,2018-10-20,23.502278,120.171861,0.83866644
CAL100,西濱S267K,2018-10-20,23.41613,120.162872,0.8549732
CAL110,布袋國中,2018-10-20,23.35893,120.18026,0.82335913
CAN010,國一N288K,2018-10-20,23.30609,120.290033,0.86809343
CAN020,國一S306K,2018-10-20,23.1565,120.239513,0.8263037
CAN030,國一N316K,2018-10-20,23.07309,120.253014,0.8791759
CAN040,國一N323K,2018-10-20,23.00421,120.245922,0.8567326
CAN050,國一N335K,2018-10-20,22.897584,120.269895,0.90549046
CAN060,國三S311K,2018-10-20,23.346388,120.438888,0.80678856
CAN070,國三S329K,2018-10-20,23.212777,120.355833,0.7934534
CAN080,國三N336K,2018-10-20,23.154722,120.345,0.8557331
CAN090,國三S342K,2018-10-20,23.106694,120.327528,0.87472415
CAN100,國三S366K,2018-10-20,22.9077,120.3513,0.8801166
CAN110,西濱S280K,2018-10-20,23.3052,120.14891,0.83079505
CAN120,西濱N304K,2018-10-20,23.103439,120.086694,0.8195738
CAN130,水試所海水繁養殖中心,2018-10-20,23.120802,120.07968,0.824363
CAN140,六官養殖協會,2018-10-20,23.22881,120.29962,0.86445594
CAP010,國一S342K,2018-10-20,22.845555,120.295,0.8780435
CAP020,國一S346K,2018-10-20,22.812222,120.314166,0.8780435
CAP030,國一N351K,2018-10-20,22.765833,120.328888,0.8823721
CAP040,國一N361K,2018-10-20,22.680555,120.328611,0.86597633
CAP050,國三N372K,2018-10-20,22.858611,120.373611,0.87323254
CAP060,國三S385K,2018-10-20,22.767777,120.444444,0.6838874
CAP070,高雄燈塔,2018-10-20,22.6146,120.2647,0.8739702
CAQ010,國三N425K,2018-10-20,22.480277,120.531666,0.8365752
CAQ020,國三S415K,2018-10-20,22.568,120.528,0.72407347
CAQ030,崎峰國小,2018-10-20,22.42565,120.49521,0.8400658
E2K600,四湖植物園,2018-10-20,23.676986,120.163433,0.7966941
E2P980,林試六龜中心,2018-10-20,22.991703,120.645722,0.7702707
E2S390,太麻里分所,2018-10-20,22.5988,120.9811,0.5357714
E2S960,林試太麻里2,2018-10-20,22.598014,120.989761,0.2281587
E2S980,林試太麻里1,2018-10-20,22.598922,120.980044,0.5357714
G2AI50,關渡,2018-10-20,25.11575,121.492,0.8318919
G2F820,農試所(霧峰),2018-10-20,24.031261,120.688133,0.7103365
G2L020,嘉義分所,2018-10-20,23.485028,120.473806,0.6016205
G2M350,溪口農場,2018-10-20,23.58565,120.408111,0.77544814
G2P820,鳳山園試所,2018-10-20,22.646611,120.356083,0.8699216
K2E360,苗栗農改場,2018-10-20,24.495722,120.829111,0.5188689
K2E710,大湖分場,2018-10-20,24.422861,120.871833,0.5253673
K2F750,種苗改良場,2018-10-20,24.225972,120.800917,0.77756006
U2HA50,臺大竹山,2018-10-20,23.756972,120.681556,0.28478116
V2C250,八德合作社,2018-10-20,24.93775,121.266389,0.6813836
V2C260,八德蔬果,2018-10-20,24.978508,121.281819,0.59407574
V2K610,大庄合作社,2018-10-20,23.8068,120.367939,0.75849515
V2K620,麥寮合作社,2018-10-20,23.753836,120.294783,0.78746986
