站號,站名,日期,lat,lon,BlastGRU-TW
466881,新北,2018-11-20,24.9593,121.52,0.01844655
466900,淡水,2018-11-20,25.164889,121.448906,0.009326586
466920,臺北,2018-11-20,25.037658,121.514853,0.019020697
467441,高雄,2018-11-20,22.7304,120.3125,0.73868364
467480,嘉義,2018-11-20,23.495925,120.432906,0.72918487
467490,臺中,2018-11-20,24.145736,120.684075,0.4831127
C0A540,四堵,2018-11-20,24.8926,121.745736,0.0441697
C0A550,泰平,2018-11-20,24.971197,121.823711,0.65882444
C0A560,福山,2018-11-20,24.776203,121.502811,0.58804774
C0A931,三和,2018-11-20,25.233153,121.595236,0.60341924
C0A940,金山,2018-11-20,25.223628,121.643967,0.0057135792
C0A950,鼻頭角,2018-11-20,25.129036,121.923372,0.88685447
C0AD10,八里,2018-11-20,25.150211,121.403947,0.009326582
C0AD30,蘆洲,2018-11-20,25.086594,121.472331,0.010121158
C0AD40,土城,2018-11-20,24.973208,121.445169,0.009770812
C0AI10,屈尺,2018-11-20,24.92184,121.54475,0.017931363
C0AI20,白沙灣,2018-11-20,25.283128,121.519058,0.0064500677
C0AI30,三重,2018-11-20,25.057328,121.500629,0.010121158
C0B010,七堵,2018-11-20,25.094819,121.71713,0.012785908
C0B020,基隆嶼,2018-11-20,25.19141,121.78391,0.013292801
