站號,站名,日期,lat,lon,BlastGRU-TW
466881,新北,2018-07-13,24.9593,121.52,0.7012443
466900,淡水,2018-07-13,25.1649,121.4489,0.726848
466920,臺北,2018-07-13,25.0377,121.5149,0.67921644
466940,基隆,2018-07-13,25.1333,121.7405,0.6232384
466990,花蓮,2018-07-13,23.9751,121.6133,0.043326896
467050,新屋,2018-07-13,25.0067,121.0475,0.8275847
467080,宜蘭,2018-07-13,24.764,121.7565,0.20252337
467270,田中,2018-07-13,23.8738,120.5813,0.7829418
467300,東吉島,2018-07-13,23.2569,119.6675,0.96594924
467350,澎湖,2018-07-13,23.5655,119.5631,0.70674133
467410,臺南,2018-07-13,22.9932,120.2048,0.28279382
467420,永康,2018-07-13,23.0384,120.2367,0.25999427
467441,高雄,2018-07-13,22.7304,120.3125,0.31758973
467480,嘉義,2018-07-13,23.4959,120.4329,0.9967081
467490,臺中,2018-07-13,24.1457,120.6841,0.887429
467540,大武,2018-07-13,22.3557,120.9038,0.16538124
467571,新竹,2018-07-13,24.8279,121.0142,0.9739684
467590,恆春,2018-07-13,22.0039,120.7463,0.7670226
467610,成功,2018-07-13,23.0975,121.3734,0.08704639
467620,蘭嶼,2018-07-13,22.037,121.5583,0.9902099
467660,臺東,2018-07-13,22.7522,121.1546,0.1747967
467790,墾丁雷達站,2018-07-13,21.9482,120.808,0.8290141
C0A520,山佳,2018-07-13,24.9749,121.402,0.7664502
C0A530,坪林,2018-07-13,24.9382,121.7097,0.32399914
C0A540,四堵,2018-07-13,24.8926,121.7457,0.89698255
C0A550,泰平,2018-07-13,24.9712,121.8237,0.26987424
C0A560,福山,2018-07-13,24.7762,121.5028,0.3333243
C0A570,桶後,2018-07-13,24.8482,121.598,0.84526306
C0A640,石碇,2018-07-13,24.994,121.6629,0.30532587
C0A650,火燒寮,2018-07-13,25.0027,121.7429,0.3561772
C0A660,瑞芳,2018-07-13,25.1132,121.8011,0.24758308
C0A770,科教館,2018-07-13,25.0964,121.5165,0.7378995
C0A860,大坪,2018-07-13,25.1659,121.633,0.9882184
C0A880,福隆,2018-07-13,25.0178,121.9421,0.22431557
C0A890,雙溪,2018-07-13,25.036,121.8642,0.6753295
C0A920,富貴角,2018-07-13,25.2638,121.5653,0.8049815
C0A931,三和,2018-07-13,25.2332,121.5952,0.43690887
C0A940,金山,2018-07-13,25.2236,121.644,0.73866874
C0A950,鼻頭角,2018-07-13,25.129,121.9234,0.2217403
C0A970,三貂角,2018-07-13,25.0076,122.0021,0.27085838
C0A980,社子,2018-07-13,25.1095,121.4697,0.7283337
C0A9C0,天母,2018-07-13,25.1175,121.5372,0.75698274
C0A9F0,內湖,2018-07-13,25.0794,121.5755,0.67921644
C0AC60,三峽,2018-07-13,24.939,121.3697,0.712997
C0AC70,信義,2018-07-13,25.0378,121.5646,0.67921644
C0AC80,文山,2018-07-13,25.0023,121.5757,0.7343006
C0ACA0,新莊,2018-07-13,25.0515,121.4468,0.69939387
C0AD00,三芝,2018-07-13,25.2581,121.5019,0.77662516
C0AD10,八里,2018-07-13,25.1502,121.4039,0.726848
C0AD30,蘆洲,2018-07-13,25.0866,121.4723,0.7378995
C0AD40,土城,2018-07-13,24.9732,121.4452,0.7477128
C0AD50,鶯歌,2018-07-13,24.9515,121.3463,0.8005274
C0AG80,中和,2018-07-13,24.9916,121.4918,0.67921644
C0AH00,汐止,2018-07-13,25.0669,121.6588,0.6342023
C0AH10,永和,2018-07-13,25.0113,121.5081,0.6690955
C0AH40,平等,2018-07-13,25.1291,121.5771,0.9681362
C0AH50,林口,2018-07-13,25.0722,121.3808,0.96478504
C0AH70,松山,2018-07-13,25.0487,121.5504,0.67921644
C0AH80,深坑,2018-07-13,25.0027,121.6283,0.72288436
C0AI00,五股,2018-07-13,25.0744,121.4273,0.96854055
C0AI10,屈尺,2018-07-13,24.9218,121.5447,0.7343006
C0AI20,白沙灣,2018-07-13,25.2831,121.5191,0.7187055
C0AI30,三重,2018-07-13,25.0573,121.5006,0.7378995
C0AI40,石牌,2018-07-13,25.1156,121.5131,0.7477128
C0AJ10,澳底,2018-07-13,25.0571,121.9273,0.2199815
C0AJ20,野柳,2018-07-13,25.207,121.69,0.6342023
C0AJ30,淡水觀海,2018-07-13,25.1846,121.4086,0.7172155
C0AJ40,石門,2018-07-13,25.2737,121.6012,0.85103506
C0AJ50,水湳洞,2018-07-13,25.1237,121.8622,0.6342023
C0AJ60,六塊厝,2018-07-13,25.24,121.4481,0.7172155
C0AJ70,田寮,2018-07-13,25.2698,121.4886,0.70848465
C0AJ80,板橋,2018-07-13,25.0107,121.4489,0.7477128
C0B010,七堵,2018-07-13,25.0948,121.7171,0.6545144
C0B020,基隆嶼,2018-07-13,25.1914,121.7839,0.6342023
C0B040,大武崙,2018-07-13,25.1667,121.707,0.6545144
C0B050,八斗子,2018-07-13,25.1448,121.7917,0.614515
C0B060,暖暖,2018-07-13,25.0957,121.7403,0.706253
C0C460,復興,2018-07-13,24.8202,121.3523,0.9854216
C0C480,桃園,2018-07-13,24.9924,121.3232,0.9611414
C0C490,八德,2018-07-13,24.9287,121.2833,0.95994663
C0C590,觀音,2018-07-13,25.0271,121.1533,0.8387782
C0C620,蘆竹,2018-07-13,25.0843,121.2658,0.75023633
C0C630,大溪,2018-07-13,24.8829,121.2655,0.96856236
C0C650,平鎮,2018-07-13,24.8975,121.2146,0.9765509
C0C660,楊梅,2018-07-13,24.9124,121.143,0.97842914
C0C670,龍潭,2018-07-13,24.8701,121.2214,0.97260416
C0C680,龜山,2018-07-13,25.0285,121.3866,0.97310954
C0C700,中壢,2018-07-13,24.9777,121.2564,0.96594614
C0C710,大溪永福,2018-07-13,24.8929,121.325,0.97166806
C0C720,竹圍,2018-07-13,25.1127,121.2398,0.726848
C0C730,中大臨海站,2018-07-13,24.9661,121.0086,0.80270207
C0C740,觀音工業區,2018-07-13,25.0648,121.1149,0.9545283
C0C750,新興坑尾,2018-07-13,25.0061,121.0971,0.9690732
C0D430,峨眉,2018-07-13,24.6905,121.0172,0.9790257
C0D480,打鐵坑,2018-07-13,24.8497,121.1508,0.9733764
C0D540,橫山,2018-07-13,24.7112,121.1169,0.9816508
C0D560,竹東,2018-07-13,24.7671,121.0579,0.9778376
C0D580,寶山,2018-07-13,24.735,121.0252,0.97615016
C0D590,新豐,2018-07-13,24.8707,120.9772,0.9060696
C0D650,湖口,2018-07-13,24.9048,121.0436,0.88402957
C0D660,新竹市東區,2018-07-13,24.7987,120.9869,0.9758739
C0D670,海天一線,2018-07-13,24.832,120.9144,0.9737592
C0D680,香山濕地,2018-07-13,24.7836,120.915,0.974722
C0D690,外湖,2018-07-13,24.9177,120.9687,0.80270207
C0D700,關西,2018-07-13,24.7977,121.1732,0.972555
C0E420,竹南,2018-07-13,24.709,120.8889,0.9772189
C0E430,南庄,2018-07-13,24.6018,121.0002,0.98092514
C0E520,大湖,2018-07-13,24.4149,120.8709,0.9812571
C0E540,後龍,2018-07-13,24.6065,120.7839,0.7122361
C0E550,明德,2018-07-13,24.5835,120.8854,0.8664604
C0E590,通霄,2018-07-13,24.4719,120.7046,0.7579493
C0E730,頭份,2018-07-13,24.6882,120.9122,0.9772189
C0E740,造橋,2018-07-13,24.6371,120.8648,0.7798867
C0E750,苗栗,2018-07-13,24.5646,120.8246,0.76557577
C0E780,銅鑼,2018-07-13,24.4897,120.7909,0.9035534
C0E791,卓蘭,2018-07-13,24.3126,120.8244,0.9832974
C0E810,西湖,2018-07-13,24.5629,120.7485,0.74446476
C0E820,獅潭,2018-07-13,24.5391,120.92,0.8904501
C0E830,苑裡,2018-07-13,24.4397,120.6531,0.6466338
C0E850,大河,2018-07-13,24.6181,120.9486,0.8824447
C0E870,高鐵苗栗,2018-07-13,24.6073,120.8261,0.722833
C0E910,海埔,2018-07-13,24.6488,120.7724,0.7909913
C0E920,通霄漁港,2018-07-13,24.4986,120.6739,0.7014632
C0E930,龍鳳,2018-07-13,24.7,120.8591,0.751411
C0F000,大肚,2018-07-13,24.153,120.5721,0.9363782
C0F0B0,石岡,2018-07-13,24.2761,120.7776,0.9298444
C0F850,東勢,2018-07-13,24.2464,120.833,0.986773
C0F930,大甲,2018-07-13,24.3477,120.6404,0.6965564
C0F970,大坑,2018-07-13,24.1731,120.7223,0.8985377
C0F9A0,中竹林,2018-07-13,24.1036,120.7511,0.9269298
C0F9I0,神岡,2018-07-13,24.2725,120.6583,0.9375853
C0F9K0,大安,2018-07-13,24.3451,120.588,0.5837305
C0F9L0,后里,2018-07-13,24.3104,120.7297,0.9544432
C0F9M0,豐原,2018-07-13,24.2543,120.7207,0.94790727
C0F9N0,大里,2018-07-13,24.0925,120.7014,0.6836699
C0F9O0,潭子,2018-07-13,24.2131,120.7039,0.94460845
C0F9P0,清水,2018-07-13,24.3123,120.5622,0.56117904
C0F9Q0,外埔,2018-07-13,24.3478,120.7057,0.9177397
C0F9R0,龍井,2018-07-13,24.1845,120.529,0.581934
C0F9S0,烏日,2018-07-13,24.1071,120.6241,0.44692126
C0F9T0,西屯,2018-07-13,24.1795,120.6413,0.72889394
C0F9U0,南屯,2018-07-13,24.137,120.638,0.6836699
C0F9X0,大雅(中科園區),2018-07-13,24.2153,120.6244,0.83195424
C0FA10,松柏,2018-07-13,24.4291,120.6175,0.60801625
C0FA20,溫寮,2018-07-13,24.3722,120.5831,0.60801625
C0FA30,梧棲,2018-07-13,24.256,120.5234,0.581934
C0FA40,臺中電廠,2018-07-13,24.2146,120.4907,0.581934
C0FA50,霧峰,2018-07-13,24.0419,120.6995,0.8118323
C0G620,芬園,2018-07-13,24.0157,120.6213,0.7806257
C0G640,鹿港,2018-07-13,24.0753,120.4305,0.45948753
C0G650,員林,2018-07-13,23.9465,120.5856,0.6425367
C0G660,溪湖,2018-07-13,23.9484,120.4791,0.5764921
C0G720,溪州,2018-07-13,23.8516,120.4991,0.7335913
C0G730,二林,2018-07-13,23.9033,120.3761,0.45414245
C0G740,大城,2018-07-13,23.8525,120.3209,0.87765384
C0G770,福興,2018-07-13,24.0413,120.4377,0.45948753
C0G780,秀水,2018-07-13,24.0341,120.5039,0.47515494
C0G800,埔鹽,2018-07-13,24.0004,120.4317,0.45948753
C0G810,埔心,2018-07-13,23.9476,120.5255,0.5956961
C0G820,田尾,2018-07-13,23.9017,120.5094,0.6177452
C0G830,埤頭,2018-07-13,23.866,120.4528,0.668821
C0G840,北斗,2018-07-13,23.8776,120.5142,0.6177452
C0G860,社頭,2018-07-13,23.8976,120.5862,0.66427684
C0G870,芳苑,2018-07-13,23.9223,120.32,0.86027074
C0G880,二水,2018-07-13,23.8107,120.6173,0.9303165
C0G890,伸港,2018-07-13,24.1489,120.4844,0.5923358
C0G900,線西,2018-07-13,24.1434,120.4435,0.63474077
C0G910,花壇,2018-07-13,24.0321,120.5495,0.51949227
C0G920,永靖,2018-07-13,23.9247,120.5475,0.6177452
C0G940,竹塘,2018-07-13,23.8483,120.3868,0.41881505
C0G950,防潮門,2018-07-13,24.1835,120.4871,0.56996524
C0G960,福寶,2018-07-13,24.0443,120.3814,0.44227675
C0G970,三豐,2018-07-13,23.882,120.2895,0.86027086
C0H890,埔里,2018-07-13,23.9722,120.9524,0.9836058
C0H950,中寮,2018-07-13,23.8844,120.7664,0.9895729
C0H960,草屯,2018-07-13,23.9737,120.6809,0.9777115
C0I110,竹山,2018-07-13,23.7612,120.6882,0.98909116
C0I360,水里,2018-07-13,23.8126,120.8498,0.986679
C0I380,集集,2018-07-13,23.8282,120.8015,0.9856073
C0I410,名間,2018-07-13,23.8371,120.7014,0.98507696
C0I420,國姓,2018-07-13,24.0378,120.8551,0.94868875
C0I460,南投,2018-07-13,23.9115,120.6873,0.9859885
C0K250,崙背,2018-07-13,23.7555,120.3189,0.91514146
C0K280,四湖,2018-07-13,23.6304,120.2271,0.8788074
C0K291,宜梧,2018-07-13,23.5363,120.1693,0.63228923
C0K330,虎尾,2018-07-13,23.7192,120.442,0.5196088
C0K390,土庫,2018-07-13,23.679,120.3956,0.4825197
C0K400,斗六,2018-07-13,23.7206,120.5411,0.7628175
C0K410,北港,2018-07-13,23.574,120.2928,0.6932774
C0K420,西螺,2018-07-13,23.8004,120.4674,0.6981445
C0K430,褒忠,2018-07-13,23.6909,120.3036,0.87585825
C0K440,二崙,2018-07-13,23.7728,120.4089,0.4519814
C0K450,大埤,2018-07-13,23.6461,120.4315,0.70442176
C0K460,斗南,2018-07-13,23.6787,120.4784,0.69527984
C0K470,林內,2018-07-13,23.7487,120.6096,0.91586894
C0K480,莿桐,2018-07-13,23.7612,120.5024,0.7325531
C0K500,元長,2018-07-13,23.6498,120.315,0.9207843
C0K510,水林,2018-07-13,23.5729,120.246,0.6193099
C0K530,臺西,2018-07-13,23.7015,120.1976,0.8270464
C0K550,蔦松,2018-07-13,23.5143,120.2297,0.6596865
C0K560,棋山,2018-07-13,23.6865,120.6034,0.7790659
C0K580,高鐵雲林,2018-07-13,23.7375,120.4179,0.4825197
C0K590,雲林東勢,2018-07-13,23.6742,120.2557,0.87585825
C0K600,箔子寮,2018-07-13,23.6197,120.14,0.59154266
C0M410,馬頭山,2018-07-13,23.3244,120.582,0.98723435
C0M520,東後寮,2018-07-13,23.3699,120.2481,0.51768553
C0M640,中埔,2018-07-13,23.4254,120.5229,0.98086536
C0M650,朴子,2018-07-13,23.4346,120.239,0.6795806
C0M660,溪口,2018-07-13,23.6041,120.4036,0.9901368
C0M670,大林,2018-07-13,23.6006,120.4584,0.99465644
C0M680,太保,2018-07-13,23.4551,120.3315,0.7279889
C0M690,水上,2018-07-13,23.4197,120.3889,0.99714535
C0M700,竹崎,2018-07-13,23.5262,120.5555,0.98192424
C0M710,東石,2018-07-13,23.4589,120.1539,0.6596865
C0M720,番路,2018-07-13,23.4647,120.5542,0.9888804
C0M730,嘉義市東區,2018-07-13,23.4577,120.4605,0.9977744
C0M740,六腳,2018-07-13,23.4929,120.2906,0.70024866
C0M750,布袋,2018-07-13,23.3809,120.1678,0.6795806
C0M760,民雄,2018-07-13,23.5518,120.4285,0.993106
C0M770,嘉義梅山,2018-07-13,23.5854,120.5556,0.8983754
C0M780,鹿草,2018-07-13,23.4113,120.3084,0.80780655
C0M790,新港,2018-07-13,23.5533,120.3457,0.72187895
C0M800,茶山,2018-07-13,23.2991,120.6648,0.9867549
C0M880,好美里,2018-07-13,23.3364,120.138,0.49830487
C0N010,鯤鯓國小,2018-07-13,23.1879,120.0889,0.6625121
C0N020,城西,2018-07-13,23.0568,120.0956,0.35106733
C0N030,四草,2018-07-13,23.0235,120.1116,0.20718095
C0N040,蘆竹溝,2018-07-13,23.2344,120.0961,0.6625114
C0N050,蚵寮,2018-07-13,23.301,120.1104,0.6625121
C0O810,曾文,2018-07-13,23.2197,120.4973,0.998803
C0O830,北寮,2018-07-13,23.0796,120.495,0.97808474
C0O840,王爺宮,2018-07-13,23.2221,120.4009,0.998803
C0O860,大內,2018-07-13,23.1188,120.3608,0.9804066
C0O900,善化,2018-07-13,23.1129,120.2972,0.48935366
C0O930,玉井,2018-07-13,23.126,120.4605,0.9957892
C0O950,安南,2018-07-13,23.0767,120.1449,0.27487373
C0O960,崎頂,2018-07-13,22.9595,120.3693,0.92180765
C0O970,虎頭埤,2018-07-13,23.0214,120.3479,0.6496428
C0O980,新市,2018-07-13,23.0616,120.2982,0.48935366
C0O990,媽廟,2018-07-13,22.9917,120.2935,0.38025185
C0R150,三地門,2018-07-13,22.7099,120.6399,0.44939348
C0R160,鹽埔,2018-07-13,22.7396,120.5308,0.7652677
C0R170,屏東,2018-07-13,22.6603,120.4941,0.9117145
C0R190,赤山,2018-07-13,22.5923,120.6143,0.54759485
C0R220,潮州,2018-07-13,22.5344,120.54,0.56785744
C0R240,來義,2018-07-13,22.5273,120.6251,0.3741646
C0R260,春日,2018-07-13,22.3704,120.6283,0.2670529
C0R270,琉球嶼,2018-07-13,22.3322,120.3622,0.29049918
C0R280,檳榔,2018-07-13,22.0761,120.8368,0.98416
C0R320,車城,2018-07-13,22.0744,120.7162,0.70443624
C0R341,牡丹,2018-07-13,22.13,120.7926,0.9346039
C0R350,貓鼻頭,2018-07-13,21.9218,120.7358,0.7881032
C0R470,高樹,2018-07-13,22.8264,120.6008,0.43924007
C0R480,長治,2018-07-13,22.6931,120.5426,0.80321616
C0R490,九如,2018-07-13,22.7405,120.4905,0.92804945
C0R520,崁頂,2018-07-13,22.5148,120.5069,0.84277225
C0R540,佳冬,2018-07-13,22.4195,120.5524,0.81656426
C0R550,新埤,2018-07-13,22.4679,120.5829,0.50330174
C0R560,新園,2018-07-13,22.5434,120.4616,0.84277225
C0R570,麟洛,2018-07-13,22.6508,120.5272,0.9280494
C0R580,南州,2018-07-13,22.4859,120.5027,0.81656426
C0R590,里港,2018-07-13,22.7792,120.4946,0.8337528
C0R620,墾雷,2018-07-13,21.9008,120.8553,0.7881032
C0R640,東港,2018-07-13,22.4625,120.4407,0.5876798
C0R650,竹田,2018-07-13,22.5849,120.5434,0.45538846
C0R660,枋寮,2018-07-13,22.3677,120.5906,0.47970775
C0R670,楓港,2018-07-13,22.1901,120.6922,0.2095386
C0R680,佳樂水,2018-07-13,21.9936,120.8616,0.7460993
C0R690,墾丁,2018-07-13,21.9668,120.8103,0.987221
C0R700,枋山,2018-07-13,22.2468,120.6611,0.2095386
C0R710,龍磐,2018-07-13,21.9317,120.8389,0.938539
C0R720,旭海,2018-07-13,22.2054,120.8876,0.8591357
C0R730,大坪頂,2018-07-13,22.0246,120.6936,0.92395616
C0R740,獅子,2018-07-13,22.2016,120.7053,0.31588233
C0R760,南仁湖,2018-07-13,22.0847,120.8634,0.9907841
C0R770,保力,2018-07-13,22.0711,120.7641,0.8841607
C0R780,滿州,2018-07-13,22.0244,120.8399,0.80865496
C0R790,九棚,2018-07-13,22.142,120.8893,0.7479004
C0R800,丹路,2018-07-13,22.2045,120.751,0.6847762
C0R810,內獅,2018-07-13,22.3051,120.643,0.17130633
C0R830,高士,2018-07-13,22.1218,120.8368,0.9898632
C0R850,林邊,2018-07-13,22.4634,120.5339,0.84277225
C0R860,鼻頭,2018-07-13,22.1043,120.8979,0.90789825
C0R870,興海,2018-07-13,21.9752,120.8439,0.7460993
C0R880,後壁湖,2018-07-13,21.9457,120.7457,0.6840182
C0R890,山海,2018-07-13,21.9878,120.7091,0.70443624
C0R900,竹坑,2018-07-13,22.1385,120.7022,0.37981555
C0R910,下寮,2018-07-13,22.3929,120.5548,0.81656426
C0R920,塭仔,2018-07-13,22.4169,120.5197,0.78415114
C0R930,萬丹,2018-07-13,22.5885,120.4851,0.45538846
C0R940,加祿堂,2018-07-13,22.3363,120.6217,0.17130633
C0S710,鹿野,2018-07-13,22.9177,121.123,0.9737917
C0S730,綠島,2018-07-13,22.6672,121.4753,0.09945704
C0S740,池上,2018-07-13,23.1196,121.2095,0.7313796
C0S770,大溪山,2018-07-13,22.4785,120.9433,0.96167666
C0S790,金崙,2018-07-13,22.5381,120.9669,0.69295067
C0S810,東河,2018-07-13,22.9727,121.304,0.07386632
C0S830,長濱,2018-07-13,23.2868,121.412,0.99237686
C0S840,南田,2018-07-13,22.2797,120.8892,0.26614523
C0S890,關山,2018-07-13,23.0395,121.175,0.15798087
C0S900,蘭嶼高中,2018-07-13,22.0491,121.5121,0.9697548
C0S910,蘭嶼燈塔,2018-07-13,22.0812,121.5031,0.9860701
C0S920,金峰嘉蘭,2018-07-13,22.5948,120.9608,0.23334864
C0S930,延平,2018-07-13,22.9026,121.0841,0.30408028
C0S940,石寧山,2018-07-13,23.2238,121.4066,0.9199731
C0S950,七塊厝,2018-07-13,22.9545,121.2299,0.9851255
C0S960,香蘭,2018-07-13,22.5876,120.9934,0.15311359
C0S970,加津林,2018-07-13,22.4162,120.9269,0.17097619
C0S990,山豬窟,2018-07-13,22.3186,120.8574,0.96641344
C0SA00,歷坵,2018-07-13,22.521,120.8919,0.96070826
C0SA10,檳榔四格山,2018-07-13,22.81,121.1093,0.9400187
C0SA30,都歷,2018-07-13,23.0203,121.3236,0.09432551
C0SA40,瑞和,2018-07-13,22.9744,121.1567,0.13733831
C0SA60,知本（水試所）,2018-07-13,22.7024,121.0828,0.1571082
C0SA80,土,2018-07-13,22.4531,120.8876,0.3305432
C0SA90,達仁林場,2018-07-13,22.2643,120.824,0.9778807
C0T870,鯉魚潭,2018-07-13,23.9356,121.5089,0.04540755
C0T900,西林,2018-07-13,23.8119,121.4415,0.052869663
C0T960,光復,2018-07-13,23.6607,121.425,0.059182424
C0T9A0,月眉山,2018-07-13,23.8099,121.5398,0.44342336
C0T9D0,和中,2018-07-13,24.2668,121.741,0.093580015
C0T9E0,大坑,2018-07-13,23.8806,121.582,0.1806483
C0T9F0,水璉,2018-07-13,23.7971,121.5425,0.08937263
C0T9I0,豐濱,2018-07-13,23.5839,121.5148,0.06919349
C0T9M0,靜浦,2018-07-13,23.4552,121.495,0.05404194
C0T9N0,富里,2018-07-13,23.1716,121.2494,0.97540367
C0U600,礁溪,2018-07-13,24.8175,121.7656,0.20464072
C0U650,玉蘭,2018-07-13,24.6753,121.5871,0.34608632
C0U750,龜山島,2018-07-13,24.8417,121.9531,0.29183707
C0U760,東澳,2018-07-13,24.522,121.8332,0.124681786
C0U770,南澳,2018-07-13,24.4493,121.8102,0.10699979
C0U780,五結,2018-07-13,24.6864,121.7979,0.27139458
C0U860,頭城,2018-07-13,24.8532,121.8308,0.20252335
C0U870,大礁溪,2018-07-13,24.791,121.675,0.39478016
C0U880,北關,2018-07-13,24.9072,121.8734,0.6663684
C0U890,三星,2018-07-13,24.6681,121.653,0.23054586
C0U900,內城,2018-07-13,24.7181,121.6877,0.21062769
C0U910,冬山,2018-07-13,24.6337,121.7937,0.27139458
C0U940,羅東,2018-07-13,24.6818,121.7493,0.27420938
C0U970,大福,2018-07-13,24.8006,121.8139,0.2008851
C0U990,員山,2018-07-13,24.7444,121.7225,0.27420938
C0UA00,土場,2018-07-13,24.5765,121.4953,0.22681189
C0UA80,大溪漁港,2018-07-13,24.9418,121.903,0.20464079
C0UA90,石城,2018-07-13,24.9804,121.9512,0.24929768
C0UB00,淡江大學蘭陽校園,2018-07-13,24.8232,121.7304,0.2392055
C0UB10,蘇澳,2018-07-13,24.5969,121.8571,0.15627772
C0UB20,壯圍,2018-07-13,24.7359,121.8163,0.2691093
C0V250,甲仙,2018-07-13,23.0801,120.5918,0.9880046
C0V260,月眉,2018-07-13,22.971,120.5399,0.9693112
C0V310,美濃,2018-07-13,22.8987,120.5192,0.97925836
C0V350,溪埔,2018-07-13,22.7386,120.4468,0.7408035
C0V360,內門,2018-07-13,22.9755,120.4668,0.99555
C0V370,古亭坑,2018-07-13,22.8932,120.4019,0.95801365
C0V400,阿公店,2018-07-13,22.8042,120.3555,0.8781059
C0V440,鳳山,2018-07-13,22.6467,120.3561,0.7083711
C0V450,鳳森,2018-07-13,22.5451,120.3926,0.52938026
C0V490,新興,2018-07-13,22.6274,120.2988,0.6288624
C0V530,阿蓮,2018-07-13,22.8832,120.3275,0.2707841
C0V610,梓官,2018-07-13,22.7606,120.2672,0.26565778
C0V620,永安,2018-07-13,22.8231,120.2369,0.1931627
C0V630,茄萣,2018-07-13,22.9066,120.1826,0.15448922
C0V640,湖內,2018-07-13,22.8871,120.2445,0.16341348
C0V650,彌陀,2018-07-13,22.7838,120.2464,0.1931627
C0V660,岡山,2018-07-13,22.7971,120.295,0.2656577
C0V680,仁武,2018-07-13,22.7011,120.3477,0.34563604
C0V690,鼓山,2018-07-13,22.6233,120.2756,0.6288624
C0V700,三民,2018-07-13,22.645,120.3112,0.6288624
C0V710,苓雅,2018-07-13,22.6227,120.3307,0.6288624
C0V720,林園,2018-07-13,22.5077,120.3945,0.6288624
C0V730,大寮,2018-07-13,22.6056,120.3957,0.33063322
C0V740,旗山,2018-07-13,22.8886,120.4836,0.9828739
C0V750,路竹,2018-07-13,22.855,120.2594,0.2935592
C0V760,橋頭,2018-07-13,22.7578,120.3058,0.28645355
C0V770,大社,2018-07-13,22.7303,120.3466,0.34563604
C0V790,萬山,2018-07-13,22.9059,120.6881,0.9868761
C0V800,六龜,2018-07-13,22.9979,120.6336,0.9706784
C0V810,左營,2018-07-13,22.6749,120.2849,0.31758973
C0V820,小林,2018-07-13,23.1484,120.6333,0.98789155
C0V840,鳳鼻頭,2018-07-13,22.5083,120.3591,0.5876798
C0V850,蚵仔寮,2018-07-13,22.7256,120.2527,0.29437003
C0V860,南寮,2018-07-13,22.7616,120.2339,0.18254954
C0V870,文安,2018-07-13,22.8025,120.2164,0.18254954
C0V880,興達,2018-07-13,22.8778,120.2127,0.15448922
C0V890,前鎮,2018-07-13,22.5718,120.3117,0.5876798
C0V900,汕尾,2018-07-13,22.4782,120.4151,0.7235516
C0X050,東河,2018-07-13,23.2966,120.3856,0.98532915
C0X060,下營,2018-07-13,23.2269,120.2563,0.68362004
C0X080,佳里,2018-07-13,23.173,120.1451,0.49830505
C0X100,臺南市北區,2018-07-13,23.0104,120.1942,0.24248315
C0X110,臺南市南區,2018-07-13,22.9612,120.1884,0.25999427
C0X120,麻豆,2018-07-13,23.1833,120.2486,0.5317746
C0X130,官田,2018-07-13,23.1932,120.3154,0.7512639
C0X140,西港,2018-07-13,23.1256,120.2031,0.42951897
C0X150,安定,2018-07-13,23.1026,120.2278,0.3470904
C0X160,仁德,2018-07-13,22.9683,120.2577,0.34270597
C0X170,關廟,2018-07-13,22.963,120.3278,0.48842987
C0X180,山上,2018-07-13,23.0757,120.3633,0.99249476
C0X190,安平,2018-07-13,22.9932,120.1522,0.24248315
C0X200,左鎮,2018-07-13,23.0568,120.4085,0.99095976
C0X210,白河,2018-07-13,23.3475,120.4144,0.9902012
C0X220,學甲,2018-07-13,23.2304,120.1822,0.53177434
C0X230,鹽水,2018-07-13,23.2726,120.2476,0.58120686
C0X240,關子嶺,2018-07-13,23.3312,120.508,0.9864403
C0X250,新營,2018-07-13,23.3107,120.3167,0.6746034
C0X260,後壁,2018-07-13,23.3664,120.3623,0.9675393
C0X280,將軍,2018-07-13,23.215,120.1358,0.49830487
C0X290,北門,2018-07-13,23.2678,120.1255,0.49830487
C0X300,鹿寮,2018-07-13,23.386,120.4773,0.9461842
C0X310,七股,2018-07-13,23.1473,120.0863,0.4936237
C0X320,柳營,2018-07-13,23.2533,120.3753,0.9883289
C0Z020,明里,2018-07-13,23.2087,121.2623,0.9895213
C0Z061,玉里,2018-07-13,23.3215,121.3397,0.7179781
C0Z070,舞鶴,2018-07-13,23.4681,121.3741,0.20830265
C0Z080,富源,2018-07-13,23.5876,121.3782,0.13750343
C0Z100,東華,2018-07-13,23.8953,121.5498,0.03315307
C0Z150,吉安光華,2018-07-13,23.9309,121.5952,0.031622976
C0Z160,鳳林,2018-07-13,23.7461,121.4534,0.055750977
C0Z170,卓溪,2018-07-13,23.3443,121.3029,0.87182796
C0Z180,新城,2018-07-13,24.0395,121.6045,0.04568436
C0Z190,富世,2018-07-13,24.1474,121.6297,0.15857399
C0Z200,萬榮,2018-07-13,23.7092,121.4201,0.04540755
C0Z210,瑞穗,2018-07-13,23.5239,121.3902,0.06255088
C0Z230,和平,2018-07-13,24.3072,121.7701,0.093580015
C0Z270,蕃薯寮,2018-07-13,23.7384,121.5401,0.060956717
C0Z280,德武,2018-07-13,23.4743,121.4107,0.13361378
C0Z300,東里,2018-07-13,23.2685,121.3055,0.8059337
C0Z310,清水斷崖,2018-07-13,24.2183,121.6891,0.121883005
C0Z330,安通山,2018-07-13,23.2907,121.3485,0.9932866
