站號,站名,日期,lat,lon,BlastGRU-TW
466881,新北,2018-06-13,24.9593,121.52,0.089839846
466900,淡水,2018-06-13,25.1649,121.4489,0.10842431
466920,臺北,2018-06-13,25.0377,121.5149,0.082775846
466940,基隆,2018-06-13,25.1333,121.7405,0.090429865
466990,花蓮,2018-06-13,23.9751,121.6133,0.97170246
467050,新屋,2018-06-13,25.0067,121.0475,0.26234886
467080,宜蘭,2018-06-13,24.764,121.7565,0.0982106
467270,田中,2018-06-13,23.8738,120.5813,0.41045496
467300,東吉島,2018-06-13,23.2569,119.6675,0.6356926
467350,澎湖,2018-06-13,23.5655,119.5631,0.53182095
467410,臺南,2018-06-13,22.9932,120.2048,0.22138648
467420,永康,2018-06-13,23.0384,120.2367,0.2146384
467441,高雄,2018-06-13,22.7304,120.3125,0.20988022
467480,嘉義,2018-06-13,23.4959,120.4329,0.9764861
467490,臺中,2018-06-13,24.1457,120.6841,0.6978449
467540,大武,2018-06-13,22.3557,120.9038,0.04419872
467571,新竹,2018-06-13,24.8279,121.0142,0.38276845
467590,恆春,2018-06-13,22.0039,120.7463,0.20629151
467610,成功,2018-06-13,23.0975,121.3734,0.039863396
467620,蘭嶼,2018-06-13,22.037,121.5583,0.80425173
467660,臺東,2018-06-13,22.7522,121.1546,0.035069894
467790,墾丁雷達站,2018-06-13,21.9482,120.808,0.22218516
C0A520,山佳,2018-06-13,24.9749,121.402,0.108498745
C0A530,坪林,2018-06-13,24.9382,121.7097,0.1674175
C0A540,四堵,2018-06-13,24.8926,121.7457,0.09577712
C0A550,泰平,2018-06-13,24.9712,121.8237,0.09398017
C0A560,福山,2018-06-13,24.7762,121.5028,0.085120946
C0A570,桶後,2018-06-13,24.8482,121.598,0.08588411
C0A640,石碇,2018-06-13,24.994,121.6629,0.21024689
C0A650,火燒寮,2018-06-13,25.0027,121.7429,0.24799693
C0A660,瑞芳,2018-06-13,25.1132,121.8011,0.16642626
C0A770,科教館,2018-06-13,25.0964,121.5165,0.09685333
C0A860,大坪,2018-06-13,25.1659,121.633,0.17464267
C0A880,福隆,2018-06-13,25.0178,121.9421,0.14172636
C0A890,雙溪,2018-06-13,25.036,121.8642,0.11508468
C0A920,富貴角,2018-06-13,25.2638,121.5653,0.18768257
C0A931,三和,2018-06-13,25.2332,121.5952,0.23163655
C0A940,金山,2018-06-13,25.2236,121.644,0.16311677
C0A950,鼻頭角,2018-06-13,25.129,121.9234,0.1393001
C0A970,三貂角,2018-06-13,25.0076,122.0021,0.16671264
C0A980,社子,2018-06-13,25.1095,121.4697,0.09322046
C0A9C0,天母,2018-06-13,25.1175,121.5372,0.10450072
C0A9F0,內湖,2018-06-13,25.0794,121.5755,0.082775846
C0AC60,三峽,2018-06-13,24.939,121.3697,0.09348598
C0AC70,信義,2018-06-13,25.0378,121.5646,0.082775846
C0AC80,文山,2018-06-13,25.0023,121.5757,0.101422824
C0ACA0,新莊,2018-06-13,25.0515,121.4468,0.09172977
C0AD00,三芝,2018-06-13,25.2581,121.5019,0.2010962
C0AD10,八里,2018-06-13,25.1502,121.4039,0.10849819
C0AD30,蘆洲,2018-06-13,25.0866,121.4723,0.09685333
C0AD40,土城,2018-06-13,24.9732,121.4452,0.100346796
C0AD50,鶯歌,2018-06-13,24.9515,121.3463,0.13546266
C0AG80,中和,2018-06-13,24.9916,121.4918,0.082775846
C0AH00,汐止,2018-06-13,25.0669,121.6588,0.09393955
C0AH10,永和,2018-06-13,25.0113,121.5081,0.07997475
C0AH40,平等,2018-06-13,25.1291,121.5771,0.13876668
C0AH50,林口,2018-06-13,25.0722,121.3808,0.13150452
C0AH70,松山,2018-06-13,25.0487,121.5504,0.082775846
C0AH80,深坑,2018-06-13,25.0027,121.6283,0.0972122
C0AI00,五股,2018-06-13,25.0744,121.4273,0.5532807
C0AI10,屈尺,2018-06-13,24.9218,121.5447,0.101422824
C0AI20,白沙灣,2018-06-13,25.2831,121.5191,0.14840229
C0AI30,三重,2018-06-13,25.0573,121.5006,0.09685333
C0AI40,石牌,2018-06-13,25.1156,121.5131,0.100346796
C0AJ10,澳底,2018-06-13,25.0571,121.9273,0.13604249
C0AJ20,野柳,2018-06-13,25.207,121.69,0.09393955
C0AJ30,淡水觀海,2018-06-13,25.1846,121.4086,0.10454627
C0AJ40,石門,2018-06-13,25.2737,121.6012,0.35134733
C0AJ50,水湳洞,2018-06-13,25.1237,121.8622,0.09393955
C0AJ60,六塊厝,2018-06-13,25.24,121.4481,0.10454627
C0AJ70,田寮,2018-06-13,25.2698,121.4886,0.14255655
C0AJ80,板橋,2018-06-13,25.0107,121.4489,0.100346796
C0B010,七堵,2018-06-13,25.0948,121.7171,0.10202515
C0B020,基隆嶼,2018-06-13,25.1914,121.7839,0.09393955
C0B040,大武崙,2018-06-13,25.1667,121.707,0.10202515
C0B050,八斗子,2018-06-13,25.1448,121.7917,0.08695462
C0B060,暖暖,2018-06-13,25.0957,121.7403,0.13360015
C0C460,復興,2018-06-13,24.8202,121.3523,0.14641267
C0C480,桃園,2018-06-13,24.9924,121.3232,0.4003137
C0C490,八德,2018-06-13,24.9287,121.2833,0.25891247
C0C590,觀音,2018-06-13,25.0271,121.1533,0.17378698
C0C620,蘆竹,2018-06-13,25.0843,121.2658,0.11652923
C0C630,大溪,2018-06-13,24.8829,121.2655,0.3522732
C0C650,平鎮,2018-06-13,24.8975,121.2146,0.56145734
C0C660,楊梅,2018-06-13,24.9124,121.143,0.60475177
C0C670,龍潭,2018-06-13,24.8701,121.2214,0.8759942
C0C680,龜山,2018-06-13,25.0285,121.3866,0.1271074
C0C700,中壢,2018-06-13,24.9777,121.2564,0.4637763
C0C710,大溪永福,2018-06-13,24.8929,121.325,0.39080468
C0C720,竹圍,2018-06-13,25.1127,121.2398,0.10849819
C0C730,中大臨海站,2018-06-13,24.9661,121.0086,0.23999278
C0C740,觀音工業區,2018-06-13,25.0648,121.1149,0.37168616
C0C750,新興坑尾,2018-06-13,25.0061,121.0971,0.49506164
C0D430,峨眉,2018-06-13,24.6905,121.0172,0.38989258
C0D480,打鐵坑,2018-06-13,24.8497,121.1508,0.83196473
C0D540,橫山,2018-06-13,24.7112,121.1169,0.88946295
C0D560,竹東,2018-06-13,24.7671,121.0579,0.5099677
C0D580,寶山,2018-06-13,24.735,121.0252,0.7530706
C0D590,新豐,2018-06-13,24.8707,120.9772,0.5581642
C0D650,湖口,2018-06-13,24.9048,121.0436,0.33089957
C0D660,新竹市東區,2018-06-13,24.7987,120.9869,0.4150659
C0D670,海天一線,2018-06-13,24.832,120.9144,0.2751489
C0D680,香山濕地,2018-06-13,24.7836,120.915,0.28514963
C0D690,外湖,2018-06-13,24.9177,120.9687,0.23999278
C0D700,關西,2018-06-13,24.7977,121.1732,0.4086379
C0E420,竹南,2018-06-13,24.709,120.8889,0.32089037
C0E430,南庄,2018-06-13,24.6018,121.0002,0.5811617
C0E520,大湖,2018-06-13,24.4149,120.8709,0.89662707
C0E540,後龍,2018-06-13,24.6065,120.7839,0.73321384
C0E550,明德,2018-06-13,24.5835,120.8854,0.73071384
C0E590,通霄,2018-06-13,24.4719,120.7046,0.8094794
C0E730,頭份,2018-06-13,24.6882,120.9122,0.32089037
C0E740,造橋,2018-06-13,24.6371,120.8648,0.68553954
C0E750,苗栗,2018-06-13,24.5646,120.8246,0.7898465
C0E780,銅鑼,2018-06-13,24.4897,120.7909,0.78969175
C0E791,卓蘭,2018-06-13,24.3126,120.8244,0.544043
C0E810,西湖,2018-06-13,24.5629,120.7485,0.76717705
C0E820,獅潭,2018-06-13,24.5391,120.92,0.6480031
C0E830,苑裡,2018-06-13,24.4397,120.6531,0.6486416
C0E850,大河,2018-06-13,24.6181,120.9486,0.75834614
C0E870,高鐵苗栗,2018-06-13,24.6073,120.8261,0.74415755
C0E910,海埔,2018-06-13,24.6488,120.7724,0.6020106
C0E920,通霄漁港,2018-06-13,24.4986,120.6739,0.7544029
C0E930,龍鳳,2018-06-13,24.7,120.8591,0.6445859
C0F000,大肚,2018-06-13,24.153,120.5721,0.3691209
C0F0B0,石岡,2018-06-13,24.2761,120.7776,0.30359513
C0F850,東勢,2018-06-13,24.2464,120.833,0.68340737
C0F930,大甲,2018-06-13,24.3477,120.6404,0.6621201
C0F970,大坑,2018-06-13,24.1731,120.7223,0.7943979
C0F9A0,中竹林,2018-06-13,24.1036,120.7511,0.6378375
C0F9I0,神岡,2018-06-13,24.2725,120.6583,0.8125612
C0F9K0,大安,2018-06-13,24.3451,120.588,0.54358184
C0F9L0,后里,2018-06-13,24.3104,120.7297,0.90011406
C0F9M0,豐原,2018-06-13,24.2543,120.7207,0.8618661
C0F9N0,大里,2018-06-13,24.0925,120.7014,0.5312734
C0F9O0,潭子,2018-06-13,24.2131,120.7039,0.7876527
C0F9P0,清水,2018-06-13,24.3123,120.5622,0.51962274
C0F9Q0,外埔,2018-06-13,24.3478,120.7057,0.73610026
C0F9R0,龍井,2018-06-13,24.1845,120.529,0.5574212
C0F9S0,烏日,2018-06-13,24.1071,120.6241,0.30486727
C0F9T0,西屯,2018-06-13,24.1795,120.6413,0.66783
C0F9U0,南屯,2018-06-13,24.137,120.638,0.531274
C0F9X0,大雅(中科園區),2018-06-13,24.2153,120.6244,0.76525736
C0FA10,松柏,2018-06-13,24.4291,120.6175,0.61223507
C0FA20,溫寮,2018-06-13,24.3722,120.5831,0.61223507
C0FA30,梧棲,2018-06-13,24.256,120.5234,0.5574212
C0FA40,臺中電廠,2018-06-13,24.2146,120.4907,0.5574212
C0FA50,霧峰,2018-06-13,24.0419,120.6995,0.5920087
C0G620,芬園,2018-06-13,24.0157,120.6213,0.42510247
C0G640,鹿港,2018-06-13,24.0753,120.4305,0.3443936
C0G650,員林,2018-06-13,23.9465,120.5856,0.3723369
C0G660,溪湖,2018-06-13,23.9484,120.4791,0.32913327
C0G720,溪州,2018-06-13,23.8516,120.4991,0.38294166
C0G730,二林,2018-06-13,23.9033,120.3761,0.31436953
C0G740,大城,2018-06-13,23.8525,120.3209,0.97235334
C0G770,福興,2018-06-13,24.0413,120.4377,0.3443936
C0G780,秀水,2018-06-13,24.0341,120.5039,0.3265805
C0G800,埔鹽,2018-06-13,24.0004,120.4317,0.3443936
C0G810,埔心,2018-06-13,23.9476,120.5255,0.33937457
C0G820,田尾,2018-06-13,23.9017,120.5094,0.35202587
C0G830,埤頭,2018-06-13,23.866,120.4528,0.36430585
C0G840,北斗,2018-06-13,23.8776,120.5142,0.35202587
C0G860,社頭,2018-06-13,23.8976,120.5862,0.3848033
C0G870,芳苑,2018-06-13,23.9223,120.32,0.9707385
C0G880,二水,2018-06-13,23.8107,120.6173,0.4527362
C0G890,伸港,2018-06-13,24.1489,120.4844,0.5418919
C0G900,線西,2018-06-13,24.1434,120.4435,0.54625696
C0G910,花壇,2018-06-13,24.0321,120.5495,0.34356776
C0G920,永靖,2018-06-13,23.9247,120.5475,0.35202587
C0G940,竹塘,2018-06-13,23.8483,120.3868,0.296187
C0G950,防潮門,2018-06-13,24.1835,120.4871,0.5438255
C0G960,福寶,2018-06-13,24.0443,120.3814,0.33531147
C0G970,三豐,2018-06-13,23.882,120.2895,0.97073853
C0H890,埔里,2018-06-13,23.9722,120.9524,0.5180197
C0H950,中寮,2018-06-13,23.8844,120.7664,0.63031584
C0H960,草屯,2018-06-13,23.9737,120.6809,0.46807754
C0I110,竹山,2018-06-13,23.7612,120.6882,0.57558864
C0I360,水里,2018-06-13,23.8126,120.8498,0.50486207
C0I380,集集,2018-06-13,23.8282,120.8015,0.48365578
C0I410,名間,2018-06-13,23.8371,120.7014,0.511784
C0I420,國姓,2018-06-13,24.0378,120.8551,0.41566446
C0I460,南投,2018-06-13,23.9115,120.6873,0.5189683
C0K250,崙背,2018-06-13,23.7555,120.3189,0.96666884
C0K280,四湖,2018-06-13,23.6304,120.2271,0.9573424
C0K291,宜梧,2018-06-13,23.5363,120.1693,0.54824865
C0K330,虎尾,2018-06-13,23.7192,120.442,0.29036888
C0K390,土庫,2018-06-13,23.679,120.3956,0.2833913
C0K400,斗六,2018-06-13,23.7206,120.5411,0.36648962
C0K410,北港,2018-06-13,23.574,120.2928,0.5385159
C0K420,西螺,2018-06-13,23.8004,120.4674,0.39175835
C0K430,褒忠,2018-06-13,23.6909,120.3036,0.9273719
C0K440,二崙,2018-06-13,23.7728,120.4089,0.30431402
C0K450,大埤,2018-06-13,23.6461,120.4315,0.3005255
C0K460,斗南,2018-06-13,23.6787,120.4784,0.35218117
C0K470,林內,2018-06-13,23.7487,120.6096,0.39558157
C0K480,莿桐,2018-06-13,23.7612,120.5024,0.3996408
C0K500,元長,2018-06-13,23.6498,120.315,0.9403787
C0K510,水林,2018-06-13,23.5729,120.246,0.63481575
C0K530,臺西,2018-06-13,23.7015,120.1976,0.95587337
C0K550,蔦松,2018-06-13,23.5143,120.2297,0.5599238
C0K560,棋山,2018-06-13,23.6865,120.6034,0.36505583
C0K580,高鐵雲林,2018-06-13,23.7375,120.4179,0.2833913
C0K590,雲林東勢,2018-06-13,23.6742,120.2557,0.9273719
C0K600,箔子寮,2018-06-13,23.6197,120.14,0.62434363
C0M410,馬頭山,2018-06-13,23.3244,120.582,0.44145226
C0M520,東後寮,2018-06-13,23.3699,120.2481,0.23364142
C0M640,中埔,2018-06-13,23.4254,120.5229,0.39615878
C0M650,朴子,2018-06-13,23.4346,120.239,0.533879
C0M660,溪口,2018-06-13,23.6041,120.4036,0.9748883
C0M670,大林,2018-06-13,23.6006,120.4584,0.9792587
C0M680,太保,2018-06-13,23.4551,120.3315,0.4432312
C0M690,水上,2018-06-13,23.4197,120.3889,0.9721823
C0M700,竹崎,2018-06-13,23.5262,120.5555,0.44759494
C0M710,東石,2018-06-13,23.4589,120.1539,0.5599238
C0M720,番路,2018-06-13,23.4647,120.5542,0.48030913
C0M730,嘉義市東區,2018-06-13,23.4577,120.4605,0.97873133
C0M740,六腳,2018-06-13,23.4929,120.2906,0.4319462
C0M750,布袋,2018-06-13,23.3809,120.1678,0.533879
C0M760,民雄,2018-06-13,23.5518,120.4285,0.97664875
C0M770,嘉義梅山,2018-06-13,23.5854,120.5556,0.3957277
C0M780,鹿草,2018-06-13,23.4113,120.3084,0.51301026
C0M790,新港,2018-06-13,23.5533,120.3457,0.5501177
C0M800,茶山,2018-06-13,23.2991,120.6648,0.33681977
C0M880,好美里,2018-06-13,23.3364,120.138,0.24662246
C0N010,鯤鯓國小,2018-06-13,23.1879,120.0889,0.54819024
C0N020,城西,2018-06-13,23.0568,120.0956,0.30043548
C0N030,四草,2018-06-13,23.0235,120.1116,0.21154442
C0N040,蘆竹溝,2018-06-13,23.2344,120.0961,0.5481904
C0N050,蚵寮,2018-06-13,23.301,120.1104,0.54819024
C0O810,曾文,2018-06-13,23.2197,120.4973,0.72335035
C0O830,北寮,2018-06-13,23.0796,120.495,0.16454956
C0O840,王爺宮,2018-06-13,23.2221,120.4009,0.72335035
C0O860,大內,2018-06-13,23.1188,120.3608,0.3473845
C0O900,善化,2018-06-13,23.1129,120.2972,0.19184707
C0O930,玉井,2018-06-13,23.126,120.4605,0.6559375
C0O950,安南,2018-06-13,23.0767,120.1449,0.29375342
C0O960,崎頂,2018-06-13,22.9595,120.3693,0.12508708
C0O970,虎頭埤,2018-06-13,23.0214,120.3479,0.2256652
C0O980,新市,2018-06-13,23.0616,120.2982,0.19184707
C0O990,媽廟,2018-06-13,22.9917,120.2935,0.1933842
C0R150,三地門,2018-06-13,22.7099,120.6399,0.099157415
C0R160,鹽埔,2018-06-13,22.7396,120.5308,0.10901272
C0R170,屏東,2018-06-13,22.6603,120.4941,0.18711492
C0R190,赤山,2018-06-13,22.5923,120.6143,0.10540343
C0R220,潮州,2018-06-13,22.5344,120.54,0.13099678
C0R240,來義,2018-06-13,22.5273,120.6251,0.2729473
C0R260,春日,2018-06-13,22.3704,120.6283,0.25929135
C0R270,琉球嶼,2018-06-13,22.3322,120.3622,0.26242432
C0R280,檳榔,2018-06-13,22.0761,120.8368,0.3514776
C0R320,車城,2018-06-13,22.0744,120.7162,0.1887366
C0R341,牡丹,2018-06-13,22.13,120.7926,0.33119243
C0R350,貓鼻頭,2018-06-13,21.9218,120.7358,0.21114746
C0R470,高樹,2018-06-13,22.8264,120.6008,0.10231007
C0R480,長治,2018-06-13,22.6931,120.5426,0.11024158
C0R490,九如,2018-06-13,22.7405,120.4905,0.18907812
C0R520,崁頂,2018-06-13,22.5148,120.5069,0.2282967
C0R540,佳冬,2018-06-13,22.4195,120.5524,0.22550547
C0R550,新埤,2018-06-13,22.4679,120.5829,0.10436675
C0R560,新園,2018-06-13,22.5434,120.4616,0.2282967
C0R570,麟洛,2018-06-13,22.6508,120.5272,0.18907838
C0R580,南州,2018-06-13,22.4859,120.5027,0.22550547
C0R590,里港,2018-06-13,22.7792,120.4946,0.10477756
C0R620,墾雷,2018-06-13,21.9008,120.8553,0.2111476
C0R640,東港,2018-06-13,22.4625,120.4407,0.22395639
C0R650,竹田,2018-06-13,22.5849,120.5434,0.103054814
C0R660,枋寮,2018-06-13,22.3677,120.5906,0.12792912
C0R670,楓港,2018-06-13,22.1901,120.6922,0.18725124
C0R680,佳樂水,2018-06-13,21.9936,120.8616,0.20119719
C0R690,墾丁,2018-06-13,21.9668,120.8103,0.37938628
C0R700,枋山,2018-06-13,22.2468,120.6611,0.18725124
C0R710,龍磐,2018-06-13,21.9317,120.8389,0.27199176
C0R720,旭海,2018-06-13,22.2054,120.8876,0.1351176
C0R730,大坪頂,2018-06-13,22.0246,120.6936,0.253594
C0R740,獅子,2018-06-13,22.2016,120.7053,0.20155291
C0R760,南仁湖,2018-06-13,22.0847,120.8634,0.4156653
C0R770,保力,2018-06-13,22.0711,120.7641,0.24139677
C0R780,滿州,2018-06-13,22.0244,120.8399,0.21677779
C0R790,九棚,2018-06-13,22.142,120.8893,0.11202291
C0R800,丹路,2018-06-13,22.2045,120.751,0.23955916
C0R810,內獅,2018-06-13,22.3051,120.643,0.24070719
C0R830,高士,2018-06-13,22.1218,120.8368,0.54491925
C0R850,林邊,2018-06-13,22.4634,120.5339,0.2282967
C0R860,鼻頭,2018-06-13,22.1043,120.8979,0.2417987
C0R870,興海,2018-06-13,21.9752,120.8439,0.20119719
C0R880,後壁湖,2018-06-13,21.9457,120.7457,0.1848637
C0R890,山海,2018-06-13,21.9878,120.7091,0.1887366
C0R900,竹坑,2018-06-13,22.1385,120.7022,0.23045339
C0R910,下寮,2018-06-13,22.3929,120.5548,0.22550547
C0R920,塭仔,2018-06-13,22.4169,120.5197,0.2228294
C0R930,萬丹,2018-06-13,22.5885,120.4851,0.103054814
C0R940,加祿堂,2018-06-13,22.3363,120.6217,0.24070719
C0S710,鹿野,2018-06-13,22.9177,121.123,0.017116591
C0S730,綠島,2018-06-13,22.6672,121.4753,0.04803709
C0S740,池上,2018-06-13,23.1196,121.2095,0.017512577
C0S770,大溪山,2018-06-13,22.4785,120.9433,0.09409166
C0S790,金崙,2018-06-13,22.5381,120.9669,0.039891057
C0S810,東河,2018-06-13,22.9727,121.304,0.02163639
C0S830,長濱,2018-06-13,23.2868,121.412,0.022139324
C0S840,南田,2018-06-13,22.2797,120.8892,0.058250777
C0S890,關山,2018-06-13,23.0395,121.175,0.05595803
C0S900,蘭嶼高中,2018-06-13,22.0491,121.5121,0.25199032
C0S910,蘭嶼燈塔,2018-06-13,22.0812,121.5031,0.3798215
C0S920,金峰嘉蘭,2018-06-13,22.5948,120.9608,0.031683344
C0S930,延平,2018-06-13,22.9026,121.0841,0.024133228
C0S940,石寧山,2018-06-13,23.2238,121.4066,0.019957457
C0S950,七塊厝,2018-06-13,22.9545,121.2299,0.017841034
C0S960,香蘭,2018-06-13,22.5876,120.9934,0.029257571
C0S970,加津林,2018-06-13,22.4162,120.9269,0.04495349
C0S990,山豬窟,2018-06-13,22.3186,120.8574,0.28076074
C0SA00,歷坵,2018-06-13,22.521,120.8919,0.17129222
C0SA10,檳榔四格山,2018-06-13,22.81,121.1093,0.24697319
C0SA30,都歷,2018-06-13,23.0203,121.3236,0.045002762
C0SA40,瑞和,2018-06-13,22.9744,121.1567,0.055363484
C0SA60,知本（水試所）,2018-06-13,22.7024,121.0828,0.031832803
C0SA80,土,2018-06-13,22.4531,120.8876,0.033856113
C0SA90,達仁林場,2018-06-13,22.2643,120.824,0.39594308
C0T870,鯉魚潭,2018-06-13,23.9356,121.5089,0.9436926
C0T900,西林,2018-06-13,23.8119,121.4415,0.9725563
C0T960,光復,2018-06-13,23.6607,121.425,0.95215845
C0T9A0,月眉山,2018-06-13,23.8099,121.5398,0.99902314
C0T9D0,和中,2018-06-13,24.2668,121.741,0.05706025
C0T9E0,大坑,2018-06-13,23.8806,121.582,0.99839723
C0T9F0,水璉,2018-06-13,23.7971,121.5425,0.995096
C0T9I0,豐濱,2018-06-13,23.5839,121.5148,0.97353745
C0T9M0,靜浦,2018-06-13,23.4552,121.495,0.91464883
C0T9N0,富里,2018-06-13,23.1716,121.2494,0.020786824
C0U600,礁溪,2018-06-13,24.8175,121.7656,0.099983215
C0U650,玉蘭,2018-06-13,24.6753,121.5871,0.22545151
C0U750,龜山島,2018-06-13,24.8417,121.9531,0.19803818
C0U760,東澳,2018-06-13,24.522,121.8332,0.040005255
C0U770,南澳,2018-06-13,24.4493,121.8102,0.03812921
C0U780,五結,2018-06-13,24.6864,121.7979,0.1975271
C0U860,頭城,2018-06-13,24.8532,121.8308,0.09821067
C0U870,大礁溪,2018-06-13,24.791,121.675,0.07834552
C0U880,北關,2018-06-13,24.9072,121.8734,0.08276509
C0U890,三星,2018-06-13,24.6681,121.653,0.11703774
C0U900,內城,2018-06-13,24.7181,121.6877,0.105060406
C0U910,冬山,2018-06-13,24.6337,121.7937,0.1975271
C0U940,羅東,2018-06-13,24.6818,121.7493,0.20184009
C0U970,大福,2018-06-13,24.8006,121.8139,0.09647329
C0U990,員山,2018-06-13,24.7444,121.7225,0.20184009
C0UA00,土場,2018-06-13,24.5765,121.4953,0.06971179
C0UA80,大溪漁港,2018-06-13,24.9418,121.903,0.0999831
C0UA90,石城,2018-06-13,24.9804,121.9512,0.14865309
C0UB00,淡江大學蘭陽校園,2018-06-13,24.8232,121.7304,0.060318034
C0UB10,蘇澳,2018-06-13,24.5969,121.8571,0.08027796
C0UB20,壯圍,2018-06-13,24.7359,121.8163,0.19313835
C0V250,甲仙,2018-06-13,23.0801,120.5918,0.325566
C0V260,月眉,2018-06-13,22.971,120.5399,0.15073432
C0V310,美濃,2018-06-13,22.8987,120.5192,0.31809658
C0V350,溪埔,2018-06-13,22.7386,120.4468,0.18087012
C0V360,內門,2018-06-13,22.9755,120.4668,0.3606951
C0V370,古亭坑,2018-06-13,22.8932,120.4019,0.2919344
C0V400,阿公店,2018-06-13,22.8042,120.3555,0.17098442
C0V440,鳳山,2018-06-13,22.6467,120.3561,0.2313149
C0V450,鳳森,2018-06-13,22.5451,120.3926,0.13873973
C0V490,新興,2018-06-13,22.6274,120.2988,0.22742279
C0V530,阿蓮,2018-06-13,22.8832,120.3275,0.17843081
C0V610,梓官,2018-06-13,22.7606,120.2672,0.14265795
C0V620,永安,2018-06-13,22.8231,120.2369,0.13509032
C0V630,茄萣,2018-06-13,22.9066,120.1826,0.19469914
C0V640,湖內,2018-06-13,22.8871,120.2445,0.20004083
C0V650,彌陀,2018-06-13,22.7838,120.2464,0.13509032
C0V660,岡山,2018-06-13,22.7971,120.295,0.1426579
C0V680,仁武,2018-06-13,22.7011,120.3477,0.213196
C0V690,鼓山,2018-06-13,22.6233,120.2756,0.22742279
C0V700,三民,2018-06-13,22.645,120.3112,0.22742279
C0V710,苓雅,2018-06-13,22.6227,120.3307,0.22742279
C0V720,林園,2018-06-13,22.5077,120.3945,0.22742279
C0V730,大寮,2018-06-13,22.6056,120.3957,0.13128467
C0V740,旗山,2018-06-13,22.8886,120.4836,0.32092667
C0V750,路竹,2018-06-13,22.855,120.2594,0.11909245
C0V760,橋頭,2018-06-13,22.7578,120.3058,0.14525734
C0V770,大社,2018-06-13,22.7303,120.3466,0.213196
C0V790,萬山,2018-06-13,22.9059,120.6881,0.3062526
C0V800,六龜,2018-06-13,22.9979,120.6336,0.17818372
C0V810,左營,2018-06-13,22.6749,120.2849,0.20988022
C0V820,小林,2018-06-13,23.1484,120.6333,0.3701446
C0V840,鳳鼻頭,2018-06-13,22.5083,120.3591,0.22395639
C0V850,蚵仔寮,2018-06-13,22.7256,120.2527,0.20635526
C0V860,南寮,2018-06-13,22.7616,120.2339,0.13305168
C0V870,文安,2018-06-13,22.8025,120.2164,0.13305168
C0V880,興達,2018-06-13,22.8778,120.2127,0.19469914
C0V890,前鎮,2018-06-13,22.5718,120.3117,0.22395639
C0V900,汕尾,2018-06-13,22.4782,120.4151,0.1733001
C0X050,東河,2018-06-13,23.2966,120.3856,0.65207034
C0X060,下營,2018-06-13,23.2269,120.2563,0.21331848
C0X080,佳里,2018-06-13,23.173,120.1451,0.24662241
C0X100,臺南市北區,2018-06-13,23.0104,120.1942,0.20871599
C0X110,臺南市南區,2018-06-13,22.9612,120.1884,0.2146384
C0X120,麻豆,2018-06-13,23.1833,120.2486,0.25187385
C0X130,官田,2018-06-13,23.1932,120.3154,0.22311293
C0X140,西港,2018-06-13,23.1256,120.2031,0.2339869
C0X150,安定,2018-06-13,23.1026,120.2278,0.22042441
C0X160,仁德,2018-06-13,22.9683,120.2577,0.18718404
C0X170,關廟,2018-06-13,22.963,120.3278,0.2108612
C0X180,山上,2018-06-13,23.0757,120.3633,0.3263389
C0X190,安平,2018-06-13,22.9932,120.1522,0.20871599
C0X200,左鎮,2018-06-13,23.0568,120.4085,0.32286593
C0X210,白河,2018-06-13,23.3475,120.4144,0.6658687
C0X220,學甲,2018-06-13,23.2304,120.1822,0.25187394
C0X230,鹽水,2018-06-13,23.2726,120.2476,0.23558407
C0X240,關子嶺,2018-06-13,23.3312,120.508,0.4633053
C0X250,新營,2018-06-13,23.3107,120.3167,0.20357813
C0X260,後壁,2018-06-13,23.3664,120.3623,0.3159322
C0X280,將軍,2018-06-13,23.215,120.1358,0.24662246
C0X290,北門,2018-06-13,23.2678,120.1255,0.24662246
C0X300,鹿寮,2018-06-13,23.386,120.4773,0.31783926
C0X310,七股,2018-06-13,23.1473,120.0863,0.62006146
C0X320,柳營,2018-06-13,23.2533,120.3753,0.6567265
C0Z020,明里,2018-06-13,23.2087,121.2623,0.020473506
C0Z061,玉里,2018-06-13,23.3215,121.3397,0.018921684
C0Z070,舞鶴,2018-06-13,23.4681,121.3741,0.9970608
C0Z080,富源,2018-06-13,23.5876,121.3782,0.9956181
C0Z100,東華,2018-06-13,23.8953,121.5498,0.71877545
C0Z150,吉安光華,2018-06-13,23.9309,121.5952,0.6450303
C0Z160,鳳林,2018-06-13,23.7461,121.4534,0.9367354
C0Z170,卓溪,2018-06-13,23.3443,121.3029,0.01857579
C0Z180,新城,2018-06-13,24.0395,121.6045,0.9787116
C0Z190,富世,2018-06-13,24.1474,121.6297,0.17234692
C0Z200,萬榮,2018-06-13,23.7092,121.4201,0.9436926
C0Z210,瑞穗,2018-06-13,23.5239,121.3902,0.9573588
C0Z230,和平,2018-06-13,24.3072,121.7701,0.057060193
C0Z270,蕃薯寮,2018-06-13,23.7384,121.5401,0.97858965
C0Z280,德武,2018-06-13,23.4743,121.4107,0.9927806
C0Z300,東里,2018-06-13,23.2685,121.3055,0.018823361
C0Z310,清水斷崖,2018-06-13,24.2183,121.6891,0.07462235
C0Z330,安通山,2018-06-13,23.2907,121.3485,0.023391439
