站號,站名,日期,lat,lon,BlastGRU-TW
466881,新北,2018-12-14,24.9593,121.52,0.03671918
466900,淡水,2018-12-14,25.164889,121.448906,0.004526042
466920,臺北,2018-12-14,25.037658,121.514853,0.040250164
467441,高雄,2018-12-14,22.7304,120.3125,0.3162326
467480,嘉義,2018-12-14,23.495925,120.432906,0.2500943
467490,臺中,2018-12-14,24.145736,120.684075,0.10960196
C0A540,四堵,2018-12-14,24.8926,121.745736,0.005584674
C0A550,泰平,2018-12-14,24.971197,121.823711,0.023896554
C0A560,福山,2018-12-14,24.776203,121.502811,0.060690016
C0A931,三和,2018-12-14,25.233153,121.595236,0.015325355
C0A940,金山,2018-12-14,25.223628,121.643967,0.00254438
C0A950,鼻頭角,2018-12-14,25.129036,121.923372,0.28702617
C0AD10,八里,2018-12-14,25.150211,121.403947,0.0045260377
C0AD30,蘆洲,2018-12-14,25.086594,121.472331,0.01458863
C0AD40,土城,2018-12-14,24.973208,121.445169,0.013651812
C0AI10,屈尺,2018-12-14,24.92184,121.54475,0.03178208
C0AI20,白沙灣,2018-12-14,25.283128,121.519058,0.002491481
C0AI30,三重,2018-12-14,25.057328,121.500629,0.01458863
C0B010,七堵,2018-12-14,25.094819,121.71713,0.0029742913
C0B020,基隆嶼,2018-12-14,25.19141,121.78391,0.0030826076
