站號,站名,日期,lat,lon,BLBTSLS
C0R710,龍磐,2018-01-06,21.931672,120.838942,0.13320957
C1F9D1,白毛台,2018-01-06,24.158325,120.886933,1.1155437e-09
C0G940,竹塘,2018-01-06,23.848253,120.386764,7.003953e-10
467590,恆春,2018-01-06,22.003897,120.746339,0.85786974
C1O850,環湖,2018-01-06,23.148617,120.418633,2.9738865e-09
C0U710,太平山,2018-01-06,24.505486,121.525656,3.9484505e-08
C0E820,獅潭,2018-01-06,24.539133,120.920042,3.7822717e-10
C0V880,興達,2018-01-06,22.8778,120.2127,3.72575e-10
C0S890,關山,2018-01-06,23.0395,121.175017,2.1856996e-09
C0SB30,新蘭,2018-01-06,22.869214,121.223228,1.745896e-08
C2R970,屏科大,2018-01-06,22.648275,120.619247,9.928534e-10
K2F750,種苗繁殖,2018-01-06,24.225972,120.800917,4.512683e-10
C1Z130,銅門,2018-01-06,23.965694,121.492842,1.1370517e-08
C0AD40,土城,2018-01-06,24.973208,121.445169,0.503662
CAN140,六官養殖協會,2018-01-06,23.22881,120.29962,1.795803e-09
C0X180,山上,2018-01-06,23.0757,120.363253,1.2860588e-09
C0F9Z0,雪山東峰,2018-01-06,24.388792,121.268675,1.8453601e-08
C1M480,獨立山,2018-01-06,23.537022,120.607797,9.850498e-10
C0X220,學甲,2018-01-06,23.230367,120.182187,5.361009e-10
467650,日月潭,2018-01-06,23.881325,120.90805,3.9854857e-09
C0K600,箔子寮,2018-01-06,23.6197,120.14,3.0126623e-07
C0G830,埤頭,2018-01-06,23.866003,120.452806,6.0300054e-10
C0S950,七塊厝,2018-01-06,22.954453,121.229922,1.8248693e-09
467110,金門,2018-01-06,24.407306,118.289281,1.4049299e-05
C0AH80,深坑,2018-01-06,25.002703,121.628328,0.32014433
467990,馬祖,2018-01-06,26.169269,119.923419,9.0175547e-07
C0A970,三貂角,2018-01-06,25.007606,122.002058,5.6485977e-05
C2D730,寶山農場,2018-01-06,24.732444,120.976153,4.4113682e-10
C0K430,褒忠,2018-01-06,23.690938,120.303634,7.4705586e-10
467480,嘉義,2018-01-06,23.495925,120.432906,7.291708e-08
C2E540,後龍,2018-01-06,24.606489,120.783933,1.627825e-09
C0V400,阿公店,2018-01-06,22.804194,120.355528,3.2186598e-10
C0R440,大漢山,2018-01-06,22.405264,120.753181,4.1517122e-08
C0K280,四湖,2018-01-06,23.630414,120.227125,4.5762002e-07
C1F9B1,桐林,2018-01-06,24.066172,120.735194,5.9713595e-10
C2H9U0,鳳鵬,2018-01-06,23.763919,120.788061,3.8905767e-10
C0K390,土庫,2018-01-06,23.679029,120.395574,8.355338e-10
C1I450,望鄉山,2018-01-06,23.594153,120.944286,1.2778463e-08
C0E910,海埔,2018-01-06,24.648767,120.772435,1.7949127e-09
B2E890,畜試北區分所,2018-01-06,24.527806,120.770972,2.578105e-10
C0R750,四林格山,2018-01-06,22.076989,120.802439,0.005426557
C0F0C0,中坑,2018-01-06,24.248517,120.903319,3.2724423e-09
C1I121,大鞍,2018-01-06,23.678381,120.760017,8.534157e-09
72U480,花改蘭陽分場,2018-01-06,24.686306,121.716583,8.0014555e-09
C0A770,科教館,2018-01-06,25.096356,121.516507,0.68818
C0AJ60,六塊厝,2018-01-06,25.24,121.4481,0.99975073
C0R620,墾雷,2018-01-06,21.900836,120.855269,0.8468139
467420,永康,2018-01-06,23.038386,120.2367,4.332758e-10
467300,東吉島,2018-01-06,23.25695,119.667467,0.9926028
C0I410,名間,2018-01-06,23.837053,120.701447,1.7273923e-09
A2C560,農工中心,2018-01-06,24.985917,121.239833,0.9996449
C0V740,旗山,2018-01-06,22.888614,120.483597,8.6081764e-10
C0Z061,玉里,2018-01-06,23.3215,121.339656,5.335916e-09
C0S840,南田,2018-01-06,22.279725,120.889208,0.9976525
C1I470,杉林溪,2018-01-06,23.639517,120.786444,9.9108854e-09
C1X040,東原,2018-01-06,23.291597,120.463822,7.7688633e-10
C0R660,枋寮,2018-01-06,22.367722,120.590647,0.66381407
C1R120,上德文,2018-01-06,22.763272,120.704442,3.3167875e-09
C0K450,大埤,2018-01-06,23.646074,120.431537,7.017703e-09
C0UA00,土場,2018-01-06,24.576533,121.495333,4.4091266e-08
467080,宜蘭,2018-01-06,24.763975,121.756528,1.3242261e-08
C0N030,四草,2018-01-06,23.0235,120.1116,3.6601605e-10
C0V650,彌陀,2018-01-06,22.783806,120.246361,7.678939e-10
C0D660,新竹市東區,2018-01-06,24.798681,120.986942,1.3080253e-07
82S580,茶改東部分場,2018-01-06,22.907694,121.130139,8.646885e-09
C0SB40,興隆,2018-01-06,22.913661,121.257469,1.5155623e-08
C0C710,大溪永福,2018-01-06,24.892936,121.324975,0.1128159
C0FA20,溫寮,2018-01-06,24.372177,120.583125,1.1077199e-09
C0V640,湖內,2018-01-06,22.887139,120.2445,3.6952827e-10
C0R910,下寮,2018-01-06,22.3929,120.5548,0.66381407
C0Z020,明里,2018-01-06,23.208717,121.262342,6.013664e-09
C0M770,嘉義梅山,2018-01-06,23.585398,120.555587,2.5513336e-09
G2F820,農業試驗所,2018-01-06,24.031261,120.688133,1.382569e-09
C0C660,楊梅,2018-01-06,24.912375,121.143047,0.98191154
C1E511,新開,2018-01-06,24.347703,120.827019,2.8519553e-10
G2F820,農試所(霧峰),2018-01-06,24.031261,120.688133,1.382569e-09
C1I070,和社,2018-01-06,23.591131,120.888861,4.6930593e-09
C2F000,大肚,2018-01-06,24.15295,120.572117,2.9657848e-10
C1S850,豐南,2018-01-06,23.122139,121.262389,3.1141463e-09
C2A920,富貴角,2018-01-06,25.263783,121.565258,0.97153944
CAH030,茶改場竹圍站,2018-01-06,23.860083,120.637528,3.7968578e-10
C0T960,光復,2018-01-06,23.660694,121.424964,8.424794e-09
C0F9M0,豐原,2018-01-06,24.254322,120.720692,2.701233e-10
C0R720,旭海,2018-01-06,22.205403,120.887614,0.99987584
C0V710,苓雅,2018-01-06,22.622742,120.330669,5.3614385e-10
C0C740,觀音工業區,2018-01-06,25.064764,121.114856,0.9999661
CAC040,拉拉山,2018-01-06,24.699317,121.427133,8.9744816e-08
C0V790,萬山,2018-01-06,22.905944,120.688056,2.1645e-09
U2HA30,臺大和社,2018-01-06,23.590856,120.888864,4.6930593e-09
C0AJ90,澳底,2018-01-06,25.0552,121.9253,0.4151961
C0Z100,東華,2018-01-06,23.89525,121.549833,1.6455635e-08
C0G970,三豐,2018-01-06,23.882,120.2895,1.1338891e-07
V2K610,大庄合作社,2018-01-06,23.8068,120.367939,6.0933164e-10
C0V900,汕尾,2018-01-06,22.4782,120.4151,5.3933674e-10
C1R630,龍泉,2018-01-06,22.66701,120.59091,9.792968e-10
C1AC50,關渡,2018-01-06,25.133486,121.469331,0.00046691525
C0F9I0,神岡,2018-01-06,24.272481,120.658314,2.301207e-10
C0K460,斗南,2018-01-06,23.678734,120.478359,5.946267e-09
467410,臺南,2018-01-06,22.993239,120.204772,3.5156208e-10
C2O810,曾文,2018-01-06,23.219681,120.497328,9.236476e-10
467280,後龍,2018-01-06,24.648563,120.831834,1.3685613e-09
C1F9J1,清水林,2018-01-06,24.071242,120.820419,7.609915e-10
C2A650,火燒寮,2018-01-06,25.002719,121.742892,6.3434563e-06
466930,竹子湖,2018-01-06,25.162078,121.544547,2.6429817e-07
C1I220,樟湖,2018-01-06,23.905333,120.846983,4.4126414e-09
C0I390,仁愛,2018-01-06,24.022122,121.132206,2.9629252e-09
C0Z300,東里,2018-01-06,23.26853,121.30547,5.845733e-09
C1V590,新發,2018-01-06,23.057019,120.646064,5.379387e-09
C0K510,水林,2018-01-06,23.572924,120.24597,1.8357997e-09
72S590,東改賓朗果園,2018-01-06,22.813889,121.071278,7.322059e-06
82A750,茶改北部分場,2018-01-06,24.955778,121.631222,1.7048203e-06
C1A750,石碇服務區,2018-01-06,25.00872,121.646242,0.0013576419
C0X300,鹿寮,2018-01-06,23.386047,120.477331,2.3943949e-08
G2AI50,關渡,2018-01-06,25.11575,121.492,0.9988001
C0K590,雲林東勢,2018-01-06,23.674192,120.255721,1.2956882e-09
C0A570,桶後,2018-01-06,24.848222,121.597992,7.6528764e-08
C1S800,華源,2018-01-06,22.657883,121.02325,1.9989823e-08
C0G720,溪州,2018-01-06,23.851589,120.499093,5.908211e-10
C1V160,達卡努瓦,2018-01-06,23.279811,120.705319,5.4292153e-09
C2M410,馬頭山,2018-01-06,23.324361,120.582017,6.8830674e-10
C0V850,蚵仔寮,2018-01-06,22.7256,120.2527,3.0307126e-10
C0S740,池上,2018-01-06,23.119628,121.209469,7.2661734e-09
C1V390,尖山,2018-01-06,22.813153,120.367789,3.1582179e-10
C0AH70,松山,2018-01-06,25.04871,121.55042,0.6308907
C0N010,鯤鯓國小,2018-01-06,23.1879,120.0889,5.9433275e-10
C0R550,新埤,2018-01-06,22.467947,120.582894,5.423696e-10
C0SA60,知本（水試所）,2018-01-06,22.702394,121.082761,2.9614805e-08
C0T9I0,豐濱,2018-01-06,23.583897,121.514806,6.4422387e-09
C0UB00,淡江大學蘭陽校園,2018-01-06,24.823239,121.730383,6.774088e-08
C0W240,九宮,2018-01-06,24.423753,118.240186,2.6762056e-05
C0T9N0,富里,2018-01-06,23.171639,121.249378,7.1989508e-09
U2HA50,臺大竹山,2018-01-06,23.756972,120.681556,6.727252e-10
C0V840,鳳鼻頭,2018-01-06,22.5083,120.3591,4.9484294e-10
C0X140,西港,2018-01-06,23.125608,120.203108,5.10851e-10
72D080,桃改五峰分場,2018-01-06,24.612194,121.157167,5.0288804e-09
C2H9P0,伊拿谷,2018-01-06,23.963211,121.088264,3.2142258e-09
C2H9F0,柑林,2018-01-06,24.018658,120.847072,6.1572925e-10
C0TA20,加灣,2018-01-06,24.082025,121.608944,1.7812299e-07
C0V530,阿蓮,2018-01-06,22.883208,120.327508,3.920657e-10
C1O880,關山,2018-01-06,23.173397,120.594092,5.4253824e-10
C0E791,卓蘭,2018-01-06,24.3126,120.8244,3.058342e-10
C1I030,武界,2018-01-06,23.913225,121.052483,3.3521232e-09
C0R520,崁頂,2018-01-06,22.514781,120.506914,5.0929827e-10
C0R341,牡丹,2018-01-06,22.130036,120.792639,0.99986
C0R930,萬丹,2018-01-06,22.5885,120.4851,4.5171006e-10
C0S760,紅石,2018-01-06,23.069131,121.126219,2.435355e-08
C1M610,石磐龍,2018-01-06,23.496606,120.663506,4.974475e-09
C0UA10,鴛鴦湖,2018-01-06,24.590269,121.412228,2.0700272e-08
V2C260,八德蔬果,2018-01-06,24.978508,121.281819,0.99745655
C0R800,丹路,2018-01-06,22.204481,120.750989,0.99980354
C0G920,永靖,2018-01-06,23.924703,120.547533,6.5180505e-10
C2M950,太和,2018-01-06,23.538372,120.702961,6.419939e-09
C1A630,下盆,2018-01-06,24.771003,121.538622,3.205155e-08
B2N890,畜產試驗所,2018-01-06,23.058972,120.336406,6.100282e-10
C0UA30,白嶺,2018-01-06,24.527819,121.519031,3.6803254e-08
C1V580,溪南(特生中心),2018-01-06,23.084972,120.788475,8.807042e-09
C1T970,大農,2018-01-06,23.615233,121.413331,6.5225803e-09
E2S960,林試太麻里2,2018-01-06,22.598014,120.989761,6.340284e-08
C0R650,竹田,2018-01-06,22.58486,120.54344,7.6413753e-10
C1H900,清流,2018-01-06,24.080775,120.962997,1.866179e-09
C1C510,水尾,2018-01-06,24.940081,121.087161,0.99916416
C0F9X0,大雅(中科園區),2018-01-06,24.21528,120.62445,2.1890026e-10
C0SB60,白守蓮,2018-01-06,23.126769,121.401914,1.1860623e-08
C0O970,虎頭埤,2018-01-06,23.021375,120.347878,6.8710393e-10
C0C730,中大臨海站,2018-01-06,24.966126,121.008581,0.99989945
C0X250,新營,2018-01-06,23.310689,120.316681,2.689005e-09
C0V700,三民,2018-01-06,22.645017,120.311233,6.5216443e-10
C0U870,大礁溪,2018-01-06,24.791042,121.675047,3.2244575e-08
C0E870,高鐵苗栗,2018-01-06,24.60725,120.826094,1.497859e-09
A2K570,古坑花卉中心,2018-01-06,23.63353,120.55239,1.4342262e-09
C0M860,新美,2018-01-06,23.338017,120.683169,1.416552e-09
C1E701,八卦,2018-01-06,24.491756,120.927619,3.8053645e-09
C0I420,國姓,2018-01-06,24.037803,120.855072,5.833723e-10
C2D720,關西工作站,2018-01-06,24.757275,121.184792,1.6869589e-09
C0S960,香蘭,2018-01-06,22.587569,120.993375,6.343828e-08
C0R260,春日,2018-01-06,22.370361,120.628306,0.42038465
72G600,臺中農改場,2018-01-06,24.003028,120.534389,4.6722554e-10
C0Z210,瑞穗,2018-01-06,23.5239,121.39021,5.6432943e-09
C0M820,達邦,2018-01-06,23.453994,120.749517,4.0902997e-09
C0V860,南寮,2018-01-06,22.7616,120.2339,3.0307126e-10
C0G740,大城,2018-01-06,23.852487,120.320935,1.09989735e-07
C0R920,塭仔,2018-01-06,22.4169,120.5197,0.68451756
C0R470,高樹,2018-01-06,22.826389,120.600806,8.184641e-10
C0R680,佳樂水,2018-01-06,21.993578,120.861633,0.12700307
C1O870,大棟山,2018-01-06,23.31157,120.52226,3.2998386e-09
C0D360,梅花,2018-01-06,24.678347,121.208558,1.3976155e-09
C0Z190,富世,2018-01-06,24.14743,121.6297,4.3137472e-08
C0AI10,屈尺,2018-01-06,24.92184,121.54475,0.1196221
B2U990,畜試東區分所,2018-01-06,24.669039,121.832561,1.7537426e-08
C0SB80,長濱漁港,2018-01-06,23.313644,121.459994,5.0582307e-09
C0R240,來義,2018-01-06,22.527306,120.625111,4.856663e-10
C0V910,大樹,2018-01-06,22.684645,120.432803,2.981308e-10
C1R610,西大武山,2018-01-06,22.617719,120.7322,3.353423e-08
C0G900,線西,2018-01-06,24.143358,120.443536,2.2011537e-09
C0M700,竹崎,2018-01-06,23.526178,120.555508,5.672345e-09
C2E880,三義,2018-01-06,24.405478,120.749819,4.0750503e-10
C0C720,竹圍,2018-01-06,25.112692,121.239824,0.9988126
C0F9P0,清水,2018-01-06,24.312297,120.562242,1.5446281e-09
C0Z150,吉安光華,2018-01-06,23.930925,121.595153,1.36636835e-08
C1D640,外坪(五指山),2018-01-06,24.644447,121.090961,3.3006256e-09
C0F9O0,潭子,2018-01-06,24.213106,120.703933,2.6749108e-10
C2H9R0,卓社,2018-01-06,23.887894,121.000086,4.08973e-09
72T250,花蓮農改場,2018-01-06,23.975222,121.563889,3.4705995e-08
C0E780,銅鑼,2018-01-06,24.489681,120.790853,2.5616062e-10
C1T950,太安,2018-01-06,23.666719,121.370128,6.037123e-08
C0E830,苑裡,2018-01-06,24.439714,120.653053,1.2876886e-09
467270,田中,2018-01-06,23.873803,120.581286,6.7007595e-09
C0SA10,檳榔四格山,2018-01-06,22.810031,121.109308,8.950324e-07
C1T830,布洛灣,2018-01-06,24.17184,121.57127,2.5260547e-07
C0F970,大坑,2018-01-06,24.173142,120.722289,3.39447e-10
C1U920,思源,2018-01-06,24.393125,121.347214,3.3269902e-08
C0A931,三和,2018-01-06,25.233153,121.595236,0.00016996152
C0I010,廬山,2018-01-06,24.033311,121.181808,5.287842e-09
C2M940,日野賀,2018-01-06,23.434056,120.727169,4.982413e-09
C0R860,鼻頭,2018-01-06,22.1043,120.8979,0.9996683
C0UB20,壯圍,2018-01-06,24.7359,121.8163,8.092764e-09
C0R790,九棚,2018-01-06,22.14195,120.889281,0.9999063
C0W110,東莒,2018-01-06,25.9652,119.98069,0.000762034
C1U930,粉鳥林,2018-01-06,24.497088,121.842479,2.491772e-08
C1I211,蘆竹湳,2018-01-06,23.934019,120.811994,7.339212e-10
C0S830,長濱,2018-01-06,23.286817,121.411975,5.632659e-09
C1F9F1,伯公龍,2018-01-06,24.272392,120.849047,8.600693e-10
C0E810,西湖,2018-01-06,24.562947,120.7485,1.3099066e-07
C1I440,新高口,2018-01-06,23.478744,120.878939,6.9952386e-09
C0O840,王爺宮,2018-01-06,23.222064,120.40085,8.1595924e-10
C0T9G0,鳳林山,2018-01-06,23.735269,121.420131,1.1033576e-08
C0X080,佳里,2018-01-06,23.173039,120.145086,5.9433275e-10
C0FB70,大甲溪埔,2018-01-06,24.370625,120.620067,9.795658e-10
C0Z310,清水斷崖,2018-01-06,24.218294,121.689142,2.07426e-08
C0M680,太保,2018-01-06,23.455062,120.331455,2.4324816e-08
C1S820,金峰,2018-01-06,22.590969,120.933236,3.1612466e-08
C0AD10,八里,2018-01-06,25.150211,121.403947,0.9988126
C2K240,草嶺,2018-01-06,23.59555,120.693461,4.88872e-09
C1SA70,都蘭,2018-01-06,22.87794,121.226881,1.5155623e-08
C0K440,二崙,2018-01-06,23.772797,120.408944,5.3690113e-10
C1A760,坪林交控,2018-01-06,24.94284,121.713442,9.101612e-07
C0F9N0,大里,2018-01-06,24.092464,120.701378,7.6010664e-10
C0SA90,達仁林場,2018-01-06,22.264347,120.823972,0.7521148
C1R290,石門山,2018-01-06,22.112611,120.756597,0.9981916
42HA10,萬大發電廠,2018-01-06,23.978875,121.139639,3.295989e-09
C0R890,山海,2018-01-06,21.9878,120.7091,0.49455693
C0T9A0,月眉山,2018-01-06,23.809928,121.539828,8.110658e-09
C0AC70,信義,2018-01-06,25.037822,121.564597,0.6308907
C0K560,棋山,2018-01-06,23.68645,120.603417,1.3129934e-09
C2FB50,出雲,2018-01-06,24.206469,120.902794,3.7309436e-09
C1Z240,中平林道,2018-01-06,23.42115,121.26763,6.1608695e-08
U2H480,溪頭,2018-01-06,23.670306,120.798194,5.464267e-09
C0M880,好美里,2018-01-06,23.3364,120.138,6.5141975e-10
C0T9E0,大坑,2018-01-06,23.880628,121.581981,1.2257535e-08
C0K530,臺西,2018-01-06,23.701547,120.197559,1.5165142e-07
C1E900,國一N128K,2018-01-06,24.560997,120.844186,3.2827058e-10
C0AJ50,水湳洞,2018-01-06,25.123695,121.862238,0.8128321
C0AI20,白沙灣,2018-01-06,25.283128,121.519058,0.9997133
C0A860,大坪,2018-01-06,25.165914,121.632969,1.2488914e-06
C1U850,觀音海岸,2018-01-06,24.38319,121.77856,9.187267e-09
C2K610,草嶺石壁,2018-01-06,23.602469,120.707731,5.047167e-09
C0U950,鶯子嶺,2018-01-06,24.89754,121.79244,8.359108e-08
C0O900,善化,2018-01-06,23.112883,120.297219,6.745908e-10
C0K550,蔦松,2018-01-06,23.514319,120.229736,2.423025e-09
E2P980,林試六龜中心,2018-01-06,22.991703,120.645722,1.4362054e-09
C0E590,通霄,2018-01-06,24.471892,120.704622,7.1525394e-09
C1I310,西巒,2018-01-06,23.754486,120.883956,4.535466e-09
C0A550,泰平,2018-01-06,24.971197,121.823711,4.8233926e-07
C0I360,水里,2018-01-06,23.812553,120.849792,3.6031536e-10
C0R830,高士,2018-01-06,22.121825,120.836781,0.9650128
C1I101,溪頭,2018-01-06,23.661789,120.807647,8.104287e-09
C0AJ20,野柳,2018-01-06,25.20703,121.690021,0.015848953
C0B060,暖暖,2018-01-06,25.0957,121.7403,0.002092635
C1H920,長豐,2018-01-06,24.102039,120.879897,1.3868741e-09
C0V360,內門,2018-01-06,22.975481,120.466769,8.069685e-10
C0R850,林邊,2018-01-06,22.4634,120.5339,5.418619e-10
C0E930,龍鳳,2018-01-06,24.700034,120.859125,7.0801348e-06
C0U910,冬山,2018-01-06,24.63373,121.7937,1.7537426e-08
C1E721,泰安,2018-01-06,24.489017,120.968036,6.625119e-09
82H320,茶改中部分場,2018-01-06,23.875611,120.913583,3.4806806e-09
C0M750,布袋,2018-01-06,23.380878,120.167789,7.428331e-10
C1S860,利嘉,2018-01-06,22.809417,121.050528,9.566885e-09
72C440,桃園農改,2018-01-06,24.950944,121.030583,0.9989196
E2S980,林試太麻里1,2018-01-06,22.598922,120.980044,5.010959e-08
C0X170,關廟,2018-01-06,22.963017,120.327797,3.80246e-10
C0V720,林園,2018-01-06,22.507747,120.394511,4.9139115e-10
C1I510,線浸林道,2018-01-06,23.761508,120.832956,5.459829e-09
C0D690,外湖,2018-01-06,24.917735,120.968711,0.9983926
C0C750,新興坑尾,2018-01-06,25.0061,121.0971,0.9999176
B2Q810,畜試南區分所,2018-01-06,21.945583,120.802167,0.12328902
C0S790,金崙,2018-01-06,22.538122,120.966875,1.3893045e-07
C0AH90,福山植物園,2018-01-06,24.760717,121.58135,1.2073733e-07
C0I540,奇萊稜線,2018-01-06,24.109231,121.326456,2.9396897e-08
C0M850,表湖,2018-01-06,23.24186,120.64166,3.3270646e-09
C0S770,大溪山,2018-01-06,22.478475,120.943325,5.726325e-07
C0AG80,中和,2018-01-06,24.991622,121.491792,0.5036619
C0T790,大禹嶺,2018-01-06,24.186117,121.316086,1.4063335e-08
C0T9B0,水源,2018-01-06,23.991861,121.537169,1.6044638e-08
C0R840,牡丹池山,2018-01-06,22.168389,120.841225,0.9993435
C1I131,桶頭,2018-01-06,23.641944,120.654117,6.6854244e-10
CAL110,布袋國中,2018-01-06,23.35893,120.18026,7.428331e-10
467571,新竹,2018-01-06,24.827853,121.014219,0.50708026
C0Z290,赤柯山,2018-01-06,23.36893,121.38293,2.0302835e-08
C0X280,將軍,2018-01-06,23.214999,120.13577,5.5047794e-10
C0S690,太麻里,2018-01-06,22.60902,120.98533,1.7470587e-08
C0U880,北關,2018-01-06,24.9072,121.8734,8.398273e-06
C1H860,瑞岩,2018-01-06,24.123772,121.18345,1.1782427e-08
C0G810,埔心,2018-01-06,23.947633,120.525456,6.5051836e-10
C0U970,大福,2018-01-06,24.80064,121.81389,1.3914374e-08
C2H9N0,仁愛東眼,2018-01-06,24.026875,121.1205,4.5856736e-09
C1E670,南礦,2018-01-06,24.538278,121.002836,6.55052e-09
C0M520,東後寮,2018-01-06,23.369908,120.248065,7.3009004e-10
C1E461,松安,2018-01-06,24.397972,120.986022,6.2125274e-09
72G600,臺中農改,2018-01-06,24.003028,120.534389,4.6722554e-10
C2N160,西拉雅風管處,2018-01-06,23.189481,120.335297,1.307857e-09
C2M970,碧湖,2018-01-06,23.568632,120.624165,4.5053152e-09
C0A640,石碇,2018-01-06,24.993969,121.662917,8.841051e-05
E2S960,林試太麻里2,2018-01-06,22.598,120.99775,6.5789585e-08
C0F9Y0,桃山,2018-01-06,24.432739,121.303808,1.7212004e-08
C1I020,萬大,2018-01-06,23.979817,121.132261,2.972673e-09
C0U940,羅東,2018-01-06,24.68184,121.74934,8.075078e-09
C0M650,朴子,2018-01-06,23.43463,120.23902,8.6750296e-10
C1I500,大尖山,2018-01-06,23.858572,120.994889,9.7381e-09
C0G820,田尾,2018-01-06,23.901669,120.509389,6.518063e-10
E2K600,四湖植物園,2018-01-06,23.676986,120.163433,4.5762002e-07
C0S730,綠島,2018-01-06,22.6672,121.47533,0.9995966
12Q970,東港工作站,2018-01-06,22.479997,120.466058,5.3885857e-10
C0E430,南庄,2018-01-06,24.601775,121.000214,3.79436e-10
C1TA00,太魯閣,2018-01-06,24.15773,121.6236,3.764384e-08
466920,臺北,2018-01-06,25.037658,121.514853,0.6308907
C0R600,舊泰武,2018-01-06,22.588194,120.664944,2.3298312e-09
C1I260,北坑,2018-01-06,23.9246,121.006903,7.838791e-10
466910,鞍部,2018-01-06,25.182586,121.529731,6.5526785e-07
C1I230,九份二山,2018-01-06,23.961944,120.845,2.9014027e-09
C2A660,瑞芳,2018-01-06,25.113169,121.801147,0.10603344
C0R270,琉球嶼,2018-01-06,22.332244,120.362236,1.2918954e-09
C1T990,高寮,2018-01-06,23.394239,121.356808,4.8684625e-09
C0G620,芬園,2018-01-06,24.015678,120.6213,1.1341682e-09
C1Z140,荖溪,2018-01-06,23.890575,121.45964,3.9873658e-08
C1I201,中心崙,2018-01-06,23.728722,120.712097,7.6663537e-10
C1I400,凌霄,2018-01-06,24.018778,121.004456,4.363754e-09
C1M640,十字,2018-01-06,23.492153,120.753683,6.9540658e-09
G2P820,農試鳳山分所,2018-01-06,22.646611,120.356083,6.479143e-10
C0Z270,蕃薯寮,2018-01-06,23.73835,121.540108,1.0030753e-08
C0F9Q0,外埔,2018-01-06,24.347817,120.705686,2.161483e-10
C0K580,高鐵雲林,2018-01-06,23.737456,120.417944,5.2293553e-10
C2I090,鳳凰,2018-01-06,23.728081,120.787347,2.8488523e-09
C0U990,員山,2018-01-06,24.74435,121.72247,8.007563e-09
C0V770,大社,2018-01-06,22.730306,120.346639,2.9878602e-10
C0X120,麻豆,2018-01-06,23.183289,120.248611,8.153229e-10
C0C670,龍潭,2018-01-06,24.870056,121.221389,6.433462e-07
C0D680,香山濕地,2018-01-06,24.783581,120.914988,5.9033556e-07
C0S980,勝林山,2018-01-06,22.430439,120.8938,1.0429302e-07
C0V730,大寮,2018-01-06,22.605614,120.395717,5.305772e-10
C0R570,麟洛,2018-01-06,22.65078,120.52719,5.0010335e-10
C2M930,石卓,2018-01-06,23.478744,120.702264,8.787897e-09
C0G9B0,和美,2018-01-06,24.105169,120.492131,1.642167e-09
CAG100,王功漁港,2018-01-06,23.96824,120.32586,2.6972492e-07
C0X290,北門,2018-01-06,23.267772,120.125481,5.5047794e-10
C2F930,大甲,2018-01-06,24.347667,120.640403,7.564129e-10
C0D650,湖口,2018-01-06,24.904794,121.043628,0.99905443
C0E420,竹南,2018-01-06,24.708978,120.888897,5.996555e-07
C0U780,五結,2018-01-06,24.68637,121.79794,8.092764e-09
C1I250,鯉潭,2018-01-06,23.961922,120.991131,2.6043747e-09
C0R130,阿禮,2018-01-06,22.742908,120.743678,4.2003125e-09
C0X100,臺南市北區,2018-01-06,23.010394,120.194228,3.5994377e-10
C0S920,金峰嘉蘭,2018-01-06,22.594789,120.960825,4.748291e-08
C0V490,新興,2018-01-06,22.627422,120.298803,5.3614385e-10
C0F9K0,大安,2018-01-06,24.345061,120.588025,1.0057685e-09
72N100,臺南農改,2018-01-06,23.0605,120.342194,6.102412e-10
467290,古坑,2018-01-06,23.633639,120.551889,1.434229e-09
C2E970,八甲,2018-01-06,24.535811,120.795983,2.87874e-10
C0V440,鳳山,2018-01-06,22.646653,120.356122,6.479143e-10
C1T940,大觀,2018-01-06,23.714206,121.373133,1.0723951e-08
72T250,花蓮農改,2018-01-06,23.975222,121.563889,3.4705995e-08
C0E740,造橋,2018-01-06,24.637056,120.864778,1.4941267e-09
C0R100,尾寮山,2018-01-06,22.833111,120.683889,5.2388223e-09
A2K630,臺大雲林校區,2018-01-06,23.730628,120.423903,5.2293553e-10
C0D580,寶山,2018-01-06,24.735006,121.025192,4.5543005e-10
E2P990,林試扇平站,2018-01-06,22.9677,120.6857,6.140981e-09
C0AI30,三重,2018-01-06,25.057328,121.500629,0.68818
C0AH00,汐止,2018-01-06,25.066881,121.658778,0.6308907
C1Z040,立山,2018-01-06,23.443356,121.327375,1.5667524e-08
C0W130,花嶼,2018-01-06,23.40007,119.32276,0.9720892
C0A950,鼻頭角,2018-01-06,25.129036,121.923372,0.99994236
C0K470,林內,2018-01-06,23.748675,120.609642,7.746727e-10
C2F990,摩天嶺,2018-01-06,24.322458,120.936819,4.489129e-09
82C160,茶改場,2018-01-06,24.908472,121.185333,0.9330323
C0Z320,清水林道,2018-01-06,23.27125,121.188272,1.6067116e-08
C0R760,南仁湖,2018-01-06,22.084681,120.863353,0.9981822
C0M670,大林,2018-01-06,23.600616,120.45841,2.2867399e-08
C0M800,茶山,2018-01-06,23.299075,120.664767,1.2516871e-09
C0A9C0,天母,2018-01-06,25.117494,121.537169,0.00786211
72K220,南改斗南分場,2018-01-06,23.634556,120.477333,5.990276e-09
72AI40,桃改樹林分場,2018-01-06,24.944503,121.386972,0.9967603
C0S910,蘭嶼燈塔,2018-01-06,22.081197,121.503117,0.9791159
C0B050,八斗子,2018-01-06,25.144754,121.79167,0.9333846
C0U900,內城,2018-01-06,24.71813,121.68766,7.994393e-09
C0X320,柳營,2018-01-06,23.253328,120.375253,1.2961703e-09
C0M790,新港,2018-01-06,23.553269,120.345728,1.6250176e-09
C0F9T0,西屯,2018-01-06,24.179494,120.641275,4.694901e-10
C0SA30,都歷,2018-01-06,23.020333,121.323642,2.3671123e-09
C0C620,蘆竹,2018-01-06,25.084275,121.265767,0.9998926
C0R730,大坪頂,2018-01-06,22.024633,120.69355,0.99995375
C0AJ40,石門,2018-01-06,25.273672,121.601198,0.99447924
C0E750,苗栗,2018-01-06,24.564569,120.824575,3.3572148e-10
C0T870,鯉魚潭,2018-01-06,23.935639,121.508944,1.1585385e-08
C1V170,排雲,2018-01-06,23.463619,120.954147,1.8763771e-08
C2H950,中寮,2018-01-06,23.884447,120.766406,1.5098602e-09
C0R350,貓鼻頭,2018-01-06,21.921774,120.7358,0.53041166
C0V660,岡山,2018-01-06,22.797078,120.294958,7.6839646e-10
C1H941,雙冬,2018-01-06,23.967378,120.802189,8.04307e-10
C0AJ70,田寮,2018-01-06,25.2698,121.4886,0.9997302
C0AI00,五股,2018-01-06,25.07445,121.42728,0.9964904
C0Z280,德武,2018-01-06,23.47426,121.41071,5.0897415e-09
C0R700,枋山,2018-01-06,22.246844,120.661086,0.9586553
C0C460,復興,2018-01-06,24.820208,121.352281,1.2652793e-06
E2H360,蓮華池,2018-01-06,23.918333,120.885278,8.786433e-10
C0M640,中埔,2018-01-06,23.42538,120.5229,3.8373706e-08
C0W140,金沙,2018-01-06,24.488292,118.408778,1.1615342e-06
C2A540,四堵,2018-01-06,24.8926,121.745736,3.6437956e-07
C0ACA0,新莊,2018-01-06,25.051478,121.446756,0.9954862
C0R220,潮州,2018-01-06,22.534361,120.54,5.037451e-10
U2HA40,臺大內茅埔,2018-01-06,23.689722,120.851117,2.7633202e-09
467490,臺中,2018-01-06,24.145736,120.684075,3.820868e-10
C0U960,翠峰湖,2018-01-06,24.510856,121.608044,4.203697e-08
E2HA20,林試畢祿溪站,2018-01-06,24.226944,121.308522,1.4707892e-08
C0V890,前鎮,2018-01-06,22.5718,120.3117,5.443148e-10
467620,蘭嶼,2018-01-06,22.036969,121.558339,0.9913059
C1F941,雪嶺,2018-01-06,24.280586,121.026642,1.8150569e-08
C2H9E0,國姓南港,2018-01-06,23.911108,120.846556,4.5495887e-09
C0AC80,文山,2018-01-06,25.00235,121.575728,0.32014433
C0F9R0,龍井,2018-01-06,24.184536,120.528972,4.177566e-09
C0M760,民雄,2018-01-06,23.551754,120.428457,2.5440118e-08
C0UA40,西德山,2018-01-06,24.560647,121.752608,3.2485076e-08
C1T920,中興,2018-01-06,23.769503,121.498653,6.702038e-09
C0D550,雪霸,2018-01-06,24.526972,121.11605,6.924682e-09
C2F860,梨山,2018-01-06,24.247522,121.243669,1.5076337e-08
C0R320,車城,2018-01-06,22.0744,120.716247,0.9997312
C1S870,南美山,2018-01-06,23.15025,121.382333,7.21004e-09
C0B020,基隆嶼,2018-01-06,25.19141,121.78391,0.99995524
C1U501,牛鬥,2018-01-06,24.637836,121.573656,1.5050306e-08
C0M730,嘉義市東區,2018-01-06,23.457673,120.460531,6.5702613e-07
C0S700,知本,2018-01-06,22.684866,121.005642,1.3271618e-08
C1N001,沙崙,2018-01-06,22.935472,120.309406,3.8744627e-10
C0V760,橋頭,2018-01-06,22.757806,120.30575,3.020625e-10
C0G960,福寶,2018-01-06,24.0443,120.3814,1.729235e-09
C0X210,白河,2018-01-06,23.347466,120.414427,5.8748647e-08
C0S810,東河,2018-01-06,22.972672,121.303986,4.00218e-05
C2R170,屏東,2018-01-06,22.66027,120.49403,5.0010335e-10
C0R670,楓港,2018-01-06,22.190131,120.692156,0.9999799
C0FA50,霧峰,2018-01-06,24.0419,120.6995,1.3049566e-09
C0UB10,蘇澳,2018-01-06,24.5969,121.8571,2.8722383e-08
C0G950,防潮門,2018-01-06,24.1835,120.4871,4.1899026e-09
C0M740,六腳,2018-01-06,23.492871,120.290625,1.3759028e-09
C1R250,力里,2018-01-06,22.428117,120.629228,8.51094e-10
C0K330,虎尾,2018-01-06,23.719183,120.442036,5.1250426e-10
C2FA00,烏石坑,2018-01-06,24.273503,120.947617,4.4096797e-09
C0V620,永安,2018-01-06,22.82315,120.236856,7.678939e-10
C1I330,楓樹林,2018-01-06,23.986803,121.076117,3.545968e-09
C0W200,湖西,2018-01-06,23.596314,119.67275,0.99024194
72Q010,高雄農改場,2018-01-06,22.709333,120.525889,5.996252e-10
C0SA40,瑞和,2018-01-06,22.974361,121.156697,1.6256965e-09
C0C680,龜山,2018-01-06,25.02846,121.38656,0.9705741
C2V260,月眉,2018-01-06,22.971003,120.539853,1.095389e-09
C0V450,鳳森,2018-01-06,22.545064,120.392592,4.6554516e-10
C0U720,南山,2018-01-06,24.43742,121.38167,3.4470474e-08
A2N290,臺南蘭花園區,2018-01-06,23.340258,120.379661,8.896456e-09
C0R560,新園,2018-01-06,22.5434,120.461558,4.9139115e-10
C0U890,三星,2018-01-06,24.66812,121.65302,1.5510057e-08
C1V300,御油山,2018-01-06,23.001983,120.715364,1.17224195e-08
C0U600,礁溪,2018-01-06,24.817539,121.765608,9.561616e-08
C1T980,龍澗,2018-01-06,24.023289,121.411328,7.157074e-08
C0D670,海天一線,2018-01-06,24.831986,120.914438,0.9572008
C0SA00,歷坵,2018-01-06,22.520969,120.89185,4.8406868e-08
C0M710,東石,2018-01-06,23.458927,120.15385,2.337875e-09
C0M780,鹿草,2018-01-06,23.41134,120.30835,8.3657353e-10
C0U520,雙連埤,2018-01-06,24.753033,121.641303,3.222453e-08
C0B010,七堵,2018-01-06,25.094819,121.71713,0.013013549
C0R480,長治,2018-01-06,22.693128,120.542622,2.9207517e-10
C1V830,國三S383K,2018-01-06,22.781967,120.426475,4.4487664e-10
12Q980,恆春工作站,2018-01-06,22.079678,120.714425,0.9997312
C1O940,東山服務區,2018-01-06,23.286016,120.398472,4.9500275e-09
C1U840,東澳嶺,2018-01-06,24.5378,121.8485,2.637142e-08
C1D630,飛鳳山,2018-01-06,24.766464,121.119178,8.126375e-09
C0S940,石寧山,2018-01-06,23.223772,121.406639,5.839971e-09
C0K410,北港,2018-01-06,23.573957,120.292802,1.7456687e-09
C2M620,瑞里,2018-01-06,23.545133,120.675197,5.7889236e-09
C0SB70,小港漁港,2018-01-06,23.158558,121.400431,9.144749e-09
C2O950,安南,2018-01-06,23.076694,120.144861,8.829424e-10
C0F0E0,南湖圈谷,2018-01-06,24.363714,121.444667,5.8685593e-08
467610,成功,2018-01-06,23.097486,121.373428,1.0910732e-08
C0G890,伸港,2018-01-06,24.148933,120.484403,2.2011537e-09
C2E540,龍溪,2018-01-06,24.606489,120.783933,1.627825e-09
C1V200,梅山,2018-01-06,23.268447,120.823556,6.3181167e-09
C0T9H0,加路蘭山,2018-01-06,23.682947,121.5274,1.5155074e-08
C2O930,玉井,2018-01-06,23.126042,120.46055,1.2860588e-09
C1F911,新伯公,2018-01-06,24.221361,120.841069,4.1492457e-10
C0R490,九如,2018-01-06,22.7405,120.490503,6.0738226e-10
C0X200,左鎮,2018-01-06,23.056758,120.408522,7.0408135e-10
C0SB50,叭嗡嗡,2018-01-06,23.047062,121.343223,2.7956055e-09
C1F891,稍來,2018-01-06,24.265689,121.001142,1.4890378e-08
72N240,七股研究中心,2018-01-06,23.081672,120.062894,9.031656e-10
C0C700,中壢,2018-01-06,24.977661,121.256375,0.994756
C0M690,水上,2018-01-06,23.419734,120.388909,2.1455849e-08
C0V690,鼓山,2018-01-06,22.623325,120.275575,5.3614385e-10
C0O860,大內,2018-01-06,23.11885,120.36083,6.4040856e-10
C0Z200,萬榮,2018-01-06,23.709219,121.420106,1.0101792e-08
C0T9D0,和中,2018-01-06,24.26676,121.74103,9.357915e-09
C1O921,楠西,2018-01-06,23.183511,120.484083,2.4110063e-09
C0AJ30,淡水觀海,2018-01-06,25.184591,121.408616,0.24182913
C0V810,左營,2018-01-06,22.67491,120.28491,6.5216443e-10
C0UA70,桃源谷,2018-01-06,24.962606,121.888875,2.9590197e-07
C0X130,官田,2018-01-06,23.193217,120.315422,1.3681958e-09
C1H000,翠峰,2018-01-06,24.109397,121.205211,1.673618e-08
C0UA90,石城,2018-01-06,24.980444,121.951214,0.00015371226
C1E681,南勢山,2018-01-06,24.421669,120.923831,3.3006822e-09
C0A9F0,內湖,2018-01-06,25.079422,121.57545,0.6308907
C0K291,宜梧,2018-01-06,23.536281,120.169329,2.4147617e-09
C1K540,口湖,2018-01-06,23.585344,120.180517,3.0126623e-07
C0R780,滿州,2018-01-06,22.024403,120.839892,0.90356237
C0V870,文安,2018-01-06,22.8025,120.2164,7.958407e-10
C0U650,玉蘭,2018-01-06,24.675286,121.587061,2.7250088e-08
C0R640,東港,2018-01-06,22.46247,120.44074,5.3885857e-10
K2E360,苗栗農改,2018-01-06,24.495722,120.829111,2.5492455e-10
C0AJ80,板橋,2018-01-06,25.0107,121.4489,0.54801965
C0S660,下馬,2018-01-06,23.150427,121.070312,9.38299e-09
C1H9B1,阿眉,2018-01-06,24.1263,120.994672,1.12592655e-08
C0UA20,多加屯,2018-01-06,24.368614,121.373189,9.7107975e-09
C0E730,頭份,2018-01-06,24.688247,120.912206,1.3859051e-06
72V140,高改旗南分場,2018-01-06,22.857861,120.516667,8.752145e-10
C0K480,莿桐,2018-01-06,23.761192,120.502372,5.1571885e-09
C0U980,坪林石牌,2018-01-06,24.86478,121.77396,5.385118e-08
C0T900,西林,2018-01-06,23.8119,121.441458,6.917211e-09
C1I150,青雲,2018-01-06,23.793361,120.949378,8.2295987e-10
467350,澎湖,2018-01-06,23.565503,119.563094,0.9821283
C0G800,埔鹽,2018-01-06,24.000394,120.431683,1.08797e-09
C0H960,草屯,2018-01-06,23.973672,120.68085,1.1445449e-09
C1V780,多納林道,2018-01-06,22.888028,120.737917,4.302283e-09
C0E920,通霄漁港,2018-01-06,24.498589,120.673876,1.4546692e-08
C0Z330,安通山,2018-01-06,23.290728,121.348528,6.6119274e-09
C0AH10,永和,2018-01-06,25.01125,121.508111,0.54696274
C0AK10,太平里,2018-01-06,25.134937,121.364899,0.9986136
C2G640,鹿港,2018-01-06,24.0753,120.430481,1.729235e-09
C1E890,國三N149K,2018-01-06,24.463414,120.680019,9.933931e-10
C1R110,口社,2018-01-06,22.770111,120.645222,1.3311997e-09
C1M870,國三N285K,2018-01-06,23.550319,120.505833,3.5515182e-09
467050,新屋,2018-01-06,25.006744,121.047486,0.9999058
C1E480,鳳美,2018-01-06,24.554803,121.034747,2.9697487e-09
C0M530,奮起湖,2018-01-06,23.493903,120.699253,6.4647767e-09
C0C590,觀音,2018-01-06,25.027072,121.153317,0.99995655
C0T9M0,靜浦,2018-01-06,23.455167,121.495028,4.7770397e-09
C2H9M0,發祥,2018-01-06,24.154094,121.164517,7.890547e-09
C0AI40,石牌,2018-01-06,25.115597,121.513139,0.009245103
C1F871,上谷關,2018-01-06,24.203483,121.018644,3.3911842e-09
C2H9G0,百勝,2018-01-06,24.051142,120.909361,4.900817e-10
C0G880,二水,2018-01-06,23.810742,120.6173,2.2902964e-09
C0R940,加祿堂,2018-01-06,22.3363,120.6217,0.9996384
C0W220,北竿,2018-01-06,26.220358,119.974881,2.3409486e-05
C0O960,崎頂,2018-01-06,22.959547,120.369317,3.531266e-10
C0S750,向陽,2018-01-06,23.248397,120.986133,1.2004942e-08
C0T9F0,水璉,2018-01-06,23.797131,121.542514,7.4219755e-09
C1M600,頭凍,2018-01-06,23.406364,120.603339,6.1468053e-09
467660,臺東,2018-01-06,22.752211,121.154586,0.8600122
C1D380,新埔,2018-01-06,24.84745,121.03834,0.1238824
C2G980,田頭村,2018-01-06,23.8263,120.444175,5.3690113e-10
C0V750,路竹,2018-01-06,22.854997,120.259439,3.673526e-10
C0N050,蚵寮,2018-01-06,23.301,120.1104,6.5141975e-10
72M700,南改鹿草分場,2018-01-06,23.416869,120.283061,8.6750296e-10
C1SA50,利嘉林道,2018-01-06,22.82325,121.009389,4.142276e-08
467550,玉山,2018-01-06,23.487614,120.959522,2.192063e-08
C0A940,金山,2018-01-06,25.223628,121.643967,0.010158058
C1V340,大津,2018-01-06,22.888322,120.645986,1.8553612e-09
C0W180,七美,2018-01-06,23.219333,119.444892,0.9822407
C1F9C1,白冷,2018-01-06,24.182844,120.929889,5.97169e-10
K2E710,苗改生物防治研究中心,2018-01-06,24.422861,120.871833,2.64352e-10
C0N040,蘆竹溝,2018-01-06,23.2344,120.0961,5.5047794e-10
C2W230,畜試所澎湖,2018-01-06,23.628342,119.513206,0.9698983
C0R880,後壁湖,2018-01-06,21.9457,120.7457,0.4163296
C1I280,埔中,2018-01-06,23.820778,120.642594,4.214426e-10
467790,墾丁雷達站,2018-01-06,21.948235,120.808028,0.17537405
C0W190,望安,2018-01-06,23.380564,119.494075,0.9822315
466881,新北,2018-01-06,24.9593,121.52,0.51524884
C0Z170,卓溪,2018-01-06,23.3443,121.3029,5.1085514e-09
C0F850,東勢,2018-01-06,24.246428,120.833047,3.058832e-10
466900,淡水,2018-01-06,25.164889,121.448906,0.9986138
C0I370,魚池,2018-01-06,23.895703,120.94135,9.2957886e-10
C0C630,大溪,2018-01-06,24.882853,121.265547,1.1363968e-06
C0A520,山佳,2018-01-06,24.974944,121.402008,0.99523216
C0I110,竹山,2018-01-06,23.761225,120.688156,1.557117e-09
82H840,茶改南部分場,2018-01-06,23.762528,120.7405,4.0715617e-10
C0G660,溪湖,2018-01-06,23.94835,120.479122,6.584175e-10
C1T800,洛韶,2018-01-06,24.204558,121.453956,6.1491534e-08
C1T810,慈恩,2018-01-06,24.192044,121.388386,1.4256792e-08
C1E451,象鼻,2018-01-06,24.368617,120.940228,2.3782631e-09
C0AC60,三峽,2018-01-06,24.939025,121.369728,0.99552673
C0I490,萬大林道,2018-01-06,23.928228,121.091411,5.725214e-09
C1I290,豐丘,2018-01-06,23.668178,120.887417,5.772154e-09
C1I320,奧萬大,2018-01-06,23.952956,121.178556,3.5078729e-09
C2M910,嘉義大學,2018-01-06,23.471325,120.485903,2.8178485e-07
C0U770,南澳,2018-01-06,24.44935,121.81022,1.3977201e-08
C0A980,社子,2018-01-06,25.109508,121.469681,0.998971
C0V800,六龜,2018-01-06,22.997889,120.633583,1.4366273e-09
C1G9D0,國一S218K,2018-01-06,23.890641,120.493253,6.0425315e-10
C0E570,白沙屯,2018-01-06,24.549447,120.696803,4.6090446e-07
C2F9A0,中竹林,2018-01-06,24.103556,120.751061,3.5438227e-10
C0FA40,臺中電廠,2018-01-06,24.2146,120.4907,4.175845e-09
C2G9A0,畜試所彰化,2018-01-06,23.86045,120.557964,6.7007595e-09
C0H9C0,合歡山,2018-01-06,24.143442,121.272547,2.4768838e-08
C0X060,下營,2018-01-06,23.22695,120.256261,1.7929725e-09
G2M350,農試溪口農場,2018-01-06,23.58565,120.408111,3.0974075e-08
C0U860,頭城,2018-01-06,24.85323,121.8308,9.997407e-08
C0R580,南州,2018-01-06,22.48591,120.50274,5.3885857e-10
C0D430,峨眉,2018-01-06,24.6905,121.017189,4.384634e-10
C0G780,秀水,2018-01-06,24.03405,120.503869,4.669645e-10
72N100,臺南農改場,2018-01-06,23.0605,120.342194,6.102412e-10
C0S900,蘭嶼高中,2018-01-06,22.04909,121.51214,0.9885958
467540,大武,2018-01-06,22.355675,120.903789,0.999839
C1F9W0,德基,2018-01-06,24.254783,121.190261,1.2420465e-08
C1Z120,壽豐,2018-01-06,23.870853,121.508081,1.6455635e-08
C0W160,烏坵,2018-01-06,24.9944,119.44956,0.24776785
C1I240,外大坪,2018-01-06,23.958697,120.917931,2.655083e-09
C1I550,國六W023K,2018-01-06,23.979067,120.867742,3.9436068e-10
C0R870,興海,2018-01-06,21.9752,120.8439,0.12315501
C0R140,瑪家,2018-01-06,22.682903,120.686639,2.3883e-09
C0A530,坪林,2018-01-06,24.938183,121.70975,5.1490383e-07
C0X260,後壁,2018-01-06,23.366358,120.362326,8.896456e-09
C0Z230,和平,2018-01-06,24.30717,121.77007,9.45175e-09
C0G770,福興,2018-01-06,24.041289,120.437669,1.0885367e-09
C0H9A0,神木村,2018-01-06,23.532742,120.843667,7.109559e-09
C0I460,南投,2018-01-06,23.911469,120.687331,1.7714383e-09
C0I480,梅峰,2018-01-06,24.085272,121.173572,8.407169e-09
C1V570,吉東,2018-01-06,22.85422,120.5454,8.310185e-10
C2D740,屯原,2018-01-06,24.067969,121.209389,7.344775e-09
C2A560,福山,2018-01-06,24.776203,121.502811,1.7556192e-07
C0AH30,五分山,2018-01-06,25.07125,121.780794,3.482619e-07
C0FA10,松柏,2018-01-06,24.429115,120.617482,1.4554289e-09
72S200,東改班鳩分場,2018-01-06,22.829528,121.077694,6.135998e-05
72HA00,中改埔里分場,2018-01-06,23.903208,120.963364,8.474606e-10
C2H9W0,大坪頂農水,2018-01-06,24.043122,120.932781,1.3949336e-09
C0C650,平鎮,2018-01-06,24.897503,121.214636,0.7473082
C0S930,延平,2018-01-06,22.902581,121.084058,7.029599e-09
C0UA60,樟樹山,2018-01-06,24.41393,121.78325,5.160044e-08
C1S670,摩天,2018-01-06,23.199503,121.027,3.532287e-08
C0V630,茄萣,2018-01-06,22.906642,120.182608,3.72575e-10
466940,基隆,2018-01-06,25.133314,121.740475,0.8991678
C0X050,東河,2018-01-06,23.296598,120.385608,6.045174e-09
C0R770,保力,2018-01-06,22.071122,120.764111,0.99991024
G2L020,農試嘉義分所,2018-01-06,23.485028,120.473806,1.2264668e-08
C0X240,關子嶺,2018-01-06,23.331169,120.508025,6.478735e-10
C0I380,集集,2018-01-06,23.828206,120.801467,3.5919143e-10
466990,花蓮,2018-01-06,23.975128,121.613275,3.7468197e-08
C1V220,小關山,2018-01-06,23.154217,120.813603,6.862425e-09
C1F9G1,慶福山,2018-01-06,24.180853,120.848378,1.4061718e-09
C0Z250,瑞穗林道,2018-01-06,23.49284,121.30688,6.887224e-08
C0D590,新豐,2018-01-06,24.87068,120.97721,0.9837103
C0A870,五指山,2018-01-06,25.132153,121.608692,1.9634192e-07
C0UA50,西帽山,2018-01-06,24.555361,121.802628,3.0635352e-08
C0X160,仁德,2018-01-06,22.968258,120.257689,3.6700662e-10
C1H971,六分寮,2018-01-06,23.92507,120.6378,6.351401e-10
C0W120,西嶼,2018-01-06,23.5626,119.468436,0.9562526
C0G650,員林,2018-01-06,23.946503,120.585597,4.5160524e-09
C0AD50,鶯歌,2018-01-06,24.951533,121.346294,0.99535394
C2H9Q0,北東眼山,2018-01-06,24.120939,121.189303,1.38461225e-08
C2H9T0,名間竹圍,2018-01-06,23.859914,120.637572,3.796568e-10
C0S990,山豬窟,2018-01-06,22.318619,120.857372,0.14604802
72Q010,高雄農改,2018-01-06,22.709333,120.525889,5.996252e-10
C0X190,安平,2018-01-06,22.993161,120.152181,3.5994377e-10
C0K400,斗六,2018-01-06,23.720583,120.541127,4.7806856e-09
12J990,口湖工作站,2018-01-06,23.589978,120.180394,3.0126623e-07
C0O830,北寮,2018-01-06,23.079561,120.495008,6.396834e-10
C1D410,白蘭,2018-01-06,24.579364,121.079947,7.1649104e-09
C0S970,加津林,2018-01-06,22.416211,120.926942,0.99975896
C0D700,關西,2018-01-06,24.7977,121.1732,1.7935163e-09
C0M810,里佳,2018-01-06,23.389125,120.716647,8.265028e-09
C0U750,龜山島,2018-01-06,24.841667,121.953133,0.9995819
C0R810,內獅,2018-01-06,22.305064,120.642986,0.99963135
C1M390,龍美,2018-01-06,23.406728,120.654417,6.979086e-09
C2FB60,頭櫃山,2018-01-06,24.129842,120.858925,3.8093004e-09
C1H840,國三N238K,2018-01-06,23.841008,120.707711,3.7213752e-10
CAQ030,崎峰國小,2018-01-06,22.42565,120.49521,5.3885857e-10
C2E520,大湖,2018-01-06,24.414939,120.870872,2.7793193e-10
467530,阿里山,2018-01-06,23.508208,120.813242,1.3265645e-08
C1E691,南湖,2018-01-06,24.40135,120.837533,2.4957663e-09
C0FA30,梧棲,2018-01-06,24.256003,120.523381,1.5446281e-09
C1V231,高中,2018-01-06,23.134911,120.716711,3.1375174e-09
C0F9V0,新社,2018-01-06,24.200172,120.815806,4.952688e-10
C0H890,埔里,2018-01-06,23.972169,120.952425,4.2312678e-10
C0R690,墾丁,2018-01-06,21.966756,120.810269,0.9989908
C0F0D0,審馬陣,2018-01-06,24.381675,121.4203,1.4482298e-08
C0R820,白鷺,2018-01-06,22.454275,120.666219,6.3347927e-09
U2H480,臺大溪頭,2018-01-06,23.670306,120.798194,5.464267e-09
C1V190,南天池,2018-01-06,23.27403,120.91176,1.180884e-08
K2E360,苗栗農改場,2018-01-06,24.495722,120.829111,2.5492455e-10
CAJ050,海口故事園區,2018-01-06,23.57543,120.14121,3.0126623e-07
C2H9D0,三隻寮,2018-01-06,24.093078,120.861578,1.4279509e-09
C0O990,媽廟,2018-01-06,22.99175,120.293525,4.191515e-10
C0D480,打鐵坑,2018-01-06,24.849664,121.150789,6.286523e-07
C0Z220,和平林道,2018-01-06,24.343922,121.656317,8.5616945e-09
C0TA10,花蓮漁港,2018-01-06,23.995322,121.638331,3.9930814e-08
72C440,桃園農改場,2018-01-06,24.950944,121.030583,0.9989196
C1E711,馬拉邦山,2018-01-06,24.367306,120.901656,2.4624545e-09
C0SB20,富岡,2018-01-06,22.792467,121.192669,0.8765978
C0D560,竹東,2018-01-06,24.767147,121.057881,1.9161637e-09
C0F9U0,南屯,2018-01-06,24.137006,120.637969,5.257799e-10
C0M720,番路,2018-01-06,23.464657,120.554156,1.2285177e-08
C0F0A0,雪山圈谷,2018-01-06,24.388594,121.236339,2.1547304e-08
C1A9N0,四十份,2018-01-06,24.934158,121.593283,1.8072558e-05
C0U760,東澳,2018-01-06,24.52196,121.83318,2.4273463e-08
C0X230,鹽水,2018-01-06,23.272621,120.247641,6.2912975e-10
C2H9H0,苗改南投蜂場,2018-01-06,23.852589,120.693481,1.907605e-09
C0R950,萬隆國小,2018-01-06,22.507667,120.587817,4.9278026e-10
C0V370,古亭坑,2018-01-06,22.893178,120.401947,4.7512216e-10
C1I340,新興橋,2018-01-06,23.563333,120.868728,4.0674193e-09
C0SA80,土坂,2018-01-06,22.453108,120.887572,7.6886194e-05
C0R160,鹽埔,2018-01-06,22.739558,120.530778,6.0038047e-10
C0AC40,大屯山,2018-01-06,25.175675,121.522408,2.9079342e-07
466850,五分山雷達站,2018-01-06,25.071182,121.781205,3.3403023e-07
C2H9L0,馬烈霸,2018-01-06,24.1512,121.201772,1.3675756e-08
C1AI50,國三N016K,2018-01-06,25.034164,121.619664,0.38570964
C1V600,藤枝,2018-01-06,23.071961,120.757042,8.020249e-09
C1E601,南勢,2018-01-06,24.572486,120.734842,1.7745133e-08
C0Z180,新城,2018-01-06,24.03946,121.60454,3.676649e-08
C0O980,新市,2018-01-06,23.061614,120.298197,6.748457e-10
C0K420,西螺,2018-01-06,23.800407,120.467394,5.353877e-10
C0Z050,佳心,2018-01-06,23.34567,121.21316,1.9667413e-08
C0AD30,蘆洲,2018-01-06,25.086594,121.472331,0.68818
C0V610,梓官,2018-01-06,22.760558,120.267211,3.020625e-10
K2F750,種苗改良場,2018-01-06,24.225972,120.800917,4.512683e-10
C0UA80,大溪漁港,2018-01-06,24.941801,121.902955,7.82854e-06
C1AI60,國一39K邊坡,2018-01-06,25.064361,121.383836,0.98965824
C0W150,金寧,2018-01-06,24.457703,118.328989,3.658919e-05
C0R960,內埔,2018-01-06,22.608483,120.570714,7.611076e-10
V2C250,八德合作社,2018-01-06,24.93775,121.266389,0.97337776
C2H9S0,龍南,2018-01-06,23.953536,120.833183,1.5942253e-09
C0AH40,平等,2018-01-06,25.129142,121.577086,7.909451e-07
C0R540,佳冬,2018-01-06,22.419456,120.552375,0.66381407
466950,彭佳嶼,2018-01-06,25.627975,122.079744,0.9999493
C0A890,雙溪,2018-01-06,25.036003,121.864242,0.07712092
C0C480,桃園,2018-01-06,24.992425,121.323172,0.9978842
C0AH50,林口,2018-01-06,25.072181,121.38084,0.9223139
A2K360,水試臺西試驗場,2018-01-06,23.717231,120.190522,1.7837118e-07
B2N890,畜試所,2018-01-06,23.058972,120.336406,6.100282e-10
C2M960,外寮,2018-01-06,23.562643,120.665688,4.7359516e-09
C0F9S0,烏日,2018-01-06,24.107058,120.624103,9.1027696e-10
C0C490,八德,2018-01-06,24.928708,121.283289,0.9702503
C0R190,赤山,2018-01-06,22.592333,120.614306,7.5230217e-10
C0T820,天祥,2018-01-06,24.179597,121.495639,1.5616617e-07
C1F9E1,龍安,2018-01-06,24.1605,120.831961,4.711668e-10
C0V820,小林,2018-01-06,23.148408,120.63325,5.313651e-10
C2G870,芳苑,2018-01-06,23.922303,120.320025,2.4841353e-07
C0E850,大河,2018-01-06,24.618069,120.948578,3.2814598e-10
C1U670,寒溪,2018-01-06,24.634,121.71691,1.6208396e-08
C0N020,城西,2018-01-06,23.0568,120.0956,3.5994377e-10
C1Z110,三棧,2018-01-06,24.11557,121.60501,1.1019048e-07
C0R280,檳榔,2018-01-06,22.076078,120.836777,0.99984634
C2H9J0,中台,2018-01-06,23.9996,120.938739,7.4544465e-10
C0F9L0,后里,2018-01-06,24.310436,120.729725,2.7480973e-10
C0D540,橫山,2018-01-06,24.71116,121.11693,4.7291976e-10
C1D420,太閣南,2018-01-06,24.632808,121.160575,9.458963e-09
C1E770,公館,2018-01-06,24.526914,120.830806,2.578105e-10
CAN130,水試所海水繁養殖中心,2018-01-06,23.120802,120.07968,9.031656e-10
C1I430,翠華,2018-01-06,24.191961,121.224339,9.740069e-09
C1M400,菜瓜坪,2018-01-06,23.251928,120.576103,8.320748e-10
C0G730,二林,2018-01-06,23.903325,120.376081,9.013208e-10
72M360,南改義竹分場,2018-01-06,23.360694,120.279361,7.304034e-10
V2K620,麥寮合作社,2018-01-06,23.753836,120.294783,7.455854e-10
C0Z070,舞鶴,2018-01-06,23.46811,121.37407,5.187099e-09
C0B040,大武崙,2018-01-06,25.166676,121.706993,0.6777468
C1Z030,紅葉,2018-01-06,23.493119,121.338806,5.796149e-09
C1I050,丹大,2018-01-06,23.753747,121.141147,1.33101e-08
C0I080,信義,2018-01-06,23.689694,120.851036,2.7633202e-09
C2M920,朴子農改,2018-01-06,23.469889,120.259383,8.6750296e-10
C2A880,福隆,2018-01-06,25.017842,121.942083,0.0001736504
C0Z160,鳳林,2018-01-06,23.746114,121.453411,1.0123627e-08
C0V210,復興,2018-01-06,23.222403,120.806089,5.982363e-09
C0H990,昆陽,2018-01-06,24.121322,121.273642,2.6056679e-08
C0R741,獅子,2018-01-06,22.202308,120.705236,0.9992456
C0S710,鹿野,2018-01-06,22.917711,121.122994,1.7627526e-09
C0I530,小奇萊,2018-01-06,24.131764,121.295717,2.708133e-08
C2K630,荷苞,2018-01-06,23.657717,120.595144,1.0455246e-09
C0Z080,富源,2018-01-06,23.587642,121.378225,1.6562412e-08
467441,高雄,2018-01-06,22.7304,120.3125,2.9869257e-10
C0SB10,美和,2018-01-06,22.682078,121.060236,2.9614805e-08
C2K620,馬光農場,2018-01-06,23.721453,120.378864,5.3829563e-10
C1I140,卡奈托灣,2018-01-06,23.754364,121.087872,3.628722e-09
C0I520,玉山風口,2018-01-06,23.470489,120.955994,2.3767132e-08
C1G691,下水埔,2018-01-06,23.816114,120.5676,4.528646e-09
C0X110,臺南市南區,2018-01-06,22.961189,120.188378,3.670073e-10
C0V680,仁武,2018-01-06,22.701083,120.347722,6.5216443e-10
C2G840,北斗,2018-01-06,23.877586,120.514222,5.908211e-10
C0R900,竹坑,2018-01-06,22.1385,120.7022,0.9998136
C0K250,崙背,2018-01-06,23.75555,120.318925,7.4705586e-10
C0G860,社頭,2018-01-06,23.897647,120.5862,7.403807e-09
C0X150,安定,2018-01-06,23.102614,120.227839,5.1073795e-10
C0R590,里港,2018-01-06,22.77919,120.49459,4.6557e-10
C0E610,馬都安,2018-01-06,24.451272,120.930192,2.6940155e-09
C0E550,明德,2018-01-06,24.583486,120.885411,3.2481948e-10
C0R150,三地門,2018-01-06,22.709889,120.639944,1.3327824e-09
C0G910,花壇,2018-01-06,24.032076,120.549461,4.4776846e-10
C1D400,鳥嘴山,2018-01-06,24.71909,121.28387,2.1156957e-08
C0K500,元長,2018-01-06,23.64981,120.315024,1.3586778e-09
C0F0B0,石岡,2018-01-06,24.276061,120.777644,2.9311542e-10
C2V250,甲仙,2018-01-06,23.080106,120.591758,4.3200996e-10
C0SA20,金崙山,2018-01-06,22.567419,120.959667,1.6116193e-08
C0V350,溪埔,2018-01-06,22.738578,120.446797,3.40086e-10
C0M660,溪口,2018-01-06,23.604131,120.403569,3.106436e-08
C1S880,壽卡,2018-01-06,22.238911,120.858903,0.87137395
72D680,桃改新埔分場,2018-01-06,24.834444,121.066111,0.14125651
