站號,站名,日期,lat,lon,BLBTSLS
C0R710,龍磐,2018-03-24,21.931672,120.838942,0.10198182
C1F9D1,白毛台,2018-03-24,24.158325,120.886933,6.173933e-10
C0G940,竹塘,2018-03-24,23.848253,120.386764,5.657971e-10
467590,恆春,2018-03-24,22.003897,120.746339,0.04214689
C1O850,環湖,2018-03-24,23.148617,120.418633,1.3134661e-05
C0U710,太平山,2018-03-24,24.505486,121.525656,9.054825e-09
C0E820,獅潭,2018-03-24,24.539133,120.920042,6.0072985e-10
C0V880,興達,2018-03-24,22.8778,120.2127,1.5981497e-09
C0S890,關山,2018-03-24,23.0395,121.175017,4.767837e-09
C0SB30,新蘭,2018-03-24,22.869214,121.223228,8.194487e-07
C2R970,屏科大,2018-03-24,22.648275,120.619247,4.0367695e-07
K2F750,種苗繁殖,2018-03-24,24.225972,120.800917,8.742185e-10
C1Z130,銅門,2018-03-24,23.965694,121.492842,2.8457676e-09
C0AD40,土城,2018-03-24,24.973208,121.445169,4.323597e-09
CAN140,六官養殖協會,2018-03-24,23.22881,120.29962,2.9655501e-08
C0X180,山上,2018-03-24,23.0757,120.363253,5.4156976e-06
C0F9Z0,雪山東峰,2018-03-24,24.388792,121.268675,1.4483955e-08
C1M480,獨立山,2018-03-24,23.537022,120.607797,6.5905953e-10
C0X220,學甲,2018-03-24,23.230367,120.182187,5.23782e-10
467650,日月潭,2018-03-24,23.881325,120.90805,1.0273753e-09
C0K600,箔子寮,2018-03-24,23.6197,120.14,1.161946e-09
C0G830,埤頭,2018-03-24,23.866003,120.452806,1.7901602e-09
C0S950,七塊厝,2018-03-24,22.954453,121.229922,2.465796e-09
467110,金門,2018-03-24,24.407306,118.289281,1.3503415e-08
C0AH80,深坑,2018-03-24,25.002703,121.628328,2.6310365e-09
467990,馬祖,2018-03-24,26.169269,119.923419,6.764095e-08
C0A970,三貂角,2018-03-24,25.007606,122.002058,2.0435316e-08
C2D730,寶山農場,2018-03-24,24.732444,120.976153,3.9522288e-10
C0K430,褒忠,2018-03-24,23.690938,120.303634,2.5471178e-09
467480,嘉義,2018-03-24,23.495925,120.432906,4.743946e-07
C2E540,後龍,2018-03-24,24.606489,120.783933,5.0982696e-10
C0V400,阿公店,2018-03-24,22.804194,120.355528,8.0262106e-07
C0R440,大漢山,2018-03-24,22.405264,120.753181,1.0404682e-08
C0K280,四湖,2018-03-24,23.630414,120.227125,2.4785556e-09
C1F9B1,桐林,2018-03-24,24.066172,120.735194,4.491456e-10
C2H9U0,鳳鵬,2018-03-24,23.763919,120.788061,6.966568e-10
C0K390,土庫,2018-03-24,23.679029,120.395574,8.603996e-09
C1I450,望鄉山,2018-03-24,23.594153,120.944286,9.075072e-09
C0E910,海埔,2018-03-24,24.648767,120.772435,5.1047405e-10
B2E890,畜試北區分所,2018-03-24,24.527806,120.770972,5.3834803e-10
C0R750,四林格山,2018-03-24,22.076989,120.802439,7.399292e-07
C0F0C0,中坑,2018-03-24,24.248517,120.903319,1.314364e-09
C1I121,大鞍,2018-03-24,23.678381,120.760017,2.5981084e-09
72U480,花改蘭陽分場,2018-03-24,24.686306,121.716583,1.0377622e-09
C0A770,科教館,2018-03-24,25.096356,121.516507,1.8637993e-09
C0AJ60,六塊厝,2018-03-24,25.24,121.4481,7.703295e-09
C0R620,墾雷,2018-03-24,21.900836,120.855269,0.2109119
467420,永康,2018-03-24,23.038386,120.2367,4.477937e-08
467300,東吉島,2018-03-24,23.25695,119.667467,0.0043621217
C0I410,名間,2018-03-24,23.837053,120.701447,1.2942464e-08
A2C560,農工中心,2018-03-24,24.985917,121.239833,2.4801872e-09
C0V740,旗山,2018-03-24,22.888614,120.483597,0.9818891
C0Z061,玉里,2018-03-24,23.3215,121.339656,1.5303673e-09
C0S840,南田,2018-03-24,22.279725,120.889208,0.9004814
C1I470,杉林溪,2018-03-24,23.639517,120.786444,3.2491132e-09
C1X040,東原,2018-03-24,23.291597,120.463822,1.4844581e-08
C0R660,枋寮,2018-03-24,22.367722,120.590647,0.00018470846
C1R120,上德文,2018-03-24,22.763272,120.704442,7.65852e-10
C0K450,大埤,2018-03-24,23.646074,120.431537,5.368453e-08
C0UA00,土場,2018-03-24,24.576533,121.495333,1.2952805e-09
467080,宜蘭,2018-03-24,24.763975,121.756528,2.3551059e-09
C0N030,四草,2018-03-24,23.0235,120.1116,1.6510203e-09
C0V650,彌陀,2018-03-24,22.783806,120.246361,6.625097e-08
C0D660,新竹市東區,2018-03-24,24.798681,120.986942,3.4864395e-10
82S580,茶改東部分場,2018-03-24,22.907694,121.130139,1.6229803e-08
C0SB40,興隆,2018-03-24,22.913661,121.257469,4.8867184e-07
C0C710,大溪永福,2018-03-24,24.892936,121.324975,1.4649371e-09
C0FA20,溫寮,2018-03-24,24.372177,120.583125,6.878645e-10
C0V640,湖內,2018-03-24,22.887139,120.2445,1.5016749e-09
C0R910,下寮,2018-03-24,22.3929,120.5548,0.00019018451
C0Z020,明里,2018-03-24,23.208717,121.262342,2.3008528e-09
C0M770,嘉義梅山,2018-03-24,23.585398,120.555587,7.7631825e-08
G2F820,農業試驗所,2018-03-24,24.031261,120.688133,7.3933043e-10
C0C660,楊梅,2018-03-24,24.912375,121.143047,9.560368e-10
C1E511,新開,2018-03-24,24.347703,120.827019,4.143093e-10
G2F820,農試所(霧峰),2018-03-24,24.031261,120.688133,7.3933043e-10
C1I070,和社,2018-03-24,23.591131,120.888861,6.1806016e-10
C2F000,大肚,2018-03-24,24.15295,120.572117,3.619437e-10
C1S850,豐南,2018-03-24,23.122139,121.262389,1.8931317e-09
C2A920,富貴角,2018-03-24,25.263783,121.565258,4.3460777e-09
CAH030,茶改場竹圍站,2018-03-24,23.860083,120.637528,6.034562e-10
C0T960,光復,2018-03-24,23.660694,121.424964,2.0243007e-09
C0F9M0,豐原,2018-03-24,24.254322,120.720692,6.4999744e-10
C0R720,旭海,2018-03-24,22.205403,120.887614,0.6375658
C0V710,苓雅,2018-03-24,22.622742,120.330669,9.102601e-09
C0C740,觀音工業區,2018-03-24,25.064764,121.114856,4.647735e-09
CAC040,拉拉山,2018-03-24,24.699317,121.427133,7.085787e-09
C0V790,萬山,2018-03-24,22.905944,120.688056,5.039979e-07
U2HA30,臺大和社,2018-03-24,23.590856,120.888864,6.1806016e-10
C0AJ90,澳底,2018-03-24,25.0552,121.9253,4.9318132e-08
C0Z100,東華,2018-03-24,23.89525,121.549833,3.102112e-09
C0G970,三豐,2018-03-24,23.882,120.2895,1.0952552e-09
V2K610,大庄合作社,2018-03-24,23.8068,120.367939,1.0282163e-09
C0V900,汕尾,2018-03-24,22.4782,120.4151,6.335672e-10
C1R630,龍泉,2018-03-24,22.66701,120.59091,9.2498533e-07
C1AC50,關渡,2018-03-24,25.133486,121.469331,1.846514e-09
C0F9I0,神岡,2018-03-24,24.272481,120.658314,3.1377434e-10
C0K460,斗南,2018-03-24,23.678734,120.478359,4.4576296e-08
467410,臺南,2018-03-24,22.993239,120.204772,1.3137875e-09
C2O810,曾文,2018-03-24,23.219681,120.497328,5.497518e-07
467280,後龍,2018-03-24,24.648563,120.831834,5.1159693e-10
C1F9J1,清水林,2018-03-24,24.071242,120.820419,5.266712e-10
C2A650,火燒寮,2018-03-24,25.002719,121.742892,1.7010958e-08
466930,竹子湖,2018-03-24,25.162078,121.544547,1.1784624e-09
C1I220,樟湖,2018-03-24,23.905333,120.846983,1.3248646e-09
C0I390,仁愛,2018-03-24,24.022122,121.132206,8.0775847e-10
C0Z300,東里,2018-03-24,23.26853,121.30547,2.5510027e-09
C1V590,新發,2018-03-24,23.057019,120.646064,4.059599e-09
C0K510,水林,2018-03-24,23.572924,120.24597,9.802541e-09
72S590,東改賓朗果園,2018-03-24,22.813889,121.071278,3.1279708e-08
82A750,茶改北部分場,2018-03-24,24.955778,121.631222,8.460592e-09
C1A750,石碇服務區,2018-03-24,25.00872,121.646242,2.0860587e-09
C0X300,鹿寮,2018-03-24,23.386047,120.477331,7.4534246e-06
G2AI50,關渡,2018-03-24,25.11575,121.492,3.875019e-09
C0K590,雲林東勢,2018-03-24,23.674192,120.255721,8.886976e-09
C0A570,桶後,2018-03-24,24.848222,121.597992,3.7078447e-09
C1S800,華源,2018-03-24,22.657883,121.02325,2.0360305e-08
C0G720,溪州,2018-03-24,23.851589,120.499093,1.5974152e-09
C1V160,達卡努瓦,2018-03-24,23.279811,120.705319,1.4376771e-09
C2M410,馬頭山,2018-03-24,23.324361,120.582017,6.6906196e-09
C0V850,蚵仔寮,2018-03-24,22.7256,120.2527,8.772543e-08
C0S740,池上,2018-03-24,23.119628,121.209469,1.5931949e-09
C1V390,尖山,2018-03-24,22.813153,120.367789,2.8557176e-07
C0AH70,松山,2018-03-24,25.04871,121.55042,1.7262988e-09
C0N010,鯤鯓國小,2018-03-24,23.1879,120.0889,8.68541e-10
C0R550,新埤,2018-03-24,22.467947,120.582894,5.567788e-10
C0SA60,知本（水試所）,2018-03-24,22.702394,121.082761,7.068701e-08
C0T9I0,豐濱,2018-03-24,23.583897,121.514806,9.686707e-10
C0UB00,淡江大學蘭陽校園,2018-03-24,24.823239,121.730383,3.5760022e-09
C0W240,九宮,2018-03-24,24.423753,118.240186,1.349147e-08
C0T9N0,富里,2018-03-24,23.171639,121.249378,2.0336814e-09
U2HA50,臺大竹山,2018-03-24,23.756972,120.681556,2.7543445e-08
C0V840,鳳鼻頭,2018-03-24,22.5083,120.3591,1.5194466e-08
C0X140,西港,2018-03-24,23.125608,120.203108,8.102571e-09
72D080,桃改五峰分場,2018-03-24,24.612194,121.157167,2.5139213e-09
C2H9P0,伊拿谷,2018-03-24,23.963211,121.088264,9.1017976e-10
C2H9F0,柑林,2018-03-24,24.018658,120.847072,7.181352e-10
C0TA20,加灣,2018-03-24,24.082025,121.608944,3.7853646e-08
C0V530,阿蓮,2018-03-24,22.883208,120.327508,5.0179697e-08
C1O880,關山,2018-03-24,23.173397,120.594092,2.9662613e-07
C0E791,卓蘭,2018-03-24,24.3126,120.8244,4.7760446e-10
C1I030,武界,2018-03-24,23.913225,121.052483,9.561791e-10
C0R520,崁頂,2018-03-24,22.514781,120.506914,7.99856e-08
C0R341,牡丹,2018-03-24,22.130036,120.792639,0.6310472
C0R930,萬丹,2018-03-24,22.5885,120.4851,1.328334e-05
C0S760,紅石,2018-03-24,23.069131,121.126219,1.1569927e-08
C1M610,石磐龍,2018-03-24,23.496606,120.663506,1.3374554e-09
C0UA10,鴛鴦湖,2018-03-24,24.590269,121.412228,6.018575e-09
V2C260,八德蔬果,2018-03-24,24.978508,121.281819,2.5567408e-09
C0R800,丹路,2018-03-24,22.204481,120.750989,0.92883676
C0G920,永靖,2018-03-24,23.924703,120.547533,4.5469056e-10
C2M950,太和,2018-03-24,23.538372,120.702961,1.9368067e-09
C1A630,下盆,2018-03-24,24.771003,121.538622,3.4587422e-09
B2N890,畜產試驗所,2018-03-24,23.058972,120.336406,8.9070205e-08
C0UA30,白嶺,2018-03-24,24.527819,121.519031,3.8326724e-09
C1V580,溪南(特生中心),2018-03-24,23.084972,120.788475,2.3935263e-09
C1T970,大農,2018-03-24,23.615233,121.413331,9.32767e-10
E2S960,林試太麻里2,2018-03-24,22.598014,120.989761,1.7007154e-07
C0R650,竹田,2018-03-24,22.58486,120.54344,2.572798e-07
C1H900,清流,2018-03-24,24.080775,120.962997,9.2105973e-10
C1C510,水尾,2018-03-24,24.940081,121.087161,1.3711112e-09
C0F9X0,大雅(中科園區),2018-03-24,24.21528,120.62445,3.002548e-10
C0SB60,白守蓮,2018-03-24,23.126769,121.401914,8.274287e-09
C0O970,虎頭埤,2018-03-24,23.021375,120.347878,3.5268852e-07
C0C730,中大臨海站,2018-03-24,24.966126,121.008581,2.8849088e-09
C0X250,新營,2018-03-24,23.310689,120.316681,3.7617927e-08
C0V700,三民,2018-03-24,22.645017,120.311233,4.0833776e-09
C0U870,大礁溪,2018-03-24,24.791042,121.675047,3.3729093e-09
C0E870,高鐵苗栗,2018-03-24,24.60725,120.826094,5.121808e-10
A2K570,古坑花卉中心,2018-03-24,23.63353,120.55239,8.0971674e-08
C0M860,新美,2018-03-24,23.338017,120.683169,4.5613335e-10
C1E701,八卦,2018-03-24,24.491756,120.927619,9.131689e-10
C0I420,國姓,2018-03-24,24.037803,120.855072,6.522279e-10
C2D720,關西工作站,2018-03-24,24.757275,121.184792,4.472495e-10
C0S960,香蘭,2018-03-24,22.587569,120.993375,1.7007154e-07
C0R260,春日,2018-03-24,22.370361,120.628306,3.8658196e-05
72G600,臺中農改場,2018-03-24,24.003028,120.534389,3.906959e-10
C0Z210,瑞穗,2018-03-24,23.5239,121.39021,1.045726e-09
C0M820,達邦,2018-03-24,23.453994,120.749517,7.61828e-10
C0V860,南寮,2018-03-24,22.7616,120.2339,8.772543e-08
C0G740,大城,2018-03-24,23.852487,120.320935,1.0647637e-09
C0R920,塭仔,2018-03-24,22.4169,120.5197,0.00028006194
C0R470,高樹,2018-03-24,22.826389,120.600806,0.09962098
C0R680,佳樂水,2018-03-24,21.993578,120.861633,0.08848384
C1O870,大棟山,2018-03-24,23.31157,120.52226,7.735565e-10
C0D360,梅花,2018-03-24,24.678347,121.208558,1.0476305e-09
C0Z190,富世,2018-03-24,24.14743,121.6297,1.9545501e-08
C0AI10,屈尺,2018-03-24,24.92184,121.54475,3.3235192e-09
B2U990,畜試東區分所,2018-03-24,24.669039,121.832561,3.551139e-09
C0SB80,長濱漁港,2018-03-24,23.313644,121.459994,2.0472213e-09
C0R240,來義,2018-03-24,22.527306,120.625111,2.6147537e-08
C0V910,大樹,2018-03-24,22.684645,120.432803,1.243123e-07
C1R610,西大武山,2018-03-24,22.617719,120.7322,1.5014582e-08
C0G900,線西,2018-03-24,24.143358,120.443536,3.8443992e-10
C0M700,竹崎,2018-03-24,23.526178,120.555508,2.2452008e-07
C2E880,三義,2018-03-24,24.405478,120.749819,4.704367e-10
C0C720,竹圍,2018-03-24,25.112692,121.239824,3.875019e-09
C0F9P0,清水,2018-03-24,24.312297,120.562242,5.503845e-10
C0Z150,吉安光華,2018-03-24,23.930925,121.595153,4.862894e-09
C1D640,外坪(五指山),2018-03-24,24.644447,121.090961,1.6235832e-09
C0F9O0,潭子,2018-03-24,24.213106,120.703933,8.6356067e-10
C2H9R0,卓社,2018-03-24,23.887894,121.000086,1.2919841e-09
72T250,花蓮農改場,2018-03-24,23.975222,121.563889,7.595534e-09
C0E780,銅鑼,2018-03-24,24.489681,120.790853,4.80964e-10
C1T950,太安,2018-03-24,23.666719,121.370128,1.1628733e-08
C0E830,苑裡,2018-03-24,24.439714,120.653053,6.245923e-10
467270,田中,2018-03-24,23.873803,120.581286,6.673261e-09
C0SA10,檳榔四格山,2018-03-24,22.810031,121.109308,1.15954215e-08
C1T830,布洛灣,2018-03-24,24.17184,121.57127,6.251101e-08
C0F970,大坑,2018-03-24,24.173142,120.722289,5.331356e-10
C1U920,思源,2018-03-24,24.393125,121.347214,6.1363328e-09
C0A931,三和,2018-03-24,25.233153,121.595236,1.6846021e-09
C0I010,廬山,2018-03-24,24.033311,121.181808,1.7977667e-09
C2M940,日野賀,2018-03-24,23.434056,120.727169,1.0618292e-09
C0R860,鼻頭,2018-03-24,22.1043,120.8979,0.65975046
C0UB20,壯圍,2018-03-24,24.7359,121.8163,1.0883e-09
C0R790,九棚,2018-03-24,22.14195,120.889281,0.7060171
C0W110,東莒,2018-03-24,25.9652,119.98069,3.253611e-08
C1U930,粉鳥林,2018-03-24,24.497088,121.842479,2.9869742e-08
C1I211,蘆竹湳,2018-03-24,23.934019,120.811994,4.6193457e-10
C0S830,長濱,2018-03-24,23.286817,121.411975,1.4022749e-09
C1F9F1,伯公龍,2018-03-24,24.272392,120.849047,7.6780166e-10
C0E810,西湖,2018-03-24,24.562947,120.7485,9.544973e-10
C1I440,新高口,2018-03-24,23.478744,120.878939,4.608102e-09
C0O840,王爺宮,2018-03-24,23.222064,120.40085,4.8026315e-08
C0T9G0,鳳林山,2018-03-24,23.735269,121.420131,2.3779456e-09
C0X080,佳里,2018-03-24,23.173039,120.145086,8.68541e-10
C0FB70,大甲溪埔,2018-03-24,24.370625,120.620067,6.5051836e-10
C0Z310,清水斷崖,2018-03-24,24.218294,121.689142,7.3384037e-09
C0M680,太保,2018-03-24,23.455062,120.331455,2.7282627e-07
C1S820,金峰,2018-03-24,22.590969,120.933236,2.4794172e-08
C0AD10,八里,2018-03-24,25.150211,121.403947,3.8707864e-09
C2K240,草嶺,2018-03-24,23.59555,120.693461,1.5857582e-09
C1SA70,都蘭,2018-03-24,22.87794,121.226881,4.8867184e-07
C0K440,二崙,2018-03-24,23.772797,120.408944,4.2445265e-09
C1A760,坪林交控,2018-03-24,24.94284,121.713442,7.044847e-09
C0F9N0,大里,2018-03-24,24.092464,120.701378,5.562788e-10
C0SA90,達仁林場,2018-03-24,22.264347,120.823972,2.8101272e-06
C1R290,石門山,2018-03-24,22.112611,120.756597,0.083696865
42HA10,萬大發電廠,2018-03-24,23.978875,121.139639,1.0022219e-09
C0R890,山海,2018-03-24,21.9878,120.7091,0.08628432
C0T9A0,月眉山,2018-03-24,23.809928,121.539828,2.0332083e-09
C0AC70,信義,2018-03-24,25.037822,121.564597,1.7262954e-09
C0K560,棋山,2018-03-24,23.68645,120.603417,6.438237e-08
C2FB50,出雲,2018-03-24,24.206469,120.902794,1.5245405e-09
C1Z240,中平林道,2018-03-24,23.42115,121.26763,1.132271e-08
U2H480,溪頭,2018-03-24,23.670306,120.798194,1.5797988e-09
C0M880,好美里,2018-03-24,23.3364,120.138,6.6710815e-10
C0T9E0,大坑,2018-03-24,23.880628,121.581981,2.3251567e-09
C0K530,臺西,2018-03-24,23.701547,120.197559,1.3582192e-09
C1E900,國一N128K,2018-03-24,24.560997,120.844186,4.7699084e-10
C0AJ50,水湳洞,2018-03-24,25.123695,121.862238,6.7753767e-09
C0AI20,白沙灣,2018-03-24,25.283128,121.519058,7.3749704e-09
C0A860,大坪,2018-03-24,25.165914,121.632969,1.0345605e-09
C1U850,觀音海岸,2018-03-24,24.38319,121.77856,3.0923764e-09
C2K610,草嶺石壁,2018-03-24,23.602469,120.707731,1.6341619e-09
C0U950,鶯子嶺,2018-03-24,24.89754,121.79244,8.9456815e-09
C0O900,善化,2018-03-24,23.112883,120.297219,1.5137111e-07
C0K550,蔦松,2018-03-24,23.514319,120.229736,3.1949356e-09
E2P980,林試六龜中心,2018-03-24,22.991703,120.645722,7.986044e-08
C0E590,通霄,2018-03-24,24.471892,120.704622,6.479365e-10
C1I310,西巒,2018-03-24,23.754486,120.883956,1.2419678e-09
C0A550,泰平,2018-03-24,24.971197,121.823711,1.0867324e-08
C0I360,水里,2018-03-24,23.812553,120.849792,1.1759745e-09
C0R830,高士,2018-03-24,22.121825,120.836781,0.0018865033
C1I101,溪頭,2018-03-24,23.661789,120.807647,3.7043526e-09
C0AJ20,野柳,2018-03-24,25.20703,121.690021,2.1490285e-09
C0B060,暖暖,2018-03-24,25.0957,121.7403,1.4696556e-09
C1H920,長豐,2018-03-24,24.102039,120.879897,7.118118e-10
C0V360,內門,2018-03-24,22.975481,120.466769,0.011217946
C0R850,林邊,2018-03-24,22.4634,120.5339,6.012732e-10
C0E930,龍鳳,2018-03-24,24.700034,120.859125,5.968581e-10
C0U910,冬山,2018-03-24,24.63373,121.7937,3.551139e-09
C1E721,泰安,2018-03-24,24.489017,120.968036,2.087583e-09
82H320,茶改中部分場,2018-03-24,23.875611,120.913583,8.8794305e-10
C0M750,布袋,2018-03-24,23.380878,120.167789,1.5570635e-09
C1S860,利嘉,2018-03-24,22.809417,121.050528,9.1588355e-09
72C440,桃園農改,2018-03-24,24.950944,121.030583,1.5099811e-09
E2S980,林試太麻里1,2018-03-24,22.598922,120.980044,6.3345176e-08
C0X170,關廟,2018-03-24,22.963017,120.327797,1.4343178e-07
C0V720,林園,2018-03-24,22.507747,120.394511,1.1780696e-08
C1I510,線浸林道,2018-03-24,23.761508,120.832956,1.6119535e-09
C0D690,外湖,2018-03-24,24.917735,120.968711,1.6866983e-09
C0C750,新興坑尾,2018-03-24,25.0061,121.0971,2.4674098e-09
B2Q810,畜試南區分所,2018-03-24,21.945583,120.802167,0.08792384
C0S790,金崙,2018-03-24,22.538122,120.966875,3.636401e-08
C0AH90,福山植物園,2018-03-24,24.760717,121.58135,4.2175166e-09
C0I540,奇萊稜線,2018-03-24,24.109231,121.326456,1.3697005e-08
C0M850,表湖,2018-03-24,23.24186,120.64166,1.0167918e-09
C0S770,大溪山,2018-03-24,22.478475,120.943325,4.0749846e-08
C0AG80,中和,2018-03-24,24.991622,121.491792,4.323597e-09
C0T790,大禹嶺,2018-03-24,24.186117,121.316086,6.1476024e-09
C0T9B0,水源,2018-03-24,23.991861,121.537169,2.898731e-09
C0R840,牡丹池山,2018-03-24,22.168389,120.841225,0.018787688
C1I131,桶頭,2018-03-24,23.641944,120.654117,5.081904e-09
CAL110,布袋國中,2018-03-24,23.35893,120.18026,1.5570635e-09
467571,新竹,2018-03-24,24.827853,121.014219,7.443677e-10
C0Z290,赤柯山,2018-03-24,23.36893,121.38293,5.9031e-09
C0X280,將軍,2018-03-24,23.214999,120.13577,5.3846716e-10
C0S690,太麻里,2018-03-24,22.60902,120.98533,6.72909e-09
C0U880,北關,2018-03-24,24.9072,121.8734,1.2693078e-08
C1H860,瑞岩,2018-03-24,24.123772,121.18345,3.2332377e-09
C0G810,埔心,2018-03-24,23.947633,120.525456,4.5481632e-10
C0U970,大福,2018-03-24,24.80064,121.81389,2.4085702e-09
C2H9N0,仁愛東眼,2018-03-24,24.026875,121.1205,1.4487733e-09
C1E670,南礦,2018-03-24,24.538278,121.002836,2.2664477e-09
C0M520,東後寮,2018-03-24,23.369908,120.248065,1.4212801e-09
C1E461,松安,2018-03-24,24.397972,120.986022,1.9409707e-09
72G600,臺中農改,2018-03-24,24.003028,120.534389,3.906959e-10
C2N160,西拉雅風管處,2018-03-24,23.189481,120.335297,3.300535e-06
C2M970,碧湖,2018-03-24,23.568632,120.624165,1.3907467e-09
C0A640,石碇,2018-03-24,24.993969,121.662917,1.2514364e-09
E2S960,林試太麻里2,2018-03-24,22.598,120.99775,2.0045475e-07
C0F9Y0,桃山,2018-03-24,24.432739,121.303808,1.45960515e-08
C1I020,萬大,2018-03-24,23.979817,121.132261,8.1812696e-10
C0U940,羅東,2018-03-24,24.68184,121.74934,1.0604811e-09
C0M650,朴子,2018-03-24,23.43463,120.23902,3.4014582e-09
C1I500,大尖山,2018-03-24,23.858572,120.994889,4.2631636e-09
C0G820,田尾,2018-03-24,23.901669,120.509389,4.5469056e-10
E2K600,四湖植物園,2018-03-24,23.676986,120.163433,2.4785556e-09
C0S730,綠島,2018-03-24,22.6672,121.47533,0.00015172196
12Q970,東港工作站,2018-03-24,22.479997,120.466058,6.3547334e-10
C0E430,南庄,2018-03-24,24.601775,121.000214,5.9572647e-10
C1TA00,太魯閣,2018-03-24,24.15773,121.6236,1.8479737e-08
466920,臺北,2018-03-24,25.037658,121.514853,1.7262954e-09
C0R600,舊泰武,2018-03-24,22.588194,120.664944,4.626947e-10
C1I260,北坑,2018-03-24,23.9246,121.006903,4.732951e-10
466910,鞍部,2018-03-24,25.182586,121.529731,2.6365574e-09
C1I230,九份二山,2018-03-24,23.961944,120.845,8.029949e-10
C2A660,瑞芳,2018-03-24,25.113169,121.801147,5.6791434e-09
C0R270,琉球嶼,2018-03-24,22.332244,120.362236,1.3198932e-07
C1T990,高寮,2018-03-24,23.394239,121.356808,1.4918259e-09
C0G620,芬園,2018-03-24,24.015678,120.6213,6.4527134e-10
C1Z140,荖溪,2018-03-24,23.890575,121.45964,1.843341e-08
C1I201,中心崙,2018-03-24,23.728722,120.712097,3.6226486e-10
C1I400,凌霄,2018-03-24,24.018778,121.004456,1.3789189e-09
C1M640,十字,2018-03-24,23.492153,120.753683,1.897354e-09
G2P820,農試鳳山分所,2018-03-24,22.646611,120.356083,3.1398941e-09
C0Z270,蕃薯寮,2018-03-24,23.73835,121.540108,1.77979e-09
C0F9Q0,外埔,2018-03-24,24.347817,120.705686,3.6432563e-10
C0K580,高鐵雲林,2018-03-24,23.737456,120.417944,5.3905516e-09
C2I090,鳳凰,2018-03-24,23.728081,120.787347,6.9878603e-10
C0U990,員山,2018-03-24,24.74435,121.72247,1.0613472e-09
C0V770,大社,2018-03-24,22.730306,120.346639,4.8332232e-08
C0X120,麻豆,2018-03-24,23.183289,120.248611,1.5982451e-08
C0C670,龍潭,2018-03-24,24.870056,121.221389,5.909879e-10
C0D680,香山濕地,2018-03-24,24.783581,120.914988,3.6230424e-10
C0S980,勝林山,2018-03-24,22.430439,120.8938,1.4383306e-08
C0V730,大寮,2018-03-24,22.605614,120.395717,6.8717636e-09
C0R570,麟洛,2018-03-24,22.65078,120.52719,0.060820904
C2M930,石卓,2018-03-24,23.478744,120.702264,2.307225e-09
C0G9B0,和美,2018-03-24,24.105169,120.492131,2.8326178e-10
CAG100,王功漁港,2018-03-24,23.96824,120.32586,1.1276196e-09
C0X290,北門,2018-03-24,23.267772,120.125481,5.384692e-10
C2F930,大甲,2018-03-24,24.347667,120.640403,6.355752e-10
C0D650,湖口,2018-03-24,24.904794,121.043628,1.3986154e-09
C0E420,竹南,2018-03-24,24.708978,120.888897,6.015531e-10
C0U780,五結,2018-03-24,24.68637,121.79794,1.0875095e-09
C1I250,鯉潭,2018-03-24,23.961922,120.991131,7.2182377e-10
C0R130,阿禮,2018-03-24,22.742908,120.743678,9.75879e-10
C0X100,臺南市北區,2018-03-24,23.010394,120.194228,1.5660823e-09
C0S920,金峰嘉蘭,2018-03-24,22.594789,120.960825,5.7917536e-08
C0V490,新興,2018-03-24,22.627422,120.298803,9.08536e-09
C0F9K0,大安,2018-03-24,24.345061,120.588025,6.4992056e-10
72N100,臺南農改,2018-03-24,23.0605,120.342194,8.915655e-08
467290,古坑,2018-03-24,23.633639,120.551889,8.0971674e-08
C2E970,八甲,2018-03-24,24.535811,120.795983,4.6023813e-10
C0V440,鳳山,2018-03-24,22.646653,120.356122,3.1398941e-09
C1T940,大觀,2018-03-24,23.714206,121.373133,2.0657547e-09
72T250,花蓮農改,2018-03-24,23.975222,121.563889,7.595534e-09
C0E740,造橋,2018-03-24,24.637056,120.864778,5.121808e-10
C0R100,尾寮山,2018-03-24,22.833111,120.683889,7.206448e-10
A2K630,臺大雲林校區,2018-03-24,23.730628,120.423903,5.3905516e-09
C0D580,寶山,2018-03-24,24.735006,121.025192,1.4737567e-09
E2P990,林試扇平站,2018-03-24,22.9677,120.6857,1.7372319e-09
C0AI30,三重,2018-03-24,25.057328,121.500629,1.8637993e-09
C0AH00,汐止,2018-03-24,25.066881,121.658778,1.7262954e-09
C1Z040,立山,2018-03-24,23.443356,121.327375,4.0921804e-09
C0W130,花嶼,2018-03-24,23.40007,119.32276,0.00022986696
C0A950,鼻頭角,2018-03-24,25.129036,121.923372,4.228407e-06
C0K470,林內,2018-03-24,23.748675,120.609642,6.881552e-08
C2F990,摩天嶺,2018-03-24,24.322458,120.936819,1.5507889e-09
82C160,茶改場,2018-03-24,24.908472,121.185333,8.855059e-10
C0Z320,清水林道,2018-03-24,23.27125,121.188272,5.586747e-09
C0R760,南仁湖,2018-03-24,22.084681,120.863353,0.083696865
C0M670,大林,2018-03-24,23.600616,120.45841,2.413914e-07
C0M800,茶山,2018-03-24,23.299075,120.664767,5.591435e-10
C0A9C0,天母,2018-03-24,25.117494,121.537169,2.718819e-09
72K220,南改斗南分場,2018-03-24,23.634556,120.477333,4.4576296e-08
72AI40,桃改樹林分場,2018-03-24,24.944503,121.386972,3.592786e-09
C0S910,蘭嶼燈塔,2018-03-24,22.081197,121.503117,0.9977118
C0B050,八斗子,2018-03-24,25.144754,121.79167,7.180246e-09
C0U900,內城,2018-03-24,24.71813,121.68766,1.0173699e-09
C0X320,柳營,2018-03-24,23.253328,120.375253,7.0980855e-07
C0M790,新港,2018-03-24,23.553269,120.345728,1.4349657e-08
C0F9T0,西屯,2018-03-24,24.179494,120.641275,3.3873038e-10
C0SA30,都歷,2018-03-24,23.020333,121.323642,1.91501e-08
C0C620,蘆竹,2018-03-24,25.084275,121.265767,3.1686336e-09
C0R730,大坪頂,2018-03-24,22.024633,120.69355,0.33176032
C0AJ40,石門,2018-03-24,25.273672,121.601198,4.686842e-09
C0E750,苗栗,2018-03-24,24.564569,120.824575,4.830122e-10
C0T870,鯉魚潭,2018-03-24,23.935639,121.508944,3.0321883e-09
C1V170,排雲,2018-03-24,23.463619,120.954147,1.3467303e-08
C2H950,中寮,2018-03-24,23.884447,120.766406,9.720749e-09
C0R350,貓鼻頭,2018-03-24,21.921774,120.7358,0.33303612
C0V660,岡山,2018-03-24,22.797078,120.294958,6.643521e-08
C1H941,雙冬,2018-03-24,23.967378,120.802189,4.7874543e-10
C0AJ70,田寮,2018-03-24,25.2698,121.4886,7.525063e-09
C0AI00,五股,2018-03-24,25.07445,121.42728,2.2891957e-09
C0Z280,德武,2018-03-24,23.47426,121.41071,1.2116759e-09
C0R700,枋山,2018-03-24,22.246844,120.661086,0.031889997
C0C460,復興,2018-03-24,24.820208,121.352281,8.4679974e-10
E2H360,蓮華池,2018-03-24,23.918333,120.885278,5.0861093e-10
C0M640,中埔,2018-03-24,23.42538,120.5229,5.1094264e-07
C0W140,金沙,2018-03-24,24.488292,118.408778,2.6089351e-08
C2A540,四堵,2018-03-24,24.8926,121.745736,6.4151524e-09
C0ACA0,新莊,2018-03-24,25.051478,121.446756,3.4602203e-09
C0R220,潮州,2018-03-24,22.534361,120.54,7.505944e-08
U2HA40,臺大內茅埔,2018-03-24,23.689722,120.851117,8.3397667e-10
467490,臺中,2018-03-24,24.145736,120.684075,6.587051e-10
C0U960,翠峰湖,2018-03-24,24.510856,121.608044,7.618429e-09
E2HA20,林試畢祿溪站,2018-03-24,24.226944,121.308522,5.45166e-09
C0V890,前鎮,2018-03-24,22.5718,120.3117,9.7511474e-09
467620,蘭嶼,2018-03-24,22.036969,121.558339,0.99966246
C1F941,雪嶺,2018-03-24,24.280586,121.026642,1.1649267e-08
C2H9E0,國姓南港,2018-03-24,23.911108,120.846556,1.389278e-09
C0AC80,文山,2018-03-24,25.00235,121.575728,2.6426594e-09
C0F9R0,龍井,2018-03-24,24.184536,120.528972,4.056609e-10
C0M760,民雄,2018-03-24,23.551754,120.428457,2.8487977e-07
C0UA40,西德山,2018-03-24,24.560647,121.752608,4.1849826e-09
C1T920,中興,2018-03-24,23.769503,121.498653,1.7877649e-09
C0D550,雪霸,2018-03-24,24.526972,121.11605,4.1388226e-09
C2F860,梨山,2018-03-24,24.247522,121.243669,5.6668945e-09
C0R320,車城,2018-03-24,22.0744,120.716247,0.09384025
C1S870,南美山,2018-03-24,23.15025,121.382333,2.0273376e-09
C0B020,基隆嶼,2018-03-24,25.19141,121.78391,4.1880512e-07
C1U501,牛鬥,2018-03-24,24.637836,121.573656,1.7009295e-09
C0M730,嘉義市東區,2018-03-24,23.457673,120.460531,9.797348e-06
C0S700,知本,2018-03-24,22.684866,121.005642,6.258029e-09
C1N001,沙崙,2018-03-24,22.935472,120.309406,1.8363424e-07
C0V760,橋頭,2018-03-24,22.757806,120.30575,6.0615605e-08
C0G960,福寶,2018-03-24,24.0443,120.3814,2.8902608e-10
C0X210,白河,2018-03-24,23.347466,120.414427,2.2284596e-05
C0S810,東河,2018-03-24,22.972672,121.303986,8.724999e-07
C2R170,屏東,2018-03-24,22.66027,120.49403,0.060442768
C0R670,楓港,2018-03-24,22.190131,120.692156,0.8667933
C0FA50,霧峰,2018-03-24,24.0419,120.6995,7.1766143e-10
C0UB10,蘇澳,2018-03-24,24.5969,121.8571,8.37302e-09
C0G950,防潮門,2018-03-24,24.1835,120.4871,4.059411e-10
C0M740,六腳,2018-03-24,23.492871,120.290625,1.037088e-08
C1R250,力里,2018-03-24,22.428117,120.629228,6.2347943e-10
C0K330,虎尾,2018-03-24,23.719183,120.442036,4.962373e-09
C2FA00,烏石坑,2018-03-24,24.273503,120.947617,1.5178179e-09
C0V620,永安,2018-03-24,22.82315,120.236856,6.625097e-08
C1I330,楓樹林,2018-03-24,23.986803,121.076117,1.0105718e-09
C0W200,湖西,2018-03-24,23.596314,119.67275,0.00032171767
72Q010,高雄農改場,2018-03-24,22.709333,120.525889,0.17141561
C0SA40,瑞和,2018-03-24,22.974361,121.156697,8.785835e-09
C0C680,龜山,2018-03-24,25.02846,121.38656,1.9814286e-09
C2V260,月眉,2018-03-24,22.971003,120.539853,0.7611276
C0V450,鳳森,2018-03-24,22.545064,120.392592,6.631744e-09
C0U720,南山,2018-03-24,24.43742,121.38167,2.6129279e-09
A2N290,臺南蘭花園區,2018-03-24,23.340258,120.379661,5.893641e-08
C0R560,新園,2018-03-24,22.5434,120.461558,1.1780696e-08
C0U890,三星,2018-03-24,24.66812,121.65302,1.7609548e-09
C1V300,御油山,2018-03-24,23.001983,120.715364,3.2517171e-09
C0U600,礁溪,2018-03-24,24.817539,121.765608,5.027528e-09
C1T980,龍澗,2018-03-24,24.023289,121.411328,1.9792163e-08
C0D670,海天一線,2018-03-24,24.831986,120.914438,1.0977922e-09
C0SA00,歷坵,2018-03-24,22.520969,120.89185,9.834658e-09
C0M710,東石,2018-03-24,23.458927,120.15385,6.17252e-10
C0M780,鹿草,2018-03-24,23.41134,120.30835,3.1617573e-09
C0U520,雙連埤,2018-03-24,24.753033,121.641303,3.3691223e-09
C0B010,七堵,2018-03-24,25.094819,121.71713,1.6990844e-09
C0R480,長治,2018-03-24,22.693128,120.542622,8.495864e-08
C1V830,國三S383K,2018-03-24,22.781967,120.426475,0.019316895
12Q980,恆春工作站,2018-03-24,22.079678,120.714425,0.09384025
C1O940,東山服務區,2018-03-24,23.286016,120.398472,1.3797958e-05
C1U840,東澳嶺,2018-03-24,24.5378,121.8485,5.726732e-09
C1D630,飛鳳山,2018-03-24,24.766464,121.119178,4.8791504e-10
C0S940,石寧山,2018-03-24,23.223772,121.406639,2.795984e-09
C0K410,北港,2018-03-24,23.573957,120.292802,8.945016e-09
C2M620,瑞里,2018-03-24,23.545133,120.675197,1.6770297e-09
C0SB70,小港漁港,2018-03-24,23.158558,121.400431,4.853082e-09
C2O950,安南,2018-03-24,23.076694,120.144861,9.617412e-10
C0F0E0,南湖圈谷,2018-03-24,24.363714,121.444667,2.3971182e-08
467610,成功,2018-03-24,23.097486,121.373428,6.220816e-09
C0G890,伸港,2018-03-24,24.148933,120.484403,3.8443992e-10
C2E540,龍溪,2018-03-24,24.606489,120.783933,5.0982696e-10
C1V200,梅山,2018-03-24,23.268447,120.823556,8.9887947e-10
C0T9H0,加路蘭山,2018-03-24,23.682947,121.5274,3.1771608e-09
C2O930,玉井,2018-03-24,23.126042,120.46055,5.403558e-06
C1F911,新伯公,2018-03-24,24.221361,120.841069,9.984364e-10
C0R490,九如,2018-03-24,22.7405,120.490503,0.25515044
C0X200,左鎮,2018-03-24,23.056758,120.408522,4.592061e-07
C0SB50,叭嗡嗡,2018-03-24,23.047062,121.343223,6.822388e-08
C1F891,稍來,2018-03-24,24.265689,121.001142,7.917895e-09
72N240,七股研究中心,2018-03-24,23.081672,120.062894,1.035526e-09
C0C700,中壢,2018-03-24,24.977661,121.256375,2.2722044e-09
C0M690,水上,2018-03-24,23.419734,120.388909,2.3021363e-07
C0V690,鼓山,2018-03-24,22.623325,120.275575,9.069535e-09
C0O860,大內,2018-03-24,23.11885,120.36083,1.0196222e-07
C0Z200,萬榮,2018-03-24,23.709219,121.420106,1.5981771e-09
C0T9D0,和中,2018-03-24,24.26676,121.74103,2.9262677e-09
C1O921,楠西,2018-03-24,23.183511,120.484083,7.715017e-06
C0AJ30,淡水觀海,2018-03-24,25.184591,121.408616,3.271138e-09
C0V810,左營,2018-03-24,22.67491,120.28491,4.0833776e-09
C0UA70,桃源谷,2018-03-24,24.962606,121.888875,1.07166915e-08
C0X130,官田,2018-03-24,23.193217,120.315422,4.15549e-06
C1H000,翠峰,2018-03-24,24.109397,121.205211,5.4194276e-09
C0UA90,石城,2018-03-24,24.980444,121.951214,2.3106479e-08
C1E681,南勢山,2018-03-24,24.421669,120.923831,1.4448602e-09
C0A9F0,內湖,2018-03-24,25.079422,121.57545,1.7262954e-09
C0K291,宜梧,2018-03-24,23.536281,120.169329,3.1905267e-09
C1K540,口湖,2018-03-24,23.585344,120.180517,1.1633164e-09
C0R780,滿州,2018-03-24,22.024403,120.839892,0.0489763
C0V870,文安,2018-03-24,22.8025,120.2164,6.963559e-08
C0U650,玉蘭,2018-03-24,24.675286,121.587061,2.4702398e-09
C0R640,東港,2018-03-24,22.46247,120.44074,6.340544e-10
K2E360,苗栗農改,2018-03-24,24.495722,120.829111,5.124827e-10
C0AJ80,板橋,2018-03-24,25.0107,121.4489,4.9703206e-09
C0S660,下馬,2018-03-24,23.150427,121.070312,7.4058124e-09
C1H9B1,阿眉,2018-03-24,24.1263,120.994672,3.5875887e-09
C0UA20,多加屯,2018-03-24,24.368614,121.373189,6.165569e-09
C0E730,頭份,2018-03-24,24.688247,120.912206,6.033998e-10
72V140,高改旗南分場,2018-03-24,22.857861,120.516667,0.9842821
C0K480,莿桐,2018-03-24,23.761192,120.502372,6.5644157e-09
C0U980,坪林石牌,2018-03-24,24.86478,121.77396,3.6311383e-09
C0T900,西林,2018-03-24,23.8119,121.441458,1.6619142e-09
C1I150,青雲,2018-03-24,23.793361,120.949378,5.0578713e-10
467350,澎湖,2018-03-24,23.565503,119.563094,0.0024132552
C0G800,埔鹽,2018-03-24,24.000394,120.431683,3.1348898e-10
C0H960,草屯,2018-03-24,23.973672,120.68085,6.5064243e-10
C1V780,多納林道,2018-03-24,22.888028,120.737917,7.320953e-10
C0E920,通霄漁港,2018-03-24,24.498589,120.673876,6.841733e-10
C0Z330,安通山,2018-03-24,23.290728,121.348528,1.4705865e-09
C0AH10,永和,2018-03-24,25.01125,121.508111,4.9703206e-09
C0AK10,太平里,2018-03-24,25.134937,121.364899,3.819012e-09
C2G640,鹿港,2018-03-24,24.0753,120.430481,2.8902608e-10
C1E890,國三N149K,2018-03-24,24.463414,120.680019,6.063463e-10
C1R110,口社,2018-03-24,22.770111,120.645222,1.8617878e-07
C1M870,國三N285K,2018-03-24,23.550319,120.505833,1.4084293e-07
467050,新屋,2018-03-24,25.006744,121.047486,2.7366436e-09
C1E480,鳳美,2018-03-24,24.554803,121.034747,1.0081846e-09
C0M530,奮起湖,2018-03-24,23.493903,120.699253,1.9641648e-09
C0C590,觀音,2018-03-24,25.027072,121.153317,4.0211674e-09
C0T9M0,靜浦,2018-03-24,23.455167,121.495028,1.5227765e-09
C2H9M0,發祥,2018-03-24,24.154094,121.164517,1.9071866e-09
C0AI40,石牌,2018-03-24,25.115597,121.513139,2.7743048e-09
C1F871,上谷關,2018-03-24,24.203483,121.018644,1.3715219e-09
C2H9G0,百勝,2018-03-24,24.051142,120.909361,4.2191795e-10
C0G880,二水,2018-03-24,23.810742,120.6173,2.9162566e-08
C0R940,加祿堂,2018-03-24,22.3363,120.6217,0.16999778
C0W220,北竿,2018-03-24,26.220358,119.974881,6.526255e-08
C0O960,崎頂,2018-03-24,22.959547,120.369317,2.5882768e-08
C0S750,向陽,2018-03-24,23.248397,120.986133,4.146218e-09
C0T9F0,水璉,2018-03-24,23.797131,121.542514,1.6467997e-09
C1M600,頭凍,2018-03-24,23.406364,120.603339,8.232424e-10
467660,臺東,2018-03-24,22.752211,121.154586,0.0030974774
C1D380,新埔,2018-03-24,24.84745,121.03834,7.040505e-10
C2G980,田頭村,2018-03-24,23.8263,120.444175,4.2445185e-09
C0V750,路竹,2018-03-24,22.854997,120.259439,1.4356055e-09
C0N050,蚵寮,2018-03-24,23.301,120.1104,6.667863e-10
72M700,南改鹿草分場,2018-03-24,23.416869,120.283061,3.4009133e-09
C1SA50,利嘉林道,2018-03-24,22.82325,121.009389,7.604116e-09
467550,玉山,2018-03-24,23.487614,120.959522,1.9538643e-08
C0A940,金山,2018-03-24,25.223628,121.643967,2.0871929e-09
C1V340,大津,2018-03-24,22.888322,120.645986,0.0017205923
C0W180,七美,2018-03-24,23.219333,119.444892,0.005116882
C1F9C1,白冷,2018-03-24,24.182844,120.929889,7.385327e-10
K2E710,苗改生物防治研究中心,2018-03-24,24.422861,120.871833,4.764126e-10
C0N040,蘆竹溝,2018-03-24,23.2344,120.0961,5.386253e-10
C2W230,畜試所澎湖,2018-03-24,23.628342,119.513206,0.00042961352
C0R880,後壁湖,2018-03-24,21.9457,120.7457,0.086924344
C1I280,埔中,2018-03-24,23.820778,120.642594,5.389429e-10
467790,墾丁雷達站,2018-03-24,21.948235,120.808028,0.09121337
C0W190,望安,2018-03-24,23.380564,119.494075,0.004099505
466881,新北,2018-03-24,24.9593,121.52,3.987569e-09
C0Z170,卓溪,2018-03-24,23.3443,121.3029,1.2912155e-09
C0F850,東勢,2018-03-24,24.246428,120.833047,4.6727455e-10
466900,淡水,2018-03-24,25.164889,121.448906,3.819012e-09
C0I370,魚池,2018-03-24,23.895703,120.94135,4.7221577e-10
C0C630,大溪,2018-03-24,24.882853,121.265547,6.71966e-10
C0A520,山佳,2018-03-24,24.974944,121.402008,3.0073466e-09
C0I110,竹山,2018-03-24,23.761225,120.688156,1.2305439e-08
82H840,茶改南部分場,2018-03-24,23.762528,120.7405,5.883853e-10
C0G660,溪湖,2018-03-24,23.94835,120.479122,4.773977e-10
C1T800,洛韶,2018-03-24,24.204558,121.453956,2.0012179e-08
C1T810,慈恩,2018-03-24,24.192044,121.388386,3.116529e-09
C1E451,象鼻,2018-03-24,24.368617,120.940228,1.2658885e-09
C0AC60,三峽,2018-03-24,24.939025,121.369728,2.905318e-09
C0I490,萬大林道,2018-03-24,23.928228,121.091411,2.209006e-09
C1I290,豐丘,2018-03-24,23.668178,120.887417,1.712097e-09
C1I320,奧萬大,2018-03-24,23.952956,121.178556,1.2407104e-09
C2M910,嘉義大學,2018-03-24,23.471325,120.485903,3.433692e-06
C0U770,南澳,2018-03-24,24.44935,121.81022,1.28115065e-08
C0A980,社子,2018-03-24,25.109508,121.469681,3.9995127e-09
C0V800,六龜,2018-03-24,22.997889,120.633583,9.681801e-08
C1G9D0,國一S218K,2018-03-24,23.890641,120.493253,1.7901602e-09
C0E570,白沙屯,2018-03-24,24.549447,120.696803,9.852359e-10
C2F9A0,中竹林,2018-03-24,24.103556,120.751061,5.4479465e-10
C0FA40,臺中電廠,2018-03-24,24.2146,120.4907,4.056609e-10
C2G9A0,畜試所彰化,2018-03-24,23.86045,120.557964,6.6662897e-09
C0H9C0,合歡山,2018-03-24,24.143442,121.272547,1.3393272e-08
C0X060,下營,2018-03-24,23.22695,120.256261,2.9655501e-08
G2M350,農試溪口農場,2018-03-24,23.58565,120.408111,3.3413983e-07
C0U860,頭城,2018-03-24,24.85323,121.8308,5.303316e-09
C0R580,南州,2018-03-24,22.48591,120.50274,6.340544e-10
C0D430,峨眉,2018-03-24,24.6905,121.017189,3.9518444e-10
C0G780,秀水,2018-03-24,24.03405,120.503869,3.906713e-10
72N100,臺南農改場,2018-03-24,23.0605,120.342194,8.915655e-08
C0S900,蘭嶼高中,2018-03-24,22.04909,121.51214,0.95977634
467540,大武,2018-03-24,22.355675,120.903789,0.4795109
C1F9W0,德基,2018-03-24,24.254783,121.190261,6.0901355e-09
C1Z120,壽豐,2018-03-24,23.870853,121.508081,3.102112e-09
C0W160,烏坵,2018-03-24,24.9944,119.44956,3.4526735e-08
C1I240,外大坪,2018-03-24,23.958697,120.917931,7.3180206e-10
C1I550,國六W023K,2018-03-24,23.979067,120.867742,3.535795e-10
C0R870,興海,2018-03-24,21.9752,120.8439,0.08792384
C0R140,瑪家,2018-03-24,22.682903,120.686639,6.945287e-10
C0A530,坪林,2018-03-24,24.938183,121.70975,6.591114e-09
C0X260,後壁,2018-03-24,23.366358,120.362326,5.893641e-08
C0Z230,和平,2018-03-24,24.30717,121.77007,2.9853324e-09
C0G770,福興,2018-03-24,24.041289,120.437669,3.1348898e-10
C0H9A0,神木村,2018-03-24,23.532742,120.843667,1.9825552e-09
C0I460,南投,2018-03-24,23.911469,120.687331,3.047623e-09
C0I480,梅峰,2018-03-24,24.085272,121.173572,3.1682468e-09
C1V570,吉東,2018-03-24,22.85422,120.5454,0.9795202
C2D740,屯原,2018-03-24,24.067969,121.209389,2.5976228e-09
C2A560,福山,2018-03-24,24.776203,121.502811,4.1813366e-09
C0AH30,五分山,2018-03-24,25.07125,121.780794,3.485577e-09
C0FA10,松柏,2018-03-24,24.429115,120.617482,6.3765154e-10
72S200,東改班鳩分場,2018-03-24,22.829528,121.077694,1.01277635e-07
72HA00,中改埔里分場,2018-03-24,23.903208,120.963364,4.90949e-10
C2H9W0,大坪頂農水,2018-03-24,24.043122,120.932781,7.2041945e-10
C0C650,平鎮,2018-03-24,24.897503,121.214636,9.249981e-10
C0S930,延平,2018-03-24,22.902581,121.084058,8.134703e-09
C0UA60,樟樹山,2018-03-24,24.41393,121.78325,6.1971304e-09
C1S670,摩天,2018-03-24,23.199503,121.027,1.01446e-08
C0V630,茄萣,2018-03-24,22.906642,120.182608,1.5981497e-09
466940,基隆,2018-03-24,25.133314,121.740475,7.0422272e-09
C0X050,東河,2018-03-24,23.296598,120.385608,2.619184e-05
C0R770,保力,2018-03-24,22.071122,120.764111,0.17573652
G2L020,農試嘉義分所,2018-03-24,23.485028,120.473806,7.7280424e-07
C0X240,關子嶺,2018-03-24,23.331169,120.508025,3.2012366e-09
C0I380,集集,2018-03-24,23.828206,120.801467,1.2300905e-09
466990,花蓮,2018-03-24,23.975128,121.613275,8.7448075e-09
C1V220,小關山,2018-03-24,23.154217,120.813603,2.9338962e-09
C1F9G1,慶福山,2018-03-24,24.180853,120.848378,7.092206e-10
C0Z250,瑞穗林道,2018-03-24,23.49284,121.30688,1.0644779e-08
C0D590,新豐,2018-03-24,24.87068,120.97721,1.0335468e-09
C0A870,五指山,2018-03-24,25.132153,121.608692,1.2616846e-09
C0UA50,西帽山,2018-03-24,24.555361,121.802628,2.827707e-09
C0X160,仁德,2018-03-24,22.968258,120.257689,1.21424915e-08
C1H971,六分寮,2018-03-24,23.92507,120.6378,5.029914e-10
C0W120,西嶼,2018-03-24,23.5626,119.468436,0.0074711633
C0G650,員林,2018-03-24,23.946503,120.585597,2.0339297e-09
C0AD50,鶯歌,2018-03-24,24.951533,121.346294,2.1989928e-09
C2H9Q0,北東眼山,2018-03-24,24.120939,121.189303,4.4456643e-09
C2H9T0,名間竹圍,2018-03-24,23.859914,120.637572,6.034562e-10
C0S990,山豬窟,2018-03-24,22.318619,120.857372,1.0918716e-06
72Q010,高雄農改,2018-03-24,22.709333,120.525889,0.17141561
C0X190,安平,2018-03-24,22.993161,120.152181,1.5660883e-09
C0K400,斗六,2018-03-24,23.720583,120.541127,4.5580832e-09
12J990,口湖工作站,2018-03-24,23.589978,120.180394,1.161946e-09
C0O830,北寮,2018-03-24,23.079561,120.495008,0.010404941
C1D410,白蘭,2018-03-24,24.579364,121.079947,2.550302e-09
C0S970,加津林,2018-03-24,22.416211,120.926942,0.32995698
C0D700,關西,2018-03-24,24.7977,121.1732,4.622228e-10
C0M810,里佳,2018-03-24,23.389125,120.716647,1.5926662e-09
C0U750,龜山島,2018-03-24,24.841667,121.953133,8.721663e-07
C0R810,內獅,2018-03-24,22.305064,120.642986,0.15996368
C1M390,龍美,2018-03-24,23.406728,120.654417,1.063763e-09
C2FB60,頭櫃山,2018-03-24,24.129842,120.858925,1.3850553e-09
C1H840,國三N238K,2018-03-24,23.841008,120.707711,7.466129e-10
CAQ030,崎峰國小,2018-03-24,22.42565,120.49521,6.340544e-10
C2E520,大湖,2018-03-24,24.414939,120.870872,4.6093476e-10
467530,阿里山,2018-03-24,23.508208,120.813242,7.14365e-09
C1E691,南湖,2018-03-24,24.40135,120.837533,1.1702866e-09
C0FA30,梧棲,2018-03-24,24.256003,120.523381,5.503845e-10
C1V231,高中,2018-03-24,23.134911,120.716711,8.246348e-10
C0F9V0,新社,2018-03-24,24.200172,120.815806,7.8353973e-10
C0H890,埔里,2018-03-24,23.972169,120.952425,3.41778e-10
C0R690,墾丁,2018-03-24,21.966756,120.810269,0.098896496
C0F0D0,審馬陣,2018-03-24,24.381675,121.4203,1.0245423e-08
C0R820,白鷺,2018-03-24,22.454275,120.666219,1.2795456e-09
U2H480,臺大溪頭,2018-03-24,23.670306,120.798194,1.5797988e-09
C1V190,南天池,2018-03-24,23.27403,120.91176,4.119582e-09
K2E360,苗栗農改場,2018-03-24,24.495722,120.829111,5.124827e-10
CAJ050,海口故事園區,2018-03-24,23.57543,120.14121,1.1633164e-09
C2H9D0,三隻寮,2018-03-24,24.093078,120.861578,7.378175e-10
C0O990,媽廟,2018-03-24,22.99175,120.293525,3.3602998e-08
C0D480,打鐵坑,2018-03-24,24.849664,121.150789,5.861864e-10
C0Z220,和平林道,2018-03-24,24.343922,121.656317,2.6758917e-09
C0TA10,花蓮漁港,2018-03-24,23.995322,121.638331,9.927743e-09
72C440,桃園農改場,2018-03-24,24.950944,121.030583,1.5099811e-09
C1E711,馬拉邦山,2018-03-24,24.367306,120.901656,1.314369e-09
C0SB20,富岡,2018-03-24,22.792467,121.192669,0.0014474797
C0D560,竹東,2018-03-24,24.767147,121.057881,4.803305e-10
C0F9U0,南屯,2018-03-24,24.137006,120.637969,3.6553185e-10
C0M720,番路,2018-03-24,23.464657,120.554156,1.6200089e-07
C0F0A0,雪山圈谷,2018-03-24,24.388594,121.236339,1.6456735e-08
C1A9N0,四十份,2018-03-24,24.934158,121.593283,2.8310743e-09
C0U760,東澳,2018-03-24,24.52196,121.83318,2.8132908e-08
C0X230,鹽水,2018-03-24,23.272621,120.247641,6.182429e-10
C2H9H0,苗改南投蜂場,2018-03-24,23.852589,120.693481,1.6224913e-08
C0R950,萬隆國小,2018-03-24,22.507667,120.587817,4.5616513e-08
C0V370,古亭坑,2018-03-24,22.893178,120.401947,1.2429976e-05
C1I340,新興橋,2018-03-24,23.563333,120.868728,1.2222348e-09
C0SA80,土坂,2018-03-24,22.453108,120.887572,1.234784e-06
C0R160,鹽埔,2018-03-24,22.739558,120.530778,0.17141561
C0AC40,大屯山,2018-03-24,25.175675,121.522408,3.7347596e-09
466850,五分山雷達站,2018-03-24,25.071182,121.781205,3.4509402e-09
C2H9L0,馬烈霸,2018-03-24,24.1512,121.201772,4.3396415e-09
C1AI50,國三N016K,2018-03-24,25.034164,121.619664,1.4340347e-09
C1V600,藤枝,2018-03-24,23.071961,120.757042,1.972616e-09
C1E601,南勢,2018-03-24,24.572486,120.734842,9.097389e-10
C0Z180,新城,2018-03-24,24.03946,121.60454,8.486661e-09
C0O980,新市,2018-03-24,23.061614,120.298197,1.5137111e-07
C0K420,西螺,2018-03-24,23.800407,120.467394,4.0325037e-09
C0Z050,佳心,2018-03-24,23.34567,121.21316,5.5080376e-09
C0AD30,蘆洲,2018-03-24,25.086594,121.472331,1.8637993e-09
C0V610,梓官,2018-03-24,22.760558,120.267211,6.0615605e-08
K2F750,種苗改良場,2018-03-24,24.225972,120.800917,8.742185e-10
C0UA80,大溪漁港,2018-03-24,24.941801,121.902955,1.2069203e-08
C1AI60,國一39K邊坡,2018-03-24,25.064361,121.383836,2.0855055e-09
C0W150,金寧,2018-03-24,24.457703,118.328989,1.3572825e-08
C0R960,內埔,2018-03-24,22.608483,120.570714,2.1269382e-07
V2C250,八德合作社,2018-03-24,24.93775,121.266389,1.2167036e-09
C2H9S0,龍南,2018-03-24,23.953536,120.833183,8.3383356e-10
C0AH40,平等,2018-03-24,25.129142,121.577086,1.0318372e-09
C0R540,佳冬,2018-03-24,22.419456,120.552375,0.0004900346
466950,彭佳嶼,2018-03-24,25.627975,122.079744,0.0042893263
C0A890,雙溪,2018-03-24,25.036003,121.864242,4.4908095e-08
C0C480,桃園,2018-03-24,24.992425,121.323172,2.7060816e-09
C0AH50,林口,2018-03-24,25.072181,121.38084,1.9399493e-09
A2K360,水試臺西試驗場,2018-03-24,23.717231,120.190522,1.4810296e-09
B2N890,畜試所,2018-03-24,23.058972,120.336406,8.9070205e-08
C2M960,外寮,2018-03-24,23.562643,120.665688,1.458583e-09
C0F9S0,烏日,2018-03-24,24.107058,120.624103,6.434156e-10
C0C490,八德,2018-03-24,24.928708,121.283289,1.2014122e-09
C0R190,赤山,2018-03-24,22.592333,120.614306,1.9133036e-07
C0T820,天祥,2018-03-24,24.179597,121.495639,3.328882e-08
C1F9E1,龍安,2018-03-24,24.1605,120.831961,6.7043743e-10
C0V820,小林,2018-03-24,23.148408,120.63325,2.8466864e-08
C2G870,芳苑,2018-03-24,23.922303,120.320025,1.1020068e-09
C0E850,大河,2018-03-24,24.618069,120.948578,5.2582805e-10
C1U670,寒溪,2018-03-24,24.634,121.71691,3.2139988e-09
C0N020,城西,2018-03-24,23.0568,120.0956,1.5658911e-09
C1Z110,三棧,2018-03-24,24.11557,121.60501,2.2736577e-08
C0R280,檳榔,2018-03-24,22.076078,120.836777,0.5885865
C2H9J0,中台,2018-03-24,23.9996,120.938739,5.220775e-10
C0F9L0,后里,2018-03-24,24.310436,120.729725,5.9460714e-10
C0D540,橫山,2018-03-24,24.71116,121.11693,1.0557908e-09
C1D420,太閣南,2018-03-24,24.632808,121.160575,3.4980847e-09
C1E770,公館,2018-03-24,24.526914,120.830806,5.3834803e-10
CAN130,水試所海水繁養殖中心,2018-03-24,23.120802,120.07968,1.035526e-09
C1I430,翠華,2018-03-24,24.191961,121.224339,3.5638004e-09
C1M400,菜瓜坪,2018-03-24,23.251928,120.576103,1.5620549e-09
C0G730,二林,2018-03-24,23.903325,120.376081,3.7247838e-10
72M360,南改義竹分場,2018-03-24,23.360694,120.279361,1.4212801e-09
V2K620,麥寮合作社,2018-03-24,23.753836,120.294783,2.5471178e-09
C0Z070,舞鶴,2018-03-24,23.46811,121.37407,1.1695213e-09
C0B040,大武崙,2018-03-24,25.166676,121.706993,6.398936e-09
C1Z030,紅葉,2018-03-24,23.493119,121.338806,9.813012e-10
C1I050,丹大,2018-03-24,23.753747,121.141147,5.2029434e-09
C0I080,信義,2018-03-24,23.689694,120.851036,8.3397667e-10
C2M920,朴子農改,2018-03-24,23.469889,120.259383,3.4008225e-09
C2A880,福隆,2018-03-24,25.017842,121.942083,2.3340222e-08
C0Z160,鳳林,2018-03-24,23.746114,121.453411,1.645164e-09
C0V210,復興,2018-03-24,23.222403,120.806089,8.2935114e-10
C0H990,昆陽,2018-03-24,24.121322,121.273642,1.0482906e-08
C0R741,獅子,2018-03-24,22.202308,120.705236,0.9328597
C0S710,鹿野,2018-03-24,22.917711,121.122994,2.7326637e-09
C0I530,小奇萊,2018-03-24,24.131764,121.295717,1.1128728e-08
C2K630,荷苞,2018-03-24,23.657717,120.595144,3.3549203e-08
C0Z080,富源,2018-03-24,23.587642,121.378225,2.6788178e-09
467441,高雄,2018-03-24,22.7304,120.3125,4.8332232e-08
C0SB10,美和,2018-03-24,22.682078,121.060236,7.065547e-08
C2K620,馬光農場,2018-03-24,23.721453,120.378864,5.694068e-09
C1I140,卡奈托灣,2018-03-24,23.754364,121.087872,1.5896677e-09
C0I520,玉山風口,2018-03-24,23.470489,120.955994,2.1916284e-08
C1G691,下水埔,2018-03-24,23.816114,120.5676,4.756075e-09
C0X110,臺南市南區,2018-03-24,22.961189,120.188378,1.2134804e-08
C0V680,仁武,2018-03-24,22.701083,120.347722,4.0833776e-09
C2G840,北斗,2018-03-24,23.877586,120.514222,1.5974152e-09
C0R900,竹坑,2018-03-24,22.1385,120.7022,0.093525425
C0K250,崙背,2018-03-24,23.75555,120.318925,2.5471178e-09
C0G860,社頭,2018-03-24,23.897647,120.5862,7.78612e-09
C0X150,安定,2018-03-24,23.102614,120.227839,8.102201e-09
C0R590,里港,2018-03-24,22.77919,120.49459,0.25377384
C0E610,馬都安,2018-03-24,24.451272,120.930192,1.2349898e-09
C0E550,明德,2018-03-24,24.583486,120.885411,4.761364e-10
C0R150,三地門,2018-03-24,22.709889,120.639944,2.2796051e-07
C0G910,花壇,2018-03-24,24.032076,120.549461,3.7609352e-10
C1D400,鳥嘴山,2018-03-24,24.71909,121.28387,1.5418817e-09
C0K500,元長,2018-03-24,23.64981,120.315024,9.577018e-09
C0F0B0,石岡,2018-03-24,24.276061,120.777644,5.179178e-10
C2V250,甲仙,2018-03-24,23.080106,120.591758,6.330861e-06
C0SA20,金崙山,2018-03-24,22.567419,120.959667,6.247546e-09
C0V350,溪埔,2018-03-24,22.738578,120.446797,0.16399029
C0M660,溪口,2018-03-24,23.604131,120.403569,3.3413983e-07
C1S880,壽卡,2018-03-24,22.238911,120.858903,5.1912766e-06
72D680,桃改新埔分場,2018-03-24,24.834444,121.066111,7.1050144e-10
