站號,站名,日期,lat,lon,BlastGRU-TW
466881,新北,2018-12-14,24.9593,121.52,0.03671918
466900,淡水,2018-12-14,25.164889,121.448906,0.004526042
466920,臺北,2018-12-14,25.037658,121.514853,0.040250164
467441,高雄,2018-12-14,22.7304,120.3125,0.3162326
467480,嘉義,2018-12-14,23.495925,120.432906,0.2500943
467490,臺中,2018-12-14,24.145736,120.684075,0.10960196
C0A530,坪林,2018-12-14,24.938183,121.70975,0.031883355
C0A540,四堵,2018-12-14,24.8926,121.745736,0.005584674
C0A550,泰平,2018-12-14,24.971197,121.823711,0.023896554
C0A890,雙溪,2018-12-14,25.036003,121.864242,0.002849629
C0A920,富貴角,2018-12-14,25.263783,121.565258,0.0029154117
C0A931,三和,2018-12-14,25.233153,121.595236,0.015325369
C0AC70,信義,2018-12-14,25.037822,121.564597,0.040250164
C0AC80,文山,2018-12-14,25.00235,121.575728,0.03178208
C0ACA0,新莊,2018-12-14,25.051478,121.446756,0.0064093126
C0AH50,林口,2018-12-14,25.072181,121.38084,0.012009681
C0AH70,松山,2018-12-14,25.04871,121.55042,0.040250164
C0AH80,深坑,2018-12-14,25.002703,121.628328,0.03178208
C0AJ60,六塊厝,2018-12-14,25.24,121.4481,0.0045872335
C0AJ70,田寮,2018-12-14,25.2698,121.4886,0.0024760116
