站號,站名,日期,lat,lon,BlastGRU-TW
466881,新北,2018-11-11,24.9593,121.52,0.3371272
466900,淡水,2018-11-11,25.1649,121.4489,0.10162499
466920,臺北,2018-11-11,25.0377,121.5149,0.37392634
466940,基隆,2018-11-11,25.1333,121.7405,0.25002277
466990,花蓮,2018-11-11,23.9751,121.6133,0.73410976
467050,新屋,2018-11-11,25.0067,121.0475,0.037926573
467080,宜蘭,2018-11-11,24.764,121.7565,0.80125
467270,田中,2018-11-11,23.8738,120.5813,0.19328795
467300,東吉島,2018-11-11,23.2569,119.6675,0.036075052
467350,澎湖,2018-11-11,23.5655,119.5631,0.0015416053
467410,臺南,2018-11-11,22.9932,120.2048,0.56670445
467420,永康,2018-11-11,23.0384,120.2367,0.5779603
467441,高雄,2018-11-11,22.7304,120.3125,0.7902385
467480,嘉義,2018-11-11,23.4959,120.4329,0.6722333
467490,臺中,2018-11-11,24.1457,120.6841,0.6939529
467540,大武,2018-11-11,22.3557,120.9038,0.07941111
467571,新竹,2018-11-11,24.8279,121.0142,0.0142659
467590,恆春,2018-11-11,22.0039,120.7463,0.007298185
467610,成功,2018-11-11,23.0975,121.3734,0.90219444
467620,蘭嶼,2018-11-11,22.037,121.5583,0.3459786
467660,臺東,2018-11-11,22.7522,121.1546,0.717044
467790,墾丁雷達站,2018-11-11,21.9482,120.808,0.008046308
C0A520,山佳,2018-11-11,24.9749,121.402,0.18687281
C0A530,坪林,2018-11-11,24.9382,121.7097,0.73416895
C0A540,四堵,2018-11-11,24.8926,121.7457,0.056501914
C0A550,泰平,2018-11-11,24.9712,121.8237,0.27495444
C0A560,福山,2018-11-11,24.7762,121.5028,0.34344935
C0A570,桶後,2018-11-11,24.8482,121.598,0.16973622
C0A640,石碇,2018-11-11,24.994,121.6629,0.7393884
C0A650,火燒寮,2018-11-11,25.0027,121.7429,0.6608482
C0A660,瑞芳,2018-11-11,25.1132,121.8011,0.7586408
C0A770,科教館,2018-11-11,25.0964,121.5165,0.22948973
C0A860,大坪,2018-11-11,25.1659,121.633,0.026889753
C0A880,福隆,2018-11-11,25.0178,121.9421,0.79008925
C0A890,雙溪,2018-11-11,25.036,121.8642,0.20267254
C0A920,富貴角,2018-11-11,25.2638,121.5653,0.03205498
C0A931,三和,2018-11-11,25.2332,121.5952,0.6556138
C0A940,金山,2018-11-11,25.2236,121.644,0.050805196
C0A950,鼻頭角,2018-11-11,25.129,121.9234,0.7966101
C0A970,三貂角,2018-11-11,25.0076,122.0021,0.7583013
C0A980,社子,2018-11-11,25.1095,121.4697,0.24308285
C0A9C0,天母,2018-11-11,25.1175,121.5372,0.20132777
C0A9F0,內湖,2018-11-11,25.0794,121.5755,0.37392634
C0AC60,三峽,2018-11-11,24.939,121.3697,0.3185277
C0AC70,信義,2018-11-11,25.0378,121.5646,0.37392634
C0AC80,文山,2018-11-11,25.0023,121.5757,0.28209528
C0ACA0,新莊,2018-11-11,25.0515,121.4468,0.15623967
C0AD00,三芝,2018-11-11,25.2581,121.5019,0.035415366
C0AD10,八里,2018-11-11,25.1502,121.4039,0.10162499
C0AD30,蘆洲,2018-11-11,25.0866,121.4723,0.22948973
C0AD40,土城,2018-11-11,24.9732,121.4452,0.21452864
C0AD50,鶯歌,2018-11-11,24.9515,121.3463,0.059862617
C0AG80,中和,2018-11-11,24.9916,121.4918,0.37392634
C0AH00,汐止,2018-11-11,25.0669,121.6588,0.24199413
C0AH10,永和,2018-11-11,25.0113,121.5081,0.39188752
C0AH40,平等,2018-11-11,25.1291,121.5771,0.039489068
C0AH50,林口,2018-11-11,25.0722,121.3808,0.04300923
C0AH70,松山,2018-11-11,25.0487,121.5504,0.37392634
C0AH80,深坑,2018-11-11,25.0027,121.6283,0.30034983
C0AI00,五股,2018-11-11,25.0744,121.4273,0.004934121
C0AI10,屈尺,2018-11-11,24.9218,121.5447,0.28209528
C0AI20,白沙灣,2018-11-11,25.2831,121.5191,0.05952936
C0AI30,三重,2018-11-11,25.0573,121.5006,0.22948973
C0AI40,石牌,2018-11-11,25.1156,121.5131,0.21452864
C0AJ10,澳底,2018-11-11,25.0571,121.9273,0.80440503
C0AJ20,野柳,2018-11-11,25.207,121.69,0.24199413
C0AJ30,淡水觀海,2018-11-11,25.1846,121.4086,0.109264046
C0AJ40,石門,2018-11-11,25.2737,121.6012,0.011962163
C0AJ50,水湳洞,2018-11-11,25.1237,121.8622,0.24199413
C0AJ60,六塊厝,2018-11-11,25.24,121.4481,0.109264046
C0AJ70,田寮,2018-11-11,25.2698,121.4886,0.06378235
C0AJ80,板橋,2018-11-11,25.0107,121.4489,0.21452864
C0B010,七堵,2018-11-11,25.0948,121.7171,0.22323497
C0B020,基隆嶼,2018-11-11,25.1914,121.7839,0.24199413
C0B040,大武崙,2018-11-11,25.1667,121.707,0.22323497
C0B050,八斗子,2018-11-11,25.1448,121.7917,0.25828096
C0B060,暖暖,2018-11-11,25.0957,121.7403,0.16963308
C0C460,復興,2018-11-11,24.8202,121.3523,0.07095721
C0C480,桃園,2018-11-11,24.9924,121.3232,0.008339082
C0C490,八德,2018-11-11,24.9287,121.2833,0.037506826
C0C590,觀音,2018-11-11,25.0271,121.1533,0.044442922
C0C620,蘆竹,2018-11-11,25.0843,121.2658,0.087699704
C0C630,大溪,2018-11-11,24.8829,121.2655,0.020723065
C0C650,平鎮,2018-11-11,24.8975,121.2146,0.0044867974
C0C660,楊梅,2018-11-11,24.9124,121.143,0.003607605
C0C670,龍潭,2018-11-11,24.8701,121.2214,0.0052077966
C0C680,龜山,2018-11-11,25.0285,121.3866,0.04729295
C0C700,中壢,2018-11-11,24.9777,121.2564,0.0060413345
C0C710,大溪永福,2018-11-11,24.8929,121.325,0.010194276
C0C720,竹圍,2018-11-11,25.1127,121.2398,0.10162499
C0C730,中大臨海站,2018-11-11,24.9661,121.0086,0.04243436
C0C740,觀音工業區,2018-11-11,25.0648,121.1149,0.016321866
C0C750,新興坑尾,2018-11-11,25.0061,121.0971,0.00915337
C0D430,峨眉,2018-11-11,24.6905,121.0172,0.014406528
C0D480,打鐵坑,2018-11-11,24.8497,121.1508,0.016778793
C0D540,橫山,2018-11-11,24.7112,121.1169,0.005705307
C0D560,竹東,2018-11-11,24.7671,121.0579,0.0055863024
C0D580,寶山,2018-11-11,24.735,121.0252,0.016789827
C0D590,新豐,2018-11-11,24.8707,120.9772,0.042393714
C0D650,湖口,2018-11-11,24.9048,121.0436,0.02649355
C0D660,新竹市東區,2018-11-11,24.7987,120.9869,0.011862261
C0D670,海天一線,2018-11-11,24.832,120.9144,0.018487327
C0D680,香山濕地,2018-11-11,24.7836,120.915,0.01756819
C0D690,外湖,2018-11-11,24.9177,120.9687,0.04243436
C0D700,關西,2018-11-11,24.7977,121.1732,0.00919581
C0E420,竹南,2018-11-11,24.709,120.8889,0.014914496
C0E430,南庄,2018-11-11,24.6018,121.0002,0.02367337
C0E520,大湖,2018-11-11,24.4149,120.8709,0.029055156
C0E540,後龍,2018-11-11,24.6065,120.7839,0.13402261
C0E550,明德,2018-11-11,24.5835,120.8854,0.08927451
C0E590,通霄,2018-11-11,24.4719,120.7046,0.17188847
C0E730,頭份,2018-11-11,24.6882,120.9122,0.014914496
C0E740,造橋,2018-11-11,24.6371,120.8648,0.10825023
C0E750,苗栗,2018-11-11,24.5646,120.8246,0.057628095
C0E780,銅鑼,2018-11-11,24.4897,120.7909,0.12727971
C0E791,卓蘭,2018-11-11,24.3126,120.8244,0.19034871
C0E810,西湖,2018-11-11,24.5629,120.7485,0.08085352
C0E820,獅潭,2018-11-11,24.5391,120.92,0.11370276
C0E830,苑裡,2018-11-11,24.4397,120.6531,0.5789928
C0E850,大河,2018-11-11,24.6181,120.9486,0.07106466
C0E870,高鐵苗栗,2018-11-11,24.6073,120.8261,0.11489986
C0E910,海埔,2018-11-11,24.6488,120.7724,0.20256585
C0E920,通霄漁港,2018-11-11,24.4986,120.6739,0.3216447
C0E930,龍鳳,2018-11-11,24.7,120.8591,0.14379239
C0F000,大肚,2018-11-11,24.153,120.5721,0.04191598
C0F0B0,石岡,2018-11-11,24.2761,120.7776,0.07141805
C0F850,東勢,2018-11-11,24.2464,120.833,0.2497871
C0F930,大甲,2018-11-11,24.3477,120.6404,0.59637165
C0F970,大坑,2018-11-11,24.1731,120.7223,0.57588077
C0F9A0,中竹林,2018-11-11,24.1036,120.7511,0.09108457
C0F9I0,神岡,2018-11-11,24.2725,120.6583,0.3564415
C0F9K0,大安,2018-11-11,24.3451,120.588,0.70204717
C0F9L0,后里,2018-11-11,24.3104,120.7297,0.23118266
C0F9M0,豐原,2018-11-11,24.2543,120.7207,0.29674566
C0F9N0,大里,2018-11-11,24.0925,120.7014,0.742269
C0F9O0,潭子,2018-11-11,24.2131,120.7039,0.45010975
C0F9P0,清水,2018-11-11,24.3123,120.5622,0.7175278
C0F9Q0,外埔,2018-11-11,24.3478,120.7057,0.418201
C0F9R0,龍井,2018-11-11,24.1845,120.529,0.7197238
C0F9S0,烏日,2018-11-11,24.1071,120.6241,0.55940133
C0F9T0,西屯,2018-11-11,24.1795,120.6413,0.6617068
C0F9U0,南屯,2018-11-11,24.137,120.638,0.742269
C0F9X0,大雅(中科園區),2018-11-11,24.2153,120.6244,0.53255653
C0FA10,松柏,2018-11-11,24.4291,120.6175,0.6289874
C0FA20,溫寮,2018-11-11,24.3722,120.5831,0.6289874
C0FA30,梧棲,2018-11-11,24.256,120.5234,0.7197238
C0FA40,臺中電廠,2018-11-11,24.2146,120.4907,0.7197238
C0FA50,霧峰,2018-11-11,24.0419,120.6995,0.7169459
C0G620,芬園,2018-11-11,24.0157,120.6213,0.5293355
C0G640,鹿港,2018-11-11,24.0753,120.4305,0.504179
C0G650,員林,2018-11-11,23.9465,120.5856,0.5694791
C0G660,溪湖,2018-11-11,23.9484,120.4791,0.5716055
C0G720,溪州,2018-11-11,23.8516,120.4991,0.19162187
C0G730,二林,2018-11-11,23.9033,120.3761,0.5344495
C0G740,大城,2018-11-11,23.8525,120.3209,0.62227136
C0G770,福興,2018-11-11,24.0413,120.4377,0.504179
C0G780,秀水,2018-11-11,24.0341,120.5039,0.5527419
C0G800,埔鹽,2018-11-11,24.0004,120.4317,0.504179
C0G810,埔心,2018-11-11,23.9476,120.5255,0.563904
C0G820,田尾,2018-11-11,23.9017,120.5094,0.55828977
C0G830,埤頭,2018-11-11,23.866,120.4528,0.20680392
C0G840,北斗,2018-11-11,23.8776,120.5142,0.55828977
C0G860,社頭,2018-11-11,23.8976,120.5862,0.5633623
C0G870,芳苑,2018-11-11,23.9223,120.32,0.63032544
C0G880,二水,2018-11-11,23.8107,120.6173,0.18603742
C0G890,伸港,2018-11-11,24.1489,120.4844,0.7483121
C0G900,線西,2018-11-11,24.1434,120.4435,0.7338356
C0G910,花壇,2018-11-11,24.0321,120.5495,0.53659827
C0G920,永靖,2018-11-11,23.9247,120.5475,0.55828977
C0G940,竹塘,2018-11-11,23.8483,120.3868,0.24924247
C0G950,防潮門,2018-11-11,24.1835,120.4871,0.7277007
C0G960,福寶,2018-11-11,24.0443,120.3814,0.5125443
C0G970,三豐,2018-11-11,23.882,120.2895,0.63032544
C0H890,埔里,2018-11-11,23.9722,120.9524,0.56351143
C0H950,中寮,2018-11-11,23.8844,120.7664,0.09483557
C0H960,草屯,2018-11-11,23.9737,120.6809,0.16045216
C0I110,竹山,2018-11-11,23.7612,120.6882,0.11066715
C0I360,水里,2018-11-11,23.8126,120.8498,0.08993145
C0I380,集集,2018-11-11,23.8282,120.8015,0.0920501
C0I410,名間,2018-11-11,23.8371,120.7014,0.20513298
C0I420,國姓,2018-11-11,24.0378,120.8551,0.10117636
C0I460,南投,2018-11-11,23.9115,120.6873,0.13156436
C0K250,崙背,2018-11-11,23.7555,120.3189,0.64757764
C0K280,四湖,2018-11-11,23.6304,120.2271,0.7002478
C0K291,宜梧,2018-11-11,23.5363,120.1693,0.6271546
C0K330,虎尾,2018-11-11,23.7192,120.442,0.32254964
C0K390,土庫,2018-11-11,23.679,120.3956,0.3337029
C0K400,斗六,2018-11-11,23.7206,120.5411,0.20935579
C0K410,北港,2018-11-11,23.574,120.2928,0.6006245
C0K420,西螺,2018-11-11,23.8004,120.4674,0.19286919
C0K430,褒忠,2018-11-11,23.6909,120.3036,0.69546664
C0K440,二崙,2018-11-11,23.7728,120.4089,0.24041322
C0K450,大埤,2018-11-11,23.6461,120.4315,0.308457
C0K460,斗南,2018-11-11,23.6787,120.4784,0.2239477
C0K470,林內,2018-11-11,23.7487,120.6096,0.26069677
C0K480,莿桐,2018-11-11,23.7612,120.5024,0.18630521
C0K500,元長,2018-11-11,23.6498,120.315,0.7187837
C0K510,水林,2018-11-11,23.5729,120.246,0.5291962
C0K530,臺西,2018-11-11,23.7015,120.1976,0.66474307
C0K550,蔦松,2018-11-11,23.5143,120.2297,0.61630094
C0K560,棋山,2018-11-11,23.6865,120.6034,0.343771
C0K580,高鐵雲林,2018-11-11,23.7375,120.4179,0.33370298
C0K590,雲林東勢,2018-11-11,23.6742,120.2557,0.69546664
C0K600,箔子寮,2018-11-11,23.6197,120.14,0.5405114
C0M410,馬頭山,2018-11-11,23.3244,120.582,0.17874192
C0M520,東後寮,2018-11-11,23.3699,120.2481,0.57341903
C0M640,中埔,2018-11-11,23.4254,120.5229,0.34091538
C0M650,朴子,2018-11-11,23.4346,120.239,0.66691303
C0M660,溪口,2018-11-11,23.6041,120.4036,0.6867435
C0M670,大林,2018-11-11,23.6006,120.4584,0.71018875
C0M680,太保,2018-11-11,23.4551,120.3315,0.69324267
C0M690,水上,2018-11-11,23.4197,120.3889,0.69036615
C0M700,竹崎,2018-11-11,23.5262,120.5555,0.2624085
C0M710,東石,2018-11-11,23.4589,120.1539,0.61630094
C0M720,番路,2018-11-11,23.4647,120.5542,0.28865358
C0M730,嘉義市東區,2018-11-11,23.4577,120.4605,0.6724503
C0M740,六腳,2018-11-11,23.4929,120.2906,0.70104694
C0M750,布袋,2018-11-11,23.3809,120.1678,0.66691303
C0M760,民雄,2018-11-11,23.5518,120.4285,0.676147
C0M770,嘉義梅山,2018-11-11,23.5854,120.5556,0.30971897
C0M780,鹿草,2018-11-11,23.4113,120.3084,0.6937707
C0M790,新港,2018-11-11,23.5533,120.3457,0.5910171
C0M800,茶山,2018-11-11,23.2991,120.6648,0.24896087
C0M880,好美里,2018-11-11,23.3364,120.138,0.616329
C0N010,鯤鯓國小,2018-11-11,23.1879,120.0889,0.7088166
C0N020,城西,2018-11-11,23.0568,120.0956,0.5602248
C0N030,四草,2018-11-11,23.0235,120.1116,0.8162415
C0N040,蘆竹溝,2018-11-11,23.2344,120.0961,0.7088166
C0N050,蚵寮,2018-11-11,23.301,120.1104,0.7088166
C0O810,曾文,2018-11-11,23.2197,120.4973,0.5996799
C0O830,北寮,2018-11-11,23.0796,120.495,0.28532344
C0O840,王爺宮,2018-11-11,23.2221,120.4009,0.5996799
C0O860,大內,2018-11-11,23.1188,120.3608,0.497183
C0O900,善化,2018-11-11,23.1129,120.2972,0.6619823
C0O930,玉井,2018-11-11,23.126,120.4605,0.66757405
C0O950,安南,2018-11-11,23.0767,120.1449,0.42656407
C0O960,崎頂,2018-11-11,22.9595,120.3693,0.31419
C0O970,虎頭埤,2018-11-11,23.0214,120.3479,0.7625512
C0O980,新市,2018-11-11,23.0616,120.2982,0.6619823
C0O990,媽廟,2018-11-11,22.9917,120.2935,0.73369914
C0R150,三地門,2018-11-11,22.7099,120.6399,0.54896003
C0R160,鹽埔,2018-11-11,22.7396,120.5308,0.5099457
C0R170,屏東,2018-11-11,22.6603,120.4941,0.63040763
C0R190,赤山,2018-11-11,22.5923,120.6143,0.55320936
C0R220,潮州,2018-11-11,22.5344,120.54,0.39841646
C0R240,來義,2018-11-11,22.5273,120.6251,0.392575
C0R260,春日,2018-11-11,22.3704,120.6283,0.4296777
C0R270,琉球嶼,2018-11-11,22.3322,120.3622,0.41861865
C0R280,檳榔,2018-11-11,22.0761,120.8368,0.006686546
C0R320,車城,2018-11-11,22.0744,120.7162,0.006634595
C0R341,牡丹,2018-11-11,22.13,120.7926,0.41541582
C0R350,貓鼻頭,2018-11-11,21.9218,120.7358,0.0075211884
C0R470,高樹,2018-11-11,22.8264,120.6008,0.5411046
C0R480,長治,2018-11-11,22.6931,120.5426,0.49910867
C0R490,九如,2018-11-11,22.7405,120.4905,0.62268937
C0R520,崁頂,2018-11-11,22.5148,120.5069,0.54062945
C0R540,佳冬,2018-11-11,22.4195,120.5524,0.54687285
C0R550,新埤,2018-11-11,22.4679,120.5829,0.5638371
C0R560,新園,2018-11-11,22.5434,120.4616,0.54062945
C0R570,麟洛,2018-11-11,22.6508,120.5272,0.62268937
C0R580,南州,2018-11-11,22.4859,120.5027,0.54687285
C0R590,里港,2018-11-11,22.7792,120.4946,0.48836234
C0R620,墾雷,2018-11-11,21.9008,120.8553,0.0075211884
C0R640,東港,2018-11-11,22.4625,120.4407,0.7236179
C0R650,竹田,2018-11-11,22.5849,120.5434,0.5751986
C0R660,枋寮,2018-11-11,22.3677,120.5906,0.4190917
C0R670,楓港,2018-11-11,22.1901,120.6922,0.5610456
C0R680,佳樂水,2018-11-11,21.9936,120.8616,0.007061097
C0R690,墾丁,2018-11-11,21.9668,120.8103,0.0063437806
C0R700,枋山,2018-11-11,22.2468,120.6611,0.5610456
C0R710,龍磐,2018-11-11,21.9317,120.8389,0.0093239965
C0R720,旭海,2018-11-11,22.2054,120.8876,0.23145096
C0R730,大坪頂,2018-11-11,22.0246,120.6936,0.007836657
C0R740,獅子,2018-11-11,22.2016,120.7053,0.5219269
C0R760,南仁湖,2018-11-11,22.0847,120.8634,0.00449639
C0R770,保力,2018-11-11,22.0711,120.7641,0.008724888
C0R780,滿州,2018-11-11,22.0244,120.8399,0.007818696
C0R790,九棚,2018-11-11,22.142,120.8893,0.23006137
C0R800,丹路,2018-11-11,22.2045,120.751,0.45715135
C0R810,內獅,2018-11-11,22.3051,120.643,0.48519564
C0R830,高士,2018-11-11,22.1218,120.8368,0.002917937
C0R850,林邊,2018-11-11,22.4634,120.5339,0.54062945
C0R860,鼻頭,2018-11-11,22.1043,120.8979,0.006384336
C0R870,興海,2018-11-11,21.9752,120.8439,0.007061097
C0R880,後壁湖,2018-11-11,21.9457,120.7457,0.006403828
C0R890,山海,2018-11-11,21.9878,120.7091,0.006634595
C0R900,竹坑,2018-11-11,22.1385,120.7022,0.56808764
C0R910,下寮,2018-11-11,22.3929,120.5548,0.54687285
C0R920,塭仔,2018-11-11,22.4169,120.5197,0.5553157
C0R930,萬丹,2018-11-11,22.5885,120.4851,0.5751986
C0R940,加祿堂,2018-11-11,22.3363,120.6217,0.48519614
C0S710,鹿野,2018-11-11,22.9177,121.123,0.67723745
C0S730,綠島,2018-11-11,22.6672,121.4753,0.9037934
C0S740,池上,2018-11-11,23.1196,121.2095,0.7830947
C0S770,大溪山,2018-11-11,22.4785,120.9433,0.40484154
C0S790,金崙,2018-11-11,22.5381,120.9669,0.6770687
C0S810,東河,2018-11-11,22.9727,121.304,0.87362176
C0S830,長濱,2018-11-11,23.2868,121.412,0.5677422
C0S840,南田,2018-11-11,22.2797,120.8892,0.17659365
C0S890,關山,2018-11-11,23.0395,121.175,0.891055
C0S900,蘭嶼高中,2018-11-11,22.0491,121.5121,0.9188599
C0S910,蘭嶼燈塔,2018-11-11,22.0812,121.5031,0.8481612
C0S920,金峰嘉蘭,2018-11-11,22.5948,120.9608,0.6992977
C0S930,延平,2018-11-11,22.9026,121.0841,0.8392581
C0S940,石寧山,2018-11-11,23.2238,121.4066,0.77603996
C0S950,七塊厝,2018-11-11,22.9545,121.2299,0.6304067
C0S960,香蘭,2018-11-11,22.5876,120.9934,0.47458363
C0S970,加津林,2018-11-11,22.4162,120.9269,0.08731939
C0S990,山豬窟,2018-11-11,22.3186,120.8574,0.16424792
C0SA00,歷坵,2018-11-11,22.521,120.8919,0.28993902
C0SA10,檳榔四格山,2018-11-11,22.81,121.1093,0.24935865
C0SA30,都歷,2018-11-11,23.0203,121.3236,0.90368766
C0SA40,瑞和,2018-11-11,22.9744,121.1567,0.8975467
C0SA60,知本（水試所）,2018-11-11,22.7024,121.0828,0.70670253
C0SA80,土,2018-11-11,22.4531,120.8876,0.7249258
C0SA90,達仁林場,2018-11-11,22.2643,120.824,0.10305398
C0T870,鯉魚潭,2018-11-11,23.9356,121.5089,0.72645175
C0T900,西林,2018-11-11,23.8119,121.4415,0.7047294
C0T960,光復,2018-11-11,23.6607,121.425,0.7219586
C0T9A0,月眉山,2018-11-11,23.8099,121.5398,0.61868376
C0T9D0,和中,2018-11-11,24.2668,121.741,0.4904019
C0T9E0,大坑,2018-11-11,23.8806,121.582,0.65289813
C0T9F0,水璉,2018-11-11,23.7971,121.5425,0.66669047
C0T9I0,豐濱,2018-11-11,23.5839,121.5148,0.72119325
C0T9M0,靜浦,2018-11-11,23.4552,121.495,0.76909435
C0T9N0,富里,2018-11-11,23.1716,121.2494,0.69522166
C0U600,礁溪,2018-11-11,24.8175,121.7656,0.8063743
C0U650,玉蘭,2018-11-11,24.6753,121.5871,0.64943415
C0U750,龜山島,2018-11-11,24.8417,121.9531,0.5243152
C0U760,東澳,2018-11-11,24.522,121.8332,0.7190948
C0U770,南澳,2018-11-11,24.4493,121.8102,0.93574756
C0U780,五結,2018-11-11,24.6864,121.7979,0.8870391
C0U860,頭城,2018-11-11,24.8532,121.8308,0.80125
C0U870,大礁溪,2018-11-11,24.791,121.675,0.20565309
C0U880,北關,2018-11-11,24.9072,121.8734,0.5308873
C0U890,三星,2018-11-11,24.6681,121.653,0.8206618
C0U900,內城,2018-11-11,24.7181,121.6877,0.82108724
C0U910,冬山,2018-11-11,24.6337,121.7937,0.8870391
C0U940,羅東,2018-11-11,24.6818,121.7493,0.8774461
C0U970,大福,2018-11-11,24.8006,121.8139,0.796066
C0U990,員山,2018-11-11,24.7444,121.7225,0.8774461
C0UA00,土場,2018-11-11,24.5765,121.4953,0.5378635
C0UA80,大溪漁港,2018-11-11,24.9418,121.903,0.8063743
C0UA90,石城,2018-11-11,24.9804,121.9512,0.7956213
C0UB00,淡江大學蘭陽校園,2018-11-11,24.8232,121.7304,0.40235022
C0UB10,蘇澳,2018-11-11,24.5969,121.8571,0.9694999
C0UB20,壯圍,2018-11-11,24.7359,121.8163,0.89543426
C0V250,甲仙,2018-11-11,23.0801,120.5918,0.13810289
C0V260,月眉,2018-11-11,22.971,120.5399,0.30811635
C0V310,美濃,2018-11-11,22.8987,120.5192,0.6776907
C0V350,溪埔,2018-11-11,22.7386,120.4468,0.7009657
C0V360,內門,2018-11-11,22.9755,120.4668,0.62627566
C0V370,古亭坑,2018-11-11,22.8932,120.4019,0.68913233
C0V400,阿公店,2018-11-11,22.8042,120.3555,0.66778284
C0V440,鳳山,2018-11-11,22.6467,120.3561,0.6985602
C0V450,鳳森,2018-11-11,22.5451,120.3926,0.59833443
C0V490,新興,2018-11-11,22.6274,120.2988,0.71559113
C0V530,阿蓮,2018-11-11,22.8832,120.3275,0.79264075
C0V610,梓官,2018-11-11,22.7606,120.2672,0.80049247
C0V620,永安,2018-11-11,22.8231,120.2369,0.691929
C0V630,茄萣,2018-11-11,22.9066,120.1826,0.7292829
C0V640,湖內,2018-11-11,22.8871,120.2445,0.71920204
C0V650,彌陀,2018-11-11,22.7838,120.2464,0.691929
C0V660,岡山,2018-11-11,22.7971,120.295,0.80049247
C0V680,仁武,2018-11-11,22.7011,120.3477,0.7810533
C0V690,鼓山,2018-11-11,22.6233,120.2756,0.71559113
C0V700,三民,2018-11-11,22.645,120.3112,0.71559113
C0V710,苓雅,2018-11-11,22.6227,120.3307,0.71559113
C0V720,林園,2018-11-11,22.5077,120.3945,0.71559113
C0V730,大寮,2018-11-11,22.6056,120.3957,0.6564958
C0V740,旗山,2018-11-11,22.8886,120.4836,0.6722412
C0V750,路竹,2018-11-11,22.855,120.2594,0.79006547
C0V760,橋頭,2018-11-11,22.7578,120.3058,0.79255813
C0V770,大社,2018-11-11,22.7303,120.3466,0.7810533
C0V790,萬山,2018-11-11,22.9059,120.6881,0.26941827
C0V800,六龜,2018-11-11,22.9979,120.6336,0.3022102
C0V810,左營,2018-11-11,22.6749,120.2849,0.7902385
C0V820,小林,2018-11-11,23.1484,120.6333,0.245271
C0V840,鳳鼻頭,2018-11-11,22.5083,120.3591,0.723618
C0V850,蚵仔寮,2018-11-11,22.7256,120.2527,0.79773396
C0V860,南寮,2018-11-11,22.7616,120.2339,0.70275813
C0V870,文安,2018-11-11,22.8025,120.2164,0.70275813
C0V880,興達,2018-11-11,22.8778,120.2127,0.7292829
C0V890,前鎮,2018-11-11,22.5718,120.3117,0.7236179
C0V900,汕尾,2018-11-11,22.4782,120.4151,0.6842384
C0X050,東河,2018-11-11,23.2966,120.3856,0.6610892
C0X060,下營,2018-11-11,23.2269,120.2563,0.69002736
C0X080,佳里,2018-11-11,23.173,120.1451,0.616329
C0X100,臺南市北區,2018-11-11,23.0104,120.1942,0.5888157
C0X110,臺南市南區,2018-11-11,22.9612,120.1884,0.5779603
C0X120,麻豆,2018-11-11,23.1833,120.2486,0.60598385
C0X130,官田,2018-11-11,23.1932,120.3154,0.66948384
C0X140,西港,2018-11-11,23.1256,120.2031,0.6550376
C0X150,安定,2018-11-11,23.1026,120.2278,0.52347314
C0X160,仁德,2018-11-11,22.9683,120.2577,0.74174225
C0X170,關廟,2018-11-11,22.963,120.3278,0.7059834
C0X180,山上,2018-11-11,23.0757,120.3633,0.5744678
C0X190,安平,2018-11-11,22.9932,120.1522,0.5888157
C0X200,左鎮,2018-11-11,23.0568,120.4085,0.5825362
C0X210,白河,2018-11-11,23.3475,120.4144,0.6481954
C0X220,學甲,2018-11-11,23.2304,120.1822,0.60598385
C0X230,鹽水,2018-11-11,23.2726,120.2476,0.58316493
C0X240,關子嶺,2018-11-11,23.3312,120.508,0.15925774
C0X250,新營,2018-11-11,23.3107,120.3167,0.6724409
C0X260,後壁,2018-11-11,23.3664,120.3623,0.5644977
C0X280,將軍,2018-11-11,23.215,120.1358,0.616329
C0X290,北門,2018-11-11,23.2678,120.1255,0.616329
C0X300,鹿寮,2018-11-11,23.386,120.4773,0.3769493
C0X310,七股,2018-11-11,23.1473,120.0863,0.6687509
C0X320,柳營,2018-11-11,23.2533,120.3753,0.6528231
C0Z020,明里,2018-11-11,23.2087,121.2623,0.6335111
C0Z061,玉里,2018-11-11,23.3215,121.3397,0.7999378
C0Z070,舞鶴,2018-11-11,23.4681,121.3741,0.6672016
C0Z080,富源,2018-11-11,23.5876,121.3782,0.6581029
C0Z100,東華,2018-11-11,23.8953,121.5498,0.7718983
C0Z150,吉安光華,2018-11-11,23.9309,121.5952,0.75376123
C0Z160,鳳林,2018-11-11,23.7461,121.4534,0.7318723
C0Z170,卓溪,2018-11-11,23.3443,121.3029,0.7668637
C0Z180,新城,2018-11-11,24.0395,121.6045,0.72459555
C0Z190,富世,2018-11-11,24.1474,121.6297,0.9242024
C0Z200,萬榮,2018-11-11,23.7092,121.4201,0.72645175
C0Z210,瑞穗,2018-11-11,23.5239,121.3902,0.73862815
C0Z230,和平,2018-11-11,24.3072,121.7701,0.4833429
C0Z270,蕃薯寮,2018-11-11,23.7384,121.5401,0.6844328
C0Z280,德武,2018-11-11,23.4743,121.4107,0.69804525
C0Z300,東里,2018-11-11,23.2685,121.3055,0.784377
C0Z310,清水斷崖,2018-11-11,24.2183,121.6891,0.8697234
C0Z330,安通山,2018-11-11,23.2907,121.3485,0.45063698
