站號,站名,日期,lat,lon,BlastGRU-TW
466881,新北,2018-11-30,24.9593,121.52,0.5437713
466900,淡水,2018-11-30,25.164889,121.448906,0.16229567
466920,臺北,2018-11-30,25.037658,121.514853,0.5017447
467441,高雄,2018-11-30,22.7304,120.3125,0.1200797
467480,嘉義,2018-11-30,23.495925,120.432906,0.8999534
467490,臺中,2018-11-30,24.145736,120.684075,0.89650375
C0A530,坪林,2018-11-30,24.938183,121.70975,0.4916176
C0A540,四堵,2018-11-30,24.8926,121.745736,0.55414146
C0A550,泰平,2018-11-30,24.971197,121.823711,0.36358595
C0A890,雙溪,2018-11-30,25.036003,121.864242,0.15341382
C0A920,富貴角,2018-11-30,25.263783,121.565258,0.20730807
C0A931,三和,2018-11-30,25.233153,121.595236,0.33161002
C0AC70,信義,2018-11-30,25.037822,121.564597,0.5017447
C0AC80,文山,2018-11-30,25.00235,121.575728,0.60450774
C0ACA0,新莊,2018-11-30,25.051478,121.446756,0.17186978
C0AH50,林口,2018-11-30,25.072181,121.38084,0.50220114
C0AH70,松山,2018-11-30,25.04871,121.55042,0.5017447
C0AH80,深坑,2018-11-30,25.002703,121.628328,0.60450774
C0AJ60,六塊厝,2018-11-30,25.24,121.4481,0.15661849
C0AJ70,田寮,2018-11-30,25.2698,121.4886,0.117561325
