站號,站名,日期,lat,lon,BlastGRU-TW
12J990,口湖工作站,2018-06-08,23.589978,120.180394,0.2654453
12Q970,東港工作站,2018-06-08,22.479997,120.466058,0.21529002
12Q980,恆春工作站,2018-06-08,22.079678,120.714425,0.30018422
466881,新北,2018-06-08,24.9593,121.52,0.09381293
466900,淡水,2018-06-08,25.164889,121.448906,0.12915276
466920,臺北,2018-06-08,25.037658,121.514853,0.08693609
466940,基隆,2018-06-08,25.133314,121.740475,0.10156559
466990,花蓮,2018-06-08,23.975128,121.613275,0.036713433
467050,新屋,2018-06-08,25.006744,121.047486,0.27193475
467060,蘇澳,2018-06-08,24.596736,121.857372,0.14176004
467080,宜蘭,2018-06-08,24.763975,121.756528,0.026322892
467270,田中,2018-06-08,23.873803,120.581286,0.20975675
467300,東吉島,2018-06-08,23.25695,119.667467,0.68005025
467350,澎湖,2018-06-08,23.565503,119.563094,0.82259107
467410,臺南,2018-06-08,22.993239,120.204772,0.13340008
467420,永康,2018-06-08,23.038386,120.2367,0.13086891
467441,高雄,2018-06-08,22.7304,120.3125,0.17436975
467480,嘉義,2018-06-08,23.495925,120.432906,0.28880182
467490,臺中,2018-06-08,24.145736,120.684075,0.4232045
467540,大武,2018-06-08,22.355675,120.903789,0.11320771
467571,新竹,2018-06-08,24.827853,121.014219,0.438103
467590,恆春,2018-06-08,22.003897,120.746339,0.3275296
467610,成功,2018-06-08,23.097486,121.373428,0.04684543
467620,蘭嶼,2018-06-08,22.036969,121.558339,0.83277154
467660,臺東,2018-06-08,22.752211,121.154586,0.12662417
467790,墾丁雷達站,2018-06-08,21.948235,120.808028,0.35569355
72AI40,桃改臺北分場,2018-06-08,24.944503,121.386972,0.12235672
72C440,桃園農改場,2018-06-08,24.950944,121.030583,0.28700176
72D680,新埔,2018-06-08,24.834444,121.066111,0.41860026
72G600,臺中農改場,2018-06-08,24.003028,120.534389,0.22359136
72K220,雲林分場,2018-06-08,23.634556,120.477333,0.2544379
72L140,朴子分場,2018-06-08,23.4982,120.2414,0.24841417
72M360,義竹工作站,2018-06-08,23.360694,120.279361,0.15414527
72M700,嘉義分場,2018-06-08,23.416869,120.283061,0.21639954
72N100,臺南農改場,2018-06-08,23.0605,120.342194,0.115834124
72N240,七股研究中心,2018-06-08,23.081672,120.062894,0.21936892
72Q010,高雄農改場,2018-06-08,22.709333,120.525889,0.28385928
72S200,斑鳩分場,2018-06-08,22.829528,121.077694,0.18101254
72S590,賓朗果園,2018-06-08,22.813889,121.071278,0.20450729
72T250,花蓮農改場,2018-06-08,23.975222,121.563889,0.041380472
72U480,蘭陽分場,2018-06-08,24.686306,121.716583,0.055156954
72V140,旗南,2018-06-08,22.857861,120.516667,0.34304774
82A750,文山分場,2018-06-08,24.955778,121.631222,0.20236936
82C160,茶改場(楊梅),2018-06-08,24.908472,121.185333,0.61659604
82H840,凍頂工作站,2018-06-08,23.762528,120.7405,0.74771565
82S580,龍田,2018-06-08,22.907694,121.130139,0.069345124
A0K420,麥寮,2018-06-08,23.7988,120.2177,0.16570702
A0W080,吉貝,2018-06-08,23.74,119.6042,0.8462774
A2C560,農工中心,2018-06-08,24.985917,121.239833,0.56644136
A2K360,臺西分所,2018-06-08,23.717231,120.190522,0.20167647
A2K570,古坑(花卉中心),2018-06-08,23.633531,120.552392,0.40542436
A2K630,臺大雲林校區,2018-06-08,23.730628,120.423903,0.17624916
A2N290,臺南蘭花園區,2018-06-08,23.340258,120.379661,0.32796344
B2E890,新竹畜試,2018-06-08,24.527806,120.770972,0.56767786
B2N890,畜產試驗所,2018-06-08,23.058972,120.336406,0.115834124
B2Q810,恆春分所,2018-06-08,21.945583,120.802167,0.31985748
B2U990,宜蘭畜試,2018-06-08,24.669039,121.832561,0.054124475
C0A520,山佳,2018-06-08,24.974944,121.402008,0.12235672
C0A530,坪林,2018-06-08,24.938183,121.70975,0.04518169
C0A540,四堵,2018-06-08,24.8926,121.745736,0.27058345
C0A550,泰平,2018-06-08,24.971197,121.823711,0.22658303
C0A560,福山,2018-06-08,24.776203,121.502811,0.20236936
C0A570,桶後,2018-06-08,24.848222,121.597992,0.16438232
C0A640,石碇,2018-06-08,24.993969,121.662917,0.046287082
C0A650,火燒寮,2018-06-08,25.002719,121.742892,0.055703364
C0A660,瑞芳,2018-06-08,25.113169,121.801147,0.039617833
C0A770,科教館,2018-06-08,25.096356,121.516507,0.10937664
C0A860,大坪,2018-06-08,25.165914,121.632969,0.3796968
C0A880,福隆,2018-06-08,25.017842,121.942083,0.034811825
C0A890,雙溪,2018-06-08,25.036003,121.864242,0.1281615
C0A920,富貴角,2018-06-08,25.263783,121.565258,0.19682229
C0A931,三和,2018-06-08,25.233153,121.595236,0.04744667
C0A940,金山,2018-06-08,25.223628,121.643967,0.16127774
C0A950,鼻頭角,2018-06-08,25.129036,121.923372,0.034494855
C0A970,三貂角,2018-06-08,25.007606,122.002058,0.042399775
C0A980,社子,2018-06-08,25.109508,121.469681,0.10536922
C0A9C0,天母,2018-06-08,25.117494,121.537169,0.11787267
C0A9F0,內湖,2018-06-08,25.079422,121.57545,0.08693596
C0AC60,三峽,2018-06-08,24.939025,121.369728,0.09731868
C0AC70,信義,2018-06-08,25.037822,121.564597,0.08693609
C0AC80,文山,2018-06-08,25.00235,121.575728,0.105037704
C0ACA0,新莊,2018-06-08,25.051478,121.446756,0.105706096
C0AD00,三芝,2018-06-08,25.258131,121.501917,0.20160896
C0AD10,八里,2018-06-08,25.150211,121.403947,0.12820552
C0AD30,蘆洲,2018-06-08,25.086594,121.472331,0.10937664
C0AD40,土城,2018-06-08,24.973208,121.445169,0.113200694
C0AD50,鶯歌,2018-06-08,24.951533,121.346294,0.15193328
C0AG80,中和,2018-06-08,24.991622,121.491792,0.08693609
C0AH00,汐止,2018-06-08,25.066881,121.658778,0.10594438
C0AH10,永和,2018-06-08,25.01125,121.508111,0.08433525
C0AH40,平等,2018-06-08,25.129142,121.577086,0.45970792
C0AH50,林口,2018-06-08,25.072181,121.38084,0.13016915
C0AH70,松山,2018-06-08,25.04871,121.55042,0.08693609
C0AH80,深坑,2018-06-08,25.002703,121.628328,0.10503768
C0AI00,五股,2018-06-08,25.07445,121.42728,0.65108514
C0AI10,屈尺,2018-06-08,24.92184,121.54475,0.10503768
C0AI20,白沙灣,2018-06-08,25.283128,121.519058,0.1441316
C0AI30,三重,2018-06-08,25.057328,121.500629,0.10937664
C0AI40,石牌,2018-06-08,25.115597,121.513139,0.113200694
C0AJ10,澳底,2018-06-08,25.057107,121.927272,0.034143288
C0AJ20,野柳,2018-06-08,25.20703,121.690021,0.10594438
C0AJ30,淡水觀海,2018-06-08,25.184591,121.408616,0.12349572
C0AJ40,石門,2018-06-08,25.273672,121.601198,0.36683056
C0AJ50,水湳洞,2018-06-08,25.123695,121.862238,0.10594438
C0AJ60,六塊厝,2018-06-08,25.24,121.4481,0.12349572
C0AJ70,田寮,2018-06-08,25.2698,121.4886,0.13716544
C0AJ80,板橋,2018-06-08,25.0107,121.4489,0.113200694
C0B010,七堵,2018-06-08,25.094819,121.71713,0.11604759
C0B020,基隆嶼,2018-06-08,25.19141,121.78391,0.10594438
C0B040,大武崙,2018-06-08,25.166676,121.706993,0.11604759
C0B050,八斗子,2018-06-08,25.144754,121.79167,0.09747005
C0B060,暖暖,2018-06-08,25.0957,121.7403,0.15124135
C0C460,復興,2018-06-08,24.820208,121.352281,0.4021739
C0C480,桃園,2018-06-08,24.992425,121.323172,0.45548543
C0C490,八德,2018-06-08,24.928708,121.283289,0.3095095
C0C590,觀音,2018-06-08,25.027072,121.153317,0.2005182
C0C620,蘆竹,2018-06-08,25.084275,121.265767,0.13954106
C0C630,大溪,2018-06-08,24.882853,121.265547,0.4131473
C0C650,平鎮,2018-06-08,24.897503,121.214636,0.61659604
C0C660,楊梅,2018-06-08,24.912375,121.143047,0.6568757
C0C670,龍潭,2018-06-08,24.870056,121.221389,0.8094654
C0C680,龜山,2018-06-08,25.02846,121.38656,0.13228157
C0C700,中壢,2018-06-08,24.977661,121.256375,0.521231
C0C710,大溪永福,2018-06-08,24.892936,121.324975,0.60660595
C0C720,竹圍,2018-06-08,25.112692,121.239824,0.12820552
C0C730,中大臨海站,2018-06-08,24.966126,121.008581,0.25081766
C0C740,觀音工業區,2018-06-08,25.064764,121.114856,0.44650486
C0C750,新興坑尾,2018-06-08,25.0061,121.0971,0.5816538
C0D390,關西,2018-06-08,24.7977,121.1732,0.47434348
C0D430,峨眉,2018-06-08,24.6905,121.017189,0.4706558
C0D480,打鐵坑,2018-06-08,24.849664,121.150789,0.81632036
C0D540,橫山,2018-06-08,24.71116,121.11693,0.8334709
C0D560,竹東,2018-06-08,24.767147,121.057881,0.55702496
C0D580,寶山,2018-06-08,24.735006,121.025192,0.75178504
C0D590,新豐,2018-06-08,24.87068,120.97721,0.5134895
C0D650,湖口,2018-06-08,24.904794,121.043628,0.3297415
C0D660,新竹市東區,2018-06-08,24.798681,120.986942,0.4733293
C0D670,海天一線,2018-06-08,24.831986,120.914438,0.3409073
C0D680,香山濕地,2018-06-08,24.783581,120.914988,0.3536196
C0D690,外湖,2018-06-08,24.917735,120.968711,0.25081766
C0E420,竹南,2018-06-08,24.708978,120.888897,0.39912936
C0E430,南庄,2018-06-08,24.601775,121.000214,0.6467944
C0E520,大湖,2018-06-08,24.41494,120.87087,0.86792564
C0E540,後龍,2018-06-08,24.606489,120.783933,0.44357753
C0E550,明德,2018-06-08,24.583486,120.885411,0.5923717
C0E590,通霄,2018-06-08,24.471892,120.704622,0.51161474
C0E730,頭份,2018-06-08,24.688247,120.912206,0.39912936
C0E740,造橋,2018-06-08,24.637056,120.864778,0.5493122
C0E750,苗栗,2018-06-08,24.564569,120.824575,0.505041
C0E780,銅鑼,2018-06-08,24.489681,120.790853,0.681702
C0E791,卓蘭,2018-06-08,24.3126,120.8244,0.7786659
C0E810,西湖,2018-06-08,24.562947,120.7485,0.47935247
C0E820,獅潭,2018-06-08,24.539133,120.920042,0.56990993
C0E830,苑裡,2018-06-08,24.439714,120.653053,0.32907796
C0E850,大河,2018-06-08,24.618069,120.948578,0.6204636
C0E870,高鐵苗栗,2018-06-08,24.60725,120.826094,0.4550783
C0E910,海埔,2018-06-08,24.648767,120.772435,0.46904907
C0E920,通霄漁港,2018-06-08,24.498589,120.673876,0.44748318
C0E930,龍鳳,2018-06-08,24.700034,120.859125,0.5093309
C0F000,大肚,2018-06-08,24.15295,120.572117,0.7091337
C0F0B0,石岡,2018-06-08,24.276061,120.777644,0.7470534
C0F850,東勢,2018-06-08,24.246428,120.833047,0.81090355
C0F930,大甲,2018-06-08,24.347667,120.640403,0.34991986
C0F970,大坑,2018-06-08,24.173142,120.722289,0.5334816
C0F9A0,中竹林,2018-06-08,24.103556,120.751061,0.7847519
C0F9I0,神岡,2018-06-08,24.272481,120.658314,0.7035127
C0F9K0,大安,2018-06-08,24.345061,120.588025,0.27346706
C0F9L0,后里,2018-06-08,24.310436,120.729725,0.77828765
C0F9M0,豐原,2018-06-08,24.254322,120.720692,0.74674296
C0F9N0,大里,2018-06-08,24.092464,120.701378,0.24453647
C0F9O0,潭子,2018-06-08,24.213106,120.703933,0.6795224
C0F9P0,清水,2018-06-08,24.312297,120.562242,0.260976
C0F9Q0,外埔,2018-06-08,24.347817,120.705686,0.63551617
C0F9R0,龍井,2018-06-08,24.184536,120.528972,0.27143544
C0F9S0,烏日,2018-06-08,24.107058,120.624103,0.19520847
C0F9T0,西屯,2018-06-08,24.179494,120.641275,0.3426483
C0F9U0,南屯,2018-06-08,24.137006,120.637969,0.24453625
C0F9X0,大雅(中科園區),2018-06-08,24.21528,120.62445,0.43093544
C0FA10,松柏,2018-06-08,24.429115,120.617482,0.3039296
C0FA20,溫寮,2018-06-08,24.372177,120.583125,0.3039296
C0FA30,梧棲,2018-06-08,24.256003,120.523381,0.2714359
C0FA40,臺中電廠,2018-06-08,24.2146,120.4907,0.2714359
C0FA50,霧峰,2018-06-08,24.0419,120.6995,0.27915522
C0G620,芬園,2018-06-08,24.015678,120.6213,0.2802615
C0G640,鹿港,2018-06-08,24.0753,120.430481,0.24025334
C0G650,員林,2018-06-08,23.946503,120.585597,0.26614192
C0G660,溪湖,2018-06-08,23.94835,120.479122,0.26607114
C0G720,溪州,2018-06-08,23.851589,120.499093,0.22610962
C0G730,二林,2018-06-08,23.903325,120.376081,0.24249628
C0G740,大城,2018-06-08,23.852487,120.320935,0.22915395
C0G770,福興,2018-06-08,24.041289,120.437669,0.24025334
C0G780,秀水,2018-06-08,24.03405,120.503869,0.21787147
C0G800,埔鹽,2018-06-08,24.000394,120.431683,0.24025334
C0G810,埔心,2018-06-08,23.947633,120.525456,0.27479008
C0G820,田尾,2018-06-08,23.901669,120.509389,0.285989
C0G830,埤頭,2018-06-08,23.866003,120.452806,0.21361007
C0G840,北斗,2018-06-08,23.877586,120.514222,0.285989
C0G860,社頭,2018-06-08,23.897647,120.5862,0.27602956
C0G870,芳苑,2018-06-08,23.922303,120.320025,0.22358945
C0G880,二水,2018-06-08,23.810742,120.6173,0.35528997
C0G890,伸港,2018-06-08,24.148933,120.484403,0.25230792
C0G900,線西,2018-06-08,24.143358,120.443536,0.26727942
C0G910,花壇,2018-06-08,24.032076,120.549461,0.23011355
C0G920,永靖,2018-06-08,23.924703,120.547533,0.285989
C0G940,竹塘,2018-06-08,23.848253,120.386764,0.18105581
C0G950,防潮門,2018-06-08,24.1835,120.4871,0.26561663
C0G960,福寶,2018-06-08,24.0443,120.3814,0.23326777
C0G970,三豐,2018-06-08,23.882,120.2895,0.22358945
C0H890,埔里,2018-06-08,23.972169,120.952425,0.81967795
C0H950,中寮,2018-06-08,23.884447,120.766406,0.67822784
C0H960,草屯,2018-06-08,23.973672,120.68085,0.30546498
C0I110,竹山,2018-06-08,23.761225,120.688156,0.6065314
C0I360,水里,2018-06-08,23.812553,120.849792,0.75080717
C0I380,集集,2018-06-08,23.828206,120.801467,0.7250223
C0I410,名間,2018-06-08,23.837053,120.701447,0.5564287
C0I420,國姓,2018-06-08,24.037803,120.855072,0.76089317
C0I460,南投,2018-06-08,23.911469,120.687331,0.48582864
C0K250,崙背,2018-06-08,23.75555,120.318925,0.21072565
C0K280,四湖,2018-06-08,23.630414,120.227125,0.2091377
C0K291,宜梧,2018-06-08,23.536281,120.169329,0.24444558
C0K330,虎尾,2018-06-08,23.719183,120.442036,0.18137906
C0K390,土庫,2018-06-08,23.679029,120.395574,0.17624916
C0K400,斗六,2018-06-08,23.720583,120.541127,0.2628489
C0K410,北港,2018-06-08,23.573957,120.292802,0.2285376
C0K420,西螺,2018-06-08,23.800407,120.467394,0.24598117
C0K430,褒忠,2018-06-08,23.690938,120.303634,0.16570702
C0K440,二崙,2018-06-08,23.772797,120.408944,0.18621449
C0K450,大埤,2018-06-08,23.646074,120.431537,0.19203825
C0K460,斗南,2018-06-08,23.678734,120.478359,0.24432762
C0K470,林內,2018-06-08,23.748675,120.609642,0.32613817
C0K480,莿桐,2018-06-08,23.761192,120.502372,0.2546909
C0K500,元長,2018-06-08,23.64981,120.315024,0.1727231
C0K510,水林,2018-06-08,23.572924,120.24597,0.27061576
C0K530,臺西,2018-06-08,23.701547,120.197559,0.20584545
C0K550,蔦松,2018-06-08,23.514319,120.229736,0.24841417
C0K560,棋山,2018-06-08,23.68645,120.603417,0.2593748
C0K580,高鐵雲林,2018-06-08,23.737456,120.417944,0.17624916
C0K590,雲林東勢,2018-06-08,23.674192,120.255721,0.16570698
C0K600,箔子寮,2018-06-08,23.6197,120.14,0.2654453
C0M410,馬頭山,2018-06-08,23.324361,120.582017,0.7590716
C0M520,東後寮,2018-06-08,23.369908,120.248065,0.17168683
C0M640,中埔,2018-06-08,23.42538,120.5229,0.41413417
C0M650,朴子,2018-06-08,23.43463,120.23902,0.2389601
C0M660,溪口,2018-06-08,23.604131,120.403569,0.25152943
C0M670,大林,2018-06-08,23.600616,120.45841,0.334004
C0M680,太保,2018-06-08,23.455062,120.331455,0.19773673
C0M690,水上,2018-06-08,23.419734,120.388909,0.26921874
C0M700,竹崎,2018-06-08,23.526178,120.555508,0.5365968
C0M710,東石,2018-06-08,23.458927,120.15385,0.24841417
C0M720,番路,2018-06-08,23.464657,120.554156,0.6225222
C0M730,嘉義市東區,2018-06-08,23.457673,120.460531,0.39231458
C0M740,六腳,2018-06-08,23.492871,120.290625,0.19412039
C0M750,布袋,2018-06-08,23.380878,120.167789,0.2389601
C0M760,民雄,2018-06-08,23.551754,120.428457,0.26810554
C0M770,嘉義梅山,2018-06-08,23.585398,120.555587,0.31053966
C0M780,鹿草,2018-06-08,23.41134,120.30835,0.22088462
C0M790,新港,2018-06-08,23.553269,120.345728,0.23347263
C0M800,茶山,2018-06-08,23.299075,120.664767,0.8494579
C0M880,好美里,2018-06-08,23.3364,120.138,0.1882986
C0N010,鯤鯓國小,2018-06-08,23.1879,120.0889,0.26017034
C0N020,城西,2018-06-08,23.0568,120.0956,0.22315341
C0N030,四草,2018-06-08,23.0235,120.1116,0.16594766
C0N040,蘆竹溝,2018-06-08,23.2344,120.0961,0.26017034
C0N050,蚵寮,2018-06-08,23.301,120.1104,0.26017034
C0O810,曾文,2018-06-08,23.219681,120.497328,0.5530585
C0O830,北寮,2018-06-08,23.079561,120.495008,0.5143161
C0O840,王爺宮,2018-06-08,23.222064,120.40085,0.5530585
C0O860,大內,2018-06-08,23.11885,120.36083,0.19064158
C0O900,善化,2018-06-08,23.112883,120.297219,0.109289564
C0O930,玉井,2018-06-08,23.126042,120.46055,0.38641754
C0O950,安南,2018-06-08,23.076694,120.144861,0.16622342
C0O960,崎頂,2018-06-08,22.959547,120.369317,0.38099083
C0O970,虎頭埤,2018-06-08,23.021375,120.347878,0.1666395
C0O980,新市,2018-06-08,23.061614,120.298197,0.109289564
C0O990,媽廟,2018-06-08,22.99175,120.293525,0.11182754
C0R150,三地門,2018-06-08,22.709889,120.639944,0.24217226
C0R160,鹽埔,2018-06-08,22.739558,120.530778,0.28385928
C0R170,屏東,2018-06-08,22.660269,120.494072,0.20516936
C0R190,赤山,2018-06-08,22.592333,120.614306,0.23321271
C0R220,潮州,2018-06-08,22.534361,120.54,0.28766507
C0R240,來義,2018-06-08,22.527306,120.625111,0.3921336
C0R260,春日,2018-06-08,22.370361,120.628306,0.36301216
C0R270,琉球嶼,2018-06-08,22.332244,120.362236,0.36978754
C0R280,檳榔,2018-06-08,22.076078,120.836777,0.52877384
C0R320,車城,2018-06-08,22.0744,120.716247,0.30018422
C0R341,牡丹,2018-06-08,22.130036,120.792639,0.5926707
C0R350,貓鼻頭,2018-06-08,21.921774,120.7358,0.33713657
C0R470,高樹,2018-06-08,22.826389,120.600806,0.26381058
C0R480,長治,2018-06-08,22.693128,120.542622,0.2902503
C0R490,九如,2018-06-08,22.7405,120.490503,0.21015468
C0R520,崁頂,2018-06-08,22.514781,120.506914,0.22066596
C0R540,佳冬,2018-06-08,22.419456,120.552375,0.21529002
C0R550,新埤,2018-06-08,22.467947,120.582894,0.22867328
C0R560,新園,2018-06-08,22.5434,120.461558,0.22066596
C0R570,麟洛,2018-06-08,22.65078,120.52719,0.21015468
C0R580,南州,2018-06-08,22.48591,120.50274,0.21529002
C0R590,里港,2018-06-08,22.77919,120.49459,0.3015429
C0R620,墾雷,2018-06-08,21.900836,120.855269,0.33713657
C0R640,東港,2018-06-08,22.46247,120.44074,0.19223851
C0R650,竹田,2018-06-08,22.58486,120.54344,0.22460543
C0R660,枋寮,2018-06-08,22.367722,120.590647,0.27536893
C0R670,楓港,2018-06-08,22.190131,120.692156,0.2933747
C0R680,佳樂水,2018-06-08,21.993578,120.861633,0.31985748
C0R690,墾丁,2018-06-08,21.966756,120.810269,0.5571822
C0R700,枋山,2018-06-08,22.246844,120.661086,0.2933747
C0R710,龍磐,2018-06-08,21.931672,120.838942,0.42987853
C0R720,旭海,2018-06-08,22.205403,120.887614,0.33278525
C0R730,大坪頂,2018-06-08,22.024633,120.69355,0.40739185
C0R740,獅子,2018-06-08,22.201569,120.70525,0.32963252
C0R760,南仁湖,2018-06-08,22.084681,120.863353,0.54243636
C0R770,保力,2018-06-08,22.071122,120.764111,0.38503066
C0R780,滿州,2018-06-08,22.024403,120.839892,0.34539315
C0R790,九棚,2018-06-08,22.14195,120.889281,0.30365142
C0R800,丹路,2018-06-08,22.204481,120.750989,0.42807466
C0R810,內獅,2018-06-08,22.305064,120.642986,0.32678318
C0R830,高士,2018-06-08,22.121825,120.836781,0.64098823
C0R850,林邊,2018-06-08,22.4634,120.5339,0.22066596
C0R860,鼻頭,2018-06-08,22.1043,120.8979,0.4165546
C0R870,興海,2018-06-08,21.9752,120.8439,0.31985748
C0R880,後壁湖,2018-06-08,21.9457,120.7457,0.29199433
C0R890,山海,2018-06-08,21.9878,120.7091,0.30018422
C0R900,竹坑,2018-06-08,22.1385,120.7022,0.38813144
C0R910,下寮,2018-06-08,22.3929,120.5548,0.21529002
C0R920,塭仔,2018-06-08,22.4169,120.5197,0.21041237
C0R930,萬丹,2018-06-08,22.5885,120.4851,0.22460543
C0R940,加祿堂,2018-06-08,22.3363,120.6217,0.32678318
C0S710,鹿野,2018-06-08,22.917711,121.122994,0.42775518
C0S730,綠島,2018-06-08,22.6672,121.47533,0.061974335
C0S740,池上,2018-06-08,23.119628,121.209469,0.15096895
C0S770,大溪山,2018-06-08,22.478475,120.943325,0.19212833
C0S790,金崙,2018-06-08,22.538122,120.966875,0.13338462
C0S810,東河,2018-06-08,22.972672,121.303986,0.034151185
C0S830,長濱,2018-06-08,23.286817,121.411975,0.7519909
C0S840,南田,2018-06-08,22.279725,120.889208,0.1696311
C0S890,關山,2018-06-08,23.0395,121.175017,0.114035815
C0S900,蘭嶼高中,2018-06-08,22.04909,121.51214,0.4645017
C0S910,蘭嶼燈塔,2018-06-08,22.081197,121.503117,0.6086656
C0S920,金峰嘉蘭,2018-06-08,22.594789,120.960825,0.10554015
C0S930,延平,2018-06-08,22.902581,121.084058,0.0630032
C0S940,石寧山,2018-06-08,23.223772,121.406639,0.25803092
C0S950,七塊厝,2018-06-08,22.954453,121.229922,0.56940967
C0S960,香蘭,2018-06-08,22.587569,120.993375,0.09214332
C0S970,加津林,2018-06-08,22.416211,120.926942,0.1165857
C0S990,山豬窟,2018-06-08,22.318619,120.857372,0.37626144
C0SA00,歷坵,2018-06-08,22.520969,120.89185,0.24170353
C0SA10,檳榔四格山,2018-06-08,22.810031,121.109308,0.27174982
C0SA30,都歷,2018-06-08,23.020333,121.323642,0.05523808
C0SA40,瑞和,2018-06-08,22.974361,121.156697,0.0987021
C0SA60,知本（水試所）,2018-06-08,22.702394,121.082761,0.11622989
C0SA80,土坂,2018-06-08,22.453108,120.887572,0.11592396
C0SA90,達仁林場,2018-06-08,22.264347,120.823972,0.41970488
C0T870,鯉魚潭,2018-06-08,23.935639,121.508944,0.026131801
C0T900,西林,2018-06-08,23.8119,121.441458,0.030476077
C0T960,光復,2018-06-08,23.660694,121.424964,0.03152468
C0T9A0,月眉山,2018-06-08,23.809928,121.539828,0.5152542
C0T9D0,和中,2018-06-08,24.26676,121.74103,0.14168623
C0T9E0,大坑,2018-06-08,23.880628,121.581981,0.17539354
C0T9F0,水璉,2018-06-08,23.797131,121.542514,0.052545205
C0T9I0,豐濱,2018-06-08,23.583897,121.514806,0.033806503
C0T9M0,靜浦,2018-06-08,23.455167,121.495028,0.026253497
C0T9N0,富里,2018-06-08,23.171639,121.249378,0.38994324
C0U600,礁溪,2018-06-08,24.817539,121.765608,0.02661641
C0U650,玉蘭,2018-06-08,24.675286,121.587061,0.44890615
C0U750,龜山島,2018-06-08,24.841667,121.953133,0.30671614
C0U760,東澳,2018-06-08,24.52196,121.83318,0.0751486
C0U770,南澳,2018-06-08,24.44935,121.81022,0.076103136
C0U780,五結,2018-06-08,24.68637,121.79794,0.054124475
C0U860,頭城,2018-06-08,24.85323,121.8308,0.026322892
C0U870,大礁溪,2018-06-08,24.791042,121.675047,0.20573711
C0U880,北關,2018-06-08,24.9072,121.8734,0.08335454
C0U890,三星,2018-06-08,24.66812,121.65302,0.03077547
C0U900,內城,2018-06-08,24.71813,121.68766,0.027552888
C0U910,冬山,2018-06-08,24.63373,121.7937,0.054124475
C0U940,羅東,2018-06-08,24.68184,121.74934,0.054579888
C0U970,大福,2018-06-08,24.80064,121.81389,0.026074203
C0U990,員山,2018-06-08,24.74435,121.72247,0.054579888
C0UA00,土場,2018-06-08,24.576533,121.495333,0.18367474
C0UA80,大溪漁港,2018-06-08,24.941801,121.902955,0.02661641
C0UA90,石城,2018-06-08,24.980444,121.951214,0.038351003
C0UB00,淡江大學蘭陽校園,2018-06-08,24.823239,121.730383,0.17419115
C0UB20,壯圍,2018-06-08,24.7359,121.8163,0.053583037
C0V250,甲仙,2018-06-08,23.080106,120.591758,0.7958036
C0V260,月眉,2018-06-08,22.971003,120.539853,0.49788734
C0V310,美濃,2018-06-08,22.898742,120.519153,0.31437668
C0V350,溪埔,2018-06-08,22.738578,120.446797,0.16316763
C0V360,內門,2018-06-08,22.975481,120.466769,0.39851308
C0V370,古亭坑,2018-06-08,22.893178,120.401947,0.24796087
C0V400,阿公店,2018-06-08,22.804194,120.355528,0.17431784
C0V440,鳳山,2018-06-08,22.646653,120.356122,0.20356813
C0V450,鳳森,2018-06-08,22.545064,120.392592,0.27988893
C0V490,新興,2018-06-08,22.627422,120.298803,0.19569077
C0V530,阿蓮,2018-06-08,22.883208,120.327508,0.108843066
C0V610,梓官,2018-06-08,22.760558,120.267211,0.124045715
C0V620,永安,2018-06-08,22.82315,120.236856,0.1257574
C0V630,茄萣,2018-06-08,22.906642,120.182608,0.12414996
C0V640,湖內,2018-06-08,22.887139,120.2445,0.12650634
C0V650,彌陀,2018-06-08,22.783806,120.246361,0.1257574
C0V660,岡山,2018-06-08,22.797078,120.294958,0.12404557
C0V680,仁武,2018-06-08,22.701083,120.347722,0.17686854
C0V690,鼓山,2018-06-08,22.623325,120.275575,0.19569077
C0V700,三民,2018-06-08,22.645017,120.311233,0.19569047
C0V710,苓雅,2018-06-08,22.622742,120.330669,0.19569077
C0V720,林園,2018-06-08,22.507747,120.394511,0.19569077
C0V730,大寮,2018-06-08,22.605614,120.395717,0.25472775
C0V740,旗山,2018-06-08,22.888614,120.483597,0.32506305
C0V750,路竹,2018-06-08,22.854997,120.259439,0.10838139
C0V760,橋頭,2018-06-08,22.757806,120.30575,0.12616849
C0V770,大社,2018-06-08,22.730306,120.346639,0.17686854
C0V790,萬山,2018-06-08,22.905944,120.688056,0.8068646
C0V800,六龜,2018-06-08,22.997889,120.633583,0.6094269
C0V810,左營,2018-06-08,22.67491,120.28491,0.17436993
C0V820,小林,2018-06-08,23.148408,120.63325,0.8710574
C0V840,鳳鼻頭,2018-06-08,22.5083,120.3591,0.19223851
C0V850,蚵仔寮,2018-06-08,22.7256,120.2527,0.17103215
C0V860,南寮,2018-06-08,22.7616,120.2339,0.12331185
C0V870,文安,2018-06-08,22.8025,120.2164,0.12331185
C0V880,興達,2018-06-08,22.8778,120.2127,0.12414996
C0V890,前鎮,2018-06-08,22.5718,120.3117,0.19223851
C0V900,汕尾,2018-06-08,22.4782,120.4151,0.16220242
C0X050,東河,2018-06-08,23.296598,120.385608,0.32796344
C0X060,下營,2018-06-08,23.22695,120.256261,0.15820579
C0X080,佳里,2018-06-08,23.173039,120.145086,0.1882986
C0X100,臺南市北區,2018-06-08,23.010394,120.194228,0.12896548
C0X110,臺南市南區,2018-06-08,22.961189,120.188378,0.13086891
C0X120,麻豆,2018-06-08,23.183289,120.248611,0.19196664
C0X130,官田,2018-06-08,23.193217,120.315422,0.16468583
C0X140,西港,2018-06-08,23.125608,120.203108,0.17661233
C0X150,安定,2018-06-08,23.102614,120.227839,0.13023132
C0X160,仁德,2018-06-08,22.968258,120.257689,0.110183425
C0X170,關廟,2018-06-08,22.963017,120.327797,0.11782244
C0X180,山上,2018-06-08,23.0757,120.363253,0.29984173
C0X190,安平,2018-06-08,22.993161,120.152181,0.12896548
C0X200,左鎮,2018-06-08,23.056758,120.408522,0.28929862
C0X210,白河,2018-06-08,23.347466,120.414427,0.34412435
C0X220,學甲,2018-06-08,23.230367,120.182187,0.19196664
C0X230,鹽水,2018-06-08,23.272621,120.247641,0.1812533
C0X240,關子嶺,2018-06-08,23.331169,120.508025,0.8887105
C0X250,新營,2018-06-08,23.310689,120.316681,0.15562429
C0X260,後壁,2018-06-08,23.366358,120.362326,0.24456555
C0X280,將軍,2018-06-08,23.214999,120.13577,0.1882986
C0X290,北門,2018-06-08,23.267772,120.125481,0.1882986
C0X300,鹿寮,2018-06-08,23.386047,120.477331,0.22847062
C0X310,七股,2018-06-08,23.147289,120.086253,0.2974589
C0X320,柳營,2018-06-08,23.253328,120.375253,0.32796344
C0Z020,明里,2018-06-08,23.208717,121.262342,0.6233485
C0Z061,玉里,2018-06-08,23.3215,121.339656,0.14392121
C0Z070,舞鶴,2018-06-08,23.46811,121.37407,0.07891799
C0Z080,富源,2018-06-08,23.587642,121.378225,0.05748889
C0Z100,東華,2018-06-08,23.89525,121.549833,0.019315902
C0Z150,吉安光華,2018-06-08,23.930925,121.595153,0.01842002
C0Z160,鳳林,2018-06-08,23.746114,121.453411,0.029662928
C0Z170,卓溪,2018-06-08,23.3443,121.3029,0.20508072
C0Z180,新城,2018-06-08,24.03946,121.60454,0.039767474
C0Z190,富世,2018-06-08,24.14743,121.6297,0.32443768
C0Z200,萬榮,2018-06-08,23.709219,121.420106,0.026131801
C0Z210,瑞穗,2018-06-08,23.5239,121.39021,0.0302295
C0Z230,和平,2018-06-08,24.30717,121.77007,0.14168623
C0Z270,蕃薯寮,2018-06-08,23.73835,121.540108,0.030102141
C0Z280,德武,2018-06-08,23.47426,121.41071,0.050742056
C0Z300,東里,2018-06-08,23.26853,121.30547,0.17360918
C0Z310,清水斷崖,2018-06-08,24.218294,121.689142,0.20043398
C0Z330,安通山,2018-06-08,23.290728,121.348528,0.82230145
CAA010,國一N013K,2018-06-08,25.06944,121.6281,0.08988779
CAA020,國一S026K,2018-06-08,25.07639,121.4964,0.10937664
CAA030,國三S010K,2018-06-08,25.08,121.6475,0.08693596
CAA040,國三S016K,2018-06-08,25.03306,121.6158,0.11415042
CAA050,國三S037K,2018-06-08,24.9828,121.471,0.08988779
CAA060,國三S042K,2018-06-08,24.96,121.4306,0.12783083
CAA070,國三N046K,2018-06-08,24.95083,121.3958,0.12235672
CAA080,國三S054K,2018-06-08,24.93917,121.3239,0.37516415
CAA090,國三A005K,2018-06-08,25.00194,121.5975,0.09381293
CAAH60,大安森林,2018-06-08,25.02955,121.53628,0.08433525
CAB010,國一S001K,2018-06-08,25.11583,121.7286,0.121887036
CAB020,國一S006K,2018-06-08,25.08694,121.6869,0.11082047
CAB030,國三S004K,2018-06-08,25.11444,121.6886,0.037399117
CAB040,國三S007K,2018-06-08,25.09694,121.6678,0.15124135
CAB050,國三K002K,2018-06-08,25.14583,121.7217,0.15124135
CAC010,國一S072K,2018-06-08,24.89583,121.1342,0.7360103
CAC020,國二E009K,2018-06-08,25.02111,121.2736,0.39295286
CAC030,國三N063K,2018-06-08,24.889,121.26,0.39326885
CAC050,西濱S023K,2018-06-08,25.11649,121.27551,0.12915276
CAC060,西濱S032K,2018-06-08,25.091966,121.192505,0.12349572
CAD010,國一S105K,2018-06-08,24.726316,120.940643,0.38261917
CAD020,國一N077K,2018-06-08,24.885,121.0889,0.63839823
CAD030,國一S082K,2018-06-08,24.87667,121.0467,0.3747221
CAD040,國一S088K,2018-06-08,24.84444,121.0214,0.438103
CAD050,國一N094K,2018-06-08,24.79778,121.0089,0.49363416
CAD060,國一S098K,2018-06-08,24.76056,120.9911,0.49363416
CAD070,國三N076K,2018-06-08,24.800303,121.195739,0.8307116
CAD080,國三N085K,2018-06-08,24.78333,121.1211,0.80094475
CAD090,國三S103K,2018-06-08,24.75861,120.9608,0.5479079
CAD100,西濱N066K,2018-06-08,24.8956,120.9649,0.26397035
CAD110,西濱S082K,2018-06-08,24.751724,120.905028,0.3536196
CAE010,國一N142K,2018-06-08,24.453119,120.783221,0.78229135
CAE020,國一S114K,2018-06-08,24.668835,120.885811,0.3536196
CAE030,國一S123K,2018-06-08,24.59594,120.86071,0.5774323
CAE040,國一S132K,2018-06-08,24.524506,120.820831,0.5467136
CAE050,國一S152K,2018-06-08,24.375492,120.749184,0.8662387
CAE060,國三N119K,2018-06-08,24.675432,120.847389,0.5221716
CAE070,國三N151K,2018-06-08,24.440218,120.681656,0.35875112
CAE080,國三S140K,2018-06-08,24.522345,120.725006,0.53925985
CAE090,國三S156K,2018-06-08,24.39798,120.669487,0.50922143
CAE100,西濱N107K,2018-06-08,24.5958,120.7394,0.47935247
CAE110,西濱S129K,2018-06-08,24.4472,120.6428,0.31173348
CAF010,國一N174K,2018-06-08,24.2049,120.6552,0.5334816
CAF020,國一S162K,2018-06-08,24.295534,120.695976,0.71504444
CAF030,國一S169K,2018-06-08,24.237116,120.688271,0.6795224
CAF040,國一S188K,2018-06-08,24.118546,120.585747,0.19992037
CAF050,國三N208K,2018-06-08,24.066147,120.660919,0.19992037
CAF060,國三S168K,2018-06-08,24.308519,120.614471,0.32145238
CAF070,國三S173K,2018-06-08,24.27397,120.593079,0.43258372
CAF080,國三S178K,2018-06-08,24.226721,120.589058,0.44270614
CAF090,國四E5K,2018-06-08,24.296465,120.643135,0.3820902
CAF100,西濱N151K,2018-06-08,24.275964,120.547681,0.2714359
CAG010,國一N198K,2018-06-08,24.063889,120.523056,0.22933783
CAG030,國一S207K,2018-06-08,23.988304,120.508092,0.21787147
CAG040,國三N191K,2018-06-08,24.139256,120.5215,0.264011
CAG050,國三N196K,2018-06-08,24.107155,120.554482,0.19054747
CAG060,國三S202K,2018-06-08,24.092468,120.603256,0.19054747
CAG070,西濱S173K,2018-06-08,24.1081,120.434576,0.23326777
CAG080,西濱S189K,2018-06-08,23.987857,120.369607,0.25626528
CAG090,西濱N210K,2018-06-08,23.843536,120.293236,0.20699859
CAG100,王功漁港,2018-06-08,23.96824,120.32586,0.25626528
CAH010,國三N223K,2018-06-08,23.955116,120.662376,0.2864642
CAH020,國三S217K,2018-06-08,24.00683,120.653214,0.33491254
CAH030,茶改場竹圍站,2018-06-08,23.860083,120.637528,0.7891835
CAHA00,消防署訓練中心,2018-06-08,23.82137,120.72293,0.5764137
CAJ010,國三N252K,2018-06-08,23.77412,120.64061,0.40243077
CAJ020,國一N234K,2018-06-08,23.74633,120.467926,0.24432746
CAJ030,西濱N222K,2018-06-08,23.737734,120.256132,0.16308767
CAJ040,西濱S241K,2018-06-08,23.623426,120.172646,0.2654453
CAJ050,海口故事園區,2018-06-08,23.57543,120.14121,0.2654453
CAL010,國一N250K,2018-06-08,23.610292,120.436867,0.26810554
CAL020,國一S262K,2018-06-08,23.512333,120.403038,0.27786005
CAL030,國一N268K,2018-06-08,23.460833,120.375833,0.27786005
CAL040,國一N273K,2018-06-08,23.416666,120.355,0.32704672
CAL050,國三N279K,2018-06-08,23.596111,120.523333,0.33971742
CAL060,國三S286K,2018-06-08,23.533917,120.484583,0.3853187
CAL070,國三N295K,2018-06-08,23.468598,120.499369,0.36852443
CAL080,國三N303K,2018-06-08,23.428611,120.452416,0.26921874
CAL090,西濱S257K,2018-06-08,23.502278,120.171861,0.24841417
CAL100,西濱S267K,2018-06-08,23.41613,120.162872,0.2389601
CAL110,布袋國中,2018-06-08,23.35893,120.18026,0.17168672
CAN010,國一N288K,2018-06-08,23.30609,120.290033,0.15211871
CAN020,國一S306K,2018-06-08,23.1565,120.239513,0.19196664
CAN030,國一N316K,2018-06-08,23.07309,120.253014,0.109289564
CAN040,國一N323K,2018-06-08,23.00421,120.245922,0.13340008
CAN050,國一N335K,2018-06-08,22.897584,120.269895,0.10441961
CAN060,國三S311K,2018-06-08,23.346388,120.438888,0.35351053
CAN070,國三S329K,2018-06-08,23.212777,120.355833,0.2680778
CAN080,國三N336K,2018-06-08,23.154722,120.345,0.1680402
CAN090,國三S342K,2018-06-08,23.106694,120.327528,0.11319759
CAN100,國三S366K,2018-06-08,22.9077,120.3513,0.16887468
CAN110,西濱S280K,2018-06-08,23.3052,120.14891,0.1882986
CAN120,西濱N304K,2018-06-08,23.103439,120.086694,0.22315341
CAN130,水試所海水繁養殖中心,2018-06-08,23.120802,120.07968,0.21936892
CAN140,六官養殖協會,2018-06-08,23.22881,120.29962,0.1612702
CAP010,國一S342K,2018-06-08,22.845555,120.295,0.12404557
CAP020,國一S346K,2018-06-08,22.812222,120.314166,0.124045715
CAP030,國一N351K,2018-06-08,22.765833,120.328888,0.12616849
CAP040,國一N361K,2018-06-08,22.680555,120.328611,0.17436975
CAP050,國三N372K,2018-06-08,22.858611,120.373611,0.19125673
CAP060,國三S385K,2018-06-08,22.767777,120.444444,0.26917142
CAP070,高雄燈塔,2018-06-08,22.6146,120.2647,0.19569077
CAQ010,國三N425K,2018-06-08,22.480277,120.531666,0.22066596
CAQ020,國三S415K,2018-06-08,22.568,120.528,0.22041592
CAQ030,崎峰國小,2018-06-08,22.42565,120.49521,0.21529002
E2K600,四湖植物園,2018-06-08,23.676986,120.163433,0.20584545
E2P980,林試六龜中心,2018-06-08,22.991703,120.645722,0.625476
E2S390,太麻里分所,2018-06-08,22.5988,120.9811,0.104097396
E2S960,林試太麻里2,2018-06-08,22.598014,120.989761,0.09214332
E2S980,林試太麻里1,2018-06-08,22.598922,120.980044,0.104097396
G2AI50,關渡,2018-06-08,25.11575,121.492,0.10536922
G2F820,農試所(霧峰),2018-06-08,24.031261,120.688133,0.33491254
G2L020,嘉義分所,2018-06-08,23.485028,120.473806,0.36852443
G2M350,溪口農場,2018-06-08,23.58565,120.408111,0.25152943
G2P820,鳳山園試所,2018-06-08,22.646611,120.356083,0.20356813
K2E360,苗栗農改場,2018-06-08,24.495722,120.829111,0.60026646
K2E710,大湖分場,2018-06-08,24.422861,120.871833,0.81759775
K2F750,種苗改良場,2018-06-08,24.225972,120.800917,0.82492006
U2HA50,臺大竹山,2018-06-08,23.756972,120.681556,0.62298214
V2C250,八德合作社,2018-06-08,24.93775,121.266389,0.45427856
V2C260,八德蔬果,2018-06-08,24.978508,121.281819,0.47617254
V2K610,大庄合作社,2018-06-08,23.8068,120.367939,0.25147143
V2K620,麥寮合作社,2018-06-08,23.753836,120.294783,0.20699859
