站號,站名,日期,lat,lon,BlastGRU-TW
466881,新北,2018-12-25,24.9593,121.52,0.043441053
466900,淡水,2018-12-25,25.164889,121.448906,0.013704629
466920,臺北,2018-12-25,25.037658,121.514853,0.054583784
467441,高雄,2018-12-25,22.7304,120.3125,0.29681137
467480,嘉義,2018-12-25,23.495925,120.432906,0.021136502
467490,臺中,2018-12-25,24.145736,120.684075,0.0036856078
C0A540,四堵,2018-12-25,24.8926,121.745736,0.07029303
C0A550,泰平,2018-12-25,24.971197,121.823711,0.16545247
C0A560,福山,2018-12-25,24.776203,121.502811,0.19492523
C0A931,三和,2018-12-25,25.233153,121.595236,0.11602117
C0A940,金山,2018-12-25,25.223628,121.643967,0.005925126
C0A950,鼻頭角,2018-12-25,25.129036,121.923372,0.7848701
C0AD10,八里,2018-12-25,25.150211,121.403947,0.013704629
C0AD30,蘆洲,2018-12-25,25.086594,121.472331,0.019189201
C0AD40,土城,2018-12-25,24.973208,121.445169,0.017453102
C0AI10,屈尺,2018-12-25,24.92184,121.54475,0.030940654
C0AI20,白沙灣,2018-12-25,25.283128,121.519058,0.0070168804
C0AI30,三重,2018-12-25,25.057328,121.500629,0.019189201
C0B010,七堵,2018-12-25,25.094819,121.71713,0.083128996
C0B020,基隆嶼,2018-12-25,25.19141,121.78391,0.10164458
