站號,站名,日期,lat,lon,BlastGRU-TW
466881,新北,2018-09-02,24.9593,121.52,0.037453752
466900,淡水,2018-09-02,25.164889,121.448906,0.044746526
466920,臺北,2018-09-02,25.037658,121.514853,0.03621865
466940,基隆,2018-09-02,25.133314,121.740475,0.049696658
466990,花蓮,2018-09-02,23.975128,121.613275,0.005835519
467050,新屋,2018-09-02,25.006744,121.047486,0.030771617
467080,宜蘭,2018-09-02,24.763975,121.756528,0.02833076
467270,田中,2018-09-02,23.873803,120.581286,0.017163754
467300,東吉島,2018-09-02,23.25695,119.667467,0.0142174
467350,澎湖,2018-09-02,23.565503,119.563094,0.022755804
467410,臺南,2018-09-02,22.993239,120.204772,0.012771995
467420,永康,2018-09-02,23.038386,120.2367,0.0126027195
467441,高雄,2018-09-02,22.7304,120.3125,0.011622867
467480,嘉義,2018-09-02,23.495925,120.432906,0.017388811
467490,臺中,2018-09-02,24.145736,120.684075,0.7505967
467540,大武,2018-09-02,22.355675,120.903789,0.019864274
467571,新竹,2018-09-02,24.827853,121.014219,0.027810667
467590,恆春,2018-09-02,22.003897,120.746339,0.050019838
467610,成功,2018-09-02,23.097486,121.373428,0.012914466
467620,蘭嶼,2018-09-02,22.036969,121.558339,0.9981707
467660,臺東,2018-09-02,22.752211,121.154586,0.024293024
467790,墾丁雷達站,2018-09-02,21.948235,120.808028,0.05603734
C0A520,山佳,2018-09-02,24.974944,121.402008,0.041347653
C0A530,坪林,2018-09-02,24.938183,121.70975,0.029055333
C0A540,四堵,2018-09-02,24.8926,121.745736,0.016461365
C0A550,泰平,2018-09-02,24.971197,121.823711,0.025940742
C0A560,福山,2018-09-02,24.776203,121.502811,0.011712208
C0A570,桶後,2018-09-02,24.848222,121.597992,0.011544457
C0A640,石碇,2018-09-02,24.993969,121.662917,0.040692218
C0A650,火燒寮,2018-09-02,25.002719,121.742892,0.044027466
C0A660,瑞芳,2018-09-02,25.113169,121.801147,0.039140116
C0A770,科教館,2018-09-02,25.096356,121.516507,0.03966447
C0A860,大坪,2018-09-02,25.165914,121.632969,0.016951958
C0A880,福隆,2018-09-02,25.017842,121.942083,0.036777902
C0A890,雙溪,2018-09-02,25.036003,121.864242,0.05387658
C0A920,富貴角,2018-09-02,25.263783,121.565258,0.058444925
C0A931,三和,2018-09-02,25.233153,121.595236,0.04006377
C0A940,金山,2018-09-02,25.223628,121.643967,0.05417547
C0A950,鼻頭角,2018-09-02,25.129036,121.923372,0.036624383
C0A970,三貂角,2018-09-02,25.007606,122.002058,0.038659714
C0A980,社子,2018-09-02,25.109508,121.469681,0.039175052
C0A9C0,天母,2018-09-02,25.117494,121.537169,0.040750425
C0A9F0,內湖,2018-09-02,25.079422,121.57545,0.03621865
C0AC60,三峽,2018-09-02,24.939025,121.369728,0.038294367
C0AC70,信義,2018-09-02,25.037822,121.564597,0.03621865
C0AC80,文山,2018-09-02,25.00235,121.575728,0.039315864
C0ACA0,新莊,2018-09-02,25.051478,121.446756,0.045965567
C0AD00,三芝,2018-09-02,25.258131,121.501917,0.05699125
C0AD10,八里,2018-09-02,25.150211,121.403947,0.044746526
C0AD30,蘆洲,2018-09-02,25.086594,121.472331,0.03966447
C0AD40,土城,2018-09-02,24.973208,121.445169,0.040260147
C0AD50,鶯歌,2018-09-02,24.951533,121.346294,0.04446023
C0AG80,中和,2018-09-02,24.991622,121.491792,0.03621865
C0AH00,汐止,2018-09-02,25.066881,121.658778,0.050354015
C0AH10,永和,2018-09-02,25.01125,121.508111,0.035744708
C0AH40,平等,2018-09-02,25.129142,121.577086,0.015619488
C0AH50,林口,2018-09-02,25.072181,121.38084,0.016848428
C0AH70,松山,2018-09-02,25.04871,121.55042,0.03621865
C0AH80,深坑,2018-09-02,25.002703,121.628328,0.03931585
C0AI00,五股,2018-09-02,25.07445,121.42728,0.028693859
C0AI10,屈尺,2018-09-02,24.92184,121.54475,0.039315864
C0AI20,白沙灣,2018-09-02,25.283128,121.519058,0.052444927
C0AI30,三重,2018-09-02,25.057328,121.500629,0.03966447
C0AI40,石牌,2018-09-02,25.115597,121.513139,0.040260147
C0AJ20,野柳,2018-09-02,25.20703,121.690021,0.050354015
C0AJ30,淡水觀海,2018-09-02,25.184591,121.408616,0.044127084
C0AJ40,石門,2018-09-02,25.273672,121.601198,0.06357744
C0AJ50,水湳洞,2018-09-02,25.123695,121.862238,0.050354015
C0AJ60,六塊厝,2018-09-02,25.24,121.4481,0.044127084
C0AJ70,田寮,2018-09-02,25.2698,121.4886,0.05172125
C0AJ80,板橋,2018-09-02,25.0107,121.4489,0.040260147
C0AJ90,澳底,2018-09-02,25.0552,121.9253,0.036777902
C0B010,七堵,2018-09-02,25.094819,121.71713,0.052597787
C0B020,基隆嶼,2018-09-02,25.19141,121.78391,0.051008053
C0B040,大武崙,2018-09-02,25.166676,121.706993,0.052597787
C0B050,八斗子,2018-09-02,25.144754,121.79167,0.04909155
C0B060,暖暖,2018-09-02,25.0957,121.7403,0.055713918
C0C460,復興,2018-09-02,24.820208,121.352281,0.008980594
C0C480,桃園,2018-09-02,24.992425,121.323172,0.021654185
C0C490,八德,2018-09-02,24.928708,121.283289,0.01595353
C0C590,觀音,2018-09-02,25.027072,121.153317,0.054392084
C0C620,蘆竹,2018-09-02,25.084275,121.265767,0.045943588
C0C630,大溪,2018-09-02,24.882853,121.265547,0.01664504
C0C650,平鎮,2018-09-02,24.897503,121.214636,0.021498855
C0C660,楊梅,2018-09-02,24.912375,121.143047,0.030758116
C0C670,龍潭,2018-09-02,24.870056,121.221389,0.005484617
C0C680,龜山,2018-09-02,25.02846,121.38656,0.012125441
C0C700,中壢,2018-09-02,24.977661,121.256375,0.022311922
C0C710,大溪永福,2018-09-02,24.892936,121.324975,0.028519973
C0C720,竹圍,2018-09-02,25.112692,121.239824,0.044746526
C0C730,中大臨海站,2018-09-02,24.966126,121.008581,0.029744945
C0C740,觀音工業區,2018-09-02,25.064764,121.114856,0.032404974
C0C750,新興坑尾,2018-09-02,25.0061,121.0971,0.03571528
C0D430,峨眉,2018-09-02,24.6905,121.017189,0.02126435
C0D480,打鐵坑,2018-09-02,24.849664,121.150789,0.004693886
C0D540,橫山,2018-09-02,24.71116,121.11693,0.005453269
C0D560,竹東,2018-09-02,24.767147,121.057881,0.022349512
C0D580,寶山,2018-09-02,24.735006,121.025192,0.005503274
C0D590,新豐,2018-09-02,24.87068,120.97721,0.007684324
C0D650,湖口,2018-09-02,24.904794,121.043628,0.03355291
C0D660,新竹市東區,2018-09-02,24.798681,120.986942,0.028471032
C0D670,海天一線,2018-09-02,24.831986,120.914438,0.027080946
C0D680,香山濕地,2018-09-02,24.783581,120.914988,0.027380979
C0D690,外湖,2018-09-02,24.917735,120.968711,0.02974496
C0D700,關西,2018-09-02,24.7977,121.1732,0.02012665
C0E420,竹南,2018-09-02,24.708978,120.888897,0.028345091
C0E430,南庄,2018-09-02,24.601775,121.000214,0.00539136
C0E520,大湖,2018-09-02,24.41494,120.87087,0.0053023305
C0E540,後龍,2018-09-02,24.606489,120.783933,0.10290219
C0E550,明德,2018-09-02,24.583486,120.885411,0.006922734
C0E590,通霄,2018-09-02,24.471892,120.704622,0.33295643
C0E730,頭份,2018-09-02,24.688247,120.912206,0.028345091
C0E740,造橋,2018-09-02,24.637056,120.864778,0.0067291725
C0E750,苗栗,2018-09-02,24.564569,120.824575,0.18685165
C0E780,銅鑼,2018-09-02,24.489681,120.790853,0.0067996765
C0E791,卓蘭,2018-09-02,24.3126,120.8244,0.012652673
C0E810,西湖,2018-09-02,24.562947,120.7485,0.14626867
C0E820,獅潭,2018-09-02,24.539133,120.920042,0.006222699
C0E830,苑裡,2018-09-02,24.439714,120.653053,0.20736994
C0E850,大河,2018-09-02,24.618069,120.948578,0.007041596
C0E870,高鐵苗栗,2018-09-02,24.60725,120.826094,0.11551838
C0E910,海埔,2018-09-02,24.648767,120.772435,0.006582945
C0E920,通霄漁港,2018-09-02,24.498589,120.673876,0.18323772
C0E930,龍鳳,2018-09-02,24.700034,120.859125,0.006642211
C0F0B0,石岡,2018-09-02,24.276061,120.777644,0.007837184
C0F850,東勢,2018-09-02,24.246428,120.833047,0.019566191
C0F930,大甲,2018-09-02,24.347667,120.640403,0.2810639
C0F970,大坑,2018-09-02,24.173142,120.722289,0.80100757
C0F9A0,中竹林,2018-09-02,24.103556,120.751061,0.014337785
C0F9I0,神岡,2018-09-02,24.272481,120.658314,0.0077501405
C0F9K0,大安,2018-09-02,24.345061,120.588025,0.09630931
C0F9L0,后里,2018-09-02,24.310436,120.729725,0.008815212
C0F9M0,豐原,2018-09-02,24.254322,120.720692,0.008220319
C0F9N0,大里,2018-09-02,24.092464,120.701378,0.30427265
C0F9O0,潭子,2018-09-02,24.213106,120.703933,0.007801927
C0F9P0,清水,2018-09-02,24.312297,120.562242,0.077423654
C0F9Q0,外埔,2018-09-02,24.347817,120.705686,0.007288516
C0F9R0,龍井,2018-09-02,24.184536,120.528972,0.121124715
C0F9S0,烏日,2018-09-02,24.107058,120.624103,0.017525962
C0F9T0,西屯,2018-09-02,24.179494,120.641275,0.33663478
C0F9U0,南屯,2018-09-02,24.137006,120.637969,0.30427265
C0F9X0,大雅(中科園區),2018-09-02,24.21528,120.62445,0.69716555
C0FA10,松柏,2018-09-02,24.429115,120.617482,0.14417411
C0FA20,溫寮,2018-09-02,24.372177,120.583125,0.14417411
C0FA30,梧棲,2018-09-02,24.256003,120.523381,0.121124715
C0FA40,臺中電廠,2018-09-02,24.2146,120.4907,0.121124715
C0FA50,霧峰,2018-09-02,24.0419,120.6995,0.5976378
C0G620,芬園,2018-09-02,24.015678,120.6213,0.031332124
C0G640,鹿港,2018-09-02,24.0753,120.430481,0.019940346
C0G650,員林,2018-09-02,23.946503,120.585597,0.025268245
C0G660,溪湖,2018-09-02,23.94835,120.479122,0.022768315
C0G720,溪州,2018-09-02,23.851589,120.499093,0.017422313
C0G730,二林,2018-09-02,23.903325,120.376081,0.021629157
C0G740,大城,2018-09-02,23.852487,120.320935,0.013657265
C0G770,福興,2018-09-02,24.041289,120.437669,0.019940326
C0G780,秀水,2018-09-02,24.03405,120.503869,0.018748408
C0G800,埔鹽,2018-09-02,24.000394,120.431683,0.019940346
C0G810,埔心,2018-09-02,23.947633,120.525456,0.023745514
C0G820,田尾,2018-09-02,23.901669,120.509389,0.024847766
C0G830,埤頭,2018-09-02,23.866003,120.452806,0.01655754
C0G840,北斗,2018-09-02,23.877586,120.514222,0.024847766
C0G860,社頭,2018-09-02,23.897647,120.5862,0.026546534
C0G870,芳苑,2018-09-02,23.922303,120.320025,0.013525665
C0G880,二水,2018-09-02,23.810742,120.6173,0.019744977
C0G890,伸港,2018-09-02,24.148933,120.484403,0.14723986
C0G900,線西,2018-09-02,24.143358,120.443536,0.22123657
C0G910,花壇,2018-09-02,24.032076,120.549461,0.020072637
C0G920,永靖,2018-09-02,23.924703,120.547533,0.024847766
C0G940,竹塘,2018-09-02,23.848253,120.386764,0.015286532
C0G950,防潮門,2018-09-02,24.1835,120.4871,0.108237185
C0G960,福寶,2018-09-02,24.0443,120.3814,0.01927743
C0G970,三豐,2018-09-02,23.882,120.2895,0.013525665
C0H890,埔里,2018-09-02,23.972169,120.952425,0.012207626
C0H950,中寮,2018-09-02,23.884447,120.766406,0.048856728
C0H960,草屯,2018-09-02,23.973672,120.68085,0.02065043
C0I110,竹山,2018-09-02,23.761225,120.688156,0.03569845
C0I360,水里,2018-09-02,23.812553,120.849792,0.98447585
C0I380,集集,2018-09-02,23.828206,120.801467,0.9837758
C0I410,名間,2018-09-02,23.837053,120.701447,0.024517095
C0I420,國姓,2018-09-02,24.037803,120.855072,0.010162878
C0I460,南投,2018-09-02,23.911469,120.687331,0.025217574
C0K250,崙背,2018-09-02,23.75555,120.318925,0.0141121335
C0K280,四湖,2018-09-02,23.630414,120.227125,0.013628134
C0K291,宜梧,2018-09-02,23.536281,120.169329,0.5791408
C0K330,虎尾,2018-09-02,23.719183,120.442036,0.016794708
C0K390,土庫,2018-09-02,23.679029,120.395574,0.016347816
C0K400,斗六,2018-09-02,23.720583,120.541127,0.01837838
C0K410,北港,2018-09-02,23.573957,120.292802,0.6178986
C0K420,西螺,2018-09-02,23.800407,120.467394,0.018083056
C0K430,褒忠,2018-09-02,23.690938,120.303634,0.013204325
C0K440,二崙,2018-09-02,23.772797,120.408944,0.015667614
C0K450,大埤,2018-09-02,23.646074,120.431537,0.017911213
C0K460,斗南,2018-09-02,23.678734,120.478359,0.01727125
C0K470,林內,2018-09-02,23.748675,120.609642,0.024259163
C0K480,莿桐,2018-09-02,23.761192,120.502372,0.018664911
C0K500,元長,2018-09-02,23.64981,120.315024,0.013724941
C0K510,水林,2018-09-02,23.572924,120.24597,0.56919324
C0K530,臺西,2018-09-02,23.701547,120.197559,0.0132371895
C0K550,蔦松,2018-09-02,23.514319,120.229736,0.59578925
C0K560,棋山,2018-09-02,23.68645,120.603417,0.015596814
C0K580,高鐵雲林,2018-09-02,23.737456,120.417944,0.016347816
C0K590,雲林東勢,2018-09-02,23.674192,120.255721,0.013204319
C0K600,箔子寮,2018-09-02,23.6197,120.14,0.5540421
C0M410,馬頭山,2018-09-02,23.324361,120.582017,0.9861716
C0M520,東後寮,2018-09-02,23.369908,120.248065,0.056650274
C0M640,中埔,2018-09-02,23.42538,120.5229,0.028362866
C0M650,朴子,2018-09-02,23.43463,120.23902,0.6246835
C0M660,溪口,2018-09-02,23.604131,120.403569,0.01596372
C0M670,大林,2018-09-02,23.600616,120.45841,0.016787048
C0M680,太保,2018-09-02,23.455062,120.331455,0.6207993
C0M690,水上,2018-09-02,23.419734,120.388909,0.01739457
C0M700,竹崎,2018-09-02,23.526178,120.555508,0.038344957
C0M710,東石,2018-09-02,23.458927,120.15385,0.59578925
C0M720,番路,2018-09-02,23.464657,120.554156,0.047687594
C0M730,嘉義市東區,2018-09-02,23.457673,120.460531,0.017643234
C0M740,六腳,2018-09-02,23.492871,120.290625,0.605712
C0M750,布袋,2018-09-02,23.380878,120.167789,0.6246835
C0M760,民雄,2018-09-02,23.551754,120.428457,0.016459072
C0M770,嘉義梅山,2018-09-02,23.585398,120.555587,0.018028906
C0M780,鹿草,2018-09-02,23.41134,120.30835,0.69203466
C0M790,新港,2018-09-02,23.553269,120.345728,0.6332717
C0M800,茶山,2018-09-02,23.299075,120.664767,0.31537017
C0M880,好美里,2018-09-02,23.3364,120.138,0.055401504
C0N010,鯤鯓國小,2018-09-02,23.1879,120.0889,0.61504513
C0N020,城西,2018-09-02,23.0568,120.0956,0.048455026
C0N030,四草,2018-09-02,23.0235,120.1116,0.04672321
C0N040,蘆竹溝,2018-09-02,23.2344,120.0961,0.61504513
C0N050,蚵寮,2018-09-02,23.301,120.1104,0.61504513
C0O810,曾文,2018-09-02,23.219681,120.497328,0.9292137
C0O830,北寮,2018-09-02,23.079561,120.495008,0.010155915
C0O840,王爺宮,2018-09-02,23.222064,120.40085,0.9292137
C0O860,大內,2018-09-02,23.11885,120.36083,0.015582596
C0O900,善化,2018-09-02,23.112883,120.297219,0.013400986
C0O930,玉井,2018-09-02,23.126042,120.46055,0.88318604
C0O950,安南,2018-09-02,23.076694,120.144861,0.0125099765
C0O960,崎頂,2018-09-02,22.959547,120.369317,0.010325092
C0O970,虎頭埤,2018-09-02,23.021375,120.347878,0.08901783
C0O980,新市,2018-09-02,23.061614,120.298197,0.013400986
C0O990,媽廟,2018-09-02,22.99175,120.293525,0.013531233
C0R150,三地門,2018-09-02,22.709889,120.639944,0.009695182
C0R160,鹽埔,2018-09-02,22.739558,120.530778,0.010333032
C0R170,屏東,2018-09-02,22.660269,120.494072,0.01312851
C0R190,赤山,2018-09-02,22.592333,120.614306,0.010180598
C0R220,潮州,2018-09-02,22.534361,120.54,0.010427978
C0R240,來義,2018-09-02,22.527306,120.625111,0.010878403
C0R260,春日,2018-09-02,22.370361,120.628306,0.010756706
C0R270,琉球嶼,2018-09-02,22.332244,120.362236,0.01078503
C0R280,檳榔,2018-09-02,22.076078,120.836777,0.14508565
C0R320,車城,2018-09-02,22.0744,120.716247,0.045145683
C0R341,牡丹,2018-09-02,22.130036,120.792639,0.009495507
C0R350,貓鼻頭,2018-09-02,21.921774,120.7358,0.05190085
C0R470,高樹,2018-09-02,22.826389,120.600806,0.009506878
C0R480,長治,2018-09-02,22.693128,120.542622,0.010363515
C0R490,九如,2018-09-02,22.7405,120.490503,0.01323671
C0R520,崁頂,2018-09-02,22.514781,120.506914,0.01274726
C0R540,佳冬,2018-09-02,22.419456,120.552375,0.012662916
C0R550,新埤,2018-09-02,22.467947,120.582894,0.010143216
C0R560,新園,2018-09-02,22.5434,120.461558,0.01274726
C0R570,麟洛,2018-09-02,22.65078,120.52719,0.013236704
C0R580,南州,2018-09-02,22.48591,120.50274,0.012662916
C0R590,里港,2018-09-02,22.77919,120.49459,0.010394262
C0R620,墾雷,2018-09-02,21.900836,120.855269,0.051900733
C0R640,東港,2018-09-02,22.46247,120.44074,0.0121828355
C0R650,竹田,2018-09-02,22.58486,120.54344,0.01012446
C0R660,枋寮,2018-09-02,22.367722,120.590647,0.010369267
C0R670,楓港,2018-09-02,22.190131,120.692156,0.00927975
C0R680,佳樂水,2018-09-02,21.993578,120.861633,0.048296876
C0R690,墾丁,2018-09-02,21.966756,120.810269,0.16720599
C0R700,枋山,2018-09-02,22.246844,120.661086,0.00927975
C0R710,龍磐,2018-09-02,21.931672,120.838942,0.0772475
C0R720,旭海,2018-09-02,22.205403,120.887614,0.028667638
C0R730,大坪頂,2018-09-02,22.024633,120.69355,0.08438448
C0R740,獅子,2018-09-02,22.201569,120.70525,0.009360709
C0R760,南仁湖,2018-09-02,22.084681,120.863353,0.45138404
C0R770,保力,2018-09-02,22.071122,120.764111,0.063435055
C0R780,滿州,2018-09-02,22.024403,120.839892,0.05387747
C0R790,九棚,2018-09-02,22.14195,120.889281,0.026960865
C0R800,丹路,2018-09-02,22.204481,120.750989,0.009547655
C0R810,內獅,2018-09-02,22.305064,120.642986,0.010588552
C0R830,高士,2018-09-02,22.121825,120.836781,0.69662744
C0R850,林邊,2018-09-02,22.4634,120.5339,0.01274726
C0R860,鼻頭,2018-09-02,22.1043,120.8979,0.09971593
C0R870,興海,2018-09-02,21.9752,120.8439,0.04829679
C0R880,後壁湖,2018-09-02,21.9457,120.7457,0.04370334
C0R890,山海,2018-09-02,21.9878,120.7091,0.045145683
C0R900,竹坑,2018-09-02,22.1385,120.7022,0.009327432
C0R910,下寮,2018-09-02,22.3929,120.5548,0.012662916
C0R920,塭仔,2018-09-02,22.4169,120.5197,0.012559791
C0R930,萬丹,2018-09-02,22.5885,120.4851,0.01012446
C0R940,加祿堂,2018-09-02,22.3363,120.6217,0.010588552
C0S710,鹿野,2018-09-02,22.917711,121.122994,0.012335131
C0S730,綠島,2018-09-02,22.6672,121.47533,0.013376472
C0S740,池上,2018-09-02,23.119628,121.209469,0.011342256
C0S770,大溪山,2018-09-02,22.478475,120.943325,0.038738497
C0S790,金崙,2018-09-02,22.538122,120.966875,0.026986849
C0S810,東河,2018-09-02,22.972672,121.303986,0.01132013
C0S830,長濱,2018-09-02,23.286817,121.411975,0.012379417
C0S840,南田,2018-09-02,22.279725,120.889208,0.021827515
C0S890,關山,2018-09-02,23.0395,121.175017,0.014507322
C0S900,蘭嶼高中,2018-09-02,22.04909,121.51214,0.9612407
C0S910,蘭嶼燈塔,2018-09-02,22.081197,121.503117,0.9947448
C0S920,金峰嘉蘭,2018-09-02,22.594789,120.960825,0.022808176
C0S930,延平,2018-09-02,22.902581,121.084058,0.012901543
C0S940,石寧山,2018-09-02,23.223772,121.406639,0.011164152
C0S950,七塊厝,2018-09-02,22.954453,121.229922,0.012725272
C0S960,香蘭,2018-09-02,22.587569,120.993375,0.021002404
C0S970,加津林,2018-09-02,22.416211,120.926942,0.020159766
C0S990,山豬窟,2018-09-02,22.318619,120.857372,0.042069286
C0SA00,歷坵,2018-09-02,22.520969,120.89185,0.04754454
C0SA10,檳榔四格山,2018-09-02,22.810031,121.109308,0.04369199
C0SA30,都歷,2018-09-02,23.020333,121.323642,0.013218064
C0SA40,瑞和,2018-09-02,22.974361,121.156697,0.01427953
C0SA60,知本（水試所）,2018-09-02,22.702394,121.082761,0.023654839
C0SA80,土坂,2018-09-02,22.453108,120.887572,0.023993785
C0SA90,達仁林場,2018-09-02,22.264347,120.823972,0.012316781
C0T870,鯉魚潭,2018-09-02,23.935639,121.508944,0.005702973
C0T900,西林,2018-09-02,23.8119,121.441458,0.005634231
C0T960,光復,2018-09-02,23.660694,121.424964,0.006146473
C0T9A0,月眉山,2018-09-02,23.809928,121.539828,0.005330003
C0T9D0,和中,2018-09-02,24.26676,121.74103,0.010475094
C0T9E0,大坑,2018-09-02,23.880628,121.581981,0.0054476494
C0T9F0,水璉,2018-09-02,23.797131,121.542514,0.0054772147
C0T9I0,豐濱,2018-09-02,23.583897,121.514806,0.0061535086
C0T9M0,靜浦,2018-09-02,23.455167,121.495028,0.006266921
C0T9N0,富里,2018-09-02,23.171639,121.249378,0.013313211
C0U600,礁溪,2018-09-02,24.817539,121.765608,0.028441243
C0U650,玉蘭,2018-09-02,24.675286,121.587061,0.051169567
C0U750,龜山島,2018-09-02,24.841667,121.953133,0.025311098
C0U760,東澳,2018-09-02,24.52196,121.83318,0.016952977
C0U770,南澳,2018-09-02,24.44935,121.81022,0.014265906
C0U780,五結,2018-09-02,24.68637,121.79794,0.038933184
C0U860,頭城,2018-09-02,24.85323,121.8308,0.02833076
C0U870,大礁溪,2018-09-02,24.791042,121.675047,0.014624594
C0U880,北關,2018-09-02,24.9072,121.8734,0.038653336
C0U890,三星,2018-09-02,24.66812,121.65302,0.029733988
C0U900,內城,2018-09-02,24.71813,121.68766,0.028747965
C0U910,冬山,2018-09-02,24.63373,121.7937,0.038933184
C0U940,羅東,2018-09-02,24.68184,121.74934,0.03904838
C0U970,大福,2018-09-02,24.80064,121.81389,0.028241977
C0U990,員山,2018-09-02,24.74435,121.72247,0.03904838
C0UA00,土場,2018-09-02,24.576533,121.495333,0.01212186
C0UA80,大溪漁港,2018-09-02,24.941801,121.902955,0.028441243
C0UA90,石城,2018-09-02,24.980444,121.951214,0.037304334
C0UB00,淡江大學蘭陽校園,2018-09-02,24.823239,121.730383,0.013606026
C0UB10,蘇澳,2018-09-02,24.5969,121.8571,0.021957295
C0UB20,壯圍,2018-09-02,24.7359,121.8163,0.038823377
C0V250,甲仙,2018-09-02,23.080106,120.591758,0.025694408
C0V260,月眉,2018-09-02,22.971003,120.539853,0.010024832
C0V310,美濃,2018-09-02,22.898742,120.519153,0.11929382
C0V350,溪埔,2018-09-02,22.738578,120.446797,0.012638825
C0V360,內門,2018-09-02,22.975481,120.466769,0.14959204
C0V370,古亭坑,2018-09-02,22.893178,120.401947,0.14753821
C0V400,阿公店,2018-09-02,22.804194,120.355528,0.013161002
C0V440,鳳山,2018-09-02,22.646653,120.356122,0.012441684
C0V450,鳳森,2018-09-02,22.545064,120.392592,0.010358111
C0V490,新興,2018-09-02,22.627422,120.298803,0.012264562
C0V530,阿蓮,2018-09-02,22.883208,120.327508,0.013334806
C0V610,梓官,2018-09-02,22.760558,120.267211,0.011613119
C0V620,永安,2018-09-02,22.82315,120.236856,0.011227789
C0V630,茄萣,2018-09-02,22.906642,120.182608,0.011978789
C0V640,湖內,2018-09-02,22.887139,120.2445,0.012073903
C0V650,彌陀,2018-09-02,22.783806,120.246361,0.011227789
C0V660,岡山,2018-09-02,22.797078,120.294958,0.011613119
C0V680,仁武,2018-09-02,22.701083,120.347722,0.011726102
C0V690,鼓山,2018-09-02,22.623325,120.275575,0.012264562
C0V700,三民,2018-09-02,22.645017,120.311233,0.012264562
C0V710,苓雅,2018-09-02,22.622742,120.330669,0.012264562
C0V720,林園,2018-09-02,22.507747,120.394511,0.012264562
C0V730,大寮,2018-09-02,22.605614,120.395717,0.010215152
C0V740,旗山,2018-09-02,22.888614,120.483597,0.124488614
C0V750,路竹,2018-09-02,22.854997,120.259439,0.012013881
C0V760,橋頭,2018-09-02,22.757806,120.30575,0.011690074
C0V770,大社,2018-09-02,22.730306,120.346639,0.011726102
C0V790,萬山,2018-09-02,22.905944,120.688056,0.3552945
C0V800,六龜,2018-09-02,22.997889,120.633583,0.009686482
C0V810,左營,2018-09-02,22.67491,120.28491,0.011622867
C0V820,小林,2018-09-02,23.148408,120.63325,0.39341506
C0V840,鳳鼻頭,2018-09-02,22.5083,120.3591,0.0121828355
C0V850,蚵仔寮,2018-09-02,22.7256,120.2527,0.01156233
C0V860,南寮,2018-09-02,22.7616,120.2339,0.01116263
C0V870,文安,2018-09-02,22.8025,120.2164,0.01116263
C0V880,興達,2018-09-02,22.8778,120.2127,0.011978783
C0V890,前鎮,2018-09-02,22.5718,120.3117,0.0121828355
C0V900,汕尾,2018-09-02,22.4782,120.4151,0.012329903
C0X050,東河,2018-09-02,23.296598,120.385608,0.8269849
C0X060,下營,2018-09-02,23.22695,120.256261,0.06818899
C0X080,佳里,2018-09-02,23.173039,120.145086,0.055401504
C0X100,臺南市北區,2018-09-02,23.010394,120.194228,0.01249966
C0X110,臺南市南區,2018-09-02,22.961189,120.188378,0.0126027195
C0X120,麻豆,2018-09-02,23.183289,120.248611,0.057270404
C0X130,官田,2018-09-02,23.193217,120.315422,0.073628455
C0X140,西港,2018-09-02,23.125608,120.203108,0.055846144
C0X150,安定,2018-09-02,23.102614,120.227839,0.012836517
C0X160,仁德,2018-09-02,22.968258,120.257689,0.013406219
C0X170,關廟,2018-09-02,22.963017,120.327797,0.013947018
C0X180,山上,2018-09-02,23.0757,120.363253,0.15142508
C0X190,安平,2018-09-02,22.993161,120.152181,0.01249966
C0X200,左鎮,2018-09-02,23.056758,120.408522,0.1445099
C0X210,白河,2018-09-02,23.347466,120.414427,0.83654386
C0X220,學甲,2018-09-02,23.230367,120.182187,0.057270404
C0X230,鹽水,2018-09-02,23.272621,120.247641,0.057896223
C0X240,關子嶺,2018-09-02,23.331169,120.508025,0.56210244
C0X250,新營,2018-09-02,23.310689,120.316681,0.065914646
C0X260,後壁,2018-09-02,23.366358,120.362326,0.10481802
C0X280,將軍,2018-09-02,23.214999,120.13577,0.055401504
C0X290,北門,2018-09-02,23.267772,120.125481,0.055401504
C0X300,鹿寮,2018-09-02,23.386047,120.477331,0.02312138
C0X310,七股,2018-09-02,23.147289,120.086253,0.53514034
C0X320,柳營,2018-09-02,23.253328,120.375253,0.8269849
C0Z020,明里,2018-09-02,23.208717,121.262342,0.012004364
C0Z061,玉里,2018-09-02,23.3215,121.339656,0.010658292
C0Z070,舞鶴,2018-09-02,23.46811,121.37407,0.0055908607
C0Z080,富源,2018-09-02,23.587642,121.378225,0.005489993
C0Z100,東華,2018-09-02,23.89525,121.549833,0.0058969776
C0Z150,吉安光華,2018-09-02,23.930925,121.595153,0.0059382287
C0Z160,鳳林,2018-09-02,23.746114,121.453411,0.0061718286
C0Z170,卓溪,2018-09-02,23.3443,121.3029,0.010831192
C0Z180,新城,2018-09-02,24.03946,121.60454,0.0058073453
C0Z190,富世,2018-09-02,24.14743,121.6297,0.019437276
C0Z200,萬榮,2018-09-02,23.709219,121.420106,0.005702973
C0Z210,瑞穗,2018-09-02,23.5239,121.39021,0.006197444
C0Z230,和平,2018-09-02,24.30717,121.77007,0.010475094
C0Z270,蕃薯寮,2018-09-02,23.73835,121.540108,0.005541825
C0Z280,德武,2018-09-02,23.47426,121.41071,0.0056934655
C0Z300,東里,2018-09-02,23.26853,121.30547,0.010742077
C0Z310,清水斷崖,2018-09-02,24.218294,121.689142,0.011244322
C0Z330,安通山,2018-09-02,23.290728,121.348528,0.012178445
