站號,站名,日期,lat,lon,BLBTSLS
C0R710,龍磐,2018-01-26,21.931672,120.838942,0.711446
C1F9D1,白毛台,2018-01-26,24.158325,120.886933,2.046901e-09
C0G940,竹塘,2018-01-26,23.848253,120.386764,2.8110312e-09
467590,恆春,2018-01-26,22.003897,120.746339,0.6948697
C1O850,環湖,2018-01-26,23.148617,120.418633,1.086218e-09
C0U710,太平山,2018-01-26,24.505486,121.525656,2.5190822e-08
C0E820,獅潭,2018-01-26,24.539133,120.920042,2.7453428e-09
C0V880,興達,2018-01-26,22.8778,120.2127,1.7282195e-09
C0S890,關山,2018-01-26,23.0395,121.175017,1.0637143e-09
C0SB30,新蘭,2018-01-26,22.869214,121.223228,1.1891128e-09
C2R970,屏科大,2018-01-26,22.648275,120.619247,5.8009713e-09
K2F750,種苗繁殖,2018-01-26,24.225972,120.800917,2.5559168e-09
C1Z130,銅門,2018-01-26,23.965694,121.492842,5.8377996e-09
C0AD40,土城,2018-01-26,24.973208,121.445169,9.376074e-06
CAN140,六官養殖協會,2018-01-26,23.22881,120.29962,6.380326e-09
C0X180,山上,2018-01-26,23.0757,120.363253,6.9413936e-10
C0F9Z0,雪山東峰,2018-01-26,24.388792,121.268675,2.8305628e-08
C1M480,獨立山,2018-01-26,23.537022,120.607797,3.066831e-09
C0X220,學甲,2018-01-26,23.230367,120.182187,7.053775e-09
467650,日月潭,2018-01-26,23.881325,120.90805,2.8416454e-09
C0K600,箔子寮,2018-01-26,23.6197,120.14,8.368041e-08
C0G830,埤頭,2018-01-26,23.866003,120.452806,8.4431284e-10
C0S950,七塊厝,2018-01-26,22.954453,121.229922,1.0595552e-09
467110,金門,2018-01-26,24.407306,118.289281,5.969378e-07
C0AH80,深坑,2018-01-26,25.002703,121.628328,4.6860227e-06
467990,馬祖,2018-01-26,26.169269,119.923419,1.4498183e-07
C0A970,三貂角,2018-01-26,25.007606,122.002058,4.8853207e-07
C2D730,寶山農場,2018-01-26,24.732444,120.976153,3.0993264e-09
C0K430,褒忠,2018-01-26,23.690938,120.303634,1.8158696e-09
467480,嘉義,2018-01-26,23.495925,120.432906,7.497209e-10
C2E540,後龍,2018-01-26,24.606489,120.783933,1.0105339e-08
C0V400,阿公店,2018-01-26,22.804194,120.355528,1.0335902e-09
C0R440,大漢山,2018-01-26,22.405264,120.753181,2.2155222e-08
C0K280,四湖,2018-01-26,23.630414,120.227125,4.766857e-08
C1F9B1,桐林,2018-01-26,24.066172,120.735194,7.0568124e-10
C2H9U0,鳳鵬,2018-01-26,23.763919,120.788061,1.1956035e-09
C0K390,土庫,2018-01-26,23.679029,120.395574,8.37899e-10
C1I450,望鄉山,2018-01-26,23.594153,120.944286,1.2501559e-08
C0E910,海埔,2018-01-26,24.648767,120.772435,1.0275091e-08
B2E890,畜試北區分所,2018-01-26,24.527806,120.770972,2.3655145e-09
C0R750,四林格山,2018-01-26,22.076989,120.802439,0.045758694
C0F0C0,中坑,2018-01-26,24.248517,120.903319,2.7295226e-09
C1I121,大鞍,2018-01-26,23.678381,120.760017,3.2140786e-09
72U480,花改蘭陽分場,2018-01-26,24.686306,121.716583,1.0881864e-08
C0A770,科教館,2018-01-26,25.096356,121.516507,2.9104835e-05
C0AJ60,六塊厝,2018-01-26,25.24,121.4481,0.74650705
C0R620,墾雷,2018-01-26,21.900836,120.855269,0.04505641
467420,永康,2018-01-26,23.038386,120.2367,3.3090974e-09
467300,東吉島,2018-01-26,23.25695,119.667467,0.9955603
C0I410,名間,2018-01-26,23.837053,120.701447,9.1799224e-10
A2C560,農工中心,2018-01-26,24.985917,121.239833,0.0073511587
C0V740,旗山,2018-01-26,22.888614,120.483597,3.0737235e-09
C0Z061,玉里,2018-01-26,23.3215,121.339656,3.7059709e-09
C0S840,南田,2018-01-26,22.279725,120.889208,0.9708383
C1I470,杉林溪,2018-01-26,23.639517,120.786444,3.917557e-09
C1X040,東原,2018-01-26,23.291597,120.463822,1.708815e-09
C0R660,枋寮,2018-01-26,22.367722,120.590647,1.4281743e-07
C1R120,上德文,2018-01-26,22.763272,120.704442,2.6103375e-09
C0K450,大埤,2018-01-26,23.646074,120.431537,8.761114e-10
C0UA00,土場,2018-01-26,24.576533,121.495333,1.8479385e-08
467080,宜蘭,2018-01-26,24.763975,121.756528,1.6960872e-08
C0N030,四草,2018-01-26,23.0235,120.1116,8.459059e-09
C0V650,彌陀,2018-01-26,22.783806,120.246361,7.701866e-10
C0D660,新竹市東區,2018-01-26,24.798681,120.986942,1.4684851e-08
82S580,茶改東部分場,2018-01-26,22.907694,121.130139,8.830738e-10
C0SB40,興隆,2018-01-26,22.913661,121.257469,1.128039e-09
C0C710,大溪永福,2018-01-26,24.892936,121.324975,2.0934029e-05
C0FA20,溫寮,2018-01-26,24.372177,120.583125,1.9943094e-08
C0V640,湖內,2018-01-26,22.887139,120.2445,1.6427214e-09
C0R910,下寮,2018-01-26,22.3929,120.5548,1.4281743e-07
C0Z020,明里,2018-01-26,23.208717,121.262342,4.3239434e-09
C0M770,嘉義梅山,2018-01-26,23.585398,120.555587,1.1971164e-09
G2F820,農業試驗所,2018-01-26,24.031261,120.688133,9.012881e-10
C0C660,楊梅,2018-01-26,24.912375,121.143047,0.00349611
C1E511,新開,2018-01-26,24.347703,120.827019,1.5354868e-09
G2F820,農試所(霧峰),2018-01-26,24.031261,120.688133,9.012881e-10
C1I070,和社,2018-01-26,23.591131,120.888861,2.0234667e-09
C2F000,大肚,2018-01-26,24.15295,120.572117,6.584602e-10
C1S850,豐南,2018-01-26,23.122139,121.262389,2.443175e-09
C2A920,富貴角,2018-01-26,25.263783,121.565258,0.032013208
CAH030,茶改場竹圍站,2018-01-26,23.860083,120.637528,1.0287048e-09
C0T960,光復,2018-01-26,23.660694,121.424964,2.905706e-09
C0F9M0,豐原,2018-01-26,24.254322,120.720692,1.3626252e-09
C0R720,旭海,2018-01-26,22.205403,120.887614,0.48249254
C0V710,苓雅,2018-01-26,22.622742,120.330669,9.072402e-10
C0C740,觀音工業區,2018-01-26,25.064764,121.114856,0.4810347
CAC040,拉拉山,2018-01-26,24.699317,121.427133,3.8430546e-08
C0V790,萬山,2018-01-26,22.905944,120.688056,6.3462333e-09
U2HA30,臺大和社,2018-01-26,23.590856,120.888864,2.0234667e-09
C0AJ90,澳底,2018-01-26,25.0552,121.9253,3.6893432e-06
C0Z100,東華,2018-01-26,23.89525,121.549833,6.813321e-09
C0G970,三豐,2018-01-26,23.882,120.2895,3.2389215e-07
V2K610,大庄合作社,2018-01-26,23.8068,120.367939,2.1386546e-09
C0V900,汕尾,2018-01-26,22.4782,120.4151,9.208314e-10
C1R630,龍泉,2018-01-26,22.66701,120.59091,8.562772e-09
C1AC50,關渡,2018-01-26,25.133486,121.469331,5.799619e-06
C0F9I0,神岡,2018-01-26,24.272481,120.658314,1.610979e-09
C0K460,斗南,2018-01-26,23.678734,120.478359,8.699154e-10
467410,臺南,2018-01-26,22.993239,120.204772,6.3565793e-09
C2O810,曾文,2018-01-26,23.219681,120.497328,1.5941494e-09
467280,後龍,2018-01-26,24.648563,120.831834,9.4171275e-09
C1F9J1,清水林,2018-01-26,24.071242,120.820419,2.4738138e-09
C2A650,火燒寮,2018-01-26,25.002719,121.742892,1.7131653e-07
466930,竹子湖,2018-01-26,25.162078,121.544547,1.06111735e-07
C1I220,樟湖,2018-01-26,23.905333,120.846983,3.1693228e-09
C0I390,仁愛,2018-01-26,24.022122,121.132206,1.8912767e-09
C0Z300,東里,2018-01-26,23.26853,121.30547,4.540971e-09
C1V590,新發,2018-01-26,23.057019,120.646064,7.2798656e-09
C0K510,水林,2018-01-26,23.572924,120.24597,1.3946144e-09
72S590,東改賓朗果園,2018-01-26,22.813889,121.071278,1.0510369e-09
82A750,茶改北部分場,2018-01-26,24.955778,121.631222,4.515279e-07
C1A750,石碇服務區,2018-01-26,25.00872,121.646242,4.8384063e-05
C0X300,鹿寮,2018-01-26,23.386047,120.477331,9.877892e-10
G2AI50,關渡,2018-01-26,25.11575,121.492,0.0006582004
C0K590,雲林東勢,2018-01-26,23.674192,120.255721,1.4557259e-09
C0A570,桶後,2018-01-26,24.848222,121.597992,4.8547783e-08
C1S800,華源,2018-01-26,22.657883,121.02325,5.7052976e-09
C0G720,溪州,2018-01-26,23.851589,120.499093,8.449395e-10
C1V160,達卡努瓦,2018-01-26,23.279811,120.705319,1.5269966e-09
C2M410,馬頭山,2018-01-26,23.324361,120.582017,1.560301e-09
C0V850,蚵仔寮,2018-01-26,22.7256,120.2527,7.6857676e-10
C0S740,池上,2018-01-26,23.119628,121.209469,6.0866867e-09
C1V390,尖山,2018-01-26,22.813153,120.367789,9.215588e-10
C0AH70,松山,2018-01-26,25.04871,121.55042,2.2093811e-05
C0N010,鯤鯓國小,2018-01-26,23.1879,120.0889,1.5231171e-08
C0R550,新埤,2018-01-26,22.467947,120.582894,9.096869e-10
C0SA60,知本（水試所）,2018-01-26,22.702394,121.082761,1.0085159e-08
C0T9I0,豐濱,2018-01-26,23.583897,121.514806,2.5684275e-09
C0UB00,淡江大學蘭陽校園,2018-01-26,24.823239,121.730383,4.2175262e-08
C0W240,九宮,2018-01-26,24.423753,118.240186,6.382672e-07
C0T9N0,富里,2018-01-26,23.171639,121.249378,3.5978744e-09
U2HA50,臺大竹山,2018-01-26,23.756972,120.681556,7.431505e-10
C0V840,鳳鼻頭,2018-01-26,22.5083,120.3591,7.264424e-10
C0X140,西港,2018-01-26,23.125608,120.203108,7.534931e-09
72D080,桃改五峰分場,2018-01-26,24.612194,121.157167,5.1482156e-09
C2H9P0,伊拿谷,2018-01-26,23.963211,121.088264,2.6181761e-09
C2H9F0,柑林,2018-01-26,24.018658,120.847072,1.756701e-09
C0TA20,加灣,2018-01-26,24.082025,121.608944,6.355709e-08
C0V530,阿蓮,2018-01-26,22.883208,120.327508,1.3699218e-09
C1O880,關山,2018-01-26,23.173397,120.594092,1.3103889e-09
C0E791,卓蘭,2018-01-26,24.3126,120.8244,1.3662843e-09
C1I030,武界,2018-01-26,23.913225,121.052483,2.6792317e-09
C0R520,崁頂,2018-01-26,22.514781,120.506914,9.141221e-10
C0R341,牡丹,2018-01-26,22.130036,120.792639,0.3549477
C0R930,萬丹,2018-01-26,22.5885,120.4851,8.401442e-10
C0S760,紅石,2018-01-26,23.069131,121.126219,1.34618325e-08
C1M610,石磐龍,2018-01-26,23.496606,120.663506,1.8933772e-09
C0UA10,鴛鴦湖,2018-01-26,24.590269,121.412228,1.8281938e-08
V2C260,八德蔬果,2018-01-26,24.978508,121.281819,2.6732905e-05
C0R800,丹路,2018-01-26,22.204481,120.750989,0.74642706
C0G920,永靖,2018-01-26,23.924703,120.547533,1.1307015e-09
C2M950,太和,2018-01-26,23.538372,120.702961,2.5871305e-09
C1A630,下盆,2018-01-26,24.771003,121.538622,2.3104716e-08
B2N890,畜產試驗所,2018-01-26,23.058972,120.336406,2.1160176e-09
C0UA30,白嶺,2018-01-26,24.527819,121.519031,1.881387e-08
C1V580,溪南(特生中心),2018-01-26,23.084972,120.788475,5.391251e-09
C1T970,大農,2018-01-26,23.615233,121.413331,2.5426863e-09
E2S960,林試太麻里2,2018-01-26,22.598014,120.989761,2.0658305e-08
C0R650,竹田,2018-01-26,22.58486,120.54344,2.7166938e-09
C1H900,清流,2018-01-26,24.080775,120.962997,2.9349934e-09
C1C510,水尾,2018-01-26,24.940081,121.087161,0.05161084
C0F9X0,大雅(中科園區),2018-01-26,24.21528,120.62445,9.259124e-10
C0SB60,白守蓮,2018-01-26,23.126769,121.401914,4.652944e-08
C0O970,虎頭埤,2018-01-26,23.021375,120.347878,7.456935e-10
C0C730,中大臨海站,2018-01-26,24.966126,121.008581,0.21041687
C0X250,新營,2018-01-26,23.310689,120.316681,3.964129e-09
C0V700,三民,2018-01-26,22.645017,120.311233,8.815608e-10
C0U870,大礁溪,2018-01-26,24.791042,121.675047,2.3912184e-08
C0E870,高鐵苗栗,2018-01-26,24.60725,120.826094,9.570316e-09
A2K570,古坑花卉中心,2018-01-26,23.63353,120.55239,1.1189639e-09
C0M860,新美,2018-01-26,23.338017,120.683169,2.1422348e-09
C1E701,八卦,2018-01-26,24.491756,120.927619,3.899717e-09
C0I420,國姓,2018-01-26,24.037803,120.855072,1.7936806e-09
C2D720,關西工作站,2018-01-26,24.757275,121.184792,2.967178e-09
C0S960,香蘭,2018-01-26,22.587569,120.993375,2.0666501e-08
C0R260,春日,2018-01-26,22.370361,120.628306,2.7903809e-08
72G600,臺中農改場,2018-01-26,24.003028,120.534389,1.1783523e-09
C0Z210,瑞穗,2018-01-26,23.5239,121.39021,3.18768e-09
C0M820,達邦,2018-01-26,23.453994,120.749517,1.7438816e-09
C0V860,南寮,2018-01-26,22.7616,120.2339,7.6857676e-10
C0G740,大城,2018-01-26,23.852487,120.320935,2.852348e-07
C0R920,塭仔,2018-01-26,22.4169,120.5197,1.9988913e-07
C0R470,高樹,2018-01-26,22.826389,120.600806,6.194637e-09
C0R680,佳樂水,2018-01-26,21.993578,120.861633,0.5865639
C1O870,大棟山,2018-01-26,23.31157,120.52226,3.9450083e-09
C0D360,梅花,2018-01-26,24.678347,121.208558,2.135088e-09
C0Z190,富世,2018-01-26,24.14743,121.6297,4.269187e-08
C0AI10,屈尺,2018-01-26,24.92184,121.54475,9.588822e-05
B2U990,畜試東區分所,2018-01-26,24.669039,121.832561,1.9072967e-08
C0SB80,長濱漁港,2018-01-26,23.313644,121.459994,4.0028096e-09
C0R240,來義,2018-01-26,22.527306,120.625111,7.972811e-10
C0V910,大樹,2018-01-26,22.684645,120.432803,8.3115326e-10
C1R610,西大武山,2018-01-26,22.617719,120.7322,1.8171145e-08
C0G900,線西,2018-01-26,24.143358,120.443536,4.717506e-09
C0M700,竹崎,2018-01-26,23.526178,120.555508,1.0513919e-09
C2E880,三義,2018-01-26,24.405478,120.749819,1.7611664e-09
C0C720,竹圍,2018-01-26,25.112692,121.239824,0.0006581051
C0F9P0,清水,2018-01-26,24.312297,120.562242,7.2396125e-09
C0Z150,吉安光華,2018-01-26,23.930925,121.595153,7.00572e-09
C1D640,外坪(五指山),2018-01-26,24.644447,121.090961,3.7573233e-09
C0F9O0,潭子,2018-01-26,24.213106,120.703933,8.7870533e-10
C2H9R0,卓社,2018-01-26,23.887894,121.000086,3.0366507e-09
72T250,花蓮農改場,2018-01-26,23.975222,121.563889,1.43121e-08
C0E780,銅鑼,2018-01-26,24.489681,120.790853,2.22345e-09
C1T950,太安,2018-01-26,23.666719,121.370128,1.9735843e-08
C0E830,苑裡,2018-01-26,24.439714,120.653053,3.843509e-08
467270,田中,2018-01-26,23.873803,120.581286,7.3570533e-10
C0SA10,檳榔四格山,2018-01-26,22.810031,121.109308,1.0017059e-09
C1T830,布洛灣,2018-01-26,24.17184,121.57127,9.8601305e-08
C0F970,大坑,2018-01-26,24.173142,120.722289,5.627695e-10
C1U920,思源,2018-01-26,24.393125,121.347214,1.9981588e-08
C0A931,三和,2018-01-26,25.233153,121.595236,3.7798309e-06
C0I010,廬山,2018-01-26,24.033311,121.181808,3.5996797e-09
C2M940,日野賀,2018-01-26,23.434056,120.727169,2.2382534e-09
C0R860,鼻頭,2018-01-26,22.1043,120.8979,0.62944865
C0UB20,壯圍,2018-01-26,24.7359,121.8163,1.0872051e-08
C0R790,九棚,2018-01-26,22.14195,120.889281,0.36938357
C0W110,東莒,2018-01-26,25.9652,119.98069,4.1529046e-07
C1U930,粉鳥林,2018-01-26,24.497088,121.842479,1.1553851e-08
C1I211,蘆竹湳,2018-01-26,23.934019,120.811994,1.915747e-09
C0S830,長濱,2018-01-26,23.286817,121.411975,3.686091e-09
C1F9F1,伯公龍,2018-01-26,24.272392,120.849047,2.5080207e-09
C0E810,西湖,2018-01-26,24.562947,120.7485,5.107088e-07
C1I440,新高口,2018-01-26,23.478744,120.878939,6.2442225e-09
C0O840,王爺宮,2018-01-26,23.222064,120.40085,1.2063536e-09
C0T9G0,鳳林山,2018-01-26,23.735269,121.420131,5.079752e-09
C0X080,佳里,2018-01-26,23.173039,120.145086,1.5231171e-08
C0FB70,大甲溪埔,2018-01-26,24.370625,120.620067,1.7727203e-08
C0Z310,清水斷崖,2018-01-26,24.218294,121.689142,2.3494046e-08
C0M680,太保,2018-01-26,23.455062,120.331455,7.6236584e-10
C1S820,金峰,2018-01-26,22.590969,120.933236,8.010434e-09
C0AD10,八里,2018-01-26,25.150211,121.403947,0.0006581051
C2K240,草嶺,2018-01-26,23.59555,120.693461,2.2261235e-09
C1SA70,都蘭,2018-01-26,22.87794,121.226881,1.1280412e-09
C0K440,二崙,2018-01-26,23.772797,120.408944,7.507383e-10
C1A760,坪林交控,2018-01-26,24.94284,121.713442,1.09325875e-07
C0F9N0,大里,2018-01-26,24.092464,120.701378,6.869585e-10
C0SA90,達仁林場,2018-01-26,22.264347,120.823972,0.16433848
C1R290,石門山,2018-01-26,22.112611,120.756597,0.3332048
42HA10,萬大發電廠,2018-01-26,23.978875,121.139639,2.8276583e-09
C0R890,山海,2018-01-26,21.9878,120.7091,0.9423785
C0T9A0,月眉山,2018-01-26,23.809928,121.539828,4.0801624e-09
C0AC70,信義,2018-01-26,25.037822,121.564597,2.2093811e-05
C0K560,棋山,2018-01-26,23.68645,120.603417,1.0954014e-09
C2FB50,出雲,2018-01-26,24.206469,120.902794,3.0200271e-09
C1Z240,中平林道,2018-01-26,23.42115,121.26763,1.8877998e-08
U2H480,溪頭,2018-01-26,23.670306,120.798194,3.1093803e-09
C0M880,好美里,2018-01-26,23.3364,120.138,4.759587e-09
C0T9E0,大坑,2018-01-26,23.880628,121.581981,5.4621205e-09
C0K530,臺西,2018-01-26,23.701547,120.197559,8.466843e-08
C1E900,國一N128K,2018-01-26,24.560997,120.844186,4.068979e-09
C0AJ50,水湳洞,2018-01-26,25.123695,121.862238,0.000103173224
C0AI20,白沙灣,2018-01-26,25.283128,121.519058,0.7148597
C0A860,大坪,2018-01-26,25.165914,121.632969,2.7858457e-07
C1U850,觀音海岸,2018-01-26,24.38319,121.77856,6.6967987e-09
C2K610,草嶺石壁,2018-01-26,23.602469,120.707731,2.2810975e-09
C0U950,鶯子嶺,2018-01-26,24.89754,121.79244,5.6542653e-08
C0O900,善化,2018-01-26,23.112883,120.297219,2.7095368e-09
C0K550,蔦松,2018-01-26,23.514319,120.229736,2.3683315e-09
E2P980,林試六龜中心,2018-01-26,22.991703,120.645722,3.3699321e-09
C0E590,通霄,2018-01-26,24.471892,120.704622,8.395731e-08
C1I310,西巒,2018-01-26,23.754486,120.883956,1.6094097e-09
C0A550,泰平,2018-01-26,24.971197,121.823711,3.2698958e-07
C0I360,水里,2018-01-26,23.812553,120.849792,1.1692403e-09
C0R830,高士,2018-01-26,22.121825,120.836781,0.26337248
C1I101,溪頭,2018-01-26,23.661789,120.807647,5.49642e-09
C0AJ20,野柳,2018-01-26,25.20703,121.690021,0.00018104087
C0B060,暖暖,2018-01-26,25.0957,121.7403,5.5013465e-05
C1H920,長豐,2018-01-26,24.102039,120.879897,2.560904e-09
C0V360,內門,2018-01-26,22.975481,120.466769,9.383451e-10
C0R850,林邊,2018-01-26,22.4634,120.5339,9.1650343e-10
C0E930,龍鳳,2018-01-26,24.700034,120.859125,3.871704e-08
C0U910,冬山,2018-01-26,24.63373,121.7937,1.9072967e-08
C1E721,泰安,2018-01-26,24.489017,120.968036,6.834993e-09
82H320,茶改中部分場,2018-01-26,23.875611,120.913583,2.572531e-09
C0M750,布袋,2018-01-26,23.380878,120.167789,2.5945528e-09
C1S860,利嘉,2018-01-26,22.809417,121.050528,4.9447335e-09
72C440,桃園農改,2018-01-26,24.950944,121.030583,0.0641107
E2S980,林試太麻里1,2018-01-26,22.598922,120.980044,1.2967173e-08
C0X170,關廟,2018-01-26,22.963017,120.327797,1.1966781e-09
C0V720,林園,2018-01-26,22.507747,120.394511,7.19498e-10
C1I510,線浸林道,2018-01-26,23.761508,120.832956,2.364504e-09
C0D690,外湖,2018-01-26,24.917735,120.968711,0.07586421
C0C750,新興坑尾,2018-01-26,25.0061,121.0971,0.17965285
B2Q810,畜試南區分所,2018-01-26,21.945583,120.802167,0.5553629
C0S790,金崙,2018-01-26,22.538122,120.966875,3.66986e-08
C0AH90,福山植物園,2018-01-26,24.760717,121.58135,3.838886e-08
C0I540,奇萊稜線,2018-01-26,24.109231,121.326456,1.9580838e-08
C0M850,表湖,2018-01-26,23.24186,120.64166,2.3537903e-09
C0S770,大溪山,2018-01-26,22.478475,120.943325,7.8276976e-08
C0AG80,中和,2018-01-26,24.991622,121.491792,9.376074e-06
C0T790,大禹嶺,2018-01-26,24.186117,121.316086,1.5341412e-08
C0T9B0,水源,2018-01-26,23.991861,121.537169,7.2123925e-09
C0R840,牡丹池山,2018-01-26,22.168389,120.841225,0.031721618
C1I131,桶頭,2018-01-26,23.641944,120.654117,9.679486e-10
CAL110,布袋國中,2018-01-26,23.35893,120.18026,2.5945528e-09
467571,新竹,2018-01-26,24.827853,121.014219,0.0036436857
C0Z290,赤柯山,2018-01-26,23.36893,121.38293,1.032966e-08
C0X280,將軍,2018-01-26,23.214999,120.13577,7.868439e-09
C0S690,太麻里,2018-01-26,22.60902,120.98533,4.185406e-09
C0U880,北關,2018-01-26,24.9072,121.8734,3.2977803e-07
C1H860,瑞岩,2018-01-26,24.123772,121.18345,9.217949e-09
C0G810,埔心,2018-01-26,23.947633,120.525456,1.1307015e-09
C0U970,大福,2018-01-26,24.80064,121.81389,1.7299419e-08
C2H9N0,仁愛東眼,2018-01-26,24.026875,121.1205,3.0561276e-09
C1E670,南礦,2018-01-26,24.538278,121.002836,5.5294267e-09
C0M520,東後寮,2018-01-26,23.369908,120.248065,2.3941655e-09
C1E461,松安,2018-01-26,24.397972,120.986022,7.064223e-09
72G600,臺中農改,2018-01-26,24.003028,120.534389,1.1783523e-09
C2N160,西拉雅風管處,2018-01-26,23.189481,120.335297,3.8810772e-09
C2M970,碧湖,2018-01-26,23.568632,120.624165,2.0589572e-09
C0A640,石碇,2018-01-26,24.993969,121.662917,3.5196242e-06
E2S960,林試太麻里2,2018-01-26,22.598,120.99775,2.2661764e-08
C0F9Y0,桃山,2018-01-26,24.432739,121.303808,2.3545367e-08
C1I020,萬大,2018-01-26,23.979817,121.132261,1.918204e-09
C0U940,羅東,2018-01-26,24.68184,121.74934,1.0967211e-08
C0M650,朴子,2018-01-26,23.43463,120.23902,1.391588e-09
C1I500,大尖山,2018-01-26,23.858572,120.994889,7.0676327e-09
C0G820,田尾,2018-01-26,23.901669,120.509389,1.1307015e-09
E2K600,四湖植物園,2018-01-26,23.676986,120.163433,4.7276234e-08
C0S730,綠島,2018-01-26,22.6672,121.47533,0.99637574
12Q970,東港工作站,2018-01-26,22.479997,120.466058,9.208349e-10
C0E430,南庄,2018-01-26,24.601775,121.000214,2.7720939e-09
C1TA00,太魯閣,2018-01-26,24.15773,121.6236,3.3262225e-08
466920,臺北,2018-01-26,25.037658,121.514853,2.2093811e-05
C0R600,舊泰武,2018-01-26,22.588194,120.664944,1.892157e-09
C1I260,北坑,2018-01-26,23.9246,121.006903,1.9497721e-09
466910,鞍部,2018-01-26,25.182586,121.529731,1.4610583e-07
C1I230,九份二山,2018-01-26,23.961944,120.845,2.532981e-09
C2A660,瑞芳,2018-01-26,25.113169,121.801147,1.3645939e-05
C0R270,琉球嶼,2018-01-26,22.332244,120.362236,3.7911594e-08
C1T990,高寮,2018-01-26,23.394239,121.356808,3.3478933e-09
C0G620,芬園,2018-01-26,24.015678,120.6213,9.2996016e-10
C1Z140,荖溪,2018-01-26,23.890575,121.45964,1.7895331e-08
C1I201,中心崙,2018-01-26,23.728722,120.712097,1.9067647e-09
C1I400,凌霄,2018-01-26,24.018778,121.004456,2.9450646e-09
C1M640,十字,2018-01-26,23.492153,120.753683,3.1700482e-09
G2P820,農試鳳山分所,2018-01-26,22.646611,120.356083,8.4821417e-10
C0Z270,蕃薯寮,2018-01-26,23.73835,121.540108,4.2455874e-09
C0F9Q0,外埔,2018-01-26,24.347817,120.705686,2.1223636e-09
C0K580,高鐵雲林,2018-01-26,23.737456,120.417944,7.851959e-10
C2I090,鳳凰,2018-01-26,23.728081,120.787347,1.8263282e-09
C0U990,員山,2018-01-26,24.74435,121.72247,1.109558e-08
C0V770,大社,2018-01-26,22.730306,120.346639,7.3327755e-10
C0X120,麻豆,2018-01-26,23.183289,120.248611,5.7364287e-09
C0C670,龍潭,2018-01-26,24.870056,121.221389,4.9090264e-08
C0D680,香山濕地,2018-01-26,24.783581,120.914988,2.3185857e-08
C0S980,勝林山,2018-01-26,22.430439,120.8938,1.9216752e-07
C0V730,大寮,2018-01-26,22.605614,120.395717,8.8995733e-10
C0R570,麟洛,2018-01-26,22.65078,120.52719,1.150382e-09
C2M930,石卓,2018-01-26,23.478744,120.702264,3.2024337e-09
C0G9B0,和美,2018-01-26,24.105169,120.492131,5.1940297e-09
CAG100,王功漁港,2018-01-26,23.96824,120.32586,1.3250988e-06
C0X290,北門,2018-01-26,23.267772,120.125481,7.87461e-09
C2F930,大甲,2018-01-26,24.347667,120.640403,1.4209176e-08
C0D650,湖口,2018-01-26,24.904794,121.043628,0.054504827
C0E420,竹南,2018-01-26,24.708978,120.888897,2.9022067e-08
C0U780,五結,2018-01-26,24.68637,121.79794,1.1185547e-08
C1I250,鯉潭,2018-01-26,23.961922,120.991131,2.4883609e-09
C0R130,阿禮,2018-01-26,22.742908,120.743678,2.9120475e-09
C0X100,臺南市北區,2018-01-26,23.010394,120.194228,7.6134326e-09
C0S920,金峰嘉蘭,2018-01-26,22.594789,120.960825,1.2556187e-08
C0V490,新興,2018-01-26,22.627422,120.298803,9.072402e-10
C0F9K0,大安,2018-01-26,24.345061,120.588025,1.8273361e-08
72N100,臺南農改,2018-01-26,23.0605,120.342194,2.1160176e-09
467290,古坑,2018-01-26,23.633639,120.551889,1.1189639e-09
C2E970,八甲,2018-01-26,24.535811,120.795983,3.5708834e-09
C0V440,鳳山,2018-01-26,22.646653,120.356122,8.4821417e-10
C1T940,大觀,2018-01-26,23.714206,121.373133,4.743699e-09
72T250,花蓮農改,2018-01-26,23.975222,121.563889,1.43121e-08
C0E740,造橋,2018-01-26,24.637056,120.864778,9.595796e-09
C0R100,尾寮山,2018-01-26,22.833111,120.683889,2.8665996e-09
A2K630,臺大雲林校區,2018-01-26,23.730628,120.423903,7.847617e-10
C0D580,寶山,2018-01-26,24.735006,121.025192,1.4886935e-09
E2P990,林試扇平站,2018-01-26,22.9677,120.6857,3.498772e-09
C0AI30,三重,2018-01-26,25.057328,121.500629,2.9104835e-05
C0AH00,汐止,2018-01-26,25.066881,121.658778,2.2093811e-05
C1Z040,立山,2018-01-26,23.443356,121.327375,1.0072318e-08
C0W130,花嶼,2018-01-26,23.40007,119.32276,0.99627215
C0A950,鼻頭角,2018-01-26,25.129036,121.923372,0.73064834
C0K470,林內,2018-01-26,23.748675,120.609642,7.406967e-10
C2F990,摩天嶺,2018-01-26,24.322458,120.936819,3.5501908e-09
82C160,茶改場,2018-01-26,24.908472,121.185333,0.0007928595
C0Z320,清水林道,2018-01-26,23.27125,121.188272,1.0884749e-08
C0R760,南仁湖,2018-01-26,22.084681,120.863353,0.33289188
C0M670,大林,2018-01-26,23.600616,120.45841,7.8441303e-10
C0M800,茶山,2018-01-26,23.299075,120.664767,2.2063407e-09
C0A9C0,天母,2018-01-26,25.117494,121.537169,3.065527e-05
72K220,南改斗南分場,2018-01-26,23.634556,120.477333,8.692752e-10
72AI40,桃改樹林分場,2018-01-26,24.944503,121.386972,0.008132321
C0S910,蘭嶼燈塔,2018-01-26,22.081197,121.503117,0.99682313
C0B050,八斗子,2018-01-26,25.144754,121.79167,0.00022035325
C0U900,內城,2018-01-26,24.71813,121.68766,1.0683609e-08
C0X320,柳營,2018-01-26,23.253328,120.375253,2.7239058e-09
C0M790,新港,2018-01-26,23.553269,120.345728,8.794985e-10
C0F9T0,西屯,2018-01-26,24.179494,120.641275,6.7230826e-10
C0SA30,都歷,2018-01-26,23.020333,121.323642,1.0865081e-09
C0C620,蘆竹,2018-01-26,25.084275,121.265767,0.03486427
C0R730,大坪頂,2018-01-26,22.024633,120.69355,0.5342505
C0AJ40,石門,2018-01-26,25.273672,121.601198,0.16662373
C0E750,苗栗,2018-01-26,24.564569,120.824575,4.130802e-09
C0T870,鯉魚潭,2018-01-26,23.935639,121.508944,5.9813594e-09
C1V170,排雲,2018-01-26,23.463619,120.954147,1.704519e-08
C2H950,中寮,2018-01-26,23.884447,120.766406,9.362373e-10
C0R350,貓鼻頭,2018-01-26,21.921774,120.7358,0.35214105
C0V660,岡山,2018-01-26,22.797078,120.294958,7.701866e-10
C1H941,雙冬,2018-01-26,23.967378,120.802189,1.9669841e-09
C0AJ70,田寮,2018-01-26,25.2698,121.4886,0.72897553
C0AI00,五股,2018-01-26,25.07445,121.42728,1.6766537e-06
C0Z280,德武,2018-01-26,23.47426,121.41071,2.9133975e-09
C0R700,枋山,2018-01-26,22.246844,120.661086,0.016191633
C0C460,復興,2018-01-26,24.820208,121.352281,4.9467264e-08
E2H360,蓮華池,2018-01-26,23.918333,120.885278,2.0828779e-09
C0M640,中埔,2018-01-26,23.42538,120.5229,6.706484e-10
C0W140,金沙,2018-01-26,24.488292,118.408778,1.5565588e-06
C2A540,四堵,2018-01-26,24.8926,121.745736,7.100076e-08
C0ACA0,新莊,2018-01-26,25.051478,121.446756,9.434923e-06
C0R220,潮州,2018-01-26,22.534361,120.54,8.977435e-10
U2HA40,臺大內茅埔,2018-01-26,23.689722,120.851117,2.2330553e-09
467490,臺中,2018-01-26,24.145736,120.684075,5.6088134e-10
C0U960,翠峰湖,2018-01-26,24.510856,121.608044,2.4745889e-08
E2HA20,林試畢祿溪站,2018-01-26,24.226944,121.308522,1.554628e-08
C0V890,前鎮,2018-01-26,22.5718,120.3117,9.3202e-10
467620,蘭嶼,2018-01-26,22.036969,121.558339,0.9987583
C1F941,雪嶺,2018-01-26,24.280586,121.026642,2.6021466e-08
C2H9E0,國姓南港,2018-01-26,23.911108,120.846556,3.2912397e-09
C0AC80,文山,2018-01-26,25.00235,121.575728,4.6860227e-06
C0F9R0,龍井,2018-01-26,24.184536,120.528972,4.2462593e-09
C0M760,民雄,2018-01-26,23.551754,120.428457,8.128386e-10
C0UA40,西德山,2018-01-26,24.560647,121.752608,2.0825135e-08
C1T920,中興,2018-01-26,23.769503,121.498653,3.3216117e-09
C0D550,雪霸,2018-01-26,24.526972,121.11605,8.86867e-09
C2F860,梨山,2018-01-26,24.247522,121.243669,1.5901508e-08
C0R320,車城,2018-01-26,22.0744,120.716247,0.55075544
C1S870,南美山,2018-01-26,23.15025,121.382333,3.627352e-09
C0B020,基隆嶼,2018-01-26,25.19141,121.78391,0.8567401
C1U501,牛鬥,2018-01-26,24.637836,121.573656,2.164852e-08
C0M730,嘉義市東區,2018-01-26,23.457673,120.460531,8.26444e-10
C0S700,知本,2018-01-26,22.684866,121.005642,3.3940184e-09
C1N001,沙崙,2018-01-26,22.935472,120.309406,1.2655361e-09
C0V760,橋頭,2018-01-26,22.757806,120.30575,7.540289e-10
C0G960,福寶,2018-01-26,24.0443,120.3814,5.3339217e-09
C0X210,白河,2018-01-26,23.347466,120.414427,1.0686416e-09
C0S810,東河,2018-01-26,22.972672,121.303986,1.1356113e-06
C2R170,屏東,2018-01-26,22.66027,120.49403,1.1504127e-09
C0R670,楓港,2018-01-26,22.190131,120.692156,0.63460296
C0FA50,霧峰,2018-01-26,24.0419,120.6995,9.0869495e-10
C0UB10,蘇澳,2018-01-26,24.5969,121.8571,4.1417465e-08
C0G950,防潮門,2018-01-26,24.1835,120.4871,4.2502544e-09
C0M740,六腳,2018-01-26,23.492871,120.290625,9.459085e-10
C1R250,力里,2018-01-26,22.428117,120.629228,1.6912148e-09
C0K330,虎尾,2018-01-26,23.719183,120.442036,7.7985857e-10
C2FA00,烏石坑,2018-01-26,24.273503,120.947617,3.5111931e-09
C0V620,永安,2018-01-26,22.82315,120.236856,7.701866e-10
C1I330,楓樹林,2018-01-26,23.986803,121.076117,2.3029207e-09
C0W200,湖西,2018-01-26,23.596314,119.67275,0.9944748
72Q010,高雄農改場,2018-01-26,22.709333,120.525889,1.7034522e-09
C0SA40,瑞和,2018-01-26,22.974361,121.156697,9.168776e-10
C0C680,龜山,2018-01-26,25.02846,121.38656,8.231033e-07
C2V260,月眉,2018-01-26,22.971003,120.539853,4.470331e-09
C0V450,鳳森,2018-01-26,22.545064,120.392592,6.5731454e-10
C0U720,南山,2018-01-26,24.43742,121.38167,1.8502767e-08
A2N290,臺南蘭花園區,2018-01-26,23.340258,120.379661,1.3095569e-09
C0R560,新園,2018-01-26,22.5434,120.461558,7.19498e-10
C0U890,三星,2018-01-26,24.66812,121.65302,2.6129989e-08
C1V300,御油山,2018-01-26,23.001983,120.715364,5.1950004e-09
C0U600,礁溪,2018-01-26,24.817539,121.765608,5.9309446e-08
C1T980,龍澗,2018-01-26,24.023289,121.411328,2.8447053e-08
C0D670,海天一線,2018-01-26,24.831986,120.914438,0.020493016
C0SA00,歷坵,2018-01-26,22.520969,120.89185,1.1589783e-08
C0M710,東石,2018-01-26,23.458927,120.15385,8.46755e-09
C0M780,鹿草,2018-01-26,23.41134,120.30835,1.3341228e-09
C0U520,雙連埤,2018-01-26,24.753033,121.641303,2.3859062e-08
C0B010,七堵,2018-01-26,25.094819,121.71713,0.00022174469
C0R480,長治,2018-01-26,22.693128,120.542622,7.9368817e-10
C1V830,國三S383K,2018-01-26,22.781967,120.426475,1.0353364e-09
12Q980,恆春工作站,2018-01-26,22.079678,120.714425,0.55075544
C1O940,東山服務區,2018-01-26,23.286016,120.398472,1.5587216e-09
C1U840,東澳嶺,2018-01-26,24.5378,121.8485,2.2472074e-08
C1D630,飛鳳山,2018-01-26,24.766464,121.119178,2.5925149e-09
C0S940,石寧山,2018-01-26,23.223772,121.406639,4.664235e-09
C0K410,北港,2018-01-26,23.573957,120.292802,1.346537e-09
C2M620,瑞里,2018-01-26,23.545133,120.675197,2.2628797e-09
C0SB70,小港漁港,2018-01-26,23.158558,121.400431,5.65629e-09
C2O950,安南,2018-01-26,23.076694,120.144861,2.710329e-08
C0F0E0,南湖圈谷,2018-01-26,24.363714,121.444667,4.1668883e-08
467610,成功,2018-01-26,23.097486,121.373428,3.2984182e-08
C0G890,伸港,2018-01-26,24.148933,120.484403,4.717515e-09
C2E540,龍溪,2018-01-26,24.606489,120.783933,1.0105339e-08
C1V200,梅山,2018-01-26,23.268447,120.823556,2.869871e-09
C0T9H0,加路蘭山,2018-01-26,23.682947,121.5274,7.1462125e-09
C2O930,玉井,2018-01-26,23.126042,120.46055,6.9413936e-10
C1F911,新伯公,2018-01-26,24.221361,120.841069,2.7200637e-09
C0R490,九如,2018-01-26,22.7405,120.490503,1.7802483e-09
C0X200,左鎮,2018-01-26,23.056758,120.408522,7.7115525e-10
C0SB50,叭嗡嗡,2018-01-26,23.047062,121.343223,1.3364225e-09
C1F891,稍來,2018-01-26,24.265689,121.001142,1.7434735e-08
72N240,七股研究中心,2018-01-26,23.081672,120.062894,2.9869174e-08
C0C700,中壢,2018-01-26,24.977661,121.256375,1.4358865e-05
C0M690,水上,2018-01-26,23.419734,120.388909,7.332006e-10
C0V690,鼓山,2018-01-26,22.623325,120.275575,9.072402e-10
C0O860,大內,2018-01-26,23.11885,120.36083,2.2658468e-09
C0Z200,萬榮,2018-01-26,23.709219,121.420106,4.251519e-09
C0T9D0,和中,2018-01-26,24.26676,121.74103,2.4052568e-08
C1O921,楠西,2018-01-26,23.183511,120.484083,9.588657e-10
C0AJ30,淡水觀海,2018-01-26,25.184591,121.408616,0.0104045635
C0V810,左營,2018-01-26,22.67491,120.28491,8.815608e-10
C0UA70,桃源谷,2018-01-26,24.962606,121.888875,2.0227621e-07
C0X130,官田,2018-01-26,23.193217,120.315422,4.252265e-09
C1H000,翠峰,2018-01-26,24.109397,121.205211,9.519305e-09
C0UA90,石城,2018-01-26,24.980444,121.951214,8.468771e-07
C1E681,南勢山,2018-01-26,24.421669,120.923831,3.1955085e-09
C0A9F0,內湖,2018-01-26,25.079422,121.57545,2.2093811e-05
C0K291,宜梧,2018-01-26,23.536281,120.169329,2.3683315e-09
C1K540,口湖,2018-01-26,23.585344,120.180517,8.368041e-08
C0R780,滿州,2018-01-26,22.024403,120.839892,0.7332455
C0V870,文安,2018-01-26,22.8025,120.2164,7.912501e-10
C0U650,玉蘭,2018-01-26,24.675286,121.587061,2.0065917e-08
C0R640,東港,2018-01-26,22.46247,120.44074,9.208314e-10
K2E360,苗栗農改,2018-01-26,24.495722,120.829111,2.3335893e-09
C0AJ80,板橋,2018-01-26,25.0107,121.4489,1.1359839e-05
C0S660,下馬,2018-01-26,23.150427,121.070312,7.650786e-09
C1H9B1,阿眉,2018-01-26,24.1263,120.994672,9.2606305e-09
C0UA20,多加屯,2018-01-26,24.368614,121.373189,1.4636419e-08
C0E730,頭份,2018-01-26,24.688247,120.912206,2.9855105e-08
72V140,高改旗南分場,2018-01-26,22.857861,120.516667,3.2974983e-09
C0K480,莿桐,2018-01-26,23.761192,120.502372,5.8116e-10
C0U980,坪林石牌,2018-01-26,24.86478,121.77396,3.3248906e-08
C0T900,西林,2018-01-26,23.8119,121.441458,3.3972503e-09
C1I150,青雲,2018-01-26,23.793361,120.949378,9.999516e-10
467350,澎湖,2018-01-26,23.565503,119.563094,0.99367523
C0G800,埔鹽,2018-01-26,24.000394,120.431683,5.977014e-09
C0H960,草屯,2018-01-26,23.973672,120.68085,9.277438e-10
C1V780,多納林道,2018-01-26,22.888028,120.737917,3.1045624e-09
C0E920,通霄漁港,2018-01-26,24.498589,120.673876,1.4951416e-07
C0Z330,安通山,2018-01-26,23.290728,121.348528,3.9889843e-09
C0AH10,永和,2018-01-26,25.01125,121.508111,1.1359839e-05
C0AK10,太平里,2018-01-26,25.134937,121.364899,0.0004959036
C2G640,鹿港,2018-01-26,24.0753,120.430481,5.3339217e-09
C1E890,國三N149K,2018-01-26,24.463414,120.680019,2.9341384e-08
C1R110,口社,2018-01-26,22.770111,120.645222,5.9707017e-09
C1M870,國三N285K,2018-01-26,23.550319,120.505833,1.2977436e-09
467050,新屋,2018-01-26,25.006744,121.047486,0.20213889
C1E480,鳳美,2018-01-26,24.554803,121.034747,3.9904298e-09
C0M530,奮起湖,2018-01-26,23.493903,120.699253,2.621309e-09
C0C590,觀音,2018-01-26,25.027072,121.153317,0.37524077
C0T9M0,靜浦,2018-01-26,23.455167,121.495028,3.0720824e-09
C2H9M0,發祥,2018-01-26,24.154094,121.164517,6.711696e-09
C0AI40,石牌,2018-01-26,25.115597,121.513139,3.408724e-05
C1F871,上谷關,2018-01-26,24.203483,121.018644,2.798006e-09
C2H9G0,百勝,2018-01-26,24.051142,120.909361,2.2064754e-09
C0G880,二水,2018-01-26,23.810742,120.6173,7.1303063e-10
C0R940,加祿堂,2018-01-26,22.3363,120.6217,0.5710313
C0W220,北竿,2018-01-26,26.220358,119.974881,2.9618175e-07
C0O960,崎頂,2018-01-26,22.959547,120.369317,9.2956826e-10
C0S750,向陽,2018-01-26,23.248397,120.986133,7.9825995e-09
C0T9F0,水璉,2018-01-26,23.797131,121.542514,3.5890055e-09
C1M600,頭凍,2018-01-26,23.406364,120.603339,1.4693025e-09
467660,臺東,2018-01-26,22.752211,121.154586,8.943873e-07
C1D380,新埔,2018-01-26,24.84745,121.03834,0.000521223
C2G980,田頭村,2018-01-26,23.8263,120.444175,7.507383e-10
C0V750,路竹,2018-01-26,22.854997,120.259439,1.5792505e-09
C0N050,蚵寮,2018-01-26,23.301,120.1104,4.7595687e-09
72M700,南改鹿草分場,2018-01-26,23.416869,120.283061,1.3907627e-09
C1SA50,利嘉林道,2018-01-26,22.82325,121.009389,1.9995543e-08
467550,玉山,2018-01-26,23.487614,120.959522,2.2301279e-08
C0A940,金山,2018-01-26,25.223628,121.643967,0.00011757339
C1V340,大津,2018-01-26,22.888322,120.645986,2.0147143e-08
C0W180,七美,2018-01-26,23.219333,119.444892,0.99819434
C1F9C1,白冷,2018-01-26,24.182844,120.929889,2.384513e-09
K2E710,苗改生物防治研究中心,2018-01-26,24.422861,120.871833,1.379003e-09
C0N040,蘆竹溝,2018-01-26,23.2344,120.0961,7.874595e-09
C2W230,畜試所澎湖,2018-01-26,23.628342,119.513206,0.9954027
C0R880,後壁湖,2018-01-26,21.9457,120.7457,0.93511134
C1I280,埔中,2018-01-26,23.820778,120.642594,1.2598619e-09
467790,墾丁雷達站,2018-01-26,21.948235,120.808028,0.7174402
C0W190,望安,2018-01-26,23.380564,119.494075,0.9968495
466881,新北,2018-01-26,24.9593,121.52,7.704143e-06
C0Z170,卓溪,2018-01-26,23.3443,121.3029,3.244809e-09
C0F850,東勢,2018-01-26,24.246428,120.833047,9.694267e-10
466900,淡水,2018-01-26,25.164889,121.448906,0.0004959036
C0I370,魚池,2018-01-26,23.895703,120.94135,1.6516283e-09
C0C630,大溪,2018-01-26,24.882853,121.265547,8.511338e-08
C0A520,山佳,2018-01-26,24.974944,121.402008,1.0736347e-05
C0I110,竹山,2018-01-26,23.761225,120.688156,7.2802087e-10
82H840,茶改南部分場,2018-01-26,23.762528,120.7405,1.2315038e-09
C0G660,溪湖,2018-01-26,23.94835,120.479122,1.1274002e-09
C1T800,洛韶,2018-01-26,24.204558,121.453956,2.1409207e-08
C1T810,慈恩,2018-01-26,24.192044,121.388386,8.210679e-09
C1E451,象鼻,2018-01-26,24.368617,120.940228,3.0566696e-09
C0AC60,三峽,2018-01-26,24.939025,121.369728,0.0057107112
C0I490,萬大林道,2018-01-26,23.928228,121.091411,4.1816075e-09
C1I290,豐丘,2018-01-26,23.668178,120.887417,3.2832894e-09
C1I320,奧萬大,2018-01-26,23.952956,121.178556,2.681338e-09
C2M910,嘉義大學,2018-01-26,23.471325,120.485903,7.7350043e-10
C0U770,南澳,2018-01-26,24.44935,121.81022,1.1628666e-08
C0A980,社子,2018-01-26,25.109508,121.469681,0.00090734265
C0V800,六龜,2018-01-26,22.997889,120.633583,3.5557408e-09
C1G9D0,國一S218K,2018-01-26,23.890641,120.493253,8.4431284e-10
C0E570,白沙屯,2018-01-26,24.549447,120.696803,9.978783e-07
C2F9A0,中竹林,2018-01-26,24.103556,120.751061,2.0295081e-09
C0FA40,臺中電廠,2018-01-26,24.2146,120.4907,4.2462593e-09
C2G9A0,畜試所彰化,2018-01-26,23.86045,120.557964,7.3570533e-10
C0H9C0,合歡山,2018-01-26,24.143442,121.272547,2.1964828e-08
C0X060,下營,2018-01-26,23.22695,120.256261,6.380168e-09
G2M350,農試溪口農場,2018-01-26,23.58565,120.408111,8.2250007e-10
C0U860,頭城,2018-01-26,24.85323,121.8308,6.1469954e-08
C0R580,南州,2018-01-26,22.48591,120.50274,9.208314e-10
C0D430,峨眉,2018-01-26,24.6905,121.017189,3.2034355e-09
C0G780,秀水,2018-01-26,24.03405,120.503869,1.1783545e-09
72N100,臺南農改場,2018-01-26,23.0605,120.342194,2.1160176e-09
C0S900,蘭嶼高中,2018-01-26,22.04909,121.51214,0.9878224
467540,大武,2018-01-26,22.355675,120.903789,0.097464435
C1F9W0,德基,2018-01-26,24.254783,121.190261,1.5017244e-08
C1Z120,壽豐,2018-01-26,23.870853,121.508081,6.813321e-09
C0W160,烏坵,2018-01-26,24.9944,119.44956,4.720425e-05
C1I240,外大坪,2018-01-26,23.958697,120.917931,2.4830082e-09
C1I550,國六W023K,2018-01-26,23.979067,120.867742,1.8289497e-09
C0R870,興海,2018-01-26,21.9752,120.8439,0.5553629
C0R140,瑪家,2018-01-26,22.682903,120.686639,2.0485689e-09
C0A530,坪林,2018-01-26,24.938183,121.70975,8.417634e-08
C0X260,後壁,2018-01-26,23.366358,120.362326,1.3095569e-09
C0Z230,和平,2018-01-26,24.30717,121.77007,2.4519945e-08
C0G770,福興,2018-01-26,24.041289,120.437669,5.9851937e-09
C0H9A0,神木村,2018-01-26,23.532742,120.843667,3.2551672e-09
C0I460,南投,2018-01-26,23.911469,120.687331,1.1161077e-09
C0I480,梅峰,2018-01-26,24.085272,121.173572,6.7016033e-09
C1V570,吉東,2018-01-26,22.85422,120.5454,2.9820602e-09
C2D740,屯原,2018-01-26,24.067969,121.209389,5.8842144e-09
C2A560,福山,2018-01-26,24.776203,121.502811,4.8316746e-08
C0AH30,五分山,2018-01-26,25.07125,121.780794,1.5405722e-07
C0FA10,松柏,2018-01-26,24.429115,120.617482,4.518079e-08
72S200,東改班鳩分場,2018-01-26,22.829528,121.077694,1.212758e-09
72HA00,中改埔里分場,2018-01-26,23.903208,120.963364,2.0129847e-09
C2H9W0,大坪頂農水,2018-01-26,24.043122,120.932781,2.571913e-09
C0C650,平鎮,2018-01-26,24.897503,121.214636,2.4830204e-05
C0S930,延平,2018-01-26,22.902581,121.084058,8.546402e-10
C0UA60,樟樹山,2018-01-26,24.41393,121.78325,1.5008569e-08
C1S670,摩天,2018-01-26,23.199503,121.027,1.5015354e-08
C0V630,茄萣,2018-01-26,22.906642,120.182608,1.7282195e-09
466940,基隆,2018-01-26,25.133314,121.740475,0.00017046595
C0X050,東河,2018-01-26,23.296598,120.385608,1.6844286e-09
C0R770,保力,2018-01-26,22.071122,120.764111,0.54395473
G2L020,農試嘉義分所,2018-01-26,23.485028,120.473806,1.2387691e-09
C0X240,關子嶺,2018-01-26,23.331169,120.508025,1.4948935e-09
C0I380,集集,2018-01-26,23.828206,120.801467,1.1735792e-09
466990,花蓮,2018-01-26,23.975128,121.613275,1.5845254e-08
C1V220,小關山,2018-01-26,23.154217,120.813603,6.8755397e-09
C1F9G1,慶福山,2018-01-26,24.180853,120.848378,2.160734e-09
C0Z250,瑞穗林道,2018-01-26,23.49284,121.30688,1.8202087e-08
C0D590,新豐,2018-01-26,24.87068,120.97721,0.0057207677
C0A870,五指山,2018-01-26,25.132153,121.608692,9.1439674e-08
C0UA50,西帽山,2018-01-26,24.555361,121.802628,1.8964503e-08
C0X160,仁德,2018-01-26,22.968258,120.257689,3.5432568e-09
C1H971,六分寮,2018-01-26,23.92507,120.6378,1.4561674e-09
C0W120,西嶼,2018-01-26,23.5626,119.468436,0.99590933
C0G650,員林,2018-01-26,23.946503,120.585597,9.641363e-10
C0AD50,鶯歌,2018-01-26,24.951533,121.346294,0.0025965765
C2H9Q0,北東眼山,2018-01-26,24.120939,121.189303,1.1027348e-08
C2H9T0,名間竹圍,2018-01-26,23.859914,120.637572,1.0287048e-09
C0S990,山豬窟,2018-01-26,22.318619,120.857372,0.10110342
72Q010,高雄農改,2018-01-26,22.709333,120.525889,1.7034522e-09
C0X190,安平,2018-01-26,22.993161,120.152181,7.610994e-09
C0K400,斗六,2018-01-26,23.720583,120.541127,6.9006556e-10
12J990,口湖工作站,2018-01-26,23.589978,120.180394,8.368041e-08
C0O830,北寮,2018-01-26,23.079561,120.495008,1.1850554e-09
C1D410,白蘭,2018-01-26,24.579364,121.079947,5.9417777e-09
C0S970,加津林,2018-01-26,22.416211,120.926942,0.09443276
C0D700,關西,2018-01-26,24.7977,121.1732,3.0651e-09
C0M810,里佳,2018-01-26,23.389125,120.716647,2.2339244e-09
C0U750,龜山島,2018-01-26,24.841667,121.953133,2.0535615e-06
C0R810,內獅,2018-01-26,22.305064,120.642986,0.59496075
C1M390,龍美,2018-01-26,23.406728,120.654417,1.6979183e-09
C2FB60,頭櫃山,2018-01-26,24.129842,120.858925,3.92452e-09
C1H840,國三N238K,2018-01-26,23.841008,120.707711,1.0219227e-09
CAQ030,崎峰國小,2018-01-26,22.42565,120.49521,9.208314e-10
C2E520,大湖,2018-01-26,24.414939,120.870872,1.4129846e-09
467530,阿里山,2018-01-26,23.508208,120.813242,1.037543e-08
C1E691,南湖,2018-01-26,24.40135,120.837533,2.747585e-09
C0FA30,梧棲,2018-01-26,24.256003,120.523381,7.2396125e-09
C1V231,高中,2018-01-26,23.134911,120.716711,3.1421108e-09
C0F9V0,新社,2018-01-26,24.200172,120.815806,2.367356e-09
C0H890,埔里,2018-01-26,23.972169,120.952425,1.8662432e-09
C0R690,墾丁,2018-01-26,21.966756,120.810269,0.99609506
C0F0D0,審馬陣,2018-01-26,24.381675,121.4203,2.0003247e-08
C0R820,白鷺,2018-01-26,22.454275,120.666219,3.7985695e-09
U2H480,臺大溪頭,2018-01-26,23.670306,120.798194,3.1093803e-09
C1V190,南天池,2018-01-26,23.27403,120.91176,6.5855343e-09
K2E360,苗栗農改場,2018-01-26,24.495722,120.829111,2.3335893e-09
CAJ050,海口故事園區,2018-01-26,23.57543,120.14121,8.368041e-08
C2H9D0,三隻寮,2018-01-26,24.093078,120.861578,2.5993179e-09
C0O990,媽廟,2018-01-26,22.99175,120.293525,2.797163e-09
C0D480,打鐵坑,2018-01-26,24.849664,121.150789,4.906031e-08
C0Z220,和平林道,2018-01-26,24.343922,121.656317,6.51035e-09
C0TA10,花蓮漁港,2018-01-26,23.995322,121.638331,1.7055989e-08
72C440,桃園農改場,2018-01-26,24.950944,121.030583,0.0641107
C1E711,馬拉邦山,2018-01-26,24.367306,120.901656,3.1358662e-09
C0SB20,富岡,2018-01-26,22.792467,121.192669,4.3100115e-09
C0D560,竹東,2018-01-26,24.767147,121.057881,3.1784881e-09
C0F9U0,南屯,2018-01-26,24.137006,120.637969,6.539095e-10
C0M720,番路,2018-01-26,23.464657,120.554156,6.276136e-10
C0F0A0,雪山圈谷,2018-01-26,24.388594,121.236339,2.7502393e-08
C1A9N0,四十份,2018-01-26,24.934158,121.593283,4.5029546e-07
C0U760,東澳,2018-01-26,24.52196,121.83318,1.1099664e-08
C0X230,鹽水,2018-01-26,23.272621,120.247641,4.3510213e-09
C2H9H0,苗改南投蜂場,2018-01-26,23.852589,120.693481,9.0656216e-10
C0R950,萬隆國小,2018-01-26,22.507667,120.587817,8.458619e-10
C0V370,古亭坑,2018-01-26,22.893178,120.401947,1.2882463e-09
C1I340,新興橋,2018-01-26,23.563333,120.868728,1.9078705e-09
C0SA80,土坂,2018-01-26,22.453108,120.887572,5.4175107e-06
C0R160,鹽埔,2018-01-26,22.739558,120.530778,1.7034522e-09
C0AC40,大屯山,2018-01-26,25.175675,121.522408,1.0612833e-07
466850,五分山雷達站,2018-01-26,25.071182,121.781205,1.5171493e-07
C2H9L0,馬烈霸,2018-01-26,24.1512,121.201772,1.0867987e-08
C1AI50,國三N016K,2018-01-26,25.034164,121.619664,1.0848119e-05
C1V600,藤枝,2018-01-26,23.071961,120.757042,4.9018944e-09
C1E601,南勢,2018-01-26,24.572486,120.734842,1.6420292e-07
C0Z180,新城,2018-01-26,24.03946,121.60454,1.5301492e-08
C0O980,新市,2018-01-26,23.061614,120.298197,2.709542e-09
C0K420,西螺,2018-01-26,23.800407,120.467394,7.5186896e-10
C0Z050,佳心,2018-01-26,23.34567,121.21316,9.75472e-09
C0AD30,蘆洲,2018-01-26,25.086594,121.472331,2.9104835e-05
C0V610,梓官,2018-01-26,22.760558,120.267211,7.540289e-10
K2F750,種苗改良場,2018-01-26,24.225972,120.800917,2.5559168e-09
C0UA80,大溪漁港,2018-01-26,24.941801,121.902955,3.1424696e-07
C1AI60,國一39K邊坡,2018-01-26,25.064361,121.383836,1.1537268e-06
C0W150,金寧,2018-01-26,24.457703,118.328989,7.117031e-07
C0R960,內埔,2018-01-26,22.608483,120.570714,2.6404676e-09
V2C250,八德合作社,2018-01-26,24.93775,121.266389,0.00015635656
C2H9S0,龍南,2018-01-26,23.953536,120.833183,2.9555765e-09
C0AH40,平等,2018-01-26,25.129142,121.577086,2.1465658e-07
C0R540,佳冬,2018-01-26,22.419456,120.552375,1.4281743e-07
466950,彭佳嶼,2018-01-26,25.627975,122.079744,0.99227524
C0A890,雙溪,2018-01-26,25.036003,121.864242,2.1184694e-06
C0C480,桃園,2018-01-26,24.992425,121.323172,3.0129862e-05
C0AH50,林口,2018-01-26,25.072181,121.38084,6.507243e-07
A2K360,水試臺西試驗場,2018-01-26,23.717231,120.190522,9.767624e-08
B2N890,畜試所,2018-01-26,23.058972,120.336406,2.1160176e-09
C2M960,外寮,2018-01-26,23.562643,120.665688,2.1286188e-09
C0F9S0,烏日,2018-01-26,24.107058,120.624103,6.6708017e-10
C0C490,八德,2018-01-26,24.928708,121.283289,0.00014369984
C0R190,赤山,2018-01-26,22.592333,120.614306,2.502182e-09
C0T820,天祥,2018-01-26,24.179597,121.495639,5.0838157e-08
C1F9E1,龍安,2018-01-26,24.1605,120.831961,2.5604887e-09
C0V820,小林,2018-01-26,23.148408,120.63325,1.1527014e-09
C2G870,芳苑,2018-01-26,23.922303,120.320025,1.1406987e-06
C0E850,大河,2018-01-26,24.618069,120.948578,4.768346e-09
C1U670,寒溪,2018-01-26,24.634,121.71691,1.6992864e-08
C0N020,城西,2018-01-26,23.0568,120.0956,7.6134326e-09
C1Z110,三棧,2018-01-26,24.11557,121.60501,3.5495564e-08
C0R280,檳榔,2018-01-26,22.076078,120.836777,0.35941485
C2H9J0,中台,2018-01-26,23.9996,120.938739,2.6677838e-09
C0F9L0,后里,2018-01-26,24.310436,120.729725,1.3618353e-09
C0D540,橫山,2018-01-26,24.71116,121.11693,1.4028956e-09
C1D420,太閣南,2018-01-26,24.632808,121.160575,9.3321235e-09
C1E770,公館,2018-01-26,24.526914,120.830806,2.3655145e-09
CAN130,水試所海水繁養殖中心,2018-01-26,23.120802,120.07968,2.9869174e-08
C1I430,翠華,2018-01-26,24.191961,121.224339,1.0917581e-08
C1M400,菜瓜坪,2018-01-26,23.251928,120.576103,1.9748372e-09
C0G730,二林,2018-01-26,23.903325,120.376081,4.68551e-09
72M360,南改義竹分場,2018-01-26,23.360694,120.279361,2.3941655e-09
V2K620,麥寮合作社,2018-01-26,23.753836,120.294783,1.8168673e-09
C0Z070,舞鶴,2018-01-26,23.46811,121.37407,2.8257228e-09
C0B040,大武崙,2018-01-26,25.166676,121.706993,5.8547143e-05
C1Z030,紅葉,2018-01-26,23.493119,121.338806,3.082142e-09
C1I050,丹大,2018-01-26,23.753747,121.141147,8.621737e-09
C0I080,信義,2018-01-26,23.689694,120.851036,2.2330553e-09
C2M920,朴子農改,2018-01-26,23.469889,120.259383,1.391588e-09
C2A880,福隆,2018-01-26,25.017842,121.942083,9.14474e-07
C0Z160,鳳林,2018-01-26,23.746114,121.453411,4.479242e-09
C0V210,復興,2018-01-26,23.222403,120.806089,3.2662377e-09
C0H990,昆陽,2018-01-26,24.121322,121.273642,1.7754545e-08
C0R741,獅子,2018-01-26,22.202308,120.705236,0.9029366
C0S710,鹿野,2018-01-26,22.917711,121.122994,1.0238151e-09
C0I530,小奇萊,2018-01-26,24.131764,121.295717,1.859642e-08
C2K630,荷苞,2018-01-26,23.657717,120.595144,1.0164349e-09
C0Z080,富源,2018-01-26,23.587642,121.378225,7.265148e-09
467441,高雄,2018-01-26,22.7304,120.3125,7.3327755e-10
C0SB10,美和,2018-01-26,22.682078,121.060236,1.0085159e-08
C2K620,馬光農場,2018-01-26,23.721453,120.378864,7.8781515e-10
C1I140,卡奈托灣,2018-01-26,23.754364,121.087872,2.4109834e-09
C0I520,玉山風口,2018-01-26,23.470489,120.955994,2.536284e-08
C1G691,下水埔,2018-01-26,23.816114,120.5676,5.842252e-10
C0X110,臺南市南區,2018-01-26,22.961189,120.188378,3.5432568e-09
C0V680,仁武,2018-01-26,22.701083,120.347722,8.810431e-10
C2G840,北斗,2018-01-26,23.877586,120.514222,8.449395e-10
C0R900,竹坑,2018-01-26,22.1385,120.7022,0.5598675
C0K250,崙背,2018-01-26,23.75555,120.318925,1.8158696e-09
C0G860,社頭,2018-01-26,23.897647,120.5862,7.3008166e-10
C0X150,安定,2018-01-26,23.102614,120.227839,7.534931e-09
C0R590,里港,2018-01-26,22.77919,120.49459,1.3819863e-09
C0E610,馬都安,2018-01-26,24.451272,120.930192,2.8555436e-09
C0E550,明德,2018-01-26,24.583486,120.885411,4.027569e-09
C0R150,三地門,2018-01-26,22.709889,120.639944,6.102042e-09
C0G910,花壇,2018-01-26,24.032076,120.549461,1.1897027e-09
C1D400,鳥嘴山,2018-01-26,24.71909,121.28387,5.49227e-09
C0K500,元長,2018-01-26,23.64981,120.315024,1.4726299e-09
C0F0B0,石岡,2018-01-26,24.276061,120.777644,1.3483669e-09
C2V250,甲仙,2018-01-26,23.080106,120.591758,7.101194e-10
C0SA20,金崙山,2018-01-26,22.567419,120.959667,4.6828212e-09
C0V350,溪埔,2018-01-26,22.738578,120.446797,8.806903e-10
C0M660,溪口,2018-01-26,23.604131,120.403569,8.225016e-10
C1S880,壽卡,2018-01-26,22.238911,120.858903,0.2082574
72D680,桃改新埔分場,2018-01-26,24.834444,121.066111,0.00075836835
