站號,站名,日期,lat,lon,BLBTSLS
C0R710,龍磐,2018-03-23,21.931672,120.838942,0.4828813
C1F9D1,白毛台,2018-03-23,24.158325,120.886933,5.9380023e-10
C0G940,竹塘,2018-03-23,23.848253,120.386764,6.760541e-10
467590,恆春,2018-03-23,22.003897,120.746339,0.03280025
C1O850,環湖,2018-03-23,23.148617,120.418633,6.9901653e-06
C0U710,太平山,2018-03-23,24.505486,121.525656,9.884135e-09
C0E820,獅潭,2018-03-23,24.539133,120.920042,8.9425206e-10
C0V880,興達,2018-03-23,22.8778,120.2127,7.9583923e-10
C0S890,關山,2018-03-23,23.0395,121.175017,6.0143748e-09
C0SB30,新蘭,2018-03-23,22.869214,121.223228,0.00017880791
C2R970,屏科大,2018-03-23,22.648275,120.619247,5.709693e-07
K2F750,種苗繁殖,2018-03-23,24.225972,120.800917,7.320213e-10
C1Z130,銅門,2018-03-23,23.965694,121.492842,3.4769714e-09
C0AD40,土城,2018-03-23,24.973208,121.445169,3.2199956e-08
CAN140,六官養殖協會,2018-03-23,23.22881,120.29962,1.3486453e-08
C0X180,山上,2018-03-23,23.0757,120.363253,1.329888e-06
C0F9Z0,雪山東峰,2018-03-23,24.388792,121.268675,1.5252771e-08
C1M480,獨立山,2018-03-23,23.537022,120.607797,5.928078e-10
C0X220,學甲,2018-03-23,23.230367,120.182187,5.1803734e-10
467650,日月潭,2018-03-23,23.881325,120.90805,1.2394119e-09
C0K600,箔子寮,2018-03-23,23.6197,120.14,8.018088e-10
C0G830,埤頭,2018-03-23,23.866003,120.452806,8.5455704e-10
C0S950,七塊厝,2018-03-23,22.954453,121.229922,4.0222643e-09
467110,金門,2018-03-23,24.407306,118.289281,1.5319802e-08
C0AH80,深坑,2018-03-23,25.002703,121.628328,1.6966403e-08
467990,馬祖,2018-03-23,26.169269,119.923419,6.0718826e-08
C0A970,三貂角,2018-03-23,25.007606,122.002058,1.7295188e-05
C2D730,寶山農場,2018-03-23,24.732444,120.976153,4.6195045e-10
C0K430,褒忠,2018-03-23,23.690938,120.303634,1.5214439e-09
467480,嘉義,2018-03-23,23.495925,120.432906,2.3576898e-07
C2E540,後龍,2018-03-23,24.606489,120.783933,1.0049516e-09
C0V400,阿公店,2018-03-23,22.804194,120.355528,4.233347e-08
C0R440,大漢山,2018-03-23,22.405264,120.753181,1.3925577e-08
C0K280,四湖,2018-03-23,23.630414,120.227125,1.3372436e-09
C1F9B1,桐林,2018-03-23,24.066172,120.735194,5.535756e-10
C2H9U0,鳳鵬,2018-03-23,23.763919,120.788061,7.070973e-10
C0K390,土庫,2018-03-23,23.679029,120.395574,6.943754e-09
C1I450,望鄉山,2018-03-23,23.594153,120.944286,1.0588587e-08
C0E910,海埔,2018-03-23,24.648767,120.772435,1.0116364e-09
B2E890,畜試北區分所,2018-03-23,24.527806,120.770972,9.837824e-10
C0R750,四林格山,2018-03-23,22.076989,120.802439,0.013515749
C0F0C0,中坑,2018-03-23,24.248517,120.903319,1.5837934e-09
C1I121,大鞍,2018-03-23,23.678381,120.760017,2.9183973e-09
72U480,花改蘭陽分場,2018-03-23,24.686306,121.716583,1.0079808e-09
C0A770,科教館,2018-03-23,25.096356,121.516507,1.2917161e-08
C0AJ60,六塊厝,2018-03-23,25.24,121.4481,4.6474582e-07
C0R620,墾雷,2018-03-23,21.900836,120.855269,0.68329626
467420,永康,2018-03-23,23.038386,120.2367,1.72233e-08
467300,東吉島,2018-03-23,23.25695,119.667467,0.037902936
C0I410,名間,2018-03-23,23.837053,120.701447,4.79271e-09
A2C560,農工中心,2018-03-23,24.985917,121.239833,7.581845e-08
C0V740,旗山,2018-03-23,22.888614,120.483597,0.8387496
C0Z061,玉里,2018-03-23,23.3215,121.339656,2.3062703e-09
C0S840,南田,2018-03-23,22.279725,120.889208,0.6578623
C1I470,杉林溪,2018-03-23,23.639517,120.786444,3.7189645e-09
C1X040,東原,2018-03-23,23.291597,120.463822,1.1919405e-08
C0R660,枋寮,2018-03-23,22.367722,120.590647,0.18478052
C1R120,上德文,2018-03-23,22.763272,120.704442,8.898453e-10
C0K450,大埤,2018-03-23,23.646074,120.431537,1.5141293e-08
C0UA00,土場,2018-03-23,24.576533,121.495333,1.3945771e-09
467080,宜蘭,2018-03-23,24.763975,121.756528,3.9019565e-09
C0N030,四草,2018-03-23,23.0235,120.1116,9.860217e-10
C0V650,彌陀,2018-03-23,22.783806,120.246361,2.0600229e-08
C0D660,新竹市東區,2018-03-23,24.798681,120.986942,4.6496657e-10
82S580,茶改東部分場,2018-03-23,22.907694,121.130139,8.7732764e-07
C0SB40,興隆,2018-03-23,22.913661,121.257469,6.99427e-05
C0C710,大溪永福,2018-03-23,24.892936,121.324975,3.5376182e-09
C0FA20,溫寮,2018-03-23,24.372177,120.583125,1.7138352e-09
C0V640,湖內,2018-03-23,22.887139,120.2445,7.4627543e-10
C0R910,下寮,2018-03-23,22.3929,120.5548,0.18852872
C0Z020,明里,2018-03-23,23.208717,121.262342,2.2456896e-09
C0M770,嘉義梅山,2018-03-23,23.585398,120.555587,9.067151e-08
G2F820,農業試驗所,2018-03-23,24.031261,120.688133,6.41362e-10
C0C660,楊梅,2018-03-23,24.912375,121.143047,7.889463e-09
C1E511,新開,2018-03-23,24.347703,120.827019,5.930724e-10
G2F820,農試所(霧峰),2018-03-23,24.031261,120.688133,6.41362e-10
C1I070,和社,2018-03-23,23.591131,120.888861,7.3153417e-10
C2F000,大肚,2018-03-23,24.15295,120.572117,5.019362e-10
C1S850,豐南,2018-03-23,23.122139,121.262389,1.6972254e-09
C2A920,富貴角,2018-03-23,25.263783,121.565258,5.6009934e-08
CAH030,茶改場竹圍站,2018-03-23,23.860083,120.637528,5.7700156e-10
C0T960,光復,2018-03-23,23.660694,121.424964,2.4576776e-09
C0F9M0,豐原,2018-03-23,24.254322,120.720692,8.889903e-10
C0R720,旭海,2018-03-23,22.205403,120.887614,0.80981344
C0V710,苓雅,2018-03-23,22.622742,120.330669,1.7201164e-09
C0C740,觀音工業區,2018-03-23,25.064764,121.114856,1.4160915e-07
CAC040,拉拉山,2018-03-23,24.699317,121.427133,8.584735e-09
C0V790,萬山,2018-03-23,22.905944,120.688056,3.277079e-07
U2HA30,臺大和社,2018-03-23,23.590856,120.888864,7.3153417e-10
C0AJ90,澳底,2018-03-23,25.0552,121.9253,0.0012613428
C0Z100,東華,2018-03-23,23.89525,121.549833,2.974e-09
C0G970,三豐,2018-03-23,23.882,120.2895,3.4203966e-09
V2K610,大庄合作社,2018-03-23,23.8068,120.367939,9.323365e-10
C0V900,汕尾,2018-03-23,22.4782,120.4151,3.3631495e-10
C1R630,龍泉,2018-03-23,22.66701,120.59091,1.7570356e-06
C1AC50,關渡,2018-03-23,25.133486,121.469331,8.069474e-09
C0F9I0,神岡,2018-03-23,24.272481,120.658314,5.802606e-10
C0K460,斗南,2018-03-23,23.678734,120.478359,1.3003259e-08
467410,臺南,2018-03-23,22.993239,120.204772,8.688989e-10
C2O810,曾文,2018-03-23,23.219681,120.497328,9.034702e-07
467280,後龍,2018-03-23,24.648563,120.831834,1.0041679e-09
C1F9J1,清水林,2018-03-23,24.071242,120.820419,5.6849714e-10
C2A650,火燒寮,2018-03-23,25.002719,121.742892,1.9056222e-06
466930,竹子湖,2018-03-23,25.162078,121.544547,2.381504e-09
C1I220,樟湖,2018-03-23,23.905333,120.846983,1.6555328e-09
C0I390,仁愛,2018-03-23,24.022122,121.132206,1.2800997e-09
C0Z300,東里,2018-03-23,23.26853,121.30547,2.4673157e-09
C1V590,新發,2018-03-23,23.057019,120.646064,4.827306e-09
C0K510,水林,2018-03-23,23.572924,120.24597,5.605458e-09
72S590,東改賓朗果園,2018-03-23,22.813889,121.071278,3.4274995e-05
82A750,茶改北部分場,2018-03-23,24.955778,121.631222,1.2709136e-06
C1A750,石碇服務區,2018-03-23,25.00872,121.646242,8.087613e-08
C0X300,鹿寮,2018-03-23,23.386047,120.477331,4.800348e-05
G2AI50,關渡,2018-03-23,25.11575,121.492,3.0860086e-08
C0K590,雲林東勢,2018-03-23,23.674192,120.255721,5.633529e-09
C0A570,桶後,2018-03-23,24.848222,121.597992,2.7224528e-08
C1S800,華源,2018-03-23,22.657883,121.02325,2.010998e-08
C0G720,溪州,2018-03-23,23.851589,120.499093,8.0978235e-10
C1V160,達卡努瓦,2018-03-23,23.279811,120.705319,2.7414395e-09
C2M410,馬頭山,2018-03-23,23.324361,120.582017,7.2821846e-09
C0V850,蚵仔寮,2018-03-23,22.7256,120.2527,1.1379065e-08
C0S740,池上,2018-03-23,23.119628,121.209469,2.2691466e-09
C1V390,尖山,2018-03-23,22.813153,120.367789,2.1627924e-08
C0AH70,松山,2018-03-23,25.04871,121.55042,1.1394116e-08
C0N010,鯤鯓國小,2018-03-23,23.1879,120.0889,5.941333e-10
C0R550,新埤,2018-03-23,22.467947,120.582894,3.115036e-10
C0SA60,知本（水試所）,2018-03-23,22.702394,121.082761,8.031213e-08
C0T9I0,豐濱,2018-03-23,23.583897,121.514806,8.6875807e-10
C0UB00,淡江大學蘭陽校園,2018-03-23,24.823239,121.730383,2.0896199e-08
C0W240,九宮,2018-03-23,24.423753,118.240186,1.5362406e-08
C0T9N0,富里,2018-03-23,23.171639,121.249378,2.8214304e-09
U2HA50,臺大竹山,2018-03-23,23.756972,120.681556,1.8321174e-08
C0V840,鳳鼻頭,2018-03-23,22.5083,120.3591,1.4592146e-09
C0X140,西港,2018-03-23,23.125608,120.203108,3.3263858e-09
72D080,桃改五峰分場,2018-03-23,24.612194,121.157167,2.3594313e-09
C2H9P0,伊拿谷,2018-03-23,23.963211,121.088264,1.0909166e-09
C2H9F0,柑林,2018-03-23,24.018658,120.847072,6.981506e-10
C0TA20,加灣,2018-03-23,24.082025,121.608944,3.0482732e-07
C0V530,阿蓮,2018-03-23,22.883208,120.327508,1.2810798e-08
C1O880,關山,2018-03-23,23.173397,120.594092,6.624572e-07
C0E791,卓蘭,2018-03-23,24.3126,120.8244,7.5322826e-10
C1I030,武界,2018-03-23,23.913225,121.052483,1.1509087e-09
C0R520,崁頂,2018-03-23,22.514781,120.506914,5.643211e-08
C0R341,牡丹,2018-03-23,22.130036,120.792639,0.71350795
C0R930,萬丹,2018-03-23,22.5885,120.4851,1.33065e-07
C0S760,紅石,2018-03-23,23.069131,121.126219,1.3875574e-08
C1M610,石磐龍,2018-03-23,23.496606,120.663506,1.6109576e-09
C0UA10,鴛鴦湖,2018-03-23,24.590269,121.412228,6.803945e-09
V2C260,八德蔬果,2018-03-23,24.978508,121.281819,3.019332e-08
C0R800,丹路,2018-03-23,22.204481,120.750989,0.662426
C0G920,永靖,2018-03-23,23.924703,120.547533,4.569763e-10
C2M950,太和,2018-03-23,23.538372,120.702961,2.3908615e-09
C1A630,下盆,2018-03-23,24.771003,121.538622,4.480506e-09
B2N890,畜產試驗所,2018-03-23,23.058972,120.336406,2.5874327e-08
C0UA30,白嶺,2018-03-23,24.527819,121.519031,4.8378785e-09
C1V580,溪南(特生中心),2018-03-23,23.084972,120.788475,3.83551e-09
C1T970,大農,2018-03-23,23.615233,121.413331,8.5846474e-10
E2S960,林試太麻里2,2018-03-23,22.598014,120.989761,1.2987786e-07
C0R650,竹田,2018-03-23,22.58486,120.54344,5.8989997e-07
C1H900,清流,2018-03-23,24.080775,120.962997,8.1587676e-10
C1C510,水尾,2018-03-23,24.940081,121.087161,1.2398192e-08
C0F9X0,大雅(中科園區),2018-03-23,24.21528,120.62445,4.704304e-10
C0SB60,白守蓮,2018-03-23,23.126769,121.401914,2.1895392e-08
C0O970,虎頭埤,2018-03-23,23.021375,120.347878,6.069439e-08
C0C730,中大臨海站,2018-03-23,24.966126,121.008581,1.261746e-07
C0X250,新營,2018-03-23,23.310689,120.316681,1.8385656e-08
C0V700,三民,2018-03-23,22.645017,120.311233,1.2184478e-09
C0U870,大礁溪,2018-03-23,24.791042,121.675047,4.3461523e-09
C0E870,高鐵苗栗,2018-03-23,24.60725,120.826094,1.0093506e-09
A2K570,古坑花卉中心,2018-03-23,23.63353,120.55239,1.7059818e-07
C0M860,新美,2018-03-23,23.338017,120.683169,4.6222984e-10
C1E701,八卦,2018-03-23,24.491756,120.927619,1.050566e-09
C0I420,國姓,2018-03-23,24.037803,120.855072,6.5998407e-10
C2D720,關西工作站,2018-03-23,24.757275,121.184792,5.9943533e-10
C0S960,香蘭,2018-03-23,22.587569,120.993375,1.2987786e-07
C0R260,春日,2018-03-23,22.370361,120.628306,0.060704887
72G600,臺中農改場,2018-03-23,24.003028,120.534389,3.759902e-10
C0Z210,瑞穗,2018-03-23,23.5239,121.39021,1.255484e-09
C0M820,達邦,2018-03-23,23.453994,120.749517,9.367518e-10
C0V860,南寮,2018-03-23,22.7616,120.2339,1.1379065e-08
C0G740,大城,2018-03-23,23.852487,120.320935,3.311882e-09
C0R920,塭仔,2018-03-23,22.4169,120.5197,0.22668286
C0R470,高樹,2018-03-23,22.826389,120.600806,0.0012787965
C0R680,佳樂水,2018-03-23,21.993578,120.861633,0.08016691
C1O870,大棟山,2018-03-23,23.31157,120.52226,9.755031e-10
C0D360,梅花,2018-03-23,24.678347,121.208558,1.017795e-09
C0Z190,富世,2018-03-23,24.14743,121.6297,9.992641e-08
C0AI10,屈尺,2018-03-23,24.92184,121.54475,3.060224e-08
B2U990,畜試東區分所,2018-03-23,24.669039,121.832561,6.771191e-09
C0SB80,長濱漁港,2018-03-23,23.313644,121.459994,3.0816778e-09
C0R240,來義,2018-03-23,22.527306,120.625111,1.7257861e-08
C0V910,大樹,2018-03-23,22.684645,120.432803,6.2665575e-09
C1R610,西大武山,2018-03-23,22.617719,120.7322,2.1172458e-08
C0G900,線西,2018-03-23,24.143358,120.443536,5.984209e-10
C0M700,竹崎,2018-03-23,23.526178,120.555508,5.0403634e-07
C2E880,三義,2018-03-23,24.405478,120.749819,7.060636e-10
C0C720,竹圍,2018-03-23,25.112692,121.239824,3.0860086e-08
C0F9P0,清水,2018-03-23,24.312297,120.562242,1.255678e-09
C0Z150,吉安光華,2018-03-23,23.930925,121.595153,5.8030736e-09
C1D640,外坪(五指山),2018-03-23,24.644447,121.090961,1.3540754e-09
C0F9O0,潭子,2018-03-23,24.213106,120.703933,1.074854e-09
C2H9R0,卓社,2018-03-23,23.887894,121.000086,2.0426811e-09
72T250,花蓮農改場,2018-03-23,23.975222,121.563889,8.857142e-09
C0E780,銅鑼,2018-03-23,24.489681,120.790853,8.730054e-10
C1T950,太安,2018-03-23,23.666719,121.370128,1.782563e-08
C0E830,苑裡,2018-03-23,24.439714,120.653053,1.6072715e-09
467270,田中,2018-03-23,23.873803,120.581286,1.951759e-09
C0SA10,檳榔四格山,2018-03-23,22.810031,121.109308,1.359076e-06
C1T830,布洛灣,2018-03-23,24.17184,121.57127,1.4381585e-07
C0F970,大坑,2018-03-23,24.173142,120.722289,6.6809247e-10
C1U920,思源,2018-03-23,24.393125,121.347214,9.375012e-09
C0A931,三和,2018-03-23,25.233153,121.595236,6.9709443e-09
C0I010,廬山,2018-03-23,24.033311,121.181808,2.681517e-09
C2M940,日野賀,2018-03-23,23.434056,120.727169,1.3205858e-09
C0R860,鼻頭,2018-03-23,22.1043,120.8979,0.11525421
C0UB20,壯圍,2018-03-23,24.7359,121.8163,1.0276909e-09
C0R790,九棚,2018-03-23,22.14195,120.889281,0.60996586
C0W110,東莒,2018-03-23,25.9652,119.98069,4.936848e-08
C1U930,粉鳥林,2018-03-23,24.497088,121.842479,2.4994054e-07
C1I211,蘆竹湳,2018-03-23,23.934019,120.811994,5.075024e-10
C0S830,長濱,2018-03-23,23.286817,121.411975,2.0758937e-09
C1F9F1,伯公龍,2018-03-23,24.272392,120.849047,6.868537e-10
C0E810,西湖,2018-03-23,24.562947,120.7485,3.933085e-09
C1I440,新高口,2018-03-23,23.478744,120.878939,4.907985e-09
C0O840,王爺宮,2018-03-23,23.222064,120.40085,2.0520933e-08
C0T9G0,鳳林山,2018-03-23,23.735269,121.420131,2.5503264e-09
C0X080,佳里,2018-03-23,23.173039,120.145086,5.941333e-10
C0FB70,大甲溪埔,2018-03-23,24.370625,120.620067,1.6902989e-09
C0Z310,清水斷崖,2018-03-23,24.218294,121.689142,2.6090746e-08
C0M680,太保,2018-03-23,23.455062,120.331455,1.2617231e-07
C1S820,金峰,2018-03-23,22.590969,120.933236,1.9259845e-08
C0AD10,八里,2018-03-23,25.150211,121.403947,3.0846845e-08
C2K240,草嶺,2018-03-23,23.59555,120.693461,1.2112115e-09
C1SA70,都蘭,2018-03-23,22.87794,121.226881,6.99427e-05
C0K440,二崙,2018-03-23,23.772797,120.408944,1.7140314e-09
C1A760,坪林交控,2018-03-23,24.94284,121.713442,2.3201855e-07
C0F9N0,大里,2018-03-23,24.092464,120.701378,6.5232864e-10
C0SA90,達仁林場,2018-03-23,22.264347,120.823972,0.23401147
C1R290,石門山,2018-03-23,22.112611,120.756597,0.7886446
42HA10,萬大發電廠,2018-03-23,23.978875,121.139639,1.2240124e-09
C0R890,山海,2018-03-23,21.9878,120.7091,0.16699788
C0T9A0,月眉山,2018-03-23,23.809928,121.539828,2.4832496e-09
C0AC70,信義,2018-03-23,25.037822,121.564597,1.1394116e-08
C0K560,棋山,2018-03-23,23.68645,120.603417,1.2548088e-07
C2FB50,出雲,2018-03-23,24.206469,120.902794,1.8384804e-09
C1Z240,中平林道,2018-03-23,23.42115,121.26763,1.7297936e-08
U2H480,溪頭,2018-03-23,23.670306,120.798194,1.6023709e-09
C0M880,好美里,2018-03-23,23.3364,120.138,6.645365e-10
C0T9E0,大坑,2018-03-23,23.880628,121.581981,2.4195104e-09
C0K530,臺西,2018-03-23,23.701547,120.197559,1.8719828e-09
C1E900,國一N128K,2018-03-23,24.560997,120.844186,8.882954e-10
C0AJ50,水湳洞,2018-03-23,25.123695,121.862238,1.8617594e-07
C0AI20,白沙灣,2018-03-23,25.283128,121.519058,3.7331736e-07
C0A860,大坪,2018-03-23,25.165914,121.632969,2.5606988e-09
C1U850,觀音海岸,2018-03-23,24.38319,121.77856,6.521187e-09
C2K610,草嶺石壁,2018-03-23,23.602469,120.707731,1.2695518e-09
C0U950,鶯子嶺,2018-03-23,24.89754,121.79244,9.5171295e-08
C0O900,善化,2018-03-23,23.112883,120.297219,3.7432194e-08
C0K550,蔦松,2018-03-23,23.514319,120.229736,1.0699898e-09
E2P980,林試六龜中心,2018-03-23,22.991703,120.645722,1.615416e-07
C0E590,通霄,2018-03-23,24.471892,120.704622,2.1063171e-09
C1I310,西巒,2018-03-23,23.754486,120.883956,1.3146397e-09
C0A550,泰平,2018-03-23,24.971197,121.823711,1.1154909e-06
C0I360,水里,2018-03-23,23.812553,120.849792,9.988745e-10
C0R830,高士,2018-03-23,22.121825,120.836781,0.73769754
C1I101,溪頭,2018-03-23,23.661789,120.807647,4.8413495e-09
C0AJ20,野柳,2018-03-23,25.20703,121.690021,1.5981446e-08
C0B060,暖暖,2018-03-23,25.0957,121.7403,1.3750325e-08
C1H920,長豐,2018-03-23,24.102039,120.879897,5.8354926e-10
C0V360,內門,2018-03-23,22.975481,120.466769,0.005942466
C0R850,林邊,2018-03-23,22.4634,120.5339,3.2572278e-10
C0E930,龍鳳,2018-03-23,24.700034,120.859125,1.0991352e-09
C0U910,冬山,2018-03-23,24.63373,121.7937,6.771191e-09
C1E721,泰安,2018-03-23,24.489017,120.968036,2.3963584e-09
82H320,茶改中部分場,2018-03-23,23.875611,120.913583,1.0194152e-09
C0M750,布袋,2018-03-23,23.380878,120.167789,1.1868537e-09
C1S860,利嘉,2018-03-23,22.809417,121.050528,6.72832e-09
72C440,桃園農改,2018-03-23,24.950944,121.030583,1.9081627e-08
E2S980,林試太麻里1,2018-03-23,22.598922,120.980044,4.7662024e-08
C0X170,關廟,2018-03-23,22.963017,120.327797,3.1065248e-08
C0V720,林園,2018-03-23,22.507747,120.394511,1.3119095e-09
C1I510,線浸林道,2018-03-23,23.761508,120.832956,2.3119606e-09
C0D690,外湖,2018-03-23,24.917735,120.968711,3.1688046e-08
C0C750,新興坑尾,2018-03-23,25.0061,121.0971,5.885407e-08
B2Q810,畜試南區分所,2018-03-23,21.945583,120.802167,0.081656694
C0S790,金崙,2018-03-23,22.538122,120.966875,6.6253115e-08
C0AH90,福山植物園,2018-03-23,24.760717,121.58135,4.8782227e-09
C0I540,奇萊稜線,2018-03-23,24.109231,121.326456,1.6585616e-08
C0M850,表湖,2018-03-23,23.24186,120.64166,1.8331405e-09
C0S770,大溪山,2018-03-23,22.478475,120.943325,7.288094e-08
C0AG80,中和,2018-03-23,24.991622,121.491792,3.2199956e-08
C0T790,大禹嶺,2018-03-23,24.186117,121.316086,7.014652e-09
C0T9B0,水源,2018-03-23,23.991861,121.537169,3.819449e-09
C0R840,牡丹池山,2018-03-23,22.168389,120.841225,0.9589388
C1I131,桶頭,2018-03-23,23.641944,120.654117,7.597824e-09
CAL110,布袋國中,2018-03-23,23.35893,120.18026,1.1868537e-09
467571,新竹,2018-03-23,24.827853,121.014219,1.9284685e-09
C0Z290,赤柯山,2018-03-23,23.36893,121.38293,5.6625185e-09
C0X280,將軍,2018-03-23,23.214999,120.13577,5.2745835e-10
C0S690,太麻里,2018-03-23,22.60902,120.98533,6.332365e-09
C0U880,北關,2018-03-23,24.9072,121.8734,4.811329e-06
C1H860,瑞岩,2018-03-23,24.123772,121.18345,3.975661e-09
C0G810,埔心,2018-03-23,23.947633,120.525456,4.5728057e-10
C0U970,大福,2018-03-23,24.80064,121.81389,3.9629273e-09
C2H9N0,仁愛東眼,2018-03-23,24.026875,121.1205,2.2064037e-09
C1E670,南礦,2018-03-23,24.538278,121.002836,2.2806625e-09
C0M520,東後寮,2018-03-23,23.369908,120.248065,1.0996322e-09
C1E461,松安,2018-03-23,24.397972,120.986022,2.274715e-09
72G600,臺中農改,2018-03-23,24.003028,120.534389,3.759902e-10
C2N160,西拉雅風管處,2018-03-23,23.189481,120.335297,1.1214835e-06
C2M970,碧湖,2018-03-23,23.568632,120.624165,1.0031629e-09
C0A640,石碇,2018-03-23,24.993969,121.662917,2.4338366e-08
E2S960,林試太麻里2,2018-03-23,22.598,120.99775,1.4960202e-07
C0F9Y0,桃山,2018-03-23,24.432739,121.303808,1.5976537e-08
C1I020,萬大,2018-03-23,23.979817,121.132261,1.2993882e-09
C0U940,羅東,2018-03-23,24.68184,121.74934,1.0179619e-09
C0M650,朴子,2018-03-23,23.43463,120.23902,1.9604296e-09
C1I500,大尖山,2018-03-23,23.858572,120.994889,6.0108314e-09
C0G820,田尾,2018-03-23,23.901669,120.509389,4.5711054e-10
E2K600,四湖植物園,2018-03-23,23.676986,120.163433,1.3372436e-09
C0S730,綠島,2018-03-23,22.6672,121.47533,0.0004453625
12Q970,東港工作站,2018-03-23,22.479997,120.466058,3.366198e-10
C0E430,南庄,2018-03-23,24.601775,121.000214,8.9048713e-10
C1TA00,太魯閣,2018-03-23,24.15773,121.6236,8.9093994e-08
466920,臺北,2018-03-23,25.037658,121.514853,1.1394116e-08
C0R600,舊泰武,2018-03-23,22.588194,120.664944,5.7763033e-10
C1I260,北坑,2018-03-23,23.9246,121.006903,5.2626953e-10
466910,鞍部,2018-03-23,25.182586,121.529731,5.34798e-09
C1I230,九份二山,2018-03-23,23.961944,120.845,9.67489e-10
C2A660,瑞芳,2018-03-23,25.113169,121.801147,1.0243492e-07
C0R270,琉球嶼,2018-03-23,22.332244,120.362236,2.8857631e-08
C1T990,高寮,2018-03-23,23.394239,121.356808,3.526758e-09
C0G620,芬園,2018-03-23,24.015678,120.6213,6.043465e-10
C1Z140,荖溪,2018-03-23,23.890575,121.45964,1.6691676e-08
C1I201,中心崙,2018-03-23,23.728722,120.712097,4.2513706e-10
C1I400,凌霄,2018-03-23,24.018778,121.004456,2.1148152e-09
C1M640,十字,2018-03-23,23.492153,120.753683,2.6618117e-09
G2P820,農試鳳山分所,2018-03-23,22.646611,120.356083,1.0812901e-09
C0Z270,蕃薯寮,2018-03-23,23.73835,121.540108,1.791137e-09
C0F9Q0,外埔,2018-03-23,24.347817,120.705686,7.1964623e-10
C0K580,高鐵雲林,2018-03-23,23.737456,120.417944,2.5714861e-09
C2I090,鳳凰,2018-03-23,23.728081,120.787347,8.6925694e-10
C0U990,員山,2018-03-23,24.74435,121.72247,1.0158477e-09
C0V770,大社,2018-03-23,22.730306,120.346639,9.2573105e-09
C0X120,麻豆,2018-03-23,23.183289,120.248611,6.631807e-09
C0C670,龍潭,2018-03-23,24.870056,121.221389,1.1318084e-09
C0D680,香山濕地,2018-03-23,24.783581,120.914988,4.8447096e-10
C0S980,勝林山,2018-03-23,22.430439,120.8938,2.8647426e-08
C0V730,大寮,2018-03-23,22.605614,120.395717,1.5550453e-09
C0R570,麟洛,2018-03-23,22.65078,120.52719,0.00025401518
C2M930,石卓,2018-03-23,23.478744,120.702264,3.2394971e-09
C0G9B0,和美,2018-03-23,24.105169,120.492131,4.6449852e-10
CAG100,王功漁港,2018-03-23,23.96824,120.32586,4.342515e-09
C0X290,北門,2018-03-23,23.267772,120.125481,5.2745736e-10
C2F930,大甲,2018-03-23,24.347667,120.640403,1.6115477e-09
C0D650,湖口,2018-03-23,24.904794,121.043628,1.3548046e-08
C0E420,竹南,2018-03-23,24.708978,120.888897,1.0876651e-09
C0U780,五結,2018-03-23,24.68637,121.79794,1.0276909e-09
C1I250,鯉潭,2018-03-23,23.961922,120.991131,8.4654783e-10
C0R130,阿禮,2018-03-23,22.742908,120.743678,1.1820079e-09
C0X100,臺南市北區,2018-03-23,23.010394,120.194228,9.548213e-10
C0S920,金峰嘉蘭,2018-03-23,22.594789,120.960825,4.2844903e-08
C0V490,新興,2018-03-23,22.627422,120.298803,1.71714e-09
C0F9K0,大安,2018-03-23,24.345061,120.588025,1.6862094e-09
72N100,臺南農改,2018-03-23,23.0605,120.342194,2.5896643e-08
467290,古坑,2018-03-23,23.633639,120.551889,1.7059818e-07
C2E970,八甲,2018-03-23,24.535811,120.795983,8.4164864e-10
C0V440,鳳山,2018-03-23,22.646653,120.356122,1.0812901e-09
C1T940,大觀,2018-03-23,23.714206,121.373133,2.205272e-09
72T250,花蓮農改,2018-03-23,23.975222,121.563889,8.857142e-09
C0E740,造橋,2018-03-23,24.637056,120.864778,1.0093506e-09
C0R100,尾寮山,2018-03-23,22.833111,120.683889,1.1836616e-09
A2K630,臺大雲林校區,2018-03-23,23.730628,120.423903,2.5714861e-09
C0D580,寶山,2018-03-23,24.735006,121.025192,1.929955e-09
E2P990,林試扇平站,2018-03-23,22.9677,120.6857,1.1158309e-09
C0AI30,三重,2018-03-23,25.057328,121.500629,1.2917161e-08
C0AH00,汐止,2018-03-23,25.066881,121.658778,1.1394116e-08
C1Z040,立山,2018-03-23,23.443356,121.327375,3.6410142e-09
C0W130,花嶼,2018-03-23,23.40007,119.32276,0.0009328027
C0A950,鼻頭角,2018-03-23,25.129036,121.923372,0.9693991
C0K470,林內,2018-03-23,23.748675,120.609642,7.2367584e-08
C2F990,摩天嶺,2018-03-23,24.322458,120.936819,1.7810668e-09
82C160,茶改場,2018-03-23,24.908472,121.185333,5.7860534e-09
C0Z320,清水林道,2018-03-23,23.27125,121.188272,4.6596735e-09
C0R760,南仁湖,2018-03-23,22.084681,120.863353,0.7886446
C0M670,大林,2018-03-23,23.600616,120.45841,1.15241654e-07
C0M800,茶山,2018-03-23,23.299075,120.664767,5.2685606e-10
C0A9C0,天母,2018-03-23,25.117494,121.537169,2.3291925e-08
72K220,南改斗南分場,2018-03-23,23.634556,120.477333,1.3003259e-08
72AI40,桃改樹林分場,2018-03-23,24.944503,121.386972,1.672135e-07
C0S910,蘭嶼燈塔,2018-03-23,22.081197,121.503117,0.7263022
C0B050,八斗子,2018-03-23,25.144754,121.79167,2.3102717e-07
C0U900,內城,2018-03-23,24.71813,121.68766,1.0026081e-09
C0X320,柳營,2018-03-23,23.253328,120.375253,3.1355214e-07
C0M790,新港,2018-03-23,23.553269,120.345728,1.39462575e-08
C0F9T0,西屯,2018-03-23,24.179494,120.641275,3.387924e-10
C0SA30,都歷,2018-03-23,23.020333,121.323642,3.225897e-08
C0C620,蘆竹,2018-03-23,25.084275,121.265767,6.069358e-08
C0R730,大坪頂,2018-03-23,22.024633,120.69355,0.05081559
C0AJ40,石門,2018-03-23,25.273672,121.601198,7.924123e-08
C0E750,苗栗,2018-03-23,24.564569,120.824575,9.0048224e-10
C0T870,鯉魚潭,2018-03-23,23.935639,121.508944,3.6995158e-09
C1V170,排雲,2018-03-23,23.463619,120.954147,1.5186354e-08
C2H950,中寮,2018-03-23,23.884447,120.766406,3.995868e-09
C0R350,貓鼻頭,2018-03-23,21.921774,120.7358,0.9124917
C0V660,岡山,2018-03-23,22.797078,120.294958,2.0647118e-08
C1H941,雙冬,2018-03-23,23.967378,120.802189,5.346448e-10
C0AJ70,田寮,2018-03-23,25.2698,121.4886,4.005e-07
C0AI00,五股,2018-03-23,25.07445,121.42728,6.934701e-09
C0Z280,德武,2018-03-23,23.47426,121.41071,2.9816278e-09
C0R700,枋山,2018-03-23,22.246844,120.661086,0.04186378
C0C460,復興,2018-03-23,24.820208,121.352281,1.0126191e-09
E2H360,蓮華池,2018-03-23,23.918333,120.885278,5.757384e-10
C0M640,中埔,2018-03-23,23.42538,120.5229,1.1537961e-06
C0W140,金沙,2018-03-23,24.488292,118.408778,2.6437394e-08
C2A540,四堵,2018-03-23,24.8926,121.745736,9.6820045e-08
C0ACA0,新莊,2018-03-23,25.051478,121.446756,1.0684306e-07
C0R220,潮州,2018-03-23,22.534361,120.54,5.353177e-08
U2HA40,臺大內茅埔,2018-03-23,23.689722,120.851117,4.7161364e-10
467490,臺中,2018-03-23,24.145736,120.684075,7.86077e-10
C0U960,翠峰湖,2018-03-23,24.510856,121.608044,9.082934e-09
E2HA20,林試畢祿溪站,2018-03-23,24.226944,121.308522,5.987797e-09
C0V890,前鎮,2018-03-23,22.5718,120.3117,1.809791e-09
467620,蘭嶼,2018-03-23,22.036969,121.558339,0.9906973
C1F941,雪嶺,2018-03-23,24.280586,121.026642,1.1833597e-08
C2H9E0,國姓南港,2018-03-23,23.911108,120.846556,1.7258115e-09
C0AC80,文山,2018-03-23,25.00235,121.575728,1.7047824e-08
C0F9R0,龍井,2018-03-23,24.184536,120.528972,7.5192486e-10
C0M760,民雄,2018-03-23,23.551754,120.428457,1.5082598e-07
C0UA40,西德山,2018-03-23,24.560647,121.752608,5.102212e-09
C1T920,中興,2018-03-23,23.769503,121.498653,2.0741087e-09
C0D550,雪霸,2018-03-23,24.526972,121.11605,5.0107944e-09
C2F860,梨山,2018-03-23,24.247522,121.243669,6.198289e-09
C0R320,車城,2018-03-23,22.0744,120.716247,0.05840681
C1S870,南美山,2018-03-23,23.15025,121.382333,2.8268818e-09
C0B020,基隆嶼,2018-03-23,25.19141,121.78391,0.50599504
C1U501,牛鬥,2018-03-23,24.637836,121.573656,1.8533735e-09
C0M730,嘉義市東區,2018-03-23,23.457673,120.460531,9.521024e-05
C0S700,知本,2018-03-23,22.684866,121.005642,6.4253656e-09
C1N001,沙崙,2018-03-23,22.935472,120.309406,3.682249e-08
C0V760,橋頭,2018-03-23,22.757806,120.30575,1.0115115e-08
C0G960,福寶,2018-03-23,24.0443,120.3814,4.802471e-10
C0X210,白河,2018-03-23,23.347466,120.414427,0.00024609297
C0S810,東河,2018-03-23,22.972672,121.303986,0.0014044022
C2R170,屏東,2018-03-23,22.66027,120.49403,0.00025401518
C0R670,楓港,2018-03-23,22.190131,120.692156,0.23065417
C0FA50,霧峰,2018-03-23,24.0419,120.6995,6.4819977e-10
C0UB10,蘇澳,2018-03-23,24.5969,121.8571,1.7030763e-08
C0G950,防潮門,2018-03-23,24.1835,120.4871,7.526667e-10
C0M740,六腳,2018-03-23,23.492871,120.290625,8.439945e-09
C1R250,力里,2018-03-23,22.428117,120.629228,4.5128895e-10
C0K330,虎尾,2018-03-23,23.719183,120.442036,2.3480686e-09
C2FA00,烏石坑,2018-03-23,24.273503,120.947617,1.7390686e-09
C0V620,永安,2018-03-23,22.82315,120.236856,2.0600229e-08
C1I330,楓樹林,2018-03-23,23.986803,121.076117,1.6072194e-09
C0W200,湖西,2018-03-23,23.596314,119.67275,0.0027600375
72Q010,高雄農改場,2018-03-23,22.709333,120.525889,0.004949841
C0SA40,瑞和,2018-03-23,22.974361,121.156697,2.8292243e-08
C0C680,龜山,2018-03-23,25.02846,121.38656,4.730174e-09
C2V260,月眉,2018-03-23,22.971003,120.539853,0.38997668
C0V450,鳳森,2018-03-23,22.545064,120.392592,9.386601e-10
C0U720,南山,2018-03-23,24.43742,121.38167,3.5976342e-09
A2N290,臺南蘭花園區,2018-03-23,23.340258,120.379661,2.8474032e-08
C0R560,新園,2018-03-23,22.5434,120.461558,1.3119095e-09
C0U890,三星,2018-03-23,24.66812,121.65302,1.7893e-09
C1V300,御油山,2018-03-23,23.001983,120.715364,4.48615e-09
C0U600,礁溪,2018-03-23,24.817539,121.765608,2.9089845e-08
C1T980,龍澗,2018-03-23,24.023289,121.411328,2.1902117e-08
C0D670,海天一線,2018-03-23,24.831986,120.914438,6.5478343e-09
C0SA00,歷坵,2018-03-23,22.520969,120.89185,1.5516685e-08
C0M710,東石,2018-03-23,23.458927,120.15385,7.0484185e-10
C0M780,鹿草,2018-03-23,23.41134,120.30835,1.7787922e-09
C0U520,雙連埤,2018-03-23,24.753033,121.641303,4.298551e-09
C0B010,七堵,2018-03-23,25.094819,121.71713,1.8367045e-08
C0R480,長治,2018-03-23,22.693128,120.542622,5.017355e-09
C1V830,國三S383K,2018-03-23,22.781967,120.426475,1.8420216e-05
12Q980,恆春工作站,2018-03-23,22.079678,120.714425,0.05840681
C1O940,東山服務區,2018-03-23,23.286016,120.398472,6.631021e-05
C1U840,東澳嶺,2018-03-23,24.5378,121.8485,9.616831e-09
C1D630,飛鳳山,2018-03-23,24.766464,121.119178,5.845797e-10
C0S940,石寧山,2018-03-23,23.223772,121.406639,2.6832208e-09
C0K410,北港,2018-03-23,23.573957,120.292802,5.2043427e-09
C2M620,瑞里,2018-03-23,23.545133,120.675197,2.0202853e-09
C0SB70,小港漁港,2018-03-23,23.158558,121.400431,8.429183e-09
C2O950,安南,2018-03-23,23.076694,120.144861,7.4135537e-10
C0F0E0,南湖圈谷,2018-03-23,24.363714,121.444667,2.9802422e-08
467610,成功,2018-03-23,23.097486,121.373428,1.3912064e-08
C0G890,伸港,2018-03-23,24.148933,120.484403,5.984209e-10
C2E540,龍溪,2018-03-23,24.606489,120.783933,1.0049516e-09
C1V200,梅山,2018-03-23,23.268447,120.823556,2.4716913e-09
C0T9H0,加路蘭山,2018-03-23,23.682947,121.5274,3.1876677e-09
C2O930,玉井,2018-03-23,23.126042,120.46055,1.3245503e-06
C1F911,新伯公,2018-03-23,24.221361,120.841069,7.748116e-10
C0R490,九如,2018-03-23,22.7405,120.490503,0.008854864
C0X200,左鎮,2018-03-23,23.056758,120.408522,8.280858e-08
C0SB50,叭嗡嗡,2018-03-23,23.047062,121.343223,2.2662763e-07
C1F891,稍來,2018-03-23,24.265689,121.001142,8.415399e-09
72N240,七股研究中心,2018-03-23,23.081672,120.062894,7.763279e-10
C0C700,中壢,2018-03-23,24.977661,121.256375,2.1991028e-08
C0M690,水上,2018-03-23,23.419734,120.388909,1.04431564e-07
C0V690,鼓山,2018-03-23,22.623325,120.275575,1.7136195e-09
C0O860,大內,2018-03-23,23.11885,120.36083,2.8008373e-08
C0Z200,萬榮,2018-03-23,23.709219,121.420106,1.5883493e-09
C0T9D0,和中,2018-03-23,24.26676,121.74103,5.3058553e-09
C1O921,楠西,2018-03-23,23.183511,120.484083,3.624654e-06
C0AJ30,淡水觀海,2018-03-23,25.184591,121.408616,5.3268888e-08
C0V810,左營,2018-03-23,22.67491,120.28491,1.2184478e-09
C0UA70,桃源谷,2018-03-23,24.962606,121.888875,5.393192e-07
C0X130,官田,2018-03-23,23.193217,120.315422,1.6103905e-06
C1H000,翠峰,2018-03-23,24.109397,121.205211,7.236396e-09
C0UA90,石城,2018-03-23,24.980444,121.951214,5.278092e-05
C1E681,南勢山,2018-03-23,24.421669,120.923831,1.5155182e-09
C0A9F0,內湖,2018-03-23,25.079422,121.57545,1.1394116e-08
C0K291,宜梧,2018-03-23,23.536281,120.169329,1.0699898e-09
C1K540,口湖,2018-03-23,23.585344,120.180517,8.025662e-10
C0R780,滿州,2018-03-23,22.024403,120.839892,0.030625038
C0V870,文安,2018-03-23,22.8025,120.2164,2.1556923e-08
C0U650,玉蘭,2018-03-23,24.675286,121.587061,2.6765044e-09
C0R640,東港,2018-03-23,22.46247,120.44074,3.3641634e-10
K2E360,苗栗農改,2018-03-23,24.495722,120.829111,9.456289e-10
C0AJ80,板橋,2018-03-23,25.0107,121.4489,3.9839676e-08
C0S660,下馬,2018-03-23,23.150427,121.070312,4.8342996e-09
C1H9B1,阿眉,2018-03-23,24.1263,120.994672,4.1558934e-09
C0UA20,多加屯,2018-03-23,24.368614,121.373189,6.4243975e-09
C0E730,頭份,2018-03-23,24.688247,120.912206,1.0951801e-09
72V140,高改旗南分場,2018-03-23,22.857861,120.516667,0.8780865
C0K480,莿桐,2018-03-23,23.761192,120.502372,3.300015e-09
C0U980,坪林石牌,2018-03-23,24.86478,121.77396,1.3891621e-08
C0T900,西林,2018-03-23,23.8119,121.441458,1.9454331e-09
C1I150,青雲,2018-03-23,23.793361,120.949378,4.1056955e-10
467350,澎湖,2018-03-23,23.565503,119.563094,0.0063999332
C0G800,埔鹽,2018-03-23,24.000394,120.431683,6.2242905e-10
C0H960,草屯,2018-03-23,23.973672,120.68085,6.045552e-10
C1V780,多納林道,2018-03-23,22.888028,120.737917,1.3176245e-09
C0E920,通霄漁港,2018-03-23,24.498589,120.673876,2.3850497e-09
C0Z330,安通山,2018-03-23,23.290728,121.348528,2.076765e-09
C0AH10,永和,2018-03-23,25.01125,121.508111,3.9839676e-08
C0AK10,太平里,2018-03-23,25.134937,121.364899,2.9739901e-08
C2G640,鹿港,2018-03-23,24.0753,120.430481,4.8024623e-10
C1E890,國三N149K,2018-03-23,24.463414,120.680019,1.5328357e-09
C1R110,口社,2018-03-23,22.770111,120.645222,1.6661164e-07
C1M870,國三N285K,2018-03-23,23.550319,120.505833,2.2246671e-07
467050,新屋,2018-03-23,25.006744,121.047486,9.916599e-08
C1E480,鳳美,2018-03-23,24.554803,121.034747,8.483339e-10
C0M530,奮起湖,2018-03-23,23.493903,120.699253,2.4321232e-09
C0C590,觀音,2018-03-23,25.027072,121.153317,6.5936064e-08
C0T9M0,靜浦,2018-03-23,23.455167,121.495028,4.056418e-09
C2H9M0,發祥,2018-03-23,24.154094,121.164517,2.1757502e-09
C0AI40,石牌,2018-03-23,25.115597,121.513139,2.4055916e-08
C1F871,上谷關,2018-03-23,24.203483,121.018644,1.6548478e-09
C2H9G0,百勝,2018-03-23,24.051142,120.909361,4.3605147e-10
C0G880,二水,2018-03-23,23.810742,120.6173,5.151096e-08
C0R940,加祿堂,2018-03-23,22.3363,120.6217,0.06309371
C0W220,北竿,2018-03-23,26.220358,119.974881,7.395088e-08
C0O960,崎頂,2018-03-23,22.959547,120.369317,1.1401899e-08
C0S750,向陽,2018-03-23,23.248397,120.986133,6.873481e-09
C0T9F0,水璉,2018-03-23,23.797131,121.542514,2.0077775e-09
C1M600,頭凍,2018-03-23,23.406364,120.603339,1.280957e-09
467660,臺東,2018-03-23,22.752211,121.154586,0.6248908
C1D380,新埔,2018-03-23,24.84745,121.03834,1.6514015e-09
C2G980,田頭村,2018-03-23,23.8263,120.444175,1.7140314e-09
C0V750,路竹,2018-03-23,22.854997,120.259439,7.2508577e-10
C0N050,蚵寮,2018-03-23,23.301,120.1104,6.645365e-10
72M700,南改鹿草分場,2018-03-23,23.416869,120.283061,1.9600594e-09
C1SA50,利嘉林道,2018-03-23,22.82325,121.009389,1.7865796e-08
467550,玉山,2018-03-23,23.487614,120.959522,1.8868421e-08
C0A940,金山,2018-03-23,25.223628,121.643967,1.4574158e-08
C1V340,大津,2018-03-23,22.888322,120.645986,0.0010781222
C0W180,七美,2018-03-23,23.219333,119.444892,0.008458087
C1F9C1,白冷,2018-03-23,24.182844,120.929889,7.2508854e-10
K2E710,苗改生物防治研究中心,2018-03-23,24.422861,120.871833,6.7961853e-10
C0N040,蘆竹溝,2018-03-23,23.2344,120.0961,5.2763743e-10
C2W230,畜試所澎湖,2018-03-23,23.628342,119.513206,3.965193e-05
C0R880,後壁湖,2018-03-23,21.9457,120.7457,0.18469821
C1I280,埔中,2018-03-23,23.820778,120.642594,5.8737276e-10
467790,墾丁雷達站,2018-03-23,21.948235,120.808028,0.06836945
C0W190,望安,2018-03-23,23.380564,119.494075,0.002073714
466881,新北,2018-03-23,24.9593,121.52,2.852736e-08
C0Z170,卓溪,2018-03-23,23.3443,121.3029,2.8654243e-09
C0F850,東勢,2018-03-23,24.246428,120.833047,6.9628614e-10
466900,淡水,2018-03-23,25.164889,121.448906,2.9739901e-08
C0I370,魚池,2018-03-23,23.895703,120.94135,5.64271e-10
C0C630,大溪,2018-03-23,24.882853,121.265547,1.3718071e-09
C0A520,山佳,2018-03-23,24.974944,121.402008,4.068872e-08
C0I110,竹山,2018-03-23,23.761225,120.688156,1.1362257e-08
82H840,茶改南部分場,2018-03-23,23.762528,120.7405,6.244839e-10
C0G660,溪湖,2018-03-23,23.94835,120.479122,4.694516e-10
C1T800,洛韶,2018-03-23,24.204558,121.453956,2.3981976e-08
C1T810,慈恩,2018-03-23,24.192044,121.388386,4.4974593e-09
C1E451,象鼻,2018-03-23,24.368617,120.940228,1.7383224e-09
C0AC60,三峽,2018-03-23,24.939025,121.369728,1.0121275e-07
C0I490,萬大林道,2018-03-23,23.928228,121.091411,3.1096472e-09
C1I290,豐丘,2018-03-23,23.668178,120.887417,1.7592763e-09
C1I320,奧萬大,2018-03-23,23.952956,121.178556,1.8020099e-09
C2M910,嘉義大學,2018-03-23,23.471325,120.485903,2.4385692e-05
C0U770,南澳,2018-03-23,24.44935,121.81022,8.061031e-08
C0A980,社子,2018-03-23,25.109508,121.469681,3.531391e-08
C0V800,六龜,2018-03-23,22.997889,120.633583,2.1593388e-07
C1G9D0,國一S218K,2018-03-23,23.890641,120.493253,8.5455704e-10
C0E570,白沙屯,2018-03-23,24.549447,120.696803,4.524079e-09
C2F9A0,中竹林,2018-03-23,24.103556,120.751061,5.246369e-10
C0FA40,臺中電廠,2018-03-23,24.2146,120.4907,7.5192486e-10
C2G9A0,畜試所彰化,2018-03-23,23.86045,120.557964,1.9506574e-09
C0H9C0,合歡山,2018-03-23,24.143442,121.272547,1.5281222e-08
C0X060,下營,2018-03-23,23.22695,120.256261,1.3486453e-08
G2M350,農試溪口農場,2018-03-23,23.58565,120.408111,1.966498e-07
C0U860,頭城,2018-03-23,24.85323,121.8308,3.2978523e-08
C0R580,南州,2018-03-23,22.48591,120.50274,3.3641634e-10
C0D430,峨眉,2018-03-23,24.6905,121.017189,4.618359e-10
C0G780,秀水,2018-03-23,24.03405,120.503869,3.7600745e-10
72N100,臺南農改場,2018-03-23,23.0605,120.342194,2.5896643e-08
C0S900,蘭嶼高中,2018-03-23,22.04909,121.51214,0.7197946
467540,大武,2018-03-23,22.355675,120.903789,0.38210148
C1F9W0,德基,2018-03-23,24.254783,121.190261,6.441133e-09
C1Z120,壽豐,2018-03-23,23.870853,121.508081,2.974e-09
C0W160,烏坵,2018-03-23,24.9944,119.44956,8.844636e-08
C1I240,外大坪,2018-03-23,23.958697,120.917931,8.6225715e-10
C1I550,國六W023K,2018-03-23,23.979067,120.867742,4.2917978e-10
C0R870,興海,2018-03-23,21.9752,120.8439,0.081656694
C0R140,瑪家,2018-03-23,22.682903,120.686639,6.3923944e-10
C0A530,坪林,2018-03-23,24.938183,121.70975,1.3512413e-07
C0X260,後壁,2018-03-23,23.366358,120.362326,2.8474032e-08
C0Z230,和平,2018-03-23,24.30717,121.77007,5.4125064e-09
C0G770,福興,2018-03-23,24.041289,120.437669,6.227853e-10
C0H9A0,神木村,2018-03-23,23.532742,120.843667,2.777985e-09
C0I460,南投,2018-03-23,23.911469,120.687331,2.0337707e-09
C0I480,梅峰,2018-03-23,24.085272,121.173572,4.1659645e-09
C1V570,吉東,2018-03-23,22.85422,120.5454,0.81366336
C2D740,屯原,2018-03-23,24.067969,121.209389,3.4632972e-09
C2A560,福山,2018-03-23,24.776203,121.502811,4.750363e-09
C0AH30,五分山,2018-03-23,25.07125,121.780794,2.5963015e-08
C0FA10,松柏,2018-03-23,24.429115,120.617482,1.6673943e-09
72S200,東改班鳩分場,2018-03-23,22.829528,121.077694,0.00025763377
72HA00,中改埔里分場,2018-03-23,23.903208,120.963364,5.5102733e-10
C2H9W0,大坪頂農水,2018-03-23,24.043122,120.932781,5.91861e-10
C0C650,平鎮,2018-03-23,24.897503,121.214636,5.252469e-09
C0S930,延平,2018-03-23,22.902581,121.084058,1.0233962e-07
C0UA60,樟樹山,2018-03-23,24.41393,121.78325,7.528121e-09
C1S670,摩天,2018-03-23,23.199503,121.027,1.5312411e-08
C0V630,茄萣,2018-03-23,22.906642,120.182608,7.9583923e-10
466940,基隆,2018-03-23,25.133314,121.740475,2.1406781e-07
C0X050,東河,2018-03-23,23.296598,120.385608,0.00015103315
C0R770,保力,2018-03-23,22.071122,120.764111,0.042042583
G2L020,農試嘉義分所,2018-03-23,23.485028,120.473806,4.936542e-06
C0X240,關子嶺,2018-03-23,23.331169,120.508025,3.6906005e-09
C0I380,集集,2018-03-23,23.828206,120.801467,1.0367908e-09
466990,花蓮,2018-03-23,23.975128,121.613275,1.0008718e-08
C1V220,小關山,2018-03-23,23.154217,120.813603,4.609948e-09
C1F9G1,慶福山,2018-03-23,24.180853,120.848378,7.147736e-10
C0Z250,瑞穗林道,2018-03-23,23.49284,121.30688,1.724368e-08
C0D590,新豐,2018-03-23,24.87068,120.97721,3.627096e-09
C0A870,五指山,2018-03-23,25.132153,121.608692,2.47438e-09
C0UA50,西帽山,2018-03-23,24.555361,121.802628,3.3477272e-09
C0X160,仁德,2018-03-23,22.968258,120.257689,6.9703994e-09
C1H971,六分寮,2018-03-23,23.92507,120.6378,6.40835e-10
C0W120,西嶼,2018-03-23,23.5626,119.468436,0.0016741643
C0G650,員林,2018-03-23,23.946503,120.585597,1.0849632e-09
C0AD50,鶯歌,2018-03-23,24.951533,121.346294,4.5956575e-08
C2H9Q0,北東眼山,2018-03-23,24.120939,121.189303,5.347837e-09
C2H9T0,名間竹圍,2018-03-23,23.859914,120.637572,5.7700156e-10
C0S990,山豬窟,2018-03-23,22.318619,120.857372,0.0021576735
72Q010,高雄農改,2018-03-23,22.709333,120.525889,0.004949841
C0X190,安平,2018-03-23,22.993161,120.152181,9.54763e-10
C0K400,斗六,2018-03-23,23.720583,120.541127,3.7439745e-09
12J990,口湖工作站,2018-03-23,23.589978,120.180394,8.018088e-10
C0O830,北寮,2018-03-23,23.079561,120.495008,0.008350324
C1D410,白蘭,2018-03-23,24.579364,121.079947,2.5937512e-09
C0S970,加津林,2018-03-23,22.416211,120.926942,0.3366643
C0D700,關西,2018-03-23,24.7977,121.1732,6.191303e-10
C0M810,里佳,2018-03-23,23.389125,120.716647,2.4550775e-09
C0U750,龜山島,2018-03-23,24.841667,121.953133,0.00019818326
C0R810,內獅,2018-03-23,22.305064,120.642986,0.060032275
C1M390,龍美,2018-03-23,23.406728,120.654417,1.6637696e-09
C2FB60,頭櫃山,2018-03-23,24.129842,120.858925,1.2895442e-09
C1H840,國三N238K,2018-03-23,23.841008,120.707711,6.631058e-10
CAQ030,崎峰國小,2018-03-23,22.42565,120.49521,3.3641634e-10
C2E520,大湖,2018-03-23,24.414939,120.870872,6.5706507e-10
467530,阿里山,2018-03-23,23.508208,120.813242,8.5043075e-09
C1E691,南湖,2018-03-23,24.40135,120.837533,1.1537352e-09
C0FA30,梧棲,2018-03-23,24.256003,120.523381,1.255678e-09
C1V231,高中,2018-03-23,23.134911,120.716711,1.0750795e-09
C0F9V0,新社,2018-03-23,24.200172,120.815806,6.9993855e-10
C0H890,埔里,2018-03-23,23.972169,120.952425,4.3731918e-10
C0R690,墾丁,2018-03-23,21.966756,120.810269,0.03176355
C0F0D0,審馬陣,2018-03-23,24.381675,121.4203,1.0772763e-08
C0R820,白鷺,2018-03-23,22.454275,120.666219,1.852663e-09
U2H480,臺大溪頭,2018-03-23,23.670306,120.798194,1.6023709e-09
C1V190,南天池,2018-03-23,23.27403,120.91176,5.7902154e-09
K2E360,苗栗農改場,2018-03-23,24.495722,120.829111,9.456289e-10
CAJ050,海口故事園區,2018-03-23,23.57543,120.14121,8.025662e-10
C2H9D0,三隻寮,2018-03-23,24.093078,120.861578,6.0971533e-10
C0O990,媽廟,2018-03-23,22.99175,120.293525,1.34320555e-08
C0D480,打鐵坑,2018-03-23,24.849664,121.150789,1.129725e-09
C0Z220,和平林道,2018-03-23,24.343922,121.656317,5.998977e-09
C0TA10,花蓮漁港,2018-03-23,23.995322,121.638331,1.1161379e-08
72C440,桃園農改場,2018-03-23,24.950944,121.030583,1.9081627e-08
C1E711,馬拉邦山,2018-03-23,24.367306,120.901656,1.8005016e-09
C0SB20,富岡,2018-03-23,22.792467,121.192669,0.6245939
C0D560,竹東,2018-03-23,24.767147,121.057881,6.4240513e-10
C0F9U0,南屯,2018-03-23,24.137006,120.637969,3.572292e-10
C0M720,番路,2018-03-23,23.464657,120.554156,1.5344665e-07
C0F0A0,雪山圈谷,2018-03-23,24.388594,121.236339,1.7229675e-08
C1A9N0,四十份,2018-03-23,24.934158,121.593283,5.290498e-08
C0U760,東澳,2018-03-23,24.52196,121.83318,2.2074093e-07
C0X230,鹽水,2018-03-23,23.272621,120.247641,6.276136e-10
C2H9H0,苗改南投蜂場,2018-03-23,23.852589,120.693481,5.7271032e-09
C0R950,萬隆國小,2018-03-23,22.507667,120.587817,3.2138473e-08
C0V370,古亭坑,2018-03-23,22.893178,120.401947,1.3239315e-06
C1I340,新興橋,2018-03-23,23.563333,120.868728,8.0337176e-10
C0SA80,土坂,2018-03-23,22.453108,120.887572,8.35037e-06
C0R160,鹽埔,2018-03-23,22.739558,120.530778,0.004949841
C0AC40,大屯山,2018-03-23,25.175675,121.522408,6.7921975e-09
466850,五分山雷達站,2018-03-23,25.071182,121.781205,2.5757187e-08
C2H9L0,馬烈霸,2018-03-23,24.1512,121.201772,5.2357354e-09
C1AI50,國三N016K,2018-03-23,25.034164,121.619664,8.4735925e-09
C1V600,藤枝,2018-03-23,23.071961,120.757042,3.2347798e-09
C1E601,南勢,2018-03-23,24.572486,120.734842,3.1643697e-09
C0Z180,新城,2018-03-23,24.03946,121.60454,9.7693915e-09
C0O980,新市,2018-03-23,23.061614,120.298197,3.7432194e-08
C0K420,西螺,2018-03-23,23.800407,120.467394,1.6281417e-09
C0Z050,佳心,2018-03-23,23.34567,121.21316,5.1518008e-09
C0AD30,蘆洲,2018-03-23,25.086594,121.472331,1.2917161e-08
C0V610,梓官,2018-03-23,22.760558,120.267211,1.0115115e-08
K2F750,種苗改良場,2018-03-23,24.225972,120.800917,7.320213e-10
C0UA80,大溪漁港,2018-03-23,24.941801,121.902955,3.600819e-06
C1AI60,國一39K邊坡,2018-03-23,25.064361,121.383836,5.4009566e-09
C0W150,金寧,2018-03-23,24.457703,118.328989,1.5488625e-08
C0R960,內埔,2018-03-23,22.608483,120.570714,4.3212867e-07
V2C250,八德合作社,2018-03-23,24.93775,121.266389,1.1035134e-08
C2H9S0,龍南,2018-03-23,23.953536,120.833183,1.0013258e-09
C0AH40,平等,2018-03-23,25.129142,121.577086,2.3657942e-09
C0R540,佳冬,2018-03-23,22.419456,120.552375,0.3205646
466950,彭佳嶼,2018-03-23,25.627975,122.079744,0.9917221
C0A890,雙溪,2018-03-23,25.036003,121.864242,0.00039540612
C0C480,桃園,2018-03-23,24.992425,121.323172,3.476277e-08
C0AH50,林口,2018-03-23,25.072181,121.38084,4.3920023e-09
A2K360,水試臺西試驗場,2018-03-23,23.717231,120.190522,1.919855e-09
B2N890,畜試所,2018-03-23,23.058972,120.336406,2.5874376e-08
C2M960,外寮,2018-03-23,23.562643,120.665688,1.0841895e-09
C0F9S0,烏日,2018-03-23,24.107058,120.624103,7.260185e-10
C0C490,八德,2018-03-23,24.928708,121.283289,1.0660852e-08
C0R190,赤山,2018-03-23,22.592333,120.614306,3.8850678e-07
C0T820,天祥,2018-03-23,24.179597,121.495639,6.146761e-08
C1F9E1,龍安,2018-03-23,24.1605,120.831961,6.095944e-10
C0V820,小林,2018-03-23,23.148408,120.63325,5.8361103e-08
C2G870,芳苑,2018-03-23,23.922303,120.320025,4.1916293e-09
C0E850,大河,2018-03-23,24.618069,120.948578,6.4028155e-10
C1U670,寒溪,2018-03-23,24.634,121.71691,6.14241e-09
C0N020,城西,2018-03-23,23.0568,120.0956,9.548213e-10
C1Z110,三棧,2018-03-23,24.11557,121.60501,3.69399e-08
C0R280,檳榔,2018-03-23,22.076078,120.836777,0.72775394
C2H9J0,中台,2018-03-23,23.9996,120.938739,4.5571072e-10
C0F9L0,后里,2018-03-23,24.310436,120.729725,8.4514745e-10
C0D540,橫山,2018-03-23,24.71116,121.11693,1.3801055e-09
C1D420,太閣南,2018-03-23,24.632808,121.160575,3.2420129e-09
C1E770,公館,2018-03-23,24.526914,120.830806,9.837824e-10
CAN130,水試所海水繁養殖中心,2018-03-23,23.120802,120.07968,7.763279e-10
C1I430,翠華,2018-03-23,24.191961,121.224339,4.088217e-09
C1M400,菜瓜坪,2018-03-23,23.251928,120.576103,1.9962798e-09
C0G730,二林,2018-03-23,23.903325,120.376081,6.4990074e-10
72M360,南改義竹分場,2018-03-23,23.360694,120.279361,1.0996322e-09
V2K620,麥寮合作社,2018-03-23,23.753836,120.294783,1.5214439e-09
C0Z070,舞鶴,2018-03-23,23.46811,121.37407,2.7615077e-09
C0B040,大武崙,2018-03-23,25.166676,121.706993,1.578865e-07
C1Z030,紅葉,2018-03-23,23.493119,121.338806,1.1647863e-09
C1I050,丹大,2018-03-23,23.753747,121.141147,7.579788e-09
C0I080,信義,2018-03-23,23.689694,120.851036,4.7161364e-10
C2M920,朴子農改,2018-03-23,23.469889,120.259383,1.959809e-09
C2A880,福隆,2018-03-23,25.017842,121.942083,6.202512e-05
C0Z160,鳳林,2018-03-23,23.746114,121.453411,1.5982503e-09
C0V210,復興,2018-03-23,23.222403,120.806089,2.3896534e-09
C0H990,昆陽,2018-03-23,24.121322,121.273642,1.3124481e-08
C0R741,獅子,2018-03-23,22.202308,120.705236,0.42205906
C0S710,鹿野,2018-03-23,22.917711,121.122994,4.7038577e-09
C0I530,小奇萊,2018-03-23,24.131764,121.295717,1.3793614e-08
C2K630,荷苞,2018-03-23,23.657717,120.595144,5.066276e-08
C0Z080,富源,2018-03-23,23.587642,121.378225,2.513763e-09
467441,高雄,2018-03-23,22.7304,120.3125,9.2573105e-09
C0SB10,美和,2018-03-23,22.682078,121.060236,8.0278745e-08
C2K620,馬光農場,2018-03-23,23.721453,120.378864,2.7375153e-09
C1I140,卡奈托灣,2018-03-23,23.754364,121.087872,2.5817575e-09
C0I520,玉山風口,2018-03-23,23.470489,120.955994,2.0538398e-08
C1G691,下水埔,2018-03-23,23.816114,120.5676,2.8269196e-09
C0X110,臺南市南區,2018-03-23,22.961189,120.188378,6.964791e-09
C0V680,仁武,2018-03-23,22.701083,120.347722,1.2184478e-09
C2G840,北斗,2018-03-23,23.877586,120.514222,8.0978235e-10
C0R900,竹坑,2018-03-23,22.1385,120.7022,0.05495532
C0K250,崙背,2018-03-23,23.75555,120.318925,1.5214439e-09
C0G860,社頭,2018-03-23,23.897647,120.5862,2.0273725e-09
C0X150,安定,2018-03-23,23.102614,120.227839,3.3259353e-09
C0R590,里港,2018-03-23,22.77919,120.49459,0.0003282402
C0E610,馬都安,2018-03-23,24.451272,120.930192,1.2422141e-09
C0E550,明德,2018-03-23,24.583486,120.885411,8.8927354e-10
C0R150,三地門,2018-03-23,22.709889,120.639944,2.0149011e-07
C0G910,花壇,2018-03-23,24.032076,120.549461,3.702938e-10
C1D400,鳥嘴山,2018-03-23,24.71909,121.28387,1.5313221e-09
C0K500,元長,2018-03-23,23.64981,120.315024,5.994505e-09
C0F0B0,石岡,2018-03-23,24.276061,120.777644,7.8240925e-10
C2V250,甲仙,2018-03-23,23.080106,120.591758,1.1139229e-05
C0SA20,金崙山,2018-03-23,22.567419,120.959667,6.2292695e-09
C0V350,溪埔,2018-03-23,22.738578,120.446797,0.00018516164
C0M660,溪口,2018-03-23,23.604131,120.403569,1.966498e-07
C1S880,壽卡,2018-03-23,22.238911,120.858903,0.34186623
72D680,桃改新埔分場,2018-03-23,24.834444,121.066111,1.6791967e-09
