站號,站名,日期,lat,lon,BlastGRU-TW
12J990,口湖工作站,2018-09-05,23.589978,120.180394,0.8319865
12Q970,東港工作站,2018-09-05,22.479997,120.466058,0.03505991
12Q980,恆春工作站,2018-09-05,22.079678,120.714425,0.041595962
466881,新北,2018-09-05,24.9593,121.52,0.097244315
466900,淡水,2018-09-05,25.164889,121.448906,0.13468237
466920,臺北,2018-09-05,25.037658,121.514853,0.08608337
466940,基隆,2018-09-05,25.133314,121.740475,0.09751872
466990,花蓮,2018-09-05,23.975128,121.613275,0.007841653
467050,新屋,2018-09-05,25.006744,121.047486,0.09319736
467080,宜蘭,2018-09-05,24.763975,121.756528,0.042609673
467270,田中,2018-09-05,23.873803,120.581286,0.045219008
467300,東吉島,2018-09-05,23.25695,119.667467,0.045588464
467350,澎湖,2018-09-05,23.565503,119.563094,0.022605972
467410,臺南,2018-09-05,22.993239,120.204772,0.04056741
467420,永康,2018-09-05,23.038386,120.2367,0.0392389
467441,高雄,2018-09-05,22.7304,120.3125,0.031529557
467480,嘉義,2018-09-05,23.495925,120.432906,0.033783693
467490,臺中,2018-09-05,24.145736,120.684075,0.9942831
467540,大武,2018-09-05,22.355675,120.903789,0.009940393
467571,新竹,2018-09-05,24.827853,121.014219,0.17104049
467590,恆春,2018-09-05,22.003897,120.746339,0.043722592
467610,成功,2018-09-05,23.097486,121.373428,0.0063356524
467620,蘭嶼,2018-09-05,22.036969,121.558339,0.9992352
467660,臺東,2018-09-05,22.752211,121.154586,0.010831075
467790,墾丁雷達站,2018-09-05,21.948235,120.808028,0.046412356
72AI40,桃改臺北分場,2018-09-05,24.944503,121.386972,0.12717201
72C440,桃園農改場,2018-09-05,24.950944,121.030583,0.09946299
72D680,新埔,2018-09-05,24.834444,121.066111,0.14650404
72G600,臺中農改場,2018-09-05,24.003028,120.534389,0.2283818
72K220,雲林分場,2018-09-05,23.634556,120.477333,0.058111843
72L140,朴子分場,2018-09-05,23.4982,120.2414,0.8464723
72M360,義竹工作站,2018-09-05,23.360694,120.279361,0.19840091
72M700,嘉義分場,2018-09-05,23.416869,120.283061,0.86519295
72N100,臺南農改場,2018-09-05,23.0605,120.342194,0.047121633
72N240,七股研究中心,2018-09-05,23.081672,120.062894,0.16108195
72Q010,高雄農改場,2018-09-05,22.709333,120.525889,0.010777733
72S200,斑鳩分場,2018-09-05,22.829528,121.077694,0.012995152
72S590,賓朗果園,2018-09-05,22.813889,121.071278,0.013709825
72T250,花蓮農改場,2018-09-05,23.975222,121.563889,0.0077726296
72U480,蘭陽分場,2018-09-05,24.686306,121.716583,0.053277727
72V140,旗南,2018-09-05,22.857861,120.516667,0.010895609
82A750,文山分場,2018-09-05,24.955778,121.631222,0.043273244
82C160,茶改場(楊梅),2018-09-05,24.908472,121.185333,0.24680957
82H840,凍頂工作站,2018-09-05,23.762528,120.7405,0.31125325
82S580,龍田,2018-09-05,22.907694,121.130139,0.005261956
A0K420,麥寮,2018-09-05,23.7988,120.2177,0.023408528
A0W080,吉貝,2018-09-05,23.74,119.6042,0.027721157
A2C560,農工中心,2018-09-05,24.985917,121.239833,0.21738715
A2K360,臺西分所,2018-09-05,23.717231,120.190522,0.024191514
A2K570,古坑(花卉中心),2018-09-05,23.633531,120.552392,0.079001404
A2K630,臺大雲林校區,2018-09-05,23.730628,120.423903,0.04180063
A2N290,臺南蘭花園區,2018-09-05,23.340258,120.379661,0.9100887
B2E890,新竹畜試,2018-09-05,24.527806,120.770972,0.9910551
B2N890,畜產試驗所,2018-09-05,23.058972,120.336406,0.047121633
B2Q810,恆春分所,2018-09-05,21.945583,120.802167,0.042999893
B2U990,宜蘭畜試,2018-09-05,24.669039,121.832561,0.05239407
C0A520,山佳,2018-09-05,24.974944,121.402008,0.12717201
C0A530,坪林,2018-09-05,24.938183,121.70975,0.094609
C0A540,四堵,2018-09-05,24.8926,121.745736,0.02393172
C0A550,泰平,2018-09-05,24.971197,121.823711,0.123405725
C0A560,福山,2018-09-05,24.776203,121.502811,0.043273225
C0A570,桶後,2018-09-05,24.848222,121.597992,0.015214291
C0A640,石碇,2018-09-05,24.993969,121.662917,0.07116767
C0A650,火燒寮,2018-09-05,25.002719,121.742892,0.08905806
C0A660,瑞芳,2018-09-05,25.113169,121.801147,0.05913596
C0A770,科教館,2018-09-05,25.096356,121.516507,0.10425564
C0A860,大坪,2018-09-05,25.165914,121.632969,0.022264393
C0A880,福隆,2018-09-05,25.017842,121.942083,0.05022757
C0A890,雙溪,2018-09-05,25.036003,121.864242,0.12201567
C0A920,富貴角,2018-09-05,25.263783,121.565258,0.28657988
C0A931,三和,2018-09-05,25.233153,121.595236,0.07716818
C0A940,金山,2018-09-05,25.223628,121.643967,0.16213347
C0A950,鼻頭角,2018-09-05,25.129036,121.923372,0.049706288
C0A970,三貂角,2018-09-05,25.007606,122.002058,0.067749985
C0A980,社子,2018-09-05,25.109508,121.469681,0.098252214
C0A9C0,天母,2018-09-05,25.117494,121.537169,0.11861249
C0A9F0,內湖,2018-09-05,25.079422,121.57545,0.08608337
C0AC60,三峽,2018-09-05,24.939025,121.369728,0.10456074
C0AC70,信義,2018-09-05,25.037822,121.564597,0.08608337
C0AC80,文山,2018-09-05,25.00235,121.575728,0.11969188
C0ACA0,新莊,2018-09-05,25.051478,121.446756,0.106110394
C0AD00,三芝,2018-09-05,25.258131,121.501917,0.2128903
C0AD10,八里,2018-09-05,25.150211,121.403947,0.13468237
C0AD30,蘆洲,2018-09-05,25.086594,121.472331,0.10425564
C0AD40,土城,2018-09-05,24.973208,121.445169,0.11108938
C0AD50,鶯歌,2018-09-05,24.951533,121.346294,0.23618856
C0AG80,中和,2018-09-05,24.991622,121.491792,0.08608337
C0AH00,汐止,2018-09-05,25.066881,121.658778,0.10127265
C0AH10,永和,2018-09-05,25.01125,121.508111,0.081668586
C0AH40,平等,2018-09-05,25.129142,121.577086,0.025269236
C0AH50,林口,2018-09-05,25.072181,121.38084,0.018958962
C0AH70,松山,2018-09-05,25.04871,121.55042,0.08608337
C0AH80,深坑,2018-09-05,25.002703,121.628328,0.11969188
C0AI00,五股,2018-09-05,25.07445,121.42728,0.19270776
C0AI10,屈尺,2018-09-05,24.92184,121.54475,0.11969188
C0AI20,白沙灣,2018-09-05,25.283128,121.519058,0.14192788
C0AI30,三重,2018-09-05,25.057328,121.500629,0.10425564
C0AI40,石牌,2018-09-05,25.115597,121.513139,0.11108938
C0AJ10,澳底,2018-09-05,25.057107,121.927272,0.04925186
C0AJ20,野柳,2018-09-05,25.20703,121.690021,0.10127265
C0AJ30,淡水觀海,2018-09-05,25.184591,121.408616,0.1265802
C0AJ40,石門,2018-09-05,25.273672,121.601198,0.46373186
C0AJ50,水湳洞,2018-09-05,25.123695,121.862238,0.10127259
C0AJ60,六塊厝,2018-09-05,25.24,121.4481,0.1265802
C0AJ70,田寮,2018-09-05,25.2698,121.4886,0.13483313
C0AJ80,板橋,2018-09-05,25.0107,121.4489,0.11108958
C0B010,七堵,2018-09-05,25.094819,121.71713,0.11116531
C0B020,基隆嶼,2018-09-05,25.19141,121.78391,0.10127265
C0B040,大武崙,2018-09-05,25.166676,121.706993,0.11116531
C0B050,八斗子,2018-09-05,25.144754,121.79167,0.094057195
C0B060,暖暖,2018-09-05,25.0957,121.7403,0.14313702
C0C460,復興,2018-09-05,24.820208,121.352281,0.014932384
C0C480,桃園,2018-09-05,24.992425,121.323172,0.1341794
C0C490,八德,2018-09-05,24.928708,121.283289,0.0709817
C0C590,觀音,2018-09-05,25.027072,121.153317,0.36926138
C0C620,蘆竹,2018-09-05,25.084275,121.265767,0.15352474
C0C630,大溪,2018-09-05,24.882853,121.265547,0.098294444
C0C650,平鎮,2018-09-05,24.897503,121.214636,0.24680957
C0C660,楊梅,2018-09-05,24.912375,121.143047,0.39652267
C0C670,龍潭,2018-09-05,24.870056,121.221389,0.010190862
C0C680,龜山,2018-09-05,25.02846,121.38656,0.014759321
C0C700,中壢,2018-09-05,24.977661,121.256375,0.16205251
C0C710,大溪永福,2018-09-05,24.892936,121.324975,0.25217628
C0C720,竹圍,2018-09-05,25.112692,121.239824,0.13468237
C0C730,中大臨海站,2018-09-05,24.966126,121.008581,0.0850962
C0C740,觀音工業區,2018-09-05,25.064764,121.114856,0.15635714
C0C750,新興坑尾,2018-09-05,25.0061,121.0971,0.23443934
C0D430,峨眉,2018-09-05,24.6905,121.017189,0.18035387
C0D480,打鐵坑,2018-09-05,24.849664,121.150789,0.008397777
C0D540,橫山,2018-09-05,24.71116,121.11693,0.012083224
C0D560,竹東,2018-09-05,24.767147,121.057881,0.26031768
C0D580,寶山,2018-09-05,24.735006,121.025192,0.0100927595
C0D590,新豐,2018-09-05,24.87068,120.97721,0.013114456
C0D650,湖口,2018-09-05,24.904794,121.043628,0.11926366
C0D660,新竹市東區,2018-09-05,24.798681,120.986942,0.19408618
C0D670,海天一線,2018-09-05,24.831986,120.914438,0.15957023
C0D680,香山濕地,2018-09-05,24.783581,120.914988,0.16932172
C0D690,外湖,2018-09-05,24.917735,120.968711,0.08509617
C0D700,關西,2018-09-05,24.7977,121.1732,0.13979894
C0E420,竹南,2018-09-05,24.708978,120.888897,0.2033104
C0E430,南庄,2018-09-05,24.601775,121.000214,0.010666837
C0E520,大湖,2018-09-05,24.41494,120.87087,0.020941602
C0E540,後龍,2018-09-05,24.606489,120.783933,0.97371185
C0E550,明德,2018-09-05,24.583486,120.885411,0.037700176
C0E590,通霄,2018-09-05,24.471892,120.704622,0.9868467
C0E730,頭份,2018-09-05,24.688247,120.912206,0.2033104
C0E740,造橋,2018-09-05,24.637056,120.864778,0.02639414
C0E750,苗栗,2018-09-05,24.564569,120.824575,0.9853893
C0E780,銅鑼,2018-09-05,24.489681,120.790853,0.042541698
C0E791,卓蘭,2018-09-05,24.3126,120.8244,0.28591433
C0E810,西湖,2018-09-05,24.562947,120.7485,0.9818061
C0E820,獅潭,2018-09-05,24.539133,120.920042,0.03209334
C0E830,苑裡,2018-09-05,24.439714,120.653053,0.9575483
C0E850,大河,2018-09-05,24.618069,120.948578,0.04207257
C0E870,高鐵苗栗,2018-09-05,24.60725,120.826094,0.9768391
C0E910,海埔,2018-09-05,24.648767,120.772435,0.02581404
C0E920,通霄漁港,2018-09-05,24.498589,120.673876,0.97578365
C0E930,龍鳳,2018-09-05,24.700034,120.859125,0.023904843
C0F000,大肚,2018-09-05,24.15295,120.572117,0.073420346
C0F0B0,石岡,2018-09-05,24.276061,120.777644,0.039968308
C0F850,東勢,2018-09-05,24.246428,120.833047,0.43342385
C0F930,大甲,2018-09-05,24.347667,120.640403,0.97567683
C0F970,大坑,2018-09-05,24.173142,120.722289,0.9944868
C0F9A0,中竹林,2018-09-05,24.103556,120.751061,0.1667105
C0F9I0,神岡,2018-09-05,24.272481,120.658314,0.07066876
C0F9K0,大安,2018-09-05,24.345061,120.588025,0.8980909
C0F9L0,后里,2018-09-05,24.310436,120.729725,0.1265646
C0F9M0,豐原,2018-09-05,24.254322,120.720692,0.09409536
C0F9N0,大里,2018-09-05,24.092464,120.701378,0.9869639
C0F9O0,潭子,2018-09-05,24.213106,120.703933,0.089376666
C0F9P0,清水,2018-09-05,24.312297,120.562242,0.8570703
C0F9Q0,外埔,2018-09-05,24.347817,120.705686,0.05037952
C0F9R0,龍井,2018-09-05,24.184536,120.528972,0.9507554
C0F9S0,烏日,2018-09-05,24.107058,120.624103,0.18683083
C0F9T0,西屯,2018-09-05,24.179494,120.641275,0.9874866
C0F9U0,南屯,2018-09-05,24.137006,120.637969,0.9869639
C0F9X0,大雅(中科園區),2018-09-05,24.21528,120.62445,0.9934136
C0FA10,松柏,2018-09-05,24.429115,120.617482,0.93063724
C0FA20,溫寮,2018-09-05,24.372177,120.583125,0.93063724
C0FA30,梧棲,2018-09-05,24.256003,120.523381,0.9507554
C0FA40,臺中電廠,2018-09-05,24.2146,120.4907,0.9507554
C0FA50,霧峰,2018-09-05,24.0419,120.6995,0.9934084
C0G620,芬園,2018-09-05,24.015678,120.6213,0.6661091
C0G640,鹿港,2018-09-05,24.0753,120.430481,0.18798949
C0G650,員林,2018-09-05,23.946503,120.585597,0.51603574
C0G660,溪湖,2018-09-05,23.94835,120.479122,0.3135092
C0G720,溪州,2018-09-05,23.851589,120.499093,0.045225855
C0G730,二林,2018-09-05,23.903325,120.376081,0.20400067
C0G740,大城,2018-09-05,23.852487,120.320935,0.024835445
C0G770,福興,2018-09-05,24.041289,120.437669,0.18798949
C0G780,秀水,2018-09-05,24.03405,120.503869,0.20572972
C0G800,埔鹽,2018-09-05,24.000394,120.431683,0.18798949
C0G810,埔心,2018-09-05,23.947633,120.525456,0.34706032
C0G820,田尾,2018-09-05,23.901669,120.509389,0.38044748
C0G830,埤頭,2018-09-05,23.866003,120.452806,0.042330284
C0G840,北斗,2018-09-05,23.877586,120.514222,0.38044748
C0G860,社頭,2018-09-05,23.897647,120.5862,0.5510769
C0G870,芳苑,2018-09-05,23.922303,120.320025,0.024624705
C0G880,二水,2018-09-05,23.810742,120.6173,0.054310314
C0G890,伸港,2018-09-05,24.148933,120.484403,0.96483725
C0G900,線西,2018-09-05,24.143358,120.443536,0.9771869
C0G910,花壇,2018-09-05,24.032076,120.549461,0.25395474
C0G920,永靖,2018-09-05,23.924703,120.547533,0.38044748
C0G940,竹塘,2018-09-05,23.848253,120.386764,0.037403718
C0G950,防潮門,2018-09-05,24.1835,120.4871,0.94193405
C0G960,福寶,2018-09-05,24.0443,120.3814,0.1697665
C0G970,三豐,2018-09-05,23.882,120.2895,0.024624705
C0H890,埔里,2018-09-05,23.972169,120.952425,0.31078485
C0H950,中寮,2018-09-05,23.884447,120.766406,0.09700744
C0H960,草屯,2018-09-05,23.973672,120.68085,0.047265936
C0I110,竹山,2018-09-05,23.761225,120.688156,0.07919901
C0I360,水里,2018-09-05,23.812553,120.849792,0.9060111
C0I380,集集,2018-09-05,23.828206,120.801467,0.903757
C0I410,名間,2018-09-05,23.837053,120.701447,0.060904436
C0I420,國姓,2018-09-05,24.037803,120.855072,0.089405924
C0I460,南投,2018-09-05,23.911469,120.687331,0.060622733
C0K250,崙背,2018-09-05,23.75555,120.318925,0.025824193
C0K280,四湖,2018-09-05,23.630414,120.227125,0.025198115
C0K291,宜梧,2018-09-05,23.536281,120.169329,0.84109426
C0K330,虎尾,2018-09-05,23.719183,120.442036,0.043298345
C0K390,土庫,2018-09-05,23.679029,120.395574,0.04180063
C0K400,斗六,2018-09-05,23.720583,120.541127,0.053264737
C0K410,北港,2018-09-05,23.573957,120.292802,0.84901386
C0K420,西螺,2018-09-05,23.800407,120.467394,0.050118353
C0K430,褒忠,2018-09-05,23.690938,120.303634,0.023408528
C0K440,二崙,2018-09-05,23.772797,120.408944,0.038748458
C0K450,大埤,2018-09-05,23.646074,120.431537,0.04949727
C0K460,斗南,2018-09-05,23.678734,120.478359,0.049663473
C0K470,林內,2018-09-05,23.748675,120.609642,0.0731018
C0K480,莿桐,2018-09-05,23.761192,120.502372,0.052008275
C0K500,元長,2018-09-05,23.64981,120.315024,0.024718108
C0K510,水林,2018-09-05,23.572924,120.24597,0.8367608
C0K530,臺西,2018-09-05,23.701547,120.197559,0.024399044
C0K550,蔦松,2018-09-05,23.514319,120.229736,0.846472
C0K560,棋山,2018-09-05,23.68645,120.603417,0.045187943
C0K580,高鐵雲林,2018-09-05,23.737456,120.417944,0.04180063
C0K590,雲林東勢,2018-09-05,23.674192,120.255721,0.023408528
C0K600,箔子寮,2018-09-05,23.6197,120.14,0.8319865
C0M410,馬頭山,2018-09-05,23.324361,120.582017,0.92197007
C0M520,東後寮,2018-09-05,23.369908,120.248065,0.1846814
C0M640,中埔,2018-09-05,23.42538,120.5229,0.079295725
C0M650,朴子,2018-09-05,23.43463,120.23902,0.8568454
C0M660,溪口,2018-09-05,23.604131,120.403569,0.029706355
C0M670,大林,2018-09-05,23.600616,120.45841,0.03383504
C0M680,太保,2018-09-05,23.455062,120.331455,0.8431556
C0M690,水上,2018-09-05,23.419734,120.388909,0.033968322
C0M700,竹崎,2018-09-05,23.526178,120.555508,0.09972926
C0M710,東石,2018-09-05,23.458927,120.15385,0.8464723
C0M720,番路,2018-09-05,23.464657,120.554156,0.1127073
C0M730,嘉義市東區,2018-09-05,23.457673,120.460531,0.035720102
C0M740,六腳,2018-09-05,23.492871,120.290625,0.8384143
C0M750,布袋,2018-09-05,23.380878,120.167789,0.8568454
C0M760,民雄,2018-09-05,23.551754,120.428457,0.030913236
C0M770,嘉義梅山,2018-09-05,23.585398,120.555587,0.053328194
C0M780,鹿草,2018-09-05,23.41134,120.30835,0.86943525
C0M790,新港,2018-09-05,23.553269,120.345728,0.8534297
C0M800,茶山,2018-09-05,23.299075,120.664767,0.27548754
C0M880,好美里,2018-09-05,23.3364,120.138,0.17917483
C0N010,鯤鯓國小,2018-09-05,23.1879,120.0889,0.8492209
C0N020,城西,2018-09-05,23.0568,120.0956,0.16594392
C0N030,四草,2018-09-05,23.0235,120.1116,0.15516861
C0N040,蘆竹溝,2018-09-05,23.2344,120.0961,0.8492209
C0N050,蚵寮,2018-09-05,23.301,120.1104,0.84922075
C0O810,曾文,2018-09-05,23.219681,120.497328,0.9434008
C0O830,北寮,2018-09-05,23.079561,120.495008,0.023960792
C0O840,王爺宮,2018-09-05,23.222064,120.40085,0.9434009
C0O860,大內,2018-09-05,23.11885,120.36083,0.059477482
C0O900,善化,2018-09-05,23.112883,120.297219,0.04463828
C0O930,玉井,2018-09-05,23.126042,120.46055,0.9293702
C0O950,安南,2018-09-05,23.076694,120.144861,0.03953446
C0O960,崎頂,2018-09-05,22.959547,120.369317,0.023396313
C0O970,虎頭埤,2018-09-05,23.021375,120.347878,0.24308558
C0O980,新市,2018-09-05,23.061614,120.298197,0.04463828
C0O990,媽廟,2018-09-05,22.99175,120.293525,0.042928
C0R150,三地門,2018-09-05,22.709889,120.639944,0.009777495
C0R160,鹽埔,2018-09-05,22.739558,120.530778,0.010777733
C0R170,屏東,2018-09-05,22.660269,120.494072,0.03678739
C0R190,赤山,2018-09-05,22.592333,120.614306,0.01045226
C0R220,潮州,2018-09-05,22.534361,120.54,0.010965228
C0R240,來義,2018-09-05,22.527306,120.625111,0.011786582
C0R260,春日,2018-09-05,22.370361,120.628306,0.0116317
C0R270,琉球嶼,2018-09-05,22.332244,120.362236,0.011665715
C0R280,檳榔,2018-09-05,22.076078,120.836777,0.080753535
C0R320,車城,2018-09-05,22.0744,120.716247,0.041595962
C0R341,牡丹,2018-09-05,22.130036,120.792639,0.011047393
C0R350,貓鼻頭,2018-09-05,21.921774,120.7358,0.044596378
C0R470,高樹,2018-09-05,22.826389,120.600806,0.00965914
C0R480,長治,2018-09-05,22.693128,120.542622,0.010833979
C0R490,九如,2018-09-05,22.7405,120.490503,0.037282575
C0R520,崁頂,2018-09-05,22.514781,120.506914,0.035493944
C0R540,佳冬,2018-09-05,22.419456,120.552375,0.03505991
C0R550,新埤,2018-09-05,22.467947,120.582894,0.010400818
C0R560,新園,2018-09-05,22.5434,120.461558,0.035493944
C0R570,麟洛,2018-09-05,22.65078,120.52719,0.037282575
C0R580,南州,2018-09-05,22.48591,120.50274,0.035059903
C0R590,里港,2018-09-05,22.77919,120.49459,0.0108292205
C0R620,墾雷,2018-09-05,21.900836,120.855269,0.044596378
C0R640,東港,2018-09-05,22.46247,120.44074,0.03379716
C0R650,竹田,2018-09-05,22.58486,120.54344,0.010356104
C0R660,枋寮,2018-09-05,22.367722,120.590647,0.010870031
C0R670,楓港,2018-09-05,22.190131,120.692156,0.010296778
C0R680,佳樂水,2018-09-05,21.993578,120.861633,0.042999893
C0R690,墾丁,2018-09-05,21.966756,120.810269,0.088330984
C0R700,枋山,2018-09-05,22.246844,120.661086,0.010296778
C0R710,龍磐,2018-09-05,21.931672,120.838942,0.05520273
C0R720,旭海,2018-09-05,22.205403,120.887614,0.0130783655
C0R730,大坪頂,2018-09-05,22.024633,120.69355,0.057950206
C0R740,獅子,2018-09-05,22.201569,120.70525,0.010381497
C0R760,南仁湖,2018-09-05,22.084681,120.863353,0.153028
C0R770,保力,2018-09-05,22.071122,120.764111,0.04954859
C0R780,滿州,2018-09-05,22.024403,120.839892,0.045419164
C0R790,九棚,2018-09-05,22.14195,120.889281,0.012519977
C0R800,丹路,2018-09-05,22.204481,120.750989,0.010699041
C0R810,內獅,2018-09-05,22.305064,120.642986,0.011465148
C0R830,高士,2018-09-05,22.121825,120.836781,0.25159144
C0R850,林邊,2018-09-05,22.4634,120.5339,0.035493944
C0R860,鼻頭,2018-09-05,22.1043,120.8979,0.061249737
C0R870,興海,2018-09-05,21.9752,120.8439,0.042999893
C0R880,後壁湖,2018-09-05,21.9457,120.7457,0.040918738
C0R890,山海,2018-09-05,21.9878,120.7091,0.041595962
C0R900,竹坑,2018-09-05,22.1385,120.7022,0.0107306875
C0R910,下寮,2018-09-05,22.3929,120.5548,0.03505991
C0R920,塭仔,2018-09-05,22.4169,120.5197,0.034593586
C0R930,萬丹,2018-09-05,22.5885,120.4851,0.010356104
C0R940,加祿堂,2018-09-05,22.3363,120.6217,0.011465148
C0S710,鹿野,2018-09-05,22.917711,121.122994,0.0051206066
C0S730,綠島,2018-09-05,22.6672,121.47533,0.006315355
C0S740,池上,2018-09-05,23.119628,121.209469,0.0048329704
C0S770,大溪山,2018-09-05,22.478475,120.943325,0.013783841
C0S790,金崙,2018-09-05,22.538122,120.966875,0.010842367
C0S810,東河,2018-09-05,22.972672,121.303986,0.005223234
C0S830,長濱,2018-09-05,23.286817,121.411975,0.00470696
C0S840,南田,2018-09-05,22.279725,120.889208,0.010641797
C0S890,關山,2018-09-05,23.0395,121.175017,0.0064569525
C0S900,蘭嶼高中,2018-09-05,22.04909,121.51214,0.7879966
C0S910,蘭嶼燈塔,2018-09-05,22.081197,121.503117,0.98932874
C0S920,金峰嘉蘭,2018-09-05,22.594789,120.960825,0.009893676
C0S930,延平,2018-09-05,22.902581,121.084058,0.0055399067
C0S940,石寧山,2018-09-05,23.223772,121.406639,0.004460693
C0S950,七塊厝,2018-09-05,22.954453,121.229922,0.0052633206
C0S960,香蘭,2018-09-05,22.587569,120.993375,0.0095487
C0S970,加津林,2018-09-05,22.416211,120.926942,0.009988599
C0S990,山豬窟,2018-09-05,22.318619,120.857372,0.01687764
C0SA00,歷坵,2018-09-05,22.520969,120.89185,0.015843036
C0SA10,檳榔四格山,2018-09-05,22.810031,121.109308,0.0151373595
C0SA30,都歷,2018-09-05,23.020333,121.323642,0.006317642
C0SA40,瑞和,2018-09-05,22.974361,121.156697,0.0064245556
C0SA60,知本（水試所）,2018-09-05,22.702394,121.082761,0.0109469
C0SA80,土坂,2018-09-05,22.453108,120.887572,0.010148641
C0SA90,達仁林場,2018-09-05,22.264347,120.823972,0.015322009
C0T870,鯉魚潭,2018-09-05,23.935639,121.508944,0.007603473
C0T900,西林,2018-09-05,23.8119,121.441458,0.007495756
C0T960,光復,2018-09-05,23.660694,121.424964,0.008130952
C0T9A0,月眉山,2018-09-05,23.809928,121.539828,0.0077704163
C0T9D0,和中,2018-09-05,24.26676,121.74103,0.064194575
C0T9E0,大坑,2018-09-05,23.880628,121.581981,0.007403354
C0T9F0,水璉,2018-09-05,23.797131,121.542514,0.0073682424
C0T9I0,豐濱,2018-09-05,23.583897,121.514806,0.007670893
C0T9M0,靜浦,2018-09-05,23.455167,121.495028,0.007932181
C0T9N0,富里,2018-09-05,23.171639,121.249378,0.0052306033
C0U600,礁溪,2018-09-05,24.817539,121.765608,0.04347924
C0U650,玉蘭,2018-09-05,24.675286,121.587061,0.63563734
C0U750,龜山島,2018-09-05,24.841667,121.953133,0.07221059
C0U760,東澳,2018-09-05,24.52196,121.83318,0.024332585
C0U770,南澳,2018-09-05,24.44935,121.81022,0.017442044
C0U780,五結,2018-09-05,24.68637,121.79794,0.05239407
C0U860,頭城,2018-09-05,24.85323,121.8308,0.042609733
C0U870,大礁溪,2018-09-05,24.791042,121.675047,0.096609995
C0U880,北關,2018-09-05,24.9072,121.8734,0.11622284
C0U890,三星,2018-09-05,24.66812,121.65302,0.0591416
C0U900,內城,2018-09-05,24.71813,121.68766,0.047157645
C0U910,冬山,2018-09-05,24.63373,121.7937,0.05239407
C0U940,羅東,2018-09-05,24.68184,121.74934,0.05284449
C0U970,大福,2018-09-05,24.80064,121.81389,0.041835546
C0U990,員山,2018-09-05,24.74435,121.72247,0.05284449
C0UA00,土場,2018-09-05,24.576533,121.495333,0.043958884
C0UA80,大溪漁港,2018-09-05,24.941801,121.902955,0.04347924
C0UA90,石城,2018-09-05,24.980444,121.951214,0.05567676
C0UB00,淡江大學蘭陽校園,2018-09-05,24.823239,121.730383,0.058196746
C0UB10,蘇澳,2018-09-05,24.5969,121.8571,0.032226678
C0UB20,壯圍,2018-09-05,24.7359,121.8163,0.05201888
C0V250,甲仙,2018-09-05,23.080106,120.591758,0.07503295
C0V260,月眉,2018-09-05,22.971003,120.539853,0.023629159
C0V310,美濃,2018-09-05,22.898742,120.519153,0.30683687
C0V350,溪埔,2018-09-05,22.738578,120.446797,0.03538941
C0V360,內門,2018-09-05,22.975481,120.466769,0.35534286
C0V370,古亭坑,2018-09-05,22.893178,120.401947,0.3343603
C0V400,阿公店,2018-09-05,22.804194,120.355528,0.036703967
C0V440,鳳山,2018-09-05,22.646653,120.356122,0.0350573
C0V450,鳳森,2018-09-05,22.545064,120.392592,0.011064586
C0V490,新興,2018-09-05,22.627422,120.298803,0.03418076
C0V530,阿蓮,2018-09-05,22.883208,120.327508,0.041243482
C0V610,梓官,2018-09-05,22.760558,120.267211,0.030531522
C0V620,永安,2018-09-05,22.82315,120.236856,0.02909029
C0V630,茄萣,2018-09-05,22.906642,120.182608,0.036147643
C0V640,湖內,2018-09-05,22.887139,120.2445,0.036661897
C0V650,彌陀,2018-09-05,22.783806,120.246361,0.02909029
C0V660,岡山,2018-09-05,22.797078,120.294958,0.030531522
C0V680,仁武,2018-09-05,22.701083,120.347722,0.03200168
C0V690,鼓山,2018-09-05,22.623325,120.275575,0.034180753
C0V700,三民,2018-09-05,22.645017,120.311233,0.034180753
C0V710,苓雅,2018-09-05,22.622742,120.330669,0.034180753
C0V720,林園,2018-09-05,22.507747,120.394511,0.034180753
C0V730,大寮,2018-09-05,22.605614,120.395717,0.010822904
C0V740,旗山,2018-09-05,22.888614,120.483597,0.31402707
C0V750,路竹,2018-09-05,22.854997,120.259439,0.03051276
C0V760,橋頭,2018-09-05,22.757806,120.30575,0.030870233
C0V770,大社,2018-09-05,22.730306,120.346639,0.03200168
C0V790,萬山,2018-09-05,22.905944,120.688056,0.2825209
C0V800,六龜,2018-09-05,22.997889,120.633583,0.022160348
C0V810,左營,2018-09-05,22.67491,120.28491,0.031529557
C0V820,小林,2018-09-05,23.148408,120.63325,0.29729924
C0V840,鳳鼻頭,2018-09-05,22.5083,120.3591,0.033797167
C0V850,蚵仔寮,2018-09-05,22.7256,120.2527,0.031218316
C0V860,南寮,2018-09-05,22.7616,120.2339,0.028862184
C0V870,文安,2018-09-05,22.8025,120.2164,0.028862184
C0V880,興達,2018-09-05,22.8778,120.2127,0.036147643
C0V890,前鎮,2018-09-05,22.5718,120.3117,0.033797167
C0V900,汕尾,2018-09-05,22.4782,120.4151,0.03282555
C0X050,東河,2018-09-05,23.296598,120.385608,0.9100887
C0X060,下營,2018-09-05,23.22695,120.256261,0.21466078
C0X080,佳里,2018-09-05,23.173039,120.145086,0.17917483
C0X100,臺南市北區,2018-09-05,23.010394,120.194228,0.038684428
C0X110,臺南市南區,2018-09-05,22.961189,120.188378,0.0392389
C0X120,麻豆,2018-09-05,23.183289,120.248611,0.18428707
C0X130,官田,2018-09-05,23.193217,120.315422,0.22668035
C0X140,西港,2018-09-05,23.125608,120.203108,0.17909305
C0X150,安定,2018-09-05,23.102614,120.227839,0.04071031
C0X160,仁德,2018-09-05,22.968258,120.257689,0.042276047
C0X170,關廟,2018-09-05,22.963017,120.327797,0.04536655
C0X180,山上,2018-09-05,23.0757,120.363253,0.35520124
C0X190,安平,2018-09-05,22.993161,120.152181,0.038684472
C0X200,左鎮,2018-09-05,23.056758,120.408522,0.3467173
C0X210,白河,2018-09-05,23.347466,120.414427,0.9127146
C0X220,學甲,2018-09-05,23.230367,120.182187,0.18428707
C0X230,鹽水,2018-09-05,23.272621,120.247641,0.18487339
C0X240,關子嶺,2018-09-05,23.331169,120.508025,0.3712339
C0X250,新營,2018-09-05,23.310689,120.316681,0.20553052
C0X260,後壁,2018-09-05,23.366358,120.362326,0.27797878
C0X280,將軍,2018-09-05,23.214999,120.13577,0.17917483
C0X290,北門,2018-09-05,23.267772,120.125481,0.17917483
C0X300,鹿寮,2018-09-05,23.386047,120.477331,0.064890936
C0X310,七股,2018-09-05,23.147289,120.086253,0.83170706
C0X320,柳營,2018-09-05,23.253328,120.375253,0.9100887
C0Z020,明里,2018-09-05,23.208717,121.262342,0.0046147867
C0Z061,玉里,2018-09-05,23.3215,121.339656,0.0043918192
C0Z070,舞鶴,2018-09-05,23.46811,121.37407,0.0069558993
C0Z080,富源,2018-09-05,23.587642,121.378225,0.006657408
C0Z100,東華,2018-09-05,23.89525,121.549833,0.008083825
C0Z150,吉安光華,2018-09-05,23.930925,121.595153,0.00822187
C0Z160,鳳林,2018-09-05,23.746114,121.453411,0.008182549
C0Z170,卓溪,2018-09-05,23.3443,121.3029,0.0043956283
C0Z180,新城,2018-09-05,24.03946,121.60454,0.007793361
C0Z190,富世,2018-09-05,24.14743,121.6297,0.3155884
C0Z200,萬榮,2018-09-05,23.709219,121.420106,0.0076034693
C0Z210,瑞穗,2018-09-05,23.5239,121.39021,0.0077563073
C0Z230,和平,2018-09-05,24.30717,121.77007,0.064194575
C0Z270,蕃薯寮,2018-09-05,23.73835,121.540108,0.006971978
C0Z280,德武,2018-09-05,23.47426,121.41071,0.0070464388
C0Z300,東里,2018-09-05,23.26853,121.30547,0.0043924367
C0Z310,清水斷崖,2018-09-05,24.218294,121.689142,0.08126464
C0Z330,安通山,2018-09-05,23.290728,121.348528,0.0049451552
CAA010,國一N013K,2018-09-05,25.06944,121.6281,0.09168629
CAA020,國一S026K,2018-09-05,25.07639,121.4964,0.10425564
CAA030,國三S010K,2018-09-05,25.08,121.6475,0.08608337
CAA040,國三S016K,2018-09-05,25.03306,121.6158,0.13879654
CAA050,國三S037K,2018-09-05,24.9828,121.471,0.09168629
CAA060,國三S042K,2018-09-05,24.96,121.4306,0.13803975
CAA070,國三N046K,2018-09-05,24.95083,121.3958,0.12717201
CAA080,國三S054K,2018-09-05,24.93917,121.3239,0.10704949
CAA090,國三A005K,2018-09-05,25.00194,121.5975,0.097244315
CAAH60,大安森林,2018-09-05,25.02955,121.53628,0.081668586
CAB010,國一S001K,2018-09-05,25.11583,121.7286,0.11637226
CAB020,國一S006K,2018-09-05,25.08694,121.6869,0.10547715
CAB030,國三S004K,2018-09-05,25.11444,121.6886,0.05372545
CAB040,國三S007K,2018-09-05,25.09694,121.6678,0.14313702
CAB050,國三K002K,2018-09-05,25.14583,121.7217,0.14313702
CAC010,國一S072K,2018-09-05,24.89583,121.1342,0.58130175
CAC020,國二E009K,2018-09-05,25.02111,121.2736,0.112163216
CAC030,國三N063K,2018-09-05,24.889,121.26,0.09224745
CAC050,西濱S023K,2018-09-05,25.11649,121.27551,0.13468237
CAC060,西濱S032K,2018-09-05,25.091966,121.192505,0.1265802
CAD010,國一S105K,2018-09-05,24.726316,120.940643,0.19114487
CAD020,國一N077K,2018-09-05,24.885,121.0889,0.36549902
CAD030,國一S082K,2018-09-05,24.87667,121.0467,0.14113349
CAD040,國一S088K,2018-09-05,24.84444,121.0214,0.17104049
CAD050,國一N094K,2018-09-05,24.79778,121.0089,0.20565288
CAD060,國一S098K,2018-09-05,24.76056,120.9911,0.2056526
CAD070,國三N076K,2018-09-05,24.800303,121.195739,0.008674743
CAD080,國三N085K,2018-09-05,24.78333,121.1211,0.011108674
CAD090,國三S103K,2018-09-05,24.75861,120.9608,0.25622264
CAD100,西濱N066K,2018-09-05,24.8956,120.9649,0.0903763
CAD110,西濱S082K,2018-09-05,24.751724,120.905028,0.16932172
CAE010,國一N142K,2018-09-05,24.453119,120.783221,0.08130885
CAE020,國一S114K,2018-09-05,24.668835,120.885811,0.16932172
CAE030,國一S123K,2018-09-05,24.59594,120.86071,0.99083865
CAE040,國一S132K,2018-09-05,24.524506,120.820831,0.9892164
CAE050,國一S152K,2018-09-05,24.375492,120.749184,0.019678142
CAE060,國三N119K,2018-09-05,24.675432,120.847389,0.024683857
CAE070,國三N151K,2018-09-05,24.440218,120.681656,0.9733894
CAE080,國三S140K,2018-09-05,24.522345,120.725006,0.98928374
CAE090,國三S156K,2018-09-05,24.39798,120.669487,0.98820835
CAE100,西濱N107K,2018-09-05,24.5958,120.7394,0.9818061
CAE110,西濱S129K,2018-09-05,24.4472,120.6428,0.94099903
CAF010,國一N174K,2018-09-05,24.2049,120.6552,0.9944868
CAF020,國一S162K,2018-09-05,24.295534,120.695976,0.07533179
CAF030,國一S169K,2018-09-05,24.237116,120.688271,0.089376874
CAF040,國一S188K,2018-09-05,24.118546,120.585747,0.20607413
CAF050,國三N208K,2018-09-05,24.066147,120.660919,0.20607413
CAF060,國三S168K,2018-09-05,24.308519,120.614471,0.9621518
CAF070,國三S173K,2018-09-05,24.27397,120.593079,0.98943055
CAF080,國三S178K,2018-09-05,24.226721,120.589058,0.99374837
CAF090,國四E5K,2018-09-05,24.296465,120.643135,0.9838739
CAF100,西濱N151K,2018-09-05,24.275964,120.547681,0.9507554
CAG010,國一N198K,2018-09-05,24.063889,120.523056,0.15418312
CAG030,國一S207K,2018-09-05,23.988304,120.508092,0.20572972
CAG040,國三N191K,2018-09-05,24.139256,120.5215,0.97376025
CAG050,國三N196K,2018-09-05,24.107155,120.554482,0.16669546
CAG060,國三S202K,2018-09-05,24.092468,120.603256,0.16669537
CAG070,西濱S173K,2018-09-05,24.1081,120.434576,0.1697665
CAG080,西濱S189K,2018-09-05,23.987857,120.369607,0.027535003
CAG090,西濱N210K,2018-09-05,23.843536,120.293236,0.025547719
CAG100,王功漁港,2018-09-05,23.96824,120.32586,0.027535003
CAH010,國三N223K,2018-09-05,23.955116,120.662376,0.044339743
CAH020,國三S217K,2018-09-05,24.00683,120.653214,0.9942707
CAH030,茶改場竹圍站,2018-09-05,23.860083,120.637528,0.91116995
CAHA00,消防署訓練中心,2018-09-05,23.82137,120.72293,0.06304177
CAJ010,國三N252K,2018-09-05,23.77412,120.64061,0.060651023
CAJ020,國一N234K,2018-09-05,23.74633,120.467926,0.049663473
CAJ030,西濱N222K,2018-09-05,23.737734,120.256132,0.023158465
CAJ040,西濱S241K,2018-09-05,23.623426,120.172646,0.8319865
CAJ050,海口故事園區,2018-09-05,23.57543,120.14121,0.8319865
CAL010,國一N250K,2018-09-05,23.610292,120.436867,0.030913236
CAL020,國一S262K,2018-09-05,23.512333,120.403038,0.033004016
CAL030,國一N268K,2018-09-05,23.460833,120.375833,0.033004016
CAL040,國一N273K,2018-09-05,23.416666,120.355,0.9056861
CAL050,國三N279K,2018-09-05,23.596111,120.523333,0.07558142
CAL060,國三S286K,2018-09-05,23.533917,120.484583,0.07592396
CAL070,國三N295K,2018-09-05,23.468598,120.499369,0.07321884
CAL080,國三N303K,2018-09-05,23.428611,120.452416,0.033968322
CAL090,西濱S257K,2018-09-05,23.502278,120.171861,0.8464723
CAL100,西濱S267K,2018-09-05,23.41613,120.162872,0.8568454
CAL110,布袋國中,2018-09-05,23.35893,120.18026,0.1846814
CAN010,國一N288K,2018-09-05,23.30609,120.290033,0.19982344
CAN020,國一S306K,2018-09-05,23.1565,120.239513,0.1890397
CAN030,國一N316K,2018-09-05,23.07309,120.253014,0.04463828
CAN040,國一N323K,2018-09-05,23.00421,120.245922,0.04056741
CAN050,國一N335K,2018-09-05,22.897584,120.269895,0.039298948
CAN060,國三S311K,2018-09-05,23.346388,120.438888,0.9153184
CAN070,國三S329K,2018-09-05,23.212777,120.355833,0.31439596
CAN080,國三N336K,2018-09-05,23.154722,120.345,0.23330727
CAN090,國三S342K,2018-09-05,23.106694,120.327528,0.046229817
CAN100,國三S366K,2018-09-05,22.9077,120.3513,0.056531172
CAN110,西濱S280K,2018-09-05,23.3052,120.14891,0.17917502
CAN120,西濱N304K,2018-09-05,23.103439,120.086694,0.16594392
CAN130,水試所海水繁養殖中心,2018-09-05,23.120802,120.07968,0.16108195
CAN140,六官養殖協會,2018-09-05,23.22881,120.29962,0.22098342
CAP010,國一S342K,2018-09-05,22.845555,120.295,0.030531522
CAP020,國一S346K,2018-09-05,22.812222,120.314166,0.030531522
CAP030,國一N351K,2018-09-05,22.765833,120.328888,0.030870233
CAP040,國一N361K,2018-09-05,22.680555,120.328611,0.031529557
CAP050,國三N372K,2018-09-05,22.858611,120.373611,0.0393096
CAP060,國三S385K,2018-09-05,22.767777,120.444444,0.011136124
CAP070,高雄燈塔,2018-09-05,22.6146,120.2647,0.034180753
CAQ010,國三N425K,2018-09-05,22.480277,120.531666,0.035493944
CAQ020,國三S415K,2018-09-05,22.568,120.528,0.010309434
CAQ030,崎峰國小,2018-09-05,22.42565,120.49521,0.03505991
E2K600,四湖植物園,2018-09-05,23.676986,120.163433,0.024399044
E2P980,林試六龜中心,2018-09-05,22.991703,120.645722,0.022477526
E2S390,太麻里分所,2018-09-05,22.5988,120.9811,0.009847559
E2S960,林試太麻里2,2018-09-05,22.598014,120.989761,0.0095487
E2S980,林試太麻里1,2018-09-05,22.598922,120.980044,0.009847559
G2AI50,關渡,2018-09-05,25.11575,121.492,0.098252214
G2F820,農試所(霧峰),2018-09-05,24.031261,120.688133,0.9942707
G2L020,嘉義分所,2018-09-05,23.485028,120.473806,0.07321884
G2M350,溪口農場,2018-09-05,23.58565,120.408111,0.029706355
G2P820,鳳山園試所,2018-09-05,22.646611,120.356083,0.0350573
K2E360,苗栗農改場,2018-09-05,24.495722,120.829111,0.03132459
K2E710,大湖分場,2018-09-05,24.422861,120.871833,0.11349927
K2F750,種苗改良場,2018-09-05,24.225972,120.800917,0.61606807
U2HA50,臺大竹山,2018-09-05,23.756972,120.681556,0.08270242
V2C250,八德合作社,2018-09-05,24.93775,121.266389,0.12982826
V2C260,八德蔬果,2018-09-05,24.978508,121.281819,0.1418489
V2K610,大庄合作社,2018-09-05,23.8068,120.367939,0.02715224
V2K620,麥寮合作社,2018-09-05,23.753836,120.294783,0.025547719
