站號,站名,日期,lat,lon,BlastGRU-TW
466881,新北,2018-12-25,24.9593,121.52,0.043441053
466900,淡水,2018-12-25,25.164889,121.448906,0.013704629
466920,臺北,2018-12-25,25.037658,121.514853,0.054583784
467350,澎湖,2018-12-25,23.565503,119.563094,0.0011680557
467410,臺南,2018-12-25,22.993239,120.204772,0.4610987
467420,永康,2018-12-25,23.038386,120.2367,0.45440257
467790,墾丁雷達站,2018-12-25,21.948235,120.808028,0.013127534
C0A520,山佳,2018-12-25,24.974944,121.402008,0.014506355
C0A530,坪林,2018-12-25,24.938183,121.70975,0.37553054
C0A880,福隆,2018-12-25,25.017842,121.942083,0.77104336
C0A890,雙溪,2018-12-25,25.036003,121.864242,0.06725743
C0A920,富貴角,2018-12-25,25.263783,121.565258,0.0053023905
C0AC80,文山,2018-12-25,25.00235,121.575728,0.030940654
C0ACA0,新莊,2018-12-25,25.051478,121.446756,0.022303231
C0AD00,三芝,2018-12-25,25.258131,121.501917,0.0041390755
C0AH70,松山,2018-12-25,25.04871,121.55042,0.054583784
C0AH80,深坑,2018-12-25,25.002703,121.628328,0.030940654
C0AI00,五股,2018-12-25,25.07445,121.42728,0.002813505
C0AJ70,田寮,2018-12-25,25.2698,121.4886,0.007726353
