站號,站名,日期,lat,lon,BlastGRU-TW
466881,新北,2019-04-08,24.9593,121.52,0.51160556
466900,淡水,2019-04-08,25.164889,121.448906,0.11496302
466920,臺北,2019-04-08,25.037658,121.514853,0.5186748
467441,高雄,2019-04-08,22.7304,120.3125,0.5273013
467480,嘉義,2019-04-08,23.495925,120.432906,0.09369438
467490,臺中,2019-04-08,24.145736,120.684075,0.14602719
C0A540,四堵,2019-04-08,24.8926,121.745736,0.15323281
C0A550,泰平,2019-04-08,24.971197,121.823711,0.032399744
C0A560,福山,2019-04-08,24.776203,121.502811,0.13838652
C0A931,三和,2019-04-08,25.233153,121.595236,0.111590415
C0A940,金山,2019-04-08,25.223628,121.643967,0.05279202
C0A950,鼻頭角,2019-04-08,25.129036,121.923372,0.5333146
C0AD10,八里,2019-04-08,25.150211,121.403947,0.11623178
C0AD30,蘆洲,2019-04-08,25.086594,121.472331,0.2927334
C0AD40,土城,2019-04-08,24.973208,121.445169,0.28903574
C0AI10,屈尺,2019-04-08,24.92184,121.54475,0.48850462
C0AI20,白沙灣,2019-04-08,25.283128,121.519058,0.05702347
C0AI30,三重,2019-04-08,25.057328,121.500629,0.2927334
C0B010,七堵,2019-04-08,25.094819,121.71713,0.17063953
C0B020,基隆嶼,2019-04-08,25.19141,121.78391,0.17263256
