站號,站名,日期,lat,lon,BlastGRU-TW
466881,新北,2019-11-23,24.9593,121.52,0.0002754747
466900,淡水,2019-11-23,25.164889,121.448906,4.9748305e-05
466920,臺北,2019-11-23,25.037658,121.514853,0.00030488323
467350,澎湖,2019-11-23,23.565503,119.563094,0.0027122719
467410,臺南,2019-11-23,22.993239,120.204772,0.11113641
467420,永康,2019-11-23,23.038386,120.2367,0.11176918
467790,墾丁雷達站,2019-11-23,21.948235,120.808028,0.0010858316
C0A520,山佳,2019-11-23,24.974944,121.402008,0.00010657796
C0A530,坪林,2019-11-23,24.938183,121.70975,0.007368085
C0A880,福隆,2019-11-23,25.017842,121.942083,0.5642132
C0A890,雙溪,2019-11-23,25.036003,121.864242,9.309834e-05
C0A920,富貴角,2019-11-23,25.263783,121.565258,2.2276585e-05
C0AC80,文山,2019-11-23,25.00235,121.575728,0.00024497096
C0ACA0,新莊,2019-11-23,25.051478,121.446756,8.2561775e-05
C0AD00,三芝,2019-11-23,25.258131,121.501917,2.1792457e-05
C0AH70,松山,2019-11-23,25.04871,121.55042,0.00030488323
C0AH80,深坑,2019-11-23,25.002703,121.628328,0.00024497096
C0AI00,五股,2019-11-23,25.07445,121.42728,2.2660097e-05
C0AJ70,田寮,2019-11-23,25.2698,121.4886,3.5462825e-05
