站號,站名,日期,lat,lon,BlastGRU-TW
466881,新北,2019-06-28,24.9593,121.52,0.932262
466900,淡水,2019-06-28,25.164889,121.448906,0.9853035
466920,臺北,2019-06-28,25.037658,121.514853,0.91454566
466940,基隆,2019-06-28,25.133314,121.740475,0.87676334
466990,花蓮,2019-06-28,23.975128,121.613275,0.9590138
467050,新屋,2019-06-28,25.006744,121.047486,0.9243658
467080,宜蘭,2019-06-28,24.763975,121.756528,0.28140715
467270,田中,2019-06-28,23.873803,120.581286,0.9924538
467300,東吉島,2019-06-28,23.25695,119.667467,0.9803023
467350,澎湖,2019-06-28,23.565503,119.563094,0.9665934
467410,臺南,2019-06-28,22.993239,120.204772,0.35038027
467420,永康,2019-06-28,23.038386,120.2367,0.3385378
467441,高雄,2019-06-28,22.7304,120.3125,0.15856327
467480,嘉義,2019-06-28,23.495925,120.432906,0.99729264
467490,臺中,2019-06-28,24.145736,120.684075,0.99853605
467540,大武,2019-06-28,22.355675,120.903789,0.17207168
467571,新竹,2019-06-28,24.827853,121.014219,0.99460053
467590,恆春,2019-06-28,22.003897,120.746339,0.89146644
467610,成功,2019-06-28,23.097486,121.373428,0.098389775
467620,蘭嶼,2019-06-28,22.036969,121.558339,0.9982535
467660,臺東,2019-06-28,22.752211,121.154586,0.31668362
467790,墾丁雷達站,2019-06-28,21.948235,120.808028,0.9090324
C0A520,山佳,2019-06-28,24.974944,121.402008,0.96322364
C0A530,坪林,2019-06-28,24.938183,121.70975,0.80942595
C0A540,四堵,2019-06-28,24.8926,121.745736,0.95558536
C0A550,泰平,2019-06-28,24.971197,121.823711,0.99611795
C0A560,福山,2019-06-28,24.776203,121.502811,0.9964179
C0A570,桶後,2019-06-28,24.848222,121.597992,0.91554725
C0A640,石碇,2019-06-28,24.993969,121.662917,0.7198808
C0A650,火燒寮,2019-06-28,25.002719,121.742892,0.8375736
C0A660,瑞芳,2019-06-28,25.113169,121.801147,0.43703726
C0A770,科教館,2019-06-28,25.096356,121.516507,0.94733465
C0A860,大坪,2019-06-28,25.165914,121.632969,0.98123133
C0A880,福隆,2019-06-28,25.017842,121.942083,0.20670927
C0A890,雙溪,2019-06-28,25.036003,121.864242,0.9256061
C0A920,富貴角,2019-06-28,25.263783,121.565258,0.9883263
C0A931,三和,2019-06-28,25.233153,121.595236,0.799896
C0A940,金山,2019-06-28,25.223628,121.643967,0.9755997
C0A950,鼻頭角,2019-06-28,25.129036,121.923372,0.19318248
C0A970,三貂角,2019-06-28,25.007606,122.002058,0.4354924
C0A980,社子,2019-06-28,25.109508,121.469681,0.9402503
C0A9C0,天母,2019-06-28,25.117494,121.537169,0.958724
C0A9F0,內湖,2019-06-28,25.079422,121.57545,0.91454566
C0AC60,三峽,2019-06-28,24.939025,121.369728,0.9402113
C0AC70,信義,2019-06-28,25.037822,121.564597,0.91454566
C0AC80,文山,2019-06-28,25.00235,121.575728,0.95357835
C0ACA0,新莊,2019-06-28,25.051478,121.446756,0.95249134
C0AD00,三芝,2019-06-28,25.258131,121.501917,0.98485255
C0AD10,八里,2019-06-28,25.150211,121.403947,0.9853035
C0AD30,蘆洲,2019-06-28,25.086594,121.472331,0.94733465
C0AD40,土城,2019-06-28,24.973208,121.445169,0.95299107
C0AD50,鶯歌,2019-06-28,24.951533,121.346294,0.9924999
C0AG80,中和,2019-06-28,24.991622,121.491792,0.91454566
C0AH00,汐止,2019-06-28,25.066881,121.658778,0.8871112
C0AH10,永和,2019-06-28,25.01125,121.508111,0.90489244
C0AH40,平等,2019-06-28,25.129142,121.577086,0.9768454
C0AH50,林口,2019-06-28,25.072181,121.38084,0.9224669
C0AH70,松山,2019-06-28,25.04871,121.55042,0.91454566
C0AH80,深坑,2019-06-28,25.002703,121.628328,0.95357835
C0AI00,五股,2019-06-28,25.07445,121.42728,0.9941395
C0AI10,屈尺,2019-06-28,24.92184,121.54475,0.95357835
C0AI20,白沙灣,2019-06-28,25.283128,121.519058,0.9689602
C0AI30,三重,2019-06-28,25.057328,121.500629,0.94733465
C0AI40,石牌,2019-06-28,25.115597,121.513139,0.95299107
C0AJ20,野柳,2019-06-28,25.20703,121.690021,0.887111
C0AJ30,淡水觀海,2019-06-28,25.184591,121.408616,0.98334914
C0AJ40,石門,2019-06-28,25.273672,121.601198,0.9944208
C0AJ50,水湳洞,2019-06-28,25.123695,121.862238,0.8871112
C0AJ60,六塊厝,2019-06-28,25.24,121.4481,0.98334914
C0AJ70,田寮,2019-06-28,25.2698,121.4886,0.9646977
C0AJ80,板橋,2019-06-28,25.0107,121.4489,0.95299107
C0AJ90,澳底,2019-06-28,25.0552,121.9253,0.20670927
C0B010,七堵,2019-06-28,25.094819,121.71713,0.9076126
C0B020,基隆嶼,2019-06-28,25.19141,121.78391,0.8871112
C0B040,大武崙,2019-06-28,25.166676,121.706993,0.9076126
C0B050,八斗子,2019-06-28,25.144754,121.79167,0.8643772
C0B060,暖暖,2019-06-28,25.0957,121.7403,0.94899625
C0C460,復興,2019-06-28,24.820208,121.352281,0.9702032
C0C480,桃園,2019-06-28,24.992425,121.323172,0.9942332
C0C490,八德,2019-06-28,24.928708,121.283289,0.9879178
C0C590,觀音,2019-06-28,25.027072,121.153317,0.9961979
C0C620,蘆竹,2019-06-28,25.084275,121.265767,0.988239
C0C630,大溪,2019-06-28,24.882853,121.265547,0.99282676
C0C650,平鎮,2019-06-28,24.897503,121.214636,0.9966447
C0C660,楊梅,2019-06-28,24.912375,121.143047,0.99689424
C0C670,龍潭,2019-06-28,24.870056,121.221389,0.998198
C0C680,龜山,2019-06-28,25.02846,121.38656,0.96011895
C0C700,中壢,2019-06-28,24.977661,121.256375,0.9951283
C0C710,大溪永福,2019-06-28,24.892936,121.324975,0.9964519
C0C720,竹圍,2019-06-28,25.112692,121.239824,0.9853035
C0C730,中大臨海站,2019-06-28,24.966126,121.008581,0.89948195
C0C740,觀音工業區,2019-06-28,25.064764,121.114856,0.99238074
C0C750,新興坑尾,2019-06-28,25.0061,121.0971,0.9952684
C0D430,峨眉,2019-06-28,24.6905,121.017189,0.9959962
C0D480,打鐵坑,2019-06-28,24.849664,121.150789,0.99790645
C0D540,橫山,2019-06-28,24.71116,121.11693,0.99862117
C0D560,竹東,2019-06-28,24.767147,121.057881,0.9964982
C0D580,寶山,2019-06-28,24.735006,121.025192,0.99822575
C0D590,新豐,2019-06-28,24.87068,120.97721,0.9958072
C0D650,湖口,2019-06-28,24.904794,121.043628,0.96536726
C0D660,新竹市東區,2019-06-28,24.798681,120.986942,0.99525565
C0D670,海天一線,2019-06-28,24.831986,120.914438,0.99328005
C0D680,香山濕地,2019-06-28,24.783581,120.914988,0.99379903
C0D690,外湖,2019-06-28,24.917735,120.968711,0.89948195
C0D700,關西,2019-06-28,24.7977,121.1732,0.9956282
C0E420,竹南,2019-06-28,24.708978,120.888897,0.9950725
C0E430,南庄,2019-06-28,24.601775,121.000214,0.9983329
C0E520,大湖,2019-06-28,24.41494,120.87087,0.9984513
C0E540,後龍,2019-06-28,24.606489,120.783933,0.9992161
C0E550,明德,2019-06-28,24.583486,120.885411,0.99917066
C0E590,通霄,2019-06-28,24.471892,120.704622,0.9988447
C0E730,頭份,2019-06-28,24.688247,120.912206,0.9950725
C0E740,造橋,2019-06-28,24.637056,120.864778,0.9990073
C0E750,苗栗,2019-06-28,24.564569,120.824575,0.9993662
C0E780,銅鑼,2019-06-28,24.489681,120.790853,0.999152
C0E791,卓蘭,2019-06-28,24.3126,120.8244,0.99751693
C0E810,西湖,2019-06-28,24.562947,120.7485,0.9993094
C0E820,獅潭,2019-06-28,24.539133,120.920042,0.9992924
C0E830,苑裡,2019-06-28,24.439714,120.653053,0.99685025
C0E850,大河,2019-06-28,24.618069,120.948578,0.9992246
C0E870,高鐵苗栗,2019-06-28,24.60725,120.826094,0.9992472
C0E910,海埔,2019-06-28,24.648767,120.772435,0.998855
C0E920,通霄漁港,2019-06-28,24.498589,120.673876,0.998551
C0E930,龍鳳,2019-06-28,24.700034,120.859125,0.99888456
C0F0B0,石岡,2019-06-28,24.276061,120.777644,0.98718566
C0F850,東勢,2019-06-28,24.246428,120.833047,0.9970972
C0F930,大甲,2019-06-28,24.347667,120.640403,0.99679595
C0F970,大坑,2019-06-28,24.173142,120.722289,0.9987445
C0F9A0,中竹林,2019-06-28,24.103556,120.751061,0.9857278
C0F9I0,神岡,2019-06-28,24.272481,120.658314,0.99875444
C0F9K0,大安,2019-06-28,24.345061,120.588025,0.99573183
C0F9L0,后里,2019-06-28,24.310436,120.729725,0.99903196
C0F9M0,豐原,2019-06-28,24.254322,120.720692,0.9989065
C0F9N0,大里,2019-06-28,24.092464,120.701378,0.9971827
C0F9O0,潭子,2019-06-28,24.213106,120.703933,0.99868196
C0F9P0,清水,2019-06-28,24.312297,120.562242,0.99550974
C0F9Q0,外埔,2019-06-28,24.347817,120.705686,0.9985203
C0F9R0,龍井,2019-06-28,24.184536,120.528972,0.9958594
C0F9S0,烏日,2019-06-28,24.107058,120.624103,0.9929146
C0F9T0,西屯,2019-06-28,24.179494,120.641275,0.9973283
C0F9U0,南屯,2019-06-28,24.137006,120.637969,0.9971827
C0F9X0,大雅(中科園區),2019-06-28,24.21528,120.62445,0.9981527
C0FA10,松柏,2019-06-28,24.429115,120.617482,0.9965661
C0FA20,溫寮,2019-06-28,24.372177,120.583125,0.9965661
C0FA30,梧棲,2019-06-28,24.256003,120.523381,0.9958594
C0FA40,臺中電廠,2019-06-28,24.2146,120.4907,0.9958594
C0FA50,霧峰,2019-06-28,24.0419,120.6995,0.99819756
C0G620,芬園,2019-06-28,24.015678,120.6213,0.9955996
C0G640,鹿港,2019-06-28,24.0753,120.430481,0.99105823
C0G650,員林,2019-06-28,23.946503,120.585597,0.9944527
C0G660,溪湖,2019-06-28,23.94835,120.479122,0.9933816
C0G720,溪州,2019-06-28,23.851589,120.499093,0.9900451
C0G730,二林,2019-06-28,23.903325,120.376081,0.9891109
C0G740,大城,2019-06-28,23.852487,120.320935,0.9961996
C0G770,福興,2019-06-28,24.041289,120.437669,0.99105823
C0G780,秀水,2019-06-28,24.03405,120.503869,0.9925797
C0G800,埔鹽,2019-06-28,24.000394,120.431683,0.99105823
C0G810,埔心,2019-06-28,23.947633,120.525456,0.99359
C0G820,田尾,2019-06-28,23.901669,120.509389,0.99383795
C0G830,埤頭,2019-06-28,23.866003,120.452806,0.98850965
C0G840,北斗,2019-06-28,23.877586,120.514222,0.99383795
C0G860,社頭,2019-06-28,23.897647,120.5862,0.9946633
C0G870,芳苑,2019-06-28,23.922303,120.320025,0.9960599
C0G880,二水,2019-06-28,23.810742,120.6173,0.99417734
C0G890,伸港,2019-06-28,24.148933,120.484403,0.99603814
C0G900,線西,2019-06-28,24.143358,120.443536,0.9957257
C0G910,花壇,2019-06-28,24.032076,120.549461,0.99315315
C0G920,永靖,2019-06-28,23.924703,120.547533,0.99383795
C0G940,竹塘,2019-06-28,23.848253,120.386764,0.9641322
C0G950,防潮門,2019-06-28,24.1835,120.4871,0.99574006
C0G960,福寶,2019-06-28,24.0443,120.3814,0.99061453
C0G970,三豐,2019-06-28,23.882,120.2895,0.9960599
C0H890,埔里,2019-06-28,23.972169,120.952425,0.99602723
C0H950,中寮,2019-06-28,23.884447,120.766406,0.99594283
C0H960,草屯,2019-06-28,23.973672,120.68085,0.99488187
C0I110,竹山,2019-06-28,23.761225,120.688156,0.9957082
C0I360,水里,2019-06-28,23.812553,120.849792,0.99081624
C0I380,集集,2019-06-28,23.828206,120.801467,0.9902472
C0I410,名間,2019-06-28,23.837053,120.701447,0.99522495
C0I420,國姓,2019-06-28,24.037803,120.855072,0.98583317
C0I460,南投,2019-06-28,23.911469,120.687331,0.9951844
C0K250,崙背,2019-06-28,23.75555,120.318925,0.9964965
C0K280,四湖,2019-06-28,23.630414,120.227125,0.9962059
C0K291,宜梧,2019-06-28,23.536281,120.169329,0.84489775
C0K330,虎尾,2019-06-28,23.719183,120.442036,0.96666193
C0K390,土庫,2019-06-28,23.679029,120.395574,0.96317333
C0K400,斗六,2019-06-28,23.720583,120.541127,0.98867595
C0K410,北港,2019-06-28,23.573957,120.292802,0.8453685
C0K420,西螺,2019-06-28,23.800407,120.467394,0.989043
C0K430,褒忠,2019-06-28,23.690938,120.303634,0.9952596
C0K440,二崙,2019-06-28,23.772797,120.408944,0.9673091
C0K450,大埤,2019-06-28,23.646074,120.431537,0.97765267
C0K460,斗南,2019-06-28,23.678734,120.478359,0.9869045
C0K470,林內,2019-06-28,23.748675,120.609642,0.99146444
C0K480,莿桐,2019-06-28,23.761192,120.502372,0.989844
C0K500,元長,2019-06-28,23.64981,120.315024,0.99595857
C0K510,水林,2019-06-28,23.572924,120.24597,0.86014056
C0K530,臺西,2019-06-28,23.701547,120.197559,0.99604857
C0K550,蔦松,2019-06-28,23.514319,120.229736,0.8545585
C0K560,棋山,2019-06-28,23.68645,120.603417,0.9908905
C0K580,高鐵雲林,2019-06-28,23.737456,120.417944,0.96317333
C0K590,雲林東勢,2019-06-28,23.674192,120.255721,0.9952596
C0K600,箔子寮,2019-06-28,23.6197,120.14,0.85004896
C0M410,馬頭山,2019-06-28,23.324361,120.582017,0.9880522
C0M520,東後寮,2019-06-28,23.369908,120.248065,0.63657206
C0M640,中埔,2019-06-28,23.42538,120.5229,0.9928187
C0M650,朴子,2019-06-28,23.43463,120.23902,0.84723955
C0M660,溪口,2019-06-28,23.604131,120.403569,0.997214
C0M670,大林,2019-06-28,23.600616,120.45841,0.99777097
C0M680,太保,2019-06-28,23.455062,120.331455,0.8202661
C0M690,水上,2019-06-28,23.419734,120.388909,0.99733716
C0M700,竹崎,2019-06-28,23.526178,120.555508,0.99380016
C0M710,東石,2019-06-28,23.458927,120.15385,0.8545585
C0M720,番路,2019-06-28,23.464657,120.554156,0.99470925
C0M730,嘉義市東區,2019-06-28,23.457673,120.460531,0.99782777
C0M740,六腳,2019-06-28,23.492871,120.290625,0.80852675
C0M750,布袋,2019-06-28,23.380878,120.167789,0.84723955
C0M760,民雄,2019-06-28,23.551754,120.428457,0.99732524
C0M770,嘉義梅山,2019-06-28,23.585398,120.555587,0.9929879
C0M780,鹿草,2019-06-28,23.41134,120.30835,0.8630435
C0M790,新港,2019-06-28,23.553269,120.345728,0.85645515
C0M800,茶山,2019-06-28,23.299075,120.664767,0.9708021
C0M880,好美里,2019-06-28,23.3364,120.138,0.6625904
C0N010,鯤鯓國小,2019-06-28,23.1879,120.0889,0.86891127
C0N020,城西,2019-06-28,23.0568,120.0956,0.6437042
C0N030,四草,2019-06-28,23.0235,120.1116,0.47610384
C0N040,蘆竹溝,2019-06-28,23.2344,120.0961,0.86891127
C0N050,蚵寮,2019-06-28,23.301,120.1104,0.86891127
C0O810,曾文,2019-06-28,23.219681,120.497328,0.9917073
C0O830,北寮,2019-06-28,23.079561,120.495008,0.7533923
C0O840,王爺宮,2019-06-28,23.222064,120.40085,0.9917073
C0O860,大內,2019-06-28,23.11885,120.36083,0.77344143
C0O900,善化,2019-06-28,23.112883,120.297219,0.39546552
C0O930,玉井,2019-06-28,23.126042,120.46055,0.98209244
C0O950,安南,2019-06-28,23.076694,120.144861,0.3921595
C0O960,崎頂,2019-06-28,22.959547,120.369317,0.6746982
C0O970,虎頭埤,2019-06-28,23.021375,120.347878,0.71308833
C0O980,新市,2019-06-28,23.061614,120.298197,0.39546552
C0O990,媽廟,2019-06-28,22.99175,120.293525,0.36375874
C0R150,三地門,2019-06-28,22.709889,120.639944,0.20450327
C0R160,鹽埔,2019-06-28,22.739558,120.530778,0.3425116
C0R170,屏東,2019-06-28,22.660269,120.494072,0.50454146
C0R190,赤山,2019-06-28,22.592333,120.614306,0.17851959
C0R220,潮州,2019-06-28,22.534361,120.54,0.15859362
C0R240,來義,2019-06-28,22.527306,120.625111,0.12569444
C0R260,春日,2019-06-28,22.370361,120.628306,0.098376445
C0R270,琉球嶼,2019-06-28,22.332244,120.362236,0.10480526
C0R280,檳榔,2019-06-28,22.076078,120.836777,0.9583263
C0R320,車城,2019-06-28,22.0744,120.716247,0.8667144
C0R341,牡丹,2019-06-28,22.130036,120.792639,0.49475828
C0R350,貓鼻頭,2019-06-28,21.921774,120.7358,0.8978898
C0R470,高樹,2019-06-28,22.826389,120.600806,0.22727439
C0R480,長治,2019-06-28,22.693128,120.542622,0.37797153
C0R490,九如,2019-06-28,22.7405,120.490503,0.5242162
C0R520,崁頂,2019-06-28,22.514781,120.506914,0.40521756
C0R540,佳冬,2019-06-28,22.419456,120.552375,0.38710564
C0R550,新埤,2019-06-28,22.467947,120.582894,0.15589797
C0R560,新園,2019-06-28,22.5434,120.461558,0.40521756
C0R570,麟洛,2019-06-28,22.65078,120.52719,0.5242164
C0R580,南州,2019-06-28,22.48591,120.50274,0.38710564
C0R590,里港,2019-06-28,22.77919,120.49459,0.40507525
C0R620,墾雷,2019-06-28,21.900836,120.855269,0.8978898
C0R640,東港,2019-06-28,22.46247,120.44074,0.24225427
C0R650,竹田,2019-06-28,22.58486,120.54344,0.14063004
C0R660,枋寮,2019-06-28,22.367722,120.590647,0.1300108
C0R670,楓港,2019-06-28,22.190131,120.692156,0.09247671
C0R680,佳樂水,2019-06-28,21.993578,120.861633,0.88296413
C0R690,墾丁,2019-06-28,21.966756,120.810269,0.9628834
C0R700,枋山,2019-06-28,22.246844,120.661086,0.09247671
C0R710,龍磐,2019-06-28,21.931672,120.838942,0.9390722
C0R720,旭海,2019-06-28,22.205403,120.887614,0.9218158
C0R730,大坪頂,2019-06-28,22.024633,120.69355,0.9303778
C0R740,獅子,2019-06-28,22.201569,120.70525,0.1251507
C0R760,南仁湖,2019-06-28,22.084681,120.863353,0.9783272
C0R770,保力,2019-06-28,22.071122,120.764111,0.9243773
C0R780,滿州,2019-06-28,22.024403,120.839892,0.903545
C0R790,九棚,2019-06-28,22.14195,120.889281,0.8986894
C0R800,丹路,2019-06-28,22.204481,120.750989,0.2941677
C0R810,內獅,2019-06-28,22.305064,120.642986,0.07560129
C0R830,高士,2019-06-28,22.121825,120.836781,0.98399985
C0R850,林邊,2019-06-28,22.4634,120.5339,0.40521756
C0R860,鼻頭,2019-06-28,22.1043,120.8979,0.9629699
C0R870,興海,2019-06-28,21.9752,120.8439,0.88296413
C0R880,後壁湖,2019-06-28,21.9457,120.7457,0.857148
C0R890,山海,2019-06-28,21.9878,120.7091,0.8667144
C0R900,竹坑,2019-06-28,22.1385,120.7022,0.11054022
C0R910,下寮,2019-06-28,22.3929,120.5548,0.38710564
C0R920,塭仔,2019-06-28,22.4169,120.5197,0.36873454
C0R930,萬丹,2019-06-28,22.5885,120.4851,0.1406297
C0R940,加祿堂,2019-06-28,22.3363,120.6217,0.07560129
C0S710,鹿野,2019-06-28,22.917711,121.122994,0.6851725
C0S730,綠島,2019-06-28,22.6672,121.47533,0.1049512
C0S740,池上,2019-06-28,23.119628,121.209469,0.21410607
C0S770,大溪山,2019-06-28,22.478475,120.943325,0.97281754
C0S790,金崙,2019-06-28,22.538122,120.966875,0.9276138
C0S810,東河,2019-06-28,22.972672,121.303986,0.0852638
C0S830,長濱,2019-06-28,23.286817,121.411975,0.90942496
C0S840,南田,2019-06-28,22.279725,120.889208,0.34354496
C0S890,關山,2019-06-28,23.0395,121.175017,0.11482537
C0S900,蘭嶼高中,2019-06-28,22.04909,121.51214,0.9935175
C0S910,蘭嶼燈塔,2019-06-28,22.081197,121.503117,0.99679
C0S920,金峰嘉蘭,2019-06-28,22.594789,120.960825,0.52610266
C0S930,延平,2019-06-28,22.902581,121.084058,0.10367454
C0S940,石寧山,2019-06-28,23.223772,121.406639,0.4708164
C0S950,七塊厝,2019-06-28,22.954453,121.229922,0.80370593
C0S960,香蘭,2019-06-28,22.587569,120.993375,0.24455598
C0S970,加津林,2019-06-28,22.416211,120.926942,0.18499604
C0S990,山豬窟,2019-06-28,22.318619,120.857372,0.9698519
C0SA00,歷坵,2019-06-28,22.520969,120.89185,0.98120993
C0SA10,檳榔四格山,2019-06-28,22.810031,121.109308,0.96259606
C0SA30,都歷,2019-06-28,23.020333,121.323642,0.10288122
C0SA40,瑞和,2019-06-28,22.974361,121.156697,0.11250648
C0SA60,知本（水試所）,2019-06-28,22.702394,121.082761,0.1950572
C0SA80,土坂,2019-06-28,22.453108,120.887572,0.7369346
C0SA90,達仁林場,2019-06-28,22.264347,120.823972,0.8260812
C0T870,鯉魚潭,2019-06-28,23.935639,121.508944,0.96323025
C0T900,西林,2019-06-28,23.8119,121.441458,0.9808725
C0T960,光復,2019-06-28,23.660694,121.424964,0.96357524
C0T9A0,月眉山,2019-06-28,23.809928,121.539828,0.9832871
C0T9D0,和中,2019-06-28,24.26676,121.74103,0.9965715
C0T9E0,大坑,2019-06-28,23.880628,121.581981,0.9885478
C0T9F0,水璉,2019-06-28,23.797131,121.542514,0.9893418
C0T9I0,豐濱,2019-06-28,23.583897,121.514806,0.9644146
C0T9M0,靜浦,2019-06-28,23.455167,121.495028,0.85987544
C0T9N0,富里,2019-06-28,23.171639,121.249378,0.69267243
C0U600,礁溪,2019-06-28,24.817539,121.765608,0.30454195
C0U650,玉蘭,2019-06-28,24.675286,121.587061,0.97723514
C0U750,龜山島,2019-06-28,24.841667,121.953133,0.99692297
C0U760,東澳,2019-06-28,24.52196,121.83318,0.90855736
C0U770,南澳,2019-06-28,24.44935,121.81022,0.60083896
C0U780,五結,2019-06-28,24.68637,121.79794,0.13095956
C0U860,頭城,2019-06-28,24.85323,121.8308,0.28140715
C0U870,大礁溪,2019-06-28,24.791042,121.675047,0.99562335
C0U880,北關,2019-06-28,24.9072,121.8734,0.93687373
C0U890,三星,2019-06-28,24.66812,121.65302,0.60766166
C0U900,內城,2019-06-28,24.71813,121.68766,0.3913265
C0U910,冬山,2019-06-28,24.63373,121.7937,0.13095956
C0U940,羅東,2019-06-28,24.68184,121.74934,0.13678858
C0U970,大福,2019-06-28,24.80064,121.81389,0.25683016
C0U990,員山,2019-06-28,24.74435,121.72247,0.13678858
C0UA00,土場,2019-06-28,24.576533,121.495333,0.99638754
C0UA80,大溪漁港,2019-06-28,24.941801,121.902955,0.30454195
C0UA90,石城,2019-06-28,24.980444,121.951214,0.24853763
C0UB00,淡江大學蘭陽校園,2019-06-28,24.823239,121.730383,0.99607176
C0UB10,蘇澳,2019-06-28,24.5969,121.8571,0.3037579
C0UB20,壯圍,2019-06-28,24.7359,121.8163,0.12582956
C0V250,甲仙,2019-06-28,23.080106,120.591758,0.93254066
C0V260,月眉,2019-06-28,22.971003,120.539853,0.72529143
C0V310,美濃,2019-06-28,22.898742,120.519153,0.9422913
C0V350,溪埔,2019-06-28,22.738578,120.446797,0.32571793
C0V360,內門,2019-06-28,22.975481,120.466769,0.972255
C0V370,古亭坑,2019-06-28,22.893178,120.401947,0.9236504
C0V400,阿公店,2019-06-28,22.804194,120.355528,0.4260223
C0V440,鳳山,2019-06-28,22.646653,120.356122,0.2892049
C0V450,鳳森,2019-06-28,22.545064,120.392592,0.11648479
C0V490,新興,2019-06-28,22.627422,120.298803,0.257347
C0V530,阿蓮,2019-06-28,22.883208,120.327508,0.32719398
C0V610,梓官,2019-06-28,22.760558,120.267211,0.12854289
C0V620,永安,2019-06-28,22.82315,120.236856,0.10324098
C0V630,茄萣,2019-06-28,22.906642,120.182608,0.24785395
C0V640,湖內,2019-06-28,22.887139,120.2445,0.25679216
C0V650,彌陀,2019-06-28,22.783806,120.246361,0.10324098
C0V660,岡山,2019-06-28,22.797078,120.294958,0.12854289
C0V680,仁武,2019-06-28,22.701083,120.347722,0.16715609
C0V690,鼓山,2019-06-28,22.623325,120.275575,0.257347
C0V700,三民,2019-06-28,22.645017,120.311233,0.257347
C0V710,苓雅,2019-06-28,22.622742,120.330669,0.257347
C0V720,林園,2019-06-28,22.507747,120.394511,0.257347
C0V730,大寮,2019-06-28,22.605614,120.395717,0.07586659
C0V740,旗山,2019-06-28,22.888614,120.483597,0.9482213
C0V750,路竹,2019-06-28,22.854997,120.259439,0.13558124
C0V760,橋頭,2019-06-28,22.757806,120.30575,0.13642034
C0V770,大社,2019-06-28,22.730306,120.346639,0.16715609
C0V790,萬山,2019-06-28,22.905944,120.688056,0.9667358
C0V800,六龜,2019-06-28,22.997889,120.633583,0.7638532
C0V810,左營,2019-06-28,22.67491,120.28491,0.15856327
C0V820,小林,2019-06-28,23.148408,120.63325,0.9759851
C0V840,鳳鼻頭,2019-06-28,22.5083,120.3591,0.24225427
C0V850,蚵仔寮,2019-06-28,22.7256,120.2527,0.14956717
C0V860,南寮,2019-06-28,22.7616,120.2339,0.09937564
C0V870,文安,2019-06-28,22.8025,120.2164,0.09937564
C0V880,興達,2019-06-28,22.8778,120.2127,0.24785435
C0V890,前鎮,2019-06-28,22.5718,120.3117,0.24225427
C0V900,汕尾,2019-06-28,22.4782,120.4151,0.34918025
C0X050,東河,2019-06-28,23.296598,120.385608,0.97339654
C0X060,下營,2019-06-28,23.22695,120.256261,0.6606922
C0X080,佳里,2019-06-28,23.173039,120.145086,0.6625904
C0X100,臺南市北區,2019-06-28,23.010394,120.194228,0.32692668
C0X110,臺南市南區,2019-06-28,22.961189,120.188378,0.3385378
C0X120,麻豆,2019-06-28,23.183289,120.248611,0.6786507
C0X130,官田,2019-06-28,23.193217,120.315422,0.6970887
C0X140,西港,2019-06-28,23.125608,120.203108,0.6183511
C0X150,安定,2019-06-28,23.102614,120.227839,0.37149018
C0X160,仁德,2019-06-28,22.968258,120.257689,0.35182166
C0X170,關廟,2019-06-28,22.963017,120.327797,0.4100853
C0X180,山上,2019-06-28,23.0757,120.363253,0.9635995
C0X190,安平,2019-06-28,22.993161,120.152181,0.32692668
C0X200,左鎮,2019-06-28,23.056758,120.408522,0.9596992
C0X210,白河,2019-06-28,23.347466,120.414427,0.9754322
C0X220,學甲,2019-06-28,23.230367,120.182187,0.6786507
C0X230,鹽水,2019-06-28,23.272621,120.247641,0.64446783
C0X240,關子嶺,2019-06-28,23.331169,120.508025,0.982828
C0X250,新營,2019-06-28,23.310689,120.316681,0.64624584
C0X260,後壁,2019-06-28,23.366358,120.362326,0.9239432
C0X280,將軍,2019-06-28,23.214999,120.13577,0.6625904
C0X290,北門,2019-06-28,23.267772,120.125481,0.6625904
C0X300,鹿寮,2019-06-28,23.386047,120.477331,0.9878934
C0X310,七股,2019-06-28,23.147289,120.086253,0.8555232
C0X320,柳營,2019-06-28,23.253328,120.375253,0.97339654
C0Z020,明里,2019-06-28,23.208717,121.262342,0.8587115
C0Z061,玉里,2019-06-28,23.3215,121.339656,0.23112822
C0Z070,舞鶴,2019-06-28,23.46811,121.37407,0.9887932
C0Z080,富源,2019-06-28,23.587642,121.378225,0.98814
C0Z100,東華,2019-06-28,23.89525,121.549833,0.64060223
C0Z150,吉安光華,2019-06-28,23.930925,121.595153,0.5133502
C0Z160,鳳林,2019-06-28,23.746114,121.453411,0.949802
C0Z170,卓溪,2019-06-28,23.3443,121.3029,0.40208614
C0Z180,新城,2019-06-28,24.03946,121.60454,0.9698169
C0Z190,富世,2019-06-28,24.14743,121.6297,0.99303603
C0Z200,萬榮,2019-06-28,23.709219,121.420106,0.96323025
C0Z210,瑞穗,2019-06-28,23.5239,121.39021,0.94267124
C0Z230,和平,2019-06-28,24.30717,121.77007,0.9965715
C0Z270,蕃薯寮,2019-06-28,23.73835,121.540108,0.97929215
C0Z280,德武,2019-06-28,23.47426,121.41071,0.98775595
C0Z300,東里,2019-06-28,23.26853,121.30547,0.29766676
C0Z310,清水斷崖,2019-06-28,24.218294,121.689142,0.9953315
C0Z330,安通山,2019-06-28,23.290728,121.348528,0.938089
