站號,站名,日期,lat,lon,BlastGRU-TW
12J990,口湖工作站,2019-01-03,23.589978,120.180394,0.0036899173
12Q970,東港工作站,2019-01-03,22.479997,120.466058,0.4387501
12Q980,恆春工作站,2019-01-03,22.079678,120.714425,0.000114971735
466881,新北,2019-01-03,24.9593,121.52,0.00076494523
466900,淡水,2019-01-03,25.164889,121.448906,0.00052121235
466920,臺北,2019-01-03,25.037658,121.514853,0.00080347055
466940,基隆,2019-01-03,25.133314,121.740475,0.0005142522
466990,花蓮,2019-01-03,23.975128,121.613275,0.23504688
467050,新屋,2019-01-03,25.006744,121.047486,0.0003583427
467080,宜蘭,2019-01-03,24.763975,121.756528,0.010470737
467270,田中,2019-01-03,23.873803,120.581286,0.0072053014
467300,東吉島,2019-01-03,23.25695,119.667467,0.000353085
467350,澎湖,2019-01-03,23.565503,119.563094,0.00033239982
467410,臺南,2019-01-03,22.993239,120.204772,0.31838265
467420,永康,2019-01-03,23.038386,120.2367,0.34242716
467441,高雄,2019-01-03,22.7304,120.3125,0.2650527
467480,嘉義,2019-01-03,23.495925,120.432906,0.00083222735
467490,臺中,2019-01-03,24.145736,120.684075,0.0004701638
467540,大武,2019-01-03,22.355675,120.903789,0.041347742
467571,新竹,2019-01-03,24.827853,121.014219,0.00041043264
467590,恆春,2019-01-03,22.003897,120.746339,9.324992e-05
467610,成功,2019-01-03,23.097486,121.373428,0.2858386
467620,蘭嶼,2019-01-03,22.036969,121.558339,0.00020117425
467660,臺東,2019-01-03,22.752211,121.154586,0.027357293
467790,墾丁雷達站,2019-01-03,21.948235,120.808028,7.909602e-05
72AI40,桃改樹林分場,2019-01-03,24.944503,121.386972,0.00058063876
72C440,桃園農改,2019-01-03,24.950944,121.030583,0.00034388356
72D680,桃改新埔分場,2019-01-03,24.834444,121.066111,0.00036620797
72G600,臺中農改,2019-01-03,24.003028,120.534389,0.0013210401
72K220,南改斗南分場,2019-01-03,23.634556,120.477333,0.012639366
72M360,南改義竹分場,2019-01-03,23.360694,120.279361,0.018578231
72M700,南改鹿草分場,2019-01-03,23.416869,120.283061,0.0073103383
72N100,臺南農改,2019-01-03,23.0605,120.342194,0.14761873
72N240,七股研究中心,2019-01-03,23.081672,120.062894,0.092274964
72Q010,高雄農改,2019-01-03,22.709333,120.525889,0.1191021
72S200,東改班鳩分場,2019-01-03,22.829528,121.077694,0.0038144034
72S590,東改賓朗果園,2019-01-03,22.813889,121.071278,0.0026138644
72T250,花蓮農改,2019-01-03,23.975222,121.563889,0.19438437
72U480,花改蘭陽分場,2019-01-03,24.686306,121.716583,0.0076518646
72V140,高改旗南分場,2019-01-03,22.857861,120.516667,0.19360894
82A750,茶改北部分場,2019-01-03,24.955778,121.631222,0.009521177
82C160,茶改場,2019-01-03,24.908472,121.185333,0.00033435636
82H840,茶改南部分場,2019-01-03,23.762528,120.7405,0.006128785
82S580,茶改東部分場,2019-01-03,22.907694,121.130139,0.060416635
A2C560,農工中心,2019-01-03,24.985917,121.239833,0.00033539234
A2K360,水試臺西試驗場,2019-01-03,23.717231,120.190522,0.000823996
A2K570,古坑花卉中心,2019-01-03,23.63353,120.55239,0.01024412
A2K630,臺大雲林校區,2019-01-03,23.730628,120.423903,0.014350899
A2N290,臺南蘭花園區,2019-01-03,23.340258,120.379661,0.004903393
B2E890,畜試北區分所,2019-01-03,24.527806,120.770972,0.00042758274
B2N890,畜試所,2019-01-03,23.058972,120.336406,0.14761873
B2Q810,畜試南區分所,2019-01-03,21.945583,120.802167,0.0001000206
B2U990,畜試東區分所,2019-01-03,24.669039,121.832561,0.008492985
C0A520,山佳,2019-01-03,24.974944,121.402008,0.00058063876
C0A530,坪林,2019-01-03,24.938183,121.70975,0.006716703
C0A540,四堵,2019-01-03,24.8926,121.745736,0.00077621726
C0A550,泰平,2019-01-03,24.971197,121.823711,0.0029679239
C0A560,福山,2019-01-03,24.776203,121.502811,0.009521177
C0A570,桶後,2019-01-03,24.848222,121.597992,0.0013899966
C0A640,石碇,2019-01-03,24.993969,121.662917,0.002938177
C0A650,火燒寮,2019-01-03,25.002719,121.742892,0.0025427227
C0A660,瑞芳,2019-01-03,25.113169,121.801147,0.0039190375
C0A770,科教館,2019-01-03,25.096356,121.516507,0.00061415904
C0A860,大坪,2019-01-03,25.165914,121.632969,0.00069374853
C0A880,福隆,2019-01-03,25.017842,121.942083,0.005552491
C0A890,雙溪,2019-01-03,25.036003,121.864242,0.00047494823
C0A920,富貴角,2019-01-03,25.263783,121.565258,0.0003815863
C0A931,三和,2019-01-03,25.233153,121.595236,0.002289357
C0A940,金山,2019-01-03,25.223628,121.643967,0.00042204274
C0A950,鼻頭角,2019-01-03,25.129036,121.923372,0.0057837823
C0A970,三貂角,2019-01-03,25.007606,122.002058,0.0041153883
C0A980,社子,2019-01-03,25.109508,121.469681,0.00062499667
C0A9C0,天母,2019-01-03,25.117494,121.537169,0.0005919681
C0A9F0,內湖,2019-01-03,25.079422,121.57545,0.0008034713
C0AC60,三峽,2019-01-03,24.939025,121.369728,0.00074579084
C0AC70,信義,2019-01-03,25.037822,121.564597,0.00080347055
C0AC80,文山,2019-01-03,25.00235,121.575728,0.0007117348
C0ACA0,新莊,2019-01-03,25.051478,121.446756,0.0005473003
C0AD00,三芝,2019-01-03,25.258131,121.501917,0.00040591034
C0AD10,八里,2019-01-03,25.150211,121.403947,0.00052121235
C0AD30,蘆洲,2019-01-03,25.086594,121.472331,0.00061415904
C0AD40,土城,2019-01-03,24.973208,121.445169,0.0006020723
C0AD50,鶯歌,2019-01-03,24.951533,121.346294,0.00047045655
C0AG80,中和,2019-01-03,24.991622,121.491792,0.00080347055
C0AH00,汐止,2019-01-03,25.066881,121.658778,0.0005056498
C0AH10,永和,2019-01-03,25.01125,121.508111,0.00082278025
C0AH40,平等,2019-01-03,25.129142,121.577086,0.00068219105
C0AH50,林口,2019-01-03,25.072181,121.38084,0.0008259609
C0AH70,松山,2019-01-03,25.04871,121.55042,0.00080347055
C0AH80,深坑,2019-01-03,25.002703,121.628328,0.0007117348
C0AI00,五股,2019-01-03,25.07445,121.42728,0.0003650109
C0AI10,屈尺,2019-01-03,24.92184,121.54475,0.0007117348
C0AI20,白沙灣,2019-01-03,25.283128,121.519058,0.00043112182
C0AI30,三重,2019-01-03,25.057328,121.500629,0.00061415904
C0AI40,石牌,2019-01-03,25.115597,121.513139,0.0006020723
C0AJ20,野柳,2019-01-03,25.20703,121.690021,0.0005056498
C0AJ30,淡水觀海,2019-01-03,25.184591,121.408616,0.0005293675
C0AJ40,石門,2019-01-03,25.273672,121.601198,0.00036789456
C0AJ50,水湳洞,2019-01-03,25.123695,121.862238,0.0005056498
C0AJ60,六塊厝,2019-01-03,25.24,121.4481,0.0005293675
C0AJ70,田寮,2019-01-03,25.2698,121.4886,0.00043613065
C0AJ80,板橋,2019-01-03,25.0107,121.4489,0.0006020723
C0AJ90,澳底,2019-01-03,25.0552,121.9253,0.005552491
C0B010,七堵,2019-01-03,25.094819,121.71713,0.0004897608
C0B020,基隆嶼,2019-01-03,25.19141,121.78391,0.0005056498
C0B040,大武崙,2019-01-03,25.166676,121.706993,0.00048976124
C0B050,八斗子,2019-01-03,25.144754,121.79167,0.00052275223
C0B060,暖暖,2019-01-03,25.0957,121.7403,0.0004545338
C0C460,復興,2019-01-03,24.820208,121.352281,0.0014641498
C0C480,桃園,2019-01-03,24.992425,121.323172,0.00037070733
C0C490,八德,2019-01-03,24.928708,121.283289,0.00046031098
C0C590,觀音,2019-01-03,25.027072,121.153317,0.00043120625
C0C620,蘆竹,2019-01-03,25.084275,121.265767,0.00050726417
C0C630,大溪,2019-01-03,24.882853,121.265547,0.0004276918
C0C650,平鎮,2019-01-03,24.897503,121.214636,0.00033435636
C0C660,楊梅,2019-01-03,24.912375,121.143047,0.00031927606
C0C670,龍潭,2019-01-03,24.870056,121.221389,0.0002845757
C0C680,龜山,2019-01-03,25.02846,121.38656,0.00087965775
C0C700,中壢,2019-01-03,24.977661,121.256375,0.0003625374
C0C710,大溪永福,2019-01-03,24.892936,121.324975,0.0003318122
C0C720,竹圍,2019-01-03,25.112692,121.239824,0.00052121235
C0C730,中大臨海站,2019-01-03,24.966126,121.008581,0.00037828917
C0C740,觀音工業區,2019-01-03,25.064764,121.114856,0.0003706849
C0C750,新興坑尾,2019-01-03,25.0061,121.0971,0.00034833103
C0D430,峨眉,2019-01-03,24.6905,121.017189,0.00038202814
C0D480,打鐵坑,2019-01-03,24.849664,121.150789,0.0003139943
C0D540,橫山,2019-01-03,24.71116,121.11693,0.00029627077
C0D560,竹東,2019-01-03,24.767147,121.057881,0.00034516686
C0D580,寶山,2019-01-03,24.735006,121.025192,0.00031716088
C0D590,新豐,2019-01-03,24.87068,120.97721,0.0004949435
C0D650,湖口,2019-01-03,24.904794,121.043628,0.00031560176
C0D660,新竹市東區,2019-01-03,24.798681,120.986942,0.00040163816
C0D670,海天一線,2019-01-03,24.831986,120.914438,0.00047363597
C0D680,香山濕地,2019-01-03,24.783581,120.914988,0.0004589851
C0D690,外湖,2019-01-03,24.917735,120.968711,0.00037828845
C0D700,關西,2019-01-03,24.7977,121.1732,0.0003514029
C0E420,竹南,2019-01-03,24.708978,120.888897,0.00042808068
C0E430,南庄,2019-01-03,24.601775,121.000214,0.00035415145
C0E520,大湖,2019-01-03,24.41494,120.87087,0.00082336727
C0E540,後龍,2019-01-03,24.606489,120.783933,0.00044280713
C0E550,明德,2019-01-03,24.583486,120.885411,0.00041811692
C0E590,通霄,2019-01-03,24.471892,120.704622,0.00043859062
C0E730,頭份,2019-01-03,24.688247,120.912206,0.00042808068
C0E740,造橋,2019-01-03,24.637056,120.864778,0.00040475032
C0E750,苗栗,2019-01-03,24.564569,120.824575,0.00042733783
C0E780,銅鑼,2019-01-03,24.489681,120.790853,0.00039287348
C0E791,卓蘭,2019-01-03,24.3126,120.8244,0.00090517657
C0E810,西湖,2019-01-03,24.562947,120.7485,0.00043334594
C0E820,獅潭,2019-01-03,24.539133,120.920042,0.00039436735
C0E830,苑裡,2019-01-03,24.439714,120.653053,0.00051866745
C0E850,大河,2019-01-03,24.618069,120.948578,0.00041269584
C0E870,高鐵苗栗,2019-01-03,24.60725,120.826094,0.00043972535
C0E910,海埔,2019-01-03,24.648767,120.772435,0.00044648492
C0E920,通霄漁港,2019-01-03,24.498589,120.673876,0.00045467357
C0E930,龍鳳,2019-01-03,24.700034,120.859125,0.00041282
C0F0B0,石岡,2019-01-03,24.276061,120.777644,0.009799294
C0F850,東勢,2019-01-03,24.246428,120.833047,0.0009835154
C0F930,大甲,2019-01-03,24.347667,120.640403,0.0005270299
C0F970,大坑,2019-01-03,24.173142,120.722289,0.00044813764
C0F9A0,中竹林,2019-01-03,24.103556,120.751061,0.0062614647
C0F9I0,神岡,2019-01-03,24.272481,120.658314,0.0003934334
C0F9K0,大安,2019-01-03,24.345061,120.588025,0.00059825496
C0F9L0,后里,2019-01-03,24.310436,120.729725,0.0003750462
C0F9M0,豐原,2019-01-03,24.254322,120.720692,0.00038531047
C0F9N0,大里,2019-01-03,24.092464,120.701378,0.000484026
C0F9O0,潭子,2019-01-03,24.213106,120.703933,0.0003987647
C0F9P0,清水,2019-01-03,24.312297,120.562242,0.0006182369
C0F9Q0,外埔,2019-01-03,24.347817,120.705686,0.0004073139
C0F9R0,龍井,2019-01-03,24.184536,120.528972,0.00057216256
C0F9S0,烏日,2019-01-03,24.107058,120.624103,0.0012336646
C0F9T0,西屯,2019-01-03,24.179494,120.641275,0.00048438186
C0F9U0,南屯,2019-01-03,24.137006,120.637969,0.000484026
C0F9X0,大雅(中科園區),2019-01-03,24.21528,120.62445,0.00044821858
C0FA10,松柏,2019-01-03,24.429115,120.617482,0.0005364482
C0FA20,溫寮,2019-01-03,24.372177,120.583125,0.0005364482
C0FA30,梧棲,2019-01-03,24.256003,120.523381,0.00057216256
C0FA40,臺中電廠,2019-01-03,24.2146,120.4907,0.00057216256
C0FA50,霧峰,2019-01-03,24.0419,120.6995,0.00045671148
C0G620,芬園,2019-01-03,24.015678,120.6213,0.0009850252
C0G640,鹿港,2019-01-03,24.0753,120.430481,0.0014090094
C0G650,員林,2019-01-03,23.946503,120.585597,0.0013544261
C0G660,溪湖,2019-01-03,23.94835,120.479122,0.0014359273
C0G720,溪州,2019-01-03,23.851589,120.499093,0.006462838
C0G730,二林,2019-01-03,23.903325,120.376081,0.0017228584
C0G740,大城,2019-01-03,23.852487,120.320935,0.00081226224
C0G770,福興,2019-01-03,24.041289,120.437669,0.0014090094
C0G780,秀水,2019-01-03,24.03405,120.503869,0.0013651827
C0G800,埔鹽,2019-01-03,24.000394,120.431683,0.0014090094
C0G810,埔心,2019-01-03,23.947633,120.525456,0.001384219
C0G820,田尾,2019-01-03,23.901669,120.509389,0.001341972
C0G830,埤頭,2019-01-03,23.866003,120.452806,0.007591317
C0G840,北斗,2019-01-03,23.877586,120.514222,0.001341972
C0G860,社頭,2019-01-03,23.897647,120.5862,0.0013088475
C0G870,芳苑,2019-01-03,23.922303,120.320025,0.0008293398
C0G880,二水,2019-01-03,23.810742,120.6173,0.006907095
C0G890,伸港,2019-01-03,24.148933,120.484403,0.0005523099
C0G900,線西,2019-01-03,24.143358,120.443536,0.0005609618
C0G910,花壇,2019-01-03,24.032076,120.549461,0.0012780975
C0G920,永靖,2019-01-03,23.924703,120.547533,0.0013419713
C0G940,竹塘,2019-01-03,23.848253,120.386764,0.012560926
C0G950,防潮門,2019-01-03,24.1835,120.4871,0.0005813163
C0G960,福寶,2019-01-03,24.0443,120.3814,0.0014583395
C0G970,三豐,2019-01-03,23.882,120.2895,0.0008293398
C0H890,埔里,2019-01-03,23.972169,120.952425,0.0029670424
C0H950,中寮,2019-01-03,23.884447,120.766406,0.002609584
C0H960,草屯,2019-01-03,23.973672,120.68085,0.0057524336
C0I110,竹山,2019-01-03,23.761225,120.688156,0.0031867935
C0I360,水里,2019-01-03,23.812553,120.849792,0.004638606
C0I380,集集,2019-01-03,23.828206,120.801467,0.005234653
C0I410,名間,2019-01-03,23.837053,120.701447,0.006270111
C0I420,國姓,2019-01-03,24.037803,120.855072,0.017880866
C0I460,南投,2019-01-03,23.911469,120.687331,0.0046321736
C0K250,崙背,2019-01-03,23.75555,120.318925,0.00078746857
C0K280,四湖,2019-01-03,23.630414,120.227125,0.0009016302
C0K291,宜梧,2019-01-03,23.536281,120.169329,0.005023798
C0K330,虎尾,2019-01-03,23.719183,120.442036,0.013372928
C0K390,土庫,2019-01-03,23.679029,120.395574,0.014350899
C0K400,斗六,2019-01-03,23.720583,120.541127,0.01102919
C0K410,北港,2019-01-03,23.573957,120.292802,0.00391532
C0K420,西螺,2019-01-03,23.800407,120.467394,0.008752526
C0K430,褒忠,2019-01-03,23.690938,120.303634,0.000980487
C0K440,二崙,2019-01-03,23.772797,120.408944,0.01121884
C0K450,大埤,2019-01-03,23.646074,120.431537,0.009043659
C0K460,斗南,2019-01-03,23.678734,120.478359,0.012920893
C0K470,林內,2019-01-03,23.748675,120.609642,0.007772552
C0K480,莿桐,2019-01-03,23.761192,120.502372,0.008193356
C0K500,元長,2019-01-03,23.64981,120.315024,0.00094805984
C0K510,水林,2019-01-03,23.572924,120.24597,0.0034302643
C0K530,臺西,2019-01-03,23.701547,120.197559,0.000801961
C0K550,蔦松,2019-01-03,23.514319,120.229736,0.0045799455
C0K560,棋山,2019-01-03,23.68645,120.603417,0.028730048
C0K580,高鐵雲林,2019-01-03,23.737456,120.417944,0.014350899
C0K590,雲林東勢,2019-01-03,23.674192,120.255721,0.000987172
C0K600,箔子寮,2019-01-03,23.6197,120.14,0.0036899173
C0M410,馬頭山,2019-01-03,23.324361,120.582017,0.012517843
C0M520,東後寮,2019-01-03,23.369908,120.248065,0.015192052
C0M640,中埔,2019-01-03,23.42538,120.5229,0.011579818
C0M650,朴子,2019-01-03,23.43463,120.23902,0.0058008544
C0M660,溪口,2019-01-03,23.604131,120.403569,0.00074480823
C0M670,大林,2019-01-03,23.600616,120.45841,0.0008192035
C0M680,太保,2019-01-03,23.455062,120.331455,0.007994856
C0M690,水上,2019-01-03,23.419734,120.388909,0.00086529437
C0M700,竹崎,2019-01-03,23.526178,120.555508,0.0066911397
C0M710,東石,2019-01-03,23.458927,120.15385,0.0045799455
C0M720,番路,2019-01-03,23.464657,120.554156,0.0063586696
C0M730,嘉義市東區,2019-01-03,23.457673,120.460531,0.0009341585
C0M740,六腳,2019-01-03,23.492871,120.290625,0.008792759
C0M750,布袋,2019-01-03,23.380878,120.167789,0.0058008544
C0M760,民雄,2019-01-03,23.551754,120.428457,0.0007107141
C0M770,嘉義梅山,2019-01-03,23.585398,120.555587,0.01782004
C0M780,鹿草,2019-01-03,23.41134,120.30835,0.0066500176
C0M790,新港,2019-01-03,23.553269,120.345728,0.0036447574
C0M800,茶山,2019-01-03,23.299075,120.664767,0.08163145
C0M880,好美里,2019-01-03,23.3364,120.138,0.055016913
C0N010,鯤鯓國小,2019-01-03,23.1879,120.0889,0.021004174
C0N020,城西,2019-01-03,23.0568,120.0956,0.083273284
C0N030,四草,2019-01-03,23.0235,120.1116,0.43402186
C0N040,蘆竹溝,2019-01-03,23.2344,120.0961,0.021004174
C0N050,蚵寮,2019-01-03,23.301,120.1104,0.021004174
C0O810,曾文,2019-01-03,23.219681,120.497328,0.0024649808
C0O830,北寮,2019-01-03,23.079561,120.495008,0.20738877
C0O840,王爺宮,2019-01-03,23.222064,120.40085,0.0024649808
C0O860,大內,2019-01-03,23.11885,120.36083,0.04409653
C0O900,善化,2019-01-03,23.112883,120.297219,0.23305392
C0O930,玉井,2019-01-03,23.126042,120.46055,0.0068294993
C0O950,安南,2019-01-03,23.076694,120.144861,0.13112433
C0O960,崎頂,2019-01-03,22.959547,120.369317,0.19058755
C0O970,虎頭埤,2019-01-03,23.021375,120.347878,0.14427303
C0O980,新市,2019-01-03,23.061614,120.298197,0.23305392
C0O990,媽廟,2019-01-03,22.99175,120.293525,0.4015219
C0R150,三地門,2019-01-03,22.709889,120.639944,0.19401133
C0R160,鹽埔,2019-01-03,22.739558,120.530778,0.1191021
C0R170,屏東,2019-01-03,22.660269,120.494072,0.7277106
C0R190,赤山,2019-01-03,22.592333,120.614306,0.059670515
C0R220,潮州,2019-01-03,22.534361,120.54,0.024352176
C0R240,來義,2019-01-03,22.527306,120.625111,0.014353528
C0R260,春日,2019-01-03,22.370361,120.628306,0.015545187
C0R270,琉球嶼,2019-01-03,22.332244,120.362236,0.015343844
C0R280,檳榔,2019-01-03,22.076078,120.836777,9.026129e-05
C0R320,車城,2019-01-03,22.0744,120.716247,0.000114971735
C0R341,牡丹,2019-01-03,22.130036,120.792639,0.00895942
C0R350,貓鼻頭,2019-01-03,21.921774,120.7358,8.8778266e-05
C0R470,高樹,2019-01-03,22.826389,120.600806,0.17304066
C0R480,長治,2019-01-03,22.693128,120.542622,0.122836895
C0R490,九如,2019-01-03,22.7405,120.490503,0.71258235
C0R520,崁頂,2019-01-03,22.514781,120.506914,0.43520114
C0R540,佳冬,2019-01-03,22.419456,120.552375,0.4387501
C0R550,新埤,2019-01-03,22.467947,120.582894,0.059427768
C0R560,新園,2019-01-03,22.5434,120.461558,0.43520114
C0R570,麟洛,2019-01-03,22.65078,120.52719,0.71258235
C0R580,南州,2019-01-03,22.48591,120.50274,0.4387501
C0R590,里港,2019-01-03,22.77919,120.49459,0.117101125
C0R620,墾雷,2019-01-03,21.900836,120.855269,8.8778266e-05
C0R640,東港,2019-01-03,22.46247,120.44074,0.34903532
C0R650,竹田,2019-01-03,22.58486,120.54344,0.05858886
C0R660,枋寮,2019-01-03,22.367722,120.590647,0.025167849
C0R670,楓港,2019-01-03,22.190131,120.692156,0.01733793
C0R680,佳樂水,2019-01-03,21.993578,120.861633,0.00010002032
C0R690,墾丁,2019-01-03,21.966756,120.810269,9.513328e-05
C0R700,枋山,2019-01-03,22.246844,120.661086,0.01733793
C0R710,龍磐,2019-01-03,21.931672,120.838942,6.239959e-05
C0R720,旭海,2019-01-03,22.205403,120.887614,0.0020540575
C0R730,大坪頂,2019-01-03,22.024633,120.69355,8.280185e-05
C0R740,獅子,2019-01-03,22.201569,120.70525,0.015496271
C0R760,南仁湖,2019-01-03,22.084681,120.863353,0.00018020764
C0R770,保力,2019-01-03,22.071122,120.764111,6.808364e-05
C0R780,滿州,2019-01-03,22.024403,120.839892,8.3670435e-05
C0R790,九棚,2019-01-03,22.14195,120.889281,0.0024024574
C0R800,丹路,2019-01-03,22.204481,120.750989,0.012712961
C0R810,內獅,2019-01-03,22.305064,120.642986,0.017233407
C0R830,高士,2019-01-03,22.121825,120.836781,0.00024834942
C0R850,林邊,2019-01-03,22.4634,120.5339,0.43520114
C0R860,鼻頭,2019-01-03,22.1043,120.8979,0.00030799198
C0R870,興海,2019-01-03,21.9752,120.8439,0.0001000206
C0R880,後壁湖,2019-01-03,21.9457,120.7457,0.00012295706
C0R890,山海,2019-01-03,21.9878,120.7091,0.000114971735
C0R900,竹坑,2019-01-03,22.1385,120.7022,0.016927779
C0R910,下寮,2019-01-03,22.3929,120.5548,0.4387501
C0R920,塭仔,2019-01-03,22.4169,120.5197,0.4450381
C0R930,萬丹,2019-01-03,22.5885,120.4851,0.058588963
C0R940,加祿堂,2019-01-03,22.3363,120.6217,0.017233407
C0S710,鹿野,2019-01-03,22.917711,121.122994,0.022558467
C0S730,綠島,2019-01-03,22.6672,121.47533,0.14729404
C0S740,池上,2019-01-03,23.119628,121.209469,0.055383977
C0S770,大溪山,2019-01-03,22.478475,120.943325,0.002372146
C0S790,金崙,2019-01-03,22.538122,120.966875,0.014686457
C0S810,東河,2019-01-03,22.972672,121.303986,0.21866336
C0S830,長濱,2019-01-03,23.286817,121.411975,0.0025841298
C0S840,南田,2019-01-03,22.279725,120.889208,0.010364029
C0S890,關山,2019-01-03,23.0395,121.175017,0.04285952
C0S900,蘭嶼高中,2019-01-03,22.04909,121.51214,0.0006736365
C0S910,蘭嶼燈塔,2019-01-03,22.081197,121.503117,0.00034879375
C0S920,金峰嘉蘭,2019-01-03,22.594789,120.960825,0.09299687
C0S930,延平,2019-01-03,22.902581,121.084058,0.060455002
C0S940,石寧山,2019-01-03,23.223772,121.406639,0.0051888367
C0S950,七塊厝,2019-01-03,22.954453,121.229922,0.016964113
C0S960,香蘭,2019-01-03,22.587569,120.993375,0.23806979
C0S970,加津林,2019-01-03,22.416211,120.926942,0.03613109
C0S990,山豬窟,2019-01-03,22.318619,120.857372,0.0023105557
C0SA00,歷坵,2019-01-03,22.520969,120.89185,0.0014816117
C0SA10,檳榔四格山,2019-01-03,22.810031,121.109308,0.0016264538
C0SA30,都歷,2019-01-03,23.020333,121.323642,0.18959202
C0SA40,瑞和,2019-01-03,22.974361,121.156697,0.056478523
C0SA60,知本（水試所）,2019-01-03,22.702394,121.082761,0.048426088
C0SA80,土坂,2019-01-03,22.453108,120.887572,0.047116388
C0SA90,達仁林場,2019-01-03,22.264347,120.823972,0.0028389546
C0T870,鯉魚潭,2019-01-03,23.935639,121.508944,0.21792829
C0T900,西林,2019-01-03,23.8119,121.441458,0.1616093
C0T960,光復,2019-01-03,23.660694,121.424964,0.18057029
C0T9A0,月眉山,2019-01-03,23.809928,121.539828,0.03884431
C0T9D0,和中,2019-01-03,24.26676,121.74103,0.5259436
C0T9E0,大坑,2019-01-03,23.880628,121.581981,0.075093545
C0T9F0,水璉,2019-01-03,23.797131,121.542514,0.07530016
C0T9I0,豐濱,2019-01-03,23.583897,121.514806,0.20978874
C0T9M0,靜浦,2019-01-03,23.455167,121.495028,0.35131592
C0T9N0,富里,2019-01-03,23.171639,121.249378,0.0068016984
C0U600,礁溪,2019-01-03,24.817539,121.765608,0.010019028
C0U650,玉蘭,2019-01-03,24.675286,121.587061,0.014418009
C0U750,龜山島,2019-01-03,24.841667,121.953133,0.005453137
C0U760,東澳,2019-01-03,24.52196,121.83318,0.03022941
C0U770,南澳,2019-01-03,24.44935,121.81022,0.10776303
C0U780,五結,2019-01-03,24.68637,121.79794,0.008492981
C0U860,頭城,2019-01-03,24.85323,121.8308,0.010470732
C0U870,大礁溪,2019-01-03,24.791042,121.675047,0.005825005
C0U880,北關,2019-01-03,24.9072,121.8734,0.00096265273
C0U890,三星,2019-01-03,24.66812,121.65302,0.00686632
C0U900,內城,2019-01-03,24.71813,121.68766,0.008896728
C0U910,冬山,2019-01-03,24.63373,121.7937,0.008492985
C0U940,羅東,2019-01-03,24.68184,121.74934,0.008065554
C0U970,大福,2019-01-03,24.80064,121.81389,0.010903383
C0U990,員山,2019-01-03,24.74435,121.72247,0.008065554
C0UA00,土場,2019-01-03,24.576533,121.495333,0.01801793
C0UA80,大溪漁港,2019-01-03,24.941801,121.902955,0.010019028
C0UA90,石城,2019-01-03,24.980444,121.951214,0.005532905
C0UB00,淡江大學蘭陽校園,2019-01-03,24.823239,121.730383,0.006843486
C0UB10,蘇澳,2019-01-03,24.5969,121.8571,0.08858
C0UB20,壯圍,2019-01-03,24.7359,121.8163,0.0089791985
C0V250,甲仙,2019-01-03,23.080106,120.591758,0.058250424
C0V260,月眉,2019-01-03,22.971003,120.539853,0.21192655
C0V310,美濃,2019-01-03,22.898742,120.519153,0.2785085
C0V350,溪埔,2019-01-03,22.738578,120.446797,0.4962192
C0V360,內門,2019-01-03,22.975481,120.466769,0.07137834
C0V370,古亭坑,2019-01-03,22.893178,120.401947,0.10862329
C0V400,阿公店,2019-01-03,22.804194,120.355528,0.47942355
C0V440,鳳山,2019-01-03,22.646653,120.356122,0.3127857
C0V450,鳳森,2019-01-03,22.545064,120.392592,0.017065726
C0V490,新興,2019-01-03,22.627422,120.298803,0.34105635
C0V530,阿蓮,2019-01-03,22.883208,120.327508,0.6273942
C0V610,梓官,2019-01-03,22.760558,120.267211,0.54965633
C0V620,永安,2019-01-03,22.82315,120.236856,0.43152103
C0V630,茄萣,2019-01-03,22.906642,120.182608,0.5203811
C0V640,湖內,2019-01-03,22.887139,120.2445,0.5021629
C0V650,彌陀,2019-01-03,22.783806,120.246361,0.43152103
C0V660,岡山,2019-01-03,22.797078,120.294958,0.54965603
C0V680,仁武,2019-01-03,22.701083,120.347722,0.2565075
C0V690,鼓山,2019-01-03,22.623325,120.275575,0.34105635
C0V700,三民,2019-01-03,22.645017,120.311233,0.33133563
C0V710,苓雅,2019-01-03,22.622742,120.330669,0.33133563
C0V720,林園,2019-01-03,22.507747,120.394511,0.34105635
C0V730,大寮,2019-01-03,22.605614,120.395717,0.018406438
C0V740,旗山,2019-01-03,22.888614,120.483597,0.25477362
C0V750,路竹,2019-01-03,22.854997,120.259439,0.65788
C0V760,橋頭,2019-01-03,22.757806,120.30575,0.5404936
C0V770,大社,2019-01-03,22.730306,120.346639,0.2565075
C0V790,萬山,2019-01-03,22.905944,120.688056,0.12166479
C0V800,六龜,2019-01-03,22.997889,120.633583,0.26625857
C0V810,左營,2019-01-03,22.67491,120.28491,0.2650527
C0V820,小林,2019-01-03,23.148408,120.63325,0.06961111
C0V840,鳳鼻頭,2019-01-03,22.5083,120.3591,0.34903532
C0V850,蚵仔寮,2019-01-03,22.7256,120.2527,0.2721258
C0V860,南寮,2019-01-03,22.7616,120.2339,0.44202188
C0V870,文安,2019-01-03,22.8025,120.2164,0.44202188
C0V880,興達,2019-01-03,22.8778,120.2127,0.520381
C0V890,前鎮,2019-01-03,22.5718,120.3117,0.34903532
C0V900,汕尾,2019-01-03,22.4782,120.4151,0.70207524
C0X050,東河,2019-01-03,23.296598,120.385608,0.004903393
C0X060,下營,2019-01-03,23.22695,120.256261,0.053699758
C0X080,佳里,2019-01-03,23.173039,120.145086,0.055016913
C0X100,臺南市北區,2019-01-03,23.010394,120.194228,0.3678588
C0X110,臺南市南區,2019-01-03,22.961189,120.188378,0.34242716
C0X120,麻豆,2019-01-03,23.183289,120.248611,0.047997016
C0X130,官田,2019-01-03,23.193217,120.315422,0.037550732
C0X140,西港,2019-01-03,23.125608,120.203108,0.10569941
C0X150,安定,2019-01-03,23.102614,120.227839,0.16389973
C0X160,仁德,2019-01-03,22.968258,120.257689,0.43957552
C0X170,關廟,2019-01-03,22.963017,120.327797,0.2889336
C0X180,山上,2019-01-03,23.0757,120.363253,0.017145311
C0X190,安平,2019-01-03,22.993161,120.152181,0.3678588
C0X200,左鎮,2019-01-03,23.056758,120.408522,0.019063523
C0X210,白河,2019-01-03,23.347466,120.414427,0.0045197196
C0X220,學甲,2019-01-03,23.230367,120.182187,0.047997016
C0X230,鹽水,2019-01-03,23.272621,120.247641,0.023174662
C0X240,關子嶺,2019-01-03,23.331169,120.508025,0.010916703
C0X250,新營,2019-01-03,23.310689,120.316681,0.033626445
C0X260,後壁,2019-01-03,23.366358,120.362326,0.009060734
C0X280,將軍,2019-01-03,23.214999,120.13577,0.055016913
C0X290,北門,2019-01-03,23.267772,120.125481,0.055016913
C0X300,鹿寮,2019-01-03,23.386047,120.477331,0.016457869
C0X310,七股,2019-01-03,23.147289,120.086253,0.039463345
C0X320,柳營,2019-01-03,23.253328,120.375253,0.004903393
C0Z020,明里,2019-01-03,23.208717,121.262342,0.0029869
C0Z061,玉里,2019-01-03,23.3215,121.339656,0.006013515
C0Z070,舞鶴,2019-01-03,23.46811,121.37407,0.032067314
C0Z080,富源,2019-01-03,23.587642,121.378225,0.07277663
C0Z100,東華,2019-01-03,23.89525,121.549833,0.4115339
C0Z150,吉安光華,2019-01-03,23.930925,121.595153,0.44698572
C0Z160,鳳林,2019-01-03,23.746114,121.453411,0.20754015
C0Z170,卓溪,2019-01-03,23.3443,121.3029,0.0049228356
C0Z180,新城,2019-01-03,24.03946,121.60454,0.20724663
C0Z190,富世,2019-01-03,24.14743,121.6297,0.27081943
C0Z200,萬榮,2019-01-03,23.709219,121.420106,0.21792829
C0Z210,瑞穗,2019-01-03,23.5239,121.39021,0.260376
C0Z230,和平,2019-01-03,24.30717,121.77007,0.5259436
C0Z270,蕃薯寮,2019-01-03,23.73835,121.540108,0.17155033
C0Z280,德武,2019-01-03,23.47426,121.41071,0.05526687
C0Z300,東里,2019-01-03,23.26853,121.30547,0.0054618646
C0Z310,清水斷崖,2019-01-03,24.218294,121.689142,0.23460363
C0Z330,安通山,2019-01-03,23.290728,121.348528,0.0038104716
CAG100,王功漁港,2019-01-03,23.96824,120.32586,0.00063000806
CAJ050,海口故事園區,2019-01-03,23.57543,120.14121,0.0036899173
CAL110,布袋國中,2019-01-03,23.35893,120.18026,0.015192052
CAN130,水試所海水繁養殖中心,2019-01-03,23.120802,120.07968,0.092274964
CAN140,六官養殖協會,2019-01-03,23.22881,120.29962,0.044096813
CAQ030,崎峰國小,2019-01-03,22.42565,120.49521,0.4387501
E2K600,四湖植物園,2019-01-03,23.676986,120.163433,0.000801961
E2P980,林試六龜中心,2019-01-03,22.991703,120.645722,0.26408032
E2S960,林試太麻里2,2019-01-03,22.598014,120.989761,0.23806979
E2S980,林試太麻里1,2019-01-03,22.598922,120.980044,0.108403005
G2F820,農業試驗所,2019-01-03,24.031261,120.688133,0.00046035115
G2L020,農試嘉義分所,2019-01-03,23.485028,120.473806,0.011834615
G2M350,農試溪口農場,2019-01-03,23.58565,120.408111,0.00074480823
G2P820,農試鳳山分所,2019-01-03,22.646611,120.356083,0.3127857
K2E360,苗栗農改,2019-01-03,24.495722,120.829111,0.00040515512
K2E710,苗改生物防治研究中心,2019-01-03,24.422861,120.871833,0.00036993335
K2F750,種苗繁殖,2019-01-03,24.225972,120.800917,0.0007949409
U2HA50,臺大竹山,2019-01-03,23.756972,120.681556,0.0030928864
V2K620,麥寮合作社,2019-01-03,23.753836,120.294783,0.00080897886
