站號,站名,日期,lat,lon,BlastGRU-TW
466881,新北,2019-11-04,24.9593,121.52,0.07614679
466900,淡水,2019-11-04,25.1649,121.4489,0.007616361
466920,臺北,2019-11-04,25.0377,121.5149,0.08792136
466940,基隆,2019-11-04,25.1333,121.7405,0.014832053
466990,花蓮,2019-11-04,23.9751,121.6133,0.87963605
467050,新屋,2019-11-04,25.0067,121.0475,0.015356096
467080,宜蘭,2019-11-04,24.764,121.7565,0.84262484
467270,田中,2019-11-04,23.8738,120.5813,0.36601084
467300,東吉島,2019-11-04,23.2569,119.6675,0.020075457
467350,澎湖,2019-11-04,23.5655,119.5631,0.00097425684
467410,臺南,2019-11-04,22.9932,120.2048,0.56980956
467420,永康,2019-11-04,23.0384,120.2367,0.58372825
467441,高雄,2019-11-04,22.7304,120.3125,0.7132011
467480,嘉義,2019-11-04,23.4959,120.4329,0.64571637
467490,臺中,2019-11-04,24.1457,120.6841,0.23081937
467540,大武,2019-11-04,22.3557,120.9038,0.25184938
467571,新竹,2019-11-04,24.8279,121.0142,0.002581372
467590,恆春,2019-11-04,22.0039,120.7463,0.038352486
467610,成功,2019-11-04,23.0975,121.3734,0.62604403
467620,蘭嶼,2019-11-04,22.037,121.5583,0.00086055865
467660,臺東,2019-11-04,22.7522,121.1546,0.73042476
467790,墾丁雷達站,2019-11-04,21.9482,120.808,0.041862056
C0A520,山佳,2019-11-04,24.9749,121.402,0.024831941
C0A530,坪林,2019-11-04,24.9382,121.7097,0.26476607
C0A540,四堵,2019-11-04,24.8926,121.7457,0.03538951
C0A550,泰平,2019-11-04,24.9712,121.8237,0.07775916
C0A560,福山,2019-11-04,24.7762,121.5028,0.088680156
C0A570,桶後,2019-11-04,24.8482,121.598,0.098666966
C0A640,石碇,2019-11-04,24.994,121.6629,0.23879316
C0A650,火燒寮,2019-11-04,25.0027,121.7429,0.12841517
C0A660,瑞芳,2019-11-04,25.1132,121.8011,0.5055296
C0A770,科教館,2019-11-04,25.0964,121.5165,0.03307912
C0A860,大坪,2019-11-04,25.1659,121.633,0.013990267
C0A880,福隆,2019-11-04,25.0178,121.9421,0.755994
C0A890,雙溪,2019-11-04,25.036,121.8642,0.008254092
C0A920,富貴角,2019-11-04,25.2638,121.5653,0.0009693493
C0A931,三和,2019-11-04,25.2332,121.5952,0.101355694
C0A940,金山,2019-11-04,25.2236,121.644,0.0013711825
C0A950,鼻頭角,2019-11-04,25.129,121.9234,0.77355283
C0A970,三貂角,2019-11-04,25.0076,122.0021,0.5411032
C0A980,社子,2019-11-04,25.1095,121.4697,0.03631757
C0A9C0,天母,2019-11-04,25.1175,121.5372,0.02729708
C0A9F0,內湖,2019-11-04,25.0794,121.5755,0.08792136
C0AC60,三峽,2019-11-04,24.939,121.3697,0.07069576
C0AC70,信義,2019-11-04,25.0378,121.5646,0.08792136
C0AC80,文山,2019-11-04,25.0023,121.5757,0.060990933
C0ACA0,新莊,2019-11-04,25.0515,121.4468,0.01529945
C0AD00,三芝,2019-11-04,25.2581,121.5019,0.0008103256
C0AD10,八里,2019-11-04,25.1502,121.4039,0.007616361
C0AD30,蘆洲,2019-11-04,25.0866,121.4723,0.03307912
C0AD40,土城,2019-11-04,24.9732,121.4452,0.0300227
C0AD50,鶯歌,2019-11-04,24.9515,121.3463,0.006636707
C0AG80,中和,2019-11-04,24.9916,121.4918,0.08792136
C0AH00,汐止,2019-11-04,25.0669,121.6588,0.013294508
C0AH10,永和,2019-11-04,25.0113,121.5081,0.09415171
C0AH40,平等,2019-11-04,25.1291,121.5771,0.015188934
C0AH50,林口,2019-11-04,25.0722,121.3808,0.06223572
C0AH70,松山,2019-11-04,25.0487,121.5504,0.08792136
C0AH80,深坑,2019-11-04,25.0027,121.6283,0.06574371
C0AI00,五股,2019-11-04,25.0744,121.4273,0.0004371879
C0AI10,屈尺,2019-11-04,24.9218,121.5447,0.060990933
C0AI20,白沙灣,2019-11-04,25.2831,121.5191,0.0017484782
C0AI30,三重,2019-11-04,25.0573,121.5006,0.03307912
C0AI40,石牌,2019-11-04,25.1156,121.5131,0.0300227
C0AJ10,澳底,2019-11-04,25.0571,121.9273,0.79043686
C0AJ20,野柳,2019-11-04,25.207,121.69,0.013294508
C0AJ30,淡水觀海,2019-11-04,25.1846,121.4086,0.008632728
C0AJ40,石門,2019-11-04,25.2737,121.6012,0.0002910222
C0AJ50,水湳洞,2019-11-04,25.1237,121.8622,0.013294508
C0AJ60,六塊厝,2019-11-04,25.24,121.4481,0.008632728
C0AJ70,田寮,2019-11-04,25.2698,121.4886,0.0019881157
C0AJ80,板橋,2019-11-04,25.0107,121.4489,0.0300227
C0B010,七堵,2019-11-04,25.0948,121.7171,0.0106177665
C0B020,基隆嶼,2019-11-04,25.1914,121.7839,0.013294508
C0B040,大武崙,2019-11-04,25.1667,121.707,0.0106177665
C0B050,八斗子,2019-11-04,25.1448,121.7917,0.016562402
C0B060,暖暖,2019-11-04,25.0957,121.7403,0.005568396
C0C460,復興,2019-11-04,24.8202,121.3523,0.02652371
C0C480,桃園,2019-11-04,24.9924,121.3232,0.0011026238
C0C490,八德,2019-11-04,24.9287,121.2833,0.008128222
C0C590,觀音,2019-11-04,25.0271,121.1533,0.0029103067
C0C620,蘆竹,2019-11-04,25.0843,121.2658,0.006002097
C0C630,大溪,2019-11-04,24.8829,121.2655,0.004069718
C0C650,平鎮,2019-11-04,24.8975,121.2146,0.0005862067
C0C660,楊梅,2019-11-04,24.9124,121.143,0.00046156207
C0C670,龍潭,2019-11-04,24.8701,121.2214,0.0003708091
C0C680,龜山,2019-11-04,25.0285,121.3866,0.0885228
C0C700,中壢,2019-11-04,24.9777,121.2564,0.0007704588
C0C710,大溪永福,2019-11-04,24.8929,121.325,0.0015670297
C0C720,竹圍,2019-11-04,25.1127,121.2398,0.007616361
C0C730,中大臨海站,2019-11-04,24.9661,121.0086,0.02057911
C0C740,觀音工業區,2019-11-04,25.0648,121.1149,0.0022855655
C0C750,新興坑尾,2019-11-04,25.0061,121.0971,0.0009972132
C0D430,峨眉,2019-11-04,24.6905,121.0172,0.003407752
C0D480,打鐵坑,2019-11-04,24.8497,121.1508,0.002667146
C0D540,橫山,2019-11-04,24.7112,121.1169,0.00047429808
C0D560,竹東,2019-11-04,24.7671,121.0579,0.0013677289
C0D580,寶山,2019-11-04,24.735,121.0252,0.0014599542
C0D590,新豐,2019-11-04,24.8707,120.9772,0.011068448
C0D650,湖口,2019-11-04,24.9048,121.0436,0.007871354
C0D660,新竹市東區,2019-11-04,24.7987,120.9869,0.001963566
C0D670,海天一線,2019-11-04,24.832,120.9144,0.005525608
C0D680,香山濕地,2019-11-04,24.7836,120.915,0.004926745
C0D690,外湖,2019-11-04,24.9177,120.9687,0.020579103
C0D700,關西,2019-11-04,24.7977,121.1732,0.0013423313
C0E420,竹南,2019-11-04,24.709,120.8889,0.0032944977
C0E430,南庄,2019-11-04,24.6018,121.0002,0.002189045
C0E520,大湖,2019-11-04,24.4149,120.8709,0.0037136287
C0E540,後龍,2019-11-04,24.6065,120.7839,0.0030588652
C0E550,明德,2019-11-04,24.5835,120.8854,0.0025832164
C0E590,通霄,2019-11-04,24.4719,120.7046,0.003064697
C0E730,頭份,2019-11-04,24.6882,120.9122,0.0032944977
C0E740,造橋,2019-11-04,24.6371,120.8648,0.003864281
C0E750,苗栗,2019-11-04,24.5646,120.8246,0.0019975235
C0E780,銅鑼,2019-11-04,24.4897,120.7909,0.005749456
C0E791,卓蘭,2019-11-04,24.3126,120.8244,0.13410228
C0E810,西湖,2019-11-04,24.5629,120.7485,0.0023244969
C0E820,獅潭,2019-11-04,24.5391,120.92,0.004986635
C0E830,苑裡,2019-11-04,24.4397,120.6531,0.067376345
C0E850,大河,2019-11-04,24.6181,120.9486,0.001994839
C0E870,高鐵苗栗,2019-11-04,24.6073,120.8261,0.002772372
C0E910,海埔,2019-11-04,24.6488,120.7724,0.009325524
C0E920,通霄漁港,2019-11-04,24.4986,120.6739,0.0064842133
C0E930,龍鳳,2019-11-04,24.7,120.8591,0.006344989
C0F000,大肚,2019-11-04,24.153,120.5721,0.16616653
C0F0B0,石岡,2019-11-04,24.2761,120.7776,0.186667
C0F850,東勢,2019-11-04,24.2464,120.833,0.10850338
C0F930,大甲,2019-11-04,24.3477,120.6404,0.12651172
C0F970,大坑,2019-11-04,24.1731,120.7223,0.14984827
C0F9A0,中竹林,2019-11-04,24.1036,120.7511,0.10730383
C0F9I0,神岡,2019-11-04,24.2725,120.6583,0.077073365
C0F9K0,大安,2019-11-04,24.3451,120.588,0.27758935
C0F9L0,后里,2019-11-04,24.3104,120.7297,0.03576287
C0F9M0,豐原,2019-11-04,24.2543,120.7207,0.053207263
C0F9N0,大里,2019-11-04,24.0925,120.7014,0.3192422
C0F9O0,潭子,2019-11-04,24.2131,120.7039,0.13168184
C0F9P0,清水,2019-11-04,24.3123,120.5622,0.31191587
C0F9Q0,外埔,2019-11-04,24.3478,120.7057,0.11540751
C0F9R0,龍井,2019-11-04,24.1845,120.529,0.23170161
C0F9S0,烏日,2019-11-04,24.1071,120.6241,0.5014322
C0F9T0,西屯,2019-11-04,24.1795,120.6413,0.14414966
C0F9U0,南屯,2019-11-04,24.137,120.638,0.3192422
C0F9X0,大雅(中科園區),2019-11-04,24.2153,120.6244,0.048760228
C0FA10,松柏,2019-11-04,24.4291,120.6175,0.09981628
C0FA20,溫寮,2019-11-04,24.3722,120.5831,0.09981628
C0FA30,梧棲,2019-11-04,24.256,120.5234,0.23170161
C0FA40,臺中電廠,2019-11-04,24.2146,120.4907,0.23170161
C0FA50,霧峰,2019-11-04,24.0419,120.6995,0.2534396
C0G620,芬園,2019-11-04,24.0157,120.6213,0.33787125
C0G640,鹿港,2019-11-04,24.0753,120.4305,0.30838698
C0G650,員林,2019-11-04,23.9465,120.5856,0.45017615
C0G660,溪湖,2019-11-04,23.9484,120.4791,0.51247317
C0G720,溪州,2019-11-04,23.8516,120.4991,0.40279666
C0G730,二林,2019-11-04,23.9033,120.3761,0.3963248
C0G740,大城,2019-11-04,23.8525,120.3209,0.37930307
C0G770,福興,2019-11-04,24.0413,120.4377,0.30838698
C0G780,秀水,2019-11-04,24.0341,120.5039,0.40695927
C0G800,埔鹽,2019-11-04,24.0004,120.4317,0.3083871
C0G810,埔心,2019-11-04,23.9476,120.5255,0.49883425
C0G820,田尾,2019-11-04,23.9017,120.5094,0.486865
C0G830,埤頭,2019-11-04,23.866,120.4528,0.42450514
C0G840,北斗,2019-11-04,23.8776,120.5142,0.486865
C0G860,社頭,2019-11-04,23.8976,120.5862,0.438394
C0G870,芳苑,2019-11-04,23.9223,120.32,0.39673308
C0G880,二水,2019-11-04,23.8107,120.6173,0.28063723
C0G890,伸港,2019-11-04,24.1489,120.4844,0.28490004
C0G900,線西,2019-11-04,24.1434,120.4435,0.23331916
C0G910,花壇,2019-11-04,24.0321,120.5495,0.37835097
C0G920,永靖,2019-11-04,23.9247,120.5475,0.486865
C0G940,竹塘,2019-11-04,23.8483,120.3868,0.46801278
C0G950,防潮門,2019-11-04,24.1835,120.4871,0.24847686
C0G960,福寶,2019-11-04,24.0443,120.3814,0.32244688
C0G970,三豐,2019-11-04,23.882,120.2895,0.39673308
C0H890,埔里,2019-11-04,23.9722,120.9524,0.18507312
C0H950,中寮,2019-11-04,23.8844,120.7664,0.13535605
C0H960,草屯,2019-11-04,23.9737,120.6809,0.21532454
C0I110,竹山,2019-11-04,23.7612,120.6882,0.15835778
C0I360,水里,2019-11-04,23.8126,120.8498,0.29030594
C0I380,集集,2019-11-04,23.8282,120.8015,0.3179866
C0I410,名間,2019-11-04,23.8371,120.7014,0.2276475
C0I420,國姓,2019-11-04,24.0378,120.8551,0.13318884
C0I460,南投,2019-11-04,23.9115,120.6873,0.19810495
C0K250,崙背,2019-11-04,23.7555,120.3189,0.5313843
C0K280,四湖,2019-11-04,23.6304,120.2271,0.6316452
C0K291,宜梧,2019-11-04,23.5363,120.1693,0.7053125
C0K330,虎尾,2019-11-04,23.7192,120.442,0.5336579
C0K390,土庫,2019-11-04,23.679,120.3956,0.5439963
C0K400,斗六,2019-11-04,23.7206,120.5411,0.38241437
C0K410,北港,2019-11-04,23.574,120.2928,0.70467496
C0K420,西螺,2019-11-04,23.8004,120.4674,0.38821083
C0K430,褒忠,2019-11-04,23.6909,120.3036,0.70432854
C0K440,二崙,2019-11-04,23.7728,120.4089,0.45726448
C0K450,大埤,2019-11-04,23.6461,120.4315,0.4929223
C0K460,斗南,2019-11-04,23.6787,120.4784,0.40212512
C0K470,林內,2019-11-04,23.7487,120.6096,0.35035092
C0K480,莿桐,2019-11-04,23.7612,120.5024,0.37807322
C0K500,元長,2019-11-04,23.6498,120.315,0.7411368
C0K510,水林,2019-11-04,23.5729,120.246,0.57058
C0K530,臺西,2019-11-04,23.7015,120.1976,0.55613637
C0K550,蔦松,2019-11-04,23.5143,120.2297,0.69554704
C0K560,棋山,2019-11-04,23.6865,120.6034,0.38013276
C0K580,高鐵雲林,2019-11-04,23.7375,120.4179,0.5439963
C0K590,雲林東勢,2019-11-04,23.6742,120.2557,0.70432854
C0K600,箔子寮,2019-11-04,23.6197,120.14,0.5834633
C0M410,馬頭山,2019-11-04,23.3244,120.582,0.3680126
C0M520,東後寮,2019-11-04,23.3699,120.2481,0.6233684
C0M640,中埔,2019-11-04,23.4254,120.5229,0.3408775
C0M650,朴子,2019-11-04,23.4346,120.239,0.72602713
C0M660,溪口,2019-11-04,23.6041,120.4036,0.638659
C0M670,大林,2019-11-04,23.6006,120.4584,0.5615379
C0M680,太保,2019-11-04,23.4551,120.3315,0.7897494
C0M690,水上,2019-11-04,23.4197,120.3889,0.6399767
C0M700,竹崎,2019-11-04,23.5262,120.5555,0.2740637
C0M710,東石,2019-11-04,23.4589,120.1539,0.69554704
C0M720,番路,2019-11-04,23.4647,120.5542,0.2666587
C0M730,嘉義市東區,2019-11-04,23.4577,120.4605,0.5516153
C0M740,六腳,2019-11-04,23.4929,120.2906,0.79765815
C0M750,布袋,2019-11-04,23.3809,120.1678,0.72602713
C0M760,民雄,2019-11-04,23.5518,120.4285,0.61781096
C0M770,嘉義梅山,2019-11-04,23.5854,120.5556,0.32757786
C0M780,鹿草,2019-11-04,23.4113,120.3084,0.781135
C0M790,新港,2019-11-04,23.5533,120.3457,0.6936306
C0M800,茶山,2019-11-04,23.2991,120.6648,0.48482186
C0M880,好美里,2019-11-04,23.3364,120.138,0.585545
C0N010,鯤鯓國小,2019-11-04,23.1879,120.0889,0.6938008
C0N020,城西,2019-11-04,23.0568,120.0956,0.53511155
C0N030,四草,2019-11-04,23.0235,120.1116,0.8616054
C0N040,蘆竹溝,2019-11-04,23.2344,120.0961,0.6938008
C0N050,蚵寮,2019-11-04,23.301,120.1104,0.6938008
C0O810,曾文,2019-11-04,23.2197,120.4973,0.44404483
C0O830,北寮,2019-11-04,23.0796,120.495,0.34408325
C0O840,王爺宮,2019-11-04,23.2221,120.4009,0.44404483
C0O860,大內,2019-11-04,23.1188,120.3608,0.3917737
C0O900,善化,2019-11-04,23.1129,120.2972,0.61223346
C0O930,玉井,2019-11-04,23.126,120.4605,0.6255289
C0O950,安南,2019-11-04,23.0767,120.1449,0.46019867
C0O960,崎頂,2019-11-04,22.9595,120.3693,0.4481333
C0O970,虎頭埤,2019-11-04,23.0214,120.3479,0.80424535
C0O980,新市,2019-11-04,23.0616,120.2982,0.61223346
C0O990,媽廟,2019-11-04,22.9917,120.2935,0.71702003
C0R150,三地門,2019-11-04,22.7099,120.6399,0.54490876
C0R160,鹽埔,2019-11-04,22.7396,120.5308,0.47748545
C0R170,屏東,2019-11-04,22.6603,120.4941,0.50358635
C0R190,赤山,2019-11-04,22.5923,120.6143,0.521845
C0R220,潮州,2019-11-04,22.5344,120.54,0.45578575
C0R240,來義,2019-11-04,22.5273,120.6251,0.4840357
C0R260,春日,2019-11-04,22.3704,120.6283,0.50585043
C0R270,琉球嶼,2019-11-04,22.3322,120.3622,0.499934
C0R280,檳榔,2019-11-04,22.0761,120.8368,0.022277117
C0R320,車城,2019-11-04,22.0744,120.7162,0.034109384
C0R341,牡丹,2019-11-04,22.13,120.7926,0.56348526
C0R350,貓鼻頭,2019-11-04,21.9218,120.7358,0.039605863
C0R470,高樹,2019-11-04,22.8264,120.6008,0.562831
C0R480,長治,2019-11-04,22.6931,120.5426,0.46787605
C0R490,九如,2019-11-04,22.7405,120.4905,0.4942963
C0R520,崁頂,2019-11-04,22.5148,120.5069,0.41349337
C0R540,佳冬,2019-11-04,22.4195,120.5524,0.4261157
C0R550,新埤,2019-11-04,22.4679,120.5829,0.535095
C0R560,新園,2019-11-04,22.5434,120.4616,0.41349337
C0R570,麟洛,2019-11-04,22.6508,120.5272,0.4942963
C0R580,南州,2019-11-04,22.4859,120.5027,0.4261157
C0R590,里港,2019-11-04,22.7792,120.4946,0.44007623
C0R620,墾雷,2019-11-04,21.9008,120.8553,0.039605863
C0R640,東港,2019-11-04,22.4625,120.4407,0.5599188
C0R650,竹田,2019-11-04,22.5849,120.5434,0.5449422
C0R660,枋寮,2019-11-04,22.3677,120.5906,0.47847
C0R670,楓港,2019-11-04,22.1901,120.6922,0.61540985
C0R680,佳樂水,2019-11-04,21.9936,120.8616,0.036933336
C0R690,墾丁,2019-11-04,21.9668,120.8103,0.016958555
C0R700,枋山,2019-11-04,22.2468,120.6611,0.61540985
C0R710,龍磐,2019-11-04,21.9317,120.8389,0.042091668
C0R720,旭海,2019-11-04,22.2054,120.8876,0.07336014
C0R730,大坪頂,2019-11-04,22.0246,120.6936,0.04985193
C0R740,獅子,2019-11-04,22.2016,120.7053,0.60548395
C0R760,南仁湖,2019-11-04,22.0847,120.8634,0.0068756584
C0R770,保力,2019-11-04,22.0711,120.7641,0.04409036
C0R780,滿州,2019-11-04,22.0244,120.8399,0.040865418
C0R790,九棚,2019-11-04,22.142,120.8893,0.11036696
C0R800,丹路,2019-11-04,22.2045,120.751,0.5764742
C0R810,內獅,2019-11-04,22.3051,120.643,0.534228
C0R830,高士,2019-11-04,22.1218,120.8368,0.0017958166
C0R850,林邊,2019-11-04,22.4634,120.5339,0.41349337
C0R860,鼻頭,2019-11-04,22.1043,120.8979,0.15617824
C0R870,興海,2019-11-04,21.9752,120.8439,0.036933336
C0R880,後壁湖,2019-11-04,21.9457,120.7457,0.032732893
C0R890,山海,2019-11-04,21.9878,120.7091,0.034109417
C0R900,竹坑,2019-11-04,22.1385,120.7022,0.633789
C0R910,下寮,2019-11-04,22.3929,120.5548,0.4261157
C0R920,塭仔,2019-11-04,22.4169,120.5197,0.44099554
C0R930,萬丹,2019-11-04,22.5885,120.4851,0.5449422
C0R940,加祿堂,2019-11-04,22.3363,120.6217,0.534228
C0S710,鹿野,2019-11-04,22.9177,121.123,0.33515987
C0S730,綠島,2019-11-04,22.6672,121.4753,0.69330555
C0S740,池上,2019-11-04,23.1196,121.2095,0.43728927
C0S770,大溪山,2019-11-04,22.4785,120.9433,0.36098817
C0S790,金崙,2019-11-04,22.5381,120.9669,0.7054267
C0S810,東河,2019-11-04,22.9727,121.304,0.7652665
C0S830,長濱,2019-11-04,23.2868,121.412,0.07126063
C0S840,南田,2019-11-04,22.2797,120.8892,0.29852614
C0S890,關山,2019-11-04,23.0395,121.175,0.59368265
C0S900,蘭嶼高中,2019-11-04,22.0491,121.5121,0.31100956
C0S910,蘭嶼燈塔,2019-11-04,22.0812,121.5031,0.0368989
C0S920,金峰嘉蘭,2019-11-04,22.5948,120.9608,0.8361671
C0S930,延平,2019-11-04,22.9026,121.0841,0.62389684
C0S940,石寧山,2019-11-04,23.2238,121.4066,0.21273598
C0S950,七塊厝,2019-11-04,22.9545,121.2299,0.33305386
C0S960,香蘭,2019-11-04,22.5876,120.9934,0.77301794
C0S970,加津林,2019-11-04,22.4162,120.9269,0.278346
C0S990,山豬窟,2019-11-04,22.3186,120.8574,0.012804406
C0SA00,歷坵,2019-11-04,22.521,120.8919,0.26490384
C0SA10,檳榔四格山,2019-11-04,22.81,121.1093,0.24654675
C0SA30,都歷,2019-11-04,23.0203,121.3236,0.68625724
C0SA40,瑞和,2019-11-04,22.9744,121.1567,0.63111013
C0SA60,知本（水試所）,2019-11-04,22.7024,121.0828,0.8551551
C0SA80,土,2019-11-04,22.4531,120.8876,0.81703395
C0SA90,達仁林場,2019-11-04,22.2643,120.824,0.15608545
C0T870,鯉魚潭,2019-11-04,23.9356,121.5089,0.80255294
C0T900,西林,2019-11-04,23.8119,121.4415,0.7079466
C0T960,光復,2019-11-04,23.6607,121.425,0.8653863
C0T9A0,月眉山,2019-11-04,23.8099,121.5398,0.2559342
C0T9D0,和中,2019-11-04,24.2668,121.741,0.8925549
C0T9E0,大坑,2019-11-04,23.8806,121.582,0.4278414
C0T9F0,水璉,2019-11-04,23.7971,121.5425,0.4870828
C0T9I0,豐濱,2019-11-04,23.5839,121.5148,0.8376537
C0T9M0,靜浦,2019-11-04,23.4552,121.495,0.88006854
C0T9N0,富里,2019-11-04,23.1716,121.2494,0.17517893
C0U600,礁溪,2019-11-04,24.8175,121.7656,0.82835424
C0U650,玉蘭,2019-11-04,24.6753,121.5871,0.009661101
C0U750,龜山島,2019-11-04,24.8417,121.9531,0.7080862
C0U760,東澳,2019-11-04,24.522,121.8332,0.9383152
C0U770,南澳,2019-11-04,24.4493,121.8102,0.96709144
C0U780,五結,2019-11-04,24.6864,121.7979,0.93396
C0U860,頭城,2019-11-04,24.8532,121.8308,0.84262484
C0U870,大礁溪,2019-11-04,24.791,121.675,0.044332247
C0U880,北關,2019-11-04,24.9072,121.8734,0.13199458
C0U890,三星,2019-11-04,24.6681,121.653,0.62955827
C0U900,內城,2019-11-04,24.7181,121.6877,0.7824311
C0U910,冬山,2019-11-04,24.6337,121.7937,0.93396
C0U940,羅東,2019-11-04,24.6818,121.7493,0.93103325
C0U970,大福,2019-11-04,24.8006,121.8139,0.8546414
C0U990,員山,2019-11-04,24.7444,121.7225,0.93103325
C0UA00,土場,2019-11-04,24.5765,121.4953,0.2144371
C0UA80,大溪漁港,2019-11-04,24.9418,121.903,0.82835424
C0UA90,石城,2019-11-04,24.9804,121.9512,0.7514659
C0UB00,淡江大學蘭陽校園,2019-11-04,24.8232,121.7304,0.10037094
C0UB10,蘇澳,2019-11-04,24.5969,121.8571,0.98194164
C0UB20,壯圍,2019-11-04,24.7359,121.8163,0.93628097
C0V250,甲仙,2019-11-04,23.0801,120.5918,0.21829025
C0V260,月眉,2019-11-04,22.971,120.5399,0.38699433
C0V310,美濃,2019-11-04,22.8987,120.5192,0.7023997
C0V350,溪埔,2019-11-04,22.7386,120.4468,0.5605936
C0V360,內門,2019-11-04,22.9755,120.4668,0.55109024
C0V370,古亭坑,2019-11-04,22.8932,120.4019,0.7395441
C0V400,阿公店,2019-11-04,22.8042,120.3555,0.5379892
C0V440,鳳山,2019-11-04,22.6467,120.3561,0.52065456
C0V450,鳳森,2019-11-04,22.5451,120.3926,0.48290104
C0V490,新興,2019-11-04,22.6274,120.2988,0.54570985
C0V530,阿蓮,2019-11-04,22.8832,120.3275,0.8082999
C0V610,梓官,2019-11-04,22.7606,120.2672,0.7527257
C0V620,永安,2019-11-04,22.8231,120.2369,0.7131555
C0V630,茄萣,2019-11-04,22.9066,120.1826,0.76450294
C0V640,湖內,2019-11-04,22.8871,120.2445,0.7577456
C0V650,彌陀,2019-11-04,22.7838,120.2464,0.7131555
C0V660,岡山,2019-11-04,22.7971,120.295,0.7527257
C0V680,仁武,2019-11-04,22.7011,120.3477,0.70281744
C0V690,鼓山,2019-11-04,22.6233,120.2756,0.54570985
C0V700,三民,2019-11-04,22.645,120.3112,0.54570985
C0V710,苓雅,2019-11-04,22.6227,120.3307,0.54570985
C0V720,林園,2019-11-04,22.5077,120.3945,0.54570985
C0V730,大寮,2019-11-04,22.6056,120.3957,0.5404365
C0V740,旗山,2019-11-04,22.8886,120.4836,0.69253623
C0V750,路竹,2019-11-04,22.855,120.2594,0.75318164
C0V760,橋頭,2019-11-04,22.7578,120.3058,0.7428467
C0V770,大社,2019-11-04,22.7303,120.3466,0.70281744
C0V790,萬山,2019-11-04,22.9059,120.6881,0.5024414
C0V800,六龜,2019-11-04,22.9979,120.6336,0.39734846
C0V810,左營,2019-11-04,22.6749,120.2849,0.7132011
C0V820,小林,2019-11-04,23.1484,120.6333,0.44667315
C0V840,鳳鼻頭,2019-11-04,22.5083,120.3591,0.5599192
C0V850,蚵仔寮,2019-11-04,22.7256,120.2527,0.7257909
C0V860,南寮,2019-11-04,22.7616,120.2339,0.72204274
C0V870,文安,2019-11-04,22.8025,120.2164,0.7220423
C0V880,興達,2019-11-04,22.8778,120.2127,0.76450294
C0V890,前鎮,2019-11-04,22.5718,120.3117,0.5599188
C0V900,汕尾,2019-11-04,22.4782,120.4151,0.56773645
C0X050,東河,2019-11-04,23.2966,120.3856,0.61164254
C0X060,下營,2019-11-04,23.2269,120.2563,0.69694763
C0X080,佳里,2019-11-04,23.173,120.1451,0.585545
C0X100,臺南市北區,2019-11-04,23.0104,120.1942,0.5962932
C0X110,臺南市南區,2019-11-04,22.9612,120.1884,0.58372825
C0X120,麻豆,2019-11-04,23.1833,120.2486,0.5743956
C0X130,官田,2019-11-04,23.1932,120.3154,0.6781537
C0X140,西港,2019-11-04,23.1256,120.2031,0.62305343
C0X150,安定,2019-11-04,23.1026,120.2278,0.49635276
C0X160,仁德,2019-11-04,22.9683,120.2577,0.7275148
C0X170,關廟,2019-11-04,22.963,120.3278,0.6876114
C0X180,山上,2019-11-04,23.0757,120.3633,0.52741736
C0X190,安平,2019-11-04,22.9932,120.1522,0.5962932
C0X200,左鎮,2019-11-04,23.0568,120.4085,0.53764355
C0X210,白河,2019-11-04,23.3475,120.4144,0.58695793
C0X220,學甲,2019-11-04,23.2304,120.1822,0.5743956
C0X230,鹽水,2019-11-04,23.2726,120.2476,0.61669385
C0X240,關子嶺,2019-11-04,23.3312,120.508,0.23243864
C0X250,新營,2019-11-04,23.3107,120.3167,0.7068694
C0X260,後壁,2019-11-04,23.3664,120.3623,0.5045336
C0X280,將軍,2019-11-04,23.215,120.1358,0.585545
C0X290,北門,2019-11-04,23.2678,120.1255,0.585545
C0X300,鹿寮,2019-11-04,23.386,120.4773,0.45308465
C0X310,七股,2019-11-04,23.1473,120.0863,0.6488368
C0X320,柳營,2019-11-04,23.2533,120.3753,0.59810084
C0Z020,明里,2019-11-04,23.2087,121.2623,0.08946122
C0Z061,玉里,2019-11-04,23.3215,121.3397,0.2553775
C0Z070,舞鶴,2019-11-04,23.4681,121.3741,0.3600038
C0Z080,富源,2019-11-04,23.5876,121.3782,0.4772772
C0Z100,東華,2019-11-04,23.8953,121.5498,0.91972846
C0Z150,吉安光華,2019-11-04,23.9309,121.5952,0.9186553
C0Z160,鳳林,2019-11-04,23.7461,121.4534,0.8823959
C0Z170,卓溪,2019-11-04,23.3443,121.3029,0.21309999
C0Z180,新城,2019-11-04,24.0395,121.6045,0.863601
C0Z190,富世,2019-11-04,24.1474,121.6297,0.16682018
C0Z200,萬榮,2019-11-04,23.7092,121.4201,0.80255294
C0Z210,瑞穗,2019-11-04,23.5239,121.3902,0.8620194
C0Z230,和平,2019-11-04,24.3072,121.7701,0.89150983
C0Z270,蕃薯寮,2019-11-04,23.7384,121.5401,0.7897933
C0Z280,德武,2019-11-04,23.4743,121.4107,0.59243965
C0Z300,東里,2019-11-04,23.2685,121.3055,0.2343522
C0Z310,清水斷崖,2019-11-04,24.2183,121.6891,0.6840545
C0Z330,安通山,2019-11-04,23.2907,121.3485,0.15802902
