站號,站名,日期,lat,lon,BlastGRU-TW
466881,新北,2019-11-25,24.9593,121.52,0.0010770577
466900,淡水,2019-11-25,25.164889,121.448906,3.143646e-05
466920,臺北,2019-11-25,25.037658,121.514853,0.0008677309
467350,澎湖,2019-11-25,23.565503,119.563094,0.0031705466
467410,臺南,2019-11-25,22.993239,120.204772,0.17766756
467420,永康,2019-11-25,23.038386,120.2367,0.18452887
467790,墾丁雷達站,2019-11-25,21.948235,120.808028,0.0005724145
C0A520,山佳,2019-11-25,24.974944,121.402008,0.00020341824
C0A530,坪林,2019-11-25,24.938183,121.70975,0.014127068
C0A880,福隆,2019-11-25,25.017842,121.942083,0.33163315
C0A890,雙溪,2019-11-25,25.036003,121.864242,5.9997456e-05
C0A920,富貴角,2019-11-25,25.263783,121.565258,1.9448113e-05
C0AC80,文山,2019-11-25,25.00235,121.575728,0.0015532537
C0ACA0,新莊,2019-11-25,25.051478,121.446756,5.7753612e-05
C0AD00,三芝,2019-11-25,25.258131,121.501917,1.5710046e-05
C0AH70,松山,2019-11-25,25.04871,121.55042,0.0008677309
C0AH80,深坑,2019-11-25,25.002703,121.628328,0.0015532537
C0AI00,五股,2019-11-25,25.07445,121.42728,2.3353496e-05
C0AJ70,田寮,2019-11-25,25.2698,121.4886,2.1860775e-05
