站號,站名,日期,lat,lon,BlastGRU-TW
12J990,口湖工作站,2019-07-10,23.589978,120.180394,0.11470014
12Q970,東港工作站,2019-07-10,22.479997,120.466058,0.054783378
12Q980,恆春工作站,2019-07-10,22.079678,120.714425,0.19368978
466881,新北,2019-07-10,24.9593,121.52,0.119975485
466900,淡水,2019-07-10,25.164889,121.448906,0.3169131
466920,臺北,2019-07-10,25.037658,121.514853,0.11397539
466940,基隆,2019-07-10,25.133314,121.740475,0.09283298
466990,花蓮,2019-07-10,23.975128,121.613275,0.028235998
467050,新屋,2019-07-10,25.006744,121.047486,0.4612067
467080,宜蘭,2019-07-10,24.763975,121.756528,0.052302945
467270,田中,2019-07-10,23.873803,120.581286,0.4140402
467300,東吉島,2019-07-10,23.25695,119.667467,0.27847412
467350,澎湖,2019-07-10,23.565503,119.563094,0.76268446
467410,臺南,2019-07-10,22.993239,120.204772,0.06700415
467420,永康,2019-07-10,23.038386,120.2367,0.06637465
467441,高雄,2019-07-10,22.7304,120.3125,0.044420794
467480,嘉義,2019-07-10,23.495925,120.432906,0.6155179
467490,臺中,2019-07-10,24.145736,120.684075,0.9620937
467540,大武,2019-07-10,22.355675,120.903789,0.07475901
467571,新竹,2019-07-10,24.827853,121.014219,0.8338287
467590,恆春,2019-07-10,22.003897,120.746339,0.24306324
467610,成功,2019-07-10,23.097486,121.373428,0.07529559
467620,蘭嶼,2019-07-10,22.036969,121.558339,0.99730057
467660,臺東,2019-07-10,22.752211,121.154586,0.15965262
467790,墾丁雷達站,2019-07-10,21.948235,120.808028,0.3052945
72AI40,桃改臺北分場,2019-07-10,24.944503,121.386972,0.16773319
72C440,桃園農改場,2019-07-10,24.950944,121.030583,0.48643488
72D680,新埔,2019-07-10,24.834444,121.066111,0.87700623
72G600,臺中農改場,2019-07-10,24.003028,120.534389,0.22576246
72K220,雲林分場,2019-07-10,23.634556,120.477333,0.22830828
72L140,朴子分場,2019-07-10,23.4982,120.2414,0.114997566
72M360,義竹工作站,2019-07-10,23.360694,120.279361,0.123659536
72M700,嘉義分場,2019-07-10,23.416869,120.283061,0.09413827
72N100,臺南農改場,2019-07-10,23.0605,120.342194,0.06402148
72N240,七股研究中心,2019-07-10,23.081672,120.062894,0.15112408
72Q010,高雄農改場,2019-07-10,22.709333,120.525889,0.0486831
72S200,斑鳩分場,2019-07-10,22.829528,121.077694,0.5573955
72S590,賓朗果園,2019-07-10,22.813889,121.071278,0.7464346
72T250,花蓮農改場,2019-07-10,23.975222,121.563889,0.03237064
72U480,蘭陽分場,2019-07-10,24.686306,121.716583,0.060170744
72V140,旗南,2019-07-10,22.857861,120.516667,0.0606123
82A750,文山分場,2019-07-10,24.955778,121.631222,0.023205865
82C160,茶改場(楊梅),2019-07-10,24.908472,121.185333,0.88780355
82H840,凍頂工作站,2019-07-10,23.762528,120.7405,0.721896
82S580,龍田,2019-07-10,22.907694,121.130139,0.09533216
A0K420,麥寮,2019-07-10,23.7988,120.2177,0.10287185
A0W080,吉貝,2019-07-10,23.74,119.6042,0.8909252
A2C560,農工中心,2019-07-10,24.985917,121.239833,0.87578934
A2K360,臺西分所,2019-07-10,23.717231,120.190522,0.10376758
A2K570,古坑(花卉中心),2019-07-10,23.633531,120.552392,0.4682365
A2K630,臺大雲林校區,2019-07-10,23.730628,120.423903,0.109254956
A2N290,臺南蘭花園區,2019-07-10,23.340258,120.379661,0.13641986
B2E890,新竹畜試,2019-07-10,24.527806,120.770972,0.9238925
B2N890,畜產試驗所,2019-07-10,23.058972,120.336406,0.06402148
B2Q810,恆春分所,2019-07-10,21.945583,120.802167,0.22233273
B2U990,宜蘭畜試,2019-07-10,24.669039,121.832561,0.059332766
C0A520,山佳,2019-07-10,24.974944,121.402008,0.16773319
C0A530,坪林,2019-07-10,24.938183,121.70975,0.07362117
C0A540,四堵,2019-07-10,24.8926,121.745736,0.048007935
C0A550,泰平,2019-07-10,24.971197,121.823711,0.029542906
C0A560,福山,2019-07-10,24.776203,121.502811,0.023205865
C0A570,桶後,2019-07-10,24.848222,121.597992,0.04502286
C0A640,石碇,2019-07-10,24.993969,121.662917,0.051777594
C0A650,火燒寮,2019-07-10,25.002719,121.742892,0.05660996
C0A660,瑞芳,2019-07-10,25.113169,121.801147,0.04473289
C0A770,科教館,2019-07-10,25.096356,121.516507,0.14960778
C0A860,大坪,2019-07-10,25.165914,121.632969,0.090788946
C0A880,福隆,2019-07-10,25.017842,121.942083,0.041842602
C0A890,雙溪,2019-07-10,25.036003,121.864242,0.10325951
C0A920,富貴角,2019-07-10,25.263783,121.565258,0.22889557
C0A931,三和,2019-07-10,25.233153,121.595236,0.064808466
C0A940,金山,2019-07-10,25.223628,121.643967,0.1807602
C0A950,鼻頭角,2019-07-10,25.129036,121.923372,0.041586805
C0A970,三貂角,2019-07-10,25.007606,122.002058,0.0489852
C0A980,社子,2019-07-10,25.109508,121.469681,0.14381751
C0A9C0,天母,2019-07-10,25.117494,121.537169,0.1615966
C0A9F0,內湖,2019-07-10,25.079422,121.57545,0.11397539
C0AC60,三峽,2019-07-10,24.939025,121.369728,0.123197526
C0AC70,信義,2019-07-10,25.037822,121.564597,0.11397539
C0AC80,文山,2019-07-10,25.00235,121.575728,0.1317392
C0ACA0,新莊,2019-07-10,25.051478,121.446756,0.16421036
C0AD00,三芝,2019-07-10,25.258131,121.501917,0.21651879
C0AD10,八里,2019-07-10,25.150211,121.403947,0.3169131
C0AD30,蘆洲,2019-07-10,25.086594,121.472331,0.14960778
C0AD40,土城,2019-07-10,24.973208,121.445169,0.15465544
C0AD50,鶯歌,2019-07-10,24.951533,121.346294,0.52015674
C0AG80,中和,2019-07-10,24.991622,121.491792,0.11397539
C0AH00,汐止,2019-07-10,25.066881,121.658778,0.094591804
C0AH10,永和,2019-07-10,25.01125,121.508111,0.11115956
C0AH40,平等,2019-07-10,25.129142,121.577086,0.057774503
C0AH50,林口,2019-07-10,25.072181,121.38084,0.052262545
C0AH70,松山,2019-07-10,25.04871,121.55042,0.11397539
C0AH80,深坑,2019-07-10,25.002703,121.628328,0.1317392
C0AI00,五股,2019-07-10,25.07445,121.42728,0.7761181
C0AI10,屈尺,2019-07-10,24.92184,121.54475,0.13173911
C0AI20,白沙灣,2019-07-10,25.283128,121.519058,0.16728278
C0AI30,三重,2019-07-10,25.057328,121.500629,0.14960778
C0AI40,石牌,2019-07-10,25.115597,121.513139,0.15465544
C0AJ10,澳底,2019-07-10,25.057107,121.927272,0.041343775
C0AJ20,野柳,2019-07-10,25.20703,121.690021,0.094591804
C0AJ30,淡水觀海,2019-07-10,25.184591,121.408616,0.30249122
C0AJ40,石門,2019-07-10,25.273672,121.601198,0.40291137
C0AJ50,水湳洞,2019-07-10,25.123695,121.862238,0.094591804
C0AJ60,六塊厝,2019-07-10,25.24,121.4481,0.30249122
C0AJ70,田寮,2019-07-10,25.2698,121.4886,0.16150449
C0AJ80,板橋,2019-07-10,25.0107,121.4489,0.15465544
C0B010,七堵,2019-07-10,25.094819,121.71713,0.09858223
C0B020,基隆嶼,2019-07-10,25.19141,121.78391,0.094591804
C0B040,大武崙,2019-07-10,25.166676,121.706993,0.09858223
C0B050,八斗子,2019-07-10,25.144754,121.79167,0.09116563
C0B060,暖暖,2019-07-10,25.0957,121.7403,0.111930296
C0C460,復興,2019-07-10,24.820208,121.352281,0.058471788
C0C480,桃園,2019-07-10,24.992425,121.323172,0.8421416
C0C490,八德,2019-07-10,24.928708,121.283289,0.76890856
C0C590,觀音,2019-07-10,25.027072,121.153317,0.69357264
C0C620,蘆竹,2019-07-10,25.084275,121.265767,0.34889463
C0C630,大溪,2019-07-10,24.882853,121.265547,0.8478109
C0C650,平鎮,2019-07-10,24.897503,121.214636,0.88780355
C0C660,楊梅,2019-07-10,24.912375,121.143047,0.8828977
C0C670,龍潭,2019-07-10,24.870056,121.221389,0.9612695
C0C680,龜山,2019-07-10,25.02846,121.38656,0.09271778
C0C700,中壢,2019-07-10,24.977661,121.256375,0.86592495
C0C710,大溪永福,2019-07-10,24.892936,121.324975,0.8834014
C0C720,竹圍,2019-07-10,25.112692,121.239824,0.31691304
C0C730,中大臨海站,2019-07-10,24.966126,121.008581,0.4240703
C0C740,觀音工業區,2019-07-10,25.064764,121.114856,0.7639412
C0C750,新興坑尾,2019-07-10,25.0061,121.0971,0.82771385
C0D430,峨眉,2019-07-10,24.6905,121.017189,0.89842844
C0D480,打鐵坑,2019-07-10,24.849664,121.150789,0.96959877
C0D540,橫山,2019-07-10,24.71116,121.11693,0.97388214
C0D560,竹東,2019-07-10,24.767147,121.057881,0.8955369
C0D580,寶山,2019-07-10,24.735006,121.025192,0.96887547
C0D590,新豐,2019-07-10,24.87068,120.97721,0.8575264
C0D650,湖口,2019-07-10,24.904794,121.043628,0.55152214
C0D660,新竹市東區,2019-07-10,24.798681,120.986942,0.8455744
C0D670,海天一線,2019-07-10,24.831986,120.914438,0.82742965
C0D680,香山濕地,2019-07-10,24.783581,120.914988,0.83443683
C0D690,外湖,2019-07-10,24.917735,120.968711,0.4240703
C0D700,關西,2019-07-10,24.7977,121.1732,0.8697028
C0E420,竹南,2019-07-10,24.708978,120.888897,0.8536882
C0E430,南庄,2019-07-10,24.601775,121.000214,0.973392
C0E520,大湖,2019-07-10,24.41494,120.87087,0.965744
C0E540,後龍,2019-07-10,24.606489,120.783933,0.9189194
C0E550,明德,2019-07-10,24.583486,120.885411,0.96672505
C0E590,通霄,2019-07-10,24.471892,120.704622,0.8925846
C0E730,頭份,2019-07-10,24.688247,120.912206,0.8536882
C0E740,造橋,2019-07-10,24.637056,120.864778,0.93804604
C0E750,苗栗,2019-07-10,24.564569,120.824575,0.94709635
C0E780,銅鑼,2019-07-10,24.489681,120.790853,0.97208107
C0E791,卓蘭,2019-07-10,24.3126,120.8244,0.9745212
C0E810,西湖,2019-07-10,24.562947,120.7485,0.93704075
C0E820,獅潭,2019-07-10,24.539133,120.920042,0.9779818
C0E830,苑裡,2019-07-10,24.439714,120.653053,0.65096503
C0E850,大河,2019-07-10,24.618069,120.948578,0.96996766
C0E870,高鐵苗栗,2019-07-10,24.60725,120.826094,0.92539424
C0E910,海埔,2019-07-10,24.648767,120.772435,0.938573
C0E920,通霄漁港,2019-07-10,24.498589,120.673876,0.83741933
C0E930,龍鳳,2019-07-10,24.700034,120.859125,0.9188455
C0F000,大肚,2019-07-10,24.15295,120.572117,0.8183127
C0F0B0,石岡,2019-07-10,24.276061,120.777644,0.8693485
C0F850,東勢,2019-07-10,24.246428,120.833047,0.9670639
C0F930,大甲,2019-07-10,24.347667,120.640403,0.78266567
C0F970,大坑,2019-07-10,24.173142,120.722289,0.97116125
C0F9A0,中竹林,2019-07-10,24.103556,120.751061,0.7950876
C0F9I0,神岡,2019-07-10,24.272481,120.658314,0.9663005
C0F9K0,大安,2019-07-10,24.345061,120.588025,0.5411492
C0F9L0,后里,2019-07-10,24.310436,120.729725,0.97161424
C0F9M0,豐原,2019-07-10,24.254322,120.720692,0.96945214
C0F9N0,大里,2019-07-10,24.092464,120.701378,0.8459782
C0F9O0,潭子,2019-07-10,24.213106,120.703933,0.96683127
C0F9P0,清水,2019-07-10,24.312297,120.562242,0.4631512
C0F9Q0,外埔,2019-07-10,24.347817,120.705686,0.9598048
C0F9R0,龍井,2019-07-10,24.184536,120.528972,0.5085649
C0F9S0,烏日,2019-07-10,24.107058,120.624103,0.2559853
C0F9T0,西屯,2019-07-10,24.179494,120.641275,0.85330594
C0F9U0,南屯,2019-07-10,24.137006,120.637969,0.8459782
C0F9X0,大雅(中科園區),2019-07-10,24.21528,120.62445,0.93267506
C0FA10,松柏,2019-07-10,24.429115,120.617482,0.5618561
C0FA20,溫寮,2019-07-10,24.372177,120.583125,0.5618561
C0FA30,梧棲,2019-07-10,24.256003,120.523381,0.5085649
C0FA40,臺中電廠,2019-07-10,24.2146,120.4907,0.5085649
C0FA50,霧峰,2019-07-10,24.0419,120.6995,0.9281
C0G620,芬園,2019-07-10,24.015678,120.6213,0.74895024
C0G640,鹿港,2019-07-10,24.0753,120.430481,0.1639168
C0G650,員林,2019-07-10,23.946503,120.585597,0.662324
C0G660,溪湖,2019-07-10,23.94835,120.479122,0.36770672
C0G720,溪州,2019-07-10,23.851589,120.499093,0.24931477
C0G730,二林,2019-07-10,23.903325,120.376081,0.14183751
C0G740,大城,2019-07-10,23.852487,120.320935,0.100510605
C0G770,福興,2019-07-10,24.041289,120.437669,0.1639168
C0G780,秀水,2019-07-10,24.03405,120.503869,0.20929617
C0G800,埔鹽,2019-07-10,24.000394,120.431683,0.1639168
C0G810,埔心,2019-07-10,23.947633,120.525456,0.398635
C0G820,田尾,2019-07-10,23.901669,120.509389,0.43295637
C0G830,埤頭,2019-07-10,23.866003,120.452806,0.21463943
C0G840,北斗,2019-07-10,23.877586,120.514222,0.43295637
C0G860,社頭,2019-07-10,23.897647,120.5862,0.69518197
C0G870,芳苑,2019-07-10,23.922303,120.320025,0.09735094
C0G880,二水,2019-07-10,23.810742,120.6173,0.5583001
C0G890,伸港,2019-07-10,24.148933,120.484403,0.55623585
C0G900,線西,2019-07-10,24.143358,120.443536,0.6382903
C0G910,花壇,2019-07-10,24.032076,120.549461,0.2427274
C0G920,永靖,2019-07-10,23.924703,120.547533,0.43295637
C0G940,竹塘,2019-07-10,23.848253,120.386764,0.10464659
C0G950,防潮門,2019-07-10,24.1835,120.4871,0.4756647
C0G960,福寶,2019-07-10,24.0443,120.3814,0.1539122
C0G970,三豐,2019-07-10,23.882,120.2895,0.09735094
C0H890,埔里,2019-07-10,23.972169,120.952425,0.95013916
C0H950,中寮,2019-07-10,23.884447,120.766406,0.90043545
C0H960,草屯,2019-07-10,23.973672,120.68085,0.69331145
C0I110,竹山,2019-07-10,23.761225,120.688156,0.87978184
C0I360,水里,2019-07-10,23.812553,120.849792,0.9482989
C0I380,集集,2019-07-10,23.828206,120.801467,0.9333254
C0I410,名間,2019-07-10,23.837053,120.701447,0.76579386
C0I420,國姓,2019-07-10,24.037803,120.855072,0.8174206
C0I460,南投,2019-07-10,23.911469,120.687331,0.7908512
C0K250,崙背,2019-07-10,23.75555,120.318925,0.13562475
C0K280,四湖,2019-07-10,23.630414,120.227125,0.112567134
C0K291,宜梧,2019-07-10,23.536281,120.169329,0.1159517
C0K330,虎尾,2019-07-10,23.719183,120.442036,0.11549704
C0K390,土庫,2019-07-10,23.679029,120.395574,0.109254956
C0K400,斗六,2019-07-10,23.720583,120.541127,0.31263092
C0K410,北港,2019-07-10,23.573957,120.292802,0.099770576
C0K420,西螺,2019-07-10,23.800407,120.467394,0.25442073
C0K430,褒忠,2019-07-10,23.690938,120.303634,0.10287185
C0K440,二崙,2019-07-10,23.772797,120.408944,0.10971626
C0K450,大埤,2019-07-10,23.646074,120.431537,0.13402161
C0K460,斗南,2019-07-10,23.678734,120.478359,0.26130545
C0K470,林內,2019-07-10,23.748675,120.609642,0.39152467
C0K480,莿桐,2019-07-10,23.761192,120.502372,0.2786988
C0K500,元長,2019-07-10,23.64981,120.315024,0.1250875
C0K510,水林,2019-07-10,23.572924,120.24597,0.11412722
C0K530,臺西,2019-07-10,23.701547,120.197559,0.10822251
C0K550,蔦松,2019-07-10,23.514319,120.229736,0.11499759
C0K560,棋山,2019-07-10,23.68645,120.603417,0.2971845
C0K580,高鐵雲林,2019-07-10,23.737456,120.417944,0.109254956
C0K590,雲林東勢,2019-07-10,23.674192,120.255721,0.10287185
C0K600,箔子寮,2019-07-10,23.6197,120.14,0.11470014
C0M410,馬頭山,2019-07-10,23.324361,120.582017,0.9235133
C0M520,東後寮,2019-07-10,23.369908,120.248065,0.13274893
C0M640,中埔,2019-07-10,23.42538,120.5229,0.5051282
C0M650,朴子,2019-07-10,23.43463,120.23902,0.10969669
C0M660,溪口,2019-07-10,23.604131,120.403569,0.47164902
C0M670,大林,2019-07-10,23.600616,120.45841,0.72582215
C0M680,太保,2019-07-10,23.455062,120.331455,0.09565522
C0M690,水上,2019-07-10,23.419734,120.388909,0.606276
C0M700,竹崎,2019-07-10,23.526178,120.555508,0.6945625
C0M710,東石,2019-07-10,23.458927,120.15385,0.11499759
C0M720,番路,2019-07-10,23.464657,120.554156,0.78038013
C0M730,嘉義市東區,2019-07-10,23.457673,120.460531,0.7663614
C0M740,六腳,2019-07-10,23.492871,120.290625,0.09617587
C0M750,布袋,2019-07-10,23.380878,120.167789,0.10969667
C0M760,民雄,2019-07-10,23.551754,120.428457,0.5427645
C0M770,嘉義梅山,2019-07-10,23.585398,120.555587,0.45717117
C0M780,鹿草,2019-07-10,23.41134,120.30835,0.09417611
C0M790,新港,2019-07-10,23.553269,120.345728,0.0988769
C0M800,茶山,2019-07-10,23.299075,120.664767,0.43154702
C0M880,好美里,2019-07-10,23.3364,120.138,0.14362106
C0N010,鯤鯓國小,2019-07-10,23.1879,120.0889,0.11292861
C0N020,城西,2019-07-10,23.0568,120.0956,0.15281461
C0N030,四草,2019-07-10,23.0235,120.1116,0.10359618
C0N040,蘆竹溝,2019-07-10,23.2344,120.0961,0.11292861
C0N050,蚵寮,2019-07-10,23.301,120.1104,0.11292861
C0O810,曾文,2019-07-10,23.219681,120.497328,0.5724576
C0O830,北寮,2019-07-10,23.079561,120.495008,0.07761306
C0O840,王爺宮,2019-07-10,23.222064,120.40085,0.5724576
C0O860,大內,2019-07-10,23.11885,120.36083,0.071349375
C0O900,善化,2019-07-10,23.112883,120.297219,0.06314726
C0O930,玉井,2019-07-10,23.126042,120.46055,0.18609768
C0O950,安南,2019-07-10,23.076694,120.144861,0.084331244
C0O960,崎頂,2019-07-10,22.959547,120.369317,0.06822141
C0O970,虎頭埤,2019-07-10,23.021375,120.347878,0.121616535
C0O980,新市,2019-07-10,23.061614,120.298197,0.06314726
C0O990,媽廟,2019-07-10,22.99175,120.293525,0.059230916
C0R150,三地門,2019-07-10,22.709889,120.639944,0.03773438
C0R160,鹽埔,2019-07-10,22.739558,120.530778,0.0486831
C0R170,屏東,2019-07-10,22.660269,120.494072,0.051198535
C0R190,赤山,2019-07-10,22.592333,120.614306,0.040095564
C0R220,潮州,2019-07-10,22.534361,120.54,0.04431959
C0R240,來義,2019-07-10,22.527306,120.625111,0.06839706
C0R260,春日,2019-07-10,22.370361,120.628306,0.060904294
C0R270,琉球嶼,2019-07-10,22.332244,120.362236,0.06261722
C0R280,檳榔,2019-07-10,22.076078,120.836777,0.8663111
C0R320,車城,2019-07-10,22.0744,120.716247,0.19368963
C0R341,牡丹,2019-07-10,22.130036,120.792639,0.117619924
C0R350,貓鼻頭,2019-07-10,21.921774,120.7358,0.26187924
C0R470,高樹,2019-07-10,22.826389,120.600806,0.038402673
C0R480,長治,2019-07-10,22.693128,120.542622,0.050166663
C0R490,九如,2019-07-10,22.7405,120.490503,0.051507957
C0R520,崁頂,2019-07-10,22.514781,120.506914,0.05537481
C0R540,佳冬,2019-07-10,22.419456,120.552375,0.054783378
C0R550,新埤,2019-07-10,22.467947,120.582894,0.038916662
C0R560,新園,2019-07-10,22.5434,120.461558,0.05537481
C0R570,麟洛,2019-07-10,22.65078,120.52719,0.051507957
C0R580,南州,2019-07-10,22.48591,120.50274,0.054783378
C0R590,里港,2019-07-10,22.77919,120.49459,0.054428775
C0R620,墾雷,2019-07-10,21.900836,120.855269,0.26187924
C0R640,東港,2019-07-10,22.46247,120.44074,0.0466635
C0R650,竹田,2019-07-10,22.58486,120.54344,0.03783538
C0R660,枋寮,2019-07-10,22.367722,120.590647,0.04184115
C0R670,楓港,2019-07-10,22.190131,120.692156,0.047056425
C0R680,佳樂水,2019-07-10,21.993578,120.861633,0.22233273
C0R690,墾丁,2019-07-10,21.966756,120.810269,0.90589595
C0R700,枋山,2019-07-10,22.246844,120.661086,0.047056425
C0R710,龍磐,2019-07-10,21.931672,120.838942,0.5291371
C0R720,旭海,2019-07-10,22.205403,120.887614,0.90160316
C0R730,大坪頂,2019-07-10,22.024633,120.69355,0.5592517
C0R740,獅子,2019-07-10,22.201569,120.70525,0.054466873
C0R760,南仁湖,2019-07-10,22.084681,120.863353,0.9733804
C0R770,保力,2019-07-10,22.071122,120.764111,0.3918476
C0R780,滿州,2019-07-10,22.024403,120.839892,0.28250074
C0R790,九棚,2019-07-10,22.14195,120.889281,0.78643566
C0R800,丹路,2019-07-10,22.204481,120.750989,0.075338915
C0R810,內獅,2019-07-10,22.305064,120.642986,0.051461253
C0R830,高士,2019-07-10,22.121825,120.836781,0.99173313
C0R850,林邊,2019-07-10,22.4634,120.5339,0.055374734
C0R860,鼻頭,2019-07-10,22.1043,120.8979,0.8313076
C0R870,興海,2019-07-10,21.9752,120.8439,0.22233273
C0R880,後壁湖,2019-07-10,21.9457,120.7457,0.18135144
C0R890,山海,2019-07-10,21.9878,120.7091,0.19368978
C0R900,竹坑,2019-07-10,22.1385,120.7022,0.06607141
C0R910,下寮,2019-07-10,22.3929,120.5548,0.054783378
C0R920,塭仔,2019-07-10,22.4169,120.5197,0.05428413
C0R930,萬丹,2019-07-10,22.5885,120.4851,0.03783538
C0R940,加祿堂,2019-07-10,22.3363,120.6217,0.051461253
C0S710,鹿野,2019-07-10,22.917711,121.122994,0.6494385
C0S730,綠島,2019-07-10,22.6672,121.47533,0.077636376
C0S740,池上,2019-07-10,23.119628,121.209469,0.1525927
C0S770,大溪山,2019-07-10,22.478475,120.943325,0.98720276
C0S790,金崙,2019-07-10,22.538122,120.966875,0.42008677
C0S810,東河,2019-07-10,22.972672,121.303986,0.048660975
C0S830,長濱,2019-07-10,23.286817,121.411975,0.7856286
C0S840,南田,2019-07-10,22.279725,120.889208,0.16139938
C0S890,關山,2019-07-10,23.0395,121.175017,0.088452615
C0S900,蘭嶼高中,2019-07-10,22.04909,121.51214,0.99885815
C0S910,蘭嶼燈塔,2019-07-10,22.081197,121.503117,0.99914265
C0S920,金峰嘉蘭,2019-07-10,22.594789,120.960825,0.106929675
C0S930,延平,2019-07-10,22.902581,121.084058,0.09025873
C0S940,石寧山,2019-07-10,23.223772,121.406639,0.13272156
C0S950,七塊厝,2019-07-10,22.954453,121.229922,0.8014534
C0S960,香蘭,2019-07-10,22.587569,120.993375,0.07038824
C0S970,加津林,2019-07-10,22.416211,120.926942,0.07872798
C0S990,山豬窟,2019-07-10,22.318619,120.857372,0.99622774
C0SA00,歷坵,2019-07-10,22.520969,120.89185,0.99516696
C0SA10,檳榔四格山,2019-07-10,22.810031,121.109308,0.93488383
C0SA30,都歷,2019-07-10,23.020333,121.323642,0.07667679
C0SA40,瑞和,2019-07-10,22.974361,121.156697,0.0847436
C0SA60,知本（水試所）,2019-07-10,22.702394,121.082761,0.1337605
C0SA80,土坂,2019-07-10,22.453108,120.887572,0.15240297
C0SA90,達仁林場,2019-07-10,22.264347,120.823972,0.39614615
C0T870,鯉魚潭,2019-07-10,23.935639,121.508944,0.016610187
C0T900,西林,2019-07-10,23.8119,121.441458,0.019286528
C0T960,光復,2019-07-10,23.660694,121.424964,0.016602246
C0T9A0,月眉山,2019-07-10,23.809928,121.539828,0.08867158
C0T9D0,和中,2019-07-10,24.26676,121.74103,0.08509902
C0T9E0,大坑,2019-07-10,23.880628,121.581981,0.060974073
C0T9F0,水璉,2019-07-10,23.797131,121.542514,0.031180276
C0T9I0,豐濱,2019-07-10,23.583897,121.514806,0.016691644
C0T9M0,靜浦,2019-07-10,23.455167,121.495028,0.014069612
C0T9N0,富里,2019-07-10,23.171639,121.249378,0.64887756
C0U600,礁溪,2019-07-10,24.817539,121.765608,0.052931275
C0U650,玉蘭,2019-07-10,24.675286,121.587061,0.8510905
C0U750,龜山島,2019-07-10,24.841667,121.953133,0.042100523
C0U760,東澳,2019-07-10,24.52196,121.83318,0.02407301
C0U770,南澳,2019-07-10,24.44935,121.81022,0.021626096
C0U780,五結,2019-07-10,24.68637,121.79794,0.059332766
C0U860,頭城,2019-07-10,24.85323,121.8308,0.052302945
C0U870,大礁溪,2019-07-10,24.791042,121.675047,0.03169253
C0U880,北關,2019-07-10,24.9072,121.8734,0.14653248
C0U890,三星,2019-07-10,24.66812,121.65302,0.060123835
C0U900,內城,2019-07-10,24.71813,121.68766,0.05460324
C0U910,冬山,2019-07-10,24.63373,121.7937,0.059332766
C0U940,羅東,2019-07-10,24.68184,121.74934,0.059782766
C0U970,大福,2019-07-10,24.80064,121.81389,0.05187636
C0U990,員山,2019-07-10,24.74435,121.72247,0.059782766
C0UA00,土場,2019-07-10,24.576533,121.495333,0.027732417
C0UA80,大溪漁港,2019-07-10,24.941801,121.902955,0.052931275
C0UA90,石城,2019-07-10,24.980444,121.951214,0.04603428
C0UB00,淡江大學蘭陽校園,2019-07-10,24.823239,121.730383,0.030998923
C0UB10,蘇澳,2019-07-10,24.5969,121.8571,0.028839191
C0UB20,壯圍,2019-07-10,24.7359,121.8163,0.05895092
C0V250,甲仙,2019-07-10,23.080106,120.591758,0.32436022
C0V260,月眉,2019-07-10,22.971003,120.539853,0.07377883
C0V310,美濃,2019-07-10,22.898742,120.519153,0.1382482
C0V350,溪埔,2019-07-10,22.738578,120.446797,0.047469225
C0V360,內門,2019-07-10,22.975481,120.466769,0.14320023
C0V370,古亭坑,2019-07-10,22.893178,120.401947,0.1338605
C0V400,阿公店,2019-07-10,22.804194,120.355528,0.05231779
C0V440,鳳山,2019-07-10,22.646653,120.356122,0.04828272
C0V450,鳳森,2019-07-10,22.545064,120.392592,0.039283723
C0V490,新興,2019-07-10,22.627422,120.298803,0.04723631
C0V530,阿蓮,2019-07-10,22.883208,120.327508,0.05537305
C0V610,梓官,2019-07-10,22.760558,120.267211,0.040586215
C0V620,永安,2019-07-10,22.82315,120.236856,0.040259372
C0V630,茄萣,2019-07-10,22.906642,120.182608,0.054624747
C0V640,湖內,2019-07-10,22.887139,120.2445,0.055341594
C0V650,彌陀,2019-07-10,22.783806,120.246361,0.040259372
C0V660,岡山,2019-07-10,22.797078,120.294958,0.040586215
C0V680,仁武,2019-07-10,22.701083,120.347722,0.045063227
C0V690,鼓山,2019-07-10,22.623325,120.275575,0.04723631
C0V700,三民,2019-07-10,22.645017,120.311233,0.04723631
C0V710,苓雅,2019-07-10,22.622742,120.330669,0.04723631
C0V720,林園,2019-07-10,22.507747,120.394511,0.04723631
C0V730,大寮,2019-07-10,22.605614,120.395717,0.034272887
C0V740,旗山,2019-07-10,22.888614,120.483597,0.13790917
C0V750,路竹,2019-07-10,22.854997,120.259439,0.03965567
C0V760,橋頭,2019-07-10,22.757806,120.30575,0.04109786
C0V770,大社,2019-07-10,22.730306,120.346639,0.045063227
C0V790,萬山,2019-07-10,22.905944,120.688056,0.32621652
C0V800,六龜,2019-07-10,22.997889,120.633583,0.07302685
C0V810,左營,2019-07-10,22.67491,120.28491,0.044420794
C0V820,小林,2019-07-10,23.148408,120.63325,0.5560473
C0V840,鳳鼻頭,2019-07-10,22.5083,120.3591,0.0466635
C0V850,蚵仔寮,2019-07-10,22.7256,120.2527,0.043422535
C0V860,南寮,2019-07-10,22.7616,120.2339,0.03973903
C0V870,文安,2019-07-10,22.8025,120.2164,0.039739016
C0V880,興達,2019-07-10,22.8778,120.2127,0.054624747
C0V890,前鎮,2019-07-10,22.5718,120.3117,0.0466635
C0V900,汕尾,2019-07-10,22.4782,120.4151,0.04740719
C0X050,東河,2019-07-10,23.296598,120.385608,0.13641986
C0X060,下營,2019-07-10,23.22695,120.256261,0.12179987
C0X080,佳里,2019-07-10,23.173039,120.145086,0.14362106
C0X100,臺南市北區,2019-07-10,23.010394,120.194228,0.06565511
C0X110,臺南市南區,2019-07-10,22.961189,120.188378,0.06637465
C0X120,麻豆,2019-07-10,23.183289,120.248611,0.14438419
C0X130,官田,2019-07-10,23.193217,120.315422,0.12270528
C0X140,西港,2019-07-10,23.125608,120.203108,0.13547276
C0X150,安定,2019-07-10,23.102614,120.227839,0.07320609
C0X160,仁德,2019-07-10,22.968258,120.257689,0.058917988
C0X170,關廟,2019-07-10,22.963017,120.327797,0.061169546
C0X180,山上,2019-07-10,23.0757,120.363253,0.13910063
C0X190,安平,2019-07-10,22.993161,120.152181,0.06565511
C0X200,左鎮,2019-07-10,23.056758,120.408522,0.13867998
C0X210,白河,2019-07-10,23.347466,120.414427,0.14322187
C0X220,學甲,2019-07-10,23.230367,120.182187,0.14438419
C0X230,鹽水,2019-07-10,23.272621,120.247641,0.13695234
C0X240,關子嶺,2019-07-10,23.331169,120.508025,0.92207336
C0X250,新營,2019-07-10,23.310689,120.316681,0.11755801
C0X260,後壁,2019-07-10,23.366358,120.362326,0.13893849
C0X280,將軍,2019-07-10,23.214999,120.13577,0.14362106
C0X290,北門,2019-07-10,23.267772,120.125481,0.14362106
C0X300,鹿寮,2019-07-10,23.386047,120.477331,0.21856669
C0X310,七股,2019-07-10,23.147289,120.086253,0.12831645
C0X320,柳營,2019-07-10,23.253328,120.375253,0.13641974
C0Z020,明里,2019-07-10,23.208717,121.262342,0.6111923
C0Z061,玉里,2019-07-10,23.3215,121.339656,0.072395094
C0Z070,舞鶴,2019-07-10,23.46811,121.37407,0.041890457
C0Z080,富源,2019-07-10,23.587642,121.378225,0.030044518
C0Z100,東華,2019-07-10,23.89525,121.549833,0.013111772
C0Z150,吉安光華,2019-07-10,23.930925,121.595153,0.012757813
C0Z160,鳳林,2019-07-10,23.746114,121.453411,0.015872026
C0Z170,卓溪,2019-07-10,23.3443,121.3029,0.101780504
C0Z180,新城,2019-07-10,24.03946,121.60454,0.031060468
C0Z190,富世,2019-07-10,24.14743,121.6297,0.4609832
C0Z200,萬榮,2019-07-10,23.709219,121.420106,0.016610187
C0Z210,瑞穗,2019-07-10,23.5239,121.39021,0.015459301
C0Z230,和平,2019-07-10,24.30717,121.77007,0.08387311
C0Z270,蕃薯寮,2019-07-10,23.73835,121.540108,0.021723958
C0Z280,德武,2019-07-10,23.47426,121.41071,0.03125066
C0Z300,東里,2019-07-10,23.26853,121.30547,0.08342562
C0Z310,清水斷崖,2019-07-10,24.218294,121.689142,0.14374532
C0Z330,安通山,2019-07-10,23.290728,121.348528,0.89138025
CAA010,國一N013K,2019-07-10,25.06944,121.6281,0.11668363
CAA020,國一S026K,2019-07-10,25.07639,121.4964,0.14960778
CAA030,國三S010K,2019-07-10,25.08,121.6475,0.11397539
CAA040,國三S016K,2019-07-10,25.03306,121.6158,0.14111824
CAA050,國三S037K,2019-07-10,24.9828,121.471,0.11668363
CAA060,國三S042K,2019-07-10,24.96,121.4306,0.17612255
CAA070,國三N046K,2019-07-10,24.95083,121.3958,0.16773319
CAA080,國三S054K,2019-07-10,24.93917,121.3239,0.79919064
CAA090,國三A005K,2019-07-10,25.00194,121.5975,0.119975485
CAAH60,大安森林,2019-07-10,25.02955,121.53628,0.11115956
CAB010,國一S001K,2019-07-10,25.11583,121.7286,0.100843966
CAB020,國一S006K,2019-07-10,25.08694,121.6869,0.096527375
CAB030,國三S004K,2019-07-10,25.11444,121.6886,0.04608235
CAB040,國三S007K,2019-07-10,25.09694,121.6678,0.11193017
CAB050,國三K002K,2019-07-10,25.14583,121.7217,0.111930296
CAC010,國一S072K,2019-07-10,24.89583,121.1342,0.89010537
CAC020,國二E009K,2019-07-10,25.02111,121.2736,0.81102455
CAC030,國三N063K,2019-07-10,24.889,121.26,0.83728725
CAC050,西濱S023K,2019-07-10,25.11649,121.27551,0.3169131
CAC060,西濱S032K,2019-07-10,25.091966,121.192505,0.30249122
CAD010,國一S105K,2019-07-10,24.726316,120.940643,0.8495278
CAD020,國一N077K,2019-07-10,24.885,121.0889,0.880848
CAD030,國一S082K,2019-07-10,24.87667,121.0467,0.60700357
CAD040,國一S088K,2019-07-10,24.84444,121.0214,0.8338287
CAD050,國一N094K,2019-07-10,24.79778,121.0089,0.8506339
CAD060,國一S098K,2019-07-10,24.76056,120.9911,0.8506339
CAD070,國三N076K,2019-07-10,24.800303,121.195739,0.97079337
CAD080,國三N085K,2019-07-10,24.78333,121.1211,0.9673192
CAD090,國三S103K,2019-07-10,24.75861,120.9608,0.8641768
CAD100,西濱N066K,2019-07-10,24.8956,120.9649,0.44747293
CAD110,西濱S082K,2019-07-10,24.751724,120.905028,0.83443683
CAE010,國一N142K,2019-07-10,24.453119,120.783221,0.97935826
CAE020,國一S114K,2019-07-10,24.668835,120.885811,0.83443683
CAE030,國一S123K,2019-07-10,24.59594,120.86071,0.96649134
CAE040,國一S132K,2019-07-10,24.524506,120.820831,0.9596198
CAE050,國一S152K,2019-07-10,24.375492,120.749184,0.9657108
CAE060,國三N119K,2019-07-10,24.675432,120.847389,0.9255358
CAE070,國三N151K,2019-07-10,24.440218,120.681656,0.7267441
CAE080,國三S140K,2019-07-10,24.522345,120.725006,0.9094462
CAE090,國三S156K,2019-07-10,24.39798,120.669487,0.90946966
CAE100,西濱N107K,2019-07-10,24.5958,120.7394,0.93704075
CAE110,西濱S129K,2019-07-10,24.4472,120.6428,0.5931759
CAF010,國一N174K,2019-07-10,24.2049,120.6552,0.97116125
CAF020,國一S162K,2019-07-10,24.295534,120.695976,0.9671938
CAF030,國一S169K,2019-07-10,24.237116,120.688271,0.96683127
CAF040,國一S188K,2019-07-10,24.118546,120.585747,0.27861634
CAF050,國三N208K,2019-07-10,24.066147,120.660919,0.27861604
CAF060,國三S168K,2019-07-10,24.308519,120.614471,0.71400243
CAF070,國三S173K,2019-07-10,24.27397,120.593079,0.88561517
CAF080,國三S178K,2019-07-10,24.226721,120.589058,0.9385781
CAF090,國四E5K,2019-07-10,24.296465,120.643135,0.83652526
CAF100,西濱N151K,2019-07-10,24.275964,120.547681,0.5085649
CAG010,國一N198K,2019-07-10,24.063889,120.523056,0.1540954
CAG030,國一S207K,2019-07-10,23.988304,120.508092,0.20929632
CAG040,國三N191K,2019-07-10,24.139256,120.5215,0.61745435
CAG050,國三N196K,2019-07-10,24.107155,120.554482,0.2380103
CAG060,國三S202K,2019-07-10,24.092468,120.603256,0.2380103
CAG070,西濱S173K,2019-07-10,24.1081,120.434576,0.1539122
CAG080,西濱S189K,2019-07-10,23.987857,120.369607,0.3241317
CAG090,西濱N210K,2019-07-10,23.843536,120.293236,0.1264583
CAG100,王功漁港,2019-07-10,23.96824,120.32586,0.3241317
CAH010,國三N223K,2019-07-10,23.955116,120.662376,0.6298293
CAH020,國三S217K,2019-07-10,24.00683,120.653214,0.956396
CAH030,茶改場竹圍站,2019-07-10,23.860083,120.637528,0.96656954
CAHA00,消防署訓練中心,2019-07-10,23.82137,120.72293,0.788281
CAJ010,國三N252K,2019-07-10,23.77412,120.64061,0.6619884
CAJ020,國一N234K,2019-07-10,23.74633,120.467926,0.26130545
CAJ030,西濱N222K,2019-07-10,23.737734,120.256132,0.098559394
CAJ040,西濱S241K,2019-07-10,23.623426,120.172646,0.11470014
CAJ050,海口故事園區,2019-07-10,23.57543,120.14121,0.11470014
CAL010,國一N250K,2019-07-10,23.610292,120.436867,0.5427645
CAL020,國一S262K,2019-07-10,23.512333,120.403038,0.57980746
CAL030,國一N268K,2019-07-10,23.460833,120.375833,0.57980746
CAL040,國一N273K,2019-07-10,23.416666,120.355,0.13142473
CAL050,國三N279K,2019-07-10,23.596111,120.523333,0.42750743
CAL060,國三S286K,2019-07-10,23.533917,120.484583,0.43002993
CAL070,國三N295K,2019-07-10,23.468598,120.499369,0.39401478
CAL080,國三N303K,2019-07-10,23.428611,120.452416,0.60627574
CAL090,西濱S257K,2019-07-10,23.502278,120.171861,0.11499759
CAL100,西濱S267K,2019-07-10,23.41613,120.162872,0.10969669
CAL110,布袋國中,2019-07-10,23.35893,120.18026,0.13274883
CAN010,國一N288K,2019-07-10,23.30609,120.290033,0.11709508
CAN020,國一S306K,2019-07-10,23.1565,120.239513,0.14438419
CAN030,國一N316K,2019-07-10,23.07309,120.253014,0.062504165
CAN040,國一N323K,2019-07-10,23.00421,120.245922,0.06700415
CAN050,國一N335K,2019-07-10,22.897584,120.269895,0.05372464
CAN060,國三S311K,2019-07-10,23.346388,120.438888,0.15361479
CAN070,國三S329K,2019-07-10,23.212777,120.355833,0.14471024
CAN080,國三N336K,2019-07-10,23.154722,120.345,0.12307646
CAN090,國三S342K,2019-07-10,23.106694,120.327528,0.063770026
CAN100,國三S366K,2019-07-10,22.9077,120.3513,0.06713601
CAN110,西濱S280K,2019-07-10,23.3052,120.14891,0.14362106
CAN120,西濱N304K,2019-07-10,23.103439,120.086694,0.15281461
CAN130,水試所海水繁養殖中心,2019-07-10,23.120802,120.07968,0.15112408
CAN140,六官養殖協會,2019-07-10,23.22881,120.29962,0.12237259
CAP010,國一S342K,2019-07-10,22.845555,120.295,0.040586215
CAP020,國一S346K,2019-07-10,22.812222,120.314166,0.040586215
CAP030,國一N351K,2019-07-10,22.765833,120.328888,0.04109786
CAP040,國一N361K,2019-07-10,22.680555,120.328611,0.044420794
CAP050,國三N372K,2019-07-10,22.858611,120.373611,0.05311914
CAP060,國三S385K,2019-07-10,22.767777,120.444444,0.05666114
CAP070,高雄燈塔,2019-07-10,22.6146,120.2647,0.04723631
CAQ010,國三N425K,2019-07-10,22.480277,120.531666,0.05537481
CAQ020,國三S415K,2019-07-10,22.568,120.528,0.036777057
CAQ030,崎峰國小,2019-07-10,22.42565,120.49521,0.054783378
E2K600,四湖植物園,2019-07-10,23.676986,120.163433,0.10822251
E2P980,林試六龜中心,2019-07-10,22.991703,120.645722,0.07472317
E2S390,太麻里分所,2019-07-10,22.5988,120.9811,0.10143655
E2S960,林試太麻里2,2019-07-10,22.598014,120.989761,0.07038824
E2S980,林試太麻里1,2019-07-10,22.598922,120.980044,0.10143651
G2AI50,關渡,2019-07-10,25.11575,121.492,0.14381751
G2F820,農試所(霧峰),2019-07-10,24.031261,120.688133,0.956396
G2L020,嘉義分所,2019-07-10,23.485028,120.473806,0.39401522
G2M350,溪口農場,2019-07-10,23.58565,120.408111,0.47164902
G2P820,鳳山園試所,2019-07-10,22.646611,120.356083,0.04828272
K2E360,苗栗農改場,2019-07-10,24.495722,120.829111,0.9626402
K2E710,大湖分場,2019-07-10,24.422861,120.871833,0.9791577
K2F750,種苗改良場,2019-07-10,24.225972,120.800917,0.96444505
U2HA50,臺大竹山,2019-07-10,23.756972,120.681556,0.8858244
V2C250,八德合作社,2019-07-10,24.93775,121.266389,0.86500126
V2C260,八德蔬果,2019-07-10,24.978508,121.281819,0.8506127
V2K610,大庄合作社,2019-07-10,23.8068,120.367939,0.3899268
V2K620,麥寮合作社,2019-07-10,23.753836,120.294783,0.1264583
