站號,站名,日期,lat,lon,BlastGRU-TW
466881,新北,2019-04-10,24.9593,121.52,0.22871989
466900,淡水,2019-04-10,25.164889,121.448906,0.08401263
466920,臺北,2019-04-10,25.037658,121.514853,0.24151038
467350,澎湖,2019-04-10,23.565503,119.563094,0.43948805
467410,臺南,2019-04-10,22.993239,120.204772,0.50982034
467420,永康,2019-04-10,23.038386,120.2367,0.5154433
467790,墾丁雷達站,2019-04-10,21.948235,120.808028,0.105475664
C0A520,山佳,2019-04-10,24.974944,121.402008,0.15997565
C0A530,坪林,2019-04-10,24.938183,121.70975,0.17496905
C0A880,福隆,2019-04-10,25.017842,121.942083,0.19890496
C0A890,雙溪,2019-04-10,25.036003,121.864242,0.09455844
C0A920,富貴角,2019-04-10,25.263783,121.565258,0.05390396
C0AC80,文山,2019-04-10,25.00235,121.575728,0.21058716
C0ACA0,新莊,2019-04-10,25.051478,121.446756,0.107942395
C0AD00,三芝,2019-04-10,25.258131,121.501917,0.038128305
C0AH70,松山,2019-04-10,25.04871,121.55042,0.24151029
C0AH80,深坑,2019-04-10,25.002703,121.628328,0.21058716
C0AI00,五股,2019-04-10,25.07445,121.42728,0.03938744
C0AJ70,田寮,2019-04-10,25.2698,121.4886,0.04888932
