站號,站名,日期,lat,lon,BlastGRU-TW
466881,新北,2019-09-05,24.9593,121.52,0.077446915
466900,淡水,2019-09-05,25.164889,121.448906,0.115908474
466920,臺北,2019-09-05,25.037658,121.514853,0.07591423
467441,高雄,2019-09-05,22.7304,120.3125,0.7271548
467480,嘉義,2019-09-05,23.495925,120.432906,0.9488013
467490,臺中,2019-09-05,24.145736,120.684075,0.6636268
C0A530,坪林,2019-09-05,24.938183,121.70975,0.029771993
C0A540,四堵,2019-09-05,24.8926,121.745736,0.061123643
C0A550,泰平,2019-09-05,24.971197,121.823711,0.7950291
C0A890,雙溪,2019-09-05,25.036003,121.864242,0.08839024
C0A920,富貴角,2019-09-05,25.263783,121.565258,0.10970436
C0A931,三和,2019-09-05,25.233153,121.595236,0.035955813
C0AC70,信義,2019-09-05,25.037822,121.564597,0.07591423
C0AC80,文山,2019-09-05,25.00235,121.575728,0.07980227
C0ACA0,新莊,2019-09-05,25.051478,121.446756,0.098497964
C0AH50,林口,2019-09-05,25.072181,121.38084,0.059672024
C0AH70,松山,2019-09-05,25.04871,121.55042,0.07591423
C0AH80,深坑,2019-09-05,25.002703,121.628328,0.07980227
C0AJ60,六塊厝,2019-09-05,25.24,121.4481,0.114834994
C0AJ70,田寮,2019-09-05,25.2698,121.4886,0.1103209
