站號,站名,日期,lat,lon,BlastGRU-TW
466881,新北,2019-04-25,24.9593,121.52,0.7663358
466900,淡水,2019-04-25,25.164889,121.448906,0.78703374
466920,臺北,2019-04-25,25.037658,121.514853,0.8145203
466940,基隆,2019-04-25,25.133314,121.740475,0.8813886
466990,花蓮,2019-04-25,23.975128,121.613275,0.98038954
467050,新屋,2019-04-25,25.006744,121.047486,0.9211135
467080,宜蘭,2019-04-25,24.763975,121.756528,0.86912006
467270,田中,2019-04-25,23.873803,120.581286,0.952294
467300,東吉島,2019-04-25,23.25695,119.667467,0.9650642
467350,澎湖,2019-04-25,23.565503,119.563094,0.9835475
467410,臺南,2019-04-25,22.993239,120.204772,0.77880406
467420,永康,2019-04-25,23.038386,120.2367,0.74787605
467441,高雄,2019-04-25,22.7304,120.3125,0.49917018
467480,嘉義,2019-04-25,23.495925,120.432906,0.9780473
467490,臺中,2019-04-25,24.145736,120.684075,0.96254045
467540,大武,2019-04-25,22.355675,120.903789,0.10572927
467571,新竹,2019-04-25,24.827853,121.014219,0.8996504
467590,恆春,2019-04-25,22.003897,120.746339,0.50774956
467610,成功,2019-04-25,23.097486,121.373428,0.3276412
467620,蘭嶼,2019-04-25,22.036969,121.558339,0.9305675
467660,臺東,2019-04-25,22.752211,121.154586,0.8353614
467790,墾丁雷達站,2019-04-25,21.948235,120.808028,0.5074889
C0A520,山佳,2019-04-25,24.974944,121.402008,0.68561447
C0A530,坪林,2019-04-25,24.938183,121.70975,0.15753236
C0A540,四堵,2019-04-25,24.8926,121.745736,0.19735684
C0A550,泰平,2019-04-25,24.971197,121.823711,0.63719064
C0A560,福山,2019-04-25,24.776203,121.502811,0.7027426
C0A570,桶後,2019-04-25,24.848222,121.597992,0.25098214
C0A640,石碇,2019-04-25,24.993969,121.662917,0.23621309
C0A650,火燒寮,2019-04-25,25.002719,121.742892,0.13066413
C0A660,瑞芳,2019-04-25,25.113169,121.801147,0.72270185
C0A770,科教館,2019-04-25,25.096356,121.516507,0.7760582
C0A860,大坪,2019-04-25,25.165914,121.632969,0.050773393
C0A880,福隆,2019-04-25,25.017842,121.942083,0.88662165
C0A890,雙溪,2019-04-25,25.036003,121.864242,0.84299856
C0A920,富貴角,2019-04-25,25.263783,121.565258,0.3905752
C0A931,三和,2019-04-25,25.233153,121.595236,0.1446037
C0A940,金山,2019-04-25,25.223628,121.643967,0.6337277
C0A950,鼻頭角,2019-04-25,25.129036,121.923372,0.8913755
C0A970,三貂角,2019-04-25,25.007606,122.002058,0.7989939
C0A980,社子,2019-04-25,25.109508,121.469681,0.79870754
C0A9C0,天母,2019-04-25,25.117494,121.537169,0.7198586
C0A9F0,內湖,2019-04-25,25.079422,121.57545,0.8145203
C0AC60,三峽,2019-04-25,24.939025,121.369728,0.73732543
C0AC70,信義,2019-04-25,25.037822,121.564597,0.8145203
C0AC80,文山,2019-04-25,25.00235,121.575728,0.65982634
C0ACA0,新莊,2019-04-25,25.051478,121.446756,0.8260886
C0AD00,三芝,2019-04-25,25.258131,121.501917,0.4596897
C0AD10,八里,2019-04-25,25.150211,121.403947,0.78703374
C0AD30,蘆洲,2019-04-25,25.086594,121.472331,0.7760582
C0AD40,土城,2019-04-25,24.973208,121.445169,0.7515568
C0AD50,鶯歌,2019-04-25,24.951533,121.346294,0.6333463
C0AG80,中和,2019-04-25,24.991622,121.491792,0.8145203
C0AH00,汐止,2019-04-25,25.066881,121.658778,0.8765214
C0AH10,永和,2019-04-25,25.01125,121.508111,0.8339986
C0AH40,平等,2019-04-25,25.129142,121.577086,0.10423884
C0AH50,林口,2019-04-25,25.072181,121.38084,0.17620747
C0AH70,松山,2019-04-25,25.04871,121.55042,0.8145203
C0AH80,深坑,2019-04-25,25.002703,121.628328,0.65982634
C0AI00,五股,2019-04-25,25.07445,121.42728,0.20173553
C0AI10,屈尺,2019-04-25,24.92184,121.54475,0.65982634
C0AI20,白沙灣,2019-04-25,25.283128,121.519058,0.69885826
C0AI30,三重,2019-04-25,25.057328,121.500629,0.7760582
C0AI40,石牌,2019-04-25,25.115597,121.513139,0.75155646
C0AJ20,野柳,2019-04-25,25.20703,121.690021,0.8765214
C0AJ30,淡水觀海,2019-04-25,25.184591,121.408616,0.8037326
C0AJ40,石門,2019-04-25,25.273672,121.601198,0.15100299
C0AJ50,水湳洞,2019-04-25,25.123695,121.862238,0.8765214
C0AJ60,六塊厝,2019-04-25,25.24,121.4481,0.8037326
C0AJ70,田寮,2019-04-25,25.2698,121.4886,0.725289
C0AJ80,板橋,2019-04-25,25.0107,121.4489,0.75155646
C0AJ90,澳底,2019-04-25,25.0552,121.9253,0.88662165
C0B010,七堵,2019-04-25,25.094819,121.71713,0.8620812
C0B020,基隆嶼,2019-04-25,25.19141,121.78391,0.8765214
C0B040,大武崙,2019-04-25,25.166676,121.706993,0.8620812
C0B050,八斗子,2019-04-25,25.144754,121.79167,0.8874599
C0B060,暖暖,2019-04-25,25.0957,121.7403,0.7994911
C0C460,復興,2019-04-25,24.820208,121.352281,0.12317574
C0C480,桃園,2019-04-25,24.992425,121.323172,0.5275894
C0C490,八德,2019-04-25,24.928708,121.283289,0.87460905
C0C590,觀音,2019-04-25,25.027072,121.153317,0.68100685
C0C620,蘆竹,2019-04-25,25.084275,121.265767,0.74636334
C0C630,大溪,2019-04-25,24.882853,121.265547,0.6934399
C0C650,平鎮,2019-04-25,24.897503,121.214636,0.27884212
C0C660,楊梅,2019-04-25,24.912375,121.143047,0.37396005
C0C670,龍潭,2019-04-25,24.870056,121.221389,0.4555069
C0C680,龜山,2019-04-25,25.02846,121.38656,0.44018576
C0C700,中壢,2019-04-25,24.977661,121.256375,0.35567102
C0C710,大溪永福,2019-04-25,24.892936,121.324975,0.3795071
C0C720,竹圍,2019-04-25,25.112692,121.239824,0.78703374
C0C730,中大臨海站,2019-04-25,24.966126,121.008581,0.90679485
C0C740,觀音工業區,2019-04-25,25.064764,121.114856,0.8714987
C0C750,新興坑尾,2019-04-25,25.0061,121.0971,0.7331527
C0D430,峨眉,2019-04-25,24.6905,121.017189,0.9120452
C0D480,打鐵坑,2019-04-25,24.849664,121.150789,0.61135906
C0D540,橫山,2019-04-25,24.71116,121.11693,0.60671073
C0D560,竹東,2019-04-25,24.767147,121.057881,0.5975091
C0D580,寶山,2019-04-25,24.735006,121.025192,0.8758598
C0D590,新豐,2019-04-25,24.87068,120.97721,0.96788704
C0D650,湖口,2019-04-25,24.904794,121.043628,0.9296679
C0D660,新竹市東區,2019-04-25,24.798681,120.986942,0.8847076
C0D670,海天一線,2019-04-25,24.831986,120.914438,0.9287662
C0D680,香山濕地,2019-04-25,24.783581,120.914988,0.92671835
C0D690,外湖,2019-04-25,24.917735,120.968711,0.90679485
C0D700,關西,2019-04-25,24.7977,121.1732,0.6700482
C0E420,竹南,2019-04-25,24.708978,120.888897,0.9187812
C0E430,南庄,2019-04-25,24.601775,121.000214,0.93235534
C0E520,大湖,2019-04-25,24.41494,120.87087,0.6160539
C0E540,後龍,2019-04-25,24.606489,120.783933,0.97603947
C0E550,明德,2019-04-25,24.583486,120.885411,0.9631283
C0E590,通霄,2019-04-25,24.471892,120.704622,0.95487183
C0E730,頭份,2019-04-25,24.688247,120.912206,0.9187812
C0E740,造橋,2019-04-25,24.637056,120.864778,0.974113
C0E750,苗栗,2019-04-25,24.564569,120.824575,0.956788
C0E780,銅鑼,2019-04-25,24.489681,120.790853,0.9586394
C0E791,卓蘭,2019-04-25,24.3126,120.8244,0.8975095
C0E810,西湖,2019-04-25,24.562947,120.7485,0.9651623
C0E820,獅潭,2019-04-25,24.539133,120.920042,0.9626228
C0E830,苑裡,2019-04-25,24.439714,120.653053,0.9807263
C0E850,大河,2019-04-25,24.618069,120.948578,0.9501134
C0E870,高鐵苗栗,2019-04-25,24.60725,120.826094,0.9729162
C0E910,海埔,2019-04-25,24.648767,120.772435,0.98534346
C0E920,通霄漁港,2019-04-25,24.498589,120.673876,0.97600305
C0E930,龍鳳,2019-04-25,24.700034,120.859125,0.98170376
C0F0B0,石岡,2019-04-25,24.276061,120.777644,0.7751262
C0F850,東勢,2019-04-25,24.246428,120.833047,0.83117086
C0F930,大甲,2019-04-25,24.347667,120.640403,0.9720453
C0F970,大坑,2019-04-25,24.173142,120.722289,0.9432239
C0F9A0,中竹林,2019-04-25,24.103556,120.751061,0.19420232
C0F9I0,神岡,2019-04-25,24.272481,120.658314,0.9035275
C0F9K0,大安,2019-04-25,24.345061,120.588025,0.9900978
C0F9L0,后里,2019-04-25,24.310436,120.729725,0.8784019
C0F9M0,豐原,2019-04-25,24.254322,120.720692,0.8862931
C0F9N0,大里,2019-04-25,24.092464,120.701378,0.9862155
C0F9O0,潭子,2019-04-25,24.213106,120.703933,0.91795105
C0F9P0,清水,2019-04-25,24.312297,120.562242,0.99076563
C0F9Q0,外埔,2019-04-25,24.347817,120.705686,0.94248915
C0F9R0,龍井,2019-04-25,24.184536,120.528972,0.988779
C0F9S0,烏日,2019-04-25,24.107058,120.624103,0.9318079
C0F9T0,西屯,2019-04-25,24.179494,120.641275,0.97230685
C0F9U0,南屯,2019-04-25,24.137006,120.637969,0.9862155
C0F9X0,大雅(中科園區),2019-04-25,24.21528,120.62445,0.94206214
C0FA10,松柏,2019-04-25,24.429115,120.617482,0.9872032
C0FA20,溫寮,2019-04-25,24.372177,120.583125,0.98720324
C0FA30,梧棲,2019-04-25,24.256003,120.523381,0.98887914
C0FA40,臺中電廠,2019-04-25,24.2146,120.4907,0.988779
C0FA50,霧峰,2019-04-25,24.0419,120.6995,0.9725289
C0G620,芬園,2019-04-25,24.015678,120.6213,0.97260845
C0G640,鹿港,2019-04-25,24.0753,120.430481,0.9387139
C0G650,員林,2019-04-25,23.946503,120.585597,0.967946
C0G660,溪湖,2019-04-25,23.94835,120.479122,0.94673496
C0G720,溪州,2019-04-25,23.851589,120.499093,0.9484993
C0G730,二林,2019-04-25,23.903325,120.376081,0.92227083
C0G740,大城,2019-04-25,23.852487,120.320935,0.9775049
C0G770,福興,2019-04-25,24.041289,120.437669,0.9387139
C0G780,秀水,2019-04-25,24.03405,120.503869,0.9273109
C0G800,埔鹽,2019-04-25,24.000394,120.431683,0.9387139
C0G810,埔心,2019-04-25,23.947633,120.525456,0.9519307
C0G820,田尾,2019-04-25,23.901669,120.509389,0.9561439
C0G830,埤頭,2019-04-25,23.866003,120.452806,0.9478109
C0G840,北斗,2019-04-25,23.877586,120.514222,0.9561439
C0G860,社頭,2019-04-25,23.897647,120.5862,0.9698939
C0G870,芳苑,2019-04-25,23.922303,120.320025,0.97719413
C0G880,二水,2019-04-25,23.810742,120.6173,0.954749
C0G890,伸港,2019-04-25,24.148933,120.484403,0.9900913
C0G900,線西,2019-04-25,24.143358,120.443536,0.9887109
C0G910,花壇,2019-04-25,24.032076,120.549461,0.9423278
C0G920,永靖,2019-04-25,23.924703,120.547533,0.9561439
C0G940,竹塘,2019-04-25,23.848253,120.386764,0.9368861
C0G950,防潮門,2019-04-25,24.1835,120.4871,0.9894616
C0G960,福寶,2019-04-25,24.0443,120.3814,0.9307989
C0G970,三豐,2019-04-25,23.882,120.2895,0.97719413
C0H890,埔里,2019-04-25,23.972169,120.952425,0.96174544
C0H950,中寮,2019-04-25,23.884447,120.766406,0.8280589
C0H960,草屯,2019-04-25,23.973672,120.68085,0.933099
C0I110,竹山,2019-04-25,23.761225,120.688156,0.90252525
C0I360,水里,2019-04-25,23.812553,120.849792,0.39024213
C0I380,集集,2019-04-25,23.828206,120.801467,0.50864995
C0I410,名間,2019-04-25,23.837053,120.701447,0.9486133
C0I420,國姓,2019-04-25,24.037803,120.855072,0.6982348
C0I460,南投,2019-04-25,23.911469,120.687331,0.93520373
C0K250,崙背,2019-04-25,23.75555,120.318925,0.97651714
C0K280,四湖,2019-04-25,23.630414,120.227125,0.9690931
C0K291,宜梧,2019-04-25,23.536281,120.169329,0.8183839
C0K330,虎尾,2019-04-25,23.719183,120.442036,0.9294269
C0K390,土庫,2019-04-25,23.679029,120.395574,0.9232962
C0K400,斗六,2019-04-25,23.720583,120.541127,0.9537893
C0K410,北港,2019-04-25,23.573957,120.292802,0.87353283
C0K420,西螺,2019-04-25,23.800407,120.467394,0.9529758
C0K430,褒忠,2019-04-25,23.690938,120.303634,0.96551365
C0K440,二崙,2019-04-25,23.772797,120.408944,0.94048095
C0K450,大埤,2019-04-25,23.646074,120.431537,0.9421566
C0K460,斗南,2019-04-25,23.678734,120.478359,0.9516937
C0K470,林內,2019-04-25,23.748675,120.609642,0.95574963
C0K480,莿桐,2019-04-25,23.761192,120.502372,0.95330036
C0K500,元長,2019-04-25,23.64981,120.315024,0.96389335
C0K510,水林,2019-04-25,23.572924,120.24597,0.90304345
C0K530,臺西,2019-04-25,23.701547,120.197559,0.97062045
C0K550,蔦松,2019-04-25,23.514319,120.229736,0.83497125
C0K560,棋山,2019-04-25,23.68645,120.603417,0.95355535
C0K580,高鐵雲林,2019-04-25,23.737456,120.417944,0.9232962
C0K590,雲林東勢,2019-04-25,23.674192,120.255721,0.96551365
C0K600,箔子寮,2019-04-25,23.6197,120.14,0.89046466
C0M410,馬頭山,2019-04-25,23.324361,120.582017,0.8629406
C0M520,東後寮,2019-04-25,23.369908,120.248065,0.9211473
C0M640,中埔,2019-04-25,23.42538,120.5229,0.95570254
C0M650,朴子,2019-04-25,23.43463,120.23902,0.78992516
C0M660,溪口,2019-04-25,23.604131,120.403569,0.9788791
C0M670,大林,2019-04-25,23.600616,120.45841,0.98207355
C0M680,太保,2019-04-25,23.455062,120.331455,0.77776104
C0M690,水上,2019-04-25,23.419734,120.388909,0.978733
C0M700,竹崎,2019-04-25,23.526178,120.555508,0.9558058
C0M710,東石,2019-04-25,23.458927,120.15385,0.83497125
C0M720,番路,2019-04-25,23.464657,120.554156,0.95534474
C0M730,嘉義市東區,2019-04-25,23.457673,120.460531,0.9829792
C0M740,六腳,2019-04-25,23.492871,120.290625,0.75972223
C0M750,布袋,2019-04-25,23.380878,120.167789,0.78992516
C0M760,民雄,2019-04-25,23.551754,120.428457,0.97982824
C0M770,嘉義梅山,2019-04-25,23.585398,120.555587,0.95718867
C0M780,鹿草,2019-04-25,23.41134,120.30835,0.7943419
C0M790,新港,2019-04-25,23.553269,120.345728,0.8885649
C0M800,茶山,2019-04-25,23.299075,120.664767,0.89443856
C0M880,好美里,2019-04-25,23.3364,120.138,0.8655107
C0N010,鯤鯓國小,2019-04-25,23.1879,120.0889,0.7407269
C0N020,城西,2019-04-25,23.0568,120.0956,0.8373889
C0N030,四草,2019-04-25,23.0235,120.1116,0.4987113
C0N040,蘆竹溝,2019-04-25,23.2344,120.0961,0.7407269
C0N050,蚵寮,2019-04-25,23.301,120.1104,0.7407269
C0O810,曾文,2019-04-25,23.219681,120.497328,0.9786832
C0O830,北寮,2019-04-25,23.079561,120.495008,0.8200173
C0O840,王爺宮,2019-04-25,23.222064,120.40085,0.9786832
C0O860,大內,2019-04-25,23.11885,120.36083,0.9553196
C0O900,善化,2019-04-25,23.112883,120.297219,0.8472903
C0O930,玉井,2019-04-25,23.126042,120.46055,0.9646389
C0O950,安南,2019-04-25,23.076694,120.144861,0.8615927
C0O960,崎頂,2019-04-25,22.959547,120.369317,0.8173713
C0O970,虎頭埤,2019-04-25,23.021375,120.347878,0.88120204
C0O980,新市,2019-04-25,23.061614,120.298197,0.8472903
C0O990,媽廟,2019-04-25,22.99175,120.293525,0.81539667
C0R150,三地門,2019-04-25,22.709889,120.639944,0.73140264
C0R160,鹽埔,2019-04-25,22.739558,120.530778,0.83552915
C0R170,屏東,2019-04-25,22.660269,120.494072,0.8884051
C0R190,赤山,2019-04-25,22.592333,120.614306,0.785676
C0R220,潮州,2019-04-25,22.534361,120.54,0.8266173
C0R240,來義,2019-04-25,22.527306,120.625111,0.7948387
C0R260,春日,2019-04-25,22.370361,120.628306,0.76976305
C0R270,琉球嶼,2019-04-25,22.332244,120.362236,0.7774092
C0R280,檳榔,2019-04-25,22.076078,120.836777,0.3906979
C0R320,車城,2019-04-25,22.0744,120.716247,0.5064905
C0R341,牡丹,2019-04-25,22.130036,120.792639,0.7993509
C0R350,貓鼻頭,2019-04-25,21.921774,120.7358,0.5083958
C0R470,高樹,2019-04-25,22.826389,120.600806,0.76341736
C0R480,長治,2019-04-25,22.693128,120.542622,0.83891785
C0R490,九如,2019-04-25,22.7405,120.490503,0.90147203
C0R520,崁頂,2019-04-25,22.514781,120.506914,0.8586303
C0R540,佳冬,2019-04-25,22.419456,120.552375,0.83864737
C0R550,新埤,2019-04-25,22.467947,120.582894,0.77383614
C0R560,新園,2019-04-25,22.5434,120.461558,0.8586303
C0R570,麟洛,2019-04-25,22.65078,120.52719,0.90147203
C0R580,南州,2019-04-25,22.48591,120.50274,0.83864737
C0R590,里港,2019-04-25,22.77919,120.49459,0.85569614
C0R620,墾雷,2019-04-25,21.900836,120.855269,0.5083958
C0R640,東港,2019-04-25,22.46247,120.44074,0.71490735
C0R650,竹田,2019-04-25,22.58486,120.54344,0.7608015
C0R660,枋寮,2019-04-25,22.367722,120.590647,0.810544
C0R670,楓港,2019-04-25,22.190131,120.692156,0.70020044
C0R680,佳樂水,2019-04-25,21.993578,120.861633,0.5098471
C0R690,墾丁,2019-04-25,21.966756,120.810269,0.38167235
C0R700,枋山,2019-04-25,22.246844,120.661086,0.70020044
C0R710,龍磐,2019-04-25,21.931672,120.838942,0.4864155
C0R720,旭海,2019-04-25,22.205403,120.887614,0.89530635
C0R730,大坪頂,2019-04-25,22.024633,120.69355,0.43200696
C0R740,獅子,2019-04-25,22.201569,120.70525,0.77076024
C0R760,南仁湖,2019-04-25,22.084681,120.863353,0.32200325
C0R770,保力,2019-04-25,22.071122,120.764111,0.49733606
C0R780,滿州,2019-04-25,22.024403,120.839892,0.5077865
C0R790,九棚,2019-04-25,22.14195,120.889281,0.8668334
C0R800,丹路,2019-04-25,22.204481,120.750989,0.81790215
C0R810,內獅,2019-04-25,22.305064,120.642986,0.6970137
C0R830,高士,2019-04-25,22.121825,120.836781,0.30059478
C0R850,林邊,2019-04-25,22.4634,120.5339,0.8586303
C0R860,鼻頭,2019-04-25,22.1043,120.8979,0.7405226
C0R870,興海,2019-04-25,21.9752,120.8439,0.5098471
C0R880,後壁湖,2019-04-25,21.9457,120.7457,0.50348085
C0R890,山海,2019-04-25,21.9878,120.7091,0.5064905
C0R900,竹坑,2019-04-25,22.1385,120.7022,0.7817427
C0R910,下寮,2019-04-25,22.3929,120.5548,0.83864737
C0R920,塭仔,2019-04-25,22.4169,120.5197,0.814787
C0R930,萬丹,2019-04-25,22.5885,120.4851,0.7608015
C0R940,加祿堂,2019-04-25,22.3363,120.6217,0.6970137
C0S710,鹿野,2019-04-25,22.917711,121.122994,0.99017894
C0S730,綠島,2019-04-25,22.6672,121.47533,0.4702559
C0S740,池上,2019-04-25,23.119628,121.209469,0.9193926
C0S770,大溪山,2019-04-25,22.478475,120.943325,0.8626103
C0S790,金崙,2019-04-25,22.538122,120.966875,0.7631208
C0S810,東河,2019-04-25,22.972672,121.303986,0.23839527
C0S830,長濱,2019-04-25,23.286817,121.411975,0.99367297
C0S840,南田,2019-04-25,22.279725,120.889208,0.22112639
C0S890,關山,2019-04-25,23.0395,121.175017,0.7754413
C0S900,蘭嶼高中,2019-04-25,22.04909,121.51214,0.9417599
C0S910,蘭嶼燈塔,2019-04-25,22.081197,121.503117,0.95268416
C0S920,金峰嘉蘭,2019-04-25,22.594789,120.960825,0.23890305
C0S930,延平,2019-04-25,22.902581,121.084058,0.5143433
C0S940,石寧山,2019-04-25,23.223772,121.406639,0.986005
C0S950,七塊厝,2019-04-25,22.954453,121.229922,0.9929512
C0S960,香蘭,2019-04-25,22.587569,120.993375,0.114255734
C0S970,加津林,2019-04-25,22.416211,120.926942,0.113117814
C0S990,山豬窟,2019-04-25,22.318619,120.857372,0.85454035
C0SA00,歷坵,2019-04-25,22.520969,120.89185,0.8317023
C0SA10,檳榔四格山,2019-04-25,22.810031,121.109308,0.81893945
C0SA30,都歷,2019-04-25,23.020333,121.323642,0.41239387
C0SA40,瑞和,2019-04-25,22.974361,121.156697,0.7089762
C0SA60,知本（水試所）,2019-04-25,22.702394,121.082761,0.27053854
C0SA80,土坂,2019-04-25,22.453108,120.887572,0.39794004
C0SA90,達仁林場,2019-04-25,22.264347,120.823972,0.7384052
C0T870,鯉魚潭,2019-04-25,23.935639,121.508944,0.971711
C0T900,西林,2019-04-25,23.8119,121.441458,0.9859762
C0T960,光復,2019-04-25,23.660694,121.424964,0.9654477
C0T9A0,月眉山,2019-04-25,23.809928,121.539828,0.99490964
C0T9D0,和中,2019-04-25,24.26676,121.74103,0.95229685
C0T9E0,大坑,2019-04-25,23.880628,121.581981,0.9949488
C0T9F0,水璉,2019-04-25,23.797131,121.542514,0.9939231
C0T9I0,豐濱,2019-04-25,23.583897,121.514806,0.9795381
C0T9M0,靜浦,2019-04-25,23.455167,121.495028,0.93680924
C0T9N0,富里,2019-04-25,23.171639,121.249378,0.99176437
C0U600,礁溪,2019-04-25,24.817539,121.765608,0.8574501
C0U650,玉蘭,2019-04-25,24.675286,121.587061,0.96979135
C0U750,龜山島,2019-04-25,24.841667,121.953133,0.92011154
C0U760,東澳,2019-04-25,24.52196,121.83318,0.96981025
C0U770,南澳,2019-04-25,24.44935,121.81022,0.7369905
C0U780,五結,2019-04-25,24.68637,121.79794,0.89744985
C0U860,頭城,2019-04-25,24.85323,121.8308,0.86912006
C0U870,大礁溪,2019-04-25,24.791042,121.675047,0.6395039
C0U880,北關,2019-04-25,24.9072,121.8734,0.84673274
C0U890,三星,2019-04-25,24.66812,121.65302,0.4840611
C0U900,內城,2019-04-25,24.71813,121.68766,0.80112624
C0U910,冬山,2019-04-25,24.63373,121.7937,0.89744985
C0U940,羅東,2019-04-25,24.68184,121.74934,0.901051
C0U970,大福,2019-04-25,24.80064,121.81389,0.8802078
C0U990,員山,2019-04-25,24.74435,121.72247,0.901051
C0UA00,土場,2019-04-25,24.576533,121.495333,0.80789995
C0UA80,大溪漁港,2019-04-25,24.941801,121.902955,0.8574501
C0UA90,石城,2019-04-25,24.980444,121.951214,0.8824472
C0UB00,淡江大學蘭陽校園,2019-04-25,24.823239,121.730383,0.6608607
C0UB10,蘇澳,2019-04-25,24.5969,121.8571,0.70012945
C0UB20,壯圍,2019-04-25,24.7359,121.8163,0.89195424
C0V250,甲仙,2019-04-25,23.080106,120.591758,0.72464854
C0V260,月眉,2019-04-25,22.971003,120.539853,0.8426195
C0V310,美濃,2019-04-25,22.898742,120.519153,0.9298509
C0V350,溪埔,2019-04-25,22.738578,120.446797,0.8364766
C0V360,內門,2019-04-25,22.975481,120.466769,0.97301906
C0V370,古亭坑,2019-04-25,22.893178,120.401947,0.95350456
C0V400,阿公店,2019-04-25,22.804194,120.355528,0.9103639
C0V440,鳳山,2019-04-25,22.646653,120.356122,0.8103883
C0V450,鳳森,2019-04-25,22.545064,120.392592,0.7836216
C0V490,新興,2019-04-25,22.627422,120.298803,0.7476616
C0V530,阿蓮,2019-04-25,22.883208,120.327508,0.6188372
C0V610,梓官,2019-04-25,22.760558,120.267211,0.49561432
C0V620,永安,2019-04-25,22.82315,120.236856,0.50649774
C0V630,茄萣,2019-04-25,22.906642,120.182608,0.51008546
C0V640,湖內,2019-04-25,22.887139,120.2445,0.53976965
C0V650,彌陀,2019-04-25,22.783806,120.246361,0.50649774
C0V660,岡山,2019-04-25,22.797078,120.294958,0.49561432
C0V680,仁武,2019-04-25,22.701083,120.347722,0.5354203
C0V690,鼓山,2019-04-25,22.623325,120.275575,0.7476616
C0V700,三民,2019-04-25,22.645017,120.311233,0.7476616
C0V710,苓雅,2019-04-25,22.622742,120.330669,0.7476616
C0V720,林園,2019-04-25,22.507747,120.394511,0.7476619
C0V730,大寮,2019-04-25,22.605614,120.395717,0.73632973
C0V740,旗山,2019-04-25,22.888614,120.483597,0.93822706
C0V750,路竹,2019-04-25,22.854997,120.259439,0.56380296
C0V760,橋頭,2019-04-25,22.757806,120.30575,0.5315522
C0V770,大社,2019-04-25,22.730306,120.346639,0.5354203
C0V790,萬山,2019-04-25,22.905944,120.688056,0.9122973
C0V800,六龜,2019-04-25,22.997889,120.633583,0.87187684
C0V810,左營,2019-04-25,22.67491,120.28491,0.49917018
C0V820,小林,2019-04-25,23.148408,120.63325,0.8980748
C0V840,鳳鼻頭,2019-04-25,22.5083,120.3591,0.71490735
C0V850,蚵仔寮,2019-04-25,22.7256,120.2527,0.46647725
C0V860,南寮,2019-04-25,22.7616,120.2339,0.47656876
C0V870,文安,2019-04-25,22.8025,120.2164,0.47656876
C0V880,興達,2019-04-25,22.8778,120.2127,0.51008546
C0V890,前鎮,2019-04-25,22.5718,120.3117,0.71490735
C0V900,汕尾,2019-04-25,22.4782,120.4151,0.7184172
C0X050,東河,2019-04-25,23.296598,120.385608,0.9554727
C0X060,下營,2019-04-25,23.22695,120.256261,0.8642547
C0X080,佳里,2019-04-25,23.173039,120.145086,0.8655107
C0X100,臺南市北區,2019-04-25,23.010394,120.194228,0.718515
C0X110,臺南市南區,2019-04-25,22.961189,120.188378,0.74787605
C0X120,麻豆,2019-04-25,23.183289,120.248611,0.883292
C0X130,官田,2019-04-25,23.193217,120.315422,0.89730275
C0X140,西港,2019-04-25,23.125608,120.203108,0.8012686
C0X150,安定,2019-04-25,23.102614,120.227839,0.84041935
C0X160,仁德,2019-04-25,22.968258,120.257689,0.7871837
C0X170,關廟,2019-04-25,22.963017,120.327797,0.8766634
C0X180,山上,2019-04-25,23.0757,120.363253,0.96952546
C0X190,安平,2019-04-25,22.993161,120.152181,0.718515
C0X200,左鎮,2019-04-25,23.056758,120.408522,0.969554
C0X210,白河,2019-04-25,23.347466,120.414427,0.9596775
C0X220,學甲,2019-04-25,23.230367,120.182187,0.88329256
C0X230,鹽水,2019-04-25,23.272621,120.247641,0.9096256
C0X240,關子嶺,2019-04-25,23.331169,120.508025,0.26635343
C0X250,新營,2019-04-25,23.310689,120.316681,0.90800357
C0X260,後壁,2019-04-25,23.366358,120.362326,0.9673248
C0X280,將軍,2019-04-25,23.214999,120.13577,0.8655107
C0X290,北門,2019-04-25,23.267772,120.125481,0.8655107
C0X300,鹿寮,2019-04-25,23.386047,120.477331,0.9289159
C0X310,七股,2019-04-25,23.147289,120.086253,0.73358774
C0X320,柳營,2019-04-25,23.253328,120.375253,0.9554727
C0Z020,明里,2019-04-25,23.208717,121.262342,0.99395335
C0Z061,玉里,2019-04-25,23.3215,121.339656,0.9777282
C0Z070,舞鶴,2019-04-25,23.46811,121.37407,0.9946525
C0Z080,富源,2019-04-25,23.587642,121.378225,0.992111
C0Z100,東華,2019-04-25,23.89525,121.549833,0.849155
C0Z150,吉安光華,2019-04-25,23.930925,121.595153,0.80625826
C0Z160,鳳林,2019-04-25,23.746114,121.453411,0.95389867
C0Z170,卓溪,2019-04-25,23.3443,121.3029,0.9880019
C0Z180,新城,2019-04-25,24.03946,121.60454,0.9851897
C0Z190,富世,2019-04-25,24.14743,121.6297,0.99323535
C0Z200,萬榮,2019-04-25,23.709219,121.420106,0.971711
C0Z210,瑞穗,2019-04-25,23.5239,121.39021,0.9681129
C0Z230,和平,2019-04-25,24.30717,121.77007,0.95229685
C0Z270,蕃薯寮,2019-04-25,23.73835,121.540108,0.9761242
C0Z280,德武,2019-04-25,23.47426,121.41071,0.9899152
C0Z300,東里,2019-04-25,23.26853,121.30547,0.9837738
C0Z310,清水斷崖,2019-04-25,24.218294,121.689142,0.99168885
C0Z330,安通山,2019-04-25,23.290728,121.348528,0.9929418
