站號,站名,日期,lat,lon,BlastGRU-TW
466881,新北,2019-08-08,24.9593,121.52,0.050784886
466900,淡水,2019-08-08,25.164889,121.448906,0.08320318
466920,臺北,2019-08-08,25.037658,121.514853,0.04890745
467441,高雄,2019-08-08,22.7304,120.3125,0.5189962
467480,嘉義,2019-08-08,23.495925,120.432906,0.34420055
467490,臺中,2019-08-08,24.145736,120.684075,0.43235326
C0A540,四堵,2019-08-08,24.8926,121.745736,0.08050579
C0A550,泰平,2019-08-08,24.971197,121.823711,0.13094588
C0A560,福山,2019-08-08,24.776203,121.502811,0.079915
C0A931,三和,2019-08-08,25.233153,121.595236,0.08063233
C0A940,金山,2019-08-08,25.223628,121.643967,0.082752146
C0A950,鼻頭角,2019-08-08,25.129036,121.923372,0.06033922
C0AD10,八里,2019-08-08,25.150211,121.403947,0.08320318
C0AD30,蘆洲,2019-08-08,25.086594,121.472331,0.060724534
C0AD40,土城,2019-08-08,24.973208,121.445169,0.06198297
C0AI10,屈尺,2019-08-08,24.92184,121.54475,0.05405305
C0AI20,白沙灣,2019-08-08,25.283128,121.519058,0.07929778
C0AI30,三重,2019-08-08,25.057328,121.500629,0.060724534
C0B010,七堵,2019-08-08,25.094819,121.71713,0.07504925
C0B020,基隆嶼,2019-08-08,25.19141,121.78391,0.07199493
