站號,站名,日期,lat,lon,BlastGRU-TW
466881,新北,2019-10-31,24.9593,121.52,0.0996872
466900,淡水,2019-10-31,25.164889,121.448906,0.021905646
466920,臺北,2019-10-31,25.037658,121.514853,0.10576538
466940,基隆,2019-10-31,25.133314,121.740475,0.03519635
466990,花蓮,2019-10-31,23.975128,121.613275,0.27903348
467050,新屋,2019-10-31,25.006744,121.047486,0.013044914
467080,宜蘭,2019-10-31,24.763975,121.756528,0.63261944
467270,田中,2019-10-31,23.873803,120.581286,0.16581528
467300,東吉島,2019-10-31,23.25695,119.667467,0.633156
467350,澎湖,2019-10-31,23.565503,119.563094,0.23088652
467410,臺南,2019-10-31,22.993239,120.204772,0.33956486
467420,永康,2019-10-31,23.038386,120.2367,0.3507892
467441,高雄,2019-10-31,22.7304,120.3125,0.54571784
467480,嘉義,2019-10-31,23.495925,120.432906,0.72693086
467490,臺中,2019-10-31,24.145736,120.684075,0.6660681
467540,大武,2019-10-31,22.355675,120.903789,0.060917016
467571,新竹,2019-10-31,24.827853,121.014219,0.0072775
467590,恆春,2019-10-31,22.003897,120.746339,0.012846908
467610,成功,2019-10-31,23.097486,121.373428,0.35248598
467620,蘭嶼,2019-10-31,22.036969,121.558339,0.0068413503
467660,臺東,2019-10-31,22.752211,121.154586,0.43272185
467790,墾丁雷達站,2019-10-31,21.948235,120.808028,0.013258808
C0A520,山佳,2019-10-31,24.974944,121.402008,0.047230583
C0A530,坪林,2019-10-31,24.938183,121.70975,0.5340953
C0A540,四堵,2019-10-31,24.8926,121.745736,0.053708617
C0A550,泰平,2019-10-31,24.971197,121.823711,0.17570926
C0A560,福山,2019-10-31,24.776203,121.502811,0.38844416
C0A570,桶後,2019-10-31,24.848222,121.597992,0.12986888
C0A640,石碇,2019-10-31,24.993969,121.662917,0.29156986
C0A650,火燒寮,2019-10-31,25.002719,121.742892,0.23139358
C0A660,瑞芳,2019-10-31,25.113169,121.801147,0.40762883
C0A770,科教館,2019-10-31,25.096356,121.516507,0.053413153
C0A860,大坪,2019-10-31,25.165914,121.632969,0.024127234
C0A880,福隆,2019-10-31,25.017842,121.942083,0.48642024
C0A890,雙溪,2019-10-31,25.036003,121.864242,0.028068805
C0A920,富貴角,2019-10-31,25.263783,121.565258,0.009204002
C0A931,三和,2019-10-31,25.233153,121.595236,0.18928522
C0A940,金山,2019-10-31,25.223628,121.643967,0.010481374
C0A950,鼻頭角,2019-10-31,25.129036,121.923372,0.4917801
C0A970,三貂角,2019-10-31,25.007606,122.002058,0.44053128
C0A980,社子,2019-10-31,25.109508,121.469681,0.055433895
C0A9C0,天母,2019-10-31,25.117494,121.537169,0.049291197
C0A9F0,內湖,2019-10-31,25.079422,121.57545,0.10576534
C0AC60,三峽,2019-10-31,24.939025,121.369728,0.096844405
C0AC70,信義,2019-10-31,25.037822,121.564597,0.10576534
C0AC80,文山,2019-10-31,25.00235,121.575728,0.09100254
C0ACA0,新莊,2019-10-31,25.051478,121.446756,0.027331693
C0AD00,三芝,2019-10-31,25.258131,121.501917,0.007976493
C0AD10,八里,2019-10-31,25.150211,121.403947,0.021905646
C0AD30,蘆洲,2019-10-31,25.086594,121.472331,0.053413153
C0AD40,土城,2019-10-31,24.973208,121.445169,0.051235307
C0AD50,鶯歌,2019-10-31,24.951533,121.346294,0.02227437
C0AG80,中和,2019-10-31,24.991622,121.491792,0.10576534
C0AH00,汐止,2019-10-31,25.066881,121.658778,0.033706453
C0AH10,永和,2019-10-31,25.01125,121.508111,0.1089181
C0AH40,平等,2019-10-31,25.129142,121.577086,0.03590436
C0AH50,林口,2019-10-31,25.072181,121.38084,0.046884503
C0AH70,松山,2019-10-31,25.04871,121.55042,0.10576534
C0AH80,深坑,2019-10-31,25.002703,121.628328,0.09100254
C0AI00,五股,2019-10-31,25.07445,121.42728,0.0022808677
C0AI10,屈尺,2019-10-31,24.92184,121.54475,0.09100254
C0AI20,白沙灣,2019-10-31,25.283128,121.519058,0.0117538525
C0AI30,三重,2019-10-31,25.057328,121.500629,0.053413153
C0AI40,石牌,2019-10-31,25.115597,121.513139,0.051235307
C0AJ20,野柳,2019-10-31,25.20703,121.690021,0.033706453
C0AJ30,淡水觀海,2019-10-31,25.184591,121.408616,0.023066277
C0AJ40,石門,2019-10-31,25.273672,121.601198,0.0040764613
C0AJ50,水湳洞,2019-10-31,25.123695,121.862238,0.033706453
C0AJ60,六塊厝,2019-10-31,25.24,121.4481,0.023066277
C0AJ70,田寮,2019-10-31,25.2698,121.4886,0.012533296
C0AJ80,板橋,2019-10-31,25.0107,121.4489,0.051235307
C0AJ90,澳底,2019-10-31,25.0552,121.9253,0.48642024
C0B010,七堵,2019-10-31,25.094819,121.71713,0.030818732
C0B020,基隆嶼,2019-10-31,25.19141,121.78391,0.033706453
C0B040,大武崙,2019-10-31,25.166676,121.706993,0.030818732
C0B050,八斗子,2019-10-31,25.144754,121.79167,0.03654823
C0B060,暖暖,2019-10-31,25.0957,121.7403,0.023493843
C0C460,復興,2019-10-31,24.820208,121.352281,0.14116392
C0C480,桃園,2019-10-31,24.992425,121.323172,0.0042184056
C0C490,八德,2019-10-31,24.928708,121.283289,0.013974686
C0C590,觀音,2019-10-31,25.027072,121.153317,0.01697493
C0C620,蘆竹,2019-10-31,25.084275,121.265767,0.019718995
C0C630,大溪,2019-10-31,24.882853,121.265547,0.010511559
C0C650,平鎮,2019-10-31,24.897503,121.214636,0.0034775236
C0C660,楊梅,2019-10-31,24.912375,121.143047,0.003292898
C0C670,龍潭,2019-10-31,24.870056,121.221389,0.003667395
C0C680,龜山,2019-10-31,25.02846,121.38656,0.06685728
C0C700,中壢,2019-10-31,24.977661,121.256375,0.0035668807
C0C710,大溪永福,2019-10-31,24.892936,121.324975,0.0027145839
C0C720,竹圍,2019-10-31,25.112692,121.239824,0.021905646
C0C730,中大臨海站,2019-10-31,24.966126,121.008581,0.013939361
C0C740,觀音工業區,2019-10-31,25.064764,121.114856,0.0067631686
C0C750,新興坑尾,2019-10-31,25.0061,121.0971,0.0044598696
C0D430,峨眉,2019-10-31,24.6905,121.017189,0.007704001
C0D480,打鐵坑,2019-10-31,24.849664,121.150789,0.015526787
C0D540,橫山,2019-10-31,24.71116,121.11693,0.0034373049
C0D560,竹東,2019-10-31,24.767147,121.057881,0.0058158115
C0D580,寶山,2019-10-31,24.735006,121.025192,0.007519551
C0D590,新豐,2019-10-31,24.87068,120.97721,0.015240283
C0D650,湖口,2019-10-31,24.904794,121.043628,0.011244832
C0D660,新竹市東區,2019-10-31,24.798681,120.986942,0.0064765387
C0D670,海天一線,2019-10-31,24.831986,120.914438,0.009925166
C0D680,香山濕地,2019-10-31,24.783581,120.914988,0.009486729
C0D690,外湖,2019-10-31,24.917735,120.968711,0.013939361
C0D700,關西,2019-10-31,24.7977,121.1732,0.0053449413
C0E420,竹南,2019-10-31,24.708978,120.888897,0.007983091
C0E430,南庄,2019-10-31,24.601775,121.000214,0.006638568
C0E520,大湖,2019-10-31,24.41494,120.87087,0.009005441
C0E540,後龍,2019-10-31,24.606489,120.783933,0.16338657
C0E550,明德,2019-10-31,24.583486,120.885411,0.033803497
C0E590,通霄,2019-10-31,24.471892,120.704622,0.16569139
C0E730,頭份,2019-10-31,24.688247,120.912206,0.007983091
C0E740,造橋,2019-10-31,24.637056,120.864778,0.044699125
C0E750,苗栗,2019-10-31,24.564569,120.824575,0.111384526
C0E780,銅鑼,2019-10-31,24.489681,120.790853,0.044555746
C0E791,卓蘭,2019-10-31,24.3126,120.8244,0.09982608
C0E810,西湖,2019-10-31,24.562947,120.7485,0.13082163
C0E820,獅潭,2019-10-31,24.539133,120.920042,0.040123038
C0E830,苑裡,2019-10-31,24.439714,120.653053,0.3984808
C0E850,大河,2019-10-31,24.618069,120.948578,0.029809438
C0E870,高鐵苗栗,2019-10-31,24.60725,120.826094,0.15186094
C0E910,海埔,2019-10-31,24.648767,120.772435,0.057332244
C0E920,通霄漁港,2019-10-31,24.498589,120.673876,0.23410518
C0E930,龍鳳,2019-10-31,24.700034,120.859125,0.05538693
C0F0B0,石岡,2019-10-31,24.276061,120.777644,0.03701247
C0F850,東勢,2019-10-31,24.246428,120.833047,0.11893339
C0F930,大甲,2019-10-31,24.347667,120.640403,0.43831596
C0F970,大坑,2019-10-31,24.173142,120.722289,0.57042575
C0F9A0,中竹林,2019-10-31,24.103556,120.751061,0.053670112
C0F9I0,神岡,2019-10-31,24.272481,120.658314,0.13817354
C0F9K0,大安,2019-10-31,24.345061,120.588025,0.47196457
C0F9L0,后里,2019-10-31,24.310436,120.729725,0.118835114
C0F9M0,豐原,2019-10-31,24.254322,120.720692,0.12910295
C0F9N0,大里,2019-10-31,24.092464,120.701378,0.45108804
C0F9O0,潭子,2019-10-31,24.213106,120.703933,0.19338813
C0F9P0,清水,2019-10-31,24.312297,120.562242,0.4756218
C0F9Q0,外埔,2019-10-31,24.347817,120.705686,0.14744158
C0F9R0,龍井,2019-10-31,24.184536,120.528972,0.41318992
C0F9S0,烏日,2019-10-31,24.107058,120.624103,0.24047732
C0F9T0,西屯,2019-10-31,24.179494,120.641275,0.41305745
C0F9U0,南屯,2019-10-31,24.137006,120.637969,0.4510882
C0F9X0,大雅(中科園區),2019-10-31,24.21528,120.62445,0.34296772
C0FA10,松柏,2019-10-31,24.429115,120.617482,0.42034692
C0FA20,溫寮,2019-10-31,24.372177,120.583125,0.42034692
C0FA30,梧棲,2019-10-31,24.256003,120.523381,0.41318992
C0FA40,臺中電廠,2019-10-31,24.2146,120.4907,0.41318992
C0FA50,霧峰,2019-10-31,24.0419,120.6995,0.57860994
C0G620,芬園,2019-10-31,24.015678,120.6213,0.328577
C0G640,鹿港,2019-10-31,24.0753,120.430481,0.20843019
C0G650,員林,2019-10-31,23.946503,120.585597,0.41689616
C0G660,溪湖,2019-10-31,23.94835,120.479122,0.26392102
C0G720,溪州,2019-10-31,23.851589,120.499093,0.11393206
C0G730,二林,2019-10-31,23.903325,120.376081,0.2688121
C0G740,大城,2019-10-31,23.852487,120.320935,0.29011562
C0G770,福興,2019-10-31,24.041289,120.437669,0.20843019
C0G780,秀水,2019-10-31,24.03405,120.503869,0.21199413
C0G800,埔鹽,2019-10-31,24.000394,120.431683,0.20843019
C0G810,埔心,2019-10-31,23.947633,120.525456,0.26333088
C0G820,田尾,2019-10-31,23.901669,120.509389,0.2610288
C0G830,埤頭,2019-10-31,23.866003,120.452806,0.12174483
C0G840,北斗,2019-10-31,23.877586,120.514222,0.2610288
C0G860,社頭,2019-10-31,23.897647,120.5862,0.41590774
C0G870,芳苑,2019-10-31,23.922303,120.320025,0.2893299
C0G880,二水,2019-10-31,23.810742,120.6173,0.10343392
C0G890,伸港,2019-10-31,24.148933,120.484403,0.4118158
C0G900,線西,2019-10-31,24.143358,120.443536,0.4075391
C0G910,花壇,2019-10-31,24.032076,120.549461,0.20853627
C0G920,永靖,2019-10-31,23.924703,120.547533,0.2610288
C0G940,竹塘,2019-10-31,23.848253,120.386764,0.15480593
C0G950,防潮門,2019-10-31,24.1835,120.4871,0.4143264
C0G960,福寶,2019-10-31,24.0443,120.3814,0.20840257
C0G970,三豐,2019-10-31,23.882,120.2895,0.2893298
C0H890,埔里,2019-10-31,23.972169,120.952425,0.30378798
C0H950,中寮,2019-10-31,23.884447,120.766406,0.06790788
C0H960,草屯,2019-10-31,23.973672,120.68085,0.1262676
C0I110,竹山,2019-10-31,23.761225,120.688156,0.07651811
C0I360,水里,2019-10-31,23.812553,120.849792,0.048091356
C0I380,集集,2019-10-31,23.828206,120.801467,0.0503146
C0I410,名間,2019-10-31,23.837053,120.701447,0.099386565
C0I420,國姓,2019-10-31,24.037803,120.855072,0.04924739
C0I460,南投,2019-10-31,23.911469,120.687331,0.08875469
C0K250,崙背,2019-10-31,23.75555,120.318925,0.3858808
C0K280,四湖,2019-10-31,23.630414,120.227125,0.4256524
C0K291,宜梧,2019-10-31,23.536281,120.169329,0.26844063
C0K330,虎尾,2019-10-31,23.719183,120.442036,0.20073561
C0K390,土庫,2019-10-31,23.679029,120.395574,0.20559947
C0K400,斗六,2019-10-31,23.720583,120.541127,0.16064763
C0K410,北港,2019-10-31,23.573957,120.292802,0.2959313
C0K420,西螺,2019-10-31,23.800407,120.467394,0.1327237
C0K430,褒忠,2019-10-31,23.690938,120.303634,0.47676787
C0K440,二崙,2019-10-31,23.772797,120.408944,0.15042369
C0K450,大埤,2019-10-31,23.646074,120.431537,0.21400276
C0K460,斗南,2019-10-31,23.678734,120.478359,0.16623408
C0K470,林內,2019-10-31,23.748675,120.609642,0.17809016
C0K480,莿桐,2019-10-31,23.761192,120.502372,0.12890285
C0K500,元長,2019-10-31,23.64981,120.315024,0.5781189
C0K510,水林,2019-10-31,23.572924,120.24597,0.20999359
C0K530,臺西,2019-10-31,23.701547,120.197559,0.3629664
C0K550,蔦松,2019-10-31,23.514319,120.229736,0.26423547
C0K560,棋山,2019-10-31,23.68645,120.603417,0.14870201
C0K580,高鐵雲林,2019-10-31,23.737456,120.417944,0.20559947
C0K590,雲林東勢,2019-10-31,23.674192,120.255721,0.47676787
C0K600,箔子寮,2019-10-31,23.6197,120.14,0.21532872
C0M410,馬頭山,2019-10-31,23.324361,120.582017,0.09852327
C0M520,東後寮,2019-10-31,23.369908,120.248065,0.26567668
C0M640,中埔,2019-10-31,23.42538,120.5229,0.23474227
C0M650,朴子,2019-10-31,23.43463,120.23902,0.31276837
C0M660,溪口,2019-10-31,23.604131,120.403569,0.6413511
C0M670,大林,2019-10-31,23.600616,120.45841,0.65169173
C0M680,太保,2019-10-31,23.455062,120.331455,0.43333906
C0M690,水上,2019-10-31,23.419734,120.388909,0.7311996
C0M700,竹崎,2019-10-31,23.526178,120.555508,0.19698334
C0M710,東石,2019-10-31,23.458927,120.15385,0.26423547
C0M720,番路,2019-10-31,23.464657,120.554156,0.22227848
C0M730,嘉義市東區,2019-10-31,23.457673,120.460531,0.7086799
C0M740,六腳,2019-10-31,23.492871,120.290625,0.44062018
C0M750,布袋,2019-10-31,23.380878,120.167789,0.31276837
C0M760,民雄,2019-10-31,23.551754,120.428457,0.6397862
C0M770,嘉義梅山,2019-10-31,23.585398,120.555587,0.14195614
C0M780,鹿草,2019-10-31,23.41134,120.30835,0.4284761
C0M790,新港,2019-10-31,23.553269,120.345728,0.2889351
C0M800,茶山,2019-10-31,23.299075,120.664767,0.22921202
C0M880,好美里,2019-10-31,23.3364,120.138,0.25828922
C0N010,鯤鯓國小,2019-10-31,23.1879,120.0889,0.27794808
C0N020,城西,2019-10-31,23.0568,120.0956,0.25065747
C0N030,四草,2019-10-31,23.0235,120.1116,0.6558515
C0N040,蘆竹溝,2019-10-31,23.2344,120.0961,0.27794817
C0N050,蚵寮,2019-10-31,23.301,120.1104,0.27794808
C0O810,曾文,2019-10-31,23.219681,120.497328,0.45209634
C0O830,北寮,2019-10-31,23.079561,120.495008,0.15433115
C0O840,王爺宮,2019-10-31,23.222064,120.40085,0.45209634
C0O860,大內,2019-10-31,23.11885,120.36083,0.24407192
C0O900,善化,2019-10-31,23.112883,120.297219,0.36161646
C0O930,玉井,2019-10-31,23.126042,120.46055,0.4947103
C0O950,安南,2019-10-31,23.076694,120.144861,0.22448075
C0O960,崎頂,2019-10-31,22.959547,120.369317,0.20844959
C0O970,虎頭埤,2019-10-31,23.021375,120.347878,0.4875154
C0O980,新市,2019-10-31,23.061614,120.298197,0.36161646
C0O990,媽廟,2019-10-31,22.99175,120.293525,0.47704166
C0R150,三地門,2019-10-31,22.709889,120.639944,0.2438042
C0R160,鹽埔,2019-10-31,22.739558,120.530778,0.19824329
C0R170,屏東,2019-10-31,22.660269,120.494072,0.315395
C0R190,赤山,2019-10-31,22.592333,120.614306,0.23419356
C0R220,潮州,2019-10-31,22.534361,120.54,0.24518313
C0R240,來義,2019-10-31,22.527306,120.625111,0.27034864
C0R260,春日,2019-10-31,22.370361,120.628306,0.28298336
C0R270,琉球嶼,2019-10-31,22.332244,120.362236,0.28062803
C0R280,檳榔,2019-10-31,22.076078,120.836777,0.009959554
C0R320,車城,2019-10-31,22.0744,120.716247,0.012422076
C0R341,牡丹,2019-10-31,22.130036,120.792639,0.24260482
C0R350,貓鼻頭,2019-10-31,21.921774,120.7358,0.013014769
C0R470,高樹,2019-10-31,22.826389,120.600806,0.2586911
C0R480,長治,2019-10-31,22.693128,120.542622,0.1916252
C0R490,九如,2019-10-31,22.7405,120.490503,0.30741858
C0R520,崁頂,2019-10-31,22.514781,120.506914,0.34126976
C0R540,佳冬,2019-10-31,22.419456,120.552375,0.3500929
C0R550,新埤,2019-10-31,22.467947,120.582894,0.2425732
C0R560,新園,2019-10-31,22.5434,120.461558,0.34126976
C0R570,麟洛,2019-10-31,22.65078,120.52719,0.30741835
C0R580,南州,2019-10-31,22.48591,120.50274,0.3500929
C0R590,里港,2019-10-31,22.77919,120.49459,0.18044421
C0R620,墾雷,2019-10-31,21.900836,120.855269,0.013014751
C0R640,東港,2019-10-31,22.46247,120.44074,0.44414237
C0R650,竹田,2019-10-31,22.58486,120.54344,0.25165027
C0R660,枋寮,2019-10-31,22.367722,120.590647,0.25998646
C0R670,楓港,2019-10-31,22.190131,120.692156,0.29272774
C0R680,佳樂水,2019-10-31,21.993578,120.861633,0.01273931
C0R690,墾丁,2019-10-31,21.966756,120.810269,0.008968248
C0R700,枋山,2019-10-31,22.246844,120.661086,0.29272774
C0R710,龍磐,2019-10-31,21.931672,120.838942,0.012946033
C0R720,旭海,2019-10-31,22.205403,120.887614,0.025362292
C0R730,大坪頂,2019-10-31,22.024633,120.69355,0.0136649115
C0R740,獅子,2019-10-31,22.201569,120.70525,0.28475687
C0R760,南仁湖,2019-10-31,22.084681,120.863353,0.0072222194
C0R770,保力,2019-10-31,22.071122,120.764111,0.013244597
C0R780,滿州,2019-10-31,22.024403,120.839892,0.0130867325
C0R790,九棚,2019-10-31,22.14195,120.889281,0.027562752
C0R800,丹路,2019-10-31,22.204481,120.750989,0.26172253
C0R810,內獅,2019-10-31,22.305064,120.642986,0.30012608
C0R830,高士,2019-10-31,22.121825,120.836781,0.0042780195
C0R850,林邊,2019-10-31,22.4634,120.5339,0.34126976
C0R860,鼻頭,2019-10-31,22.1043,120.8979,0.02591812
C0R870,興海,2019-10-31,21.9752,120.8439,0.01273931
C0R880,後壁湖,2019-10-31,21.9457,120.7457,0.012225321
C0R890,山海,2019-10-31,21.9878,120.7091,0.012422076
C0R900,竹坑,2019-10-31,22.1385,120.7022,0.30547574
C0R910,下寮,2019-10-31,22.3929,120.5548,0.3500929
C0R920,塭仔,2019-10-31,22.4169,120.5197,0.3613046
C0R930,萬丹,2019-10-31,22.5885,120.4851,0.25165027
C0R940,加祿堂,2019-10-31,22.3363,120.6217,0.30012608
C0S710,鹿野,2019-10-31,22.917711,121.122994,0.76683545
C0S730,綠島,2019-10-31,22.6672,121.47533,0.37414557
C0S740,池上,2019-10-31,23.119628,121.209469,0.7396798
C0S770,大溪山,2019-10-31,22.478475,120.943325,0.25183806
C0S790,金崙,2019-10-31,22.538122,120.966875,0.3537778
C0S810,東河,2019-10-31,22.972672,121.303986,0.6022163
C0S830,長濱,2019-10-31,23.286817,121.411975,0.6139013
C0S840,南田,2019-10-31,22.279725,120.889208,0.04957554
C0S890,關山,2019-10-31,23.0395,121.175017,0.32493055
C0S900,蘭嶼高中,2019-10-31,22.04909,121.51214,0.22544917
C0S910,蘭嶼燈塔,2019-10-31,22.081197,121.503117,0.14082006
C0S920,金峰嘉蘭,2019-10-31,22.594789,120.960825,0.44365066
C0S930,延平,2019-10-31,22.902581,121.084058,0.4838114
C0S940,石寧山,2019-10-31,23.223772,121.406639,0.40823138
C0S950,七塊厝,2019-10-31,22.954453,121.229922,0.7641026
C0S960,香蘭,2019-10-31,22.587569,120.993375,0.42241088
C0S970,加津林,2019-10-31,22.416211,120.926942,0.060413674
C0S990,山豬窟,2019-10-31,22.318619,120.857372,0.016877528
C0SA00,歷坵,2019-10-31,22.520969,120.89185,0.23077571
C0SA10,檳榔四格山,2019-10-31,22.810031,121.109308,0.21459164
C0SA30,都歷,2019-10-31,23.020333,121.323642,0.37275353
C0SA40,瑞和,2019-10-31,22.974361,121.156697,0.33979362
C0SA60,知本（水試所）,2019-10-31,22.702394,121.082761,0.44621745
C0SA80,土坂,2019-10-31,22.453108,120.887572,0.4188849
C0SA90,達仁林場,2019-10-31,22.264347,120.823972,0.046060283
C0T870,鯉魚潭,2019-10-31,23.935639,121.508944,0.17251721
C0T900,西林,2019-10-31,23.8119,121.441458,0.14782284
C0T960,光復,2019-10-31,23.660694,121.424964,0.25250942
C0T9A0,月眉山,2019-10-31,23.809928,121.539828,0.11372141
C0T9D0,和中,2019-10-31,24.26676,121.74103,0.31249565
C0T9E0,大坑,2019-10-31,23.880628,121.581981,0.12025701
C0T9F0,水璉,2019-10-31,23.797131,121.542514,0.11965128
C0T9I0,豐濱,2019-10-31,23.583897,121.514806,0.20193745
C0T9M0,靜浦,2019-10-31,23.455167,121.495028,0.3012364
C0T9N0,富里,2019-10-31,23.171639,121.249378,0.5494452
C0U600,礁溪,2019-10-31,24.817539,121.765608,0.62924397
C0U650,玉蘭,2019-10-31,24.675286,121.587061,0.37349483
C0U750,龜山島,2019-10-31,24.841667,121.953133,0.43642297
C0U760,東澳,2019-10-31,24.52196,121.83318,0.5208552
C0U770,南澳,2019-10-31,24.44935,121.81022,0.5635786
C0U780,五結,2019-10-31,24.68637,121.79794,0.49622798
C0U860,頭城,2019-10-31,24.85323,121.8308,0.63261944
C0U870,大礁溪,2019-10-31,24.791042,121.675047,0.28996158
C0U880,北關,2019-10-31,24.9072,121.8734,0.16677131
C0U890,三星,2019-10-31,24.66812,121.65302,0.58299834
C0U900,內城,2019-10-31,24.71813,121.68766,0.6198101
C0U910,冬山,2019-10-31,24.63373,121.7937,0.49622798
C0U940,羅東,2019-10-31,24.68184,121.74934,0.49787933
C0U970,大福,2019-10-31,24.80064,121.81389,0.63435966
C0U990,員山,2019-10-31,24.74435,121.72247,0.49787933
C0UA00,土場,2019-10-31,24.576533,121.495333,0.47694808
C0UA80,大溪漁港,2019-10-31,24.941801,121.902955,0.6292439
C0UA90,石城,2019-10-31,24.980444,121.951214,0.512428
C0UB00,淡江大學蘭陽校園,2019-10-31,24.823239,121.730383,0.36372182
C0UB10,蘇澳,2019-10-31,24.5969,121.8571,0.6698031
C0UB20,壯圍,2019-10-31,24.7359,121.8163,0.49452463
C0V250,甲仙,2019-10-31,23.080106,120.591758,0.12606628
C0V260,月眉,2019-10-31,22.971003,120.539853,0.16233623
C0V310,美濃,2019-10-31,22.898742,120.519153,0.42726678
C0V350,溪埔,2019-10-31,22.738578,120.446797,0.3899621
C0V360,內門,2019-10-31,22.975481,120.466769,0.32973933
C0V370,古亭坑,2019-10-31,22.893178,120.401947,0.4657547
C0V400,阿公店,2019-10-31,22.804194,120.355528,0.36304748
C0V440,鳳山,2019-10-31,22.646653,120.356122,0.40884212
C0V450,鳳森,2019-10-31,22.545064,120.392592,0.25704077
C0V490,新興,2019-10-31,22.627422,120.298803,0.43223503
C0V530,阿蓮,2019-10-31,22.883208,120.327508,0.617679
C0V610,梓官,2019-10-31,22.760558,120.267211,0.59038633
C0V620,永安,2019-10-31,22.82315,120.236856,0.53017193
C0V630,茄萣,2019-10-31,22.906642,120.182608,0.5796442
C0V640,湖內,2019-10-31,22.887139,120.2445,0.5678874
C0V650,彌陀,2019-10-31,22.783806,120.246361,0.53017193
C0V660,岡山,2019-10-31,22.797078,120.294958,0.5903865
C0V680,仁武,2019-10-31,22.701083,120.347722,0.53355837
C0V690,鼓山,2019-10-31,22.623325,120.275575,0.43223503
C0V700,三民,2019-10-31,22.645017,120.311233,0.43223503
C0V710,苓雅,2019-10-31,22.622742,120.330669,0.43223503
C0V720,林園,2019-10-31,22.507747,120.394511,0.43223503
C0V730,大寮,2019-10-31,22.605614,120.395717,0.30682823
C0V740,旗山,2019-10-31,22.888614,120.483597,0.4231349
C0V750,路竹,2019-10-31,22.854997,120.259439,0.6017827
C0V760,橋頭,2019-10-31,22.757806,120.30575,0.5771068
C0V770,大社,2019-10-31,22.730306,120.346639,0.53355837
C0V790,萬山,2019-10-31,22.905944,120.688056,0.24578162
C0V800,六龜,2019-10-31,22.997889,120.633583,0.17615385
C0V810,左營,2019-10-31,22.67491,120.28491,0.54571784
C0V820,小林,2019-10-31,23.148408,120.63325,0.21794555
C0V840,鳳鼻頭,2019-10-31,22.5083,120.3591,0.44414237
C0V850,蚵仔寮,2019-10-31,22.7256,120.2527,0.5568434
C0V860,南寮,2019-10-31,22.7616,120.2339,0.5398301
C0V870,文安,2019-10-31,22.8025,120.2164,0.5398301
C0V880,興達,2019-10-31,22.8778,120.2127,0.5796442
C0V890,前鎮,2019-10-31,22.5718,120.3117,0.44414237
C0V900,汕尾,2019-10-31,22.4782,120.4151,0.37517777
C0X050,東河,2019-10-31,23.296598,120.385608,0.44824505
C0X060,下營,2019-10-31,23.22695,120.256261,0.33414015
C0X080,佳里,2019-10-31,23.173039,120.145086,0.2582891
C0X100,臺南市北區,2019-10-31,23.010394,120.194228,0.35778838
C0X110,臺南市南區,2019-10-31,22.961189,120.188378,0.3507892
C0X120,麻豆,2019-10-31,23.183289,120.248611,0.2520244
C0X130,官田,2019-10-31,23.193217,120.315422,0.3172199
C0X140,西港,2019-10-31,23.125608,120.203108,0.29002684
C0X150,安定,2019-10-31,23.102614,120.227839,0.25580326
C0X160,仁德,2019-10-31,22.968258,120.257689,0.48949194
C0X170,關廟,2019-10-31,22.963017,120.327797,0.43987054
C0X180,山上,2019-10-31,23.0757,120.363253,0.30619603
C0X190,安平,2019-10-31,22.993161,120.152181,0.35778838
C0X200,左鎮,2019-10-31,23.056758,120.408522,0.30786818
C0X210,白河,2019-10-31,23.347466,120.414427,0.44421053
C0X220,學甲,2019-10-31,23.230367,120.182187,0.25202444
C0X230,鹽水,2019-10-31,23.272621,120.247641,0.23761794
C0X240,關子嶺,2019-10-31,23.331169,120.508025,0.12822764
C0X250,新營,2019-10-31,23.310689,120.316681,0.35136068
C0X260,後壁,2019-10-31,23.366358,120.362326,0.2799371
C0X280,將軍,2019-10-31,23.214999,120.13577,0.25828922
C0X290,北門,2019-10-31,23.267772,120.125481,0.25828922
C0X300,鹿寮,2019-10-31,23.386047,120.477331,0.2865189
C0X310,七股,2019-10-31,23.147289,120.086253,0.26241046
C0X320,柳營,2019-10-31,23.253328,120.375253,0.44824505
C0Z020,明里,2019-10-31,23.208717,121.262342,0.6081346
C0Z061,玉里,2019-10-31,23.3215,121.339656,0.35621524
C0Z070,舞鶴,2019-10-31,23.46811,121.37407,0.08950096
C0Z080,富源,2019-10-31,23.587642,121.378225,0.11697846
C0Z100,東華,2019-10-31,23.89525,121.549833,0.43837643
C0Z150,吉安光華,2019-10-31,23.930925,121.595153,0.5004002
C0Z160,鳳林,2019-10-31,23.746114,121.453411,0.2904177
C0Z170,卓溪,2019-10-31,23.3443,121.3029,0.43325466
C0Z180,新城,2019-10-31,24.03946,121.60454,0.2342101
C0Z190,富世,2019-10-31,24.14743,121.6297,0.57239413
C0Z200,萬榮,2019-10-31,23.709219,121.420106,0.17251721
C0Z210,瑞穗,2019-10-31,23.5239,121.39021,0.24027169
C0Z230,和平,2019-10-31,24.30717,121.77007,0.3133769
C0Z270,蕃薯寮,2019-10-31,23.73835,121.540108,0.17675173
C0Z280,德武,2019-10-31,23.47426,121.41071,0.10937874
C0Z300,東里,2019-10-31,23.26853,121.30547,0.3912077
C0Z310,清水斷崖,2019-10-31,24.218294,121.689142,0.28914252
C0Z330,安通山,2019-10-31,23.290728,121.348528,0.72918546
