站號,站名,日期,lat,lon,BlastGRU-TW
466881,新北,2019-04-10,24.9593,121.52,0.22871989
466900,淡水,2019-04-10,25.1649,121.4489,0.08401263
466920,臺北,2019-04-10,25.0377,121.5149,0.24151029
466940,基隆,2019-04-10,25.1333,121.7405,0.12134415
466990,花蓮,2019-04-10,23.9751,121.6133,0.9960357
467050,新屋,2019-04-10,25.0067,121.0475,0.2480161
467080,宜蘭,2019-04-10,24.764,121.7565,0.3563217
467270,田中,2019-04-10,23.8738,120.5813,0.51418936
467300,東吉島,2019-04-10,23.2569,119.6675,0.5761353
467350,澎湖,2019-04-10,23.5655,119.5631,0.43948805
467410,臺南,2019-04-10,22.9932,120.2048,0.5098202
467420,永康,2019-04-10,23.0384,120.2367,0.5154432
467441,高雄,2019-04-10,22.7304,120.3125,0.5427882
467480,嘉義,2019-04-10,23.4959,120.4329,0.5415613
467490,臺中,2019-04-10,24.1457,120.6841,0.8294966
467540,大武,2019-04-10,22.3557,120.9038,0.3601781
467571,新竹,2019-04-10,24.8279,121.0142,0.2218792
467590,恆春,2019-04-10,22.0039,120.7463,0.11681821
467610,成功,2019-04-10,23.0975,121.3734,0.7728625
467620,蘭嶼,2019-04-10,22.037,121.5583,0.110778585
467660,臺東,2019-04-10,22.7522,121.1546,0.5995685
467790,墾丁雷達站,2019-04-10,21.9482,120.808,0.105475664
C0A520,山佳,2019-04-10,24.9749,121.402,0.15997565
C0A530,坪林,2019-04-10,24.9382,121.7097,0.17496905
C0A540,四堵,2019-04-10,24.8926,121.7457,0.06793501
C0A550,泰平,2019-04-10,24.9712,121.8237,0.010473529
C0A560,福山,2019-04-10,24.7762,121.5028,0.039646853
C0A570,桶後,2019-04-10,24.8482,121.598,0.11497512
C0A640,石碇,2019-04-10,24.994,121.6629,0.076612644
C0A650,火燒寮,2019-04-10,25.0027,121.7429,0.04843861
C0A660,瑞芳,2019-04-10,25.1132,121.8011,0.13599028
C0A770,科教館,2019-04-10,25.0964,121.5165,0.17085272
C0A860,大坪,2019-04-10,25.1659,121.633,0.016467195
C0A880,福隆,2019-04-10,25.0178,121.9421,0.19890496
C0A890,雙溪,2019-04-10,25.036,121.8642,0.09455844
C0A920,富貴角,2019-04-10,25.2638,121.5653,0.05390396
C0A931,三和,2019-04-10,25.2332,121.5952,0.05059256
C0A940,金山,2019-04-10,25.2236,121.644,0.043588802
C0A950,鼻頭角,2019-04-10,25.129,121.9234,0.20498256
C0A970,三貂角,2019-04-10,25.0076,122.0021,0.16092864
C0A980,社子,2019-04-10,25.1095,121.4697,0.17457937
C0A9C0,天母,2019-04-10,25.1175,121.5372,0.1635525
C0A9F0,內湖,2019-04-10,25.0794,121.5755,0.24151038
C0AC60,三峽,2019-04-10,24.939,121.3697,0.2219692
C0AC70,信義,2019-04-10,25.0378,121.5646,0.24151029
C0AC80,文山,2019-04-10,25.0023,121.5757,0.21058717
C0ACA0,新莊,2019-04-10,25.0515,121.4468,0.107942395
C0AD00,三芝,2019-04-10,25.2581,121.5019,0.038128305
C0AD10,八里,2019-04-10,25.1502,121.4039,0.085061684
C0AD30,蘆洲,2019-04-10,25.0866,121.4723,0.17085272
C0AD40,土城,2019-04-10,24.9732,121.4452,0.16666095
C0AD50,鶯歌,2019-04-10,24.9515,121.3463,0.10333999
C0AG80,中和,2019-04-10,24.9916,121.4918,0.24151029
C0AH00,汐止,2019-04-10,25.0669,121.6588,0.11581872
C0AH10,永和,2019-04-10,25.0113,121.5081,0.24750815
C0AH40,平等,2019-04-10,25.1291,121.5771,0.040177476
C0AH50,林口,2019-04-10,25.0722,121.3808,0.069858834
C0AH70,松山,2019-04-10,25.0487,121.5504,0.24151029
C0AH80,深坑,2019-04-10,25.0027,121.6283,0.2169436
C0AI00,五股,2019-04-10,25.0744,121.4273,0.03938744
C0AI10,屈尺,2019-04-10,24.9218,121.5447,0.21058716
C0AI20,白沙灣,2019-04-10,25.2831,121.5191,0.04675529
C0AI30,三重,2019-04-10,25.0573,121.5006,0.17085272
C0AI40,石牌,2019-04-10,25.1156,121.5131,0.16666095
C0AJ10,澳底,2019-04-10,25.0571,121.9273,0.21100838
C0AJ20,野柳,2019-04-10,25.207,121.69,0.11581872
C0AJ30,淡水觀海,2019-04-10,25.1846,121.4086,0.08840362
C0AJ40,石門,2019-04-10,25.2737,121.6012,0.02834075
C0AJ50,水湳洞,2019-04-10,25.1237,121.8622,0.11581872
C0AJ60,六塊厝,2019-04-10,25.24,121.4481,0.08840362
C0AJ70,田寮,2019-04-10,25.2698,121.4886,0.04888932
C0AJ80,板橋,2019-04-10,25.0107,121.4489,0.16666095
C0B010,七堵,2019-04-10,25.0948,121.7171,0.10540819
C0B020,基隆嶼,2019-04-10,25.1914,121.7839,0.11581872
C0B040,大武崙,2019-04-10,25.1667,121.707,0.1054081
C0B050,八斗子,2019-04-10,25.1448,121.7917,0.12695754
C0B060,暖暖,2019-04-10,25.0957,121.7403,0.082971685
C0C460,復興,2019-04-10,24.8202,121.3523,0.09825286
C0C480,桃園,2019-04-10,24.9924,121.3232,0.11605042
C0C490,八德,2019-04-10,24.9287,121.2833,0.27784333
C0C590,觀音,2019-04-10,25.0271,121.1533,0.075735345
C0C620,蘆竹,2019-04-10,25.0843,121.2658,0.07862749
C0C630,大溪,2019-04-10,24.8829,121.2655,0.17994834
C0C650,平鎮,2019-04-10,24.8975,121.2146,0.08679394
C0C660,楊梅,2019-04-10,24.9124,121.143,0.117227234
C0C670,龍潭,2019-04-10,24.8701,121.2214,0.08080168
C0C680,龜山,2019-04-10,25.0285,121.3866,0.16811621
C0C700,中壢,2019-04-10,24.9777,121.2564,0.0872588
C0C710,大溪永福,2019-04-10,24.8929,121.325,0.18629625
C0C720,竹圍,2019-04-10,25.1127,121.2398,0.085061684
C0C730,中大臨海站,2019-04-10,24.9661,121.0086,0.24389721
C0C740,觀音工業區,2019-04-10,25.0648,121.1149,0.13964976
C0C750,新興坑尾,2019-04-10,25.0061,121.0971,0.10586884
C0D430,峨眉,2019-04-10,24.6905,121.0172,0.29363626
C0D480,打鐵坑,2019-04-10,24.8497,121.1508,0.11132269
C0D540,橫山,2019-04-10,24.7112,121.1169,0.11122417
C0D560,竹東,2019-04-10,24.7671,121.0579,0.1567329
C0D580,寶山,2019-04-10,24.735,121.0252,0.30993557
C0D590,新豐,2019-04-10,24.8707,120.9772,0.5158518
C0D650,湖口,2019-04-10,24.9048,121.0436,0.2538926
C0D660,新竹市東區,2019-04-10,24.7987,120.9869,0.2105291
C0D670,海天一線,2019-04-10,24.832,120.9144,0.27333796
C0D680,香山濕地,2019-04-10,24.7836,120.915,0.27246585
C0D690,外湖,2019-04-10,24.9177,120.9687,0.24389721
C0D700,關西,2019-04-10,24.7977,121.1732,0.1760375
C0E420,竹南,2019-04-10,24.709,120.8889,0.26965904
C0E430,南庄,2019-04-10,24.6018,121.0002,0.4875845
C0E520,大湖,2019-04-10,24.4149,120.8709,0.20078275
C0E540,後龍,2019-04-10,24.6065,120.7839,0.7761526
C0E550,明德,2019-04-10,24.5835,120.8854,0.59626883
C0E590,通霄,2019-04-10,24.4719,120.7046,0.7525781
C0E730,頭份,2019-04-10,24.6882,120.9122,0.26965904
C0E740,造橋,2019-04-10,24.6371,120.8648,0.59689003
C0E750,苗栗,2019-04-10,24.5646,120.8246,0.7629751
C0E780,銅鑼,2019-04-10,24.4897,120.7909,0.57612514
C0E791,卓蘭,2019-04-10,24.3126,120.8244,0.6037853
C0E810,西湖,2019-04-10,24.5629,120.7485,0.7716054
C0E820,獅潭,2019-04-10,24.5391,120.92,0.62651914
C0E830,苑裡,2019-04-10,24.4397,120.6531,0.77717125
C0E850,大河,2019-04-10,24.6181,120.9486,0.60725325
C0E870,高鐵苗栗,2019-04-10,24.6073,120.8261,0.77493536
C0E910,海埔,2019-04-10,24.6488,120.7724,0.5232485
C0E920,通霄漁港,2019-04-10,24.4986,120.6739,0.75725245
C0E930,龍鳳,2019-04-10,24.7,120.8591,0.5738186
C0F000,大肚,2019-04-10,24.153,120.5721,0.18136255
C0F0B0,石岡,2019-04-10,24.2761,120.7776,0.25648877
C0F850,東勢,2019-04-10,24.2464,120.833,0.6076587
C0F930,大甲,2019-04-10,24.3477,120.6404,0.800528
C0F970,大坑,2019-04-10,24.1731,120.7223,0.78013766
C0F9A0,中竹林,2019-04-10,24.1036,120.7511,0.21491085
C0F9I0,神岡,2019-04-10,24.2725,120.6583,0.6430274
C0F9K0,大安,2019-04-10,24.3451,120.588,0.7360597
C0F9L0,后里,2019-04-10,24.3104,120.7297,0.5310298
C0F9M0,豐原,2019-04-10,24.2543,120.7207,0.60293895
C0F9N0,大里,2019-04-10,24.0925,120.7014,0.76906675
C0F9O0,潭子,2019-04-10,24.2131,120.7039,0.6348645
C0F9P0,清水,2019-04-10,24.3123,120.5622,0.73046184
C0F9Q0,外埔,2019-04-10,24.3478,120.7057,0.65308934
C0F9R0,龍井,2019-04-10,24.1845,120.529,0.7090894
C0F9S0,烏日,2019-04-10,24.1071,120.6241,0.50509053
C0F9T0,西屯,2019-04-10,24.1795,120.6413,0.79183304
C0F9U0,南屯,2019-04-10,24.137,120.638,0.769067
C0F9X0,大雅(中科園區),2019-04-10,24.2153,120.6244,0.80031234
C0FA10,松柏,2019-04-10,24.4291,120.6175,0.75423497
C0FA20,溫寮,2019-04-10,24.3722,120.5831,0.75423497
C0FA30,梧棲,2019-04-10,24.256,120.5234,0.7090896
C0FA40,臺中電廠,2019-04-10,24.2146,120.4907,0.7090896
C0FA50,霧峰,2019-04-10,24.0419,120.6995,0.8069696
C0G620,芬園,2019-04-10,24.0157,120.6213,0.5192748
C0G640,鹿港,2019-04-10,24.0753,120.4305,0.4679419
C0G650,員林,2019-04-10,23.9465,120.5856,0.525102
C0G660,溪湖,2019-04-10,23.9484,120.4791,0.5005785
C0G720,溪州,2019-04-10,23.8516,120.4991,0.47013402
C0G730,二林,2019-04-10,23.9033,120.3761,0.47934756
C0G740,大城,2019-04-10,23.8525,120.3209,0.55568
C0G770,福興,2019-04-10,24.0413,120.4377,0.4679419
C0G780,秀水,2019-04-10,24.0341,120.5039,0.48420954
C0G800,埔鹽,2019-04-10,24.0004,120.4317,0.4679419
C0G810,埔心,2019-04-10,23.9476,120.5255,0.5041978
C0G820,田尾,2019-04-10,23.9017,120.5094,0.5084814
C0G830,埤頭,2019-04-10,23.866,120.4528,0.4577697
C0G840,北斗,2019-04-10,23.8776,120.5142,0.5084814
C0G860,社頭,2019-04-10,23.8976,120.5862,0.527983
C0G870,芳苑,2019-04-10,23.9223,120.32,0.5769354
C0G880,二水,2019-04-10,23.8107,120.6173,0.565393
C0G890,伸港,2019-04-10,24.1489,120.4844,0.6931471
C0G900,線西,2019-04-10,24.1434,120.4435,0.7005352
C0G910,花壇,2019-04-10,24.0321,120.5495,0.48745608
C0G920,永靖,2019-04-10,23.9247,120.5475,0.5084814
C0G940,竹塘,2019-04-10,23.8483,120.3868,0.46875522
C0G950,防潮門,2019-04-10,24.1835,120.4871,0.7090119
C0G960,福寶,2019-04-10,24.0443,120.3814,0.46904385
C0G970,三豐,2019-04-10,23.882,120.2895,0.5769354
C0H890,埔里,2019-04-10,23.9722,120.9524,0.70029396
C0H950,中寮,2019-04-10,23.8844,120.7664,0.30099782
C0H960,草屯,2019-04-10,23.9737,120.6809,0.5371135
C0I110,竹山,2019-04-10,23.7612,120.6882,0.4355456
C0I360,水里,2019-04-10,23.8126,120.8498,0.30648968
C0I380,集集,2019-04-10,23.8282,120.8015,0.3302183
C0I410,名間,2019-04-10,23.8371,120.7014,0.5875586
C0I420,國姓,2019-04-10,24.0378,120.8551,0.23939899
C0I460,南投,2019-04-10,23.9115,120.6873,0.5606698
C0K250,崙背,2019-04-10,23.7555,120.3189,0.554975
C0K280,四湖,2019-04-10,23.6304,120.2271,0.62364095
C0K291,宜梧,2019-04-10,23.5363,120.1693,0.7373528
C0K330,虎尾,2019-04-10,23.7192,120.442,0.5319952
C0K390,土庫,2019-04-10,23.679,120.3956,0.5292659
C0K400,斗六,2019-04-10,23.7206,120.5411,0.5552982
C0K410,北港,2019-04-10,23.574,120.2928,0.6335973
C0K420,西螺,2019-04-10,23.8004,120.4674,0.5124304
C0K430,褒忠,2019-04-10,23.6909,120.3036,0.6579163
C0K440,二崙,2019-04-10,23.7728,120.4089,0.47175875
C0K450,大埤,2019-04-10,23.6461,120.4315,0.5088372
C0K460,斗南,2019-04-10,23.6787,120.4784,0.53663856
C0K470,林內,2019-04-10,23.7487,120.6096,0.5659137
C0K480,莿桐,2019-04-10,23.7612,120.5024,0.5236944
C0K500,元長,2019-04-10,23.6498,120.315,0.6158668
C0K510,水林,2019-04-10,23.5729,120.246,0.6588869
C0K530,臺西,2019-04-10,23.7015,120.1976,0.6105359
C0K550,蔦松,2019-04-10,23.5143,120.2297,0.7226977
C0K560,棋山,2019-04-10,23.6865,120.6034,0.54208857
C0K580,高鐵雲林,2019-04-10,23.7375,120.4179,0.5292659
C0K590,雲林東勢,2019-04-10,23.6742,120.2557,0.65791637
C0K600,箔子寮,2019-04-10,23.6197,120.14,0.67994916
C0M410,馬頭山,2019-04-10,23.3244,120.582,0.5256623
C0M520,東後寮,2019-04-10,23.3699,120.2481,0.7243441
C0M640,中埔,2019-04-10,23.4254,120.5229,0.5570963
C0M650,朴子,2019-04-10,23.4346,120.239,0.75365925
C0M660,溪口,2019-04-10,23.6041,120.4036,0.49270874
C0M670,大林,2019-04-10,23.6006,120.4584,0.51465815
C0M680,太保,2019-04-10,23.4551,120.3315,0.68662906
C0M690,水上,2019-04-10,23.4197,120.3889,0.5067749
C0M700,竹崎,2019-04-10,23.5262,120.5555,0.62066036
C0M710,東石,2019-04-10,23.4589,120.1539,0.7226977
C0M720,番路,2019-04-10,23.4647,120.5542,0.593712
C0M730,嘉義市東區,2019-04-10,23.4577,120.4605,0.558071
C0M740,六腳,2019-04-10,23.4929,120.2906,0.7073679
C0M750,布袋,2019-04-10,23.3809,120.1678,0.75365925
C0M760,民雄,2019-04-10,23.5518,120.4285,0.5044521
C0M770,嘉義梅山,2019-04-10,23.5854,120.5556,0.60697067
C0M780,鹿草,2019-04-10,23.4113,120.3084,0.6652804
C0M790,新港,2019-04-10,23.5533,120.3457,0.6122191
C0M800,茶山,2019-04-10,23.2991,120.6648,0.56601954
C0M880,好美里,2019-04-10,23.3364,120.138,0.6532294
C0N010,鯤鯓國小,2019-04-10,23.1879,120.0889,0.76815
C0N020,城西,2019-04-10,23.0568,120.0956,0.56583655
C0N030,四草,2019-04-10,23.0235,120.1116,0.6659079
C0N040,蘆竹溝,2019-04-10,23.2344,120.0961,0.76815
C0N050,蚵寮,2019-04-10,23.301,120.1104,0.76815
C0O810,曾文,2019-04-10,23.2197,120.4973,0.5416399
C0O830,北寮,2019-04-10,23.0796,120.495,0.2851086
C0O840,王爺宮,2019-04-10,23.2221,120.4009,0.5416399
C0O860,大內,2019-04-10,23.1188,120.3608,0.52272093
C0O900,善化,2019-04-10,23.1129,120.2972,0.6104855
C0O930,玉井,2019-04-10,23.126,120.4605,0.5100218
C0O950,安南,2019-04-10,23.0767,120.1449,0.41078785
C0O960,崎頂,2019-04-10,22.9595,120.3693,0.2774368
C0O970,虎頭埤,2019-04-10,23.0214,120.3479,0.71473587
C0O980,新市,2019-04-10,23.0616,120.2982,0.6104855
C0O990,媽廟,2019-04-10,22.9917,120.2935,0.612757
C0R150,三地門,2019-04-10,22.7099,120.6399,0.37048846
C0R160,鹽埔,2019-04-10,22.7396,120.5308,0.26440915
C0R170,屏東,2019-04-10,22.6603,120.4941,0.504745
C0R190,赤山,2019-04-10,22.5923,120.6143,0.30731255
C0R220,潮州,2019-04-10,22.5344,120.54,0.21825194
C0R240,來義,2019-04-10,22.5273,120.6251,0.20068495
C0R260,春日,2019-04-10,22.3704,120.6283,0.22518232
C0R270,琉球嶼,2019-04-10,22.3322,120.3622,0.21874397
C0R280,檳榔,2019-04-10,22.0761,120.8368,0.07350164
C0R320,車城,2019-04-10,22.0744,120.7162,0.12934533
C0R341,牡丹,2019-04-10,22.13,120.7926,0.15241402
C0R350,貓鼻頭,2019-04-10,21.9218,120.7358,0.112813346
C0R470,高樹,2019-04-10,22.8264,120.6008,0.37980592
C0R480,長治,2019-04-10,22.6931,120.5426,0.25930518
C0R490,九如,2019-04-10,22.7405,120.4905,0.49579537
C0R520,崁頂,2019-04-10,22.5148,120.5069,0.35136828
C0R540,佳冬,2019-04-10,22.4195,120.5524,0.3593828
C0R550,新埤,2019-04-10,22.4679,120.5829,0.31687424
C0R560,新園,2019-04-10,22.5434,120.4616,0.35136828
C0R570,麟洛,2019-04-10,22.6508,120.5272,0.50041485
C0R580,南州,2019-04-10,22.4859,120.5027,0.3593828
C0R590,里港,2019-04-10,22.7792,120.4946,0.2678713
C0R620,墾雷,2019-04-10,21.9008,120.8553,0.112813346
C0R640,東港,2019-04-10,22.4625,120.4407,0.46814558
C0R650,竹田,2019-04-10,22.5849,120.5434,0.32361755
C0R660,枋寮,2019-04-10,22.3677,120.5906,0.23225698
C0R670,楓港,2019-04-10,22.1901,120.6922,0.32515833
C0R680,佳樂水,2019-04-10,21.9936,120.8616,0.120977014
C0R690,墾丁,2019-04-10,21.9668,120.8103,0.06996908
C0R700,枋山,2019-04-10,22.2468,120.6611,0.32515833
C0R710,龍磐,2019-04-10,21.9317,120.8389,0.08548879
C0R720,旭海,2019-04-10,22.2054,120.8876,0.27050883
C0R730,大坪頂,2019-04-10,22.0246,120.6936,0.09340929
C0R740,獅子,2019-04-10,22.2016,120.7053,0.28153297
C0R760,南仁湖,2019-04-10,22.0847,120.8634,0.06218612
C0R770,保力,2019-04-10,22.0711,120.7641,0.095940605
C0R780,滿州,2019-04-10,22.0244,120.8399,0.10908481
C0R790,九棚,2019-04-10,22.142,120.8893,0.32006642
C0R800,丹路,2019-04-10,22.2045,120.751,0.20058729
C0R810,內獅,2019-04-10,22.3051,120.643,0.2646267
C0R830,高士,2019-04-10,22.1218,120.8368,0.05063087
C0R850,林邊,2019-04-10,22.4634,120.5339,0.35136828
C0R860,鼻頭,2019-04-10,22.1043,120.8979,0.21967472
C0R870,興海,2019-04-10,21.9752,120.8439,0.120977014
C0R880,後壁湖,2019-04-10,21.9457,120.7457,0.1342753
C0R890,山海,2019-04-10,21.9878,120.7091,0.12934533
C0R900,竹坑,2019-04-10,22.1385,120.7022,0.31115425
C0R910,下寮,2019-04-10,22.3929,120.5548,0.3593828
C0R920,塭仔,2019-04-10,22.4169,120.5197,0.36755717
C0R930,萬丹,2019-04-10,22.5885,120.4851,0.32361755
C0R940,加祿堂,2019-04-10,22.3363,120.6217,0.2646267
C0S710,鹿野,2019-04-10,22.9177,121.123,0.6900744
C0S730,綠島,2019-04-10,22.6672,121.4753,0.93407446
C0S740,池上,2019-04-10,23.1196,121.2095,0.7180078
C0S770,大溪山,2019-04-10,22.4785,120.9433,0.3870695
C0S790,金崙,2019-04-10,22.5381,120.9669,0.61577475
C0S810,東河,2019-04-10,22.9727,121.304,0.9351479
C0S830,長濱,2019-04-10,23.2868,121.412,0.67670506
C0S840,南田,2019-04-10,22.2797,120.8892,0.5056035
C0S890,關山,2019-04-10,23.0395,121.175,0.93776584
C0S900,蘭嶼高中,2019-04-10,22.0491,121.5121,0.43531466
C0S910,蘭嶼燈塔,2019-04-10,22.0812,121.5031,0.2677175
C0S920,金峰嘉蘭,2019-04-10,22.5948,120.9608,0.73658586
C0S930,延平,2019-04-10,22.9026,121.0841,0.9274825
C0S940,石寧山,2019-04-10,23.2238,121.4066,0.71816206
C0S950,七塊厝,2019-04-10,22.9545,121.2299,0.6531587
C0S960,香蘭,2019-04-10,22.5876,120.9934,0.7313895
C0S970,加津林,2019-04-10,22.4162,120.9269,0.38950974
C0S990,山豬窟,2019-04-10,22.3186,120.8574,0.1390867
C0SA00,歷坵,2019-04-10,22.521,120.8919,0.42099455
C0SA10,檳榔四格山,2019-04-10,22.81,121.1093,0.64617914
C0SA30,都歷,2019-04-10,23.0203,121.3236,0.90784365
C0SA40,瑞和,2019-04-10,22.9744,121.1567,0.948936
C0SA60,知本（水試所）,2019-04-10,22.7024,121.0828,0.7373629
C0SA80,土,2019-04-10,22.4531,120.8876,0.7109098
C0SA90,達仁林場,2019-04-10,22.2643,120.824,0.08196138
C0T870,鯉魚潭,2019-04-10,23.9356,121.5089,0.99115247
C0T900,西林,2019-04-10,23.8119,121.4415,0.9852036
C0T960,光復,2019-04-10,23.6607,121.425,0.99694854
C0T9A0,月眉山,2019-04-10,23.8099,121.5398,0.92293006
C0T9D0,和中,2019-04-10,24.2668,121.741,0.55479336
C0T9E0,大坑,2019-04-10,23.8806,121.582,0.9569935
C0T9F0,水璉,2019-04-10,23.7971,121.5425,0.9676672
C0T9I0,豐濱,2019-04-10,23.5839,121.5148,0.99720955
C0T9M0,靜浦,2019-04-10,23.4552,121.495,0.99720854
C0T9N0,富里,2019-04-10,23.1716,121.2494,0.6121445
C0U600,礁溪,2019-04-10,24.8175,121.7656,0.3366339
C0U650,玉蘭,2019-04-10,24.6753,121.5871,0.45623675
C0U750,龜山島,2019-04-10,24.8417,121.9531,0.026162263
C0U760,東澳,2019-04-10,24.522,121.8332,0.2927481
C0U770,南澳,2019-04-10,24.4493,121.8102,0.7166385
C0U780,五結,2019-04-10,24.6864,121.7979,0.23360609
C0U860,頭城,2019-04-10,24.8532,121.8308,0.3563217
C0U870,大礁溪,2019-04-10,24.791,121.675,0.029130986
C0U880,北關,2019-04-10,24.9072,121.8734,0.24731803
C0U890,三星,2019-04-10,24.6681,121.653,0.14202444
C0U900,內城,2019-04-10,24.7181,121.6877,0.2665228
C0U910,冬山,2019-04-10,24.6337,121.7937,0.23360609
C0U940,羅東,2019-04-10,24.6818,121.7493,0.23199062
C0U970,大福,2019-04-10,24.8006,121.8139,0.37437344
C0U990,員山,2019-04-10,24.7444,121.7225,0.23199062
C0UA00,土場,2019-04-10,24.5765,121.4953,0.062081296
C0UA80,大溪漁港,2019-04-10,24.9418,121.903,0.3366339
C0UA90,石城,2019-04-10,24.9804,121.9512,0.20811725
C0UB00,淡江大學蘭陽校園,2019-04-10,24.8232,121.7304,0.028157465
C0UB10,蘇澳,2019-04-10,24.5969,121.8571,0.7579391
C0UB20,壯圍,2019-04-10,24.7359,121.8163,0.235456
C0V250,甲仙,2019-04-10,23.0801,120.5918,0.54592276
C0V260,月眉,2019-04-10,22.971,120.5399,0.28860146
C0V310,美濃,2019-04-10,22.8987,120.5192,0.7337272
C0V350,溪埔,2019-04-10,22.7386,120.4468,0.48139554
C0V360,內門,2019-04-10,22.9755,120.4668,0.69576687
C0V370,古亭坑,2019-04-10,22.8932,120.4019,0.69358766
C0V400,阿公店,2019-04-10,22.8042,120.3555,0.5039883
C0V440,鳳山,2019-04-10,22.6467,120.3561,0.44659927
C0V450,鳳森,2019-04-10,22.5451,120.3926,0.25258252
C0V490,新興,2019-04-10,22.6274,120.2988,0.46085978
C0V530,阿蓮,2019-04-10,22.8832,120.3275,0.64866906
C0V610,梓官,2019-04-10,22.7606,120.2672,0.5847202
C0V620,永安,2019-04-10,22.8231,120.2369,0.483205
C0V630,茄萣,2019-04-10,22.9066,120.1826,0.5482776
C0V640,湖內,2019-04-10,22.8871,120.2445,0.5430153
C0V650,彌陀,2019-04-10,22.7838,120.2464,0.48320478
C0V660,岡山,2019-04-10,22.7971,120.295,0.5847202
C0V680,仁武,2019-04-10,22.7011,120.3477,0.53421474
C0V690,鼓山,2019-04-10,22.6233,120.2756,0.46086
C0V700,三民,2019-04-10,22.645,120.3112,0.46085978
C0V710,苓雅,2019-04-10,22.6227,120.3307,0.46085978
C0V720,林園,2019-04-10,22.5077,120.3945,0.46085978
C0V730,大寮,2019-04-10,22.6056,120.3957,0.28818375
C0V740,旗山,2019-04-10,22.8886,120.4836,0.7309661
C0V750,路竹,2019-04-10,22.855,120.2594,0.6051719
C0V760,橋頭,2019-04-10,22.7578,120.3058,0.5808247
C0V770,大社,2019-04-10,22.7303,120.3466,0.53421474
C0V790,萬山,2019-04-10,22.9059,120.6881,0.5998634
C0V800,六龜,2019-04-10,22.9979,120.6336,0.30818987
C0V810,左營,2019-04-10,22.6749,120.2849,0.5427882
C0V820,小林,2019-04-10,23.1484,120.6333,0.5776259
C0V840,鳳鼻頭,2019-04-10,22.5083,120.3591,0.46814558
C0V850,蚵仔寮,2019-04-10,22.7256,120.2527,0.5484212
C0V860,南寮,2019-04-10,22.7616,120.2339,0.48969242
C0V870,文安,2019-04-10,22.8025,120.2164,0.48969242
C0V880,興達,2019-04-10,22.8778,120.2127,0.5482776
C0V890,前鎮,2019-04-10,22.5718,120.3117,0.46814558
C0V900,汕尾,2019-04-10,22.4782,120.4151,0.52309746
C0X050,東河,2019-04-10,23.2966,120.3856,0.5168066
C0X060,下營,2019-04-10,23.2269,120.2563,0.72923434
C0X080,佳里,2019-04-10,23.173,120.1451,0.6532294
C0X100,臺南市北區,2019-04-10,23.0104,120.1942,0.51998997
C0X110,臺南市南區,2019-04-10,22.9612,120.1884,0.5154432
C0X120,麻豆,2019-04-10,23.1833,120.2486,0.6514131
C0X130,官田,2019-04-10,23.1932,120.3154,0.72485554
C0X140,西港,2019-04-10,23.1256,120.2031,0.6483439
C0X150,安定,2019-04-10,23.1026,120.2278,0.5117416
C0X160,仁德,2019-04-10,22.9683,120.2577,0.6169413
C0X170,關廟,2019-04-10,22.963,120.3278,0.59806955
C0X180,山上,2019-04-10,23.0757,120.3633,0.67981935
C0X190,安平,2019-04-10,22.9932,120.1522,0.5199898
C0X200,左鎮,2019-04-10,23.0568,120.4085,0.68077874
C0X210,白河,2019-04-10,23.3475,120.4144,0.5043651
C0X220,學甲,2019-04-10,23.2304,120.1822,0.6514131
C0X230,鹽水,2019-04-10,23.2726,120.2476,0.684437
C0X240,關子嶺,2019-04-10,23.3312,120.508,0.3109615
C0X250,新營,2019-04-10,23.3107,120.3167,0.7578988
C0X260,後壁,2019-04-10,23.3664,120.3623,0.6916452
C0X280,將軍,2019-04-10,23.215,120.1358,0.6532294
C0X290,北門,2019-04-10,23.2678,120.1255,0.6532294
C0X300,鹿寮,2019-04-10,23.386,120.4773,0.5309689
C0X310,七股,2019-04-10,23.1473,120.0863,0.7424624
C0X320,柳營,2019-04-10,23.2533,120.3753,0.5098022
C0Z020,明里,2019-04-10,23.2087,121.2623,0.6956342
C0Z061,玉里,2019-04-10,23.3215,121.3397,0.7422122
C0Z070,舞鶴,2019-04-10,23.4681,121.3741,0.991035
C0Z080,富源,2019-04-10,23.5876,121.3782,0.9916079
C0Z100,東華,2019-04-10,23.8953,121.5498,0.99755454
C0Z150,吉安光華,2019-04-10,23.9309,121.5952,0.99696493
C0Z160,鳳林,2019-04-10,23.7461,121.4534,0.9974854
C0Z170,卓溪,2019-04-10,23.3443,121.3029,0.7160513
C0Z180,新城,2019-04-10,24.0395,121.6045,0.994755
C0Z190,富世,2019-04-10,24.1474,121.6297,0.8549201
C0Z200,萬榮,2019-04-10,23.7092,121.4201,0.99115247
C0Z210,瑞穗,2019-04-10,23.5239,121.3902,0.9976708
C0Z230,和平,2019-04-10,24.3072,121.7701,0.55479336
C0Z270,蕃薯寮,2019-04-10,23.7384,121.5401,0.99616826
C0Z280,德武,2019-04-10,23.4743,121.4107,0.99647677
C0Z300,東里,2019-04-10,23.2685,121.3055,0.7275409
C0Z310,清水斷崖,2019-04-10,24.2183,121.6891,0.88581675
C0Z330,安通山,2019-04-10,23.2907,121.3485,0.59306496
