站號,站名,日期,lat,lon,BlastGRU-TW
466881,新北,2019-09-26,24.9593,121.52,0.21279122
466900,淡水,2019-09-26,25.164889,121.448906,0.32045546
466920,臺北,2019-09-26,25.037658,121.514853,0.18499044
467441,高雄,2019-09-26,22.7304,120.3125,0.6081349
467480,嘉義,2019-09-26,23.495925,120.432906,0.8358737
467490,臺中,2019-09-26,24.145736,120.684075,0.960311
C0A540,四堵,2019-09-26,24.8926,121.745736,0.9363579
C0A550,泰平,2019-09-26,24.971197,121.823711,0.71080554
C0A560,福山,2019-09-26,24.776203,121.502811,0.68857056
C0A931,三和,2019-09-26,25.233153,121.595236,0.85565937
C0A940,金山,2019-09-26,25.223628,121.643967,0.5489605
C0A950,鼻頭角,2019-09-26,25.129036,121.923372,0.15671892
C0AD10,八里,2019-09-26,25.150211,121.403947,0.32045546
C0AD30,蘆洲,2019-09-26,25.086594,121.472331,0.28809863
C0AD40,土城,2019-09-26,24.973208,121.445169,0.3090451
C0AI10,屈尺,2019-09-26,24.92184,121.54475,0.26515573
C0AI20,白沙灣,2019-09-26,25.283128,121.519058,0.48029208
C0AI30,三重,2019-09-26,25.057328,121.500629,0.28809863
C0B010,七堵,2019-09-26,25.094819,121.71713,0.28360152
C0B020,基隆嶼,2019-09-26,25.19141,121.78391,0.25273213
