站號,站名,日期,lat,lon,BlastGRU-TW
12J990,口湖工作站,2019-05-22,23.589978,120.180394,0.8283718
12Q970,東港工作站,2019-05-22,22.479997,120.466058,0.045099806
12Q980,恆春工作站,2019-05-22,22.079678,120.714425,0.67894334
466881,新北,2019-05-22,24.9593,121.52,0.7658488
466900,淡水,2019-05-22,25.164889,121.448906,0.6197451
466920,臺北,2019-05-22,25.037658,121.514853,0.7198182
466940,基隆,2019-05-22,25.133314,121.740475,0.4483511
466990,花蓮,2019-05-22,23.975128,121.613275,0.004039898
467050,新屋,2019-05-22,25.006744,121.047486,0.49419338
467060,蘇澳,2019-05-22,24.596736,121.857372,0.053624865
467080,宜蘭,2019-05-22,24.763975,121.756528,0.15252809
467270,田中,2019-05-22,23.873803,120.581286,0.96393657
467300,東吉島,2019-05-22,23.25695,119.667467,0.9809866
467350,澎湖,2019-05-22,23.565503,119.563094,0.99791086
467410,臺南,2019-05-22,22.993239,120.204772,0.043737955
467420,永康,2019-05-22,23.038386,120.2367,0.041990284
467441,高雄,2019-05-22,22.7304,120.3125,0.03309314
467480,嘉義,2019-05-22,23.495925,120.432906,0.9972805
467490,臺中,2019-05-22,24.145736,120.684075,0.9990647
467540,大武,2019-05-22,22.355675,120.903789,0.10580815
467571,新竹,2019-05-22,24.827853,121.014219,0.6860902
467590,恆春,2019-05-22,22.003897,120.746339,0.76796633
467610,成功,2019-05-22,23.097486,121.373428,0.02069041
467620,蘭嶼,2019-05-22,22.036969,121.558339,0.98901016
467660,臺東,2019-05-22,22.752211,121.154586,0.6883674
467790,墾丁雷達站,2019-05-22,21.948235,120.808028,0.83533525
72AI40,桃改臺北分場,2019-05-22,24.944503,121.386972,0.75819355
72C440,桃園農改場,2019-05-22,24.950944,121.030583,0.534596
72D680,新埔,2019-05-22,24.834444,121.066111,0.78837883
72G600,臺中農改場,2019-05-22,24.003028,120.534389,0.99248534
72K220,雲林分場,2019-05-22,23.634556,120.477333,0.8882076
72L140,朴子分場,2019-05-22,23.4982,120.2414,0.8136657
72M360,義竹工作站,2019-05-22,23.360694,120.279361,0.108697124
72M700,嘉義分場,2019-05-22,23.416869,120.283061,0.7684817
72N100,臺南農改場,2019-05-22,23.0605,120.342194,0.0451291
72N240,七股研究中心,2019-05-22,23.081672,120.062894,0.23767062
72Q010,高雄農改場,2019-05-22,22.709333,120.525889,0.2513825
72S200,斑鳩分場,2019-05-22,22.829528,121.077694,0.96204865
72S590,賓朗果園,2019-05-22,22.813889,121.071278,0.9766392
72T250,花蓮農改場,2019-05-22,23.975222,121.563889,0.004041099
72U480,蘭陽分場,2019-05-22,24.686306,121.716583,0.113443926
72V140,旗南,2019-05-22,22.857861,120.516667,0.34157917
82A750,文山分場,2019-05-22,24.955778,121.631222,0.9554257
82C160,茶改場(楊梅),2019-05-22,24.908472,121.185333,0.8011832
82H840,凍頂工作站,2019-05-22,23.762528,120.7405,0.9813742
82S580,龍田,2019-05-22,22.907694,121.130139,0.1584681
A0K420,麥寮,2019-05-22,23.7988,120.2177,0.9995423
A0W080,吉貝,2019-05-22,23.74,119.6042,0.9990175
A2C560,農工中心,2019-05-22,24.985917,121.239833,0.73210484
A2K360,臺西分所,2019-05-22,23.717231,120.190522,0.9995917
A2K570,古坑(花卉中心),2019-05-22,23.633531,120.552392,0.96778333
A2K630,臺大雲林校區,2019-05-22,23.730628,120.423903,0.79072404
A2N290,臺南蘭花園區,2019-05-22,23.340258,120.379661,0.9615307
B2E890,新竹畜試,2019-05-22,24.527806,120.770972,0.9987816
B2N890,畜產試驗所,2019-05-22,23.058972,120.336406,0.0451291
B2Q810,恆春分所,2019-05-22,21.945583,120.802167,0.74119353
B2U990,宜蘭畜試,2019-05-22,24.669039,121.832561,0.103377126
C0A520,山佳,2019-05-22,24.974944,121.402008,0.75819355
C0A530,坪林,2019-05-22,24.938183,121.70975,0.91407007
C0A540,四堵,2019-05-22,24.8926,121.745736,0.8518442
C0A550,泰平,2019-05-22,24.971197,121.823711,0.95830613
C0A560,福山,2019-05-22,24.776203,121.502811,0.9554257
C0A570,桶後,2019-05-22,24.848222,121.597992,0.882928
C0A640,石碇,2019-05-22,24.993969,121.662917,0.8429638
C0A650,火燒寮,2019-05-22,25.002719,121.742892,0.89101595
C0A660,瑞芳,2019-05-22,25.113169,121.801147,0.5556795
C0A770,科教館,2019-05-22,25.096356,121.516507,0.72145075
C0A860,大坪,2019-05-22,25.165914,121.632969,0.8001856
C0A880,福隆,2019-05-22,25.017842,121.942083,0.17033081
C0A890,雙溪,2019-05-22,25.036003,121.864242,0.5725731
C0A920,富貴角,2019-05-22,25.263783,121.565258,0.6161698
C0A931,三和,2019-05-22,25.233153,121.595236,0.8422038
C0A940,金山,2019-05-22,25.223628,121.643967,0.5574023
C0A950,鼻頭角,2019-05-22,25.129036,121.923372,0.15469669
C0A970,三貂角,2019-05-22,25.007606,122.002058,0.38863516
C0A980,社子,2019-05-22,25.109508,121.469681,0.7043555
C0A9C0,天母,2019-05-22,25.117494,121.537169,0.7481968
C0A9F0,內湖,2019-05-22,25.079422,121.57545,0.7198182
C0AC60,三峽,2019-05-22,24.939025,121.369728,0.7837356
C0AC70,信義,2019-05-22,25.037822,121.564597,0.7198182
C0AC80,文山,2019-05-22,25.00235,121.575728,0.8120712
C0ACA0,新莊,2019-05-22,25.051478,121.446756,0.6021815
C0AD00,三芝,2019-05-22,25.258131,121.501917,0.5914936
C0AD10,八里,2019-05-22,25.150211,121.403947,0.6197451
C0AD30,蘆洲,2019-05-22,25.086594,121.472331,0.72145075
C0AD40,土城,2019-05-22,24.973208,121.445169,0.73583883
C0AD50,鶯歌,2019-05-22,24.951533,121.346294,0.7221394
C0AG80,中和,2019-05-22,24.991622,121.491792,0.7198182
C0AH00,汐止,2019-05-22,25.066881,121.658778,0.47604114
C0AH10,永和,2019-05-22,25.01125,121.508111,0.6911939
C0AH40,平等,2019-05-22,25.129142,121.577086,0.8155126
C0AH50,林口,2019-05-22,25.072181,121.38084,0.82017505
C0AH70,松山,2019-05-22,25.04871,121.55042,0.7198182
C0AH80,深坑,2019-05-22,25.002703,121.628328,0.8120712
C0AI00,五股,2019-05-22,25.07445,121.42728,0.7761025
C0AI10,屈尺,2019-05-22,24.92184,121.54475,0.8120712
C0AI20,白沙灣,2019-05-22,25.283128,121.519058,0.53454447
C0AI30,三重,2019-05-22,25.057328,121.500629,0.72145075
C0AI40,石牌,2019-05-22,25.115597,121.513139,0.73583883
C0AJ10,澳底,2019-05-22,25.057107,121.927272,0.14123149
C0AJ20,野柳,2019-05-22,25.20703,121.690021,0.47604114
C0AJ30,淡水觀海,2019-05-22,25.184591,121.408616,0.60650086
C0AJ40,石門,2019-05-22,25.273672,121.601198,0.6128085
C0AJ50,水湳洞,2019-05-22,25.123695,121.862238,0.47604114
C0AJ60,六塊厝,2019-05-22,25.24,121.4481,0.60650086
C0AJ70,田寮,2019-05-22,25.2698,121.4886,0.5206173
C0AJ80,板橋,2019-05-22,25.0107,121.4489,0.73583883
C0B010,七堵,2019-05-22,25.094819,121.71713,0.5279124
C0B020,基隆嶼,2019-05-22,25.19141,121.78391,0.47604114
C0B040,大武崙,2019-05-22,25.166676,121.706993,0.5279124
C0B050,八斗子,2019-05-22,25.144754,121.79167,0.419197
C0B060,暖暖,2019-05-22,25.0957,121.7403,0.6201047
C0C460,復興,2019-05-22,24.820208,121.352281,0.8634876
C0C480,桃園,2019-05-22,24.992425,121.323172,0.80010724
C0C490,八德,2019-05-22,24.928708,121.283289,0.86439717
C0C590,觀音,2019-05-22,25.027072,121.153317,0.67468673
C0C620,蘆竹,2019-05-22,25.084275,121.265767,0.6441288
C0C630,大溪,2019-05-22,24.882853,121.265547,0.86191934
C0C650,平鎮,2019-05-22,24.897503,121.214636,0.8011832
C0C660,楊梅,2019-05-22,24.912375,121.143047,0.73286265
C0C670,龍潭,2019-05-22,24.870056,121.221389,0.94846636
C0C680,龜山,2019-05-22,25.02846,121.38656,0.87986505
C0C700,中壢,2019-05-22,24.977661,121.256375,0.79819745
C0C710,大溪永福,2019-05-22,24.892936,121.324975,0.7308058
C0C720,竹圍,2019-05-22,25.112692,121.239824,0.6197451
C0C730,中大臨海站,2019-05-22,24.966126,121.008581,0.42948374
C0C740,觀音工業區,2019-05-22,25.064764,121.114856,0.67175245
C0C750,新興坑尾,2019-05-22,25.0061,121.0971,0.69499886
C0D390,關西,2019-05-22,24.7977,121.1732,0.8063613
C0D430,峨眉,2019-05-22,24.6905,121.017189,0.7395609
C0D480,打鐵坑,2019-05-22,24.849664,121.150789,0.96155274
C0D540,橫山,2019-05-22,24.71116,121.11693,0.94847697
C0D560,竹東,2019-05-22,24.767147,121.057881,0.7920053
C0D580,寶山,2019-05-22,24.735006,121.025192,0.95022804
C0D590,新豐,2019-05-22,24.87068,120.97721,0.9026722
C0D650,湖口,2019-05-22,24.904794,121.043628,0.621605
C0D660,新竹市東區,2019-05-22,24.798681,120.986942,0.696323
C0D670,海天一線,2019-05-22,24.831986,120.914438,0.5857257
C0D680,香山濕地,2019-05-22,24.783581,120.914988,0.5957274
C0D690,外湖,2019-05-22,24.917735,120.968711,0.42948374
C0E420,竹南,2019-05-22,24.708978,120.888897,0.62212527
C0E430,南庄,2019-05-22,24.601775,121.000214,0.9456237
C0E520,大湖,2019-05-22,24.41494,120.87087,0.9472017
C0E540,後龍,2019-05-22,24.606489,120.783933,0.99871343
C0E550,明德,2019-05-22,24.583486,120.885411,0.997175
C0E590,通霄,2019-05-22,24.471892,120.704622,0.998743
C0E730,頭份,2019-05-22,24.688247,120.912206,0.62212527
C0E740,造橋,2019-05-22,24.637056,120.864778,0.996792
C0E750,苗栗,2019-05-22,24.564569,120.824575,0.99862194
C0E780,銅鑼,2019-05-22,24.489681,120.790853,0.9974331
C0E791,卓蘭,2019-05-22,24.3126,120.8244,0.9962931
C0E810,西湖,2019-05-22,24.562947,120.7485,0.99866486
C0E820,獅潭,2019-05-22,24.539133,120.920042,0.9976312
C0E830,苑裡,2019-05-22,24.439714,120.653053,0.9982011
C0E850,大河,2019-05-22,24.618069,120.948578,0.997246
C0E870,高鐵苗栗,2019-05-22,24.60725,120.826094,0.99869967
C0E910,海埔,2019-05-22,24.648767,120.772435,0.99648273
C0E920,通霄漁港,2019-05-22,24.498589,120.673876,0.9985768
C0E930,龍鳳,2019-05-22,24.700034,120.859125,0.99650854
C0F000,大肚,2019-05-22,24.15295,120.572117,0.9888386
C0F0B0,石岡,2019-05-22,24.276061,120.777644,0.9909302
C0F850,東勢,2019-05-22,24.246428,120.833047,0.99574214
C0F930,大甲,2019-05-22,24.347667,120.640403,0.99868256
C0F970,大坑,2019-05-22,24.173142,120.722289,0.9991502
C0F9A0,中竹林,2019-05-22,24.103556,120.751061,0.98331237
C0F9I0,神岡,2019-05-22,24.272481,120.658314,0.99752164
C0F9K0,大安,2019-05-22,24.345061,120.588025,0.99809676
C0F9L0,后里,2019-05-22,24.310436,120.729725,0.9972391
C0F9M0,豐原,2019-05-22,24.254322,120.720692,0.99744505
C0F9N0,大里,2019-05-22,24.092464,120.701378,0.9985675
C0F9O0,潭子,2019-05-22,24.213106,120.703933,0.9975396
C0F9P0,清水,2019-05-22,24.312297,120.562242,0.9981351
C0F9Q0,外埔,2019-05-22,24.347817,120.705686,0.9974367
C0F9R0,龍井,2019-05-22,24.184536,120.528972,0.9979183
C0F9S0,烏日,2019-05-22,24.107058,120.624103,0.99308217
C0F9T0,西屯,2019-05-22,24.179494,120.641275,0.9987924
C0F9U0,南屯,2019-05-22,24.137006,120.637969,0.9985675
C0F9X0,大雅(中科園區),2019-05-22,24.21528,120.62445,0.99909467
C0FA10,松柏,2019-05-22,24.429115,120.617482,0.9980378
C0FA20,溫寮,2019-05-22,24.372177,120.583125,0.9980378
C0FA30,梧棲,2019-05-22,24.256003,120.523381,0.9979183
C0FA40,臺中電廠,2019-05-22,24.2146,120.4907,0.9979183
C0FA50,霧峰,2019-05-22,24.0419,120.6995,0.9989946
C0G620,芬園,2019-05-22,24.015678,120.6213,0.9968332
C0G640,鹿港,2019-05-22,24.0753,120.430481,0.9916404
C0G650,員林,2019-05-22,23.946503,120.585597,0.99514884
C0G660,溪湖,2019-05-22,23.94835,120.479122,0.99294084
C0G720,溪州,2019-05-22,23.851589,120.499093,0.94245166
C0G730,二林,2019-05-22,23.903325,120.376081,0.99054307
C0G740,大城,2019-05-22,23.852487,120.320935,0.9994671
C0G770,福興,2019-05-22,24.041289,120.437669,0.9916404
C0G780,秀水,2019-05-22,24.03405,120.503869,0.992004
C0G800,埔鹽,2019-05-22,24.000394,120.431683,0.9916404
C0G810,埔心,2019-05-22,23.947633,120.525456,0.9932822
C0G820,田尾,2019-05-22,23.901669,120.509389,0.9936148
C0G830,埤頭,2019-05-22,23.866003,120.452806,0.92563397
C0G840,北斗,2019-05-22,23.877586,120.514222,0.9936148
C0G860,社頭,2019-05-22,23.897647,120.5862,0.9954777
C0G870,芳苑,2019-05-22,23.922303,120.320025,0.9995203
C0G880,二水,2019-05-22,23.810742,120.6173,0.98517734
C0G890,伸港,2019-05-22,24.148933,120.484403,0.9979501
C0G900,線西,2019-05-22,24.143358,120.443536,0.9978159
C0G910,花壇,2019-05-22,24.032076,120.549461,0.992861
C0G920,永靖,2019-05-22,23.924703,120.547533,0.9936148
C0G940,竹塘,2019-05-22,23.848253,120.386764,0.836935
C0G950,防潮門,2019-05-22,24.1835,120.4871,0.997926
C0G960,福寶,2019-05-22,24.0443,120.3814,0.99108386
C0G970,三豐,2019-05-22,23.882,120.2895,0.9995203
C0H890,埔里,2019-05-22,23.972169,120.952425,0.9965821
C0H950,中寮,2019-05-22,23.884447,120.766406,0.9942126
C0H960,草屯,2019-05-22,23.973672,120.68085,0.9886387
C0I110,竹山,2019-05-22,23.761225,120.688156,0.99443716
C0I360,水里,2019-05-22,23.812553,120.849792,0.9887467
C0I380,集集,2019-05-22,23.828206,120.801467,0.989014
C0I410,名間,2019-05-22,23.837053,120.701447,0.9919156
C0I420,國姓,2019-05-22,24.037803,120.855072,0.98908615
C0I460,南投,2019-05-22,23.911469,120.687331,0.992796
C0K250,崙背,2019-05-22,23.75555,120.318925,0.9992802
C0K280,四湖,2019-05-22,23.630414,120.227125,0.99950266
C0K291,宜梧,2019-05-22,23.536281,120.169329,0.7867845
C0K330,虎尾,2019-05-22,23.719183,120.442036,0.81285614
C0K390,土庫,2019-05-22,23.679029,120.395574,0.79072404
C0K400,斗六,2019-05-22,23.720583,120.541127,0.9339798
C0K410,北港,2019-05-22,23.573957,120.292802,0.751889
C0K420,西螺,2019-05-22,23.800407,120.467394,0.9315391
C0K430,褒忠,2019-05-22,23.690938,120.303634,0.9995423
C0K440,二崙,2019-05-22,23.772797,120.408944,0.8527278
C0K450,大埤,2019-05-22,23.646074,120.431537,0.83922094
C0K460,斗南,2019-05-22,23.678734,120.478359,0.90986043
C0K470,林內,2019-05-22,23.748675,120.609642,0.95557547
C0K480,莿桐,2019-05-22,23.761192,120.502372,0.940492
C0K500,元長,2019-05-22,23.64981,120.315024,0.9993648
C0K510,水林,2019-05-22,23.572924,120.24597,0.8509853
C0K530,臺西,2019-05-22,23.701547,120.197559,0.9995489
C0K550,蔦松,2019-05-22,23.514319,120.229736,0.8136657
C0K560,棋山,2019-05-22,23.68645,120.603417,0.9486414
C0K580,高鐵雲林,2019-05-22,23.737456,120.417944,0.79072404
C0K590,雲林東勢,2019-05-22,23.674192,120.255721,0.9995423
C0K600,箔子寮,2019-05-22,23.6197,120.14,0.8283718
C0M410,馬頭山,2019-05-22,23.324361,120.582017,0.9890029
C0M520,東後寮,2019-05-22,23.369908,120.248065,0.16600884
C0M640,中埔,2019-05-22,23.42538,120.5229,0.9690273
C0M650,朴子,2019-05-22,23.43463,120.23902,0.80099547
C0M660,溪口,2019-05-22,23.604131,120.403569,0.99797124
C0M670,大林,2019-05-22,23.600616,120.45841,0.99738765
C0M680,太保,2019-05-22,23.455062,120.331455,0.703032
C0M690,水上,2019-05-22,23.419734,120.388909,0.9973697
C0M700,竹崎,2019-05-22,23.526178,120.555508,0.9868436
C0M710,東石,2019-05-22,23.458927,120.15385,0.8136657
C0M720,番路,2019-05-22,23.464657,120.554156,0.9907564
C0M730,嘉義市東區,2019-05-22,23.457673,120.460531,0.9966779
C0M740,六腳,2019-05-22,23.492871,120.290625,0.66860247
C0M750,布袋,2019-05-22,23.380878,120.167789,0.80099547
C0M760,民雄,2019-05-22,23.551754,120.428457,0.99777853
C0M770,嘉義梅山,2019-05-22,23.585398,120.555587,0.9770459
C0M780,鹿草,2019-05-22,23.41134,120.30835,0.79580057
C0M790,新港,2019-05-22,23.553269,120.345728,0.7829267
C0M800,茶山,2019-05-22,23.299075,120.664767,0.9827698
C0M880,好美里,2019-05-22,23.3364,120.138,0.1926778
C0N010,鯤鯓國小,2019-05-22,23.1879,120.0889,0.741572
C0N020,城西,2019-05-22,23.0568,120.0956,0.24210335
C0N030,四草,2019-05-22,23.0235,120.1116,0.12080051
C0N040,蘆竹溝,2019-05-22,23.2344,120.0961,0.7415715
C0N050,蚵寮,2019-05-22,23.301,120.1104,0.741572
C0O810,曾文,2019-05-22,23.219681,120.497328,0.9914975
C0O830,北寮,2019-05-22,23.079561,120.495008,0.7339921
C0O840,王爺宮,2019-05-22,23.222064,120.40085,0.9914975
C0O860,大內,2019-05-22,23.11885,120.36083,0.26514316
C0O900,善化,2019-05-22,23.112883,120.297219,0.036135685
C0O930,玉井,2019-05-22,23.126042,120.46055,0.98694694
C0O950,安南,2019-05-22,23.076694,120.144861,0.06207643
C0O960,崎頂,2019-05-22,22.959547,120.369317,0.7571795
C0O970,虎頭埤,2019-05-22,23.021375,120.347878,0.12651828
C0O980,新市,2019-05-22,23.061614,120.298197,0.036135685
C0O990,媽廟,2019-05-22,22.99175,120.293525,0.04183977
C0R150,三地門,2019-05-22,22.709889,120.639944,0.10923055
C0R160,鹽埔,2019-05-22,22.739558,120.530778,0.2513825
C0R170,屏東,2019-05-22,22.660269,120.494072,0.02885175
C0R190,赤山,2019-05-22,22.592333,120.614306,0.161981
C0R220,潮州,2019-05-22,22.534361,120.54,0.20375235
C0R240,來義,2019-05-22,22.527306,120.625111,0.25790533
C0R260,春日,2019-05-22,22.370361,120.628306,0.23572166
C0R270,琉球嶼,2019-05-22,22.332244,120.362236,0.23996167
C0R280,檳榔,2019-05-22,22.076078,120.836777,0.97768533
C0R320,車城,2019-05-22,22.0744,120.716247,0.67894334
C0R341,牡丹,2019-05-22,22.130036,120.792639,0.565659
C0R350,貓鼻頭,2019-05-22,21.921774,120.7358,0.79302096
C0R470,高樹,2019-05-22,22.826389,120.600806,0.121056974
C0R480,長治,2019-05-22,22.693128,120.542622,0.27856463
C0R490,九如,2019-05-22,22.7405,120.490503,0.0286821
C0R520,崁頂,2019-05-22,22.514781,120.506914,0.044976816
C0R540,佳冬,2019-05-22,22.419456,120.552375,0.045099806
C0R550,新埤,2019-05-22,22.467947,120.582894,0.14978142
C0R560,新園,2019-05-22,22.5434,120.461558,0.044976816
C0R570,麟洛,2019-05-22,22.65078,120.52719,0.028682068
C0R580,南州,2019-05-22,22.48591,120.50274,0.045099806
C0R590,里港,2019-05-22,22.77919,120.49459,0.2509794
C0R620,墾雷,2019-05-22,21.900836,120.855269,0.79302025
C0R640,東港,2019-05-22,22.46247,120.44074,0.03433801
C0R650,竹田,2019-05-22,22.58486,120.54344,0.13920754
C0R660,枋寮,2019-05-22,22.367722,120.590647,0.17936297
C0R670,楓港,2019-05-22,22.190131,120.692156,0.18978168
C0R680,佳樂水,2019-05-22,21.993578,120.861633,0.74119353
C0R690,墾丁,2019-05-22,21.966756,120.810269,0.9803621
C0R700,枋山,2019-05-22,22.246844,120.661086,0.18978168
C0R710,龍磐,2019-05-22,21.931672,120.838942,0.92586005
C0R720,旭海,2019-05-22,22.205403,120.887614,0.9093099
C0R730,大坪頂,2019-05-22,22.024633,120.69355,0.9502778
C0R740,獅子,2019-05-22,22.201569,120.70525,0.21562307
C0R760,南仁湖,2019-05-22,22.084681,120.863353,0.98890203
C0R770,保力,2019-05-22,22.071122,120.764111,0.8834316
C0R780,滿州,2019-05-22,22.024403,120.839892,0.8149788
C0R790,九棚,2019-05-22,22.14195,120.889281,0.85634303
C0R800,丹路,2019-05-22,22.204481,120.750989,0.3477151
C0R810,內獅,2019-05-22,22.305064,120.642986,0.21515243
C0R830,高士,2019-05-22,22.121825,120.836781,0.9883078
C0R850,林邊,2019-05-22,22.4634,120.5339,0.044976816
C0R860,鼻頭,2019-05-22,22.1043,120.8979,0.90511113
C0R870,興海,2019-05-22,21.9752,120.8439,0.74119353
C0R880,後壁湖,2019-05-22,21.9457,120.7457,0.6432625
C0R890,山海,2019-05-22,21.9878,120.7091,0.67894334
C0R900,竹坑,2019-05-22,22.1385,120.7022,0.22550875
C0R910,下寮,2019-05-22,22.3929,120.5548,0.045099806
C0R920,塭仔,2019-05-22,22.4169,120.5197,0.045026593
C0R930,萬丹,2019-05-22,22.5885,120.4851,0.13920754
C0R940,加祿堂,2019-05-22,22.3363,120.6217,0.21515243
C0S710,鹿野,2019-05-22,22.917711,121.122994,0.9803388
C0S730,綠島,2019-05-22,22.6672,121.47533,0.026971314
C0S740,池上,2019-05-22,23.119628,121.209469,0.82328707
C0S770,大溪山,2019-05-22,22.478475,120.943325,0.98358846
C0S790,金崙,2019-05-22,22.538122,120.966875,0.89842045
C0S810,東河,2019-05-22,22.972672,121.303986,0.019978106
C0S830,長濱,2019-05-22,23.286817,121.411975,0.9727601
C0S840,南田,2019-05-22,22.279725,120.889208,0.29739884
C0S890,關山,2019-05-22,23.0395,121.175017,0.058074813
C0S900,蘭嶼高中,2019-05-22,22.04909,121.51214,0.961759
C0S910,蘭嶼燈塔,2019-05-22,22.081197,121.503117,0.98348963
C0S920,金峰嘉蘭,2019-05-22,22.594789,120.960825,0.41529018
C0S930,延平,2019-05-22,22.902581,121.084058,0.09264627
C0S940,石寧山,2019-05-22,23.223772,121.406639,0.9314336
C0S950,七塊厝,2019-05-22,22.954453,121.229922,0.98278856
C0S960,香蘭,2019-05-22,22.587569,120.993375,0.13032204
C0S970,加津林,2019-05-22,22.416211,120.926942,0.13152409
C0S990,山豬窟,2019-05-22,22.318619,120.857372,0.97172916
C0SA00,歷坵,2019-05-22,22.520969,120.89185,0.98443127
C0SA10,檳榔四格山,2019-05-22,22.810031,121.109308,0.984382
C0SA30,都歷,2019-05-22,23.020333,121.323642,0.024316095
C0SA40,瑞和,2019-05-22,22.974361,121.156697,0.046357922
C0SA60,知本（水試所）,2019-05-22,22.702394,121.082761,0.18177755
C0SA80,土坂,2019-05-22,22.453108,120.887572,0.6183047
C0SA90,達仁林場,2019-05-22,22.264347,120.823972,0.9650603
C0T870,鯉魚潭,2019-05-22,23.935639,121.508944,0.0038214223
C0T900,西林,2019-05-22,23.8119,121.441458,0.0038964748
C0T960,光復,2019-05-22,23.660694,121.424964,0.0036325057
C0T9A0,月眉山,2019-05-22,23.809928,121.539828,0.0037162355
C0T9D0,和中,2019-05-22,24.26676,121.74103,0.006855825
C0T9E0,大坑,2019-05-22,23.880628,121.581981,0.0038763501
C0T9F0,水璉,2019-05-22,23.797131,121.542514,0.00403718
C0T9I0,豐濱,2019-05-22,23.583897,121.514806,0.0034711263
C0T9M0,靜浦,2019-05-22,23.455167,121.495028,0.0035159462
C0T9N0,富里,2019-05-22,23.171639,121.249378,0.97865576
C0U600,礁溪,2019-05-22,24.817539,121.765608,0.17689498
C0U650,玉蘭,2019-05-22,24.675286,121.587061,0.17711388
C0U750,龜山島,2019-05-22,24.841667,121.953133,0.8196423
C0U760,東澳,2019-05-22,24.52196,121.83318,0.029981991
C0U770,南澳,2019-05-22,24.44935,121.81022,0.023406146
C0U780,五結,2019-05-22,24.68637,121.79794,0.103377126
C0U860,頭城,2019-05-22,24.85323,121.8308,0.15252809
C0U870,大礁溪,2019-05-22,24.791042,121.675047,0.9521526
C0U880,北關,2019-05-22,24.9072,121.8734,0.75508934
C0U890,三星,2019-05-22,24.66812,121.65302,0.7152705
C0U900,內城,2019-05-22,24.71813,121.68766,0.29763323
C0U910,冬山,2019-05-22,24.63373,121.7937,0.103377126
C0U940,羅東,2019-05-22,24.68184,121.74934,0.10836245
C0U970,大福,2019-05-22,24.80064,121.81389,0.13370396
C0U990,員山,2019-05-22,24.74435,121.72247,0.10836245
C0UA00,土場,2019-05-22,24.576533,121.495333,0.95534825
C0UA80,大溪漁港,2019-05-22,24.941801,121.902955,0.17689501
C0UA90,石城,2019-05-22,24.980444,121.951214,0.1546672
C0UB00,淡江大學蘭陽校園,2019-05-22,24.823239,121.730383,0.9598771
C0UB20,壯圍,2019-05-22,24.7359,121.8163,0.099315345
C0V250,甲仙,2019-05-22,23.080106,120.591758,0.97293663
C0V260,月眉,2019-05-22,22.971003,120.539853,0.73199624
C0V310,美濃,2019-05-22,22.898742,120.519153,0.10740394
C0V350,溪埔,2019-05-22,22.738578,120.446797,0.030417794
C0V360,內門,2019-05-22,22.975481,120.466769,0.18531793
C0V370,古亭坑,2019-05-22,22.893178,120.401947,0.12578285
C0V400,阿公店,2019-05-22,22.804194,120.355528,0.029077271
C0V440,鳳山,2019-05-22,22.646653,120.356122,0.034452684
C0V450,鳳森,2019-05-22,22.545064,120.392592,0.1954358
C0V490,新興,2019-05-22,22.627422,120.298803,0.0344163
C0V530,阿蓮,2019-05-22,22.883208,120.327508,0.030984083
C0V610,梓官,2019-05-22,22.760558,120.267211,0.028484978
C0V620,永安,2019-05-22,22.82315,120.236856,0.03037906
C0V630,茄萣,2019-05-22,22.906642,120.182608,0.030989474
C0V640,湖內,2019-05-22,22.887139,120.2445,0.03154025
C0V650,彌陀,2019-05-22,22.783806,120.246361,0.03037903
C0V660,岡山,2019-05-22,22.797078,120.294958,0.028484978
C0V680,仁武,2019-05-22,22.701083,120.347722,0.033339806
C0V690,鼓山,2019-05-22,22.623325,120.275575,0.034416314
C0V700,三民,2019-05-22,22.645017,120.311233,0.034416314
C0V710,苓雅,2019-05-22,22.622742,120.330669,0.034416314
C0V720,林園,2019-05-22,22.507747,120.394511,0.034416314
C0V730,大寮,2019-05-22,22.605614,120.395717,0.13291995
C0V740,旗山,2019-05-22,22.888614,120.483597,0.11353634
C0V750,路竹,2019-05-22,22.854997,120.259439,0.026462479
C0V760,橋頭,2019-05-22,22.757806,120.30575,0.028679881
C0V770,大社,2019-05-22,22.730306,120.346639,0.033339806
C0V790,萬山,2019-05-22,22.905944,120.688056,0.9851531
C0V800,六龜,2019-05-22,22.997889,120.633583,0.6965496
C0V810,左營,2019-05-22,22.67491,120.28491,0.03309314
C0V820,小林,2019-05-22,23.148408,120.63325,0.9843438
C0V840,鳳鼻頭,2019-05-22,22.5083,120.3591,0.03433801
C0V850,蚵仔寮,2019-05-22,22.7256,120.2527,0.032964725
C0V860,南寮,2019-05-22,22.7616,120.2339,0.029845605
C0V870,文安,2019-05-22,22.8025,120.2164,0.029845605
C0V880,興達,2019-05-22,22.8778,120.2127,0.030989474
C0V890,前鎮,2019-05-22,22.5718,120.3117,0.03433801
C0V900,汕尾,2019-05-22,22.4782,120.4151,0.03111535
C0X050,東河,2019-05-22,23.296598,120.385608,0.9615307
C0X060,下營,2019-05-22,23.22695,120.256261,0.12270295
C0X080,佳里,2019-05-22,23.173039,120.145086,0.1926778
C0X100,臺南市北區,2019-05-22,23.010394,120.194228,0.040354718
C0X110,臺南市南區,2019-05-22,22.961189,120.188378,0.041990284
C0X120,麻豆,2019-05-22,23.183289,120.248611,0.19677503
C0X130,官田,2019-05-22,23.193217,120.315422,0.12433411
C0X140,西港,2019-05-22,23.125608,120.203108,0.1784598
C0X150,安定,2019-05-22,23.102614,120.227839,0.047136825
C0X160,仁德,2019-05-22,22.968258,120.257689,0.03912488
C0X170,關廟,2019-05-22,22.963017,120.327797,0.052918278
C0X180,山上,2019-05-22,23.0757,120.363253,0.15846927
C0X190,安平,2019-05-22,22.993161,120.152181,0.040354718
C0X200,左鎮,2019-05-22,23.056758,120.408522,0.14575022
C0X210,白河,2019-05-22,23.347466,120.414427,0.96757996
C0X220,學甲,2019-05-22,23.230367,120.182187,0.19677503
C0X230,鹽水,2019-05-22,23.272621,120.247641,0.17750326
C0X240,關子嶺,2019-05-22,23.331169,120.508025,0.9750128
C0X250,新營,2019-05-22,23.310689,120.316681,0.11445518
C0X260,後壁,2019-05-22,23.366358,120.362326,0.093597226
C0X280,將軍,2019-05-22,23.214999,120.13577,0.1926778
C0X290,北門,2019-05-22,23.267772,120.125481,0.1926778
C0X300,鹿寮,2019-05-22,23.386047,120.477331,0.9263942
C0X310,七股,2019-05-22,23.147289,120.086253,0.7698167
C0X320,柳營,2019-05-22,23.253328,120.375253,0.9615307
C0Z020,明里,2019-05-22,23.208717,121.262342,0.97530186
C0Z061,玉里,2019-05-22,23.3215,121.339656,0.85373896
C0Z070,舞鶴,2019-05-22,23.46811,121.37407,0.0035404237
C0Z080,富源,2019-05-22,23.587642,121.378225,0.0035564408
C0Z100,東華,2019-05-22,23.89525,121.549833,0.0036905417
C0Z150,吉安光華,2019-05-22,23.930925,121.595153,0.0036890742
C0Z160,鳳林,2019-05-22,23.746114,121.453411,0.0036319138
C0Z170,卓溪,2019-05-22,23.3443,121.3029,0.9392004
C0Z180,新城,2019-05-22,24.03946,121.60454,0.004039894
C0Z190,富世,2019-05-22,24.14743,121.6297,0.011152598
C0Z200,萬榮,2019-05-22,23.709219,121.420106,0.0038214205
C0Z210,瑞穗,2019-05-22,23.5239,121.39021,0.0034791613
C0Z230,和平,2019-05-22,24.30717,121.77007,0.006855825
C0Z270,蕃薯寮,2019-05-22,23.73835,121.540108,0.0036604707
C0Z280,德武,2019-05-22,23.47426,121.41071,0.0035358055
C0Z300,東里,2019-05-22,23.26853,121.30547,0.90797704
C0Z310,清水斷崖,2019-05-22,24.218294,121.689142,0.0071673715
C0Z330,安通山,2019-05-22,23.290728,121.348528,0.9742648
CAA010,國一N013K,2019-05-22,25.06944,121.6281,0.74373883
CAA020,國一S026K,2019-05-22,25.07639,121.4964,0.72145075
CAA030,國三S010K,2019-05-22,25.08,121.6475,0.7198182
CAA040,國三S016K,2019-05-22,25.03306,121.6158,0.8305299
CAA050,國三S037K,2019-05-22,24.9828,121.471,0.74373883
CAA060,國三S042K,2019-05-22,24.96,121.4306,0.7664968
CAA070,國三N046K,2019-05-22,24.95083,121.3958,0.75819355
CAA080,國三S054K,2019-05-22,24.93917,121.3239,0.80308604
CAA090,國三A005K,2019-05-22,25.00194,121.5975,0.7658488
CAAH60,大安森林,2019-05-22,25.02955,121.53628,0.6911939
CAB010,國一S001K,2019-05-22,25.11583,121.7286,0.5513753
CAB020,國一S006K,2019-05-22,25.08694,121.6869,0.5029927
CAB030,國三S004K,2019-05-22,25.11444,121.6886,0.38839903
CAB040,國三S007K,2019-05-22,25.09694,121.6678,0.6201047
CAB050,國三K002K,2019-05-22,25.14583,121.7217,0.6201047
CAC010,國一S072K,2019-05-22,24.89583,121.1342,0.7283618
CAC020,國二E009K,2019-05-22,25.02111,121.2736,0.80318505
CAC030,國三N063K,2019-05-22,24.889,121.26,0.8626552
CAC050,西濱S023K,2019-05-22,25.11649,121.27551,0.6197451
CAC060,西濱S032K,2019-05-22,25.091966,121.192505,0.60650086
CAD010,國一S105K,2019-05-22,24.726316,120.940643,0.6139062
CAD020,國一N077K,2019-05-22,24.885,121.0889,0.73268485
CAD030,國一S082K,2019-05-22,24.87667,121.0467,0.6791344
CAD040,國一S088K,2019-05-22,24.84444,121.0214,0.6860902
CAD050,國一N094K,2019-05-22,24.79778,121.0089,0.69958305
CAD060,國一S098K,2019-05-22,24.76056,120.9911,0.6995834
CAD070,國三N076K,2019-05-22,24.800303,121.195739,0.96005154
CAD080,國三N085K,2019-05-22,24.78333,121.1211,0.9497991
CAD090,國三S103K,2019-05-22,24.75861,120.9608,0.70826256
CAD100,西濱N066K,2019-05-22,24.8956,120.9649,0.47221658
CAD110,西濱S082K,2019-05-22,24.751724,120.905028,0.5957274
CAE010,國一N142K,2019-05-22,24.453119,120.783221,0.99731964
CAE020,國一S114K,2019-05-22,24.668835,120.885811,0.5957274
CAE030,國一S123K,2019-05-22,24.59594,120.86071,0.9984904
CAE040,國一S132K,2019-05-22,24.524506,120.820831,0.99854624
CAE050,國一S152K,2019-05-22,24.375492,120.749184,0.94731534
CAE060,國三N119K,2019-05-22,24.675432,120.847389,0.99661195
CAE070,國三N151K,2019-05-22,24.440218,120.681656,0.9984746
CAE080,國三S140K,2019-05-22,24.522345,120.725006,0.99877286
CAE090,國三S156K,2019-05-22,24.39798,120.669487,0.9988766
CAE100,西濱N107K,2019-05-22,24.5958,120.7394,0.99866486
CAE110,西濱S129K,2019-05-22,24.4472,120.6428,0.9980686
CAF010,國一N174K,2019-05-22,24.2049,120.6552,0.9991502
CAF020,國一S162K,2019-05-22,24.295534,120.695976,0.9975148
CAF030,國一S169K,2019-05-22,24.237116,120.688271,0.9975396
CAF040,國一S188K,2019-05-22,24.118546,120.585747,0.9934786
CAF050,國三N208K,2019-05-22,24.066147,120.660919,0.9934786
CAF060,國三S168K,2019-05-22,24.308519,120.614471,0.99842167
CAF070,國三S173K,2019-05-22,24.27397,120.593079,0.99904937
CAF080,國三S178K,2019-05-22,24.226721,120.589058,0.999101
CAF090,國四E5K,2019-05-22,24.296465,120.643135,0.99888355
CAF100,西濱N151K,2019-05-22,24.275964,120.547681,0.9979183
CAG010,國一N198K,2019-05-22,24.063889,120.523056,0.99180335
CAG030,國一S207K,2019-05-22,23.988304,120.508092,0.992004
CAG040,國三N191K,2019-05-22,24.139256,120.5215,0.99792707
CAG050,國三N196K,2019-05-22,24.107155,120.554482,0.99268556
CAG060,國三S202K,2019-05-22,24.092468,120.603256,0.99268556
CAG070,西濱S173K,2019-05-22,24.1081,120.434576,0.99108386
CAG080,西濱S189K,2019-05-22,23.987857,120.369607,0.998496
CAG090,西濱N210K,2019-05-22,23.843536,120.293236,0.99937356
CAG100,王功漁港,2019-05-22,23.96824,120.32586,0.998496
CAH010,國三N223K,2019-05-22,23.955116,120.662376,0.9858016
CAH020,國三S217K,2019-05-22,24.00683,120.653214,0.998994
CAH030,茶改場竹圍站,2019-05-22,23.860083,120.637528,0.9870647
CAHA00,消防署訓練中心,2019-05-22,23.82137,120.72293,0.9924562
CAJ010,國三N252K,2019-05-22,23.77412,120.64061,0.9896742
CAJ020,國一N234K,2019-05-22,23.74633,120.467926,0.90986043
CAJ030,西濱N222K,2019-05-22,23.737734,120.256132,0.99958014
CAJ040,西濱S241K,2019-05-22,23.623426,120.172646,0.8283718
CAJ050,海口故事園區,2019-05-22,23.57543,120.14121,0.8283718
CAL010,國一N250K,2019-05-22,23.610292,120.436867,0.99777853
CAL020,國一S262K,2019-05-22,23.512333,120.403038,0.9974267
CAL030,國一N268K,2019-05-22,23.460833,120.375833,0.9974267
CAL040,國一N273K,2019-05-22,23.416666,120.355,0.95559597
CAL050,國三N279K,2019-05-22,23.596111,120.523333,0.9617814
CAL060,國三S286K,2019-05-22,23.533917,120.484583,0.9624837
CAL070,國三N295K,2019-05-22,23.468598,120.499369,0.9558813
CAL080,國三N303K,2019-05-22,23.428611,120.452416,0.9973697
CAL090,西濱S257K,2019-05-22,23.502278,120.171861,0.8136657
CAL100,西濱S267K,2019-05-22,23.41613,120.162872,0.80099547
CAL110,布袋國中,2019-05-22,23.35893,120.18026,0.16600884
CAN010,國一N288K,2019-05-22,23.30609,120.290033,0.113196835
CAN020,國一S306K,2019-05-22,23.1565,120.239513,0.19677503
CAN030,國一N316K,2019-05-22,23.07309,120.253014,0.036135685
CAN040,國一N323K,2019-05-22,23.00421,120.245922,0.043737955
CAN050,國一N335K,2019-05-22,22.897584,120.269895,0.027625082
CAN060,國三S311K,2019-05-22,23.346388,120.438888,0.9721683
CAN070,國三S329K,2019-05-22,23.212777,120.355833,0.11496304
CAN080,國三N336K,2019-05-22,23.154722,120.345,0.12526058
CAN090,國三S342K,2019-05-22,23.106694,120.327528,0.041631065
CAN100,國三S366K,2019-05-22,22.9077,120.3513,0.19226281
CAN110,西濱S280K,2019-05-22,23.3052,120.14891,0.1926773
CAN120,西濱N304K,2019-05-22,23.103439,120.086694,0.24210335
CAN130,水試所海水繁養殖中心,2019-05-22,23.120802,120.07968,0.23767062
CAN140,六官養殖協會,2019-05-22,23.22881,120.29962,0.12400193
CAP010,國一S342K,2019-05-22,22.845555,120.295,0.028484978
CAP020,國一S346K,2019-05-22,22.812222,120.314166,0.028484978
CAP030,國一N351K,2019-05-22,22.765833,120.328888,0.028679881
CAP040,國一N361K,2019-05-22,22.680555,120.328611,0.03309314
CAP050,國三N372K,2019-05-22,22.858611,120.373611,0.029665574
CAP060,國三S385K,2019-05-22,22.767777,120.444444,0.40251735
CAP070,高雄燈塔,2019-05-22,22.6146,120.2647,0.034416314
CAQ010,國三N425K,2019-05-22,22.480277,120.531666,0.044976816
CAQ020,國三S415K,2019-05-22,22.568,120.528,0.129977
CAQ030,崎峰國小,2019-05-22,22.42565,120.49521,0.045099806
E2K600,四湖植物園,2019-05-22,23.676986,120.163433,0.9995489
E2P980,林試六龜中心,2019-05-22,22.991703,120.645722,0.7193328
E2S390,太麻里分所,2019-05-22,22.5988,120.9811,0.37968186
E2S960,林試太麻里2,2019-05-22,22.598014,120.989761,0.13032204
E2S980,林試太麻里1,2019-05-22,22.598922,120.980044,0.37968186
G2AI50,關渡,2019-05-22,25.11575,121.492,0.7043555
G2F820,農試所(霧峰),2019-05-22,24.031261,120.688133,0.998994
G2L020,嘉義分所,2019-05-22,23.485028,120.473806,0.9558813
G2M350,溪口農場,2019-05-22,23.58565,120.408111,0.99797124
G2P820,鳳山園試所,2019-05-22,22.646611,120.356083,0.034452684
K2E360,苗栗農改場,2019-05-22,24.495722,120.829111,0.9971565
K2E710,大湖分場,2019-05-22,24.422861,120.871833,0.99728596
K2F750,種苗改良場,2019-05-22,24.225972,120.800917,0.9938664
U2HA50,臺大竹山,2019-05-22,23.756972,120.681556,0.99447596
V2C250,八德合作社,2019-05-22,24.93775,121.266389,0.80666196
V2C260,八德蔬果,2019-05-22,24.978508,121.281819,0.7994154
V2K610,大庄合作社,2019-05-22,23.8068,120.367939,0.9982509
V2K620,麥寮合作社,2019-05-22,23.753836,120.294783,0.99937356
