站號,站名,日期,lat,lon,BlastGRU-TW
466881,新北,2019-08-08,24.9593,121.52,0.050784886
466900,淡水,2019-08-08,25.164889,121.448906,0.08320318
466920,臺北,2019-08-08,25.037658,121.514853,0.04890745
467441,高雄,2019-08-08,22.7304,120.3125,0.5189962
467480,嘉義,2019-08-08,23.495925,120.432906,0.34420055
467490,臺中,2019-08-08,24.145736,120.684075,0.43235326
C0A530,坪林,2019-08-08,24.938183,121.70975,0.07328076
C0A540,四堵,2019-08-08,24.8926,121.745736,0.08050579
C0A550,泰平,2019-08-08,24.971197,121.823711,0.13094588
C0A890,雙溪,2019-08-08,25.036003,121.864242,0.078319974
C0A920,富貴角,2019-08-08,25.263783,121.565258,0.09318993
C0A931,三和,2019-08-08,25.233153,121.595236,0.08063233
C0AC70,信義,2019-08-08,25.037822,121.564597,0.04890745
C0AC80,文山,2019-08-08,25.00235,121.575728,0.054053016
C0ACA0,新莊,2019-08-08,25.051478,121.446756,0.0651074
C0AH50,林口,2019-08-08,25.072181,121.38084,0.060447663
C0AH70,松山,2019-08-08,25.04871,121.55042,0.04890745
C0AH80,深坑,2019-08-08,25.002703,121.628328,0.05405305
C0AJ60,六塊厝,2019-08-08,25.24,121.4481,0.081614085
C0AJ70,田寮,2019-08-08,25.2698,121.4886,0.077523254
