站號,站名,日期,lat,lon,BlastGRU-TW
466881,新北,2019-03-02,24.9593,121.52,0.009832567
466900,淡水,2019-03-02,25.164889,121.448906,0.006601707
466920,臺北,2019-03-02,25.037658,121.514853,0.01123237
467441,高雄,2019-03-02,22.7304,120.3125,0.08430721
467480,嘉義,2019-03-02,23.495925,120.432906,0.009714323
467490,臺中,2019-03-02,24.145736,120.684075,0.0007091694
C0A540,四堵,2019-03-02,24.8926,121.745736,0.049130913
C0A550,泰平,2019-03-02,24.971197,121.823711,0.00549105
C0A560,福山,2019-03-02,24.776203,121.502811,0.012710119
C0A931,三和,2019-03-02,25.233153,121.595236,0.003874425
C0A940,金山,2019-03-02,25.223628,121.643967,0.004777963
C0A950,鼻頭角,2019-03-02,25.129036,121.923372,0.02734904
C0AD10,八里,2019-03-02,25.150211,121.403947,0.006601707
C0AD30,蘆洲,2019-03-02,25.086594,121.472331,0.007044974
C0AD40,土城,2019-03-02,24.973208,121.445169,0.0066560176
C0AI10,屈尺,2019-03-02,24.92184,121.54475,0.008144858
C0AI20,白沙灣,2019-03-02,25.283128,121.519058,0.0052613914
C0AI30,三重,2019-03-02,25.057328,121.500629,0.007044974
C0B010,七堵,2019-03-02,25.094819,121.71713,0.02479409
C0B020,基隆嶼,2019-03-02,25.19141,121.78391,0.029881557
