站號,站名,日期,lat,lon,BlastGRU-TW
12J990,口湖工作站,2019-02-19,23.589978,120.180394,0.061834767
12Q970,東港工作站,2019-02-19,22.479997,120.466058,0.073805496
12Q980,恆春工作站,2019-02-19,22.079678,120.714425,0.0192564
466881,新北,2019-02-19,24.9593,121.52,0.0010012973
466900,淡水,2019-02-19,25.164889,121.448906,0.00059364084
466920,臺北,2019-02-19,25.037658,121.514853,0.0010483819
466940,基隆,2019-02-19,25.133314,121.740475,0.0012380005
466990,花蓮,2019-02-19,23.975128,121.613275,0.7584423
467050,新屋,2019-02-19,25.006744,121.047486,0.002321734
467080,宜蘭,2019-02-19,24.763975,121.756528,0.003671731
467270,田中,2019-02-19,23.873803,120.581286,0.005340231
467300,東吉島,2019-02-19,23.25695,119.667467,0.0010363809
467350,澎湖,2019-02-19,23.565503,119.563094,0.00063654664
467410,臺南,2019-02-19,22.993239,120.204772,0.13338937
467420,永康,2019-02-19,23.038386,120.2367,0.1391517
467441,高雄,2019-02-19,22.7304,120.3125,0.11717129
467480,嘉義,2019-02-19,23.495925,120.432906,0.005353702
467490,臺中,2019-02-19,24.145736,120.684075,0.0016937741
467540,大武,2019-02-19,22.355675,120.903789,0.3319467
467571,新竹,2019-02-19,24.827853,121.014219,0.002169897
467590,恆春,2019-02-19,22.003897,120.746339,0.012883708
467610,成功,2019-02-19,23.097486,121.373428,0.5201741
467620,蘭嶼,2019-02-19,22.036969,121.558339,0.008607613
467660,臺東,2019-02-19,22.752211,121.154586,0.42070544
467790,墾丁雷達站,2019-02-19,21.948235,120.808028,0.008451224
72AI40,桃改樹林分場,2019-02-19,24.944503,121.386972,0.0007491598
72C440,桃園農改,2019-02-19,24.950944,121.030583,0.0023879702
72D680,桃改新埔分場,2019-02-19,24.834444,121.066111,0.0011295726
72G600,臺中農改,2019-02-19,24.003028,120.534389,0.027822612
72K220,南改斗南分場,2019-02-19,23.634556,120.477333,0.011040711
72M360,南改義竹分場,2019-02-19,23.360694,120.279361,0.09062947
72M700,南改鹿草分場,2019-02-19,23.416869,120.283061,0.10366019
72N100,臺南農改,2019-02-19,23.0605,120.342194,0.1857464
72N240,七股研究中心,2019-02-19,23.081672,120.062894,0.07659561
72Q010,高雄農改,2019-02-19,22.709333,120.525889,0.051168695
72S200,東改班鳩分場,2019-02-19,22.829528,121.077694,0.15319583
72S590,東改賓朗果園,2019-02-19,22.813889,121.071278,0.09908586
72T250,花蓮農改,2019-02-19,23.975222,121.563889,0.71192026
72U480,花改蘭陽分場,2019-02-19,24.686306,121.716583,0.006220632
72V140,高改旗南分場,2019-02-19,22.857861,120.516667,0.03837858
82A750,茶改北部分場,2019-02-19,24.955778,121.631222,0.0024299407
82C160,茶改場,2019-02-19,24.908472,121.185333,0.00062601967
82H840,茶改南部分場,2019-02-19,23.762528,120.7405,0.0020595754
82S580,茶改東部分場,2019-02-19,22.907694,121.130139,0.092423275
A2C560,農工中心,2019-02-19,24.985917,121.239833,0.00068775716
A2K360,水試臺西試驗場,2019-02-19,23.717231,120.190522,0.026551455
A2K570,古坑花卉中心,2019-02-19,23.63353,120.55239,0.0056110476
A2K630,臺大雲林校區,2019-02-19,23.730628,120.423903,0.029763373
A2N290,臺南蘭花園區,2019-02-19,23.340258,120.379661,0.02305915
B2E890,畜試北區分所,2019-02-19,24.527806,120.770972,0.0010081006
B2N890,畜試所,2019-02-19,23.058972,120.336406,0.1857464
B2Q810,畜試南區分所,2019-02-19,21.945583,120.802167,0.01469133
B2U990,畜試東區分所,2019-02-19,24.669039,121.832561,0.006964155
C0A520,山佳,2019-02-19,24.974944,121.402008,0.0007491598
C0A530,坪林,2019-02-19,24.938183,121.70975,0.0020718428
C0A540,四堵,2019-02-19,24.8926,121.745736,0.0014721607
C0A550,泰平,2019-02-19,24.971197,121.823711,0.0013356119
C0A560,福山,2019-02-19,24.776203,121.502811,0.0024299407
C0A570,桶後,2019-02-19,24.848222,121.597992,0.001797746
C0A640,石碇,2019-02-19,24.993969,121.662917,0.0017638046
C0A650,火燒寮,2019-02-19,25.002719,121.742892,0.0014982005
C0A660,瑞芳,2019-02-19,25.113169,121.801147,0.0026808006
C0A770,科教館,2019-02-19,25.096356,121.516507,0.0007883535
C0A860,大坪,2019-02-19,25.165914,121.632969,0.0009002203
C0A880,福隆,2019-02-19,25.017842,121.942083,0.0039125746
C0A890,雙溪,2019-02-19,25.036003,121.864242,0.0009307217
C0A920,富貴角,2019-02-19,25.263783,121.565258,0.00057396444
C0A931,三和,2019-02-19,25.233153,121.595236,0.0015896949
C0A940,金山,2019-02-19,25.223628,121.643967,0.00059606886
C0A950,鼻頭角,2019-02-19,25.129036,121.923372,0.0040902584
C0A970,三貂角,2019-02-19,25.007606,122.002058,0.0035717275
C0A980,社子,2019-02-19,25.109508,121.469681,0.00080295507
C0A9C0,天母,2019-02-19,25.117494,121.537169,0.00076149235
C0A9F0,內湖,2019-02-19,25.079422,121.57545,0.0010483819
C0AC60,三峽,2019-02-19,24.939025,121.369728,0.0009801564
C0AC70,信義,2019-02-19,25.037822,121.564597,0.0010483819
C0AC80,文山,2019-02-19,25.00235,121.575728,0.0009388179
C0ACA0,新莊,2019-02-19,25.051478,121.446756,0.0007509664
C0AD00,三芝,2019-02-19,25.258131,121.501917,0.0005648303
C0AD10,八里,2019-02-19,25.150211,121.403947,0.00059364084
C0AD30,蘆洲,2019-02-19,25.086594,121.472331,0.0007883535
C0AD40,土城,2019-02-19,24.973208,121.445169,0.0007748814
C0AD50,鶯歌,2019-02-19,24.951533,121.346294,0.0005895526
C0AG80,中和,2019-02-19,24.991622,121.491792,0.0010483819
C0AH00,汐止,2019-02-19,25.066881,121.658778,0.0011567208
C0AH10,永和,2019-02-19,25.01125,121.508111,0.0010747373
C0AH40,平等,2019-02-19,25.129142,121.577086,0.0011213163
C0AH50,林口,2019-02-19,25.072181,121.38084,0.0011180174
C0AH70,松山,2019-02-19,25.04871,121.55042,0.0010483819
C0AH80,深坑,2019-02-19,25.002703,121.628328,0.0009388179
C0AI00,五股,2019-02-19,25.07445,121.42728,0.0006904237
C0AI10,屈尺,2019-02-19,24.92184,121.54475,0.0009388179
C0AI20,白沙灣,2019-02-19,25.283128,121.519058,0.0006252293
C0AI30,三重,2019-02-19,25.057328,121.500629,0.0007883535
C0AI40,石牌,2019-02-19,25.115597,121.513139,0.0007748814
C0AJ20,野柳,2019-02-19,25.20703,121.690021,0.0011567208
C0AJ30,淡水觀海,2019-02-19,25.184591,121.408616,0.00060090196
C0AJ40,石門,2019-02-19,25.273672,121.601198,0.00050882803
C0AJ50,水湳洞,2019-02-19,25.123695,121.862238,0.0011567208
C0AJ60,六塊厝,2019-02-19,25.24,121.4481,0.00060090196
C0AJ70,田寮,2019-02-19,25.2698,121.4886,0.0006380535
C0AJ80,板橋,2019-02-19,25.0107,121.4489,0.0007748814
C0AJ90,澳底,2019-02-19,25.0552,121.9253,0.0039125746
C0B010,七堵,2019-02-19,25.094819,121.71713,0.0010266482
C0B020,基隆嶼,2019-02-19,25.19141,121.78391,0.0011567208
C0B040,大武崙,2019-02-19,25.166676,121.706993,0.0010266473
C0B050,八斗子,2019-02-19,25.144754,121.79167,0.001339817
C0B060,暖暖,2019-02-19,25.0957,121.7403,0.00082720886
C0C460,復興,2019-02-19,24.820208,121.352281,0.0018992651
C0C480,桃園,2019-02-19,24.992425,121.323172,0.0006923553
C0C490,八德,2019-02-19,24.928708,121.283289,0.0011141145
C0C590,觀音,2019-02-19,25.027072,121.153317,0.00053488277
C0C620,蘆竹,2019-02-19,25.084275,121.265767,0.000576935
C0C630,大溪,2019-02-19,24.882853,121.265547,0.0009246878
C0C650,平鎮,2019-02-19,24.897503,121.214636,0.00062601967
C0C660,楊梅,2019-02-19,24.912375,121.143047,0.0006857808
C0C670,龍潭,2019-02-19,24.870056,121.221389,0.00070084806
C0C680,龜山,2019-02-19,25.02846,121.38656,0.0013328254
C0C700,中壢,2019-02-19,24.977661,121.256375,0.00066153257
C0C710,大溪永福,2019-02-19,24.892936,121.324975,0.0006520697
C0C720,竹圍,2019-02-19,25.112692,121.239824,0.00059364084
C0C730,中大臨海站,2019-02-19,24.966126,121.008581,0.0022176744
C0C740,觀音工業區,2019-02-19,25.064764,121.114856,0.0020948548
C0C750,新興坑尾,2019-02-19,25.0061,121.0971,0.0010489344
C0D430,峨眉,2019-02-19,24.6905,121.017189,0.0023703522
C0D480,打鐵坑,2019-02-19,24.849664,121.150789,0.0008396754
C0D540,橫山,2019-02-19,24.71116,121.11693,0.00072990597
C0D560,竹東,2019-02-19,24.767147,121.057881,0.0007202733
C0D580,寶山,2019-02-19,24.735006,121.025192,0.0011920013
C0D590,新豐,2019-02-19,24.87068,120.97721,0.0025649627
C0D650,湖口,2019-02-19,24.904794,121.043628,0.0024391424
C0D660,新竹市東區,2019-02-19,24.798681,120.986942,0.0018064869
C0D670,海天一線,2019-02-19,24.831986,120.914438,0.0023630946
C0D680,香山濕地,2019-02-19,24.783581,120.914988,0.0024152834
C0D690,外湖,2019-02-19,24.917735,120.968711,0.0022176744
C0D700,關西,2019-02-19,24.7977,121.1732,0.0007329534
C0E420,竹南,2019-02-19,24.708978,120.888897,0.002511908
C0E430,南庄,2019-02-19,24.601775,121.000214,0.0031754817
C0E520,大湖,2019-02-19,24.41494,120.87087,0.0030303595
C0E540,後龍,2019-02-19,24.606489,120.783933,0.0009376192
C0E550,明德,2019-02-19,24.583486,120.885411,0.0014748373
C0E590,通霄,2019-02-19,24.471892,120.704622,0.0011010373
C0E730,頭份,2019-02-19,24.688247,120.912206,0.002511908
C0E740,造橋,2019-02-19,24.637056,120.864778,0.0011417352
C0E750,苗栗,2019-02-19,24.564569,120.824575,0.000856513
C0E780,銅鑼,2019-02-19,24.489681,120.790853,0.0021744964
C0E791,卓蘭,2019-02-19,24.3126,120.8244,0.0033738567
C0E810,西湖,2019-02-19,24.562947,120.7485,0.00088571256
C0E820,獅潭,2019-02-19,24.539133,120.920042,0.001324546
C0E830,苑裡,2019-02-19,24.439714,120.653053,0.002286736
C0E850,大河,2019-02-19,24.618069,120.948578,0.0013141375
C0E870,高鐵苗栗,2019-02-19,24.60725,120.826094,0.0009195958
C0E910,海埔,2019-02-19,24.648767,120.772435,0.003099955
C0E920,通霄漁港,2019-02-19,24.498589,120.673876,0.001271843
C0E930,龍鳳,2019-02-19,24.700034,120.859125,0.0013076029
C0F0B0,石岡,2019-02-19,24.276061,120.777644,0.004357278
C0F850,東勢,2019-02-19,24.246428,120.833047,0.0025732939
C0F930,大甲,2019-02-19,24.347667,120.640403,0.0026476663
C0F970,大坑,2019-02-19,24.173142,120.722289,0.0015060075
C0F9A0,中竹林,2019-02-19,24.103556,120.751061,0.0018694052
C0F9I0,神岡,2019-02-19,24.272481,120.658314,0.0022945853
C0F9K0,大安,2019-02-19,24.345061,120.588025,0.004198738
C0F9L0,后里,2019-02-19,24.310436,120.729725,0.001526492
C0F9M0,豐原,2019-02-19,24.254322,120.720692,0.0017981577
C0F9N0,大里,2019-02-19,24.092464,120.701378,0.0037160588
C0F9O0,潭子,2019-02-19,24.213106,120.703933,0.0026099852
C0F9P0,清水,2019-02-19,24.312297,120.562242,0.0047971928
C0F9Q0,外埔,2019-02-19,24.347817,120.705686,0.0034228682
C0F9R0,龍井,2019-02-19,24.184536,120.528972,0.0040383157
C0F9S0,烏日,2019-02-19,24.107058,120.624103,0.019549258
C0F9T0,西屯,2019-02-19,24.179494,120.641275,0.002672471
C0F9U0,南屯,2019-02-19,24.137006,120.637969,0.0037160604
C0F9X0,大雅(中科園區),2019-02-19,24.21528,120.62445,0.0019497918
C0FA10,松柏,2019-02-19,24.429115,120.617482,0.002595054
C0FA20,溫寮,2019-02-19,24.372177,120.583125,0.002595054
C0FA30,梧棲,2019-02-19,24.256003,120.523381,0.0040383157
C0FA40,臺中電廠,2019-02-19,24.2146,120.4907,0.0040383157
C0FA50,霧峰,2019-02-19,24.0419,120.6995,0.0019075578
C0G620,芬園,2019-02-19,24.015678,120.6213,0.003653247
C0G640,鹿港,2019-02-19,24.0753,120.430481,0.033908352
C0G650,員林,2019-02-19,23.946503,120.585597,0.0028215877
C0G660,溪湖,2019-02-19,23.94835,120.479122,0.009995854
C0G720,溪州,2019-02-19,23.851589,120.499093,0.019459238
C0G730,二林,2019-02-19,23.903325,120.376081,0.030858578
C0G740,大城,2019-02-19,23.852487,120.320935,0.024401218
C0G770,福興,2019-02-19,24.041289,120.437669,0.033908352
C0G780,秀水,2019-02-19,24.03405,120.503869,0.03144902
C0G800,埔鹽,2019-02-19,24.000394,120.431683,0.033908352
C0G810,埔心,2019-02-19,23.947633,120.525456,0.0087693175
C0G820,田尾,2019-02-19,23.901669,120.509389,0.007829769
C0G830,埤頭,2019-02-19,23.866003,120.452806,0.023140857
C0G840,北斗,2019-02-19,23.877586,120.514222,0.007829769
C0G860,社頭,2019-02-19,23.897647,120.5862,0.0026826707
C0G870,芳苑,2019-02-19,23.922303,120.320025,0.027959783
C0G880,二水,2019-02-19,23.810742,120.6173,0.004772549
C0G890,伸港,2019-02-19,24.148933,120.484403,0.0056614247
C0G900,線西,2019-02-19,24.143358,120.443536,0.0072438004
C0G910,花壇,2019-02-19,24.032076,120.549461,0.024050793
C0G920,永靖,2019-02-19,23.924703,120.547533,0.007829769
C0G940,竹塘,2019-02-19,23.848253,120.386764,0.033069644
C0G950,防潮門,2019-02-19,24.1835,120.4871,0.0043478343
C0G960,福寶,2019-02-19,24.0443,120.3814,0.038262032
C0G970,三豐,2019-02-19,23.882,120.2895,0.027959783
C0H890,埔里,2019-02-19,23.972169,120.952425,0.006066872
C0H950,中寮,2019-02-19,23.884447,120.766406,0.0017024964
C0H960,草屯,2019-02-19,23.973672,120.68085,0.004376469
C0I110,竹山,2019-02-19,23.761225,120.688156,0.0022495398
C0I360,水里,2019-02-19,23.812553,120.849792,0.005115146
C0I380,集集,2019-02-19,23.828206,120.801467,0.006057241
C0I410,名間,2019-02-19,23.837053,120.701447,0.0070091067
C0I420,國姓,2019-02-19,24.037803,120.855072,0.005178875
C0I460,南投,2019-02-19,23.911469,120.687331,0.004491038
C0K250,崙背,2019-02-19,23.75555,120.318925,0.024589576
C0K280,四湖,2019-02-19,23.630414,120.227125,0.033079423
C0K291,宜梧,2019-02-19,23.536281,120.169329,0.086366214
C0K330,虎尾,2019-02-19,23.719183,120.442036,0.026064692
C0K390,土庫,2019-02-19,23.679029,120.395574,0.029763373
C0K400,斗六,2019-02-19,23.720583,120.541127,0.0052439803
C0K410,北港,2019-02-19,23.573957,120.292802,0.05897518
C0K420,西螺,2019-02-19,23.800407,120.467394,0.0072905263
C0K430,褒忠,2019-02-19,23.690938,120.303634,0.037820637
C0K440,二崙,2019-02-19,23.772797,120.408944,0.030070847
C0K450,大埤,2019-02-19,23.646074,120.431537,0.015149734
C0K460,斗南,2019-02-19,23.678734,120.478359,0.006258549
C0K470,林內,2019-02-19,23.748675,120.609642,0.00521182
C0K480,莿桐,2019-02-19,23.761192,120.502372,0.0065327785
C0K500,元長,2019-02-19,23.64981,120.315024,0.026579503
C0K510,水林,2019-02-19,23.572924,120.24597,0.057277545
C0K530,臺西,2019-02-19,23.701547,120.197559,0.024327468
C0K550,蔦松,2019-02-19,23.514319,120.229736,0.08054328
C0K560,棋山,2019-02-19,23.68645,120.603417,0.015592422
C0K580,高鐵雲林,2019-02-19,23.737456,120.417944,0.02976333
C0K590,雲林東勢,2019-02-19,23.674192,120.255721,0.037820637
C0K600,箔子寮,2019-02-19,23.6197,120.14,0.061834767
C0M410,馬頭山,2019-02-19,23.324361,120.582017,0.0170606
C0M520,東後寮,2019-02-19,23.369908,120.248065,0.10920308
C0M640,中埔,2019-02-19,23.42538,120.5229,0.008386625
C0M650,朴子,2019-02-19,23.43463,120.23902,0.103469364
C0M660,溪口,2019-02-19,23.604131,120.403569,0.0047125192
C0M670,大林,2019-02-19,23.600616,120.45841,0.0033393025
C0M680,太保,2019-02-19,23.455062,120.331455,0.12361434
C0M690,水上,2019-02-19,23.419734,120.388909,0.0060000885
C0M700,竹崎,2019-02-19,23.526178,120.555508,0.0037494653
C0M710,東石,2019-02-19,23.458927,120.15385,0.08054328
C0M720,番路,2019-02-19,23.464657,120.554156,0.0036862188
C0M730,嘉義市東區,2019-02-19,23.457673,120.460531,0.0035956912
C0M740,六腳,2019-02-19,23.492871,120.290625,0.13840294
C0M750,布袋,2019-02-19,23.380878,120.167789,0.103469364
C0M760,民雄,2019-02-19,23.551754,120.428457,0.004119099
C0M770,嘉義梅山,2019-02-19,23.585398,120.555587,0.011374227
C0M780,鹿草,2019-02-19,23.41134,120.30835,0.09253174
C0M790,新港,2019-02-19,23.553269,120.345728,0.051979803
C0M800,茶山,2019-02-19,23.299075,120.664767,0.022443935
C0M880,好美里,2019-02-19,23.3364,120.138,0.07536142
C0N010,鯤鯓國小,2019-02-19,23.1879,120.0889,0.05991774
C0N020,城西,2019-02-19,23.0568,120.0956,0.0721661
C0N030,四草,2019-02-19,23.0235,120.1116,0.2835412
C0N040,蘆竹溝,2019-02-19,23.2344,120.0961,0.05991774
C0N050,蚵寮,2019-02-19,23.301,120.1104,0.05991774
C0O810,曾文,2019-02-19,23.219681,120.497328,0.008703355
C0O830,北寮,2019-02-19,23.079561,120.495008,0.047678832
C0O840,王爺宮,2019-02-19,23.222064,120.40085,0.008703355
C0O860,大內,2019-02-19,23.11885,120.36083,0.10774354
C0O900,善化,2019-02-19,23.112883,120.297219,0.20641452
C0O930,玉井,2019-02-19,23.126042,120.46055,0.050749213
C0O950,安南,2019-02-19,23.076694,120.144861,0.058370132
C0O960,崎頂,2019-02-19,22.959547,120.369317,0.050945442
C0O970,虎頭埤,2019-02-19,23.021375,120.347878,0.2686406
C0O980,新市,2019-02-19,23.061614,120.298197,0.20641433
C0O990,媽廟,2019-02-19,22.99175,120.293525,0.28274217
C0R150,三地門,2019-02-19,22.709889,120.639944,0.09377065
C0R160,鹽埔,2019-02-19,22.739558,120.530778,0.051168695
C0R170,屏東,2019-02-19,22.660269,120.494072,0.12891902
C0R190,赤山,2019-02-19,22.592333,120.614306,0.06914449
C0R220,潮州,2019-02-19,22.534361,120.54,0.058932148
C0R240,來義,2019-02-19,22.527306,120.625111,0.088693604
C0R260,春日,2019-02-19,22.370361,120.628306,0.103784546
C0R270,琉球嶼,2019-02-19,22.332244,120.362236,0.099917844
C0R280,檳榔,2019-02-19,22.076078,120.836777,0.00072483404
C0R320,車城,2019-02-19,22.0744,120.716247,0.0192564
C0R341,牡丹,2019-02-19,22.130036,120.792639,0.066549405
C0R350,貓鼻頭,2019-02-19,21.921774,120.7358,0.011152797
C0R470,高樹,2019-02-19,22.826389,120.600806,0.09014248
C0R480,長治,2019-02-19,22.693128,120.542622,0.04876808
C0R490,九如,2019-02-19,22.7405,120.490503,0.12329623
C0R520,崁頂,2019-02-19,22.514781,120.506914,0.06855076
C0R540,佳冬,2019-02-19,22.419456,120.552375,0.073805496
C0R550,新埤,2019-02-19,22.467947,120.582894,0.07193113
C0R560,新園,2019-02-19,22.5434,120.461558,0.06855076
C0R570,麟洛,2019-02-19,22.65078,120.52719,0.12329623
C0R580,南州,2019-02-19,22.48591,120.50274,0.073805496
C0R590,里港,2019-02-19,22.77919,120.49459,0.041226353
C0R620,墾雷,2019-02-19,21.900836,120.855269,0.011152819
C0R640,東港,2019-02-19,22.46247,120.44074,0.08642088
C0R650,竹田,2019-02-19,22.58486,120.54344,0.07523845
C0R660,枋寮,2019-02-19,22.367722,120.590647,0.06508574
C0R670,楓港,2019-02-19,22.190131,120.692156,0.1526114
C0R680,佳樂水,2019-02-19,21.993578,120.861633,0.01469133
C0R690,墾丁,2019-02-19,21.966756,120.810269,0.0006084368
C0R700,枋山,2019-02-19,22.246844,120.661086,0.1526114
C0R710,龍磐,2019-02-19,21.931672,120.838942,0.003241528
C0R720,旭海,2019-02-19,22.205403,120.887614,0.028285982
C0R730,大坪頂,2019-02-19,22.024633,120.69355,0.0017472103
C0R740,獅子,2019-02-19,22.201569,120.70525,0.13298444
C0R760,南仁湖,2019-02-19,22.084681,120.863353,0.00032378698
C0R770,保力,2019-02-19,22.071122,120.764111,0.0054612015
C0R780,滿州,2019-02-19,22.024403,120.839892,0.009769663
C0R790,九棚,2019-02-19,22.14195,120.889281,0.04780512
C0R800,丹路,2019-02-19,22.204481,120.750989,0.08823751
C0R810,內獅,2019-02-19,22.305064,120.642986,0.12720403
C0R830,高士,2019-02-19,22.121825,120.836781,0.00022978042
C0R850,林邊,2019-02-19,22.4634,120.5339,0.06855076
C0R860,鼻頭,2019-02-19,22.1043,120.8979,0.011162899
C0R870,興海,2019-02-19,21.9752,120.8439,0.01469133
C0R880,後壁湖,2019-02-19,21.9457,120.7457,0.022105573
C0R890,山海,2019-02-19,21.9878,120.7091,0.0192564
C0R900,竹坑,2019-02-19,22.1385,120.7022,0.2136672
C0R910,下寮,2019-02-19,22.3929,120.5548,0.073805496
C0R920,塭仔,2019-02-19,22.4169,120.5197,0.07984871
C0R930,萬丹,2019-02-19,22.5885,120.4851,0.07523845
C0R940,加祿堂,2019-02-19,22.3363,120.6217,0.12720403
C0S710,鹿野,2019-02-19,22.917711,121.122994,0.030855808
C0S730,綠島,2019-02-19,22.6672,121.47533,0.40264687
C0S740,池上,2019-02-19,23.119628,121.209469,0.07555509
C0S770,大溪山,2019-02-19,22.478475,120.943325,0.17866755
C0S790,金崙,2019-02-19,22.538122,120.966875,0.33454427
C0S810,東河,2019-02-19,22.972672,121.303986,0.2927565
C0S830,長濱,2019-02-19,23.286817,121.411975,0.013925198
C0S840,南田,2019-02-19,22.279725,120.889208,0.20891128
C0S890,關山,2019-02-19,23.0395,121.175017,0.18745966
C0S900,蘭嶼高中,2019-02-19,22.04909,121.51214,0.13609485
C0S910,蘭嶼燈塔,2019-02-19,22.081197,121.503117,0.09798948
C0S920,金峰嘉蘭,2019-02-19,22.594789,120.960825,0.4119702
C0S930,延平,2019-02-19,22.902581,121.084058,0.15461195
C0S940,石寧山,2019-02-19,23.223772,121.406639,0.047759186
C0S950,七塊厝,2019-02-19,22.954453,121.229922,0.023522051
C0S960,香蘭,2019-02-19,22.587569,120.993375,0.48678058
C0S970,加津林,2019-02-19,22.416211,120.926942,0.31294456
C0S990,山豬窟,2019-02-19,22.318619,120.857372,0.0040423297
C0SA00,歷坵,2019-02-19,22.520969,120.89185,0.089368224
C0SA10,檳榔四格山,2019-02-19,22.810031,121.109308,0.048968524
C0SA30,都歷,2019-02-19,23.020333,121.323642,0.44408792
C0SA40,瑞和,2019-02-19,22.974361,121.156697,0.22987425
C0SA60,知本（水試所）,2019-02-19,22.702394,121.082761,0.2910374
C0SA80,土坂,2019-02-19,22.453108,120.887572,0.37649244
C0SA90,達仁林場,2019-02-19,22.264347,120.823972,0.010392502
C0T870,鯉魚潭,2019-02-19,23.935639,121.508944,0.7522087
C0T900,西林,2019-02-19,23.8119,121.441458,0.67939615
C0T960,光復,2019-02-19,23.660694,121.424964,0.77422905
C0T9A0,月眉山,2019-02-19,23.809928,121.539828,0.19441652
C0T9D0,和中,2019-02-19,24.26676,121.74103,0.45093828
C0T9E0,大坑,2019-02-19,23.880628,121.581981,0.34209493
C0T9F0,水璉,2019-02-19,23.797131,121.542514,0.4826543
C0T9I0,豐濱,2019-02-19,23.583897,121.514806,0.8042746
C0T9M0,靜浦,2019-02-19,23.455167,121.495028,0.86466676
C0T9N0,富里,2019-02-19,23.171639,121.249378,0.032689597
C0U600,礁溪,2019-02-19,24.817539,121.765608,0.0035401897
C0U650,玉蘭,2019-02-19,24.675286,121.587061,0.004114395
C0U750,龜山島,2019-02-19,24.841667,121.953133,0.0021529899
C0U760,東澳,2019-02-19,24.52196,121.83318,0.0065512117
C0U770,南澳,2019-02-19,24.44935,121.81022,0.03312547
C0U780,五結,2019-02-19,24.68637,121.79794,0.006964155
C0U860,頭城,2019-02-19,24.85323,121.8308,0.003671731
C0U870,大礁溪,2019-02-19,24.791042,121.675047,0.0017831433
C0U880,北關,2019-02-19,24.9072,121.8734,0.0012126779
C0U890,三星,2019-02-19,24.66812,121.65302,0.0025039562
C0U900,內城,2019-02-19,24.71813,121.68766,0.0031733783
C0U910,冬山,2019-02-19,24.63373,121.7937,0.006964155
C0U940,羅東,2019-02-19,24.68184,121.74934,0.0066001182
C0U970,大福,2019-02-19,24.80064,121.81389,0.003816114
C0U990,員山,2019-02-19,24.74435,121.72247,0.0066001182
C0UA00,土場,2019-02-19,24.576533,121.495333,0.003157506
C0UA80,大溪漁港,2019-02-19,24.941801,121.902955,0.0035401864
C0UA90,石城,2019-02-19,24.980444,121.951214,0.004940617
C0UB00,淡江大學蘭陽校園,2019-02-19,24.823239,121.730383,0.0017129423
C0UB10,蘇澳,2019-02-19,24.5969,121.8571,0.02043587
C0UB20,壯圍,2019-02-19,24.7359,121.8163,0.0074060387
C0V250,甲仙,2019-02-19,23.080106,120.591758,0.028129024
C0V260,月眉,2019-02-19,22.971003,120.539853,0.048172157
C0V310,美濃,2019-02-19,22.898742,120.519153,0.27711654
C0V350,溪埔,2019-02-19,22.738578,120.446797,0.07772249
C0V360,內門,2019-02-19,22.975481,120.466769,0.14136264
C0V370,古亭坑,2019-02-19,22.893178,120.401947,0.17662156
C0V400,阿公店,2019-02-19,22.804194,120.355528,0.06944393
C0V440,鳳山,2019-02-19,22.646653,120.356122,0.068560526
C0V450,鳳森,2019-02-19,22.545064,120.392592,0.042967793
C0V490,新興,2019-02-19,22.627422,120.298803,0.081244744
C0V530,阿蓮,2019-02-19,22.883208,120.327508,0.29320392
C0V610,梓官,2019-02-19,22.760558,120.267211,0.14251071
C0V620,永安,2019-02-19,22.82315,120.236856,0.122694485
C0V630,茄萣,2019-02-19,22.906642,120.182608,0.22126463
C0V640,湖內,2019-02-19,22.887139,120.2445,0.21299621
C0V650,彌陀,2019-02-19,22.783806,120.246361,0.122694485
C0V660,岡山,2019-02-19,22.797078,120.294958,0.14251071
C0V680,仁武,2019-02-19,22.701083,120.347722,0.110777624
C0V690,鼓山,2019-02-19,22.623325,120.275575,0.081244744
C0V700,三民,2019-02-19,22.645017,120.311233,0.079011284
C0V710,苓雅,2019-02-19,22.622742,120.330669,0.079011284
C0V720,林園,2019-02-19,22.507747,120.394511,0.081244744
C0V730,大寮,2019-02-19,22.605614,120.395717,0.054156594
C0V740,旗山,2019-02-19,22.888614,120.483597,0.2665319
C0V750,路竹,2019-02-19,22.854997,120.259439,0.1787385
C0V760,橋頭,2019-02-19,22.757806,120.30575,0.13598232
C0V770,大社,2019-02-19,22.730306,120.346639,0.110777624
C0V790,萬山,2019-02-19,22.905944,120.688056,0.03348061
C0V800,六龜,2019-02-19,22.997889,120.633583,0.04971727
C0V810,左營,2019-02-19,22.67491,120.28491,0.11717129
C0V820,小林,2019-02-19,23.148408,120.63325,0.02073239
C0V840,鳳鼻頭,2019-02-19,22.5083,120.3591,0.08642088
C0V850,蚵仔寮,2019-02-19,22.7256,120.2527,0.12408853
C0V860,南寮,2019-02-19,22.7616,120.2339,0.12888068
C0V870,文安,2019-02-19,22.8025,120.2164,0.12888068
C0V880,興達,2019-02-19,22.8778,120.2127,0.22126463
C0V890,前鎮,2019-02-19,22.5718,120.3117,0.08642088
C0V900,汕尾,2019-02-19,22.4782,120.4151,0.17776097
C0X050,東河,2019-02-19,23.296598,120.385608,0.02305915
C0X060,下營,2019-02-19,23.22695,120.256261,0.11780926
C0X080,佳里,2019-02-19,23.173039,120.145086,0.07536142
C0X100,臺南市北區,2019-02-19,23.010394,120.194228,0.14585266
C0X110,臺南市南區,2019-02-19,22.961189,120.188378,0.1391517
C0X120,麻豆,2019-02-19,23.183289,120.248611,0.07129475
C0X130,官田,2019-02-19,23.193217,120.315422,0.10062336
C0X140,西港,2019-02-19,23.125608,120.203108,0.10159807
C0X150,安定,2019-02-19,23.102614,120.227839,0.085062616
C0X160,仁德,2019-02-19,22.968258,120.257689,0.2876913
C0X170,關廟,2019-02-19,22.963017,120.327797,0.2624726
C0X180,山上,2019-02-19,23.0757,120.363253,0.041440688
C0X190,安平,2019-02-19,22.993161,120.152181,0.14585266
C0X200,左鎮,2019-02-19,23.056758,120.408522,0.04773802
C0X210,白河,2019-02-19,23.347466,120.414427,0.020546833
C0X220,學甲,2019-02-19,23.230367,120.182187,0.07129477
C0X230,鹽水,2019-02-19,23.272621,120.247641,0.092504
C0X240,關子嶺,2019-02-19,23.331169,120.508025,0.004613659
C0X250,新營,2019-02-19,23.310689,120.316681,0.10475488
C0X260,後壁,2019-02-19,23.366358,120.362326,0.012198476
C0X280,將軍,2019-02-19,23.214999,120.13577,0.07536142
C0X290,北門,2019-02-19,23.267772,120.125481,0.07536142
C0X300,鹿寮,2019-02-19,23.386047,120.477331,0.030121714
C0X310,七股,2019-02-19,23.147289,120.086253,0.056804992
C0X320,柳營,2019-02-19,23.253328,120.375253,0.02305915
C0Z020,明里,2019-02-19,23.208717,121.262342,0.018984165
C0Z061,玉里,2019-02-19,23.3215,121.339656,0.10600564
C0Z070,舞鶴,2019-02-19,23.46811,121.37407,0.6620611
C0Z080,富源,2019-02-19,23.587642,121.378225,0.6650621
C0Z100,東華,2019-02-19,23.89525,121.549833,0.88099724
C0Z150,吉安光華,2019-02-19,23.930925,121.595153,0.89344585
C0Z160,鳳林,2019-02-19,23.746114,121.453411,0.79900074
C0Z170,卓溪,2019-02-19,23.3443,121.3029,0.07381514
C0Z180,新城,2019-02-19,24.03946,121.60454,0.7284241
C0Z190,富世,2019-02-19,24.14743,121.6297,0.06318025
C0Z200,萬榮,2019-02-19,23.709219,121.420106,0.7522087
C0Z210,瑞穗,2019-02-19,23.5239,121.39021,0.832529
C0Z230,和平,2019-02-19,24.30717,121.77007,0.4509382
C0Z270,蕃薯寮,2019-02-19,23.73835,121.540108,0.75194645
C0Z280,德武,2019-02-19,23.47426,121.41071,0.7701837
C0Z300,東里,2019-02-19,23.26853,121.30547,0.091020614
C0Z310,清水斷崖,2019-02-19,24.218294,121.689142,0.24945559
C0Z330,安通山,2019-02-19,23.290728,121.348528,0.010584217
CAG100,王功漁港,2019-02-19,23.96824,120.32586,0.02088079
CAJ050,海口故事園區,2019-02-19,23.57543,120.14121,0.061834767
CAL110,布袋國中,2019-02-19,23.35893,120.18026,0.10920308
CAN130,水試所海水繁養殖中心,2019-02-19,23.120802,120.07968,0.07659561
CAN140,六官養殖協會,2019-02-19,23.22881,120.29962,0.108489335
CAQ030,崎峰國小,2019-02-19,22.42565,120.49521,0.073805496
E2K600,四湖植物園,2019-02-19,23.676986,120.163433,0.024327446
E2P980,林試六龜中心,2019-02-19,22.991703,120.645722,0.047882125
E2S960,林試太麻里2,2019-02-19,22.598014,120.989761,0.48678058
E2S980,林試太麻里1,2019-02-19,22.598922,120.980044,0.42017022
G2F820,農業試驗所,2019-02-19,24.031261,120.688133,0.0012348726
G2L020,農試嘉義分所,2019-02-19,23.485028,120.473806,0.0069056987
G2M350,農試溪口農場,2019-02-19,23.58565,120.408111,0.0047125192
G2P820,農試鳳山分所,2019-02-19,22.646611,120.356083,0.068560526
K2E360,苗栗農改,2019-02-19,24.495722,120.829111,0.003544086
K2E710,苗改生物防治研究中心,2019-02-19,24.422861,120.871833,0.0014718475
K2F750,種苗繁殖,2019-02-19,24.225972,120.800917,0.0016255521
U2HA50,臺大竹山,2019-02-19,23.756972,120.681556,0.0021023953
V2K620,麥寮合作社,2019-02-19,23.753836,120.294783,0.028617159
