站號,站名,日期,lat,lon,BlastGRU-TW
466881,新北,2019-10-28,24.9593,121.52,0.049521457
466900,淡水,2019-10-28,25.164889,121.448906,0.015192237
466920,臺北,2019-10-28,25.037658,121.514853,0.048060894
466940,基隆,2019-10-28,25.133314,121.740475,0.019274542
466990,花蓮,2019-10-28,23.975128,121.613275,0.25049344
467050,新屋,2019-10-28,25.006744,121.047486,0.009897279
467080,宜蘭,2019-10-28,24.763975,121.756528,0.20883948
467270,田中,2019-10-28,23.873803,120.581286,0.17796876
467300,東吉島,2019-10-28,23.25695,119.667467,0.6181376
467350,澎湖,2019-10-28,23.565503,119.563094,0.61114305
467410,臺南,2019-10-28,22.993239,120.204772,0.30598253
467420,永康,2019-10-28,23.038386,120.2367,0.31322926
467441,高雄,2019-10-28,22.7304,120.3125,0.4703531
467480,嘉義,2019-10-28,23.495925,120.432906,0.50775814
467490,臺中,2019-10-28,24.145736,120.684075,0.5572654
467540,大武,2019-10-28,22.355675,120.903789,0.073351674
467571,新竹,2019-10-28,24.827853,121.014219,0.00804775
467590,恆春,2019-10-28,22.003897,120.746339,0.01484995
467610,成功,2019-10-28,23.097486,121.373428,0.2479169
467620,蘭嶼,2019-10-28,22.036969,121.558339,0.18051903
467660,臺東,2019-10-28,22.752211,121.154586,0.35831752
467790,墾丁雷達站,2019-10-28,21.948235,120.808028,0.015244785
C0A520,山佳,2019-10-28,24.974944,121.402008,0.027180066
C0A530,坪林,2019-10-28,24.938183,121.70975,0.51903576
C0A540,四堵,2019-10-28,24.8926,121.745736,0.035823748
C0A550,泰平,2019-10-28,24.971197,121.823711,0.36584255
C0A560,福山,2019-10-28,24.776203,121.502811,0.45974132
C0A570,桶後,2019-10-28,24.848222,121.597992,0.084669225
C0A640,石碇,2019-10-28,24.993969,121.662917,0.10029732
C0A650,火燒寮,2019-10-28,25.002719,121.742892,0.12981188
C0A660,瑞芳,2019-10-28,25.113169,121.801147,0.07547803
C0A770,科教館,2019-10-28,25.096356,121.516507,0.026422005
C0A860,大坪,2019-10-28,25.165914,121.632969,0.016804142
C0A880,福隆,2019-10-28,25.017842,121.942083,0.07152422
C0A890,雙溪,2019-10-28,25.036003,121.864242,0.020417903
C0A920,富貴角,2019-10-28,25.263783,121.565258,0.012085342
C0A931,三和,2019-10-28,25.233153,121.595236,0.06856357
C0A940,金山,2019-10-28,25.223628,121.643967,0.013304024
C0A950,鼻頭角,2019-10-28,25.129036,121.923372,0.07226372
C0A970,三貂角,2019-10-28,25.007606,122.002058,0.07128116
C0A980,社子,2019-10-28,25.109508,121.469681,0.026099926
C0A9C0,天母,2019-10-28,25.117494,121.537169,0.026963558
C0A9F0,內湖,2019-10-28,25.079422,121.57545,0.048060894
C0AC60,三峽,2019-10-28,24.939025,121.369728,0.050203346
C0AC70,信義,2019-10-28,25.037822,121.564597,0.048060894
C0AC80,文山,2019-10-28,25.00235,121.575728,0.0516305
C0ACA0,新莊,2019-10-28,25.051478,121.446756,0.01602811
C0AD00,三芝,2019-10-28,25.258131,121.501917,0.0122308675
C0AD10,八里,2019-10-28,25.150211,121.403947,0.015192237
C0AD30,蘆洲,2019-10-28,25.086594,121.472331,0.026422005
C0AD40,土城,2019-10-28,24.973208,121.445169,0.026676789
C0AD50,鶯歌,2019-10-28,24.951533,121.346294,0.017783863
C0AG80,中和,2019-10-28,24.991622,121.491792,0.048060894
C0AH00,汐止,2019-10-28,25.066881,121.658778,0.019529125
C0AH10,永和,2019-10-28,25.01125,121.508111,0.04729432
C0AH40,平等,2019-10-28,25.129142,121.577086,0.036724426
C0AH50,林口,2019-10-28,25.072181,121.38084,0.01691956
C0AH70,松山,2019-10-28,25.04871,121.55042,0.048060894
C0AH80,深坑,2019-10-28,25.002703,121.628328,0.0516305
C0AI00,五股,2019-10-28,25.07445,121.42728,0.0064740134
C0AI10,屈尺,2019-10-28,24.92184,121.54475,0.0516305
C0AI20,白沙灣,2019-10-28,25.283128,121.519058,0.013474321
C0AI30,三重,2019-10-28,25.057328,121.500629,0.026422005
C0AI40,石牌,2019-10-28,25.115597,121.513139,0.026676789
C0AJ20,野柳,2019-10-28,25.20703,121.690021,0.019529125
C0AJ30,淡水觀海,2019-10-28,25.184591,121.408616,0.014945738
C0AJ40,石門,2019-10-28,25.273672,121.601198,0.008108835
C0AJ50,水湳洞,2019-10-28,25.123695,121.862238,0.019529125
C0AJ60,六塊厝,2019-10-28,25.24,121.4481,0.014945738
C0AJ70,田寮,2019-10-28,25.2698,121.4886,0.013467782
C0AJ80,板橋,2019-10-28,25.0107,121.4489,0.026676783
C0AJ90,澳底,2019-10-28,25.0552,121.9253,0.07152422
C0B010,七堵,2019-10-28,25.094819,121.71713,0.019973505
C0B020,基隆嶼,2019-10-28,25.19141,121.78391,0.019529125
C0B040,大武崙,2019-10-28,25.166676,121.706993,0.019973505
C0B050,八斗子,2019-10-28,25.144754,121.79167,0.019008316
C0B060,暖暖,2019-10-28,25.0957,121.7403,0.02078082
C0C460,復興,2019-10-28,24.820208,121.352281,0.3310503
C0C480,桃園,2019-10-28,24.992425,121.323172,0.007936665
C0C490,八德,2019-10-28,24.928708,121.283289,0.013658782
C0C590,觀音,2019-10-28,25.027072,121.153317,0.015149434
C0C620,蘆竹,2019-10-28,25.084275,121.265767,0.015361533
C0C630,大溪,2019-10-28,24.882853,121.265547,0.013868897
C0C650,平鎮,2019-10-28,24.897503,121.214636,0.007935513
C0C660,楊梅,2019-10-28,24.912375,121.143047,0.0069858045
C0C670,龍潭,2019-10-28,24.870056,121.221389,0.025417436
C0C680,龜山,2019-10-28,25.02846,121.38656,0.020269267
C0C700,中壢,2019-10-28,24.977661,121.256375,0.007571177
C0C710,大溪永福,2019-10-28,24.892936,121.324975,0.0065176045
C0C720,竹圍,2019-10-28,25.112692,121.239824,0.015192237
C0C730,中大臨海站,2019-10-28,24.966126,121.008581,0.010526821
C0C740,觀音工業區,2019-10-28,25.064764,121.114856,0.0072615887
C0C750,新興坑尾,2019-10-28,25.0061,121.0971,0.006955689
C0D430,峨眉,2019-10-28,24.6905,121.017189,0.008030946
C0D480,打鐵坑,2019-10-28,24.849664,121.150789,0.049971834
C0D540,橫山,2019-10-28,24.71116,121.11693,0.017816143
C0D560,竹東,2019-10-28,24.767147,121.057881,0.008908208
C0D580,寶山,2019-10-28,24.735006,121.025192,0.021662384
C0D590,新豐,2019-10-28,24.87068,120.97721,0.014984518
C0D650,湖口,2019-10-28,24.904794,121.043628,0.008587114
C0D660,新竹市東區,2019-10-28,24.798681,120.986942,0.0079884445
C0D670,海天一線,2019-10-28,24.831986,120.914438,0.007255847
C0D680,香山濕地,2019-10-28,24.783581,120.914988,0.0072139567
C0D690,外湖,2019-10-28,24.917735,120.968711,0.010526821
C0D700,關西,2019-10-28,24.7977,121.1732,0.009310281
C0E420,竹南,2019-10-28,24.708978,120.888897,0.007033605
C0E430,南庄,2019-10-28,24.601775,121.000214,0.015334014
C0E520,大湖,2019-10-28,24.41494,120.87087,0.024455566
C0E540,後龍,2019-10-28,24.606489,120.783933,0.39813468
C0E550,明德,2019-10-28,24.583486,120.885411,0.13087735
C0E590,通霄,2019-10-28,24.471892,120.704622,0.42478675
C0E730,頭份,2019-10-28,24.688247,120.912206,0.007033605
C0E740,造橋,2019-10-28,24.637056,120.864778,0.1378246
C0E750,苗栗,2019-10-28,24.564569,120.824575,0.398491
C0E780,銅鑼,2019-10-28,24.489681,120.790853,0.15533437
C0E791,卓蘭,2019-10-28,24.3126,120.8244,0.15400283
C0E810,西湖,2019-10-28,24.562947,120.7485,0.3996778
C0E820,獅潭,2019-10-28,24.539133,120.920042,0.13654584
C0E830,苑裡,2019-10-28,24.439714,120.653053,0.39407998
C0E850,大河,2019-10-28,24.618069,120.948578,0.13258815
C0E870,高鐵苗栗,2019-10-28,24.60725,120.826094,0.39916342
C0E910,海埔,2019-10-28,24.648767,120.772435,0.117132284
C0E920,通霄漁港,2019-10-28,24.498589,120.673876,0.41253436
C0E930,龍鳳,2019-10-28,24.700034,120.859125,0.132488
C0F0B0,石岡,2019-10-28,24.276061,120.777644,0.08524464
C0F850,東勢,2019-10-28,24.246428,120.833047,0.21641058
C0F930,大甲,2019-10-28,24.347667,120.640403,0.40765893
C0F970,大坑,2019-10-28,24.173142,120.722289,0.5447355
C0F9A0,中竹林,2019-10-28,24.103556,120.751061,0.1480952
C0F9I0,神岡,2019-10-28,24.272481,120.658314,0.21637595
C0F9K0,大安,2019-10-28,24.345061,120.588025,0.38649476
C0F9L0,后里,2019-10-28,24.310436,120.729725,0.2524237
C0F9M0,豐原,2019-10-28,24.254322,120.720692,0.23344517
C0F9N0,大里,2019-10-28,24.092464,120.701378,0.35394946
C0F9O0,潭子,2019-10-28,24.213106,120.703933,0.26593453
C0F9P0,清水,2019-10-28,24.312297,120.562242,0.38281733
C0F9Q0,外埔,2019-10-28,24.347817,120.705686,0.1977045
C0F9R0,龍井,2019-10-28,24.184536,120.528972,0.35047662
C0F9S0,烏日,2019-10-28,24.107058,120.624103,0.1556445
C0F9T0,西屯,2019-10-28,24.179494,120.641275,0.37137112
C0F9U0,南屯,2019-10-28,24.137006,120.637969,0.35394946
C0F9X0,大雅(中科園區),2019-10-28,24.21528,120.62445,0.3901672
C0FA10,松柏,2019-10-28,24.429115,120.617482,0.3854754
C0FA20,溫寮,2019-10-28,24.372177,120.583125,0.3854754
C0FA30,梧棲,2019-10-28,24.256003,120.523381,0.35047665
C0FA40,臺中電廠,2019-10-28,24.2146,120.4907,0.35047665
C0FA50,霧峰,2019-10-28,24.0419,120.6995,0.4820644
C0G620,芬園,2019-10-28,24.015678,120.6213,0.18396996
C0G640,鹿港,2019-10-28,24.0753,120.430481,0.1594034
C0G650,員林,2019-10-28,23.946503,120.585597,0.23362538
C0G660,溪湖,2019-10-28,23.94835,120.479122,0.18123476
C0G720,溪州,2019-10-28,23.851589,120.499093,0.15563223
C0G730,二林,2019-10-28,23.903325,120.376081,0.1856723
C0G740,大城,2019-10-28,23.852487,120.320935,0.20013997
C0G770,福興,2019-10-28,24.041289,120.437669,0.1594034
C0G780,秀水,2019-10-28,24.03405,120.503869,0.16667761
C0G800,埔鹽,2019-10-28,24.000394,120.431683,0.1594034
C0G810,埔心,2019-10-28,23.947633,120.525456,0.17880608
C0G820,田尾,2019-10-28,23.901669,120.509389,0.17556132
C0G830,埤頭,2019-10-28,23.866003,120.452806,0.16415071
C0G840,北斗,2019-10-28,23.877586,120.514222,0.17556132
C0G860,社頭,2019-10-28,23.897647,120.5862,0.23289011
C0G870,芳苑,2019-10-28,23.922303,120.320025,0.20280692
C0G880,二水,2019-10-28,23.810742,120.6173,0.12040474
C0G890,伸港,2019-10-28,24.148933,120.484403,0.33321586
C0G900,線西,2019-10-28,24.143358,120.443536,0.34458843
C0G910,花壇,2019-10-28,24.032076,120.549461,0.1611027
C0G920,永靖,2019-10-28,23.924703,120.547533,0.17556132
C0G940,竹塘,2019-10-28,23.848253,120.386764,0.17151713
C0G950,防潮門,2019-10-28,24.1835,120.4871,0.34737232
C0G960,福寶,2019-10-28,24.0443,120.3814,0.16115294
C0G970,三豐,2019-10-28,23.882,120.2895,0.20280692
C0H890,埔里,2019-10-28,23.972169,120.952425,0.51123625
C0H950,中寮,2019-10-28,23.884447,120.766406,0.07820206
C0H960,草屯,2019-10-28,23.973672,120.68085,0.15649112
C0I110,竹山,2019-10-28,23.761225,120.688156,0.08856513
C0I360,水里,2019-10-28,23.812553,120.849792,0.17783831
C0I380,集集,2019-10-28,23.828206,120.801467,0.184206
C0I410,名間,2019-10-28,23.837053,120.701447,0.10629764
C0I420,國姓,2019-10-28,24.037803,120.855072,0.15497011
C0I460,南投,2019-10-28,23.911469,120.687331,0.10865751
C0K250,崙背,2019-10-28,23.75555,120.318925,0.24792342
C0K280,四湖,2019-10-28,23.630414,120.227125,0.29763538
C0K291,宜梧,2019-10-28,23.536281,120.169329,0.21765439
C0K330,虎尾,2019-10-28,23.719183,120.442036,0.17982139
C0K390,土庫,2019-10-28,23.679029,120.395574,0.1861385
C0K400,斗六,2019-10-28,23.720583,120.541127,0.15171519
C0K410,北港,2019-10-28,23.573957,120.292802,0.19337195
C0K420,西螺,2019-10-28,23.800407,120.467394,0.14273663
C0K430,褒忠,2019-10-28,23.690938,120.303634,0.34323055
C0K440,二崙,2019-10-28,23.772797,120.408944,0.16739503
C0K450,大埤,2019-10-28,23.646074,120.431537,0.19852717
C0K460,斗南,2019-10-28,23.678734,120.478359,0.16053334
C0K470,林內,2019-10-28,23.748675,120.609642,0.17881191
C0K480,莿桐,2019-10-28,23.761192,120.502372,0.13853928
C0K500,元長,2019-10-28,23.64981,120.315024,0.40737188
C0K510,水林,2019-10-28,23.572924,120.24597,0.15279655
C0K530,臺西,2019-10-28,23.701547,120.197559,0.24458317
C0K550,蔦松,2019-10-28,23.514319,120.229736,0.21181376
C0K560,棋山,2019-10-28,23.68645,120.603417,0.18706816
C0K580,高鐵雲林,2019-10-28,23.737456,120.417944,0.1861385
C0K590,雲林東勢,2019-10-28,23.674192,120.255721,0.34323072
C0K600,箔子寮,2019-10-28,23.6197,120.14,0.15770325
C0M410,馬頭山,2019-10-28,23.324361,120.582017,0.30704957
C0M520,東後寮,2019-10-28,23.369908,120.248065,0.18420663
C0M640,中埔,2019-10-28,23.42538,120.5229,0.22925813
C0M650,朴子,2019-10-28,23.43463,120.23902,0.22695757
C0M660,溪口,2019-10-28,23.604131,120.403569,0.42755035
C0M670,大林,2019-10-28,23.600616,120.45841,0.47252062
C0M680,太保,2019-10-28,23.455062,120.331455,0.2570071
C0M690,水上,2019-10-28,23.419734,120.388909,0.52051526
C0M700,竹崎,2019-10-28,23.526178,120.555508,0.19407459
C0M710,東石,2019-10-28,23.458927,120.15385,0.21181326
C0M720,番路,2019-10-28,23.464657,120.554156,0.19746538
C0M730,嘉義市東區,2019-10-28,23.457673,120.460531,0.55269164
C0M740,六腳,2019-10-28,23.492871,120.290625,0.2663269
C0M750,布袋,2019-10-28,23.380878,120.167789,0.22695757
C0M760,民雄,2019-10-28,23.551754,120.428457,0.426859
C0M770,嘉義梅山,2019-10-28,23.585398,120.555587,0.16568786
C0M780,鹿草,2019-10-28,23.41134,120.30835,0.25100684
C0M790,新港,2019-10-28,23.553269,120.345728,0.1852338
C0M800,茶山,2019-10-28,23.299075,120.664767,0.36814266
C0M880,好美里,2019-10-28,23.3364,120.138,0.21703224
C0N010,鯤鯓國小,2019-10-28,23.1879,120.0889,0.25933602
C0N020,城西,2019-10-28,23.0568,120.0956,0.22852597
C0N030,四草,2019-10-28,23.0235,120.1116,0.6113441
C0N040,蘆竹溝,2019-10-28,23.2344,120.0961,0.25933602
C0N050,蚵寮,2019-10-28,23.301,120.1104,0.25933602
C0O810,曾文,2019-10-28,23.219681,120.497328,0.20892483
C0O830,北寮,2019-10-28,23.079561,120.495008,0.2879808
C0O840,王爺宮,2019-10-28,23.222064,120.40085,0.20892489
C0O860,大內,2019-10-28,23.11885,120.36083,0.17866652
C0O900,善化,2019-10-28,23.112883,120.297219,0.27927458
C0O930,玉井,2019-10-28,23.126042,120.46055,0.25007635
C0O950,安南,2019-10-28,23.076694,120.144861,0.22016428
C0O960,崎頂,2019-10-28,22.959547,120.369317,0.3194658
C0O970,虎頭埤,2019-10-28,23.021375,120.347878,0.35913205
C0O980,新市,2019-10-28,23.061614,120.298197,0.27927458
C0O990,媽廟,2019-10-28,22.99175,120.293525,0.38675573
C0R150,三地門,2019-10-28,22.709889,120.639944,0.21244192
C0R160,鹽埔,2019-10-28,22.739558,120.530778,0.1891894
C0R170,屏東,2019-10-28,22.660269,120.494072,0.27246392
C0R190,赤山,2019-10-28,22.592333,120.614306,0.20671499
C0R220,潮州,2019-10-28,22.534361,120.54,0.20846139
C0R240,來義,2019-10-28,22.527306,120.625111,0.22399823
C0R260,春日,2019-10-28,22.370361,120.628306,0.23032656
C0R270,琉球嶼,2019-10-28,22.332244,120.362236,0.22911277
C0R280,檳榔,2019-10-28,22.076078,120.836777,0.014613684
C0R320,車城,2019-10-28,22.0744,120.716247,0.014479683
C0R341,牡丹,2019-10-28,22.130036,120.792639,0.19389753
C0R350,貓鼻頭,2019-10-28,21.921774,120.7358,0.015015983
C0R470,高樹,2019-10-28,22.826389,120.600806,0.22622366
C0R480,長治,2019-10-28,22.693128,120.542622,0.18296975
C0R490,九如,2019-10-28,22.7405,120.490503,0.2627002
C0R520,崁頂,2019-10-28,22.514781,120.506914,0.31368902
C0R540,佳冬,2019-10-28,22.419456,120.552375,0.3219804
C0R550,新埤,2019-10-28,22.467947,120.582894,0.2119141
C0R560,新園,2019-10-28,22.5434,120.461558,0.31368902
C0R570,麟洛,2019-10-28,22.65078,120.52719,0.2627002
C0R580,南州,2019-10-28,22.48591,120.50274,0.3219804
C0R590,里港,2019-10-28,22.77919,120.49459,0.18055129
C0R620,墾雷,2019-10-28,21.900836,120.855269,0.015015983
C0R640,東港,2019-10-28,22.46247,120.44074,0.38959998
C0R650,竹田,2019-10-28,22.58486,120.54344,0.21940906
C0R660,枋寮,2019-10-28,22.367722,120.590647,0.218835
C0R670,楓港,2019-10-28,22.190131,120.692156,0.22367059
C0R680,佳樂水,2019-10-28,21.993578,120.861633,0.014776575
C0R690,墾丁,2019-10-28,21.966756,120.810269,0.013927209
C0R700,枋山,2019-10-28,22.246844,120.661086,0.22367021
C0R710,龍磐,2019-10-28,21.931672,120.838942,0.015167644
C0R720,旭海,2019-10-28,22.205403,120.887614,0.035007067
C0R730,大坪頂,2019-10-28,22.024633,120.69355,0.01667962
C0R740,獅子,2019-10-28,22.201569,120.70525,0.22477074
C0R760,南仁湖,2019-10-28,22.084681,120.863353,0.014501549
C0R770,保力,2019-10-28,22.071122,120.764111,0.015299228
C0R780,滿州,2019-10-28,22.024403,120.839892,0.015054709
C0R790,九棚,2019-10-28,22.14195,120.889281,0.037371457
C0R800,丹路,2019-10-28,22.204481,120.750989,0.21427986
C0R810,內獅,2019-10-28,22.305064,120.642986,0.23764998
C0R830,高士,2019-10-28,22.121825,120.836781,0.010671207
C0R850,林邊,2019-10-28,22.4634,120.5339,0.31368902
C0R860,鼻頭,2019-10-28,22.1043,120.8979,0.05474728
C0R870,興海,2019-10-28,21.9752,120.8439,0.014776575
C0R880,後壁湖,2019-10-28,21.9457,120.7457,0.014264766
C0R890,山海,2019-10-28,21.9878,120.7091,0.014479683
C0R900,竹坑,2019-10-28,22.1385,120.7022,0.24075924
C0R910,下寮,2019-10-28,22.3929,120.5548,0.3219804
C0R920,塭仔,2019-10-28,22.4169,120.5197,0.33191195
C0R930,萬丹,2019-10-28,22.5885,120.4851,0.21940906
C0R940,加祿堂,2019-10-28,22.3363,120.6217,0.23764998
C0S710,鹿野,2019-10-28,22.917711,121.122994,0.7142735
C0S730,綠島,2019-10-28,22.6672,121.47533,0.21989374
C0S740,池上,2019-10-28,23.119628,121.209469,0.51810366
C0S770,大溪山,2019-10-28,22.478475,120.943325,0.2593149
C0S790,金崙,2019-10-28,22.538122,120.966875,0.33605272
C0S810,東河,2019-10-28,22.972672,121.303986,0.38472202
C0S830,長濱,2019-10-28,23.286817,121.411975,0.45864502
C0S840,南田,2019-10-28,22.279725,120.889208,0.05902564
C0S890,關山,2019-10-28,23.0395,121.175017,0.153824
C0S900,蘭嶼高中,2019-10-28,22.04909,121.51214,0.69985867
C0S910,蘭嶼燈塔,2019-10-28,22.081197,121.503117,0.68748873
C0S920,金峰嘉蘭,2019-10-28,22.594789,120.960825,0.45731026
C0S930,延平,2019-10-28,22.902581,121.084058,0.29721057
C0S940,石寧山,2019-10-28,23.223772,121.406639,0.16977912
C0S950,七塊厝,2019-10-28,22.954453,121.229922,0.7251195
C0S960,香蘭,2019-10-28,22.587569,120.993375,0.463427
C0S970,加津林,2019-10-28,22.416211,120.926942,0.0733034
C0S990,山豬窟,2019-10-28,22.318619,120.857372,0.031292897
C0SA00,歷坵,2019-10-28,22.520969,120.89185,0.23914492
C0SA10,檳榔四格山,2019-10-28,22.810031,121.109308,0.24354562
C0SA30,都歷,2019-10-28,23.020333,121.323642,0.22978853
C0SA40,瑞和,2019-10-28,22.974361,121.156697,0.1662807
C0SA60,知本（水試所）,2019-10-28,22.702394,121.082761,0.3981999
C0SA80,土坂,2019-10-28,22.453108,120.887572,0.4167165
C0SA90,達仁林場,2019-10-28,22.264347,120.823972,0.033284627
C0T870,鯉魚潭,2019-10-28,23.935639,121.508944,0.21159354
C0T900,西林,2019-10-28,23.8119,121.441458,0.19517209
C0T960,光復,2019-10-28,23.660694,121.424964,0.21743095
C0T9A0,月眉山,2019-10-28,23.809928,121.539828,0.32646525
C0T9D0,和中,2019-10-28,24.26676,121.74103,0.09489732
C0T9E0,大坑,2019-10-28,23.880628,121.581981,0.25298044
C0T9F0,水璉,2019-10-28,23.797131,121.542514,0.2234301
C0T9I0,豐濱,2019-10-28,23.583897,121.514806,0.15426683
C0T9M0,靜浦,2019-10-28,23.455167,121.495028,0.15994342
C0T9N0,富里,2019-10-28,23.171639,121.249378,0.24510413
C0U600,礁溪,2019-10-28,24.817539,121.765608,0.2177305
C0U650,玉蘭,2019-10-28,24.675286,121.587061,0.3828501
C0U750,龜山島,2019-10-28,24.841667,121.953133,0.087325506
C0U760,東澳,2019-10-28,24.52196,121.83318,0.070972376
C0U770,南澳,2019-10-28,24.44935,121.81022,0.06526324
C0U780,五結,2019-10-28,24.68637,121.79794,0.1356352
C0U860,頭城,2019-10-28,24.85323,121.8308,0.20883968
C0U870,大礁溪,2019-10-28,24.791042,121.675047,0.39644933
C0U880,北關,2019-10-28,24.9072,121.8734,0.06635811
C0U890,三星,2019-10-28,24.66812,121.65302,0.34241176
C0U900,內城,2019-10-28,24.71813,121.68766,0.2485111
C0U910,冬山,2019-10-28,24.63373,121.7937,0.1356352
C0U940,羅東,2019-10-28,24.68184,121.74934,0.1339435
C0U970,大福,2019-10-28,24.80064,121.81389,0.20033482
C0U990,員山,2019-10-28,24.74435,121.72247,0.1339435
C0UA00,土場,2019-10-28,24.576533,121.495333,0.46935362
C0UA80,大溪漁港,2019-10-28,24.941801,121.902955,0.2177305
C0UA90,石城,2019-10-28,24.980444,121.951214,0.07287474
C0UB00,淡江大學蘭陽校園,2019-10-28,24.823239,121.730383,0.4540297
C0UB10,蘇澳,2019-10-28,24.5969,121.8571,0.17926301
C0UB20,壯圍,2019-10-28,24.7359,121.8163,0.13825251
C0V250,甲仙,2019-10-28,23.080106,120.591758,0.3026768
C0V260,月眉,2019-10-28,22.971003,120.539853,0.32708922
C0V310,美濃,2019-10-28,22.898742,120.519153,0.24982372
C0V350,溪埔,2019-10-28,22.738578,120.446797,0.3341137
C0V360,內門,2019-10-28,22.975481,120.466769,0.1891024
C0V370,古亭坑,2019-10-28,22.893178,120.401947,0.27308175
C0V400,阿公店,2019-10-28,22.804194,120.355528,0.31216377
C0V440,鳳山,2019-10-28,22.646653,120.356122,0.35687578
C0V450,鳳森,2019-10-28,22.545064,120.392592,0.2210571
C0V490,新興,2019-10-28,22.627422,120.298803,0.3787405
C0V530,阿蓮,2019-10-28,22.883208,120.327508,0.55695313
C0V610,梓官,2019-10-28,22.760558,120.267211,0.5478789
C0V620,永安,2019-10-28,22.82315,120.236856,0.47752982
C0V630,茄萣,2019-10-28,22.906642,120.182608,0.5258575
C0V640,湖內,2019-10-28,22.887139,120.2445,0.5165375
C0V650,彌陀,2019-10-28,22.783806,120.246361,0.47752982
C0V660,岡山,2019-10-28,22.797078,120.294958,0.5478789
C0V680,仁武,2019-10-28,22.701083,120.347722,0.45863816
C0V690,鼓山,2019-10-28,22.623325,120.275575,0.3787405
C0V700,三民,2019-10-28,22.645017,120.311233,0.3787405
C0V710,苓雅,2019-10-28,22.622742,120.330669,0.3787405
C0V720,林園,2019-10-28,22.507747,120.394511,0.3787405
C0V730,大寮,2019-10-28,22.605614,120.395717,0.25051737
C0V740,旗山,2019-10-28,22.888614,120.483597,0.24254002
C0V750,路竹,2019-10-28,22.854997,120.259439,0.5379624
C0V760,橋頭,2019-10-28,22.757806,120.30575,0.5354101
C0V770,大社,2019-10-28,22.730306,120.346639,0.45863816
C0V790,萬山,2019-10-28,22.905944,120.688056,0.36953115
C0V800,六龜,2019-10-28,22.997889,120.633583,0.27844676
C0V810,左營,2019-10-28,22.67491,120.28491,0.4703531
C0V820,小林,2019-10-28,23.148408,120.63325,0.3508372
C0V840,鳳鼻頭,2019-10-28,22.5083,120.3591,0.3896002
C0V850,蚵仔寮,2019-10-28,22.7256,120.2527,0.47816673
C0V860,南寮,2019-10-28,22.7616,120.2339,0.4846209
C0V870,文安,2019-10-28,22.8025,120.2164,0.4846209
C0V880,興達,2019-10-28,22.8778,120.2127,0.5258575
C0V890,前鎮,2019-10-28,22.5718,120.3117,0.3896002
C0V900,汕尾,2019-10-28,22.4782,120.4151,0.32519525
C0X050,東河,2019-10-28,23.296598,120.385608,0.23093925
C0X060,下營,2019-10-28,23.22695,120.256261,0.25147954
C0X080,佳里,2019-10-28,23.173039,120.145086,0.21703224
C0X100,臺南市北區,2019-10-28,23.010394,120.194228,0.31761673
C0X110,臺南市南區,2019-10-28,22.961189,120.188378,0.31322926
C0X120,麻豆,2019-10-28,23.183289,120.248611,0.21263568
C0X130,官田,2019-10-28,23.193217,120.315422,0.23585343
C0X140,西港,2019-10-28,23.125608,120.203108,0.2473385
C0X150,安定,2019-10-28,23.102614,120.227839,0.23190708
C0X160,仁德,2019-10-28,22.968258,120.257689,0.39741397
C0X170,關廟,2019-10-28,22.963017,120.327797,0.35382006
C0X180,山上,2019-10-28,23.0757,120.363253,0.15684856
C0X190,安平,2019-10-28,22.993161,120.152181,0.31761673
C0X200,左鎮,2019-10-28,23.056758,120.408522,0.16083159
C0X210,白河,2019-10-28,23.347466,120.414427,0.22587389
C0X220,學甲,2019-10-28,23.230367,120.182187,0.21263568
C0X230,鹽水,2019-10-28,23.272621,120.247641,0.17640796
C0X240,關子嶺,2019-10-28,23.331169,120.508025,0.35838407
C0X250,新營,2019-10-28,23.310689,120.316681,0.24545966
C0X260,後壁,2019-10-28,23.366358,120.362326,0.16118553
C0X280,將軍,2019-10-28,23.214999,120.13577,0.21703224
C0X290,北門,2019-10-28,23.267772,120.125481,0.21703224
C0X300,鹿寮,2019-10-28,23.386047,120.477331,0.245809
C0X310,七股,2019-10-28,23.147289,120.086253,0.27487105
C0X320,柳營,2019-10-28,23.253328,120.375253,0.23093925
C0Z020,明里,2019-10-28,23.208717,121.262342,0.3742507
C0Z061,玉里,2019-10-28,23.3215,121.339656,0.14362144
C0Z070,舞鶴,2019-10-28,23.46811,121.37407,0.16925322
C0Z080,富源,2019-10-28,23.587642,121.378225,0.20051871
C0Z100,東華,2019-10-28,23.89525,121.549833,0.26489562
C0Z150,吉安光華,2019-10-28,23.930925,121.595153,0.27226314
C0Z160,鳳林,2019-10-28,23.746114,121.453411,0.21499595
C0Z170,卓溪,2019-10-28,23.3443,121.3029,0.16174088
C0Z180,新城,2019-10-28,24.03946,121.60454,0.2513277
C0Z190,富世,2019-10-28,24.14743,121.6297,0.24929808
C0Z200,萬榮,2019-10-28,23.709219,121.420106,0.21159354
C0Z210,瑞穗,2019-10-28,23.5239,121.39021,0.15107968
C0Z230,和平,2019-10-28,24.30717,121.77007,0.09489732
C0Z270,蕃薯寮,2019-10-28,23.73835,121.540108,0.23414625
C0Z280,德武,2019-10-28,23.47426,121.41071,0.16076864
C0Z300,東里,2019-10-28,23.26853,121.30547,0.15087683
C0Z310,清水斷崖,2019-10-28,24.218294,121.689142,0.0854233
C0Z330,安通山,2019-10-28,23.290728,121.348528,0.67012614
