站號,站名,日期,lat,lon,BlastGRU-TW
466881,新北,2019-01-03,24.9593,121.52,0.00076494523
466900,淡水,2019-01-03,25.164889,121.448906,0.00052121235
466920,臺北,2019-01-03,25.037658,121.514853,0.0008034713
467441,高雄,2019-01-03,22.7304,120.3125,0.2650527
467480,嘉義,2019-01-03,23.495925,120.432906,0.00083222735
467490,臺中,2019-01-03,24.145736,120.684075,0.00047016336
C0A540,四堵,2019-01-03,24.8926,121.745736,0.00077621726
C0A550,泰平,2019-01-03,24.971197,121.823711,0.0029679239
C0A560,福山,2019-01-03,24.776203,121.502811,0.009521177
C0A931,三和,2019-01-03,25.233153,121.595236,0.002289357
C0A940,金山,2019-01-03,25.223628,121.643967,0.00042204274
C0A950,鼻頭角,2019-01-03,25.129036,121.923372,0.0057837823
C0AD10,八里,2019-01-03,25.150211,121.403947,0.00052121235
C0AD30,蘆洲,2019-01-03,25.086594,121.472331,0.00061415904
C0AD40,土城,2019-01-03,24.973208,121.445169,0.0006020723
C0AI10,屈尺,2019-01-03,24.92184,121.54475,0.0007117348
C0AI20,白沙灣,2019-01-03,25.283128,121.519058,0.00043112182
C0AI30,三重,2019-01-03,25.057328,121.500629,0.00061415904
C0B010,七堵,2019-01-03,25.094819,121.71713,0.0004897608
C0B020,基隆嶼,2019-01-03,25.19141,121.78391,0.0005056498
