站號,站名,日期,lat,lon,BlastGRU-TW
466881,新北,2019-06-15,24.9593,121.52,0.99058694
466900,淡水,2019-06-15,25.1649,121.4489,0.9938692
466920,臺北,2019-06-15,25.0377,121.5149,0.9902962
466940,基隆,2019-06-15,25.1333,121.7405,0.9901388
466990,花蓮,2019-06-15,23.9751,121.6133,0.3021962
467050,新屋,2019-06-15,25.0067,121.0475,0.99652296
467080,宜蘭,2019-06-15,24.764,121.7565,0.9842026
467270,田中,2019-06-15,23.8738,120.5813,0.9950856
467300,東吉島,2019-06-15,23.2569,119.6675,0.9743577
467350,澎湖,2019-06-15,23.5655,119.5631,0.85684836
467410,臺南,2019-06-15,22.9932,120.2048,0.75266486
467420,永康,2019-06-15,23.0384,120.2367,0.72837734
467441,高雄,2019-06-15,22.7304,120.3125,0.803305
467480,嘉義,2019-06-15,23.4959,120.4329,0.99604636
467490,臺中,2019-06-15,24.1457,120.6841,0.99283385
467540,大武,2019-06-15,22.3557,120.9038,0.23073295
467571,新竹,2019-06-15,24.8279,121.0142,0.99635774
467590,恆春,2019-06-15,22.0039,120.7463,0.23232916
467610,成功,2019-06-15,23.0975,121.3734,0.5751547
467620,蘭嶼,2019-06-15,22.037,121.5583,0.99825263
467660,臺東,2019-06-15,22.7522,121.1546,0.45808917
467790,墾丁雷達站,2019-06-15,21.9482,120.808,0.29101098
C0A520,山佳,2019-06-15,24.9749,121.402,0.99145705
C0A530,坪林,2019-06-15,24.9382,121.7097,0.98300964
C0A540,四堵,2019-06-15,24.8926,121.7457,0.99064964
C0A550,泰平,2019-06-15,24.9712,121.8237,0.9891041
C0A560,福山,2019-06-15,24.7762,121.5028,0.97320265
C0A570,桶後,2019-06-15,24.8482,121.598,0.9894379
C0A640,石碇,2019-06-15,24.994,121.6629,0.9890745
C0A650,火燒寮,2019-06-15,25.0027,121.7429,0.98968244
C0A660,瑞芳,2019-06-15,25.1132,121.8011,0.9878317
C0A770,科教館,2019-06-15,25.0964,121.5165,0.99116355
C0A860,大坪,2019-06-15,25.1659,121.633,0.9926558
C0A880,福隆,2019-06-15,25.0178,121.9421,0.9856165
C0A890,雙溪,2019-06-15,25.036,121.8642,0.9911481
C0A920,富貴角,2019-06-15,25.2638,121.5653,0.99307233
C0A931,三和,2019-06-15,25.2332,121.5952,0.9905492
C0A940,金山,2019-06-15,25.2236,121.644,0.9934134
C0A950,鼻頭角,2019-06-15,25.129,121.9234,0.98520714
C0A970,三貂角,2019-06-15,25.0076,122.0021,0.98878497
C0A980,社子,2019-06-15,25.1095,121.4697,0.9910277
C0A9C0,天母,2019-06-15,25.1175,121.5372,0.99137884
C0A9F0,內湖,2019-06-15,25.0794,121.5755,0.9902962
C0AC60,三峽,2019-06-15,24.939,121.3697,0.9906752
C0AC70,信義,2019-06-15,25.0378,121.5646,0.9902962
C0AC80,文山,2019-06-15,25.0023,121.5757,0.9908149
C0ACA0,新莊,2019-06-15,25.0515,121.4468,0.99212694
C0AD00,三芝,2019-06-15,25.2581,121.5019,0.9936784
C0AD10,八里,2019-06-15,25.1502,121.4039,0.9938692
C0AD30,蘆洲,2019-06-15,25.0866,121.4723,0.99116355
C0AD40,土城,2019-06-15,24.9732,121.4452,0.9912677
C0AD50,鶯歌,2019-06-15,24.9515,121.3463,0.9940844
C0AG80,中和,2019-06-15,24.9916,121.4918,0.9902962
C0AH00,汐止,2019-06-15,25.0669,121.6588,0.99034363
C0AH10,永和,2019-06-15,25.0113,121.5081,0.9901788
C0AH40,平等,2019-06-15,25.1291,121.5771,0.9910495
C0AH50,林口,2019-06-15,25.0722,121.3808,0.99096483
C0AH70,松山,2019-06-15,25.0487,121.5504,0.9902962
C0AH80,深坑,2019-06-15,25.0027,121.6283,0.99075
C0AI00,五股,2019-06-15,25.0744,121.4273,0.99320716
C0AI10,屈尺,2019-06-15,24.9218,121.5447,0.9908149
C0AI20,白沙灣,2019-06-15,25.2831,121.5191,0.9931931
C0AI30,三重,2019-06-15,25.0573,121.5006,0.99116355
C0AI40,石牌,2019-06-15,25.1156,121.5131,0.9912677
C0AJ10,澳底,2019-06-15,25.0571,121.9273,0.98464686
C0AJ20,野柳,2019-06-15,25.207,121.69,0.9903437
C0AJ30,淡水觀海,2019-06-15,25.1846,121.4086,0.9937703
C0AJ40,石門,2019-06-15,25.2737,121.6012,0.99327093
C0AJ50,水湳洞,2019-06-15,25.1237,121.8622,0.99034363
C0AJ60,六塊厝,2019-06-15,25.24,121.4481,0.9937703
C0AJ70,田寮,2019-06-15,25.2698,121.4886,0.9930389
C0AJ80,板橋,2019-06-15,25.0107,121.4489,0.9912677
C0B010,七堵,2019-06-15,25.0948,121.7171,0.99076676
C0B020,基隆嶼,2019-06-15,25.1914,121.7839,0.99034363
C0B040,大武崙,2019-06-15,25.1667,121.707,0.99076676
C0B050,八斗子,2019-06-15,25.1448,121.7917,0.98989064
C0B060,暖暖,2019-06-15,25.0957,121.7403,0.9916321
C0C460,復興,2019-06-15,24.8202,121.3523,0.98996043
C0C480,桃園,2019-06-15,24.9924,121.3232,0.9945987
C0C490,八德,2019-06-15,24.9287,121.2833,0.99471074
C0C590,觀音,2019-06-15,25.0271,121.1533,0.9953324
C0C620,蘆竹,2019-06-15,25.0843,121.2658,0.9940288
C0C630,大溪,2019-06-15,24.8829,121.2655,0.9944728
C0C650,平鎮,2019-06-15,24.8975,121.2146,0.99465954
C0C660,楊梅,2019-06-15,24.9124,121.143,0.99529207
C0C670,龍潭,2019-06-15,24.8701,121.2214,0.9960613
C0C680,龜山,2019-06-15,25.0285,121.3866,0.99323285
C0C700,中壢,2019-06-15,24.9777,121.2564,0.99438953
C0C710,大溪永福,2019-06-15,24.8929,121.325,0.9953588
C0C720,竹圍,2019-06-15,25.1127,121.2398,0.9938692
C0C730,中大臨海站,2019-06-15,24.9661,121.0086,0.99626607
C0C740,觀音工業區,2019-06-15,25.0648,121.1149,0.9960047
C0C750,新興坑尾,2019-06-15,25.0061,121.0971,0.9957869
C0D430,峨眉,2019-06-15,24.6905,121.0172,0.9963538
C0D480,打鐵坑,2019-06-15,24.8497,121.1508,0.9966809
C0D540,橫山,2019-06-15,24.7112,121.1169,0.9970762
C0D560,竹東,2019-06-15,24.7671,121.0579,0.9955335
C0D580,寶山,2019-06-15,24.735,121.0252,0.9972238
C0D590,新豐,2019-06-15,24.8707,120.9772,0.99844265
C0D650,湖口,2019-06-15,24.9048,121.0436,0.99684644
C0D660,新竹市東區,2019-06-15,24.7987,120.9869,0.9962936
C0D670,海天一線,2019-06-15,24.832,120.9144,0.9967039
C0D680,香山濕地,2019-06-15,24.7836,120.915,0.9966861
C0D690,外湖,2019-06-15,24.9177,120.9687,0.99626607
C0D700,關西,2019-06-15,24.7977,121.1732,0.99528545
C0E420,竹南,2019-06-15,24.709,120.8889,0.99663204
C0E430,南庄,2019-06-15,24.6018,121.0002,0.99753284
C0E520,大湖,2019-06-15,24.4149,120.8709,0.99575967
C0E540,後龍,2019-06-15,24.6065,120.7839,0.9981627
C0E550,明德,2019-06-15,24.5835,120.8854,0.9976718
C0E590,通霄,2019-06-15,24.4719,120.7046,0.99803215
C0E730,頭份,2019-06-15,24.6882,120.9122,0.99663204
C0E740,造橋,2019-06-15,24.6371,120.8648,0.99808985
C0E750,苗栗,2019-06-15,24.5646,120.8246,0.9977358
C0E780,銅鑼,2019-06-15,24.4897,120.7909,0.99726576
C0E791,卓蘭,2019-06-15,24.3126,120.8244,0.9884472
C0E810,西湖,2019-06-15,24.5629,120.7485,0.99793774
C0E820,獅潭,2019-06-15,24.5391,120.92,0.99783623
C0E830,苑裡,2019-06-15,24.4397,120.6531,0.9981657
C0E850,大河,2019-06-15,24.6181,120.9486,0.9975517
C0E870,高鐵苗栗,2019-06-15,24.6073,120.8261,0.99809784
C0E910,海埔,2019-06-15,24.6488,120.7724,0.99807197
C0E920,通霄漁港,2019-06-15,24.4986,120.6739,0.99824876
C0E930,龍鳳,2019-06-15,24.7,120.8591,0.9981747
C0F000,大肚,2019-06-15,24.153,120.5721,0.9929905
C0F0B0,石岡,2019-06-15,24.2761,120.7776,0.9943592
C0F850,東勢,2019-06-15,24.2464,120.833,0.9760494
C0F930,大甲,2019-06-15,24.3477,120.6404,0.9978553
C0F970,大坑,2019-06-15,24.1731,120.7223,0.99250805
C0F9A0,中竹林,2019-06-15,24.1036,120.7511,0.9728961
C0F9I0,神岡,2019-06-15,24.2725,120.6583,0.9948061
C0F9K0,大安,2019-06-15,24.3451,120.588,0.9982763
C0F9L0,后里,2019-06-15,24.3104,120.7297,0.9923329
C0F9M0,豐原,2019-06-15,24.2543,120.7207,0.99373704
C0F9N0,大里,2019-06-15,24.0925,120.7014,0.9975851
C0F9O0,潭子,2019-06-15,24.2131,120.7039,0.99336386
C0F9P0,清水,2019-06-15,24.3123,120.5622,0.9983528
C0F9Q0,外埔,2019-06-15,24.3478,120.7057,0.9958322
C0F9R0,龍井,2019-06-15,24.1845,120.529,0.99836314
C0F9S0,烏日,2019-06-15,24.1071,120.6241,0.9967745
C0F9T0,西屯,2019-06-15,24.1795,120.6413,0.9977201
C0F9U0,南屯,2019-06-15,24.137,120.638,0.9975851
C0F9X0,大雅(中科園區),2019-06-15,24.2153,120.6244,0.99652
C0FA10,松柏,2019-06-15,24.4291,120.6175,0.99829566
C0FA20,溫寮,2019-06-15,24.3722,120.5831,0.99829566
C0FA30,梧棲,2019-06-15,24.256,120.5234,0.99836314
C0FA40,臺中電廠,2019-06-15,24.2146,120.4907,0.99836314
C0FA50,霧峰,2019-06-15,24.0419,120.6995,0.9953607
C0G620,芬園,2019-06-15,24.0157,120.6213,0.9900734
C0G640,鹿港,2019-06-15,24.0753,120.4305,0.9973066
C0G650,員林,2019-06-15,23.9465,120.5856,0.99386173
C0G660,溪湖,2019-06-15,23.9484,120.4791,0.9965643
C0G720,溪州,2019-06-15,23.8516,120.4991,0.9971674
C0G730,二林,2019-06-15,23.9033,120.3761,0.9973145
C0G740,大城,2019-06-15,23.8525,120.3209,0.9990029
C0G770,福興,2019-06-15,24.0413,120.4377,0.9973066
C0G780,秀水,2019-06-15,24.0341,120.5039,0.997024
C0G800,埔鹽,2019-06-15,24.0004,120.4317,0.9973066
C0G810,埔心,2019-06-15,23.9476,120.5255,0.9964235
C0G820,田尾,2019-06-15,23.9017,120.5094,0.9962563
C0G830,埤頭,2019-06-15,23.866,120.4528,0.9974757
C0G840,北斗,2019-06-15,23.8776,120.5142,0.9962563
C0G860,社頭,2019-06-15,23.8976,120.5862,0.9934092
C0G870,芳苑,2019-06-15,23.9223,120.32,0.999058
C0G880,二水,2019-06-15,23.8107,120.6173,0.9921643
C0G890,伸港,2019-06-15,24.1489,120.4844,0.9983517
C0G900,線西,2019-06-15,24.1434,120.4435,0.9982354
C0G910,花壇,2019-06-15,24.0321,120.5495,0.996789
C0G920,永靖,2019-06-15,23.9247,120.5475,0.9962563
C0G940,竹塘,2019-06-15,23.8483,120.3868,0.99813837
C0G950,防潮門,2019-06-15,24.1835,120.4871,0.9983962
C0G960,福寶,2019-06-15,24.0443,120.3814,0.9973475
C0G970,三豐,2019-06-15,23.882,120.2895,0.999058
C0H890,埔里,2019-06-15,23.9722,120.9524,0.9777849
C0H950,中寮,2019-06-15,23.8844,120.7664,0.95316976
C0H960,草屯,2019-06-15,23.9737,120.6809,0.98344195
C0I110,竹山,2019-06-15,23.7612,120.6882,0.96537846
C0I360,水里,2019-06-15,23.8126,120.8498,0.9882793
C0I380,集集,2019-06-15,23.8282,120.8015,0.9903539
C0I410,名間,2019-06-15,23.8371,120.7014,0.9824603
C0I420,國姓,2019-06-15,24.0378,120.8551,0.98812956
C0I460,南投,2019-06-15,23.9115,120.6873,0.9785747
C0K250,崙背,2019-06-15,23.7555,120.3189,0.9987411
C0K280,四湖,2019-06-15,23.6304,120.2271,0.99890196
C0K291,宜梧,2019-06-15,23.5363,120.1693,0.63085663
C0K330,虎尾,2019-06-15,23.7192,120.442,0.99793524
C0K390,土庫,2019-06-15,23.679,120.3956,0.99797994
C0K400,斗六,2019-06-15,23.7206,120.5411,0.9966833
C0K410,北港,2019-06-15,23.574,120.2928,0.5774916
C0K420,西螺,2019-06-15,23.8004,120.4674,0.99706113
C0K430,褒忠,2019-06-15,23.6909,120.3036,0.99888337
C0K440,二崙,2019-06-15,23.7728,120.4089,0.9980991
C0K450,大埤,2019-06-15,23.6461,120.4315,0.9976581
C0K460,斗南,2019-06-15,23.6787,120.4784,0.9970595
C0K470,林內,2019-06-15,23.7487,120.6096,0.99467117
C0K480,莿桐,2019-06-15,23.7612,120.5024,0.99688125
C0K500,元長,2019-06-15,23.6498,120.315,0.99861676
C0K510,水林,2019-06-15,23.5729,120.246,0.6670429
C0K530,臺西,2019-06-15,23.7015,120.1976,0.99903154
C0K550,蔦松,2019-06-15,23.5143,120.2297,0.65198034
C0K560,棋山,2019-06-15,23.6865,120.6034,0.9954754
C0K580,高鐵雲林,2019-06-15,23.7375,120.4179,0.99797994
C0K590,雲林東勢,2019-06-15,23.6742,120.2557,0.99888337
C0K600,箔子寮,2019-06-15,23.6197,120.14,0.6467501
C0M410,馬頭山,2019-06-15,23.3244,120.582,0.9923355
C0M520,東後寮,2019-06-15,23.3699,120.2481,0.11925423
C0M640,中埔,2019-06-15,23.4254,120.5229,0.99073356
C0M650,朴子,2019-06-15,23.4346,120.239,0.65752083
C0M660,溪口,2019-06-15,23.6041,120.4036,0.9971127
C0M670,大林,2019-06-15,23.6006,120.4584,0.99511385
C0M680,太保,2019-06-15,23.4551,120.3315,0.5290414
C0M690,水上,2019-06-15,23.4197,120.3889,0.9957638
C0M700,竹崎,2019-06-15,23.5262,120.5555,0.98656756
C0M710,東石,2019-06-15,23.4589,120.1539,0.65198034
C0M720,番路,2019-06-15,23.4647,120.5542,0.98016924
C0M730,嘉義市東區,2019-06-15,23.4577,120.4605,0.99391294
C0M740,六腳,2019-06-15,23.4929,120.2906,0.51028097
C0M750,布袋,2019-06-15,23.3809,120.1678,0.65752083
C0M760,民雄,2019-06-15,23.5518,120.4285,0.99681973
C0M770,嘉義梅山,2019-06-15,23.5854,120.5556,0.99333954
C0M780,鹿草,2019-06-15,23.4113,120.3084,0.63875574
C0M790,新港,2019-06-15,23.5533,120.3457,0.5974025
C0M800,茶山,2019-06-15,23.2991,120.6648,0.99175775
C0M880,好美里,2019-06-15,23.3364,120.138,0.15778215
C0N010,鯤鯓國小,2019-06-15,23.1879,120.0889,0.7663445
C0N020,城西,2019-06-15,23.0568,120.0956,0.1798295
C0N030,四草,2019-06-15,23.0235,120.1116,0.08495476
C0N040,蘆竹溝,2019-06-15,23.2344,120.0961,0.7663445
C0N050,蚵寮,2019-06-15,23.301,120.1104,0.7663445
C0O810,曾文,2019-06-15,23.2197,120.4973,0.94300616
C0O830,北寮,2019-06-15,23.0796,120.495,0.98086154
C0O840,王爺宮,2019-06-15,23.2221,120.4009,0.94300616
C0O860,大內,2019-06-15,23.1188,120.3608,0.9571649
C0O900,善化,2019-06-15,23.1129,120.2972,0.80321854
C0O930,玉井,2019-06-15,23.126,120.4605,0.7581444
C0O950,安南,2019-06-15,23.0767,120.1449,0.81953084
C0O960,崎頂,2019-06-15,22.9595,120.3693,0.94581544
C0O970,虎頭埤,2019-06-15,23.0214,120.3479,0.10920558
C0O980,新市,2019-06-15,23.0616,120.2982,0.80321854
C0O990,媽廟,2019-06-15,22.9917,120.2935,0.7254655
C0R150,三地門,2019-06-15,22.7099,120.6399,0.6547558
C0R160,鹽埔,2019-06-15,22.7396,120.5308,0.7743
C0R170,屏東,2019-06-15,22.6603,120.4941,0.97174054
C0R190,赤山,2019-06-15,22.5923,120.6143,0.70691556
C0R220,潮州,2019-06-15,22.5344,120.54,0.72031426
C0R240,來義,2019-06-15,22.5273,120.6251,0.74862653
C0R260,春日,2019-06-15,22.3704,120.6283,0.7074719
C0R270,琉球嶼,2019-06-15,22.3322,120.3622,0.7192968
C0R280,檳榔,2019-06-15,22.0761,120.8368,0.7727171
C0R320,車城,2019-06-15,22.0744,120.7162,0.19282667
C0R341,牡丹,2019-06-15,22.13,120.7926,0.8785955
C0R350,貓鼻頭,2019-06-15,21.9218,120.7358,0.25048718
C0R470,高樹,2019-06-15,22.8264,120.6008,0.6732691
C0R480,長治,2019-06-15,22.6931,120.5426,0.7879065
C0R490,九如,2019-06-15,22.7405,120.4905,0.9745928
C0R520,崁頂,2019-06-15,22.5148,120.5069,0.9535224
C0R540,佳冬,2019-06-15,22.4195,120.5524,0.9481416
C0R550,新埤,2019-06-15,22.4679,120.5829,0.6936033
C0R560,新園,2019-06-15,22.5434,120.4616,0.9535224
C0R570,麟洛,2019-06-15,22.6508,120.5272,0.97459286
C0R580,南州,2019-06-15,22.4859,120.5027,0.9481416
C0R590,里港,2019-06-15,22.7792,120.4946,0.7800281
C0R620,墾雷,2019-06-15,21.9008,120.8553,0.25048718
C0R640,東港,2019-06-15,22.4625,120.4407,0.89201015
C0R650,竹田,2019-06-15,22.5849,120.5434,0.68006295
C0R660,枋寮,2019-06-15,22.3677,120.5906,0.6964438
C0R670,楓港,2019-06-15,22.1901,120.6922,0.6543568
C0R680,佳樂水,2019-06-15,21.9936,120.8616,0.21823807
C0R690,墾丁,2019-06-15,21.9668,120.8103,0.82113844
C0R700,枋山,2019-06-15,22.2468,120.6611,0.6543568
C0R710,龍磐,2019-06-15,21.9317,120.8389,0.51503736
C0R720,旭海,2019-06-15,22.2054,120.8876,0.98121345
C0R730,大坪頂,2019-06-15,22.0246,120.6936,0.4575765
C0R740,獅子,2019-06-15,22.2016,120.7053,0.7115455
C0R760,南仁湖,2019-06-15,22.0847,120.8634,0.9141996
C0R770,保力,2019-06-15,22.0711,120.7641,0.37669885
C0R780,滿州,2019-06-15,22.0244,120.8399,0.26813605
C0R790,九棚,2019-06-15,22.142,120.8893,0.96155226
C0R800,丹路,2019-06-15,22.2045,120.751,0.80587566
C0R810,內獅,2019-06-15,22.3051,120.643,0.6342683
C0R830,高士,2019-06-15,22.1218,120.8368,0.9508638
C0R850,林邊,2019-06-15,22.4634,120.5339,0.9535224
C0R860,鼻頭,2019-06-15,22.1043,120.8979,0.8747302
C0R870,興海,2019-06-15,21.9752,120.8439,0.21823807
C0R880,後壁湖,2019-06-15,21.9457,120.7457,0.18173575
C0R890,山海,2019-06-15,21.9878,120.7091,0.19282667
C0R900,竹坑,2019-06-15,22.1385,120.7022,0.7161836
C0R910,下寮,2019-06-15,22.3929,120.5548,0.9481416
C0R920,塭仔,2019-06-15,22.4169,120.5197,0.94216573
C0R930,萬丹,2019-06-15,22.5885,120.4851,0.6800627
C0R940,加祿堂,2019-06-15,22.3363,120.6217,0.6342683
C0S710,鹿野,2019-06-15,22.9177,121.123,0.90615183
C0S730,綠島,2019-06-15,22.6672,121.4753,0.76207405
C0S740,池上,2019-06-15,23.1196,121.2095,0.67236626
C0S770,大溪山,2019-06-15,22.4785,120.9433,0.99200654
C0S790,金崙,2019-06-15,22.5381,120.9669,0.8944403
C0S810,東河,2019-06-15,22.9727,121.304,0.55021316
C0S830,長濱,2019-06-15,23.2868,121.412,0.9739389
C0S840,南田,2019-06-15,22.2797,120.8892,0.46836126
C0S890,關山,2019-06-15,23.0395,121.175,0.9020509
C0S900,蘭嶼高中,2019-06-15,22.0491,121.5121,0.9972095
C0S910,蘭嶼燈塔,2019-06-15,22.0812,121.5031,0.99810094
C0S920,金峰嘉蘭,2019-06-15,22.5948,120.9608,0.42149207
C0S930,延平,2019-06-15,22.9026,121.0841,0.6512213
C0S940,石寧山,2019-06-15,23.2238,121.4066,0.8321288
C0S950,七塊厝,2019-06-15,22.9545,121.2299,0.9452438
C0S960,香蘭,2019-06-15,22.5876,120.9934,0.24631758
C0S970,加津林,2019-06-15,22.4162,120.9269,0.24659096
C0S990,山豬窟,2019-06-15,22.3186,120.8574,0.9946826
C0SA00,歷坵,2019-06-15,22.521,120.8919,0.99354684
C0SA10,檳榔四格山,2019-06-15,22.81,121.1093,0.9887432
C0SA30,都歷,2019-06-15,23.0203,121.3236,0.7049446
C0SA40,瑞和,2019-06-15,22.9744,121.1567,0.8864309
C0SA60,知本（水試所）,2019-06-15,22.7024,121.0828,0.26183832
C0SA80,土,2019-06-15,22.4531,120.8876,0.5880213
C0SA90,達仁林場,2019-06-15,22.2643,120.824,0.93661404
C0T870,鯉魚潭,2019-06-15,23.9356,121.5089,0.3552682
C0T900,西林,2019-06-15,23.8119,121.4415,0.46876067
C0T960,光復,2019-06-15,23.6607,121.425,0.2627956
C0T9A0,月眉山,2019-06-15,23.8099,121.5398,0.9764465
C0T9D0,和中,2019-06-15,24.2668,121.741,0.73823273
C0T9E0,大坑,2019-06-15,23.8806,121.582,0.93118066
C0T9F0,水璉,2019-06-15,23.7971,121.5425,0.79494065
C0T9I0,豐濱,2019-06-15,23.5839,121.5148,0.2818273
C0T9M0,靜浦,2019-06-15,23.4552,121.495,0.18549925
C0T9N0,富里,2019-06-15,23.1716,121.2494,0.93097585
C0U600,礁溪,2019-06-15,24.8175,121.7656,0.9842918
C0U650,玉蘭,2019-06-15,24.6753,121.5871,0.99106133
C0U750,龜山島,2019-06-15,24.8417,121.9531,0.9952699
C0U760,東澳,2019-06-15,24.522,121.8332,0.9054749
C0U770,南澳,2019-06-15,24.4493,121.8102,0.79709077
C0U780,五結,2019-06-15,24.6864,121.7979,0.98569196
C0U860,頭城,2019-06-15,24.8532,121.8308,0.9842026
C0U870,大礁溪,2019-06-15,24.791,121.675,0.9822979
C0U880,北關,2019-06-15,24.9072,121.8734,0.9891626
C0U890,三星,2019-06-15,24.6681,121.653,0.98458964
C0U900,內城,2019-06-15,24.7181,121.6877,0.9845405
C0U910,冬山,2019-06-15,24.6337,121.7937,0.98569196
C0U940,羅東,2019-06-15,24.6818,121.7493,0.9864011
C0U970,大福,2019-06-15,24.8006,121.8139,0.9840124
C0U990,員山,2019-06-15,24.7444,121.7225,0.9864011
C0UA00,土場,2019-06-15,24.5765,121.4953,0.97822994
C0UA80,大溪漁港,2019-06-15,24.9418,121.903,0.9842918
C0UA90,石城,2019-06-15,24.9804,121.9512,0.987373
C0UB00,淡江大學蘭陽校園,2019-06-15,24.8232,121.7304,0.9817549
C0UB10,蘇澳,2019-06-15,24.5969,121.8571,0.8480601
C0UB20,壯圍,2019-06-15,24.7359,121.8163,0.9847832
C0V250,甲仙,2019-06-15,23.0801,120.5918,0.99356776
C0V260,月眉,2019-06-15,22.971,120.5399,0.9728228
C0V310,美濃,2019-06-15,22.8987,120.5192,0.19302377
C0V350,溪埔,2019-06-15,22.7386,120.4468,0.9369127
C0V360,內門,2019-06-15,22.9755,120.4668,0.18852206
C0V370,古亭坑,2019-06-15,22.8932,120.4019,0.16390647
C0V400,阿公店,2019-06-15,22.8042,120.3555,0.95121384
C0V440,鳳山,2019-06-15,22.6467,120.3561,0.92252004
C0V450,鳳森,2019-06-15,22.5451,120.3926,0.6982849
C0V490,新興,2019-06-15,22.6274,120.2988,0.90331537
C0V530,阿蓮,2019-06-15,22.8832,120.3275,0.63640636
C0V610,梓官,2019-06-15,22.7606,120.2672,0.6792393
C0V620,永安,2019-06-15,22.8231,120.2369,0.5953757
C0V630,茄萣,2019-06-15,22.9066,120.1826,0.50403947
C0V640,湖內,2019-06-15,22.8871,120.2445,0.5312837
C0V650,彌陀,2019-06-15,22.7838,120.2464,0.5953757
C0V660,岡山,2019-06-15,22.7971,120.295,0.6792393
C0V680,仁武,2019-06-15,22.7011,120.3477,0.82145244
C0V690,鼓山,2019-06-15,22.6233,120.2756,0.90331537
C0V700,三民,2019-06-15,22.645,120.3112,0.90331537
C0V710,苓雅,2019-06-15,22.6227,120.3307,0.90331537
C0V720,林園,2019-06-15,22.5077,120.3945,0.90331537
C0V730,大寮,2019-06-15,22.6056,120.3957,0.6307319
C0V740,旗山,2019-06-15,22.8886,120.4836,0.19189623
C0V750,路竹,2019-06-15,22.855,120.2594,0.6655624
C0V760,橋頭,2019-06-15,22.7578,120.3058,0.7013567
C0V770,大社,2019-06-15,22.7303,120.3466,0.82145244
C0V790,萬山,2019-06-15,22.9059,120.6881,0.99132377
C0V800,六龜,2019-06-15,22.9979,120.6336,0.9796094
C0V810,左營,2019-06-15,22.6749,120.2849,0.803305
C0V820,小林,2019-06-15,23.1484,120.6333,0.9915847
C0V840,鳳鼻頭,2019-06-15,22.5083,120.3591,0.89201015
C0V850,蚵仔寮,2019-06-15,22.7256,120.2527,0.78456086
C0V860,南寮,2019-06-15,22.7616,120.2339,0.5716611
C0V870,文安,2019-06-15,22.8025,120.2164,0.5716611
C0V880,興達,2019-06-15,22.8778,120.2127,0.50403875
C0V890,前鎮,2019-06-15,22.5718,120.3117,0.89201015
C0V900,汕尾,2019-06-15,22.4782,120.4151,0.93390447
C0X050,東河,2019-06-15,23.2966,120.3856,0.6999314
C0X060,下營,2019-06-15,23.2269,120.2563,0.12832507
C0X080,佳里,2019-06-15,23.173,120.1451,0.15778215
C0X100,臺南市北區,2019-06-15,23.0104,120.1942,0.70573795
C0X110,臺南市南區,2019-06-15,22.9612,120.1884,0.72837734
C0X120,麻豆,2019-06-15,23.1833,120.2486,0.16299812
C0X130,官田,2019-06-15,23.1932,120.3154,0.13585931
C0X140,西港,2019-06-15,23.1256,120.2031,0.15194072
C0X150,安定,2019-06-15,23.1026,120.2278,0.8059998
C0X160,仁德,2019-06-15,22.9683,120.2577,0.70098746
C0X170,關廟,2019-06-15,22.963,120.3278,0.78805906
C0X180,山上,2019-06-15,23.0757,120.3633,0.15356605
C0X190,安平,2019-06-15,22.9932,120.1522,0.70573795
C0X200,左鎮,2019-06-15,23.0568,120.4085,0.1536293
C0X210,白河,2019-06-15,23.3475,120.4144,0.7160536
C0X220,學甲,2019-06-15,23.2304,120.1822,0.16299812
C0X230,鹽水,2019-06-15,23.2726,120.2476,0.14269191
C0X240,關子嶺,2019-06-15,23.3312,120.508,0.97989804
C0X250,新營,2019-06-15,23.3107,120.3167,0.118244596
C0X260,後壁,2019-06-15,23.3664,120.3623,0.1631166
C0X280,將軍,2019-06-15,23.215,120.1358,0.15778215
C0X290,北門,2019-06-15,23.2678,120.1255,0.15778215
C0X300,鹿寮,2019-06-15,23.386,120.4773,0.99600136
C0X310,七股,2019-06-15,23.1473,120.0863,0.7973518
C0X320,柳營,2019-06-15,23.2533,120.3753,0.7083153
C0Z020,明里,2019-06-15,23.2087,121.2623,0.96136844
C0Z061,玉里,2019-06-15,23.3215,121.3397,0.6571634
C0Z070,舞鶴,2019-06-15,23.4681,121.3741,0.603257
C0Z080,富源,2019-06-15,23.5876,121.3782,0.5384167
C0Z100,東華,2019-06-15,23.8953,121.5498,0.16936025
C0Z150,吉安光華,2019-06-15,23.9309,121.5952,0.14833772
C0Z160,鳳林,2019-06-15,23.7461,121.4534,0.23615848
C0Z170,卓溪,2019-06-15,23.3443,121.3029,0.71999395
C0Z180,新城,2019-06-15,24.0395,121.6045,0.33743015
C0Z190,富世,2019-06-15,24.1474,121.6297,0.99722546
C0Z200,萬榮,2019-06-15,23.7092,121.4201,0.3552682
C0Z210,瑞穗,2019-06-15,23.5239,121.3902,0.24016881
C0Z230,和平,2019-06-15,24.3072,121.7701,0.73823273
C0Z270,蕃薯寮,2019-06-15,23.7384,121.5401,0.34147376
C0Z280,德武,2019-06-15,23.4743,121.4107,0.41834572
C0Z300,東里,2019-06-15,23.2685,121.3055,0.6851245
C0Z310,清水斷崖,2019-06-15,24.2183,121.6891,0.9587267
C0Z330,安通山,2019-06-15,23.2907,121.3485,0.977234
