站號,站名,日期,lat,lon,BlastGRU-TW
466881,新北,2019-05-14,24.9593,121.52,0.65263486
466900,淡水,2019-05-14,25.164889,121.448906,0.6337233
466920,臺北,2019-05-14,25.037658,121.514853,0.659057
467441,高雄,2019-05-14,22.7304,120.3125,0.9972872
467480,嘉義,2019-05-14,23.495925,120.432906,0.05773299
467490,臺中,2019-05-14,24.145736,120.684075,0.97186744
C0A530,坪林,2019-05-14,24.938183,121.70975,0.64057535
C0A540,四堵,2019-05-14,24.8926,121.745736,0.29298565
C0A550,泰平,2019-05-14,24.971197,121.823711,0.8342531
C0A890,雙溪,2019-05-14,25.036003,121.864242,0.63581496
C0A920,富貴角,2019-05-14,25.263783,121.565258,0.589697
C0A931,三和,2019-05-14,25.233153,121.595236,0.81261754
C0AC70,信義,2019-05-14,25.037822,121.564597,0.659057
C0AC80,文山,2019-05-14,25.00235,121.575728,0.6427688
C0ACA0,新莊,2019-05-14,25.051478,121.446756,0.6449806
C0AH50,林口,2019-05-14,25.072181,121.38084,0.55354977
C0AH70,松山,2019-05-14,25.04871,121.55042,0.659057
C0AH80,深坑,2019-05-14,25.002703,121.628328,0.6427688
C0AJ60,六塊厝,2019-05-14,25.24,121.4481,0.63592076
C0AJ70,田寮,2019-05-14,25.2698,121.4886,0.6105121
