站號,站名,日期,lat,lon,BlastGRU-TW
466881,新北,2019-10-23,24.9593,121.52,0.06127107
466900,淡水,2019-10-23,25.164889,121.448906,0.04987569
466920,臺北,2019-10-23,25.037658,121.514853,0.067424044
466940,基隆,2019-10-23,25.133314,121.740475,0.09274841
466990,花蓮,2019-10-23,23.975128,121.613275,0.38674477
467050,新屋,2019-10-23,25.006744,121.047486,0.18325108
467080,宜蘭,2019-10-23,24.763975,121.756528,0.10494454
467270,田中,2019-10-23,23.873803,120.581286,0.085062765
467300,東吉島,2019-10-23,23.25695,119.667467,0.767589
467350,澎湖,2019-10-23,23.565503,119.563094,0.82419807
467410,臺南,2019-10-23,22.993239,120.204772,0.27096885
467420,永康,2019-10-23,23.038386,120.2367,0.2749366
467441,高雄,2019-10-23,22.7304,120.3125,0.3648254
467480,嘉義,2019-10-23,23.495925,120.432906,0.4298004
467490,臺中,2019-10-23,24.145736,120.684075,0.36315554
467540,大武,2019-10-23,22.355675,120.903789,0.23556663
467571,新竹,2019-10-23,24.827853,121.014219,0.06007306
467590,恆春,2019-10-23,22.003897,120.746339,0.14877799
467610,成功,2019-10-23,23.097486,121.373428,0.5455284
467620,蘭嶼,2019-10-23,22.036969,121.558339,0.67175484
467660,臺東,2019-10-23,22.752211,121.154586,0.3544971
467790,墾丁雷達站,2019-10-23,21.948235,120.808028,0.155233
C0A520,山佳,2019-10-23,24.974944,121.402008,0.05134754
C0A530,坪林,2019-10-23,24.938183,121.70975,0.13752055
C0A540,四堵,2019-10-23,24.8926,121.745736,0.03245035
C0A550,泰平,2019-10-23,24.971197,121.823711,0.24649589
C0A560,福山,2019-10-23,24.776203,121.502811,0.51002765
C0A570,桶後,2019-10-23,24.848222,121.597992,0.046749007
C0A640,石碇,2019-10-23,24.993969,121.662917,0.05552558
C0A650,火燒寮,2019-10-23,25.002719,121.742892,0.04745981
C0A660,瑞芳,2019-10-23,25.113169,121.801147,0.08099641
C0A770,科教館,2019-10-23,25.096356,121.516507,0.05843258
C0A860,大坪,2019-10-23,25.165914,121.632969,0.021042151
C0A880,福隆,2019-10-23,25.017842,121.942083,0.117011055
C0A890,雙溪,2019-10-23,25.036003,121.864242,0.078573704
C0A920,富貴角,2019-10-23,25.263783,121.565258,0.03676715
C0A931,三和,2019-10-23,25.233153,121.595236,0.039107498
C0A940,金山,2019-10-23,25.223628,121.643967,0.04542171
C0A950,鼻頭角,2019-10-23,25.129036,121.923372,0.121757254
C0A970,三貂角,2019-10-23,25.007606,122.002058,0.08436174
C0A980,社子,2019-10-23,25.109508,121.469681,0.061219357
C0A9C0,天母,2019-10-23,25.117494,121.537169,0.053507715
C0A9F0,內湖,2019-10-23,25.079422,121.57545,0.067424044
C0AC60,三峽,2019-10-23,24.939025,121.369728,0.058751937
C0AC70,信義,2019-10-23,25.037822,121.564597,0.067424044
C0AC80,文山,2019-10-23,25.00235,121.575728,0.053364296
C0ACA0,新莊,2019-10-23,25.051478,121.446756,0.060500614
C0AD00,三芝,2019-10-23,25.258131,121.501917,0.040108383
C0AD10,八里,2019-10-23,25.150211,121.403947,0.04987569
C0AD30,蘆洲,2019-10-23,25.086594,121.472331,0.05843258
C0AD40,土城,2019-10-23,24.973208,121.445169,0.05609179
C0AD50,鶯歌,2019-10-23,24.951533,121.346294,0.037948016
C0AG80,中和,2019-10-23,24.991622,121.491792,0.067424044
C0AH00,汐止,2019-10-23,25.066881,121.658778,0.089378804
C0AH10,永和,2019-10-23,25.01125,121.508111,0.07115112
C0AH40,平等,2019-10-23,25.129142,121.577086,0.030640583
C0AH50,林口,2019-10-23,25.072181,121.38084,0.030253384
C0AH70,松山,2019-10-23,25.04871,121.55042,0.067424044
C0AH80,深坑,2019-10-23,25.002703,121.628328,0.053364296
C0AI00,五股,2019-10-23,25.07445,121.42728,0.056316894
C0AI10,屈尺,2019-10-23,24.92184,121.54475,0.053364296
C0AI20,白沙灣,2019-10-23,25.283128,121.519058,0.048154328
C0AI30,三重,2019-10-23,25.057328,121.500629,0.05843258
C0AI40,石牌,2019-10-23,25.115597,121.513139,0.05609179
C0AJ20,野柳,2019-10-23,25.20703,121.690021,0.089378804
C0AJ30,淡水觀海,2019-10-23,25.184591,121.408616,0.052319694
C0AJ40,石門,2019-10-23,25.273672,121.601198,0.029057086
C0AJ50,水湳洞,2019-10-23,25.123695,121.862238,0.089378804
C0AJ60,六塊厝,2019-10-23,25.24,121.4481,0.052319694
C0AJ70,田寮,2019-10-23,25.2698,121.4886,0.049562376
C0AJ80,板橋,2019-10-23,25.0107,121.4489,0.05609179
C0AJ90,澳底,2019-10-23,25.0552,121.9253,0.117011055
C0B010,七堵,2019-10-23,25.094819,121.71713,0.08416088
C0B020,基隆嶼,2019-10-23,25.19141,121.78391,0.089378804
C0B040,大武崙,2019-10-23,25.166676,121.706993,0.08416069
C0B050,八斗子,2019-10-23,25.144754,121.79167,0.09570715
C0B060,暖暖,2019-10-23,25.0957,121.7403,0.071021855
C0C460,復興,2019-10-23,24.820208,121.352281,0.27585915
C0C480,桃園,2019-10-23,24.992425,121.323172,0.061954957
C0C490,八德,2019-10-23,24.928708,121.283289,0.06876995
C0C590,觀音,2019-10-23,25.027072,121.153317,0.03749738
C0C620,蘆竹,2019-10-23,25.084275,121.265767,0.046724033
C0C630,大溪,2019-10-23,24.882853,121.265547,0.051618617
C0C650,平鎮,2019-10-23,24.897503,121.214636,0.035036065
C0C660,楊梅,2019-10-23,24.912375,121.143047,0.044496536
C0C670,龍潭,2019-10-23,24.870056,121.221389,0.08750734
C0C680,龜山,2019-10-23,25.02846,121.38656,0.031814184
C0C700,中壢,2019-10-23,24.977661,121.256375,0.054677185
C0C710,大溪永福,2019-10-23,24.892936,121.324975,0.049081925
C0C720,竹圍,2019-10-23,25.112692,121.239824,0.04987569
C0C730,中大臨海站,2019-10-23,24.966126,121.008581,0.1946006
C0C740,觀音工業區,2019-10-23,25.064764,121.114856,0.07823754
C0C750,新興坑尾,2019-10-23,25.0061,121.0971,0.06474682
C0D430,峨眉,2019-10-23,24.6905,121.017189,0.03959775
C0D480,打鐵坑,2019-10-23,24.849664,121.150789,0.09257925
C0D540,橫山,2019-10-23,24.71116,121.11693,0.05420786
C0D560,竹東,2019-10-23,24.767147,121.057881,0.040462412
C0D580,寶山,2019-10-23,24.735006,121.025192,0.08119363
C0D590,新豐,2019-10-23,24.87068,120.97721,0.24157108
C0D650,湖口,2019-10-23,24.904794,121.043628,0.15838031
C0D660,新竹市東區,2019-10-23,24.798681,120.986942,0.05627615
C0D670,海天一線,2019-10-23,24.831986,120.914438,0.06271327
C0D680,香山濕地,2019-10-23,24.783581,120.914988,0.06085992
C0D690,外湖,2019-10-23,24.917735,120.968711,0.1946006
C0D700,關西,2019-10-23,24.7977,121.1732,0.048424337
C0E420,竹南,2019-10-23,24.708978,120.888897,0.05570974
C0E430,南庄,2019-10-23,24.601775,121.000214,0.09031227
C0E520,大湖,2019-10-23,24.41494,120.87087,0.21739116
C0E540,後龍,2019-10-23,24.606489,120.783933,0.16408014
C0E550,明德,2019-10-23,24.583486,120.885411,0.15292247
C0E590,通霄,2019-10-23,24.471892,120.704622,0.26298258
C0E730,頭份,2019-10-23,24.688247,120.912206,0.05570974
C0E740,造橋,2019-10-23,24.637056,120.864778,0.13260834
C0E750,苗栗,2019-10-23,24.564569,120.824575,0.1462659
C0E780,銅鑼,2019-10-23,24.489681,120.790853,0.22994865
C0E791,卓蘭,2019-10-23,24.3126,120.8244,0.083750844
C0E810,西湖,2019-10-23,24.562947,120.7485,0.15314154
C0E820,獅潭,2019-10-23,24.539133,120.920042,0.114845894
C0E830,苑裡,2019-10-23,24.439714,120.653053,0.47862813
C0E850,大河,2019-10-23,24.618069,120.948578,0.14405273
C0E870,高鐵苗栗,2019-10-23,24.60725,120.826094,0.16037603
C0E910,海埔,2019-10-23,24.648767,120.772435,0.19646682
C0E920,通霄漁港,2019-10-23,24.498589,120.673876,0.29521576
C0E930,龍鳳,2019-10-23,24.700034,120.859125,0.14451453
C0F0B0,石岡,2019-10-23,24.276061,120.777644,0.22732964
C0F850,東勢,2019-10-23,24.246428,120.833047,0.068631604
C0F930,大甲,2019-10-23,24.347667,120.640403,0.5568769
C0F970,大坑,2019-10-23,24.173142,120.722289,0.33492705
C0F9A0,中竹林,2019-10-23,24.103556,120.751061,0.26372403
C0F9I0,神岡,2019-10-23,24.272481,120.658314,0.48035216
C0F9K0,大安,2019-10-23,24.345061,120.588025,0.6447543
C0F9L0,后里,2019-10-23,24.310436,120.729725,0.37062794
C0F9M0,豐原,2019-10-23,24.254322,120.720692,0.42167804
C0F9N0,大里,2019-10-23,24.092464,120.701378,0.55509585
C0F9O0,潭子,2019-10-23,24.213106,120.703933,0.4473542
C0F9P0,清水,2019-10-23,24.312297,120.562242,0.66470134
C0F9Q0,外埔,2019-10-23,24.347817,120.705686,0.5509362
C0F9R0,龍井,2019-10-23,24.184536,120.528972,0.6479721
C0F9S0,烏日,2019-10-23,24.107058,120.624103,0.17983402
C0F9T0,西屯,2019-10-23,24.179494,120.641275,0.5296153
C0F9U0,南屯,2019-10-23,24.137006,120.637969,0.55509585
C0F9X0,大雅(中科園區),2019-10-23,24.21528,120.62445,0.43992597
C0FA10,松柏,2019-10-23,24.429115,120.617482,0.50798184
C0FA20,溫寮,2019-10-23,24.372177,120.583125,0.50798184
C0FA30,梧棲,2019-10-23,24.256003,120.523381,0.6479721
C0FA40,臺中電廠,2019-10-23,24.2146,120.4907,0.6479721
C0FA50,霧峰,2019-10-23,24.0419,120.6995,0.4999316
C0G620,芬園,2019-10-23,24.015678,120.6213,0.13815974
C0G640,鹿港,2019-10-23,24.0753,120.430481,0.22994715
C0G650,員林,2019-10-23,23.946503,120.585597,0.22155899
C0G660,溪湖,2019-10-23,23.94835,120.479122,0.27254304
C0G720,溪州,2019-10-23,23.851589,120.499093,0.0923386
C0G730,二林,2019-10-23,23.903325,120.376081,0.30731773
C0G740,大城,2019-10-23,23.852487,120.320935,0.5063788
C0G770,福興,2019-10-23,24.041289,120.437669,0.22994715
C0G780,秀水,2019-10-23,24.03405,120.503869,0.2033307
C0G800,埔鹽,2019-10-23,24.000394,120.431683,0.22994715
C0G810,埔心,2019-10-23,23.947633,120.525456,0.2635911
C0G820,田尾,2019-10-23,23.901669,120.509389,0.25435585
C0G830,埤頭,2019-10-23,23.866003,120.452806,0.09703208
C0G840,北斗,2019-10-23,23.877586,120.514222,0.25435585
C0G860,社頭,2019-10-23,23.897647,120.5862,0.21338393
C0G870,芳苑,2019-10-23,23.922303,120.320025,0.52092224
C0G880,二水,2019-10-23,23.810742,120.6173,0.07852135
C0G890,伸港,2019-10-23,24.148933,120.484403,0.66034734
C0G900,線西,2019-10-23,24.143358,120.443536,0.6853155
C0G910,花壇,2019-10-23,24.032076,120.549461,0.19076957
C0G920,永靖,2019-10-23,23.924703,120.547533,0.25435585
C0G940,竹塘,2019-10-23,23.848253,120.386764,0.115899235
C0G950,防潮門,2019-10-23,24.1835,120.4871,0.6586316
C0G960,福寶,2019-10-23,24.0443,120.3814,0.23796752
C0G970,三豐,2019-10-23,23.882,120.2895,0.5209222
C0H890,埔里,2019-10-23,23.972169,120.952425,0.1139408
C0H950,中寮,2019-10-23,23.884447,120.766406,0.033998508
C0H960,草屯,2019-10-23,23.973672,120.68085,0.051615477
C0I110,竹山,2019-10-23,23.761225,120.688156,0.040543012
C0I360,水里,2019-10-23,23.812553,120.849792,0.071947105
C0I380,集集,2019-10-23,23.828206,120.801467,0.07598652
C0I410,名間,2019-10-23,23.837053,120.701447,0.068521686
C0I420,國姓,2019-10-23,24.037803,120.855072,0.1703247
C0I460,南投,2019-10-23,23.911469,120.687331,0.052279443
C0K250,崙背,2019-10-23,23.75555,120.318925,0.57350874
C0K280,四湖,2019-10-23,23.630414,120.227125,0.6825667
C0K291,宜梧,2019-10-23,23.536281,120.169329,0.37000492
C0K330,虎尾,2019-10-23,23.719183,120.442036,0.15493849
C0K390,土庫,2019-10-23,23.679029,120.395574,0.16077386
C0K400,斗六,2019-10-23,23.720583,120.541127,0.106650926
C0K410,北港,2019-10-23,23.573957,120.292802,0.39396602
C0K420,西螺,2019-10-23,23.800407,120.467394,0.091491185
C0K430,褒忠,2019-10-23,23.690938,120.303634,0.709883
C0K440,二崙,2019-10-23,23.772797,120.408944,0.11289919
C0K450,大埤,2019-10-23,23.646074,120.431537,0.13164797
C0K460,斗南,2019-10-23,23.678734,120.478359,0.11499146
C0K470,林內,2019-10-23,23.748675,120.609642,0.103668116
C0K480,莿桐,2019-10-23,23.761192,120.502372,0.09076963
C0K500,元長,2019-10-23,23.64981,120.315024,0.74376214
C0K510,水林,2019-10-23,23.572924,120.24597,0.26620787
C0K530,臺西,2019-10-23,23.701547,120.197559,0.62380177
C0K550,蔦松,2019-10-23,23.514319,120.229736,0.3581045
C0K560,棋山,2019-10-23,23.68645,120.603417,0.1421334
C0K580,高鐵雲林,2019-10-23,23.737456,120.417944,0.16077405
C0K590,雲林東勢,2019-10-23,23.674192,120.255721,0.709883
C0K600,箔子寮,2019-10-23,23.6197,120.14,0.27477196
C0M410,馬頭山,2019-10-23,23.324361,120.582017,0.0909313
C0M520,東後寮,2019-10-23,23.369908,120.248065,0.1817311
C0M640,中埔,2019-10-23,23.42538,120.5229,0.12484281
C0M650,朴子,2019-10-23,23.43463,120.23902,0.41446698
C0M660,溪口,2019-10-23,23.604131,120.403569,0.5345773
C0M670,大林,2019-10-23,23.600616,120.45841,0.47346526
C0M680,太保,2019-10-23,23.455062,120.331455,0.45448014
C0M690,水上,2019-10-23,23.419734,120.388909,0.4927989
C0M700,竹崎,2019-10-23,23.526178,120.555508,0.088076636
C0M710,東石,2019-10-23,23.458927,120.15385,0.3581045
C0M720,番路,2019-10-23,23.464657,120.554156,0.08338384
C0M730,嘉義市東區,2019-10-23,23.457673,120.460531,0.42168665
C0M740,六腳,2019-10-23,23.492871,120.290625,0.47081143
C0M750,布袋,2019-10-23,23.380878,120.167789,0.41446698
C0M760,民雄,2019-10-23,23.551754,120.428457,0.5022746
C0M770,嘉義梅山,2019-10-23,23.585398,120.555587,0.11708029
C0M780,鹿草,2019-10-23,23.41134,120.30835,0.4701459
C0M790,新港,2019-10-23,23.553269,120.345728,0.38089028
C0M800,茶山,2019-10-23,23.299075,120.664767,0.4073029
C0M880,好美里,2019-10-23,23.3364,120.138,0.2121608
C0N010,鯤鯓國小,2019-10-23,23.1879,120.0889,0.47328004
C0N020,城西,2019-10-23,23.0568,120.0956,0.2068505
C0N030,四草,2019-10-23,23.0235,120.1116,0.565709
C0N040,蘆竹溝,2019-10-23,23.2344,120.0961,0.47328004
C0N050,蚵寮,2019-10-23,23.301,120.1104,0.47328004
C0O810,曾文,2019-10-23,23.219681,120.497328,0.14683029
C0O830,北寮,2019-10-23,23.079561,120.495008,0.55756485
C0O840,王爺宮,2019-10-23,23.222064,120.40085,0.14683029
C0O860,大內,2019-10-23,23.11885,120.36083,0.18115996
C0O900,善化,2019-10-23,23.112883,120.297219,0.29898417
C0O930,玉井,2019-10-23,23.126042,120.46055,0.2696088
C0O950,安南,2019-10-23,23.076694,120.144861,0.14741407
C0O960,崎頂,2019-10-23,22.959547,120.369317,0.53235704
C0O970,虎頭埤,2019-10-23,23.021375,120.347878,0.3934225
C0O980,新市,2019-10-23,23.061614,120.298197,0.2989845
C0O990,媽廟,2019-10-23,22.99175,120.293525,0.3740686
C0R150,三地門,2019-10-23,22.709889,120.639944,0.30972403
C0R160,鹽埔,2019-10-23,22.739558,120.530778,0.22924581
C0R170,屏東,2019-10-23,22.660269,120.494072,0.29222155
C0R190,赤山,2019-10-23,22.592333,120.614306,0.23180708
C0R220,潮州,2019-10-23,22.534361,120.54,0.20217997
C0R240,來義,2019-10-23,22.527306,120.625111,0.16152364
C0R260,春日,2019-10-23,22.370361,120.628306,0.16384105
C0R270,琉球嶼,2019-10-23,22.332244,120.362236,0.16308393
C0R280,檳榔,2019-10-23,22.076078,120.836777,0.10200593
C0R320,車城,2019-10-23,22.0744,120.716247,0.13809606
C0R341,牡丹,2019-10-23,22.130036,120.792639,0.1635918
C0R350,貓鼻頭,2019-10-23,21.921774,120.7358,0.15119508
C0R470,高樹,2019-10-23,22.826389,120.600806,0.31303734
C0R480,長治,2019-10-23,22.693128,120.542622,0.22478177
C0R490,九如,2019-10-23,22.7405,120.490503,0.2832866
C0R520,崁頂,2019-10-23,22.514781,120.506914,0.23396826
C0R540,佳冬,2019-10-23,22.419456,120.552375,0.24110825
C0R550,新埤,2019-10-23,22.467947,120.582894,0.23640805
C0R560,新園,2019-10-23,22.5434,120.461558,0.23396826
C0R570,麟洛,2019-10-23,22.65078,120.52719,0.2832866
C0R580,南州,2019-10-23,22.48591,120.50274,0.24110825
C0R590,里港,2019-10-23,22.77919,120.49459,0.23164429
C0R620,墾雷,2019-10-23,21.900836,120.855269,0.15119508
C0R640,東港,2019-10-23,22.46247,120.44074,0.32632896
C0R650,竹田,2019-10-23,22.58486,120.54344,0.23936053
C0R660,枋寮,2019-10-23,22.367722,120.590647,0.2080909
C0R670,楓港,2019-10-23,22.190131,120.692156,0.1795115
C0R680,佳樂水,2019-10-23,21.993578,120.861633,0.14521259
C0R690,墾丁,2019-10-23,21.966756,120.810269,0.08970318
C0R700,枋山,2019-10-23,22.246844,120.661086,0.1795115
C0R710,龍磐,2019-10-23,21.931672,120.838942,0.15286432
C0R720,旭海,2019-10-23,22.205403,120.887614,0.06361447
C0R730,大坪頂,2019-10-23,22.024633,120.69355,0.15438922
C0R740,獅子,2019-10-23,22.201569,120.70525,0.18015474
C0R760,南仁湖,2019-10-23,22.084681,120.863353,0.057784744
C0R770,保力,2019-10-23,22.071122,120.764111,0.1587611
C0R780,滿州,2019-10-23,22.024403,120.839892,0.15406157
C0R790,九棚,2019-10-23,22.14195,120.889281,0.079752736
C0R800,丹路,2019-10-23,22.204481,120.750989,0.17428073
C0R810,內獅,2019-10-23,22.305064,120.642986,0.16445321
C0R830,高士,2019-10-23,22.121825,120.836781,0.034715563
C0R850,林邊,2019-10-23,22.4634,120.5339,0.23396826
C0R860,鼻頭,2019-10-23,22.1043,120.8979,0.7417234
C0R870,興海,2019-10-23,21.9752,120.8439,0.14521259
C0R880,後壁湖,2019-10-23,21.9457,120.7457,0.13457297
C0R890,山海,2019-10-23,21.9878,120.7091,0.13809606
C0R900,竹坑,2019-10-23,22.1385,120.7022,0.16615292
C0R910,下寮,2019-10-23,22.3929,120.5548,0.24110825
C0R920,塭仔,2019-10-23,22.4169,120.5197,0.24922208
C0R930,萬丹,2019-10-23,22.5885,120.4851,0.23936053
C0R940,加祿堂,2019-10-23,22.3363,120.6217,0.16445321
C0S710,鹿野,2019-10-23,22.917711,121.122994,0.38545385
C0S730,綠島,2019-10-23,22.6672,121.47533,0.5182261
C0S740,池上,2019-10-23,23.119628,121.209469,0.29185632
C0S770,大溪山,2019-10-23,22.478475,120.943325,0.1432173
C0S790,金崙,2019-10-23,22.538122,120.966875,0.31869084
C0S810,東河,2019-10-23,22.972672,121.303986,0.4816722
C0S830,長濱,2019-10-23,23.286817,121.411975,0.13134398
C0S840,南田,2019-10-23,22.279725,120.889208,0.19464937
C0S890,關山,2019-10-23,23.0395,121.175017,0.37610832
C0S900,蘭嶼高中,2019-10-23,22.04909,121.51214,0.98640615
C0S910,蘭嶼燈塔,2019-10-23,22.081197,121.503117,0.95488775
C0S920,金峰嘉蘭,2019-10-23,22.594789,120.960825,0.53832
C0S930,延平,2019-10-23,22.902581,121.084058,0.28826535
C0S940,石寧山,2019-10-23,23.223772,121.406639,0.113670304
C0S950,七塊厝,2019-10-23,22.954453,121.229922,0.44955954
C0S960,香蘭,2019-10-23,22.587569,120.993375,0.569527
C0S970,加津林,2019-10-23,22.416211,120.926942,0.24400651
C0S990,山豬窟,2019-10-23,22.318619,120.857372,0.02661612
C0SA00,歷坵,2019-10-23,22.520969,120.89185,0.12110303
C0SA10,檳榔四格山,2019-10-23,22.810031,121.109308,0.07834643
C0SA30,都歷,2019-10-23,23.020333,121.323642,0.5348943
C0SA40,瑞和,2019-10-23,22.974361,121.156697,0.4177163
C0SA60,知本（水試所）,2019-10-23,22.702394,121.082761,0.5867008
C0SA80,土坂,2019-10-23,22.453108,120.887572,0.47111028
C0SA90,達仁林場,2019-10-23,22.264347,120.823972,0.056648795
C0T870,鯉魚潭,2019-10-23,23.935639,121.508944,0.23170528
C0T900,西林,2019-10-23,23.8119,121.441458,0.20084043
C0T960,光復,2019-10-23,23.660694,121.424964,0.27167994
C0T9A0,月眉山,2019-10-23,23.809928,121.539828,0.35755923
C0T9D0,和中,2019-10-23,24.26676,121.74103,0.34684348
C0T9E0,大坑,2019-10-23,23.880628,121.581981,0.21904023
C0T9F0,水璉,2019-10-23,23.797131,121.542514,0.2002363
C0T9I0,豐濱,2019-10-23,23.583897,121.514806,0.19807541
C0T9M0,靜浦,2019-10-23,23.455167,121.495028,0.27975917
C0T9N0,富里,2019-10-23,23.171639,121.249378,0.115820184
C0U600,礁溪,2019-10-23,24.817539,121.765608,0.10053365
C0U650,玉蘭,2019-10-23,24.675286,121.587061,0.52387047
C0U750,龜山島,2019-10-23,24.841667,121.953133,0.062047374
C0U760,東澳,2019-10-23,24.52196,121.83318,0.1421654
C0U770,南澳,2019-10-23,24.44935,121.81022,0.17447393
C0U780,五結,2019-10-23,24.68637,121.79794,0.18323305
C0U860,頭城,2019-10-23,24.85323,121.8308,0.10494439
C0U870,大礁溪,2019-10-23,24.791042,121.675047,0.53148395
C0U880,北關,2019-10-23,24.9072,121.8734,0.07743094
C0U890,三星,2019-10-23,24.66812,121.65302,0.069756255
C0U900,內城,2019-10-23,24.71813,121.68766,0.088530675
C0U910,冬山,2019-10-23,24.63373,121.7937,0.18323305
C0U940,羅東,2019-10-23,24.68184,121.74934,0.17940862
C0U970,大福,2019-10-23,24.80064,121.81389,0.109836996
C0U990,員山,2019-10-23,24.74435,121.72247,0.17940862
C0UA00,土場,2019-10-23,24.576533,121.495333,0.48605052
C0UA80,大溪漁港,2019-10-23,24.941801,121.902955,0.10053365
C0UA90,石城,2019-10-23,24.980444,121.951214,0.114419274
C0UB00,淡江大學蘭陽校園,2019-10-23,24.823239,121.730383,0.41683006
C0UB10,蘇澳,2019-10-23,24.5969,121.8571,0.23396586
C0UB20,壯圍,2019-10-23,24.7359,121.8163,0.189268
C0V250,甲仙,2019-10-23,23.080106,120.591758,0.27411413
C0V260,月眉,2019-10-23,22.971003,120.539853,0.5863344
C0V310,美濃,2019-10-23,22.898742,120.519153,0.26514962
C0V350,溪埔,2019-10-23,22.738578,120.446797,0.306379
C0V360,內門,2019-10-23,22.975481,120.466769,0.1658695
C0V370,古亭坑,2019-10-23,22.893178,120.401947,0.24264102
C0V400,阿公店,2019-10-23,22.804194,120.355528,0.28573897
C0V440,鳳山,2019-10-23,22.646653,120.356122,0.30345842
C0V450,鳳森,2019-10-23,22.545064,120.392592,0.20763656
C0V490,新興,2019-10-23,22.627422,120.298803,0.31939834
C0V530,阿蓮,2019-10-23,22.883208,120.327508,0.43854603
C0V610,梓官,2019-10-23,22.760558,120.267211,0.36259764
C0V620,永安,2019-10-23,22.82315,120.236856,0.29394025
C0V630,茄萣,2019-10-23,22.906642,120.182608,0.38689855
C0V640,湖內,2019-10-23,22.887139,120.2445,0.3879521
C0V650,彌陀,2019-10-23,22.783806,120.246361,0.29394025
C0V660,岡山,2019-10-23,22.797078,120.294958,0.36259764
C0V680,仁武,2019-10-23,22.701083,120.347722,0.36065805
C0V690,鼓山,2019-10-23,22.623325,120.275575,0.31939834
C0V700,三民,2019-10-23,22.645017,120.311233,0.31939834
C0V710,苓雅,2019-10-23,22.622742,120.330669,0.31939834
C0V720,林園,2019-10-23,22.507747,120.394511,0.31939834
C0V730,大寮,2019-10-23,22.605614,120.395717,0.21820742
C0V740,旗山,2019-10-23,22.888614,120.483597,0.25259733
C0V750,路竹,2019-10-23,22.854997,120.259439,0.3454944
C0V760,橋頭,2019-10-23,22.757806,120.30575,0.3640789
C0V770,大社,2019-10-23,22.730306,120.346639,0.36065817
C0V790,萬山,2019-10-23,22.905944,120.688056,0.4782051
C0V800,六龜,2019-10-23,22.997889,120.633583,0.66421187
C0V810,左營,2019-10-23,22.67491,120.28491,0.3648254
C0V820,小林,2019-10-23,23.148408,120.63325,0.4623135
C0V840,鳳鼻頭,2019-10-23,22.5083,120.3591,0.32632896
C0V850,蚵仔寮,2019-10-23,22.7256,120.2527,0.36283746
C0V860,南寮,2019-10-23,22.7616,120.2339,0.29253745
C0V870,文安,2019-10-23,22.8025,120.2164,0.29253745
C0V880,興達,2019-10-23,22.8778,120.2127,0.38689855
C0V890,前鎮,2019-10-23,22.5718,120.3117,0.32632896
C0V900,汕尾,2019-10-23,22.4782,120.4151,0.32094583
C0X050,東河,2019-10-23,23.296598,120.385608,0.3054358
C0X060,下營,2019-10-23,23.22695,120.256261,0.28568837
C0X080,佳里,2019-10-23,23.173039,120.145086,0.2121608
C0X100,臺南市北區,2019-10-23,23.010394,120.194228,0.28131887
C0X110,臺南市南區,2019-10-23,22.961189,120.188378,0.27493644
C0X120,麻豆,2019-10-23,23.183289,120.248611,0.20522952
C0X130,官田,2019-10-23,23.193217,120.315422,0.2633925
C0X140,西港,2019-10-23,23.125608,120.203108,0.26915532
C0X150,安定,2019-10-23,23.102614,120.227839,0.19136399
C0X160,仁德,2019-10-23,22.968258,120.257689,0.37781966
C0X170,關廟,2019-10-23,22.963017,120.327797,0.3485201
C0X180,山上,2019-10-23,23.0757,120.363253,0.14883
C0X190,安平,2019-10-23,22.993161,120.152181,0.28131887
C0X200,左鎮,2019-10-23,23.056758,120.408522,0.15604682
C0X210,白河,2019-10-23,23.347466,120.414427,0.29160988
C0X220,學甲,2019-10-23,23.230367,120.182187,0.20522952
C0X230,鹽水,2019-10-23,23.272621,120.247641,0.19261351
C0X240,關子嶺,2019-10-23,23.331169,120.508025,0.52148813
C0X250,新營,2019-10-23,23.310689,120.316681,0.26240924
C0X260,後壁,2019-10-23,23.366358,120.362326,0.14523296
C0X280,將軍,2019-10-23,23.214999,120.13577,0.2121608
C0X290,北門,2019-10-23,23.267772,120.125481,0.2121608
C0X300,鹿寮,2019-10-23,23.386047,120.477331,0.14699027
C0X310,七股,2019-10-23,23.147289,120.086253,0.48064908
C0X320,柳營,2019-10-23,23.253328,120.375253,0.3054358
C0Z020,明里,2019-10-23,23.208717,121.262342,0.117706105
C0Z061,玉里,2019-10-23,23.3215,121.339656,0.12528107
C0Z070,舞鶴,2019-10-23,23.46811,121.37407,0.077529036
C0Z080,富源,2019-10-23,23.587642,121.378225,0.11094631
C0Z100,東華,2019-10-23,23.89525,121.549833,0.37167275
C0Z150,吉安光華,2019-10-23,23.930925,121.595153,0.401703
C0Z160,鳳林,2019-10-23,23.746114,121.453411,0.29490796
C0Z170,卓溪,2019-10-23,23.3443,121.3029,0.11598213
C0Z180,新城,2019-10-23,24.03946,121.60454,0.3598024
C0Z190,富世,2019-10-23,24.14743,121.6297,0.502063
C0Z200,萬榮,2019-10-23,23.709219,121.420106,0.23170528
C0Z210,瑞穗,2019-10-23,23.5239,121.39021,0.22524053
C0Z230,和平,2019-10-23,24.30717,121.77007,0.34684348
C0Z270,蕃薯寮,2019-10-23,23.73835,121.540108,0.1812453
C0Z280,德武,2019-10-23,23.47426,121.41071,0.094145656
C0Z300,東里,2019-10-23,23.26853,121.30547,0.12004446
C0Z310,清水斷崖,2019-10-23,24.218294,121.689142,0.24520539
C0Z330,安通山,2019-10-23,23.290728,121.348528,0.35215065
