站號,站名,日期,lat,lon,BlastGRU-TW
12J990,口湖工作站,2019-01-13,23.589978,120.180394,0.019507593
12Q970,東港工作站,2019-01-13,22.479997,120.466058,0.19854146
12Q980,恆春工作站,2019-01-13,22.079678,120.714425,0.0004238979
466881,新北,2019-01-13,24.9593,121.52,0.003920832
466900,淡水,2019-01-13,25.164889,121.448906,0.0021511805
466920,臺北,2019-01-13,25.037658,121.514853,0.004355315
466940,基隆,2019-01-13,25.133314,121.740475,0.007292432
466990,花蓮,2019-01-13,23.975128,121.613275,0.8728415
467050,新屋,2019-01-13,25.006744,121.047486,0.004862369
467060,蘇澳,2019-01-13,24.596736,121.857372,0.56439286
467080,宜蘭,2019-01-13,24.763975,121.756528,0.060009703
467270,田中,2019-01-13,23.873803,120.581286,0.16845979
467300,東吉島,2019-01-13,23.25695,119.667467,0.00057823095
467350,澎湖,2019-01-13,23.565503,119.563094,0.00045059706
467410,臺南,2019-01-13,22.993239,120.204772,0.3637429
467420,永康,2019-01-13,23.038386,120.2367,0.36800668
467441,高雄,2019-01-13,22.7304,120.3125,0.15954696
467480,嘉義,2019-01-13,23.495925,120.432906,0.0016011489
467490,臺中,2019-01-13,24.145736,120.684075,0.0013156076
467540,大武,2019-01-13,22.355675,120.903789,0.310722
467571,新竹,2019-01-13,24.827853,121.014219,0.0033304049
467590,恆春,2019-01-13,22.003897,120.746339,0.00031648518
467610,成功,2019-01-13,23.097486,121.373428,0.78977907
467620,蘭嶼,2019-01-13,22.036969,121.558339,0.0027140987
467660,臺東,2019-01-13,22.752211,121.154586,0.066946894
467790,墾丁雷達站,2019-01-13,21.948235,120.808028,0.00023549885
72AI40,桃改臺北分場,2019-01-13,24.944503,121.386972,0.0026859755
72C440,桃園農改場,2019-01-13,24.950944,121.030583,0.004766205
72D680,新埔,2019-01-13,24.834444,121.066111,0.0024141578
72G600,臺中農改場,2019-01-13,24.003028,120.534389,0.01676013
72K220,雲林分場,2019-01-13,23.634556,120.477333,0.25768086
72L140,朴子分場,2019-01-13,23.4982,120.2414,0.032853633
72M360,義竹工作站,2019-01-13,23.360694,120.279361,0.13726467
72M700,嘉義分場,2019-01-13,23.416869,120.283061,0.041017264
72N100,臺南農改場,2019-01-13,23.0605,120.342194,0.35806164
72N240,七股研究中心,2019-01-13,23.081672,120.062894,0.36008763
72Q010,高雄農改場,2019-01-13,22.709333,120.525889,0.04511178
72S200,斑鳩分場,2019-01-13,22.829528,121.077694,0.014013887
72S590,賓朗果園,2019-01-13,22.813889,121.071278,0.008372536
72T250,花蓮農改場,2019-01-13,23.975222,121.563889,0.8576803
72U480,蘭陽分場,2019-01-13,24.686306,121.716583,0.09937953
72V140,旗南,2019-01-13,22.857861,120.516667,0.057910636
82A750,文山分場,2019-01-13,24.955778,121.631222,0.017584937
82C160,茶改場(楊梅),2019-01-13,24.908472,121.185333,0.0012456535
82H840,凍頂工作站,2019-01-13,23.762528,120.7405,0.029578382
82S580,龍田,2019-01-13,22.907694,121.130139,0.08726411
A0K420,麥寮,2019-01-13,23.7988,120.2177,0.0022279974
A0W080,吉貝,2019-01-13,23.74,119.6042,0.0004254194
A2C560,農工中心,2019-01-13,24.985917,121.239833,0.0016290498
A2K360,臺西分所,2019-01-13,23.717231,120.190522,0.0019943055
A2K570,古坑(花卉中心),2019-01-13,23.633531,120.552392,0.20499353
A2K630,臺大雲林校區,2019-01-13,23.730628,120.423903,0.14447987
A2N290,臺南蘭花園區,2019-01-13,23.340258,120.379661,0.019814294
B2E890,新竹畜試,2019-01-13,24.527806,120.770972,0.0012332723
B2N890,畜產試驗所,2019-01-13,23.058972,120.336406,0.35806164
B2Q810,恆春分所,2019-01-13,21.945583,120.802167,0.00035019394
B2U990,宜蘭畜試,2019-01-13,24.669039,121.832561,0.12072093
C0A520,山佳,2019-01-13,24.974944,121.402008,0.0026859755
C0A530,坪林,2019-01-13,24.938183,121.70975,0.015060995
C0A540,四堵,2019-01-13,24.8926,121.745736,0.0031058253
C0A550,泰平,2019-01-13,24.971197,121.823711,0.009135699
C0A560,福山,2019-01-13,24.776203,121.502811,0.017584937
C0A570,桶後,2019-01-13,24.848222,121.597992,0.0074955113
C0A640,石碇,2019-01-13,24.993969,121.662917,0.007691555
C0A650,火燒寮,2019-01-13,25.002719,121.742892,0.0053897058
C0A660,瑞芳,2019-01-13,25.113169,121.801147,0.016742505
C0A770,科教館,2019-01-13,25.096356,121.516507,0.003085879
C0A860,大坪,2019-01-13,25.165914,121.632969,0.0010188847
C0A880,福隆,2019-01-13,25.017842,121.942083,0.044010162
C0A890,雙溪,2019-01-13,25.036003,121.864242,0.004573016
C0A920,富貴角,2019-01-13,25.263783,121.565258,0.0015260385
C0A931,三和,2019-01-13,25.233153,121.595236,0.0044133514
C0A940,金山,2019-01-13,25.223628,121.643967,0.0015630919
C0A950,鼻頭角,2019-01-13,25.129036,121.923372,0.048847407
C0A970,三貂角,2019-01-13,25.007606,122.002058,0.0232118
C0A980,社子,2019-01-13,25.109508,121.469681,0.0032240623
C0A9C0,天母,2019-01-13,25.117494,121.537169,0.0028159812
C0A9F0,內湖,2019-01-13,25.079422,121.57545,0.004355315
C0AC60,三峽,2019-01-13,24.939025,121.369728,0.0037193068
C0AC70,信義,2019-01-13,25.037822,121.564597,0.004355315
C0AC80,文山,2019-01-13,25.00235,121.575728,0.0033853564
C0ACA0,新莊,2019-01-13,25.051478,121.446756,0.0027790677
C0AD00,三芝,2019-01-13,25.258131,121.501917,0.0013432744
C0AD10,八里,2019-01-13,25.150211,121.403947,0.0021511826
C0AD30,蘆洲,2019-01-13,25.086594,121.472331,0.003085879
C0AD40,土城,2019-01-13,24.973208,121.445169,0.002932239
C0AD50,鶯歌,2019-01-13,24.951533,121.346294,0.0017933856
C0AG80,中和,2019-01-13,24.991622,121.491792,0.004355315
C0AH00,汐止,2019-01-13,25.066881,121.658778,0.0065916353
C0AH10,永和,2019-01-13,25.01125,121.508111,0.004587732
C0AH40,平等,2019-01-13,25.129142,121.577086,0.0020215376
C0AH50,林口,2019-01-13,25.072181,121.38084,0.0017221442
C0AH70,松山,2019-01-13,25.04871,121.55042,0.004355315
C0AH80,深坑,2019-01-13,25.002703,121.628328,0.0033853531
C0AI00,五股,2019-01-13,25.07445,121.42728,0.0013033076
C0AI10,屈尺,2019-01-13,24.92184,121.54475,0.0033853531
C0AI20,白沙灣,2019-01-13,25.283128,121.519058,0.0016947855
C0AI30,三重,2019-01-13,25.057328,121.500629,0.003085879
C0AI40,石牌,2019-01-13,25.115597,121.513139,0.002932239
C0AJ10,澳底,2019-01-13,25.057107,121.927272,0.05410703
C0AJ20,野柳,2019-01-13,25.20703,121.690021,0.0065916353
C0AJ30,淡水觀海,2019-01-13,25.184591,121.408616,0.0022650925
C0AJ40,石門,2019-01-13,25.273672,121.601198,0.0010526809
C0AJ50,水湳洞,2019-01-13,25.123695,121.862238,0.0065916353
C0AJ60,六塊厝,2019-01-13,25.24,121.4481,0.0022650925
C0AJ70,田寮,2019-01-13,25.2698,121.4886,0.0017689116
C0AJ80,板橋,2019-01-13,25.0107,121.4489,0.002932239
C0B010,七堵,2019-01-13,25.094819,121.71713,0.0054447385
C0B020,基隆嶼,2019-01-13,25.19141,121.78391,0.0065916353
C0B040,大武崙,2019-01-13,25.166676,121.706993,0.0054447385
C0B050,八斗子,2019-01-13,25.144754,121.79167,0.00805566
C0B060,暖暖,2019-01-13,25.0957,121.7403,0.0036551165
C0C460,復興,2019-01-13,24.820208,121.352281,0.0033946566
C0C480,桃園,2019-01-13,24.992425,121.323172,0.0016131412
C0C490,八德,2019-01-13,24.928708,121.283289,0.0030435394
C0C590,觀音,2019-01-13,25.027072,121.153317,0.0015054841
C0C620,蘆竹,2019-01-13,25.084275,121.265767,0.0019770842
C0C630,大溪,2019-01-13,24.882853,121.265547,0.0022095134
C0C650,平鎮,2019-01-13,24.897503,121.214636,0.0012456535
C0C660,楊梅,2019-01-13,24.912375,121.143047,0.0013321425
C0C670,龍潭,2019-01-13,24.870056,121.221389,0.0010228383
C0C680,龜山,2019-01-13,25.02846,121.38656,0.0033794425
C0C700,中壢,2019-01-13,24.977661,121.256375,0.0014102471
C0C710,大溪永福,2019-01-13,24.892936,121.324975,0.0014180007
C0C720,竹圍,2019-01-13,25.112692,121.239824,0.0021511805
C0C730,中大臨海站,2019-01-13,24.966126,121.008581,0.00546915
C0C740,觀音工業區,2019-01-13,25.064764,121.114856,0.0026916424
C0C750,新興坑尾,2019-01-13,25.0061,121.0971,0.0024245451
C0D390,關西,2019-01-13,24.7977,121.1732,0.0016714917
C0D430,峨眉,2019-01-13,24.6905,121.017189,0.0036391336
C0D480,打鐵坑,2019-01-13,24.849664,121.150789,0.0013494563
C0D540,橫山,2019-01-13,24.71116,121.11693,0.0013122221
C0D560,竹東,2019-01-13,24.767147,121.057881,0.0014684408
C0D580,寶山,2019-01-13,24.735006,121.025192,0.0022028
C0D590,新豐,2019-01-13,24.87068,120.97721,0.002579904
C0D650,湖口,2019-01-13,24.904794,121.043628,0.0045312443
C0D660,新竹市東區,2019-01-13,24.798681,120.986942,0.0031551835
C0D670,海天一線,2019-01-13,24.831986,120.914438,0.0022368322
C0D680,香山濕地,2019-01-13,24.783581,120.914988,0.0023398465
C0D690,外湖,2019-01-13,24.917735,120.968711,0.00546915
C0E420,竹南,2019-01-13,24.708978,120.888897,0.002716698
C0E430,南庄,2019-01-13,24.601775,121.000214,0.0037670832
C0E520,大湖,2019-01-13,24.41494,120.87087,0.0021397655
C0E540,後龍,2019-01-13,24.606489,120.783933,0.0013074017
C0E550,明德,2019-01-13,24.583486,120.885411,0.0023418465
C0E590,通霄,2019-01-13,24.471892,120.704622,0.0012680963
C0E730,頭份,2019-01-13,24.688247,120.912206,0.002716698
C0E740,造橋,2019-01-13,24.637056,120.864778,0.002384329
C0E750,苗栗,2019-01-13,24.564569,120.824575,0.0012814782
C0E780,銅鑼,2019-01-13,24.489681,120.790853,0.0023908233
C0E791,卓蘭,2019-01-13,24.3126,120.8244,0.006967909
C0E810,西湖,2019-01-13,24.562947,120.7485,0.0012924956
C0E820,獅潭,2019-01-13,24.539133,120.920042,0.00231494
C0E830,苑裡,2019-01-13,24.439714,120.653053,0.0012835745
C0E850,大河,2019-01-13,24.618069,120.948578,0.002223554
C0E870,高鐵苗栗,2019-01-13,24.60725,120.826094,0.00130379
C0E910,海埔,2019-01-13,24.648767,120.772435,0.0031853092
C0E920,通霄漁港,2019-01-13,24.498589,120.673876,0.0013007072
C0E930,龍鳳,2019-01-13,24.700034,120.859125,0.002602783
C0F000,大肚,2019-01-13,24.15295,120.572117,0.01398713
C0F0B0,石岡,2019-01-13,24.276061,120.777644,0.010860413
C0F850,東勢,2019-01-13,24.246428,120.833047,0.0075173336
C0F930,大甲,2019-01-13,24.347667,120.640403,0.0012679294
C0F970,大坑,2019-01-13,24.173142,120.722289,0.0011811075
C0F9A0,中竹林,2019-01-13,24.103556,120.751061,0.021506596
C0F9I0,神岡,2019-01-13,24.272481,120.658314,0.0019001948
C0F9K0,大安,2019-01-13,24.345061,120.588025,0.0013862982
C0F9L0,后里,2019-01-13,24.310436,120.729725,0.0015963409
C0F9M0,豐原,2019-01-13,24.254322,120.720692,0.0017305005
C0F9N0,大里,2019-01-13,24.092464,120.701378,0.0014941428
C0F9O0,潭子,2019-01-13,24.213106,120.703933,0.0024443169
C0F9P0,清水,2019-01-13,24.312297,120.562242,0.0014206053
C0F9Q0,外埔,2019-01-13,24.347817,120.705686,0.0021909664
C0F9R0,龍井,2019-01-13,24.184536,120.528972,0.0014748338
C0F9S0,烏日,2019-01-13,24.107058,120.624103,0.018955577
C0F9T0,西屯,2019-01-13,24.179494,120.641275,0.001316569
C0F9U0,南屯,2019-01-13,24.137006,120.637969,0.0014941428
C0F9X0,大雅(中科園區),2019-01-13,24.21528,120.62445,0.0012283981
C0FA10,松柏,2019-01-13,24.429115,120.617482,0.0013128839
C0FA20,溫寮,2019-01-13,24.372177,120.583125,0.0013128845
C0FA30,梧棲,2019-01-13,24.256003,120.523381,0.0014748338
C0FA40,臺中電廠,2019-01-13,24.2146,120.4907,0.0014748338
C0FA50,霧峰,2019-01-13,24.0419,120.6995,0.0014934764
C0G620,芬園,2019-01-13,24.015678,120.6213,0.009021555
C0G640,鹿港,2019-01-13,24.0753,120.430481,0.011561543
C0G650,員林,2019-01-13,23.946503,120.585597,0.013000613
C0G660,溪湖,2019-01-13,23.94835,120.479122,0.011554876
C0G720,溪州,2019-01-13,23.851589,120.499093,0.10906884
C0G730,二林,2019-01-13,23.903325,120.376081,0.010512581
C0G740,大城,2019-01-13,23.852487,120.320935,0.001736764
C0G770,福興,2019-01-13,24.041289,120.437669,0.011561543
C0G780,秀水,2019-01-13,24.03405,120.503869,0.01837664
C0G800,埔鹽,2019-01-13,24.000394,120.431683,0.011561543
C0G810,埔心,2019-01-13,23.947633,120.525456,0.010700944
C0G820,田尾,2019-01-13,23.901669,120.509389,0.009971747
C0G830,埤頭,2019-01-13,23.866003,120.452806,0.1195787
C0G840,北斗,2019-01-13,23.877586,120.514222,0.009971747
C0G860,社頭,2019-01-13,23.897647,120.5862,0.011994867
C0G870,芳苑,2019-01-13,23.922303,120.320025,0.0017836433
C0G880,二水,2019-01-13,23.810742,120.6173,0.17387895
C0G890,伸港,2019-01-13,24.148933,120.484403,0.0015842756
C0G900,線西,2019-01-13,24.143358,120.443536,0.0015231437
C0G910,花壇,2019-01-13,24.032076,120.549461,0.015458015
C0G920,永靖,2019-01-13,23.924703,120.547533,0.009971747
C0G940,竹塘,2019-01-13,23.848253,120.386764,0.14825377
C0G950,防潮門,2019-01-13,24.1835,120.4871,0.0014977469
C0G960,福寶,2019-01-13,24.0443,120.3814,0.0124730915
C0G970,三豐,2019-01-13,23.882,120.2895,0.0017836433
C0H890,埔里,2019-01-13,23.972169,120.952425,0.07229845
C0H950,中寮,2019-01-13,23.884447,120.766406,0.030582262
C0H960,草屯,2019-01-13,23.973672,120.68085,0.07740528
C0I110,竹山,2019-01-13,23.761225,120.688156,0.044118125
C0I360,水里,2019-01-13,23.812553,120.849792,0.022955757
C0I380,集集,2019-01-13,23.828206,120.801467,0.025718564
C0I410,名間,2019-01-13,23.837053,120.701447,0.05607321
C0I420,國姓,2019-01-13,24.037803,120.855072,0.09134341
C0I460,南投,2019-01-13,23.911469,120.687331,0.07051736
C0K250,崙背,2019-01-13,23.75555,120.318925,0.0018164219
C0K280,四湖,2019-01-13,23.630414,120.227125,0.0022104366
C0K291,宜梧,2019-01-13,23.536281,120.169329,0.036649723
C0K330,虎尾,2019-01-13,23.719183,120.442036,0.13686791
C0K390,土庫,2019-01-13,23.679029,120.395574,0.14447987
C0K400,斗六,2019-01-13,23.720583,120.541127,0.20995606
C0K410,北港,2019-01-13,23.573957,120.292802,0.020251771
C0K420,西螺,2019-01-13,23.800407,120.467394,0.1867581
C0K430,褒忠,2019-01-13,23.690938,120.303634,0.0022279974
C0K440,二崙,2019-01-13,23.772797,120.408944,0.14093535
C0K450,大埤,2019-01-13,23.646074,120.431537,0.11503491
C0K460,斗南,2019-01-13,23.678734,120.478359,0.24236567
C0K470,林內,2019-01-13,23.748675,120.609642,0.15597083
C0K480,莿桐,2019-01-13,23.761192,120.502372,0.17415027
C0K500,元長,2019-01-13,23.64981,120.315024,0.0023276086
C0K510,水林,2019-01-13,23.572924,120.24597,0.017675666
C0K530,臺西,2019-01-13,23.701547,120.197559,0.0019202563
C0K550,蔦松,2019-01-13,23.514319,120.229736,0.032853633
C0K560,棋山,2019-01-13,23.68645,120.603417,0.34487578
C0K580,高鐵雲林,2019-01-13,23.737456,120.417944,0.14447987
C0K590,雲林東勢,2019-01-13,23.674192,120.255721,0.0021929825
C0K600,箔子寮,2019-01-13,23.6197,120.14,0.019507593
C0M410,馬頭山,2019-01-13,23.324361,120.582017,0.0873674
C0M520,東後寮,2019-01-13,23.369908,120.248065,0.15524445
C0M640,中埔,2019-01-13,23.42538,120.5229,0.20541093
C0M650,朴子,2019-01-13,23.43463,120.23902,0.042499755
C0M660,溪口,2019-01-13,23.604131,120.403569,0.0017705203
C0M670,大林,2019-01-13,23.600616,120.45841,0.0026047619
C0M680,太保,2019-01-13,23.455062,120.331455,0.033177238
C0M690,水上,2019-01-13,23.419734,120.388909,0.0020900231
C0M700,竹崎,2019-01-13,23.526178,120.555508,0.12481359
C0M710,東石,2019-01-13,23.458927,120.15385,0.032853633
C0M720,番路,2019-01-13,23.464657,120.554156,0.09273118
C0M730,嘉義市東區,2019-01-13,23.457673,120.460531,0.0031908643
C0M740,六腳,2019-01-13,23.492871,120.290625,0.03665502
C0M750,布袋,2019-01-13,23.380878,120.167789,0.042499755
C0M760,民雄,2019-01-13,23.551754,120.428457,0.0016704258
C0M770,嘉義梅山,2019-01-13,23.585398,120.555587,0.24429485
C0M780,鹿草,2019-01-13,23.41134,120.30835,0.03721288
C0M790,新港,2019-01-13,23.553269,120.345728,0.0184989
C0M800,茶山,2019-01-13,23.299075,120.664767,0.16721109
C0M880,好美里,2019-01-13,23.3364,120.138,0.28836724
C0N010,鯤鯓國小,2019-01-13,23.1879,120.0889,0.09110438
C0N020,城西,2019-01-13,23.0568,120.0956,0.34379554
C0N030,四草,2019-01-13,23.0235,120.1116,0.5219887
C0N040,蘆竹溝,2019-01-13,23.2344,120.0961,0.09110438
C0N050,蚵寮,2019-01-13,23.301,120.1104,0.09110438
C0O810,曾文,2019-01-13,23.219681,120.497328,0.00892032
C0O830,北寮,2019-01-13,23.079561,120.495008,0.052206524
C0O840,王爺宮,2019-01-13,23.222064,120.40085,0.00892032
C0O860,大內,2019-01-13,23.11885,120.36083,0.2129533
C0O900,善化,2019-01-13,23.112883,120.297219,0.4007599
C0O930,玉井,2019-01-13,23.126042,120.46055,0.029987214
C0O950,安南,2019-01-13,23.076694,120.144861,0.35158315
C0O960,崎頂,2019-01-13,22.959547,120.369317,0.028446982
C0O970,虎頭埤,2019-01-13,23.021375,120.347878,0.3240724
C0O980,新市,2019-01-13,23.061614,120.298197,0.4007599
C0O990,媽廟,2019-01-13,22.99175,120.293525,0.45021805
C0R150,三地門,2019-01-13,22.709889,120.639944,0.06285106
C0R160,鹽埔,2019-01-13,22.739558,120.530778,0.04511178
C0R170,屏東,2019-01-13,22.660269,120.494072,0.4638044
C0R190,赤山,2019-01-13,22.592333,120.614306,0.04291921
C0R220,潮州,2019-01-13,22.534361,120.54,0.03691148
C0R240,來義,2019-01-13,22.527306,120.625111,0.047304258
C0R260,春日,2019-01-13,22.370361,120.628306,0.056698326
C0R270,琉球嶼,2019-01-13,22.332244,120.362236,0.054128338
C0R280,檳榔,2019-01-13,22.076078,120.836777,0.00016422475
C0R320,車城,2019-01-13,22.0744,120.716247,0.0004238979
C0R341,牡丹,2019-01-13,22.130036,120.792639,0.039977588
C0R350,貓鼻頭,2019-01-13,21.921774,120.7358,0.00029032273
C0R470,高樹,2019-01-13,22.826389,120.600806,0.06569944
C0R480,長治,2019-01-13,22.693128,120.542622,0.044547774
C0R490,九如,2019-01-13,22.7405,120.490503,0.46847594
C0R520,崁頂,2019-01-13,22.514781,120.506914,0.19854142
C0R540,佳冬,2019-01-13,22.419456,120.552375,0.19854146
C0R550,新埤,2019-01-13,22.467947,120.582894,0.043781035
C0R560,新園,2019-01-13,22.5434,120.461558,0.19854142
C0R570,麟洛,2019-01-13,22.65078,120.52719,0.46847594
C0R580,南州,2019-01-13,22.48591,120.50274,0.19854146
C0R590,里港,2019-01-13,22.77919,120.49459,0.042484168
C0R620,墾雷,2019-01-13,21.900836,120.855269,0.00029032273
C0R640,東港,2019-01-13,22.46247,120.44074,0.17225772
C0R650,竹田,2019-01-13,22.58486,120.54344,0.044859234
C0R660,枋寮,2019-01-13,22.367722,120.590647,0.03945113
C0R670,楓港,2019-01-13,22.190131,120.692156,0.09794647
C0R680,佳樂水,2019-01-13,21.993578,120.861633,0.00035019394
C0R690,墾丁,2019-01-13,21.966756,120.810269,0.00016284213
C0R700,枋山,2019-01-13,22.246844,120.661086,0.09794639
C0R710,龍磐,2019-01-13,21.931672,120.838942,0.00014455192
C0R720,旭海,2019-01-13,22.205403,120.887614,0.010420408
C0R730,大坪頂,2019-01-13,22.024633,120.69355,0.00020066772
C0R740,獅子,2019-01-13,22.201569,120.70525,0.0787855
C0R760,南仁湖,2019-01-13,22.084681,120.863353,0.00026215383
C0R770,保力,2019-01-13,22.071122,120.764111,0.00018511628
C0R780,滿州,2019-01-13,22.024403,120.839892,0.00026354697
C0R790,九棚,2019-01-13,22.14195,120.889281,0.015756149
C0R800,丹路,2019-01-13,22.204481,120.750989,0.049559202
C0R810,內獅,2019-01-13,22.305064,120.642986,0.07576536
C0R830,高士,2019-01-13,22.121825,120.836781,0.00027041137
C0R850,林邊,2019-01-13,22.4634,120.5339,0.19854142
C0R860,鼻頭,2019-01-13,22.1043,120.8979,0.00085156073
C0R870,興海,2019-01-13,21.9752,120.8439,0.00035019394
C0R880,後壁湖,2019-01-13,21.9457,120.7457,0.00046294768
C0R890,山海,2019-01-13,21.9878,120.7091,0.0004238979
C0R900,竹坑,2019-01-13,22.1385,120.7022,0.12588277
C0R910,下寮,2019-01-13,22.3929,120.5548,0.19854146
C0R920,塭仔,2019-01-13,22.4169,120.5197,0.19845375
C0R930,萬丹,2019-01-13,22.5885,120.4851,0.044859234
C0R940,加祿堂,2019-01-13,22.3363,120.6217,0.07576536
C0S710,鹿野,2019-01-13,22.917711,121.122994,0.036739647
C0S730,綠島,2019-01-13,22.6672,121.47533,0.4748957
C0S740,池上,2019-01-13,23.119628,121.209469,0.08507154
C0S770,大溪山,2019-01-13,22.478475,120.943325,0.008284845
C0S790,金崙,2019-01-13,22.538122,120.966875,0.06307306
C0S810,東河,2019-01-13,22.972672,121.303986,0.17338336
C0S830,長濱,2019-01-13,23.286817,121.411975,0.008184728
C0S840,南田,2019-01-13,22.279725,120.889208,0.10500574
C0S890,關山,2019-01-13,23.0395,121.175017,0.16858745
C0S900,蘭嶼高中,2019-01-13,22.04909,121.51214,0.024012132
C0S910,蘭嶼燈塔,2019-01-13,22.081197,121.503117,0.007571209
C0S920,金峰嘉蘭,2019-01-13,22.594789,120.960825,0.17780499
C0S930,延平,2019-01-13,22.902581,121.084058,0.101113126
C0S940,石寧山,2019-01-13,23.223772,121.406639,0.022496963
C0S950,七塊厝,2019-01-13,22.954453,121.229922,0.02756331
C0S960,香蘭,2019-01-13,22.587569,120.993375,0.308554
C0S970,加津林,2019-01-13,22.416211,120.926942,0.28006786
C0S990,山豬窟,2019-01-13,22.318619,120.857372,0.002704766
C0SA00,歷坵,2019-01-13,22.520969,120.89185,0.0045260377
C0SA10,檳榔四格山,2019-01-13,22.810031,121.109308,0.0044389586
C0SA30,都歷,2019-01-13,23.020333,121.323642,0.589021
C0SA40,瑞和,2019-01-13,22.974361,121.156697,0.20497553
C0SA60,知本（水試所）,2019-01-13,22.702394,121.082761,0.22210006
C0SA80,土坂,2019-01-13,22.453108,120.887572,0.13495733
C0SA90,達仁林場,2019-01-13,22.264347,120.823972,0.008918319
C0T870,鯉魚潭,2019-01-13,23.935639,121.508944,0.83925
C0T900,西林,2019-01-13,23.8119,121.441458,0.80825734
C0T960,光復,2019-01-13,23.660694,121.424964,0.8259719
C0T9A0,月眉山,2019-01-13,23.809928,121.539828,0.56973046
C0T9D0,和中,2019-01-13,24.26676,121.74103,0.9073224
C0T9E0,大坑,2019-01-13,23.880628,121.581981,0.68034863
C0T9F0,水璉,2019-01-13,23.797131,121.542514,0.72395235
C0T9I0,豐濱,2019-01-13,23.583897,121.514806,0.80838907
C0T9M0,靜浦,2019-01-13,23.455167,121.495028,0.85583645
C0T9N0,富里,2019-01-13,23.171639,121.249378,0.022002945
C0U600,礁溪,2019-01-13,24.817539,121.765608,0.054499924
C0U650,玉蘭,2019-01-13,24.675286,121.587061,0.14927158
C0U750,龜山島,2019-01-13,24.841667,121.953133,0.031439394
C0U760,東澳,2019-01-13,24.52196,121.83318,0.39338985
C0U770,南澳,2019-01-13,24.44935,121.81022,0.66605604
C0U780,五結,2019-01-13,24.68637,121.79794,0.12072093
C0U860,頭城,2019-01-13,24.85323,121.8308,0.060009703
C0U870,大礁溪,2019-01-13,24.791042,121.675047,0.012496135
C0U880,北關,2019-01-13,24.9072,121.8734,0.007564075
C0U890,三星,2019-01-13,24.66812,121.65302,0.022738203
C0U900,內城,2019-01-13,24.71813,121.68766,0.041766055
C0U910,冬山,2019-01-13,24.63373,121.7937,0.12072093
C0U940,羅東,2019-01-13,24.68184,121.74934,0.109451205
C0U970,大福,2019-01-13,24.80064,121.81389,0.06551329
C0U990,員山,2019-01-13,24.74435,121.72247,0.109451205
C0UA00,土場,2019-01-13,24.576533,121.495333,0.046791784
C0UA80,大溪漁港,2019-01-13,24.941801,121.902955,0.054499924
C0UA90,石城,2019-01-13,24.980444,121.951214,0.051985428
C0UB00,淡江大學蘭陽校園,2019-01-13,24.823239,121.730383,0.019928453
C0UB20,壯圍,2019-01-13,24.7359,121.8163,0.13247249
C0V250,甲仙,2019-01-13,23.080106,120.591758,0.043906566
C0V260,月眉,2019-01-13,22.971003,120.539853,0.04040553
C0V310,美濃,2019-01-13,22.898742,120.519153,0.4226238
C0V350,溪埔,2019-01-13,22.738578,120.446797,0.25516212
C0V360,內門,2019-01-13,22.975481,120.466769,0.2511741
C0V370,古亭坑,2019-01-13,22.893178,120.401947,0.22621103
C0V400,阿公店,2019-01-13,22.804194,120.355528,0.3429537
C0V440,鳳山,2019-01-13,22.646653,120.356122,0.16445963
C0V450,鳳森,2019-01-13,22.545064,120.392592,0.030151164
C0V490,新興,2019-01-13,22.627422,120.298803,0.17147514
C0V530,阿蓮,2019-01-13,22.883208,120.327508,0.45719108
C0V610,梓官,2019-01-13,22.760558,120.267211,0.23730236
C0V620,永安,2019-01-13,22.82315,120.236856,0.32362956
C0V630,茄萣,2019-01-13,22.906642,120.182608,0.43773112
C0V640,湖內,2019-01-13,22.887139,120.2445,0.4454138
C0V650,彌陀,2019-01-13,22.783806,120.246361,0.32362956
C0V660,岡山,2019-01-13,22.797078,120.294958,0.23730236
C0V680,仁武,2019-01-13,22.701083,120.347722,0.157881
C0V690,鼓山,2019-01-13,22.623325,120.275575,0.17147514
C0V700,三民,2019-01-13,22.645017,120.311233,0.17147516
C0V710,苓雅,2019-01-13,22.622742,120.330669,0.17147514
C0V720,林園,2019-01-13,22.507747,120.394511,0.17147514
C0V730,大寮,2019-01-13,22.605614,120.395717,0.03566401
C0V740,旗山,2019-01-13,22.888614,120.483597,0.40844187
C0V750,路竹,2019-01-13,22.854997,120.259439,0.3590168
C0V760,橋頭,2019-01-13,22.757806,120.30575,0.24017923
C0V770,大社,2019-01-13,22.730306,120.346639,0.157881
C0V790,萬山,2019-01-13,22.905944,120.688056,0.099929444
C0V800,六龜,2019-01-13,22.997889,120.633583,0.051290046
C0V810,左營,2019-01-13,22.67491,120.28491,0.15954714
C0V820,小林,2019-01-13,23.148408,120.63325,0.11783077
C0V840,鳳鼻頭,2019-01-13,22.5083,120.3591,0.17225772
C0V850,蚵仔寮,2019-01-13,22.7256,120.2527,0.15951496
C0V860,南寮,2019-01-13,22.7616,120.2339,0.31751314
C0V870,文安,2019-01-13,22.8025,120.2164,0.31751314
C0V880,興達,2019-01-13,22.8778,120.2127,0.43773112
C0V890,前鎮,2019-01-13,22.5718,120.3117,0.17225772
C0V900,汕尾,2019-01-13,22.4782,120.4151,0.3190074
C0X050,東河,2019-01-13,23.296598,120.385608,0.019814294
C0X060,下營,2019-01-13,23.22695,120.256261,0.2652266
C0X080,佳里,2019-01-13,23.173039,120.145086,0.28836724
C0X100,臺南市北區,2019-01-13,23.010394,120.194228,0.36965653
C0X110,臺南市南區,2019-01-13,22.961189,120.188378,0.36800668
C0X120,麻豆,2019-01-13,23.183289,120.248611,0.2723862
C0X130,官田,2019-01-13,23.193217,120.315422,0.23207651
C0X140,西港,2019-01-13,23.125608,120.203108,0.3234608
C0X150,安定,2019-01-13,23.102614,120.227839,0.334222
C0X160,仁德,2019-01-13,22.968258,120.257689,0.46187288
C0X170,關廟,2019-01-13,22.963017,120.327797,0.41576698
C0X180,山上,2019-01-13,23.0757,120.363253,0.100326136
C0X190,安平,2019-01-13,22.993161,120.152181,0.36965653
C0X200,左鎮,2019-01-13,23.056758,120.408522,0.110475846
C0X210,白河,2019-01-13,23.347466,120.414427,0.018041003
C0X220,學甲,2019-01-13,23.230367,120.182187,0.2723862
C0X230,鹽水,2019-01-13,23.272621,120.247641,0.19744891
C0X240,關子嶺,2019-01-13,23.331169,120.508025,0.01754942
C0X250,新營,2019-01-13,23.310689,120.316681,0.17701888
C0X260,後壁,2019-01-13,23.366358,120.362326,0.048186403
C0X280,將軍,2019-01-13,23.214999,120.13577,0.28836724
C0X290,北門,2019-01-13,23.267772,120.125481,0.28836724
C0X300,鹿寮,2019-01-13,23.386047,120.477331,0.14924872
C0X310,七股,2019-01-13,23.147289,120.086253,0.124982916
C0X320,柳營,2019-01-13,23.253328,120.375253,0.019814294
C0Z020,明里,2019-01-13,23.208717,121.262342,0.010385452
C0Z061,玉里,2019-01-13,23.3215,121.339656,0.03129132
C0Z070,舞鶴,2019-01-13,23.46811,121.37407,0.68472767
C0Z080,富源,2019-01-13,23.587642,121.378225,0.6951544
C0Z100,東華,2019-01-13,23.89525,121.549833,0.9045869
C0Z150,吉安光華,2019-01-13,23.930925,121.595153,0.9155255
C0Z160,鳳林,2019-01-13,23.746114,121.453411,0.8379564
C0Z170,卓溪,2019-01-13,23.3443,121.3029,0.0232023
C0Z180,新城,2019-01-13,24.03946,121.60454,0.8629564
C0Z190,富世,2019-01-13,24.14743,121.6297,0.79882723
C0Z200,萬榮,2019-01-13,23.709219,121.420106,0.83925
C0Z210,瑞穗,2019-01-13,23.5239,121.39021,0.8277005
C0Z230,和平,2019-01-13,24.30717,121.77007,0.9073224
C0Z270,蕃薯寮,2019-01-13,23.73835,121.540108,0.77558005
C0Z280,德武,2019-01-13,23.47426,121.41071,0.75533116
C0Z300,東里,2019-01-13,23.26853,121.30547,0.026682157
C0Z310,清水斷崖,2019-01-13,24.218294,121.689142,0.8874803
C0Z330,安通山,2019-01-13,23.290728,121.348528,0.011616294
CAA010,國一N013K,2019-01-13,25.06944,121.6281,0.0041151107
CAA020,國一S026K,2019-01-13,25.07639,121.4964,0.003085879
CAA030,國三S010K,2019-01-13,25.08,121.6475,0.004355309
CAA040,國三S016K,2019-01-13,25.03306,121.6158,0.0031015347
CAA050,國三S037K,2019-01-13,24.9828,121.471,0.0041151107
CAA060,國三S042K,2019-01-13,24.96,121.4306,0.0025874919
CAA070,國三N046K,2019-01-13,24.95083,121.3958,0.0026859755
CAA080,國三S054K,2019-01-13,24.93917,121.3239,0.002052359
CAA090,國三A005K,2019-01-13,25.00194,121.5975,0.003920832
CAAH60,大安森林,2019-01-13,25.02955,121.53628,0.004587732
CAB010,國一S001K,2019-01-13,25.11583,121.7286,0.004985469
CAB020,國一S006K,2019-01-13,25.08694,121.6869,0.0059890132
CAB030,國三S004K,2019-01-13,25.11444,121.6886,0.018368736
CAB040,國三S007K,2019-01-13,25.09694,121.6678,0.0036551165
CAB050,國三K002K,2019-01-13,25.14583,121.7217,0.0036551165
CAC010,國一S072K,2019-01-13,24.89583,121.1342,0.0010640747
CAC020,國二E009K,2019-01-13,25.02111,121.2736,0.0019079853
CAC030,國三N063K,2019-01-13,24.889,121.26,0.0023070395
CAC050,西濱S023K,2019-01-13,25.11649,121.27551,0.0021511805
CAC060,西濱S032K,2019-01-13,25.091966,121.192505,0.0022650925
CAD010,國一S105K,2019-01-13,24.726316,120.940643,0.0025821235
CAD020,國一N077K,2019-01-13,24.885,121.0889,0.0014199162
CAD030,國一S082K,2019-01-13,24.87667,121.0467,0.0045092
CAD040,國一S088K,2019-01-13,24.84444,121.0214,0.0033304049
CAD050,國一N094K,2019-01-13,24.79778,121.0089,0.0030348313
CAD060,國一S098K,2019-01-13,24.76056,120.9911,0.0030348313
CAD070,國三N076K,2019-01-13,24.800303,121.195739,0.001288085
CAD080,國三N085K,2019-01-13,24.78333,121.1211,0.0010570578
CAD090,國三S103K,2019-01-13,24.75861,120.9608,0.0025665895
CAD100,西濱N066K,2019-01-13,24.8956,120.9649,0.0049073827
CAD110,西濱S082K,2019-01-13,24.751724,120.905028,0.0023398465
CAE010,國一N142K,2019-01-13,24.453119,120.783221,0.0018675136
CAE020,國一S114K,2019-01-13,24.668835,120.885811,0.0023398465
CAE030,國一S123K,2019-01-13,24.59594,120.86071,0.0012526249
CAE040,國一S132K,2019-01-13,24.524506,120.820831,0.0012632651
CAE050,國一S152K,2019-01-13,24.375492,120.749184,0.0021702265
CAE060,國三N119K,2019-01-13,24.675432,120.847389,0.002524662
CAE070,國三N151K,2019-01-13,24.440218,120.681656,0.0012526375
CAE080,國三S140K,2019-01-13,24.522345,120.725006,0.0012559545
CAE090,國三S156K,2019-01-13,24.39798,120.669487,0.0012081763
CAE100,西濱N107K,2019-01-13,24.5958,120.7394,0.0012924956
CAE110,西濱S129K,2019-01-13,24.4472,120.6428,0.0013044887
CAF010,國一N174K,2019-01-13,24.2049,120.6552,0.0011811075
CAF020,國一S162K,2019-01-13,24.295534,120.695976,0.001852645
CAF030,國一S169K,2019-01-13,24.237116,120.688271,0.0024443169
CAF040,國一S188K,2019-01-13,24.118546,120.585747,0.017466709
CAF050,國三N208K,2019-01-13,24.066147,120.660919,0.017466709
CAF060,國三S168K,2019-01-13,24.308519,120.614471,0.0013015071
CAF070,國三S173K,2019-01-13,24.27397,120.593079,0.0011955149
CAF080,國三S178K,2019-01-13,24.226721,120.589058,0.0012177542
CAF090,國四E5K,2019-01-13,24.296465,120.643135,0.0012279558
CAF100,西濱N151K,2019-01-13,24.275964,120.547681,0.0014748338
CAG010,國一N198K,2019-01-13,24.063889,120.523056,0.014308676
CAG030,國一S207K,2019-01-13,23.988304,120.508092,0.01837664
CAG040,國三N191K,2019-01-13,24.139256,120.5215,0.0015374135
CAG050,國三N196K,2019-01-13,24.107155,120.554482,0.020638758
CAG060,國三S202K,2019-01-13,24.092468,120.603256,0.020638758
CAG070,西濱S173K,2019-01-13,24.1081,120.434576,0.0124730915
CAG080,西濱S189K,2019-01-13,23.987857,120.369607,0.002180185
CAG090,西濱N210K,2019-01-13,23.843536,120.293236,0.0018700226
CAG100,王功漁港,2019-01-13,23.96824,120.32586,0.002180185
CAH010,國三N223K,2019-01-13,23.955116,120.662376,0.08491466
CAH020,國三S217K,2019-01-13,24.00683,120.653214,0.0016047034
CAH030,茶改場竹圍站,2019-01-13,23.860083,120.637528,0.017290337
CAHA00,消防署訓練中心,2019-01-13,23.82137,120.72293,0.052807115
CAJ010,國三N252K,2019-01-13,23.77412,120.64061,0.138274
CAJ020,國一N234K,2019-01-13,23.74633,120.467926,0.24236567
CAJ030,西濱N222K,2019-01-13,23.737734,120.256132,0.0023108798
CAJ040,西濱S241K,2019-01-13,23.623426,120.172646,0.019507593
CAJ050,海口故事園區,2019-01-13,23.57543,120.14121,0.019507585
CAL010,國一N250K,2019-01-13,23.610292,120.436867,0.0016704258
CAL020,國一S262K,2019-01-13,23.512333,120.403038,0.0016472364
CAL030,國一N268K,2019-01-13,23.460833,120.375833,0.0016472364
CAL040,國一N273K,2019-01-13,23.416666,120.355,0.016516246
CAL050,國三N279K,2019-01-13,23.596111,120.523333,0.14252715
CAL060,國三S286K,2019-01-13,23.533917,120.484583,0.22331393
CAL070,國三N295K,2019-01-13,23.468598,120.499369,0.23951496
CAL080,國三N303K,2019-01-13,23.428611,120.452416,0.0020900231
CAL090,西濱S257K,2019-01-13,23.502278,120.171861,0.032853633
CAL100,西濱S267K,2019-01-13,23.41613,120.162872,0.042499755
CAL110,布袋國中,2019-01-13,23.35893,120.18026,0.15524438
CAN010,國一N288K,2019-01-13,23.30609,120.290033,0.1906883
CAN020,國一S306K,2019-01-13,23.1565,120.239513,0.2723862
CAN030,國一N316K,2019-01-13,23.07309,120.253014,0.4007599
CAN040,國一N323K,2019-01-13,23.00421,120.245922,0.3637429
CAN050,國一N335K,2019-01-13,22.897584,120.269895,0.4620711
CAN060,國三S311K,2019-01-13,23.346388,120.438888,0.01645272
CAN070,國三S329K,2019-01-13,23.212777,120.355833,0.1084087
CAN080,國三N336K,2019-01-13,23.154722,120.345,0.21494435
CAN090,國三S342K,2019-01-13,23.106694,120.327528,0.37300387
CAN100,國三S366K,2019-01-13,22.9077,120.3513,0.34915695
CAN110,西濱S280K,2019-01-13,23.3052,120.14891,0.28836724
CAN120,西濱N304K,2019-01-13,23.103439,120.086694,0.34379554
CAN130,水試所海水繁養殖中心,2019-01-13,23.120802,120.07968,0.36008763
CAN140,六官養殖協會,2019-01-13,23.22881,120.29962,0.24773754
CAP010,國一S342K,2019-01-13,22.845555,120.295,0.23730236
CAP020,國一S346K,2019-01-13,22.812222,120.314166,0.23730236
CAP030,國一N351K,2019-01-13,22.765833,120.328888,0.24017923
CAP040,國一N361K,2019-01-13,22.680555,120.328611,0.15954696
CAP050,國三N372K,2019-01-13,22.858611,120.373611,0.31764948
CAP060,國三S385K,2019-01-13,22.767777,120.444444,0.02749879
CAP070,高雄燈塔,2019-01-13,22.6146,120.2647,0.17147516
CAQ010,國三N425K,2019-01-13,22.480277,120.531666,0.19854142
CAQ020,國三S415K,2019-01-13,22.568,120.528,0.045835555
CAQ030,崎峰國小,2019-01-13,22.42565,120.49521,0.19854146
E2K600,四湖植物園,2019-01-13,23.676986,120.163433,0.0019202563
E2P980,林試六龜中心,2019-01-13,22.991703,120.645722,0.050611198
E2S390,太麻里分所,2019-01-13,22.5988,120.9811,0.18842368
E2S960,林試太麻里2,2019-01-13,22.598014,120.989761,0.308554
E2S980,林試太麻里1,2019-01-13,22.598922,120.980044,0.18842368
G2AI50,關渡,2019-01-13,25.11575,121.492,0.0032240623
G2F820,農試所(霧峰),2019-01-13,24.031261,120.688133,0.0016047034
G2L020,嘉義分所,2019-01-13,23.485028,120.473806,0.23951496
G2M350,溪口農場,2019-01-13,23.58565,120.408111,0.0017705212
G2P820,鳳山園試所,2019-01-13,22.646611,120.356083,0.16445963
K2E360,苗栗農改場,2019-01-13,24.495722,120.829111,0.0029269631
K2E710,大湖分場,2019-01-13,24.422861,120.871833,0.0016139547
K2F750,種苗改良場,2019-01-13,24.225972,120.800917,0.004818889
U2HA50,臺大竹山,2019-01-13,23.756972,120.681556,0.039798383
V2C250,八德合作社,2019-01-13,24.93775,121.266389,0.0017698085
V2C260,八德蔬果,2019-01-13,24.978508,121.281819,0.0015327493
V2K610,大庄合作社,2019-01-13,23.8068,120.367939,0.0019108808
V2K620,麥寮合作社,2019-01-13,23.753836,120.294783,0.0018700226
