站號,站名,日期,lat,lon,BlastGRU-TW
466881,新北,2019-03-14,24.9593,121.52,0.031955265
466900,淡水,2019-03-14,25.1649,121.4489,0.008231176
466920,臺北,2019-03-14,25.0377,121.5149,0.03805929
466940,基隆,2019-03-14,25.1333,121.7405,0.04658542
466990,花蓮,2019-03-14,23.9751,121.6133,0.93300563
467050,新屋,2019-03-14,25.0067,121.0475,0.026160387
467080,宜蘭,2019-03-14,24.764,121.7565,0.1294059
467270,田中,2019-03-14,23.8738,120.5813,0.21547092
467300,東吉島,2019-03-14,23.2569,119.6675,0.0005334172
467350,澎湖,2019-03-14,23.5655,119.5631,0.00037721585
467410,臺南,2019-03-14,22.9932,120.2048,0.30003393
467420,永康,2019-03-14,23.0384,120.2367,0.3286474
467441,高雄,2019-03-14,22.7304,120.3125,0.6347572
467480,嘉義,2019-03-14,23.4959,120.4329,0.1280438
467490,臺中,2019-03-14,24.1457,120.6841,0.021434432
467540,大武,2019-03-14,22.3557,120.9038,0.96356094
467571,新竹,2019-03-14,24.8279,121.0142,0.006709225
467590,恆春,2019-03-14,22.0039,120.7463,0.010639709
467610,成功,2019-03-14,23.0975,121.3734,0.9142775
467620,蘭嶼,2019-03-14,22.037,121.5583,0.64304113
467660,臺東,2019-03-14,22.7522,121.1546,0.48980987
467790,墾丁雷達站,2019-03-14,21.9482,120.808,0.008915571
C0A520,山佳,2019-03-14,24.9749,121.402,0.016754175
C0A530,坪林,2019-03-14,24.9382,121.7097,0.04455466
C0A540,四堵,2019-03-14,24.8926,121.7457,0.014272077
C0A550,泰平,2019-03-14,24.9712,121.8237,0.009150403
C0A560,福山,2019-03-14,24.7762,121.5028,0.036657
C0A570,桶後,2019-03-14,24.8482,121.598,0.02883667
C0A640,石碇,2019-03-14,24.994,121.6629,0.017237552
C0A650,火燒寮,2019-03-14,25.0027,121.7429,0.0111765135
C0A660,瑞芳,2019-03-14,25.1132,121.8011,0.034084413
C0A770,科教館,2019-03-14,25.0964,121.5165,0.021678193
C0A860,大坪,2019-03-14,25.1659,121.633,0.0023869048
C0A880,福隆,2019-03-14,25.0178,121.9421,0.075760365
C0A890,雙溪,2019-03-14,25.036,121.8642,0.031291835
C0A920,富貴角,2019-03-14,25.2638,121.5653,0.004419073
C0A931,三和,2019-03-14,25.2332,121.5952,0.006313877
C0A940,金山,2019-03-14,25.2236,121.644,0.002809345
C0A950,鼻頭角,2019-03-14,25.129,121.9234,0.080481544
C0A970,三貂角,2019-03-14,25.0076,122.0021,0.036383327
C0A980,社子,2019-03-14,25.1095,121.4697,0.023609158
C0A9C0,天母,2019-03-14,25.1175,121.5372,0.018258832
C0A9F0,內湖,2019-03-14,25.0794,121.5755,0.03805929
C0AC60,三峽,2019-03-14,24.939,121.3697,0.029183865
C0AC70,信義,2019-03-14,25.0378,121.5646,0.03805929
C0AC80,文山,2019-03-14,25.0023,121.5757,0.024486601
C0ACA0,新莊,2019-03-14,25.0515,121.4468,0.010862103
C0AD00,三芝,2019-03-14,25.2581,121.5019,0.0022582535
C0AD10,八里,2019-03-14,25.1502,121.4039,0.008231176
C0AD30,蘆洲,2019-03-14,25.0866,121.4723,0.021678193
C0AD40,土城,2019-03-14,24.9732,121.4452,0.019867858
C0AD50,鶯歌,2019-03-14,24.9515,121.3463,0.007223385
C0AG80,中和,2019-03-14,24.9916,121.4918,0.03805929
C0AH00,汐止,2019-03-14,25.0669,121.6588,0.043334108
C0AH10,永和,2019-03-14,25.0113,121.5081,0.041380435
C0AH40,平等,2019-03-14,25.1291,121.5771,0.0085777
C0AH50,林口,2019-03-14,25.0722,121.3808,0.004941283
C0AH70,松山,2019-03-14,25.0487,121.5504,0.03805929
C0AH80,深坑,2019-03-14,25.0027,121.6283,0.026808117
C0AI00,五股,2019-03-14,25.0744,121.4273,0.0039666216
C0AI10,屈尺,2019-03-14,24.9218,121.5447,0.024486601
C0AI20,白沙灣,2019-03-14,25.2831,121.5191,0.003159596
C0AI30,三重,2019-03-14,25.0573,121.5006,0.021678193
C0AI40,石牌,2019-03-14,25.1156,121.5131,0.019867858
C0AJ10,澳底,2019-03-14,25.0571,121.9273,0.08608171
C0AJ20,野柳,2019-03-14,25.207,121.69,0.043334108
C0AJ30,淡水觀海,2019-03-14,25.1846,121.4086,0.009320478
C0AJ40,石門,2019-03-14,25.2737,121.6012,0.0014250807
C0AJ50,水湳洞,2019-03-14,25.1237,121.8622,0.043334108
C0AJ60,六塊厝,2019-03-14,25.24,121.4481,0.009320478
C0AJ70,田寮,2019-03-14,25.2698,121.4886,0.003355256
C0AJ80,板橋,2019-03-14,25.0107,121.4489,0.019867858
C0B010,七堵,2019-03-14,25.0948,121.7171,0.03693182
C0B020,基隆嶼,2019-03-14,25.1914,121.7839,0.043334108
C0B040,大武崙,2019-03-14,25.1667,121.707,0.036931846
C0B050,八斗子,2019-03-14,25.1448,121.7917,0.050470095
C0B060,暖暖,2019-03-14,25.0957,121.7403,0.023277784
C0C460,復興,2019-03-14,24.8202,121.3523,0.017061751
C0C480,桃園,2019-03-14,24.9924,121.3232,0.0070034005
C0C490,八德,2019-03-14,24.9287,121.2833,0.04084919
C0C590,觀音,2019-03-14,25.0271,121.1533,0.0056015276
C0C620,蘆竹,2019-03-14,25.0843,121.2658,0.007084042
C0C630,大溪,2019-03-14,24.8829,121.2655,0.024817765
C0C650,平鎮,2019-03-14,24.8975,121.2146,0.0070433496
C0C660,楊梅,2019-03-14,24.9124,121.143,0.0045572734
C0C670,龍潭,2019-03-14,24.8701,121.2214,0.0056478367
C0C680,龜山,2019-03-14,25.0285,121.3866,0.017075751
C0C700,中壢,2019-03-14,24.9777,121.2564,0.005860097
C0C710,大溪永福,2019-03-14,24.8929,121.325,0.012346063
C0C720,竹圍,2019-03-14,25.1127,121.2398,0.008231176
C0C730,中大臨海站,2019-03-14,24.9661,121.0086,0.034093462
C0C740,觀音工業區,2019-03-14,25.0648,121.1149,0.00575676
C0C750,新興坑尾,2019-03-14,25.0061,121.0971,0.0037374226
C0D430,峨眉,2019-03-14,24.6905,121.0172,0.010409337
C0D480,打鐵坑,2019-03-14,24.8497,121.1508,0.010078611
C0D540,橫山,2019-03-14,24.7112,121.1169,0.004075037
C0D560,竹東,2019-03-14,24.7671,121.0579,0.0056960736
C0D580,寶山,2019-03-14,24.735,121.0252,0.007878686
C0D590,新豐,2019-03-14,24.8707,120.9772,0.027368482
C0D650,湖口,2019-03-14,24.9048,121.0436,0.013649086
C0D660,新竹市東區,2019-03-14,24.7987,120.9869,0.0058131325
C0D670,海天一線,2019-03-14,24.832,120.9144,0.0117644705
C0D680,香山濕地,2019-03-14,24.7836,120.915,0.010863954
C0D690,外湖,2019-03-14,24.9177,120.9687,0.034093462
C0D700,關西,2019-03-14,24.7977,121.1732,0.0114159165
C0E420,竹南,2019-03-14,24.709,120.8889,0.0087356595
C0E430,南庄,2019-03-14,24.6018,121.0002,0.0142865265
C0E520,大湖,2019-03-14,24.4149,120.8709,0.009064472
C0E540,後龍,2019-03-14,24.6065,120.7839,0.0071972287
C0E550,明德,2019-03-14,24.5835,120.8854,0.016738888
C0E590,通霄,2019-03-14,24.4719,120.7046,0.0061131115
C0E730,頭份,2019-03-14,24.6882,120.9122,0.0087356595
C0E740,造橋,2019-03-14,24.6371,120.8648,0.013691589
C0E750,苗栗,2019-03-14,24.5646,120.8246,0.0051833116
C0E780,銅鑼,2019-03-14,24.4897,120.7909,0.014200401
C0E791,卓蘭,2019-03-14,24.3126,120.8244,0.05934179
C0E810,西湖,2019-03-14,24.5629,120.7485,0.0058755935
C0E820,獅潭,2019-03-14,24.5391,120.92,0.024723168
C0E830,苑裡,2019-03-14,24.4397,120.6531,0.02083093
C0E850,大河,2019-03-14,24.6181,120.9486,0.014175764
C0E870,高鐵苗栗,2019-03-14,24.6073,120.8261,0.0067236195
C0E910,海埔,2019-03-14,24.6488,120.7724,0.03954422
C0E920,通霄漁港,2019-03-14,24.4986,120.6739,0.009206442
C0E930,龍鳳,2019-03-14,24.7,120.8591,0.017584255
C0F000,大肚,2019-03-14,24.153,120.5721,0.018750096
C0F0B0,石岡,2019-03-14,24.2761,120.7776,0.050156813
C0F850,東勢,2019-03-14,24.2464,120.833,0.03474361
C0F930,大甲,2019-03-14,24.3477,120.6404,0.024212748
C0F970,大坑,2019-03-14,24.1731,120.7223,0.017287698
C0F9A0,中竹林,2019-03-14,24.1036,120.7511,0.015753657
C0F9I0,神岡,2019-03-14,24.2725,120.6583,0.030063812
C0F9K0,大安,2019-03-14,24.3451,120.588,0.067765094
C0F9L0,后里,2019-03-14,24.3104,120.7297,0.014897578
C0F9M0,豐原,2019-03-14,24.2543,120.7207,0.020914894
C0F9N0,大里,2019-03-14,24.0925,120.7014,0.05075711
C0F9O0,潭子,2019-03-14,24.2131,120.7039,0.056800168
C0F9P0,清水,2019-03-14,24.3123,120.5622,0.0854206
C0F9Q0,外埔,2019-03-14,24.3478,120.7057,0.04864083
C0F9R0,龍井,2019-03-14,24.1845,120.529,0.06234071
C0F9S0,烏日,2019-03-14,24.1071,120.6241,0.18446699
C0F9T0,西屯,2019-03-14,24.1795,120.6413,0.028476624
C0F9U0,南屯,2019-03-14,24.137,120.638,0.05075711
C0F9X0,大雅(中科園區),2019-03-14,24.2153,120.6244,0.012355554
C0FA10,松柏,2019-03-14,24.4291,120.6175,0.028595349
C0FA20,溫寮,2019-03-14,24.3722,120.5831,0.028595349
C0FA30,梧棲,2019-03-14,24.256,120.5234,0.06234071
C0FA40,臺中電廠,2019-03-14,24.2146,120.4907,0.06234071
C0FA50,霧峰,2019-03-14,24.0419,120.6995,0.05356467
C0G620,芬園,2019-03-14,24.0157,120.6213,0.12126847
C0G640,鹿港,2019-03-14,24.0753,120.4305,0.14599226
C0G650,員林,2019-03-14,23.9465,120.5856,0.23365712
C0G660,溪湖,2019-03-14,23.9484,120.4791,0.20406611
C0G720,溪州,2019-03-14,23.8516,120.4991,0.18175285
C0G730,二林,2019-03-14,23.9033,120.3761,0.18613468
C0G740,大城,2019-03-14,23.8525,120.3209,0.08219592
C0G770,福興,2019-03-14,24.0413,120.4377,0.14599226
C0G780,秀水,2019-03-14,24.0341,120.5039,0.18106054
C0G800,埔鹽,2019-03-14,24.0004,120.4317,0.14599226
C0G810,埔心,2019-03-14,23.9476,120.5255,0.19396167
C0G820,田尾,2019-03-14,23.9017,120.5094,0.18213212
C0G830,埤頭,2019-03-14,23.866,120.4528,0.19893518
C0G840,北斗,2019-03-14,23.8776,120.5142,0.18213212
C0G860,社頭,2019-03-14,23.8976,120.5862,0.22268575
C0G870,芳苑,2019-03-14,23.9223,120.32,0.09038516
C0G880,二水,2019-03-14,23.8107,120.6173,0.15104203
C0G890,伸港,2019-03-14,24.1489,120.4844,0.0761875
C0G900,線西,2019-03-14,24.1434,120.4435,0.060764752
C0G910,花壇,2019-03-14,24.0321,120.5495,0.1598136
C0G920,永靖,2019-03-14,23.9247,120.5475,0.18213202
C0G940,竹塘,2019-03-14,23.8483,120.3868,0.26536813
C0G950,防潮門,2019-03-14,24.1835,120.4871,0.07062665
C0G960,福寶,2019-03-14,24.0443,120.3814,0.15475622
C0G970,三豐,2019-03-14,23.882,120.2895,0.09038516
C0H890,埔里,2019-03-14,23.9722,120.9524,0.127482
C0H950,中寮,2019-03-14,23.8844,120.7664,0.045557264
C0H960,草屯,2019-03-14,23.9737,120.6809,0.10862539
C0I110,竹山,2019-03-14,23.7612,120.6882,0.0635882
C0I360,水里,2019-03-14,23.8126,120.8498,0.056655597
C0I380,集集,2019-03-14,23.8282,120.8015,0.06320665
C0I410,名間,2019-03-14,23.8371,120.7014,0.13709463
C0I420,國姓,2019-03-14,24.0378,120.8551,0.040435307
C0I460,南投,2019-03-14,23.9115,120.6873,0.09713122
C0K250,崙背,2019-03-14,23.7555,120.3189,0.1187046
C0K280,四湖,2019-03-14,23.6304,120.2271,0.22893286
C0K291,宜梧,2019-03-14,23.5363,120.1693,0.57486796
C0K330,虎尾,2019-03-14,23.7192,120.442,0.30393595
C0K390,土庫,2019-03-14,23.679,120.3956,0.315777
C0K400,斗六,2019-03-14,23.7206,120.5411,0.24896552
C0K410,北港,2019-03-14,23.574,120.2928,0.41987276
C0K420,西螺,2019-03-14,23.8004,120.4674,0.23864849
C0K430,褒忠,2019-03-14,23.6909,120.3036,0.21849257
C0K440,二崙,2019-03-14,23.7728,120.4089,0.25433257
C0K450,大埤,2019-03-14,23.6461,120.4315,0.2817026
C0K460,斗南,2019-03-14,23.6787,120.4784,0.27059066
C0K470,林內,2019-03-14,23.7487,120.6096,0.20885345
C0K480,莿桐,2019-03-14,23.7612,120.5024,0.2297979
C0K500,元長,2019-03-14,23.6498,120.315,0.23519272
C0K510,水林,2019-03-14,23.5729,120.246,0.42112467
C0K530,臺西,2019-03-14,23.7015,120.1976,0.16248202
C0K550,蔦松,2019-03-14,23.5143,120.2297,0.5512244
C0K560,棋山,2019-03-14,23.6865,120.6034,0.27455267
C0K580,高鐵雲林,2019-03-14,23.7375,120.4179,0.315777
C0K590,雲林東勢,2019-03-14,23.6742,120.2557,0.21849257
C0K600,箔子寮,2019-03-14,23.6197,120.14,0.44119164
C0M410,馬頭山,2019-03-14,23.3244,120.582,0.10488569
C0M520,東後寮,2019-03-14,23.3699,120.2481,0.35527962
C0M640,中埔,2019-03-14,23.4254,120.5229,0.26975796
C0M650,朴子,2019-03-14,23.4346,120.239,0.6138966
C0M660,溪口,2019-03-14,23.6041,120.4036,0.14698836
C0M670,大林,2019-03-14,23.6006,120.4584,0.14237955
C0M680,太保,2019-03-14,23.4551,120.3315,0.5070436
C0M690,水上,2019-03-14,23.4197,120.3889,0.15392722
C0M700,竹崎,2019-03-14,23.5262,120.5555,0.18041837
C0M710,東石,2019-03-14,23.4589,120.1539,0.5512244
C0M720,番路,2019-03-14,23.4647,120.5542,0.15179606
C0M730,嘉義市東區,2019-03-14,23.4577,120.4605,0.18905872
C0M740,六腳,2019-03-14,23.4929,120.2906,0.5311511
C0M750,布袋,2019-03-14,23.3809,120.1678,0.6138966
C0M760,民雄,2019-03-14,23.5518,120.4285,0.1270779
C0M770,嘉義梅山,2019-03-14,23.5854,120.5556,0.20794737
C0M780,鹿草,2019-03-14,23.4113,120.3084,0.5210736
C0M790,新港,2019-03-14,23.5533,120.3457,0.40021554
C0M800,茶山,2019-03-14,23.2991,120.6648,0.18930034
C0M880,好美里,2019-03-14,23.3364,120.138,0.4884404
C0N010,鯤鯓國小,2019-03-14,23.1879,120.0889,0.8101542
C0N020,城西,2019-03-14,23.0568,120.0956,0.5667934
C0N030,四草,2019-03-14,23.0235,120.1116,0.8090887
C0N040,蘆竹溝,2019-03-14,23.2344,120.0961,0.8101542
C0N050,蚵寮,2019-03-14,23.301,120.1104,0.8101542
C0O810,曾文,2019-03-14,23.2197,120.4973,0.21293733
C0O830,北寮,2019-03-14,23.0796,120.495,0.038295083
C0O840,王爺宮,2019-03-14,23.2221,120.4009,0.21293733
C0O860,大內,2019-03-14,23.1188,120.3608,0.1136719
C0O900,善化,2019-03-14,23.1129,120.2972,0.17143805
C0O930,玉井,2019-03-14,23.126,120.4605,0.45745426
C0O950,安南,2019-03-14,23.0767,120.1449,0.2661803
C0O960,崎頂,2019-03-14,22.9595,120.3693,0.03814341
C0O970,虎頭埤,2019-03-14,23.0214,120.3479,0.42677528
C0O980,新市,2019-03-14,23.0616,120.2982,0.17143805
C0O990,媽廟,2019-03-14,22.9917,120.2935,0.25651196
C0R150,三地門,2019-03-14,22.7099,120.6399,0.45212555
C0R160,鹽埔,2019-03-14,22.7396,120.5308,0.2066551
C0R170,屏東,2019-03-14,22.6603,120.4941,0.3910948
C0R190,赤山,2019-03-14,22.5923,120.6143,0.36556476
C0R220,潮州,2019-03-14,22.5344,120.54,0.3859986
C0R240,來義,2019-03-14,22.5273,120.6251,0.4368821
C0R260,春日,2019-03-14,22.3704,120.6283,0.4999333
C0R270,琉球嶼,2019-03-14,22.3322,120.3622,0.48595288
C0R280,檳榔,2019-03-14,22.0761,120.8368,0.004674409
C0R320,車城,2019-03-14,22.0744,120.7162,0.012801427
C0R341,牡丹,2019-03-14,22.13,120.7926,0.2790964
C0R350,貓鼻頭,2019-03-14,21.9218,120.7358,0.01000124
C0R470,高樹,2019-03-14,22.8264,120.6008,0.5063903
C0R480,長治,2019-03-14,22.6931,120.5426,0.18674877
C0R490,九如,2019-03-14,22.7405,120.4905,0.36411247
C0R520,崁頂,2019-03-14,22.5148,120.5069,0.58290416
C0R540,佳冬,2019-03-14,22.4195,120.5524,0.60957986
C0R550,新埤,2019-03-14,22.4679,120.5829,0.3851803
C0R560,新園,2019-03-14,22.5434,120.4616,0.58290416
C0R570,麟洛,2019-03-14,22.6508,120.5272,0.36411247
C0R580,南州,2019-03-14,22.4859,120.5027,0.60957986
C0R590,里港,2019-03-14,22.7792,120.4946,0.15332614
C0R620,墾雷,2019-03-14,21.9008,120.8553,0.01000124
C0R640,東港,2019-03-14,22.4625,120.4407,0.65707153
C0R650,竹田,2019-03-14,22.5849,120.5434,0.40454403
C0R660,枋寮,2019-03-14,22.3677,120.5906,0.41808042
C0R670,楓港,2019-03-14,22.1901,120.6922,0.6954601
C0R680,佳樂水,2019-03-14,21.9936,120.8616,0.0112876315
C0R690,墾丁,2019-03-14,21.9668,120.8103,0.0048187356
C0R700,枋山,2019-03-14,22.2468,120.6611,0.6954601
C0R710,龍磐,2019-03-14,21.9317,120.8389,0.0062196623
C0R720,旭海,2019-03-14,22.2054,120.8876,0.42277694
C0R730,大坪頂,2019-03-14,22.0246,120.6936,0.005255847
C0R740,獅子,2019-03-14,22.2016,120.7053,0.6249408
C0R760,南仁湖,2019-03-14,22.0847,120.8634,0.010695084
C0R770,保力,2019-03-14,22.0711,120.7641,0.00751483
C0R780,滿州,2019-03-14,22.0244,120.8399,0.0094541395
C0R790,九棚,2019-03-14,22.142,120.8893,0.53926283
C0R800,丹路,2019-03-14,22.2045,120.751,0.46802318
C0R810,內獅,2019-03-14,22.3051,120.643,0.5833811
C0R830,高士,2019-03-14,22.1218,120.8368,0.027779747
C0R850,林邊,2019-03-14,22.4634,120.5339,0.58290416
C0R860,鼻頭,2019-03-14,22.1043,120.8979,0.011377896
C0R870,興海,2019-03-14,21.9752,120.8439,0.011287643
C0R880,後壁湖,2019-03-14,21.9457,120.7457,0.013680519
C0R890,山海,2019-03-14,21.9878,120.7091,0.012801427
C0R900,竹坑,2019-03-14,22.1385,120.7022,0.70323545
C0R910,下寮,2019-03-14,22.3929,120.5548,0.60957986
C0R920,塭仔,2019-03-14,22.4169,120.5197,0.6372715
C0R930,萬丹,2019-03-14,22.5885,120.4851,0.40462565
C0R940,加祿堂,2019-03-14,22.3363,120.6217,0.5833811
C0S710,鹿野,2019-03-14,22.9177,121.123,0.86023515
C0S730,綠島,2019-03-14,22.6672,121.4753,0.9059767
C0S740,池上,2019-03-14,23.1196,121.2095,0.90393585
C0S770,大溪山,2019-03-14,22.4785,120.9433,0.39242524
C0S790,金崙,2019-03-14,22.5381,120.9669,0.42570233
C0S810,東河,2019-03-14,22.9727,121.304,0.9051702
C0S830,長濱,2019-03-14,23.2868,121.412,0.7262178
C0S840,南田,2019-03-14,22.2797,120.8892,0.9331789
C0S890,關山,2019-03-14,23.0395,121.175,0.8876921
C0S900,蘭嶼高中,2019-03-14,22.0491,121.5121,0.54748195
C0S910,蘭嶼燈塔,2019-03-14,22.0812,121.5031,0.7012311
C0S920,金峰嘉蘭,2019-03-14,22.5948,120.9608,0.61165625
C0S930,延平,2019-03-14,22.9026,121.0841,0.8896244
C0S940,石寧山,2019-03-14,23.2238,121.4066,0.8598559
C0S950,七塊厝,2019-03-14,22.9545,121.2299,0.83454156
C0S960,香蘭,2019-03-14,22.5876,120.9934,0.73102075
C0S970,加津林,2019-03-14,22.4162,120.9269,0.9567131
C0S990,山豬窟,2019-03-14,22.3186,120.8574,0.14587328
C0SA00,歷坵,2019-03-14,22.521,120.8919,0.35543826
C0SA10,檳榔四格山,2019-03-14,22.81,121.1093,0.43586946
C0SA30,都歷,2019-03-14,23.0203,121.3236,0.9103151
C0SA40,瑞和,2019-03-14,22.9744,121.1567,0.8913638
C0SA60,知本（水試所）,2019-03-14,22.7024,121.0828,0.6027224
C0SA80,土,2019-03-14,22.4531,120.8876,0.5431282
C0SA90,達仁林場,2019-03-14,22.2643,120.824,0.12972572
C0T870,鯉魚潭,2019-03-14,23.9356,121.5089,0.923935
C0T900,西林,2019-03-14,23.8119,121.4415,0.91269696
C0T960,光復,2019-03-14,23.6607,121.425,0.93244076
C0T9A0,月眉山,2019-03-14,23.8099,121.5398,0.7087248
C0T9D0,和中,2019-03-14,24.2668,121.741,0.7196969
C0T9E0,大坑,2019-03-14,23.8806,121.582,0.82207537
C0T9F0,水璉,2019-03-14,23.7971,121.5425,0.86054355
C0T9I0,豐濱,2019-03-14,23.5839,121.5148,0.93860894
C0T9M0,靜浦,2019-03-14,23.4552,121.495,0.9484579
C0T9N0,富里,2019-03-14,23.1716,121.2494,0.8357912
C0U600,礁溪,2019-03-14,24.8175,121.7656,0.12229245
C0U650,玉蘭,2019-03-14,24.6753,121.5871,0.06714007
C0U750,龜山島,2019-03-14,24.8417,121.9531,0.0124898115
C0U760,東澳,2019-03-14,24.522,121.8332,0.22340345
C0U770,南澳,2019-03-14,24.4493,121.8102,0.41385394
C0U780,五結,2019-03-14,24.6864,121.7979,0.083791405
C0U860,頭城,2019-03-14,24.8532,121.8308,0.1294059
C0U870,大礁溪,2019-03-14,24.791,121.675,0.024594704
C0U880,北關,2019-03-14,24.9072,121.8734,0.07354722
C0U890,三星,2019-03-14,24.6681,121.653,0.061157983
C0U900,內城,2019-03-14,24.7181,121.6877,0.10155974
C0U910,冬山,2019-03-14,24.6337,121.7937,0.083791554
C0U940,羅東,2019-03-14,24.6818,121.7493,0.07876917
C0U970,大福,2019-03-14,24.8006,121.8139,0.1368096
C0U990,員山,2019-03-14,24.7444,121.7225,0.07876917
C0UA00,土場,2019-03-14,24.5765,121.4953,0.067605875
C0UA80,大溪漁港,2019-03-14,24.9418,121.903,0.12229245
C0UA90,石城,2019-03-14,24.9804,121.9512,0.07073619
C0UB00,淡江大學蘭陽校園,2019-03-14,24.8232,121.7304,0.021813724
C0UB10,蘇澳,2019-03-14,24.5969,121.8571,0.22525178
C0UB20,壯圍,2019-03-14,24.7359,121.8163,0.089829504
C0V250,甲仙,2019-03-14,23.0801,120.5918,0.018318817
C0V260,月眉,2019-03-14,22.971,120.5399,0.0526685
C0V310,美濃,2019-03-14,22.8987,120.5192,0.6300512
C0V350,溪埔,2019-03-14,22.7386,120.4468,0.40327024
C0V360,內門,2019-03-14,22.9755,120.4668,0.43726826
C0V370,古亭坑,2019-03-14,22.8932,120.4019,0.40111828
C0V400,阿公店,2019-03-14,22.8042,120.3555,0.22957562
C0V440,鳳山,2019-03-14,22.6467,120.3561,0.57127213
C0V450,鳳森,2019-03-14,22.5451,120.3926,0.32648447
C0V490,新興,2019-03-14,22.6274,120.2988,0.6293208
C0V530,阿蓮,2019-03-14,22.8832,120.3275,0.39791697
C0V610,梓官,2019-03-14,22.7606,120.2672,0.49878985
C0V620,永安,2019-03-14,22.8231,120.2369,0.42651227
C0V630,茄萣,2019-03-14,22.9066,120.1826,0.5700312
C0V640,湖內,2019-03-14,22.8871,120.2445,0.54282576
C0V650,彌陀,2019-03-14,22.7838,120.2464,0.42651227
C0V660,岡山,2019-03-14,22.7971,120.295,0.49878976
C0V680,仁武,2019-03-14,22.7011,120.3477,0.60638845
C0V690,鼓山,2019-03-14,22.6233,120.2756,0.6293208
C0V700,三民,2019-03-14,22.645,120.3112,0.6293208
C0V710,苓雅,2019-03-14,22.6227,120.3307,0.6293208
C0V720,林園,2019-03-14,22.5077,120.3945,0.6293208
C0V730,大寮,2019-03-14,22.6056,120.3957,0.43257368
C0V740,旗山,2019-03-14,22.8886,120.4836,0.6029224
C0V750,路竹,2019-03-14,22.855,120.2594,0.31708148
C0V760,橋頭,2019-03-14,22.7578,120.3058,0.46597788
C0V770,大社,2019-03-14,22.7303,120.3466,0.60638845
C0V790,萬山,2019-03-14,22.9059,120.6881,0.21324311
C0V800,六龜,2019-03-14,22.9979,120.6336,0.09332487
C0V810,左營,2019-03-14,22.6749,120.2849,0.6347572
C0V820,小林,2019-03-14,23.1484,120.6333,0.18989637
C0V840,鳳鼻頭,2019-03-14,22.5083,120.3591,0.65707153
C0V850,蚵仔寮,2019-03-14,22.7256,120.2527,0.6615149
C0V860,南寮,2019-03-14,22.7616,120.2339,0.4550926
C0V870,文安,2019-03-14,22.8025,120.2164,0.4550926
C0V880,興達,2019-03-14,22.8778,120.2127,0.57003105
C0V890,前鎮,2019-03-14,22.5718,120.3117,0.65707153
C0V900,汕尾,2019-03-14,22.4782,120.4151,0.64139664
C0X050,東河,2019-03-14,23.2966,120.3856,0.4351801
C0X060,下營,2019-03-14,23.2269,120.2563,0.39045525
C0X080,佳里,2019-03-14,23.173,120.1451,0.4884404
C0X100,臺南市北區,2019-03-14,23.0104,120.1942,0.3580612
C0X110,臺南市南區,2019-03-14,22.9612,120.1884,0.32864755
C0X120,麻豆,2019-03-14,23.1833,120.2486,0.46604198
C0X130,官田,2019-03-14,23.1932,120.3154,0.3533536
C0X140,西港,2019-03-14,23.1256,120.2031,0.5133736
C0X150,安定,2019-03-14,23.1026,120.2278,0.20813367
C0X160,仁德,2019-03-14,22.9683,120.2577,0.28068224
C0X170,關廟,2019-03-14,22.963,120.3278,0.19717117
C0X180,山上,2019-03-14,23.0757,120.3633,0.24950118
C0X190,安平,2019-03-14,22.9932,120.1522,0.3580612
C0X200,左鎮,2019-03-14,23.0568,120.4085,0.25976562
C0X210,白河,2019-03-14,23.3475,120.4144,0.39098614
C0X220,學甲,2019-03-14,23.2304,120.1822,0.46604198
C0X230,鹽水,2019-03-14,23.2726,120.2476,0.39356062
C0X240,關子嶺,2019-03-14,23.3312,120.508,0.03437663
C0X250,新營,2019-03-14,23.3107,120.3167,0.35051346
C0X260,後壁,2019-03-14,23.3664,120.3623,0.22696504
C0X280,將軍,2019-03-14,23.215,120.1358,0.4884404
C0X290,北門,2019-03-14,23.2678,120.1255,0.4884404
C0X300,鹿寮,2019-03-14,23.386,120.4773,0.312436
C0X310,七股,2019-03-14,23.1473,120.0863,0.8720902
C0X320,柳營,2019-03-14,23.2533,120.3753,0.4123597
C0Z020,明里,2019-03-14,23.2087,121.2623,0.77488136
C0Z061,玉里,2019-03-14,23.3215,121.3397,0.870069
C0Z070,舞鶴,2019-03-14,23.4681,121.3741,0.90921724
C0Z080,富源,2019-03-14,23.5876,121.3782,0.91631305
C0Z100,東華,2019-03-14,23.8953,121.5498,0.9437632
C0Z150,吉安光華,2019-03-14,23.9309,121.5952,0.9470997
C0Z160,鳳林,2019-03-14,23.7461,121.4534,0.93567884
C0Z170,卓溪,2019-03-14,23.3443,121.3029,0.8566726
C0Z180,新城,2019-03-14,24.0395,121.6045,0.92938423
C0Z190,富世,2019-03-14,24.1474,121.6297,0.5306202
C0Z200,萬榮,2019-03-14,23.7092,121.4201,0.923935
C0Z210,瑞穗,2019-03-14,23.5239,121.3902,0.94255596
C0Z230,和平,2019-03-14,24.3072,121.7701,0.7196969
C0Z270,蕃薯寮,2019-03-14,23.7384,121.5401,0.931177
C0Z280,德武,2019-03-14,23.4743,121.4107,0.9254436
C0Z300,東里,2019-03-14,23.2685,121.3055,0.86415076
C0Z310,清水斷崖,2019-03-14,24.2183,121.6891,0.6179663
C0Z330,安通山,2019-03-14,23.2907,121.3485,0.65355164
