站號,站名,日期,lat,lon,BlastGRU-TW
466881,新北,2019-05-14,24.9593,121.52,0.65263486
466900,淡水,2019-05-14,25.1649,121.4489,0.6337233
466920,臺北,2019-05-14,25.0377,121.5149,0.659057
466940,基隆,2019-05-14,25.1333,121.7405,0.6360675
466990,花蓮,2019-05-14,23.9751,121.6133,0.1356677
467050,新屋,2019-05-14,25.0067,121.0475,0.89337355
467080,宜蘭,2019-05-14,24.764,121.7565,0.79462737
467270,田中,2019-05-14,23.8738,120.5813,0.9672663
467300,東吉島,2019-05-14,23.2569,119.6675,0.9969568
467350,澎湖,2019-05-14,23.5655,119.5631,0.9956346
467410,臺南,2019-05-14,22.9932,120.2048,0.1854268
467420,永康,2019-05-14,23.0384,120.2367,0.17206289
467441,高雄,2019-05-14,22.7304,120.3125,0.9972872
467480,嘉義,2019-05-14,23.4959,120.4329,0.05773299
467490,臺中,2019-05-14,24.1457,120.6841,0.97186744
467540,大武,2019-05-14,22.3557,120.9038,0.12983052
467571,新竹,2019-05-14,24.8279,121.0142,0.9262372
467590,恆春,2019-05-14,22.0039,120.7463,0.25468865
467610,成功,2019-05-14,23.0975,121.3734,0.99186987
467620,蘭嶼,2019-05-14,22.037,121.5583,0.9988953
467660,臺東,2019-05-14,22.7522,121.1546,0.40775436
467790,墾丁雷達站,2019-05-14,21.9482,120.808,0.29284918
C0A520,山佳,2019-05-14,24.9749,121.402,0.62882
C0A530,坪林,2019-05-14,24.9382,121.7097,0.64057535
C0A540,四堵,2019-05-14,24.8926,121.7457,0.29298565
C0A550,泰平,2019-05-14,24.9712,121.8237,0.8342532
C0A560,福山,2019-05-14,24.7762,121.5028,0.7215778
C0A570,桶後,2019-05-14,24.8482,121.598,0.22849181
C0A640,石碇,2019-05-14,24.994,121.6629,0.8151109
C0A650,火燒寮,2019-05-14,25.0027,121.7429,0.76831627
C0A660,瑞芳,2019-05-14,25.1132,121.8011,0.88787854
C0A770,科教館,2019-05-14,25.0964,121.5165,0.63993174
C0A860,大坪,2019-05-14,25.1659,121.633,0.28059882
C0A880,福隆,2019-05-14,25.0178,121.9421,0.90884906
C0A890,雙溪,2019-05-14,25.036,121.8642,0.63581496
C0A920,富貴角,2019-05-14,25.2638,121.5653,0.589697
C0A931,三和,2019-05-14,25.2332,121.5952,0.81261754
C0A940,金山,2019-05-14,25.2236,121.644,0.6030415
C0A950,鼻頭角,2019-05-14,25.129,121.9234,0.9076824
C0A970,三貂角,2019-05-14,25.0076,122.0021,0.9095446
C0A980,社子,2019-05-14,25.1095,121.4697,0.64320743
C0A9C0,天母,2019-05-14,25.1175,121.5372,0.63268
C0A9F0,內湖,2019-05-14,25.0794,121.5755,0.659057
C0AC60,三峽,2019-05-14,24.939,121.3697,0.6500194
C0AC70,信義,2019-05-14,25.0378,121.5646,0.659057
C0AC80,文山,2019-05-14,25.0023,121.5757,0.6427688
C0ACA0,新莊,2019-05-14,25.0515,121.4468,0.6449806
C0AD00,三芝,2019-05-14,25.2581,121.5019,0.59275526
C0AD10,八里,2019-05-14,25.1502,121.4039,0.6337233
C0AD30,蘆洲,2019-05-14,25.0866,121.4723,0.63993174
C0AD40,土城,2019-05-14,24.9732,121.4452,0.6356665
C0AD50,鶯歌,2019-05-14,24.9515,121.3463,0.61801946
C0AG80,中和,2019-05-14,24.9916,121.4918,0.659057
C0AH00,汐止,2019-05-14,25.0669,121.6588,0.63718075
C0AH10,永和,2019-05-14,25.0113,121.5081,0.6628908
C0AH40,平等,2019-05-14,25.1291,121.5771,0.21776177
C0AH50,林口,2019-05-14,25.0722,121.3808,0.55354977
C0AH70,松山,2019-05-14,25.0487,121.5504,0.659057
C0AH80,深坑,2019-05-14,25.0027,121.6283,0.6459145
C0AI00,五股,2019-05-14,25.0744,121.4273,0.7130567
C0AI10,屈尺,2019-05-14,24.9218,121.5447,0.6427688
C0AI20,白沙灣,2019-05-14,25.2831,121.5191,0.60831946
C0AI30,三重,2019-05-14,25.0573,121.5006,0.6399317
C0AI40,石牌,2019-05-14,25.1156,121.5131,0.6356665
C0AJ20,野柳,2019-05-14,25.207,121.69,0.63718075
C0AJ30,淡水觀海,2019-05-14,25.1846,121.4086,0.63592076
C0AJ40,石門,2019-05-14,25.2737,121.6012,0.5805628
C0AJ50,水湳洞,2019-05-14,25.1237,121.8622,0.63718075
C0AJ60,六塊厝,2019-05-14,25.24,121.4481,0.63592076
C0AJ70,田寮,2019-05-14,25.2698,121.4886,0.6105121
C0AJ80,板橋,2019-05-14,25.0107,121.4489,0.6356665
C0AJ90,澳底,2019-05-14,25.0552,121.9253,0.90884906
C0B010,七堵,2019-05-14,25.0948,121.7171,0.6376406
C0B020,基隆嶼,2019-05-14,25.1914,121.7839,0.63718075
C0B040,大武崙,2019-05-14,25.1667,121.707,0.6376406
C0B050,八斗子,2019-05-14,25.1448,121.7917,0.6339425
C0B060,暖暖,2019-05-14,25.0957,121.7403,0.62948954
C0C460,復興,2019-05-14,24.8202,121.3523,0.14335755
C0C480,桃園,2019-05-14,24.9924,121.3232,0.7405268
C0C490,八德,2019-05-14,24.9287,121.2833,0.76651937
C0C590,觀音,2019-05-14,25.0271,121.1533,0.63764167
C0C620,蘆竹,2019-05-14,25.0843,121.2658,0.6275586
C0C630,大溪,2019-05-14,24.8829,121.2655,0.72801983
C0C650,平鎮,2019-05-14,24.8975,121.2146,0.7305592
C0C660,楊梅,2019-05-14,24.9124,121.143,0.81535757
C0C670,龍潭,2019-05-14,24.8701,121.2214,0.95917994
C0C680,龜山,2019-05-14,25.0285,121.3866,0.36657587
C0C700,中壢,2019-05-14,24.9777,121.2564,0.7242601
C0C710,大溪永福,2019-05-14,24.8929,121.325,0.78032976
C0C720,竹圍,2019-05-14,25.1127,121.2398,0.6337233
C0C730,中大臨海站,2019-05-14,24.9661,121.0086,0.88710284
C0C740,觀音工業區,2019-05-14,25.0648,121.1149,0.8505976
C0C750,新興坑尾,2019-05-14,25.0061,121.0971,0.83917695
C0D430,峨眉,2019-05-14,24.6905,121.0172,0.94729346
C0D480,打鐵坑,2019-05-14,24.8497,121.1508,0.9495711
C0D540,橫山,2019-05-14,24.7112,121.1169,0.98250055
C0D560,竹東,2019-05-14,24.7671,121.0579,0.8406677
C0D580,寶山,2019-05-14,24.735,121.0252,0.988183
C0D590,新豐,2019-05-14,24.8707,120.9772,0.9928843
C0D650,湖口,2019-05-14,24.9048,121.0436,0.9036831
C0D660,新竹市東區,2019-05-14,24.7987,120.9869,0.9240141
C0D670,海天一線,2019-05-14,24.832,120.9144,0.9544961
C0D680,香山濕地,2019-05-14,24.7836,120.915,0.954448
C0D690,外湖,2019-05-14,24.9177,120.9687,0.88710284
C0D700,關西,2019-05-14,24.7977,121.1732,0.77455425
C0E420,竹南,2019-05-14,24.709,120.8889,0.9536808
C0E430,南庄,2019-05-14,24.6018,121.0002,0.9900438
C0E520,大湖,2019-05-14,24.4149,120.8709,0.97266406
C0E540,後龍,2019-05-14,24.6065,120.7839,0.9858073
C0E550,明德,2019-05-14,24.5835,120.8854,0.97608364
C0E590,通霄,2019-05-14,24.4719,120.7046,0.98591375
C0E730,頭份,2019-05-14,24.6882,120.9122,0.9536808
C0E740,造橋,2019-05-14,24.6371,120.8648,0.9815194
C0E750,苗栗,2019-05-14,24.5646,120.8246,0.98831654
C0E780,銅鑼,2019-05-14,24.4897,120.7909,0.97570163
C0E791,卓蘭,2019-05-14,24.3126,120.8244,0.94410414
C0E810,西湖,2019-05-14,24.5629,120.7485,0.9876829
C0E820,獅潭,2019-05-14,24.5391,120.92,0.9768916
C0E830,苑裡,2019-05-14,24.4397,120.6531,0.92740273
C0E850,大河,2019-05-14,24.6181,120.9486,0.9729524
C0E870,高鐵苗栗,2019-05-14,24.6073,120.8261,0.9865302
C0E910,海埔,2019-05-14,24.6488,120.7724,0.9869143
C0E920,通霄漁港,2019-05-14,24.4986,120.6739,0.97875965
C0E930,龍鳳,2019-05-14,24.7,120.8591,0.984873
C0F000,大肚,2019-05-14,24.153,120.5721,0.8016776
C0F0B0,石岡,2019-05-14,24.2761,120.7776,0.9625794
C0F850,東勢,2019-05-14,24.2464,120.833,0.91457474
C0F930,大甲,2019-05-14,24.3477,120.6404,0.9409874
C0F970,大坑,2019-05-14,24.1731,120.7223,0.97566396
C0F9A0,中竹林,2019-05-14,24.1036,120.7511,0.69226277
C0F9I0,神岡,2019-05-14,24.2725,120.6583,0.95479774
C0F9K0,大安,2019-05-14,24.3451,120.588,0.7938861
C0F9L0,后里,2019-05-14,24.3104,120.7297,0.9253972
C0F9M0,豐原,2019-05-14,24.2543,120.7207,0.94172
C0F9N0,大里,2019-05-14,24.0925,120.7014,0.88684636
C0F9O0,潭子,2019-05-14,24.2131,120.7039,0.95214367
C0F9P0,清水,2019-05-14,24.3123,120.5622,0.7356298
C0F9Q0,外埔,2019-05-14,24.3478,120.7057,0.9675744
C0F9R0,龍井,2019-05-14,24.1845,120.529,0.790895
C0F9S0,烏日,2019-05-14,24.1071,120.6241,0.94560415
C0F9T0,西屯,2019-05-14,24.1795,120.6413,0.9359079
C0F9U0,南屯,2019-05-14,24.137,120.638,0.88684636
C0F9X0,大雅(中科園區),2019-05-14,24.2153,120.6244,0.97063226
C0FA10,松柏,2019-05-14,24.4291,120.6175,0.8885706
C0FA20,溫寮,2019-05-14,24.3722,120.5831,0.8885706
C0FA30,梧棲,2019-05-14,24.256,120.5234,0.790895
C0FA40,臺中電廠,2019-05-14,24.2146,120.4907,0.790895
C0FA50,霧峰,2019-05-14,24.0419,120.6995,0.94690937
C0G620,芬園,2019-05-14,24.0157,120.6213,0.9792366
C0G640,鹿港,2019-05-14,24.0753,120.4305,0.94507086
C0G650,員林,2019-05-14,23.9465,120.5856,0.9692674
C0G660,溪湖,2019-05-14,23.9484,120.4791,0.95110756
C0G720,溪州,2019-05-14,23.8516,120.4991,0.95857775
C0G730,二林,2019-05-14,23.9033,120.3761,0.93202406
C0G740,大城,2019-05-14,23.8525,120.3209,0.069707386
C0G770,福興,2019-05-14,24.0413,120.4377,0.94507086
C0G780,秀水,2019-05-14,24.0341,120.5039,0.9477911
C0G800,埔鹽,2019-05-14,24.0004,120.4317,0.94507086
C0G810,埔心,2019-05-14,23.9476,120.5255,0.9562351
C0G820,田尾,2019-05-14,23.9017,120.5094,0.96085817
C0G830,埤頭,2019-05-14,23.866,120.4528,0.94956684
C0G840,北斗,2019-05-14,23.8776,120.5142,0.96085817
C0G860,社頭,2019-05-14,23.8976,120.5862,0.97195035
C0G870,芳苑,2019-05-14,23.9223,120.32,0.06718442
C0G880,二水,2019-05-14,23.8107,120.6173,0.9713255
C0G890,伸港,2019-05-14,24.1489,120.4844,0.7724078
C0G900,線西,2019-05-14,24.1434,120.4435,0.7852571
C0G910,花壇,2019-05-14,24.0321,120.5495,0.95871913
C0G920,永靖,2019-05-14,23.9247,120.5475,0.96085817
C0G940,竹塘,2019-05-14,23.8483,120.3868,0.8743865
C0G950,防潮門,2019-05-14,24.1835,120.4871,0.7621543
C0G960,福寶,2019-05-14,24.0443,120.3814,0.93741685
C0G970,三豐,2019-05-14,23.882,120.2895,0.06718442
C0H890,埔里,2019-05-14,23.9722,120.9524,0.9545279
C0H950,中寮,2019-05-14,23.8844,120.7664,0.93707156
C0H960,草屯,2019-05-14,23.9737,120.6809,0.9800989
C0I110,竹山,2019-05-14,23.7612,120.6882,0.9683257
C0I360,水里,2019-05-14,23.8126,120.8498,0.9504411
C0I380,集集,2019-05-14,23.8282,120.8015,0.9575503
C0I410,名間,2019-05-14,23.8371,120.7014,0.9747199
C0I420,國姓,2019-05-14,24.0378,120.8551,0.91451925
C0I460,南投,2019-05-14,23.9115,120.6873,0.9800358
C0K250,崙背,2019-05-14,23.7555,120.3189,0.06087649
C0K280,四湖,2019-05-14,23.6304,120.2271,0.05904357
C0K291,宜梧,2019-05-14,23.5363,120.1693,0.023428898
C0K330,虎尾,2019-05-14,23.7192,120.442,0.8025086
C0K390,土庫,2019-05-14,23.679,120.3956,0.7752275
C0K400,斗六,2019-05-14,23.7206,120.5411,0.9197051
C0K410,北港,2019-05-14,23.574,120.2928,0.02016666
C0K420,西螺,2019-05-14,23.8004,120.4674,0.9383735
C0K430,褒忠,2019-05-14,23.6909,120.3036,0.038792174
C0K440,二崙,2019-05-14,23.7728,120.4089,0.88914156
C0K450,大埤,2019-05-14,23.6461,120.4315,0.8687682
C0K460,斗南,2019-05-14,23.6787,120.4784,0.8950028
C0K470,林內,2019-05-14,23.7487,120.6096,0.94017345
C0K480,莿桐,2019-05-14,23.7612,120.5024,0.94435155
C0K500,元長,2019-05-14,23.6498,120.315,0.041454054
C0K510,水林,2019-05-14,23.5729,120.246,0.028312061
C0K530,臺西,2019-05-14,23.7015,120.1976,0.059978765
C0K550,蔦松,2019-05-14,23.5143,120.2297,0.0237223
C0K560,棋山,2019-05-14,23.6865,120.6034,0.8658991
C0K580,高鐵雲林,2019-05-14,23.7375,120.4179,0.7752275
C0K590,雲林東勢,2019-05-14,23.6742,120.2557,0.038792208
C0K600,箔子寮,2019-05-14,23.6197,120.14,0.027737627
C0M410,馬頭山,2019-05-14,23.3244,120.582,0.96704525
C0M520,東後寮,2019-05-14,23.3699,120.2481,0.05133282
C0M640,中埔,2019-05-14,23.4254,120.5229,0.93852526
C0M650,朴子,2019-05-14,23.4346,120.239,0.02264692
C0M660,溪口,2019-05-14,23.6041,120.4036,0.059926122
C0M670,大林,2019-05-14,23.6006,120.4584,0.07445128
C0M680,太保,2019-05-14,23.4551,120.3315,0.016802285
C0M690,水上,2019-05-14,23.4197,120.3889,0.057400856
C0M700,竹崎,2019-05-14,23.5262,120.5555,0.9608721
C0M710,東石,2019-05-14,23.4589,120.1539,0.0237223
C0M720,番路,2019-05-14,23.4647,120.5542,0.97137994
C0M730,嘉義市東區,2019-05-14,23.4577,120.4605,0.06776961
C0M740,六腳,2019-05-14,23.4929,120.2906,0.016667329
C0M750,布袋,2019-05-14,23.3809,120.1678,0.02264692
C0M760,民雄,2019-05-14,23.5518,120.4285,0.066005744
C0M770,嘉義梅山,2019-05-14,23.5854,120.5556,0.9276432
C0M780,鹿草,2019-05-14,23.4113,120.3084,0.017952846
C0M790,新港,2019-05-14,23.5533,120.3457,0.020460663
C0M800,茶山,2019-05-14,23.2991,120.6648,0.6904709
C0M880,好美里,2019-05-14,23.3364,120.138,0.056875728
C0N010,鯤鯓國小,2019-05-14,23.1879,120.0889,0.025792932
C0N020,城西,2019-05-14,23.0568,120.0956,0.06768361
C0N030,四草,2019-05-14,23.0235,120.1116,0.03465615
C0N040,蘆竹溝,2019-05-14,23.2344,120.0961,0.025792932
C0N050,蚵寮,2019-05-14,23.301,120.1104,0.025792932
C0O810,曾文,2019-05-14,23.2197,120.4973,0.06927904
C0O830,北寮,2019-05-14,23.0796,120.495,0.98611575
C0O840,王爺宮,2019-05-14,23.2221,120.4009,0.06927904
C0O860,大內,2019-05-14,23.1188,120.3608,0.582659
C0O900,善化,2019-05-14,23.1129,120.2972,0.14769204
C0O930,玉井,2019-05-14,23.126,120.4605,0.033618268
C0O950,安南,2019-05-14,23.0767,120.1449,0.29087716
C0O960,崎頂,2019-05-14,22.9595,120.3693,0.9841387
C0O970,虎頭埤,2019-05-14,23.0214,120.3479,0.042219777
C0O980,新市,2019-05-14,23.0616,120.2982,0.14769204
C0O990,媽廟,2019-05-14,22.9917,120.2935,0.135741
C0R150,三地門,2019-05-14,22.7099,120.6399,0.98381907
C0R160,鹽埔,2019-05-14,22.7396,120.5308,0.99355084
C0R170,屏東,2019-05-14,22.6603,120.4941,0.9969878
C0R190,赤山,2019-05-14,22.5923,120.6143,0.99155474
C0R220,潮州,2019-05-14,22.5344,120.54,0.9944018
C0R240,來義,2019-05-14,22.5273,120.6251,0.9954971
C0R260,春日,2019-05-14,22.3704,120.6283,0.9949459
C0R270,琉球嶼,2019-05-14,22.3322,120.3622,0.99514943
C0R280,檳榔,2019-05-14,22.0761,120.8368,0.9162075
C0R320,車城,2019-05-14,22.0744,120.7162,0.22806756
C0R341,牡丹,2019-05-14,22.13,120.7926,0.98996437
C0R350,貓鼻頭,2019-05-14,21.9218,120.7358,0.2658658
C0R470,高樹,2019-05-14,22.8264,120.6008,0.98652995
C0R480,長治,2019-05-14,22.6931,120.5426,0.9937217
C0R490,九如,2019-05-14,22.7405,120.4905,0.9968719
C0R520,崁頂,2019-05-14,22.5148,120.5069,0.9970857
C0R540,佳冬,2019-05-14,22.4195,120.5524,0.9971854
C0R550,新埤,2019-05-14,22.4679,120.5829,0.99092627
C0R560,新園,2019-05-14,22.5434,120.4616,0.9970857
C0R570,麟洛,2019-05-14,22.6508,120.5272,0.9968719
C0R580,南州,2019-05-14,22.4859,120.5027,0.9971854
C0R590,里港,2019-05-14,22.7792,120.4946,0.9937876
C0R620,墾雷,2019-05-14,21.9008,120.8553,0.2658658
C0R640,東港,2019-05-14,22.4625,120.4407,0.9975084
C0R650,竹田,2019-05-14,22.5849,120.5434,0.990136
C0R660,枋寮,2019-05-14,22.3677,120.5906,0.99405164
C0R670,楓港,2019-05-14,22.1901,120.6922,0.9948935
C0R680,佳樂水,2019-05-14,21.9936,120.8616,0.24488263
C0R690,墾丁,2019-05-14,21.9668,120.8103,0.94632864
C0R700,枋山,2019-05-14,22.2468,120.6611,0.9948935
C0R710,龍磐,2019-05-14,21.9317,120.8389,0.47256565
C0R720,旭海,2019-05-14,22.2054,120.8876,0.7879132
C0R730,大坪頂,2019-05-14,22.0246,120.6936,0.56063586
C0R740,獅子,2019-05-14,22.2016,120.7053,0.99542004
C0R760,南仁湖,2019-05-14,22.0847,120.8634,0.98531246
C0R770,保力,2019-05-14,22.0711,120.7641,0.35016346
C0R780,滿州,2019-05-14,22.0244,120.8399,0.2784498
C0R790,九棚,2019-05-14,22.142,120.8893,0.6866745
C0R800,丹路,2019-05-14,22.2045,120.751,0.99382824
C0R810,內獅,2019-05-14,22.3051,120.643,0.99253565
C0R830,高士,2019-05-14,22.1218,120.8368,0.9929781
C0R850,林邊,2019-05-14,22.4634,120.5339,0.9970857
C0R860,鼻頭,2019-05-14,22.1043,120.8979,0.28769836
C0R870,興海,2019-05-14,21.9752,120.8439,0.24488235
C0R880,後壁湖,2019-05-14,21.9457,120.7457,0.22070831
C0R890,山海,2019-05-14,21.9878,120.7091,0.22806756
C0R900,竹坑,2019-05-14,22.1385,120.7022,0.9956831
C0R910,下寮,2019-05-14,22.3929,120.5548,0.9971854
C0R920,塭仔,2019-05-14,22.4169,120.5197,0.997293
C0R930,萬丹,2019-05-14,22.5885,120.4851,0.990136
C0R940,加祿堂,2019-05-14,22.3363,120.6217,0.99253565
C0S710,鹿野,2019-05-14,22.9177,121.123,0.96227974
C0S730,綠島,2019-05-14,22.6672,121.4753,0.9963957
C0S740,池上,2019-05-14,23.1196,121.2095,0.977648
C0S770,大溪山,2019-05-14,22.4785,120.9433,0.9646408
C0S790,金崙,2019-05-14,22.5381,120.9669,0.3823598
C0S810,東河,2019-05-14,22.9727,121.304,0.99283004
C0S830,長濱,2019-05-14,23.2868,121.412,0.95298684
C0S840,南田,2019-05-14,22.2797,120.8892,0.21641518
C0S890,關山,2019-05-14,23.0395,121.175,0.9951806
C0S900,蘭嶼高中,2019-05-14,22.0491,121.5121,0.7079462
C0S910,蘭嶼燈塔,2019-05-14,22.0812,121.5031,0.980075
C0S920,金峰嘉蘭,2019-05-14,22.5948,120.9608,0.12440073
C0S930,延平,2019-05-14,22.9026,121.0841,0.98974085
C0S940,石寧山,2019-05-14,23.2238,121.4066,0.97529817
C0S950,七塊厝,2019-05-14,22.9545,121.2299,0.95565295
C0S960,香蘭,2019-05-14,22.5876,120.9934,0.08731041
C0S970,加津林,2019-05-14,22.4162,120.9269,0.13757159
C0S990,山豬窟,2019-05-14,22.3186,120.8574,0.98101676
C0SA00,歷坵,2019-05-14,22.521,120.8919,0.98112667
C0SA10,檳榔四格山,2019-05-14,22.81,121.1093,0.9879398
C0SA30,都歷,2019-05-14,23.0203,121.3236,0.9957198
C0SA40,瑞和,2019-05-14,22.9744,121.1567,0.99595207
C0SA60,知本（水試所）,2019-05-14,22.7024,121.0828,0.16121908
C0SA80,土,2019-05-14,22.4531,120.8876,0.16744404
C0SA90,達仁林場,2019-05-14,22.2643,120.824,0.9888048
C0T870,鯉魚潭,2019-05-14,23.9356,121.5089,0.08652497
C0T900,西林,2019-05-14,23.8119,121.4415,0.1400353
C0T960,光復,2019-05-14,23.6607,121.425,0.109252304
C0T9A0,月眉山,2019-05-14,23.8099,121.5398,0.7835023
C0T9D0,和中,2019-05-14,24.2668,121.741,0.9602874
C0T9E0,大坑,2019-05-14,23.8806,121.582,0.62208664
C0T9F0,水璉,2019-05-14,23.7971,121.5425,0.42483523
C0T9I0,豐濱,2019-05-14,23.5839,121.5148,0.115321435
C0T9M0,靜浦,2019-05-14,23.4552,121.495,0.061062362
C0T9N0,富里,2019-05-14,23.1716,121.2494,0.97082
C0U600,礁溪,2019-05-14,24.8175,121.7656,0.79701084
C0U650,玉蘭,2019-05-14,24.6753,121.5871,0.9735883
C0U750,龜山島,2019-05-14,24.8417,121.9531,0.9231208
C0U760,東澳,2019-05-14,24.522,121.8332,0.8714481
C0U770,南澳,2019-05-14,24.4493,121.8102,0.7931634
C0U780,五結,2019-05-14,24.6864,121.7979,0.88172144
C0U860,頭城,2019-05-14,24.8532,121.8308,0.79462737
C0U870,大礁溪,2019-05-14,24.791,121.675,0.69150954
C0U880,北關,2019-05-14,24.9072,121.8734,0.6960747
C0U890,三星,2019-05-14,24.6681,121.653,0.76458126
C0U900,內城,2019-05-14,24.7181,121.6877,0.7981134
C0U910,冬山,2019-05-14,24.6337,121.7937,0.88172144
C0U940,羅東,2019-05-14,24.6818,121.7493,0.89237094
C0U970,大福,2019-05-14,24.8006,121.8139,0.7911441
C0U990,員山,2019-05-14,24.7444,121.7225,0.89237094
C0UA00,土場,2019-05-14,24.5765,121.4953,0.7792648
C0UA80,大溪漁港,2019-05-14,24.9418,121.903,0.79701084
C0UA90,石城,2019-05-14,24.9804,121.9512,0.90954554
C0UB00,淡江大學蘭陽校園,2019-05-14,24.8232,121.7304,0.7232338
C0UB10,蘇澳,2019-05-14,24.5969,121.8571,0.92280924
C0UB20,壯圍,2019-05-14,24.7359,121.8163,0.86988264
C0V250,甲仙,2019-05-14,23.0801,120.5918,0.9662337
C0V260,月眉,2019-05-14,22.971,120.5399,0.986239
C0V310,美濃,2019-05-14,22.8987,120.5192,0.059021328
C0V350,溪埔,2019-05-14,22.7386,120.4468,0.9968289
C0V360,內門,2019-05-14,22.9755,120.4668,0.09800631
C0V370,古亭坑,2019-05-14,22.8932,120.4019,0.06770386
C0V400,阿公店,2019-05-14,22.8042,120.3555,0.99616325
C0V440,鳳山,2019-05-14,22.6467,120.3561,0.9973679
C0V450,鳳森,2019-05-14,22.5451,120.3926,0.9928783
C0V490,新興,2019-05-14,22.6274,120.2988,0.9974642
C0V530,阿蓮,2019-05-14,22.8832,120.3275,0.08156596
C0V610,梓官,2019-05-14,22.7606,120.2672,0.99675745
C0V620,永安,2019-05-14,22.8231,120.2369,0.9967631
C0V630,茄萣,2019-05-14,22.9066,120.1826,0.08490236
C0V640,湖內,2019-05-14,22.8871,120.2445,0.08987165
C0V650,彌陀,2019-05-14,22.7838,120.2464,0.9967631
C0V660,岡山,2019-05-14,22.7971,120.295,0.99675745
C0V680,仁武,2019-05-14,22.7011,120.3477,0.9972819
C0V690,鼓山,2019-05-14,22.6233,120.2756,0.9974642
C0V700,三民,2019-05-14,22.645,120.3112,0.9974642
C0V710,苓雅,2019-05-14,22.6227,120.3307,0.9974642
C0V720,林園,2019-05-14,22.5077,120.3945,0.9974642
C0V730,大寮,2019-05-14,22.6056,120.3957,0.99003506
C0V740,旗山,2019-05-14,22.8886,120.4836,0.06251735
C0V750,路竹,2019-05-14,22.855,120.2594,0.9961716
C0V760,橋頭,2019-05-14,22.7578,120.3058,0.9967376
C0V770,大社,2019-05-14,22.7303,120.3466,0.9972819
C0V790,萬山,2019-05-14,22.9059,120.6881,0.7884197
C0V800,六龜,2019-05-14,22.9979,120.6336,0.98452884
C0V810,左營,2019-05-14,22.6749,120.2849,0.9972872
C0V820,小林,2019-05-14,23.1484,120.6333,0.8362741
C0V840,鳳鼻頭,2019-05-14,22.5083,120.3591,0.9975084
C0V850,蚵仔寮,2019-05-14,22.7256,120.2527,0.9972906
C0V860,南寮,2019-05-14,22.7616,120.2339,0.9967923
C0V870,文安,2019-05-14,22.8025,120.2164,0.9967923
C0V880,興達,2019-05-14,22.8778,120.2127,0.08490217
C0V890,前鎮,2019-05-14,22.5718,120.3117,0.9975084
C0V900,汕尾,2019-05-14,22.4782,120.4151,0.99733144
C0X050,東河,2019-05-14,23.2966,120.3856,0.027264107
C0X060,下營,2019-05-14,23.2269,120.2563,0.041857764
C0X080,佳里,2019-05-14,23.173,120.1451,0.056875728
C0X100,臺南市北區,2019-05-14,23.0104,120.1942,0.15970857
C0X110,臺南市南區,2019-05-14,22.9612,120.1884,0.17206289
C0X120,麻豆,2019-05-14,23.1833,120.2486,0.0587346
C0X130,官田,2019-05-14,23.1932,120.3154,0.04460169
C0X140,西港,2019-05-14,23.1256,120.2031,0.050276313
C0X150,安定,2019-05-14,23.1026,120.2278,0.1994258
C0X160,仁德,2019-05-14,22.9683,120.2577,0.12577043
C0X170,關廟,2019-05-14,22.963,120.3278,0.17113332
C0X180,山上,2019-05-14,23.0757,120.3633,0.11162816
C0X190,安平,2019-05-14,22.9932,120.1522,0.15970857
C0X200,左鎮,2019-05-14,23.0568,120.4085,0.10412447
C0X210,白河,2019-05-14,23.3475,120.4144,0.029053373
C0X220,學甲,2019-05-14,23.2304,120.1822,0.0587346
C0X230,鹽水,2019-05-14,23.2726,120.2476,0.052054588
C0X240,關子嶺,2019-05-14,23.3312,120.508,0.9549443
C0X250,新營,2019-05-14,23.3107,120.3167,0.038183764
C0X260,後壁,2019-05-14,23.3664,120.3623,0.06499072
C0X280,將軍,2019-05-14,23.215,120.1358,0.056875728
C0X290,北門,2019-05-14,23.2678,120.1255,0.056875728
C0X300,鹿寮,2019-05-14,23.386,120.4773,0.91099775
C0X310,七股,2019-05-14,23.1473,120.0863,0.029704753
C0X320,柳營,2019-05-14,23.2533,120.3753,0.02808294
C0Z020,明里,2019-05-14,23.2087,121.2623,0.9598142
C0Z061,玉里,2019-05-14,23.3215,121.3397,0.97839063
C0Z070,舞鶴,2019-05-14,23.4681,121.3741,0.45817637
C0Z080,富源,2019-05-14,23.5876,121.3782,0.33803552
C0Z100,東華,2019-05-14,23.8953,121.5498,0.03367819
C0Z150,吉安光華,2019-05-14,23.9309,121.5952,0.029689118
C0Z160,鳳林,2019-05-14,23.7461,121.4534,0.092186
C0Z170,卓溪,2019-05-14,23.3443,121.3029,0.97432804
C0Z180,新城,2019-05-14,24.0395,121.6045,0.16076596
C0Z190,富世,2019-05-14,24.1474,121.6297,0.97684664
C0Z200,萬榮,2019-05-14,23.7092,121.4201,0.08652497
C0Z210,瑞穗,2019-05-14,23.5239,121.3902,0.08906795
C0Z230,和平,2019-05-14,24.3072,121.7701,0.9602874
C0Z270,蕃薯寮,2019-05-14,23.7384,121.5401,0.13509615
C0Z280,德武,2019-05-14,23.4743,121.4107,0.26006347
C0Z300,東里,2019-05-14,23.2685,121.3055,0.9764231
C0Z310,清水斷崖,2019-05-14,24.2183,121.6891,0.9707805
C0Z330,安通山,2019-05-14,23.2907,121.3485,0.94303375
