站號,站名,日期,lat,lon,BlastGRU-TW
466881,新北,2019-09-15,24.9593,121.52,0.029994817
466900,淡水,2019-09-15,25.164889,121.448906,0.037304584
466920,臺北,2019-09-15,25.037658,121.514853,0.029502766
467441,高雄,2019-09-15,22.7304,120.3125,0.33101493
467480,嘉義,2019-09-15,23.495925,120.432906,0.8473064
467490,臺中,2019-09-15,24.145736,120.684075,0.5910296
C0A540,四堵,2019-09-15,24.8926,121.745736,0.11863309
C0A550,泰平,2019-09-15,24.971197,121.823711,0.70175844
C0A560,福山,2019-09-15,24.776203,121.502811,0.6075192
C0A931,三和,2019-09-15,25.233153,121.595236,0.1750704
C0A940,金山,2019-09-15,25.223628,121.643967,0.04851646
C0A950,鼻頭角,2019-09-15,25.129036,121.923372,0.094009675
C0AD10,八里,2019-09-15,25.150211,121.403947,0.037304584
C0AD30,蘆洲,2019-09-15,25.086594,121.472331,0.032647133
C0AD40,土城,2019-09-15,24.973208,121.445169,0.032948032
C0AI10,屈尺,2019-09-15,24.92184,121.54475,0.03087745
C0AI20,白沙灣,2019-09-15,25.283128,121.519058,0.04734405
C0AI30,三重,2019-09-15,25.057328,121.500629,0.032647133
C0B010,七堵,2019-09-15,25.094819,121.71713,0.039300144
C0B020,基隆嶼,2019-09-15,25.19141,121.78391,0.03849532
