站號,站名,日期,lat,lon,BlastGRU-TW
466881,新北,2019-04-11,24.9593,121.52,0.30218196
466900,淡水,2019-04-11,25.164889,121.448906,0.17193365
466920,臺北,2019-04-11,25.037658,121.514853,0.3138632
467441,高雄,2019-04-11,22.7304,120.3125,0.7185188
467480,嘉義,2019-04-11,23.495925,120.432906,0.88933265
467490,臺中,2019-04-11,24.145736,120.684075,0.95015234
C0A530,坪林,2019-04-11,24.938183,121.70975,0.24632205
C0A540,四堵,2019-04-11,24.8926,121.745736,0.14732915
C0A550,泰平,2019-04-11,24.971197,121.823711,0.025676439
C0A890,雙溪,2019-04-11,25.036003,121.864242,0.18007839
C0A920,富貴角,2019-04-11,25.263783,121.565258,0.1197222
C0A931,三和,2019-04-11,25.233153,121.595236,0.13833173
C0AC70,信義,2019-04-11,25.037822,121.564597,0.3138632
C0AC80,文山,2019-04-11,25.00235,121.575728,0.28752443
C0ACA0,新莊,2019-04-11,25.051478,121.446756,0.201869
C0AH50,林口,2019-04-11,25.072181,121.38084,0.11732009
C0AH70,松山,2019-04-11,25.04871,121.55042,0.3138632
C0AH80,深坑,2019-04-11,25.002703,121.628328,0.28752443
C0AJ60,六塊厝,2019-04-11,25.24,121.4481,0.17850746
C0AJ70,田寮,2019-04-11,25.2698,121.4886,0.12796672
