站號,站名,日期,lat,lon,BlastGRU-TW
466881,新北,2019-07-10,24.9593,121.52,0.119975485
466900,淡水,2019-07-10,25.164889,121.448906,0.3169131
466920,臺北,2019-07-10,25.037658,121.514853,0.11397539
467350,澎湖,2019-07-10,23.565503,119.563094,0.76268446
467410,臺南,2019-07-10,22.993239,120.204772,0.06700415
467420,永康,2019-07-10,23.038386,120.2367,0.06637465
467790,墾丁雷達站,2019-07-10,21.948235,120.808028,0.3052945
C0A520,山佳,2019-07-10,24.974944,121.402008,0.16773319
C0A530,坪林,2019-07-10,24.938183,121.70975,0.07362117
C0A880,福隆,2019-07-10,25.017842,121.942083,0.041842602
C0A890,雙溪,2019-07-10,25.036003,121.864242,0.10325951
C0A920,富貴角,2019-07-10,25.263783,121.565258,0.22889557
C0AC80,文山,2019-07-10,25.00235,121.575728,0.1317392
C0ACA0,新莊,2019-07-10,25.051478,121.446756,0.16421036
C0AD00,三芝,2019-07-10,25.258131,121.501917,0.21651879
C0AH70,松山,2019-07-10,25.04871,121.55042,0.11397539
C0AH80,深坑,2019-07-10,25.002703,121.628328,0.1317392
C0AI00,五股,2019-07-10,25.07445,121.42728,0.7761181
C0AJ70,田寮,2019-07-10,25.2698,121.4886,0.16150449
