站號,站名,日期,lat,lon,BlastGRU-TW
466881,新北,2019-04-10,24.9593,121.52,0.22871989
466900,淡水,2019-04-10,25.164889,121.448906,0.08401263
466920,臺北,2019-04-10,25.037658,121.514853,0.24151038
467441,高雄,2019-04-10,22.7304,120.3125,0.5427882
467480,嘉義,2019-04-10,23.495925,120.432906,0.54156137
467490,臺中,2019-04-10,24.145736,120.684075,0.8294965
C0A530,坪林,2019-04-10,24.938183,121.70975,0.17496905
C0A540,四堵,2019-04-10,24.8926,121.745736,0.06793501
C0A550,泰平,2019-04-10,24.971197,121.823711,0.010473529
C0A890,雙溪,2019-04-10,25.036003,121.864242,0.09455844
C0A920,富貴角,2019-04-10,25.263783,121.565258,0.05390396
C0A931,三和,2019-04-10,25.233153,121.595236,0.05059256
C0AC70,信義,2019-04-10,25.037822,121.564597,0.24151029
C0AC80,文山,2019-04-10,25.00235,121.575728,0.21058716
C0ACA0,新莊,2019-04-10,25.051478,121.446756,0.107942395
C0AH50,林口,2019-04-10,25.072181,121.38084,0.069858834
C0AH70,松山,2019-04-10,25.04871,121.55042,0.24151029
C0AH80,深坑,2019-04-10,25.002703,121.628328,0.21058716
C0AJ60,六塊厝,2019-04-10,25.24,121.4481,0.08840362
C0AJ70,田寮,2019-04-10,25.2698,121.4886,0.04888932
