站號,站名,日期,lat,lon,BlastGRU-TW
466881,新北,2019-11-30,24.9593,121.52,0.001136727
466900,淡水,2019-11-30,25.164889,121.448906,0.00018100739
466920,臺北,2019-11-30,25.037658,121.514853,0.0010619124
467441,高雄,2019-11-30,22.7304,120.3125,0.4998391
467480,嘉義,2019-11-30,23.495925,120.432906,0.06335352
467490,臺中,2019-11-30,24.145736,120.684075,0.0050592134
C0A540,四堵,2019-11-30,24.8926,121.745736,0.002874427
C0A550,泰平,2019-11-30,24.971197,121.823711,0.0048791976
C0A560,福山,2019-11-30,24.776203,121.502811,0.0047316086
C0A931,三和,2019-11-30,25.233153,121.595236,0.003013429
C0A940,金山,2019-11-30,25.223628,121.643967,0.00016657794
C0A950,鼻頭角,2019-11-30,25.129036,121.923372,0.038966015
C0AD10,八里,2019-11-30,25.150211,121.403947,0.00018100739
C0AD30,蘆洲,2019-11-30,25.086594,121.472331,0.0004070385
C0AD40,土城,2019-11-30,24.973208,121.445169,0.00041676295
C0AI10,屈尺,2019-11-30,24.92184,121.54475,0.0012756718
C0AI20,白沙灣,2019-11-30,25.283128,121.519058,0.00017140737
C0AI30,三重,2019-11-30,25.057328,121.500629,0.0004070385
C0B010,七堵,2019-11-30,25.094819,121.71713,0.00034116345
C0B020,基隆嶼,2019-11-30,25.19141,121.78391,0.0003761804
