站號,站名,日期,lat,lon,BlastGRU-TW
466881,新北,2019-10-01,24.9593,121.52,0.9166425
466900,淡水,2019-10-01,25.1649,121.4489,0.9519934
466920,臺北,2019-10-01,25.0377,121.5149,0.91228527
466940,基隆,2019-10-01,25.1333,121.7405,0.88899595
466990,花蓮,2019-10-01,23.9751,121.6133,0.97579134
467050,新屋,2019-10-01,25.0067,121.0475,0.7626575
467080,宜蘭,2019-10-01,24.764,121.7565,0.83688396
467270,田中,2019-10-01,23.8738,120.5813,0.8044
467300,東吉島,2019-10-01,23.2569,119.6675,0.92074263
467350,澎湖,2019-10-01,23.5655,119.5631,0.83252174
467410,臺南,2019-10-01,22.9932,120.2048,0.57114595
467420,永康,2019-10-01,23.0384,120.2367,0.56770825
467441,高雄,2019-10-01,22.7304,120.3125,0.6430445
467480,嘉義,2019-10-01,23.4959,120.4329,0.7710419
467490,臺中,2019-10-01,24.1457,120.6841,0.6020555
467540,大武,2019-10-01,22.3557,120.9038,0.023010343
467571,新竹,2019-10-01,24.8279,121.0142,0.9529395
467590,恆春,2019-10-01,22.0039,120.7463,0.16854444
467610,成功,2019-10-01,23.0975,121.3734,0.24392225
467620,蘭嶼,2019-10-01,22.037,121.5583,0.9239949
467660,臺東,2019-10-01,22.7522,121.1546,0.029862957
467790,墾丁雷達站,2019-10-01,21.9482,120.808,0.19725135
C0A520,山佳,2019-10-01,24.9749,121.402,0.94311804
C0A530,坪林,2019-10-01,24.9382,121.7097,0.82882
C0A540,四堵,2019-10-01,24.8926,121.7457,0.895146
C0A550,泰平,2019-10-01,24.9712,121.8237,0.83677846
C0A560,福山,2019-10-01,24.7762,121.5028,0.54966146
C0A570,桶後,2019-10-01,24.8482,121.598,0.8805324
C0A640,石碇,2019-10-01,24.994,121.6629,0.95595765
C0A650,火燒寮,2019-10-01,25.0027,121.7429,0.9522344
C0A660,瑞芳,2019-10-01,25.1132,121.8011,0.94765
C0A770,科教館,2019-10-01,25.0964,121.5165,0.93929994
C0A860,大坪,2019-10-01,25.1659,121.633,0.8382923
C0A880,福隆,2019-10-01,25.0178,121.9421,0.8952679
C0A890,雙溪,2019-10-01,25.036,121.8642,0.9288654
C0A920,富貴角,2019-10-01,25.2638,121.5653,0.96623474
C0A931,三和,2019-10-01,25.2332,121.5952,0.96292275
C0A940,金山,2019-10-01,25.2236,121.644,0.96168184
C0A950,鼻頭角,2019-10-01,25.129,121.9234,0.8847198
C0A970,三貂角,2019-10-01,25.0076,122.0021,0.9508625
C0A980,社子,2019-10-01,25.1095,121.4697,0.9372602
C0A9C0,天母,2019-10-01,25.1175,121.5372,0.9421645
C0A9F0,內湖,2019-10-01,25.0794,121.5755,0.9122853
C0AC60,三峽,2019-10-01,24.939,121.3697,0.918322
C0AC70,信義,2019-10-01,25.0378,121.5646,0.9122853
C0AC80,文山,2019-10-01,25.0023,121.5757,0.9203287
C0ACA0,新莊,2019-10-01,25.0515,121.4468,0.9327419
C0AD00,三芝,2019-10-01,25.2581,121.5019,0.9663729
C0AD10,八里,2019-10-01,25.1502,121.4039,0.9519934
C0AD30,蘆洲,2019-10-01,25.0866,121.4723,0.9393001
C0AD40,土城,2019-10-01,24.9732,121.4452,0.94070125
C0AD50,鶯歌,2019-10-01,24.9515,121.3463,0.96171963
C0AG80,中和,2019-10-01,24.9916,121.4918,0.9122853
C0AH00,汐止,2019-10-01,25.0669,121.6588,0.89930534
C0AH10,永和,2019-10-01,25.0113,121.5081,0.9095016
C0AH40,平等,2019-10-01,25.1291,121.5771,0.82422507
C0AH50,林口,2019-10-01,25.0722,121.3808,0.9151484
C0AH70,松山,2019-10-01,25.0487,121.5504,0.9122853
C0AH80,深坑,2019-10-01,25.0027,121.6283,0.919306
C0AI00,五股,2019-10-01,25.0744,121.4273,0.96035284
C0AI10,屈尺,2019-10-01,24.9218,121.5447,0.9203287
C0AI20,白沙灣,2019-10-01,25.2831,121.5191,0.9583813
C0AI30,三重,2019-10-01,25.0573,121.5006,0.9393001
C0AI40,石牌,2019-10-01,25.1156,121.5131,0.94070125
C0AJ20,野柳,2019-10-01,25.207,121.69,0.89930534
C0AJ30,淡水觀海,2019-10-01,25.1846,121.4086,0.94911575
C0AJ40,石門,2019-10-01,25.2737,121.6012,0.97197765
C0AJ50,水湳洞,2019-10-01,25.1237,121.8622,0.89930534
C0AJ60,六塊厝,2019-10-01,25.24,121.4481,0.94911575
C0AJ70,田寮,2019-10-01,25.2698,121.4886,0.95648825
C0AJ80,板橋,2019-10-01,25.0107,121.4489,0.94070125
C0AJ90,澳底,2019-10-01,25.0552,121.9253,0.8952679
C0B010,七堵,2019-10-01,25.0948,121.7171,0.91653866
C0B020,基隆嶼,2019-10-01,25.1914,121.7839,0.89930534
C0B040,大武崙,2019-10-01,25.1667,121.707,0.91653866
C0B050,八斗子,2019-10-01,25.1448,121.7917,0.8747817
C0B060,暖暖,2019-10-01,25.0957,121.7403,0.94150776
C0C460,復興,2019-10-01,24.8202,121.3523,0.5314618
C0C480,桃園,2019-10-01,24.9924,121.3232,0.9582357
C0C490,八德,2019-10-01,24.9287,121.2833,0.95655787
C0C590,觀音,2019-10-01,25.0271,121.1533,0.96955717
C0C620,蘆竹,2019-10-01,25.0843,121.2658,0.9571524
C0C630,大溪,2019-10-01,24.8829,121.2655,0.96093196
C0C650,平鎮,2019-10-01,24.8975,121.2146,0.9614957
C0C660,楊梅,2019-10-01,24.9124,121.143,0.959365
C0C670,龍潭,2019-10-01,24.8701,121.2214,0.66616184
C0C680,龜山,2019-10-01,25.0285,121.3866,0.9002107
C0C700,中壢,2019-10-01,24.9777,121.2564,0.96005327
C0C710,大溪永福,2019-10-01,24.8929,121.325,0.95907205
C0C720,竹圍,2019-10-01,25.1127,121.2398,0.9519934
C0C730,中大臨海站,2019-10-01,24.9661,121.0086,0.67176545
C0C740,觀音工業區,2019-10-01,25.0648,121.1149,0.9408131
C0C750,新興坑尾,2019-10-01,25.0061,121.0971,0.95136565
C0D430,峨眉,2019-10-01,24.6905,121.0172,0.9507035
C0D480,打鐵坑,2019-10-01,24.8497,121.1508,0.6702717
C0D540,橫山,2019-10-01,24.7112,121.1169,0.56190974
C0D560,竹東,2019-10-01,24.7671,121.0579,0.96145797
C0D580,寶山,2019-10-01,24.735,121.0252,0.48036852
C0D590,新豐,2019-10-01,24.8707,120.9772,0.28198147
C0D650,湖口,2019-10-01,24.9048,121.0436,0.88388395
C0D660,新竹市東區,2019-10-01,24.7987,120.9869,0.9543782
C0D670,海天一線,2019-10-01,24.832,120.9144,0.9362538
C0D680,香山濕地,2019-10-01,24.7836,120.915,0.93769336
C0D690,外湖,2019-10-01,24.9177,120.9687,0.66674197
C0D700,關西,2019-10-01,24.7977,121.1732,0.9596099
C0E420,竹南,2019-10-01,24.709,120.8889,0.94284755
C0E430,南庄,2019-10-01,24.6018,121.0002,0.334753
C0E520,大湖,2019-10-01,24.4149,120.8709,0.36345494
C0E540,後龍,2019-10-01,24.6065,120.7839,0.5325752
C0E550,明德,2019-10-01,24.5835,120.8854,0.2305635
C0E590,通霄,2019-10-01,24.4719,120.7046,0.53758115
C0E730,頭份,2019-10-01,24.6882,120.9122,0.94284755
C0E740,造橋,2019-10-01,24.6371,120.8648,0.29753482
C0E750,苗栗,2019-10-01,24.5646,120.8246,0.4960256
C0E780,銅鑼,2019-10-01,24.4897,120.7909,0.20785786
C0E791,卓蘭,2019-10-01,24.3126,120.8244,0.47190255
C0E810,西湖,2019-10-01,24.5629,120.7485,0.5108908
C0E820,獅潭,2019-10-01,24.5391,120.92,0.24173887
C0E830,苑裡,2019-10-01,24.4397,120.6531,0.5762847
C0E850,大河,2019-10-01,24.6181,120.9486,0.22361422
C0E870,高鐵苗栗,2019-10-01,24.6073,120.8261,0.5254008
C0E910,海埔,2019-10-01,24.6488,120.7724,0.2619765
C0E920,通霄漁港,2019-10-01,24.4986,120.6739,0.5615928
C0E930,龍鳳,2019-10-01,24.7,120.8591,0.31114537
C0F000,大肚,2019-10-01,24.153,120.5721,0.8983563
C0F0B0,石岡,2019-10-01,24.2761,120.7776,0.8871881
C0F850,東勢,2019-10-01,24.2464,120.833,0.5608691
C0F930,大甲,2019-10-01,24.3477,120.6404,0.5496975
C0F970,大坑,2019-10-01,24.1731,120.7223,0.5084772
C0F9A0,中竹林,2019-10-01,24.1036,120.7511,0.916198
C0F9I0,神岡,2019-10-01,24.2725,120.6583,0.2334952
C0F9K0,大安,2019-10-01,24.3451,120.588,0.685448
C0F9L0,后里,2019-10-01,24.3104,120.7297,0.21283051
C0F9M0,豐原,2019-10-01,24.2543,120.7207,0.21724279
C0F9N0,大里,2019-10-01,24.0925,120.7014,0.63533705
C0F9O0,潭子,2019-10-01,24.2131,120.7039,0.2620527
C0F9P0,清水,2019-10-01,24.3123,120.5622,0.7134761
C0F9Q0,外埔,2019-10-01,24.3478,120.7057,0.25560924
C0F9R0,龍井,2019-10-01,24.1845,120.529,0.67629963
C0F9S0,烏日,2019-10-01,24.1071,120.6241,0.5879603
C0F9T0,西屯,2019-10-01,24.1795,120.6413,0.59097195
C0F9U0,南屯,2019-10-01,24.137,120.638,0.63533705
C0F9X0,大雅(中科園區),2019-10-01,24.2153,120.6244,0.49732
C0FA10,松柏,2019-10-01,24.4291,120.6175,0.6078891
C0FA20,溫寮,2019-10-01,24.3722,120.5831,0.6078891
C0FA30,梧棲,2019-10-01,24.256,120.5234,0.67629963
C0FA40,臺中電廠,2019-10-01,24.2146,120.4907,0.67629963
C0FA50,霧峰,2019-10-01,24.0419,120.6995,0.59666544
C0G620,芬園,2019-10-01,24.0157,120.6213,0.5345784
C0G640,鹿港,2019-10-01,24.0753,120.4305,0.5825115
C0G650,員林,2019-10-01,23.9465,120.5856,0.70492125
C0G660,溪湖,2019-10-01,23.9484,120.4791,0.65082014
C0G720,溪州,2019-10-01,23.8516,120.4991,0.7323796
C0G730,二林,2019-10-01,23.9033,120.3761,0.6652
C0G740,大城,2019-10-01,23.8525,120.3209,0.71274436
C0G770,福興,2019-10-01,24.0413,120.4377,0.5825115
C0G780,秀水,2019-10-01,24.0341,120.5039,0.587298
C0G800,埔鹽,2019-10-01,24.0004,120.4317,0.5825115
C0G810,埔心,2019-10-01,23.9476,120.5255,0.6419408
C0G820,田尾,2019-10-01,23.9017,120.5094,0.63260657
C0G830,埤頭,2019-10-01,23.866,120.4528,0.7306775
C0G840,北斗,2019-10-01,23.8776,120.5142,0.63260645
C0G860,社頭,2019-10-01,23.8976,120.5862,0.69763017
C0G870,芳苑,2019-10-01,23.9223,120.32,0.71706676
C0G880,二水,2019-10-01,23.8107,120.6173,0.81128323
C0G890,伸港,2019-10-01,24.1489,120.4844,0.72612965
C0G900,線西,2019-10-01,24.1434,120.4435,0.6994626
C0G910,花壇,2019-10-01,24.0321,120.5495,0.5721968
C0G920,永靖,2019-10-01,23.9247,120.5475,0.63260645
C0G940,竹塘,2019-10-01,23.8483,120.3868,0.7421594
C0G950,防潮門,2019-10-01,24.1835,120.4871,0.6876516
C0G960,福寶,2019-10-01,24.0443,120.3814,0.59038305
C0G970,三豐,2019-10-01,23.882,120.2895,0.71706676
C0H890,埔里,2019-10-01,23.9722,120.9524,0.7466573
C0H950,中寮,2019-10-01,23.8844,120.7664,0.63977194
C0H960,草屯,2019-10-01,23.9737,120.6809,0.7683634
C0I110,竹山,2019-10-01,23.7612,120.6882,0.68647766
C0I360,水里,2019-10-01,23.8126,120.8498,0.9372288
C0I380,集集,2019-10-01,23.8282,120.8015,0.9398035
C0I410,名間,2019-10-01,23.8371,120.7014,0.7483626
C0I420,國姓,2019-10-01,24.0378,120.8551,0.921672
C0I460,南投,2019-10-01,23.9115,120.6873,0.7404409
C0K250,崙背,2019-10-01,23.7555,120.3189,0.79772425
C0K280,四湖,2019-10-01,23.6304,120.2271,0.79693806
C0K291,宜梧,2019-10-01,23.5363,120.1693,0.68179363
C0K330,虎尾,2019-10-01,23.7192,120.442,0.7749458
C0K390,土庫,2019-10-01,23.679,120.3956,0.7745834
C0K400,斗六,2019-10-01,23.7206,120.5411,0.824374
C0K410,北港,2019-10-01,23.574,120.2928,0.69814384
C0K420,西螺,2019-10-01,23.8004,120.4674,0.80092233
C0K430,褒忠,2019-10-01,23.6909,120.3036,0.8543044
C0K440,二崙,2019-10-01,23.7728,120.4089,0.74382323
C0K450,大埤,2019-10-01,23.6461,120.4315,0.79799247
C0K460,斗南,2019-10-01,23.6787,120.4784,0.8285042
C0K470,林內,2019-10-01,23.7487,120.6096,0.8097392
C0K480,莿桐,2019-10-01,23.7612,120.5024,0.8012493
C0K500,元長,2019-10-01,23.6498,120.315,0.8572079
C0K510,水林,2019-10-01,23.5729,120.246,0.5945648
C0K530,臺西,2019-10-01,23.7015,120.1976,0.775118
C0K550,蔦松,2019-10-01,23.5143,120.2297,0.6776284
C0K560,棋山,2019-10-01,23.6865,120.6034,0.84383106
C0K580,高鐵雲林,2019-10-01,23.7375,120.4179,0.7745834
C0K590,雲林東勢,2019-10-01,23.6742,120.2557,0.8543044
C0K600,箔子寮,2019-10-01,23.6197,120.14,0.60183734
C0M410,馬頭山,2019-10-01,23.3244,120.582,0.91674113
C0M520,東後寮,2019-10-01,23.3699,120.2481,0.6432419
C0M640,中埔,2019-10-01,23.4254,120.5229,0.8083134
C0M650,朴子,2019-10-01,23.4346,120.239,0.7260129
C0M660,溪口,2019-10-01,23.6041,120.4036,0.7963466
C0M670,大林,2019-10-01,23.6006,120.4584,0.7898719
C0M680,太保,2019-10-01,23.4551,120.3315,0.76625067
C0M690,水上,2019-10-01,23.4197,120.3889,0.79780716
C0M700,竹崎,2019-10-01,23.5262,120.5555,0.76905084
C0M710,東石,2019-10-01,23.4589,120.1539,0.6776284
C0M720,番路,2019-10-01,23.4647,120.5542,0.7411997
C0M730,嘉義市東區,2019-10-01,23.4577,120.4605,0.76964015
C0M740,六腳,2019-10-01,23.4929,120.2906,0.77280897
C0M750,布袋,2019-10-01,23.3809,120.1678,0.7260129
C0M760,民雄,2019-10-01,23.5518,120.4285,0.77966374
C0M770,嘉義梅山,2019-10-01,23.5854,120.5556,0.8263764
C0M780,鹿草,2019-10-01,23.4113,120.3084,0.7792334
C0M790,新港,2019-10-01,23.5533,120.3457,0.6896786
C0M800,茶山,2019-10-01,23.2991,120.6648,0.96517324
C0M880,好美里,2019-10-01,23.3364,120.138,0.646882
C0N010,鯤鯓國小,2019-10-01,23.1879,120.0889,0.70983684
C0N020,城西,2019-10-01,23.0568,120.0956,0.59889126
C0N030,四草,2019-10-01,23.0235,120.1116,0.67076486
C0N040,蘆竹溝,2019-10-01,23.2344,120.0961,0.70983684
C0N050,蚵寮,2019-10-01,23.301,120.1104,0.70983684
C0O810,曾文,2019-10-01,23.2197,120.4973,0.57168245
C0O830,北寮,2019-10-01,23.0796,120.495,0.9192971
C0O840,王爺宮,2019-10-01,23.2221,120.4009,0.57168245
C0O860,大內,2019-10-01,23.1188,120.3608,0.5685899
C0O900,善化,2019-10-01,23.1129,120.2972,0.65980554
C0O930,玉井,2019-10-01,23.126,120.4605,0.6831735
C0O950,安南,2019-10-01,23.0767,120.1449,0.47794896
C0O960,崎頂,2019-10-01,22.9595,120.3693,0.92270356
C0O970,虎頭埤,2019-10-01,23.0214,120.3479,0.76422626
C0O980,新市,2019-10-01,23.0616,120.2982,0.65980554
C0O990,媽廟,2019-10-01,22.9917,120.2935,0.69031614
C0R150,三地門,2019-10-01,22.7099,120.6399,0.8553929
C0R160,鹽埔,2019-10-01,22.7396,120.5308,0.8721458
C0R170,屏東,2019-10-01,22.6603,120.4941,0.6725851
C0R190,赤山,2019-10-01,22.5923,120.6143,0.8434695
C0R220,潮州,2019-10-01,22.5344,120.54,0.81927073
C0R240,來義,2019-10-01,22.5273,120.6251,0.74501497
C0R260,春日,2019-10-01,22.3704,120.6283,0.6739451
C0R270,琉球嶼,2019-10-01,22.3322,120.3622,0.6914898
C0R280,檳榔,2019-10-01,22.0761,120.8368,0.31057224
C0R320,車城,2019-10-01,22.0744,120.7162,0.14218043
C0R341,牡丹,2019-10-01,22.13,120.7926,0.8895678
C0R350,貓鼻頭,2019-10-01,21.9218,120.7358,0.17777823
C0R470,高樹,2019-10-01,22.8264,120.6008,0.84309494
C0R480,長治,2019-10-01,22.6931,120.5426,0.87370175
C0R490,九如,2019-10-01,22.7405,120.4905,0.6630786
C0R520,崁頂,2019-10-01,22.5148,120.5069,0.66872996
C0R540,佳冬,2019-10-01,22.4195,120.5524,0.6725477
C0R550,新埤,2019-10-01,22.4679,120.5829,0.8373852
C0R560,新園,2019-10-01,22.5434,120.4616,0.66872996
C0R570,麟洛,2019-10-01,22.6508,120.5272,0.6630786
C0R580,南州,2019-10-01,22.4859,120.5027,0.6725477
C0R590,里港,2019-10-01,22.7792,120.4946,0.87573826
C0R620,墾雷,2019-10-01,21.9008,120.8553,0.17777823
C0R640,東港,2019-10-01,22.4625,120.4407,0.69225156
C0R650,竹田,2019-10-01,22.5849,120.5434,0.8311459
C0R660,枋寮,2019-10-01,22.3677,120.5906,0.7987721
C0R670,楓港,2019-10-01,22.1901,120.6922,0.7116664
C0R680,佳樂水,2019-10-01,21.9936,120.8616,0.15925255
C0R690,墾丁,2019-10-01,21.9668,120.8103,0.297373
C0R700,枋山,2019-10-01,22.2468,120.6611,0.7116664
C0R710,龍磐,2019-10-01,21.9317,120.8389,0.25702405
C0R720,旭海,2019-10-01,22.2054,120.8876,0.14293589
C0R730,大坪頂,2019-10-01,22.0246,120.6936,0.3074125
C0R740,獅子,2019-10-01,22.2016,120.7053,0.7836981
C0R760,南仁湖,2019-10-01,22.0847,120.8634,0.31320316
C0R770,保力,2019-10-01,22.0711,120.7641,0.22770593
C0R780,滿州,2019-10-01,22.0244,120.8399,0.18762584
C0R790,九棚,2019-10-01,22.142,120.8893,0.105059534
C0R800,丹路,2019-10-01,22.2045,120.751,0.8702118
C0R810,內獅,2019-10-01,22.3051,120.643,0.55514127
C0R830,高士,2019-10-01,22.1218,120.8368,0.24265082
C0R850,林邊,2019-10-01,22.4634,120.5339,0.6687304
C0R860,鼻頭,2019-10-01,22.1043,120.8979,0.08922397
C0R870,興海,2019-10-01,21.9752,120.8439,0.15925255
C0R880,後壁湖,2019-10-01,21.9457,120.7457,0.13443269
C0R890,山海,2019-10-01,21.9878,120.7091,0.14218043
C0R900,竹坑,2019-10-01,22.1385,120.7022,0.7435143
C0R910,下寮,2019-10-01,22.3929,120.5548,0.6725475
C0R920,塭仔,2019-10-01,22.4169,120.5197,0.67708623
C0R930,萬丹,2019-10-01,22.5885,120.4851,0.8311459
C0R940,加祿堂,2019-10-01,22.3363,120.6217,0.55514073
C0S710,鹿野,2019-10-01,22.9177,121.123,0.90597385
C0S730,綠島,2019-10-01,22.6672,121.4753,0.44857138
C0S740,池上,2019-10-01,23.1196,121.2095,0.95649797
C0S770,大溪山,2019-10-01,22.4785,120.9433,0.56312615
C0S790,金崙,2019-10-01,22.5381,120.9669,0.037429668
C0S810,東河,2019-10-01,22.9727,121.304,0.7617851
C0S830,長濱,2019-10-01,23.2868,121.412,0.92094064
C0S840,南田,2019-10-01,22.2797,120.8892,0.03468838
C0S890,關山,2019-10-01,23.0395,121.175,0.87260765
C0S900,蘭嶼高中,2019-10-01,22.0491,121.5121,0.03900842
C0S910,蘭嶼燈塔,2019-10-01,22.0812,121.5031,0.20308773
C0S920,金峰嘉蘭,2019-10-01,22.5948,120.9608,0.014877304
C0S930,延平,2019-10-01,22.9026,121.0841,0.9658714
C0S940,石寧山,2019-10-01,23.2238,121.4066,0.9464964
C0S950,七塊厝,2019-10-01,22.9545,121.2299,0.9039365
C0S960,香蘭,2019-10-01,22.5876,120.9934,0.012027467
C0S970,加津林,2019-10-01,22.4162,120.9269,0.023313103
C0S990,山豬窟,2019-10-01,22.3186,120.8574,0.39271152
C0SA00,歷坵,2019-10-01,22.521,120.8919,0.6765069
C0SA10,檳榔四格山,2019-10-01,22.81,121.1093,0.60322833
C0SA30,都歷,2019-10-01,23.0203,121.3236,0.37034044
C0SA40,瑞和,2019-10-01,22.9744,121.1567,0.8036152
C0SA60,知本（水試所）,2019-10-01,22.7024,121.0828,0.018581223
C0SA80,土,2019-10-01,22.4531,120.8876,0.018200232
C0SA90,達仁林場,2019-10-01,22.2643,120.824,0.72868484
C0T870,鯉魚潭,2019-10-01,23.9356,121.5089,0.9652401
C0T900,西林,2019-10-01,23.8119,121.4415,0.9598161
C0T960,光復,2019-10-01,23.6607,121.425,0.9774631
C0T9A0,月眉山,2019-10-01,23.8099,121.5398,0.936181
C0T9D0,和中,2019-10-01,24.2668,121.741,0.26977807
C0T9E0,大坑,2019-10-01,23.8806,121.582,0.94638705
C0T9F0,水璉,2019-10-01,23.7971,121.5425,0.9506685
C0T9I0,豐濱,2019-10-01,23.5839,121.5148,0.98485315
C0T9M0,靜浦,2019-10-01,23.4552,121.495,0.98774886
C0T9N0,富里,2019-10-01,23.1716,121.2494,0.9191608
C0U600,礁溪,2019-10-01,24.8175,121.7656,0.8483626
C0U650,玉蘭,2019-10-01,24.6753,121.5871,0.34053
C0U750,龜山島,2019-10-01,24.8417,121.9531,0.96925884
C0U760,東澳,2019-10-01,24.522,121.8332,0.9283183
C0U770,南澳,2019-10-01,24.4493,121.8102,0.8522622
C0U780,五結,2019-10-01,24.6864,121.7979,0.5995433
C0U860,頭城,2019-10-01,24.8532,121.8308,0.83688396
C0U870,大礁溪,2019-10-01,24.791,121.675,0.40692455
C0U880,北關,2019-10-01,24.9072,121.8734,0.8870473
C0U890,三星,2019-10-01,24.6681,121.653,0.9095296
C0U900,內城,2019-10-01,24.7181,121.6877,0.88016504
C0U910,冬山,2019-10-01,24.6337,121.7937,0.5995433
C0U940,羅東,2019-10-01,24.6818,121.7493,0.6389958
C0U970,大福,2019-10-01,24.8006,121.8139,0.8208932
C0U990,員山,2019-10-01,24.7444,121.7225,0.6389958
C0UA00,土場,2019-10-01,24.5765,121.4953,0.7218247
C0UA80,大溪漁港,2019-10-01,24.9418,121.903,0.8483626
C0UA90,石城,2019-10-01,24.9804,121.9512,0.91768336
C0UB00,淡江大學蘭陽校園,2019-10-01,24.8232,121.7304,0.64096767
C0UB10,蘇澳,2019-10-01,24.5969,121.8571,0.6790105
C0UB20,壯圍,2019-10-01,24.7359,121.8163,0.56180537
C0V250,甲仙,2019-10-01,23.0801,120.5918,0.95066196
C0V260,月眉,2019-10-01,22.971,120.5399,0.92621946
C0V310,美濃,2019-10-01,22.8987,120.5192,0.69598734
C0V350,溪埔,2019-10-01,22.7386,120.4468,0.6909496
C0V360,內門,2019-10-01,22.9755,120.4668,0.6322724
C0V370,古亭坑,2019-10-01,22.8932,120.4019,0.70759696
C0V400,阿公店,2019-10-01,22.8042,120.3555,0.6828292
C0V440,鳳山,2019-10-01,22.6467,120.3561,0.6822799
C0V450,鳳森,2019-10-01,22.5451,120.3926,0.8233334
C0V490,新興,2019-10-01,22.6274,120.2988,0.6904126
C0V530,阿蓮,2019-10-01,22.8832,120.3275,0.6888862
C0V610,梓官,2019-10-01,22.7606,120.2672,0.61827064
C0V620,永安,2019-10-01,22.8231,120.2369,0.49429798
C0V630,茄萣,2019-10-01,22.9066,120.1826,0.54203093
C0V640,湖內,2019-10-01,22.8871,120.2445,0.5568016
C0V650,彌陀,2019-10-01,22.7838,120.2464,0.49429798
C0V660,岡山,2019-10-01,22.7971,120.295,0.61827064
C0V680,仁武,2019-10-01,22.7011,120.3477,0.6487703
C0V690,鼓山,2019-10-01,22.6233,120.2756,0.6904126
C0V700,三民,2019-10-01,22.645,120.3112,0.6904126
C0V710,苓雅,2019-10-01,22.6227,120.3307,0.6904126
C0V720,林園,2019-10-01,22.5077,120.3945,0.6904126
C0V730,大寮,2019-10-01,22.6056,120.3957,0.77003723
C0V740,旗山,2019-10-01,22.8886,120.4836,0.68346876
C0V750,路竹,2019-10-01,22.855,120.2594,0.6276383
C0V760,橋頭,2019-10-01,22.7578,120.3058,0.6284446
C0V770,大社,2019-10-01,22.7303,120.3466,0.6487703
C0V790,萬山,2019-10-01,22.9059,120.6881,0.9622343
C0V800,六龜,2019-10-01,22.9979,120.6336,0.9271028
C0V810,左營,2019-10-01,22.6749,120.2849,0.6430445
C0V820,小林,2019-10-01,23.1484,120.6333,0.96366906
C0V840,鳳鼻頭,2019-10-01,22.5083,120.3591,0.69225156
C0V850,蚵仔寮,2019-10-01,22.7256,120.2527,0.64021736
C0V860,南寮,2019-10-01,22.7616,120.2339,0.47920397
C0V870,文安,2019-10-01,22.8025,120.2164,0.47920397
C0V880,興達,2019-10-01,22.8778,120.2127,0.54203093
C0V890,前鎮,2019-10-01,22.5718,120.3117,0.69225144
C0V900,汕尾,2019-10-01,22.4782,120.4151,0.7138733
C0X050,東河,2019-10-01,23.2966,120.3856,0.724426
C0X060,下營,2019-10-01,23.2269,120.2563,0.7244907
C0X080,佳里,2019-10-01,23.173,120.1451,0.6468822
C0X100,臺南市北區,2019-10-01,23.0104,120.1942,0.5640784
C0X110,臺南市南區,2019-10-01,22.9612,120.1884,0.56770825
C0X120,麻豆,2019-10-01,23.1833,120.2486,0.6467487
C0X130,官田,2019-10-01,23.1932,120.3154,0.71221715
C0X140,西港,2019-10-01,23.1256,120.2031,0.6630334
C0X150,安定,2019-10-01,23.1026,120.2278,0.5392113
C0X160,仁德,2019-10-01,22.9683,120.2577,0.6925761
C0X170,關廟,2019-10-01,22.963,120.3278,0.68017286
C0X180,山上,2019-10-01,23.0757,120.3633,0.6151529
C0X190,安平,2019-10-01,22.9932,120.1522,0.5640784
C0X200,左鎮,2019-10-01,23.0568,120.4085,0.6254089
C0X210,白河,2019-10-01,23.3475,120.4144,0.7060313
C0X220,學甲,2019-10-01,23.2304,120.1822,0.6467487
C0X230,鹽水,2019-10-01,23.2726,120.2476,0.66869533
C0X240,關子嶺,2019-10-01,23.3312,120.508,0.9678853
C0X250,新營,2019-10-01,23.3107,120.3167,0.72057366
C0X260,後壁,2019-10-01,23.3664,120.3623,0.6176702
C0X280,將軍,2019-10-01,23.215,120.1358,0.6468822
C0X290,北門,2019-10-01,23.2678,120.1255,0.6468822
C0X300,鹿寮,2019-10-01,23.386,120.4773,0.8321329
C0X310,七股,2019-10-01,23.1473,120.0863,0.63804847
C0X320,柳營,2019-10-01,23.2533,120.3753,0.715573
C0Z020,明里,2019-10-01,23.2087,121.2623,0.92090863
C0Z061,玉里,2019-10-01,23.3215,121.3397,0.97472525
C0Z070,舞鶴,2019-10-01,23.4681,121.3741,0.9775222
C0Z080,富源,2019-10-01,23.5876,121.3782,0.97350276
C0Z100,東華,2019-10-01,23.8953,121.5498,0.97933125
C0Z150,吉安光華,2019-10-01,23.9309,121.5952,0.9759312
C0Z160,鳳林,2019-10-01,23.7461,121.4534,0.9793023
C0Z170,卓溪,2019-10-01,23.3443,121.3029,0.9606701
C0Z180,新城,2019-10-01,24.0395,121.6045,0.9722975
C0Z190,富世,2019-10-01,24.1474,121.6297,0.80725384
C0Z200,萬榮,2019-10-01,23.7092,121.4201,0.9652401
C0Z210,瑞穗,2019-10-01,23.5239,121.3902,0.9860171
C0Z230,和平,2019-10-01,24.3072,121.7701,0.26977807
C0Z270,蕃薯寮,2019-10-01,23.7384,121.5401,0.9677955
C0Z280,德武,2019-10-01,23.4743,121.4107,0.9820934
C0Z300,東里,2019-10-01,23.2685,121.3055,0.9686076
C0Z310,清水斷崖,2019-10-01,24.2183,121.6891,0.6119191
C0Z330,安通山,2019-10-01,23.2907,121.3485,0.92164713
