站號,站名,日期,lat,lon,BlastGRU-TW
12J990,口湖工作站,2020-03-05,23.589978,120.180394,0.29478094
12Q970,東港工作站,2020-03-05,22.479997,120.466058,0.39571053
12Q980,恆春工作站,2020-03-05,22.079678,120.714425,0.36427355
466881,新北,2020-03-05,24.9593,121.52,0.07966083
466900,淡水,2020-03-05,25.164889,121.448906,0.022459786
466920,臺北,2020-03-05,25.037658,121.514853,0.084535815
466940,基隆,2020-03-05,25.133314,121.740475,0.012150919
466990,花蓮,2020-03-05,23.975128,121.613275,0.9867221
467050,新屋,2020-03-05,25.006744,121.047486,0.007034931
467080,宜蘭,2020-03-05,24.763975,121.756528,0.18843123
467270,田中,2020-03-05,23.873803,120.581286,0.16978106
467300,東吉島,2020-03-05,23.25695,119.667467,0.072580986
467350,澎湖,2020-03-05,23.565503,119.563094,0.0035670942
467410,臺南,2020-03-05,22.993239,120.204772,0.61060905
467420,永康,2020-03-05,23.038386,120.2367,0.6216256
467441,高雄,2020-03-05,22.7304,120.3125,0.44160992
467480,嘉義,2020-03-05,23.495925,120.432906,0.117609225
467490,臺中,2020-03-05,24.145736,120.684075,0.07509302
467540,大武,2020-03-05,22.355675,120.903789,0.8694411
467571,新竹,2020-03-05,24.827853,121.014219,0.007110311
467590,恆春,2020-03-05,22.003897,120.746339,0.35241783
467610,成功,2020-03-05,23.097486,121.373428,0.9740552
467620,蘭嶼,2020-03-05,22.036969,121.558339,0.6019043
467660,臺東,2020-03-05,22.752211,121.154586,0.46211454
467790,墾丁雷達站,2020-03-05,21.948235,120.808028,0.34106424
72AI40,桃改樹林分場,2020-03-05,24.944503,121.386972,0.037431505
72C440,桃園農改,2020-03-05,24.950944,121.030583,0.0061428617
72D680,桃改新埔分場,2020-03-05,24.834444,121.066111,0.009986092
72G600,臺中農改,2020-03-05,24.003028,120.534389,0.17828436
72K220,南改斗南分場,2020-03-05,23.634556,120.477333,0.42491218
72M360,南改義竹分場,2020-03-05,23.360694,120.279361,0.3898866
72M700,南改鹿草分場,2020-03-05,23.416869,120.283061,0.439356
72N100,臺南農改,2020-03-05,23.0605,120.342194,0.5205008
72N240,七股研究中心,2020-03-05,23.081672,120.062894,0.6038203
72Q010,高雄農改,2020-03-05,22.709333,120.525889,0.23069198
72S200,東改班鳩分場,2020-03-05,22.829528,121.077694,0.22618462
72S590,東改賓朗果園,2020-03-05,22.813889,121.071278,0.15924172
72T250,花蓮農改,2020-03-05,23.975222,121.563889,0.9852512
72U480,花改蘭陽分場,2020-03-05,24.686306,121.716583,0.36167163
72V140,高改旗南分場,2020-03-05,22.857861,120.516667,0.18934117
82A750,茶改北部分場,2020-03-05,24.955778,121.631222,0.036089923
82C160,茶改場,2020-03-05,24.908472,121.185333,0.010665343
82H840,茶改南部分場,2020-03-05,23.762528,120.7405,0.032026906
82S580,茶改東部分場,2020-03-05,22.907694,121.130139,0.28090975
A2C560,農工中心,2020-03-05,24.985917,121.239833,0.009586965
A2K360,水試臺西試驗場,2020-03-05,23.717231,120.190522,0.14723936
A2K570,古坑花卉中心,2020-03-05,23.63353,120.55239,0.24482803
A2K630,臺大雲林校區,2020-03-05,23.730628,120.423903,0.38211498
A2N290,臺南蘭花園區,2020-03-05,23.340258,120.379661,0.32851875
B2E890,畜試北區分所,2020-03-05,24.527806,120.770972,0.026555985
B2N890,畜試所,2020-03-05,23.058972,120.336406,0.5205006
B2Q810,畜試南區分所,2020-03-05,21.945583,120.802167,0.35733223
B2U990,畜試東區分所,2020-03-05,24.669039,121.832561,0.37973595
C0A520,山佳,2020-03-05,24.974944,121.402008,0.03743154
C0A530,坪林,2020-03-05,24.938183,121.70975,0.04316673
C0A540,四堵,2020-03-05,24.8926,121.745736,0.019643912
C0A550,泰平,2020-03-05,24.971197,121.823711,0.010949328
C0A560,福山,2020-03-05,24.776203,121.502811,0.036089923
C0A570,桶後,2020-03-05,24.848222,121.597992,0.024032164
C0A640,石碇,2020-03-05,24.993969,121.662917,0.07439541
C0A650,火燒寮,2020-03-05,25.002719,121.742892,0.048950277
C0A660,瑞芳,2020-03-05,25.113169,121.801147,0.15311176
C0A770,科教館,2020-03-05,25.096356,121.516507,0.038634207
C0A860,大坪,2020-03-05,25.165914,121.632969,0.008446754
C0A880,福隆,2020-03-05,25.017842,121.942083,0.26824746
C0A890,雙溪,2020-03-05,25.036003,121.864242,0.01263384
C0A920,富貴角,2020-03-05,25.263783,121.565258,0.01565503
C0A931,三和,2020-03-05,25.233153,121.595236,0.047251504
C0A940,金山,2020-03-05,25.223628,121.643967,0.015387079
C0A950,鼻頭角,2020-03-05,25.129036,121.923372,0.28158456
C0A970,三貂角,2020-03-05,25.007606,122.002058,0.20148583
C0A980,社子,2020-03-05,25.109508,121.469681,0.039007712
C0A9C0,天母,2020-03-05,25.117494,121.537169,0.0378469
C0A9F0,內湖,2020-03-05,25.079422,121.57545,0.084535815
C0AC60,三峽,2020-03-05,24.939025,121.369728,0.07720651
C0AC70,信義,2020-03-05,25.037822,121.564597,0.084535815
C0AC80,文山,2020-03-05,25.00235,121.575728,0.07200923
C0ACA0,新莊,2020-03-05,25.051478,121.446756,0.020727431
C0AD00,三芝,2020-03-05,25.258131,121.501917,0.014315457
C0AD10,八里,2020-03-05,25.150211,121.403947,0.022459786
C0AD30,蘆洲,2020-03-05,25.086594,121.472331,0.038634207
C0AD40,土城,2020-03-05,24.973208,121.445169,0.03821712
C0AD50,鶯歌,2020-03-05,24.951533,121.346294,0.022268707
C0AG80,中和,2020-03-05,24.991622,121.491792,0.084535815
C0AH00,汐止,2020-03-05,25.066881,121.658778,0.0121683655
C0AH10,永和,2020-03-05,25.01125,121.508111,0.0869632
C0AH40,平等,2020-03-05,25.129142,121.577086,0.014080015
C0AH50,林口,2020-03-05,25.072181,121.38084,0.019655127
C0AH70,松山,2020-03-05,25.04871,121.55042,0.084535815
C0AH80,深坑,2020-03-05,25.002703,121.628328,0.07200923
C0AI00,五股,2020-03-05,25.07445,121.42728,0.010571946
C0AI10,屈尺,2020-03-05,24.92184,121.54475,0.07200923
C0AI20,白沙灣,2020-03-05,25.283128,121.519058,0.015395411
C0AI30,三重,2020-03-05,25.057328,121.500629,0.038634207
C0AI40,石牌,2020-03-05,25.115597,121.513139,0.03821712
C0AJ20,野柳,2020-03-05,25.20703,121.690021,0.0121683655
C0AJ30,淡水觀海,2020-03-05,25.184591,121.408616,0.022238927
C0AJ40,石門,2020-03-05,25.273672,121.601198,0.009142983
C0AJ50,水湳洞,2020-03-05,25.123695,121.862238,0.0121683655
C0AJ60,六塊厝,2020-03-05,25.24,121.4481,0.022238927
C0AJ70,田寮,2020-03-05,25.2698,121.4886,0.015330299
C0AJ80,板橋,2020-03-05,25.0107,121.4489,0.03821712
C0AJ90,澳底,2020-03-05,25.0552,121.9253,0.26824746
C0B010,七堵,2020-03-05,25.094819,121.71713,0.012328723
C0B020,基隆嶼,2020-03-05,25.19141,121.78391,0.0121683655
C0B040,大武崙,2020-03-05,25.166676,121.706993,0.012328723
C0B050,八斗子,2020-03-05,25.144754,121.79167,0.012159926
C0B060,暖暖,2020-03-05,25.0957,121.7403,0.013339337
C0C460,復興,2020-03-05,24.820208,121.352281,0.028523142
C0C480,桃園,2020-03-05,24.992425,121.323172,0.012945419
C0C490,八德,2020-03-05,24.928708,121.283289,0.025954785
C0C590,觀音,2020-03-05,25.027072,121.153317,0.016203685
C0C620,蘆竹,2020-03-05,25.084275,121.265767,0.022679498
C0C630,大溪,2020-03-05,24.882853,121.265547,0.022213183
C0C650,平鎮,2020-03-05,24.897503,121.214636,0.010665353
C0C660,楊梅,2020-03-05,24.912375,121.143047,0.006766215
C0C670,龍潭,2020-03-05,24.870056,121.221389,0.008632438
C0C680,龜山,2020-03-05,25.02846,121.38656,0.06354245
C0C700,中壢,2020-03-05,24.977661,121.256375,0.012603906
C0C710,大溪永福,2020-03-05,24.892936,121.324975,0.009455055
C0C720,竹圍,2020-03-05,25.112692,121.239824,0.022459786
C0C730,中大臨海站,2020-03-05,24.966126,121.008581,0.009100602
C0C740,觀音工業區,2020-03-05,25.064764,121.114856,0.0057775886
C0C750,新興坑尾,2020-03-05,25.0061,121.0971,0.0061595854
C0D430,峨眉,2020-03-05,24.6905,121.017189,0.007595008
C0D480,打鐵坑,2020-03-05,24.849664,121.150789,0.018777747
C0D540,橫山,2020-03-05,24.71116,121.11693,0.010179426
C0D560,竹東,2020-03-05,24.767147,121.057881,0.0078288345
C0D580,寶山,2020-03-05,24.735006,121.025192,0.014059846
C0D590,新豐,2020-03-05,24.87068,120.97721,0.0153055275
C0D650,湖口,2020-03-05,24.904794,121.043628,0.0042791637
C0D660,新竹市東區,2020-03-05,24.798681,120.986942,0.0067882473
C0D670,海天一線,2020-03-05,24.831986,120.914438,0.0053509986
C0D680,香山濕地,2020-03-05,24.783581,120.914988,0.005206707
C0D690,外湖,2020-03-05,24.917735,120.968711,0.009100602
C0D700,關西,2020-03-05,24.7977,121.1732,0.011963369
C0E420,竹南,2020-03-05,24.708978,120.888897,0.0048588584
C0E430,南庄,2020-03-05,24.601775,121.000214,0.0122992
C0E520,大湖,2020-03-05,24.41494,120.87087,0.016322004
C0E540,後龍,2020-03-05,24.606489,120.783933,0.037730135
C0E550,明德,2020-03-05,24.583486,120.885411,0.03588293
C0E590,通霄,2020-03-05,24.471892,120.704622,0.035336494
C0E730,頭份,2020-03-05,24.688247,120.912206,0.0048588584
C0E740,造橋,2020-03-05,24.637056,120.864778,0.04999613
C0E750,苗栗,2020-03-05,24.564569,120.824575,0.026716776
C0E780,銅鑼,2020-03-05,24.489681,120.790853,0.061578825
C0E791,卓蘭,2020-03-05,24.3126,120.8244,0.12148889
C0E810,西湖,2020-03-05,24.562947,120.7485,0.030557808
C0E820,獅潭,2020-03-05,24.539133,120.920042,0.047240507
C0E830,苑裡,2020-03-05,24.439714,120.653053,0.07259703
C0E850,大河,2020-03-05,24.618069,120.948578,0.030878121
C0E870,高鐵苗栗,2020-03-05,24.60725,120.826094,0.035192054
C0E910,海埔,2020-03-05,24.648767,120.772435,0.07145097
C0E920,通霄漁港,2020-03-05,24.498589,120.673876,0.052724164
C0E930,龍鳳,2020-03-05,24.700034,120.859125,0.06273484
C0F0B0,石岡,2020-03-05,24.276061,120.777644,0.095415026
C0F850,東勢,2020-03-05,24.246428,120.833047,0.08827153
C0F930,大甲,2020-03-05,24.347667,120.640403,0.06628757
C0F970,大坑,2020-03-05,24.173142,120.722289,0.05866445
C0F9A0,中竹林,2020-03-05,24.103556,120.751061,0.026155947
C0F9I0,神岡,2020-03-05,24.272481,120.658314,0.052783173
C0F9K0,大安,2020-03-05,24.345061,120.588025,0.15675882
C0F9L0,后里,2020-03-05,24.310436,120.729725,0.02745396
C0F9M0,豐原,2020-03-05,24.254322,120.720692,0.03737416
C0F9N0,大里,2020-03-05,24.092464,120.701378,0.09720478
C0F9O0,潭子,2020-03-05,24.213106,120.703933,0.06569696
C0F9P0,清水,2020-03-05,24.312297,120.562242,0.19164617
C0F9Q0,外埔,2020-03-05,24.347817,120.705686,0.08441456
C0F9R0,龍井,2020-03-05,24.184536,120.528972,0.14391069
C0F9S0,烏日,2020-03-05,24.107058,120.624103,0.23462826
C0F9T0,西屯,2020-03-05,24.179494,120.641275,0.07114786
C0F9U0,南屯,2020-03-05,24.137006,120.637969,0.09720478
C0F9X0,大雅(中科園區),2020-03-05,24.21528,120.62445,0.03665545
C0FA10,松柏,2020-03-05,24.429115,120.617482,0.096150756
C0FA20,溫寮,2020-03-05,24.372177,120.583125,0.096150756
C0FA30,梧棲,2020-03-05,24.256003,120.523381,0.14391069
C0FA40,臺中電廠,2020-03-05,24.2146,120.4907,0.14391069
C0FA50,霧峰,2020-03-05,24.0419,120.6995,0.070303105
C0G620,芬園,2020-03-05,24.015678,120.6213,0.08201089
C0G640,鹿港,2020-03-05,24.0753,120.430481,0.1863726
C0G650,員林,2020-03-05,23.946503,120.585597,0.13120712
C0G660,溪湖,2020-03-05,23.94835,120.479122,0.1260039
C0G720,溪州,2020-03-05,23.851589,120.499093,0.123636656
C0G730,二林,2020-03-05,23.903325,120.376081,0.16655968
C0G740,大城,2020-03-05,23.852487,120.320935,0.07766596
C0G770,福興,2020-03-05,24.041289,120.437669,0.18518294
C0G780,秀水,2020-03-05,24.03405,120.503869,0.19489104
C0G800,埔鹽,2020-03-05,24.000394,120.431683,0.18518294
C0G810,埔心,2020-03-05,23.947633,120.525456,0.11291873
C0G820,田尾,2020-03-05,23.901669,120.509389,0.10182261
C0G830,埤頭,2020-03-05,23.866003,120.452806,0.15098505
C0G840,北斗,2020-03-05,23.877586,120.514222,0.10182261
C0G860,社頭,2020-03-05,23.897647,120.5862,0.11950568
C0G870,芳苑,2020-03-05,23.922303,120.320025,0.085597485
C0G880,二水,2020-03-05,23.810742,120.6173,0.13110046
C0G890,伸港,2020-03-05,24.148933,120.484403,0.16015956
C0G900,線西,2020-03-05,24.143358,120.443536,0.120780095
C0G910,花壇,2020-03-05,24.032076,120.549461,0.16200925
C0G920,永靖,2020-03-05,23.924703,120.547533,0.10182261
C0G940,竹塘,2020-03-05,23.848253,120.386764,0.25841486
C0G950,防潮門,2020-03-05,24.1835,120.4871,0.15760557
C0G960,福寶,2020-03-05,24.0443,120.3814,0.20215335
C0G970,三豐,2020-03-05,23.882,120.2895,0.085597485
C0H890,埔里,2020-03-05,23.972169,120.952425,0.4930096
C0H950,中寮,2020-03-05,23.884447,120.766406,0.041046213
C0H960,草屯,2020-03-05,23.973672,120.68085,0.122282036
C0I110,竹山,2020-03-05,23.761225,120.688156,0.05857275
C0I360,水里,2020-03-05,23.812553,120.849792,0.026416706
C0I380,集集,2020-03-05,23.828206,120.801467,0.02949153
C0I410,名間,2020-03-05,23.837053,120.701447,0.15724446
C0I420,國姓,2020-03-05,24.037803,120.855072,0.07938412
C0I460,南投,2020-03-05,23.911469,120.687331,0.10960473
C0K250,崙背,2020-03-05,23.75555,120.318925,0.08276483
C0K280,四湖,2020-03-05,23.630414,120.227125,0.20861532
C0K291,宜梧,2020-03-05,23.536281,120.169329,0.43579146
C0K330,虎尾,2020-03-05,23.719183,120.442036,0.35928333
C0K390,土庫,2020-03-05,23.679029,120.395574,0.38211498
C0K400,斗六,2020-03-05,23.720583,120.541127,0.28091323
C0K410,北港,2020-03-05,23.573957,120.292802,0.31577244
C0K420,西螺,2020-03-05,23.800407,120.467394,0.14960591
C0K430,褒忠,2020-03-05,23.690938,120.303634,0.1454807
C0K440,二崙,2020-03-05,23.772797,120.408944,0.24042429
C0K450,大埤,2020-03-05,23.646074,120.431537,0.4287332
C0K460,斗南,2020-03-05,23.678734,120.478359,0.32634845
C0K470,林內,2020-03-05,23.748675,120.609642,0.2891129
C0K480,莿桐,2020-03-05,23.761192,120.502372,0.13708097
C0K500,元長,2020-03-05,23.64981,120.315024,0.20885096
C0K510,水林,2020-03-05,23.572924,120.24597,0.2787489
C0K530,臺西,2020-03-05,23.701547,120.197559,0.13371395
C0K550,蔦松,2020-03-05,23.514319,120.229736,0.4192904
C0K560,棋山,2020-03-05,23.68645,120.603417,0.29256192
C0K580,高鐵雲林,2020-03-05,23.737456,120.417944,0.38211498
C0K590,雲林東勢,2020-03-05,23.674192,120.255721,0.1454807
C0K600,箔子寮,2020-03-05,23.6197,120.14,0.29478094
C0M410,馬頭山,2020-03-05,23.324361,120.582017,0.09968698
C0M520,東後寮,2020-03-05,23.369908,120.248065,0.44601855
C0M640,中埔,2020-03-05,23.42538,120.5229,0.25150603
C0M650,朴子,2020-03-05,23.43463,120.23902,0.48251152
C0M660,溪口,2020-03-05,23.604131,120.403569,0.17503364
C0M670,大林,2020-03-05,23.600616,120.45841,0.16031325
C0M680,太保,2020-03-05,23.455062,120.331455,0.43668616
C0M690,水上,2020-03-05,23.419734,120.388909,0.1144488
C0M700,竹崎,2020-03-05,23.526178,120.555508,0.17413805
C0M710,東石,2020-03-05,23.458927,120.15385,0.4192904
C0M720,番路,2020-03-05,23.464657,120.554156,0.15168218
C0M730,嘉義市東區,2020-03-05,23.457673,120.460531,0.11058913
C0M740,六腳,2020-03-05,23.492871,120.290625,0.4635399
C0M750,布袋,2020-03-05,23.380878,120.167789,0.48251152
C0M760,民雄,2020-03-05,23.551754,120.428457,0.1424483
C0M770,嘉義梅山,2020-03-05,23.585398,120.555587,0.19876249
C0M780,鹿草,2020-03-05,23.41134,120.30835,0.42360348
C0M790,新港,2020-03-05,23.553269,120.345728,0.29927418
C0M800,茶山,2020-03-05,23.299075,120.664767,0.17280152
C0M880,好美里,2020-03-05,23.3364,120.138,0.50709903
C0N010,鯤鯓國小,2020-03-05,23.1879,120.0889,0.5293321
C0N020,城西,2020-03-05,23.0568,120.0956,0.5938807
C0N030,四草,2020-03-05,23.0235,120.1116,0.6712406
C0N040,蘆竹溝,2020-03-05,23.2344,120.0961,0.5293321
C0N050,蚵寮,2020-03-05,23.301,120.1104,0.5293321
C0O810,曾文,2020-03-05,23.219681,120.497328,0.119963065
C0O830,北寮,2020-03-05,23.079561,120.495008,0.19418012
C0O840,王爺宮,2020-03-05,23.222064,120.40085,0.119963065
C0O860,大內,2020-03-05,23.11885,120.36083,0.48587647
C0O900,善化,2020-03-05,23.112883,120.297219,0.5496495
C0O930,玉井,2020-03-05,23.126042,120.46055,0.38452613
C0O950,安南,2020-03-05,23.076694,120.144861,0.56607425
C0O960,崎頂,2020-03-05,22.959547,120.369317,0.19276349
C0O970,虎頭埤,2020-03-05,23.021375,120.347878,0.5554876
C0O980,新市,2020-03-05,23.061614,120.298197,0.5496495
C0O990,媽廟,2020-03-05,22.99175,120.293525,0.61334217
C0R150,三地門,2020-03-05,22.709889,120.639944,0.26477548
C0R160,鹽埔,2020-03-05,22.739558,120.530778,0.23069198
C0R170,屏東,2020-03-05,22.660269,120.494072,0.46854565
C0R190,赤山,2020-03-05,22.592333,120.614306,0.2278025
C0R220,潮州,2020-03-05,22.534361,120.54,0.24680747
C0R240,來義,2020-03-05,22.527306,120.625111,0.49847224
C0R260,春日,2020-03-05,22.370361,120.628306,0.55432224
C0R270,琉球嶼,2020-03-05,22.332244,120.362236,0.5356987
C0R280,檳榔,2020-03-05,22.076078,120.836777,0.28939041
C0R320,車城,2020-03-05,22.0744,120.716247,0.36427355
C0R341,牡丹,2020-03-05,22.130036,120.792639,0.29985023
C0R350,貓鼻頭,2020-03-05,21.921774,120.7358,0.34809858
C0R470,高樹,2020-03-05,22.826389,120.600806,0.25274894
C0R480,長治,2020-03-05,22.693128,120.542622,0.22706856
C0R490,九如,2020-03-05,22.7405,120.490503,0.4680128
C0R520,崁頂,2020-03-05,22.514781,120.506914,0.3883529
C0R540,佳冬,2020-03-05,22.419456,120.552375,0.39571053
C0R550,新埤,2020-03-05,22.467947,120.582894,0.23487392
C0R560,新園,2020-03-05,22.5434,120.461558,0.3883529
C0R570,麟洛,2020-03-05,22.65078,120.52719,0.4680128
C0R580,南州,2020-03-05,22.48591,120.50274,0.39571053
C0R590,里港,2020-03-05,22.77919,120.49459,0.20906489
C0R620,墾雷,2020-03-05,21.900836,120.855269,0.34809858
C0R640,東港,2020-03-05,22.46247,120.44074,0.42490175
C0R650,竹田,2020-03-05,22.58486,120.54344,0.24145702
C0R660,枋寮,2020-03-05,22.367722,120.590647,0.26409224
C0R670,楓港,2020-03-05,22.190131,120.692156,0.48431033
C0R680,佳樂水,2020-03-05,21.993578,120.861633,0.35733223
C0R690,墾丁,2020-03-05,21.966756,120.810269,0.27960506
C0R700,枋山,2020-03-05,22.246844,120.661086,0.48431033
C0R710,龍磐,2020-03-05,21.931672,120.838942,0.31555605
C0R720,旭海,2020-03-05,22.205403,120.887614,0.6296632
C0R730,大坪頂,2020-03-05,22.024633,120.69355,0.32507277
C0R740,獅子,2020-03-05,22.201569,120.70525,0.43208468
C0R760,南仁湖,2020-03-05,22.084681,120.863353,0.14600639
C0R770,保力,2020-03-05,22.071122,120.764111,0.32353386
C0R780,滿州,2020-03-05,22.024403,120.839892,0.3431906
C0R790,九棚,2020-03-05,22.14195,120.889281,0.6995062
C0R800,丹路,2020-03-05,22.204481,120.750989,0.31006616
C0R810,內獅,2020-03-05,22.305064,120.642986,0.63384324
C0R830,高士,2020-03-05,22.121825,120.836781,0.08097907
C0R850,林邊,2020-03-05,22.4634,120.5339,0.3883529
C0R860,鼻頭,2020-03-05,22.1043,120.8979,0.51581484
C0R870,興海,2020-03-05,21.9752,120.8439,0.35733223
C0R880,後壁湖,2020-03-05,21.9457,120.7457,0.36626017
C0R890,山海,2020-03-05,21.9878,120.7091,0.36427355
C0R900,竹坑,2020-03-05,22.1385,120.7022,0.5510245
C0R910,下寮,2020-03-05,22.3929,120.5548,0.39571053
C0R920,塭仔,2020-03-05,22.4169,120.5197,0.4047809
C0R930,萬丹,2020-03-05,22.5885,120.4851,0.24145702
C0R940,加祿堂,2020-03-05,22.3363,120.6217,0.6338433
C0S710,鹿野,2020-03-05,22.917711,121.122994,0.15714079
C0S730,綠島,2020-03-05,22.6672,121.47533,0.9408126
C0S740,池上,2020-03-05,23.119628,121.209469,0.25226274
C0S770,大溪山,2020-03-05,22.478475,120.943325,0.18670219
C0S790,金崙,2020-03-05,22.538122,120.966875,0.45725763
C0S810,東河,2020-03-05,22.972672,121.303986,0.5336311
C0S830,長濱,2020-03-05,23.286817,121.411975,0.21275724
C0S840,南田,2020-03-05,22.279725,120.889208,0.8509041
C0S890,關山,2020-03-05,23.0395,121.175017,0.7861887
C0S900,蘭嶼高中,2020-03-05,22.04909,121.51214,0.59008616
C0S910,蘭嶼燈塔,2020-03-05,22.081197,121.503117,0.5959731
C0S920,金峰嘉蘭,2020-03-05,22.594789,120.960825,0.6428893
C0S930,延平,2020-03-05,22.902581,121.084058,0.48729274
C0S940,石寧山,2020-03-05,23.223772,121.406639,0.39835292
C0S950,七塊厝,2020-03-05,22.954453,121.229922,0.13168576
C0S960,香蘭,2020-03-05,22.587569,120.993375,0.7325873
C0S970,加津林,2020-03-05,22.416211,120.926942,0.8589272
C0S990,山豬窟,2020-03-05,22.318619,120.857372,0.17815934
C0SA00,歷坵,2020-03-05,22.520969,120.89185,0.10767446
C0SA10,檳榔四格山,2020-03-05,22.810031,121.109308,0.086148754
C0SA30,都歷,2020-03-05,23.020333,121.323642,0.9558586
C0SA40,瑞和,2020-03-05,22.974361,121.156697,0.8330672
C0SA60,知本（水試所）,2020-03-05,22.702394,121.082761,0.57448083
C0SA80,土坂,2020-03-05,22.453108,120.887572,0.5800802
C0SA90,達仁林場,2020-03-05,22.264347,120.823972,0.057705145
C0T870,鯉魚潭,2020-03-05,23.935639,121.508944,0.97928464
C0T900,西林,2020-03-05,23.8119,121.441458,0.9760675
C0T960,光復,2020-03-05,23.660694,121.424964,0.9879314
C0T9A0,月眉山,2020-03-05,23.809928,121.539828,0.9464791
C0T9D0,和中,2020-03-05,24.26676,121.74103,0.98393184
C0T9E0,大坑,2020-03-05,23.880628,121.581981,0.95933276
C0T9F0,水璉,2020-03-05,23.797131,121.542514,0.9657086
C0T9I0,豐濱,2020-03-05,23.583897,121.514806,0.99233925
C0T9M0,靜浦,2020-03-05,23.455167,121.495028,0.9954911
C0T9N0,富里,2020-03-05,23.171639,121.249378,0.12224069
C0U600,礁溪,2020-03-05,24.817539,121.765608,0.17745706
C0U650,玉蘭,2020-03-05,24.675286,121.587061,0.33411604
C0U750,龜山島,2020-03-05,24.841667,121.953133,0.032517534
C0U760,東澳,2020-03-05,24.52196,121.83318,0.13145706
C0U770,南澳,2020-03-05,24.44935,121.81022,0.4491738
C0U780,五結,2020-03-05,24.68637,121.79794,0.37973595
C0U860,頭城,2020-03-05,24.85323,121.8308,0.18843123
C0U870,大礁溪,2020-03-05,24.791042,121.675047,0.019084182
C0U880,北關,2020-03-05,24.9072,121.8734,0.061985563
C0U890,三星,2020-03-05,24.66812,121.65302,0.09254132
C0U900,內城,2020-03-05,24.71813,121.68766,0.14810096
C0U910,冬山,2020-03-05,24.63373,121.7937,0.37973595
C0U940,羅東,2020-03-05,24.68184,121.74934,0.37276074
C0U970,大福,2020-03-05,24.80064,121.81389,0.20569332
C0U990,員山,2020-03-05,24.74435,121.72247,0.37276098
C0UA00,土場,2020-03-05,24.576533,121.495333,0.028298816
C0UA80,大溪漁港,2020-03-05,24.941801,121.902955,0.17745706
C0UA90,石城,2020-03-05,24.980444,121.951214,0.3007469
C0UB00,淡江大學蘭陽校園,2020-03-05,24.823239,121.730383,0.013364896
C0UB10,蘇澳,2020-03-05,24.5969,121.8571,0.6279161
C0UB20,壯圍,2020-03-05,24.7359,121.8163,0.38914073
C0V250,甲仙,2020-03-05,23.080106,120.591758,0.060863215
C0V260,月眉,2020-03-05,22.971003,120.539853,0.23103964
C0V310,美濃,2020-03-05,22.898742,120.519153,0.6194564
C0V350,溪埔,2020-03-05,22.738578,120.446797,0.39154792
C0V360,內門,2020-03-05,22.975481,120.466769,0.5069703
C0V370,古亭坑,2020-03-05,22.893178,120.401947,0.56819767
C0V400,阿公店,2020-03-05,22.804194,120.355528,0.43969998
C0V440,鳳山,2020-03-05,22.646653,120.356122,0.40195802
C0V450,鳳森,2020-03-05,22.545064,120.392592,0.21818158
C0V490,新興,2020-03-05,22.627422,120.298803,0.417414
C0V530,阿蓮,2020-03-05,22.883208,120.327508,0.6748295
C0V610,梓官,2020-03-05,22.760558,120.267211,0.4162068
C0V620,永安,2020-03-05,22.82315,120.236856,0.39627707
C0V630,茄萣,2020-03-05,22.906642,120.182608,0.6401893
C0V640,湖內,2020-03-05,22.887139,120.2445,0.6326857
C0V650,彌陀,2020-03-05,22.783806,120.246361,0.39627707
C0V660,岡山,2020-03-05,22.797078,120.294958,0.4162068
C0V680,仁武,2020-03-05,22.701083,120.347722,0.43325573
C0V690,鼓山,2020-03-05,22.623325,120.275575,0.417414
C0V700,三民,2020-03-05,22.645017,120.311233,0.417414
C0V710,苓雅,2020-03-05,22.622742,120.330669,0.417414
C0V720,林園,2020-03-05,22.507747,120.394511,0.417414
C0V730,大寮,2020-03-05,22.605614,120.395717,0.26119462
C0V740,旗山,2020-03-05,22.888614,120.483597,0.6066256
C0V750,路竹,2020-03-05,22.854997,120.259439,0.4401615
C0V760,橋頭,2020-03-05,22.757806,120.30575,0.40934354
C0V770,大社,2020-03-05,22.730306,120.346639,0.43325573
C0V790,萬山,2020-03-05,22.905944,120.688056,0.22480279
C0V800,六龜,2020-03-05,22.997889,120.633583,0.281941
C0V810,左營,2020-03-05,22.67491,120.28491,0.44160992
C0V820,小林,2020-03-05,23.148408,120.63325,0.17878728
C0V840,鳳鼻頭,2020-03-05,22.5083,120.3591,0.42490175
C0V850,蚵仔寮,2020-03-05,22.7256,120.2527,0.45162776
C0V860,南寮,2020-03-05,22.7616,120.2339,0.40458104
C0V870,文安,2020-03-05,22.8025,120.2164,0.40458104
C0V880,興達,2020-03-05,22.8778,120.2127,0.6401893
C0V890,前鎮,2020-03-05,22.5718,120.3117,0.42490175
C0V900,汕尾,2020-03-05,22.4782,120.4151,0.43620992
C0X050,東河,2020-03-05,23.296598,120.385608,0.32851875
C0X060,下營,2020-03-05,23.22695,120.256261,0.45553657
C0X080,佳里,2020-03-05,23.173039,120.145086,0.50709903
C0X100,臺南市北區,2020-03-05,23.010394,120.194228,0.62686706
C0X110,臺南市南區,2020-03-05,22.961189,120.188378,0.6216256
C0X120,麻豆,2020-03-05,23.183289,120.248611,0.4946952
C0X130,官田,2020-03-05,23.193217,120.315422,0.42521706
C0X140,西港,2020-03-05,23.125608,120.203108,0.55735326
C0X150,安定,2020-03-05,23.102614,120.227839,0.54436004
C0X160,仁德,2020-03-05,22.968258,120.257689,0.61939895
C0X170,關廟,2020-03-05,22.963017,120.327797,0.5940771
C0X180,山上,2020-03-05,23.0757,120.363253,0.3310048
C0X190,安平,2020-03-05,22.993161,120.152181,0.62686706
C0X200,左鎮,2020-03-05,23.056758,120.408522,0.35162744
C0X210,白河,2020-03-05,23.347466,120.414427,0.30551615
C0X220,學甲,2020-03-05,23.230367,120.182187,0.4946952
C0X230,鹽水,2020-03-05,23.272621,120.247641,0.45797005
C0X240,關子嶺,2020-03-05,23.331169,120.508025,0.019017031
C0X250,新營,2020-03-05,23.310689,120.316681,0.4128103
C0X260,後壁,2020-03-05,23.366358,120.362326,0.21985485
C0X280,將軍,2020-03-05,23.214999,120.13577,0.50709903
C0X290,北門,2020-03-05,23.267772,120.125481,0.50709903
C0X300,鹿寮,2020-03-05,23.386047,120.477331,0.3430374
C0X310,七股,2020-03-05,23.147289,120.086253,0.64252806
C0X320,柳營,2020-03-05,23.253328,120.375253,0.32851875
C0Z020,明里,2020-03-05,23.208717,121.262342,0.25295702
C0Z061,玉里,2020-03-05,23.3215,121.339656,0.4486816
C0Z070,舞鶴,2020-03-05,23.46811,121.37407,0.99299747
C0Z080,富源,2020-03-05,23.587642,121.378225,0.9920798
C0Z100,東華,2020-03-05,23.89525,121.549833,0.9855316
C0Z150,吉安光華,2020-03-05,23.930925,121.595153,0.9868639
C0Z160,鳳林,2020-03-05,23.746114,121.453411,0.98900497
C0Z170,卓溪,2020-03-05,23.3443,121.3029,0.3883601
C0Z180,新城,2020-03-05,24.03946,121.60454,0.98577964
C0Z190,富世,2020-03-05,24.14743,121.6297,0.86510205
C0Z200,萬榮,2020-03-05,23.709219,121.420106,0.97928464
C0Z210,瑞穗,2020-03-05,23.5239,121.39021,0.99363023
C0Z230,和平,2020-03-05,24.30717,121.77007,0.98393184
C0Z270,蕃薯寮,2020-03-05,23.73835,121.540108,0.9924637
C0Z280,德武,2020-03-05,23.47426,121.41071,0.995276
C0Z300,東里,2020-03-05,23.26853,121.30547,0.41765612
C0Z310,清水斷崖,2020-03-05,24.218294,121.689142,0.9481456
C0Z330,安通山,2020-03-05,23.290728,121.348528,0.13247782
CAG100,王功漁港,2020-03-05,23.96824,120.32586,0.053279083
CAJ050,海口故事園區,2020-03-05,23.57543,120.14121,0.29478094
CAL110,布袋國中,2020-03-05,23.35893,120.18026,0.44601855
CAN130,水試所海水繁養殖中心,2020-03-05,23.120802,120.07968,0.6038203
CAN140,六官養殖協會,2020-03-05,23.22881,120.29962,0.44071054
CAQ030,崎峰國小,2020-03-05,22.42565,120.49521,0.39571053
E2K600,四湖植物園,2020-03-05,23.676986,120.163433,0.13371395
E2P980,林試六龜中心,2020-03-05,22.991703,120.645722,0.27841642
E2S960,林試太麻里2,2020-03-05,22.598014,120.989761,0.73258746
E2S980,林試太麻里1,2020-03-05,22.598922,120.980044,0.6544679
G2F820,農業試驗所,2020-03-05,24.031261,120.688133,0.053313322
G2L020,農試嘉義分所,2020-03-05,23.485028,120.473806,0.27338326
G2M350,農試溪口農場,2020-03-05,23.58565,120.408111,0.17503364
G2P820,農試鳳山分所,2020-03-05,22.646611,120.356083,0.40195802
K2E360,苗栗農改,2020-03-05,24.495722,120.829111,0.10200775
K2E710,苗改生物防治研究中心,2020-03-05,24.422861,120.871833,0.035526868
K2F750,種苗繁殖,2020-03-05,24.225972,120.800917,0.036898796
U2HA50,臺大竹山,2020-03-05,23.756972,120.681556,0.054738328
V2K620,麥寮合作社,2020-03-05,23.753836,120.294783,0.09120993
