站號,站名,日期,lat,lon,BlastGRU-TW
466881,新北,2020-08-08,24.9593,121.52,0.15054117
466900,淡水,2020-08-08,25.164889,121.448906,0.22478521
466920,臺北,2020-08-08,25.037658,121.514853,0.14334668
466940,基隆,2020-08-08,25.133314,121.740475,0.16065966
466990,花蓮,2020-08-08,23.975128,121.613275,0.07227015
467050,新屋,2020-08-08,25.006744,121.047486,0.4040286
467080,宜蘭,2020-08-08,24.763975,121.756528,0.049710013
467270,田中,2020-08-08,23.873803,120.581286,0.24468282
467300,東吉島,2020-08-08,23.25695,119.667467,0.9982599
467350,澎湖,2020-08-08,23.565503,119.563094,0.6849349
467410,臺南,2020-08-08,22.993239,120.204772,0.22769678
467420,永康,2020-08-08,23.038386,120.2367,0.21646883
467441,高雄,2020-08-08,22.7304,120.3125,0.4838656
467480,嘉義,2020-08-08,23.495925,120.432906,0.60584563
467490,臺中,2020-08-08,24.145736,120.684075,0.87724215
467540,大武,2020-08-08,22.355675,120.903789,0.105346836
467571,新竹,2020-08-08,24.827853,121.014219,0.3847196
467590,恆春,2020-08-08,22.003897,120.746339,0.11805335
467610,成功,2020-08-08,23.097486,121.373428,0.20357047
467620,蘭嶼,2020-08-08,22.036969,121.558339,0.92492765
467660,臺東,2020-08-08,22.752211,121.154586,0.114819124
467790,墾丁雷達站,2020-08-08,21.948235,120.808028,0.12559366
C0A520,山佳,2020-08-08,24.974944,121.402008,0.16244398
C0A530,坪林,2020-08-08,24.938183,121.70975,0.05906209
C0A540,四堵,2020-08-08,24.8926,121.745736,0.11046073
C0A550,泰平,2020-08-08,24.971197,121.823711,0.089034505
C0A560,福山,2020-08-08,24.776203,121.502811,0.08213319
C0A570,桶後,2020-08-08,24.848222,121.597992,0.097238995
C0A640,石碇,2020-08-08,24.993969,121.662917,0.06527058
C0A650,火燒寮,2020-08-08,25.002719,121.742892,0.0678564
C0A660,瑞芳,2020-08-08,25.113169,121.801147,0.06434652
C0A770,科教館,2020-08-08,25.096356,121.516507,0.15073669
C0A860,大坪,2020-08-08,25.165914,121.632969,0.20019452
C0A880,福隆,2020-08-08,25.017842,121.942083,0.061241608
C0A890,雙溪,2020-08-08,25.036003,121.864242,0.17947368
C0A920,富貴角,2020-08-08,25.263783,121.565258,0.25863254
C0A931,三和,2020-08-08,25.233153,121.595236,0.08240189
C0A940,金山,2020-08-08,25.223628,121.643967,0.26679575
C0A950,鼻頭角,2020-08-08,25.129036,121.923372,0.060929026
C0A970,三貂角,2020-08-08,25.007606,122.002058,0.06540998
C0A980,社子,2020-08-08,25.109508,121.469681,0.14737828
C0A9C0,天母,2020-08-08,25.117494,121.537169,0.15825649
C0A9F0,內湖,2020-08-08,25.079422,121.57545,0.14334668
C0AC60,三峽,2020-08-08,24.939025,121.369728,0.15410468
C0AC70,信義,2020-08-08,25.037822,121.564597,0.14334668
C0AC80,文山,2020-08-08,25.00235,121.575728,0.16189052
C0ACA0,新莊,2020-08-08,25.051478,121.446756,0.18392816
C0AD00,三芝,2020-08-08,25.258131,121.501917,0.29126227
C0AD10,八里,2020-08-08,25.150211,121.403947,0.22478521
C0AD30,蘆洲,2020-08-08,25.086594,121.472331,0.15073669
C0AD40,土城,2020-08-08,24.973208,121.445169,0.15472053
C0AD50,鶯歌,2020-08-08,24.951533,121.346294,0.24578744
C0AG80,中和,2020-08-08,24.991622,121.491792,0.14334668
C0AH00,汐止,2020-08-08,25.066881,121.658778,0.16409339
C0AH10,永和,2020-08-08,25.01125,121.508111,0.13971199
C0AH40,平等,2020-08-08,25.129142,121.577086,0.11708433
C0AH50,林口,2020-08-08,25.072181,121.38084,0.17230421
C0AH70,松山,2020-08-08,25.04871,121.55042,0.14334668
C0AH80,深坑,2020-08-08,25.002703,121.628328,0.16189048
C0AI00,五股,2020-08-08,25.07445,121.42728,0.3996513
C0AI10,屈尺,2020-08-08,24.92184,121.54475,0.16189052
C0AI20,白沙灣,2020-08-08,25.283128,121.519058,0.25593087
C0AI30,三重,2020-08-08,25.057328,121.500629,0.15073669
C0AI40,石牌,2020-08-08,25.115597,121.513139,0.15472053
C0AJ20,野柳,2020-08-08,25.20703,121.690021,0.16409339
C0AJ30,淡水觀海,2020-08-08,25.184591,121.408616,0.21955177
C0AJ40,石門,2020-08-08,25.273672,121.601198,0.35716006
C0AJ50,水湳洞,2020-08-08,25.123695,121.862238,0.16409339
C0AJ60,六塊厝,2020-08-08,25.24,121.4481,0.21955177
C0AJ70,田寮,2020-08-08,25.2698,121.4886,0.2504748
C0AJ80,板橋,2020-08-08,25.0107,121.4489,0.15472053
C0AJ90,澳底,2020-08-08,25.0552,121.9253,0.061241608
C0B010,七堵,2020-08-08,25.094819,121.71713,0.17162648
C0B020,基隆嶼,2020-08-08,25.19141,121.78391,0.16409339
C0B040,大武崙,2020-08-08,25.166676,121.706993,0.17162648
C0B050,八斗子,2020-08-08,25.144754,121.79167,0.15686676
C0B060,暖暖,2020-08-08,25.0957,121.7403,0.19331917
C0C460,復興,2020-08-08,24.820208,121.352281,0.13336171
C0C480,桃園,2020-08-08,24.992425,121.323172,0.4122457
C0C490,八德,2020-08-08,24.928708,121.283289,0.326514
C0C590,觀音,2020-08-08,25.027072,121.153317,0.27946213
C0C620,蘆竹,2020-08-08,25.084275,121.265767,0.23555937
C0C630,大溪,2020-08-08,24.882853,121.265547,0.3464874
C0C650,平鎮,2020-08-08,24.897503,121.214636,0.44811717
C0C660,楊梅,2020-08-08,24.912375,121.143047,0.49688348
C0C670,龍潭,2020-08-08,24.870056,121.221389,0.48979956
C0C680,龜山,2020-08-08,25.02846,121.38656,0.13881995
C0C700,中壢,2020-08-08,24.977661,121.256375,0.42422885
C0C710,大溪永福,2020-08-08,24.892936,121.324975,0.4558273
C0C720,竹圍,2020-08-08,25.112692,121.239824,0.22478521
C0C730,中大臨海站,2020-08-08,24.966126,121.008581,0.39150164
C0C740,觀音工業區,2020-08-08,25.064764,121.114856,0.45500147
C0C750,新興坑尾,2020-08-08,25.0061,121.0971,0.48815924
C0D430,峨眉,2020-08-08,24.6905,121.017189,0.35165206
C0D480,打鐵坑,2020-08-08,24.849664,121.150789,0.37314776
C0D540,橫山,2020-08-08,24.71116,121.11693,0.41052207
C0D560,竹東,2020-08-08,24.767147,121.057881,0.3965989
C0D580,寶山,2020-08-08,24.735006,121.025192,0.3421184
C0D590,新豐,2020-08-08,24.87068,120.97721,0.4157056
C0D650,湖口,2020-08-08,24.904794,121.043628,0.43985552
C0D660,新竹市東區,2020-08-08,24.798681,120.986942,0.39242342
C0D670,海天一線,2020-08-08,24.831986,120.914438,0.35082808
C0D680,香山濕地,2020-08-08,24.783581,120.914988,0.3551458
C0D690,外湖,2020-08-08,24.917735,120.968711,0.39150155
C0D700,關西,2020-08-08,24.7977,121.1732,0.416264
C0E420,竹南,2020-08-08,24.708978,120.888897,0.36475834
C0E430,南庄,2020-08-08,24.601775,121.000214,0.36662298
C0E520,大湖,2020-08-08,24.41494,120.87087,0.70165217
C0E540,後龍,2020-08-08,24.606489,120.783933,0.7851731
C0E550,明德,2020-08-08,24.583486,120.885411,0.44400576
C0E590,通霄,2020-08-08,24.471892,120.704622,0.7806653
C0E730,頭份,2020-08-08,24.688247,120.912206,0.36475834
C0E740,造橋,2020-08-08,24.637056,120.864778,0.4128823
C0E750,苗栗,2020-08-08,24.564569,120.824575,0.8274278
C0E780,銅鑼,2020-08-08,24.489681,120.790853,0.41635454
C0E791,卓蘭,2020-08-08,24.3126,120.8244,0.8995404
C0E810,西湖,2020-08-08,24.562947,120.7485,0.81117177
C0E820,獅潭,2020-08-08,24.539133,120.920042,0.41149744
C0E830,苑裡,2020-08-08,24.439714,120.653053,0.7074087
C0E850,大河,2020-08-08,24.618069,120.948578,0.451508
C0E870,高鐵苗栗,2020-08-08,24.60725,120.826094,0.79378253
C0E910,海埔,2020-08-08,24.648767,120.772435,0.41004205
C0E920,通霄漁港,2020-08-08,24.498589,120.673876,0.72827965
C0E930,龍鳳,2020-08-08,24.700034,120.859125,0.39931363
C0F0B0,石岡,2020-08-08,24.276061,120.777644,0.99702215
C0F850,東勢,2020-08-08,24.246428,120.833047,0.9652227
C0F930,大甲,2020-08-08,24.347667,120.640403,0.75203323
C0F970,大坑,2020-08-08,24.173142,120.722289,0.8945562
C0F9A0,中竹林,2020-08-08,24.103556,120.751061,0.99075097
C0F9I0,神岡,2020-08-08,24.272481,120.658314,0.45329294
C0F9K0,大安,2020-08-08,24.345061,120.588025,0.6431621
C0F9L0,后里,2020-08-08,24.310436,120.729725,0.50531685
C0F9M0,豐原,2020-08-08,24.254322,120.720692,0.47554815
C0F9N0,大里,2020-08-08,24.092464,120.701378,0.7244499
C0F9O0,潭子,2020-08-08,24.213106,120.703933,0.45958582
C0F9P0,清水,2020-08-08,24.312297,120.562242,0.61717385
C0F9Q0,外埔,2020-08-08,24.347817,120.705686,0.43086395
C0F9R0,龍井,2020-08-08,24.184536,120.528972,0.6338981
C0F9S0,烏日,2020-08-08,24.107058,120.624103,0.91582453
C0F9T0,西屯,2020-08-08,24.179494,120.641275,0.7600444
C0F9U0,南屯,2020-08-08,24.137006,120.637969,0.7244499
C0F9X0,大雅(中科園區),2020-08-08,24.21528,120.62445,0.83353704
C0FA10,松柏,2020-08-08,24.429115,120.617482,0.6736304
C0FA20,溫寮,2020-08-08,24.372177,120.583125,0.6736304
C0FA30,梧棲,2020-08-08,24.256003,120.523381,0.6338981
C0FA40,臺中電廠,2020-08-08,24.2146,120.4907,0.6338981
C0FA50,霧峰,2020-08-08,24.0419,120.6995,0.832192
C0G620,芬園,2020-08-08,24.015678,120.6213,0.98655874
C0G640,鹿港,2020-08-08,24.0753,120.430481,0.9194043
C0G650,員林,2020-08-08,23.946503,120.585597,0.97689545
C0G660,溪湖,2020-08-08,23.94835,120.479122,0.96882516
C0G720,溪州,2020-08-08,23.851589,120.499093,0.28608254
C0G730,二林,2020-08-08,23.903325,120.376081,0.94618624
C0G740,大城,2020-08-08,23.852487,120.320935,0.49231464
C0G770,福興,2020-08-08,24.041289,120.437669,0.9194043
C0G780,秀水,2020-08-08,24.03405,120.503869,0.9191882
C0G800,埔鹽,2020-08-08,24.000394,120.431683,0.9194043
C0G810,埔心,2020-08-08,23.947633,120.525456,0.9718067
C0G820,田尾,2020-08-08,23.901669,120.509389,0.9742451
C0G830,埤頭,2020-08-08,23.866003,120.452806,0.2813313
C0G840,北斗,2020-08-08,23.877586,120.514222,0.9742451
C0G860,社頭,2020-08-08,23.897647,120.5862,0.97884196
C0G870,芳苑,2020-08-08,23.922303,120.320025,0.48332065
C0G880,二水,2020-08-08,23.810742,120.6173,0.24151902
C0G890,伸港,2020-08-08,24.148933,120.484403,0.6394588
C0G900,線西,2020-08-08,24.143358,120.443536,0.70882976
C0G910,花壇,2020-08-08,24.032076,120.549461,0.93424124
C0G920,永靖,2020-08-08,23.924703,120.547533,0.9742451
C0G940,竹塘,2020-08-08,23.848253,120.386764,0.21590367
C0G950,防潮門,2020-08-08,24.1835,120.4871,0.6205827
C0G960,福寶,2020-08-08,24.0443,120.3814,0.91139144
C0G970,三豐,2020-08-08,23.882,120.2895,0.48332065
C0H890,埔里,2020-08-08,23.972169,120.952425,0.9651104
C0H950,中寮,2020-08-08,23.884447,120.766406,0.37190148
C0H960,草屯,2020-08-08,23.973672,120.68085,0.32430384
C0I110,竹山,2020-08-08,23.761225,120.688156,0.32461178
C0I360,水里,2020-08-08,23.812553,120.849792,0.026379092
C0I380,集集,2020-08-08,23.828206,120.801467,0.025369372
C0I410,名間,2020-08-08,23.837053,120.701447,0.2657151
C0I420,國姓,2020-08-08,24.037803,120.855072,0.9964729
C0I460,南投,2020-08-08,23.911469,120.687331,0.29118237
C0K250,崙背,2020-08-08,23.75555,120.318925,0.47077215
C0K280,四湖,2020-08-08,23.630414,120.227125,0.53700674
C0K291,宜梧,2020-08-08,23.536281,120.169329,0.5586985
C0K330,虎尾,2020-08-08,23.719183,120.442036,0.19918565
C0K390,土庫,2020-08-08,23.679029,120.395574,0.19675772
C0K400,斗六,2020-08-08,23.720583,120.541127,0.21787815
C0K410,北港,2020-08-08,23.573957,120.292802,0.4822365
C0K420,西螺,2020-08-08,23.800407,120.467394,0.2476035
C0K430,褒忠,2020-08-08,23.690938,120.303634,0.417812
C0K440,二崙,2020-08-08,23.772797,120.408944,0.21838392
C0K450,大埤,2020-08-08,23.646074,120.431537,0.20052387
C0K460,斗南,2020-08-08,23.678734,120.478359,0.21319565
C0K470,林內,2020-08-08,23.748675,120.609642,0.23924766
C0K480,莿桐,2020-08-08,23.761192,120.502372,0.24961522
C0K500,元長,2020-08-08,23.64981,120.315024,0.460184
C0K510,水林,2020-08-08,23.572924,120.24597,0.5644525
C0K530,臺西,2020-08-08,23.701547,120.197559,0.49185246
C0K550,蔦松,2020-08-08,23.514319,120.229736,0.57102305
C0K560,棋山,2020-08-08,23.68645,120.603417,0.21754171
C0K580,高鐵雲林,2020-08-08,23.737456,120.417944,0.19675772
C0K590,雲林東勢,2020-08-08,23.674192,120.255721,0.417812
C0K600,箔子寮,2020-08-08,23.6197,120.14,0.5514197
C0M410,馬頭山,2020-08-08,23.324361,120.582017,0.029208163
C0M520,東後寮,2020-08-08,23.369908,120.248065,0.599686
C0M640,中埔,2020-08-08,23.42538,120.5229,0.3079759
C0M650,朴子,2020-08-08,23.43463,120.23902,0.5874616
C0M660,溪口,2020-08-08,23.604131,120.403569,0.52056074
C0M670,大林,2020-08-08,23.600616,120.45841,0.61510617
C0M680,太保,2020-08-08,23.455062,120.331455,0.53408825
C0M690,水上,2020-08-08,23.419734,120.388909,0.6736938
C0M700,竹崎,2020-08-08,23.526178,120.555508,0.2987356
C0M710,東石,2020-08-08,23.458927,120.15385,0.57102305
C0M720,番路,2020-08-08,23.464657,120.554156,0.39609528
C0M730,嘉義市東區,2020-08-08,23.457673,120.460531,0.73640126
C0M740,六腳,2020-08-08,23.492871,120.290625,0.5193692
C0M750,布袋,2020-08-08,23.380878,120.167789,0.5874616
C0M760,民雄,2020-08-08,23.551754,120.428457,0.53571373
C0M770,嘉義梅山,2020-08-08,23.585398,120.555587,0.22477998
C0M780,鹿草,2020-08-08,23.41134,120.30835,0.64054984
C0M790,新港,2020-08-08,23.553269,120.345728,0.49537513
C0M800,茶山,2020-08-08,23.299075,120.664767,0.17341761
C0M880,好美里,2020-08-08,23.3364,120.138,0.63460404
C0N010,鯤鯓國小,2020-08-08,23.1879,120.0889,0.6209277
C0N020,城西,2020-08-08,23.0568,120.0956,0.47081882
C0N030,四草,2020-08-08,23.0235,120.1116,0.33651686
C0N040,蘆竹溝,2020-08-08,23.2344,120.0961,0.6209277
C0N050,蚵寮,2020-08-08,23.301,120.1104,0.6209277
C0O810,曾文,2020-08-08,23.219681,120.497328,0.940073
C0O830,北寮,2020-08-08,23.079561,120.495008,0.11288612
C0O840,王爺宮,2020-08-08,23.222064,120.40085,0.940073
C0O860,大內,2020-08-08,23.11885,120.36083,0.8656175
C0O900,善化,2020-08-08,23.112883,120.297219,0.43273365
C0O930,玉井,2020-08-08,23.126042,120.46055,0.87766147
C0O950,安南,2020-08-08,23.076694,120.144861,0.3094234
C0O960,崎頂,2020-08-08,22.959547,120.369317,0.08478045
C0O970,虎頭埤,2020-08-08,23.021375,120.347878,0.59622777
C0O980,新市,2020-08-08,23.061614,120.298197,0.43273365
C0O990,媽廟,2020-08-08,22.99175,120.293525,0.32408252
C0R150,三地門,2020-08-08,22.709889,120.639944,0.095556244
C0R160,鹽埔,2020-08-08,22.739558,120.530778,0.102143444
C0R170,屏東,2020-08-08,22.660269,120.494072,0.57038796
C0R190,赤山,2020-08-08,22.592333,120.614306,0.13076675
C0R220,潮州,2020-08-08,22.534361,120.54,0.16485791
C0R240,來義,2020-08-08,22.527306,120.625111,0.2420196
C0R260,春日,2020-08-08,22.370361,120.628306,0.21182105
C0R270,琉球嶼,2020-08-08,22.332244,120.362236,0.21948044
C0R280,檳榔,2020-08-08,22.076078,120.836777,0.16547923
C0R320,車城,2020-08-08,22.0744,120.716247,0.111193694
C0R341,牡丹,2020-08-08,22.130036,120.792639,0.39867005
C0R350,貓鼻頭,2020-08-08,21.921774,120.7358,0.12051608
C0R470,高樹,2020-08-08,22.826389,120.600806,0.090311736
C0R480,長治,2020-08-08,22.693128,120.542622,0.106295645
C0R490,九如,2020-08-08,22.7405,120.490503,0.599294
C0R520,崁頂,2020-08-08,22.514781,120.506914,0.7190749
C0R540,佳冬,2020-08-08,22.419456,120.552375,0.6993095
C0R550,新埤,2020-08-08,22.467947,120.582894,0.125989
C0R560,新園,2020-08-08,22.5434,120.461558,0.7190749
C0R570,麟洛,2020-08-08,22.65078,120.52719,0.599294
C0R580,南州,2020-08-08,22.48591,120.50274,0.6993095
C0R590,里港,2020-08-08,22.77919,120.49459,0.11679463
C0R620,墾雷,2020-08-08,21.900836,120.855269,0.12051621
C0R640,東港,2020-08-08,22.46247,120.44074,0.6313062
C0R650,竹田,2020-08-08,22.58486,120.54344,0.12148152
C0R660,枋寮,2020-08-08,22.367722,120.590647,0.15336685
C0R670,楓港,2020-08-08,22.190131,120.692156,0.15903628
C0R680,佳樂水,2020-08-08,21.993578,120.861633,0.11572036
C0R690,墾丁,2020-08-08,21.966756,120.810269,0.1729406
C0R700,枋山,2020-08-08,22.246844,120.661086,0.15903628
C0R710,龍磐,2020-08-08,21.931672,120.838942,0.14968838
C0R720,旭海,2020-08-08,22.205403,120.887614,0.23437002
C0R730,大坪頂,2020-08-08,22.024633,120.69355,0.13587864
C0R740,獅子,2020-08-08,22.201569,120.70525,0.1903912
C0R760,南仁湖,2020-08-08,22.084681,120.863353,0.1737323
C0R770,保力,2020-08-08,22.071122,120.764111,0.13372119
C0R780,滿州,2020-08-08,22.024403,120.839892,0.122984886
C0R790,九棚,2020-08-08,22.14195,120.889281,0.22390778
C0R800,丹路,2020-08-08,22.204481,120.750989,0.27342296
C0R810,內獅,2020-08-08,22.305064,120.642986,0.16921376
C0R830,高士,2020-08-08,22.121825,120.836781,0.20203212
C0R850,林邊,2020-08-08,22.4634,120.5339,0.7190749
C0R860,鼻頭,2020-08-08,22.1043,120.8979,0.14085281
C0R870,興海,2020-08-08,21.9752,120.8439,0.11572035
C0R880,後壁湖,2020-08-08,21.9457,120.7457,0.1080893
C0R890,山海,2020-08-08,21.9878,120.7091,0.111193694
C0R900,竹坑,2020-08-08,22.1385,120.7022,0.2155769
C0R910,下寮,2020-08-08,22.3929,120.5548,0.6993095
C0R920,塭仔,2020-08-08,22.4169,120.5197,0.67664933
C0R930,萬丹,2020-08-08,22.5885,120.4851,0.12148152
C0R940,加祿堂,2020-08-08,22.3363,120.6217,0.16921376
C0S710,鹿野,2020-08-08,22.917711,121.122994,0.97968435
C0S730,綠島,2020-08-08,22.6672,121.47533,0.26884732
C0S740,池上,2020-08-08,23.119628,121.209469,0.86391175
C0S770,大溪山,2020-08-08,22.478475,120.943325,0.10383978
C0S790,金崙,2020-08-08,22.538122,120.966875,0.08766275
C0S810,東河,2020-08-08,22.972672,121.303986,0.223095
C0S830,長濱,2020-08-08,23.286817,121.411975,0.96229184
C0S840,南田,2020-08-08,22.279725,120.889208,0.1436791
C0S890,關山,2020-08-08,23.0395,121.175017,0.55225843
C0S900,蘭嶼高中,2020-08-08,22.04909,121.51214,0.36333436
C0S910,蘭嶼燈塔,2020-08-08,22.081197,121.503117,0.58664227
C0S920,金峰嘉蘭,2020-08-08,22.594789,120.960825,0.07875146
C0S930,延平,2020-08-08,22.902581,121.084058,0.51685196
C0S940,石寧山,2020-08-08,23.223772,121.406639,0.5672286
C0S950,七塊厝,2020-08-08,22.954453,121.229922,0.9857281
C0S960,香蘭,2020-08-08,22.587569,120.993375,0.0725316
C0S970,加津林,2020-08-08,22.416211,120.926942,0.10827145
C0S990,山豬窟,2020-08-08,22.318619,120.857372,0.25319678
C0SA00,歷坵,2020-08-08,22.520969,120.89185,0.12342067
C0SA10,檳榔四格山,2020-08-08,22.810031,121.109308,0.20231928
C0SA30,都歷,2020-08-08,23.020333,121.323642,0.23981193
C0SA40,瑞和,2020-08-08,22.974361,121.156697,0.4656205
C0SA60,知本（水試所）,2020-08-08,22.702394,121.082761,0.114168465
C0SA80,土坂,2020-08-08,22.453108,120.887572,0.0819643
C0SA90,達仁林場,2020-08-08,22.264347,120.823972,0.21608706
C0T870,鯉魚潭,2020-08-08,23.935639,121.508944,0.07019631
C0T900,西林,2020-08-08,23.8119,121.441458,0.07343594
C0T960,光復,2020-08-08,23.660694,121.424964,0.093984134
C0T9A0,月眉山,2020-08-08,23.809928,121.539828,0.9710793
C0T9D0,和中,2020-08-08,24.26676,121.74103,0.11884662
C0T9E0,大坑,2020-08-08,23.880628,121.581981,0.6562207
C0T9F0,水璉,2020-08-08,23.797131,121.542514,0.11771932
C0T9I0,豐濱,2020-08-08,23.583897,121.514806,0.1117828
C0T9M0,靜浦,2020-08-08,23.455167,121.495028,0.099500716
C0T9N0,富里,2020-08-08,23.171639,121.249378,0.98973304
C0U600,礁溪,2020-08-08,24.817539,121.765608,0.05000357
C0U650,玉蘭,2020-08-08,24.675286,121.587061,0.36430228
C0U750,龜山島,2020-08-08,24.841667,121.953133,0.13174202
C0U760,東澳,2020-08-08,24.52196,121.83318,0.068243295
C0U770,南澳,2020-08-08,24.44935,121.81022,0.07245446
C0U780,五結,2020-08-08,24.68637,121.79794,0.092951074
C0U860,頭城,2020-08-08,24.85323,121.8308,0.049710013
C0U870,大礁溪,2020-08-08,24.791042,121.675047,0.096277155
C0U880,北關,2020-08-08,24.9072,121.8734,0.14826079
C0U890,三星,2020-08-08,24.66812,121.65302,0.052116785
C0U900,內城,2020-08-08,24.71813,121.68766,0.05062378
C0U910,冬山,2020-08-08,24.63373,121.7937,0.092951074
C0U940,羅東,2020-08-08,24.68184,121.74934,0.09390514
C0U970,大福,2020-08-08,24.80064,121.81389,0.049514543
C0U990,員山,2020-08-08,24.74435,121.72247,0.09390514
C0UA00,土場,2020-08-08,24.576533,121.495333,0.124052405
C0UA80,大溪漁港,2020-08-08,24.941801,121.902955,0.05000357
C0UA90,石城,2020-08-08,24.980444,121.951214,0.06253835
C0UB00,淡江大學蘭陽校園,2020-08-08,24.823239,121.730383,0.11930084
C0UB10,蘇澳,2020-08-08,24.5969,121.8571,0.08478639
C0UB20,壯圍,2020-08-08,24.7359,121.8163,0.09212943
C0V250,甲仙,2020-08-08,23.080106,120.591758,0.15771154
C0V260,月眉,2020-08-08,22.971003,120.539853,0.10216391
C0V310,美濃,2020-08-08,22.898742,120.519153,0.89822143
C0V350,溪埔,2020-08-08,22.738578,120.446797,0.5830873
C0V360,內門,2020-08-08,22.975481,120.466769,0.9420991
C0V370,古亭坑,2020-08-08,22.893178,120.401947,0.81938046
C0V400,阿公店,2020-08-08,22.804194,120.355528,0.48316598
C0V440,鳳山,2020-08-08,22.646653,120.356122,0.6965397
C0V450,鳳森,2020-08-08,22.545064,120.392592,0.16586323
C0V490,新興,2020-08-08,22.627422,120.298803,0.6525703
C0V530,阿蓮,2020-08-08,22.883208,120.327508,0.21032706
C0V610,梓官,2020-08-08,22.760558,120.267211,0.26607415
C0V620,永安,2020-08-08,22.82315,120.236856,0.18878078
C0V630,茄萣,2020-08-08,22.906642,120.182608,0.1982943
C0V640,湖內,2020-08-08,22.887139,120.2445,0.20787644
C0V650,彌陀,2020-08-08,22.783806,120.246361,0.18878078
C0V660,岡山,2020-08-08,22.797078,120.294958,0.26607415
C0V680,仁武,2020-08-08,22.701083,120.347722,0.50618976
C0V690,鼓山,2020-08-08,22.623325,120.275575,0.6525703
C0V700,三民,2020-08-08,22.645017,120.311233,0.6525703
C0V710,苓雅,2020-08-08,22.622742,120.330669,0.6525703
C0V720,林園,2020-08-08,22.507747,120.394511,0.6525703
C0V730,大寮,2020-08-08,22.605614,120.395717,0.1395331
C0V740,旗山,2020-08-08,22.888614,120.483597,0.90449
C0V750,路竹,2020-08-08,22.854997,120.259439,0.18315977
C0V760,橋頭,2020-08-08,22.757806,120.30575,0.2812849
C0V770,大社,2020-08-08,22.730306,120.346639,0.50618976
C0V790,萬山,2020-08-08,22.905944,120.688056,0.16065562
C0V800,六龜,2020-08-08,22.997889,120.633583,0.10973688
C0V810,左營,2020-08-08,22.67491,120.28491,0.48386517
C0V820,小林,2020-08-08,23.148408,120.63325,0.18667126
C0V840,鳳鼻頭,2020-08-08,22.5083,120.3591,0.6313062
C0V850,蚵仔寮,2020-08-08,22.7256,120.2527,0.45819637
C0V860,南寮,2020-08-08,22.7616,120.2339,0.17981134
C0V870,文安,2020-08-08,22.8025,120.2164,0.17981134
C0V880,興達,2020-08-08,22.8778,120.2127,0.1982943
C0V890,前鎮,2020-08-08,22.5718,120.3117,0.6313062
C0V900,汕尾,2020-08-08,22.4782,120.4151,0.61059105
C0X050,東河,2020-08-08,23.296598,120.385608,0.84825295
C0X060,下營,2020-08-08,23.22695,120.256261,0.7072742
C0X080,佳里,2020-08-08,23.173039,120.145086,0.63460404
C0X100,臺南市北區,2020-08-08,23.010394,120.194228,0.20638083
C0X110,臺南市南區,2020-08-08,22.961189,120.188378,0.21646883
C0X120,麻豆,2020-08-08,23.183289,120.248611,0.6502876
C0X130,官田,2020-08-08,23.193217,120.315422,0.73972166
C0X140,西港,2020-08-08,23.125608,120.203108,0.5257841
C0X150,安定,2020-08-08,23.102614,120.227839,0.3579132
C0X160,仁德,2020-08-08,22.968258,120.257689,0.3075419
C0X170,關廟,2020-08-08,22.963017,120.327797,0.37903786
C0X180,山上,2020-08-08,23.0757,120.363253,0.923598
C0X190,安平,2020-08-08,22.993161,120.152181,0.20638083
C0X200,左鎮,2020-08-08,23.056758,120.408522,0.9189621
C0X210,白河,2020-08-08,23.347466,120.414427,0.8557121
C0X220,學甲,2020-08-08,23.230367,120.182187,0.6502876
C0X230,鹽水,2020-08-08,23.272621,120.247641,0.65242857
C0X240,關子嶺,2020-08-08,23.331169,120.508025,0.27574012
C0X250,新營,2020-08-08,23.310689,120.316681,0.68119407
C0X260,後壁,2020-08-08,23.366358,120.362326,0.8644323
C0X280,將軍,2020-08-08,23.214999,120.13577,0.63460404
C0X290,北門,2020-08-08,23.267772,120.125481,0.63460404
C0X300,鹿寮,2020-08-08,23.386047,120.477331,0.2726181
C0X310,七股,2020-08-08,23.147289,120.086253,0.47968206
C0X320,柳營,2020-08-08,23.253328,120.375253,0.84825295
C0Z020,明里,2020-08-08,23.208717,121.262342,0.925557
C0Z061,玉里,2020-08-08,23.3215,121.339656,0.3911161
C0Z070,舞鶴,2020-08-08,23.46811,121.37407,0.20174849
C0Z080,富源,2020-08-08,23.587642,121.378225,0.17430209
C0Z100,東華,2020-08-08,23.89525,121.549833,0.063758865
C0Z150,吉安光華,2020-08-08,23.930925,121.595153,0.0611842
C0Z160,鳳林,2020-08-08,23.746114,121.453411,0.092814796
C0Z170,卓溪,2020-08-08,23.3443,121.3029,0.5192264
C0Z180,新城,2020-08-08,24.03946,121.60454,0.073846094
C0Z190,富世,2020-08-08,24.14743,121.6297,0.1311471
C0Z200,萬榮,2020-08-08,23.709219,121.420106,0.07019631
C0Z210,瑞穗,2020-08-08,23.5239,121.39021,0.10548373
C0Z230,和平,2020-08-08,24.30717,121.77007,0.11884662
C0Z270,蕃薯寮,2020-08-08,23.73835,121.540108,0.092907265
C0Z280,德武,2020-08-08,23.47426,121.41071,0.13280776
C0Z300,東里,2020-08-08,23.26853,121.30547,0.45040235
C0Z310,清水斷崖,2020-08-08,24.218294,121.689142,0.13237296
C0Z330,安通山,2020-08-08,23.290728,121.348528,0.9852724
