站號,站名,日期,lat,lon,BlastGRU-TW
466881,新北,2020-07-07,24.9593,121.52,0.53537375
466900,淡水,2020-07-07,25.164889,121.448906,0.77749485
466920,臺北,2020-07-07,25.037658,121.514853,0.5210254
466940,基隆,2020-07-07,25.133314,121.740475,0.42891186
466990,花蓮,2020-07-07,23.975128,121.613275,0.015499579
467050,新屋,2020-07-07,25.006744,121.047486,0.8471944
467080,宜蘭,2020-07-07,24.763975,121.756528,0.0675338
467270,田中,2020-07-07,23.873803,120.581286,0.263227
467300,東吉島,2020-07-07,23.25695,119.667467,0.47628456
467350,澎湖,2020-07-07,23.565503,119.563094,0.6092647
467410,臺南,2020-07-07,22.993239,120.204772,0.06529336
467420,永康,2020-07-07,23.038386,120.2367,0.06484862
467441,高雄,2020-07-07,22.7304,120.3125,0.05738987
467480,嘉義,2020-07-07,23.495925,120.432906,0.3097161
467490,臺中,2020-07-07,24.145736,120.684075,0.6978038
467540,大武,2020-07-07,22.355675,120.903789,0.3447229
467571,新竹,2020-07-07,24.827853,121.014219,0.9407106
467590,恆春,2020-07-07,22.003897,120.746339,0.74063265
467610,成功,2020-07-07,23.097486,121.373428,0.093312725
467620,蘭嶼,2020-07-07,22.036969,121.558339,0.99559534
467660,臺東,2020-07-07,22.752211,121.154586,0.26626074
467790,墾丁雷達站,2020-07-07,21.948235,120.808028,0.7811861
C0A520,山佳,2020-07-07,24.974944,121.402008,0.63741803
C0A530,坪林,2020-07-07,24.938183,121.70975,0.11261077
C0A540,四堵,2020-07-07,24.8926,121.745736,0.16316009
C0A550,泰平,2020-07-07,24.971197,121.823711,0.09161767
C0A560,福山,2020-07-07,24.776203,121.502811,0.13397095
C0A570,桶後,2020-07-07,24.848222,121.597992,0.1704442
C0A640,石碇,2020-07-07,24.993969,121.662917,0.09382681
C0A650,火燒寮,2020-07-07,25.002719,121.742892,0.101133786
C0A660,瑞芳,2020-07-07,25.113169,121.801147,0.07964977
C0A770,科教館,2020-07-07,25.096356,121.516507,0.61382914
C0A860,大坪,2020-07-07,25.165914,121.632969,0.47245345
C0A880,福隆,2020-07-07,25.017842,121.942083,0.071523614
C0A890,雙溪,2020-07-07,25.036003,121.864242,0.47732562
C0A920,富貴角,2020-07-07,25.263783,121.565258,0.7414145
C0A931,三和,2020-07-07,25.233153,121.595236,0.13896698
C0A940,金山,2020-07-07,25.223628,121.643967,0.79346365
C0A950,鼻頭角,2020-07-07,25.129036,121.923372,0.070861064
C0A970,三貂角,2020-07-07,25.007606,122.002058,0.08704301
C0A980,社子,2020-07-07,25.109508,121.469681,0.6057497
C0A9C0,天母,2020-07-07,25.117494,121.537169,0.6296684
C0A9F0,內湖,2020-07-07,25.079422,121.57545,0.5210254
C0AC60,三峽,2020-07-07,24.939025,121.369728,0.54274887
C0AC70,信義,2020-07-07,25.037822,121.564597,0.5210254
C0AC80,文山,2020-07-07,25.00235,121.575728,0.5580347
C0ACA0,新莊,2020-07-07,25.051478,121.446756,0.6858801
C0AD00,三芝,2020-07-07,25.258131,121.501917,0.82312506
C0AD10,八里,2020-07-07,25.150211,121.403947,0.77749485
C0AD30,蘆洲,2020-07-07,25.086594,121.472331,0.61382914
C0AD40,土城,2020-07-07,24.973208,121.445169,0.62136686
C0AD50,鶯歌,2020-07-07,24.951533,121.346294,0.82769394
C0AG80,中和,2020-07-07,24.991622,121.491792,0.5210254
C0AH00,汐止,2020-07-07,25.066881,121.658778,0.43718237
C0AH10,永和,2020-07-07,25.01125,121.508111,0.51406115
C0AH40,平等,2020-07-07,25.129142,121.577086,0.19144957
C0AH50,林口,2020-07-07,25.072181,121.38084,0.3450168
C0AH70,松山,2020-07-07,25.04871,121.55042,0.5210254
C0AH80,深坑,2020-07-07,25.002703,121.628328,0.5580347
C0AI00,五股,2020-07-07,25.07445,121.42728,0.9236254
C0AI10,屈尺,2020-07-07,24.92184,121.54475,0.5580347
C0AI20,白沙灣,2020-07-07,25.283128,121.519058,0.7780023
C0AI30,三重,2020-07-07,25.057328,121.500629,0.61382914
C0AI40,石牌,2020-07-07,25.115597,121.513139,0.62136686
C0AJ20,野柳,2020-07-07,25.20703,121.690021,0.43718237
C0AJ30,淡水觀海,2020-07-07,25.184591,121.408616,0.7711015
C0AJ40,石門,2020-07-07,25.273672,121.601198,0.887692
C0AJ50,水湳洞,2020-07-07,25.123695,121.862238,0.43718237
C0AJ60,六塊厝,2020-07-07,25.24,121.4481,0.7711015
C0AJ70,田寮,2020-07-07,25.2698,121.4886,0.77135605
C0AJ80,板橋,2020-07-07,25.0107,121.4489,0.6213671
C0AJ90,澳底,2020-07-07,25.0552,121.9253,0.071523614
C0B010,七堵,2020-07-07,25.094819,121.71713,0.4545305
C0B020,基隆嶼,2020-07-07,25.19141,121.78391,0.43718243
C0B040,大武崙,2020-07-07,25.166676,121.706993,0.4545305
C0B050,八斗子,2020-07-07,25.144754,121.79167,0.42102423
C0B060,暖暖,2020-07-07,25.0957,121.7403,0.50781626
C0C460,復興,2020-07-07,24.820208,121.352281,0.26347646
C0C480,桃園,2020-07-07,24.992425,121.323172,0.92807335
C0C490,八德,2020-07-07,24.928708,121.283289,0.8964218
C0C590,觀音,2020-07-07,25.027072,121.153317,0.8718287
C0C620,蘆竹,2020-07-07,25.084275,121.265767,0.790222
C0C630,大溪,2020-07-07,24.882853,121.265547,0.918645
C0C650,平鎮,2020-07-07,24.897503,121.214636,0.9576355
C0C660,楊梅,2020-07-07,24.912375,121.143047,0.95987976
C0C670,龍潭,2020-07-07,24.870056,121.221389,0.95085853
C0C680,龜山,2020-07-07,25.02846,121.38656,0.3582325
C0C700,中壢,2020-07-07,24.977661,121.256375,0.935969
C0C710,大溪永福,2020-07-07,24.892936,121.324975,0.94850856
C0C720,竹圍,2020-07-07,25.112692,121.239824,0.77749485
C0C730,中大臨海站,2020-07-07,24.966126,121.008581,0.83582497
C0C740,觀音工業區,2020-07-07,25.064764,121.114856,0.9440828
C0C750,新興坑尾,2020-07-07,25.0061,121.0971,0.9542259
C0D430,峨眉,2020-07-07,24.6905,121.017189,0.95351785
C0D480,打鐵坑,2020-07-07,24.849664,121.150789,0.9464859
C0D540,橫山,2020-07-07,24.71116,121.11693,0.9645662
C0D560,竹東,2020-07-07,24.767147,121.057881,0.93448216
C0D580,寶山,2020-07-07,24.735006,121.025192,0.95419145
C0D590,新豐,2020-07-07,24.87068,120.97721,0.9194395
C0D650,湖口,2020-07-07,24.904794,121.043628,0.8731657
C0D660,新竹市東區,2020-07-07,24.798681,120.986942,0.94454145
C0D670,海天一線,2020-07-07,24.831986,120.914438,0.9545117
C0D680,香山濕地,2020-07-07,24.783581,120.914988,0.9560953
C0D690,外湖,2020-07-07,24.917735,120.968711,0.83582497
C0D700,關西,2020-07-07,24.7977,121.1732,0.9482179
C0E420,竹南,2020-07-07,24.708978,120.888897,0.96018726
C0E430,南庄,2020-07-07,24.601775,121.000214,0.970655
C0E520,大湖,2020-07-07,24.41494,120.87087,0.9644009
C0E540,後龍,2020-07-07,24.606489,120.783933,0.7770703
C0E550,明德,2020-07-07,24.583486,120.885411,0.90495926
C0E590,通霄,2020-07-07,24.471892,120.704622,0.6272257
C0E730,頭份,2020-07-07,24.688247,120.912206,0.9601873
C0E740,造橋,2020-07-07,24.637056,120.864778,0.866561
C0E750,苗栗,2020-07-07,24.564569,120.824575,0.81863636
C0E780,銅鑼,2020-07-07,24.489681,120.790853,0.8937115
C0E791,卓蘭,2020-07-07,24.3126,120.8244,0.7726266
C0E810,西湖,2020-07-07,24.562947,120.7485,0.8031616
C0E820,獅潭,2020-07-07,24.539133,120.920042,0.92539024
C0E830,苑裡,2020-07-07,24.439714,120.653053,0.4662867
C0E850,大河,2020-07-07,24.618069,120.948578,0.9105164
C0E870,高鐵苗栗,2020-07-07,24.60725,120.826094,0.7873057
C0E910,海埔,2020-07-07,24.648767,120.772435,0.8730237
C0E920,通霄漁港,2020-07-07,24.498589,120.673876,0.5797091
C0E930,龍鳳,2020-07-07,24.700034,120.859125,0.8535252
C0F0B0,石岡,2020-07-07,24.276061,120.777644,0.5798342
C0F850,東勢,2020-07-07,24.246428,120.833047,0.7634765
C0F930,大甲,2020-07-07,24.347667,120.640403,0.5043004
C0F970,大坑,2020-07-07,24.173142,120.722289,0.73325354
C0F9A0,中竹林,2020-07-07,24.103556,120.751061,0.5597273
C0F9I0,神岡,2020-07-07,24.272481,120.658314,0.8857023
C0F9K0,大安,2020-07-07,24.345061,120.588025,0.42976236
C0F9L0,后里,2020-07-07,24.310436,120.729725,0.9005636
C0F9M0,豐原,2020-07-07,24.254322,120.720692,0.8945095
C0F9N0,大里,2020-07-07,24.092464,120.701378,0.5015682
C0F9O0,潭子,2020-07-07,24.213106,120.703933,0.8644684
C0F9P0,清水,2020-07-07,24.312297,120.562242,0.41600758
C0F9Q0,外埔,2020-07-07,24.347817,120.705686,0.87029076
C0F9R0,龍井,2020-07-07,24.184536,120.528972,0.413552
C0F9S0,烏日,2020-07-07,24.107058,120.624103,0.25141433
C0F9T0,西屯,2020-07-07,24.179494,120.641275,0.5443337
C0F9U0,南屯,2020-07-07,24.137006,120.637969,0.5015682
C0F9X0,大雅(中科園區),2020-07-07,24.21528,120.62445,0.64578575
C0FA10,松柏,2020-07-07,24.429115,120.617482,0.4458337
C0FA20,溫寮,2020-07-07,24.372177,120.583125,0.4458337
C0FA30,梧棲,2020-07-07,24.256003,120.523381,0.4135521
C0FA40,臺中電廠,2020-07-07,24.2146,120.4907,0.4135521
C0FA50,霧峰,2020-07-07,24.0419,120.6995,0.6094346
C0G620,芬園,2020-07-07,24.015678,120.6213,0.3547903
C0G640,鹿港,2020-07-07,24.0753,120.430481,0.21594828
C0G650,員林,2020-07-07,23.946503,120.585597,0.30503598
C0G660,溪湖,2020-07-07,23.94835,120.479122,0.2622453
C0G720,溪州,2020-07-07,23.851589,120.499093,0.23828469
C0G730,二林,2020-07-07,23.903325,120.376081,0.18423367
C0G740,大城,2020-07-07,23.852487,120.320935,0.18335623
C0G770,福興,2020-07-07,24.041289,120.437669,0.21594828
C0G780,秀水,2020-07-07,24.03405,120.503869,0.2309818
C0G800,埔鹽,2020-07-07,24.000394,120.431683,0.21594828
C0G810,埔心,2020-07-07,23.947633,120.525456,0.2683408
C0G820,田尾,2020-07-07,23.901669,120.509389,0.2744947
C0G830,埤頭,2020-07-07,23.866003,120.452806,0.2266258
C0G840,北斗,2020-07-07,23.877586,120.514222,0.2744947
C0G860,社頭,2020-07-07,23.897647,120.5862,0.31448233
C0G870,芳苑,2020-07-07,23.922303,120.320025,0.18109784
C0G880,二水,2020-07-07,23.810742,120.6173,0.29888323
C0G890,伸港,2020-07-07,24.148933,120.484403,0.39637443
C0G900,線西,2020-07-07,24.143358,120.443536,0.39194757
C0G910,花壇,2020-07-07,24.032076,120.549461,0.23878653
C0G920,永靖,2020-07-07,23.924703,120.547533,0.2744947
C0G940,竹塘,2020-07-07,23.848253,120.386764,0.13246173
C0G950,防潮門,2020-07-07,24.1835,120.4871,0.40766504
C0G960,福寶,2020-07-07,24.0443,120.3814,0.2127763
C0G970,三豐,2020-07-07,23.882,120.2895,0.18109784
C0H890,埔里,2020-07-07,23.972169,120.952425,0.7137605
C0H950,中寮,2020-07-07,23.884447,120.766406,0.5378924
C0H960,草屯,2020-07-07,23.973672,120.68085,0.36022136
C0I110,竹山,2020-07-07,23.761225,120.688156,0.49402827
C0I360,水里,2020-07-07,23.812553,120.849792,0.44797796
C0I380,集集,2020-07-07,23.828206,120.801467,0.42560968
C0I410,名間,2020-07-07,23.837053,120.701447,0.37654626
C0I420,國姓,2020-07-07,24.037803,120.855072,0.5806451
C0I460,南投,2020-07-07,23.911469,120.687331,0.41630238
C0K250,崙背,2020-07-07,23.75555,120.318925,0.19947526
C0K280,四湖,2020-07-07,23.630414,120.227125,0.22046246
C0K291,宜梧,2020-07-07,23.536281,120.169329,0.13542165
C0K330,虎尾,2020-07-07,23.719183,120.442036,0.12527233
C0K390,土庫,2020-07-07,23.679029,120.395574,0.122989535
C0K400,斗六,2020-07-07,23.720583,120.541127,0.17311741
C0K410,北港,2020-07-07,23.573957,120.292802,0.1201321
C0K420,西螺,2020-07-07,23.800407,120.467394,0.20323294
C0K430,褒忠,2020-07-07,23.690938,120.303634,0.17367445
C0K440,二崙,2020-07-07,23.772797,120.408944,0.13505611
C0K450,大埤,2020-07-07,23.646074,120.431537,0.12220848
C0K460,斗南,2020-07-07,23.678734,120.478359,0.1631216
C0K470,林內,2020-07-07,23.748675,120.609642,0.21119641
C0K480,莿桐,2020-07-07,23.761192,120.502372,0.20926875
C0K500,元長,2020-07-07,23.64981,120.315024,0.18661258
C0K510,水林,2020-07-07,23.572924,120.24597,0.1439245
C0K530,臺西,2020-07-07,23.701547,120.197559,0.20978132
C0K550,蔦松,2020-07-07,23.514319,120.229736,0.13625026
C0K560,棋山,2020-07-07,23.68645,120.603417,0.2489126
C0K580,高鐵雲林,2020-07-07,23.737456,120.417944,0.122989535
C0K590,雲林東勢,2020-07-07,23.674192,120.255721,0.17367433
C0K600,箔子寮,2020-07-07,23.6197,120.14,0.14276
C0M410,馬頭山,2020-07-07,23.324361,120.582017,0.47401184
C0M520,東後寮,2020-07-07,23.369908,120.248065,0.09075809
C0M640,中埔,2020-07-07,23.42538,120.5229,0.39290857
C0M650,朴子,2020-07-07,23.43463,120.23902,0.13646571
C0M660,溪口,2020-07-07,23.604131,120.403569,0.2252995
C0M670,大林,2020-07-07,23.600616,120.45841,0.33077082
C0M680,太保,2020-07-07,23.455062,120.331455,0.11425983
C0M690,水上,2020-07-07,23.419734,120.388909,0.37010428
C0M700,竹崎,2020-07-07,23.526178,120.555508,0.40248245
C0M710,東石,2020-07-07,23.458927,120.15385,0.13625015
C0M720,番路,2020-07-07,23.464657,120.554156,0.48372167
C0M730,嘉義市東區,2020-07-07,23.457673,120.460531,0.5117779
C0M740,六腳,2020-07-07,23.492871,120.290625,0.1133167
C0M750,布袋,2020-07-07,23.380878,120.167789,0.13646571
C0M760,民雄,2020-07-07,23.551754,120.428457,0.23561472
C0M770,嘉義梅山,2020-07-07,23.585398,120.555587,0.29959467
C0M780,鹿草,2020-07-07,23.41134,120.30835,0.12465383
C0M790,新港,2020-07-07,23.553269,120.345728,0.121092625
C0M800,茶山,2020-07-07,23.299075,120.664767,0.5315892
C0M880,好美里,2020-07-07,23.3364,120.138,0.09500327
C0N010,鯤鯓國小,2020-07-07,23.1879,120.0889,0.14192668
C0N020,城西,2020-07-07,23.0568,120.0956,0.10706797
C0N030,四草,2020-07-07,23.0235,120.1116,0.08879718
C0N040,蘆竹溝,2020-07-07,23.2344,120.0961,0.14149757
C0N050,蚵寮,2020-07-07,23.301,120.1104,0.14149757
C0O810,曾文,2020-07-07,23.219681,120.497328,0.44936246
C0O830,北寮,2020-07-07,23.079561,120.495008,0.29005474
C0O840,王爺宮,2020-07-07,23.222064,120.40085,0.44936204
C0O860,大內,2020-07-07,23.11885,120.36083,0.09637543
C0O900,善化,2020-07-07,23.112883,120.297219,0.059982438
C0O930,玉井,2020-07-07,23.126042,120.46055,0.27582216
C0O950,安南,2020-07-07,23.076694,120.144861,0.07587914
C0O960,崎頂,2020-07-07,22.959547,120.369317,0.15964426
C0O970,虎頭埤,2020-07-07,23.021375,120.347878,0.09345662
C0O980,新市,2020-07-07,23.061614,120.298197,0.059982438
C0O990,媽廟,2020-07-07,22.99175,120.293525,0.060183197
C0R150,三地門,2020-07-07,22.709889,120.639944,0.076698065
C0R160,鹽埔,2020-07-07,22.739558,120.530778,0.08390657
C0R170,屏東,2020-07-07,22.660269,120.494072,0.0700489
C0R190,赤山,2020-07-07,22.592333,120.614306,0.07515349
C0R220,潮州,2020-07-07,22.534361,120.54,0.07762714
C0R240,來義,2020-07-07,22.527306,120.625111,0.110942826
C0R260,春日,2020-07-07,22.370361,120.628306,0.10508939
C0R270,琉球嶼,2020-07-07,22.332244,120.362236,0.1064591
C0R280,檳榔,2020-07-07,22.076078,120.836777,0.9402251
C0R320,車城,2020-07-07,22.0744,120.716247,0.6988924
C0R341,牡丹,2020-07-07,22.130036,120.792639,0.17094967
C0R350,貓鼻頭,2020-07-07,21.921774,120.7358,0.7536123
C0R470,高樹,2020-07-07,22.826389,120.600806,0.084983975
C0R480,長治,2020-07-07,22.693128,120.542622,0.086431116
C0R490,九如,2020-07-07,22.7405,120.490503,0.07094941
C0R520,崁頂,2020-07-07,22.514781,120.506914,0.06970231
C0R540,佳冬,2020-07-07,22.419456,120.552375,0.06917583
C0R550,新埤,2020-07-07,22.467947,120.582894,0.07356867
C0R560,新園,2020-07-07,22.5434,120.461558,0.06970231
C0R570,麟洛,2020-07-07,22.65078,120.52719,0.07094941
C0R580,南州,2020-07-07,22.48591,120.50274,0.06917583
C0R590,里港,2020-07-07,22.77919,120.49459,0.08930129
C0R620,墾雷,2020-07-07,21.900836,120.855269,0.7536123
C0R640,東港,2020-07-07,22.46247,120.44074,0.060865857
C0R650,竹田,2020-07-07,22.58486,120.54344,0.07183068
C0R660,枋寮,2020-07-07,22.367722,120.590647,0.07481883
C0R670,楓港,2020-07-07,22.190131,120.692156,0.08980002
C0R680,佳樂水,2020-07-07,21.993578,120.861633,0.72602814
C0R690,墾丁,2020-07-07,21.966756,120.810269,0.9510602
C0R700,枋山,2020-07-07,22.246844,120.661086,0.08979985
C0R710,龍磐,2020-07-07,21.931672,120.838942,0.8704578
C0R720,旭海,2020-07-07,22.205403,120.887614,0.8291666
C0R730,大坪頂,2020-07-07,22.024633,120.69355,0.8570485
C0R740,獅子,2020-07-07,22.201569,120.70525,0.09556923
C0R760,南仁湖,2020-07-07,22.084681,120.863353,0.9674692
C0R770,保力,2020-07-07,22.071122,120.764111,0.822101
C0R780,滿州,2020-07-07,22.024403,120.839892,0.76825345
C0R790,九棚,2020-07-07,22.14195,120.889281,0.7681373
C0R800,丹路,2020-07-07,22.204481,120.750989,0.113297574
C0R810,內獅,2020-07-07,22.305064,120.642986,0.09806366
C0R830,高士,2020-07-07,22.121825,120.836781,0.98034227
C0R850,林邊,2020-07-07,22.4634,120.5339,0.06970231
C0R860,鼻頭,2020-07-07,22.1043,120.8979,0.9537132
C0R870,興海,2020-07-07,21.9752,120.8439,0.72602814
C0R880,後壁湖,2020-07-07,21.9457,120.7457,0.6864558
C0R890,山海,2020-07-07,21.9878,120.7091,0.6988924
C0R900,竹坑,2020-07-07,22.1385,120.7022,0.1227577
C0R910,下寮,2020-07-07,22.3929,120.5548,0.06917583
C0R920,塭仔,2020-07-07,22.4169,120.5197,0.06846808
C0R930,萬丹,2020-07-07,22.5885,120.4851,0.07183068
C0R940,加祿堂,2020-07-07,22.3363,120.6217,0.09806366
C0S710,鹿野,2020-07-07,22.917711,121.122994,0.103976056
C0S730,綠島,2020-07-07,22.6672,121.47533,0.09561701
C0S740,池上,2020-07-07,23.119628,121.209469,0.06989748
C0S770,大溪山,2020-07-07,22.478475,120.943325,0.84652853
C0S790,金崙,2020-07-07,22.538122,120.966875,0.48186994
C0S810,東河,2020-07-07,22.972672,121.303986,0.057972476
C0S830,長濱,2020-07-07,23.286817,121.411975,0.09503563
C0S840,南田,2020-07-07,22.279725,120.889208,0.4768624
C0S890,關山,2020-07-07,23.0395,121.175017,0.10206423
C0S900,蘭嶼高中,2020-07-07,22.04909,121.51214,0.9927769
C0S910,蘭嶼燈塔,2020-07-07,22.081197,121.503117,0.9951676
C0S920,金峰嘉蘭,2020-07-07,22.594789,120.960825,0.34429407
C0S930,延平,2020-07-07,22.902581,121.084058,0.08206016
C0S940,石寧山,2020-07-07,23.223772,121.406639,0.06639392
C0S950,七塊厝,2020-07-07,22.954453,121.229922,0.12930557
C0S960,香蘭,2020-07-07,22.587569,120.993375,0.30411392
C0S970,加津林,2020-07-07,22.416211,120.926942,0.3523283
C0S990,山豬窟,2020-07-07,22.318619,120.857372,0.94052446
C0SA00,歷坵,2020-07-07,22.520969,120.89185,0.91722953
C0SA10,檳榔四格山,2020-07-07,22.810031,121.109308,0.81404823
C0SA30,都歷,2020-07-07,23.020333,121.323642,0.09488304
C0SA40,瑞和,2020-07-07,22.974361,121.156697,0.10066529
C0SA60,知本（水試所）,2020-07-07,22.702394,121.082761,0.32127607
C0SA80,土坂,2020-07-07,22.453108,120.887572,0.37857583
C0SA90,達仁林場,2020-07-07,22.264347,120.823972,0.45268294
C0T870,鯉魚潭,2020-07-07,23.935639,121.508944,0.012559212
C0T900,西林,2020-07-07,23.8119,121.441458,0.012666107
C0T960,光復,2020-07-07,23.660694,121.424964,0.015217028
C0T9A0,月眉山,2020-07-07,23.809928,121.539828,0.017208098
C0T9D0,和中,2020-07-07,24.26676,121.74103,0.03267014
C0T9E0,大坑,2020-07-07,23.880628,121.581981,0.0162795
C0T9F0,水璉,2020-07-07,23.797131,121.542514,0.01304201
C0T9I0,豐濱,2020-07-07,23.583897,121.514806,0.014913361
C0T9M0,靜浦,2020-07-07,23.455167,121.495028,0.014605146
C0T9N0,富里,2020-07-07,23.171639,121.249378,0.2823769
C0U600,礁溪,2020-07-07,24.817539,121.765608,0.068109624
C0U650,玉蘭,2020-07-07,24.675286,121.587061,0.08496405
C0U750,龜山島,2020-07-07,24.841667,121.953133,0.16373114
C0U760,東澳,2020-07-07,24.52196,121.83318,0.039194163
C0U770,南澳,2020-07-07,24.44935,121.81022,0.036975477
C0U780,五結,2020-07-07,24.68637,121.79794,0.1084654
C0U860,頭城,2020-07-07,24.85323,121.8308,0.067533866
C0U870,大礁溪,2020-07-07,24.791042,121.675047,0.12036961
C0U880,北關,2020-07-07,24.9072,121.8734,0.4857829
C0U890,三星,2020-07-07,24.66812,121.65302,0.07823732
C0U900,內城,2020-07-07,24.71813,121.68766,0.071391456
C0U910,冬山,2020-07-07,24.63373,121.7937,0.1084654
C0U940,羅東,2020-07-07,24.68184,121.74934,0.109623104
C0U970,大福,2020-07-07,24.80064,121.81389,0.066944495
C0U990,員山,2020-07-07,24.74435,121.72247,0.109623104
C0UA00,土場,2020-07-07,24.576533,121.495333,0.086121954
C0UA80,大溪漁港,2020-07-07,24.941801,121.902955,0.068109624
C0UA90,石城,2020-07-07,24.980444,121.951214,0.08001504
C0UB00,淡江大學蘭陽校園,2020-07-07,24.823239,121.730383,0.08584887
C0UB10,蘇澳,2020-07-07,24.5969,121.8571,0.06926257
C0UB20,壯圍,2020-07-07,24.7359,121.8163,0.10758483
C0V250,甲仙,2020-07-07,23.080106,120.591758,0.48889852
C0V260,月眉,2020-07-07,22.971003,120.539853,0.2250709
C0V310,美濃,2020-07-07,22.898742,120.519153,0.14019059
C0V350,溪埔,2020-07-07,22.738578,120.446797,0.06159066
C0V360,內門,2020-07-07,22.975481,120.466769,0.20611684
C0V370,古亭坑,2020-07-07,22.893178,120.401947,0.12392417
C0V400,阿公店,2020-07-07,22.804194,120.355528,0.06173354
C0V440,鳳山,2020-07-07,22.646653,120.356122,0.062713
C0V450,鳳森,2020-07-07,22.545064,120.392592,0.07419124
C0V490,新興,2020-07-07,22.627422,120.298803,0.06133561
C0V530,阿蓮,2020-07-07,22.883208,120.327508,0.05711382
C0V610,梓官,2020-07-07,22.760558,120.267211,0.05637193
C0V620,永安,2020-07-07,22.82315,120.236856,0.05876801
C0V630,茄萣,2020-07-07,22.906642,120.182608,0.061885994
C0V640,湖內,2020-07-07,22.887139,120.2445,0.06236094
C0V650,彌陀,2020-07-07,22.783806,120.246361,0.05876801
C0V660,岡山,2020-07-07,22.797078,120.294958,0.05637193
C0V680,仁武,2020-07-07,22.701083,120.347722,0.05786831
C0V690,鼓山,2020-07-07,22.623325,120.275575,0.06133561
C0V700,三民,2020-07-07,22.645017,120.311233,0.06133561
C0V710,苓雅,2020-07-07,22.622742,120.330669,0.06133561
C0V720,林園,2020-07-07,22.507747,120.394511,0.06133561
C0V730,大寮,2020-07-07,22.605614,120.395717,0.067179084
C0V740,旗山,2020-07-07,22.888614,120.483597,0.14402768
C0V750,路竹,2020-07-07,22.854997,120.259439,0.053221837
C0V760,橋頭,2020-07-07,22.757806,120.30575,0.05669425
C0V770,大社,2020-07-07,22.730306,120.346639,0.05786831
C0V790,萬山,2020-07-07,22.905944,120.688056,0.5218618
C0V800,六龜,2020-07-07,22.997889,120.633583,0.22262092
C0V810,左營,2020-07-07,22.67491,120.28491,0.05738987
C0V820,小林,2020-07-07,23.148408,120.63325,0.57422084
C0V840,鳳鼻頭,2020-07-07,22.5083,120.3591,0.060865883
C0V850,蚵仔寮,2020-07-07,22.7256,120.2527,0.057170827
C0V860,南寮,2020-07-07,22.7616,120.2339,0.058355443
C0V870,文安,2020-07-07,22.8025,120.2164,0.058355443
C0V880,興達,2020-07-07,22.8778,120.2127,0.061885994
C0V890,前鎮,2020-07-07,22.5718,120.3117,0.060865883
C0V900,汕尾,2020-07-07,22.4782,120.4151,0.06290811
C0X050,東河,2020-07-07,23.296598,120.385608,0.1966752
C0X060,下營,2020-07-07,23.22695,120.256261,0.08617388
C0X080,佳里,2020-07-07,23.173039,120.145086,0.09500327
C0X100,臺南市北區,2020-07-07,23.010394,120.194228,0.06446862
C0X110,臺南市南區,2020-07-07,22.961189,120.188378,0.06484862
C0X120,麻豆,2020-07-07,23.183289,120.248611,0.096026234
C0X130,官田,2020-07-07,23.193217,120.315422,0.088191174
C0X140,西港,2020-07-07,23.125608,120.203108,0.09510754
C0X150,安定,2020-07-07,23.102614,120.227839,0.066723496
C0X160,仁德,2020-07-07,22.968258,120.257689,0.059627596
C0X170,關廟,2020-07-07,22.963017,120.327797,0.06198584
C0X180,山上,2020-07-07,23.0757,120.363253,0.1685965
C0X190,安平,2020-07-07,22.993161,120.152181,0.06446862
C0X200,左鎮,2020-07-07,23.056758,120.408522,0.16262576
C0X210,白河,2020-07-07,23.347466,120.414427,0.20384687
C0X220,學甲,2020-07-07,23.230367,120.182187,0.096026234
C0X230,鹽水,2020-07-07,23.272621,120.247641,0.08851346
C0X240,關子嶺,2020-07-07,23.331169,120.508025,0.48907062
C0X250,新營,2020-07-07,23.310689,120.316681,0.08163474
C0X260,後壁,2020-07-07,23.366358,120.362326,0.1159736
C0X280,將軍,2020-07-07,23.214999,120.13577,0.095365144
C0X290,北門,2020-07-07,23.267772,120.125481,0.09500327
C0X300,鹿寮,2020-07-07,23.386047,120.477331,0.23092462
C0X310,七股,2020-07-07,23.147289,120.086253,0.15714885
C0X320,柳營,2020-07-07,23.253328,120.375253,0.1966752
C0Z020,明里,2020-07-07,23.208717,121.262342,0.08297345
C0Z061,玉里,2020-07-07,23.3215,121.339656,0.060806714
C0Z070,舞鶴,2020-07-07,23.46811,121.37407,0.01599967
C0Z080,富源,2020-07-07,23.587642,121.378225,0.01585835
C0Z100,東華,2020-07-07,23.89525,121.549833,0.012344882
C0Z150,吉安光華,2020-07-07,23.930925,121.595153,0.012286826
C0Z160,鳳林,2020-07-07,23.746114,121.453411,0.015117738
C0Z170,卓溪,2020-07-07,23.3443,121.3029,0.06261218
C0Z180,新城,2020-07-07,24.03946,121.60454,0.015616628
C0Z190,富世,2020-07-07,24.14743,121.6297,0.054833267
C0Z200,萬榮,2020-07-07,23.709219,121.420106,0.012559212
C0Z210,瑞穗,2020-07-07,23.5239,121.39021,0.014793196
C0Z230,和平,2020-07-07,24.30717,121.77007,0.03267014
C0Z270,蕃薯寮,2020-07-07,23.73835,121.540108,0.0144256875
C0Z280,德武,2020-07-07,23.47426,121.41071,0.015572613
C0Z300,東里,2020-07-07,23.26853,121.30547,0.061616443
C0Z310,清水斷崖,2020-07-07,24.218294,121.689142,0.03714755
C0Z330,安通山,2020-07-07,23.290728,121.348528,0.14914489
