站號,站名,日期,lat,lon,BlastGRU-TW
466881,新北,2020-01-17,24.9593,121.52,0.0029754117
466900,淡水,2020-01-17,25.164889,121.448906,0.0057393
466920,臺北,2020-01-17,25.037658,121.514853,0.0033144448
467350,澎湖,2020-01-17,23.565503,119.563094,0.0014531512
467410,臺南,2020-01-17,22.993239,120.204772,0.24228793
467420,永康,2020-01-17,23.038386,120.2367,0.25679052
467790,墾丁雷達站,2020-01-17,21.948235,120.808028,4.802994e-06
C0A520,山佳,2020-01-17,24.974944,121.402008,0.0028570504
C0A530,坪林,2020-01-17,24.938183,121.70975,0.0028114177
C0A880,福隆,2020-01-17,25.017842,121.942083,0.03363165
C0A890,雙溪,2020-01-17,25.036003,121.864242,0.008941259
C0A920,富貴角,2020-01-17,25.263783,121.565258,0.0038635454
C0AC80,文山,2020-01-17,25.00235,121.575728,0.0025289322
C0ACA0,新莊,2020-01-17,25.051478,121.446756,0.005820393
C0AD00,三芝,2020-01-17,25.258131,121.501917,0.004421144
C0AH70,松山,2020-01-17,25.04871,121.55042,0.0033144448
C0AH80,深坑,2020-01-17,25.002703,121.628328,0.0025289333
C0AI00,五股,2020-01-17,25.07445,121.42728,0.0015767044
C0AJ70,田寮,2020-01-17,25.2698,121.4886,0.0057369093
