站號,站名,日期,lat,lon,BlastGRU-TW
466881,新北,2020-11-19,24.9593,121.52,0.043818578
466900,淡水,2020-11-19,25.1649,121.4489,0.007792299
466920,臺北,2020-11-19,25.0377,121.5149,0.049566727
466940,基隆,2020-11-19,25.1333,121.7405,0.013250369
466990,花蓮,2020-11-19,23.9751,121.6133,0.2940308
467050,新屋,2020-11-19,25.0067,121.0475,0.014390314
467080,宜蘭,2020-11-19,24.764,121.7565,0.35330653
467270,田中,2020-11-19,23.8738,120.5813,0.955321
467300,東吉島,2020-11-19,23.2569,119.6675,0.030782204
467350,澎湖,2020-11-19,23.5655,119.5631,0.00089086185
467410,臺南,2020-11-19,22.9932,120.2048,0.95991474
467420,永康,2020-11-19,23.0384,120.2367,0.95945704
467441,高雄,2020-11-19,22.7304,120.3125,0.96603805
467480,嘉義,2020-11-19,23.4959,120.4329,0.6925093
467490,臺中,2020-11-19,24.1457,120.6841,0.14145043
467540,大武,2020-11-19,22.3557,120.9038,0.49691305
467571,新竹,2020-11-19,24.8279,121.0142,0.0033080175
467590,恆春,2020-11-19,22.0039,120.7463,0.012183943
467610,成功,2020-11-19,23.0975,121.3734,0.8733729
467620,蘭嶼,2020-11-19,22.037,121.5583,0.0019933223
467660,臺東,2020-11-19,22.7522,121.1546,0.9049051
467790,墾丁雷達站,2020-11-19,21.9482,120.808,0.013226325
C0A520,山佳,2020-11-19,24.9749,121.402,0.01748957
C0A530,坪林,2020-11-19,24.9382,121.7097,0.028058907
C0A540,四堵,2020-11-19,24.8926,121.7457,0.013671578
C0A550,泰平,2020-11-19,24.9712,121.8237,0.011779658
C0A560,福山,2020-11-19,24.7762,121.5028,0.039370395
C0A570,桶後,2020-11-19,24.8482,121.598,0.054816205
C0A640,石碇,2020-11-19,24.994,121.6629,0.069129705
C0A650,火燒寮,2020-11-19,25.0027,121.7429,0.029130878
C0A660,瑞芳,2020-11-19,25.1132,121.8011,0.20574644
C0A770,科教館,2020-11-19,25.0964,121.5165,0.020987263
C0A860,大坪,2020-11-19,25.1659,121.633,0.011838158
C0A880,福隆,2020-11-19,25.0178,121.9421,0.6039734
C0A890,雙溪,2020-11-19,25.036,121.8642,0.00967843
C0A920,富貴角,2020-11-19,25.2638,121.5653,0.002259643
C0A931,三和,2020-11-19,25.2332,121.5952,0.040333122
C0A940,金山,2020-11-19,25.2236,121.644,0.002898587
C0A950,鼻頭角,2020-11-19,25.129,121.9234,0.6419469
C0A970,三貂角,2020-11-19,25.0076,122.0021,0.17280646
C0A980,社子,2020-11-19,25.1095,121.4697,0.022309322
C0A9C0,天母,2020-11-19,25.1175,121.5372,0.018581728
C0A9F0,內湖,2020-11-19,25.0794,121.5755,0.04956668
C0AC60,三峽,2020-11-19,24.939,121.3697,0.04137717
C0AC70,信義,2020-11-19,25.0378,121.5646,0.04956668
C0AC80,文山,2020-11-19,25.0023,121.5757,0.03644201
C0ACA0,新莊,2020-11-19,25.0515,121.4468,0.008979063
C0AD00,三芝,2020-11-19,25.2581,121.5019,0.00230621
C0AD10,八里,2020-11-19,25.1502,121.4039,0.007792299
C0AD30,蘆洲,2020-11-19,25.0866,121.4723,0.020987263
C0AD40,土城,2020-11-19,24.9732,121.4452,0.019785127
C0AD50,鶯歌,2020-11-19,24.9515,121.3463,0.008738988
C0AG80,中和,2020-11-19,24.9916,121.4918,0.04956668
C0AH00,汐止,2020-11-19,25.0669,121.6588,0.012425073
C0AH10,永和,2020-11-19,25.0113,121.5081,0.052945286
C0AH40,平等,2020-11-19,25.1291,121.5771,0.007890495
C0AH50,林口,2020-11-19,25.0722,121.3808,0.025945412
C0AH70,松山,2020-11-19,25.0487,121.5504,0.04956668
C0AH80,深坑,2020-11-19,25.0027,121.6283,0.03864749
C0AI00,五股,2020-11-19,25.0744,121.4273,0.0004305179
C0AI10,屈尺,2020-11-19,24.9218,121.5447,0.03644201
C0AI20,白沙灣,2020-11-19,25.2831,121.5191,0.0032848152
C0AI30,三重,2020-11-19,25.0573,121.5006,0.020987263
C0AI40,石牌,2020-11-19,25.1156,121.5131,0.019785127
C0AJ20,野柳,2020-11-19,25.207,121.69,0.012425073
C0AJ30,淡水觀海,2020-11-19,25.1846,121.4086,0.008438467
C0AJ40,石門,2020-11-19,25.2737,121.6012,0.0014042532
C0AJ50,水湳洞,2020-11-19,25.1237,121.8622,0.012258844
C0AJ60,六塊厝,2020-11-19,25.24,121.4481,0.008438467
C0AJ70,田寮,2020-11-19,25.2698,121.4886,0.0034961896
C0AJ80,板橋,2020-11-19,25.0107,121.4489,0.019785127
C0AJ90,澳底,2020-11-19,25.0552,121.9253,0.6039734
C0B010,七堵,2020-11-19,25.0948,121.7171,0.010908242
C0B020,基隆嶼,2020-11-19,25.1914,121.7839,0.012258844
C0B040,大武崙,2020-11-19,25.1667,121.707,0.010908242
C0B050,八斗子,2020-11-19,25.1448,121.7917,0.013952226
C0B060,暖暖,2020-11-19,25.0957,121.7403,0.008075578
C0C460,復興,2020-11-19,24.8202,121.3523,0.03641794
C0C480,桃園,2020-11-19,24.9924,121.3232,0.0011857564
C0C490,八德,2020-11-19,24.9287,121.2833,0.008233197
C0C590,觀音,2020-11-19,25.0271,121.1533,0.006578494
C0C620,蘆竹,2020-11-19,25.0843,121.2658,0.0068990015
C0C630,大溪,2020-11-19,24.8829,121.2655,0.004999912
C0C650,平鎮,2020-11-19,24.8975,121.2146,0.0010968288
C0C660,楊梅,2020-11-19,24.9124,121.143,0.0007979917
C0C670,龍潭,2020-11-19,24.8701,121.2214,0.0033617986
C0C680,龜山,2020-11-19,25.0285,121.3866,0.031702135
C0C700,中壢,2020-11-19,24.9777,121.2564,0.000914876
C0C710,大溪永福,2020-11-19,24.8929,121.325,0.0021494778
C0C720,竹圍,2020-11-19,25.1127,121.2398,0.007792299
C0C730,中大臨海站,2020-11-19,24.9661,121.0086,0.017649531
C0C740,觀音工業區,2020-11-19,25.0648,121.1149,0.0010474435
C0C750,新興坑尾,2020-11-19,25.0061,121.0971,0.00055801886
C0D430,峨眉,2020-11-19,24.6905,121.0172,0.0037931565
C0D480,打鐵坑,2020-11-19,24.8497,121.1508,0.0075464165
C0D540,橫山,2020-11-19,24.7112,121.1169,0.0032545172
C0D560,竹東,2020-11-19,24.7671,121.0579,0.0030642338
C0D580,寶山,2020-11-19,24.735,121.0252,0.008446126
C0D590,新豐,2020-11-19,24.8707,120.9772,0.052718475
C0D650,湖口,2020-11-19,24.9048,121.0436,0.007938246
C0D660,新竹市東區,2020-11-19,24.7987,120.9869,0.0027746656
C0D670,海天一線,2020-11-19,24.832,120.9144,0.0031247374
C0D680,香山濕地,2020-11-19,24.7836,120.915,0.0028862886
C0D690,外湖,2020-11-19,24.9177,120.9687,0.017820591
C0D700,關西,2020-11-19,24.7977,121.1732,0.0019594799
C0E420,竹南,2020-11-19,24.709,120.8889,0.0021982559
C0E430,南庄,2020-11-19,24.6018,121.0002,0.0061213747
C0E520,大湖,2020-11-19,24.4149,120.8709,0.019292621
C0E540,後龍,2020-11-19,24.6065,120.7839,0.0132277245
C0E550,明德,2020-11-19,24.5835,120.8854,0.028656306
C0E590,通霄,2020-11-19,24.4719,120.7046,0.028724195
C0E730,頭份,2020-11-19,24.6882,120.9122,0.0021982559
C0E740,造橋,2020-11-19,24.6371,120.8648,0.03876632
C0E750,苗栗,2020-11-19,24.5646,120.8246,0.008297607
C0E780,銅鑼,2020-11-19,24.4897,120.7909,0.08281436
C0E791,卓蘭,2020-11-19,24.3126,120.8244,0.502866
C0E810,西湖,2020-11-19,24.5629,120.7485,0.009889628
C0E820,獅潭,2020-11-19,24.5391,120.92,0.03634486
C0E830,苑裡,2020-11-19,24.4397,120.6531,0.13796236
C0E850,大河,2020-11-19,24.6181,120.9486,0.022570949
C0E870,高鐵苗栗,2020-11-19,24.6073,120.8261,0.012022085
C0E910,海埔,2020-11-19,24.6488,120.7724,0.08749622
C0E920,通霄漁港,2020-11-19,24.4986,120.6739,0.06636975
C0E930,龍鳳,2020-11-19,24.7,120.8591,0.05610552
C0F000,大肚,2020-11-19,24.153,120.5721,0.42608598
C0F0B0,石岡,2020-11-19,24.2761,120.7776,0.56007063
C0F850,東勢,2020-11-19,24.2464,120.833,0.4365782
C0F930,大甲,2020-11-19,24.3477,120.6404,0.13250886
C0F970,大坑,2020-11-19,24.1731,120.7223,0.068309575
C0F9A0,中竹林,2020-11-19,24.1036,120.7511,0.449483
C0F9I0,神岡,2020-11-19,24.2725,120.6583,0.23884636
C0F9K0,大安,2020-11-19,24.3451,120.588,0.36328745
C0F9L0,后里,2020-11-19,24.3104,120.7297,0.100632906
C0F9M0,豐原,2020-11-19,24.2543,120.7207,0.15977593
C0F9N0,大里,2020-11-19,24.0925,120.7014,0.33818454
C0F9O0,潭子,2020-11-19,24.2131,120.7039,0.20836765
C0F9P0,清水,2020-11-19,24.3123,120.5622,0.4182606
C0F9Q0,外埔,2020-11-19,24.3478,120.7057,0.3333397
C0F9R0,龍井,2020-11-19,24.1845,120.529,0.40179807
C0F9S0,烏日,2020-11-19,24.1071,120.6241,0.8220233
C0F9T0,西屯,2020-11-19,24.1795,120.6413,0.17786294
C0F9U0,南屯,2020-11-19,24.137,120.638,0.33818454
C0F9X0,大雅(中科園區),2020-11-19,24.2153,120.6244,0.053638175
C0FA10,松柏,2020-11-19,24.4291,120.6175,0.2053425
C0FA20,溫寮,2020-11-19,24.3722,120.5831,0.2053425
C0FA30,梧棲,2020-11-19,24.256,120.5234,0.40179807
C0FA40,臺中電廠,2020-11-19,24.2146,120.4907,0.40179807
C0FA50,霧峰,2020-11-19,24.0419,120.6995,0.14598235
C0G620,芬園,2020-11-19,24.0157,120.6213,0.69455415
C0G640,鹿港,2020-11-19,24.0753,120.4305,0.7953326
C0G650,員林,2020-11-19,23.9465,120.5856,0.78735656
C0G660,溪湖,2020-11-19,23.9484,120.4791,0.7969808
C0G720,溪州,2020-11-19,23.8516,120.4991,0.95334035
C0G730,二林,2020-11-19,23.9033,120.3761,0.7790742
C0G740,大城,2020-11-19,23.8525,120.3209,0.79185295
C0G770,福興,2020-11-19,24.0413,120.4377,0.7953326
C0G780,秀水,2020-11-19,24.0341,120.5039,0.80972004
C0G800,埔鹽,2020-11-19,24.0004,120.4317,0.7953326
C0G810,埔心,2020-11-19,23.9476,120.5255,0.793207
C0G820,田尾,2020-11-19,23.9017,120.5094,0.79052407
C0G830,埤頭,2020-11-19,23.866,120.4528,0.95433533
C0G840,北斗,2020-11-19,23.8776,120.5142,0.79052407
C0G860,社頭,2020-11-19,23.8976,120.5862,0.78594494
C0G870,芳苑,2020-11-19,23.9223,120.32,0.79740274
C0G880,二水,2020-11-19,23.8107,120.6173,0.9540128
C0G890,伸港,2020-11-19,24.1489,120.4844,0.49271348
C0G900,線西,2020-11-19,24.1434,120.4435,0.42998096
C0G910,花壇,2020-11-19,24.0321,120.5495,0.800768
C0G920,永靖,2020-11-19,23.9247,120.5475,0.79052407
C0G940,竹塘,2020-11-19,23.8483,120.3868,0.95442045
C0G950,防潮門,2020-11-19,24.1835,120.4871,0.43145996
C0G960,福寶,2020-11-19,24.0443,120.3814,0.79822695
C0G970,三豐,2020-11-19,23.882,120.2895,0.79740274
C0H890,埔里,2020-11-19,23.9722,120.9524,0.73317826
C0H950,中寮,2020-11-19,23.8844,120.7664,0.9171638
C0H960,草屯,2020-11-19,23.9737,120.6809,0.9438012
C0I110,竹山,2020-11-19,23.7612,120.6882,0.9332024
C0I360,水里,2020-11-19,23.8126,120.8498,0.92264396
C0I380,集集,2020-11-19,23.8282,120.8015,0.9281331
C0I410,名間,2020-11-19,23.8371,120.7014,0.9554932
C0I420,國姓,2020-11-19,24.0378,120.8551,0.604193
C0I460,南投,2020-11-19,23.9115,120.6873,0.94795746
C0K250,崙背,2020-11-19,23.7555,120.3189,0.7738308
C0K280,四湖,2020-11-19,23.6304,120.2271,0.77536887
C0K291,宜梧,2020-11-19,23.5363,120.1693,0.84627527
C0K330,虎尾,2020-11-19,23.7192,120.442,0.95642245
C0K390,土庫,2020-11-19,23.679,120.3956,0.95705706
C0K400,斗六,2020-11-19,23.7206,120.5411,0.9613182
C0K410,北港,2020-11-19,23.574,120.2928,0.84758
C0K420,西螺,2020-11-19,23.8004,120.4674,0.95240647
C0K430,褒忠,2020-11-19,23.6909,120.3036,0.7707194
C0K440,二崙,2020-11-19,23.7728,120.4089,0.9538286
C0K450,大埤,2020-11-19,23.6461,120.4315,0.9596277
C0K460,斗南,2020-11-19,23.6787,120.4784,0.9627537
C0K470,林內,2020-11-19,23.7487,120.6096,0.958222
C0K480,莿桐,2020-11-19,23.7612,120.5024,0.95123595
C0K500,元長,2020-11-19,23.6498,120.315,0.7614698
C0K510,水林,2020-11-19,23.5729,120.246,0.8487151
C0K530,臺西,2020-11-19,23.7015,120.1976,0.7829293
C0K550,蔦松,2020-11-19,23.5143,120.2297,0.8456408
C0K560,棋山,2020-11-19,23.6865,120.6034,0.9625068
C0K580,高鐵雲林,2020-11-19,23.7375,120.4179,0.95705706
C0K590,雲林東勢,2020-11-19,23.6742,120.2557,0.7707194
C0K600,箔子寮,2020-11-19,23.6197,120.14,0.8494567
C0M410,馬頭山,2020-11-19,23.3244,120.582,0.89691174
C0M520,東後寮,2020-11-19,23.3699,120.2481,0.8904166
C0M640,中埔,2020-11-19,23.4254,120.5229,0.9371844
C0M650,朴子,2020-11-19,23.4346,120.239,0.8460573
C0M660,溪口,2020-11-19,23.6041,120.4036,0.70930415
C0M670,大林,2020-11-19,23.6006,120.4584,0.6970239
C0M680,太保,2020-11-19,23.4551,120.3315,0.8441331
C0M690,水上,2020-11-19,23.4197,120.3889,0.68151075
C0M700,竹崎,2020-11-19,23.5262,120.5555,0.9370157
C0M710,東石,2020-11-19,23.4589,120.1539,0.8456408
C0M720,番路,2020-11-19,23.4647,120.5542,0.92500114
C0M730,嘉義市東區,2020-11-19,23.4577,120.4605,0.67563546
C0M740,六腳,2020-11-19,23.4929,120.2906,0.84491307
C0M750,布袋,2020-11-19,23.3809,120.1678,0.8460573
C0M760,民雄,2020-11-19,23.5518,120.4285,0.7007722
C0M770,嘉義梅山,2020-11-19,23.5854,120.5556,0.9583626
C0M780,鹿草,2020-11-19,23.4113,120.3084,0.8433753
C0M790,新港,2020-11-19,23.5533,120.3457,0.84721
C0M800,茶山,2020-11-19,23.2991,120.6648,0.7122697
C0M880,好美里,2020-11-19,23.3364,120.138,0.9038329
C0N010,鯤鯓國小,2020-11-19,23.1879,120.0889,0.8600685
C0N020,城西,2020-11-19,23.0568,120.0956,0.90057254
C0N030,四草,2020-11-19,23.0235,120.1116,0.891878
C0N040,蘆竹溝,2020-11-19,23.2344,120.0961,0.8600685
C0N050,蚵寮,2020-11-19,23.301,120.1104,0.8600685
C0O810,曾文,2020-11-19,23.2197,120.4973,0.7701758
C0O830,北寮,2020-11-19,23.0796,120.495,0.9607219
C0O840,王爺宮,2020-11-19,23.2221,120.4009,0.7701757
C0O860,大內,2020-11-19,23.1188,120.3608,0.9662633
C0O900,善化,2020-11-19,23.1129,120.2972,0.9651853
C0O930,玉井,2020-11-19,23.126,120.4605,0.8046594
C0O950,安南,2020-11-19,23.0767,120.1449,0.95115495
C0O960,崎頂,2020-11-19,22.9595,120.3693,0.9619172
C0O970,虎頭埤,2020-11-19,23.0214,120.3479,0.8757482
C0O980,新市,2020-11-19,23.0616,120.2982,0.9651853
C0O990,媽廟,2020-11-19,22.9917,120.2935,0.96804565
C0R150,三地門,2020-11-19,22.7099,120.6399,0.9520924
C0R160,鹽埔,2020-11-19,22.7396,120.5308,0.9494016
C0R170,屏東,2020-11-19,22.6603,120.4941,0.9653206
C0R190,赤山,2020-11-19,22.5923,120.6143,0.9494639
C0R220,潮州,2020-11-19,22.5344,120.54,0.9471827
C0R240,來義,2020-11-19,22.5273,120.6251,0.9606835
C0R260,春日,2020-11-19,22.3704,120.6283,0.9561302
C0R270,琉球嶼,2020-11-19,22.3322,120.3622,0.9572843
C0R280,檳榔,2020-11-19,22.0761,120.8368,0.03181599
C0R320,車城,2020-11-19,22.0744,120.7162,0.012268398
C0R341,牡丹,2020-11-19,22.13,120.7926,0.97266304
C0R350,貓鼻頭,2020-11-19,21.9218,120.7358,0.012390738
C0R470,高樹,2020-11-19,22.8264,120.6008,0.95174253
C0R480,長治,2020-11-19,22.6931,120.5426,0.9492613
C0R490,九如,2020-11-19,22.7405,120.4905,0.96389896
C0R520,崁頂,2020-11-19,22.5148,120.5069,0.96288866
C0R540,佳冬,2020-11-19,22.4195,120.5524,0.9629995
C0R550,新埤,2020-11-19,22.4679,120.5829,0.9494575
C0R560,新園,2020-11-19,22.5434,120.4616,0.96288866
C0R570,麟洛,2020-11-19,22.6508,120.5272,0.96389896
C0R580,南州,2020-11-19,22.4859,120.5027,0.9629995
C0R590,里港,2020-11-19,22.7792,120.4946,0.9474708
C0R620,墾雷,2020-11-19,21.9008,120.8553,0.012390738
C0R640,東港,2020-11-19,22.4625,120.4407,0.9704546
C0R650,竹田,2020-11-19,22.5849,120.5434,0.94915366
C0R660,枋寮,2020-11-19,22.3677,120.5906,0.9459929
C0R670,楓港,2020-11-19,22.1901,120.6922,0.94297075
C0R680,佳樂水,2020-11-19,21.9936,120.8616,0.012079798
C0R690,墾丁,2020-11-19,21.9668,120.8103,0.028876591
C0R700,枋山,2020-11-19,22.2468,120.6611,0.94297075
C0R710,龍磐,2020-11-19,21.9317,120.8389,0.01987614
C0R720,旭海,2020-11-19,22.2054,120.8876,0.72285163
C0R730,大坪頂,2020-11-19,22.0246,120.6936,0.025191082
C0R740,獅子,2020-11-19,22.2016,120.7053,0.953692
C0R760,南仁湖,2020-11-19,22.0847,120.8634,0.026974065
C0R770,保力,2020-11-19,22.0711,120.7641,0.015417682
C0R780,滿州,2020-11-19,22.0244,120.8399,0.012723757
C0R790,九棚,2020-11-19,22.142,120.8893,0.6974559
C0R800,丹路,2020-11-19,22.2045,120.751,0.9667924
C0R810,內獅,2020-11-19,22.3051,120.643,0.9445154
C0R830,高士,2020-11-19,22.1218,120.8368,0.0117323585
C0R850,林邊,2020-11-19,22.4634,120.5339,0.96288866
C0R860,鼻頭,2020-11-19,22.1043,120.8979,0.22221036
C0R870,興海,2020-11-19,21.9752,120.8439,0.012079798
C0R880,後壁湖,2020-11-19,21.9457,120.7457,0.01260888
C0R890,山海,2020-11-19,21.9878,120.7091,0.012268398
C0R900,竹坑,2020-11-19,22.1385,120.7022,0.9584256
C0R910,下寮,2020-11-19,22.3929,120.5548,0.9629995
C0R920,塭仔,2020-11-19,22.4169,120.5197,0.96301305
C0R930,萬丹,2020-11-19,22.5885,120.4851,0.94915366
C0R940,加祿堂,2020-11-19,22.3363,120.6217,0.9445153
C0S710,鹿野,2020-11-19,22.9177,121.123,0.39946103
C0S730,綠島,2020-11-19,22.6672,121.4753,0.8448965
C0S740,池上,2020-11-19,23.1196,121.2095,0.60946053
C0S770,大溪山,2020-11-19,22.4785,120.9433,0.6979987
C0S790,金崙,2020-11-19,22.5381,120.9669,0.894714
C0S810,東河,2020-11-19,22.9727,121.304,0.7509334
C0S830,長濱,2020-11-19,23.2868,121.412,0.35447243
C0S840,南田,2020-11-19,22.2797,120.8892,0.50929415
C0S890,關山,2020-11-19,23.0395,121.175,0.76757497
C0S900,蘭嶼高中,2020-11-19,22.0491,121.5121,0.18883777
C0S910,蘭嶼燈塔,2020-11-19,22.0812,121.5031,0.13114941
C0S920,金峰嘉蘭,2020-11-19,22.5948,120.9608,0.9042154
C0S930,延平,2020-11-19,22.9026,121.0841,0.69900465
C0S940,石寧山,2020-11-19,23.2238,121.4066,0.71324563
C0S950,七塊厝,2020-11-19,22.9545,121.2299,0.31538594
C0S960,香蘭,2020-11-19,22.5876,120.9934,0.8742417
C0S970,加津林,2020-11-19,22.4162,120.9269,0.5048935
C0S990,山豬窟,2020-11-19,22.3186,120.8574,0.5144965
C0SA00,歷坵,2020-11-19,22.521,120.8919,0.49827647
C0SA10,檳榔四格山,2020-11-19,22.81,121.1093,0.4291331
C0SA30,都歷,2020-11-19,23.0203,121.3236,0.8566143
C0SA40,瑞和,2020-11-19,22.9744,121.1567,0.7849051
C0SA60,知本（水試所）,2020-11-19,22.7024,121.0828,0.9261961
C0SA80,土,2020-11-19,22.4531,120.8876,0.907817
C0SA90,達仁林場,2020-11-19,22.2643,120.824,0.89947426
C0T870,鯉魚潭,2020-11-19,23.9356,121.5089,0.3977687
C0T900,西林,2020-11-19,23.8119,121.4415,0.38422504
C0T960,光復,2020-11-19,23.6607,121.425,0.31653345
C0T9A0,月眉山,2020-11-19,23.8099,121.5398,0.1079897
C0T9D0,和中,2020-11-19,24.2668,121.741,0.9681888
C0T9E0,大坑,2020-11-19,23.8806,121.582,0.21513283
C0T9F0,水璉,2020-11-19,23.7971,121.5425,0.3030861
C0T9I0,豐濱,2020-11-19,23.5839,121.5148,0.31443033
C0T9M0,靜浦,2020-11-19,23.4552,121.495,0.38619727
C0T9N0,富里,2020-11-19,23.1716,121.2494,0.16941078
C0U600,礁溪,2020-11-19,24.8175,121.7656,0.33421475
C0U650,玉蘭,2020-11-19,24.6753,121.5871,0.12487266
C0U750,龜山島,2020-11-19,24.8417,121.9531,0.10648996
C0U760,東澳,2020-11-19,24.522,121.8332,0.4225219
C0U770,南澳,2020-11-19,24.4493,121.8102,0.7921559
C0U780,五結,2020-11-19,24.6864,121.7979,0.82229084
C0U860,頭城,2020-11-19,24.8532,121.8308,0.35330653
C0U870,大礁溪,2020-11-19,24.791,121.675,0.0198269
C0U880,北關,2020-11-19,24.9072,121.8734,0.1768487
C0U890,三星,2020-11-19,24.6681,121.653,0.1429239
C0U900,內城,2020-11-19,24.7181,121.6877,0.27296525
C0U910,冬山,2020-11-19,24.6337,121.7937,0.82229084
C0U940,羅東,2020-11-19,24.6818,121.7493,0.8130893
C0U970,大福,2020-11-19,24.8006,121.8139,0.37576973
C0U990,員山,2020-11-19,24.7444,121.7225,0.8130893
C0UA00,土場,2020-11-19,24.5765,121.4953,0.07958568
C0UA80,大溪漁港,2020-11-19,24.9418,121.903,0.33421475
C0UA90,石城,2020-11-19,24.9804,121.9512,0.45322716
C0UB00,淡江大學蘭陽校園,2020-11-19,24.8232,121.7304,0.022276327
C0UB10,蘇澳,2020-11-19,24.5969,121.8571,0.90673023
C0UB20,壯圍,2020-11-19,24.7359,121.8163,0.8296491
C0V250,甲仙,2020-11-19,23.0801,120.5918,0.9285139
C0V260,月眉,2020-11-19,22.971,120.5399,0.9607676
C0V310,美濃,2020-11-19,22.8987,120.5192,0.80778146
C0V350,溪埔,2020-11-19,22.7386,120.4468,0.9708491
C0V360,內門,2020-11-19,22.9755,120.4668,0.79052407
C0V370,古亭坑,2020-11-19,22.8932,120.4019,0.82708836
C0V400,阿公店,2020-11-19,22.8042,120.3555,0.9682326
C0V440,鳳山,2020-11-19,22.6467,120.3561,0.970893
C0V450,鳳森,2020-11-19,22.5451,120.3926,0.9457657
C0V490,新興,2020-11-19,22.6274,120.2988,0.97072184
C0V530,阿蓮,2020-11-19,22.8832,120.3275,0.9683063
C0V610,梓官,2020-11-19,22.7606,120.2672,0.9622678
C0V620,永安,2020-11-19,22.8231,120.2369,0.94787633
C0V630,茄萣,2020-11-19,22.9066,120.1826,0.9595557
C0V640,湖內,2020-11-19,22.8871,120.2445,0.96001226
C0V650,彌陀,2020-11-19,22.7838,120.2464,0.94787633
C0V660,岡山,2020-11-19,22.7971,120.295,0.9622678
C0V680,仁武,2020-11-19,22.7011,120.3477,0.9667807
C0V690,鼓山,2020-11-19,22.6233,120.2756,0.97072184
C0V700,三民,2020-11-19,22.645,120.3112,0.97072184
C0V710,苓雅,2020-11-19,22.6227,120.3307,0.97072184
C0V720,林園,2020-11-19,22.5077,120.3945,0.97072184
C0V730,大寮,2020-11-19,22.6056,120.3957,0.941689
C0V740,旗山,2020-11-19,22.8886,120.4836,0.8036223
C0V750,路竹,2020-11-19,22.855,120.2594,0.9646385
C0V760,橋頭,2020-11-19,22.7578,120.3058,0.9630782
C0V770,大社,2020-11-19,22.7303,120.3466,0.9667807
C0V790,萬山,2020-11-19,22.9059,120.6881,0.7224307
C0V800,六龜,2020-11-19,22.9979,120.6336,0.959951
C0V810,左營,2020-11-19,22.6749,120.2849,0.96603805
C0V820,小林,2020-11-19,23.1484,120.6333,0.7048484
C0V840,鳳鼻頭,2020-11-19,22.5083,120.3591,0.9704546
C0V850,蚵仔寮,2020-11-19,22.7256,120.2527,0.9652993
C0V860,南寮,2020-11-19,22.7616,120.2339,0.9464148
C0V870,文安,2020-11-19,22.8025,120.2164,0.9464148
C0V880,興達,2020-11-19,22.8778,120.2127,0.9595557
C0V890,前鎮,2020-11-19,22.5718,120.3117,0.9704546
C0V900,汕尾,2020-11-19,22.4782,120.4151,0.9697558
C0X050,東河,2020-11-19,23.2966,120.3856,0.8151844
C0X060,下營,2020-11-19,23.2269,120.2563,0.89388067
C0X080,佳里,2020-11-19,23.173,120.1451,0.9038329
C0X100,臺南市北區,2020-11-19,23.0104,120.1942,0.95905244
C0X110,臺南市南區,2020-11-19,22.9612,120.1884,0.959457
C0X120,麻豆,2020-11-19,23.1833,120.2486,0.9030489
C0X130,官田,2020-11-19,23.1932,120.3154,0.8918305
C0X140,西港,2020-11-19,23.1256,120.2031,0.9008559
C0X150,安定,2020-11-19,23.1026,120.2278,0.954264
C0X160,仁德,2020-11-19,22.9683,120.2577,0.96771157
C0X170,關廟,2020-11-19,22.963,120.3278,0.96876824
C0X180,山上,2020-11-19,23.0757,120.3633,0.82348794
C0X190,安平,2020-11-19,22.9932,120.1522,0.95905244
C0X200,左鎮,2020-11-19,23.0568,120.4085,0.82703346
C0X210,白河,2020-11-19,23.3475,120.4144,0.8135309
C0X220,學甲,2020-11-19,23.2304,120.1822,0.9030489
C0X230,鹽水,2020-11-19,23.2726,120.2476,0.9031266
C0X240,關子嶺,2020-11-19,23.3312,120.508,0.7377619
C0X250,新營,2020-11-19,23.3107,120.3167,0.8912575
C0X260,後壁,2020-11-19,23.3664,120.3623,0.824796
C0X280,將軍,2020-11-19,23.215,120.1358,0.9038329
C0X290,北門,2020-11-19,23.2678,120.1255,0.9038329
C0X300,鹿寮,2020-11-19,23.386,120.4773,0.95445126
C0X310,七股,2020-11-19,23.1473,120.0863,0.85290855
C0X320,柳營,2020-11-19,23.2533,120.3753,0.8140395
C0Z020,明里,2020-11-19,23.2087,121.2623,0.463962
C0Z061,玉里,2020-11-19,23.3215,121.3397,0.77214426
C0Z070,舞鶴,2020-11-19,23.4681,121.3741,0.24305393
C0Z080,富源,2020-11-19,23.5876,121.3782,0.20791571
C0Z100,東華,2020-11-19,23.8953,121.5498,0.45751476
C0Z150,吉安光華,2020-11-19,23.9309,121.5952,0.48190033
C0Z160,鳳林,2020-11-19,23.7461,121.4534,0.32723314
C0Z170,卓溪,2020-11-19,23.3443,121.3029,0.73009056
C0Z180,新城,2020-11-19,24.0395,121.6045,0.2813592
C0Z190,富世,2020-11-19,24.1474,121.6297,0.45952773
C0Z200,萬榮,2020-11-19,23.7092,121.4201,0.3977687
C0Z210,瑞穗,2020-11-19,23.5239,121.3902,0.33746108
C0Z230,和平,2020-11-19,24.3072,121.7701,0.9681888
C0Z270,蕃薯寮,2020-11-19,23.7384,121.5401,0.27325484
C0Z280,德武,2020-11-19,23.4743,121.4107,0.28878507
C0Z300,東里,2020-11-19,23.2685,121.3055,0.75338954
C0Z310,清水斷崖,2020-11-19,24.2183,121.6891,0.85985315
C0Z330,安通山,2020-11-19,23.2907,121.3485,0.33908933
