站號,站名,日期,lat,lon,BlastGRU-TW
466881,新北,2020-12-30,24.9593,121.52,0.0038232887
466900,淡水,2020-12-30,25.1649,121.4489,0.0017046251
466920,臺北,2020-12-30,25.0377,121.5149,0.0042659896
466940,基隆,2020-12-30,25.1333,121.7405,0.003800304
466990,花蓮,2020-12-30,23.9751,121.6133,0.5345008
467050,新屋,2020-12-30,25.0067,121.0475,0.0051880395
467080,宜蘭,2020-12-30,24.764,121.7565,0.13750212
467270,田中,2020-12-30,23.8738,120.5813,0.23298624
467300,東吉島,2020-12-30,23.2569,119.6675,0.0005959791
467350,澎湖,2020-12-30,23.5655,119.5631,0.0004908057
467410,臺南,2020-12-30,22.9932,120.2048,0.7287619
467420,永康,2020-12-30,23.0384,120.2367,0.74184036
467441,高雄,2020-12-30,22.7304,120.3125,0.7976499
467480,嘉義,2020-12-30,23.4959,120.4329,0.010775776
467490,臺中,2020-12-30,24.1457,120.6841,0.0019752479
467540,大武,2020-12-30,22.3557,120.9038,0.6826785
467571,新竹,2020-12-30,24.8279,121.0142,0.0012763895
467590,恆春,2020-12-30,22.0039,120.7463,0.021037979
467610,成功,2020-12-30,23.0975,121.3734,0.69614595
467620,蘭嶼,2020-12-30,22.037,121.5583,0.00078303163
467660,臺東,2020-12-30,22.7522,121.1546,0.28012696
467790,墾丁雷達站,2020-12-30,21.9482,120.808,0.01476516
C0A520,山佳,2020-12-30,24.9749,121.402,0.0026934836
C0A530,坪林,2020-12-30,24.9382,121.7097,0.017371196
C0A540,四堵,2020-12-30,24.8926,121.7457,0.00434369
C0A550,泰平,2020-12-30,24.9712,121.8237,0.007624255
C0A560,福山,2020-12-30,24.7762,121.5028,0.021732198
C0A570,桶後,2020-12-30,24.8482,121.598,0.006804151
C0A640,石碇,2020-12-30,24.994,121.6629,0.010965362
C0A650,火燒寮,2020-12-30,25.0027,121.7429,0.0077523123
C0A660,瑞芳,2020-12-30,25.1132,121.8011,0.019272765
C0A770,科教館,2020-12-30,25.0964,121.5165,0.003072861
C0A860,大坪,2020-12-30,25.1659,121.633,0.0013748654
C0A880,福隆,2020-12-30,25.0178,121.9421,0.04745792
C0A890,雙溪,2020-12-30,25.036,121.8642,0.0029136962
C0A920,富貴角,2020-12-30,25.2638,121.5653,0.0012535469
C0A931,三和,2020-12-30,25.2332,121.5952,0.0049395273
C0A940,金山,2020-12-30,25.2236,121.644,0.0012642557
C0A950,鼻頭角,2020-12-30,25.129,121.9234,0.052267645
C0A970,三貂角,2020-12-30,25.0076,122.0021,0.0260288
C0A980,社子,2020-12-30,25.1095,121.4697,0.003242949
C0A9C0,天母,2020-12-30,25.1175,121.5372,0.002801365
C0A9F0,內湖,2020-12-30,25.0794,121.5755,0.0042659934
C0AC60,三峽,2020-12-30,24.939,121.3697,0.0036240795
C0AC70,信義,2020-12-30,25.0378,121.5646,0.0042659934
C0AC80,文山,2020-12-30,25.0023,121.5757,0.0032809335
C0ACA0,新莊,2020-12-30,25.0515,121.4468,0.0021631813
C0AD00,三芝,2020-12-30,25.2581,121.5019,0.0011822337
C0AD10,八里,2020-12-30,25.1502,121.4039,0.0017046251
C0AD30,蘆洲,2020-12-30,25.0866,121.4723,0.003072861
C0AD40,土城,2020-12-30,24.9732,121.4452,0.0029460883
C0AD50,鶯歌,2020-12-30,24.9515,121.3463,0.0016218325
C0AG80,中和,2020-12-30,24.9916,121.4918,0.0042659934
C0AH00,汐止,2020-12-30,25.0669,121.6588,0.0035844436
C0AH10,永和,2020-12-30,25.0113,121.5081,0.0045111864
C0AH40,平等,2020-12-30,25.1291,121.5771,0.0027056192
C0AH50,林口,2020-12-30,25.0722,121.3808,0.0018425199
C0AH70,松山,2020-12-30,25.0487,121.5504,0.0042659934
C0AH80,深坑,2020-12-30,25.0027,121.6283,0.0034497182
C0AI00,五股,2020-12-30,25.0744,121.4273,0.0009967164
C0AI10,屈尺,2020-12-30,24.9218,121.5447,0.0032809335
C0AI20,白沙灣,2020-12-30,25.2831,121.5191,0.0013128171
C0AI30,三重,2020-12-30,25.0573,121.5006,0.003072861
C0AI40,石牌,2020-12-30,25.1156,121.5131,0.002946087
C0AJ10,澳底,2020-12-30,25.0571,121.9273,0.057303853
C0AJ20,野柳,2020-12-30,25.207,121.69,0.0035844436
C0AJ30,淡水觀海,2020-12-30,25.1846,121.4086,0.0017499186
C0AJ40,石門,2020-12-30,25.2737,121.6012,0.0010366673
C0AJ50,水湳洞,2020-12-30,25.1237,121.8622,0.0035844436
C0AJ60,六塊厝,2020-12-30,25.24,121.4481,0.0017499186
C0AJ70,田寮,2020-12-30,25.2698,121.4886,0.001332591
C0AJ80,板橋,2020-12-30,25.0107,121.4489,0.0029460883
C0B010,七堵,2020-12-30,25.0948,121.7171,0.0032191745
C0B020,基隆嶼,2020-12-30,25.1914,121.7839,0.0035844436
C0B040,大武崙,2020-12-30,25.1667,121.707,0.0032191745
C0B050,八斗子,2020-12-30,25.1448,121.7917,0.0040246225
C0B060,暖暖,2020-12-30,25.0957,121.7403,0.0025465074
C0C460,復興,2020-12-30,24.8202,121.3523,0.004512033
C0C480,桃園,2020-12-30,24.9924,121.3232,0.0011213901
C0C490,八德,2020-12-30,24.9287,121.2833,0.002159621
C0C590,觀音,2020-12-30,25.0271,121.1533,0.0013417565
C0C620,蘆竹,2020-12-30,25.0843,121.2658,0.0016078104
C0C630,大溪,2020-12-30,24.8829,121.2655,0.0017315617
C0C650,平鎮,2020-12-30,24.8975,121.2146,0.0010253693
C0C660,楊梅,2020-12-30,24.9124,121.143,0.0008972962
C0C670,龍潭,2020-12-30,24.8701,121.2214,0.001053765
C0C680,龜山,2020-12-30,25.0285,121.3866,0.004231692
C0C700,中壢,2020-12-30,24.9777,121.2564,0.001054005
C0C710,大溪永福,2020-12-30,24.8929,121.325,0.0012139503
C0C720,竹圍,2020-12-30,25.1127,121.2398,0.0017046251
C0C730,中大臨海站,2020-12-30,24.9661,121.0086,0.008363538
C0C740,觀音工業區,2020-12-30,25.0648,121.1149,0.0009809292
C0C750,新興坑尾,2020-12-30,25.0061,121.0971,0.00085873733
C0D430,峨眉,2020-12-30,24.6905,121.0172,0.0012846922
C0D480,打鐵坑,2020-12-30,24.8497,121.1508,0.001353483
C0D540,橫山,2020-12-30,24.7112,121.1169,0.0011132504
C0D560,竹東,2020-12-30,24.7671,121.0579,0.0012214809
C0D580,寶山,2020-12-30,24.735,121.0252,0.0013265478
C0D590,新豐,2020-12-30,24.8707,120.9772,0.0026493727
C0D650,湖口,2020-12-30,24.9048,121.0436,0.0024587698
C0D660,新竹市東區,2020-12-30,24.7987,120.9869,0.0011809996
C0D670,海天一線,2020-12-30,24.832,120.9144,0.0013615367
C0D680,香山濕地,2020-12-30,24.7836,120.915,0.0012843191
C0D690,外湖,2020-12-30,24.9177,120.9687,0.008363538
C0D700,關西,2020-12-30,24.7977,121.1732,0.0011820687
C0E420,竹南,2020-12-30,24.709,120.8889,0.0011019796
C0E430,南庄,2020-12-30,24.6018,121.0002,0.0013902931
C0E520,大湖,2020-12-30,24.4149,120.8709,0.0014713213
C0E540,後龍,2020-12-30,24.6065,120.7839,0.0015952057
C0E550,明德,2020-12-30,24.5835,120.8854,0.0023879216
C0E590,通霄,2020-12-30,24.4719,120.7046,0.001657302
C0E730,頭份,2020-12-30,24.6882,120.9122,0.0011019796
C0E740,造橋,2020-12-30,24.6371,120.8648,0.0023073372
C0E750,苗栗,2020-12-30,24.5646,120.8246,0.0015368324
C0E780,銅鑼,2020-12-30,24.4897,120.7909,0.002751737
C0E791,卓蘭,2020-12-30,24.3126,120.8244,0.012865601
C0E810,西湖,2020-12-30,24.5629,120.7485,0.001557557
C0E820,獅潭,2020-12-30,24.5391,120.92,0.0023743345
C0E830,苑裡,2020-12-30,24.4397,120.6531,0.0017715219
C0E850,大河,2020-12-30,24.6181,120.9486,0.00231639
C0E870,高鐵苗栗,2020-12-30,24.6073,120.8261,0.001583158
C0E910,海埔,2020-12-30,24.6488,120.7724,0.0027791893
C0E920,通霄漁港,2020-12-30,24.4986,120.6739,0.0017382236
C0E930,龍鳳,2020-12-30,24.7,120.8591,0.002413089
C0F000,大肚,2020-12-30,24.153,120.5721,0.024939867
C0F0B0,石岡,2020-12-30,24.2761,120.7776,0.056988377
C0F850,東勢,2020-12-30,24.2464,120.833,0.012109321
C0F930,大甲,2020-12-30,24.3477,120.6404,0.0016886347
C0F970,大坑,2020-12-30,24.1731,120.7223,0.0016835139
C0F9A0,中竹林,2020-12-30,24.1036,120.7511,0.033065047
C0F9I0,神岡,2020-12-30,24.2725,120.6583,0.0026091945
C0F9K0,大安,2020-12-30,24.3451,120.588,0.0019061636
C0F9L0,后里,2020-12-30,24.3104,120.7297,0.0022257715
C0F9M0,豐原,2020-12-30,24.2543,120.7207,0.0023860047
C0F9N0,大里,2020-12-30,24.0925,120.7014,0.0020698654
C0F9O0,潭子,2020-12-30,24.2131,120.7039,0.0028438075
C0F9P0,清水,2020-12-30,24.3123,120.5622,0.0019692613
C0F9Q0,外埔,2020-12-30,24.3478,120.7057,0.0029578719
C0F9R0,龍井,2020-12-30,24.1845,120.529,0.0019792987
C0F9S0,烏日,2020-12-30,24.1071,120.6241,0.011809642
C0F9T0,西屯,2020-12-30,24.1795,120.6413,0.0018042078
C0F9U0,南屯,2020-12-30,24.137,120.638,0.0020698654
C0F9X0,大雅(中科園區),2020-12-30,24.2153,120.6244,0.0016475776
C0FA10,松柏,2020-12-30,24.4291,120.6175,0.001838921
C0FA20,溫寮,2020-12-30,24.3722,120.5831,0.001838921
C0FA30,梧棲,2020-12-30,24.256,120.5234,0.0019792987
C0FA40,臺中電廠,2020-12-30,24.2146,120.4907,0.0019792987
C0FA50,霧峰,2020-12-30,24.0419,120.6995,0.0020844871
C0G620,芬園,2020-12-30,24.0157,120.6213,0.0080002695
C0G640,鹿港,2020-12-30,24.0753,120.4305,0.012138952
C0G650,員林,2020-12-30,23.9465,120.5856,0.0132438
C0G660,溪湖,2020-12-30,23.9484,120.4791,0.013917626
C0G720,溪州,2020-12-30,23.8516,120.4991,0.22374919
C0G730,二林,2020-12-30,23.9033,120.3761,0.012643079
C0G740,大城,2020-12-30,23.8525,120.3209,0.0062408303
C0G770,福興,2020-12-30,24.0413,120.4377,0.012138952
C0G780,秀水,2020-12-30,24.0341,120.5039,0.014451337
C0G800,埔鹽,2020-12-30,24.0004,120.4317,0.012138952
C0G810,埔心,2020-12-30,23.9476,120.5255,0.012919848
C0G820,田尾,2020-12-30,23.9017,120.5094,0.012034086
C0G830,埤頭,2020-12-30,23.866,120.4528,0.25670594
C0G840,北斗,2020-12-30,23.8776,120.5142,0.012034091
C0G860,社頭,2020-12-30,23.8976,120.5862,0.011770863
C0G870,芳苑,2020-12-30,23.9223,120.32,0.0065301764
C0G880,二水,2020-12-30,23.8107,120.6173,0.2702589
C0G890,伸港,2020-12-30,24.1489,120.4844,0.0021964565
C0G900,線西,2020-12-30,24.1434,120.4435,0.0022172483
C0G910,花壇,2020-12-30,24.0321,120.5495,0.012584374
C0G920,永靖,2020-12-30,23.9247,120.5475,0.012034091
C0G940,竹塘,2020-12-30,23.8483,120.3868,0.39679864
C0G950,防潮門,2020-12-30,24.1835,120.4871,0.0020082775
C0G960,福寶,2020-12-30,24.0443,120.3814,0.012975033
C0G970,三豐,2020-12-30,23.882,120.2895,0.0065301764
C0H890,埔里,2020-12-30,23.9722,120.9524,0.13422579
C0H950,中寮,2020-12-30,23.8844,120.7664,0.1124627
C0H960,草屯,2020-12-30,23.9737,120.6809,0.16073504
C0I110,竹山,2020-12-30,23.7612,120.6882,0.17531513
C0I360,水里,2020-12-30,23.8126,120.8498,0.20529304
C0I380,集集,2020-12-30,23.8282,120.8015,0.23767783
C0I410,名間,2020-12-30,23.8371,120.7014,0.49369612
C0I420,國姓,2020-12-30,24.0378,120.8551,0.1068383
C0I460,南投,2020-12-30,23.9115,120.6873,0.30477357
C0K250,崙背,2020-12-30,23.7555,120.3189,0.0068125436
C0K280,四湖,2020-12-30,23.6304,120.2271,0.009745611
C0K291,宜梧,2020-12-30,23.5363,120.1693,0.20098451
C0K330,虎尾,2020-12-30,23.7192,120.442,0.53929734
C0K390,土庫,2020-12-30,23.679,120.3956,0.5624474
C0K400,斗六,2020-12-30,23.7206,120.5411,0.4402289
C0K410,北港,2020-12-30,23.574,120.2928,0.17528449
C0K420,西螺,2020-12-30,23.8004,120.4674,0.31545323
C0K430,褒忠,2020-12-30,23.6909,120.3036,0.010194999
C0K440,二崙,2020-12-30,23.7728,120.4089,0.37299386
C0K450,大埤,2020-12-30,23.6461,120.4315,0.5023646
C0K460,斗南,2020-12-30,23.6787,120.4784,0.4869704
C0K470,林內,2020-12-30,23.7487,120.6096,0.49071255
C0K480,莿桐,2020-12-30,23.7612,120.5024,0.29499325
C0K500,元長,2020-12-30,23.6498,120.315,0.012677333
C0K510,水林,2020-12-30,23.5729,120.246,0.1200421
C0K530,臺西,2020-12-30,23.7015,120.1976,0.008115872
C0K550,蔦松,2020-12-30,23.5143,120.2297,0.18239199
C0K560,棋山,2020-12-30,23.6865,120.6034,0.6583801
C0K580,高鐵雲林,2020-12-30,23.7375,120.4179,0.5624474
C0K590,雲林東勢,2020-12-30,23.6742,120.2557,0.010194999
C0K600,箔子寮,2020-12-30,23.6197,120.14,0.1325725
C0M410,馬頭山,2020-12-30,23.3244,120.582,0.4559298
C0M520,東後寮,2020-12-30,23.3699,120.2481,0.32903713
C0M640,中埔,2020-12-30,23.4254,120.5229,0.60731417
C0M650,朴子,2020-12-30,23.4346,120.239,0.26716572
C0M660,溪口,2020-12-30,23.6041,120.4036,0.011761471
C0M670,大林,2020-12-30,23.6006,120.4584,0.01739775
C0M680,太保,2020-12-30,23.4551,120.3315,0.23938653
C0M690,水上,2020-12-30,23.4197,120.3889,0.01451792
C0M700,竹崎,2020-12-30,23.5262,120.5555,0.37918714
C0M710,東石,2020-12-30,23.4589,120.1539,0.18239199
C0M720,番路,2020-12-30,23.4647,120.5542,0.3599793
C0M730,嘉義市東區,2020-12-30,23.4577,120.4605,0.019713037
C0M740,六腳,2020-12-30,23.4929,120.2906,0.26309946
C0M750,布袋,2020-12-30,23.3809,120.1678,0.26716572
C0M760,民雄,2020-12-30,23.5518,120.4285,0.010283331
C0M770,嘉義梅山,2020-12-30,23.5854,120.5556,0.5637399
C0M780,鹿草,2020-12-30,23.4113,120.3084,0.23699595
C0M790,新港,2020-12-30,23.5533,120.3457,0.1583859
C0M800,茶山,2020-12-30,23.2991,120.6648,0.63376117
C0M880,好美里,2020-12-30,23.3364,120.138,0.49325088
C0N010,鯤鯓國小,2020-12-30,23.1879,120.0889,0.42531064
C0N020,城西,2020-12-30,23.0568,120.0956,0.64621645
C0N030,四草,2020-12-30,23.0235,120.1116,0.77100515
C0N040,蘆竹溝,2020-12-30,23.2344,120.0961,0.42531064
C0N050,蚵寮,2020-12-30,23.301,120.1104,0.42531064
C0O810,曾文,2020-12-30,23.2197,120.4973,0.0785124
C0O830,北寮,2020-12-30,23.0796,120.495,0.77211034
C0O840,王爺宮,2020-12-30,23.2221,120.4009,0.0785124
C0O860,大內,2020-12-30,23.1188,120.3608,0.47073007
C0O900,善化,2020-12-30,23.1129,120.2972,0.5941781
C0O930,玉井,2020-12-30,23.126,120.4605,0.246792
C0O950,安南,2020-12-30,23.0767,120.1449,0.68706983
C0O960,崎頂,2020-12-30,22.9595,120.3693,0.57336324
C0O970,虎頭埤,2020-12-30,23.0214,120.3479,0.5181166
C0O980,新市,2020-12-30,23.0616,120.2982,0.5941781
C0O990,媽廟,2020-12-30,22.9917,120.2935,0.666672
C0R150,三地門,2020-12-30,22.7099,120.6399,0.8863289
C0R160,鹽埔,2020-12-30,22.7396,120.5308,0.84855443
C0R170,屏東,2020-12-30,22.6603,120.4941,0.7469818
C0R190,赤山,2020-12-30,22.5923,120.6143,0.8405291
C0R220,潮州,2020-12-30,22.5344,120.54,0.6637943
C0R240,來義,2020-12-30,22.5273,120.6251,0.1983056
C0R260,春日,2020-12-30,22.3704,120.6283,0.13862032
C0R270,琉球嶼,2020-12-30,22.3322,120.3622,0.14961213
C0R280,檳榔,2020-12-30,22.0761,120.8368,0.0041771056
C0R320,車城,2020-12-30,22.0744,120.7162,0.031798575
C0R341,牡丹,2020-12-30,22.13,120.7926,0.044354867
C0R350,貓鼻頭,2020-12-30,21.9218,120.7358,0.018890332
C0R470,高樹,2020-12-30,22.8264,120.6008,0.87655777
C0R480,長治,2020-12-30,22.6931,120.5426,0.8460093
C0R490,九如,2020-12-30,22.7405,120.4905,0.7413909
C0R520,崁頂,2020-12-30,22.5148,120.5069,0.83179265
C0R540,佳冬,2020-12-30,22.4195,120.5524,0.83626115
C0R550,新埤,2020-12-30,22.4679,120.5829,0.8406993
C0R560,新園,2020-12-30,22.5434,120.4616,0.83179265
C0R570,麟洛,2020-12-30,22.6508,120.5272,0.7413909
C0R580,南州,2020-12-30,22.4859,120.5027,0.83626115
C0R590,里港,2020-12-30,22.7792,120.4946,0.83130246
C0R620,墾雷,2020-12-30,21.9008,120.8553,0.018890332
C0R640,東港,2020-12-30,22.4625,120.4407,0.80606234
C0R650,竹田,2020-12-30,22.5849,120.5434,0.8416327
C0R660,枋寮,2020-12-30,22.3677,120.5906,0.6374892
C0R670,楓港,2020-12-30,22.1901,120.6922,0.043805722
C0R680,佳樂水,2020-12-30,21.9936,120.8616,0.024447232
C0R690,墾丁,2020-12-30,21.9668,120.8103,0.0031486484
C0R700,枋山,2020-12-30,22.2468,120.6611,0.043805722
C0R710,龍磐,2020-12-30,21.9317,120.8389,0.007067997
C0R720,旭海,2020-12-30,22.2054,120.8876,0.042451832
C0R730,大坪頂,2020-12-30,22.0246,120.6936,0.01576717
C0R740,獅子,2020-12-30,22.2016,120.7053,0.040607765
C0R760,南仁湖,2020-12-30,22.0847,120.8634,0.0022559995
C0R770,保力,2020-12-30,22.0711,120.7641,0.0103090545
C0R780,滿州,2020-12-30,22.0244,120.8399,0.016319104
C0R790,九棚,2020-12-30,22.142,120.8893,0.06789418
C0R800,丹路,2020-12-30,22.2045,120.751,0.04566899
C0R810,內獅,2020-12-30,22.3051,120.643,0.09217028
C0R830,高士,2020-12-30,22.1218,120.8368,0.0016002589
C0R850,林邊,2020-12-30,22.4634,120.5339,0.83179253
C0R860,鼻頭,2020-12-30,22.1043,120.8979,0.0020315708
C0R870,興海,2020-12-30,21.9752,120.8439,0.024447232
C0R880,後壁湖,2020-12-30,21.9457,120.7457,0.03564464
C0R890,山海,2020-12-30,21.9878,120.7091,0.031798575
C0R900,竹坑,2020-12-30,22.1385,120.7022,0.048855506
C0R910,下寮,2020-12-30,22.3929,120.5548,0.8362612
C0R920,塭仔,2020-12-30,22.4169,120.5197,0.84082633
C0R930,萬丹,2020-12-30,22.5885,120.4851,0.8416327
C0R940,加祿堂,2020-12-30,22.3363,120.6217,0.092170164
C0S710,鹿野,2020-12-30,22.9177,121.123,0.16298744
C0S730,綠島,2020-12-30,22.6672,121.4753,0.6289398
C0S740,池上,2020-12-30,23.1196,121.2095,0.3483788
C0S770,大溪山,2020-12-30,22.4785,120.9433,0.07564333
C0S790,金崙,2020-12-30,22.5381,120.9669,0.2745507
C0S810,東河,2020-12-30,22.9727,121.304,0.5560353
C0S830,長濱,2020-12-30,23.2868,121.412,0.12846479
C0S840,南田,2020-12-30,22.2797,120.8892,0.44086492
C0S890,關山,2020-12-30,23.0395,121.175,0.48258826
C0S900,蘭嶼高中,2020-12-30,22.0491,121.5121,0.022396896
C0S910,蘭嶼燈塔,2020-12-30,22.0812,121.5031,0.0021960104
C0S920,金峰嘉蘭,2020-12-30,22.5948,120.9608,0.331912
C0S930,延平,2020-12-30,22.9026,121.0841,0.29048088
C0S940,石寧山,2020-12-30,23.2238,121.4066,0.35660765
C0S950,七塊厝,2020-12-30,22.9545,121.2299,0.11875847
C0S960,香蘭,2020-12-30,22.5876,120.9934,0.3458267
C0S970,加津林,2020-12-30,22.4162,120.9269,0.6288601
C0S990,山豬窟,2020-12-30,22.3186,120.8574,0.012551769
C0SA00,歷坵,2020-12-30,22.521,120.8919,0.0348928
C0SA10,檳榔四格山,2020-12-30,22.81,121.1093,0.016936336
C0SA30,都歷,2020-12-30,23.0203,121.3236,0.651931
C0SA40,瑞和,2020-12-30,22.9744,121.1567,0.5246007
C0SA60,知本（水試所）,2020-12-30,22.7024,121.0828,0.30954304
C0SA80,土,2020-12-30,22.4531,120.8876,0.31912866
C0SA90,達仁林場,2020-12-30,22.2643,120.824,0.47867692
C0T870,鯉魚潭,2020-12-30,23.9356,121.5089,0.53431183
C0T900,西林,2020-12-30,23.8119,121.4415,0.47736844
C0T960,光復,2020-12-30,23.6607,121.425,0.5050942
C0T9A0,月眉山,2020-12-30,23.8099,121.5398,0.13079901
C0T9D0,和中,2020-12-30,24.2668,121.741,0.91267365
C0T9E0,大坑,2020-12-30,23.8806,121.582,0.2394163
C0T9F0,水璉,2020-12-30,23.7971,121.5425,0.32423416
C0T9I0,豐濱,2020-12-30,23.5839,121.5148,0.5256661
C0T9M0,靜浦,2020-12-30,23.4552,121.495,0.59186924
C0T9N0,富里,2020-12-30,23.1716,121.2494,0.039743073
C0U600,礁溪,2020-12-30,24.8175,121.7656,0.12509137
C0U650,玉蘭,2020-12-30,24.6753,121.5871,0.112132855
C0U750,龜山島,2020-12-30,24.8417,121.9531,0.07051668
C0U760,東澳,2020-12-30,24.522,121.8332,0.4344978
C0U770,南澳,2020-12-30,24.4493,121.8102,0.71672654
C0U780,五結,2020-12-30,24.6864,121.7979,0.27624092
C0U860,頭城,2020-12-30,24.8532,121.8308,0.13750212
C0U870,大礁溪,2020-12-30,24.791,121.675,0.014049471
C0U880,北關,2020-12-30,24.9072,121.8734,0.008742004
C0U890,三星,2020-12-30,24.6681,121.653,0.050187025
C0U900,內城,2020-12-30,24.7181,121.6877,0.095852055
C0U910,冬山,2020-12-30,24.6337,121.7937,0.27624092
C0U940,羅東,2020-12-30,24.6818,121.7493,0.26269445
C0U970,大福,2020-12-30,24.8006,121.8139,0.14907454
C0U990,員山,2020-12-30,24.7444,121.7225,0.26269445
C0UA00,土場,2020-12-30,24.5765,121.4953,0.026028167
C0UA80,大溪漁港,2020-12-30,24.9418,121.903,0.12509137
C0UA90,石城,2020-12-30,24.9804,121.9512,0.053792067
C0UB00,淡江大學蘭陽校園,2020-12-30,24.8232,121.7304,0.015386617
C0UB10,蘇澳,2020-12-30,24.5969,121.8571,0.66004056
C0UB20,壯圍,2020-12-30,24.7359,121.8163,0.2943075
C0V250,甲仙,2020-12-30,23.0801,120.5918,0.35656098
C0V260,月眉,2020-12-30,22.971,120.5399,0.74740744
C0V310,美濃,2020-12-30,22.8987,120.5192,0.66021687
C0V350,溪埔,2020-12-30,22.7386,120.4468,0.7585183
C0V360,內門,2020-12-30,22.9755,120.4668,0.5686916
C0V370,古亭坑,2020-12-30,22.8932,120.4019,0.54824346
C0V400,阿公店,2020-12-30,22.8042,120.3555,0.7352212
C0V440,鳳山,2020-12-30,22.6467,120.3561,0.7831237
C0V450,鳳森,2020-12-30,22.5451,120.3926,0.6618164
C0V490,新興,2020-12-30,22.6274,120.2988,0.79828167
C0V530,阿蓮,2020-12-30,22.8832,120.3275,0.7717923
C0V610,梓官,2020-12-30,22.7606,120.2672,0.7932513
C0V620,永安,2020-12-30,22.8231,120.2369,0.7508902
C0V630,茄萣,2020-12-30,22.9066,120.1826,0.7950849
C0V640,湖內,2020-12-30,22.8871,120.2445,0.7856947
C0V650,彌陀,2020-12-30,22.7838,120.2464,0.7508902
C0V660,岡山,2020-12-30,22.7971,120.295,0.7932513
C0V680,仁武,2020-12-30,22.7011,120.3477,0.7906633
C0V690,鼓山,2020-12-30,22.6233,120.2756,0.79828167
C0V700,三民,2020-12-30,22.645,120.3112,0.79828167
C0V710,苓雅,2020-12-30,22.6227,120.3307,0.79828167
C0V720,林園,2020-12-30,22.5077,120.3945,0.79828167
C0V730,大寮,2020-12-30,22.6056,120.3957,0.6395433
C0V740,旗山,2020-12-30,22.8886,120.4836,0.6502196
C0V750,路竹,2020-12-30,22.855,120.2594,0.7565781
C0V760,橋頭,2020-12-30,22.7578,120.3058,0.78473353
C0V770,大社,2020-12-30,22.7303,120.3466,0.7906633
C0V790,萬山,2020-12-30,22.9059,120.6881,0.5716894
C0V800,六龜,2020-12-30,22.9979,120.6336,0.831452
C0V810,左營,2020-12-30,22.6749,120.2849,0.7976499
C0V820,小林,2020-12-30,23.1484,120.6333,0.5653647
C0V840,鳳鼻頭,2020-12-30,22.5083,120.3591,0.80606234
C0V850,蚵仔寮,2020-12-30,22.7256,120.2527,0.8042784
C0V860,南寮,2020-12-30,22.7616,120.2339,0.7602471
C0V870,文安,2020-12-30,22.8025,120.2164,0.7602471
C0V880,興達,2020-12-30,22.8778,120.2127,0.7950849
C0V890,前鎮,2020-12-30,22.5718,120.3117,0.80606246
C0V900,汕尾,2020-12-30,22.4782,120.4151,0.79228675
C0X050,東河,2020-12-30,23.2966,120.3856,0.3434313
C0X060,下營,2020-12-30,23.2269,120.2563,0.43800858
C0X080,佳里,2020-12-30,23.173,120.1451,0.49325082
C0X100,臺南市北區,2020-12-30,23.0104,120.1942,0.7533726
C0X110,臺南市南區,2020-12-30,22.9612,120.1884,0.74184036
C0X120,麻豆,2020-12-30,23.1833,120.2486,0.47003794
C0X130,官田,2020-12-30,23.1932,120.3154,0.3801226
C0X140,西港,2020-12-30,23.1256,120.2031,0.60580814
C0X150,安定,2020-12-30,23.1026,120.2278,0.6504128
C0X160,仁德,2020-12-30,22.9683,120.2577,0.6832757
C0X170,關廟,2020-12-30,22.963,120.3278,0.6099242
C0X180,山上,2020-12-30,23.0757,120.3633,0.31986356
C0X190,安平,2020-12-30,22.9932,120.1522,0.7533726
C0X200,左鎮,2020-12-30,23.0568,120.4085,0.34393477
C0X210,白河,2020-12-30,23.3475,120.4144,0.29356942
C0X220,學甲,2020-12-30,23.2304,120.1822,0.47003794
C0X230,鹽水,2020-12-30,23.2726,120.2476,0.4086799
C0X240,關子嶺,2020-12-30,23.3312,120.508,0.11059295
C0X250,新營,2020-12-30,23.3107,120.3167,0.36355054
C0X260,後壁,2020-12-30,23.3664,120.3623,0.2932597
C0X280,將軍,2020-12-30,23.215,120.1358,0.49325082
C0X290,北門,2020-12-30,23.2678,120.1255,0.49325082
C0X300,鹿寮,2020-12-30,23.386,120.4773,0.6685786
C0X310,七股,2020-12-30,23.1473,120.0863,0.6094945
C0X320,柳營,2020-12-30,23.2533,120.3753,0.31869152
C0Z020,明里,2020-12-30,23.2087,121.2623,0.17471392
C0Z061,玉里,2020-12-30,23.3215,121.3397,0.38752386
C0Z070,舞鶴,2020-12-30,23.4681,121.3741,0.42341468
C0Z080,富源,2020-12-30,23.5876,121.3782,0.41497463
C0Z100,東華,2020-12-30,23.8953,121.5498,0.65817124
C0Z150,吉安光華,2020-12-30,23.9309,121.5952,0.67693055
C0Z160,鳳林,2020-12-30,23.7461,121.4534,0.5251041
C0Z170,卓溪,2020-12-30,23.3443,121.3029,0.32580045
C0Z180,新城,2020-12-30,24.0395,121.6045,0.51203126
C0Z190,富世,2020-12-30,24.1474,121.6297,0.8216958
C0Z200,萬榮,2020-12-30,23.7092,121.4201,0.53431183
C0Z210,瑞穗,2020-12-30,23.5239,121.3902,0.5533202
C0Z230,和平,2020-12-30,24.3072,121.7701,0.91267365
C0Z270,蕃薯寮,2020-12-30,23.7384,121.5401,0.58329374
C0Z280,德武,2020-12-30,23.4743,121.4107,0.49452147
C0Z300,東里,2020-12-30,23.2685,121.3055,0.35691482
C0Z310,清水斷崖,2020-12-30,24.2183,121.6891,0.8903486
C0Z330,安通山,2020-12-30,23.2907,121.3485,0.10224191
