站號,站名,日期,lat,lon,BlastGRU-TW
466881,新北,2020-03-29,24.9593,121.52,0.37881833
466900,淡水,2020-03-29,25.164889,121.448906,0.41766334
466920,臺北,2020-03-29,25.037658,121.514853,0.42203194
467441,高雄,2020-03-29,22.7304,120.3125,0.5543862
467480,嘉義,2020-03-29,23.495925,120.432906,0.74373966
467490,臺中,2020-03-29,24.145736,120.684075,0.2276932
C0A540,四堵,2020-03-29,24.8926,121.745736,0.04035577
C0A550,泰平,2020-03-29,24.971197,121.823711,0.00713354
C0A560,福山,2020-03-29,24.776203,121.502811,0.032578554
C0A931,三和,2020-03-29,25.233153,121.595236,0.027316086
C0A940,金山,2020-03-29,25.223628,121.643967,0.16853124
C0A950,鼻頭角,2020-03-29,25.129036,121.923372,0.14859308
C0AD10,八里,2020-03-29,25.150211,121.403947,0.41766334
C0AD30,蘆洲,2020-03-29,25.086594,121.472331,0.42523077
C0AD40,土城,2020-03-29,24.973208,121.445169,0.40690887
C0AI10,屈尺,2020-03-29,24.92184,121.54475,0.32936528
C0AI20,白沙灣,2020-03-29,25.283128,121.519058,0.19292846
C0AI30,三重,2020-03-29,25.057328,121.500629,0.42523077
C0B010,七堵,2020-03-29,25.094819,121.71713,0.3108286
C0B020,基隆嶼,2020-03-29,25.19141,121.78391,0.3454636
