站號,站名,日期,lat,lon,BlastGRU-TW
12J990,口湖工作站,2020-11-05,23.589978,120.180394,0.8788697
12Q970,東港工作站,2020-11-05,22.479997,120.466058,0.5088348
12Q980,恆春工作站,2020-11-05,22.079678,120.714425,0.0029083441
466881,新北,2020-11-05,24.9593,121.52,0.06139322
466900,淡水,2020-11-05,25.164889,121.448906,0.013277404
466920,臺北,2020-11-05,25.037658,121.514853,0.06506817
466940,基隆,2020-11-05,25.133314,121.740475,0.01807614
466990,花蓮,2020-11-05,23.975128,121.613275,0.7724356
467050,新屋,2020-11-05,25.006744,121.047486,0.011345914
467080,宜蘭,2020-11-05,24.763975,121.756528,0.9409411
467270,田中,2020-11-05,23.873803,120.581286,0.93824977
467300,東吉島,2020-11-05,23.25695,119.667467,0.6788354
467350,澎湖,2020-11-05,23.565503,119.563094,0.0034802412
467410,臺南,2020-11-05,22.993239,120.204772,0.716298
467420,永康,2020-11-05,23.038386,120.2367,0.7156763
467441,高雄,2020-11-05,22.7304,120.3125,0.6300717
467480,嘉義,2020-11-05,23.495925,120.432906,0.9740865
467490,臺中,2020-11-05,24.145736,120.684075,0.7468473
467540,大武,2020-11-05,22.355675,120.903789,0.030630184
467571,新竹,2020-11-05,24.827853,121.014219,0.0078483075
467590,恆春,2020-11-05,22.003897,120.746339,0.0030491233
467610,成功,2020-11-05,23.097486,121.373428,0.4892632
467620,蘭嶼,2020-11-05,22.036969,121.558339,0.5438161
467660,臺東,2020-11-05,22.752211,121.154586,0.6204725
467790,墾丁雷達站,2020-11-05,21.948235,120.808028,0.003192122
72AI40,桃改樹林分場,2020-11-05,24.944503,121.386972,0.027366238
72C440,桃園農改,2020-11-05,24.950944,121.030583,0.011100647
72D680,桃改新埔分場,2020-11-05,24.834444,121.066111,0.012470841
72G600,臺中農改,2020-11-05,24.003028,120.534389,0.86158305
72K220,南改斗南分場,2020-11-05,23.634556,120.477333,0.9360755
72M360,南改義竹分場,2020-11-05,23.360694,120.279361,0.89643615
72M700,南改鹿草分場,2020-11-05,23.416869,120.283061,0.92771375
72N100,臺南農改,2020-11-05,23.0605,120.342194,0.71552646
72N240,七股研究中心,2020-11-05,23.081672,120.062894,0.8468902
72Q010,高雄農改,2020-11-05,22.709333,120.525889,0.2878083
72S200,東改班鳩分場,2020-11-05,22.829528,121.077694,0.52764577
72S590,東改賓朗果園,2020-11-05,22.813889,121.071278,0.50846446
72T250,花蓮農改,2020-11-05,23.975222,121.563889,0.75040317
72U480,花改蘭陽分場,2020-11-05,24.686306,121.716583,0.83649844
72V140,高改旗南分場,2020-11-05,22.857861,120.516667,0.2824144
82A750,茶改北部分場,2020-11-05,24.955778,121.631222,0.88958853
82C160,茶改場,2020-11-05,24.908472,121.185333,0.0032486815
82H840,茶改南部分場,2020-11-05,23.762528,120.7405,0.8423014
82S580,茶改東部分場,2020-11-05,22.907694,121.130139,0.47883594
A2C560,農工中心,2020-11-05,24.985917,121.239833,0.0025261585
A2K360,水試臺西試驗場,2020-11-05,23.717231,120.190522,0.9529208
A2K570,古坑花卉中心,2020-11-05,23.63353,120.55239,0.9406926
A2K630,臺大雲林校區,2020-11-05,23.730628,120.423903,0.9389271
A2N290,臺南蘭花園區,2020-11-05,23.340258,120.379661,0.9571952
B2E890,畜試北區分所,2020-11-05,24.527806,120.770972,0.54433185
B2N890,畜試所,2020-11-05,23.058972,120.336406,0.71552646
B2Q810,畜試南區分所,2020-11-05,21.945583,120.802167,0.00300215
B2U990,畜試東區分所,2020-11-05,24.669039,121.832561,0.829048
C0A520,山佳,2020-11-05,24.974944,121.402008,0.027366238
C0A530,坪林,2020-11-05,24.938183,121.70975,0.9588584
C0A540,四堵,2020-11-05,24.8926,121.745736,0.48183942
C0A550,泰平,2020-11-05,24.971197,121.823711,0.9449271
C0A560,福山,2020-11-05,24.776203,121.502811,0.88958853
C0A570,桶後,2020-11-05,24.848222,121.597992,0.6756459
C0A640,石碇,2020-11-05,24.993969,121.662917,0.90095496
C0A650,火燒寮,2020-11-05,25.002719,121.742892,0.9131432
C0A660,瑞芳,2020-11-05,25.113169,121.801147,0.87980705
C0A770,科教館,2020-11-05,25.096356,121.516507,0.03055347
C0A860,大坪,2020-11-05,25.165914,121.632969,0.38116822
C0A880,福隆,2020-11-05,25.017842,121.942083,0.8648877
C0A890,雙溪,2020-11-05,25.036003,121.864242,0.01719537
C0A920,富貴角,2020-11-05,25.263783,121.565258,0.002763941
C0A931,三和,2020-11-05,25.233153,121.595236,0.89522207
C0A940,金山,2020-11-05,25.223628,121.643967,0.0037921185
C0A950,鼻頭角,2020-11-05,25.129036,121.923372,0.86368513
C0A970,三貂角,2020-11-05,25.007606,122.002058,0.8786345
C0A980,社子,2020-11-05,25.109508,121.469681,0.03137049
C0A9C0,天母,2020-11-05,25.117494,121.537169,0.028549898
C0A9F0,內湖,2020-11-05,25.079422,121.57545,0.06506817
C0AC60,三峽,2020-11-05,24.939025,121.369728,0.05904989
C0AC70,信義,2020-11-05,25.037822,121.564597,0.06506817
C0AC80,文山,2020-11-05,25.00235,121.575728,0.054081183
C0ACA0,新莊,2020-11-05,25.051478,121.446756,0.01573253
C0AD00,三芝,2020-11-05,25.258131,121.501917,0.0026360394
C0AD10,八里,2020-11-05,25.150211,121.403947,0.013277404
C0AD30,蘆洲,2020-11-05,25.086594,121.472331,0.03055347
C0AD40,土城,2020-11-05,24.973208,121.445169,0.0295878
C0AD50,鶯歌,2020-11-05,24.951533,121.346294,0.013839217
C0AG80,中和,2020-11-05,24.991622,121.491792,0.06506817
C0AH00,汐止,2020-11-05,25.066881,121.658778,0.017880129
C0AH10,永和,2020-11-05,25.01125,121.508111,0.066345006
C0AH40,平等,2020-11-05,25.129142,121.577086,0.41796282
C0AH50,林口,2020-11-05,25.072181,121.38084,0.453566
C0AH70,松山,2020-11-05,25.04871,121.55042,0.06506817
C0AH80,深坑,2020-11-05,25.002703,121.628328,0.054081183
C0AI00,五股,2020-11-05,25.07445,121.42728,0.0019089099
C0AI10,屈尺,2020-11-05,24.92184,121.54475,0.054081183
C0AI20,白沙灣,2020-11-05,25.283128,121.519058,0.004604751
C0AI30,三重,2020-11-05,25.057328,121.500629,0.030553522
C0AI40,石牌,2020-11-05,25.115597,121.513139,0.0295878
C0AJ20,野柳,2020-11-05,25.20703,121.690021,0.017880129
C0AJ30,淡水觀海,2020-11-05,25.184591,121.408616,0.013844691
C0AJ40,石門,2020-11-05,25.273672,121.601198,0.0016069257
C0AJ50,水湳洞,2020-11-05,25.123695,121.862238,0.017880129
C0AJ60,六塊厝,2020-11-05,25.24,121.4481,0.013844691
C0AJ70,田寮,2020-11-05,25.2698,121.4886,0.0050276555
C0AJ80,板橋,2020-11-05,25.0107,121.4489,0.0295878
C0AJ90,澳底,2020-11-05,25.0552,121.9253,0.8648877
C0B010,七堵,2020-11-05,25.094819,121.71713,0.01764414
C0B020,基隆嶼,2020-11-05,25.19141,121.78391,0.017880129
C0B040,大武崙,2020-11-05,25.166676,121.706993,0.01764414
C0B050,八斗子,2020-11-05,25.144754,121.79167,0.018072173
C0B060,暖暖,2020-11-05,25.0957,121.7403,0.016084678
C0C460,復興,2020-11-05,24.820208,121.352281,0.6060211
C0C480,桃園,2020-11-05,24.992425,121.323172,0.0036050023
C0C490,八德,2020-11-05,24.928708,121.283289,0.013756844
C0C590,觀音,2020-11-05,25.027072,121.153317,0.009857151
C0C620,蘆竹,2020-11-05,25.084275,121.265767,0.01177508
C0C630,大溪,2020-11-05,24.882853,121.265547,0.009382963
C0C650,平鎮,2020-11-05,24.897503,121.214636,0.0032486815
C0C660,楊梅,2020-11-05,24.912375,121.143047,0.0026154413
C0C670,龍潭,2020-11-05,24.870056,121.221389,0.015634606
C0C680,龜山,2020-11-05,25.02846,121.38656,0.60273683
C0C700,中壢,2020-11-05,24.977661,121.256375,0.0029124664
C0C710,大溪永福,2020-11-05,24.892936,121.324975,0.0022687984
C0C720,竹圍,2020-11-05,25.112692,121.239824,0.013277404
C0C730,中大臨海站,2020-11-05,24.966126,121.008581,0.0116756745
C0C740,觀音工業區,2020-11-05,25.064764,121.114856,0.0037716741
C0C750,新興坑尾,2020-11-05,25.0061,121.0971,0.0022633325
C0D430,峨眉,2020-11-05,24.6905,121.017189,0.009373855
C0D480,打鐵坑,2020-11-05,24.849664,121.150789,0.03808129
C0D540,橫山,2020-11-05,24.71116,121.11693,0.019460741
C0D560,竹東,2020-11-05,24.767147,121.057881,0.0083226785
C0D580,寶山,2020-11-05,24.735006,121.025192,0.030992387
C0D590,新豐,2020-11-05,24.87068,120.97721,0.04267582
C0D650,湖口,2020-11-05,24.904794,121.043628,0.01010377
C0D660,新竹市東區,2020-11-05,24.798681,120.986942,0.0070861755
C0D670,海天一線,2020-11-05,24.831986,120.914438,0.0073855296
C0D680,香山濕地,2020-11-05,24.783581,120.914988,0.007067525
C0D690,外湖,2020-11-05,24.917735,120.968711,0.011752074
C0D700,關西,2020-11-05,24.7977,121.1732,0.004637814
C0E420,竹南,2020-11-05,24.708978,120.888897,0.0060905325
C0E430,南庄,2020-11-05,24.601775,121.000214,0.033327244
C0E520,大湖,2020-11-05,24.41494,120.87087,0.12877518
C0E540,後龍,2020-11-05,24.606489,120.783933,0.53088564
C0E550,明德,2020-11-05,24.583486,120.885411,0.23850723
C0E590,通霄,2020-11-05,24.471892,120.704622,0.6233876
C0E730,頭份,2020-11-05,24.688247,120.912206,0.0060905325
C0E740,造橋,2020-11-05,24.637056,120.864778,0.27610737
C0E750,苗栗,2020-11-05,24.564569,120.824575,0.43765807
C0E780,銅鑼,2020-11-05,24.489681,120.790853,0.46517387
C0E791,卓蘭,2020-11-05,24.3126,120.8244,0.7984832
C0E810,西湖,2020-11-05,24.562947,120.7485,0.47679412
C0E820,獅潭,2020-11-05,24.539133,120.920042,0.33987188
C0E830,苑裡,2020-11-05,24.439714,120.653053,0.72688043
C0E850,大河,2020-11-05,24.618069,120.948578,0.21613023
C0E870,高鐵苗栗,2020-11-05,24.60725,120.826094,0.51300496
C0E910,海埔,2020-11-05,24.648767,120.772435,0.36051303
C0E920,通霄漁港,2020-11-05,24.498589,120.673876,0.7224346
C0E930,龍鳳,2020-11-05,24.700034,120.859125,0.3188803
C0F0B0,石岡,2020-11-05,24.276061,120.777644,0.8470996
C0F850,東勢,2020-11-05,24.246428,120.833047,0.7749452
C0F930,大甲,2020-11-05,24.347667,120.640403,0.6972323
C0F970,大坑,2020-11-05,24.173142,120.722289,0.626343
C0F9A0,中竹林,2020-11-05,24.103556,120.751061,0.82421225
C0F9I0,神岡,2020-11-05,24.272481,120.658314,0.575821
C0F9K0,大安,2020-11-05,24.345061,120.588025,0.81701785
C0F9L0,后里,2020-11-05,24.310436,120.729725,0.48243046
C0F9M0,豐原,2020-11-05,24.254322,120.720692,0.52867115
C0F9N0,大里,2020-11-05,24.092464,120.701378,0.8298338
C0F9O0,潭子,2020-11-05,24.213106,120.703933,0.5082338
C0F9P0,清水,2020-11-05,24.312297,120.562242,0.8306898
C0F9Q0,外埔,2020-11-05,24.347817,120.705686,0.62275463
C0F9R0,龍井,2020-11-05,24.184536,120.528972,0.827877
C0F9S0,烏日,2020-11-05,24.107058,120.624103,0.85840267
C0F9T0,西屯,2020-11-05,24.179494,120.641275,0.7339582
C0F9U0,南屯,2020-11-05,24.137006,120.637969,0.8298338
C0F9X0,大雅(中科園區),2020-11-05,24.21528,120.62445,0.58713955
C0FA10,松柏,2020-11-05,24.429115,120.617482,0.7718455
C0FA20,溫寮,2020-11-05,24.372177,120.583125,0.77569455
C0FA30,梧棲,2020-11-05,24.256003,120.523381,0.827877
C0FA40,臺中電廠,2020-11-05,24.2146,120.4907,0.827877
C0FA50,霧峰,2020-11-05,24.0419,120.6995,0.83482474
C0G620,芬園,2020-11-05,24.015678,120.6213,0.90653056
C0G640,鹿港,2020-11-05,24.0753,120.430481,0.8648185
C0G650,員林,2020-11-05,23.946503,120.585597,0.92696965
C0G660,溪湖,2020-11-05,23.94835,120.479122,0.9202893
C0G720,溪州,2020-11-05,23.851589,120.499093,0.93024844
C0G730,二林,2020-11-05,23.903325,120.376081,0.91230285
C0G740,大城,2020-11-05,23.852487,120.320935,0.9475064
C0G770,福興,2020-11-05,24.041289,120.437669,0.8648185
C0G780,秀水,2020-11-05,24.03405,120.503869,0.8586073
C0G800,埔鹽,2020-11-05,24.000394,120.431683,0.8648185
C0G810,埔心,2020-11-05,23.947633,120.525456,0.9213914
C0G820,田尾,2020-11-05,23.901669,120.509389,0.9224787
C0G830,埤頭,2020-11-05,23.866003,120.452806,0.9311924
C0G840,北斗,2020-11-05,23.877586,120.514222,0.9224787
C0G860,社頭,2020-11-05,23.897647,120.5862,0.9277734
C0G870,芳苑,2020-11-05,23.922303,120.320025,0.9461341
C0G880,二水,2020-11-05,23.810742,120.6173,0.92893237
C0G890,伸港,2020-11-05,24.148933,120.484403,0.8359809
C0G900,線西,2020-11-05,24.143358,120.443536,0.8419576
C0G910,花壇,2020-11-05,24.032076,120.549461,0.86411875
C0G920,永靖,2020-11-05,23.924703,120.547533,0.9224787
C0G940,竹塘,2020-11-05,23.848253,120.386764,0.93695176
C0G950,防潮門,2020-11-05,24.1835,120.4871,0.8326163
C0G960,福寶,2020-11-05,24.0443,120.3814,0.86216193
C0G970,三豐,2020-11-05,23.882,120.2895,0.9461341
C0H890,埔里,2020-11-05,23.972169,120.952425,0.8545066
C0H950,中寮,2020-11-05,23.884447,120.766406,0.9249845
C0H960,草屯,2020-11-05,23.973672,120.68085,0.9335376
C0I110,竹山,2020-11-05,23.761225,120.688156,0.927348
C0I360,水里,2020-11-05,23.812553,120.849792,0.9456504
C0I380,集集,2020-11-05,23.828206,120.801467,0.9493907
C0I410,名間,2020-11-05,23.837053,120.701447,0.9304332
C0I420,國姓,2020-11-05,24.037803,120.855072,0.85276467
C0I460,南投,2020-11-05,23.911469,120.687331,0.9314195
C0K250,崙背,2020-11-05,23.75555,120.318925,0.96105194
C0K280,四湖,2020-11-05,23.630414,120.227125,0.9541589
C0K291,宜梧,2020-11-05,23.536281,120.169329,0.89132845
C0K330,虎尾,2020-11-05,23.719183,120.442036,0.938515
C0K390,土庫,2020-11-05,23.679029,120.395574,0.9389271
C0K400,斗六,2020-11-05,23.720583,120.541127,0.9334601
C0K410,北港,2020-11-05,23.573957,120.292802,0.9186695
C0K420,西螺,2020-11-05,23.800407,120.467394,0.93079364
C0K430,褒忠,2020-11-05,23.690938,120.303634,0.9645369
C0K440,二崙,2020-11-05,23.772797,120.408944,0.9364644
C0K450,大埤,2020-11-05,23.646074,120.431537,0.93610007
C0K460,斗南,2020-11-05,23.678734,120.478359,0.9338507
C0K470,林內,2020-11-05,23.748675,120.609642,0.934076
C0K480,莿桐,2020-11-05,23.761192,120.502372,0.9305275
C0K500,元長,2020-11-05,23.64981,120.315024,0.9623735
C0K510,水林,2020-11-05,23.572924,120.24597,0.88260055
C0K530,臺西,2020-11-05,23.701547,120.197559,0.95427996
C0K550,蔦松,2020-11-05,23.514319,120.229736,0.8949958
C0K560,棋山,2020-11-05,23.68645,120.603417,0.9353128
C0K580,高鐵雲林,2020-11-05,23.737456,120.417944,0.9389271
C0K590,雲林東勢,2020-11-05,23.674192,120.255721,0.9645369
C0K600,箔子寮,2020-11-05,23.6197,120.14,0.8788697
C0M410,馬頭山,2020-11-05,23.324361,120.582017,0.9156827
C0M520,東後寮,2020-11-05,23.369908,120.248065,0.87898755
C0M640,中埔,2020-11-05,23.42538,120.5229,0.9468452
C0M650,朴子,2020-11-05,23.43463,120.23902,0.89421326
C0M660,溪口,2020-11-05,23.604131,120.403569,0.9684438
C0M670,大林,2020-11-05,23.600616,120.45841,0.97047085
C0M680,太保,2020-11-05,23.455062,120.331455,0.93133634
C0M690,水上,2020-11-05,23.419734,120.388909,0.971783
C0M700,竹崎,2020-11-05,23.526178,120.555508,0.94246346
C0M710,東石,2020-11-05,23.458927,120.15385,0.8949958
C0M720,番路,2020-11-05,23.464657,120.554156,0.9494471
C0M730,嘉義市東區,2020-11-05,23.457673,120.460531,0.97430986
C0M740,六腳,2020-11-05,23.492871,120.290625,0.9293254
C0M750,布袋,2020-11-05,23.380878,120.167789,0.89421326
C0M760,民雄,2020-11-05,23.551754,120.428457,0.96962196
C0M770,嘉義梅山,2020-11-05,23.585398,120.555587,0.9370311
C0M780,鹿草,2020-11-05,23.41134,120.30835,0.9299229
C0M790,新港,2020-11-05,23.553269,120.345728,0.92098135
C0M800,茶山,2020-11-05,23.299075,120.664767,0.56135386
C0M880,好美里,2020-11-05,23.3364,120.138,0.8649319
C0N010,鯤鯓國小,2020-11-05,23.1879,120.0889,0.8182574
C0N020,城西,2020-11-05,23.0568,120.0956,0.84890735
C0N030,四草,2020-11-05,23.0235,120.1116,0.86837095
C0N040,蘆竹溝,2020-11-05,23.2344,120.0961,0.8182574
C0N050,蚵寮,2020-11-05,23.301,120.1104,0.8182574
C0O810,曾文,2020-11-05,23.219681,120.497328,0.9588112
C0O830,北寮,2020-11-05,23.079561,120.495008,0.32021055
C0O840,王爺宮,2020-11-05,23.222064,120.40085,0.9588112
C0O860,大內,2020-11-05,23.11885,120.36083,0.7425935
C0O900,善化,2020-11-05,23.112883,120.297219,0.72070533
C0O930,玉井,2020-11-05,23.126042,120.46055,0.96567565
C0O950,安南,2020-11-05,23.076694,120.144861,0.6688837
C0O960,崎頂,2020-11-05,22.959547,120.369317,0.319359
C0O970,虎頭埤,2020-11-05,23.021375,120.347878,0.9152669
C0O980,新市,2020-11-05,23.061614,120.298197,0.72070533
C0O990,媽廟,2020-11-05,22.99175,120.293525,0.7422192
C0R150,三地門,2020-11-05,22.709889,120.639944,0.2839086
C0R160,鹽埔,2020-11-05,22.739558,120.530778,0.2878083
C0R170,屏東,2020-11-05,22.660269,120.494072,0.6263942
C0R190,赤山,2020-11-05,22.592333,120.614306,0.25902596
C0R220,潮州,2020-11-05,22.534361,120.54,0.21626562
C0R240,來義,2020-11-05,22.527306,120.625111,0.26022464
C0R260,春日,2020-11-05,22.370361,120.628306,0.2626252
C0R270,琉球嶼,2020-11-05,22.332244,120.362236,0.26257843
C0R280,檳榔,2020-11-05,22.076078,120.836777,0.0034910531
C0R320,車城,2020-11-05,22.0744,120.716247,0.0029083441
C0R341,牡丹,2020-11-05,22.130036,120.792639,0.16881427
C0R350,貓鼻頭,2020-11-05,21.921774,120.7358,0.0030929616
C0R470,高樹,2020-11-05,22.826389,120.600806,0.30459398
C0R480,長治,2020-11-05,22.693128,120.542622,0.28388572
C0R490,九如,2020-11-05,22.7405,120.490503,0.62649846
C0R520,崁頂,2020-11-05,22.514781,120.506914,0.50737953
C0R540,佳冬,2020-11-05,22.419456,120.552375,0.5088348
C0R550,新埤,2020-11-05,22.467947,120.582894,0.26556996
C0R560,新園,2020-11-05,22.5434,120.461558,0.5073794
C0R570,麟洛,2020-11-05,22.65078,120.52719,0.62649846
C0R580,南州,2020-11-05,22.48591,120.50274,0.5088348
C0R590,里港,2020-11-05,22.77919,120.49459,0.28217745
C0R620,墾雷,2020-11-05,21.900836,120.855269,0.0030929616
C0R640,東港,2020-11-05,22.46247,120.44074,0.5800257
C0R650,竹田,2020-11-05,22.58486,120.54344,0.2679106
C0R660,枋寮,2020-11-05,22.367722,120.590647,0.22096649
C0R670,楓港,2020-11-05,22.190131,120.692156,0.20956887
C0R680,佳樂水,2020-11-05,21.993578,120.861633,0.0029959977
C0R690,墾丁,2020-11-05,21.966756,120.810269,0.003364143
C0R700,枋山,2020-11-05,22.246844,120.661086,0.20956887
C0R710,龍磐,2020-11-05,21.931672,120.838942,0.0034853385
C0R720,旭海,2020-11-05,22.205403,120.887614,0.038074803
C0R730,大坪頂,2020-11-05,22.024633,120.69355,0.003475957
C0R740,獅子,2020-11-05,22.201569,120.70525,0.2127188
C0R760,南仁湖,2020-11-05,22.084681,120.863353,0.0028388521
C0R770,保力,2020-11-05,22.071122,120.764111,0.003337042
C0R780,滿州,2020-11-05,22.024403,120.839892,0.003147915
C0R790,九棚,2020-11-05,22.14195,120.889281,0.03484887
C0R800,丹路,2020-11-05,22.204481,120.750989,0.20948367
C0R810,內獅,2020-11-05,22.305064,120.642986,0.26126328
C0R830,高士,2020-11-05,22.121825,120.836781,0.0019347785
C0R850,林邊,2020-11-05,22.4634,120.5339,0.5073794
C0R860,鼻頭,2020-11-05,22.1043,120.8979,0.018426819
C0R870,興海,2020-11-05,21.9752,120.8439,0.00300215
C0R880,後壁湖,2020-11-05,21.9457,120.7457,0.0028674435
C0R890,山海,2020-11-05,21.9878,120.7091,0.0029083441
C0R900,竹坑,2020-11-05,22.1385,120.7022,0.17970468
C0R910,下寮,2020-11-05,22.3929,120.5548,0.5088349
C0R920,塭仔,2020-11-05,22.4169,120.5197,0.511089
C0R930,萬丹,2020-11-05,22.5885,120.4851,0.2679106
C0R940,加祿堂,2020-11-05,22.3363,120.6217,0.26126328
C0S710,鹿野,2020-11-05,22.917711,121.122994,0.6761328
C0S730,綠島,2020-11-05,22.6672,121.47533,0.5037656
C0S740,池上,2020-11-05,23.119628,121.209469,0.66024286
C0S770,大溪山,2020-11-05,22.478475,120.943325,0.56959236
C0S790,金崙,2020-11-05,22.538122,120.966875,0.5155469
C0S810,東河,2020-11-05,22.972672,121.303986,0.4754363
C0S830,長濱,2020-11-05,23.286817,121.411975,0.40832072
C0S840,南田,2020-11-05,22.279725,120.889208,0.029905716
C0S890,關山,2020-11-05,23.0395,121.175017,0.492576
C0S900,蘭嶼高中,2020-11-05,22.04909,121.51214,0.2890794
C0S910,蘭嶼燈塔,2020-11-05,22.081197,121.503117,0.5801362
C0S920,金峰嘉蘭,2020-11-05,22.594789,120.960825,0.42613655
C0S930,延平,2020-11-05,22.902581,121.084058,0.38413915
C0S940,石寧山,2020-11-05,23.223772,121.406639,0.380418
C0S950,七塊厝,2020-11-05,22.954453,121.229922,0.5904441
C0S960,香蘭,2020-11-05,22.587569,120.993375,0.36630547
C0S970,加津林,2020-11-05,22.416211,120.926942,0.031717673
C0S990,山豬窟,2020-11-05,22.318619,120.857372,0.059267342
C0SA00,歷坵,2020-11-05,22.520969,120.89185,0.5378027
C0SA10,檳榔四格山,2020-11-05,22.810031,121.109308,0.43751347
C0SA30,都歷,2020-11-05,23.020333,121.323642,0.5011571
C0SA40,瑞和,2020-11-05,22.974361,121.156697,0.49940825
C0SA60,知本（水試所）,2020-11-05,22.702394,121.082761,0.428148
C0SA80,土坂,2020-11-05,22.453108,120.887572,0.45712972
C0SA90,達仁林場,2020-11-05,22.264347,120.823972,0.06576812
C0T870,鯉魚潭,2020-11-05,23.935639,121.508944,0.5828958
C0T900,西林,2020-11-05,23.8119,121.441458,0.54553664
C0T960,光復,2020-11-05,23.660694,121.424964,0.73261523
C0T9A0,月眉山,2020-11-05,23.809928,121.539828,0.40998363
C0T9D0,和中,2020-11-05,24.26676,121.74103,0.97714543
C0T9E0,大坑,2020-11-05,23.880628,121.581981,0.4796244
C0T9F0,水璉,2020-11-05,23.797131,121.542514,0.47405374
C0T9I0,豐濱,2020-11-05,23.583897,121.514806,0.87138635
C0T9M0,靜浦,2020-11-05,23.455167,121.495028,0.91226137
C0T9N0,富里,2020-11-05,23.171639,121.249378,0.4950256
C0U600,礁溪,2020-11-05,24.817539,121.765608,0.94264823
C0U650,玉蘭,2020-11-05,24.675286,121.587061,0.830957
C0U750,龜山島,2020-11-05,24.841667,121.953133,0.95939857
C0U760,東澳,2020-11-05,24.52196,121.83318,0.9625802
C0U770,南澳,2020-11-05,24.44935,121.81022,0.97215706
C0U780,五結,2020-11-05,24.68637,121.79794,0.829048
C0U860,頭城,2020-11-05,24.85323,121.8308,0.9409411
C0U870,大礁溪,2020-11-05,24.791042,121.675047,0.8683388
C0U880,北關,2020-11-05,24.9072,121.8734,0.11036659
C0U890,三星,2020-11-05,24.66812,121.65302,0.9524953
C0U900,內城,2020-11-05,24.71813,121.68766,0.9465641
C0U910,冬山,2020-11-05,24.63373,121.7937,0.829048
C0U940,羅東,2020-11-05,24.68184,121.74934,0.83352804
C0U970,大福,2020-11-05,24.80064,121.81389,0.9395285
C0U990,員山,2020-11-05,24.74435,121.72247,0.83352804
C0UA00,土場,2020-11-05,24.576533,121.495333,0.84539944
C0UA80,大溪漁港,2020-11-05,24.941801,121.902955,0.94264823
C0UA90,石城,2020-11-05,24.980444,121.951214,0.86180884
C0UB00,淡江大學蘭陽校園,2020-11-05,24.823239,121.730383,0.8667661
C0UB10,蘇澳,2020-11-05,24.5969,121.8571,0.9875792
C0UB20,壯圍,2020-11-05,24.7359,121.8163,0.8256043
C0V250,甲仙,2020-11-05,23.080106,120.591758,0.3555693
C0V260,月眉,2020-11-05,22.971003,120.539853,0.305078
C0V310,美濃,2020-11-05,22.898742,120.519153,0.9508821
C0V350,溪埔,2020-11-05,22.738578,120.446797,0.6172739
C0V360,內門,2020-11-05,22.975481,120.466769,0.95322335
C0V370,古亭坑,2020-11-05,22.893178,120.401947,0.9456429
C0V400,阿公店,2020-11-05,22.804194,120.355528,0.65446466
C0V440,鳳山,2020-11-05,22.646653,120.356122,0.5706871
C0V450,鳳森,2020-11-05,22.545064,120.392592,0.2670299
C0V490,新興,2020-11-05,22.627422,120.298803,0.5774622
C0V530,阿蓮,2020-11-05,22.883208,120.327508,0.77904034
C0V610,梓官,2020-11-05,22.760558,120.267211,0.6394124
C0V620,永安,2020-11-05,22.82315,120.236856,0.62330824
C0V630,茄萣,2020-11-05,22.906642,120.182608,0.7196515
C0V640,湖內,2020-11-05,22.887139,120.2445,0.72322404
C0V650,彌陀,2020-11-05,22.783806,120.246361,0.62330824
C0V660,岡山,2020-11-05,22.797078,120.294958,0.6394124
C0V680,仁武,2020-11-05,22.701083,120.347722,0.6302975
C0V690,鼓山,2020-11-05,22.623325,120.275575,0.5774622
C0V700,三民,2020-11-05,22.645017,120.311233,0.5774622
C0V710,苓雅,2020-11-05,22.622742,120.330669,0.5774622
C0V720,林園,2020-11-05,22.507747,120.394511,0.5774622
C0V730,大寮,2020-11-05,22.605614,120.395717,0.28567362
C0V740,旗山,2020-11-05,22.888614,120.483597,0.95171416
C0V750,路竹,2020-11-05,22.854997,120.259439,0.6963646
C0V760,橋頭,2020-11-05,22.757806,120.30575,0.6411979
C0V770,大社,2020-11-05,22.730306,120.346639,0.6302975
C0V790,萬山,2020-11-05,22.905944,120.688056,0.47215632
C0V800,六龜,2020-11-05,22.997889,120.633583,0.29752076
C0V810,左營,2020-11-05,22.67491,120.28491,0.6300717
C0V820,小林,2020-11-05,23.148408,120.63325,0.4767922
C0V840,鳳鼻頭,2020-11-05,22.5083,120.3591,0.5800257
C0V850,蚵仔寮,2020-11-05,22.7256,120.2527,0.6290344
C0V860,南寮,2020-11-05,22.7616,120.2339,0.618775
C0V870,文安,2020-11-05,22.8025,120.2164,0.6187759
C0V880,興達,2020-11-05,22.8778,120.2127,0.7196515
C0V890,前鎮,2020-11-05,22.5718,120.3117,0.5800255
C0V900,汕尾,2020-11-05,22.4782,120.4151,0.5906088
C0X050,東河,2020-11-05,23.296598,120.385608,0.9571952
C0X060,下營,2020-11-05,23.22695,120.256261,0.88697207
C0X080,佳里,2020-11-05,23.173039,120.145086,0.86493206
C0X100,臺南市北區,2020-11-05,23.010394,120.194228,0.7136341
C0X110,臺南市南區,2020-11-05,22.961189,120.188378,0.7156763
C0X120,麻豆,2020-11-05,23.183289,120.248611,0.86523014
C0X130,官田,2020-11-05,23.193217,120.315422,0.88860226
C0X140,西港,2020-11-05,23.125608,120.203108,0.860564
C0X150,安定,2020-11-05,23.102614,120.227839,0.6841246
C0X160,仁德,2020-11-05,22.968258,120.257689,0.74262935
C0X170,關廟,2020-11-05,22.963017,120.327797,0.741343
C0X180,山上,2020-11-05,23.0757,120.363253,0.9405944
C0X190,安平,2020-11-05,22.993161,120.152181,0.7136341
C0X200,左鎮,2020-11-05,23.056758,120.408522,0.93955654
C0X210,白河,2020-11-05,23.347466,120.414427,0.95761234
C0X220,學甲,2020-11-05,23.230367,120.182187,0.86523014
C0X230,鹽水,2020-11-05,23.272621,120.247641,0.88392437
C0X240,關子嶺,2020-11-05,23.331169,120.508025,0.2878864
C0X250,新營,2020-11-05,23.310689,120.316681,0.89028007
C0X260,後壁,2020-11-05,23.366358,120.362326,0.9378707
C0X280,將軍,2020-11-05,23.214999,120.13577,0.86493206
C0X290,北門,2020-11-05,23.267772,120.125481,0.86493206
C0X300,鹿寮,2020-11-05,23.386047,120.477331,0.93563807
C0X310,七股,2020-11-05,23.147289,120.086253,0.79068196
C0X320,柳營,2020-11-05,23.253328,120.375253,0.9571952
C0Z020,明里,2020-11-05,23.208717,121.262342,0.39785936
C0Z061,玉里,2020-11-05,23.3215,121.339656,0.36876258
C0Z070,舞鶴,2020-11-05,23.46811,121.37407,0.8377389
C0Z080,富源,2020-11-05,23.587642,121.378225,0.79770565
C0Z100,東華,2020-11-05,23.89525,121.549833,0.6978232
C0Z150,吉安光華,2020-11-05,23.930925,121.595153,0.722509
C0Z160,鳳林,2020-11-05,23.746114,121.453411,0.7509603
C0Z170,卓溪,2020-11-05,23.3443,121.3029,0.36477983
C0Z180,新城,2020-11-05,24.03946,121.60454,0.75724316
C0Z190,富世,2020-11-05,24.14743,121.6297,0.9333188
C0Z200,萬榮,2020-11-05,23.709219,121.420106,0.58289576
C0Z210,瑞穗,2020-11-05,23.5239,121.39021,0.8895223
C0Z230,和平,2020-11-05,24.30717,121.77007,0.97714543
C0Z270,蕃薯寮,2020-11-05,23.73835,121.540108,0.82401764
C0Z280,德武,2020-11-05,23.47426,121.41071,0.88268244
C0Z300,東里,2020-11-05,23.26853,121.30547,0.36647394
C0Z310,清水斷崖,2020-11-05,24.218294,121.689142,0.9658221
C0Z330,安通山,2020-11-05,23.290728,121.348528,0.65016544
CAG100,王功漁港,2020-11-05,23.96824,120.32586,0.9268912
CAJ050,海口故事園區,2020-11-05,23.57543,120.14121,0.8788697
CAL110,布袋國中,2020-11-05,23.35893,120.18026,0.87898755
CAN130,水試所海水繁養殖中心,2020-11-05,23.120802,120.07968,0.8468902
CAN140,六官養殖協會,2020-11-05,23.22881,120.29962,0.8877659
CAQ030,崎峰國小,2020-11-05,22.42565,120.49521,0.5088348
E2K600,四湖植物園,2020-11-05,23.676986,120.163433,0.95427996
E2P980,林試六龜中心,2020-11-05,22.991703,120.645722,0.29166916
E2S960,林試太麻里2,2020-11-05,22.598014,120.989761,0.36630547
E2S980,林試太麻里1,2020-11-05,22.598922,120.980044,0.41957742
G2F820,農業試驗所,2020-11-05,24.031261,120.688133,0.8296476
G2L020,農試嘉義分所,2020-11-05,23.485028,120.473806,0.9403027
G2M350,農試溪口農場,2020-11-05,23.58565,120.408111,0.9684438
G2P820,農試鳳山分所,2020-11-05,22.646611,120.356083,0.5706871
K2E360,苗栗農改,2020-11-05,24.495722,120.829111,0.5383182
K2E710,苗改生物防治研究中心,2020-11-05,24.422861,120.871833,0.5503384
K2F750,種苗繁殖,2020-11-05,24.225972,120.800917,0.7098541
U2HA50,臺大竹山,2020-11-05,23.756972,120.681556,0.92669636
V2K620,麥寮合作社,2020-11-05,23.753836,120.294783,0.9600314
