站號,站名,日期,lat,lon,BlastGRU-TW
466920,臺北,2020-05-08,25.0377,121.5149,0.69885767
466940,基隆,2020-05-08,25.1333,121.7405,0.457971
466990,花蓮,2020-05-08,23.9751,121.6133,0.3392646
467050,新屋,2020-05-08,25.0067,121.0475,0.5933065
467080,宜蘭,2020-05-08,24.764,121.7565,0.9147412
467270,田中,2020-05-08,23.8738,120.5813,0.8095858
467300,東吉島,2020-05-08,23.2569,119.6675,0.82373476
467350,澎湖,2020-05-08,23.5655,119.5631,0.8402614
467410,臺南,2020-05-08,22.9932,120.2048,0.87406987
467420,永康,2020-05-08,23.0384,120.2367,0.87663245
467441,高雄,2020-05-08,22.7304,120.3125,0.8811218
467480,嘉義,2020-05-08,23.4959,120.4329,0.9425052
467490,臺中,2020-05-08,24.1457,120.6841,0.97524923
467540,大武,2020-05-08,22.3557,120.9038,0.13635813
467571,新竹,2020-05-08,24.8279,121.0142,0.47644728
467590,恆春,2020-05-08,22.0039,120.7463,0.1724707
467610,成功,2020-05-08,23.0975,121.3734,0.9238635
467620,蘭嶼,2020-05-08,22.037,121.5583,0.9023498
467660,臺東,2020-05-08,22.7522,121.1546,0.7478274
467790,墾丁雷達站,2020-05-08,21.9482,120.808,0.17584786
C0A520,山佳,2020-05-08,24.9749,121.402,0.59932196
C0A530,坪林,2020-05-08,24.9382,121.7097,0.8395417
C0A540,四堵,2020-05-08,24.8926,121.7457,0.7365413
C0A550,泰平,2020-05-08,24.9712,121.8237,0.84705436
C0A560,福山,2020-05-08,24.7762,121.5028,0.89156055
C0A570,桶後,2020-05-08,24.8482,121.598,0.7202089
C0A640,石碇,2020-05-08,24.994,121.6629,0.84153366
C0A650,火燒寮,2020-05-08,25.0027,121.7429,0.81678706
C0A660,瑞芳,2020-05-08,25.1132,121.8011,0.8489121
C0A770,科教館,2020-05-08,25.0964,121.5165,0.6065088
C0A860,大坪,2020-05-08,25.1659,121.633,0.52639896
C0A880,福隆,2020-05-08,25.0178,121.9421,0.8366406
C0A890,雙溪,2020-05-08,25.036,121.8642,0.45192793
C0A920,富貴角,2020-05-08,25.2638,121.5653,0.42514488
C0A931,三和,2020-05-08,25.2332,121.5952,0.82209074
C0A940,金山,2020-05-08,25.2236,121.644,0.4227912
C0A950,鼻頭角,2020-05-08,25.129,121.9234,0.83164525
C0A970,三貂角,2020-05-08,25.0076,122.0021,0.8765496
C0A980,社子,2020-05-08,25.1095,121.4697,0.6088754
C0A9C0,天母,2020-05-08,25.1175,121.5372,0.6019306
C0A9F0,內湖,2020-05-08,25.0794,121.5755,0.69885767
C0AC60,三峽,2020-05-08,24.939,121.3697,0.698503
C0AC70,信義,2020-05-08,25.0378,121.5646,0.69885767
C0AC80,文山,2020-05-08,25.0023,121.5757,0.69992626
C0ACA0,新莊,2020-05-08,25.0515,121.4468,0.52725
C0AD00,三芝,2020-05-08,25.2581,121.5019,0.4061269
C0AD10,八里,2020-05-08,25.1502,121.4039,0.5215481
C0AD30,蘆洲,2020-05-08,25.0866,121.4723,0.6065088
C0AD40,土城,2020-05-08,24.9732,121.4452,0.60414064
C0AD50,鶯歌,2020-05-08,24.9515,121.3463,0.5401582
C0AG80,中和,2020-05-08,24.9916,121.4918,0.69885767
C0AH00,汐止,2020-05-08,25.0669,121.6588,0.45820183
C0AH10,永和,2020-05-08,25.0113,121.5081,0.69724035
C0AH40,平等,2020-05-08,25.1291,121.5771,0.66313535
C0AH50,林口,2020-05-08,25.0722,121.3808,0.65714145
C0AH70,松山,2020-05-08,25.0487,121.5504,0.69885767
C0AH80,深坑,2020-05-08,25.0027,121.6283,0.70081216
C0AI00,五股,2020-05-08,25.0744,121.4273,0.35226253
C0AI10,屈尺,2020-05-08,24.9218,121.5447,0.69992626
C0AI20,白沙灣,2020-05-08,25.2831,121.5191,0.43132526
C0AI30,三重,2020-05-08,25.0573,121.5006,0.6065084
C0AI40,石牌,2020-05-08,25.1156,121.5131,0.60414064
C0AJ10,澳底,2020-05-08,25.0571,121.9273,0.82753915
C0AJ20,野柳,2020-05-08,25.207,121.69,0.45820183
C0AJ30,淡水觀海,2020-05-08,25.1846,121.4086,0.52687836
C0AJ40,石門,2020-05-08,25.2737,121.6012,0.3642575
C0AJ50,水湳洞,2020-05-08,25.1237,121.8622,0.45820183
C0AJ60,六塊厝,2020-05-08,25.24,121.4481,0.52687836
C0AJ70,田寮,2020-05-08,25.2698,121.4886,0.4352744
C0AJ80,板橋,2020-05-08,25.0107,121.4489,0.60414064
C0B010,七堵,2020-05-08,25.0948,121.7171,0.456101
C0B020,基隆嶼,2020-05-08,25.1914,121.7839,0.45820183
C0B040,大武崙,2020-05-08,25.1667,121.707,0.456101
C0B050,八斗子,2020-05-08,25.1448,121.7917,0.45772967
C0B060,暖暖,2020-05-08,25.0957,121.7403,0.44327465
C0C460,復興,2020-05-08,24.8202,121.3523,0.72034276
C0C480,桃園,2020-05-08,24.9924,121.3232,0.4445373
C0C490,八德,2020-05-08,24.9287,121.2833,0.5776746
C0C590,觀音,2020-05-08,25.0271,121.1533,0.4981808
C0C620,蘆竹,2020-05-08,25.0843,121.2658,0.51463556
C0C630,大溪,2020-05-08,24.8829,121.2655,0.55379325
C0C650,平鎮,2020-05-08,24.8975,121.2146,0.4173879
C0C660,楊梅,2020-05-08,24.9124,121.143,0.38923213
C0C670,龍潭,2020-05-08,24.8701,121.2214,0.521912
C0C680,龜山,2020-05-08,25.0285,121.3866,0.78466326
C0C700,中壢,2020-05-08,24.9777,121.2564,0.42208743
C0C710,大溪永福,2020-05-08,24.8929,121.325,0.47536668
C0C720,竹圍,2020-05-08,25.1127,121.2398,0.52368873
C0C730,中大臨海站,2020-05-08,24.9661,121.0086,0.59280545
C0C740,觀音工業區,2020-05-08,25.0648,121.1149,0.39106452
C0C750,新興坑尾,2020-05-08,25.0061,121.0971,0.36142212
C0D430,峨眉,2020-05-08,24.6905,121.0172,0.58735305
C0D480,打鐵坑,2020-05-08,24.8497,121.1508,0.6651633
C0D540,橫山,2020-05-08,24.7112,121.1169,0.694541
C0D560,竹東,2020-05-08,24.7671,121.0579,0.54635316
C0D580,寶山,2020-05-08,24.735,121.0252,0.7396591
C0D590,新豐,2020-05-08,24.8707,120.9772,0.80718327
C0D650,湖口,2020-05-08,24.9048,121.0436,0.59399927
C0D660,新竹市東區,2020-05-08,24.7987,120.9869,0.47052783
C0D670,海天一線,2020-05-08,24.832,120.9144,0.5111093
C0D680,香山濕地,2020-05-08,24.7836,120.915,0.5105148
C0D690,外湖,2020-05-08,24.9177,120.9687,0.59280545
C0D700,關西,2020-05-08,24.7977,121.1732,0.47038412
C0E420,竹南,2020-05-08,24.709,120.8889,0.50145334
C0E430,南庄,2020-05-08,24.6018,121.0002,0.75636286
C0E520,大湖,2020-05-08,24.4149,120.8709,0.72801954
C0E540,後龍,2020-05-08,24.6065,120.7839,0.9664234
C0E550,明德,2020-05-08,24.5835,120.8854,0.9137352
C0E590,通霄,2020-05-08,24.4719,120.7046,0.9651997
C0E730,頭份,2020-05-08,24.6882,120.9122,0.50145334
C0E740,造橋,2020-05-08,24.6371,120.8648,0.91133374
C0E750,苗栗,2020-05-08,24.5646,120.8246,0.9649977
C0E780,銅鑼,2020-05-08,24.4897,120.7909,0.9298152
C0E791,卓蘭,2020-05-08,24.3126,120.8244,0.9410445
C0E810,西湖,2020-05-08,24.5629,120.7485,0.96559745
C0E820,獅潭,2020-05-08,24.5391,120.92,0.933478
C0E830,苑裡,2020-05-08,24.4397,120.6531,0.9715002
C0E850,大河,2020-05-08,24.6181,120.9486,0.9111041
C0E870,高鐵苗栗,2020-05-08,24.6073,120.8261,0.9661666
C0E910,海埔,2020-05-08,24.6488,120.7724,0.92192537
C0E920,通霄漁港,2020-05-08,24.4986,120.6739,0.9647716
C0E930,龍鳳,2020-05-08,24.7,120.8591,0.9133718
C0F000,大肚,2020-05-08,24.153,120.5721,0.82203
C0F0B0,石岡,2020-05-08,24.2761,120.7776,0.85042405
C0F850,東勢,2020-05-08,24.2464,120.833,0.93389624
C0F930,大甲,2020-05-08,24.3477,120.6404,0.97453046
C0F970,大坑,2020-05-08,24.1731,120.7223,0.97441214
C0F9A0,中竹林,2020-05-08,24.1036,120.7511,0.83342725
C0F9I0,神岡,2020-05-08,24.2725,120.6583,0.93715847
C0F9K0,大安,2020-05-08,24.3451,120.588,0.97288734
C0F9L0,后里,2020-05-08,24.3104,120.7297,0.93504584
C0F9M0,豐原,2020-05-08,24.2543,120.7207,0.9362625
C0F9N0,大里,2020-05-08,24.0925,120.7014,0.97275305
C0F9O0,潭子,2020-05-08,24.2131,120.7039,0.93440354
C0F9P0,清水,2020-05-08,24.3123,120.5622,0.9721639
C0F9Q0,外埔,2020-05-08,24.3478,120.7057,0.93872577
C0F9R0,龍井,2020-05-08,24.1845,120.529,0.96946347
C0F9S0,烏日,2020-05-08,24.1071,120.6241,0.90431744
C0F9T0,西屯,2020-05-08,24.1795,120.6413,0.9736793
C0F9U0,南屯,2020-05-08,24.137,120.638,0.97275305
C0F9X0,大雅(中科園區),2020-05-08,24.2153,120.6244,0.9732805
C0FA10,松柏,2020-05-08,24.4291,120.6175,0.97074807
C0FA20,溫寮,2020-05-08,24.3722,120.5831,0.97074807
C0FA30,梧棲,2020-05-08,24.256,120.5234,0.96946347
C0FA40,臺中電廠,2020-05-08,24.2146,120.4907,0.96946347
C0FA50,霧峰,2020-05-08,24.0419,120.6995,0.97322685
C0G620,芬園,2020-05-08,24.0157,120.6213,0.8873262
C0G640,鹿港,2020-05-08,24.0753,120.4305,0.88416815
C0G650,員林,2020-05-08,23.9465,120.5856,0.90076363
C0G660,溪湖,2020-05-08,23.9484,120.4791,0.88223976
C0G720,溪州,2020-05-08,23.8516,120.4991,0.7495102
C0G730,二林,2020-05-08,23.9033,120.3761,0.8834065
C0G740,大城,2020-05-08,23.8525,120.3209,0.9287755
C0G770,福興,2020-05-08,24.0413,120.4377,0.8841682
C0G780,秀水,2020-05-08,24.0341,120.5039,0.89256066
C0G800,埔鹽,2020-05-08,24.0004,120.4317,0.88416815
C0G810,埔心,2020-05-08,23.9476,120.5255,0.8801719
C0G820,田尾,2020-05-08,23.9017,120.5094,0.87785167
C0G830,埤頭,2020-05-08,23.866,120.4528,0.76283556
C0G840,北斗,2020-05-08,23.8776,120.5142,0.87785167
C0G860,社頭,2020-05-08,23.8976,120.5862,0.8988188
C0G870,芳苑,2020-05-08,23.9223,120.32,0.928593
C0G880,二水,2020-05-08,23.8107,120.6173,0.76801693
C0G890,伸港,2020-05-08,24.1489,120.4844,0.96429235
C0G900,線西,2020-05-08,24.1434,120.4435,0.9632138
C0G910,花壇,2020-05-08,24.0321,120.5495,0.8897957
C0G920,永靖,2020-05-08,23.9247,120.5475,0.87785167
C0G940,竹塘,2020-05-08,23.8483,120.3868,0.80321586
C0G950,防潮門,2020-05-08,24.1835,120.4871,0.9690106
C0G960,福寶,2020-05-08,24.0443,120.3814,0.885694
C0G970,三豐,2020-05-08,23.882,120.2895,0.928593
C0H890,埔里,2020-05-08,23.9722,120.9524,0.9562593
C0H950,中寮,2020-05-08,23.8844,120.7664,0.66361797
C0H960,草屯,2020-05-08,23.9737,120.6809,0.7630355
C0I110,竹山,2020-05-08,23.7612,120.6882,0.69577605
C0I360,水里,2020-05-08,23.8126,120.8498,0.63801306
C0I380,集集,2020-05-08,23.8282,120.8015,0.65472716
C0I410,名間,2020-05-08,23.8371,120.7014,0.7510011
C0I420,國姓,2020-05-08,24.0378,120.8551,0.8617577
C0I460,南投,2020-05-08,23.9115,120.6873,0.74558634
C0K250,崙背,2020-05-08,23.7555,120.3189,0.93391985
C0K280,四湖,2020-05-08,23.6304,120.2271,0.92967224
C0K291,宜梧,2020-05-08,23.5363,120.1693,0.94392765
C0K330,虎尾,2020-05-08,23.7192,120.442,0.8134935
C0K390,土庫,2020-05-08,23.679,120.3956,0.81879234
C0K400,斗六,2020-05-08,23.7206,120.5411,0.8112428
C0K410,北港,2020-05-08,23.574,120.2928,0.9524735
C0K420,西螺,2020-05-08,23.8004,120.4674,0.75941265
C0K430,褒忠,2020-05-08,23.6909,120.3036,0.9414346
C0K440,二崙,2020-05-08,23.7728,120.4089,0.7975629
C0K450,大埤,2020-05-08,23.6461,120.4315,0.82309306
C0K460,斗南,2020-05-08,23.6787,120.4784,0.820887
C0K470,林內,2020-05-08,23.7487,120.6096,0.8053242
C0K480,莿桐,2020-05-08,23.7612,120.5024,0.7524578
C0K500,元長,2020-05-08,23.6498,120.315,0.9430142
C0K510,水林,2020-05-08,23.5729,120.246,0.9419193
C0K530,臺西,2020-05-08,23.7015,120.1976,0.9287844
C0K550,蔦松,2020-05-08,23.5143,120.2297,0.9447336
C0K560,棋山,2020-05-08,23.6865,120.6034,0.82020783
C0K580,高鐵雲林,2020-05-08,23.7375,120.4179,0.81879234
C0K590,雲林東勢,2020-05-08,23.6742,120.2557,0.9414346
C0K600,箔子寮,2020-05-08,23.6197,120.14,0.941088
C0M410,馬頭山,2020-05-08,23.3244,120.582,0.74960166
C0M520,東後寮,2020-05-08,23.3699,120.2481,0.89779866
C0M640,中埔,2020-05-08,23.4254,120.5229,0.795877
C0M650,朴子,2020-05-08,23.4346,120.239,0.9440473
C0M660,溪口,2020-05-08,23.6041,120.4036,0.94517046
C0M670,大林,2020-05-08,23.6006,120.4584,0.94597197
C0M680,太保,2020-05-08,23.4551,120.3315,0.95578325
C0M690,水上,2020-05-08,23.4197,120.3889,0.94487655
C0M700,竹崎,2020-05-08,23.5262,120.5555,0.7304708
C0M710,東石,2020-05-08,23.4589,120.1539,0.9447336
C0M720,番路,2020-05-08,23.4647,120.5542,0.72856337
C0M730,嘉義市東區,2020-05-08,23.4577,120.4605,0.9435225
C0M740,六腳,2020-05-08,23.4929,120.2906,0.95513874
C0M750,布袋,2020-05-08,23.3809,120.1678,0.9440473
C0M760,民雄,2020-05-08,23.5518,120.4285,0.94436026
C0M770,嘉義梅山,2020-05-08,23.5854,120.5556,0.7927089
C0M780,鹿草,2020-05-08,23.4113,120.3084,0.9558346
C0M790,新港,2020-05-08,23.5533,120.3457,0.9529784
C0M800,茶山,2020-05-08,23.2991,120.6648,0.8932069
C0M880,好美里,2020-05-08,23.3364,120.138,0.8858854
C0N010,鯤鯓國小,2020-05-08,23.1879,120.0889,0.9180224
C0N020,城西,2020-05-08,23.0568,120.0956,0.86410254
C0N030,四草,2020-05-08,23.0235,120.1116,0.8750482
C0N040,蘆竹溝,2020-05-08,23.2344,120.0961,0.9180224
C0N050,蚵寮,2020-05-08,23.301,120.1104,0.9180224
C0O810,曾文,2020-05-08,23.2197,120.4973,0.949125
C0O830,北寮,2020-05-08,23.0796,120.495,0.6734072
C0O840,王爺宮,2020-05-08,23.2221,120.4009,0.949125
C0O860,大內,2020-05-08,23.1188,120.3608,0.85470045
C0O900,善化,2020-05-08,23.1129,120.2972,0.88000643
C0O930,玉井,2020-05-08,23.126,120.4605,0.95149726
C0O950,安南,2020-05-08,23.0767,120.1449,0.8418175
C0O960,崎頂,2020-05-08,22.9595,120.3693,0.70356745
C0O970,虎頭埤,2020-05-08,23.0214,120.3479,0.8958919
C0O980,新市,2020-05-08,23.0616,120.2982,0.88000643
C0O990,媽廟,2020-05-08,22.9917,120.2935,0.8807843
C0R150,三地門,2020-05-08,22.7099,120.6399,0.8142306
C0R160,鹽埔,2020-05-08,22.7396,120.5308,0.7884428
C0R170,屏東,2020-05-08,22.6603,120.4941,0.8627618
C0R190,赤山,2020-05-08,22.5923,120.6143,0.8049811
C0R220,潮州,2020-05-08,22.5344,120.54,0.7248942
C0R240,來義,2020-05-08,22.5273,120.6251,0.7031768
C0R260,春日,2020-05-08,22.3704,120.6283,0.70412046
C0R270,琉球嶼,2020-05-08,22.3322,120.3622,0.70498824
C0R280,檳榔,2020-05-08,22.0761,120.8368,0.15971978
C0R320,車城,2020-05-08,22.0744,120.7162,0.17030783
C0R341,牡丹,2020-05-08,22.13,120.7926,0.5746474
C0R350,貓鼻頭,2020-05-08,21.9218,120.7358,0.17363551
C0R470,高樹,2020-05-08,22.8264,120.6008,0.83827215
C0R480,長治,2020-05-08,22.6931,120.5426,0.787627
C0R490,九如,2020-05-08,22.7405,120.4905,0.8595849
C0R520,崁頂,2020-05-08,22.5148,120.5069,0.818713
C0R540,佳冬,2020-05-08,22.4195,120.5524,0.82087386
C0R550,新埤,2020-05-08,22.4679,120.5829,0.8047785
C0R560,新園,2020-05-08,22.5434,120.4616,0.818713
C0R570,麟洛,2020-05-08,22.6508,120.5272,0.8595848
C0R580,南州,2020-05-08,22.4859,120.5027,0.82087386
C0R590,里港,2020-05-08,22.7792,120.4946,0.79432195
C0R620,墾雷,2020-05-08,21.9008,120.8553,0.17363562
C0R640,東港,2020-05-08,22.4625,120.4407,0.88421154
C0R650,竹田,2020-05-08,22.5849,120.5434,0.80762744
C0R660,枋寮,2020-05-08,22.3677,120.5906,0.7316606
C0R670,楓港,2020-05-08,22.1901,120.6922,0.60798705
C0R680,佳樂水,2020-05-08,21.9936,120.8616,0.17207497
C0R690,墾丁,2020-05-08,21.9668,120.8103,0.15706447
C0R700,枋山,2020-05-08,22.2468,120.6611,0.60798705
C0R710,龍磐,2020-05-08,21.9317,120.8389,0.18017691
C0R720,旭海,2020-05-08,22.2054,120.8876,0.35511303
C0R730,大坪頂,2020-05-08,22.0246,120.6936,0.16251944
C0R740,獅子,2020-05-08,22.2016,120.7053,0.5984128
C0R760,南仁湖,2020-05-08,22.0847,120.8634,0.121890225
C0R770,保力,2020-05-08,22.0711,120.7641,0.17858733
C0R780,滿州,2020-05-08,22.0244,120.8399,0.1747729
C0R790,九棚,2020-05-08,22.142,120.8893,0.36017013
C0R800,丹路,2020-05-08,22.2045,120.751,0.5734929
C0R810,內獅,2020-05-08,22.3051,120.643,0.7037826
C0R830,高士,2020-05-08,22.1218,120.8368,0.107993506
C0R850,林邊,2020-05-08,22.4634,120.5339,0.818713
C0R860,鼻頭,2020-05-08,22.1043,120.8979,0.26050913
C0R870,興海,2020-05-08,21.9752,120.8439,0.172075
C0R880,後壁湖,2020-05-08,21.9457,120.7457,0.1689401
C0R890,山海,2020-05-08,21.9878,120.7091,0.17030783
C0R900,竹坑,2020-05-08,22.1385,120.7022,0.6470627
C0R910,下寮,2020-05-08,22.3929,120.5548,0.82087386
C0R920,塭仔,2020-05-08,22.4169,120.5197,0.8218893
C0R930,萬丹,2020-05-08,22.5885,120.4851,0.80762744
C0R940,加祿堂,2020-05-08,22.3363,120.6217,0.7037826
C0S710,鹿野,2020-05-08,22.9177,121.123,0.9283663
C0S730,綠島,2020-05-08,22.6672,121.4753,0.9454634
C0S740,池上,2020-05-08,23.1196,121.2095,0.9534389
C0S770,大溪山,2020-05-08,22.4785,120.9433,0.53381336
C0S790,金崙,2020-05-08,22.5381,120.9669,0.56287205
C0S810,東河,2020-05-08,22.9727,121.304,0.94067395
C0S830,長濱,2020-05-08,23.2868,121.412,0.94057363
C0S840,南田,2020-05-08,22.2797,120.8892,0.2457108
C0S890,關山,2020-05-08,23.0395,121.175,0.9554578
C0S900,蘭嶼高中,2020-05-08,22.0491,121.5121,0.6928277
C0S910,蘭嶼燈塔,2020-05-08,22.0812,121.5031,0.82989144
C0S920,金峰嘉蘭,2020-05-08,22.5948,120.9608,0.53614104
C0S930,延平,2020-05-08,22.9026,121.0841,0.9541604
C0S940,石寧山,2020-05-08,23.2238,121.4066,0.96470946
C0S950,七塊厝,2020-05-08,22.9545,121.2299,0.9175517
C0S960,香蘭,2020-05-08,22.5876,120.9934,0.3770214
C0S970,加津林,2020-05-08,22.4162,120.9269,0.1465916
C0S990,山豬窟,2020-05-08,22.3186,120.8574,0.25375554
C0SA00,歷坵,2020-05-08,22.521,120.8919,0.5302548
C0SA10,檳榔四格山,2020-05-08,22.81,121.1093,0.61592025
C0SA30,都歷,2020-05-08,23.0203,121.3236,0.94214153
C0SA40,瑞和,2020-05-08,22.9744,121.1567,0.9541707
C0SA60,知本（水試所）,2020-05-08,22.7024,121.0828,0.731538
C0SA80,土,2020-05-08,22.4531,120.8876,0.57008356
C0SA90,達仁林場,2020-05-08,22.2643,120.824,0.29605862
C0T870,鯉魚潭,2020-05-08,23.9356,121.5089,0.4777459
C0T900,西林,2020-05-08,23.8119,121.4415,0.5664054
C0T960,光復,2020-05-08,23.6607,121.425,0.34225407
C0T9A0,月眉山,2020-05-08,23.8099,121.5398,0.5090084
C0T9D0,和中,2020-05-08,24.2668,121.741,0.9620373
C0T9E0,大坑,2020-05-08,23.8806,121.582,0.58630115
C0T9F0,水璉,2020-05-08,23.7971,121.5425,0.60769254
C0T9I0,豐濱,2020-05-08,23.5839,121.5148,0.3328791
C0T9M0,靜浦,2020-05-08,23.4552,121.495,0.18657823
C0T9N0,富里,2020-05-08,23.1716,121.2494,0.9222579
C0U600,礁溪,2020-05-08,24.8175,121.7656,0.91294616
C0U650,玉蘭,2020-05-08,24.6753,121.5871,0.7961923
C0U750,龜山島,2020-05-08,24.8417,121.9531,0.9527756
C0U760,東澳,2020-05-08,24.522,121.8332,0.9752648
C0U770,南澳,2020-05-08,24.4493,121.8102,0.9602252
C0U780,五結,2020-05-08,24.6864,121.7979,0.8167669
C0U860,頭城,2020-05-08,24.8532,121.8308,0.9147412
C0U870,大礁溪,2020-05-08,24.791,121.675,0.8507145
C0U880,北關,2020-05-08,24.9072,121.8734,0.68802506
C0U890,三星,2020-05-08,24.6681,121.653,0.88941914
C0U900,內城,2020-05-08,24.7181,121.6877,0.9068485
C0U910,冬山,2020-05-08,24.6337,121.7937,0.8167669
C0U940,羅東,2020-05-08,24.6818,121.7493,0.82369035
C0U970,大福,2020-05-08,24.8006,121.8139,0.91631764
C0U990,員山,2020-05-08,24.7444,121.7225,0.82369035
C0UA00,土場,2020-05-08,24.5765,121.4953,0.8482731
C0UA80,大溪漁港,2020-05-08,24.9418,121.903,0.91294616
C0UA90,石城,2020-05-08,24.9804,121.9512,0.8574857
C0UB00,淡江大學蘭陽校園,2020-05-08,24.8232,121.7304,0.79097533
C0UB10,蘇澳,2020-05-08,24.5969,121.8571,0.9209843
C0UB20,壯圍,2020-05-08,24.7359,121.8163,0.80834234
C0V250,甲仙,2020-05-08,23.0801,120.5918,0.67046016
C0V260,月眉,2020-05-08,22.971,120.5399,0.7114222
C0V310,美濃,2020-05-08,22.8987,120.5192,0.9067528
C0V350,溪埔,2020-05-08,22.7386,120.4468,0.87382525
C0V360,內門,2020-05-08,22.9755,120.4668,0.90684223
C0V370,古亭坑,2020-05-08,22.8932,120.4019,0.8944929
C0V400,阿公店,2020-05-08,22.8042,120.3555,0.8716772
C0V440,鳳山,2020-05-08,22.6467,120.3561,0.881506
C0V450,鳳森,2020-05-08,22.5451,120.3926,0.81680435
C0V490,新興,2020-05-08,22.6274,120.2988,0.88330656
C0V530,阿蓮,2020-05-08,22.8832,120.3275,0.8897694
C0V610,梓官,2020-05-08,22.7606,120.2672,0.89166874
C0V620,永安,2020-05-08,22.8231,120.2369,0.8832254
C0V630,茄萣,2020-05-08,22.9066,120.1826,0.87486863
C0V640,湖內,2020-05-08,22.8871,120.2445,0.87262845
C0V650,彌陀,2020-05-08,22.7838,120.2464,0.8832254
C0V660,岡山,2020-05-08,22.7971,120.295,0.89166874
C0V680,仁武,2020-05-08,22.7011,120.3477,0.8802852
C0V690,鼓山,2020-05-08,22.6233,120.2756,0.88330656
C0V700,三民,2020-05-08,22.645,120.3112,0.88330656
C0V710,苓雅,2020-05-08,22.6227,120.3307,0.88330656
C0V720,林園,2020-05-08,22.5077,120.3945,0.88330656
C0V730,大寮,2020-05-08,22.6056,120.3957,0.828685
C0V740,旗山,2020-05-08,22.8886,120.4836,0.9065165
C0V750,路竹,2020-05-08,22.855,120.2594,0.8983727
C0V760,橋頭,2020-05-08,22.7578,120.3058,0.889428
C0V770,大社,2020-05-08,22.7303,120.3466,0.8802852
C0V790,萬山,2020-05-08,22.9059,120.6881,0.89403284
C0V800,六龜,2020-05-08,22.9979,120.6336,0.6992333
C0V810,左營,2020-05-08,22.6749,120.2849,0.8811218
C0V820,小林,2020-05-08,23.1484,120.6333,0.8922408
C0V840,鳳鼻頭,2020-05-08,22.5083,120.3591,0.88421154
C0V850,蚵仔寮,2020-05-08,22.7256,120.2527,0.8825643
C0V860,南寮,2020-05-08,22.7616,120.2339,0.885923
C0V870,文安,2020-05-08,22.8025,120.2164,0.885923
C0V880,興達,2020-05-08,22.8778,120.2127,0.8748686
C0V890,前鎮,2020-05-08,22.5718,120.3117,0.88421154
C0V900,汕尾,2020-05-08,22.4782,120.4151,0.8702216
C0X050,東河,2020-05-08,23.2966,120.3856,0.9562929
C0X060,下營,2020-05-08,23.2269,120.2563,0.90258485
C0X080,佳里,2020-05-08,23.173,120.1451,0.8858854
C0X100,臺南市北區,2020-05-08,23.0104,120.1942,0.87910026
C0X110,臺南市南區,2020-05-08,22.9612,120.1884,0.87663245
C0X120,麻豆,2020-05-08,23.1833,120.2486,0.8856777
C0X130,官田,2020-05-08,23.1932,120.3154,0.9024462
C0X140,西港,2020-05-08,23.1256,120.2031,0.8803699
C0X150,安定,2020-05-08,23.1026,120.2278,0.8655454
C0X160,仁德,2020-05-08,22.9683,120.2577,0.8830049
C0X170,關廟,2020-05-08,22.963,120.3278,0.873787
C0X180,山上,2020-05-08,23.0757,120.3633,0.89969945
C0X190,安平,2020-05-08,22.9932,120.1522,0.87910026
C0X200,左鎮,2020-05-08,23.0568,120.4085,0.90042704
C0X210,白河,2020-05-08,23.3475,120.4144,0.9563356
C0X220,學甲,2020-05-08,23.2304,120.1822,0.8856777
C0X230,鹽水,2020-05-08,23.2726,120.2476,0.89740026
C0X240,關子嶺,2020-05-08,23.3312,120.508,0.77796865
C0X250,新營,2020-05-08,23.3107,120.3167,0.90827715
C0X260,後壁,2020-05-08,23.3664,120.3623,0.89739025
C0X280,將軍,2020-05-08,23.215,120.1358,0.8858854
C0X290,北門,2020-05-08,23.2678,120.1255,0.8858854
C0X300,鹿寮,2020-05-08,23.386,120.4773,0.8061765
C0X310,七股,2020-05-08,23.1473,120.0863,0.8918932
C0X320,柳營,2020-05-08,23.2533,120.3753,0.9563104
C0Z020,明里,2020-05-08,23.2087,121.2623,0.94845116
C0Z061,玉里,2020-05-08,23.3215,121.3397,0.9603977
C0Z070,舞鶴,2020-05-08,23.4681,121.3741,0.46132874
C0Z080,富源,2020-05-08,23.5876,121.3782,0.44244015
C0Z100,東華,2020-05-08,23.8953,121.5498,0.16146791
C0Z150,吉安光華,2020-05-08,23.9309,121.5952,0.1206398
C0Z160,鳳林,2020-05-08,23.7461,121.4534,0.2982802
C0Z170,卓溪,2020-05-08,23.3443,121.3029,0.9598986
C0Z180,新城,2020-05-08,24.0395,121.6045,0.38008872
C0Z190,富世,2020-05-08,24.1474,121.6297,0.95053214
C0Z200,萬榮,2020-05-08,23.7092,121.4201,0.4777459
C0Z210,瑞穗,2020-05-08,23.5239,121.3902,0.27347177
C0Z230,和平,2020-05-08,24.3072,121.7701,0.9620373
C0Z270,蕃薯寮,2020-05-08,23.7384,121.5401,0.22046453
C0Z280,德武,2020-05-08,23.4743,121.4107,0.32556716
C0Z300,東里,2020-05-08,23.2685,121.3055,0.9606711
C0Z310,清水斷崖,2020-05-08,24.2183,121.6891,0.9677024
C0Z330,安通山,2020-05-08,23.2907,121.3485,0.9220111
