站號,站名,日期,lat,lon,BlastGRU-TW
466881,新北,2020-08-21,24.9593,121.52,0.048640992
466900,淡水,2020-08-21,25.164889,121.448906,0.071045764
466920,臺北,2020-08-21,25.037658,121.514853,0.047683865
467441,高雄,2020-08-21,22.7304,120.3125,0.058441915
467480,嘉義,2020-08-21,23.495925,120.432906,0.08035199
467490,臺中,2020-08-21,24.145736,120.684075,0.81078434
C0A530,坪林,2020-08-21,24.938183,121.70975,0.09790031
C0A540,四堵,2020-08-21,24.8926,121.745736,0.056538098
C0A550,泰平,2020-08-21,24.971197,121.823711,0.10750153
C0A890,雙溪,2020-08-21,25.036003,121.864242,0.054929182
C0A920,富貴角,2020-08-21,25.263783,121.565258,0.07871698
C0A931,三和,2020-08-21,25.233153,121.595236,0.11292822
C0AC70,信義,2020-08-21,25.037822,121.564597,0.047683865
C0AC80,文山,2020-08-21,25.00235,121.575728,0.050237328
C0ACA0,新莊,2020-08-21,25.051478,121.446756,0.06340625
C0AH50,林口,2020-08-21,25.072181,121.38084,0.06590566
C0AH70,松山,2020-08-21,25.04871,121.55042,0.047683865
C0AH80,深坑,2020-08-21,25.002703,121.628328,0.050237328
C0AJ60,六塊厝,2020-08-21,25.24,121.4481,0.07023545
C0AJ70,田寮,2020-08-21,25.2698,121.4886,0.071849786
