站號,站名,日期,lat,lon,BlastGRU-TW
466881,新北,2020-03-10,24.9593,121.52,0.020494407
466900,淡水,2020-03-10,25.164889,121.448906,0.008334218
466920,臺北,2020-03-10,25.037658,121.514853,0.021898232
467441,高雄,2020-03-10,22.7304,120.3125,0.28121758
467480,嘉義,2020-03-10,23.495925,120.432906,0.030710274
467490,臺中,2020-03-10,24.145736,120.684075,0.013409506
C0A530,坪林,2020-03-10,24.938183,121.70975,0.0024712794
C0A540,四堵,2020-03-10,24.8926,121.745736,0.013700872
C0A550,泰平,2020-03-10,24.971197,121.823711,0.0009389678
C0A890,雙溪,2020-03-10,25.036003,121.864242,0.009569883
C0A920,富貴角,2020-03-10,25.263783,121.565258,0.007531093
C0A931,三和,2020-03-10,25.233153,121.595236,0.002564636
C0AC70,信義,2020-03-10,25.037822,121.564597,0.021898232
C0AC80,文山,2020-03-10,25.00235,121.575728,0.018255338
C0ACA0,新莊,2020-03-10,25.051478,121.446756,0.009412372
C0AH50,林口,2020-03-10,25.072181,121.38084,0.013146828
C0AH70,松山,2020-03-10,25.04871,121.55042,0.021898232
C0AH80,深坑,2020-03-10,25.002703,121.628328,0.018255338
C0AJ60,六塊厝,2020-03-10,25.24,121.4481,0.008108482
C0AJ70,田寮,2020-03-10,25.2698,121.4886,0.008821781
