站號,站名,日期,lat,lon,BlastGRU-TW
12J990,口湖工作站,2020-05-31,23.589978,120.180394,0.008359173
12Q970,東港工作站,2020-05-31,22.479997,120.466058,0.0048202705
12Q980,恆春工作站,2020-05-31,22.079678,120.714425,0.014353266
466881,新北,2020-05-31,24.9593,121.52,0.011467353
466900,淡水,2020-05-31,25.164889,121.448906,0.0152344145
466920,臺北,2020-05-31,25.037658,121.514853,0.010457514
466940,基隆,2020-05-31,25.133314,121.740475,0.0132824145
466990,花蓮,2020-05-31,23.975128,121.613275,0.012221902
467050,新屋,2020-05-31,25.006744,121.047486,0.0047651753
467060,蘇澳,2020-05-31,24.596736,121.857372,0.010233073
467080,宜蘭,2020-05-31,24.763975,121.756528,0.018162517
467270,田中,2020-05-31,23.873803,120.581286,0.011342738
467300,東吉島,2020-05-31,23.25695,119.667467,0.0046295337
467350,澎湖,2020-05-31,23.565503,119.563094,0.008504912
467410,臺南,2020-05-31,22.993239,120.204772,0.014057221
467420,永康,2020-05-31,23.038386,120.2367,0.013307749
467441,高雄,2020-05-31,22.7304,120.3125,0.004857902
467480,嘉義,2020-05-31,23.495925,120.432906,0.0061779125
467490,臺中,2020-05-31,24.145736,120.684075,0.0053274957
467540,大武,2020-05-31,22.355675,120.903789,0.0076365746
467571,新竹,2020-05-31,24.827853,121.014219,0.0046415837
467590,恆春,2020-05-31,22.003897,120.746339,0.01666622
467610,成功,2020-05-31,23.097486,121.373428,0.005386366
467620,蘭嶼,2020-05-31,22.036969,121.558339,0.9921
467660,臺東,2020-05-31,22.752211,121.154586,0.0057419627
467790,墾丁雷達站,2020-05-31,21.948235,120.808028,0.0199457
72AI40,桃改臺北分場,2020-05-31,24.944503,121.386972,0.011681868
72C440,桃園農改,2020-05-31,24.950944,121.030583,0.004801527
72D680,桃園農改場新埔工作站,2020-05-31,24.834444,121.066111,0.0039778943
72G600,臺中農改,2020-05-31,24.003028,120.534389,0.005710852
72K220,雲林分場,2020-05-31,23.634556,120.477333,0.008462858
72M360,義竹分場,2020-05-31,23.360694,120.279361,0.038173337
72M700,嘉義分場,2020-05-31,23.416869,120.283061,0.0077417116
72N100,臺南農改,2020-05-31,23.0605,120.342194,0.02861875
72N240,七股研究中心,2020-05-31,23.081672,120.062894,0.023728339
72Q010,高雄農改,2020-05-31,22.709333,120.525889,0.009621122
72S200,斑鳩分場,2020-05-31,22.829528,121.077694,0.02955372
72S590,賓朗農改,2020-05-31,22.813889,121.071278,0.10696447
72T250,花蓮農改,2020-05-31,23.975222,121.563889,0.0123557355
72U480,蘭陽分場,2020-05-31,24.686306,121.716583,0.016212909
72V140,旗南農改,2020-05-31,22.857861,120.516667,0.018258486
82A750,文山茶改,2020-05-31,24.955778,121.631222,0.03669475
82C160,茶改場,2020-05-31,24.908472,121.185333,0.011022247
82H840,凍頂茶改,2020-05-31,23.762528,120.7405,0.9957961
82S580,臺東茶改,2020-05-31,22.907694,121.130139,0.0038918767
A2C560,農工中心,2020-05-31,24.985917,121.239833,0.0071128127
A2K360,臺西水試所,2020-05-31,23.717231,120.190522,0.0068283807
A2K570,古坑花卉中心,2020-05-31,23.63353,120.55239,0.010752526
A2K630,臺大雲林校區,2020-05-31,23.730628,120.423903,0.0074334233
A2N290,臺南蘭花園區,2020-05-31,23.340258,120.379661,0.008192857
B2E890,新竹畜試,2020-05-31,24.527806,120.770972,0.0055789812
B2N890,畜試所,2020-05-31,23.058972,120.336406,0.02861875
B2Q810,恆春畜試,2020-05-31,21.945583,120.802167,0.015819995
B2U990,宜蘭畜試,2020-05-31,24.669039,121.832561,0.015354027
C0A520,山佳,2020-05-31,24.974944,121.402008,0.011681868
C0A530,坪林,2020-05-31,24.938183,121.70975,0.9724144
C0A540,四堵,2020-05-31,24.8926,121.745736,0.01979312
C0A550,泰平,2020-05-31,24.971197,121.823711,0.103076875
C0A560,福山,2020-05-31,24.776203,121.502811,0.03669475
C0A570,桶後,2020-05-31,24.848222,121.597992,0.049644213
C0A640,石碇,2020-05-31,24.993969,121.662917,0.21091302
C0A650,火燒寮,2020-05-31,25.002719,121.742892,0.6422926
C0A660,瑞芳,2020-05-31,25.113169,121.801147,0.046902094
C0A770,科教館,2020-05-31,25.096356,121.516507,0.010368079
C0A860,大坪,2020-05-31,25.165914,121.632969,0.10577894
C0A880,福隆,2020-05-31,25.017842,121.942083,0.017706078
C0A890,雙溪,2020-05-31,25.036003,121.864242,0.01710235
C0A920,富貴角,2020-05-31,25.263783,121.565258,0.072326474
C0A931,三和,2020-05-31,25.233153,121.595236,0.5173836
C0A940,金山,2020-05-31,25.223628,121.643967,0.034015648
C0A950,鼻頭角,2020-05-31,25.129036,121.923372,0.016698634
C0A970,三貂角,2020-05-31,25.007606,122.002058,0.04672231
C0A980,社子,2020-05-31,25.109508,121.469681,0.010029745
C0A9C0,天母,2020-05-31,25.117494,121.537169,0.011187363
C0A9F0,內湖,2020-05-31,25.079422,121.57545,0.010457514
C0AC60,三峽,2020-05-31,24.939025,121.369728,0.012073603
C0AC70,信義,2020-05-31,25.037822,121.564597,0.010457514
C0AC80,文山,2020-05-31,25.00235,121.575728,0.013619092
C0ACA0,新莊,2020-05-31,25.051478,121.446756,0.011384436
C0AD00,三芝,2020-05-31,25.258131,121.501917,0.05498181
C0AD10,八里,2020-05-31,25.150211,121.403947,0.0152344145
C0AD30,蘆洲,2020-05-31,25.086594,121.472331,0.010368079
C0AD40,土城,2020-05-31,24.973208,121.445169,0.010743967
C0AD50,鶯歌,2020-05-31,24.951533,121.346294,0.016242748
C0AG80,中和,2020-05-31,24.991622,121.491792,0.010457514
C0AH00,汐止,2020-05-31,25.066881,121.658778,0.013865813
C0AH10,永和,2020-05-31,25.01125,121.508111,0.010035954
C0AH40,平等,2020-05-31,25.129142,121.577086,0.03614685
C0AH50,林口,2020-05-31,25.072181,121.38084,0.012453864
C0AH70,松山,2020-05-31,25.04871,121.55042,0.010457514
C0AH80,深坑,2020-05-31,25.002703,121.628328,0.013619092
C0AI00,五股,2020-05-31,25.07445,121.42728,0.009062776
C0AI10,屈尺,2020-05-31,24.92184,121.54475,0.013619092
C0AI20,白沙灣,2020-05-31,25.283128,121.519058,0.0281346
C0AI30,三重,2020-05-31,25.057328,121.500629,0.010368079
C0AI40,石牌,2020-05-31,25.115597,121.513139,0.010743967
C0AJ10,澳底,2020-05-31,25.057107,121.927272,0.016002974
C0AJ20,野柳,2020-05-31,25.20703,121.690021,0.013865813
C0AJ30,淡水觀海,2020-05-31,25.184591,121.408616,0.014683986
C0AJ40,石門,2020-05-31,25.273672,121.601198,0.31754133
C0AJ50,水湳洞,2020-05-31,25.123695,121.862238,0.013865813
C0AJ60,六塊厝,2020-05-31,25.24,121.4481,0.014683986
C0AJ70,田寮,2020-05-31,25.2698,121.4886,0.025879782
C0AJ80,板橋,2020-05-31,25.0107,121.4489,0.010743967
C0B010,七堵,2020-05-31,25.094819,121.71713,0.015182217
C0B020,基隆嶼,2020-05-31,25.19141,121.78391,0.013865813
C0B040,大武崙,2020-05-31,25.166676,121.706993,0.015182217
C0B050,八斗子,2020-05-31,25.144754,121.79167,0.012855812
C0B060,暖暖,2020-05-31,25.0957,121.7403,0.020777673
C0C460,復興,2020-05-31,24.820208,121.352281,0.086902335
C0C480,桃園,2020-05-31,24.992425,121.323172,0.0055273664
C0C490,八德,2020-05-31,24.928708,121.283289,0.004332422
C0C590,觀音,2020-05-31,25.027072,121.153317,0.023483763
C0C620,蘆竹,2020-05-31,25.084275,121.265767,0.016672628
C0C630,大溪,2020-05-31,24.882853,121.265547,0.0055202
C0C650,平鎮,2020-05-31,24.897503,121.214636,0.011022247
C0C660,楊梅,2020-05-31,24.912375,121.143047,0.010518416
C0C670,龍潭,2020-05-31,24.870056,121.221389,0.11107998
C0C680,龜山,2020-05-31,25.02846,121.38656,0.0071381005
C0C700,中壢,2020-05-31,24.977661,121.256375,0.006419323
C0C710,大溪永福,2020-05-31,24.892936,121.324975,0.0079839
C0C720,竹圍,2020-05-31,25.112692,121.239824,0.0152344145
C0C730,中大臨海站,2020-05-31,24.966126,121.008581,0.004754011
C0C740,觀音工業區,2020-05-31,25.064764,121.114856,0.0065530986
C0C750,新興坑尾,2020-05-31,25.0061,121.0971,0.009730226
C0D390,關西,2020-05-31,24.798228,121.173947,0.0073573343
C0D430,峨眉,2020-05-31,24.6905,121.017189,0.0038697643
C0D480,打鐵坑,2020-05-31,24.849664,121.150789,0.044578195
C0D540,橫山,2020-05-31,24.71116,121.11693,0.019324362
C0D560,竹東,2020-05-31,24.767147,121.057881,0.0047158552
C0D580,寶山,2020-05-31,24.735006,121.025192,0.008962266
C0D590,新豐,2020-05-31,24.87068,120.97721,0.010860623
C0D650,湖口,2020-05-31,24.904794,121.043628,0.0049986527
C0D660,新竹市東區,2020-05-31,24.798681,120.986942,0.0048323376
C0D670,海天一線,2020-05-31,24.831986,120.914438,0.0041368487
C0D680,香山濕地,2020-05-31,24.783581,120.914988,0.004199926
C0D690,外湖,2020-05-31,24.917735,120.968711,0.004754011
C0E420,竹南,2020-05-31,24.708978,120.888897,0.004435184
C0E430,南庄,2020-05-31,24.601775,121.000214,0.0113132475
C0E520,大湖,2020-05-31,24.41494,120.87087,0.081331745
C0E540,後龍,2020-05-31,24.606489,120.783933,0.005594918
C0E550,明德,2020-05-31,24.583486,120.885411,0.0066967923
C0E590,通霄,2020-05-31,24.471892,120.704622,0.0056888866
C0E730,頭份,2020-05-31,24.688247,120.912206,0.004435184
C0E740,造橋,2020-05-31,24.637056,120.864778,0.0070015937
C0E750,苗栗,2020-05-31,24.564569,120.824575,0.005552194
C0E780,銅鑼,2020-05-31,24.489681,120.790853,0.006290215
C0E791,卓蘭,2020-05-31,24.3126,120.8244,0.012534819
C0E810,西湖,2020-05-31,24.562947,120.7485,0.005575847
C0E820,獅潭,2020-05-31,24.539133,120.920042,0.0064916704
C0E830,苑裡,2020-05-31,24.439714,120.653053,0.005441721
C0E850,大河,2020-05-31,24.618069,120.948578,0.006841756
C0E870,高鐵苗栗,2020-05-31,24.60725,120.826094,0.0055714305
C0E910,海埔,2020-05-31,24.648767,120.772435,0.00641361
C0E920,通霄漁港,2020-05-31,24.498589,120.673876,0.0058930796
C0E930,龍鳳,2020-05-31,24.700034,120.859125,0.006944801
C0F000,大肚,2020-05-31,24.15295,120.572117,0.9253953
C0F0B0,石岡,2020-05-31,24.276061,120.777644,0.9465569
C0F850,東勢,2020-05-31,24.246428,120.833047,0.021026962
C0F930,大甲,2020-05-31,24.347667,120.640403,0.0050534136
C0F970,大坑,2020-05-31,24.173142,120.722289,0.005165795
C0F9A0,中竹林,2020-05-31,24.103556,120.751061,0.9954881
C0F9I0,神岡,2020-05-31,24.272481,120.658314,0.0066703274
C0F9K0,大安,2020-05-31,24.345061,120.588025,0.0054614884
C0F9L0,后里,2020-05-31,24.310436,120.729725,0.0085344035
C0F9M0,豐原,2020-05-31,24.254322,120.720692,0.0073715495
C0F9N0,大里,2020-05-31,24.092464,120.701378,0.005615689
C0F9O0,潭子,2020-05-31,24.213106,120.703933,0.0070502134
C0F9P0,清水,2020-05-31,24.312297,120.562242,0.0055816774
C0F9Q0,外埔,2020-05-31,24.347817,120.705686,0.006198207
C0F9R0,龍井,2020-05-31,24.184536,120.528972,0.0058052945
C0F9S0,烏日,2020-05-31,24.107058,120.624103,0.0054088566
C0F9T0,西屯,2020-05-31,24.179494,120.641275,0.00524841
C0F9U0,南屯,2020-05-31,24.137006,120.637969,0.005615689
C0F9X0,大雅(中科園區),2020-05-31,24.21528,120.62445,0.0050815777
C0FA10,松柏,2020-05-31,24.429115,120.617482,0.005591985
C0FA20,溫寮,2020-05-31,24.372177,120.583125,0.005591985
C0FA30,梧棲,2020-05-31,24.256003,120.523381,0.0058052945
C0FA40,臺中電廠,2020-05-31,24.2146,120.4907,0.0058052945
C0G620,芬園,2020-05-31,24.015678,120.6213,0.0051382193
C0G640,鹿港,2020-05-31,24.0753,120.430481,0.00596123
C0G650,員林,2020-05-31,23.946503,120.585597,0.0052925562
C0G660,溪湖,2020-05-31,23.94835,120.479122,0.005442212
C0G720,溪州,2020-05-31,23.851589,120.499093,0.012252496
C0G730,二林,2020-05-31,23.903325,120.376081,0.0055867373
C0G740,大城,2020-05-31,23.852487,120.320935,0.0071404804
C0G770,福興,2020-05-31,24.041289,120.437669,0.00596123
C0G780,秀水,2020-05-31,24.03405,120.503869,0.0057648933
C0G800,埔鹽,2020-05-31,24.000394,120.431683,0.00596123
C0G810,埔心,2020-05-31,23.947633,120.525456,0.005416175
C0G820,田尾,2020-05-31,23.901669,120.509389,0.0053920294
C0G830,埤頭,2020-05-31,23.866003,120.452806,0.011602561
C0G840,北斗,2020-05-31,23.877586,120.514222,0.0053920294
C0G860,社頭,2020-05-31,23.897647,120.5862,0.00526196
C0G870,芳苑,2020-05-31,23.922303,120.320025,0.0071691466
C0G880,二水,2020-05-31,23.810742,120.6173,0.015273164
C0G890,伸港,2020-05-31,24.148933,120.484403,0.006086218
C0G900,線西,2020-05-31,24.143358,120.443536,0.0061980137
C0G910,花壇,2020-05-31,24.032076,120.549461,0.005664491
C0G920,永靖,2020-05-31,23.924703,120.547533,0.0053920294
C0G940,竹塘,2020-05-31,23.848253,120.386764,0.0082380185
C0G950,防潮門,2020-05-31,24.1835,120.4871,0.0058672708
C0G960,福寶,2020-05-31,24.0443,120.3814,0.0060139997
C0G970,三豐,2020-05-31,23.882,120.2895,0.0071691466
C0H890,埔里,2020-05-31,23.972169,120.952425,0.010833083
C0H950,中寮,2020-05-31,23.884447,120.766406,0.07310674
C0H960,草屯,2020-05-31,23.973672,120.68085,0.017328985
C0I110,竹山,2020-05-31,23.761225,120.688156,0.040008873
C0I360,水里,2020-05-31,23.812553,120.849792,0.94093466
C0I380,集集,2020-05-31,23.828206,120.801467,0.8990426
C0I410,名間,2020-05-31,23.837053,120.701447,0.01780026
C0I420,國姓,2020-05-31,24.037803,120.855072,0.98735774
C0I460,南投,2020-05-31,23.911469,120.687331,0.022219231
C0K250,崙背,2020-05-31,23.75555,120.318925,0.0068568387
C0K280,四湖,2020-05-31,23.630414,120.227125,0.0068916837
C0K291,宜梧,2020-05-31,23.536281,120.169329,0.008085894
C0K330,虎尾,2020-05-31,23.719183,120.442036,0.0075048325
C0K390,土庫,2020-05-31,23.679029,120.395574,0.0074334233
C0K400,斗六,2020-05-31,23.720583,120.541127,0.009336011
C0K410,北港,2020-05-31,23.573957,120.292802,0.007952441
C0K420,西螺,2020-05-31,23.800407,120.467394,0.011365325
C0K430,褒忠,2020-05-31,23.690938,120.303634,0.0065340847
C0K440,二崙,2020-05-31,23.772797,120.408944,0.008322738
C0K450,大埤,2020-05-31,23.646074,120.431537,0.0075258706
C0K460,斗南,2020-05-31,23.678734,120.478359,0.009016601
C0K470,林內,2020-05-31,23.748675,120.609642,0.009367357
C0K480,莿桐,2020-05-31,23.761192,120.502372,0.011707864
C0K500,元長,2020-05-31,23.64981,120.315024,0.006618348
C0K510,水林,2020-05-31,23.572924,120.24597,0.008358422
C0K530,臺西,2020-05-31,23.701547,120.197559,0.006800868
C0K550,蔦松,2020-05-31,23.514319,120.229736,0.008072588
C0K560,棋山,2020-05-31,23.68645,120.603417,0.010148666
C0K580,高鐵雲林,2020-05-31,23.737456,120.417944,0.0074334233
C0K590,雲林東勢,2020-05-31,23.674192,120.255721,0.0065340847
C0K600,箔子寮,2020-05-31,23.6197,120.14,0.008359173
C0M410,馬頭山,2020-05-31,23.324361,120.582017,0.84508955
C0M520,東後寮,2020-05-31,23.369908,120.248065,0.031580668
C0M640,中埔,2020-05-31,23.42538,120.5229,0.011634825
C0M650,朴子,2020-05-31,23.43463,120.23902,0.008138381
C0M660,溪口,2020-05-31,23.604131,120.403569,0.006783272
C0M670,大林,2020-05-31,23.600616,120.45841,0.0070322934
C0M680,太保,2020-05-31,23.455062,120.331455,0.007657308
C0M690,水上,2020-05-31,23.419734,120.388909,0.006174611
C0M700,竹崎,2020-05-31,23.526178,120.555508,0.014029558
C0M710,東石,2020-05-31,23.458927,120.15385,0.008072588
C0M720,番路,2020-05-31,23.464657,120.554156,0.019776676
C0M730,嘉義市東區,2020-05-31,23.457673,120.460531,0.0064845085
C0M740,六腳,2020-05-31,23.492871,120.290625,0.007669543
C0M750,布袋,2020-05-31,23.380878,120.167789,0.008138381
C0M760,民雄,2020-05-31,23.551754,120.428457,0.0067294626
C0M770,嘉義梅山,2020-05-31,23.585398,120.555587,0.011820772
C0M780,鹿草,2020-05-31,23.41134,120.30835,0.0077196923
C0M790,新港,2020-05-31,23.553269,120.345728,0.007947797
C0M800,茶山,2020-05-31,23.299075,120.664767,0.9954684
C0M880,好美里,2020-05-31,23.3364,120.138,0.02938041
C0N010,鯤鯓國小,2020-05-31,23.1879,120.0889,0.008636095
C0N020,城西,2020-05-31,23.0568,120.0956,0.02488378
C0N030,四草,2020-05-31,23.0235,120.1116,0.021728566
C0N040,蘆竹溝,2020-05-31,23.2344,120.0961,0.008636095
C0N050,蚵寮,2020-05-31,23.301,120.1104,0.008636095
C0O810,曾文,2020-05-31,23.219681,120.497328,0.008812379
C0O830,北寮,2020-05-31,23.079561,120.495008,0.99757916
C0O840,王爺宮,2020-05-31,23.222064,120.40085,0.008812379
C0O860,大內,2020-05-31,23.11885,120.36083,0.23502818
C0O900,善化,2020-05-31,23.112883,120.297219,0.021793727
C0O930,玉井,2020-05-31,23.126042,120.46055,0.008961614
C0O950,安南,2020-05-31,23.076694,120.144861,0.013196139
C0O960,崎頂,2020-05-31,22.959547,120.369317,0.99725497
C0O970,虎頭埤,2020-05-31,23.021375,120.347878,0.048358276
C0O980,新市,2020-05-31,23.061614,120.298197,0.021793727
C0O990,媽廟,2020-05-31,22.99175,120.293525,0.0209775
C0R150,三地門,2020-05-31,22.709889,120.639944,0.006254469
C0R160,鹽埔,2020-05-31,22.739558,120.530778,0.009621122
C0R170,屏東,2020-05-31,22.660269,120.494072,0.004692271
C0R190,赤山,2020-05-31,22.592333,120.614306,0.008677055
C0R220,潮州,2020-05-31,22.534361,120.54,0.008504967
C0R240,來義,2020-05-31,22.527306,120.625111,0.010214852
C0R260,春日,2020-05-31,22.370361,120.628306,0.008729331
C0R270,琉球嶼,2020-05-31,22.332244,120.362236,0.009021758
C0R280,檳榔,2020-05-31,22.076078,120.836777,0.09715317
C0R320,車城,2020-05-31,22.0744,120.716247,0.014353266
C0R341,牡丹,2020-05-31,22.130036,120.792639,0.02087727
C0R350,貓鼻頭,2020-05-31,21.921774,120.7358,0.017644241
C0R470,高樹,2020-05-31,22.826389,120.600806,0.0058037587
C0R480,長治,2020-05-31,22.693128,120.542622,0.010215841
C0R490,九如,2020-05-31,22.7405,120.490503,0.0047714664
C0R510,萬丹,2020-05-31,22.587775,120.490394,0.007848664
C0R520,崁頂,2020-05-31,22.514781,120.506914,0.0048947567
C0R540,佳冬,2020-05-31,22.419456,120.552375,0.0048202705
C0R550,新埤,2020-05-31,22.467947,120.582894,0.0082597695
C0R560,新園,2020-05-31,22.5434,120.461558,0.0048947567
C0R570,麟洛,2020-05-31,22.65078,120.52719,0.0047714664
C0R580,南州,2020-05-31,22.48591,120.50274,0.0048202705
C0R590,里港,2020-05-31,22.77919,120.49459,0.011235588
C0R620,墾雷,2020-05-31,21.900836,120.855269,0.017644241
C0R640,東港,2020-05-31,22.46247,120.44074,0.0049201595
C0R650,竹田,2020-05-31,22.58486,120.54344,0.007848664
C0R660,枋寮,2020-05-31,22.367722,120.590647,0.0077907466
C0R670,楓港,2020-05-31,22.190131,120.692156,0.0063619846
C0R680,佳樂水,2020-05-31,21.993578,120.861633,0.015819995
C0R690,墾丁,2020-05-31,21.966756,120.810269,0.13415979
C0R700,枋山,2020-05-31,22.246844,120.661086,0.0063619846
C0R710,龍磐,2020-05-31,21.931672,120.838942,0.034978665
C0R720,旭海,2020-05-31,22.205403,120.887614,0.03975531
C0R730,大坪頂,2020-05-31,22.024633,120.69355,0.03151264
C0R740,獅子,2020-05-31,22.201569,120.70525,0.007292539
C0R760,南仁湖,2020-05-31,22.084681,120.863353,0.4380762
C0R770,保力,2020-05-31,22.071122,120.764111,0.024651868
C0R780,滿州,2020-05-31,22.024403,120.839892,0.018706733
C0R790,九棚,2020-05-31,22.14195,120.889281,0.02211958
C0R800,丹路,2020-05-31,22.204481,120.750989,0.011511649
C0R810,內獅,2020-05-31,22.305064,120.642986,0.0074303136
C0R830,高士,2020-05-31,22.121825,120.836781,0.86126894
C0R850,林邊,2020-05-31,22.4634,120.5339,0.0048947567
C0R860,鼻頭,2020-05-31,22.1043,120.8979,0.49314174
C0R870,興海,2020-05-31,21.9752,120.8439,0.015819995
C0R880,後壁湖,2020-05-31,21.9457,120.7457,0.013718074
C0R890,山海,2020-05-31,21.9878,120.7091,0.014353266
C0R900,竹坑,2020-05-31,22.1385,120.7022,0.0069195745
C0R910,下寮,2020-05-31,22.3929,120.5548,0.0048202705
C0R920,塭仔,2020-05-31,22.4169,120.5197,0.004745495
C0R940,加祿堂,2020-05-31,22.3363,120.6217,0.0074303136
C0S710,鹿野,2020-05-31,22.917711,121.122994,0.008183139
C0S730,綠島,2020-05-31,22.6672,121.47533,0.0051712967
C0S740,池上,2020-05-31,23.119628,121.209469,0.004531283
C0S770,大溪山,2020-05-31,22.478475,120.943325,0.1884716
C0S790,金崙,2020-05-31,22.538122,120.966875,0.009824858
C0S810,東河,2020-05-31,22.972672,121.303986,0.0037426653
C0S830,長濱,2020-05-31,23.286817,121.411975,0.010783158
C0S840,南田,2020-05-31,22.279725,120.889208,0.007901892
C0S890,關山,2020-05-31,23.0395,121.175017,0.005157401
C0S900,蘭嶼高中,2020-05-31,22.04909,121.51214,0.38380423
C0S910,蘭嶼燈塔,2020-05-31,22.081197,121.503117,0.8339151
C0S920,金峰嘉蘭,2020-05-31,22.594789,120.960825,0.006692981
C0S930,延平,2020-05-31,22.902581,121.084058,0.004324378
C0S940,石寧山,2020-05-31,23.223772,121.406639,0.0045237485
C0S950,七塊厝,2020-05-31,22.954453,121.229922,0.011711556
C0S960,香蘭,2020-05-31,22.587569,120.993375,0.006264777
C0S970,加津林,2020-05-31,22.416211,120.926942,0.0077038994
C0S990,山豬窟,2020-05-31,22.318619,120.857372,0.8990008
C0SA00,歷坵,2020-05-31,22.520969,120.89185,0.83060926
C0SA10,檳榔四格山,2020-05-31,22.810031,121.109308,0.8049677
C0SA30,都歷,2020-05-31,23.020333,121.323642,0.005237969
C0SA40,瑞和,2020-05-31,22.974361,121.156697,0.0051202034
C0SA60,知本（水試所）,2020-05-31,22.702394,121.082761,0.0056187497
C0SA80,土坂,2020-05-31,22.453108,120.887572,0.00726296
C0SA90,達仁林場,2020-05-31,22.264347,120.823972,0.99698776
C0T870,鯉魚潭,2020-05-31,23.935639,121.508944,0.011161346
C0T900,西林,2020-05-31,23.8119,121.441458,0.01136779
C0T960,光復,2020-05-31,23.660694,121.424964,0.011652626
C0T9A0,月眉山,2020-05-31,23.809928,121.539828,0.01509546
C0T9D0,和中,2020-05-31,24.26676,121.74103,0.006054973
C0T9E0,大坑,2020-05-31,23.880628,121.581981,0.013488462
C0T9F0,水璉,2020-05-31,23.797131,121.542514,0.012073858
C0T9I0,豐濱,2020-05-31,23.583897,121.514806,0.011016371
C0T9M0,靜浦,2020-05-31,23.455167,121.495028,0.010788042
C0T9N0,富里,2020-05-31,23.171639,121.249378,0.01514575
C0U600,礁溪,2020-05-31,24.817539,121.765608,0.020196166
C0U650,玉蘭,2020-05-31,24.675286,121.587061,0.0050893505
C0U750,龜山島,2020-05-31,24.841667,121.953133,0.01562622
C0U760,東澳,2020-05-31,24.52196,121.83318,0.00606648
C0U770,南澳,2020-05-31,24.44935,121.81022,0.006403536
C0U780,五結,2020-05-31,24.68637,121.79794,0.015354027
C0U860,頭城,2020-05-31,24.85323,121.8308,0.018162517
C0U870,大礁溪,2020-05-31,24.791042,121.675047,0.17849752
C0U880,北關,2020-05-31,24.9072,121.8734,0.014050291
C0U890,三星,2020-05-31,24.66812,121.65302,0.12537833
C0U900,內城,2020-05-31,24.71813,121.68766,0.029637696
C0U910,冬山,2020-05-31,24.63373,121.7937,0.015354027
C0U940,羅東,2020-05-31,24.68184,121.74934,0.015773712
C0U970,大福,2020-05-31,24.80064,121.81389,0.016530493
C0U990,員山,2020-05-31,24.74435,121.72247,0.015773712
C0UA00,土場,2020-05-31,24.576533,121.495333,0.16756043
C0UA80,大溪漁港,2020-05-31,24.941801,121.902955,0.020196166
C0UA90,石城,2020-05-31,24.980444,121.951214,0.020093394
C0UB00,淡江大學蘭陽校園,2020-05-31,24.823239,121.730383,0.5522029
C0UB20,壯圍,2020-05-31,24.7359,121.8163,0.015136065
C0V250,甲仙,2020-05-31,23.080106,120.591758,0.9926364
C0V260,月眉,2020-05-31,22.971003,120.539853,0.99738824
C0V310,美濃,2020-05-31,22.898742,120.519153,0.12206618
C0V350,溪埔,2020-05-31,22.738578,120.446797,0.00487969
C0V360,內門,2020-05-31,22.975481,120.466769,0.29382205
C0V370,古亭坑,2020-05-31,22.893178,120.401947,0.14876094
C0V400,阿公店,2020-05-31,22.804194,120.355528,0.004905385
C0V440,鳳山,2020-05-31,22.646653,120.356122,0.005129992
C0V450,鳳森,2020-05-31,22.545064,120.392592,0.010378079
C0V490,新興,2020-05-31,22.627422,120.298803,0.0049811588
C0V530,阿蓮,2020-05-31,22.883208,120.327508,0.017466512
C0V610,梓官,2020-05-31,22.760558,120.267211,0.004615255
C0V620,永安,2020-05-31,22.82315,120.236856,0.004232005
C0V630,茄萣,2020-05-31,22.906642,120.182608,0.011901876
C0V640,湖內,2020-05-31,22.887139,120.2445,0.012521104
C0V650,彌陀,2020-05-31,22.783806,120.246361,0.004232005
C0V660,岡山,2020-05-31,22.797078,120.294958,0.004615255
C0V680,仁武,2020-05-31,22.701083,120.347722,0.0049007786
C0V690,鼓山,2020-05-31,22.623325,120.275575,0.0049811588
C0V700,三民,2020-05-31,22.645017,120.311233,0.0049811588
C0V710,苓雅,2020-05-31,22.622742,120.330669,0.0049811588
C0V720,林園,2020-05-31,22.507747,120.394511,0.0049811588
C0V730,大寮,2020-05-31,22.605614,120.395717,0.008141865
C0V740,旗山,2020-05-31,22.888614,120.483597,0.13682184
C0V750,路竹,2020-05-31,22.854997,120.259439,0.0044630254
C0V760,橋頭,2020-05-31,22.757806,120.30575,0.004648568
C0V770,大社,2020-05-31,22.730306,120.346639,0.0049007786
C0V790,萬山,2020-05-31,22.905944,120.688056,0.9957897
C0V800,六龜,2020-05-31,22.997889,120.633583,0.9962825
C0V810,左營,2020-05-31,22.67491,120.28491,0.004857902
C0V820,小林,2020-05-31,23.148408,120.63325,0.9948967
C0V840,鳳鼻頭,2020-05-31,22.5083,120.3591,0.0049201595
C0V850,蚵仔寮,2020-05-31,22.7256,120.2527,0.004811159
C0V860,南寮,2020-05-31,22.7616,120.2339,0.004209465
C0V870,文安,2020-05-31,22.8025,120.2164,0.004209465
C0V880,興達,2020-05-31,22.8778,120.2127,0.011901876
C0V890,前鎮,2020-05-31,22.5722,120.3112,0.0049201595
C0V900,汕尾,2020-05-31,22.4782,120.4151,0.0044962596
C0X050,東河,2020-05-31,23.296598,120.385608,0.008192857
C0X060,下營,2020-05-31,23.22695,120.256261,0.035809923
C0X080,佳里,2020-05-31,23.173039,120.145086,0.02938041
C0X100,臺南市北區,2020-05-31,23.010394,120.194228,0.0126912715
C0X110,臺南市南區,2020-05-31,22.961189,120.188378,0.013307749
C0X120,麻豆,2020-05-31,23.183289,120.248611,0.03126255
C0X130,官田,2020-05-31,23.193217,120.315422,0.041066453
C0X140,西港,2020-05-31,23.125608,120.203108,0.027330888
C0X150,安定,2020-05-31,23.102614,120.227839,0.015100127
C0X160,仁德,2020-05-31,22.968258,120.257689,0.019466616
C0X170,關廟,2020-05-31,22.963017,120.327797,0.027168432
C0X180,山上,2020-05-31,23.0757,120.363253,0.28514057
C0X190,安平,2020-05-31,22.993161,120.152181,0.0126912715
C0X200,左鎮,2020-05-31,23.056758,120.408522,0.25519553
C0X210,白河,2020-05-31,23.347466,120.414427,0.008205016
C0X220,學甲,2020-05-31,23.230367,120.182187,0.03126255
C0X230,鹽水,2020-05-31,23.272621,120.247641,0.032970026
C0X240,關子嶺,2020-05-31,23.331169,120.508025,0.99142396
C0X250,新營,2020-05-31,23.310689,120.316681,0.037876256
C0X260,後壁,2020-05-31,23.366358,120.362326,0.17859589
C0X280,將軍,2020-05-31,23.214999,120.13577,0.02938041
C0X290,北門,2020-05-31,23.267772,120.125481,0.02938041
C0X300,鹿寮,2020-05-31,23.386047,120.477331,0.008776325
C0X310,七股,2020-05-31,23.147289,120.086253,0.009204424
C0X320,柳營,2020-05-31,23.253328,120.375253,0.008205016
C0Z020,明里,2020-05-31,23.208717,121.262342,0.0074910894
C0Z061,玉里,2020-05-31,23.3215,121.339656,0.004434717
C0Z070,舞鶴,2020-05-31,23.46811,121.37407,0.011159174
C0Z080,富源,2020-05-31,23.587642,121.378225,0.011194804
C0Z100,東華,2020-05-31,23.89525,121.549833,0.01077638
C0Z150,吉安光華,2020-05-31,23.930925,121.595153,0.010723637
C0Z160,鳳林,2020-05-31,23.746114,121.453411,0.011579169
C0Z170,卓溪,2020-05-31,23.3443,121.3029,0.0049592205
C0Z180,新城,2020-05-31,24.03946,121.60454,0.012309451
C0Z190,富世,2020-05-31,24.14743,121.6297,0.005141013
C0Z200,萬榮,2020-05-31,23.709219,121.420106,0.011161346
C0Z210,瑞穗,2020-05-31,23.5239,121.39021,0.010918495
C0Z230,和平,2020-05-31,24.30717,121.77007,0.006054973
C0Z270,蕃薯寮,2020-05-31,23.73835,121.540108,0.011147966
C0Z280,德武,2020-05-31,23.47426,121.41071,0.010904806
C0Z300,東里,2020-05-31,23.26853,121.30547,0.004667749
C0Z310,清水斷崖,2020-05-31,24.218294,121.689142,0.005140033
C0Z330,安通山,2020-05-31,23.290728,121.348528,0.015307353
C1A750,石碇服務區,2020-05-31,25.00872,121.646242,0.015627606
C1A760,坪林交控,2020-05-31,24.94284,121.713442,0.071232125
C1A9N0,四十份,2020-05-31,24.934158,121.593283,0.029659392
C1AC50,關渡,2020-05-31,25.133486,121.469331,0.016316378
C1AI50,國三N016K,2020-05-31,25.034164,121.619664,0.012805622
C1AI60,國一N039K,2020-05-31,25.064361,121.383836,0.12929069
C1C510,水尾,2020-05-31,24.940081,121.087161,0.0061539602
C1D380,新埔,2020-05-31,24.84745,121.03834,0.005727772
C1D630,飛鳳山,2020-05-31,24.766464,121.119178,0.61477304
C1E511,新開,2020-05-31,24.347703,120.827019,0.9811285
C1E601,南勢,2020-05-31,24.572486,120.734842,0.006691865
C1E770,公館,2020-05-31,24.526914,120.830806,0.0055789812
C1E890,國三N149K,2020-05-31,24.463414,120.680019,0.005629016
C1E900,國一N128K,2020-05-31,24.560997,120.844186,0.0055473987
C1F911,新伯公,2020-05-31,24.221361,120.841069,0.035380848
C1F9B1,桐林,2020-05-31,24.066172,120.735194,0.014934784
C1G691,下水埔,2020-05-31,23.816114,120.5676,0.012840306
C1G9D0,國一S218K,2020-05-31,23.890641,120.493253,0.005416175
C1H840,國三N238K,2020-05-31,23.841008,120.707711,0.92309666
C1H971,六分寮,2020-05-31,23.92507,120.6378,0.9953298
C1I131,桶頭,2020-05-31,23.641944,120.654117,0.9277746
C1I150,青雲,2020-05-31,23.793361,120.949378,0.9949621
C1I280,埔中,2020-05-31,23.820778,120.642594,0.9926111
C1I550,國六W023K,2020-05-31,23.979067,120.867742,0.99577594
C1K540,口湖,2020-05-31,23.585344,120.180517,0.008359173
C1M400,菜瓜坪,2020-05-31,23.251928,120.576103,0.99568963
C1M870,國三N285K,2020-05-31,23.550319,120.505833,0.010320507
C1N001,沙崙,2020-05-31,22.935472,120.309406,0.017466512
C1O850,環湖,2020-05-31,23.148617,120.418633,0.008961614
C1O880,關山,2020-05-31,23.173397,120.594092,0.90192735
C1O921,楠西,2020-05-31,23.183511,120.484083,0.008514663
C1O940,東山服務區,2020-05-31,23.286016,120.398472,0.008224239
C1R110,口社,2020-05-31,22.770111,120.645222,0.0064417543
C1R250,力里,2020-05-31,22.428117,120.629228,0.010214852
C1R290,石門山,2020-05-31,22.112611,120.756597,0.376463
C1R630,龍泉,2020-05-31,22.66701,120.59091,0.0050510806
C1S800,華源,2020-05-31,22.657883,121.02325,0.0075588077
C1S820,金峰,2020-05-31,22.590969,120.933236,0.008438031
C1S850,豐南,2020-05-31,23.122139,121.262389,0.23503841
C1S870,南美山,2020-05-31,23.15025,121.382333,0.0052357046
C1S880,壽卡,2020-05-31,22.238911,120.858903,0.917844
C1SA70,都蘭,2020-05-31,22.87794,121.226881,0.0037223578
C1T920,中興,2020-05-31,23.769503,121.498653,0.010890918
C1T970,大農,2020-05-31,23.615233,121.413331,0.012007707
C1T990,高寮,2020-05-31,23.394239,121.356808,0.010587728
C1TA00,太魯閣,2020-05-31,24.15773,121.6236,0.005227917
C1U501,牛鬥,2020-05-31,24.637836,121.573656,0.988635
C1U670,寒溪,2020-05-31,24.634,121.71691,0.021310437
C1U930,粉鳥林,2020-05-31,24.497088,121.842479,0.0061131557
C1V340,大津,2020-05-31,22.888322,120.645986,0.8601506
C1V390,尖山,2020-05-31,22.813153,120.367789,0.0052259853
C1V570,吉東,2020-05-31,22.85422,120.5454,0.023138361
C1V830,國三S383K,2020-05-31,22.781967,120.426475,0.960161
C1X040,東原,2020-05-31,23.291597,120.463822,0.35258377
C1Z030,紅葉,2020-05-31,23.493119,121.338806,0.010935192
C1Z040,立山,2020-05-31,23.443356,121.327375,0.012506142
C1Z120,壽豐,2020-05-31,23.870853,121.508081,0.01077638
C1Z130,銅門,2020-05-31,23.965694,121.492842,0.013561359
CAG100,王功漁港,2020-05-31,23.96824,120.32586,0.008319071
CAJ050,海口故事園區,2020-05-31,23.57543,120.14121,0.008359173
CAL110,布袋國中,2020-05-31,23.35893,120.18026,0.031580668
CAN130,水試所海水繁養殖中心,2020-05-31,23.120802,120.07968,0.023728339
CAN140,六官養殖協會,2020-05-31,23.22881,120.29962,0.038123395
CAQ030,崎峰國小,2020-05-31,22.42565,120.49521,0.0048202705
E2K600,四湖植物園,2020-05-31,23.676986,120.163433,0.006800868
E2P980,林試六龜中心,2020-05-31,22.991703,120.645722,0.99662215
E2S960,林試太麻里2,2020-05-31,22.598014,120.989761,0.006264777
E2S980,林試太麻里1,2020-05-31,22.598922,120.980044,0.0066263378
G2F820,農業試驗所,2020-05-31,24.031261,120.688133,0.0056177713
G2L020,嘉義農試,2020-05-31,23.485028,120.473806,0.010060879
G2M350,溪口農場,2020-05-31,23.58565,120.408111,0.006783272
G2P820,鳳山農試,2020-05-31,22.646611,120.356083,0.005129992
K2E360,苗栗農改,2020-05-31,24.495722,120.829111,0.006261649
K2E710,大湖分場,2020-05-31,24.422861,120.871833,0.007835501
K2F750,種苗繁殖,2020-05-31,24.225972,120.800917,0.11471023
U2HA50,臺大竹山,2020-05-31,23.756972,120.681556,0.0445537
V2K620,麥寮合作社,2020-05-31,23.753836,120.294783,0.00688816
