站號,站名,日期,lat,lon,BlastGRU-TW
466881,新北,2020-12-30,24.9593,121.52,0.0038232887
466900,淡水,2020-12-30,25.164889,121.448906,0.0017046251
466920,臺北,2020-12-30,25.037658,121.514853,0.0042659934
467441,高雄,2020-12-30,22.7304,120.3125,0.7976499
467480,嘉義,2020-12-30,23.495925,120.432906,0.010775776
467490,臺中,2020-12-30,24.145736,120.684075,0.0019752479
C0A540,四堵,2020-12-30,24.8926,121.745736,0.00434369
C0A550,泰平,2020-12-30,24.971197,121.823711,0.007624255
C0A560,福山,2020-12-30,24.776203,121.502811,0.021732198
C0A931,三和,2020-12-30,25.233153,121.595236,0.0049395273
C0A940,金山,2020-12-30,25.223628,121.643967,0.0012642557
C0A950,鼻頭角,2020-12-30,25.129036,121.923372,0.052267645
C0AD10,八里,2020-12-30,25.150211,121.403947,0.0017046251
C0AD30,蘆洲,2020-12-30,25.086594,121.472331,0.003072861
C0AD40,土城,2020-12-30,24.973208,121.445169,0.0029460883
C0AI10,屈尺,2020-12-30,24.92184,121.54475,0.0032809335
C0AI20,白沙灣,2020-12-30,25.283128,121.519058,0.0013128171
C0AI30,三重,2020-12-30,25.057328,121.500629,0.003072861
C0B010,七堵,2020-12-30,25.094819,121.71713,0.0032191745
C0B020,基隆嶼,2020-12-30,25.19141,121.78391,0.0035844436
