站號,站名,日期,lat,lon,BlastGRU-TW
466881,新北,2020-08-29,24.9593,121.52,0.03956779
466900,淡水,2020-08-29,25.1649,121.4489,0.039982032
466920,臺北,2020-08-29,25.0377,121.5149,0.039247278
466940,基隆,2020-08-29,25.1333,121.7405,0.05282153
466990,花蓮,2020-08-29,23.9751,121.6133,0.85761803
467050,新屋,2020-08-29,25.0067,121.0475,0.07559552
467080,宜蘭,2020-08-29,24.764,121.7565,0.0813126
467270,田中,2020-08-29,23.8738,120.5813,0.83776075
467300,東吉島,2020-08-29,23.2569,119.6675,0.76801795
467350,澎湖,2020-08-29,23.5655,119.5631,0.48848245
467410,臺南,2020-08-29,22.9932,120.2048,0.2975668
467420,永康,2020-08-29,23.0384,120.2367,0.27666232
467441,高雄,2020-08-29,22.7304,120.3125,0.15647125
467480,嘉義,2020-08-29,23.4959,120.4329,0.4910626
467490,臺中,2020-08-29,24.1457,120.6841,0.40271416
467540,大武,2020-08-29,22.3557,120.9038,0.029969776
467571,新竹,2020-08-29,24.8279,121.0142,0.058559686
467590,恆春,2020-08-29,22.0039,120.7463,0.04667669
467610,成功,2020-08-29,23.0975,121.3734,0.11125942
467620,蘭嶼,2020-08-29,22.037,121.5583,0.28219151
467660,臺東,2020-08-29,22.7522,121.1546,0.05938739
467790,墾丁雷達站,2020-08-29,21.9482,120.808,0.05354277
C0A520,山佳,2020-08-29,24.9749,121.402,0.04084004
C0A530,坪林,2020-08-29,24.9382,121.7097,0.109585956
C0A540,四堵,2020-08-29,24.8926,121.7457,0.0612552
C0A550,泰平,2020-08-29,24.9712,121.8237,0.30874556
C0A560,福山,2020-08-29,24.7762,121.5028,0.24678466
C0A570,桶後,2020-08-29,24.8482,121.598,0.10035695
C0A640,石碇,2020-08-29,24.994,121.6629,0.09352474
C0A650,火燒寮,2020-08-29,25.0027,121.7429,0.099373594
C0A660,瑞芳,2020-08-29,25.1132,121.8011,0.101200625
C0A770,科教館,2020-08-29,25.0964,121.5165,0.040255763
C0A860,大坪,2020-08-29,25.1659,121.633,0.12162492
C0A880,福隆,2020-08-29,25.0178,121.9421,0.094866805
C0A890,雙溪,2020-08-29,25.036,121.8642,0.05379513
C0A920,富貴角,2020-08-29,25.2638,121.5653,0.056978658
C0A931,三和,2020-08-29,25.2332,121.5952,0.103117526
C0A940,金山,2020-08-29,25.2236,121.644,0.0566505
C0A950,鼻頭角,2020-08-29,25.129,121.9234,0.09428062
C0A970,三貂角,2020-08-29,25.0076,122.0021,0.105928734
C0A980,社子,2020-08-29,25.1095,121.4697,0.040041152
C0A9C0,天母,2020-08-29,25.1175,121.5372,0.040656857
C0A9F0,內湖,2020-08-29,25.0794,121.5755,0.039247278
C0AC60,三峽,2020-08-29,24.939,121.3697,0.03977434
C0AC70,信義,2020-08-29,25.0378,121.5646,0.039247278
C0AC80,文山,2020-08-29,25.0023,121.5757,0.040183898
C0ACA0,新莊,2020-08-29,25.0515,121.4468,0.04131842
C0AD00,三芝,2020-08-29,25.2581,121.5019,0.05854549
C0AD10,八里,2020-08-29,25.1502,121.4039,0.039982032
C0AD30,蘆洲,2020-08-29,25.0866,121.4723,0.040255763
C0AD40,土城,2020-08-29,24.9732,121.4452,0.04040847
C0AD50,鶯歌,2020-08-29,24.9515,121.3463,0.040310994
C0AG80,中和,2020-08-29,24.9916,121.4918,0.039247278
C0AH00,汐止,2020-08-29,25.0669,121.6588,0.05300514
C0AH10,永和,2020-08-29,25.0113,121.5081,0.039130818
C0AH40,平等,2020-08-29,25.1291,121.5771,0.060560726
C0AH50,林口,2020-08-29,25.0722,121.3808,0.06395611
C0AH70,松山,2020-08-29,25.0487,121.5504,0.039247278
C0AH80,深坑,2020-08-29,25.0027,121.6283,0.03994524
C0AI00,五股,2020-08-29,25.0744,121.4273,0.0634777
C0AI10,屈尺,2020-08-29,24.9218,121.5447,0.040183898
C0AI20,白沙灣,2020-08-29,25.2831,121.5191,0.055842143
C0AI30,三重,2020-08-29,25.0573,121.5006,0.040255763
C0AI40,石牌,2020-08-29,25.1156,121.5131,0.04040847
C0AJ20,野柳,2020-08-29,25.207,121.69,0.05300514
C0AJ30,淡水觀海,2020-08-29,25.1846,121.4086,0.039725427
C0AJ40,石門,2020-08-29,25.2737,121.6012,0.06484044
C0AJ50,水湳洞,2020-08-29,25.1237,121.8622,0.05300509
C0AJ60,六塊厝,2020-08-29,25.24,121.4481,0.039725427
C0AJ70,田寮,2020-08-29,25.2698,121.4886,0.05546197
C0AJ80,板橋,2020-08-29,25.0107,121.4489,0.04040854
C0AJ90,澳底,2020-08-29,25.0552,121.9253,0.094866805
C0B010,七堵,2020-08-29,25.0948,121.7171,0.053372037
C0B020,基隆嶼,2020-08-29,25.1914,121.7839,0.05300514
C0B040,大武崙,2020-08-29,25.1667,121.707,0.053372037
C0B050,八斗子,2020-08-29,25.1448,121.7917,0.05268592
C0B060,暖暖,2020-08-29,25.0957,121.7403,0.054755326
C0C460,復興,2020-08-29,24.8202,121.3523,0.139757
C0C480,桃園,2020-08-29,24.9924,121.3232,0.054114204
C0C490,八德,2020-08-29,24.9287,121.2833,0.047286533
C0C590,觀音,2020-08-29,25.0271,121.1533,0.04712765
C0C620,蘆竹,2020-08-29,25.0843,121.2658,0.04037581
C0C630,大溪,2020-08-29,24.8829,121.2655,0.05284398
C0C650,平鎮,2020-08-29,24.8975,121.2146,0.09667475
C0C660,楊梅,2020-08-29,24.9124,121.143,0.10302892
C0C670,龍潭,2020-08-29,24.8701,121.2214,0.22923897
C0C680,龜山,2020-08-29,25.0285,121.3866,0.045658186
C0C700,中壢,2020-08-29,24.9777,121.2564,0.057753798
C0C710,大溪永福,2020-08-29,24.8929,121.325,0.06638069
C0C720,竹圍,2020-08-29,25.1127,121.2398,0.039982032
C0C730,中大臨海站,2020-08-29,24.9661,121.0086,0.07483682
C0C740,觀音工業區,2020-08-29,25.0648,121.1149,0.06333877
C0C750,新興坑尾,2020-08-29,25.0061,121.0971,0.07551452
C0D430,峨眉,2020-08-29,24.6905,121.0172,0.053127825
C0D480,打鐵坑,2020-08-29,24.8497,121.1508,0.13414551
C0D540,橫山,2020-08-29,24.7112,121.1169,0.315891
C0D560,竹東,2020-08-29,24.7671,121.0579,0.058348134
C0D580,寶山,2020-08-29,24.735,121.0252,0.09423516
C0D590,新豐,2020-08-29,24.8707,120.9772,0.064347684
C0D650,湖口,2020-08-29,24.9048,121.0436,0.0782205
C0D660,新竹市東區,2020-08-29,24.7987,120.9869,0.061147295
C0D670,海天一線,2020-08-29,24.832,120.9144,0.056624644
C0D680,香山濕地,2020-08-29,24.7836,120.915,0.058478873
C0D690,外湖,2020-08-29,24.9177,120.9687,0.07483682
C0D700,關西,2020-08-29,24.7977,121.1732,0.06864367
C0E420,竹南,2020-08-29,24.709,120.8889,0.06601479
C0E430,南庄,2020-08-29,24.6018,121.0002,0.42446077
C0E520,大湖,2020-08-29,24.4149,120.8709,0.87398744
C0E540,後龍,2020-08-29,24.6065,120.7839,0.22636066
C0E550,明德,2020-08-29,24.5835,120.8854,0.29701364
C0E590,通霄,2020-08-29,24.4719,120.7046,0.16157348
C0E730,頭份,2020-08-29,24.6882,120.9122,0.064966306
C0E740,造橋,2020-08-29,24.6371,120.8648,0.11985277
C0E750,苗栗,2020-08-29,24.5646,120.8246,0.30227005
C0E780,銅鑼,2020-08-29,24.4897,120.7909,0.22658375
C0E791,卓蘭,2020-08-29,24.3126,120.8244,0.5334246
C0E810,西湖,2020-08-29,24.5629,120.7485,0.26900482
C0E820,獅潭,2020-08-29,24.5391,120.92,0.4314389
C0E830,苑裡,2020-08-29,24.4397,120.6531,0.11456532
C0E850,大河,2020-08-29,24.6181,120.9486,0.3643805
C0E870,高鐵苗栗,2020-08-29,24.6073,120.8261,0.23926044
C0E910,海埔,2020-08-29,24.6488,120.7724,0.12099136
C0E920,通霄漁港,2020-08-29,24.4986,120.6739,0.13064986
C0E930,龍鳳,2020-08-29,24.7,120.8591,0.09507496
C0F000,大肚,2020-08-29,24.153,120.5721,0.31936964
C0F0B0,石岡,2020-08-29,24.2761,120.7776,0.3731747
C0F850,東勢,2020-08-29,24.2464,120.833,0.72584236
C0F930,大甲,2020-08-29,24.3477,120.6404,0.14045866
C0F970,大坑,2020-08-29,24.1731,120.7223,0.41161826
C0F9A0,中竹林,2020-08-29,24.1036,120.7511,0.84549993
C0F9I0,神岡,2020-08-29,24.2725,120.6583,0.46720353
C0F9K0,大安,2020-08-29,24.3451,120.588,0.099929996
C0F9L0,后里,2020-08-29,24.3104,120.7297,0.7547546
C0F9M0,豐原,2020-08-29,24.2543,120.7207,0.6272654
C0F9N0,大里,2020-08-29,24.0925,120.7014,0.17940831
C0F9O0,潭子,2020-08-29,24.2131,120.7039,0.5336196
C0F9P0,清水,2020-08-29,24.3123,120.5622,0.09428759
C0F9Q0,外埔,2020-08-29,24.3478,120.7057,0.28196275
C0F9R0,龍井,2020-08-29,24.1845,120.529,0.10295698
C0F9S0,烏日,2020-08-29,24.1071,120.6241,0.09051155
C0F9T0,西屯,2020-08-29,24.1795,120.6413,0.18683967
C0F9U0,南屯,2020-08-29,24.137,120.638,0.17940813
C0F9X0,大雅(中科園區),2020-08-29,24.2153,120.6244,0.2900644
C0FA10,松柏,2020-08-29,24.4291,120.6175,0.10424367
C0FA20,溫寮,2020-08-29,24.3722,120.5831,0.10424367
C0FA30,梧棲,2020-08-29,24.256,120.5234,0.10295698
C0FA40,臺中電廠,2020-08-29,24.2146,120.4907,0.10295698
C0FA50,霧峰,2020-08-29,24.0419,120.6995,0.31185216
C0G620,芬園,2020-08-29,24.0157,120.6213,0.22577068
C0G640,鹿港,2020-08-29,24.0753,120.4305,0.080770954
C0G650,員林,2020-08-29,23.9465,120.5856,0.1806314
C0G660,溪湖,2020-08-29,23.9484,120.4791,0.121958084
C0G720,溪州,2020-08-29,23.8516,120.4991,0.67424995
C0G730,二林,2020-08-29,23.9033,120.3761,0.08565913
C0G740,大城,2020-08-29,23.8525,120.3209,0.14582758
C0G770,福興,2020-08-29,24.0413,120.4377,0.080770954
C0G780,秀水,2020-08-29,24.0341,120.5039,0.0884286
C0G800,埔鹽,2020-08-29,24.0004,120.4317,0.080770954
C0G810,埔心,2020-08-29,23.9476,120.5255,0.12932189
C0G820,田尾,2020-08-29,23.9017,120.5094,0.13630964
C0G830,埤頭,2020-08-29,23.866,120.4528,0.580418
C0G840,北斗,2020-08-29,23.8776,120.5142,0.13630964
C0G860,社頭,2020-08-29,23.8976,120.5862,0.19337471
C0G870,芳苑,2020-08-29,23.9223,120.32,0.14487147
C0G880,二水,2020-08-29,23.8107,120.6173,0.9630664
C0G890,伸港,2020-08-29,24.1489,120.4844,0.10882674
C0G900,線西,2020-08-29,24.1434,120.4435,0.12415154
C0G910,花壇,2020-08-29,24.0321,120.5495,0.094715066
C0G920,永靖,2020-08-29,23.9247,120.5475,0.13630964
C0G940,竹塘,2020-08-29,23.8483,120.3868,0.16973753
C0G950,防潮門,2020-08-29,24.1835,120.4871,0.09998109
C0G960,福寶,2020-08-29,24.0443,120.3814,0.0788708
C0G970,三豐,2020-08-29,23.882,120.2895,0.14372392
C0H890,埔里,2020-08-29,23.9722,120.9524,0.6711288
C0H950,中寮,2020-08-29,23.8844,120.7664,0.99073327
C0H960,草屯,2020-08-29,23.9737,120.6809,0.9665858
C0I110,竹山,2020-08-29,23.7612,120.6882,0.9885801
C0I360,水里,2020-08-29,23.8126,120.8498,0.033893622
C0I380,集集,2020-08-29,23.8282,120.8015,0.031167645
C0I410,名間,2020-08-29,23.8371,120.7014,0.98306435
C0I420,國姓,2020-08-29,24.0378,120.8551,0.69317764
C0I460,南投,2020-08-29,23.9115,120.6873,0.98144007
C0K250,崙背,2020-08-29,23.7555,120.3189,0.15196618
C0K280,四湖,2020-08-29,23.6304,120.2271,0.14774264
C0K291,宜梧,2020-08-29,23.5363,120.1693,0.6124032
C0K330,虎尾,2020-08-29,23.7192,120.442,0.14695539
C0K390,土庫,2020-08-29,23.679,120.3956,0.13245927
C0K400,斗六,2020-08-29,23.7206,120.5411,0.5832161
C0K410,北港,2020-08-29,23.574,120.2928,0.6015854
C0K420,西螺,2020-08-29,23.8004,120.4674,0.7727311
C0K430,褒忠,2020-08-29,23.6909,120.3036,0.13939272
C0K440,二崙,2020-08-29,23.7728,120.4089,0.19159666
C0K450,大埤,2020-08-29,23.6461,120.4315,0.17317082
C0K460,斗南,2020-08-29,23.6787,120.4784,0.48254326
C0K470,林內,2020-08-29,23.7487,120.6096,0.7889945
C0K480,莿桐,2020-08-29,23.7612,120.5024,0.8089457
C0K500,元長,2020-08-29,23.6498,120.315,0.1462857
C0K510,水林,2020-08-29,23.5729,120.246,0.613284
C0K530,臺西,2020-08-29,23.7015,120.1976,0.14710136
C0K550,蔦松,2020-08-29,23.5143,120.2297,0.62139684
C0K560,棋山,2020-08-29,23.6865,120.6034,0.8402082
C0K580,高鐵雲林,2020-08-29,23.7375,120.4179,0.13245927
C0K590,雲林東勢,2020-08-29,23.6742,120.2557,0.13939272
C0K600,箔子寮,2020-08-29,23.6197,120.14,0.6024471
C0M410,馬頭山,2020-08-29,23.3244,120.582,0.047167473
C0M520,東後寮,2020-08-29,23.3699,120.2481,0.4467509
C0M640,中埔,2020-08-29,23.4254,120.5229,0.98281974
C0M650,朴子,2020-08-29,23.4346,120.239,0.64170754
C0M660,溪口,2020-08-29,23.6041,120.4036,0.22822487
C0M670,大林,2020-08-29,23.6006,120.4584,0.45652762
C0M680,太保,2020-08-29,23.4551,120.3315,0.6054209
C0M690,水上,2020-08-29,23.4197,120.3889,0.72319263
C0M700,竹崎,2020-08-29,23.5262,120.5555,0.9805747
C0M710,東石,2020-08-29,23.4589,120.1539,0.62139684
C0M720,番路,2020-08-29,23.4647,120.5542,0.9899056
C0M730,嘉義市東區,2020-08-29,23.4577,120.4605,0.78493184
C0M740,六腳,2020-08-29,23.4929,120.2906,0.59747535
C0M750,布袋,2020-08-29,23.3809,120.1678,0.64170754
C0M760,民雄,2020-08-29,23.5518,120.4285,0.26335993
C0M770,嘉義梅山,2020-08-29,23.5854,120.5556,0.93874216
C0M780,鹿草,2020-08-29,23.4113,120.3084,0.6742518
C0M790,新港,2020-08-29,23.5533,120.3457,0.61166525
C0M800,茶山,2020-08-29,23.2991,120.6648,0.05891749
C0M880,好美里,2020-08-29,23.3364,120.138,0.45959947
C0N010,鯤鯓國小,2020-08-29,23.1879,120.0889,0.64717704
C0N020,城西,2020-08-29,23.0568,120.0956,0.3509435
C0N030,四草,2020-08-29,23.0235,120.1116,0.27680448
C0N040,蘆竹溝,2020-08-29,23.2344,120.0961,0.64717674
C0N050,蚵寮,2020-08-29,23.301,120.1104,0.64717704
C0O810,曾文,2020-08-29,23.2197,120.4973,0.9757668
C0O830,北寮,2020-08-29,23.0796,120.495,0.074276455
C0O840,王爺宮,2020-08-29,23.2221,120.4009,0.9757668
C0O860,大內,2020-08-29,23.1188,120.3608,0.76224935
C0O900,善化,2020-08-29,23.1129,120.2972,0.45830888
C0O930,玉井,2020-08-29,23.126,120.4605,0.9033292
C0O950,安南,2020-08-29,23.0767,120.1449,0.3245497
C0O960,崎頂,2020-08-29,22.9595,120.3693,0.05043326
C0O970,虎頭埤,2020-08-29,23.0214,120.3479,0.41617122
C0O980,新市,2020-08-29,23.0616,120.2982,0.45830888
C0O990,媽廟,2020-08-29,22.9917,120.2935,0.3855138
C0R150,三地門,2020-08-29,22.7099,120.6399,0.07848351
C0R160,鹽埔,2020-08-29,22.7396,120.5308,0.07629374
C0R170,屏東,2020-08-29,22.6603,120.4941,0.15087631
C0R190,赤山,2020-08-29,22.5923,120.6143,0.083591305
C0R220,潮州,2020-08-29,22.5344,120.54,0.08604536
C0R240,來義,2020-08-29,22.5273,120.6251,0.20142516
C0R260,春日,2020-08-29,22.3704,120.6283,0.17452064
C0R270,琉球嶼,2020-08-29,22.3322,120.3622,0.18117875
C0R280,檳榔,2020-08-29,22.0761,120.8368,0.1776155
C0R320,車城,2020-08-29,22.0744,120.7162,0.041936673
C0R341,牡丹,2020-08-29,22.13,120.7926,0.7212851
C0R350,貓鼻頭,2020-08-29,21.9218,120.7358,0.048754092
C0R470,高樹,2020-08-29,22.8264,120.6008,0.085326836
C0R480,長治,2020-08-29,22.6931,120.5426,0.0785936
C0R490,九如,2020-08-29,22.7405,120.4905,0.15311943
C0R520,崁頂,2020-08-29,22.5148,120.5069,0.16955487
C0R540,佳冬,2020-08-29,22.4195,120.5524,0.16768217
C0R550,新埤,2020-08-29,22.4679,120.5829,0.08129887
C0R560,新園,2020-08-29,22.5434,120.4616,0.16955487
C0R570,麟洛,2020-08-29,22.6508,120.5272,0.15311939
C0R580,南州,2020-08-29,22.4859,120.5027,0.16768217
C0R590,里港,2020-08-29,22.7792,120.4946,0.08251042
C0R620,墾雷,2020-08-29,21.9008,120.8553,0.048754103
C0R640,東港,2020-08-29,22.4625,120.4407,0.177006
C0R650,竹田,2020-08-29,22.5849,120.5434,0.078950696
C0R660,枋寮,2020-08-29,22.3677,120.5906,0.0814525
C0R670,楓港,2020-08-29,22.1901,120.6922,0.17065594
C0R680,佳樂水,2020-08-29,21.9936,120.8616,0.0449607
C0R690,墾丁,2020-08-29,21.9668,120.8103,0.22479203
C0R700,枋山,2020-08-29,22.2468,120.6611,0.17065594
C0R710,龍磐,2020-08-29,21.9317,120.8389,0.08369838
C0R720,旭海,2020-08-29,22.2054,120.8876,0.52956617
C0R730,大坪頂,2020-08-29,22.0246,120.6936,0.073103726
C0R740,獅子,2020-08-29,22.2016,120.7053,0.20373389
C0R760,南仁湖,2020-08-29,22.0847,120.8634,0.3557247
C0R770,保力,2020-08-29,22.0711,120.7641,0.06319752
C0R780,滿州,2020-08-29,22.0244,120.8399,0.050927002
C0R790,九棚,2020-08-29,22.142,120.8893,0.37486634
C0R800,丹路,2020-08-29,22.2045,120.751,0.30911693
C0R810,內獅,2020-08-29,22.3051,120.643,0.13973154
C0R830,高士,2020-08-29,22.1218,120.8368,0.7145325
C0R850,林邊,2020-08-29,22.4634,120.5339,0.16955487
C0R860,鼻頭,2020-08-29,22.1043,120.8979,0.13520402
C0R870,興海,2020-08-29,21.9752,120.8439,0.0449607
C0R880,後壁湖,2020-08-29,21.9457,120.7457,0.04059762
C0R890,山海,2020-08-29,21.9878,120.7091,0.041936673
C0R900,竹坑,2020-08-29,22.1385,120.7022,0.36586627
C0R910,下寮,2020-08-29,22.3929,120.5548,0.16768217
C0R920,塭仔,2020-08-29,22.4169,120.5197,0.16617972
C0R930,萬丹,2020-08-29,22.5885,120.4851,0.078950696
C0R940,加祿堂,2020-08-29,22.3363,120.6217,0.13973154
C0S710,鹿野,2020-08-29,22.9177,121.123,0.2464323
C0S730,綠島,2020-08-29,22.6672,121.4753,0.12659986
C0S740,池上,2020-08-29,23.1196,121.2095,0.124542564
C0S770,大溪山,2020-08-29,22.4785,120.9433,0.8956622
C0S790,金崙,2020-08-29,22.5381,120.9669,0.2670242
C0S810,東河,2020-08-29,22.9727,121.304,0.086884506
C0S830,長濱,2020-08-29,23.2868,121.412,0.1779624
C0S840,南田,2020-08-29,22.2797,120.8892,0.05095672
C0S890,關山,2020-08-29,23.0395,121.175,0.15638953
C0S900,蘭嶼高中,2020-08-29,22.0491,121.5121,0.055374045
C0S910,蘭嶼燈塔,2020-08-29,22.0812,121.5031,0.13702354
C0S920,金峰嘉蘭,2020-08-29,22.5948,120.9608,0.048781198
C0S930,延平,2020-08-29,22.9026,121.0841,0.13070367
C0S940,石寧山,2020-08-29,23.2238,121.4066,0.11781951
C0S950,七塊厝,2020-08-29,22.9545,121.2299,0.35318428
C0S960,香蘭,2020-08-29,22.5876,120.9934,0.030284472
C0S970,加津林,2020-08-29,22.4162,120.9269,0.030818922
C0S990,山豬窟,2020-08-29,22.3186,120.8574,0.84628457
C0SA00,歷坵,2020-08-29,22.521,120.8919,0.92868567
C0SA10,檳榔四格山,2020-08-29,22.81,121.1093,0.9269247
C0SA30,都歷,2020-08-29,23.0203,121.3236,0.12132221
C0SA40,瑞和,2020-08-29,22.9744,121.1567,0.14926139
C0SA60,知本（水試所）,2020-08-29,22.7024,121.0828,0.05032431
C0SA80,土,2020-08-29,22.4531,120.8876,0.07872285
C0SA90,達仁林場,2020-08-29,22.2643,120.824,0.9780957
C0T870,鯉魚潭,2020-08-29,23.9356,121.5089,0.80300796
C0T900,西林,2020-08-29,23.8119,121.4415,0.89186263
C0T960,光復,2020-08-29,23.6607,121.425,0.9299784
C0T9A0,月眉山,2020-08-29,23.8099,121.5398,0.99452084
C0T9D0,和中,2020-08-29,24.2668,121.741,0.17915547
C0T9E0,大坑,2020-08-29,23.8806,121.582,0.99409246
C0T9F0,水璉,2020-08-29,23.7971,121.5425,0.9789602
C0T9I0,豐濱,2020-08-29,23.5839,121.5148,0.94250053
C0T9M0,靜浦,2020-08-29,23.4552,121.495,0.8448206
C0T9N0,富里,2020-08-29,23.1716,121.2494,0.5395839
C0U600,礁溪,2020-08-29,24.8175,121.7656,0.082115054
C0U650,玉蘭,2020-08-29,24.6753,121.5871,0.5608485
C0U750,龜山島,2020-08-29,24.8417,121.9531,0.31284317
C0U760,東澳,2020-08-29,24.522,121.8332,0.15882598
C0U770,南澳,2020-08-29,24.4493,121.8102,0.15374525
C0U780,五結,2020-08-29,24.6864,121.7979,0.11886288
C0U860,頭城,2020-08-29,24.8532,121.8308,0.08131256
C0U870,大礁溪,2020-08-29,24.791,121.675,0.32629097
C0U880,北關,2020-08-29,24.9072,121.8734,0.045425918
C0U890,三星,2020-08-29,24.6681,121.653,0.090354934
C0U900,內城,2020-08-29,24.7181,121.6877,0.08395852
C0U910,冬山,2020-08-29,24.6337,121.7937,0.11886288
C0U940,羅東,2020-08-29,24.6818,121.7493,0.11956766
C0U970,大福,2020-08-29,24.8006,121.8139,0.08088746
C0U990,員山,2020-08-29,24.7444,121.7225,0.11956766
C0UA00,土場,2020-08-29,24.5765,121.4953,0.46462703
C0UA80,大溪漁港,2020-08-29,24.9418,121.903,0.08211502
C0UA90,石城,2020-08-29,24.9804,121.9512,0.10046497
C0UB00,淡江大學蘭陽校園,2020-08-29,24.8232,121.7304,0.45087793
C0UB10,蘇澳,2020-08-29,24.5969,121.8571,0.17458268
C0UB20,壯圍,2020-08-29,24.7359,121.8163,0.118174784
C0V250,甲仙,2020-08-29,23.0801,120.5918,0.10585814
C0V260,月眉,2020-08-29,22.971,120.5399,0.061031196
C0V310,美濃,2020-08-29,22.8987,120.5192,0.5645997
C0V350,溪埔,2020-08-29,22.7386,120.4468,0.1613389
C0V360,內門,2020-08-29,22.9755,120.4668,0.7653893
C0V370,古亭坑,2020-08-29,22.8932,120.4019,0.46344018
C0V400,阿公店,2020-08-29,22.8042,120.3555,0.14187276
C0V440,鳳山,2020-08-29,22.6467,120.3561,0.18389927
C0V450,鳳森,2020-08-29,22.5451,120.3926,0.09366021
C0V490,新興,2020-08-29,22.6274,120.2988,0.17923383
C0V530,阿蓮,2020-08-29,22.8832,120.3275,0.29778764
C0V610,梓官,2020-08-29,22.7606,120.2672,0.12728688
C0V620,永安,2020-08-29,22.8231,120.2369,0.12444832
C0V630,茄萣,2020-08-29,22.9066,120.1826,0.25483268
C0V640,湖內,2020-08-29,22.8871,120.2445,0.26345885
C0V650,彌陀,2020-08-29,22.7838,120.2464,0.12444832
C0V660,岡山,2020-08-29,22.7971,120.295,0.127287
C0V680,仁武,2020-08-29,22.7011,120.3477,0.1599064
C0V690,鼓山,2020-08-29,22.6233,120.2756,0.17923383
C0V700,三民,2020-08-29,22.645,120.3112,0.17923383
C0V710,苓雅,2020-08-29,22.6227,120.3307,0.17923383
C0V720,林園,2020-08-29,22.5077,120.3945,0.17923383
C0V730,大寮,2020-08-29,22.6056,120.3957,0.08087597
C0V740,旗山,2020-08-29,22.8886,120.4836,0.5814239
C0V750,路竹,2020-08-29,22.855,120.2594,0.12217073
C0V760,橋頭,2020-08-29,22.7578,120.3058,0.12965064
C0V770,大社,2020-08-29,22.7303,120.3466,0.1599064
C0V790,萬山,2020-08-29,22.9059,120.6881,0.050365996
C0V800,六龜,2020-08-29,22.9979,120.6336,0.073970206
C0V810,左營,2020-08-29,22.6749,120.2849,0.15647125
C0V820,小林,2020-08-29,23.1484,120.6333,0.083167054
C0V840,鳳鼻頭,2020-08-29,22.5083,120.3591,0.177006
C0V850,蚵仔寮,2020-08-29,22.7256,120.2527,0.15433404
C0V860,南寮,2020-08-29,22.7616,120.2339,0.12186483
C0V870,文安,2020-08-29,22.8025,120.2164,0.12186483
C0V880,興達,2020-08-29,22.8778,120.2127,0.25483268
C0V890,前鎮,2020-08-29,22.5718,120.3117,0.177006
C0V900,汕尾,2020-08-29,22.4782,120.4151,0.15985082
C0X050,東河,2020-08-29,23.2966,120.3856,0.8098025
C0X060,下營,2020-08-29,23.2269,120.2563,0.48441106
C0X080,佳里,2020-08-29,23.173,120.1451,0.4595988
C0X100,臺南市北區,2020-08-29,23.0104,120.1942,0.26835096
C0X110,臺南市南區,2020-08-29,22.9612,120.1884,0.27666232
C0X120,麻豆,2020-08-29,23.1833,120.2486,0.4688838
C0X130,官田,2020-08-29,23.1932,120.3154,0.50129
C0X140,西港,2020-08-29,23.1256,120.2031,0.38503057
C0X150,安定,2020-08-29,23.1026,120.2278,0.36968058
C0X160,仁德,2020-08-29,22.9683,120.2577,0.37169445
C0X170,關廟,2020-08-29,22.963,120.3278,0.4160793
C0X180,山上,2020-08-29,23.0757,120.3633,0.7582009
C0X190,安平,2020-08-29,22.9932,120.1522,0.26835096
C0X200,左鎮,2020-08-29,23.0568,120.4085,0.7377264
C0X210,白河,2020-08-29,23.3475,120.4144,0.83891857
C0X220,學甲,2020-08-29,23.2304,120.1822,0.4688837
C0X230,鹽水,2020-08-29,23.2726,120.2476,0.4802955
C0X240,關子嶺,2020-08-29,23.3312,120.508,0.19110888
C0X250,新營,2020-08-29,23.3107,120.3167,0.48205352
C0X260,後壁,2020-08-29,23.3664,120.3623,0.61922175
C0X280,將軍,2020-08-29,23.215,120.1358,0.45959947
C0X290,北門,2020-08-29,23.2678,120.1255,0.45959947
C0X300,鹿寮,2020-08-29,23.386,120.4773,0.92839307
C0X310,七股,2020-08-29,23.1473,120.0863,0.5228759
C0X320,柳營,2020-08-29,23.2533,120.3753,0.8253793
C0Z020,明里,2020-08-29,23.2087,121.2623,0.15463978
C0Z061,玉里,2020-08-29,23.3215,121.3397,0.11161392
C0Z070,舞鶴,2020-08-29,23.4681,121.3741,0.98366076
C0Z080,富源,2020-08-29,23.5876,121.3782,0.98170453
C0Z100,東華,2020-08-29,23.8953,121.5498,0.41793147
C0Z150,吉安光華,2020-08-29,23.9309,121.5952,0.34791455
C0Z160,鳳林,2020-08-29,23.7461,121.4534,0.9095313
C0Z170,卓溪,2020-08-29,23.3443,121.3029,0.11982097
C0Z180,新城,2020-08-29,24.0395,121.6045,0.8889813
C0Z190,富世,2020-08-29,24.1474,121.6297,0.338623
C0Z200,萬榮,2020-08-29,23.7092,121.4201,0.80300796
C0Z210,瑞穗,2020-08-29,23.5239,121.3902,0.9155024
C0Z230,和平,2020-08-29,24.3072,121.7701,0.1791555
C0Z270,蕃薯寮,2020-08-29,23.7384,121.5401,0.8963671
C0Z280,德武,2020-08-29,23.4743,121.4107,0.95915323
C0Z300,東里,2020-08-29,23.2685,121.3055,0.11605427
C0Z310,清水斷崖,2020-08-29,24.2183,121.6891,0.22087206
C0Z330,安通山,2020-08-29,23.2907,121.3485,0.26391461
