站號,站名,日期,lat,lon,BlastGRU-TW
466881,新北,2020-07-16,24.9593,121.52,0.43792868
466900,淡水,2020-07-16,25.164889,121.448906,0.5733863
466920,臺北,2020-07-16,25.037658,121.514853,0.4223936
467350,澎湖,2020-07-16,23.565503,119.563094,0.55006206
467410,臺南,2020-07-16,22.993239,120.204772,0.12647086
467420,永康,2020-07-16,23.038386,120.2367,0.124983646
467790,墾丁雷達站,2020-07-16,21.948235,120.808028,0.92921364
C0A520,山佳,2020-07-16,24.974944,121.402008,0.54369944
C0A530,坪林,2020-07-16,24.938183,121.70975,0.116005085
C0A880,福隆,2020-07-16,25.017842,121.942083,0.05495117
C0A890,雙溪,2020-07-16,25.036003,121.864242,0.39516416
C0A920,富貴角,2020-07-16,25.263783,121.565258,0.582942
C0AC80,文山,2020-07-16,25.00235,121.575728,0.46174973
C0ACA0,新莊,2020-07-16,25.051478,121.446756,0.5310123
C0AD00,三芝,2020-07-16,25.258131,121.501917,0.6287333
C0AH70,松山,2020-07-16,25.04871,121.55042,0.42239386
C0AH80,深坑,2020-07-16,25.002703,121.628328,0.46174973
C0AI00,五股,2020-07-16,25.07445,121.42728,0.8531534
C0AJ70,田寮,2020-07-16,25.2698,121.4886,0.5679285
