站號,站名,日期,lat,lon,BlastGRU-TW
466881,新北,2020-05-19,24.9593,121.52,0.29586235
466900,淡水,2020-05-19,25.1649,121.4489,0.36008325
466920,臺北,2020-05-19,25.0377,121.5149,0.25469327
466940,基隆,2020-05-19,25.1333,121.7405,0.50720775
466990,花蓮,2020-05-19,23.9751,121.6133,0.0037757508
467050,新屋,2020-05-19,25.0067,121.0475,0.49576655
467080,宜蘭,2020-05-19,24.764,121.7565,0.7615769
467270,田中,2020-05-19,23.8738,120.5813,0.6366565
467300,東吉島,2020-05-19,23.2569,119.6675,0.9113602
467350,澎湖,2020-05-19,23.5655,119.5631,0.8347251
467410,臺南,2020-05-19,22.9932,120.2048,0.21553877
467420,永康,2020-05-19,23.0384,120.2367,0.20880784
467441,高雄,2020-05-19,22.7304,120.3125,0.34041908
467480,嘉義,2020-05-19,23.4959,120.4329,0.7009913
467490,臺中,2020-05-19,24.1457,120.6841,0.89499
467540,大武,2020-05-19,22.3557,120.9038,0.114135265
467571,新竹,2020-05-19,24.8279,121.0142,0.64685047
467590,恆春,2020-05-19,22.0039,120.7463,0.6704223
467610,成功,2020-05-19,23.0975,121.3734,0.0382999
467620,蘭嶼,2020-05-19,22.037,121.5583,0.96998954
467660,臺東,2020-05-19,22.7522,121.1546,0.32581517
467790,墾丁雷達站,2020-05-19,21.9482,120.808,0.71766186
C0A520,山佳,2020-05-19,24.9749,121.402,0.3238464
C0A530,坪林,2020-05-19,24.9382,121.7097,0.80346155
C0A540,四堵,2020-05-19,24.8926,121.7457,0.86192006
C0A550,泰平,2020-05-19,24.9712,121.8237,0.93669236
C0A560,福山,2020-05-19,24.7762,121.5028,0.88595563
C0A570,桶後,2020-05-19,24.8482,121.598,0.8397625
C0A640,石碇,2020-05-19,24.994,121.6629,0.884262
C0A650,火燒寮,2020-05-19,25.0027,121.7429,0.87562364
C0A660,瑞芳,2020-05-19,25.1132,121.8011,0.8669744
C0A770,科教館,2020-05-19,25.0964,121.5165,0.26454425
C0A860,大坪,2020-05-19,25.1659,121.633,0.8370599
C0A880,福隆,2020-05-19,25.0178,121.9421,0.6973524
C0A890,雙溪,2020-05-19,25.036,121.8642,0.6082088
C0A920,富貴角,2020-05-19,25.2638,121.5653,0.66170096
C0A931,三和,2020-05-19,25.2332,121.5952,0.9046502
C0A940,金山,2020-05-19,25.2236,121.644,0.60465395
C0A950,鼻頭角,2020-05-19,25.129,121.9234,0.6603715
C0A970,三貂角,2020-05-19,25.0076,122.0021,0.8500277
C0A980,社子,2020-05-19,25.1095,121.4697,0.24871871
C0A9C0,天母,2020-05-19,25.1175,121.5372,0.30044985
C0A9F0,內湖,2020-05-19,25.0794,121.5755,0.25469327
C0AC60,三峽,2020-05-19,24.939,121.3697,0.31884158
C0AC70,信義,2020-05-19,25.0378,121.5646,0.25469327
C0AC80,文山,2020-05-19,25.0023,121.5757,0.3642503
C0ACA0,新莊,2020-05-19,25.0515,121.4468,0.3200492
C0AD00,三芝,2020-05-19,25.2581,121.5019,0.63827616
C0AD10,八里,2020-05-19,25.1502,121.4039,0.36008325
C0AD30,蘆洲,2020-05-19,25.0866,121.4723,0.26454425
C0AD40,土城,2020-05-19,24.9732,121.4452,0.28306267
C0AD50,鶯歌,2020-05-19,24.9515,121.3463,0.3628197
C0AG80,中和,2020-05-19,24.9916,121.4918,0.25469366
C0AH00,汐止,2020-05-19,25.0669,121.6588,0.5298044
C0AH10,永和,2020-05-19,25.0113,121.5081,0.23652929
C0AH40,平等,2020-05-19,25.1291,121.5771,0.84672123
C0AH50,林口,2020-05-19,25.0722,121.3808,0.84559184
C0AH70,松山,2020-05-19,25.0487,121.5504,0.25469327
C0AH80,深坑,2020-05-19,25.0027,121.6283,0.34019637
C0AI00,五股,2020-05-19,25.0744,121.4273,0.8179998
C0AI10,屈尺,2020-05-19,24.9218,121.5447,0.3642503
C0AI20,白沙灣,2020-05-19,25.2831,121.5191,0.58123773
C0AI30,三重,2020-05-19,25.0573,121.5006,0.26454425
C0AI40,石牌,2020-05-19,25.1156,121.5131,0.28306267
C0AJ20,野柳,2020-05-19,25.207,121.69,0.5298044
C0AJ30,淡水觀海,2020-05-19,25.1846,121.4086,0.34412625
C0AJ40,石門,2020-05-19,25.2737,121.6012,0.65153337
C0AJ50,水湳洞,2020-05-19,25.1237,121.8622,0.5298044
C0AJ60,六塊厝,2020-05-19,25.24,121.4481,0.34412625
C0AJ70,田寮,2020-05-19,25.2698,121.4886,0.5703178
C0AJ80,板橋,2020-05-19,25.0107,121.4489,0.28306267
C0AJ90,澳底,2020-05-19,25.0552,121.9253,0.6973524
C0B010,七堵,2020-05-19,25.0948,121.7171,0.5683105
C0B020,基隆嶼,2020-05-19,25.1914,121.7839,0.5298044
C0B040,大武崙,2020-05-19,25.1667,121.707,0.5683105
C0B050,八斗子,2020-05-19,25.1448,121.7917,0.4874412
C0B060,暖暖,2020-05-19,25.0957,121.7403,0.6456819
C0C460,復興,2020-05-19,24.8202,121.3523,0.8575279
C0C480,桃園,2020-05-19,24.9924,121.3232,0.8211733
C0C490,八德,2020-05-19,24.9287,121.2833,0.7423176
C0C590,觀音,2020-05-19,25.0271,121.1533,0.38173634
C0C620,蘆竹,2020-05-19,25.0843,121.2658,0.3955456
C0C630,大溪,2020-05-19,24.8829,121.2655,0.7963261
C0C650,平鎮,2020-05-19,24.8975,121.2146,0.80105567
C0C660,楊梅,2020-05-19,24.9124,121.143,0.78644055
C0C670,龍潭,2020-05-19,24.8701,121.2214,0.8729483
C0C680,龜山,2020-05-19,25.0285,121.3866,0.50423056
C0C700,中壢,2020-05-19,24.9777,121.2564,0.8270753
C0C710,大溪永福,2020-05-19,24.8929,121.325,0.78684384
C0C720,竹圍,2020-05-19,25.1127,121.2398,0.36008325
C0C730,中大臨海站,2020-05-19,24.9661,121.0086,0.4459773
C0C740,觀音工業區,2020-05-19,25.0648,121.1149,0.78364295
C0C750,新興坑尾,2020-05-19,25.0061,121.0971,0.7925389
C0D430,峨眉,2020-05-19,24.6905,121.0172,0.5361151
C0D480,打鐵坑,2020-05-19,24.8497,121.1508,0.8801796
C0D540,橫山,2020-05-19,24.7112,121.1169,0.88381726
C0D560,竹東,2020-05-19,24.7671,121.0579,0.6914129
C0D580,寶山,2020-05-19,24.735,121.0252,0.8497891
C0D590,新豐,2020-05-19,24.8707,120.9772,0.70477647
C0D650,湖口,2020-05-19,24.9048,121.0436,0.6141966
C0D660,新竹市東區,2020-05-19,24.7987,120.9869,0.6769803
C0D670,海天一線,2020-05-19,24.832,120.9144,0.5764897
C0D680,香山濕地,2020-05-19,24.7836,120.915,0.595184
C0D690,外湖,2020-05-19,24.9177,120.9687,0.4459773
C0D700,關西,2020-05-19,24.7977,121.1732,0.7914871
C0E420,竹南,2020-05-19,24.709,120.8889,0.6483197
C0E430,南庄,2020-05-19,24.6018,121.0002,0.8610625
C0E520,大湖,2020-05-19,24.4149,120.8709,0.8818562
C0E540,後龍,2020-05-19,24.6065,120.7839,0.86738175
C0E550,明德,2020-05-19,24.5835,120.8854,0.9254568
C0E590,通霄,2020-05-19,24.4719,120.7046,0.8561558
C0E730,頭份,2020-05-19,24.6882,120.9122,0.6483197
C0E740,造橋,2020-05-19,24.6371,120.8648,0.89364916
C0E750,苗栗,2020-05-19,24.5646,120.8246,0.914653
C0E780,銅鑼,2020-05-19,24.4897,120.7909,0.8894394
C0E791,卓蘭,2020-05-19,24.3126,120.8244,0.8606053
C0E810,西湖,2020-05-19,24.5629,120.7485,0.89918625
C0E820,獅潭,2020-05-19,24.5391,120.92,0.90495867
C0E830,苑裡,2020-05-19,24.4397,120.6531,0.73980165
C0E850,大河,2020-05-19,24.6181,120.9486,0.9329327
C0E870,高鐵苗栗,2020-05-19,24.6073,120.8261,0.8790661
C0E910,海埔,2020-05-19,24.6488,120.7724,0.8497391
C0E920,通霄漁港,2020-05-19,24.4986,120.6739,0.77137005
C0E930,龍鳳,2020-05-19,24.7,120.8591,0.8637496
C0F000,大肚,2020-05-19,24.153,120.5721,0.7994643
C0F0B0,石岡,2020-05-19,24.2761,120.7776,0.7881105
C0F850,東勢,2020-05-19,24.2464,120.833,0.8345008
C0F930,大甲,2020-05-19,24.3477,120.6404,0.8280338
C0F970,大坑,2020-05-19,24.1731,120.7223,0.9339552
C0F9A0,中竹林,2020-05-19,24.1036,120.7511,0.6141781
C0F9I0,神岡,2020-05-19,24.2725,120.6583,0.9463414
C0F9K0,大安,2020-05-19,24.3451,120.588,0.6145925
C0F9L0,后里,2020-05-19,24.3104,120.7297,0.9456236
C0F9M0,豐原,2020-05-19,24.2543,120.7207,0.947726
C0F9N0,大里,2020-05-19,24.0925,120.7014,0.6485252
C0F9O0,潭子,2020-05-19,24.2131,120.7039,0.94520724
C0F9P0,清水,2020-05-19,24.3123,120.5622,0.56336766
C0F9Q0,外埔,2020-05-19,24.3478,120.7057,0.9377186
C0F9R0,龍井,2020-05-19,24.1845,120.529,0.59662116
C0F9S0,烏日,2020-05-19,24.1071,120.6241,0.4871477
C0F9T0,西屯,2020-05-19,24.1795,120.6413,0.7991958
C0F9U0,南屯,2020-05-19,24.137,120.638,0.6485252
C0F9X0,大雅(中科園區),2020-05-19,24.2153,120.6244,0.910683
C0FA10,松柏,2020-05-19,24.4291,120.6175,0.6651234
C0FA20,溫寮,2020-05-19,24.3722,120.5831,0.6651234
C0FA30,梧棲,2020-05-19,24.256,120.5234,0.59662116
C0FA40,臺中電廠,2020-05-19,24.2146,120.4907,0.59662116
C0FA50,霧峰,2020-05-19,24.0419,120.6995,0.7670845
C0G620,芬園,2020-05-19,24.0157,120.6213,0.72753596
C0G640,鹿港,2020-05-19,24.0753,120.4305,0.5538869
C0G650,員林,2020-05-19,23.9465,120.5856,0.6828728
C0G660,溪湖,2020-05-19,23.9484,120.4791,0.7041139
C0G720,溪州,2020-05-19,23.8516,120.4991,0.6855992
C0G730,二林,2020-05-19,23.9033,120.3761,0.6515458
C0G740,大城,2020-05-19,23.8525,120.3209,0.49042022
C0G770,福興,2020-05-19,24.0413,120.4377,0.5538869
C0G780,秀水,2020-05-19,24.0341,120.5039,0.4774705
C0G800,埔鹽,2020-05-19,24.0004,120.4317,0.5538869
C0G810,埔心,2020-05-19,23.9476,120.5255,0.72282714
C0G820,田尾,2020-05-19,23.9017,120.5094,0.739226
C0G830,埤頭,2020-05-19,23.866,120.4528,0.641455
C0G840,北斗,2020-05-19,23.8776,120.5142,0.739226
C0G860,社頭,2020-05-19,23.8976,120.5862,0.7017465
C0G870,芳苑,2020-05-19,23.9223,120.32,0.4676792
C0G880,二水,2020-05-19,23.8107,120.6173,0.83335143
C0G890,伸港,2020-05-19,24.1489,120.4844,0.5260238
C0G900,線西,2020-05-19,24.1434,120.4435,0.63122827
C0G910,花壇,2020-05-19,24.0321,120.5495,0.5189061
C0G920,永靖,2020-05-19,23.9247,120.5475,0.739226
C0G940,竹塘,2020-05-19,23.8483,120.3868,0.43217617
C0G950,防潮門,2020-05-19,24.1835,120.4871,0.56869227
C0G960,福寶,2020-05-19,24.0443,120.3814,0.5333773
C0G970,三豐,2020-05-19,23.882,120.2895,0.4676792
C0H890,埔里,2020-05-19,23.9722,120.9524,0.8442785
C0H950,中寮,2020-05-19,23.8844,120.7664,0.91935354
C0H960,草屯,2020-05-19,23.9737,120.6809,0.79650414
C0I110,竹山,2020-05-19,23.7612,120.6882,0.90773016
C0I360,水里,2020-05-19,23.8126,120.8498,0.90346783
C0I380,集集,2020-05-19,23.8282,120.8015,0.90044725
C0I410,名間,2020-05-19,23.8371,120.7014,0.87707794
C0I420,國姓,2020-05-19,24.0378,120.8551,0.7187312
C0I460,南投,2020-05-19,23.9115,120.6873,0.86439276
C0K250,崙背,2020-05-19,23.7555,120.3189,0.45979607
C0K280,四湖,2020-05-19,23.6304,120.2271,0.4492279
C0K291,宜梧,2020-05-19,23.5363,120.1693,0.24884062
C0K330,虎尾,2020-05-19,23.7192,120.442,0.41249812
C0K390,土庫,2020-05-19,23.679,120.3956,0.39575553
C0K400,斗六,2020-05-19,23.7206,120.5411,0.59390295
C0K410,北港,2020-05-19,23.574,120.2928,0.25381196
C0K420,西螺,2020-05-19,23.8004,120.4674,0.7163408
C0K430,褒忠,2020-05-19,23.6909,120.3036,0.31603616
C0K440,二崙,2020-05-19,23.7728,120.4089,0.45200187
C0K450,大埤,2020-05-19,23.6461,120.4315,0.40284264
C0K460,斗南,2020-05-19,23.6787,120.4784,0.55237883
C0K470,林內,2020-05-19,23.7487,120.6096,0.6313921
C0K480,莿桐,2020-05-19,23.7612,120.5024,0.7368371
C0K500,元長,2020-05-19,23.6498,120.315,0.35010296
C0K510,水林,2020-05-19,23.5729,120.246,0.33874902
C0K530,臺西,2020-05-19,23.7015,120.1976,0.40050536
C0K550,蔦松,2020-05-19,23.5143,120.2297,0.26426223
C0K560,棋山,2020-05-19,23.6865,120.6034,0.6971562
C0K580,高鐵雲林,2020-05-19,23.7375,120.4179,0.39575553
C0K590,雲林東勢,2020-05-19,23.6742,120.2557,0.31603616
C0K600,箔子寮,2020-05-19,23.6197,120.14,0.31755972
C0M410,馬頭山,2020-05-19,23.3244,120.582,0.88047457
C0M520,東後寮,2020-05-19,23.3699,120.2481,0.26042408
C0M640,中埔,2020-05-19,23.4254,120.5229,0.8107908
C0M650,朴子,2020-05-19,23.4346,120.239,0.24414276
C0M660,溪口,2020-05-19,23.6041,120.4036,0.51048476
C0M670,大林,2020-05-19,23.6006,120.4584,0.64551854
C0M680,太保,2020-05-19,23.4551,120.3315,0.22930436
C0M690,水上,2020-05-19,23.4197,120.3889,0.72233075
C0M700,竹崎,2020-05-19,23.5262,120.5555,0.8702309
C0M710,東石,2020-05-19,23.4589,120.1539,0.26426223
C0M720,番路,2020-05-19,23.4647,120.5542,0.9031364
C0M730,嘉義市東區,2020-05-19,23.4577,120.4605,0.81700456
C0M740,六腳,2020-05-19,23.4929,120.2906,0.21698703
C0M750,布袋,2020-05-19,23.3809,120.1678,0.24414276
C0M760,民雄,2020-05-19,23.5518,120.4285,0.55841136
C0M770,嘉義梅山,2020-05-19,23.5854,120.5556,0.7916949
C0M780,鹿草,2020-05-19,23.4113,120.3084,0.27219248
C0M790,新港,2020-05-19,23.5533,120.3457,0.2698997
C0M800,茶山,2020-05-19,23.2991,120.6648,0.77240145
C0M880,好美里,2020-05-19,23.3364,120.138,0.19297375
C0N010,鯤鯓國小,2020-05-19,23.1879,120.0889,0.16508861
C0N020,城西,2020-05-19,23.0568,120.0956,0.2090261
C0N030,四草,2020-05-19,23.0235,120.1116,0.17332235
C0N040,蘆竹溝,2020-05-19,23.2344,120.0961,0.16508861
C0N050,蚵寮,2020-05-19,23.301,120.1104,0.16508861
C0O810,曾文,2020-05-19,23.2197,120.4973,0.84631157
C0O830,北寮,2020-05-19,23.0796,120.495,0.62324107
C0O840,王爺宮,2020-05-19,23.2221,120.4009,0.84631157
C0O860,大內,2020-05-19,23.1188,120.3608,0.5895428
C0O900,善化,2020-05-19,23.1129,120.2972,0.23390031
C0O930,玉井,2020-05-19,23.126,120.4605,0.6329332
C0O950,安南,2020-05-19,23.0767,120.1449,0.2535094
C0O960,崎頂,2020-05-19,22.9595,120.3693,0.5188751
C0O970,虎頭埤,2020-05-19,23.0214,120.3479,0.25250396
C0O980,新市,2020-05-19,23.0616,120.2982,0.23390031
C0O990,媽廟,2020-05-19,22.9917,120.2935,0.2385551
C0R150,三地門,2020-05-19,22.7099,120.6399,0.36675042
C0R160,鹽埔,2020-05-19,22.7396,120.5308,0.45847517
C0R170,屏東,2020-05-19,22.6603,120.4941,0.4875388
C0R190,赤山,2020-05-19,22.5923,120.6143,0.4622913
C0R220,潮州,2020-05-19,22.5344,120.54,0.64770573
C0R240,來義,2020-05-19,22.5273,120.6251,0.7774344
C0R260,春日,2020-05-19,22.3704,120.6283,0.734865
C0R270,琉球嶼,2020-05-19,22.3322,120.3622,0.74601454
C0R280,檳榔,2020-05-19,22.0761,120.8368,0.8344574
C0R320,車城,2020-05-19,22.0744,120.7162,0.6156728
C0R341,牡丹,2020-05-19,22.13,120.7926,0.90608406
C0R350,貓鼻頭,2020-05-19,21.9218,120.7358,0.6870684
C0R470,高樹,2020-05-19,22.8264,120.6008,0.3628802
C0R480,長治,2020-05-19,22.6931,120.5426,0.4764173
C0R490,九如,2020-05-19,22.7405,120.4905,0.50545263
C0R520,崁頂,2020-05-19,22.5148,120.5069,0.6840691
C0R540,佳冬,2020-05-19,22.4195,120.5524,0.6695387
C0R550,新埤,2020-05-19,22.4679,120.5829,0.44405758
C0R560,新園,2020-05-19,22.5434,120.4616,0.6840691
C0R570,麟洛,2020-05-19,22.6508,120.5272,0.50545263
C0R580,南州,2020-05-19,22.4859,120.5027,0.6695387
C0R590,里港,2020-05-19,22.7792,120.4946,0.46694556
C0R620,墾雷,2020-05-19,21.9008,120.8553,0.6870684
C0R640,東港,2020-05-19,22.4625,120.4407,0.44734144
C0R650,竹田,2020-05-19,22.5849,120.5434,0.42888743
C0R660,枋寮,2020-05-19,22.3677,120.5906,0.6129351
C0R670,楓港,2020-05-19,22.1901,120.6922,0.66256773
C0R680,佳樂水,2020-05-19,21.9936,120.8616,0.6528957
C0R690,墾丁,2020-05-19,21.9668,120.8103,0.8340642
C0R700,枋山,2020-05-19,22.2468,120.6611,0.66256773
C0R710,龍磐,2020-05-19,21.9317,120.8389,0.7940656
C0R720,旭海,2020-05-19,22.2054,120.8876,0.5703454
C0R730,大坪頂,2020-05-19,22.0246,120.6936,0.7961335
C0R740,獅子,2020-05-19,22.2016,120.7053,0.74735904
C0R760,南仁湖,2020-05-19,22.0847,120.8634,0.82315785
C0R770,保力,2020-05-19,22.0711,120.7641,0.7562887
C0R780,滿州,2020-05-19,22.0244,120.8399,0.7028677
C0R790,九棚,2020-05-19,22.142,120.8893,0.47668985
C0R800,丹路,2020-05-19,22.2045,120.751,0.86487216
C0R810,內獅,2020-05-19,22.3051,120.643,0.6623204
C0R830,高士,2020-05-19,22.1218,120.8368,0.7960383
C0R850,林邊,2020-05-19,22.4634,120.5339,0.6840691
C0R860,鼻頭,2020-05-19,22.1043,120.8979,0.8064634
C0R870,興海,2020-05-19,21.9752,120.8439,0.6528957
C0R880,後壁湖,2020-05-19,21.9457,120.7457,0.5961427
C0R890,山海,2020-05-19,21.9878,120.7091,0.6156728
C0R900,竹坑,2020-05-19,22.1385,120.7022,0.74076486
C0R910,下寮,2020-05-19,22.3929,120.5548,0.6695387
C0R920,塭仔,2020-05-19,22.4169,120.5197,0.65427256
C0R930,萬丹,2020-05-19,22.5885,120.4851,0.42888743
C0R940,加祿堂,2020-05-19,22.3363,120.6217,0.66232044
C0S710,鹿野,2020-05-19,22.9177,121.123,0.98028386
C0S730,綠島,2020-05-19,22.6672,121.4753,0.06036583
C0S740,池上,2020-05-19,23.1196,121.2095,0.90102106
C0S770,大溪山,2020-05-19,22.4785,120.9433,0.5308859
C0S790,金崙,2020-05-19,22.5381,120.9669,0.22185397
C0S810,東河,2020-05-19,22.9727,121.304,0.061597135
C0S830,長濱,2020-05-19,23.2868,121.412,0.97424525
C0S840,南田,2020-05-19,22.2797,120.8892,0.17844918
C0S890,關山,2020-05-19,23.0395,121.175,0.17481515
C0S900,蘭嶼高中,2020-05-19,22.0491,121.5121,0.8873791
C0S910,蘭嶼燈塔,2020-05-19,22.0812,121.5031,0.95942855
C0S920,金峰嘉蘭,2020-05-19,22.5948,120.9608,0.1474064
C0S930,延平,2020-05-19,22.9026,121.0841,0.22435081
C0S940,石寧山,2020-05-19,23.2238,121.4066,0.61856735
C0S950,七塊厝,2020-05-19,22.9545,121.2299,0.9813012
C0S960,香蘭,2020-05-19,22.5876,120.9934,0.120384686
C0S970,加津林,2020-05-19,22.4162,120.9269,0.11862753
C0S990,山豬窟,2020-05-19,22.3186,120.8574,0.7682532
C0SA00,歷坵,2020-05-19,22.521,120.8919,0.66141105
C0SA10,檳榔四格山,2020-05-19,22.81,121.1093,0.77798647
C0SA30,都歷,2020-05-19,23.0203,121.3236,0.051660355
C0SA40,瑞和,2020-05-19,22.9744,121.1567,0.13211076
C0SA60,知本（水試所）,2020-05-19,22.7024,121.0828,0.17053236
C0SA80,土,2020-05-19,22.4531,120.8876,0.16516937
C0SA90,達仁林場,2020-05-19,22.2643,120.824,0.8623293
C0T870,鯉魚潭,2020-05-19,23.9356,121.5089,0.004188007
C0T900,西林,2020-05-19,23.8119,121.4415,0.006125858
C0T960,光復,2020-05-19,23.6607,121.425,0.0043554287
C0T9A0,月眉山,2020-05-19,23.8099,121.5398,0.6573411
C0T9D0,和中,2020-05-19,24.2668,121.741,0.04186253
C0T9E0,大坑,2020-05-19,23.8806,121.582,0.16134264
C0T9F0,水璉,2020-05-19,23.7971,121.5425,0.055499267
C0T9I0,豐濱,2020-05-19,23.5839,121.5148,0.0041872216
C0T9M0,靜浦,2020-05-19,23.4552,121.495,0.0035229598
C0T9N0,富里,2020-05-19,23.1716,121.2494,0.98406965
C0U600,礁溪,2020-05-19,24.8175,121.7656,0.77695763
C0U650,玉蘭,2020-05-19,24.6753,121.5871,0.9244862
C0U750,龜山島,2020-05-19,24.8417,121.9531,0.9144669
C0U760,東澳,2020-05-19,24.522,121.8332,0.28406218
C0U770,南澳,2020-05-19,24.4493,121.8102,0.17996463
C0U780,五結,2020-05-19,24.6864,121.7979,0.38443968
C0U860,頭城,2020-05-19,24.8532,121.8308,0.7615769
C0U870,大礁溪,2020-05-19,24.791,121.675,0.9341291
C0U880,北關,2020-05-19,24.9072,121.8734,0.5908233
C0U890,三星,2020-05-19,24.6681,121.653,0.8344816
C0U900,內城,2020-05-19,24.7181,121.6877,0.8094311
C0U910,冬山,2020-05-19,24.6337,121.7937,0.38443968
C0U940,羅東,2020-05-19,24.6818,121.7493,0.41293663
C0U970,大福,2020-05-19,24.8006,121.8139,0.74313164
C0U990,員山,2020-05-19,24.7444,121.7225,0.41293663
C0UA00,土場,2020-05-19,24.5765,121.4953,0.9262232
C0UA80,大溪漁港,2020-05-19,24.9418,121.903,0.77695763
C0UA90,石城,2020-05-19,24.9804,121.9512,0.70085365
C0UB00,淡江大學蘭陽校園,2020-05-19,24.8232,121.7304,0.9105915
C0UB10,蘇澳,2020-05-19,24.5969,121.8571,0.24716657
C0UB20,壯圍,2020-05-19,24.7359,121.8163,0.35846445
C0V250,甲仙,2020-05-19,23.0801,120.5918,0.78279746
C0V260,月眉,2020-05-19,22.971,120.5399,0.5980406
C0V310,美濃,2020-05-19,22.8987,120.5192,0.4931662
C0V350,溪埔,2020-05-19,22.7386,120.4468,0.40740842
C0V360,內門,2020-05-19,22.9755,120.4668,0.6714639
C0V370,古亭坑,2020-05-19,22.8932,120.4019,0.47117883
C0V400,阿公店,2020-05-19,22.8042,120.3555,0.40194324
C0V440,鳳山,2020-05-19,22.6467,120.3561,0.49226475
C0V450,鳳森,2020-05-19,22.5451,120.3926,0.4956361
C0V490,新興,2020-05-19,22.6274,120.2988,0.46267506
C0V530,阿蓮,2020-05-19,22.8832,120.3275,0.21524872
C0V610,梓官,2020-05-19,22.7606,120.2672,0.2769514
C0V620,永安,2020-05-19,22.8231,120.2369,0.26283944
C0V630,茄萣,2020-05-19,22.9066,120.1826,0.21013331
C0V640,湖內,2020-05-19,22.8871,120.2445,0.2182386
C0V650,彌陀,2020-05-19,22.7838,120.2464,0.26283944
C0V660,岡山,2020-05-19,22.7971,120.295,0.2769514
C0V680,仁武,2020-05-19,22.7011,120.3477,0.3516345
C0V690,鼓山,2020-05-19,22.6233,120.2756,0.46267506
C0V700,三民,2020-05-19,22.645,120.3112,0.46267506
C0V710,苓雅,2020-05-19,22.6227,120.3307,0.46267506
C0V720,林園,2020-05-19,22.5077,120.3945,0.46267506
C0V730,大寮,2020-05-19,22.6056,120.3957,0.41864145
C0V740,旗山,2020-05-19,22.8886,120.4836,0.512897
C0V750,路竹,2020-05-19,22.855,120.2594,0.25176597
C0V760,橋頭,2020-05-19,22.7578,120.3058,0.286174
C0V770,大社,2020-05-19,22.7303,120.3466,0.3516345
C0V790,萬山,2020-05-19,22.9059,120.6881,0.74768984
C0V800,六龜,2020-05-19,22.9979,120.6336,0.59304583
C0V810,左營,2020-05-19,22.6749,120.2849,0.34041908
C0V820,小林,2020-05-19,23.1484,120.6333,0.7579414
C0V840,鳳鼻頭,2020-05-19,22.5083,120.3591,0.44734144
C0V850,蚵仔寮,2020-05-19,22.7256,120.2527,0.32886052
C0V860,南寮,2020-05-19,22.7616,120.2339,0.2551579
C0V870,文安,2020-05-19,22.8025,120.2164,0.2551579
C0V880,興達,2020-05-19,22.8778,120.2127,0.21013331
C0V890,前鎮,2020-05-19,22.5718,120.3117,0.44734144
C0V900,汕尾,2020-05-19,22.4782,120.4151,0.46025968
C0X050,東河,2020-05-19,23.2966,120.3856,0.58828413
C0X060,下營,2020-05-19,23.2269,120.2563,0.20348239
C0X080,佳里,2020-05-19,23.173,120.1451,0.19297375
C0X100,臺南市北區,2020-05-19,23.0104,120.1942,0.20180526
C0X110,臺南市南區,2020-05-19,22.9612,120.1884,0.20880784
C0X120,麻豆,2020-05-19,23.1833,120.2486,0.20132607
C0X130,官田,2020-05-19,23.1932,120.3154,0.22191082
C0X140,西港,2020-05-19,23.1256,120.2031,0.17349297
C0X150,安定,2020-05-19,23.1026,120.2278,0.20458627
C0X160,仁德,2020-05-19,22.9683,120.2577,0.23017825
C0X170,關廟,2020-05-19,22.963,120.3278,0.2742907
C0X180,山上,2020-05-19,23.0757,120.3633,0.65473056
C0X190,安平,2020-05-19,22.9932,120.1522,0.20180526
C0X200,左鎮,2020-05-19,23.0568,120.4085,0.63259345
C0X210,白河,2020-05-19,23.3475,120.4144,0.64599836
C0X220,學甲,2020-05-19,23.2304,120.1822,0.20132607
C0X230,鹽水,2020-05-19,23.2726,120.2476,0.21559373
C0X240,關子嶺,2020-05-19,23.3312,120.508,0.7668872
C0X250,新營,2020-05-19,23.3107,120.3167,0.22760284
C0X260,後壁,2020-05-19,23.3664,120.3623,0.65213656
C0X280,將軍,2020-05-19,23.215,120.1358,0.19297375
C0X290,北門,2020-05-19,23.2678,120.1255,0.19297375
C0X300,鹿寮,2020-05-19,23.386,120.4773,0.58690226
C0X310,七股,2020-05-19,23.1473,120.0863,0.16059788
C0X320,柳營,2020-05-19,23.2533,120.3753,0.6185039
C0Z020,明里,2020-05-19,23.2087,121.2623,0.95444
C0Z061,玉里,2020-05-19,23.3215,121.3397,0.5512782
C0Z070,舞鶴,2020-05-19,23.4681,121.3741,0.0055359886
C0Z080,富源,2020-05-19,23.5876,121.3782,0.0037605676
C0Z100,東華,2020-05-19,23.8953,121.5498,0.0030426667
C0Z150,吉安光華,2020-05-19,23.9309,121.5952,0.0030356208
C0Z160,鳳林,2020-05-19,23.7461,121.4534,0.004080172
C0Z170,卓溪,2020-05-19,23.3443,121.3029,0.74520385
C0Z180,新城,2020-05-19,24.0395,121.6045,0.0040625213
C0Z190,富世,2020-05-19,24.1474,121.6297,0.19330893
C0Z200,萬榮,2020-05-19,23.7092,121.4201,0.004188007
C0Z210,瑞穗,2020-05-19,23.5239,121.3902,0.0038269826
C0Z230,和平,2020-05-19,24.3072,121.7701,0.04186253
C0Z270,蕃薯寮,2020-05-19,23.7384,121.5401,0.0031178647
C0Z280,德武,2020-05-19,23.4743,121.4107,0.003934249
C0Z300,東里,2020-05-19,23.2685,121.3055,0.6533409
C0Z310,清水斷崖,2020-05-19,24.2183,121.6891,0.058961235
C0Z330,安通山,2020-05-19,23.2907,121.3485,0.981596
