站號,站名,日期,lat,lon,BlastGRU-TW
466881,新北,2020-06-22,24.9593,121.52,0.78145206
466900,淡水,2020-06-22,25.1649,121.4489,0.88192725
466920,臺北,2020-06-22,25.0377,121.5149,0.74591106
466940,基隆,2020-06-22,25.1333,121.7405,0.4034976
466990,花蓮,2020-06-22,23.9751,121.6133,0.99175704
467050,新屋,2020-06-22,25.0067,121.0475,0.83379245
467080,宜蘭,2020-06-22,24.764,121.7565,0.098825276
467270,田中,2020-06-22,23.8738,120.5813,0.9403965
467300,東吉島,2020-06-22,23.2569,119.6675,0.38900426
467350,澎湖,2020-06-22,23.5655,119.5631,0.6494175
467410,臺南,2020-06-22,22.9932,120.2048,0.05784384
467420,永康,2020-06-22,23.0384,120.2367,0.056851383
467441,高雄,2020-06-22,22.7304,120.3125,0.061425496
467480,嘉義,2020-06-22,23.4959,120.4329,0.74636155
467490,臺中,2020-06-22,24.1457,120.6841,0.95841116
467540,大武,2020-06-22,22.3557,120.9038,0.13324416
467571,新竹,2020-06-22,24.8279,121.0142,0.9588644
467590,恆春,2020-06-22,22.0039,120.7463,0.4890846
467610,成功,2020-06-22,23.0975,121.3734,0.107454464
467620,蘭嶼,2020-06-22,22.037,121.5583,0.9978184
467660,臺東,2020-06-22,22.7522,121.1546,0.18100087
467790,墾丁雷達站,2020-06-22,21.9482,120.808,0.54063636
C0A520,山佳,2020-06-22,24.9749,121.402,0.8653793
C0A530,坪林,2020-06-22,24.9382,121.7097,0.5460556
C0A540,四堵,2020-06-22,24.8926,121.7457,0.6688354
C0A550,泰平,2020-06-22,24.9712,121.8237,0.43972224
C0A560,福山,2020-06-22,24.7762,121.5028,0.62012404
C0A570,桶後,2020-06-22,24.8482,121.598,0.8997469
C0A640,石碇,2020-06-22,24.994,121.6629,0.13175671
C0A650,火燒寮,2020-06-22,25.0027,121.7429,0.17200893
C0A660,瑞芳,2020-06-22,25.1132,121.8011,0.09182437
C0A770,科教館,2020-06-22,25.0964,121.5165,0.83037937
C0A860,大坪,2020-06-22,25.1659,121.633,0.9148337
C0A880,福隆,2020-06-22,25.0178,121.9421,0.072148845
C0A890,雙溪,2020-06-22,25.036,121.8642,0.49817204
C0A920,富貴角,2020-06-22,25.2638,121.5653,0.8596003
C0A931,三和,2020-06-22,25.2332,121.5952,0.22111431
C0A940,金山,2020-06-22,25.2236,121.644,0.86104196
C0A950,鼻頭角,2020-06-22,25.129,121.9234,0.07084289
C0A970,三貂角,2020-06-22,25.0076,122.0021,0.108867235
C0A980,社子,2020-06-22,25.1095,121.4697,0.8177476
C0A9C0,天母,2020-06-22,25.1175,121.5372,0.85424864
C0A9F0,內湖,2020-06-22,25.0794,121.5755,0.74591106
C0AC60,三峽,2020-06-22,24.939,121.3697,0.7969571
C0AC70,信義,2020-06-22,25.0378,121.5646,0.74591106
C0AC80,文山,2020-06-22,25.0023,121.5757,0.8267599
C0ACA0,新莊,2020-06-22,25.0515,121.4468,0.7891955
C0AD00,三芝,2020-06-22,25.2581,121.5019,0.88913286
C0AD10,八里,2020-06-22,25.1502,121.4039,0.88192725
C0AD30,蘆洲,2020-06-22,25.0866,121.4723,0.83037937
C0AD40,土城,2020-06-22,24.9732,121.4452,0.8433813
C0AD50,鶯歌,2020-06-22,24.9515,121.3463,0.9303036
C0AG80,中和,2020-06-22,24.9916,121.4918,0.74591106
C0AH00,汐止,2020-06-22,25.0669,121.6588,0.42018142
C0AH10,永和,2020-06-22,25.0113,121.5081,0.72603667
C0AH40,平等,2020-06-22,25.1291,121.5771,0.7834501
C0AH50,林口,2020-06-22,25.0722,121.3808,0.79199225
C0AH70,松山,2020-06-22,25.0487,121.5504,0.74591106
C0AH80,深坑,2020-06-22,25.0027,121.6283,0.8130992
C0AI00,五股,2020-06-22,25.0744,121.4273,0.95901835
C0AI10,屈尺,2020-06-22,24.9218,121.5447,0.8267599
C0AI20,白沙灣,2020-06-22,25.2831,121.5191,0.84341097
C0AI30,三重,2020-06-22,25.0573,121.5006,0.83037937
C0AI40,石牌,2020-06-22,25.1156,121.5131,0.8433813
C0AJ20,野柳,2020-06-22,25.207,121.69,0.42018142
C0AJ30,淡水觀海,2020-06-22,25.1846,121.4086,0.87405246
C0AJ40,石門,2020-06-22,25.2737,121.6012,0.9298923
C0AJ50,水湳洞,2020-06-22,25.1237,121.8622,0.42018142
C0AJ60,六塊厝,2020-06-22,25.24,121.4481,0.87405246
C0AJ70,田寮,2020-06-22,25.2698,121.4886,0.83440256
C0AJ80,板橋,2020-06-22,25.0107,121.4489,0.8433813
C0AJ90,澳底,2020-06-22,25.0552,121.9253,0.072148845
C0B010,七堵,2020-06-22,25.0948,121.7171,0.45509133
C0B020,基隆嶼,2020-06-22,25.1914,121.7839,0.42018142
C0B040,大武崙,2020-06-22,25.1667,121.707,0.45509133
C0B050,八斗子,2020-06-22,25.1448,121.7917,0.3882209
C0B060,暖暖,2020-06-22,25.0957,121.7403,0.5586101
C0C460,復興,2020-06-22,24.8202,121.3523,0.9408293
C0C480,桃園,2020-06-22,24.9924,121.3232,0.96516776
C0C490,八德,2020-06-22,24.9287,121.2833,0.96204364
C0C590,觀音,2020-06-22,25.0271,121.1533,0.9539585
C0C620,蘆竹,2020-06-22,25.0843,121.2658,0.8967447
C0C630,大溪,2020-06-22,24.8829,121.2655,0.96904534
C0C650,平鎮,2020-06-22,24.8975,121.2146,0.97682035
C0C660,楊梅,2020-06-22,24.9124,121.143,0.9767333
C0C670,龍潭,2020-06-22,24.8701,121.2214,0.9732399
C0C680,龜山,2020-06-22,25.0285,121.3866,0.8725859
C0C700,中壢,2020-06-22,24.9777,121.2564,0.96803194
C0C710,大溪永福,2020-06-22,24.8929,121.325,0.9741212
C0C720,竹圍,2020-06-22,25.1127,121.2398,0.88192725
C0C730,中大臨海站,2020-06-22,24.9661,121.0086,0.8027192
C0C740,觀音工業區,2020-06-22,25.0648,121.1149,0.96370614
C0C750,新興坑尾,2020-06-22,25.0061,121.0971,0.96982014
C0D430,峨眉,2020-06-22,24.6905,121.0172,0.9666383
C0D480,打鐵坑,2020-06-22,24.8497,121.1508,0.972184
C0D540,橫山,2020-06-22,24.7112,121.1169,0.9670594
C0D560,竹東,2020-06-22,24.7671,121.0579,0.97406197
C0D580,寶山,2020-06-22,24.735,121.0252,0.96469164
C0D590,新豐,2020-06-22,24.8707,120.9772,0.92601705
C0D650,湖口,2020-06-22,24.9048,121.0436,0.88899875
C0D660,新竹市東區,2020-06-22,24.7987,120.9869,0.96165913
C0D670,海天一線,2020-06-22,24.832,120.9144,0.95781255
C0D680,香山濕地,2020-06-22,24.7836,120.915,0.95884156
C0D690,外湖,2020-06-22,24.9177,120.9687,0.8027191
C0D700,關西,2020-06-22,24.7977,121.1732,0.97450316
C0E420,竹南,2020-06-22,24.709,120.8889,0.9617249
C0E430,南庄,2020-06-22,24.6018,121.0002,0.9590751
C0E520,大湖,2020-06-22,24.4149,120.8709,0.95930165
C0E540,後龍,2020-06-22,24.6065,120.7839,0.96034366
C0E550,明德,2020-06-22,24.5835,120.8854,0.97120184
C0E590,通霄,2020-06-22,24.4719,120.7046,0.9181626
C0E730,頭份,2020-06-22,24.6882,120.9122,0.9617249
C0E740,造橋,2020-06-22,24.6371,120.8648,0.9592831
C0E750,苗栗,2020-06-22,24.5646,120.8246,0.96863467
C0E780,銅鑼,2020-06-22,24.4897,120.7909,0.9682062
C0E791,卓蘭,2020-06-22,24.3126,120.8244,0.9225975
C0E810,西湖,2020-06-22,24.5629,120.7485,0.9655089
C0E820,獅潭,2020-06-22,24.5391,120.92,0.97263426
C0E830,苑裡,2020-06-22,24.4397,120.6531,0.7751802
C0E850,大河,2020-06-22,24.6181,120.9486,0.9728698
C0E870,高鐵苗栗,2020-06-22,24.6073,120.8261,0.96210134
C0E910,海埔,2020-06-22,24.6488,120.7724,0.9608504
C0E920,通霄漁港,2020-06-22,24.4986,120.6739,0.8840419
C0E930,龍鳳,2020-06-22,24.7,120.8591,0.9530644
C0F000,大肚,2020-06-22,24.153,120.5721,0.74786633
C0F0B0,石岡,2020-06-22,24.2761,120.7776,0.7508317
C0F850,東勢,2020-06-22,24.2464,120.833,0.8951468
C0F930,大甲,2020-06-22,24.3477,120.6404,0.8660626
C0F970,大坑,2020-06-22,24.1731,120.7223,0.9602375
C0F9A0,中竹林,2020-06-22,24.1036,120.7511,0.62473994
C0F9I0,神岡,2020-06-22,24.2725,120.6583,0.9742453
C0F9K0,大安,2020-06-22,24.3451,120.588,0.69120044
C0F9L0,后里,2020-06-22,24.3104,120.7297,0.9766712
C0F9M0,豐原,2020-06-22,24.2543,120.7207,0.97576785
C0F9N0,大里,2020-06-22,24.0925,120.7014,0.901756
C0F9O0,潭子,2020-06-22,24.2131,120.7039,0.97029793
C0F9P0,清水,2020-06-22,24.3123,120.5622,0.6352808
C0F9Q0,外埔,2020-06-22,24.3478,120.7057,0.97106
C0F9R0,龍井,2020-06-22,24.1845,120.529,0.6652332
C0F9S0,烏日,2020-06-22,24.1071,120.6241,0.43333092
C0F9T0,西屯,2020-06-22,24.1795,120.6413,0.90244097
C0F9U0,南屯,2020-06-22,24.137,120.638,0.901756
C0F9X0,大雅(中科園區),2020-06-22,24.2153,120.6244,0.9395506
C0FA10,松柏,2020-06-22,24.4291,120.6175,0.7072435
C0FA20,溫寮,2020-06-22,24.3722,120.5831,0.7072435
C0FA30,梧棲,2020-06-22,24.256,120.5234,0.6652332
C0FA40,臺中電廠,2020-06-22,24.2146,120.4907,0.6652332
C0FA50,霧峰,2020-06-22,24.0419,120.6995,0.9441405
C0G620,芬園,2020-06-22,24.0157,120.6213,0.8453262
C0G640,鹿港,2020-06-22,24.0753,120.4305,0.22768253
C0G650,員林,2020-06-22,23.9465,120.5856,0.76294065
C0G660,溪湖,2020-06-22,23.9484,120.4791,0.5295198
C0G720,溪州,2020-06-22,23.8516,120.4991,0.7813884
C0G730,二林,2020-06-22,23.9033,120.3761,0.16637401
C0G740,大城,2020-06-22,23.8525,120.3209,0.2058495
C0G770,福興,2020-06-22,24.0413,120.4377,0.22768253
C0G780,秀水,2020-06-22,24.0341,120.5039,0.3163179
C0G800,埔鹽,2020-06-22,24.0004,120.4317,0.22768253
C0G810,埔心,2020-06-22,23.9476,120.5255,0.56200725
C0G820,田尾,2020-06-22,23.9017,120.5094,0.59748966
C0G830,埤頭,2020-06-22,23.866,120.4528,0.6934444
C0G840,北斗,2020-06-22,23.8776,120.5142,0.59748966
C0G860,社頭,2020-06-22,23.8976,120.5862,0.7830291
C0G870,芳苑,2020-06-22,23.9223,120.32,0.19495708
C0G880,二水,2020-06-22,23.8107,120.6173,0.9619446
C0G890,伸港,2020-06-22,24.1489,120.4844,0.6699512
C0G900,線西,2020-06-22,24.1434,120.4435,0.70541334
C0G910,花壇,2020-06-22,24.0321,120.5495,0.37019658
C0G920,永靖,2020-06-22,23.9247,120.5475,0.59748966
C0G940,竹塘,2020-06-22,23.8483,120.3868,0.07800114
C0G950,防潮門,2020-06-22,24.1835,120.4871,0.6394989
C0G960,福寶,2020-06-22,24.0443,120.3814,0.21331365
C0G970,三豐,2020-06-22,23.882,120.2895,0.19495708
C0H890,埔里,2020-06-22,23.9722,120.9524,0.90742505
C0H950,中寮,2020-06-22,23.8844,120.7664,0.9856452
C0H960,草屯,2020-06-22,23.9737,120.6809,0.98093885
C0I110,竹山,2020-06-22,23.7612,120.6882,0.9845354
C0I360,水里,2020-06-22,23.8126,120.8498,0.98452884
C0I380,集集,2020-06-22,23.8282,120.8015,0.9841548
C0I410,名間,2020-06-22,23.8371,120.7014,0.97681326
C0I420,國姓,2020-06-22,24.0378,120.8551,0.7145391
C0I460,南投,2020-06-22,23.9115,120.6873,0.9820264
C0K250,崙背,2020-06-22,23.7555,120.3189,0.2883325
C0K280,四湖,2020-06-22,23.6304,120.2271,0.31555003
C0K291,宜梧,2020-06-22,23.5363,120.1693,0.08944049
C0K330,虎尾,2020-06-22,23.7192,120.442,0.08069745
C0K390,土庫,2020-06-22,23.679,120.3956,0.074754015
C0K400,斗六,2020-06-22,23.7206,120.5411,0.48796427
C0K410,北港,2020-06-22,23.574,120.2928,0.08423576
C0K420,西螺,2020-06-22,23.8004,120.4674,0.75200397
C0K430,褒忠,2020-06-22,23.6909,120.3036,0.20431739
C0K440,二崙,2020-06-22,23.7728,120.4089,0.08316646
C0K450,大埤,2020-06-22,23.6461,120.4315,0.08759987
C0K460,斗南,2020-06-22,23.6787,120.4784,0.3733136
C0K470,林內,2020-06-22,23.7487,120.6096,0.741674
C0K480,莿桐,2020-06-22,23.7612,120.5024,0.79281276
C0K500,元長,2020-06-22,23.6498,120.315,0.28374627
C0K510,水林,2020-06-22,23.5729,120.246,0.09871895
C0K530,臺西,2020-06-22,23.7015,120.1976,0.24304228
C0K550,蔦松,2020-06-22,23.5143,120.2297,0.09411288
C0K560,棋山,2020-06-22,23.6865,120.6034,0.91651595
C0K580,高鐵雲林,2020-06-22,23.7375,120.4179,0.07475396
C0K590,雲林東勢,2020-06-22,23.6742,120.2557,0.20431739
C0K600,箔子寮,2020-06-22,23.6197,120.14,0.09468555
C0M410,馬頭山,2020-06-22,23.3244,120.582,0.9820935
C0M520,東後寮,2020-06-22,23.3699,120.2481,0.08430836
C0M640,中埔,2020-06-22,23.4254,120.5229,0.96946985
C0M650,朴子,2020-06-22,23.4346,120.239,0.09921198
C0M660,溪口,2020-06-22,23.6041,120.4036,0.5552778
C0M670,大林,2020-06-22,23.6006,120.4584,0.771886
C0M680,太保,2020-06-22,23.4551,120.3315,0.08599357
C0M690,水上,2020-06-22,23.4197,120.3889,0.8180697
C0M700,竹崎,2020-06-22,23.5262,120.5555,0.96927893
C0M710,東石,2020-06-22,23.4589,120.1539,0.09411288
C0M720,番路,2020-06-22,23.4647,120.5542,0.9794692
C0M730,嘉義市東區,2020-06-22,23.4577,120.4605,0.89213187
C0M740,六腳,2020-06-22,23.4929,120.2906,0.081676535
C0M750,布袋,2020-06-22,23.3809,120.1678,0.09859952
C0M760,民雄,2020-06-22,23.5518,120.4285,0.59922767
C0M770,嘉義梅山,2020-06-22,23.5854,120.5556,0.9576438
C0M780,鹿草,2020-06-22,23.4113,120.3084,0.13735695
C0M790,新港,2020-06-22,23.5533,120.3457,0.088274606
C0M800,茶山,2020-06-22,23.2991,120.6648,0.80920905
C0M880,好美里,2020-06-22,23.3364,120.138,0.082791604
C0N010,鯤鯓國小,2020-06-22,23.1879,120.0889,0.09124092
C0N020,城西,2020-06-22,23.0568,120.0956,0.08311967
C0N030,四草,2020-06-22,23.0235,120.1116,0.07470762
C0N040,蘆竹溝,2020-06-22,23.2344,120.0961,0.09124092
C0N050,蚵寮,2020-06-22,23.301,120.1104,0.09124092
C0O810,曾文,2020-06-22,23.2197,120.4973,0.90281993
C0O830,北寮,2020-06-22,23.0796,120.495,0.5072094
C0O840,王爺宮,2020-06-22,23.2221,120.4009,0.90281993
C0O860,大內,2020-06-22,23.1188,120.3608,0.28539434
C0O900,善化,2020-06-22,23.1129,120.2972,0.06298426
C0O930,玉井,2020-06-22,23.126,120.4605,0.7855755
C0O950,安南,2020-06-22,23.0767,120.1449,0.060561
C0O960,崎頂,2020-06-22,22.9595,120.3693,0.3481442
C0O970,虎頭埤,2020-06-22,23.0214,120.3479,0.115559585
C0O980,新市,2020-06-22,23.0616,120.2982,0.06298426
C0O990,媽廟,2020-06-22,22.9917,120.2935,0.064121254
C0R150,三地門,2020-06-22,22.7099,120.6399,0.11777417
C0R160,鹽埔,2020-06-22,22.7396,120.5308,0.13076864
C0R170,屏東,2020-06-22,22.6603,120.4941,0.08766523
C0R190,赤山,2020-06-22,22.5923,120.6143,0.1024113
C0R220,潮州,2020-06-22,22.5344,120.54,0.08826636
C0R240,來義,2020-06-22,22.5273,120.6251,0.11140481
C0R260,春日,2020-06-22,22.3704,120.6283,0.10327134
C0R270,琉球嶼,2020-06-22,22.3322,120.3622,0.104943134
C0R280,檳榔,2020-06-22,22.0761,120.8368,0.7993056
C0R320,車城,2020-06-22,22.0744,120.7162,0.4434564
C0R341,牡丹,2020-06-22,22.13,120.7926,0.18685022
C0R350,貓鼻頭,2020-06-22,21.9218,120.7358,0.5065987
C0R470,高樹,2020-06-22,22.8264,120.6008,0.12542689
C0R480,長治,2020-06-22,22.6931,120.5426,0.1368464
C0R490,九如,2020-06-22,22.7405,120.4905,0.09133145
C0R520,崁頂,2020-06-22,22.5148,120.5069,0.06512013
C0R540,佳冬,2020-06-22,22.4195,120.5524,0.06354427
C0R550,新埤,2020-06-22,22.4679,120.5829,0.09872516
C0R560,新園,2020-06-22,22.5434,120.4616,0.06512013
C0R570,麟洛,2020-06-22,22.6508,120.5272,0.09133145
C0R580,南州,2020-06-22,22.4859,120.5027,0.06354427
C0R590,里港,2020-06-22,22.7792,120.4946,0.15005042
C0R620,墾雷,2020-06-22,21.9008,120.8553,0.5065987
C0R640,東港,2020-06-22,22.4625,120.4407,0.067026675
C0R650,竹田,2020-06-22,22.5849,120.5434,0.095276155
C0R660,枋寮,2020-06-22,22.3677,120.5906,0.083523005
C0R670,楓港,2020-06-22,22.1901,120.6922,0.08949594
C0R680,佳樂水,2020-06-22,21.9936,120.8616,0.47409052
C0R690,墾丁,2020-06-22,21.9668,120.8103,0.821878
C0R700,枋山,2020-06-22,22.2468,120.6611,0.08949594
C0R710,龍磐,2020-06-22,21.9317,120.8389,0.6624901
C0R720,旭海,2020-06-22,22.2054,120.8876,0.803785
C0R730,大坪頂,2020-06-22,22.0246,120.6936,0.6490053
C0R740,獅子,2020-06-22,22.2016,120.7053,0.09860736
C0R760,南仁湖,2020-06-22,22.0847,120.8634,0.873772
C0R770,保力,2020-06-22,22.0711,120.7641,0.5922437
C0R780,滿州,2020-06-22,22.0244,120.8399,0.52233946
C0R790,九棚,2020-06-22,22.142,120.8893,0.7169212
C0R800,丹路,2020-06-22,22.2045,120.751,0.12321502
C0R810,內獅,2020-06-22,22.3051,120.643,0.093186006
C0R830,高士,2020-06-22,22.1218,120.8368,0.9076087
C0R850,林邊,2020-06-22,22.4634,120.5339,0.06512013
C0R860,鼻頭,2020-06-22,22.1043,120.8979,0.9667972
C0R870,興海,2020-06-22,21.9752,120.8439,0.47409052
C0R880,後壁湖,2020-06-22,21.9457,120.7457,0.42802763
C0R890,山海,2020-06-22,21.9878,120.7091,0.4434564
C0R900,竹坑,2020-06-22,22.1385,120.7022,0.13321175
C0R910,下寮,2020-06-22,22.3929,120.5548,0.06354427
C0R920,塭仔,2020-06-22,22.4169,120.5197,0.062310006
C0R930,萬丹,2020-06-22,22.5885,120.4851,0.095276155
C0R940,加祿堂,2020-06-22,22.3363,120.6217,0.093185924
C0S710,鹿野,2020-06-22,22.9177,121.123,0.782593
C0S730,綠島,2020-06-22,22.6672,121.4753,0.12576546
C0S740,池上,2020-06-22,23.1196,121.2095,0.36006546
C0S770,大溪山,2020-06-22,22.4785,120.9433,0.9049086
C0S790,金崙,2020-06-22,22.5381,120.9669,0.47759372
C0S810,東河,2020-06-22,22.9727,121.304,0.09138547
C0S830,長濱,2020-06-22,23.2868,121.412,0.66944176
C0S840,南田,2020-06-22,22.2797,120.8892,0.24679223
C0S890,關山,2020-06-22,23.0395,121.175,0.17578064
C0S900,蘭嶼高中,2020-06-22,22.0491,121.5121,0.99497616
C0S910,蘭嶼燈塔,2020-06-22,22.0812,121.5031,0.99693
C0S920,金峰嘉蘭,2020-06-22,22.5948,120.9608,0.20172013
C0S930,延平,2020-06-22,22.9026,121.0841,0.21442614
C0S940,石寧山,2020-06-22,23.2238,121.4066,0.20971493
C0S950,七塊厝,2020-06-22,22.9545,121.2299,0.86905134
C0S960,香蘭,2020-06-22,22.5876,120.9934,0.13532001
C0S970,加津林,2020-06-22,22.4162,120.9269,0.14054789
C0S990,山豬窟,2020-06-22,22.3186,120.8574,0.9307001
C0SA00,歷坵,2020-06-22,22.521,120.8919,0.93686235
C0SA10,檳榔四格山,2020-06-22,22.81,121.1093,0.8817223
C0SA30,都歷,2020-06-22,23.0203,121.3236,0.11768216
C0SA40,瑞和,2020-06-22,22.9744,121.1567,0.15976934
C0SA60,知本（水試所）,2020-06-22,22.7024,121.0828,0.17301689
C0SA80,土,2020-06-22,22.4531,120.8876,0.26622295
C0SA90,達仁林場,2020-06-22,22.2643,120.824,0.5153762
C0T870,鯉魚潭,2020-06-22,23.9356,121.5089,0.9890472
C0T900,西林,2020-06-22,23.8119,121.4415,0.99009466
C0T960,光復,2020-06-22,23.6607,121.425,0.99039614
C0T9A0,月眉山,2020-06-22,23.8099,121.5398,0.9935866
C0T9D0,和中,2020-06-22,24.2668,121.741,0.8216574
C0T9E0,大坑,2020-06-22,23.8806,121.582,0.9934006
C0T9F0,水璉,2020-06-22,23.7971,121.5425,0.991567
C0T9I0,豐濱,2020-06-22,23.5839,121.5148,0.99091876
C0T9M0,靜浦,2020-06-22,23.4552,121.495,0.9889258
C0T9N0,富里,2020-06-22,23.1716,121.2494,0.9369558
C0U600,礁溪,2020-06-22,24.8175,121.7656,0.10221112
C0U650,玉蘭,2020-06-22,24.6753,121.5871,0.97333544
C0U750,龜山島,2020-06-22,24.8417,121.9531,0.4213197
C0U760,東澳,2020-06-22,24.522,121.8332,0.055623233
C0U770,南澳,2020-06-22,24.4493,121.8102,0.04712906
C0U780,五結,2020-06-22,24.6864,121.7979,0.0996206
C0U860,頭城,2020-06-22,24.8532,121.8308,0.098825276
C0U870,大礁溪,2020-06-22,24.791,121.675,0.64476043
C0U880,北關,2020-06-22,24.9072,121.8734,0.72216517
C0U890,三星,2020-06-22,24.6681,121.653,0.16225886
C0U900,內城,2020-06-22,24.7181,121.6877,0.11712381
C0U910,冬山,2020-06-22,24.6337,121.7937,0.0996206
C0U940,羅東,2020-06-22,24.6818,121.7493,0.10134628
C0U970,大福,2020-06-22,24.8006,121.8139,0.09591563
C0U990,員山,2020-06-22,24.7444,121.7225,0.10134628
C0UA00,土場,2020-06-22,24.5765,121.4953,0.8070599
C0UA80,大溪漁港,2020-06-22,24.9418,121.903,0.10221112
C0UA90,石城,2020-06-22,24.9804,121.9512,0.08741807
C0UB00,淡江大學蘭陽校園,2020-06-22,24.8232,121.7304,0.7122309
C0UB10,蘇澳,2020-06-22,24.5969,121.8571,0.06403469
C0UB20,壯圍,2020-06-22,24.7359,121.8163,0.09792414
C0V250,甲仙,2020-06-22,23.0801,120.5918,0.67906123
C0V260,月眉,2020-06-22,22.971,120.5399,0.4813681
C0V310,美濃,2020-06-22,22.8987,120.5192,0.6536358
C0V350,溪埔,2020-06-22,22.7386,120.4468,0.074295245
C0V360,內門,2020-06-22,22.9755,120.4668,0.81027323
C0V370,古亭坑,2020-06-22,22.8932,120.4019,0.42297342
C0V400,阿公店,2020-06-22,22.8042,120.3555,0.07396932
C0V440,鳳山,2020-06-22,22.6467,120.3561,0.0717352
C0V450,鳳森,2020-06-22,22.5451,120.3926,0.10542114
C0V490,新興,2020-06-22,22.6274,120.2988,0.06855319
C0V530,阿蓮,2020-06-22,22.8832,120.3275,0.05755552
C0V610,梓官,2020-06-22,22.7606,120.2672,0.05124858
C0V620,永安,2020-06-22,22.8231,120.2369,0.04932707
C0V630,茄萣,2020-06-22,22.9066,120.1826,0.05441724
C0V640,湖內,2020-06-22,22.8871,120.2445,0.055515077
C0V650,彌陀,2020-06-22,22.7838,120.2464,0.04932707
C0V660,岡山,2020-06-22,22.7971,120.295,0.05124858
C0V680,仁武,2020-06-22,22.7011,120.3477,0.06218825
C0V690,鼓山,2020-06-22,22.6233,120.2756,0.06855319
C0V700,三民,2020-06-22,22.645,120.3112,0.06855319
C0V710,苓雅,2020-06-22,22.6227,120.3307,0.06855319
C0V720,林園,2020-06-22,22.5077,120.3945,0.06855319
C0V730,大寮,2020-06-22,22.6056,120.3957,0.090770245
C0V740,旗山,2020-06-22,22.8886,120.4836,0.6850491
C0V750,路竹,2020-06-22,22.855,120.2594,0.048334215
C0V760,橋頭,2020-06-22,22.7578,120.3058,0.05196398
C0V770,大社,2020-06-22,22.7303,120.3466,0.06218825
C0V790,萬山,2020-06-22,22.9059,120.6881,0.8095194
C0V800,六龜,2020-06-22,22.9979,120.6336,0.48745114
C0V810,左營,2020-06-22,22.6749,120.2849,0.061425496
C0V820,小林,2020-06-22,23.1484,120.6333,0.79432666
C0V840,鳳鼻頭,2020-06-22,22.5083,120.3591,0.06702673
C0V850,蚵仔寮,2020-06-22,22.7256,120.2527,0.060253996
C0V860,南寮,2020-06-22,22.7616,120.2339,0.0485507
C0V870,文安,2020-06-22,22.8025,120.2164,0.0485507
C0V880,興達,2020-06-22,22.8778,120.2127,0.05441724
C0V890,前鎮,2020-06-22,22.5718,120.3117,0.067026675
C0V900,汕尾,2020-06-22,22.4782,120.4151,0.06813662
C0X050,東河,2020-06-22,23.2966,120.3856,0.6371347
C0X060,下營,2020-06-22,23.2269,120.2563,0.09385331
C0X080,佳里,2020-06-22,23.173,120.1451,0.082791604
C0X100,臺南市北區,2020-06-22,23.0104,120.1942,0.05599279
C0X110,臺南市南區,2020-06-22,22.9612,120.1884,0.056851383
C0X120,麻豆,2020-06-22,23.1833,120.2486,0.08452231
C0X130,官田,2020-06-22,23.1932,120.3154,0.10182924
C0X140,西港,2020-06-22,23.1256,120.2031,0.0837079
C0X150,安定,2020-06-22,23.1026,120.2278,0.059970926
C0X160,仁德,2020-06-22,22.9683,120.2577,0.06233387
C0X170,關廟,2020-06-22,22.963,120.3278,0.07026707
C0X180,山上,2020-06-22,23.0757,120.3633,0.64063644
C0X190,安平,2020-06-22,22.9932,120.1522,0.05599279
C0X200,左鎮,2020-06-22,23.0568,120.4085,0.60689795
C0X210,白河,2020-06-22,23.3475,120.4144,0.69263774
C0X220,學甲,2020-06-22,23.2304,120.1822,0.08452231
C0X230,鹽水,2020-06-22,23.2726,120.2476,0.08539756
C0X240,關子嶺,2020-06-22,23.3312,120.508,0.7923649
C0X250,新營,2020-06-22,23.3107,120.3167,0.09205059
C0X260,後壁,2020-06-22,23.3664,120.3623,0.3963118
C0X280,將軍,2020-06-22,23.215,120.1358,0.082791604
C0X290,北門,2020-06-22,23.2678,120.1255,0.082791604
C0X300,鹿寮,2020-06-22,23.386,120.4773,0.7060082
C0X310,七股,2020-06-22,23.1473,120.0863,0.08359001
C0X320,柳營,2020-06-22,23.2533,120.3753,0.66722023
C0Z020,明里,2020-06-22,23.2087,121.2623,0.522295
C0Z061,玉里,2020-06-22,23.3215,121.3397,0.16061716
C0Z070,舞鶴,2020-06-22,23.4681,121.3741,0.99279153
C0Z080,富源,2020-06-22,23.5876,121.3782,0.9925241
C0Z100,東華,2020-06-22,23.8953,121.5498,0.97961414
C0Z150,吉安光華,2020-06-22,23.9309,121.5952,0.9740784
C0Z160,鳳林,2020-06-22,23.7461,121.4534,0.98992324
C0Z170,卓溪,2020-06-22,23.3443,121.3029,0.2023453
C0Z180,新城,2020-06-22,24.0395,121.6045,0.99202514
C0Z190,富世,2020-06-22,24.1474,121.6297,0.95277977
C0Z200,萬榮,2020-06-22,23.7092,121.4201,0.9890472
C0Z210,瑞穗,2020-06-22,23.5239,121.3902,0.9903356
C0Z230,和平,2020-06-22,24.3072,121.7701,0.8216574
C0Z270,蕃薯寮,2020-06-22,23.7384,121.5401,0.98930126
C0Z280,德武,2020-06-22,23.4743,121.4107,0.99226564
C0Z300,東里,2020-06-22,23.2685,121.3055,0.17933686
C0Z310,清水斷崖,2020-06-22,24.2183,121.6891,0.9136044
C0Z330,安通山,2020-06-22,23.2907,121.3485,0.89995795
