站號,站名,日期,lat,lon,BlastGRU-TW
466881,新北,2020-06-22,24.9593,121.52,0.78145206
466900,淡水,2020-06-22,25.164889,121.448906,0.88192725
466920,臺北,2020-06-22,25.037658,121.514853,0.74591106
467441,高雄,2020-06-22,22.7304,120.3125,0.061425496
467480,嘉義,2020-06-22,23.495925,120.432906,0.74636155
467490,臺中,2020-06-22,24.145736,120.684075,0.95841116
C0A530,坪林,2020-06-22,24.938183,121.70975,0.5460552
C0A540,四堵,2020-06-22,24.8926,121.745736,0.6688358
C0A550,泰平,2020-06-22,24.971197,121.823711,0.43972224
C0A890,雙溪,2020-06-22,25.036003,121.864242,0.49817204
C0A920,富貴角,2020-06-22,25.263783,121.565258,0.8596003
C0A931,三和,2020-06-22,25.233153,121.595236,0.22111431
C0AC70,信義,2020-06-22,25.037822,121.564597,0.74591106
C0AC80,文山,2020-06-22,25.00235,121.575728,0.8267599
C0ACA0,新莊,2020-06-22,25.051478,121.446756,0.7891955
C0AH50,林口,2020-06-22,25.072181,121.38084,0.79199225
C0AH70,松山,2020-06-22,25.04871,121.55042,0.74591106
C0AH80,深坑,2020-06-22,25.002703,121.628328,0.8267599
C0AJ60,六塊厝,2020-06-22,25.24,121.4481,0.87405246
C0AJ70,田寮,2020-06-22,25.2698,121.4886,0.83440256
