站號,站名,日期,lat,lon,BlastGRU-TW
466881,新北,2020-12-14,24.9593,121.52,0.0014757386
466900,淡水,2020-12-14,25.1649,121.4489,0.00025797787
466920,臺北,2020-12-14,25.0377,121.5149,0.0017378342
466940,基隆,2020-12-14,25.1333,121.7405,0.0022261506
466990,花蓮,2020-12-14,23.9751,121.6133,0.3838912
467050,新屋,2020-12-14,25.0067,121.0475,0.0017659772
467080,宜蘭,2020-12-14,24.764,121.7565,0.41291636
467270,田中,2020-12-14,23.8738,120.5813,0.026821377
467300,東吉島,2020-12-14,23.2569,119.6675,0.000495459
467350,澎湖,2020-12-14,23.5655,119.5631,0.00028971222
467410,臺南,2020-12-14,22.9932,120.2048,0.120164864
467420,永康,2020-12-14,23.0384,120.2367,0.11920227
467441,高雄,2020-12-14,22.7304,120.3125,0.13640955
467480,嘉義,2020-12-14,23.4959,120.4329,0.01649414
467490,臺中,2020-12-14,24.1457,120.6841,0.00023627051
467540,大武,2020-12-14,22.3557,120.9038,0.32241088
467571,新竹,2020-12-14,24.8279,121.0142,0.00036064954
467590,恆春,2020-12-14,22.0039,120.7463,0.002213356
467610,成功,2020-12-14,23.0975,121.3734,0.6358537
467620,蘭嶼,2020-12-14,22.037,121.5583,0.00032058332
467660,臺東,2020-12-14,22.7522,121.1546,0.3452138
467790,墾丁雷達站,2020-12-14,21.9482,120.808,0.0014925794
C0A520,山佳,2020-12-14,24.9749,121.402,0.00052370655
C0A530,坪林,2020-12-14,24.9382,121.7097,0.119403586
C0A540,四堵,2020-12-14,24.8926,121.7457,0.0049458123
C0A550,泰平,2020-12-14,24.9712,121.8237,0.15298338
C0A560,福山,2020-12-14,24.7762,121.5028,0.22229871
C0A570,桶後,2020-12-14,24.8482,121.598,0.012565487
C0A640,石碇,2020-12-14,24.994,121.6629,0.08368047
C0A650,火燒寮,2020-12-14,25.0027,121.7429,0.048342027
C0A660,瑞芳,2020-12-14,25.1132,121.8011,0.1839163
C0A770,科教館,2020-12-14,25.0964,121.5165,0.0006369638
C0A860,大坪,2020-12-14,25.1659,121.633,0.0004508288
C0A880,福隆,2020-12-14,25.0178,121.9421,0.3060328
C0A890,雙溪,2020-12-14,25.036,121.8642,0.0012990148
C0A920,富貴角,2020-12-14,25.2638,121.5653,0.0002453737
C0A931,三和,2020-12-14,25.2332,121.5952,0.035345387
C0A940,金山,2020-12-14,25.2236,121.644,0.00022894851
C0A950,鼻頭角,2020-12-14,25.129,121.9234,0.32052073
C0A970,三貂角,2020-12-14,25.0076,122.0021,0.20426522
C0A980,社子,2020-12-14,25.1095,121.4697,0.0006864707
C0A9C0,天母,2020-12-14,25.1175,121.5372,0.00055656827
C0A9F0,內湖,2020-12-14,25.0794,121.5755,0.0017378366
C0AC60,三峽,2020-12-14,24.939,121.3697,0.0013675361
C0AC70,信義,2020-12-14,25.0378,121.5646,0.0017378342
C0AC80,文山,2020-12-14,25.0023,121.5757,0.0011787309
C0ACA0,新莊,2020-12-14,25.0515,121.4468,0.00046796576
C0AD00,三芝,2020-12-14,25.2581,121.5019,0.00020569023
C0AD10,八里,2020-12-14,25.1502,121.4039,0.00025797787
C0AD30,蘆洲,2020-12-14,25.0866,121.4723,0.0006369638
C0AD40,土城,2020-12-14,24.9732,121.4452,0.0005956182
C0AD50,鶯歌,2020-12-14,24.9515,121.3463,0.00021187181
C0AG80,中和,2020-12-14,24.9916,121.4918,0.0017378342
C0AH00,汐止,2020-12-14,25.0669,121.6588,0.0019757883
C0AH10,永和,2020-12-14,25.0113,121.5081,0.0018961367
C0AH40,平等,2020-12-14,25.1291,121.5771,0.0021009855
C0AH50,林口,2020-12-14,25.0722,121.3808,0.0010896154
C0AH70,松山,2020-12-14,25.0487,121.5504,0.0017378342
C0AH80,深坑,2020-12-14,25.0027,121.6283,0.0012655997
C0AI00,五股,2020-12-14,25.0744,121.4273,0.0019974844
C0AI10,屈尺,2020-12-14,24.9218,121.5447,0.0011787299
C0AI20,白沙灣,2020-12-14,25.2831,121.5191,0.00024418044
C0AI30,三重,2020-12-14,25.0573,121.5006,0.0006369638
C0AI40,石牌,2020-12-14,25.1156,121.5131,0.0005956182
C0AJ10,澳底,2020-12-14,25.0571,121.9273,0.33332175
C0AJ20,野柳,2020-12-14,25.207,121.69,0.0019757883
C0AJ30,淡水觀海,2020-12-14,25.1846,121.4086,0.00027174287
C0AJ40,石門,2020-12-14,25.2737,121.6012,0.00018715124
C0AJ50,水湳洞,2020-12-14,25.1237,121.8622,0.0019757883
C0AJ60,六塊厝,2020-12-14,25.24,121.4481,0.00027174287
C0AJ70,田寮,2020-12-14,25.2698,121.4886,0.00025398756
C0AJ80,板橋,2020-12-14,25.0107,121.4489,0.0005956182
C0B010,七堵,2020-12-14,25.0948,121.7171,0.0015919049
C0B020,基隆嶼,2020-12-14,25.1914,121.7839,0.0019757883
C0B040,大武崙,2020-12-14,25.1667,121.707,0.0015919064
C0B050,八斗子,2020-12-14,25.1448,121.7917,0.0024800615
C0B060,暖暖,2020-12-14,25.0957,121.7403,0.0009876977
C0C460,復興,2020-12-14,24.8202,121.3523,0.005670018
C0C480,桃園,2020-12-14,24.9924,121.3232,0.002015655
C0C490,八德,2020-12-14,24.9287,121.2833,0.0047682296
C0C590,觀音,2020-12-14,25.0271,121.1533,0.0001375195
C0C620,蘆竹,2020-12-14,25.0843,121.2658,0.00022846006
C0C630,大溪,2020-12-14,24.8829,121.2655,0.0027932408
C0C650,平鎮,2020-12-14,24.8975,121.2146,0.0011947033
C0C660,楊梅,2020-12-14,24.9124,121.143,0.0010715175
C0C670,龍潭,2020-12-14,24.8701,121.2214,0.00095754437
C0C680,龜山,2020-12-14,25.0285,121.3866,0.0028703448
C0C700,中壢,2020-12-14,24.9777,121.2564,0.0017612508
C0C710,大溪永福,2020-12-14,24.8929,121.325,0.0016338793
C0C720,竹圍,2020-12-14,25.1127,121.2398,0.00025797787
C0C730,中大臨海站,2020-12-14,24.9661,121.0086,0.0020387967
C0C740,觀音工業區,2020-12-14,25.0648,121.1149,0.00091773
C0C750,新興坑尾,2020-12-14,25.0061,121.0971,0.0010435018
C0D430,峨眉,2020-12-14,24.6905,121.0172,0.00033533768
C0D480,打鐵坑,2020-12-14,24.8497,121.1508,0.0011190344
C0D540,橫山,2020-12-14,24.7112,121.1169,0.0015052224
C0D560,竹東,2020-12-14,24.7671,121.0579,0.001343193
C0D580,寶山,2020-12-14,24.735,121.0252,0.0009728919
C0D590,新豐,2020-12-14,24.8707,120.9772,0.00073585473
C0D650,湖口,2020-12-14,24.9048,121.0436,0.0015360687
C0D660,新竹市東區,2020-12-14,24.7987,120.9869,0.00041858573
C0D670,海天一線,2020-12-14,24.832,120.9144,0.00014303056
C0D680,香山濕地,2020-12-14,24.7836,120.915,0.00014823864
C0D690,外湖,2020-12-14,24.9177,120.9687,0.0020387967
C0D700,關西,2020-12-14,24.7977,121.1732,0.001561249
C0E420,竹南,2020-12-14,24.709,120.8889,0.0001747785
C0E430,南庄,2020-12-14,24.6018,121.0002,0.0003862753
C0E520,大湖,2020-12-14,24.4149,120.8709,0.00061579986
C0E540,後龍,2020-12-14,24.6065,120.7839,0.000116749565
C0E550,明德,2020-12-14,24.5835,120.8854,0.0007898856
C0E590,通霄,2020-12-14,24.4719,120.7046,0.00013109317
C0E730,頭份,2020-12-14,24.6882,120.9122,0.0001747785
C0E740,造橋,2020-12-14,24.6371,120.8648,0.00064081734
C0E750,苗栗,2020-12-14,24.5646,120.8246,0.00014013547
C0E780,銅鑼,2020-12-14,24.4897,120.7909,0.0006303393
C0E791,卓蘭,2020-12-14,24.3126,120.8244,0.014209469
C0E810,西湖,2020-12-14,24.5629,120.7485,0.00013153904
C0E820,獅潭,2020-12-14,24.5391,120.92,0.0005530058
C0E830,苑裡,2020-12-14,24.4397,120.6531,0.00021853503
C0E850,大河,2020-12-14,24.6181,120.9486,0.00080427254
C0E870,高鐵苗栗,2020-12-14,24.6073,120.8261,0.000119946926
C0E910,海埔,2020-12-14,24.6488,120.7724,0.0006731809
C0E920,通霄漁港,2020-12-14,24.4986,120.6739,0.00012777442
C0E930,龍鳳,2020-12-14,24.7,120.8591,0.0006005278
C0F000,大肚,2020-12-14,24.153,120.5721,0.019902417
C0F0B0,石岡,2020-12-14,24.2761,120.7776,0.029578602
C0F850,東勢,2020-12-14,24.2464,120.833,0.0076928767
C0F930,大甲,2020-12-14,24.3477,120.6404,0.00029501758
C0F970,大坑,2020-12-14,24.1731,120.7223,0.00020890619
C0F9A0,中竹林,2020-12-14,24.1036,120.7511,0.015157405
C0F9I0,神岡,2020-12-14,24.2725,120.6583,0.0022069467
C0F9K0,大安,2020-12-14,24.3451,120.588,0.00048138146
C0F9L0,后里,2020-12-14,24.3104,120.7297,0.0021401912
C0F9M0,豐原,2020-12-14,24.2543,120.7207,0.0021339364
C0F9N0,大里,2020-12-14,24.0925,120.7014,0.00071088504
C0F9O0,潭子,2020-12-14,24.2131,120.7039,0.0021441234
C0F9P0,清水,2020-12-14,24.3123,120.5622,0.0005849436
C0F9Q0,外埔,2020-12-14,24.3478,120.7057,0.0025525168
C0F9R0,龍井,2020-12-14,24.1845,120.529,0.00078320707
C0F9S0,烏日,2020-12-14,24.1071,120.6241,0.043262273
C0F9T0,西屯,2020-12-14,24.1795,120.6413,0.0003122292
C0F9U0,南屯,2020-12-14,24.137,120.638,0.00071088405
C0F9X0,大雅(中科園區),2020-12-14,24.2153,120.6244,0.00026376036
C0FA10,松柏,2020-12-14,24.4291,120.6175,0.00025613682
C0FA20,溫寮,2020-12-14,24.3722,120.5831,0.00025613682
C0FA30,梧棲,2020-12-14,24.256,120.5234,0.00078320707
C0FA40,臺中電廠,2020-12-14,24.2146,120.4907,0.00078320707
C0FA50,霧峰,2020-12-14,24.0419,120.6995,0.0005036437
C0G620,芬園,2020-12-14,24.0157,120.6213,0.022696795
C0G640,鹿港,2020-12-14,24.0753,120.4305,0.044783458
C0G650,員林,2020-12-14,23.9465,120.5856,0.04901552
C0G660,溪湖,2020-12-14,23.9484,120.4791,0.046139877
C0G720,溪州,2020-12-14,23.8516,120.4991,0.039086934
C0G730,二林,2020-12-14,23.9033,120.3761,0.05911607
C0G740,大城,2020-12-14,23.8525,120.3209,0.0071290224
C0G770,福興,2020-12-14,24.0413,120.4377,0.044783458
C0G780,秀水,2020-12-14,24.0341,120.5039,0.05059201
C0G800,埔鹽,2020-12-14,24.0004,120.4317,0.044783458
C0G810,埔心,2020-12-14,23.9476,120.5255,0.043302838
C0G820,田尾,2020-12-14,23.9017,120.5094,0.040534046
C0G830,埤頭,2020-12-14,23.866,120.4528,0.0505319
C0G840,北斗,2020-12-14,23.8776,120.5142,0.040534046
C0G860,社頭,2020-12-14,23.8976,120.5862,0.047765154
C0G870,芳苑,2020-12-14,23.9223,120.32,0.008132514
C0G880,二水,2020-12-14,23.8107,120.6173,0.016702063
C0G890,伸港,2020-12-14,24.1489,120.4844,0.0014117393
C0G900,線西,2020-12-14,24.1434,120.4435,0.0012015576
C0G910,花壇,2020-12-14,24.0321,120.5495,0.04327559
C0G920,永靖,2020-12-14,23.9247,120.5475,0.040534046
C0G940,竹塘,2020-12-14,23.8483,120.3868,0.07145899
C0G950,防潮門,2020-12-14,24.1835,120.4871,0.00087783707
C0G960,福寶,2020-12-14,24.0443,120.3814,0.047961175
C0G970,三豐,2020-12-14,23.882,120.2895,0.008531571
C0H890,埔里,2020-12-14,23.9722,120.9524,0.056244496
C0H950,中寮,2020-12-14,23.8844,120.7664,0.0029812697
C0H960,草屯,2020-12-14,23.9737,120.6809,0.01479196
C0I110,竹山,2020-12-14,23.7612,120.6882,0.004345216
C0I360,水里,2020-12-14,23.8126,120.8498,0.018961767
C0I380,集集,2020-12-14,23.8282,120.8015,0.024707315
C0I410,名間,2020-12-14,23.8371,120.7014,0.011161777
C0I420,國姓,2020-12-14,24.0378,120.8551,0.034379825
C0I460,南投,2020-12-14,23.9115,120.6873,0.0081243785
C0K250,崙背,2020-12-14,23.7555,120.3189,0.011061025
C0K280,四湖,2020-12-14,23.6304,120.2271,0.022327207
C0K291,宜梧,2020-12-14,23.5363,120.1693,0.069624
C0K330,虎尾,2020-12-14,23.7192,120.442,0.07362801
C0K390,土庫,2020-12-14,23.679,120.3956,0.08068242
C0K400,斗六,2020-12-14,23.7206,120.5411,0.045619313
C0K410,北港,2020-12-14,23.574,120.2928,0.05233349
C0K420,西螺,2020-12-14,23.8004,120.4674,0.024905402
C0K430,褒忠,2020-12-14,23.6909,120.3036,0.02441113
C0K440,二崙,2020-12-14,23.7728,120.4089,0.06454919
C0K450,大埤,2020-12-14,23.6461,120.4315,0.066916816
C0K460,斗南,2020-12-14,23.6787,120.4784,0.053652
C0K470,林內,2020-12-14,23.7487,120.6096,0.037084937
C0K480,莿桐,2020-12-14,23.7612,120.5024,0.022366742
C0K500,元長,2020-12-14,23.6498,120.315,0.032214228
C0K510,水林,2020-12-14,23.5729,120.246,0.042686827
C0K530,臺西,2020-12-14,23.7015,120.1976,0.01880898
C0K550,蔦松,2020-12-14,23.5143,120.2297,0.06332672
C0K560,棋山,2020-12-14,23.6865,120.6034,0.04973143
C0K580,高鐵雲林,2020-12-14,23.7375,120.4179,0.08068242
C0K590,雲林東勢,2020-12-14,23.6742,120.2557,0.024411142
C0K600,箔子寮,2020-12-14,23.6197,120.14,0.047629178
C0M410,馬頭山,2020-12-14,23.3244,120.582,0.02826672
C0M520,東後寮,2020-12-14,23.3699,120.2481,0.07814315
C0M640,中埔,2020-12-14,23.4254,120.5229,0.035680674
C0M650,朴子,2020-12-14,23.4346,120.239,0.0809812
C0M660,溪口,2020-12-14,23.6041,120.4036,0.020218553
C0M670,大林,2020-12-14,23.6006,120.4584,0.015840283
C0M680,太保,2020-12-14,23.4551,120.3315,0.06012501
C0M690,水上,2020-12-14,23.4197,120.3889,0.014808912
C0M700,竹崎,2020-12-14,23.5262,120.5555,0.024700217
C0M710,東石,2020-12-14,23.4589,120.1539,0.06332672
C0M720,番路,2020-12-14,23.4647,120.5542,0.023672096
C0M730,嘉義市東區,2020-12-14,23.4577,120.4605,0.015502171
C0M740,六腳,2020-12-14,23.4929,120.2906,0.06621916
C0M750,布袋,2020-12-14,23.3809,120.1678,0.0809812
C0M760,民雄,2020-12-14,23.5518,120.4285,0.016980102
C0M770,嘉義梅山,2020-12-14,23.5854,120.5556,0.030858029
C0M780,鹿草,2020-12-14,23.4113,120.3084,0.055603977
C0M790,新港,2020-12-14,23.5533,120.3457,0.047763247
C0M800,茶山,2020-12-14,23.2991,120.6648,0.087494336
C0M880,好美里,2020-12-14,23.3364,120.138,0.11327385
C0N010,鯤鯓國小,2020-12-14,23.1879,120.0889,0.18890977
C0N020,城西,2020-12-14,23.0568,120.0956,0.13783945
C0N030,四草,2020-12-14,23.0235,120.1116,0.20594975
C0N040,蘆竹溝,2020-12-14,23.2344,120.0961,0.18890977
C0N050,蚵寮,2020-12-14,23.301,120.1104,0.18890977
C0O810,曾文,2020-12-14,23.2197,120.4973,0.012469121
C0O830,北寮,2020-12-14,23.0796,120.495,0.24059309
C0O840,王爺宮,2020-12-14,23.2221,120.4009,0.012469121
C0O860,大內,2020-12-14,23.1188,120.3608,0.20947558
C0O900,善化,2020-12-14,23.1129,120.2972,0.14170846
C0O930,玉井,2020-12-14,23.126,120.4605,0.034989193
C0O950,安南,2020-12-14,23.0767,120.1449,0.08003789
C0O960,崎頂,2020-12-14,22.9595,120.3693,0.15944062
C0O970,虎頭埤,2020-12-14,23.0214,120.3479,0.12983625
C0O980,新市,2020-12-14,23.0616,120.2982,0.14170846
C0O990,媽廟,2020-12-14,22.9917,120.2935,0.17314152
C0R150,三地門,2020-12-14,22.7099,120.6399,0.05628874
C0R160,鹽埔,2020-12-14,22.7396,120.5308,0.069170706
C0R170,屏東,2020-12-14,22.6603,120.4941,0.2637038
C0R190,赤山,2020-12-14,22.5923,120.6143,0.046308335
C0R220,潮州,2020-12-14,22.5344,120.54,0.032750126
C0R240,來義,2020-12-14,22.5273,120.6251,0.03981113
C0R260,春日,2020-12-14,22.3704,120.6283,0.049669355
C0R270,琉球嶼,2020-12-14,22.3322,120.3622,0.046870977
C0R280,檳榔,2020-12-14,22.0761,120.8368,0.00020842631
C0R320,車城,2020-12-14,22.0744,120.7162,0.0033649954
C0R341,牡丹,2020-12-14,22.13,120.7926,0.070789054
C0R350,貓鼻頭,2020-12-14,21.9218,120.7358,0.00197327
C0R470,高樹,2020-12-14,22.8264,120.6008,0.051763695
C0R480,長治,2020-12-14,22.6931,120.5426,0.07505075
C0R490,九如,2020-12-14,22.7405,120.4905,0.2694526
C0R520,崁頂,2020-12-14,22.5148,120.5069,0.10684737
C0R540,佳冬,2020-12-14,22.4195,120.5524,0.10722855
C0R550,新埤,2020-12-14,22.4679,120.5829,0.045232218
C0R560,新園,2020-12-14,22.5434,120.4616,0.10684737
C0R570,麟洛,2020-12-14,22.6508,120.5272,0.2694526
C0R580,南州,2020-12-14,22.4859,120.5027,0.10722855
C0R590,里港,2020-12-14,22.7792,120.4946,0.07124125
C0R620,墾雷,2020-12-14,21.9008,120.8553,0.00197327
C0R640,東港,2020-12-14,22.4625,120.4407,0.14607622
C0R650,竹田,2020-12-14,22.5849,120.5434,0.044574145
C0R660,枋寮,2020-12-14,22.3677,120.5906,0.034938663
C0R670,楓港,2020-12-14,22.1901,120.6922,0.21995272
C0R680,佳樂水,2020-12-14,21.9936,120.8616,0.0025896316
C0R690,墾丁,2020-12-14,21.9668,120.8103,0.00017786179
C0R700,枋山,2020-12-14,22.2468,120.6611,0.21995272
C0R710,龍磐,2020-12-14,21.9317,120.8389,0.0005248885
C0R720,旭海,2020-12-14,22.2054,120.8876,0.05588637
C0R730,大坪頂,2020-12-14,22.0246,120.6936,0.0006239483
C0R740,獅子,2020-12-14,22.2016,120.7053,0.18347237
C0R760,南仁湖,2020-12-14,22.0847,120.8634,0.0001176777
C0R770,保力,2020-12-14,22.0711,120.7641,0.00095158326
C0R780,滿州,2020-12-14,22.0244,120.8399,0.0016775251
C0R790,九棚,2020-12-14,22.142,120.8893,0.08840243
C0R800,丹路,2020-12-14,22.2045,120.751,0.11833649
C0R810,內獅,2020-12-14,22.3051,120.643,0.06898047
C0R830,高士,2020-12-14,22.1218,120.8368,9.853743e-05
C0R850,林邊,2020-12-14,22.4634,120.5339,0.10684737
C0R860,鼻頭,2020-12-14,22.1043,120.8979,0.003820197
C0R870,興海,2020-12-14,21.9752,120.8439,0.0025896316
C0R880,後壁湖,2020-12-14,21.9457,120.7457,0.0037476488
C0R890,山海,2020-12-14,21.9878,120.7091,0.0033649954
C0R900,竹坑,2020-12-14,22.1385,120.7022,0.16252585
C0R910,下寮,2020-12-14,22.3929,120.5548,0.10722855
C0R920,塭仔,2020-12-14,22.4169,120.5197,0.11120637
C0R930,萬丹,2020-12-14,22.5885,120.4851,0.044574145
C0R940,加祿堂,2020-12-14,22.3363,120.6217,0.06898047
C0S710,鹿野,2020-12-14,22.9177,121.123,0.09578637
C0S730,綠島,2020-12-14,22.6672,121.4753,0.5644932
C0S740,池上,2020-12-14,23.1196,121.2095,0.2274546
C0S770,大溪山,2020-12-14,22.4785,120.9433,0.04603675
C0S790,金崙,2020-12-14,22.5381,120.9669,0.25252926
C0S810,東河,2020-12-14,22.9727,121.304,0.45955178
C0S830,長濱,2020-12-14,23.2868,121.412,0.098684445
C0S840,南田,2020-12-14,22.2797,120.8892,0.24878696
C0S890,關山,2020-12-14,23.0395,121.175,0.44740012
C0S900,蘭嶼高中,2020-12-14,22.0491,121.5121,0.031971533
C0S910,蘭嶼燈塔,2020-12-14,22.0812,121.5031,0.0026373712
C0S920,金峰嘉蘭,2020-12-14,22.5948,120.9608,0.43571615
C0S930,延平,2020-12-14,22.9026,121.0841,0.2265983
C0S940,石寧山,2020-12-14,23.2238,121.4066,0.26566005
C0S950,七塊厝,2020-12-14,22.9545,121.2299,0.06625989
C0S960,香蘭,2020-12-14,22.5876,120.9934,0.5137557
C0S970,加津林,2020-12-14,22.4162,120.9269,0.31017438
C0S990,山豬窟,2020-12-14,22.3186,120.8574,0.004115714
C0SA00,歷坵,2020-12-14,22.521,120.8919,0.018123517
C0SA10,檳榔四格山,2020-12-14,22.81,121.1093,0.01959237
C0SA30,都歷,2020-12-14,23.0203,121.3236,0.58538944
C0SA40,瑞和,2020-12-14,22.9744,121.1567,0.47369942
C0SA60,知本（水試所）,2020-12-14,22.7024,121.0828,0.47376952
C0SA80,土,2020-12-14,22.4531,120.8876,0.38199878
C0SA90,達仁林場,2020-12-14,22.2643,120.824,0.010755879
C0T870,鯉魚潭,2020-12-14,23.9356,121.5089,0.3876761
C0T900,西林,2020-12-14,23.8119,121.4415,0.3483779
C0T960,光復,2020-12-14,23.6607,121.425,0.33337334
C0T9A0,月眉山,2020-12-14,23.8099,121.5398,0.08614375
C0T9D0,和中,2020-12-14,24.2668,121.741,0.26619858
C0T9E0,大坑,2020-12-14,23.8806,121.582,0.17488939
C0T9F0,水璉,2020-12-14,23.7971,121.5425,0.25194463
C0T9I0,豐濱,2020-12-14,23.5839,121.5148,0.34905005
C0T9M0,靜浦,2020-12-14,23.4552,121.495,0.47696337
C0T9N0,富里,2020-12-14,23.1716,121.2494,0.051678676
C0U600,礁溪,2020-12-14,24.8175,121.7656,0.39920992
C0U650,玉蘭,2020-12-14,24.6753,121.5871,0.4450238
C0U750,龜山島,2020-12-14,24.8417,121.9531,0.36701614
C0U760,東澳,2020-12-14,24.522,121.8332,0.6538856
C0U770,南澳,2020-12-14,24.4493,121.8102,0.5708414
C0U780,五結,2020-12-14,24.6864,121.7979,0.47510594
C0U860,頭城,2020-12-14,24.8532,121.8308,0.41291636
C0U870,大礁溪,2020-12-14,24.791,121.675,0.15105629
C0U880,北關,2020-12-14,24.9072,121.8734,0.004726673
C0U890,三星,2020-12-14,24.6681,121.653,0.2638703
C0U900,內城,2020-12-14,24.7181,121.6877,0.36026314
C0U910,冬山,2020-12-14,24.6337,121.7937,0.47510594
C0U940,羅東,2020-12-14,24.6818,121.7493,0.46462628
C0U970,大福,2020-12-14,24.8006,121.8139,0.4252545
C0U990,員山,2020-12-14,24.7444,121.7225,0.46462628
C0UA00,土場,2020-12-14,24.5765,121.4953,0.24190721
C0UA80,大溪漁港,2020-12-14,24.9418,121.903,0.39920992
C0UA90,石城,2020-12-14,24.9804,121.9512,0.30738539
C0UB00,淡江大學蘭陽校園,2020-12-14,24.8232,121.7304,0.17917337
C0UB10,蘇澳,2020-12-14,24.5969,121.8571,0.25647423
C0UB20,壯圍,2020-12-14,24.7359,121.8163,0.48124117
C0V250,甲仙,2020-12-14,23.0801,120.5918,0.15772168
C0V260,月眉,2020-12-14,22.971,120.5399,0.20297404
C0V310,美濃,2020-12-14,22.8987,120.5192,0.07567316
C0V350,溪埔,2020-12-14,22.7386,120.4468,0.21342923
C0V360,內門,2020-12-14,22.9755,120.4668,0.06558486
C0V370,古亭坑,2020-12-14,22.8932,120.4019,0.08753365
C0V400,阿公店,2020-12-14,22.8042,120.3555,0.25068477
C0V440,鳳山,2020-12-14,22.6467,120.3561,0.15667002
C0V450,鳳森,2020-12-14,22.5451,120.3926,0.035914384
C0V490,新興,2020-12-14,22.6274,120.2988,0.14903973
C0V530,阿蓮,2020-12-14,22.8832,120.3275,0.17724624
C0V610,梓官,2020-12-14,22.7606,120.2672,0.13395743
C0V620,永安,2020-12-14,22.8231,120.2369,0.10013603
C0V630,茄萣,2020-12-14,22.9066,120.1826,0.13450332
C0V640,湖內,2020-12-14,22.8871,120.2445,0.13369267
C0V650,彌陀,2020-12-14,22.7838,120.2464,0.100135975
C0V660,岡山,2020-12-14,22.7971,120.295,0.13395743
C0V680,仁武,2020-12-14,22.7011,120.3477,0.1379881
C0V690,鼓山,2020-12-14,22.6233,120.2756,0.14903952
C0V700,三民,2020-12-14,22.645,120.3112,0.14903973
C0V710,苓雅,2020-12-14,22.6227,120.3307,0.14903973
C0V720,林園,2020-12-14,22.5077,120.3945,0.14903973
C0V730,大寮,2020-12-14,22.6056,120.3957,0.03773028
C0V740,旗山,2020-12-14,22.8886,120.4836,0.073956504
C0V750,路竹,2020-12-14,22.855,120.2594,0.13464388
C0V760,橋頭,2020-12-14,22.7578,120.3058,0.13549535
C0V770,大社,2020-12-14,22.7303,120.3466,0.1379881
C0V790,萬山,2020-12-14,22.9059,120.6881,0.073821686
C0V800,六龜,2020-12-14,22.9979,120.6336,0.13697867
C0V810,左營,2020-12-14,22.6749,120.2849,0.13640955
C0V820,小林,2020-12-14,23.1484,120.6333,0.0639774
C0V840,鳳鼻頭,2020-12-14,22.5083,120.3591,0.14607622
C0V850,蚵仔寮,2020-12-14,22.7256,120.2527,0.13606368
C0V860,南寮,2020-12-14,22.7616,120.2339,0.100962326
C0V870,文安,2020-12-14,22.8025,120.2164,0.100962326
C0V880,興達,2020-12-14,22.8778,120.2127,0.13450332
C0V890,前鎮,2020-12-14,22.5718,120.3117,0.14607622
C0V900,汕尾,2020-12-14,22.4782,120.4151,0.20381339
C0X050,東河,2020-12-14,23.2966,120.3856,0.033496946
C0X060,下營,2020-12-14,23.2269,120.2563,0.114733465
C0X080,佳里,2020-12-14,23.173,120.1451,0.11327385
C0X100,臺南市北區,2020-12-14,23.0104,120.1942,0.11898653
C0X110,臺南市南區,2020-12-14,22.9612,120.1884,0.11920227
C0X120,麻豆,2020-12-14,23.1833,120.2486,0.11049935
C0X130,官田,2020-12-14,23.1932,120.3154,0.1042524
C0X140,西港,2020-12-14,23.1256,120.2031,0.13934682
C0X150,安定,2020-12-14,23.1026,120.2278,0.08714513
C0X160,仁德,2020-12-14,22.9683,120.2577,0.16870393
C0X170,關廟,2020-12-14,22.963,120.3278,0.19041426
C0X180,山上,2020-12-14,23.0757,120.3633,0.060321305
C0X190,安平,2020-12-14,22.9932,120.1522,0.11898645
C0X200,左鎮,2020-12-14,23.0568,120.4085,0.062694296
C0X210,白河,2020-12-14,23.3475,120.4144,0.028472206
C0X220,學甲,2020-12-14,23.2304,120.1822,0.11049935
C0X230,鹽水,2020-12-14,23.2726,120.2476,0.094287895
C0X240,關子嶺,2020-12-14,23.3312,120.508,0.06557977
C0X250,新營,2020-12-14,23.3107,120.3167,0.09165147
C0X260,後壁,2020-12-14,23.3664,120.3623,0.04906347
C0X280,將軍,2020-12-14,23.215,120.1358,0.11327385
C0X290,北門,2020-12-14,23.2678,120.1255,0.11327385
C0X300,鹿寮,2020-12-14,23.386,120.4773,0.051630683
C0X310,七股,2020-12-14,23.1473,120.0863,0.25149983
C0X320,柳營,2020-12-14,23.2533,120.3753,0.030835409
C0Z020,明里,2020-12-14,23.2087,121.2623,0.13267453
C0Z061,玉里,2020-12-14,23.3215,121.3397,0.24113572
C0Z070,舞鶴,2020-12-14,23.4681,121.3741,0.22986601
C0Z080,富源,2020-12-14,23.5876,121.3782,0.23345746
C0Z100,東華,2020-12-14,23.8953,121.5498,0.5235526
C0Z150,吉安光華,2020-12-14,23.9309,121.5952,0.5554471
C0Z160,鳳林,2020-12-14,23.7461,121.4534,0.3564092
C0Z170,卓溪,2020-12-14,23.3443,121.3029,0.19652715
C0Z180,新城,2020-12-14,24.0395,121.6045,0.3628126
C0Z190,富世,2020-12-14,24.1474,121.6297,0.7537951
C0Z200,萬榮,2020-12-14,23.7092,121.4201,0.3876761
C0Z210,瑞穗,2020-12-14,23.5239,121.3902,0.39468637
C0Z230,和平,2020-12-14,24.3072,121.7701,0.26619858
C0Z270,蕃薯寮,2020-12-14,23.7384,121.5401,0.31448442
C0Z280,德武,2020-12-14,23.4743,121.4107,0.31524974
C0Z300,東里,2020-12-14,23.2685,121.3055,0.2196093
C0Z310,清水斷崖,2020-12-14,24.2183,121.6891,0.5992798
C0Z330,安通山,2020-12-14,23.2907,121.3485,0.093269855
