站號,站名,日期,lat,lon,BlastGRU-TW
466881,新北,2020-07-24,24.9593,121.52,0.5122345
466900,淡水,2020-07-24,25.164889,121.448906,0.6993914
466920,臺北,2020-07-24,25.037658,121.514853,0.49655503
467350,澎湖,2020-07-24,23.565503,119.563094,0.72796494
467410,臺南,2020-07-24,22.993239,120.204772,0.09078916
467420,永康,2020-07-24,23.038386,120.2367,0.08947169
467790,墾丁雷達站,2020-07-24,21.948235,120.808028,0.9473096
C0A520,山佳,2020-07-24,24.974944,121.402008,0.55380327
C0A530,坪林,2020-07-24,24.938183,121.70975,0.085475035
C0A880,福隆,2020-07-24,25.017842,121.942083,0.06634807
C0A890,雙溪,2020-07-24,25.036003,121.864242,0.54221827
C0A920,富貴角,2020-07-24,25.263783,121.565258,0.68497866
C0AC80,文山,2020-07-24,25.00235,121.575728,0.5364931
C0ACA0,新莊,2020-07-24,25.051478,121.446756,0.59977084
C0AD00,三芝,2020-07-24,25.258131,121.501917,0.7713145
C0AH70,松山,2020-07-24,25.04871,121.55042,0.49655503
C0AH80,深坑,2020-07-24,25.002703,121.628328,0.5364931
C0AI00,五股,2020-07-24,25.07445,121.42728,0.86989784
C0AJ70,田寮,2020-07-24,25.2698,121.4886,0.71893525
