站號,站名,日期,lat,lon,BlastGRU-TW
466881,新北,2020-03-23,24.9593,121.52,0.03578298
466900,淡水,2020-03-23,25.164889,121.448906,0.024009394
466920,臺北,2020-03-23,25.037658,121.514853,0.046056934
467441,高雄,2020-03-23,22.7304,120.3125,0.36761272
467480,嘉義,2020-03-23,23.495925,120.432906,0.3673948
467490,臺中,2020-03-23,24.145736,120.684075,0.017650714
C0A540,四堵,2020-03-23,24.8926,121.745736,0.0051048654
C0A550,泰平,2020-03-23,24.971197,121.823711,0.0026044645
C0A560,福山,2020-03-23,24.776203,121.502811,0.005384172
C0A931,三和,2020-03-23,25.233153,121.595236,0.0110231275
C0A940,金山,2020-03-23,25.223628,121.643967,0.012821226
C0A950,鼻頭角,2020-03-23,25.129036,121.923372,0.08562188
C0AD10,八里,2020-03-23,25.150211,121.403947,0.024009394
C0AD30,蘆洲,2020-03-23,25.086594,121.472331,0.033034258
C0AD40,土城,2020-03-23,24.973208,121.445169,0.030326424
C0AI10,屈尺,2020-03-23,24.92184,121.54475,0.028055338
C0AI20,白沙灣,2020-03-23,25.283128,121.519058,0.014388881
C0AI30,三重,2020-03-23,25.057328,121.500629,0.033034258
C0B010,七堵,2020-03-23,25.094819,121.71713,0.04377656
C0B020,基隆嶼,2020-03-23,25.19141,121.78391,0.05148909
