站號,站名,日期,lat,lon,BlastGRU-TW
466881,新北,2020-07-06,24.9593,121.52,0.572053
466900,淡水,2020-07-06,25.164889,121.448906,0.81208944
466920,臺北,2020-07-06,25.037658,121.514853,0.55713826
467441,高雄,2020-07-06,22.7304,120.3125,0.08805699
467480,嘉義,2020-07-06,23.495925,120.432906,0.4047236
467490,臺中,2020-07-06,24.145736,120.684075,0.8002311
C0A530,坪林,2020-07-06,24.938183,121.70975,0.14224584
C0A540,四堵,2020-07-06,24.8926,121.745736,0.2747078
C0A550,泰平,2020-07-06,24.971197,121.823711,0.116877265
C0A890,雙溪,2020-07-06,25.036003,121.864242,0.5557815
C0A920,富貴角,2020-07-06,25.263783,121.565258,0.7923842
C0A931,三和,2020-07-06,25.233153,121.595236,0.17012241
C0AC70,信義,2020-07-06,25.037822,121.564597,0.55713826
C0AC80,文山,2020-07-06,25.00235,121.575728,0.595165
C0ACA0,新莊,2020-07-06,25.051478,121.446756,0.7270668
C0AH50,林口,2020-07-06,25.072181,121.38084,0.5263035
C0AH70,松山,2020-07-06,25.04871,121.55042,0.55713826
C0AH80,深坑,2020-07-06,25.002703,121.628328,0.59516513
C0AJ60,六塊厝,2020-07-06,25.24,121.4481,0.80661005
C0AJ70,田寮,2020-07-06,25.2698,121.4886,0.8158039
