站號,站名,日期,lat,lon,BlastGRU-TW
12J990,口湖工作站,2020-10-04,23.589978,120.180394,0.39669588
12Q970,東港工作站,2020-10-04,22.479997,120.466058,0.33378693
12Q980,恆春工作站,2020-10-04,22.079678,120.714425,0.029003449
466881,新北,2020-10-04,24.9593,121.52,0.12049282
466900,淡水,2020-10-04,25.164889,121.448906,0.07678632
466920,臺北,2020-10-04,25.037658,121.514853,0.094235435
466940,基隆,2020-10-04,25.133314,121.740475,0.062626444
466990,花蓮,2020-10-04,23.975128,121.613275,0.19552484
467050,新屋,2020-10-04,25.006744,121.047486,0.03954527
467080,宜蘭,2020-10-04,24.763975,121.756528,0.7233964
467270,田中,2020-10-04,23.873803,120.581286,0.48104814
467300,東吉島,2020-10-04,23.25695,119.667467,0.8340512
467350,澎湖,2020-10-04,23.565503,119.563094,0.8714874
467410,臺南,2020-10-04,22.993239,120.204772,0.19275588
467420,永康,2020-10-04,23.038386,120.2367,0.18257184
467441,高雄,2020-10-04,22.7304,120.3125,0.21844238
467480,嘉義,2020-10-04,23.495925,120.432906,0.89650744
467490,臺中,2020-10-04,24.145736,120.684075,0.86207724
467540,大武,2020-10-04,22.355675,120.903789,0.033230364
467571,新竹,2020-10-04,24.827853,121.014219,0.061949305
467590,恆春,2020-10-04,22.003897,120.746339,0.030230679
467610,成功,2020-10-04,23.097486,121.373428,0.08351939
467620,蘭嶼,2020-10-04,22.036969,121.558339,0.46358532
467660,臺東,2020-10-04,22.752211,121.154586,0.030924248
467790,墾丁雷達站,2020-10-04,21.948235,120.808028,0.031605564
72AI40,桃改臺北分場,2020-10-04,24.944503,121.386972,0.11701374
72C440,桃園農改場,2020-10-04,24.950944,121.030583,0.04165686
72D680,新埔,2020-10-04,24.834444,121.066111,0.0632969
72G600,臺中農改場,2020-10-04,24.003028,120.534389,0.35319954
72K220,雲林分場,2020-10-04,23.634556,120.477333,0.6958122
72L140,朴子分場,2020-10-04,23.4982,120.2414,0.48402393
72M360,義竹工作站,2020-10-04,23.360694,120.279361,0.53259254
72M700,嘉義分場,2020-10-04,23.416869,120.283061,0.6312232
72N100,臺南農改場,2020-10-04,23.0605,120.342194,0.43623343
72N240,七股研究中心,2020-10-04,23.081672,120.062894,0.2466188
72Q010,高雄農改場,2020-10-04,22.709333,120.525889,0.20115408
72S200,斑鳩分場,2020-10-04,22.829528,121.077694,0.095153846
72S590,賓朗果園,2020-10-04,22.813889,121.071278,0.12633313
72T250,花蓮農改場,2020-10-04,23.975222,121.563889,0.2426549
72U480,蘭陽分場,2020-10-04,24.686306,121.716583,0.17211694
72V140,旗南,2020-10-04,22.857861,120.516667,0.27852425
82A750,文山分場,2020-10-04,24.955778,121.631222,0.69381166
82C160,茶改場(楊梅),2020-10-04,24.908472,121.185333,0.18055363
82H840,凍頂工作站,2020-10-04,23.762528,120.7405,0.1294246
82S580,龍田,2020-10-04,22.907694,121.130139,0.13026425
A0K420,麥寮,2020-10-04,23.7988,120.2177,0.6504622
A0W080,吉貝,2020-10-04,23.74,119.6042,0.89621234
A2C560,農工中心,2020-10-04,24.985917,121.239833,0.10726072
A2K360,臺西分所,2020-10-04,23.717231,120.190522,0.5707368
A2K570,古坑(花卉中心),2020-10-04,23.633531,120.552392,0.7464751
A2K630,臺大雲林校區,2020-10-04,23.730628,120.423903,0.533947
A2N290,臺南蘭花園區,2020-10-04,23.340258,120.379661,0.7571837
B2E890,新竹畜試,2020-10-04,24.527806,120.770972,0.53275293
B2N890,畜產試驗所,2020-10-04,23.058972,120.336406,0.43623343
B2Q810,恆春分所,2020-10-04,21.945583,120.802167,0.029793182
B2U990,宜蘭畜試,2020-10-04,24.669039,121.832561,0.14416835
C0A520,山佳,2020-10-04,24.974944,121.402008,0.11701374
C0A530,坪林,2020-10-04,24.938183,121.70975,0.5778113
C0A540,四堵,2020-10-04,24.8926,121.745736,0.3967401
C0A550,泰平,2020-10-04,24.971197,121.823711,0.58495265
C0A560,福山,2020-10-04,24.776203,121.502811,0.69261533
C0A570,桶後,2020-10-04,24.848222,121.597992,0.47242153
C0A640,石碇,2020-10-04,24.993969,121.662917,0.72896665
C0A650,火燒寮,2020-10-04,25.002719,121.742892,0.7150691
C0A660,瑞芳,2020-10-04,25.113169,121.801147,0.6874334
C0A770,科教館,2020-10-04,25.096356,121.516507,0.08354237
C0A860,大坪,2020-10-04,25.165914,121.632969,0.41957533
C0A880,福隆,2020-10-04,25.017842,121.942083,0.43471503
C0A890,雙溪,2020-10-04,25.036003,121.864242,0.09246068
C0A920,富貴角,2020-10-04,25.263783,121.565258,0.21675673
C0A931,三和,2020-10-04,25.233153,121.595236,0.6820827
C0A940,金山,2020-10-04,25.223628,121.643967,0.14521915
C0A950,鼻頭角,2020-10-04,25.129036,121.923372,0.399939
C0A970,三貂角,2020-10-04,25.007606,122.002058,0.7106749
C0A980,社子,2020-10-04,25.109508,121.469681,0.074810475
C0A9C0,天母,2020-10-04,25.117494,121.537169,0.104609765
C0A9F0,內湖,2020-10-04,25.079422,121.57545,0.094235435
C0AC60,三峽,2020-10-04,24.939025,121.369728,0.13669653
C0AC70,信義,2020-10-04,25.037822,121.564597,0.094235435
C0AC80,文山,2020-10-04,25.00235,121.575728,0.17120405
C0ACA0,新莊,2020-10-04,25.051478,121.446756,0.059395406
C0AD00,三芝,2020-10-04,25.258131,121.501917,0.18345553
C0AD10,八里,2020-10-04,25.150211,121.403947,0.07678633
C0AD30,蘆洲,2020-10-04,25.086594,121.472331,0.08354237
C0AD40,土城,2020-10-04,24.973208,121.445169,0.09334467
C0AD50,鶯歌,2020-10-04,24.951533,121.346294,0.12746945
C0AG80,中和,2020-10-04,24.991622,121.491792,0.094235435
C0AH00,汐止,2020-10-04,25.066881,121.658778,0.06753267
C0AH10,永和,2020-10-04,25.01125,121.508111,0.0839146
C0AH40,平等,2020-10-04,25.129142,121.577086,0.37786582
C0AH50,林口,2020-10-04,25.072181,121.38084,0.41068345
C0AH70,松山,2020-10-04,25.04871,121.55042,0.094235435
C0AH80,深坑,2020-10-04,25.002703,121.628328,0.171204
C0AI00,五股,2020-10-04,25.07445,121.42728,0.12927908
C0AI10,屈尺,2020-10-04,24.92184,121.54475,0.171204
C0AI20,白沙灣,2020-10-04,25.283128,121.519058,0.12679023
C0AI30,三重,2020-10-04,25.057328,121.500629,0.08354237
C0AI40,石牌,2020-10-04,25.115597,121.513139,0.09334467
C0AJ10,澳底,2020-10-04,25.057107,121.927272,0.3680146
C0AJ20,野柳,2020-10-04,25.20703,121.690021,0.06753267
C0AJ30,淡水觀海,2020-10-04,25.184591,121.408616,0.07055799
C0AJ40,石門,2020-10-04,25.273672,121.601198,0.25088903
C0AJ50,水湳洞,2020-10-04,25.123695,121.862238,0.06753267
C0AJ60,六塊厝,2020-10-04,25.24,121.4481,0.07055799
C0AJ70,田寮,2020-10-04,25.2698,121.4886,0.118540056
C0AJ80,板橋,2020-10-04,25.0107,121.4489,0.09334467
C0B010,七堵,2020-10-04,25.094819,121.71713,0.078682795
C0B020,基隆嶼,2020-10-04,25.19141,121.78391,0.06753267
C0B040,大武崙,2020-10-04,25.166676,121.706993,0.078682795
C0B050,八斗子,2020-10-04,25.144754,121.79167,0.05864361
C0B060,暖暖,2020-10-04,25.0957,121.7403,0.1180246
C0C460,復興,2020-10-04,24.820208,121.352281,0.55620605
C0C480,桃園,2020-10-04,24.992425,121.323172,0.10878795
C0C490,八德,2020-10-04,24.928708,121.283289,0.109295465
C0C590,觀音,2020-10-04,25.027072,121.153317,0.1517928
C0C620,蘆竹,2020-10-04,25.084275,121.265767,0.09146459
C0C630,大溪,2020-10-04,24.882853,121.265547,0.15212402
C0C650,平鎮,2020-10-04,24.897503,121.214636,0.18055363
C0C660,楊梅,2020-10-04,24.912375,121.143047,0.14223199
C0C670,龍潭,2020-10-04,24.870056,121.221389,0.10302952
C0C680,龜山,2020-10-04,25.02846,121.38656,0.5291881
C0C700,中壢,2020-10-04,24.977661,121.256375,0.12074485
C0C710,大溪永福,2020-10-04,24.892936,121.324975,0.11201666
C0C720,竹圍,2020-10-04,25.112692,121.239824,0.07678632
C0C730,中大臨海站,2020-10-04,24.966126,121.008581,0.03685361
C0C740,觀音工業區,2020-10-04,25.064764,121.114856,0.091849394
C0C750,新興坑尾,2020-10-04,25.0061,121.0971,0.113999255
C0D430,峨眉,2020-10-04,24.6905,121.017189,0.073113345
C0D480,打鐵坑,2020-10-04,24.849664,121.150789,0.18558708
C0D540,橫山,2020-10-04,24.71116,121.11693,0.16781576
C0D560,竹東,2020-10-04,24.767147,121.057881,0.10026313
C0D580,寶山,2020-10-04,24.735006,121.025192,0.16522042
C0D590,新豐,2020-10-04,24.87068,120.97721,0.092582874
C0D650,湖口,2020-10-04,24.904794,121.043628,0.04815855
C0D660,新竹市東區,2020-10-04,24.798681,120.986942,0.06889698
C0D670,海天一線,2020-10-04,24.831986,120.914438,0.06360301
C0D680,香山濕地,2020-10-04,24.783581,120.914988,0.06785877
C0D690,外湖,2020-10-04,24.917735,120.968711,0.03685361
C0D700,關西,2020-10-04,24.7977,121.1732,0.14797686
C0E420,竹南,2020-10-04,24.708978,120.888897,0.0816529
C0E430,南庄,2020-10-04,24.601775,121.000214,0.22415757
C0E520,大湖,2020-10-04,24.41494,120.87087,0.4332199
C0E540,後龍,2020-10-04,24.606489,120.783933,0.5314762
C0E550,明德,2020-10-04,24.583486,120.885411,0.23447855
C0E590,通霄,2020-10-04,24.471892,120.704622,0.57971317
C0E730,頭份,2020-10-04,24.688247,120.912206,0.0816529
C0E740,造橋,2020-10-04,24.637056,120.864778,0.21187986
C0E750,苗栗,2020-10-04,24.564569,120.824575,0.47675583
C0E780,銅鑼,2020-10-04,24.489681,120.790853,0.38015524
C0E791,卓蘭,2020-10-04,24.3126,120.8244,0.35091156
C0E810,西湖,2020-10-04,24.562947,120.7485,0.49945244
C0E820,獅潭,2020-10-04,24.539133,120.920042,0.30459094
C0E830,苑裡,2020-10-04,24.439714,120.653053,0.714486
C0E850,大河,2020-10-04,24.618069,120.948578,0.22338739
C0E870,高鐵苗栗,2020-10-04,24.60725,120.826094,0.52032584
C0E910,海埔,2020-10-04,24.648767,120.772435,0.2768659
C0E920,通霄漁港,2020-10-04,24.498589,120.673876,0.6237463
C0E930,龍鳳,2020-10-04,24.700034,120.859125,0.22431034
C0F000,大肚,2020-10-04,24.15295,120.572117,0.088811204
C0F0B0,石岡,2020-10-04,24.276061,120.777644,0.18259737
C0F850,東勢,2020-10-04,24.246428,120.833047,0.2838039
C0F930,大甲,2020-10-04,24.347667,120.640403,0.7862618
C0F970,大坑,2020-10-04,24.173142,120.722289,0.8050777
C0F9A0,中竹林,2020-10-04,24.103556,120.751061,0.11073584
C0F9I0,神岡,2020-10-04,24.272481,120.658314,0.5963483
C0F9K0,大安,2020-10-04,24.345061,120.588025,0.81037086
C0F9L0,后里,2020-10-04,24.310436,120.729725,0.5240752
C0F9M0,豐原,2020-10-04,24.254322,120.720692,0.5622636
C0F9N0,大里,2020-10-04,24.092464,120.701378,0.79658806
C0F9O0,潭子,2020-10-04,24.213106,120.703933,0.5849895
C0F9P0,清水,2020-10-04,24.312297,120.562242,0.80197144
C0F9Q0,外埔,2020-10-04,24.347817,120.705686,0.62692964
C0F9R0,龍井,2020-10-04,24.184536,120.528972,0.7119097
C0F9S0,烏日,2020-10-04,24.107058,120.624103,0.38924146
C0F9T0,西屯,2020-10-04,24.179494,120.641275,0.7962856
C0F9U0,南屯,2020-10-04,24.137006,120.637969,0.7965877
C0F9X0,大雅(中科園區),2020-10-04,24.21528,120.62445,0.7502562
C0FA10,松柏,2020-10-04,24.429115,120.617482,0.7326332
C0FA20,溫寮,2020-10-04,24.372177,120.583125,0.732633
C0FA30,梧棲,2020-10-04,24.256003,120.523381,0.7119097
C0FA40,臺中電廠,2020-10-04,24.2146,120.4907,0.7119097
C0FA50,霧峰,2020-10-04,24.0419,120.6995,0.85541487
C0G620,芬園,2020-10-04,24.015678,120.6213,0.53267306
C0G640,鹿港,2020-10-04,24.0753,120.430481,0.29434496
C0G650,員林,2020-10-04,23.946503,120.585597,0.71350783
C0G660,溪湖,2020-10-04,23.94835,120.479122,0.5425677
C0G720,溪州,2020-10-04,23.851589,120.499093,0.29241067
C0G730,二林,2020-10-04,23.903325,120.376081,0.41202885
C0G740,大城,2020-10-04,23.852487,120.320935,0.44313377
C0G770,福興,2020-10-04,24.041289,120.437669,0.29434496
C0G780,秀水,2020-10-04,24.03405,120.503869,0.34775323
C0G800,埔鹽,2020-10-04,24.000394,120.431683,0.29434496
C0G810,埔心,2020-10-04,23.947633,120.525456,0.5399168
C0G820,田尾,2020-10-04,23.901669,120.509389,0.535738
C0G830,埤頭,2020-10-04,23.866003,120.452806,0.2974566
C0G840,北斗,2020-10-04,23.877586,120.514222,0.535738
C0G860,社頭,2020-10-04,23.897647,120.5862,0.7128414
C0G870,芳苑,2020-10-04,23.922303,120.320025,0.43811285
C0G880,二水,2020-10-04,23.810742,120.6173,0.586128
C0G890,伸港,2020-10-04,24.148933,120.484403,0.62975734
C0G900,線西,2020-10-04,24.143358,120.443536,0.66430384
C0G910,花壇,2020-10-04,24.032076,120.549461,0.3587414
C0G920,永靖,2020-10-04,23.924703,120.547533,0.535738
C0G940,竹塘,2020-10-04,23.848253,120.386764,0.41354278
C0G950,防潮門,2020-10-04,24.1835,120.4871,0.70191485
C0G960,福寶,2020-10-04,24.0443,120.3814,0.29345366
C0G970,三豐,2020-10-04,23.882,120.2895,0.43811285
C0H890,埔里,2020-10-04,23.972169,120.952425,0.5420608
C0H950,中寮,2020-10-04,23.884447,120.766406,0.39249834
C0H960,草屯,2020-10-04,23.973672,120.68085,0.38922375
C0I110,竹山,2020-10-04,23.761225,120.688156,0.44061542
C0I360,水里,2020-10-04,23.812553,120.849792,0.5135788
C0I380,集集,2020-10-04,23.828206,120.801467,0.5313601
C0I410,名間,2020-10-04,23.837053,120.701447,0.5921786
C0I420,國姓,2020-10-04,24.037803,120.855072,0.24861373
C0I460,南投,2020-10-04,23.911469,120.687331,0.49956805
C0K250,崙背,2020-10-04,23.75555,120.318925,0.65928185
C0K280,四湖,2020-10-04,23.630414,120.227125,0.67671037
C0K291,宜梧,2020-10-04,23.536281,120.169329,0.46775976
C0K330,虎尾,2020-10-04,23.719183,120.442036,0.53851825
C0K390,土庫,2020-10-04,23.679029,120.395574,0.53394717
C0K400,斗六,2020-10-04,23.720583,120.541127,0.6374756
C0K410,北港,2020-10-04,23.573957,120.292802,0.52254754
C0K420,西螺,2020-10-04,23.800407,120.467394,0.50628126
C0K430,褒忠,2020-10-04,23.690938,120.303634,0.6504622
C0K440,二崙,2020-10-04,23.772797,120.408944,0.41340744
C0K450,大埤,2020-10-04,23.646074,120.431537,0.5783809
C0K460,斗南,2020-10-04,23.678734,120.478359,0.63474965
C0K470,林內,2020-10-04,23.748675,120.609642,0.707638
C0K480,莿桐,2020-10-04,23.761192,120.502372,0.5019882
C0K500,元長,2020-10-04,23.64981,120.315024,0.71518373
C0K510,水林,2020-10-04,23.572924,120.24597,0.40187618
C0K530,臺西,2020-10-04,23.701547,120.197559,0.585793
C0K550,蔦松,2020-10-04,23.514319,120.229736,0.48402393
C0K560,棋山,2020-10-04,23.68645,120.603417,0.72214705
C0K580,高鐵雲林,2020-10-04,23.737456,120.417944,0.53394717
C0K590,雲林東勢,2020-10-04,23.674192,120.255721,0.6504622
C0K600,箔子寮,2020-10-04,23.6197,120.14,0.39669588
C0M410,馬頭山,2020-10-04,23.324361,120.582017,0.665718
C0M520,東後寮,2020-10-04,23.369908,120.248065,0.3869653
C0M640,中埔,2020-10-04,23.42538,120.5229,0.73948145
C0M650,朴子,2020-10-04,23.43463,120.23902,0.4830115
C0M660,溪口,2020-10-04,23.604131,120.403569,0.8461621
C0M670,大林,2020-10-04,23.600616,120.45841,0.89298713
C0M680,太保,2020-10-04,23.455062,120.331455,0.5393151
C0M690,水上,2020-10-04,23.419734,120.388909,0.89623666
C0M700,竹崎,2020-10-04,23.526178,120.555508,0.6993314
C0M710,東石,2020-10-04,23.458927,120.15385,0.48402393
C0M720,番路,2020-10-04,23.464657,120.554156,0.6663073
C0M730,嘉義市東區,2020-10-04,23.457673,120.460531,0.88043505
C0M740,六腳,2020-10-04,23.492871,120.290625,0.51428926
C0M750,布袋,2020-10-04,23.380878,120.167789,0.4830115
C0M760,民雄,2020-10-04,23.551754,120.428457,0.8615873
C0M770,嘉義梅山,2020-10-04,23.585398,120.555587,0.70041364
C0M780,鹿草,2020-10-04,23.41134,120.30835,0.6511802
C0M790,新港,2020-10-04,23.553269,120.345728,0.5390396
C0M800,茶山,2020-10-04,23.299075,120.664767,0.82678443
C0M880,好美里,2020-10-04,23.3364,120.138,0.3704159
C0N010,鯤鯓國小,2020-10-04,23.1879,120.0889,0.44017327
C0N020,城西,2020-10-04,23.0568,120.0956,0.25647485
C0N030,四草,2020-10-04,23.0235,120.1116,0.21158968
C0N040,蘆竹溝,2020-10-04,23.2344,120.0961,0.44017327
C0N050,蚵寮,2020-10-04,23.301,120.1104,0.44017327
C0O810,曾文,2020-10-04,23.219681,120.497328,0.61957735
C0O830,北寮,2020-10-04,23.079561,120.495008,0.7502402
C0O840,王爺宮,2020-10-04,23.222064,120.40085,0.61957735
C0O860,大內,2020-10-04,23.11885,120.36083,0.6289968
C0O900,善化,2020-10-04,23.112883,120.297219,0.38108718
C0O930,玉井,2020-10-04,23.126042,120.46055,0.75231224
C0O950,安南,2020-10-04,23.076694,120.144861,0.18644866
C0O960,崎頂,2020-10-04,22.959547,120.369317,0.68907154
C0O970,虎頭埤,2020-10-04,23.021375,120.347878,0.61741334
C0O980,新市,2020-10-04,23.061614,120.298197,0.38108718
C0O990,媽廟,2020-10-04,22.99175,120.293525,0.3581264
C0R150,三地門,2020-10-04,22.709889,120.639944,0.17193274
C0R160,鹽埔,2020-10-04,22.739558,120.530778,0.20115408
C0R170,屏東,2020-10-04,22.660269,120.494072,0.453881
C0R190,赤山,2020-10-04,22.592333,120.614306,0.19212602
C0R220,潮州,2020-10-04,22.534361,120.54,0.16505232
C0R240,來義,2020-10-04,22.527306,120.625111,0.17487468
C0R260,春日,2020-10-04,22.370361,120.628306,0.15746926
C0R270,琉球嶼,2020-10-04,22.332244,120.362236,0.1616353
C0R280,檳榔,2020-10-04,22.076078,120.836777,0.034596592
C0R320,車城,2020-10-04,22.0744,120.716247,0.029003449
C0R341,牡丹,2020-10-04,22.130036,120.792639,0.20129518
C0R350,貓鼻頭,2020-10-04,21.921774,120.7358,0.030600501
C0R470,高樹,2020-10-04,22.826389,120.600806,0.14787477
C0R480,長治,2020-10-04,22.693128,120.542622,0.21084622
C0R490,九如,2020-10-04,22.7405,120.490503,0.4674325
C0R520,崁頂,2020-10-04,22.514781,120.506914,0.34763816
C0R540,佳冬,2020-10-04,22.419456,120.552375,0.33378693
C0R550,新埤,2020-10-04,22.467947,120.582894,0.181378
C0R560,新園,2020-10-04,22.5434,120.461558,0.34763816
C0R570,麟洛,2020-10-04,22.65078,120.52719,0.4674325
C0R580,南州,2020-10-04,22.48591,120.50274,0.33378693
C0R590,里港,2020-10-04,22.77919,120.49459,0.21462168
C0R620,墾雷,2020-10-04,21.900836,120.855269,0.030791456
C0R640,東港,2020-10-04,22.46247,120.44074,0.32985893
C0R650,竹田,2020-10-04,22.58486,120.54344,0.17141174
C0R660,枋寮,2020-10-04,22.367722,120.590647,0.15060847
C0R670,楓港,2020-10-04,22.190131,120.692156,0.14925338
C0R680,佳樂水,2020-10-04,21.993578,120.861633,0.029793182
C0R690,墾丁,2020-10-04,21.966756,120.810269,0.034259487
C0R700,枋山,2020-10-04,22.246844,120.661086,0.14925326
C0R710,龍磐,2020-10-04,21.931672,120.838942,0.034262314
C0R720,旭海,2020-10-04,22.205403,120.887614,0.087927654
C0R730,大坪頂,2020-10-04,22.024633,120.69355,0.03276037
C0R740,獅子,2020-10-04,22.201569,120.70525,0.16509145
C0R760,南仁湖,2020-10-04,22.084681,120.863353,0.02923122
C0R770,保力,2020-10-04,22.071122,120.764111,0.03283975
C0R780,滿州,2020-10-04,22.024403,120.839892,0.031236527
C0R790,九棚,2020-10-04,22.14195,120.889281,0.07601819
C0R800,丹路,2020-10-04,22.204481,120.750989,0.19776545
C0R810,內獅,2020-10-04,22.305064,120.642986,0.13315883
C0R830,高士,2020-10-04,22.121825,120.836781,0.02402803
C0R850,林邊,2020-10-04,22.4634,120.5339,0.34763816
C0R860,鼻頭,2020-10-04,22.1043,120.8979,0.032676592
C0R870,興海,2020-10-04,21.9752,120.8439,0.029793182
C0R880,後壁湖,2020-10-04,21.9457,120.7457,0.028649526
C0R890,山海,2020-10-04,21.9878,120.7091,0.029003449
C0R900,竹坑,2020-10-04,22.1385,120.7022,0.14495043
C0R910,下寮,2020-10-04,22.3929,120.5548,0.33378693
C0R920,塭仔,2020-10-04,22.4169,120.5197,0.3208177
C0R930,萬丹,2020-10-04,22.5885,120.4851,0.17141174
C0R940,加祿堂,2020-10-04,22.3363,120.6217,0.13315883
C0S710,鹿野,2020-10-04,22.917711,121.122994,0.53583634
C0S730,綠島,2020-10-04,22.6672,121.47533,0.10590211
C0S740,池上,2020-10-04,23.119628,121.209469,0.16819197
C0S770,大溪山,2020-10-04,22.478475,120.943325,0.11439167
C0S790,金崙,2020-10-04,22.538122,120.966875,0.027254978
C0S810,東河,2020-10-04,22.972672,121.303986,0.07997959
C0S830,長濱,2020-10-04,23.286817,121.411975,0.6348853
C0S840,南田,2020-10-04,22.279725,120.889208,0.044337135
C0S890,關山,2020-10-04,23.0395,121.175017,0.14755408
C0S900,蘭嶼高中,2020-10-04,22.04909,121.51214,0.048768856
C0S910,蘭嶼燈塔,2020-10-04,22.081197,121.503117,0.095305815
C0S920,金峰嘉蘭,2020-10-04,22.594789,120.960825,0.01873208
C0S930,延平,2020-10-04,22.902581,121.084058,0.12435573
C0S940,石寧山,2020-10-04,23.223772,121.406639,0.14100727
C0S950,七塊厝,2020-10-04,22.954453,121.229922,0.7075557
C0S960,香蘭,2020-10-04,22.587569,120.993375,0.016859356
C0S970,加津林,2020-10-04,22.416211,120.926942,0.033822205
C0S990,山豬窟,2020-10-04,22.318619,120.857372,0.12837331
C0SA00,歷坵,2020-10-04,22.520969,120.89185,0.19558242
C0SA10,檳榔四格山,2020-10-04,22.810031,121.109308,0.1498482
C0SA30,都歷,2020-10-04,23.020333,121.323642,0.09832541
C0SA40,瑞和,2020-10-04,22.974361,121.156697,0.13759255
C0SA60,知本（水試所）,2020-10-04,22.702394,121.082761,0.021458048
C0SA80,土坂,2020-10-04,22.453108,120.887572,0.0203487
C0SA90,達仁林場,2020-10-04,22.264347,120.823972,0.13309714
C0T870,鯉魚潭,2020-10-04,23.935639,121.508944,0.16448298
C0T900,西林,2020-10-04,23.8119,121.441458,0.24190824
C0T960,光復,2020-10-04,23.660694,121.424964,0.20350686
C0T9A0,月眉山,2020-10-04,23.809928,121.539828,0.98227686
C0T9D0,和中,2020-10-04,24.26676,121.74103,0.26043054
C0T9E0,大坑,2020-10-04,23.880628,121.581981,0.88230425
C0T9F0,水璉,2020-10-04,23.797131,121.542514,0.67504865
C0T9I0,豐濱,2020-10-04,23.583897,121.514806,0.2529886
C0T9M0,靜浦,2020-10-04,23.455167,121.495028,0.16687705
C0T9N0,富里,2020-10-04,23.171639,121.249378,0.78849494
C0U600,礁溪,2020-10-04,24.817539,121.765608,0.7381029
C0U650,玉蘭,2020-10-04,24.675286,121.587061,0.77635306
C0U750,龜山島,2020-10-04,24.841667,121.953133,0.5789456
C0U760,東澳,2020-10-04,24.52196,121.83318,0.63682956
C0U770,南澳,2020-10-04,24.44935,121.81022,0.38683537
C0U780,五結,2020-10-04,24.68637,121.79794,0.14416835
C0U860,頭城,2020-10-04,24.85323,121.8308,0.7233964
C0U870,大礁溪,2020-10-04,24.791042,121.675047,0.67011184
C0U880,北關,2020-10-04,24.9072,121.8734,0.1772454
C0U890,三星,2020-10-04,24.66812,121.65302,0.76924103
C0U900,內城,2020-10-04,24.71813,121.68766,0.7703201
C0U910,冬山,2020-10-04,24.63373,121.7937,0.14416835
C0U940,羅東,2020-10-04,24.68184,121.74934,0.15769403
C0U970,大福,2020-10-04,24.80064,121.81389,0.70347655
C0U990,員山,2020-10-04,24.74435,121.72247,0.15769403
C0UA00,土場,2020-10-04,24.576533,121.495333,0.6416825
C0UA80,大溪漁港,2020-10-04,24.941801,121.902955,0.7381029
C0UA90,石城,2020-10-04,24.980444,121.951214,0.56439906
C0UB00,淡江大學蘭陽校園,2020-10-04,24.823239,121.730383,0.64619154
C0UB10,蘇澳,2020-10-04,24.5969,121.8571,0.17701057
C0UB20,壯圍,2020-10-04,24.7359,121.8163,0.1330974
C0V250,甲仙,2020-10-04,23.080106,120.591758,0.81312335
C0V260,月眉,2020-10-04,22.971003,120.539853,0.7287682
C0V310,美濃,2020-10-04,22.898742,120.519153,0.7572855
C0V350,溪埔,2020-10-04,22.738578,120.446797,0.39101908
C0V360,內門,2020-10-04,22.975481,120.466769,0.7012429
C0V370,古亭坑,2020-10-04,22.893178,120.401947,0.69919676
C0V400,阿公店,2020-10-04,22.804194,120.355528,0.3798733
C0V440,鳳山,2020-10-04,22.646653,120.356122,0.38349852
C0V450,鳳森,2020-10-04,22.545064,120.392592,0.20025799
C0V490,新興,2020-10-04,22.627422,120.298803,0.34770834
C0V530,阿蓮,2020-10-04,22.883208,120.327508,0.22418702
C0V610,梓官,2020-10-04,22.760558,120.267211,0.17285274
C0V620,永安,2020-10-04,22.82315,120.236856,0.1253349
C0V630,茄萣,2020-10-04,22.906642,120.182608,0.13315009
C0V640,湖內,2020-10-04,22.887139,120.2445,0.14227782
C0V650,彌陀,2020-10-04,22.783806,120.246361,0.1253349
C0V660,岡山,2020-10-04,22.797078,120.294958,0.17285274
C0V680,仁武,2020-10-04,22.701083,120.347722,0.23335806
C0V690,鼓山,2020-10-04,22.623325,120.275575,0.34770808
C0V700,三民,2020-10-04,22.645017,120.311233,0.34770834
C0V710,苓雅,2020-10-04,22.622742,120.330669,0.34770834
C0V720,林園,2020-10-04,22.507747,120.394511,0.34770808
C0V730,大寮,2020-10-04,22.605614,120.395717,0.15294945
C0V740,旗山,2020-10-04,22.888614,120.483597,0.7525507
C0V750,路竹,2020-10-04,22.854997,120.259439,0.17469978
C0V760,橋頭,2020-10-04,22.757806,120.30575,0.18389812
C0V770,大社,2020-10-04,22.730306,120.346639,0.23335806
C0V790,萬山,2020-10-04,22.905944,120.688056,0.82344246
C0V800,六龜,2020-10-04,22.997889,120.633583,0.74758905
C0V810,左營,2020-10-04,22.67491,120.28491,0.21844262
C0V820,小林,2020-10-04,23.148408,120.63325,0.80832887
C0V840,鳳鼻頭,2020-10-04,22.5083,120.3591,0.32985893
C0V850,蚵仔寮,2020-10-04,22.7256,120.2527,0.20705317
C0V860,南寮,2020-10-04,22.7616,120.2339,0.11851139
C0V870,文安,2020-10-04,22.8025,120.2164,0.11851139
C0V880,興達,2020-10-04,22.8778,120.2127,0.13315009
C0V890,前鎮,2020-10-04,22.5718,120.3117,0.32985893
C0V900,汕尾,2020-10-04,22.4782,120.4151,0.39152375
C0X050,東河,2020-10-04,23.296598,120.385608,0.7571837
C0X060,下營,2020-10-04,23.22695,120.256261,0.5472207
C0X080,佳里,2020-10-04,23.173039,120.145086,0.3704159
C0X100,臺南市北區,2020-10-04,23.010394,120.194228,0.17081152
C0X110,臺南市南區,2020-10-04,22.961189,120.188378,0.18257184
C0X120,麻豆,2020-10-04,23.183289,120.248611,0.3804657
C0X130,官田,2020-10-04,23.193217,120.315422,0.5670331
C0X140,西港,2020-10-04,23.125608,120.203108,0.33333635
C0X150,安定,2020-10-04,23.102614,120.227839,0.23650385
C0X160,仁德,2020-10-04,22.968258,120.257689,0.33809412
C0X170,關廟,2020-10-04,22.963017,120.327797,0.42249662
C0X180,山上,2020-10-04,23.0757,120.363253,0.64125293
C0X190,安平,2020-10-04,22.993161,120.152181,0.17081147
C0X200,左鎮,2020-10-04,23.056758,120.408522,0.6499063
C0X210,白河,2020-10-04,23.347466,120.414427,0.75189024
C0X220,學甲,2020-10-04,23.230367,120.182187,0.38046578
C0X230,鹽水,2020-10-04,23.272621,120.247641,0.39241296
C0X240,關子嶺,2020-10-04,23.331169,120.508025,0.6247813
C0X250,新營,2020-10-04,23.310689,120.316681,0.53524065
C0X260,後壁,2020-10-04,23.366358,120.362326,0.659686
C0X280,將軍,2020-10-04,23.214999,120.13577,0.3704159
C0X290,北門,2020-10-04,23.267772,120.125481,0.3704159
C0X300,鹿寮,2020-10-04,23.386047,120.477331,0.71982265
C0X310,七股,2020-10-04,23.147289,120.086253,0.2830538
C0X320,柳營,2020-10-04,23.253328,120.375253,0.7571837
C0Z020,明里,2020-10-04,23.208717,121.262342,0.4506214
C0Z061,玉里,2020-10-04,23.3215,121.339656,0.13526303
C0Z070,舞鶴,2020-10-04,23.46811,121.37407,0.4535685
C0Z080,富源,2020-10-04,23.587642,121.378225,0.447132
C0Z100,東華,2020-10-04,23.89525,121.549833,0.08187113
C0Z150,吉安光華,2020-10-04,23.930925,121.595153,0.07442888
C0Z160,鳳林,2020-10-04,23.746114,121.453411,0.18313949
C0Z170,卓溪,2020-10-04,23.3443,121.3029,0.18322645
C0Z180,新城,2020-10-04,24.03946,121.60454,0.22509958
C0Z190,富世,2020-10-04,24.14743,121.6297,0.92234933
C0Z200,萬榮,2020-10-04,23.709219,121.420106,0.16448298
C0Z210,瑞穗,2020-10-04,23.5239,121.39021,0.21416165
C0Z230,和平,2020-10-04,24.30717,121.77007,0.26043054
C0Z270,蕃薯寮,2020-10-04,23.73835,121.540108,0.20366359
C0Z280,德武,2020-10-04,23.47426,121.41071,0.2795308
C0Z300,東里,2020-10-04,23.26853,121.30547,0.15428087
C0Z310,清水斷崖,2020-10-04,24.218294,121.689142,0.65821785
C0Z330,安通山,2020-10-04,23.290728,121.348528,0.79864675
CAA010,國一N013K,2020-10-04,25.06944,121.6281,0.10735478
CAA020,國一S026K,2020-10-04,25.07639,121.4964,0.08354237
CAA030,國三S010K,2020-10-04,25.08,121.6475,0.094235435
CAA040,國三S016K,2020-10-04,25.03306,121.6158,0.20886473
CAA050,國三S037K,2020-10-04,24.9828,121.471,0.10735449
CAA060,國三S042K,2020-10-04,24.96,121.4306,0.13097262
CAA070,國三N046K,2020-10-04,24.95083,121.3958,0.11701374
CAA080,國三S054K,2020-10-04,24.93917,121.3239,0.09171636
CAA090,國三A005K,2020-10-04,25.00194,121.5975,0.12049282
CAAH60,大安森林,2020-10-04,25.02955,121.53628,0.0839146
CAB010,國一S001K,2020-10-04,25.11583,121.7286,0.08489758
CAB020,國一S006K,2020-10-04,25.08694,121.6869,0.07254391
CAB030,國三S004K,2020-10-04,25.11444,121.6886,0.5971752
CAB040,國三S007K,2020-10-04,25.09694,121.6678,0.1180246
CAB050,國三K002K,2020-10-04,25.14583,121.7217,0.1180246
CAC010,國一S072K,2020-10-04,24.89583,121.1342,0.15304643
CAC020,國二E009K,2020-10-04,25.02111,121.2736,0.09609217
CAC030,國三N063K,2020-10-04,24.889,121.26,0.14452094
CAC050,西濱S023K,2020-10-04,25.11649,121.27551,0.07678632
CAC060,西濱S032K,2020-10-04,25.091966,121.192505,0.07055799
CAD010,國一S105K,2020-10-04,24.726316,120.940643,0.07691717
CAD020,國一N077K,2020-10-04,24.885,121.0889,0.13929868
CAD030,國一S082K,2020-10-04,24.87667,121.0467,0.054634567
CAD040,國一S088K,2020-10-04,24.84444,121.0214,0.061949305
CAD050,國一N094K,2020-10-04,24.79778,121.0089,0.07336578
CAD060,國一S098K,2020-10-04,24.76056,120.9911,0.07336578
CAD070,國三N076K,2020-10-04,24.800303,121.195739,0.18201683
CAD080,國三N085K,2020-10-04,24.78333,121.1211,0.12875105
CAD090,國三S103K,2020-10-04,24.75861,120.9608,0.08558397
CAD100,西濱N066K,2020-10-04,24.8956,120.9649,0.03859988
CAD110,西濱S082K,2020-10-04,24.751724,120.905028,0.06785877
CAE010,國一N142K,2020-10-04,24.453119,120.783221,0.31159908
CAE020,國一S114K,2020-10-04,24.668835,120.885811,0.06785877
CAE030,國一S123K,2020-10-04,24.59594,120.86071,0.4273647
CAE040,國一S132K,2020-10-04,24.524506,120.820831,0.447063
CAE050,國一S152K,2020-10-04,24.375492,120.749184,0.43356058
CAE060,國三N119K,2020-10-04,24.675432,120.847389,0.22009498
CAE070,國三N151K,2020-10-04,24.440218,120.681656,0.6972723
CAE080,國三S140K,2020-10-04,24.522345,120.725006,0.5524345
CAE090,國三S156K,2020-10-04,24.39798,120.669487,0.7906983
CAE100,西濱N107K,2020-10-04,24.5958,120.7394,0.49945244
CAE110,西濱S129K,2020-10-04,24.4472,120.6428,0.72898597
CAF010,國一N174K,2020-10-04,24.2049,120.6552,0.8050777
CAF020,國一S162K,2020-10-04,24.295534,120.695976,0.5911522
CAF030,國一S169K,2020-10-04,24.237116,120.688271,0.5849895
CAF040,國一S188K,2020-10-04,24.118546,120.585747,0.40004233
CAF050,國三N208K,2020-10-04,24.066147,120.660919,0.40004233
CAF060,國三S168K,2020-10-04,24.308519,120.614471,0.80135393
CAF070,國三S173K,2020-10-04,24.27397,120.593079,0.7318324
CAF080,國三S178K,2020-10-04,24.226721,120.589058,0.7424353
CAF090,國四E5K,2020-10-04,24.296465,120.643135,0.76514643
CAF100,西濱N151K,2020-10-04,24.275964,120.547681,0.7119097
CAG010,國一N198K,2020-10-04,24.063889,120.523056,0.28490454
CAG030,國一S207K,2020-10-04,23.988304,120.508092,0.34775323
CAG040,國三N191K,2020-10-04,24.139256,120.5215,0.6585885
CAG050,國三N196K,2020-10-04,24.107155,120.554482,0.37664515
CAG060,國三S202K,2020-10-04,24.092468,120.603256,0.37664515
CAG070,西濱S173K,2020-10-04,24.1081,120.434576,0.29345366
CAG080,西濱S189K,2020-10-04,23.987857,120.369607,0.37074235
CAG090,西濱N210K,2020-10-04,23.843536,120.293236,0.6489639
CAG100,王功漁港,2020-10-04,23.96824,120.32586,0.37074235
CAH010,國三N223K,2020-10-04,23.955116,120.662376,0.39905894
CAH020,國三S217K,2020-10-04,24.00683,120.653214,0.89492524
CAH030,茶改場竹圍站,2020-10-04,23.860083,120.637528,0.4632256
CAHA00,消防署訓練中心,2020-10-04,23.82137,120.72293,0.584557
CAJ010,國三N252K,2020-10-04,23.77412,120.64061,0.5677604
CAJ020,國一N234K,2020-10-04,23.74633,120.467926,0.63474965
CAJ030,西濱N222K,2020-10-04,23.737734,120.256132,0.6226329
CAJ040,西濱S241K,2020-10-04,23.623426,120.172646,0.39669526
CAJ050,海口故事園區,2020-10-04,23.57543,120.14121,0.39669588
CAL010,國一N250K,2020-10-04,23.610292,120.436867,0.8615873
CAL020,國一S262K,2020-10-04,23.512333,120.403038,0.89685214
CAL030,國一N268K,2020-10-04,23.460833,120.375833,0.89685214
CAL040,國一N273K,2020-10-04,23.416666,120.355,0.77241087
CAL050,國三N279K,2020-10-04,23.596111,120.523333,0.70679146
CAL060,國三S286K,2020-10-04,23.533917,120.484583,0.75102115
CAL070,國三N295K,2020-10-04,23.468598,120.499369,0.7557581
CAL080,國三N303K,2020-10-04,23.428611,120.452416,0.89623666
CAL090,西濱S257K,2020-10-04,23.502278,120.171861,0.48402393
CAL100,西濱S267K,2020-10-04,23.41613,120.162872,0.4830115
CAL110,布袋國中,2020-10-04,23.35893,120.18026,0.38696554
CAN010,國一N288K,2020-10-04,23.30609,120.290033,0.5238697
CAN020,國一S306K,2020-10-04,23.1565,120.239513,0.3804657
CAN030,國一N316K,2020-10-04,23.07309,120.253014,0.38108718
CAN040,國一N323K,2020-10-04,23.00421,120.245922,0.19275588
CAN050,國一N335K,2020-10-04,22.897584,120.269895,0.17567359
CAN060,國三S311K,2020-10-04,23.346388,120.438888,0.7465718
CAN070,國三S329K,2020-10-04,23.212777,120.355833,0.63896716
CAN080,國三N336K,2020-10-04,23.154722,120.345,0.57470965
CAN090,國三S342K,2020-10-04,23.106694,120.327528,0.41834646
CAN100,國三S366K,2020-10-04,22.9077,120.3513,0.61919713
CAN110,西濱S280K,2020-10-04,23.3052,120.14891,0.3704159
CAN120,西濱N304K,2020-10-04,23.103439,120.086694,0.25647485
CAN130,水試所海水繁養殖中心,2020-10-04,23.120802,120.07968,0.2466188
CAN140,六官養殖協會,2020-10-04,23.22881,120.29962,0.5577625
CAP010,國一S342K,2020-10-04,22.845555,120.295,0.17285274
CAP020,國一S346K,2020-10-04,22.812222,120.314166,0.17285274
CAP030,國一N351K,2020-10-04,22.765833,120.328888,0.18389854
CAP040,國一N361K,2020-10-04,22.680555,120.328611,0.21844262
CAP050,國三N372K,2020-10-04,22.858611,120.373611,0.4696895
CAP060,國三S385K,2020-10-04,22.767777,120.444444,0.19992961
CAP070,高雄燈塔,2020-10-04,22.6146,120.2647,0.34770834
CAQ010,國三N425K,2020-10-04,22.480277,120.531666,0.34763816
CAQ020,國三S415K,2020-10-04,22.568,120.528,0.16148698
CAQ030,崎峰國小,2020-10-04,22.42565,120.49521,0.33378693
E2K600,四湖植物園,2020-10-04,23.676986,120.163433,0.585793
E2P980,林試六龜中心,2020-10-04,22.991703,120.645722,0.7584848
E2S390,太麻里分所,2020-10-04,22.5988,120.9811,0.018447196
E2S960,林試太麻里2,2020-10-04,22.598014,120.989761,0.016859356
E2S980,林試太麻里1,2020-10-04,22.598922,120.980044,0.018447196
G2AI50,關渡,2020-10-04,25.11575,121.492,0.074810475
G2F820,農試所(霧峰),2020-10-04,24.031261,120.688133,0.89492524
G2L020,嘉義分所,2020-10-04,23.485028,120.473806,0.7557581
G2M350,溪口農場,2020-10-04,23.58565,120.408111,0.84616196
G2P820,鳳山園試所,2020-10-04,22.646611,120.356083,0.38349852
K2E360,苗栗農改場,2020-10-04,24.495722,120.829111,0.3918712
K2E710,大湖分場,2020-10-04,24.422861,120.871833,0.5205468
K2F750,種苗改良場,2020-10-04,24.225972,120.800917,0.20681453
U2HA50,臺大竹山,2020-10-04,23.756972,120.681556,0.43030953
V2C250,八德合作社,2020-10-04,24.93775,121.266389,0.14294775
V2C260,八德蔬果,2020-10-04,24.978508,121.281819,0.11298164
V2K610,大庄合作社,2020-10-04,23.8068,120.367939,0.78604317
V2K620,麥寮合作社,2020-10-04,23.753836,120.294783,0.6489639
