站號,站名,日期,lat,lon,BlastGRU-TW
12J990,口湖工作站,2020-08-23,23.589978,120.180394,0.158048
12Q970,東港工作站,2020-08-23,22.479997,120.466058,0.43156588
12Q980,恆春工作站,2020-08-23,22.079678,120.714425,0.04327368
466881,新北,2020-08-23,24.9593,121.52,0.09260042
466900,淡水,2020-08-23,25.164889,121.448906,0.110038444
466920,臺北,2020-08-23,25.037658,121.514853,0.08937259
466940,基隆,2020-08-23,25.133314,121.740475,0.1016161
466990,花蓮,2020-08-23,23.975128,121.613275,0.8229851
467050,新屋,2020-08-23,25.006744,121.047486,0.15117235
467080,宜蘭,2020-08-23,24.763975,121.756528,0.060703397
467270,田中,2020-08-23,23.873803,120.581286,0.06672199
467300,東吉島,2020-08-23,23.25695,119.667467,0.9951149
467350,澎湖,2020-08-23,23.565503,119.563094,0.5125058
467410,臺南,2020-08-23,22.993239,120.204772,0.27106136
467420,永康,2020-08-23,23.038386,120.2367,0.26073644
467441,高雄,2020-08-23,22.7304,120.3125,0.2889628
467480,嘉義,2020-08-23,23.495925,120.432906,0.318623
467490,臺中,2020-08-23,24.145736,120.684075,0.98043066
467540,大武,2020-08-23,22.355675,120.903789,0.050183844
467571,新竹,2020-08-23,24.827853,121.014219,0.124595515
467590,恆春,2020-08-23,22.003897,120.746339,0.044833906
467610,成功,2020-08-23,23.097486,121.373428,0.16972731
467620,蘭嶼,2020-08-23,22.036969,121.558339,0.15179436
467660,臺東,2020-08-23,22.752211,121.154586,0.07603573
467790,墾丁雷達站,2020-08-23,21.948235,120.808028,0.046703503
72AI40,桃改樹林分場,2020-08-23,24.944503,121.386972,0.11239967
72C440,桃園農改,2020-08-23,24.950944,121.030583,0.15703627
72D680,桃改新埔分場,2020-08-23,24.834444,121.066111,0.10877392
72G600,臺中農改,2020-08-23,24.003028,120.534389,0.78587425
72K220,南改斗南分場,2020-08-23,23.634556,120.477333,0.046714615
72M360,南改義竹分場,2020-08-23,23.360694,120.279361,0.25259915
72M700,南改鹿草分場,2020-08-23,23.416869,120.283061,0.16998708
72N100,臺南農改,2020-08-23,23.0605,120.342194,0.5081517
72N240,七股研究中心,2020-08-23,23.081672,120.062894,0.18319903
72Q010,高雄農改,2020-08-23,22.709333,120.525889,0.11795253
72S200,東改班鳩分場,2020-08-23,22.829528,121.077694,0.42751405
72S590,東改賓朗果園,2020-08-23,22.813889,121.071278,0.7282525
72T250,花蓮農改,2020-08-23,23.975222,121.563889,0.865046
72U480,花改蘭陽分場,2020-08-23,24.686306,121.716583,0.09095259
72V140,高改旗南分場,2020-08-23,22.857861,120.516667,0.4906246
82A750,茶改北部分場,2020-08-23,24.955778,121.631222,0.24320476
82C160,茶改場,2020-08-23,24.908472,121.185333,0.27795005
82H840,茶改南部分場,2020-08-23,23.762528,120.7405,0.9961807
82S580,茶改東部分場,2020-08-23,22.907694,121.130139,0.54716384
A2C560,農工中心,2020-08-23,24.985917,121.239833,0.18542463
A2K360,水試臺西試驗場,2020-08-23,23.717231,120.190522,0.16138905
A2K570,古坑花卉中心,2020-08-23,23.63353,120.55239,0.07407517
A2K630,臺大雲林校區,2020-08-23,23.730628,120.423903,0.036588877
A2N290,臺南蘭花園區,2020-08-23,23.340258,120.379661,0.4427101
B2E890,畜試北區分所,2020-08-23,24.527806,120.770972,0.8058911
B2N890,畜試所,2020-08-23,23.058972,120.336406,0.5081517
B2Q810,畜試南區分所,2020-08-23,21.945583,120.802167,0.04433653
B2U990,畜試東區分所,2020-08-23,24.669039,121.832561,0.08898579
C0A520,山佳,2020-08-23,24.974944,121.402008,0.112399645
C0A530,坪林,2020-08-23,24.938183,121.70975,0.13517143
C0A540,四堵,2020-08-23,24.8926,121.745736,0.1306154
C0A550,泰平,2020-08-23,24.971197,121.823711,0.19847743
C0A560,福山,2020-08-23,24.776203,121.502811,0.24320428
C0A570,桶後,2020-08-23,24.848222,121.597992,0.27358037
C0A640,石碇,2020-08-23,24.993969,121.662917,0.11223381
C0A650,火燒寮,2020-08-23,25.002719,121.742892,0.12594166
C0A660,瑞芳,2020-08-23,25.113169,121.801147,0.097979315
C0A770,科教館,2020-08-23,25.096356,121.516507,0.106203794
C0A860,大坪,2020-08-23,25.165914,121.632969,0.32457933
C0A880,福隆,2020-08-23,25.017842,121.942083,0.08532514
C0A890,雙溪,2020-08-23,25.036003,121.864242,0.11043184
C0A920,富貴角,2020-08-23,25.263783,121.565258,0.16491462
C0A931,三和,2020-08-23,25.233153,121.595236,0.14479119
C0A940,金山,2020-08-23,25.223628,121.643967,0.15126953
C0A950,鼻頭角,2020-08-23,25.129036,121.923372,0.08421788
C0A970,三貂角,2020-08-23,25.007606,122.002058,0.09445546
C0A980,社子,2020-08-23,25.109508,121.469681,0.10409313
C0A9C0,天母,2020-08-23,25.117494,121.537169,0.11036519
C0A9F0,內湖,2020-08-23,25.079422,121.57545,0.08937259
C0AC60,三峽,2020-08-23,24.939025,121.369728,0.09442301
C0AC70,信義,2020-08-23,25.037822,121.564597,0.08937259
C0AC80,文山,2020-08-23,25.00235,121.575728,0.09802812
C0ACA0,新莊,2020-08-23,25.051478,121.446756,0.10549075
C0AD00,三芝,2020-08-23,25.258131,121.501917,0.16597453
C0AD10,八里,2020-08-23,25.150211,121.403947,0.110038444
C0AD30,蘆洲,2020-08-23,25.086594,121.472331,0.106203794
C0AD40,土城,2020-08-23,24.973208,121.445169,0.108096145
C0AD50,鶯歌,2020-08-23,24.951533,121.346294,0.12443491
C0AG80,中和,2020-08-23,24.991622,121.491792,0.08937259
C0AH00,汐止,2020-08-23,25.066881,121.658778,0.10334127
C0AH10,永和,2020-08-23,25.01125,121.508111,0.087941565
C0AH40,平等,2020-08-23,25.129142,121.577086,0.1659582
C0AH50,林口,2020-08-23,25.072181,121.38084,0.14463778
C0AH70,松山,2020-08-23,25.04871,121.55042,0.08937259
C0AH80,深坑,2020-08-23,25.002703,121.628328,0.09802804
C0AI00,五股,2020-08-23,25.07445,121.42728,0.17440237
C0AI10,屈尺,2020-08-23,24.92184,121.54475,0.09802812
C0AI20,白沙灣,2020-08-23,25.283128,121.519058,0.14526702
C0AI30,三重,2020-08-23,25.057328,121.500629,0.106203794
C0AI40,石牌,2020-08-23,25.115597,121.513139,0.108096145
C0AJ20,野柳,2020-08-23,25.20703,121.690021,0.10334127
C0AJ30,淡水觀海,2020-08-23,25.184591,121.408616,0.10794748
C0AJ40,石門,2020-08-23,25.273672,121.601198,0.21389246
C0AJ50,水湳洞,2020-08-23,25.123695,121.862238,0.10334127
C0AJ60,六塊厝,2020-08-23,25.24,121.4481,0.10794748
C0AJ70,田寮,2020-08-23,25.2698,121.4886,0.14217922
C0AJ80,板橋,2020-08-23,25.0107,121.4489,0.108096145
C0AJ90,澳底,2020-08-23,25.0552,121.9253,0.08532514
C0B010,七堵,2020-08-23,25.094819,121.71713,0.10675899
C0B020,基隆嶼,2020-08-23,25.19141,121.78391,0.10334127
C0B040,大武崙,2020-08-23,25.166676,121.706993,0.10675899
C0B050,八斗子,2020-08-23,25.144754,121.79167,0.10014873
C0B060,暖暖,2020-08-23,25.0957,121.7403,0.116895445
C0C460,復興,2020-08-23,24.820208,121.352281,0.338373
C0C480,桃園,2020-08-23,24.992425,121.323172,0.14520922
C0C490,八德,2020-08-23,24.928708,121.283289,0.113919474
C0C590,觀音,2020-08-23,25.027072,121.153317,0.14586867
C0C620,蘆竹,2020-08-23,25.084275,121.265767,0.11419703
C0C630,大溪,2020-08-23,24.882853,121.265547,0.13851212
C0C650,平鎮,2020-08-23,24.897503,121.214636,0.27795005
C0C660,楊梅,2020-08-23,24.912375,121.143047,0.234097
C0C670,龍潭,2020-08-23,24.870056,121.221389,0.29648498
C0C680,龜山,2020-08-23,25.02846,121.38656,0.12115257
C0C700,中壢,2020-08-23,24.977661,121.256375,0.16000956
C0C710,大溪永福,2020-08-23,24.892936,121.324975,0.20012546
C0C720,竹圍,2020-08-23,25.112692,121.239824,0.110038444
C0C730,中大臨海站,2020-08-23,24.966126,121.008581,0.14314109
C0C740,觀音工業區,2020-08-23,25.064764,121.114856,0.17439228
C0C750,新興坑尾,2020-08-23,25.0061,121.0971,0.21835683
C0D430,峨眉,2020-08-23,24.6905,121.017189,0.10588186
C0D480,打鐵坑,2020-08-23,24.849664,121.150789,0.1767455
C0D540,橫山,2020-08-23,24.71116,121.11693,0.114413224
C0D560,竹東,2020-08-23,24.767147,121.057881,0.13296863
C0D580,寶山,2020-08-23,24.735006,121.025192,0.060890775
C0D590,新豐,2020-08-23,24.87068,120.97721,0.105896376
C0D650,湖口,2020-08-23,24.904794,121.043628,0.17402177
C0D660,新竹市東區,2020-08-23,24.798681,120.986942,0.13115329
C0D670,海天一線,2020-08-23,24.831986,120.914438,0.11169697
C0D680,香山濕地,2020-08-23,24.783581,120.914988,0.11500022
C0D690,外湖,2020-08-23,24.917735,120.968711,0.14314102
C0D700,關西,2020-08-23,24.7977,121.1732,0.19703609
C0E420,竹南,2020-08-23,24.708978,120.888897,0.12690051
C0E430,南庄,2020-08-23,24.601775,121.000214,0.105083965
C0E520,大湖,2020-08-23,24.41494,120.87087,0.79150176
C0E540,後龍,2020-08-23,24.606489,120.783933,0.7586987
C0E550,明德,2020-08-23,24.583486,120.885411,0.18602526
C0E590,通霄,2020-08-23,24.471892,120.704622,0.7275327
C0E730,頭份,2020-08-23,24.688247,120.912206,0.12601872
C0E740,造橋,2020-08-23,24.637056,120.864778,0.09040763
C0E750,苗栗,2020-08-23,24.564569,120.824575,0.8649014
C0E780,銅鑼,2020-08-23,24.489681,120.790853,0.11709311
C0E791,卓蘭,2020-08-23,24.3126,120.8244,0.3906063
C0E810,西湖,2020-08-23,24.562947,120.7485,0.8250795
C0E820,獅潭,2020-08-23,24.539133,120.920042,0.1699744
C0E830,苑裡,2020-08-23,24.439714,120.653053,0.5784955
C0E850,大河,2020-08-23,24.618069,120.948578,0.24604566
C0E870,高鐵苗栗,2020-08-23,24.60725,120.826094,0.7811391
C0E910,海埔,2020-08-23,24.648767,120.772435,0.08836641
C0E920,通霄漁港,2020-08-23,24.498589,120.673876,0.62543553
C0E930,龍鳳,2020-08-23,24.700034,120.859125,0.07962116
C0F0B0,石岡,2020-08-23,24.276061,120.777644,0.7775615
C0F850,東勢,2020-08-23,24.246428,120.833047,0.6608659
C0F930,大甲,2020-08-23,24.347667,120.640403,0.6799447
C0F970,大坑,2020-08-23,24.173142,120.722289,0.9785235
C0F9A0,中竹林,2020-08-23,24.103556,120.751061,0.98707575
C0F9I0,神岡,2020-08-23,24.272481,120.658314,0.620669
C0F9K0,大安,2020-08-23,24.345061,120.588025,0.51310974
C0F9L0,后里,2020-08-23,24.310436,120.729725,0.92048895
C0F9M0,豐原,2020-08-23,24.254322,120.720692,0.8116162
C0F9N0,大里,2020-08-23,24.092464,120.701378,0.78448325
C0F9O0,潭子,2020-08-23,24.213106,120.703933,0.7639059
C0F9P0,清水,2020-08-23,24.312297,120.562242,0.48421064
C0F9Q0,外埔,2020-08-23,24.347817,120.705686,0.36551937
C0F9R0,龍井,2020-08-23,24.184536,120.528972,0.5404996
C0F9S0,烏日,2020-08-23,24.107058,120.624103,0.76727086
C0F9T0,西屯,2020-08-23,24.179494,120.641275,0.7829469
C0F9U0,南屯,2020-08-23,24.137006,120.637969,0.78448325
C0F9X0,大雅(中科園區),2020-08-23,24.21528,120.62445,0.92205185
C0FA10,松柏,2020-08-23,24.429115,120.617482,0.52990264
C0FA20,溫寮,2020-08-23,24.372177,120.583125,0.52990264
C0FA30,梧棲,2020-08-23,24.256003,120.523381,0.5404996
C0FA40,臺中電廠,2020-08-23,24.2146,120.4907,0.5404996
C0FA50,霧峰,2020-08-23,24.0419,120.6995,0.953509
C0G620,芬園,2020-08-23,24.015678,120.6213,0.9866203
C0G640,鹿港,2020-08-23,24.0753,120.430481,0.7530887
C0G650,員林,2020-08-23,23.946503,120.585597,0.9713905
C0G660,溪湖,2020-08-23,23.94835,120.479122,0.9090353
C0G720,溪州,2020-08-23,23.851589,120.499093,0.06312037
C0G730,二林,2020-08-23,23.903325,120.376081,0.7970192
C0G740,大城,2020-08-23,23.852487,120.320935,0.16340873
C0G770,福興,2020-08-23,24.041289,120.437669,0.75308824
C0G780,秀水,2020-08-23,24.03405,120.503869,0.76876193
C0G800,埔鹽,2020-08-23,24.000394,120.431683,0.7530887
C0G810,埔心,2020-08-23,23.947633,120.525456,0.92291707
C0G820,田尾,2020-08-23,23.901669,120.509389,0.93515754
C0G830,埤頭,2020-08-23,23.866003,120.452806,0.05902731
C0G840,北斗,2020-08-23,23.877586,120.514222,0.93515754
C0G860,社頭,2020-08-23,23.897647,120.5862,0.9772222
C0G870,芳苑,2020-08-23,23.922303,120.320025,0.16097234
C0G880,二水,2020-08-23,23.810742,120.6173,0.099096015
C0G890,伸港,2020-08-23,24.148933,120.484403,0.5735911
C0G900,線西,2020-08-23,24.143358,120.443536,0.6702129
C0G910,花壇,2020-08-23,24.032076,120.549461,0.80386955
C0G920,永靖,2020-08-23,23.924703,120.547533,0.93515754
C0G940,竹塘,2020-08-23,23.848253,120.386764,0.041492414
C0G950,防潮門,2020-08-23,24.1835,120.4871,0.5260599
C0G960,福寶,2020-08-23,24.0443,120.3814,0.7384965
C0G970,三豐,2020-08-23,23.882,120.2895,0.16097234
C0H890,埔里,2020-08-23,23.972169,120.952425,0.6612657
C0H950,中寮,2020-08-23,23.884447,120.766406,0.3852774
C0H960,草屯,2020-08-23,23.973672,120.68085,0.10988516
C0I110,竹山,2020-08-23,23.761225,120.688156,0.2599422
C0I360,水里,2020-08-23,23.812553,120.849792,0.029174624
C0I380,集集,2020-08-23,23.828206,120.801467,0.028569711
C0I410,名間,2020-08-23,23.837053,120.701447,0.16261129
C0I420,國姓,2020-08-23,24.037803,120.855072,0.9622763
C0I460,南投,2020-08-23,23.911469,120.687331,0.151155
C0K250,崙背,2020-08-23,23.75555,120.318925,0.17012423
C0K280,四湖,2020-08-23,23.630414,120.227125,0.16812351
C0K291,宜梧,2020-08-23,23.536281,120.169329,0.15680292
C0K330,虎尾,2020-08-23,23.719183,120.442036,0.037527304
C0K390,土庫,2020-08-23,23.679029,120.395574,0.036588877
C0K400,斗六,2020-08-23,23.720583,120.541127,0.048917875
C0K410,北港,2020-08-23,23.573957,120.292802,0.14752403
C0K420,西螺,2020-08-23,23.800407,120.467394,0.064691976
C0K430,褒忠,2020-08-23,23.690938,120.303634,0.1480934
C0K440,二崙,2020-08-23,23.772797,120.408944,0.04277274
C0K450,大埤,2020-08-23,23.646074,120.431537,0.039279036
C0K460,斗南,2020-08-23,23.678734,120.478359,0.045998067
C0K470,林內,2020-08-23,23.748675,120.609642,0.056847014
C0K480,莿桐,2020-08-23,23.761192,120.502372,0.067040585
C0K500,元長,2020-08-23,23.64981,120.315024,0.15606588
C0K510,水林,2020-08-23,23.572924,120.24597,0.16062994
C0K530,臺西,2020-08-23,23.701547,120.197559,0.16391298
C0K550,蔦松,2020-08-23,23.514319,120.229736,0.15959324
C0K560,棋山,2020-08-23,23.68645,120.603417,0.06441825
C0K580,高鐵雲林,2020-08-23,23.737456,120.417944,0.036588877
C0K590,雲林東勢,2020-08-23,23.674192,120.255721,0.1480932
C0K600,箔子寮,2020-08-23,23.6197,120.14,0.158048
C0M410,馬頭山,2020-08-23,23.324361,120.582017,0.031646337
C0M520,東後寮,2020-08-23,23.369908,120.248065,0.22539838
C0M640,中埔,2020-08-23,23.42538,120.5229,0.14407253
C0M650,朴子,2020-08-23,23.43463,120.23902,0.16702935
C0M660,溪口,2020-08-23,23.604131,120.403569,0.19991675
C0M670,大林,2020-08-23,23.600616,120.45841,0.27149597
C0M680,太保,2020-08-23,23.455062,120.331455,0.14598629
C0M690,水上,2020-08-23,23.419734,120.388909,0.4995458
C0M700,竹崎,2020-08-23,23.526178,120.555508,0.10548054
C0M710,東石,2020-08-23,23.458927,120.15385,0.15959324
C0M720,番路,2020-08-23,23.464657,120.554156,0.28865227
C0M730,嘉義市東區,2020-08-23,23.457673,120.460531,0.4601612
C0M740,六腳,2020-08-23,23.492871,120.290625,0.14324091
C0M750,布袋,2020-08-23,23.380878,120.167789,0.16702935
C0M760,民雄,2020-08-23,23.551754,120.428457,0.2150727
C0M770,嘉義梅山,2020-08-23,23.585398,120.555587,0.07849605
C0M780,鹿草,2020-08-23,23.41134,120.30835,0.17445324
C0M790,新港,2020-08-23,23.553269,120.345728,0.1507527
C0M800,茶山,2020-08-23,23.299075,120.664767,0.04039833
C0M880,好美里,2020-08-23,23.3364,120.138,0.25004074
C0N010,鯤鯓國小,2020-08-23,23.1879,120.0889,0.19029956
C0N020,城西,2020-08-23,23.0568,120.0956,0.18669066
C0N030,四草,2020-08-23,23.0235,120.1116,0.15246771
C0N040,蘆竹溝,2020-08-23,23.2344,120.0961,0.19029956
C0N050,蚵寮,2020-08-23,23.301,120.1104,0.19029956
C0O810,曾文,2020-08-23,23.219681,120.497328,0.96588653
C0O830,北寮,2020-08-23,23.079561,120.495008,0.7315006
C0O840,王爺宮,2020-08-23,23.222064,120.40085,0.96588653
C0O860,大內,2020-08-23,23.11885,120.36083,0.9744788
C0O900,善化,2020-08-23,23.112883,120.297219,0.44009897
C0O930,玉井,2020-08-23,23.126042,120.46055,0.6575393
C0O950,安南,2020-08-23,23.076694,120.144861,0.31399435
C0O960,崎頂,2020-08-23,22.959547,120.369317,0.161785
C0O970,虎頭埤,2020-08-23,23.021375,120.347878,0.23784463
C0O980,新市,2020-08-23,23.061614,120.298197,0.44009897
C0O990,媽廟,2020-08-23,22.99175,120.293525,0.36155438
C0R150,三地門,2020-08-23,22.709889,120.639944,0.13141246
C0R160,鹽埔,2020-08-23,22.739558,120.530778,0.11795253
C0R170,屏東,2020-08-23,22.660269,120.494072,0.469951
C0R190,赤山,2020-08-23,22.592333,120.614306,0.13196984
C0R220,潮州,2020-08-23,22.534361,120.54,0.10101459
C0R240,來義,2020-08-23,22.527306,120.625111,0.26862457
C0R260,春日,2020-08-23,22.370361,120.628306,0.19842388
C0R270,琉球嶼,2020-08-23,22.332244,120.362236,0.21357338
C0R280,檳榔,2020-08-23,22.076078,120.836777,0.0634957
C0R320,車城,2020-08-23,22.0744,120.716247,0.04327368
C0R341,牡丹,2020-08-23,22.130036,120.792639,0.9249869
C0R350,貓鼻頭,2020-08-23,21.921774,120.7358,0.04547567
C0R470,高樹,2020-08-23,22.826389,120.600806,0.13549758
C0R480,長治,2020-08-23,22.693128,120.542622,0.13155116
C0R490,九如,2020-08-23,22.7405,120.490503,0.50491935
C0R520,崁頂,2020-08-23,22.514781,120.506914,0.45217723
C0R540,佳冬,2020-08-23,22.419456,120.552375,0.43156588
C0R550,新埤,2020-08-23,22.467947,120.582894,0.12087591
C0R560,新園,2020-08-23,22.5434,120.461558,0.45217723
C0R570,麟洛,2020-08-23,22.65078,120.52719,0.50491863
C0R580,南州,2020-08-23,22.48591,120.50274,0.43156588
C0R590,里港,2020-08-23,22.77919,120.49459,0.16806503
C0R620,墾雷,2020-08-23,21.900836,120.855269,0.045475684
C0R640,東港,2020-08-23,22.46247,120.44074,0.40370503
C0R650,竹田,2020-08-23,22.58486,120.54344,0.110623136
C0R660,枋寮,2020-08-23,22.367722,120.590647,0.09095716
C0R670,楓港,2020-08-23,22.190131,120.692156,0.18852356
C0R680,佳樂水,2020-08-23,21.993578,120.861633,0.04433653
C0R690,墾丁,2020-08-23,21.966756,120.810269,0.06750198
C0R700,枋山,2020-08-23,22.246844,120.661086,0.18852356
C0R710,龍磐,2020-08-23,21.931672,120.838942,0.05249468
C0R720,旭海,2020-08-23,22.205403,120.887614,0.38315967
C0R730,大坪頂,2020-08-23,22.024633,120.69355,0.051169474
C0R740,獅子,2020-08-23,22.201569,120.70525,0.2802014
C0R760,南仁湖,2020-08-23,22.084681,120.863353,0.07758037
C0R770,保力,2020-08-23,22.071122,120.764111,0.04867069
C0R780,滿州,2020-08-23,22.024403,120.839892,0.046011724
C0R790,九棚,2020-08-23,22.14195,120.889281,0.23005563
C0R800,丹路,2020-08-23,22.204481,120.750989,0.6357022
C0R810,內獅,2020-08-23,22.305064,120.642986,0.1368708
C0R830,高士,2020-08-23,22.121825,120.836781,0.11756775
C0R850,林邊,2020-08-23,22.4634,120.5339,0.45217723
C0R860,鼻頭,2020-08-23,22.1043,120.8979,0.03529491
C0R870,興海,2020-08-23,21.9752,120.8439,0.04433655
C0R880,後壁湖,2020-08-23,21.9457,120.7457,0.042712573
C0R890,山海,2020-08-23,21.9878,120.7091,0.04327368
C0R900,竹坑,2020-08-23,22.1385,120.7022,0.36449346
C0R910,下寮,2020-08-23,22.3929,120.5548,0.43156588
C0R920,塭仔,2020-08-23,22.4169,120.5197,0.41427195
C0R930,萬丹,2020-08-23,22.5885,120.4851,0.110623136
C0R940,加祿堂,2020-08-23,22.3363,120.6217,0.1368708
C0S710,鹿野,2020-08-23,22.917711,121.122994,0.9369372
C0S730,綠島,2020-08-23,22.6672,121.47533,0.23330633
C0S740,池上,2020-08-23,23.119628,121.209469,0.806263
C0S770,大溪山,2020-08-23,22.478475,120.943325,0.8387588
C0S790,金崙,2020-08-23,22.538122,120.966875,0.08946979
C0S810,東河,2020-08-23,22.972672,121.303986,0.19098943
C0S830,長濱,2020-08-23,23.286817,121.411975,0.8990887
C0S840,南田,2020-08-23,22.279725,120.889208,0.06336061
C0S890,關山,2020-08-23,23.0395,121.175017,0.43897372
C0S900,蘭嶼高中,2020-08-23,22.04909,121.51214,0.047996353
C0S910,蘭嶼燈塔,2020-08-23,22.081197,121.503117,0.062849484
C0S920,金峰嘉蘭,2020-08-23,22.594789,120.960825,0.049914323
C0S930,延平,2020-08-23,22.902581,121.084058,0.5423228
C0S940,石寧山,2020-08-23,23.223772,121.406639,0.5537969
C0S950,七塊厝,2020-08-23,22.954453,121.229922,0.95130384
C0S960,香蘭,2020-08-23,22.587569,120.993375,0.04296316
C0S970,加津林,2020-08-23,22.416211,120.926942,0.051646434
C0S990,山豬窟,2020-08-23,22.318619,120.857372,0.92792475
C0SA00,歷坵,2020-08-23,22.520969,120.89185,0.965433
C0SA10,檳榔四格山,2020-08-23,22.810031,121.109308,0.9485449
C0SA30,都歷,2020-08-23,23.020333,121.323642,0.20767067
C0SA40,瑞和,2020-08-23,22.974361,121.156697,0.38184983
C0SA60,知本（水試所）,2020-08-23,22.702394,121.082761,0.061371684
C0SA80,土坂,2020-08-23,22.453108,120.887572,0.056515772
C0SA90,達仁林場,2020-08-23,22.264347,120.823972,0.9695768
C0T870,鯉魚潭,2020-08-23,23.935639,121.508944,0.8118218
C0T900,西林,2020-08-23,23.8119,121.441458,0.8727957
C0T960,光復,2020-08-23,23.660694,121.424964,0.8186138
C0T9A0,月眉山,2020-08-23,23.809928,121.539828,0.9701783
C0T9D0,和中,2020-08-23,24.26676,121.74103,0.16348007
C0T9E0,大坑,2020-08-23,23.880628,121.581981,0.9723934
C0T9F0,水璉,2020-08-23,23.797131,121.542514,0.94690704
C0T9I0,豐濱,2020-08-23,23.583897,121.514806,0.84370303
C0T9M0,靜浦,2020-08-23,23.455167,121.495028,0.7380502
C0T9N0,富里,2020-08-23,23.171639,121.249378,0.95339125
C0U600,礁溪,2020-08-23,24.817539,121.765608,0.061832555
C0U650,玉蘭,2020-08-23,24.675286,121.587061,0.41309074
C0U750,龜山島,2020-08-23,24.841667,121.953133,0.16136834
C0U760,東澳,2020-08-23,24.52196,121.83318,0.08621675
C0U770,南澳,2020-08-23,24.44935,121.81022,0.09072011
C0U780,五結,2020-08-23,24.68637,121.79794,0.08898579
C0U860,頭城,2020-08-23,24.85323,121.8308,0.060703397
C0U870,大礁溪,2020-08-23,24.791042,121.675047,0.29285422
C0U880,北關,2020-08-23,24.9072,121.8734,0.07785585
C0U890,三星,2020-08-23,24.66812,121.65302,0.074355856
C0U900,內城,2020-08-23,24.71813,121.68766,0.06473119
C0U910,冬山,2020-08-23,24.63373,121.7937,0.08898579
C0U940,羅東,2020-08-23,24.68184,121.74934,0.089848205
C0U970,大福,2020-08-23,24.80064,121.81389,0.05999299
C0U990,員山,2020-08-23,24.74435,121.72247,0.089848205
C0UA00,土場,2020-08-23,24.576533,121.495333,0.40142816
C0UA80,大溪漁港,2020-08-23,24.941801,121.902955,0.061832555
C0UA90,石城,2020-08-23,24.980444,121.951214,0.08439351
C0UB00,淡江大學蘭陽校園,2020-08-23,24.823239,121.730383,0.32255244
C0UB10,蘇澳,2020-08-23,24.5969,121.8571,0.082065314
C0UB20,壯圍,2020-08-23,24.7359,121.8163,0.08793365
C0V250,甲仙,2020-08-23,23.080106,120.591758,0.17486475
C0V260,月眉,2020-08-23,22.971003,120.539853,0.5317818
C0V310,美濃,2020-08-23,22.898742,120.519153,0.77683896
C0V350,溪埔,2020-08-23,22.738578,120.446797,0.39285114
C0V360,內門,2020-08-23,22.975481,120.466769,0.9537498
C0V370,古亭坑,2020-08-23,22.893178,120.401947,0.49572748
C0V400,阿公店,2020-08-23,22.804194,120.355528,0.3280508
C0V440,鳳山,2020-08-23,22.646653,120.356122,0.4655386
C0V450,鳳森,2020-08-23,22.545064,120.392592,0.14257318
C0V490,新興,2020-08-23,22.627422,120.298803,0.42176715
C0V530,阿蓮,2020-08-23,22.883208,120.327508,0.27650797
C0V610,梓官,2020-08-23,22.760558,120.267211,0.21315132
C0V620,永安,2020-08-23,22.82315,120.236856,0.19653817
C0V630,茄萣,2020-08-23,22.906642,120.182608,0.25414118
C0V640,湖內,2020-08-23,22.887139,120.2445,0.2599968
C0V650,彌陀,2020-08-23,22.783806,120.246361,0.19653817
C0V660,岡山,2020-08-23,22.797078,120.294958,0.21315132
C0V680,仁武,2020-08-23,22.701083,120.347722,0.2994437
C0V690,鼓山,2020-08-23,22.623325,120.275575,0.42176715
C0V700,三民,2020-08-23,22.645017,120.311233,0.42176715
C0V710,苓雅,2020-08-23,22.622742,120.330669,0.42176715
C0V720,林園,2020-08-23,22.507747,120.394511,0.42176715
C0V730,大寮,2020-08-23,22.605614,120.395717,0.09922781
C0V740,旗山,2020-08-23,22.888614,120.483597,0.81034774
C0V750,路竹,2020-08-23,22.854997,120.259439,0.18574716
C0V760,橋頭,2020-08-23,22.757806,120.30575,0.21854979
C0V770,大社,2020-08-23,22.730306,120.346639,0.2994437
C0V790,萬山,2020-08-23,22.905944,120.688056,0.0400931
C0V800,六龜,2020-08-23,22.997889,120.633583,0.82291347
C0V810,左營,2020-08-23,22.67491,120.28491,0.2889628
C0V820,小林,2020-08-23,23.148408,120.63325,0.04813902
C0V840,鳳鼻頭,2020-08-23,22.5083,120.3591,0.40370503
C0V850,蚵仔寮,2020-08-23,22.7256,120.2527,0.28318566
C0V860,南寮,2020-08-23,22.7616,120.2339,0.1935012
C0V870,文安,2020-08-23,22.8025,120.2164,0.1935012
C0V880,興達,2020-08-23,22.8778,120.2127,0.2541412
C0V890,前鎮,2020-08-23,22.5718,120.3117,0.40370503
C0V900,汕尾,2020-08-23,22.4782,120.4151,0.45834804
C0X050,東河,2020-08-23,23.296598,120.385608,0.4427101
C0X060,下營,2020-08-23,23.22695,120.256261,0.27431616
C0X080,佳里,2020-08-23,23.173039,120.145086,0.25004074
C0X100,臺南市北區,2020-08-23,23.010394,120.194228,0.25465035
C0X110,臺南市南區,2020-08-23,22.961189,120.188378,0.26073644
C0X120,麻豆,2020-08-23,23.183289,120.248611,0.25785136
C0X130,官田,2020-08-23,23.193217,120.315422,0.29972178
C0X140,西港,2020-08-23,23.125608,120.203108,0.2008916
C0X150,安定,2020-08-23,23.102614,120.227839,0.34488398
C0X160,仁德,2020-08-23,22.968258,120.257689,0.34442085
C0X170,關廟,2020-08-23,22.963017,120.327797,0.41141793
C0X180,山上,2020-08-23,23.0757,120.363253,0.90544873
C0X190,安平,2020-08-23,22.993161,120.152181,0.25465035
C0X200,左鎮,2020-08-23,23.056758,120.408522,0.8836533
C0X210,白河,2020-08-23,23.347466,120.414427,0.47789624
C0X220,學甲,2020-08-23,23.230367,120.182187,0.25785136
C0X230,鹽水,2020-08-23,23.272621,120.247641,0.25480255
C0X240,關子嶺,2020-08-23,23.331169,120.508025,0.075430654
C0X250,新營,2020-08-23,23.310689,120.316681,0.25948754
C0X260,後壁,2020-08-23,23.366358,120.362326,0.69655
C0X280,將軍,2020-08-23,23.214999,120.13577,0.25004074
C0X290,北門,2020-08-23,23.267772,120.125481,0.25004074
C0X300,鹿寮,2020-08-23,23.386047,120.477331,0.08687084
C0X310,七股,2020-08-23,23.147289,120.086253,0.15256952
C0X320,柳營,2020-08-23,23.253328,120.375253,0.4427101
C0Z020,明里,2020-08-23,23.208717,121.262342,0.8504813
C0Z061,玉里,2020-08-23,23.3215,121.339656,0.40456602
C0Z070,舞鶴,2020-08-23,23.46811,121.37407,0.9450346
C0Z080,富源,2020-08-23,23.587642,121.378225,0.9451958
C0Z100,東華,2020-08-23,23.89525,121.549833,0.5554627
C0Z150,吉安光華,2020-08-23,23.930925,121.595153,0.5011877
C0Z160,鳳林,2020-08-23,23.746114,121.453411,0.79188573
C0Z170,卓溪,2020-08-23,23.3443,121.3029,0.5254242
C0Z180,新城,2020-08-23,24.03946,121.60454,0.8517706
C0Z190,富世,2020-08-23,24.14743,121.6297,0.38341025
C0Z200,萬榮,2020-08-23,23.709219,121.420106,0.8118218
C0Z210,瑞穗,2020-08-23,23.5239,121.39021,0.81004125
C0Z230,和平,2020-08-23,24.30717,121.77007,0.16348007
C0Z270,蕃薯寮,2020-08-23,23.73835,121.540108,0.8638107
C0Z280,德武,2020-08-23,23.47426,121.41071,0.9160213
C0Z300,東里,2020-08-23,23.26853,121.30547,0.46744534
C0Z310,清水斷崖,2020-08-23,24.218294,121.689142,0.21119474
C0Z330,安通山,2020-08-23,23.290728,121.348528,0.9448312
CAG100,王功漁港,2020-08-23,23.96824,120.32586,0.21654491
CAJ050,海口故事園區,2020-08-23,23.57543,120.14121,0.158048
CAL110,布袋國中,2020-08-23,23.35893,120.18026,0.22539838
CAN130,水試所海水繁養殖中心,2020-08-23,23.120802,120.07968,0.18319903
CAN140,六官養殖協會,2020-08-23,23.22881,120.29962,0.2858048
CAQ030,崎峰國小,2020-08-23,22.42565,120.49521,0.43156588
E2K600,四湖植物園,2020-08-23,23.676986,120.163433,0.16391298
E2P980,林試六龜中心,2020-08-23,22.991703,120.645722,0.8649093
E2S960,林試太麻里2,2020-08-23,22.598014,120.989761,0.04296316
E2S980,林試太麻里1,2020-08-23,22.598922,120.980044,0.048848107
G2F820,農業試驗所,2020-08-23,24.031261,120.688133,0.98057944
G2L020,農試嘉義分所,2020-08-23,23.485028,120.473806,0.067770556
G2M350,農試溪口農場,2020-08-23,23.58565,120.408111,0.19991675
G2P820,農試鳳山分所,2020-08-23,22.646611,120.356083,0.4655386
K2E360,苗栗農改,2020-08-23,24.495722,120.829111,0.07749884
K2E710,苗改生物防治研究中心,2020-08-23,24.422861,120.871833,0.8520687
K2F750,種苗繁殖,2020-08-23,24.225972,120.800917,0.92467725
U2HA50,臺大竹山,2020-08-23,23.756972,120.681556,0.28058904
V2K620,麥寮合作社,2020-08-23,23.753836,120.294783,0.16667528
