站號,站名,日期,lat,lon,BlastGRU-TW
466881,新北,2020-01-16,24.9593,121.52,0.00325153
466900,淡水,2020-01-16,25.164889,121.448906,0.0073222104
466920,臺北,2020-01-16,25.037658,121.514853,0.0038055717
466940,基隆,2020-01-16,25.133314,121.740475,0.006582169
466990,花蓮,2020-01-16,23.975128,121.613275,0.7585394
467050,新屋,2020-01-16,25.006744,121.047486,0.0012560197
467080,宜蘭,2020-01-16,24.763975,121.756528,0.01199342
467270,田中,2020-01-16,23.873803,120.581286,0.013703746
467300,東吉島,2020-01-16,23.25695,119.667467,0.0007365036
467350,澎湖,2020-01-16,23.565503,119.563094,0.0007662545
467410,臺南,2020-01-16,22.993239,120.204772,0.1631983
467420,永康,2020-01-16,23.038386,120.2367,0.17600726
467441,高雄,2020-01-16,22.7304,120.3125,0.3627381
467480,嘉義,2020-01-16,23.495925,120.432906,0.011149806
467490,臺中,2020-01-16,24.145736,120.684075,0.0038798226
467540,大武,2020-01-16,22.355675,120.903789,0.020918624
467571,新竹,2020-01-16,24.827853,121.014219,0.003765659
467590,恆春,2020-01-16,22.003897,120.746339,1.6921593e-05
467610,成功,2020-01-16,23.097486,121.373428,0.9235603
467620,蘭嶼,2020-01-16,22.036969,121.558339,4.1145686e-06
467660,臺東,2020-01-16,22.752211,121.154586,0.23906116
467790,墾丁雷達站,2020-01-16,21.948235,120.808028,1.1551543e-05
C0A520,山佳,2020-01-16,24.974944,121.402008,0.0033525578
C0A530,坪林,2020-01-16,24.938183,121.70975,0.002154967
C0A540,四堵,2020-01-16,24.8926,121.745736,0.0018388552
C0A550,泰平,2020-01-16,24.971197,121.823711,0.0019639593
C0A560,福山,2020-01-16,24.776203,121.502811,0.002115515
C0A570,桶後,2020-01-16,24.848222,121.597992,0.0020809884
C0A640,石碇,2020-01-16,24.993969,121.662917,0.00830914
C0A650,火燒寮,2020-01-16,25.002719,121.742892,0.0047011003
C0A660,瑞芳,2020-01-16,25.113169,121.801147,0.025172042
C0A770,科教館,2020-01-16,25.096356,121.516507,0.0043369364
C0A860,大坪,2020-01-16,25.165914,121.632969,0.0013719995
C0A880,福隆,2020-01-16,25.017842,121.942083,0.052234434
C0A890,雙溪,2020-01-16,25.036003,121.864242,0.008195407
C0A920,富貴角,2020-01-16,25.263783,121.565258,0.005064492
C0A931,三和,2020-01-16,25.233153,121.595236,0.0055276975
C0A940,金山,2020-01-16,25.223628,121.643967,0.0058834357
C0A950,鼻頭角,2020-01-16,25.129036,121.923372,0.05550349
C0A970,三貂角,2020-01-16,25.007606,122.002058,0.030764721
C0A980,社子,2020-01-16,25.109508,121.469681,0.004767938
C0A9C0,天母,2020-01-16,25.117494,121.537169,0.003635973
C0A9F0,內湖,2020-01-16,25.079422,121.57545,0.0038055717
C0AC60,三峽,2020-01-16,24.939025,121.369728,0.0030124309
C0AC70,信義,2020-01-16,25.037822,121.564597,0.0038055717
C0AC80,文山,2020-01-16,25.00235,121.575728,0.00260977
C0ACA0,新莊,2020-01-16,25.051478,121.446756,0.008151787
C0AD00,三芝,2020-01-16,25.258131,121.501917,0.005310966
C0AD10,八里,2020-01-16,25.150211,121.403947,0.0073222104
C0AD30,蘆洲,2020-01-16,25.086594,121.472331,0.0043369364
C0AD40,土城,2020-01-16,24.973208,121.445169,0.0039809463
C0AD50,鶯歌,2020-01-16,24.951533,121.346294,0.0038388292
C0AG80,中和,2020-01-16,24.991622,121.491792,0.0038055717
C0AH00,汐止,2020-01-16,25.066881,121.658778,0.0070514213
C0AH10,永和,2020-01-16,25.01125,121.508111,0.004156416
C0AH40,平等,2020-01-16,25.129142,121.577086,0.0012852828
C0AH50,林口,2020-01-16,25.072181,121.38084,0.0037707696
C0AH70,松山,2020-01-16,25.04871,121.55042,0.0038055717
C0AH80,深坑,2020-01-16,25.002703,121.628328,0.00260977
C0AI00,五股,2020-01-16,25.07445,121.42728,0.0011406715
C0AI10,屈尺,2020-01-16,24.92184,121.54475,0.00260977
C0AI20,白沙灣,2020-01-16,25.283128,121.519058,0.0060702506
C0AI30,三重,2020-01-16,25.057328,121.500629,0.0043369364
C0AI40,石牌,2020-01-16,25.115597,121.513139,0.0039809463
C0AJ20,野柳,2020-01-16,25.20703,121.690021,0.0070514213
C0AJ30,淡水觀海,2020-01-16,25.184591,121.408616,0.0076454077
C0AJ40,石門,2020-01-16,25.273672,121.601198,0.0035419986
C0AJ50,水湳洞,2020-01-16,25.123695,121.862238,0.0070514213
C0AJ60,六塊厝,2020-01-16,25.24,121.4481,0.0076454077
C0AJ70,田寮,2020-01-16,25.2698,121.4886,0.006136856
C0AJ80,板橋,2020-01-16,25.0107,121.4489,0.0039809463
C0AJ90,澳底,2020-01-16,25.0552,121.9253,0.052234434
C0B010,七堵,2020-01-16,25.094819,121.71713,0.007699053
C0B020,基隆嶼,2020-01-16,25.19141,121.78391,0.0069893776
C0B040,大武崙,2020-01-16,25.166676,121.706993,0.007699063
C0B050,八斗子,2020-01-16,25.144754,121.79167,0.006154719
C0B060,暖暖,2020-01-16,25.0957,121.7403,0.008510994
C0C460,復興,2020-01-16,24.820208,121.352281,0.0014017025
C0C480,桃園,2020-01-16,24.992425,121.323172,0.0014275237
C0C490,八德,2020-01-16,24.928708,121.283289,0.00210319
C0C590,觀音,2020-01-16,25.027072,121.153317,0.0048767757
C0C620,蘆竹,2020-01-16,25.084275,121.265767,0.0066318708
C0C630,大溪,2020-01-16,24.882853,121.265547,0.001505882
C0C650,平鎮,2020-01-16,24.897503,121.214636,0.0009787319
C0C660,楊梅,2020-01-16,24.912375,121.143047,0.0012108232
C0C670,龍潭,2020-01-16,24.870056,121.221389,0.0005892591
C0C680,龜山,2020-01-16,25.02846,121.38656,0.0016687718
C0C700,中壢,2020-01-16,24.977661,121.256375,0.0012115102
C0C710,大溪永福,2020-01-16,24.892936,121.324975,0.001474028
C0C720,竹圍,2020-01-16,25.112692,121.239824,0.0073222104
C0C730,中大臨海站,2020-01-16,24.966126,121.008581,0.00083224796
C0C740,觀音工業區,2020-01-16,25.064764,121.114856,0.0031993021
C0C750,新興坑尾,2020-01-16,25.0061,121.0971,0.002021142
C0D430,峨眉,2020-01-16,24.6905,121.017189,0.0030729368
C0D480,打鐵坑,2020-01-16,24.849664,121.150789,0.00082067866
C0D540,橫山,2020-01-16,24.71116,121.11693,0.00071474834
C0D560,竹東,2020-01-16,24.767147,121.057881,0.0018266106
C0D580,寶山,2020-01-16,24.735006,121.025192,0.0009849413
C0D590,新豐,2020-01-16,24.87068,120.97721,0.00517298
C0D650,湖口,2020-01-16,24.904794,121.043628,0.003025159
C0D660,新竹市東區,2020-01-16,24.798681,120.986942,0.0031961484
C0D670,海天一線,2020-01-16,24.831986,120.914438,0.003952643
C0D680,香山濕地,2020-01-16,24.783581,120.914988,0.0036738843
C0D690,外湖,2020-01-16,24.917735,120.968711,0.00083224796
C0D700,關西,2020-01-16,24.7977,121.1732,0.0013462707
C0E420,竹南,2020-01-16,24.708978,120.888897,0.0029285944
C0E430,南庄,2020-01-16,24.601775,121.000214,0.001043228
C0E520,大湖,2020-01-16,24.41494,120.87087,0.0008674746
C0E540,後龍,2020-01-16,24.606489,120.783933,0.0026061696
C0E550,明德,2020-01-16,24.583486,120.885411,0.002295093
C0E590,通霄,2020-01-16,24.471892,120.704622,0.0030015106
C0E730,頭份,2020-01-16,24.688247,120.912206,0.0029285944
C0E740,造橋,2020-01-16,24.637056,120.864778,0.0027591991
C0E750,苗栗,2020-01-16,24.564569,120.824575,0.0022846416
C0E780,銅鑼,2020-01-16,24.489681,120.790853,0.0025067388
C0E791,卓蘭,2020-01-16,24.3126,120.8244,0.0043544527
C0E810,西湖,2020-01-16,24.562947,120.7485,0.0023995177
C0E820,獅潭,2020-01-16,24.539133,120.920042,0.0026362387
C0E830,苑裡,2020-01-16,24.439714,120.653053,0.008313983
C0E850,大河,2020-01-16,24.618069,120.948578,0.0021388505
C0E870,高鐵苗栗,2020-01-16,24.60725,120.826094,0.0025303275
C0E910,海埔,2020-01-16,24.648767,120.772435,0.0033609648
C0E920,通霄漁港,2020-01-16,24.498589,120.673876,0.003669736
C0E930,龍鳳,2020-01-16,24.700034,120.859125,0.003129037
C0F0B0,石岡,2020-01-16,24.276061,120.777644,0.002988164
C0F850,東勢,2020-01-16,24.246428,120.833047,0.0037071558
C0F930,大甲,2020-01-16,24.347667,120.640403,0.0076247957
C0F970,大坑,2020-01-16,24.173142,120.722289,0.003578369
C0F9A0,中竹林,2020-01-16,24.103556,120.751061,0.0020584636
C0F9I0,神岡,2020-01-16,24.272481,120.658314,0.0034761834
C0F9K0,大安,2020-01-16,24.345061,120.588025,0.01537756
C0F9L0,后里,2020-01-16,24.310436,120.729725,0.0025404284
C0F9M0,豐原,2020-01-16,24.254322,120.720692,0.002944334
C0F9N0,大里,2020-01-16,24.092464,120.701378,0.008798039
C0F9O0,潭子,2020-01-16,24.213106,120.703933,0.0036807586
C0F9P0,清水,2020-01-16,24.312297,120.562242,0.018213218
C0F9Q0,外埔,2020-01-16,24.347817,120.705686,0.004455834
C0F9R0,龍井,2020-01-16,24.184536,120.528972,0.015238201
C0F9S0,烏日,2020-01-16,24.107058,120.624103,0.025968198
C0F9T0,西屯,2020-01-16,24.179494,120.641275,0.006925446
C0F9U0,南屯,2020-01-16,24.137006,120.637969,0.008798039
C0F9X0,大雅(中科園區),2020-01-16,24.21528,120.62445,0.0045550438
C0FA10,松柏,2020-01-16,24.429115,120.617482,0.010166582
C0FA20,溫寮,2020-01-16,24.372177,120.583125,0.010166582
C0FA30,梧棲,2020-01-16,24.256003,120.523381,0.015238201
C0FA40,臺中電廠,2020-01-16,24.2146,120.4907,0.015238201
C0FA50,霧峰,2020-01-16,24.0419,120.6995,0.005616464
C0G620,芬園,2020-01-16,24.015678,120.6213,0.008765302
C0G640,鹿港,2020-01-16,24.0753,120.430481,0.03527085
C0G650,員林,2020-01-16,23.946503,120.585597,0.011447074
C0G660,溪湖,2020-01-16,23.94835,120.479122,0.030764252
C0G720,溪州,2020-01-16,23.851589,120.499093,0.029382033
C0G730,二林,2020-01-16,23.903325,120.376081,0.033226717
C0G740,大城,2020-01-16,23.852487,120.320935,0.036108613
C0G770,福興,2020-01-16,24.041289,120.437669,0.03527085
C0G780,秀水,2020-01-16,24.03405,120.503869,0.03610439
C0G800,埔鹽,2020-01-16,24.000394,120.431683,0.03527085
C0G810,埔心,2020-01-16,23.947633,120.525456,0.027913768
C0G820,田尾,2020-01-16,23.901669,120.509389,0.02561388
C0G830,埤頭,2020-01-16,23.866003,120.452806,0.03413557
C0G840,北斗,2020-01-16,23.877586,120.514222,0.02561388
C0G860,社頭,2020-01-16,23.897647,120.5862,0.010601839
C0G870,芳苑,2020-01-16,23.922303,120.320025,0.040138464
C0G880,二水,2020-01-16,23.810742,120.6173,0.012746444
C0G890,伸港,2020-01-16,24.148933,120.484403,0.016448816
C0G900,線西,2020-01-16,24.143358,120.443536,0.015013438
C0G910,花壇,2020-01-16,24.032076,120.549461,0.029947093
C0G920,永靖,2020-01-16,23.924703,120.547533,0.02561388
C0G940,竹塘,2020-01-16,23.848253,120.386764,0.040398043
C0G950,防潮門,2020-01-16,24.1835,120.4871,0.016532812
C0G960,福寶,2020-01-16,24.0443,120.3814,0.038709033
C0G970,三豐,2020-01-16,23.882,120.2895,0.0401385
C0H890,埔里,2020-01-16,23.972169,120.952425,0.018261824
C0H950,中寮,2020-01-16,23.884447,120.766406,0.0029937297
C0H960,草屯,2020-01-16,23.973672,120.68085,0.0058873976
C0I110,竹山,2020-01-16,23.761225,120.688156,0.0039094426
C0I360,水里,2020-01-16,23.812553,120.849792,0.0025985825
C0I380,集集,2020-01-16,23.828206,120.801467,0.0029224537
C0I410,名間,2020-01-16,23.837053,120.701447,0.0069420952
C0I420,國姓,2020-01-16,24.037803,120.855072,0.0040201996
C0I460,南投,2020-01-16,23.911469,120.687331,0.006014912
C0K250,崙背,2020-01-16,23.75555,120.318925,0.03302152
C0K280,四湖,2020-01-16,23.630414,120.227125,0.041670866
C0K291,宜梧,2020-01-16,23.536281,120.169329,0.15547968
C0K330,虎尾,2020-01-16,23.719183,120.442036,0.04964473
C0K390,土庫,2020-01-16,23.679029,120.395574,0.05325369
C0K400,斗六,2020-01-16,23.720583,120.541127,0.021583987
C0K410,北港,2020-01-16,23.573957,120.292802,0.120337024
C0K420,西螺,2020-01-16,23.800407,120.467394,0.020596039
C0K430,褒忠,2020-01-16,23.690938,120.303634,0.043548007
C0K440,二崙,2020-01-16,23.772797,120.408944,0.037185162
C0K450,大埤,2020-01-16,23.646074,120.431537,0.022531444
C0K460,斗南,2020-01-16,23.678734,120.478359,0.025991492
C0K470,林內,2020-01-16,23.748675,120.609642,0.012978325
C0K480,莿桐,2020-01-16,23.761192,120.502372,0.019260889
C0K500,元長,2020-01-16,23.64981,120.315024,0.043800518
C0K510,水林,2020-01-16,23.572924,120.24597,0.11374068
C0K530,臺西,2020-01-16,23.701547,120.197559,0.033552725
C0K550,蔦松,2020-01-16,23.514319,120.229736,0.14265622
C0K560,棋山,2020-01-16,23.68645,120.603417,0.032905627
C0K580,高鐵雲林,2020-01-16,23.737456,120.417944,0.053253777
C0K590,雲林東勢,2020-01-16,23.674192,120.255721,0.043548007
C0K600,箔子寮,2020-01-16,23.6197,120.14,0.12301169
C0M410,馬頭山,2020-01-16,23.324361,120.582017,0.009073725
C0M520,東後寮,2020-01-16,23.369908,120.248065,0.10833758
C0M640,中埔,2020-01-16,23.42538,120.5229,0.018471146
C0M650,朴子,2020-01-16,23.43463,120.23902,0.1628062
C0M660,溪口,2020-01-16,23.604131,120.403569,0.014107804
C0M670,大林,2020-01-16,23.600616,120.45841,0.012660551
C0M680,太保,2020-01-16,23.455062,120.331455,0.114656866
C0M690,水上,2020-01-16,23.419734,120.388909,0.015683062
C0M700,竹崎,2020-01-16,23.526178,120.555508,0.010048361
C0M710,東石,2020-01-16,23.458927,120.15385,0.14265622
C0M720,番路,2020-01-16,23.464657,120.554156,0.010075955
C0M730,嘉義市東區,2020-01-16,23.457673,120.460531,0.013589198
C0M740,六腳,2020-01-16,23.492871,120.290625,0.12464787
C0M750,布袋,2020-01-16,23.380878,120.167789,0.1628062
C0M760,民雄,2020-01-16,23.551754,120.428457,0.012014157
C0M770,嘉義梅山,2020-01-16,23.585398,120.555587,0.022745447
C0M780,鹿草,2020-01-16,23.41134,120.30835,0.11828525
C0M790,新港,2020-01-16,23.553269,120.345728,0.111563675
C0M800,茶山,2020-01-16,23.299075,120.664767,0.013266857
C0M880,好美里,2020-01-16,23.3364,120.138,0.11402584
C0N010,鯤鯓國小,2020-01-16,23.1879,120.0889,0.18922395
C0N020,城西,2020-01-16,23.0568,120.0956,0.1822421
C0N030,四草,2020-01-16,23.0235,120.1116,0.2968983
C0N040,蘆竹溝,2020-01-16,23.2344,120.0961,0.18922395
C0N050,蚵寮,2020-01-16,23.301,120.1104,0.18922395
C0O810,曾文,2020-01-16,23.219681,120.497328,0.0170833
C0O830,北寮,2020-01-16,23.079561,120.495008,0.07847339
C0O840,王爺宮,2020-01-16,23.222064,120.40085,0.0170833
C0O860,大內,2020-01-16,23.11885,120.36083,0.045607183
C0O900,善化,2020-01-16,23.112883,120.297219,0.09267839
C0O930,玉井,2020-01-16,23.126042,120.46055,0.062698096
C0O950,安南,2020-01-16,23.076694,120.144861,0.1502341
C0O960,崎頂,2020-01-16,22.959547,120.369317,0.044099607
C0O970,虎頭埤,2020-01-16,23.021375,120.347878,0.114847764
C0O980,新市,2020-01-16,23.061614,120.298197,0.092678495
C0O990,媽廟,2020-01-16,22.99175,120.293525,0.12519717
C0R150,三地門,2020-01-16,22.709889,120.639944,0.48647726
C0R160,鹽埔,2020-01-16,22.739558,120.530778,0.39663693
C0R170,屏東,2020-01-16,22.660269,120.494072,0.266744
C0R190,赤山,2020-01-16,22.592333,120.614306,0.44606206
C0R220,潮州,2020-01-16,22.534361,120.54,0.14327624
C0R240,來義,2020-01-16,22.527306,120.625111,0.025895791
C0R260,春日,2020-01-16,22.370361,120.628306,0.026680632
C0R270,琉球嶼,2020-01-16,22.332244,120.362236,0.026347205
C0R280,檳榔,2020-01-16,22.076078,120.836777,2.9799862e-06
C0R320,車城,2020-01-16,22.0744,120.716247,2.7296177e-05
C0R341,牡丹,2020-01-16,22.130036,120.792639,0.006497334
C0R350,貓鼻頭,2020-01-16,21.921774,120.7358,1.4798418e-05
C0R470,高樹,2020-01-16,22.826389,120.600806,0.45012173
C0R480,長治,2020-01-16,22.693128,120.542622,0.3709292
C0R490,九如,2020-01-16,22.7405,120.490503,0.25458175
C0R520,崁頂,2020-01-16,22.514781,120.506914,0.5759395
C0R540,佳冬,2020-01-16,22.419456,120.552375,0.5979863
C0R550,新埤,2020-01-16,22.467947,120.582894,0.44849607
C0R560,新園,2020-01-16,22.5434,120.461558,0.5759395
C0R570,麟洛,2020-01-16,22.65078,120.52719,0.25458175
C0R580,南州,2020-01-16,22.48591,120.50274,0.5979863
C0R590,里港,2020-01-16,22.77919,120.49459,0.33138028
C0R620,墾雷,2020-01-16,21.900836,120.855269,1.4798418e-05
C0R640,東港,2020-01-16,22.46247,120.44074,0.3602753
C0R650,竹田,2020-01-16,22.58486,120.54344,0.44928947
C0R660,枋寮,2020-01-16,22.367722,120.590647,0.13117833
C0R670,楓港,2020-01-16,22.190131,120.692156,0.017122423
C0R680,佳樂水,2020-01-16,21.993578,120.861633,2.0413505e-05
C0R690,墾丁,2020-01-16,21.966756,120.810269,2.756487e-06
C0R700,枋山,2020-01-16,22.246844,120.661086,0.017122423
C0R710,龍磐,2020-01-16,21.931672,120.838942,5.4556695e-06
C0R720,旭海,2020-01-16,22.205403,120.887614,0.0002864504
C0R730,大坪頂,2020-01-16,22.024633,120.69355,5.212395e-06
C0R740,獅子,2020-01-16,22.201569,120.70525,0.013677694
C0R760,南仁湖,2020-01-16,22.084681,120.863353,3.1309874e-06
C0R770,保力,2020-01-16,22.071122,120.764111,8.084302e-06
C0R780,滿州,2020-01-16,22.024403,120.839892,1.2989601e-05
C0R790,九棚,2020-01-16,22.14195,120.889281,0.00049722346
C0R800,丹路,2020-01-16,22.204481,120.750989,0.008875671
C0R810,內獅,2020-01-16,22.305064,120.642986,0.028959617
C0R830,高士,2020-01-16,22.121825,120.836781,2.8977793e-06
C0R850,林邊,2020-01-16,22.4634,120.5339,0.5759395
C0R860,鼻頭,2020-01-16,22.1043,120.8979,4.806458e-06
C0R870,興海,2020-01-16,21.9752,120.8439,2.0413505e-05
C0R880,後壁湖,2020-01-16,21.9457,120.7457,3.1692045e-05
C0R890,山海,2020-01-16,21.9878,120.7091,2.7296177e-05
C0R900,竹坑,2020-01-16,22.1385,120.7022,0.019651022
C0R910,下寮,2020-01-16,22.3929,120.5548,0.5979863
C0R920,塭仔,2020-01-16,22.4169,120.5197,0.6138457
C0R930,萬丹,2020-01-16,22.5885,120.4851,0.44928947
C0R940,加祿堂,2020-01-16,22.3363,120.6217,0.028959617
C0S710,鹿野,2020-01-16,22.917711,121.122994,0.17310861
C0S730,綠島,2020-01-16,22.6672,121.47533,0.85273343
C0S740,池上,2020-01-16,23.119628,121.209469,0.33094558
C0S770,大溪山,2020-01-16,22.478475,120.943325,0.043432545
C0S790,金崙,2020-01-16,22.538122,120.966875,0.105204545
C0S810,東河,2020-01-16,22.972672,121.303986,0.6238267
C0S830,長濱,2020-01-16,23.286817,121.411975,0.05686306
C0S840,南田,2020-01-16,22.279725,120.889208,0.006186358
C0S890,關山,2020-01-16,23.0395,121.175017,0.6361941
C0S900,蘭嶼高中,2020-01-16,22.04909,121.51214,0.00026235715
C0S910,蘭嶼燈塔,2020-01-16,22.081197,121.503117,2.1726264e-05
C0S920,金峰嘉蘭,2020-01-16,22.594789,120.960825,0.13941704
C0S930,延平,2020-01-16,22.902581,121.084058,0.289607
C0S940,石寧山,2020-01-16,23.223772,121.406639,0.18227077
C0S950,七塊厝,2020-01-16,22.954453,121.229922,0.13351928
C0S960,香蘭,2020-01-16,22.587569,120.993375,0.15472212
C0S970,加津林,2020-01-16,22.416211,120.926942,0.019778145
C0S990,山豬窟,2020-01-16,22.318619,120.857372,0.00010238281
C0SA00,歷坵,2020-01-16,22.520969,120.89185,0.019319281
C0SA10,檳榔四格山,2020-01-16,22.810031,121.109308,0.006475204
C0SA30,都歷,2020-01-16,23.020333,121.323642,0.88120073
C0SA40,瑞和,2020-01-16,22.974361,121.156697,0.6955614
C0SA60,知本（水試所）,2020-01-16,22.702394,121.082761,0.038032413
C0SA80,土坂,2020-01-16,22.453108,120.887572,0.1302718
C0SA90,達仁林場,2020-01-16,22.264347,120.823972,0.0012733896
C0T870,鯉魚潭,2020-01-16,23.935639,121.508944,0.7887888
C0T900,西林,2020-01-16,23.8119,121.441458,0.73078567
C0T960,光復,2020-01-16,23.660694,121.424964,0.77291787
C0T9A0,月眉山,2020-01-16,23.809928,121.539828,0.22291704
C0T9D0,和中,2020-01-16,24.26676,121.74103,0.44735053
C0T9E0,大坑,2020-01-16,23.880628,121.581981,0.40470994
C0T9F0,水璉,2020-01-16,23.797131,121.542514,0.53521895
C0T9I0,豐濱,2020-01-16,23.583897,121.514806,0.7656909
C0T9M0,靜浦,2020-01-16,23.455167,121.495028,0.83450365
C0T9N0,富里,2020-01-16,23.171639,121.249378,0.048093587
C0U600,礁溪,2020-01-16,24.817539,121.765608,0.010762908
C0U650,玉蘭,2020-01-16,24.675286,121.587061,0.0028009925
C0U750,龜山島,2020-01-16,24.841667,121.953133,0.024493933
C0U760,東澳,2020-01-16,24.52196,121.83318,0.06436092
C0U770,南澳,2020-01-16,24.44935,121.81022,0.25705022
C0U780,五結,2020-01-16,24.68637,121.79794,0.079530604
C0U860,頭城,2020-01-16,24.85323,121.8308,0.011993437
C0U870,大礁溪,2020-01-16,24.791042,121.675047,0.0014777797
C0U880,北關,2020-01-16,24.9072,121.8734,0.012954182
C0U890,三星,2020-01-16,24.66812,121.65302,0.0037673535
C0U900,內城,2020-01-16,24.71813,121.68766,0.007267307
C0U910,冬山,2020-01-16,24.63373,121.7937,0.079530604
C0U940,羅東,2020-01-16,24.68184,121.74934,0.0810991
C0U970,大福,2020-01-16,24.80064,121.81389,0.013507124
C0U990,員山,2020-01-16,24.74435,121.72247,0.0810991
C0UA00,土場,2020-01-16,24.576533,121.495333,0.0035724961
C0UA80,大溪漁港,2020-01-16,24.941801,121.902955,0.010762908
C0UA90,石城,2020-01-16,24.980444,121.951214,0.05187142
C0UB00,淡江大學蘭陽校園,2020-01-16,24.823239,121.730383,0.0018311999
C0UB10,蘇澳,2020-01-16,24.5969,121.8571,0.24393107
C0UB20,壯圍,2020-01-16,24.7359,121.8163,0.07848416
C0V250,甲仙,2020-01-16,23.080106,120.591758,0.011865704
C0V260,月眉,2020-01-16,22.971003,120.539853,0.07755865
C0V310,美濃,2020-01-16,22.898742,120.519153,0.2437368
C0V350,溪埔,2020-01-16,22.738578,120.446797,0.23752159
C0V360,內門,2020-01-16,22.975481,120.466769,0.12256984
C0V370,古亭坑,2020-01-16,22.893178,120.401947,0.13148229
C0V400,阿公店,2020-01-16,22.804194,120.355528,0.17109898
C0V440,鳳山,2020-01-16,22.646653,120.356122,0.28844827
C0V450,鳳森,2020-01-16,22.545064,120.392592,0.28597558
C0V490,新興,2020-01-16,22.627422,120.298803,0.33488572
C0V530,阿蓮,2020-01-16,22.883208,120.327508,0.21143016
C0V610,梓官,2020-01-16,22.760558,120.267211,0.27361867
C0V620,永安,2020-01-16,22.82315,120.236856,0.28141925
C0V630,茄萣,2020-01-16,22.906642,120.182608,0.24224874
C0V640,湖內,2020-01-16,22.887139,120.2445,0.22409959
C0V650,彌陀,2020-01-16,22.783806,120.246361,0.28141925
C0V660,岡山,2020-01-16,22.797078,120.294958,0.27361867
C0V680,仁武,2020-01-16,22.701083,120.347722,0.33758432
C0V690,鼓山,2020-01-16,22.623325,120.275575,0.33488572
C0V700,三民,2020-01-16,22.645017,120.311233,0.33488572
C0V710,苓雅,2020-01-16,22.622742,120.330669,0.33488572
C0V720,林園,2020-01-16,22.507747,120.394511,0.33488572
C0V730,大寮,2020-01-16,22.605614,120.395717,0.26195407
C0V740,旗山,2020-01-16,22.888614,120.483597,0.2311713
C0V750,路竹,2020-01-16,22.854997,120.259439,0.22298408
C0V760,橋頭,2020-01-16,22.757806,120.30575,0.25404447
C0V770,大社,2020-01-16,22.730306,120.346639,0.3375845
C0V790,萬山,2020-01-16,22.905944,120.688056,0.016220476
C0V800,六龜,2020-01-16,22.997889,120.633583,0.0805062
C0V810,左營,2020-01-16,22.67491,120.28491,0.3627381
C0V820,小林,2020-01-16,23.148408,120.63325,0.010980634
C0V840,鳳鼻頭,2020-01-16,22.5083,120.3591,0.3602753
C0V850,蚵仔寮,2020-01-16,22.7256,120.2527,0.39571637
C0V860,南寮,2020-01-16,22.7616,120.2339,0.30884525
C0V870,文安,2020-01-16,22.8025,120.2164,0.30884525
C0V880,興達,2020-01-16,22.8778,120.2127,0.24224874
C0V890,前鎮,2020-01-16,22.5718,120.3117,0.3602753
C0V900,汕尾,2020-01-16,22.4782,120.4151,0.36332062
C0X050,東河,2020-01-16,23.296598,120.385608,0.06387691
C0X060,下營,2020-01-16,23.22695,120.256261,0.089123346
C0X080,佳里,2020-01-16,23.173039,120.145086,0.11402584
C0X100,臺南市北區,2020-01-16,23.010394,120.194228,0.19381435
C0X110,臺南市南區,2020-01-16,22.961189,120.188378,0.17600738
C0X120,麻豆,2020-01-16,23.183289,120.248611,0.106050186
C0X130,官田,2020-01-16,23.193217,120.315422,0.07568569
C0X140,西港,2020-01-16,23.125608,120.203108,0.1510265
C0X150,安定,2020-01-16,23.102614,120.227839,0.11723318
C0X160,仁德,2020-01-16,22.968258,120.257689,0.13417438
C0X170,關廟,2020-01-16,22.963017,120.327797,0.10202487
C0X180,山上,2020-01-16,23.0757,120.363253,0.040443372
C0X190,安平,2020-01-16,22.993161,120.152181,0.18941271
C0X200,左鎮,2020-01-16,23.056758,120.408522,0.043974027
C0X210,白河,2020-01-16,23.347466,120.414427,0.058832005
C0X220,學甲,2020-01-16,23.230367,120.182187,0.106050186
C0X230,鹽水,2020-01-16,23.272621,120.247641,0.10854344
C0X240,關子嶺,2020-01-16,23.331169,120.508025,0.0031082327
C0X250,新營,2020-01-16,23.310689,120.316681,0.07855501
C0X260,後壁,2020-01-16,23.366358,120.362326,0.033993572
C0X280,將軍,2020-01-16,23.214999,120.13577,0.11402584
C0X290,北門,2020-01-16,23.267772,120.125481,0.11402584
C0X300,鹿寮,2020-01-16,23.386047,120.477331,0.026382238
C0X310,七股,2020-01-16,23.147289,120.086253,0.32502648
C0X320,柳營,2020-01-16,23.253328,120.375253,0.06387691
C0Z020,明里,2020-01-16,23.208717,121.262342,0.076305695
C0Z061,玉里,2020-01-16,23.3215,121.339656,0.24599439
C0Z070,舞鶴,2020-01-16,23.46811,121.37407,0.55586123
C0Z080,富源,2020-01-16,23.587642,121.378225,0.6090784
C0Z100,東華,2020-01-16,23.89525,121.549833,0.87821525
C0Z150,吉安光華,2020-01-16,23.930925,121.595153,0.8866657
C0Z160,鳳林,2020-01-16,23.746114,121.453411,0.7936687
C0Z170,卓溪,2020-01-16,23.3443,121.3029,0.18865825
C0Z180,新城,2020-01-16,24.03946,121.60454,0.73372465
C0Z190,富世,2020-01-16,24.14743,121.6297,0.05371578
C0Z200,萬榮,2020-01-16,23.709219,121.420106,0.7887888
C0Z210,瑞穗,2020-01-16,23.5239,121.39021,0.79639137
C0Z230,和平,2020-01-16,24.30717,121.77007,0.44735053
C0Z270,蕃薯寮,2020-01-16,23.73835,121.540108,0.7357787
C0Z280,德武,2020-01-16,23.47426,121.41071,0.67752814
C0Z300,東里,2020-01-16,23.26853,121.30547,0.21602176
C0Z310,清水斷崖,2020-01-16,24.218294,121.689142,0.19228263
C0Z330,安通山,2020-01-16,23.290728,121.348528,0.057594664
