站號,站名,日期,lat,lon,BlastGRU-TW
466881,新北,2020-03-29,24.9593,121.52,0.37881833
466900,淡水,2020-03-29,25.164889,121.448906,0.41766334
466920,臺北,2020-03-29,25.037658,121.514853,0.42203194
467441,高雄,2020-03-29,22.7304,120.3125,0.5543862
467480,嘉義,2020-03-29,23.495925,120.432906,0.74373966
467490,臺中,2020-03-29,24.145736,120.684075,0.2276932
C0A530,坪林,2020-03-29,24.938183,121.70975,0.032764234
C0A540,四堵,2020-03-29,24.8926,121.745736,0.04035577
C0A550,泰平,2020-03-29,24.971197,121.823711,0.0071335263
C0A890,雙溪,2020-03-29,25.036003,121.864242,0.27322167
C0A920,富貴角,2020-03-29,25.263783,121.565258,0.12578838
C0A931,三和,2020-03-29,25.233153,121.595236,0.027316086
C0AC70,信義,2020-03-29,25.037822,121.564597,0.42203194
C0AC80,文山,2020-03-29,25.00235,121.575728,0.32936528
C0ACA0,新莊,2020-03-29,25.051478,121.446756,0.40315577
C0AH50,林口,2020-03-29,25.072181,121.38084,0.07611664
C0AH70,松山,2020-03-29,25.04871,121.55042,0.42203194
C0AH80,深坑,2020-03-29,25.002703,121.628328,0.32936528
C0AJ60,六塊厝,2020-03-29,25.24,121.4481,0.43411538
C0AJ70,田寮,2020-03-29,25.2698,121.4886,0.20778418
