站號,站名,日期,lat,lon,BlastGRU-TW
12J990,口湖工作站,2020-06-01,23.589978,120.180394,0.0047137993
12Q970,東港工作站,2020-06-01,22.479997,120.466058,0.0030184858
12Q980,恆春工作站,2020-06-01,22.079678,120.714425,0.0061697583
466881,新北,2020-06-01,24.9593,121.52,0.040534303
466900,淡水,2020-06-01,25.164889,121.448906,0.046932764
466920,臺北,2020-06-01,25.037658,121.514853,0.03385831
466940,基隆,2020-06-01,25.133314,121.740475,0.0396474
466990,花蓮,2020-06-01,23.975128,121.613275,0.010834248
467050,新屋,2020-06-01,25.006744,121.047486,0.004320286
467080,宜蘭,2020-06-01,24.763975,121.756528,0.1300707
467270,田中,2020-06-01,23.873803,120.581286,0.0044376883
467300,東吉島,2020-06-01,23.25695,119.667467,0.004458078
467350,澎湖,2020-06-01,23.565503,119.563094,0.019205542
467410,臺南,2020-06-01,22.993239,120.204772,0.003679881
467420,永康,2020-06-01,23.038386,120.2367,0.0036526916
467441,高雄,2020-06-01,22.7304,120.3125,0.0030976508
467480,嘉義,2020-06-01,23.495925,120.432906,0.003891261
467490,臺中,2020-06-01,24.145736,120.684075,0.0032001005
467540,大武,2020-06-01,22.355675,120.903789,0.005932124
467571,新竹,2020-06-01,24.827853,121.014219,0.004983208
467590,恆春,2020-06-01,22.003897,120.746339,0.0068584033
467610,成功,2020-06-01,23.097486,121.373428,0.005003908
467620,蘭嶼,2020-06-01,22.036969,121.558339,0.120948486
467660,臺東,2020-06-01,22.752211,121.154586,0.0039081443
467790,墾丁雷達站,2020-06-01,21.948235,120.808028,0.007776558
72AI40,桃改臺北分場,2020-06-01,24.944503,121.386972,0.039964467
72C440,桃園農改場,2020-06-01,24.950944,121.030583,0.0044367043
72D680,新埔,2020-06-01,24.834444,121.066111,0.0043638656
72G600,臺中農改場,2020-06-01,24.003028,120.534389,0.0031145732
72K220,雲林分場,2020-06-01,23.634556,120.477333,0.0041705733
72L140,朴子分場,2020-06-01,23.4982,120.2414,0.0045821345
72M360,義竹工作站,2020-06-01,23.360694,120.279361,0.005706429
72M700,嘉義分場,2020-06-01,23.416869,120.283061,0.0044390704
72N100,臺南農改場,2020-06-01,23.0605,120.342194,0.004118244
72N240,七股研究中心,2020-06-01,23.081672,120.062894,0.005156672
72Q010,高雄農改場,2020-06-01,22.709333,120.525889,0.00472841
72S200,斑鳩分場,2020-06-01,22.829528,121.077694,0.015609585
72S590,賓朗果園,2020-06-01,22.813889,121.071278,0.043661173
72T250,花蓮農改場,2020-06-01,23.975222,121.563889,0.010985342
72U480,蘭陽分場,2020-06-01,24.686306,121.716583,0.040018603
72V140,旗南,2020-06-01,22.857861,120.516667,0.007038732
82A750,文山分場,2020-06-01,24.955778,121.631222,0.06799461
82C160,茶改場(楊梅),2020-06-01,24.908472,121.185333,0.014989833
82H840,凍頂工作站,2020-06-01,23.762528,120.7405,0.905128
82S580,龍田,2020-06-01,22.907694,121.130139,0.0033262258
A0K420,麥寮,2020-06-01,23.7988,120.2177,0.003740579
A0W080,吉貝,2020-06-01,23.74,119.6042,0.06531928
A2C560,農工中心,2020-06-01,24.985917,121.239833,0.010367007
A2K360,臺西分所,2020-06-01,23.717231,120.190522,0.003877201
A2K570,古坑(花卉中心),2020-06-01,23.633531,120.552392,0.00402506
A2K630,臺大雲林校區,2020-06-01,23.730628,120.423903,0.0040222183
A2N290,臺南蘭花園區,2020-06-01,23.340258,120.379661,0.0049707997
B2E890,新竹畜試,2020-06-01,24.527806,120.770972,0.0034470817
B2N890,畜產試驗所,2020-06-01,23.058972,120.336406,0.004118244
B2Q810,恆春分所,2020-06-01,21.945583,120.802167,0.006605091
B2U990,宜蘭畜試,2020-06-01,24.669039,121.832561,0.035355877
C0A520,山佳,2020-06-01,24.974944,121.402008,0.039964467
C0A530,坪林,2020-06-01,24.938183,121.70975,0.9949142
C0A540,四堵,2020-06-01,24.8926,121.745736,0.0123401685
C0A550,泰平,2020-06-01,24.971197,121.823711,0.18289803
C0A560,福山,2020-06-01,24.776203,121.502811,0.06799461
C0A570,桶後,2020-06-01,24.848222,121.597992,0.021289945
C0A640,石碇,2020-06-01,24.993969,121.662917,0.84281796
C0A650,火燒寮,2020-06-01,25.002719,121.742892,0.9697023
C0A660,瑞芳,2020-06-01,25.113169,121.801147,0.34421974
C0A770,科教館,2020-06-01,25.096356,121.516507,0.031343803
C0A860,大坪,2020-06-01,25.165914,121.632969,0.041854378
C0A880,福隆,2020-06-01,25.017842,121.942083,0.06920154
C0A890,雙溪,2020-06-01,25.036003,121.864242,0.063249834
C0A920,富貴角,2020-06-01,25.263783,121.565258,0.43793795
C0A931,三和,2020-06-01,25.233153,121.595236,0.94481355
C0A940,金山,2020-06-01,25.223628,121.643967,0.18866517
C0A950,鼻頭角,2020-06-01,25.129036,121.923372,0.06130033
C0A970,三貂角,2020-06-01,25.007606,122.002058,0.33667812
C0A980,社子,2020-06-01,25.109508,121.469681,0.029260382
C0A9C0,天母,2020-06-01,25.117494,121.537169,0.03663159
C0A9F0,內湖,2020-06-01,25.079422,121.57545,0.03385831
C0AC60,三峽,2020-06-01,24.939025,121.369728,0.0448311
C0AC70,信義,2020-06-01,25.037822,121.564597,0.03385831
C0AC80,文山,2020-06-01,25.00235,121.575728,0.056347664
C0ACA0,新莊,2020-06-01,25.051478,121.446756,0.03170222
C0AD00,三芝,2020-06-01,25.258131,121.501917,0.349093
C0AD10,八里,2020-06-01,25.150211,121.403947,0.046932764
C0AD30,蘆洲,2020-06-01,25.086594,121.472331,0.031343803
C0AD40,土城,2020-06-01,24.973208,121.445169,0.03374006
C0AD50,鶯歌,2020-06-01,24.951533,121.346294,0.05790681
C0AG80,中和,2020-06-01,24.991622,121.491792,0.03385831
C0AH00,汐止,2020-06-01,25.066881,121.658778,0.043031823
C0AH10,永和,2020-06-01,25.01125,121.508111,0.03125814
C0AH40,平等,2020-06-01,25.129142,121.577086,0.018034648
C0AH50,林口,2020-06-01,25.072181,121.38084,0.010794955
C0AH70,松山,2020-06-01,25.04871,121.55042,0.03385831
C0AH80,深坑,2020-06-01,25.002703,121.628328,0.056347664
C0AI00,五股,2020-06-01,25.07445,121.42728,0.013550664
C0AI10,屈尺,2020-06-01,24.92184,121.54475,0.056347664
C0AI20,白沙灣,2020-06-01,25.283128,121.519058,0.14012088
C0AI30,三重,2020-06-01,25.057328,121.500629,0.031343818
C0AI40,石牌,2020-06-01,25.115597,121.513139,0.03374006
C0AJ10,澳底,2020-06-01,25.057107,121.927272,0.05600441
C0AJ20,野柳,2020-06-01,25.20703,121.690021,0.04303188
C0AJ30,淡水觀海,2020-06-01,25.184591,121.408616,0.04369298
C0AJ40,石門,2020-06-01,25.273672,121.601198,0.8580477
C0AJ50,水湳洞,2020-06-01,25.123695,121.862238,0.043031823
C0AJ60,六塊厝,2020-06-01,25.24,121.4481,0.04369298
C0AJ70,田寮,2020-06-01,25.2698,121.4886,0.12180798
C0AJ80,板橋,2020-06-01,25.0107,121.4489,0.03374006
C0B010,七堵,2020-06-01,25.094819,121.71713,0.051021
C0B020,基隆嶼,2020-06-01,25.19141,121.78391,0.043031823
C0B040,大武崙,2020-06-01,25.166676,121.706993,0.051021
C0B050,八斗子,2020-06-01,25.144754,121.79167,0.037287474
C0B060,暖暖,2020-06-01,25.0957,121.7403,0.089654736
C0C460,復興,2020-06-01,24.820208,121.352281,0.030759389
C0C480,桃園,2020-06-01,24.992425,121.323172,0.008283137
C0C490,八德,2020-06-01,24.928708,121.283289,0.006212463
C0C590,觀音,2020-06-01,25.027072,121.153317,0.09593699
C0C620,蘆竹,2020-06-01,25.084275,121.265767,0.055990778
C0C630,大溪,2020-06-01,24.882853,121.265547,0.008686323
C0C650,平鎮,2020-06-01,24.897503,121.214636,0.014989833
C0C660,楊梅,2020-06-01,24.912375,121.143047,0.014402634
C0C670,龍潭,2020-06-01,24.870056,121.221389,0.07898839
C0C680,龜山,2020-06-01,25.02846,121.38656,0.007095484
C0C700,中壢,2020-06-01,24.977661,121.256375,0.009745898
C0C710,大溪永福,2020-06-01,24.892936,121.324975,0.011553226
C0C720,竹圍,2020-06-01,25.112692,121.239824,0.046932764
C0C730,中大臨海站,2020-06-01,24.966126,121.008581,0.0042115743
C0C740,觀音工業區,2020-06-01,25.064764,121.114856,0.009207495
C0C750,新興坑尾,2020-06-01,25.0061,121.0971,0.014056732
C0D430,峨眉,2020-06-01,24.6905,121.017189,0.004181126
C0D480,打鐵坑,2020-06-01,24.849664,121.150789,0.06457664
C0D540,橫山,2020-06-01,24.71116,121.11693,0.031630382
C0D560,竹東,2020-06-01,24.767147,121.057881,0.005862792
C0D580,寶山,2020-06-01,24.735006,121.025192,0.011403369
C0D590,新豐,2020-06-01,24.87068,120.97721,0.007984315
C0D650,湖口,2020-06-01,24.904794,121.043628,0.004896446
C0D660,新竹市東區,2020-06-01,24.798681,120.986942,0.0053882715
C0D670,海天一線,2020-06-01,24.831986,120.914438,0.0043473057
C0D680,香山濕地,2020-06-01,24.783581,120.914988,0.0044977437
C0D690,外湖,2020-06-01,24.917735,120.968711,0.0042115743
C0D700,關西,2020-06-01,24.7977,121.1732,0.010178494
C0E420,竹南,2020-06-01,24.708978,120.888897,0.005054744
C0E430,南庄,2020-06-01,24.601775,121.000214,0.017891966
C0E520,大湖,2020-06-01,24.41494,120.87087,0.13609645
C0E540,後龍,2020-06-01,24.606489,120.783933,0.003260154
C0E550,明德,2020-06-01,24.583486,120.885411,0.004132622
C0E590,通霄,2020-06-01,24.471892,120.704622,0.0034195841
C0E730,頭份,2020-06-01,24.688247,120.912206,0.005054744
C0E740,造橋,2020-06-01,24.637056,120.864778,0.003992636
C0E750,苗栗,2020-06-01,24.564569,120.824575,0.003346396
C0E780,銅鑼,2020-06-01,24.489681,120.790853,0.0038781625
C0E791,卓蘭,2020-06-01,24.3126,120.8244,0.0072244247
C0E810,西湖,2020-06-01,24.562947,120.7485,0.0033043784
C0E820,獅潭,2020-06-01,24.539133,120.920042,0.003823554
C0E830,苑裡,2020-06-01,24.439714,120.653053,0.003404104
C0E850,大河,2020-06-01,24.618069,120.948578,0.004302537
C0E870,高鐵苗栗,2020-06-01,24.60725,120.826094,0.0032705723
C0E910,海埔,2020-06-01,24.648767,120.772435,0.0037387435
C0E920,通霄漁港,2020-06-01,24.498589,120.673876,0.0034376823
C0E930,龍鳳,2020-06-01,24.700034,120.859125,0.0039307573
C0F000,大肚,2020-06-01,24.15295,120.572117,0.34091368
C0F0B0,石岡,2020-06-01,24.276061,120.777644,0.42718634
C0F850,東勢,2020-06-01,24.246428,120.833047,0.010370922
C0F930,大甲,2020-06-01,24.347667,120.640403,0.0033716722
C0F970,大坑,2020-06-01,24.173142,120.722289,0.0033349206
C0F9A0,中竹林,2020-06-01,24.103556,120.751061,0.83949864
C0F9I0,神岡,2020-06-01,24.272481,120.658314,0.005131732
C0F9K0,大安,2020-06-01,24.345061,120.588025,0.0034621614
C0F9L0,后里,2020-06-01,24.310436,120.729725,0.007479813
C0F9M0,豐原,2020-06-01,24.254322,120.720692,0.006043262
C0F9N0,大里,2020-06-01,24.092464,120.701378,0.003195234
C0F9O0,潭子,2020-06-01,24.213106,120.703933,0.0050387233
C0F9P0,清水,2020-06-01,24.312297,120.562242,0.0035030823
C0F9Q0,外埔,2020-06-01,24.347817,120.705686,0.0044376925
C0F9R0,龍井,2020-06-01,24.184536,120.528972,0.0034948161
C0F9S0,烏日,2020-06-01,24.107058,120.624103,0.0030946517
C0F9T0,西屯,2020-06-01,24.179494,120.641275,0.0032730233
C0F9U0,南屯,2020-06-01,24.137006,120.637969,0.003195234
C0F9X0,大雅(中科園區),2020-06-01,24.21528,120.62445,0.0033146134
C0FA10,松柏,2020-06-01,24.429115,120.617482,0.0034405685
C0FA20,溫寮,2020-06-01,24.372177,120.583125,0.0034405685
C0FA30,梧棲,2020-06-01,24.256003,120.523381,0.0034948161
C0FA40,臺中電廠,2020-06-01,24.2146,120.4907,0.0034948161
C0FA50,霧峰,2020-06-01,24.0419,120.6995,0.0030380823
C0G620,芬園,2020-06-01,24.015678,120.6213,0.0026030862
C0G640,鹿港,2020-06-01,24.0753,120.430481,0.003317759
C0G650,員林,2020-06-01,23.946503,120.585597,0.00280888
C0G660,溪湖,2020-06-01,23.94835,120.479122,0.0029026805
C0G720,溪州,2020-06-01,23.851589,120.499093,0.004521088
C0G730,二林,2020-06-01,23.903325,120.376081,0.00325279
C0G740,大城,2020-06-01,23.852487,120.320935,0.004006172
C0G770,福興,2020-06-01,24.041289,120.437669,0.003317759
C0G780,秀水,2020-06-01,24.03405,120.503869,0.0031567991
C0G800,埔鹽,2020-06-01,24.000394,120.431683,0.003317759
C0G810,埔心,2020-06-01,23.947633,120.525456,0.0028861333
C0G820,田尾,2020-06-01,23.901669,120.509389,0.0028623613
C0G830,埤頭,2020-06-01,23.866003,120.452806,0.004510152
C0G840,北斗,2020-06-01,23.877586,120.514222,0.0028623599
C0G860,社頭,2020-06-01,23.897647,120.5862,0.002783676
C0G870,芳苑,2020-06-01,23.922303,120.320025,0.0040060314
C0G880,二水,2020-06-01,23.810742,120.6173,0.0048180064
C0G890,伸港,2020-06-01,24.148933,120.484403,0.0034904575
C0G900,線西,2020-06-01,24.143358,120.443536,0.003443385
C0G910,花壇,2020-06-01,24.032076,120.549461,0.0030756902
C0G920,永靖,2020-06-01,23.924703,120.547533,0.0028623613
C0G940,竹塘,2020-06-01,23.848253,120.386764,0.0042777737
C0G950,防潮門,2020-06-01,24.1835,120.4871,0.0035215004
C0G960,福寶,2020-06-01,24.0443,120.3814,0.0033627686
C0G970,三豐,2020-06-01,23.882,120.2895,0.0040060314
C0H890,埔里,2020-06-01,23.972169,120.952425,0.0058999304
C0H950,中寮,2020-06-01,23.884447,120.766406,0.0070965965
C0H960,草屯,2020-06-01,23.973672,120.68085,0.0046624243
C0I110,竹山,2020-06-01,23.761225,120.688156,0.0059496276
C0I360,水里,2020-06-01,23.812553,120.849792,0.057287548
C0I380,集集,2020-06-01,23.828206,120.801467,0.041288897
C0I410,名間,2020-06-01,23.837053,120.701447,0.0048861196
C0I420,國姓,2020-06-01,24.037803,120.855072,0.61573744
C0I460,南投,2020-06-01,23.911469,120.687331,0.0051387018
C0K250,崙背,2020-06-01,23.75555,120.318925,0.0038984686
C0K280,四湖,2020-06-01,23.630414,120.227125,0.0038980057
C0K291,宜梧,2020-06-01,23.536281,120.169329,0.0045684446
C0K330,虎尾,2020-06-01,23.719183,120.442036,0.0040006293
C0K390,土庫,2020-06-01,23.679029,120.395574,0.0040222183
C0K400,斗六,2020-06-01,23.720583,120.541127,0.004197458
C0K410,北港,2020-06-01,23.573957,120.292802,0.004521288
C0K420,西螺,2020-06-01,23.800407,120.467394,0.004363811
C0K430,褒忠,2020-06-01,23.690938,120.303634,0.003740577
C0K440,二崙,2020-06-01,23.772797,120.408944,0.00426018
C0K450,大埤,2020-06-01,23.646074,120.431537,0.0040821373
C0K460,斗南,2020-06-01,23.678734,120.478359,0.004209861
C0K470,林內,2020-06-01,23.748675,120.609642,0.0041376585
C0K480,莿桐,2020-06-01,23.761192,120.502372,0.0043802294
C0K500,元長,2020-06-01,23.64981,120.315024,0.0037506393
C0K510,水林,2020-06-01,23.572924,120.24597,0.004732918
C0K530,臺西,2020-06-01,23.701547,120.197559,0.0038758146
C0K550,蔦松,2020-06-01,23.514319,120.229736,0.0045821345
C0K560,棋山,2020-06-01,23.68645,120.603417,0.0043052505
C0K580,高鐵雲林,2020-06-01,23.737456,120.417944,0.0040222183
C0K590,雲林東勢,2020-06-01,23.674192,120.255721,0.003740579
C0K600,箔子寮,2020-06-01,23.6197,120.14,0.004713797
C0M410,馬頭山,2020-06-01,23.324361,120.582017,0.036435265
C0M520,東後寮,2020-06-01,23.369908,120.248065,0.0053876583
C0M640,中埔,2020-06-01,23.42538,120.5229,0.0040300656
C0M650,朴子,2020-06-01,23.43463,120.23902,0.0045496933
C0M660,溪口,2020-06-01,23.604131,120.403569,0.0038070995
C0M670,大林,2020-06-01,23.600616,120.45841,0.0039478648
C0M680,太保,2020-06-01,23.455062,120.331455,0.004397469
C0M690,水上,2020-06-01,23.419734,120.388909,0.003840931
C0M700,竹崎,2020-06-01,23.526178,120.555508,0.004255439
C0M710,東石,2020-06-01,23.458927,120.15385,0.0045821345
C0M720,番路,2020-06-01,23.464657,120.554156,0.0045992155
C0M730,嘉義市東區,2020-06-01,23.457673,120.460531,0.004068592
C0M740,六腳,2020-06-01,23.492871,120.290625,0.004381601
C0M750,布袋,2020-06-01,23.380878,120.167789,0.0045496933
C0M760,民雄,2020-06-01,23.551754,120.428457,0.0038258482
C0M770,嘉義梅山,2020-06-01,23.585398,120.555587,0.0044286614
C0M780,鹿草,2020-06-01,23.41134,120.30835,0.004457899
C0M790,新港,2020-06-01,23.553269,120.345728,0.0045407135
C0M800,茶山,2020-06-01,23.299075,120.664767,0.9958314
C0M880,好美里,2020-06-01,23.3364,120.138,0.0053544207
C0N010,鯤鯓國小,2020-06-01,23.1879,120.0889,0.0046381997
C0N020,城西,2020-06-01,23.0568,120.0956,0.005227961
C0N030,四草,2020-06-01,23.0235,120.1116,0.0049276375
C0N040,蘆竹溝,2020-06-01,23.2344,120.0961,0.0046381997
C0N050,蚵寮,2020-06-01,23.301,120.1104,0.0046381997
C0O810,曾文,2020-06-01,23.219681,120.497328,0.005988587
C0O830,北寮,2020-06-01,23.079561,120.495008,0.5038949
C0O840,王爺宮,2020-06-01,23.222064,120.40085,0.005988587
C0O860,大內,2020-06-01,23.11885,120.36083,0.0069578034
C0O900,善化,2020-06-01,23.112883,120.297219,0.0039074076
C0O930,玉井,2020-06-01,23.126042,120.46055,0.005206211
C0O950,安南,2020-06-01,23.076694,120.144861,0.0037772919
C0O960,崎頂,2020-06-01,22.959547,120.369317,0.21516159
C0O970,虎頭埤,2020-06-01,23.021375,120.347878,0.0065236394
C0O980,新市,2020-06-01,23.061614,120.298197,0.0039074076
C0O990,媽廟,2020-06-01,22.99175,120.293525,0.0038823425
C0R150,三地門,2020-06-01,22.709889,120.639944,0.0037907897
C0R160,鹽埔,2020-06-01,22.739558,120.530778,0.0047284076
C0R170,屏東,2020-06-01,22.660269,120.494072,0.0027472537
C0R190,赤山,2020-06-01,22.592333,120.614306,0.004458606
C0R220,潮州,2020-06-01,22.534361,120.54,0.0044994755
C0R240,來義,2020-06-01,22.527306,120.625111,0.0057218396
C0R260,春日,2020-06-01,22.370361,120.628306,0.0052261367
C0R270,琉球嶼,2020-06-01,22.332244,120.362236,0.0053225234
C0R280,檳榔,2020-06-01,22.076078,120.836777,0.022846976
C0R320,車城,2020-06-01,22.0744,120.716247,0.0061697583
C0R341,牡丹,2020-06-01,22.130036,120.792639,0.007592665
C0R350,貓鼻頭,2020-06-01,21.921774,120.7358,0.007132675
C0R470,高樹,2020-06-01,22.826389,120.600806,0.0036002542
C0R480,長治,2020-06-01,22.693128,120.542622,0.0049009277
C0R490,九如,2020-06-01,22.7405,120.490503,0.0027539297
C0R520,崁頂,2020-06-01,22.514781,120.506914,0.003016852
C0R540,佳冬,2020-06-01,22.419456,120.552375,0.0030184858
C0R550,新埤,2020-06-01,22.467947,120.582894,0.0043363436
C0R560,新園,2020-06-01,22.5434,120.461558,0.003016852
C0R570,麟洛,2020-06-01,22.65078,120.52719,0.0027539283
C0R580,南州,2020-06-01,22.48591,120.50274,0.0030184858
C0R590,里港,2020-06-01,22.77919,120.49459,0.0053918664
C0R620,墾雷,2020-06-01,21.900836,120.855269,0.007132675
C0R640,東港,2020-06-01,22.46247,120.44074,0.0029880363
C0R650,竹田,2020-06-01,22.58486,120.54344,0.00421144
C0R660,枋寮,2020-06-01,22.367722,120.590647,0.004298904
C0R670,楓港,2020-06-01,22.190131,120.692156,0.0041870745
C0R680,佳樂水,2020-06-01,21.993578,120.861633,0.006605091
C0R690,墾丁,2020-06-01,21.966756,120.810269,0.028210193
C0R700,枋山,2020-06-01,22.246844,120.661086,0.0041870745
C0R710,龍磐,2020-06-01,21.931672,120.838942,0.0115160495
C0R720,旭海,2020-06-01,22.205403,120.887614,0.015880467
C0R730,大坪頂,2020-06-01,22.024633,120.69355,0.0107631525
C0R740,獅子,2020-06-01,22.201569,120.70525,0.004432412
C0R760,南仁湖,2020-06-01,22.084681,120.863353,0.06904544
C0R770,保力,2020-06-01,22.071122,120.764111,0.009035719
C0R780,滿州,2020-06-01,22.024403,120.839892,0.0074407654
C0R790,九棚,2020-06-01,22.14195,120.889281,0.010403295
C0R800,丹路,2020-06-01,22.204481,120.750989,0.005752643
C0R810,內獅,2020-06-01,22.305064,120.642986,0.0048090317
C0R830,高士,2020-06-01,22.121825,120.836781,0.18678708
C0R850,林邊,2020-06-01,22.4634,120.5339,0.003016852
C0R860,鼻頭,2020-06-01,22.1043,120.8979,0.0815927
C0R870,興海,2020-06-01,21.9752,120.8439,0.006605091
C0R880,後壁湖,2020-06-01,21.9457,120.7457,0.005983179
C0R890,山海,2020-06-01,21.9878,120.7091,0.0061697583
C0R900,竹坑,2020-06-01,22.1385,120.7022,0.0043438855
C0R910,下寮,2020-06-01,22.3929,120.5548,0.0030184858
C0R920,塭仔,2020-06-01,22.4169,120.5197,0.003020151
C0R930,萬丹,2020-06-01,22.5885,120.4851,0.004211442
C0R940,加祿堂,2020-06-01,22.3363,120.6217,0.0048090317
C0S710,鹿野,2020-06-01,22.917711,121.122994,0.0053140875
C0S730,綠島,2020-06-01,22.6672,121.47533,0.0046269107
C0S740,池上,2020-06-01,23.119628,121.209469,0.0037225378
C0S770,大溪山,2020-06-01,22.478475,120.943325,0.053290993
C0S790,金崙,2020-06-01,22.538122,120.966875,0.0056250296
C0S810,東河,2020-06-01,22.972672,121.303986,0.0033225385
C0S830,長濱,2020-06-01,23.286817,121.411975,0.005678845
C0S840,南田,2020-06-01,22.279725,120.889208,0.0053910785
C0S890,關山,2020-06-01,23.0395,121.175017,0.0042740344
C0S900,蘭嶼高中,2020-06-01,22.04909,121.51214,0.03193198
C0S910,蘭嶼燈塔,2020-06-01,22.081197,121.503117,0.054730184
C0S920,金峰嘉蘭,2020-06-01,22.594789,120.960825,0.0044297576
C0S930,延平,2020-06-01,22.902581,121.084058,0.0035934488
C0S940,石寧山,2020-06-01,23.223772,121.406639,0.0035093583
C0S950,七塊厝,2020-06-01,22.954453,121.229922,0.006433697
C0S960,香蘭,2020-06-01,22.587569,120.993375,0.004436357
C0S970,加津林,2020-06-01,22.416211,120.926942,0.0058987644
C0S990,山豬窟,2020-06-01,22.318619,120.857372,0.42106354
C0SA00,歷坵,2020-06-01,22.520969,120.89185,0.364273
C0SA10,檳榔四格山,2020-06-01,22.810031,121.109308,0.40837574
C0SA30,都歷,2020-06-01,23.020333,121.323642,0.004750772
C0SA40,瑞和,2020-06-01,22.974361,121.156697,0.0043261815
C0SA60,知本（水試所）,2020-06-01,22.702394,121.082761,0.0037973858
C0SA80,土坂,2020-06-01,22.453108,120.887572,0.004609951
C0SA90,達仁林場,2020-06-01,22.264347,120.823972,0.9618499
C0T870,鯉魚潭,2020-06-01,23.935639,121.508944,0.010216409
C0T900,西林,2020-06-01,23.8119,121.441458,0.010493868
C0T960,光復,2020-06-01,23.660694,121.424964,0.010402825
C0T9A0,月眉山,2020-06-01,23.809928,121.539828,0.015059623
C0T9D0,和中,2020-06-01,24.26676,121.74103,0.005935766
C0T9E0,大坑,2020-06-01,23.880628,121.581981,0.012744678
C0T9F0,水璉,2020-06-01,23.797131,121.542514,0.01151358
C0T9I0,豐濱,2020-06-01,23.583897,121.514806,0.009919466
C0T9M0,靜浦,2020-06-01,23.455167,121.495028,0.009651809
C0T9N0,富里,2020-06-01,23.171639,121.249378,0.007700809
C0U600,礁溪,2020-06-01,24.817539,121.765608,0.15988687
C0U650,玉蘭,2020-06-01,24.675286,121.587061,0.01039519
C0U750,龜山島,2020-06-01,24.841667,121.953133,0.022157356
C0U760,東澳,2020-06-01,24.52196,121.83318,0.008009721
C0U770,南澳,2020-06-01,24.44935,121.81022,0.008042528
C0U780,五結,2020-06-01,24.68637,121.79794,0.035355877
C0U860,頭城,2020-06-01,24.85323,121.8308,0.1300707
C0U870,大礁溪,2020-06-01,24.791042,121.675047,0.3021115
C0U880,北關,2020-06-01,24.9072,121.8734,0.05000896
C0U890,三星,2020-06-01,24.66812,121.65302,0.84212756
C0U900,內城,2020-06-01,24.71813,121.68766,0.30094323
C0U910,冬山,2020-06-01,24.63373,121.7937,0.035355877
C0U940,羅東,2020-06-01,24.68184,121.74934,0.037622124
C0U970,大福,2020-06-01,24.80064,121.81389,0.10795613
C0U990,員山,2020-06-01,24.74435,121.72247,0.037622124
C0UA00,土場,2020-06-01,24.576533,121.495333,0.30400738
C0UA80,大溪漁港,2020-06-01,24.941801,121.902955,0.15988687
C0UA90,石城,2020-06-01,24.980444,121.951214,0.085709
C0UB00,淡江大學蘭陽校園,2020-06-01,24.823239,121.730383,0.6392382
C0UB10,蘇澳,2020-06-01,24.5969,121.8571,0.011953251
C0UB20,壯圍,2020-06-01,24.7359,121.8163,0.03396866
C0V250,甲仙,2020-06-01,23.080106,120.591758,0.9911782
C0V260,月眉,2020-06-01,22.971003,120.539853,0.32488686
C0V310,美濃,2020-06-01,22.898742,120.519153,0.010181886
C0V350,溪埔,2020-06-01,22.738578,120.446797,0.0028329499
C0V360,內門,2020-06-01,22.975481,120.466769,0.018283954
C0V370,古亭坑,2020-06-01,22.893178,120.401947,0.010805082
C0V400,阿公店,2020-06-01,22.804194,120.355528,0.002770187
C0V440,鳳山,2020-06-01,22.646653,120.356122,0.002977117
C0V450,鳳森,2020-06-01,22.545064,120.392592,0.0049637267
C0V490,新興,2020-06-01,22.627422,120.298803,0.0029830728
C0V530,阿蓮,2020-06-01,22.883208,120.327508,0.0037392622
C0V610,梓官,2020-06-01,22.760558,120.267211,0.0029278467
C0V620,永安,2020-06-01,22.82315,120.236856,0.0029805328
C0V630,茄萣,2020-06-01,22.906642,120.182608,0.0036229591
C0V640,湖內,2020-06-01,22.887139,120.2445,0.003646415
C0V650,彌陀,2020-06-01,22.783806,120.246361,0.0029805328
C0V660,岡山,2020-06-01,22.797078,120.294958,0.0029278467
C0V680,仁武,2020-06-01,22.701083,120.347722,0.0030865534
C0V690,鼓山,2020-06-01,22.623325,120.275575,0.0029830728
C0V700,三民,2020-06-01,22.645017,120.311233,0.0029830728
C0V710,苓雅,2020-06-01,22.622742,120.330669,0.0029830728
C0V720,林園,2020-06-01,22.507747,120.394511,0.0029830728
C0V730,大寮,2020-06-01,22.605614,120.395717,0.004349515
C0V740,旗山,2020-06-01,22.888614,120.483597,0.010812097
C0V750,路竹,2020-06-01,22.854997,120.259439,0.0028294055
C0V760,橋頭,2020-06-01,22.757806,120.30575,0.0029159053
C0V770,大社,2020-06-01,22.730306,120.346639,0.0030865534
C0V790,萬山,2020-06-01,22.905944,120.688056,0.9939919
C0V800,六龜,2020-06-01,22.997889,120.633583,0.14580898
C0V810,左營,2020-06-01,22.67491,120.28491,0.0030976508
C0V820,小林,2020-06-01,23.148408,120.63325,0.9960161
C0V840,鳳鼻頭,2020-06-01,22.5083,120.3591,0.0029880363
C0V850,蚵仔寮,2020-06-01,22.7256,120.2527,0.0031107084
C0V860,南寮,2020-06-01,22.7616,120.2339,0.002995787
C0V870,文安,2020-06-01,22.8025,120.2164,0.002995787
C0V880,興達,2020-06-01,22.8778,120.2127,0.0036229608
C0V890,前鎮,2020-06-01,22.5718,120.3117,0.0029880363
C0V900,汕尾,2020-06-01,22.4782,120.4151,0.0028154217
C0X050,東河,2020-06-01,23.296598,120.385608,0.004970795
C0X060,下營,2020-06-01,23.22695,120.256261,0.0057264958
C0X080,佳里,2020-06-01,23.173039,120.145086,0.0053544207
C0X100,臺南市北區,2020-06-01,23.010394,120.194228,0.003631222
C0X110,臺南市南區,2020-06-01,22.961189,120.188378,0.0036526916
C0X120,麻豆,2020-06-01,23.183289,120.248611,0.0054681776
C0X130,官田,2020-06-01,23.193217,120.315422,0.0060411883
C0X140,西港,2020-06-01,23.125608,120.203108,0.0052392688
C0X150,安定,2020-06-01,23.102614,120.227839,0.003726243
C0X160,仁德,2020-06-01,22.968258,120.257689,0.0038300958
C0X170,關廟,2020-06-01,22.963017,120.327797,0.004093673
C0X180,山上,2020-06-01,23.0757,120.363253,0.016242625
C0X190,安平,2020-06-01,22.993161,120.152181,0.003631222
C0X200,左鎮,2020-06-01,23.056758,120.408522,0.01505461
C0X210,白河,2020-06-01,23.347466,120.414427,0.005025495
C0X220,學甲,2020-06-01,23.230367,120.182187,0.0054681776
C0X230,鹽水,2020-06-01,23.272621,120.247641,0.005383306
C0X240,關子嶺,2020-06-01,23.331169,120.508025,0.99610096
C0X250,新營,2020-06-01,23.310689,120.316681,0.005599409
C0X260,後壁,2020-06-01,23.366358,120.362326,0.011233979
C0X280,將軍,2020-06-01,23.214999,120.13577,0.0053544207
C0X290,北門,2020-06-01,23.267772,120.125481,0.0053544207
C0X300,鹿寮,2020-06-01,23.386047,120.477331,0.003767525
C0X310,七股,2020-06-01,23.147289,120.086253,0.0048429226
C0X320,柳營,2020-06-01,23.253328,120.375253,0.0049707997
C0Z020,明里,2020-06-01,23.208717,121.262342,0.0047225654
C0Z061,玉里,2020-06-01,23.3215,121.339656,0.0033851906
C0Z070,舞鶴,2020-06-01,23.46811,121.37407,0.010261083
C0Z080,富源,2020-06-01,23.587642,121.378225,0.010172184
C0Z100,東華,2020-06-01,23.89525,121.549833,0.009735176
C0Z150,吉安光華,2020-06-01,23.930925,121.595153,0.0096750725
C0Z160,鳳林,2020-06-01,23.746114,121.453411,0.010324103
C0Z170,卓溪,2020-06-01,23.3443,121.3029,0.0036276733
C0Z180,新城,2020-06-01,24.03946,121.60454,0.010930248
C0Z190,富世,2020-06-01,24.14743,121.6297,0.005607321
C0Z200,萬榮,2020-06-01,23.709219,121.420106,0.010216409
C0Z210,瑞穗,2020-06-01,23.5239,121.39021,0.009804645
C0Z230,和平,2020-06-01,24.30717,121.77007,0.005935766
C0Z270,蕃薯寮,2020-06-01,23.73835,121.540108,0.009917429
C0Z280,德武,2020-06-01,23.47426,121.41071,0.009910441
C0Z300,東里,2020-06-01,23.26853,121.30547,0.003494615
C0Z310,清水斷崖,2020-06-01,24.218294,121.689142,0.005415867
C0Z330,安通山,2020-06-01,23.290728,121.348528,0.0072363256
CAA010,國一N013K,2020-06-01,25.06944,121.6281,0.036871575
CAA020,國一S026K,2020-06-01,25.07639,121.4964,0.031343803
CAA030,國三S010K,2020-06-01,25.08,121.6475,0.03385831
CAA040,國三S016K,2020-06-01,25.03306,121.6158,0.07333282
CAA050,國三S037K,2020-06-01,24.9828,121.471,0.036871575
CAA060,國三S042K,2020-06-01,24.96,121.4306,0.044047058
CAA070,國三N046K,2020-06-01,24.95083,121.3958,0.039964467
CAA080,國三S054K,2020-06-01,24.93917,121.3239,0.006712909
CAA090,國三A005K,2020-06-01,25.00194,121.5975,0.040534277
CAAH60,大安森林,2020-06-01,25.02955,121.53628,0.03125814
CAB010,國一S001K,2020-06-01,25.11583,121.7286,0.05560618
CAB020,國一S006K,2020-06-01,25.08694,121.6869,0.0462897
CAB030,國三S004K,2020-06-01,25.11444,121.6886,0.18289308
CAB040,國三S007K,2020-06-01,25.09694,121.6678,0.089654736
CAB050,國三K002K,2020-06-01,25.14583,121.7217,0.089654736
CAC010,國一S072K,2020-06-01,24.89583,121.1342,0.019163944
CAC020,國二E009K,2020-06-01,25.02111,121.2736,0.0070609427
CAC030,國三N063K,2020-06-01,24.889,121.26,0.008215305
CAC050,西濱S023K,2020-06-01,25.11649,121.27551,0.04693285
CAC060,西濱S032K,2020-06-01,25.091966,121.192505,0.04369298
CAD010,國一S105K,2020-06-01,24.726316,120.940643,0.004850478
CAD020,國一N077K,2020-06-01,24.885,121.0889,0.01365037
CAD030,國一S082K,2020-06-01,24.87667,121.0467,0.0054719727
CAD040,國一S088K,2020-06-01,24.84444,121.0214,0.004983208
CAD050,國一N094K,2020-06-01,24.79778,121.0089,0.005638248
CAD060,國一S098K,2020-06-01,24.76056,120.9911,0.005638248
CAD070,國三N076K,2020-06-01,24.800303,121.195739,0.075994864
CAD080,國三N085K,2020-06-01,24.78333,121.1211,0.026863107
CAD090,國三S103K,2020-06-01,24.75861,120.9608,0.006468017
CAD100,西濱N066K,2020-06-01,24.8956,120.9649,0.0042816713
CAD110,西濱S082K,2020-06-01,24.751724,120.905028,0.0044977437
CAE010,國一N142K,2020-06-01,24.453119,120.783221,0.0048325784
CAE020,國一S114K,2020-06-01,24.668835,120.885811,0.0044977437
CAE030,國一S123K,2020-06-01,24.59594,120.86071,0.003510924
CAE040,國一S132K,2020-06-01,24.524506,120.820831,0.0034346224
CAE050,國一S152K,2020-06-01,24.375492,120.749184,0.123872556
CAE060,國三N119K,2020-06-01,24.675432,120.847389,0.0039445693
CAE070,國三N151K,2020-06-01,24.440218,120.681656,0.0033762208
CAE080,國三S140K,2020-06-01,24.522345,120.725006,0.0034282745
CAE090,國三S156K,2020-06-01,24.39798,120.669487,0.00331809
CAE100,西濱N107K,2020-06-01,24.5958,120.7394,0.0033043784
CAE110,西濱S129K,2020-06-01,24.4472,120.6428,0.0034295225
CAF010,國一N174K,2020-06-01,24.2049,120.6552,0.0033349206
CAF020,國一S162K,2020-06-01,24.295534,120.695976,0.005327115
CAF030,國一S169K,2020-06-01,24.237116,120.688271,0.0050387233
CAF040,國一S188K,2020-06-01,24.118546,120.585747,0.0030548458
CAF050,國三N208K,2020-06-01,24.066147,120.660919,0.0030548458
CAF060,國三S168K,2020-06-01,24.308519,120.614471,0.003382852
CAF070,國三S173K,2020-06-01,24.27397,120.593079,0.0034228535
CAF080,國三S178K,2020-06-01,24.226721,120.589058,0.0033298559
CAF090,國四E5K,2020-06-01,24.296465,120.643135,0.0033763605
CAF100,西濱N151K,2020-06-01,24.275964,120.547681,0.0034948161
CAG010,國一N198K,2020-06-01,24.063889,120.523056,0.0033779335
CAG030,國一S207K,2020-06-01,23.988304,120.508092,0.0031567991
CAG040,國三N191K,2020-06-01,24.139256,120.5215,0.0034425817
CAG050,國三N196K,2020-06-01,24.107155,120.554482,0.0031406572
CAG060,國三S202K,2020-06-01,24.092468,120.603256,0.0031406572
CAG070,西濱S173K,2020-06-01,24.1081,120.434576,0.0033627686
CAG080,西濱S189K,2020-06-01,23.987857,120.369607,0.0041469764
CAG090,西濱N210K,2020-06-01,23.843536,120.293236,0.003895498
CAG100,王功漁港,2020-06-01,23.96824,120.32586,0.0041469764
CAH010,國三N223K,2020-06-01,23.955116,120.662376,0.0046001105
CAH020,國三S217K,2020-06-01,24.00683,120.653214,0.0031838152
CAH030,茶改場竹圍站,2020-06-01,23.860083,120.637528,0.14868584
CAHA00,消防署訓練中心,2020-06-01,23.82137,120.72293,0.0049603363
CAJ010,國三N252K,2020-06-01,23.77412,120.64061,0.0050147264
CAJ020,國一N234K,2020-06-01,23.74633,120.467926,0.004209861
CAJ030,西濱N222K,2020-06-01,23.737734,120.256132,0.003740156
CAJ040,西濱S241K,2020-06-01,23.623426,120.172646,0.004713797
CAJ050,海口故事園區,2020-06-01,23.57543,120.14121,0.004713797
CAL010,國一N250K,2020-06-01,23.610292,120.436867,0.0038258482
CAL020,國一S262K,2020-06-01,23.512333,120.403038,0.0038659298
CAL030,國一N268K,2020-06-01,23.460833,120.375833,0.0038659298
CAL040,國一N273K,2020-06-01,23.416666,120.355,0.0050013303
CAL050,國三N279K,2020-06-01,23.596111,120.523333,0.0041402723
CAL060,國三S286K,2020-06-01,23.533917,120.484583,0.004004435
CAL070,國三N295K,2020-06-01,23.468598,120.499369,0.003984103
CAL080,國三N303K,2020-06-01,23.428611,120.452416,0.003840931
CAL090,西濱S257K,2020-06-01,23.502278,120.171861,0.0045821345
CAL100,西濱S267K,2020-06-01,23.41613,120.162872,0.0045496933
CAL110,布袋國中,2020-06-01,23.35893,120.18026,0.0053876583
CAN010,國一N288K,2020-06-01,23.30609,120.290033,0.0054673892
CAN020,國一S306K,2020-06-01,23.1565,120.239513,0.0054681725
CAN030,國一N316K,2020-06-01,23.07309,120.253014,0.0039074076
CAN040,國一N323K,2020-06-01,23.00421,120.245922,0.003679881
CAN050,國一N335K,2020-06-01,22.897584,120.269895,0.0036471447
CAN060,國三S311K,2020-06-01,23.346388,120.438888,0.0050811963
CAN070,國三S329K,2020-06-01,23.212777,120.355833,0.011908484
CAN080,國三N336K,2020-06-01,23.154722,120.345,0.006202901
CAN090,國三S342K,2020-06-01,23.106694,120.327528,0.004040297
CAN100,國三S366K,2020-06-01,22.9077,120.3513,0.0054827235
CAN110,西濱S280K,2020-06-01,23.3052,120.14891,0.0053544207
CAN120,西濱N304K,2020-06-01,23.103439,120.086694,0.0052279537
CAN130,水試所海水繁養殖中心,2020-06-01,23.120802,120.07968,0.005156672
CAN140,六官養殖協會,2020-06-01,23.22881,120.29962,0.005862884
CAP010,國一S342K,2020-06-01,22.845555,120.295,0.0029278467
CAP020,國一S346K,2020-06-01,22.812222,120.314166,0.0029278467
CAP030,國一N351K,2020-06-01,22.765833,120.328888,0.0029159053
CAP040,國一N361K,2020-06-01,22.680555,120.328611,0.0030976508
CAP050,國三N372K,2020-06-01,22.858611,120.373611,0.0029701923
CAP060,國三S385K,2020-06-01,22.767777,120.444444,0.0055393972
CAP070,高雄燈塔,2020-06-01,22.6146,120.2647,0.0029830728
CAQ010,國三N425K,2020-06-01,22.480277,120.531666,0.003016852
CAQ020,國三S415K,2020-06-01,22.568,120.528,0.0041132644
CAQ030,崎峰國小,2020-06-01,22.42565,120.49521,0.0030184858
E2K600,四湖植物園,2020-06-01,23.676986,120.163433,0.0038758146
E2P980,林試六龜中心,2020-06-01,22.991703,120.645722,0.1737792
E2S390,太麻里分所,2020-06-01,22.5988,120.9811,0.0044210367
E2S960,林試太麻里2,2020-06-01,22.598014,120.989761,0.004436357
E2S980,林試太麻里1,2020-06-01,22.598922,120.980044,0.0044210367
G2AI50,關渡,2020-06-01,25.11575,121.492,0.029260382
G2F820,農試所(霧峰),2020-06-01,24.031261,120.688133,0.0031838152
G2L020,嘉義分所,2020-06-01,23.485028,120.473806,0.003984103
G2M350,溪口農場,2020-06-01,23.58565,120.408111,0.0038070995
G2P820,鳳山園試所,2020-06-01,22.646611,120.356083,0.0029771198
K2E360,苗栗農改場,2020-06-01,24.495722,120.829111,0.0037171375
K2E710,大湖分場,2020-06-01,24.422861,120.871833,0.006375205
K2F750,種苗改良場,2020-06-01,24.225972,120.800917,0.030881371
U2HA50,臺大竹山,2020-06-01,23.756972,120.681556,0.0061431206
V2C250,八德合作社,2020-06-01,24.93775,121.266389,0.009612285
V2C260,八德蔬果,2020-06-01,24.978508,121.281819,0.008737101
V2K610,大庄合作社,2020-06-01,23.8068,120.367939,0.0040110154
V2K620,麥寮合作社,2020-06-01,23.753836,120.294783,0.003895498
