站號,站名,日期,lat,lon,BlastGRU-TW
466881,新北,2020-07-07,24.9593,121.52,0.53537375
466900,淡水,2020-07-07,25.164889,121.448906,0.77749485
466920,臺北,2020-07-07,25.037658,121.514853,0.5210254
467441,高雄,2020-07-07,22.7304,120.3125,0.05738987
467480,嘉義,2020-07-07,23.495925,120.432906,0.3097161
467490,臺中,2020-07-07,24.145736,120.684075,0.6978038
C0A540,四堵,2020-07-07,24.8926,121.745736,0.16316009
C0A550,泰平,2020-07-07,24.971197,121.823711,0.09161767
C0A560,福山,2020-07-07,24.776203,121.502811,0.13397095
C0A931,三和,2020-07-07,25.233153,121.595236,0.13896698
C0A940,金山,2020-07-07,25.223628,121.643967,0.79346365
C0A950,鼻頭角,2020-07-07,25.129036,121.923372,0.070861064
C0AD10,八里,2020-07-07,25.150211,121.403947,0.77749485
C0AD30,蘆洲,2020-07-07,25.086594,121.472331,0.61382914
C0AD40,土城,2020-07-07,24.973208,121.445169,0.62136686
C0AI10,屈尺,2020-07-07,24.92184,121.54475,0.5580347
C0AI20,白沙灣,2020-07-07,25.283128,121.519058,0.7780023
C0AI30,三重,2020-07-07,25.057328,121.500629,0.61382914
C0B010,七堵,2020-07-07,25.094819,121.71713,0.4545305
C0B020,基隆嶼,2020-07-07,25.19141,121.78391,0.43718237
