站號,站名,日期,lat,lon,BlastGRU-TW
466881,新北,2020-04-07,24.9593,121.52,0.034973755
466900,淡水,2020-04-07,25.164889,121.448906,0.057053756
466920,臺北,2020-04-07,25.037658,121.514853,0.04142059
467441,高雄,2020-04-07,22.7304,120.3125,0.23608226
467480,嘉義,2020-04-07,23.495925,120.432906,0.19067203
467490,臺中,2020-04-07,24.145736,120.684075,0.06155814
C0A540,四堵,2020-04-07,24.8926,121.745736,0.014831077
C0A550,泰平,2020-04-07,24.971197,121.823711,0.01858455
C0A560,福山,2020-04-07,24.776203,121.502811,0.02860025
C0A931,三和,2020-04-07,25.233153,121.595236,0.028642962
C0A940,金山,2020-04-07,25.223628,121.643967,0.027175881
C0A950,鼻頭角,2020-04-07,25.129036,121.923372,0.19320089
C0AD10,八里,2020-04-07,25.150211,121.403947,0.057053696
C0AD30,蘆洲,2020-04-07,25.086594,121.472331,0.04408206
C0AD40,土城,2020-04-07,24.973208,121.445169,0.040611103
C0AI10,屈尺,2020-04-07,24.92184,121.54475,0.02718189
C0AI20,白沙灣,2020-04-07,25.283128,121.519058,0.03247365
C0AI30,三重,2020-04-07,25.057328,121.500629,0.04408206
C0B010,七堵,2020-04-07,25.094819,121.71713,0.06565063
C0B020,基隆嶼,2020-04-07,25.19141,121.78391,0.07559663
