站號,站名,日期,lat,lon,BlastGRU-TW
466881,新北,2020-12-25,24.9593,121.52,0.00061595923
466900,淡水,2020-12-25,25.164889,121.448906,0.0004890791
466920,臺北,2020-12-25,25.037658,121.514853,0.0006550808
467350,澎湖,2020-12-25,23.565503,119.563094,0.0005265647
467410,臺南,2020-12-25,22.993239,120.204772,0.23567684
467420,永康,2020-12-25,23.038386,120.2367,0.2592649
467790,墾丁雷達站,2020-12-25,21.948235,120.808028,0.00019181319
C0A520,山佳,2020-12-25,24.974944,121.402008,0.00053484755
C0A530,坪林,2020-12-25,24.938183,121.70975,0.004873993
C0A880,福隆,2020-12-25,25.017842,121.942083,0.0050044996
C0A890,雙溪,2020-12-25,25.036003,121.864242,0.00060143054
C0A920,富貴角,2020-12-25,25.263783,121.565258,0.00040875268
C0AC80,文山,2020-12-25,25.00235,121.575728,0.0005640188
C0ACA0,新莊,2020-12-25,25.051478,121.446756,0.00052819314
C0AD00,三芝,2020-12-25,25.258131,121.501917,0.00040909788
C0AH70,松山,2020-12-25,25.04871,121.55042,0.0006550808
C0AH80,深坑,2020-12-25,25.002703,121.628328,0.0005640188
C0AI00,五股,2020-12-25,25.07445,121.42728,0.00036906343
C0AJ70,田寮,2020-12-25,25.2698,121.4886,0.00044680553
