站號,站名,日期,lat,lon,BlastGRU-TW
466881,新北,2020-04-03,24.9593,121.52,0.37056854
466900,淡水,2020-04-03,25.1649,121.4489,0.12478043
466920,臺北,2020-04-03,25.0377,121.5149,0.37882763
466940,基隆,2020-04-03,25.1333,121.7405,0.17333071
466990,花蓮,2020-04-03,23.9751,121.6133,0.9868673
467050,新屋,2020-04-03,25.0067,121.0475,0.034518596
467080,宜蘭,2020-04-03,24.764,121.7565,0.37737957
467270,田中,2020-04-03,23.8738,120.5813,0.41170248
467300,東吉島,2020-04-03,23.2569,119.6675,0.012188557
467350,澎湖,2020-04-03,23.5655,119.5631,0.004532122
467410,臺南,2020-04-03,22.9932,120.2048,0.8064106
467420,永康,2020-04-03,23.0384,120.2367,0.8107971
467441,高雄,2020-04-03,22.7304,120.3125,0.7883043
467480,嘉義,2020-04-03,23.4959,120.4329,0.6422628
467490,臺中,2020-04-03,24.1457,120.6841,0.018508902
467540,大武,2020-04-03,22.3557,120.9038,0.32923925
467571,新竹,2020-04-03,24.8279,121.0142,0.035733763
467590,恆春,2020-04-03,22.0039,120.7463,0.14383107
467610,成功,2020-04-03,23.0975,121.3734,0.9869016
467620,蘭嶼,2020-04-03,22.037,121.5583,0.16913237
467660,臺東,2020-04-03,22.7522,121.1546,0.79406345
467790,墾丁雷達站,2020-04-03,21.9482,120.808,0.15267761
C0A520,山佳,2020-04-03,24.9749,121.402,0.22751811
C0A530,坪林,2020-04-03,24.9382,121.7097,0.23067881
C0A540,四堵,2020-04-03,24.8926,121.7457,0.056490846
C0A550,泰平,2020-04-03,24.9712,121.8237,0.017446827
C0A560,福山,2020-04-03,24.7762,121.5028,0.04563666
C0A570,桶後,2020-04-03,24.8482,121.598,0.07408872
C0A640,石碇,2020-04-03,24.994,121.6629,0.22829188
C0A650,火燒寮,2020-04-03,25.0027,121.7429,0.18355419
C0A660,瑞芳,2020-04-03,25.1132,121.8011,0.2802809
C0A770,科教館,2020-04-03,25.0964,121.5165,0.23046398
C0A860,大坪,2020-04-03,25.1659,121.633,0.028971177
C0A880,福隆,2020-04-03,25.0178,121.9421,0.28859133
C0A890,雙溪,2020-04-03,25.036,121.8642,0.16537912
C0A920,富貴角,2020-04-03,25.2638,121.5653,0.1041139
C0A931,三和,2020-04-03,25.2332,121.5952,0.16884908
C0A940,金山,2020-04-03,25.2236,121.644,0.086383484
C0A950,鼻頭角,2020-04-03,25.129,121.9234,0.2859907
C0A970,三貂角,2020-04-03,25.0076,122.0021,0.20899533
C0A980,社子,2020-04-03,25.1095,121.4697,0.23260322
C0A9C0,天母,2020-04-03,25.1175,121.5372,0.2279834
C0A9F0,內湖,2020-04-03,25.0794,121.5755,0.37882763
C0AC60,三峽,2020-04-03,24.939,121.3697,0.3656041
C0AC70,信義,2020-04-03,25.0378,121.5646,0.37882778
C0AC80,文山,2020-04-03,25.0023,121.5757,0.35404345
C0ACA0,新莊,2020-04-03,25.0515,121.4468,0.14410065
C0AD00,三芝,2020-04-03,25.2581,121.5019,0.08270948
C0AD10,八里,2020-04-03,25.1502,121.4039,0.12478043
C0AD30,蘆洲,2020-04-03,25.0866,121.4723,0.23046398
C0AD40,土城,2020-04-03,24.9732,121.4452,0.23048024
C0AD50,鶯歌,2020-04-03,24.9515,121.3463,0.12899822
C0AG80,中和,2020-04-03,24.9916,121.4918,0.37882763
C0AH00,汐止,2020-04-03,25.0669,121.6588,0.1725261
C0AH10,永和,2020-04-03,25.0113,121.5081,0.38192257
C0AH40,平等,2020-04-03,25.1291,121.5771,0.04100145
C0AH50,林口,2020-04-03,25.0722,121.3808,0.073120385
C0AH70,松山,2020-04-03,25.0487,121.5504,0.37882763
C0AH80,深坑,2020-04-03,25.0027,121.6283,0.36002207
C0AI00,五股,2020-04-03,25.0744,121.4273,0.073769905
C0AI10,屈尺,2020-04-03,24.9218,121.5447,0.35404345
C0AI20,白沙灣,2020-04-03,25.2831,121.5191,0.08777134
C0AI30,三重,2020-04-03,25.0573,121.5006,0.23046398
C0AI40,石牌,2020-04-03,25.1156,121.5131,0.23048024
C0AJ10,澳底,2020-04-03,25.0571,121.9273,0.2848414
C0AJ20,野柳,2020-04-03,25.207,121.69,0.1725261
C0AJ30,淡水觀海,2020-04-03,25.1846,121.4086,0.1263077
C0AJ40,石門,2020-04-03,25.2737,121.6012,0.068938136
C0AJ50,水湳洞,2020-04-03,25.1237,121.8622,0.1725261
C0AJ60,六塊厝,2020-04-03,25.24,121.4481,0.1263077
C0AJ70,田寮,2020-04-03,25.2698,121.4886,0.08865123
C0AJ80,板橋,2020-04-03,25.0107,121.4489,0.23048024
C0B010,七堵,2020-04-03,25.0948,121.7171,0.16974902
C0B020,基隆嶼,2020-04-03,25.1914,121.7839,0.1725261
C0B040,大武崙,2020-04-03,25.1667,121.707,0.1676598
C0B050,八斗子,2020-04-03,25.1448,121.7917,0.1758535
C0B060,暖暖,2020-04-03,25.0957,121.7403,0.16142361
C0C460,復興,2020-04-03,24.8202,121.3523,0.07528213
C0C480,桃園,2020-04-03,24.9924,121.3232,0.0812544
C0C490,八德,2020-04-03,24.9287,121.2833,0.11756329
C0C590,觀音,2020-04-03,25.0271,121.1533,0.067802556
C0C620,蘆竹,2020-04-03,25.0843,121.2658,0.12261785
C0C630,大溪,2020-04-03,24.8829,121.2655,0.113129504
C0C650,平鎮,2020-04-03,24.8975,121.2146,0.049623184
C0C660,楊梅,2020-04-03,24.9124,121.143,0.030644298
C0C670,龍潭,2020-04-03,24.8701,121.2214,0.061904114
C0C680,龜山,2020-04-03,25.0285,121.3866,0.18840343
C0C700,中壢,2020-04-03,24.9777,121.2564,0.07858322
C0C710,大溪永福,2020-04-03,24.8929,121.325,0.049901806
C0C720,竹圍,2020-04-03,25.1127,121.2398,0.12478043
C0C730,中大臨海站,2020-04-03,24.9661,121.0086,0.041453727
C0C740,觀音工業區,2020-04-03,25.0648,121.1149,0.026631901
C0C750,新興坑尾,2020-04-03,25.0061,121.0971,0.026043778
C0D430,峨眉,2020-04-03,24.6905,121.0172,0.0559403
C0D480,打鐵坑,2020-04-03,24.8497,121.1508,0.11481185
C0D540,橫山,2020-04-03,24.7112,121.1169,0.06853095
C0D560,竹東,2020-04-03,24.7671,121.0579,0.050166115
C0D580,寶山,2020-04-03,24.735,121.0252,0.07726604
C0D590,新豐,2020-04-03,24.8707,120.9772,0.025350215
C0D650,湖口,2020-04-03,24.9048,121.0436,0.023157965
C0D660,新竹市東區,2020-04-03,24.7987,120.9869,0.033651195
C0D670,海天一線,2020-04-03,24.832,120.9144,0.040210903
C0D680,香山濕地,2020-04-03,24.7836,120.915,0.03858564
C0D690,外湖,2020-04-03,24.9177,120.9687,0.041453727
C0D700,關西,2020-04-03,24.7977,121.1732,0.049820624
C0E420,竹南,2020-04-03,24.709,120.8889,0.034538653
C0E430,南庄,2020-04-03,24.6018,121.0002,0.062333807
C0E520,大湖,2020-04-03,24.4149,120.8709,0.12256683
C0E540,後龍,2020-04-03,24.6065,120.7839,0.006136885
C0E550,明德,2020-04-03,24.5835,120.8854,0.104651086
C0E590,通霄,2020-04-03,24.4719,120.7046,0.00608874
C0E730,頭份,2020-04-03,24.6882,120.9122,0.03453864
C0E740,造橋,2020-04-03,24.6371,120.8648,0.13589662
C0E750,苗栗,2020-04-03,24.5646,120.8246,0.00476068
C0E780,銅鑼,2020-04-03,24.4897,120.7909,0.20360295
C0E791,卓蘭,2020-04-03,24.3126,120.8244,0.3477394
C0E810,西湖,2020-04-03,24.5629,120.7485,0.0051985728
C0E820,獅潭,2020-04-03,24.5391,120.92,0.17735589
C0E830,苑裡,2020-04-03,24.4397,120.6531,0.02009064
C0E850,大河,2020-04-03,24.6181,120.9486,0.092434816
C0E870,高鐵苗栗,2020-04-03,24.6073,120.8261,0.0057558133
C0E910,海埔,2020-04-03,24.6488,120.7724,0.18158947
C0E920,通霄漁港,2020-04-03,24.4986,120.6739,0.00965143
C0E930,龍鳳,2020-04-03,24.7,120.8591,0.1637621
C0F000,大肚,2020-04-03,24.153,120.5721,0.21613662
C0F0B0,石岡,2020-04-03,24.2761,120.7776,0.21676141
C0F850,東勢,2020-04-03,24.2464,120.833,0.34918186
C0F930,大甲,2020-04-03,24.3477,120.6404,0.025581667
C0F970,大坑,2020-04-03,24.1731,120.7223,0.01534251
C0F9A0,中竹林,2020-04-03,24.1036,120.7511,0.13508904
C0F9I0,神岡,2020-04-03,24.2725,120.6583,0.13912998
C0F9K0,大安,2020-04-03,24.3451,120.588,0.080226675
C0F9L0,后里,2020-04-03,24.3104,120.7297,0.10000175
C0F9M0,豐原,2020-04-03,24.2543,120.7207,0.117444456
C0F9N0,大里,2020-04-03,24.0925,120.7014,0.041973043
C0F9O0,潭子,2020-04-03,24.2131,120.7039,0.16950686
C0F9P0,清水,2020-04-03,24.3123,120.5622,0.10830697
C0F9Q0,外埔,2020-04-03,24.3478,120.7057,0.17705616
C0F9R0,龍井,2020-04-03,24.1845,120.529,0.06985148
C0F9S0,烏日,2020-04-03,24.1071,120.6241,0.48083526
C0F9T0,西屯,2020-04-03,24.1795,120.6413,0.022958092
C0F9U0,南屯,2020-04-03,24.137,120.638,0.041973043
C0F9X0,大雅(中科園區),2020-04-03,24.2153,120.6244,0.011883655
C0FA10,松柏,2020-04-03,24.4291,120.6175,0.029795012
C0FA20,溫寮,2020-04-03,24.3722,120.5831,0.029794997
C0FA30,梧棲,2020-04-03,24.256,120.5234,0.06985148
C0FA40,臺中電廠,2020-04-03,24.2146,120.4907,0.06985148
C0FA50,霧峰,2020-04-03,24.0419,120.6995,0.02441879
C0G620,芬園,2020-04-03,24.0157,120.6213,0.36727628
C0G640,鹿港,2020-04-03,24.0753,120.4305,0.4317354
C0G650,員林,2020-04-03,23.9465,120.5856,0.5010007
C0G660,溪湖,2020-04-03,23.9484,120.4791,0.54888546
C0G720,溪州,2020-04-03,23.8516,120.4991,0.42647678
C0G730,二林,2020-04-03,23.9033,120.3761,0.5276512
C0G740,大城,2020-04-03,23.8525,120.3209,0.59374154
C0G770,福興,2020-04-03,24.0413,120.4377,0.4317354
C0G780,秀水,2020-04-03,24.0341,120.5039,0.44638976
C0G800,埔鹽,2020-04-03,24.0004,120.4317,0.4317354
C0G810,埔心,2020-04-03,23.9476,120.5255,0.5467123
C0G820,田尾,2020-04-03,23.9017,120.5094,0.54407835
C0G830,埤頭,2020-04-03,23.866,120.4528,0.43464562
C0G840,北斗,2020-04-03,23.8776,120.5142,0.54407835
C0G860,社頭,2020-04-03,23.8976,120.5862,0.49756223
C0G870,芳苑,2020-04-03,23.9223,120.32,0.60751307
C0G880,二水,2020-04-03,23.8107,120.6173,0.49934795
C0G890,伸港,2020-04-03,24.1489,120.4844,0.08103148
C0G900,線西,2020-04-03,24.1434,120.4435,0.044110876
C0G910,花壇,2020-04-03,24.0321,120.5495,0.4311225
C0G920,永靖,2020-04-03,23.9247,120.5475,0.54407835
C0G940,竹塘,2020-04-03,23.8483,120.3868,0.6345662
C0G950,防潮門,2020-04-03,24.1835,120.4871,0.0840087
C0G960,福寶,2020-04-03,24.0443,120.3814,0.43736026
C0G970,三豐,2020-04-03,23.882,120.2895,0.60751295
C0H890,埔里,2020-04-03,23.9722,120.9524,0.3940639
C0H950,中寮,2020-04-03,23.8844,120.7664,0.3349427
C0H960,草屯,2020-04-03,23.9737,120.6809,0.29395398
C0I110,竹山,2020-04-03,23.7612,120.6882,0.3349349
C0I360,水里,2020-04-03,23.8126,120.8498,0.29106998
C0I380,集集,2020-04-03,23.8282,120.8015,0.28788072
C0I410,名間,2020-04-03,23.8371,120.7014,0.49770164
C0I420,國姓,2020-04-03,24.0378,120.8551,0.12218261
C0I460,南投,2020-04-03,23.9115,120.6873,0.35249642
C0K250,崙背,2020-04-03,23.7555,120.3189,0.7634861
C0K280,四湖,2020-04-03,23.6304,120.2271,0.7112848
C0K291,宜梧,2020-04-03,23.5363,120.1693,0.8209776
C0K330,虎尾,2020-04-03,23.7192,120.442,0.6649511
C0K390,土庫,2020-04-03,23.679,120.3956,0.6691498
C0K400,斗六,2020-04-03,23.7206,120.5411,0.64056313
C0K410,北港,2020-04-03,23.574,120.2928,0.8164166
C0K420,西螺,2020-04-03,23.8004,120.4674,0.5643719
C0K430,褒忠,2020-04-03,23.6909,120.3036,0.8213331
C0K440,二崙,2020-04-03,23.7728,120.4089,0.63119316
C0K450,大埤,2020-04-03,23.6461,120.4315,0.61065537
C0K460,斗南,2020-04-03,23.6787,120.4784,0.64627624
C0K470,林內,2020-04-03,23.7487,120.6096,0.5913356
C0K480,莿桐,2020-04-03,23.7612,120.5024,0.5635403
C0K500,元長,2020-04-03,23.6498,120.315,0.7937208
C0K510,水林,2020-04-03,23.5729,120.246,0.73671085
C0K530,臺西,2020-04-03,23.7015,120.1976,0.6999923
C0K550,蔦松,2020-04-03,23.5143,120.2297,0.81211966
C0K560,棋山,2020-04-03,23.6865,120.6034,0.6704197
C0K580,高鐵雲林,2020-04-03,23.7375,120.4179,0.6691498
C0K590,雲林東勢,2020-04-03,23.6742,120.2557,0.8213331
C0K600,箔子寮,2020-04-03,23.6197,120.14,0.74974996
C0M410,馬頭山,2020-04-03,23.3244,120.582,0.3337136
C0M520,東後寮,2020-04-03,23.3699,120.2481,0.80057406
C0M640,中埔,2020-04-03,23.4254,120.5229,0.61366475
C0M650,朴子,2020-04-03,23.4346,120.239,0.84269387
C0M660,溪口,2020-04-03,23.6041,120.4036,0.6938535
C0M670,大林,2020-04-03,23.6006,120.4584,0.749133
C0M680,太保,2020-04-03,23.4551,120.3315,0.8123656
C0M690,水上,2020-04-03,23.4197,120.3889,0.71762323
C0M700,竹崎,2020-04-03,23.5262,120.5555,0.6589517
C0M710,東石,2020-04-03,23.4589,120.1539,0.81211966
C0M720,番路,2020-04-03,23.4647,120.5542,0.620381
C0M730,嘉義市東區,2020-04-03,23.4577,120.4605,0.79474247
C0M740,六腳,2020-04-03,23.4929,120.2906,0.82101
C0M750,布袋,2020-04-03,23.3809,120.1678,0.84269387
C0M760,民雄,2020-04-03,23.5518,120.4285,0.66396165
C0M770,嘉義梅山,2020-04-03,23.5854,120.5556,0.6597249
C0M780,鹿草,2020-04-03,23.4113,120.3084,0.802159
C0M790,新港,2020-04-03,23.5533,120.3457,0.80827785
C0M800,茶山,2020-04-03,23.2991,120.6648,0.4926918
C0M880,好美里,2020-04-03,23.3364,120.138,0.81201476
C0N010,鯤鯓國小,2020-04-03,23.1879,120.0889,0.86070216
C0N020,城西,2020-04-03,23.0568,120.0956,0.79231054
C0N030,四草,2020-04-03,23.0235,120.1116,0.86817855
C0N040,蘆竹溝,2020-04-03,23.2344,120.0961,0.86070216
C0N050,蚵寮,2020-04-03,23.301,120.1104,0.86070216
C0O810,曾文,2020-04-03,23.2197,120.4973,0.60525954
C0O830,北寮,2020-04-03,23.0796,120.495,0.4437741
C0O840,王爺宮,2020-04-03,23.2221,120.4009,0.60525954
C0O860,大內,2020-04-03,23.1188,120.3608,0.6810901
C0O900,善化,2020-04-03,23.1129,120.2972,0.8349422
C0O930,玉井,2020-04-03,23.126,120.4605,0.77029663
C0O950,安南,2020-04-03,23.0767,120.1449,0.7353407
C0O960,崎頂,2020-04-03,22.9595,120.3693,0.48324516
C0O970,虎頭埤,2020-04-03,23.0214,120.3479,0.86982906
C0O980,新市,2020-04-03,23.0616,120.2982,0.8349422
C0O990,媽廟,2020-04-03,22.9917,120.2935,0.8489255
C0R150,三地門,2020-04-03,22.7099,120.6399,0.7007821
C0R160,鹽埔,2020-04-03,22.7396,120.5308,0.6186023
C0R170,屏東,2020-04-03,22.6603,120.4941,0.8166548
C0R190,赤山,2020-04-03,22.5923,120.6143,0.61950916
C0R220,潮州,2020-04-03,22.5344,120.54,0.6132399
C0R240,來義,2020-04-03,22.5273,120.6251,0.6132207
C0R260,春日,2020-04-03,22.3704,120.6283,0.6400571
C0R270,琉球嶼,2020-04-03,22.3322,120.3622,0.6335332
C0R280,檳榔,2020-04-03,22.0761,120.8368,0.11629208
C0R320,車城,2020-04-03,22.0744,120.7162,0.13120745
C0R341,牡丹,2020-04-03,22.13,120.7926,0.52089506
C0R350,貓鼻頭,2020-04-03,21.9218,120.7358,0.1471079
C0R470,高樹,2020-04-03,22.8264,120.6008,0.67312986
C0R480,長治,2020-04-03,22.6931,120.5426,0.6090622
C0R490,九如,2020-04-03,22.7405,120.4905,0.8132749
C0R520,崁頂,2020-04-03,22.5148,120.5069,0.76655036
C0R540,佳冬,2020-04-03,22.4195,120.5524,0.7716946
C0R550,新埤,2020-04-03,22.4679,120.5829,0.6300382
C0R560,新園,2020-04-03,22.5434,120.4616,0.76655036
C0R570,麟洛,2020-04-03,22.6508,120.5272,0.8132749
C0R580,南州,2020-04-03,22.4859,120.5027,0.7716946
C0R590,里港,2020-04-03,22.7792,120.4946,0.57392377
C0R620,墾雷,2020-04-03,21.9008,120.8553,0.1471079
C0R640,東港,2020-04-03,22.4625,120.4407,0.7848599
C0R650,竹田,2020-04-03,22.5849,120.5434,0.6393601
C0R660,枋寮,2020-04-03,22.3677,120.5906,0.63022757
C0R670,楓港,2020-04-03,22.1901,120.6922,0.71991694
C0R680,佳樂水,2020-04-03,21.9936,120.8616,0.13983752
C0R690,墾丁,2020-04-03,21.9668,120.8103,0.09996584
C0R700,枋山,2020-04-03,22.2468,120.6611,0.71991694
C0R710,龍磐,2020-04-03,21.9317,120.8389,0.15404987
C0R720,旭海,2020-04-03,22.2054,120.8876,0.6556009
C0R730,大坪頂,2020-04-03,22.0246,120.6936,0.16882645
C0R740,獅子,2020-04-03,22.2016,120.7053,0.69449544
C0R760,南仁湖,2020-04-03,22.0847,120.8634,0.059675433
C0R770,保力,2020-04-03,22.0711,120.7641,0.15605363
C0R780,滿州,2020-04-03,22.0244,120.8399,0.15028681
C0R790,九棚,2020-04-03,22.142,120.8893,0.7037688
C0R800,丹路,2020-04-03,22.2045,120.751,0.61798465
C0R810,內獅,2020-04-03,22.3051,120.643,0.67228436
C0R830,高士,2020-04-03,22.1218,120.8368,0.029696103
C0R850,林邊,2020-04-03,22.4634,120.5339,0.76655036
C0R860,鼻頭,2020-04-03,22.1043,120.8979,0.29888275
C0R870,興海,2020-04-03,21.9752,120.8439,0.13983752
C0R880,後壁湖,2020-04-03,21.9457,120.7457,0.12666556
C0R890,山海,2020-04-03,21.9878,120.7091,0.13120745
C0R900,竹坑,2020-04-03,22.1385,120.7022,0.7022083
C0R910,下寮,2020-04-03,22.3929,120.5548,0.7716946
C0R920,塭仔,2020-04-03,22.4169,120.5197,0.776436
C0R930,萬丹,2020-04-03,22.5885,120.4851,0.6393601
C0R940,加祿堂,2020-04-03,22.3363,120.6217,0.67278266
C0S710,鹿野,2020-04-03,22.9177,121.123,0.31795275
C0S730,綠島,2020-04-03,22.6672,121.4753,0.98591864
C0S740,池上,2020-04-03,23.1196,121.2095,0.71449006
C0S770,大溪山,2020-04-03,22.4785,120.9433,0.68678474
C0S790,金崙,2020-04-03,22.5381,120.9669,0.83311677
C0S810,東河,2020-04-03,22.9727,121.304,0.9718887
C0S830,長濱,2020-04-03,23.2868,121.412,0.3811317
C0S840,南田,2020-04-03,22.2797,120.8892,0.67683905
C0S890,關山,2020-04-03,23.0395,121.175,0.967727
C0S900,蘭嶼高中,2020-04-03,22.0491,121.5121,0.5539022
C0S910,蘭嶼燈塔,2020-04-03,22.0812,121.5031,0.46454325
C0S920,金峰嘉蘭,2020-04-03,22.5948,120.9608,0.86905515
C0S930,延平,2020-04-03,22.9026,121.0841,0.9468082
C0S940,石寧山,2020-04-03,23.2238,121.4066,0.8726798
C0S950,七塊厝,2020-04-03,22.9545,121.2299,0.24047579
C0S960,香蘭,2020-04-03,22.5876,120.9934,0.8451694
C0S970,加津林,2020-04-03,22.4162,120.9269,0.38766858
C0S990,山豬窟,2020-04-03,22.3186,120.8574,0.4013944
C0SA00,歷坵,2020-04-03,22.521,120.8919,0.5579762
C0SA10,檳榔四格山,2020-04-03,22.81,121.1093,0.37618816
C0SA30,都歷,2020-04-03,23.0203,121.3236,0.9871448
C0SA40,瑞和,2020-04-03,22.9744,121.1567,0.9737847
C0SA60,知本（水試所）,2020-04-03,22.7024,121.0828,0.82932353
C0SA80,土,2020-04-03,22.4531,120.8876,0.8615886
C0SA90,達仁林場,2020-04-03,22.2643,120.824,0.3372539
C0T870,鯉魚潭,2020-04-03,23.9356,121.5089,0.9785784
C0T900,西林,2020-04-03,23.8119,121.4415,0.97413117
C0T960,光復,2020-04-03,23.6607,121.425,0.9835313
C0T9A0,月眉山,2020-04-03,23.8099,121.5398,0.94177437
C0T9D0,和中,2020-04-03,24.2668,121.741,0.77015704
C0T9E0,大坑,2020-04-03,23.8806,121.582,0.9571188
C0T9F0,水璉,2020-04-03,23.7971,121.5425,0.95996857
C0T9I0,豐濱,2020-04-03,23.5839,121.5148,0.98287475
C0T9M0,靜浦,2020-04-03,23.4552,121.495,0.9746926
C0T9N0,富里,2020-04-03,23.1716,121.2494,0.24682617
C0U600,礁溪,2020-04-03,24.8175,121.7656,0.36242855
C0U650,玉蘭,2020-04-03,24.6753,121.5871,0.076575376
C0U750,龜山島,2020-04-03,24.8417,121.9531,0.031380177
C0U760,東澳,2020-04-03,24.522,121.8332,0.071663365
C0U770,南澳,2020-04-03,24.4493,121.8102,0.1571431
C0U780,五結,2020-04-03,24.6864,121.7979,0.124660775
C0U860,頭城,2020-04-03,24.8532,121.8308,0.3773794
C0U870,大礁溪,2020-04-03,24.791,121.675,0.03312814
C0U880,北關,2020-04-03,24.9072,121.8734,0.30432042
C0U890,三星,2020-04-03,24.6681,121.653,0.27252114
C0U900,內城,2020-04-03,24.7181,121.6877,0.33685932
C0U910,冬山,2020-04-03,24.6337,121.7937,0.124660775
C0U940,羅東,2020-04-03,24.6818,121.7493,0.12660412
C0U970,大福,2020-04-03,24.8006,121.8139,0.385417
C0U990,員山,2020-04-03,24.7444,121.7225,0.12660412
C0UA00,土場,2020-04-03,24.5765,121.4953,0.060170013
C0UA80,大溪漁港,2020-04-03,24.9418,121.903,0.37081847
C0UA90,石城,2020-04-03,24.9804,121.9512,0.20109779
C0UB00,淡江大學蘭陽校園,2020-04-03,24.8232,121.7304,0.023870567
C0UB10,蘇澳,2020-04-03,24.5969,121.8571,0.1471641
C0UB20,壯圍,2020-04-03,24.7359,121.8163,0.12406596
C0V250,甲仙,2020-04-03,23.0801,120.5918,0.2652501
C0V260,月眉,2020-04-03,22.971,120.5399,0.4479946
C0V310,美濃,2020-04-03,22.8987,120.5192,0.81971145
C0V350,溪埔,2020-04-03,22.7386,120.4468,0.7915293
C0V360,內門,2020-04-03,22.9755,120.4668,0.7865435
C0V370,古亭坑,2020-04-03,22.8932,120.4019,0.8578592
C0V400,阿公店,2020-04-03,22.8042,120.3555,0.8340419
C0V440,鳳山,2020-04-03,22.6467,120.3561,0.77143246
C0V450,鳳森,2020-04-03,22.5451,120.3926,0.56705666
C0V490,新興,2020-04-03,22.6274,120.2988,0.78065187
C0V530,阿蓮,2020-04-03,22.8832,120.3275,0.86810005
C0V610,梓官,2020-04-03,22.7606,120.2672,0.8320257
C0V620,永安,2020-04-03,22.8231,120.2369,0.805836
C0V630,茄萣,2020-04-03,22.9066,120.1826,0.8317264
C0V640,湖內,2020-04-03,22.8871,120.2445,0.8293363
C0V650,彌陀,2020-04-03,22.7838,120.2464,0.805836
C0V660,岡山,2020-04-03,22.7971,120.295,0.8320257
C0V680,仁武,2020-04-03,22.7011,120.3477,0.7831086
C0V690,鼓山,2020-04-03,22.6233,120.2756,0.78065187
C0V700,三民,2020-04-03,22.645,120.3112,0.78065187
C0V710,苓雅,2020-04-03,22.6227,120.3307,0.78065175
C0V720,林園,2020-04-03,22.5077,120.3945,0.78065187
C0V730,大寮,2020-04-03,22.6056,120.3957,0.61033195
C0V740,旗山,2020-04-03,22.8886,120.4836,0.8158194
C0V750,路竹,2020-04-03,22.855,120.2594,0.8540514
C0V760,橋頭,2020-04-03,22.7578,120.3058,0.82975334
C0V770,大社,2020-04-03,22.7303,120.3466,0.78310835
C0V790,萬山,2020-04-03,22.9059,120.6881,0.40086383
C0V800,六龜,2020-04-03,22.9979,120.6336,0.491137
C0V810,左營,2020-04-03,22.6749,120.2849,0.78830415
C0V820,小林,2020-04-03,23.1484,120.6333,0.4206305
C0V840,鳳鼻頭,2020-04-03,22.5083,120.3591,0.7848599
C0V850,蚵仔寮,2020-04-03,22.7256,120.2527,0.79101676
C0V860,南寮,2020-04-03,22.7616,120.2339,0.80798477
C0V870,文安,2020-04-03,22.8025,120.2164,0.80798477
C0V880,興達,2020-04-03,22.8778,120.2127,0.8317264
C0V890,前鎮,2020-04-03,22.5718,120.3117,0.7848599
C0V900,汕尾,2020-04-03,22.4782,120.4151,0.8077926
C0X050,東河,2020-04-03,23.2966,120.3856,0.78374857
C0X060,下營,2020-04-03,23.2269,120.2563,0.84751153
C0X080,佳里,2020-04-03,23.173,120.1451,0.81201476
C0X100,臺南市北區,2020-04-03,23.0104,120.1942,0.8136764
C0X110,臺南市南區,2020-04-03,22.9612,120.1884,0.8107971
C0X120,麻豆,2020-04-03,23.1833,120.2486,0.80412024
C0X130,官田,2020-04-03,23.1932,120.3154,0.8362719
C0X140,西港,2020-04-03,23.1256,120.2031,0.8311228
C0X150,安定,2020-04-03,23.1026,120.2278,0.78265625
C0X160,仁德,2020-04-03,22.9683,120.2577,0.85159403
C0X170,關廟,2020-04-03,22.963,120.3278,0.8397381
C0X180,山上,2020-04-03,23.0757,120.3633,0.70860237
C0X190,安平,2020-04-03,22.9932,120.1522,0.8136764
C0X200,左鎮,2020-04-03,23.0568,120.4085,0.72040325
C0X210,白河,2020-04-03,23.3475,120.4144,0.76454693
C0X220,學甲,2020-04-03,23.2304,120.1822,0.80412024
C0X230,鹽水,2020-04-03,23.2726,120.2476,0.80964214
C0X240,關子嶺,2020-04-03,23.3312,120.508,0.35551217
C0X250,新營,2020-04-03,23.3107,120.3167,0.8182306
C0X260,後壁,2020-04-03,23.3664,120.3623,0.72828907
C0X280,將軍,2020-04-03,23.215,120.1358,0.81201476
C0X290,北門,2020-04-03,23.2678,120.1255,0.81201476
C0X300,鹿寮,2020-04-03,23.386,120.4773,0.59657747
C0X310,七股,2020-04-03,23.1473,120.0863,0.8562672
C0X320,柳營,2020-04-03,23.2533,120.3753,0.77235997
C0Z020,明里,2020-04-03,23.2087,121.2623,0.52730775
C0Z061,玉里,2020-04-03,23.3215,121.3397,0.88752216
C0Z070,舞鶴,2020-04-03,23.4681,121.3741,0.98601896
C0Z080,富源,2020-04-03,23.5876,121.3782,0.98629975
C0Z100,東華,2020-04-03,23.8953,121.5498,0.98112696
C0Z150,吉安光華,2020-04-03,23.9309,121.5952,0.97890025
C0Z160,鳳林,2020-04-03,23.7461,121.4534,0.98337084
C0Z170,卓溪,2020-04-03,23.3443,121.3029,0.8169253
C0Z180,新城,2020-04-03,24.0395,121.6045,0.98627937
C0Z190,富世,2020-04-03,24.1474,121.6297,0.43374243
C0Z200,萬榮,2020-04-03,23.7092,121.4201,0.9785784
C0Z210,瑞穗,2020-04-03,23.5239,121.3902,0.98129517
C0Z230,和平,2020-04-03,24.3072,121.7701,0.77015704
C0Z270,蕃薯寮,2020-04-03,23.7384,121.5401,0.97862583
C0Z280,德武,2020-04-03,23.4743,121.4107,0.9807421
C0Z300,東里,2020-04-03,23.2685,121.3055,0.85658497
C0Z310,清水斷崖,2020-04-03,24.2183,121.6891,0.70347714
C0Z330,安通山,2020-04-03,23.2907,121.3485,0.22792701
