站號,站名,日期,lat,lon,BlastGRU-TW
466881,新北,2020-10-29,24.9593,121.52,0.2665953
466900,淡水,2020-10-29,25.1649,121.4489,0.0654066
466920,臺北,2020-10-29,25.0377,121.5149,0.2520415
466940,基隆,2020-10-29,25.1333,121.7405,0.11541871
466990,花蓮,2020-10-29,23.9751,121.6133,0.92277116
467050,新屋,2020-10-29,25.0067,121.0475,0.013582841
467080,宜蘭,2020-10-29,24.764,121.7565,0.5794339
467270,田中,2020-10-29,23.8738,120.5813,0.8715716
467300,東吉島,2020-10-29,23.2569,119.6675,0.3808782
467350,澎湖,2020-10-29,23.5655,119.5631,0.0012153486
467410,臺南,2020-10-29,22.9932,120.2048,0.20943661
467420,永康,2020-10-29,23.0384,120.2367,0.1904821
467441,高雄,2020-10-29,22.7304,120.3125,0.41835195
467480,嘉義,2020-10-29,23.4959,120.4329,0.7480966
467490,臺中,2020-10-29,24.1457,120.6841,0.47224754
467540,大武,2020-10-29,22.3557,120.9038,0.011841644
467571,新竹,2020-10-29,24.8279,121.0142,0.011332383
467590,恆春,2020-10-29,22.0039,120.7463,0.0025345485
467610,成功,2020-10-29,23.0975,121.3734,0.36562335
467620,蘭嶼,2020-10-29,22.037,121.5583,0.327894
467660,臺東,2020-10-29,22.7522,121.1546,0.44535384
467790,墾丁雷達站,2020-10-29,21.9482,120.808,0.0026761985
C0A520,山佳,2020-10-29,24.9749,121.402,0.18896072
C0A530,坪林,2020-10-29,24.9382,121.7097,0.8232714
C0A540,四堵,2020-10-29,24.8926,121.7457,0.6184961
C0A550,泰平,2020-10-29,24.9712,121.8237,0.24936315
C0A560,福山,2020-10-29,24.7762,121.5028,0.11277482
C0A570,桶後,2020-10-29,24.8482,121.598,0.63571084
C0A640,石碇,2020-10-29,24.994,121.6629,0.819861
C0A650,火燒寮,2020-10-29,25.0027,121.7429,0.8304251
C0A660,瑞芳,2020-10-29,25.1132,121.8011,0.7889655
C0A770,科教館,2020-10-29,25.0964,121.5165,0.163484
C0A860,大坪,2020-10-29,25.1659,121.633,0.4963963
C0A880,福隆,2020-10-29,25.0178,121.9421,0.66356283
C0A890,雙溪,2020-10-29,25.036,121.8642,0.14903562
C0A920,富貴角,2020-10-29,25.2638,121.5653,0.18313988
C0A931,三和,2020-10-29,25.2332,121.5952,0.83049804
C0A940,金山,2020-10-29,25.2236,121.644,0.10098773
C0A950,鼻頭角,2020-10-29,25.129,121.9234,0.64034045
C0A970,三貂角,2020-10-29,25.0076,122.0021,0.7796155
C0A980,社子,2020-10-29,25.1095,121.4697,0.15605819
C0A9C0,天母,2020-10-29,25.1175,121.5372,0.17995389
C0A9F0,內湖,2020-10-29,25.0794,121.5755,0.2520415
C0AC60,三峽,2020-10-29,24.939,121.3697,0.27319077
C0AC70,信義,2020-10-29,25.0378,121.5646,0.2520415
C0AC80,文山,2020-10-29,25.0023,121.5757,0.28779107
C0ACA0,新莊,2020-10-29,25.0515,121.4468,0.07646032
C0AD00,三芝,2020-10-29,25.2581,121.5019,0.10750654
C0AD10,八里,2020-10-29,25.1502,121.4039,0.0654066
C0AD30,蘆洲,2020-10-29,25.0866,121.4723,0.163484
C0AD40,土城,2020-10-29,24.9732,121.4452,0.17175911
C0AD50,鶯歌,2020-10-29,24.9515,121.3463,0.096101
C0AG80,中和,2020-10-29,24.9916,121.4918,0.2520415
C0AH00,汐止,2020-10-29,25.0669,121.6588,0.122436926
C0AH10,永和,2020-10-29,25.0113,121.5081,0.24404435
C0AH40,平等,2020-10-29,25.1291,121.5771,0.58999944
C0AH50,林口,2020-10-29,25.0722,121.3808,0.60795736
C0AH70,松山,2020-10-29,25.0487,121.5504,0.2520415
C0AH80,深坑,2020-10-29,25.0027,121.6283,0.28120148
C0AI00,五股,2020-10-29,25.0744,121.4273,0.018189596
C0AI10,屈尺,2020-10-29,24.9218,121.5447,0.28779107
C0AI20,白沙灣,2020-10-29,25.2831,121.5191,0.095108606
C0AI30,三重,2020-10-29,25.0573,121.5006,0.163484
C0AI40,石牌,2020-10-29,25.1156,121.5131,0.17175911
C0AJ20,野柳,2020-10-29,25.207,121.69,0.122436926
C0AJ30,淡水觀海,2020-10-29,25.1846,121.4086,0.06164614
C0AJ40,石門,2020-10-29,25.2737,121.6012,0.08671026
C0AJ50,水湳洞,2020-10-29,25.1237,121.8622,0.122436926
C0AJ60,六塊厝,2020-10-29,25.24,121.4481,0.06164614
C0AJ70,田寮,2020-10-29,25.2698,121.4886,0.09196156
C0AJ80,板橋,2020-10-29,25.0107,121.4489,0.17175902
C0AJ90,澳底,2020-10-29,25.0552,121.9253,0.66356283
C0B010,七堵,2020-10-29,25.0948,121.7171,0.13524278
C0B020,基隆嶼,2020-10-29,25.1914,121.7839,0.122436926
C0B040,大武崙,2020-10-29,25.1667,121.707,0.13524278
C0B050,八斗子,2020-10-29,25.1448,121.7917,0.10870991
C0B060,暖暖,2020-10-29,25.0957,121.7403,0.17186657
C0C460,復興,2020-10-29,24.8202,121.3523,0.5254101
C0C480,桃園,2020-10-29,24.9924,121.3232,0.018569682
C0C490,八德,2020-10-29,24.9287,121.2833,0.039992537
C0C590,觀音,2020-10-29,25.0271,121.1533,0.061229456
C0C620,蘆竹,2020-10-29,25.0843,121.2658,0.071234465
C0C630,大溪,2020-10-29,24.8829,121.2655,0.04004048
C0C650,平鎮,2020-10-29,24.8975,121.2146,0.011226058
C0C660,楊梅,2020-10-29,24.9124,121.143,0.0078096455
C0C670,龍潭,2020-10-29,24.8701,121.2214,0.037097972
C0C680,龜山,2020-10-29,25.0285,121.3866,0.5546175
C0C700,中壢,2020-10-29,24.9777,121.2564,0.016411828
C0C710,大溪永福,2020-10-29,24.8929,121.325,0.01641801
C0C720,竹圍,2020-10-29,25.1127,121.2398,0.0654066
C0C730,中大臨海站,2020-10-29,24.9661,121.0086,0.012902673
C0C740,觀音工業區,2020-10-29,25.0648,121.1149,0.0106421085
C0C750,新興坑尾,2020-10-29,25.0061,121.0971,0.007910543
C0D430,峨眉,2020-10-29,24.6905,121.0172,0.009724475
C0D480,打鐵坑,2020-10-29,24.8497,121.1508,0.0664847
C0D540,橫山,2020-10-29,24.7112,121.1169,0.0111156
C0D560,竹東,2020-10-29,24.7671,121.0579,0.012514283
C0D580,寶山,2020-10-29,24.735,121.0252,0.027062511
C0D590,新豐,2020-10-29,24.8707,120.9772,0.037460335
C0D650,湖口,2020-10-29,24.9048,121.0436,0.014715522
C0D660,新竹市東區,2020-10-29,24.7987,120.9869,0.011127595
C0D670,海天一線,2020-10-29,24.832,120.9144,0.008926929
C0D680,香山濕地,2020-10-29,24.7836,120.915,0.008829723
C0D690,外湖,2020-10-29,24.9177,120.9687,0.013086559
C0D700,關西,2020-10-29,24.7977,121.1732,0.015931131
C0E420,竹南,2020-10-29,24.709,120.8889,0.008235074
C0E430,南庄,2020-10-29,24.6018,121.0002,0.017592246
C0E520,大湖,2020-10-29,24.4149,120.8709,0.09751876
C0E540,後龍,2020-10-29,24.6065,120.7839,0.13950951
C0E550,明德,2020-10-29,24.5835,120.8854,0.09177862
C0E590,通霄,2020-10-29,24.4719,120.7046,0.31147543
C0E730,頭份,2020-10-29,24.6882,120.9122,0.008235077
C0E740,造橋,2020-10-29,24.6371,120.8648,0.13018446
C0E750,苗栗,2020-10-29,24.5646,120.8246,0.06700798
C0E780,銅鑼,2020-10-29,24.4897,120.7909,0.16606757
C0E791,卓蘭,2020-10-29,24.3126,120.8244,0.43436533
C0E810,西湖,2020-10-29,24.5629,120.7485,0.092126206
C0E820,獅潭,2020-10-29,24.5391,120.92,0.10124999
C0E830,苑裡,2020-10-29,24.4397,120.6531,0.42410615
C0E850,大河,2020-10-29,24.6181,120.9486,0.0788185
C0E870,高鐵苗栗,2020-10-29,24.6073,120.8261,0.12298195
C0E910,海埔,2020-10-29,24.6488,120.7724,0.13398607
C0E920,通霄漁港,2020-10-29,24.4986,120.6739,0.36504087
C0E930,龍鳳,2020-10-29,24.7,120.8591,0.14057691
C0F000,大肚,2020-10-29,24.153,120.5721,0.1276763
C0F0B0,石岡,2020-10-29,24.2761,120.7776,0.43508413
C0F850,東勢,2020-10-29,24.2464,120.833,0.31997302
C0F930,大甲,2020-10-29,24.3477,120.6404,0.43848237
C0F970,大坑,2020-10-29,24.1731,120.7223,0.3723136
C0F9A0,中竹林,2020-10-29,24.1036,120.7511,0.06801996
C0F9I0,神岡,2020-10-29,24.2725,120.6583,0.40800047
C0F9K0,大安,2020-10-29,24.3451,120.588,0.52285665
C0F9L0,后里,2020-10-29,24.3104,120.7297,0.34965292
C0F9M0,豐原,2020-10-29,24.2543,120.7207,0.3809082
C0F9N0,大里,2020-10-29,24.0925,120.7014,0.5622889
C0F9O0,潭子,2020-10-29,24.2131,120.7039,0.3447956
C0F9P0,清水,2020-10-29,24.3123,120.5622,0.54244834
C0F9Q0,外埔,2020-10-29,24.3478,120.7057,0.43906444
C0F9R0,龍井,2020-10-29,24.1845,120.529,0.5282163
C0F9S0,烏日,2020-10-29,24.1071,120.6241,0.62980485
C0F9T0,西屯,2020-10-29,24.1795,120.6413,0.44773972
C0F9U0,南屯,2020-10-29,24.137,120.638,0.5622889
C0F9X0,大雅(中科園區),2020-10-29,24.2153,120.6244,0.36983314
C0FA10,松柏,2020-10-29,24.4291,120.6175,0.4489861
C0FA20,溫寮,2020-10-29,24.3722,120.5831,0.4479681
C0FA30,梧棲,2020-10-29,24.256,120.5234,0.5282163
C0FA40,臺中電廠,2020-10-29,24.2146,120.4907,0.5282163
C0FA50,霧峰,2020-10-29,24.0419,120.6995,0.52354527
C0G620,芬園,2020-10-29,24.0157,120.6213,0.5813329
C0G640,鹿港,2020-10-29,24.0753,120.4305,0.62131965
C0G650,員林,2020-10-29,23.9465,120.5856,0.6817722
C0G660,溪湖,2020-10-29,23.9484,120.4791,0.7165726
C0G720,溪州,2020-10-29,23.8516,120.4991,0.85049784
C0G730,二林,2020-10-29,23.9033,120.3761,0.71283036
C0G740,大城,2020-10-29,23.8525,120.3209,0.73518974
C0G770,福興,2020-10-29,24.0413,120.4377,0.62131965
C0G780,秀水,2020-10-29,24.0341,120.5039,0.65752864
C0G800,埔鹽,2020-10-29,24.0004,120.4317,0.62131965
C0G810,埔心,2020-10-29,23.9476,120.5255,0.7099241
C0G820,田尾,2020-10-29,23.9017,120.5094,0.70245284
C0G830,埤頭,2020-10-29,23.866,120.4528,0.87289715
C0G840,北斗,2020-10-29,23.8776,120.5142,0.70245284
C0G860,社頭,2020-10-29,23.8976,120.5862,0.6749086
C0G870,芳苑,2020-10-29,23.9223,120.32,0.74188894
C0G880,二水,2020-10-29,23.8107,120.6173,0.81293607
C0G890,伸港,2020-10-29,24.1489,120.4844,0.5601821
C0G900,線西,2020-10-29,24.1434,120.4435,0.55634767
C0G910,花壇,2020-10-29,24.0321,120.5495,0.6494351
C0G920,永靖,2020-10-29,23.9247,120.5475,0.70245284
C0G940,竹塘,2020-10-29,23.8483,120.3868,0.870793
C0G950,防潮門,2020-10-29,24.1835,120.4871,0.53804725
C0G960,福寶,2020-10-29,24.0443,120.3814,0.62645394
C0G970,三豐,2020-10-29,23.882,120.2895,0.74188894
C0H890,埔里,2020-10-29,23.9722,120.9524,0.4522176
C0H950,中寮,2020-10-29,23.8844,120.7664,0.49182642
C0H960,草屯,2020-10-29,23.9737,120.6809,0.7620767
C0I110,竹山,2020-10-29,23.7612,120.6882,0.5797074
C0I360,水里,2020-10-29,23.8126,120.8498,0.7868085
C0I380,集集,2020-10-29,23.8282,120.8015,0.80453664
C0I410,名間,2020-10-29,23.8371,120.7014,0.7885272
C0I420,國姓,2020-10-29,24.0378,120.8551,0.4832336
C0I460,南投,2020-10-29,23.9115,120.6873,0.8205312
C0K250,崙背,2020-10-29,23.7555,120.3189,0.7771805
C0K280,四湖,2020-10-29,23.6304,120.2271,0.77893305
C0K291,宜梧,2020-10-29,23.5363,120.1693,0.8393977
C0K330,虎尾,2020-10-29,23.7192,120.442,0.8422153
C0K390,土庫,2020-10-29,23.679,120.3956,0.8336561
C0K400,斗六,2020-10-29,23.7206,120.5411,0.84865963
C0K410,北港,2020-10-29,23.574,120.2928,0.8487538
C0K420,西螺,2020-10-29,23.8004,120.4674,0.8466766
C0K430,褒忠,2020-10-29,23.6909,120.3036,0.8185069
C0K440,二崙,2020-10-29,23.7728,120.4089,0.8719146
C0K450,大埤,2020-10-29,23.6461,120.4315,0.8494878
C0K460,斗南,2020-10-29,23.6787,120.4784,0.830583
C0K470,林內,2020-10-29,23.7487,120.6096,0.86827016
C0K480,莿桐,2020-10-29,23.7612,120.5024,0.83749557
C0K500,元長,2020-10-29,23.6498,120.315,0.8126741
C0K510,水林,2020-10-29,23.5729,120.246,0.84190357
C0K530,臺西,2020-10-29,23.7015,120.1976,0.7808233
C0K550,蔦松,2020-10-29,23.5143,120.2297,0.84088016
C0K560,棋山,2020-10-29,23.6865,120.6034,0.8165556
C0K580,高鐵雲林,2020-10-29,23.7375,120.4179,0.833656
C0K590,雲林東勢,2020-10-29,23.6742,120.2557,0.8185069
C0K600,箔子寮,2020-10-29,23.6197,120.14,0.8427647
C0M410,馬頭山,2020-10-29,23.3244,120.582,0.7579961
C0M520,東後寮,2020-10-29,23.3699,120.2481,0.6831994
C0M640,中埔,2020-10-29,23.4254,120.5229,0.7844763
C0M650,朴子,2020-10-29,23.4346,120.239,0.8426667
C0M660,溪口,2020-10-29,23.6041,120.4036,0.8059782
C0M670,大林,2020-10-29,23.6006,120.4584,0.7873356
C0M680,太保,2020-10-29,23.4551,120.3315,0.85093725
C0M690,水上,2020-10-29,23.4197,120.3889,0.7161102
C0M700,竹崎,2020-10-29,23.5262,120.5555,0.6855356
C0M710,東石,2020-10-29,23.4589,120.1539,0.84088016
C0M720,番路,2020-10-29,23.4647,120.5542,0.56127036
C0M730,嘉義市東區,2020-10-29,23.4577,120.4605,0.7572591
C0M740,六腳,2020-10-29,23.4929,120.2906,0.8476709
C0M750,布袋,2020-10-29,23.3809,120.1678,0.8426667
C0M760,民雄,2020-10-29,23.5518,120.4285,0.7936285
C0M770,嘉義梅山,2020-10-29,23.5854,120.5556,0.839381
C0M780,鹿草,2020-10-29,23.4113,120.3084,0.8550861
C0M790,新港,2020-10-29,23.5533,120.3457,0.84925646
C0M800,茶山,2020-10-29,23.2991,120.6648,0.91290563
C0M880,好美里,2020-10-29,23.3364,120.138,0.56208783
C0N010,鯤鯓國小,2020-10-29,23.1879,120.0889,0.7573013
C0N020,城西,2020-10-29,23.0568,120.0956,0.3269791
C0N030,四草,2020-10-29,23.0235,120.1116,0.07824641
C0N040,蘆竹溝,2020-10-29,23.2344,120.0961,0.7567162
C0N050,蚵寮,2020-10-29,23.301,120.1104,0.7567162
C0O810,曾文,2020-10-29,23.2197,120.4973,0.6245954
C0O830,北寮,2020-10-29,23.0796,120.495,0.26503
C0O840,王爺宮,2020-10-29,23.2221,120.4009,0.6245954
C0O860,大內,2020-10-29,23.1188,120.3608,0.60911447
C0O900,善化,2020-10-29,23.1129,120.2972,0.39942136
C0O930,玉井,2020-10-29,23.126,120.4605,0.86927986
C0O950,安南,2020-10-29,23.0767,120.1449,0.30199337
C0O960,崎頂,2020-10-29,22.9595,120.3693,0.31816563
C0O970,虎頭埤,2020-10-29,23.0214,120.3479,0.51908684
C0O980,新市,2020-10-29,23.0616,120.2982,0.3994211
C0O990,媽廟,2020-10-29,22.9917,120.2935,0.34788245
C0R150,三地門,2020-10-29,22.7099,120.6399,0.15465665
C0R160,鹽埔,2020-10-29,22.7396,120.5308,0.17196822
C0R170,屏東,2020-10-29,22.6603,120.4941,0.43396887
C0R190,赤山,2020-10-29,22.5923,120.6143,0.18000774
C0R220,潮州,2020-10-29,22.5344,120.54,0.16014773
C0R240,來義,2020-10-29,22.5273,120.6251,0.22130786
C0R260,春日,2020-10-29,22.3704,120.6283,0.2308326
C0R270,琉球嶼,2020-10-29,22.3322,120.3622,0.22613023
C0R280,檳榔,2020-10-29,22.0761,120.8368,0.0040841657
C0R320,車城,2020-10-29,22.0744,120.7162,0.002409823
C0R341,牡丹,2020-10-29,22.13,120.7926,0.21391834
C0R350,貓鼻頭,2020-10-29,21.9218,120.7358,0.0025772967
C0R470,高樹,2020-10-29,22.8264,120.6008,0.16146313
C0R480,長治,2020-10-29,22.6931,120.5426,0.16605951
C0R490,九如,2020-10-29,22.7405,120.4905,0.42818812
C0R520,崁頂,2020-10-29,22.5148,120.5069,0.2716337
C0R540,佳冬,2020-10-29,22.4195,120.5524,0.27618527
C0R550,新埤,2020-10-29,22.4679,120.5829,0.1843687
C0R560,新園,2020-10-29,22.5434,120.4616,0.2716337
C0R570,麟洛,2020-10-29,22.6508,120.5272,0.42818812
C0R580,南州,2020-10-29,22.4859,120.5027,0.27618527
C0R590,里港,2020-10-29,22.7792,120.4946,0.18740736
C0R620,墾雷,2020-10-29,21.9008,120.8553,0.0025772967
C0R640,東港,2020-10-29,22.4625,120.4407,0.46430132
C0R650,竹田,2020-10-29,22.5849,120.5434,0.19051953
C0R660,枋寮,2020-10-29,22.3677,120.5906,0.16744813
C0R670,楓港,2020-10-29,22.1901,120.6922,0.24553108
C0R680,佳樂水,2020-10-29,21.9936,120.8616,0.0024916087
C0R690,墾丁,2020-10-29,21.9668,120.8103,0.004443424
C0R700,枋山,2020-10-29,22.2468,120.6611,0.24553108
C0R710,龍磐,2020-10-29,21.9317,120.8389,0.0031592175
C0R720,旭海,2020-10-29,22.2054,120.8876,0.09864225
C0R730,大坪頂,2020-10-29,22.0246,120.6936,0.003055681
C0R740,獅子,2020-10-29,22.2016,120.7053,0.23706158
C0R760,南仁湖,2020-10-29,22.0847,120.8634,0.007285659
C0R770,保力,2020-10-29,22.0711,120.7641,0.00286776
C0R780,滿州,2020-10-29,22.0244,120.8399,0.002626921
C0R790,九棚,2020-10-29,22.142,120.8893,0.07830282
C0R800,丹路,2020-10-29,22.2045,120.751,0.20527996
C0R810,內獅,2020-10-29,22.3051,120.643,0.2461364
C0R830,高士,2020-10-29,22.1218,120.8368,0.009755077
C0R850,林邊,2020-10-29,22.4634,120.5339,0.2716337
C0R860,鼻頭,2020-10-29,22.1043,120.8979,0.00555737
C0R870,興海,2020-10-29,21.9752,120.8439,0.0024840517
C0R880,後壁湖,2020-10-29,21.9457,120.7457,0.0023776928
C0R890,山海,2020-10-29,21.9878,120.7091,0.002409823
C0R900,竹坑,2020-10-29,22.1385,120.7022,0.28447634
C0R910,下寮,2020-10-29,22.3929,120.5548,0.27618527
C0R920,塭仔,2020-10-29,22.4169,120.5197,0.27821872
C0R930,萬丹,2020-10-29,22.5885,120.4851,0.19051953
C0R940,加祿堂,2020-10-29,22.3363,120.6217,0.2461364
C0S710,鹿野,2020-10-29,22.9177,121.123,0.4450572
C0S730,綠島,2020-10-29,22.6672,121.4753,0.43585226
C0S740,池上,2020-10-29,23.1196,121.2095,0.6301428
C0S770,大溪山,2020-10-29,22.4785,120.9433,0.3742731
C0S790,金崙,2020-10-29,22.5381,120.9669,0.29268506
C0S810,東河,2020-10-29,22.9727,121.304,0.48690313
C0S830,長濱,2020-10-29,23.2868,121.412,0.6497269
C0S840,南田,2020-10-29,22.2797,120.8892,0.020027822
C0S890,關山,2020-10-29,23.0395,121.175,0.4262836
C0S900,蘭嶼高中,2020-10-29,22.0491,121.5121,0.0061172387
C0S910,蘭嶼燈塔,2020-10-29,22.0812,121.5031,0.04965636
C0S920,金峰嘉蘭,2020-10-29,22.5948,120.9608,0.0819491
C0S930,延平,2020-10-29,22.9026,121.0841,0.38453642
C0S940,石寧山,2020-10-29,23.2238,121.4066,0.46528313
C0S950,七塊厝,2020-10-29,22.9545,121.2299,0.40438765
C0S960,香蘭,2020-10-29,22.5876,120.9934,0.029016385
C0S970,加津林,2020-10-29,22.4162,120.9269,0.012492935
C0S990,山豬窟,2020-10-29,22.3186,120.8574,0.11783401
C0SA00,歷坵,2020-10-29,22.521,120.8919,0.37560454
C0SA10,檳榔四格山,2020-10-29,22.81,121.1093,0.33064198
C0SA30,都歷,2020-10-29,23.0203,121.3236,0.42120352
C0SA40,瑞和,2020-10-29,22.9744,121.1567,0.42833012
C0SA60,知本（水試所）,2020-10-29,22.7024,121.0828,0.15975733
C0SA80,土,2020-10-29,22.4531,120.8876,0.14342593
C0SA90,達仁林場,2020-10-29,22.2643,120.824,0.06518689
C0T870,鯉魚潭,2020-10-29,23.9356,121.5089,0.9315235
C0T900,西林,2020-10-29,23.8119,121.4415,0.92398345
C0T960,光復,2020-10-29,23.6607,121.425,0.946874
C0T9A0,月眉山,2020-10-29,23.8099,121.5398,0.7569938
C0T9D0,和中,2020-10-29,24.2668,121.741,0.0015482857
C0T9E0,大坑,2020-10-29,23.8806,121.582,0.8329616
C0T9F0,水璉,2020-10-29,23.7971,121.5425,0.8565755
C0T9I0,豐濱,2020-10-29,23.5839,121.5148,0.95921856
C0T9M0,靜浦,2020-10-29,23.4552,121.495,0.9477686
C0T9N0,富里,2020-10-29,23.1716,121.2494,0.60004795
C0U600,礁溪,2020-10-29,24.8175,121.7656,0.60865194
C0U650,玉蘭,2020-10-29,24.6753,121.5871,0.019475374
C0U750,龜山島,2020-10-29,24.8417,121.9531,0.11097731
C0U760,東澳,2020-10-29,24.522,121.8332,0.0045820978
C0U770,南澳,2020-10-29,24.4493,121.8102,0.0022625197
C0U780,五結,2020-10-29,24.6864,121.7979,0.10697549
C0U860,頭城,2020-10-29,24.8532,121.8308,0.57943374
C0U870,大礁溪,2020-10-29,24.791,121.675,0.18060271
C0U880,北關,2020-10-29,24.9072,121.8734,0.32482925
C0U890,三星,2020-10-29,24.6681,121.653,0.76747847
C0U900,內城,2020-10-29,24.7181,121.6877,0.68495435
C0U910,冬山,2020-10-29,24.6337,121.7937,0.10697549
C0U940,羅東,2020-10-29,24.6818,121.7493,0.14088014
C0U970,大福,2020-10-29,24.8006,121.8139,0.550482
C0U990,員山,2020-10-29,24.7444,121.7225,0.14088014
C0UA00,土場,2020-10-29,24.5765,121.4953,0.12518214
C0UA80,大溪漁港,2020-10-29,24.9418,121.903,0.6086524
C0UA90,石城,2020-10-29,24.9804,121.9512,0.68670493
C0UB00,淡江大學蘭陽校園,2020-10-29,24.8232,121.7304,0.22195272
C0UB10,蘇澳,2020-10-29,24.5969,121.8571,0.0034145277
C0UB20,壯圍,2020-10-29,24.7359,121.8163,0.083449215
C0V250,甲仙,2020-10-29,23.0801,120.5918,0.4396608
C0V260,月眉,2020-10-29,22.971,120.5399,0.2621035
C0V310,美濃,2020-10-29,22.8987,120.5192,0.81112856
C0V350,溪埔,2020-10-29,22.7386,120.4468,0.53568166
C0V360,內門,2020-10-29,22.9755,120.4668,0.795841
C0V370,古亭坑,2020-10-29,22.8932,120.4019,0.8255883
C0V400,阿公店,2020-10-29,22.8042,120.3555,0.5924374
C0V440,鳳山,2020-10-29,22.6467,120.3561,0.46696743
C0V450,鳳森,2020-10-29,22.5451,120.3926,0.2924057
C0V490,新興,2020-10-29,22.6274,120.2988,0.46624503
C0V530,阿蓮,2020-10-29,22.8832,120.3275,0.15972418
C0V610,梓官,2020-10-29,22.7606,120.2672,0.3069815
C0V620,永安,2020-10-29,22.8231,120.2369,0.23904209
C0V630,茄萣,2020-10-29,22.9066,120.1826,0.10445963
C0V640,湖內,2020-10-29,22.8871,120.2445,0.11564336
C0V650,彌陀,2020-10-29,22.7838,120.2464,0.23904209
C0V660,岡山,2020-10-29,22.7971,120.295,0.30698168
C0V680,仁武,2020-10-29,22.7011,120.3477,0.43781477
C0V690,鼓山,2020-10-29,22.6233,120.2756,0.46624503
C0V700,三民,2020-10-29,22.645,120.3112,0.46624503
C0V710,苓雅,2020-10-29,22.6227,120.3307,0.46624503
C0V720,林園,2020-10-29,22.5077,120.3945,0.46624503
C0V730,大寮,2020-10-29,22.6056,120.3957,0.31059727
C0V740,旗山,2020-10-29,22.8886,120.4836,0.8074116
C0V750,路竹,2020-10-29,22.855,120.2594,0.26037788
C0V760,橋頭,2020-10-29,22.7578,120.3058,0.3287775
C0V770,大社,2020-10-29,22.7303,120.3466,0.43781477
C0V790,萬山,2020-10-29,22.9059,120.6881,0.8587473
C0V800,六龜,2020-10-29,22.9979,120.6336,0.19285752
C0V810,左營,2020-10-29,22.6749,120.2849,0.41835195
C0V820,小林,2020-10-29,23.1484,120.6333,0.86806995
C0V840,鳳鼻頭,2020-10-29,22.5083,120.3591,0.46430132
C0V850,蚵仔寮,2020-10-29,22.7256,120.2527,0.40009388
C0V860,南寮,2020-10-29,22.7616,120.2339,0.22065215
C0V870,文安,2020-10-29,22.8025,120.2164,0.22065215
C0V880,興達,2020-10-29,22.8778,120.2127,0.10445963
C0V890,前鎮,2020-10-29,22.5718,120.3117,0.46430132
C0V900,汕尾,2020-10-29,22.4782,120.4151,0.41021535
C0X050,東河,2020-10-29,23.2966,120.3856,0.84120995
C0X060,下營,2020-10-29,23.2269,120.2563,0.66166174
C0X080,佳里,2020-10-29,23.173,120.1451,0.56208783
C0X100,臺南市北區,2020-10-29,23.0104,120.1942,0.1734787
C0X110,臺南市南區,2020-10-29,22.9612,120.1884,0.1904821
C0X120,麻豆,2020-10-29,23.1833,120.2486,0.5839732
C0X130,官田,2020-10-29,23.1932,120.3154,0.6851445
C0X140,西港,2020-10-29,23.1256,120.2031,0.39302248
C0X150,安定,2020-10-29,23.1026,120.2278,0.3174215
C0X160,仁德,2020-10-29,22.9683,120.2577,0.3188649
C0X170,關廟,2020-10-29,22.963,120.3278,0.4325222
C0X180,山上,2020-10-29,23.0757,120.3633,0.7915567
C0X190,安平,2020-10-29,22.9932,120.1522,0.1734787
C0X200,左鎮,2020-10-29,23.0568,120.4085,0.7952409
C0X210,白河,2020-10-29,23.3475,120.4144,0.821826
C0X220,學甲,2020-10-29,23.2304,120.1822,0.58397377
C0X230,鹽水,2020-10-29,23.2726,120.2476,0.64633024
C0X240,關子嶺,2020-10-29,23.3312,120.508,0.39359233
C0X250,新營,2020-10-29,23.3107,120.3167,0.69097525
C0X260,後壁,2020-10-29,23.3664,120.3623,0.75218284
C0X280,將軍,2020-10-29,23.215,120.1358,0.5640356
C0X290,北門,2020-10-29,23.2678,120.1255,0.56208783
C0X300,鹿寮,2020-10-29,23.386,120.4773,0.83591646
C0X310,七股,2020-10-29,23.1473,120.0863,0.43106067
C0X320,柳營,2020-10-29,23.2533,120.3753,0.8326626
C0Z020,明里,2020-10-29,23.2087,121.2623,0.6286201
C0Z061,玉里,2020-10-29,23.3215,121.3397,0.4338258
C0Z070,舞鶴,2020-10-29,23.4681,121.3741,0.9398152
C0Z080,富源,2020-10-29,23.5876,121.3782,0.9383294
C0Z100,東華,2020-10-29,23.8953,121.5498,0.7880445
C0Z150,吉安光華,2020-10-29,23.9309,121.5952,0.67074466
C0Z160,鳳林,2020-10-29,23.7461,121.4534,0.94480914
C0Z170,卓溪,2020-10-29,23.3443,121.3029,0.4849511
C0Z180,新城,2020-10-29,24.0395,121.6045,0.93039227
C0Z190,富世,2020-10-29,24.1474,121.6297,0.0038259772
C0Z200,萬榮,2020-10-29,23.7092,121.4201,0.9315235
C0Z210,瑞穗,2020-10-29,23.5239,121.3902,0.95842236
C0Z230,和平,2020-10-29,24.3072,121.7701,0.0015482871
C0Z270,蕃薯寮,2020-10-29,23.7384,121.5401,0.9515955
C0Z280,德武,2020-10-29,23.4743,121.4107,0.9592596
C0Z300,東里,2020-10-29,23.2685,121.3055,0.4575304
C0Z310,清水斷崖,2020-10-29,24.2183,121.6891,0.001861419
C0Z330,安通山,2020-10-29,23.2907,121.3485,0.46320418
