站號,站名,日期,lat,lon,BlastGRU-TW
466881,新北,2020-09-15,24.9593,121.52,0.7226973
466900,淡水,2020-09-15,25.1649,121.4489,0.7338276
466920,臺北,2020-09-15,25.0377,121.5149,0.6853747
466940,基隆,2020-09-15,25.1333,121.7405,0.62002015
466990,花蓮,2020-09-15,23.9751,121.6133,0.021270247
467050,新屋,2020-09-15,25.0067,121.0475,0.6125726
467080,宜蘭,2020-09-15,24.764,121.7565,0.22877717
467270,田中,2020-09-15,23.8738,120.5813,0.9355217
467300,東吉島,2020-09-15,23.2569,119.6675,0.9929074
467350,澎湖,2020-09-15,23.5655,119.5631,0.9362027
467410,臺南,2020-09-15,22.9932,120.2048,0.8160112
467420,永康,2020-09-15,23.0384,120.2367,0.80529714
467441,高雄,2020-09-15,22.7304,120.3125,0.7688886
467480,嘉義,2020-09-15,23.4959,120.4329,0.99180317
467490,臺中,2020-09-15,24.1457,120.6841,0.97658587
467540,大武,2020-09-15,22.3557,120.9038,0.1748379
467571,新竹,2020-09-15,24.8279,121.0142,0.8228324
467590,恆春,2020-09-15,22.0039,120.7463,0.9904617
467610,成功,2020-09-15,23.0975,121.3734,0.03279155
467620,蘭嶼,2020-09-15,22.037,121.5583,0.9978404
467660,臺東,2020-09-15,22.7522,121.1546,0.1821919
467790,墾丁雷達站,2020-09-15,21.9482,120.808,0.99333483
C0A520,山佳,2020-09-15,24.9749,121.402,0.7810736
C0A530,坪林,2020-09-15,24.9382,121.7097,0.9355333
C0A540,四堵,2020-09-15,24.8926,121.7457,0.96646494
C0A550,泰平,2020-09-15,24.9712,121.8237,0.9711127
C0A560,福山,2020-09-15,24.7762,121.5028,0.94796354
C0A570,桶後,2020-09-15,24.8482,121.598,0.9801521
C0A640,石碇,2020-09-15,24.994,121.6629,0.38059068
C0A650,火燒寮,2020-09-15,25.0027,121.7429,0.5610653
C0A660,瑞芳,2020-09-15,25.1132,121.8011,0.27935332
C0A770,科教館,2020-09-15,25.0964,121.5165,0.72969645
C0A860,大坪,2020-09-15,25.1659,121.633,0.9851232
C0A880,福隆,2020-09-15,25.0178,121.9421,0.19258188
C0A890,雙溪,2020-09-15,25.036,121.8642,0.7099273
C0A920,富貴角,2020-09-15,25.2638,121.5653,0.8799615
C0A931,三和,2020-09-15,25.2332,121.5952,0.5297191
C0A940,金山,2020-09-15,25.2236,121.644,0.833963
C0A950,鼻頭角,2020-09-15,25.129,121.9234,0.18781169
C0A970,三貂角,2020-09-15,25.0076,122.0021,0.3048739
C0A980,社子,2020-09-15,25.1095,121.4697,0.71212536
C0A9C0,天母,2020-09-15,25.1175,121.5372,0.76144016
C0A9F0,內湖,2020-09-15,25.0794,121.5755,0.6853747
C0AC60,三峽,2020-09-15,24.939,121.3697,0.7420696
C0AC70,信義,2020-09-15,25.0378,121.5646,0.6853747
C0AC80,文山,2020-09-15,25.0023,121.5757,0.7760463
C0ACA0,新莊,2020-09-15,25.0515,121.4468,0.69162184
C0AD00,三芝,2020-09-15,25.2581,121.5019,0.8727524
C0AD10,八里,2020-09-15,25.1502,121.4039,0.7338276
C0AD30,蘆洲,2020-09-15,25.0866,121.4723,0.72969645
C0AD40,土城,2020-09-15,24.9732,121.4452,0.7469557
C0AD50,鶯歌,2020-09-15,24.9515,121.3463,0.8286918
C0AG80,中和,2020-09-15,24.9916,121.4918,0.6853747
C0AH00,汐止,2020-09-15,25.0669,121.6588,0.6380493
C0AH10,永和,2020-09-15,25.0113,121.5081,0.66777456
C0AH40,平等,2020-09-15,25.1291,121.5771,0.96867603
C0AH50,林口,2020-09-15,25.0722,121.3808,0.8985761
C0AH70,松山,2020-09-15,25.0487,121.5504,0.6853747
C0AH80,深坑,2020-09-15,25.0027,121.6283,0.7580508
C0AI00,五股,2020-09-15,25.0744,121.4273,0.88504267
C0AI10,屈尺,2020-09-15,24.9218,121.5447,0.7760463
C0AI20,白沙灣,2020-09-15,25.2831,121.5191,0.81179255
C0AI30,三重,2020-09-15,25.0573,121.5006,0.72969645
C0AI40,石牌,2020-09-15,25.1156,121.5131,0.7469557
C0AJ10,澳底,2020-09-15,25.0571,121.9273,0.18336867
C0AJ20,野柳,2020-09-15,25.207,121.69,0.6380493
C0AJ30,淡水觀海,2020-09-15,25.1846,121.4086,0.72033453
C0AJ40,石門,2020-09-15,25.2737,121.6012,0.9381148
C0AJ50,水湳洞,2020-09-15,25.1237,121.8622,0.6380493
C0AJ60,六塊厝,2020-09-15,25.24,121.4481,0.72033453
C0AJ70,田寮,2020-09-15,25.2698,121.4886,0.80073816
C0AJ80,板橋,2020-09-15,25.0107,121.4489,0.7469557
C0B010,七堵,2020-09-15,25.0948,121.7171,0.6744751
C0B020,基隆嶼,2020-09-15,25.1914,121.7839,0.6380493
C0B040,大武崙,2020-09-15,25.1667,121.707,0.6744751
C0B050,八斗子,2020-09-15,25.1448,121.7917,0.60129464
C0B060,暖暖,2020-09-15,25.0957,121.7403,0.76213324
C0C460,復興,2020-09-15,24.8202,121.3523,0.98749375
C0C480,桃園,2020-09-15,24.9924,121.3232,0.8663874
C0C490,八德,2020-09-15,24.9287,121.2833,0.8627193
C0C590,觀音,2020-09-15,25.0271,121.1533,0.87097955
C0C620,蘆竹,2020-09-15,25.0843,121.2658,0.7621373
C0C630,大溪,2020-09-15,24.8829,121.2655,0.8903378
C0C650,平鎮,2020-09-15,24.8975,121.2146,0.9064251
C0C660,楊梅,2020-09-15,24.9124,121.143,0.894814
C0C670,龍潭,2020-09-15,24.8701,121.2214,0.8903755
C0C680,龜山,2020-09-15,25.0285,121.3866,0.8613162
C0C700,中壢,2020-09-15,24.9777,121.2564,0.8800001
C0C710,大溪永福,2020-09-15,24.8929,121.325,0.8859583
C0C720,竹圍,2020-09-15,25.1127,121.2398,0.7338276
C0C730,中大臨海站,2020-09-15,24.9661,121.0086,0.5843793
C0C740,觀音工業區,2020-09-15,25.0648,121.1149,0.83021
C0C750,新興坑尾,2020-09-15,25.0061,121.0971,0.85963863
C0D430,峨眉,2020-09-15,24.6905,121.0172,0.8736503
C0D480,打鐵坑,2020-09-15,24.8497,121.1508,0.90511817
C0D540,橫山,2020-09-15,24.7112,121.1169,0.9089063
C0D560,竹東,2020-09-15,24.7671,121.0579,0.8785036
C0D580,寶山,2020-09-15,24.735,121.0252,0.8916941
C0D590,新豐,2020-09-15,24.8707,120.9772,0.7755475
C0D650,湖口,2020-09-15,24.9048,121.0436,0.6753053
C0D660,新竹市東區,2020-09-15,24.7987,120.9869,0.8360759
C0D670,海天一線,2020-09-15,24.832,120.9144,0.8555487
C0D680,香山濕地,2020-09-15,24.7836,120.915,0.861696
C0D690,外湖,2020-09-15,24.9177,120.9687,0.5843794
C0D700,關西,2020-09-15,24.7977,121.1732,0.88900054
C0E420,竹南,2020-09-15,24.709,120.8889,0.8749957
C0E430,南庄,2020-09-15,24.6018,121.0002,0.9168752
C0E520,大湖,2020-09-15,24.4149,120.8709,0.9149281
C0E540,後龍,2020-09-15,24.6065,120.7839,0.94327265
C0E550,明德,2020-09-15,24.5835,120.8854,0.9290869
C0E590,通霄,2020-09-15,24.4719,120.7046,0.89497757
C0E730,頭份,2020-09-15,24.6882,120.9122,0.8749957
C0E740,造橋,2020-09-15,24.6371,120.8648,0.8911864
C0E750,苗栗,2020-09-15,24.5646,120.8246,0.9647539
C0E780,銅鑼,2020-09-15,24.4897,120.7909,0.92939985
C0E791,卓蘭,2020-09-15,24.3126,120.8244,0.9837597
C0E810,西湖,2020-09-15,24.5629,120.7485,0.9572157
C0E820,獅潭,2020-09-15,24.5391,120.92,0.9388367
C0E830,苑裡,2020-09-15,24.4397,120.6531,0.7881937
C0E850,大河,2020-09-15,24.6181,120.9486,0.9335635
C0E870,高鐵苗栗,2020-09-15,24.6073,120.8261,0.94832903
C0E910,海埔,2020-09-15,24.6488,120.7724,0.8988928
C0E920,通霄漁港,2020-09-15,24.4986,120.6739,0.8539205
C0E930,龍鳳,2020-09-15,24.7,120.8591,0.87656987
C0F000,大肚,2020-09-15,24.153,120.5721,0.86604863
C0F0B0,石岡,2020-09-15,24.2761,120.7776,0.8686451
C0F850,東勢,2020-09-15,24.2464,120.833,0.9843189
C0F930,大甲,2020-09-15,24.3477,120.6404,0.839707
C0F970,大坑,2020-09-15,24.1731,120.7223,0.973589
C0F9A0,中竹林,2020-09-15,24.1036,120.7511,0.81730103
C0F9I0,神岡,2020-09-15,24.2725,120.6583,0.950433
C0F9K0,大安,2020-09-15,24.3451,120.588,0.7345224
C0F9L0,后里,2020-09-15,24.3104,120.7297,0.95618796
C0F9M0,豐原,2020-09-15,24.2543,120.7207,0.9544395
C0F9N0,大里,2020-09-15,24.0925,120.7014,0.8674152
C0F9O0,潭子,2020-09-15,24.2131,120.7039,0.9480438
C0F9P0,清水,2020-09-15,24.3123,120.5622,0.7124032
C0F9Q0,外埔,2020-09-15,24.3478,120.7057,0.94226164
C0F9R0,龍井,2020-09-15,24.1845,120.529,0.7240247
C0F9S0,烏日,2020-09-15,24.1071,120.6241,0.7833215
C0F9T0,西屯,2020-09-15,24.1795,120.6413,0.8729168
C0F9U0,南屯,2020-09-15,24.137,120.638,0.8674152
C0F9X0,大雅(中科園區),2020-09-15,24.2153,120.6244,0.93712354
C0FA10,松柏,2020-09-15,24.4291,120.6175,0.7549026
C0FA20,溫寮,2020-09-15,24.3722,120.5831,0.7549026
C0FA30,梧棲,2020-09-15,24.256,120.5234,0.7240247
C0FA40,臺中電廠,2020-09-15,24.2146,120.4907,0.7240247
C0FA50,霧峰,2020-09-15,24.0419,120.6995,0.95920676
C0G620,芬園,2020-09-15,24.0157,120.6213,0.88823795
C0G640,鹿港,2020-09-15,24.0753,120.4305,0.72537607
C0G650,員林,2020-09-15,23.9465,120.5856,0.8926882
C0G660,溪湖,2020-09-15,23.9484,120.4791,0.86745435
C0G720,溪州,2020-09-15,23.8516,120.4991,0.90916854
C0G730,二林,2020-09-15,23.9033,120.3761,0.78597397
C0G740,大城,2020-09-15,23.8525,120.3209,0.6794194
C0G770,福興,2020-09-15,24.0413,120.4377,0.72537607
C0G780,秀水,2020-09-15,24.0341,120.5039,0.75148696
C0G800,埔鹽,2020-09-15,24.0004,120.4317,0.72537607
C0G810,埔心,2020-09-15,23.9476,120.5255,0.87208515
C0G820,田尾,2020-09-15,23.9017,120.5094,0.87611353
C0G830,埤頭,2020-09-15,23.866,120.4528,0.8912885
C0G840,北斗,2020-09-15,23.8776,120.5142,0.87611353
C0G860,社頭,2020-09-15,23.8976,120.5862,0.89579886
C0G870,芳苑,2020-09-15,23.9223,120.32,0.66646224
C0G880,二水,2020-09-15,23.8107,120.6173,0.9739497
C0G890,伸港,2020-09-15,24.1489,120.4844,0.7294769
C0G900,線西,2020-09-15,24.1434,120.4435,0.7873402
C0G910,花壇,2020-09-15,24.0321,120.5495,0.771128
C0G920,永靖,2020-09-15,23.9247,120.5475,0.87611353
C0G940,竹塘,2020-09-15,23.8483,120.3868,0.70726484
C0G950,防潮門,2020-09-15,24.1835,120.4871,0.71313494
C0G960,福寶,2020-09-15,24.0443,120.3814,0.7138568
C0G970,三豐,2020-09-15,23.882,120.2895,0.66646224
C0H890,埔里,2020-09-15,23.9722,120.9524,0.9806181
C0H950,中寮,2020-09-15,23.8844,120.7664,0.98137975
C0H960,草屯,2020-09-15,23.9737,120.6809,0.9685935
C0I110,竹山,2020-09-15,23.7612,120.6882,0.98036855
C0I360,水里,2020-09-15,23.8126,120.8498,0.99415165
C0I380,集集,2020-09-15,23.8282,120.8015,0.993931
C0I410,名間,2020-09-15,23.8371,120.7014,0.97968185
C0I420,國姓,2020-09-15,24.0378,120.8551,0.80835694
C0I460,南投,2020-09-15,23.9115,120.6873,0.9766598
C0K250,崙背,2020-09-15,23.7555,120.3189,0.75147516
C0K280,四湖,2020-09-15,23.6304,120.2271,0.7566798
C0K291,宜梧,2020-09-15,23.5363,120.1693,0.8873754
C0K330,虎尾,2020-09-15,23.7192,120.442,0.7148194
C0K390,土庫,2020-09-15,23.679,120.3956,0.69841653
C0K400,斗六,2020-09-15,23.7206,120.5411,0.91531646
C0K410,北港,2020-09-15,23.574,120.2928,0.8596006
C0K420,西螺,2020-09-15,23.8004,120.4674,0.9403763
C0K430,褒忠,2020-09-15,23.6909,120.3036,0.63486606
C0K440,二崙,2020-09-15,23.7728,120.4089,0.7221527
C0K450,大埤,2020-09-15,23.6461,120.4315,0.7678636
C0K460,斗南,2020-09-15,23.6787,120.4784,0.89762753
C0K470,林內,2020-09-15,23.7487,120.6096,0.953945
C0K480,莿桐,2020-09-15,23.7612,120.5024,0.94545466
C0K500,元長,2020-09-15,23.6498,120.315,0.74731505
C0K510,水林,2020-09-15,23.5729,120.246,0.86486185
C0K530,臺西,2020-09-15,23.7015,120.1976,0.6860783
C0K550,蔦松,2020-09-15,23.5143,120.2297,0.90099674
C0K560,棋山,2020-09-15,23.6865,120.6034,0.9639944
C0K580,高鐵雲林,2020-09-15,23.7375,120.4179,0.6984164
C0K590,雲林東勢,2020-09-15,23.6742,120.2557,0.63486606
C0K600,箔子寮,2020-09-15,23.6197,120.14,0.8474823
C0M410,馬頭山,2020-09-15,23.3244,120.582,0.99370515
C0M520,東後寮,2020-09-15,23.3699,120.2481,0.8705982
C0M640,中埔,2020-09-15,23.4254,120.5229,0.978315
C0M650,朴子,2020-09-15,23.4346,120.239,0.91744304
C0M660,溪口,2020-09-15,23.6041,120.4036,0.95317775
C0M670,大林,2020-09-15,23.6006,120.4584,0.99301064
C0M680,太保,2020-09-15,23.4551,120.3315,0.8893838
C0M690,水上,2020-09-15,23.4197,120.3889,0.99465126
C0M700,竹崎,2020-09-15,23.5262,120.5555,0.98056686
C0M710,東石,2020-09-15,23.4589,120.1539,0.90099674
C0M720,番路,2020-09-15,23.4647,120.5542,0.98013544
C0M730,嘉義市東區,2020-09-15,23.4577,120.4605,0.9968582
C0M740,六腳,2020-09-15,23.4929,120.2906,0.87450886
C0M750,布袋,2020-09-15,23.3809,120.1678,0.91744304
C0M760,民雄,2020-09-15,23.5518,120.4285,0.96602285
C0M770,嘉義梅山,2020-09-15,23.5854,120.5556,0.97339517
C0M780,鹿草,2020-09-15,23.4113,120.3084,0.96543145
C0M790,新港,2020-09-15,23.5533,120.3457,0.87596244
C0M800,茶山,2020-09-15,23.2991,120.6648,0.99276
C0M880,好美里,2020-09-15,23.3364,120.138,0.8625558
C0N010,鯤鯓國小,2020-09-15,23.1879,120.0889,0.90482223
C0N020,城西,2020-09-15,23.0568,120.0956,0.7676984
C0N030,四草,2020-09-15,23.0235,120.1116,0.7481864
C0N040,蘆竹溝,2020-09-15,23.2344,120.0961,0.90482223
C0N050,蚵寮,2020-09-15,23.301,120.1104,0.90482223
C0O810,曾文,2020-09-15,23.2197,120.4973,0.99846834
C0O830,北寮,2020-09-15,23.0796,120.495,0.99370587
C0O840,王爺宮,2020-09-15,23.2221,120.4009,0.99846834
C0O860,大內,2020-09-15,23.1188,120.3608,0.9909811
C0O900,善化,2020-09-15,23.1129,120.2972,0.9153635
C0O930,玉井,2020-09-15,23.126,120.4605,0.99693
C0O950,安南,2020-09-15,23.0767,120.1449,0.78831106
C0O960,崎頂,2020-09-15,22.9595,120.3693,0.9924364
C0O970,虎頭埤,2020-09-15,23.0214,120.3479,0.95703876
C0O980,新市,2020-09-15,23.0616,120.2982,0.9153635
C0O990,媽廟,2020-09-15,22.9917,120.2935,0.8969317
C0R150,三地門,2020-09-15,22.7099,120.6399,0.93170744
C0R160,鹽埔,2020-09-15,22.7396,120.5308,0.9566972
C0R170,屏東,2020-09-15,22.6603,120.4941,0.94629437
C0R190,赤山,2020-09-15,22.5923,120.6143,0.95079494
C0R220,潮州,2020-09-15,22.5344,120.54,0.911041
C0R240,來義,2020-09-15,22.5273,120.6251,0.84292436
C0R260,春日,2020-09-15,22.3704,120.6283,0.7693672
C0R270,琉球嶼,2020-09-15,22.3322,120.3622,0.78962237
C0R280,檳榔,2020-09-15,22.0761,120.8368,0.99855125
C0R320,車城,2020-09-15,22.0744,120.7162,0.9868399
C0R341,牡丹,2020-09-15,22.13,120.7926,0.96137786
C0R350,貓鼻頭,2020-09-15,21.9218,120.7358,0.9914506
C0R470,高樹,2020-09-15,22.8264,120.6008,0.92305744
C0R480,長治,2020-09-15,22.6931,120.5426,0.9615688
C0R490,九如,2020-09-15,22.7405,120.4905,0.9539174
C0R520,崁頂,2020-09-15,22.5148,120.5069,0.9093067
C0R540,佳冬,2020-09-15,22.4195,120.5524,0.89454085
C0R550,新埤,2020-09-15,22.4679,120.5829,0.9441652
C0R560,新園,2020-09-15,22.5434,120.4616,0.9093067
C0R570,麟洛,2020-09-15,22.6508,120.5272,0.9539174
C0R580,南州,2020-09-15,22.4859,120.5027,0.89454085
C0R590,里港,2020-09-15,22.7792,120.4946,0.96801263
C0R620,墾雷,2020-09-15,21.9008,120.8553,0.9914506
C0R640,東港,2020-09-15,22.4625,120.4407,0.8783924
C0R650,竹田,2020-09-15,22.5849,120.5434,0.93654054
C0R660,枋寮,2020-09-15,22.3677,120.5906,0.8845999
C0R670,楓港,2020-09-15,22.1901,120.6922,0.6067528
C0R680,佳樂水,2020-09-15,21.9936,120.8616,0.98937607
C0R690,墾丁,2020-09-15,21.9668,120.8103,0.99869907
C0R700,枋山,2020-09-15,22.2468,120.6611,0.6067528
C0R710,龍磐,2020-09-15,21.9317,120.8389,0.996821
C0R720,旭海,2020-09-15,22.2054,120.8876,0.513275
C0R730,大坪頂,2020-09-15,22.0246,120.6936,0.9970388
C0R740,獅子,2020-09-15,22.2016,120.7053,0.7234529
C0R760,南仁湖,2020-09-15,22.0847,120.8634,0.9989988
C0R770,保力,2020-09-15,22.0711,120.7641,0.9951864
C0R780,滿州,2020-09-15,22.0244,120.8399,0.99255776
C0R790,九棚,2020-09-15,22.142,120.8893,0.43169543
C0R800,丹路,2020-09-15,22.2045,120.751,0.9032628
C0R810,內獅,2020-09-15,22.3051,120.643,0.6449551
C0R830,高士,2020-09-15,22.1218,120.8368,0.99906737
C0R850,林邊,2020-09-15,22.4634,120.5339,0.9093067
C0R860,鼻頭,2020-09-15,22.1043,120.8979,0.9887795
C0R870,興海,2020-09-15,21.9752,120.8439,0.98937607
C0R880,後壁湖,2020-09-15,21.9457,120.7457,0.985371
C0R890,山海,2020-09-15,21.9878,120.7091,0.9868399
C0R900,竹坑,2020-09-15,22.1385,120.7022,0.67565435
C0R910,下寮,2020-09-15,22.3929,120.5548,0.89454085
C0R920,塭仔,2020-09-15,22.4169,120.5197,0.878739
C0R930,萬丹,2020-09-15,22.5885,120.4851,0.93654054
C0R940,加祿堂,2020-09-15,22.3363,120.6217,0.6449551
C0S710,鹿野,2020-09-15,22.9177,121.123,0.041216794
C0S730,綠島,2020-09-15,22.6672,121.4753,0.035183474
C0S740,池上,2020-09-15,23.1196,121.2095,0.030141821
C0S770,大溪山,2020-09-15,22.4785,120.9433,0.76170594
C0S790,金崙,2020-09-15,22.5381,120.9669,0.24890171
C0S810,東河,2020-09-15,22.9727,121.304,0.02253167
C0S830,長濱,2020-09-15,23.2868,121.412,0.027110223
C0S840,南田,2020-09-15,22.2797,120.8892,0.23811577
C0S890,關山,2020-09-15,23.0395,121.175,0.040128957
C0S900,蘭嶼高中,2020-09-15,22.0491,121.5121,0.9944334
C0S910,蘭嶼燈塔,2020-09-15,22.0812,121.5031,0.9971106
C0S920,金峰嘉蘭,2020-09-15,22.5948,120.9608,0.17852919
C0S930,延平,2020-09-15,22.9026,121.0841,0.036072914
C0S940,石寧山,2020-09-15,23.2238,121.4066,0.020746881
C0S950,七塊厝,2020-09-15,22.9545,121.2299,0.047448874
C0S960,香蘭,2020-09-15,22.5876,120.9934,0.16173777
C0S970,加津林,2020-09-15,22.4162,120.9269,0.17826873
C0S990,山豬窟,2020-09-15,22.3186,120.8574,0.9265617
C0SA00,歷坵,2020-09-15,22.521,120.8919,0.9379714
C0SA10,檳榔四格山,2020-09-15,22.81,121.1093,0.91711754
C0SA30,都歷,2020-09-15,23.0203,121.3236,0.034333188
C0SA40,瑞和,2020-09-15,22.9744,121.1567,0.038786896
C0SA60,知本（水試所）,2020-09-15,22.7024,121.0828,0.20191722
C0SA80,土,2020-09-15,22.4531,120.8876,0.19665322
C0SA90,達仁林場,2020-09-15,22.2643,120.824,0.9759107
C0T870,鯉魚潭,2020-09-15,23.9356,121.5089,0.01655043
C0T900,西林,2020-09-15,23.8119,121.4415,0.017200615
C0T960,光復,2020-09-15,23.6607,121.425,0.019355036
C0T9A0,月眉山,2020-09-15,23.8099,121.5398,0.039059076
C0T9D0,和中,2020-09-15,24.2668,121.741,0.14497261
C0T9E0,大坑,2020-09-15,23.8806,121.582,0.028560692
C0T9F0,水璉,2020-09-15,23.7971,121.5425,0.01958372
C0T9I0,豐濱,2020-09-15,23.5839,121.5148,0.01673985
C0T9M0,靜浦,2020-09-15,23.4552,121.495,0.01590719
C0T9N0,富里,2020-09-15,23.1716,121.2494,0.07516746
C0U600,礁溪,2020-09-15,24.8175,121.7656,0.23804933
C0U650,玉蘭,2020-09-15,24.6753,121.5871,0.989617
C0U750,龜山島,2020-09-15,24.8417,121.9531,0.665665
C0U760,東澳,2020-09-15,24.522,121.8332,0.27176228
C0U770,南澳,2020-09-15,24.4493,121.8102,0.23406807
C0U780,五結,2020-09-15,24.6864,121.7979,0.21831791
C0U860,頭城,2020-09-15,24.8532,121.8308,0.22877717
C0U870,大礁溪,2020-09-15,24.791,121.675,0.9789889
C0U880,北關,2020-09-15,24.9072,121.8734,0.798434
C0U890,三星,2020-09-15,24.6681,121.653,0.40509376
C0U900,內城,2020-09-15,24.7181,121.6877,0.2698514
C0U910,冬山,2020-09-15,24.6337,121.7937,0.21831791
C0U940,羅東,2020-09-15,24.6818,121.7493,0.22094809
C0U970,大福,2020-09-15,24.8006,121.8139,0.2217104
C0U990,員山,2020-09-15,24.7444,121.7225,0.22094809
C0UA00,土場,2020-09-15,24.5765,121.4953,0.9838677
C0UA80,大溪漁港,2020-09-15,24.9418,121.903,0.23804933
C0UA90,石城,2020-09-15,24.9804,121.9512,0.20452157
C0UB00,淡江大學蘭陽校園,2020-09-15,24.8232,121.7304,0.98631066
C0UB10,蘇澳,2020-09-15,24.5969,121.8571,0.3029278
C0UB20,壯圍,2020-09-15,24.7359,121.8163,0.21497552
C0V250,甲仙,2020-09-15,23.0801,120.5918,0.99250865
C0V260,月眉,2020-09-15,22.971,120.5399,0.9927165
C0V310,美濃,2020-09-15,22.8987,120.5192,0.9938053
C0V350,溪埔,2020-09-15,22.7386,120.4468,0.91068614
C0V360,內門,2020-09-15,22.9755,120.4668,0.99603474
C0V370,古亭坑,2020-09-15,22.8932,120.4019,0.99136615
C0V400,阿公店,2020-09-15,22.8042,120.3555,0.8935466
C0V440,鳳山,2020-09-15,22.6467,120.3561,0.92183006
C0V450,鳳森,2020-09-15,22.5451,120.3926,0.94682485
C0V490,新興,2020-09-15,22.6274,120.2988,0.89493597
C0V530,阿蓮,2020-09-15,22.8832,120.3275,0.8411544
C0V610,梓官,2020-09-15,22.7606,120.2672,0.6381724
C0V620,永安,2020-09-15,22.8231,120.2369,0.50773984
C0V630,茄萣,2020-09-15,22.9066,120.1826,0.7782888
C0V640,湖內,2020-09-15,22.8871,120.2445,0.7874845
C0V650,彌陀,2020-09-15,22.7838,120.2464,0.50773984
C0V660,岡山,2020-09-15,22.7971,120.295,0.6381724
C0V680,仁武,2020-09-15,22.7011,120.3477,0.79606867
C0V690,鼓山,2020-09-15,22.6233,120.2756,0.89493597
C0V700,三民,2020-09-15,22.645,120.3112,0.89493597
C0V710,苓雅,2020-09-15,22.6227,120.3307,0.89493597
C0V720,林園,2020-09-15,22.5077,120.3945,0.89493597
C0V730,大寮,2020-09-15,22.6056,120.3957,0.89922184
C0V740,旗山,2020-09-15,22.8886,120.4836,0.9941849
C0V750,路竹,2020-09-15,22.855,120.2594,0.6043162
C0V760,橋頭,2020-09-15,22.7578,120.3058,0.6659999
C0V770,大社,2020-09-15,22.7303,120.3466,0.79606867
C0V790,萬山,2020-09-15,22.9059,120.6881,0.991058
C0V800,六龜,2020-09-15,22.9979,120.6336,0.9923493
C0V810,左營,2020-09-15,22.6749,120.2849,0.7688886
C0V820,小林,2020-09-15,23.1484,120.6333,0.9917306
C0V840,鳳鼻頭,2020-09-15,22.5083,120.3591,0.87839216
C0V850,蚵仔寮,2020-09-15,22.7256,120.2527,0.7434533
C0V860,南寮,2020-09-15,22.7616,120.2339,0.49055266
C0V870,文安,2020-09-15,22.8025,120.2164,0.49055266
C0V880,興達,2020-09-15,22.8778,120.2127,0.7782888
C0V890,前鎮,2020-09-15,22.5718,120.3117,0.8783924
C0V900,汕尾,2020-09-15,22.4782,120.4151,0.91862017
C0X050,東河,2020-09-15,23.2966,120.3856,0.9953648
C0X060,下營,2020-09-15,23.2269,120.2563,0.9432775
C0X080,佳里,2020-09-15,23.173,120.1451,0.8625558
C0X100,臺南市北區,2020-09-15,23.0104,120.1942,0.7958247
C0X110,臺南市南區,2020-09-15,22.9612,120.1884,0.80529714
C0X120,麻豆,2020-09-15,23.1833,120.2486,0.8739697
C0X130,官田,2020-09-15,23.1932,120.3154,0.95669484
C0X140,西港,2020-09-15,23.1256,120.2031,0.828362
C0X150,安定,2020-09-15,23.1026,120.2278,0.83058864
C0X160,仁德,2020-09-15,22.9683,120.2577,0.8873629
C0X170,關廟,2020-09-15,22.963,120.3278,0.92318475
C0X180,山上,2020-09-15,23.0757,120.3633,0.9952481
C0X190,安平,2020-09-15,22.9932,120.1522,0.7958247
C0X200,左鎮,2020-09-15,23.0568,120.4085,0.9950129
C0X210,白河,2020-09-15,23.3475,120.4144,0.99586934
C0X220,學甲,2020-09-15,23.2304,120.1822,0.8739697
C0X230,鹽水,2020-09-15,23.2726,120.2476,0.8834103
C0X240,關子嶺,2020-09-15,23.3312,120.508,0.99202555
C0X250,新營,2020-09-15,23.3107,120.3167,0.93265486
C0X260,後壁,2020-09-15,23.3664,120.3623,0.9926609
C0X280,將軍,2020-09-15,23.215,120.1358,0.8625558
C0X290,北門,2020-09-15,23.2678,120.1255,0.8625558
C0X300,鹿寮,2020-09-15,23.386,120.4773,0.94741464
C0X310,七股,2020-09-15,23.1473,120.0863,0.7791565
C0X320,柳營,2020-09-15,23.2533,120.3753,0.9955975
C0Z020,明里,2020-09-15,23.2087,121.2623,0.024921974
C0Z061,玉里,2020-09-15,23.3215,121.3397,0.01905225
C0Z070,舞鶴,2020-09-15,23.4681,121.3741,0.016759492
C0Z080,富源,2020-09-15,23.5876,121.3782,0.016169598
C0Z100,東華,2020-09-15,23.8953,121.5498,0.0152344145
C0Z150,吉安光華,2020-09-15,23.9309,121.5952,0.014973668
C0Z160,鳳林,2020-09-15,23.7461,121.4534,0.019025266
C0Z170,卓溪,2020-09-15,23.3443,121.3029,0.01995187
C0Z180,新城,2020-09-15,24.0395,121.6045,0.02170359
C0Z190,富世,2020-09-15,24.1474,121.6297,0.779606
C0Z200,萬榮,2020-09-15,23.7092,121.4201,0.01655043
C0Z210,瑞穗,2020-09-15,23.5239,121.3902,0.016394088
C0Z230,和平,2020-09-15,24.3072,121.7701,0.14497261
C0Z270,蕃薯寮,2020-09-15,23.7384,121.5401,0.014852231
C0Z280,德武,2020-09-15,23.4743,121.4107,0.015877025
C0Z300,東里,2020-09-15,23.2685,121.3055,0.019386796
C0Z310,清水斷崖,2020-09-15,24.2183,121.6891,0.14905554
C0Z330,安通山,2020-09-15,23.2907,121.3485,0.036635756
