站號,站名,日期,lat,lon,BlastGRU-TW
466881,新北,2020-07-02,24.9593,121.52,0.3052699
466900,淡水,2020-07-02,25.1649,121.4489,0.42731422
466920,臺北,2020-07-02,25.0377,121.5149,0.2922563
466940,基隆,2020-07-02,25.1333,121.7405,0.3486875
466990,花蓮,2020-07-02,23.9751,121.6133,0.12790036
467050,新屋,2020-07-02,25.0067,121.0475,0.3358898
467080,宜蘭,2020-07-02,24.764,121.7565,0.08522798
467270,田中,2020-07-02,23.8738,120.5813,0.33252594
467300,東吉島,2020-07-02,23.2569,119.6675,0.4285562
467350,澎湖,2020-07-02,23.5655,119.5631,0.41677463
467410,臺南,2020-07-02,22.9932,120.2048,0.11569186
467420,永康,2020-07-02,23.0384,120.2367,0.11353347
467441,高雄,2020-07-02,22.7304,120.3125,0.1767581
467480,嘉義,2020-07-02,23.4959,120.4329,0.19390762
467490,臺中,2020-07-02,24.1457,120.6841,0.26126546
467540,大武,2020-07-02,22.3557,120.9038,0.13673118
467571,新竹,2020-07-02,24.8279,121.0142,0.43255103
467590,恆春,2020-07-02,22.0039,120.7463,0.5867716
467610,成功,2020-07-02,23.0975,121.3734,0.14140292
467620,蘭嶼,2020-07-02,22.037,121.5583,0.9470897
467660,臺東,2020-07-02,22.7522,121.1546,0.10207483
467790,墾丁雷達站,2020-07-02,21.9482,120.808,0.6513256
C0A520,山佳,2020-07-02,24.9749,121.402,0.4228896
C0A530,坪林,2020-07-02,24.9382,121.7097,0.19256273
C0A540,四堵,2020-07-02,24.8926,121.7457,0.21707268
C0A550,泰平,2020-07-02,24.9712,121.8237,0.18152516
C0A560,福山,2020-07-02,24.7762,121.5028,0.1802833
C0A570,桶後,2020-07-02,24.8482,121.598,0.2720321
C0A640,石碇,2020-07-02,24.994,121.6629,0.14349778
C0A650,火燒寮,2020-07-02,25.0027,121.7429,0.16557471
C0A660,瑞芳,2020-07-02,25.1132,121.8011,0.12524119
C0A770,科教館,2020-07-02,25.0964,121.5165,0.39688724
C0A860,大坪,2020-07-02,25.1659,121.633,0.38925177
C0A880,福隆,2020-07-02,25.0178,121.9421,0.10429079
C0A890,雙溪,2020-07-02,25.036,121.8642,0.40440434
C0A920,富貴角,2020-07-02,25.2638,121.5653,0.5567178
C0A931,三和,2020-07-02,25.2332,121.5952,0.18689056
C0A940,金山,2020-07-02,25.2236,121.644,0.49702352
C0A950,鼻頭角,2020-07-02,25.129,121.9234,0.10289647
C0A970,三貂角,2020-07-02,25.0076,122.0021,0.12562415
C0A980,社子,2020-07-02,25.1095,121.4697,0.38854873
C0A9C0,天母,2020-07-02,25.1175,121.5372,0.41406214
C0A9F0,內湖,2020-07-02,25.0794,121.5755,0.2922563
C0AC60,三峽,2020-07-02,24.939,121.3697,0.31190142
C0AC70,信義,2020-07-02,25.0378,121.5646,0.2922563
C0AC80,文山,2020-07-02,25.0023,121.5757,0.32617494
C0ACA0,新莊,2020-07-02,25.0515,121.4468,0.40978378
C0AD00,三芝,2020-07-02,25.2581,121.5019,0.53068537
C0AD10,八里,2020-07-02,25.1502,121.4039,0.42731422
C0AD30,蘆洲,2020-07-02,25.0866,121.4723,0.39688724
C0AD40,土城,2020-07-02,24.9732,121.4452,0.40540165
C0AD50,鶯歌,2020-07-02,24.9515,121.3463,0.47735718
C0AG80,中和,2020-07-02,24.9916,121.4918,0.2922563
C0AH00,汐止,2020-07-02,25.0669,121.6588,0.35850275
C0AH10,永和,2020-07-02,25.0113,121.5081,0.28588533
C0AH40,平等,2020-07-02,25.1291,121.5771,0.25538692
C0AH50,林口,2020-07-02,25.0722,121.3808,0.24882479
C0AH70,松山,2020-07-02,25.0487,121.5504,0.2922563
C0AH80,深坑,2020-07-02,25.0027,121.6283,0.31912658
C0AI00,五股,2020-07-02,25.0744,121.4273,0.55300945
C0AI10,屈尺,2020-07-02,24.9218,121.5447,0.32617494
C0AI20,白沙灣,2020-07-02,25.2831,121.5191,0.47991994
C0AI30,三重,2020-07-02,25.0573,121.5006,0.396887
C0AI40,石牌,2020-07-02,25.1156,121.5131,0.40540165
C0AJ10,澳底,2020-07-02,25.0571,121.9273,0.10127846
C0AJ20,野柳,2020-07-02,25.207,121.69,0.35850275
C0AJ30,淡水觀海,2020-07-02,25.1846,121.4086,0.42117643
C0AJ40,石門,2020-07-02,25.2737,121.6012,0.61090577
C0AJ50,水湳洞,2020-07-02,25.1237,121.8622,0.35850275
C0AJ60,六塊厝,2020-07-02,25.24,121.4481,0.42117643
C0AJ70,田寮,2020-07-02,25.2698,121.4886,0.47184756
C0AJ80,板橋,2020-07-02,25.0107,121.4489,0.40540165
C0B010,七堵,2020-07-02,25.0948,121.7171,0.38007313
C0B020,基隆嶼,2020-07-02,25.1914,121.7839,0.35850275
C0B040,大武崙,2020-07-02,25.1667,121.707,0.38007313
C0B050,八斗子,2020-07-02,25.1448,121.7917,0.33840165
C0B060,暖暖,2020-07-02,25.0957,121.7403,0.4416886
C0C460,復興,2020-07-02,24.8202,121.3523,0.27698976
C0C480,桃園,2020-07-02,24.9924,121.3232,0.5016685
C0C490,八德,2020-07-02,24.9287,121.2833,0.47981337
C0C590,觀音,2020-07-02,25.0271,121.1533,0.5176802
C0C620,蘆竹,2020-07-02,25.0843,121.2658,0.4444543
C0C630,大溪,2020-07-02,24.8829,121.2655,0.52960664
C0C650,平鎮,2020-07-02,24.8975,121.2146,0.5686896
C0C660,楊梅,2020-07-02,24.9124,121.143,0.533839
C0C670,龍潭,2020-07-02,24.8701,121.2214,0.45026687
C0C680,龜山,2020-07-02,25.0285,121.3866,0.26276237
C0C700,中壢,2020-07-02,24.9777,121.2564,0.5227027
C0C710,大溪永福,2020-07-02,24.8929,121.325,0.52772045
C0C720,竹圍,2020-07-02,25.1127,121.2398,0.42731422
C0C730,中大臨海站,2020-07-02,24.9661,121.0086,0.3221806
C0C740,觀音工業區,2020-07-02,25.0648,121.1149,0.5105444
C0C750,新興坑尾,2020-07-02,25.0061,121.0971,0.55339706
C0D430,峨眉,2020-07-02,24.6905,121.0172,0.46171585
C0D480,打鐵坑,2020-07-02,24.8497,121.1508,0.4864632
C0D540,橫山,2020-07-02,24.7112,121.1169,0.4175278
C0D560,竹東,2020-07-02,24.7671,121.0579,0.48869982
C0D580,寶山,2020-07-02,24.735,121.0252,0.37685642
C0D590,新豐,2020-07-02,24.8707,120.9772,0.33506045
C0D650,湖口,2020-07-02,24.9048,121.0436,0.37018004
C0D660,新竹市東區,2020-07-02,24.7987,120.9869,0.44510058
C0D670,海天一線,2020-07-02,24.832,120.9144,0.46188676
C0D680,香山濕地,2020-07-02,24.7836,120.915,0.46892476
C0D690,外湖,2020-07-02,24.9177,120.9687,0.3221806
C0D700,關西,2020-07-02,24.7977,121.1732,0.5339256
C0E420,竹南,2020-07-02,24.709,120.8889,0.48537627
C0E430,南庄,2020-07-02,24.6018,121.0002,0.43644312
C0E520,大湖,2020-07-02,24.4149,120.8709,0.45329723
C0E540,後龍,2020-07-02,24.6065,120.7839,0.19475508
C0E550,明德,2020-07-02,24.5835,120.8854,0.23286864
C0E590,通霄,2020-07-02,24.4719,120.7046,0.18105985
C0E730,頭份,2020-07-02,24.6882,120.9122,0.48537627
C0E740,造橋,2020-07-02,24.6371,120.8648,0.2162332
C0E750,苗栗,2020-07-02,24.5646,120.8246,0.20461726
C0E780,銅鑼,2020-07-02,24.4897,120.7909,0.23340558
C0E791,卓蘭,2020-07-02,24.3126,120.8244,0.19257164
C0E810,西湖,2020-07-02,24.5629,120.7485,0.20063205
C0E820,獅潭,2020-07-02,24.5391,120.92,0.24135329
C0E830,苑裡,2020-07-02,24.4397,120.6531,0.15689942
C0E850,大河,2020-07-02,24.6181,120.9486,0.23658484
C0E870,高鐵苗栗,2020-07-02,24.6073,120.8261,0.19676168
C0E910,海埔,2020-07-02,24.6488,120.7724,0.21608093
C0E920,通霄漁港,2020-07-02,24.4986,120.6739,0.17091136
C0E930,龍鳳,2020-07-02,24.7,120.8591,0.21021341
C0F000,大肚,2020-07-02,24.153,120.5721,0.19001433
C0F0B0,石岡,2020-07-02,24.2761,120.7776,0.20109652
C0F850,東勢,2020-07-02,24.2464,120.833,0.2011077
C0F930,大甲,2020-07-02,24.3477,120.6404,0.16861671
C0F970,大坑,2020-07-02,24.1731,120.7223,0.22831628
C0F9A0,中竹林,2020-07-02,24.1036,120.7511,0.20925394
C0F9I0,神岡,2020-07-02,24.2725,120.6583,0.2514677
C0F9K0,大安,2020-07-02,24.3451,120.588,0.15135776
C0F9L0,后里,2020-07-02,24.3104,120.7297,0.25440928
C0F9M0,豐原,2020-07-02,24.2543,120.7207,0.2535002
C0F9N0,大里,2020-07-02,24.0925,120.7014,0.2020453
C0F9O0,潭子,2020-07-02,24.2131,120.7039,0.25078723
C0F9P0,清水,2020-07-02,24.3123,120.5622,0.1481983
C0F9Q0,外埔,2020-07-02,24.3478,120.7057,0.24814191
C0F9R0,龍井,2020-07-02,24.1845,120.529,0.15630183
C0F9S0,烏日,2020-07-02,24.1071,120.6241,0.15569453
C0F9T0,西屯,2020-07-02,24.1795,120.6413,0.18974881
C0F9U0,南屯,2020-07-02,24.137,120.638,0.2020453
C0F9X0,大雅(中科園區),2020-07-02,24.2153,120.6244,0.20731613
C0FA10,松柏,2020-07-02,24.4291,120.6175,0.15222403
C0FA20,溫寮,2020-07-02,24.3722,120.5831,0.15222403
C0FA30,梧棲,2020-07-02,24.256,120.5234,0.15630183
C0FA40,臺中電廠,2020-07-02,24.2146,120.4907,0.15630183
C0FA50,霧峰,2020-07-02,24.0419,120.6995,0.25978106
C0G620,芬園,2020-07-02,24.0157,120.6213,0.22517158
C0G640,鹿港,2020-07-02,24.0753,120.4305,0.1376884
C0G650,員林,2020-07-02,23.9465,120.5856,0.21814598
C0G660,溪湖,2020-07-02,23.9484,120.4791,0.16892208
C0G720,溪州,2020-07-02,23.8516,120.4991,0.24502307
C0G730,二林,2020-07-02,23.9033,120.3761,0.12342594
C0G740,大城,2020-07-02,23.8525,120.3209,0.097288445
C0G770,福興,2020-07-02,24.0413,120.4377,0.13768838
C0G780,秀水,2020-07-02,24.0341,120.5039,0.15004513
C0G800,埔鹽,2020-07-02,24.0004,120.4317,0.1376884
C0G810,埔心,2020-07-02,23.9476,120.5255,0.17215806
C0G820,田尾,2020-07-02,23.9017,120.5094,0.17446502
C0G830,埤頭,2020-07-02,23.866,120.4528,0.23405609
C0G840,北斗,2020-07-02,23.8776,120.5142,0.17446502
C0G860,社頭,2020-07-02,23.8976,120.5862,0.22227295
C0G870,芳苑,2020-07-02,23.9223,120.32,0.09596303
C0G880,二水,2020-07-02,23.8107,120.6173,0.38232026
C0G890,伸港,2020-07-02,24.1489,120.4844,0.16978258
C0G900,線西,2020-07-02,24.1434,120.4435,0.17348768
C0G910,花壇,2020-07-02,24.0321,120.5495,0.1548937
C0G920,永靖,2020-07-02,23.9247,120.5475,0.17446502
C0G940,竹塘,2020-07-02,23.8483,120.3868,0.14528352
C0G950,防潮門,2020-07-02,24.1835,120.4871,0.15451853
C0G960,福寶,2020-07-02,24.0443,120.3814,0.13581944
C0G970,三豐,2020-07-02,23.882,120.2895,0.09596303
C0H890,埔里,2020-07-02,23.9722,120.9524,0.17547591
C0H950,中寮,2020-07-02,23.8844,120.7664,0.4567515
C0H960,草屯,2020-07-02,23.9737,120.6809,0.39583233
C0I110,竹山,2020-07-02,23.7612,120.6882,0.4468828
C0I360,水里,2020-07-02,23.8126,120.8498,0.7061176
C0I380,集集,2020-07-02,23.8282,120.8015,0.68980753
C0I410,名間,2020-07-02,23.8371,120.7014,0.40446913
C0I420,國姓,2020-07-02,24.0378,120.8551,0.2580517
C0I460,南投,2020-07-02,23.9115,120.6873,0.4182284
C0K250,崙背,2020-07-02,23.7555,120.3189,0.10281366
C0K280,四湖,2020-07-02,23.6304,120.2271,0.11636642
C0K291,宜梧,2020-07-02,23.5363,120.1693,0.10285473
C0K330,虎尾,2020-07-02,23.7192,120.442,0.14540595
C0K390,土庫,2020-07-02,23.679,120.3956,0.141132
C0K400,斗六,2020-07-02,23.7206,120.5411,0.24211004
C0K410,北港,2020-07-02,23.574,120.2928,0.09296299
C0K420,西螺,2020-07-02,23.8004,120.4674,0.25461653
C0K430,褒忠,2020-07-02,23.6909,120.3036,0.088357925
C0K440,二崙,2020-07-02,23.7728,120.4089,0.14885512
C0K450,大埤,2020-07-02,23.6461,120.4315,0.15525435
C0K460,斗南,2020-07-02,23.6787,120.4784,0.22556315
C0K470,林內,2020-07-02,23.7487,120.6096,0.29528558
C0K480,莿桐,2020-07-02,23.7612,120.5024,0.26269156
C0K500,元長,2020-07-02,23.6498,120.315,0.10321718
C0K510,水林,2020-07-02,23.5729,120.246,0.10610032
C0K530,臺西,2020-07-02,23.7015,120.1976,0.10621224
C0K550,蔦松,2020-07-02,23.5143,120.2297,0.1040309
C0K560,棋山,2020-07-02,23.6865,120.6034,0.3326853
C0K580,高鐵雲林,2020-07-02,23.7375,120.4179,0.141132
C0K590,雲林東勢,2020-07-02,23.6742,120.2557,0.088357806
C0K600,箔子寮,2020-07-02,23.6197,120.14,0.104795516
C0M410,馬頭山,2020-07-02,23.3244,120.582,0.7397432
C0M520,東後寮,2020-07-02,23.3699,120.2481,0.10826245
C0M640,中埔,2020-07-02,23.4254,120.5229,0.4416275
C0M650,朴子,2020-07-02,23.4346,120.239,0.113101244
C0M660,溪口,2020-07-02,23.6041,120.4036,0.14144309
C0M670,大林,2020-07-02,23.6006,120.4584,0.20918038
C0M680,太保,2020-07-02,23.4551,120.3315,0.095387414
C0M690,水上,2020-07-02,23.4197,120.3889,0.2335476
C0M700,竹崎,2020-07-02,23.5262,120.5555,0.45839623
C0M710,東石,2020-07-02,23.4589,120.1539,0.1040309
C0M720,番路,2020-07-02,23.4647,120.5542,0.4924228
C0M730,嘉義市東區,2020-07-02,23.4577,120.4605,0.27812293
C0M740,六腳,2020-07-02,23.4929,120.2906,0.09413984
C0M750,布袋,2020-07-02,23.3809,120.1678,0.113101244
C0M760,民雄,2020-07-02,23.5518,120.4285,0.1493494
C0M770,嘉義梅山,2020-07-02,23.5854,120.5556,0.37738073
C0M780,鹿草,2020-07-02,23.4113,120.3084,0.11474031
C0M790,新港,2020-07-02,23.5533,120.3457,0.09432198
C0M800,茶山,2020-07-02,23.2991,120.6648,0.46171135
C0M880,好美里,2020-07-02,23.3364,120.138,0.117623664
C0N010,鯤鯓國小,2020-07-02,23.1879,120.0889,0.12249201
C0N020,城西,2020-07-02,23.0568,120.0956,0.1151084
C0N030,四草,2020-07-02,23.0235,120.1116,0.10115279
C0N040,蘆竹溝,2020-07-02,23.2344,120.0961,0.12249201
C0N050,蚵寮,2020-07-02,23.301,120.1104,0.12249201
C0O810,曾文,2020-07-02,23.2197,120.4973,0.41968808
C0O830,北寮,2020-07-02,23.0796,120.495,0.6635291
C0O840,王爺宮,2020-07-02,23.2221,120.4009,0.41968808
C0O860,大內,2020-07-02,23.1188,120.3608,0.32403317
C0O900,善化,2020-07-02,23.1129,120.2972,0.13364199
C0O930,玉井,2020-07-02,23.126,120.4605,0.30027238
C0O950,安南,2020-07-02,23.0767,120.1449,0.124331385
C0O960,崎頂,2020-07-02,22.9595,120.3693,0.5612723
C0O970,虎頭埤,2020-07-02,23.0214,120.3479,0.13944061
C0O980,新市,2020-07-02,23.0616,120.2982,0.13364199
C0O990,媽廟,2020-07-02,22.9917,120.2935,0.13441662
C0R150,三地門,2020-07-02,22.7099,120.6399,0.27979103
C0R160,鹽埔,2020-07-02,22.7396,120.5308,0.31930044
C0R170,屏東,2020-07-02,22.6603,120.4941,0.20924143
C0R190,赤山,2020-07-02,22.5923,120.6143,0.3363212
C0R220,潮州,2020-07-02,22.5344,120.54,0.30627918
C0R240,來義,2020-07-02,22.5273,120.6251,0.29232842
C0R260,春日,2020-07-02,22.3704,120.6283,0.2584627
C0R270,琉球嶼,2020-07-02,22.3322,120.3622,0.2667322
C0R280,檳榔,2020-07-02,22.0761,120.8368,0.8729152
C0R320,車城,2020-07-02,22.0744,120.7162,0.5198403
C0R341,牡丹,2020-07-02,22.13,120.7926,0.43798608
C0R350,貓鼻頭,2020-07-02,21.9218,120.7358,0.6083512
C0R470,高樹,2020-07-02,22.8264,120.6008,0.2573459
C0R480,長治,2020-07-02,22.6931,120.5426,0.33626917
C0R490,九如,2020-07-02,22.7405,120.4905,0.21659717
C0R520,崁頂,2020-07-02,22.5148,120.5069,0.22343081
C0R540,佳冬,2020-07-02,22.4195,120.5524,0.21756065
C0R550,新埤,2020-07-02,22.4679,120.5829,0.3205159
C0R560,新園,2020-07-02,22.5434,120.4616,0.22343081
C0R570,麟洛,2020-07-02,22.6508,120.5272,0.21659695
C0R580,南州,2020-07-02,22.4859,120.5027,0.21756065
C0R590,里港,2020-07-02,22.7792,120.4946,0.3748235
C0R620,墾雷,2020-07-02,21.9008,120.8553,0.6083519
C0R640,東港,2020-07-02,22.4625,120.4407,0.19670512
C0R650,竹田,2020-07-02,22.5849,120.5434,0.30499247
C0R660,枋寮,2020-07-02,22.3677,120.5906,0.28012943
C0R670,楓港,2020-07-02,22.1901,120.6922,0.19937466
C0R680,佳樂水,2020-07-02,21.9936,120.8616,0.5640763
C0R690,墾丁,2020-07-02,21.9668,120.8103,0.88404787
C0R700,枋山,2020-07-02,22.2468,120.6611,0.19937466
C0R710,龍磐,2020-07-02,21.9317,120.8389,0.7766539
C0R720,旭海,2020-07-02,22.2054,120.8876,0.44710088
C0R730,大坪頂,2020-07-02,22.0246,120.6936,0.77777374
C0R740,獅子,2020-07-02,22.2016,120.7053,0.23096614
C0R760,南仁湖,2020-07-02,22.0847,120.8634,0.900586
C0R770,保力,2020-07-02,22.0711,120.7641,0.7110713
C0R780,滿州,2020-07-02,22.0244,120.8399,0.63052696
C0R790,九棚,2020-07-02,22.142,120.8893,0.38912383
C0R800,丹路,2020-07-02,22.2045,120.751,0.3249463
C0R810,內獅,2020-07-02,22.3051,120.643,0.2180372
C0R830,高士,2020-07-02,22.1218,120.8368,0.90951496
C0R850,林邊,2020-07-02,22.4634,120.5339,0.22343081
C0R860,鼻頭,2020-07-02,22.1043,120.8979,0.90486145
C0R870,興海,2020-07-02,21.9752,120.8439,0.56407547
C0R880,後壁湖,2020-07-02,21.9457,120.7457,0.49863812
C0R890,山海,2020-07-02,21.9878,120.7091,0.5198403
C0R900,竹坑,2020-07-02,22.1385,120.7022,0.24405237
C0R910,下寮,2020-07-02,22.3929,120.5548,0.21756065
C0R920,塭仔,2020-07-02,22.4169,120.5197,0.21089178
C0R930,萬丹,2020-07-02,22.5885,120.4851,0.30499247
C0R940,加祿堂,2020-07-02,22.3363,120.6217,0.2180372
C0S710,鹿野,2020-07-02,22.9177,121.123,0.14465235
C0S730,綠島,2020-07-02,22.6672,121.4753,0.14802532
C0S740,池上,2020-07-02,23.1196,121.2095,0.1144812
C0S770,大溪山,2020-07-02,22.4785,120.9433,0.5367012
C0S790,金崙,2020-07-02,22.5381,120.9669,0.2441206
C0S810,東河,2020-07-02,22.9727,121.304,0.09316988
C0S830,長濱,2020-07-02,23.2868,121.412,0.19989368
C0S840,南田,2020-07-02,22.2797,120.8892,0.20587365
C0S890,關山,2020-07-02,23.0395,121.175,0.16316296
C0S900,蘭嶼高中,2020-07-02,22.0491,121.5121,0.92730063
C0S910,蘭嶼燈塔,2020-07-02,22.0812,121.5031,0.9486476
C0S920,金峰嘉蘭,2020-07-02,22.5948,120.9608,0.14761445
C0S930,延平,2020-07-02,22.9026,121.0841,0.12776688
C0S940,石寧山,2020-07-02,23.2238,121.4066,0.14219761
C0S950,七塊厝,2020-07-02,22.9545,121.2299,0.16389506
C0S960,香蘭,2020-07-02,22.5876,120.9934,0.12020864
C0S970,加津林,2020-07-02,22.4162,120.9269,0.140901
C0S990,山豬窟,2020-07-02,22.3186,120.8574,0.6111251
C0SA00,歷坵,2020-07-02,22.521,120.8919,0.6311139
C0SA10,檳榔四格山,2020-07-02,22.81,121.1093,0.4425589
C0SA30,都歷,2020-07-02,23.0203,121.3236,0.1458059
C0SA40,瑞和,2020-07-02,22.9744,121.1567,0.16050826
C0SA60,知本（水試所）,2020-07-02,22.7024,121.0828,0.11906935
C0SA80,土,2020-07-02,22.4531,120.8876,0.17264414
C0SA90,達仁林場,2020-07-02,22.2643,120.824,0.6477774
C0T870,鯉魚潭,2020-07-02,23.9356,121.5089,0.07619599
C0T900,西林,2020-07-02,23.8119,121.4415,0.08484221
C0T960,光復,2020-07-02,23.6607,121.425,0.11064571
C0T9A0,月眉山,2020-07-02,23.8099,121.5398,0.31431678
C0T9D0,和中,2020-07-02,24.2668,121.741,0.18221197
C0T9E0,大坑,2020-07-02,23.8806,121.582,0.22582112
C0T9F0,水璉,2020-07-02,23.7971,121.5425,0.11551605
C0T9I0,豐濱,2020-07-02,23.5839,121.5148,0.12594505
C0T9M0,靜浦,2020-07-02,23.4552,121.495,0.10429694
C0T9N0,富里,2020-07-02,23.1716,121.2494,0.35890448
C0U600,礁溪,2020-07-02,24.8175,121.7656,0.08652766
C0U650,玉蘭,2020-07-02,24.6753,121.5871,0.4211837
C0U750,龜山島,2020-07-02,24.8417,121.9531,0.21261501
C0U760,東澳,2020-07-02,24.522,121.8332,0.10746709
C0U770,南澳,2020-07-02,24.4493,121.8102,0.09842319
C0U780,五結,2020-07-02,24.6864,121.7979,0.11932856
C0U860,頭城,2020-07-02,24.8532,121.8308,0.08522798
C0U870,大礁溪,2020-07-02,24.791,121.675,0.17899257
C0U880,北關,2020-07-02,24.9072,121.8734,0.34205568
C0U890,三星,2020-07-02,24.6681,121.653,0.10607307
C0U900,內城,2020-07-02,24.7181,121.6877,0.09208318
C0U910,冬山,2020-07-02,24.6337,121.7937,0.11932856
C0U940,羅東,2020-07-02,24.6818,121.7493,0.120745875
C0U970,大福,2020-07-02,24.8006,121.8139,0.08398148
C0U990,員山,2020-07-02,24.7444,121.7225,0.120745875
C0UA00,土場,2020-07-02,24.5765,121.4953,0.14579947
C0UA80,大溪漁港,2020-07-02,24.9418,121.903,0.08652766
C0UA90,石城,2020-07-02,24.9804,121.9512,0.10790039
C0UB00,淡江大學蘭陽校園,2020-07-02,24.8232,121.7304,0.15594655
C0UB10,蘇澳,2020-07-02,24.5969,121.8571,0.13829379
C0UB20,壯圍,2020-07-02,24.7359,121.8163,0.11798994
C0V250,甲仙,2020-07-02,23.0801,120.5918,0.5807487
C0V260,月眉,2020-07-02,22.971,120.5399,0.62660784
C0V310,美濃,2020-07-02,22.8987,120.5192,0.2320197
C0V350,溪埔,2020-07-02,22.7386,120.4468,0.202352
C0V360,內門,2020-07-02,22.9755,120.4668,0.35229883
C0V370,古亭坑,2020-07-02,22.8932,120.4019,0.22053316
C0V400,阿公店,2020-07-02,22.8042,120.3555,0.19501866
C0V440,鳳山,2020-07-02,22.6467,120.3561,0.21383776
C0V450,鳳森,2020-07-02,22.5451,120.3926,0.33500078
C0V490,新興,2020-07-02,22.6274,120.2988,0.20186476
C0V530,阿蓮,2020-07-02,22.8832,120.3275,0.112802446
C0V610,梓官,2020-07-02,22.7606,120.2672,0.14346063
C0V620,永安,2020-07-02,22.8231,120.2369,0.13326463
C0V630,茄萣,2020-07-02,22.9066,120.1826,0.10836725
C0V640,湖內,2020-07-02,22.8871,120.2445,0.11192473
C0V650,彌陀,2020-07-02,22.7838,120.2464,0.13326463
C0V660,岡山,2020-07-02,22.7971,120.295,0.14346063
C0V680,仁武,2020-07-02,22.7011,120.3477,0.18099757
C0V690,鼓山,2020-07-02,22.6233,120.2756,0.20186476
C0V700,三民,2020-07-02,22.645,120.3112,0.20186476
C0V710,苓雅,2020-07-02,22.6227,120.3307,0.20186476
C0V720,林園,2020-07-02,22.5077,120.3945,0.20186476
C0V730,大寮,2020-07-02,22.6056,120.3957,0.26617545
C0V740,旗山,2020-07-02,22.8886,120.4836,0.2419121
C0V750,路竹,2020-07-02,22.855,120.2594,0.13382651
C0V760,橋頭,2020-07-02,22.7578,120.3058,0.14666498
C0V770,大社,2020-07-02,22.7303,120.3466,0.18099757
C0V790,萬山,2020-07-02,22.9059,120.6881,0.4240131
C0V800,六龜,2020-07-02,22.9979,120.6336,0.5617885
C0V810,左營,2020-07-02,22.6749,120.2849,0.1767581
C0V820,小林,2020-07-02,23.1484,120.6333,0.4464793
C0V840,鳳鼻頭,2020-07-02,22.5083,120.3591,0.19670512
C0V850,蚵仔寮,2020-07-02,22.7256,120.2527,0.1725981
C0V860,南寮,2020-07-02,22.7616,120.2339,0.1288967
C0V870,文安,2020-07-02,22.8025,120.2164,0.1288967
C0V880,興達,2020-07-02,22.8778,120.2127,0.10836734
C0V890,前鎮,2020-07-02,22.5718,120.3117,0.19670512
C0V900,汕尾,2020-07-02,22.4782,120.4151,0.2095565
C0X050,東河,2020-07-02,23.2966,120.3856,0.21178575
C0X060,下營,2020-07-02,23.2269,120.2563,0.12301777
C0X080,佳里,2020-07-02,23.173,120.1451,0.117623664
C0X100,臺南市北區,2020-07-02,23.0104,120.1942,0.11144404
C0X110,臺南市南區,2020-07-02,22.9612,120.1884,0.11353347
C0X120,麻豆,2020-07-02,23.1833,120.2486,0.11988822
C0X130,官田,2020-07-02,23.1932,120.3154,0.12945658
C0X140,西港,2020-07-02,23.1256,120.2031,0.11536157
C0X150,安定,2020-07-02,23.1026,120.2278,0.12508564
C0X160,仁德,2020-07-02,22.9683,120.2577,0.13067833
C0X170,關廟,2020-07-02,22.963,120.3278,0.14717714
C0X180,山上,2020-07-02,23.0757,120.3633,0.30823547
C0X190,安平,2020-07-02,22.9932,120.1522,0.11144404
C0X200,左鎮,2020-07-02,23.0568,120.4085,0.29788935
C0X210,白河,2020-07-02,23.3475,120.4144,0.22979608
C0X220,學甲,2020-07-02,23.2304,120.1822,0.11988822
C0X230,鹽水,2020-07-02,23.2726,120.2476,0.11447231
C0X240,關子嶺,2020-07-02,23.3312,120.508,0.403321
C0X250,新營,2020-07-02,23.3107,120.3167,0.115057044
C0X260,後壁,2020-07-02,23.3664,120.3623,0.1967761
C0X280,將軍,2020-07-02,23.215,120.1358,0.117623664
C0X290,北門,2020-07-02,23.2678,120.1255,0.117623664
C0X300,鹿寮,2020-07-02,23.386,120.4773,0.3281033
C0X310,七股,2020-07-02,23.1473,120.0863,0.11822373
C0X320,柳營,2020-07-02,23.2533,120.3753,0.22067045
C0Z020,明里,2020-07-02,23.2087,121.2623,0.17824094
C0Z061,玉里,2020-07-02,23.3215,121.3397,0.14134863
C0Z070,舞鶴,2020-07-02,23.4681,121.3741,0.18995611
C0Z080,富源,2020-07-02,23.5876,121.3782,0.1776783
C0Z100,東華,2020-07-02,23.8953,121.5498,0.058695477
C0Z150,吉安光華,2020-07-02,23.9309,121.5952,0.055212975
C0Z160,鳳林,2020-07-02,23.7461,121.4534,0.10542647
C0Z170,卓溪,2020-07-02,23.3443,121.3029,0.14801343
C0Z180,新城,2020-07-02,24.0395,121.6045,0.13496293
C0Z190,富世,2020-07-02,24.1474,121.6297,0.35331002
C0Z200,萬榮,2020-07-02,23.7092,121.4201,0.07619599
C0Z210,瑞穗,2020-07-02,23.5239,121.3902,0.1170116
C0Z230,和平,2020-07-02,24.3072,121.7701,0.18221197
C0Z270,蕃薯寮,2020-07-02,23.7384,121.5401,0.111237444
C0Z280,德武,2020-07-02,23.4743,121.4107,0.15745486
C0Z300,東里,2020-07-02,23.2685,121.3055,0.14448048
C0Z310,清水斷崖,2020-07-02,24.2183,121.6891,0.23680185
C0Z330,安通山,2020-07-02,23.2907,121.3485,0.21812627
