站號,站名,日期,lat,lon,BlastGRU-TW
466881,新北,2020-03-20,24.9593,121.52,0.05387741
466900,淡水,2020-03-20,25.1649,121.4489,0.028368792
466920,臺北,2020-03-20,25.0377,121.5149,0.0687231
466940,基隆,2020-03-20,25.1333,121.7405,0.12277521
466990,花蓮,2020-03-20,23.9751,121.6133,0.53362954
467050,新屋,2020-03-20,25.0067,121.0475,0.11763159
467080,宜蘭,2020-03-20,24.764,121.7565,0.09066026
467270,田中,2020-03-20,23.8738,120.5813,0.18211697
467300,東吉島,2020-03-20,23.2569,119.6675,0.051323682
467350,澎湖,2020-03-20,23.5655,119.5631,0.008282155
467410,臺南,2020-03-20,22.9932,120.2048,0.6450879
467420,永康,2020-03-20,23.0384,120.2367,0.6358386
467441,高雄,2020-03-20,22.7304,120.3125,0.32218602
467480,嘉義,2020-03-20,23.4959,120.4329,0.2900757
467490,臺中,2020-03-20,24.1457,120.6841,0.024218421
467540,大武,2020-03-20,22.3557,120.9038,0.33532372
467571,新竹,2020-03-20,24.8279,121.0142,0.028355896
467590,恆春,2020-03-20,22.0039,120.7463,0.0035678942
467610,成功,2020-03-20,23.0975,121.3734,0.770088
467620,蘭嶼,2020-03-20,22.037,121.5583,0.0015350789
467660,臺東,2020-03-20,22.7522,121.1546,0.18280047
467790,墾丁雷達站,2020-03-20,21.9482,120.808,0.0029362426
C0A520,山佳,2020-03-20,24.9749,121.402,0.031432696
C0A530,坪林,2020-03-20,24.9382,121.7097,0.017978927
C0A540,四堵,2020-03-20,24.8926,121.7457,0.006466314
C0A550,泰平,2020-03-20,24.9712,121.8237,0.046406504
C0A560,福山,2020-03-20,24.7762,121.5028,0.07498653
C0A570,桶後,2020-03-20,24.8482,121.598,0.013330798
C0A640,石碇,2020-03-20,24.994,121.6629,0.024227122
C0A650,火燒寮,2020-03-20,25.0027,121.7429,0.015428899
C0A660,瑞芳,2020-03-20,25.1132,121.8011,0.05499663
C0A770,科教館,2020-03-20,25.0964,121.5165,0.04244876
C0A860,大坪,2020-03-20,25.1659,121.633,0.0030646785
C0A880,福隆,2020-03-20,25.0178,121.9421,0.13271822
C0A890,雙溪,2020-03-20,25.036,121.8642,0.07390452
C0A920,富貴角,2020-03-20,25.2638,121.5653,0.008937377
C0A931,三和,2020-03-20,25.2332,121.5952,0.011094759
C0A940,金山,2020-03-20,25.2236,121.644,0.012071435
C0A950,鼻頭角,2020-03-20,25.129,121.9234,0.14375004
C0A970,三貂角,2020-03-20,25.0076,122.0021,0.038780853
C0A980,社子,2020-03-20,25.1095,121.4697,0.04674682
C0A9C0,天母,2020-03-20,25.1175,121.5372,0.034799337
C0A9F0,內湖,2020-03-20,25.0794,121.5755,0.0687231
C0AC60,三峽,2020-03-20,24.939,121.3697,0.049503557
C0AC70,信義,2020-03-20,25.0378,121.5646,0.0687231
C0AC80,文山,2020-03-20,25.0023,121.5757,0.041232746
C0ACA0,新莊,2020-03-20,25.0515,121.4468,0.04744169
C0AD00,三芝,2020-03-20,25.2581,121.5019,0.0086484775
C0AD10,八里,2020-03-20,25.1502,121.4039,0.028368792
C0AD30,蘆洲,2020-03-20,25.0866,121.4723,0.04244876
C0AD40,土城,2020-03-20,24.9732,121.4452,0.038263164
C0AD50,鶯歌,2020-03-20,24.9515,121.3463,0.015777482
C0AG80,中和,2020-03-20,24.9916,121.4918,0.0687231
C0AH00,汐止,2020-03-20,25.0669,121.6588,0.111608505
C0AH10,永和,2020-03-20,25.0113,121.5081,0.075877994
C0AH40,平等,2020-03-20,25.1291,121.5771,0.005610281
C0AH50,林口,2020-03-20,25.0722,121.3808,0.0069903308
C0AH70,松山,2020-03-20,25.0487,121.5504,0.0687231
C0AH80,深坑,2020-03-20,25.0027,121.6283,0.04483956
C0AI00,五股,2020-03-20,25.0744,121.4273,0.0065513514
C0AI10,屈尺,2020-03-20,24.9218,121.5447,0.041232746
C0AI20,白沙灣,2020-03-20,25.2831,121.5191,0.01441435
C0AI30,三重,2020-03-20,25.0573,121.5006,0.04244876
C0AI40,石牌,2020-03-20,25.1156,121.5131,0.038263164
C0AJ10,澳底,2020-03-20,25.0571,121.9273,0.15720816
C0AJ20,野柳,2020-03-20,25.207,121.69,0.111608505
C0AJ30,淡水觀海,2020-03-20,25.1846,121.4086,0.031486116
C0AJ40,石門,2020-03-20,25.2737,121.6012,0.004235381
C0AJ50,水湳洞,2020-03-20,25.1237,121.8622,0.111608505
C0AJ60,六塊厝,2020-03-20,25.24,121.4481,0.031486116
C0AJ70,田寮,2020-03-20,25.2698,121.4886,0.015743671
C0AJ80,板橋,2020-03-20,25.0107,121.4489,0.038263164
C0B010,七堵,2020-03-20,25.0948,121.7171,0.090852134
C0B020,基隆嶼,2020-03-20,25.1914,121.7839,0.111608505
C0B040,大武崙,2020-03-20,25.1667,121.707,0.090852134
C0B050,八斗子,2020-03-20,25.1448,121.7917,0.13677585
C0B060,暖暖,2020-03-20,25.0957,121.7403,0.053964227
C0C460,復興,2020-03-20,24.8202,121.3523,0.009126263
C0C480,桃園,2020-03-20,24.9924,121.3232,0.008450448
C0C490,八德,2020-03-20,24.9287,121.2833,0.02342584
C0C590,觀音,2020-03-20,25.0271,121.1533,0.013940548
C0C620,蘆竹,2020-03-20,25.0843,121.2658,0.023151519
C0C630,大溪,2020-03-20,24.8829,121.2655,0.014221578
C0C650,平鎮,2020-03-20,24.8975,121.2146,0.0049099633
C0C660,楊梅,2020-03-20,24.9124,121.143,0.004519292
C0C670,龍潭,2020-03-20,24.8701,121.2214,0.0042886175
C0C680,龜山,2020-03-20,25.0285,121.3866,0.011756988
C0C700,中壢,2020-03-20,24.9777,121.2564,0.006727121
C0C710,大溪永福,2020-03-20,24.8929,121.325,0.00897309
C0C720,竹圍,2020-03-20,25.1127,121.2398,0.028368792
C0C730,中大臨海站,2020-03-20,24.9661,121.0086,0.1648547
C0C740,觀音工業區,2020-03-20,25.0648,121.1149,0.007876308
C0C750,新興坑尾,2020-03-20,25.0061,121.0971,0.0047188397
C0D430,峨眉,2020-03-20,24.6905,121.0172,0.027317328
C0D480,打鐵坑,2020-03-20,24.8497,121.1508,0.009015281
C0D540,橫山,2020-03-20,24.7112,121.1169,0.0065542473
C0D560,竹東,2020-03-20,24.7671,121.0579,0.01445154
C0D580,寶山,2020-03-20,24.735,121.0252,0.013984532
C0D590,新豐,2020-03-20,24.8707,120.9772,0.038630106
C0D650,湖口,2020-03-20,24.9048,121.0436,0.052863024
C0D660,新竹市東區,2020-03-20,24.7987,120.9869,0.023288842
C0D670,海天一線,2020-03-20,24.832,120.9144,0.03555307
C0D680,香山濕地,2020-03-20,24.7836,120.915,0.032087896
C0D690,外湖,2020-03-20,24.9177,120.9687,0.1648547
C0D700,關西,2020-03-20,24.7977,121.1732,0.008327797
C0E420,竹南,2020-03-20,24.709,120.8889,0.02346688
C0E430,南庄,2020-03-20,24.6018,121.0002,0.014040993
C0E520,大湖,2020-03-20,24.4149,120.8709,0.0116726495
C0E540,後龍,2020-03-20,24.6065,120.7839,0.017340813
C0E550,明德,2020-03-20,24.5835,120.8854,0.022511965
C0E590,通霄,2020-03-20,24.4719,120.7046,0.025605623
C0E730,頭份,2020-03-20,24.6882,120.9122,0.02346688
C0E740,造橋,2020-03-20,24.6371,120.8648,0.019090116
C0E750,苗栗,2020-03-20,24.5646,120.8246,0.0113562625
C0E780,銅鑼,2020-03-20,24.4897,120.7909,0.035016898
C0E791,卓蘭,2020-03-20,24.3126,120.8244,0.033415604
C0E810,西湖,2020-03-20,24.5629,120.7485,0.01339835
C0E820,獅潭,2020-03-20,24.5391,120.92,0.01926196
C0E830,苑裡,2020-03-20,24.4397,120.6531,0.055208586
C0E850,大河,2020-03-20,24.6181,120.9486,0.01907903
C0E870,高鐵苗栗,2020-03-20,24.6073,120.8261,0.015944427
C0E910,海埔,2020-03-20,24.6488,120.7724,0.049851514
C0E920,通霄漁港,2020-03-20,24.4986,120.6739,0.043114904
C0E930,龍鳳,2020-03-20,24.7,120.8591,0.024636341
C0F000,大肚,2020-03-20,24.153,120.5721,0.05754807
C0F0B0,石岡,2020-03-20,24.2761,120.7776,0.12196663
C0F850,東勢,2020-03-20,24.2464,120.833,0.019379558
C0F930,大甲,2020-03-20,24.3477,120.6404,0.04218095
C0F970,大坑,2020-03-20,24.1731,120.7223,0.016687809
C0F9A0,中竹林,2020-03-20,24.1036,120.7511,0.036632016
C0F9I0,神岡,2020-03-20,24.2725,120.6583,0.029979892
C0F9K0,大安,2020-03-20,24.3451,120.588,0.10590626
C0F9L0,后里,2020-03-20,24.3104,120.7297,0.015348953
C0F9M0,豐原,2020-03-20,24.2543,120.7207,0.021738043
C0F9N0,大里,2020-03-20,24.0925,120.7014,0.07458467
C0F9O0,潭子,2020-03-20,24.2131,120.7039,0.029039819
C0F9P0,清水,2020-03-20,24.3123,120.5622,0.12889616
C0F9Q0,外埔,2020-03-20,24.3478,120.7057,0.046152633
C0F9R0,龍井,2020-03-20,24.1845,120.529,0.13681048
C0F9S0,烏日,2020-03-20,24.1071,120.6241,0.26074648
C0F9T0,西屯,2020-03-20,24.1795,120.6413,0.044289537
C0F9U0,南屯,2020-03-20,24.137,120.638,0.07458467
C0F9X0,大雅(中科園區),2020-03-20,24.2153,120.6244,0.020383513
C0FA10,松柏,2020-03-20,24.4291,120.6175,0.07610614
C0FA20,溫寮,2020-03-20,24.3722,120.5831,0.07610614
C0FA30,梧棲,2020-03-20,24.256,120.5234,0.13681048
C0FA40,臺中電廠,2020-03-20,24.2146,120.4907,0.13681048
C0FA50,霧峰,2020-03-20,24.0419,120.6995,0.05565166
C0G620,芬園,2020-03-20,24.0157,120.6213,0.12314649
C0G640,鹿港,2020-03-20,24.0753,120.4305,0.34980646
C0G650,員林,2020-03-20,23.9465,120.5856,0.14578709
C0G660,溪湖,2020-03-20,23.9484,120.4791,0.19845721
C0G720,溪州,2020-03-20,23.8516,120.4991,0.18502851
C0G730,二林,2020-03-20,23.9033,120.3761,0.34055707
C0G740,大城,2020-03-20,23.8525,120.3209,0.35437596
C0G770,福興,2020-03-20,24.0413,120.4377,0.34980646
C0G780,秀水,2020-03-20,24.0341,120.5039,0.35815284
C0G800,埔鹽,2020-03-20,24.0004,120.4317,0.34980646
C0G810,埔心,2020-03-20,23.9476,120.5255,0.18478742
C0G820,田尾,2020-03-20,23.9017,120.5094,0.1726561
C0G830,埤頭,2020-03-20,23.866,120.4528,0.20380065
C0G840,北斗,2020-03-20,23.8776,120.5142,0.1726561
C0G860,社頭,2020-03-20,23.8976,120.5862,0.13505849
C0G870,芳苑,2020-03-20,23.9223,120.32,0.36511722
C0G880,二水,2020-03-20,23.8107,120.6173,0.10743496
C0G890,伸港,2020-03-20,24.1489,120.4844,0.18438406
C0G900,線西,2020-03-20,24.1434,120.4435,0.17987508
C0G910,花壇,2020-03-20,24.0321,120.5495,0.32657242
C0G920,永靖,2020-03-20,23.9247,120.5475,0.1726561
C0G940,竹塘,2020-03-20,23.8483,120.3868,0.23268606
C0G950,防潮門,2020-03-20,24.1835,120.4871,0.15136155
C0G960,福寶,2020-03-20,24.0443,120.3814,0.36494035
C0G970,三豐,2020-03-20,23.882,120.2895,0.36511743
C0H890,埔里,2020-03-20,23.9722,120.9524,0.100632176
C0H950,中寮,2020-03-20,23.8844,120.7664,0.034075297
C0H960,草屯,2020-03-20,23.9737,120.6809,0.10656468
C0I110,竹山,2020-03-20,23.7612,120.6882,0.049611803
C0I360,水里,2020-03-20,23.8126,120.8498,0.26948747
C0I380,集集,2020-03-20,23.8282,120.8015,0.3104222
C0I410,名間,2020-03-20,23.8371,120.7014,0.12686622
C0I420,國姓,2020-03-20,24.0378,120.8551,0.116717234
C0I460,南投,2020-03-20,23.9115,120.6873,0.08607348
C0K250,崙背,2020-03-20,23.7555,120.3189,0.2878978
C0K280,四湖,2020-03-20,23.6304,120.2271,0.3781569
C0K291,宜梧,2020-03-20,23.5363,120.1693,0.3485595
C0K330,虎尾,2020-03-20,23.7192,120.442,0.2780076
C0K390,土庫,2020-03-20,23.679,120.3956,0.2782491
C0K400,斗六,2020-03-20,23.7206,120.5411,0.22079282
C0K410,北港,2020-03-20,23.574,120.2928,0.36785558
C0K420,西螺,2020-03-20,23.8004,120.4674,0.16374956
C0K430,褒忠,2020-03-20,23.6909,120.3036,0.3501059
C0K440,二崙,2020-03-20,23.7728,120.4089,0.22895885
C0K450,大埤,2020-03-20,23.6461,120.4315,0.3254141
C0K460,斗南,2020-03-20,23.6787,120.4784,0.23115288
C0K470,林內,2020-03-20,23.7487,120.6096,0.20615217
C0K480,莿桐,2020-03-20,23.7612,120.5024,0.15603694
C0K500,元長,2020-03-20,23.6498,120.315,0.41630208
C0K510,水林,2020-03-20,23.5729,120.246,0.39121354
C0K530,臺西,2020-03-20,23.7015,120.1976,0.34160393
C0K550,蔦松,2020-03-20,23.5143,120.2297,0.35203445
C0K560,棋山,2020-03-20,23.6865,120.6034,0.16456355
C0K580,高鐵雲林,2020-03-20,23.7375,120.4179,0.2782491
C0K590,雲林東勢,2020-03-20,23.6742,120.2557,0.3501059
C0K600,箔子寮,2020-03-20,23.6197,120.14,0.38811216
C0M410,馬頭山,2020-03-20,23.3244,120.582,0.40876368
C0M520,東後寮,2020-03-20,23.3699,120.2481,0.8470187
C0M640,中埔,2020-03-20,23.4254,120.5229,0.16466503
C0M650,朴子,2020-03-20,23.4346,120.239,0.34513795
C0M660,溪口,2020-03-20,23.6041,120.4036,0.38693753
C0M670,大林,2020-03-20,23.6006,120.4584,0.24500787
C0M680,太保,2020-03-20,23.4551,120.3315,0.3800069
C0M690,水上,2020-03-20,23.4197,120.3889,0.23721789
C0M700,竹崎,2020-03-20,23.5262,120.5555,0.15875126
C0M710,東石,2020-03-20,23.4589,120.1539,0.35203445
C0M720,番路,2020-03-20,23.4647,120.5542,0.10598452
C0M730,嘉義市東區,2020-03-20,23.4577,120.4605,0.21274601
C0M740,六腳,2020-03-20,23.4929,120.2906,0.3764934
C0M750,布袋,2020-03-20,23.3809,120.1678,0.34513795
C0M760,民雄,2020-03-20,23.5518,120.4285,0.36578718
C0M770,嘉義梅山,2020-03-20,23.5854,120.5556,0.13219766
C0M780,鹿草,2020-03-20,23.4113,120.3084,0.3696781
C0M790,新港,2020-03-20,23.5533,120.3457,0.3731436
C0M800,茶山,2020-03-20,23.2991,120.6648,0.34420088
C0M880,好美里,2020-03-20,23.3364,120.138,0.8987882
C0N010,鯤鯓國小,2020-03-20,23.1879,120.0889,0.3425717
C0N020,城西,2020-03-20,23.0568,120.0956,0.93530685
C0N030,四草,2020-03-20,23.0235,120.1116,0.9402207
C0N040,蘆竹溝,2020-03-20,23.2344,120.0961,0.3425717
C0N050,蚵寮,2020-03-20,23.301,120.1104,0.34257174
C0O810,曾文,2020-03-20,23.2197,120.4973,0.15565589
C0O830,北寮,2020-03-20,23.0796,120.495,0.7284902
C0O840,王爺宮,2020-03-20,23.2221,120.4009,0.15565589
C0O860,大內,2020-03-20,23.1188,120.3608,0.8906026
C0O900,善化,2020-03-20,23.1129,120.2972,0.86653054
C0O930,玉井,2020-03-20,23.126,120.4605,0.22762008
C0O950,安南,2020-03-20,23.0767,120.1449,0.5773249
C0O960,崎頂,2020-03-20,22.9595,120.3693,0.7646708
C0O970,虎頭埤,2020-03-20,23.0214,120.3479,0.8687726
C0O980,新市,2020-03-20,23.0616,120.2982,0.86653054
C0O990,媽廟,2020-03-20,22.9917,120.2935,0.84804076
C0R150,三地門,2020-03-20,22.7099,120.6399,0.27014217
C0R160,鹽埔,2020-03-20,22.7396,120.5308,0.2319009
C0R170,屏東,2020-03-20,22.6603,120.4941,0.6884558
C0R190,赤山,2020-03-20,22.5923,120.6143,0.20424178
C0R220,潮州,2020-03-20,22.5344,120.54,0.113768294
C0R240,來義,2020-03-20,22.5273,120.6251,0.055920243
C0R260,春日,2020-03-20,22.3704,120.6283,0.060673386
C0R270,琉球嶼,2020-03-20,22.3322,120.3622,0.060431704
C0R280,檳榔,2020-03-20,22.0761,120.8368,0.0008816116
C0R320,車城,2020-03-20,22.0744,120.7162,0.0044476194
C0R341,牡丹,2020-03-20,22.13,120.7926,0.06631604
C0R350,貓鼻頭,2020-03-20,21.9218,120.7358,0.0033149202
C0R470,高樹,2020-03-20,22.8264,120.6008,0.34545842
C0R480,長治,2020-03-20,22.6931,120.5426,0.2392356
C0R490,九如,2020-03-20,22.7405,120.4905,0.69656765
C0R520,崁頂,2020-03-20,22.5148,120.5069,0.30060712
C0R540,佳冬,2020-03-20,22.4195,120.5524,0.2983398
C0R550,新埤,2020-03-20,22.4679,120.5829,0.20077445
C0R560,新園,2020-03-20,22.5434,120.4616,0.30060712
C0R570,麟洛,2020-03-20,22.6508,120.5272,0.69656736
C0R580,南州,2020-03-20,22.4859,120.5027,0.29834002
C0R590,里港,2020-03-20,22.7792,120.4946,0.34651852
C0R620,墾雷,2020-03-20,21.9008,120.8553,0.0033149202
C0R640,東港,2020-03-20,22.4625,120.4407,0.37760767
C0R650,竹田,2020-03-20,22.5849,120.5434,0.19950932
C0R660,枋寮,2020-03-20,22.3677,120.5906,0.11425532
C0R670,楓港,2020-03-20,22.1901,120.6922,0.07678324
C0R680,佳樂水,2020-03-20,21.9936,120.8616,0.0038540198
C0R690,墾丁,2020-03-20,21.9668,120.8103,0.00073491986
C0R700,枋山,2020-03-20,22.2468,120.6611,0.07678324
C0R710,龍磐,2020-03-20,21.9317,120.8389,0.0019256446
C0R720,旭海,2020-03-20,22.2054,120.8876,0.57906884
C0R730,大坪頂,2020-03-20,22.0246,120.6936,0.0017747215
C0R740,獅子,2020-03-20,22.2016,120.7053,0.0706645
C0R760,南仁湖,2020-03-20,22.0847,120.8634,0.00045084732
C0R770,保力,2020-03-20,22.0711,120.7641,0.002438362
C0R780,滿州,2020-03-20,22.0244,120.8399,0.0030869187
C0R790,九棚,2020-03-20,22.142,120.8893,0.6004322
C0R800,丹路,2020-03-20,22.2045,120.751,0.06427132
C0R810,內獅,2020-03-20,22.3051,120.643,0.07088873
C0R830,高士,2020-03-20,22.1218,120.8368,0.00023809203
C0R850,林邊,2020-03-20,22.4634,120.5339,0.30060712
C0R860,鼻頭,2020-03-20,22.1043,120.8979,0.0035597885
C0R870,興海,2020-03-20,21.9752,120.8439,0.0038540198
C0R880,後壁湖,2020-03-20,21.9457,120.7457,0.0047432524
C0R890,山海,2020-03-20,21.9878,120.7091,0.0044476194
C0R900,竹坑,2020-03-20,22.1385,120.7022,0.06190157
C0R910,下寮,2020-03-20,22.3929,120.5548,0.29834002
C0R920,塭仔,2020-03-20,22.4169,120.5197,0.3006028
C0R930,萬丹,2020-03-20,22.5885,120.4851,0.19950932
C0R940,加祿堂,2020-03-20,22.3363,120.6217,0.07088873
C0S710,鹿野,2020-03-20,22.9177,121.123,0.18054475
C0S730,綠島,2020-03-20,22.6672,121.4753,0.7141368
C0S740,池上,2020-03-20,23.1196,121.2095,0.3142112
C0S770,大溪山,2020-03-20,22.4785,120.9433,0.09881384
C0S790,金崙,2020-03-20,22.5381,120.9669,0.14722927
C0S810,東河,2020-03-20,22.9727,121.304,0.529713
C0S830,長濱,2020-03-20,23.2868,121.412,0.31860322
C0S840,南田,2020-03-20,22.2797,120.8892,0.29387784
C0S890,關山,2020-03-20,23.0395,121.175,0.507255
C0S900,蘭嶼高中,2020-03-20,22.0491,121.5121,0.019217044
C0S910,蘭嶼燈塔,2020-03-20,22.0812,121.5031,0.012117756
C0S920,金峰嘉蘭,2020-03-20,22.5948,120.9608,0.40612733
C0S930,延平,2020-03-20,22.9026,121.0841,0.42747375
C0S940,石寧山,2020-03-20,23.2238,121.4066,0.45273444
C0S950,七塊厝,2020-03-20,22.9545,121.2299,0.14332114
C0S960,香蘭,2020-03-20,22.5876,120.9934,0.7537985
C0S970,加津林,2020-03-20,22.4162,120.9269,0.34145173
C0S990,山豬窟,2020-03-20,22.3186,120.8574,0.36094132
C0SA00,歷坵,2020-03-20,22.521,120.8919,0.07168221
C0SA10,檳榔四格山,2020-03-20,22.81,121.1093,0.07407248
C0SA30,都歷,2020-03-20,23.0203,121.3236,0.73775
C0SA40,瑞和,2020-03-20,22.9744,121.1567,0.5617149
C0SA60,知本（水試所）,2020-03-20,22.7024,121.0828,0.3363141
C0SA80,土,2020-03-20,22.4531,120.8876,0.27101335
C0SA90,達仁林場,2020-03-20,22.2643,120.824,0.3628861
C0T870,鯉魚潭,2020-03-20,23.9356,121.5089,0.48773125
C0T900,西林,2020-03-20,23.8119,121.4415,0.45774636
C0T960,光復,2020-03-20,23.6607,121.425,0.5756316
C0T9A0,月眉山,2020-03-20,23.8099,121.5398,0.26895416
C0T9D0,和中,2020-03-20,24.2668,121.741,0.93777835
C0T9E0,大坑,2020-03-20,23.8806,121.582,0.33506063
C0T9F0,水璉,2020-03-20,23.7971,121.5425,0.39266858
C0T9I0,豐濱,2020-03-20,23.5839,121.5148,0.60349953
C0T9M0,靜浦,2020-03-20,23.4552,121.495,0.63580894
C0T9N0,富里,2020-03-20,23.1716,121.2494,0.15813711
C0U600,礁溪,2020-03-20,24.8175,121.7656,0.08462887
C0U650,玉蘭,2020-03-20,24.6753,121.5871,0.53501683
C0U750,龜山島,2020-03-20,24.8417,121.9531,0.18746127
C0U760,東澳,2020-03-20,24.522,121.8332,0.6537079
C0U770,南澳,2020-03-20,24.4493,121.8102,0.85079604
C0U780,五結,2020-03-20,24.6864,121.7979,0.1934139
C0U860,頭城,2020-03-20,24.8532,121.8308,0.09066026
C0U870,大礁溪,2020-03-20,24.791,121.675,0.046316497
C0U880,北關,2020-03-20,24.9072,121.8734,0.09026171
C0U890,三星,2020-03-20,24.6681,121.653,0.03855115
C0U900,內城,2020-03-20,24.7181,121.6877,0.06616172
C0U910,冬山,2020-03-20,24.6337,121.7937,0.1934139
C0U940,羅東,2020-03-20,24.6818,121.7493,0.18143016
C0U970,大福,2020-03-20,24.8006,121.8139,0.09838142
C0U990,員山,2020-03-20,24.7444,121.7225,0.18143016
C0UA00,土場,2020-03-20,24.5765,121.4953,0.06072605
C0UA80,大溪漁港,2020-03-20,24.9418,121.903,0.08411661
C0UA90,石城,2020-03-20,24.9804,121.9512,0.08275115
C0UB00,淡江大學蘭陽校園,2020-03-20,24.8232,121.7304,0.03854245
C0UB10,蘇澳,2020-03-20,24.5969,121.8571,0.867355
C0UB20,壯圍,2020-03-20,24.7359,121.8163,0.2102459
C0V250,甲仙,2020-03-20,23.0801,120.5918,0.57827735
C0V260,月眉,2020-03-20,22.971,120.5399,0.73922175
C0V310,美濃,2020-03-20,22.8987,120.5192,0.7704976
C0V350,溪埔,2020-03-20,22.7386,120.4468,0.59975684
C0V360,內門,2020-03-20,22.9755,120.4668,0.73128724
C0V370,古亭坑,2020-03-20,22.8932,120.4019,0.80554646
C0V400,阿公店,2020-03-20,22.8042,120.3555,0.7040843
C0V440,鳳山,2020-03-20,22.6467,120.3561,0.38224155
C0V450,鳳森,2020-03-20,22.5451,120.3926,0.13885039
C0V490,新興,2020-03-20,22.6274,120.2988,0.37906387
C0V530,阿蓮,2020-03-20,22.8832,120.3275,0.81170356
C0V610,梓官,2020-03-20,22.7606,120.2672,0.44212785
C0V620,永安,2020-03-20,22.8231,120.2369,0.3981746
C0V630,茄萣,2020-03-20,22.9066,120.1826,0.6108294
C0V640,湖內,2020-03-20,22.8871,120.2445,0.61676985
C0V650,彌陀,2020-03-20,22.7838,120.2464,0.3981746
C0V660,岡山,2020-03-20,22.7971,120.295,0.44212785
C0V680,仁武,2020-03-20,22.7011,120.3477,0.3204052
C0V690,鼓山,2020-03-20,22.6233,120.2756,0.37906387
C0V700,三民,2020-03-20,22.645,120.3112,0.37906387
C0V710,苓雅,2020-03-20,22.6227,120.3307,0.37906387
C0V720,林園,2020-03-20,22.5077,120.3945,0.37906387
C0V730,大寮,2020-03-20,22.6056,120.3957,0.14098597
C0V740,旗山,2020-03-20,22.8886,120.4836,0.76496357
C0V750,路竹,2020-03-20,22.855,120.2594,0.5850137
C0V760,橋頭,2020-03-20,22.7578,120.3058,0.44137445
C0V770,大社,2020-03-20,22.7303,120.3466,0.3204052
C0V790,萬山,2020-03-20,22.9059,120.6881,0.33366832
C0V800,六龜,2020-03-20,22.9979,120.6336,0.78279275
C0V810,左營,2020-03-20,22.6749,120.2849,0.32218602
C0V820,小林,2020-03-20,23.1484,120.6333,0.30639365
C0V840,鳳鼻頭,2020-03-20,22.5083,120.3591,0.37760767
C0V850,蚵仔寮,2020-03-20,22.7256,120.2527,0.32712758
C0V860,南寮,2020-03-20,22.7616,120.2339,0.39779854
C0V870,文安,2020-03-20,22.8025,120.2164,0.39779854
C0V880,興達,2020-03-20,22.8778,120.2127,0.6108294
C0V890,前鎮,2020-03-20,22.5718,120.3117,0.37760767
C0V900,汕尾,2020-03-20,22.4782,120.4151,0.60100836
C0X050,東河,2020-03-20,23.2966,120.3856,0.27740914
C0X060,下營,2020-03-20,23.2269,120.2563,0.8492853
C0X080,佳里,2020-03-20,23.173,120.1451,0.8987881
C0X100,臺南市北區,2020-03-20,23.0104,120.1942,0.6236218
C0X110,臺南市南區,2020-03-20,22.9612,120.1884,0.6358386
C0X120,麻豆,2020-03-20,23.1833,120.2486,0.8942663
C0X130,官田,2020-03-20,23.1932,120.3154,0.8442193
C0X140,西港,2020-03-20,23.1256,120.2031,0.9163152
C0X150,安定,2020-03-20,23.1026,120.2278,0.6924054
C0X160,仁德,2020-03-20,22.9683,120.2577,0.84219015
C0X170,關廟,2020-03-20,22.963,120.3278,0.8600506
C0X180,山上,2020-03-20,23.0757,120.3633,0.7273759
C0X190,安平,2020-03-20,22.9932,120.1522,0.6236218
C0X200,左鎮,2020-03-20,23.0568,120.4085,0.7387271
C0X210,白河,2020-03-20,23.3475,120.4144,0.2695656
C0X220,學甲,2020-03-20,23.2304,120.1822,0.8942663
C0X230,鹽水,2020-03-20,23.2726,120.2476,0.8675419
C0X240,關子嶺,2020-03-20,23.3312,120.508,0.13451079
C0X250,新營,2020-03-20,23.3107,120.3167,0.82667136
C0X260,後壁,2020-03-20,23.3664,120.3623,0.7401871
C0X280,將軍,2020-03-20,23.215,120.1358,0.8987882
C0X290,北門,2020-03-20,23.2678,120.1255,0.8987882
C0X300,鹿寮,2020-03-20,23.386,120.4773,0.22228894
C0X310,七股,2020-03-20,23.1473,120.0863,0.46063343
C0X320,柳營,2020-03-20,23.2533,120.3753,0.27503726
C0Z020,明里,2020-03-20,23.2087,121.2623,0.3667696
C0Z061,玉里,2020-03-20,23.3215,121.3397,0.48123947
C0Z070,舞鶴,2020-03-20,23.4681,121.3741,0.60929674
C0Z080,富源,2020-03-20,23.5876,121.3782,0.6070691
C0Z100,東華,2020-03-20,23.8953,121.5498,0.5528468
C0Z150,吉安光華,2020-03-20,23.9309,121.5952,0.56094295
C0Z160,鳳林,2020-03-20,23.7461,121.4534,0.5858922
C0Z170,卓溪,2020-03-20,23.3443,121.3029,0.44976816
C0Z180,新城,2020-03-20,24.0395,121.6045,0.52016616
C0Z190,富世,2020-03-20,24.1474,121.6297,0.8328174
C0Z200,萬榮,2020-03-20,23.7092,121.4201,0.48773125
C0Z210,瑞穗,2020-03-20,23.5239,121.3902,0.61673886
C0Z230,和平,2020-03-20,24.3072,121.7701,0.93777835
C0Z270,蕃薯寮,2020-03-20,23.7384,121.5401,0.60772926
C0Z280,德武,2020-03-20,23.4743,121.4107,0.6418046
C0Z300,東里,2020-03-20,23.2685,121.3055,0.46419346
C0Z310,清水斷崖,2020-03-20,24.2183,121.6891,0.9265204
C0Z330,安通山,2020-03-20,23.2907,121.3485,0.21292979
