站號,站名,日期,lat,lon,BlastGRU-TW
466881,新北,2020-09-01,24.9593,121.52,0.07853398
466900,淡水,2020-09-01,25.164889,121.448906,0.097181834
466920,臺北,2020-09-01,25.037658,121.514853,0.076623544
467441,高雄,2020-09-01,22.7304,120.3125,0.34410825
467480,嘉義,2020-09-01,23.495925,120.432906,0.5209273
467490,臺中,2020-09-01,24.145736,120.684075,0.49021527
C0A540,四堵,2020-09-01,24.8926,121.745736,0.3219591
C0A550,泰平,2020-09-01,24.971197,121.823711,0.4618425
C0A560,福山,2020-09-01,24.776203,121.502811,0.32767126
C0A931,三和,2020-09-01,25.233153,121.595236,0.14800029
C0A940,金山,2020-09-01,25.223628,121.643967,0.13474074
C0A950,鼻頭角,2020-09-01,25.129036,121.923372,0.12591729
C0AD10,八里,2020-09-01,25.150211,121.403947,0.097181834
C0AD30,蘆洲,2020-09-01,25.086594,121.472331,0.08380617
C0AD40,土城,2020-09-01,24.973208,121.445169,0.08485212
C0AI10,屈尺,2020-09-01,24.92184,121.54475,0.08191288
C0AI20,白沙灣,2020-09-01,25.283128,121.519058,0.13037126
C0AI30,三重,2020-09-01,25.057328,121.500629,0.08380617
C0B010,七堵,2020-09-01,25.094819,121.71713,0.13098286
C0B020,基隆嶼,2020-09-01,25.19141,121.78391,0.12823513
