站號,站名,日期,lat,lon,BlastGRU-TW
466881,新北,2020-07-27,24.9593,121.52,0.42543742
466900,淡水,2020-07-27,25.164889,121.448906,0.636613
466920,臺北,2020-07-27,25.037658,121.514853,0.4124385
467350,澎湖,2020-07-27,23.565503,119.563094,0.72126734
467410,臺南,2020-07-27,22.993239,120.204772,0.09835365
467420,永康,2020-07-27,23.038386,120.2367,0.09668316
467790,墾丁雷達站,2020-07-27,21.948235,120.808028,0.7178446
C0A520,山佳,2020-07-27,24.974944,121.402008,0.45818245
C0A530,坪林,2020-07-27,24.938183,121.70975,0.106131695
C0A880,福隆,2020-07-27,25.017842,121.942083,0.062756985
C0A890,雙溪,2020-07-27,25.036003,121.864242,0.43569085
C0A920,富貴角,2020-07-27,25.263783,121.565258,0.5548476
C0AC80,文山,2020-07-27,25.00235,121.575728,0.4464407
C0ACA0,新莊,2020-07-27,25.051478,121.446756,0.5346302
C0AD00,三芝,2020-07-27,25.258131,121.501917,0.70805407
C0AH70,松山,2020-07-27,25.04871,121.55042,0.4124385
C0AH80,深坑,2020-07-27,25.002703,121.628328,0.44644082
C0AI00,五股,2020-07-27,25.07445,121.42728,0.8433442
C0AJ70,田寮,2020-07-27,25.2698,121.4886,0.6540992
