站號,站名,日期,lat,lon,BlastGRU-TW
466881,新北,2020-01-10,24.9593,121.52,0.061184417
466900,淡水,2020-01-10,25.164889,121.448906,0.028739471
466920,臺北,2020-01-10,25.037658,121.514853,0.073134184
467441,高雄,2020-01-10,22.7304,120.3125,0.8575807
467480,嘉義,2020-01-10,23.495925,120.432906,0.021945152
467490,臺中,2020-01-10,24.145736,120.684075,0.0032718459
C0A540,四堵,2020-01-10,24.8926,121.745736,0.076202184
C0A550,泰平,2020-01-10,24.971197,121.823711,0.23337865
C0A560,福山,2020-01-10,24.776203,121.502811,0.22083119
C0A931,三和,2020-01-10,25.233153,121.595236,0.29302064
C0A940,金山,2020-01-10,25.223628,121.643967,0.022359872
C0A950,鼻頭角,2020-01-10,25.129036,121.923372,0.90421724
C0AD10,八里,2020-01-10,25.150211,121.403947,0.028739426
C0AD30,蘆洲,2020-01-10,25.086594,121.472331,0.045531712
C0AD40,土城,2020-01-10,24.973208,121.445169,0.041489124
C0AI10,屈尺,2020-01-10,24.92184,121.54475,0.04710508
C0AI20,白沙灣,2020-01-10,25.283128,121.519058,0.026197355
C0AI30,三重,2020-01-10,25.057328,121.500629,0.045531712
C0B010,七堵,2020-01-10,25.094819,121.71713,0.27171162
C0B020,基隆嶼,2020-01-10,25.19141,121.78391,0.3315711
