站號,站名,日期,lat,lon,BlastGRU-TW
466881,新北,2020-08-01,24.9593,121.52,0.26125982
466900,淡水,2020-08-01,25.164889,121.448906,0.3906705
466920,臺北,2020-08-01,25.037658,121.514853,0.25239167
467441,高雄,2020-08-01,22.7304,120.3125,0.08356676
467480,嘉義,2020-08-01,23.495925,120.432906,0.29651925
467490,臺中,2020-08-01,24.145736,120.684075,0.56623703
C0A540,四堵,2020-08-01,24.8926,121.745736,0.15847355
C0A550,泰平,2020-08-01,24.971197,121.823711,0.05216842
C0A560,福山,2020-08-01,24.776203,121.502811,0.0570747
C0A931,三和,2020-08-01,25.233153,121.595236,0.06950848
C0A940,金山,2020-08-01,25.223628,121.643967,0.46441472
C0A950,鼻頭角,2020-08-01,25.129036,121.923372,0.050047997
C0AD10,八里,2020-08-01,25.150211,121.403947,0.3906705
C0AD30,蘆洲,2020-08-01,25.086594,121.472331,0.27108982
C0AD40,土城,2020-08-01,24.973208,121.445169,0.27578023
C0AI10,屈尺,2020-08-01,24.92184,121.54475,0.27627468
C0AI20,白沙灣,2020-08-01,25.283128,121.519058,0.4449546
C0AI30,三重,2020-08-01,25.057328,121.500629,0.27108982
C0B010,七堵,2020-08-01,25.094819,121.71713,0.30082408
C0B020,基隆嶼,2020-08-01,25.19141,121.78391,0.2880555
