站號,站名,日期,lat,lon,BlastGRU-TW
466881,新北,2020-11-11,24.9593,121.52,0.08276527
466900,淡水,2020-11-11,25.164889,121.448906,0.04507212
466920,臺北,2020-11-11,25.037658,121.514853,0.09236462
467350,澎湖,2020-11-11,23.565503,119.563094,0.00070520426
467410,臺南,2020-11-11,22.993239,120.204772,0.9494147
467420,永康,2020-11-11,23.038386,120.2367,0.9490783
467790,墾丁雷達站,2020-11-11,21.948235,120.808028,0.3390432
C0A520,山佳,2020-11-11,24.974944,121.402008,0.058608748
C0A530,坪林,2020-11-11,24.938183,121.70975,0.5857446
C0A880,福隆,2020-11-11,25.017842,121.942083,0.96639425
C0A890,雙溪,2020-11-11,25.036003,121.864242,0.047285803
C0A920,富貴角,2020-11-11,25.263783,121.565258,0.014062787
C0AC80,文山,2020-11-11,25.00235,121.575728,0.06903583
C0ACA0,新莊,2020-11-11,25.051478,121.446756,0.051112954
C0AD00,三芝,2020-11-11,25.258131,121.501917,0.014605888
C0AH70,松山,2020-11-11,25.04871,121.55042,0.09236462
C0AH80,深坑,2020-11-11,25.002703,121.628328,0.06903583
C0AI00,五股,2020-11-11,25.07445,121.42728,0.00108583
C0AJ70,田寮,2020-11-11,25.2698,121.4886,0.027040511
