站號,站名,日期,lat,lon,BlastGRU-TW
12J990,口湖工作站,2020-03-04,23.589978,120.180394,0.15765347
12Q970,東港工作站,2020-03-04,22.479997,120.466058,0.26103362
12Q980,恆春工作站,2020-03-04,22.079678,120.714425,0.3990786
466881,新北,2020-03-04,24.9593,121.52,0.040185854
466900,淡水,2020-03-04,25.164889,121.448906,0.016316747
466920,臺北,2020-03-04,25.037658,121.514853,0.04345635
466940,基隆,2020-03-04,25.133314,121.740475,0.010471344
466990,花蓮,2020-03-04,23.975128,121.613275,0.9872223
467050,新屋,2020-03-04,25.006744,121.047486,0.010622236
467060,蘇澳,2020-03-04,24.596736,121.857372,0.90297985
467080,宜蘭,2020-03-04,24.763975,121.756528,0.07356429
467270,田中,2020-03-04,23.873803,120.581286,0.095349856
467300,東吉島,2020-03-04,23.25695,119.667467,0.029913886
467350,澎湖,2020-03-04,23.565503,119.563094,0.00243779
467410,臺南,2020-03-04,22.993239,120.204772,0.51236445
467420,永康,2020-03-04,23.038386,120.2367,0.5275305
467441,高雄,2020-03-04,22.7304,120.3125,0.315859
467480,嘉義,2020-03-04,23.495925,120.432906,0.06291541
467490,臺中,2020-03-04,24.145736,120.684075,0.06440972
467540,大武,2020-03-04,22.355675,120.903789,0.8003718
467571,新竹,2020-03-04,24.827853,121.014219,0.006382264
467590,恆春,2020-03-04,22.003897,120.746339,0.3908273
467610,成功,2020-03-04,23.097486,121.373428,0.98055714
467620,蘭嶼,2020-03-04,22.036969,121.558339,0.6289709
467660,臺東,2020-03-04,22.752211,121.154586,0.30349526
467790,墾丁雷達站,2020-03-04,21.948235,120.808028,0.38124123
72AI40,桃改臺北分場,2020-03-04,24.944503,121.386972,0.023236837
72C440,桃園農改場,2020-03-04,24.950944,121.030583,0.009332527
72D680,新埔,2020-03-04,24.834444,121.066111,0.009211667
72G600,臺中農改場,2020-03-04,24.003028,120.534389,0.11939309
72K220,雲林分場,2020-03-04,23.634556,120.477333,0.22051774
72L140,朴子分場,2020-03-04,23.4982,120.2414,0.24103424
72M360,義竹工作站,2020-03-04,23.360694,120.279361,0.27766013
72M700,嘉義分場,2020-03-04,23.416869,120.283061,0.22867236
72N100,臺南農改場,2020-03-04,23.0605,120.342194,0.39616105
72N240,七股研究中心,2020-03-04,23.081672,120.062894,0.53828025
72Q010,高雄農改場,2020-03-04,22.709333,120.525889,0.16551286
72S200,斑鳩分場,2020-03-04,22.829528,121.077694,0.13410091
72S590,賓朗果園,2020-03-04,22.813889,121.071278,0.09544215
72T250,花蓮農改場,2020-03-04,23.975222,121.563889,0.9850413
72U480,蘭陽分場,2020-03-04,24.686306,121.716583,0.1540687
72V140,旗南,2020-03-04,22.857861,120.516667,0.12252935
82A750,文山分場,2020-03-04,24.955778,121.631222,0.033857163
82C160,茶改場(楊梅),2020-03-04,24.908472,121.185333,0.005551554
82H840,凍頂工作站,2020-03-04,23.762528,120.7405,0.01491198
82S580,龍田,2020-03-04,22.907694,121.130139,0.28852996
A0K420,麥寮,2020-03-04,23.7988,120.2177,0.077889405
A0W080,吉貝,2020-03-04,23.74,119.6042,0.00134921
A2C560,農工中心,2020-03-04,24.985917,121.239833,0.005833174
A2K360,臺西分所,2020-03-04,23.717231,120.190522,0.08910819
A2K570,古坑(花卉中心),2020-03-04,23.633531,120.552392,0.15219867
A2K630,臺大雲林校區,2020-03-04,23.730628,120.423903,0.19556972
A2N290,臺南蘭花園區,2020-03-04,23.340258,120.379661,0.14457032
B2E890,新竹畜試,2020-03-04,24.527806,120.770972,0.034340262
B2N890,畜產試驗所,2020-03-04,23.058972,120.336406,0.39616105
B2Q810,恆春分所,2020-03-04,21.945583,120.802167,0.39437497
B2U990,宜蘭畜試,2020-03-04,24.669039,121.832561,0.16099487
C0A520,山佳,2020-03-04,24.974944,121.402008,0.023236837
C0A530,坪林,2020-03-04,24.938183,121.70975,0.023616947
C0A540,四堵,2020-03-04,24.8926,121.745736,0.0068744896
C0A550,泰平,2020-03-04,24.971197,121.823711,0.010247577
C0A560,福山,2020-03-04,24.776203,121.502811,0.033857163
C0A570,桶後,2020-03-04,24.848222,121.597992,0.008771593
C0A640,石碇,2020-03-04,24.993969,121.662917,0.03910505
C0A650,火燒寮,2020-03-04,25.002719,121.742892,0.027519647
C0A660,瑞芳,2020-03-04,25.113169,121.801147,0.074971594
C0A770,科教館,2020-03-04,25.096356,121.516507,0.025667535
C0A860,大坪,2020-03-04,25.165914,121.632969,0.0037689535
C0A880,福隆,2020-03-04,25.017842,121.942083,0.112701714
C0A890,雙溪,2020-03-04,25.036003,121.864242,0.008735679
C0A920,富貴角,2020-03-04,25.263783,121.565258,0.006841386
C0A931,三和,2020-03-04,25.233153,121.595236,0.025386544
C0A940,金山,2020-03-04,25.223628,121.643967,0.007653128
C0A950,鼻頭角,2020-03-04,25.129036,121.923372,0.117892615
C0A970,三貂角,2020-03-04,25.007606,122.002058,0.08079842
C0A980,社子,2020-03-04,25.109508,121.469681,0.026608283
C0A9C0,天母,2020-03-04,25.117494,121.537169,0.023979628
C0A9F0,內湖,2020-03-04,25.079422,121.57545,0.04345635
C0AC60,三峽,2020-03-04,24.939025,121.369728,0.038582843
C0AC70,信義,2020-03-04,25.037822,121.564597,0.04345635
C0AC80,文山,2020-03-04,25.00235,121.575728,0.0357228
C0ACA0,新莊,2020-03-04,25.051478,121.446756,0.014755771
C0AD00,三芝,2020-03-04,25.258131,121.501917,0.0075389245
C0AD10,八里,2020-03-04,25.150211,121.403947,0.016316747
C0AD30,蘆洲,2020-03-04,25.086594,121.472331,0.025667535
C0AD40,土城,2020-03-04,24.973208,121.445169,0.024817483
C0AD50,鶯歌,2020-03-04,24.951533,121.346294,0.01519774
C0AG80,中和,2020-03-04,24.991622,121.491792,0.04345635
C0AH00,汐止,2020-03-04,25.066881,121.658778,0.010053996
C0AH10,永和,2020-03-04,25.01125,121.508111,0.045139097
C0AH40,平等,2020-03-04,25.129142,121.577086,0.005390153
C0AH50,林口,2020-03-04,25.072181,121.38084,0.008394646
C0AH70,松山,2020-03-04,25.04871,121.55042,0.04345635
C0AH80,深坑,2020-03-04,25.002703,121.628328,0.0357228
C0AI00,五股,2020-03-04,25.07445,121.42728,0.0055857575
C0AI10,屈尺,2020-03-04,24.92184,121.54475,0.0357228
C0AI20,白沙灣,2020-03-04,25.283128,121.519058,0.007617377
C0AI30,三重,2020-03-04,25.057328,121.500629,0.025667535
C0AI40,石牌,2020-03-04,25.115597,121.513139,0.024817483
C0AJ10,澳底,2020-03-04,25.057107,121.927272,0.122472584
C0AJ20,野柳,2020-03-04,25.20703,121.690021,0.010053996
C0AJ30,淡水觀海,2020-03-04,25.184591,121.408616,0.0166831
C0AJ40,石門,2020-03-04,25.273672,121.601198,0.0057807593
C0AJ50,水湳洞,2020-03-04,25.123695,121.862238,0.010053996
C0AJ60,六塊厝,2020-03-04,25.24,121.4481,0.0166831
C0AJ70,田寮,2020-03-04,25.2698,121.4886,0.0076128226
C0AJ80,板橋,2020-03-04,25.0107,121.4489,0.024817483
C0B010,七堵,2020-03-04,25.094819,121.71713,0.00933153
C0B020,基隆嶼,2020-03-04,25.19141,121.78391,0.010053996
C0B040,大武崙,2020-03-04,25.166676,121.706993,0.00933153
C0B050,八斗子,2020-03-04,25.144754,121.79167,0.010914036
C0B060,暖暖,2020-03-04,25.0957,121.7403,0.008063106
C0C460,復興,2020-03-04,24.820208,121.352281,0.010863928
C0C480,桃園,2020-03-04,24.992425,121.323172,0.007968251
C0C490,八德,2020-03-04,24.928708,121.283289,0.014964381
C0C590,觀音,2020-03-04,25.027072,121.153317,0.010887713
C0C620,蘆竹,2020-03-04,25.084275,121.265767,0.015564429
C0C630,大溪,2020-03-04,24.882853,121.265547,0.01182548
C0C650,平鎮,2020-03-04,24.897503,121.214636,0.005551554
C0C660,楊梅,2020-03-04,24.912375,121.143047,0.003998916
C0C670,龍潭,2020-03-04,24.870056,121.221389,0.0043923366
C0C680,龜山,2020-03-04,25.02846,121.38656,0.022497814
C0C700,中壢,2020-03-04,24.977661,121.256375,0.007418911
C0C710,大溪永福,2020-03-04,24.892936,121.324975,0.0055590197
C0C720,竹圍,2020-03-04,25.112692,121.239824,0.016316747
C0C730,中大臨海站,2020-03-04,24.966126,121.008581,0.013493571
C0C740,觀音工業區,2020-03-04,25.064764,121.114856,0.0042091794
C0C750,新興坑尾,2020-03-04,25.0061,121.0971,0.0039021682
C0D390,關西,2020-03-04,24.7977,121.1732,0.0070729917
C0D430,峨眉,2020-03-04,24.6905,121.017189,0.007455395
C0D480,打鐵坑,2020-03-04,24.849664,121.150789,0.009543822
C0D540,橫山,2020-03-04,24.71116,121.11693,0.0061015454
C0D560,竹東,2020-03-04,24.767147,121.057881,0.0065833163
C0D580,寶山,2020-03-04,24.735006,121.025192,0.010130187
C0D590,新豐,2020-03-04,24.87068,120.97721,0.017872913
C0D650,湖口,2020-03-04,24.904794,121.043628,0.006587144
C0D660,新竹市東區,2020-03-04,24.798681,120.986942,0.0059267217
C0D670,海天一線,2020-03-04,24.831986,120.914438,0.005760255
C0D680,香山濕地,2020-03-04,24.783581,120.914988,0.0055409446
C0D690,外湖,2020-03-04,24.917735,120.968711,0.013493571
C0E420,竹南,2020-03-04,24.708978,120.888897,0.0049746097
C0E430,南庄,2020-03-04,24.601775,121.000214,0.00984834
C0E520,大湖,2020-03-04,24.41494,120.87087,0.007725308
C0E540,後龍,2020-03-04,24.606489,120.783933,0.048389204
C0E550,明德,2020-03-04,24.583486,120.885411,0.03946927
C0E590,通霄,2020-03-04,24.471892,120.704622,0.044638067
C0E730,頭份,2020-03-04,24.688247,120.912206,0.0049746097
C0E740,造橋,2020-03-04,24.637056,120.864778,0.05334241
C0E750,苗栗,2020-03-04,24.564569,120.824575,0.035292763
C0E780,銅鑼,2020-03-04,24.489681,120.790853,0.06475387
C0E791,卓蘭,2020-03-04,24.3126,120.8244,0.08951399
C0E810,西湖,2020-03-04,24.562947,120.7485,0.03996118
C0E820,獅潭,2020-03-04,24.539133,120.920042,0.055134725
C0E830,苑裡,2020-03-04,24.439714,120.653053,0.08860604
C0E850,大河,2020-03-04,24.618069,120.948578,0.03404251
C0E870,高鐵苗栗,2020-03-04,24.60725,120.826094,0.045445066
C0E910,海埔,2020-03-04,24.648767,120.772435,0.08044885
C0E920,通霄漁港,2020-03-04,24.498589,120.673876,0.06408401
C0E930,龍鳳,2020-03-04,24.700034,120.859125,0.06752809
C0F000,大肚,2020-03-04,24.15295,120.572117,0.015319519
C0F0B0,石岡,2020-03-04,24.276061,120.777644,0.04262158
C0F850,東勢,2020-03-04,24.246428,120.833047,0.05869266
C0F930,大甲,2020-03-04,24.347667,120.640403,0.07677923
C0F970,大坑,2020-03-04,24.173142,120.722289,0.054380596
C0F9A0,中竹林,2020-03-04,24.103556,120.751061,0.011133325
C0F9I0,神岡,2020-03-04,24.272481,120.658314,0.04494157
C0F9K0,大安,2020-03-04,24.345061,120.588025,0.16501528
C0F9L0,后里,2020-03-04,24.310436,120.729725,0.024018615
C0F9M0,豐原,2020-03-04,24.254322,120.720692,0.03257435
C0F9N0,大里,2020-03-04,24.092464,120.701378,0.10839606
C0F9O0,潭子,2020-03-04,24.213106,120.703933,0.050017722
C0F9P0,清水,2020-03-04,24.312297,120.562242,0.1962791
C0F9Q0,外埔,2020-03-04,24.347817,120.705686,0.06800543
C0F9R0,龍井,2020-03-04,24.184536,120.528972,0.15937902
C0F9S0,烏日,2020-03-04,24.107058,120.624103,0.14483047
C0F9T0,西屯,2020-03-04,24.179494,120.641275,0.08486766
C0F9U0,南屯,2020-03-04,24.137006,120.637969,0.10839606
C0F9X0,大雅(中科園區),2020-03-04,24.21528,120.62445,0.045217335
C0FA10,松柏,2020-03-04,24.429115,120.617482,0.113785535
C0FA20,溫寮,2020-03-04,24.372177,120.583125,0.113785535
C0FA30,梧棲,2020-03-04,24.256003,120.523381,0.15937902
C0FA40,臺中電廠,2020-03-04,24.2146,120.4907,0.15937902
C0FA50,霧峰,2020-03-04,24.0419,120.6995,0.07994949
C0G620,芬園,2020-03-04,24.015678,120.6213,0.0576264
C0G640,鹿港,2020-03-04,24.0753,120.430481,0.12821338
C0G650,員林,2020-03-04,23.946503,120.585597,0.084220156
C0G660,溪湖,2020-03-04,23.94835,120.479122,0.085024536
C0G720,溪州,2020-03-04,23.851589,120.499093,0.071561754
C0G730,二林,2020-03-04,23.903325,120.376081,0.11657795
C0G740,大城,2020-03-04,23.852487,120.320935,0.052882466
C0G770,福興,2020-03-04,24.041289,120.437669,0.12737302
C0G780,秀水,2020-03-04,24.03405,120.503869,0.13083798
C0G800,埔鹽,2020-03-04,24.000394,120.431683,0.12737302
C0G810,埔心,2020-03-04,23.947633,120.525456,0.07746465
C0G820,田尾,2020-03-04,23.901669,120.509389,0.07107243
C0G830,埤頭,2020-03-04,23.866003,120.452806,0.0825184
C0G840,北斗,2020-03-04,23.877586,120.514222,0.07107243
C0G860,社頭,2020-03-04,23.897647,120.5862,0.077785864
C0G870,芳苑,2020-03-04,23.922303,120.320025,0.058459725
C0G880,二水,2020-03-04,23.810742,120.6173,0.08313448
C0G890,伸港,2020-03-04,24.148933,120.484403,0.17993726
C0G900,線西,2020-03-04,24.143358,120.443536,0.13939466
C0G910,花壇,2020-03-04,24.032076,120.549461,0.10881833
C0G920,永靖,2020-03-04,23.924703,120.547533,0.07107243
C0G940,竹塘,2020-03-04,23.848253,120.386764,0.12242492
C0G950,防潮門,2020-03-04,24.1835,120.4871,0.1725207
C0G960,福寶,2020-03-04,24.0443,120.3814,0.13909529
C0G970,三豐,2020-03-04,23.882,120.2895,0.058459714
C0H890,埔里,2020-03-04,23.972169,120.952425,0.2868546
C0H950,中寮,2020-03-04,23.884447,120.766406,0.024458187
C0H960,草屯,2020-03-04,23.973672,120.68085,0.06538712
C0I110,竹山,2020-03-04,23.761225,120.688156,0.034347575
C0I360,水里,2020-03-04,23.812553,120.849792,0.016687373
C0I380,集集,2020-03-04,23.828206,120.801467,0.018665958
C0I410,名間,2020-03-04,23.837053,120.701447,0.0719169
C0I420,國姓,2020-03-04,24.037803,120.855072,0.02789638
C0I460,南投,2020-03-04,23.911469,120.687331,0.058171827
C0K250,崙背,2020-03-04,23.75555,120.318925,0.052874364
C0K280,四湖,2020-03-04,23.630414,120.227125,0.10649883
C0K291,宜梧,2020-03-04,23.536281,120.169329,0.2557673
C0K330,虎尾,2020-03-04,23.719183,120.442036,0.1845637
C0K390,土庫,2020-03-04,23.679029,120.395574,0.19556972
C0K400,斗六,2020-03-04,23.720583,120.541127,0.14652917
C0K410,北港,2020-03-04,23.573957,120.292802,0.15974373
C0K420,西螺,2020-03-04,23.800407,120.467394,0.08766878
C0K430,褒忠,2020-03-04,23.690938,120.303634,0.077889405
C0K440,二崙,2020-03-04,23.772797,120.408944,0.11459981
C0K450,大埤,2020-03-04,23.646074,120.431537,0.22717325
C0K460,斗南,2020-03-04,23.678734,120.478359,0.16622263
C0K470,林內,2020-03-04,23.748675,120.609642,0.1562723
C0K480,莿桐,2020-03-04,23.761192,120.502372,0.081055164
C0K500,元長,2020-03-04,23.64981,120.315024,0.10500039
C0K510,水林,2020-03-04,23.572924,120.24597,0.1464447
C0K530,臺西,2020-03-04,23.701547,120.197559,0.08031296
C0K550,蔦松,2020-03-04,23.514319,120.229736,0.24103424
C0K560,棋山,2020-03-04,23.68645,120.603417,0.15095843
C0K580,高鐵雲林,2020-03-04,23.737456,120.417944,0.19556972
C0K590,雲林東勢,2020-03-04,23.674192,120.255721,0.077889405
C0K600,箔子寮,2020-03-04,23.6197,120.14,0.15765347
C0M410,馬頭山,2020-03-04,23.324361,120.582017,0.052582145
C0M520,東後寮,2020-03-04,23.369908,120.248065,0.33802044
C0M640,中埔,2020-03-04,23.42538,120.5229,0.1533515
C0M650,朴子,2020-03-04,23.43463,120.23902,0.2931748
C0M660,溪口,2020-03-04,23.604131,120.403569,0.08108499
C0M670,大林,2020-03-04,23.600616,120.45841,0.077663004
C0M680,太保,2020-03-04,23.455062,120.331455,0.22739416
C0M690,水上,2020-03-04,23.419734,120.388909,0.055395387
C0M700,竹崎,2020-03-04,23.526178,120.555508,0.10527122
C0M710,東石,2020-03-04,23.458927,120.15385,0.24103424
C0M720,番路,2020-03-04,23.464657,120.554156,0.08572031
C0M730,嘉義市東區,2020-03-04,23.457673,120.460531,0.06963527
C0M740,六腳,2020-03-04,23.492871,120.290625,0.24736142
C0M750,布袋,2020-03-04,23.380878,120.167789,0.2931748
C0M760,民雄,2020-03-04,23.551754,120.428457,0.06711502
C0M770,嘉義梅山,2020-03-04,23.585398,120.555587,0.110008895
C0M780,鹿草,2020-03-04,23.41134,120.30835,0.21620843
C0M790,新港,2020-03-04,23.553269,120.345728,0.14879875
C0M800,茶山,2020-03-04,23.299075,120.664767,0.07879348
C0M880,好美里,2020-03-04,23.3364,120.138,0.42246887
C0N010,鯤鯓國小,2020-03-04,23.1879,120.0889,0.36655924
C0N020,城西,2020-03-04,23.0568,120.0956,0.5243586
C0N030,四草,2020-03-04,23.0235,120.1116,0.62090963
C0N040,蘆竹溝,2020-03-04,23.2344,120.0961,0.36655924
C0N050,蚵寮,2020-03-04,23.301,120.1104,0.36655927
C0O810,曾文,2020-03-04,23.219681,120.497328,0.058091167
C0O830,北寮,2020-03-04,23.079561,120.495008,0.09630311
C0O840,王爺宮,2020-03-04,23.222064,120.40085,0.058091167
C0O860,大內,2020-03-04,23.11885,120.36083,0.32012463
C0O900,善化,2020-03-04,23.112883,120.297219,0.43065074
C0O930,玉井,2020-03-04,23.126042,120.46055,0.18015435
C0O950,安南,2020-03-04,23.076694,120.144861,0.48089197
C0O960,崎頂,2020-03-04,22.959547,120.369317,0.10308709
C0O970,虎頭埤,2020-03-04,23.021375,120.347878,0.44355834
C0O980,新市,2020-03-04,23.061614,120.298197,0.43065074
C0O990,媽廟,2020-03-04,22.99175,120.293525,0.49226248
C0R150,三地門,2020-03-04,22.709889,120.639944,0.19609779
C0R160,鹽埔,2020-03-04,22.739558,120.530778,0.16551286
C0R170,屏東,2020-03-04,22.660269,120.494072,0.28185385
C0R190,赤山,2020-03-04,22.592333,120.614306,0.16521318
C0R220,潮州,2020-03-04,22.534361,120.54,0.19824181
C0R240,來義,2020-03-04,22.527306,120.625111,0.4273027
C0R260,春日,2020-03-04,22.370361,120.628306,0.47971022
C0R270,琉球嶼,2020-03-04,22.332244,120.362236,0.45939454
C0R280,檳榔,2020-03-04,22.076078,120.836777,0.33923334
C0R320,車城,2020-03-04,22.0744,120.716247,0.3990786
C0R341,牡丹,2020-03-04,22.130036,120.792639,0.40267408
C0R350,貓鼻頭,2020-03-04,21.921774,120.7358,0.38622284
C0R470,高樹,2020-03-04,22.826389,120.600806,0.19094713
C0R480,長治,2020-03-04,22.693128,120.542622,0.1621895
C0R490,九如,2020-03-04,22.7405,120.490503,0.27850646
C0R520,崁頂,2020-03-04,22.514781,120.506914,0.25372908
C0R540,佳冬,2020-03-04,22.419456,120.552375,0.26103345
C0R550,新埤,2020-03-04,22.467947,120.582894,0.17123152
C0R560,新園,2020-03-04,22.5434,120.461558,0.25372908
C0R570,麟洛,2020-03-04,22.65078,120.52719,0.27850646
C0R580,南州,2020-03-04,22.48591,120.50274,0.26103362
C0R590,里港,2020-03-04,22.77919,120.49459,0.14556313
C0R620,墾雷,2020-03-04,21.900836,120.855269,0.38622284
C0R640,東港,2020-03-04,22.46247,120.44074,0.2822481
C0R650,竹田,2020-03-04,22.58486,120.54344,0.17718793
C0R660,枋寮,2020-03-04,22.367722,120.590647,0.21358208
C0R670,楓港,2020-03-04,22.190131,120.692156,0.5433974
C0R680,佳樂水,2020-03-04,21.993578,120.861633,0.39437497
C0R690,墾丁,2020-03-04,21.966756,120.810269,0.32957947
C0R700,枋山,2020-03-04,22.246844,120.661086,0.5433974
C0R710,龍磐,2020-03-04,21.931672,120.838942,0.3610096
C0R720,旭海,2020-03-04,22.205403,120.887614,0.62648517
C0R730,大坪頂,2020-03-04,22.024633,120.69355,0.37021658
C0R740,獅子,2020-03-04,22.201569,120.70525,0.4984247
C0R760,南仁湖,2020-03-04,22.084681,120.863353,0.16863179
C0R770,保力,2020-03-04,22.071122,120.764111,0.3665951
C0R780,滿州,2020-03-04,22.024403,120.839892,0.38262656
C0R790,九棚,2020-03-04,22.14195,120.889281,0.6874056
C0R800,丹路,2020-03-04,22.204481,120.750989,0.37632155
C0R810,內獅,2020-03-04,22.305064,120.642986,0.56160825
C0R830,高士,2020-03-04,22.121825,120.836781,0.09675638
C0R850,林邊,2020-03-04,22.4634,120.5339,0.25372908
C0R860,鼻頭,2020-03-04,22.1043,120.8979,0.5156257
C0R870,興海,2020-03-04,21.9752,120.8439,0.39437497
C0R880,後壁湖,2020-03-04,21.9457,120.7457,0.400197
C0R890,山海,2020-03-04,21.9878,120.7091,0.3990786
C0R900,竹坑,2020-03-04,22.1385,120.7022,0.6499568
C0R910,下寮,2020-03-04,22.3929,120.5548,0.26103362
C0R920,塭仔,2020-03-04,22.4169,120.5197,0.2707197
C0R930,萬丹,2020-03-04,22.5885,120.4851,0.17718793
C0R940,加祿堂,2020-03-04,22.3363,120.6217,0.56160825
C0S710,鹿野,2020-03-04,22.917711,121.122994,0.1163928
C0S730,綠島,2020-03-04,22.6672,121.47533,0.96088594
C0S740,池上,2020-03-04,23.119628,121.209469,0.21578453
C0S770,大溪山,2020-03-04,22.478475,120.943325,0.10784347
C0S790,金崙,2020-03-04,22.538122,120.966875,0.32210293
C0S810,東河,2020-03-04,22.972672,121.303986,0.56306446
C0S830,長濱,2020-03-04,23.286817,121.411975,0.20825465
C0S840,南田,2020-03-04,22.279725,120.889208,0.80552787
C0S890,關山,2020-03-04,23.0395,121.175017,0.865295
C0S900,蘭嶼高中,2020-03-04,22.04909,121.51214,0.5555948
C0S910,蘭嶼燈塔,2020-03-04,22.081197,121.503117,0.5831556
C0S920,金峰嘉蘭,2020-03-04,22.594789,120.960825,0.5199664
C0S930,延平,2020-03-04,22.902581,121.084058,0.560704
C0S940,石寧山,2020-03-04,23.223772,121.406639,0.42273125
C0S950,七塊厝,2020-03-04,22.954453,121.229922,0.092448436
C0S960,香蘭,2020-03-04,22.587569,120.993375,0.6331836
C0S970,加津林,2020-03-04,22.416211,120.926942,0.7874717
C0S990,山豬窟,2020-03-04,22.318619,120.857372,0.15720601
C0SA00,歷坵,2020-03-04,22.520969,120.89185,0.061204873
C0SA10,檳榔四格山,2020-03-04,22.810031,121.109308,0.051652603
C0SA30,都歷,2020-03-04,23.020333,121.323642,0.9696901
C0SA40,瑞和,2020-03-04,22.974361,121.156697,0.8959274
C0SA60,知本（水試所）,2020-03-04,22.702394,121.082761,0.47136447
C0SA80,土坂,2020-03-04,22.453108,120.887572,0.45007825
C0SA90,達仁林場,2020-03-04,22.264347,120.823972,0.07413957
C0T870,鯉魚潭,2020-03-04,23.935639,121.508944,0.9728165
C0T900,西林,2020-03-04,23.8119,121.441458,0.96954775
C0T960,光復,2020-03-04,23.660694,121.424964,0.98810905
C0T9A0,月眉山,2020-03-04,23.809928,121.539828,0.93641603
C0T9D0,和中,2020-03-04,24.26676,121.74103,0.9912207
C0T9E0,大坑,2020-03-04,23.880628,121.581981,0.94962794
C0T9F0,水璉,2020-03-04,23.797131,121.542514,0.95703864
C0T9I0,豐濱,2020-03-04,23.583897,121.514806,0.9934252
C0T9M0,靜浦,2020-03-04,23.455167,121.495028,0.9959831
C0T9N0,富里,2020-03-04,23.171639,121.249378,0.109244734
C0U600,礁溪,2020-03-04,24.817539,121.765608,0.07026227
C0U650,玉蘭,2020-03-04,24.675286,121.587061,0.51525354
C0U750,龜山島,2020-03-04,24.841667,121.953133,0.06402525
C0U760,東澳,2020-03-04,24.52196,121.83318,0.36460367
C0U770,南澳,2020-03-04,24.44935,121.81022,0.806515
C0U780,五結,2020-03-04,24.68637,121.79794,0.16099487
C0U860,頭城,2020-03-04,24.85323,121.8308,0.07356429
C0U870,大礁溪,2020-03-04,24.791042,121.675047,0.017190915
C0U880,北關,2020-03-04,24.9072,121.8734,0.025635356
C0U890,三星,2020-03-04,24.66812,121.65302,0.04276476
C0U900,內城,2020-03-04,24.71813,121.68766,0.06142565
C0U910,冬山,2020-03-04,24.63373,121.7937,0.16099487
C0U940,羅東,2020-03-04,24.68184,121.74934,0.15819985
C0U970,大福,2020-03-04,24.80064,121.81389,0.07925296
C0U990,員山,2020-03-04,24.74435,121.72247,0.15819985
C0UA00,土場,2020-03-04,24.576533,121.495333,0.024677522
C0UA80,大溪漁港,2020-03-04,24.941801,121.902955,0.07026227
C0UA90,石城,2020-03-04,24.980444,121.951214,0.1108544
C0UB00,淡江大學蘭陽校園,2020-03-04,24.823239,121.730383,0.01099635
C0UB20,壯圍,2020-03-04,24.7359,121.8163,0.16488823
C0V250,甲仙,2020-03-04,23.080106,120.591758,0.04441536
C0V260,月眉,2020-03-04,22.971003,120.539853,0.11725724
C0V310,美濃,2020-03-04,22.898742,120.519153,0.4671435
C0V350,溪埔,2020-03-04,22.738578,120.446797,0.23108457
C0V360,內門,2020-03-04,22.975481,120.466769,0.34570962
C0V370,古亭坑,2020-03-04,22.893178,120.401947,0.41510206
C0V400,阿公店,2020-03-04,22.804194,120.355528,0.23254275
C0V440,鳳山,2020-03-04,22.646653,120.356122,0.25647417
C0V450,鳳森,2020-03-04,22.545064,120.392592,0.16272569
C0V490,新興,2020-03-04,22.627422,120.298803,0.27376875
C0V530,阿蓮,2020-03-04,22.883208,120.327508,0.56918406
C0V610,梓官,2020-03-04,22.760558,120.267211,0.26383457
C0V620,永安,2020-03-04,22.82315,120.236856,0.2510475
C0V630,茄萣,2020-03-04,22.906642,120.182608,0.57149136
C0V640,湖內,2020-03-04,22.887139,120.2445,0.5591522
C0V650,彌陀,2020-03-04,22.783806,120.246361,0.2510475
C0V660,岡山,2020-03-04,22.797078,120.294958,0.26383457
C0V680,仁武,2020-03-04,22.701083,120.347722,0.30665135
C0V690,鼓山,2020-03-04,22.623325,120.275575,0.27376875
C0V700,三民,2020-03-04,22.645017,120.311233,0.27376875
C0V710,苓雅,2020-03-04,22.622742,120.330669,0.27376875
C0V720,林園,2020-03-04,22.507747,120.394511,0.27376875
C0V730,大寮,2020-03-04,22.605614,120.395717,0.2001938
C0V740,旗山,2020-03-04,22.888614,120.483597,0.4535834
C0V750,路竹,2020-03-04,22.854997,120.259439,0.2565809
C0V760,橋頭,2020-03-04,22.757806,120.30575,0.25489193
C0V770,大社,2020-03-04,22.730306,120.346639,0.30665135
C0V790,萬山,2020-03-04,22.905944,120.688056,0.098069094
C0V800,六龜,2020-03-04,22.997889,120.633583,0.16759737
C0V810,左營,2020-03-04,22.67491,120.28491,0.315859
C0V820,小林,2020-03-04,23.148408,120.63325,0.079037756
C0V840,鳳鼻頭,2020-03-04,22.5083,120.3591,0.2822481
C0V850,蚵仔寮,2020-03-04,22.7256,120.2527,0.32535955
C0V860,南寮,2020-03-04,22.7616,120.2339,0.2609694
C0V870,文安,2020-03-04,22.8025,120.2164,0.2609694
C0V880,興達,2020-03-04,22.8778,120.2127,0.57149136
C0V890,前鎮,2020-03-04,22.5718,120.3117,0.2822481
C0V900,汕尾,2020-03-04,22.4782,120.4151,0.27469295
C0X050,東河,2020-03-04,23.296598,120.385608,0.14457022
C0X060,下營,2020-03-04,23.22695,120.256261,0.35330278
C0X080,佳里,2020-03-04,23.173039,120.145086,0.42246887
C0X100,臺南市北區,2020-03-04,23.010394,120.194228,0.5367695
C0X110,臺南市南區,2020-03-04,22.961189,120.188378,0.5275305
C0X120,麻豆,2020-03-04,23.183289,120.248611,0.40800506
C0X130,官田,2020-03-04,23.193217,120.315422,0.321724
C0X140,西港,2020-03-04,23.125608,120.203108,0.48253456
C0X150,安定,2020-03-04,23.102614,120.227839,0.4512666
C0X160,仁德,2020-03-04,22.968258,120.257689,0.5004512
C0X170,關廟,2020-03-04,22.963017,120.327797,0.46258688
C0X180,山上,2020-03-04,23.0757,120.363253,0.23037839
C0X190,安平,2020-03-04,22.993161,120.152181,0.53676915
C0X200,左鎮,2020-03-04,23.056758,120.408522,0.24444881
C0X210,白河,2020-03-04,23.347466,120.414427,0.13378589
C0X220,學甲,2020-03-04,23.230367,120.182187,0.40800506
C0X230,鹽水,2020-03-04,23.272621,120.247641,0.35582188
C0X240,關子嶺,2020-03-04,23.331169,120.508025,0.010291667
C0X250,新營,2020-03-04,23.310689,120.316681,0.3032239
C0X260,後壁,2020-03-04,23.366358,120.362326,0.14973979
C0X280,將軍,2020-03-04,23.214999,120.13577,0.42246887
C0X290,北門,2020-03-04,23.267772,120.125481,0.42246887
C0X300,鹿寮,2020-03-04,23.386047,120.477331,0.19670984
C0X310,七股,2020-03-04,23.147289,120.086253,0.5149714
C0X320,柳營,2020-03-04,23.253328,120.375253,0.14457032
C0Z020,明里,2020-03-04,23.208717,121.262342,0.25386637
C0Z061,玉里,2020-03-04,23.3215,121.339656,0.4921666
C0Z070,舞鶴,2020-03-04,23.46811,121.37407,0.9944883
C0Z080,富源,2020-03-04,23.587642,121.378225,0.99385226
C0Z100,東華,2020-03-04,23.89525,121.549833,0.98063433
C0Z150,吉安光華,2020-03-04,23.930925,121.595153,0.98279655
C0Z160,鳳林,2020-03-04,23.746114,121.453411,0.98938835
C0Z170,卓溪,2020-03-04,23.3443,121.3029,0.42139858
C0Z180,新城,2020-03-04,24.03946,121.60454,0.9858451
C0Z190,富世,2020-03-04,24.14743,121.6297,0.89374894
C0Z200,萬榮,2020-03-04,23.709219,121.420106,0.9728165
C0Z210,瑞穗,2020-03-04,23.5239,121.39021,0.9945027
C0Z230,和平,2020-03-04,24.30717,121.77007,0.9912207
C0Z270,蕃薯寮,2020-03-04,23.73835,121.540108,0.9928709
C0Z280,德武,2020-03-04,23.47426,121.41071,0.9961224
C0Z300,東里,2020-03-04,23.26853,121.30547,0.45612288
C0Z310,清水斷崖,2020-03-04,24.218294,121.689142,0.9699543
C0Z330,安通山,2020-03-04,23.290728,121.348528,0.112705015
CAA010,國一N013K,2020-03-04,25.06944,121.6281,0.04170972
CAA020,國一S026K,2020-03-04,25.07639,121.4964,0.025667535
CAA030,國三S010K,2020-03-04,25.08,121.6475,0.04345635
CAA040,國三S016K,2020-03-04,25.03306,121.6158,0.033085074
CAA050,國三S037K,2020-03-04,24.9828,121.471,0.04170972
CAA060,國三S042K,2020-03-04,24.96,121.4306,0.022491198
CAA070,國三N046K,2020-03-04,24.95083,121.3958,0.023236837
CAA080,國三S054K,2020-03-04,24.93917,121.3239,0.008806754
CAA090,國三A005K,2020-03-04,25.00194,121.5975,0.040185817
CAAH60,大安森林,2020-03-04,25.02955,121.53628,0.045139097
CAB010,國一S001K,2020-03-04,25.11583,121.7286,0.009024053
CAB020,國一S006K,2020-03-04,25.08694,121.6869,0.009681781
CAB030,國三S004K,2020-03-04,25.11444,121.6886,0.071605325
CAB040,國三S007K,2020-03-04,25.09694,121.6678,0.008063106
CAB050,國三K002K,2020-03-04,25.14583,121.7217,0.008063106
CAC010,國一S072K,2020-03-04,24.89583,121.1342,0.0034015793
CAC020,國二E009K,2020-03-04,25.02111,121.2736,0.008576188
CAC030,國三N063K,2020-03-04,24.889,121.26,0.012353856
CAC050,西濱S023K,2020-03-04,25.11649,121.27551,0.016316747
CAC060,西濱S032K,2020-03-04,25.091966,121.192505,0.0166831
CAD010,國一S105K,2020-03-04,24.726316,120.940643,0.0051488965
CAD020,國一N077K,2020-03-04,24.885,121.0889,0.0040524015
CAD030,國一S082K,2020-03-04,24.87667,121.0467,0.0051239887
CAD040,國一S088K,2020-03-04,24.84444,121.0214,0.006382264
CAD050,國一N094K,2020-03-04,24.79778,121.0089,0.0057518855
CAD060,國一S098K,2020-03-04,24.76056,120.9911,0.005751891
CAD070,國三N076K,2020-03-04,24.800303,121.195739,0.008383398
CAD080,國三N085K,2020-03-04,24.78333,121.1211,0.007594864
CAD090,國三S103K,2020-03-04,24.75861,120.9608,0.0052127745
CAD100,西濱N066K,2020-03-04,24.8956,120.9649,0.01132116
CAD110,西濱S082K,2020-03-04,24.751724,120.905028,0.0055409446
CAE010,國一N142K,2020-03-04,24.453119,120.783221,0.02967257
CAE020,國一S114K,2020-03-04,24.668835,120.885811,0.0055409446
CAE030,國一S123K,2020-03-04,24.59594,120.86071,0.026253557
CAE040,國一S132K,2020-03-04,24.524506,120.820831,0.029433966
CAE050,國一S152K,2020-03-04,24.375492,120.749184,0.008442612
CAE060,國三N119K,2020-03-04,24.675432,120.847389,0.062379
CAE070,國三N151K,2020-03-04,24.440218,120.681656,0.07026704
CAE080,國三S140K,2020-03-04,24.522345,120.725006,0.03906637
CAE090,國三S156K,2020-03-04,24.39798,120.669487,0.087538205
CAE100,西濱N107K,2020-03-04,24.5958,120.7394,0.03996118
CAE110,西濱S129K,2020-03-04,24.4472,120.6428,0.1042373
CAF010,國一N174K,2020-03-04,24.2049,120.6552,0.054380596
CAF020,國一S162K,2020-03-04,24.295534,120.695976,0.04111629
CAF030,國一S169K,2020-03-04,24.237116,120.688271,0.050017722
CAF040,國一S188K,2020-03-04,24.118546,120.585747,0.13329867
CAF050,國三N208K,2020-03-04,24.066147,120.660919,0.13329867
CAF060,國三S168K,2020-03-04,24.308519,120.614471,0.09918119
CAF070,國三S173K,2020-03-04,24.27397,120.593079,0.044812348
CAF080,國三S178K,2020-03-04,24.226721,120.589058,0.041995656
CAF090,國四E5K,2020-03-04,24.296465,120.643135,0.060872402
CAF100,西濱N151K,2020-03-04,24.275964,120.547681,0.15937902
CAG010,國一N198K,2020-03-04,24.063889,120.523056,0.1600534
CAG030,國一S207K,2020-03-04,23.988304,120.508092,0.13083792
CAG040,國三N191K,2020-03-04,24.139256,120.5215,0.15187825
CAG050,國三N196K,2020-03-04,24.107155,120.554482,0.15848933
CAG060,國三S202K,2020-03-04,24.092468,120.603256,0.15848926
CAG070,西濱S173K,2020-03-04,24.1081,120.434576,0.13909529
CAG080,西濱S189K,2020-03-04,23.987857,120.369607,0.033660945
CAG090,西濱N210K,2020-03-04,23.843536,120.293236,0.058231026
CAG100,王功漁港,2020-03-04,23.96824,120.32586,0.033660945
CAH010,國三N223K,2020-03-04,23.955116,120.662376,0.07448252
CAH020,國三S217K,2020-03-04,24.00683,120.653214,0.061975803
CAH030,茶改場竹圍站,2020-03-04,23.860083,120.637528,0.012689217
CAHA00,消防署訓練中心,2020-03-04,23.82137,120.72293,0.0674194
CAJ010,國三N252K,2020-03-04,23.77412,120.64061,0.06718152
CAJ020,國一N234K,2020-03-04,23.74633,120.467926,0.16622263
CAJ030,西濱N222K,2020-03-04,23.737734,120.256132,0.08533011
CAJ040,西濱S241K,2020-03-04,23.623426,120.172646,0.15765347
CAJ050,海口故事園區,2020-03-04,23.57543,120.14121,0.15765347
CAL010,國一N250K,2020-03-04,23.610292,120.436867,0.06711502
CAL020,國一S262K,2020-03-04,23.512333,120.403038,0.06922753
CAL030,國一N268K,2020-03-04,23.460833,120.375833,0.06922753
CAL040,國一N273K,2020-03-04,23.416666,120.355,0.11223534
CAL050,國三N279K,2020-03-04,23.596111,120.523333,0.1473206
CAL060,國三S286K,2020-03-04,23.533917,120.484583,0.16208415
CAL070,國三N295K,2020-03-04,23.468598,120.499369,0.17094947
CAL080,國三N303K,2020-03-04,23.428611,120.452416,0.055395387
CAL090,西濱S257K,2020-03-04,23.502278,120.171861,0.24103424
CAL100,西濱S267K,2020-03-04,23.41613,120.162872,0.2931748
CAL110,布袋國中,2020-03-04,23.35893,120.18026,0.33802044
CAN010,國一N288K,2020-03-04,23.30609,120.290033,0.31948668
CAN020,國一S306K,2020-03-04,23.1565,120.239513,0.40800506
CAN030,國一N316K,2020-03-04,23.07309,120.253014,0.43065074
CAN040,國一N323K,2020-03-04,23.00421,120.245922,0.51236445
CAN050,國一N335K,2020-03-04,22.897584,120.269895,0.5914421
CAN060,國三S311K,2020-03-04,23.346388,120.438888,0.12467718
CAN070,國三S329K,2020-03-04,23.212777,120.355833,0.23357528
CAN080,國三N336K,2020-03-04,23.154722,120.345,0.3053514
CAN090,國三S342K,2020-03-04,23.106694,120.327528,0.40767658
CAN100,國三S366K,2020-03-04,22.9077,120.3513,0.46266252
CAN110,西濱S280K,2020-03-04,23.3052,120.14891,0.42246887
CAN120,西濱N304K,2020-03-04,23.103439,120.086694,0.5243586
CAN130,水試所海水繁養殖中心,2020-03-04,23.120802,120.07968,0.53828037
CAN140,六官養殖協會,2020-03-04,23.22881,120.29962,0.33641165
CAP010,國一S342K,2020-03-04,22.845555,120.295,0.26383457
CAP020,國一S346K,2020-03-04,22.812222,120.314166,0.26383457
CAP030,國一N351K,2020-03-04,22.765833,120.328888,0.25489193
CAP040,國一N361K,2020-03-04,22.680555,120.328611,0.315859
CAP050,國三N372K,2020-03-04,22.858611,120.373611,0.21558896
CAP060,國三S385K,2020-03-04,22.767777,120.444444,0.11460838
CAP070,高雄燈塔,2020-03-04,22.6146,120.2647,0.27376875
CAQ010,國三N425K,2020-03-04,22.480277,120.531666,0.25372908
CAQ020,國三S415K,2020-03-04,22.568,120.528,0.18386354
CAQ030,崎峰國小,2020-03-04,22.42565,120.49521,0.26103362
E2K600,四湖植物園,2020-03-04,23.676986,120.163433,0.08031296
E2P980,林試六龜中心,2020-03-04,22.991703,120.645722,0.16304223
E2S390,太麻里分所,2020-03-04,22.5988,120.9811,0.53356594
E2S960,林試太麻里2,2020-03-04,22.598014,120.989761,0.6331836
E2S980,林試太麻里1,2020-03-04,22.598922,120.980044,0.53356594
G2AI50,關渡,2020-03-04,25.11575,121.492,0.026608283
G2F820,農試所(霧峰),2020-03-04,24.031261,120.688133,0.061975803
G2L020,嘉義分所,2020-03-04,23.485028,120.473806,0.17094947
G2M350,溪口農場,2020-03-04,23.58565,120.408111,0.08108499
G2P820,鳳山園試所,2020-03-04,22.646611,120.356083,0.25647417
K2E360,苗栗農改場,2020-03-04,24.495722,120.829111,0.10794426
K2E710,大湖分場,2020-03-04,24.422861,120.871833,0.03436268
K2F750,種苗改良場,2020-03-04,24.225972,120.800917,0.023790082
U2HA50,臺大竹山,2020-03-04,23.756972,120.681556,0.03226421
V2C250,八德合作社,2020-03-04,24.93775,121.266389,0.007291831
V2C260,八德蔬果,2020-03-04,24.978508,121.281819,0.007781622
V2K610,大庄合作社,2020-03-04,23.8068,120.367939,0.02986359
V2K620,麥寮合作社,2020-03-04,23.753836,120.294783,0.058231026
