站號,站名,日期,lat,lon,BlastGRU-TW
466881,新北,2020-08-10,24.9593,121.52,0.060608454
466900,淡水,2020-08-10,25.164889,121.448906,0.082588986
466920,臺北,2020-08-10,25.037658,121.514853,0.058846198
466940,基隆,2020-08-10,25.133314,121.740475,0.08324062
466990,花蓮,2020-08-10,23.975128,121.613275,0.023264496
467050,新屋,2020-08-10,25.006744,121.047486,0.15597877
467080,宜蘭,2020-08-10,24.763975,121.756528,0.035076935
467270,田中,2020-08-10,23.873803,120.581286,0.10703287
467300,東吉島,2020-08-10,23.25695,119.667467,0.49445692
467350,澎湖,2020-08-10,23.565503,119.563094,0.4717494
467410,臺南,2020-08-10,22.993239,120.204772,0.041266296
467420,永康,2020-08-10,23.038386,120.2367,0.040557574
467441,高雄,2020-08-10,22.7304,120.3125,0.07279547
467480,嘉義,2020-08-10,23.495925,120.432906,0.1787711
467490,臺中,2020-08-10,24.145736,120.684075,0.3359621
467540,大武,2020-08-10,22.355675,120.903789,0.054130953
467571,新竹,2020-08-10,24.827853,121.014219,0.13738024
467590,恆春,2020-08-10,22.003897,120.746339,0.05928133
467610,成功,2020-08-10,23.097486,121.373428,0.09389519
467620,蘭嶼,2020-08-10,22.036969,121.558339,0.5912812
467660,臺東,2020-08-10,22.752211,121.154586,0.053016655
467790,墾丁雷達站,2020-08-10,21.948235,120.808028,0.061211694
C0A520,山佳,2020-08-10,24.974944,121.402008,0.06384558
C0A530,坪林,2020-08-10,24.938183,121.70975,0.042531617
C0A540,四堵,2020-08-10,24.8926,121.745736,0.052640386
C0A550,泰平,2020-08-10,24.971197,121.823711,0.0674971
C0A560,福山,2020-08-10,24.776203,121.502811,0.048794176
C0A570,桶後,2020-08-10,24.848222,121.597992,0.0441572
C0A640,石碇,2020-08-10,24.993969,121.662917,0.05151893
C0A650,火燒寮,2020-08-10,25.002719,121.742892,0.05407617
C0A660,瑞芳,2020-08-10,25.113169,121.801147,0.05486845
C0A770,科教館,2020-08-10,25.096356,121.516507,0.061067533
C0A860,大坪,2020-08-10,25.165914,121.632969,0.079192445
C0A880,福隆,2020-08-10,25.017842,121.942083,0.051916525
C0A890,雙溪,2020-08-10,25.036003,121.864242,0.08932941
C0A920,富貴角,2020-08-10,25.263783,121.565258,0.102665685
C0A931,三和,2020-08-10,25.233153,121.595236,0.057978883
C0A940,金山,2020-08-10,25.223628,121.643967,0.113035426
C0A950,鼻頭角,2020-08-10,25.129036,121.923372,0.051665124
C0A970,三貂角,2020-08-10,25.007606,122.002058,0.055107657
C0A980,社子,2020-08-10,25.109508,121.469681,0.06022048
C0A9C0,天母,2020-08-10,25.117494,121.537169,0.06287885
C0A9F0,內湖,2020-08-10,25.079422,121.57545,0.058846198
C0AC60,三峽,2020-08-10,24.939025,121.369728,0.061464846
C0AC70,信義,2020-08-10,25.037822,121.564597,0.058846198
C0AC80,文山,2020-08-10,25.00235,121.575728,0.06332254
C0ACA0,新莊,2020-08-10,25.051478,121.446756,0.07379105
C0AD00,三芝,2020-08-10,25.258131,121.501917,0.11915953
C0AD10,八里,2020-08-10,25.150211,121.403947,0.082588986
C0AD30,蘆洲,2020-08-10,25.086594,121.472331,0.061067533
C0AD40,土城,2020-08-10,24.973208,121.445169,0.062002227
C0AD50,鶯歌,2020-08-10,24.951533,121.346294,0.08973026
C0AG80,中和,2020-08-10,24.991622,121.491792,0.058846198
C0AH00,汐止,2020-08-10,25.066881,121.658778,0.0844159
C0AH10,永和,2020-08-10,25.01125,121.508111,0.057942953
C0AH40,平等,2020-08-10,25.129142,121.577086,0.056191936
C0AH50,林口,2020-08-10,25.072181,121.38084,0.0702495
C0AH70,松山,2020-08-10,25.04871,121.55042,0.058846198
C0AH80,深坑,2020-08-10,25.002703,121.628328,0.06332254
C0AI00,五股,2020-08-10,25.07445,121.42728,0.14021064
C0AI10,屈尺,2020-08-10,24.92184,121.54475,0.06332254
C0AI20,白沙灣,2020-08-10,25.283128,121.519058,0.11019564
C0AI30,三重,2020-08-10,25.057328,121.500629,0.06106746
C0AI40,石牌,2020-08-10,25.115597,121.513139,0.062002227
C0AJ20,野柳,2020-08-10,25.20703,121.690021,0.0844159
C0AJ30,淡水觀海,2020-08-10,25.184591,121.408616,0.08133655
C0AJ40,石門,2020-08-10,25.273672,121.601198,0.13324966
C0AJ50,水湳洞,2020-08-10,25.123695,121.862238,0.0844159
C0AJ60,六塊厝,2020-08-10,25.24,121.4481,0.08133655
C0AJ70,田寮,2020-08-10,25.2698,121.4886,0.10881179
C0AJ80,板橋,2020-08-10,25.0107,121.4489,0.062002227
C0AJ90,澳底,2020-08-10,25.0552,121.9253,0.051916525
C0B010,七堵,2020-08-10,25.094819,121.71713,0.086859606
C0B020,基隆嶼,2020-08-10,25.19141,121.78391,0.0844159
C0B040,大武崙,2020-08-10,25.166676,121.706993,0.086859606
C0B050,八斗子,2020-08-10,25.144754,121.79167,0.08200719
C0B060,暖暖,2020-08-10,25.0957,121.7403,0.093324095
C0C460,復興,2020-08-10,24.820208,121.352281,0.052024126
C0C480,桃園,2020-08-10,24.992425,121.323172,0.14111643
C0C490,八德,2020-08-10,24.928708,121.283289,0.10419915
C0C590,觀音,2020-08-10,25.027072,121.153317,0.10741334
C0C620,蘆竹,2020-08-10,25.084275,121.265767,0.085146114
C0C630,大溪,2020-08-10,24.882853,121.265547,0.11295234
C0C650,平鎮,2020-08-10,24.897503,121.214636,0.16046302
C0C660,楊梅,2020-08-10,24.912375,121.143047,0.18460031
C0C670,龍潭,2020-08-10,24.870056,121.221389,0.20597754
C0C680,龜山,2020-08-10,25.02846,121.38656,0.052114762
C0C700,中壢,2020-08-10,24.977661,121.256375,0.14639981
C0C710,大溪永福,2020-08-10,24.892936,121.324975,0.16081163
C0C720,竹圍,2020-08-10,25.112692,121.239824,0.082588986
C0C730,中大臨海站,2020-08-10,24.966126,121.008581,0.1509561
C0C740,觀音工業區,2020-08-10,25.064764,121.114856,0.16589944
C0C750,新興坑尾,2020-08-10,25.0061,121.0971,0.1816256
C0D430,峨眉,2020-08-10,24.6905,121.017189,0.10870244
C0D480,打鐵坑,2020-08-10,24.849664,121.150789,0.14291058
C0D540,橫山,2020-08-10,24.71116,121.11693,0.15526964
C0D560,竹東,2020-08-10,24.767147,121.057881,0.13362437
C0D580,寶山,2020-08-10,24.735006,121.025192,0.12591426
C0D590,新豐,2020-08-10,24.87068,120.97721,0.18694007
C0D650,湖口,2020-08-10,24.904794,121.043628,0.16993295
C0D660,新竹市東區,2020-08-10,24.798681,120.986942,0.14061747
C0D670,海天一線,2020-08-10,24.831986,120.914438,0.117482096
C0D680,香山濕地,2020-08-10,24.783581,120.914988,0.11900453
C0D690,外湖,2020-08-10,24.917735,120.968711,0.1509561
C0D700,關西,2020-08-10,24.7977,121.1732,0.14432645
C0E420,竹南,2020-08-10,24.708978,120.888897,0.123117685
C0E430,南庄,2020-08-10,24.601775,121.000214,0.13806924
C0E520,大湖,2020-08-10,24.41494,120.87087,0.40031135
C0E540,後龍,2020-08-10,24.606489,120.783933,0.26560992
C0E550,明德,2020-08-10,24.583486,120.885411,0.19360684
C0E590,通霄,2020-08-10,24.471892,120.704622,0.30158627
C0E730,頭份,2020-08-10,24.688247,120.912206,0.123117685
C0E740,造橋,2020-08-10,24.637056,120.864778,0.16457596
C0E750,苗栗,2020-08-10,24.564569,120.824575,0.29959273
C0E780,銅鑼,2020-08-10,24.489681,120.790853,0.17209142
C0E791,卓蘭,2020-08-10,24.3126,120.8244,0.038842764
C0E810,西湖,2020-08-10,24.562947,120.7485,0.28562772
C0E820,獅潭,2020-08-10,24.539133,120.920042,0.16053717
C0E830,苑裡,2020-08-10,24.439714,120.653053,0.23518388
C0E850,大河,2020-08-10,24.618069,120.948578,0.19910935
C0E870,高鐵苗栗,2020-08-10,24.60725,120.826094,0.2720695
C0E910,海埔,2020-08-10,24.648767,120.772435,0.17003235
C0E920,通霄漁港,2020-08-10,24.498589,120.673876,0.26562902
C0E930,龍鳳,2020-08-10,24.700034,120.859125,0.15685186
C0F0B0,石岡,2020-08-10,24.276061,120.777644,0.56084365
C0F850,東勢,2020-08-10,24.246428,120.833047,0.06370761
C0F930,大甲,2020-08-10,24.347667,120.640403,0.23385206
C0F970,大坑,2020-08-10,24.173142,120.722289,0.35462067
C0F9A0,中竹林,2020-08-10,24.103556,120.751061,0.9925194
C0F9I0,神岡,2020-08-10,24.272481,120.658314,0.21426146
C0F9K0,大安,2020-08-10,24.345061,120.588025,0.18438722
C0F9L0,后里,2020-08-10,24.310436,120.729725,0.27301034
C0F9M0,豐原,2020-08-10,24.254322,120.720692,0.23637801
C0F9N0,大里,2020-08-10,24.092464,120.701378,0.22638318
C0F9O0,潭子,2020-08-10,24.213106,120.703933,0.22689852
C0F9P0,清水,2020-08-10,24.312297,120.562242,0.17518832
C0F9Q0,外埔,2020-08-10,24.347817,120.705686,0.19493881
C0F9R0,龍井,2020-08-10,24.184536,120.528972,0.19079596
C0F9S0,烏日,2020-08-10,24.107058,120.624103,0.10864485
C0F9T0,西屯,2020-08-10,24.179494,120.641275,0.24169572
C0F9U0,南屯,2020-08-10,24.137006,120.637969,0.22638318
C0F9X0,大雅(中科園區),2020-08-10,24.21528,120.62445,0.29639566
C0FA10,松柏,2020-08-10,24.429115,120.617482,0.21878918
C0FA20,溫寮,2020-08-10,24.372177,120.583125,0.21878918
C0FA30,梧棲,2020-08-10,24.256003,120.523381,0.19079596
C0FA40,臺中電廠,2020-08-10,24.2146,120.4907,0.19079596
C0FA50,霧峰,2020-08-10,24.0419,120.6995,0.30460194
C0G620,芬園,2020-08-10,24.015678,120.6213,0.26250917
C0G640,鹿港,2020-08-10,24.0753,120.430481,0.1355829
C0G650,員林,2020-08-10,23.946503,120.585597,0.17932603
C0G660,溪湖,2020-08-10,23.94835,120.479122,0.172591
C0G720,溪州,2020-08-10,23.851589,120.499093,0.119907245
C0G730,二林,2020-08-10,23.903325,120.376081,0.14548077
C0G740,大城,2020-08-10,23.852487,120.320935,0.18042368
C0G770,福興,2020-08-10,24.041289,120.437669,0.1355829
C0G780,秀水,2020-08-10,24.03405,120.503869,0.1222126
C0G800,埔鹽,2020-08-10,24.000394,120.431683,0.1355829
C0G810,埔心,2020-08-10,23.947633,120.525456,0.18094796
C0G820,田尾,2020-08-10,23.901669,120.509389,0.18983728
C0G830,埤頭,2020-08-10,23.866003,120.452806,0.116656244
C0G840,北斗,2020-08-10,23.877586,120.514222,0.18983741
C0G860,社頭,2020-08-10,23.897647,120.5862,0.1900814
C0G870,芳苑,2020-08-10,23.922303,120.320025,0.17716189
C0G880,二水,2020-08-10,23.810742,120.6173,0.1057648
C0G890,伸港,2020-08-10,24.148933,120.484403,0.20206411
C0G900,線西,2020-08-10,24.143358,120.443536,0.24330291
C0G910,花壇,2020-08-10,24.032076,120.549461,0.1318901
C0G920,永靖,2020-08-10,23.924703,120.547533,0.18983741
C0G940,竹塘,2020-08-10,23.848253,120.386764,0.0873271
C0G950,防潮門,2020-08-10,24.1835,120.4871,0.18577275
C0G960,福寶,2020-08-10,24.0443,120.3814,0.1309492
C0G970,三豐,2020-08-10,23.882,120.2895,0.17716189
C0H890,埔里,2020-08-10,23.972169,120.952425,0.060041863
C0H950,中寮,2020-08-10,23.884447,120.766406,0.21306372
C0H960,草屯,2020-08-10,23.973672,120.68085,0.14862709
C0I110,竹山,2020-08-10,23.761225,120.688156,0.16337126
C0I360,水里,2020-08-10,23.812553,120.849792,0.014500698
C0I380,集集,2020-08-10,23.828206,120.801467,0.014408681
C0I410,名間,2020-08-10,23.837053,120.701447,0.12347975
C0I420,國姓,2020-08-10,24.037803,120.855072,0.94666237
C0I460,南投,2020-08-10,23.911469,120.687331,0.1348268
C0K250,崙背,2020-08-10,23.75555,120.318925,0.16928135
C0K280,四湖,2020-08-10,23.630414,120.227125,0.18416882
C0K291,宜梧,2020-08-10,23.536281,120.169329,0.12600325
C0K330,虎尾,2020-08-10,23.719183,120.442036,0.07775769
C0K390,土庫,2020-08-10,23.679029,120.395574,0.07650117
C0K400,斗六,2020-08-10,23.720583,120.541127,0.081957385
C0K410,北港,2020-08-10,23.573957,120.292802,0.10915422
C0K420,西螺,2020-08-10,23.800407,120.467394,0.09875977
C0K430,褒忠,2020-08-10,23.690938,120.303634,0.1410919
C0K440,二崙,2020-08-10,23.772797,120.408944,0.08863856
C0K450,大埤,2020-08-10,23.646074,120.431537,0.074637316
C0K460,斗南,2020-08-10,23.678734,120.478359,0.07951034
C0K470,林內,2020-08-10,23.748675,120.609642,0.09132497
C0K480,莿桐,2020-08-10,23.761192,120.502372,0.10007506
C0K500,元長,2020-08-10,23.64981,120.315024,0.14849387
C0K510,水林,2020-08-10,23.572924,120.24597,0.13772564
C0K530,臺西,2020-08-10,23.701547,120.197559,0.17754799
C0K550,蔦松,2020-08-10,23.514319,120.229736,0.12836637
C0K560,棋山,2020-08-10,23.68645,120.603417,0.08764893
C0K580,高鐵雲林,2020-08-10,23.737456,120.417944,0.07650117
C0K590,雲林東勢,2020-08-10,23.674192,120.255721,0.1410919
C0K600,箔子寮,2020-08-10,23.6197,120.14,0.13481225
C0M410,馬頭山,2020-08-10,23.324361,120.582017,0.012969221
C0M520,東後寮,2020-08-10,23.369908,120.248065,0.092466526
C0M640,中埔,2020-08-10,23.42538,120.5229,0.12545265
C0M650,朴子,2020-08-10,23.43463,120.23902,0.12907138
C0M660,溪口,2020-08-10,23.604131,120.403569,0.16014166
C0M670,大林,2020-08-10,23.600616,120.45841,0.18097986
C0M680,太保,2020-08-10,23.455062,120.331455,0.10866182
C0M690,水上,2020-08-10,23.419734,120.388909,0.19663648
C0M700,竹崎,2020-08-10,23.526178,120.555508,0.120511614
C0M710,東石,2020-08-10,23.458927,120.15385,0.12836637
C0M720,番路,2020-08-10,23.464657,120.554156,0.20796409
C0M730,嘉義市東區,2020-08-10,23.457673,120.460531,0.20727932
C0M740,六腳,2020-08-10,23.492871,120.290625,0.10632252
C0M750,布袋,2020-08-10,23.380878,120.167789,0.12907138
C0M760,民雄,2020-08-10,23.551754,120.428457,0.16547742
C0M770,嘉義梅山,2020-08-10,23.585398,120.555587,0.09266818
C0M780,鹿草,2020-08-10,23.41134,120.30835,0.123272516
C0M790,新港,2020-08-10,23.553269,120.345728,0.111621074
C0M800,茶山,2020-08-10,23.299075,120.664767,0.07787562
C0M880,好美里,2020-08-10,23.3364,120.138,0.10569579
C0N010,鯤鯓國小,2020-08-10,23.1879,120.0889,0.14507703
C0N020,城西,2020-08-10,23.0568,120.0956,0.088084795
C0N030,四草,2020-08-10,23.0235,120.1116,0.0615541
C0N040,蘆竹溝,2020-08-10,23.2344,120.0961,0.14507703
C0N050,蚵寮,2020-08-10,23.301,120.1104,0.14507703
C0O810,曾文,2020-08-10,23.219681,120.497328,0.25411564
C0O830,北寮,2020-08-10,23.079561,120.495008,0.04419699
C0O840,王爺宮,2020-08-10,23.222064,120.40085,0.25411564
C0O860,大內,2020-08-10,23.11885,120.36083,0.09067319
C0O900,善化,2020-08-10,23.112883,120.297219,0.047856547
C0O930,玉井,2020-08-10,23.126042,120.46055,0.1805292
C0O950,安南,2020-08-10,23.076694,120.144861,0.057125077
C0O960,崎頂,2020-08-10,22.959547,120.369317,0.03602585
C0O970,虎頭埤,2020-08-10,23.021375,120.347878,0.07385373
C0O980,新市,2020-08-10,23.061614,120.298197,0.047856547
C0O990,媽廟,2020-08-10,22.99175,120.293525,0.04092776
C0R150,三地門,2020-08-10,22.709889,120.639944,0.045595437
C0R160,鹽埔,2020-08-10,22.739558,120.530778,0.04665319
C0R170,屏東,2020-08-10,22.660269,120.494072,0.054889996
C0R190,赤山,2020-08-10,22.592333,120.614306,0.060378768
C0R220,潮州,2020-08-10,22.534361,120.54,0.085221134
C0R240,來義,2020-08-10,22.527306,120.625111,0.13622922
C0R260,春日,2020-08-10,22.370361,120.628306,0.124171294
C0R270,琉球嶼,2020-08-10,22.332244,120.362236,0.12715267
C0R280,檳榔,2020-08-10,22.076078,120.836777,0.067688905
C0R320,車城,2020-08-10,22.0744,120.716247,0.057481587
C0R341,牡丹,2020-08-10,22.130036,120.792639,0.20747958
C0R350,貓鼻頭,2020-08-10,21.921774,120.7358,0.059919897
C0R470,高樹,2020-08-10,22.826389,120.600806,0.045839936
C0R480,長治,2020-08-10,22.693128,120.542622,0.047678955
C0R490,九如,2020-08-10,22.7405,120.490503,0.056762703
C0R520,崁頂,2020-08-10,22.514781,120.506914,0.10926662
C0R540,佳冬,2020-08-10,22.419456,120.552375,0.106063545
C0R550,新埤,2020-08-10,22.467947,120.582894,0.059051543
C0R560,新園,2020-08-10,22.5434,120.461558,0.10926683
C0R570,麟洛,2020-08-10,22.65078,120.52719,0.056762703
C0R580,南州,2020-08-10,22.48591,120.50274,0.106063545
C0R590,里港,2020-08-10,22.77919,120.49459,0.051262807
C0R620,墾雷,2020-08-10,21.900836,120.855269,0.059919897
C0R640,東港,2020-08-10,22.46247,120.44074,0.085203774
C0R650,竹田,2020-08-10,22.58486,120.54344,0.05785291
C0R660,枋寮,2020-08-10,22.367722,120.590647,0.08143267
C0R670,楓港,2020-08-10,22.190131,120.692156,0.11051314
C0R680,佳樂水,2020-08-10,21.993578,120.861633,0.058677144
C0R690,墾丁,2020-08-10,21.966756,120.810269,0.06928155
C0R700,枋山,2020-08-10,22.246844,120.661086,0.11051314
C0R710,龍磐,2020-08-10,21.931672,120.838942,0.06718296
C0R720,旭海,2020-08-10,22.205403,120.887614,0.10215256
C0R730,大坪頂,2020-08-10,22.024633,120.69355,0.061172344
C0R740,獅子,2020-08-10,22.201569,120.70525,0.12385726
C0R760,南仁湖,2020-08-10,22.084681,120.863353,0.0672665
C0R770,保力,2020-08-10,22.071122,120.764111,0.06323065
C0R780,滿州,2020-08-10,22.024403,120.839892,0.06054726
C0R790,九棚,2020-08-10,22.14195,120.889281,0.09711013
C0R800,丹路,2020-08-10,22.204481,120.750989,0.15722966
C0R810,內獅,2020-08-10,22.305064,120.642986,0.1070337
C0R830,高士,2020-08-10,22.121825,120.836781,0.07300016
C0R850,林邊,2020-08-10,22.4634,120.5339,0.10926683
C0R860,鼻頭,2020-08-10,22.1043,120.8979,0.060061917
C0R870,興海,2020-08-10,21.9752,120.8439,0.058677144
C0R880,後壁湖,2020-08-10,21.9457,120.7457,0.05613225
C0R890,山海,2020-08-10,21.9878,120.7091,0.057481587
C0R900,竹坑,2020-08-10,22.1385,120.7022,0.13998984
C0R910,下寮,2020-08-10,22.3929,120.5548,0.106063545
C0R920,塭仔,2020-08-10,22.4169,120.5197,0.1024204
C0R930,萬丹,2020-08-10,22.5885,120.4851,0.05785291
C0R940,加祿堂,2020-08-10,22.3363,120.6217,0.1070337
C0S710,鹿野,2020-08-10,22.917711,121.122994,0.750059
C0S730,綠島,2020-08-10,22.6672,121.47533,0.10874806
C0S740,池上,2020-08-10,23.119628,121.209469,0.38271478
C0S770,大溪山,2020-08-10,22.478475,120.943325,0.042458203
C0S790,金崙,2020-08-10,22.538122,120.966875,0.03777764
C0S810,東河,2020-08-10,22.972672,121.303986,0.09657714
C0S830,長濱,2020-08-10,23.286817,121.411975,0.48606935
C0S840,南田,2020-08-10,22.279725,120.889208,0.06617161
C0S890,關山,2020-08-10,23.0395,121.175017,0.1630009
C0S900,蘭嶼高中,2020-08-10,22.04909,121.51214,0.06655
C0S910,蘭嶼燈塔,2020-08-10,22.081197,121.503117,0.102679186
C0S920,金峰嘉蘭,2020-08-10,22.594789,120.960825,0.034661192
C0S930,延平,2020-08-10,22.902581,121.084058,0.15415536
C0S940,石寧山,2020-08-10,23.223772,121.406639,0.15558857
C0S950,七塊厝,2020-08-10,22.954453,121.229922,0.8228182
C0S960,香蘭,2020-08-10,22.587569,120.993375,0.032788828
C0S970,加津林,2020-08-10,22.416211,120.926942,0.05514368
C0S990,山豬窟,2020-08-10,22.318619,120.857372,0.11594876
C0SA00,歷坵,2020-08-10,22.520969,120.89185,0.048131995
C0SA10,檳榔四格山,2020-08-10,22.810031,121.109308,0.089934595
C0SA30,都歷,2020-08-10,23.020333,121.323642,0.102729656
C0SA40,瑞和,2020-08-10,22.974361,121.156697,0.14627239
C0SA60,知本（水試所）,2020-08-10,22.702394,121.082761,0.05208043
C0SA80,土坂,2020-08-10,22.453108,120.887572,0.035718843
C0SA90,達仁林場,2020-08-10,22.264347,120.823972,0.12155939
C0T870,鯉魚潭,2020-08-10,23.935639,121.508944,0.026784014
C0T900,西林,2020-08-10,23.8119,121.441458,0.02709414
C0T960,光復,2020-08-10,23.660694,121.424964,0.037343856
C0T9A0,月眉山,2020-08-10,23.809928,121.539828,0.66554004
C0T9D0,和中,2020-08-10,24.26676,121.74103,0.0811473
C0T9E0,大坑,2020-08-10,23.880628,121.581981,0.2010812
C0T9F0,水璉,2020-08-10,23.797131,121.542514,0.042943545
C0T9I0,豐濱,2020-08-10,23.583897,121.514806,0.043893367
C0T9M0,靜浦,2020-08-10,23.455167,121.495028,0.038372792
C0T9N0,富里,2020-08-10,23.171639,121.249378,0.8246775
C0U600,礁溪,2020-08-10,24.817539,121.765608,0.03529096
C0U650,玉蘭,2020-08-10,24.675286,121.587061,0.32723948
C0U750,龜山島,2020-08-10,24.841667,121.953133,0.079931
C0U760,東澳,2020-08-10,24.52196,121.83318,0.040359057
C0U770,南澳,2020-08-10,24.44935,121.81022,0.05080046
C0U780,五結,2020-08-10,24.68637,121.79794,0.06774917
C0U860,頭城,2020-08-10,24.85323,121.8308,0.035076935
C0U870,大礁溪,2020-08-10,24.791042,121.675047,0.058113806
C0U880,北關,2020-08-10,24.9072,121.8734,0.055851433
C0U890,三星,2020-08-10,24.66812,121.65302,0.03721322
C0U900,內城,2020-08-10,24.71813,121.68766,0.03581379
C0U910,冬山,2020-08-10,24.63373,121.7937,0.06774917
C0U940,羅東,2020-08-10,24.68184,121.74934,0.06826326
C0U970,大福,2020-08-10,24.80064,121.81389,0.034922816
C0U990,員山,2020-08-10,24.74435,121.72247,0.06826326
C0UA00,土場,2020-08-10,24.576533,121.495333,0.09513988
C0UA80,大溪漁港,2020-08-10,24.941801,121.902955,0.03529096
C0UA90,石城,2020-08-10,24.980444,121.951214,0.052649327
C0UB00,淡江大學蘭陽校園,2020-08-10,24.823239,121.730383,0.086640954
C0UB10,蘇澳,2020-08-10,24.5969,121.8571,0.053097412
C0UB20,壯圍,2020-08-10,24.7359,121.8163,0.06724834
C0V250,甲仙,2020-08-10,23.080106,120.591758,0.06780229
C0V260,月眉,2020-08-10,22.971003,120.539853,0.041827273
C0V310,美濃,2020-08-10,22.898742,120.519153,0.12312277
C0V350,溪埔,2020-08-10,22.738578,120.446797,0.06718954
C0V360,內門,2020-08-10,22.975481,120.466769,0.15587638
C0V370,古亭坑,2020-08-10,22.893178,120.401947,0.09853714
C0V400,阿公店,2020-08-10,22.804194,120.355528,0.04957562
C0V440,鳳山,2020-08-10,22.646653,120.356122,0.09330368
C0V450,鳳森,2020-08-10,22.545064,120.392592,0.07842542
C0V490,新興,2020-08-10,22.627422,120.298803,0.087573156
C0V530,阿蓮,2020-08-10,22.883208,120.327508,0.03296368
C0V610,梓官,2020-08-10,22.760558,120.267211,0.044482265
C0V620,永安,2020-08-10,22.82315,120.236856,0.041716132
C0V630,茄萣,2020-08-10,22.906642,120.182608,0.0400452
C0V640,湖內,2020-08-10,22.887139,120.2445,0.04069782
C0V650,彌陀,2020-08-10,22.783806,120.246361,0.041716132
C0V660,岡山,2020-08-10,22.797078,120.294958,0.044482265
C0V680,仁武,2020-08-10,22.701083,120.347722,0.074732296
C0V690,鼓山,2020-08-10,22.623325,120.275575,0.087573156
C0V700,三民,2020-08-10,22.645017,120.311233,0.087573156
C0V710,苓雅,2020-08-10,22.622742,120.330669,0.087573156
C0V720,林園,2020-08-10,22.507747,120.394511,0.087573156
C0V730,大寮,2020-08-10,22.605614,120.395717,0.070314914
C0V740,旗山,2020-08-10,22.888614,120.483597,0.1259328
C0V750,路竹,2020-08-10,22.854997,120.259439,0.033562638
C0V760,橋頭,2020-08-10,22.757806,120.30575,0.04541771
C0V770,大社,2020-08-10,22.730306,120.346639,0.074732296
C0V790,萬山,2020-08-10,22.905944,120.688056,0.07149796
C0V800,六龜,2020-08-10,22.997889,120.633583,0.044474304
C0V810,左營,2020-08-10,22.67491,120.28491,0.07279547
C0V820,小林,2020-08-10,23.148408,120.63325,0.10676106
C0V840,鳳鼻頭,2020-08-10,22.5083,120.3591,0.085203774
C0V850,蚵仔寮,2020-08-10,22.7256,120.2527,0.070292026
C0V860,南寮,2020-08-10,22.7616,120.2339,0.04104148
C0V870,文安,2020-08-10,22.8025,120.2164,0.0410415
C0V880,興達,2020-08-10,22.8778,120.2127,0.0400452
C0V890,前鎮,2020-08-10,22.5718,120.3117,0.08520366
C0V900,汕尾,2020-08-10,22.4782,120.4151,0.06938529
C0X050,東河,2020-08-10,23.296598,120.385608,0.17183377
C0X060,下營,2020-08-10,23.22695,120.256261,0.095512815
C0X080,佳里,2020-08-10,23.173039,120.145086,0.105695784
C0X100,臺南市北區,2020-08-10,23.010394,120.194228,0.03990388
C0X110,臺南市南區,2020-08-10,22.961189,120.188378,0.040557574
C0X120,麻豆,2020-08-10,23.183289,120.248611,0.10809017
C0X130,官田,2020-08-10,23.193217,120.315422,0.10043288
C0X140,西港,2020-08-10,23.125608,120.203108,0.08720295
C0X150,安定,2020-08-10,23.102614,120.227839,0.055811316
C0X160,仁德,2020-08-10,22.968258,120.257689,0.04014584
C0X170,關廟,2020-08-10,22.963017,120.327797,0.043642323
C0X180,山上,2020-08-10,23.0757,120.363253,0.14453135
C0X190,安平,2020-08-10,22.993161,120.152181,0.03990388
C0X200,左鎮,2020-08-10,23.056758,120.408522,0.14117122
C0X210,白河,2020-08-10,23.347466,120.414427,0.174755
C0X220,學甲,2020-08-10,23.230367,120.182187,0.10809017
C0X230,鹽水,2020-08-10,23.272621,120.247641,0.10122942
C0X240,關子嶺,2020-08-10,23.331169,120.508025,0.23047844
C0X250,新營,2020-08-10,23.310689,120.316681,0.08924385
C0X260,後壁,2020-08-10,23.366358,120.362326,0.11982134
C0X280,將軍,2020-08-10,23.214999,120.13577,0.105695784
C0X290,北門,2020-08-10,23.267772,120.125481,0.105695784
C0X300,鹿寮,2020-08-10,23.386047,120.477331,0.104305215
C0X310,七股,2020-08-10,23.147289,120.086253,0.12032545
C0X320,柳營,2020-08-10,23.253328,120.375253,0.17183377
C0Z020,明里,2020-08-10,23.208717,121.262342,0.36205584
C0Z061,玉里,2020-08-10,23.3215,121.339656,0.13095312
C0Z070,舞鶴,2020-08-10,23.46811,121.37407,0.10039644
C0Z080,富源,2020-08-10,23.587642,121.378225,0.09270921
C0Z100,東華,2020-08-10,23.89525,121.549833,0.028426385
C0Z150,吉安光華,2020-08-10,23.930925,121.595153,0.028487787
C0Z160,鳳林,2020-08-10,23.746114,121.453411,0.036108173
C0Z170,卓溪,2020-08-10,23.3443,121.3029,0.16060533
C0Z180,新城,2020-08-10,24.03946,121.60454,0.023289815
C0Z190,富世,2020-08-10,24.14743,121.6297,0.081877954
C0Z200,萬榮,2020-08-10,23.709219,121.420106,0.026784014
C0Z210,瑞穗,2020-08-10,23.5239,121.39021,0.040699683
C0Z230,和平,2020-08-10,24.30717,121.77007,0.0811473
C0Z270,蕃薯寮,2020-08-10,23.73835,121.540108,0.038036216
C0Z280,德武,2020-08-10,23.47426,121.41071,0.05598409
C0Z300,東里,2020-08-10,23.26853,121.30547,0.14422286
C0Z310,清水斷崖,2020-08-10,24.218294,121.689142,0.08674009
C0Z330,安通山,2020-08-10,23.290728,121.348528,0.72865546
