站號,站名,日期,lat,lon,BlastGRU-TW
466881,新北,2020-11-05,24.9593,121.52,0.06139322
466900,淡水,2020-11-05,25.164889,121.448906,0.013277404
466920,臺北,2020-11-05,25.037658,121.514853,0.06506828
467441,高雄,2020-11-05,22.7304,120.3125,0.6300717
467480,嘉義,2020-11-05,23.495925,120.432906,0.9740865
467490,臺中,2020-11-05,24.145736,120.684075,0.74684733
C0A540,四堵,2020-11-05,24.8926,121.745736,0.48183942
C0A550,泰平,2020-11-05,24.971197,121.823711,0.9449271
C0A560,福山,2020-11-05,24.776203,121.502811,0.88958853
C0A931,三和,2020-11-05,25.233153,121.595236,0.89522207
C0A940,金山,2020-11-05,25.223628,121.643967,0.0037921185
C0A950,鼻頭角,2020-11-05,25.129036,121.923372,0.86368513
C0AD10,八里,2020-11-05,25.150211,121.403947,0.013277404
C0AD30,蘆洲,2020-11-05,25.086594,121.472331,0.03055347
C0AD40,土城,2020-11-05,24.973208,121.445169,0.0295878
C0AI10,屈尺,2020-11-05,24.92184,121.54475,0.054081183
C0AI20,白沙灣,2020-11-05,25.283128,121.519058,0.004604751
C0AI30,三重,2020-11-05,25.057328,121.500629,0.03055347
C0B010,七堵,2020-11-05,25.094819,121.71713,0.01764414
C0B020,基隆嶼,2020-11-05,25.19141,121.78391,0.017880129
