站號,站名,日期,lat,lon,BlastGRU-TW
466881,新北,2020-03-20,24.9593,121.52,0.053877387
466900,淡水,2020-03-20,25.164889,121.448906,0.028368792
466920,臺北,2020-03-20,25.037658,121.514853,0.0687231
466940,基隆,2020-03-20,25.133314,121.740475,0.12277536
466990,花蓮,2020-03-20,23.975128,121.613275,0.53362954
467050,新屋,2020-03-20,25.006744,121.047486,0.11763159
467080,宜蘭,2020-03-20,24.763975,121.756528,0.09066026
467270,田中,2020-03-20,23.873803,120.581286,0.18211697
467300,東吉島,2020-03-20,23.25695,119.667467,0.07378495
467350,澎湖,2020-03-20,23.565503,119.563094,0.008282155
467410,臺南,2020-03-20,22.993239,120.204772,0.6450879
467420,永康,2020-03-20,23.038386,120.2367,0.6358386
467441,高雄,2020-03-20,22.7304,120.3125,0.32218602
467480,嘉義,2020-03-20,23.495925,120.432906,0.2900757
467490,臺中,2020-03-20,24.145736,120.684075,0.024218421
467540,大武,2020-03-20,22.355675,120.903789,0.33532372
467571,新竹,2020-03-20,24.827853,121.014219,0.028355896
467590,恆春,2020-03-20,22.003897,120.746339,0.0035678907
467610,成功,2020-03-20,23.097486,121.373428,0.770088
467620,蘭嶼,2020-03-20,22.036969,121.558339,0.0014547838
467660,臺東,2020-03-20,22.752211,121.154586,0.18280071
467790,墾丁雷達站,2020-03-20,21.948235,120.808028,0.0029362426
C0A520,山佳,2020-03-20,24.974944,121.402008,0.031432696
C0A530,坪林,2020-03-20,24.938183,121.70975,0.017978927
C0A540,四堵,2020-03-20,24.8926,121.745736,0.006466314
C0A550,泰平,2020-03-20,24.971197,121.823711,0.046406504
C0A560,福山,2020-03-20,24.776203,121.502811,0.07498653
C0A570,桶後,2020-03-20,24.848222,121.597992,0.013330798
C0A640,石碇,2020-03-20,24.993969,121.662917,0.024227122
C0A650,火燒寮,2020-03-20,25.002719,121.742892,0.015428899
C0A660,瑞芳,2020-03-20,25.113169,121.801147,0.05499663
C0A770,科教館,2020-03-20,25.096356,121.516507,0.04244876
C0A860,大坪,2020-03-20,25.165914,121.632969,0.003064677
C0A880,福隆,2020-03-20,25.017842,121.942083,0.13271822
C0A890,雙溪,2020-03-20,25.036003,121.864242,0.07390452
C0A920,富貴角,2020-03-20,25.263783,121.565258,0.008937385
C0A931,三和,2020-03-20,25.233153,121.595236,0.011094759
C0A940,金山,2020-03-20,25.223628,121.643967,0.012071435
C0A950,鼻頭角,2020-03-20,25.129036,121.923372,0.14375004
C0A970,三貂角,2020-03-20,25.007606,122.002058,0.038780853
C0A980,社子,2020-03-20,25.109508,121.469681,0.04674682
C0A9C0,天母,2020-03-20,25.117494,121.537169,0.034799337
C0A9F0,內湖,2020-03-20,25.079422,121.57545,0.0687231
C0AC60,三峽,2020-03-20,24.939025,121.369728,0.049503557
C0AC70,信義,2020-03-20,25.037822,121.564597,0.0687231
C0AC80,文山,2020-03-20,25.00235,121.575728,0.041232746
C0ACA0,新莊,2020-03-20,25.051478,121.446756,0.04744169
C0AD00,三芝,2020-03-20,25.258131,121.501917,0.0086484775
C0AD10,八里,2020-03-20,25.150211,121.403947,0.028368792
C0AD30,蘆洲,2020-03-20,25.086594,121.472331,0.042448662
C0AD40,土城,2020-03-20,24.973208,121.445169,0.038263164
C0AD50,鶯歌,2020-03-20,24.951533,121.346294,0.015777482
C0AG80,中和,2020-03-20,24.991622,121.491792,0.068723135
C0AH00,汐止,2020-03-20,25.066881,121.658778,0.111608505
C0AH10,永和,2020-03-20,25.01125,121.508111,0.075877994
C0AH40,平等,2020-03-20,25.129142,121.577086,0.005610281
C0AH50,林口,2020-03-20,25.072181,121.38084,0.0069903308
C0AH70,松山,2020-03-20,25.04871,121.55042,0.0687231
C0AH80,深坑,2020-03-20,25.002703,121.628328,0.041232746
C0AI00,五股,2020-03-20,25.07445,121.42728,0.0065513514
C0AI10,屈尺,2020-03-20,24.92184,121.54475,0.041232746
C0AI20,白沙灣,2020-03-20,25.283128,121.519058,0.01441435
C0AI30,三重,2020-03-20,25.057328,121.500629,0.04244876
C0AI40,石牌,2020-03-20,25.115597,121.513139,0.038263164
C0AJ20,野柳,2020-03-20,25.20703,121.690021,0.111608505
C0AJ30,淡水觀海,2020-03-20,25.184591,121.408616,0.031486116
C0AJ40,石門,2020-03-20,25.273672,121.601198,0.0042353827
C0AJ50,水湳洞,2020-03-20,25.123695,121.862238,0.111608505
C0AJ60,六塊厝,2020-03-20,25.24,121.4481,0.031486116
C0AJ70,田寮,2020-03-20,25.2698,121.4886,0.015743671
C0AJ80,板橋,2020-03-20,25.0107,121.4489,0.038263164
C0AJ90,澳底,2020-03-20,25.0552,121.9253,0.13271822
C0B010,七堵,2020-03-20,25.094819,121.71713,0.090852134
C0B020,基隆嶼,2020-03-20,25.19141,121.78391,0.111608505
C0B040,大武崙,2020-03-20,25.166676,121.706993,0.090852134
C0B050,八斗子,2020-03-20,25.144754,121.79167,0.13677585
C0B060,暖暖,2020-03-20,25.0957,121.7403,0.053964227
C0C460,復興,2020-03-20,24.820208,121.352281,0.009126263
C0C480,桃園,2020-03-20,24.992425,121.323172,0.008450448
C0C490,八德,2020-03-20,24.928708,121.283289,0.02342584
C0C590,觀音,2020-03-20,25.027072,121.153317,0.013940548
C0C620,蘆竹,2020-03-20,25.084275,121.265767,0.023151502
C0C630,大溪,2020-03-20,24.882853,121.265547,0.014221578
C0C650,平鎮,2020-03-20,24.897503,121.214636,0.0049099633
C0C660,楊梅,2020-03-20,24.912375,121.143047,0.004519288
C0C670,龍潭,2020-03-20,24.870056,121.221389,0.0042886175
C0C680,龜山,2020-03-20,25.02846,121.38656,0.011756988
C0C700,中壢,2020-03-20,24.977661,121.256375,0.006727121
C0C710,大溪永福,2020-03-20,24.892936,121.324975,0.0056839585
C0C720,竹圍,2020-03-20,25.112692,121.239824,0.028368792
C0C730,中大臨海站,2020-03-20,24.966126,121.008581,0.1648547
C0C740,觀音工業區,2020-03-20,25.064764,121.114856,0.007876308
C0C750,新興坑尾,2020-03-20,25.0061,121.0971,0.0047188397
C0D430,峨眉,2020-03-20,24.6905,121.017189,0.027317328
C0D480,打鐵坑,2020-03-20,24.849664,121.150789,0.009015281
C0D540,橫山,2020-03-20,24.71116,121.11693,0.0065542473
C0D560,竹東,2020-03-20,24.767147,121.057881,0.014451567
C0D580,寶山,2020-03-20,24.735006,121.025192,0.013984532
C0D590,新豐,2020-03-20,24.87068,120.97721,0.038630106
C0D650,湖口,2020-03-20,24.904794,121.043628,0.052863035
C0D660,新竹市東區,2020-03-20,24.798681,120.986942,0.023288842
C0D670,海天一線,2020-03-20,24.831986,120.914438,0.03555307
C0D680,香山濕地,2020-03-20,24.783581,120.914988,0.032087896
C0D690,外湖,2020-03-20,24.917735,120.968711,0.1648547
C0D700,關西,2020-03-20,24.7977,121.1732,0.008327797
C0E420,竹南,2020-03-20,24.708978,120.888897,0.02346688
C0E430,南庄,2020-03-20,24.601775,121.000214,0.014040993
C0E520,大湖,2020-03-20,24.41494,120.87087,0.0116726495
C0E540,後龍,2020-03-20,24.606489,120.783933,0.017340813
C0E550,明德,2020-03-20,24.583486,120.885411,0.022511965
C0E590,通霄,2020-03-20,24.471892,120.704622,0.025605623
C0E730,頭份,2020-03-20,24.688247,120.912206,0.02346688
C0E740,造橋,2020-03-20,24.637056,120.864778,0.019090116
C0E750,苗栗,2020-03-20,24.564569,120.824575,0.011356274
C0E780,銅鑼,2020-03-20,24.489681,120.790853,0.035016898
C0E791,卓蘭,2020-03-20,24.3126,120.8244,0.033415604
C0E810,西湖,2020-03-20,24.562947,120.7485,0.01339835
C0E820,獅潭,2020-03-20,24.539133,120.920042,0.016393904
C0E830,苑裡,2020-03-20,24.439714,120.653053,0.055208586
C0E850,大河,2020-03-20,24.618069,120.948578,0.01907903
C0E870,高鐵苗栗,2020-03-20,24.60725,120.826094,0.015944427
C0E910,海埔,2020-03-20,24.648767,120.772435,0.049851514
C0E920,通霄漁港,2020-03-20,24.498589,120.673876,0.043114904
C0E930,龍鳳,2020-03-20,24.700034,120.859125,0.024636341
C0F0B0,石岡,2020-03-20,24.276061,120.777644,0.12196663
C0F850,東勢,2020-03-20,24.246428,120.833047,0.019379558
C0F930,大甲,2020-03-20,24.347667,120.640403,0.04218095
C0F970,大坑,2020-03-20,24.173142,120.722289,0.016687762
C0F9A0,中竹林,2020-03-20,24.103556,120.751061,0.036632016
C0F9I0,神岡,2020-03-20,24.272481,120.658314,0.029979892
C0F9K0,大安,2020-03-20,24.345061,120.588025,0.10590635
C0F9L0,后里,2020-03-20,24.310436,120.729725,0.015348953
C0F9M0,豐原,2020-03-20,24.254322,120.720692,0.021738043
C0F9N0,大里,2020-03-20,24.092464,120.701378,0.07458467
C0F9O0,潭子,2020-03-20,24.213106,120.703933,0.029039819
C0F9P0,清水,2020-03-20,24.312297,120.562242,0.12889616
C0F9Q0,外埔,2020-03-20,24.347817,120.705686,0.046152633
C0F9R0,龍井,2020-03-20,24.184536,120.528972,0.13681048
C0F9S0,烏日,2020-03-20,24.107058,120.624103,0.26074648
C0F9T0,西屯,2020-03-20,24.179494,120.641275,0.044289537
C0F9U0,南屯,2020-03-20,24.137006,120.637969,0.07458467
C0F9X0,大雅(中科園區),2020-03-20,24.21528,120.62445,0.020383513
C0FA10,松柏,2020-03-20,24.429115,120.617482,0.07610614
C0FA20,溫寮,2020-03-20,24.372177,120.583125,0.07610614
C0FA30,梧棲,2020-03-20,24.256003,120.523381,0.13681048
C0FA40,臺中電廠,2020-03-20,24.2146,120.4907,0.1368105
C0FA50,霧峰,2020-03-20,24.0419,120.6995,0.05565166
C0G620,芬園,2020-03-20,24.015678,120.6213,0.12314649
C0G640,鹿港,2020-03-20,24.0753,120.430481,0.34980646
C0G650,員林,2020-03-20,23.946503,120.585597,0.14578709
C0G660,溪湖,2020-03-20,23.94835,120.479122,0.19845721
C0G720,溪州,2020-03-20,23.851589,120.499093,0.18502851
C0G730,二林,2020-03-20,23.903325,120.376081,0.34055707
C0G740,大城,2020-03-20,23.852487,120.320935,0.35437596
C0G770,福興,2020-03-20,24.041289,120.437669,0.34980646
C0G780,秀水,2020-03-20,24.03405,120.503869,0.35815284
C0G800,埔鹽,2020-03-20,24.000394,120.431683,0.34980646
C0G810,埔心,2020-03-20,23.947633,120.525456,0.18478742
C0G820,田尾,2020-03-20,23.901669,120.509389,0.1726561
C0G830,埤頭,2020-03-20,23.866003,120.452806,0.20380087
C0G840,北斗,2020-03-20,23.877586,120.514222,0.1726561
C0G860,社頭,2020-03-20,23.897647,120.5862,0.13505849
C0G870,芳苑,2020-03-20,23.922303,120.320025,0.36511743
C0G880,二水,2020-03-20,23.810742,120.6173,0.10743496
C0G890,伸港,2020-03-20,24.148933,120.484403,0.18438406
C0G900,線西,2020-03-20,24.143358,120.443536,0.17987508
C0G910,花壇,2020-03-20,24.032076,120.549461,0.32657242
C0G920,永靖,2020-03-20,23.924703,120.547533,0.1726561
C0G940,竹塘,2020-03-20,23.848253,120.386764,0.23268606
C0G950,防潮門,2020-03-20,24.1835,120.4871,0.15136155
C0G960,福寶,2020-03-20,24.0443,120.3814,0.36494035
C0G970,三豐,2020-03-20,23.882,120.2895,0.36511743
C0H890,埔里,2020-03-20,23.972169,120.952425,0.100632176
C0H950,中寮,2020-03-20,23.884447,120.766406,0.034075297
C0H960,草屯,2020-03-20,23.973672,120.68085,0.10656468
C0I110,竹山,2020-03-20,23.761225,120.688156,0.049611803
C0I360,水里,2020-03-20,23.812553,120.849792,0.26948747
C0I380,集集,2020-03-20,23.828206,120.801467,0.31042224
C0I410,名間,2020-03-20,23.837053,120.701447,0.12686622
C0I420,國姓,2020-03-20,24.037803,120.855072,0.116717234
C0I460,南投,2020-03-20,23.911469,120.687331,0.08607357
C0K250,崙背,2020-03-20,23.75555,120.318925,0.2878978
C0K280,四湖,2020-03-20,23.630414,120.227125,0.3781569
C0K291,宜梧,2020-03-20,23.536281,120.169329,0.3485595
C0K330,虎尾,2020-03-20,23.719183,120.442036,0.2780076
C0K390,土庫,2020-03-20,23.679029,120.395574,0.2782491
C0K400,斗六,2020-03-20,23.720583,120.541127,0.22079282
C0K410,北港,2020-03-20,23.573957,120.292802,0.36785558
C0K420,西螺,2020-03-20,23.800407,120.467394,0.16374956
C0K430,褒忠,2020-03-20,23.690938,120.303634,0.3501059
C0K440,二崙,2020-03-20,23.772797,120.408944,0.22895885
C0K450,大埤,2020-03-20,23.646074,120.431537,0.32541412
C0K460,斗南,2020-03-20,23.678734,120.478359,0.23115288
C0K470,林內,2020-03-20,23.748675,120.609642,0.20615217
C0K480,莿桐,2020-03-20,23.761192,120.502372,0.15603693
C0K500,元長,2020-03-20,23.64981,120.315024,0.41630208
C0K510,水林,2020-03-20,23.572924,120.24597,0.39121354
C0K530,臺西,2020-03-20,23.701547,120.197559,0.34160393
C0K550,蔦松,2020-03-20,23.514319,120.229736,0.35203445
C0K560,棋山,2020-03-20,23.68645,120.603417,0.16456355
C0K580,高鐵雲林,2020-03-20,23.737456,120.417944,0.2782491
C0K590,雲林東勢,2020-03-20,23.674192,120.255721,0.3501059
C0K600,箔子寮,2020-03-20,23.6197,120.14,0.38811216
C0M410,馬頭山,2020-03-20,23.324361,120.582017,0.40876368
C0M520,東後寮,2020-03-20,23.369908,120.248065,0.8470187
C0M640,中埔,2020-03-20,23.42538,120.5229,0.16466503
C0M650,朴子,2020-03-20,23.43463,120.23902,0.34513795
C0M660,溪口,2020-03-20,23.604131,120.403569,0.38693753
C0M670,大林,2020-03-20,23.600616,120.45841,0.24500787
C0M680,太保,2020-03-20,23.455062,120.331455,0.38000688
C0M690,水上,2020-03-20,23.419734,120.388909,0.23721789
C0M700,竹崎,2020-03-20,23.526178,120.555508,0.15875126
C0M710,東石,2020-03-20,23.458927,120.15385,0.35203445
C0M720,番路,2020-03-20,23.464657,120.554156,0.1119964
C0M730,嘉義市東區,2020-03-20,23.457673,120.460531,0.21274601
C0M740,六腳,2020-03-20,23.492871,120.290625,0.3764934
C0M750,布袋,2020-03-20,23.380878,120.167789,0.34513795
C0M760,民雄,2020-03-20,23.551754,120.428457,0.36578718
C0M770,嘉義梅山,2020-03-20,23.585398,120.555587,0.13219766
C0M780,鹿草,2020-03-20,23.41134,120.30835,0.3696781
C0M790,新港,2020-03-20,23.553269,120.345728,0.3731436
C0M800,茶山,2020-03-20,23.299075,120.664767,0.34420088
C0M880,好美里,2020-03-20,23.3364,120.138,0.8987882
C0N010,鯤鯓國小,2020-03-20,23.1879,120.0889,0.34257174
C0N020,城西,2020-03-20,23.0568,120.0956,0.93530685
C0N030,四草,2020-03-20,23.0235,120.1116,0.9402207
C0N040,蘆竹溝,2020-03-20,23.2344,120.0961,0.34257174
C0N050,蚵寮,2020-03-20,23.301,120.1104,0.34257174
C0O810,曾文,2020-03-20,23.219681,120.497328,0.15565589
C0O830,北寮,2020-03-20,23.079561,120.495008,0.7284902
C0O840,王爺宮,2020-03-20,23.222064,120.40085,0.15565589
C0O860,大內,2020-03-20,23.11885,120.36083,0.8906026
C0O900,善化,2020-03-20,23.112883,120.297219,0.86653054
C0O930,玉井,2020-03-20,23.126042,120.46055,0.22762008
C0O950,安南,2020-03-20,23.076694,120.144861,0.5773249
C0O960,崎頂,2020-03-20,22.959547,120.369317,0.7646708
C0O970,虎頭埤,2020-03-20,23.021375,120.347878,0.8687726
C0O980,新市,2020-03-20,23.061614,120.298197,0.86653054
C0O990,媽廟,2020-03-20,22.99175,120.293525,0.84804076
C0R150,三地門,2020-03-20,22.709889,120.639944,0.27014217
C0R160,鹽埔,2020-03-20,22.739558,120.530778,0.2319009
C0R170,屏東,2020-03-20,22.660269,120.494072,0.6884564
C0R190,赤山,2020-03-20,22.592333,120.614306,0.20424178
C0R220,潮州,2020-03-20,22.534361,120.54,0.113768294
C0R240,來義,2020-03-20,22.527306,120.625111,0.055920325
C0R260,春日,2020-03-20,22.370361,120.628306,0.060673386
C0R270,琉球嶼,2020-03-20,22.332244,120.362236,0.060431704
C0R280,檳榔,2020-03-20,22.076078,120.836777,0.0008816116
C0R320,車城,2020-03-20,22.0744,120.716247,0.0044476194
C0R341,牡丹,2020-03-20,22.130036,120.792639,0.06631604
C0R350,貓鼻頭,2020-03-20,21.921774,120.7358,0.0033149202
C0R470,高樹,2020-03-20,22.826389,120.600806,0.34545842
C0R480,長治,2020-03-20,22.693128,120.542622,0.2392356
C0R490,九如,2020-03-20,22.7405,120.490503,0.69656765
C0R520,崁頂,2020-03-20,22.514781,120.506914,0.30060712
C0R540,佳冬,2020-03-20,22.419456,120.552375,0.29834002
C0R550,新埤,2020-03-20,22.467947,120.582894,0.20077445
C0R560,新園,2020-03-20,22.5434,120.461558,0.30060712
C0R570,麟洛,2020-03-20,22.65078,120.52719,0.69656765
C0R580,南州,2020-03-20,22.48591,120.50274,0.29834002
C0R590,里港,2020-03-20,22.77919,120.49459,0.34651852
C0R620,墾雷,2020-03-20,21.900836,120.855269,0.0033149202
C0R640,東港,2020-03-20,22.46247,120.44074,0.37760767
C0R650,竹田,2020-03-20,22.58486,120.54344,0.19950932
C0R660,枋寮,2020-03-20,22.367722,120.590647,0.11425532
C0R670,楓港,2020-03-20,22.190131,120.692156,0.07678324
C0R680,佳樂水,2020-03-20,21.993578,120.861633,0.0038540198
C0R690,墾丁,2020-03-20,21.966756,120.810269,0.00073491986
C0R700,枋山,2020-03-20,22.246844,120.661086,0.07678324
C0R710,龍磐,2020-03-20,21.931672,120.838942,0.0019256446
C0R720,旭海,2020-03-20,22.205403,120.887614,0.57906884
C0R730,大坪頂,2020-03-20,22.024633,120.69355,0.0017747215
C0R740,獅子,2020-03-20,22.201569,120.70525,0.0706645
C0R760,南仁湖,2020-03-20,22.084681,120.863353,0.00045084752
C0R770,保力,2020-03-20,22.071122,120.764111,0.002438362
C0R780,滿州,2020-03-20,22.024403,120.839892,0.0030869187
C0R790,九棚,2020-03-20,22.14195,120.889281,0.60043246
C0R800,丹路,2020-03-20,22.204481,120.750989,0.06427132
C0R810,內獅,2020-03-20,22.305064,120.642986,0.07088873
C0R830,高士,2020-03-20,22.121825,120.836781,0.00023809203
C0R850,林邊,2020-03-20,22.4634,120.5339,0.30060712
C0R860,鼻頭,2020-03-20,22.1043,120.8979,0.0035597885
C0R870,興海,2020-03-20,21.9752,120.8439,0.0038540198
C0R880,後壁湖,2020-03-20,21.9457,120.7457,0.0047432524
C0R890,山海,2020-03-20,21.9878,120.7091,0.0044476194
C0R900,竹坑,2020-03-20,22.1385,120.7022,0.06190157
C0R910,下寮,2020-03-20,22.3929,120.5548,0.29834002
C0R920,塭仔,2020-03-20,22.4169,120.5197,0.3006031
C0R930,萬丹,2020-03-20,22.5885,120.4851,0.19950932
C0R940,加祿堂,2020-03-20,22.3363,120.6217,0.07088873
C0S710,鹿野,2020-03-20,22.917711,121.122994,0.18054482
C0S730,綠島,2020-03-20,22.6672,121.47533,0.7141368
C0S740,池上,2020-03-20,23.119628,121.209469,0.3142112
C0S770,大溪山,2020-03-20,22.478475,120.943325,0.09881384
C0S790,金崙,2020-03-20,22.538122,120.966875,0.14722927
C0S810,東河,2020-03-20,22.972672,121.303986,0.529713
C0S830,長濱,2020-03-20,23.286817,121.411975,0.31860322
C0S840,南田,2020-03-20,22.279725,120.889208,0.29387784
C0S890,關山,2020-03-20,23.0395,121.175017,0.507255
C0S900,蘭嶼高中,2020-03-20,22.04909,121.51214,0.019217044
C0S910,蘭嶼燈塔,2020-03-20,22.081197,121.503117,0.012117756
C0S920,金峰嘉蘭,2020-03-20,22.594789,120.960825,0.40612733
C0S930,延平,2020-03-20,22.902581,121.084058,0.42747375
C0S940,石寧山,2020-03-20,23.223772,121.406639,0.45273444
C0S950,七塊厝,2020-03-20,22.954453,121.229922,0.14332114
C0S960,香蘭,2020-03-20,22.587569,120.993375,0.7537989
C0S970,加津林,2020-03-20,22.416211,120.926942,0.34145173
C0S990,山豬窟,2020-03-20,22.318619,120.857372,0.36094132
C0SA00,歷坵,2020-03-20,22.520969,120.89185,0.07168217
C0SA10,檳榔四格山,2020-03-20,22.810031,121.109308,0.07407248
C0SA30,都歷,2020-03-20,23.020333,121.323642,0.73775
C0SA40,瑞和,2020-03-20,22.974361,121.156697,0.5617149
C0SA60,知本（水試所）,2020-03-20,22.702394,121.082761,0.3363141
C0SA80,土坂,2020-03-20,22.453108,120.887572,0.27101335
C0SA90,達仁林場,2020-03-20,22.264347,120.823972,0.3628861
C0T870,鯉魚潭,2020-03-20,23.935639,121.508944,0.48773125
C0T900,西林,2020-03-20,23.8119,121.441458,0.45774636
C0T960,光復,2020-03-20,23.660694,121.424964,0.5756316
C0T9A0,月眉山,2020-03-20,23.809928,121.539828,0.26895416
C0T9D0,和中,2020-03-20,24.26676,121.74103,0.93777835
C0T9E0,大坑,2020-03-20,23.880628,121.581981,0.33506063
C0T9F0,水璉,2020-03-20,23.797131,121.542514,0.39266858
C0T9I0,豐濱,2020-03-20,23.583897,121.514806,0.603499
C0T9M0,靜浦,2020-03-20,23.455167,121.495028,0.63580894
C0T9N0,富里,2020-03-20,23.171639,121.249378,0.15813711
C0U600,礁溪,2020-03-20,24.817539,121.765608,0.08462887
C0U650,玉蘭,2020-03-20,24.675286,121.587061,0.53501683
C0U750,龜山島,2020-03-20,24.841667,121.953133,0.18746127
C0U760,東澳,2020-03-20,24.52196,121.83318,0.6537079
C0U770,南澳,2020-03-20,24.44935,121.81022,0.85079604
C0U780,五結,2020-03-20,24.68637,121.79794,0.1934139
C0U860,頭城,2020-03-20,24.85323,121.8308,0.09066026
C0U870,大礁溪,2020-03-20,24.791042,121.675047,0.046316497
C0U880,北關,2020-03-20,24.9072,121.8734,0.09026171
C0U890,三星,2020-03-20,24.66812,121.65302,0.03855115
C0U900,內城,2020-03-20,24.71813,121.68766,0.06616172
C0U910,冬山,2020-03-20,24.63373,121.7937,0.1934139
C0U940,羅東,2020-03-20,24.68184,121.74934,0.18143001
C0U970,大福,2020-03-20,24.80064,121.81389,0.09838142
C0U990,員山,2020-03-20,24.74435,121.72247,0.18143016
C0UA00,土場,2020-03-20,24.576533,121.495333,0.06072602
C0UA80,大溪漁港,2020-03-20,24.941801,121.902955,0.08411661
C0UA90,石城,2020-03-20,24.980444,121.951214,0.08275115
C0UB00,淡江大學蘭陽校園,2020-03-20,24.823239,121.730383,0.03854245
C0UB10,蘇澳,2020-03-20,24.5969,121.8571,0.867355
C0UB20,壯圍,2020-03-20,24.7359,121.8163,0.2102459
C0V250,甲仙,2020-03-20,23.080106,120.591758,0.57827735
C0V260,月眉,2020-03-20,22.971003,120.539853,0.73922175
C0V310,美濃,2020-03-20,22.898742,120.519153,0.7704976
C0V350,溪埔,2020-03-20,22.738578,120.446797,0.59975684
C0V360,內門,2020-03-20,22.975481,120.466769,0.73128724
C0V370,古亭坑,2020-03-20,22.893178,120.401947,0.80554634
C0V400,阿公店,2020-03-20,22.804194,120.355528,0.7040843
C0V440,鳳山,2020-03-20,22.646653,120.356122,0.38224155
C0V450,鳳森,2020-03-20,22.545064,120.392592,0.1388503
C0V490,新興,2020-03-20,22.627422,120.298803,0.37906387
C0V530,阿蓮,2020-03-20,22.883208,120.327508,0.81170356
C0V610,梓官,2020-03-20,22.760558,120.267211,0.44212785
C0V620,永安,2020-03-20,22.82315,120.236856,0.3981746
C0V630,茄萣,2020-03-20,22.906642,120.182608,0.6108294
C0V640,湖內,2020-03-20,22.887139,120.2445,0.61676985
C0V650,彌陀,2020-03-20,22.783806,120.246361,0.3981746
C0V660,岡山,2020-03-20,22.797078,120.294958,0.44212785
C0V680,仁武,2020-03-20,22.701083,120.347722,0.3204052
C0V690,鼓山,2020-03-20,22.623325,120.275575,0.37906387
C0V700,三民,2020-03-20,22.645017,120.311233,0.37906387
C0V710,苓雅,2020-03-20,22.622742,120.330669,0.37906387
C0V720,林園,2020-03-20,22.507747,120.394511,0.37906387
C0V730,大寮,2020-03-20,22.605614,120.395717,0.14098597
C0V740,旗山,2020-03-20,22.888614,120.483597,0.76496345
C0V750,路竹,2020-03-20,22.854997,120.259439,0.5850137
C0V760,橋頭,2020-03-20,22.757806,120.30575,0.44137445
C0V770,大社,2020-03-20,22.730306,120.346639,0.32040498
C0V790,萬山,2020-03-20,22.905944,120.688056,0.33366832
C0V800,六龜,2020-03-20,22.997889,120.633583,0.78279275
C0V810,左營,2020-03-20,22.67491,120.28491,0.32218602
C0V820,小林,2020-03-20,23.148408,120.63325,0.30639365
C0V840,鳳鼻頭,2020-03-20,22.5083,120.3591,0.37760767
C0V850,蚵仔寮,2020-03-20,22.7256,120.2527,0.32712758
C0V860,南寮,2020-03-20,22.7616,120.2339,0.39779854
C0V870,文安,2020-03-20,22.8025,120.2164,0.39779854
C0V880,興達,2020-03-20,22.8778,120.2127,0.6108294
C0V890,前鎮,2020-03-20,22.5718,120.3117,0.37760767
C0V900,汕尾,2020-03-20,22.4782,120.4151,0.60100836
C0X050,東河,2020-03-20,23.296598,120.385608,0.27740914
C0X060,下營,2020-03-20,23.22695,120.256261,0.8492853
C0X080,佳里,2020-03-20,23.173039,120.145086,0.8987882
C0X100,臺南市北區,2020-03-20,23.010394,120.194228,0.6236218
C0X110,臺南市南區,2020-03-20,22.961189,120.188378,0.6358386
C0X120,麻豆,2020-03-20,23.183289,120.248611,0.8942663
C0X130,官田,2020-03-20,23.193217,120.315422,0.8442193
C0X140,西港,2020-03-20,23.125608,120.203108,0.9163152
C0X150,安定,2020-03-20,23.102614,120.227839,0.6924054
C0X160,仁德,2020-03-20,22.968258,120.257689,0.84219015
C0X170,關廟,2020-03-20,22.963017,120.327797,0.8600506
C0X180,山上,2020-03-20,23.0757,120.363253,0.7273759
C0X190,安平,2020-03-20,22.993161,120.152181,0.6236218
C0X200,左鎮,2020-03-20,23.056758,120.408522,0.7387271
C0X210,白河,2020-03-20,23.347466,120.414427,0.27503726
C0X220,學甲,2020-03-20,23.230367,120.182187,0.8942663
C0X230,鹽水,2020-03-20,23.272621,120.247641,0.8675419
C0X240,關子嶺,2020-03-20,23.331169,120.508025,0.1345112
C0X250,新營,2020-03-20,23.310689,120.316681,0.82667136
C0X260,後壁,2020-03-20,23.366358,120.362326,0.7401871
C0X280,將軍,2020-03-20,23.214999,120.13577,0.8987881
C0X290,北門,2020-03-20,23.267772,120.125481,0.8987882
C0X300,鹿寮,2020-03-20,23.386047,120.477331,0.22228894
C0X310,七股,2020-03-20,23.147289,120.086253,0.46063343
C0X320,柳營,2020-03-20,23.253328,120.375253,0.27740914
C0Z020,明里,2020-03-20,23.208717,121.262342,0.3667696
C0Z061,玉里,2020-03-20,23.3215,121.339656,0.48123947
C0Z070,舞鶴,2020-03-20,23.46811,121.37407,0.60929674
C0Z080,富源,2020-03-20,23.587642,121.378225,0.6070691
C0Z100,東華,2020-03-20,23.89525,121.549833,0.5528468
C0Z150,吉安光華,2020-03-20,23.930925,121.595153,0.56094295
C0Z160,鳳林,2020-03-20,23.746114,121.453411,0.58589196
C0Z170,卓溪,2020-03-20,23.3443,121.3029,0.44976816
C0Z180,新城,2020-03-20,24.03946,121.60454,0.52016616
C0Z190,富世,2020-03-20,24.14743,121.6297,0.8328174
C0Z200,萬榮,2020-03-20,23.709219,121.420106,0.48773125
C0Z210,瑞穗,2020-03-20,23.5239,121.39021,0.61673886
C0Z230,和平,2020-03-20,24.30717,121.77007,0.93777835
C0Z270,蕃薯寮,2020-03-20,23.73835,121.540108,0.60772926
C0Z280,德武,2020-03-20,23.47426,121.41071,0.6418046
C0Z300,東里,2020-03-20,23.26853,121.30547,0.46419346
C0Z310,清水斷崖,2020-03-20,24.218294,121.689142,0.9265204
C0Z330,安通山,2020-03-20,23.290728,121.348528,0.21292979
