站號,站名,日期,lat,lon,BlastGRU-TW
466881,新北,2020-11-10,24.9593,121.52,0.034878682
466900,淡水,2020-11-10,25.164889,121.448906,0.016654128
466920,臺北,2020-11-10,25.037658,121.514853,0.038621332
467441,高雄,2020-11-10,22.7304,120.3125,0.96735066
467480,嘉義,2020-11-10,23.495925,120.432906,0.7459684
467490,臺中,2020-11-10,24.145736,120.684075,0.29949394
C0A540,四堵,2020-11-10,24.8926,121.745736,0.01734594
C0A550,泰平,2020-11-10,24.971197,121.823711,0.6850625
C0A560,福山,2020-11-10,24.776203,121.502811,0.75184125
C0A931,三和,2020-11-10,25.233153,121.595236,0.80032825
C0A940,金山,2020-11-10,25.223628,121.643967,0.008683551
C0A950,鼻頭角,2020-11-10,25.129036,121.923372,0.87401533
C0AD10,八里,2020-11-10,25.150211,121.403947,0.016654128
C0AD30,蘆洲,2020-11-10,25.086594,121.472331,0.027820364
C0AD40,土城,2020-11-10,24.973208,121.445169,0.0270435
C0AI10,屈尺,2020-11-10,24.92184,121.54475,0.02931027
C0AI20,白沙灣,2020-11-10,25.283128,121.519058,0.009894223
C0AI30,三重,2020-11-10,25.057328,121.500629,0.027820328
C0B010,七堵,2020-11-10,25.094819,121.71713,0.020306323
C0B020,基隆嶼,2020-11-10,25.19141,121.78391,0.024070736
