站號,站名,日期,lat,lon,BlastGRU-TW
466881,新北,2020-01-24,24.9593,121.52,0.00045133688
466900,淡水,2020-01-24,25.164889,121.448906,0.0004857961
466920,臺北,2020-01-24,25.037658,121.514853,0.0004702552
467441,高雄,2020-01-24,22.7304,120.3125,0.13243198
467480,嘉義,2020-01-24,23.495925,120.432906,0.0020101317
467490,臺中,2020-01-24,24.145736,120.684075,0.0008286206
C0A540,四堵,2020-01-24,24.8926,121.745736,0.0007041526
C0A550,泰平,2020-01-24,24.971197,121.823711,0.0003326189
C0A560,福山,2020-01-24,24.776203,121.502811,0.00029478536
C0A931,三和,2020-01-24,25.233153,121.595236,0.00034338218
C0A940,金山,2020-01-24,25.223628,121.643967,0.00043472665
C0A950,鼻頭角,2020-01-24,25.129036,121.923372,0.00167832
C0AD10,八里,2020-01-24,25.150211,121.403947,0.0004857961
C0AD30,蘆洲,2020-01-24,25.086594,121.472331,0.00044111078
C0AD40,土城,2020-01-24,24.973208,121.445169,0.00043349137
C0AI10,屈尺,2020-01-24,24.92184,121.54475,0.00042245857
C0AI20,白沙灣,2020-01-24,25.283128,121.519058,0.00045178735
C0AI30,三重,2020-01-24,25.057328,121.500629,0.00044111078
C0B010,七堵,2020-01-24,25.094819,121.71713,0.00057886064
C0B020,基隆嶼,2020-01-24,25.19141,121.78391,0.0006122459
