站號,站名,日期,lat,lon,BlastGRU-TW
12J990,口湖工作站,2020-12-09,23.589978,120.180394,0.27969012
12Q970,東港工作站,2020-12-09,22.479997,120.466058,0.048728067
12Q980,恆春工作站,2020-12-09,22.079678,120.714425,0.0034777615
466881,新北,2020-12-09,24.9593,121.52,0.1027812
466900,淡水,2020-12-09,25.164889,121.448906,0.11326833
466920,臺北,2020-12-09,25.037658,121.514853,0.10832482
466940,基隆,2020-12-09,25.133314,121.740475,0.13045818
466990,花蓮,2020-12-09,23.975128,121.613275,0.6119875
467050,新屋,2020-12-09,25.006744,121.047486,0.011233025
467080,宜蘭,2020-12-09,24.763975,121.756528,0.35730296
467270,田中,2020-12-09,23.873803,120.581286,0.7330803
467300,東吉島,2020-12-09,23.25695,119.667467,0.080258
467350,澎湖,2020-12-09,23.565503,119.563094,0.004073355
467410,臺南,2020-12-09,22.993239,120.204772,0.05838356
467420,永康,2020-12-09,23.038386,120.2367,0.05619329
467441,高雄,2020-12-09,22.7304,120.3125,0.075297065
467480,嘉義,2020-12-09,23.495925,120.432906,0.27972862
467490,臺中,2020-12-09,24.145736,120.684075,0.17034133
467540,大武,2020-12-09,22.355675,120.903789,0.045081064
467571,新竹,2020-12-09,24.827853,121.014219,0.0040288623
467590,恆春,2020-12-09,22.003897,120.746339,0.0031566399
467610,成功,2020-12-09,23.097486,121.373428,0.70826024
467620,蘭嶼,2020-12-09,22.036969,121.558339,0.011879494
467660,臺東,2020-12-09,22.752211,121.154586,0.30566877
467790,墾丁雷達站,2020-12-09,21.948235,120.808028,0.002898219
72AI40,桃改樹林分場,2020-12-09,24.944503,121.386972,0.08768993
72C440,桃園農改,2020-12-09,24.950944,121.030583,0.010632845
72D680,桃改新埔分場,2020-12-09,24.834444,121.066111,0.009042625
72G600,臺中農改,2020-12-09,24.003028,120.534389,0.7521121
72K220,南改斗南分場,2020-12-09,23.634556,120.477333,0.8190849
72M360,南改義竹分場,2020-12-09,23.360694,120.279361,0.602759
72M700,南改鹿草分場,2020-12-09,23.416869,120.283061,0.7139786
72N100,臺南農改,2020-12-09,23.0605,120.342194,0.15767857
72N240,七股研究中心,2020-12-09,23.081672,120.062894,0.055173963
72Q010,高雄農改,2020-12-09,22.709333,120.525889,0.012484073
72S200,東改班鳩分場,2020-12-09,22.829528,121.077694,0.22910765
72S590,東改賓朗果園,2020-12-09,22.813889,121.071278,0.20449589
72T250,花蓮農改,2020-12-09,23.975222,121.563889,0.5803666
72U480,花改蘭陽分場,2020-12-09,24.686306,121.716583,0.84430164
72V140,高改旗南分場,2020-12-09,22.857861,120.516667,0.01921593
82A750,茶改北部分場,2020-12-09,24.955778,121.631222,0.24377969
82C160,茶改場,2020-12-09,24.908472,121.185333,0.07950238
82H840,茶改南部分場,2020-12-09,23.762528,120.7405,0.588915
82S580,茶改東部分場,2020-12-09,22.907694,121.130139,0.3903618
A2C560,農工中心,2020-12-09,24.985917,121.239833,0.015026219
A2K360,水試臺西試驗場,2020-12-09,23.717231,120.190522,0.7200054
A2K570,古坑花卉中心,2020-12-09,23.63353,120.55239,0.83024365
A2K630,臺大雲林校區,2020-12-09,23.730628,120.423903,0.8106817
A2N290,臺南蘭花園區,2020-12-09,23.340258,120.379661,0.8065215
B2E890,畜試北區分所,2020-12-09,24.527806,120.770972,0.1032639
B2N890,畜試所,2020-12-09,23.058972,120.336406,0.15767826
B2Q810,畜試南區分所,2020-12-09,21.945583,120.802167,0.0032661064
B2U990,畜試東區分所,2020-12-09,24.669039,121.832561,0.85418266
C0A520,山佳,2020-12-09,24.974944,121.402008,0.08768993
C0A530,坪林,2020-12-09,24.938183,121.70975,0.20263253
C0A540,四堵,2020-12-09,24.8926,121.745736,0.08446117
C0A550,泰平,2020-12-09,24.971197,121.823711,0.2868215
C0A560,福山,2020-12-09,24.776203,121.502811,0.24377969
C0A570,桶後,2020-12-09,24.848222,121.597992,0.09189029
C0A640,石碇,2020-12-09,24.993969,121.662917,0.32876167
C0A650,火燒寮,2020-12-09,25.002719,121.742892,0.2792857
C0A660,瑞芳,2020-12-09,25.113169,121.801147,0.4267951
C0A770,科教館,2020-12-09,25.096356,121.516507,0.09673169
C0A860,大坪,2020-12-09,25.165914,121.632969,0.034588262
C0A880,福隆,2020-12-09,25.017842,121.942083,0.61313653
C0A890,雙溪,2020-12-09,25.036003,121.864242,0.1153614
C0A920,富貴角,2020-12-09,25.263783,121.565258,0.062143333
C0A931,三和,2020-12-09,25.233153,121.595236,0.33790714
C0A940,金山,2020-12-09,25.223628,121.643967,0.08767311
C0A950,鼻頭角,2020-12-09,25.129036,121.923372,0.6319955
C0A970,三貂角,2020-12-09,25.007606,122.002058,0.46556205
C0A980,社子,2020-12-09,25.109508,121.469681,0.09973984
C0A9C0,天母,2020-12-09,25.117494,121.537169,0.09069854
C0A9F0,內湖,2020-12-09,25.079422,121.57545,0.10832482
C0AC60,三峽,2020-12-09,24.939025,121.369728,0.10028846
C0AC70,信義,2020-12-09,25.037822,121.564597,0.10832482
C0AC80,文山,2020-12-09,25.00235,121.575728,0.09418187
C0ACA0,新莊,2020-12-09,25.051478,121.446756,0.115406476
C0AD00,三芝,2020-12-09,25.258131,121.501917,0.07047255
C0AD10,八里,2020-12-09,25.150211,121.403947,0.1132684
C0AD30,蘆洲,2020-12-09,25.086594,121.472331,0.09673169
C0AD40,土城,2020-12-09,24.973208,121.445169,0.09388192
C0AD50,鶯歌,2020-12-09,24.951533,121.346294,0.08995065
C0AG80,中和,2020-12-09,24.991622,121.491792,0.10832482
C0AH00,汐止,2020-12-09,25.066881,121.658778,0.12723207
C0AH10,永和,2020-12-09,25.01125,121.508111,0.11136446
C0AH40,平等,2020-12-09,25.129142,121.577086,0.055753525
C0AH50,林口,2020-12-09,25.072181,121.38084,0.073248684
C0AH70,松山,2020-12-09,25.04871,121.55042,0.10832482
C0AH80,深坑,2020-12-09,25.002703,121.628328,0.09418187
C0AI00,五股,2020-12-09,25.07445,121.42728,0.06570828
C0AI10,屈尺,2020-12-09,24.92184,121.54475,0.09418187
C0AI20,白沙灣,2020-12-09,25.283128,121.519058,0.09598522
C0AI30,三重,2020-12-09,25.057328,121.500629,0.09673169
C0AI40,石牌,2020-12-09,25.115597,121.513139,0.09388192
C0AJ20,野柳,2020-12-09,25.20703,121.690021,0.12723207
C0AJ30,淡水觀海,2020-12-09,25.184591,121.408616,0.1185587
C0AJ40,石門,2020-12-09,25.273672,121.601198,0.035940144
C0AJ50,水湳洞,2020-12-09,25.123695,121.862238,0.12723207
C0AJ60,六塊厝,2020-12-09,25.24,121.4481,0.1185587
C0AJ70,田寮,2020-12-09,25.2698,121.4886,0.10049135
C0AJ80,板橋,2020-12-09,25.0107,121.4489,0.09388192
C0AJ90,澳底,2020-12-09,25.0552,121.9253,0.61313653
C0B010,七堵,2020-12-09,25.094819,121.71713,0.1212705
C0B020,基隆嶼,2020-12-09,25.19141,121.78391,0.12723207
C0B040,大武崙,2020-12-09,25.166676,121.706993,0.1212705
C0B050,八斗子,2020-12-09,25.144754,121.79167,0.13349912
C0B060,暖暖,2020-12-09,25.0957,121.7403,0.10639454
C0C460,復興,2020-12-09,24.820208,121.352281,0.055893276
C0C480,桃園,2020-12-09,24.992425,121.323172,0.038578123
C0C490,八德,2020-12-09,24.928708,121.283289,0.16981159
C0C590,觀音,2020-12-09,25.027072,121.153317,0.09717559
C0C620,蘆竹,2020-12-09,25.084275,121.265767,0.101150624
C0C630,大溪,2020-12-09,24.882853,121.265547,0.19182692
C0C650,平鎮,2020-12-09,24.897503,121.214636,0.079502404
C0C660,楊梅,2020-12-09,24.912375,121.143047,0.02068299
C0C670,龍潭,2020-12-09,24.870056,121.221389,0.052203458
C0C680,龜山,2020-12-09,25.02846,121.38656,0.07919457
C0C700,中壢,2020-12-09,24.977661,121.256375,0.04432115
C0C710,大溪永福,2020-12-09,24.892936,121.324975,0.016534649
C0C720,竹圍,2020-12-09,25.112692,121.239824,0.11326833
C0C730,中大臨海站,2020-12-09,24.966126,121.008581,0.012475193
C0C740,觀音工業區,2020-12-09,25.064764,121.114856,0.007905004
C0C750,新興坑尾,2020-12-09,25.0061,121.0971,0.009412906
C0D430,峨眉,2020-12-09,24.6905,121.017189,0.0036806415
C0D480,打鐵坑,2020-12-09,24.849664,121.150789,0.06674257
C0D540,橫山,2020-12-09,24.71116,121.11693,0.023563756
C0D560,竹東,2020-12-09,24.767147,121.057881,0.012089851
C0D580,寶山,2020-12-09,24.735006,121.025192,0.019696483
C0D590,新豐,2020-12-09,24.87068,120.97721,0.015266634
C0D650,湖口,2020-12-09,24.904794,121.043628,0.010067489
C0D660,新竹市東區,2020-12-09,24.798681,120.986942,0.004026257
C0D670,海天一線,2020-12-09,24.831986,120.914438,0.0022630459
C0D680,香山濕地,2020-12-09,24.783581,120.914988,0.0022259464
C0D690,外湖,2020-12-09,24.917735,120.968711,0.012475193
C0D700,關西,2020-12-09,24.7977,121.1732,0.06819025
C0E420,竹南,2020-12-09,24.708978,120.888897,0.0020970989
C0E430,南庄,2020-12-09,24.601775,121.000214,0.0066858395
C0E520,大湖,2020-12-09,24.41494,120.87087,0.013788205
C0E540,後龍,2020-12-09,24.606489,120.783933,0.07195557
C0E550,明德,2020-12-09,24.583486,120.885411,0.20120023
C0E590,通霄,2020-12-09,24.471892,120.704622,0.13695024
C0E730,頭份,2020-12-09,24.688247,120.912206,0.0020970989
C0E740,造橋,2020-12-09,24.637056,120.864778,0.19746034
C0E750,苗栗,2020-12-09,24.564569,120.824575,0.047346447
C0E780,銅鑼,2020-12-09,24.489681,120.790853,0.18007877
C0E791,卓蘭,2020-12-09,24.3126,120.8244,0.49581376
C0E810,西湖,2020-12-09,24.562947,120.7485,0.056185715
C0E820,獅潭,2020-12-09,24.539133,120.920042,0.14878057
C0E830,苑裡,2020-12-09,24.439714,120.653053,0.27448943
C0E850,大河,2020-12-09,24.618069,120.948578,0.17976125
C0E870,高鐵苗栗,2020-12-09,24.60725,120.826094,0.06610982
C0E910,海埔,2020-12-09,24.648767,120.772435,0.19265655
C0E920,通霄漁港,2020-12-09,24.498589,120.673876,0.19717021
C0E930,龍鳳,2020-12-09,24.700034,120.859125,0.20093071
C0F0B0,石岡,2020-12-09,24.276061,120.777644,0.6263558
C0F850,東勢,2020-12-09,24.246428,120.833047,0.3749191
C0F930,大甲,2020-12-09,24.347667,120.640403,0.229518
C0F970,大坑,2020-12-09,24.173142,120.722289,0.111207925
C0F9A0,中竹林,2020-12-09,24.103556,120.751061,0.52340734
C0F9I0,神岡,2020-12-09,24.272481,120.658314,0.33626086
C0F9K0,大安,2020-12-09,24.345061,120.588025,0.39643714
C0F9L0,后里,2020-12-09,24.310436,120.729725,0.28817028
C0F9M0,豐原,2020-12-09,24.254322,120.720692,0.32351774
C0F9N0,大里,2020-12-09,24.092464,120.701378,0.5089427
C0F9O0,潭子,2020-12-09,24.213106,120.703933,0.29455557
C0F9P0,清水,2020-12-09,24.312297,120.562242,0.44034678
C0F9Q0,外埔,2020-12-09,24.347817,120.705686,0.32389617
C0F9R0,龍井,2020-12-09,24.184536,120.528972,0.5069017
C0F9S0,烏日,2020-12-09,24.107058,120.624103,0.7573704
C0F9T0,西屯,2020-12-09,24.179494,120.641275,0.31798705
C0F9U0,南屯,2020-12-09,24.137006,120.637969,0.5089427
C0F9X0,大雅(中科園區),2020-12-09,24.21528,120.62445,0.18024552
C0FA10,松柏,2020-12-09,24.429115,120.617482,0.33055755
C0FA20,溫寮,2020-12-09,24.372177,120.583125,0.33055755
C0FA30,梧棲,2020-12-09,24.256003,120.523381,0.5069014
C0FA40,臺中電廠,2020-12-09,24.2146,120.4907,0.5069017
C0FA50,霧峰,2020-12-09,24.0419,120.6995,0.25370854
C0G620,芬園,2020-12-09,24.015678,120.6213,0.7571923
C0G640,鹿港,2020-12-09,24.0753,120.430481,0.77129567
C0G650,員林,2020-12-09,23.946503,120.585597,0.6164641
C0G660,溪湖,2020-12-09,23.94835,120.479122,0.7669157
C0G720,溪州,2020-12-09,23.851589,120.499093,0.6371202
C0G730,二林,2020-12-09,23.903325,120.376081,0.795711
C0G740,大城,2020-12-09,23.852487,120.320935,0.6993016
C0G770,福興,2020-12-09,24.041289,120.437669,0.77129567
C0G780,秀水,2020-12-09,24.03405,120.503869,0.73513
C0G800,埔鹽,2020-12-09,24.000394,120.431683,0.77129567
C0G810,埔心,2020-12-09,23.947633,120.525456,0.7560185
C0G820,田尾,2020-12-09,23.901669,120.509389,0.74411035
C0G830,埤頭,2020-12-09,23.866003,120.452806,0.57835
C0G840,北斗,2020-12-09,23.877586,120.514222,0.74411035
C0G860,社頭,2020-12-09,23.897647,120.5862,0.59917885
C0G870,芳苑,2020-12-09,23.922303,120.320025,0.6934535
C0G880,二水,2020-12-09,23.810742,120.6173,0.797269
C0G890,伸港,2020-12-09,24.148933,120.484403,0.57872945
C0G900,線西,2020-12-09,24.143358,120.443536,0.50352955
C0G910,花壇,2020-12-09,24.032076,120.549461,0.7653788
C0G920,永靖,2020-12-09,23.924703,120.547533,0.74411035
C0G940,竹塘,2020-12-09,23.848253,120.386764,0.6867001
C0G950,防潮門,2020-12-09,24.1835,120.4871,0.52317405
C0G960,福寶,2020-12-09,24.0443,120.3814,0.759331
C0G970,三豐,2020-12-09,23.882,120.2895,0.69762087
C0H890,埔里,2020-12-09,23.972169,120.952425,0.52832687
C0H950,中寮,2020-12-09,23.884447,120.766406,0.7148643
C0H960,草屯,2020-12-09,23.973672,120.68085,0.7769827
C0I110,竹山,2020-12-09,23.761225,120.688156,0.7409086
C0I360,水里,2020-12-09,23.812553,120.849792,0.49633557
C0I380,集集,2020-12-09,23.828206,120.801467,0.5255375
C0I410,名間,2020-12-09,23.837053,120.701447,0.7644389
C0I420,國姓,2020-12-09,24.037803,120.855072,0.5643206
C0I460,南投,2020-12-09,23.911469,120.687331,0.7474706
C0K250,崙背,2020-12-09,23.75555,120.318925,0.71744794
C0K280,四湖,2020-12-09,23.630414,120.227125,0.71098644
C0K291,宜梧,2020-12-09,23.536281,120.169329,0.39241925
C0K330,虎尾,2020-12-09,23.719183,120.442036,0.8192481
C0K390,土庫,2020-12-09,23.679029,120.395574,0.8106818
C0K400,斗六,2020-12-09,23.720583,120.541127,0.8290646
C0K410,北港,2020-12-09,23.573957,120.292802,0.5713309
C0K420,西螺,2020-12-09,23.800407,120.467394,0.82013947
C0K430,褒忠,2020-12-09,23.690938,120.303634,0.7294178
C0K440,二崙,2020-12-09,23.772797,120.408944,0.71393263
C0K450,大埤,2020-12-09,23.646074,120.431537,0.8357183
C0K460,斗南,2020-12-09,23.678734,120.478359,0.8244638
C0K470,林內,2020-12-09,23.748675,120.609642,0.8322772
C0K480,莿桐,2020-12-09,23.761192,120.502372,0.82267094
C0K500,元長,2020-12-09,23.64981,120.315024,0.6727315
C0K510,水林,2020-12-09,23.572924,120.24597,0.3048509
C0K530,臺西,2020-12-09,23.701547,120.197559,0.7220429
C0K550,蔦松,2020-12-09,23.514319,120.229736,0.42274427
C0K560,棋山,2020-12-09,23.68645,120.603417,0.8247705
C0K580,高鐵雲林,2020-12-09,23.737456,120.417944,0.8106818
C0K590,雲林東勢,2020-12-09,23.674192,120.255721,0.7294178
C0K600,箔子寮,2020-12-09,23.6197,120.14,0.27969012
C0M410,馬頭山,2020-12-09,23.324361,120.582017,0.43363202
C0M520,東後寮,2020-12-09,23.369908,120.248065,0.21958904
C0M640,中埔,2020-12-09,23.42538,120.5229,0.7912855
C0M650,朴子,2020-12-09,23.43463,120.23902,0.39219534
C0M660,溪口,2020-12-09,23.604131,120.403569,0.38365063
C0M670,大林,2020-12-09,23.600616,120.45841,0.29477122
C0M680,太保,2020-12-09,23.455062,120.331455,0.71911097
C0M690,水上,2020-12-09,23.419734,120.388909,0.27004647
C0M700,竹崎,2020-12-09,23.526178,120.555508,0.7983493
C0M710,東石,2020-12-09,23.458927,120.15385,0.42274427
C0M720,番路,2020-12-09,23.464657,120.554156,0.71720713
C0M730,嘉義市東區,2020-12-09,23.457673,120.460531,0.25858125
C0M740,六腳,2020-12-09,23.492871,120.290625,0.6983319
C0M750,布袋,2020-12-09,23.380878,120.167789,0.39219534
C0M760,民雄,2020-12-09,23.551754,120.428457,0.35509938
C0M770,嘉義梅山,2020-12-09,23.585398,120.555587,0.82867444
C0M780,鹿草,2020-12-09,23.41134,120.30835,0.73172235
C0M790,新港,2020-12-09,23.553269,120.345728,0.5980662
C0M800,茶山,2020-12-09,23.299075,120.664767,0.47356305
C0M880,好美里,2020-12-09,23.3364,120.138,0.06990914
C0N010,鯤鯓國小,2020-12-09,23.1879,120.0889,0.14296386
C0N020,城西,2020-12-09,23.0568,120.0956,0.057415206
C0N030,四草,2020-12-09,23.0235,120.1116,0.1120833
C0N040,蘆竹溝,2020-12-09,23.2344,120.0961,0.14296386
C0N050,蚵寮,2020-12-09,23.301,120.1104,0.14296386
C0O810,曾文,2020-12-09,23.219681,120.497328,0.65376407
C0O830,北寮,2020-12-09,23.079561,120.495008,0.079880595
C0O840,王爺宮,2020-12-09,23.222064,120.40085,0.65376407
C0O860,大內,2020-12-09,23.11885,120.36083,0.77775794
C0O900,善化,2020-12-09,23.112883,120.297219,0.1204862
C0O930,玉井,2020-12-09,23.126042,120.46055,0.7979765
C0O950,安南,2020-12-09,23.076694,120.144861,0.031931203
C0O960,崎頂,2020-12-09,22.959547,120.369317,0.039519817
C0O970,虎頭埤,2020-12-09,23.021375,120.347878,0.5057123
C0O980,新市,2020-12-09,23.061614,120.298197,0.1204862
C0O990,媽廟,2020-12-09,22.99175,120.293525,0.1598345
C0R150,三地門,2020-12-09,22.709889,120.639944,0.011641089
C0R160,鹽埔,2020-12-09,22.739558,120.530778,0.012484066
C0R170,屏東,2020-12-09,22.660269,120.494072,0.55459243
C0R190,赤山,2020-12-09,22.592333,120.614306,0.011755236
C0R220,潮州,2020-12-09,22.534361,120.54,0.00922143
C0R240,來義,2020-12-09,22.527306,120.625111,0.013461239
C0R260,春日,2020-12-09,22.370361,120.628306,0.015067908
C0R270,琉球嶼,2020-12-09,22.332244,120.362236,0.014676937
C0R280,檳榔,2020-12-09,22.076078,120.836777,0.0018878399
C0R320,車城,2020-12-09,22.0744,120.716247,0.0034777615
C0R341,牡丹,2020-12-09,22.130036,120.792639,0.013715197
C0R350,貓鼻頭,2020-12-09,21.921774,120.7358,0.0030743042
C0R470,高樹,2020-12-09,22.826389,120.600806,0.010690323
C0R480,長治,2020-12-09,22.693128,120.542622,0.012895236
C0R490,九如,2020-12-09,22.7405,120.490503,0.59086585
C0R520,崁頂,2020-12-09,22.514781,120.506914,0.052292205
C0R540,佳冬,2020-12-09,22.419456,120.552375,0.048728067
C0R550,新埤,2020-12-09,22.467947,120.582894,0.011529616
C0R560,新園,2020-12-09,22.5434,120.461558,0.052292205
C0R570,麟洛,2020-12-09,22.65078,120.52719,0.59086585
C0R580,南州,2020-12-09,22.48591,120.50274,0.048728067
C0R590,里港,2020-12-09,22.77919,120.49459,0.01416042
C0R620,墾雷,2020-12-09,21.900836,120.855269,0.0030743042
C0R640,東港,2020-12-09,22.46247,120.44074,0.09932332
C0R650,竹田,2020-12-09,22.58486,120.54344,0.011366793
C0R660,枋寮,2020-12-09,22.367722,120.590647,0.009475401
C0R670,楓港,2020-12-09,22.190131,120.692156,0.025549509
C0R680,佳樂水,2020-12-09,21.993578,120.861633,0.0032661064
C0R690,墾丁,2020-12-09,21.966756,120.810269,0.0017550555
C0R700,枋山,2020-12-09,22.246844,120.661086,0.025549509
C0R710,龍磐,2020-12-09,21.931672,120.838942,0.0023166595
C0R720,旭海,2020-12-09,22.205403,120.887614,0.039891873
C0R730,大坪頂,2020-12-09,22.024633,120.69355,0.0026062252
C0R740,獅子,2020-12-09,22.201569,120.70525,0.02321498
C0R760,南仁湖,2020-12-09,22.084681,120.863353,0.0011538743
C0R770,保力,2020-12-09,22.071122,120.764111,0.0026441931
C0R780,滿州,2020-12-09,22.024403,120.839892,0.002973121
C0R790,九棚,2020-12-09,22.14195,120.889281,0.036957216
C0R800,丹路,2020-12-09,22.204481,120.750989,0.018126078
C0R810,內獅,2020-12-09,22.305064,120.642986,0.01773104
C0R830,高士,2020-12-09,22.121825,120.836781,0.0007724602
C0R850,林邊,2020-12-09,22.4634,120.5339,0.052292205
C0R860,鼻頭,2020-12-09,22.1043,120.8979,0.047784384
C0R870,興海,2020-12-09,21.9752,120.8439,0.0032661064
C0R880,後壁湖,2020-12-09,21.9457,120.7457,0.0035806443
C0R890,山海,2020-12-09,21.9878,120.7091,0.0034777615
C0R900,竹坑,2020-12-09,22.1385,120.7022,0.02337066
C0R910,下寮,2020-12-09,22.3929,120.5548,0.048728067
C0R920,塭仔,2020-12-09,22.4169,120.5197,0.04715935
C0R930,萬丹,2020-12-09,22.5885,120.4851,0.011366793
C0R940,加祿堂,2020-12-09,22.3363,120.6217,0.01773104
C0S710,鹿野,2020-12-09,22.917711,121.122994,0.26481104
C0S730,綠島,2020-12-09,22.6672,121.47533,0.59652865
C0S740,池上,2020-12-09,23.119628,121.209469,0.34247583
C0S770,大溪山,2020-12-09,22.478475,120.943325,0.21888907
C0S790,金崙,2020-12-09,22.538122,120.966875,0.29244485
C0S810,東河,2020-12-09,22.972672,121.303986,0.45899305
C0S830,長濱,2020-12-09,23.286817,121.411975,0.28491226
C0S840,南田,2020-12-09,22.279725,120.889208,0.03954792
C0S890,關山,2020-12-09,23.0395,121.175017,0.42882866
C0S900,蘭嶼高中,2020-12-09,22.04909,121.51214,0.11295782
C0S910,蘭嶼燈塔,2020-12-09,22.081197,121.503117,0.07960264
C0S920,金峰嘉蘭,2020-12-09,22.594789,120.960825,0.20294394
C0S930,延平,2020-12-09,22.902581,121.084058,0.35990572
C0S940,石寧山,2020-12-09,23.223772,121.406639,0.38340822
C0S950,七塊厝,2020-12-09,22.954453,121.229922,0.23333773
C0S960,香蘭,2020-12-09,22.587569,120.993375,0.13740842
C0S970,加津林,2020-12-09,22.416211,120.926942,0.043757617
C0S990,山豬窟,2020-12-09,22.318619,120.857372,0.081166625
C0SA00,歷坵,2020-12-09,22.520969,120.89185,0.1920337
C0SA10,檳榔四格山,2020-12-09,22.810031,121.109308,0.14490648
C0SA30,都歷,2020-12-09,23.020333,121.323642,0.63784236
C0SA40,瑞和,2020-12-09,22.974361,121.156697,0.4546987
C0SA60,知本（水試所）,2020-12-09,22.702394,121.082761,0.28308547
C0SA80,土坂,2020-12-09,22.453108,120.887572,0.247818
C0SA90,達仁林場,2020-12-09,22.264347,120.823972,0.005986345
C0T870,鯉魚潭,2020-12-09,23.935639,121.508944,0.4741757
C0T900,西林,2020-12-09,23.8119,121.441458,0.45248458
C0T960,光復,2020-12-09,23.660694,121.424964,0.67262524
C0T9A0,月眉山,2020-12-09,23.809928,121.539828,0.45529127
C0T9D0,和中,2020-12-09,24.26676,121.74103,0.084233046
C0T9E0,大坑,2020-12-09,23.880628,121.581981,0.47411746
C0T9F0,水璉,2020-12-09,23.797131,121.542514,0.46354592
C0T9I0,豐濱,2020-12-09,23.583897,121.514806,0.75433344
C0T9M0,靜浦,2020-12-09,23.455167,121.495028,0.8168537
C0T9N0,富里,2020-12-09,23.171639,121.249378,0.19682547
C0U600,礁溪,2020-12-09,24.817539,121.765608,0.35318175
C0U650,玉蘭,2020-12-09,24.675286,121.587061,0.097148165
C0U750,龜山島,2020-12-09,24.841667,121.953133,0.44704467
C0U760,東澳,2020-12-09,24.52196,121.83318,0.31882277
C0U770,南澳,2020-12-09,24.44935,121.81022,0.22534947
C0U780,五結,2020-12-09,24.68637,121.79794,0.85418266
C0U860,頭城,2020-12-09,24.85323,121.8308,0.35730296
C0U870,大礁溪,2020-12-09,24.791042,121.675047,0.2168838
C0U880,北關,2020-12-09,24.9072,121.8734,0.121856384
C0U890,三星,2020-12-09,24.66812,121.65302,0.3068013
C0U900,內城,2020-12-09,24.71813,121.68766,0.34041137
C0U910,冬山,2020-12-09,24.63373,121.7937,0.8541828
C0U940,羅東,2020-12-09,24.68184,121.74934,0.85029453
C0U970,大福,2020-12-09,24.80064,121.81389,0.36180276
C0U990,員山,2020-12-09,24.74435,121.72247,0.8502944
C0UA00,土場,2020-12-09,24.576533,121.495333,0.23321465
C0UA80,大溪漁港,2020-12-09,24.941801,121.902955,0.35318175
C0UA90,石城,2020-12-09,24.980444,121.951214,0.627664
C0UB00,淡江大學蘭陽校園,2020-12-09,24.823239,121.730383,0.21602884
C0UB10,蘇澳,2020-12-09,24.5969,121.8571,0.10781083
C0UB20,壯圍,2020-12-09,24.7359,121.8163,0.8586118
C0V250,甲仙,2020-12-09,23.080106,120.591758,0.60665625
C0V260,月眉,2020-12-09,22.971003,120.539853,0.062495906
C0V310,美濃,2020-12-09,22.898742,120.519153,0.83848673
C0V350,溪埔,2020-12-09,22.738578,120.446797,0.29238474
C0V360,內門,2020-12-09,22.975481,120.466769,0.80689406
C0V370,古亭坑,2020-12-09,22.893178,120.401947,0.8561713
C0V400,阿公店,2020-12-09,22.804194,120.355528,0.41207677
C0V440,鳳山,2020-12-09,22.646653,120.356122,0.13161378
C0V450,鳳森,2020-12-09,22.545064,120.392592,0.011113042
C0V490,新興,2020-12-09,22.627422,120.298803,0.10841174
C0V530,阿蓮,2020-12-09,22.883208,120.327508,0.14682971
C0V610,梓官,2020-12-09,22.760558,120.267211,0.07534818
C0V620,永安,2020-12-09,22.82315,120.236856,0.039629813
C0V630,茄萣,2020-12-09,22.906642,120.182608,0.054798644
C0V640,湖內,2020-12-09,22.887139,120.2445,0.05659238
C0V650,彌陀,2020-12-09,22.783806,120.246361,0.039629813
C0V660,岡山,2020-12-09,22.797078,120.294958,0.07534818
C0V680,仁武,2020-12-09,22.701083,120.347722,0.08026654
C0V690,鼓山,2020-12-09,22.623325,120.275575,0.10841174
C0V700,三民,2020-12-09,22.645017,120.311233,0.10841174
C0V710,苓雅,2020-12-09,22.622742,120.330669,0.10841174
C0V720,林園,2020-12-09,22.507747,120.394511,0.10841174
C0V730,大寮,2020-12-09,22.605614,120.395717,0.01088031
C0V740,旗山,2020-12-09,22.888614,120.483597,0.83627135
C0V750,路竹,2020-12-09,22.854997,120.259439,0.089187376
C0V760,橋頭,2020-12-09,22.757806,120.30575,0.07983349
C0V770,大社,2020-12-09,22.730306,120.346639,0.08026654
C0V790,萬山,2020-12-09,22.905944,120.688056,0.49435297
C0V800,六龜,2020-12-09,22.997889,120.633583,0.061776984
C0V810,左營,2020-12-09,22.67491,120.28491,0.075297184
C0V820,小林,2020-12-09,23.148408,120.63325,0.41631728
C0V840,鳳鼻頭,2020-12-09,22.5083,120.3591,0.09932332
C0V850,蚵仔寮,2020-12-09,22.7256,120.2527,0.071079634
C0V860,南寮,2020-12-09,22.7616,120.2339,0.038577344
C0V870,文安,2020-12-09,22.8025,120.2164,0.038577344
C0V880,興達,2020-12-09,22.8778,120.2127,0.054798644
C0V890,前鎮,2020-12-09,22.5718,120.3117,0.09932332
C0V900,汕尾,2020-12-09,22.4782,120.4151,0.28795484
C0X050,東河,2020-12-09,23.296598,120.385608,0.8065215
C0X060,下營,2020-12-09,23.22695,120.256261,0.22418797
C0X080,佳里,2020-12-09,23.173039,120.145086,0.06990914
C0X100,臺南市北區,2020-12-09,23.010394,120.194228,0.053906776
C0X110,臺南市南區,2020-12-09,22.961189,120.188378,0.05619329
C0X120,麻豆,2020-12-09,23.183289,120.248611,0.074281655
C0X130,官田,2020-12-09,23.193217,120.315422,0.26783475
C0X140,西港,2020-12-09,23.125608,120.203108,0.07541801
C0X150,安定,2020-12-09,23.102614,120.227839,0.038834937
C0X160,仁德,2020-12-09,22.968258,120.257689,0.14592765
C0X170,關廟,2020-12-09,22.963017,120.327797,0.20831534
C0X180,山上,2020-12-09,23.0757,120.363253,0.85365665
C0X190,安平,2020-12-09,22.993161,120.152181,0.053906776
C0X200,左鎮,2020-12-09,23.056758,120.408522,0.8527834
C0X210,白河,2020-12-09,23.347466,120.414427,0.7999911
C0X220,學甲,2020-12-09,23.230367,120.182187,0.074281655
C0X230,鹽水,2020-12-09,23.272621,120.247641,0.12646934
C0X240,關子嶺,2020-12-09,23.331169,120.508025,0.25781927
C0X250,新營,2020-12-09,23.310689,120.316681,0.4177979
C0X260,後壁,2020-12-09,23.366358,120.362326,0.8347636
C0X280,將軍,2020-12-09,23.214999,120.13577,0.06990914
C0X290,北門,2020-12-09,23.267772,120.125481,0.06990914
C0X300,鹿寮,2020-12-09,23.386047,120.477331,0.8604061
C0X310,七股,2020-12-09,23.147289,120.086253,0.11205312
C0X320,柳營,2020-12-09,23.253328,120.375253,0.8065215
C0Z020,明里,2020-12-09,23.208717,121.262342,0.312575
C0Z061,玉里,2020-12-09,23.3215,121.339656,0.39998746
C0Z070,舞鶴,2020-12-09,23.46811,121.37407,0.6479732
C0Z080,富源,2020-12-09,23.587642,121.378225,0.62610424
C0Z100,東華,2020-12-09,23.89525,121.549833,0.61531126
C0Z150,吉安光華,2020-12-09,23.930925,121.595153,0.6490531
C0Z160,鳳林,2020-12-09,23.746114,121.453411,0.6944861
C0Z170,卓溪,2020-12-09,23.3443,121.3029,0.38066214
C0Z180,新城,2020-12-09,24.03946,121.60454,0.59111667
C0Z190,富世,2020-12-09,24.14743,121.6297,0.2519433
C0Z200,萬榮,2020-12-09,23.709219,121.420106,0.4741757
C0Z210,瑞穗,2020-12-09,23.5239,121.39021,0.78052384
C0Z230,和平,2020-12-09,24.30717,121.77007,0.084233046
C0Z270,蕃薯寮,2020-12-09,23.73835,121.540108,0.71040916
C0Z280,德武,2020-12-09,23.47426,121.41071,0.72496724
C0Z300,東里,2020-12-09,23.26853,121.30547,0.39059836
C0Z310,清水斷崖,2020-12-09,24.218294,121.689142,0.19197665
C0Z330,安通山,2020-12-09,23.290728,121.348528,0.28063577
CAG100,王功漁港,2020-12-09,23.96824,120.32586,0.55157286
CAJ050,海口故事園區,2020-12-09,23.57543,120.14121,0.27969012
CAL110,布袋國中,2020-12-09,23.35893,120.18026,0.21958904
CAN130,水試所海水繁養殖中心,2020-12-09,23.120802,120.07968,0.055173963
CAN140,六官養殖協會,2020-12-09,23.22881,120.29962,0.2454559
CAQ030,崎峰國小,2020-12-09,22.42565,120.49521,0.048728146
E2K600,四湖植物園,2020-12-09,23.676986,120.163433,0.7220429
E2P980,林試六龜中心,2020-12-09,22.991703,120.645722,0.07049688
E2S960,林試太麻里2,2020-12-09,22.598014,120.989761,0.13740839
E2S980,林試太麻里1,2020-12-09,22.598922,120.980044,0.19402218
G2F820,農業試驗所,2020-12-09,24.031261,120.688133,0.13644998
G2L020,農試嘉義分所,2020-12-09,23.485028,120.473806,0.8381853
G2M350,農試溪口農場,2020-12-09,23.58565,120.408111,0.38365063
G2P820,農試鳳山分所,2020-12-09,22.646611,120.356083,0.13161378
K2E360,苗栗農改,2020-12-09,24.495722,120.829111,0.15414551
K2E710,苗改生物防治研究中心,2020-12-09,24.422861,120.871833,0.16935289
K2F750,種苗繁殖,2020-12-09,24.225972,120.800917,0.23950033
U2HA50,臺大竹山,2020-12-09,23.756972,120.681556,0.7367242
V2K620,麥寮合作社,2020-12-09,23.753836,120.294783,0.71903723
