站號,站名,日期,lat,lon,BlastGRU-TW
466881,新北,2021-02-23,24.9593,121.52,0.0010810981
466900,淡水,2021-02-23,25.164889,121.448906,0.00097341347
466920,臺北,2021-02-23,25.037658,121.514853,0.0011583903
467350,澎湖,2021-02-23,23.565503,119.563094,0.00041362096
467410,臺南,2021-02-23,22.993239,120.204772,0.16968517
467420,永康,2021-02-23,23.038386,120.2367,0.18342246
467790,墾丁雷達站,2021-02-23,21.948235,120.808028,0.00035853044
C0A520,山佳,2021-02-23,24.974944,121.402008,0.0008315195
C0A530,坪林,2021-02-23,24.938183,121.70975,0.00091723097
C0A880,福隆,2021-02-23,25.017842,121.942083,0.015128313
C0A890,雙溪,2021-02-23,25.036003,121.864242,0.0016844943
C0A920,富貴角,2021-02-23,25.263783,121.565258,0.0007896887
C0AC80,文山,2021-02-23,25.00235,121.575728,0.0009784474
C0ACA0,新莊,2021-02-23,25.051478,121.446756,0.0011902393
C0AD00,三芝,2021-02-23,25.258131,121.501917,0.0008608461
C0AH70,松山,2021-02-23,25.04871,121.55042,0.0011583903
C0AH80,深坑,2021-02-23,25.002703,121.628328,0.0009784474
C0AI00,五股,2021-02-23,25.07445,121.42728,0.0005713279
C0AJ70,田寮,2021-02-23,25.2698,121.4886,0.0011150456
