站號,站名,日期,lat,lon,BlastGRU-TW
12J990,口湖工作站,2021-07-16,23.589978,120.180394,0.6610336
12Q970,東港工作站,2021-07-16,22.479997,120.466058,0.8969937
12Q980,恆春工作站,2021-07-16,22.079678,120.714425,0.8717136
466881,新北,2021-07-16,24.9593,121.52,0.5597475
466900,淡水,2021-07-16,25.164889,121.448906,0.7364897
466920,臺北,2021-07-16,25.037658,121.514853,0.5357455
466940,基隆,2021-07-16,25.133314,121.740475,0.5468789
466990,花蓮,2021-07-16,23.975128,121.613275,0.84144425
467050,新屋,2021-07-16,25.006744,121.047486,0.7995838
467080,宜蘭,2021-07-16,24.763975,121.756528,0.06911601
467270,田中,2021-07-16,23.873803,120.581286,0.6460702
467300,東吉島,2021-07-16,23.25695,119.667467,0.9279823
467350,澎湖,2021-07-16,23.565503,119.563094,0.8420661
467410,臺南,2021-07-16,22.993239,120.204772,0.683969
467420,永康,2021-07-16,23.038386,120.2367,0.6753462
467441,高雄,2021-07-16,22.7304,120.3125,0.7959391
467480,嘉義,2021-07-16,23.495925,120.432906,0.89250916
467490,臺中,2021-07-16,24.145736,120.684075,0.9341638
467540,大武,2021-07-16,22.355675,120.903789,0.26056328
467571,新竹,2021-07-16,24.827853,121.014219,0.9196634
467590,恆春,2021-07-16,22.003897,120.746339,0.8858628
467610,成功,2021-07-16,23.097486,121.373428,0.20049545
467620,蘭嶼,2021-07-16,22.036969,121.558339,0.9987224
467660,臺東,2021-07-16,22.752211,121.154586,0.47339568
467790,墾丁雷達站,2021-07-16,21.948235,120.808028,0.89814097
72AI40,桃改樹林分場,2021-07-16,24.944503,121.386972,0.6581704
72C440,桃園農改,2021-07-16,24.950944,121.030583,0.8148035
72D680,桃改新埔分場,2021-07-16,24.834444,121.066111,0.9087649
72G600,臺中農改,2021-07-16,24.003028,120.534389,0.586273
72K220,南改斗南分場,2021-07-16,23.634556,120.477333,0.48722667
72M360,南改義竹分場,2021-07-16,23.360694,120.279361,0.800692
72M700,南改鹿草分場,2021-07-16,23.416869,120.283061,0.760252
72N100,臺南農改,2021-07-16,23.0605,120.342194,0.8460176
72N240,七股研究中心,2021-07-16,23.081672,120.062894,0.6178788
72Q010,高雄農改,2021-07-16,22.709333,120.525889,0.42963108
72S200,東改班鳩分場,2021-07-16,22.829528,121.077694,0.9290996
72S590,東改賓朗果園,2021-07-16,22.813889,121.071278,0.97313654
72T250,花蓮農改,2021-07-16,23.975222,121.563889,0.87812716
72U480,花改蘭陽分場,2021-07-16,24.686306,121.716583,0.068208225
72V140,高改旗南分場,2021-07-16,22.857861,120.516667,0.5790813
82A750,茶改北部分場,2021-07-16,24.955778,121.631222,0.2272193
82C160,茶改場,2021-07-16,24.908472,121.185333,0.9726856
82H840,茶改南部分場,2021-07-16,23.762528,120.7405,0.79225636
82S580,茶改東部分場,2021-07-16,22.907694,121.130139,0.85019314
A2C560,農工中心,2021-07-16,24.985917,121.239833,0.9561156
A2K360,水試臺西試驗場,2021-07-16,23.717231,120.190522,0.5756299
A2K570,古坑花卉中心,2021-07-16,23.63353,120.55239,0.7448566
A2K630,臺大雲林校區,2021-07-16,23.730628,120.423903,0.35836354
A2N290,臺南蘭花園區,2021-07-16,23.340258,120.379661,0.94434476
B2E890,畜試北區分所,2021-07-16,24.527806,120.770972,0.8574064
B2N890,畜試所,2021-07-16,23.058972,120.336406,0.8460176
B2Q810,畜試南區分所,2021-07-16,21.945583,120.802167,0.8809409
B2U990,畜試東區分所,2021-07-16,24.669039,121.832561,0.06675744
C0A520,山佳,2021-07-16,24.974944,121.402008,0.6581704
C0A530,坪林,2021-07-16,24.938183,121.70975,0.13367186
C0A540,四堵,2021-07-16,24.8926,121.745736,0.26445684
C0A550,泰平,2021-07-16,24.971197,121.823711,0.2986317
C0A560,福山,2021-07-16,24.776203,121.502811,0.2272193
C0A570,桶後,2021-07-16,24.848222,121.597992,0.36564434
C0A640,石碇,2021-07-16,24.993969,121.662917,0.09300801
C0A650,火燒寮,2021-07-16,25.002719,121.742892,0.10509261
C0A660,瑞芳,2021-07-16,25.113169,121.801147,0.08467149
C0A770,科教館,2021-07-16,25.096356,121.516507,0.62295085
C0A860,大坪,2021-07-16,25.165914,121.632969,0.5110703
C0A880,福隆,2021-07-16,25.017842,121.942083,0.0728989
C0A890,雙溪,2021-07-16,25.036003,121.864242,0.60550517
C0A920,富貴角,2021-07-16,25.263783,121.565258,0.76877636
C0A931,三和,2021-07-16,25.233153,121.595236,0.123862736
C0A940,金山,2021-07-16,25.223628,121.643967,0.7346452
C0A950,鼻頭角,2021-07-16,25.129036,121.923372,0.07198371
C0A970,三貂角,2021-07-16,25.007606,122.002058,0.08956973
C0A980,社子,2021-07-16,25.109508,121.469681,0.6096362
C0A9C0,天母,2021-07-16,25.117494,121.537169,0.64609736
C0A9F0,內湖,2021-07-16,25.079422,121.57545,0.5357455
C0AC60,三峽,2021-07-16,24.939025,121.369728,0.5726785
C0AC70,信義,2021-07-16,25.037822,121.564597,0.5357455
C0AC80,文山,2021-07-16,25.00235,121.575728,0.5977363
C0ACA0,新莊,2021-07-16,25.051478,121.446756,0.6463209
C0AD00,三芝,2021-07-16,25.258131,121.501917,0.774746
C0AD10,八里,2021-07-16,25.150211,121.403947,0.7364897
C0AD30,蘆洲,2021-07-16,25.086594,121.472331,0.62295085
C0AD40,土城,2021-07-16,24.973208,121.445169,0.63491845
C0AD50,鶯歌,2021-07-16,24.951533,121.346294,0.806517
C0AG80,中和,2021-07-16,24.991622,121.491792,0.5357455
C0AH00,汐止,2021-07-16,25.066881,121.658778,0.55810624
C0AH10,永和,2021-07-16,25.01125,121.508111,0.52472943
C0AH40,平等,2021-07-16,25.129142,121.577086,0.3070463
C0AH50,林口,2021-07-16,25.072181,121.38084,0.30157748
C0AH70,松山,2021-07-16,25.04871,121.55042,0.5357455
C0AH80,深坑,2021-07-16,25.002703,121.628328,0.5977363
C0AI00,五股,2021-07-16,25.07445,121.42728,0.9297121
C0AI10,屈尺,2021-07-16,24.92184,121.54475,0.5977363
C0AI20,白沙灣,2021-07-16,25.283128,121.519058,0.7151128
C0AI30,三重,2021-07-16,25.057328,121.500629,0.62295085
C0AI40,石牌,2021-07-16,25.115597,121.513139,0.63491845
C0AJ20,野柳,2021-07-16,25.20703,121.690021,0.55810624
C0AJ30,淡水觀海,2021-07-16,25.184591,121.408616,0.72426695
C0AJ40,石門,2021-07-16,25.273672,121.601198,0.8563519
C0AJ50,水湳洞,2021-07-16,25.123695,121.862238,0.55810624
C0AJ60,六塊厝,2021-07-16,25.24,121.4481,0.72426695
C0AJ70,田寮,2021-07-16,25.2698,121.4886,0.7063369
C0AJ80,板橋,2021-07-16,25.0107,121.4489,0.63491845
C0AJ90,澳底,2021-07-16,25.0552,121.9253,0.0728989
C0B010,七堵,2021-07-16,25.094819,121.71713,0.5815726
C0B020,基隆嶼,2021-07-16,25.19141,121.78391,0.55810624
C0B040,大武崙,2021-07-16,25.166676,121.706993,0.5815726
C0B050,八斗子,2021-07-16,25.144754,121.79167,0.53560525
C0B060,暖暖,2021-07-16,25.0957,121.7403,0.6420886
C0C460,復興,2021-07-16,24.820208,121.352281,0.44244528
C0C480,桃園,2021-07-16,24.992425,121.323172,0.9247183
C0C490,八德,2021-07-16,24.928708,121.283289,0.8947044
C0C590,觀音,2021-07-16,25.027072,121.153317,0.8694671
C0C620,蘆竹,2021-07-16,25.084275,121.265767,0.75464314
C0C630,大溪,2021-07-16,24.882853,121.265547,0.92856455
C0C650,平鎮,2021-07-16,24.897503,121.214636,0.9726856
C0C660,楊梅,2021-07-16,24.912375,121.143047,0.9721962
C0C670,龍潭,2021-07-16,24.870056,121.221389,0.9748162
C0C680,龜山,2021-07-16,25.02846,121.38656,0.33377782
C0C700,中壢,2021-07-16,24.977661,121.256375,0.93754095
C0C710,大溪永福,2021-07-16,24.892936,121.324975,0.96119916
C0C720,竹圍,2021-07-16,25.112692,121.239824,0.7364897
C0C730,中大臨海站,2021-07-16,24.966126,121.008581,0.7778154
C0C740,觀音工業區,2021-07-16,25.064764,121.114856,0.9403787
C0C750,新興坑尾,2021-07-16,25.0061,121.0971,0.96095574
C0D430,峨眉,2021-07-16,24.6905,121.017189,0.92825484
C0D480,打鐵坑,2021-07-16,24.849664,121.150789,0.9688547
C0D540,橫山,2021-07-16,24.71116,121.11693,0.96478045
C0D560,竹東,2021-07-16,24.767147,121.057881,0.93952626
C0D580,寶山,2021-07-16,24.735006,121.025192,0.9335126
C0D590,新豐,2021-07-16,24.87068,120.97721,0.8801926
C0D650,湖口,2021-07-16,24.904794,121.043628,0.84350836
C0D660,新竹市東區,2021-07-16,24.798681,120.986942,0.92889285
C0D670,海天一線,2021-07-16,24.831986,120.914438,0.9259244
C0D680,香山濕地,2021-07-16,24.783581,120.914988,0.9301334
C0D690,外湖,2021-07-16,24.917735,120.968711,0.7778154
C0D700,關西,2021-07-16,24.7977,121.1732,0.9566491
C0E420,竹南,2021-07-16,24.708978,120.888897,0.9410473
C0E430,南庄,2021-07-16,24.601775,121.000214,0.9581759
C0E520,大湖,2021-07-16,24.41494,120.87087,0.99063087
C0E540,後龍,2021-07-16,24.606489,120.783933,0.85277885
C0E550,明德,2021-07-16,24.583486,120.885411,0.9076769
C0E590,通霄,2021-07-16,24.471892,120.704622,0.83267784
C0E730,頭份,2021-07-16,24.688247,120.912206,0.9410473
C0E740,造橋,2021-07-16,24.637056,120.864778,0.8610549
C0E750,苗栗,2021-07-16,24.564569,120.824575,0.8818834
C0E780,銅鑼,2021-07-16,24.489681,120.790853,0.89361656
C0E791,卓蘭,2021-07-16,24.3126,120.8244,0.8850781
C0E810,西湖,2021-07-16,24.562947,120.7485,0.87063384
C0E820,獅潭,2021-07-16,24.539133,120.920042,0.9066332
C0E830,苑裡,2021-07-16,24.439714,120.653053,0.7648531
C0E850,大河,2021-07-16,24.618069,120.948578,0.9172663
C0E870,高鐵苗栗,2021-07-16,24.60725,120.826094,0.8588315
C0E910,海埔,2021-07-16,24.648767,120.772435,0.859644
C0E920,通霄漁港,2021-07-16,24.498589,120.673876,0.7993037
C0E930,龍鳳,2021-07-16,24.700034,120.859125,0.84409904
C0F0B0,石岡,2021-07-16,24.276061,120.777644,0.6959773
C0F850,東勢,2021-07-16,24.246428,120.833047,0.9331372
C0F930,大甲,2021-07-16,24.347667,120.640403,0.81421477
C0F970,大坑,2021-07-16,24.173142,120.722289,0.9251813
C0F9A0,中竹林,2021-07-16,24.103556,120.751061,0.8153275
C0F9I0,神岡,2021-07-16,24.272481,120.658314,0.95668703
C0F9K0,大安,2021-07-16,24.345061,120.588025,0.73765284
C0F9L0,后里,2021-07-16,24.310436,120.729725,0.97550243
C0F9M0,豐原,2021-07-16,24.254322,120.720692,0.9676864
C0F9N0,大里,2021-07-16,24.092464,120.701378,0.85753995
C0F9O0,潭子,2021-07-16,24.213106,120.703933,0.9616224
C0F9P0,清水,2021-07-16,24.312297,120.562242,0.72087175
C0F9Q0,外埔,2021-07-16,24.347817,120.705686,0.93771094
C0F9R0,龍井,2021-07-16,24.184536,120.528972,0.73078513
C0F9S0,烏日,2021-07-16,24.107058,120.624103,0.6197966
C0F9T0,西屯,2021-07-16,24.179494,120.641275,0.8415186
C0F9U0,南屯,2021-07-16,24.137006,120.637969,0.85753995
C0F9X0,大雅(中科園區),2021-07-16,24.21528,120.62445,0.89340657
C0FA10,松柏,2021-07-16,24.429115,120.617482,0.7408507
C0FA20,溫寮,2021-07-16,24.372177,120.583125,0.7408507
C0FA30,梧棲,2021-07-16,24.256003,120.523381,0.73078513
C0FA40,臺中電廠,2021-07-16,24.2146,120.4907,0.73078513
C0FA50,霧峰,2021-07-16,24.0419,120.6995,0.92096376
C0G620,芬園,2021-07-16,24.015678,120.6213,0.83052534
C0G640,鹿港,2021-07-16,24.0753,120.430481,0.5138475
C0G650,員林,2021-07-16,23.946503,120.585597,0.7987988
C0G660,溪湖,2021-07-16,23.94835,120.479122,0.6808384
C0G720,溪州,2021-07-16,23.851589,120.499093,0.5379917
C0G730,二林,2021-07-16,23.903325,120.376081,0.532246
C0G740,大城,2021-07-16,23.852487,120.320935,0.56914026
C0G770,福興,2021-07-16,24.041289,120.437669,0.5138475
C0G780,秀水,2021-07-16,24.03405,120.503869,0.5748127
C0G800,埔鹽,2021-07-16,24.000394,120.431683,0.5138475
C0G810,埔心,2021-07-16,23.947633,120.525456,0.6930748
C0G820,田尾,2021-07-16,23.901669,120.509389,0.70634866
C0G830,埤頭,2021-07-16,23.866003,120.452806,0.5127619
C0G840,北斗,2021-07-16,23.877586,120.514222,0.70634866
C0G860,社頭,2021-07-16,23.897647,120.5862,0.809747
C0G870,芳苑,2021-07-16,23.922303,120.320025,0.55905026
C0G880,二水,2021-07-16,23.810742,120.6173,0.7431055
C0G890,伸港,2021-07-16,24.148933,120.484403,0.7335703
C0G900,線西,2021-07-16,24.143358,120.443536,0.75866544
C0G910,花壇,2021-07-16,24.032076,120.549461,0.59838873
C0G920,永靖,2021-07-16,23.924703,120.547533,0.70634866
C0G940,竹塘,2021-07-16,23.848253,120.386764,0.37004864
C0G950,防潮門,2021-07-16,24.1835,120.4871,0.7225014
C0G960,福寶,2021-07-16,24.0443,120.3814,0.50398207
C0G970,三豐,2021-07-16,23.882,120.2895,0.55905026
C0H890,埔里,2021-07-16,23.972169,120.952425,0.9165523
C0H950,中寮,2021-07-16,23.884447,120.766406,0.9170283
C0H960,草屯,2021-07-16,23.973672,120.68085,0.78373367
C0I110,竹山,2021-07-16,23.761225,120.688156,0.89494765
C0I360,水里,2021-07-16,23.812553,120.849792,0.89749706
C0I380,集集,2021-07-16,23.828206,120.801467,0.8478772
C0I410,名間,2021-07-16,23.837053,120.701447,0.8322757
C0I420,國姓,2021-07-16,24.037803,120.855072,0.79780716
C0I460,南投,2021-07-16,23.911469,120.687331,0.84087235
C0K250,崙背,2021-07-16,23.75555,120.318925,0.60516125
C0K280,四湖,2021-07-16,23.630414,120.227125,0.62562174
C0K291,宜梧,2021-07-16,23.536281,120.169329,0.6740767
C0K330,虎尾,2021-07-16,23.719183,120.442036,0.3663233
C0K390,土庫,2021-07-16,23.679029,120.395574,0.35836354
C0K400,斗六,2021-07-16,23.720583,120.541127,0.528413
C0K410,北港,2021-07-16,23.573957,120.292802,0.6912459
C0K420,西螺,2021-07-16,23.800407,120.467394,0.5622695
C0K430,褒忠,2021-07-16,23.690938,120.303634,0.58021504
C0K440,二崙,2021-07-16,23.772797,120.408944,0.37715903
C0K450,大埤,2021-07-16,23.646074,120.431537,0.39911136
C0K460,斗南,2021-07-16,23.678734,120.478359,0.5008049
C0K470,林內,2021-07-16,23.748675,120.609642,0.57740515
C0K480,莿桐,2021-07-16,23.761192,120.502372,0.57877547
C0K500,元長,2021-07-16,23.64981,120.315024,0.64795494
C0K510,水林,2021-07-16,23.572924,120.24597,0.6725952
C0K530,臺西,2021-07-16,23.701547,120.197559,0.5859446
C0K550,蔦松,2021-07-16,23.514319,120.229736,0.68447155
C0K560,棋山,2021-07-16,23.68645,120.603417,0.6581178
C0K580,高鐵雲林,2021-07-16,23.737456,120.417944,0.35836354
C0K590,雲林東勢,2021-07-16,23.674192,120.255721,0.58021504
C0K600,箔子寮,2021-07-16,23.6197,120.14,0.6610336
C0M410,馬頭山,2021-07-16,23.324361,120.582017,0.91343856
C0M520,東後寮,2021-07-16,23.369908,120.248065,0.7474429
C0M640,中埔,2021-07-16,23.42538,120.5229,0.8257307
C0M650,朴子,2021-07-16,23.43463,120.23902,0.702155
C0M660,溪口,2021-07-16,23.604131,120.403569,0.77925277
C0M670,大林,2021-07-16,23.600616,120.45841,0.8798065
C0M680,太保,2021-07-16,23.455062,120.331455,0.7183223
C0M690,水上,2021-07-16,23.419734,120.388909,0.9377972
C0M700,竹崎,2021-07-16,23.526178,120.555508,0.832652
C0M710,東石,2021-07-16,23.458927,120.15385,0.68447155
C0M720,番路,2021-07-16,23.464657,120.554156,0.90470046
C0M730,嘉義市東區,2021-07-16,23.457673,120.460531,0.9558177
C0M740,六腳,2021-07-16,23.492871,120.290625,0.705233
C0M750,布袋,2021-07-16,23.380878,120.167789,0.7021543
C0M760,民雄,2021-07-16,23.551754,120.428457,0.803911
C0M770,嘉義梅山,2021-07-16,23.585398,120.555587,0.7430634
C0M780,鹿草,2021-07-16,23.41134,120.30835,0.7731463
C0M790,新港,2021-07-16,23.553269,120.345728,0.7045744
C0M800,茶山,2021-07-16,23.299075,120.664767,0.9526195
C0M880,好美里,2021-07-16,23.3364,120.138,0.73224735
C0N010,鯤鯓國小,2021-07-16,23.1879,120.0889,0.68440205
C0N020,城西,2021-07-16,23.0568,120.0956,0.6269932
C0N030,四草,2021-07-16,23.0235,120.1116,0.5351414
C0N040,蘆竹溝,2021-07-16,23.2344,120.0961,0.68440205
C0N050,蚵寮,2021-07-16,23.301,120.1104,0.68440205
C0O810,曾文,2021-07-16,23.219681,120.497328,0.9890305
C0O830,北寮,2021-07-16,23.079561,120.495008,0.84702474
C0O840,王爺宮,2021-07-16,23.222064,120.40085,0.9890305
C0O860,大內,2021-07-16,23.11885,120.36083,0.9707939
C0O900,善化,2021-07-16,23.112883,120.297219,0.8175232
C0O930,玉井,2021-07-16,23.126042,120.46055,0.96361333
C0O950,安南,2021-07-16,23.076694,120.144861,0.719333
C0O960,崎頂,2021-07-16,22.959547,120.369317,0.5585993
C0O970,虎頭埤,2021-07-16,23.021375,120.347878,0.7536407
C0O980,新市,2021-07-16,23.061614,120.298197,0.8175232
C0O990,媽廟,2021-07-16,22.99175,120.293525,0.7772022
C0R150,三地門,2021-07-16,22.709889,120.639944,0.4261601
C0R160,鹽埔,2021-07-16,22.739558,120.530778,0.42963108
C0R170,屏東,2021-07-16,22.660269,120.494072,0.8891983
C0R190,赤山,2021-07-16,22.592333,120.614306,0.47650716
C0R220,潮州,2021-07-16,22.534361,120.54,0.50865287
C0R240,來義,2021-07-16,22.527306,120.625111,0.4887657
C0R260,春日,2021-07-16,22.370361,120.628306,0.4566945
C0R270,琉球嶼,2021-07-16,22.332244,120.362236,0.46482968
C0R280,檳榔,2021-07-16,22.076078,120.836777,0.94730234
C0R320,車城,2021-07-16,22.0744,120.716247,0.87171364
C0R341,牡丹,2021-07-16,22.130036,120.792639,0.72997004
C0R350,貓鼻頭,2021-07-16,21.921774,120.7358,0.8897476
C0R470,高樹,2021-07-16,22.826389,120.600806,0.42220902
C0R480,長治,2021-07-16,22.693128,120.542622,0.43969792
C0R490,九如,2021-07-16,22.7405,120.490503,0.8955442
C0R520,崁頂,2021-07-16,22.514781,120.506914,0.90166146
C0R540,佳冬,2021-07-16,22.419456,120.552375,0.8969937
C0R550,新埤,2021-07-16,22.467947,120.582894,0.46569347
C0R560,新園,2021-07-16,22.5434,120.461558,0.90166146
C0R570,麟洛,2021-07-16,22.65078,120.52719,0.8955442
C0R580,南州,2021-07-16,22.48591,120.50274,0.8969937
C0R590,里港,2021-07-16,22.77919,120.49459,0.45605376
C0R620,墾雷,2021-07-16,21.900836,120.855269,0.8897476
C0R640,東港,2021-07-16,22.46247,120.44074,0.8553498
C0R650,竹田,2021-07-16,22.58486,120.54344,0.4543973
C0R660,枋寮,2021-07-16,22.367722,120.590647,0.4883622
C0R670,楓港,2021-07-16,22.190131,120.692156,0.43454233
C0R680,佳樂水,2021-07-16,21.993578,120.861633,0.8809409
C0R690,墾丁,2021-07-16,21.966756,120.810269,0.95272714
C0R700,枋山,2021-07-16,22.246844,120.661086,0.43454233
C0R710,龍磐,2021-07-16,21.931672,120.838942,0.9247448
C0R720,旭海,2021-07-16,22.205403,120.887614,0.901434
C0R730,大坪頂,2021-07-16,22.024633,120.69355,0.91813445
C0R740,獅子,2021-07-16,22.201569,120.70525,0.47707474
C0R760,南仁湖,2021-07-16,22.084681,120.863353,0.9652019
C0R770,保力,2021-07-16,22.071122,120.764111,0.91037744
C0R780,滿州,2021-07-16,22.024403,120.839892,0.8944401
C0R790,九棚,2021-07-16,22.14195,120.889281,0.8184423
C0R800,丹路,2021-07-16,22.204481,120.750989,0.5866263
C0R810,內獅,2021-07-16,22.305064,120.642986,0.41525495
C0R830,高士,2021-07-16,22.121825,120.836781,0.9786531
C0R850,林邊,2021-07-16,22.4634,120.5339,0.9016613
C0R860,鼻頭,2021-07-16,22.1043,120.8979,0.9491752
C0R870,興海,2021-07-16,21.9752,120.8439,0.8809409
C0R880,後壁湖,2021-07-16,21.9457,120.7457,0.86745125
C0R890,山海,2021-07-16,21.9878,120.7091,0.8717136
C0R900,竹坑,2021-07-16,22.1385,120.7022,0.51007354
C0R910,下寮,2021-07-16,22.3929,120.5548,0.8969937
C0R920,塭仔,2021-07-16,22.4169,120.5197,0.8900952
C0R930,萬丹,2021-07-16,22.5885,120.4851,0.4543973
C0R940,加祿堂,2021-07-16,22.3363,120.6217,0.41525495
C0S710,鹿野,2021-07-16,22.917711,121.122994,0.9876919
C0S730,綠島,2021-07-16,22.6672,121.47533,0.27003157
C0S740,池上,2021-07-16,23.119628,121.209469,0.9446968
C0S770,大溪山,2021-07-16,22.478475,120.943325,0.97460353
C0S790,金崙,2021-07-16,22.538122,120.966875,0.5513646
C0S810,東河,2021-07-16,22.972672,121.303986,0.43343917
C0S830,長濱,2021-07-16,23.286817,121.411975,0.9728806
C0S840,南田,2021-07-16,22.279725,120.889208,0.35998008
C0S890,關山,2021-07-16,23.0395,121.175017,0.48422447
C0S900,蘭嶼高中,2021-07-16,22.04909,121.51214,0.97504705
C0S910,蘭嶼燈塔,2021-07-16,22.081197,121.503117,0.98999625
C0S920,金峰嘉蘭,2021-07-16,22.594789,120.960825,0.3089976
C0S930,延平,2021-07-16,22.902581,121.084058,0.8425641
C0S940,石寧山,2021-07-16,23.223772,121.406639,0.74274033
C0S950,七塊厝,2021-07-16,22.954453,121.229922,0.9907298
C0S960,香蘭,2021-07-16,22.587569,120.993375,0.24411614
C0S970,加津林,2021-07-16,22.416211,120.926942,0.2712388
C0S990,山豬窟,2021-07-16,22.318619,120.857372,0.9932322
C0SA00,歷坵,2021-07-16,22.520969,120.89185,0.99237776
C0SA10,檳榔四格山,2021-07-16,22.810031,121.109308,0.9930409
C0SA30,都歷,2021-07-16,23.020333,121.323642,0.24208686
C0SA40,瑞和,2021-07-16,22.974361,121.156697,0.42478564
C0SA60,知本（水試所）,2021-07-16,22.702394,121.082761,0.37366945
C0SA80,土坂,2021-07-16,22.453108,120.887572,0.3650035
C0SA90,達仁林場,2021-07-16,22.264347,120.823972,0.8956516
C0T870,鯉魚潭,2021-07-16,23.935639,121.508944,0.6884259
C0T900,西林,2021-07-16,23.8119,121.441458,0.7731123
C0T960,光復,2021-07-16,23.660694,121.424964,0.7694882
C0T9A0,月眉山,2021-07-16,23.809928,121.539828,0.9896531
C0T9D0,和中,2021-07-16,24.26676,121.74103,0.28540802
C0T9E0,大坑,2021-07-16,23.880628,121.581981,0.97881323
C0T9F0,水璉,2021-07-16,23.797131,121.542514,0.92737615
C0T9I0,豐濱,2021-07-16,23.583897,121.514806,0.8501477
C0T9M0,靜浦,2021-07-16,23.455167,121.495028,0.73921
C0T9N0,富里,2021-07-16,23.171639,121.249378,0.9903013
C0U600,礁溪,2021-07-16,24.817539,121.765608,0.07038973
C0U650,玉蘭,2021-07-16,24.675286,121.587061,0.81881034
C0U750,龜山島,2021-07-16,24.841667,121.953133,0.15334877
C0U760,東澳,2021-07-16,24.52196,121.83318,0.09376158
C0U770,南澳,2021-07-16,24.44935,121.81022,0.08717113
C0U780,五結,2021-07-16,24.68637,121.79794,0.06675744
C0U860,頭城,2021-07-16,24.85323,121.8308,0.06911601
C0U870,大礁溪,2021-07-16,24.791042,121.675047,0.29355738
C0U880,北關,2021-07-16,24.9072,121.8734,0.614179
C0U890,三星,2021-07-16,24.66812,121.65302,0.08687447
C0U900,內城,2021-07-16,24.71813,121.68766,0.07435645
C0U910,冬山,2021-07-16,24.63373,121.7937,0.06675744
C0U940,羅東,2021-07-16,24.68184,121.74934,0.06754686
C0U970,大福,2021-07-16,24.80064,121.81389,0.06798673
C0U990,員山,2021-07-16,24.74435,121.72247,0.06754686
C0UA00,土場,2021-07-16,24.576533,121.495333,0.4020197
C0UA80,大溪漁港,2021-07-16,24.941801,121.902955,0.07038973
C0UA90,石城,2021-07-16,24.980444,121.951214,0.07847334
C0UB00,淡江大學蘭陽校園,2021-07-16,24.823239,121.730383,0.38100505
C0UB10,蘇澳,2021-07-16,24.5969,121.8571,0.082395785
C0UB20,壯圍,2021-07-16,24.7359,121.8163,0.06612451
C0V250,甲仙,2021-07-16,23.080106,120.591758,0.9719078
C0V260,月眉,2021-07-16,22.971003,120.539853,0.7689355
C0V310,美濃,2021-07-16,22.898742,120.519153,0.95322776
C0V350,溪埔,2021-07-16,22.738578,120.446797,0.8581364
C0V360,內門,2021-07-16,22.975481,120.466769,0.9835756
C0V370,古亭坑,2021-07-16,22.893178,120.401947,0.89598244
C0V400,阿公店,2021-07-16,22.804194,120.355528,0.84169096
C0V440,鳳山,2021-07-16,22.646653,120.356122,0.8775606
C0V450,鳳森,2021-07-16,22.545064,120.392592,0.48065245
C0V490,新興,2021-07-16,22.627422,120.298803,0.8632816
C0V530,阿蓮,2021-07-16,22.883208,120.327508,0.6942903
C0V610,梓官,2021-07-16,22.760558,120.267211,0.737556
C0V620,永安,2021-07-16,22.82315,120.236856,0.7036543
C0V630,茄萣,2021-07-16,22.906642,120.182608,0.6367086
C0V640,湖內,2021-07-16,22.887139,120.2445,0.64810497
C0V650,彌陀,2021-07-16,22.783806,120.246361,0.7036543
C0V660,岡山,2021-07-16,22.797078,120.294958,0.737556
C0V680,仁武,2021-07-16,22.701083,120.347722,0.80370235
C0V690,鼓山,2021-07-16,22.623325,120.275575,0.8632816
C0V700,三民,2021-07-16,22.645017,120.311233,0.8632816
C0V710,苓雅,2021-07-16,22.622742,120.330669,0.8632816
C0V720,林園,2021-07-16,22.507747,120.394511,0.8632816
C0V730,大寮,2021-07-16,22.605614,120.395717,0.42852122
C0V740,旗山,2021-07-16,22.888614,120.483597,0.9585764
C0V750,路竹,2021-07-16,22.854997,120.259439,0.72644436
C0V760,橋頭,2021-07-16,22.757806,120.30575,0.74501354
C0V770,大社,2021-07-16,22.730306,120.346639,0.80370235
C0V790,萬山,2021-07-16,22.905944,120.688056,0.9420752
C0V800,六龜,2021-07-16,22.997889,120.633583,0.8836873
C0V810,左營,2021-07-16,22.67491,120.28491,0.7959391
C0V820,小林,2021-07-16,23.148408,120.63325,0.9856045
C0V840,鳳鼻頭,2021-07-16,22.5083,120.3591,0.8553498
C0V850,蚵仔寮,2021-07-16,22.7256,120.2527,0.78565913
C0V860,南寮,2021-07-16,22.7616,120.2339,0.69337153
C0V870,文安,2021-07-16,22.8025,120.2164,0.69475263
C0V880,興達,2021-07-16,22.8778,120.2127,0.6367086
C0V890,前鎮,2021-07-16,22.5718,120.3117,0.8553498
C0V900,汕尾,2021-07-16,22.4782,120.4151,0.88772184
C0X050,東河,2021-07-16,23.296598,120.385608,0.94434476
C0X060,下營,2021-07-16,23.22695,120.256261,0.78245264
C0X080,佳里,2021-07-16,23.173039,120.145086,0.73224735
C0X100,臺南市北區,2021-07-16,23.010394,120.194228,0.6647928
C0X110,臺南市南區,2021-07-16,22.961189,120.188378,0.6753462
C0X120,麻豆,2021-07-16,23.183289,120.248611,0.7431019
C0X130,官田,2021-07-16,23.193217,120.315422,0.8054317
C0X140,西港,2021-07-16,23.125608,120.203108,0.668379
C0X150,安定,2021-07-16,23.102614,120.227839,0.75678384
C0X160,仁德,2021-07-16,22.968258,120.257689,0.76724917
C0X170,關廟,2021-07-16,22.963017,120.327797,0.80957496
C0X180,山上,2021-07-16,23.0757,120.363253,0.9717592
C0X190,安平,2021-07-16,22.993161,120.152181,0.6647928
C0X200,左鎮,2021-07-16,23.056758,120.408522,0.96804994
C0X210,白河,2021-07-16,23.347466,120.414427,0.9495893
C0X220,學甲,2021-07-16,23.230367,120.182187,0.7431019
C0X230,鹽水,2021-07-16,23.272621,120.247641,0.7608315
C0X240,關子嶺,2021-07-16,23.331169,120.508025,0.9935618
C0X250,新營,2021-07-16,23.310689,120.316681,0.7954188
C0X260,後壁,2021-07-16,23.366358,120.362326,0.96212775
C0X280,將軍,2021-07-16,23.214999,120.13577,0.73224735
C0X290,北門,2021-07-16,23.267772,120.125481,0.73224735
C0X300,鹿寮,2021-07-16,23.386047,120.477331,0.60718244
C0X310,七股,2021-07-16,23.147289,120.086253,0.5695092
C0X320,柳營,2021-07-16,23.253328,120.375253,0.9443449
C0Z020,明里,2021-07-16,23.208717,121.262342,0.9520248
C0Z061,玉里,2021-07-16,23.3215,121.339656,0.6830116
C0Z070,舞鶴,2021-07-16,23.46811,121.37407,0.94776756
C0Z080,富源,2021-07-16,23.587642,121.378225,0.9528371
C0Z100,東華,2021-07-16,23.89525,121.549833,0.4892247
C0Z150,吉安光華,2021-07-16,23.930925,121.595153,0.46190676
C0Z160,鳳林,2021-07-16,23.746114,121.453411,0.740897
C0Z170,卓溪,2021-07-16,23.3443,121.3029,0.79487866
C0Z180,新城,2021-07-16,24.03946,121.60454,0.86695874
C0Z190,富世,2021-07-16,24.14743,121.6297,0.6273142
C0Z200,萬榮,2021-07-16,23.709219,121.420106,0.68842554
C0Z210,瑞穗,2021-07-16,23.5239,121.39021,0.812807
C0Z230,和平,2021-07-16,24.30717,121.77007,0.28540802
C0Z270,蕃薯寮,2021-07-16,23.73835,121.540108,0.8547783
C0Z280,德武,2021-07-16,23.47426,121.41071,0.8967593
C0Z300,東里,2021-07-16,23.26853,121.30547,0.7417014
C0Z310,清水斷崖,2021-07-16,24.218294,121.689142,0.3615218
C0Z330,安通山,2021-07-16,23.290728,121.348528,0.9868007
CAG100,王功漁港,2021-07-16,23.96824,120.32586,0.71728516
CAJ050,海口故事園區,2021-07-16,23.57543,120.14121,0.6610336
CAL110,布袋國中,2021-07-16,23.35893,120.18026,0.7474429
CAN130,水試所海水繁養殖中心,2021-07-16,23.120802,120.07968,0.6178788
CAN140,六官養殖協會,2021-07-16,23.22881,120.29962,0.7933461
CAQ030,崎峰國小,2021-07-16,22.42565,120.49521,0.8969937
E2K600,四湖植物園,2021-07-16,23.676986,120.163433,0.5859446
E2P980,林試六龜中心,2021-07-16,22.991703,120.645722,0.9009358
E2S960,林試太麻里2,2021-07-16,22.598014,120.989761,0.24411614
E2S980,林試太麻里1,2021-07-16,22.598922,120.980044,0.300196
G2F820,農業試驗所,2021-07-16,24.031261,120.688133,0.93995124
G2L020,農試嘉義分所,2021-07-16,23.485028,120.473806,0.7105879
G2M350,農試溪口農場,2021-07-16,23.58565,120.408111,0.77925277
G2P820,農試鳳山分所,2021-07-16,22.646611,120.356083,0.87756073
K2E360,苗栗農改,2021-07-16,24.495722,120.829111,0.85898155
K2E710,苗改生物防治研究中心,2021-07-16,24.422861,120.871833,0.97241974
K2F750,種苗繁殖,2021-07-16,24.225972,120.800917,0.9645381
U2HA50,臺大竹山,2021-07-16,23.756972,120.681556,0.9004725
V2K620,麥寮合作社,2021-07-16,23.753836,120.294783,0.5953216
