站號,站名,日期,lat,lon,BlastGRU-TW
466881,新北,2021-10-26,24.9593,121.52,0.12963012
466900,淡水,2021-10-26,25.164889,121.448906,0.12339237
466920,臺北,2021-10-26,25.037658,121.514853,0.111098304
467441,高雄,2021-10-26,22.7304,120.3125,0.6499534
467480,嘉義,2021-10-26,23.495925,120.432906,0.95910275
467490,臺中,2021-10-26,24.145736,120.684075,0.9330303
C0A540,四堵,2021-10-26,24.8926,121.745736,0.11106989
C0A550,泰平,2021-10-26,24.971197,121.823711,0.08010147
C0A560,福山,2021-10-26,24.776203,121.502811,0.03443596
C0A931,三和,2021-10-26,25.233153,121.595236,0.09428079
C0A940,金山,2021-10-26,25.223628,121.643967,0.20676075
C0A950,鼻頭角,2021-10-26,25.129036,121.923372,0.028441908
C0AD10,八里,2021-10-26,25.150211,121.403947,0.12201783
C0AD30,蘆洲,2021-10-26,25.086594,121.472331,0.13752745
C0AD40,土城,2021-10-26,24.973208,121.445169,0.1492246
C0AI10,屈尺,2021-10-26,24.92184,121.54475,0.15473439
C0AI20,白沙灣,2021-10-26,25.283128,121.519058,0.17711352
C0AI30,三重,2021-10-26,25.057328,121.500629,0.1375273
C0B010,七堵,2021-10-26,25.094819,121.71713,0.08172499
C0B020,基隆嶼,2021-10-26,25.19141,121.78391,0.06943195
