站號,站名,日期,lat,lon,BlastGRU-TW
466881,新北,2021-11-30,24.9593,121.52,0.002126101
466900,淡水,2021-11-30,25.164889,121.448906,0.004887492
466920,臺北,2021-11-30,25.037658,121.514853,0.0022848123
466940,基隆,2021-11-30,25.133314,121.740475,0.0051050056
466990,花蓮,2021-11-30,23.975128,121.613275,0.8339606
467050,新屋,2021-11-30,25.006744,121.047486,0.0012651766
467080,宜蘭,2021-11-30,24.763975,121.756528,0.0070827235
467270,田中,2021-11-30,23.873803,120.581286,0.09440723
467300,東吉島,2021-11-30,23.25695,119.667467,0.0021326505
467350,澎湖,2021-11-30,23.565503,119.563094,0.0007117881
467410,臺南,2021-11-30,22.993239,120.204772,0.6771482
467420,永康,2021-11-30,23.038386,120.2367,0.68241304
467441,高雄,2021-11-30,22.7304,120.3125,0.5856314
467480,嘉義,2021-11-30,23.495925,120.432906,0.019928236
467490,臺中,2021-11-30,24.145736,120.684075,0.0021363473
467540,大武,2021-11-30,22.355675,120.903789,0.39257932
467571,新竹,2021-11-30,24.827853,121.014219,0.0027776319
467590,恆春,2021-11-30,22.003897,120.746339,0.00547306
467610,成功,2021-11-30,23.097486,121.373428,0.8627882
467620,蘭嶼,2021-11-30,22.036969,121.558339,0.00012565716
467660,臺東,2021-11-30,22.752211,121.154586,0.48518595
467790,墾丁雷達站,2021-11-30,21.948235,120.808028,0.0033893676
C0A520,山佳,2021-11-30,24.974944,121.402008,0.0017787445
C0A530,坪林,2021-11-30,24.938183,121.70975,0.0033513266
C0A540,四堵,2021-11-30,24.8926,121.745736,0.003245444
C0A550,泰平,2021-11-30,24.971197,121.823711,0.00314095
C0A560,福山,2021-11-30,24.776203,121.502811,0.0068218056
C0A570,桶後,2021-11-30,24.848222,121.597992,0.003634707
C0A640,石碇,2021-11-30,24.993969,121.662917,0.0033959022
C0A650,火燒寮,2021-11-30,25.002719,121.742892,0.002458848
C0A660,瑞芳,2021-11-30,25.113169,121.801147,0.00672161
C0A770,科教館,2021-11-30,25.096356,121.516507,0.0020533246
C0A860,大坪,2021-11-30,25.165914,121.632969,0.003911272
C0A880,福隆,2021-11-30,25.017842,121.942083,0.015122816
C0A890,雙溪,2021-11-30,25.036003,121.864242,0.0048172493
C0A920,富貴角,2021-11-30,25.263783,121.565258,0.001458284
C0A931,三和,2021-11-30,25.233153,121.595236,0.0025685288
C0A940,金山,2021-11-30,25.223628,121.643967,0.0031460884
C0A950,鼻頭角,2021-11-30,25.129036,121.923372,0.01660191
C0A970,三貂角,2021-11-30,25.007606,122.002058,0.005280462
C0A980,社子,2021-11-30,25.109508,121.469681,0.0021759288
C0A9C0,天母,2021-11-30,25.117494,121.537169,0.0018577273
C0A9F0,內湖,2021-11-30,25.079422,121.57545,0.0022848144
C0AC60,三峽,2021-11-30,24.939025,121.369728,0.002059067
C0AC70,信義,2021-11-30,25.037822,121.564597,0.0022848144
C0AC80,文山,2021-11-30,25.00235,121.575728,0.0019343753
C0ACA0,新莊,2021-11-30,25.051478,121.446756,0.004373902
C0AD00,三芝,2021-11-30,25.258131,121.501917,0.0021887545
C0AD10,八里,2021-11-30,25.150211,121.403947,0.004887492
C0AD30,蘆洲,2021-11-30,25.086594,121.472331,0.0020533246
C0AD40,土城,2021-11-30,24.973208,121.445169,0.0019519168
C0AD50,鶯歌,2021-11-30,24.951533,121.346294,0.0018428953
C0AG80,中和,2021-11-30,24.991622,121.491792,0.0022848144
C0AH00,汐止,2021-11-30,25.066881,121.658778,0.0051376713
C0AH10,永和,2021-11-30,25.01125,121.508111,0.0023799618
C0AH40,平等,2021-11-30,25.129142,121.577086,0.0029932004
C0AH50,林口,2021-11-30,25.072181,121.38084,0.007781744
C0AH70,松山,2021-11-30,25.04871,121.55042,0.0022848144
C0AH80,深坑,2021-11-30,25.002703,121.628328,0.0019343753
C0AI00,五股,2021-11-30,25.07445,121.42728,0.0017074414
C0AI10,屈尺,2021-11-30,24.92184,121.54475,0.0019343753
C0AI20,白沙灣,2021-11-30,25.283128,121.519058,0.003679086
C0AI30,三重,2021-11-30,25.057328,121.500629,0.0020533246
C0AI40,石牌,2021-11-30,25.115597,121.513139,0.0019519168
C0AJ20,野柳,2021-11-30,25.20703,121.690021,0.0051376713
C0AJ30,淡水觀海,2021-11-30,25.184591,121.408616,0.0052870535
C0AJ40,石門,2021-11-30,25.273672,121.601198,0.0012255961
C0AJ50,水湳洞,2021-11-30,25.123695,121.862238,0.0051376713
C0AJ60,六塊厝,2021-11-30,25.24,121.4481,0.0052870535
C0AJ70,田寮,2021-11-30,25.2698,121.4886,0.003929046
C0AJ80,板橋,2021-11-30,25.0107,121.4489,0.0019519168
C0AJ90,澳底,2021-11-30,25.0552,121.9253,0.015122816
C0B010,七堵,2021-11-30,25.094819,121.71713,0.005071726
C0B020,基隆嶼,2021-11-30,25.19141,121.78391,0.0051376713
C0B040,大武崙,2021-11-30,25.166676,121.706993,0.005071726
C0B050,八斗子,2021-11-30,25.144754,121.79167,0.0050515025
C0B060,暖暖,2021-11-30,25.0957,121.7403,0.0041077714
C0C460,復興,2021-11-30,24.820208,121.352281,0.0035462286
C0C480,桃園,2021-11-30,24.992425,121.323172,0.003000084
C0C490,八德,2021-11-30,24.928708,121.283289,0.0019170895
C0C590,觀音,2021-11-30,25.027072,121.153317,0.0025203836
C0C620,蘆竹,2021-11-30,25.084275,121.265767,0.004062502
C0C630,大溪,2021-11-30,24.882853,121.265547,0.0012309056
C0C650,平鎮,2021-11-30,24.897503,121.214636,0.0009769816
C0C660,楊梅,2021-11-30,24.912375,121.143047,0.0023297821
C0C670,龍潭,2021-11-30,24.870056,121.221389,0.0007751827
C0C680,龜山,2021-11-30,25.02846,121.38656,0.004774248
C0C700,中壢,2021-11-30,24.977661,121.256375,0.0020618464
C0C710,大溪永福,2021-11-30,24.892936,121.324975,0.003404937
C0C720,竹圍,2021-11-30,25.112692,121.239824,0.004887492
C0C730,中大臨海站,2021-11-30,24.966126,121.008581,0.0011995245
C0C740,觀音工業區,2021-11-30,25.064764,121.114856,0.0026330033
C0C750,新興坑尾,2021-11-30,25.0061,121.0971,0.0034158777
C0D430,峨眉,2021-11-30,24.6905,121.017189,0.0056069996
C0D480,打鐵坑,2021-11-30,24.849664,121.150789,0.00092282495
C0D540,橫山,2021-11-30,24.71116,121.11693,0.002785695
C0D560,竹東,2021-11-30,24.767147,121.057881,0.004720385
C0D580,寶山,2021-11-30,24.735006,121.025192,0.006720064
C0D590,新豐,2021-11-30,24.87068,120.97721,0.0029666133
C0D650,湖口,2021-11-30,24.904794,121.043628,0.0016699616
C0D660,新竹市東區,2021-11-30,24.798681,120.986942,0.0030982266
C0D670,海天一線,2021-11-30,24.831986,120.914438,0.0022464895
C0D680,香山濕地,2021-11-30,24.783581,120.914988,0.0023421706
C0D690,外湖,2021-11-30,24.917735,120.968711,0.0011995245
C0D700,關西,2021-11-30,24.7977,121.1732,0.0015820567
C0E420,竹南,2021-11-30,24.708978,120.888897,0.0027196477
C0E430,南庄,2021-11-30,24.601775,121.000214,0.007313423
C0E520,大湖,2021-11-30,24.41494,120.87087,0.0065376144
C0E540,後龍,2021-11-30,24.606489,120.783933,0.00080870185
C0E550,明德,2021-11-30,24.583486,120.885411,0.0042111888
C0E590,通霄,2021-11-30,24.471892,120.704622,0.0013177146
C0E730,頭份,2021-11-30,24.688247,120.912206,0.0027196477
C0E740,造橋,2021-11-30,24.637056,120.864778,0.0065953773
C0E750,苗栗,2021-11-30,24.564569,120.824575,0.00073853444
C0E780,銅鑼,2021-11-30,24.489681,120.790853,0.008156581
C0E791,卓蘭,2021-11-30,24.3126,120.8244,0.017115293
C0E810,西湖,2021-11-30,24.562947,120.7485,0.0007625806
C0E820,獅潭,2021-11-30,24.539133,120.920042,0.0022103293
C0E830,苑裡,2021-11-30,24.439714,120.653053,0.0017555709
C0E850,大河,2021-11-30,24.618069,120.948578,0.003253509
C0E870,高鐵苗栗,2021-11-30,24.60725,120.826094,0.00079235266
C0E910,海埔,2021-11-30,24.648767,120.772435,0.008598284
C0E920,通霄漁港,2021-11-30,24.498589,120.673876,0.0019919283
C0E930,龍鳳,2021-11-30,24.700034,120.859125,0.0077697765
C0F0B0,石岡,2021-11-30,24.276061,120.777644,0.08443592
C0F850,東勢,2021-11-30,24.246428,120.833047,0.017116327
C0F930,大甲,2021-11-30,24.347667,120.640403,0.0014658009
C0F970,大坑,2021-11-30,24.173142,120.722289,0.0014836963
C0F9A0,中竹林,2021-11-30,24.103556,120.751061,0.04273134
C0F9I0,神岡,2021-11-30,24.272481,120.658314,0.0050652726
C0F9K0,大安,2021-11-30,24.345061,120.588025,0.0030620482
C0F9L0,后里,2021-11-30,24.310436,120.729725,0.0022602538
C0F9M0,豐原,2021-11-30,24.254322,120.720692,0.0031525074
C0F9N0,大里,2021-11-30,24.092464,120.701378,0.0033581308
C0F9O0,潭子,2021-11-30,24.213106,120.703933,0.009243286
C0F9P0,清水,2021-11-30,24.312297,120.562242,0.0039269286
C0F9Q0,外埔,2021-11-30,24.347817,120.705686,0.010190087
C0F9R0,龍井,2021-11-30,24.184536,120.528972,0.0050742105
C0F9S0,烏日,2021-11-30,24.107058,120.624103,0.09099383
C0F9T0,西屯,2021-11-30,24.179494,120.641275,0.0017974286
C0F9U0,南屯,2021-11-30,24.137006,120.637969,0.0033581196
C0F9X0,大雅(中科園區),2021-11-30,24.21528,120.62445,0.0012025079
C0FA10,松柏,2021-11-30,24.429115,120.617482,0.0023357456
C0FA20,溫寮,2021-11-30,24.372177,120.583125,0.0023357456
C0FA30,梧棲,2021-11-30,24.256003,120.523381,0.0050742105
C0FA40,臺中電廠,2021-11-30,24.2146,120.4907,0.0050742105
C0FA50,霧峰,2021-11-30,24.0419,120.6995,0.0022135254
C0G620,芬園,2021-11-30,24.015678,120.6213,0.035685375
C0G640,鹿港,2021-11-30,24.0753,120.430481,0.0563099
C0G650,員林,2021-11-30,23.946503,120.585597,0.062306408
C0G660,溪湖,2021-11-30,23.94835,120.479122,0.03779275
C0G720,溪州,2021-11-30,23.851589,120.499093,0.059542935
C0G730,二林,2021-11-30,23.903325,120.376081,0.04844571
C0G740,大城,2021-11-30,23.852487,120.320935,0.06019232
C0G770,福興,2021-11-30,24.041289,120.437669,0.0563099
C0G780,秀水,2021-11-30,24.03405,120.503869,0.05574035
C0G800,埔鹽,2021-11-30,24.000394,120.431683,0.0563099
C0G810,埔心,2021-11-30,23.947633,120.525456,0.035257775
C0G820,田尾,2021-11-30,23.901669,120.509389,0.033211105
C0G830,埤頭,2021-11-30,23.866003,120.452806,0.06325044
C0G840,北斗,2021-11-30,23.877586,120.514222,0.033211105
C0G860,社頭,2021-11-30,23.897647,120.5862,0.05683274
C0G870,芳苑,2021-11-30,23.922303,120.320025,0.06559337
C0G880,二水,2021-11-30,23.810742,120.6173,0.06300207
C0G890,伸港,2021-11-30,24.148933,120.484403,0.008657161
C0G900,線西,2021-11-30,24.143358,120.443536,0.009746988
C0G910,花壇,2021-11-30,24.032076,120.549461,0.0488567
C0G920,永靖,2021-11-30,23.924703,120.547533,0.033211105
C0G940,竹塘,2021-11-30,23.848253,120.386764,0.13404827
C0G950,防潮門,2021-11-30,24.1835,120.4871,0.005887116
C0G960,福寶,2021-11-30,24.0443,120.3814,0.06004741
C0G970,三豐,2021-11-30,23.882,120.2895,0.06559331
C0H890,埔里,2021-11-30,23.972169,120.952425,0.18186252
C0H950,中寮,2021-11-30,23.884447,120.766406,0.03905884
C0H960,草屯,2021-11-30,23.973672,120.68085,0.09427741
C0I110,竹山,2021-11-30,23.761225,120.688156,0.06256717
C0I360,水里,2021-11-30,23.812553,120.849792,0.05578067
C0I380,集集,2021-11-30,23.828206,120.801467,0.0613226
C0I410,名間,2021-11-30,23.837053,120.701447,0.106776476
C0I420,國姓,2021-11-30,24.037803,120.855072,0.08057608
C0I460,南投,2021-11-30,23.911469,120.687331,0.09371039
C0K250,崙背,2021-11-30,23.75555,120.318925,0.047166806
C0K280,四湖,2021-11-30,23.630414,120.227125,0.04772984
C0K291,宜梧,2021-11-30,23.536281,120.169329,0.5148909
C0K330,虎尾,2021-11-30,23.719183,120.442036,0.19204473
C0K390,土庫,2021-11-30,23.679029,120.395574,0.19544134
C0K400,斗六,2021-11-30,23.720583,120.541127,0.16879481
C0K410,北港,2021-11-30,23.573957,120.292802,0.46140403
C0K420,西螺,2021-11-30,23.800407,120.467394,0.07573243
C0K430,褒忠,2021-11-30,23.690938,120.303634,0.12332343
C0K440,二崙,2021-11-30,23.772797,120.408944,0.13054034
C0K450,大埤,2021-11-30,23.646074,120.431537,0.17666191
C0K460,斗南,2021-11-30,23.678734,120.478359,0.17582609
C0K470,林內,2021-11-30,23.748675,120.609642,0.1135275
C0K480,莿桐,2021-11-30,23.761192,120.502372,0.073447846
C0K500,元長,2021-11-30,23.64981,120.315024,0.09945885
C0K510,水林,2021-11-30,23.572924,120.24597,0.22021097
C0K530,臺西,2021-11-30,23.701547,120.197559,0.042371478
C0K550,蔦松,2021-11-30,23.514319,120.229736,0.49169403
C0K560,棋山,2021-11-30,23.68645,120.603417,0.14296639
C0K580,高鐵雲林,2021-11-30,23.737456,120.417944,0.19544134
C0K590,雲林東勢,2021-11-30,23.674192,120.255721,0.12332343
C0K600,箔子寮,2021-11-30,23.6197,120.14,0.2313515
C0M410,馬頭山,2021-11-30,23.324361,120.582017,0.3412589
C0M520,東後寮,2021-11-30,23.369908,120.248065,0.6395796
C0M640,中埔,2021-11-30,23.42538,120.5229,0.28378502
C0M650,朴子,2021-11-30,23.43463,120.23902,0.57663906
C0M660,溪口,2021-11-30,23.604131,120.403569,0.028710369
C0M670,大林,2021-11-30,23.600616,120.45841,0.02598317
C0M680,太保,2021-11-30,23.455062,120.331455,0.7209619
C0M690,水上,2021-11-30,23.419734,120.388909,0.03231628
C0M700,竹崎,2021-11-30,23.526178,120.555508,0.0813541
C0M710,東石,2021-11-30,23.458927,120.15385,0.49169403
C0M720,番路,2021-11-30,23.464657,120.554156,0.11890691
C0M730,嘉義市東區,2021-11-30,23.457673,120.460531,0.012048426
C0M740,六腳,2021-11-30,23.492871,120.290625,0.7433148
C0M750,布袋,2021-11-30,23.380878,120.167789,0.57663906
C0M760,民雄,2021-11-30,23.551754,120.428457,0.020720681
C0M770,嘉義梅山,2021-11-30,23.585398,120.555587,0.121796764
C0M780,鹿草,2021-11-30,23.41134,120.30835,0.633256
C0M790,新港,2021-11-30,23.553269,120.345728,0.43221816
C0M800,茶山,2021-11-30,23.299075,120.664767,0.7048039
C0M880,好美里,2021-11-30,23.3364,120.138,0.5187448
C0N010,鯤鯓國小,2021-11-30,23.1879,120.0889,0.4571918
C0N020,城西,2021-11-30,23.0568,120.0956,0.5292502
C0N030,四草,2021-11-30,23.0235,120.1116,0.715208
C0N040,蘆竹溝,2021-11-30,23.2344,120.0961,0.45719138
C0N050,蚵寮,2021-11-30,23.301,120.1104,0.4571918
C0O810,曾文,2021-11-30,23.219681,120.497328,0.15107292
C0O830,北寮,2021-11-30,23.079561,120.495008,0.46089023
C0O840,王爺宮,2021-11-30,23.222064,120.40085,0.15107292
C0O860,大內,2021-11-30,23.11885,120.36083,0.78324395
C0O900,善化,2021-11-30,23.112883,120.297219,0.7208605
C0O930,玉井,2021-11-30,23.126042,120.46055,0.51005715
C0O950,安南,2021-11-30,23.076694,120.144861,0.49700496
C0O960,崎頂,2021-11-30,22.959547,120.369317,0.38293982
C0O970,虎頭埤,2021-11-30,23.021375,120.347878,0.79352874
C0O980,新市,2021-11-30,23.061614,120.298197,0.7208605
C0O990,媽廟,2021-11-30,22.99175,120.293525,0.8160896
C0R150,三地門,2021-11-30,22.709889,120.639944,0.5926526
C0R160,鹽埔,2021-11-30,22.739558,120.530778,0.56089693
C0R170,屏東,2021-11-30,22.660269,120.494072,0.90704745
C0R190,赤山,2021-11-30,22.592333,120.614306,0.37198
C0R220,潮州,2021-11-30,22.534361,120.54,0.2055617
C0R240,來義,2021-11-30,22.527306,120.625111,0.15774953
C0R260,春日,2021-11-30,22.370361,120.628306,0.1787452
C0R270,琉球嶼,2021-11-30,22.332244,120.362236,0.17387697
C0R280,檳榔,2021-11-30,22.076078,120.836777,0.00036677046
C0R320,車城,2021-11-30,22.0744,120.716247,0.008568106
C0R341,牡丹,2021-11-30,22.130036,120.792639,0.08169854
C0R350,貓鼻頭,2021-11-30,21.921774,120.7358,0.0046532676
C0R470,高樹,2021-11-30,22.826389,120.600806,0.54241353
C0R480,長治,2021-11-30,22.693128,120.542622,0.5712879
C0R490,九如,2021-11-30,22.7405,120.490503,0.9092111
C0R520,崁頂,2021-11-30,22.514781,120.506914,0.58596444
C0R540,佳冬,2021-11-30,22.419456,120.552375,0.58611375
C0R550,新埤,2021-11-30,22.467947,120.582894,0.37015164
C0R560,新園,2021-11-30,22.5434,120.461558,0.58596444
C0R570,麟洛,2021-11-30,22.65078,120.52719,0.9092111
C0R580,南州,2021-11-30,22.48591,120.50274,0.58611375
C0R590,里港,2021-11-30,22.77919,120.49459,0.5957676
C0R620,墾雷,2021-11-30,21.900836,120.855269,0.00465327
C0R640,東港,2021-11-30,22.46247,120.44074,0.6353807
C0R650,竹田,2021-11-30,22.58486,120.54344,0.36760432
C0R660,枋寮,2021-11-30,22.367722,120.590647,0.21537986
C0R670,楓港,2021-11-30,22.190131,120.692156,0.21081439
C0R680,佳樂水,2021-11-30,21.993578,120.861633,0.0063415538
C0R690,墾丁,2021-11-30,21.966756,120.810269,0.00027993275
C0R700,枋山,2021-11-30,22.246844,120.661086,0.21081439
C0R710,龍磐,2021-11-30,21.931672,120.838942,0.0010485847
C0R720,旭海,2021-11-30,22.205403,120.887614,0.036845885
C0R730,大坪頂,2021-11-30,22.024633,120.69355,0.0013515888
C0R740,獅子,2021-11-30,22.201569,120.70525,0.1754085
C0R760,南仁湖,2021-11-30,22.084681,120.863353,0.0002238857
C0R770,保力,2021-11-30,22.071122,120.764111,0.002105609
C0R780,滿州,2021-11-30,22.024403,120.839892,0.0040027616
C0R790,九棚,2021-11-30,22.14195,120.889281,0.05876539
C0R800,丹路,2021-11-30,22.204481,120.750989,0.12078978
C0R810,內獅,2021-11-30,22.305064,120.642986,0.21939795
C0R830,高士,2021-11-30,22.121825,120.836781,0.00014983112
C0R850,林邊,2021-11-30,22.4634,120.5339,0.58596444
C0R860,鼻頭,2021-11-30,22.1043,120.8979,0.0034460498
C0R870,興海,2021-11-30,21.9752,120.8439,0.0063415538
C0R880,後壁湖,2021-11-30,21.9457,120.7457,0.009974351
C0R890,山海,2021-11-30,21.9878,120.7091,0.008568106
C0R900,竹坑,2021-11-30,22.1385,120.7022,0.20560864
C0R910,下寮,2021-11-30,22.3929,120.5548,0.58611375
C0R920,塭仔,2021-11-30,22.4169,120.5197,0.5858716
C0R930,萬丹,2021-11-30,22.5885,120.4851,0.36760432
C0R940,加祿堂,2021-11-30,22.3363,120.6217,0.21939795
C0S710,鹿野,2021-11-30,22.917711,121.122994,0.47102818
C0S730,綠島,2021-11-30,22.6672,121.47533,0.7498865
C0S740,池上,2021-11-30,23.119628,121.209469,0.6632569
C0S770,大溪山,2021-11-30,22.478475,120.943325,0.19104731
C0S790,金崙,2021-11-30,22.538122,120.966875,0.3880425
C0S810,東河,2021-11-30,22.972672,121.303986,0.74430716
C0S830,長濱,2021-11-30,23.286817,121.411975,0.2381165
C0S840,南田,2021-11-30,22.279725,120.889208,0.25225803
C0S890,關山,2021-11-30,23.0395,121.175017,0.6154253
C0S900,蘭嶼高中,2021-11-30,22.04909,121.51214,0.26712137
C0S910,蘭嶼燈塔,2021-11-30,22.081197,121.503117,0.018563494
C0S920,金峰嘉蘭,2021-11-30,22.594789,120.960825,0.4921192
C0S930,延平,2021-11-30,22.902581,121.084058,0.56331956
C0S940,石寧山,2021-11-30,23.223772,121.406639,0.5503555
C0S950,七塊厝,2021-11-30,22.954453,121.229922,0.39585564
C0S960,香蘭,2021-11-30,22.587569,120.993375,0.59427047
C0S970,加津林,2021-11-30,22.416211,120.926942,0.37961438
C0S990,山豬窟,2021-11-30,22.318619,120.857372,0.0033493743
C0SA00,歷坵,2021-11-30,22.520969,120.89185,0.092695944
C0SA10,檳榔四格山,2021-11-30,22.810031,121.109308,0.038648896
C0SA30,都歷,2021-11-30,23.020333,121.323642,0.7846408
C0SA40,瑞和,2021-11-30,22.974361,121.156697,0.64953077
C0SA60,知本（水試所）,2021-11-30,22.702394,121.082761,0.40495864
C0SA80,土坂,2021-11-30,22.453108,120.887572,0.4454994
C0SA90,達仁林場,2021-11-30,22.264347,120.823972,0.016248167
C0T870,鯉魚潭,2021-11-30,23.935639,121.508944,0.84533453
C0T900,西林,2021-11-30,23.8119,121.441458,0.80814075
C0T960,光復,2021-11-30,23.660694,121.424964,0.7486629
C0T9A0,月眉山,2021-11-30,23.809928,121.539828,0.29875952
C0T9D0,和中,2021-11-30,24.26676,121.74103,0.7078391
C0T9E0,大坑,2021-11-30,23.880628,121.581981,0.5056489
C0T9F0,水璉,2021-11-30,23.797131,121.542514,0.6561951
C0T9I0,豐濱,2021-11-30,23.583897,121.514806,0.74152994
C0T9M0,靜浦,2021-11-30,23.455167,121.495028,0.81667787
C0T9N0,富里,2021-11-30,23.171639,121.249378,0.049518146
C0U600,礁溪,2021-11-30,24.817539,121.765608,0.006746696
C0U650,玉蘭,2021-11-30,24.675286,121.587061,0.0060866284
C0U750,龜山島,2021-11-30,24.841667,121.953133,0.00634707
C0U760,東澳,2021-11-30,24.52196,121.83318,0.05514576
C0U770,南澳,2021-11-30,24.44935,121.81022,0.2927798
C0U780,五結,2021-11-30,24.68637,121.79794,0.03252922
C0U860,頭城,2021-11-30,24.85323,121.8308,0.0070827235
C0U870,大礁溪,2021-11-30,24.791042,121.675047,0.0038739755
C0U880,北關,2021-11-30,24.9072,121.8734,0.0027561896
C0U890,三星,2021-11-30,24.66812,121.65302,0.0043116407
C0U900,內城,2021-11-30,24.71813,121.68766,0.005827795
C0U910,冬山,2021-11-30,24.63373,121.7937,0.03252922
C0U940,羅東,2021-11-30,24.68184,121.74934,0.027928103
C0U970,大福,2021-11-30,24.80064,121.81389,0.0074708653
C0U990,員山,2021-11-30,24.74435,121.72247,0.027928103
C0UA00,土場,2021-11-30,24.576533,121.495333,0.009438969
C0UA80,大溪漁港,2021-11-30,24.941801,121.902955,0.006746696
C0UA90,石城,2021-11-30,24.980444,121.951214,0.009321
C0UB00,淡江大學蘭陽校園,2021-11-30,24.823239,121.730383,0.003740748
C0UB10,蘇澳,2021-11-30,24.5969,121.8571,0.26439923
C0UB20,壯圍,2021-11-30,24.7359,121.8163,0.036091093
C0V250,甲仙,2021-11-30,23.080106,120.591758,0.3331349
C0V260,月眉,2021-11-30,22.971003,120.539853,0.4988382
C0V310,美濃,2021-11-30,22.898742,120.519153,0.8767489
C0V350,溪埔,2021-11-30,22.738578,120.446797,0.7874656
C0V360,內門,2021-11-30,22.975481,120.466769,0.8119375
C0V370,古亭坑,2021-11-30,22.893178,120.401947,0.8428921
C0V400,阿公店,2021-11-30,22.804194,120.355528,0.8720581
C0V440,鳳山,2021-11-30,22.646653,120.356122,0.63049257
C0V450,鳳森,2021-11-30,22.545064,120.392592,0.22577496
C0V490,新興,2021-11-30,22.627422,120.298803,0.633978
C0V530,阿蓮,2021-11-30,22.883208,120.327508,0.83559495
C0V610,梓官,2021-11-30,22.760558,120.267211,0.7185403
C0V620,永安,2021-11-30,22.82315,120.236856,0.6347516
C0V630,茄萣,2021-11-30,22.906642,120.182608,0.6744755
C0V640,湖內,2021-11-30,22.887139,120.2445,0.66972715
C0V650,彌陀,2021-11-30,22.783806,120.246361,0.6347516
C0V660,岡山,2021-11-30,22.797078,120.294958,0.7185405
C0V680,仁武,2021-11-30,22.701083,120.347722,0.5776326
C0V690,鼓山,2021-11-30,22.623325,120.275575,0.633978
C0V700,三民,2021-11-30,22.645017,120.311233,0.633978
C0V710,苓雅,2021-11-30,22.622742,120.330669,0.633978
C0V720,林園,2021-11-30,22.507747,120.394511,0.633978
C0V730,大寮,2021-11-30,22.605614,120.395717,0.2481922
C0V740,旗山,2021-11-30,22.888614,120.483597,0.86834174
C0V750,路竹,2021-11-30,22.854997,120.259439,0.8122053
C0V760,橋頭,2021-11-30,22.757806,120.30575,0.71821815
C0V770,大社,2021-11-30,22.730306,120.346639,0.5776326
C0V790,萬山,2021-11-30,22.905944,120.688056,0.78222466
C0V800,六龜,2021-11-30,22.997889,120.633583,0.5960941
C0V810,左營,2021-11-30,22.67491,120.28491,0.5856314
C0V820,小林,2021-11-30,23.148408,120.63325,0.7487487
C0V840,鳳鼻頭,2021-11-30,22.5083,120.3591,0.6353807
C0V850,蚵仔寮,2021-11-30,22.7256,120.2527,0.5943109
C0V860,南寮,2021-11-30,22.7616,120.2339,0.63989496
C0V870,文安,2021-11-30,22.8025,120.2164,0.63989496
C0V880,興達,2021-11-30,22.8778,120.2127,0.6744755
C0V890,前鎮,2021-11-30,22.5718,120.3117,0.6353807
C0V900,汕尾,2021-11-30,22.4782,120.4151,0.8217424
C0X050,東河,2021-11-30,23.296598,120.385608,0.5772098
C0X060,下營,2021-11-30,23.22695,120.256261,0.66210586
C0X080,佳里,2021-11-30,23.173039,120.145086,0.5187446
C0X100,臺南市北區,2021-11-30,23.010394,120.194228,0.6871895
C0X110,臺南市南區,2021-11-30,22.961189,120.188378,0.68241304
C0X120,麻豆,2021-11-30,23.183289,120.248611,0.5024415
C0X130,官田,2021-11-30,23.193217,120.315422,0.6313562
C0X140,西港,2021-11-30,23.125608,120.203108,0.5868227
C0X150,安定,2021-11-30,23.102614,120.227839,0.55237824
C0X160,仁德,2021-11-30,22.968258,120.257689,0.81852084
C0X170,關廟,2021-11-30,22.963017,120.327797,0.80681556
C0X180,山上,2021-11-30,23.0757,120.363253,0.6111296
C0X190,安平,2021-11-30,22.993161,120.152181,0.6871895
C0X200,左鎮,2021-11-30,23.056758,120.408522,0.64622104
C0X210,白河,2021-11-30,23.347466,120.414427,0.54590875
C0X220,學甲,2021-11-30,23.230367,120.182187,0.5024415
C0X230,鹽水,2021-11-30,23.272621,120.247641,0.5779363
C0X240,關子嶺,2021-11-30,23.331169,120.508025,0.12528878
C0X250,新營,2021-11-30,23.310689,120.316681,0.73748845
C0X260,後壁,2021-11-30,23.366358,120.362326,0.5020983
C0X280,將軍,2021-11-30,23.214999,120.13577,0.5187448
C0X290,北門,2021-11-30,23.267772,120.125481,0.5187448
C0X300,鹿寮,2021-11-30,23.386047,120.477331,0.6147723
C0X310,七股,2021-11-30,23.147289,120.086253,0.49232474
C0X320,柳營,2021-11-30,23.253328,120.375253,0.5772098
C0Z020,明里,2021-11-30,23.208717,121.262342,0.31114092
C0Z061,玉里,2021-11-30,23.3215,121.339656,0.3848398
C0Z070,舞鶴,2021-11-30,23.46811,121.37407,0.6545124
C0Z080,富源,2021-11-30,23.587642,121.378225,0.648854
C0Z100,東華,2021-11-30,23.89525,121.549833,0.8824841
C0Z150,吉安光華,2021-11-30,23.930925,121.595153,0.8806201
C0Z160,鳳林,2021-11-30,23.746114,121.453411,0.77282095
C0Z170,卓溪,2021-11-30,23.3443,121.3029,0.29874757
C0Z180,新城,2021-11-30,24.03946,121.60454,0.82069206
C0Z190,富世,2021-11-30,24.14743,121.6297,0.7977379
C0Z200,萬榮,2021-11-30,23.709219,121.420106,0.84533453
C0Z210,瑞穗,2021-11-30,23.5239,121.39021,0.7760497
C0Z230,和平,2021-11-30,24.30717,121.77007,0.70783913
C0Z270,蕃薯寮,2021-11-30,23.73835,121.540108,0.7813479
C0Z280,德武,2021-11-30,23.47426,121.41071,0.7604816
C0Z300,東里,2021-11-30,23.26853,121.30547,0.34108743
C0Z310,清水斷崖,2021-11-30,24.218294,121.689142,0.48705178
C0Z330,安通山,2021-11-30,23.290728,121.348528,0.17214458
