站號,站名,日期,lat,lon,BlastGRU-TW
466881,新北,2021-08-21,24.9593,121.52,0.9370419
466900,淡水,2021-08-21,25.164889,121.448906,0.96018595
466920,臺北,2021-08-21,25.037658,121.514853,0.92449516
467441,高雄,2021-08-21,22.7304,120.3125,0.96590495
467480,嘉義,2021-08-21,23.495925,120.432906,0.9991125
467490,臺中,2021-08-21,24.145736,120.684075,0.99971247
C0A530,坪林,2021-08-21,24.938183,121.70975,0.99443066
C0A540,四堵,2021-08-21,24.8926,121.745736,0.6210204
C0A550,泰平,2021-08-21,24.971197,121.823711,0.7635847
C0A890,雙溪,2021-08-21,25.036003,121.864242,0.9359802
C0A920,富貴角,2021-08-21,25.263783,121.565258,0.9845417
C0A931,三和,2021-08-21,25.233153,121.595236,0.954123
C0AC70,信義,2021-08-21,25.037822,121.564597,0.9244951
C0AC80,文山,2021-08-21,25.00235,121.575728,0.95455897
C0ACA0,新莊,2021-08-21,25.051478,121.446756,0.9346162
C0AH50,林口,2021-08-21,25.072181,121.38084,0.45696336
C0AH70,松山,2021-08-21,25.04871,121.55042,0.9244951
C0AH80,深坑,2021-08-21,25.002703,121.628328,0.95455897
C0AJ60,六塊厝,2021-08-21,25.24,121.4481,0.955786
C0AJ70,田寮,2021-08-21,25.2698,121.4886,0.9651085
