站號,站名,日期,lat,lon,BlastGRU-TW
466881,新北,2021-07-19,24.9593,121.52,0.42797124
466900,淡水,2021-07-19,25.164889,121.448906,0.6845402
466920,臺北,2021-07-19,25.037658,121.514853,0.4130206
467441,高雄,2021-07-19,22.7304,120.3125,0.63124347
467480,嘉義,2021-07-19,23.495925,120.432906,0.94647294
467490,臺中,2021-07-19,24.145736,120.684075,0.93971044
C0A540,四堵,2021-07-19,24.8926,121.745736,0.14262769
C0A550,泰平,2021-07-19,24.971197,121.823711,0.14685313
C0A560,福山,2021-07-19,24.776203,121.502811,0.15586287
C0A931,三和,2021-07-19,25.233153,121.595236,0.12181304
C0A940,金山,2021-07-19,25.223628,121.643967,0.6378887
C0A950,鼻頭角,2021-07-19,25.129036,121.923372,0.06203699
C0AD10,八里,2021-07-19,25.150211,121.403947,0.6845402
C0AD30,蘆洲,2021-07-19,25.086594,121.472331,0.51236224
C0AD40,土城,2021-07-19,24.973208,121.445169,0.520349
C0AI10,屈尺,2021-07-19,24.92184,121.54475,0.45150453
C0AI20,白沙灣,2021-07-19,25.283128,121.519058,0.62125236
C0AI30,三重,2021-07-19,25.057328,121.500629,0.51236224
C0B010,七堵,2021-07-19,25.094819,121.71713,0.41160533
C0B020,基隆嶼,2021-07-19,25.19141,121.78391,0.3967639
