站號,站名,日期,lat,lon,BlastGRU-TW
466881,新北,2021-03-19,24.9593,121.52,0.028016103
466900,淡水,2021-03-19,25.164889,121.448906,0.012956116
466920,臺北,2021-03-19,25.037658,121.514853,0.03288865
467350,澎湖,2021-03-19,23.565503,119.563094,0.0005260963
467410,臺南,2021-03-19,22.993239,120.204772,0.5671935
467420,永康,2021-03-19,23.038386,120.2367,0.5787544
467790,墾丁雷達站,2021-03-19,21.948235,120.808028,0.21816728
C0A520,山佳,2021-03-19,24.974944,121.402008,0.015789747
C0A530,坪林,2021-03-19,24.938183,121.70975,0.027600355
C0A880,福隆,2021-03-19,25.017842,121.942083,0.21323805
C0A890,雙溪,2021-03-19,25.036003,121.864242,0.047279228
C0A920,富貴角,2021-03-19,25.263783,121.565258,0.0066474546
C0AC80,文山,2021-03-19,25.00235,121.575728,0.022261279
C0ACA0,新莊,2021-03-19,25.051478,121.446756,0.021780433
C0AD00,三芝,2021-03-19,25.258131,121.501917,0.0056469236
C0AH70,松山,2021-03-19,25.04871,121.55042,0.03288865
C0AH80,深坑,2021-03-19,25.002703,121.628328,0.022261279
C0AI00,五股,2021-03-19,25.07445,121.42728,0.0037213853
C0AJ70,田寮,2021-03-19,25.2698,121.4886,0.01071485
