站號,站名,日期,lat,lon,BlastGRU-TW
466881,新北,2021-10-23,24.9593,121.52,0.043935813
466900,淡水,2021-10-23,25.164889,121.448906,0.041700523
466920,臺北,2021-10-23,25.037658,121.514853,0.033833846
467350,澎湖,2021-10-23,23.565503,119.563094,0.9054417
467410,臺南,2021-10-23,22.993239,120.204772,0.6111431
467420,永康,2021-10-23,23.038386,120.2367,0.57244176
467790,墾丁雷達站,2021-10-23,21.948235,120.808028,0.8380603
C0A520,山佳,2021-10-23,24.974944,121.402008,0.06898888
C0A530,坪林,2021-10-23,24.938183,121.70975,0.8495642
C0A880,福隆,2021-10-23,25.017842,121.942083,0.027263707
C0A890,雙溪,2021-10-23,25.036003,121.864242,0.03317285
C0A920,富貴角,2021-10-23,25.263783,121.565258,0.20996106
C0AC80,文山,2021-10-23,25.00235,121.575728,0.0676416
C0ACA0,新莊,2021-10-23,25.051478,121.446756,0.03056432
C0AD00,三芝,2021-10-23,25.258131,121.501917,0.14231677
C0AH70,松山,2021-10-23,25.04871,121.55042,0.03383388
C0AH80,深坑,2021-10-23,25.002703,121.628328,0.0676416
C0AI00,五股,2021-10-23,25.07445,121.42728,0.23616883
C0AJ70,田寮,2021-10-23,25.2698,121.4886,0.062652245
