站號,站名,日期,lat,lon,BlastGRU-TW
466881,新北,2021-03-07,24.9593,121.52,0.02511364
466900,淡水,2021-03-07,25.164889,121.448906,0.018931849
466920,臺北,2021-03-07,25.037658,121.514853,0.02869939
467441,高雄,2021-03-07,22.7304,120.3125,0.04649869
467480,嘉義,2021-03-07,23.495925,120.432906,0.00705261
467490,臺中,2021-03-07,24.145736,120.684075,0.0064692465
C0A530,坪林,2021-03-07,24.938183,121.70975,0.014990022
C0A540,四堵,2021-03-07,24.8926,121.745736,0.010015826
C0A550,泰平,2021-03-07,24.971197,121.823711,0.012035242
C0A890,雙溪,2021-03-07,25.036003,121.864242,0.024765743
C0A920,富貴角,2021-03-07,25.263783,121.565258,0.010539847
C0A931,三和,2021-03-07,25.233153,121.595236,0.018947441
C0AC70,信義,2021-03-07,25.037822,121.564597,0.02869939
C0AC80,文山,2021-03-07,25.00235,121.575728,0.020649021
C0ACA0,新莊,2021-03-07,25.051478,121.446756,0.02590504
C0AH50,林口,2021-03-07,25.072181,121.38084,0.010757213
C0AH70,松山,2021-03-07,25.04871,121.55042,0.02869939
C0AH80,深坑,2021-03-07,25.002703,121.628328,0.020649001
C0AJ60,六塊厝,2021-03-07,25.24,121.4481,0.020030998
C0AJ70,田寮,2021-03-07,25.2698,121.4886,0.015360984
