站號,站名,日期,lat,lon,BlastGRU-TW
12J990,口湖工作站,2021-02-28,23.589978,120.180394,0.015711693
12Q970,東港工作站,2021-02-28,22.479997,120.466058,0.21199252
12Q980,恆春工作站,2021-02-28,22.079678,120.714425,0.00029335718
466881,新北,2021-02-28,24.9593,121.52,0.0101244645
466900,淡水,2021-02-28,25.164889,121.448906,0.005081105
466920,臺北,2021-02-28,25.037658,121.514853,0.011192592
466940,基隆,2021-02-28,25.133314,121.740475,0.0054206443
466990,花蓮,2021-02-28,23.975128,121.613275,0.05326914
467050,新屋,2021-02-28,25.006744,121.047486,0.0022737647
467060,蘇澳,2021-02-28,24.596736,121.857372,0.59950554
467080,宜蘭,2021-02-28,24.763975,121.756528,0.055187184
467270,田中,2021-02-28,23.873803,120.581286,0.024825567
467300,東吉島,2021-02-28,23.25695,119.667467,0.0006993735
467350,澎湖,2021-02-28,23.565503,119.563094,0.0005737604
467410,臺南,2021-02-28,22.993239,120.204772,0.14979681
467420,永康,2021-02-28,23.038386,120.2367,0.15761462
467441,高雄,2021-02-28,22.7304,120.3125,0.21590695
467480,嘉義,2021-02-28,23.495925,120.432906,0.0038040641
467490,臺中,2021-02-28,24.145736,120.684075,0.002248918
467540,大武,2021-02-28,22.355675,120.903789,0.24485813
467571,新竹,2021-02-28,24.827853,121.014219,0.0017216532
467590,恆春,2021-02-28,22.003897,120.746339,0.00023835825
467610,成功,2021-02-28,23.097486,121.373428,0.41137734
467620,蘭嶼,2021-02-28,22.036969,121.558339,0.00012405466
467660,臺東,2021-02-28,22.752211,121.154586,0.10264934
467790,墾丁雷達站,2021-02-28,21.948235,120.808028,0.00019024874
72AI40,桃改臺北分場,2021-02-28,24.944503,121.386972,0.006778538
72C440,桃園農改,2021-02-28,24.950944,121.030583,0.0020953903
72D680,桃園農改場新埔工作站,2021-02-28,24.834444,121.066111,0.0026080927
72G600,臺中農改,2021-02-28,24.003028,120.534389,0.008605311
72K220,雲林分場,2021-02-28,23.634556,120.477333,0.040394217
72M360,義竹分場,2021-02-28,23.360694,120.279361,0.03391192
72M700,嘉義分場,2021-02-28,23.416869,120.283061,0.026962131
72N100,臺南農改,2021-02-28,23.0605,120.342194,0.06396099
72N240,七股研究中心,2021-02-28,23.081672,120.062894,0.11749605
72Q010,高雄農改,2021-02-28,22.709333,120.525889,0.14754315
72S200,斑鳩分場,2021-02-28,22.829528,121.077694,0.012547195
72S590,賓朗農改,2021-02-28,22.813889,121.071278,0.008741099
72T250,花蓮農改,2021-02-28,23.975222,121.563889,0.043555576
72U480,蘭陽分場,2021-02-28,24.686306,121.716583,0.18589891
72V140,旗南農改,2021-02-28,22.857861,120.516667,0.040286746
82A750,文山茶改,2021-02-28,24.955778,121.631222,0.028058404
82C160,茶改場,2021-02-28,24.908472,121.185333,0.0015904406
82H840,凍頂茶改,2021-02-28,23.762528,120.7405,0.0040548095
82S580,臺東茶改,2021-02-28,22.907694,121.130139,0.045091696
A2C560,農工中心,2021-02-28,24.985917,121.239833,0.001491447
A2K360,臺西水試所,2021-02-28,23.717231,120.190522,0.00670533
A2K570,古坑花卉中心,2021-02-28,23.63353,120.55239,0.021126488
A2K630,臺大雲林校區,2021-02-28,23.730628,120.423903,0.0326882
A2N290,臺南蘭花園區,2021-02-28,23.340258,120.379661,0.010490428
B2E890,新竹畜試,2021-02-28,24.527806,120.770972,0.0012644015
B2N890,畜試所,2021-02-28,23.058972,120.336406,0.06396099
B2Q810,恆春畜試,2021-02-28,21.945583,120.802167,0.00025419905
B2U990,宜蘭畜試,2021-02-28,24.669039,121.832561,0.21419507
C0A520,山佳,2021-02-28,24.974944,121.402008,0.006778538
C0A530,坪林,2021-02-28,24.938183,121.70975,0.017653061
C0A540,四堵,2021-02-28,24.8926,121.745736,0.008832524
C0A550,泰平,2021-02-28,24.971197,121.823711,0.023222286
C0A560,福山,2021-02-28,24.776203,121.502811,0.028058404
C0A570,桶後,2021-02-28,24.848222,121.597992,0.008741682
C0A640,石碇,2021-02-28,24.993969,121.662917,0.036879893
C0A650,火燒寮,2021-02-28,25.002719,121.742892,0.027653249
C0A660,瑞芳,2021-02-28,25.113169,121.801147,0.056977287
C0A770,科教館,2021-02-28,25.096356,121.516507,0.0076114433
C0A860,大坪,2021-02-28,25.165914,121.632969,0.007406659
C0A880,福隆,2021-02-28,25.017842,121.942083,0.112710014
C0A890,雙溪,2021-02-28,25.036003,121.864242,0.0046682814
C0A920,富貴角,2021-02-28,25.263783,121.565258,0.0038111613
C0A931,三和,2021-02-28,25.233153,121.595236,0.028928826
C0A940,金山,2021-02-28,25.223628,121.643967,0.0038760595
C0A950,鼻頭角,2021-02-28,25.129036,121.923372,0.12222823
C0A970,三貂角,2021-02-28,25.007606,122.002058,0.04113262
C0A980,社子,2021-02-28,25.109508,121.469681,0.007959194
C0A9C0,天母,2021-02-28,25.117494,121.537169,0.007025278
C0A9F0,內湖,2021-02-28,25.079422,121.57545,0.011192592
C0AC60,三峽,2021-02-28,24.939025,121.369728,0.009606244
C0AC70,信義,2021-02-28,25.037822,121.564597,0.011192592
C0AC80,文山,2021-02-28,25.00235,121.575728,0.008724184
C0ACA0,新莊,2021-02-28,25.051478,121.446756,0.0073519107
C0AD00,三芝,2021-02-28,25.258131,121.501917,0.0035196934
C0AD10,八里,2021-02-28,25.150211,121.403947,0.005081105
C0AD30,蘆洲,2021-02-28,25.086594,121.472331,0.0076114433
C0AD40,土城,2021-02-28,24.973208,121.445169,0.0073359134
C0AD50,鶯歌,2021-02-28,24.951533,121.346294,0.0046076034
C0AG80,中和,2021-02-28,24.991622,121.491792,0.011192592
C0AH00,汐止,2021-02-28,25.066881,121.658778,0.0052379146
C0AH10,永和,2021-02-28,25.01125,121.508111,0.011739957
C0AH40,平等,2021-02-28,25.129142,121.577086,0.00768994
C0AH50,林口,2021-02-28,25.072181,121.38084,0.0129103875
C0AH70,松山,2021-02-28,25.04871,121.55042,0.011192592
C0AH80,深坑,2021-02-28,25.002703,121.628328,0.008724184
C0AI00,五股,2021-02-28,25.07445,121.42728,0.0017848349
C0AI10,屈尺,2021-02-28,24.92184,121.54475,0.008724184
C0AI20,白沙灣,2021-02-28,25.283128,121.519058,0.0040530306
C0AI30,三重,2021-02-28,25.057328,121.500629,0.0076114433
C0AI40,石牌,2021-02-28,25.115597,121.513139,0.0073359134
C0AJ10,澳底,2021-02-28,25.057107,121.927272,0.13054034
C0AJ20,野柳,2021-02-28,25.20703,121.690021,0.0052379146
C0AJ30,淡水觀海,2021-02-28,25.184591,121.408616,0.0052542835
C0AJ40,石門,2021-02-28,25.273672,121.601198,0.0028368048
C0AJ50,水湳洞,2021-02-28,25.123695,121.862238,0.0052379146
C0AJ60,六塊厝,2021-02-28,25.24,121.4481,0.0052542835
C0AJ70,田寮,2021-02-28,25.2698,121.4886,0.0041239294
C0AJ80,板橋,2021-02-28,25.0107,121.4489,0.0073359134
C0B010,七堵,2021-02-28,25.094819,121.71713,0.004938705
C0B020,基隆嶼,2021-02-28,25.19141,121.78391,0.0052379146
C0B040,大武崙,2021-02-28,25.166676,121.706993,0.004938705
C0B050,八斗子,2021-02-28,25.144754,121.79167,0.0055687814
C0B060,暖暖,2021-02-28,25.0957,121.7403,0.004330258
C0C460,復興,2021-02-28,24.820208,121.352281,0.008155181
C0C480,桃園,2021-02-28,24.992425,121.323172,0.0019504192
C0C490,八德,2021-02-28,24.928708,121.283289,0.0032575612
C0C590,觀音,2021-02-28,25.027072,121.153317,0.0036201114
C0C620,蘆竹,2021-02-28,25.084275,121.265767,0.0047860914
C0C630,大溪,2021-02-28,24.882853,121.265547,0.0025798539
C0C650,平鎮,2021-02-28,24.897503,121.214636,0.0015904406
C0C660,楊梅,2021-02-28,24.912375,121.143047,0.0012736643
C0C670,龍潭,2021-02-28,24.870056,121.221389,0.0014270296
C0C680,龜山,2021-02-28,25.02846,121.38656,0.017264204
C0C700,中壢,2021-02-28,24.977661,121.256375,0.0017847696
C0C710,大溪永福,2021-02-28,24.892936,121.324975,0.001410374
C0C720,竹圍,2021-02-28,25.112692,121.239824,0.005081105
C0C730,中大臨海站,2021-02-28,24.966126,121.008581,0.0025642358
C0C740,觀音工業區,2021-02-28,25.064764,121.114856,0.0012774811
C0C750,新興坑尾,2021-02-28,25.0061,121.0971,0.0010771566
C0D390,關西,2021-02-28,24.798228,121.173947,0.0019203284
C0D430,峨眉,2021-02-28,24.6905,121.017189,0.001715756
C0D480,打鐵坑,2021-02-28,24.849664,121.150789,0.0020901423
C0D540,橫山,2021-02-28,24.71116,121.11693,0.0014859169
C0D560,竹東,2021-02-28,24.767147,121.057881,0.0021763484
C0D580,寶山,2021-02-28,24.735006,121.025192,0.002029587
C0D590,新豐,2021-02-28,24.87068,120.97721,0.002505773
C0D650,湖口,2021-02-28,24.904794,121.043628,0.0017128795
C0D660,新竹市東區,2021-02-28,24.798681,120.986942,0.0016582648
C0D670,海天一線,2021-02-28,24.831986,120.914438,0.0014184477
C0D680,香山濕地,2021-02-28,24.783581,120.914988,0.0014021411
C0D690,外湖,2021-02-28,24.917735,120.968711,0.0025642358
C0E420,竹南,2021-02-28,24.708978,120.888897,0.0013284417
C0E430,南庄,2021-02-28,24.601775,121.000214,0.0017538002
C0E520,大湖,2021-02-28,24.41494,120.87087,0.001271597
C0E540,後龍,2021-02-28,24.606489,120.783933,0.001683933
C0E550,明德,2021-02-28,24.583486,120.885411,0.0018640343
C0E590,通霄,2021-02-28,24.471892,120.704622,0.0014242729
C0E730,頭份,2021-02-28,24.688247,120.912206,0.0013284417
C0E740,造橋,2021-02-28,24.637056,120.864778,0.002532736
C0E750,苗栗,2021-02-28,24.564569,120.824575,0.0014689623
C0E780,銅鑼,2021-02-28,24.489681,120.790853,0.0023048916
C0E791,卓蘭,2021-02-28,24.3126,120.8244,0.0042673433
C0E810,西湖,2021-02-28,24.562947,120.7485,0.0015509166
C0E820,獅潭,2021-02-28,24.539133,120.920042,0.002397852
C0E830,苑裡,2021-02-28,24.439714,120.653053,0.0020651892
C0E850,大河,2021-02-28,24.618069,120.948578,0.0017443467
C0E870,高鐵苗栗,2021-02-28,24.60725,120.826094,0.0016395875
C0E910,海埔,2021-02-28,24.648767,120.772435,0.0025583971
C0E920,通霄漁港,2021-02-28,24.498589,120.673876,0.0016790639
C0E930,龍鳳,2021-02-28,24.700034,120.859125,0.0028605803
C0F000,大肚,2021-02-28,24.15295,120.572117,0.0044977353
C0F0B0,石岡,2021-02-28,24.276061,120.777644,0.009960744
C0F850,東勢,2021-02-28,24.246428,120.833047,0.0031930814
C0F930,大甲,2021-02-28,24.347667,120.640403,0.0019530989
C0F970,大坑,2021-02-28,24.173142,120.722289,0.0019359601
C0F9A0,中竹林,2021-02-28,24.103556,120.751061,0.0036977634
C0F9I0,神岡,2021-02-28,24.272481,120.658314,0.0023544624
C0F9K0,大安,2021-02-28,24.345061,120.588025,0.0029977276
C0F9L0,后里,2021-02-28,24.310436,120.729725,0.001688629
C0F9M0,豐原,2021-02-28,24.254322,120.720692,0.0019801755
C0F9N0,大里,2021-02-28,24.092464,120.701378,0.0029033553
C0F9O0,潭子,2021-02-28,24.213106,120.703933,0.0025244819
C0F9P0,清水,2021-02-28,24.312297,120.562242,0.0033881662
C0F9Q0,外埔,2021-02-28,24.347817,120.705686,0.0029757584
C0F9R0,龍井,2021-02-28,24.184536,120.528972,0.0032647362
C0F9S0,烏日,2021-02-28,24.107058,120.624103,0.011714007
C0F9T0,西屯,2021-02-28,24.179494,120.641275,0.002264361
C0F9U0,南屯,2021-02-28,24.137006,120.637969,0.0029033553
C0F9X0,大雅(中科園區),2021-02-28,24.21528,120.62445,0.0016059208
C0FA10,松柏,2021-02-28,24.429115,120.617482,0.0023585844
C0FA20,溫寮,2021-02-28,24.372177,120.583125,0.0023585844
C0FA30,梧棲,2021-02-28,24.256003,120.523381,0.0032647362
C0FA40,臺中電廠,2021-02-28,24.2146,120.4907,0.0032647362
C0G620,芬園,2021-02-28,24.015678,120.6213,0.005076963
C0G640,鹿港,2021-02-28,24.0753,120.430481,0.0070767705
C0G650,員林,2021-02-28,23.946503,120.585597,0.0064225653
C0G660,溪湖,2021-02-28,23.94835,120.479122,0.0055562546
C0G720,溪州,2021-02-28,23.851589,120.499093,0.01757537
C0G730,二林,2021-02-28,23.903325,120.376081,0.006410306
C0G740,大城,2021-02-28,23.852487,120.320935,0.004567022
C0G770,福興,2021-02-28,24.041289,120.437669,0.0070767705
C0G780,秀水,2021-02-28,24.03405,120.503869,0.009210893
C0G800,埔鹽,2021-02-28,24.000394,120.431683,0.0070767705
C0G810,埔心,2021-02-28,23.947633,120.525456,0.005265588
C0G820,田尾,2021-02-28,23.901669,120.509389,0.00495561
C0G830,埤頭,2021-02-28,23.866003,120.452806,0.020107869
C0G840,北斗,2021-02-28,23.877586,120.514222,0.00495561
C0G860,社頭,2021-02-28,23.897647,120.5862,0.0060107936
C0G870,芳苑,2021-02-28,23.922303,120.320025,0.004894457
C0G880,二水,2021-02-28,23.810742,120.6173,0.01628237
C0G890,伸港,2021-02-28,24.148933,120.484403,0.0033556405
C0G900,線西,2021-02-28,24.143358,120.443536,0.0025130913
C0G910,花壇,2021-02-28,24.032076,120.549461,0.00796845
C0G920,永靖,2021-02-28,23.924703,120.547533,0.00495561
C0G940,竹塘,2021-02-28,23.848253,120.386764,0.02584538
C0G950,防潮門,2021-02-28,24.1835,120.4871,0.00345673
C0G960,福寶,2021-02-28,24.0443,120.3814,0.007530516
C0G970,三豐,2021-02-28,23.882,120.2895,0.004894457
C0H890,埔里,2021-02-28,23.972169,120.952425,0.006647045
C0H950,中寮,2021-02-28,23.884447,120.766406,0.007969014
C0H960,草屯,2021-02-28,23.973672,120.68085,0.019495858
C0I110,竹山,2021-02-28,23.761225,120.688156,0.010234174
C0I360,水里,2021-02-28,23.812553,120.849792,0.006487354
C0I380,集集,2021-02-28,23.828206,120.801467,0.007171825
C0I410,名間,2021-02-28,23.837053,120.701447,0.015063223
C0I420,國姓,2021-02-28,24.037803,120.855072,0.007399704
C0I460,南投,2021-02-28,23.911469,120.687331,0.015123319
C0K250,崙背,2021-02-28,23.75555,120.318925,0.0048895804
C0K280,四湖,2021-02-28,23.630414,120.227125,0.006334202
C0K291,宜梧,2021-02-28,23.536281,120.169329,0.026916377
C0K330,虎尾,2021-02-28,23.719183,120.442036,0.030256966
C0K390,土庫,2021-02-28,23.679029,120.395574,0.0326882
C0K400,斗六,2021-02-28,23.720583,120.541127,0.032390885
C0K410,北港,2021-02-28,23.573957,120.292802,0.017426245
C0K420,西螺,2021-02-28,23.800407,120.467394,0.0198686
C0K430,褒忠,2021-02-28,23.690938,120.303634,0.007519053
C0K440,二崙,2021-02-28,23.772797,120.408944,0.024010103
C0K450,大埤,2021-02-28,23.646074,120.431537,0.03460181
C0K460,斗南,2021-02-28,23.678734,120.478359,0.03736131
C0K470,林內,2021-02-28,23.748675,120.609642,0.026464634
C0K480,莿桐,2021-02-28,23.761192,120.502372,0.018533083
C0K500,元長,2021-02-28,23.64981,120.315024,0.0072970353
C0K510,水林,2021-02-28,23.572924,120.24597,0.014314507
C0K530,臺西,2021-02-28,23.701547,120.197559,0.006272571
C0K550,蔦松,2021-02-28,23.514319,120.229736,0.024333687
C0K560,棋山,2021-02-28,23.68645,120.603417,0.029880708
C0K580,高鐵雲林,2021-02-28,23.737456,120.417944,0.0326882
C0K590,雲林東勢,2021-02-28,23.674192,120.255721,0.007519053
C0K600,箔子寮,2021-02-28,23.6197,120.14,0.015711693
C0M410,馬頭山,2021-02-28,23.324361,120.582017,0.007468009
C0M520,東後寮,2021-02-28,23.369908,120.248065,0.044478558
C0M640,中埔,2021-02-28,23.42538,120.5229,0.018337835
C0M650,朴子,2021-02-28,23.43463,120.23902,0.035906307
C0M660,溪口,2021-02-28,23.604131,120.403569,0.004380402
C0M670,大林,2021-02-28,23.600616,120.45841,0.004574996
C0M680,太保,2021-02-28,23.455062,120.331455,0.02744043
C0M690,水上,2021-02-28,23.419734,120.388909,0.0037909513
C0M700,竹崎,2021-02-28,23.526178,120.555508,0.014219879
C0M710,東石,2021-02-28,23.458927,120.15385,0.024333687
C0M720,番路,2021-02-28,23.464657,120.554156,0.010322091
C0M730,嘉義市東區,2021-02-28,23.457673,120.460531,0.0039224806
C0M740,六腳,2021-02-28,23.492871,120.290625,0.030194571
C0M750,布袋,2021-02-28,23.380878,120.167789,0.035906307
C0M760,民雄,2021-02-28,23.551754,120.428457,0.00392813
C0M770,嘉義梅山,2021-02-28,23.585398,120.555587,0.021435741
C0M780,鹿草,2021-02-28,23.41134,120.30835,0.02465543
C0M790,新港,2021-02-28,23.553269,120.345728,0.015971176
C0M800,茶山,2021-02-28,23.299075,120.664767,0.0083880015
C0M880,好美里,2021-02-28,23.3364,120.138,0.06742934
C0N010,鯤鯓國小,2021-02-28,23.1879,120.0889,0.05800622
C0N020,城西,2021-02-28,23.0568,120.0956,0.11087942
C0N030,四草,2021-02-28,23.0235,120.1116,0.15348041
C0N040,蘆竹溝,2021-02-28,23.2344,120.0961,0.05800622
C0N050,蚵寮,2021-02-28,23.301,120.1104,0.05800622
C0O810,曾文,2021-02-28,23.219681,120.497328,0.004220493
C0O830,北寮,2021-02-28,23.079561,120.495008,0.015518196
C0O840,王爺宮,2021-02-28,23.222064,120.40085,0.004220493
C0O860,大內,2021-02-28,23.11885,120.36083,0.019608323
C0O900,善化,2021-02-28,23.112883,120.297219,0.081936374
C0O930,玉井,2021-02-28,23.126042,120.46055,0.010288097
C0O950,安南,2021-02-28,23.076694,120.144861,0.10802714
C0O960,崎頂,2021-02-28,22.959547,120.369317,0.014505407
C0O970,虎頭埤,2021-02-28,23.021375,120.347878,0.070769735
C0O980,新市,2021-02-28,23.061614,120.298197,0.081936374
C0O990,媽廟,2021-02-28,22.99175,120.293525,0.11044998
C0R150,三地門,2021-02-28,22.709889,120.639944,0.24526657
C0R160,鹽埔,2021-02-28,22.739558,120.530778,0.14754315
C0R170,屏東,2021-02-28,22.660269,120.494072,0.14712574
C0R190,赤山,2021-02-28,22.592333,120.614306,0.15894164
C0R220,潮州,2021-02-28,22.534361,120.54,0.10954573
C0R240,來義,2021-02-28,22.527306,120.625111,0.11369413
C0R260,春日,2021-02-28,22.370361,120.628306,0.1251796
C0R270,琉球嶼,2021-02-28,22.332244,120.362236,0.122420266
C0R280,檳榔,2021-02-28,22.076078,120.836777,0.00013002624
C0R320,車城,2021-02-28,22.0744,120.716247,0.00029335718
C0R341,牡丹,2021-02-28,22.130036,120.792639,0.0459715
C0R350,貓鼻頭,2021-02-28,21.921774,120.7358,0.00022148249
C0R470,高樹,2021-02-28,22.826389,120.600806,0.21574348
C0R480,長治,2021-02-28,22.693128,120.542622,0.13707735
C0R490,九如,2021-02-28,22.7405,120.490503,0.14047982
C0R510,萬丹,2021-02-28,22.587775,120.490394,0.16907682
C0R520,崁頂,2021-02-28,22.514781,120.506914,0.19634329
C0R540,佳冬,2021-02-28,22.419456,120.552375,0.21199252
C0R550,新埤,2021-02-28,22.467947,120.582894,0.164325
C0R560,新園,2021-02-28,22.5434,120.461558,0.19634329
C0R570,麟洛,2021-02-28,22.65078,120.52719,0.14047982
C0R580,南州,2021-02-28,22.48591,120.50274,0.21199252
C0R590,里港,2021-02-28,22.77919,120.49459,0.08060083
C0R620,墾雷,2021-02-28,21.900836,120.855269,0.00022148249
C0R640,東港,2021-02-28,22.46247,120.44074,0.20971179
C0R650,竹田,2021-02-28,22.58486,120.54344,0.17204112
C0R660,枋寮,2021-02-28,22.367722,120.590647,0.11283271
C0R670,楓港,2021-02-28,22.190131,120.692156,0.096361704
C0R680,佳樂水,2021-02-28,21.993578,120.861633,0.00025419905
C0R690,墾丁,2021-02-28,21.966756,120.810269,0.00012598373
C0R700,枋山,2021-02-28,22.246844,120.661086,0.096361704
C0R710,龍磐,2021-02-28,21.931672,120.838942,0.0001280209
C0R720,旭海,2021-02-28,22.205403,120.887614,0.021768851
C0R730,大坪頂,2021-02-28,22.024633,120.69355,0.00017248749
C0R740,獅子,2021-02-28,22.201569,120.70525,0.08389277
C0R760,南仁湖,2021-02-28,22.084681,120.863353,0.000171852
C0R770,保力,2021-02-28,22.071122,120.764111,0.00016022757
C0R780,滿州,2021-02-28,22.024403,120.839892,0.00020837208
C0R790,九棚,2021-02-28,22.14195,120.889281,0.02895996
C0R800,丹路,2021-02-28,22.204481,120.750989,0.06200148
C0R810,內獅,2021-02-28,22.305064,120.642986,0.13885507
C0R830,高士,2021-02-28,22.121825,120.836781,0.00017418324
C0R850,林邊,2021-02-28,22.4634,120.5339,0.19634329
C0R860,鼻頭,2021-02-28,22.1043,120.8979,0.00021861133
C0R870,興海,2021-02-28,21.9752,120.8439,0.00025419905
C0R880,後壁湖,2021-02-28,21.9457,120.7457,0.00031734176
C0R890,山海,2021-02-28,21.9878,120.7091,0.00029335718
C0R900,竹坑,2021-02-28,22.1385,120.7022,0.0981176
C0R910,下寮,2021-02-28,22.3929,120.5548,0.21199252
C0R920,塭仔,2021-02-28,22.4169,120.5197,0.22521862
C0R940,加祿堂,2021-02-28,22.3363,120.6217,0.13885507
C0S710,鹿野,2021-02-28,22.917711,121.122994,0.02303528
C0S730,綠島,2021-02-28,22.6672,121.47533,0.26119295
C0S740,池上,2021-02-28,23.119628,121.209469,0.047281418
C0S770,大溪山,2021-02-28,22.478475,120.943325,0.026967678
C0S790,金崙,2021-02-28,22.538122,120.966875,0.14795627
C0S810,東河,2021-02-28,22.972672,121.303986,0.13540444
C0S830,長濱,2021-02-28,23.286817,121.411975,0.029745987
C0S840,南田,2021-02-28,22.279725,120.889208,0.10878148
C0S890,關山,2021-02-28,23.0395,121.175017,0.12103169
C0S900,蘭嶼高中,2021-02-28,22.04909,121.51214,0.00033476335
C0S910,蘭嶼燈塔,2021-02-28,22.081197,121.503117,0.00014960328
C0S920,金峰嘉蘭,2021-02-28,22.594789,120.960825,0.335255
C0S930,延平,2021-02-28,22.902581,121.084058,0.039882667
C0S940,石寧山,2021-02-28,23.223772,121.406639,0.08167945
C0S950,七塊厝,2021-02-28,22.954453,121.229922,0.01854755
C0S960,香蘭,2021-02-28,22.587569,120.993375,0.4780809
C0S970,加津林,2021-02-28,22.416211,120.926942,0.22430363
C0S990,山豬窟,2021-02-28,22.318619,120.857372,0.00802278
C0SA00,歷坵,2021-02-28,22.520969,120.89185,0.015256407
C0SA10,檳榔四格山,2021-02-28,22.810031,121.109308,0.0053946287
C0SA30,都歷,2021-02-28,23.020333,121.323642,0.3045265
C0SA40,瑞和,2021-02-28,22.974361,121.156697,0.14552498
C0SA60,知本（水試所）,2021-02-28,22.702394,121.082761,0.12639245
C0SA80,土坂,2021-02-28,22.453108,120.887572,0.26748976
C0SA90,達仁林場,2021-02-28,22.264347,120.823972,0.011796239
C0T870,鯉魚潭,2021-02-28,23.935639,121.508944,0.033066403
C0T900,西林,2021-02-28,23.8119,121.441458,0.02458034
C0T960,光復,2021-02-28,23.660694,121.424964,0.029189244
C0T9A0,月眉山,2021-02-28,23.809928,121.539828,0.004590884
C0T9D0,和中,2021-02-28,24.26676,121.74103,0.6979479
C0T9E0,大坑,2021-02-28,23.880628,121.581981,0.007568049
C0T9F0,水璉,2021-02-28,23.797131,121.542514,0.012068262
C0T9I0,豐濱,2021-02-28,23.583897,121.514806,0.049531262
C0T9M0,靜浦,2021-02-28,23.455167,121.495028,0.08596907
C0T9N0,富里,2021-02-28,23.171639,121.249378,0.021575168
C0U600,礁溪,2021-02-28,24.817539,121.765608,0.05215017
C0U650,玉蘭,2021-02-28,24.675286,121.587061,0.039709453
C0U750,龜山島,2021-02-28,24.841667,121.953133,0.056683842
C0U760,東澳,2021-02-28,24.52196,121.83318,0.21007848
C0U770,南澳,2021-02-28,24.44935,121.81022,0.5052778
C0U780,五結,2021-02-28,24.68637,121.79794,0.21419507
C0U860,頭城,2021-02-28,24.85323,121.8308,0.055187184
C0U870,大礁溪,2021-02-28,24.791042,121.675047,0.019481814
C0U880,北關,2021-02-28,24.9072,121.8734,0.008935532
C0U890,三星,2021-02-28,24.66812,121.65302,0.03118307
C0U900,內城,2021-02-28,24.71813,121.68766,0.04438374
C0U910,冬山,2021-02-28,24.63373,121.7937,0.21419507
C0U940,羅東,2021-02-28,24.68184,121.74934,0.19995525
C0U970,大福,2021-02-28,24.80064,121.81389,0.058297418
C0U990,員山,2021-02-28,24.74435,121.72247,0.19995525
C0UA00,土場,2021-02-28,24.576533,121.495333,0.023629777
C0UA80,大溪漁港,2021-02-28,24.941801,121.902955,0.05215017
C0UA90,石城,2021-02-28,24.980444,121.951214,0.06874134
C0UB00,淡江大學蘭陽校園,2021-02-28,24.823239,121.730383,0.016106168
C0UB20,壯圍,2021-02-28,24.7359,121.8163,0.22942452
C0V250,甲仙,2021-02-28,23.080106,120.591758,0.004507133
C0V260,月眉,2021-02-28,22.971003,120.539853,0.016763452
C0V310,美濃,2021-02-28,22.898742,120.519153,0.069228165
C0V350,溪埔,2021-02-28,22.738578,120.446797,0.13297947
C0V360,內門,2021-02-28,22.975481,120.466769,0.020830408
C0V370,古亭坑,2021-02-28,22.893178,120.401947,0.041344956
C0V400,阿公店,2021-02-28,22.804194,120.355528,0.10867215
C0V440,鳳山,2021-02-28,22.646653,120.356122,0.16488382
C0V450,鳳森,2021-02-28,22.545064,120.392592,0.11796789
C0V490,新興,2021-02-28,22.627422,120.298803,0.19024336
C0V530,阿蓮,2021-02-28,22.883208,120.327508,0.19273034
C0V610,梓官,2021-02-28,22.760558,120.267211,0.17893554
C0V620,永安,2021-02-28,22.82315,120.236856,0.13129005
C0V630,茄萣,2021-02-28,22.906642,120.182608,0.14429593
C0V640,湖內,2021-02-28,22.887139,120.2445,0.13688575
C0V650,彌陀,2021-02-28,22.783806,120.246361,0.13129005
C0V660,岡山,2021-02-28,22.797078,120.294958,0.17893554
C0V680,仁武,2021-02-28,22.701083,120.347722,0.2003967
C0V690,鼓山,2021-02-28,22.623325,120.275575,0.19545047
C0V700,三民,2021-02-28,22.645017,120.311233,0.19024336
C0V710,苓雅,2021-02-28,22.622742,120.330669,0.19024336
C0V720,林園,2021-02-28,22.507747,120.394511,0.19024336
C0V730,大寮,2021-02-28,22.605614,120.395717,0.13507076
C0V740,旗山,2021-02-28,22.888614,120.483597,0.06346416
C0V750,路竹,2021-02-28,22.854997,120.259439,0.17576645
C0V760,橋頭,2021-02-28,22.757806,120.30575,0.16824508
C0V770,大社,2021-02-28,22.730306,120.346639,0.2003967
C0V790,萬山,2021-02-28,22.905944,120.688056,0.009530337
C0V800,六龜,2021-02-28,22.997889,120.633583,0.023295596
C0V810,左營,2021-02-28,22.67491,120.28491,0.21590695
C0V820,小林,2021-02-28,23.148408,120.63325,0.006454368
C0V840,鳳鼻頭,2021-02-28,22.5083,120.3591,0.20971179
C0V850,蚵仔寮,2021-02-28,22.7256,120.2527,0.23216942
C0V860,南寮,2021-02-28,22.7616,120.2339,0.14289586
C0V870,文安,2021-02-28,22.8025,120.2164,0.14289586
C0V880,興達,2021-02-28,22.8778,120.2127,0.14429593
C0V890,前鎮,2021-02-28,22.5722,120.3112,0.20971179
C0V900,汕尾,2021-02-28,22.4782,120.4151,0.19048105
C0X050,東河,2021-02-28,23.296598,120.385608,0.010490428
C0X060,下營,2021-02-28,23.22695,120.256261,0.05733807
C0X080,佳里,2021-02-28,23.173039,120.145086,0.06742934
C0X100,臺南市北區,2021-02-28,23.010394,120.194228,0.16459274
C0X110,臺南市南區,2021-02-28,22.961189,120.188378,0.15761462
C0X120,麻豆,2021-02-28,23.183289,120.248611,0.061333906
C0X130,官田,2021-02-28,23.193217,120.315422,0.04753273
C0X140,西港,2021-02-28,23.125608,120.203108,0.108809076
C0X150,安定,2021-02-28,23.102614,120.227839,0.108998455
C0X160,仁德,2021-02-28,22.968258,120.257689,0.11811249
C0X170,關廟,2021-02-28,22.963017,120.327797,0.088624716
C0X180,山上,2021-02-28,23.0757,120.363253,0.012270374
C0X190,安平,2021-02-28,22.993161,120.152181,0.16459274
C0X200,左鎮,2021-02-28,23.056758,120.408522,0.013280854
C0X210,白河,2021-02-28,23.347466,120.414427,0.009716488
C0X220,學甲,2021-02-28,23.230367,120.182187,0.061333906
C0X230,鹽水,2021-02-28,23.272621,120.247641,0.04184267
C0X240,關子嶺,2021-02-28,23.331169,120.508025,0.0022692117
C0X250,新營,2021-02-28,23.310689,120.316681,0.038160786
C0X260,後壁,2021-02-28,23.366358,120.362326,0.009971399
C0X280,將軍,2021-02-28,23.214999,120.13577,0.06742934
C0X290,北門,2021-02-28,23.267772,120.125481,0.06742934
C0X300,鹿寮,2021-02-28,23.386047,120.477331,0.030773893
C0X310,七股,2021-02-28,23.147289,120.086253,0.1145237
C0X320,柳營,2021-02-28,23.253328,120.375253,0.009716488
C0Z020,明里,2021-02-28,23.208717,121.262342,0.037849348
C0Z061,玉里,2021-02-28,23.3215,121.339656,0.10918014
C0Z070,舞鶴,2021-02-28,23.46811,121.37407,0.030945301
C0Z080,富源,2021-02-28,23.587642,121.378225,0.030514324
C0Z100,東華,2021-02-28,23.89525,121.549833,0.073120385
C0Z150,吉安光華,2021-02-28,23.930925,121.595153,0.086587444
C0Z160,鳳林,2021-02-28,23.746114,121.453411,0.033647403
C0Z170,卓溪,2021-02-28,23.3443,121.3029,0.08332072
C0Z180,新城,2021-02-28,24.03946,121.60454,0.046869356
C0Z190,富世,2021-02-28,24.14743,121.6297,0.21015193
C0Z200,萬榮,2021-02-28,23.709219,121.420106,0.033066403
C0Z210,瑞穗,2021-02-28,23.5239,121.39021,0.061172098
C0Z230,和平,2021-02-28,24.30717,121.77007,0.6979479
C0Z270,蕃薯寮,2021-02-28,23.73835,121.540108,0.047194287
C0Z280,德武,2021-02-28,23.47426,121.41071,0.052264497
C0Z300,東里,2021-02-28,23.26853,121.30547,0.0954654
C0Z310,清水斷崖,2021-02-28,24.218294,121.689142,0.5353124
C0Z330,安通山,2021-02-28,23.290728,121.348528,0.019375635
C1A750,石碇服務區,2021-02-28,25.00872,121.646242,0.007942452
C1A760,坪林交控,2021-02-28,24.94284,121.713442,0.031900637
C1A9N0,四十份,2021-02-28,24.934158,121.593283,0.009704774
C1AC50,關渡,2021-02-28,25.133486,121.469331,0.0060998052
C1AI50,國三N016K,2021-02-28,25.034164,121.619664,0.00918301
C1AI60,國一N039K,2021-02-28,25.064361,121.383836,0.02984711
C1C510,水尾,2021-02-28,24.940081,121.087161,0.0017066076
C1D380,新埔,2021-02-28,24.84745,121.03834,0.0014642705
C1D630,飛鳳山,2021-02-28,24.766464,121.119178,0.0009873793
C1E511,新開,2021-02-28,24.347703,120.827019,0.007910905
C1E601,南勢,2021-02-28,24.572486,120.734842,0.0014968571
C1E770,公館,2021-02-28,24.526914,120.830806,0.0012644015
C1E890,國三N149K,2021-02-28,24.463414,120.680019,0.0013406128
C1E900,國一N128K,2021-02-28,24.560997,120.844186,0.0014281329
C1F911,新伯公,2021-02-28,24.221361,120.841069,0.0027060285
C1F9B1,桐林,2021-02-28,24.066172,120.735194,0.01763677
C1G691,下水埔,2021-02-28,23.816114,120.5676,0.020707248
C1G9D0,國一S218K,2021-02-28,23.890641,120.493253,0.005265588
C1H840,國三N238K,2021-02-28,23.841008,120.707711,0.0067994604
C1H971,六分寮,2021-02-28,23.92507,120.6378,0.0027173595
C1I131,桶頭,2021-02-28,23.641944,120.654117,0.0054972777
C1I150,青雲,2021-02-28,23.793361,120.949378,0.003102672
C1I280,埔中,2021-02-28,23.820778,120.642594,0.00523953
C1I550,國六W023K,2021-02-28,23.979067,120.867742,0.00472359
C1K540,口湖,2021-02-28,23.585344,120.180517,0.015711693
C1M400,菜瓜坪,2021-02-28,23.251928,120.576103,0.008901573
C1M870,國三N285K,2021-02-28,23.550319,120.505833,0.020390715
C1N001,沙崙,2021-02-28,22.935472,120.309406,0.19273034
C1O850,環湖,2021-02-28,23.148617,120.418633,0.010288097
C1O880,關山,2021-02-28,23.173397,120.594092,0.0065246164
C1O921,楠西,2021-02-28,23.183511,120.484083,0.007283787
C1O940,東山服務區,2021-02-28,23.286016,120.398472,0.008930908
C1R110,口社,2021-02-28,22.770111,120.645222,0.1904375
C1R250,力里,2021-02-28,22.428117,120.629228,0.11369413
C1R290,石門山,2021-02-28,22.112611,120.756597,0.00017189741
C1R630,龍泉,2021-02-28,22.66701,120.59091,0.2757711
C1S800,華源,2021-02-28,22.657883,121.02325,0.03981259
C1S820,金峰,2021-02-28,22.590969,120.933236,0.192052
C1S850,豐南,2021-02-28,23.122139,121.262389,0.008274367
C1S870,南美山,2021-02-28,23.15025,121.382333,0.10185776
C1S880,壽卡,2021-02-28,22.238911,120.858903,0.008510261
C1SA70,都蘭,2021-02-28,22.87794,121.226881,0.1208755
C1T920,中興,2021-02-28,23.769503,121.498653,0.055201188
C1T970,大農,2021-02-28,23.615233,121.413331,0.016424026
C1T990,高寮,2021-02-28,23.394239,121.356808,0.11386445
C1TA00,太魯閣,2021-02-28,24.15773,121.6236,0.55133724
C1U501,牛鬥,2021-02-28,24.637836,121.573656,0.014991311
C1U670,寒溪,2021-02-28,24.634,121.71691,0.10094529
C1U930,粉鳥林,2021-02-28,24.497088,121.842479,0.23637547
C1V340,大津,2021-02-28,22.888322,120.645986,0.06960101
C1V390,尖山,2021-02-28,22.813153,120.367789,0.089523174
C1V570,吉東,2021-02-28,22.85422,120.5454,0.0343811
C1V830,國三S383K,2021-02-28,22.781967,120.426475,0.040344775
C1X040,東原,2021-02-28,23.291597,120.463822,0.012046304
C1Z030,紅葉,2021-02-28,23.493119,121.338806,0.04860143
C1Z040,立山,2021-02-28,23.443356,121.327375,0.008149721
C1Z120,壽豐,2021-02-28,23.870853,121.508081,0.073120385
C1Z130,銅門,2021-02-28,23.965694,121.492842,0.013031961
CAG100,王功漁港,2021-02-28,23.96824,120.32586,0.0034395612
CAJ050,海口故事園區,2021-02-28,23.57543,120.14121,0.015711693
CAL110,布袋國中,2021-02-28,23.35893,120.18026,0.044478558
CAN130,水試所海水繁養殖中心,2021-02-28,23.120802,120.07968,0.11749605
CAN140,六官養殖協會,2021-02-28,23.22881,120.29962,0.052184917
CAQ030,崎峰國小,2021-02-28,22.42565,120.49521,0.21199252
E2K600,四湖植物園,2021-02-28,23.676986,120.163433,0.006272571
E2P980,林試六龜中心,2021-02-28,22.991703,120.645722,0.021991609
E2S960,林試太麻里2,2021-02-28,22.598014,120.989761,0.4780809
E2S980,林試太麻里1,2021-02-28,22.598922,120.980044,0.34854242
G2F820,農業試驗所,2021-02-28,24.031261,120.688133,0.002179795
G2L020,嘉義農試,2021-02-28,23.485028,120.473806,0.024277069
G2M350,溪口農場,2021-02-28,23.58565,120.408111,0.004380402
G2P820,鳳山農試,2021-02-28,22.646611,120.356083,0.16488382
K2E360,苗栗農改,2021-02-28,24.495722,120.829111,0.002914914
K2E710,大湖分場,2021-02-28,24.422861,120.871833,0.001775242
K2F750,種苗繁殖,2021-02-28,24.225972,120.800917,0.0020798934
U2HA50,臺大竹山,2021-02-28,23.756972,120.681556,0.009687529
V2K620,麥寮合作社,2021-02-28,23.753836,120.294783,0.005214355
