站號,站名,日期,lat,lon,BlastGRU-TW
466881,新北,2021-10-20,24.9593,121.52,0.008973378
466900,淡水,2021-10-20,25.164889,121.448906,0.013599935
466920,臺北,2021-10-20,25.037658,121.514853,0.008630411
467441,高雄,2021-10-20,22.7304,120.3125,0.04628341
467480,嘉義,2021-10-20,23.495925,120.432906,0.5131067
467490,臺中,2021-10-20,24.145736,120.684075,0.21461889
C0A530,坪林,2021-10-20,24.938183,121.70975,0.09808918
C0A540,四堵,2021-10-20,24.8926,121.745736,0.2102798
C0A550,泰平,2021-10-20,24.971197,121.823711,0.67889494
C0A890,雙溪,2021-10-20,25.036003,121.864242,0.009851015
C0A920,富貴角,2021-10-20,25.263783,121.565258,0.016913116
C0A931,三和,2021-10-20,25.233153,121.595236,0.044693206
C0AC70,信義,2021-10-20,25.037822,121.564597,0.008630411
C0AC80,文山,2021-10-20,25.00235,121.575728,0.009577484
C0ACA0,新莊,2021-10-20,25.051478,121.446756,0.01136914
C0AH50,林口,2021-10-20,25.072181,121.38084,0.16234805
C0AH70,松山,2021-10-20,25.04871,121.55042,0.008630411
C0AH80,深坑,2021-10-20,25.002703,121.628328,0.009577484
C0AJ60,六塊厝,2021-10-20,25.24,121.4481,0.013273083
C0AJ70,田寮,2021-10-20,25.2698,121.4886,0.015320398
