站號,站名,日期,lat,lon,BlastGRU-TW
466881,新北,2021-12-27,24.9593,121.52,0.004210313
466900,淡水,2021-12-27,25.1649,121.4489,0.004089163
466920,臺北,2021-12-27,25.0377,121.5149,0.0045461613
466940,基隆,2021-12-27,25.1333,121.7405,0.0050052046
466990,花蓮,2021-12-27,23.9751,121.6133,0.21108162
467050,新屋,2021-12-27,25.0067,121.0475,0.00653353
467080,宜蘭,2021-12-27,24.764,121.7565,0.0033000733
467270,田中,2021-12-27,23.8738,120.5813,0.03213982
467300,東吉島,2021-12-27,23.2569,119.6675,0.00065327395
467350,澎湖,2021-12-27,23.5655,119.5631,0.0005048542
467410,臺南,2021-12-27,22.9932,120.2048,0.8003743
467420,永康,2021-12-27,23.0384,120.2367,0.8070235
467441,高雄,2021-12-27,22.7304,120.3125,0.6859523
467480,嘉義,2021-12-27,23.4959,120.4329,0.0051774797
467490,臺中,2021-12-27,24.1457,120.6841,0.0011001135
467540,大武,2021-12-27,22.3557,120.9038,0.09902386
467571,新竹,2021-12-27,24.8279,121.0142,0.0066384333
467590,恆春,2021-12-27,22.0039,120.7463,1.5311194e-05
467610,成功,2021-12-27,23.0975,121.3734,0.04424278
467620,蘭嶼,2021-12-27,22.037,121.5583,0.0016207527
467660,臺東,2021-12-27,22.7522,121.1546,0.008201218
467790,墾丁雷達站,2021-12-27,21.9482,120.808,1.4495887e-05
C0A520,山佳,2021-12-27,24.9749,121.402,0.003667322
C0A530,坪林,2021-12-27,24.9382,121.7097,0.0013220594
C0A540,四堵,2021-12-27,24.8926,121.7457,0.0043416275
C0A550,泰平,2021-12-27,24.9712,121.8237,0.0010999903
C0A560,福山,2021-12-27,24.7762,121.5028,0.001094091
C0A570,桶後,2021-12-27,24.8482,121.598,0.006061201
C0A640,石碇,2021-12-27,24.994,121.6629,0.00085469405
C0A650,火燒寮,2021-12-27,25.0027,121.7429,0.00068885414
C0A660,瑞芳,2021-12-27,25.1132,121.8011,0.0015168383
C0A770,科教館,2021-12-27,25.0964,121.5165,0.004047053
C0A860,大坪,2021-12-27,25.1659,121.633,0.0030402984
C0A880,福隆,2021-12-27,25.0178,121.9421,0.0030002338
C0A890,雙溪,2021-12-27,25.036,121.8642,0.004626478
C0A920,富貴角,2021-12-27,25.2638,121.5653,0.0035678942
C0A931,三和,2021-12-27,25.2332,121.5952,0.0006300378
C0A940,金山,2021-12-27,25.2236,121.644,0.0037041865
C0A950,鼻頭角,2021-12-27,25.129,121.9234,0.0031706642
C0A970,三貂角,2021-12-27,25.0076,122.0021,0.001194259
C0A980,社子,2021-12-27,25.1095,121.4697,0.004179532
C0A9C0,天母,2021-12-27,25.1175,121.5372,0.0037910957
C0A9F0,內湖,2021-12-27,25.0794,121.5755,0.0045461613
C0AC60,三峽,2021-12-27,24.939,121.3697,0.0040051523
C0AC70,信義,2021-12-27,25.0378,121.5646,0.0045461613
C0AC80,文山,2021-12-27,25.0023,121.5757,0.0036775218
C0ACA0,新莊,2021-12-27,25.0515,121.4468,0.004686102
C0AD00,三芝,2021-12-27,25.2581,121.5019,0.003704653
C0AD10,八里,2021-12-27,25.1502,121.4039,0.004089163
C0AD30,蘆洲,2021-12-27,25.0866,121.4723,0.004047053
C0AD40,土城,2021-12-27,24.9732,121.4452,0.0039132694
C0AD50,鶯歌,2021-12-27,24.9515,121.3463,0.003539806
C0AG80,中和,2021-12-27,24.9916,121.4918,0.0045461613
C0AH00,汐止,2021-12-27,25.0669,121.6588,0.004956104
C0AH10,永和,2021-12-27,25.0113,121.5081,0.0047320263
C0AH40,平等,2021-12-27,25.1291,121.5771,0.0037626924
C0AH50,林口,2021-12-27,25.0722,121.3808,0.0033926517
C0AH70,松山,2021-12-27,25.0487,121.5504,0.0045461613
C0AH80,深坑,2021-12-27,25.0027,121.6283,0.0038583372
C0AI00,五股,2021-12-27,25.0744,121.4273,0.008359987
C0AI10,屈尺,2021-12-27,24.9218,121.5447,0.0036775218
C0AI20,白沙灣,2021-12-27,25.2831,121.5191,0.0036969956
C0AI30,三重,2021-12-27,25.0573,121.5006,0.004047053
C0AI40,石牌,2021-12-27,25.1156,121.5131,0.0039132694
C0AJ10,澳底,2021-12-27,25.0571,121.9273,0.003513867
C0AJ20,野柳,2021-12-27,25.207,121.69,0.004956104
C0AJ30,淡水觀海,2021-12-27,25.1846,121.4086,0.0041116783
C0AJ40,石門,2021-12-27,25.2737,121.6012,0.003648496
C0AJ50,水湳洞,2021-12-27,25.1237,121.8622,0.004956104
C0AJ60,六塊厝,2021-12-27,25.24,121.4481,0.0041116783
C0AJ70,田寮,2021-12-27,25.2698,121.4886,0.0037069027
C0AJ80,板橋,2021-12-27,25.0107,121.4489,0.0039132694
C0B010,七堵,2021-12-27,25.0948,121.7171,0.00478297
C0B020,基隆嶼,2021-12-27,25.1914,121.7839,0.004956104
C0B040,大武崙,2021-12-27,25.1667,121.707,0.00478297
C0B050,八斗子,2021-12-27,25.1448,121.7917,0.0053232596
C0B060,暖暖,2021-12-27,25.0957,121.7403,0.00439037
C0C460,復興,2021-12-27,24.8202,121.3523,0.0034689626
C0C480,桃園,2021-12-27,24.9924,121.3232,0.008063635
C0C490,八德,2021-12-27,24.9287,121.2833,0.008839435
C0C590,觀音,2021-12-27,25.0271,121.1533,0.0033767887
C0C620,蘆竹,2021-12-27,25.0843,121.2658,0.0040318347
C0C630,大溪,2021-12-27,24.8829,121.2655,0.007607817
C0C650,平鎮,2021-12-27,24.8975,121.2146,0.0066744303
C0C660,楊梅,2021-12-27,24.9124,121.143,0.006736433
C0C670,龍潭,2021-12-27,24.8701,121.2214,0.0047997157
C0C680,龜山,2021-12-27,25.0285,121.3866,0.003673406
C0C700,中壢,2021-12-27,24.9777,121.2564,0.007779943
C0C710,大溪永福,2021-12-27,24.8929,121.325,0.007570679
C0C720,竹圍,2021-12-27,25.1127,121.2398,0.004089163
C0C730,中大臨海站,2021-12-27,24.9661,121.0086,0.0064374227
C0C740,觀音工業區,2021-12-27,25.0648,121.1149,0.006452366
C0C750,新興坑尾,2021-12-27,25.0061,121.0971,0.006546279
C0D430,峨眉,2021-12-27,24.6905,121.0172,0.006826767
C0D480,打鐵坑,2021-12-27,24.8497,121.1508,0.0039614253
C0D540,橫山,2021-12-27,24.7112,121.1169,0.00549839
C0D560,竹東,2021-12-27,24.7671,121.0579,0.007056441
C0D580,寶山,2021-12-27,24.735,121.0252,0.0067804167
C0D590,新豐,2021-12-27,24.8707,120.9772,0.0077458443
C0D650,湖口,2021-12-27,24.9048,121.0436,0.0066018724
C0D660,新竹市東區,2021-12-27,24.7987,120.9869,0.0066869794
C0D670,海天一線,2021-12-27,24.832,120.9144,0.0060127145
C0D680,香山濕地,2021-12-27,24.7836,120.915,0.00603741
C0D690,外湖,2021-12-27,24.9177,120.9687,0.0064374227
C0D700,關西,2021-12-27,24.7977,121.1732,0.0074643656
C0E420,竹南,2021-12-27,24.709,120.8889,0.0060675587
C0E430,南庄,2021-12-27,24.6018,121.0002,0.006334295
C0E520,大湖,2021-12-27,24.4149,120.8709,0.006724833
C0E540,後龍,2021-12-27,24.6065,120.7839,0.0010159343
C0E550,明德,2021-12-27,24.5835,120.8854,0.0037386317
C0E590,通霄,2021-12-27,24.4719,120.7046,0.0011540932
C0E730,頭份,2021-12-27,24.6882,120.9122,0.0060675587
C0E740,造橋,2021-12-27,24.6371,120.8648,0.004296631
C0E750,苗栗,2021-12-27,24.5646,120.8246,0.0009365184
C0E780,銅鑼,2021-12-27,24.4897,120.7909,0.004025083
C0E791,卓蘭,2021-12-27,24.3126,120.8244,0.019680064
C0E810,西湖,2021-12-27,24.5629,120.7485,0.00095984974
C0E820,獅潭,2021-12-27,24.5391,120.92,0.0031457236
C0E830,苑裡,2021-12-27,24.4397,120.6531,0.0011461731
C0E850,大河,2021-12-27,24.6181,120.9486,0.0035076896
C0E870,高鐵苗栗,2021-12-27,24.6073,120.8261,0.0009931226
C0E910,海埔,2021-12-27,24.6488,120.7724,0.0047456617
C0E920,通霄漁港,2021-12-27,24.4986,120.6739,0.0012769871
C0E930,龍鳳,2021-12-27,24.7,120.8591,0.0047577214
C0F000,大肚,2021-12-27,24.153,120.5721,0.026577037
C0F0B0,石岡,2021-12-27,24.2761,120.7776,0.03322362
C0F850,東勢,2021-12-27,24.2464,120.833,0.014709548
C0F930,大甲,2021-12-27,24.3477,120.6404,0.0011183061
C0F970,大坑,2021-12-27,24.1731,120.7223,0.0010336954
C0F9A0,中竹林,2021-12-27,24.1036,120.7511,0.019122826
C0F9I0,神岡,2021-12-27,24.2725,120.6583,0.0037421728
C0F9K0,大安,2021-12-27,24.3451,120.588,0.0014380191
C0F9L0,后里,2021-12-27,24.3104,120.7297,0.0028161763
C0F9M0,豐原,2021-12-27,24.2543,120.7207,0.0032283808
C0F9N0,大里,2021-12-27,24.0925,120.7014,0.0015736442
C0F9O0,潭子,2021-12-27,24.2131,120.7039,0.004074056
C0F9P0,清水,2021-12-27,24.3123,120.5622,0.001551607
C0F9Q0,外埔,2021-12-27,24.3478,120.7057,0.0045541376
C0F9R0,龍井,2021-12-27,24.1845,120.529,0.0016481596
C0F9S0,烏日,2021-12-27,24.1071,120.6241,0.02621834
C0F9T0,西屯,2021-12-27,24.1795,120.6413,0.0012883879
C0F9U0,南屯,2021-12-27,24.137,120.638,0.0015736449
C0F9X0,大雅(中科園區),2021-12-27,24.2153,120.6244,0.0010791796
C0FA10,松柏,2021-12-27,24.4291,120.6175,0.0012313853
C0FA20,溫寮,2021-12-27,24.3722,120.5831,0.0012313853
C0FA30,梧棲,2021-12-27,24.256,120.5234,0.0016481596
C0FA40,臺中電廠,2021-12-27,24.2146,120.4907,0.0016481596
C0FA50,霧峰,2021-12-27,24.0419,120.6995,0.0012715964
C0G620,芬園,2021-12-27,24.0157,120.6213,0.013620765
C0G640,鹿港,2021-12-27,24.0753,120.4305,0.02790505
C0G650,員林,2021-12-27,23.9465,120.5856,0.017542522
C0G660,溪湖,2021-12-27,23.9484,120.4791,0.02361968
C0G720,溪州,2021-12-27,23.8516,120.4991,0.044480026
C0G730,二林,2021-12-27,23.9033,120.3761,0.03040966
C0G740,大城,2021-12-27,23.8525,120.3209,0.010616579
C0G770,福興,2021-12-27,24.0413,120.4377,0.028031236
C0G780,秀水,2021-12-27,24.0341,120.5039,0.025972132
C0G800,埔鹽,2021-12-27,24.0004,120.4317,0.028031236
C0G810,埔心,2021-12-27,23.9476,120.5255,0.022323005
C0G820,田尾,2021-12-27,23.9017,120.5094,0.02124326
C0G830,埤頭,2021-12-27,23.866,120.4528,0.049480118
C0G840,北斗,2021-12-27,23.8776,120.5142,0.02124326
C0G860,社頭,2021-12-27,23.8976,120.5862,0.016847197
C0G870,芳苑,2021-12-27,23.9223,120.32,0.011421757
C0G880,二水,2021-12-27,23.8107,120.6173,0.022118172
C0G890,伸港,2021-12-27,24.1489,120.4844,0.0017823669
C0G900,線西,2021-12-27,24.1434,120.4435,0.0018052042
C0G910,花壇,2021-12-27,24.0321,120.5495,0.02333784
C0G920,永靖,2021-12-27,23.9247,120.5475,0.02124326
C0G940,竹塘,2021-12-27,23.8483,120.3868,0.0851541
C0G950,防潮門,2021-12-27,24.1835,120.4871,0.0017095577
C0G960,福寶,2021-12-27,24.0443,120.3814,0.029525261
C0G970,三豐,2021-12-27,23.882,120.2895,0.011421725
C0H890,埔里,2021-12-27,23.9722,120.9524,0.023969408
C0H950,中寮,2021-12-27,23.8844,120.7664,0.013307074
C0H960,草屯,2021-12-27,23.9737,120.6809,0.023600554
C0I110,竹山,2021-12-27,23.7612,120.6882,0.014754363
C0I360,水里,2021-12-27,23.8126,120.8498,0.011362143
C0I380,集集,2021-12-27,23.8282,120.8015,0.011861478
C0I410,名間,2021-12-27,23.8371,120.7014,0.019501425
C0I420,國姓,2021-12-27,24.0378,120.8551,0.019098734
C0I460,南投,2021-12-27,23.9115,120.6873,0.01739863
C0K250,崙背,2021-12-27,23.7555,120.3189,0.011685931
C0K280,四湖,2021-12-27,23.6304,120.2271,0.0110885305
C0K291,宜梧,2021-12-27,23.5363,120.1693,0.123558335
C0K330,虎尾,2021-12-27,23.7192,120.442,0.13302788
C0K390,土庫,2021-12-27,23.679,120.3956,0.13978398
C0K400,斗六,2021-12-27,23.7206,120.5411,0.05322538
C0K410,北港,2021-12-27,23.574,120.2928,0.106570676
C0K420,西螺,2021-12-27,23.8004,120.4674,0.03825574
C0K430,褒忠,2021-12-27,23.6909,120.3036,0.019320356
C0K440,二崙,2021-12-27,23.7728,120.4089,0.08079749
C0K450,大埤,2021-12-27,23.6461,120.4315,0.0584326
C0K460,斗南,2021-12-27,23.6787,120.4784,0.058999997
C0K470,林內,2021-12-27,23.7487,120.6096,0.029989552
C0K480,莿桐,2021-12-27,23.7612,120.5024,0.036513153
C0K500,元長,2021-12-27,23.6498,120.315,0.012921792
C0K510,水林,2021-12-27,23.5729,120.246,0.07887203
C0K530,臺西,2021-12-27,23.7015,120.1976,0.011815603
C0K550,蔦松,2021-12-27,23.5143,120.2297,0.113693275
C0K560,棋山,2021-12-27,23.6865,120.6034,0.038194984
C0K580,高鐵雲林,2021-12-27,23.7375,120.4179,0.13978398
C0K590,雲林東勢,2021-12-27,23.6742,120.2557,0.019320356
C0K600,箔子寮,2021-12-27,23.6197,120.14,0.08548858
C0M410,馬頭山,2021-12-27,23.3244,120.582,0.0082547255
C0M520,東後寮,2021-12-27,23.3699,120.2481,0.23862402
C0M640,中埔,2021-12-27,23.4254,120.5229,0.021415975
C0M650,朴子,2021-12-27,23.4346,120.239,0.16582444
C0M660,溪口,2021-12-27,23.6041,120.4036,0.00709667
C0M670,大林,2021-12-27,23.6006,120.4584,0.0062139444
C0M680,太保,2021-12-27,23.4551,120.3315,0.111293964
C0M690,水上,2021-12-27,23.4197,120.3889,0.004730769
C0M700,竹崎,2021-12-27,23.5262,120.5555,0.018489508
C0M710,東石,2021-12-27,23.4589,120.1539,0.113693275
C0M720,番路,2021-12-27,23.4647,120.5542,0.0143903075
C0M730,嘉義市東區,2021-12-27,23.4577,120.4605,0.0037446946
C0M740,六腳,2021-12-27,23.4929,120.2906,0.120361984
C0M750,布袋,2021-12-27,23.3809,120.1678,0.16582444
C0M760,民雄,2021-12-27,23.5518,120.4285,0.0063706
C0M770,嘉義梅山,2021-12-27,23.5854,120.5556,0.031538412
C0M780,鹿草,2021-12-27,23.4113,120.3084,0.09555436
C0M790,新港,2021-12-27,23.5533,120.3457,0.09852443
C0M800,茶山,2021-12-27,23.2991,120.6648,0.039818674
C0M880,好美里,2021-12-27,23.3364,120.138,0.34615615
C0N010,鯤鯓國小,2021-12-27,23.1879,120.0889,0.27940693
C0N020,城西,2021-12-27,23.0568,120.0956,0.6482076
C0N030,四草,2021-12-27,23.0235,120.1116,0.8000547
C0N040,蘆竹溝,2021-12-27,23.2344,120.0961,0.27940705
C0N050,蚵寮,2021-12-27,23.301,120.1104,0.27940693
C0O810,曾文,2021-12-27,23.2197,120.4973,0.01797912
C0O830,北寮,2021-12-27,23.0796,120.495,0.09147127
C0O840,王爺宮,2021-12-27,23.2221,120.4009,0.01797912
C0O860,大內,2021-12-27,23.1188,120.3608,0.17487544
C0O900,善化,2021-12-27,23.1129,120.2972,0.4710477
C0O930,玉井,2021-12-27,23.126,120.4605,0.05370223
C0O950,安南,2021-12-27,23.0767,120.1449,0.631103
C0O960,崎頂,2021-12-27,22.9595,120.3693,0.23936638
C0O970,虎頭埤,2021-12-27,23.0214,120.3479,0.6041305
C0O980,新市,2021-12-27,23.0616,120.2982,0.4710477
C0O990,媽廟,2021-12-27,22.9917,120.2935,0.72739434
C0R150,三地門,2021-12-27,22.7099,120.6399,0.3405109
C0R160,鹽埔,2021-12-27,22.7396,120.5308,0.51146364
C0R170,屏東,2021-12-27,22.6603,120.4941,0.7059856
C0R190,赤山,2021-12-27,22.5923,120.6143,0.20819962
C0R220,潮州,2021-12-27,22.5344,120.54,0.02241869
C0R240,來義,2021-12-27,22.5273,120.6251,0.0076464675
C0R260,春日,2021-12-27,22.3704,120.6283,0.009591053
C0R270,琉球嶼,2021-12-27,22.3322,120.3622,0.009046202
C0R280,檳榔,2021-12-27,22.0761,120.8368,2.0939478e-05
C0R320,車城,2021-12-27,22.0744,120.7162,1.6324453e-05
C0R341,牡丹,2021-12-27,22.13,120.7926,0.008849668
C0R350,貓鼻頭,2021-12-27,21.9218,120.7358,1.4992872e-05
C0R470,高樹,2021-12-27,22.8264,120.6008,0.28549293
C0R480,長治,2021-12-27,22.6931,120.5426,0.51571566
C0R490,九如,2021-12-27,22.7405,120.4905,0.69441885
C0R520,崁頂,2021-12-27,22.5148,120.5069,0.37013087
C0R540,佳冬,2021-12-27,22.4195,120.5524,0.3663076
C0R550,新埤,2021-12-27,22.4679,120.5829,0.19473012
C0R560,新園,2021-12-27,22.5434,120.4616,0.37013087
C0R570,麟洛,2021-12-27,22.6508,120.5272,0.69441897
C0R580,南州,2021-12-27,22.4859,120.5027,0.3663076
C0R590,里港,2021-12-27,22.7792,120.4946,0.44064224
C0R620,墾雷,2021-12-27,21.9008,120.8553,1.49928865e-05
C0R640,東港,2021-12-27,22.4625,120.4407,0.5404165
C0R650,竹田,2021-12-27,22.5849,120.5434,0.18290032
C0R660,枋寮,2021-12-27,22.3677,120.5906,0.02256797
C0R670,楓港,2021-12-27,22.1901,120.6922,0.035969984
C0R680,佳樂水,2021-12-27,21.9936,120.8616,1.55931e-05
C0R690,墾丁,2021-12-27,21.9668,120.8103,2.174969e-05
C0R700,枋山,2021-12-27,22.2468,120.6611,0.035969984
C0R710,龍磐,2021-12-27,21.9317,120.8389,1.3548775e-05
C0R720,旭海,2021-12-27,22.2054,120.8876,0.001262541
C0R730,大坪頂,2021-12-27,22.0246,120.6936,2.0090243e-05
C0R740,獅子,2021-12-27,22.2016,120.7053,0.025286969
C0R760,南仁湖,2021-12-27,22.0847,120.8634,6.689312e-05
C0R770,保力,2021-12-27,22.0711,120.7641,1.3989363e-05
C0R780,滿州,2021-12-27,22.0244,120.8399,1.4762024e-05
C0R790,九棚,2021-12-27,22.142,120.8893,0.0019041917
C0R800,丹路,2021-12-27,22.2045,120.751,0.012637849
C0R810,內獅,2021-12-27,22.3051,120.643,0.013836581
C0R830,高士,2021-12-27,22.1218,120.8368,0.00011052673
C0R850,林邊,2021-12-27,22.4634,120.5339,0.37013087
C0R860,鼻頭,2021-12-27,22.1043,120.8979,9.956232e-05
C0R870,興海,2021-12-27,21.9752,120.8439,1.55931e-05
C0R880,後壁湖,2021-12-27,21.9457,120.7457,1.6767379e-05
C0R890,山海,2021-12-27,21.9878,120.7091,1.6324453e-05
C0R900,竹坑,2021-12-27,22.1385,120.7022,0.049854983
C0R910,下寮,2021-12-27,22.3929,120.5548,0.3663076
C0R920,塭仔,2021-12-27,22.4169,120.5197,0.36421892
C0R930,萬丹,2021-12-27,22.5885,120.4851,0.18290032
C0R940,加祿堂,2021-12-27,22.3363,120.6217,0.013836581
C0S710,鹿野,2021-12-27,22.9177,121.123,0.0025483512
C0S730,綠島,2021-12-27,22.6672,121.4753,0.012676051
C0S740,池上,2021-12-27,23.1196,121.2095,0.00524417
C0S770,大溪山,2021-12-27,22.4785,120.9433,0.0023193527
C0S790,金崙,2021-12-27,22.5381,120.9669,0.0055511333
C0S810,東河,2021-12-27,22.9727,121.304,0.014583641
C0S830,長濱,2021-12-27,23.2868,121.412,0.00069522817
C0S840,南田,2021-12-27,22.2797,120.8892,0.026545798
C0S890,關山,2021-12-27,23.0395,121.175,0.0027810873
C0S900,蘭嶼高中,2021-12-27,22.0491,121.5121,0.001021148
C0S910,蘭嶼燈塔,2021-12-27,22.0812,121.5031,0.0008281304
C0S920,金峰嘉蘭,2021-12-27,22.5948,120.9608,0.040492497
C0S930,延平,2021-12-27,22.9026,121.0841,0.0015246624
C0S940,石寧山,2021-12-27,23.2238,121.4066,0.0015573197
C0S950,七塊厝,2021-12-27,22.9545,121.2299,0.0020814517
C0S960,香蘭,2021-12-27,22.5876,120.9934,0.20550731
C0S970,加津林,2021-12-27,22.4162,120.9269,0.0787099
C0S990,山豬窟,2021-12-27,22.3186,120.8574,0.0003961822
C0SA00,歷坵,2021-12-27,22.521,120.8919,0.001953417
C0SA10,檳榔四格山,2021-12-27,22.81,121.1093,0.0019919816
C0SA30,都歷,2021-12-27,23.0203,121.3236,0.019095665
C0SA40,瑞和,2021-12-27,22.9744,121.1567,0.0036749109
C0SA60,知本（水試所）,2021-12-27,22.7024,121.0828,0.012189143
C0SA80,土,2021-12-27,22.4531,120.8876,0.016223742
C0SA90,達仁林場,2021-12-27,22.2643,120.824,0.0066550286
C0T870,鯉魚潭,2021-12-27,23.9356,121.5089,0.28236178
C0T900,西林,2021-12-27,23.8119,121.4415,0.21110952
C0T960,光復,2021-12-27,23.6607,121.425,0.05725246
C0T9A0,月眉山,2021-12-27,23.8099,121.5398,0.019969763
C0T9D0,和中,2021-12-27,24.2668,121.741,0.14105345
C0T9E0,大坑,2021-12-27,23.8806,121.582,0.035329953
C0T9F0,水璉,2021-12-27,23.7971,121.5425,0.10122424
C0T9I0,豐濱,2021-12-27,23.5839,121.5148,0.03945085
C0T9M0,靜浦,2021-12-27,23.4552,121.495,0.07623373
C0T9N0,富里,2021-12-27,23.1716,121.2494,0.00053097645
C0U600,礁溪,2021-12-27,24.8175,121.7656,0.0031380232
C0U650,玉蘭,2021-12-27,24.6753,121.5871,0.0012168214
C0U750,龜山島,2021-12-27,24.8417,121.9531,0.0024515013
C0U760,東澳,2021-12-27,24.522,121.8332,0.019657463
C0U770,南澳,2021-12-27,24.4493,121.8102,0.087900944
C0U780,五結,2021-12-27,24.6864,121.7979,0.0066840695
C0U860,頭城,2021-12-27,24.8532,121.8308,0.0033000766
C0U870,大礁溪,2021-12-27,24.791,121.675,0.00096657797
C0U880,北關,2021-12-27,24.9072,121.8734,0.008543498
C0U890,三星,2021-12-27,24.6681,121.653,0.0019597365
C0U900,內城,2021-12-27,24.7181,121.6877,0.0026780944
C0U910,冬山,2021-12-27,24.6337,121.7937,0.0066840695
C0U940,羅東,2021-12-27,24.6818,121.7493,0.006126811
C0U970,大福,2021-12-27,24.8006,121.8139,0.00350239
C0U990,員山,2021-12-27,24.7444,121.7225,0.006126811
C0UA00,土場,2021-12-27,24.5765,121.4953,0.0017070669
C0UA80,大溪漁港,2021-12-27,24.9418,121.903,0.003138022
C0UA90,石城,2021-12-27,24.9804,121.9512,0.0019396611
C0UB00,淡江大學蘭陽校園,2021-12-27,24.8232,121.7304,0.0011587804
C0UB10,蘇澳,2021-12-27,24.5969,121.8571,0.112182304
C0UB20,壯圍,2021-12-27,24.7359,121.8163,0.0072780726
C0V250,甲仙,2021-12-27,23.0801,120.5918,0.044938695
C0V260,月眉,2021-12-27,22.971,120.5399,0.13772361
C0V310,美濃,2021-12-27,22.8987,120.5192,0.2276014
C0V350,溪埔,2021-12-27,22.7386,120.4468,0.6378561
C0V360,內門,2021-12-27,22.9755,120.4668,0.11201424
C0V370,古亭坑,2021-12-27,22.8932,120.4019,0.4075203
C0V400,阿公店,2021-12-27,22.8042,120.3555,0.6979211
C0V440,鳳山,2021-12-27,22.6467,120.3561,0.5144276
C0V450,鳳森,2021-12-27,22.5451,120.3926,0.05895481
C0V490,新興,2021-12-27,22.6274,120.2988,0.53285724
C0V530,阿蓮,2021-12-27,22.8832,120.3275,0.8639548
C0V610,梓官,2021-12-27,22.7606,120.2672,0.8161989
C0V620,永安,2021-12-27,22.8231,120.2369,0.75338256
C0V630,茄萣,2021-12-27,22.9066,120.1826,0.7907939
C0V640,湖內,2021-12-27,22.8871,120.2445,0.7848555
C0V650,彌陀,2021-12-27,22.7838,120.2464,0.75338256
C0V660,岡山,2021-12-27,22.7971,120.295,0.8161989
C0V680,仁武,2021-12-27,22.7011,120.3477,0.68105346
C0V690,鼓山,2021-12-27,22.6233,120.2756,0.53285724
C0V700,三民,2021-12-27,22.645,120.3112,0.53285724
C0V710,苓雅,2021-12-27,22.6227,120.3307,0.53285724
C0V720,林園,2021-12-27,22.5077,120.3945,0.53285724
C0V730,大寮,2021-12-27,22.6056,120.3957,0.04344175
C0V740,旗山,2021-12-27,22.8886,120.4836,0.21252625
C0V750,路竹,2021-12-27,22.855,120.2594,0.8702112
C0V760,橋頭,2021-12-27,22.7578,120.3058,0.8097383
C0V770,大社,2021-12-27,22.7303,120.3466,0.68105346
C0V790,萬山,2021-12-27,22.9059,120.6881,0.061453294
C0V800,六龜,2021-12-27,22.9979,120.6336,0.09627311
C0V810,左營,2021-12-27,22.6749,120.2849,0.6859523
C0V820,小林,2021-12-27,23.1484,120.6333,0.034549024
C0V840,鳳鼻頭,2021-12-27,22.5083,120.3591,0.5404165
C0V850,蚵仔寮,2021-12-27,22.7256,120.2527,0.6916714
C0V860,南寮,2021-12-27,22.7616,120.2339,0.75820524
C0V870,文安,2021-12-27,22.8025,120.2164,0.75820524
C0V880,興達,2021-12-27,22.8778,120.2127,0.7907939
C0V890,前鎮,2021-12-27,22.5718,120.3117,0.5404165
C0V900,汕尾,2021-12-27,22.4782,120.4151,0.6439836
C0X050,東河,2021-12-27,23.2966,120.3856,0.039675016
C0X060,下營,2021-12-27,23.2269,120.2563,0.19885178
C0X080,佳里,2021-12-27,23.173,120.1451,0.34615606
C0X100,臺南市北區,2021-12-27,23.0104,120.1942,0.8131725
C0X110,臺南市南區,2021-12-27,22.9612,120.1884,0.8070235
C0X120,麻豆,2021-12-27,23.1833,120.2486,0.32899705
C0X130,官田,2021-12-27,23.1932,120.3154,0.1703035
C0X140,西港,2021-12-27,23.1256,120.2031,0.5616466
C0X150,安定,2021-12-27,23.1026,120.2278,0.5746683
C0X160,仁德,2021-12-27,22.9683,120.2577,0.74269885
C0X170,關廟,2021-12-27,22.963,120.3278,0.6878088
C0X180,山上,2021-12-27,23.0757,120.3633,0.096841194
C0X190,安平,2021-12-27,22.9932,120.1522,0.8131725
C0X200,左鎮,2021-12-27,23.0568,120.4085,0.104112126
C0X210,白河,2021-12-27,23.3475,120.4144,0.034587458
C0X220,學甲,2021-12-27,23.2304,120.1822,0.328997
C0X230,鹽水,2021-12-27,23.2726,120.2476,0.27321556
C0X240,關子嶺,2021-12-27,23.3312,120.508,0.025254717
C0X250,新營,2021-12-27,23.3107,120.3167,0.17112681
C0X260,後壁,2021-12-27,23.3664,120.3623,0.065952435
C0X280,將軍,2021-12-27,23.215,120.1358,0.34615615
C0X290,北門,2021-12-27,23.2678,120.1255,0.34615615
C0X300,鹿寮,2021-12-27,23.386,120.4773,0.037505902
C0X310,七股,2021-12-27,23.1473,120.0863,0.63910276
C0X320,柳營,2021-12-27,23.2533,120.3753,0.03679049
C0Z020,明里,2021-12-27,23.2087,121.2623,0.0008157169
C0Z061,玉里,2021-12-27,23.3215,121.3397,0.0019459381
C0Z070,舞鶴,2021-12-27,23.4681,121.3741,0.024745246
C0Z080,富源,2021-12-27,23.5876,121.3782,0.023862269
C0Z100,東華,2021-12-27,23.8953,121.5498,0.52874744
C0Z150,吉安光華,2021-12-27,23.9309,121.5952,0.5799448
C0Z160,鳳林,2021-12-27,23.7461,121.4534,0.066400774
C0Z170,卓溪,2021-12-27,23.3443,121.3029,0.0014745699
C0Z180,新城,2021-12-27,24.0395,121.6045,0.18557262
C0Z190,富世,2021-12-27,24.1474,121.6297,0.0083617745
C0Z200,萬榮,2021-12-27,23.7092,121.4201,0.28236178
C0Z210,瑞穗,2021-12-27,23.5239,121.3902,0.050351024
C0Z230,和平,2021-12-27,24.3072,121.7701,0.14105336
C0Z270,蕃薯寮,2021-12-27,23.7384,121.5401,0.047897052
C0Z280,德武,2021-12-27,23.4743,121.4107,0.041898344
C0Z300,東里,2021-12-27,23.2685,121.3055,0.0016856286
C0Z310,清水斷崖,2021-12-27,24.2183,121.6891,0.048111238
C0Z330,安通山,2021-12-27,23.2907,121.3485,0.0012769611
