站號,站名,日期,lat,lon,BlastGRU-TW
466881,新北,2021-09-24,24.9593,121.52,0.17130694
466900,淡水,2021-09-24,25.164889,121.448906,0.17801525
466920,臺北,2021-09-24,25.037658,121.514853,0.16157185
467441,高雄,2021-09-24,22.7304,120.3125,0.07095152
467480,嘉義,2021-09-24,23.495925,120.432906,0.7295284
467490,臺中,2021-09-24,24.145736,120.684075,0.30016536
C0A540,四堵,2021-09-24,24.8926,121.745736,0.13932247
C0A550,泰平,2021-09-24,24.971197,121.823711,0.027631398
C0A560,福山,2021-09-24,24.776203,121.502811,0.01946713
C0A931,三和,2021-09-24,25.233153,121.595236,0.07755891
C0A940,金山,2021-09-24,25.223628,121.643967,0.25264007
C0A950,鼻頭角,2021-09-24,25.129036,121.923372,0.05833198
C0AD10,八里,2021-09-24,25.150211,121.403947,0.17801525
C0AD30,蘆洲,2021-09-24,25.086594,121.472331,0.15483847
C0AD40,土城,2021-09-24,24.973208,121.445169,0.15873922
C0AI10,屈尺,2021-09-24,24.92184,121.54475,0.18228608
C0AI20,白沙灣,2021-09-24,25.283128,121.519058,0.2459163
C0AI30,三重,2021-09-24,25.057328,121.500629,0.15483859
C0B010,七堵,2021-09-24,25.094819,121.71713,0.21508406
C0B020,基隆嶼,2021-09-24,25.19141,121.78391,0.20917608
