站號,站名,日期,lat,lon,BlastGRU-TW
466881,新北,2021-02-07,24.9593,121.52,0.00049847434
466900,淡水,2021-02-07,25.164889,121.448906,0.0010597137
466920,臺北,2021-02-07,25.037658,121.514853,0.0005373993
467441,高雄,2021-02-07,22.7304,120.3125,0.03047073
467480,嘉義,2021-02-07,23.495925,120.432906,0.0009744365
467490,臺中,2021-02-07,24.145736,120.684075,0.00083690457
C0A540,四堵,2021-02-07,24.8926,121.745736,0.000853216
C0A550,泰平,2021-02-07,24.971197,121.823711,0.0013147334
C0A560,福山,2021-02-07,24.776203,121.502811,0.001529868
C0A931,三和,2021-02-07,25.233153,121.595236,0.0012309485
C0A940,金山,2021-02-07,25.223628,121.643967,0.0008697879
C0A950,鼻頭角,2021-02-07,25.129036,121.923372,0.0024528157
C0AD10,八里,2021-02-07,25.150211,121.403947,0.0010511891
C0AD30,蘆洲,2021-02-07,25.086594,121.472331,0.0008174462
C0AD40,土城,2021-02-07,24.973208,121.445169,0.00074973825
C0AI10,屈尺,2021-02-07,24.92184,121.54475,0.00045918068
C0AI20,白沙灣,2021-02-07,25.283128,121.519058,0.00080560416
C0AI30,三重,2021-02-07,25.057328,121.500629,0.0008174462
C0B010,七堵,2021-02-07,25.094819,121.71713,0.0006394401
C0B020,基隆嶼,2021-02-07,25.19141,121.78391,0.0006075838
