站號,站名,日期,lat,lon,BlastGRU-TW
466881,新北,2021-11-24,24.9593,121.52,0.02352337
466900,淡水,2021-11-24,25.164889,121.448906,0.016741924
466920,臺北,2021-11-24,25.037658,121.514853,0.026574945
467441,高雄,2021-11-24,22.7304,120.3125,0.08266977
467480,嘉義,2021-11-24,23.495925,120.432906,0.3705854
467490,臺中,2021-11-24,24.145736,120.684075,0.086255
C0A540,四堵,2021-11-24,24.8926,121.745736,0.011813655
C0A550,泰平,2021-11-24,24.971197,121.823711,0.08602222
C0A560,福山,2021-11-24,24.776203,121.502811,0.028510656
C0A931,三和,2021-11-24,25.233153,121.595236,0.12764598
C0A940,金山,2021-11-24,25.223628,121.643967,0.010013089
C0A950,鼻頭角,2021-11-24,25.129036,121.923372,0.2514977
C0AD10,八里,2021-11-24,25.150211,121.403947,0.016741924
C0AD30,蘆洲,2021-11-24,25.086594,121.472331,0.023413107
C0AD40,土城,2021-11-24,24.973208,121.445169,0.021786308
C0AI10,屈尺,2021-11-24,24.92184,121.54475,0.0198455
C0AI20,白沙灣,2021-11-24,25.283128,121.519058,0.011400316
C0AI30,三重,2021-11-24,25.057328,121.500629,0.023413107
C0B010,七堵,2021-11-24,25.094819,121.71713,0.017795919
C0B020,基隆嶼,2021-11-24,25.19141,121.78391,0.020462113
