站號,站名,日期,lat,lon,BlastGRU-TW
466881,新北,2021-11-14,24.9593,121.52,0.6314932
466900,淡水,2021-11-14,25.164889,121.448906,0.008037197
466920,臺北,2021-11-14,25.037658,121.514853,0.6513594
467350,澎湖,2021-11-14,23.565503,119.563094,0.0028997315
467410,臺南,2021-11-14,22.993239,120.204772,0.201094
467420,永康,2021-11-14,23.038386,120.2367,0.19764316
467790,墾丁雷達站,2021-11-14,21.948235,120.808028,0.007806417
C0A520,山佳,2021-11-14,24.974944,121.402008,0.29611462
C0A530,坪林,2021-11-14,24.938183,121.70975,0.1856381
C0A880,福隆,2021-11-14,25.017842,121.942083,0.632752
C0A890,雙溪,2021-11-14,25.036003,121.864242,0.006418751
C0A920,富貴角,2021-11-14,25.263783,121.565258,0.02785279
C0AC80,文山,2021-11-14,25.00235,121.575728,0.5925065
C0ACA0,新莊,2021-11-14,25.051478,121.446756,0.019218313
C0AD00,三芝,2021-11-14,25.258131,121.501917,0.008113527
C0AH70,松山,2021-11-14,25.04871,121.55042,0.6513594
C0AH80,深坑,2021-11-14,25.002703,121.628328,0.5925065
C0AI00,五股,2021-11-14,25.07445,121.42728,0.004178274
C0AJ70,田寮,2021-11-14,25.2698,121.4886,0.0039678933
