站號,站名,日期,lat,lon,BlastGRU-TW
466881,新北,2021-11-24,24.9593,121.52,0.02352337
466900,淡水,2021-11-24,25.164889,121.448906,0.016741924
466920,臺北,2021-11-24,25.037658,121.514853,0.026574945
467350,澎湖,2021-11-24,23.565503,119.563094,0.008716071
467410,臺南,2021-11-24,22.993239,120.204772,0.1270809
467420,永康,2021-11-24,23.038386,120.2367,0.13007554
467790,墾丁雷達站,2021-11-24,21.948235,120.808028,0.035915177
C0A520,山佳,2021-11-24,24.974944,121.402008,0.019026846
C0A530,坪林,2021-11-24,24.938183,121.70975,0.010148847
C0A880,福隆,2021-11-24,25.017842,121.942083,0.25322828
C0A890,雙溪,2021-11-24,25.036003,121.864242,0.015472296
C0A920,富貴角,2021-11-24,25.263783,121.565258,0.0053887037
C0AC80,文山,2021-11-24,25.00235,121.575728,0.0198455
C0ACA0,新莊,2021-11-24,25.051478,121.446756,0.018670188
C0AD00,三芝,2021-11-24,25.258131,121.501917,0.007734334
C0AH70,松山,2021-11-24,25.04871,121.55042,0.026574949
C0AH80,深坑,2021-11-24,25.002703,121.628328,0.0198455
C0AI00,五股,2021-11-24,25.07445,121.42728,0.002260757
C0AJ70,田寮,2021-11-24,25.2698,121.4886,0.0122405095
