站號,站名,日期,lat,lon,BlastGRU-TW
466881,新北,2021-12-10,24.9593,121.52,0.042920917
466900,淡水,2021-12-10,25.164889,121.448906,0.029758029
466920,臺北,2021-12-10,25.037658,121.514853,0.05396957
467441,高雄,2021-12-10,22.7304,120.3125,0.87491465
467480,嘉義,2021-12-10,23.495925,120.432906,0.050638635
467490,臺中,2021-12-10,24.145736,120.684075,0.0040586474
C0A530,坪林,2021-12-10,24.938183,121.70975,0.008414275
C0A540,四堵,2021-12-10,24.8926,121.745736,0.039132833
C0A550,泰平,2021-12-10,24.971197,121.823711,0.018642044
C0A890,雙溪,2021-12-10,25.036003,121.864242,0.074942835
C0A920,富貴角,2021-12-10,25.263783,121.565258,0.0065629934
C0A931,三和,2021-12-10,25.233153,121.595236,0.0132752685
C0AC70,信義,2021-12-10,25.037822,121.564597,0.05396957
C0AC80,文山,2021-12-10,25.00235,121.575728,0.030896356
C0ACA0,新莊,2021-12-10,25.051478,121.446756,0.044123303
C0AH50,林口,2021-12-10,25.072181,121.38084,0.0731877
C0AH70,松山,2021-12-10,25.04871,121.55042,0.05396957
C0AH80,深坑,2021-12-10,25.002703,121.628328,0.030896356
C0AJ60,六塊厝,2021-12-10,25.24,121.4481,0.03348576
C0AJ70,田寮,2021-12-10,25.2698,121.4886,0.01106645
