站號,站名,日期,lat,lon,BlastGRU-TW
466881,新北,2021-12-10,24.9593,121.52,0.042920917
466900,淡水,2021-12-10,25.1649,121.4489,0.029758029
466920,臺北,2021-12-10,25.0377,121.5149,0.05396957
466940,基隆,2021-12-10,25.1333,121.7405,0.1325842
466990,花蓮,2021-12-10,23.9751,121.6133,0.28800654
467050,新屋,2021-12-10,25.0067,121.0475,0.09681896
467080,宜蘭,2021-12-10,24.764,121.7565,0.10747368
467270,田中,2021-12-10,23.8738,120.5813,0.21245655
467300,東吉島,2021-12-10,23.2569,119.6675,0.00089705
467350,澎湖,2021-12-10,23.5655,119.5631,0.0004530611
467410,臺南,2021-12-10,22.9932,120.2048,0.7739044
467420,永康,2021-12-10,23.0384,120.2367,0.77022016
467441,高雄,2021-12-10,22.7304,120.3125,0.87491465
467480,嘉義,2021-12-10,23.4959,120.4329,0.050638635
467490,臺中,2021-12-10,24.1457,120.6841,0.0040586474
467540,大武,2021-12-10,22.3557,120.9038,0.8904707
467571,新竹,2021-12-10,24.8279,121.0142,0.019908564
467590,恆春,2021-12-10,22.0039,120.7463,0.60006917
467610,成功,2021-12-10,23.0975,121.3734,0.8386107
467620,蘭嶼,2021-12-10,22.037,121.5583,0.011002265
467660,臺東,2021-12-10,22.7522,121.1546,0.7227638
467790,墾丁雷達站,2021-12-10,21.9482,120.808,0.55449325
C0A520,山佳,2021-12-10,24.9749,121.402,0.030866554
C0A530,坪林,2021-12-10,24.9382,121.7097,0.008414275
C0A540,四堵,2021-12-10,24.8926,121.7457,0.039132833
C0A550,泰平,2021-12-10,24.9712,121.8237,0.018642044
C0A560,福山,2021-12-10,24.7762,121.5028,0.017381258
C0A570,桶後,2021-12-10,24.8482,121.598,0.026134841
C0A640,石碇,2021-12-10,24.994,121.6629,0.037262097
C0A650,火燒寮,2021-12-10,25.0027,121.7429,0.019142423
C0A660,瑞芳,2021-12-10,25.1132,121.8011,0.09626626
C0A770,科教館,2021-12-10,25.0964,121.5165,0.043929275
C0A860,大坪,2021-12-10,25.1659,121.633,0.01853327
C0A880,福隆,2021-12-10,25.0178,121.9421,0.2265418
C0A890,雙溪,2021-12-10,25.036,121.8642,0.074942835
C0A920,富貴角,2021-12-10,25.2638,121.5653,0.0065629934
C0A931,三和,2021-12-10,25.2332,121.5952,0.0132752685
C0A940,金山,2021-12-10,25.2236,121.644,0.008264135
C0A950,鼻頭角,2021-12-10,25.129,121.9234,0.24061154
C0A970,三貂角,2021-12-10,25.0076,122.0021,0.066807784
C0A980,社子,2021-12-10,25.1095,121.4697,0.049607556
C0A9C0,天母,2021-12-10,25.1175,121.5372,0.034646906
C0A9F0,內湖,2021-12-10,25.0794,121.5755,0.05396957
C0AC60,三峽,2021-12-10,24.939,121.3697,0.038626824
C0AC70,信義,2021-12-10,25.0378,121.5646,0.05396957
C0AC80,文山,2021-12-10,25.0023,121.5757,0.030896356
C0ACA0,新莊,2021-12-10,25.0515,121.4468,0.044123303
C0AD00,三芝,2021-12-10,25.2581,121.5019,0.0058244616
C0AD10,八里,2021-12-10,25.1502,121.4039,0.029758029
C0AD30,蘆洲,2021-12-10,25.0866,121.4723,0.043929275
C0AD40,土城,2021-12-10,24.9732,121.4452,0.03903807
C0AD50,鶯歌,2021-12-10,24.9515,121.3463,0.017430434
C0AG80,中和,2021-12-10,24.9916,121.4918,0.05396957
C0AH00,汐止,2021-12-10,25.0669,121.6588,0.119111255
C0AH10,永和,2021-12-10,25.0113,121.5081,0.06106505
C0AH40,平等,2021-12-10,25.1291,121.5771,0.029603835
C0AH50,林口,2021-12-10,25.0722,121.3808,0.07318769
C0AH70,松山,2021-12-10,25.0487,121.5504,0.05396957
C0AH80,深坑,2021-12-10,25.0027,121.6283,0.03425824
C0AI00,五股,2021-12-10,25.0744,121.4273,0.006551845
C0AI10,屈尺,2021-12-10,24.9218,121.5447,0.030896356
C0AI20,白沙灣,2021-12-10,25.2831,121.5191,0.009979612
C0AI30,三重,2021-12-10,25.0573,121.5006,0.043929275
C0AI40,石牌,2021-12-10,25.1156,121.5131,0.03903807
C0AJ20,野柳,2021-12-10,25.207,121.69,0.119111255
C0AJ30,淡水觀海,2021-12-10,25.1846,121.4086,0.033485733
C0AJ40,石門,2021-12-10,25.2737,121.6012,0.0027390094
C0AJ50,水湳洞,2021-12-10,25.1237,121.8622,0.119111255
C0AJ60,六塊厝,2021-12-10,25.24,121.4481,0.033485733
C0AJ70,田寮,2021-12-10,25.2698,121.4886,0.01106645
C0AJ80,板橋,2021-12-10,25.0107,121.4489,0.03903807
C0AJ90,澳底,2021-12-10,25.0552,121.9253,0.2265418
C0B010,七堵,2021-12-10,25.0948,121.7171,0.094806686
C0B020,基隆嶼,2021-12-10,25.1914,121.7839,0.119111255
C0B040,大武崙,2021-12-10,25.1667,121.707,0.09480671
C0B050,八斗子,2021-12-10,25.1448,121.7917,0.14810319
C0B060,暖暖,2021-12-10,25.0957,121.7403,0.05217
C0C460,復興,2021-12-10,24.8202,121.3523,0.0153097045
C0C480,桃園,2021-12-10,24.9924,121.3232,0.011431927
C0C490,八德,2021-12-10,24.9287,121.2833,0.029313589
C0C590,觀音,2021-12-10,25.0271,121.1533,0.011213912
C0C620,蘆竹,2021-12-10,25.0843,121.2658,0.02358775
C0C630,大溪,2021-12-10,24.8829,121.2655,0.016199488
C0C650,平鎮,2021-12-10,24.8975,121.2146,0.0059248926
C0C660,楊梅,2021-12-10,24.9124,121.143,0.00566415
C0C670,龍潭,2021-12-10,24.8701,121.2214,0.0028695466
C0C680,龜山,2021-12-10,25.0285,121.3866,0.085883036
C0C700,中壢,2021-12-10,24.9777,121.2564,0.009054862
C0C710,大溪永福,2021-12-10,24.8929,121.325,0.010840812
C0C720,竹圍,2021-12-10,25.1127,121.2398,0.029758029
C0C730,中大臨海站,2021-12-10,24.9661,121.0086,0.14327289
C0C740,觀音工業區,2021-12-10,25.0648,121.1149,0.009213966
C0C750,新興坑尾,2021-12-10,25.0061,121.0971,0.0058502406
C0D430,峨眉,2021-12-10,24.6905,121.0172,0.030542921
C0D480,打鐵坑,2021-12-10,24.8497,121.1508,0.004162554
C0D540,橫山,2021-12-10,24.7112,121.1169,0.0055209463
C0D560,竹東,2021-12-10,24.7671,121.0579,0.018389503
C0D580,寶山,2021-12-10,24.735,121.0252,0.0125609785
C0D590,新豐,2021-12-10,24.8707,120.9772,0.030595338
C0D650,湖口,2021-12-10,24.9048,121.0436,0.0469767
C0D660,新竹市東區,2021-12-10,24.7987,120.9869,0.017099379
C0D670,海天一線,2021-12-10,24.832,120.9144,0.019521447
C0D680,香山濕地,2021-12-10,24.7836,120.915,0.018250884
C0D690,外湖,2021-12-10,24.9177,120.9687,0.14327289
C0D700,關西,2021-12-10,24.7977,121.1732,0.009929193
C0E420,竹南,2021-12-10,24.709,120.8889,0.014316593
C0E430,南庄,2021-12-10,24.6018,121.0002,0.008647999
C0E520,大湖,2021-12-10,24.4149,120.8709,0.0053331316
C0E540,後龍,2021-12-10,24.6065,120.7839,0.0017081837
C0E550,明德,2021-12-10,24.5835,120.8854,0.0037886938
C0E590,通霄,2021-12-10,24.4719,120.7046,0.0024259456
C0E730,頭份,2021-12-10,24.6882,120.9122,0.014316593
C0E740,造橋,2021-12-10,24.6371,120.8648,0.004999774
C0E750,苗栗,2021-12-10,24.5646,120.8246,0.0013862633
C0E780,銅鑼,2021-12-10,24.4897,120.7909,0.0071377284
C0E791,卓蘭,2021-12-10,24.3126,120.8244,0.0106990915
C0E810,西湖,2021-12-10,24.5629,120.7485,0.0014992001
C0E820,獅潭,2021-12-10,24.5391,120.92,0.005030631
C0E830,苑裡,2021-12-10,24.4397,120.6531,0.0073045446
C0E850,大河,2021-12-10,24.6181,120.9486,0.003290209
C0E870,高鐵苗栗,2021-12-10,24.6073,120.8261,0.0016317463
C0E910,海埔,2021-12-10,24.6488,120.7724,0.008030437
C0E920,通霄漁港,2021-12-10,24.4986,120.6739,0.003371065
C0E930,龍鳳,2021-12-10,24.7,120.8591,0.0063419347
C0F000,大肚,2021-12-10,24.153,120.5721,0.023107324
C0F0B0,石岡,2021-12-10,24.2761,120.7776,0.031494737
C0F850,東勢,2021-12-10,24.2464,120.833,0.006630049
C0F930,大甲,2021-12-10,24.3477,120.6404,0.0064285113
C0F970,大坑,2021-12-10,24.1731,120.7223,0.0025952652
C0F9A0,中竹林,2021-12-10,24.1036,120.7511,0.008151189
C0F9I0,神岡,2021-12-10,24.2725,120.6583,0.0074717104
C0F9K0,大安,2021-12-10,24.3451,120.588,0.01961823
C0F9L0,后里,2021-12-10,24.3104,120.7297,0.0038384139
C0F9M0,豐原,2021-12-10,24.2543,120.7207,0.005243988
C0F9N0,大里,2021-12-10,24.0925,120.7014,0.012545901
C0F9O0,潭子,2021-12-10,24.2131,120.7039,0.008392691
C0F9P0,清水,2021-12-10,24.3123,120.5622,0.02625177
C0F9Q0,外埔,2021-12-10,24.3478,120.7057,0.012438109
C0F9R0,龍井,2021-12-10,24.1845,120.529,0.025088534
C0F9S0,烏日,2021-12-10,24.1071,120.6241,0.32231572
C0F9T0,西屯,2021-12-10,24.1795,120.6413,0.005914337
C0F9U0,南屯,2021-12-10,24.137,120.638,0.012545901
C0F9X0,大雅(中科園區),2021-12-10,24.2153,120.6244,0.0029739721
C0FA10,松柏,2021-12-10,24.4291,120.6175,0.010153283
C0FA20,溫寮,2021-12-10,24.3722,120.5831,0.010153283
C0FA30,梧棲,2021-12-10,24.256,120.5234,0.025088534
C0FA40,臺中電廠,2021-12-10,24.2146,120.4907,0.025088534
C0FA50,霧峰,2021-12-10,24.0419,120.6995,0.0052676117
C0G620,芬園,2021-12-10,24.0157,120.6213,0.06019056
C0G640,鹿港,2021-12-10,24.0753,120.4305,0.2803737
C0G650,員林,2021-12-10,23.9465,120.5856,0.06211893
C0G660,溪湖,2021-12-10,23.9484,120.4791,0.14227836
C0G720,溪州,2021-12-10,23.8516,120.4991,0.30106184
C0G730,二林,2021-12-10,23.9033,120.3761,0.18571019
C0G740,大城,2021-12-10,23.8525,120.3209,0.26385033
C0G770,福興,2021-12-10,24.0413,120.4377,0.2803737
C0G780,秀水,2021-12-10,24.0341,120.5039,0.338531
C0G800,埔鹽,2021-12-10,24.0004,120.4317,0.2803737
C0G810,埔心,2021-12-10,23.9476,120.5255,0.1252992
C0G820,田尾,2021-12-10,23.9017,120.5094,0.111069344
C0G830,埤頭,2021-12-10,23.866,120.4528,0.34165296
C0G840,北斗,2021-12-10,23.8776,120.5142,0.111069344
C0G860,社頭,2021-12-10,23.8976,120.5862,0.05456628
C0G870,芳苑,2021-12-10,23.9223,120.32,0.29097104
C0G880,二水,2021-12-10,23.8107,120.6173,0.092714675
C0G890,伸港,2021-12-10,24.1489,120.4844,0.035058055
C0G900,線西,2021-12-10,24.1434,120.4435,0.020079253
C0G910,花壇,2021-12-10,24.0321,120.5495,0.27069095
C0G920,永靖,2021-12-10,23.9247,120.5475,0.11106928
C0G940,竹塘,2021-12-10,23.8483,120.3868,0.4513831
C0G950,防潮門,2021-12-10,24.1835,120.4871,0.02861554
C0G960,福寶,2021-12-10,24.0443,120.3814,0.30973652
C0G970,三豐,2021-12-10,23.882,120.2895,0.29097104
C0H890,埔里,2021-12-10,23.9722,120.9524,0.03008848
C0H950,中寮,2021-12-10,23.8844,120.7664,0.019899175
C0H960,草屯,2021-12-10,23.9737,120.6809,0.11909262
C0I110,竹山,2021-12-10,23.7612,120.6882,0.032957282
C0I360,水里,2021-12-10,23.8126,120.8498,0.023304248
C0I380,集集,2021-12-10,23.8282,120.8015,0.028484045
C0I410,名間,2021-12-10,23.8371,120.7014,0.060110636
C0I420,國姓,2021-12-10,24.0378,120.8551,0.020805564
C0I460,南投,2021-12-10,23.9115,120.6873,0.07076346
C0K250,崙背,2021-12-10,23.7555,120.3189,0.21619627
C0K280,四湖,2021-12-10,23.6304,120.2271,0.23337846
C0K291,宜梧,2021-12-10,23.5363,120.1693,0.8637082
C0K330,虎尾,2021-12-10,23.7192,120.442,0.4698779
C0K390,土庫,2021-12-10,23.679,120.3956,0.4889584
C0K400,斗六,2021-12-10,23.7206,120.5411,0.2942186
C0K410,北港,2021-12-10,23.574,120.2928,0.82660604
C0K420,西螺,2021-12-10,23.8004,120.4674,0.20613907
C0K430,褒忠,2021-12-10,23.6909,120.3036,0.38880605
C0K440,二崙,2021-12-10,23.7728,120.4089,0.43166578
C0K450,大埤,2021-12-10,23.6461,120.4315,0.47990802
C0K460,斗南,2021-12-10,23.6787,120.4784,0.340124
C0K470,林內,2021-12-10,23.7487,120.6096,0.23015882
C0K480,莿桐,2021-12-10,23.7612,120.5024,0.18607907
C0K500,元長,2021-12-10,23.6498,120.315,0.3614632
C0K510,水林,2021-12-10,23.5729,120.246,0.78469896
C0K530,臺西,2021-12-10,23.7015,120.1976,0.21214291
C0K550,蔦松,2021-12-10,23.5143,120.2297,0.8566694
C0K560,棋山,2021-12-10,23.6865,120.6034,0.29835722
C0K580,高鐵雲林,2021-12-10,23.7375,120.4179,0.4889584
C0K590,雲林東勢,2021-12-10,23.6742,120.2557,0.38880605
C0K600,箔子寮,2021-12-10,23.6197,120.14,0.8005718
C0M410,馬頭山,2021-12-10,23.3244,120.582,0.06329201
C0M520,東後寮,2021-12-10,23.3699,120.2481,0.83160716
C0M640,中埔,2021-12-10,23.4254,120.5229,0.12127952
C0M650,朴子,2021-12-10,23.4346,120.239,0.8572976
C0M660,溪口,2021-12-10,23.6041,120.4036,0.13243027
C0M670,大林,2021-12-10,23.6006,120.4584,0.04657202
C0M680,太保,2021-12-10,23.4551,120.3315,0.8502718
C0M690,水上,2021-12-10,23.4197,120.3889,0.04722628
C0M700,竹崎,2021-12-10,23.5262,120.5555,0.07041418
C0M710,東石,2021-12-10,23.4589,120.1539,0.8566694
C0M720,番路,2021-12-10,23.4647,120.5542,0.04410114
C0M730,嘉義市東區,2021-12-10,23.4577,120.4605,0.01875294
C0M740,六腳,2021-12-10,23.4929,120.2906,0.8557139
C0M750,布袋,2021-12-10,23.3809,120.1678,0.8572976
C0M760,民雄,2021-12-10,23.5518,120.4285,0.099301666
C0M770,嘉義梅山,2021-12-10,23.5854,120.5556,0.19757324
C0M780,鹿草,2021-12-10,23.4113,120.3084,0.8254547
C0M790,新港,2021-12-10,23.5533,120.3457,0.8154813
C0M800,茶山,2021-12-10,23.2991,120.6648,0.16117421
C0M880,好美里,2021-12-10,23.3364,120.138,0.78089786
C0N010,鯤鯓國小,2021-12-10,23.1879,120.0889,0.8504538
C0N020,城西,2021-12-10,23.0568,120.0956,0.7501684
C0N030,四草,2021-12-10,23.0235,120.1116,0.7474945
C0N040,蘆竹溝,2021-12-10,23.2344,120.0961,0.8504538
C0N050,蚵寮,2021-12-10,23.301,120.1104,0.8504538
C0O810,曾文,2021-12-10,23.2197,120.4973,0.12792584
C0O830,北寮,2021-12-10,23.0796,120.495,0.40006715
C0O840,王爺宮,2021-12-10,23.2221,120.4009,0.12792566
C0O860,大內,2021-12-10,23.1188,120.3608,0.661565
C0O900,善化,2021-12-10,23.1129,120.2972,0.8150508
C0O930,玉井,2021-12-10,23.126,120.4605,0.41603944
C0O950,安南,2021-12-10,23.0767,120.1449,0.7751721
C0O960,崎頂,2021-12-10,22.9595,120.3693,0.38810736
C0O970,虎頭埤,2021-12-10,23.0214,120.3479,0.76692885
C0O980,新市,2021-12-10,23.0616,120.2982,0.8150508
C0O990,媽廟,2021-12-10,22.9917,120.2935,0.8076394
C0R150,三地門,2021-12-10,22.7099,120.6399,0.6673116
C0R160,鹽埔,2021-12-10,22.7396,120.5308,0.68697286
C0R170,屏東,2021-12-10,22.6603,120.4941,0.80729073
C0R190,赤山,2021-12-10,22.5923,120.6143,0.6501971
C0R220,潮州,2021-12-10,22.5344,120.54,0.63650745
C0R240,來義,2021-12-10,22.5273,120.6251,0.66551787
C0R260,春日,2021-12-10,22.3704,120.6283,0.6514397
C0R270,琉球嶼,2021-12-10,22.3322,120.3622,0.65571517
C0R280,檳榔,2021-12-10,22.0761,120.8368,0.18565561
C0R320,車城,2021-12-10,22.0744,120.7162,0.6348885
C0R341,牡丹,2021-12-10,22.13,120.7926,0.6459396
C0R350,貓鼻頭,2021-12-10,21.9218,120.7358,0.5868138
C0R470,高樹,2021-12-10,22.8264,120.6008,0.689007
C0R480,長治,2021-12-10,22.6931,120.5426,0.68936336
C0R490,九如,2021-12-10,22.7405,120.4905,0.80844325
C0R520,崁頂,2021-12-10,22.5148,120.5069,0.8382127
C0R540,佳冬,2021-12-10,22.4195,120.5524,0.8366393
C0R550,新埤,2021-12-10,22.4679,120.5829,0.6441609
C0R560,新園,2021-12-10,22.5434,120.4616,0.8382127
C0R570,麟洛,2021-12-10,22.6508,120.5272,0.80844325
C0R580,南州,2021-12-10,22.4859,120.5027,0.8366393
C0R590,里港,2021-12-10,22.7792,120.4946,0.70605975
C0R620,墾雷,2021-12-10,21.9008,120.8553,0.5868138
C0R640,東港,2021-12-10,22.4625,120.4407,0.85763305
C0R650,竹田,2021-12-10,22.5849,120.5434,0.6388007
C0R660,枋寮,2021-12-10,22.3677,120.5906,0.66041905
C0R670,楓港,2021-12-10,22.1901,120.6922,0.62651855
C0R680,佳樂水,2021-12-10,21.9936,120.8616,0.61331564
C0R690,墾丁,2021-12-10,21.9668,120.8103,0.1430935
C0R700,枋山,2021-12-10,22.2468,120.6611,0.62651855
C0R710,龍磐,2021-12-10,21.9317,120.8389,0.3949906
C0R720,旭海,2021-12-10,22.2054,120.8876,0.67452645
C0R730,大坪頂,2021-12-10,22.0246,120.6936,0.43945575
C0R740,獅子,2021-12-10,22.2016,120.7053,0.638512
C0R760,南仁湖,2021-12-10,22.0847,120.8634,0.050917428
C0R770,保力,2021-12-10,22.0711,120.7641,0.49822402
C0R780,滿州,2021-12-10,22.0244,120.8399,0.5708148
C0R790,九棚,2021-12-10,22.142,120.8893,0.7589942
C0R800,丹路,2021-12-10,22.2045,120.751,0.67196697
C0R810,內獅,2021-12-10,22.3051,120.643,0.6339843
C0R830,高士,2021-12-10,22.1218,120.8368,0.018467396
C0R850,林邊,2021-12-10,22.4634,120.5339,0.8382127
C0R860,鼻頭,2021-12-10,22.1043,120.8979,0.59678066
C0R870,興海,2021-12-10,21.9752,120.8439,0.61331564
C0R880,後壁湖,2021-12-10,21.9457,120.7457,0.6435188
C0R890,山海,2021-12-10,21.9878,120.7091,0.6348885
C0R900,竹坑,2021-12-10,22.1385,120.7022,0.56039053
C0R910,下寮,2021-12-10,22.3929,120.5548,0.8366393
C0R920,塭仔,2021-12-10,22.4169,120.5197,0.8353647
C0R930,萬丹,2021-12-10,22.5885,120.4851,0.63880056
C0R940,加祿堂,2021-12-10,22.3363,120.6217,0.62889236
C0S710,鹿野,2021-12-10,22.9177,121.123,0.3342769
C0S730,綠島,2021-12-10,22.6672,121.4753,0.8088994
C0S740,池上,2021-12-10,23.1196,121.2095,0.56983864
C0S770,大溪山,2021-12-10,22.4785,120.9433,0.31500694
C0S790,金崙,2021-12-10,22.5381,120.9669,0.7158628
C0S810,東河,2021-12-10,22.9727,121.304,0.7757182
C0S830,長濱,2021-12-10,23.2868,121.412,0.3859053
C0S840,南田,2021-12-10,22.2797,120.8892,0.87240756
C0S890,關山,2021-12-10,23.0395,121.175,0.7469177
C0S900,蘭嶼高中,2021-12-10,22.0491,121.5121,0.84159505
C0S910,蘭嶼燈塔,2021-12-10,22.0812,121.5031,0.5672005
C0S920,金峰嘉蘭,2021-12-10,22.5948,120.9608,0.8076892
C0S930,延平,2021-12-10,22.9026,121.0841,0.7623753
C0S940,石寧山,2021-12-10,23.2238,121.4066,0.706698
C0S950,七塊厝,2021-12-10,22.9545,121.2299,0.25633392
C0S960,香蘭,2021-12-10,22.5876,120.9934,0.8424866
C0S970,加津林,2021-12-10,22.4162,120.9269,0.8894388
C0S990,山豬窟,2021-12-10,22.3186,120.8574,0.1479732
C0SA00,歷坵,2021-12-10,22.521,120.8919,0.1524697
C0SA10,檳榔四格山,2021-12-10,22.81,121.1093,0.20227131
C0SA30,都歷,2021-12-10,23.0203,121.3236,0.81789017
C0SA40,瑞和,2021-12-10,22.9744,121.1567,0.76517123
C0SA60,知本（水試所）,2021-12-10,22.7024,121.0828,0.85484767
C0SA80,土,2021-12-10,22.4531,120.8876,0.7851591
C0SA90,達仁林場,2021-12-10,22.2643,120.824,0.6035115
C0T870,鯉魚潭,2021-12-10,23.9356,121.5089,0.3583894
C0T900,西林,2021-12-10,23.8119,121.4415,0.35421383
C0T960,光復,2021-12-10,23.6607,121.425,0.3646679
C0T9A0,月眉山,2021-12-10,23.8099,121.5398,0.10547683
C0T9D0,和中,2021-12-10,24.2668,121.741,0.13060251
C0T9E0,大坑,2021-12-10,23.8806,121.582,0.19891986
C0T9F0,水璉,2021-12-10,23.7971,121.5425,0.2981164
C0T9I0,豐濱,2021-12-10,23.5839,121.5148,0.46572077
C0T9M0,靜浦,2021-12-10,23.4552,121.495,0.4611511
C0T9N0,富里,2021-12-10,23.1716,121.2494,0.1723958
C0U600,礁溪,2021-12-10,24.8175,121.7656,0.09841435
C0U650,玉蘭,2021-12-10,24.6753,121.5871,0.012410641
C0U750,龜山島,2021-12-10,24.8417,121.9531,0.09366795
C0U760,東澳,2021-12-10,24.522,121.8332,0.29944602
C0U770,南澳,2021-12-10,24.4493,121.8102,0.4243561
C0U780,五結,2021-12-10,24.6864,121.7979,0.3823769
C0U860,頭城,2021-12-10,24.8532,121.8308,0.10747368
C0U870,大礁溪,2021-12-10,24.791,121.675,0.009739065
C0U880,北關,2021-12-10,24.9072,121.8734,0.08127601
C0U890,三星,2021-12-10,24.6681,121.653,0.03598492
C0U900,內城,2021-12-10,24.7181,121.6877,0.07388577
C0U910,冬山,2021-12-10,24.6337,121.7937,0.3823769
C0U940,羅東,2021-12-10,24.6818,121.7493,0.36803606
C0U970,大福,2021-12-10,24.8006,121.8139,0.11748344
C0U990,員山,2021-12-10,24.7444,121.7225,0.36803606
C0UA00,土場,2021-12-10,24.5765,121.4953,0.013571926
C0UA80,大溪漁港,2021-12-10,24.9418,121.903,0.09841435
C0UA90,石城,2021-12-10,24.9804,121.9512,0.14572312
C0UB00,淡江大學蘭陽校園,2021-12-10,24.8232,121.7304,0.0086032115
C0UB10,蘇澳,2021-12-10,24.5969,121.8571,0.47715965
C0UB20,壯圍,2021-12-10,24.7359,121.8163,0.39058092
C0V250,甲仙,2021-12-10,23.0801,120.5918,0.07068972
C0V260,月眉,2021-12-10,22.971,120.5399,0.41000935
C0V310,美濃,2021-12-10,22.8987,120.5192,0.713573
C0V350,溪埔,2021-12-10,22.7386,120.4468,0.8507287
C0V360,內門,2021-12-10,22.9755,120.4668,0.5712404
C0V370,古亭坑,2021-12-10,22.8932,120.4019,0.67319125
C0V400,阿公店,2021-12-10,22.8042,120.3555,0.8387623
C0V440,鳳山,2021-12-10,22.6467,120.3561,0.8579714
C0V450,鳳森,2021-12-10,22.5451,120.3926,0.5900932
C0V490,新興,2021-12-10,22.6274,120.2988,0.8579395
C0V530,阿蓮,2021-12-10,22.8832,120.3275,0.7856474
C0V610,梓官,2021-12-10,22.7606,120.2672,0.8733304
C0V620,永安,2021-12-10,22.8231,120.2369,0.88420296
C0V630,茄萣,2021-12-10,22.9066,120.1826,0.76832736
C0V640,湖內,2021-12-10,22.8871,120.2445,0.76879424
C0V650,彌陀,2021-12-10,22.7838,120.2464,0.88420296
C0V660,岡山,2021-12-10,22.7971,120.295,0.8733304
C0V680,仁武,2021-12-10,22.7011,120.3477,0.87553376
C0V690,鼓山,2021-12-10,22.6233,120.2756,0.8579395
C0V700,三民,2021-12-10,22.645,120.3112,0.8579395
C0V710,苓雅,2021-12-10,22.6227,120.3307,0.8579395
C0V720,林園,2021-12-10,22.5077,120.3945,0.8579395
C0V730,大寮,2021-12-10,22.6056,120.3957,0.59219325
C0V740,旗山,2021-12-10,22.8886,120.4836,0.7034826
C0V750,路竹,2021-12-10,22.855,120.2594,0.86617935
C0V760,橋頭,2021-12-10,22.7578,120.3058,0.87377965
C0V770,大社,2021-12-10,22.7303,120.3466,0.87553376
C0V790,萬山,2021-12-10,22.9059,120.6881,0.17397662
C0V800,六龜,2021-12-10,22.9979,120.6336,0.4773728
C0V810,左營,2021-12-10,22.6749,120.2849,0.87491465
C0V820,小林,2021-12-10,23.1484,120.6333,0.11997984
C0V840,鳳鼻頭,2021-12-10,22.5083,120.3591,0.85763305
C0V850,蚵仔寮,2021-12-10,22.7256,120.2527,0.87467974
C0V860,南寮,2021-12-10,22.7616,120.2339,0.88410676
C0V870,文安,2021-12-10,22.8025,120.2164,0.88410676
C0V880,興達,2021-12-10,22.8778,120.2127,0.76832724
C0V890,前鎮,2021-12-10,22.5718,120.3117,0.85763305
C0V900,汕尾,2021-12-10,22.4782,120.4151,0.8276406
C0X050,東河,2021-12-10,23.2966,120.3856,0.5976048
C0X060,下營,2021-12-10,23.2269,120.2563,0.79304814
C0X080,佳里,2021-12-10,23.173,120.1451,0.78089786
C0X100,臺南市北區,2021-12-10,23.0104,120.1942,0.7675441
C0X110,臺南市南區,2021-12-10,22.9612,120.1884,0.7702202
C0X120,麻豆,2021-12-10,23.1833,120.2486,0.7833334
C0X130,官田,2021-12-10,23.1932,120.3154,0.77816254
C0X140,西港,2021-12-10,23.1256,120.2031,0.76422983
C0X150,安定,2021-12-10,23.1026,120.2278,0.7805361
C0X160,仁德,2021-12-10,22.9683,120.2577,0.80760175
C0X170,關廟,2021-12-10,22.963,120.3278,0.8040135
C0X180,山上,2021-12-10,23.0757,120.3633,0.4737995
C0X190,安平,2021-12-10,22.9932,120.1522,0.7675441
C0X200,左鎮,2021-12-10,23.0568,120.4085,0.5045532
C0X210,白河,2021-12-10,23.3475,120.4144,0.5378593
C0X220,學甲,2021-12-10,23.2304,120.1822,0.7833334
C0X230,鹽水,2021-12-10,23.2726,120.2476,0.82298386
C0X240,關子嶺,2021-12-10,23.3312,120.508,0.017378565
C0X250,新營,2021-12-10,23.3107,120.3167,0.81085396
C0X260,後壁,2021-12-10,23.3664,120.3623,0.49041077
C0X280,將軍,2021-12-10,23.215,120.1358,0.78089786
C0X290,北門,2021-12-10,23.2678,120.1255,0.78089786
C0X300,鹿寮,2021-12-10,23.386,120.4773,0.40527892
C0X310,七股,2021-12-10,23.1473,120.0863,0.8445632
C0X320,柳營,2021-12-10,23.2533,120.3753,0.56558716
C0Z020,明里,2021-12-10,23.2087,121.2623,0.4797333
C0Z061,玉里,2021-12-10,23.3215,121.3397,0.7758035
C0Z070,舞鶴,2021-12-10,23.4681,121.3741,0.38211527
C0Z080,富源,2021-12-10,23.5876,121.3782,0.37848154
C0Z100,東華,2021-12-10,23.8953,121.5498,0.3417922
C0Z150,吉安光華,2021-12-10,23.9309,121.5952,0.33736053
C0Z160,鳳林,2021-12-10,23.7461,121.4534,0.3630958
C0Z170,卓溪,2021-12-10,23.3443,121.3029,0.73260695
C0Z180,新城,2021-12-10,24.0395,121.6045,0.2864826
C0Z190,富世,2021-12-10,24.1474,121.6297,0.0514512
C0Z200,萬榮,2021-12-10,23.7092,121.4201,0.3583894
C0Z210,瑞穗,2021-12-10,23.5239,121.3902,0.4634084
C0Z230,和平,2021-12-10,24.3072,121.7701,0.13060251
C0Z270,蕃薯寮,2021-12-10,23.7384,121.5401,0.39048484
C0Z280,德武,2021-12-10,23.4743,121.4107,0.39405885
C0Z300,東里,2021-12-10,23.2685,121.3055,0.75602615
C0Z310,清水斷崖,2021-12-10,24.2183,121.6891,0.107338734
C0Z330,安通山,2021-12-10,23.2907,121.3485,0.22075032
