站號,站名,日期,lat,lon,BlastGRU-TW
12J990,口湖工作站,2021-02-06,23.589978,120.180394,0.0023790358
12Q970,東港工作站,2021-02-06,22.479997,120.466058,0.07606693
12Q980,恆春工作站,2021-02-06,22.079678,120.714425,4.2866057e-05
466881,新北,2021-02-06,24.9593,121.52,0.00055812736
466900,淡水,2021-02-06,25.164889,121.448906,0.0006701407
466920,臺北,2021-02-06,25.037658,121.514853,0.0005677885
466940,基隆,2021-02-06,25.133314,121.740475,0.0007000006
466990,花蓮,2021-02-06,23.975128,121.613275,0.01667599
467050,新屋,2021-02-06,25.006744,121.047486,0.0012454352
467060,蘇澳,2021-02-06,24.596736,121.857372,0.014042848
467080,宜蘭,2021-02-06,24.763975,121.756528,0.001277267
467270,田中,2021-02-06,23.873803,120.581286,0.0028860648
467300,東吉島,2021-02-06,23.25695,119.667467,0.0005672595
467350,澎湖,2021-02-06,23.565503,119.563094,0.00048317388
467410,臺南,2021-02-06,22.993239,120.204772,0.023090044
467420,永康,2021-02-06,23.038386,120.2367,0.024810417
467441,高雄,2021-02-06,22.7304,120.3125,0.020354053
467480,嘉義,2021-02-06,23.495925,120.432906,0.0009824221
467490,臺中,2021-02-06,24.145736,120.684075,0.000895712
467540,大武,2021-02-06,22.355675,120.903789,0.002901375
467571,新竹,2021-02-06,24.827853,121.014219,0.00070615724
467590,恆春,2021-02-06,22.003897,120.746339,4.4703665e-05
467610,成功,2021-02-06,23.097486,121.373428,0.038683027
467620,蘭嶼,2021-02-06,22.036969,121.558339,0.0011581728
467660,臺東,2021-02-06,22.752211,121.154586,0.0053797765
467790,墾丁雷達站,2021-02-06,21.948235,120.808028,4.7825968e-05
72AI40,桃改臺北分場,2021-02-06,24.944503,121.386972,0.00048080643
72C440,桃園農改場,2021-02-06,24.950944,121.030583,0.0013778133
72D680,新埔,2021-02-06,24.834444,121.066111,0.00065180723
72G600,臺中農改場,2021-02-06,24.003028,120.534389,0.0026083135
72K220,雲林分場,2021-02-06,23.634556,120.477333,0.0029426073
72L140,朴子分場,2021-02-06,23.4982,120.2414,0.0028734803
72M360,義竹工作站,2021-02-06,23.360694,120.279361,0.0053505953
72M700,嘉義分場,2021-02-06,23.416869,120.283061,0.0031439224
72N100,臺南農改場,2021-02-06,23.0605,120.342194,0.010318185
72N240,七股研究中心,2021-02-06,23.081672,120.062894,0.009574924
72Q010,高雄農改場,2021-02-06,22.709333,120.525889,0.027197529
72S200,斑鳩分場,2021-02-06,22.829528,121.077694,0.0012721847
72S590,賓朗果園,2021-02-06,22.813889,121.071278,0.0010648941
72T250,花蓮農改場,2021-02-06,23.975222,121.563889,0.013077878
72U480,蘭陽分場,2021-02-06,24.686306,121.716583,0.0024455695
72V140,旗南,2021-02-06,22.857861,120.516667,0.012846489
82A750,文山分場,2021-02-06,24.955778,121.631222,0.0012943576
82C160,茶改場(楊梅),2021-02-06,24.908472,121.185333,0.00054236694
82H840,凍頂工作站,2021-02-06,23.762528,120.7405,0.0018906974
82S580,龍田,2021-02-06,22.907694,121.130139,0.0034691503
A0K420,麥寮,2021-02-06,23.7988,120.2177,0.0014885504
A0W080,吉貝,2021-02-06,23.74,119.6042,0.00046088127
A2C560,農工中心,2021-02-06,24.985917,121.239833,0.0006023398
A2K360,臺西分所,2021-02-06,23.717231,120.190522,0.0014092891
A2K570,古坑(花卉中心),2021-02-06,23.633531,120.552392,0.0034580575
A2K630,臺大雲林校區,2021-02-06,23.730628,120.423903,0.004205342
A2N290,臺南蘭花園區,2021-02-06,23.340258,120.379661,0.002198447
B2E890,新竹畜試,2021-02-06,24.527806,120.770972,0.00085283356
B2N890,畜產試驗所,2021-02-06,23.058972,120.336406,0.010318185
B2Q810,恆春分所,2021-02-06,21.945583,120.802167,4.446417e-05
B2U990,宜蘭畜試,2021-02-06,24.669039,121.832561,0.0026178267
C0A520,山佳,2021-02-06,24.974944,121.402008,0.00048080643
C0A530,坪林,2021-02-06,24.938183,121.70975,0.0009834934
C0A540,四堵,2021-02-06,24.8926,121.745736,0.0009317372
C0A550,泰平,2021-02-06,24.971197,121.823711,0.0009917034
C0A560,福山,2021-02-06,24.776203,121.502811,0.0012943576
C0A570,桶後,2021-02-06,24.848222,121.597992,0.0012389111
C0A640,石碇,2021-02-06,24.993969,121.662917,0.0009677487
C0A650,火燒寮,2021-02-06,25.002719,121.742892,0.00084289483
C0A660,瑞芳,2021-02-06,25.113169,121.801147,0.0013132497
C0A770,科教館,2021-02-06,25.096356,121.516507,0.00050399237
C0A860,大坪,2021-02-06,25.165914,121.632969,0.0008664725
C0A880,福隆,2021-02-06,25.017842,121.942083,0.0017534948
C0A890,雙溪,2021-02-06,25.036003,121.864242,0.0008519539
C0A920,富貴角,2021-02-06,25.263783,121.565258,0.000559267
C0A931,三和,2021-02-06,25.233153,121.595236,0.00084404583
C0A940,金山,2021-02-06,25.223628,121.643967,0.00092383573
C0A950,鼻頭角,2021-02-06,25.129036,121.923372,0.0018038094
C0A970,三貂角,2021-02-06,25.007606,122.002058,0.0013275146
C0A980,社子,2021-02-06,25.109508,121.469681,0.0005169392
C0A9C0,天母,2021-02-06,25.117494,121.537169,0.0004872639
C0A9F0,內湖,2021-02-06,25.079422,121.57545,0.0005677885
C0AC60,三峽,2021-02-06,24.939025,121.369728,0.0005544226
C0AC70,信義,2021-02-06,25.037822,121.564597,0.0005677885
C0AC80,文山,2021-02-06,25.00235,121.575728,0.0005474177
C0ACA0,新莊,2021-02-06,25.051478,121.446756,0.0008048138
C0AD00,三芝,2021-02-06,25.258131,121.501917,0.00073965127
C0AD10,八里,2021-02-06,25.150211,121.403947,0.0006701407
C0AD30,蘆洲,2021-02-06,25.086594,121.472331,0.00050399237
C0AD40,土城,2021-02-06,24.973208,121.445169,0.0004951108
C0AD50,鶯歌,2021-02-06,24.951533,121.346294,0.0004303478
C0AG80,中和,2021-02-06,24.991622,121.491792,0.0005677885
C0AH00,汐止,2021-02-06,25.066881,121.658778,0.0007290057
C0AH10,永和,2021-02-06,25.01125,121.508111,0.0005738988
C0AH40,平等,2021-02-06,25.129142,121.577086,0.000880602
C0AH50,林口,2021-02-06,25.072181,121.38084,0.00096725917
C0AH70,松山,2021-02-06,25.04871,121.55042,0.0005677885
C0AH80,深坑,2021-02-06,25.002703,121.628328,0.0005474177
C0AI00,五股,2021-02-06,25.07445,121.42728,0.00066915626
C0AI10,屈尺,2021-02-06,24.92184,121.54475,0.0005474177
C0AI20,白沙灣,2021-02-06,25.283128,121.519058,0.0009831884
C0AI30,三重,2021-02-06,25.057328,121.500629,0.00050399237
C0AI40,石牌,2021-02-06,25.115597,121.513139,0.0004951108
C0AJ10,澳底,2021-02-06,25.057107,121.927272,0.001867326
C0AJ20,野柳,2021-02-06,25.20703,121.690021,0.0007290057
C0AJ30,淡水觀海,2021-02-06,25.184591,121.408616,0.0007181995
C0AJ40,石門,2021-02-06,25.273672,121.601198,0.00048899313
C0AJ50,水湳洞,2021-02-06,25.123695,121.862238,0.0007290057
C0AJ60,六塊厝,2021-02-06,25.24,121.4481,0.0007181995
C0AJ70,田寮,2021-02-06,25.2698,121.4886,0.0009958915
C0AJ80,板橋,2021-02-06,25.0107,121.4489,0.0004951108
C0B010,七堵,2021-02-06,25.094819,121.71713,0.0007893483
C0B020,基隆嶼,2021-02-06,25.19141,121.78391,0.0007290057
C0B040,大武崙,2021-02-06,25.166676,121.706993,0.00078983663
C0B050,八斗子,2021-02-06,25.144754,121.79167,0.0006725384
C0B060,暖暖,2021-02-06,25.0957,121.7403,0.00093306135
C0C460,復興,2021-02-06,24.820208,121.352281,0.0011372063
C0C480,桃園,2021-02-06,24.992425,121.323172,0.00060692173
C0C490,八德,2021-02-06,24.928708,121.283289,0.00065935915
C0C590,觀音,2021-02-06,25.027072,121.153317,0.00042098557
C0C620,蘆竹,2021-02-06,25.084275,121.265767,0.0005966708
C0C630,大溪,2021-02-06,24.882853,121.265547,0.0006326995
C0C650,平鎮,2021-02-06,24.897503,121.214636,0.00054236694
C0C660,楊梅,2021-02-06,24.912375,121.143047,0.0005453837
C0C670,龍潭,2021-02-06,24.870056,121.221389,0.00067724136
C0C680,龜山,2021-02-06,25.02846,121.38656,0.00092078996
C0C700,中壢,2021-02-06,24.977661,121.256375,0.0005928586
C0C710,大溪永福,2021-02-06,24.892936,121.324975,0.0005942148
C0C720,竹圍,2021-02-06,25.112692,121.239824,0.0006701407
C0C730,中大臨海站,2021-02-06,24.966126,121.008581,0.001051107
C0C740,觀音工業區,2021-02-06,25.064764,121.114856,0.0006363286
C0C750,新興坑尾,2021-02-06,25.0061,121.0971,0.0006047123
C0D390,關西,2021-02-06,24.7977,121.1732,0.000561528
C0D430,峨眉,2021-02-06,24.6905,121.017189,0.0007175752
C0D480,打鐵坑,2021-02-06,24.849664,121.150789,0.000717109
C0D540,橫山,2021-02-06,24.71116,121.11693,0.0007481577
C0D560,竹東,2021-02-06,24.767147,121.057881,0.0005776476
C0D580,寶山,2021-02-06,24.735006,121.025192,0.00079577963
C0D590,新豐,2021-02-06,24.87068,120.97721,0.0011452559
C0D650,湖口,2021-02-06,24.904794,121.043628,0.0015445985
C0D660,新竹市東區,2021-02-06,24.798681,120.986942,0.00067718007
C0D670,海天一線,2021-02-06,24.831986,120.914438,0.0007649169
C0D680,香山濕地,2021-02-06,24.783581,120.914988,0.00073198345
C0D690,外湖,2021-02-06,24.917735,120.968711,0.001051107
C0E420,竹南,2021-02-06,24.708978,120.888897,0.0006652941
C0E430,南庄,2021-02-06,24.601775,121.000214,0.00079297356
C0E520,大湖,2021-02-06,24.41494,120.87087,0.00075166085
C0E540,後龍,2021-02-06,24.606489,120.783933,0.0008916419
C0E550,明德,2021-02-06,24.583486,120.885411,0.00090488157
C0E590,通霄,2021-02-06,24.471892,120.704622,0.00087384833
C0E730,頭份,2021-02-06,24.688247,120.912206,0.0006652941
C0E740,造橋,2021-02-06,24.637056,120.864778,0.0009510802
C0E750,苗栗,2021-02-06,24.564569,120.824575,0.00087086804
C0E780,銅鑼,2021-02-06,24.489681,120.790853,0.0009451692
C0E791,卓蘭,2021-02-06,24.3126,120.8244,0.0017254074
C0E810,西湖,2021-02-06,24.562947,120.7485,0.00087730144
C0E820,獅潭,2021-02-06,24.539133,120.920042,0.0009754931
C0E830,苑裡,2021-02-06,24.439714,120.653053,0.00096413185
C0E850,大河,2021-02-06,24.618069,120.948578,0.0008950475
C0E870,高鐵苗栗,2021-02-06,24.60725,120.826094,0.0008865631
C0E910,海埔,2021-02-06,24.648767,120.772435,0.0009531929
C0E920,通霄漁港,2021-02-06,24.498589,120.673876,0.00090006244
C0E930,龍鳳,2021-02-06,24.700034,120.859125,0.000966945
C0F000,大肚,2021-02-06,24.15295,120.572117,0.0020707117
C0F0B0,石岡,2021-02-06,24.276061,120.777644,0.0025209256
C0F850,東勢,2021-02-06,24.246428,120.833047,0.0015812591
C0F930,大甲,2021-02-06,24.347667,120.640403,0.0009414128
C0F970,大坑,2021-02-06,24.173142,120.722289,0.0008770215
C0F9A0,中竹林,2021-02-06,24.103556,120.751061,0.0020899822
C0F9I0,神岡,2021-02-06,24.272481,120.658314,0.00094714784
C0F9K0,大安,2021-02-06,24.345061,120.588025,0.0010308194
C0F9L0,后里,2021-02-06,24.310436,120.729725,0.00088280695
C0F9M0,豐原,2021-02-06,24.254322,120.720692,0.0009137592
C0F9N0,大里,2021-02-06,24.092464,120.701378,0.0010564956
C0F9O0,潭子,2021-02-06,24.213106,120.703933,0.0010043404
C0F9P0,清水,2021-02-06,24.312297,120.562242,0.0010525278
C0F9Q0,外埔,2021-02-06,24.347817,120.705686,0.0009883884
C0F9R0,龍井,2021-02-06,24.184536,120.528972,0.0010514761
C0F9S0,烏日,2021-02-06,24.107058,120.624103,0.0029627432
C0F9T0,西屯,2021-02-06,24.179494,120.641275,0.00097092695
C0F9U0,南屯,2021-02-06,24.137006,120.637969,0.0010564956
C0F9X0,大雅(中科園區),2021-02-06,24.21528,120.62445,0.00090841146
C0FA10,松柏,2021-02-06,24.429115,120.617482,0.0009879565
C0FA20,溫寮,2021-02-06,24.372177,120.583125,0.0009879565
C0FA30,梧棲,2021-02-06,24.256003,120.523381,0.0010514761
C0FA40,臺中電廠,2021-02-06,24.2146,120.4907,0.0010514761
C0FA50,霧峰,2021-02-06,24.0419,120.6995,0.000911142
C0G620,芬園,2021-02-06,24.015678,120.6213,0.0019101743
C0G640,鹿港,2021-02-06,24.0753,120.430481,0.0025316882
C0G650,員林,2021-02-06,23.946503,120.585597,0.0015974683
C0G660,溪湖,2021-02-06,23.94835,120.479122,0.0018231095
C0G720,溪州,2021-02-06,23.851589,120.499093,0.0034984297
C0G730,二林,2021-02-06,23.903325,120.376081,0.0020386318
C0G740,大城,2021-02-06,23.852487,120.320935,0.001428647
C0G770,福興,2021-02-06,24.041289,120.437669,0.0025316882
C0G780,秀水,2021-02-06,24.03405,120.503869,0.0026656485
C0G800,埔鹽,2021-02-06,24.000394,120.431683,0.0025316882
C0G810,埔心,2021-02-06,23.947633,120.525456,0.0017945735
C0G820,田尾,2021-02-06,23.901669,120.509389,0.0017686574
C0G830,埤頭,2021-02-06,23.866003,120.452806,0.0036381087
C0G840,北斗,2021-02-06,23.877586,120.514222,0.0017686574
C0G860,社頭,2021-02-06,23.897647,120.5862,0.0015808799
C0G870,芳苑,2021-02-06,23.922303,120.320025,0.0014535693
C0G880,二水,2021-02-06,23.810742,120.6173,0.0023021488
C0G890,伸港,2021-02-06,24.148933,120.484403,0.0010893367
C0G900,線西,2021-02-06,24.143358,120.443536,0.0010241185
C0G910,花壇,2021-02-06,24.032076,120.549461,0.0025592672
C0G920,永靖,2021-02-06,23.924703,120.547533,0.0017686574
C0G940,竹塘,2021-02-06,23.848253,120.386764,0.004275668
C0G950,防潮門,2021-02-06,24.1835,120.4871,0.0010621996
C0G960,福寶,2021-02-06,24.0443,120.3814,0.0025856283
C0G970,三豐,2021-02-06,23.882,120.2895,0.00145357
C0H890,埔里,2021-02-06,23.972169,120.952425,0.0021574958
C0H950,中寮,2021-02-06,23.884447,120.766406,0.0020997159
C0H960,草屯,2021-02-06,23.973672,120.68085,0.003415404
C0I110,竹山,2021-02-06,23.761225,120.688156,0.0022322214
C0I360,水里,2021-02-06,23.812553,120.849792,0.003970431
C0I380,集集,2021-02-06,23.828206,120.801467,0.004132412
C0I410,名間,2021-02-06,23.837053,120.701447,0.0025697814
C0I420,國姓,2021-02-06,24.037803,120.855072,0.0022533638
C0I460,南投,2021-02-06,23.911469,120.687331,0.0024581158
C0K250,崙背,2021-02-06,23.75555,120.318925,0.0013741488
C0K280,四湖,2021-02-06,23.630414,120.227125,0.0013804804
C0K291,宜梧,2021-02-06,23.536281,120.169329,0.0029606167
C0K330,虎尾,2021-02-06,23.719183,120.442036,0.0041083475
C0K390,土庫,2021-02-06,23.679029,120.395574,0.004205342
C0K400,斗六,2021-02-06,23.720583,120.541127,0.003139044
C0K410,北港,2021-02-06,23.573957,120.292802,0.0027627873
C0K420,西螺,2021-02-06,23.800407,120.467394,0.0026068478
C0K430,褒忠,2021-02-06,23.690938,120.303634,0.0014885504
C0K440,二崙,2021-02-06,23.772797,120.408944,0.004173815
C0K450,大埤,2021-02-06,23.646074,120.431537,0.0035121993
C0K460,斗南,2021-02-06,23.678734,120.478359,0.003266951
C0K470,林內,2021-02-06,23.748675,120.609642,0.0026543923
C0K480,莿桐,2021-02-06,23.761192,120.502372,0.0025640812
C0K500,元長,2021-02-06,23.64981,120.315024,0.0014665597
C0K510,水林,2021-02-06,23.572924,120.24597,0.0023198384
C0K530,臺西,2021-02-06,23.701547,120.197559,0.0013901553
C0K550,蔦松,2021-02-06,23.514319,120.229736,0.0028734803
C0K560,棋山,2021-02-06,23.68645,120.603417,0.0028112838
C0K580,高鐵雲林,2021-02-06,23.737456,120.417944,0.004205342
C0K590,雲林東勢,2021-02-06,23.674192,120.255721,0.0014885504
C0K600,箔子寮,2021-02-06,23.6197,120.14,0.0023790358
C0M410,馬頭山,2021-02-06,23.324361,120.582017,0.006427055
C0M520,東後寮,2021-02-06,23.369908,120.248065,0.005686907
C0M640,中埔,2021-02-06,23.42538,120.5229,0.0035529868
C0M650,朴子,2021-02-06,23.43463,120.23902,0.0033637674
C0M660,溪口,2021-02-06,23.604131,120.403569,0.0010930132
C0M670,大林,2021-02-06,23.600616,120.45841,0.0010390942
C0M680,太保,2021-02-06,23.455062,120.331455,0.0031315922
C0M690,水上,2021-02-06,23.419734,120.388909,0.0011313366
C0M700,竹崎,2021-02-06,23.526178,120.555508,0.0030644308
C0M710,東石,2021-02-06,23.458927,120.15385,0.0028734803
C0M720,番路,2021-02-06,23.464657,120.554156,0.0029242425
C0M730,嘉義市東區,2021-02-06,23.457673,120.460531,0.0010137709
C0M740,六腳,2021-02-06,23.492871,120.290625,0.003235556
C0M750,布袋,2021-02-06,23.380878,120.167789,0.0033637674
C0M760,民雄,2021-02-06,23.551754,120.428457,0.0010680682
C0M770,嘉義梅山,2021-02-06,23.585398,120.555587,0.0025898004
C0M780,鹿草,2021-02-06,23.41134,120.30835,0.0030451082
C0M790,新港,2021-02-06,23.553269,120.345728,0.0026889762
C0M800,茶山,2021-02-06,23.299075,120.664767,0.0037494511
C0M880,好美里,2021-02-06,23.3364,120.138,0.006028732
C0N010,鯤鯓國小,2021-02-06,23.1879,120.0889,0.0035540233
C0N020,城西,2021-02-06,23.0568,120.0956,0.009007289
C0N030,四草,2021-02-06,23.0235,120.1116,0.017658932
C0N040,蘆竹溝,2021-02-06,23.2344,120.0961,0.0035540182
C0N050,蚵寮,2021-02-06,23.301,120.1104,0.0035540233
C0O810,曾文,2021-02-06,23.219681,120.497328,0.0016520513
C0O830,北寮,2021-02-06,23.079561,120.495008,0.005414059
C0O840,王爺宮,2021-02-06,23.222064,120.40085,0.0016520513
C0O860,大內,2021-02-06,23.11885,120.36083,0.0063103363
C0O900,善化,2021-02-06,23.112883,120.297219,0.011912529
C0O930,玉井,2021-02-06,23.126042,120.46055,0.0024204752
C0O950,安南,2021-02-06,23.076694,120.144861,0.012665379
C0O960,崎頂,2021-02-06,22.959547,120.369317,0.005739815
C0O970,虎頭埤,2021-02-06,23.021375,120.347878,0.010837827
C0O980,新市,2021-02-06,23.061614,120.298197,0.011912529
C0O990,媽廟,2021-02-06,22.99175,120.293525,0.021327619
C0R150,三地門,2021-02-06,22.709889,120.639944,0.091361575
C0R160,鹽埔,2021-02-06,22.739558,120.530778,0.027197529
C0R170,屏東,2021-02-06,22.660269,120.494072,0.039018735
C0R190,赤山,2021-02-06,22.592333,120.614306,0.065681785
C0R220,潮州,2021-02-06,22.534361,120.54,0.038953125
C0R240,來義,2021-02-06,22.527306,120.625111,0.015267085
C0R260,春日,2021-02-06,22.370361,120.628306,0.01793416
C0R270,琉球嶼,2021-02-06,22.332244,120.362236,0.017212221
C0R280,檳榔,2021-02-06,22.076078,120.836777,8.600033e-05
C0R320,車城,2021-02-06,22.0744,120.716247,4.2866057e-05
C0R341,牡丹,2021-02-06,22.130036,120.792639,0.012070491
C0R350,貓鼻頭,2021-02-06,21.921774,120.7358,4.5752953e-05
C0R470,高樹,2021-02-06,22.826389,120.600806,0.07108686
C0R480,長治,2021-02-06,22.693128,120.542622,0.024226924
C0R490,九如,2021-02-06,22.7405,120.490503,0.036411278
C0R520,崁頂,2021-02-06,22.514781,120.506914,0.06630718
C0R540,佳冬,2021-02-06,22.419456,120.552375,0.07606693
C0R550,新埤,2021-02-06,22.467947,120.582894,0.072141275
C0R560,新園,2021-02-06,22.5434,120.461558,0.06630718
C0R570,麟洛,2021-02-06,22.65078,120.52719,0.036411196
C0R580,南州,2021-02-06,22.48591,120.50274,0.07606693
C0R590,里港,2021-02-06,22.77919,120.49459,0.018527362
C0R620,墾雷,2021-02-06,21.900836,120.855269,4.5752822e-05
C0R640,東港,2021-02-06,22.46247,120.44074,0.02673496
C0R650,竹田,2021-02-06,22.58486,120.54344,0.07740475
C0R660,枋寮,2021-02-06,22.367722,120.590647,0.040399503
C0R670,楓港,2021-02-06,22.190131,120.692156,0.035398237
C0R680,佳樂水,2021-02-06,21.993578,120.861633,4.3920823e-05
C0R690,墾丁,2021-02-06,21.966756,120.810269,9.258785e-05
C0R700,枋山,2021-02-06,22.246844,120.661086,0.035398237
C0R710,龍磐,2021-02-06,21.931672,120.838942,5.688041e-05
C0R720,旭海,2021-02-06,22.205403,120.887614,0.0024061196
C0R730,大坪頂,2021-02-06,22.024633,120.69355,6.367157e-05
C0R740,獅子,2021-02-06,22.201569,120.70525,0.026044618
C0R760,南仁湖,2021-02-06,22.084681,120.863353,0.00018305633
C0R770,保力,2021-02-06,22.071122,120.764111,4.999228e-05
C0R780,滿州,2021-02-06,22.024403,120.839892,4.665286e-05
C0R790,九棚,2021-02-06,22.14195,120.889281,0.001829224
C0R800,丹路,2021-02-06,22.204481,120.750989,0.014419506
C0R810,內獅,2021-02-06,22.305064,120.642986,0.023851123
C0R830,高士,2021-02-06,22.121825,120.836781,0.0002474161
C0R850,林邊,2021-02-06,22.4634,120.5339,0.06630718
C0R860,鼻頭,2021-02-06,22.1043,120.8979,0.00016433284
C0R870,興海,2021-02-06,21.9752,120.8439,4.446417e-05
C0R880,後壁湖,2021-02-06,21.9457,120.7457,4.2047574e-05
C0R890,山海,2021-02-06,21.9878,120.7091,4.2866057e-05
C0R900,竹坑,2021-02-06,22.1385,120.7022,0.055324342
C0R910,下寮,2021-02-06,22.3929,120.5548,0.07606693
C0R920,塭仔,2021-02-06,22.4169,120.5197,0.08846829
C0R930,萬丹,2021-02-06,22.5885,120.4851,0.07740475
C0R940,加祿堂,2021-02-06,22.3363,120.6217,0.023851123
C0S710,鹿野,2021-02-06,22.917711,121.122994,0.0013980177
C0S730,綠島,2021-02-06,22.6672,121.47533,0.01405444
C0S740,池上,2021-02-06,23.119628,121.209469,0.002750643
C0S770,大溪山,2021-02-06,22.478475,120.943325,0.0015097103
C0S790,金崙,2021-02-06,22.538122,120.966875,0.0041384483
C0S810,東河,2021-02-06,22.972672,121.303986,0.012643877
C0S830,長濱,2021-02-06,23.286817,121.411975,0.0007200194
C0S840,南田,2021-02-06,22.279725,120.889208,0.001257322
C0S890,關山,2021-02-06,23.0395,121.175017,0.0043192934
C0S900,蘭嶼高中,2021-02-06,22.04909,121.51214,0.00026790367
C0S910,蘭嶼燈塔,2021-02-06,22.081197,121.503117,0.00044917263
C0S920,金峰嘉蘭,2021-02-06,22.594789,120.960825,0.01183524
C0S930,延平,2021-02-06,22.902581,121.084058,0.0021677352
C0S940,石寧山,2021-02-06,23.223772,121.406639,0.0014414651
C0S950,七塊厝,2021-02-06,22.954453,121.229922,0.0011645162
C0S960,香蘭,2021-02-06,22.587569,120.993375,0.039788418
C0S970,加津林,2021-02-06,22.416211,120.926942,0.002741862
C0S990,山豬窟,2021-02-06,22.318619,120.857372,0.0011189657
C0SA00,歷坵,2021-02-06,22.520969,120.89185,0.0011670281
C0SA10,檳榔四格山,2021-02-06,22.810031,121.109308,0.0008531827
C0SA30,都歷,2021-02-06,23.020333,121.323642,0.019035785
C0SA40,瑞和,2021-02-06,22.974361,121.156697,0.0053938716
C0SA60,知本（水試所）,2021-02-06,22.702394,121.082761,0.0059703463
C0SA80,土坂,2021-02-06,22.453108,120.887572,0.007855302
C0SA90,達仁林場,2021-02-06,22.264347,120.823972,0.0055944324
C0T870,鯉魚潭,2021-02-06,23.935639,121.508944,0.04133856
C0T900,西林,2021-02-06,23.8119,121.441458,0.027667172
C0T960,光復,2021-02-06,23.660694,121.424964,0.008741631
C0T9A0,月眉山,2021-02-06,23.809928,121.539828,0.003073128
C0T9D0,和中,2021-02-06,24.26676,121.74103,0.02690352
C0T9E0,大坑,2021-02-06,23.880628,121.581981,0.005496094
C0T9F0,水璉,2021-02-06,23.797131,121.542514,0.011493118
C0T9I0,豐濱,2021-02-06,23.583897,121.514806,0.009168734
C0T9M0,靜浦,2021-02-06,23.455167,121.495028,0.018313428
C0T9N0,富里,2021-02-06,23.171639,121.249378,0.0005180884
C0U600,礁溪,2021-02-06,24.817539,121.765608,0.0012475057
C0U650,玉蘭,2021-02-06,24.675286,121.587061,0.0008935001
C0U750,龜山島,2021-02-06,24.841667,121.953133,0.0018289593
C0U760,東澳,2021-02-06,24.52196,121.83318,0.004088103
C0U770,南澳,2021-02-06,24.44935,121.81022,0.010174022
C0U780,五結,2021-02-06,24.68637,121.79794,0.0026178267
C0U860,頭城,2021-02-06,24.85323,121.8308,0.001277267
C0U870,大礁溪,2021-02-06,24.791042,121.675047,0.0010860008
C0U880,北關,2021-02-06,24.9072,121.8734,0.0006859642
C0U890,三星,2021-02-06,24.66812,121.65302,0.0010179296
C0U900,內城,2021-02-06,24.71813,121.68766,0.0011678855
C0U910,冬山,2021-02-06,24.63373,121.7937,0.0026178267
C0U940,羅東,2021-02-06,24.68184,121.74934,0.002538258
C0U970,大福,2021-02-06,24.80064,121.81389,0.0013076863
C0U990,員山,2021-02-06,24.74435,121.72247,0.002538258
C0UA00,土場,2021-02-06,24.576533,121.495333,0.0018020845
C0UA80,大溪漁港,2021-02-06,24.941801,121.902955,0.0012475039
C0UA90,石城,2021-02-06,24.980444,121.951214,0.0016876381
C0UB00,淡江大學蘭陽校園,2021-02-06,24.823239,121.730383,0.0011861082
C0UB20,壯圍,2021-02-06,24.7359,121.8163,0.0027186496
C0V250,甲仙,2021-02-06,23.080106,120.591758,0.0034144255
C0V260,月眉,2021-02-06,22.971003,120.539853,0.0066372477
C0V310,美濃,2021-02-06,22.898742,120.519153,0.011923839
C0V350,溪埔,2021-02-06,22.738578,120.446797,0.022676168
C0V360,內門,2021-02-06,22.975481,120.466769,0.005850357
C0V370,古亭坑,2021-02-06,22.893178,120.401947,0.009422985
C0V400,阿公店,2021-02-06,22.804194,120.355528,0.027956264
C0V440,鳳山,2021-02-06,22.646653,120.356122,0.02008879
C0V450,鳳森,2021-02-06,22.545064,120.392592,0.027640458
C0V490,新興,2021-02-06,22.627422,120.298803,0.024114955
C0V530,阿蓮,2021-02-06,22.883208,120.327508,0.040291343
C0V610,梓官,2021-02-06,22.760558,120.267211,0.027211174
C0V620,永安,2021-02-06,22.82315,120.236856,0.026524428
C0V630,茄萣,2021-02-06,22.906642,120.182608,0.026406595
C0V640,湖內,2021-02-06,22.887139,120.2445,0.02439299
C0V650,彌陀,2021-02-06,22.783806,120.246361,0.026524452
C0V660,岡山,2021-02-06,22.797078,120.294958,0.027211174
C0V680,仁武,2021-02-06,22.701083,120.347722,0.018678853
C0V690,鼓山,2021-02-06,22.623325,120.275575,0.024114922
C0V700,三民,2021-02-06,22.645017,120.311233,0.024114922
C0V710,苓雅,2021-02-06,22.622742,120.330669,0.024114922
C0V720,林園,2021-02-06,22.507747,120.394511,0.024114922
C0V730,大寮,2021-02-06,22.605614,120.395717,0.031052992
C0V740,旗山,2021-02-06,22.888614,120.483597,0.011325452
C0V750,路竹,2021-02-06,22.854997,120.259439,0.045394097
C0V760,橋頭,2021-02-06,22.757806,120.30575,0.02510491
C0V770,大社,2021-02-06,22.730306,120.346639,0.018678853
C0V790,萬山,2021-02-06,22.905944,120.688056,0.005946871
C0V800,六龜,2021-02-06,22.997889,120.633583,0.0075012106
C0V810,左營,2021-02-06,22.67491,120.28491,0.020354053
C0V820,小林,2021-02-06,23.148408,120.63325,0.003941558
C0V840,鳳鼻頭,2021-02-06,22.5083,120.3591,0.02673496
C0V850,蚵仔寮,2021-02-06,22.7256,120.2527,0.02277534
C0V860,南寮,2021-02-06,22.7616,120.2339,0.028998014
C0V870,文安,2021-02-06,22.8025,120.2164,0.028998014
C0V880,興達,2021-02-06,22.8778,120.2127,0.026406595
C0V890,前鎮,2021-02-06,22.5718,120.3117,0.02673496
C0V900,汕尾,2021-02-06,22.4782,120.4151,0.057555463
C0X050,東河,2021-02-06,23.296598,120.385608,0.002198447
C0X060,下營,2021-02-06,23.22695,120.256261,0.0062949825
C0X080,佳里,2021-02-06,23.173039,120.145086,0.006028732
C0X100,臺南市北區,2021-02-06,23.010394,120.194228,0.026605343
C0X110,臺南市南區,2021-02-06,22.961189,120.188378,0.024810417
C0X120,麻豆,2021-02-06,23.183289,120.248611,0.0057996092
C0X130,官田,2021-02-06,23.193217,120.315422,0.005824773
C0X140,西港,2021-02-06,23.125608,120.203108,0.009472171
C0X150,安定,2021-02-06,23.102614,120.227839,0.013429227
C0X160,仁德,2021-02-06,22.968258,120.257689,0.022794345
C0X170,關廟,2021-02-06,22.963017,120.327797,0.018007113
C0X180,山上,2021-02-06,23.0757,120.363253,0.0040028193
C0X190,安平,2021-02-06,22.993161,120.152181,0.02660537
C0X200,左鎮,2021-02-06,23.056758,120.408522,0.004136051
C0X210,白河,2021-02-06,23.347466,120.414427,0.0021424857
C0X220,學甲,2021-02-06,23.230367,120.182187,0.0057996092
C0X230,鹽水,2021-02-06,23.272621,120.247641,0.0050579896
C0X240,關子嶺,2021-02-06,23.331169,120.508025,0.0021823936
C0X250,新營,2021-02-06,23.310689,120.316681,0.0054703327
C0X260,後壁,2021-02-06,23.366358,120.362326,0.0029949069
C0X280,將軍,2021-02-06,23.214999,120.13577,0.006028732
C0X290,北門,2021-02-06,23.267772,120.125481,0.006028732
C0X300,鹿寮,2021-02-06,23.386047,120.477331,0.00617048
C0X310,七股,2021-02-06,23.147289,120.086253,0.0052444832
C0X320,柳營,2021-02-06,23.253328,120.375253,0.002198447
C0Z020,明里,2021-02-06,23.208717,121.262342,0.00083512056
C0Z061,玉里,2021-02-06,23.3215,121.339656,0.0015486728
C0Z070,舞鶴,2021-02-06,23.46811,121.37407,0.0025287564
C0Z080,富源,2021-02-06,23.587642,121.378225,0.0025120464
C0Z100,東華,2021-02-06,23.89525,121.549833,0.13580504
C0Z150,吉安光華,2021-02-06,23.930925,121.595153,0.17422675
C0Z160,鳳林,2021-02-06,23.746114,121.453411,0.010072798
C0Z170,卓溪,2021-02-06,23.3443,121.3029,0.0012832438
C0Z180,新城,2021-02-06,24.03946,121.60454,0.014243199
C0Z190,富世,2021-02-06,24.14743,121.6297,0.0051232814
C0Z200,萬榮,2021-02-06,23.709219,121.420106,0.041338593
C0Z210,瑞穗,2021-02-06,23.5239,121.39021,0.012031393
C0Z230,和平,2021-02-06,24.30717,121.77007,0.02690352
C0Z270,蕃薯寮,2021-02-06,23.73835,121.540108,0.009566459
C0Z280,德武,2021-02-06,23.47426,121.41071,0.0036860453
C0Z300,東里,2021-02-06,23.26853,121.30547,0.0014123888
C0Z310,清水斷崖,2021-02-06,24.218294,121.689142,0.009976531
C0Z330,安通山,2021-02-06,23.290728,121.348528,0.0007748829
CAA010,國一N013K,2021-02-06,25.06944,121.6281,0.00056307047
CAA020,國一S026K,2021-02-06,25.07639,121.4964,0.00050399237
CAA030,國三S010K,2021-02-06,25.08,121.6475,0.0005677885
CAA040,國三S016K,2021-02-06,25.03306,121.6158,0.00053857383
CAA050,國三S037K,2021-02-06,24.9828,121.471,0.00056307047
CAA060,國三S042K,2021-02-06,24.96,121.4306,0.00047500458
CAA070,國三N046K,2021-02-06,24.95083,121.3958,0.00048080643
CAA080,國三S054K,2021-02-06,24.93917,121.3239,0.00063608633
CAA090,國三A005K,2021-02-06,25.00194,121.5975,0.00055812736
CAAH60,大安森林,2021-02-06,25.02955,121.53628,0.0005738988
CAB010,國一S001K,2021-02-06,25.11583,121.7286,0.00082068995
CAB020,國一S006K,2021-02-06,25.08694,121.6869,0.0007585794
CAB030,國三S004K,2021-02-06,25.11444,121.6886,0.0012956217
CAB040,國三S007K,2021-02-06,25.09694,121.6678,0.00093306135
CAB050,國三K002K,2021-02-06,25.14583,121.7217,0.00093306135
CAC010,國一S072K,2021-02-06,24.89583,121.1342,0.0005364211
CAC020,國二E009K,2021-02-06,25.02111,121.2736,0.00062841165
CAC030,國三N063K,2021-02-06,24.889,121.26,0.0006370598
CAC050,西濱S023K,2021-02-06,25.11649,121.27551,0.0006701407
CAC060,西濱S032K,2021-02-06,25.091966,121.192505,0.0007181995
CAD010,國一S105K,2021-02-06,24.726316,120.940643,0.00068323244
CAD020,國一N077K,2021-02-06,24.885,121.0889,0.0005478682
CAD030,國一S082K,2021-02-06,24.87667,121.0467,0.001473275
CAD040,國一S088K,2021-02-06,24.84444,121.0214,0.00070615724
CAD050,國一N094K,2021-02-06,24.79778,121.0089,0.00066481973
CAD060,國一S098K,2021-02-06,24.76056,120.9911,0.00066482037
CAD070,國三N076K,2021-02-06,24.800303,121.195739,0.0007070117
CAD080,國三N085K,2021-02-06,24.78333,121.1211,0.0007075399
CAD090,國三S103K,2021-02-06,24.75861,120.9608,0.00063745026
CAD100,西濱N066K,2021-02-06,24.8956,120.9649,0.0011870256
CAD110,西濱S082K,2021-02-06,24.751724,120.905028,0.00073198345
CAE010,國一N142K,2021-02-06,24.453119,120.783221,0.00088512356
CAE020,國一S114K,2021-02-06,24.668835,120.885811,0.00073198345
CAE030,國一S123K,2021-02-06,24.59594,120.86071,0.00084697275
CAE040,國一S132K,2021-02-06,24.524506,120.820831,0.0008556039
CAE050,國一S152K,2021-02-06,24.375492,120.749184,0.0007571512
CAE060,國三N119K,2021-02-06,24.675432,120.847389,0.0009622859
CAE070,國三N151K,2021-02-06,24.440218,120.681656,0.00093935843
CAE080,國三S140K,2021-02-06,24.522345,120.725006,0.00086321874
CAE090,國三S156K,2021-02-06,24.39798,120.669487,0.0008814465
CAE100,西濱N107K,2021-02-06,24.5958,120.7394,0.00087730144
CAE110,西濱S129K,2021-02-06,24.4472,120.6428,0.0009806723
CAF010,國一N174K,2021-02-06,24.2049,120.6552,0.0008770215
CAF020,國一S162K,2021-02-06,24.295534,120.695976,0.0009390277
CAF030,國一S169K,2021-02-06,24.237116,120.688271,0.0010043404
CAF040,國一S188K,2021-02-06,24.118546,120.585747,0.0028963014
CAF050,國三N208K,2021-02-06,24.066147,120.660919,0.0028963014
CAF060,國三S168K,2021-02-06,24.308519,120.614471,0.0009684723
CAF070,國三S173K,2021-02-06,24.27397,120.593079,0.00088606746
CAF080,國三S178K,2021-02-06,24.226721,120.589058,0.0009019373
CAF090,國四E5K,2021-02-06,24.296465,120.643135,0.00091704563
CAF100,西濱N151K,2021-02-06,24.275964,120.547681,0.0010514761
CAG010,國一N198K,2021-02-06,24.063889,120.523056,0.002949375
CAG030,國一S207K,2021-02-06,23.988304,120.508092,0.0026656485
CAG040,國三N191K,2021-02-06,24.139256,120.5215,0.001066413
CAG050,國三N196K,2021-02-06,24.107155,120.554482,0.0030317872
CAG060,國三S202K,2021-02-06,24.092468,120.603256,0.00303179
CAG070,西濱S173K,2021-02-06,24.1081,120.434576,0.0025856283
CAG080,西濱S189K,2021-02-06,23.987857,120.369607,0.00150383
CAG090,西濱N210K,2021-02-06,23.843536,120.293236,0.0013977229
CAG100,王功漁港,2021-02-06,23.96824,120.32586,0.00150383
CAH010,國三N223K,2021-02-06,23.955116,120.662376,0.0035339058
CAH020,國三S217K,2021-02-06,24.00683,120.653214,0.0007850759
CAH030,茶改場竹圍站,2021-02-06,23.860083,120.637528,0.0036208783
CAHA00,消防署訓練中心,2021-02-06,23.82137,120.72293,0.0025284472
CAJ010,國三N252K,2021-02-06,23.77412,120.64061,0.002216683
CAJ020,國一N234K,2021-02-06,23.74633,120.467926,0.003266951
CAJ030,西濱N222K,2021-02-06,23.737734,120.256132,0.0015148002
CAJ040,西濱S241K,2021-02-06,23.623426,120.172646,0.0023790358
CAJ050,海口故事園區,2021-02-06,23.57543,120.14121,0.0023790358
CAL010,國一N250K,2021-02-06,23.610292,120.436867,0.0010680682
CAL020,國一S262K,2021-02-06,23.512333,120.403038,0.0009932923
CAL030,國一N268K,2021-02-06,23.460833,120.375833,0.0009932923
CAL040,國一N273K,2021-02-06,23.416666,120.355,0.0019143688
CAL050,國三N279K,2021-02-06,23.596111,120.523333,0.002616165
CAL060,國三S286K,2021-02-06,23.533917,120.484583,0.0035421096
CAL070,國三N295K,2021-02-06,23.468598,120.499369,0.00360951
CAL080,國三N303K,2021-02-06,23.428611,120.452416,0.0011313366
CAL090,西濱S257K,2021-02-06,23.502278,120.171861,0.0028734803
CAL100,西濱S267K,2021-02-06,23.41613,120.162872,0.0033637674
CAL110,布袋國中,2021-02-06,23.35893,120.18026,0.005686907
CAN010,國一N288K,2021-02-06,23.30609,120.290033,0.0056572896
CAN020,國一S306K,2021-02-06,23.1565,120.239513,0.0057996092
CAN030,國一N316K,2021-02-06,23.07309,120.253014,0.011912529
CAN040,國一N323K,2021-02-06,23.00421,120.245922,0.023090044
CAN050,國一N335K,2021-02-06,22.897584,120.269895,0.049985245
CAN060,國三S311K,2021-02-06,23.346388,120.438888,0.0020895507
CAN070,國三S329K,2021-02-06,23.212777,120.355833,0.0036983571
CAN080,國三N336K,2021-02-06,23.154722,120.345,0.005619528
CAN090,國三S342K,2021-02-06,23.106694,120.327528,0.0108191585
CAN100,國三S366K,2021-02-06,22.9077,120.3513,0.016819403
CAN110,西濱S280K,2021-02-06,23.3052,120.14891,0.0060287234
CAN120,西濱N304K,2021-02-06,23.103439,120.086694,0.009007289
CAN130,水試所海水繁養殖中心,2021-02-06,23.120802,120.07968,0.009574924
CAN140,六官養殖協會,2021-02-06,23.22881,120.29962,0.0060683205
CAP010,國一S342K,2021-02-06,22.845555,120.295,0.027211174
CAP020,國一S346K,2021-02-06,22.812222,120.314166,0.027211174
CAP030,國一N351K,2021-02-06,22.765833,120.328888,0.02510491
CAP040,國一N361K,2021-02-06,22.680555,120.328611,0.020354053
CAP050,國三N372K,2021-02-06,22.858611,120.373611,0.016862795
CAP060,國三S385K,2021-02-06,22.767777,120.444444,0.011587664
CAP070,高雄燈塔,2021-02-06,22.6146,120.2647,0.024114922
CAQ010,國三N425K,2021-02-06,22.480277,120.531666,0.06630718
CAQ020,國三S415K,2021-02-06,22.568,120.528,0.08297682
CAQ030,崎峰國小,2021-02-06,22.42565,120.49521,0.07606693
E2K600,四湖植物園,2021-02-06,23.676986,120.163433,0.0013901574
E2P980,林試六龜中心,2021-02-06,22.991703,120.645722,0.007199812
E2S390,太麻里分所,2021-02-06,22.5988,120.9811,0.013047702
E2S960,林試太麻里2,2021-02-06,22.598014,120.989761,0.039788418
E2S980,林試太麻里1,2021-02-06,22.598922,120.980044,0.013047702
G2AI50,關渡,2021-02-06,25.11575,121.492,0.0005147188
G2F820,農試所(霧峰),2021-02-06,24.031261,120.688133,0.0007850759
G2L020,嘉義分所,2021-02-06,23.485028,120.473806,0.00360951
G2M350,溪口農場,2021-02-06,23.58565,120.408111,0.0010930132
G2P820,鳳山園試所,2021-02-06,22.646611,120.356083,0.02008879
K2E360,苗栗農改場,2021-02-06,24.495722,120.829111,0.0009939508
K2E710,大湖分場,2021-02-06,24.422861,120.871833,0.0009097406
K2F750,種苗改良場,2021-02-06,24.225972,120.800917,0.0013856087
U2HA50,臺大竹山,2021-02-06,23.756972,120.681556,0.0022055497
V2C250,八德合作社,2021-02-06,24.93775,121.266389,0.000563009
V2C260,八德蔬果,2021-02-06,24.978508,121.281819,0.00060228613
V2K610,大庄合作社,2021-02-06,23.8068,120.367939,0.0011368765
V2K620,麥寮合作社,2021-02-06,23.753836,120.294783,0.0013977216
