站號,站名,日期,lat,lon,BlastGRU-TW
466881,新北,2021-09-19,24.9593,121.52,0.03311811
466900,淡水,2021-09-19,25.1649,121.4489,0.05450333
466920,臺北,2021-09-19,25.0377,121.5149,0.0320082
466940,基隆,2021-09-19,25.1333,121.7405,0.047283072
466990,花蓮,2021-09-19,23.9751,121.6133,0.39337552
467050,新屋,2021-09-19,25.0067,121.0475,0.13359809
467080,宜蘭,2021-09-19,24.764,121.7565,0.020590488
467270,田中,2021-09-19,23.8738,120.5813,0.15506019
467300,東吉島,2021-09-19,23.2569,119.6675,0.34596843
467350,澎湖,2021-09-19,23.5655,119.5631,0.19591172
467410,臺南,2021-09-19,22.9932,120.2048,0.020615
467420,永康,2021-09-19,23.0384,120.2367,0.02011929
467441,高雄,2021-09-19,22.7304,120.3125,0.042367607
467480,嘉義,2021-09-19,23.4959,120.4329,0.3409247
467490,臺中,2021-09-19,24.1457,120.6841,0.28354105
467540,大武,2021-09-19,22.3557,120.9038,0.02883034
467571,新竹,2021-09-19,24.8279,121.0142,0.06128886
467590,恆春,2021-09-19,22.0039,120.7463,0.007826113
467610,成功,2021-09-19,23.0975,121.3734,0.6076125
467620,蘭嶼,2021-09-19,22.037,121.5583,0.84029967
467660,臺東,2021-09-19,22.7522,121.1546,0.026611697
467790,墾丁雷達站,2021-09-19,21.9482,120.808,0.007856421
C0A520,山佳,2021-09-19,24.9749,121.402,0.03895933
C0A530,坪林,2021-09-19,24.9382,121.7097,0.074522294
C0A540,四堵,2021-09-19,24.8926,121.7457,0.068715155
C0A550,泰平,2021-09-19,24.9712,121.8237,0.42623922
C0A560,福山,2021-09-19,24.7762,121.5028,0.25686714
C0A570,桶後,2021-09-19,24.8482,121.598,0.09609488
C0A640,石碇,2021-09-19,24.994,121.6629,0.041157715
C0A650,火燒寮,2021-09-19,25.0027,121.7429,0.05437369
C0A660,瑞芳,2021-09-19,25.1132,121.8011,0.03291953
C0A770,科教館,2021-09-19,25.0964,121.5165,0.03687561
C0A860,大坪,2021-09-19,25.1659,121.633,0.16605143
C0A880,福隆,2021-09-19,25.0178,121.9421,0.02692274
C0A890,雙溪,2021-09-19,25.036,121.8642,0.052129276
C0A920,富貴角,2021-09-19,25.2638,121.5653,0.08240022
C0A931,三和,2021-09-19,25.2332,121.5952,0.05574025
C0A940,金山,2021-09-19,25.2236,121.644,0.0838643
C0A950,鼻頭角,2021-09-19,25.129,121.9234,0.026529929
C0A970,三貂角,2021-09-19,25.0076,122.0021,0.03488555
C0A980,社子,2021-09-19,25.1095,121.4697,0.03617894
C0A9C0,天母,2021-09-19,25.1175,121.5372,0.03826728
C0A9F0,內湖,2021-09-19,25.0794,121.5755,0.0320082
C0AC60,三峽,2021-09-19,24.939,121.3697,0.03363057
C0AC70,信義,2021-09-19,25.0378,121.5646,0.0320082
C0AC80,文山,2021-09-19,25.0023,121.5757,0.034903824
C0ACA0,新莊,2021-09-19,25.0515,121.4468,0.04307414
C0AD00,三芝,2021-09-19,25.2581,121.5019,0.092783846
C0AD10,八里,2021-09-19,25.1502,121.4039,0.05450333
C0AD30,蘆洲,2021-09-19,25.0866,121.4723,0.03687561
C0AD40,土城,2021-09-19,24.9732,121.4452,0.037504937
C0AD50,鶯歌,2021-09-19,24.9515,121.3463,0.060193695
C0AG80,中和,2021-09-19,24.9916,121.4918,0.0320082
C0AH00,汐止,2021-09-19,25.0669,121.6588,0.04816587
C0AH10,永和,2021-09-19,25.0113,121.5081,0.031417448
C0AH40,平等,2021-09-19,25.1291,121.5771,0.09569221
C0AH50,林口,2021-09-19,25.0722,121.3808,0.08096127
C0AH70,松山,2021-09-19,25.0487,121.5504,0.0320082
C0AH80,深坑,2021-09-19,25.0027,121.6283,0.03433738
C0AI00,五股,2021-09-19,25.0744,121.4273,0.07634478
C0AI10,屈尺,2021-09-19,24.9218,121.5447,0.034903824
C0AI20,白沙灣,2021-09-19,25.2831,121.5191,0.07994091
C0AI30,三重,2021-09-19,25.0573,121.5006,0.03687561
C0AI40,石牌,2021-09-19,25.1156,121.5131,0.037504937
C0AJ10,澳底,2021-09-19,25.0571,121.9273,0.02613962
C0AJ20,野柳,2021-09-19,25.207,121.69,0.04816587
C0AJ30,淡水觀海,2021-09-19,25.1846,121.4086,0.053308595
C0AJ40,石門,2021-09-19,25.2737,121.6012,0.13047183
C0AJ50,水湳洞,2021-09-19,25.1237,121.8622,0.04816587
C0AJ60,六塊厝,2021-09-19,25.24,121.4481,0.053308595
C0AJ70,田寮,2021-09-19,25.2698,121.4886,0.0779894
C0AJ80,板橋,2021-09-19,25.0107,121.4489,0.037504937
C0B010,七堵,2021-09-19,25.0948,121.7171,0.050065342
C0B020,基隆嶼,2021-09-19,25.1914,121.7839,0.04816587
C0B040,大武崙,2021-09-19,25.1667,121.707,0.050065342
C0B050,八斗子,2021-09-19,25.1448,121.7917,0.04641479
C0B060,暖暖,2021-09-19,25.0957,121.7403,0.05556759
C0C460,復興,2021-09-19,24.8202,121.3523,0.11448717
C0C480,桃園,2021-09-19,24.9924,121.3232,0.07623559
C0C490,八德,2021-09-19,24.9287,121.2833,0.05236946
C0C590,觀音,2021-09-19,25.0271,121.1533,0.07325986
C0C620,蘆竹,2021-09-19,25.0843,121.2658,0.056867342
C0C630,大溪,2021-09-19,24.8829,121.2655,0.064258076
C0C650,平鎮,2021-09-19,24.8975,121.2146,0.13335241
C0C660,楊梅,2021-09-19,24.9124,121.143,0.13666794
C0C670,龍潭,2021-09-19,24.8701,121.2214,0.12499957
C0C680,龜山,2021-09-19,25.0285,121.3866,0.062500045
C0C700,中壢,2021-09-19,24.9777,121.2564,0.084793866
C0C710,大溪永福,2021-09-19,24.8929,121.325,0.09399635
C0C720,竹圍,2021-09-19,25.1127,121.2398,0.05450333
C0C730,中大臨海站,2021-09-19,24.9661,121.0086,0.12508938
C0C740,觀音工業區,2021-09-19,25.0648,121.1149,0.09365134
C0C750,新興坑尾,2021-09-19,25.0061,121.0971,0.12027163
C0D430,峨眉,2021-09-19,24.6905,121.0172,0.05344943
C0D480,打鐵坑,2021-09-19,24.8497,121.1508,0.095032066
C0D540,橫山,2021-09-19,24.7112,121.1169,0.07516538
C0D560,竹東,2021-09-19,24.7671,121.0579,0.072985865
C0D580,寶山,2021-09-19,24.735,121.0252,0.058849238
C0D590,新豐,2021-09-19,24.8707,120.9772,0.1517663
C0D650,湖口,2021-09-19,24.9048,121.0436,0.15694499
C0D660,新竹市東區,2021-09-19,24.7987,120.9869,0.0651467
C0D670,海天一線,2021-09-19,24.832,120.9144,0.056641378
C0D680,香山濕地,2021-09-19,24.7836,120.915,0.05835937
C0D690,外湖,2021-09-19,24.9177,120.9687,0.12508933
C0D700,關西,2021-09-19,24.7977,121.1732,0.097763784
C0E420,竹南,2021-09-19,24.709,120.8889,0.06449265
C0E430,南庄,2021-09-19,24.6018,121.0002,0.063076
C0E520,大湖,2021-09-19,24.4149,120.8709,0.18552908
C0E540,後龍,2021-09-19,24.6065,120.7839,0.17302583
C0E550,明德,2021-09-19,24.5835,120.8854,0.07225382
C0E590,通霄,2021-09-19,24.4719,120.7046,0.15594564
C0E730,頭份,2021-09-19,24.6882,120.9122,0.06449265
C0E740,造橋,2021-09-19,24.6371,120.8648,0.06384636
C0E750,苗栗,2021-09-19,24.5646,120.8246,0.21603136
C0E780,銅鑼,2021-09-19,24.4897,120.7909,0.06516189
C0E791,卓蘭,2021-09-19,24.3126,120.8244,0.32082906
C0E810,西湖,2021-09-19,24.5629,120.7485,0.19670227
C0E820,獅潭,2021-09-19,24.5391,120.92,0.06594751
C0E830,苑裡,2021-09-19,24.4397,120.6531,0.11437944
C0E850,大河,2021-09-19,24.6181,120.9486,0.07739764
C0E870,高鐵苗栗,2021-09-19,24.6073,120.8261,0.18153274
C0E910,海埔,2021-09-19,24.6488,120.7724,0.06038572
C0E920,通霄漁港,2021-09-19,24.4986,120.6739,0.138785
C0E930,龍鳳,2021-09-19,24.7,120.8591,0.06236369
C0F000,大肚,2021-09-19,24.153,120.5721,0.01756707
C0F0B0,石岡,2021-09-19,24.2761,120.7776,0.020502295
C0F850,東勢,2021-09-19,24.2464,120.833,0.66419274
C0F930,大甲,2021-09-19,24.3477,120.6404,0.1175604
C0F970,大坑,2021-09-19,24.1731,120.7223,0.25887766
C0F9A0,中竹林,2021-09-19,24.1036,120.7511,0.32670537
C0F9I0,神岡,2021-09-19,24.2725,120.6583,0.10190551
C0F9K0,大安,2021-09-19,24.3451,120.588,0.099815845
C0F9L0,后里,2021-09-19,24.3104,120.7297,0.25522533
C0F9M0,豐原,2021-09-19,24.2543,120.7207,0.14817877
C0F9N0,大里,2021-09-19,24.0925,120.7014,0.13062014
C0F9O0,潭子,2021-09-19,24.2131,120.7039,0.1165011
C0F9P0,清水,2021-09-19,24.3123,120.5622,0.09701225
C0F9Q0,外埔,2021-09-19,24.3478,120.7057,0.07606035
C0F9R0,龍井,2021-09-19,24.1845,120.529,0.10336566
C0F9S0,烏日,2021-09-19,24.1071,120.6241,0.14025365
C0F9T0,西屯,2021-09-19,24.1795,120.6413,0.12845547
C0F9U0,南屯,2021-09-19,24.137,120.638,0.13062014
C0F9X0,大雅(中科園區),2021-09-19,24.2153,120.6244,0.16985951
C0FA10,松柏,2021-09-19,24.4291,120.6175,0.10873652
C0FA20,溫寮,2021-09-19,24.3722,120.5831,0.10873652
C0FA30,梧棲,2021-09-19,24.256,120.5234,0.10336566
C0FA40,臺中電廠,2021-09-19,24.2146,120.4907,0.10336566
C0FA50,霧峰,2021-09-19,24.0419,120.6995,0.21292634
C0G620,芬園,2021-09-19,24.0157,120.6213,0.25611353
C0G640,鹿港,2021-09-19,24.0753,120.4305,0.16539066
C0G650,員林,2021-09-19,23.9465,120.5856,0.24196535
C0G660,溪湖,2021-09-19,23.9484,120.4791,0.2256629
C0G720,溪州,2021-09-19,23.8516,120.4991,0.16112374
C0G730,二林,2021-09-19,23.9033,120.3761,0.1852254
C0G740,大城,2021-09-19,23.8525,120.3209,0.16239734
C0G770,福興,2021-09-19,24.0413,120.4377,0.16539066
C0G780,秀水,2021-09-19,24.0341,120.5039,0.16434684
C0G800,埔鹽,2021-09-19,24.0004,120.4317,0.16539091
C0G810,埔心,2021-09-19,23.9476,120.5255,0.23174782
C0G820,田尾,2021-09-19,23.9017,120.5094,0.23786995
C0G830,埤頭,2021-09-19,23.866,120.4528,0.15403764
C0G840,北斗,2021-09-19,23.8776,120.5142,0.23786995
C0G860,社頭,2021-09-19,23.8976,120.5862,0.24960701
C0G870,芳苑,2021-09-19,23.9223,120.32,0.15629052
C0G880,二水,2021-09-19,23.8107,120.6173,0.19239986
C0G890,伸港,2021-09-19,24.1489,120.4844,0.110268325
C0G900,線西,2021-09-19,24.1434,120.4435,0.13665172
C0G910,花壇,2021-09-19,24.0321,120.5495,0.17263862
C0G920,永靖,2021-09-19,23.9247,120.5475,0.23786995
C0G940,竹塘,2021-09-19,23.8483,120.3868,0.10020221
C0G950,防潮門,2021-09-19,24.1835,120.4871,0.10174817
C0G960,福寶,2021-09-19,24.0443,120.3814,0.16136755
C0G970,三豐,2021-09-19,23.882,120.2895,0.15629052
C0H890,埔里,2021-09-19,23.9722,120.9524,0.7077529
C0H950,中寮,2021-09-19,23.8844,120.7664,0.42053685
C0H960,草屯,2021-09-19,23.9737,120.6809,0.19570556
C0I110,竹山,2021-09-19,23.7612,120.6882,0.31371343
C0I360,水里,2021-09-19,23.8126,120.8498,0.020889595
C0I380,集集,2021-09-19,23.8282,120.8015,0.017876737
C0I410,名間,2021-09-19,23.8371,120.7014,0.23341496
C0I420,國姓,2021-09-19,24.0378,120.8551,0.06862265
C0I460,南投,2021-09-19,23.9115,120.6873,0.24143434
C0K250,崙背,2021-09-19,23.7555,120.3189,0.17610776
C0K280,四湖,2021-09-19,23.6304,120.2271,0.21097814
C0K291,宜梧,2021-09-19,23.5363,120.1693,0.05006864
C0K330,虎尾,2021-09-19,23.7192,120.442,0.09144458
C0K390,土庫,2021-09-19,23.679,120.3956,0.08879649
C0K400,斗六,2021-09-19,23.7206,120.5411,0.12882869
C0K410,北港,2021-09-19,23.574,120.2928,0.04165195
C0K420,西螺,2021-09-19,23.8004,120.4674,0.14971577
C0K430,褒忠,2021-09-19,23.6909,120.3036,0.13648666
C0K440,二崙,2021-09-19,23.7728,120.4089,0.1031024
C0K450,大埤,2021-09-19,23.6461,120.4315,0.09998774
C0K460,斗南,2021-09-19,23.6787,120.4784,0.12163501
C0K470,林內,2021-09-19,23.7487,120.6096,0.15998675
C0K480,莿桐,2021-09-19,23.7612,120.5024,0.15317684
C0K500,元長,2021-09-19,23.6498,120.315,0.17433909
C0K510,水林,2021-09-19,23.5729,120.246,0.052218255
C0K530,臺西,2021-09-19,23.7015,120.1976,0.16915788
C0K550,蔦松,2021-09-19,23.5143,120.2297,0.05197161
C0K560,棋山,2021-09-19,23.6865,120.6034,0.15927774
C0K580,高鐵雲林,2021-09-19,23.7375,120.4179,0.08879658
C0K590,雲林東勢,2021-09-19,23.6742,120.2557,0.13648666
C0K600,箔子寮,2021-09-19,23.6197,120.14,0.050366897
C0M410,馬頭山,2021-09-19,23.3244,120.582,0.028312365
C0M520,東後寮,2021-09-19,23.3699,120.2481,0.035470698
C0M640,中埔,2021-09-19,23.4254,120.5229,0.22457859
C0M650,朴子,2021-09-19,23.4346,120.239,0.05275617
C0M660,溪口,2021-09-19,23.6041,120.4036,0.24409898
C0M670,大林,2021-09-19,23.6006,120.4584,0.35065874
C0M680,太保,2021-09-19,23.4551,120.3315,0.047359988
C0M690,水上,2021-09-19,23.4197,120.3889,0.4469055
C0M700,竹崎,2021-09-19,23.5262,120.5555,0.22331448
C0M710,東石,2021-09-19,23.4589,120.1539,0.05197161
C0M720,番路,2021-09-19,23.4647,120.5542,0.34998158
C0M730,嘉義市東區,2021-09-19,23.4577,120.4605,0.4628947
C0M740,六腳,2021-09-19,23.4929,120.2906,0.045510292
C0M750,布袋,2021-09-19,23.3809,120.1678,0.05275617
C0M760,民雄,2021-09-19,23.5518,120.4285,0.26210716
C0M770,嘉義梅山,2021-09-19,23.5854,120.5556,0.17807461
C0M780,鹿草,2021-09-19,23.4113,120.3084,0.063408725
C0M790,新港,2021-09-19,23.5533,120.3457,0.043009788
C0M800,茶山,2021-09-19,23.2991,120.6648,0.007831213
C0M880,好美里,2021-09-19,23.3364,120.138,0.033928778
C0N010,鯤鯓國小,2021-09-19,23.1879,120.0889,0.05031738
C0N020,城西,2021-09-19,23.0568,120.0956,0.023115411
C0N030,四草,2021-09-19,23.0235,120.1116,0.017486809
C0N040,蘆竹溝,2021-09-19,23.2344,120.0961,0.05031738
C0N050,蚵寮,2021-09-19,23.301,120.1104,0.05031738
C0O810,曾文,2021-09-19,23.2197,120.4973,0.55842614
C0O830,北寮,2021-09-19,23.0796,120.495,0.025192218
C0O840,王爺宮,2021-09-19,23.2221,120.4009,0.55842614
C0O860,大內,2021-09-19,23.1188,120.3608,0.2658042
C0O900,善化,2021-09-19,23.1129,120.2972,0.04055468
C0O930,玉井,2021-09-19,23.126,120.4605,0.23637384
C0O950,安南,2021-09-19,23.0767,120.1449,0.024161298
C0O960,崎頂,2021-09-19,22.9595,120.3693,0.015638724
C0O970,虎頭埤,2021-09-19,23.0214,120.3479,0.030922094
C0O980,新市,2021-09-19,23.0616,120.2982,0.04055468
C0O990,媽廟,2021-09-19,22.9917,120.2935,0.028411742
C0R150,三地門,2021-09-19,22.7099,120.6399,0.024696024
C0R160,鹽埔,2021-09-19,22.7396,120.5308,0.021519016
C0R170,屏東,2021-09-19,22.6603,120.4941,0.0687866
C0R190,赤山,2021-09-19,22.5923,120.6143,0.025589446
C0R220,潮州,2021-09-19,22.5344,120.54,0.031016154
C0R240,來義,2021-09-19,22.5273,120.6251,0.06355718
C0R260,春日,2021-09-19,22.3704,120.6283,0.057404626
C0R270,琉球嶼,2021-09-19,22.3322,120.3622,0.058753863
C0R280,檳榔,2021-09-19,22.0761,120.8368,0.008354866
C0R320,車城,2021-09-19,22.0744,120.7162,0.0077717765
C0R341,牡丹,2021-09-19,22.13,120.7926,0.14759782
C0R350,貓鼻頭,2021-09-19,21.9218,120.7358,0.007823892
C0R470,高樹,2021-09-19,22.8264,120.6008,0.024955219
C0R480,長治,2021-09-19,22.6931,120.5426,0.021954013
C0R490,九如,2021-09-19,22.7405,120.4905,0.0720221
C0R520,崁頂,2021-09-19,22.5148,120.5069,0.0896402
C0R540,佳冬,2021-09-19,22.4195,120.5524,0.08567857
C0R550,新埤,2021-09-19,22.4679,120.5829,0.02499181
C0R560,新園,2021-09-19,22.5434,120.4616,0.0896402
C0R570,麟洛,2021-09-19,22.6508,120.5272,0.0720221
C0R580,南州,2021-09-19,22.4859,120.5027,0.08567857
C0R590,里港,2021-09-19,22.7792,120.4946,0.023789441
C0R620,墾雷,2021-09-19,21.9008,120.8553,0.007823892
C0R640,東港,2021-09-19,22.4625,120.4407,0.060163703
C0R650,竹田,2021-09-19,22.5849,120.5434,0.0245158
C0R660,枋寮,2021-09-19,22.3677,120.5906,0.029734131
C0R670,楓港,2021-09-19,22.1901,120.6922,0.05328129
C0R680,佳樂水,2021-09-19,21.9936,120.8616,0.0077957516
C0R690,墾丁,2021-09-19,21.9668,120.8103,0.008427437
C0R700,枋山,2021-09-19,22.2468,120.6611,0.05328129
C0R710,龍磐,2021-09-19,21.9317,120.8389,0.0081126625
C0R720,旭海,2021-09-19,22.2054,120.8876,0.04621652
C0R730,大坪頂,2021-09-19,22.0246,120.6936,0.008103506
C0R740,獅子,2021-09-19,22.2016,120.7053,0.06055509
C0R760,南仁湖,2021-09-19,22.0847,120.8634,0.007931395
C0R770,保力,2021-09-19,22.0711,120.7641,0.007979089
C0R780,滿州,2021-09-19,22.0244,120.8399,0.007856722
C0R790,九棚,2021-09-19,22.142,120.8893,0.0415414
C0R800,丹路,2021-09-19,22.2045,120.751,0.083668955
C0R810,內獅,2021-09-19,22.3051,120.643,0.049405314
C0R830,高士,2021-09-19,22.1218,120.8368,0.00823512
C0R850,林邊,2021-09-19,22.4634,120.5339,0.0896402
C0R860,鼻頭,2021-09-19,22.1043,120.8979,0.0048511154
C0R870,興海,2021-09-19,21.9752,120.8439,0.0077957516
C0R880,後壁湖,2021-09-19,21.9457,120.7457,0.007777518
C0R890,山海,2021-09-19,21.9878,120.7091,0.0077717765
C0R900,竹坑,2021-09-19,22.1385,120.7022,0.076376274
C0R910,下寮,2021-09-19,22.3929,120.5548,0.08567857
C0R920,塭仔,2021-09-19,22.4169,120.5197,0.0824087
C0R930,萬丹,2021-09-19,22.5885,120.4851,0.0245158
C0R940,加祿堂,2021-09-19,22.3363,120.6217,0.049405314
C0S710,鹿野,2021-09-19,22.9177,121.123,0.96185976
C0S730,綠島,2021-09-19,22.6672,121.4753,0.7697026
C0S740,池上,2021-09-19,23.1196,121.2095,0.9550022
C0S770,大溪山,2021-09-19,22.4785,120.9433,0.08362354
C0S790,金崙,2021-09-19,22.5381,120.9669,0.026942909
C0S810,東河,2021-09-19,22.9727,121.304,0.79701394
C0S830,長濱,2021-09-19,23.2868,121.412,0.95944214
C0S840,南田,2021-09-19,22.2797,120.8892,0.033795726
C0S890,關山,2021-09-19,23.0395,121.175,0.9150081
C0S900,蘭嶼高中,2021-09-19,22.0491,121.5121,0.01034607
C0S910,蘭嶼燈塔,2021-09-19,22.0812,121.5031,0.04524096
C0S920,金峰嘉蘭,2021-09-19,22.5948,120.9608,0.02200746
C0S930,延平,2021-09-19,22.9026,121.0841,0.96019584
C0S940,石寧山,2021-09-19,23.2238,121.4066,0.89444494
C0S950,七塊厝,2021-09-19,22.9545,121.2299,0.9611419
C0S960,香蘭,2021-09-19,22.5876,120.9934,0.020352291
C0S970,加津林,2021-09-19,22.4162,120.9269,0.029122377
C0S990,山豬窟,2021-09-19,22.3186,120.8574,0.11403878
C0SA00,歷坵,2021-09-19,22.521,120.8919,0.21570703
C0SA10,檳榔四格山,2021-09-19,22.81,121.1093,0.16411301
C0SA30,都歷,2021-09-19,23.0203,121.3236,0.7204523
C0SA40,瑞和,2021-09-19,22.9744,121.1567,0.8953907
C0SA60,知本（水試所）,2021-09-19,22.7024,121.0828,0.031054216
C0SA80,土,2021-09-19,22.4531,120.8876,0.023321355
C0SA90,達仁林場,2021-09-19,22.2643,120.824,0.20539464
C0T870,鯉魚潭,2021-09-19,23.9356,121.5089,0.28137696
C0T900,西林,2021-09-19,23.8119,121.4415,0.37753084
C0T960,光復,2021-09-19,23.6607,121.425,0.37602746
C0T9A0,月眉山,2021-09-19,23.8099,121.5398,0.9502747
C0T9D0,和中,2021-09-19,24.2668,121.741,0.03342477
C0T9E0,大坑,2021-09-19,23.8806,121.582,0.9061298
C0T9F0,水璉,2021-09-19,23.7971,121.5425,0.6678065
C0T9I0,豐濱,2021-09-19,23.5839,121.5148,0.5020915
C0T9M0,靜浦,2021-09-19,23.4552,121.495,0.340643
C0T9N0,富里,2021-09-19,23.1716,121.2494,0.96331704
C0U600,礁溪,2021-09-19,24.8175,121.7656,0.020911535
C0U650,玉蘭,2021-09-19,24.6753,121.5871,0.5893511
C0U750,龜山島,2021-09-19,24.8417,121.9531,0.3163558
C0U760,東澳,2021-09-19,24.522,121.8332,0.03293352
C0U770,南澳,2021-09-19,24.4493,121.8102,0.02796805
C0U780,五結,2021-09-19,24.6864,121.7979,0.04083512
C0U860,頭城,2021-09-19,24.8532,121.8308,0.020590488
C0U870,大礁溪,2021-09-19,24.791,121.675,0.4928843
C0U880,北關,2021-09-19,24.9072,121.8734,0.036220167
C0U890,三星,2021-09-19,24.6681,121.653,0.026015226
C0U900,內城,2021-09-19,24.7181,121.6877,0.022085123
C0U910,冬山,2021-09-19,24.6337,121.7937,0.04083512
C0U940,羅東,2021-09-19,24.6818,121.7493,0.041461926
C0U970,大福,2021-09-19,24.8006,121.8139,0.02026113
C0U990,員山,2021-09-19,24.7444,121.7225,0.041461926
C0UA00,土場,2021-09-19,24.5765,121.4953,0.72902113
C0UA80,大溪漁港,2021-09-19,24.9418,121.903,0.020911535
C0UA90,石城,2021-09-19,24.9804,121.9512,0.029263163
C0UB00,淡江大學蘭陽校園,2021-09-19,24.8232,121.7304,0.70326424
C0UB10,蘇澳,2021-09-19,24.5969,121.8571,0.051725704
C0UB20,壯圍,2021-09-19,24.7359,121.8163,0.040271875
C0V250,甲仙,2021-09-19,23.0801,120.5918,0.016425211
C0V260,月眉,2021-09-19,22.971,120.5399,0.021737833
C0V310,美濃,2021-09-19,22.8987,120.5192,0.13205281
C0V350,溪埔,2021-09-19,22.7386,120.4468,0.055640716
C0V360,內門,2021-09-19,22.9755,120.4668,0.33809182
C0V370,古亭坑,2021-09-19,22.8932,120.4019,0.06937311
C0V400,阿公店,2021-09-19,22.8042,120.3555,0.047205307
C0V440,鳳山,2021-09-19,22.6467,120.3561,0.0676071
C0V450,鳳森,2021-09-19,22.5451,120.3926,0.025921617
C0V490,新興,2021-09-19,22.6274,120.2988,0.062405944
C0V530,阿蓮,2021-09-19,22.8832,120.3275,0.019304547
C0V610,梓官,2021-09-19,22.7606,120.2672,0.030999908
C0V620,永安,2021-09-19,22.8231,120.2369,0.029586699
C0V630,茄萣,2021-09-19,22.9066,120.1826,0.018103458
C0V640,湖內,2021-09-19,22.8871,120.2445,0.018593911
C0V650,彌陀,2021-09-19,22.7838,120.2464,0.029586699
C0V660,岡山,2021-09-19,22.7971,120.295,0.030999908
C0V680,仁武,2021-09-19,22.7011,120.3477,0.043646395
C0V690,鼓山,2021-09-19,22.6233,120.2756,0.062405944
C0V700,三民,2021-09-19,22.645,120.3112,0.062405944
C0V710,苓雅,2021-09-19,22.6227,120.3307,0.062405944
C0V720,林園,2021-09-19,22.5077,120.3945,0.062405944
C0V730,大寮,2021-09-19,22.6056,120.3957,0.023558777
C0V740,旗山,2021-09-19,22.8886,120.4836,0.14527264
C0V750,路竹,2021-09-19,22.855,120.2594,0.027753757
C0V760,橋頭,2021-09-19,22.7578,120.3058,0.03181619
C0V770,大社,2021-09-19,22.7303,120.3466,0.043646395
C0V790,萬山,2021-09-19,22.9059,120.6881,0.008639206
C0V800,六龜,2021-09-19,22.9979,120.6336,0.027050296
C0V810,左營,2021-09-19,22.6749,120.2849,0.042367607
C0V820,小林,2021-09-19,23.1484,120.6333,0.013013359
C0V840,鳳鼻頭,2021-09-19,22.5083,120.3591,0.060163774
C0V850,蚵仔寮,2021-09-19,22.7256,120.2527,0.041064072
C0V860,南寮,2021-09-19,22.7616,120.2339,0.02886481
C0V870,文安,2021-09-19,22.8025,120.2164,0.028864816
C0V880,興達,2021-09-19,22.8778,120.2127,0.018103458
C0V890,前鎮,2021-09-19,22.5718,120.3117,0.060163703
C0V900,汕尾,2021-09-19,22.4782,120.4151,0.07155443
C0X050,東河,2021-09-19,23.2966,120.3856,0.19181511
C0X060,下營,2021-09-19,23.2269,120.2563,0.042222008
C0X080,佳里,2021-09-19,23.173,120.1451,0.033928778
C0X100,臺南市北區,2021-09-19,23.0104,120.1942,0.019532233
C0X110,臺南市南區,2021-09-19,22.9612,120.1884,0.02011929
C0X120,麻豆,2021-09-19,23.1833,120.2486,0.03521172
C0X130,官田,2021-09-19,23.1932,120.3154,0.046607666
C0X140,西港,2021-09-19,23.1256,120.2031,0.026105134
C0X150,安定,2021-09-19,23.1026,120.2278,0.028045988
C0X160,仁德,2021-09-19,22.9683,120.2577,0.02728309
C0X170,關廟,2021-09-19,22.963,120.3278,0.032924667
C0X180,山上,2021-09-19,23.0757,120.3633,0.23155926
C0X190,安平,2021-09-19,22.9932,120.1522,0.019532233
C0X200,左鎮,2021-09-19,23.0568,120.4085,0.20815535
C0X210,白河,2021-09-19,23.3475,120.4144,0.2203573
C0X220,學甲,2021-09-19,23.2304,120.1822,0.03521172
C0X230,鹽水,2021-09-19,23.2726,120.2476,0.035378117
C0X240,關子嶺,2021-09-19,23.3312,120.508,0.047862314
C0X250,新營,2021-09-19,23.3107,120.3167,0.044358052
C0X260,後壁,2021-09-19,23.3664,120.3623,0.13270062
C0X280,將軍,2021-09-19,23.215,120.1358,0.033928778
C0X290,北門,2021-09-19,23.2678,120.1255,0.033928778
C0X300,鹿寮,2021-09-19,23.386,120.4773,0.17480727
C0X310,七股,2021-09-19,23.1473,120.0863,0.032594513
C0X320,柳營,2021-09-19,23.2533,120.3753,0.20495982
C0Z020,明里,2021-09-19,23.2087,121.2623,0.95280814
C0Z061,玉里,2021-09-19,23.3215,121.3397,0.8363559
C0Z070,舞鶴,2021-09-19,23.4681,121.3741,0.7135746
C0Z080,富源,2021-09-19,23.5876,121.3782,0.6995612
C0Z100,東華,2021-09-19,23.8953,121.5498,0.12681596
C0Z150,吉安光華,2021-09-19,23.9309,121.5952,0.10923757
C0Z160,鳳林,2021-09-19,23.7461,121.4534,0.33841974
C0Z170,卓溪,2021-09-19,23.3443,121.3029,0.88463324
C0Z180,新城,2021-09-19,24.0395,121.6045,0.43626875
C0Z190,富世,2021-09-19,24.1474,121.6297,0.1285716
C0Z200,萬榮,2021-09-19,23.7092,121.4201,0.28137696
C0Z210,瑞穗,2021-09-19,23.5239,121.3902,0.43672737
C0Z230,和平,2021-09-19,24.3072,121.7701,0.03342477
C0Z270,蕃薯寮,2021-09-19,23.7384,121.5401,0.46069896
C0Z280,德武,2021-09-19,23.4743,121.4107,0.55860037
C0Z300,東里,2021-09-19,23.2685,121.3055,0.8626963
C0Z310,清水斷崖,2021-09-19,24.2183,121.6891,0.047467977
C0Z330,安通山,2021-09-19,23.2907,121.3485,0.96387744
