站號,站名,日期,lat,lon,BlastGRU-TW
466881,新北,2021-10-16,24.9593,121.52,0.040170174
466900,淡水,2021-10-16,25.164889,121.448906,0.051260438
466920,臺北,2021-10-16,25.037658,121.514853,0.03506108
467441,高雄,2021-10-16,22.7304,120.3125,0.6203814
467480,嘉義,2021-10-16,23.495925,120.432906,0.9663348
467490,臺中,2021-10-16,24.145736,120.684075,0.74848485
C0A530,坪林,2021-10-16,24.938183,121.70975,0.98668736
C0A540,四堵,2021-10-16,24.8926,121.745736,0.9768482
C0A550,泰平,2021-10-16,24.971197,121.823711,0.9880576
C0A890,雙溪,2021-10-16,25.036003,121.864242,0.03813826
C0A920,富貴角,2021-10-16,25.263783,121.565258,0.10354794
C0A931,三和,2021-10-16,25.233153,121.595236,0.994526
C0AC70,信義,2021-10-16,25.037822,121.564597,0.03506108
C0AC80,文山,2021-10-16,25.00235,121.575728,0.050258756
C0ACA0,新莊,2021-10-16,25.051478,121.446756,0.038478106
C0AH50,林口,2021-10-16,25.072181,121.38084,0.9865365
C0AH70,松山,2021-10-16,25.04871,121.55042,0.03506108
C0AH80,深坑,2021-10-16,25.002703,121.628328,0.05025867
C0AJ60,六塊厝,2021-10-16,25.24,121.4481,0.048018437
C0AJ70,田寮,2021-10-16,25.2698,121.4886,0.059216812
