站號,站名,日期,lat,lon,BlastGRU-TW
466881,新北,2021-03-01,24.9593,121.52,0.009882562
466900,淡水,2021-03-01,25.164889,121.448906,0.0044807936
466920,臺北,2021-03-01,25.037658,121.514853,0.011150352
467350,澎湖,2021-03-01,23.565503,119.563094,0.0006730487
467410,臺南,2021-03-01,22.993239,120.204772,0.13658671
467420,永康,2021-03-01,23.038386,120.2367,0.14187081
467790,墾丁雷達站,2021-03-01,21.948235,120.808028,0.00017773955
C0A520,山佳,2021-03-01,24.974944,121.402008,0.006478205
C0A530,坪林,2021-03-01,24.938183,121.70975,0.011408278
C0A880,福隆,2021-03-01,25.017842,121.942083,0.11101778
C0A890,雙溪,2021-03-01,25.036003,121.864242,0.00322719
C0A920,富貴角,2021-03-01,25.263783,121.565258,0.0028879659
C0AC80,文山,2021-03-01,25.00235,121.575728,0.008211379
C0ACA0,新莊,2021-03-01,25.051478,121.446756,0.0066628978
C0AD00,三芝,2021-03-01,25.258131,121.501917,0.002623646
C0AH70,松山,2021-03-01,25.04871,121.55042,0.011150352
C0AH80,深坑,2021-03-01,25.002703,121.628328,0.008211379
C0AI00,五股,2021-03-01,25.07445,121.42728,0.0015481869
C0AJ70,田寮,2021-03-01,25.2698,121.4886,0.0029774932
