站號,站名,日期,lat,lon,BlastGRU-TW
466881,新北,2021-06-12,24.9593,121.52,0.014638164
466900,淡水,2021-06-12,25.164889,121.448906,0.017377814
466920,臺北,2021-06-12,25.037658,121.514853,0.014003383
467441,高雄,2021-06-12,22.7304,120.3125,0.03996221
467480,嘉義,2021-06-12,23.495925,120.432906,0.012338896
467490,臺中,2021-06-12,24.145736,120.684075,0.10933315
C0A530,坪林,2021-06-12,24.938183,121.70975,0.9103475
C0A540,四堵,2021-06-12,24.8926,121.745736,0.014839524
C0A550,泰平,2021-06-12,24.971197,121.823711,0.9805216
C0A890,雙溪,2021-06-12,25.036003,121.864242,0.016663846
C0A920,富貴角,2021-06-12,25.263783,121.565258,0.02964919
C0A931,三和,2021-06-12,25.233153,121.595236,0.16847332
C0AC70,信義,2021-06-12,25.037822,121.564597,0.014003383
C0AC80,文山,2021-06-12,25.00235,121.575728,0.015743395
C0ACA0,新莊,2021-06-12,25.051478,121.446756,0.015532423
C0AH50,林口,2021-06-12,25.072181,121.38084,0.014965273
C0AH70,松山,2021-06-12,25.04871,121.55042,0.01400337
C0AH80,深坑,2021-06-12,25.002703,121.628328,0.015743395
C0AJ60,六塊厝,2021-06-12,25.24,121.4481,0.01692674
C0AJ70,田寮,2021-06-12,25.2698,121.4886,0.023169808
