站號,站名,日期,lat,lon,BlastGRU-TW
466881,新北,2021-11-01,24.9593,121.52,0.7319101
466900,淡水,2021-11-01,25.164889,121.448906,0.59159917
466920,臺北,2021-11-01,25.037658,121.514853,0.7308004
467441,高雄,2021-11-01,22.7304,120.3125,0.9147733
467480,嘉義,2021-11-01,23.495925,120.432906,0.927608
467490,臺中,2021-11-01,24.145736,120.684075,0.7586521
C0A540,四堵,2021-11-01,24.8926,121.745736,0.94961596
C0A550,泰平,2021-11-01,24.971197,121.823711,0.9938084
C0A560,福山,2021-11-01,24.776203,121.502811,0.9879588
C0A931,三和,2021-11-01,25.233153,121.595236,0.9792919
C0A940,金山,2021-11-01,25.223628,121.643967,0.58101135
C0A950,鼻頭角,2021-11-01,25.129036,121.923372,0.9862077
C0AD10,八里,2021-11-01,25.150211,121.403947,0.59159917
C0AD30,蘆洲,2021-11-01,25.086594,121.472331,0.70494175
C0AD40,土城,2021-11-01,24.973208,121.445169,0.7065004
C0AI10,屈尺,2021-11-01,24.92184,121.54475,0.7353464
C0AI20,白沙灣,2021-11-01,25.283128,121.519058,0.57385594
C0AI30,三重,2021-11-01,25.057328,121.500629,0.70494175
C0B010,七堵,2021-11-01,25.094819,121.71713,0.56833136
C0B020,基隆嶼,2021-11-01,25.19141,121.78391,0.56396985
