站號,站名,日期,lat,lon,BlastGRU-TW
466881,新北,2021-09-22,24.9593,121.52,0.2953402
466900,淡水,2021-09-22,25.164889,121.448906,0.35261127
466920,臺北,2021-09-22,25.037658,121.514853,0.26488236
467441,高雄,2021-09-22,22.7304,120.3125,0.054000195
467480,嘉義,2021-09-22,23.495925,120.432906,0.3164109
467490,臺中,2021-09-22,24.145736,120.684075,0.29484138
C0A540,四堵,2021-09-22,24.8926,121.745736,0.153823
C0A550,泰平,2021-09-22,24.971197,121.823711,0.030549517
C0A560,福山,2021-09-22,24.776203,121.502811,0.018197058
C0A931,三和,2021-09-22,25.233153,121.595236,0.016984235
C0A940,金山,2021-09-22,25.223628,121.643967,0.5455168
C0A950,鼻頭角,2021-09-22,25.129036,121.923372,0.023891393
C0AD10,八里,2021-09-22,25.150211,121.403947,0.35261127
C0AD30,蘆洲,2021-09-22,25.086594,121.472331,0.27834803
C0AD40,土城,2021-09-22,24.973208,121.445169,0.2900496
C0AI10,屈尺,2021-09-22,24.92184,121.54475,0.33903247
C0AI20,白沙灣,2021-09-22,25.283128,121.519058,0.5370894
C0AI30,三重,2021-09-22,25.057328,121.500629,0.27834803
C0B010,七堵,2021-09-22,25.094819,121.71713,0.4263221
C0B020,基隆嶼,2021-09-22,25.19141,121.78391,0.41041738
