站號,站名,日期,lat,lon,BlastGRU-TW
466881,新北,2021-07-12,24.9593,121.52,0.99860114
466900,淡水,2021-07-12,25.164889,121.448906,0.9993123
466920,臺北,2021-07-12,25.037658,121.514853,0.99846643
467441,高雄,2021-07-12,22.7304,120.3125,0.94534355
467480,嘉義,2021-07-12,23.495925,120.432906,0.99749744
467490,臺中,2021-07-12,24.145736,120.684075,0.9985166
C0A530,坪林,2021-07-12,24.938183,121.70975,0.9621488
C0A540,四堵,2021-07-12,24.8926,121.745736,0.92573327
C0A550,泰平,2021-07-12,24.971197,121.823711,0.9303139
C0A890,雙溪,2021-07-12,25.036003,121.864242,0.9990313
C0A920,富貴角,2021-07-12,25.263783,121.565258,0.9996004
C0A931,三和,2021-07-12,25.233153,121.595236,0.96373886
C0AC70,信義,2021-07-12,25.037822,121.564597,0.99846643
C0AC80,文山,2021-07-12,25.00235,121.575728,0.9987891
C0ACA0,新莊,2021-07-12,25.051478,121.446756,0.99907124
C0AH50,林口,2021-07-12,25.072181,121.38084,0.94865227
C0AH70,松山,2021-07-12,25.04871,121.55042,0.99846643
C0AH80,深坑,2021-07-12,25.002703,121.628328,0.9987891
C0AJ60,六塊厝,2021-07-12,25.24,121.4481,0.9992695
C0AJ70,田寮,2021-07-12,25.2698,121.4886,0.99940777
