站號,站名,日期,lat,lon,BlastGRU-TW
466881,新北,2021-08-20,24.9593,121.52,0.8886687
466900,淡水,2021-08-20,25.164889,121.448906,0.9295063
466920,臺北,2021-08-20,25.037658,121.514853,0.86686516
466940,基隆,2021-08-20,25.133314,121.740475,0.81745607
466990,花蓮,2021-08-20,23.975128,121.613275,0.9710815
467050,新屋,2021-08-20,25.006744,121.047486,0.9264101
467080,宜蘭,2021-08-20,24.763975,121.756528,0.66938996
467270,田中,2021-08-20,23.873803,120.581286,0.9991848
467300,東吉島,2021-08-20,23.25695,119.667467,0.99674106
467350,澎湖,2021-08-20,23.565503,119.563094,0.99896765
467410,臺南,2021-08-20,22.993239,120.204772,0.9543016
467420,永康,2021-08-20,23.038386,120.2367,0.95104074
467441,高雄,2021-08-20,22.7304,120.3125,0.8379831
467480,嘉義,2021-08-20,23.495925,120.432906,0.9972633
467490,臺中,2021-08-20,24.145736,120.684075,0.9993986
467540,大武,2021-08-20,22.355675,120.903789,0.42207906
467571,新竹,2021-08-20,24.827853,121.014219,0.9899924
467590,恆春,2021-08-20,22.003897,120.746339,0.99330103
467610,成功,2021-08-20,23.097486,121.373428,0.6457913
467620,蘭嶼,2021-08-20,22.036969,121.558339,0.99952435
467660,臺東,2021-08-20,22.752211,121.154586,0.5101937
467790,墾丁雷達站,2021-08-20,21.948235,120.808028,0.9940578
C0A520,山佳,2021-08-20,24.974944,121.402008,0.91096276
C0A530,坪林,2021-08-20,24.938183,121.70975,0.9869017
C0A540,四堵,2021-08-20,24.8926,121.745736,0.31065735
C0A550,泰平,2021-08-20,24.971197,121.823711,0.44739303
C0A560,福山,2021-08-20,24.776203,121.502811,0.32345513
C0A570,桶後,2021-08-20,24.848222,121.597992,0.38539264
C0A640,石碇,2021-08-20,24.993969,121.662917,0.84338915
C0A650,火燒寮,2021-08-20,25.002719,121.742892,0.9067713
C0A660,瑞芳,2021-08-20,25.113169,121.801147,0.725061
C0A770,科教館,2021-08-20,25.096356,121.516507,0.87924755
C0A860,大坪,2021-08-20,25.165914,121.632969,0.59536594
C0A880,福隆,2021-08-20,25.017842,121.942083,0.52022785
C0A890,雙溪,2021-08-20,25.036003,121.864242,0.87507063
C0A920,富貴角,2021-08-20,25.263783,121.565258,0.9695114
C0A931,三和,2021-08-20,25.233153,121.595236,0.89226794
C0A940,金山,2021-08-20,25.223628,121.643967,0.9541791
C0A950,鼻頭角,2021-08-20,25.129036,121.923372,0.49949822
C0A970,三貂角,2021-08-20,25.007606,122.002058,0.7677649
C0A980,社子,2021-08-20,25.109508,121.469681,0.8683933
C0A9C0,天母,2021-08-20,25.117494,121.537169,0.90069366
C0A9F0,內湖,2021-08-20,25.079422,121.57545,0.86686516
C0AC60,三峽,2021-08-20,24.939025,121.369728,0.8992378
C0AC70,信義,2021-08-20,25.037822,121.564597,0.86686516
C0AC80,文山,2021-08-20,25.00235,121.575728,0.9180616
C0ACA0,新莊,2021-08-20,25.051478,121.446756,0.88539046
C0AD00,三芝,2021-08-20,25.258131,121.501917,0.9721783
C0AD10,八里,2021-08-20,25.150211,121.403947,0.9295063
C0AD30,蘆洲,2021-08-20,25.086594,121.472331,0.87924755
C0AD40,土城,2021-08-20,24.973208,121.445169,0.89070606
C0AD50,鶯歌,2021-08-20,24.951533,121.346294,0.9645315
C0AG80,中和,2021-08-20,24.991622,121.491792,0.86686516
C0AH00,汐止,2021-08-20,25.066881,121.658778,0.8294182
C0AH10,永和,2021-08-20,25.01125,121.508111,0.8557043
C0AH40,平等,2021-08-20,25.129142,121.577086,0.40161288
C0AH50,林口,2021-08-20,25.072181,121.38084,0.26201138
C0AH70,松山,2021-08-20,25.04871,121.55042,0.86686516
C0AH80,深坑,2021-08-20,25.002703,121.628328,0.9180616
C0AI00,五股,2021-08-20,25.07445,121.42728,0.98829174
C0AI10,屈尺,2021-08-20,24.92184,121.54475,0.9180616
C0AI20,白沙灣,2021-08-20,25.283128,121.519058,0.94289297
C0AI30,三重,2021-08-20,25.057328,121.500629,0.87924755
C0AI40,石牌,2021-08-20,25.115597,121.513139,0.89070606
C0AJ20,野柳,2021-08-20,25.20703,121.690021,0.8294182
C0AJ30,淡水觀海,2021-08-20,25.184591,121.408616,0.9223245
C0AJ40,石門,2021-08-20,25.273672,121.601198,0.9887366
C0AJ50,水湳洞,2021-08-20,25.123695,121.862238,0.8294182
C0AJ60,六塊厝,2021-08-20,25.24,121.4481,0.9223245
C0AJ70,田寮,2021-08-20,25.2698,121.4886,0.9358579
C0AJ80,板橋,2021-08-20,25.0107,121.4489,0.89070606
C0AJ90,澳底,2021-08-20,25.0552,121.9253,0.52022785
C0B010,七堵,2021-08-20,25.094819,121.71713,0.8527811
C0B020,基隆嶼,2021-08-20,25.19141,121.78391,0.8294182
C0B040,大武崙,2021-08-20,25.166676,121.706993,0.8527808
C0B050,八斗子,2021-08-20,25.144754,121.79167,0.8054265
C0B060,暖暖,2021-08-20,25.0957,121.7403,0.9053416
C0C460,復興,2021-08-20,24.820208,121.352281,0.5006584
C0C480,桃園,2021-08-20,24.992425,121.323172,0.985216
C0C490,八德,2021-08-20,24.928708,121.283289,0.97667754
C0C590,觀音,2021-08-20,25.027072,121.153317,0.9825333
C0C620,蘆竹,2021-08-20,25.084275,121.265767,0.9433635
C0C630,大溪,2021-08-20,24.882853,121.265547,0.9836981
C0C650,平鎮,2021-08-20,24.897503,121.214636,0.99091494
C0C660,楊梅,2021-08-20,24.912375,121.143047,0.9929652
C0C670,龍潭,2021-08-20,24.870056,121.221389,0.9962173
C0C680,龜山,2021-08-20,25.02846,121.38656,0.18218751
C0C700,中壢,2021-08-20,24.977661,121.256375,0.9873844
C0C710,大溪永福,2021-08-20,24.892936,121.324975,0.9908938
C0C720,竹圍,2021-08-20,25.112692,121.239824,0.9295063
C0C730,中大臨海站,2021-08-20,24.966126,121.008581,0.9064345
C0C740,觀音工業區,2021-08-20,25.064764,121.114856,0.9901482
C0C750,新興坑尾,2021-08-20,25.0061,121.0971,0.9926126
C0D430,峨眉,2021-08-20,24.6905,121.017189,0.98983365
C0D480,打鐵坑,2021-08-20,24.849664,121.150789,0.99543554
C0D540,橫山,2021-08-20,24.71116,121.11693,0.99703115
C0D560,竹東,2021-08-20,24.767147,121.057881,0.9882147
C0D580,寶山,2021-08-20,24.735006,121.025192,0.9966804
C0D590,新豐,2021-08-20,24.87068,120.97721,0.99671793
C0D650,湖口,2021-08-20,24.904794,121.043628,0.95922995
C0D660,新竹市東區,2021-08-20,24.798681,120.986942,0.9909206
C0D670,海天一線,2021-08-20,24.831986,120.914438,0.9920696
C0D680,香山濕地,2021-08-20,24.783581,120.914988,0.9924659
C0D690,外湖,2021-08-20,24.917735,120.968711,0.9064345
C0D700,關西,2021-08-20,24.7977,121.1732,0.98871666
C0E420,竹南,2021-08-20,24.708978,120.888897,0.9932142
C0E430,南庄,2021-08-20,24.601775,121.000214,0.9974325
C0E520,大湖,2021-08-20,24.41494,120.87087,0.99723274
C0E540,後龍,2021-08-20,24.606489,120.783933,0.9995435
C0E550,明德,2021-08-20,24.583486,120.885411,0.99907655
C0E590,通霄,2021-08-20,24.471892,120.704622,0.99940515
C0E730,頭份,2021-08-20,24.688247,120.912206,0.9932142
C0E740,造橋,2021-08-20,24.637056,120.864778,0.99879616
C0E750,苗栗,2021-08-20,24.564569,120.824575,0.99959415
C0E780,銅鑼,2021-08-20,24.489681,120.790853,0.9988942
C0E791,卓蘭,2021-08-20,24.3126,120.8244,0.9980089
C0E810,西湖,2021-08-20,24.562947,120.7485,0.9995752
C0E820,獅潭,2021-08-20,24.539133,120.920042,0.99903923
C0E830,苑裡,2021-08-20,24.439714,120.653053,0.9991384
C0E850,大河,2021-08-20,24.618069,120.948578,0.9991178
C0E870,高鐵苗栗,2021-08-20,24.60725,120.826094,0.9995542
C0E910,海埔,2021-08-20,24.648767,120.772435,0.9988458
C0E920,通霄漁港,2021-08-20,24.498589,120.673876,0.9992996
C0E930,龍鳳,2021-08-20,24.700034,120.859125,0.99868155
C0F0B0,石岡,2021-08-20,24.276061,120.777644,0.9930645
C0F850,東勢,2021-08-20,24.246428,120.833047,0.99787664
C0F930,大甲,2021-08-20,24.347667,120.640403,0.99921143
C0F970,大坑,2021-08-20,24.173142,120.722289,0.99944746
C0F9A0,中竹林,2021-08-20,24.103556,120.751061,0.98918205
C0F9I0,神岡,2021-08-20,24.272481,120.658314,0.99901235
C0F9K0,大安,2021-08-20,24.345061,120.588025,0.99892706
C0F9L0,后里,2021-08-20,24.310436,120.729725,0.99914706
C0F9M0,豐原,2021-08-20,24.254322,120.720692,0.99908555
C0F9N0,大里,2021-08-20,24.092464,120.701378,0.99924266
C0F9O0,潭子,2021-08-20,24.213106,120.703933,0.9990325
C0F9P0,清水,2021-08-20,24.312297,120.562242,0.9988391
C0F9Q0,外埔,2021-08-20,24.347817,120.705686,0.9989014
C0F9R0,龍井,2021-08-20,24.184536,120.528972,0.99896675
C0F9S0,烏日,2021-08-20,24.107058,120.624103,0.99678636
C0F9T0,西屯,2021-08-20,24.179494,120.641275,0.99926764
C0F9U0,南屯,2021-08-20,24.137006,120.637969,0.99924266
C0F9X0,大雅(中科園區),2021-08-20,24.21528,120.62445,0.9994065
C0FA10,松柏,2021-08-20,24.429115,120.617482,0.9990343
C0FA20,溫寮,2021-08-20,24.372177,120.583125,0.9990343
C0FA30,梧棲,2021-08-20,24.256003,120.523381,0.99896675
C0FA40,臺中電廠,2021-08-20,24.2146,120.4907,0.99896675
C0FA50,霧峰,2021-08-20,24.0419,120.6995,0.999402
C0G620,芬園,2021-08-20,24.015678,120.6213,0.99761343
C0G640,鹿港,2021-08-20,24.0753,120.430481,0.9969668
C0G650,員林,2021-08-20,23.946503,120.585597,0.9974732
C0G660,溪湖,2021-08-20,23.94835,120.479122,0.9975443
C0G720,溪州,2021-08-20,23.851589,120.499093,0.99922526
C0G730,二林,2021-08-20,23.903325,120.376081,0.99691856
C0G740,大城,2021-08-20,23.852487,120.320935,0.9951249
C0G770,福興,2021-08-20,24.041289,120.437669,0.9969668
C0G780,秀水,2021-08-20,24.03405,120.503869,0.9968772
C0G800,埔鹽,2021-08-20,24.000394,120.431683,0.9969668
C0G810,埔心,2021-08-20,23.947633,120.525456,0.99759185
C0G820,田尾,2021-08-20,23.901669,120.509389,0.9976352
C0G830,埤頭,2021-08-20,23.866003,120.452806,0.9991904
C0G840,北斗,2021-08-20,23.877586,120.514222,0.9976352
C0G860,社頭,2021-08-20,23.897647,120.5862,0.9975152
C0G870,芳苑,2021-08-20,23.922303,120.320025,0.99490464
C0G880,二水,2021-08-20,23.810742,120.6173,0.9992869
C0G890,伸港,2021-08-20,24.148933,120.484403,0.9990075
C0G900,線西,2021-08-20,24.143358,120.443536,0.9991737
C0G910,花壇,2021-08-20,24.032076,120.549461,0.9970029
C0G920,永靖,2021-08-20,23.924703,120.547533,0.9976352
C0G940,竹塘,2021-08-20,23.848253,120.386764,0.9988134
C0G950,防潮門,2021-08-20,24.1835,120.4871,0.9989242
C0G960,福寶,2021-08-20,24.0443,120.3814,0.9969015
C0G970,三豐,2021-08-20,23.882,120.2895,0.99490464
C0H890,埔里,2021-08-20,23.972169,120.952425,0.9964659
C0H950,中寮,2021-08-20,23.884447,120.766406,0.999307
C0H960,草屯,2021-08-20,23.973672,120.68085,0.9992233
C0I110,竹山,2021-08-20,23.761225,120.688156,0.9992967
C0I360,水里,2021-08-20,23.812553,120.849792,0.9964326
C0I380,集集,2021-08-20,23.828206,120.801467,0.9964876
C0I410,名間,2021-08-20,23.837053,120.701447,0.9992478
C0I420,國姓,2021-08-20,24.037803,120.855072,0.99032
C0I460,南投,2021-08-20,23.911469,120.687331,0.99926066
C0K250,崙背,2021-08-20,23.75555,120.318925,0.9959266
C0K280,四湖,2021-08-20,23.630414,120.227125,0.9959219
C0K291,宜梧,2021-08-20,23.536281,120.169329,0.97489524
C0K330,虎尾,2021-08-20,23.719183,120.442036,0.9987789
C0K390,土庫,2021-08-20,23.679029,120.395574,0.9987382
C0K400,斗六,2021-08-20,23.720583,120.541127,0.9990565
C0K410,北港,2021-08-20,23.573957,120.292802,0.97420824
C0K420,西螺,2021-08-20,23.800407,120.467394,0.9991987
C0K430,褒忠,2021-08-20,23.690938,120.303634,0.99533236
C0K440,二崙,2021-08-20,23.772797,120.408944,0.99885374
C0K450,大埤,2021-08-20,23.646074,120.431537,0.99873376
C0K460,斗南,2021-08-20,23.678734,120.478359,0.9990116
C0K470,林內,2021-08-20,23.748675,120.609642,0.9991024
C0K480,莿桐,2021-08-20,23.761192,120.502372,0.99921316
C0K500,元長,2021-08-20,23.64981,120.315024,0.9956306
C0K510,水林,2021-08-20,23.572924,120.24597,0.97467214
C0K530,臺西,2021-08-20,23.701547,120.197559,0.9955071
C0K550,蔦松,2021-08-20,23.514319,120.229736,0.9761662
C0K560,棋山,2021-08-20,23.68645,120.603417,0.9991138
C0K580,高鐵雲林,2021-08-20,23.737456,120.417944,0.9987382
C0K590,雲林東勢,2021-08-20,23.674192,120.255721,0.99533236
C0K600,箔子寮,2021-08-20,23.6197,120.14,0.9732107
C0M410,馬頭山,2021-08-20,23.324361,120.582017,0.9953684
C0M520,東後寮,2021-08-20,23.369908,120.248065,0.9856059
C0M640,中埔,2021-08-20,23.42538,120.5229,0.99912715
C0M650,朴子,2021-08-20,23.43463,120.23902,0.9764035
C0M660,溪口,2021-08-20,23.604131,120.403569,0.99667835
C0M670,大林,2021-08-20,23.600616,120.45841,0.9972743
C0M680,太保,2021-08-20,23.455062,120.331455,0.9752079
C0M690,水上,2021-08-20,23.419734,120.388909,0.9973152
C0M700,竹崎,2021-08-20,23.526178,120.555508,0.9991802
C0M710,東石,2021-08-20,23.458927,120.15385,0.9761662
C0M720,番路,2021-08-20,23.464657,120.554156,0.99917084
C0M730,嘉義市東區,2021-08-20,23.457673,120.460531,0.9974044
C0M740,六腳,2021-08-20,23.492871,120.290625,0.97369117
C0M750,布袋,2021-08-20,23.380878,120.167789,0.9764035
C0M760,民雄,2021-08-20,23.551754,120.428457,0.9968643
C0M770,嘉義梅山,2021-08-20,23.585398,120.555587,0.9991878
C0M780,鹿草,2021-08-20,23.41134,120.30835,0.9810701
C0M790,新港,2021-08-20,23.553269,120.345728,0.97571635
C0M800,茶山,2021-08-20,23.299075,120.664767,0.98644716
C0M880,好美里,2021-08-20,23.3364,120.138,0.986354
C0N010,鯤鯓國小,2021-08-20,23.1879,120.0889,0.977502
C0N020,城西,2021-08-20,23.0568,120.0956,0.97991705
C0N030,四草,2021-08-20,23.0235,120.1116,0.9761963
C0N040,蘆竹溝,2021-08-20,23.2344,120.0961,0.977502
C0N050,蚵寮,2021-08-20,23.301,120.1104,0.977502
C0O810,曾文,2021-08-20,23.219681,120.497328,0.9907858
C0O830,北寮,2021-08-20,23.079561,120.495008,0.9430647
C0O840,王爺宮,2021-08-20,23.222064,120.40085,0.9907858
C0O860,大內,2021-08-20,23.11885,120.36083,0.9842223
C0O900,善化,2021-08-20,23.112883,120.297219,0.97390413
C0O930,玉井,2021-08-20,23.126042,120.46055,0.9891557
C0O950,安南,2021-08-20,23.076694,120.144861,0.95224035
C0O960,崎頂,2021-08-20,22.959547,120.369317,0.9414167
C0O970,虎頭埤,2021-08-20,23.021375,120.347878,0.98832977
C0O980,新市,2021-08-20,23.061614,120.298197,0.97390413
C0O990,媽廟,2021-08-20,22.99175,120.293525,0.97009414
C0R150,三地門,2021-08-20,22.709889,120.639944,0.82246405
C0R160,鹽埔,2021-08-20,22.739558,120.530778,0.8497111
C0R170,屏東,2021-08-20,22.660269,120.494072,0.8998582
C0R190,赤山,2021-08-20,22.592333,120.614306,0.8466153
C0R220,潮州,2021-08-20,22.534361,120.54,0.8498903
C0R240,來義,2021-08-20,22.527306,120.625111,0.8479932
C0R260,春日,2021-08-20,22.370361,120.628306,0.8282957
C0R270,琉球嶼,2021-08-20,22.332244,120.362236,0.8331683
C0R280,檳榔,2021-08-20,22.076078,120.836777,0.99451834
C0R320,車城,2021-08-20,22.0744,120.716247,0.9922871
C0R341,牡丹,2021-08-20,22.130036,120.792639,0.89943105
C0R350,貓鼻頭,2021-08-20,21.921774,120.7358,0.99358577
C0R470,高樹,2021-08-20,22.826389,120.600806,0.80866534
C0R480,長治,2021-08-20,22.693128,120.542622,0.85297954
C0R490,九如,2021-08-20,22.7405,120.490503,0.9033489
C0R520,崁頂,2021-08-20,22.514781,120.506914,0.892773
C0R540,佳冬,2021-08-20,22.419456,120.552375,0.88785
C0R550,新埤,2021-08-20,22.467947,120.582894,0.84272724
C0R560,新園,2021-08-20,22.5434,120.461558,0.892773
C0R570,麟洛,2021-08-20,22.65078,120.52719,0.9033489
C0R580,南州,2021-08-20,22.48591,120.50274,0.88785
C0R590,里港,2021-08-20,22.77919,120.49459,0.853111
C0R620,墾雷,2021-08-20,21.900836,120.855269,0.99358577
C0R640,東港,2021-08-20,22.46247,120.44074,0.869118
C0R650,竹田,2021-08-20,22.58486,120.54344,0.8388142
C0R660,枋寮,2021-08-20,22.367722,120.590647,0.8415986
C0R670,楓港,2021-08-20,22.190131,120.692156,0.7587097
C0R680,佳樂水,2021-08-20,21.993578,120.861633,0.99300325
C0R690,墾丁,2021-08-20,21.966756,120.810269,0.9945278
C0R700,枋山,2021-08-20,22.246844,120.661086,0.7587097
C0R710,龍磐,2021-08-20,21.931672,120.838942,0.9950292
C0R720,旭海,2021-08-20,22.205403,120.887614,0.9531417
C0R730,大坪頂,2021-08-20,22.024633,120.69355,0.9943531
C0R740,獅子,2021-08-20,22.201569,120.70525,0.7954779
C0R760,南仁湖,2021-08-20,22.084681,120.863353,0.9933734
C0R770,保力,2021-08-20,22.071122,120.764111,0.99461234
C0R780,滿州,2021-08-20,22.024403,120.839892,0.9938258
C0R790,九棚,2021-08-20,22.14195,120.889281,0.93020135
C0R800,丹路,2021-08-20,22.204481,120.750989,0.8485016
C0R810,內獅,2021-08-20,22.305064,120.642986,0.7901592
C0R830,高士,2021-08-20,22.121825,120.836781,0.9934487
C0R850,林邊,2021-08-20,22.4634,120.5339,0.892773
C0R860,鼻頭,2021-08-20,22.1043,120.8979,0.99696875
C0R870,興海,2021-08-20,21.9752,120.8439,0.99300325
C0R880,後壁湖,2021-08-20,21.9457,120.7457,0.991861
C0R890,山海,2021-08-20,21.9878,120.7091,0.9922871
C0R900,竹坑,2021-08-20,22.1385,120.7022,0.8371353
C0R910,下寮,2021-08-20,22.3929,120.5548,0.88785
C0R920,塭仔,2021-08-20,22.4169,120.5197,0.8816443
C0R930,萬丹,2021-08-20,22.5885,120.4851,0.8388142
C0R940,加祿堂,2021-08-20,22.3363,120.6217,0.7901592
C0S710,鹿野,2021-08-20,22.917711,121.122994,0.98843765
C0S730,綠島,2021-08-20,22.6672,121.47533,0.7249964
C0S740,池上,2021-08-20,23.119628,121.209469,0.9739678
C0S770,大溪山,2021-08-20,22.478475,120.943325,0.9627991
C0S790,金崙,2021-08-20,22.538122,120.966875,0.85870576
C0S810,東河,2021-08-20,22.972672,121.303986,0.7051892
C0S830,長濱,2021-08-20,23.286817,121.411975,0.9849784
C0S840,南田,2021-08-20,22.279725,120.889208,0.5381201
C0S890,關山,2021-08-20,23.0395,121.175017,0.8581561
C0S900,蘭嶼高中,2021-08-20,22.04909,121.51214,0.99954325
C0S910,蘭嶼燈塔,2021-08-20,22.081197,121.503117,0.99959266
C0S920,金峰嘉蘭,2021-08-20,22.594789,120.960825,0.6237594
C0S930,延平,2021-08-20,22.902581,121.084058,0.94468653
C0S940,石寧山,2021-08-20,23.223772,121.406639,0.92340255
C0S950,七塊厝,2021-08-20,22.954453,121.229922,0.9897246
C0S960,香蘭,2021-08-20,22.587569,120.993375,0.49213153
C0S970,加津林,2021-08-20,22.416211,120.926942,0.44216937
C0S990,山豬窟,2021-08-20,22.318619,120.857372,0.9688745
C0SA00,歷坵,2021-08-20,22.520969,120.89185,0.9674248
C0SA10,檳榔四格山,2021-08-20,22.810031,121.109308,0.96820986
C0SA30,都歷,2021-08-20,23.020333,121.323642,0.6978099
C0SA40,瑞和,2021-08-20,22.974361,121.156697,0.83092433
C0SA60,知本（水試所）,2021-08-20,22.702394,121.082761,0.4954623
C0SA80,土坂,2021-08-20,22.453108,120.887572,0.70925224
C0SA90,達仁林場,2021-08-20,22.264347,120.823972,0.87373567
C0T870,鯉魚潭,2021-08-20,23.935639,121.508944,0.9710427
C0T900,西林,2021-08-20,23.8119,121.441458,0.9747737
C0T960,光復,2021-08-20,23.660694,121.424964,0.9718959
C0T9A0,月眉山,2021-08-20,23.809928,121.539828,0.9805028
C0T9D0,和中,2021-08-20,24.26676,121.74103,0.06313917
C0T9E0,大坑,2021-08-20,23.880628,121.581981,0.9795888
C0T9F0,水璉,2021-08-20,23.797131,121.542514,0.9789785
C0T9I0,豐濱,2021-08-20,23.583897,121.514806,0.9719426
C0T9M0,靜浦,2021-08-20,23.455167,121.495028,0.9636614
C0T9N0,富里,2021-08-20,23.171639,121.249378,0.99067754
C0U600,礁溪,2021-08-20,24.817539,121.765608,0.6958594
C0U650,玉蘭,2021-08-20,24.675286,121.587061,0.42837435
C0U750,龜山島,2021-08-20,24.841667,121.953133,0.2795479
C0U760,東澳,2021-08-20,24.52196,121.83318,0.081811816
C0U770,南澳,2021-08-20,24.44935,121.81022,0.062993586
C0U780,五結,2021-08-20,24.68637,121.79794,0.4371629
C0U860,頭城,2021-08-20,24.85323,121.8308,0.66938955
C0U870,大礁溪,2021-08-20,24.791042,121.675047,0.5071813
C0U880,北關,2021-08-20,24.9072,121.8734,0.9258876
C0U890,三星,2021-08-20,24.66812,121.65302,0.86687803
C0U900,內城,2021-08-20,24.71813,121.68766,0.7565204
C0U910,冬山,2021-08-20,24.63373,121.7937,0.4371629
C0U940,羅東,2021-08-20,24.68184,121.74934,0.45422798
C0U970,大福,2021-08-20,24.80064,121.81389,0.64608276
C0U990,員山,2021-08-20,24.74435,121.72247,0.45422798
C0UA00,土場,2021-08-20,24.576533,121.495333,0.6309287
C0UA80,大溪漁港,2021-08-20,24.941801,121.902955,0.6958594
C0UA90,石城,2021-08-20,24.980444,121.951214,0.6185673
C0UB00,淡江大學蘭陽校園,2021-08-20,24.823239,121.730383,0.5908552
C0UB10,蘇澳,2021-08-20,24.5969,121.8571,0.088500954
C0UB20,壯圍,2021-08-20,24.7359,121.8163,0.42324665
C0V250,甲仙,2021-08-20,23.080106,120.591758,0.97684544
C0V260,月眉,2021-08-20,22.971003,120.539853,0.936222
C0V310,美濃,2021-08-20,22.898742,120.519153,0.98882556
C0V350,溪埔,2021-08-20,22.738578,120.446797,0.8875406
C0V360,內門,2021-08-20,22.975481,120.466769,0.99037766
C0V370,古亭坑,2021-08-20,22.893178,120.401947,0.9900886
C0V400,阿公店,2021-08-20,22.804194,120.355528,0.8873849
C0V440,鳳山,2021-08-20,22.646653,120.356122,0.88867456
C0V450,鳳森,2021-08-20,22.545064,120.392592,0.8562764
C0V490,新興,2021-08-20,22.627422,120.298803,0.87577915
C0V530,阿蓮,2021-08-20,22.883208,120.327508,0.9580963
C0V610,梓官,2021-08-20,22.760558,120.267211,0.80245125
C0V620,永安,2021-08-20,22.82315,120.236856,0.7430307
C0V630,茄萣,2021-08-20,22.906642,120.182608,0.9403068
C0V640,湖內,2021-08-20,22.887139,120.2445,0.944528
C0V650,彌陀,2021-08-20,22.783806,120.246361,0.7430307
C0V660,岡山,2021-08-20,22.797078,120.294958,0.80245125
C0V680,仁武,2021-08-20,22.701083,120.347722,0.8477093
C0V690,鼓山,2021-08-20,22.623325,120.275575,0.87577915
C0V700,三民,2021-08-20,22.645017,120.311233,0.87577915
C0V710,苓雅,2021-08-20,22.622742,120.330669,0.87577915
C0V720,林園,2021-08-20,22.507747,120.394511,0.87577915
C0V730,大寮,2021-08-20,22.605614,120.395717,0.83618444
C0V740,旗山,2021-08-20,22.888614,120.483597,0.9889812
C0V750,路竹,2021-08-20,22.854997,120.259439,0.8077886
C0V760,橋頭,2021-08-20,22.757806,120.30575,0.8146759
C0V770,大社,2021-08-20,22.730306,120.346639,0.84770924
C0V790,萬山,2021-08-20,22.905944,120.688056,0.98484176
C0V800,六龜,2021-08-20,22.997889,120.633583,0.9330592
C0V810,左營,2021-08-20,22.67491,120.28491,0.8379831
C0V820,小林,2021-08-20,23.148408,120.63325,0.9844097
C0V840,鳳鼻頭,2021-08-20,22.5083,120.3591,0.869118
C0V850,蚵仔寮,2021-08-20,22.7256,120.2527,0.8267612
C0V860,南寮,2021-08-20,22.7616,120.2339,0.7264553
C0V870,文安,2021-08-20,22.8025,120.2164,0.7264553
C0V880,興達,2021-08-20,22.8778,120.2127,0.9403068
C0V890,前鎮,2021-08-20,22.5718,120.3117,0.869118
C0V900,汕尾,2021-08-20,22.4782,120.4151,0.88369197
C0X050,東河,2021-08-20,23.296598,120.385608,0.9876573
C0X060,下營,2021-08-20,23.22695,120.256261,0.98824006
C0X080,佳里,2021-08-20,23.173039,120.145086,0.986354
C0X100,臺南市北區,2021-08-20,23.010394,120.194228,0.9476202
C0X110,臺南市南區,2021-08-20,22.961189,120.188378,0.9510406
C0X120,麻豆,2021-08-20,23.183289,120.248611,0.9869017
C0X130,官田,2021-08-20,23.193217,120.315422,0.98899156
C0X140,西港,2021-08-20,23.125608,120.203108,0.9839583
C0X150,安定,2021-08-20,23.102614,120.227839,0.96415854
C0X160,仁德,2021-08-20,22.968258,120.257689,0.96846354
C0X170,關廟,2021-08-20,22.963017,120.327797,0.9739129
C0X180,山上,2021-08-20,23.0757,120.363253,0.9919727
C0X190,安平,2021-08-20,22.993161,120.152181,0.9476202
C0X200,左鎮,2021-08-20,23.056758,120.408522,0.9918859
C0X210,白河,2021-08-20,23.347466,120.414427,0.9879228
C0X220,學甲,2021-08-20,23.230367,120.182187,0.9869017
C0X230,鹽水,2021-08-20,23.272621,120.247641,0.9874807
C0X240,關子嶺,2021-08-20,23.331169,120.508025,0.9859231
C0X250,新營,2021-08-20,23.310689,120.316681,0.9878307
C0X260,後壁,2021-08-20,23.366358,120.362326,0.99123627
C0X280,將軍,2021-08-20,23.214999,120.13577,0.986354
C0X290,北門,2021-08-20,23.267772,120.125481,0.986354
C0X300,鹿寮,2021-08-20,23.386047,120.477331,0.9990432
C0X310,七股,2021-08-20,23.147289,120.086253,0.9611463
C0X320,柳營,2021-08-20,23.253328,120.375253,0.9876573
C0Z020,明里,2021-08-20,23.208717,121.262342,0.979992
C0Z061,玉里,2021-08-20,23.3215,121.339656,0.8933213
C0Z070,舞鶴,2021-08-20,23.46811,121.37407,0.97540075
C0Z080,富源,2021-08-20,23.587642,121.378225,0.9748521
C0Z100,東華,2021-08-20,23.89525,121.549833,0.94827294
C0Z150,吉安光華,2021-08-20,23.930925,121.595153,0.93938905
C0Z160,鳳林,2021-08-20,23.746114,121.453411,0.97019935
C0Z170,卓溪,2021-08-20,23.3443,121.3029,0.9316801
C0Z180,新城,2021-08-20,24.03946,121.60454,0.9725481
C0Z190,富世,2021-08-20,24.14743,121.6297,0.19367258
C0Z200,萬榮,2021-08-20,23.709219,121.420106,0.9710427
C0Z210,瑞穗,2021-08-20,23.5239,121.39021,0.96952707
C0Z230,和平,2021-08-20,24.30717,121.77007,0.06313917
C0Z270,蕃薯寮,2021-08-20,23.73835,121.540108,0.9696319
C0Z280,德武,2021-08-20,23.47426,121.41071,0.9720255
C0Z300,東里,2021-08-20,23.26853,121.30547,0.91419506
C0Z310,清水斷崖,2021-08-20,24.218294,121.689142,0.077116475
C0Z330,安通山,2021-08-20,23.290728,121.348528,0.9881424
