站號,站名,日期,lat,lon,BlastGRU-TW
466881,新北,2021-01-23,24.9593,121.52,0.00028273163
466900,淡水,2021-01-23,25.164889,121.448906,0.0002742441
466920,臺北,2021-01-23,25.037658,121.514853,0.00028635867
467350,澎湖,2021-01-23,23.565503,119.563094,0.00045541185
467410,臺南,2021-01-23,22.993239,120.204772,0.00081343757
467420,永康,2021-01-23,23.038386,120.2367,0.0008230888
467790,墾丁雷達站,2021-01-23,21.948235,120.808028,0.00022714319
C0A520,山佳,2021-01-23,24.974944,121.402008,0.0003116282
C0A530,坪林,2021-01-23,24.938183,121.70975,0.0008741386
C0A880,福隆,2021-01-23,25.017842,121.942083,0.0018786123
C0A890,雙溪,2021-01-23,25.036003,121.864242,0.0002508479
C0A920,富貴角,2021-01-23,25.263783,121.565258,0.00021650687
C0AC80,文山,2021-01-23,25.00235,121.575728,0.00027638074
C0ACA0,新莊,2021-01-23,25.051478,121.446756,0.0002796865
C0AD00,三芝,2021-01-23,25.258131,121.501917,0.00021850296
C0AH70,松山,2021-01-23,25.04871,121.55042,0.00028635867
C0AH80,深坑,2021-01-23,25.002703,121.628328,0.00027638048
C0AI00,五股,2021-01-23,25.07445,121.42728,0.00014674664
C0AJ70,田寮,2021-01-23,25.2698,121.4886,0.00023881091
