站號,站名,日期,lat,lon,BlastGRU-TW
12J990,口湖工作站,2021-01-15,23.589978,120.180394,0.00077873655
12Q970,東港工作站,2021-01-15,22.479997,120.466058,0.01917604
12Q980,恆春工作站,2021-01-15,22.079678,120.714425,0.00045835157
466881,新北,2021-01-15,24.9593,121.52,0.0003142021
466900,淡水,2021-01-15,25.164889,121.448906,0.00029203392
466920,臺北,2021-01-15,25.037658,121.514853,0.0003235333
466940,基隆,2021-01-15,25.133314,121.740475,0.00040764484
466990,花蓮,2021-01-15,23.975128,121.613275,0.22061177
467050,新屋,2021-01-15,25.006744,121.047486,0.00037181354
467060,蘇澳,2021-01-15,24.596736,121.857372,0.0029408825
467080,宜蘭,2021-01-15,24.763975,121.756528,0.0002647654
467270,田中,2021-01-15,23.873803,120.581286,0.0012221059
467300,東吉島,2021-01-15,23.25695,119.667467,0.00035397697
467350,澎湖,2021-01-15,23.565503,119.563094,0.00030634733
467410,臺南,2021-01-15,22.993239,120.204772,0.0023833774
467420,永康,2021-01-15,23.038386,120.2367,0.002512466
467441,高雄,2021-01-15,22.7304,120.3125,0.0030805364
467480,嘉義,2021-01-15,23.495925,120.432906,0.00047154396
467490,臺中,2021-01-15,24.145736,120.684075,0.0003842672
467540,大武,2021-01-15,22.355675,120.903789,0.3186763
467571,新竹,2021-01-15,24.827853,121.014219,0.00033874955
467590,恆春,2021-01-15,22.003897,120.746339,0.00057498727
467610,成功,2021-01-15,23.097486,121.373428,0.35252437
467620,蘭嶼,2021-01-15,22.036969,121.558339,0.00035362467
467660,臺東,2021-01-15,22.752211,121.154586,0.010024807
467790,墾丁雷達站,2021-01-15,21.948235,120.808028,0.0006839703
72AI40,桃改臺北分場,2021-01-15,24.944503,121.386972,0.00028258667
72C440,桃園農改場,2021-01-15,24.950944,121.030583,0.00035911248
72D680,新埔,2021-01-15,24.834444,121.066111,0.00032309655
72G600,臺中農改場,2021-01-15,24.003028,120.534389,0.0006688594
72K220,雲林分場,2021-01-15,23.634556,120.477333,0.0015640231
72L140,朴子分場,2021-01-15,23.4982,120.2414,0.0008080178
72M360,義竹工作站,2021-01-15,23.360694,120.279361,0.0011003285
72M700,嘉義分場,2021-01-15,23.416869,120.283061,0.0007953217
72N100,臺南農改場,2021-01-15,23.0605,120.342194,0.0012882248
72N240,七股研究中心,2021-01-15,23.081672,120.062894,0.0022483447
72Q010,高雄農改場,2021-01-15,22.709333,120.525889,0.015126069
72S200,斑鳩分場,2021-01-15,22.829528,121.077694,0.00136216
72S590,賓朗果園,2021-01-15,22.813889,121.071278,0.0010532828
72T250,花蓮農改場,2021-01-15,23.975222,121.563889,0.18295032
72U480,蘭陽分場,2021-01-15,24.686306,121.716583,0.0003570923
72V140,旗南,2021-01-15,22.857861,120.516667,0.0071125333
82A750,文山分場,2021-01-15,24.955778,121.631222,0.000277436
82C160,茶改場(楊梅),2021-01-15,24.908472,121.185333,0.00026115024
82H840,凍頂工作站,2021-01-15,23.762528,120.7405,0.0010341189
82S580,龍田,2021-01-15,22.907694,121.130139,0.021478841
A0K420,麥寮,2021-01-15,23.7988,120.2177,0.0006000312
A0W080,吉貝,2021-01-15,23.74,119.6042,0.000288147
A2C560,農工中心,2021-01-15,24.985917,121.239833,0.00030619785
A2K360,臺西分所,2021-01-15,23.717231,120.190522,0.0005520215
A2K570,古坑(花卉中心),2021-01-15,23.633531,120.552392,0.0011908092
A2K630,臺大雲林校區,2021-01-15,23.730628,120.423903,0.0019889844
A2N290,臺南蘭花園區,2021-01-15,23.340258,120.379661,0.00075447327
B2E890,新竹畜試,2021-01-15,24.527806,120.770972,0.00043333418
B2N890,畜產試驗所,2021-01-15,23.058972,120.336406,0.0012882248
B2Q810,恆春分所,2021-01-15,21.945583,120.802167,0.0005275757
B2U990,宜蘭畜試,2021-01-15,24.669039,121.832561,0.00039899856
C0A520,山佳,2021-01-15,24.974944,121.402008,0.00028258667
C0A530,坪林,2021-01-15,24.938183,121.70975,0.00015156854
C0A540,四堵,2021-01-15,24.8926,121.745736,0.00021065518
C0A550,泰平,2021-01-15,24.971197,121.823711,0.00021672314
C0A560,福山,2021-01-15,24.776203,121.502811,0.000277436
C0A570,桶後,2021-01-15,24.848222,121.597992,0.00023743758
C0A640,石碇,2021-01-15,24.993969,121.662917,0.00013091702
C0A650,火燒寮,2021-01-15,25.002719,121.742892,0.00011738149
C0A660,瑞芳,2021-01-15,25.113169,121.801147,0.00016722742
C0A770,科教館,2021-01-15,25.096356,121.516507,0.0002947432
C0A860,大坪,2021-01-15,25.165914,121.632969,0.00015371814
C0A880,福隆,2021-01-15,25.017842,121.942083,0.00022808854
C0A890,雙溪,2021-01-15,25.036003,121.864242,0.00037551753
C0A920,富貴角,2021-01-15,25.263783,121.565258,0.00025525573
C0A931,三和,2021-01-15,25.233153,121.595236,9.043557e-05
C0A940,金山,2021-01-15,25.223628,121.643967,0.00026967807
C0A950,鼻頭角,2021-01-15,25.129036,121.923372,0.00023640839
C0A970,三貂角,2021-01-15,25.007606,122.002058,0.00015020749
C0A980,社子,2021-01-15,25.109508,121.469681,0.00029946072
C0A9C0,天母,2021-01-15,25.117494,121.537169,0.00028633466
C0A9F0,內湖,2021-01-15,25.079422,121.57545,0.0003235333
C0AC60,三峽,2021-01-15,24.939025,121.369728,0.00030949345
C0AC70,信義,2021-01-15,25.037822,121.564597,0.0003235333
C0AC80,文山,2021-01-15,25.00235,121.575728,0.0003012171
C0ACA0,新莊,2021-01-15,25.051478,121.446756,0.00031449762
C0AD00,三芝,2021-01-15,25.258131,121.501917,0.00026010658
C0AD10,八里,2021-01-15,25.150211,121.403947,0.00029203392
C0AD30,蘆洲,2021-01-15,25.086594,121.472331,0.0002947432
C0AD40,土城,2021-01-15,24.973208,121.445169,0.0002906925
C0AD50,鶯歌,2021-01-15,24.951533,121.346294,0.0002578436
C0AG80,中和,2021-01-15,24.991622,121.491792,0.0003235333
C0AH00,汐止,2021-01-15,25.066881,121.658778,0.00040052691
C0AH10,永和,2021-01-15,25.01125,121.508111,0.00032878356
C0AH40,平等,2021-01-15,25.129142,121.577086,0.0002021468
C0AH50,林口,2021-01-15,25.072181,121.38084,0.00018617447
C0AH70,松山,2021-01-15,25.04871,121.55042,0.0003235333
C0AH80,深坑,2021-01-15,25.002703,121.628328,0.0003012171
C0AI00,五股,2021-01-15,25.07445,121.42728,0.00032492616
C0AI10,屈尺,2021-01-15,24.92184,121.54475,0.0003012171
C0AI20,白沙灣,2021-01-15,25.283128,121.519058,0.00027751588
C0AI30,三重,2021-01-15,25.057328,121.500629,0.0002947432
C0AI40,石牌,2021-01-15,25.115597,121.513139,0.0002906925
C0AJ10,澳底,2021-01-15,25.057107,121.927272,0.00024675933
C0AJ20,野柳,2021-01-15,25.20703,121.690021,0.00040052691
C0AJ30,淡水觀海,2021-01-15,25.184591,121.408616,0.00029569172
C0AJ40,石門,2021-01-15,25.273672,121.601198,0.000241219
C0AJ50,水湳洞,2021-01-15,25.123695,121.862238,0.00040052691
C0AJ60,六塊厝,2021-01-15,25.24,121.4481,0.00029569172
C0AJ70,田寮,2021-01-15,25.2698,121.4886,0.0002806784
C0AJ80,板橋,2021-01-15,25.0107,121.4489,0.0002906925
C0B010,七堵,2021-01-15,25.094819,121.71713,0.0003874837
C0B020,基隆嶼,2021-01-15,25.19141,121.78391,0.00040052691
C0B040,大武崙,2021-01-15,25.166676,121.706993,0.0003874837
C0B050,八斗子,2021-01-15,25.144754,121.79167,0.00041497443
C0B060,暖暖,2021-01-15,25.0957,121.7403,0.00035936097
C0C460,復興,2021-01-15,24.820208,121.352281,0.00017616955
C0C480,桃園,2021-01-15,24.992425,121.323172,0.0003132973
C0C490,八德,2021-01-15,24.928708,121.283289,0.00031740955
C0C590,觀音,2021-01-15,25.027072,121.153317,0.00024809546
C0C620,蘆竹,2021-01-15,25.084275,121.265767,0.00028492624
C0C630,大溪,2021-01-15,24.882853,121.265547,0.0002936272
C0C650,平鎮,2021-01-15,24.897503,121.214636,0.00026115024
C0C660,楊梅,2021-01-15,24.912375,121.143047,0.00027256075
C0C670,龍潭,2021-01-15,24.870056,121.221389,0.00026782812
C0C680,龜山,2021-01-15,25.02846,121.38656,0.00019111652
C0C700,中壢,2021-01-15,24.977661,121.256375,0.0003031566
C0C710,大溪永福,2021-01-15,24.892936,121.324975,0.00030108247
C0C720,竹圍,2021-01-15,25.112692,121.239824,0.00029203392
C0C730,中大臨海站,2021-01-15,24.966126,121.008581,0.00039364258
C0C740,觀音工業區,2021-01-15,25.064764,121.114856,0.0003203597
C0C750,新興坑尾,2021-01-15,25.0061,121.0971,0.0003011367
C0D390,關西,2021-01-15,24.7977,121.1732,0.0002799114
C0D430,峨眉,2021-01-15,24.6905,121.017189,0.00031615645
C0D480,打鐵坑,2021-01-15,24.849664,121.150789,0.00026205613
C0D540,橫山,2021-01-15,24.71116,121.11693,0.00028553946
C0D560,竹東,2021-01-15,24.767147,121.057881,0.0002954274
C0D580,寶山,2021-01-15,24.735006,121.025192,0.00031280454
C0D590,新豐,2021-01-15,24.87068,120.97721,0.00034248325
C0D650,湖口,2021-01-15,24.904794,121.043628,0.0003321084
C0D660,新竹市東區,2021-01-15,24.798681,120.986942,0.00033043802
C0D670,海天一線,2021-01-15,24.831986,120.914438,0.00036022603
C0D680,香山濕地,2021-01-15,24.783581,120.914988,0.00035509976
C0D690,外湖,2021-01-15,24.917735,120.968711,0.0003980074
C0E420,竹南,2021-01-15,24.708978,120.888897,0.000341581
C0E430,南庄,2021-01-15,24.601775,121.000214,0.00034313102
C0E520,大湖,2021-01-15,24.41494,120.87087,0.00032147637
C0E540,後龍,2021-01-15,24.606489,120.783933,0.00040944025
C0E550,明德,2021-01-15,24.583486,120.885411,0.00040316724
C0E590,通霄,2021-01-15,24.471892,120.704622,0.00044441107
C0E730,頭份,2021-01-15,24.688247,120.912206,0.000341581
C0E740,造橋,2021-01-15,24.637056,120.864778,0.00040591517
C0E750,苗栗,2021-01-15,24.564569,120.824575,0.0003969703
C0E780,銅鑼,2021-01-15,24.489681,120.790853,0.00042884325
C0E791,卓蘭,2021-01-15,24.3126,120.8244,0.0005112569
C0E810,西湖,2021-01-15,24.562947,120.7485,0.00040188234
C0E820,獅潭,2021-01-15,24.539133,120.920042,0.0003867482
C0E830,苑裡,2021-01-15,24.439714,120.653053,0.00045269117
C0E850,大河,2021-01-15,24.618069,120.948578,0.0003963222
C0E870,高鐵苗栗,2021-01-15,24.60725,120.826094,0.00040727173
C0E910,海埔,2021-01-15,24.648767,120.772435,0.0004388811
C0E920,通霄漁港,2021-01-15,24.498589,120.673876,0.00045957635
C0E930,龍鳳,2021-01-15,24.700034,120.859125,0.00041827065
C0F000,大肚,2021-01-15,24.15295,120.572117,0.0011022992
C0F0B0,石岡,2021-01-15,24.276061,120.777644,0.0012820123
C0F850,東勢,2021-01-15,24.246428,120.833047,0.0004974287
C0F930,大甲,2021-01-15,24.347667,120.640403,0.00043833547
C0F970,大坑,2021-01-15,24.173142,120.722289,0.0003776799
C0F9A0,中竹林,2021-01-15,24.103556,120.751061,0.0009130178
C0F9I0,神岡,2021-01-15,24.272481,120.658314,0.0003997206
C0F9K0,大安,2021-01-15,24.345061,120.588025,0.00046869606
C0F9L0,后里,2021-01-15,24.310436,120.729725,0.00037244897
C0F9M0,豐原,2021-01-15,24.254322,120.720692,0.00038687378
C0F9N0,大里,2021-01-15,24.092464,120.701378,0.00044980636
C0F9O0,潭子,2021-01-15,24.213106,120.703933,0.00038456568
C0F9P0,清水,2021-01-15,24.312297,120.562242,0.0004760685
C0F9Q0,外埔,2021-01-15,24.347817,120.705686,0.00041861326
C0F9R0,龍井,2021-01-15,24.184536,120.528972,0.00048497968
C0F9S0,烏日,2021-01-15,24.107058,120.624103,0.00061458966
C0F9T0,西屯,2021-01-15,24.179494,120.641275,0.00043420272
C0F9U0,南屯,2021-01-15,24.137006,120.637969,0.00044980636
C0F9X0,大雅(中科園區),2021-01-15,24.21528,120.62445,0.0004121615
C0FA10,松柏,2021-01-15,24.429115,120.617482,0.0004619153
C0FA20,溫寮,2021-01-15,24.372177,120.583125,0.0004619153
C0FA30,梧棲,2021-01-15,24.256003,120.523381,0.00048498015
C0FA40,臺中電廠,2021-01-15,24.2146,120.4907,0.00048498015
C0FA50,霧峰,2021-01-15,24.0419,120.6995,0.0004260194
C0G620,芬園,2021-01-15,24.015678,120.6213,0.0005240698
C0G640,鹿港,2021-01-15,24.0753,120.430481,0.00070120546
C0G650,員林,2021-01-15,23.946503,120.585597,0.0006118585
C0G660,溪湖,2021-01-15,23.94835,120.479122,0.00066776143
C0G720,溪州,2021-01-15,23.851589,120.499093,0.0012409054
C0G730,二林,2021-01-15,23.903325,120.376081,0.00072556664
C0G740,大城,2021-01-15,23.852487,120.320935,0.00055114925
C0G770,福興,2021-01-15,24.041289,120.437669,0.00070120546
C0G780,秀水,2021-01-15,24.03405,120.503869,0.0006813756
C0G800,埔鹽,2021-01-15,24.000394,120.431683,0.00070120546
C0G810,埔心,2021-01-15,23.947633,120.525456,0.00065704004
C0G820,田尾,2021-01-15,23.901669,120.509389,0.00064648263
C0G830,埤頭,2021-01-15,23.866003,120.452806,0.0013203758
C0G840,北斗,2021-01-15,23.877586,120.514222,0.00064648263
C0G860,社頭,2021-01-15,23.897647,120.5862,0.00060152455
C0G870,芳苑,2021-01-15,23.922303,120.320025,0.0005560372
C0G880,二水,2021-01-15,23.810742,120.6173,0.0011419639
C0G890,伸港,2021-01-15,24.148933,120.484403,0.00049501995
C0G900,線西,2021-01-15,24.143358,120.443536,0.00050708983
C0G910,花壇,2021-01-15,24.032076,120.549461,0.00065931113
C0G920,永靖,2021-01-15,23.924703,120.547533,0.00064648263
C0G940,竹塘,2021-01-15,23.848253,120.386764,0.0017833267
C0G950,防潮門,2021-01-15,24.1835,120.4871,0.00048877596
C0G960,福寶,2021-01-15,24.0443,120.3814,0.00071701704
C0G970,三豐,2021-01-15,23.882,120.2895,0.0005560372
C0H890,埔里,2021-01-15,23.972169,120.952425,0.00081549346
C0H950,中寮,2021-01-15,23.884447,120.766406,0.0007291704
C0H960,草屯,2021-01-15,23.973672,120.68085,0.0009712009
C0I110,竹山,2021-01-15,23.761225,120.688156,0.0008333224
C0I360,水里,2021-01-15,23.812553,120.849792,0.0007294919
C0I380,集集,2021-01-15,23.828206,120.801467,0.0007715858
C0I410,名間,2021-01-15,23.837053,120.701447,0.0010313218
C0I420,國姓,2021-01-15,24.037803,120.855072,0.001355725
C0I460,南投,2021-01-15,23.911469,120.687331,0.0010004997
C0K250,崙背,2021-01-15,23.75555,120.318925,0.00055944105
C0K280,四湖,2021-01-15,23.630414,120.227125,0.00053184567
C0K291,宜梧,2021-01-15,23.536281,120.169329,0.00082448724
C0K330,虎尾,2021-01-15,23.719183,120.442036,0.0019043693
C0K390,土庫,2021-01-15,23.679029,120.395574,0.0019889844
C0K400,斗六,2021-01-15,23.720583,120.541127,0.0018024996
C0K410,北港,2021-01-15,23.573957,120.292802,0.00084042153
C0K420,西螺,2021-01-15,23.800407,120.467394,0.0013966605
C0K430,褒忠,2021-01-15,23.690938,120.303634,0.0006000312
C0K440,二崙,2021-01-15,23.772797,120.408944,0.0017144163
C0K450,大埤,2021-01-15,23.646074,120.431537,0.0016115139
C0K460,斗南,2021-01-15,23.678734,120.478359,0.0019584985
C0K470,林內,2021-01-15,23.748675,120.609642,0.001263395
C0K480,莿桐,2021-01-15,23.761192,120.502372,0.0013548783
C0K500,元長,2021-01-15,23.64981,120.315024,0.0005498795
C0K510,水林,2021-01-15,23.572924,120.24597,0.00076280476
C0K530,臺西,2021-01-15,23.701547,120.197559,0.0005467266
C0K550,蔦松,2021-01-15,23.514319,120.229736,0.0008080182
C0K560,棋山,2021-01-15,23.68645,120.603417,0.0019598792
C0K580,高鐵雲林,2021-01-15,23.737456,120.417944,0.0019889844
C0K590,雲林東勢,2021-01-15,23.674192,120.255721,0.0006000315
C0K600,箔子寮,2021-01-15,23.6197,120.14,0.00077873655
C0M410,馬頭山,2021-01-15,23.324361,120.582017,0.0013674488
C0M520,東後寮,2021-01-15,23.369908,120.248065,0.0012036827
C0M640,中埔,2021-01-15,23.42538,120.5229,0.001370332
C0M650,朴子,2021-01-15,23.43463,120.23902,0.00084997667
C0M660,溪口,2021-01-15,23.604131,120.403569,0.000504865
C0M670,大林,2021-01-15,23.600616,120.45841,0.0004771852
C0M680,太保,2021-01-15,23.455062,120.331455,0.00084590324
C0M690,水上,2021-01-15,23.419734,120.388909,0.00046692282
C0M700,竹崎,2021-01-15,23.526178,120.555508,0.0010026572
C0M710,東石,2021-01-15,23.458927,120.15385,0.0008080178
C0M720,番路,2021-01-15,23.464657,120.554156,0.001043817
C0M730,嘉義市東區,2021-01-15,23.457673,120.460531,0.0004695793
C0M740,六腳,2021-01-15,23.492871,120.290625,0.0008683078
C0M750,布袋,2021-01-15,23.380878,120.167789,0.00084997667
C0M760,民雄,2021-01-15,23.551754,120.428457,0.0004932412
C0M770,嘉義梅山,2021-01-15,23.585398,120.555587,0.0015777174
C0M780,鹿草,2021-01-15,23.41134,120.30835,0.0007777031
C0M790,新港,2021-01-15,23.553269,120.345728,0.00081836
C0M800,茶山,2021-01-15,23.299075,120.664767,0.0034262936
C0M880,好美里,2021-01-15,23.3364,120.138,0.0014800789
C0N010,鯤鯓國小,2021-01-15,23.1879,120.0889,0.0009893572
C0N020,城西,2021-01-15,23.0568,120.0956,0.0021466848
C0N030,四草,2021-01-15,23.0235,120.1116,0.0025998943
C0N040,蘆竹溝,2021-01-15,23.2344,120.0961,0.0009983378
C0N050,蚵寮,2021-01-15,23.301,120.1104,0.0009983378
C0O810,曾文,2021-01-15,23.219681,120.497328,0.00055583083
C0O830,北寮,2021-01-15,23.079561,120.495008,0.0035999087
C0O840,王爺宮,2021-01-15,23.222064,120.40085,0.0005558306
C0O860,大內,2021-01-15,23.11885,120.36083,0.0013223346
C0O900,善化,2021-01-15,23.112883,120.297219,0.0014333171
C0O930,玉井,2021-01-15,23.126042,120.46055,0.0007310968
C0O950,安南,2021-01-15,23.076694,120.144861,0.0026452472
C0O960,崎頂,2021-01-15,22.959547,120.369317,0.0020152251
C0O970,虎頭埤,2021-01-15,23.021375,120.347878,0.0012402436
C0O980,新市,2021-01-15,23.061614,120.298197,0.0014333171
C0O990,媽廟,2021-01-15,22.99175,120.293525,0.00172621
C0R150,三地門,2021-01-15,22.709889,120.639944,0.062834404
C0R160,鹽埔,2021-01-15,22.739558,120.530778,0.015126069
C0R170,屏東,2021-01-15,22.660269,120.494072,0.013735821
C0R190,赤山,2021-01-15,22.592333,120.614306,0.012377943
C0R220,潮州,2021-01-15,22.534361,120.54,0.021321842
C0R240,來義,2021-01-15,22.527306,120.625111,0.025660066
C0R260,春日,2021-01-15,22.370361,120.628306,0.037531365
C0R270,琉球嶼,2021-01-15,22.332244,120.362236,0.034196433
C0R280,檳榔,2021-01-15,22.076078,120.836777,0.0005174705
C0R320,車城,2021-01-15,22.0744,120.716247,0.00045835157
C0R341,牡丹,2021-01-15,22.130036,120.792639,0.037763055
C0R350,貓鼻頭,2021-01-15,21.921774,120.7358,0.0006066701
C0R470,高樹,2021-01-15,22.826389,120.600806,0.052211896
C0R480,長治,2021-01-15,22.693128,120.542622,0.013979806
C0R490,九如,2021-01-15,22.7405,120.490503,0.0119221425
C0R520,崁頂,2021-01-15,22.514781,120.506914,0.017314497
C0R540,佳冬,2021-01-15,22.419456,120.552375,0.01917604
C0R550,新埤,2021-01-15,22.467947,120.582894,0.013385492
C0R560,新園,2021-01-15,22.5434,120.461558,0.017314497
C0R570,麟洛,2021-01-15,22.65078,120.52719,0.012496666
C0R580,南州,2021-01-15,22.48591,120.50274,0.01917604
C0R590,里港,2021-01-15,22.77919,120.49459,0.010712798
C0R620,墾雷,2021-01-15,21.900836,120.855269,0.0006066701
C0R640,東港,2021-01-15,22.46247,120.44074,0.0045326296
C0R650,竹田,2021-01-15,22.58486,120.54344,0.014494796
C0R660,枋寮,2021-01-15,22.367722,120.590647,0.025375405
C0R670,楓港,2021-01-15,22.190131,120.692156,0.3395693
C0R680,佳樂水,2021-01-15,21.993578,120.861633,0.0005275757
C0R690,墾丁,2021-01-15,21.966756,120.810269,0.0004711077
C0R700,枋山,2021-01-15,22.246844,120.661086,0.3395698
C0R710,龍磐,2021-01-15,21.931672,120.838942,0.00096045854
C0R720,旭海,2021-01-15,22.205403,120.887614,0.0051620887
C0R730,大坪頂,2021-01-15,22.024633,120.69355,0.00091815734
C0R740,獅子,2021-01-15,22.201569,120.70525,0.2185911
C0R760,南仁湖,2021-01-15,22.084681,120.863353,0.0003488117
C0R770,保力,2021-01-15,22.071122,120.764111,0.00082633476
C0R780,滿州,2021-01-15,22.024403,120.839892,0.0006584379
C0R790,九棚,2021-01-15,22.14195,120.889281,0.008217862
C0R800,丹路,2021-01-15,22.204481,120.750989,0.0687079
C0R810,內獅,2021-01-15,22.305064,120.642986,0.065848105
C0R830,高士,2021-01-15,22.121825,120.836781,0.00032348585
C0R850,林邊,2021-01-15,22.4634,120.5339,0.017314497
C0R860,鼻頭,2021-01-15,22.1043,120.8979,0.0006544334
C0R870,興海,2021-01-15,21.9752,120.8439,0.0005275757
C0R880,後壁湖,2021-01-15,21.9457,120.7457,0.00043557267
C0R890,山海,2021-01-15,21.9878,120.7091,0.00045835157
C0R900,竹坑,2021-01-15,22.1385,120.7022,0.33889285
C0R910,下寮,2021-01-15,22.3929,120.5548,0.01917604
C0R920,塭仔,2021-01-15,22.4169,120.5197,0.021417059
C0R930,萬丹,2021-01-15,22.5885,120.4851,0.014494796
C0R940,加祿堂,2021-01-15,22.3363,120.6217,0.065848105
C0S710,鹿野,2021-01-15,22.917711,121.122994,0.0083797835
C0S730,綠島,2021-01-15,22.6672,121.47533,0.1872966
C0S740,池上,2021-01-15,23.119628,121.209469,0.018730612
C0S770,大溪山,2021-01-15,22.478475,120.943325,0.0014400528
C0S790,金崙,2021-01-15,22.538122,120.966875,0.006727152
C0S810,東河,2021-01-15,22.972672,121.303986,0.094241366
C0S830,長濱,2021-01-15,23.286817,121.411975,0.005744887
C0S840,南田,2021-01-15,22.279725,120.889208,0.095585115
C0S890,關山,2021-01-15,23.0395,121.175017,0.047988962
C0S900,蘭嶼高中,2021-01-15,22.04909,121.51214,0.00051709305
C0S910,蘭嶼燈塔,2021-01-15,22.081197,121.503117,0.00041352893
C0S920,金峰嘉蘭,2021-01-15,22.594789,120.960825,0.033861227
C0S930,延平,2021-01-15,22.902581,121.084058,0.01236633
C0S940,石寧山,2021-01-15,23.223772,121.406639,0.01654655
C0S950,七塊厝,2021-01-15,22.954453,121.229922,0.0066571026
C0S960,香蘭,2021-01-15,22.587569,120.993375,0.0951513
C0S970,加津林,2021-01-15,22.416211,120.926942,0.2492402
C0S990,山豬窟,2021-01-15,22.318619,120.857372,0.001081676
C0SA00,歷坵,2021-01-15,22.520969,120.89185,0.0010121637
C0SA10,檳榔四格山,2021-01-15,22.810031,121.109308,0.00076841563
C0SA30,都歷,2021-01-15,23.020333,121.323642,0.23720002
C0SA40,瑞和,2021-01-15,22.974361,121.156697,0.06373393
C0SA60,知本（水試所）,2021-01-15,22.702394,121.082761,0.0143171325
C0SA80,土坂,2021-01-15,22.453108,120.887572,0.018989187
C0SA90,達仁林場,2021-01-15,22.264347,120.823972,0.0032929343
C0T870,鯉魚潭,2021-01-15,23.935639,121.508944,0.3291399
C0T900,西林,2021-01-15,23.8119,121.441458,0.25382087
C0T960,光復,2021-01-15,23.660694,121.424964,0.22811402
C0T9A0,月眉山,2021-01-15,23.809928,121.539828,0.03658353
C0T9D0,和中,2021-01-15,24.26676,121.74103,0.15833813
C0T9E0,大坑,2021-01-15,23.880628,121.581981,0.06458212
C0T9F0,水璉,2021-01-15,23.797131,121.542514,0.12601565
C0T9I0,豐濱,2021-01-15,23.583897,121.514806,0.25844353
C0T9M0,靜浦,2021-01-15,23.455167,121.495028,0.39993128
C0T9N0,富里,2021-01-15,23.171639,121.249378,0.0025773605
C0U600,礁溪,2021-01-15,24.817539,121.765608,0.00025704099
C0U650,玉蘭,2021-01-15,24.675286,121.587061,0.0017100931
C0U750,龜山島,2021-01-15,24.841667,121.953133,0.0003062422
C0U760,東澳,2021-01-15,24.52196,121.83318,0.0009362908
C0U770,南澳,2021-01-15,24.44935,121.81022,0.0035897102
C0U780,五結,2021-01-15,24.68637,121.79794,0.00039899856
C0U860,頭城,2021-01-15,24.85323,121.8308,0.0002647654
C0U870,大礁溪,2021-01-15,24.791042,121.675047,0.00024390305
C0U880,北關,2021-01-15,24.9072,121.8734,0.00036931722
C0U890,三星,2021-01-15,24.66812,121.65302,0.00019536263
C0U900,內城,2021-01-15,24.71813,121.68766,0.00023443806
C0U910,冬山,2021-01-15,24.63373,121.7937,0.00039899856
C0U940,羅東,2021-01-15,24.68184,121.74934,0.00037588572
C0U970,大福,2021-01-15,24.80064,121.81389,0.00027406376
C0U990,員山,2021-01-15,24.74435,121.72247,0.00037588572
C0UA00,土場,2021-01-15,24.576533,121.495333,0.0003005837
C0UA80,大溪漁港,2021-01-15,24.941801,121.902955,0.00025704099
C0UA90,石城,2021-01-15,24.980444,121.951214,0.00018877603
C0UB00,淡江大學蘭陽校園,2021-01-15,24.823239,121.730383,0.00026398327
C0UB20,壯圍,2021-01-15,24.7359,121.8163,0.00042196573
C0V250,甲仙,2021-01-15,23.080106,120.591758,0.0018090154
C0V260,月眉,2021-01-15,22.971003,120.539853,0.0042551807
C0V310,美濃,2021-01-15,22.898742,120.519153,0.0033617648
C0V350,溪埔,2021-01-15,22.738578,120.446797,0.0033966962
C0V360,內門,2021-01-15,22.975481,120.466769,0.0019912452
C0V370,古亭坑,2021-01-15,22.893178,120.401947,0.0015981452
C0V400,阿公店,2021-01-15,22.804194,120.355528,0.0033387963
C0V440,鳳山,2021-01-15,22.646653,120.356122,0.0036849263
C0V450,鳳森,2021-01-15,22.545064,120.392592,0.0042125345
C0V490,新興,2021-01-15,22.627422,120.298803,0.00422832
C0V530,阿蓮,2021-01-15,22.883208,120.327508,0.0025404938
C0V610,梓官,2021-01-15,22.760558,120.267211,0.0028472051
C0V620,永安,2021-01-15,22.82315,120.236856,0.0028912176
C0V630,茄萣,2021-01-15,22.906642,120.182608,0.0032602856
C0V640,湖內,2021-01-15,22.887139,120.2445,0.0029996762
C0V650,彌陀,2021-01-15,22.783806,120.246361,0.0028912176
C0V660,岡山,2021-01-15,22.797078,120.294958,0.0028472051
C0V680,仁武,2021-01-15,22.701083,120.347722,0.0028866192
C0V690,鼓山,2021-01-15,22.623325,120.275575,0.00422832
C0V700,三民,2021-01-15,22.645017,120.311233,0.00422832
C0V710,苓雅,2021-01-15,22.622742,120.330669,0.00422832
C0V720,林園,2021-01-15,22.507747,120.394511,0.00422832
C0V730,大寮,2021-01-15,22.605614,120.395717,0.0060265576
C0V740,旗山,2021-01-15,22.888614,120.483597,0.0031642262
C0V750,路竹,2021-01-15,22.854997,120.259439,0.0025615236
C0V760,橋頭,2021-01-15,22.757806,120.30575,0.002681242
C0V770,大社,2021-01-15,22.730306,120.346639,0.0028866192
C0V790,萬山,2021-01-15,22.905944,120.688056,0.003787143
C0V800,六龜,2021-01-15,22.997889,120.633583,0.008569914
C0V810,左營,2021-01-15,22.67491,120.28491,0.0030805364
C0V820,小林,2021-01-15,23.148408,120.63325,0.0031365738
C0V840,鳳鼻頭,2021-01-15,22.5083,120.3591,0.004532625
C0V850,蚵仔寮,2021-01-15,22.7256,120.2527,0.0032759067
C0V860,南寮,2021-01-15,22.7616,120.2339,0.0030709915
C0V870,文安,2021-01-15,22.8025,120.2164,0.0030709915
C0V880,興達,2021-01-15,22.8778,120.2127,0.003260281
C0V890,前鎮,2021-01-15,22.5718,120.3117,0.004532625
C0V900,汕尾,2021-01-15,22.4782,120.4151,0.013163048
C0X050,東河,2021-01-15,23.296598,120.385608,0.00075447327
C0X060,下營,2021-01-15,23.22695,120.256261,0.0011077177
C0X080,佳里,2021-01-15,23.173039,120.145086,0.0014800789
C0X100,臺南市北區,2021-01-15,23.010394,120.194228,0.0026465203
C0X110,臺南市南區,2021-01-15,22.961189,120.188378,0.002512466
C0X120,麻豆,2021-01-15,23.183289,120.248611,0.0014177746
C0X130,官田,2021-01-15,23.193217,120.315422,0.0010460808
C0X140,西港,2021-01-15,23.125608,120.203108,0.0016214064
C0X150,安定,2021-01-15,23.102614,120.227839,0.001918349
C0X160,仁德,2021-01-15,22.968258,120.257689,0.0018032858
C0X170,關廟,2021-01-15,22.963017,120.327797,0.0015325968
C0X180,山上,2021-01-15,23.0757,120.363253,0.0009911036
C0X190,安平,2021-01-15,22.993161,120.152181,0.0026465203
C0X200,左鎮,2021-01-15,23.056758,120.408522,0.0010177604
C0X210,白河,2021-01-15,23.347466,120.414427,0.000732871
C0X220,學甲,2021-01-15,23.230367,120.182187,0.0014177746
C0X230,鹽水,2021-01-15,23.272621,120.247641,0.0012862582
C0X240,關子嶺,2021-01-15,23.331169,120.508025,0.0010622133
C0X250,新營,2021-01-15,23.310689,120.316681,0.0010668407
C0X260,後壁,2021-01-15,23.366358,120.362326,0.00087836414
C0X280,將軍,2021-01-15,23.214999,120.13577,0.0014663921
C0X290,北門,2021-01-15,23.267772,120.125481,0.0014800789
C0X300,鹿寮,2021-01-15,23.386047,120.477331,0.0013928211
C0X310,七股,2021-01-15,23.147289,120.086253,0.0013795419
C0X320,柳營,2021-01-15,23.253328,120.375253,0.00075447327
C0Z020,明里,2021-01-15,23.208717,121.262342,0.007256276
C0Z061,玉里,2021-01-15,23.3215,121.339656,0.012429661
C0Z070,舞鶴,2021-01-15,23.46811,121.37407,0.11542803
C0Z080,富源,2021-01-15,23.587642,121.378225,0.10723791
C0Z100,東華,2021-01-15,23.89525,121.549833,0.5654881
C0Z150,吉安光華,2021-01-15,23.930925,121.595153,0.61012435
C0Z160,鳳林,2021-01-15,23.746114,121.453411,0.2572541
C0Z170,卓溪,2021-01-15,23.3443,121.3029,0.009400411
C0Z180,新城,2021-01-15,24.03946,121.60454,0.19506688
C0Z190,富世,2021-01-15,24.14743,121.6297,0.018555691
C0Z200,萬榮,2021-01-15,23.709219,121.420106,0.3291399
C0Z210,瑞穗,2021-01-15,23.5239,121.39021,0.30972722
C0Z230,和平,2021-01-15,24.30717,121.77007,0.15833813
C0Z270,蕃薯寮,2021-01-15,23.73835,121.540108,0.18446057
C0Z280,德武,2021-01-15,23.47426,121.41071,0.18323292
C0Z300,東里,2021-01-15,23.26853,121.30547,0.010779781
C0Z310,清水斷崖,2021-01-15,24.218294,121.689142,0.050843567
C0Z330,安通山,2021-01-15,23.290728,121.348528,0.004009353
CAA010,國一N013K,2021-01-15,25.06944,121.6281,0.00031906698
CAA020,國一S026K,2021-01-15,25.07639,121.4964,0.0002947432
CAA030,國三S010K,2021-01-15,25.08,121.6475,0.0003235333
CAA040,國三S016K,2021-01-15,25.03306,121.6158,0.00029353428
CAA050,國三S037K,2021-01-15,24.9828,121.471,0.00031906698
CAA060,國三S042K,2021-01-15,24.96,121.4306,0.0002785521
CAA070,國三N046K,2021-01-15,24.95083,121.3958,0.00028258667
CAA080,國三S054K,2021-01-15,24.93917,121.3239,0.00032794708
CAA090,國三A005K,2021-01-15,25.00194,121.5975,0.0003142021
CAAH60,大安森林,2021-01-15,25.02955,121.53628,0.00032878356
CAB010,國一S001K,2021-01-15,25.11583,121.7286,0.00038138355
CAB020,國一S006K,2021-01-15,25.08694,121.6869,0.00039386275
CAB030,國三S004K,2021-01-15,25.11444,121.6886,0.00017386347
CAB040,國三S007K,2021-01-15,25.09694,121.6678,0.00035936097
CAB050,國三K002K,2021-01-15,25.14583,121.7217,0.00035936097
CAC010,國一S072K,2021-01-15,24.89583,121.1342,0.00026178392
CAC020,國二E009K,2021-01-15,25.02111,121.2736,0.00032370642
CAC030,國三N063K,2021-01-15,24.889,121.26,0.0002972704
CAC050,西濱S023K,2021-01-15,25.11649,121.27551,0.00029203392
CAC060,西濱S032K,2021-01-15,25.091966,121.192505,0.00029569172
CAD010,國一S105K,2021-01-15,24.726316,120.940643,0.00034577347
CAD020,國一N077K,2021-01-15,24.885,121.0889,0.00027509834
CAD030,國一S082K,2021-01-15,24.87667,121.0467,0.00031385335
CAD040,國一S088K,2021-01-15,24.84444,121.0214,0.00033874955
CAD050,國一N094K,2021-01-15,24.79778,121.0089,0.0003266556
CAD060,國一S098K,2021-01-15,24.76056,120.9911,0.0003266556
CAD070,國三N076K,2021-01-15,24.800303,121.195739,0.00025754608
CAD080,國三N085K,2021-01-15,24.78333,121.1211,0.0002877731
CAD090,國三S103K,2021-01-15,24.75861,120.9608,0.00031446855
CAD100,西濱N066K,2021-01-15,24.8956,120.9649,0.00037905687
CAD110,西濱S082K,2021-01-15,24.751724,120.905028,0.0003551001
CAE010,國一N142K,2021-01-15,24.453119,120.783221,0.00039130676
CAE020,國一S114K,2021-01-15,24.668835,120.885811,0.0003551001
CAE030,國一S123K,2021-01-15,24.59594,120.86071,0.00038595046
CAE040,國一S132K,2021-01-15,24.524506,120.820831,0.000390457
CAE050,國一S152K,2021-01-15,24.375492,120.749184,0.00032422683
CAE060,國三N119K,2021-01-15,24.675432,120.847389,0.00041391343
CAE070,國三N151K,2021-01-15,24.440218,120.681656,0.00044414707
CAE080,國三S140K,2021-01-15,24.522345,120.725006,0.00043877467
CAE090,國三S156K,2021-01-15,24.39798,120.669487,0.00043668225
CAE100,西濱N107K,2021-01-15,24.5958,120.7394,0.00040188234
CAE110,西濱S129K,2021-01-15,24.4472,120.6428,0.0004590245
CAF010,國一N174K,2021-01-15,24.2049,120.6552,0.0003776799
CAF020,國一S162K,2021-01-15,24.295534,120.695976,0.00039686
CAF030,國一S169K,2021-01-15,24.237116,120.688271,0.0003845655
CAF040,國一S188K,2021-01-15,24.118546,120.585747,0.00060009875
CAF050,國三N208K,2021-01-15,24.066147,120.660919,0.00060009875
CAF060,國三S168K,2021-01-15,24.308519,120.614471,0.00044749922
CAF070,國三S173K,2021-01-15,24.27397,120.593079,0.00041895718
CAF080,國三S178K,2021-01-15,24.226721,120.589058,0.00040928664
CAF090,國四E5K,2021-01-15,24.296465,120.643135,0.00042973887
CAF100,西濱N151K,2021-01-15,24.275964,120.547681,0.00048498015
CAG010,國一N198K,2021-01-15,24.063889,120.523056,0.00066958525
CAG030,國一S207K,2021-01-15,23.988304,120.508092,0.0006813756
CAG040,國三N191K,2021-01-15,24.139256,120.5215,0.00048751055
CAG050,國三N196K,2021-01-15,24.107155,120.554482,0.00062420964
CAG060,國三S202K,2021-01-15,24.092468,120.603256,0.00062420964
CAG070,西濱S173K,2021-01-15,24.1081,120.434576,0.00071236864
CAG080,西濱S189K,2021-01-15,23.987857,120.369607,0.00050547277
CAG090,西濱N210K,2021-01-15,23.843536,120.293236,0.00056613
CAG100,王功漁港,2021-01-15,23.96824,120.32586,0.00050547277
CAH010,國三N223K,2021-01-15,23.955116,120.662376,0.0010213061
CAH020,國三S217K,2021-01-15,24.00683,120.653214,0.00042812558
CAH030,茶改場竹圍站,2021-01-15,23.860083,120.637528,0.00064926647
CAHA00,消防署訓練中心,2021-01-15,23.82137,120.72293,0.0010043915
CAJ010,國三N252K,2021-01-15,23.77412,120.64061,0.0010422828
CAJ020,國一N234K,2021-01-15,23.74633,120.467926,0.0019584985
CAJ030,西濱N222K,2021-01-15,23.737734,120.256132,0.0006078071
CAJ040,西濱S241K,2021-01-15,23.623426,120.172646,0.00077873655
CAJ050,海口故事園區,2021-01-15,23.57543,120.14121,0.00077873655
CAL010,國一N250K,2021-01-15,23.610292,120.436867,0.0004932412
CAL020,國一S262K,2021-01-15,23.512333,120.403038,0.0004784051
CAL030,國一N268K,2021-01-15,23.460833,120.375833,0.0004784051
CAL040,國一N273K,2021-01-15,23.416666,120.355,0.00067284994
CAL050,國三N279K,2021-01-15,23.596111,120.523333,0.0012199723
CAL060,國三S286K,2021-01-15,23.533917,120.484583,0.0012309925
CAL070,國三N295K,2021-01-15,23.468598,120.499369,0.0012683736
CAL080,國三N303K,2021-01-15,23.428611,120.452416,0.00046692282
CAL090,西濱S257K,2021-01-15,23.502278,120.171861,0.0008080178
CAL100,西濱S267K,2021-01-15,23.41613,120.162872,0.00084997667
CAL110,布袋國中,2021-01-15,23.35893,120.18026,0.0012036827
CAN010,國一N288K,2021-01-15,23.30609,120.290033,0.0011006015
CAN020,國一S306K,2021-01-15,23.1565,120.239513,0.0014177746
CAN030,國一N316K,2021-01-15,23.07309,120.253014,0.0014333171
CAN040,國一N323K,2021-01-15,23.00421,120.245922,0.0023833774
CAN050,國一N335K,2021-01-15,22.897584,120.269895,0.003010823
CAN060,國三S311K,2021-01-15,23.346388,120.438888,0.00071605016
CAN070,國三S329K,2021-01-15,23.212777,120.355833,0.0009574681
CAN080,國三N336K,2021-01-15,23.154722,120.345,0.0010169385
CAN090,國三S342K,2021-01-15,23.106694,120.327528,0.0013341937
CAN100,國三S366K,2021-01-15,22.9077,120.3513,0.002277051
CAN110,西濱S280K,2021-01-15,23.3052,120.14891,0.0014803783
CAN120,西濱N304K,2021-01-15,23.103439,120.086694,0.002146686
CAN130,水試所海水繁養殖中心,2021-01-15,23.120802,120.07968,0.0022483447
CAN140,六官養殖協會,2021-01-15,23.22881,120.29962,0.0010750674
CAP010,國一S342K,2021-01-15,22.845555,120.295,0.0028472051
CAP020,國一S346K,2021-01-15,22.812222,120.314166,0.0028472051
CAP030,國一N351K,2021-01-15,22.765833,120.328888,0.002681242
CAP040,國一N361K,2021-01-15,22.680555,120.328611,0.0030805364
CAP050,國三N372K,2021-01-15,22.858611,120.373611,0.0020924183
CAP060,國三S385K,2021-01-15,22.767777,120.444444,0.0032126645
CAP070,高雄燈塔,2021-01-15,22.6146,120.2647,0.00422832
CAQ010,國三N425K,2021-01-15,22.480277,120.531666,0.017314497
CAQ020,國三S415K,2021-01-15,22.568,120.528,0.015703546
CAQ030,崎峰國小,2021-01-15,22.42565,120.49521,0.01917604
E2K600,四湖植物園,2021-01-15,23.676986,120.163433,0.0005467266
E2P980,林試六龜中心,2021-01-15,22.991703,120.645722,0.008043568
E2S390,太麻里分所,2021-01-15,22.5988,120.9811,0.038113587
E2S960,林試太麻里2,2021-01-15,22.598014,120.989761,0.0951513
E2S980,林試太麻里1,2021-01-15,22.598922,120.980044,0.038113587
G2AI50,關渡,2021-01-15,25.11575,121.492,0.00029946072
G2F820,農試所(霧峰),2021-01-15,24.031261,120.688133,0.00042812558
G2L020,嘉義分所,2021-01-15,23.485028,120.473806,0.0012683736
G2M350,溪口農場,2021-01-15,23.58565,120.408111,0.000504865
G2P820,鳳山園試所,2021-01-15,22.646611,120.356083,0.0036849263
K2E360,苗栗農改場,2021-01-15,24.495722,120.829111,0.00046024995
K2E710,大湖分場,2021-01-15,24.422861,120.871833,0.00037674364
K2F750,種苗改良場,2021-01-15,24.225972,120.800917,0.0004283603
U2HA50,臺大竹山,2021-01-15,23.756972,120.681556,0.00081362244
V2C250,八德合作社,2021-01-15,24.93775,121.266389,0.00028331234
V2C260,八德蔬果,2021-01-15,24.978508,121.281819,0.0003095619
V2K610,大庄合作社,2021-01-15,23.8068,120.367939,0.00053018855
V2K620,麥寮合作社,2021-01-15,23.753836,120.294783,0.00056613
