站號,站名,日期,lat,lon,BlastGRU-TW
466881,新北,2021-11-06,24.9593,121.52,0.6668405
466900,淡水,2021-11-06,25.1649,121.4489,0.32554108
466920,臺北,2021-11-06,25.0377,121.5149,0.677062
466940,基隆,2021-11-06,25.1333,121.7405,0.33559817
466990,花蓮,2021-11-06,23.9751,121.6133,0.5409451
467050,新屋,2021-11-06,25.0067,121.0475,0.05829811
467080,宜蘭,2021-11-06,24.764,121.7565,0.8659727
467270,田中,2021-11-06,23.8738,120.5813,0.27101734
467300,東吉島,2021-11-06,23.2569,119.6675,0.6203349
467350,澎湖,2021-11-06,23.5655,119.5631,0.25595173
467410,臺南,2021-11-06,22.9932,120.2048,0.6319268
467420,永康,2021-11-06,23.0384,120.2367,0.6393058
467441,高雄,2021-11-06,22.7304,120.3125,0.593035
467480,嘉義,2021-11-06,23.4959,120.4329,0.76249385
467490,臺中,2021-11-06,24.1457,120.6841,0.6718668
467540,大武,2021-11-06,22.3557,120.9038,0.17278105
467571,新竹,2021-11-06,24.8279,121.0142,0.07741586
467590,恆春,2021-11-06,22.0039,120.7463,0.029395916
467610,成功,2021-11-06,23.0975,121.3734,0.892084
467620,蘭嶼,2021-11-06,22.037,121.5583,0.7125332
467660,臺東,2021-11-06,22.7522,121.1546,0.6894792
467790,墾丁雷達站,2021-11-06,21.9482,120.808,0.034810062
C0A520,山佳,2021-11-06,24.9749,121.402,0.5448776
C0A530,坪林,2021-11-06,24.9382,121.7097,0.4185758
C0A540,四堵,2021-11-06,24.8926,121.7457,0.5006419
C0A550,泰平,2021-11-06,24.9712,121.8237,0.49311244
C0A560,福山,2021-11-06,24.7762,121.5028,0.5700438
C0A570,桶後,2021-11-06,24.8482,121.598,0.5383164
C0A640,石碇,2021-11-06,24.994,121.6629,0.8752635
C0A650,火燒寮,2021-11-06,25.0027,121.7429,0.82400817
C0A660,瑞芳,2021-11-06,25.1132,121.8011,0.9213817
C0A770,科教館,2021-11-06,25.0964,121.5165,0.55580515
C0A860,大坪,2021-11-06,25.1659,121.633,0.42430234
C0A880,福隆,2021-11-06,25.0178,121.9421,0.94577384
C0A890,雙溪,2021-11-06,25.036,121.8642,0.35083115
C0A920,富貴角,2021-11-06,25.2638,121.5653,0.30791304
C0A931,三和,2021-11-06,25.2332,121.5952,0.84906125
C0A940,金山,2021-11-06,25.2236,121.644,0.26793328
C0A950,鼻頭角,2021-11-06,25.129,121.9234,0.9478108
C0A970,三貂角,2021-11-06,25.0076,122.0021,0.90683883
C0A980,社子,2021-11-06,25.1095,121.4697,0.55832356
C0A9C0,天母,2021-11-06,25.1175,121.5372,0.5490266
C0A9F0,內湖,2021-11-06,25.0794,121.5755,0.677062
C0AC60,三峽,2021-11-06,24.939,121.3697,0.66226006
C0AC70,信義,2021-11-06,25.0378,121.5646,0.677062
C0AC80,文山,2021-11-06,25.0023,121.5757,0.6498524
C0ACA0,新莊,2021-11-06,25.0515,121.4468,0.37438828
C0AD00,三芝,2021-11-06,25.2581,121.5019,0.2572841
C0AD10,八里,2021-11-06,25.1502,121.4039,0.3255413
C0AD30,蘆洲,2021-11-06,25.0866,121.4723,0.55580515
C0AD40,土城,2021-11-06,24.9732,121.4452,0.55259186
C0AD50,鶯歌,2021-11-06,24.9515,121.3463,0.41193786
C0AG80,中和,2021-11-06,24.9916,121.4918,0.677062
C0AH00,汐止,2021-11-06,25.0669,121.6588,0.33990255
C0AH10,永和,2021-11-06,25.0113,121.5081,0.68263996
C0AH40,平等,2021-11-06,25.1291,121.5771,0.44172204
C0AH50,林口,2021-11-06,25.0722,121.3808,0.53214747
C0AH70,松山,2021-11-06,25.0487,121.5504,0.677062
C0AH80,深坑,2021-11-06,25.0027,121.6283,0.6551075
C0AI00,五股,2021-11-06,25.0744,121.4273,0.061451692
C0AI10,屈尺,2021-11-06,24.9218,121.5447,0.6498524
C0AI20,白沙灣,2021-11-06,25.2831,121.5191,0.27069598
C0AI30,三重,2021-11-06,25.0573,121.5006,0.55580515
C0AI40,石牌,2021-11-06,25.1156,121.5131,0.55259186
C0AJ10,澳底,2021-11-06,25.0571,121.9273,0.9496948
C0AJ20,野柳,2021-11-06,25.207,121.69,0.33990255
C0AJ30,淡水觀海,2021-11-06,25.1846,121.4086,0.32271168
C0AJ40,石門,2021-11-06,25.2737,121.6012,0.2356741
C0AJ50,水湳洞,2021-11-06,25.1237,121.8622,0.33990255
C0AJ60,六塊厝,2021-11-06,25.24,121.4481,0.32271168
C0AJ70,田寮,2021-11-06,25.2698,121.4886,0.27082154
C0AJ80,板橋,2021-11-06,25.0107,121.4489,0.55259186
C0B010,七堵,2021-11-06,25.0948,121.7171,0.34663254
C0B020,基隆嶼,2021-11-06,25.1914,121.7839,0.33990255
C0B040,大武崙,2021-11-06,25.1667,121.707,0.34663254
C0B050,八斗子,2021-11-06,25.1448,121.7917,0.3308025
C0B060,暖暖,2021-11-06,25.0957,121.7403,0.35211182
C0C460,復興,2021-11-06,24.8202,121.3523,0.48042014
C0C480,桃園,2021-11-06,24.9924,121.3232,0.08499825
C0C490,八德,2021-11-06,24.9287,121.2833,0.25566867
C0C590,觀音,2021-11-06,25.0271,121.1533,0.3351315
C0C620,蘆竹,2021-11-06,25.0843,121.2658,0.3263512
C0C630,大溪,2021-11-06,24.8829,121.2655,0.23884936
C0C650,平鎮,2021-11-06,24.8975,121.2146,0.120877944
C0C660,楊梅,2021-11-06,24.9124,121.143,0.06924652
C0C670,龍潭,2021-11-06,24.8701,121.2214,0.11313493
C0C680,龜山,2021-11-06,25.0285,121.3866,0.63521266
C0C700,中壢,2021-11-06,24.9777,121.2564,0.08156462
C0C710,大溪永福,2021-11-06,24.8929,121.325,0.13184059
C0C720,竹圍,2021-11-06,25.1127,121.2398,0.32554108
C0C730,中大臨海站,2021-11-06,24.9661,121.0086,0.056235246
C0C740,觀音工業區,2021-11-06,25.0648,121.1149,0.05185766
C0C750,新興坑尾,2021-11-06,25.0061,121.0971,0.046128485
C0D430,峨眉,2021-11-06,24.6905,121.0172,0.1497347
C0D480,打鐵坑,2021-11-06,24.8497,121.1508,0.28004274
C0D540,橫山,2021-11-06,24.7112,121.1169,0.15053044
C0D560,竹東,2021-11-06,24.7671,121.0579,0.1427335
C0D580,寶山,2021-11-06,24.735,121.0252,0.17043796
C0D590,新豐,2021-11-06,24.8707,120.9772,0.10678384
C0D650,湖口,2021-11-06,24.9048,121.0436,0.06246167
C0D660,新竹市東區,2021-11-06,24.7987,120.9869,0.07630489
C0D670,海天一線,2021-11-06,24.832,120.9144,0.07874691
C0D680,香山濕地,2021-11-06,24.7836,120.915,0.07870081
C0D690,外湖,2021-11-06,24.9177,120.9687,0.056235246
C0D700,關西,2021-11-06,24.7977,121.1732,0.13034363
C0E420,竹南,2021-11-06,24.709,120.8889,0.077630274
C0E430,南庄,2021-11-06,24.6018,121.0002,0.17085284
C0E520,大湖,2021-11-06,24.4149,120.8709,0.32704604
C0E540,後龍,2021-11-06,24.6065,120.7839,0.5619171
C0E550,明德,2021-11-06,24.5835,120.8854,0.35053328
C0E590,通霄,2021-11-06,24.4719,120.7046,0.55559415
C0E730,頭份,2021-11-06,24.6882,120.9122,0.077630274
C0E740,造橋,2021-11-06,24.6371,120.8648,0.37574813
C0E750,苗栗,2021-11-06,24.5646,120.8246,0.50900185
C0E780,銅鑼,2021-11-06,24.4897,120.7909,0.48139593
C0E791,卓蘭,2021-11-06,24.3126,120.8244,0.6850163
C0E810,西湖,2021-11-06,24.5629,120.7485,0.5320666
C0E820,獅潭,2021-11-06,24.5391,120.92,0.49438155
C0E830,苑裡,2021-11-06,24.4397,120.6531,0.6583085
C0E850,大河,2021-11-06,24.6181,120.9486,0.34231845
C0E870,高鐵苗栗,2021-11-06,24.6073,120.8261,0.5513414
C0E910,海埔,2021-11-06,24.6488,120.7724,0.39205134
C0E920,通霄漁港,2021-11-06,24.4986,120.6739,0.59016925
C0E930,龍鳳,2021-11-06,24.7,120.8591,0.38999444
C0F000,大肚,2021-11-06,24.153,120.5721,0.17173956
C0F0B0,石岡,2021-11-06,24.2761,120.7776,0.2770512
C0F850,東勢,2021-11-06,24.2464,120.833,0.6014976
C0F930,大甲,2021-11-06,24.3477,120.6404,0.65797526
C0F970,大坑,2021-11-06,24.1731,120.7223,0.6506279
C0F9A0,中竹林,2021-11-06,24.1036,120.7511,0.24911255
C0F9I0,神岡,2021-11-06,24.2725,120.6583,0.60066235
C0F9K0,大安,2021-11-06,24.3451,120.588,0.6990085
C0F9L0,后里,2021-11-06,24.3104,120.7297,0.5897157
C0F9M0,豐原,2021-11-06,24.2543,120.7207,0.5947038
C0F9N0,大里,2021-11-06,24.0925,120.7014,0.67358214
C0F9O0,潭子,2021-11-06,24.2131,120.7039,0.57389414
C0F9P0,清水,2021-11-06,24.3123,120.5622,0.7067903
C0F9Q0,外埔,2021-11-06,24.3478,120.7057,0.6102728
C0F9R0,龍井,2021-11-06,24.1845,120.529,0.6886527
C0F9S0,烏日,2021-11-06,24.1071,120.6241,0.5035779
C0F9T0,西屯,2021-11-06,24.1795,120.6413,0.66436994
C0F9U0,南屯,2021-11-06,24.137,120.638,0.67358226
C0F9X0,大雅(中科園區),2021-11-06,24.2153,120.6244,0.6198362
C0FA10,松柏,2021-11-06,24.4291,120.6175,0.67340523
C0FA20,溫寮,2021-11-06,24.3722,120.5831,0.67340535
C0FA30,梧棲,2021-11-06,24.256,120.5234,0.6886527
C0FA40,臺中電廠,2021-11-06,24.2146,120.4907,0.6886527
C0FA50,霧峰,2021-11-06,24.0419,120.6995,0.67415315
C0G620,芬園,2021-11-06,24.0157,120.6213,0.48542616
C0G640,鹿港,2021-11-06,24.0753,120.4305,0.40697125
C0G650,員林,2021-11-06,23.9465,120.5856,0.63078415
C0G660,溪湖,2021-11-06,23.9484,120.4791,0.50878847
C0G720,溪州,2021-11-06,23.8516,120.4991,0.22914912
C0G730,二林,2021-11-06,23.9033,120.3761,0.45746723
C0G740,大城,2021-11-06,23.8525,120.3209,0.60913557
C0G770,福興,2021-11-06,24.0413,120.4377,0.40697125
C0G780,秀水,2021-11-06,24.0341,120.5039,0.44841927
C0G800,埔鹽,2021-11-06,24.0004,120.4317,0.40150625
C0G810,埔心,2021-11-06,23.9476,120.5255,0.5057311
C0G820,田尾,2021-11-06,23.9017,120.5094,0.5038615
C0G830,埤頭,2021-11-06,23.866,120.4528,0.23367056
C0G840,北斗,2021-11-06,23.8776,120.5142,0.5038615
C0G860,社頭,2021-11-06,23.8976,120.5862,0.6311636
C0G870,芳苑,2021-11-06,23.9223,120.32,0.61199504
C0G880,二水,2021-11-06,23.8107,120.6173,0.28020096
C0G890,伸港,2021-11-06,24.1489,120.4844,0.68944937
C0G900,線西,2021-11-06,24.1434,120.4435,0.65745616
C0G910,花壇,2021-11-06,24.0321,120.5495,0.4404663
C0G920,永靖,2021-11-06,23.9247,120.5475,0.5038615
C0G940,竹塘,2021-11-06,23.8483,120.3868,0.31387925
C0G950,防潮門,2021-11-06,24.1835,120.4871,0.6925206
C0G960,福寶,2021-11-06,24.0443,120.3814,0.41092739
C0G970,三豐,2021-11-06,23.882,120.2895,0.61199504
C0H890,埔里,2021-11-06,23.9722,120.9524,0.65086246
C0H950,中寮,2021-11-06,23.8844,120.7664,0.25832143
C0H960,草屯,2021-11-06,23.9737,120.6809,0.24453115
C0I110,竹山,2021-11-06,23.7612,120.6882,0.26155218
C0I360,水里,2021-11-06,23.8126,120.8498,0.3707379
C0I380,集集,2021-11-06,23.8282,120.8015,0.3696245
C0I410,名間,2021-11-06,23.8371,120.7014,0.31743723
C0I420,國姓,2021-11-06,24.0378,120.8551,0.17924777
C0I460,南投,2021-11-06,23.9115,120.6873,0.26787764
C0K250,崙背,2021-11-06,23.7555,120.3189,0.69783735
C0K280,四湖,2021-11-06,23.6304,120.2271,0.7033956
C0K291,宜梧,2021-11-06,23.5363,120.1693,0.6858288
C0K330,虎尾,2021-11-06,23.7192,120.442,0.33845398
C0K390,土庫,2021-11-06,23.679,120.3956,0.34071168
C0K400,斗六,2021-11-06,23.7206,120.5411,0.350142
C0K410,北港,2021-11-06,23.574,120.2928,0.66165346
C0K420,西螺,2021-11-06,23.8004,120.4674,0.27448282
C0K430,褒忠,2021-11-06,23.6909,120.3036,0.77224654
C0K440,二崙,2021-11-06,23.7728,120.4089,0.3115238
C0K450,大埤,2021-11-06,23.6461,120.4315,0.3329713
C0K460,斗南,2021-11-06,23.6787,120.4784,0.35237283
C0K470,林內,2021-11-06,23.7487,120.6096,0.32795444
C0K480,莿桐,2021-11-06,23.7612,120.5024,0.27114445
C0K500,元長,2021-11-06,23.6498,120.315,0.7288005
C0K510,水林,2021-11-06,23.5729,120.246,0.60677135
C0K530,臺西,2021-11-06,23.7015,120.1976,0.6856159
C0K550,蔦松,2021-11-06,23.5143,120.2297,0.683589
C0K560,棋山,2021-11-06,23.6865,120.6034,0.36977643
C0K580,高鐵雲林,2021-11-06,23.7375,120.4179,0.34071168
C0K590,雲林東勢,2021-11-06,23.6742,120.2557,0.77224654
C0K600,箔子寮,2021-11-06,23.6197,120.14,0.6074644
C0M410,馬頭山,2021-11-06,23.3244,120.582,0.395226
C0M520,東後寮,2021-11-06,23.3699,120.2481,0.61314803
C0M640,中埔,2021-11-06,23.4254,120.5229,0.41021237
C0M650,朴子,2021-11-06,23.4346,120.239,0.6528221
C0M660,溪口,2021-11-06,23.6041,120.4036,0.72796047
C0M670,大林,2021-11-06,23.6006,120.4584,0.750814
C0M680,太保,2021-11-06,23.4551,120.3315,0.6508873
C0M690,水上,2021-11-06,23.4197,120.3889,0.7491587
C0M700,竹崎,2021-11-06,23.5262,120.5555,0.38833466
C0M710,東石,2021-11-06,23.4589,120.1539,0.683589
C0M720,番路,2021-11-06,23.4647,120.5542,0.4245713
C0M730,嘉義市東區,2021-11-06,23.4577,120.4605,0.7832484
C0M740,六腳,2021-11-06,23.4929,120.2906,0.6526416
C0M750,布袋,2021-11-06,23.3809,120.1678,0.6528221
C0M760,民雄,2021-11-06,23.5518,120.4285,0.7268909
C0M770,嘉義梅山,2021-11-06,23.5854,120.5556,0.36477578
C0M780,鹿草,2021-11-06,23.4113,120.3084,0.6345319
C0M790,新港,2021-11-06,23.5533,120.3457,0.65984374
C0M800,茶山,2021-11-06,23.2991,120.6648,0.41632912
C0M880,好美里,2021-11-06,23.3364,120.138,0.5735696
C0N010,鯤鯓國小,2021-11-06,23.1879,120.0889,0.6197314
C0N020,城西,2021-11-06,23.0568,120.0956,0.58686846
C0N030,四草,2021-11-06,23.0235,120.1116,0.7149613
C0N040,蘆竹溝,2021-11-06,23.2344,120.0961,0.6197314
C0N050,蚵寮,2021-11-06,23.301,120.1104,0.6197314
C0O810,曾文,2021-11-06,23.2197,120.4973,0.6938754
C0O830,北寮,2021-11-06,23.0796,120.495,0.1980884
C0O840,王爺宮,2021-11-06,23.2221,120.4009,0.6938754
C0O860,大內,2021-11-06,23.1188,120.3608,0.553415
C0O900,善化,2021-11-06,23.1129,120.2972,0.55169964
C0O930,玉井,2021-11-06,23.126,120.4605,0.6868536
C0O950,安南,2021-11-06,23.0767,120.1449,0.5187262
C0O960,崎頂,2021-11-06,22.9595,120.3693,0.20055331
C0O970,虎頭埤,2021-11-06,23.0214,120.3479,0.6709556
C0O980,新市,2021-11-06,23.0616,120.2982,0.55169964
C0O990,媽廟,2021-11-06,22.9917,120.2935,0.6332077
C0R150,三地門,2021-11-06,22.7099,120.6399,0.28320548
C0R160,鹽埔,2021-11-06,22.7396,120.5308,0.25700068
C0R170,屏東,2021-11-06,22.6603,120.4941,0.6223864
C0R190,赤山,2021-11-06,22.5923,120.6143,0.2363649
C0R220,潮州,2021-11-06,22.5344,120.54,0.19792189
C0R240,來義,2021-11-06,22.5273,120.6251,0.16916412
C0R260,春日,2021-11-06,22.3704,120.6283,0.1812918
C0R270,琉球嶼,2021-11-06,22.3322,120.3622,0.1781417
C0R280,檳榔,2021-11-06,22.0761,120.8368,0.049016763
C0R320,車城,2021-11-06,22.0744,120.7162,0.024673972
C0R341,牡丹,2021-11-06,22.13,120.7926,0.16648631
C0R350,貓鼻頭,2021-11-06,21.9218,120.7358,0.031168703
C0R470,高樹,2021-11-06,22.8264,120.6008,0.28293005
C0R480,長治,2021-11-06,22.6931,120.5426,0.25185794
C0R490,九如,2021-11-06,22.7405,120.4905,0.61933684
C0R520,崁頂,2021-11-06,22.5148,120.5069,0.43077862
C0R540,佳冬,2021-11-06,22.4195,120.5524,0.4371703
C0R550,新埤,2021-11-06,22.4679,120.5829,0.2410056
C0R560,新園,2021-11-06,22.5434,120.4616,0.42356682
C0R570,麟洛,2021-11-06,22.6508,120.5272,0.61933684
C0R580,南州,2021-11-06,22.4859,120.5027,0.4371703
C0R590,里港,2021-11-06,22.7792,120.4946,0.24249409
C0R620,墾雷,2021-11-06,21.9008,120.8553,0.031168703
C0R640,東港,2021-11-06,22.4625,120.4407,0.5424417
C0R650,竹田,2021-11-06,22.5849,120.5434,0.24835938
C0R660,枋寮,2021-11-06,22.3677,120.5906,0.21288414
C0R670,楓港,2021-11-06,22.1901,120.6922,0.21494499
C0R680,佳樂水,2021-11-06,21.9936,120.8616,0.027764684
C0R690,墾丁,2021-11-06,21.9668,120.8103,0.045467548
C0R700,枋山,2021-11-06,22.2468,120.6611,0.214945
C0R710,龍磐,2021-11-06,21.9317,120.8389,0.04611009
C0R720,旭海,2021-11-06,22.2054,120.8876,0.14272869
C0R730,大坪頂,2021-11-06,22.0246,120.6936,0.052052397
C0R740,獅子,2021-11-06,22.2016,120.7053,0.20164034
C0R760,南仁湖,2021-11-06,22.0847,120.8634,0.027705992
C0R770,保力,2021-11-06,22.0711,120.7641,0.040382523
C0R780,滿州,2021-11-06,22.0244,120.8399,0.032928508
C0R790,九棚,2021-11-06,22.142,120.8893,0.15629853
C0R800,丹路,2021-11-06,22.2045,120.751,0.17395245
C0R810,內獅,2021-11-06,22.3051,120.643,0.2016057
C0R830,高士,2021-11-06,22.1218,120.8368,0.014779325
C0R850,林邊,2021-11-06,22.4634,120.5339,0.43077862
C0R860,鼻頭,2021-11-06,22.1043,120.8979,0.27709174
C0R870,興海,2021-11-06,21.9752,120.8439,0.027764684
C0R880,後壁湖,2021-11-06,21.9457,120.7457,0.023229854
C0R890,山海,2021-11-06,21.9878,120.7091,0.024673972
C0R900,竹坑,2021-11-06,22.1385,120.7022,0.25266248
C0R910,下寮,2021-11-06,22.3929,120.5548,0.4371703
C0R920,塭仔,2021-11-06,22.4169,120.5197,0.44317314
C0R930,萬丹,2021-11-06,22.5885,120.4851,0.24835938
C0R940,加祿堂,2021-11-06,22.3363,120.6217,0.2016057
C0S710,鹿野,2021-11-06,22.9177,121.123,0.35865754
C0S730,綠島,2021-11-06,22.6672,121.4753,0.9219484
C0S740,池上,2021-11-06,23.1196,121.2095,0.5221273
C0S770,大溪山,2021-11-06,22.4785,120.9433,0.35409868
C0S790,金崙,2021-11-06,22.5381,120.9669,0.55861634
C0S810,東河,2021-11-06,22.9727,121.304,0.85948676
C0S830,長濱,2021-11-06,23.2868,121.412,0.3285293
C0S840,南田,2021-11-06,22.2797,120.8892,0.20583732
C0S890,關山,2021-11-06,23.0395,121.175,0.8576343
C0S900,蘭嶼高中,2021-11-06,22.0491,121.5121,0.42788252
C0S910,蘭嶼燈塔,2021-11-06,22.0812,121.5031,0.83125955
C0S920,金峰嘉蘭,2021-11-06,22.5948,120.9608,0.6370295
C0S930,延平,2021-11-06,22.9026,121.0841,0.7922965
C0S940,石寧山,2021-11-06,23.2238,121.4066,0.5898206
C0S950,七塊厝,2021-11-06,22.9545,121.2299,0.31156728
C0S960,香蘭,2021-11-06,22.5876,120.9934,0.5264454
C0S970,加津林,2021-11-06,22.4162,120.9269,0.19028379
C0S990,山豬窟,2021-11-06,22.3186,120.8574,0.07008508
C0SA00,歷坵,2021-11-06,22.521,120.8919,0.28088006
C0SA10,檳榔四格山,2021-11-06,22.81,121.1093,0.34398988
C0SA30,都歷,2021-11-06,23.0203,121.3236,0.91884714
C0SA40,瑞和,2021-11-06,22.9744,121.1567,0.8819089
C0SA60,知本（水試所）,2021-11-06,22.7024,121.0828,0.6691197
C0SA80,土,2021-11-06,22.4531,120.8876,0.6322808
C0SA90,達仁林場,2021-11-06,22.2643,120.824,0.032925356
C0T870,鯉魚潭,2021-11-06,23.9356,121.5089,0.5378666
C0T900,西林,2021-11-06,23.8119,121.4415,0.5230107
C0T960,光復,2021-11-06,23.6607,121.425,0.54354846
C0T9A0,月眉山,2021-11-06,23.8099,121.5398,0.28811756
C0T9D0,和中,2021-11-06,24.2668,121.741,0.9443037
C0T9E0,大坑,2021-11-06,23.8806,121.582,0.38027996
C0T9F0,水璉,2021-11-06,23.7971,121.5425,0.4637586
C0T9I0,豐濱,2021-11-06,23.5839,121.5148,0.52805895
C0T9M0,靜浦,2021-11-06,23.4552,121.495,0.515286
C0T9N0,富里,2021-11-06,23.1716,121.2494,0.2927111
C0U600,礁溪,2021-11-06,24.8175,121.7656,0.85895395
C0U650,玉蘭,2021-11-06,24.6753,121.5871,0.83931625
C0U750,龜山島,2021-11-06,24.8417,121.9531,0.7150942
C0U760,東澳,2021-11-06,24.522,121.8332,0.8899667
C0U770,南澳,2021-11-06,24.4493,121.8102,0.93326086
C0U780,五結,2021-11-06,24.6864,121.7979,0.9663646
C0U860,頭城,2021-11-06,24.8532,121.8308,0.8659727
C0U870,大礁溪,2021-11-06,24.791,121.675,0.45898438
C0U880,北關,2021-11-06,24.9072,121.8734,0.6682375
C0U890,三星,2021-11-06,24.6681,121.653,0.75025225
C0U900,內城,2021-11-06,24.7181,121.6877,0.83301187
C0U910,冬山,2021-11-06,24.6337,121.7937,0.9663646
C0U940,羅東,2021-11-06,24.6818,121.7493,0.96492946
C0U970,大福,2021-11-06,24.8006,121.8139,0.8734879
C0U990,員山,2021-11-06,24.7444,121.7225,0.96492946
C0UA00,土場,2021-11-06,24.5765,121.4953,0.58676654
C0UA80,大溪漁港,2021-11-06,24.9418,121.903,0.85895395
C0UA90,石城,2021-11-06,24.9804,121.9512,0.9330821
C0UB00,淡江大學蘭陽校園,2021-11-06,24.8232,121.7304,0.47481152
C0UB10,蘇澳,2021-11-06,24.5969,121.8571,0.9819207
C0UB20,壯圍,2021-11-06,24.7359,121.8163,0.96792597
C0V250,甲仙,2021-11-06,23.0801,120.5918,0.19995779
C0V260,月眉,2021-11-06,22.971,120.5399,0.19221273
C0V310,美濃,2021-11-06,22.8987,120.5192,0.7009455
C0V350,溪埔,2021-11-06,22.7386,120.4468,0.58488834
C0V360,內門,2021-11-06,22.9755,120.4668,0.6795703
C0V370,古亭坑,2021-11-06,22.8932,120.4019,0.6610372
C0V400,阿公店,2021-11-06,22.8042,120.3555,0.60554534
C0V440,鳳山,2021-11-06,22.6467,120.3561,0.5154259
C0V450,鳳森,2021-11-06,22.5451,120.3926,0.2173601
C0V490,新興,2021-11-06,22.6274,120.2988,0.5347823
C0V530,阿蓮,2021-11-06,22.8832,120.3275,0.7119142
C0V610,梓官,2021-11-06,22.7606,120.2672,0.64879405
C0V620,永安,2021-11-06,22.8231,120.2369,0.61981493
C0V630,茄萣,2021-11-06,22.9066,120.1826,0.6682568
C0V640,湖內,2021-11-06,22.8871,120.2445,0.65982604
C0V650,彌陀,2021-11-06,22.7838,120.2464,0.61981493
C0V660,岡山,2021-11-06,22.7971,120.295,0.64879405
C0V680,仁武,2021-11-06,22.7011,120.3477,0.5864652
C0V690,鼓山,2021-11-06,22.6233,120.2756,0.53478247
C0V700,三民,2021-11-06,22.645,120.3112,0.5347823
C0V710,苓雅,2021-11-06,22.6227,120.3307,0.5347823
C0V720,林園,2021-11-06,22.5077,120.3945,0.53478247
C0V730,大寮,2021-11-06,22.6056,120.3957,0.24955212
C0V740,旗山,2021-11-06,22.8886,120.4836,0.7004891
C0V750,路竹,2021-11-06,22.855,120.2594,0.6839713
C0V760,橋頭,2021-11-06,22.7578,120.3058,0.64279366
C0V770,大社,2021-11-06,22.7303,120.3466,0.5864652
C0V790,萬山,2021-11-06,22.9059,120.6881,0.41199833
C0V800,六龜,2021-11-06,22.9979,120.6336,0.21577147
C0V810,左營,2021-11-06,22.6749,120.2849,0.593035
C0V820,小林,2021-11-06,23.1484,120.6333,0.45018452
C0V840,鳳鼻頭,2021-11-06,22.5083,120.3591,0.5424417
C0V850,蚵仔寮,2021-11-06,22.7256,120.2527,0.6011328
C0V860,南寮,2021-11-06,22.7616,120.2339,0.6280086
C0V870,文安,2021-11-06,22.8025,120.2164,0.6280086
C0V880,興達,2021-11-06,22.8778,120.2127,0.6682568
C0V890,前鎮,2021-11-06,22.5718,120.3117,0.5424417
C0V900,汕尾,2021-11-06,22.4782,120.4151,0.5810218
C0X050,東河,2021-11-06,23.2966,120.3856,0.6716104
C0X060,下營,2021-11-06,23.2269,120.2563,0.5967168
C0X080,佳里,2021-11-06,23.173,120.1451,0.5735696
C0X100,臺南市北區,2021-11-06,23.0104,120.1942,0.6458133
C0X110,臺南市南區,2021-11-06,22.9612,120.1884,0.6393058
C0X120,麻豆,2021-11-06,23.1833,120.2486,0.57180333
C0X130,官田,2021-11-06,23.1932,120.3154,0.59054196
C0X140,西港,2021-11-06,23.1256,120.2031,0.62423545
C0X150,安定,2021-11-06,23.1026,120.2278,0.5566239
C0X160,仁德,2021-11-06,22.9683,120.2577,0.6395676
C0X170,關廟,2021-11-06,22.963,120.3278,0.6181177
C0X180,山上,2021-11-06,23.0757,120.3633,0.64677495
C0X190,安平,2021-11-06,22.9932,120.1522,0.645813
C0X200,左鎮,2021-11-06,23.0568,120.4085,0.6465234
C0X210,白河,2021-11-06,23.3475,120.4144,0.6742283
C0X220,學甲,2021-11-06,23.2304,120.1822,0.5718033
C0X230,鹽水,2021-11-06,23.2726,120.2476,0.61830276
C0X240,關子嶺,2021-11-06,23.3312,120.508,0.61003053
C0X250,新營,2021-11-06,23.3107,120.3167,0.5846353
C0X260,後壁,2021-11-06,23.3664,120.3623,0.6492214
C0X280,將軍,2021-11-06,23.215,120.1358,0.5735696
C0X290,北門,2021-11-06,23.2678,120.1255,0.5735696
C0X300,鹿寮,2021-11-06,23.386,120.4773,0.3158694
C0X310,七股,2021-11-06,23.1473,120.0863,0.6246597
C0X320,柳營,2021-11-06,23.2533,120.3753,0.67231727
C0Z020,明里,2021-11-06,23.2087,121.2623,0.3916879
C0Z061,玉里,2021-11-06,23.3215,121.3397,0.64370763
C0Z070,舞鶴,2021-11-06,23.4681,121.3741,0.48711997
C0Z080,富源,2021-11-06,23.5876,121.3782,0.48486787
C0Z100,東華,2021-11-06,23.8953,121.5498,0.5081393
C0Z150,吉安光華,2021-11-06,23.9309,121.5952,0.47189674
C0Z160,鳳林,2021-11-06,23.7461,121.4534,0.5465113
C0Z170,卓溪,2021-11-06,23.3443,121.3029,0.57981473
C0Z180,新城,2021-11-06,24.0395,121.6045,0.5364307
C0Z190,富世,2021-11-06,24.1474,121.6297,0.92369634
C0Z200,萬榮,2021-11-06,23.7092,121.4201,0.5378666
C0Z210,瑞穗,2021-11-06,23.5239,121.3902,0.5326855
C0Z230,和平,2021-11-06,24.3072,121.7701,0.9443037
C0Z270,蕃薯寮,2021-11-06,23.7384,121.5401,0.52669984
C0Z280,德武,2021-11-06,23.4743,121.4107,0.5376711
C0Z300,東里,2021-11-06,23.2685,121.3055,0.61252755
C0Z310,清水斷崖,2021-11-06,24.2183,121.6891,0.91888326
C0Z330,安通山,2021-11-06,23.2907,121.3485,0.2883598
