站號,站名,日期,lat,lon,BlastGRU-TW
466881,新北,2021-08-07,24.9593,121.52,0.006678057
466900,淡水,2021-08-07,25.164889,121.448906,0.0121042505
466920,臺北,2021-08-07,25.037658,121.514853,0.006629503
467441,高雄,2021-08-07,22.7304,120.3125,0.01676284
467480,嘉義,2021-08-07,23.495925,120.432906,0.04621045
467490,臺中,2021-08-07,24.145736,120.684075,0.08660493
C0A530,坪林,2021-08-07,24.938183,121.70975,0.034235705
C0A540,四堵,2021-08-07,24.8926,121.745736,0.0061692377
C0A550,泰平,2021-08-07,24.971197,121.823711,0.009341759
C0A890,雙溪,2021-08-07,25.036003,121.864242,0.009151427
C0A920,富貴角,2021-08-07,25.263783,121.565258,0.012502644
C0A931,三和,2021-08-07,25.233153,121.595236,0.02761156
C0AC70,信義,2021-08-07,25.037822,121.564597,0.006629503
C0AC80,文山,2021-08-07,25.00235,121.575728,0.0067540077
C0ACA0,新莊,2021-08-07,25.051478,121.446756,0.010281404
C0AH50,林口,2021-08-07,25.072181,121.38084,0.006933662
C0AH70,松山,2021-08-07,25.04871,121.55042,0.006629503
C0AH80,深坑,2021-08-07,25.002703,121.628328,0.0067540077
C0AJ60,六塊厝,2021-08-07,25.24,121.4481,0.011993866
C0AJ70,田寮,2021-08-07,25.2698,121.4886,0.012946875
