站號,站名,日期,lat,lon,BlastGRU-TW
466881,新北,2021-12-25,24.9593,121.52,0.00080198847
466900,淡水,2021-12-25,25.164889,121.448906,0.00072186266
466920,臺北,2021-12-25,25.037658,121.514853,0.00084370654
467441,高雄,2021-12-25,22.7304,120.3125,0.33208108
467480,嘉義,2021-12-25,23.495925,120.432906,0.0041189287
467490,臺中,2021-12-25,24.145736,120.684075,0.002114027
C0A540,四堵,2021-12-25,24.8926,121.745736,0.0015238147
C0A550,泰平,2021-12-25,24.971197,121.823711,0.0004897929
C0A560,福山,2021-12-25,24.776203,121.502811,0.0004949039
C0A931,三和,2021-12-25,25.233153,121.595236,0.0003012513
C0A940,金山,2021-12-25,25.223628,121.643967,0.00068843353
C0A950,鼻頭角,2021-12-25,25.129036,121.923372,0.00090551295
C0AD10,八里,2021-12-25,25.150211,121.403947,0.00072186266
C0AD30,蘆洲,2021-12-25,25.086594,121.472331,0.00087163976
C0AD40,土城,2021-12-25,24.973208,121.445169,0.00086296507
C0AI10,屈尺,2021-12-25,24.92184,121.54475,0.00074306317
C0AI20,白沙灣,2021-12-25,25.283128,121.519058,0.00066444196
C0AI30,三重,2021-12-25,25.057328,121.500629,0.00087163976
C0B010,七堵,2021-12-25,25.094819,121.71713,0.0005303058
C0B020,基隆嶼,2021-12-25,25.19141,121.78391,0.0005066548
