站號,站名,日期,lat,lon,BlastGRU-TW
466881,新北,2021-10-16,24.9593,121.52,0.040170174
466900,淡水,2021-10-16,25.164889,121.448906,0.051260438
466920,臺北,2021-10-16,25.037658,121.514853,0.03506108
467350,澎湖,2021-10-16,23.565503,119.563094,0.9270043
467410,臺南,2021-10-16,22.993239,120.204772,0.61185366
467420,永康,2021-10-16,23.038386,120.2367,0.591223
467790,墾丁雷達站,2021-10-16,21.948235,120.808028,0.99103445
C0A520,山佳,2021-10-16,24.974944,121.402008,0.060484003
C0A530,坪林,2021-10-16,24.938183,121.70975,0.98668736
C0A880,福隆,2021-10-16,25.017842,121.942083,0.98973423
C0A890,雙溪,2021-10-16,25.036003,121.864242,0.038138296
C0A920,富貴角,2021-10-16,25.263783,121.565258,0.10354794
C0AC80,文山,2021-10-16,25.00235,121.575728,0.05025867
C0ACA0,新莊,2021-10-16,25.051478,121.446756,0.038478136
C0AD00,三芝,2021-10-16,25.258131,121.501917,0.09330752
C0AH70,松山,2021-10-16,25.04871,121.55042,0.03506108
C0AH80,深坑,2021-10-16,25.002703,121.628328,0.05025867
C0AI00,五股,2021-10-16,25.07445,121.42728,0.44357112
C0AJ70,田寮,2021-10-16,25.2698,121.4886,0.059216812
