站號,站名,日期,lat,lon,BlastGRU-TW
466881,新北,2021-09-22,24.9593,121.52,0.2953402
466900,淡水,2021-09-22,25.164889,121.448906,0.35261127
466920,臺北,2021-09-22,25.037658,121.514853,0.2648818
467441,高雄,2021-09-22,22.7304,120.3125,0.054000195
467480,嘉義,2021-09-22,23.495925,120.432906,0.3164109
467490,臺中,2021-09-22,24.145736,120.684075,0.29484138
C0A530,坪林,2021-09-22,24.938183,121.70975,0.010680513
C0A540,四堵,2021-09-22,24.8926,121.745736,0.153823
C0A550,泰平,2021-09-22,24.971197,121.823711,0.030549517
C0A890,雙溪,2021-09-22,25.036003,121.864242,0.4396328
C0A920,富貴角,2021-09-22,25.263783,121.565258,0.5542546
C0A931,三和,2021-09-22,25.233153,121.595236,0.016984235
C0AC70,信義,2021-09-22,25.037822,121.564597,0.26488236
C0AC80,文山,2021-09-22,25.00235,121.575728,0.33903247
C0ACA0,新莊,2021-09-22,25.051478,121.446756,0.28328335
C0AH50,林口,2021-09-22,25.072181,121.38084,0.17771353
C0AH70,松山,2021-09-22,25.04871,121.55042,0.26488236
C0AH80,深坑,2021-09-22,25.002703,121.628328,0.33903247
C0AJ60,六塊厝,2021-09-22,25.24,121.4481,0.3389617
C0AJ70,田寮,2021-09-22,25.2698,121.4886,0.52984256
