站號,站名,日期,lat,lon,BlastGRU-TW
466881,新北,2022-04-03,24.9593,121.52,0.06485048
466900,淡水,2022-04-03,25.164889,121.448906,0.03452378
466920,臺北,2022-04-03,25.037658,121.514853,0.070254676
467441,高雄,2022-04-03,22.7304,120.3125,0.6104814
467480,嘉義,2022-04-03,23.495925,120.432906,0.79241353
467490,臺中,2022-04-03,24.145736,120.684075,0.39230034
C0A540,四堵,2022-04-03,24.8926,121.745736,0.02817432
C0A550,泰平,2022-04-03,24.971197,121.823711,0.035964414
C0A560,福山,2022-04-03,24.776203,121.502811,0.12707181
C0A931,三和,2022-04-03,25.233153,121.595236,0.025219468
C0A940,金山,2022-04-03,25.223628,121.643967,0.015463081
C0A950,鼻頭角,2022-04-03,25.129036,121.923372,0.104236275
C0AD10,八里,2022-04-03,25.150211,121.403947,0.03452378
C0AD30,蘆洲,2022-04-03,25.086594,121.472331,0.044935316
C0AD40,土城,2022-04-03,24.973208,121.445169,0.04322661
C0AI10,屈尺,2022-04-03,24.92184,121.54475,0.05762495
C0AI20,白沙灣,2022-04-03,25.283128,121.519058,0.016742606
C0AI30,三重,2022-04-03,25.057328,121.500629,0.044935316
C0B010,七堵,2022-04-03,25.094819,121.71713,0.031109866
C0B020,基隆嶼,2022-04-03,25.19141,121.78391,0.034298755
