站號,站名,日期,lat,lon,BlastGRU-TW
466881,新北,2022-06-11,24.9593,121.52,0.99927753
466900,淡水,2022-06-11,25.1649,121.4489,0.9995135
466920,臺北,2022-06-11,25.0377,121.5149,0.9992349
466940,基隆,2022-06-11,25.1333,121.7405,0.9992646
466990,花蓮,2022-06-11,23.9751,121.6133,0.047431163
467050,新屋,2022-06-11,25.0067,121.0475,0.99822277
467080,宜蘭,2022-06-11,24.764,121.7565,0.98464817
467270,田中,2022-06-11,23.8738,120.5813,0.9903209
467300,東吉島,2022-06-11,23.2569,119.6675,0.9469892
467350,澎湖,2022-06-11,23.5655,119.5631,0.98683786
467410,臺南,2022-06-11,22.9932,120.2048,0.040043667
467420,永康,2022-06-11,23.0384,120.2367,0.038533606
467441,高雄,2022-06-11,22.7304,120.3125,0.102640934
467480,嘉義,2022-06-11,23.4959,120.4329,0.94689125
467490,臺中,2022-06-11,24.1457,120.6841,0.90784234
467540,大武,2022-06-11,22.3557,120.9038,0.17267586
467571,新竹,2022-06-11,24.8279,121.0142,0.9978556
467590,恆春,2022-06-11,22.0039,120.7463,0.29476717
467610,成功,2022-06-11,23.0975,121.3734,0.41684276
467620,蘭嶼,2022-06-11,22.037,121.5583,0.99260926
467660,臺東,2022-06-11,22.7522,121.1546,0.25063926
467790,墾丁雷達站,2022-06-11,21.9482,120.808,0.37627828
C0A520,山佳,2022-06-11,24.9749,121.402,0.99942005
C0A530,坪林,2022-06-11,24.9382,121.7097,0.98538
C0A540,四堵,2022-06-11,24.8926,121.7457,0.9097252
C0A550,泰平,2022-06-11,24.9712,121.8237,0.12634696
C0A560,福山,2022-06-11,24.7762,121.5028,0.06518218
C0A570,桶後,2022-06-11,24.8482,121.598,0.9468312
C0A640,石碇,2022-06-11,24.994,121.6629,0.98637724
C0A650,火燒寮,2022-06-11,25.0027,121.7429,0.98666984
C0A660,瑞芳,2022-06-11,25.1132,121.8011,0.9839194
C0A770,科教館,2022-06-11,25.0964,121.5165,0.9993876
C0A860,大坪,2022-06-11,25.1659,121.633,0.9686154
C0A880,福隆,2022-06-11,25.0178,121.9421,0.98232687
C0A890,雙溪,2022-06-11,25.036,121.8642,0.9993457
C0A920,富貴角,2022-06-11,25.2638,121.5653,0.9993125
C0A931,三和,2022-06-11,25.2332,121.5952,0.9888308
C0A940,金山,2022-06-11,25.2236,121.644,0.99942994
C0A950,鼻頭角,2022-06-11,25.129,121.9234,0.9823065
C0A970,三貂角,2022-06-11,25.0076,122.0021,0.984168
C0A980,社子,2022-06-11,25.1095,121.4697,0.99937093
C0A9C0,天母,2022-06-11,25.1175,121.5372,0.99941194
C0A9F0,內湖,2022-06-11,25.0794,121.5755,0.9992349
C0AC60,三峽,2022-06-11,24.939,121.3697,0.9992934
C0AC70,信義,2022-06-11,25.0378,121.5646,0.9992349
C0AC80,文山,2022-06-11,25.0023,121.5757,0.999317
C0ACA0,新莊,2022-06-11,25.0515,121.4468,0.99943846
C0AD00,三芝,2022-06-11,25.2581,121.5019,0.99938446
C0AD10,八里,2022-06-11,25.1502,121.4039,0.9995135
C0AD30,蘆洲,2022-06-11,25.0866,121.4723,0.9993876
C0AD40,土城,2022-06-11,24.9732,121.4452,0.99940044
C0AD50,鶯歌,2022-06-11,24.9515,121.3463,0.9994871
C0AG80,中和,2022-06-11,24.9916,121.4918,0.9992349
C0AH00,汐止,2022-06-11,25.0669,121.6588,0.9992886
C0AH10,永和,2022-06-11,25.0113,121.5081,0.9992075
C0AH40,平等,2022-06-11,25.1291,121.5771,0.94617474
C0AH50,林口,2022-06-11,25.0722,121.3808,0.9163165
C0AH70,松山,2022-06-11,25.0487,121.5504,0.9992349
C0AH80,深坑,2022-06-11,25.0027,121.6283,0.9993071
C0AI00,五股,2022-06-11,25.0744,121.4273,0.996439
C0AI10,屈尺,2022-06-11,24.9218,121.5447,0.999317
C0AI20,白沙灣,2022-06-11,25.2831,121.5191,0.99944514
C0AI30,三重,2022-06-11,25.0573,121.5006,0.9993876
C0AI40,石牌,2022-06-11,25.1156,121.5131,0.99940044
C0AJ20,野柳,2022-06-11,25.207,121.69,0.9992886
C0AJ30,淡水觀海,2022-06-11,25.1846,121.4086,0.99951226
C0AJ40,石門,2022-06-11,25.2737,121.6012,0.99917597
C0AJ50,水湳洞,2022-06-11,25.1237,121.8622,0.9992886
C0AJ60,六塊厝,2022-06-11,25.24,121.4481,0.99951226
C0AJ70,田寮,2022-06-11,25.2698,121.4886,0.9994493
C0AJ80,板橋,2022-06-11,25.0107,121.4489,0.99940044
C0AJ90,澳底,2022-06-11,25.0552,121.9253,0.98232687
C0B010,七堵,2022-06-11,25.0948,121.7171,0.9993228
C0B020,基隆嶼,2022-06-11,25.1914,121.7839,0.9992886
C0B040,大武崙,2022-06-11,25.1667,121.707,0.9993228
C0B050,八斗子,2022-06-11,25.1448,121.7917,0.9992422
C0B060,暖暖,2022-06-11,25.0957,121.7403,0.99936044
C0C460,復興,2022-06-11,24.8202,121.3523,0.9528966
C0C480,桃園,2022-06-11,24.9924,121.3232,0.9970913
C0C490,八德,2022-06-11,24.9287,121.2833,0.99726903
C0C590,觀音,2022-06-11,25.0271,121.1533,0.9995016
C0C620,蘆竹,2022-06-11,25.0843,121.2658,0.9995109
C0C630,大溪,2022-06-11,24.8829,121.2655,0.9970429
C0C650,平鎮,2022-06-11,24.8975,121.2146,0.9967476
C0C660,楊梅,2022-06-11,24.9124,121.143,0.996967
C0C670,龍潭,2022-06-11,24.8701,121.2214,0.9934375
C0C680,龜山,2022-06-11,25.0285,121.3866,0.9311887
C0C700,中壢,2022-06-11,24.9777,121.2564,0.9969301
C0C710,大溪永福,2022-06-11,24.8929,121.325,0.9971809
C0C720,竹圍,2022-06-11,25.1127,121.2398,0.9995135
C0C730,中大臨海站,2022-06-11,24.9661,121.0086,0.9982234
C0C740,觀音工業區,2022-06-11,25.0648,121.1149,0.99745005
C0C750,新興坑尾,2022-06-11,25.0061,121.0971,0.9971157
C0D430,峨眉,2022-06-11,24.6905,121.0172,0.9976632
C0D480,打鐵坑,2022-06-11,24.8497,121.1508,0.9934711
C0D540,橫山,2022-06-11,24.7112,121.1169,0.99449706
C0D560,竹東,2022-06-11,24.7671,121.0579,0.9974924
C0D580,寶山,2022-06-11,24.735,121.0252,0.99514127
C0D590,新豐,2022-06-11,24.8707,120.9772,0.99649906
C0D650,湖口,2022-06-11,24.9048,121.0436,0.998161
C0D660,新竹市東區,2022-06-11,24.7987,120.9869,0.99778885
C0D670,海天一線,2022-06-11,24.832,120.9144,0.99772054
C0D680,香山濕地,2022-06-11,24.7836,120.915,0.99768585
C0D690,外湖,2022-06-11,24.9177,120.9687,0.9982234
C0D700,關西,2022-06-11,24.7977,121.1732,0.9971233
C0E420,竹南,2022-06-11,24.709,120.8889,0.99759513
C0E430,南庄,2022-06-11,24.6018,121.0002,0.99454165
C0E520,大湖,2022-06-11,24.4149,120.8709,0.9924314
C0E540,後龍,2022-06-11,24.6065,120.7839,0.97892994
C0E550,明德,2022-06-11,24.5835,120.8854,0.9914809
C0E590,通霄,2022-06-11,24.4719,120.7046,0.96724004
C0E730,頭份,2022-06-11,24.6882,120.9122,0.99759513
C0E740,造橋,2022-06-11,24.6371,120.8648,0.993669
C0E750,苗栗,2022-06-11,24.5646,120.8246,0.9775735
C0E780,銅鑼,2022-06-11,24.4897,120.7909,0.9911664
C0E791,卓蘭,2022-06-11,24.3126,120.8244,0.9382122
C0E810,西湖,2022-06-11,24.5629,120.7485,0.9782681
C0E820,獅潭,2022-06-11,24.5391,120.92,0.9915564
C0E830,苑裡,2022-06-11,24.4397,120.6531,0.92645884
C0E850,大河,2022-06-11,24.6181,120.9486,0.9910432
C0E870,高鐵苗栗,2022-06-11,24.6073,120.8261,0.97874904
C0E910,海埔,2022-06-11,24.6488,120.7724,0.9929808
C0E920,通霄漁港,2022-06-11,24.4986,120.6739,0.9665631
C0E930,龍鳳,2022-06-11,24.7,120.8591,0.99387205
C0F000,大肚,2022-06-11,24.153,120.5721,0.9855626
C0F0B0,石岡,2022-06-11,24.2761,120.7776,0.98585635
C0F850,東勢,2022-06-11,24.2464,120.833,0.8949348
C0F930,大甲,2022-06-11,24.3477,120.6404,0.9223164
C0F970,大坑,2022-06-11,24.1731,120.7223,0.9250101
C0F9A0,中竹林,2022-06-11,24.1036,120.7511,0.9492311
C0F9I0,神岡,2022-06-11,24.2725,120.6583,0.98218334
C0F9K0,大安,2022-06-11,24.3451,120.588,0.89082533
C0F9L0,后里,2022-06-11,24.3104,120.7297,0.97626984
C0F9M0,豐原,2022-06-11,24.2543,120.7207,0.97946006
C0F9N0,大里,2022-06-11,24.0925,120.7014,0.91767794
C0F9O0,潭子,2022-06-11,24.2131,120.7039,0.97726184
C0F9P0,清水,2022-06-11,24.3123,120.5622,0.86978954
C0F9Q0,外埔,2022-06-11,24.3478,120.7057,0.9848784
C0F9R0,龍井,2022-06-11,24.1845,120.529,0.8728208
C0F9S0,烏日,2022-06-11,24.1071,120.6241,0.98107487
C0F9T0,西屯,2022-06-11,24.1795,120.6413,0.922433
C0F9U0,南屯,2022-06-11,24.137,120.638,0.91767794
C0F9X0,大雅(中科園區),2022-06-11,24.2153,120.6244,0.9309011
C0FA10,松柏,2022-06-11,24.4291,120.6175,0.91816485
C0FA20,溫寮,2022-06-11,24.3722,120.5831,0.9181647
C0FA30,梧棲,2022-06-11,24.256,120.5234,0.8728208
C0FA40,臺中電廠,2022-06-11,24.2146,120.4907,0.8728208
C0FA50,霧峰,2022-06-11,24.0419,120.6995,0.917463
C0G620,芬園,2022-06-11,24.0157,120.6213,0.98162866
C0G640,鹿港,2022-06-11,24.0753,120.4305,0.97450304
C0G650,員林,2022-06-11,23.9465,120.5856,0.98342663
C0G660,溪湖,2022-06-11,23.9484,120.4791,0.98594046
C0G720,溪州,2022-06-11,23.8516,120.4991,0.9912483
C0G730,二林,2022-06-11,23.9033,120.3761,0.97304195
C0G740,大城,2022-06-11,23.8525,120.3209,0.5954178
C0G770,福興,2022-06-11,24.0413,120.4377,0.97450304
C0G780,秀水,2022-06-11,24.0341,120.5039,0.97912455
C0G800,埔鹽,2022-06-11,24.0004,120.4317,0.97450304
C0G810,埔心,2022-06-11,23.9476,120.5255,0.98595756
C0G820,田尾,2022-06-11,23.9017,120.5094,0.9860094
C0G830,埤頭,2022-06-11,23.866,120.4528,0.99084
C0G840,北斗,2022-06-11,23.8776,120.5142,0.9860094
C0G860,社頭,2022-06-11,23.8976,120.5862,0.9833497
C0G870,芳苑,2022-06-11,23.9223,120.32,0.58580333
C0G880,二水,2022-06-11,23.8107,120.6173,0.9902768
C0G890,伸港,2022-06-11,24.1489,120.4844,0.8795823
C0G900,線西,2022-06-11,24.1434,120.4435,0.89481497
C0G910,花壇,2022-06-11,24.0321,120.5495,0.9808007
C0G920,永靖,2022-06-11,23.9247,120.5475,0.9860094
C0G940,竹塘,2022-06-11,23.8483,120.3868,0.97199374
C0G950,防潮門,2022-06-11,24.1835,120.4871,0.8635828
C0G960,福寶,2022-06-11,24.0443,120.3814,0.97279197
C0G970,三豐,2022-06-11,23.882,120.2895,0.58580333
C0H890,埔里,2022-06-11,23.9722,120.9524,0.90181965
C0H950,中寮,2022-06-11,23.8844,120.7664,0.9798476
C0H960,草屯,2022-06-11,23.9737,120.6809,0.9881955
C0I110,竹山,2022-06-11,23.7612,120.6882,0.9833253
C0I360,水里,2022-06-11,23.8126,120.8498,0.9685196
C0I380,集集,2022-06-11,23.8282,120.8015,0.9705935
C0I410,名間,2022-06-11,23.8371,120.7014,0.9874594
C0I420,國姓,2022-06-11,24.0378,120.8551,0.9751083
C0I460,南投,2022-06-11,23.9115,120.6873,0.9869876
C0K250,崙背,2022-06-11,23.7555,120.3189,0.721701
C0K280,四湖,2022-06-11,23.6304,120.2271,0.76142937
C0K291,宜梧,2022-06-11,23.5363,120.1693,0.15545619
C0K330,虎尾,2022-06-11,23.7192,120.442,0.9706043
C0K390,土庫,2022-06-11,23.679,120.3956,0.9680663
C0K400,斗六,2022-06-11,23.7206,120.5411,0.98616916
C0K410,北港,2022-06-11,23.574,120.2928,0.1487191
C0K420,西螺,2022-06-11,23.8004,120.4674,0.9903561
C0K430,褒忠,2022-06-11,23.6909,120.3036,0.6183233
C0K440,二崙,2022-06-11,23.7728,120.4089,0.97399443
C0K450,大埤,2022-06-11,23.6461,120.4315,0.96883535
C0K460,斗南,2022-06-11,23.6787,120.4784,0.9846963
C0K470,林內,2022-06-11,23.7487,120.6096,0.98845977
C0K480,莿桐,2022-06-11,23.7612,120.5024,0.99053025
C0K500,元長,2022-06-11,23.6498,120.315,0.7228282
C0K510,水林,2022-06-11,23.5729,120.246,0.16146053
C0K530,臺西,2022-06-11,23.7015,120.1976,0.7080268
C0K550,蔦松,2022-06-11,23.5143,120.2297,0.1605758
C0K560,棋山,2022-06-11,23.6865,120.6034,0.98930764
C0K580,高鐵雲林,2022-06-11,23.7375,120.4179,0.9680663
C0K590,雲林東勢,2022-06-11,23.6742,120.2557,0.6183233
C0K600,箔子寮,2022-06-11,23.6197,120.14,0.1560015
C0M410,馬頭山,2022-06-11,23.3244,120.582,0.96411276
C0M520,東後寮,2022-06-11,23.3699,120.2481,0.10206609
C0M640,中埔,2022-06-11,23.4254,120.5229,0.9881219
C0M650,朴子,2022-06-11,23.4346,120.239,0.16124827
C0M660,溪口,2022-06-11,23.6041,120.4036,0.9037135
C0M670,大林,2022-06-11,23.6006,120.4584,0.95444685
C0M680,太保,2022-06-11,23.4551,120.3315,0.14357871
C0M690,水上,2022-06-11,23.4197,120.3889,0.95304334
C0M700,竹崎,2022-06-11,23.5262,120.5555,0.988558
C0M710,東石,2022-06-11,23.4589,120.1539,0.1605758
C0M720,番路,2022-06-11,23.4647,120.5542,0.9836307
C0M730,嘉義市東區,2022-06-11,23.4577,120.4605,0.95933425
C0M740,六腳,2022-06-11,23.4929,120.2906,0.13884988
C0M750,布袋,2022-06-11,23.3809,120.1678,0.16124827
C0M760,民雄,2022-06-11,23.5518,120.4285,0.9182632
C0M770,嘉義梅山,2022-06-11,23.5854,120.5556,0.9897895
C0M780,鹿草,2022-06-11,23.4113,120.3084,0.18781376
C0M790,新港,2022-06-11,23.5533,120.3457,0.15434462
C0M800,茶山,2022-06-11,23.2991,120.6648,0.96991193
C0M880,好美里,2022-06-11,23.3364,120.138,0.12540962
C0N010,鯤鯓國小,2022-06-11,23.1879,120.0889,0.19369265
C0N020,城西,2022-06-11,23.0568,120.0956,0.112979084
C0N030,四草,2022-06-11,23.0235,120.1116,0.074693434
C0N040,蘆竹溝,2022-06-11,23.2344,120.0961,0.19369265
C0N050,蚵寮,2022-06-11,23.301,120.1104,0.19369265
C0O810,曾文,2022-06-11,23.2197,120.4973,0.8763472
C0O830,北寮,2022-06-11,23.0796,120.495,0.8244004
C0O840,王爺宮,2022-06-11,23.2221,120.4009,0.8763472
C0O860,大內,2022-06-11,23.1188,120.3608,0.20059054
C0O900,善化,2022-06-11,23.1129,120.2972,0.058392763
C0O930,玉井,2022-06-11,23.126,120.4605,0.7743552
C0O950,安南,2022-06-11,23.0767,120.1449,0.04728261
C0O960,崎頂,2022-06-11,22.9595,120.3693,0.52407455
C0O970,虎頭埤,2022-06-11,23.0214,120.3479,0.14198494
C0O980,新市,2022-06-11,23.0616,120.2982,0.058392763
C0O990,媽廟,2022-06-11,22.9917,120.2935,0.05391479
C0R150,三地門,2022-06-11,22.7099,120.6399,0.049295183
C0R160,鹽埔,2022-06-11,22.7396,120.5308,0.06927845
C0R170,屏東,2022-06-11,22.6603,120.4941,0.11196159
C0R190,赤山,2022-06-11,22.5923,120.6143,0.07424054
C0R220,潮州,2022-06-11,22.5344,120.54,0.07482979
C0R240,來義,2022-06-11,22.5273,120.6251,0.11393879
C0R260,春日,2022-06-11,22.3704,120.6283,0.10451239
C0R270,琉球嶼,2022-06-11,22.3322,120.3622,0.10678706
C0R280,檳榔,2022-06-11,22.0761,120.8368,0.9492871
C0R320,車城,2022-06-11,22.0744,120.7162,0.2379802
C0R341,牡丹,2022-06-11,22.13,120.7926,0.28424206
C0R350,貓鼻頭,2022-06-11,21.9218,120.7358,0.3192406
C0R470,高樹,2022-06-11,22.8264,120.6008,0.04726318
C0R480,長治,2022-06-11,22.6931,120.5426,0.07371113
C0R490,九如,2022-06-11,22.7405,120.4905,0.118210696
C0R520,崁頂,2022-06-11,22.5148,120.5069,0.13824745
C0R540,佳冬,2022-06-11,22.4195,120.5524,0.13153104
C0R550,新埤,2022-06-11,22.4679,120.5829,0.07051049
C0R560,新園,2022-06-11,22.5434,120.4616,0.13824745
C0R570,麟洛,2022-06-11,22.6508,120.5272,0.118210696
C0R580,南州,2022-06-11,22.4859,120.5027,0.13153104
C0R590,里港,2022-06-11,22.7792,120.4946,0.08054328
C0R620,墾雷,2022-06-11,21.9008,120.8553,0.3192406
C0R640,東港,2022-06-11,22.4625,120.4407,0.12457036
C0R650,竹田,2022-06-11,22.5849,120.5434,0.06791998
C0R660,枋寮,2022-06-11,22.3677,120.5906,0.07093664
C0R670,楓港,2022-06-11,22.1901,120.6922,0.10055132
C0R680,佳樂水,2022-06-11,21.9936,120.8616,0.27370018
C0R690,墾丁,2022-06-11,21.9668,120.8103,0.96278536
C0R700,枋山,2022-06-11,22.2468,120.6611,0.10055132
C0R710,龍磐,2022-06-11,21.9317,120.8389,0.65393686
C0R720,旭海,2022-06-11,22.2054,120.8876,0.92578626
C0R730,大坪頂,2022-06-11,22.0246,120.6936,0.7596921
C0R740,獅子,2022-06-11,22.2016,120.7053,0.105613835
C0R760,南仁湖,2022-06-11,22.0847,120.8634,0.98587155
C0R770,保力,2022-06-11,22.0711,120.7641,0.48347118
C0R780,滿州,2022-06-11,22.0244,120.8399,0.3457298
C0R790,九棚,2022-06-11,22.142,120.8893,0.88038486
C0R800,丹路,2022-06-11,22.2045,120.751,0.13993423
C0R810,內獅,2022-06-11,22.3051,120.643,0.09710309
C0R830,高士,2022-06-11,22.1218,120.8368,0.9907885
C0R850,林邊,2022-06-11,22.4634,120.5339,0.13824745
C0R860,鼻頭,2022-06-11,22.1043,120.8979,0.6818178
C0R870,興海,2022-06-11,21.9752,120.8439,0.27370018
C0R880,後壁湖,2022-06-11,21.9457,120.7457,0.22307307
C0R890,山海,2022-06-11,21.9878,120.7091,0.2379802
C0R900,竹坑,2022-06-11,22.1385,120.7022,0.13934293
C0R910,下寮,2022-06-11,22.3929,120.5548,0.13153104
C0R920,塭仔,2022-06-11,22.4169,120.5197,0.124058954
C0R930,萬丹,2022-06-11,22.5885,120.4851,0.06791998
C0R940,加祿堂,2022-06-11,22.3363,120.6217,0.09710309
C0S710,鹿野,2022-06-11,22.9177,121.123,0.7217533
C0S730,綠島,2022-06-11,22.6672,121.4753,0.54941946
C0S740,池上,2022-06-11,23.1196,121.2095,0.5396757
C0S770,大溪山,2022-06-11,22.4785,120.9433,0.9723141
C0S790,金崙,2022-06-11,22.5381,120.9669,0.81930107
C0S810,東河,2022-06-11,22.9727,121.304,0.4705607
C0S830,長濱,2022-06-11,23.2868,121.412,0.60563016
C0S840,南田,2022-06-11,22.2797,120.8892,0.3580722
C0S890,關山,2022-06-11,23.0395,121.175,0.7253894
C0S900,蘭嶼高中,2022-06-11,22.0491,121.5121,0.9889466
C0S910,蘭嶼燈塔,2022-06-11,22.0812,121.5031,0.9922268
C0S920,金峰嘉蘭,2022-06-11,22.5948,120.9608,0.35629147
C0S930,延平,2022-06-11,22.9026,121.0841,0.48895332
C0S940,石寧山,2022-06-11,23.2238,121.4066,0.39825082
C0S950,七塊厝,2022-06-11,22.9545,121.2299,0.80693907
C0S960,香蘭,2022-06-11,22.5876,120.9934,0.20819876
C0S970,加津林,2022-06-11,22.4162,120.9269,0.18415143
C0S990,山豬窟,2022-06-11,22.3186,120.8574,0.968565
C0SA00,歷坵,2022-06-11,22.521,120.8919,0.9748433
C0SA10,檳榔四格山,2022-06-11,22.81,121.1093,0.96005845
C0SA30,都歷,2022-06-11,23.0203,121.3236,0.5032651
C0SA40,瑞和,2022-06-11,22.9744,121.1567,0.69681215
C0SA60,知本（水試所）,2022-06-11,22.7024,121.0828,0.17245306
C0SA80,土,2022-06-11,22.4531,120.8876,0.4962658
C0SA90,達仁林場,2022-06-11,22.2643,120.824,0.8800971
C0T870,鯉魚潭,2022-06-11,23.9356,121.5089,0.055140205
C0T900,西林,2022-06-11,23.8119,121.4415,0.06440199
C0T960,光復,2022-06-11,23.6607,121.425,0.0444213
C0T9A0,月眉山,2022-06-11,23.8099,121.5398,0.24352191
C0T9D0,和中,2022-06-11,24.2668,121.741,0.97130024
C0T9E0,大坑,2022-06-11,23.8806,121.582,0.15068945
C0T9F0,水璉,2022-06-11,23.7971,121.5425,0.101169445
C0T9I0,豐濱,2022-06-11,23.5839,121.5148,0.046996713
C0T9M0,靜浦,2022-06-11,23.4552,121.495,0.039158348
C0T9N0,富里,2022-06-11,23.1716,121.2494,0.91893566
C0U600,礁溪,2022-06-11,24.8175,121.7656,0.98468214
C0U650,玉蘭,2022-06-11,24.6753,121.5871,0.92980784
C0U750,龜山島,2022-06-11,24.8417,121.9531,0.1133457
C0U760,東澳,2022-06-11,24.522,121.8332,0.026426649
C0U770,南澳,2022-06-11,24.4493,121.8102,0.017400073
C0U780,五結,2022-06-11,24.6864,121.7979,0.9886069
C0U860,頭城,2022-06-11,24.8532,121.8308,0.98464817
C0U870,大礁溪,2022-06-11,24.791,121.675,0.15809454
C0U880,北關,2022-06-11,24.9072,121.8734,0.99935
C0U890,三星,2022-06-11,24.6681,121.653,0.9862712
C0U900,內城,2022-06-11,24.7181,121.6877,0.98494536
C0U910,冬山,2022-06-11,24.6337,121.7937,0.9886069
C0U940,羅東,2022-06-11,24.6818,121.7493,0.9888626
C0U970,大福,2022-06-11,24.8006,121.8139,0.98467386
C0U990,員山,2022-06-11,24.7444,121.7225,0.9888626
C0UA00,土場,2022-06-11,24.5765,121.4953,0.3697019
C0UA80,大溪漁港,2022-06-11,24.9418,121.903,0.98468214
C0UA90,石城,2022-06-11,24.9804,121.9512,0.98248804
C0UB00,淡江大學蘭陽校園,2022-06-11,24.8232,121.7304,0.5075777
C0UB10,蘇澳,2022-06-11,24.5969,121.8571,0.023199812
C0UB20,壯圍,2022-06-11,24.7359,121.8163,0.98816204
C0V250,甲仙,2022-06-11,23.0801,120.5918,0.97216845
C0V260,月眉,2022-06-11,22.971,120.5399,0.62646306
C0V310,美濃,2022-06-11,22.8987,120.5192,0.26587692
C0V350,溪埔,2022-06-11,22.7386,120.4468,0.11416045
C0V360,內門,2022-06-11,22.9755,120.4668,0.57302684
C0V370,古亭坑,2022-06-11,22.8932,120.4019,0.30134425
C0V400,阿公店,2022-06-11,22.8042,120.3555,0.13201922
C0V440,鳳山,2022-06-11,22.6467,120.3561,0.14788443
C0V450,鳳森,2022-06-11,22.5451,120.3926,0.09112954
C0V490,新興,2022-06-11,22.6274,120.2988,0.13195613
C0V530,阿蓮,2022-06-11,22.8832,120.3275,0.038567364
C0V610,梓官,2022-06-11,22.7606,120.2672,0.07228564
C0V620,永安,2022-06-11,22.8231,120.2369,0.054059513
C0V630,茄萣,2022-06-11,22.9066,120.1826,0.029487818
C0V640,湖內,2022-06-11,22.8871,120.2445,0.030722618
C0V650,彌陀,2022-06-11,22.7838,120.2464,0.054059513
C0V660,岡山,2022-06-11,22.7971,120.295,0.07228564
C0V680,仁武,2022-06-11,22.7011,120.3477,0.10909824
C0V690,鼓山,2022-06-11,22.6233,120.2756,0.13195613
C0V700,三民,2022-06-11,22.645,120.3112,0.13195613
C0V710,苓雅,2022-06-11,22.6227,120.3307,0.13195613
C0V720,林園,2022-06-11,22.5077,120.3945,0.13195613
C0V730,大寮,2022-06-11,22.6056,120.3957,0.07468144
C0V740,旗山,2022-06-11,22.8886,120.4836,0.28490424
C0V750,路竹,2022-06-11,22.855,120.2594,0.065807015
C0V760,橋頭,2022-06-11,22.7578,120.3058,0.07598901
C0V770,大社,2022-06-11,22.7303,120.3466,0.10909824
C0V790,萬山,2022-06-11,22.9059,120.6881,0.9685321
C0V800,六龜,2022-06-11,22.9979,120.6336,0.43221533
C0V810,左營,2022-06-11,22.6749,120.2849,0.102640934
C0V820,小林,2022-06-11,23.1484,120.6333,0.96093905
C0V840,鳳鼻頭,2022-06-11,22.5083,120.3591,0.12457036
C0V850,蚵仔寮,2022-06-11,22.7256,120.2527,0.0977166
C0V860,南寮,2022-06-11,22.7616,120.2339,0.051616363
C0V870,文安,2022-06-11,22.8025,120.2164,0.051616363
C0V880,興達,2022-06-11,22.8778,120.2127,0.029487818
C0V890,前鎮,2022-06-11,22.5718,120.3117,0.12457036
C0V900,汕尾,2022-06-11,22.4782,120.4151,0.11401628
C0X050,東河,2022-06-11,23.2966,120.3856,0.5783552
C0X060,下營,2022-06-11,23.2269,120.2563,0.13619195
C0X080,佳里,2022-06-11,23.173,120.1451,0.12540962
C0X100,臺南市北區,2022-06-11,23.0104,120.1942,0.03673801
C0X110,臺南市南區,2022-06-11,22.9612,120.1884,0.038533606
C0X120,麻豆,2022-06-11,23.1833,120.2486,0.13007388
C0X130,官田,2022-06-11,23.1932,120.3154,0.14768079
C0X140,西港,2022-06-11,23.1256,120.2031,0.104594804
C0X150,安定,2022-06-11,23.1026,120.2278,0.04592159
C0X160,仁德,2022-06-11,22.9683,120.2577,0.051304776
C0X170,關廟,2022-06-11,22.963,120.3278,0.06307627
C0X180,山上,2022-06-11,23.0757,120.3633,0.54100424
C0X190,安平,2022-06-11,22.9932,120.1522,0.03673801
C0X200,左鎮,2022-06-11,23.0568,120.4085,0.5085209
C0X210,白河,2022-06-11,23.3475,120.4144,0.63597524
C0X220,學甲,2022-06-11,23.2304,120.1822,0.13007392
C0X230,鹽水,2022-06-11,23.2726,120.2476,0.11489507
C0X240,關子嶺,2022-06-11,23.3312,120.508,0.94198877
C0X250,新營,2022-06-11,23.3107,120.3167,0.11585698
C0X260,後壁,2022-06-11,23.3664,120.3623,0.29491916
C0X280,將軍,2022-06-11,23.215,120.1358,0.12540962
C0X290,北門,2022-06-11,23.2678,120.1255,0.12540962
C0X300,鹿寮,2022-06-11,23.386,120.4773,0.9873565
C0X310,七股,2022-06-11,23.1473,120.0863,0.1675168
C0X320,柳營,2022-06-11,23.2533,120.3753,0.60732704
C0Z020,明里,2022-06-11,23.2087,121.2623,0.52242094
C0Z061,玉里,2022-06-11,23.3215,121.3397,0.35565305
C0Z070,舞鶴,2022-06-11,23.4681,121.3741,0.05187737
C0Z080,富源,2022-06-11,23.5876,121.3782,0.05315483
C0Z100,東華,2022-06-11,23.8953,121.5498,0.03884612
C0Z150,吉安光華,2022-06-11,23.9309,121.5952,0.03662912
C0Z160,鳳林,2022-06-11,23.7461,121.4534,0.042420495
C0Z170,卓溪,2022-06-11,23.3443,121.3029,0.38349217
C0Z180,新城,2022-06-11,24.0395,121.6045,0.049858995
C0Z190,富世,2022-06-11,24.1474,121.6297,0.9415245
C0Z200,萬榮,2022-06-11,23.7092,121.4201,0.055140205
C0Z210,瑞穗,2022-06-11,23.5239,121.3902,0.043741584
C0Z230,和平,2022-06-11,24.3072,121.7701,0.97130024
C0Z270,蕃薯寮,2022-06-11,23.7384,121.5401,0.04315082
C0Z280,德武,2022-06-11,23.4743,121.4107,0.042583767
C0Z300,東里,2022-06-11,23.2685,121.3055,0.3688085
C0Z310,清水斷崖,2022-06-11,24.2183,121.6891,0.95366424
C0Z330,安通山,2022-06-11,23.2907,121.3485,0.808515
