站號,站名,日期,lat,lon,BlastGRU-TW
466881,新北,2022-06-07,24.9593,121.52,0.9742204
466900,淡水,2022-06-07,25.1649,121.4489,0.98640966
466920,臺北,2022-06-07,25.0377,121.5149,0.9668422
466940,基隆,2022-06-07,25.1333,121.7405,0.9285261
466990,花蓮,2022-06-07,23.9751,121.6133,0.006624157
467050,新屋,2022-06-07,25.0067,121.0475,0.4153421
467080,宜蘭,2022-06-07,24.764,121.7565,0.13961084
467270,田中,2022-06-07,23.8738,120.5813,0.6724709
467300,東吉島,2022-06-07,23.2569,119.6675,0.32791376
467350,澎湖,2022-06-07,23.5655,119.5631,0.89510983
467410,臺南,2022-06-07,22.9932,120.2048,0.018167797
467420,永康,2022-06-07,23.0384,120.2367,0.018132282
467441,高雄,2022-06-07,22.7304,120.3125,0.03014668
467480,嘉義,2022-06-07,23.4959,120.4329,0.017263046
467490,臺中,2022-06-07,24.1457,120.6841,0.012309927
467540,大武,2022-06-07,22.3557,120.9038,0.9758685
467571,新竹,2022-06-07,24.8279,121.0142,0.96494555
467590,恆春,2022-06-07,22.0039,120.7463,0.9856662
467610,成功,2022-06-07,23.0975,121.3734,0.42935666
467620,蘭嶼,2022-06-07,22.037,121.5583,0.9977648
467660,臺東,2022-06-07,22.7522,121.1546,0.98706156
467790,墾丁雷達站,2022-06-07,21.9482,120.808,0.9906958
C0A520,山佳,2022-06-07,24.9749,121.402,0.9862971
C0A530,坪林,2022-06-07,24.9382,121.7097,0.8930838
C0A540,四堵,2022-06-07,24.8926,121.7457,0.052691367
C0A550,泰平,2022-06-07,24.9712,121.8237,0.067333795
C0A560,福山,2022-06-07,24.7762,121.5028,0.06634302
C0A570,桶後,2022-06-07,24.8482,121.598,0.30339664
C0A640,石碇,2022-06-07,24.994,121.6629,0.24996647
C0A650,火燒寮,2022-06-07,25.0027,121.7429,0.48929793
C0A660,瑞芳,2022-06-07,25.1132,121.8011,0.13514417
C0A770,科教館,2022-06-07,25.0964,121.5165,0.9834506
C0A860,大坪,2022-06-07,25.1659,121.633,0.5524349
C0A880,福隆,2022-06-07,25.0178,121.9421,0.11848149
C0A890,雙溪,2022-06-07,25.036,121.8642,0.9707468
C0A920,富貴角,2022-06-07,25.2638,121.5653,0.9838266
C0A931,三和,2022-06-07,25.2332,121.5952,0.4936512
C0A940,金山,2022-06-07,25.2236,121.644,0.98553014
C0A950,鼻頭角,2022-06-07,25.129,121.9234,0.11936964
C0A970,三貂角,2022-06-07,25.0076,122.0021,0.115921065
C0A980,社子,2022-06-07,25.1095,121.4697,0.98185676
C0A9C0,天母,2022-06-07,25.1175,121.5372,0.98559016
C0A9F0,內湖,2022-06-07,25.0794,121.5755,0.9668422
C0AC60,三峽,2022-06-07,24.939,121.3697,0.9767657
C0AC70,信義,2022-06-07,25.0378,121.5646,0.9668422
C0AC80,文山,2022-06-07,25.0023,121.5757,0.9803247
C0ACA0,新莊,2022-06-07,25.0515,121.4468,0.98059964
C0AD00,三芝,2022-06-07,25.2581,121.5019,0.9846521
C0AD10,八里,2022-06-07,25.1502,121.4039,0.98640966
C0AD30,蘆洲,2022-06-07,25.0866,121.4723,0.9834506
C0AD40,土城,2022-06-07,24.9732,121.4452,0.9846031
C0AD50,鶯歌,2022-06-07,24.9515,121.3463,0.9884244
C0AG80,中和,2022-06-07,24.9916,121.4918,0.9668422
C0AH00,汐止,2022-06-07,25.0669,121.6588,0.94183666
C0AH10,永和,2022-06-07,25.0113,121.5081,0.96153563
C0AH40,平等,2022-06-07,25.1291,121.5771,0.12561487
C0AH50,林口,2022-06-07,25.0722,121.3808,0.06400718
C0AH70,松山,2022-06-07,25.0487,121.5504,0.9668422
C0AH80,深坑,2022-06-07,25.0027,121.6283,0.97876024
C0AI00,五股,2022-06-07,25.0744,121.4273,0.969312
C0AI10,屈尺,2022-06-07,24.9218,121.5447,0.9803247
C0AI20,白沙灣,2022-06-07,25.2831,121.5191,0.9853075
C0AI30,三重,2022-06-07,25.0573,121.5006,0.9834506
C0AI40,石牌,2022-06-07,25.1156,121.5131,0.9846031
C0AJ10,澳底,2022-06-07,25.0571,121.9273,0.12016226
C0AJ20,野柳,2022-06-07,25.207,121.69,0.94183666
C0AJ30,淡水觀海,2022-06-07,25.1846,121.4086,0.98561263
C0AJ40,石門,2022-06-07,25.2737,121.6012,0.9770593
C0AJ50,水湳洞,2022-06-07,25.1237,121.8622,0.94183666
C0AJ60,六塊厝,2022-06-07,25.24,121.4481,0.98561263
C0AJ70,田寮,2022-06-07,25.2698,121.4886,0.9850023
C0AJ80,板橋,2022-06-07,25.0107,121.4489,0.9846031
C0B010,七堵,2022-06-07,25.0948,121.7171,0.9597832
C0B020,基隆嶼,2022-06-07,25.1914,121.7839,0.94183666
C0B040,大武崙,2022-06-07,25.1667,121.707,0.9597832
C0B050,八斗子,2022-06-07,25.1448,121.7917,0.91282874
C0B060,暖暖,2022-06-07,25.0957,121.7403,0.9796557
C0C460,復興,2022-06-07,24.8202,121.3523,0.448149
C0C480,桃園,2022-06-07,24.9924,121.3232,0.9602795
C0C490,八德,2022-06-07,24.9287,121.2833,0.9467563
C0C590,觀音,2022-06-07,25.0271,121.1533,0.9903715
C0C620,蘆竹,2022-06-07,25.0843,121.2658,0.98758477
C0C630,大溪,2022-06-07,24.8829,121.2655,0.9697399
C0C650,平鎮,2022-06-07,24.8975,121.2146,0.975383
C0C660,楊梅,2022-06-07,24.9124,121.143,0.9760002
C0C670,龍潭,2022-06-07,24.8701,121.2214,0.98755544
C0C680,龜山,2022-06-07,25.0285,121.3866,0.043009043
C0C700,中壢,2022-06-07,24.9777,121.2564,0.96664274
C0C710,大溪永福,2022-06-07,24.8929,121.325,0.97156644
C0C720,竹圍,2022-06-07,25.1127,121.2398,0.98640966
C0C730,中大臨海站,2022-06-07,24.9661,121.0086,0.31286186
C0C740,觀音工業區,2022-06-07,25.0648,121.1149,0.96725255
C0C750,新興坑尾,2022-06-07,25.0061,121.0971,0.9726809
C0D430,峨眉,2022-06-07,24.6905,121.0172,0.97348017
C0D480,打鐵坑,2022-06-07,24.8497,121.1508,0.9843201
C0D540,橫山,2022-06-07,24.7112,121.1169,0.9815859
C0D560,竹東,2022-06-07,24.7671,121.0579,0.9670449
C0D580,寶山,2022-06-07,24.735,121.0252,0.96364
C0D590,新豐,2022-06-07,24.8707,120.9772,0.89581704
C0D650,湖口,2022-06-07,24.9048,121.0436,0.69409406
C0D660,新竹市東區,2022-06-07,24.7987,120.9869,0.9702304
C0D670,海天一線,2022-06-07,24.832,120.9144,0.97560495
C0D680,香山濕地,2022-06-07,24.7836,120.915,0.97726977
C0D690,外湖,2022-06-07,24.9177,120.9687,0.31286186
C0D700,關西,2022-06-07,24.7977,121.1732,0.97263145
C0E420,竹南,2022-06-07,24.709,120.8889,0.9809712
C0E430,南庄,2022-06-07,24.6018,121.0002,0.977395
C0E520,大湖,2022-06-07,24.4149,120.8709,0.9852329
C0E540,後龍,2022-06-07,24.6065,120.7839,0.023787176
C0E550,明德,2022-06-07,24.5835,120.8854,0.9605457
C0E590,通霄,2022-06-07,24.4719,120.7046,0.015517891
C0E730,頭份,2022-06-07,24.6882,120.9122,0.9809712
C0E740,造橋,2022-06-07,24.6371,120.8648,0.94123375
C0E750,苗栗,2022-06-07,24.5646,120.8246,0.030797197
C0E780,銅鑼,2022-06-07,24.4897,120.7909,0.93847406
C0E791,卓蘭,2022-06-07,24.3126,120.8244,0.9889756
C0E810,西湖,2022-06-07,24.5629,120.7485,0.027597424
C0E820,獅潭,2022-06-07,24.5391,120.92,0.96168464
C0E830,苑裡,2022-06-07,24.4397,120.6531,0.012786408
C0E850,大河,2022-06-07,24.6181,120.9486,0.9649544
C0E870,高鐵苗栗,2022-06-07,24.6073,120.8261,0.024956424
C0E910,海埔,2022-06-07,24.6488,120.7724,0.917718
C0E920,通霄漁港,2022-06-07,24.4986,120.6739,0.01467802
C0E930,龍鳳,2022-06-07,24.7,120.8591,0.91967684
C0F000,大肚,2022-06-07,24.153,120.5721,0.99192524
C0F0B0,石岡,2022-06-07,24.2761,120.7776,0.99237114
C0F850,東勢,2022-06-07,24.2464,120.833,0.9867536
C0F930,大甲,2022-06-07,24.3477,120.6404,0.011679925
C0F970,大坑,2022-06-07,24.1731,120.7223,0.014176811
C0F9A0,中竹林,2022-06-07,24.1036,120.7511,0.9873611
C0F9I0,神岡,2022-06-07,24.2725,120.6583,0.9685564
C0F9K0,大安,2022-06-07,24.3451,120.588,0.012320232
C0F9L0,后里,2022-06-07,24.3104,120.7297,0.97418445
C0F9M0,豐原,2022-06-07,24.2543,120.7207,0.97262377
C0F9N0,大里,2022-06-07,24.0925,120.7014,0.0102100605
C0F9O0,潭子,2022-06-07,24.2131,120.7039,0.96541244
C0F9P0,清水,2022-06-07,24.3123,120.5622,0.012555387
C0F9Q0,外埔,2022-06-07,24.3478,120.7057,0.95760244
C0F9R0,龍井,2022-06-07,24.1845,120.529,0.012074546
C0F9S0,烏日,2022-06-07,24.1071,120.6241,0.12132628
C0F9T0,西屯,2022-06-07,24.1795,120.6413,0.011022903
C0F9U0,南屯,2022-06-07,24.137,120.638,0.0102100605
C0F9X0,大雅(中科園區),2022-06-07,24.2153,120.6244,0.012262627
C0FA10,松柏,2022-06-07,24.4291,120.6175,0.013120759
C0FA20,溫寮,2022-06-07,24.3722,120.5831,0.013120759
C0FA30,梧棲,2022-06-07,24.256,120.5234,0.012074546
C0FA40,臺中電廠,2022-06-07,24.2146,120.4907,0.012074546
C0FA50,霧峰,2022-06-07,24.0419,120.6995,0.010874165
C0G620,芬園,2022-06-07,24.0157,120.6213,0.35714924
C0G640,鹿港,2022-06-07,24.0753,120.4305,0.11934398
C0G650,員林,2022-06-07,23.9465,120.5856,0.236075
C0G660,溪湖,2022-06-07,23.9484,120.4791,0.22970696
C0G720,溪州,2022-06-07,23.8516,120.4991,0.669605
C0G730,二林,2022-06-07,23.9033,120.3761,0.12122629
C0G740,大城,2022-06-07,23.8525,120.3209,0.019797962
C0G770,福興,2022-06-07,24.0413,120.4377,0.11934429
C0G780,秀水,2022-06-07,24.0341,120.5039,0.115209274
C0G800,埔鹽,2022-06-07,24.0004,120.4317,0.11934398
C0G810,埔心,2022-06-07,23.9476,120.5255,0.2480609
C0G820,田尾,2022-06-07,23.9017,120.5094,0.26779044
C0G830,埤頭,2022-06-07,23.866,120.4528,0.61182
C0G840,北斗,2022-06-07,23.8776,120.5142,0.26779044
C0G860,社頭,2022-06-07,23.8976,120.5862,0.2554147
C0G870,芳苑,2022-06-07,23.9223,120.32,0.019854724
C0G880,二水,2022-06-07,23.8107,120.6173,0.821382
C0G890,伸港,2022-06-07,24.1489,120.4844,0.011705067
C0G900,線西,2022-06-07,24.1434,120.4435,0.011571683
C0G910,花壇,2022-06-07,24.0321,120.5495,0.13011257
C0G920,永靖,2022-06-07,23.9247,120.5475,0.26779044
C0G940,竹塘,2022-06-07,23.8483,120.3868,0.25525087
C0G950,防潮門,2022-06-07,24.1835,120.4871,0.012223235
C0G960,福寶,2022-06-07,24.0443,120.3814,0.11236138
C0G970,三豐,2022-06-07,23.882,120.2895,0.019854724
C0H890,埔里,2022-06-07,23.9722,120.9524,0.98106694
C0H950,中寮,2022-06-07,23.8844,120.7664,0.9556098
C0H960,草屯,2022-06-07,23.9737,120.6809,0.89922434
C0I110,竹山,2022-06-07,23.7612,120.6882,0.95315754
C0I360,水里,2022-06-07,23.8126,120.8498,0.9542918
C0I380,集集,2022-06-07,23.8282,120.8015,0.9510868
C0I410,名間,2022-06-07,23.8371,120.7014,0.9037662
C0I420,國姓,2022-06-07,24.0378,120.8551,0.9923954
C0I460,南投,2022-06-07,23.9115,120.6873,0.9237258
C0K250,崙背,2022-06-07,23.7555,120.3189,0.01966141
C0K280,四湖,2022-06-07,23.6304,120.2271,0.019969296
C0K291,宜梧,2022-06-07,23.5363,120.1693,0.011718788
C0K330,虎尾,2022-06-07,23.7192,120.442,0.25012046
C0K390,土庫,2022-06-07,23.679,120.3956,0.23176305
C0K400,斗六,2022-06-07,23.7206,120.5411,0.4672115
C0K410,北港,2022-06-07,23.574,120.2928,0.011517939
C0K420,西螺,2022-06-07,23.8004,120.4674,0.66466486
C0K430,褒忠,2022-06-07,23.6909,120.3036,0.018802615
C0K440,二崙,2022-06-07,23.7728,120.4089,0.27419382
C0K450,大埤,2022-06-07,23.6461,120.4315,0.24568269
C0K460,斗南,2022-06-07,23.6787,120.4784,0.40902376
C0K470,林內,2022-06-07,23.7487,120.6096,0.5845789
C0K480,莿桐,2022-06-07,23.7612,120.5024,0.6933604
C0K500,元長,2022-06-07,23.6498,120.315,0.0187066
C0K510,水林,2022-06-07,23.5729,120.246,0.012293368
C0K530,臺西,2022-06-07,23.7015,120.1976,0.020708863
C0K550,蔦松,2022-06-07,23.5143,120.2297,0.011660383
C0K560,棋山,2022-06-07,23.6865,120.6034,0.60547644
C0K580,高鐵雲林,2022-06-07,23.7375,120.4179,0.23176305
C0K590,雲林東勢,2022-06-07,23.6742,120.2557,0.018802615
C0K600,箔子寮,2022-06-07,23.6197,120.14,0.012371678
C0M410,馬頭山,2022-06-07,23.3244,120.582,0.95371294
C0M520,東後寮,2022-06-07,23.3699,120.2481,0.014450515
C0M640,中埔,2022-06-07,23.4254,120.5229,0.8831901
C0M650,朴子,2022-06-07,23.4346,120.239,0.011702364
C0M660,溪口,2022-06-07,23.6041,120.4036,0.017357077
C0M670,大林,2022-06-07,23.6006,120.4584,0.016256547
C0M680,太保,2022-06-07,23.4551,120.3315,0.011082582
C0M690,水上,2022-06-07,23.4197,120.3889,0.017309599
C0M700,竹崎,2022-06-07,23.5262,120.5555,0.90721595
C0M710,東石,2022-06-07,23.4589,120.1539,0.011660383
C0M720,番路,2022-06-07,23.4647,120.5542,0.95211875
C0M730,嘉義市東區,2022-06-07,23.4577,120.4605,0.017433187
C0M740,六腳,2022-06-07,23.4929,120.2906,0.011147104
C0M750,布袋,2022-06-07,23.3809,120.1678,0.011702364
C0M760,民雄,2022-06-07,23.5518,120.4285,0.017282974
C0M770,嘉義梅山,2022-06-07,23.5854,120.5556,0.7485225
C0M780,鹿草,2022-06-07,23.4113,120.3084,0.010546478
C0M790,新港,2022-06-07,23.5533,120.3457,0.011432677
C0M800,茶山,2022-06-07,23.2991,120.6648,0.97202307
C0M880,好美里,2022-06-07,23.3364,120.138,0.016154679
C0N010,鯤鯓國小,2022-06-07,23.1879,120.0889,0.012233695
C0N020,城西,2022-06-07,23.0568,120.0956,0.01840717
C0N030,四草,2022-06-07,23.0235,120.1116,0.01616511
C0N040,蘆竹溝,2022-06-07,23.2344,120.0961,0.012233695
C0N050,蚵寮,2022-06-07,23.301,120.1104,0.012233695
C0O810,曾文,2022-06-07,23.2197,120.4973,0.010817198
C0O830,北寮,2022-06-07,23.0796,120.495,0.95516044
C0O840,王爺宮,2022-06-07,23.2221,120.4009,0.010817198
C0O860,大內,2022-06-07,23.1188,120.3608,0.013730672
C0O900,善化,2022-06-07,23.1129,120.2972,0.015847363
C0O930,玉井,2022-06-07,23.126,120.4605,0.009728637
C0O950,安南,2022-06-07,23.0767,120.1449,0.021045934
C0O960,崎頂,2022-06-07,22.9595,120.3693,0.9277197
C0O970,虎頭埤,2022-06-07,23.0214,120.3479,0.012752769
C0O980,新市,2022-06-07,23.0616,120.2982,0.015847363
C0O990,媽廟,2022-06-07,22.9917,120.2935,0.015902845
C0R150,三地門,2022-06-07,22.7099,120.6399,0.16247484
C0R160,鹽埔,2022-06-07,22.7396,120.5308,0.48039556
C0R170,屏東,2022-06-07,22.6603,120.4941,0.019972306
C0R190,赤山,2022-06-07,22.5923,120.6143,0.5078637
C0R220,潮州,2022-06-07,22.5344,120.54,0.36151403
C0R240,來義,2022-06-07,22.5273,120.6251,0.39204356
C0R260,春日,2022-06-07,22.3704,120.6283,0.25565216
C0R270,琉球嶼,2022-06-07,22.3322,120.3622,0.28714806
C0R280,檳榔,2022-06-07,22.0761,120.8368,0.9979033
C0R320,車城,2022-06-07,22.0744,120.7162,0.97715086
C0R341,牡丹,2022-06-07,22.13,120.7926,0.91595423
C0R350,貓鼻頭,2022-06-07,21.9218,120.7358,0.9876453
C0R470,高樹,2022-06-07,22.8264,120.6008,0.11407408
C0R480,長治,2022-06-07,22.6931,120.5426,0.53591114
C0R490,九如,2022-06-07,22.7405,120.4905,0.02004258
C0R520,崁頂,2022-06-07,22.5148,120.5069,0.027489265
C0R540,佳冬,2022-06-07,22.4195,120.5524,0.027318018
C0R550,新埤,2022-06-07,22.4679,120.5829,0.44836318
C0R560,新園,2022-06-07,22.5434,120.4616,0.027489265
C0R570,麟洛,2022-06-07,22.6508,120.5272,0.02004258
C0R580,南州,2022-06-07,22.4859,120.5027,0.027318018
C0R590,里港,2022-06-07,22.7792,120.4946,0.5766782
C0R620,墾雷,2022-06-07,21.9008,120.8553,0.9876454
C0R640,東港,2022-06-07,22.4625,120.4407,0.028561868
C0R650,竹田,2022-06-07,22.5849,120.5434,0.39966
C0R660,枋寮,2022-06-07,22.3677,120.5906,0.27996516
C0R670,楓港,2022-06-07,22.1901,120.6922,0.1265001
C0R680,佳樂水,2022-06-07,21.9936,120.8616,0.9833009
C0R690,墾丁,2022-06-07,21.9668,120.8103,0.9980569
C0R700,枋山,2022-06-07,22.2468,120.6611,0.1265001
C0R710,龍磐,2022-06-07,21.9317,120.8389,0.99574786
C0R720,旭海,2022-06-07,22.2054,120.8876,0.9957837
C0R730,大坪頂,2022-06-07,22.0246,120.6936,0.9964559
C0R740,獅子,2022-06-07,22.2016,120.7053,0.20598441
C0R760,南仁湖,2022-06-07,22.0847,120.8634,0.9986201
C0R770,保力,2022-06-07,22.0711,120.7641,0.99363625
C0R780,滿州,2022-06-07,22.0244,120.8399,0.98930955
C0R790,九棚,2022-06-07,22.142,120.8893,0.9953443
C0R800,丹路,2022-06-07,22.2045,120.751,0.58867514
C0R810,內獅,2022-06-07,22.3051,120.643,0.14117873
C0R830,高士,2022-06-07,22.1218,120.8368,0.9988469
C0R850,林邊,2022-06-07,22.4634,120.5339,0.027489265
C0R860,鼻頭,2022-06-07,22.1043,120.8979,0.99439806
C0R870,興海,2022-06-07,21.9752,120.8439,0.9833009
C0R880,後壁湖,2022-06-07,21.9457,120.7457,0.97318304
C0R890,山海,2022-06-07,21.9878,120.7091,0.97715086
C0R900,竹坑,2022-06-07,22.1385,120.7022,0.23832916
C0R910,下寮,2022-06-07,22.3929,120.5548,0.027318018
C0R920,塭仔,2022-06-07,22.4169,120.5197,0.027274454
C0R930,萬丹,2022-06-07,22.5885,120.4851,0.39966
C0R940,加祿堂,2022-06-07,22.3363,120.6217,0.14117873
C0S710,鹿野,2022-06-07,22.9177,121.123,0.8633425
C0S730,綠島,2022-06-07,22.6672,121.4753,0.48572782
C0S740,池上,2022-06-07,23.1196,121.2095,0.48697296
C0S770,大溪山,2022-06-07,22.4785,120.9433,0.99451256
C0S790,金崙,2022-06-07,22.5381,120.9669,0.9905597
C0S810,東河,2022-06-07,22.9727,121.304,0.25606906
C0S830,長濱,2022-06-07,23.2868,121.412,0.85893303
C0S840,南田,2022-06-07,22.2797,120.8892,0.9876757
C0S890,關山,2022-06-07,23.0395,121.175,0.5260038
C0S900,蘭嶼高中,2022-06-07,22.0491,121.5121,0.9976725
C0S910,蘭嶼燈塔,2022-06-07,22.0812,121.5031,0.99780226
C0S920,金峰嘉蘭,2022-06-07,22.5948,120.9608,0.98248416
C0S930,延平,2022-06-07,22.9026,121.0841,0.3254432
C0S940,石寧山,2022-06-07,23.2238,121.4066,0.36085296
C0S950,七塊厝,2022-06-07,22.9545,121.2299,0.91887385
C0S960,香蘭,2022-06-07,22.5876,120.9934,0.9753433
C0S970,加津林,2022-06-07,22.4162,120.9269,0.97728735
C0S990,山豬窟,2022-06-07,22.3186,120.8574,0.99638385
C0SA00,歷坵,2022-06-07,22.521,120.8919,0.9950448
C0SA10,檳榔四格山,2022-06-07,22.81,121.1093,0.9951925
C0SA30,都歷,2022-06-07,23.0203,121.3236,0.47077724
C0SA40,瑞和,2022-06-07,22.9744,121.1567,0.51152366
C0SA60,知本（水試所）,2022-06-07,22.7024,121.0828,0.981299
C0SA80,土,2022-06-07,22.4531,120.8876,0.9858865
C0SA90,達仁林場,2022-06-07,22.2643,120.824,0.99420863
C0T870,鯉魚潭,2022-06-07,23.9356,121.5089,0.005869708
C0T900,西林,2022-06-07,23.8119,121.4415,0.0059361462
C0T960,光復,2022-06-07,23.6607,121.425,0.00656885
C0T9A0,月眉山,2022-06-07,23.8099,121.5398,0.00881805
C0T9D0,和中,2022-06-07,24.2668,121.741,0.006136601
C0T9E0,大坑,2022-06-07,23.8806,121.582,0.007481314
C0T9F0,水璉,2022-06-07,23.7971,121.5425,0.0063377265
C0T9I0,豐濱,2022-06-07,23.5839,121.5148,0.007026854
C0T9M0,靜浦,2022-06-07,23.4552,121.495,0.0069515198
C0T9N0,富里,2022-06-07,23.1716,121.2494,0.96147543
C0U600,礁溪,2022-06-07,24.8175,121.7656,0.14398934
C0U650,玉蘭,2022-06-07,24.6753,121.5871,0.058683254
C0U750,龜山島,2022-06-07,24.8417,121.9531,0.025260499
C0U760,東澳,2022-06-07,24.522,121.8332,0.011182017
C0U770,南澳,2022-06-07,24.4493,121.8102,0.010410112
C0U780,五結,2022-06-07,24.6864,121.7979,0.1759746
C0U860,頭城,2022-06-07,24.8532,121.8308,0.13961084
C0U870,大礁溪,2022-06-07,24.791,121.675,0.12815152
C0U880,北關,2022-06-07,24.9072,121.8734,0.98341495
C0U890,三星,2022-06-07,24.6681,121.653,0.28680235
C0U900,內城,2022-06-07,24.7181,121.6877,0.16158582
C0U910,冬山,2022-06-07,24.6337,121.7937,0.1759746
C0U940,羅東,2022-06-07,24.6818,121.7493,0.1746908
C0U970,大福,2022-06-07,24.8006,121.8139,0.13722613
C0U990,員山,2022-06-07,24.7444,121.7225,0.1746908
C0UA00,土場,2022-06-07,24.5765,121.4953,0.22826844
C0UA80,大溪漁港,2022-06-07,24.9418,121.903,0.14398934
C0UA90,石城,2022-06-07,24.9804,121.9512,0.10459197
C0UB00,淡江大學蘭陽校園,2022-06-07,24.8232,121.7304,0.43039092
C0UB10,蘇澳,2022-06-07,24.5969,121.8571,0.015352607
C0UB20,壯圍,2022-06-07,24.7359,121.8163,0.17761408
C0V250,甲仙,2022-06-07,23.0801,120.5918,0.98360765
C0V260,月眉,2022-06-07,22.971,120.5399,0.91947913
C0V310,美濃,2022-06-07,22.8987,120.5192,0.008770432
C0V350,溪埔,2022-06-07,22.7386,120.4468,0.024568431
C0V360,內門,2022-06-07,22.9755,120.4668,0.009147969
C0V370,古亭坑,2022-06-07,22.8932,120.4019,0.009946341
C0V400,阿公店,2022-06-07,22.8042,120.3555,0.024256852
C0V440,鳳山,2022-06-07,22.6467,120.3561,0.028996408
C0V450,鳳森,2022-06-07,22.5451,120.3926,0.62547636
C0V490,新興,2022-06-07,22.6274,120.2988,0.028723376
C0V530,阿蓮,2022-06-07,22.8832,120.3275,0.015658157
C0V610,梓官,2022-06-07,22.7606,120.2672,0.026267752
C0V620,永安,2022-06-07,22.8231,120.2369,0.027328277
C0V630,茄萣,2022-06-07,22.9066,120.1826,0.018039662
C0V640,湖內,2022-06-07,22.8871,120.2445,0.01812017
C0V650,彌陀,2022-06-07,22.7838,120.2464,0.027328277
C0V660,岡山,2022-06-07,22.7971,120.295,0.026267752
C0V680,仁武,2022-06-07,22.7011,120.3477,0.030364823
C0V690,鼓山,2022-06-07,22.6233,120.2756,0.028723376
C0V700,三民,2022-06-07,22.645,120.3112,0.028723376
C0V710,苓雅,2022-06-07,22.6227,120.3307,0.028723376
C0V720,林園,2022-06-07,22.5077,120.3945,0.028723376
C0V730,大寮,2022-06-07,22.6056,120.3957,0.36834678
C0V740,旗山,2022-06-07,22.8886,120.4836,0.008687769
C0V750,路竹,2022-06-07,22.855,120.2594,0.02459304
C0V760,橋頭,2022-06-07,22.7578,120.3058,0.026393311
C0V770,大社,2022-06-07,22.7303,120.3466,0.030364823
C0V790,萬山,2022-06-07,22.9059,120.6881,0.96587145
C0V800,六龜,2022-06-07,22.9979,120.6336,0.8527976
C0V810,左營,2022-06-07,22.6749,120.2849,0.030146688
C0V820,小林,2022-06-07,23.1484,120.6333,0.96759284
C0V840,鳳鼻頭,2022-06-07,22.5083,120.3591,0.028561868
C0V850,蚵仔寮,2022-06-07,22.7256,120.2527,0.029972909
C0V860,南寮,2022-06-07,22.7616,120.2339,0.02693171
C0V870,文安,2022-06-07,22.8025,120.2164,0.02693171
C0V880,興達,2022-06-07,22.8778,120.2127,0.018039662
C0V890,前鎮,2022-06-07,22.5718,120.3117,0.028561868
C0V900,汕尾,2022-06-07,22.4782,120.4151,0.022127626
C0X050,東河,2022-06-07,23.2966,120.3856,0.0093363505
C0X060,下營,2022-06-07,23.2269,120.2563,0.013616295
C0X080,佳里,2022-06-07,23.173,120.1451,0.016154679
C0X100,臺南市北區,2022-06-07,23.0104,120.1942,0.018085923
C0X110,臺南市南區,2022-06-07,22.9612,120.1884,0.018132282
C0X120,麻豆,2022-06-07,23.1833,120.2486,0.01600814
C0X130,官田,2022-06-07,23.1932,120.3154,0.013392572
C0X140,西港,2022-06-07,23.1256,120.2031,0.016164046
C0X150,安定,2022-06-07,23.1026,120.2278,0.018623235
C0X160,仁德,2022-06-07,22.9683,120.2577,0.015937405
C0X170,關廟,2022-06-07,22.963,120.3278,0.015704336
C0X180,山上,2022-06-07,23.0757,120.3633,0.010606756
C0X190,安平,2022-06-07,22.9932,120.1522,0.018085923
C0X200,左鎮,2022-06-07,23.0568,120.4085,0.010613109
C0X210,白河,2022-06-07,23.3475,120.4144,0.009379157
C0X220,學甲,2022-06-07,23.2304,120.1822,0.01600814
C0X230,鹽水,2022-06-07,23.2726,120.2476,0.014994515
C0X240,關子嶺,2022-06-07,23.3312,120.508,0.9518442
C0X250,新營,2022-06-07,23.3107,120.3167,0.012961617
C0X260,後壁,2022-06-07,23.3664,120.3623,0.010723587
C0X280,將軍,2022-06-07,23.215,120.1358,0.016154679
C0X290,北門,2022-06-07,23.2678,120.1255,0.016154679
C0X300,鹿寮,2022-06-07,23.386,120.4773,0.71603113
C0X310,七股,2022-06-07,23.1473,120.0863,0.013593086
C0X320,柳營,2022-06-07,23.2533,120.3753,0.009351507
C0Z020,明里,2022-06-07,23.2087,121.2623,0.76767397
C0Z061,玉里,2022-06-07,23.3215,121.3397,0.38351855
C0Z070,舞鶴,2022-06-07,23.4681,121.3741,0.0071537406
C0Z080,富源,2022-06-07,23.5876,121.3782,0.0067785867
C0Z100,東華,2022-06-07,23.8953,121.5498,0.0058724247
C0Z150,吉安光華,2022-06-07,23.9309,121.5952,0.005898115
C0Z160,鳳林,2022-06-07,23.7461,121.4534,0.0065662186
C0Z170,卓溪,2022-06-07,23.3443,121.3029,0.5021472
C0Z180,新城,2022-06-07,24.0395,121.6045,0.006636465
C0Z190,富世,2022-06-07,24.1474,121.6297,0.007856644
C0Z200,萬榮,2022-06-07,23.7092,121.4201,0.005869708
C0Z210,瑞穗,2022-06-07,23.5239,121.3902,0.0070189834
C0Z230,和平,2022-06-07,24.3072,121.7701,0.006136601
C0Z270,蕃薯寮,2022-06-07,23.7384,121.5401,0.0065070773
C0Z280,德武,2022-06-07,23.4743,121.4107,0.007083387
C0Z300,東里,2022-06-07,23.2685,121.3055,0.43815503
C0Z310,清水斷崖,2022-06-07,24.2183,121.6891,0.0057673976
C0Z330,安通山,2022-06-07,23.2907,121.3485,0.92242956
