站號,站名,日期,lat,lon,BlastGRU-TW
466881,新北,2022-02-26,24.9593,121.52,0.00047897958
466900,淡水,2022-02-26,25.164889,121.448906,0.00035419772
466920,臺北,2022-02-26,25.037658,121.514853,0.0004952743
467350,澎湖,2022-02-26,23.565503,119.563094,0.000106371954
467410,臺南,2022-02-26,22.993239,120.204772,0.0021699406
467420,永康,2022-02-26,23.038386,120.2367,0.0023233083
467790,墾丁雷達站,2022-02-26,21.948235,120.808028,0.0030359004
C0A520,山佳,2022-02-26,24.974944,121.402008,0.00041005702
C0A530,坪林,2022-02-26,24.938183,121.70975,0.003627644
C0A880,福隆,2022-02-26,25.017842,121.942083,0.0033811661
C0A890,雙溪,2022-02-26,25.036003,121.864242,0.0004430309
C0A920,富貴角,2022-02-26,25.263783,121.565258,0.00030024946
C0AC80,文山,2022-02-26,25.00235,121.575728,0.0004562942
C0ACA0,新莊,2022-02-26,25.051478,121.446756,0.0003762846
C0AD00,三芝,2022-02-26,25.258131,121.501917,0.0002790872
C0AH70,松山,2022-02-26,25.04871,121.55042,0.0004952743
C0AH80,深坑,2022-02-26,25.002703,121.628328,0.0004562942
C0AI00,五股,2022-02-26,25.07445,121.42728,0.00026101607
C0AJ70,田寮,2022-02-26,25.2698,121.4886,0.00029887146
