站號,站名,日期,lat,lon,BlastGRU-TW
466881,新北,2022-04-23,24.9593,121.52,0.029450618
466900,淡水,2022-04-23,25.1649,121.4489,0.016998786
466920,臺北,2022-04-23,25.0377,121.5149,0.0342183
466940,基隆,2022-04-23,25.1333,121.7405,0.022937108
466990,花蓮,2022-04-23,23.9751,121.6133,0.68849504
467050,新屋,2022-04-23,25.0067,121.0475,0.0028212375
467080,宜蘭,2022-04-23,24.764,121.7565,0.1958643
467270,田中,2022-04-23,23.8738,120.5813,0.047951583
467300,東吉島,2022-04-23,23.2569,119.6675,0.00025215212
467350,澎湖,2022-04-23,23.5655,119.5631,4.711152e-05
467410,臺南,2022-04-23,22.9932,120.2048,0.076800175
467420,永康,2022-04-23,23.0384,120.2367,0.07879269
467441,高雄,2022-04-23,22.7304,120.3125,0.09717593
467480,嘉義,2022-04-23,23.4959,120.4329,0.050791617
467490,臺中,2022-04-23,24.1457,120.6841,0.02437217
467540,大武,2022-04-23,22.3557,120.9038,0.20334183
467571,新竹,2022-04-23,24.8279,121.0142,0.023516921
467590,恆春,2022-04-23,22.0039,120.7463,0.0009170697
467610,成功,2022-04-23,23.0975,121.3734,0.7776979
467620,蘭嶼,2022-04-23,22.037,121.5583,0.0003741798
467660,臺東,2022-04-23,22.7522,121.1546,0.6098635
467790,墾丁雷達站,2022-04-23,21.9482,120.808,0.0008181169
C0A520,山佳,2022-04-23,24.9749,121.402,0.018961087
C0A530,坪林,2022-04-23,24.9382,121.7097,0.060795
C0A540,四堵,2022-04-23,24.8926,121.7457,0.024258433
C0A550,泰平,2022-04-23,24.9712,121.8237,0.009594059
C0A560,福山,2022-04-23,24.7762,121.5028,0.041521147
C0A570,桶後,2022-04-23,24.8482,121.598,0.070649385
C0A640,石碇,2022-04-23,24.994,121.6629,0.026064161
C0A650,火燒寮,2022-04-23,25.0027,121.7429,0.01927774
C0A660,瑞芳,2022-04-23,25.1132,121.8011,0.043233808
C0A770,科教館,2022-04-23,25.0964,121.5165,0.022710035
C0A860,大坪,2022-04-23,25.1659,121.633,0.0064209406
C0A880,福隆,2022-04-23,25.0178,121.9421,0.07148713
C0A890,雙溪,2022-04-23,25.036,121.8642,0.01905914
C0A920,富貴角,2022-04-23,25.2638,121.5653,0.007591123
C0A931,三和,2022-04-23,25.2332,121.5952,0.014983321
C0A940,金山,2022-04-23,25.2236,121.644,0.00917055
C0A950,鼻頭角,2022-04-23,25.129,121.9234,0.074862644
C0A970,三貂角,2022-04-23,25.0076,122.0021,0.041257557
C0A980,社子,2022-04-23,25.1095,121.4697,0.02461772
C0A9C0,天母,2022-04-23,25.1175,121.5372,0.020052006
C0A9F0,內湖,2022-04-23,25.0794,121.5755,0.0342183
C0AC60,三峽,2022-04-23,24.939,121.3697,0.027307136
C0AC70,信義,2022-04-23,25.0378,121.5646,0.0342183
C0AC80,文山,2022-04-23,25.0023,121.5757,0.023741536
C0ACA0,新莊,2022-04-23,25.0515,121.4468,0.019232254
C0AD00,三芝,2022-04-23,25.2581,121.5019,0.00809695
C0AD10,八里,2022-04-23,25.1502,121.4039,0.016998786
C0AD30,蘆洲,2022-04-23,25.0866,121.4723,0.022710035
C0AD40,土城,2022-04-23,24.9732,121.4452,0.021268105
C0AD50,鶯歌,2022-04-23,24.9515,121.3463,0.014519524
C0AG80,中和,2022-04-23,24.9916,121.4918,0.034218334
C0AH00,汐止,2022-04-23,25.0669,121.6588,0.021892367
C0AH10,永和,2022-04-23,25.0113,121.5081,0.036862634
C0AH40,平等,2022-04-23,25.1291,121.5771,0.0143821
C0AH50,林口,2022-04-23,25.0722,121.3808,0.010483545
C0AH70,松山,2022-04-23,25.0487,121.5504,0.0342183
C0AH80,深坑,2022-04-23,25.0027,121.6283,0.025518898
C0AI00,五股,2022-04-23,25.0744,121.4273,0.010344967
C0AI10,屈尺,2022-04-23,24.9218,121.5447,0.023741536
C0AI20,白沙灣,2022-04-23,25.2831,121.5191,0.009712828
C0AI30,三重,2022-04-23,25.0573,121.5006,0.022710035
C0AI40,石牌,2022-04-23,25.1156,121.5131,0.021268105
C0AJ10,澳底,2022-04-23,25.0571,121.9273,0.07852447
C0AJ20,野柳,2022-04-23,25.207,121.69,0.021892367
C0AJ30,淡水觀海,2022-04-23,25.1846,121.4086,0.017659545
C0AJ40,石門,2022-04-23,25.2737,121.6012,0.00584409
C0AJ50,水湳洞,2022-04-23,25.1237,121.8622,0.021892367
C0AJ60,六塊厝,2022-04-23,25.24,121.4481,0.017659545
C0AJ70,田寮,2022-04-23,25.2698,121.4886,0.0099962335
C0AJ80,板橋,2022-04-23,25.0107,121.4489,0.021268105
C0B010,七堵,2022-04-23,25.0948,121.7171,0.02048271
C0B020,基隆嶼,2022-04-23,25.1914,121.7839,0.021892367
C0B040,大武崙,2022-04-23,25.1667,121.707,0.02048271
C0B050,八斗子,2022-04-23,25.1448,121.7917,0.02356043
C0B060,暖暖,2022-04-23,25.0957,121.7403,0.016990684
C0C460,復興,2022-04-23,24.8202,121.3523,0.047819883
C0C480,桃園,2022-04-23,24.9924,121.3232,0.014497529
C0C490,八德,2022-04-23,24.9287,121.2833,0.028570171
C0C590,觀音,2022-04-23,25.0271,121.1533,0.013898393
C0C620,蘆竹,2022-04-23,25.0843,121.2658,0.015768629
C0C630,大溪,2022-04-23,24.8829,121.2655,0.02046131
C0C650,平鎮,2022-04-23,24.8975,121.2146,0.011155017
C0C660,楊梅,2022-04-23,24.9124,121.143,0.01408931
C0C670,龍潭,2022-04-23,24.8701,121.2214,0.015382513
C0C680,龜山,2022-04-23,25.0285,121.3866,0.032324698
C0C700,中壢,2022-04-23,24.9777,121.2564,0.012922914
C0C710,大溪永福,2022-04-23,24.8929,121.325,0.015863448
C0C720,竹圍,2022-04-23,25.1127,121.2398,0.016998786
C0C730,中大臨海站,2022-04-23,24.9661,121.0086,0.0020823742
C0C740,觀音工業區,2022-04-23,25.0648,121.1149,0.015418731
C0C750,新興坑尾,2022-04-23,25.0061,121.0971,0.013084928
C0D430,峨眉,2022-04-23,24.6905,121.0172,0.040763043
C0D480,打鐵坑,2022-04-23,24.8497,121.1508,0.029234516
C0D540,橫山,2022-04-23,24.7112,121.1169,0.014220407
C0D560,竹東,2022-04-23,24.7671,121.0579,0.02696123
C0D580,寶山,2022-04-23,24.735,121.0252,0.0066758306
C0D590,新豐,2022-04-23,24.8707,120.9772,0.00016317474
C0D650,湖口,2022-04-23,24.9048,121.0436,0.0060613276
C0D660,新竹市東區,2022-04-23,24.7987,120.9869,0.023627505
C0D670,海天一線,2022-04-23,24.832,120.9144,0.02202404
C0D680,香山濕地,2022-04-23,24.7836,120.915,0.022376033
C0D690,外湖,2022-04-23,24.9177,120.9687,0.0020823742
C0D700,關西,2022-04-23,24.7977,121.1732,0.015137573
C0E420,竹南,2022-04-23,24.709,120.8889,0.023068747
C0E430,南庄,2022-04-23,24.6018,121.0002,0.007478011
C0E520,大湖,2022-04-23,24.4149,120.8709,0.044360112
C0E540,後龍,2022-04-23,24.6065,120.7839,0.00047198508
C0E550,明德,2022-04-23,24.5835,120.8854,0.0007099704
C0E590,通霄,2022-04-23,24.4719,120.7046,0.0010152909
C0E730,頭份,2022-04-23,24.6882,120.9122,0.023068747
C0E740,造橋,2022-04-23,24.6371,120.8648,0.0004774705
C0E750,苗栗,2022-04-23,24.5646,120.8246,0.00039513066
C0E780,銅鑼,2022-04-23,24.4897,120.7909,0.0021821705
C0E791,卓蘭,2022-04-23,24.3126,120.8244,0.07031474
C0E810,西湖,2022-04-23,24.5629,120.7485,0.00042168782
C0E820,獅潭,2022-04-23,24.5391,120.92,0.00089440466
C0E830,苑裡,2022-04-23,24.4397,120.6531,0.011331379
C0E850,大河,2022-04-23,24.6181,120.9486,0.00072181766
C0E870,高鐵苗栗,2022-04-23,24.6073,120.8261,0.00045247935
C0E910,海埔,2022-04-23,24.6488,120.7724,0.000850802
C0E920,通霄漁港,2022-04-23,24.4986,120.6739,0.001444335
C0E930,龍鳳,2022-04-23,24.7,120.8591,0.0005016056
C0F000,大肚,2022-04-23,24.153,120.5721,0.13815536
C0F0B0,石岡,2022-04-23,24.2761,120.7776,0.11799128
C0F850,東勢,2022-04-23,24.2464,120.833,0.08110545
C0F930,大甲,2022-04-23,24.3477,120.6404,0.029935952
C0F970,大坑,2022-04-23,24.1731,120.7223,0.019904902
C0F9A0,中竹林,2022-04-23,24.1036,120.7511,0.1512137
C0F9I0,神岡,2022-04-23,24.2725,120.6583,0.022160575
C0F9K0,大安,2022-04-23,24.3451,120.588,0.07066265
C0F9L0,后里,2022-04-23,24.3104,120.7297,0.018380782
C0F9M0,豐原,2022-04-23,24.2543,120.7207,0.01871061
C0F9N0,大里,2022-04-23,24.0925,120.7014,0.016713604
C0F9O0,潭子,2022-04-23,24.2131,120.7039,0.026391651
C0F9P0,清水,2022-04-23,24.3123,120.5622,0.084786415
C0F9Q0,外埔,2022-04-23,24.3478,120.7057,0.027742932
C0F9R0,龍井,2022-04-23,24.1845,120.529,0.048787337
C0F9S0,烏日,2022-04-23,24.1071,120.6241,0.021928115
C0F9T0,西屯,2022-04-23,24.1795,120.6413,0.019098459
C0F9U0,南屯,2022-04-23,24.137,120.638,0.016713604
C0F9X0,大雅(中科園區),2022-04-23,24.2153,120.6244,0.009171504
C0FA10,松柏,2022-04-23,24.4291,120.6175,0.015449476
C0FA20,溫寮,2022-04-23,24.3722,120.5831,0.015449476
C0FA30,梧棲,2022-04-23,24.256,120.5234,0.048787337
C0FA40,臺中電廠,2022-04-23,24.2146,120.4907,0.048787337
C0FA50,霧峰,2022-04-23,24.0419,120.6995,0.0094042085
C0G620,芬園,2022-04-23,24.0157,120.6213,0.006976697
C0G640,鹿港,2022-04-23,24.0753,120.4305,0.026200892
C0G650,員林,2022-04-23,23.9465,120.5856,0.0075377603
C0G660,溪湖,2022-04-23,23.9484,120.4791,0.015234617
C0G720,溪州,2022-04-23,23.8516,120.4991,0.067899786
C0G730,二林,2022-04-23,23.9033,120.3761,0.0304121
C0G740,大城,2022-04-23,23.8525,120.3209,0.058025118
C0G770,福興,2022-04-23,24.0413,120.4377,0.026200892
C0G780,秀水,2022-04-23,24.0341,120.5039,0.022351414
C0G800,埔鹽,2022-04-23,24.0004,120.4317,0.026200892
C0G810,埔心,2022-04-23,23.9476,120.5255,0.014086497
C0G820,田尾,2022-04-23,23.9017,120.5094,0.012864832
C0G830,埤頭,2022-04-23,23.866,120.4528,0.07585402
C0G840,北斗,2022-04-23,23.8776,120.5142,0.012864832
C0G860,社頭,2022-04-23,23.8976,120.5862,0.0067234123
C0G870,芳苑,2022-04-23,23.9223,120.32,0.062208787
C0G880,二水,2022-04-23,23.8107,120.6173,0.03481084
C0G890,伸港,2022-04-23,24.1489,120.4844,0.036984522
C0G900,線西,2022-04-23,24.1434,120.4435,0.024994493
C0G910,花壇,2022-04-23,24.0321,120.5495,0.019009467
C0G920,永靖,2022-04-23,23.9247,120.5475,0.012864832
C0G940,竹塘,2022-04-23,23.8483,120.3868,0.1257935
C0G950,防潮門,2022-04-23,24.1835,120.4871,0.05399991
C0G960,福寶,2022-04-23,24.0443,120.3814,0.028389541
C0G970,三豐,2022-04-23,23.882,120.2895,0.062208787
C0H890,埔里,2022-04-23,23.9722,120.9524,0.25733027
C0H950,中寮,2022-04-23,23.8844,120.7664,0.019669164
C0H960,草屯,2022-04-23,23.9737,120.6809,0.05008359
C0I110,竹山,2022-04-23,23.7612,120.6882,0.027266935
C0I360,水里,2022-04-23,23.8126,120.8498,0.03759759
C0I380,集集,2022-04-23,23.8282,120.8015,0.040720906
C0I410,名間,2022-04-23,23.8371,120.7014,0.0459464
C0I420,國姓,2022-04-23,24.0378,120.8551,0.11669208
C0I460,南投,2022-04-23,23.9115,120.6873,0.04154198
C0K250,崙背,2022-04-23,23.7555,120.3189,0.060829848
C0K280,四湖,2022-04-23,23.6304,120.2271,0.060386296
C0K291,宜梧,2022-04-23,23.5363,120.1693,0.09924099
C0K330,虎尾,2022-04-23,23.7192,120.442,0.12090224
C0K390,土庫,2022-04-23,23.679,120.3956,0.12729117
C0K400,斗六,2022-04-23,23.7206,120.5411,0.07043601
C0K410,北港,2022-04-23,23.574,120.2928,0.12797238
C0K420,西螺,2022-04-23,23.8004,120.4674,0.05079883
C0K430,褒忠,2022-04-23,23.6909,120.3036,0.12596631
C0K440,二崙,2022-04-23,23.7728,120.4089,0.12001497
C0K450,大埤,2022-04-23,23.6461,120.4315,0.12008415
C0K460,斗南,2022-04-23,23.6787,120.4784,0.07893756
C0K470,林內,2022-04-23,23.7487,120.6096,0.080755286
C0K480,莿桐,2022-04-23,23.7612,120.5024,0.04764048
C0K500,元長,2022-04-23,23.6498,120.315,0.13405697
C0K510,水林,2022-04-23,23.5729,120.246,0.072251745
C0K530,臺西,2022-04-23,23.7015,120.1976,0.056003336
C0K550,蔦松,2022-04-23,23.5143,120.2297,0.09421136
C0K560,棋山,2022-04-23,23.6865,120.6034,0.08293868
C0K580,高鐵雲林,2022-04-23,23.7375,120.4179,0.12729117
C0K590,雲林東勢,2022-04-23,23.6742,120.2557,0.12596631
C0K600,箔子寮,2022-04-23,23.6197,120.14,0.07594721
C0M410,馬頭山,2022-04-23,23.3244,120.582,0.11796784
C0M520,東後寮,2022-04-23,23.3699,120.2481,0.06699023
C0M640,中埔,2022-04-23,23.4254,120.5229,0.11244995
C0M650,朴子,2022-04-23,23.4346,120.239,0.11007585
C0M660,溪口,2022-04-23,23.6041,120.4036,0.040988248
C0M670,大林,2022-04-23,23.6006,120.4584,0.040731456
C0M680,太保,2022-04-23,23.4551,120.3315,0.16894677
C0M690,水上,2022-04-23,23.4197,120.3889,0.08202152
C0M700,竹崎,2022-04-23,23.5262,120.5555,0.06380238
C0M710,東石,2022-04-23,23.4589,120.1539,0.09421136
C0M720,番路,2022-04-23,23.4647,120.5542,0.063275665
C0M730,嘉義市東區,2022-04-23,23.4577,120.4605,0.064489245
C0M740,六腳,2022-04-23,23.4929,120.2906,0.17748997
C0M750,布袋,2022-04-23,23.3809,120.1678,0.11007585
C0M760,民雄,2022-04-23,23.5518,120.4285,0.034042988
C0M770,嘉義梅山,2022-04-23,23.5854,120.5556,0.062327817
C0M780,鹿草,2022-04-23,23.4113,120.3084,0.1441662
C0M790,新港,2022-04-23,23.5533,120.3457,0.12130942
C0M800,茶山,2022-04-23,23.2991,120.6648,0.5392221
C0M880,好美里,2022-04-23,23.3364,120.138,0.06322874
C0N010,鯤鯓國小,2022-04-23,23.1879,120.0889,0.099555075
C0N020,城西,2022-04-23,23.0568,120.0956,0.0621703
C0N030,四草,2022-04-23,23.0235,120.1116,0.089299716
C0N040,蘆竹溝,2022-04-23,23.2344,120.0961,0.099555075
C0N050,蚵寮,2022-04-23,23.301,120.1104,0.099555075
C0O810,曾文,2022-04-23,23.2197,120.4973,0.04166641
C0O830,北寮,2022-04-23,23.0796,120.495,0.1758923
C0O840,王爺宮,2022-04-23,23.2221,120.4009,0.042760234
C0O860,大內,2022-04-23,23.1188,120.3608,0.06328335
C0O900,善化,2022-04-23,23.1129,120.2972,0.08299293
C0O930,玉井,2022-04-23,23.126,120.4605,0.11667959
C0O950,安南,2022-04-23,23.0767,120.1449,0.056497954
C0O960,崎頂,2022-04-23,22.9595,120.3693,0.16812964
C0O970,虎頭埤,2022-04-23,23.0214,120.3479,0.09773173
C0O980,新市,2022-04-23,23.0616,120.2982,0.08299293
C0O990,媽廟,2022-04-23,22.9917,120.2935,0.093756214
C0R150,三地門,2022-04-23,22.7099,120.6399,0.37592924
C0R160,鹽埔,2022-04-23,22.7396,120.5308,0.26648065
C0R170,屏東,2022-04-23,22.6603,120.4941,0.11890486
C0R190,赤山,2022-04-23,22.5923,120.6143,0.27662247
C0R220,潮州,2022-04-23,22.5344,120.54,0.24795233
C0R240,來義,2022-04-23,22.5273,120.6251,0.13801077
C0R260,春日,2022-04-23,22.3704,120.6283,0.14634447
C0R270,琉球嶼,2022-04-23,22.3322,120.3622,0.14405301
C0R280,檳榔,2022-04-23,22.0761,120.8368,0.0006974908
C0R320,車城,2022-04-23,22.0744,120.7162,0.001050653
C0R341,牡丹,2022-04-23,22.13,120.7926,0.22774899
C0R350,貓鼻頭,2022-04-23,21.9218,120.7358,0.00087800645
C0R470,高樹,2022-04-23,22.8264,120.6008,0.37213007
C0R480,長治,2022-04-23,22.6931,120.5426,0.258091
C0R490,九如,2022-04-23,22.7405,120.4905,0.11474797
C0R520,崁頂,2022-04-23,22.5148,120.5069,0.113383465
C0R540,佳冬,2022-04-23,22.4195,120.5524,0.116939634
C0R550,新埤,2022-04-23,22.4679,120.5829,0.28522128
C0R560,新園,2022-04-23,22.5434,120.4616,0.113383465
C0R570,麟洛,2022-04-23,22.6508,120.5272,0.11474797
C0R580,南州,2022-04-23,22.4859,120.5027,0.116939634
C0R590,里港,2022-04-23,22.7792,120.4946,0.2436985
C0R620,墾雷,2022-04-23,21.9008,120.8553,0.00087800645
C0R640,東港,2022-04-23,22.4625,120.4407,0.10582391
C0R650,竹田,2022-04-23,22.5849,120.5434,0.2927023
C0R660,枋寮,2022-04-23,22.3677,120.5906,0.2599343
C0R670,楓港,2022-04-23,22.1901,120.6922,0.3340992
C0R680,佳樂水,2022-04-23,21.9936,120.8616,0.0009537676
C0R690,墾丁,2022-04-23,21.9668,120.8103,0.00069221173
C0R700,枋山,2022-04-23,22.2468,120.6611,0.3340992
C0R710,龍磐,2022-04-23,21.9317,120.8389,0.00069172017
C0R720,旭海,2022-04-23,22.2054,120.8876,0.025316458
C0R730,大坪頂,2022-04-23,22.0246,120.6936,0.0007839403
C0R740,獅子,2022-04-23,22.2016,120.7053,0.30526793
C0R760,南仁湖,2022-04-23,22.0847,120.8634,0.0008667814
C0R770,保力,2022-04-23,22.0711,120.7641,0.000753509
C0R780,滿州,2022-04-23,22.0244,120.8399,0.0008497431
C0R790,九棚,2022-04-23,22.142,120.8893,0.04633136
C0R800,丹路,2022-04-23,22.2045,120.751,0.25008494
C0R810,內獅,2022-04-23,22.3051,120.643,0.15959294
C0R830,高士,2022-04-23,22.1218,120.8368,0.00091108115
C0R850,林邊,2022-04-23,22.4634,120.5339,0.113383465
C0R860,鼻頭,2022-04-23,22.1043,120.8979,0.0003548407
C0R870,興海,2022-04-23,21.9752,120.8439,0.0009537676
C0R880,後壁湖,2022-04-23,21.9457,120.7457,0.0011127472
C0R890,山海,2022-04-23,21.9878,120.7091,0.001050653
C0R900,竹坑,2022-04-23,22.1385,120.7022,0.3830774
C0R910,下寮,2022-04-23,22.3929,120.5548,0.116939634
C0R920,塭仔,2022-04-23,22.4169,120.5197,0.12008421
C0R930,萬丹,2022-04-23,22.5885,120.4851,0.2927023
C0R940,加祿堂,2022-04-23,22.3363,120.6217,0.15903382
C0S710,鹿野,2022-04-23,22.9177,121.123,0.17799918
C0S730,綠島,2022-04-23,22.6672,121.4753,0.4621787
C0S740,池上,2022-04-23,23.1196,121.2095,0.3338257
C0S770,大溪山,2022-04-23,22.4785,120.9433,0.24461757
C0S790,金崙,2022-04-23,22.5381,120.9669,0.6174424
C0S810,東河,2022-04-23,22.9727,121.304,0.50378245
C0S830,長濱,2022-04-23,23.2868,121.412,0.06583841
C0S840,南田,2022-04-23,22.2797,120.8892,0.2157849
C0S890,關山,2022-04-23,23.0395,121.175,0.1121777
C0S900,蘭嶼高中,2022-04-23,22.0491,121.5121,0.0076931464
C0S910,蘭嶼燈塔,2022-04-23,22.0812,121.5031,0.001301959
C0S920,金峰嘉蘭,2022-04-23,22.5948,120.9608,0.74175733
C0S930,延平,2022-04-23,22.9026,121.0841,0.12268632
C0S940,石寧山,2022-04-23,23.2238,121.4066,0.22040479
C0S950,七塊厝,2022-04-23,22.9545,121.2299,0.13790804
C0S960,香蘭,2022-04-23,22.5876,120.9934,0.747777
C0S970,加津林,2022-04-23,22.4162,120.9269,0.22528492
C0S990,山豬窟,2022-04-23,22.3186,120.8574,0.004223919
C0SA00,歷坵,2022-04-23,22.521,120.8919,0.09210971
C0SA10,檳榔四格山,2022-04-23,22.81,121.1093,0.010290609
C0SA30,都歷,2022-04-23,23.0203,121.3236,0.59300065
C0SA40,瑞和,2022-04-23,22.9744,121.1567,0.15036951
C0SA60,知本（水試所）,2022-04-23,22.7024,121.0828,0.6362761
C0SA80,土,2022-04-23,22.4531,120.8876,0.7086743
C0SA90,達仁林場,2022-04-23,22.2643,120.824,0.16959679
C0T870,鯉魚潭,2022-04-23,23.9356,121.5089,0.7990847
C0T900,西林,2022-04-23,23.8119,121.4415,0.7639975
C0T960,光復,2022-04-23,23.6607,121.425,0.68799794
C0T9A0,月眉山,2022-04-23,23.8099,121.5398,0.2702578
C0T9D0,和中,2022-04-23,24.2668,121.741,0.4946468
C0T9E0,大坑,2022-04-23,23.8806,121.582,0.46978682
C0T9F0,水璉,2022-04-23,23.7971,121.5425,0.6081407
C0T9I0,豐濱,2022-04-23,23.5839,121.5148,0.55887604
C0T9M0,靜浦,2022-04-23,23.4552,121.495,0.698795
C0T9N0,富里,2022-04-23,23.1716,121.2494,0.02128131
C0U600,礁溪,2022-04-23,24.8175,121.7656,0.18139665
C0U650,玉蘭,2022-04-23,24.6753,121.5871,0.007206106
C0U750,龜山島,2022-04-23,24.8417,121.9531,0.034811225
C0U760,東澳,2022-04-23,24.522,121.8332,0.5026145
C0U770,南澳,2022-04-23,24.4493,121.8102,0.6258119
C0U780,五結,2022-04-23,24.6864,121.7979,0.0686791
C0U860,頭城,2022-04-23,24.8532,121.8308,0.1958643
C0U870,大礁溪,2022-04-23,24.791,121.675,0.023437519
C0U880,北關,2022-04-23,24.9072,121.8734,0.050662186
C0U890,三星,2022-04-23,24.6681,121.653,0.08566311
C0U900,內城,2022-04-23,24.7181,121.6877,0.14424483
C0U910,冬山,2022-04-23,24.6337,121.7937,0.0686791
C0U940,羅東,2022-04-23,24.6818,121.7493,0.0667517
C0U970,大福,2022-04-23,24.8006,121.8139,0.23118179
C0U990,員山,2022-04-23,24.7444,121.7225,0.0667517
C0UA00,土場,2022-04-23,24.5765,121.4953,0.05788763
C0UA80,大溪漁港,2022-04-23,24.9418,121.903,0.18139665
C0UA90,石城,2022-04-23,24.9804,121.9512,0.05930553
C0UB00,淡江大學蘭陽校園,2022-04-23,24.8232,121.7304,0.027112061
C0UB10,蘇澳,2022-04-23,24.5969,121.8571,0.22753385
C0UB20,壯圍,2022-04-23,24.7359,121.8163,0.0701653
C0V250,甲仙,2022-04-23,23.0801,120.5918,0.26120457
C0V260,月眉,2022-04-23,22.971,120.5399,0.18476494
C0V310,美濃,2022-04-23,22.8987,120.5192,0.15480405
C0V350,溪埔,2022-04-23,22.7386,120.4468,0.09388153
C0V360,內門,2022-04-23,22.9755,120.4668,0.11397647
C0V370,古亭坑,2022-04-23,22.8932,120.4019,0.09587516
C0V400,阿公店,2022-04-23,22.8042,120.3555,0.09287496
C0V440,鳳山,2022-04-23,22.6467,120.3561,0.097150706
C0V450,鳳森,2022-04-23,22.5451,120.3926,0.21367249
C0V490,新興,2022-04-23,22.6274,120.2988,0.1027186
C0V530,阿蓮,2022-04-23,22.8832,120.3275,0.10766353
C0V610,梓官,2022-04-23,22.7606,120.2672,0.10551683
C0V620,永安,2022-04-23,22.8231,120.2369,0.08420058
C0V630,茄萣,2022-04-23,22.9066,120.1826,0.07902545
C0V640,湖內,2022-04-23,22.8871,120.2445,0.07665786
C0V650,彌陀,2022-04-23,22.7838,120.2464,0.08420058
C0V660,岡山,2022-04-23,22.7971,120.295,0.10551683
C0V680,仁武,2022-04-23,22.7011,120.3477,0.09506524
C0V690,鼓山,2022-04-23,22.6233,120.2756,0.1027186
C0V700,三民,2022-04-23,22.645,120.3112,0.1027186
C0V710,苓雅,2022-04-23,22.6227,120.3307,0.1027186
C0V720,林園,2022-04-23,22.5077,120.3945,0.1027186
C0V730,大寮,2022-04-23,22.6056,120.3957,0.24309537
C0V740,旗山,2022-04-23,22.8886,120.4836,0.14928944
C0V750,路竹,2022-04-23,22.855,120.2594,0.115384296
C0V760,橋頭,2022-04-23,22.7578,120.3058,0.10297515
C0V770,大社,2022-04-23,22.7303,120.3466,0.09506524
C0V790,萬山,2022-04-23,22.9059,120.6881,0.47592074
C0V800,六龜,2022-04-23,22.9979,120.6336,0.21503666
C0V810,左營,2022-04-23,22.6749,120.2849,0.09717593
C0V820,小林,2022-04-23,23.1484,120.6333,0.5016066
C0V840,鳳鼻頭,2022-04-23,22.5083,120.3591,0.10582391
C0V850,蚵仔寮,2022-04-23,22.7256,120.2527,0.10220856
C0V860,南寮,2022-04-23,22.7616,120.2339,0.08671633
C0V870,文安,2022-04-23,22.8025,120.2164,0.08671633
C0V880,興達,2022-04-23,22.8778,120.2127,0.07902545
C0V890,前鎮,2022-04-23,22.5718,120.3117,0.10582391
C0V900,汕尾,2022-04-23,22.4782,120.4151,0.14020199
C0X050,東河,2022-04-23,23.2966,120.3856,0.121227406
C0X060,下營,2022-04-23,23.2269,120.2563,0.07865606
C0X080,佳里,2022-04-23,23.173,120.1451,0.06322874
C0X100,臺南市北區,2022-04-23,23.0104,120.1942,0.08054487
C0X110,臺南市南區,2022-04-23,22.9612,120.1884,0.07879269
C0X120,麻豆,2022-04-23,23.1833,120.2486,0.06138855
C0X130,官田,2022-04-23,23.1932,120.3154,0.07196688
C0X140,西港,2022-04-23,23.1256,120.2031,0.07226949
C0X150,安定,2022-04-23,23.1026,120.2278,0.0640484
C0X160,仁德,2022-04-23,22.9683,120.2577,0.09612386
C0X170,關廟,2022-04-23,22.963,120.3278,0.085794725
C0X180,山上,2022-04-23,23.0757,120.3633,0.06421411
C0X190,安平,2022-04-23,22.9932,120.1522,0.08054487
C0X200,左鎮,2022-04-23,23.0568,120.4085,0.06826223
C0X210,白河,2022-04-23,23.3475,120.4144,0.10680469
C0X220,學甲,2022-04-23,23.2304,120.1822,0.06138855
C0X230,鹽水,2022-04-23,23.2726,120.2476,0.0662178
C0X240,關子嶺,2022-04-23,23.3312,120.508,0.45079008
C0X250,新營,2022-04-23,23.3107,120.3167,0.07751467
C0X260,後壁,2022-04-23,23.3664,120.3623,0.050334647
C0X280,將軍,2022-04-23,23.215,120.1358,0.06322874
C0X290,北門,2022-04-23,23.2678,120.1255,0.06322874
C0X300,鹿寮,2022-04-23,23.386,120.4773,0.1578865
C0X310,七股,2022-04-23,23.1473,120.0863,0.098459415
C0X320,柳營,2022-04-23,23.2533,120.3753,0.11373453
C0Z020,明里,2022-04-23,23.2087,121.2623,0.09086758
C0Z061,玉里,2022-04-23,23.3215,121.3397,0.15001382
C0Z070,舞鶴,2022-04-23,23.4681,121.3741,0.36187375
C0Z080,富源,2022-04-23,23.5876,121.3782,0.41488132
C0Z100,東華,2022-04-23,23.8953,121.5498,0.8323677
C0Z150,吉安光華,2022-04-23,23.9309,121.5952,0.8316516
C0Z160,鳳林,2022-04-23,23.7461,121.4534,0.7138459
C0Z170,卓溪,2022-04-23,23.3443,121.3029,0.10880277
C0Z180,新城,2022-04-23,24.0395,121.6045,0.6616079
C0Z190,富世,2022-04-23,24.1474,121.6297,0.12212989
C0Z200,萬榮,2022-04-23,23.7092,121.4201,0.7990847
C0Z210,瑞穗,2022-04-23,23.5239,121.3902,0.6191374
C0Z230,和平,2022-04-23,24.3072,121.7701,0.4946468
C0Z270,蕃薯寮,2022-04-23,23.7384,121.5401,0.75408715
C0Z280,德武,2022-04-23,23.4743,121.4107,0.5244235
C0Z300,東里,2022-04-23,23.2685,121.3055,0.12807882
C0Z310,清水斷崖,2022-04-23,24.2183,121.6891,0.39742526
C0Z330,安通山,2022-04-23,23.2907,121.3485,0.084145
