站號,站名,日期,lat,lon,BlastGRU-TW
466881,新北,2022-01-17,24.9593,121.52,0.0007794868
466900,淡水,2022-01-17,25.164889,121.448906,0.00086802605
466920,臺北,2022-01-17,25.037658,121.514853,0.000796072
467441,高雄,2022-01-17,22.7304,120.3125,0.00051332667
467480,嘉義,2022-01-17,23.495925,120.432906,0.007830056
467490,臺中,2022-01-17,24.145736,120.684075,0.004278127
C0A540,四堵,2022-01-17,24.8926,121.745736,0.0013936843
C0A550,泰平,2022-01-17,24.971197,121.823711,0.0008278567
C0A560,福山,2022-01-17,24.776203,121.502811,0.0013425797
C0A931,三和,2022-01-17,25.233153,121.595236,0.0012518342
C0A940,金山,2022-01-17,25.223628,121.643967,0.0008302764
C0A950,鼻頭角,2022-01-17,25.129036,121.923372,0.001886437
C0AD10,八里,2022-01-17,25.150211,121.403947,0.00086802605
C0AD30,蘆洲,2022-01-17,25.086594,121.472331,0.00079558557
C0AD40,土城,2022-01-17,24.973208,121.445169,0.0007841274
C0AI10,屈尺,2022-01-17,24.92184,121.54475,0.0007503447
C0AI20,白沙灣,2022-01-17,25.283128,121.519058,0.0008459505
C0AI30,三重,2022-01-17,25.057328,121.500629,0.00079558557
C0B010,七堵,2022-01-17,25.094819,121.71713,0.00088142604
C0B020,基隆嶼,2022-01-17,25.19141,121.78391,0.00090431876
