站號,站名,日期,lat,lon,BlastGRU-TW
466881,新北,2022-03-31,24.9593,121.52,0.08779794
466900,淡水,2022-03-31,25.164889,121.448906,0.020555722
466920,臺北,2022-03-31,25.037658,121.514853,0.0963126
467350,澎湖,2022-03-31,23.565503,119.563094,0.009555681
467410,臺南,2022-03-31,22.993239,120.204772,0.8938504
467420,永康,2022-03-31,23.038386,120.2367,0.8988215
467790,墾丁雷達站,2022-03-31,21.948235,120.808028,0.09367756
C0A520,山佳,2022-03-31,24.974944,121.402008,0.033151813
C0A530,坪林,2022-03-31,24.938183,121.70975,0.024267128
C0A880,福隆,2022-03-31,25.017842,121.942083,0.026368106
C0A890,雙溪,2022-03-31,25.036003,121.864242,0.00967755
C0A920,富貴角,2022-03-31,25.263783,121.565258,0.0033057076
C0AC80,文山,2022-03-31,25.00235,121.575728,0.07543516
C0ACA0,新莊,2022-03-31,25.051478,121.446756,0.02800688
C0AD00,三芝,2022-03-31,25.258131,121.501917,0.0046288418
C0AH70,松山,2022-03-31,25.04871,121.55042,0.0963126
C0AH80,深坑,2022-03-31,25.002703,121.628328,0.07543516
C0AI00,五股,2022-03-31,25.07445,121.42728,0.0041306736
C0AJ70,田寮,2022-03-31,25.2698,121.4886,0.0074592666
