站號,站名,日期,lat,lon,BlastGRU-TW
12J990,口湖工作站,2022-08-05,23.589978,120.180394,0.27552012
12Q970,東港工作站,2022-08-05,22.479997,120.466058,0.34965736
12Q980,恆春工作站,2022-08-05,22.079678,120.714425,0.99874246
466881,新北,2022-08-05,24.9593,121.52,0.46173766
466900,淡水,2022-08-05,25.164889,121.448906,0.61561185
466920,臺北,2022-08-05,25.037658,121.514853,0.45221186
466940,基隆,2022-08-05,25.133314,121.740475,0.34964317
466990,花蓮,2022-08-05,23.975128,121.613275,0.78209126
467050,新屋,2022-08-05,25.006744,121.047486,0.64828277
467060,蘇澳,2022-08-05,24.596736,121.857372,0.12794669
467080,宜蘭,2022-08-05,24.763975,121.756528,0.08009391
467270,田中,2022-08-05,23.873803,120.581286,0.3382189
467300,東吉島,2022-08-05,23.25695,119.667467,0.8545313
467350,澎湖,2022-08-05,23.565503,119.563094,0.9099142
467410,臺南,2022-08-05,22.993239,120.204772,0.38494757
467420,永康,2022-08-05,23.038386,120.2367,0.37536728
467441,高雄,2022-08-05,22.7304,120.3125,0.30233696
467480,嘉義,2022-08-05,23.495925,120.432906,0.5222486
467490,臺中,2022-08-05,24.145736,120.684075,0.8171512
467540,大武,2022-08-05,22.355675,120.903789,0.86193943
467571,新竹,2022-08-05,24.827853,121.014219,0.7211362
467590,恆春,2022-08-05,22.003897,120.746339,0.99884564
467610,成功,2022-08-05,23.097486,121.373428,0.22921638
467620,蘭嶼,2022-08-05,22.036969,121.558339,0.9984586
467660,臺東,2022-08-05,22.752211,121.154586,0.97332567
467790,墾丁雷達站,2022-08-05,21.948235,120.808028,0.9989334
72AI40,桃改臺北分場,2022-08-05,24.944503,121.386972,0.53679204
72C440,桃園農改場,2022-08-05,24.950944,121.030583,0.6573859
72D680,新埔,2022-08-05,24.834444,121.066111,0.6860445
72G600,臺中農改場,2022-08-05,24.003028,120.534389,0.3599602
72K220,雲林分場,2022-08-05,23.634556,120.477333,0.24335685
72L140,朴子分場,2022-08-05,23.4982,120.2414,0.27189803
72M360,義竹工作站,2022-08-05,23.360694,120.279361,0.2663522
72M700,嘉義分場,2022-08-05,23.416869,120.283061,0.25395125
72N100,臺南農改場,2022-08-05,23.0605,120.342194,0.43762976
72N240,七股研究中心,2022-08-05,23.081672,120.062894,0.2921744
72Q010,高雄農改場,2022-08-05,22.709333,120.525889,0.5876131
72S200,斑鳩分場,2022-08-05,22.829528,121.077694,0.99837536
72S590,賓朗果園,2022-08-05,22.813889,121.071278,0.9985773
72T250,花蓮農改場,2022-08-05,23.975222,121.563889,0.81955695
72U480,蘭陽分場,2022-08-05,24.686306,121.716583,0.1200259
72V140,旗南,2022-08-05,22.857861,120.516667,0.71545655
82A750,文山分場,2022-08-05,24.955778,121.631222,0.1404255
82C160,茶改場(楊梅),2022-08-05,24.908472,121.185333,0.7997699
82H840,凍頂工作站,2022-08-05,23.762528,120.7405,0.88016057
82S580,龍田,2022-08-05,22.907694,121.130139,0.32285595
A0K420,麥寮,2022-08-05,23.7988,120.2177,0.340783
A0W080,吉貝,2022-08-05,23.74,119.6042,0.92121124
A2C560,農工中心,2022-08-05,24.985917,121.239833,0.7609224
A2K360,臺西分所,2022-08-05,23.717231,120.190522,0.3720497
A2K570,古坑(花卉中心),2022-08-05,23.633531,120.552392,0.45585778
A2K630,臺大雲林校區,2022-08-05,23.730628,120.423903,0.19863251
A2N290,臺南蘭花園區,2022-08-05,23.340258,120.379661,0.36935097
B2E890,新竹畜試,2022-08-05,24.527806,120.770972,0.72847104
B2N890,畜產試驗所,2022-08-05,23.058972,120.336406,0.43762976
B2Q810,恆春分所,2022-08-05,21.945583,120.802167,0.9988117
B2U990,宜蘭畜試,2022-08-05,24.669039,121.832561,0.117870376
C0A520,山佳,2022-08-05,24.974944,121.402008,0.53679204
C0A530,坪林,2022-08-05,24.938183,121.70975,0.12608269
C0A540,四堵,2022-08-05,24.8926,121.745736,0.12126507
C0A550,泰平,2022-08-05,24.971197,121.823711,0.11468647
C0A560,福山,2022-08-05,24.776203,121.502811,0.1404255
C0A570,桶後,2022-08-05,24.848222,121.597992,0.14925751
C0A640,石碇,2022-08-05,24.993969,121.662917,0.10500717
C0A650,火燒寮,2022-08-05,25.002719,121.742892,0.11322342
C0A660,瑞芳,2022-08-05,25.113169,121.801147,0.07967386
C0A770,科教館,2022-08-05,25.096356,121.516507,0.5199196
C0A860,大坪,2022-08-05,25.165914,121.632969,0.23936577
C0A880,福隆,2022-08-05,25.017842,121.942083,0.07306318
C0A890,雙溪,2022-08-05,25.036003,121.864242,0.3701462
C0A920,富貴角,2022-08-05,25.263783,121.565258,0.49989
C0A931,三和,2022-08-05,25.233153,121.595236,0.11190683
C0A940,金山,2022-08-05,25.223628,121.643967,0.59222883
C0A950,鼻頭角,2022-08-05,25.129036,121.923372,0.072534874
C0A970,三貂角,2022-08-05,25.007606,122.002058,0.077795595
C0A980,社子,2022-08-05,25.109508,121.469681,0.51469624
C0A9C0,天母,2022-08-05,25.117494,121.537169,0.5309536
C0A9F0,內湖,2022-08-05,25.079422,121.57545,0.45221186
C0AC60,三峽,2022-08-05,24.939025,121.369728,0.46634743
C0AC70,信義,2022-08-05,25.037822,121.564597,0.45221186
C0AC80,文山,2022-08-05,25.00235,121.575728,0.47672588
C0ACA0,新莊,2022-08-05,25.051478,121.446756,0.5320713
C0AD00,三芝,2022-08-05,25.258131,121.501917,0.61370516
C0AD10,八里,2022-08-05,25.150211,121.403947,0.61561185
C0AD30,蘆洲,2022-08-05,25.086594,121.472331,0.51991934
C0AD40,土城,2022-08-05,24.973208,121.445169,0.5256258
C0AD50,鶯歌,2022-08-05,24.951533,121.346294,0.64456
C0AG80,中和,2022-08-05,24.991622,121.491792,0.45221186
C0AH00,汐止,2022-08-05,25.066881,121.658778,0.35323176
C0AH10,永和,2022-08-05,25.01125,121.508111,0.44727737
C0AH40,平等,2022-08-05,25.129142,121.577086,0.14553052
C0AH50,林口,2022-08-05,25.072181,121.38084,0.19663009
C0AH70,松山,2022-08-05,25.04871,121.55042,0.45221186
C0AH80,深坑,2022-08-05,25.002703,121.628328,0.47614768
C0AI00,五股,2022-08-05,25.07445,121.42728,0.65319854
C0AI10,屈尺,2022-08-05,24.92184,121.54475,0.47672588
C0AI20,白沙灣,2022-08-05,25.283128,121.519058,0.5818994
C0AI30,三重,2022-08-05,25.057328,121.500629,0.5199196
C0AI40,石牌,2022-08-05,25.115597,121.513139,0.5256258
C0AJ10,澳底,2022-08-05,25.057107,121.927272,0.07180485
C0AJ20,野柳,2022-08-05,25.20703,121.690021,0.35323176
C0AJ30,淡水觀海,2022-08-05,25.184591,121.408616,0.60986483
C0AJ40,石門,2022-08-05,25.273672,121.601198,0.6758278
C0AJ50,水湳洞,2022-08-05,25.123695,121.862238,0.35323176
C0AJ60,六塊厝,2022-08-05,25.24,121.4481,0.60986483
C0AJ70,田寮,2022-08-05,25.2698,121.4886,0.5769509
C0AJ80,板橋,2022-08-05,25.0107,121.4489,0.5256258
C0B010,七堵,2022-08-05,25.094819,121.71713,0.36148614
C0B020,基隆嶼,2022-08-05,25.19141,121.78391,0.35323176
C0B040,大武崙,2022-08-05,25.166676,121.706993,0.36148614
C0B050,八斗子,2022-08-05,25.144754,121.79167,0.3453188
C0B060,暖暖,2022-08-05,25.0957,121.7403,0.3845201
C0C460,復興,2022-08-05,24.820208,121.352281,0.18374997
C0C480,桃園,2022-08-05,24.992425,121.323172,0.66649634
C0C490,八德,2022-08-05,24.928708,121.283289,0.5754856
C0C590,觀音,2022-08-05,25.027072,121.153317,0.72622025
C0C620,蘆竹,2022-08-05,25.084275,121.265767,0.6260331
C0C630,大溪,2022-08-05,24.882853,121.265547,0.6167564
C0C650,平鎮,2022-08-05,24.897503,121.214636,0.7997699
C0C660,楊梅,2022-08-05,24.912375,121.143047,0.81632763
C0C670,龍潭,2022-08-05,24.870056,121.221389,0.8179069
C0C680,龜山,2022-08-05,25.02846,121.38656,0.19373004
C0C700,中壢,2022-08-05,24.977661,121.256375,0.6902497
C0C710,大溪永福,2022-08-05,24.892936,121.324975,0.77542526
C0C720,竹圍,2022-08-05,25.112692,121.239824,0.61561185
C0C730,中大臨海站,2022-08-05,24.966126,121.008581,0.6351495
C0C740,觀音工業區,2022-08-05,25.064764,121.114856,0.7430057
C0C750,新興坑尾,2022-08-05,25.0061,121.0971,0.78538805
C0D390,關西,2022-08-05,24.7977,121.1732,0.74805605
C0D430,峨眉,2022-08-05,24.6905,121.017189,0.732342
C0D480,打鐵坑,2022-08-05,24.849664,121.150789,0.7599154
C0D540,橫山,2022-08-05,24.71116,121.11693,0.8273967
C0D560,竹東,2022-08-05,24.767147,121.057881,0.7274633
C0D580,寶山,2022-08-05,24.735006,121.025192,0.7553031
C0D590,新豐,2022-08-05,24.87068,120.97721,0.7507411
C0D650,湖口,2022-08-05,24.904794,121.043628,0.6810672
C0D660,新竹市東區,2022-08-05,24.798681,120.986942,0.7326609
C0D670,海天一線,2022-08-05,24.831986,120.914438,0.73602515
C0D680,香山濕地,2022-08-05,24.783581,120.914988,0.7430159
C0D690,外湖,2022-08-05,24.917735,120.968711,0.6351495
C0E420,竹南,2022-08-05,24.708978,120.888897,0.761528
C0E430,南庄,2022-08-05,24.601775,121.000214,0.7830153
C0E520,大湖,2022-08-05,24.41494,120.87087,0.93472546
C0E540,後龍,2022-08-05,24.606489,120.783933,0.7387502
C0E550,明德,2022-08-05,24.583486,120.885411,0.7811733
C0E590,通霄,2022-08-05,24.471892,120.704622,0.69781375
C0E730,頭份,2022-08-05,24.688247,120.912206,0.761528
C0E740,造橋,2022-08-05,24.637056,120.864778,0.7509709
C0E750,苗栗,2022-08-05,24.564569,120.824575,0.777279
C0E780,銅鑼,2022-08-05,24.489681,120.790853,0.7611772
C0E791,卓蘭,2022-08-05,24.3126,120.8244,0.6570785
C0E810,西湖,2022-08-05,24.562947,120.7485,0.7616505
C0E820,獅潭,2022-08-05,24.539133,120.920042,0.7711335
C0E830,苑裡,2022-08-05,24.439714,120.653053,0.6034181
C0E850,大河,2022-08-05,24.618069,120.948578,0.7938357
C0E870,高鐵苗栗,2022-08-05,24.60725,120.826094,0.74644107
C0E910,海埔,2022-08-05,24.648767,120.772435,0.7291125
C0E920,通霄漁港,2022-08-05,24.498589,120.673876,0.66223305
C0E930,龍鳳,2022-08-05,24.700034,120.859125,0.7358538
C0F000,大肚,2022-08-05,24.15295,120.572117,0.30079266
C0F0B0,石岡,2022-08-05,24.276061,120.777644,0.3087547
C0F850,東勢,2022-08-05,24.246428,120.833047,0.71108836
C0F930,大甲,2022-08-05,24.347667,120.640403,0.6365534
C0F970,大坑,2022-08-05,24.173142,120.722289,0.8376381
C0F9A0,中竹林,2022-08-05,24.103556,120.751061,0.81989914
C0F9I0,神岡,2022-08-05,24.272481,120.658314,0.8466743
C0F9K0,大安,2022-08-05,24.345061,120.588025,0.5611985
C0F9L0,后里,2022-08-05,24.310436,120.729725,0.9215242
C0F9M0,豐原,2022-08-05,24.254322,120.720692,0.88690877
C0F9N0,大里,2022-08-05,24.092464,120.701378,0.6703446
C0F9O0,潭子,2022-08-05,24.213106,120.703933,0.86583465
C0F9P0,清水,2022-08-05,24.312297,120.562242,0.5466495
C0F9Q0,外埔,2022-08-05,24.347817,120.705686,0.7941634
C0F9R0,龍井,2022-08-05,24.184536,120.528972,0.57013786
C0F9S0,烏日,2022-08-05,24.107058,120.624103,0.342038
C0F9T0,西屯,2022-08-05,24.179494,120.641275,0.6681041
C0F9U0,南屯,2022-08-05,24.137006,120.637969,0.6703446
C0F9X0,大雅(中科園區),2022-08-05,24.21528,120.62445,0.7604433
C0FA10,松柏,2022-08-05,24.429115,120.617482,0.58048993
C0FA20,溫寮,2022-08-05,24.372177,120.583125,0.58048993
C0FA30,梧棲,2022-08-05,24.256003,120.523381,0.5701378
C0FA40,臺中電廠,2022-08-05,24.2146,120.4907,0.57013786
C0FA50,霧峰,2022-08-05,24.0419,120.6995,0.76444453
C0G620,芬園,2022-08-05,24.015678,120.6213,0.53406
C0G640,鹿港,2022-08-05,24.0753,120.430481,0.33987868
C0G650,員林,2022-08-05,23.946503,120.585597,0.44233775
C0G660,溪湖,2022-08-05,23.94835,120.479122,0.44278017
C0G720,溪州,2022-08-05,23.851589,120.499093,0.37201697
C0G730,二林,2022-08-05,23.903325,120.376081,0.34427893
C0G740,大城,2022-08-05,23.852487,120.320935,0.38495165
C0G770,福興,2022-08-05,24.041289,120.437669,0.33987868
C0G780,秀水,2022-08-05,24.03405,120.503869,0.34923068
C0G800,埔鹽,2022-08-05,24.000394,120.431683,0.33987868
C0G810,埔心,2022-08-05,23.947633,120.525456,0.4566646
C0G820,田尾,2022-08-05,23.901669,120.509389,0.47031
C0G830,埤頭,2022-08-05,23.866003,120.452806,0.34952876
C0G840,北斗,2022-08-05,23.877586,120.514222,0.47031
C0G860,社頭,2022-08-05,23.897647,120.5862,0.45820174
C0G870,芳苑,2022-08-05,23.922303,120.320025,0.37819937
C0G880,二水,2022-08-05,23.810742,120.6173,0.47708866
C0G890,伸港,2022-08-05,24.148933,120.484403,0.59126616
C0G900,線西,2022-08-05,24.143358,120.443536,0.62722445
C0G910,花壇,2022-08-05,24.032076,120.549461,0.36806747
C0G920,永靖,2022-08-05,23.924703,120.547533,0.47031
C0G940,竹塘,2022-08-05,23.848253,120.386764,0.23107047
C0G950,防潮門,2022-08-05,24.1835,120.4871,0.56194824
C0G960,福寶,2022-08-05,24.0443,120.3814,0.33126196
C0G970,三豐,2022-08-05,23.882,120.2895,0.37819937
C0H890,埔里,2022-08-05,23.972169,120.952425,0.5829326
C0H950,中寮,2022-08-05,23.884447,120.766406,0.7828224
C0H960,草屯,2022-08-05,23.973672,120.68085,0.4724317
C0I110,竹山,2022-08-05,23.761225,120.688156,0.7075073
C0I360,水里,2022-08-05,23.812553,120.849792,0.67564476
C0I380,集集,2022-08-05,23.828206,120.801467,0.6094266
C0I410,名間,2022-08-05,23.837053,120.701447,0.61063665
C0I420,國姓,2022-08-05,24.037803,120.855072,0.51598513
C0I460,南投,2022-08-05,23.911469,120.687331,0.5698773
C0K250,崙背,2022-08-05,23.75555,120.318925,0.37969136
C0K280,四湖,2022-08-05,23.630414,120.227125,0.3977009
C0K291,宜梧,2022-08-05,23.536281,120.169329,0.26771998
C0K330,虎尾,2022-08-05,23.719183,120.442036,0.2025562
C0K390,土庫,2022-08-05,23.679029,120.395574,0.19863251
C0K400,斗六,2022-08-05,23.720583,120.541127,0.2746202
C0K410,北港,2022-08-05,23.573957,120.292802,0.25522998
C0K420,西螺,2022-08-05,23.800407,120.467394,0.36126193
C0K430,褒忠,2022-08-05,23.690938,120.303634,0.340783
C0K440,二崙,2022-08-05,23.772797,120.408944,0.23626691
C0K450,大埤,2022-08-05,23.646074,120.431537,0.19740833
C0K460,斗南,2022-08-05,23.678734,120.478359,0.25773597
C0K470,林內,2022-08-05,23.748675,120.609642,0.3017813
C0K480,莿桐,2022-08-05,23.761192,120.502372,0.3745713
C0K500,元長,2022-08-05,23.64981,120.315024,0.36681813
C0K510,水林,2022-08-05,23.572924,120.24597,0.2794443
C0K530,臺西,2022-08-05,23.701547,120.197559,0.3774959
C0K550,蔦松,2022-08-05,23.514319,120.229736,0.27189803
C0K560,棋山,2022-08-05,23.68645,120.603417,0.32947826
C0K580,高鐵雲林,2022-08-05,23.737456,120.417944,0.19863251
C0K590,雲林東勢,2022-08-05,23.674192,120.255721,0.340783
C0K600,箔子寮,2022-08-05,23.6197,120.14,0.27552012
C0M410,馬頭山,2022-08-05,23.324361,120.582017,0.7106109
C0M520,東後寮,2022-08-05,23.369908,120.248065,0.28520876
C0M640,中埔,2022-08-05,23.42538,120.5229,0.5462474
C0M650,朴子,2022-08-05,23.43463,120.23902,0.27141204
C0M660,溪口,2022-08-05,23.604131,120.403569,0.43256676
C0M670,大林,2022-08-05,23.600616,120.45841,0.5357032
C0M680,太保,2022-08-05,23.455062,120.331455,0.23339835
C0M690,水上,2022-08-05,23.419734,120.388909,0.5753588
C0M700,竹崎,2022-08-05,23.526178,120.555508,0.596332
C0M710,東石,2022-08-05,23.458927,120.15385,0.27189803
C0M720,番路,2022-08-05,23.464657,120.554156,0.747144
C0M730,嘉義市東區,2022-08-05,23.457673,120.460531,0.68617296
C0M740,六腳,2022-08-05,23.492871,120.290625,0.22991563
C0M750,布袋,2022-08-05,23.380878,120.167789,0.27141204
C0M760,民雄,2022-08-05,23.551754,120.428457,0.45130858
C0M770,嘉義梅山,2022-08-05,23.585398,120.555587,0.41529837
C0M780,鹿草,2022-08-05,23.41134,120.30835,0.25848606
C0M790,新港,2022-08-05,23.553269,120.345728,0.25959858
C0M800,茶山,2022-08-05,23.299075,120.664767,0.49434328
C0M880,好美里,2022-08-05,23.3364,120.138,0.30049467
C0N010,鯤鯓國小,2022-08-05,23.1879,120.0889,0.28476933
C0N020,城西,2022-08-05,23.0568,120.0956,0.29689872
C0N030,四草,2022-08-05,23.0235,120.1116,0.22805126
C0N040,蘆竹溝,2022-08-05,23.2344,120.0961,0.28476933
C0N050,蚵寮,2022-08-05,23.301,120.1104,0.28476933
C0O810,曾文,2022-08-05,23.219681,120.497328,0.6253045
C0O830,北寮,2022-08-05,23.079561,120.495008,0.66439176
C0O840,王爺宮,2022-08-05,23.222064,120.40085,0.6253045
C0O860,大內,2022-08-05,23.11885,120.36083,0.592383
C0O900,善化,2022-08-05,23.112883,120.297219,0.40813646
C0O930,玉井,2022-08-05,23.126042,120.46055,0.41862172
C0O950,安南,2022-08-05,23.076694,120.144861,0.41963372
C0O960,崎頂,2022-08-05,22.959547,120.369317,0.54724634
C0O970,虎頭埤,2022-08-05,23.021375,120.347878,0.26410788
C0O980,新市,2022-08-05,23.061614,120.298197,0.40813646
C0O990,媽廟,2022-08-05,22.99175,120.293525,0.3693385
C0R150,三地門,2022-08-05,22.709889,120.639944,0.53152114
C0R160,鹽埔,2022-08-05,22.739558,120.530778,0.58761376
C0R170,屏東,2022-08-05,22.660269,120.494072,0.29660925
C0R190,赤山,2022-08-05,22.592333,120.614306,0.5785365
C0R220,潮州,2022-08-05,22.534361,120.54,0.6181797
C0R240,來義,2022-08-05,22.527306,120.625111,0.6796992
C0R260,春日,2022-08-05,22.370361,120.628306,0.6418739
C0R270,琉球嶼,2022-08-05,22.332244,120.362236,0.6509915
C0R280,檳榔,2022-08-05,22.076078,120.836777,0.999229
C0R320,車城,2022-08-05,22.0744,120.716247,0.99874246
C0R341,牡丹,2022-08-05,22.130036,120.792639,0.8938729
C0R350,貓鼻頭,2022-08-05,21.921774,120.7358,0.99887466
C0R470,高樹,2022-08-05,22.826389,120.600806,0.5940787
C0R480,長治,2022-08-05,22.693128,120.542622,0.60021013
C0R490,九如,2022-08-05,22.7405,120.490503,0.30317286
C0R520,崁頂,2022-08-05,22.514781,120.506914,0.35721946
C0R540,佳冬,2022-08-05,22.419456,120.552375,0.34965736
C0R550,新埤,2022-08-05,22.467947,120.582894,0.566467
C0R560,新園,2022-08-05,22.5434,120.461558,0.35721946
C0R570,麟洛,2022-08-05,22.65078,120.52719,0.30317286
C0R580,南州,2022-08-05,22.48591,120.50274,0.34965736
C0R590,里港,2022-08-05,22.77919,120.49459,0.63358325
C0R620,墾雷,2022-08-05,21.900836,120.855269,0.99887466
C0R640,東港,2022-08-05,22.46247,120.44074,0.30801657
C0R650,竹田,2022-08-05,22.58486,120.54344,0.5534889
C0R660,枋寮,2022-08-05,22.367722,120.590647,0.58543324
C0R670,楓港,2022-08-05,22.190131,120.692156,0.6271747
C0R680,佳樂水,2022-08-05,21.993578,120.861633,0.9988117
C0R690,墾丁,2022-08-05,21.966756,120.810269,0.99927026
C0R700,枋山,2022-08-05,22.246844,120.661086,0.6271747
C0R710,龍磐,2022-08-05,21.931672,120.838942,0.99912083
C0R720,旭海,2022-08-05,22.205403,120.887614,0.99868935
C0R730,大坪頂,2022-08-05,22.024633,120.69355,0.9989874
C0R740,獅子,2022-08-05,22.201569,120.70525,0.6880796
C0R760,南仁湖,2022-08-05,22.084681,120.863353,0.9992625
C0R770,保力,2022-08-05,22.071122,120.764111,0.99901795
C0R780,滿州,2022-08-05,22.024403,120.839892,0.99890625
C0R790,九棚,2022-08-05,22.14195,120.889281,0.99832165
C0R800,丹路,2022-08-05,22.204481,120.750989,0.79754746
C0R810,內獅,2022-08-05,22.305064,120.642986,0.58190644
C0R830,高士,2022-08-05,22.121825,120.836781,0.99938035
C0R850,林邊,2022-08-05,22.4634,120.5339,0.35721946
C0R860,鼻頭,2022-08-05,22.1043,120.8979,0.9973914
C0R870,興海,2022-08-05,21.9752,120.8439,0.9988117
C0R880,後壁湖,2022-08-05,21.9457,120.7457,0.99870676
C0R890,山海,2022-08-05,21.9878,120.7091,0.99874246
C0R900,竹坑,2022-08-05,22.1385,120.7022,0.7864511
C0R910,下寮,2022-08-05,22.3929,120.5548,0.34965736
C0R920,塭仔,2022-08-05,22.4169,120.5197,0.34220856
C0R930,萬丹,2022-08-05,22.5885,120.4851,0.5534889
C0R940,加祿堂,2022-08-05,22.3363,120.6217,0.58190644
C0S710,鹿野,2022-08-05,22.917711,121.122994,0.6244675
C0S730,綠島,2022-08-05,22.6672,121.47533,0.25398073
C0S740,池上,2022-08-05,23.119628,121.209469,0.39846075
C0S770,大溪山,2022-08-05,22.478475,120.943325,0.9982939
C0S790,金崙,2022-08-05,22.538122,120.966875,0.98645866
C0S810,東河,2022-08-05,22.972672,121.303986,0.23420241
C0S830,長濱,2022-08-05,23.286817,121.411975,0.39939186
C0S840,南田,2022-08-05,22.279725,120.889208,0.9688534
C0S890,關山,2022-08-05,23.0395,121.175017,0.3079159
C0S900,蘭嶼高中,2022-08-05,22.04909,121.51214,0.9939793
C0S910,蘭嶼燈塔,2022-08-05,22.081197,121.503117,0.9968151
C0S920,金峰嘉蘭,2022-08-05,22.594789,120.960825,0.9211494
C0S930,延平,2022-08-05,22.902581,121.084058,0.37143236
C0S940,石寧山,2022-08-05,23.223772,121.406639,0.23423241
C0S950,七塊厝,2022-08-05,22.954453,121.229922,0.713759
C0S960,香蘭,2022-08-05,22.587569,120.993375,0.81804216
C0S970,加津林,2022-08-05,22.416211,120.926942,0.8841938
C0S990,山豬窟,2022-08-05,22.318619,120.857372,0.9988273
C0SA00,歷坵,2022-08-05,22.520969,120.89185,0.99862754
C0SA10,檳榔四格山,2022-08-05,22.810031,121.109308,0.9985933
C0SA30,都歷,2022-08-05,23.020333,121.323642,0.2458232
C0SA40,瑞和,2022-08-05,22.974361,121.156697,0.29507533
C0SA60,知本（水試所）,2022-08-05,22.702394,121.082761,0.96940935
C0SA80,土坂,2022-08-05,22.453108,120.887572,0.9540967
C0SA90,達仁林場,2022-08-05,22.264347,120.823972,0.9969189
C0T870,鯉魚潭,2022-08-05,23.935639,121.508944,0.7351515
C0T900,西林,2022-08-05,23.8119,121.441458,0.8118831
C0T960,光復,2022-08-05,23.660694,121.424964,0.8129226
C0T9A0,月眉山,2022-08-05,23.809928,121.539828,0.99309593
C0T9D0,和中,2022-08-05,24.26676,121.74103,0.12129876
C0T9E0,大坑,2022-08-05,23.880628,121.581981,0.97393584
C0T9F0,水璉,2022-08-05,23.797131,121.542514,0.92825896
C0T9I0,豐濱,2022-08-05,23.583897,121.514806,0.83524716
C0T9M0,靜浦,2022-08-05,23.455167,121.495028,0.7263603
C0T9N0,富里,2022-08-05,23.171639,121.249378,0.7212676
C0U600,礁溪,2022-08-05,24.817539,121.765608,0.080935515
C0U650,玉蘭,2022-08-05,24.675286,121.587061,0.35819665
C0U750,龜山島,2022-08-05,24.841667,121.953133,0.19963565
C0U760,東澳,2022-08-05,24.52196,121.83318,0.092570595
C0U770,南澳,2022-08-05,24.44935,121.81022,0.08239879
C0U780,五結,2022-08-05,24.68637,121.79794,0.117870376
C0U860,頭城,2022-08-05,24.85323,121.8308,0.08009391
C0U870,大礁溪,2022-08-05,24.791042,121.675047,0.13984174
C0U880,北關,2022-08-05,24.9072,121.8734,0.4036105
C0U890,三星,2022-08-05,24.66812,121.65302,0.09007327
C0U900,內城,2022-08-05,24.71813,121.68766,0.083044335
C0U910,冬山,2022-08-05,24.63373,121.7937,0.11787044
C0U940,羅東,2022-08-05,24.68184,121.74934,0.118932016
C0U970,大福,2022-08-05,24.80064,121.81389,0.07951516
C0U990,員山,2022-08-05,24.74435,121.72247,0.11893199
C0UA00,土場,2022-08-05,24.576533,121.495333,0.11834754
C0UA80,大溪漁港,2022-08-05,24.941801,121.902955,0.080935515
C0UA90,石城,2022-08-05,24.980444,121.951214,0.07273593
C0UB00,淡江大學蘭陽校園,2022-08-05,24.823239,121.730383,0.14323324
C0UB20,壯圍,2022-08-05,24.7359,121.8163,0.11678071
C0V250,甲仙,2022-08-05,23.080106,120.591758,0.6912134
C0V260,月眉,2022-08-05,22.971003,120.539853,0.62560964
C0V310,美濃,2022-08-05,22.898742,120.519153,0.35501194
C0V350,溪埔,2022-08-05,22.738578,120.446797,0.29300776
C0V360,內門,2022-08-05,22.975481,120.466769,0.50122327
C0V370,古亭坑,2022-08-05,22.893178,120.401947,0.31381717
C0V400,阿公店,2022-08-05,22.804194,120.355528,0.27504194
C0V440,鳳山,2022-08-05,22.646653,120.356122,0.32771096
C0V450,鳳森,2022-08-05,22.545064,120.392592,0.6178115
C0V490,新興,2022-08-05,22.627422,120.298803,0.3144376
C0V530,阿蓮,2022-08-05,22.883208,120.327508,0.30576333
C0V610,梓官,2022-08-05,22.760558,120.267211,0.23591897
C0V620,永安,2022-08-05,22.82315,120.236856,0.24559653
C0V630,茄萣,2022-08-05,22.906642,120.182608,0.31810227
C0V640,湖內,2022-08-05,22.887139,120.2445,0.32618156
C0V650,彌陀,2022-08-05,22.783806,120.246361,0.24559653
C0V660,岡山,2022-08-05,22.797078,120.294958,0.23591897
C0V680,仁武,2022-08-05,22.701083,120.347722,0.3084339
C0V690,鼓山,2022-08-05,22.623325,120.275575,0.3144376
C0V700,三民,2022-08-05,22.645017,120.311233,0.3144376
C0V710,苓雅,2022-08-05,22.622742,120.330669,0.3144376
C0V720,林園,2022-08-05,22.507747,120.394511,0.3144376
C0V730,大寮,2022-08-05,22.605614,120.395717,0.5552682
C0V740,旗山,2022-08-05,22.888614,120.483597,0.36502483
C0V750,路竹,2022-08-05,22.854997,120.259439,0.2197137
C0V760,橋頭,2022-08-05,22.757806,120.30575,0.24074465
C0V770,大社,2022-08-05,22.730306,120.346639,0.30843395
C0V790,萬山,2022-08-05,22.905944,120.688056,0.39089757
C0V800,六龜,2022-08-05,22.997889,120.633583,0.6541008
C0V810,左營,2022-08-05,22.67491,120.28491,0.30233696
C0V820,小林,2022-08-05,23.148408,120.63325,0.6443877
C0V840,鳳鼻頭,2022-08-05,22.5083,120.3591,0.30801657
C0V850,蚵仔寮,2022-08-05,22.7256,120.2527,0.29631066
C0V860,南寮,2022-08-05,22.7616,120.2339,0.24064781
C0V870,文安,2022-08-05,22.8025,120.2164,0.24064781
C0V880,興達,2022-08-05,22.8778,120.2127,0.31810227
C0V890,前鎮,2022-08-05,22.5718,120.3117,0.30801657
C0V900,汕尾,2022-08-05,22.4782,120.4151,0.28994435
C0X050,東河,2022-08-05,23.296598,120.385608,0.36935076
C0X060,下營,2022-08-05,23.22695,120.256261,0.28276536
C0X080,佳里,2022-08-05,23.173039,120.145086,0.30049467
C0X100,臺南市北區,2022-08-05,23.010394,120.194228,0.36678624
C0X110,臺南市南區,2022-08-05,22.961189,120.188378,0.37536728
C0X120,麻豆,2022-08-05,23.183289,120.248611,0.30549943
C0X130,官田,2022-08-05,23.193217,120.315422,0.2926385
C0X140,西港,2022-08-05,23.125608,120.203108,0.2947072
C0X150,安定,2022-08-05,23.102614,120.227839,0.4194225
C0X160,仁德,2022-08-05,22.968258,120.257689,0.35732335
C0X170,關廟,2022-08-05,22.963017,120.327797,0.39559
C0X180,山上,2022-08-05,23.0757,120.363253,0.42556593
C0X190,安平,2022-08-05,22.993161,120.152181,0.36678624
C0X200,左鎮,2022-08-05,23.056758,120.408522,0.4140367
C0X210,白河,2022-08-05,23.347466,120.414427,0.3810244
C0X220,學甲,2022-08-05,23.230367,120.182187,0.30549943
C0X230,鹽水,2022-08-05,23.272621,120.247641,0.28860405
C0X240,關子嶺,2022-08-05,23.331169,120.508025,0.8977159
C0X250,新營,2022-08-05,23.310689,120.316681,0.26692125
C0X260,後壁,2022-08-05,23.366358,120.362326,0.36592132
C0X280,將軍,2022-08-05,23.214999,120.13577,0.30049437
C0X290,北門,2022-08-05,23.267772,120.125481,0.30049467
C0X300,鹿寮,2022-08-05,23.386047,120.477331,0.3351201
C0X310,七股,2022-08-05,23.147289,120.086253,0.2764174
C0X320,柳營,2022-08-05,23.253328,120.375253,0.36935076
C0Z020,明里,2022-08-05,23.208717,121.262342,0.33908007
C0Z061,玉里,2022-08-05,23.3215,121.339656,0.23919725
C0Z070,舞鶴,2022-08-05,23.46811,121.37407,0.93596804
C0Z080,富源,2022-08-05,23.587642,121.378225,0.9201463
C0Z100,東華,2022-08-05,23.89525,121.549833,0.46661806
C0Z150,吉安光華,2022-08-05,23.930925,121.595153,0.4127081
C0Z160,鳳林,2022-08-05,23.746114,121.453411,0.78627753
C0Z170,卓溪,2022-08-05,23.3443,121.3029,0.2636647
C0Z180,新城,2022-08-05,24.03946,121.60454,0.80848044
C0Z190,富世,2022-08-05,24.14743,121.6297,0.28583816
C0Z200,萬榮,2022-08-05,23.709219,121.420106,0.7351515
C0Z210,瑞穗,2022-08-05,23.5239,121.39021,0.7984335
C0Z230,和平,2022-08-05,24.30717,121.77007,0.12129876
C0Z270,蕃薯寮,2022-08-05,23.73835,121.540108,0.8217542
C0Z280,德武,2022-08-05,23.47426,121.41071,0.8890345
C0Z300,東里,2022-08-05,23.26853,121.30547,0.25063938
C0Z310,清水斷崖,2022-08-05,24.218294,121.689142,0.14556903
C0Z330,安通山,2022-08-05,23.290728,121.348528,0.57287127
CAA010,國一N013K,2022-08-05,25.06944,121.6281,0.45674047
CAA020,國一S026K,2022-08-05,25.07639,121.4964,0.5199196
CAA030,國三S010K,2022-08-05,25.08,121.6475,0.45221186
CAA040,國三S016K,2022-08-05,25.03306,121.6158,0.48677266
CAA050,國三S037K,2022-08-05,24.9828,121.471,0.45674047
CAA060,國三S042K,2022-08-05,24.96,121.4306,0.5422507
CAA070,國三N046K,2022-08-05,24.95083,121.3958,0.5367917
CAA080,國三S054K,2022-08-05,24.93917,121.3239,0.6412561
CAA090,國三A005K,2022-08-05,25.00194,121.5975,0.46173766
CAAH60,大安森林,2022-08-05,25.02955,121.53628,0.4472772
CAB010,國一S001K,2022-08-05,25.11583,121.7286,0.3661969
CAB020,國一S006K,2022-08-05,25.08694,121.6869,0.35773334
CAB030,國三S004K,2022-08-05,25.11444,121.6886,0.09286437
CAB040,國三S007K,2022-08-05,25.09694,121.6678,0.3845201
CAB050,國三K002K,2022-08-05,25.14583,121.7217,0.3845201
CAC010,國一S072K,2022-08-05,24.89583,121.1342,0.8452034
CAC020,國二E009K,2022-08-05,25.02111,121.2736,0.6477322
CAC030,國三N063K,2022-08-05,24.889,121.26,0.60984886
CAC050,西濱S023K,2022-08-05,25.11649,121.27551,0.61561185
CAC060,西濱S032K,2022-08-05,25.091966,121.192505,0.60986483
CAD010,國一S105K,2022-08-05,24.726316,120.940643,0.7557572
CAD020,國一N077K,2022-08-05,24.885,121.0889,0.8103594
CAD030,國一S082K,2022-08-05,24.87667,121.0467,0.70145345
CAD040,國一S088K,2022-08-05,24.84444,121.0214,0.721136
CAD050,國一N094K,2022-08-05,24.79778,121.0089,0.73792225
CAD060,國一S098K,2022-08-05,24.76056,120.9911,0.73792225
CAD070,國三N076K,2022-08-05,24.800303,121.195739,0.7780306
CAD080,國三N085K,2022-08-05,24.78333,121.1211,0.7653285
CAD090,國三S103K,2022-08-05,24.75861,120.9608,0.7563945
CAD100,西濱N066K,2022-08-05,24.8956,120.9649,0.6441001
CAD110,西濱S082K,2022-08-05,24.751724,120.905028,0.7430159
CAE010,國一N142K,2022-08-05,24.453119,120.783221,0.8317649
CAE020,國一S114K,2022-08-05,24.668835,120.885811,0.7430159
CAE030,國一S123K,2022-08-05,24.59594,120.86071,0.8187487
CAE040,國一S132K,2022-08-05,24.524506,120.820831,0.80240023
CAE050,國一S152K,2022-08-05,24.375492,120.749184,0.9293675
CAE060,國三N119K,2022-08-05,24.675432,120.847389,0.7414094
CAE070,國三N151K,2022-08-05,24.440218,120.681656,0.62942827
CAE080,國三S140K,2022-08-05,24.522345,120.725006,0.71290255
CAE090,國三S156K,2022-08-05,24.39798,120.669487,0.66192144
CAE100,西濱N107K,2022-08-05,24.5958,120.7394,0.7616502
CAE110,西濱S129K,2022-08-05,24.4472,120.6428,0.58755755
CAF010,國一N174K,2022-08-05,24.2049,120.6552,0.8376381
CAF020,國一S162K,2022-08-05,24.295534,120.695976,0.85707104
CAF030,國一S169K,2022-08-05,24.237116,120.688271,0.86583465
CAF040,國一S188K,2022-08-05,24.118546,120.585747,0.35165575
CAF050,國三N208K,2022-08-05,24.066147,120.660919,0.35165575
CAF060,國三S168K,2022-08-05,24.308519,120.614471,0.6095347
CAF070,國三S173K,2022-08-05,24.27397,120.593079,0.70888454
CAF080,國三S178K,2022-08-05,24.226721,120.589058,0.7714695
CAF090,國四E5K,2022-08-05,24.296465,120.643135,0.66620666
CAF100,西濱N151K,2022-08-05,24.275964,120.547681,0.57013786
CAG010,國一N198K,2022-08-05,24.063889,120.523056,0.31673247
CAG030,國一S207K,2022-08-05,23.988304,120.508092,0.34923068
CAG040,國三N191K,2022-08-05,24.139256,120.5215,0.60866815
CAG050,國三N196K,2022-08-05,24.107155,120.554482,0.33324307
CAG060,國三S202K,2022-08-05,24.092468,120.603256,0.33324307
CAG070,西濱S173K,2022-08-05,24.1081,120.434576,0.33126196
CAG080,西濱S189K,2022-08-05,23.987857,120.369607,0.5270497
CAG090,西濱N210K,2022-08-05,23.843536,120.293236,0.37238884
CAG100,王功漁港,2022-08-05,23.96824,120.32586,0.5270497
CAH010,國三N223K,2022-08-05,23.955116,120.662376,0.43658513
CAH020,國三S217K,2022-08-05,24.00683,120.653214,0.7968464
CAH030,茶改場竹圍站,2022-08-05,23.860083,120.637528,0.8210572
CAHA00,消防署訓練中心,2022-08-05,23.82137,120.72293,0.6331136
CAJ010,國三N252K,2022-08-05,23.77412,120.64061,0.54498404
CAJ020,國一N234K,2022-08-05,23.74633,120.467926,0.25773597
CAJ030,西濱N222K,2022-08-05,23.737734,120.256132,0.33054987
CAJ040,西濱S241K,2022-08-05,23.623426,120.172646,0.27552012
CAJ050,海口故事園區,2022-08-05,23.57543,120.14121,0.27552012
CAL010,國一N250K,2022-08-05,23.610292,120.436867,0.45130873
CAL020,國一S262K,2022-08-05,23.512333,120.403038,0.5098036
CAL030,國一N268K,2022-08-05,23.460833,120.375833,0.5098036
CAL040,國一N273K,2022-08-05,23.416666,120.355,0.34990844
CAL050,國三N279K,2022-08-05,23.596111,120.523333,0.3134007
CAL060,國三S286K,2022-08-05,23.533917,120.484583,0.43595636
CAL070,國三N295K,2022-08-05,23.468598,120.499369,0.41450346
CAL080,國三N303K,2022-08-05,23.428611,120.452416,0.5753588
CAL090,西濱S257K,2022-08-05,23.502278,120.171861,0.27189803
CAL100,西濱S267K,2022-08-05,23.41613,120.162872,0.27141204
CAL110,布袋國中,2022-08-05,23.35893,120.18026,0.28520876
CAN010,國一N288K,2022-08-05,23.30609,120.290033,0.2632045
CAN020,國一S306K,2022-08-05,23.1565,120.239513,0.30549943
CAN030,國一N316K,2022-08-05,23.07309,120.253014,0.40813646
CAN040,國一N323K,2022-08-05,23.00421,120.245922,0.38494757
CAN050,國一N335K,2022-08-05,22.897584,120.269895,0.28335342
CAN060,國三S311K,2022-08-05,23.346388,120.438888,0.39384726
CAN070,國三S329K,2022-08-05,23.212777,120.355833,0.3963373
CAN080,國三N336K,2022-08-05,23.154722,120.345,0.29764363
CAN090,國三S342K,2022-08-05,23.106694,120.327528,0.4272566
CAN100,國三S366K,2022-08-05,22.9077,120.3513,0.47861704
CAN110,西濱S280K,2022-08-05,23.3052,120.14891,0.30049467
CAN120,西濱N304K,2022-08-05,23.103439,120.086694,0.29689872
CAN130,水試所海水繁養殖中心,2022-08-05,23.120802,120.07968,0.2921744
CAN140,六官養殖協會,2022-08-05,23.22881,120.29962,0.28748232
CAP010,國一S342K,2022-08-05,22.845555,120.295,0.23591897
CAP020,國一S346K,2022-08-05,22.812222,120.314166,0.23591897
CAP030,國一N351K,2022-08-05,22.765833,120.328888,0.24074465
CAP040,國一N361K,2022-08-05,22.680555,120.328611,0.30233696
CAP050,國三N372K,2022-08-05,22.858611,120.373611,0.3421488
CAP060,國三S385K,2022-08-05,22.767777,120.444444,0.59802514
CAP070,高雄燈塔,2022-08-05,22.6146,120.2647,0.3144376
CAQ010,國三N425K,2022-08-05,22.480277,120.531666,0.3572199
CAQ020,國三S415K,2022-08-05,22.568,120.528,0.5414001
CAQ030,崎峰國小,2022-08-05,22.42565,120.49521,0.34965736
E2K600,四湖植物園,2022-08-05,23.676986,120.163433,0.37749594
E2P980,林試六龜中心,2022-08-05,22.991703,120.645722,0.6638831
E2S390,太麻里分所,2022-08-05,22.5988,120.9811,0.9131009
E2S960,林試太麻里2,2022-08-05,22.598014,120.989761,0.81804216
E2S980,林試太麻里1,2022-08-05,22.598922,120.980044,0.9131009
G2AI50,關渡,2022-08-05,25.11575,121.492,0.51469624
G2F820,農試所(霧峰),2022-08-05,24.031261,120.688133,0.7968464
G2L020,嘉義分所,2022-08-05,23.485028,120.473806,0.41450346
G2M350,溪口農場,2022-08-05,23.58565,120.408111,0.43256676
G2P820,鳳山園試所,2022-08-05,22.646611,120.356083,0.32771096
K2E360,苗栗農改場,2022-08-05,24.495722,120.829111,0.72238666
K2E710,大湖分場,2022-08-05,24.422861,120.871833,0.90822655
K2F750,種苗改良場,2022-08-05,24.225972,120.800917,0.9059334
U2HA50,臺大竹山,2022-08-05,23.756972,120.681556,0.72587955
V2C250,八德合作社,2022-08-05,24.93775,121.266389,0.7414571
V2C260,八德蔬果,2022-08-05,24.978508,121.281819,0.6768451
V2K610,大庄合作社,2022-08-05,23.8068,120.367939,0.49408558
V2K620,麥寮合作社,2022-08-05,23.753836,120.294783,0.37238884
