站號,站名,日期,lat,lon,BlastGRU-TW
466881,新北,2022-01-27,24.9593,121.52,0.0003031699
466900,淡水,2022-01-27,25.164889,121.448906,0.00020922117
466920,臺北,2022-01-27,25.037658,121.514853,0.00030682437
467350,澎湖,2022-01-27,23.565503,119.563094,2.5798381e-05
467410,臺南,2022-01-27,22.993239,120.204772,0.0022313518
467420,永康,2022-01-27,23.038386,120.2367,0.0023496319
467790,墾丁雷達站,2022-01-27,21.948235,120.808028,0.0013009891
C0A520,山佳,2022-01-27,24.974944,121.402008,0.00026713114
C0A530,坪林,2022-01-27,24.938183,121.70975,0.0016626732
C0A880,福隆,2022-01-27,25.017842,121.942083,0.0016406298
C0A890,雙溪,2022-01-27,25.036003,121.864242,0.00021038619
C0A920,富貴角,2022-01-27,25.263783,121.565258,0.00024203499
C0AC80,文山,2022-01-27,25.00235,121.575728,0.00030057138
C0ACA0,新莊,2022-01-27,25.051478,121.446756,0.00022194587
C0AD00,三芝,2022-01-27,25.258131,121.501917,0.00026288518
C0AH70,松山,2022-01-27,25.04871,121.55042,0.00030682437
C0AH80,深坑,2022-01-27,25.002703,121.628328,0.00030057138
C0AI00,五股,2022-01-27,25.07445,121.42728,0.0006771016
C0AJ70,田寮,2022-01-27,25.2698,121.4886,0.00024518918
