站號,站名,日期,lat,lon,BlastGRU-TW
466881,新北,2022-02-27,24.9593,121.52,0.00039654062
466900,淡水,2022-02-27,25.164889,121.448906,0.00030160273
466920,臺北,2022-02-27,25.037658,121.514853,0.00040927692
467441,高雄,2022-02-27,22.7304,120.3125,0.0021813803
467480,嘉義,2022-02-27,23.495925,120.432906,0.00040623665
467490,臺中,2022-02-27,24.145736,120.684075,0.00035585568
C0A530,坪林,2022-02-27,24.938183,121.70975,0.002832612
C0A540,四堵,2022-02-27,24.8926,121.745736,0.00075784745
C0A550,泰平,2022-02-27,24.971197,121.823711,0.002209241
C0A890,雙溪,2022-02-27,25.036003,121.864242,0.00037151805
C0A920,富貴角,2022-02-27,25.263783,121.565258,0.0002560333
C0A931,三和,2022-02-27,25.233153,121.595236,0.0013678044
C0AC70,信義,2022-02-27,25.037822,121.564597,0.00040927692
C0AC80,文山,2022-02-27,25.00235,121.575728,0.00037882602
C0ACA0,新莊,2022-02-27,25.051478,121.446756,0.00032136944
C0AH50,林口,2022-02-27,25.072181,121.38084,0.00045191633
C0AH70,松山,2022-02-27,25.04871,121.55042,0.00040927692
C0AH80,深坑,2022-02-27,25.002703,121.628328,0.00037882602
C0AJ60,六塊厝,2022-02-27,25.24,121.4481,0.00030534255
C0AJ70,田寮,2022-02-27,25.2698,121.4886,0.00026116095
