站號,站名,日期,lat,lon,BlastGRU-TW
12J990,口湖工作站,2022-10-07,23.589978,120.180394,0.06262228
12Q970,東港工作站,2022-10-07,22.479997,120.466058,0.22098927
12Q980,恆春工作站,2022-10-07,22.079678,120.714425,0.68873626
466881,新北,2022-10-07,24.9593,121.52,0.8393499
466900,淡水,2022-10-07,25.164889,121.448906,0.6253116
466920,臺北,2022-10-07,25.037658,121.514853,0.810472
466940,基隆,2022-10-07,25.133314,121.740475,0.7656318
466990,花蓮,2022-10-07,23.975128,121.613275,0.74296004
467050,新屋,2022-10-07,25.006744,121.047486,0.2644597
467080,宜蘭,2022-10-07,24.763975,121.756528,0.93616337
467270,田中,2022-10-07,23.873803,120.581286,0.2508565
467300,東吉島,2022-10-07,23.25695,119.667467,0.056555003
467350,澎湖,2022-10-07,23.565503,119.563094,0.020826897
467410,臺南,2022-10-07,22.993239,120.204772,0.06049781
467420,永康,2022-10-07,23.038386,120.2367,0.05935522
467441,高雄,2022-10-07,22.7304,120.3125,0.11401659
467480,嘉義,2022-10-07,23.495925,120.432906,0.037164554
467490,臺中,2022-10-07,24.145736,120.684075,0.023672841
467540,大武,2022-10-07,22.355675,120.903789,0.081088424
467571,新竹,2022-10-07,24.827853,121.014219,0.17809772
467590,恆春,2022-10-07,22.003897,120.746339,0.7676183
467610,成功,2022-10-07,23.097486,121.373428,0.23370588
467620,蘭嶼,2022-10-07,22.036969,121.558339,0.51745534
467660,臺東,2022-10-07,22.752211,121.154586,0.114683025
467790,墾丁雷達站,2022-10-07,21.948235,120.808028,0.8329527
72AI40,桃改臺北分場,2022-10-07,24.944503,121.386972,0.81197125
72C440,桃園農改場,2022-10-07,24.950944,121.030583,0.28925464
72D680,新埔,2022-10-07,24.834444,121.066111,0.32480538
72G600,臺中農改場,2022-10-07,24.003028,120.534389,0.069466576
72K220,雲林分場,2022-10-07,23.634556,120.477333,0.16950531
72L140,朴子分場,2022-10-07,23.4982,120.2414,0.05292712
72M360,義竹工作站,2022-10-07,23.360694,120.279361,0.075241886
72M700,嘉義分場,2022-10-07,23.416869,120.283061,0.050013557
72N100,臺南農改場,2022-10-07,23.0605,120.342194,0.09003449
72N240,七股研究中心,2022-10-07,23.081672,120.062894,0.06346937
72Q010,高雄農改場,2022-10-07,22.709333,120.525889,0.53459024
72S200,斑鳩分場,2022-10-07,22.829528,121.077694,0.44777256
72S590,賓朗果園,2022-10-07,22.813889,121.071278,0.44982347
72T250,花蓮農改場,2022-10-07,23.975222,121.563889,0.7364389
72U480,蘭陽分場,2022-10-07,24.686306,121.716583,0.8205147
72V140,旗南,2022-10-07,22.857861,120.516667,0.7928339
82A750,文山分場,2022-10-07,24.955778,121.631222,0.95450175
82C160,茶改場(楊梅),2022-10-07,24.908472,121.185333,0.66346544
82H840,凍頂工作站,2022-10-07,23.762528,120.7405,0.5724605
82S580,龍田,2022-10-07,22.907694,121.130139,0.6637929
A0K420,麥寮,2022-10-07,23.7988,120.2177,0.024544371
A0W080,吉貝,2022-10-07,23.74,119.6042,0.014935176
A2C560,農工中心,2022-10-07,24.985917,121.239833,0.51532876
A2K360,臺西分所,2022-10-07,23.717231,120.190522,0.029948082
A2K570,古坑(花卉中心),2022-10-07,23.633531,120.552392,0.29214466
A2K630,臺大雲林校區,2022-10-07,23.730628,120.423903,0.10709284
A2N290,臺南蘭花園區,2022-10-07,23.340258,120.379661,0.10880168
B2E890,新竹畜試,2022-10-07,24.527806,120.770972,0.03358473
B2N890,畜產試驗所,2022-10-07,23.058972,120.336406,0.09003449
B2Q810,恆春分所,2022-10-07,21.945583,120.802167,0.7402236
B2U990,宜蘭畜試,2022-10-07,24.669039,121.832561,0.77858514
C0A520,山佳,2022-10-07,24.974944,121.402008,0.81197125
C0A530,坪林,2022-10-07,24.938183,121.70975,0.915581
C0A540,四堵,2022-10-07,24.8926,121.745736,0.8698067
C0A550,泰平,2022-10-07,24.971197,121.823711,0.9734453
C0A560,福山,2022-10-07,24.776203,121.502811,0.95450175
C0A570,桶後,2022-10-07,24.848222,121.597992,0.76328546
C0A640,石碇,2022-10-07,24.993969,121.662917,0.9593589
C0A650,火燒寮,2022-10-07,25.002719,121.742892,0.95972914
C0A660,瑞芳,2022-10-07,25.113169,121.801147,0.9582525
C0A770,科教館,2022-10-07,25.096356,121.516507,0.7719664
C0A860,大坪,2022-10-07,25.165914,121.632969,0.8151941
C0A880,福隆,2022-10-07,25.017842,121.942083,0.9167409
C0A890,雙溪,2022-10-07,25.036003,121.864242,0.83099866
C0A920,富貴角,2022-10-07,25.263783,121.565258,0.7717466
C0A931,三和,2022-10-07,25.233153,121.595236,0.9489406
C0A940,金山,2022-10-07,25.223628,121.643967,0.7360961
C0A950,鼻頭角,2022-10-07,25.129036,121.923372,0.9082831
C0A970,三貂角,2022-10-07,25.007606,122.002058,0.9638838
C0A980,社子,2022-10-07,25.109508,121.469681,0.7523213
C0A9C0,天母,2022-10-07,25.117494,121.537169,0.80159706
C0A9F0,內湖,2022-10-07,25.079422,121.57545,0.810472
C0AC60,三峽,2022-10-07,24.939025,121.369728,0.8483583
C0AC70,信義,2022-10-07,25.037822,121.564597,0.810472
C0AC80,文山,2022-10-07,25.00235,121.575728,0.86092895
C0ACA0,新莊,2022-10-07,25.051478,121.446756,0.5678269
C0AD00,三芝,2022-10-07,25.258131,121.501917,0.74926454
C0AD10,八里,2022-10-07,25.150211,121.403947,0.61666274
C0AD30,蘆洲,2022-10-07,25.086594,121.472331,0.7719664
C0AD40,土城,2022-10-07,24.973208,121.445169,0.7881028
C0AD50,鶯歌,2022-10-07,24.951533,121.346294,0.7600983
C0AG80,中和,2022-10-07,24.991622,121.491792,0.810472
C0AH00,汐止,2022-10-07,25.066881,121.658778,0.78230995
C0AH10,永和,2022-10-07,25.01125,121.508111,0.7887494
C0AH40,平等,2022-10-07,25.129142,121.577086,0.8449855
C0AH50,林口,2022-10-07,25.072181,121.38084,0.8579687
C0AH70,松山,2022-10-07,25.04871,121.55042,0.810472
C0AH80,深坑,2022-10-07,25.002703,121.628328,0.86092895
C0AI00,五股,2022-10-07,25.07445,121.42728,0.6145184
C0AI10,屈尺,2022-10-07,24.92184,121.54475,0.86092895
C0AI20,白沙灣,2022-10-07,25.283128,121.519058,0.7207557
C0AI30,三重,2022-10-07,25.057328,121.500629,0.7719664
C0AI40,石牌,2022-10-07,25.115597,121.513139,0.7881028
C0AJ10,澳底,2022-10-07,25.057107,121.927272,0.89771026
C0AJ20,野柳,2022-10-07,25.20703,121.690021,0.78230995
C0AJ30,淡水觀海,2022-10-07,25.184591,121.408616,0.59070885
C0AJ40,石門,2022-10-07,25.273672,121.601198,0.69819283
C0AJ50,水湳洞,2022-10-07,25.123695,121.862238,0.78230995
C0AJ60,六塊厝,2022-10-07,25.24,121.4481,0.59070885
C0AJ70,田寮,2022-10-07,25.2698,121.4886,0.710916
C0AJ80,板橋,2022-10-07,25.0107,121.4489,0.7881028
C0B010,七堵,2022-10-07,25.094819,121.71713,0.8101084
C0B020,基隆嶼,2022-10-07,25.19141,121.78391,0.78230995
C0B040,大武崙,2022-10-07,25.166676,121.706993,0.8101084
C0B050,八斗子,2022-10-07,25.144754,121.79167,0.7456775
C0B060,暖暖,2022-10-07,25.0957,121.7403,0.84868115
C0C460,復興,2022-10-07,24.820208,121.352281,0.7509578
C0C480,桃園,2022-10-07,24.992425,121.323172,0.5043398
C0C490,八德,2022-10-07,24.928708,121.283289,0.5193373
C0C590,觀音,2022-10-07,25.027072,121.153317,0.7398101
C0C620,蘆竹,2022-10-07,25.084275,121.265767,0.6706874
C0C630,大溪,2022-10-07,24.882853,121.265547,0.6782533
C0C650,平鎮,2022-10-07,24.897503,121.214636,0.66346544
C0C660,楊梅,2022-10-07,24.912375,121.143047,0.5734126
C0C670,龍潭,2022-10-07,24.870056,121.221389,0.3392297
C0C680,龜山,2022-10-07,25.02846,121.38656,0.8622167
C0C700,中壢,2022-10-07,24.977661,121.256375,0.55912566
C0C710,大溪永福,2022-10-07,24.892936,121.324975,0.5355522
C0C720,竹圍,2022-10-07,25.112692,121.239824,0.61666274
C0C730,中大臨海站,2022-10-07,24.966126,121.008581,0.23105276
C0C740,觀音工業區,2022-10-07,25.064764,121.114856,0.43565002
C0C750,新興坑尾,2022-10-07,25.0061,121.0971,0.5250201
C0D430,峨眉,2022-10-07,24.6905,121.017189,0.25976193
C0D480,打鐵坑,2022-10-07,24.849664,121.150789,0.43446228
C0D540,橫山,2022-10-07,24.71116,121.11693,0.24915409
C0D560,竹東,2022-10-07,24.767147,121.057881,0.49553868
C0D580,寶山,2022-10-07,24.735006,121.025192,0.12507316
C0D590,新豐,2022-10-07,24.87068,120.97721,0.13782412
C0D650,湖口,2022-10-07,24.904794,121.043628,0.35959607
C0D660,新竹市東區,2022-10-07,24.798681,120.986942,0.20606712
C0D670,海天一線,2022-10-07,24.831986,120.914438,0.21607807
C0D680,香山濕地,2022-10-07,24.783581,120.914988,0.23182487
C0D690,外湖,2022-10-07,24.917735,120.968711,0.23105276
C0D700,關西,2022-10-07,24.7977,121.1732,0.60158324
C0E420,竹南,2022-10-07,24.708978,120.888897,0.29341152
C0E430,南庄,2022-10-07,24.601775,121.000214,0.18437023
C0E520,大湖,2022-10-07,24.41494,120.87087,0.4514539
C0E540,後龍,2022-10-07,24.606489,120.783933,0.032149833
C0E550,明德,2022-10-07,24.583486,120.885411,0.06949187
C0E590,通霄,2022-10-07,24.471892,120.704622,0.032095116
C0E730,頭份,2022-10-07,24.688247,120.912206,0.29341152
C0E740,造橋,2022-10-07,24.637056,120.864778,0.05502585
C0E750,苗栗,2022-10-07,24.564569,120.824575,0.034590818
C0E780,銅鑼,2022-10-07,24.489681,120.790853,0.049277607
C0E791,卓蘭,2022-10-07,24.3126,120.8244,0.51831913
C0E810,西湖,2022-10-07,24.562947,120.7485,0.03351979
C0E820,獅潭,2022-10-07,24.539133,120.920042,0.0649539
C0E830,苑裡,2022-10-07,24.439714,120.653053,0.023267295
C0E850,大河,2022-10-07,24.618069,120.948578,0.0741479
C0E870,高鐵苗栗,2022-10-07,24.60725,120.826094,0.03252325
C0E910,海埔,2022-10-07,24.648767,120.772435,0.052909937
C0E920,通霄漁港,2022-10-07,24.498589,120.673876,0.0303108
C0E930,龍鳳,2022-10-07,24.700034,120.859125,0.051144883
C0F000,大肚,2022-10-07,24.15295,120.572117,0.68146634
C0F0B0,石岡,2022-10-07,24.276061,120.777644,0.7329821
C0F850,東勢,2022-10-07,24.246428,120.833047,0.45730618
C0F930,大甲,2022-10-07,24.347667,120.640403,0.019999474
C0F970,大坑,2022-10-07,24.173142,120.722289,0.021818273
C0F9A0,中竹林,2022-10-07,24.103556,120.751061,0.60280246
C0F9I0,神岡,2022-10-07,24.272481,120.658314,0.05505968
C0F9K0,大安,2022-10-07,24.345061,120.588025,0.019402193
C0F9L0,后里,2022-10-07,24.310436,120.729725,0.080232516
C0F9M0,豐原,2022-10-07,24.254322,120.720692,0.066447526
C0F9N0,大里,2022-10-07,24.092464,120.701378,0.028454106
C0F9O0,潭子,2022-10-07,24.213106,120.703933,0.04702492
C0F9P0,清水,2022-10-07,24.312297,120.562242,0.019232973
C0F9Q0,外埔,2022-10-07,24.347817,120.705686,0.043970827
C0F9R0,龍井,2022-10-07,24.184536,120.528972,0.023631569
C0F9S0,烏日,2022-10-07,24.107058,120.624103,0.06037109
C0F9T0,西屯,2022-10-07,24.179494,120.641275,0.023254273
C0F9U0,南屯,2022-10-07,24.137006,120.637969,0.028454106
C0F9X0,大雅(中科園區),2022-10-07,24.21528,120.62445,0.024287738
C0FA10,松柏,2022-10-07,24.429115,120.617482,0.022981333
C0FA20,溫寮,2022-10-07,24.372177,120.583125,0.022981333
C0FA30,梧棲,2022-10-07,24.256003,120.523381,0.023631569
C0FA40,臺中電廠,2022-10-07,24.2146,120.4907,0.023631569
C0FA50,霧峰,2022-10-07,24.0419,120.6995,0.033003066
C0G620,芬園,2022-10-07,24.015678,120.6213,0.089565866
C0G640,鹿港,2022-10-07,24.0753,120.430481,0.06116963
C0G650,員林,2022-10-07,23.946503,120.585597,0.07973003
C0G660,溪湖,2022-10-07,23.94835,120.479122,0.07667366
C0G720,溪州,2022-10-07,23.851589,120.499093,0.2472515
C0G730,二林,2022-10-07,23.903325,120.376081,0.05817507
C0G740,大城,2022-10-07,23.852487,120.320935,0.0372173
C0G770,福興,2022-10-07,24.041289,120.437669,0.06116963
C0G780,秀水,2022-10-07,24.03405,120.503869,0.06842277
C0G800,埔鹽,2022-10-07,24.000394,120.431683,0.06116963
C0G810,埔心,2022-10-07,23.947633,120.525456,0.07795587
C0G820,田尾,2022-10-07,23.901669,120.509389,0.07919994
C0G830,埤頭,2022-10-07,23.866003,120.452806,0.23544331
C0G840,北斗,2022-10-07,23.877586,120.514222,0.07919994
C0G860,社頭,2022-10-07,23.897647,120.5862,0.082186654
C0G870,芳苑,2022-10-07,23.922303,120.320025,0.03675835
C0G880,二水,2022-10-07,23.810742,120.6173,0.28640202
C0G890,伸港,2022-10-07,24.148933,120.484403,0.026245836
C0G900,線西,2022-10-07,24.143358,120.443536,0.027861139
C0G910,花壇,2022-10-07,24.032076,120.549461,0.070582926
C0G920,永靖,2022-10-07,23.924703,120.547533,0.07919994
C0G940,竹塘,2022-10-07,23.848253,120.386764,0.12884346
C0G950,防潮門,2022-10-07,24.1835,120.4871,0.02359061
C0G960,福寶,2022-10-07,24.0443,120.3814,0.059911188
C0G970,三豐,2022-10-07,23.882,120.2895,0.03675835
C0H890,埔里,2022-10-07,23.972169,120.952425,0.35927236
C0H950,中寮,2022-10-07,23.884447,120.766406,0.26449472
C0H960,草屯,2022-10-07,23.973672,120.68085,0.268519
C0I110,竹山,2022-10-07,23.761225,120.688156,0.2670046
C0I360,水里,2022-10-07,23.812553,120.849792,0.79493284
C0I380,集集,2022-10-07,23.828206,120.801467,0.7813042
C0I410,名間,2022-10-07,23.837053,120.701447,0.3037891
C0I420,國姓,2022-10-07,24.037803,120.855072,0.67344147
C0I460,南投,2022-10-07,23.911469,120.687331,0.25948957
C0K250,崙背,2022-10-07,23.75555,120.318925,0.03296494
C0K280,四湖,2022-10-07,23.630414,120.227125,0.033720955
C0K291,宜梧,2022-10-07,23.536281,120.169329,0.051939953
C0K330,虎尾,2022-10-07,23.719183,120.442036,0.11144987
C0K390,土庫,2022-10-07,23.679029,120.395574,0.10709284
C0K400,斗六,2022-10-07,23.720583,120.541127,0.18580985
C0K410,北港,2022-10-07,23.573957,120.292802,0.050748914
C0K420,西螺,2022-10-07,23.800407,120.467394,0.22541595
C0K430,褒忠,2022-10-07,23.690938,120.303634,0.024544371
C0K440,二崙,2022-10-07,23.772797,120.408944,0.13427636
C0K450,大埤,2022-10-07,23.646074,120.431537,0.10954613
C0K460,斗南,2022-10-07,23.678734,120.478359,0.17234938
C0K470,林內,2022-10-07,23.748675,120.609642,0.20820063
C0K480,莿桐,2022-10-07,23.761192,120.502372,0.23289707
C0K500,元長,2022-10-07,23.64981,120.315024,0.026982328
C0K510,水林,2022-10-07,23.572924,120.24597,0.06401162
C0K530,臺西,2022-10-07,23.701547,120.197559,0.030130602
C0K550,蔦松,2022-10-07,23.514319,120.229736,0.05292712
C0K560,棋山,2022-10-07,23.68645,120.603417,0.25642654
C0K580,高鐵雲林,2022-10-07,23.737456,120.417944,0.10709284
C0K590,雲林東勢,2022-10-07,23.674192,120.255721,0.024544371
C0K600,箔子寮,2022-10-07,23.6197,120.14,0.06262228
C0M410,馬頭山,2022-10-07,23.324361,120.582017,0.7861526
C0M520,東後寮,2022-10-07,23.369908,120.248065,0.07363758
C0M640,中埔,2022-10-07,23.42538,120.5229,0.32517174
C0M650,朴子,2022-10-07,23.43463,120.23902,0.051062174
C0M660,溪口,2022-10-07,23.604131,120.403569,0.033384655
C0M670,大林,2022-10-07,23.600616,120.45841,0.04282062
C0M680,太保,2022-10-07,23.455062,120.331455,0.04720558
C0M690,水上,2022-10-07,23.419734,120.388909,0.038788404
C0M700,竹崎,2022-10-07,23.526178,120.555508,0.33479598
C0M710,東石,2022-10-07,23.458927,120.15385,0.05292712
C0M720,番路,2022-10-07,23.464657,120.554156,0.3522784
C0M730,嘉義市東區,2022-10-07,23.457673,120.460531,0.044949625
C0M740,六腳,2022-10-07,23.492871,120.290625,0.04606492
C0M750,布袋,2022-10-07,23.380878,120.167789,0.051062174
C0M760,民雄,2022-10-07,23.551754,120.428457,0.034259893
C0M770,嘉義梅山,2022-10-07,23.585398,120.555587,0.296774
C0M780,鹿草,2022-10-07,23.41134,120.30835,0.05118793
C0M790,新港,2022-10-07,23.553269,120.345728,0.05195831
C0M800,茶山,2022-10-07,23.299075,120.664767,0.80448544
C0M880,好美里,2022-10-07,23.3364,120.138,0.07847846
C0N010,鯤鯓國小,2022-10-07,23.1879,120.0889,0.05480435
C0N020,城西,2022-10-07,23.0568,120.0956,0.0648903
C0N030,四草,2022-10-07,23.0235,120.1116,0.0559801
C0N040,蘆竹溝,2022-10-07,23.2344,120.0961,0.05480435
C0N050,蚵寮,2022-10-07,23.301,120.1104,0.05480435
C0O810,曾文,2022-10-07,23.219681,120.497328,0.23583981
C0O830,北寮,2022-10-07,23.079561,120.495008,0.72302735
C0O840,王爺宮,2022-10-07,23.222064,120.40085,0.23583946
C0O860,大內,2022-10-07,23.11885,120.36083,0.26013428
C0O900,善化,2022-10-07,23.112883,120.297219,0.08098037
C0O930,玉井,2022-10-07,23.126042,120.46055,0.14738174
C0O950,安南,2022-10-07,23.076694,120.144861,0.070503
C0O960,崎頂,2022-10-07,22.959547,120.369317,0.5917014
C0O970,虎頭埤,2022-10-07,23.021375,120.347878,0.06699528
C0O980,新市,2022-10-07,23.061614,120.298197,0.08098037
C0O990,媽廟,2022-10-07,22.99175,120.293525,0.06493251
C0R150,三地門,2022-10-07,22.709889,120.639944,0.6808443
C0R160,鹽埔,2022-10-07,22.739558,120.530778,0.53459024
C0R170,屏東,2022-10-07,22.660269,120.494072,0.19705395
C0R190,赤山,2022-10-07,22.592333,120.614306,0.5896497
C0R220,潮州,2022-10-07,22.534361,120.54,0.53155506
C0R240,來義,2022-10-07,22.527306,120.625111,0.5421276
C0R260,春日,2022-10-07,22.370361,120.628306,0.5007929
C0R270,琉球嶼,2022-10-07,22.332244,120.362236,0.5110238
C0R280,檳榔,2022-10-07,22.076078,120.836777,0.97369
C0R320,車城,2022-10-07,22.0744,120.716247,0.68873626
C0R341,牡丹,2022-10-07,22.130036,120.792639,0.73086065
C0R350,貓鼻頭,2022-10-07,21.921774,120.7358,0.7882974
C0R470,高樹,2022-10-07,22.826389,120.600806,0.68577045
C0R480,長治,2022-10-07,22.693128,120.542622,0.55983716
C0R490,九如,2022-10-07,22.7405,120.490503,0.20813233
C0R520,崁頂,2022-10-07,22.514781,120.506914,0.22852267
C0R540,佳冬,2022-10-07,22.419456,120.552375,0.22098927
C0R550,新埤,2022-10-07,22.467947,120.582894,0.5699307
C0R560,新園,2022-10-07,22.5434,120.461558,0.22852284
C0R570,麟洛,2022-10-07,22.65078,120.52719,0.20813233
C0R580,南州,2022-10-07,22.48591,120.50274,0.22098927
C0R590,里港,2022-10-07,22.77919,120.49459,0.6046728
C0R620,墾雷,2022-10-07,21.900836,120.855269,0.7882974
C0R640,東港,2022-10-07,22.46247,120.44074,0.17534272
C0R650,竹田,2022-10-07,22.58486,120.54344,0.5444694
C0R660,枋寮,2022-10-07,22.367722,120.590647,0.49794376
C0R670,楓港,2022-10-07,22.190131,120.692156,0.46407846
C0R680,佳樂水,2022-10-07,21.993578,120.861633,0.7402236
C0R690,墾丁,2022-10-07,21.966756,120.810269,0.9761001
C0R700,枋山,2022-10-07,22.246844,120.661086,0.46407846
C0R710,龍磐,2022-10-07,21.931672,120.838942,0.9320724
C0R720,旭海,2022-10-07,22.205403,120.887614,0.28203067
C0R730,大坪頂,2022-10-07,22.024633,120.69355,0.9360259
C0R740,獅子,2022-10-07,22.201569,120.70525,0.51142687
C0R760,南仁湖,2022-10-07,22.084681,120.863353,0.97699666
C0R770,保力,2022-10-07,22.071122,120.764111,0.88642883
C0R780,滿州,2022-10-07,22.024403,120.839892,0.8149251
C0R790,九棚,2022-10-07,22.14195,120.889281,0.24114807
C0R800,丹路,2022-10-07,22.204481,120.750989,0.5996966
C0R810,內獅,2022-10-07,22.305064,120.642986,0.43597317
C0R830,高士,2022-10-07,22.121825,120.836781,0.9723474
C0R850,林邊,2022-10-07,22.4634,120.5339,0.22852267
C0R860,鼻頭,2022-10-07,22.1043,120.8979,0.23540378
C0R870,興海,2022-10-07,21.9752,120.8439,0.7402236
C0R880,後壁湖,2022-10-07,21.9457,120.7457,0.66545945
C0R890,山海,2022-10-07,21.9878,120.7091,0.68873626
C0R900,竹坑,2022-10-07,22.1385,120.7022,0.56427497
C0R910,下寮,2022-10-07,22.3929,120.5548,0.22098927
C0R920,塭仔,2022-10-07,22.4169,120.5197,0.21347351
C0R930,萬丹,2022-10-07,22.5885,120.4851,0.5444694
C0R940,加祿堂,2022-10-07,22.3363,120.6217,0.43597332
C0S710,鹿野,2022-10-07,22.917711,121.122994,0.53794557
C0S730,綠島,2022-10-07,22.6672,121.47533,0.3274298
C0S740,池上,2022-10-07,23.119628,121.209469,0.6099817
C0S770,大溪山,2022-10-07,22.478475,120.943325,0.48454076
C0S790,金崙,2022-10-07,22.538122,120.966875,0.20277609
C0S810,東河,2022-10-07,22.972672,121.303986,0.4921564
C0S830,長濱,2022-10-07,23.286817,121.411975,0.4160166
C0S840,南田,2022-10-07,22.279725,120.889208,0.10879959
C0S890,關山,2022-10-07,23.0395,121.175017,0.5098812
C0S900,蘭嶼高中,2022-10-07,22.04909,121.51214,0.06371445
C0S910,蘭嶼燈塔,2022-10-07,22.081197,121.503117,0.09475547
C0S920,金峰嘉蘭,2022-10-07,22.594789,120.960825,0.087104395
C0S930,延平,2022-10-07,22.902581,121.084058,0.46218508
C0S940,石寧山,2022-10-07,23.223772,121.406639,0.4807198
C0S950,七塊厝,2022-10-07,22.954453,121.229922,0.5165288
C0S960,香蘭,2022-10-07,22.587569,120.993375,0.061821923
C0S970,加津林,2022-10-07,22.416211,120.926942,0.08417252
C0S990,山豬窟,2022-10-07,22.318619,120.857372,0.3319954
C0SA00,歷坵,2022-10-07,22.520969,120.89185,0.46450165
C0SA10,檳榔四格山,2022-10-07,22.810031,121.109308,0.40086448
C0SA30,都歷,2022-10-07,23.020333,121.323642,0.29338273
C0SA40,瑞和,2022-10-07,22.974361,121.156697,0.47492924
C0SA60,知本（水試所）,2022-10-07,22.702394,121.082761,0.08109405
C0SA80,土坂,2022-10-07,22.453108,120.887572,0.110486455
C0SA90,達仁林場,2022-10-07,22.264347,120.823972,0.743217
C0T870,鯉魚潭,2022-10-07,23.935639,121.508944,0.78733516
C0T900,西林,2022-10-07,23.8119,121.441458,0.79914016
C0T960,光復,2022-10-07,23.660694,121.424964,0.69361633
C0T9A0,月眉山,2022-10-07,23.809928,121.539828,0.6797675
C0T9D0,和中,2022-10-07,24.26676,121.74103,0.40524662
C0T9E0,大坑,2022-10-07,23.880628,121.581981,0.7262536
C0T9F0,水璉,2022-10-07,23.797131,121.542514,0.7877098
C0T9I0,豐濱,2022-10-07,23.583897,121.514806,0.49008265
C0T9M0,靜浦,2022-10-07,23.455167,121.495028,0.48626134
C0T9N0,富里,2022-10-07,23.171639,121.249378,0.3930802
C0U600,礁溪,2022-10-07,24.817539,121.765608,0.93970346
C0U650,玉蘭,2022-10-07,24.675286,121.587061,0.9687018
C0U750,龜山島,2022-10-07,24.841667,121.953133,0.9737004
C0U760,東澳,2022-10-07,24.52196,121.83318,0.9248438
C0U770,南澳,2022-10-07,24.44935,121.81022,0.6307099
C0U780,五結,2022-10-07,24.68637,121.79794,0.77858514
C0U860,頭城,2022-10-07,24.85323,121.8308,0.93616337
C0U870,大礁溪,2022-10-07,24.791042,121.675047,0.95732564
C0U880,北關,2022-10-07,24.9072,121.8734,0.8656323
C0U890,三星,2022-10-07,24.66812,121.65302,0.9476481
C0U900,內城,2022-10-07,24.71813,121.68766,0.9460056
C0U910,冬山,2022-10-07,24.63373,121.7937,0.77858514
C0U940,羅東,2022-10-07,24.68184,121.74934,0.79967433
C0U970,大福,2022-10-07,24.80064,121.81389,0.9318978
C0U990,員山,2022-10-07,24.74435,121.72247,0.79967433
C0UA00,土場,2022-10-07,24.576533,121.495333,0.95865405
C0UA80,大溪漁港,2022-10-07,24.941801,121.902955,0.93970346
C0UA90,石城,2022-10-07,24.980444,121.951214,0.94055593
C0UB00,淡江大學蘭陽校園,2022-10-07,24.823239,121.730383,0.9577531
C0UB10,蘇澳,2022-10-07,24.5969,121.8571,0.61245906
C0UB20,壯圍,2022-10-07,24.7359,121.8163,0.75438535
C0V250,甲仙,2022-10-07,23.080106,120.591758,0.8046731
C0V260,月眉,2022-10-07,22.971003,120.539853,0.73406607
C0V310,美濃,2022-10-07,22.898742,120.519153,0.30628577
C0V350,溪埔,2022-10-07,22.738578,120.446797,0.14166784
C0V360,內門,2022-10-07,22.975481,120.466769,0.40084556
C0V370,古亭坑,2022-10-07,22.893178,120.401947,0.124808185
C0V400,阿公店,2022-10-07,22.804194,120.355528,0.12686814
C0V440,鳳山,2022-10-07,22.646653,120.356122,0.198783
C0V450,鳳森,2022-10-07,22.545064,120.392592,0.5483515
C0V490,新興,2022-10-07,22.627422,120.298803,0.18290381
C0V530,阿蓮,2022-10-07,22.883208,120.327508,0.050106302
C0V610,梓官,2022-10-07,22.760558,120.267211,0.07604523
C0V620,永安,2022-10-07,22.82315,120.236856,0.07533577
C0V630,茄萣,2022-10-07,22.906642,120.182608,0.060550746
C0V640,湖內,2022-10-07,22.887139,120.2445,0.061825547
C0V650,彌陀,2022-10-07,22.783806,120.246361,0.07533577
C0V660,岡山,2022-10-07,22.797078,120.294958,0.07604523
C0V680,仁武,2022-10-07,22.701083,120.347722,0.11739719
C0V690,鼓山,2022-10-07,22.623325,120.275575,0.18290381
C0V700,三民,2022-10-07,22.645017,120.311233,0.18290381
C0V710,苓雅,2022-10-07,22.622742,120.330669,0.18290381
C0V720,林園,2022-10-07,22.507747,120.394511,0.18290381
C0V730,大寮,2022-10-07,22.605614,120.395717,0.4460608
C0V740,旗山,2022-10-07,22.888614,120.483597,0.32476962
C0V750,路竹,2022-10-07,22.854997,120.259439,0.060578164
C0V760,橋頭,2022-10-07,22.757806,120.30575,0.077808745
C0V770,大社,2022-10-07,22.730306,120.346639,0.11739719
C0V790,萬山,2022-10-07,22.905944,120.688056,0.81537575
C0V800,六龜,2022-10-07,22.997889,120.633583,0.7844628
C0V810,左營,2022-10-07,22.67491,120.28491,0.11401659
C0V820,小林,2022-10-07,23.148408,120.63325,0.80042297
C0V840,鳳鼻頭,2022-10-07,22.5083,120.3591,0.17534272
C0V850,蚵仔寮,2022-10-07,22.7256,120.2527,0.11061844
C0V860,南寮,2022-10-07,22.7616,120.2339,0.073603794
C0V870,文安,2022-10-07,22.8025,120.2164,0.073603794
C0V880,興達,2022-10-07,22.8778,120.2127,0.060550746
C0V890,前鎮,2022-10-07,22.5718,120.3117,0.17534272
C0V900,汕尾,2022-10-07,22.4782,120.4151,0.20792316
C0X050,東河,2022-10-07,23.296598,120.385608,0.10880168
C0X060,下營,2022-10-07,23.22695,120.256261,0.084476344
C0X080,佳里,2022-10-07,23.173039,120.145086,0.07847846
C0X100,臺南市北區,2022-10-07,23.010394,120.194228,0.058130458
C0X110,臺南市南區,2022-10-07,22.961189,120.188378,0.059355177
C0X120,麻豆,2022-10-07,23.183289,120.248611,0.080616206
C0X130,官田,2022-10-07,23.193217,120.315422,0.090539925
C0X140,西港,2022-10-07,23.125608,120.203108,0.06578221
C0X150,安定,2022-10-07,23.102614,120.227839,0.0722862
C0X160,仁德,2022-10-07,22.968258,120.257689,0.063243315
C0X170,關廟,2022-10-07,22.963017,120.327797,0.07113013
C0X180,山上,2022-10-07,23.0757,120.363253,0.26822478
C0X190,安平,2022-10-07,22.993161,120.152181,0.058130458
C0X200,左鎮,2022-10-07,23.056758,120.408522,0.25342268
C0X210,白河,2022-10-07,23.347466,120.414427,0.114210874
C0X220,學甲,2022-10-07,23.230367,120.182187,0.080616206
C0X230,鹽水,2022-10-07,23.272621,120.247641,0.073202
C0X240,關子嶺,2022-10-07,23.331169,120.508025,0.7870374
C0X250,新營,2022-10-07,23.310689,120.316681,0.07677756
C0X260,後壁,2022-10-07,23.366358,120.362326,0.18675567
C0X280,將軍,2022-10-07,23.214999,120.13577,0.07847846
C0X290,北門,2022-10-07,23.267772,120.125481,0.07847846
C0X300,鹿寮,2022-10-07,23.386047,120.477331,0.20964617
C0X310,七股,2022-10-07,23.147289,120.086253,0.04671021
C0X320,柳營,2022-10-07,23.253328,120.375253,0.10880168
C0Z020,明里,2022-10-07,23.208717,121.262342,0.44002295
C0Z061,玉里,2022-10-07,23.3215,121.339656,0.46636367
C0Z070,舞鶴,2022-10-07,23.46811,121.37407,0.4251546
C0Z080,富源,2022-10-07,23.587642,121.378225,0.4903065
C0Z100,東華,2022-10-07,23.89525,121.549833,0.5905947
C0Z150,吉安光華,2022-10-07,23.930925,121.595153,0.5077884
C0Z160,鳳林,2022-10-07,23.746114,121.453411,0.6864888
C0Z170,卓溪,2022-10-07,23.3443,121.3029,0.469815
C0Z180,新城,2022-10-07,24.03946,121.60454,0.7408987
C0Z190,富世,2022-10-07,24.14743,121.6297,0.9478515
C0Z200,萬榮,2022-10-07,23.709219,121.420106,0.78733516
C0Z210,瑞穗,2022-10-07,23.5239,121.39021,0.49437532
C0Z230,和平,2022-10-07,24.30717,121.77007,0.40524662
C0Z270,蕃薯寮,2022-10-07,23.73835,121.540108,0.5739731
C0Z280,德武,2022-10-07,23.47426,121.41071,0.444144
C0Z300,東里,2022-10-07,23.26853,121.30547,0.47264877
C0Z310,清水斷崖,2022-10-07,24.218294,121.689142,0.8377202
C0Z330,安通山,2022-10-07,23.290728,121.348528,0.4803368
CAA010,國一N013K,2022-10-07,25.06944,121.6281,0.82520664
CAA020,國一S026K,2022-10-07,25.07639,121.4964,0.7719664
CAA030,國三S010K,2022-10-07,25.08,121.6475,0.810472
CAA040,國三S016K,2022-10-07,25.03306,121.6158,0.86509275
CAA050,國三S037K,2022-10-07,24.9828,121.471,0.82520664
CAA060,國三S042K,2022-10-07,24.96,121.4306,0.82021546
CAA070,國三N046K,2022-10-07,24.95083,121.3958,0.81197125
CAA080,國三S054K,2022-10-07,24.93917,121.3239,0.41550988
CAA090,國三A005K,2022-10-07,25.00194,121.5975,0.8393499
CAAH60,大安森林,2022-10-07,25.02955,121.53628,0.7887494
CAB010,國一S001K,2022-10-07,25.11583,121.7286,0.82112
CAB020,國一S006K,2022-10-07,25.08694,121.6869,0.797549
CAB030,國三S004K,2022-10-07,25.11444,121.6886,0.93903166
CAB040,國三S007K,2022-10-07,25.09694,121.6678,0.84868115
CAB050,國三K002K,2022-10-07,25.14583,121.7217,0.84868115
CAC010,國一S072K,2022-10-07,24.89583,121.1342,0.5918153
CAC020,國二E009K,2022-10-07,25.02111,121.2736,0.437645
CAC030,國三N063K,2022-10-07,24.889,121.26,0.6553709
CAC050,西濱S023K,2022-10-07,25.11649,121.27551,0.62531203
CAC060,西濱S032K,2022-10-07,25.091966,121.192505,0.59070903
CAD010,國一S105K,2022-10-07,24.726316,120.940643,0.2703412
CAD020,國一N077K,2022-10-07,24.885,121.0889,0.5663229
CAD030,國一S082K,2022-10-07,24.87667,121.0467,0.42274514
CAD040,國一S088K,2022-10-07,24.84444,121.0214,0.17809772
CAD050,國一N094K,2022-10-07,24.79778,121.0089,0.22161154
CAD060,國一S098K,2022-10-07,24.76056,120.9911,0.22161129
CAD070,國三N076K,2022-10-07,24.800303,121.195739,0.46057534
CAD080,國三N085K,2022-10-07,24.78333,121.1211,0.23188177
CAD090,國三S103K,2022-10-07,24.75861,120.9608,0.27743873
CAD100,西濱N066K,2022-10-07,24.8956,120.9649,0.25225466
CAD110,西濱S082K,2022-10-07,24.751724,120.905028,0.23182487
CAE010,國一N142K,2022-10-07,24.453119,120.783221,0.07315439
CAE020,國一S114K,2022-10-07,24.668835,120.885811,0.23182487
CAE030,國一S123K,2022-10-07,24.59594,120.86071,0.03774722
CAE040,國一S132K,2022-10-07,24.524506,120.820831,0.03643169
CAE050,國一S152K,2022-10-07,24.375492,120.749184,0.4325821
CAE060,國三N119K,2022-10-07,24.675432,120.847389,0.052202612
CAE070,國三N151K,2022-10-07,24.440218,120.681656,0.023650557
CAE080,國三S140K,2022-10-07,24.522345,120.725006,0.032808866
CAE090,國三S156K,2022-10-07,24.39798,120.669487,0.022883436
CAE100,西濱N107K,2022-10-07,24.5958,120.7394,0.03351979
CAE110,西濱S129K,2022-10-07,24.4472,120.6428,0.023060124
CAF010,國一N174K,2022-10-07,24.2049,120.6552,0.021818273
CAF020,國一S162K,2022-10-07,24.295534,120.695976,0.057341088
CAF030,國一S169K,2022-10-07,24.237116,120.688271,0.04702492
CAF040,國一S188K,2022-10-07,24.118546,120.585747,0.06116341
CAF050,國三N208K,2022-10-07,24.066147,120.660919,0.06116341
CAF060,國三S168K,2022-10-07,24.308519,120.614471,0.019737829
CAF070,國三S173K,2022-10-07,24.27397,120.593079,0.021080565
CAF080,國三S178K,2022-10-07,24.226721,120.589058,0.02443508
CAF090,國四E5K,2022-10-07,24.296465,120.643135,0.020341929
CAF100,西濱N151K,2022-10-07,24.275964,120.547681,0.023631569
CAG010,國一N198K,2022-10-07,24.063889,120.523056,0.054742407
CAG030,國一S207K,2022-10-07,23.988304,120.508092,0.06842277
CAG040,國三N191K,2022-10-07,24.139256,120.5215,0.026413953
CAG050,國三N196K,2022-10-07,24.107155,120.554482,0.05897089
CAG060,國三S202K,2022-10-07,24.092468,120.603256,0.05897089
CAG070,西濱S173K,2022-10-07,24.1081,120.434576,0.059911188
CAG080,西濱S189K,2022-10-07,23.987857,120.369607,0.054954685
CAG090,西濱N210K,2022-10-07,23.843536,120.293236,0.032382444
CAG100,王功漁港,2022-10-07,23.96824,120.32586,0.054954685
CAH010,國三N223K,2022-10-07,23.955116,120.662376,0.26127976
CAH020,國三S217K,2022-10-07,24.00683,120.653214,0.028919311
CAH030,茶改場竹圍站,2022-10-07,23.860083,120.637528,0.8135152
CAHA00,消防署訓練中心,2022-10-07,23.82137,120.72293,0.30564818
CAJ010,國三N252K,2022-10-07,23.77412,120.64061,0.2977151
CAJ020,國一N234K,2022-10-07,23.74633,120.467926,0.17234938
CAJ030,西濱N222K,2022-10-07,23.737734,120.256132,0.024337757
CAJ040,西濱S241K,2022-10-07,23.623426,120.172646,0.06262228
CAJ050,海口故事園區,2022-10-07,23.57543,120.14121,0.06262228
CAL010,國一N250K,2022-10-07,23.610292,120.436867,0.034259893
CAL020,國一S262K,2022-10-07,23.512333,120.403038,0.036421884
CAL030,國一N268K,2022-10-07,23.460833,120.375833,0.036421884
CAL040,國一N273K,2022-10-07,23.416666,120.355,0.10662468
CAL050,國三N279K,2022-10-07,23.596111,120.523333,0.21463417
CAL060,國三S286K,2022-10-07,23.533917,120.484583,0.28304145
CAL070,國三N295K,2022-10-07,23.468598,120.499369,0.27485797
CAL080,國三N303K,2022-10-07,23.428611,120.452416,0.038788404
CAL090,西濱S257K,2022-10-07,23.502278,120.171861,0.05292712
CAL100,西濱S267K,2022-10-07,23.41613,120.162872,0.051062174
CAL110,布袋國中,2022-10-07,23.35893,120.18026,0.07363758
CAN010,國一N288K,2022-10-07,23.30609,120.290033,0.07453071
CAN020,國一S306K,2022-10-07,23.1565,120.239513,0.080616206
CAN030,國一N316K,2022-10-07,23.07309,120.253014,0.08098037
CAN040,國一N323K,2022-10-07,23.00421,120.245922,0.06049781
CAN050,國一N335K,2022-10-07,22.897584,120.269895,0.047443166
CAN060,國三S311K,2022-10-07,23.346388,120.438888,0.119345516
CAN070,國三S329K,2022-10-07,23.212777,120.355833,0.23833203
CAN080,國三N336K,2022-10-07,23.154722,120.345,0.09430848
CAN090,國三S342K,2022-10-07,23.106694,120.327528,0.086671546
CAN100,國三S366K,2022-10-07,22.9077,120.3513,0.12431246
CAN110,西濱S280K,2022-10-07,23.3052,120.14891,0.07847846
CAN120,西濱N304K,2022-10-07,23.103439,120.086694,0.0648903
CAN130,水試所海水繁養殖中心,2022-10-07,23.120802,120.07968,0.06346937
CAN140,六官養殖協會,2022-10-07,23.22881,120.29962,0.08776877
CAP010,國一S342K,2022-10-07,22.845555,120.295,0.07604523
CAP020,國一S346K,2022-10-07,22.812222,120.314166,0.07604523
CAP030,國一N351K,2022-10-07,22.765833,120.328888,0.077808745
CAP040,國一N361K,2022-10-07,22.680555,120.328611,0.11401659
CAP050,國三N372K,2022-10-07,22.858611,120.373611,0.17806683
CAP060,國三S385K,2022-10-07,22.767777,120.444444,0.43291545
CAP070,高雄燈塔,2022-10-07,22.6146,120.2647,0.18290381
CAQ010,國三N425K,2022-10-07,22.480277,120.531666,0.22852267
CAQ020,國三S415K,2022-10-07,22.568,120.528,0.52424425
CAQ030,崎峰國小,2022-10-07,22.42565,120.49521,0.22098927
E2K600,四湖植物園,2022-10-07,23.676986,120.163433,0.030130602
E2P980,林試六龜中心,2022-10-07,22.991703,120.645722,0.7861417
E2S390,太麻里分所,2022-10-07,22.5988,120.9811,0.08304313
E2S960,林試太麻里2,2022-10-07,22.598014,120.989761,0.061821923
E2S980,林試太麻里1,2022-10-07,22.598922,120.980044,0.08304313
G2AI50,關渡,2022-10-07,25.11575,121.492,0.7523213
G2F820,農試所(霧峰),2022-10-07,24.031261,120.688133,0.028919311
G2L020,嘉義分所,2022-10-07,23.485028,120.473806,0.27485797
G2M350,溪口農場,2022-10-07,23.58565,120.408111,0.033384655
G2P820,鳳山園試所,2022-10-07,22.646611,120.356083,0.1987834
K2E360,苗栗農改場,2022-10-07,24.495722,120.829111,0.04070501
K2E710,大湖分場,2022-10-07,24.422861,120.871833,0.10540614
K2F750,種苗改良場,2022-10-07,24.225972,120.800917,0.43864828
U2HA50,臺大竹山,2022-10-07,23.756972,120.681556,0.26763764
V2C250,八德合作社,2022-10-07,24.93775,121.266389,0.587781
V2C260,八德蔬果,2022-10-07,24.978508,121.281819,0.52327484
V2K610,大庄合作社,2022-10-07,23.8068,120.367939,0.038956195
V2K620,麥寮合作社,2022-10-07,23.753836,120.294783,0.032382444
