站號,站名,日期,lat,lon,BlastGRU-TW
466881,新北,2022-04-21,24.9593,121.52,0.10390032
466900,淡水,2022-04-21,25.1649,121.4489,0.026034476
466920,臺北,2022-04-21,25.0377,121.5149,0.11835226
466940,基隆,2022-04-21,25.1333,121.7405,0.056382738
466990,花蓮,2022-04-21,23.9751,121.6133,0.7397025
467050,新屋,2022-04-21,25.0067,121.0475,0.0039040742
467080,宜蘭,2022-04-21,24.764,121.7565,0.39320263
467270,田中,2022-04-21,23.8738,120.5813,0.04652581
467300,東吉島,2022-04-21,23.2569,119.6675,0.000149398
467350,澎湖,2022-04-21,23.5655,119.5631,1.6827566e-05
467410,臺南,2022-04-21,22.9932,120.2048,0.11084386
467420,永康,2022-04-21,23.0384,120.2367,0.1131741
467441,高雄,2022-04-21,22.7304,120.3125,0.11166508
467480,嘉義,2022-04-21,23.4959,120.4329,0.037029654
467490,臺中,2022-04-21,24.1457,120.6841,0.012281441
467540,大武,2022-04-21,22.3557,120.9038,0.28521228
467571,新竹,2022-04-21,24.8279,121.0142,0.0261928
467590,恆春,2022-04-21,22.0039,120.7463,0.0072333734
467610,成功,2022-04-21,23.0975,121.3734,0.9085513
467620,蘭嶼,2022-04-21,22.037,121.5583,0.00043476123
467660,臺東,2022-04-21,22.7522,121.1546,0.46378598
467790,墾丁雷達站,2022-04-21,21.9482,120.808,0.0052096
C0A520,山佳,2022-04-21,24.9749,121.402,0.057499908
C0A530,坪林,2022-04-21,24.9382,121.7097,0.09600277
C0A540,四堵,2022-04-21,24.8926,121.7457,0.07143952
C0A550,泰平,2022-04-21,24.9712,121.8237,0.03489846
C0A560,福山,2022-04-21,24.7762,121.5028,0.07797853
C0A570,桶後,2022-04-21,24.8482,121.598,0.11902316
C0A640,石碇,2022-04-21,24.994,121.6629,0.08051201
C0A650,火燒寮,2022-04-21,25.0027,121.7429,0.055744544
C0A660,瑞芳,2022-04-21,25.1132,121.8011,0.13777076
C0A770,科教館,2022-04-21,25.0964,121.5165,0.07009324
C0A860,大坪,2022-04-21,25.1659,121.633,0.016326252
C0A880,福隆,2022-04-21,25.0178,121.9421,0.24417093
C0A890,雙溪,2022-04-21,25.036,121.8642,0.039688285
C0A920,富貴角,2022-04-21,25.2638,121.5653,0.008271055
C0A931,三和,2022-04-21,25.2332,121.5952,0.032540645
C0A940,金山,2022-04-21,25.2236,121.644,0.0074370797
C0A950,鼻頭角,2022-04-21,25.129,121.9234,0.25590166
C0A970,三貂角,2022-04-21,25.0076,122.0021,0.13302122
C0A980,社子,2022-04-21,25.1095,121.4697,0.076821186
C0A9C0,天母,2022-04-21,25.1175,121.5372,0.061488345
C0A9F0,內湖,2022-04-21,25.0794,121.5755,0.11835226
C0AC60,三峽,2022-04-21,24.939,121.3697,0.096945964
C0AC70,信義,2022-04-21,25.0378,121.5646,0.11835226
C0AC80,文山,2022-04-21,25.0023,121.5757,0.08441088
C0ACA0,新莊,2022-04-21,25.0515,121.4468,0.040396802
C0AD00,三芝,2022-04-21,25.2581,121.5019,0.006863781
C0AD10,八里,2022-04-21,25.1502,121.4039,0.026034527
C0AD30,蘆洲,2022-04-21,25.0866,121.4723,0.07009324
C0AD40,土城,2022-04-21,24.9732,121.4452,0.0656358
C0AD50,鶯歌,2022-04-21,24.9515,121.3463,0.02364291
C0AG80,中和,2022-04-21,24.9916,121.4918,0.11835226
C0AH00,汐止,2022-04-21,25.0669,121.6588,0.05176083
C0AH10,永和,2022-04-21,25.0113,121.5081,0.12578288
C0AH40,平等,2022-04-21,25.1291,121.5771,0.043675385
C0AH50,林口,2022-04-21,25.0722,121.3808,0.03895011
C0AH70,松山,2022-04-21,25.0487,121.5504,0.11835226
C0AH80,深坑,2022-04-21,25.0027,121.6283,0.09069724
C0AI00,五股,2022-04-21,25.0744,121.4273,0.014130794
C0AI10,屈尺,2022-04-21,24.9218,121.5447,0.08441088
C0AI20,白沙灣,2022-04-21,25.2831,121.5191,0.007832365
C0AI30,三重,2022-04-21,25.0573,121.5006,0.07009324
C0AI40,石牌,2022-04-21,25.1156,121.5131,0.0656358
C0AJ10,澳底,2022-04-21,25.0571,121.9273,0.2714178
C0AJ20,野柳,2022-04-21,25.207,121.69,0.051760804
C0AJ30,淡水觀海,2022-04-21,25.1846,121.4086,0.027550092
C0AJ40,石門,2022-04-21,25.2737,121.6012,0.0060962588
C0AJ50,水湳洞,2022-04-21,25.1237,121.8622,0.05176083
C0AJ60,六塊厝,2022-04-21,25.24,121.4481,0.027550092
C0AJ70,田寮,2022-04-21,25.2698,121.4886,0.00804574
C0AJ80,板橋,2022-04-21,25.0107,121.4489,0.0656358
C0B010,七堵,2022-04-21,25.0948,121.7171,0.045257464
C0B020,基隆嶼,2022-04-21,25.1914,121.7839,0.05176083
C0B040,大武崙,2022-04-21,25.1667,121.707,0.045257464
C0B050,八斗子,2022-04-21,25.1448,121.7917,0.0604737
C0B060,暖暖,2022-04-21,25.0957,121.7403,0.03285088
C0C460,復興,2022-04-21,24.8202,121.3523,0.08229171
C0C480,桃園,2022-04-21,24.9924,121.3232,0.016339676
C0C490,八德,2022-04-21,24.9287,121.2833,0.05804559
C0C590,觀音,2022-04-21,25.0271,121.1533,0.016031254
C0C620,蘆竹,2022-04-21,25.0843,121.2658,0.023365825
C0C630,大溪,2022-04-21,24.8829,121.2655,0.040206604
C0C650,平鎮,2022-04-21,24.8975,121.2146,0.014667224
C0C660,楊梅,2022-04-21,24.9124,121.143,0.013934506
C0C670,龍潭,2022-04-21,24.8701,121.2214,0.0032461567
C0C680,龜山,2022-04-21,25.0285,121.3866,0.12566817
C0C700,中壢,2022-04-21,24.9777,121.2564,0.015133003
C0C710,大溪永福,2022-04-21,24.8929,121.325,0.021012712
C0C720,竹圍,2022-04-21,25.1127,121.2398,0.026034527
C0C730,中大臨海站,2022-04-21,24.9661,121.0086,0.0046666902
C0C740,觀音工業區,2022-04-21,25.0648,121.1149,0.007709179
C0C750,新興坑尾,2022-04-21,25.0061,121.0971,0.007568261
C0D430,峨眉,2022-04-21,24.6905,121.0172,0.060591053
C0D480,打鐵坑,2022-04-21,24.8497,121.1508,0.011816623
C0D540,橫山,2022-04-21,24.7112,121.1169,0.003984222
C0D560,竹東,2022-04-21,24.7671,121.0579,0.030569589
C0D580,寶山,2022-04-21,24.735,121.0252,0.0052345465
C0D590,新豐,2022-04-21,24.8707,120.9772,0.0006976972
C0D650,湖口,2022-04-21,24.9048,121.0436,0.002821726
C0D660,新竹市東區,2022-04-21,24.7987,120.9869,0.02417962
C0D670,海天一線,2022-04-21,24.832,120.9144,0.0323
C0D680,香山濕地,2022-04-21,24.7836,120.915,0.03082658
C0D690,外湖,2022-04-21,24.9177,120.9687,0.0046666902
C0D700,關西,2022-04-21,24.7977,121.1732,0.020196231
C0E420,竹南,2022-04-21,24.709,120.8889,0.026628809
C0E430,南庄,2022-04-21,24.6018,121.0002,0.004903998
C0E520,大湖,2022-04-21,24.4149,120.8709,0.014701825
C0E540,後龍,2022-04-21,24.6065,120.7839,0.0006818547
C0E550,明德,2022-04-21,24.5835,120.8854,0.00084790704
C0E590,通霄,2022-04-21,24.4719,120.7046,0.0014577585
C0E730,頭份,2022-04-21,24.6882,120.9122,0.026628809
C0E740,造橋,2022-04-21,24.6371,120.8648,0.0007946366
C0E750,苗栗,2022-04-21,24.5646,120.8246,0.00047640057
C0E780,銅鑼,2022-04-21,24.4897,120.7909,0.003236137
C0E791,卓蘭,2022-04-21,24.3126,120.8244,0.026370216
C0E810,西湖,2022-04-21,24.5629,120.7485,0.00054787763
C0E820,獅潭,2022-04-21,24.5391,120.92,0.0011365657
C0E830,苑裡,2022-04-21,24.4397,120.6531,0.011312484
C0E850,大河,2022-04-21,24.6181,120.9486,0.00074559334
C0E870,高鐵苗栗,2022-04-21,24.6073,120.8261,0.0006336485
C0E910,海埔,2022-04-21,24.6488,120.7724,0.0015688491
C0E920,通霄漁港,2022-04-21,24.4986,120.6739,0.002077324
C0E930,龍鳳,2022-04-21,24.7,120.8591,0.0009844009
C0F000,大肚,2022-04-21,24.153,120.5721,0.09443404
C0F0B0,石岡,2022-04-21,24.2761,120.7776,0.09768891
C0F850,東勢,2022-04-21,24.2464,120.833,0.024093743
C0F930,大甲,2022-04-21,24.3477,120.6404,0.023351299
C0F970,大坑,2022-04-21,24.1731,120.7223,0.011809047
C0F9A0,中竹林,2022-04-21,24.1036,120.7511,0.05737335
C0F9I0,神岡,2022-04-21,24.2725,120.6583,0.012263303
C0F9K0,大安,2022-04-21,24.3451,120.588,0.03797675
C0F9L0,后里,2022-04-21,24.3104,120.7297,0.007985002
C0F9M0,豐原,2022-04-21,24.2543,120.7207,0.009640639
C0F9N0,大里,2022-04-21,24.0925,120.7014,0.012710885
C0F9O0,潭子,2022-04-21,24.2131,120.7039,0.012124235
C0F9P0,清水,2022-04-21,24.3123,120.5622,0.041893885
C0F9Q0,外埔,2022-04-21,24.3478,120.7057,0.015461252
C0F9R0,龍井,2022-04-21,24.1845,120.529,0.028017959
C0F9S0,烏日,2022-04-21,24.1071,120.6241,0.02179202
C0F9T0,西屯,2022-04-21,24.1795,120.6413,0.01554051
C0F9U0,南屯,2022-04-21,24.137,120.638,0.012710885
C0F9X0,大雅(中科園區),2022-04-21,24.2153,120.6244,0.009750094
C0FA10,松柏,2022-04-21,24.4291,120.6175,0.013425621
C0FA20,溫寮,2022-04-21,24.3722,120.5831,0.013425621
C0FA30,梧棲,2022-04-21,24.256,120.5234,0.028017959
C0FA40,臺中電廠,2022-04-21,24.2146,120.4907,0.028017959
C0FA50,霧峰,2022-04-21,24.0419,120.6995,0.0069490843
C0G620,芬園,2022-04-21,24.0157,120.6213,0.007346905
C0G640,鹿港,2022-04-21,24.0753,120.4305,0.02088121
C0G650,員林,2022-04-21,23.9465,120.5856,0.006318453
C0G660,溪湖,2022-04-21,23.9484,120.4791,0.013964119
C0G720,溪州,2022-04-21,23.8516,120.4991,0.07756466
C0G730,二林,2022-04-21,23.9033,120.3761,0.02479138
C0G740,大城,2022-04-21,23.8525,120.3209,0.04571755
C0G770,福興,2022-04-21,24.0413,120.4377,0.02088121
C0G780,秀水,2022-04-21,24.0341,120.5039,0.018755471
C0G800,埔鹽,2022-04-21,24.0004,120.4317,0.02088121
C0G810,埔心,2022-04-21,23.9476,120.5255,0.013255184
C0G820,田尾,2022-04-21,23.9017,120.5094,0.0124477595
C0G830,埤頭,2022-04-21,23.866,120.4528,0.08331408
C0G840,北斗,2022-04-21,23.8776,120.5142,0.0124477595
C0G860,社頭,2022-04-21,23.8976,120.5862,0.0058820387
C0G870,芳苑,2022-04-21,23.9223,120.32,0.047841717
C0G880,二水,2022-04-21,23.8107,120.6173,0.036084257
C0G890,伸港,2022-04-21,24.1489,120.4844,0.019015027
C0G900,線西,2022-04-21,24.1434,120.4435,0.014800154
C0G910,花壇,2022-04-21,24.0321,120.5495,0.016833467
C0G920,永靖,2022-04-21,23.9247,120.5475,0.0124477595
C0G940,竹塘,2022-04-21,23.8483,120.3868,0.12845482
C0G950,防潮門,2022-04-21,24.1835,120.4871,0.02941322
C0G960,福寶,2022-04-21,24.0443,120.3814,0.021988781
C0G970,三豐,2022-04-21,23.882,120.2895,0.047841717
C0H890,埔里,2022-04-21,23.9722,120.9524,0.08487471
C0H950,中寮,2022-04-21,23.8844,120.7664,0.02070999
C0H960,草屯,2022-04-21,23.9737,120.6809,0.050613463
C0I110,竹山,2022-04-21,23.7612,120.6882,0.027949534
C0I360,水里,2022-04-21,23.8126,120.8498,0.045816373
C0I380,集集,2022-04-21,23.8282,120.8015,0.050710313
C0I410,名間,2022-04-21,23.8371,120.7014,0.045434557
C0I420,國姓,2022-04-21,24.0378,120.8551,0.07036262
C0I460,南投,2022-04-21,23.9115,120.6873,0.04010977
C0K250,崙背,2022-04-21,23.7555,120.3189,0.051283997
C0K280,四湖,2022-04-21,23.6304,120.2271,0.04549092
C0K291,宜梧,2022-04-21,23.5363,120.1693,0.13005309
C0K330,虎尾,2022-04-21,23.7192,120.442,0.12528193
C0K390,土庫,2022-04-21,23.679,120.3956,0.12908603
C0K400,斗六,2022-04-21,23.7206,120.5411,0.061179027
C0K410,北港,2022-04-21,23.574,120.2928,0.17739362
C0K420,西螺,2022-04-21,23.8004,120.4674,0.054830216
C0K430,褒忠,2022-04-21,23.6909,120.3036,0.096501425
C0K440,二崙,2022-04-21,23.7728,120.4089,0.12514985
C0K450,大埤,2022-04-21,23.6461,120.4315,0.11090889
C0K460,斗南,2022-04-21,23.6787,120.4784,0.06563812
C0K470,林內,2022-04-21,23.7487,120.6096,0.0717355
C0K480,莿桐,2022-04-21,23.7612,120.5024,0.05251687
C0K500,元長,2022-04-21,23.6498,120.315,0.09706153
C0K510,水林,2022-04-21,23.5729,120.246,0.10072636
C0K530,臺西,2022-04-21,23.7015,120.1976,0.042460345
C0K550,蔦松,2022-04-21,23.5143,120.2297,0.12684569
C0K560,棋山,2022-04-21,23.6865,120.6034,0.069115765
C0K580,高鐵雲林,2022-04-21,23.7375,120.4179,0.12908603
C0K590,雲林東勢,2022-04-21,23.6742,120.2557,0.09650139
C0K600,箔子寮,2022-04-21,23.6197,120.14,0.102659844
C0M410,馬頭山,2022-04-21,23.3244,120.582,0.106170766
C0M520,東後寮,2022-04-21,23.3699,120.2481,0.08019695
C0M640,中埔,2022-04-21,23.4254,120.5229,0.090409085
C0M650,朴子,2022-04-21,23.4346,120.239,0.13839673
C0M660,溪口,2022-04-21,23.6041,120.4036,0.028241409
C0M670,大林,2022-04-21,23.6006,120.4584,0.022124825
C0M680,太保,2022-04-21,23.4551,120.3315,0.23096621
C0M690,水上,2022-04-21,23.4197,120.3889,0.052129555
C0M700,竹崎,2022-04-21,23.5262,120.5555,0.061290924
C0M710,東石,2022-04-21,23.4589,120.1539,0.12684569
C0M720,番路,2022-04-21,23.4647,120.5542,0.0574555
C0M730,嘉義市東區,2022-04-21,23.4577,120.4605,0.032616425
C0M740,六腳,2022-04-21,23.4929,120.2906,0.23509145
C0M750,布袋,2022-04-21,23.3809,120.1678,0.13839673
C0M760,民雄,2022-04-21,23.5518,120.4285,0.025409512
C0M770,嘉義梅山,2022-04-21,23.5854,120.5556,0.057263233
C0M780,鹿草,2022-04-21,23.4113,120.3084,0.19860709
C0M790,新港,2022-04-21,23.5533,120.3457,0.17427638
C0M800,茶山,2022-04-21,23.2991,120.6648,0.4428674
C0M880,好美里,2022-04-21,23.3364,120.138,0.062281545
C0N010,鯤鯓國小,2022-04-21,23.1879,120.0889,0.09416653
C0N020,城西,2022-04-21,23.0568,120.0956,0.06282248
C0N030,四草,2022-04-21,23.0235,120.1116,0.095187284
C0N040,蘆竹溝,2022-04-21,23.2344,120.0961,0.09416653
C0N050,蚵寮,2022-04-21,23.301,120.1104,0.09416653
C0O810,曾文,2022-04-21,23.2197,120.4973,0.07122258
C0O830,北寮,2022-04-21,23.0796,120.495,0.1859688
C0O840,王爺宮,2022-04-21,23.2221,120.4009,0.07241901
C0O860,大內,2022-04-21,23.1188,120.3608,0.064066075
C0O900,善化,2022-04-21,23.1129,120.2972,0.103623256
C0O930,玉井,2022-04-21,23.126,120.4605,0.1455858
C0O950,安南,2022-04-21,23.0767,120.1449,0.06911457
C0O960,崎頂,2022-04-21,22.9595,120.3693,0.24502341
C0O970,虎頭埤,2022-04-21,23.0214,120.3479,0.12701185
C0O980,新市,2022-04-21,23.0616,120.2982,0.103623256
C0O990,媽廟,2022-04-21,22.9917,120.2935,0.13996908
C0R150,三地門,2022-04-21,22.7099,120.6399,0.41838726
C0R160,鹽埔,2022-04-21,22.7396,120.5308,0.37102306
C0R170,屏東,2022-04-21,22.6603,120.4941,0.10989297
C0R190,赤山,2022-04-21,22.5923,120.6143,0.34933785
C0R220,潮州,2022-04-21,22.5344,120.54,0.2331513
C0R240,來義,2022-04-21,22.5273,120.6251,0.12578826
C0R260,春日,2022-04-21,22.3704,120.6283,0.12989059
C0R270,琉球嶼,2022-04-21,22.3322,120.3622,0.12901741
C0R280,檳榔,2022-04-21,22.0761,120.8368,0.0015473084
C0R320,車城,2022-04-21,22.0744,120.7162,0.010243278
C0R341,牡丹,2022-04-21,22.13,120.7926,0.15516604
C0R350,貓鼻頭,2022-04-21,21.9218,120.7358,0.0064535886
C0R470,高樹,2022-04-21,22.8264,120.6008,0.4335504
C0R480,長治,2022-04-21,22.6931,120.5426,0.36348647
C0R490,九如,2022-04-21,22.7405,120.4905,0.10632809
C0R520,崁頂,2022-04-21,22.5148,120.5069,0.068320125
C0R540,佳冬,2022-04-21,22.4195,120.5524,0.070346706
C0R550,新埤,2022-04-21,22.4679,120.5829,0.35528752
C0R560,新園,2022-04-21,22.5434,120.4616,0.068320125
C0R570,麟洛,2022-04-21,22.6508,120.5272,0.10632843
C0R580,南州,2022-04-21,22.4859,120.5027,0.070346706
C0R590,里港,2022-04-21,22.7792,120.4946,0.35927135
C0R620,墾雷,2022-04-21,21.9008,120.8553,0.0064535886
C0R640,東港,2022-04-21,22.4625,120.4407,0.09842645
C0R650,竹田,2022-04-21,22.5849,120.5434,0.36270458
C0R660,枋寮,2022-04-21,22.3677,120.5906,0.2415283
C0R670,楓港,2022-04-21,22.1901,120.6922,0.2008719
C0R680,佳樂水,2022-04-21,21.9936,120.8616,0.008071736
C0R690,墾丁,2022-04-21,21.9668,120.8103,0.0013786664
C0R700,枋山,2022-04-21,22.2468,120.6611,0.2008719
C0R710,龍磐,2022-04-21,21.9317,120.8389,0.0025870476
C0R720,旭海,2022-04-21,22.2054,120.8876,0.079149574
C0R730,大坪頂,2022-04-21,22.0246,120.6936,0.0034125294
C0R740,獅子,2022-04-21,22.2016,120.7053,0.18491112
C0R760,南仁湖,2022-04-21,22.0847,120.8634,0.0012782151
C0R770,保力,2022-04-21,22.0711,120.7641,0.003831115
C0R780,滿州,2022-04-21,22.0244,120.8399,0.0058152075
C0R790,九棚,2022-04-21,22.142,120.8893,0.12196949
C0R800,丹路,2022-04-21,22.2045,120.751,0.1538028
C0R810,內獅,2022-04-21,22.3051,120.643,0.13765332
C0R830,高士,2022-04-21,22.1218,120.8368,0.0010481507
C0R850,林邊,2022-04-21,22.4634,120.5339,0.068320125
C0R860,鼻頭,2022-04-21,22.1043,120.8979,0.0012764614
C0R870,興海,2022-04-21,21.9752,120.8439,0.008071736
C0R880,後壁湖,2022-04-21,21.9457,120.7457,0.011653516
C0R890,山海,2022-04-21,21.9878,120.7091,0.010243278
C0R900,竹坑,2022-04-21,22.1385,120.7022,0.2652253
C0R910,下寮,2022-04-21,22.3929,120.5548,0.070346706
C0R920,塭仔,2022-04-21,22.4169,120.5197,0.07158975
C0R930,萬丹,2022-04-21,22.5885,120.4851,0.3627045
C0R940,加祿堂,2022-04-21,22.3363,120.6217,0.13682863
C0S710,鹿野,2022-04-21,22.9177,121.123,0.15573095
C0S730,綠島,2022-04-21,22.6672,121.4753,0.76746625
C0S740,池上,2022-04-21,23.1196,121.2095,0.23678042
C0S770,大溪山,2022-04-21,22.4785,120.9433,0.21109119
C0S790,金崙,2022-04-21,22.5381,120.9669,0.6415178
C0S810,東河,2022-04-21,22.9727,121.304,0.538707
C0S830,長濱,2022-04-21,23.2868,121.412,0.11695655
C0S840,南田,2022-04-21,22.2797,120.8892,0.3142563
C0S890,關山,2022-04-21,23.0395,121.175,0.34561366
C0S900,蘭嶼高中,2022-04-21,22.0491,121.5121,0.018393183
C0S910,蘭嶼燈塔,2022-04-21,22.0812,121.5031,0.0035481602
C0S920,金峰嘉蘭,2022-04-21,22.5948,120.9608,0.79750955
C0S930,延平,2022-04-21,22.9026,121.0841,0.24114923
C0S940,石寧山,2022-04-21,23.2238,121.4066,0.23953216
C0S950,七塊厝,2022-04-21,22.9545,121.2299,0.13193004
C0S960,香蘭,2022-04-21,22.5876,120.9934,0.79372066
C0S970,加津林,2022-04-21,22.4162,120.9269,0.31632662
C0S990,山豬窟,2022-04-21,22.3186,120.8574,0.015248543
C0SA00,歷坵,2022-04-21,22.521,120.8919,0.09718599
C0SA10,檳榔四格山,2022-04-21,22.81,121.1093,0.016464338
C0SA30,都歷,2022-04-21,23.0203,121.3236,0.82848215
C0SA40,瑞和,2022-04-21,22.9744,121.1567,0.44336745
C0SA60,知本（水試所）,2022-04-21,22.7024,121.0828,0.6607079
C0SA80,土,2022-04-21,22.4531,120.8876,0.76672757
C0SA90,達仁林場,2022-04-21,22.2643,120.824,0.13979724
C0T870,鯉魚潭,2022-04-21,23.9356,121.5089,0.7532999
C0T900,西林,2022-04-21,23.8119,121.4415,0.7002918
C0T960,光復,2022-04-21,23.6607,121.425,0.7100219
C0T9A0,月眉山,2022-04-21,23.8099,121.5398,0.39518675
C0T9D0,和中,2022-04-21,24.2668,121.741,0.8324153
C0T9E0,大坑,2022-04-21,23.8806,121.582,0.49989748
C0T9F0,水璉,2022-04-21,23.7971,121.5425,0.5680765
C0T9I0,豐濱,2022-04-21,23.5839,121.5148,0.6599467
C0T9M0,靜浦,2022-04-21,23.4552,121.495,0.7487023
C0T9N0,富里,2022-04-21,23.1716,121.2494,0.052127663
C0U600,礁溪,2022-04-21,24.8175,121.7656,0.3784673
C0U650,玉蘭,2022-04-21,24.6753,121.5871,0.029332714
C0U750,龜山島,2022-04-21,24.8417,121.9531,0.11042636
C0U760,東澳,2022-04-21,24.522,121.8332,0.68187875
C0U770,南澳,2022-04-21,24.4493,121.8102,0.8437643
C0U780,五結,2022-04-21,24.6864,121.7979,0.17133759
C0U860,頭城,2022-04-21,24.8532,121.8308,0.39320263
C0U870,大礁溪,2022-04-21,24.791,121.675,0.04182427
C0U880,北關,2022-04-21,24.9072,121.8734,0.14924043
C0U890,三星,2022-04-21,24.6681,121.653,0.21986586
C0U900,內城,2022-04-21,24.7181,121.6877,0.32854003
C0U910,冬山,2022-04-21,24.6337,121.7937,0.17133759
C0U940,羅東,2022-04-21,24.6818,121.7493,0.16265869
C0U970,大福,2022-04-21,24.8006,121.8139,0.42514285
C0U990,員山,2022-04-21,24.7444,121.7225,0.16265869
C0UA00,土場,2022-04-21,24.5765,121.4953,0.085680746
C0UA80,大溪漁港,2022-04-21,24.9418,121.903,0.3784673
C0UA90,石城,2022-04-21,24.9804,121.9512,0.21356101
C0UB00,淡江大學蘭陽校園,2022-04-21,24.8232,121.7304,0.042824775
C0UB10,蘇澳,2022-04-21,24.5969,121.8571,0.40578538
C0UB20,壯圍,2022-04-21,24.7359,121.8163,0.18189725
C0V250,甲仙,2022-04-21,23.0801,120.5918,0.1900729
C0V260,月眉,2022-04-21,22.971,120.5399,0.20647582
C0V310,美濃,2022-04-21,22.8987,120.5192,0.10219381
C0V350,溪埔,2022-04-21,22.7386,120.4468,0.11010608
C0V360,內門,2022-04-21,22.9755,120.4668,0.081518166
C0V370,古亭坑,2022-04-21,22.8932,120.4019,0.10152584
C0V400,阿公店,2022-04-21,22.8042,120.3555,0.11722094
C0V440,鳳山,2022-04-21,22.6467,120.3561,0.091914386
C0V450,鳳森,2022-04-21,22.5451,120.3926,0.3060567
C0V490,新興,2022-04-21,22.6274,120.2988,0.096419774
C0V530,阿蓮,2022-04-21,22.8832,120.3275,0.17053862
C0V610,梓官,2022-04-21,22.7606,120.2672,0.1530816
C0V620,永安,2022-04-21,22.8231,120.2369,0.12042551
C0V630,茄萣,2022-04-21,22.9066,120.1826,0.10693177
C0V640,湖內,2022-04-21,22.8871,120.2445,0.10530596
C0V650,彌陀,2022-04-21,22.7838,120.2464,0.12042551
C0V660,岡山,2022-04-21,22.7971,120.295,0.1530816
C0V680,仁武,2022-04-21,22.7011,120.3477,0.10993873
C0V690,鼓山,2022-04-21,22.6233,120.2756,0.096419774
C0V700,三民,2022-04-21,22.645,120.3112,0.096419774
C0V710,苓雅,2022-04-21,22.6227,120.3307,0.096419774
C0V720,林園,2022-04-21,22.5077,120.3945,0.096419774
C0V730,大寮,2022-04-21,22.6056,120.3957,0.33310038
C0V740,旗山,2022-04-21,22.8886,120.4836,0.09921035
C0V750,路竹,2022-04-21,22.855,120.2594,0.1852347
C0V760,橋頭,2022-04-21,22.7578,120.3058,0.15018725
C0V770,大社,2022-04-21,22.7303,120.3466,0.10993873
C0V790,萬山,2022-04-21,22.9059,120.6881,0.44978607
C0V800,六龜,2022-04-21,22.9979,120.6336,0.19038497
C0V810,左營,2022-04-21,22.6749,120.2849,0.11166508
C0V820,小林,2022-04-21,23.1484,120.6333,0.3839015
C0V840,鳳鼻頭,2022-04-21,22.5083,120.3591,0.09842645
C0V850,蚵仔寮,2022-04-21,22.7256,120.2527,0.11729693
C0V860,南寮,2022-04-21,22.7616,120.2339,0.122776516
C0V870,文安,2022-04-21,22.8025,120.2164,0.122776516
C0V880,興達,2022-04-21,22.8778,120.2127,0.10693177
C0V890,前鎮,2022-04-21,22.5718,120.3117,0.09842645
C0V900,汕尾,2022-04-21,22.4782,120.4151,0.11280061
C0X050,東河,2022-04-21,23.2966,120.3856,0.14712213
C0X060,下營,2022-04-21,23.2269,120.2563,0.09011019
C0X080,佳里,2022-04-21,23.173,120.1451,0.062281545
C0X100,臺南市北區,2022-04-21,23.0104,120.1942,0.11584214
C0X110,臺南市南區,2022-04-21,22.9612,120.1884,0.1131741
C0X120,麻豆,2022-04-21,23.1833,120.2486,0.06037953
C0X130,官田,2022-04-21,23.1932,120.3154,0.08506859
C0X140,西港,2022-04-21,23.1256,120.2031,0.08162487
C0X150,安定,2022-04-21,23.1026,120.2278,0.08494988
C0X160,仁德,2022-04-21,22.9683,120.2577,0.14366753
C0X170,關廟,2022-04-21,22.963,120.3278,0.12630509
C0X180,山上,2022-04-21,23.0757,120.3633,0.06805368
C0X190,安平,2022-04-21,22.9932,120.1522,0.11584214
C0X200,左鎮,2022-04-21,23.0568,120.4085,0.070783
C0X210,白河,2022-04-21,23.3475,120.4144,0.13641125
C0X220,學甲,2022-04-21,23.2304,120.1822,0.06037953
C0X230,鹽水,2022-04-21,23.2726,120.2476,0.072464325
C0X240,關子嶺,2022-04-21,23.3312,120.508,0.24895386
C0X250,新營,2022-04-21,23.3107,120.3167,0.09602528
C0X260,後壁,2022-04-21,23.3664,120.3623,0.060251415
C0X280,將軍,2022-04-21,23.215,120.1358,0.062281545
C0X290,北門,2022-04-21,23.2678,120.1255,0.062281545
C0X300,鹿寮,2022-04-21,23.386,120.4773,0.1333946
C0X310,七股,2022-04-21,23.1473,120.0863,0.079772964
C0X320,柳營,2022-04-21,23.2533,120.3753,0.14135025
C0Z020,明里,2022-04-21,23.2087,121.2623,0.1426847
C0Z061,玉里,2022-04-21,23.3215,121.3397,0.21371858
C0Z070,舞鶴,2022-04-21,23.4681,121.3741,0.5448222
C0Z080,富源,2022-04-21,23.5876,121.3782,0.57205933
C0Z100,東華,2022-04-21,23.8953,121.5498,0.85670507
C0Z150,吉安光華,2022-04-21,23.9309,121.5952,0.8715907
C0Z160,鳳林,2022-04-21,23.7461,121.4534,0.7316861
C0Z170,卓溪,2022-04-21,23.3443,121.3029,0.17583898
C0Z180,新城,2022-04-21,24.0395,121.6045,0.71661055
C0Z190,富世,2022-04-21,24.1474,121.6297,0.20640887
C0Z200,萬榮,2022-04-21,23.7092,121.4201,0.7532999
C0Z210,瑞穗,2022-04-21,23.5239,121.3902,0.69413924
C0Z230,和平,2022-04-21,24.3072,121.7701,0.8324153
C0Z270,蕃薯寮,2022-04-21,23.7384,121.5401,0.75430185
C0Z280,德武,2022-04-21,23.4743,121.4107,0.62687844
C0Z300,東里,2022-04-21,23.2685,121.3055,0.19362366
C0Z310,清水斷崖,2022-04-21,24.2183,121.6891,0.6660387
C0Z330,安通山,2022-04-21,23.2907,121.3485,0.110829554
