站號,站名,日期,lat,lon,BlastGRU-TW
466881,新北,2022-01-10,24.9593,121.52,0.0009888855
466900,淡水,2022-01-10,25.164889,121.448906,0.0008455063
466920,臺北,2022-01-10,25.037658,121.514853,0.0010251426
467350,澎湖,2022-01-10,23.565503,119.563094,0.00069642114
467410,臺南,2022-01-10,22.993239,120.204772,0.027760854
467420,永康,2022-01-10,23.038386,120.2367,0.030604748
467790,墾丁雷達站,2022-01-10,21.948235,120.808028,0.00032094173
C0A520,山佳,2022-01-10,24.974944,121.402008,0.0009458637
C0A530,坪林,2022-01-10,24.938183,121.70975,0.00042290782
C0A880,福隆,2022-01-10,25.017842,121.942083,0.00054981443
C0A890,雙溪,2022-01-10,25.036003,121.864242,0.0010989227
C0A920,富貴角,2022-01-10,25.263783,121.565258,0.00073578034
C0AC80,文山,2022-01-10,25.00235,121.575728,0.00094496884
C0ACA0,新莊,2022-01-10,25.051478,121.446756,0.0008978261
C0AD00,三芝,2022-01-10,25.258131,121.501917,0.0006826245
C0AH70,松山,2022-01-10,25.04871,121.55042,0.0010251431
C0AH80,深坑,2022-01-10,25.002703,121.628328,0.0009449684
C0AI00,五股,2022-01-10,25.07445,121.42728,0.0005418618
C0AJ70,田寮,2022-01-10,25.2698,121.4886,0.00072931324
