站號,站名,日期,lat,lon,BlastGRU-TW
12J990,口湖工作站,2022-02-22,23.589978,120.180394,0.003310759
12Q970,東港工作站,2022-02-22,22.479997,120.466058,0.0021765844
12Q980,恆春工作站,2022-02-22,22.079678,120.714425,0.0020398633
466881,新北,2022-02-22,24.9593,121.52,0.00062254816
466900,淡水,2022-02-22,25.164889,121.448906,0.00045766853
466920,臺北,2022-02-22,25.037658,121.514853,0.0006402843
466940,基隆,2022-02-22,25.133314,121.740475,0.00054768886
466990,花蓮,2022-02-22,23.975128,121.613275,0.2060422
467050,新屋,2022-02-22,25.006744,121.047486,0.0004748061
467060,蘇澳,2022-02-22,24.596736,121.857372,0.048216294
467080,宜蘭,2022-02-22,24.763975,121.756528,0.009102589
467270,田中,2022-02-22,23.873803,120.581286,0.006276686
467300,東吉島,2022-02-22,23.25695,119.667467,5.57977e-05
467350,澎湖,2022-02-22,23.565503,119.563094,0.0003684289
467410,臺南,2022-02-22,22.993239,120.204772,0.0007104008
467420,永康,2022-02-22,23.038386,120.2367,0.0007010601
467441,高雄,2022-02-22,22.7304,120.3125,0.0006191635
467480,嘉義,2022-02-22,23.495925,120.432906,0.0016429026
467490,臺中,2022-02-22,24.145736,120.684075,0.0003819009
467540,大武,2022-02-22,22.355675,120.903789,0.54566866
467571,新竹,2022-02-22,24.827853,121.014219,0.0004055334
467590,恆春,2022-02-22,22.003897,120.746339,0.0019768935
467610,成功,2022-02-22,23.097486,121.373428,0.41689456
467620,蘭嶼,2022-02-22,22.036969,121.558339,0.0011622144
467660,臺東,2022-02-22,22.752211,121.154586,0.04681269
467790,墾丁雷達站,2022-02-22,21.948235,120.808028,0.0019331218
72AI40,桃改臺北分場,2022-02-22,24.944503,121.386972,0.0005259832
72C440,桃園農改,2022-02-22,24.950944,121.030583,0.00046771023
72D680,桃園農改場新埔工作站,2022-02-22,24.834444,121.066111,0.00044912277
72G600,臺中農改,2022-02-22,24.003028,120.534389,0.0017319066
72K220,雲林分場,2022-02-22,23.634556,120.477333,0.0088495
72M360,義竹分場,2022-02-22,23.360694,120.279361,0.0063604205
72M700,嘉義分場,2022-02-22,23.416869,120.283061,0.0045480696
72N100,臺南農改,2022-02-22,23.0605,120.342194,0.0015018465
72N240,七股研究中心,2022-02-22,23.081672,120.062894,0.0032037487
72Q010,高雄農改,2022-02-22,22.709333,120.525889,0.11169645
72S200,斑鳩分場,2022-02-22,22.829528,121.077694,0.0054656263
72S590,賓朗農改,2022-02-22,22.813889,121.071278,0.003683022
72T250,花蓮農改,2022-02-22,23.975222,121.563889,0.18609893
72U480,蘭陽分場,2022-02-22,24.686306,121.716583,0.008132702
72V140,旗南農改,2022-02-22,22.857861,120.516667,0.08829645
82A750,文山茶改,2022-02-22,24.955778,121.631222,0.0050911014
82C160,茶改場,2022-02-22,24.908472,121.185333,0.0003939863
82H840,凍頂茶改,2022-02-22,23.762528,120.7405,0.0046677934
82S580,臺東茶改,2022-02-22,22.907694,121.130139,0.07644694
A2C560,農工中心,2022-02-22,24.985917,121.239833,0.0003800914
A2K360,臺西水試所,2022-02-22,23.717231,120.190522,0.0011147939
A2K570,古坑花卉中心,2022-02-22,23.63353,120.55239,0.007788635
A2K630,臺大雲林校區,2022-02-22,23.730628,120.423903,0.0068414384
A2N290,臺南蘭花園區,2022-02-22,23.340258,120.379661,0.0051429057
B2E890,新竹畜試,2022-02-22,24.527806,120.770972,0.00028728048
B2N890,畜試所,2022-02-22,23.058972,120.336406,0.0015018465
B2Q810,恆春畜試,2022-02-22,21.945583,120.802167,0.0019933984
B2U990,宜蘭畜試,2022-02-22,24.669039,121.832561,0.008680536
C0A520,山佳,2022-02-22,24.974944,121.402008,0.0005259832
C0A530,坪林,2022-02-22,24.938183,121.70975,0.0056041125
C0A540,四堵,2022-02-22,24.8926,121.745736,0.00078594795
C0A550,泰平,2022-02-22,24.971197,121.823711,0.0025326167
C0A560,福山,2022-02-22,24.776203,121.502811,0.0050911014
C0A570,桶後,2022-02-22,24.848222,121.597992,0.001177552
C0A640,石碇,2022-02-22,24.993969,121.662917,0.0034911397
C0A650,火燒寮,2022-02-22,25.002719,121.742892,0.003155872
C0A660,瑞芳,2022-02-22,25.113169,121.801147,0.004285383
C0A770,科教館,2022-02-22,25.096356,121.516507,0.00054269057
C0A860,大坪,2022-02-22,25.165914,121.632969,0.0003920188
C0A880,福隆,2022-02-22,25.017842,121.942083,0.0053278618
C0A890,雙溪,2022-02-22,25.036003,121.864242,0.0005191223
C0A920,富貴角,2022-02-22,25.263783,121.565258,0.00043168006
C0A931,三和,2022-02-22,25.233153,121.595236,0.0027425755
C0A940,金山,2022-02-22,25.223628,121.643967,0.00042054456
C0A950,鼻頭角,2022-02-22,25.129036,121.923372,0.005464261
C0A970,三貂角,2022-02-22,25.007606,122.002058,0.004916612
C0A980,社子,2022-02-22,25.109508,121.469681,0.0005496083
C0A9C0,天母,2022-02-22,25.117494,121.537169,0.0005309264
C0A9F0,內湖,2022-02-22,25.079422,121.57545,0.0006402843
C0AC60,三峽,2022-02-22,24.939025,121.369728,0.00061408844
C0AC70,信義,2022-02-22,25.037822,121.564597,0.0006402843
C0AC80,文山,2022-02-22,25.00235,121.575728,0.0005980381
C0ACA0,新莊,2022-02-22,25.051478,121.446756,0.0004776906
C0AD00,三芝,2022-02-22,25.258131,121.501917,0.00041302445
C0AD10,八里,2022-02-22,25.150211,121.403947,0.00045766853
C0AD30,蘆洲,2022-02-22,25.086594,121.472331,0.00054269057
C0AD40,土城,2022-02-22,24.973208,121.445169,0.00053744693
C0AD50,鶯歌,2022-02-22,24.951533,121.346294,0.0004745059
C0AG80,中和,2022-02-22,24.991622,121.491792,0.0006402843
C0AH00,汐止,2022-02-22,25.066881,121.658778,0.0005411932
C0AH10,永和,2022-02-22,25.01125,121.508111,0.00064959173
C0AH40,平等,2022-02-22,25.129142,121.577086,0.00059539743
C0AH50,林口,2022-02-22,25.072181,121.38084,0.0004571207
C0AH70,松山,2022-02-22,25.04871,121.55042,0.0006402843
C0AH80,深坑,2022-02-22,25.002703,121.628328,0.0005980381
C0AI00,五股,2022-02-22,25.07445,121.42728,0.00037313433
C0AI10,屈尺,2022-02-22,24.92184,121.54475,0.0005980381
C0AI20,白沙灣,2022-02-22,25.283128,121.519058,0.00042445204
C0AI30,三重,2022-02-22,25.057328,121.500629,0.00054269057
C0AI40,石牌,2022-02-22,25.115597,121.513139,0.00053744693
C0AJ10,澳底,2022-02-22,25.057107,121.927272,0.005592099
C0AJ20,野柳,2022-02-22,25.20703,121.690021,0.0005411932
C0AJ30,淡水觀海,2022-02-22,25.184591,121.408616,0.00046128785
C0AJ40,石門,2022-02-22,25.273672,121.601198,0.00039271376
C0AJ50,水湳洞,2022-02-22,25.123695,121.862238,0.0005411932
C0AJ60,六塊厝,2022-02-22,25.24,121.4481,0.00046128785
C0AJ70,田寮,2022-02-22,25.2698,121.4886,0.0004268324
C0AJ80,板橋,2022-02-22,25.0107,121.4489,0.00053744693
C0B010,七堵,2022-02-22,25.094819,121.71713,0.0005297973
C0B020,基隆嶼,2022-02-22,25.19141,121.78391,0.0005411932
C0B040,大武崙,2022-02-22,25.166676,121.706993,0.0005297973
C0B050,八斗子,2022-02-22,25.144754,121.79167,0.00055339624
C0B060,暖暖,2022-02-22,25.0957,121.7403,0.0005046216
C0C460,復興,2022-02-22,24.820208,121.352281,0.00096100644
C0C480,桃園,2022-02-22,24.992425,121.323172,0.00040278368
C0C490,八德,2022-02-22,24.928708,121.283289,0.00050371565
C0C590,觀音,2022-02-22,25.027072,121.153317,0.00043446047
C0C620,蘆竹,2022-02-22,25.084275,121.265767,0.0004511119
C0C630,大溪,2022-02-22,24.882853,121.265547,0.00047145833
C0C650,平鎮,2022-02-22,24.897503,121.214636,0.0003939863
C0C660,楊梅,2022-02-22,24.912375,121.143047,0.0003792694
C0C670,龍潭,2022-02-22,24.870056,121.221389,0.0003667911
C0C680,龜山,2022-02-22,25.02846,121.38656,0.0007952728
C0C700,中壢,2022-02-22,24.977661,121.256375,0.0003946454
C0C710,大溪永福,2022-02-22,24.892936,121.324975,0.0003758608
C0C720,竹圍,2022-02-22,25.112692,121.239824,0.00045766853
C0C730,中大臨海站,2022-02-22,24.966126,121.008581,0.0004896806
C0C740,觀音工業區,2022-02-22,25.064764,121.114856,0.00039021624
C0C750,新興坑尾,2022-02-22,25.0061,121.0971,0.00037367965
C0D390,關西,2022-02-22,24.798228,121.173947,0.0004124783
C0D430,峨眉,2022-02-22,24.6905,121.017189,0.0004400092
C0D480,打鐵坑,2022-02-22,24.849664,121.150789,0.00040718305
C0D540,橫山,2022-02-22,24.71116,121.11693,0.000389527
C0D560,竹東,2022-02-22,24.767147,121.057881,0.00042152227
C0D580,寶山,2022-02-22,24.735006,121.025192,0.00042644257
C0D590,新豐,2022-02-22,24.87068,120.97721,0.0005092604
C0D650,湖口,2022-02-22,24.904794,121.043628,0.00045059362
C0D660,新竹市東區,2022-02-22,24.798681,120.986942,0.00039754424
C0D670,海天一線,2022-02-22,24.831986,120.914438,0.00041150217
C0D680,香山濕地,2022-02-22,24.783581,120.914988,0.0004087638
C0D690,外湖,2022-02-22,24.917735,120.968711,0.0004896806
C0E420,竹南,2022-02-22,24.708978,120.888897,0.0003998993
C0E430,南庄,2022-02-22,24.601775,121.000214,0.0004006302
C0E520,大湖,2022-02-22,24.41494,120.87087,0.00041499443
C0E540,後龍,2022-02-22,24.606489,120.783933,0.00028698868
C0E550,明德,2022-02-22,24.583486,120.885411,0.00044883043
C0E590,通霄,2022-02-22,24.471892,120.704622,0.00029641206
C0E730,頭份,2022-02-22,24.688247,120.912206,0.0003998993
C0E740,造橋,2022-02-22,24.637056,120.864778,0.00050130044
C0E750,苗栗,2022-02-22,24.564569,120.824575,0.00027681136
C0E780,銅鑼,2022-02-22,24.489681,120.790853,0.0005060616
C0E791,卓蘭,2022-02-22,24.3126,120.8244,0.00121377
C0E810,西湖,2022-02-22,24.562947,120.7485,0.00028095147
C0E820,獅潭,2022-02-22,24.539133,120.920042,0.00047011455
C0E830,苑裡,2022-02-22,24.439714,120.653053,0.00031350018
C0E850,大河,2022-02-22,24.618069,120.948578,0.00043631543
C0E870,高鐵苗栗,2022-02-22,24.60725,120.826094,0.00028522738
C0E910,海埔,2022-02-22,24.648767,120.772435,0.0004988085
C0E920,通霄漁港,2022-02-22,24.498589,120.673876,0.00030838393
C0E930,龍鳳,2022-02-22,24.700034,120.859125,0.00052122254
C0F000,大肚,2022-02-22,24.15295,120.572117,0.002955502
C0F0B0,石岡,2022-02-22,24.276061,120.777644,0.004673706
C0F850,東勢,2022-02-22,24.246428,120.833047,0.0013180005
C0F930,大甲,2022-02-22,24.347667,120.640403,0.000309162
C0F970,大坑,2022-02-22,24.173142,120.722289,0.00036441357
C0F9A0,中竹林,2022-02-22,24.103556,120.751061,0.0035472752
C0F9I0,神岡,2022-02-22,24.272481,120.658314,0.0005524031
C0F9K0,大安,2022-02-22,24.345061,120.588025,0.00033295964
C0F9L0,后里,2022-02-22,24.310436,120.729725,0.00048587733
C0F9M0,豐原,2022-02-22,24.254322,120.720692,0.00051416917
C0F9N0,大里,2022-02-22,24.092464,120.701378,0.00036994147
C0F9O0,潭子,2022-02-22,24.213106,120.703933,0.0005952022
C0F9P0,清水,2022-02-22,24.312297,120.562242,0.00033530153
C0F9Q0,外埔,2022-02-22,24.347817,120.705686,0.00060005265
C0F9R0,龍井,2022-02-22,24.184536,120.528972,0.00032181403
C0F9S0,烏日,2022-02-22,24.107058,120.624103,0.0017266308
C0F9T0,西屯,2022-02-22,24.179494,120.641275,0.00033166955
C0F9U0,南屯,2022-02-22,24.137006,120.637969,0.00036994147
C0F9X0,大雅(中科園區),2022-02-22,24.21528,120.62445,0.00030832132
C0FA10,松柏,2022-02-22,24.429115,120.617482,0.00032182108
C0FA20,溫寮,2022-02-22,24.372177,120.583125,0.00032182108
C0FA30,梧棲,2022-02-22,24.256003,120.523381,0.00032181403
C0FA40,臺中電廠,2022-02-22,24.2146,120.4907,0.00032181403
C0G620,芬園,2022-02-22,24.015678,120.6213,0.0016759927
C0G640,鹿港,2022-02-22,24.0753,120.430481,0.0016536816
C0G650,員林,2022-02-22,23.946503,120.585597,0.0025366526
C0G660,溪湖,2022-02-22,23.94835,120.479122,0.0019696222
C0G720,溪州,2022-02-22,23.851589,120.499093,0.004916472
C0G730,二林,2022-02-22,23.903325,120.376081,0.0017692103
C0G740,大城,2022-02-22,23.852487,120.320935,0.0009018308
C0G770,福興,2022-02-22,24.041289,120.437669,0.0016536816
C0G780,秀水,2022-02-22,24.03405,120.503869,0.0017541009
C0G800,埔鹽,2022-02-22,24.000394,120.431683,0.0016536816
C0G810,埔心,2022-02-22,23.947633,120.525456,0.001943802
C0G820,田尾,2022-02-22,23.901669,120.509389,0.0019233915
C0G830,埤頭,2022-02-22,23.866003,120.452806,0.0051380727
C0G840,北斗,2022-02-22,23.877586,120.514222,0.0019233915
C0G860,社頭,2022-02-22,23.897647,120.5862,0.0025092235
C0G870,芳苑,2022-02-22,23.922303,120.320025,0.0009162984
C0G880,二水,2022-02-22,23.810742,120.6173,0.0065016025
C0G890,伸港,2022-02-22,24.148933,120.484403,0.00036447676
C0G900,線西,2022-02-22,24.143358,120.443536,0.00036405624
C0G910,花壇,2022-02-22,24.032076,120.549461,0.0017274884
C0G920,永靖,2022-02-22,23.924703,120.547533,0.0019233915
C0G940,竹塘,2022-02-22,23.848253,120.386764,0.0056795646
C0G950,防潮門,2022-02-22,24.1835,120.4871,0.00032437398
C0G960,福寶,2022-02-22,24.0443,120.3814,0.0016649028
C0G970,三豐,2022-02-22,23.882,120.2895,0.0009162984
C0H890,埔里,2022-02-22,23.972169,120.952425,0.0037713284
C0H950,中寮,2022-02-22,23.884447,120.766406,0.0048656375
C0H960,草屯,2022-02-22,23.973672,120.68085,0.0049587525
C0I110,竹山,2022-02-22,23.761225,120.688156,0.005444522
C0I360,水里,2022-02-22,23.812553,120.849792,0.008168815
C0I380,集集,2022-02-22,23.828206,120.801467,0.008724493
C0I410,名間,2022-02-22,23.837053,120.701447,0.0063544386
C0I420,國姓,2022-02-22,24.037803,120.855072,0.0068963915
C0I460,南投,2022-02-22,23.911469,120.687331,0.006295547
C0K250,崙背,2022-02-22,23.75555,120.318925,0.0010064519
C0K280,四湖,2022-02-22,23.630414,120.227125,0.0011566828
C0K291,宜梧,2022-02-22,23.536281,120.169329,0.003955952
C0K330,虎尾,2022-02-22,23.719183,120.442036,0.006633209
C0K390,土庫,2022-02-22,23.679029,120.395574,0.0068414384
C0K400,斗六,2022-02-22,23.720583,120.541127,0.0100466
C0K410,北港,2022-02-22,23.573957,120.292802,0.003979273
C0K420,西螺,2022-02-22,23.800407,120.467394,0.0059875255
C0K430,褒忠,2022-02-22,23.690938,120.303634,0.0012509974
C0K440,二崙,2022-02-22,23.772797,120.408944,0.005529194
C0K450,大埤,2022-02-22,23.646074,120.431537,0.0072032376
C0K460,斗南,2022-02-22,23.678734,120.478359,0.010721837
C0K470,林內,2022-02-22,23.748675,120.609642,0.0076856217
C0K480,莿桐,2022-02-22,23.761192,120.502372,0.0058226697
C0K500,元長,2022-02-22,23.64981,120.315024,0.001419816
C0K510,水林,2022-02-22,23.572924,120.24597,0.0032419455
C0K530,臺西,2022-02-22,23.701547,120.197559,0.001093346
C0K550,蔦松,2022-02-22,23.514319,120.229736,0.0038553767
C0K560,棋山,2022-02-22,23.68645,120.603417,0.009274097
C0K580,高鐵雲林,2022-02-22,23.737456,120.417944,0.0068414384
C0K590,雲林東勢,2022-02-22,23.674192,120.255721,0.0012509974
C0K600,箔子寮,2022-02-22,23.6197,120.14,0.003310759
C0M410,馬頭山,2022-02-22,23.324361,120.582017,0.0139474645
C0M520,東後寮,2022-02-22,23.369908,120.248065,0.0062138946
C0M640,中埔,2022-02-22,23.42538,120.5229,0.007872776
C0M650,朴子,2022-02-22,23.43463,120.23902,0.00440774
C0M660,溪口,2022-02-22,23.604131,120.403569,0.0018060697
C0M670,大林,2022-02-22,23.600616,120.45841,0.0021381308
C0M680,太保,2022-02-22,23.455062,120.331455,0.004379146
C0M690,水上,2022-02-22,23.419734,120.388909,0.001600293
C0M700,竹崎,2022-02-22,23.526178,120.555508,0.0066497284
C0M710,東石,2022-02-22,23.458927,120.15385,0.0038553767
C0M720,番路,2022-02-22,23.464657,120.554156,0.006422821
C0M730,嘉義市東區,2022-02-22,23.457673,120.460531,0.002229391
C0M740,六腳,2022-02-22,23.492871,120.290625,0.0045010857
C0M750,布袋,2022-02-22,23.380878,120.167789,0.00440774
C0M760,民雄,2022-02-22,23.551754,120.428457,0.0017273651
C0M770,嘉義梅山,2022-02-22,23.585398,120.555587,0.00812519
C0M780,鹿草,2022-02-22,23.41134,120.30835,0.004437206
C0M790,新港,2022-02-22,23.553269,120.345728,0.0038727322
C0M800,茶山,2022-02-22,23.299075,120.664767,0.033701435
C0M880,好美里,2022-02-22,23.3364,120.138,0.0050878203
C0N010,鯤鯓國小,2022-02-22,23.1879,120.0889,0.0050589377
C0N020,城西,2022-02-22,23.0568,120.0956,0.0034810398
C0N030,四草,2022-02-22,23.0235,120.1116,0.001277287
C0N040,蘆竹溝,2022-02-22,23.2344,120.0961,0.0050589377
C0N050,蚵寮,2022-02-22,23.301,120.1104,0.0050589377
C0O810,曾文,2022-02-22,23.219681,120.497328,0.003741222
C0O830,北寮,2022-02-22,23.079561,120.495008,0.016359814
C0O840,王爺宮,2022-02-22,23.222064,120.40085,0.003741222
C0O860,大內,2022-02-22,23.11885,120.36083,0.0047311215
C0O900,善化,2022-02-22,23.112883,120.297219,0.0011676564
C0O930,玉井,2022-02-22,23.126042,120.46055,0.0058243615
C0O950,安南,2022-02-22,23.076694,120.144861,0.0007520374
C0O960,崎頂,2022-02-22,22.959547,120.369317,0.008856012
C0O970,虎頭埤,2022-02-22,23.021375,120.347878,0.0069697076
C0O980,新市,2022-02-22,23.061614,120.298197,0.0011676564
C0O990,媽廟,2022-02-22,22.99175,120.293525,0.0010141656
C0R150,三地門,2022-02-22,22.709889,120.639944,0.21391235
C0R160,鹽埔,2022-02-22,22.739558,120.530778,0.11169645
C0R170,屏東,2022-02-22,22.660269,120.494072,0.0040464494
C0R190,赤山,2022-02-22,22.592333,120.614306,0.061139748
C0R220,潮州,2022-02-22,22.534361,120.54,0.02006914
C0R240,來義,2022-02-22,22.527306,120.625111,0.011983147
C0R260,春日,2022-02-22,22.370361,120.628306,0.0156051535
C0R270,琉球嶼,2022-02-22,22.332244,120.362236,0.014791543
C0R280,檳榔,2022-02-22,22.076078,120.836777,0.0022630675
C0R320,車城,2022-02-22,22.0744,120.716247,0.0020398633
C0R341,牡丹,2022-02-22,22.130036,120.792639,0.020858867
C0R350,貓鼻頭,2022-02-22,21.921774,120.7358,0.0019583558
C0R470,高樹,2022-02-22,22.826389,120.600806,0.17859693
C0R480,長治,2022-02-22,22.693128,120.542622,0.11265641
C0R490,九如,2022-02-22,22.7405,120.490503,0.004037328
C0R510,萬丹,2022-02-22,22.587775,120.490394,0.061645944
C0R520,崁頂,2022-02-22,22.514781,120.506914,0.0020626923
C0R540,佳冬,2022-02-22,22.419456,120.552375,0.0021765844
C0R550,新埤,2022-02-22,22.467947,120.582894,0.061554875
C0R560,新園,2022-02-22,22.5434,120.461558,0.0020626923
C0R570,麟洛,2022-02-22,22.65078,120.52719,0.004037328
C0R580,南州,2022-02-22,22.48591,120.50274,0.0021765844
C0R590,里港,2022-02-22,22.77919,120.49459,0.1146566
C0R620,墾雷,2022-02-22,21.900836,120.855269,0.0019583558
C0R640,東港,2022-02-22,22.46247,120.44074,0.00095883064
C0R650,竹田,2022-02-22,22.58486,120.54344,0.061645944
C0R660,枋寮,2022-02-22,22.367722,120.590647,0.021660682
C0R670,楓港,2022-02-22,22.190131,120.692156,0.07015349
C0R680,佳樂水,2022-02-22,21.993578,120.861633,0.0019933984
C0R690,墾丁,2022-02-22,21.966756,120.810269,0.0022746583
C0R700,枋山,2022-02-22,22.246844,120.661086,0.07015349
C0R710,龍磐,2022-02-22,21.931672,120.838942,0.0019074262
C0R720,旭海,2022-02-22,22.205403,120.887614,0.011733913
C0R730,大坪頂,2022-02-22,22.024633,120.69355,0.0022650708
C0R740,獅子,2022-02-22,22.201569,120.70525,0.059029456
C0R760,南仁湖,2022-02-22,22.084681,120.863353,0.0024684644
C0R770,保力,2022-02-22,22.071122,120.764111,0.0019130572
C0R780,滿州,2022-02-22,22.024403,120.839892,0.0019468777
C0R790,九棚,2022-02-22,22.14195,120.889281,0.0189688
C0R800,丹路,2022-02-22,22.204481,120.750989,0.03573287
C0R810,內獅,2022-02-22,22.305064,120.642986,0.022761809
C0R830,高士,2022-02-22,22.121825,120.836781,0.0020876552
C0R850,林邊,2022-02-22,22.4634,120.5339,0.0020626923
C0R860,鼻頭,2022-02-22,22.1043,120.8979,0.0017627412
C0R870,興海,2022-02-22,21.9752,120.8439,0.0019933984
C0R880,後壁湖,2022-02-22,21.9457,120.7457,0.0020704437
C0R890,山海,2022-02-22,21.9878,120.7091,0.0020398633
C0R900,竹坑,2022-02-22,22.1385,120.7022,0.07342447
C0R910,下寮,2022-02-22,22.3929,120.5548,0.0021765844
C0R920,塭仔,2022-02-22,22.4169,120.5197,0.0022998005
C0R940,加祿堂,2022-02-22,22.3363,120.6217,0.022761809
C0S710,鹿野,2022-02-22,22.917711,121.122994,0.0647662
C0S730,綠島,2022-02-22,22.6672,121.47533,0.26809946
C0S740,池上,2022-02-22,23.119628,121.209469,0.13851327
C0S770,大溪山,2022-02-22,22.478475,120.943325,0.004208618
C0S790,金崙,2022-02-22,22.538122,120.966875,0.027941814
C0S810,東河,2022-02-22,22.972672,121.303986,0.24739718
C0S830,長濱,2022-02-22,23.286817,121.411975,0.031222096
C0S840,南田,2022-02-22,22.279725,120.889208,0.28111675
C0S890,關山,2022-02-22,23.0395,121.175017,0.10234996
C0S900,蘭嶼高中,2022-02-22,22.04909,121.51214,0.010328031
C0S910,蘭嶼燈塔,2022-02-22,22.081197,121.503117,0.0030831983
C0S920,金峰嘉蘭,2022-02-22,22.594789,120.960825,0.14494836
C0S930,延平,2022-02-22,22.902581,121.084058,0.07405646
C0S940,石寧山,2022-02-22,23.223772,121.406639,0.09222314
C0S950,七塊厝,2022-02-22,22.954453,121.229922,0.05066165
C0S960,香蘭,2022-02-22,22.587569,120.993375,0.3051727
C0S970,加津林,2022-02-22,22.416211,120.926942,0.49651092
C0S990,山豬窟,2022-02-22,22.318619,120.857372,0.0029429344
C0SA00,歷坵,2022-02-22,22.520969,120.89185,0.0026202344
C0SA10,檳榔四格山,2022-02-22,22.810031,121.109308,0.0022689416
C0SA30,都歷,2022-02-22,23.020333,121.323642,0.31586158
C0SA40,瑞和,2022-02-22,22.974361,121.156697,0.12722792
C0SA60,知本（水試所）,2022-02-22,22.702394,121.082761,0.12216279
C0SA80,土坂,2022-02-22,22.453108,120.887572,0.087137274
C0SA90,達仁林場,2022-02-22,22.264347,120.823972,0.0037125947
C0T870,鯉魚潭,2022-02-22,23.935639,121.508944,0.2501078
C0T900,西林,2022-02-22,23.8119,121.441458,0.21872805
C0T960,光復,2022-02-22,23.660694,121.424964,0.22425658
C0T9A0,月眉山,2022-02-22,23.809928,121.539828,0.04704993
C0T9D0,和中,2022-02-22,24.26676,121.74103,0.33703598
C0T9E0,大坑,2022-02-22,23.880628,121.581981,0.089822605
C0T9F0,水璉,2022-02-22,23.797131,121.542514,0.13604674
C0T9I0,豐濱,2022-02-22,23.583897,121.514806,0.24625866
C0T9M0,靜浦,2022-02-22,23.455167,121.495028,0.28999287
C0T9N0,富里,2022-02-22,23.171639,121.249378,0.016020702
C0U600,礁溪,2022-02-22,24.817539,121.765608,0.00881487
C0U650,玉蘭,2022-02-22,24.675286,121.587061,0.0073529473
C0U750,龜山島,2022-02-22,24.841667,121.953133,0.0064391643
C0U760,東澳,2022-02-22,24.52196,121.83318,0.02417887
C0U770,南澳,2022-02-22,24.44935,121.81022,0.13983163
C0U780,五結,2022-02-22,24.68637,121.79794,0.008680536
C0U860,頭城,2022-02-22,24.85323,121.8308,0.009102589
C0U870,大礁溪,2022-02-22,24.791042,121.675047,0.0039536213
C0U880,北關,2022-02-22,24.9072,121.8734,0.000784608
C0U890,三星,2022-02-22,24.66812,121.65302,0.0065687
C0U900,內城,2022-02-22,24.71813,121.68766,0.008020678
C0U910,冬山,2022-02-22,24.63373,121.7937,0.008680536
C0U940,羅東,2022-02-22,24.68184,121.74934,0.0084102405
C0U970,大福,2022-02-22,24.80064,121.81389,0.009413652
C0U990,員山,2022-02-22,24.74435,121.72247,0.0084102405
C0UA00,土場,2022-02-22,24.576533,121.495333,0.006662219
C0UA80,大溪漁港,2022-02-22,24.941801,121.902955,0.00881487
C0UA90,石城,2022-02-22,24.980444,121.951214,0.005930178
C0UB00,淡江大學蘭陽校園,2022-02-22,24.823239,121.730383,0.0043661096
C0UB20,壯圍,2022-02-22,24.7359,121.8163,0.008991087
C0V250,甲仙,2022-02-22,23.080106,120.591758,0.007935643
C0V260,月眉,2022-02-22,22.971003,120.539853,0.023210041
C0V310,美濃,2022-02-22,22.898742,120.519153,0.021588601
C0V350,溪埔,2022-02-22,22.738578,120.446797,0.0012349742
C0V360,內門,2022-02-22,22.975481,120.466769,0.016031276
C0V370,古亭坑,2022-02-22,22.893178,120.401947,0.0139598055
C0V400,阿公店,2022-02-22,22.804194,120.355528,0.0019268419
C0V440,鳳山,2022-02-22,22.646653,120.356122,0.00085491233
C0V450,鳳森,2022-02-22,22.545064,120.392592,0.010917945
C0V490,新興,2022-02-22,22.627422,120.298803,0.0009220295
C0V530,阿蓮,2022-02-22,22.883208,120.327508,0.0009970583
C0V610,梓官,2022-02-22,22.760558,120.267211,0.0007567061
C0V620,永安,2022-02-22,22.82315,120.236856,0.0006748945
C0V630,茄萣,2022-02-22,22.906642,120.182608,0.00058241654
C0V640,湖內,2022-02-22,22.887139,120.2445,0.00057369214
C0V650,彌陀,2022-02-22,22.783806,120.246361,0.0006748945
C0V660,岡山,2022-02-22,22.797078,120.294958,0.0007567061
C0V680,仁武,2022-02-22,22.701083,120.347722,0.0005959237
C0V690,鼓山,2022-02-22,22.623325,120.275575,0.0009220295
C0V700,三民,2022-02-22,22.645017,120.311233,0.0009220295
C0V710,苓雅,2022-02-22,22.622742,120.330669,0.0009220295
C0V720,林園,2022-02-22,22.507747,120.394511,0.0009220295
C0V730,大寮,2022-02-22,22.605614,120.395717,0.01131337
C0V740,旗山,2022-02-22,22.888614,120.483597,0.021487016
C0V750,路竹,2022-02-22,22.854997,120.259439,0.0010001694
C0V760,橋頭,2022-02-22,22.757806,120.30575,0.00073887064
C0V770,大社,2022-02-22,22.730306,120.346639,0.0005959237
C0V790,萬山,2022-02-22,22.905944,120.688056,0.036628373
C0V800,六龜,2022-02-22,22.997889,120.633583,0.064553395
C0V810,左營,2022-02-22,22.67491,120.28491,0.0006191635
C0V820,小林,2022-02-22,23.148408,120.63325,0.031656027
C0V840,鳳鼻頭,2022-02-22,22.5083,120.3591,0.0009697806
C0V850,蚵仔寮,2022-02-22,22.7256,120.2527,0.00064201665
C0V860,南寮,2022-02-22,22.7616,120.2339,0.0006933837
C0V870,文安,2022-02-22,22.8025,120.2164,0.0006933837
C0V880,興達,2022-02-22,22.8778,120.2127,0.00058241654
C0V890,前鎮,2022-02-22,22.5722,120.3112,0.00095883064
C0V900,汕尾,2022-02-22,22.4782,120.4151,0.0030766055
C0X050,東河,2022-02-22,23.296598,120.385608,0.0051429057
C0X060,下營,2022-02-22,23.22695,120.256261,0.005505934
C0X080,佳里,2022-02-22,23.173039,120.145086,0.0050878203
C0X100,臺南市北區,2022-02-22,23.010394,120.194228,0.00068891165
C0X110,臺南市南區,2022-02-22,22.961189,120.188378,0.0007010601
C0X120,麻豆,2022-02-22,23.183289,120.248611,0.00523871
C0X130,官田,2022-02-22,23.193217,120.315422,0.005543578
C0X140,西港,2022-02-22,23.125608,120.203108,0.0038270552
C0X150,安定,2022-02-22,23.102614,120.227839,0.0007320794
C0X160,仁德,2022-02-22,22.968258,120.257689,0.00094999745
C0X170,關廟,2022-02-22,22.963017,120.327797,0.00124729
C0X180,山上,2022-02-22,23.0757,120.363253,0.0075397124
C0X190,安平,2022-02-22,22.993161,120.152181,0.00068891165
C0X200,左鎮,2022-02-22,23.056758,120.408522,0.007696103
C0X210,白河,2022-02-22,23.347466,120.414427,0.0050328313
C0X220,學甲,2022-02-22,23.230367,120.182187,0.00523871
C0X230,鹽水,2022-02-22,23.272621,120.247641,0.0061122514
C0X240,關子嶺,2022-02-22,23.331169,120.508025,0.006920145
C0X250,新營,2022-02-22,23.310689,120.316681,0.005900465
C0X260,後壁,2022-02-22,23.366358,120.362326,0.0056117894
C0X280,將軍,2022-02-22,23.214999,120.13577,0.0050878203
C0X290,北門,2022-02-22,23.267772,120.125481,0.0050878203
C0X300,鹿寮,2022-02-22,23.386047,120.477331,0.0071075344
C0X310,七股,2022-02-22,23.147289,120.086253,0.005679269
C0X320,柳營,2022-02-22,23.253328,120.375253,0.0050328313
C0Z020,明里,2022-02-22,23.208717,121.262342,0.03936533
C0Z061,玉里,2022-02-22,23.3215,121.339656,0.10677445
C0Z070,舞鶴,2022-02-22,23.46811,121.37407,0.13823979
C0Z080,富源,2022-02-22,23.587642,121.378225,0.1254051
C0Z100,東華,2022-02-22,23.89525,121.549833,0.32506788
C0Z150,吉安光華,2022-02-22,23.930925,121.595153,0.33769602
C0Z160,鳳林,2022-02-22,23.746114,121.453411,0.23685995
C0Z170,卓溪,2022-02-22,23.3443,121.3029,0.08094709
C0Z180,新城,2022-02-22,24.03946,121.60454,0.19277187
C0Z190,富世,2022-02-22,24.14743,121.6297,0.11819653
C0Z200,萬榮,2022-02-22,23.709219,121.420106,0.2501078
C0Z210,瑞穗,2022-02-22,23.5239,121.39021,0.2633624
C0Z230,和平,2022-02-22,24.30717,121.77007,0.33703598
C0Z270,蕃薯寮,2022-02-22,23.73835,121.540108,0.19631834
C0Z280,德武,2022-02-22,23.47426,121.41071,0.18303463
C0Z300,東里,2022-02-22,23.26853,121.30547,0.09294569
C0Z310,清水斷崖,2022-02-22,24.218294,121.689142,0.21083002
C0Z330,安通山,2022-02-22,23.290728,121.348528,0.029047213
C1A750,石碇服務區,2022-02-22,25.00872,121.646242,0.00058298477
C1A760,坪林交控,2022-02-22,24.94284,121.713442,0.00434171
C1A9N0,四十份,2022-02-22,24.934158,121.593283,0.001025807
C1AC50,關渡,2022-02-22,25.133486,121.469331,0.00047315427
C1AI50,國三N016K,2022-02-22,25.034164,121.619664,0.0006059631
C1AI60,國一N039K,2022-02-22,25.064361,121.383836,0.0029316912
C1C510,水尾,2022-02-22,24.940081,121.087161,0.00040119066
C1D380,新埔,2022-02-22,24.84745,121.03834,0.00038165267
C1D630,飛鳳山,2022-02-22,24.766464,121.119178,0.0003326642
C1E511,新開,2022-02-22,24.347703,120.827019,0.004146805
C1E601,南勢,2022-02-22,24.572486,120.734842,0.00045821242
C1E770,公館,2022-02-22,24.526914,120.830806,0.00028728048
C1E890,國三N149K,2022-02-22,24.463414,120.680019,0.00029177676
C1E900,國一N128K,2022-02-22,24.560997,120.844186,0.0002743584
C1F911,新伯公,2022-02-22,24.221361,120.841069,0.0011946788
C1F9B1,桐林,2022-02-22,24.066172,120.735194,0.0038714902
C1G691,下水埔,2022-02-22,23.816114,120.5676,0.007146767
C1G9D0,國一S218K,2022-02-22,23.890641,120.493253,0.001943802
C1H840,國三N238K,2022-02-22,23.841008,120.707711,0.008456939
C1H971,六分寮,2022-02-22,23.92507,120.6378,0.0032192573
C1I131,桶頭,2022-02-22,23.641944,120.654117,0.0072465343
C1I150,青雲,2022-02-22,23.793361,120.949378,0.0039740815
C1I280,埔中,2022-02-22,23.820778,120.642594,0.006102781
C1I550,國六W023K,2022-02-22,23.979067,120.867742,0.005455737
C1K540,口湖,2022-02-22,23.585344,120.180517,0.003310759
C1M400,菜瓜坪,2022-02-22,23.251928,120.576103,0.034945082
C1M870,國三N285K,2022-02-22,23.550319,120.505833,0.006971107
C1N001,沙崙,2022-02-22,22.935472,120.309406,0.0009970583
C1O850,環湖,2022-02-22,23.148617,120.418633,0.0058243615
C1O880,關山,2022-02-22,23.173397,120.594092,0.012763266
C1O921,楠西,2022-02-22,23.183511,120.484083,0.0044841254
C1O940,東山服務區,2022-02-22,23.286016,120.398472,0.00489734
C1R110,口社,2022-02-22,22.770111,120.645222,0.17878439
C1R250,力里,2022-02-22,22.428117,120.629228,0.011983147
C1R290,石門山,2022-02-22,22.112611,120.756597,0.0025154732
C1R630,龍泉,2022-02-22,22.66701,120.59091,0.21317345
C1S800,華源,2022-02-22,22.657883,121.02325,0.024726726
C1S820,金峰,2022-02-22,22.590969,120.933236,0.042496946
C1S850,豐南,2022-02-22,23.122139,121.262389,0.0075481054
C1S870,南美山,2022-02-22,23.15025,121.382333,0.08184852
C1S880,壽卡,2022-02-22,22.238911,120.858903,0.0022579406
C1SA70,都蘭,2022-02-22,22.87794,121.226881,0.21974121
C1T920,中興,2022-02-22,23.769503,121.498653,0.30153227
C1T970,大農,2022-02-22,23.615233,121.413331,0.17164713
C1T990,高寮,2022-02-22,23.394239,121.356808,0.24849288
C1TA00,太魯閣,2022-02-22,24.15773,121.6236,0.22305886
C1U501,牛鬥,2022-02-22,24.637836,121.573656,0.0047517144
C1U670,寒溪,2022-02-22,24.634,121.71691,0.0064305
C1U930,粉鳥林,2022-02-22,24.497088,121.842479,0.026817806
C1V340,大津,2022-02-22,22.888322,120.645986,0.11772363
C1V390,尖山,2022-02-22,22.813153,120.367789,0.0020435883
C1V570,吉東,2022-02-22,22.85422,120.5454,0.0852012
C1V830,國三S383K,2022-02-22,22.781967,120.426475,0.04132212
C1X040,東原,2022-02-22,23.291597,120.463822,0.01894859
C1Z030,紅葉,2022-02-22,23.493119,121.338806,0.17677756
C1Z040,立山,2022-02-22,23.443356,121.327375,0.03845525
C1Z120,壽豐,2022-02-22,23.870853,121.508081,0.32506788
C1Z130,銅門,2022-02-22,23.965694,121.492842,0.07347891
CAG100,王功漁港,2022-02-22,23.96824,120.32586,0.0010382314
CAJ050,海口故事園區,2022-02-22,23.57543,120.14121,0.003310759
CAL110,布袋國中,2022-02-22,23.35893,120.18026,0.0062138946
CAN130,水試所海水繁養殖中心,2022-02-22,23.120802,120.07968,0.0032037487
CAN140,六官養殖協會,2022-02-22,23.22881,120.29962,0.005524262
CAQ030,崎峰國小,2022-02-22,22.42565,120.49521,0.0021765844
E2K600,四湖植物園,2022-02-22,23.676986,120.163433,0.001093346
E2P980,林試六龜中心,2022-02-22,22.991703,120.645722,0.059931155
E2S960,林試太麻里2,2022-02-22,22.598014,120.989761,0.3051727
E2S980,林試太麻里1,2022-02-22,22.598922,120.980044,0.1585985
G2F820,農業試驗所,2022-02-22,24.031261,120.688133,0.000545639
G2L020,嘉義農試,2022-02-22,23.485028,120.473806,0.008190435
G2M350,溪口農場,2022-02-22,23.58565,120.408111,0.0018060697
G2P820,鳳山農試,2022-02-22,22.646611,120.356083,0.00085491233
K2E360,苗栗農改,2022-02-22,24.495722,120.829111,0.0005467477
K2E710,大湖分場,2022-02-22,24.422861,120.871833,0.00051174744
K2F750,種苗繁殖,2022-02-22,24.225972,120.800917,0.0010157384
U2HA50,臺大竹山,2022-02-22,23.756972,120.681556,0.00531927
V2K620,麥寮合作社,2022-02-22,23.753836,120.294783,0.0010274642
