站號,站名,日期,lat,lon,BlastTF
12J990,口湖工作站,2022-12-18,23.589978,120.180394,0.2804
12Q970,東港工作站,2022-12-18,22.479997,120.466058,0.6361
12Q980,恆春工作站,2022-12-18,22.079678,120.714425,0.6349
466881,新北,2022-12-18,24.9593,121.52,0.0335
466900,淡水,2022-12-18,25.164889,121.448906,0.0453
466920,臺北,2022-12-18,25.037658,121.514853,0.0369
466940,基隆,2022-12-18,25.133314,121.740475,0.0585
466990,花蓮,2022-12-18,23.975128,121.613275,0.6489
467050,新屋,2022-12-18,25.006744,121.047486,0.0905
467080,宜蘭,2022-12-18,24.763975,121.756528,0.2737
467270,田中,2022-12-18,23.873803,120.581286,0.2897
467300,東吉島,2022-12-18,23.25695,119.667467,0.0818
467350,澎湖,2022-12-18,23.565503,119.563094,0.0548
467410,臺南,2022-12-18,22.993239,120.204772,0.6395
467420,永康,2022-12-18,23.038386,120.2367,0.6422
467441,高雄,2022-12-18,22.7304,120.3125,0.6386
467480,嘉義,2022-12-18,23.495925,120.432906,0.3272
467490,臺中,2022-12-18,24.145736,120.684075,0.2531
467540,大武,2022-12-18,22.355675,120.903789,0.6441
467571,新竹,2022-12-18,24.827853,121.014219,0.0442
467590,恆春,2022-12-18,22.003897,120.746339,0.6252
467610,成功,2022-12-18,23.097486,121.373428,0.6153
467620,蘭嶼,2022-12-18,22.036969,121.558339,0.3102
467660,臺東,2022-12-18,22.752211,121.154586,0.3199
467790,墾丁雷達站,2022-12-18,21.948235,120.808028,0.6128
72AI40,桃改樹林分場,2022-12-18,24.944503,121.386972,0.0335
72C440,桃園農改,2022-12-18,24.950944,121.030583,0.0826
72D680,桃改新埔分場,2022-12-18,24.834444,121.066111,0.0421
72G600,臺中農改,2022-12-18,24.003028,120.534389,0.2549
72K220,南改斗南分場,2022-12-18,23.634556,120.477333,0.3382
72M360,南改義竹分場,2022-12-18,23.360694,120.279361,0.4328
72M700,南改鹿草分場,2022-12-18,23.416869,120.283061,0.458
72N100,臺南農改,2022-12-18,23.0605,120.342194,0.6376
72N240,七股研究中心,2022-12-18,23.081672,120.062894,0.5719
72Q010,高雄農改,2022-12-18,22.709333,120.525889,0.6317
72S200,東改班鳩分場,2022-12-18,22.829528,121.077694,0.1634
72S590,東改賓朗果園,2022-12-18,22.813889,121.071278,0.127
72T250,花蓮農改,2022-12-18,23.975222,121.563889,0.6488
72U480,花改蘭陽分場,2022-12-18,24.686306,121.716583,0.2925
72V140,高改旗南分場,2022-12-18,22.857861,120.516667,0.6196
82A750,茶改北部分場,2022-12-18,24.955778,121.631222,0.1087
82C160,茶改場,2022-12-18,24.908472,121.185333,0.0142
82H840,茶改南部分場,2022-12-18,23.762528,120.7405,0.106
82S580,茶改東部分場,2022-12-18,22.907694,121.130139,0.2407
A2C560,農工中心,2022-12-18,24.985917,121.239833,0.0189
A2K360,水試臺西試驗場,2022-12-18,23.717231,120.190522,0.237
A2K570,古坑花卉中心,2022-12-18,23.63353,120.55239,0.2109
A2K630,臺大雲林校區,2022-12-18,23.730628,120.423903,0.2771
A2N290,臺南蘭花園區,2022-12-18,23.340258,120.379661,0.4278
B2E890,畜試北區分所,2022-12-18,24.527806,120.770972,0.0529
B2N890,畜試所,2022-12-18,23.058972,120.336406,0.6376
B2Q810,畜試南區分所,2022-12-18,21.945583,120.802167,0.629
B2U990,畜試東區分所,2022-12-18,24.669039,121.832561,0.3133
C0A520,山佳,2022-12-18,24.974944,121.402008,0.0335
C0A530,坪林,2022-12-18,24.938183,121.70975,0.0865
C0A540,四堵,2022-12-18,24.8926,121.745736,0.0184
C0A550,泰平,2022-12-18,24.971197,121.823711,0.0726
C0A560,福山,2022-12-18,24.776203,121.502811,0.1087
C0A570,桶後,2022-12-18,24.848222,121.597992,0.0133
C0A640,石碇,2022-12-18,24.993969,121.662917,0.1547
C0A650,火燒寮,2022-12-18,25.002719,121.742892,0.1198
C0A660,瑞芳,2022-12-18,25.113169,121.801147,0.222
C0A770,科教館,2022-12-18,25.096356,121.516507,0.0388
C0A860,大坪,2022-12-18,25.165914,121.632969,0.0095
C0A880,福隆,2022-12-18,25.017842,121.942083,0.1872
C0A890,雙溪,2022-12-18,25.036003,121.864242,0.0465
C0A920,富貴角,2022-12-18,25.263783,121.565258,0.0237
C0A931,三和,2022-12-18,25.233153,121.595236,0.1297
C0A940,金山,2022-12-18,25.223628,121.643967,0.0346
C0A950,鼻頭角,2022-12-18,25.129036,121.923372,0.1944
C0A970,三貂角,2022-12-18,25.007606,122.002058,0.2591
C0A980,社子,2022-12-18,25.109508,121.469681,0.0405
C0A9C0,天母,2022-12-18,25.117494,121.537169,0.0353
C0A9F0,內湖,2022-12-18,25.079422,121.57545,0.0369
C0AC60,三峽,2022-12-18,24.939025,121.369728,0.0315
C0AC70,信義,2022-12-18,25.037822,121.564597,0.0369
C0AC80,文山,2022-12-18,25.00235,121.575728,0.0286
C0ACA0,新莊,2022-12-18,25.051478,121.446756,0.0482
C0AD00,三芝,2022-12-18,25.258131,121.501917,0.0286
C0AD10,八里,2022-12-18,25.150211,121.403947,0.0453
C0AD30,蘆洲,2022-12-18,25.086594,121.472331,0.0388
C0AD40,土城,2022-12-18,24.973208,121.445169,0.0368
C0AD50,鶯歌,2022-12-18,24.951533,121.346294,0.0335
C0AG80,中和,2022-12-18,24.991622,121.491792,0.0369
C0AH00,汐止,2022-12-18,25.066881,121.658778,0.0561
C0AH10,永和,2022-12-18,25.01125,121.508111,0.0381
C0AH40,平等,2022-12-18,25.129142,121.577086,0.0138
C0AH50,林口,2022-12-18,25.072181,121.38084,0.0201
C0AH70,松山,2022-12-18,25.04871,121.55042,0.0369
C0AH80,深坑,2022-12-18,25.002703,121.628328,0.0286
C0AI00,五股,2022-12-18,25.07445,121.42728,0.014
C0AI10,屈尺,2022-12-18,24.92184,121.54475,0.0286
C0AI20,白沙灣,2022-12-18,25.283128,121.519058,0.0381
C0AI30,三重,2022-12-18,25.057328,121.500629,0.0388
C0AI40,石牌,2022-12-18,25.115597,121.513139,0.0368
C0AJ20,野柳,2022-12-18,25.20703,121.690021,0.0561
C0AJ30,淡水觀海,2022-12-18,25.184591,121.408616,0.0478
C0AJ40,石門,2022-12-18,25.273672,121.601198,0.0176
C0AJ50,水湳洞,2022-12-18,25.123695,121.862238,0.0561
C0AJ60,六塊厝,2022-12-18,25.24,121.4481,0.0478
C0AJ70,田寮,2022-12-18,25.2698,121.4886,0.041
C0AJ80,板橋,2022-12-18,25.0107,121.4489,0.0368
C0AJ90,澳底,2022-12-18,25.0552,121.9253,0.1872
C0B010,七堵,2022-12-18,25.094819,121.71713,0.051
C0B020,基隆嶼,2022-12-18,25.19141,121.78391,0.0561
C0B040,大武崙,2022-12-18,25.166676,121.706993,0.051
C0B050,八斗子,2022-12-18,25.144754,121.79167,0.0615
C0B060,暖暖,2022-12-18,25.0957,121.7403,0.0401
C0C460,復興,2022-12-18,24.820208,121.352281,0.0089
C0C480,桃園,2022-12-18,24.992425,121.323172,0.0198
C0C490,八德,2022-12-18,24.928708,121.283289,0.0276
C0C590,觀音,2022-12-18,25.027072,121.153317,0.0331
C0C620,蘆竹,2022-12-18,25.084275,121.265767,0.0412
C0C630,大溪,2022-12-18,24.882853,121.265547,0.0206
C0C650,平鎮,2022-12-18,24.897503,121.214636,0.0142
C0C660,楊梅,2022-12-18,24.912375,121.143047,0.0153
C0C670,龍潭,2022-12-18,24.870056,121.221389,0.009
C0C680,龜山,2022-12-18,25.02846,121.38656,0.0267
C0C700,中壢,2022-12-18,24.977661,121.256375,0.0174
C0C710,大溪永福,2022-12-18,24.892936,121.324975,0.0172
C0C720,竹圍,2022-12-18,25.112692,121.239824,0.0453
C0C730,中大臨海站,2022-12-18,24.966126,121.008581,0.1037
C0C740,觀音工業區,2022-12-18,25.064764,121.114856,0.0253
C0C750,新興坑尾,2022-12-18,25.0061,121.0971,0.0186
C0D430,峨眉,2022-12-18,24.6905,121.017189,0.0531
C0D480,打鐵坑,2022-12-18,24.849664,121.150789,0.0123
C0D540,橫山,2022-12-18,24.71116,121.11693,0.0202
C0D560,竹東,2022-12-18,24.767147,121.057881,0.0301
C0D580,寶山,2022-12-18,24.735006,121.025192,0.0328
C0D590,新豐,2022-12-18,24.87068,120.97721,0.0756
C0D650,湖口,2022-12-18,24.904794,121.043628,0.0658
C0D660,新竹市東區,2022-12-18,24.798681,120.986942,0.0402
C0D670,海天一線,2022-12-18,24.831986,120.914438,0.0549
C0D680,香山濕地,2022-12-18,24.783581,120.914988,0.0535
C0D690,外湖,2022-12-18,24.917735,120.968711,0.1037
C0D700,關西,2022-12-18,24.7977,121.1732,0.0198
C0E420,竹南,2022-12-18,24.708978,120.888897,0.0455
C0E430,南庄,2022-12-18,24.601775,121.000214,0.0388
C0E520,大湖,2022-12-18,24.41494,120.87087,0.0433
C0E540,後龍,2022-12-18,24.606489,120.783933,0.0485
C0E550,明德,2022-12-18,24.583486,120.885411,0.0323
C0E590,通霄,2022-12-18,24.471892,120.704622,0.0637
C0E730,頭份,2022-12-18,24.688247,120.912206,0.0455
C0E740,造橋,2022-12-18,24.637056,120.864778,0.0354
C0E750,苗栗,2022-12-18,24.564569,120.824575,0.0381
C0E780,銅鑼,2022-12-18,24.489681,120.790853,0.0553
C0E791,卓蘭,2022-12-18,24.3126,120.8244,0.068
C0E810,西湖,2022-12-18,24.562947,120.7485,0.0419
C0E820,獅潭,2022-12-18,24.539133,120.920042,0.0381
C0E830,苑裡,2022-12-18,24.439714,120.653053,0.1045
C0E850,大河,2022-12-18,24.618069,120.948578,0.0293
C0E870,高鐵苗栗,2022-12-18,24.60725,120.826094,0.0461
C0E910,海埔,2022-12-18,24.648767,120.772435,0.0498
C0E920,通霄漁港,2022-12-18,24.498589,120.673876,0.0807
C0E930,龍鳳,2022-12-18,24.700034,120.859125,0.04
C0F0B0,石岡,2022-12-18,24.276061,120.777644,0.0773
C0F850,東勢,2022-12-18,24.246428,120.833047,0.0786
C0F930,大甲,2022-12-18,24.347667,120.640403,0.1071
C0F970,大坑,2022-12-18,24.173142,120.722289,0.1518
C0F9A0,中竹林,2022-12-18,24.103556,120.751061,0.0756
C0F9I0,神岡,2022-12-18,24.272481,120.658314,0.0701
C0F9K0,大安,2022-12-18,24.345061,120.588025,0.1586
C0F9L0,后里,2022-12-18,24.310436,120.729725,0.0483
C0F9M0,豐原,2022-12-18,24.254322,120.720692,0.0583
C0F9N0,大里,2022-12-18,24.092464,120.701378,0.2854
C0F9O0,潭子,2022-12-18,24.213106,120.703933,0.109
C0F9P0,清水,2022-12-18,24.312297,120.562242,0.1723
C0F9Q0,外埔,2022-12-18,24.347817,120.705686,0.0881
C0F9R0,龍井,2022-12-18,24.184536,120.528972,0.1741
C0F9S0,烏日,2022-12-18,24.107058,120.624103,0.2813
C0F9T0,西屯,2022-12-18,24.179494,120.641275,0.1563
C0F9U0,南屯,2022-12-18,24.137006,120.637969,0.2854
C0F9X0,大雅(中科園區),2022-12-18,24.21528,120.62445,0.1108
C0FA10,松柏,2022-12-18,24.429115,120.617482,0.1192
C0FA20,溫寮,2022-12-18,24.372177,120.583125,0.1192
C0FA30,梧棲,2022-12-18,24.256003,120.523381,0.1741
C0FA40,臺中電廠,2022-12-18,24.2146,120.4907,0.1741
C0FA50,霧峰,2022-12-18,24.0419,120.6995,0.3063
C0G620,芬園,2022-12-18,24.015678,120.6213,0.2332
C0G640,鹿港,2022-12-18,24.0753,120.430481,0.1836
C0G650,員林,2022-12-18,23.946503,120.585597,0.3003
C0G660,溪湖,2022-12-18,23.94835,120.479122,0.2187
C0G720,溪州,2022-12-18,23.851589,120.499093,0.1949
C0G730,二林,2022-12-18,23.903325,120.376081,0.1588
C0G740,大城,2022-12-18,23.852487,120.320935,0.1672
C0G770,福興,2022-12-18,24.041289,120.437669,0.1836
C0G780,秀水,2022-12-18,24.03405,120.503869,0.2622
C0G800,埔鹽,2022-12-18,24.000394,120.431683,0.1836
C0G810,埔心,2022-12-18,23.947633,120.525456,0.2097
C0G820,田尾,2022-12-18,23.901669,120.509389,0.2023
C0G830,埤頭,2022-12-18,23.866003,120.452806,0.2109
C0G840,北斗,2022-12-18,23.877586,120.514222,0.2023
C0G860,社頭,2022-12-18,23.897647,120.5862,0.2892
C0G870,芳苑,2022-12-18,23.922303,120.320025,0.1732
C0G880,二水,2022-12-18,23.810742,120.6173,0.23
C0G890,伸港,2022-12-18,24.148933,120.484403,0.2348
C0G900,線西,2022-12-18,24.143358,120.443536,0.2194
C0G910,花壇,2022-12-18,24.032076,120.549461,0.2435
C0G920,永靖,2022-12-18,23.924703,120.547533,0.2023
C0G940,竹塘,2022-12-18,23.848253,120.386764,0.2079
C0G950,防潮門,2022-12-18,24.1835,120.4871,0.1826
C0G960,福寶,2022-12-18,24.0443,120.3814,0.1906
C0G970,三豐,2022-12-18,23.882,120.2895,0.1732
C0H890,埔里,2022-12-18,23.972169,120.952425,0.2766
C0H950,中寮,2022-12-18,23.884447,120.766406,0.1634
C0H960,草屯,2022-12-18,23.973672,120.68085,0.2751
C0I110,竹山,2022-12-18,23.761225,120.688156,0.2004
C0I360,水里,2022-12-18,23.812553,120.849792,0.1308
C0I380,集集,2022-12-18,23.828206,120.801467,0.1423
C0I410,名間,2022-12-18,23.837053,120.701447,0.2349
C0I420,國姓,2022-12-18,24.037803,120.855072,0.1886
C0I460,南投,2022-12-18,23.911469,120.687331,0.2608
C0K250,崙背,2022-12-18,23.75555,120.318925,0.2004
C0K280,四湖,2022-12-18,23.630414,120.227125,0.2813
C0K291,宜梧,2022-12-18,23.536281,120.169329,0.3703
C0K330,虎尾,2022-12-18,23.719183,120.442036,0.2669
C0K390,土庫,2022-12-18,23.679029,120.395574,0.2771
C0K400,斗六,2022-12-18,23.720583,120.541127,0.2717
C0K410,北港,2022-12-18,23.573957,120.292802,0.3549
C0K420,西螺,2022-12-18,23.800407,120.467394,0.2098
C0K430,褒忠,2022-12-18,23.690938,120.303634,0.2989
C0K440,二崙,2022-12-18,23.772797,120.408944,0.2018
C0K450,大埤,2022-12-18,23.646074,120.431537,0.343
C0K460,斗南,2022-12-18,23.678734,120.478359,0.2918
C0K470,林內,2022-12-18,23.748675,120.609642,0.2753
C0K480,莿桐,2022-12-18,23.761192,120.502372,0.2052
C0K500,元長,2022-12-18,23.64981,120.315024,0.3712
C0K510,水林,2022-12-18,23.572924,120.24597,0.2675
C0K530,臺西,2022-12-18,23.701547,120.197559,0.2291
C0K550,蔦松,2022-12-18,23.514319,120.229736,0.356
C0K560,棋山,2022-12-18,23.68645,120.603417,0.3356
C0K580,高鐵雲林,2022-12-18,23.737456,120.417944,0.2771
C0K590,雲林東勢,2022-12-18,23.674192,120.255721,0.2989
C0K600,箔子寮,2022-12-18,23.6197,120.14,0.2804
C0M410,馬頭山,2022-12-18,23.324361,120.582017,0.2077
C0M520,東後寮,2022-12-18,23.369908,120.248065,0.3885
C0M640,中埔,2022-12-18,23.42538,120.5229,0.2414
C0M650,朴子,2022-12-18,23.43463,120.23902,0.4129
C0M660,溪口,2022-12-18,23.604131,120.403569,0.3971
C0M670,大林,2022-12-18,23.600616,120.45841,0.3873
C0M680,太保,2022-12-18,23.455062,120.331455,0.4402
C0M690,水上,2022-12-18,23.419734,120.388909,0.3555
C0M700,竹崎,2022-12-18,23.526178,120.555508,0.1657
C0M710,東石,2022-12-18,23.458927,120.15385,0.356
C0M720,番路,2022-12-18,23.464657,120.554156,0.1698
C0M730,嘉義市東區,2022-12-18,23.457673,120.460531,0.3048
C0M740,六腳,2022-12-18,23.492871,120.290625,0.4506
C0M750,布袋,2022-12-18,23.380878,120.167789,0.4129
C0M760,民雄,2022-12-18,23.551754,120.428457,0.3736
C0M770,嘉義梅山,2022-12-18,23.585398,120.555587,0.2855
C0M780,鹿草,2022-12-18,23.41134,120.30835,0.4495
C0M790,新港,2022-12-18,23.553269,120.345728,0.3462
C0M800,茶山,2022-12-18,23.299075,120.664767,0.2456
C0M880,好美里,2022-12-18,23.3364,120.138,0.5677
C0N010,鯤鯓國小,2022-12-18,23.1879,120.0889,0.5863
C0N020,城西,2022-12-18,23.0568,120.0956,0.5558
C0N030,四草,2022-12-18,23.0235,120.1116,0.6372
C0N040,蘆竹溝,2022-12-18,23.2344,120.0961,0.5863
C0N050,蚵寮,2022-12-18,23.301,120.1104,0.5863
C0O810,曾文,2022-12-18,23.219681,120.497328,0.3276
C0O830,北寮,2022-12-18,23.079561,120.495008,0.4165
C0O840,王爺宮,2022-12-18,23.222064,120.40085,0.3276
C0O860,大內,2022-12-18,23.11885,120.36083,0.5316
C0O900,善化,2022-12-18,23.112883,120.297219,0.6432
C0O930,玉井,2022-12-18,23.126042,120.46055,0.521
C0O950,安南,2022-12-18,23.076694,120.144861,0.545
C0O960,崎頂,2022-12-18,22.959547,120.369317,0.4902
C0O970,虎頭埤,2022-12-18,23.021375,120.347878,0.6363
C0O980,新市,2022-12-18,23.061614,120.298197,0.6432
C0O990,媽廟,2022-12-18,22.99175,120.293525,0.6454
C0R150,三地門,2022-12-18,22.709889,120.639944,0.631
C0R160,鹽埔,2022-12-18,22.739558,120.530778,0.6317
C0R170,屏東,2022-12-18,22.660269,120.494072,0.6336
C0R190,赤山,2022-12-18,22.592333,120.614306,0.6334
C0R220,潮州,2022-12-18,22.534361,120.54,0.6338
C0R240,來義,2022-12-18,22.527306,120.625111,0.6295
C0R260,春日,2022-12-18,22.370361,120.628306,0.6278
C0R270,琉球嶼,2022-12-18,22.332244,120.362236,0.6276
C0R280,檳榔,2022-12-18,22.076078,120.836777,0.4902
C0R320,車城,2022-12-18,22.0744,120.716247,0.6349
C0R341,牡丹,2022-12-18,22.130036,120.792639,0.4868
C0R350,貓鼻頭,2022-12-18,21.921774,120.7358,0.6209
C0R470,高樹,2022-12-18,22.826389,120.600806,0.63
C0R480,長治,2022-12-18,22.693128,120.542622,0.6314
C0R490,九如,2022-12-18,22.7405,120.490503,0.6334
C0R520,崁頂,2022-12-18,22.514781,120.506914,0.6352
C0R540,佳冬,2022-12-18,22.419456,120.552375,0.6361
C0R550,新埤,2022-12-18,22.467947,120.582894,0.6341
C0R560,新園,2022-12-18,22.5434,120.461558,0.6352
C0R570,麟洛,2022-12-18,22.65078,120.52719,0.6334
C0R580,南州,2022-12-18,22.48591,120.50274,0.6361
C0R590,里港,2022-12-18,22.77919,120.49459,0.6316
C0R620,墾雷,2022-12-18,21.900836,120.855269,0.6209
C0R640,東港,2022-12-18,22.46247,120.44074,0.6389
C0R650,竹田,2022-12-18,22.58486,120.54344,0.6342
C0R660,枋寮,2022-12-18,22.367722,120.590647,0.6346
C0R670,楓港,2022-12-18,22.190131,120.692156,0.6368
C0R680,佳樂水,2022-12-18,21.993578,120.861633,0.629
C0R690,墾丁,2022-12-18,21.966756,120.810269,0.4657
C0R700,枋山,2022-12-18,22.246844,120.661086,0.6368
C0R710,龍磐,2022-12-18,21.931672,120.838942,0.5686
C0R720,旭海,2022-12-18,22.205403,120.887614,0.5928
C0R730,大坪頂,2022-12-18,22.024633,120.69355,0.5929
C0R740,獅子,2022-12-18,22.201569,120.70525,0.6352
C0R760,南仁湖,2022-12-18,22.084681,120.863353,0.4374
C0R770,保力,2022-12-18,22.071122,120.764111,0.6009
C0R780,滿州,2022-12-18,22.024403,120.839892,0.617
C0R790,九棚,2022-12-18,22.14195,120.889281,0.6208
C0R800,丹路,2022-12-18,22.204481,120.750989,0.6225
C0R810,內獅,2022-12-18,22.305064,120.642986,0.6253
C0R830,高士,2022-12-18,22.121825,120.836781,0.3558
C0R850,林邊,2022-12-18,22.4634,120.5339,0.6352
C0R860,鼻頭,2022-12-18,22.1043,120.8979,0.6348
C0R870,興海,2022-12-18,21.9752,120.8439,0.629
C0R880,後壁湖,2022-12-18,21.9457,120.7457,0.6351
C0R890,山海,2022-12-18,21.9878,120.7091,0.6349
C0R900,竹坑,2022-12-18,22.1385,120.7022,0.6272
C0R910,下寮,2022-12-18,22.3929,120.5548,0.6361
C0R920,塭仔,2022-12-18,22.4169,120.5197,0.636
C0R930,萬丹,2022-12-18,22.5885,120.4851,0.6342
C0R940,加祿堂,2022-12-18,22.3363,120.6217,0.6253
C0S710,鹿野,2022-12-18,22.917711,121.122994,0.1013
C0S730,綠島,2022-12-18,22.6672,121.47533,0.5631
C0S740,池上,2022-12-18,23.119628,121.209469,0.1687
C0S770,大溪山,2022-12-18,22.478475,120.943325,0.3871
C0S790,金崙,2022-12-18,22.538122,120.966875,0.6105
C0S810,東河,2022-12-18,22.972672,121.303986,0.4272
C0S830,長濱,2022-12-18,23.286817,121.411975,0.0839
C0S840,南田,2022-12-18,22.279725,120.889208,0.6509
C0S890,關山,2022-12-18,23.0395,121.175017,0.3915
C0S900,蘭嶼高中,2022-12-18,22.04909,121.51214,0.6436
C0S910,蘭嶼燈塔,2022-12-18,22.081197,121.503117,0.6038
C0S920,金峰嘉蘭,2022-12-18,22.594789,120.960825,0.635
C0S930,延平,2022-12-18,22.902581,121.084058,0.2899
C0S940,石寧山,2022-12-18,23.223772,121.406639,0.1673
C0S950,七塊厝,2022-12-18,22.954453,121.229922,0.0847
C0S960,香蘭,2022-12-18,22.587569,120.993375,0.6395
C0S970,加津林,2022-12-18,22.416211,120.926942,0.6449
C0S990,山豬窟,2022-12-18,22.318619,120.857372,0.4201
C0SA00,歷坵,2022-12-18,22.520969,120.89185,0.2981
C0SA10,檳榔四格山,2022-12-18,22.810031,121.109308,0.0842
C0SA30,都歷,2022-12-18,23.020333,121.323642,0.5871
C0SA40,瑞和,2022-12-18,22.974361,121.156697,0.4225
C0SA60,知本（水試所）,2022-12-18,22.702394,121.082761,0.4725
C0SA80,土坂,2022-12-18,22.453108,120.887572,0.6337
C0SA90,達仁林場,2022-12-18,22.264347,120.823972,0.4268
C0T870,鯉魚潭,2022-12-18,23.935639,121.508944,0.6457
C0T900,西林,2022-12-18,23.8119,121.441458,0.6432
C0T960,光復,2022-12-18,23.660694,121.424964,0.6406
C0T9A0,月眉山,2022-12-18,23.809928,121.539828,0.4634
C0T9D0,和中,2022-12-18,24.26676,121.74103,0.6141
C0T9E0,大坑,2022-12-18,23.880628,121.581981,0.5916
C0T9F0,水璉,2022-12-18,23.797131,121.542514,0.6186
C0T9I0,豐濱,2022-12-18,23.583897,121.514806,0.6388
C0T9M0,靜浦,2022-12-18,23.455167,121.495028,0.6406
C0T9N0,富里,2022-12-18,23.171639,121.249378,0.1162
C0U600,礁溪,2022-12-18,24.817539,121.765608,0.2661
C0U650,玉蘭,2022-12-18,24.675286,121.587061,0.2994
C0U750,龜山島,2022-12-18,24.841667,121.953133,0.219
C0U760,東澳,2022-12-18,24.52196,121.83318,0.2786
C0U770,南澳,2022-12-18,24.44935,121.81022,0.4221
C0U780,五結,2022-12-18,24.68637,121.79794,0.3133
C0U860,頭城,2022-12-18,24.85323,121.8308,0.2737
C0U870,大礁溪,2022-12-18,24.791042,121.675047,0.0891
C0U880,北關,2022-12-18,24.9072,121.8734,0.0457
C0U890,三星,2022-12-18,24.66812,121.65302,0.1822
C0U900,內城,2022-12-18,24.71813,121.68766,0.2372
C0U910,冬山,2022-12-18,24.63373,121.7937,0.3133
C0U940,羅東,2022-12-18,24.68184,121.74934,0.3049
C0U970,大福,2022-12-18,24.80064,121.81389,0.2841
C0U990,員山,2022-12-18,24.74435,121.72247,0.3049
C0UA00,土場,2022-12-18,24.576533,121.495333,0.0816
C0UA80,大溪漁港,2022-12-18,24.941801,121.902955,0.2661
C0UA90,石城,2022-12-18,24.980444,121.951214,0.2026
C0UB00,淡江大學蘭陽校園,2022-12-18,24.823239,121.730383,0.0741
C0UB10,蘇澳,2022-12-18,24.5969,121.8571,0.5187
C0UB20,壯圍,2022-12-18,24.7359,121.8163,0.3262
C0V250,甲仙,2022-12-18,23.080106,120.591758,0.1976
C0V260,月眉,2022-12-18,22.971003,120.539853,0.5056
C0V310,美濃,2022-12-18,22.898742,120.519153,0.6247
C0V350,溪埔,2022-12-18,22.738578,120.446797,0.6408
C0V360,內門,2022-12-18,22.975481,120.466769,0.5706
C0V370,古亭坑,2022-12-18,22.893178,120.401947,0.6317
C0V400,阿公店,2022-12-18,22.804194,120.355528,0.6409
C0V440,鳳山,2022-12-18,22.646653,120.356122,0.6408
C0V450,鳳森,2022-12-18,22.545064,120.392592,0.6386
C0V490,新興,2022-12-18,22.627422,120.298803,0.64
C0V530,阿蓮,2022-12-18,22.883208,120.327508,0.6455
C0V610,梓官,2022-12-18,22.760558,120.267211,0.6476
C0V620,永安,2022-12-18,22.82315,120.236856,0.6449
C0V630,茄萣,2022-12-18,22.906642,120.182608,0.6424
C0V640,湖內,2022-12-18,22.887139,120.2445,0.6436
C0V650,彌陀,2022-12-18,22.783806,120.246361,0.6449
C0V660,岡山,2022-12-18,22.797078,120.294958,0.6476
C0V680,仁武,2022-12-18,22.701083,120.347722,0.6396
C0V690,鼓山,2022-12-18,22.623325,120.275575,0.64
C0V700,三民,2022-12-18,22.645017,120.311233,0.64
C0V710,苓雅,2022-12-18,22.622742,120.330669,0.64
C0V720,林園,2022-12-18,22.507747,120.394511,0.64
C0V730,大寮,2022-12-18,22.605614,120.395717,0.6387
C0V740,旗山,2022-12-18,22.888614,120.483597,0.6215
C0V750,路竹,2022-12-18,22.854997,120.259439,0.6483
C0V760,橋頭,2022-12-18,22.757806,120.30575,0.6478
C0V770,大社,2022-12-18,22.730306,120.346639,0.6396
C0V790,萬山,2022-12-18,22.905944,120.688056,0.3152
C0V800,六龜,2022-12-18,22.997889,120.633583,0.4869
C0V810,左營,2022-12-18,22.67491,120.28491,0.6386
C0V820,小林,2022-12-18,23.148408,120.63325,0.2614
C0V840,鳳鼻頭,2022-12-18,22.5083,120.3591,0.6389
C0V850,蚵仔寮,2022-12-18,22.7256,120.2527,0.6388
C0V860,南寮,2022-12-18,22.7616,120.2339,0.6437
C0V870,文安,2022-12-18,22.8025,120.2164,0.6437
C0V880,興達,2022-12-18,22.8778,120.2127,0.6424
C0V890,前鎮,2022-12-18,22.5718,120.3117,0.6389
C0V900,汕尾,2022-12-18,22.4782,120.4151,0.6361
C0X050,東河,2022-12-18,23.296598,120.385608,0.4278
C0X060,下營,2022-12-18,23.22695,120.256261,0.6147
C0X080,佳里,2022-12-18,23.173039,120.145086,0.5677
C0X100,臺南市北區,2022-12-18,23.010394,120.194228,0.6417
C0X110,臺南市南區,2022-12-18,22.961189,120.188378,0.6422
C0X120,麻豆,2022-12-18,23.183289,120.248611,0.5604
C0X130,官田,2022-12-18,23.193217,120.315422,0.6021
C0X140,西港,2022-12-18,23.125608,120.203108,0.6243
C0X150,安定,2022-12-18,23.102614,120.227839,0.6255
C0X160,仁德,2022-12-18,22.968258,120.257689,0.6438
C0X170,關廟,2022-12-18,22.963017,120.327797,0.6423
C0X180,山上,2022-12-18,23.0757,120.363253,0.4934
C0X190,安平,2022-12-18,22.993161,120.152181,0.6417
C0X200,左鎮,2022-12-18,23.056758,120.408522,0.5095
C0X210,白河,2022-12-18,23.347466,120.414427,0.4148
C0X220,學甲,2022-12-18,23.230367,120.182187,0.5604
C0X230,鹽水,2022-12-18,23.272621,120.247641,0.468
C0X240,關子嶺,2022-12-18,23.331169,120.508025,0.084
C0X250,新營,2022-12-18,23.310689,120.316681,0.5424
C0X260,後壁,2022-12-18,23.366358,120.362326,0.3226
C0X280,將軍,2022-12-18,23.214999,120.13577,0.5677
C0X290,北門,2022-12-18,23.267772,120.125481,0.5677
C0X300,鹿寮,2022-12-18,23.386047,120.477331,0.3544
C0X310,七股,2022-12-18,23.147289,120.086253,0.5875
C0X320,柳營,2022-12-18,23.253328,120.375253,0.4278
C0Z020,明里,2022-12-18,23.208717,121.262342,0.1003
C0Z061,玉里,2022-12-18,23.3215,121.339656,0.1709
C0Z070,舞鶴,2022-12-18,23.46811,121.37407,0.642
C0Z080,富源,2022-12-18,23.587642,121.378225,0.6386
C0Z100,東華,2022-12-18,23.89525,121.549833,0.6514
C0Z150,吉安光華,2022-12-18,23.930925,121.595153,0.6515
C0Z160,鳳林,2022-12-18,23.746114,121.453411,0.6414
C0Z170,卓溪,2022-12-18,23.3443,121.3029,0.1448
C0Z180,新城,2022-12-18,24.03946,121.60454,0.6487
C0Z190,富世,2022-12-18,24.14743,121.6297,0.4485
C0Z200,萬榮,2022-12-18,23.709219,121.420106,0.6457
C0Z210,瑞穗,2022-12-18,23.5239,121.39021,0.6383
C0Z230,和平,2022-12-18,24.30717,121.77007,0.6141
C0Z270,蕃薯寮,2022-12-18,23.73835,121.540108,0.6445
C0Z280,德武,2022-12-18,23.47426,121.41071,0.6383
C0Z300,東里,2022-12-18,23.26853,121.30547,0.1574
C0Z310,清水斷崖,2022-12-18,24.218294,121.689142,0.5158
C0Z330,安通山,2022-12-18,23.290728,121.348528,0.075
CAG100,王功漁港,2022-12-18,23.96824,120.32586,0.2106
CAJ050,海口故事園區,2022-12-18,23.57543,120.14121,0.2804
CAL110,布袋國中,2022-12-18,23.35893,120.18026,0.3885
CAN130,水試所海水繁養殖中心,2022-12-18,23.120802,120.07968,0.5719
CAN140,六官養殖協會,2022-12-18,23.22881,120.29962,0.609
CAQ030,崎峰國小,2022-12-18,22.42565,120.49521,0.6361
E2K600,四湖植物園,2022-12-18,23.676986,120.163433,0.2291
E2P980,林試六龜中心,2022-12-18,22.991703,120.645722,0.4772
E2S960,林試太麻里2,2022-12-18,22.598014,120.989761,0.6395
E2S980,林試太麻里1,2022-12-18,22.598922,120.980044,0.6362
G2F820,農業試驗所,2022-12-18,24.031261,120.688133,0.2981
G2L020,農試嘉義分所,2022-12-18,23.485028,120.473806,0.2278
G2M350,農試溪口農場,2022-12-18,23.58565,120.408111,0.3971
G2P820,農試鳳山分所,2022-12-18,22.646611,120.356083,0.6408
K2E360,苗栗農改,2022-12-18,24.495722,120.829111,0.073
K2E710,苗改生物防治研究中心,2022-12-18,24.422861,120.871833,0.0463
K2F750,種苗繁殖,2022-12-18,24.225972,120.800917,0.0473
U2HA50,臺大竹山,2022-12-18,23.756972,120.681556,0.192
V2K620,麥寮合作社,2022-12-18,23.753836,120.294783,0.2089
