站號,站名,日期,lat,lon,BlastGRU-TW
466881,新北,2022-11-04,24.9593,121.52,0.26306704
466900,淡水,2022-11-04,25.164889,121.448906,0.2464072
466920,臺北,2022-11-04,25.037658,121.514853,0.27372316
467350,澎湖,2022-11-04,23.565503,119.563094,0.037427377
467410,臺南,2022-11-04,22.993239,120.204772,0.5572232
467420,永康,2022-11-04,23.038386,120.2367,0.54947686
467790,墾丁雷達站,2022-11-04,21.948235,120.808028,0.803572
C0A520,山佳,2022-11-04,24.974944,121.402008,0.22598909
C0A530,坪林,2022-11-04,24.938183,121.70975,0.97454166
C0A880,福隆,2022-11-04,25.017842,121.942083,0.9724507
C0A890,雙溪,2022-11-04,25.036003,121.864242,0.32664847
C0A920,富貴角,2022-11-04,25.263783,121.565258,0.09474015
C0AC80,文山,2022-11-04,25.00235,121.575728,0.24597304
C0ACA0,新莊,2022-11-04,25.051478,121.446756,0.27979788
C0AD00,三芝,2022-11-04,25.258131,121.501917,0.096645266
C0AH70,松山,2022-11-04,25.04871,121.55042,0.27372316
C0AH80,深坑,2022-11-04,25.002703,121.628328,0.24597304
C0AI00,五股,2022-11-04,25.07445,121.42728,0.033825208
C0AJ70,田寮,2022-11-04,25.2698,121.4886,0.17545405
