站號,站名,日期,lat,lon,BlastGRU-TW
466881,新北,2022-07-21,24.9593,121.52,0.21165873
466900,淡水,2022-07-21,25.164889,121.448906,0.2138155
466920,臺北,2022-07-21,25.037658,121.514853,0.1957717
467441,高雄,2022-07-21,22.7304,120.3125,0.24082595
467480,嘉義,2022-07-21,23.495925,120.432906,0.81985945
467490,臺中,2022-07-21,24.145736,120.684075,0.9342273
C0A540,四堵,2022-07-21,24.8926,121.745736,0.08754916
C0A550,泰平,2022-07-21,24.971197,121.823711,0.09167952
C0A560,福山,2022-07-21,24.776203,121.502811,0.12977743
C0A931,三和,2022-07-21,25.233153,121.595236,0.2033065
C0A940,金山,2022-07-21,25.223628,121.643967,0.22115931
C0A950,鼻頭角,2022-07-21,25.129036,121.923372,0.08354414
C0AD10,八里,2022-07-21,25.150211,121.403947,0.21354063
C0AD30,蘆洲,2022-07-21,25.086594,121.472331,0.2142067
C0AD40,土城,2022-07-21,24.973208,121.445169,0.2224969
C0AI10,屈尺,2022-07-21,24.92184,121.54475,0.24108832
C0AI20,白沙灣,2022-07-21,25.283128,121.519058,0.20876388
C0AI30,三重,2022-07-21,25.057328,121.500629,0.2142067
C0B010,七堵,2022-07-21,25.094819,121.71713,0.15043713
C0B020,基隆嶼,2022-07-21,25.19141,121.78391,0.14227034
