站號,站名,日期,lat,lon,BlastGRU-TW
466881,新北,2022-06-30,24.9593,121.52,0.37185436
466900,淡水,2022-06-30,25.164889,121.448906,0.4618657
466920,臺北,2022-06-30,25.037658,121.514853,0.34769762
466940,基隆,2022-06-30,25.133314,121.740475,0.31825468
466990,花蓮,2022-06-30,23.975128,121.613275,0.5271086
467050,新屋,2022-06-30,25.006744,121.047486,0.5487286
467080,宜蘭,2022-06-30,24.763975,121.756528,0.14691876
467270,田中,2022-06-30,23.873803,120.581286,0.99459004
467300,東吉島,2022-06-30,23.25695,119.667467,0.9880168
467350,澎湖,2022-06-30,23.565503,119.563094,0.99571973
467410,臺南,2022-06-30,22.993239,120.204772,0.3130085
467420,永康,2022-06-30,23.038386,120.2367,0.3087106
467441,高雄,2022-06-30,22.7304,120.3125,0.30053437
467480,嘉義,2022-06-30,23.495925,120.432906,0.9754941
467490,臺中,2022-06-30,24.145736,120.684075,0.9984501
467540,大武,2022-06-30,22.355675,120.903789,0.4123207
467571,新竹,2022-06-30,24.827853,121.014219,0.76102483
467590,恆春,2022-06-30,22.003897,120.746339,0.7236559
467610,成功,2022-06-30,23.097486,121.373428,0.13444506
467620,蘭嶼,2022-06-30,22.036969,121.558339,0.9961564
467660,臺東,2022-06-30,22.752211,121.154586,0.40265173
467790,墾丁雷達站,2022-06-30,21.948235,120.808028,0.7411098
C0A520,山佳,2022-06-30,24.974944,121.402008,0.45675784
C0A530,坪林,2022-06-30,24.938183,121.70975,0.80863655
C0A540,四堵,2022-06-30,24.8926,121.745736,0.3488684
C0A550,泰平,2022-06-30,24.971197,121.823711,0.12067158
C0A560,福山,2022-06-30,24.776203,121.502811,0.23607878
C0A570,桶後,2022-06-30,24.848222,121.597992,0.5175448
C0A640,石碇,2022-06-30,24.993969,121.662917,0.3011362
C0A650,火燒寮,2022-06-30,25.002719,121.742892,0.43828422
C0A660,瑞芳,2022-06-30,25.113169,121.801147,0.19034779
C0A770,科教館,2022-06-30,25.096356,121.516507,0.41270703
C0A860,大坪,2022-06-30,25.165914,121.632969,0.6391259
C0A880,福隆,2022-06-30,25.017842,121.942083,0.1255213
C0A890,雙溪,2022-06-30,25.036003,121.864242,0.37079063
C0A920,富貴角,2022-06-30,25.263783,121.565258,0.6209456
C0A931,三和,2022-06-30,25.233153,121.595236,0.44653922
C0A940,金山,2022-06-30,25.223628,121.643967,0.552983
C0A950,鼻頭角,2022-06-30,25.129036,121.923372,0.12112854
C0A970,三貂角,2022-06-30,25.007606,122.002058,0.21270765
C0A980,社子,2022-06-30,25.109508,121.469681,0.40079424
C0A9C0,天母,2022-06-30,25.117494,121.537169,0.44062516
C0A9F0,內湖,2022-06-30,25.079422,121.57545,0.3476982
C0AC60,三峽,2022-06-30,24.939025,121.369728,0.38494405
C0AC70,信義,2022-06-30,25.037822,121.564597,0.3476982
C0AC80,文山,2022-06-30,25.00235,121.575728,0.41311258
C0ACA0,新莊,2022-06-30,25.051478,121.446756,0.4077967
C0AD00,三芝,2022-06-30,25.258131,121.501917,0.6214789
C0AD10,八里,2022-06-30,25.150211,121.403947,0.4618657
C0AD30,蘆洲,2022-06-30,25.086594,121.472331,0.41270757
C0AD40,土城,2022-06-30,24.973208,121.445169,0.42762393
C0AD50,鶯歌,2022-06-30,24.951533,121.346294,0.5668039
C0AG80,中和,2022-06-30,24.991622,121.491792,0.3476982
C0AH00,汐止,2022-06-30,25.066881,121.658778,0.3284487
C0AH10,永和,2022-06-30,25.01125,121.508111,0.33656245
C0AH40,平等,2022-06-30,25.129142,121.577086,0.40738606
C0AH50,林口,2022-06-30,25.072181,121.38084,0.3234255
C0AH70,松山,2022-06-30,25.04871,121.55042,0.3476982
C0AH80,深坑,2022-06-30,25.002703,121.628328,0.41311258
C0AI00,五股,2022-06-30,25.07445,121.42728,0.82596517
C0AI10,屈尺,2022-06-30,24.92184,121.54475,0.41311258
C0AI20,白沙灣,2022-06-30,25.283128,121.519058,0.5205831
C0AI30,三重,2022-06-30,25.057328,121.500629,0.41270757
C0AI40,石牌,2022-06-30,25.115597,121.513139,0.42762312
C0AJ20,野柳,2022-06-30,25.20703,121.690021,0.3284487
C0AJ30,淡水觀海,2022-06-30,25.184591,121.408616,0.44754803
C0AJ40,石門,2022-06-30,25.273672,121.601198,0.791738
C0AJ50,水湳洞,2022-06-30,25.123695,121.862238,0.3284487
C0AJ60,六塊厝,2022-06-30,25.24,121.4481,0.44754803
C0AJ70,田寮,2022-06-30,25.2698,121.4886,0.505611
C0AJ80,板橋,2022-06-30,25.0107,121.4489,0.42762393
C0AJ90,澳底,2022-06-30,25.0552,121.9253,0.1255213
C0B010,七堵,2022-06-30,25.094819,121.71713,0.34859073
C0B020,基隆嶼,2022-06-30,25.19141,121.78391,0.3284487
C0B040,大武崙,2022-06-30,25.166676,121.706993,0.34859073
C0B050,八斗子,2022-06-30,25.144754,121.79167,0.31018624
C0B060,暖暖,2022-06-30,25.0957,121.7403,0.40731362
C0C460,復興,2022-06-30,24.820208,121.352281,0.6851797
C0C480,桃園,2022-06-30,24.992425,121.323172,0.7738586
C0C490,八德,2022-06-30,24.928708,121.283289,0.7123079
C0C590,觀音,2022-06-30,25.027072,121.153317,0.6962374
C0C620,蘆竹,2022-06-30,25.084275,121.265767,0.4905159
C0C630,大溪,2022-06-30,24.882853,121.265547,0.78661394
C0C650,平鎮,2022-06-30,24.897503,121.214636,0.88683534
C0C660,楊梅,2022-06-30,24.912375,121.143047,0.8856629
C0C670,龍潭,2022-06-30,24.870056,121.221389,0.98193824
C0C680,龜山,2022-06-30,25.02846,121.38656,0.31305474
C0C700,中壢,2022-06-30,24.977661,121.256375,0.80527806
C0C710,大溪永福,2022-06-30,24.892936,121.324975,0.8701023
C0C720,竹圍,2022-06-30,25.112692,121.239824,0.4618657
C0C730,中大臨海站,2022-06-30,24.966126,121.008581,0.5224518
C0C740,觀音工業區,2022-06-30,25.064764,121.114856,0.80413115
C0C750,新興坑尾,2022-06-30,25.0061,121.0971,0.85882396
C0D430,峨眉,2022-06-30,24.6905,121.017189,0.8022667
C0D480,打鐵坑,2022-06-30,24.849664,121.150789,0.9811182
C0D540,橫山,2022-06-30,24.71116,121.11693,0.984601
C0D560,竹東,2022-06-30,24.767147,121.057881,0.7840624
C0D580,寶山,2022-06-30,24.735006,121.025192,0.9732135
C0D590,新豐,2022-06-30,24.87068,120.97721,0.9484433
C0D650,湖口,2022-06-30,24.904794,121.043628,0.615005
C0D660,新竹市東區,2022-06-30,24.798681,120.986942,0.77847546
C0D670,海天一線,2022-06-30,24.831986,120.914438,0.7952954
C0D680,香山濕地,2022-06-30,24.783581,120.914988,0.8030824
C0D690,外湖,2022-06-30,24.917735,120.968711,0.5224518
C0D700,關西,2022-06-30,24.7977,121.1732,0.8350307
C0E420,竹南,2022-06-30,24.708978,120.888897,0.82640636
C0E430,南庄,2022-06-30,24.601775,121.000214,0.98854464
C0E520,大湖,2022-06-30,24.41494,120.87087,0.9906963
C0E540,後龍,2022-06-30,24.606489,120.783933,0.9983857
C0E550,明德,2022-06-30,24.583486,120.885411,0.99740076
C0E590,通霄,2022-06-30,24.471892,120.704622,0.9975009
C0E730,頭份,2022-06-30,24.688247,120.912206,0.82640636
C0E740,造橋,2022-06-30,24.637056,120.864778,0.99455273
C0E750,苗栗,2022-06-30,24.564569,120.824575,0.99868196
C0E780,銅鑼,2022-06-30,24.489681,120.790853,0.9971668
C0E791,卓蘭,2022-06-30,24.3126,120.8244,0.9961334
C0E810,西湖,2022-06-30,24.562947,120.7485,0.9985886
C0E820,獅潭,2022-06-30,24.539133,120.920042,0.9977092
C0E830,苑裡,2022-06-30,24.439714,120.653053,0.99315965
C0E850,大河,2022-06-30,24.618069,120.948578,0.99757916
C0E870,高鐵苗栗,2022-06-30,24.60725,120.826094,0.998467
C0E910,海埔,2022-06-30,24.648767,120.772435,0.9958114
C0E920,通霄漁港,2022-06-30,24.498589,120.673876,0.99592745
C0E930,龍鳳,2022-06-30,24.700034,120.859125,0.993191
C0F0B0,石岡,2022-06-30,24.276061,120.777644,0.97277445
C0F850,東勢,2022-06-30,24.246428,120.833047,0.99465746
C0F930,大甲,2022-06-30,24.347667,120.640403,0.9965611
C0F970,大坑,2022-06-30,24.173142,120.722289,0.99852324
C0F9A0,中竹林,2022-06-30,24.103556,120.751061,0.958297
C0F9I0,神岡,2022-06-30,24.272481,120.658314,0.9976926
C0F9K0,大安,2022-06-30,24.345061,120.588025,0.9907706
C0F9L0,后里,2022-06-30,24.310436,120.729725,0.9976452
C0F9M0,豐原,2022-06-30,24.254322,120.720692,0.99770814
C0F9N0,大里,2022-06-30,24.092464,120.701378,0.99740964
C0F9O0,潭子,2022-06-30,24.213106,120.703933,0.9975293
C0F9P0,清水,2022-06-30,24.312297,120.562242,0.98846567
C0F9Q0,外埔,2022-06-30,24.347817,120.705686,0.9975256
C0F9R0,龍井,2022-06-30,24.184536,120.528972,0.9879324
C0F9S0,烏日,2022-06-30,24.107058,120.624103,0.9479509
C0F9T0,西屯,2022-06-30,24.179494,120.641275,0.9974675
C0F9U0,南屯,2022-06-30,24.137006,120.637969,0.99740964
C0F9X0,大雅(中科園區),2022-06-30,24.21528,120.62445,0.9983677
C0FA10,松柏,2022-06-30,24.429115,120.617482,0.9903802
C0FA20,溫寮,2022-06-30,24.372177,120.583125,0.9903802
C0FA30,梧棲,2022-06-30,24.256003,120.523381,0.98817277
C0FA40,臺中電廠,2022-06-30,24.2146,120.4907,0.98817277
C0FA50,霧峰,2022-06-30,24.0419,120.6995,0.9984669
C0G620,芬園,2022-06-30,24.015678,120.6213,0.9894539
C0G640,鹿港,2022-06-30,24.0753,120.430481,0.8993086
C0G650,員林,2022-06-30,23.946503,120.585597,0.98591506
C0G660,溪湖,2022-06-30,23.94835,120.479122,0.9695739
C0G720,溪州,2022-06-30,23.851589,120.499093,0.99417377
C0G730,二林,2022-06-30,23.903325,120.376081,0.878631
C0G740,大城,2022-06-30,23.852487,120.320935,0.7494583
C0G770,福興,2022-06-30,24.041289,120.437669,0.8993086
C0G780,秀水,2022-06-30,24.03405,120.503869,0.93078476
C0G800,埔鹽,2022-06-30,24.000394,120.431683,0.8993086
C0G810,埔心,2022-06-30,23.947633,120.525456,0.97241575
C0G820,田尾,2022-06-30,23.901669,120.509389,0.9748163
C0G830,埤頭,2022-06-30,23.866003,120.452806,0.9939964
C0G840,北斗,2022-06-30,23.877586,120.514222,0.9748163
C0G860,社頭,2022-06-30,23.897647,120.5862,0.98694503
C0G870,芳苑,2022-06-30,23.922303,120.320025,0.7431804
C0G880,二水,2022-06-30,23.810742,120.6173,0.99483556
C0G890,伸港,2022-06-30,24.148933,120.484403,0.98730433
C0G900,線西,2022-06-30,24.143358,120.443536,0.9904393
C0G910,花壇,2022-06-30,24.032076,120.549461,0.9407646
C0G920,永靖,2022-06-30,23.924703,120.547533,0.9748163
C0G940,竹塘,2022-06-30,23.848253,120.386764,0.9888415
C0G950,防潮門,2022-06-30,24.1835,120.4871,0.9865234
C0G960,福寶,2022-06-30,24.0443,120.3814,0.8931689
C0G970,三豐,2022-06-30,23.882,120.2895,0.74318033
C0H890,埔里,2022-06-30,23.972169,120.952425,0.9943526
C0H950,中寮,2022-06-30,23.884447,120.766406,0.99358857
C0H960,草屯,2022-06-30,23.973672,120.68085,0.99493665
C0I110,竹山,2022-06-30,23.761225,120.688156,0.9942202
C0I360,水里,2022-06-30,23.812553,120.849792,0.9948826
C0I380,集集,2022-06-30,23.828206,120.801467,0.9951247
C0I410,名間,2022-06-30,23.837053,120.701447,0.99444264
C0I420,國姓,2022-06-30,24.037803,120.855072,0.96879995
C0I460,南投,2022-06-30,23.911469,120.687331,0.9946649
C0K250,崙背,2022-06-30,23.75555,120.318925,0.79781854
C0K280,四湖,2022-06-30,23.630414,120.227125,0.8118313
C0K291,宜梧,2022-06-30,23.536281,120.169329,0.54758686
C0K330,虎尾,2022-06-30,23.719183,120.442036,0.98792297
C0K390,土庫,2022-06-30,23.679029,120.395574,0.9874006
C0K400,斗六,2022-06-30,23.720583,120.541127,0.9919854
C0K410,北港,2022-06-30,23.573957,120.292802,0.5301354
C0K420,西螺,2022-06-30,23.800407,120.467394,0.9932201
C0K430,褒忠,2022-06-30,23.690938,120.303634,0.7549664
C0K440,二崙,2022-06-30,23.772797,120.408944,0.9893011
C0K450,大埤,2022-06-30,23.646074,120.431537,0.9882005
C0K460,斗南,2022-06-30,23.678734,120.478359,0.9916868
C0K470,林內,2022-06-30,23.748675,120.609642,0.99298847
C0K480,莿桐,2022-06-30,23.761192,120.502372,0.9933337
C0K500,元長,2022-06-30,23.64981,120.315024,0.8021267
C0K510,水林,2022-06-30,23.572924,120.24597,0.5506077
C0K530,臺西,2022-06-30,23.701547,120.197559,0.78288686
C0K550,蔦松,2022-06-30,23.514319,120.229736,0.5576088
C0K560,棋山,2022-06-30,23.68645,120.603417,0.9939541
C0K580,高鐵雲林,2022-06-30,23.737456,120.417944,0.9874006
C0K590,雲林東勢,2022-06-30,23.674192,120.255721,0.7549664
C0K600,箔子寮,2022-06-30,23.6197,120.14,0.5408036
C0M410,馬頭山,2022-06-30,23.324361,120.582017,0.9942519
C0M520,東後寮,2022-06-30,23.369908,120.248065,0.37628028
C0M640,中埔,2022-06-30,23.42538,120.5229,0.9942086
C0M650,朴子,2022-06-30,23.43463,120.23902,0.5686868
C0M660,溪口,2022-06-30,23.604131,120.403569,0.9093699
C0M670,大林,2022-06-30,23.600616,120.45841,0.984896
C0M680,太保,2022-06-30,23.455062,120.331455,0.5195769
C0M690,水上,2022-06-30,23.419734,120.388909,0.9892289
C0M700,竹崎,2022-06-30,23.526178,120.555508,0.9941388
C0M710,東石,2022-06-30,23.458927,120.15385,0.5576088
C0M720,番路,2022-06-30,23.464657,120.554156,0.9941976
C0M730,嘉義市東區,2022-06-30,23.457673,120.460531,0.99472815
C0M740,六腳,2022-06-30,23.492871,120.290625,0.5080543
C0M750,布袋,2022-06-30,23.380878,120.167789,0.5686868
C0M760,民雄,2022-06-30,23.551754,120.428457,0.9266798
C0M770,嘉義梅山,2022-06-30,23.585398,120.555587,0.9942968
C0M780,鹿草,2022-06-30,23.41134,120.30835,0.6295884
C0M790,新港,2022-06-30,23.553269,120.345728,0.540823
C0M800,茶山,2022-06-30,23.299075,120.664767,0.96722364
C0M880,好美里,2022-06-30,23.3364,120.138,0.40800413
C0N010,鯤鯓國小,2022-06-30,23.1879,120.0889,0.5992637
C0N020,城西,2022-06-30,23.0568,120.0956,0.37622052
C0N030,四草,2022-06-30,23.0235,120.1116,0.34803548
C0N040,蘆竹溝,2022-06-30,23.2344,120.0961,0.5992637
C0N050,蚵寮,2022-06-30,23.301,120.1104,0.5992633
C0O810,曾文,2022-06-30,23.219681,120.497328,0.9944802
C0O830,北寮,2022-06-30,23.079561,120.495008,0.7543746
C0O840,王爺宮,2022-06-30,23.222064,120.40085,0.9944802
C0O860,大內,2022-06-30,23.11885,120.36083,0.84273493
C0O900,善化,2022-06-30,23.112883,120.297219,0.36287323
C0O930,玉井,2022-06-30,23.126042,120.46055,0.9848435
C0O950,安南,2022-06-30,23.076694,120.144861,0.32470033
C0O960,崎頂,2022-06-30,22.959547,120.369317,0.4863169
C0O970,虎頭埤,2022-06-30,23.021375,120.347878,0.48557094
C0O980,新市,2022-06-30,23.061614,120.298197,0.36287323
C0O990,媽廟,2022-06-30,22.99175,120.293525,0.3580967
C0R150,三地門,2022-06-30,22.709889,120.639944,0.14260966
C0R160,鹽埔,2022-06-30,22.739558,120.530778,0.15947488
C0R170,屏東,2022-06-30,22.660269,120.494072,0.30899045
C0R190,赤山,2022-06-30,22.592333,120.614306,0.16323757
C0R220,潮州,2022-06-30,22.534361,120.54,0.16046634
C0R240,來義,2022-06-30,22.527306,120.625111,0.21102378
C0R260,春日,2022-06-30,22.370361,120.628306,0.19592553
C0R270,琉球嶼,2022-06-30,22.332244,120.362236,0.19770464
C0R280,檳榔,2022-06-30,22.076078,120.836777,0.8410601
C0R320,車城,2022-06-30,22.0744,120.716247,0.708984
C0R341,牡丹,2022-06-30,22.130036,120.792639,0.25837782
C0R350,貓鼻頭,2022-06-30,21.921774,120.7358,0.7286108
C0R470,高樹,2022-06-30,22.826389,120.600806,0.1337086
C0R480,長治,2022-06-30,22.693128,120.542622,0.16352542
C0R490,九如,2022-06-30,22.7405,120.490503,0.3179832
C0R520,崁頂,2022-06-30,22.514781,120.506914,0.30181223
C0R540,佳冬,2022-06-30,22.419456,120.552375,0.29415527
C0R550,新埤,2022-06-30,22.467947,120.582894,0.15948458
C0R560,新園,2022-06-30,22.5434,120.461558,0.30181223
C0R570,麟洛,2022-06-30,22.65078,120.52719,0.3179833
C0R580,南州,2022-06-30,22.48591,120.50274,0.29415524
C0R590,里港,2022-06-30,22.77919,120.49459,0.19351342
C0R620,墾雷,2022-06-30,21.900836,120.855269,0.7286108
C0R640,東港,2022-06-30,22.46247,120.44074,0.30378807
C0R650,竹田,2022-06-30,22.58486,120.54344,0.1556067
C0R660,枋寮,2022-06-30,22.367722,120.590647,0.15438192
C0R670,楓港,2022-06-30,22.190131,120.692156,0.15147106
C0R680,佳樂水,2022-06-30,21.993578,120.861633,0.7187402
C0R690,墾丁,2022-06-30,21.966756,120.810269,0.85556155
C0R700,枋山,2022-06-30,22.246844,120.661086,0.15147106
C0R710,龍磐,2022-06-30,21.931672,120.838942,0.7784933
C0R720,旭海,2022-06-30,22.205403,120.887614,0.7751016
C0R730,大坪頂,2022-06-30,22.024633,120.69355,0.7843685
C0R740,獅子,2022-06-30,22.201569,120.70525,0.16280845
C0R760,南仁湖,2022-06-30,22.084681,120.863353,0.89202106
C0R770,保力,2022-06-30,22.071122,120.764111,0.7564882
C0R780,滿州,2022-06-30,22.024403,120.839892,0.736068
C0R790,九棚,2022-06-30,22.14195,120.889281,0.73226565
C0R800,丹路,2022-06-30,22.204481,120.750989,0.1970553
C0R810,內獅,2022-06-30,22.305064,120.642986,0.17973858
C0R830,高士,2022-06-30,22.121825,120.836781,0.9264909
C0R850,林邊,2022-06-30,22.4634,120.5339,0.30181223
C0R860,鼻頭,2022-06-30,22.1043,120.8979,0.875408
C0R870,興海,2022-06-30,21.9752,120.8439,0.7187402
C0R880,後壁湖,2022-06-30,21.9457,120.7457,0.70414627
C0R890,山海,2022-06-30,21.9878,120.7091,0.708984
C0R900,竹坑,2022-06-30,22.1385,120.7022,0.17420058
C0R910,下寮,2022-06-30,22.3929,120.5548,0.29415524
C0R920,塭仔,2022-06-30,22.4169,120.5197,0.2878186
C0R930,萬丹,2022-06-30,22.5885,120.4851,0.1556067
C0R940,加祿堂,2022-06-30,22.3363,120.6217,0.17973858
C0S710,鹿野,2022-06-30,22.917711,121.122994,0.97045654
C0S730,綠島,2022-06-30,22.6672,121.47533,0.15039282
C0S740,池上,2022-06-30,23.119628,121.209469,0.70856667
C0S770,大溪山,2022-06-30,22.478475,120.943325,0.80303925
C0S790,金崙,2022-06-30,22.538122,120.966875,0.5617669
C0S810,東河,2022-06-30,22.972672,121.303986,0.13129592
C0S830,長濱,2022-06-30,23.286817,121.411975,0.9600012
C0S840,南田,2022-06-30,22.279725,120.889208,0.5373593
C0S890,關山,2022-06-30,23.0395,121.175017,0.20877391
C0S900,蘭嶼高中,2022-06-30,22.04909,121.51214,0.9887156
C0S910,蘭嶼燈塔,2022-06-30,22.081197,121.503117,0.9950206
C0S920,金峰嘉蘭,2022-06-30,22.594789,120.960825,0.45160753
C0S930,延平,2022-06-30,22.902581,121.084058,0.2691031
C0S940,石寧山,2022-06-30,23.223772,121.406639,0.41196978
C0S950,七塊厝,2022-06-30,22.954453,121.229922,0.9822669
C0S960,香蘭,2022-06-30,22.587569,120.993375,0.38674924
C0S970,加津林,2022-06-30,22.416211,120.926942,0.424985
C0S990,山豬窟,2022-06-30,22.318619,120.857372,0.934783
C0SA00,歷坵,2022-06-30,22.520969,120.89185,0.9005102
C0SA10,檳榔四格山,2022-06-30,22.810031,121.109308,0.7488234
C0SA30,都歷,2022-06-30,23.020333,121.323642,0.14372142
C0SA40,瑞和,2022-06-30,22.974361,121.156697,0.18987541
C0SA60,知本（水試所）,2022-06-30,22.702394,121.082761,0.38831112
C0SA80,土坂,2022-06-30,22.453108,120.887572,0.48630524
C0SA90,達仁林場,2022-06-30,22.264347,120.823972,0.42199093
C0T870,鯉魚潭,2022-06-30,23.935639,121.508944,0.46641982
C0T900,西林,2022-06-30,23.8119,121.441458,0.5171989
C0T960,光復,2022-06-30,23.660694,121.424964,0.5299221
C0T9A0,月眉山,2022-06-30,23.809928,121.539828,0.97357994
C0T9D0,和中,2022-06-30,24.26676,121.74103,0.045684434
C0T9E0,大坑,2022-06-30,23.880628,121.581981,0.930489
C0T9F0,水璉,2022-06-30,23.797131,121.542514,0.7288354
C0T9I0,豐濱,2022-06-30,23.583897,121.514806,0.55993986
C0T9M0,靜浦,2022-06-30,23.455167,121.495028,0.48526922
C0T9N0,富里,2022-06-30,23.171639,121.249378,0.9873664
C0U600,礁溪,2022-06-30,24.817539,121.765608,0.15392351
C0U650,玉蘭,2022-06-30,24.675286,121.587061,0.97189754
C0U750,龜山島,2022-06-30,24.841667,121.953133,0.06634415
C0U760,東澳,2022-06-30,24.52196,121.83318,0.03084205
C0U770,南澳,2022-06-30,24.44935,121.81022,0.03090728
C0U780,五結,2022-06-30,24.68637,121.79794,0.11181598
C0U860,頭城,2022-06-30,24.85323,121.8308,0.14691876
C0U870,大礁溪,2022-06-30,24.791042,121.675047,0.5138722
C0U880,北關,2022-06-30,24.9072,121.8734,0.3941719
C0U890,三星,2022-06-30,24.66812,121.65302,0.28110364
C0U900,內城,2022-06-30,24.71813,121.68766,0.18047221
C0U910,冬山,2022-06-30,24.63373,121.7937,0.11181598
C0U940,羅東,2022-06-30,24.68184,121.74934,0.113896154
C0U970,大福,2022-06-30,24.80064,121.81389,0.14009157
C0U990,員山,2022-06-30,24.74435,121.72247,0.113896154
C0UA00,土場,2022-06-30,24.576533,121.495333,0.93218863
C0UA80,大溪漁港,2022-06-30,24.941801,121.902955,0.15392351
C0UA90,石城,2022-06-30,24.980444,121.951214,0.15110609
C0UB00,淡江大學蘭陽校園,2022-06-30,24.823239,121.730383,0.82921165
C0UB10,蘇澳,2022-06-30,24.5969,121.8571,0.045887865
C0UB20,壯圍,2022-06-30,24.7359,121.8163,0.109436266
C0V250,甲仙,2022-06-30,23.080106,120.591758,0.95997953
C0V260,月眉,2022-06-30,22.971003,120.539853,0.61503994
C0V310,美濃,2022-06-30,22.898742,120.519153,0.8314311
C0V350,溪埔,2022-06-30,22.738578,120.446797,0.34997544
C0V360,內門,2022-06-30,22.975481,120.466769,0.9639103
C0V370,古亭坑,2022-06-30,22.893178,120.401947,0.78629124
C0V400,阿公店,2022-06-30,22.804194,120.355528,0.34398323
C0V440,鳳山,2022-06-30,22.646653,120.356122,0.32860422
C0V450,鳳森,2022-06-30,22.545064,120.392592,0.18538383
C0V490,新興,2022-06-30,22.627422,120.298803,0.31076592
C0V530,阿蓮,2022-06-30,22.883208,120.327508,0.31680667
C0V610,梓官,2022-06-30,22.760558,120.267211,0.2670519
C0V620,永安,2022-06-30,22.82315,120.236856,0.25664407
C0V630,茄萣,2022-06-30,22.906642,120.182608,0.2976885
C0V640,湖內,2022-06-30,22.887139,120.2445,0.30114305
C0V650,彌陀,2022-06-30,22.783806,120.246361,0.25664407
C0V660,岡山,2022-06-30,22.797078,120.294958,0.2670519
C0V680,仁武,2022-06-30,22.701083,120.347722,0.3066391
C0V690,鼓山,2022-06-30,22.623325,120.275575,0.31076592
C0V700,三民,2022-06-30,22.645017,120.311233,0.31076592
C0V710,苓雅,2022-06-30,22.622742,120.330669,0.31076592
C0V720,林園,2022-06-30,22.507747,120.394511,0.31076592
C0V730,大寮,2022-06-30,22.605614,120.395717,0.16431049
C0V740,旗山,2022-06-30,22.888614,120.483597,0.8523796
C0V750,路竹,2022-06-30,22.854997,120.259439,0.2581564
C0V760,橋頭,2022-06-30,22.757806,120.30575,0.27110034
C0V770,大社,2022-06-30,22.730306,120.346639,0.3066391
C0V790,萬山,2022-06-30,22.905944,120.688056,0.9562311
C0V800,六龜,2022-06-30,22.997889,120.633583,0.53176945
C0V810,左營,2022-06-30,22.67491,120.28491,0.30053437
C0V820,小林,2022-06-30,23.148408,120.63325,0.96816736
C0V840,鳳鼻頭,2022-06-30,22.5083,120.3591,0.30378807
C0V850,蚵仔寮,2022-06-30,22.7256,120.2527,0.29253215
C0V860,南寮,2022-06-30,22.7616,120.2339,0.25459862
C0V870,文安,2022-06-30,22.8025,120.2164,0.25459862
C0V880,興達,2022-06-30,22.8778,120.2127,0.2976885
C0V890,前鎮,2022-06-30,22.5718,120.3117,0.30378807
C0V900,汕尾,2022-06-30,22.4782,120.4151,0.2936214
C0X050,東河,2022-06-30,23.296598,120.385608,0.9557003
C0X060,下營,2022-06-30,23.22695,120.256261,0.47233358
C0X080,佳里,2022-06-30,23.173039,120.145086,0.4080039
C0X100,臺南市北區,2022-06-30,23.010394,120.194228,0.30376947
C0X110,臺南市南區,2022-06-30,22.961189,120.188378,0.3087106
C0X120,麻豆,2022-06-30,23.183289,120.248611,0.41701522
C0X130,官田,2022-06-30,23.193217,120.315422,0.5061714
C0X140,西港,2022-06-30,23.125608,120.203108,0.39904553
C0X150,安定,2022-06-30,23.102614,120.227839,0.34036574
C0X160,仁德,2022-06-30,22.968258,120.257689,0.34965977
C0X170,關廟,2022-06-30,22.963017,120.327797,0.38369402
C0X180,山上,2022-06-30,23.0757,120.363253,0.94642246
C0X190,安平,2022-06-30,22.993161,120.152181,0.30376947
C0X200,左鎮,2022-06-30,23.056758,120.408522,0.93790287
C0X210,白河,2022-06-30,23.347466,120.414427,0.9624468
C0X220,學甲,2022-06-30,23.230367,120.182187,0.41701522
C0X230,鹽水,2022-06-30,23.272621,120.247641,0.40328425
C0X240,關子嶺,2022-06-30,23.331169,120.508025,0.9621104
C0X250,新營,2022-06-30,23.310689,120.316681,0.43169582
C0X260,後壁,2022-06-30,23.366358,120.362326,0.8209063
C0X280,將軍,2022-06-30,23.214999,120.13577,0.40800413
C0X290,北門,2022-06-30,23.267772,120.125481,0.40800413
C0X300,鹿寮,2022-06-30,23.386047,120.477331,0.9927882
C0X310,七股,2022-06-30,23.147289,120.086253,0.54723483
C0X320,柳營,2022-06-30,23.253328,120.375253,0.9557003
C0Z020,明里,2022-06-30,23.208717,121.262342,0.90585905
C0Z061,玉里,2022-06-30,23.3215,121.339656,0.32790184
C0Z070,舞鶴,2022-06-30,23.46811,121.37407,0.7185085
C0Z080,富源,2022-06-30,23.587642,121.378225,0.72310156
C0Z100,東華,2022-06-30,23.89525,121.549833,0.38394004
C0Z150,吉安光華,2022-06-30,23.930925,121.595153,0.37532032
C0Z160,鳳林,2022-06-30,23.746114,121.453411,0.5113279
C0Z170,卓溪,2022-06-30,23.3443,121.3029,0.47157574
C0Z180,新城,2022-06-30,24.03946,121.60454,0.5495658
C0Z190,富世,2022-06-30,24.14743,121.6297,0.42163706
C0Z200,萬榮,2022-06-30,23.709219,121.420106,0.46641982
C0Z210,瑞穗,2022-06-30,23.5239,121.39021,0.52894294
C0Z230,和平,2022-06-30,24.30717,121.77007,0.045684442
C0Z270,蕃薯寮,2022-06-30,23.73835,121.540108,0.4783199
C0Z280,德武,2022-06-30,23.47426,121.41071,0.5951271
C0Z300,東里,2022-06-30,23.26853,121.30547,0.39380664
C0Z310,清水斷崖,2022-06-30,24.218294,121.689142,0.06448876
C0Z330,安通山,2022-06-30,23.290728,121.348528,0.9836896
