站號,站名,日期,lat,lon,BlastGRU-TW
466881,新北,2022-01-13,24.9593,121.52,0.0012695035
466900,淡水,2022-01-13,25.1649,121.4489,0.0016161838
466920,臺北,2022-01-13,25.0377,121.5149,0.0013524507
466940,基隆,2022-01-13,25.1333,121.7405,0.002262143
466990,花蓮,2022-01-13,23.9751,121.6133,0.4612928
467050,新屋,2022-01-13,25.0067,121.0475,0.0041795187
467080,宜蘭,2022-01-13,24.764,121.7565,0.0028843374
467270,田中,2022-01-13,23.8738,120.5813,0.04140554
467300,東吉島,2022-01-13,23.2569,119.6675,0.0028403858
467350,澎湖,2022-01-13,23.5655,119.5631,0.0017298178
467410,臺南,2022-01-13,22.9932,120.2048,0.15254237
467420,永康,2022-01-13,23.0384,120.2367,0.16336323
467441,高雄,2022-01-13,22.7304,120.3125,0.10955511
467480,嘉義,2022-01-13,23.4959,120.4329,0.003411399
467490,臺中,2022-01-13,24.1457,120.6841,0.002429892
467540,大武,2022-01-13,22.3557,120.9038,0.18657964
467571,新竹,2022-01-13,24.8279,121.0142,0.0014129512
467590,恆春,2022-01-13,22.0039,120.7463,0.0006941206
467610,成功,2022-01-13,23.0975,121.3734,0.6290186
467620,蘭嶼,2022-01-13,22.037,121.5583,0.00037594198
467660,臺東,2022-01-13,22.7522,121.1546,0.10103345
467790,墾丁雷達站,2022-01-13,21.9482,120.808,0.0005493255
C0A520,山佳,2022-01-13,24.9749,121.402,0.0013369783
C0A530,坪林,2022-01-13,24.9382,121.7097,0.0015397614
C0A540,四堵,2022-01-13,24.8926,121.7457,0.0022338808
C0A550,泰平,2022-01-13,24.9712,121.8237,0.0009393656
C0A560,福山,2022-01-13,24.7762,121.5028,0.0021148773
C0A570,桶後,2022-01-13,24.8482,121.598,0.0022828379
C0A640,石碇,2022-01-13,24.994,121.6629,0.0012917123
C0A650,火燒寮,2022-01-13,25.0027,121.7429,0.0011647642
C0A660,瑞芳,2022-01-13,25.1132,121.8011,0.0015759344
C0A770,科教館,2022-01-13,25.0964,121.5165,0.0014302753
C0A860,大坪,2022-01-13,25.1659,121.633,0.0016633002
C0A880,福隆,2022-01-13,25.0178,121.9421,0.0021089402
C0A890,雙溪,2022-01-13,25.036,121.8642,0.0017965109
C0A920,富貴角,2022-01-13,25.2638,121.5653,0.0012824367
C0A931,三和,2022-01-13,25.2332,121.5952,0.0011359613
C0A940,金山,2022-01-13,25.2236,121.644,0.0015998848
C0A950,鼻頭角,2022-01-13,25.129,121.9234,0.0021791551
C0A970,三貂角,2022-01-13,25.0076,122.0021,0.0015764448
C0A980,社子,2022-01-13,25.1095,121.4697,0.0014671456
C0A9C0,天母,2022-01-13,25.1175,121.5372,0.001365524
C0A9F0,內湖,2022-01-13,25.0794,121.5755,0.0013524507
C0AC60,三峽,2022-01-13,24.939,121.3697,0.001243647
C0AC70,信義,2022-01-13,25.0378,121.5646,0.0013524507
C0AC80,文山,2022-01-13,25.0023,121.5757,0.0011923983
C0ACA0,新莊,2022-01-13,25.0515,121.4468,0.0015889126
C0AD00,三芝,2022-01-13,25.2581,121.5019,0.0014367376
C0AD10,八里,2022-01-13,25.1502,121.4039,0.0016161838
C0AD30,蘆洲,2022-01-13,25.0866,121.4723,0.0014302753
C0AD40,土城,2022-01-13,24.9732,121.4452,0.0013986003
C0AD50,鶯歌,2022-01-13,24.9515,121.3463,0.0013199955
C0AG80,中和,2022-01-13,24.9916,121.4918,0.001352452
C0AH00,汐止,2022-01-13,25.0669,121.6588,0.0021568174
C0AH10,永和,2022-01-13,25.0113,121.5081,0.0013874077
C0AH40,平等,2022-01-13,25.1291,121.5771,0.0018661675
C0AH50,林口,2022-01-13,25.0722,121.3808,0.0023139997
C0AH70,松山,2022-01-13,25.0487,121.5504,0.0013524507
C0AH80,深坑,2022-01-13,25.0027,121.6283,0.0012159293
C0AI00,五股,2022-01-13,25.0744,121.4273,0.0009212713
C0AI10,屈尺,2022-01-13,24.9218,121.5447,0.0011923983
C0AI20,白沙灣,2022-01-13,25.2831,121.5191,0.0017034294
C0AI30,三重,2022-01-13,25.0573,121.5006,0.0014302753
C0AI40,石牌,2022-01-13,25.1156,121.5131,0.0013986003
C0AJ10,澳底,2022-01-13,25.0571,121.9273,0.0022526819
C0AJ20,野柳,2022-01-13,25.207,121.69,0.0021568174
C0AJ30,淡水觀海,2022-01-13,25.1846,121.4086,0.0016652382
C0AJ40,石門,2022-01-13,25.2737,121.6012,0.0011700651
C0AJ50,水湳洞,2022-01-13,25.1237,121.8622,0.0021568174
C0AJ60,六塊厝,2022-01-13,25.24,121.4481,0.0016652382
C0AJ70,田寮,2022-01-13,25.2698,121.4886,0.0017636274
C0AJ80,板橋,2022-01-13,25.0107,121.4489,0.0013986003
C0B010,七堵,2022-01-13,25.0948,121.7171,0.001968586
C0B020,基隆嶼,2022-01-13,25.1914,121.7839,0.0021568174
C0B040,大武崙,2022-01-13,25.1667,121.707,0.001968586
C0B050,八斗子,2022-01-13,25.1448,121.7917,0.002392936
C0B060,暖暖,2022-01-13,25.0957,121.7403,0.0016168695
C0C460,復興,2022-01-13,24.8202,121.3523,0.001944981
C0C480,桃園,2022-01-13,24.9924,121.3232,0.0010404483
C0C490,八德,2022-01-13,24.9287,121.2833,0.0012562583
C0C590,觀音,2022-01-13,25.0271,121.1533,0.0013592234
C0C620,蘆竹,2022-01-13,25.0843,121.2658,0.0015212124
C0C630,大溪,2022-01-13,24.8829,121.2655,0.0011154488
C0C650,平鎮,2022-01-13,24.8975,121.2146,0.00092895207
C0C660,楊梅,2022-01-13,24.9124,121.143,0.000980253
C0C670,龍潭,2022-01-13,24.8701,121.2214,0.00095751474
C0C680,龜山,2022-01-13,25.0285,121.3866,0.0030677698
C0C700,中壢,2022-01-13,24.9777,121.2564,0.000994549
C0C710,大溪永福,2022-01-13,24.8929,121.325,0.0010391388
C0C720,竹圍,2022-01-13,25.1127,121.2398,0.0016161838
C0C730,中大臨海站,2022-01-13,24.9661,121.0086,0.005011162
C0C740,觀音工業區,2022-01-13,25.0648,121.1149,0.0012699607
C0C750,新興坑尾,2022-01-13,25.0061,121.0971,0.0011030141
C0D430,峨眉,2022-01-13,24.6905,121.0172,0.0013183319
C0D480,打鐵坑,2022-01-13,24.8497,121.1508,0.0010405568
C0D540,橫山,2022-01-13,24.7112,121.1169,0.0011276901
C0D560,竹東,2022-01-13,24.7671,121.0579,0.0011464341
C0D580,寶山,2022-01-13,24.735,121.0252,0.0014400918
C0D590,新豐,2022-01-13,24.8707,120.9772,0.0049909484
C0D650,湖口,2022-01-13,24.9048,121.0436,0.0026838866
C0D660,新竹市東區,2022-01-13,24.7987,120.9869,0.0013369796
C0D670,海天一線,2022-01-13,24.832,120.9144,0.0016181013
C0D680,香山濕地,2022-01-13,24.7836,120.915,0.0015640152
C0D690,外湖,2022-01-13,24.9177,120.9687,0.005011162
C0D700,關西,2022-01-13,24.7977,121.1732,0.0010224058
C0E420,竹南,2022-01-13,24.709,120.8889,0.0014259558
C0E430,南庄,2022-01-13,24.6018,121.0002,0.0012812689
C0E520,大湖,2022-01-13,24.4149,120.8709,0.0009963902
C0E540,後龍,2022-01-13,24.6065,120.7839,0.0025168832
C0E550,明德,2022-01-13,24.5835,120.8854,0.0035521025
C0E590,通霄,2022-01-13,24.4719,120.7046,0.0025679057
C0E730,頭份,2022-01-13,24.6882,120.9122,0.0014259558
C0E740,造橋,2022-01-13,24.6371,120.8648,0.0036463854
C0E750,苗栗,2022-01-13,24.5646,120.8246,0.0024075096
C0E780,銅鑼,2022-01-13,24.4897,120.7909,0.003817175
C0E791,卓蘭,2022-01-13,24.3126,120.8244,0.0059197866
C0E810,西湖,2022-01-13,24.5629,120.7485,0.0024575526
C0E820,獅潭,2022-01-13,24.5391,120.92,0.0032496778
C0E830,苑裡,2022-01-13,24.4397,120.6531,0.0026350718
C0E850,大河,2022-01-13,24.6181,120.9486,0.0034276734
C0E870,高鐵苗栗,2022-01-13,24.6073,120.8261,0.0024921445
C0E910,海埔,2022-01-13,24.6488,120.7724,0.003620134
C0E920,通霄漁港,2022-01-13,24.4986,120.6739,0.0026669137
C0E930,龍鳳,2022-01-13,24.7,120.8591,0.0036419495
C0F000,大肚,2022-01-13,24.153,120.5721,0.0064891884
C0F0B0,石岡,2022-01-13,24.2761,120.7776,0.010261747
C0F850,東勢,2022-01-13,24.2464,120.833,0.005747063
C0F930,大甲,2022-01-13,24.3477,120.6404,0.002510551
C0F970,大坑,2022-01-13,24.1731,120.7223,0.002477437
C0F9A0,中竹林,2022-01-13,24.1036,120.7511,0.0070858127
C0F9I0,神岡,2022-01-13,24.2725,120.6583,0.0030711815
C0F9K0,大安,2022-01-13,24.3451,120.588,0.00285136
C0F9L0,后里,2022-01-13,24.3104,120.7297,0.0021432799
C0F9M0,豐原,2022-01-13,24.2543,120.7207,0.0026067446
C0F9N0,大里,2022-01-13,24.0925,120.7014,0.002735515
C0F9O0,潭子,2022-01-13,24.2131,120.7039,0.003755958
C0F9P0,清水,2022-01-13,24.3123,120.5622,0.002936677
C0F9Q0,外埔,2022-01-13,24.3478,120.7057,0.0035419145
C0F9R0,龍井,2022-01-13,24.1845,120.529,0.0028609203
C0F9S0,烏日,2022-01-13,24.1071,120.6241,0.0081257075
C0F9T0,西屯,2022-01-13,24.1795,120.6413,0.002549988
C0F9U0,南屯,2022-01-13,24.137,120.638,0.002735515
C0F9X0,大雅(中科園區),2022-01-13,24.2153,120.6244,0.0022946182
C0FA10,松柏,2022-01-13,24.4291,120.6175,0.0027301253
C0FA20,溫寮,2022-01-13,24.3722,120.5831,0.0027301253
C0FA30,梧棲,2022-01-13,24.256,120.5234,0.0028609203
C0FA40,臺中電廠,2022-01-13,24.2146,120.4907,0.0028609203
C0FA50,霧峰,2022-01-13,24.0419,120.6995,0.0024920686
C0G620,芬園,2022-01-13,24.0157,120.6213,0.0070234123
C0G640,鹿港,2022-01-13,24.0753,120.4305,0.006878179
C0G650,員林,2022-01-13,23.9465,120.5856,0.00984596
C0G660,溪湖,2022-01-13,23.9484,120.4791,0.007725589
C0G720,溪州,2022-01-13,23.8516,120.4991,0.023399958
C0G730,二林,2022-01-13,23.9033,120.3761,0.00789895
C0G740,大城,2022-01-13,23.8525,120.3209,0.004612371
C0G770,福興,2022-01-13,24.0413,120.4377,0.006878179
C0G780,秀水,2022-01-13,24.0341,120.5039,0.0072870213
C0G800,埔鹽,2022-01-13,24.0004,120.4317,0.006878179
C0G810,埔心,2022-01-13,23.9476,120.5255,0.0075362986
C0G820,田尾,2022-01-13,23.9017,120.5094,0.0073599257
C0G830,埤頭,2022-01-13,23.866,120.4528,0.023537068
C0G840,北斗,2022-01-13,23.8776,120.5142,0.0073599257
C0G860,社頭,2022-01-13,23.8976,120.5862,0.009522171
C0G870,芳苑,2022-01-13,23.9223,120.32,0.0047342926
C0G880,二水,2022-01-13,23.8107,120.6173,0.03596114
C0G890,伸港,2022-01-13,24.1489,120.4844,0.002992866
C0G900,線西,2022-01-13,24.1434,120.4435,0.0029506315
C0G910,花壇,2022-01-13,24.0321,120.5495,0.006906657
C0G920,永靖,2022-01-13,23.9247,120.5475,0.0073599257
C0G940,竹塘,2022-01-13,23.8483,120.3868,0.046117023
C0G950,防潮門,2022-01-13,24.1835,120.4871,0.0029022058
C0G960,福寶,2022-01-13,24.0443,120.3814,0.0070506968
C0G970,三豐,2022-01-13,23.882,120.2895,0.0047342926
C0H890,埔里,2022-01-13,23.9722,120.9524,0.055256896
C0H950,中寮,2022-01-13,23.8844,120.7664,0.017076472
C0H960,草屯,2022-01-13,23.9737,120.6809,0.024184853
C0I110,竹山,2022-01-13,23.7612,120.6882,0.022412127
C0I360,水里,2022-01-13,23.8126,120.8498,0.017524239
C0I380,集集,2022-01-13,23.8282,120.8015,0.019684805
C0I410,名間,2022-01-13,23.8371,120.7014,0.044064123
C0I420,國姓,2022-01-13,24.0378,120.8551,0.021037493
C0I460,南投,2022-01-13,23.9115,120.6873,0.03179243
C0K250,崙背,2022-01-13,23.7555,120.3189,0.004727375
C0K280,四湖,2022-01-13,23.6304,120.2271,0.0046455795
C0K291,宜梧,2022-01-13,23.5363,120.1693,0.023313727
C0K330,虎尾,2022-01-13,23.7192,120.442,0.06907194
C0K390,土庫,2022-01-13,23.679,120.3956,0.073590726
C0K400,斗六,2022-01-13,23.7206,120.5411,0.07541474
C0K410,北港,2022-01-13,23.574,120.2928,0.022443146
C0K420,西螺,2022-01-13,23.8004,120.4674,0.0392188
C0K430,褒忠,2022-01-13,23.6909,120.3036,0.0056189043
C0K440,二崙,2022-01-13,23.7728,120.4089,0.04317701
C0K450,大埤,2022-01-13,23.6461,120.4315,0.072306834
C0K460,斗南,2022-01-13,23.6787,120.4784,0.08588272
C0K470,林內,2022-01-13,23.7487,120.6096,0.062145032
C0K480,莿桐,2022-01-13,23.7612,120.5024,0.036963575
C0K500,元長,2022-01-13,23.6498,120.315,0.0054090624
C0K510,水林,2022-01-13,23.5729,120.246,0.014609389
C0K530,臺西,2022-01-13,23.7015,120.1976,0.0045044483
C0K550,蔦松,2022-01-13,23.5143,120.2297,0.021936275
C0K560,棋山,2022-01-13,23.6865,120.6034,0.107479416
C0K580,高鐵雲林,2022-01-13,23.7375,120.4179,0.073590726
C0K590,雲林東勢,2022-01-13,23.6742,120.2557,0.0056189043
C0K600,箔子寮,2022-01-13,23.6197,120.14,0.015235074
C0M410,馬頭山,2022-01-13,23.3244,120.582,0.024771417
C0M520,東後寮,2022-01-13,23.3699,120.2481,0.056530967
C0M640,中埔,2022-01-13,23.4254,120.5229,0.068100356
C0M650,朴子,2022-01-13,23.4346,120.239,0.030575542
C0M660,溪口,2022-01-13,23.6041,120.4036,0.004642359
C0M670,大林,2022-01-13,23.6006,120.4584,0.0053148163
C0M680,太保,2022-01-13,23.4551,120.3315,0.025134964
C0M690,水上,2022-01-13,23.4197,120.3889,0.0037896752
C0M700,竹崎,2022-01-13,23.5262,120.5555,0.032359023
C0M710,東石,2022-01-13,23.4589,120.1539,0.021936275
C0M720,番路,2022-01-13,23.4647,120.5542,0.029113514
C0M730,嘉義市東區,2022-01-13,23.4577,120.4605,0.00434185
C0M740,六腳,2022-01-13,23.4929,120.2906,0.02692588
C0M750,布袋,2022-01-13,23.3809,120.1678,0.030575542
C0M760,民雄,2022-01-13,23.5518,120.4285,0.004314993
C0M770,嘉義梅山,2022-01-13,23.5854,120.5556,0.0805859
C0M780,鹿草,2022-01-13,23.4113,120.3084,0.02584469
C0M790,新港,2022-01-13,23.5533,120.3457,0.021048924
C0M800,茶山,2022-01-13,23.2991,120.6648,0.11724713
C0M880,好美里,2022-01-13,23.3364,120.138,0.06644475
C0N010,鯤鯓國小,2022-01-13,23.1879,120.0889,0.039061543
C0N020,城西,2022-01-13,23.0568,120.0956,0.11759163
C0N030,四草,2022-01-13,23.0235,120.1116,0.19616775
C0N040,蘆竹溝,2022-01-13,23.2344,120.0961,0.039061543
C0N050,蚵寮,2022-01-13,23.301,120.1104,0.039061543
C0O810,曾文,2022-01-13,23.2197,120.4973,0.008457591
C0O830,北寮,2022-01-13,23.0796,120.495,0.12866919
C0O840,王爺宮,2022-01-13,23.2221,120.4009,0.008457591
C0O860,大內,2022-01-13,23.1188,120.3608,0.09531965
C0O900,善化,2022-01-13,23.1129,120.2972,0.091041066
C0O930,玉井,2022-01-13,23.126,120.4605,0.02058494
C0O950,安南,2022-01-13,23.0767,120.1449,0.12637992
C0O960,崎頂,2022-01-13,22.9595,120.3693,0.07609223
C0O970,虎頭埤,2022-01-13,23.0214,120.3479,0.07356687
C0O980,新市,2022-01-13,23.0616,120.2982,0.091041066
C0O990,媽廟,2022-01-13,22.9917,120.2935,0.13258867
C0R150,三地門,2022-01-13,22.7099,120.6399,0.5183642
C0R160,鹽埔,2022-01-13,22.7396,120.5308,0.33040264
C0R170,屏東,2022-01-13,22.6603,120.4941,0.5473174
C0R190,赤山,2022-01-13,22.5923,120.6143,0.26710021
C0R220,潮州,2022-01-13,22.5344,120.54,0.15383676
C0R240,來義,2022-01-13,22.5273,120.6251,0.06574386
C0R260,春日,2022-01-13,22.3704,120.6283,0.07812237
C0R270,琉球嶼,2022-01-13,22.3322,120.3622,0.07487204
C0R280,檳榔,2022-01-13,22.0761,120.8368,0.00077082415
C0R320,車城,2022-01-13,22.0744,120.7162,0.00090060366
C0R341,牡丹,2022-01-13,22.13,120.7926,0.03718367
C0R350,貓鼻頭,2022-01-13,21.9218,120.7358,0.00063167803
C0R470,高樹,2022-01-13,22.8264,120.6008,0.546311
C0R480,長治,2022-01-13,22.6931,120.5426,0.32837158
C0R490,九如,2022-01-13,22.7405,120.4905,0.5373959
C0R520,崁頂,2022-01-13,22.5148,120.5069,0.53614205
C0R540,佳冬,2022-01-13,22.4195,120.5524,0.5446972
C0R550,新埤,2022-01-13,22.4679,120.5829,0.27044076
C0R560,新園,2022-01-13,22.5434,120.4616,0.53614205
C0R570,麟洛,2022-01-13,22.6508,120.5272,0.5373959
C0R580,南州,2022-01-13,22.4859,120.5027,0.5446972
C0R590,里港,2022-01-13,22.7792,120.4946,0.3521808
C0R620,墾雷,2022-01-13,21.9008,120.8553,0.00063167803
C0R640,東港,2022-01-13,22.4625,120.4407,0.27537608
C0R650,竹田,2022-01-13,22.5849,120.5434,0.27253816
C0R660,枋寮,2022-01-13,22.3677,120.5906,0.1622567
C0R670,楓港,2022-01-13,22.1901,120.6922,0.106905565
C0R680,佳樂水,2022-01-13,21.9936,120.8616,0.000745126
C0R690,墾丁,2022-01-13,21.9668,120.8103,0.00085137045
C0R700,枋山,2022-01-13,22.2468,120.6611,0.106905565
C0R710,龍磐,2022-01-13,21.9317,120.8389,0.0003989725
C0R720,旭海,2022-01-13,22.2054,120.8876,0.020707795
C0R730,大坪頂,2022-01-13,22.0246,120.6936,0.0006445266
C0R740,獅子,2022-01-13,22.2016,120.7053,0.096093476
C0R760,南仁湖,2022-01-13,22.0847,120.8634,0.0019314665
C0R770,保力,2022-01-13,22.0711,120.7641,0.0004519687
C0R780,滿州,2022-01-13,22.0244,120.8399,0.0005950341
C0R790,九棚,2022-01-13,22.142,120.8893,0.027673008
C0R800,丹路,2022-01-13,22.2045,120.751,0.07057433
C0R810,內獅,2022-01-13,22.3051,120.643,0.09736375
C0R830,高士,2022-01-13,22.1218,120.8368,0.0014503394
C0R850,林邊,2022-01-13,22.4634,120.5339,0.53614205
C0R860,鼻頭,2022-01-13,22.1043,120.8979,0.0011213453
C0R870,興海,2022-01-13,21.9752,120.8439,0.000745126
C0R880,後壁湖,2022-01-13,21.9457,120.7457,0.0010162974
C0R890,山海,2022-01-13,21.9878,120.7091,0.00090060366
C0R900,竹坑,2022-01-13,22.1385,120.7022,0.08153252
C0R910,下寮,2022-01-13,22.3929,120.5548,0.5446972
C0R920,塭仔,2022-01-13,22.4169,120.5197,0.55316174
C0R930,萬丹,2022-01-13,22.5885,120.4851,0.27253816
C0R940,加祿堂,2022-01-13,22.3363,120.6217,0.09736385
C0S710,鹿野,2022-01-13,22.9177,121.123,0.07467378
C0S730,綠島,2022-01-13,22.6672,121.4753,0.4627352
C0S740,池上,2022-01-13,23.1196,121.2095,0.16058515
C0S770,大溪山,2022-01-13,22.4785,120.9433,0.019939836
C0S790,金崙,2022-01-13,22.5381,120.9669,0.07486648
C0S810,東河,2022-01-13,22.9727,121.304,0.36279616
C0S830,長濱,2022-01-13,23.2868,121.412,0.10678514
C0S840,南田,2022-01-13,22.2797,120.8892,0.11413396
C0S890,關山,2022-01-13,23.0395,121.175,0.26220536
C0S900,蘭嶼高中,2022-01-13,22.0491,121.5121,0.02393763
C0S910,蘭嶼燈塔,2022-01-13,22.0812,121.5031,0.0026451754
C0S920,金峰嘉蘭,2022-01-13,22.5948,120.9608,0.10294512
C0S930,延平,2022-01-13,22.9026,121.0841,0.2509907
C0S940,石寧山,2022-01-13,23.2238,121.4066,0.23067214
C0S950,七塊厝,2022-01-13,22.9545,121.2299,0.055386845
C0S960,香蘭,2022-01-13,22.5876,120.9934,0.12299923
C0S970,加津林,2022-01-13,22.4162,120.9269,0.16946055
C0S990,山豬窟,2022-01-13,22.3186,120.8574,0.0051129847
C0SA00,歷坵,2022-01-13,22.521,120.8919,0.011044008
C0SA10,檳榔四格山,2022-01-13,22.81,121.1093,0.011532095
C0SA30,都歷,2022-01-13,23.0203,121.3236,0.517468
C0SA40,瑞和,2022-01-13,22.9744,121.1567,0.29355747
C0SA60,知本（水試所）,2022-01-13,22.7024,121.0828,0.1418563
C0SA80,土,2022-01-13,22.4531,120.8876,0.09415043
C0SA90,達仁林場,2022-01-13,22.2643,120.824,0.0714455
C0T870,鯉魚潭,2022-01-13,23.9356,121.5089,0.4676129
C0T900,西林,2022-01-13,23.8119,121.4415,0.42666274
C0T960,光復,2022-01-13,23.6607,121.425,0.457337
C0T9A0,月眉山,2022-01-13,23.8099,121.5398,0.17158623
C0T9D0,和中,2022-01-13,24.2668,121.741,0.70417875
C0T9E0,大坑,2022-01-13,23.8806,121.582,0.27482474
C0T9F0,水璉,2022-01-13,23.7971,121.5425,0.3305987
C0T9I0,豐濱,2022-01-13,23.5839,121.5148,0.45300034
C0T9M0,靜浦,2022-01-13,23.4552,121.495,0.5330303
C0T9N0,富里,2022-01-13,23.1716,121.2494,0.052736495
C0U600,礁溪,2022-01-13,24.8175,121.7656,0.0027767867
C0U650,玉蘭,2022-01-13,24.6753,121.5871,0.01209357
C0U750,龜山島,2022-01-13,24.8417,121.9531,0.0027178482
C0U760,東澳,2022-01-13,24.522,121.8332,0.021534152
C0U770,南澳,2022-01-13,24.4493,121.8102,0.13401915
C0U780,五結,2022-01-13,24.6864,121.7979,0.0037712515
C0U860,頭城,2022-01-13,24.8532,121.8308,0.0028843374
C0U870,大礁溪,2022-01-13,24.791,121.675,0.0015904672
C0U880,北關,2022-01-13,24.9072,121.8734,0.0015174018
C0U890,三星,2022-01-13,24.6681,121.653,0.0019320843
C0U900,內城,2022-01-13,24.7181,121.6877,0.0024718812
C0U910,冬山,2022-01-13,24.6337,121.7937,0.0037712515
C0U940,羅東,2022-01-13,24.6818,121.7493,0.003608119
C0U970,大福,2022-01-13,24.8006,121.8139,0.0030121834
C0U990,員山,2022-01-13,24.7444,121.7225,0.003608119
C0UA00,土場,2022-01-13,24.5765,121.4953,0.0024681098
C0UA80,大溪漁港,2022-01-13,24.9418,121.903,0.0027767867
C0UA90,石城,2022-01-13,24.9804,121.9512,0.0019594177
C0UB00,淡江大學蘭陽校園,2022-01-13,24.8232,121.7304,0.0015933827
C0UB10,蘇澳,2022-01-13,24.5969,121.8571,0.046367493
C0UB20,壯圍,2022-01-13,24.7359,121.8163,0.003963842
C0V250,甲仙,2022-01-13,23.0801,120.5918,0.020841602
C0V260,月眉,2022-01-13,22.971,120.5399,0.17485471
C0V310,美濃,2022-01-13,22.8987,120.5192,0.3459243
C0V350,溪埔,2022-01-13,22.7386,120.4468,0.29020947
C0V360,內門,2022-01-13,22.9755,120.4668,0.17599384
C0V370,古亭坑,2022-01-13,22.8932,120.4019,0.15630463
C0V400,阿公店,2022-01-13,22.8042,120.3555,0.3344805
C0V440,鳳山,2022-01-13,22.6467,120.3561,0.23606132
C0V450,鳳森,2022-01-13,22.5451,120.3926,0.0413011
C0V490,新興,2022-01-13,22.6274,120.2988,0.26223308
C0V530,阿蓮,2022-01-13,22.8832,120.3275,0.22252105
C0V610,梓官,2022-01-13,22.7606,120.2672,0.17613378
C0V620,永安,2022-01-13,22.8231,120.2369,0.17388463
C0V630,茄萣,2022-01-13,22.9066,120.1826,0.20672931
C0V640,湖內,2022-01-13,22.8871,120.2445,0.19483499
C0V650,彌陀,2022-01-13,22.7838,120.2464,0.17388463
C0V660,岡山,2022-01-13,22.7971,120.295,0.17613378
C0V680,仁武,2022-01-13,22.7011,120.3477,0.10148927
C0V690,鼓山,2022-01-13,22.6233,120.2756,0.26223308
C0V700,三民,2022-01-13,22.645,120.3112,0.26223308
C0V710,苓雅,2022-01-13,22.6227,120.3307,0.26223308
C0V720,林園,2022-01-13,22.5077,120.3945,0.26223308
C0V730,大寮,2022-01-13,22.6056,120.3957,0.0516431
C0V740,旗山,2022-01-13,22.8886,120.4836,0.32503885
C0V750,路竹,2022-01-13,22.855,120.2594,0.22130933
C0V760,橋頭,2022-01-13,22.7578,120.3058,0.1645627
C0V770,大社,2022-01-13,22.7303,120.3466,0.10148927
C0V790,萬山,2022-01-13,22.9059,120.6881,0.10330732
C0V800,六龜,2022-01-13,22.9979,120.6336,0.44756168
C0V810,左營,2022-01-13,22.6749,120.2849,0.10955511
C0V820,小林,2022-01-13,23.1484,120.6333,0.0984167
C0V840,鳳鼻頭,2022-01-13,22.5083,120.3591,0.27537608
C0V850,蚵仔寮,2022-01-13,22.7256,120.2527,0.118063
C0V860,南寮,2022-01-13,22.7616,120.2339,0.18433474
C0V870,文安,2022-01-13,22.8025,120.2164,0.18433474
C0V880,興達,2022-01-13,22.8778,120.2127,0.20672931
C0V890,前鎮,2022-01-13,22.5718,120.3117,0.27537608
C0V900,汕尾,2022-01-13,22.4782,120.4151,0.5992545
C0X050,東河,2022-01-13,23.2966,120.3856,0.02476606
C0X060,下營,2022-01-13,23.2269,120.2563,0.056963217
C0X080,佳里,2022-01-13,23.173,120.1451,0.06644475
C0X100,臺南市北區,2022-01-13,23.0104,120.1942,0.17560144
C0X110,臺南市南區,2022-01-13,22.9612,120.1884,0.16336323
C0X120,麻豆,2022-01-13,23.1833,120.2486,0.061104286
C0X130,官田,2022-01-13,23.1932,120.3154,0.04952178
C0X140,西港,2022-01-13,23.1256,120.2031,0.08391826
C0X150,安定,2022-01-13,23.1026,120.2278,0.09398152
C0X160,仁德,2022-01-13,22.9683,120.2577,0.14203472
C0X170,關廟,2022-01-13,22.963,120.3278,0.107246906
C0X180,山上,2022-01-13,23.0757,120.3633,0.046362508
C0X190,安平,2022-01-13,22.9932,120.1522,0.17560144
C0X200,左鎮,2022-01-13,23.0568,120.4085,0.04973017
C0X210,白河,2022-01-13,23.3475,120.4144,0.021072961
C0X220,學甲,2022-01-13,23.2304,120.1822,0.061104286
C0X230,鹽水,2022-01-13,23.2726,120.2476,0.063828126
C0X240,關子嶺,2022-01-13,23.3312,120.508,0.009060593
C0X250,新營,2022-01-13,23.3107,120.3167,0.05615346
C0X260,後壁,2022-01-13,23.3664,120.3623,0.03753311
C0X280,將軍,2022-01-13,23.215,120.1358,0.06644475
C0X290,北門,2022-01-13,23.2678,120.1255,0.06644475
C0X300,鹿寮,2022-01-13,23.386,120.4773,0.08138899
C0X310,七股,2022-01-13,23.1473,120.0863,0.07636344
C0X320,柳營,2022-01-13,23.2533,120.3753,0.022839222
C0Z020,明里,2022-01-13,23.2087,121.2623,0.1358427
C0Z061,玉里,2022-01-13,23.3215,121.3397,0.23732966
C0Z070,舞鶴,2022-01-13,23.4681,121.3741,0.39273953
C0Z080,富源,2022-01-13,23.5876,121.3782,0.3939387
C0Z100,東華,2022-01-13,23.8953,121.5498,0.59959936
C0Z150,吉安光華,2022-01-13,23.9309,121.5952,0.6280188
C0Z160,鳳林,2022-01-13,23.7461,121.4534,0.47668284
C0Z170,卓溪,2022-01-13,23.3443,121.3029,0.20576537
C0Z180,新城,2022-01-13,24.0395,121.6045,0.44287124
C0Z190,富世,2022-01-13,24.1474,121.6297,0.30851912
C0Z200,萬榮,2022-01-13,23.7092,121.4201,0.4676129
C0Z210,瑞穗,2022-01-13,23.5239,121.3902,0.48306528
C0Z230,和平,2022-01-13,24.3072,121.7701,0.70417875
C0Z270,蕃薯寮,2022-01-13,23.7384,121.5401,0.47680157
C0Z280,德武,2022-01-13,23.4743,121.4107,0.46085295
C0Z300,東里,2022-01-13,23.2685,121.3055,0.22149804
C0Z310,清水斷崖,2022-01-13,24.2183,121.6891,0.54894596
C0Z330,安通山,2022-01-13,23.2907,121.3485,0.07400799
