站號,站名,日期,lat,lon,BlastGRU-TW
466881,新北,2022-03-08,24.9593,121.52,0.0028034092
466900,淡水,2022-03-08,25.164889,121.448906,0.0028102815
466920,臺北,2022-03-08,25.037658,121.514853,0.002976504
466940,基隆,2022-03-08,25.133314,121.740475,0.0046632527
466990,花蓮,2022-03-08,23.975128,121.613275,0.59507906
467050,新屋,2022-03-08,25.006744,121.047486,0.0059495517
467080,宜蘭,2022-03-08,24.763975,121.756528,0.005948012
467270,田中,2022-03-08,23.873803,120.581286,0.019255608
467300,東吉島,2022-03-08,23.25695,119.667467,0.0002614195
467350,澎湖,2022-03-08,23.565503,119.563094,0.00040462092
467410,臺南,2022-03-08,22.993239,120.204772,0.078447506
467420,永康,2022-03-08,23.038386,120.2367,0.0825739
467441,高雄,2022-03-08,22.7304,120.3125,0.058394995
467480,嘉義,2022-03-08,23.495925,120.432906,0.007900618
467490,臺中,2022-03-08,24.145736,120.684075,0.0047219507
467540,大武,2022-03-08,22.355675,120.903789,0.64161086
467571,新竹,2022-03-08,24.827853,121.014219,0.0029883264
467590,恆春,2022-03-08,22.003897,120.746339,0.002759799
467610,成功,2022-03-08,23.097486,121.373428,0.37876981
467620,蘭嶼,2022-03-08,22.036969,121.558339,0.0027027733
467660,臺東,2022-03-08,22.752211,121.154586,0.13333721
467790,墾丁雷達站,2022-03-08,21.948235,120.808028,0.0025898314
C0A520,山佳,2022-03-08,24.974944,121.402008,0.0027270657
C0A530,坪林,2022-03-08,24.938183,121.70975,0.0034051763
C0A540,四堵,2022-03-08,24.8926,121.745736,0.006919414
C0A550,泰平,2022-03-08,24.971197,121.823711,0.002453677
C0A560,福山,2022-03-08,24.776203,121.502811,0.0037998038
C0A570,桶後,2022-03-08,24.848222,121.597992,0.007473199
C0A640,石碇,2022-03-08,24.993969,121.662917,0.0039174855
C0A650,火燒寮,2022-03-08,25.002719,121.742892,0.0033347763
C0A660,瑞芳,2022-03-08,25.113169,121.801147,0.0058182934
C0A770,科教館,2022-03-08,25.096356,121.516507,0.002962585
C0A860,大坪,2022-03-08,25.165914,121.632969,0.004041293
C0A880,福隆,2022-03-08,25.017842,121.942083,0.008454025
C0A890,雙溪,2022-03-08,25.036003,121.864242,0.004092187
C0A920,富貴角,2022-03-08,25.263783,121.565258,0.0023866019
C0A931,三和,2022-03-08,25.233153,121.595236,0.0036711295
C0A940,金山,2022-03-08,25.223628,121.643967,0.0025906393
C0A950,鼻頭角,2022-03-08,25.129036,121.923372,0.008824875
C0A970,三貂角,2022-03-08,25.007606,122.002058,0.0069667078
C0A980,社子,2022-03-08,25.109508,121.469681,0.003040108
C0A9C0,天母,2022-03-08,25.117494,121.537169,0.002805934
C0A9F0,內湖,2022-03-08,25.079422,121.57545,0.002976504
C0AC60,三峽,2022-03-08,24.939025,121.369728,0.0027134859
C0AC70,信義,2022-03-08,25.037822,121.564597,0.002976504
C0AC80,文山,2022-03-08,25.00235,121.575728,0.0025595292
C0ACA0,新莊,2022-03-08,25.051478,121.446756,0.0028935843
C0AD00,三芝,2022-03-08,25.258131,121.501917,0.0023753718
C0AD10,八里,2022-03-08,25.150211,121.403947,0.0028102787
C0AD30,蘆洲,2022-03-08,25.086594,121.472331,0.002962585
C0AD40,土城,2022-03-08,24.973208,121.445169,0.0028785313
C0AD50,鶯歌,2022-03-08,24.951533,121.346294,0.0025495223
C0AG80,中和,2022-03-08,24.991622,121.491792,0.002976504
C0AH00,汐止,2022-03-08,25.066881,121.658778,0.004539248
C0AH10,永和,2022-03-08,25.01125,121.508111,0.0030591022
C0AH40,平等,2022-03-08,25.129142,121.577086,0.0049951957
C0AH50,林口,2022-03-08,25.072181,121.38084,0.0063773673
C0AH70,松山,2022-03-08,25.04871,121.55042,0.002976504
C0AH80,深坑,2022-03-08,25.002703,121.628328,0.0025595292
C0AI00,五股,2022-03-08,25.07445,121.42728,0.001998926
C0AI10,屈尺,2022-03-08,24.92184,121.54475,0.0025595292
C0AI20,白沙灣,2022-03-08,25.283128,121.519058,0.0027042108
C0AI30,三重,2022-03-08,25.057328,121.500629,0.0029625823
C0AI40,石牌,2022-03-08,25.115597,121.513139,0.0028785313
C0AJ20,野柳,2022-03-08,25.20703,121.690021,0.004539248
C0AJ30,淡水觀海,2022-03-08,25.184591,121.408616,0.0028815125
C0AJ40,石門,2022-03-08,25.273672,121.601198,0.0019109434
C0AJ50,水湳洞,2022-03-08,25.123695,121.862238,0.004539248
C0AJ60,六塊厝,2022-03-08,25.24,121.4481,0.0028815125
C0AJ70,田寮,2022-03-08,25.2698,121.4886,0.0027598226
C0AJ80,板橋,2022-03-08,25.0107,121.4489,0.0028785313
C0AJ90,澳底,2022-03-08,25.0552,121.9253,0.008454009
C0B010,七堵,2022-03-08,25.094819,121.71713,0.004310165
C0B020,基隆嶼,2022-03-08,25.19141,121.78391,0.004539248
C0B040,大武崙,2022-03-08,25.166676,121.706993,0.004310165
C0B050,八斗子,2022-03-08,25.144754,121.79167,0.0047802874
C0B060,暖暖,2022-03-08,25.0957,121.7403,0.0037892933
C0C460,復興,2022-03-08,24.820208,121.352281,0.005293929
C0C480,桃園,2022-03-08,24.992425,121.323172,0.0025256614
C0C490,八德,2022-03-08,24.928708,121.283289,0.0034502873
C0C590,觀音,2022-03-08,25.027072,121.153317,0.002398258
C0C620,蘆竹,2022-03-08,25.084275,121.265767,0.0026841012
C0C630,大溪,2022-03-08,24.882853,121.265547,0.0029053742
C0C650,平鎮,2022-03-08,24.897503,121.214636,0.002099526
C0C660,楊梅,2022-03-08,24.912375,121.143047,0.001954092
C0C670,龍潭,2022-03-08,24.870056,121.221389,0.0017386284
C0C680,龜山,2022-03-08,25.02846,121.38656,0.009112738
C0C700,中壢,2022-03-08,24.977661,121.256375,0.0023413817
C0C710,大溪永福,2022-03-08,24.892936,121.324975,0.0021835694
C0C720,竹圍,2022-03-08,25.112692,121.239824,0.0028102787
C0C730,中大臨海站,2022-03-08,24.966126,121.008581,0.0063077533
C0C740,觀音工業區,2022-03-08,25.064764,121.114856,0.0023213318
C0C750,新興坑尾,2022-03-08,25.0061,121.0971,0.001958753
C0D430,峨眉,2022-03-08,24.6905,121.017189,0.0035283421
C0D480,打鐵坑,2022-03-08,24.849664,121.150789,0.002341482
C0D540,橫山,2022-03-08,24.71116,121.11693,0.002181585
C0D560,竹東,2022-03-08,24.767147,121.057881,0.0032884672
C0D580,寶山,2022-03-08,24.735006,121.025192,0.002759455
C0D590,新豐,2022-03-08,24.87068,120.97721,0.0045171757
C0D650,湖口,2022-03-08,24.904794,121.043628,0.005233703
C0D660,新竹市東區,2022-03-08,24.798681,120.986942,0.0028450112
C0D670,海天一線,2022-03-08,24.831986,120.914438,0.003089366
C0D680,香山濕地,2022-03-08,24.783581,120.914988,0.0030234351
C0D690,外湖,2022-03-08,24.917735,120.968711,0.0063077533
C0D700,關西,2022-03-08,24.7977,121.1732,0.0025226285
C0E420,竹南,2022-03-08,24.708978,120.888897,0.002808012
C0E430,南庄,2022-03-08,24.601775,121.000214,0.0025512436
C0E520,大湖,2022-03-08,24.41494,120.87087,0.0025030763
C0E540,後龍,2022-03-08,24.606489,120.783933,0.0030719612
C0E550,明德,2022-03-08,24.583486,120.885411,0.0027359426
C0E590,通霄,2022-03-08,24.471892,120.704622,0.0031680444
C0E730,頭份,2022-03-08,24.688247,120.912206,0.002808012
C0E740,造橋,2022-03-08,24.637056,120.864778,0.00306791
C0E750,苗栗,2022-03-08,24.564569,120.824575,0.0028539072
C0E780,銅鑼,2022-03-08,24.489681,120.790853,0.0036453062
C0E791,卓蘭,2022-03-08,24.3126,120.8244,0.012395396
C0E810,西湖,2022-03-08,24.562947,120.7485,0.0029398536
C0E820,獅潭,2022-03-08,24.539133,120.920042,0.003250305
C0E830,苑裡,2022-03-08,24.439714,120.653053,0.0033720501
C0E850,大河,2022-03-08,24.618069,120.948578,0.0026167834
C0E870,高鐵苗栗,2022-03-08,24.60725,120.826094,0.0030274075
C0E910,海埔,2022-03-08,24.648767,120.772435,0.0033162958
C0E920,通霄漁港,2022-03-08,24.498589,120.673876,0.0033912882
C0E930,龍鳳,2022-03-08,24.700034,120.859125,0.0032542308
C0F0B0,石岡,2022-03-08,24.276061,120.777644,0.032584567
C0F850,東勢,2022-03-08,24.246428,120.833047,0.013946075
C0F930,大甲,2022-03-08,24.347667,120.640403,0.003394768
C0F970,大坑,2022-03-08,24.173142,120.722289,0.0041040936
C0F9A0,中竹林,2022-03-08,24.103556,120.751061,0.03130693
C0F9I0,神岡,2022-03-08,24.272481,120.658314,0.0034105028
C0F9K0,大安,2022-03-08,24.345061,120.588025,0.003968127
C0F9L0,后里,2022-03-08,24.310436,120.729725,0.002802391
C0F9M0,豐原,2022-03-08,24.254322,120.720692,0.003093794
C0F9N0,大里,2022-03-08,24.092464,120.701378,0.0040296274
C0F9O0,潭子,2022-03-08,24.213106,120.703933,0.0041086515
C0F9P0,清水,2022-03-08,24.312297,120.562242,0.0041045523
C0F9Q0,外埔,2022-03-08,24.347817,120.705686,0.0038504975
C0F9R0,龍井,2022-03-08,24.184536,120.528972,0.003828535
C0F9S0,烏日,2022-03-08,24.107058,120.624103,0.009976282
C0F9T0,西屯,2022-03-08,24.179494,120.641275,0.0035590136
C0F9U0,南屯,2022-03-08,24.137006,120.637969,0.0040296274
C0F9X0,大雅(中科園區),2022-03-08,24.21528,120.62445,0.0031527532
C0FA10,松柏,2022-03-08,24.429115,120.617482,0.0035292828
C0FA20,溫寮,2022-03-08,24.372177,120.583125,0.0035292828
C0FA30,梧棲,2022-03-08,24.256003,120.523381,0.003828535
C0FA40,臺中電廠,2022-03-08,24.2146,120.4907,0.003828535
C0FA50,霧峰,2022-03-08,24.0419,120.6995,0.0042875707
C0G620,芬園,2022-03-08,24.015678,120.6213,0.009004297
C0G640,鹿港,2022-03-08,24.0753,120.430481,0.008776768
C0G650,員林,2022-03-08,23.946503,120.585597,0.012292494
C0G660,溪湖,2022-03-08,23.94835,120.479122,0.010163367
C0G720,溪州,2022-03-08,23.851589,120.499093,0.013824354
C0G730,二林,2022-03-08,23.903325,120.376081,0.009367529
C0G740,大城,2022-03-08,23.852487,120.320935,0.004359933
C0G770,福興,2022-03-08,24.041289,120.437669,0.008776768
C0G780,秀水,2022-03-08,24.03405,120.503869,0.009858812
C0G800,埔鹽,2022-03-08,24.000394,120.431683,0.008776768
C0G810,埔心,2022-03-08,23.947633,120.525456,0.009960174
C0G820,田尾,2022-03-08,23.901669,120.509389,0.009739222
C0G830,埤頭,2022-03-08,23.866003,120.452806,0.014833872
C0G840,北斗,2022-03-08,23.877586,120.514222,0.009739217
C0G860,社頭,2022-03-08,23.897647,120.5862,0.012017226
C0G870,芳苑,2022-03-08,23.922303,120.320025,0.0044337823
C0G880,二水,2022-03-08,23.810742,120.6173,0.02080381
C0G890,伸港,2022-03-08,24.148933,120.484403,0.0039067008
C0G900,線西,2022-03-08,24.143358,120.443536,0.0038209772
C0G910,花壇,2022-03-08,24.032076,120.549461,0.009447128
C0G920,永靖,2022-03-08,23.924703,120.547533,0.009739217
C0G940,竹塘,2022-03-08,23.848253,120.386764,0.015414055
C0G950,防潮門,2022-03-08,24.1835,120.4871,0.0038874925
C0G960,福寶,2022-03-08,24.0443,120.3814,0.0089419475
C0G970,三豐,2022-03-08,23.882,120.2895,0.0044337823
C0H890,埔里,2022-03-08,23.972169,120.952425,0.0816482
C0H950,中寮,2022-03-08,23.884447,120.766406,0.014072999
C0H960,草屯,2022-03-08,23.973672,120.68085,0.018787472
C0I110,竹山,2022-03-08,23.761225,120.688156,0.016749093
C0I360,水里,2022-03-08,23.812553,120.849792,0.02258627
C0I380,集集,2022-03-08,23.828206,120.801467,0.024426226
C0I410,名間,2022-03-08,23.837053,120.701447,0.028669303
C0I420,國姓,2022-03-08,24.037803,120.855072,0.05784483
C0I460,南投,2022-03-08,23.911469,120.687331,0.021548571
C0K250,崙背,2022-03-08,23.75555,120.318925,0.005130885
C0K280,四湖,2022-03-08,23.630414,120.227125,0.005440121
C0K291,宜梧,2022-03-08,23.536281,120.169329,0.016747436
C0K330,虎尾,2022-03-08,23.719183,120.442036,0.017089307
C0K390,土庫,2022-03-08,23.679029,120.395574,0.017691834
C0K400,斗六,2022-03-08,23.720583,120.541127,0.023595652
C0K410,北港,2022-03-08,23.573957,120.292802,0.01552248
C0K420,西螺,2022-03-08,23.800407,120.467394,0.016277125
C0K430,褒忠,2022-03-08,23.690938,120.303634,0.0062269852
C0K440,二崙,2022-03-08,23.772797,120.408944,0.014924559
C0K450,大埤,2022-03-08,23.646074,120.431537,0.021680228
C0K460,斗南,2022-03-08,23.678734,120.478359,0.025449185
C0K470,林內,2022-03-08,23.748675,120.609642,0.028049408
C0K480,莿桐,2022-03-08,23.761192,120.502372,0.015737507
C0K500,元長,2022-03-08,23.64981,120.315024,0.0065631396
C0K510,水林,2022-03-08,23.572924,120.24597,0.0133677265
C0K530,臺西,2022-03-08,23.701547,120.197559,0.0049959044
C0K550,蔦松,2022-03-08,23.514319,120.229736,0.016315077
C0K560,棋山,2022-03-08,23.68645,120.603417,0.03627083
C0K580,高鐵雲林,2022-03-08,23.737456,120.417944,0.017691834
C0K590,雲林東勢,2022-03-08,23.674192,120.255721,0.0062269852
C0K600,箔子寮,2022-03-08,23.6197,120.14,0.013694314
C0M410,馬頭山,2022-03-08,23.324361,120.582017,0.03663057
C0M520,東後寮,2022-03-08,23.369908,120.248065,0.027906636
C0M640,中埔,2022-03-08,23.42538,120.5229,0.03766789
C0M650,朴子,2022-03-08,23.43463,120.23902,0.018155104
C0M660,溪口,2022-03-08,23.604131,120.403569,0.0077058207
C0M670,大林,2022-03-08,23.600616,120.45841,0.011280918
C0M680,太保,2022-03-08,23.455062,120.331455,0.017123764
C0M690,水上,2022-03-08,23.419734,120.388909,0.009563088
C0M700,竹崎,2022-03-08,23.526178,120.555508,0.02540813
C0M710,東石,2022-03-08,23.458927,120.15385,0.016315077
C0M720,番路,2022-03-08,23.464657,120.554156,0.025647396
C0M730,嘉義市東區,2022-03-08,23.457673,120.460531,0.014929172
C0M740,六腳,2022-03-08,23.492871,120.290625,0.017554246
C0M750,布袋,2022-03-08,23.380878,120.167789,0.018155104
C0M760,民雄,2022-03-08,23.551754,120.428457,0.0073538525
C0M770,嘉義梅山,2022-03-08,23.585398,120.555587,0.029506406
C0M780,鹿草,2022-03-08,23.41134,120.30835,0.017455475
C0M790,新港,2022-03-08,23.553269,120.345728,0.015153691
C0M800,茶山,2022-03-08,23.299075,120.664767,0.17579116
C0M880,好美里,2022-03-08,23.3364,120.138,0.042839553
C0N010,鯤鯓國小,2022-03-08,23.1879,120.0889,0.02355312
C0N020,城西,2022-03-08,23.0568,120.0956,0.07136082
C0N030,四草,2022-03-08,23.0235,120.1116,0.09708791
C0N040,蘆竹溝,2022-03-08,23.2344,120.0961,0.02355312
C0N050,蚵寮,2022-03-08,23.301,120.1104,0.02355312
C0O810,曾文,2022-03-08,23.219681,120.497328,0.014099681
C0O830,北寮,2022-03-08,23.079561,120.495008,0.04716308
C0O840,王爺宮,2022-03-08,23.222064,120.40085,0.014099681
C0O860,大內,2022-03-08,23.11885,120.36083,0.036814135
C0O900,善化,2022-03-08,23.112883,120.297219,0.04172651
C0O930,玉井,2022-03-08,23.126042,120.46055,0.020292671
C0O950,安南,2022-03-08,23.076694,120.144861,0.08463046
C0O960,崎頂,2022-03-08,22.959547,120.369317,0.016279178
C0O970,虎頭埤,2022-03-08,23.021375,120.347878,0.036771182
C0O980,新市,2022-03-08,23.061614,120.298197,0.04172651
C0O990,媽廟,2022-03-08,22.99175,120.293525,0.0511914
C0R150,三地門,2022-03-08,22.709889,120.639944,0.04702823
C0R160,鹽埔,2022-03-08,22.739558,120.530778,0.011341378
C0R170,屏東,2022-03-08,22.660269,120.494072,0.08626719
C0R190,赤山,2022-03-08,22.592333,120.614306,0.01162822
C0R220,潮州,2022-03-08,22.534361,120.54,0.013283553
C0R240,來義,2022-03-08,22.527306,120.625111,0.036702234
C0R260,春日,2022-03-08,22.370361,120.628306,0.048483208
C0R270,琉球嶼,2022-03-08,22.332244,120.362236,0.04520673
C0R280,檳榔,2022-03-08,22.076078,120.836777,0.001875957
C0R320,車城,2022-03-08,22.0744,120.716247,0.0029796385
C0R341,牡丹,2022-03-08,22.130036,120.792639,0.14686428
C0R350,貓鼻頭,2022-03-08,21.921774,120.7358,0.0026965032
C0R470,高樹,2022-03-08,22.826389,120.600806,0.053618018
C0R480,長治,2022-03-08,22.693128,120.542622,0.010808172
C0R490,九如,2022-03-08,22.7405,120.490503,0.08135812
C0R520,崁頂,2022-03-08,22.514781,120.506914,0.11066255
C0R540,佳冬,2022-03-08,22.419456,120.552375,0.11702035
C0R550,新埤,2022-03-08,22.467947,120.582894,0.012379179
C0R560,新園,2022-03-08,22.5434,120.461558,0.11066255
C0R570,麟洛,2022-03-08,22.65078,120.52719,0.08135812
C0R580,南州,2022-03-08,22.48591,120.50274,0.11702035
C0R590,里港,2022-03-08,22.77919,120.49459,0.011179222
C0R620,墾雷,2022-03-08,21.900836,120.855269,0.0026965032
C0R640,東港,2022-03-08,22.46247,120.44074,0.0762488
C0R650,竹田,2022-03-08,22.58486,120.54344,0.013251342
C0R660,枋寮,2022-03-08,22.367722,120.590647,0.015542372
C0R670,楓港,2022-03-08,22.190131,120.692156,0.25195602
C0R680,佳樂水,2022-03-08,21.993578,120.861633,0.0028177237
C0R690,墾丁,2022-03-08,21.966756,120.810269,0.0018175832
C0R700,枋山,2022-03-08,22.246844,120.661086,0.25195602
C0R710,龍磐,2022-03-08,21.931672,120.838942,0.0023050462
C0R720,旭海,2022-03-08,22.205403,120.887614,0.03853914
C0R730,大坪頂,2022-03-08,22.024633,120.69355,0.0021736266
C0R740,獅子,2022-03-08,22.201569,120.70525,0.21391103
C0R760,南仁湖,2022-03-08,22.084681,120.863353,0.0012567717
C0R770,保力,2022-03-08,22.071122,120.764111,0.0024559526
C0R780,滿州,2022-03-08,22.024403,120.839892,0.0026458409
C0R790,九棚,2022-03-08,22.14195,120.889281,0.056928676
C0R800,丹路,2022-03-08,22.204481,120.750989,0.14460483
C0R810,內獅,2022-03-08,22.305064,120.642986,0.07274314
C0R830,高士,2022-03-08,22.121825,120.836781,0.0009751186
C0R850,林邊,2022-03-08,22.4634,120.5339,0.11066255
C0R860,鼻頭,2022-03-08,22.1043,120.8979,0.0025432827
C0R870,興海,2022-03-08,21.9752,120.8439,0.0028177237
C0R880,後壁湖,2022-03-08,21.9457,120.7457,0.0030639905
C0R890,山海,2022-03-08,21.9878,120.7091,0.0029796385
C0R900,竹坑,2022-03-08,22.1385,120.7022,0.3867814
C0R910,下寮,2022-03-08,22.3929,120.5548,0.11702027
C0R920,塭仔,2022-03-08,22.4169,120.5197,0.12452852
C0R930,萬丹,2022-03-08,22.5885,120.4851,0.013251342
C0R940,加祿堂,2022-03-08,22.3363,120.6217,0.07274314
C0S710,鹿野,2022-03-08,22.917711,121.122994,0.01497535
C0S730,綠島,2022-03-08,22.6672,121.47533,0.22307152
C0S740,池上,2022-03-08,23.119628,121.209469,0.0317312
C0S770,大溪山,2022-03-08,22.478475,120.943325,0.021102082
C0S790,金崙,2022-03-08,22.538122,120.966875,0.15921153
C0S810,東河,2022-03-08,22.972672,121.303986,0.10268319
C0S830,長濱,2022-03-08,23.286817,121.411975,0.0155879725
C0S840,南田,2022-03-08,22.279725,120.889208,0.35889423
C0S890,關山,2022-03-08,23.0395,121.175017,0.07821139
C0S900,蘭嶼高中,2022-03-08,22.04909,121.51214,0.020509567
C0S910,蘭嶼燈塔,2022-03-08,22.081197,121.503117,0.007281287
C0S920,金峰嘉蘭,2022-03-08,22.594789,120.960825,0.45650956
C0S930,延平,2022-03-08,22.902581,121.084058,0.03112708
C0S940,石寧山,2022-03-08,23.223772,121.406639,0.044542752
C0S950,七塊厝,2022-03-08,22.954453,121.229922,0.012276317
C0S960,香蘭,2022-03-08,22.587569,120.993375,0.6293561
C0S970,加津林,2022-03-08,22.416211,120.926942,0.5993611
C0S990,山豬窟,2022-03-08,22.318619,120.857372,0.012411032
C0SA00,歷坵,2022-03-08,22.520969,120.89185,0.010791743
C0SA10,檳榔四格山,2022-03-08,22.810031,121.109308,0.0062948572
C0SA30,都歷,2022-03-08,23.020333,121.323642,0.2681655
C0SA40,瑞和,2022-03-08,22.974361,121.156697,0.09919252
C0SA60,知本（水試所）,2022-03-08,22.702394,121.082761,0.32122388
C0SA80,土坂,2022-03-08,22.453108,120.887572,0.3453171
C0SA90,達仁林場,2022-03-08,22.264347,120.823972,0.032077488
C0T870,鯉魚潭,2022-03-08,23.935639,121.508944,0.7218936
C0T900,西林,2022-03-08,23.8119,121.441458,0.67075866
C0T960,光復,2022-03-08,23.660694,121.424964,0.66566354
C0T9A0,月眉山,2022-03-08,23.809928,121.539828,0.19170491
C0T9D0,和中,2022-03-08,24.26676,121.74103,0.29245967
C0T9E0,大坑,2022-03-08,23.880628,121.581981,0.30658755
C0T9F0,水璉,2022-03-08,23.797131,121.542514,0.5190804
C0T9I0,豐濱,2022-03-08,23.583897,121.514806,0.72185135
C0T9M0,靜浦,2022-03-08,23.455167,121.495028,0.7970683
C0T9N0,富里,2022-03-08,23.171639,121.249378,0.0146744
C0U600,礁溪,2022-03-08,24.817539,121.765608,0.0057167416
C0U650,玉蘭,2022-03-08,24.675286,121.587061,0.013305964
C0U750,龜山島,2022-03-08,24.841667,121.953133,0.0067585544
C0U760,東澳,2022-03-08,24.52196,121.83318,0.011310879
C0U770,南澳,2022-03-08,24.44935,121.81022,0.055100806
C0U780,五結,2022-03-08,24.68637,121.79794,0.020775348
C0U860,頭城,2022-03-08,24.85323,121.8308,0.005948012
C0U870,大礁溪,2022-03-08,24.791042,121.675047,0.0030047758
C0U880,北關,2022-03-08,24.9072,121.8734,0.0035496224
C0U890,三星,2022-03-08,24.66812,121.65302,0.003983339
C0U900,內城,2022-03-08,24.71813,121.68766,0.0050710095
C0U910,冬山,2022-03-08,24.63373,121.7937,0.020775348
C0U940,羅東,2022-03-08,24.68184,121.74934,0.019923555
C0U970,大福,2022-03-08,24.80064,121.81389,0.006216798
C0U990,員山,2022-03-08,24.74435,121.72247,0.019923555
C0UA00,土場,2022-03-08,24.576533,121.495333,0.0039231908
C0UA80,大溪漁港,2022-03-08,24.941801,121.902955,0.0057167416
C0UA90,石城,2022-03-08,24.980444,121.951214,0.009367043
C0UB00,淡江大學蘭陽校園,2022-03-08,24.823239,121.730383,0.0033088732
C0UB10,蘇澳,2022-03-08,24.5969,121.8571,0.07767106
C0UB20,壯圍,2022-03-08,24.7359,121.8163,0.021737406
C0V250,甲仙,2022-03-08,23.080106,120.591758,0.04701692
C0V260,月眉,2022-03-08,22.971003,120.539853,0.049380045
C0V310,美濃,2022-03-08,22.898742,120.519153,0.117457636
C0V350,溪埔,2022-03-08,22.738578,120.446797,0.04905008
C0V360,內門,2022-03-08,22.975481,120.466769,0.07963118
C0V370,古亭坑,2022-03-08,22.893178,120.401947,0.048040926
C0V400,阿公店,2022-03-08,22.804194,120.355528,0.039847698
C0V440,鳳山,2022-03-08,22.646653,120.356122,0.06418046
C0V450,鳳森,2022-03-08,22.545064,120.392592,0.0051861936
C0V490,新興,2022-03-08,22.627422,120.298803,0.07239044
C0V530,阿蓮,2022-03-08,22.883208,120.327508,0.07203347
C0V610,梓官,2022-03-08,22.760558,120.267211,0.04124722
C0V620,永安,2022-03-08,22.82315,120.236856,0.04002547
C0V630,茄萣,2022-03-08,22.906642,120.182608,0.117818944
C0V640,湖內,2022-03-08,22.887139,120.2445,0.11135397
C0V650,彌陀,2022-03-08,22.783806,120.246361,0.04002547
C0V660,岡山,2022-03-08,22.797078,120.294958,0.04124722
C0V680,仁武,2022-03-08,22.701083,120.347722,0.05483028
C0V690,鼓山,2022-03-08,22.623325,120.275575,0.07239044
C0V700,三民,2022-03-08,22.645017,120.311233,0.07239044
C0V710,苓雅,2022-03-08,22.622742,120.330669,0.07239044
C0V720,林園,2022-03-08,22.507747,120.394511,0.07239044
C0V730,大寮,2022-03-08,22.605614,120.395717,0.0074156215
C0V740,旗山,2022-03-08,22.888614,120.483597,0.11180347
C0V750,路竹,2022-03-08,22.854997,120.259439,0.029055655
C0V760,橋頭,2022-03-08,22.757806,120.30575,0.038858905
C0V770,大社,2022-03-08,22.730306,120.346639,0.05483028
C0V790,萬山,2022-03-08,22.905944,120.688056,0.15626624
C0V800,六龜,2022-03-08,22.997889,120.633583,0.1302629
C0V810,左營,2022-03-08,22.67491,120.28491,0.058394995
C0V820,小林,2022-03-08,23.148408,120.63325,0.15336058
C0V840,鳳鼻頭,2022-03-08,22.5083,120.3591,0.0762488
C0V850,蚵仔寮,2022-03-08,22.7256,120.2527,0.06176086
C0V860,南寮,2022-03-08,22.7616,120.2339,0.04225276
C0V870,文安,2022-03-08,22.8025,120.2164,0.04225276
C0V880,興達,2022-03-08,22.8778,120.2127,0.117818944
C0V890,前鎮,2022-03-08,22.5718,120.3117,0.07624894
C0V900,汕尾,2022-03-08,22.4782,120.4151,0.11135726
C0X050,東河,2022-03-08,23.296598,120.385608,0.02251111
C0X060,下營,2022-03-08,23.22695,120.256261,0.03222878
C0X080,佳里,2022-03-08,23.173039,120.145086,0.042839535
C0X100,臺南市北區,2022-03-08,23.010394,120.194228,0.087660015
C0X110,臺南市南區,2022-03-08,22.961189,120.188378,0.0825739
C0X120,麻豆,2022-03-08,23.183289,120.248611,0.04120176
C0X130,官田,2022-03-08,23.193217,120.315422,0.02994665
C0X140,西港,2022-03-08,23.125608,120.203108,0.054391876
C0X150,安定,2022-03-08,23.102614,120.227839,0.06357995
C0X160,仁德,2022-03-08,22.968258,120.257689,0.053853072
C0X170,關廟,2022-03-08,22.963017,120.327797,0.04442196
C0X180,山上,2022-03-08,23.0757,120.363253,0.030146714
C0X190,安平,2022-03-08,22.993161,120.152181,0.087660015
C0X200,左鎮,2022-03-08,23.056758,120.408522,0.031206165
C0X210,白河,2022-03-08,23.347466,120.414427,0.02184464
C0X220,學甲,2022-03-08,23.230367,120.182187,0.04120176
C0X230,鹽水,2022-03-08,23.272621,120.247641,0.033633526
C0X240,關子嶺,2022-03-08,23.331169,120.508025,0.029676957
C0X250,新營,2022-03-08,23.310689,120.316681,0.026933664
C0X260,後壁,2022-03-08,23.366358,120.362326,0.02900285
C0X280,將軍,2022-03-08,23.214999,120.13577,0.042839535
C0X290,北門,2022-03-08,23.267772,120.125481,0.042839535
C0X300,鹿寮,2022-03-08,23.386047,120.477331,0.024927605
C0X310,七股,2022-03-08,23.147289,120.086253,0.03763879
C0X320,柳營,2022-03-08,23.253328,120.375253,0.02251111
C0Z020,明里,2022-03-08,23.208717,121.262342,0.020401629
C0Z061,玉里,2022-03-08,23.3215,121.339656,0.060299627
C0Z070,舞鶴,2022-03-08,23.46811,121.37407,0.6555061
C0Z080,富源,2022-03-08,23.587642,121.378225,0.6665782
C0Z100,東華,2022-03-08,23.89525,121.549833,0.83541965
C0Z150,吉安光華,2022-03-08,23.930925,121.595153,0.85420823
C0Z160,鳳林,2022-03-08,23.746114,121.453411,0.6887772
C0Z170,卓溪,2022-03-08,23.3443,121.3029,0.044917375
C0Z180,新城,2022-03-08,24.03946,121.60454,0.56824714
C0Z190,富世,2022-03-08,24.14743,121.6297,0.057382468
C0Z200,萬榮,2022-03-08,23.709219,121.420106,0.7218936
C0Z210,瑞穗,2022-03-08,23.5239,121.39021,0.75122464
C0Z230,和平,2022-03-08,24.30717,121.77007,0.29245967
C0Z270,蕃薯寮,2022-03-08,23.73835,121.540108,0.7798262
C0Z280,德武,2022-03-08,23.47426,121.41071,0.73746055
C0Z300,東里,2022-03-08,23.26853,121.30547,0.05138481
C0Z310,清水斷崖,2022-03-08,24.218294,121.689142,0.15599316
C0Z330,安通山,2022-03-08,23.290728,121.348528,0.012571228
