站號,站名,日期,lat,lon,BlastGRU-TW
466881,新北,2022-11-27,24.9593,121.52,0.70273453
466900,淡水,2022-11-27,25.164889,121.448906,0.7527584
466920,臺北,2022-11-27,25.037658,121.514853,0.75796986
467441,高雄,2022-11-27,22.7304,120.3125,0.13944708
467480,嘉義,2022-11-27,23.495925,120.432906,0.34435454
467490,臺中,2022-11-27,24.145736,120.684075,0.31500506
C0A540,四堵,2022-11-27,24.8926,121.745736,0.47830576
C0A550,泰平,2022-11-27,24.971197,121.823711,0.7883118
C0A560,福山,2022-11-27,24.776203,121.502811,0.86890614
C0A931,三和,2022-11-27,25.233153,121.595236,0.49616474
C0A940,金山,2022-11-27,25.223628,121.643967,0.6251683
C0A950,鼻頭角,2022-11-27,25.129036,121.923372,0.928356
C0AD10,八里,2022-11-27,25.150211,121.403947,0.7527584
C0AD30,蘆洲,2022-11-27,25.086594,121.472331,0.7409781
C0AD40,土城,2022-11-27,24.973208,121.445169,0.7204032
C0AI10,屈尺,2022-11-27,24.92184,121.54475,0.5851274
C0AI20,白沙灣,2022-11-27,25.283128,121.519058,0.66991776
C0AI30,三重,2022-11-27,25.057328,121.500629,0.7409781
C0B010,七堵,2022-11-27,25.094819,121.71713,0.8333871
C0B020,基隆嶼,2022-11-27,25.19141,121.78391,0.8480475
