站號,站名,日期,lat,lon,BlastGRU-TW
466881,新北,2022-10-20,24.9593,121.52,0.89032114
466900,淡水,2022-10-20,25.164889,121.448906,0.94941455
466920,臺北,2022-10-20,25.037658,121.514853,0.9083199
467441,高雄,2022-10-20,22.7304,120.3125,0.18849304
467480,嘉義,2022-10-20,23.495925,120.432906,0.20128481
467490,臺中,2022-10-20,24.145736,120.684075,0.10570044
C0A530,坪林,2022-10-20,24.938183,121.70975,0.9622262
C0A540,四堵,2022-10-20,24.8926,121.745736,0.7708766
C0A550,泰平,2022-10-20,24.971197,121.823711,0.9926319
C0A890,雙溪,2022-10-20,25.036003,121.864242,0.93700856
C0A920,富貴角,2022-10-20,25.263783,121.565258,0.8222394
C0A931,三和,2022-10-20,25.233153,121.595236,0.9756049
C0AC70,信義,2022-10-20,25.037822,121.564597,0.9083199
C0AC80,文山,2022-10-20,25.00235,121.575728,0.85373324
C0ACA0,新莊,2022-10-20,25.051478,121.446756,0.94988865
C0AH50,林口,2022-10-20,25.072181,121.38084,0.70867556
C0AH70,松山,2022-10-20,25.04871,121.55042,0.9083199
C0AH80,深坑,2022-10-20,25.002703,121.628328,0.85373324
C0AJ60,六塊厝,2022-10-20,25.24,121.4481,0.95077115
C0AJ70,田寮,2022-10-20,25.2698,121.4886,0.94168574
