站號,站名,日期,lat,lon,BlastGRU-TW
466881,新北,2022-10-20,24.9593,121.52,0.89032084
466900,淡水,2022-10-20,25.164889,121.448906,0.94941455
466920,臺北,2022-10-20,25.037658,121.514853,0.9083199
466940,基隆,2022-10-20,25.133314,121.740475,0.93813545
466990,花蓮,2022-10-20,23.975128,121.613275,0.18644568
467050,新屋,2022-10-20,25.006744,121.047486,0.9394769
467080,宜蘭,2022-10-20,24.763975,121.756528,0.98265666
467270,田中,2022-10-20,23.873803,120.581286,0.7351569
467300,東吉島,2022-10-20,23.25695,119.667467,0.051415965
467350,澎湖,2022-10-20,23.565503,119.563094,0.020028822
467410,臺南,2022-10-20,22.993239,120.204772,0.07734522
467420,永康,2022-10-20,23.038386,120.2367,0.074689426
467441,高雄,2022-10-20,22.7304,120.3125,0.18849304
467480,嘉義,2022-10-20,23.495925,120.432906,0.20128481
467490,臺中,2022-10-20,24.145736,120.684075,0.10570044
467540,大武,2022-10-20,22.355675,120.903789,0.7037327
467571,新竹,2022-10-20,24.827853,121.014219,0.87310755
467590,恆春,2022-10-20,22.003897,120.746339,0.9679784
467610,成功,2022-10-20,23.097486,121.373428,0.6723661
467620,蘭嶼,2022-10-20,22.036969,121.558339,0.7148601
467660,臺東,2022-10-20,22.752211,121.154586,0.95304316
467790,墾丁雷達站,2022-10-20,21.948235,120.808028,0.9682073
C0A520,山佳,2022-10-20,24.974944,121.402008,0.90490043
C0A530,坪林,2022-10-20,24.938183,121.70975,0.9622262
C0A540,四堵,2022-10-20,24.8926,121.745736,0.7708766
C0A550,泰平,2022-10-20,24.971197,121.823711,0.9926319
C0A560,福山,2022-10-20,24.776203,121.502811,0.9910942
C0A570,桶後,2022-10-20,24.848222,121.597992,0.8067402
C0A640,石碇,2022-10-20,24.993969,121.662917,0.9793294
C0A650,火燒寮,2022-10-20,25.002719,121.742892,0.9733452
C0A660,瑞芳,2022-10-20,25.113169,121.801147,0.98639995
C0A770,科教館,2022-10-20,25.096356,121.516507,0.92700386
C0A860,大坪,2022-10-20,25.165914,121.632969,0.5918725
C0A880,福隆,2022-10-20,25.017842,121.942083,0.9920367
C0A890,雙溪,2022-10-20,25.036003,121.864242,0.93700856
C0A920,富貴角,2022-10-20,25.263783,121.565258,0.8222394
C0A931,三和,2022-10-20,25.233153,121.595236,0.9756049
C0A940,金山,2022-10-20,25.223628,121.643967,0.9272874
C0A950,鼻頭角,2022-10-20,25.129036,121.923372,0.9924489
C0A970,三貂角,2022-10-20,25.007606,122.002058,0.9866759
C0A980,社子,2022-10-20,25.109508,121.469681,0.9317741
C0A9C0,天母,2022-10-20,25.117494,121.537169,0.9137658
C0A9F0,內湖,2022-10-20,25.079422,121.57545,0.9083199
C0AC60,三峽,2022-10-20,24.939025,121.369728,0.8783317
C0AC70,信義,2022-10-20,25.037822,121.564597,0.9083199
C0AC80,文山,2022-10-20,25.00235,121.575728,0.85373324
C0ACA0,新莊,2022-10-20,25.051478,121.446756,0.94988865
C0AD00,三芝,2022-10-20,25.258131,121.501917,0.8922281
C0AD10,八里,2022-10-20,25.150211,121.403947,0.9494355
C0AD30,蘆洲,2022-10-20,25.086594,121.472331,0.92700386
C0AD40,土城,2022-10-20,24.973208,121.445169,0.9207377
C0AD50,鶯歌,2022-10-20,24.951533,121.346294,0.9211071
C0AG80,中和,2022-10-20,24.991622,121.491792,0.9083199
C0AH00,汐止,2022-10-20,25.066881,121.658778,0.9385812
C0AH10,永和,2022-10-20,25.01125,121.508111,0.9150373
C0AH40,平等,2022-10-20,25.129142,121.577086,0.7299881
C0AH50,林口,2022-10-20,25.072181,121.38084,0.70867556
C0AH70,松山,2022-10-20,25.04871,121.55042,0.9083199
C0AH80,深坑,2022-10-20,25.002703,121.628328,0.85373324
C0AI00,五股,2022-10-20,25.07445,121.42728,0.6303071
C0AI10,屈尺,2022-10-20,24.92184,121.54475,0.85373324
C0AI20,白沙灣,2022-10-20,25.283128,121.519058,0.9378492
C0AI30,三重,2022-10-20,25.057328,121.500629,0.92700386
C0AI40,石牌,2022-10-20,25.115597,121.513139,0.9207377
C0AJ20,野柳,2022-10-20,25.20703,121.690021,0.9385812
C0AJ30,淡水觀海,2022-10-20,25.184591,121.408616,0.95077115
C0AJ40,石門,2022-10-20,25.273672,121.601198,0.6898191
C0AJ50,水湳洞,2022-10-20,25.123695,121.862238,0.9385812
C0AJ60,六塊厝,2022-10-20,25.24,121.4481,0.95077115
C0AJ70,田寮,2022-10-20,25.2698,121.4886,0.94168574
C0AJ80,板橋,2022-10-20,25.0107,121.4489,0.92073756
C0AJ90,澳底,2022-10-20,25.0552,121.9253,0.9920367
C0B010,七堵,2022-10-20,25.094819,121.71713,0.93824863
C0B020,基隆嶼,2022-10-20,25.19141,121.78391,0.9385812
C0B040,大武崙,2022-10-20,25.166676,121.706993,0.93824863
C0B050,八斗子,2022-10-20,25.144754,121.79167,0.93819994
C0B060,暖暖,2022-10-20,25.0957,121.7403,0.932474
C0C460,復興,2022-10-20,24.820208,121.352281,0.81806016
C0C480,桃園,2022-10-20,24.992425,121.323172,0.76528543
C0C490,八德,2022-10-20,24.928708,121.283289,0.7762199
C0C590,觀音,2022-10-20,25.027072,121.153317,0.9246128
C0C620,蘆竹,2022-10-20,25.084275,121.265767,0.9453912
C0C630,大溪,2022-10-20,24.882853,121.265547,0.63453364
C0C650,平鎮,2022-10-20,24.897503,121.214636,0.47385976
C0C660,楊梅,2022-10-20,24.912375,121.143047,0.6563005
C0C670,龍潭,2022-10-20,24.870056,121.221389,0.3047785
C0C680,龜山,2022-10-20,25.02846,121.38656,0.8022881
C0C700,中壢,2022-10-20,24.977661,121.256375,0.70538527
C0C710,大溪永福,2022-10-20,24.892936,121.324975,0.7322665
C0C720,竹圍,2022-10-20,25.112692,121.239824,0.9494355
C0C730,中大臨海站,2022-10-20,24.966126,121.008581,0.9431459
C0C740,觀音工業區,2022-10-20,25.064764,121.114856,0.8492215
C0C750,新興坑尾,2022-10-20,25.0061,121.0971,0.7757408
C0D430,峨眉,2022-10-20,24.6905,121.017189,0.86436594
C0D480,打鐵坑,2022-10-20,24.849664,121.150789,0.27513418
C0D540,橫山,2022-10-20,24.71116,121.11693,0.4088555
C0D560,竹東,2022-10-20,24.767147,121.057881,0.82587284
C0D580,寶山,2022-10-20,24.735006,121.025192,0.61503077
C0D590,新豐,2022-10-20,24.87068,120.97721,0.8875501
C0D650,湖口,2022-10-20,24.904794,121.043628,0.9318359
C0D660,新竹市東區,2022-10-20,24.798681,120.986942,0.86511904
C0D670,海天一線,2022-10-20,24.831986,120.914438,0.8718401
C0D680,香山濕地,2022-10-20,24.783581,120.914988,0.86914635
C0D690,外湖,2022-10-20,24.917735,120.968711,0.9431459
C0D700,關西,2022-10-20,24.7977,121.1732,0.69241655
C0E420,竹南,2022-10-20,24.708978,120.888897,0.85907596
C0E430,南庄,2022-10-20,24.601775,121.000214,0.55748713
C0E520,大湖,2022-10-20,24.41494,120.87087,0.50420105
C0E540,後龍,2022-10-20,24.606489,120.783933,0.20179701
C0E550,明德,2022-10-20,24.583486,120.885411,0.80594045
C0E590,通霄,2022-10-20,24.471892,120.704622,0.12770861
C0E730,頭份,2022-10-20,24.688247,120.912206,0.859076
C0E740,造橋,2022-10-20,24.637056,120.864778,0.81285346
C0E750,苗栗,2022-10-20,24.564569,120.824575,0.28418645
C0E780,銅鑼,2022-10-20,24.489681,120.790853,0.8307242
C0E791,卓蘭,2022-10-20,24.3126,120.8244,0.6292784
C0E810,西湖,2022-10-20,24.562947,120.7485,0.24747467
C0E820,獅潭,2022-10-20,24.539133,120.920042,0.8113875
C0E830,苑裡,2022-10-20,24.439714,120.653053,0.08459555
C0E850,大河,2022-10-20,24.618069,120.948578,0.7908318
C0E870,高鐵苗栗,2022-10-20,24.60725,120.826094,0.21535952
C0E910,海埔,2022-10-20,24.648767,120.772435,0.79460335
C0E920,通霄漁港,2022-10-20,24.498589,120.673876,0.09868688
C0E930,龍鳳,2022-10-20,24.700034,120.859125,0.80268145
C0F0B0,石岡,2022-10-20,24.276061,120.777644,0.590244
C0F850,東勢,2022-10-20,24.246428,120.833047,0.5832548
C0F930,大甲,2022-10-20,24.347667,120.640403,0.09782085
C0F970,大坑,2022-10-20,24.173142,120.722289,0.119275995
C0F9A0,中竹林,2022-10-20,24.103556,120.751061,0.5397247
C0F9I0,神岡,2022-10-20,24.272481,120.658314,0.8720162
C0F9K0,大安,2022-10-20,24.345061,120.588025,0.06966129
C0F9L0,后里,2022-10-20,24.310436,120.729725,0.86669135
C0F9M0,豐原,2022-10-20,24.254322,120.720692,0.8770965
C0F9N0,大里,2022-10-20,24.092464,120.701378,0.08814832
C0F9O0,潭子,2022-10-20,24.213106,120.703933,0.836615
C0F9P0,清水,2022-10-20,24.312297,120.562242,0.065471806
C0F9Q0,外埔,2022-10-20,24.347817,120.705686,0.8430053
C0F9R0,龍井,2022-10-20,24.184536,120.528972,0.067152135
C0F9S0,烏日,2022-10-20,24.107058,120.624103,0.1698774
C0F9T0,西屯,2022-10-20,24.179494,120.641275,0.091899194
C0F9U0,南屯,2022-10-20,24.137006,120.637969,0.08814832
C0F9X0,大雅(中科園區),2022-10-20,24.21528,120.62445,0.1302792
C0FA10,松柏,2022-10-20,24.429115,120.617482,0.07564517
C0FA20,溫寮,2022-10-20,24.372177,120.583125,0.07564517
C0FA30,梧棲,2022-10-20,24.256003,120.523381,0.06715209
C0FA40,臺中電廠,2022-10-20,24.2146,120.4907,0.06715209
C0FA50,霧峰,2022-10-20,24.0419,120.6995,0.11540604
C0G620,芬園,2022-10-20,24.015678,120.6213,0.29149106
C0G640,鹿港,2022-10-20,24.0753,120.430481,0.14295352
C0G650,員林,2022-10-20,23.946503,120.585597,0.24402627
C0G660,溪湖,2022-10-20,23.94835,120.479122,0.19833797
C0G720,溪州,2022-10-20,23.851589,120.499093,0.72679734
C0G730,二林,2022-10-20,23.903325,120.376081,0.14594561
C0G740,大城,2022-10-20,23.852487,120.320935,0.109059736
C0G770,福興,2022-10-20,24.041289,120.437669,0.14295352
C0G780,秀水,2022-10-20,24.03405,120.503869,0.16052946
C0G800,埔鹽,2022-10-20,24.000394,120.431683,0.14295352
C0G810,埔心,2022-10-20,23.947633,120.525456,0.20608792
C0G820,田尾,2022-10-20,23.901669,120.509389,0.21413432
C0G830,埤頭,2022-10-20,23.866003,120.452806,0.6976092
C0G840,北斗,2022-10-20,23.877586,120.514222,0.21413432
C0G860,社頭,2022-10-20,23.897647,120.5862,0.25338295
C0G870,芳苑,2022-10-20,23.922303,120.320025,0.10555865
C0G880,二水,2022-10-20,23.810742,120.6173,0.81105614
C0G890,伸港,2022-10-20,24.148933,120.484403,0.068014055
C0G900,線西,2022-10-20,24.143358,120.443536,0.067966655
C0G910,花壇,2022-10-20,24.032076,120.549461,0.17002586
C0G920,永靖,2022-10-20,23.924703,120.547533,0.21413432
C0G940,竹塘,2022-10-20,23.848253,120.386764,0.5061518
C0G950,防潮門,2022-10-20,24.1835,120.4871,0.06521133
C0G960,福寶,2022-10-20,24.0443,120.3814,0.13885906
C0G970,三豐,2022-10-20,23.882,120.2895,0.10555865
C0H890,埔里,2022-10-20,23.972169,120.952425,0.75375265
C0H950,中寮,2022-10-20,23.884447,120.766406,0.87607944
C0H960,草屯,2022-10-20,23.973672,120.68085,0.8063555
C0I110,竹山,2022-10-20,23.761225,120.688156,0.86365914
C0I360,水里,2022-10-20,23.812553,120.849792,0.9881099
C0I380,集集,2022-10-20,23.828206,120.801467,0.9889851
C0I410,名間,2022-10-20,23.837053,120.701447,0.83795327
C0I420,國姓,2022-10-20,24.037803,120.855072,0.58743954
C0I460,南投,2022-10-20,23.911469,120.687331,0.8334884
C0K250,崙背,2022-10-20,23.75555,120.318925,0.1026648
C0K280,四湖,2022-10-20,23.630414,120.227125,0.09752264
C0K291,宜梧,2022-10-20,23.536281,120.169329,0.15496677
C0K330,虎尾,2022-10-20,23.719183,120.442036,0.49564883
C0K390,土庫,2022-10-20,23.679029,120.395574,0.47840056
C0K400,斗六,2022-10-20,23.720583,120.541127,0.676392
C0K410,北港,2022-10-20,23.573957,120.292802,0.17902412
C0K420,西螺,2022-10-20,23.800407,120.467394,0.70729476
C0K430,褒忠,2022-10-20,23.690938,120.303634,0.084453024
C0K440,二崙,2022-10-20,23.772797,120.408944,0.5238466
C0K450,大埤,2022-10-20,23.646074,120.431537,0.5051325
C0K460,斗南,2022-10-20,23.678734,120.478359,0.64664674
C0K470,林內,2022-10-20,23.748675,120.609642,0.7163935
C0K480,莿桐,2022-10-20,23.761192,120.502372,0.720206
C0K500,元長,2022-10-20,23.64981,120.315024,0.09071045
C0K510,水林,2022-10-20,23.572924,120.24597,0.18431371
C0K530,臺西,2022-10-20,23.701547,120.197559,0.085126325
C0K550,蔦松,2022-10-20,23.514319,120.229736,0.1610849
C0K560,棋山,2022-10-20,23.68645,120.603417,0.7164951
C0K580,高鐵雲林,2022-10-20,23.737456,120.417944,0.47840056
C0K590,雲林東勢,2022-10-20,23.674192,120.255721,0.08445303
C0K600,箔子寮,2022-10-20,23.6197,120.14,0.17754225
C0M410,馬頭山,2022-10-20,23.324361,120.582017,0.97914845
C0M520,東後寮,2022-10-20,23.369908,120.248065,0.15448447
C0M640,中埔,2022-10-20,23.42538,120.5229,0.77805614
C0M650,朴子,2022-10-20,23.43463,120.23902,0.16824685
C0M660,溪口,2022-10-20,23.604131,120.403569,0.124099754
C0M670,大林,2022-10-20,23.600616,120.45841,0.16000459
C0M680,太保,2022-10-20,23.455062,120.331455,0.17261238
C0M690,水上,2022-10-20,23.419734,120.388909,0.20252281
C0M700,竹崎,2022-10-20,23.526178,120.555508,0.7981373
C0M710,東石,2022-10-20,23.458927,120.15385,0.16108495
C0M720,番路,2022-10-20,23.464657,120.554156,0.7956307
C0M730,嘉義市東區,2022-10-20,23.457673,120.460531,0.23692024
C0M740,六腳,2022-10-20,23.492871,120.290625,0.16557215
C0M750,布袋,2022-10-20,23.380878,120.167789,0.16824685
C0M760,民雄,2022-10-20,23.551754,120.428457,0.1341382
C0M770,嘉義梅山,2022-10-20,23.585398,120.555587,0.7727873
C0M780,鹿草,2022-10-20,23.41134,120.30835,0.2123708
C0M790,新港,2022-10-20,23.553269,120.345728,0.18648587
C0M800,茶山,2022-10-20,23.299075,120.664767,0.9666776
C0M880,好美里,2022-10-20,23.3364,120.138,0.13935326
C0N010,鯤鯓國小,2022-10-20,23.1879,120.0889,0.14158769
C0N020,城西,2022-10-20,23.0568,120.0956,0.08831071
C0N030,四草,2022-10-20,23.0235,120.1116,0.058545545
C0N040,蘆竹溝,2022-10-20,23.2344,120.0961,0.14158769
C0N050,蚵寮,2022-10-20,23.301,120.1104,0.14158769
C0O810,曾文,2022-10-20,23.219681,120.497328,0.5974252
C0O830,北寮,2022-10-20,23.079561,120.495008,0.9386356
C0O840,王爺宮,2022-10-20,23.222064,120.40085,0.5974256
C0O860,大內,2022-10-20,23.11885,120.36083,0.29156837
C0O900,善化,2022-10-20,23.112883,120.297219,0.1272954
C0O930,玉井,2022-10-20,23.126042,120.46055,0.3775542
C0O950,安南,2022-10-20,23.076694,120.144861,0.09885348
C0O960,崎頂,2022-10-20,22.959547,120.369317,0.90689147
C0O970,虎頭埤,2022-10-20,23.021375,120.347878,0.08678547
C0O980,新市,2022-10-20,23.061614,120.298197,0.1272954
C0O990,媽廟,2022-10-20,22.99175,120.293525,0.08935961
C0R150,三地門,2022-10-20,22.709889,120.639944,0.70513535
C0R160,鹽埔,2022-10-20,22.739558,120.530778,0.5376997
C0R170,屏東,2022-10-20,22.660269,120.494072,0.3772233
C0R190,赤山,2022-10-20,22.592333,120.614306,0.5855364
C0R220,潮州,2022-10-20,22.534361,120.54,0.50168544
C0R240,來義,2022-10-20,22.527306,120.625111,0.6571765
C0R260,春日,2022-10-20,22.370361,120.628306,0.5660092
C0R270,琉球嶼,2022-10-20,22.332244,120.362236,0.59014654
C0R280,檳榔,2022-10-20,22.076078,120.836777,0.9284039
C0R320,車城,2022-10-20,22.0744,120.716247,0.9636314
C0R341,牡丹,2022-10-20,22.130036,120.792639,0.9154569
C0R350,貓鼻頭,2022-10-20,21.921774,120.7358,0.9683949
C0R470,高樹,2022-10-20,22.826389,120.600806,0.672493
C0R480,長治,2022-10-20,22.693128,120.542622,0.5694683
C0R490,九如,2022-10-20,22.7405,120.490503,0.38673568
C0R520,崁頂,2022-10-20,22.514781,120.506914,0.42037037
C0R540,佳冬,2022-10-20,22.419456,120.552375,0.41087657
C0R550,新埤,2022-10-20,22.467947,120.582894,0.55252403
C0R560,新園,2022-10-20,22.5434,120.461558,0.42037037
C0R570,麟洛,2022-10-20,22.65078,120.52719,0.38673568
C0R580,南州,2022-10-20,22.48591,120.50274,0.41087657
C0R590,里港,2022-10-20,22.77919,120.49459,0.6144668
C0R620,墾雷,2022-10-20,21.900836,120.855269,0.9683949
C0R640,東港,2022-10-20,22.46247,120.44074,0.3344416
C0R650,竹田,2022-10-20,22.58486,120.54344,0.5206819
C0R660,枋寮,2022-10-20,22.367722,120.590647,0.4448238
C0R670,楓港,2022-10-20,22.190131,120.692156,0.5197207
C0R680,佳樂水,2022-10-20,21.993578,120.861633,0.9670709
C0R690,墾丁,2022-10-20,21.966756,120.810269,0.9177427
C0R700,枋山,2022-10-20,22.246844,120.661086,0.5197212
C0R710,龍磐,2022-10-20,21.931672,120.838942,0.95914406
C0R720,旭海,2022-10-20,22.205403,120.887614,0.9515993
C0R730,大坪頂,2022-10-20,22.024633,120.69355,0.9584197
C0R740,獅子,2022-10-20,22.201569,120.70525,0.6291221
C0R760,南仁湖,2022-10-20,22.084681,120.863353,0.8611679
C0R770,保力,2022-10-20,22.071122,120.764111,0.9657383
C0R780,滿州,2022-10-20,22.024403,120.839892,0.9684654
C0R790,九棚,2022-10-20,22.14195,120.889281,0.9619763
C0R800,丹路,2022-10-20,22.204481,120.750989,0.807379
C0R810,內獅,2022-10-20,22.305064,120.642986,0.43578842
C0R830,高士,2022-10-20,22.121825,120.836781,0.787253
C0R850,林邊,2022-10-20,22.4634,120.5339,0.42037037
C0R860,鼻頭,2022-10-20,22.1043,120.8979,0.9686424
C0R870,興海,2022-10-20,21.9752,120.8439,0.9670767
C0R880,後壁湖,2022-10-20,21.9457,120.7457,0.96098864
C0R890,山海,2022-10-20,21.9878,120.7091,0.9636314
C0R900,竹坑,2022-10-20,22.1385,120.7022,0.7133987
C0R910,下寮,2022-10-20,22.3929,120.5548,0.41087657
C0R920,塭仔,2022-10-20,22.4169,120.5197,0.40058473
C0R930,萬丹,2022-10-20,22.5885,120.4851,0.5206819
C0R940,加祿堂,2022-10-20,22.3363,120.6217,0.43578842
C0S710,鹿野,2022-10-20,22.917711,121.122994,0.7617494
C0S730,綠島,2022-10-20,22.6672,121.47533,0.877445
C0S740,池上,2022-10-20,23.119628,121.209469,0.9309174
C0S770,大溪山,2022-10-20,22.478475,120.943325,0.79564756
C0S790,金崙,2022-10-20,22.538122,120.966875,0.9472574
C0S810,東河,2022-10-20,22.972672,121.303986,0.9405091
C0S830,長濱,2022-10-20,23.286817,121.411975,0.9212411
C0S840,南田,2022-10-20,22.279725,120.889208,0.8983974
C0S890,關山,2022-10-20,23.0395,121.175017,0.9717258
C0S900,蘭嶼高中,2022-10-20,22.04909,121.51214,0.9858476
C0S910,蘭嶼燈塔,2022-10-20,22.081197,121.503117,0.9627022
C0S920,金峰嘉蘭,2022-10-20,22.594789,120.960825,0.9508051
C0S930,延平,2022-10-20,22.902581,121.084058,0.9618807
C0S940,石寧山,2022-10-20,23.223772,121.406639,0.95564246
C0S950,七塊厝,2022-10-20,22.954453,121.229922,0.6709089
C0S960,香蘭,2022-10-20,22.587569,120.993375,0.87780094
C0S970,加津林,2022-10-20,22.416211,120.926942,0.75515157
C0S990,山豬窟,2022-10-20,22.318619,120.857372,0.8182333
C0SA00,歷坵,2022-10-20,22.520969,120.89185,0.72362775
C0SA10,檳榔四格山,2022-10-20,22.810031,121.109308,0.72463286
C0SA30,都歷,2022-10-20,23.020333,121.323642,0.8179
C0SA40,瑞和,2022-10-20,22.974361,121.156697,0.96636915
C0SA60,知本（水試所）,2022-10-20,22.702394,121.082761,0.96413106
C0SA80,土坂,2022-10-20,22.453108,120.887572,0.9585205
C0SA90,達仁林場,2022-10-20,22.264347,120.823972,0.85126334
C0T870,鯉魚潭,2022-10-20,23.935639,121.508944,0.37102166
C0T900,西林,2022-10-20,23.8119,121.441458,0.69466233
C0T960,光復,2022-10-20,23.660694,121.424964,0.3793512
C0T9A0,月眉山,2022-10-20,23.809928,121.539828,0.9783945
C0T9D0,和中,2022-10-20,24.26676,121.74103,0.12264576
C0T9E0,大坑,2022-10-20,23.880628,121.581981,0.9829241
C0T9F0,水璉,2022-10-20,23.797131,121.542514,0.9665061
C0T9I0,豐濱,2022-10-20,23.583897,121.514806,0.43781614
C0T9M0,靜浦,2022-10-20,23.455167,121.495028,0.14779374
C0T9N0,富里,2022-10-20,23.171639,121.249378,0.8830826
C0U600,礁溪,2022-10-20,24.817539,121.765608,0.9820024
C0U650,玉蘭,2022-10-20,24.675286,121.587061,0.9876586
C0U750,龜山島,2022-10-20,24.841667,121.953133,0.99560785
C0U760,東澳,2022-10-20,24.52196,121.83318,0.9459919
C0U770,南澳,2022-10-20,24.44935,121.81022,0.59199476
C0U780,五結,2022-10-20,24.68637,121.79794,0.99489695
C0U860,頭城,2022-10-20,24.85323,121.8308,0.98265666
C0U870,大礁溪,2022-10-20,24.791042,121.675047,0.9900951
C0U880,北關,2022-10-20,24.9072,121.8734,0.91453516
C0U890,三星,2022-10-20,24.66812,121.65302,0.97546506
C0U900,內城,2022-10-20,24.71813,121.68766,0.98013026
C0U910,冬山,2022-10-20,24.63373,121.7937,0.99489695
C0U940,羅東,2022-10-20,24.68184,121.74934,0.994643
C0U970,大福,2022-10-20,24.80064,121.81389,0.9832395
C0U990,員山,2022-10-20,24.74435,121.72247,0.994643
C0UA00,土場,2022-10-20,24.576533,121.495333,0.9899334
C0UA80,大溪漁港,2022-10-20,24.941801,121.902955,0.9820024
C0UA90,石城,2022-10-20,24.980444,121.951214,0.9911819
C0UB00,淡江大學蘭陽校園,2022-10-20,24.823239,121.730383,0.98885524
C0UB10,蘇澳,2022-10-20,24.5969,121.8571,0.6792673
C0UB20,壯圍,2022-10-20,24.7359,121.8163,0.99512506
C0V250,甲仙,2022-10-20,23.080106,120.591758,0.9660372
C0V260,月眉,2022-10-20,22.971003,120.539853,0.94282734
C0V310,美濃,2022-10-20,22.898742,120.519153,0.36663216
C0V350,溪埔,2022-10-20,22.738578,120.446797,0.2919184
C0V360,內門,2022-10-20,22.975481,120.466769,0.43754113
C0V370,古亭坑,2022-10-20,22.893178,120.401947,0.16640365
C0V400,阿公店,2022-10-20,22.804194,120.355528,0.28101075
C0V440,鳳山,2022-10-20,22.646653,120.356122,0.37241846
C0V450,鳳森,2022-10-20,22.545064,120.392592,0.40593234
C0V490,新興,2022-10-20,22.627422,120.298803,0.34797764
C0V530,阿蓮,2022-10-20,22.883208,120.327508,0.054428734
C0V610,梓官,2022-10-20,22.760558,120.267211,0.13042392
C0V620,永安,2022-10-20,22.82315,120.236856,0.14057493
C0V630,茄萣,2022-10-20,22.906642,120.182608,0.06951969
C0V640,湖內,2022-10-20,22.887139,120.2445,0.07160261
C0V650,彌陀,2022-10-20,22.783806,120.246361,0.14057493
C0V660,岡山,2022-10-20,22.797078,120.294958,0.13042392
C0V680,仁武,2022-10-20,22.701083,120.347722,0.19580911
C0V690,鼓山,2022-10-20,22.623325,120.275575,0.34800333
C0V700,三民,2022-10-20,22.645017,120.311233,0.34797764
C0V710,苓雅,2022-10-20,22.622742,120.330669,0.34797764
C0V720,林園,2022-10-20,22.507747,120.394511,0.34800333
C0V730,大寮,2022-10-20,22.605614,120.395717,0.28278723
C0V740,旗山,2022-10-20,22.888614,120.483597,0.38219017
C0V750,路竹,2022-10-20,22.854997,120.259439,0.10327298
C0V760,橋頭,2022-10-20,22.757806,120.30575,0.13484964
C0V770,大社,2022-10-20,22.730306,120.346639,0.19580911
C0V790,萬山,2022-10-20,22.905944,120.688056,0.97019506
C0V800,六龜,2022-10-20,22.997889,120.633583,0.95864826
C0V810,左營,2022-10-20,22.67491,120.28491,0.18849304
C0V820,小林,2022-10-20,23.148408,120.63325,0.9688958
C0V840,鳳鼻頭,2022-10-20,22.5083,120.3591,0.33444163
C0V850,蚵仔寮,2022-10-20,22.7256,120.2527,0.18259822
C0V860,南寮,2022-10-20,22.7616,120.2339,0.13579944
C0V870,文安,2022-10-20,22.8025,120.2164,0.13579944
C0V880,興達,2022-10-20,22.8778,120.2127,0.06951969
C0V890,前鎮,2022-10-20,22.5718,120.3117,0.33444163
C0V900,汕尾,2022-10-20,22.4782,120.4151,0.40268958
C0X050,東河,2022-10-20,23.296598,120.385608,0.40752238
C0X060,下營,2022-10-20,23.22695,120.256261,0.16920803
C0X080,佳里,2022-10-20,23.173039,120.145086,0.13935326
C0X100,臺南市北區,2022-10-20,23.010394,120.194228,0.07279321
C0X110,臺南市南區,2022-10-20,22.961189,120.188378,0.074689426
C0X120,麻豆,2022-10-20,23.183289,120.248611,0.14318447
C0X130,官田,2022-10-20,23.193217,120.315422,0.18110271
C0X140,西港,2022-10-20,23.125608,120.203108,0.10067386
C0X150,安定,2022-10-20,23.102614,120.227839,0.11378362
C0X160,仁德,2022-10-20,22.968258,120.257689,0.08568649
C0X170,關廟,2022-10-20,22.963017,120.327797,0.10051114
C0X180,山上,2022-10-20,23.0757,120.363253,0.3548569
C0X190,安平,2022-10-20,22.993161,120.152181,0.07279321
C0X200,左鎮,2022-10-20,23.056758,120.408522,0.3446707
C0X210,白河,2022-10-20,23.347466,120.414427,0.4288001
C0X220,學甲,2022-10-20,23.230367,120.182187,0.14318447
C0X230,鹽水,2022-10-20,23.272621,120.247641,0.1503286
C0X240,關子嶺,2022-10-20,23.331169,120.508025,0.91232646
C0X250,新營,2022-10-20,23.310689,120.316681,0.17110209
C0X260,後壁,2022-10-20,23.366358,120.362326,0.32720783
C0X280,將軍,2022-10-20,23.214999,120.13577,0.13935326
C0X290,北門,2022-10-20,23.267772,120.125481,0.13935326
C0X300,鹿寮,2022-10-20,23.386047,120.477331,0.6966391
C0X310,七股,2022-10-20,23.147289,120.086253,0.084372036
C0X320,柳營,2022-10-20,23.253328,120.375253,0.40752238
C0Z020,明里,2022-10-20,23.208717,121.262342,0.9390821
C0Z061,玉里,2022-10-20,23.3215,121.339656,0.94848204
C0Z070,舞鶴,2022-10-20,23.46811,121.37407,0.7568475
C0Z080,富源,2022-10-20,23.587642,121.378225,0.7603524
C0Z100,東華,2022-10-20,23.89525,121.549833,0.040832482
C0Z150,吉安光華,2022-10-20,23.930925,121.595153,0.031038875
C0Z160,鳳林,2022-10-20,23.746114,121.453411,0.28021625
C0Z170,卓溪,2022-10-20,23.3443,121.3029,0.95338833
C0Z180,新城,2022-10-20,24.03946,121.60454,0.25826156
C0Z190,富世,2022-10-20,24.14743,121.6297,0.8676013
C0Z200,萬榮,2022-10-20,23.709219,121.420106,0.37102166
C0Z210,瑞穗,2022-10-20,23.5239,121.39021,0.28995648
C0Z230,和平,2022-10-20,24.30717,121.77007,0.12264576
C0Z270,蕃薯寮,2022-10-20,23.73835,121.540108,0.401653
C0Z280,德武,2022-10-20,23.47426,121.41071,0.34749448
C0Z300,東里,2022-10-20,23.26853,121.30547,0.95179594
C0Z310,清水斷崖,2022-10-20,24.218294,121.689142,0.27470732
C0Z330,安通山,2022-10-20,23.290728,121.348528,0.7550693
