站號,站名,日期,lat,lon,BlastGRU-TW
466881,新北,2022-03-20,24.9593,121.52,0.052610207
466900,淡水,2022-03-20,25.1649,121.4489,0.020348283
466920,臺北,2022-03-20,25.0377,121.5149,0.06283694
466940,基隆,2022-03-20,25.1333,121.7405,0.13804726
466990,花蓮,2022-03-20,23.9751,121.6133,0.7202648
467050,新屋,2022-03-20,25.0067,121.0475,0.07350771
467080,宜蘭,2022-03-20,24.764,121.7565,0.32069206
467270,田中,2022-03-20,23.8738,120.5813,0.07821523
467300,東吉島,2022-03-20,23.2569,119.6675,8.915325e-05
467350,澎湖,2022-03-20,23.5655,119.5631,9.4699644e-05
467410,臺南,2022-03-20,22.9932,120.2048,0.033860743
467420,永康,2022-03-20,23.0384,120.2367,0.035389207
467441,高雄,2022-03-20,22.7304,120.3125,0.042900644
467480,嘉義,2022-03-20,23.4959,120.4329,0.01312116
467490,臺中,2022-03-20,24.1457,120.6841,0.008206903
467540,大武,2022-03-20,22.3557,120.9038,0.57903934
467571,新竹,2022-03-20,24.8279,121.0142,0.029304009
467590,恆春,2022-03-20,22.0039,120.7463,0.016381344
467610,成功,2022-03-20,23.0975,121.3734,0.95580065
467620,蘭嶼,2022-03-20,22.037,121.5583,0.005205285
467660,臺東,2022-03-20,22.7522,121.1546,0.27200234
467790,墾丁雷達站,2022-03-20,21.9482,120.808,0.011483868
C0A520,山佳,2022-03-20,24.9749,121.402,0.025442325
C0A530,坪林,2022-03-20,24.9382,121.7097,0.038530678
C0A540,四堵,2022-03-20,24.8926,121.7457,0.046542767
C0A550,泰平,2022-03-20,24.9712,121.8237,0.0697397
C0A560,福山,2022-03-20,24.7762,121.5028,0.056092266
C0A570,桶後,2022-03-20,24.8482,121.598,0.04083583
C0A640,石碇,2022-03-20,24.994,121.6629,0.06827223
C0A650,火燒寮,2022-03-20,25.0027,121.7429,0.040048357
C0A660,瑞芳,2022-03-20,25.1132,121.8011,0.1823251
C0A770,科教館,2022-03-20,25.0964,121.5165,0.033072237
C0A860,大坪,2022-03-20,25.1659,121.633,0.0046970923
C0A880,福隆,2022-03-20,25.0178,121.9421,0.34323478
C0A890,雙溪,2022-03-20,25.036,121.8642,0.09073556
C0A920,富貴角,2022-03-20,25.2638,121.5653,0.0087439045
C0A931,三和,2022-03-20,25.2332,121.5952,0.022874814
C0A940,金山,2022-03-20,25.2236,121.644,0.009045706
C0A950,鼻頭角,2022-03-20,25.129,121.9234,0.36144692
C0A970,三貂角,2022-03-20,25.0076,122.0021,0.18477346
C0A980,社子,2022-03-20,25.1095,121.4697,0.03623743
C0A9C0,天母,2022-03-20,25.1175,121.5372,0.027707435
C0A9F0,內湖,2022-03-20,25.0794,121.5755,0.06283694
C0AC60,三峽,2022-03-20,24.939,121.3697,0.048109435
C0AC70,信義,2022-03-20,25.0378,121.5646,0.06283694
C0AC80,文山,2022-03-20,25.0023,121.5757,0.040188443
C0ACA0,新莊,2022-03-20,25.0515,121.4468,0.026007444
C0AD00,三芝,2022-03-20,25.2581,121.5019,0.0067405794
C0AD10,八里,2022-03-20,25.1502,121.4039,0.020348283
C0AD30,蘆洲,2022-03-20,25.0866,121.4723,0.033072237
C0AD40,土城,2022-03-20,24.9732,121.4452,0.030337492
C0AD50,鶯歌,2022-03-20,24.9515,121.3463,0.013308664
C0AG80,中和,2022-03-20,24.9916,121.4918,0.06283694
C0AH00,汐止,2022-03-20,25.0669,121.6588,0.12716132
C0AH10,永和,2022-03-20,25.0113,121.5081,0.068607464
C0AH40,平等,2022-03-20,25.1291,121.5771,0.019287037
C0AH50,林口,2022-03-20,25.0722,121.3808,0.011774735
C0AH70,松山,2022-03-20,25.0487,121.5504,0.06283694
C0AH80,深坑,2022-03-20,25.0027,121.6283,0.043968543
C0AI00,五股,2022-03-20,25.0744,121.4273,0.008745219
C0AI10,屈尺,2022-03-20,24.9218,121.5447,0.040188443
C0AI20,白沙灣,2022-03-20,25.2831,121.5191,0.0105280485
C0AI30,三重,2022-03-20,25.0573,121.5006,0.033072237
C0AI40,石牌,2022-03-20,25.1156,121.5131,0.030337492
C0AJ20,野柳,2022-03-20,25.207,121.69,0.12716132
C0AJ30,淡水觀海,2022-03-20,25.1846,121.4086,0.022250678
C0AJ40,石門,2022-03-20,25.2737,121.6012,0.0033877962
C0AJ50,水湳洞,2022-03-20,25.1237,121.8622,0.12716132
C0AJ60,六塊厝,2022-03-20,25.24,121.4481,0.022250678
C0AJ70,田寮,2022-03-20,25.2698,121.4886,0.011382847
C0AJ80,板橋,2022-03-20,25.0107,121.4489,0.030337492
C0AJ90,澳底,2022-03-20,25.0552,121.9253,0.34323478
C0B010,七堵,2022-03-20,25.0948,121.7171,0.107767604
C0B020,基隆嶼,2022-03-20,25.1914,121.7839,0.12716132
C0B040,大武崙,2022-03-20,25.1667,121.707,0.10776768
C0B050,八斗子,2022-03-20,25.1448,121.7917,0.1488827
C0B060,暖暖,2022-03-20,25.0957,121.7403,0.06963357
C0C460,復興,2022-03-20,24.8202,121.3523,0.016780077
C0C480,桃園,2022-03-20,24.9924,121.3232,0.014813838
C0C490,八德,2022-03-20,24.9287,121.2833,0.039106064
C0C590,觀音,2022-03-20,25.0271,121.1533,0.007837265
C0C620,蘆竹,2022-03-20,25.0843,121.2658,0.017211383
C0C630,大溪,2022-03-20,24.8829,121.2655,0.025110018
C0C650,平鎮,2022-03-20,24.8975,121.2146,0.008357968
C0C660,楊梅,2022-03-20,24.9124,121.143,0.00673518
C0C670,龍潭,2022-03-20,24.8701,121.2214,0.007550024
C0C680,龜山,2022-03-20,25.0285,121.3866,0.0277224
C0C700,中壢,2022-03-20,24.9777,121.2564,0.012112522
C0C710,大溪永福,2022-03-20,24.8929,121.325,0.013705912
C0C720,竹圍,2022-03-20,25.1127,121.2398,0.020348283
C0C730,中大臨海站,2022-03-20,24.9661,121.0086,0.09630743
C0C740,觀音工業區,2022-03-20,25.0648,121.1149,0.008412142
C0C750,新興坑尾,2022-03-20,25.0061,121.0971,0.0057167574
C0D430,峨眉,2022-03-20,24.6905,121.0172,0.038952164
C0D480,打鐵坑,2022-03-20,24.8497,121.1508,0.017274708
C0D540,橫山,2022-03-20,24.7112,121.1169,0.013584296
C0D560,竹東,2022-03-20,24.7671,121.0579,0.023387983
C0D580,寶山,2022-03-20,24.735,121.0252,0.02409709
C0D590,新豐,2022-03-20,24.8707,120.9772,0.0785967
C0D650,湖口,2022-03-20,24.9048,121.0436,0.036287397
C0D660,新竹市東區,2022-03-20,24.7987,120.9869,0.025254583
C0D670,海天一線,2022-03-20,24.832,120.9144,0.03144019
C0D680,香山濕地,2022-03-20,24.7836,120.915,0.029298272
C0D690,外湖,2022-03-20,24.9177,120.9687,0.09630743
C0D700,關西,2022-03-20,24.7977,121.1732,0.012921976
C0E420,竹南,2022-03-20,24.709,120.8889,0.023252433
C0E430,南庄,2022-03-20,24.6018,121.0002,0.02324623
C0E520,大湖,2022-03-20,24.4149,120.8709,0.012284998
C0E540,後龍,2022-03-20,24.6065,120.7839,0.0071201744
C0E550,明德,2022-03-20,24.5835,120.8854,0.011163952
C0E590,通霄,2022-03-20,24.4719,120.7046,0.0060360283
C0E730,頭份,2022-03-20,24.6882,120.9122,0.023252433
C0E740,造橋,2022-03-20,24.6371,120.8648,0.015107459
C0E750,苗栗,2022-03-20,24.5646,120.8246,0.0055799833
C0E780,銅鑼,2022-03-20,24.4897,120.7909,0.019049598
C0E791,卓蘭,2022-03-20,24.3126,120.8244,0.0110463975
C0E810,西湖,2022-03-20,24.5629,120.7485,0.00612638
C0E820,獅潭,2022-03-20,24.5391,120.92,0.021097708
C0E830,苑裡,2022-03-20,24.4397,120.6531,0.011783156
C0E850,大河,2022-03-20,24.6181,120.9486,0.010126085
C0E870,高鐵苗栗,2022-03-20,24.6073,120.8261,0.0067325365
C0E910,海埔,2022-03-20,24.6488,120.7724,0.01822695
C0E920,通霄漁港,2022-03-20,24.4986,120.6739,0.007728639
C0E930,龍鳳,2022-03-20,24.7,120.8591,0.017595338
C0F000,大肚,2022-03-20,24.153,120.5721,0.009191022
C0F0B0,石岡,2022-03-20,24.2761,120.7776,0.021431295
C0F850,東勢,2022-03-20,24.2464,120.833,0.010020848
C0F930,大甲,2022-03-20,24.3477,120.6404,0.010075518
C0F970,大坑,2022-03-20,24.1731,120.7223,0.006426361
C0F9A0,中竹林,2022-03-20,24.1036,120.7511,0.010965988
C0F9I0,神岡,2022-03-20,24.2725,120.6583,0.010488304
C0F9K0,大安,2022-03-20,24.3451,120.588,0.016979435
C0F9L0,后里,2022-03-20,24.3104,120.7297,0.0065582166
C0F9M0,豐原,2022-03-20,24.2543,120.7207,0.008159915
C0F9N0,大里,2022-03-20,24.0925,120.7014,0.010388461
C0F9O0,潭子,2022-03-20,24.2131,120.7039,0.011298856
C0F9P0,清水,2022-03-20,24.3123,120.5622,0.019357303
C0F9Q0,外埔,2022-03-20,24.3478,120.7057,0.013633827
C0F9R0,龍井,2022-03-20,24.1845,120.529,0.018169647
C0F9S0,烏日,2022-03-20,24.1071,120.6241,0.01435587
C0F9T0,西屯,2022-03-20,24.1795,120.6413,0.00995107
C0F9U0,南屯,2022-03-20,24.137,120.638,0.010388461
C0F9X0,大雅(中科園區),2022-03-20,24.2153,120.6244,0.006582322
C0FA10,松柏,2022-03-20,24.4291,120.6175,0.01418419
C0FA20,溫寮,2022-03-20,24.3722,120.5831,0.01418419
C0FA30,梧棲,2022-03-20,24.256,120.5234,0.018169647
C0FA40,臺中電廠,2022-03-20,24.2146,120.4907,0.018169647
C0FA50,霧峰,2022-03-20,24.0419,120.6995,0.009868564
C0G620,芬園,2022-03-20,24.0157,120.6213,0.011383858
C0G640,鹿港,2022-03-20,24.0753,120.4305,0.016332697
C0G650,員林,2022-03-20,23.9465,120.5856,0.03286337
C0G660,溪湖,2022-03-20,23.9484,120.4791,0.016423417
C0G720,溪州,2022-03-20,23.8516,120.4991,0.037406586
C0G730,二林,2022-03-20,23.9033,120.3761,0.01656853
C0G740,大城,2022-03-20,23.8525,120.3209,0.013379889
C0G770,福興,2022-03-20,24.0413,120.4377,0.016332697
C0G780,秀水,2022-03-20,24.0341,120.5039,0.018237548
C0G800,埔鹽,2022-03-20,24.0004,120.4317,0.016332697
C0G810,埔心,2022-03-20,23.9476,120.5255,0.015633175
C0G820,田尾,2022-03-20,23.9017,120.5094,0.0150363995
C0G830,埤頭,2022-03-20,23.866,120.4528,0.041775808
C0G840,北斗,2022-03-20,23.8776,120.5142,0.0150363995
C0G860,社頭,2022-03-20,23.8976,120.5862,0.030934514
C0G870,芳苑,2022-03-20,23.9223,120.32,0.014125176
C0G880,二水,2022-03-20,23.8107,120.6173,0.096793115
C0G890,伸港,2022-03-20,24.1489,120.4844,0.01727823
C0G900,線西,2022-03-20,24.1434,120.4435,0.015382845
C0G910,花壇,2022-03-20,24.0321,120.5495,0.016308453
C0G920,永靖,2022-03-20,23.9247,120.5475,0.015036392
C0G940,竹塘,2022-03-20,23.8483,120.3868,0.04731633
C0G950,防潮門,2022-03-20,24.1835,120.4871,0.019354578
C0G960,福寶,2022-03-20,24.0443,120.3814,0.017369462
C0G970,三豐,2022-03-20,23.882,120.2895,0.014125176
C0H890,埔里,2022-03-20,23.9722,120.9524,0.056502588
C0H950,中寮,2022-03-20,23.8844,120.7664,0.027321348
C0H960,草屯,2022-03-20,23.9737,120.6809,0.03961718
C0I110,竹山,2022-03-20,23.7612,120.6882,0.03942239
C0I360,水里,2022-03-20,23.8126,120.8498,0.030429972
C0I380,集集,2022-03-20,23.8282,120.8015,0.03496252
C0I410,名間,2022-03-20,23.8371,120.7014,0.10946327
C0I420,國姓,2022-03-20,24.0378,120.8551,0.03260533
C0I460,南投,2022-03-20,23.9115,120.6873,0.06630945
C0K250,崙背,2022-03-20,23.7555,120.3189,0.011505139
C0K280,四湖,2022-03-20,23.6304,120.2271,0.01044618
C0K291,宜梧,2022-03-20,23.5363,120.1693,0.029888177
C0K330,虎尾,2022-03-20,23.7192,120.442,0.0631162
C0K390,土庫,2022-03-20,23.679,120.3956,0.065549195
C0K400,斗六,2022-03-20,23.7206,120.5411,0.16294144
C0K410,北港,2022-03-20,23.574,120.2928,0.023630593
C0K420,西螺,2022-03-20,23.8004,120.4674,0.070924066
C0K430,褒忠,2022-03-20,23.6909,120.3036,0.017966183
C0K440,二崙,2022-03-20,23.7728,120.4089,0.04506819
C0K450,大埤,2022-03-20,23.6461,120.4315,0.082127415
C0K460,斗南,2022-03-20,23.6787,120.4784,0.17680767
C0K470,林內,2022-03-20,23.7487,120.6096,0.14781627
C0K480,莿桐,2022-03-20,23.7612,120.5024,0.06708499
C0K500,元長,2022-03-20,23.6498,120.315,0.014443182
C0K510,水林,2022-03-20,23.5729,120.246,0.018544927
C0K530,臺西,2022-03-20,23.7015,120.1976,0.010372175
C0K550,蔦松,2022-03-20,23.5143,120.2297,0.028618729
C0K560,棋山,2022-03-20,23.6865,120.6034,0.2080602
C0K580,高鐵雲林,2022-03-20,23.7375,120.4179,0.065549195
C0K590,雲林東勢,2022-03-20,23.6742,120.2557,0.017966183
C0K600,箔子寮,2022-03-20,23.6197,120.14,0.019399015
C0M410,馬頭山,2022-03-20,23.3244,120.582,0.033806317
C0M520,東後寮,2022-03-20,23.3699,120.2481,0.024698475
C0M640,中埔,2022-03-20,23.4254,120.5229,0.08929917
C0M650,朴子,2022-03-20,23.4346,120.239,0.03887408
C0M660,溪口,2022-03-20,23.6041,120.4036,0.016854977
C0M670,大林,2022-03-20,23.6006,120.4584,0.04483227
C0M680,太保,2022-03-20,23.4551,120.3315,0.030929888
C0M690,水上,2022-03-20,23.4197,120.3889,0.012301713
C0M700,竹崎,2022-03-20,23.5262,120.5555,0.06751507
C0M710,東石,2022-03-20,23.4589,120.1539,0.028618729
C0M720,番路,2022-03-20,23.4647,120.5542,0.046860013
C0M730,嘉義市東區,2022-03-20,23.4577,120.4605,0.030730577
C0M740,六腳,2022-03-20,23.4929,120.2906,0.03235398
C0M750,布袋,2022-03-20,23.3809,120.1678,0.03887408
C0M760,民雄,2022-03-20,23.5518,120.4285,0.015159933
C0M770,嘉義梅山,2022-03-20,23.5854,120.5556,0.15696391
C0M780,鹿草,2022-03-20,23.4113,120.3084,0.033441465
C0M790,新港,2022-03-20,23.5533,120.3457,0.022282524
C0M800,茶山,2022-03-20,23.2991,120.6648,0.063022666
C0M880,好美里,2022-03-20,23.3364,120.138,0.034637477
C0N010,鯤鯓國小,2022-03-20,23.1879,120.0889,0.048444133
C0N020,城西,2022-03-20,23.0568,120.0956,0.046951152
C0N030,四草,2022-03-20,23.0235,120.1116,0.06746124
C0N040,蘆竹溝,2022-03-20,23.2344,120.0961,0.048444133
C0N050,蚵寮,2022-03-20,23.301,120.1104,0.048444133
C0O810,曾文,2022-03-20,23.2197,120.4973,0.01166129
C0O830,北寮,2022-03-20,23.0796,120.495,0.03352489
C0O840,王爺宮,2022-03-20,23.2221,120.4009,0.01166129
C0O860,大內,2022-03-20,23.1188,120.3608,0.014285607
C0O900,善化,2022-03-20,23.1129,120.2972,0.020119485
C0O930,玉井,2022-03-20,23.126,120.4605,0.028868135
C0O950,安南,2022-03-20,23.0767,120.1449,0.035935476
C0O960,崎頂,2022-03-20,22.9595,120.3693,0.02188798
C0O970,虎頭埤,2022-03-20,23.0214,120.3479,0.026259579
C0O980,新市,2022-03-20,23.0616,120.2982,0.020119485
C0O990,媽廟,2022-03-20,22.9917,120.2935,0.024416488
C0R150,三地門,2022-03-20,22.7099,120.6399,0.09696936
C0R160,鹽埔,2022-03-20,22.7396,120.5308,0.059668567
C0R170,屏東,2022-03-20,22.6603,120.4941,0.046383794
C0R190,赤山,2022-03-20,22.5923,120.6143,0.05907265
C0R220,潮州,2022-03-20,22.5344,120.54,0.054773267
C0R240,來義,2022-03-20,22.5273,120.6251,0.09342595
C0R260,春日,2022-03-20,22.3704,120.6283,0.10680515
C0R270,琉球嶼,2022-03-20,22.3322,120.3622,0.102956615
C0R280,檳榔,2022-03-20,22.0761,120.8368,0.0036537917
C0R320,車城,2022-03-20,22.0744,120.7162,0.024143307
C0R341,牡丹,2022-03-20,22.13,120.7926,0.053147748
C0R350,貓鼻頭,2022-03-20,21.9218,120.7358,0.014488429
C0R470,高樹,2022-03-20,22.8264,120.6008,0.0994677
C0R480,長治,2022-03-20,22.6931,120.5426,0.05749342
C0R490,九如,2022-03-20,22.7405,120.4905,0.044700313
C0R520,崁頂,2022-03-20,22.5148,120.5069,0.047027826
C0R540,佳冬,2022-03-20,22.4195,120.5524,0.04875034
C0R550,新埤,2022-03-20,22.4679,120.5829,0.061486036
C0R560,新園,2022-03-20,22.5434,120.4616,0.047027826
C0R570,麟洛,2022-03-20,22.6508,120.5272,0.044700313
C0R580,南州,2022-03-20,22.4859,120.5027,0.04875034
C0R590,里港,2022-03-20,22.7792,120.4946,0.05163583
C0R620,墾雷,2022-03-20,21.9008,120.8553,0.014488429
C0R640,東港,2022-03-20,22.4625,120.4407,0.044412166
C0R650,竹田,2022-03-20,22.5849,120.5434,0.063833356
C0R660,枋寮,2022-03-20,22.3677,120.5906,0.0595859
C0R670,楓港,2022-03-20,22.1901,120.6922,0.12515606
C0R680,佳樂水,2022-03-20,21.9936,120.8616,0.018484013
C0R690,墾丁,2022-03-20,21.9668,120.8103,0.0032852993
C0R700,枋山,2022-03-20,22.2468,120.6611,0.12515606
C0R710,龍磐,2022-03-20,21.9317,120.8389,0.0055015776
C0R720,旭海,2022-03-20,22.2054,120.8876,0.109089874
C0R730,大坪頂,2022-03-20,22.0246,120.6936,0.0069733523
C0R740,獅子,2022-03-20,22.2016,120.7053,0.10477649
C0R760,南仁湖,2022-03-20,22.0847,120.8634,0.0031763557
C0R770,保力,2022-03-20,22.0711,120.7641,0.008315571
C0R780,滿州,2022-03-20,22.0244,120.8399,0.012889258
C0R790,九棚,2022-03-20,22.142,120.8893,0.14543137
C0R800,丹路,2022-03-20,22.2045,120.751,0.07087171
C0R810,內獅,2022-03-20,22.3051,120.643,0.12919398
C0R830,高士,2022-03-20,22.1218,120.8368,0.0022158732
C0R850,林邊,2022-03-20,22.4634,120.5339,0.047027826
C0R860,鼻頭,2022-03-20,22.1043,120.8979,0.027491648
C0R870,興海,2022-03-20,21.9752,120.8439,0.018484006
C0R880,後壁湖,2022-03-20,21.9457,120.7457,0.027188769
C0R890,山海,2022-03-20,21.9878,120.7091,0.024143307
C0R900,竹坑,2022-03-20,22.1385,120.7022,0.14978066
C0R910,下寮,2022-03-20,22.3929,120.5548,0.04875034
C0R920,塭仔,2022-03-20,22.4169,120.5197,0.050444942
C0R930,萬丹,2022-03-20,22.5885,120.4851,0.06383349
C0R940,加祿堂,2022-03-20,22.3363,120.6217,0.12919398
C0S710,鹿野,2022-03-20,22.9177,121.123,0.06621017
C0S730,綠島,2022-03-20,22.6672,121.4753,0.9344447
C0S740,池上,2022-03-20,23.1196,121.2095,0.14891513
C0S770,大溪山,2022-03-20,22.4785,120.9433,0.14112529
C0S790,金崙,2022-03-20,22.5381,120.9669,0.31835407
C0S810,東河,2022-03-20,22.9727,121.304,0.71620816
C0S830,長濱,2022-03-20,23.2868,121.412,0.09486854
C0S840,南田,2022-03-20,22.2797,120.8892,0.41862977
C0S890,關山,2022-03-20,23.0395,121.175,0.8383679
C0S900,蘭嶼高中,2022-03-20,22.0491,121.5121,0.18972829
C0S910,蘭嶼燈塔,2022-03-20,22.0812,121.5031,0.047621265
C0S920,金峰嘉蘭,2022-03-20,22.5948,120.9608,0.5116473
C0S930,延平,2022-03-20,22.9026,121.0841,0.5496134
C0S940,石寧山,2022-03-20,23.2238,121.4066,0.34007138
C0S950,七塊厝,2022-03-20,22.9545,121.2299,0.049084064
C0S960,香蘭,2022-03-20,22.5876,120.9934,0.6076304
C0S970,加津林,2022-03-20,22.4162,120.9269,0.5658968
C0S990,山豬窟,2022-03-20,22.3186,120.8574,0.026265452
C0SA00,歷坵,2022-03-20,22.521,120.8919,0.09875423
C0SA10,檳榔四格山,2022-03-20,22.81,121.1093,0.04263137
C0SA30,都歷,2022-03-20,23.0203,121.3236,0.9438742
C0SA40,瑞和,2022-03-20,22.9744,121.1567,0.8680142
C0SA60,知本（水試所）,2022-03-20,22.7024,121.0828,0.3564106
C0SA80,土,2022-03-20,22.4531,120.8876,0.4462436
C0SA90,達仁林場,2022-03-20,22.2643,120.824,0.022138087
C0T870,鯉魚潭,2022-03-20,23.9356,121.5089,0.71897465
C0T900,西林,2022-03-20,23.8119,121.4415,0.63359606
C0T960,光復,2022-03-20,23.6607,121.425,0.8145976
C0T9A0,月眉山,2022-03-20,23.8099,121.5398,0.30771726
C0T9D0,和中,2022-03-20,24.2668,121.741,0.97161126
C0T9E0,大坑,2022-03-20,23.8806,121.582,0.3822511
C0T9F0,水璉,2022-03-20,23.7971,121.5425,0.45601577
C0T9I0,豐濱,2022-03-20,23.5839,121.5148,0.7967662
C0T9M0,靜浦,2022-03-20,23.4552,121.495,0.848867
C0T9N0,富里,2022-03-20,23.1716,121.2494,0.04883421
C0U600,礁溪,2022-03-20,24.8175,121.7656,0.30359364
C0U650,玉蘭,2022-03-20,24.6753,121.5871,0.26250538
C0U750,龜山島,2022-03-20,24.8417,121.9531,0.3010823
C0U760,東澳,2022-03-20,24.522,121.8332,0.71665025
C0U770,南澳,2022-03-20,24.4493,121.8102,0.8784748
C0U780,五結,2022-03-20,24.6864,121.7979,0.3949612
C0U860,頭城,2022-03-20,24.8532,121.8308,0.32069206
C0U870,大礁溪,2022-03-20,24.791,121.675,0.034988638
C0U880,北關,2022-03-20,24.9072,121.8734,0.13804619
C0U890,三星,2022-03-20,24.6681,121.653,0.15451385
C0U900,內城,2022-03-20,24.7181,121.6877,0.25434858
C0U910,冬山,2022-03-20,24.6337,121.7937,0.3949614
C0U940,羅東,2022-03-20,24.6818,121.7493,0.37186828
C0U970,大福,2022-03-20,24.8006,121.8139,0.33762708
C0U990,員山,2022-03-20,24.7444,121.7225,0.37186828
C0UA00,土場,2022-03-20,24.5765,121.4953,0.05963403
C0UA80,大溪漁港,2022-03-20,24.9418,121.903,0.30359364
C0UA90,石城,2022-03-20,24.9804,121.9512,0.30903834
C0UB00,淡江大學蘭陽校園,2022-03-20,24.8232,121.7304,0.03921178
C0UB10,蘇澳,2022-03-20,24.5969,121.8571,0.8752246
C0UB20,壯圍,2022-03-20,24.7359,121.8163,0.41499662
C0V250,甲仙,2022-03-20,23.0801,120.5918,0.015300507
C0V260,月眉,2022-03-20,22.971,120.5399,0.034732636
C0V310,美濃,2022-03-20,22.8987,120.5192,0.08571357
C0V350,溪埔,2022-03-20,22.7386,120.4468,0.034572113
C0V360,內門,2022-03-20,22.9755,120.4668,0.062941454
C0V370,古亭坑,2022-03-20,22.8932,120.4019,0.041282505
C0V400,阿公店,2022-03-20,22.8042,120.3555,0.02816145
C0V440,鳳山,2022-03-20,22.6467,120.3561,0.03954551
C0V450,鳳森,2022-03-20,22.5451,120.3926,0.040142413
C0V490,新興,2022-03-20,22.6274,120.2988,0.042604566
C0V530,阿蓮,2022-03-20,22.8832,120.3275,0.032584146
C0V610,梓官,2022-03-20,22.7606,120.2672,0.03640121
C0V620,永安,2022-03-20,22.8231,120.2369,0.032713994
C0V630,茄萣,2022-03-20,22.9066,120.1826,0.049354665
C0V640,湖內,2022-03-20,22.8871,120.2445,0.047148604
C0V650,彌陀,2022-03-20,22.7838,120.2464,0.032713994
C0V660,岡山,2022-03-20,22.7971,120.295,0.036401153
C0V680,仁武,2022-03-20,22.7011,120.3477,0.041096102
C0V690,鼓山,2022-03-20,22.6233,120.2756,0.042604566
C0V700,三民,2022-03-20,22.645,120.3112,0.042604566
C0V710,苓雅,2022-03-20,22.6227,120.3307,0.042604566
C0V720,林園,2022-03-20,22.5077,120.3945,0.042604566
C0V730,大寮,2022-03-20,22.6056,120.3957,0.05060402
C0V740,旗山,2022-03-20,22.8886,120.4836,0.08415688
C0V750,路竹,2022-03-20,22.855,120.2594,0.026284032
C0V760,橋頭,2022-03-20,22.7578,120.3058,0.034840986
C0V770,大社,2022-03-20,22.7303,120.3466,0.041096102
C0V790,萬山,2022-03-20,22.9059,120.6881,0.07938525
C0V800,六龜,2022-03-20,22.9979,120.6336,0.06001658
C0V810,左營,2022-03-20,22.6749,120.2849,0.042900644
C0V820,小林,2022-03-20,23.1484,120.6333,0.0616567
C0V840,鳳鼻頭,2022-03-20,22.5083,120.3591,0.044412166
C0V850,蚵仔寮,2022-03-20,22.7256,120.2527,0.04439055
C0V860,南寮,2022-03-20,22.7616,120.2339,0.034172513
C0V870,文安,2022-03-20,22.8025,120.2164,0.034172513
C0V880,興達,2022-03-20,22.8778,120.2127,0.049354665
C0V890,前鎮,2022-03-20,22.5718,120.3117,0.044412166
C0V900,汕尾,2022-03-20,22.4782,120.4151,0.051010538
C0X050,東河,2022-03-20,23.2966,120.3856,0.033242825
C0X060,下營,2022-03-20,23.2269,120.2563,0.026998457
C0X080,佳里,2022-03-20,23.173,120.1451,0.034637477
C0X100,臺南市北區,2022-03-20,23.0104,120.1942,0.037137732
C0X110,臺南市南區,2022-03-20,22.9612,120.1884,0.035389196
C0X120,麻豆,2022-03-20,23.1833,120.2486,0.032235082
C0X130,官田,2022-03-20,23.1932,120.3154,0.025205238
C0X140,西港,2022-03-20,23.1256,120.2031,0.03913474
C0X150,安定,2022-03-20,23.1026,120.2278,0.02957167
C0X160,仁德,2022-03-20,22.9683,120.2577,0.02548567
C0X170,關廟,2022-03-20,22.963,120.3278,0.021276139
C0X180,山上,2022-03-20,23.0757,120.3633,0.02345883
C0X190,安平,2022-03-20,22.9932,120.1522,0.037137732
C0X200,左鎮,2022-03-20,23.0568,120.4085,0.024528189
C0X210,白河,2022-03-20,23.3475,120.4144,0.029031508
C0X220,學甲,2022-03-20,23.2304,120.1822,0.032235082
C0X230,鹽水,2022-03-20,23.2726,120.2476,0.026881658
C0X240,關子嶺,2022-03-20,23.3312,120.508,0.0119902
C0X250,新營,2022-03-20,23.3107,120.3167,0.023807902
C0X260,後壁,2022-03-20,23.3664,120.3623,0.019097203
C0X280,將軍,2022-03-20,23.215,120.1358,0.034637477
C0X290,北門,2022-03-20,23.2678,120.1255,0.034637477
C0X300,鹿寮,2022-03-20,23.386,120.4773,0.07335799
C0X310,七股,2022-03-20,23.1473,120.0863,0.05732655
C0X320,柳營,2022-03-20,23.2533,120.3753,0.030741451
C0Z020,明里,2022-03-20,23.2087,121.2623,0.13485894
C0Z061,玉里,2022-03-20,23.3215,121.3397,0.39734694
C0Z070,舞鶴,2022-03-20,23.4681,121.3741,0.69351256
C0Z080,富源,2022-03-20,23.5876,121.3782,0.6791158
C0Z100,東華,2022-03-20,23.8953,121.5498,0.8574612
C0Z150,吉安光華,2022-03-20,23.9309,121.5952,0.8695054
C0Z160,鳳林,2022-03-20,23.7461,121.4534,0.8325304
C0Z170,卓溪,2022-03-20,23.3443,121.3029,0.30855587
C0Z180,新城,2022-03-20,24.0395,121.6045,0.6884338
C0Z190,富世,2022-03-20,24.1474,121.6297,0.7929411
C0Z200,萬榮,2022-03-20,23.7092,121.4201,0.71897465
C0Z210,瑞穗,2022-03-20,23.5239,121.3902,0.82117057
C0Z230,和平,2022-03-20,24.3072,121.7701,0.97161126
C0Z270,蕃薯寮,2022-03-20,23.7384,121.5401,0.8125971
C0Z280,德武,2022-03-20,23.4743,121.4107,0.78283924
C0Z300,東里,2022-03-20,23.2685,121.3055,0.351649
C0Z310,清水斷崖,2022-03-20,24.2183,121.6891,0.9476636
C0Z330,安通山,2022-03-20,23.2907,121.3485,0.046496194
