站號,站名,日期,lat,lon,BlastGRU-TW
466881,新北,2022-04-28,24.9593,121.52,0.7771275
466900,淡水,2022-04-28,25.164889,121.448906,0.55615944
466920,臺北,2022-04-28,25.037658,121.514853,0.7946593
467441,高雄,2022-04-28,22.7304,120.3125,0.28131253
467480,嘉義,2022-04-28,23.495925,120.432906,0.41943288
467490,臺中,2022-04-28,24.145736,120.684075,0.25698507
C0A540,四堵,2022-04-28,24.8926,121.745736,0.26719722
C0A550,泰平,2022-04-28,24.971197,121.823711,0.14504148
C0A560,福山,2022-04-28,24.776203,121.502811,0.24488953
C0A931,三和,2022-04-28,25.233153,121.595236,0.19042823
C0A940,金山,2022-04-28,25.223628,121.643967,0.1859164
C0A950,鼻頭角,2022-04-28,25.129036,121.923372,0.6812296
C0AD10,八里,2022-04-28,25.150211,121.403947,0.55615944
C0AD30,蘆洲,2022-04-28,25.086594,121.472331,0.6921606
C0AD40,土城,2022-04-28,24.973208,121.445169,0.6778214
C0AI10,屈尺,2022-04-28,24.92184,121.54475,0.7466541
C0AI20,白沙灣,2022-04-28,25.283128,121.519058,0.22078857
C0AI30,三重,2022-04-28,25.057328,121.500629,0.6921606
C0B010,七堵,2022-04-28,25.094819,121.71713,0.6071976
C0B020,基隆嶼,2022-04-28,25.19141,121.78391,0.63391775
