站號,站名,日期,lat,lon,BlastGRU-TW
466881,新北,2022-09-09,24.9593,121.52,0.11718187
466900,淡水,2022-09-09,25.164889,121.448906,0.20661485
466920,臺北,2022-09-09,25.037658,121.514853,0.10857702
467441,高雄,2022-09-09,22.7304,120.3125,0.10847967
467480,嘉義,2022-09-09,23.495925,120.432906,0.13215834
467490,臺中,2022-09-09,24.145736,120.684075,0.22558041
C0A540,四堵,2022-09-09,24.8926,121.745736,0.13735834
C0A550,泰平,2022-09-09,24.971197,121.823711,0.12897278
C0A560,福山,2022-09-09,24.776203,121.502811,0.060515605
C0A931,三和,2022-09-09,25.233153,121.595236,0.13075134
C0A940,金山,2022-09-09,25.223628,121.643967,0.3147786
C0A950,鼻頭角,2022-09-09,25.129036,121.923372,0.04449313
C0AD10,八里,2022-09-09,25.150211,121.403947,0.20661485
C0AD30,蘆洲,2022-09-09,25.086594,121.472331,0.14460854
C0AD40,土城,2022-09-09,24.973208,121.445169,0.15114637
C0AI10,屈尺,2022-09-09,24.92184,121.54475,0.13255754
C0AI20,白沙灣,2022-09-09,25.283128,121.519058,0.28896898
C0AI30,三重,2022-09-09,25.057328,121.500629,0.14460854
C0B010,七堵,2022-09-09,25.094819,121.71713,0.1996871
C0B020,基隆嶼,2022-09-09,25.19141,121.78391,0.18362279
