站號,站名,日期,lat,lon,BlastGRU-TW
466881,新北,2022-04-20,24.9593,121.52,0.08678727
466900,淡水,2022-04-20,25.164889,121.448906,0.026997115
466920,臺北,2022-04-20,25.037658,121.514853,0.09795035
467350,澎湖,2022-04-20,23.565503,119.563094,1.436333e-05
467410,臺南,2022-04-20,22.993239,120.204772,0.10069574
467420,永康,2022-04-20,23.038386,120.2367,0.10309045
467790,墾丁雷達站,2022-04-20,21.948235,120.808028,0.003885641
C0A520,山佳,2022-04-20,24.974944,121.402008,0.051208742
C0A530,坪林,2022-04-20,24.938183,121.70975,0.058559187
C0A880,福隆,2022-04-20,25.017842,121.942083,0.33416137
C0A890,雙溪,2022-04-20,25.036003,121.864242,0.03913358
C0A920,富貴角,2022-04-20,25.263783,121.565258,0.007128418
C0AC80,文山,2022-04-20,25.00235,121.575728,0.071505204
C0ACA0,新莊,2022-04-20,25.051478,121.446756,0.042156827
C0AD00,三芝,2022-04-20,25.258131,121.501917,0.005790449
C0AH70,松山,2022-04-20,25.04871,121.55042,0.09795035
C0AH80,深坑,2022-04-20,25.002703,121.628328,0.071505204
C0AI00,五股,2022-04-20,25.07445,121.42728,0.01007352
C0AJ70,田寮,2022-04-20,25.2698,121.4886,0.008069862
