站號,站名,日期,lat,lon,BlastGRU-TW
466881,新北,2022-12-18,24.9593,121.52,0.11363378
466900,淡水,2022-12-18,25.164889,121.448906,0.0867006
466920,臺北,2022-12-18,25.037658,121.514853,0.12797727
467441,高雄,2022-12-18,22.7304,120.3125,0.009889549
467480,嘉義,2022-12-18,23.495925,120.432906,0.0062130084
467490,臺中,2022-12-18,24.145736,120.684075,0.0028410964
C0A540,四堵,2022-12-18,24.8926,121.745736,0.13709873
C0A550,泰平,2022-12-18,24.971197,121.823711,0.25301185
C0A560,福山,2022-12-18,24.776203,121.502811,0.22007757
C0A931,三和,2022-12-18,25.233153,121.595236,0.16523865
C0A940,金山,2022-12-18,25.223628,121.643967,0.043786533
C0A950,鼻頭角,2022-12-18,25.129036,121.923372,0.4020927
C0AD10,八里,2022-12-18,25.150211,121.403947,0.0867006
C0AD30,蘆洲,2022-12-18,25.086594,121.472331,0.11476217
C0AD40,土城,2022-12-18,24.973208,121.445169,0.10702577
C0AI10,屈尺,2022-12-18,24.92184,121.54475,0.09356282
C0AI20,白沙灣,2022-12-18,25.283128,121.519058,0.052277427
C0AI30,三重,2022-12-18,25.057328,121.500629,0.11476217
C0B010,七堵,2022-12-18,25.094819,121.71713,0.15219906
C0B020,基隆嶼,2022-12-18,25.19141,121.78391,0.1680031
