站號,站名,日期,lat,lon,BlastTF
12J990,口湖工作站,2022-04-20,23.589978,120.180394,0.5813
12Q970,東港工作站,2022-04-20,22.479997,120.466058,0.764
12Q980,恆春工作站,2022-04-20,22.079678,120.714425,0.6998
466881,新北,2022-04-20,24.9593,121.52,0.14
466900,淡水,2022-04-20,25.164889,121.448906,0.1363
466920,臺北,2022-04-20,25.037658,121.514853,0.1522
466940,基隆,2022-04-20,25.133314,121.740475,0.0923
466990,花蓮,2022-04-20,23.975128,121.613275,0.3498
467050,新屋,2022-04-20,25.006744,121.047486,0.3739
467060,蘇澳,2022-04-20,24.596736,121.857372,0.303
467080,宜蘭,2022-04-20,24.763975,121.756528,0.108
467270,田中,2022-04-20,23.873803,120.581286,0.4927
467300,東吉島,2022-04-20,23.25695,119.667467,0.1814
467350,澎湖,2022-04-20,23.565503,119.563094,0.0919
467410,臺南,2022-04-20,22.993239,120.204772,0.7501
467420,永康,2022-04-20,23.038386,120.2367,0.753
467441,高雄,2022-04-20,22.7304,120.3125,0.7698
467480,嘉義,2022-04-20,23.495925,120.432906,0.5781
467490,臺中,2022-04-20,24.145736,120.684075,0.383
467540,大武,2022-04-20,22.355675,120.903789,0.7553
467571,新竹,2022-04-20,24.827853,121.014219,0.173
467590,恆春,2022-04-20,22.003897,120.746339,0.6785
467610,成功,2022-04-20,23.097486,121.373428,0.5947
467620,蘭嶼,2022-04-20,22.036969,121.558339,0.1792
467660,臺東,2022-04-20,22.752211,121.154586,0.359
467790,墾丁雷達站,2022-04-20,21.948235,120.808028,0.642
72AI40,桃改臺北分場,2022-04-20,24.944503,121.386972,0.1529
72C440,桃園農改,2022-04-20,24.950944,121.030583,0.3512
72D680,桃園農改場新埔工作站,2022-04-20,24.834444,121.066111,0.2441
72G600,臺中農改,2022-04-20,24.003028,120.534389,0.45
72K220,雲林分場,2022-04-20,23.634556,120.477333,0.6145
72M360,義竹分場,2022-04-20,23.360694,120.279361,0.6885
72M700,嘉義分場,2022-04-20,23.416869,120.283061,0.6926
72N100,臺南農改,2022-04-20,23.0605,120.342194,0.6937
72N240,七股研究中心,2022-04-20,23.081672,120.062894,0.7187
72Q010,高雄農改,2022-04-20,22.709333,120.525889,0.7721
72S200,斑鳩分場,2022-04-20,22.829528,121.077694,0.2115
72S590,賓朗農改,2022-04-20,22.813889,121.071278,0.1666
72T250,花蓮農改,2022-04-20,23.975222,121.563889,0.3162
72U480,蘭陽分場,2022-04-20,24.686306,121.716583,0.156
72V140,旗南農改,2022-04-20,22.857861,120.516667,0.6496
82A750,文山茶改,2022-04-20,24.955778,121.631222,0.1712
82C160,茶改場,2022-04-20,24.908472,121.185333,0.1744
82H840,凍頂茶改,2022-04-20,23.762528,120.7405,0.1506
82S580,臺東茶改,2022-04-20,22.907694,121.130139,0.231
A2C560,農工中心,2022-04-20,24.985917,121.239833,0.0871
A2K360,臺西水試所,2022-04-20,23.717231,120.190522,0.5179
A2K570,古坑花卉中心,2022-04-20,23.63353,120.55239,0.4559
A2K630,臺大雲林校區,2022-04-20,23.730628,120.423903,0.5696
A2N290,臺南蘭花園區,2022-04-20,23.340258,120.379661,0.5611
B2E890,新竹畜試,2022-04-20,24.527806,120.770972,0.1449
B2N890,畜試所,2022-04-20,23.058972,120.336406,0.6937
B2Q810,恆春畜試,2022-04-20,21.945583,120.802167,0.6847
B2U990,宜蘭畜試,2022-04-20,24.669039,121.832561,0.1694
C0A520,山佳,2022-04-20,24.974944,121.402008,0.1529
C0A530,坪林,2022-04-20,24.938183,121.70975,0.0697
C0A540,四堵,2022-04-20,24.8926,121.745736,0.0335
C0A550,泰平,2022-04-20,24.971197,121.823711,0.0297
C0A560,福山,2022-04-20,24.776203,121.502811,0.1712
C0A570,桶後,2022-04-20,24.848222,121.597992,0.0578
C0A640,石碇,2022-04-20,24.993969,121.662917,0.0553
C0A650,火燒寮,2022-04-20,25.002719,121.742892,0.0462
C0A660,瑞芳,2022-04-20,25.113169,121.801147,0.0704
C0A770,科教館,2022-04-20,25.096356,121.516507,0.1713
C0A860,大坪,2022-04-20,25.165914,121.632969,0.0388
C0A880,福隆,2022-04-20,25.017842,121.942083,0.1101
C0A890,雙溪,2022-04-20,25.036003,121.864242,0.0729
C0A920,富貴角,2022-04-20,25.263783,121.565258,0.0463
C0A931,三和,2022-04-20,25.233153,121.595236,0.0982
C0A940,金山,2022-04-20,25.223628,121.643967,0.0535
C0A950,鼻頭角,2022-04-20,25.129036,121.923372,0.1162
C0A970,三貂角,2022-04-20,25.007606,122.002058,0.0826
C0A980,社子,2022-04-20,25.109508,121.469681,0.18
C0A9C0,天母,2022-04-20,25.117494,121.537169,0.1578
C0A9F0,內湖,2022-04-20,25.079422,121.57545,0.1522
C0AC60,三峽,2022-04-20,24.939025,121.369728,0.1335
C0AC70,信義,2022-04-20,25.037822,121.564597,0.1522
C0AC80,文山,2022-04-20,25.00235,121.575728,0.1226
C0ACA0,新莊,2022-04-20,25.051478,121.446756,0.1433
C0AD00,三芝,2022-04-20,25.258131,121.501917,0.0444
C0AD10,八里,2022-04-20,25.150211,121.403947,0.1363
C0AD30,蘆洲,2022-04-20,25.086594,121.472331,0.1713
C0AD40,土城,2022-04-20,24.973208,121.445169,0.166
C0AD50,鶯歌,2022-04-20,24.951533,121.346294,0.1374
C0AG80,中和,2022-04-20,24.991622,121.491792,0.1522
C0AH00,汐止,2022-04-20,25.066881,121.658778,0.0873
C0AH10,永和,2022-04-20,25.01125,121.508111,0.1579
C0AH40,平等,2022-04-20,25.129142,121.577086,0.0525
C0AH50,林口,2022-04-20,25.072181,121.38084,0.0398
C0AH70,松山,2022-04-20,25.04871,121.55042,0.1522
C0AH80,深坑,2022-04-20,25.002703,121.628328,0.1226
C0AI00,五股,2022-04-20,25.07445,121.42728,0.0571
C0AI10,屈尺,2022-04-20,24.92184,121.54475,0.1226
C0AI20,白沙灣,2022-04-20,25.283128,121.519058,0.0587
C0AI30,三重,2022-04-20,25.057328,121.500629,0.1713
C0AI40,石牌,2022-04-20,25.115597,121.513139,0.166
C0AJ10,澳底,2022-04-20,25.057107,121.927272,0.1201
C0AJ20,野柳,2022-04-20,25.20703,121.690021,0.0873
C0AJ30,淡水觀海,2022-04-20,25.184591,121.408616,0.1391
C0AJ40,石門,2022-04-20,25.273672,121.601198,0.0278
C0AJ50,水湳洞,2022-04-20,25.123695,121.862238,0.0873
C0AJ60,六塊厝,2022-04-20,25.24,121.4481,0.1391
C0AJ70,田寮,2022-04-20,25.2698,121.4886,0.0617
C0AJ80,板橋,2022-04-20,25.0107,121.4489,0.166
C0B010,七堵,2022-04-20,25.094819,121.71713,0.0798
C0B020,基隆嶼,2022-04-20,25.19141,121.78391,0.0873
C0B040,大武崙,2022-04-20,25.166676,121.706993,0.0798
C0B050,八斗子,2022-04-20,25.144754,121.79167,0.0955
C0B060,暖暖,2022-04-20,25.0957,121.7403,0.0643
C0C460,復興,2022-04-20,24.820208,121.352281,0.1366
C0C480,桃園,2022-04-20,24.992425,121.323172,0.1132
C0C490,八德,2022-04-20,24.928708,121.283289,0.1778
C0C590,觀音,2022-04-20,25.027072,121.153317,0.1108
C0C620,蘆竹,2022-04-20,25.084275,121.265767,0.1251
C0C630,大溪,2022-04-20,24.882853,121.265547,0.2443
C0C650,平鎮,2022-04-20,24.897503,121.214636,0.1744
C0C660,楊梅,2022-04-20,24.912375,121.143047,0.1518
C0C670,龍潭,2022-04-20,24.870056,121.221389,0.1329
C0C680,龜山,2022-04-20,25.02846,121.38656,0.2343
C0C700,中壢,2022-04-20,24.977661,121.256375,0.1015
C0C710,大溪永福,2022-04-20,24.892936,121.324975,0.0812
C0C720,竹圍,2022-04-20,25.112692,121.239824,0.1363
C0C730,中大臨海站,2022-04-20,24.966126,121.008581,0.4093
C0C740,觀音工業區,2022-04-20,25.064764,121.114856,0.0857
C0C750,新興坑尾,2022-04-20,25.0061,121.0971,0.0684
C0D390,關西,2022-04-20,24.798228,121.173947,0.2202
C0D430,峨眉,2022-04-20,24.6905,121.017189,0.2193
C0D480,打鐵坑,2022-04-20,24.849664,121.150789,0.1889
C0D540,橫山,2022-04-20,24.71116,121.11693,0.1055
C0D560,竹東,2022-04-20,24.767147,121.057881,0.1855
C0D580,寶山,2022-04-20,24.735006,121.025192,0.1615
C0D590,新豐,2022-04-20,24.87068,120.97721,0.3688
C0D650,湖口,2022-04-20,24.904794,121.043628,0.2978
C0D660,新竹市東區,2022-04-20,24.798681,120.986942,0.1594
C0D670,海天一線,2022-04-20,24.831986,120.914438,0.1885
C0D680,香山濕地,2022-04-20,24.783581,120.914988,0.1807
C0D690,外湖,2022-04-20,24.917735,120.968711,0.4093
C0E420,竹南,2022-04-20,24.708978,120.888897,0.1602
C0E430,南庄,2022-04-20,24.601775,121.000214,0.1357
C0E520,大湖,2022-04-20,24.41494,120.87087,0.1267
C0E540,後龍,2022-04-20,24.606489,120.783933,0.1584
C0E550,明德,2022-04-20,24.583486,120.885411,0.1093
C0E590,通霄,2022-04-20,24.471892,120.704622,0.1709
C0E730,頭份,2022-04-20,24.688247,120.912206,0.1602
C0E740,造橋,2022-04-20,24.637056,120.864778,0.1556
C0E750,苗栗,2022-04-20,24.564569,120.824575,0.1369
C0E780,銅鑼,2022-04-20,24.489681,120.790853,0.1828
C0E791,卓蘭,2022-04-20,24.3126,120.8244,0.1653
C0E810,西湖,2022-04-20,24.562947,120.7485,0.1388
C0E820,獅潭,2022-04-20,24.539133,120.920042,0.1484
C0E830,苑裡,2022-04-20,24.439714,120.653053,0.271
C0E850,大河,2022-04-20,24.618069,120.948578,0.1001
C0E870,高鐵苗栗,2022-04-20,24.60725,120.826094,0.1499
C0E910,海埔,2022-04-20,24.648767,120.772435,0.1628
C0E920,通霄漁港,2022-04-20,24.498589,120.673876,0.21
C0E930,龍鳳,2022-04-20,24.700034,120.859125,0.1762
C0F000,大肚,2022-04-20,24.15295,120.572117,0.1202
C0F0B0,石岡,2022-04-20,24.276061,120.777644,0.2023
C0F850,東勢,2022-04-20,24.246428,120.833047,0.1515
C0F930,大甲,2022-04-20,24.347667,120.640403,0.2744
C0F970,大坑,2022-04-20,24.173142,120.722289,0.2828
C0F9A0,中竹林,2022-04-20,24.103556,120.751061,0.133
C0F9I0,神岡,2022-04-20,24.272481,120.658314,0.1825
C0F9K0,大安,2022-04-20,24.345061,120.588025,0.3727
C0F9L0,后里,2022-04-20,24.310436,120.729725,0.131
C0F9M0,豐原,2022-04-20,24.254322,120.720692,0.155
C0F9N0,大里,2022-04-20,24.092464,120.701378,0.4608
C0F9O0,潭子,2022-04-20,24.213106,120.703933,0.2154
C0F9P0,清水,2022-04-20,24.312297,120.562242,0.3959
C0F9Q0,外埔,2022-04-20,24.347817,120.705686,0.2194
C0F9R0,龍井,2022-04-20,24.184536,120.528972,0.3838
C0F9S0,烏日,2022-04-20,24.107058,120.624103,0.4906
C0F9T0,西屯,2022-04-20,24.179494,120.641275,0.3368
C0F9U0,南屯,2022-04-20,24.137006,120.637969,0.4608
C0F9X0,大雅(中科園區),2022-04-20,24.21528,120.62445,0.2555
C0FA10,松柏,2022-04-20,24.429115,120.617482,0.299
C0FA20,溫寮,2022-04-20,24.372177,120.583125,0.299
C0FA30,梧棲,2022-04-20,24.256003,120.523381,0.3838
C0FA40,臺中電廠,2022-04-20,24.2146,120.4907,0.3838
C0G620,芬園,2022-04-20,24.015678,120.6213,0.3957
C0G640,鹿港,2022-04-20,24.0753,120.430481,0.365
C0G650,員林,2022-04-20,23.946503,120.585597,0.4864
C0G660,溪湖,2022-04-20,23.94835,120.479122,0.3907
C0G720,溪州,2022-04-20,23.851589,120.499093,0.3741
C0G730,二林,2022-04-20,23.903325,120.376081,0.3333
C0G740,大城,2022-04-20,23.852487,120.320935,0.4126
C0G770,福興,2022-04-20,24.041289,120.437669,0.365
C0G780,秀水,2022-04-20,24.03405,120.503869,0.4609
C0G800,埔鹽,2022-04-20,24.000394,120.431683,0.365
C0G810,埔心,2022-04-20,23.947633,120.525456,0.3806
C0G820,田尾,2022-04-20,23.901669,120.509389,0.3676
C0G830,埤頭,2022-04-20,23.866003,120.452806,0.3973
C0G840,北斗,2022-04-20,23.877586,120.514222,0.3676
C0G860,社頭,2022-04-20,23.897647,120.5862,0.4752
C0G870,芳苑,2022-04-20,23.922303,120.320025,0.4264
C0G880,二水,2022-04-20,23.810742,120.6173,0.428
C0G890,伸港,2022-04-20,24.148933,120.484403,0.4421
C0G900,線西,2022-04-20,24.143358,120.443536,0.3848
C0G910,花壇,2022-04-20,24.032076,120.549461,0.4367
C0G920,永靖,2022-04-20,23.924703,120.547533,0.3676
C0G940,竹塘,2022-04-20,23.848253,120.386764,0.4669
C0G950,防潮門,2022-04-20,24.1835,120.4871,0.3978
C0G960,福寶,2022-04-20,24.0443,120.3814,0.3796
C0G970,三豐,2022-04-20,23.882,120.2895,0.4264
C0H890,埔里,2022-04-20,23.972169,120.952425,0.3135
C0H950,中寮,2022-04-20,23.884447,120.766406,0.2601
C0H960,草屯,2022-04-20,23.973672,120.68085,0.4032
C0I110,竹山,2022-04-20,23.761225,120.688156,0.3087
C0I360,水里,2022-04-20,23.812553,120.849792,0.2593
C0I380,集集,2022-04-20,23.828206,120.801467,0.2786
C0I410,名間,2022-04-20,23.837053,120.701447,0.3908
C0I420,國姓,2022-04-20,24.037803,120.855072,0.2602
C0I460,南投,2022-04-20,23.911469,120.687331,0.3878
C0K250,崙背,2022-04-20,23.75555,120.318925,0.4482
C0K280,四湖,2022-04-20,23.630414,120.227125,0.5422
C0K291,宜梧,2022-04-20,23.536281,120.169329,0.6589
C0K330,虎尾,2022-04-20,23.719183,120.442036,0.5582
C0K390,土庫,2022-04-20,23.679029,120.395574,0.5696
C0K400,斗六,2022-04-20,23.720583,120.541127,0.5429
C0K410,北港,2022-04-20,23.573957,120.292802,0.6645
C0K420,西螺,2022-04-20,23.800407,120.467394,0.4164
C0K430,褒忠,2022-04-20,23.690938,120.303634,0.5905
C0K440,二崙,2022-04-20,23.772797,120.408944,0.4573
C0K450,大埤,2022-04-20,23.646074,120.431537,0.6311
C0K460,斗南,2022-04-20,23.678734,120.478359,0.5671
C0K470,林內,2022-04-20,23.748675,120.609642,0.5428
C0K480,莿桐,2022-04-20,23.761192,120.502372,0.4092
C0K500,元長,2022-04-20,23.64981,120.315024,0.6439
C0K510,水林,2022-04-20,23.572924,120.24597,0.5646
C0K530,臺西,2022-04-20,23.701547,120.197559,0.5081
C0K550,蔦松,2022-04-20,23.514319,120.229736,0.6486
C0K560,棋山,2022-04-20,23.68645,120.603417,0.5458
C0K580,高鐵雲林,2022-04-20,23.737456,120.417944,0.5696
C0K590,雲林東勢,2022-04-20,23.674192,120.255721,0.5905
C0K600,箔子寮,2022-04-20,23.6197,120.14,0.5813
C0M410,馬頭山,2022-04-20,23.324361,120.582017,0.2406
C0M520,東後寮,2022-04-20,23.369908,120.248065,0.6708
C0M640,中埔,2022-04-20,23.42538,120.5229,0.418
C0M650,朴子,2022-04-20,23.43463,120.23902,0.6779
C0M660,溪口,2022-04-20,23.604131,120.403569,0.6407
C0M670,大林,2022-04-20,23.600616,120.45841,0.6148
C0M680,太保,2022-04-20,23.455062,120.331455,0.7127
C0M690,水上,2022-04-20,23.419734,120.388909,0.5303
C0M700,竹崎,2022-04-20,23.526178,120.555508,0.3844
C0M710,東石,2022-04-20,23.458927,120.15385,0.6486
C0M720,番路,2022-04-20,23.464657,120.554156,0.3178
C0M730,嘉義市東區,2022-04-20,23.457673,120.460531,0.5256
C0M740,六腳,2022-04-20,23.492871,120.290625,0.7171
C0M750,布袋,2022-04-20,23.380878,120.167789,0.6779
C0M760,民雄,2022-04-20,23.551754,120.428457,0.6179
C0M770,嘉義梅山,2022-04-20,23.585398,120.555587,0.4937
C0M780,鹿草,2022-04-20,23.41134,120.30835,0.6838
C0M790,新港,2022-04-20,23.553269,120.345728,0.6513
C0M800,茶山,2022-04-20,23.299075,120.664767,0.3249
C0M880,好美里,2022-04-20,23.3364,120.138,0.6982
C0N010,鯤鯓國小,2022-04-20,23.1879,120.0889,0.6927
C0N020,城西,2022-04-20,23.0568,120.0956,0.715
C0N030,四草,2022-04-20,23.0235,120.1116,0.7499
C0N040,蘆竹溝,2022-04-20,23.2344,120.0961,0.6927
C0N050,蚵寮,2022-04-20,23.301,120.1104,0.6927
C0O810,曾文,2022-04-20,23.219681,120.497328,0.3636
C0O830,北寮,2022-04-20,23.079561,120.495008,0.4026
C0O840,王爺宮,2022-04-20,23.222064,120.40085,0.3636
C0O860,大內,2022-04-20,23.11885,120.36083,0.5339
C0O900,善化,2022-04-20,23.112883,120.297219,0.7248
C0O930,玉井,2022-04-20,23.126042,120.46055,0.5138
C0O950,安南,2022-04-20,23.076694,120.144861,0.7078
C0O960,崎頂,2022-04-20,22.959547,120.369317,0.4713
C0O970,虎頭埤,2022-04-20,23.021375,120.347878,0.7217
C0O980,新市,2022-04-20,23.061614,120.298197,0.7248
C0O990,媽廟,2022-04-20,22.99175,120.293525,0.7465
C0R150,三地門,2022-04-20,22.709889,120.639944,0.7722
C0R160,鹽埔,2022-04-20,22.739558,120.530778,0.7721
C0R170,屏東,2022-04-20,22.660269,120.494072,0.7692
C0R190,赤山,2022-04-20,22.592333,120.614306,0.7747
C0R220,潮州,2022-04-20,22.534361,120.54,0.767
C0R240,來義,2022-04-20,22.527306,120.625111,0.7663
C0R260,春日,2022-04-20,22.370361,120.628306,0.7672
C0R270,琉球嶼,2022-04-20,22.332244,120.362236,0.7669
C0R280,檳榔,2022-04-20,22.076078,120.836777,0.4811
C0R320,車城,2022-04-20,22.0744,120.716247,0.6998
C0R341,牡丹,2022-04-20,22.130036,120.792639,0.5074
C0R350,貓鼻頭,2022-04-20,21.921774,120.7358,0.6642
C0R470,高樹,2022-04-20,22.826389,120.600806,0.7642
C0R480,長治,2022-04-20,22.693128,120.542622,0.7724
C0R490,九如,2022-04-20,22.7405,120.490503,0.7695
C0R510,萬丹,2022-04-20,22.587775,120.490394,0.7751
C0R520,崁頂,2022-04-20,22.514781,120.506914,0.7625
C0R540,佳冬,2022-04-20,22.419456,120.552375,0.764
C0R550,新埤,2022-04-20,22.467947,120.582894,0.7747
C0R560,新園,2022-04-20,22.5434,120.461558,0.7625
C0R570,麟洛,2022-04-20,22.65078,120.52719,0.7695
C0R580,南州,2022-04-20,22.48591,120.50274,0.764
C0R590,里港,2022-04-20,22.77919,120.49459,0.7577
C0R620,墾雷,2022-04-20,21.900836,120.855269,0.6642
C0R640,東港,2022-04-20,22.46247,120.44074,0.7691
C0R650,竹田,2022-04-20,22.58486,120.54344,0.7751
C0R660,枋寮,2022-04-20,22.367722,120.590647,0.7674
C0R670,楓港,2022-04-20,22.190131,120.692156,0.7482
C0R680,佳樂水,2022-04-20,21.993578,120.861633,0.6847
C0R690,墾丁,2022-04-20,21.966756,120.810269,0.4566
C0R700,枋山,2022-04-20,22.246844,120.661086,0.7482
C0R710,龍磐,2022-04-20,21.931672,120.838942,0.5635
C0R720,旭海,2022-04-20,22.205403,120.887614,0.6365
C0R730,大坪頂,2022-04-20,22.024633,120.69355,0.5938
C0R740,獅子,2022-04-20,22.201569,120.70525,0.7469
C0R760,南仁湖,2022-04-20,22.084681,120.863353,0.4352
C0R770,保力,2022-04-20,22.071122,120.764111,0.6111
C0R780,滿州,2022-04-20,22.024403,120.839892,0.6567
C0R790,九棚,2022-04-20,22.14195,120.889281,0.6816
C0R800,丹路,2022-04-20,22.204481,120.750989,0.7184
C0R810,內獅,2022-04-20,22.305064,120.642986,0.7685
C0R830,高士,2022-04-20,22.121825,120.836781,0.3532
C0R850,林邊,2022-04-20,22.4634,120.5339,0.7625
C0R860,鼻頭,2022-04-20,22.1043,120.8979,0.6885
C0R870,興海,2022-04-20,21.9752,120.8439,0.6847
C0R880,後壁湖,2022-04-20,21.9457,120.7457,0.7091
C0R890,山海,2022-04-20,21.9878,120.7091,0.6998
C0R900,竹坑,2022-04-20,22.1385,120.7022,0.6981
C0R910,下寮,2022-04-20,22.3929,120.5548,0.764
C0R920,塭仔,2022-04-20,22.4169,120.5197,0.763
C0R940,加祿堂,2022-04-20,22.3363,120.6217,0.7685
C0S710,鹿野,2022-04-20,22.917711,121.122994,0.0948
C0S730,綠島,2022-04-20,22.6672,121.47533,0.4807
C0S740,池上,2022-04-20,23.119628,121.209469,0.1588
C0S770,大溪山,2022-04-20,22.478475,120.943325,0.4347
C0S790,金崙,2022-04-20,22.538122,120.966875,0.6906
C0S810,東河,2022-04-20,22.972672,121.303986,0.4109
C0S830,長濱,2022-04-20,23.286817,121.411975,0.0839
C0S840,南田,2022-04-20,22.279725,120.889208,0.7453
C0S890,關山,2022-04-20,23.0395,121.175017,0.3177
C0S900,蘭嶼高中,2022-04-20,22.04909,121.51214,0.6085
C0S910,蘭嶼燈塔,2022-04-20,22.081197,121.503117,0.4388
C0S920,金峰嘉蘭,2022-04-20,22.594789,120.960825,0.7508
C0S930,延平,2022-04-20,22.902581,121.084058,0.3098
C0S940,石寧山,2022-04-20,23.223772,121.406639,0.1671
C0S950,七塊厝,2022-04-20,22.954453,121.229922,0.0793
C0S960,香蘭,2022-04-20,22.587569,120.993375,0.7535
C0S970,加津林,2022-04-20,22.416211,120.926942,0.7555
C0S990,山豬窟,2022-04-20,22.318619,120.857372,0.4668
C0SA00,歷坵,2022-04-20,22.520969,120.89185,0.3419
C0SA10,檳榔四格山,2022-04-20,22.810031,121.109308,0.1148
C0SA30,都歷,2022-04-20,23.020333,121.323642,0.5223
C0SA40,瑞和,2022-04-20,22.974361,121.156697,0.3549
C0SA60,知本（水試所）,2022-04-20,22.702394,121.082761,0.5534
C0SA80,土坂,2022-04-20,22.453108,120.887572,0.7434
C0SA90,達仁林場,2022-04-20,22.264347,120.823972,0.4948
C0T870,鯉魚潭,2022-04-20,23.935639,121.508944,0.2578
C0T900,西林,2022-04-20,23.8119,121.441458,0.212
C0T960,光復,2022-04-20,23.660694,121.424964,0.2864
C0T9A0,月眉山,2022-04-20,23.809928,121.539828,0.0695
C0T9D0,和中,2022-04-20,24.26676,121.74103,0.3558
C0T9E0,大坑,2022-04-20,23.880628,121.581981,0.1135
C0T9F0,水璉,2022-04-20,23.797131,121.542514,0.13
C0T9I0,豐濱,2022-04-20,23.583897,121.514806,0.2309
C0T9M0,靜浦,2022-04-20,23.455167,121.495028,0.3075
C0T9N0,富里,2022-04-20,23.171639,121.249378,0.0998
C0U600,礁溪,2022-04-20,24.817539,121.765608,0.1031
C0U650,玉蘭,2022-04-20,24.675286,121.587061,0.0279
C0U750,龜山島,2022-04-20,24.841667,121.953133,0.0518
C0U760,東澳,2022-04-20,24.52196,121.83318,0.1699
C0U770,南澳,2022-04-20,24.44935,121.81022,0.2507
C0U780,五結,2022-04-20,24.68637,121.79794,0.1694
C0U860,頭城,2022-04-20,24.85323,121.8308,0.108
C0U870,大礁溪,2022-04-20,24.791042,121.675047,0.1029
C0U880,北關,2022-04-20,24.9072,121.8734,0.0856
C0U890,三星,2022-04-20,24.66812,121.65302,0.0662
C0U900,內城,2022-04-20,24.71813,121.68766,0.0906
C0U910,冬山,2022-04-20,24.63373,121.7937,0.1694
C0U940,羅東,2022-04-20,24.68184,121.74934,0.1657
C0U970,大福,2022-04-20,24.80064,121.81389,0.1125
C0U990,員山,2022-04-20,24.74435,121.72247,0.1657
C0UA00,土場,2022-04-20,24.576533,121.495333,0.1216
C0UA80,大溪漁港,2022-04-20,24.941801,121.902955,0.1031
C0UA90,石城,2022-04-20,24.980444,121.951214,0.1176
C0UB00,淡江大學蘭陽校園,2022-04-20,24.823239,121.730383,0.0455
C0UB20,壯圍,2022-04-20,24.7359,121.8163,0.1797
C0V250,甲仙,2022-04-20,23.080106,120.591758,0.2467
C0V260,月眉,2022-04-20,22.971003,120.539853,0.472
C0V310,美濃,2022-04-20,22.898742,120.519153,0.6882
C0V350,溪埔,2022-04-20,22.738578,120.446797,0.7684
C0V360,內門,2022-04-20,22.975481,120.466769,0.5498
C0V370,古亭坑,2022-04-20,22.893178,120.401947,0.6818
C0V400,阿公店,2022-04-20,22.804194,120.355528,0.7621
C0V440,鳳山,2022-04-20,22.646653,120.356122,0.77
C0V450,鳳森,2022-04-20,22.545064,120.392592,0.7724
C0V490,新興,2022-04-20,22.627422,120.298803,0.7704
C0V530,阿蓮,2022-04-20,22.883208,120.327508,0.7659
C0V610,梓官,2022-04-20,22.760558,120.267211,0.767
C0V620,永安,2022-04-20,22.82315,120.236856,0.7656
C0V630,茄萣,2022-04-20,22.906642,120.182608,0.7617
C0V640,湖內,2022-04-20,22.887139,120.2445,0.7618
C0V650,彌陀,2022-04-20,22.783806,120.246361,0.7656
C0V660,岡山,2022-04-20,22.797078,120.294958,0.767
C0V680,仁武,2022-04-20,22.701083,120.347722,0.7696
C0V690,鼓山,2022-04-20,22.623325,120.275575,0.7704
C0V700,三民,2022-04-20,22.645017,120.311233,0.7704
C0V710,苓雅,2022-04-20,22.622742,120.330669,0.7704
C0V720,林園,2022-04-20,22.507747,120.394511,0.7704
C0V730,大寮,2022-04-20,22.605614,120.395717,0.772
C0V740,旗山,2022-04-20,22.888614,120.483597,0.6785
C0V750,路竹,2022-04-20,22.854997,120.259439,0.767
C0V760,橋頭,2022-04-20,22.757806,120.30575,0.7679
C0V770,大社,2022-04-20,22.730306,120.346639,0.7696
C0V790,萬山,2022-04-20,22.905944,120.688056,0.388
C0V800,六龜,2022-04-20,22.997889,120.633583,0.4908
C0V810,左營,2022-04-20,22.67491,120.28491,0.7698
C0V820,小林,2022-04-20,23.148408,120.63325,0.3095
C0V840,鳳鼻頭,2022-04-20,22.5083,120.3591,0.7691
C0V850,蚵仔寮,2022-04-20,22.7256,120.2527,0.77
C0V860,南寮,2022-04-20,22.7616,120.2339,0.7655
C0V870,文安,2022-04-20,22.8025,120.2164,0.7655
C0V880,興達,2022-04-20,22.8778,120.2127,0.7617
C0V890,前鎮,2022-04-20,22.5722,120.3112,0.7691
C0V900,汕尾,2022-04-20,22.4782,120.4151,0.7722
C0X050,東河,2022-04-20,23.296598,120.385608,0.5611
C0X060,下營,2022-04-20,23.22695,120.256261,0.6997
C0X080,佳里,2022-04-20,23.173039,120.145086,0.6982
C0X100,臺南市北區,2022-04-20,23.010394,120.194228,0.7534
C0X110,臺南市南區,2022-04-20,22.961189,120.188378,0.753
C0X120,麻豆,2022-04-20,23.183289,120.248611,0.6861
C0X130,官田,2022-04-20,23.193217,120.315422,0.6787
C0X140,西港,2022-04-20,23.125608,120.203108,0.7301
C0X150,安定,2022-04-20,23.102614,120.227839,0.7319
C0X160,仁德,2022-04-20,22.968258,120.257689,0.7499
C0X170,關廟,2022-04-20,22.963017,120.327797,0.7322
C0X180,山上,2022-04-20,23.0757,120.363253,0.5057
C0X190,安平,2022-04-20,22.993161,120.152181,0.7534
C0X200,左鎮,2022-04-20,23.056758,120.408522,0.5201
C0X210,白河,2022-04-20,23.347466,120.414427,0.5468
C0X220,學甲,2022-04-20,23.230367,120.182187,0.6861
C0X230,鹽水,2022-04-20,23.272621,120.247641,0.6735
C0X240,關子嶺,2022-04-20,23.331169,120.508025,0.1653
C0X250,新營,2022-04-20,23.310689,120.316681,0.6961
C0X260,後壁,2022-04-20,23.366358,120.362326,0.5605
C0X280,將軍,2022-04-20,23.214999,120.13577,0.6982
C0X290,北門,2022-04-20,23.267772,120.125481,0.6982
C0X300,鹿寮,2022-04-20,23.386047,120.477331,0.49
C0X310,七股,2022-04-20,23.147289,120.086253,0.7062
C0X320,柳營,2022-04-20,23.253328,120.375253,0.5468
C0Z020,明里,2022-04-20,23.208717,121.262342,0.1002
C0Z061,玉里,2022-04-20,23.3215,121.339656,0.1559
C0Z070,舞鶴,2022-04-20,23.46811,121.37407,0.182
C0Z080,富源,2022-04-20,23.587642,121.378225,0.198
C0Z100,東華,2022-04-20,23.89525,121.549833,0.4081
C0Z150,吉安光華,2022-04-20,23.930925,121.595153,0.4414
C0Z160,鳳林,2022-04-20,23.746114,121.453411,0.3069
C0Z170,卓溪,2022-04-20,23.3443,121.3029,0.1318
C0Z180,新城,2022-04-20,24.03946,121.60454,0.3279
C0Z190,富世,2022-04-20,24.14743,121.6297,0.1398
C0Z200,萬榮,2022-04-20,23.709219,121.420106,0.2578
C0Z210,瑞穗,2022-04-20,23.5239,121.39021,0.2592
C0Z230,和平,2022-04-20,24.30717,121.77007,0.3558
C0Z270,蕃薯寮,2022-04-20,23.73835,121.540108,0.3381
C0Z280,德武,2022-04-20,23.47426,121.41071,0.2388
C0Z300,東里,2022-04-20,23.26853,121.30547,0.1434
C0Z310,清水斷崖,2022-04-20,24.218294,121.689142,0.2344
C0Z330,安通山,2022-04-20,23.290728,121.348528,0.077
C1A750,石碇服務區,2022-04-20,25.00872,121.646242,0.1125
C1A760,坪林交控,2022-04-20,24.94284,121.713442,0.1628
C1A9N0,四十份,2022-04-20,24.934158,121.593283,0.0809
C1AC50,關渡,2022-04-20,25.133486,121.469331,0.0906
C1AI50,國三N016K,2022-04-20,25.034164,121.619664,0.1286
C1AI60,國一N039K,2022-04-20,25.064361,121.383836,0.1201
C1C510,水尾,2022-04-20,24.940081,121.087161,0.1221
C1D380,新埔,2022-04-20,24.84745,121.03834,0.1238
C1D630,飛鳳山,2022-04-20,24.766464,121.119178,0.094
C1E511,新開,2022-04-20,24.347703,120.827019,0.1725
C1E601,南勢,2022-04-20,24.572486,120.734842,0.1108
C1E770,公館,2022-04-20,24.526914,120.830806,0.1449
C1E890,國三N149K,2022-04-20,24.463414,120.680019,0.1575
C1E900,國一N128K,2022-04-20,24.560997,120.844186,0.1335
C1F911,新伯公,2022-04-20,24.221361,120.841069,0.1279
C1F9B1,桐林,2022-04-20,24.066172,120.735194,0.3469
C1G691,下水埔,2022-04-20,23.816114,120.5676,0.4766
C1G9D0,國一S218K,2022-04-20,23.890641,120.493253,0.3806
C1H840,國三N238K,2022-04-20,23.841008,120.707711,0.2663
C1H971,六分寮,2022-04-20,23.92507,120.6378,0.1061
C1I131,桶頭,2022-04-20,23.641944,120.654117,0.2659
C1I150,青雲,2022-04-20,23.793361,120.949378,0.1167
C1I280,埔中,2022-04-20,23.820778,120.642594,0.2035
C1I550,國六W023K,2022-04-20,23.979067,120.867742,0.1834
C1K540,口湖,2022-04-20,23.585344,120.180517,0.5813
C1M400,菜瓜坪,2022-04-20,23.251928,120.576103,0.3352
C1M870,國三N285K,2022-04-20,23.550319,120.505833,0.4939
C1N001,沙崙,2022-04-20,22.935472,120.309406,0.7659
C1O850,環湖,2022-04-20,23.148617,120.418633,0.5138
C1O880,關山,2022-04-20,23.173397,120.594092,0.2389
C1O921,楠西,2022-04-20,23.183511,120.484083,0.4581
C1O940,東山服務區,2022-04-20,23.286016,120.398472,0.5368
C1R110,口社,2022-04-20,22.770111,120.645222,0.7621
C1R250,力里,2022-04-20,22.428117,120.629228,0.7663
C1R290,石門山,2022-04-20,22.112611,120.756597,0.447
C1R630,龍泉,2022-04-20,22.66701,120.59091,0.7737
C1S800,華源,2022-04-20,22.657883,121.02325,0.3703
C1S820,金峰,2022-04-20,22.590969,120.933236,0.7175
C1S850,豐南,2022-04-20,23.122139,121.262389,0.0487
C1S870,南美山,2022-04-20,23.15025,121.382333,0.2907
C1S880,壽卡,2022-04-20,22.238911,120.858903,0.5485
C1SA70,都蘭,2022-04-20,22.87794,121.226881,0.3874
C1T920,中興,2022-04-20,23.769503,121.498653,0.3482
C1T970,大農,2022-04-20,23.615233,121.413331,0.2134
C1T990,高寮,2022-04-20,23.394239,121.356808,0.3496
C1TA00,太魯閣,2022-04-20,24.15773,121.6236,0.2408
C1U501,牛鬥,2022-04-20,24.637836,121.573656,0.0589
C1U670,寒溪,2022-04-20,24.634,121.71691,0.111
C1U930,粉鳥林,2022-04-20,24.497088,121.842479,0.1842
C1V340,大津,2022-04-20,22.888322,120.645986,0.6968
C1V390,尖山,2022-04-20,22.813153,120.367789,0.7578
C1V570,吉東,2022-04-20,22.85422,120.5454,0.6269
C1V830,國三S383K,2022-04-20,22.781967,120.426475,0.7379
C1X040,東原,2022-04-20,23.291597,120.463822,0.3389
C1Z030,紅葉,2022-04-20,23.493119,121.338806,0.2299
C1Z040,立山,2022-04-20,23.443356,121.327375,0.0884
C1Z120,壽豐,2022-04-20,23.870853,121.508081,0.4081
C1Z130,銅門,2022-04-20,23.965694,121.492842,0.1607
CAG100,王功漁港,2022-04-20,23.96824,120.32586,0.3835
CAJ050,海口故事園區,2022-04-20,23.57543,120.14121,0.5813
CAL110,布袋國中,2022-04-20,23.35893,120.18026,0.6708
CAN130,水試所海水繁養殖中心,2022-04-20,23.120802,120.07968,0.7187
CAN140,六官養殖協會,2022-04-20,23.22881,120.29962,0.6921
CAQ030,崎峰國小,2022-04-20,22.42565,120.49521,0.764
E2K600,四湖植物園,2022-04-20,23.676986,120.163433,0.5081
E2P980,林試六龜中心,2022-04-20,22.991703,120.645722,0.4779
E2S960,林試太麻里2,2022-04-20,22.598014,120.989761,0.7535
E2S980,林試太麻里1,2022-04-20,22.598922,120.980044,0.7518
G2F820,農業試驗所,2022-04-20,24.031261,120.688133,0.4458
G2L020,嘉義農試,2022-04-20,23.485028,120.473806,0.4804
G2M350,溪口農場,2022-04-20,23.58565,120.408111,0.6407
G2P820,鳳山農試,2022-04-20,22.646611,120.356083,0.77
K2E360,苗栗農改,2022-04-20,24.495722,120.829111,0.231
K2E710,大湖分場,2022-04-20,24.422861,120.871833,0.1488
K2F750,種苗繁殖,2022-04-20,24.225972,120.800917,0.0945
U2HA50,臺大竹山,2022-04-20,23.756972,120.681556,0.2997
V2K620,麥寮合作社,2022-04-20,23.753836,120.294783,0.4615
