站號,站名,日期,lat,lon,BlastGRU-TW
466881,新北,2022-12-05,24.9593,121.52,0.74818003
466900,淡水,2022-12-05,25.164889,121.448906,0.7514824
466920,臺北,2022-12-05,25.037658,121.514853,0.75775224
467350,澎湖,2022-12-05,23.565503,119.563094,0.017813722
467410,臺南,2022-12-05,22.993239,120.204772,0.06483238
467420,永康,2022-12-05,23.038386,120.2367,0.064881735
467790,墾丁雷達站,2022-12-05,21.948235,120.808028,0.78633195
C0A520,山佳,2022-12-05,24.974944,121.402008,0.74068546
C0A530,坪林,2022-12-05,24.938183,121.70975,0.88774365
C0A880,福隆,2022-12-05,25.017842,121.942083,0.9411888
C0A890,雙溪,2022-12-05,25.036003,121.864242,0.74083847
C0A920,富貴角,2022-12-05,25.263783,121.565258,0.67303896
C0AC80,文山,2022-12-05,25.00235,121.575728,0.7326271
C0ACA0,新莊,2022-12-05,25.051478,121.446756,0.7626233
C0AD00,三芝,2022-12-05,25.258131,121.501917,0.6869533
C0AH70,松山,2022-12-05,25.04871,121.55042,0.75775224
C0AH80,深坑,2022-12-05,25.002703,121.628328,0.7326271
C0AI00,五股,2022-12-05,25.07445,121.42728,0.6378601
C0AJ70,田寮,2022-12-05,25.2698,121.4886,0.72912973
