站號,站名,日期,lat,lon,BlastGRU-TW
466881,新北,2022-04-21,24.9593,121.52,0.10390032
466900,淡水,2022-04-21,25.164889,121.448906,0.026034527
466920,臺北,2022-04-21,25.037658,121.514853,0.11835223
466940,基隆,2022-04-21,25.133314,121.740475,0.056382738
466990,花蓮,2022-04-21,23.975128,121.613275,0.7397025
467050,新屋,2022-04-21,25.006744,121.047486,0.0039040742
467080,宜蘭,2022-04-21,24.763975,121.756528,0.39320263
467270,田中,2022-04-21,23.873803,120.581286,0.04652581
467300,東吉島,2022-04-21,23.25695,119.667467,0.00017636467
467350,澎湖,2022-04-21,23.565503,119.563094,1.6827566e-05
467410,臺南,2022-04-21,22.993239,120.204772,0.11084386
467420,永康,2022-04-21,23.038386,120.2367,0.1131741
467441,高雄,2022-04-21,22.7304,120.3125,0.11166508
467480,嘉義,2022-04-21,23.495925,120.432906,0.037029654
467490,臺中,2022-04-21,24.145736,120.684075,0.012281441
467540,大武,2022-04-21,22.355675,120.903789,0.28521228
467571,新竹,2022-04-21,24.827853,121.014219,0.0261928
467590,恆春,2022-04-21,22.003897,120.746339,0.0072333734
467610,成功,2022-04-21,23.097486,121.373428,0.9085513
467620,蘭嶼,2022-04-21,22.036969,121.558339,0.00041053124
467660,臺東,2022-04-21,22.752211,121.154586,0.46378598
467790,墾丁雷達站,2022-04-21,21.948235,120.808028,0.0052096
C0A520,山佳,2022-04-21,24.974944,121.402008,0.057499908
C0A530,坪林,2022-04-21,24.938183,121.70975,0.09600277
C0A540,四堵,2022-04-21,24.8926,121.745736,0.07143952
C0A550,泰平,2022-04-21,24.971197,121.823711,0.03489846
C0A560,福山,2022-04-21,24.776203,121.502811,0.07797853
C0A570,桶後,2022-04-21,24.848222,121.597992,0.11902316
C0A640,石碇,2022-04-21,24.993969,121.662917,0.08051201
C0A650,火燒寮,2022-04-21,25.002719,121.742892,0.055744544
C0A660,瑞芳,2022-04-21,25.113169,121.801147,0.13777064
C0A770,科教館,2022-04-21,25.096356,121.516507,0.07009324
C0A860,大坪,2022-04-21,25.165914,121.632969,0.016326252
C0A880,福隆,2022-04-21,25.017842,121.942083,0.24417077
C0A890,雙溪,2022-04-21,25.036003,121.864242,0.039688285
C0A920,富貴角,2022-04-21,25.263783,121.565258,0.008271055
C0A931,三和,2022-04-21,25.233153,121.595236,0.032540645
C0A940,金山,2022-04-21,25.223628,121.643967,0.0074370797
C0A950,鼻頭角,2022-04-21,25.129036,121.923372,0.25590166
C0A970,三貂角,2022-04-21,25.007606,122.002058,0.13302122
C0A980,社子,2022-04-21,25.109508,121.469681,0.076821186
C0A9C0,天母,2022-04-21,25.117494,121.537169,0.061488345
C0A9F0,內湖,2022-04-21,25.079422,121.57545,0.11835226
C0AC60,三峽,2022-04-21,24.939025,121.369728,0.096945964
C0AC70,信義,2022-04-21,25.037822,121.564597,0.11835226
C0AC80,文山,2022-04-21,25.00235,121.575728,0.08441088
C0ACA0,新莊,2022-04-21,25.051478,121.446756,0.040396802
C0AD00,三芝,2022-04-21,25.258131,121.501917,0.006863781
C0AD10,八里,2022-04-21,25.150211,121.403947,0.026034527
C0AD30,蘆洲,2022-04-21,25.086594,121.472331,0.07009324
C0AD40,土城,2022-04-21,24.973208,121.445169,0.0656358
C0AD50,鶯歌,2022-04-21,24.951533,121.346294,0.02364291
C0AG80,中和,2022-04-21,24.991622,121.491792,0.11835226
C0AH00,汐止,2022-04-21,25.066881,121.658778,0.05176083
C0AH10,永和,2022-04-21,25.01125,121.508111,0.12578288
C0AH40,平等,2022-04-21,25.129142,121.577086,0.043675385
C0AH50,林口,2022-04-21,25.072181,121.38084,0.03895011
C0AH70,松山,2022-04-21,25.04871,121.55042,0.11835226
C0AH80,深坑,2022-04-21,25.002703,121.628328,0.08441088
C0AI00,五股,2022-04-21,25.07445,121.42728,0.014130794
C0AI10,屈尺,2022-04-21,24.92184,121.54475,0.08441088
C0AI20,白沙灣,2022-04-21,25.283128,121.519058,0.007832365
C0AI30,三重,2022-04-21,25.057328,121.500629,0.07009324
C0AI40,石牌,2022-04-21,25.115597,121.513139,0.0656358
C0AJ20,野柳,2022-04-21,25.20703,121.690021,0.05176083
C0AJ30,淡水觀海,2022-04-21,25.184591,121.408616,0.027550092
C0AJ40,石門,2022-04-21,25.273672,121.601198,0.00609625
C0AJ50,水湳洞,2022-04-21,25.123695,121.862238,0.05176083
C0AJ60,六塊厝,2022-04-21,25.24,121.4481,0.027550092
C0AJ70,田寮,2022-04-21,25.2698,121.4886,0.00804574
C0AJ80,板橋,2022-04-21,25.0107,121.4489,0.0656358
C0AJ90,澳底,2022-04-21,25.0552,121.9253,0.24417077
C0B010,七堵,2022-04-21,25.094819,121.71713,0.045257464
C0B020,基隆嶼,2022-04-21,25.19141,121.78391,0.05176083
C0B040,大武崙,2022-04-21,25.166676,121.706993,0.045257464
C0B050,八斗子,2022-04-21,25.144754,121.79167,0.0604737
C0B060,暖暖,2022-04-21,25.0957,121.7403,0.03285088
C0C460,復興,2022-04-21,24.820208,121.352281,0.08229171
C0C480,桃園,2022-04-21,24.992425,121.323172,0.016339676
C0C490,八德,2022-04-21,24.928708,121.283289,0.05804559
C0C590,觀音,2022-04-21,25.027072,121.153317,0.016031254
C0C620,蘆竹,2022-04-21,25.084275,121.265767,0.023365825
C0C630,大溪,2022-04-21,24.882853,121.265547,0.040206604
C0C650,平鎮,2022-04-21,24.897503,121.214636,0.014667224
C0C660,楊梅,2022-04-21,24.912375,121.143047,0.013934506
C0C670,龍潭,2022-04-21,24.870056,121.221389,0.0032461567
C0C680,龜山,2022-04-21,25.02846,121.38656,0.12566817
C0C700,中壢,2022-04-21,24.977661,121.256375,0.015133003
C0C710,大溪永福,2022-04-21,24.892936,121.324975,0.011630165
C0C720,竹圍,2022-04-21,25.112692,121.239824,0.026034527
C0C730,中大臨海站,2022-04-21,24.966126,121.008581,0.0046666902
C0C740,觀音工業區,2022-04-21,25.064764,121.114856,0.007709179
C0C750,新興坑尾,2022-04-21,25.0061,121.0971,0.007568261
C0D430,峨眉,2022-04-21,24.6905,121.017189,0.060591053
C0D480,打鐵坑,2022-04-21,24.849664,121.150789,0.011816623
C0D540,橫山,2022-04-21,24.71116,121.11693,0.0039842203
C0D560,竹東,2022-04-21,24.767147,121.057881,0.030569589
C0D580,寶山,2022-04-21,24.735006,121.025192,0.005234539
C0D590,新豐,2022-04-21,24.87068,120.97721,0.0006976976
C0D650,湖口,2022-04-21,24.904794,121.043628,0.002821726
C0D660,新竹市東區,2022-04-21,24.798681,120.986942,0.02417962
C0D670,海天一線,2022-04-21,24.831986,120.914438,0.0323
C0D680,香山濕地,2022-04-21,24.783581,120.914988,0.03082658
C0D690,外湖,2022-04-21,24.917735,120.968711,0.0046666902
C0D700,關西,2022-04-21,24.7977,121.1732,0.020196231
C0E420,竹南,2022-04-21,24.708978,120.888897,0.026628809
C0E430,南庄,2022-04-21,24.601775,121.000214,0.004903998
C0E520,大湖,2022-04-21,24.41494,120.87087,0.014701825
C0E540,後龍,2022-04-21,24.606489,120.783933,0.0006818547
C0E550,明德,2022-04-21,24.583486,120.885411,0.00084790704
C0E590,通霄,2022-04-21,24.471892,120.704622,0.0014577585
C0E730,頭份,2022-04-21,24.688247,120.912206,0.026628809
C0E740,造橋,2022-04-21,24.637056,120.864778,0.0007946366
C0E750,苗栗,2022-04-21,24.564569,120.824575,0.00047640057
C0E780,銅鑼,2022-04-21,24.489681,120.790853,0.003236137
C0E791,卓蘭,2022-04-21,24.3126,120.8244,0.026370216
C0E810,西湖,2022-04-21,24.562947,120.7485,0.00054787763
C0E820,獅潭,2022-04-21,24.539133,120.920042,0.0009982891
C0E830,苑裡,2022-04-21,24.439714,120.653053,0.011312484
C0E850,大河,2022-04-21,24.618069,120.948578,0.00074559334
C0E870,高鐵苗栗,2022-04-21,24.60725,120.826094,0.0006336485
C0E910,海埔,2022-04-21,24.648767,120.772435,0.0015688491
C0E920,通霄漁港,2022-04-21,24.498589,120.673876,0.002077324
C0E930,龍鳳,2022-04-21,24.700034,120.859125,0.0009844009
C0F0B0,石岡,2022-04-21,24.276061,120.777644,0.09768891
C0F850,東勢,2022-04-21,24.246428,120.833047,0.024093721
C0F930,大甲,2022-04-21,24.347667,120.640403,0.023351299
C0F970,大坑,2022-04-21,24.173142,120.722289,0.011809031
C0F9A0,中竹林,2022-04-21,24.103556,120.751061,0.057373453
C0F9I0,神岡,2022-04-21,24.272481,120.658314,0.012263303
C0F9K0,大安,2022-04-21,24.345061,120.588025,0.037976757
C0F9L0,后里,2022-04-21,24.310436,120.729725,0.007985002
C0F9M0,豐原,2022-04-21,24.254322,120.720692,0.009640639
C0F9N0,大里,2022-04-21,24.092464,120.701378,0.012710885
C0F9O0,潭子,2022-04-21,24.213106,120.703933,0.012124235
C0F9P0,清水,2022-04-21,24.312297,120.562242,0.041893885
C0F9Q0,外埔,2022-04-21,24.347817,120.705686,0.015461252
C0F9R0,龍井,2022-04-21,24.184536,120.528972,0.028017959
C0F9S0,烏日,2022-04-21,24.107058,120.624103,0.02179202
C0F9T0,西屯,2022-04-21,24.179494,120.641275,0.01554051
C0F9U0,南屯,2022-04-21,24.137006,120.637969,0.012710885
C0F9X0,大雅(中科園區),2022-04-21,24.21528,120.62445,0.009750094
C0FA10,松柏,2022-04-21,24.429115,120.617482,0.013425621
C0FA20,溫寮,2022-04-21,24.372177,120.583125,0.013425621
C0FA30,梧棲,2022-04-21,24.256003,120.523381,0.028017959
C0FA40,臺中電廠,2022-04-21,24.2146,120.4907,0.028017959
C0FA50,霧峰,2022-04-21,24.0419,120.6995,0.0069490843
C0G620,芬園,2022-04-21,24.015678,120.6213,0.007346905
C0G640,鹿港,2022-04-21,24.0753,120.430481,0.02088121
C0G650,員林,2022-04-21,23.946503,120.585597,0.006318453
C0G660,溪湖,2022-04-21,23.94835,120.479122,0.013964119
C0G720,溪州,2022-04-21,23.851589,120.499093,0.07756466
C0G730,二林,2022-04-21,23.903325,120.376081,0.02479138
C0G740,大城,2022-04-21,23.852487,120.320935,0.04571755
C0G770,福興,2022-04-21,24.041289,120.437669,0.02088121
C0G780,秀水,2022-04-21,24.03405,120.503869,0.018755471
C0G800,埔鹽,2022-04-21,24.000394,120.431683,0.02088121
C0G810,埔心,2022-04-21,23.947633,120.525456,0.013255164
C0G820,田尾,2022-04-21,23.901669,120.509389,0.0124477595
C0G830,埤頭,2022-04-21,23.866003,120.452806,0.083314225
C0G840,北斗,2022-04-21,23.877586,120.514222,0.0124477595
C0G860,社頭,2022-04-21,23.897647,120.5862,0.0058820387
C0G870,芳苑,2022-04-21,23.922303,120.320025,0.047841687
C0G880,二水,2022-04-21,23.810742,120.6173,0.036084257
C0G890,伸港,2022-04-21,24.148933,120.484403,0.019015027
C0G900,線西,2022-04-21,24.143358,120.443536,0.014800154
C0G910,花壇,2022-04-21,24.032076,120.549461,0.016833467
C0G920,永靖,2022-04-21,23.924703,120.547533,0.0124477595
C0G940,竹塘,2022-04-21,23.848253,120.386764,0.12845482
C0G950,防潮門,2022-04-21,24.1835,120.4871,0.02941322
C0G960,福寶,2022-04-21,24.0443,120.3814,0.021988781
C0G970,三豐,2022-04-21,23.882,120.2895,0.047841717
C0H890,埔里,2022-04-21,23.972169,120.952425,0.08487471
C0H950,中寮,2022-04-21,23.884447,120.766406,0.02070999
C0H960,草屯,2022-04-21,23.973672,120.68085,0.050613463
C0I110,竹山,2022-04-21,23.761225,120.688156,0.027949534
C0I360,水里,2022-04-21,23.812553,120.849792,0.045816373
C0I380,集集,2022-04-21,23.828206,120.801467,0.050710313
C0I410,名間,2022-04-21,23.837053,120.701447,0.045434557
C0I420,國姓,2022-04-21,24.037803,120.855072,0.07036262
C0I460,南投,2022-04-21,23.911469,120.687331,0.04010977
C0K250,崙背,2022-04-21,23.75555,120.318925,0.051283997
C0K280,四湖,2022-04-21,23.630414,120.227125,0.04549092
C0K291,宜梧,2022-04-21,23.536281,120.169329,0.13005309
C0K330,虎尾,2022-04-21,23.719183,120.442036,0.12528193
C0K390,土庫,2022-04-21,23.679029,120.395574,0.12908603
C0K400,斗六,2022-04-21,23.720583,120.541127,0.061179027
C0K410,北港,2022-04-21,23.573957,120.292802,0.17739362
C0K420,西螺,2022-04-21,23.800407,120.467394,0.054830216
C0K430,褒忠,2022-04-21,23.690938,120.303634,0.09650139
C0K440,二崙,2022-04-21,23.772797,120.408944,0.12514985
C0K450,大埤,2022-04-21,23.646074,120.431537,0.11090879
C0K460,斗南,2022-04-21,23.678734,120.478359,0.065638065
C0K470,林內,2022-04-21,23.748675,120.609642,0.0717355
C0K480,莿桐,2022-04-21,23.761192,120.502372,0.05251692
C0K500,元長,2022-04-21,23.64981,120.315024,0.09706153
C0K510,水林,2022-04-21,23.572924,120.24597,0.10072636
C0K530,臺西,2022-04-21,23.701547,120.197559,0.042460345
C0K550,蔦松,2022-04-21,23.514319,120.229736,0.12684569
C0K560,棋山,2022-04-21,23.68645,120.603417,0.069115765
C0K580,高鐵雲林,2022-04-21,23.737456,120.417944,0.12908603
C0K590,雲林東勢,2022-04-21,23.674192,120.255721,0.09650139
C0K600,箔子寮,2022-04-21,23.6197,120.14,0.102659844
C0M410,馬頭山,2022-04-21,23.324361,120.582017,0.106170766
C0M520,東後寮,2022-04-21,23.369908,120.248065,0.08019695
C0M640,中埔,2022-04-21,23.42538,120.5229,0.090409085
C0M650,朴子,2022-04-21,23.43463,120.23902,0.13839673
C0M660,溪口,2022-04-21,23.604131,120.403569,0.028241409
C0M670,大林,2022-04-21,23.600616,120.45841,0.022124825
C0M680,太保,2022-04-21,23.455062,120.331455,0.23096621
C0M690,水上,2022-04-21,23.419734,120.388909,0.052129555
C0M700,竹崎,2022-04-21,23.526178,120.555508,0.061290924
C0M710,東石,2022-04-21,23.458927,120.15385,0.12684569
C0M720,番路,2022-04-21,23.464657,120.554156,0.060434867
C0M730,嘉義市東區,2022-04-21,23.457673,120.460531,0.032616425
C0M740,六腳,2022-04-21,23.492871,120.290625,0.23509145
C0M750,布袋,2022-04-21,23.380878,120.167789,0.13839673
C0M760,民雄,2022-04-21,23.551754,120.428457,0.025409512
C0M770,嘉義梅山,2022-04-21,23.585398,120.555587,0.057263233
C0M780,鹿草,2022-04-21,23.41134,120.30835,0.19860709
C0M790,新港,2022-04-21,23.553269,120.345728,0.17427638
C0M800,茶山,2022-04-21,23.299075,120.664767,0.4428671
C0M880,好美里,2022-04-21,23.3364,120.138,0.062281545
C0N010,鯤鯓國小,2022-04-21,23.1879,120.0889,0.09416678
C0N020,城西,2022-04-21,23.0568,120.0956,0.06282259
C0N030,四草,2022-04-21,23.0235,120.1116,0.095187284
C0N040,蘆竹溝,2022-04-21,23.2344,120.0961,0.09416678
C0N050,蚵寮,2022-04-21,23.301,120.1104,0.09416653
C0O810,曾文,2022-04-21,23.219681,120.497328,0.07122258
C0O830,北寮,2022-04-21,23.079561,120.495008,0.1859688
C0O840,王爺宮,2022-04-21,23.222064,120.40085,0.07241901
C0O860,大內,2022-04-21,23.11885,120.36083,0.064066075
C0O900,善化,2022-04-21,23.112883,120.297219,0.103623256
C0O930,玉井,2022-04-21,23.126042,120.46055,0.1455858
C0O950,安南,2022-04-21,23.076694,120.144861,0.06911457
C0O960,崎頂,2022-04-21,22.959547,120.369317,0.24502341
C0O970,虎頭埤,2022-04-21,23.021375,120.347878,0.12701185
C0O980,新市,2022-04-21,23.061614,120.298197,0.103623256
C0O990,媽廟,2022-04-21,22.99175,120.293525,0.13996908
C0R150,三地門,2022-04-21,22.709889,120.639944,0.41838726
C0R160,鹽埔,2022-04-21,22.739558,120.530778,0.37102306
C0R170,屏東,2022-04-21,22.660269,120.494072,0.10989297
C0R190,赤山,2022-04-21,22.592333,120.614306,0.34933785
C0R220,潮州,2022-04-21,22.534361,120.54,0.2331513
C0R240,來義,2022-04-21,22.527306,120.625111,0.12578826
C0R260,春日,2022-04-21,22.370361,120.628306,0.12989059
C0R270,琉球嶼,2022-04-21,22.332244,120.362236,0.12901741
C0R280,檳榔,2022-04-21,22.076078,120.836777,0.0015473084
C0R320,車城,2022-04-21,22.0744,120.716247,0.010243278
C0R341,牡丹,2022-04-21,22.130036,120.792639,0.15516604
C0R350,貓鼻頭,2022-04-21,21.921774,120.7358,0.0064535886
C0R470,高樹,2022-04-21,22.826389,120.600806,0.4335504
C0R480,長治,2022-04-21,22.693128,120.542622,0.36348647
C0R490,九如,2022-04-21,22.7405,120.490503,0.10632843
C0R520,崁頂,2022-04-21,22.514781,120.506914,0.068320125
C0R540,佳冬,2022-04-21,22.419456,120.552375,0.070346594
C0R550,新埤,2022-04-21,22.467947,120.582894,0.35528758
C0R560,新園,2022-04-21,22.5434,120.461558,0.068320125
C0R570,麟洛,2022-04-21,22.65078,120.52719,0.10632809
C0R580,南州,2022-04-21,22.48591,120.50274,0.070346706
C0R590,里港,2022-04-21,22.77919,120.49459,0.35927135
C0R620,墾雷,2022-04-21,21.900836,120.855269,0.0064535886
C0R640,東港,2022-04-21,22.46247,120.44074,0.09842645
C0R650,竹田,2022-04-21,22.58486,120.54344,0.36270458
C0R660,枋寮,2022-04-21,22.367722,120.590647,0.2415283
C0R670,楓港,2022-04-21,22.190131,120.692156,0.2008719
C0R680,佳樂水,2022-04-21,21.993578,120.861633,0.008071736
C0R690,墾丁,2022-04-21,21.966756,120.810269,0.0013786664
C0R700,枋山,2022-04-21,22.246844,120.661086,0.2008719
C0R710,龍磐,2022-04-21,21.931672,120.838942,0.0025870476
C0R720,旭海,2022-04-21,22.205403,120.887614,0.079149574
C0R730,大坪頂,2022-04-21,22.024633,120.69355,0.0034125294
C0R740,獅子,2022-04-21,22.201569,120.70525,0.18491112
C0R760,南仁湖,2022-04-21,22.084681,120.863353,0.0012782151
C0R770,保力,2022-04-21,22.071122,120.764111,0.003831115
C0R780,滿州,2022-04-21,22.024403,120.839892,0.0058152075
C0R790,九棚,2022-04-21,22.14195,120.889281,0.12196949
C0R800,丹路,2022-04-21,22.204481,120.750989,0.1538028
C0R810,內獅,2022-04-21,22.305064,120.642986,0.13765332
C0R830,高士,2022-04-21,22.121825,120.836781,0.0010481507
C0R850,林邊,2022-04-21,22.4634,120.5339,0.068320125
C0R860,鼻頭,2022-04-21,22.1043,120.8979,0.0012764614
C0R870,興海,2022-04-21,21.9752,120.8439,0.008071736
C0R880,後壁湖,2022-04-21,21.9457,120.7457,0.011653516
C0R890,山海,2022-04-21,21.9878,120.7091,0.010243278
C0R900,竹坑,2022-04-21,22.1385,120.7022,0.2652253
C0R910,下寮,2022-04-21,22.3929,120.5548,0.070346706
C0R920,塭仔,2022-04-21,22.4169,120.5197,0.07158972
C0R930,萬丹,2022-04-21,22.5885,120.4851,0.36270458
C0R940,加祿堂,2022-04-21,22.3363,120.6217,0.13682863
C0S710,鹿野,2022-04-21,22.917711,121.122994,0.15573092
C0S730,綠島,2022-04-21,22.6672,121.47533,0.76746625
C0S740,池上,2022-04-21,23.119628,121.209469,0.23678042
C0S770,大溪山,2022-04-21,22.478475,120.943325,0.21109119
C0S790,金崙,2022-04-21,22.538122,120.966875,0.6415178
C0S810,東河,2022-04-21,22.972672,121.303986,0.538707
C0S830,長濱,2022-04-21,23.286817,121.411975,0.11695655
C0S840,南田,2022-04-21,22.279725,120.889208,0.3142563
C0S890,關山,2022-04-21,23.0395,121.175017,0.34561366
C0S900,蘭嶼高中,2022-04-21,22.04909,121.51214,0.018393183
C0S910,蘭嶼燈塔,2022-04-21,22.081197,121.503117,0.0035481602
C0S920,金峰嘉蘭,2022-04-21,22.594789,120.960825,0.79750955
C0S930,延平,2022-04-21,22.902581,121.084058,0.24114923
C0S940,石寧山,2022-04-21,23.223772,121.406639,0.23953216
C0S950,七塊厝,2022-04-21,22.954453,121.229922,0.13193004
C0S960,香蘭,2022-04-21,22.587569,120.993375,0.79372066
C0S970,加津林,2022-04-21,22.416211,120.926942,0.31632662
C0S990,山豬窟,2022-04-21,22.318619,120.857372,0.015248543
C0SA00,歷坵,2022-04-21,22.520969,120.89185,0.09718599
C0SA10,檳榔四格山,2022-04-21,22.810031,121.109308,0.016464338
C0SA30,都歷,2022-04-21,23.020333,121.323642,0.82848215
C0SA40,瑞和,2022-04-21,22.974361,121.156697,0.44336745
C0SA60,知本（水試所）,2022-04-21,22.702394,121.082761,0.6607079
C0SA80,土坂,2022-04-21,22.453108,120.887572,0.76672757
C0SA90,達仁林場,2022-04-21,22.264347,120.823972,0.13979724
C0T870,鯉魚潭,2022-04-21,23.935639,121.508944,0.7532999
C0T900,西林,2022-04-21,23.8119,121.441458,0.7002918
C0T960,光復,2022-04-21,23.660694,121.424964,0.71002173
C0T9A0,月眉山,2022-04-21,23.809928,121.539828,0.39518675
C0T9D0,和中,2022-04-21,24.26676,121.74103,0.8324152
C0T9E0,大坑,2022-04-21,23.880628,121.581981,0.49989736
C0T9F0,水璉,2022-04-21,23.797131,121.542514,0.5680765
C0T9I0,豐濱,2022-04-21,23.583897,121.514806,0.6599467
C0T9M0,靜浦,2022-04-21,23.455167,121.495028,0.7487023
C0T9N0,富里,2022-04-21,23.171639,121.249378,0.052127663
C0U600,礁溪,2022-04-21,24.817539,121.765608,0.3784673
C0U650,玉蘭,2022-04-21,24.675286,121.587061,0.029332714
C0U750,龜山島,2022-04-21,24.841667,121.953133,0.11042636
C0U760,東澳,2022-04-21,24.52196,121.83318,0.68187875
C0U770,南澳,2022-04-21,24.44935,121.81022,0.8437643
C0U780,五結,2022-04-21,24.68637,121.79794,0.17133759
C0U860,頭城,2022-04-21,24.85323,121.8308,0.39320263
C0U870,大礁溪,2022-04-21,24.791042,121.675047,0.04182427
C0U880,北關,2022-04-21,24.9072,121.8734,0.14924043
C0U890,三星,2022-04-21,24.66812,121.65302,0.21986586
C0U900,內城,2022-04-21,24.71813,121.68766,0.32854003
C0U910,冬山,2022-04-21,24.63373,121.7937,0.17133759
C0U940,羅東,2022-04-21,24.68184,121.74934,0.16265869
C0U970,大福,2022-04-21,24.80064,121.81389,0.42514285
C0U990,員山,2022-04-21,24.74435,121.72247,0.16265869
C0UA00,土場,2022-04-21,24.576533,121.495333,0.085680746
C0UA80,大溪漁港,2022-04-21,24.941801,121.902955,0.3784673
C0UA90,石城,2022-04-21,24.980444,121.951214,0.21356101
C0UB00,淡江大學蘭陽校園,2022-04-21,24.823239,121.730383,0.042824775
C0UB10,蘇澳,2022-04-21,24.5969,121.8571,0.40578538
C0UB20,壯圍,2022-04-21,24.7359,121.8163,0.18189725
C0V250,甲仙,2022-04-21,23.080106,120.591758,0.1900729
C0V260,月眉,2022-04-21,22.971003,120.539853,0.20647582
C0V310,美濃,2022-04-21,22.898742,120.519153,0.10219381
C0V350,溪埔,2022-04-21,22.738578,120.446797,0.110105954
C0V360,內門,2022-04-21,22.975481,120.466769,0.081518166
C0V370,古亭坑,2022-04-21,22.893178,120.401947,0.101525985
C0V400,阿公店,2022-04-21,22.804194,120.355528,0.11722119
C0V440,鳳山,2022-04-21,22.646653,120.356122,0.091914386
C0V450,鳳森,2022-04-21,22.545064,120.392592,0.30605635
C0V490,新興,2022-04-21,22.627422,120.298803,0.096419774
C0V530,阿蓮,2022-04-21,22.883208,120.327508,0.17053862
C0V610,梓官,2022-04-21,22.760558,120.267211,0.1530816
C0V620,永安,2022-04-21,22.82315,120.236856,0.12042551
C0V630,茄萣,2022-04-21,22.906642,120.182608,0.10693177
C0V640,湖內,2022-04-21,22.887139,120.2445,0.10530596
C0V650,彌陀,2022-04-21,22.783806,120.246361,0.12042551
C0V660,岡山,2022-04-21,22.797078,120.294958,0.1530816
C0V680,仁武,2022-04-21,22.701083,120.347722,0.10993873
C0V690,鼓山,2022-04-21,22.623325,120.275575,0.096419774
C0V700,三民,2022-04-21,22.645017,120.311233,0.096419774
C0V710,苓雅,2022-04-21,22.622742,120.330669,0.096419774
C0V720,林園,2022-04-21,22.507747,120.394511,0.096419774
C0V730,大寮,2022-04-21,22.605614,120.395717,0.33310038
C0V740,旗山,2022-04-21,22.888614,120.483597,0.09921035
C0V750,路竹,2022-04-21,22.854997,120.259439,0.1852347
C0V760,橋頭,2022-04-21,22.757806,120.30575,0.15018725
C0V770,大社,2022-04-21,22.730306,120.346639,0.10993873
C0V790,萬山,2022-04-21,22.905944,120.688056,0.44978607
C0V800,六龜,2022-04-21,22.997889,120.633583,0.19038497
C0V810,左營,2022-04-21,22.67491,120.28491,0.11166508
C0V820,小林,2022-04-21,23.148408,120.63325,0.3839015
C0V840,鳳鼻頭,2022-04-21,22.5083,120.3591,0.09842645
C0V850,蚵仔寮,2022-04-21,22.7256,120.2527,0.11729693
C0V860,南寮,2022-04-21,22.7616,120.2339,0.122776516
C0V870,文安,2022-04-21,22.8025,120.2164,0.122776516
C0V880,興達,2022-04-21,22.8778,120.2127,0.10693177
C0V890,前鎮,2022-04-21,22.5718,120.3117,0.09842645
C0V900,汕尾,2022-04-21,22.4782,120.4151,0.1128008
C0X050,東河,2022-04-21,23.296598,120.385608,0.14712211
C0X060,下營,2022-04-21,23.22695,120.256261,0.09011019
C0X080,佳里,2022-04-21,23.173039,120.145086,0.062281545
C0X100,臺南市北區,2022-04-21,23.010394,120.194228,0.11584214
C0X110,臺南市南區,2022-04-21,22.961189,120.188378,0.1131741
C0X120,麻豆,2022-04-21,23.183289,120.248611,0.06037953
C0X130,官田,2022-04-21,23.193217,120.315422,0.08506859
C0X140,西港,2022-04-21,23.125608,120.203108,0.08162487
C0X150,安定,2022-04-21,23.102614,120.227839,0.08494988
C0X160,仁德,2022-04-21,22.968258,120.257689,0.14366753
C0X170,關廟,2022-04-21,22.963017,120.327797,0.12630509
C0X180,山上,2022-04-21,23.0757,120.363253,0.06805368
C0X190,安平,2022-04-21,22.993161,120.152181,0.11584214
C0X200,左鎮,2022-04-21,23.056758,120.408522,0.070783
C0X210,白河,2022-04-21,23.347466,120.414427,0.14135025
C0X220,學甲,2022-04-21,23.230367,120.182187,0.06037953
C0X230,鹽水,2022-04-21,23.272621,120.247641,0.072464325
C0X240,關子嶺,2022-04-21,23.331169,120.508025,0.24895386
C0X250,新營,2022-04-21,23.310689,120.316681,0.09602528
C0X260,後壁,2022-04-21,23.366358,120.362326,0.060251415
C0X280,將軍,2022-04-21,23.214999,120.13577,0.062281545
C0X290,北門,2022-04-21,23.267772,120.125481,0.062281545
C0X300,鹿寮,2022-04-21,23.386047,120.477331,0.1333946
C0X310,七股,2022-04-21,23.147289,120.086253,0.079772964
C0X320,柳營,2022-04-21,23.253328,120.375253,0.14712211
C0Z020,明里,2022-04-21,23.208717,121.262342,0.1426847
C0Z061,玉里,2022-04-21,23.3215,121.339656,0.21371858
C0Z070,舞鶴,2022-04-21,23.46811,121.37407,0.5448222
C0Z080,富源,2022-04-21,23.587642,121.378225,0.57205933
C0Z100,東華,2022-04-21,23.89525,121.549833,0.85670507
C0Z150,吉安光華,2022-04-21,23.930925,121.595153,0.8715907
C0Z160,鳳林,2022-04-21,23.746114,121.453411,0.7316862
C0Z170,卓溪,2022-04-21,23.3443,121.3029,0.17583904
C0Z180,新城,2022-04-21,24.03946,121.60454,0.71661055
C0Z190,富世,2022-04-21,24.14743,121.6297,0.20640895
C0Z200,萬榮,2022-04-21,23.709219,121.420106,0.7532999
C0Z210,瑞穗,2022-04-21,23.5239,121.39021,0.69413924
C0Z230,和平,2022-04-21,24.30717,121.77007,0.8324153
C0Z270,蕃薯寮,2022-04-21,23.73835,121.540108,0.75430185
C0Z280,德武,2022-04-21,23.47426,121.41071,0.62687844
C0Z300,東里,2022-04-21,23.26853,121.30547,0.19362366
C0Z310,清水斷崖,2022-04-21,24.218294,121.689142,0.6660387
C0Z330,安通山,2022-04-21,23.290728,121.348528,0.110829554
