站號,站名,日期,lat,lon,BlastGRU-TW
466881,新北,2022-12-09,24.9593,121.52,0.4637205
466900,淡水,2022-12-09,25.164889,121.448906,0.40429887
466920,臺北,2022-12-09,25.037658,121.514853,0.4761831
467441,高雄,2022-12-09,22.7304,120.3125,0.039460886
467480,嘉義,2022-12-09,23.495925,120.432906,0.15352102
467490,臺中,2022-12-09,24.145736,120.684075,0.8134423
C0A530,坪林,2022-12-09,24.938183,121.70975,0.71794665
C0A540,四堵,2022-12-09,24.8926,121.745736,0.51483655
C0A550,泰平,2022-12-09,24.971197,121.823711,0.6177337
C0A890,雙溪,2022-12-09,25.036003,121.864242,0.394586
C0A920,富貴角,2022-12-09,25.263783,121.565258,0.32513732
C0A931,三和,2022-12-09,25.233153,121.595236,0.6560211
C0AC70,信義,2022-12-09,25.037822,121.564597,0.4761831
C0AC80,文山,2022-12-09,25.00235,121.575728,0.4423514
C0ACA0,新莊,2022-12-09,25.051478,121.446756,0.42731872
C0AH50,林口,2022-12-09,25.072181,121.38084,0.43413907
C0AH70,松山,2022-12-09,25.04871,121.55042,0.4761831
C0AH80,深坑,2022-12-09,25.002703,121.628328,0.4423514
C0AJ60,六塊厝,2022-12-09,25.24,121.4481,0.40969214
C0AJ70,田寮,2022-12-09,25.2698,121.4886,0.3731986
