站號,站名,日期,lat,lon,BlastGRU-TW
466881,新北,2022-11-09,24.9593,121.52,0.1498431
466900,淡水,2022-11-09,25.164889,121.448906,0.037622724
466920,臺北,2022-11-09,25.037658,121.514853,0.1910609
467441,高雄,2022-11-09,22.7304,120.3125,0.53072566
467480,嘉義,2022-11-09,23.495925,120.432906,0.28532058
467490,臺中,2022-11-09,24.145736,120.684075,0.0020679475
C0A540,四堵,2022-11-09,24.8926,121.745736,0.45048246
C0A550,泰平,2022-11-09,24.971197,121.823711,0.8862213
C0A560,福山,2022-11-09,24.776203,121.502811,0.9078827
C0A931,三和,2022-11-09,25.233153,121.595236,0.35403684
C0A940,金山,2022-11-09,25.223628,121.643967,0.005999383
C0A950,鼻頭角,2022-11-09,25.129036,121.923372,0.897863
C0AD10,八里,2022-11-09,25.150211,121.403947,0.037622724
C0AD30,蘆洲,2022-11-09,25.086594,121.472331,0.09834866
C0AD40,土城,2022-11-09,24.973208,121.445169,0.08541948
C0AI10,屈尺,2022-11-09,24.92184,121.54475,0.09930864
C0AI20,白沙灣,2022-11-09,25.283128,121.519058,0.007434968
C0AI30,三重,2022-11-09,25.057328,121.500629,0.09834866
C0B010,七堵,2022-11-09,25.094819,121.71713,0.14407352
C0B020,基隆嶼,2022-11-09,25.19141,121.78391,0.18578354
