站號,站名,日期,lat,lon,BlastGRU-TW
466881,新北,2022-02-07,24.9593,121.52,0.0004584121
466900,淡水,2022-02-07,25.164889,121.448906,0.00033701592
466920,臺北,2022-02-07,25.037658,121.514853,0.00048301384
466940,基隆,2022-02-07,25.133314,121.740475,0.0007125927
466990,花蓮,2022-02-07,23.975128,121.613275,0.14099242
467050,新屋,2022-02-07,25.006744,121.047486,0.001078917
467080,宜蘭,2022-02-07,24.763975,121.756528,0.034105115
467270,田中,2022-02-07,23.873803,120.581286,0.0030293514
467300,東吉島,2022-02-07,23.25695,119.667467,1.0701509e-05
467350,澎湖,2022-02-07,23.565503,119.563094,4.105612e-05
467410,臺南,2022-02-07,22.993239,120.204772,0.0075123627
467420,永康,2022-02-07,23.038386,120.2367,0.0072760712
467441,高雄,2022-02-07,22.7304,120.3125,0.049126253
467480,嘉義,2022-02-07,23.495925,120.432906,0.00065715524
467490,臺中,2022-02-07,24.145736,120.684075,0.00033198242
467540,大武,2022-02-07,22.355675,120.903789,0.90908283
467571,新竹,2022-02-07,24.827853,121.014219,0.00067815103
467590,恆春,2022-02-07,22.003897,120.746339,0.08835493
467610,成功,2022-02-07,23.097486,121.373428,0.78217816
467620,蘭嶼,2022-02-07,22.036969,121.558339,0.012241529
467660,臺東,2022-02-07,22.752211,121.154586,0.5941285
467790,墾丁雷達站,2022-02-07,21.948235,120.808028,0.06209317
C0A520,山佳,2022-02-07,24.974944,121.402008,0.00036244525
C0A530,坪林,2022-02-07,24.938183,121.70975,0.008851834
C0A540,四堵,2022-02-07,24.8926,121.745736,0.0012482058
C0A550,泰平,2022-02-07,24.971197,121.823711,0.0038362371
C0A560,福山,2022-02-07,24.776203,121.502811,0.0064568487
C0A570,桶後,2022-02-07,24.848222,121.597992,0.0016684692
C0A640,石碇,2022-02-07,24.993969,121.662917,0.005090493
C0A650,火燒寮,2022-02-07,25.002719,121.742892,0.0041659656
C0A660,瑞芳,2022-02-07,25.113169,121.801147,0.009056309
C0A770,科教館,2022-02-07,25.096356,121.516507,0.00038556522
C0A860,大坪,2022-02-07,25.165914,121.632969,0.00043823122
C0A880,福隆,2022-02-07,25.017842,121.942083,0.016439507
C0A890,雙溪,2022-02-07,25.036003,121.864242,0.0006064195
C0A920,富貴角,2022-02-07,25.263783,121.565258,0.00031402637
C0A931,三和,2022-02-07,25.233153,121.595236,0.0027683605
C0A940,金山,2022-02-07,25.223628,121.643967,0.00031148473
C0A950,鼻頭角,2022-02-07,25.129036,121.923372,0.017637242
C0A970,三貂角,2022-02-07,25.007606,122.002058,0.009833142
C0A980,社子,2022-02-07,25.109508,121.469681,0.00039363565
C0A9C0,天母,2022-02-07,25.117494,121.537169,0.00036996946
C0A9F0,內湖,2022-02-07,25.079422,121.57545,0.00048301384
C0AC60,三峽,2022-02-07,24.939025,121.369728,0.00044647898
C0AC70,信義,2022-02-07,25.037822,121.564597,0.00048301384
C0AC80,文山,2022-02-07,25.00235,121.575728,0.00042544332
C0ACA0,新莊,2022-02-07,25.051478,121.446756,0.00035235443
C0AD00,三芝,2022-02-07,25.258131,121.501917,0.00029811164
C0AD10,八里,2022-02-07,25.150211,121.403947,0.00033701592
C0AD30,蘆洲,2022-02-07,25.086594,121.472331,0.00038556522
C0AD40,土城,2022-02-07,24.973208,121.445169,0.00037732237
C0AD50,鶯歌,2022-02-07,24.951533,121.346294,0.0003213449
C0AG80,中和,2022-02-07,24.991622,121.491792,0.00048301384
C0AH00,汐止,2022-02-07,25.066881,121.658778,0.0006885493
C0AH10,永和,2022-02-07,25.01125,121.508111,0.0004956304
C0AH40,平等,2022-02-07,25.129142,121.577086,0.00080453855
C0AH50,林口,2022-02-07,25.072181,121.38084,0.00055921846
C0AH70,松山,2022-02-07,25.04871,121.55042,0.00048301384
C0AH80,深坑,2022-02-07,25.002703,121.628328,0.00042544332
C0AI00,五股,2022-02-07,25.07445,121.42728,0.0005174201
C0AI10,屈尺,2022-02-07,24.92184,121.54475,0.00042544332
C0AI20,白沙灣,2022-02-07,25.283128,121.519058,0.00031879576
C0AI30,三重,2022-02-07,25.057328,121.500629,0.00038556522
C0AI40,石牌,2022-02-07,25.115597,121.513139,0.00037732237
C0AJ20,野柳,2022-02-07,25.20703,121.690021,0.0006885493
C0AJ30,淡水觀海,2022-02-07,25.184591,121.408616,0.0003425259
C0AJ40,石門,2022-02-07,25.273672,121.601198,0.00027050546
C0AJ50,水湳洞,2022-02-07,25.123695,121.862238,0.0006885493
C0AJ60,六塊厝,2022-02-07,25.24,121.4481,0.0003425259
C0AJ70,田寮,2022-02-07,25.2698,121.4886,0.00032228194
C0AJ80,板橋,2022-02-07,25.0107,121.4489,0.00037732237
C0AJ90,澳底,2022-02-07,25.0552,121.9253,0.016439507
C0B010,七堵,2022-02-07,25.094819,121.71713,0.00064493954
C0B020,基隆嶼,2022-02-07,25.19141,121.78391,0.0006885493
C0B040,大武崙,2022-02-07,25.166676,121.706993,0.00064493954
C0B050,八斗子,2022-02-07,25.144754,121.79167,0.00073817524
C0B060,暖暖,2022-02-07,25.0957,121.7403,0.0005565923
C0C460,復興,2022-02-07,24.820208,121.352281,0.0010545183
C0C480,桃園,2022-02-07,24.992425,121.323172,0.0005455022
C0C490,八德,2022-02-07,24.928708,121.283289,0.0006555517
C0C590,觀音,2022-02-07,25.027072,121.153317,0.00030089478
C0C620,蘆竹,2022-02-07,25.084275,121.265767,0.0003267213
C0C630,大溪,2022-02-07,24.882853,121.265547,0.0005671338
C0C650,平鎮,2022-02-07,24.897503,121.214636,0.00045812354
C0C660,楊梅,2022-02-07,24.912375,121.143047,0.0004889994
C0C670,龍潭,2022-02-07,24.870056,121.221389,0.0005340712
C0C680,龜山,2022-02-07,25.02846,121.38656,0.0008747586
C0C700,中壢,2022-02-07,24.977661,121.256375,0.0005172954
C0C710,大溪永福,2022-02-07,24.892936,121.324975,0.000515528
C0C720,竹圍,2022-02-07,25.112692,121.239824,0.00033701592
C0C730,中大臨海站,2022-02-07,24.966126,121.008581,0.0011923414
C0C740,觀音工業區,2022-02-07,25.064764,121.114856,0.0005916782
C0C750,新興坑尾,2022-02-07,25.0061,121.0971,0.0005260853
C0D430,峨眉,2022-02-07,24.6905,121.017189,0.00072818436
C0D480,打鐵坑,2022-02-07,24.849664,121.150789,0.0006437534
C0D540,橫山,2022-02-07,24.71116,121.11693,0.00066445075
C0D560,竹東,2022-02-07,24.767147,121.057881,0.0005594885
C0D580,寶山,2022-02-07,24.735006,121.025192,0.0008465278
C0D590,新豐,2022-02-07,24.87068,120.97721,0.001263504
C0D650,湖口,2022-02-07,24.904794,121.043628,0.0008737435
C0D660,新竹市東區,2022-02-07,24.798681,120.986942,0.00065348356
C0D670,海天一線,2022-02-07,24.831986,120.914438,0.00074119435
C0D680,香山濕地,2022-02-07,24.783581,120.914988,0.0007261629
C0D690,外湖,2022-02-07,24.917735,120.968711,0.0011923414
C0D700,關西,2022-02-07,24.7977,121.1732,0.00052095606
C0E420,竹南,2022-02-07,24.708978,120.888897,0.00067787775
C0E430,南庄,2022-02-07,24.601775,121.000214,0.0007938683
C0E520,大湖,2022-02-07,24.41494,120.87087,0.0008978589
C0E540,後龍,2022-02-07,24.606489,120.783933,0.00021984748
C0E550,明德,2022-02-07,24.583486,120.885411,0.00032186217
C0E590,通霄,2022-02-07,24.471892,120.704622,0.00024358492
C0E730,頭份,2022-02-07,24.688247,120.912206,0.00067787775
C0E740,造橋,2022-02-07,24.637056,120.864778,0.00033453526
C0E750,苗栗,2022-02-07,24.564569,120.824575,0.000200401
C0E780,銅鑼,2022-02-07,24.489681,120.790853,0.0003940879
C0E791,卓蘭,2022-02-07,24.3126,120.8244,0.00092660513
C0E810,西湖,2022-02-07,24.562947,120.7485,0.00020749873
C0E820,獅潭,2022-02-07,24.539133,120.920042,0.0003261813
C0E830,苑裡,2022-02-07,24.439714,120.653053,0.00030169188
C0E850,大河,2022-02-07,24.618069,120.948578,0.0003116166
C0E870,高鐵苗栗,2022-02-07,24.60725,120.826094,0.0002152552
C0E910,海埔,2022-02-07,24.648767,120.772435,0.00038199537
C0E920,通霄漁港,2022-02-07,24.498589,120.673876,0.00027438745
C0E930,龍鳳,2022-02-07,24.700034,120.859125,0.00035310737
C0F0B0,石岡,2022-02-07,24.276061,120.777644,0.0032807803
C0F850,東勢,2022-02-07,24.246428,120.833047,0.000807835
C0F930,大甲,2022-02-07,24.347667,120.640403,0.0003033989
C0F970,大坑,2022-02-07,24.173142,120.722289,0.00027270187
C0F9A0,中竹林,2022-02-07,24.103556,120.751061,0.0020391976
C0F9I0,神岡,2022-02-07,24.272481,120.658314,0.00039226311
C0F9K0,大安,2022-02-07,24.345061,120.588025,0.00040090605
C0F9L0,后里,2022-02-07,24.310436,120.729725,0.00033945887
C0F9M0,豐原,2022-02-07,24.254322,120.720692,0.0003639506
C0F9N0,大里,2022-02-07,24.092464,120.701378,0.00044187022
C0F9O0,潭子,2022-02-07,24.213106,120.703933,0.00042713847
C0F9P0,清水,2022-02-07,24.312297,120.562242,0.00043379643
C0F9Q0,外埔,2022-02-07,24.347817,120.705686,0.0004378145
C0F9R0,龍井,2022-02-07,24.184536,120.528972,0.0004451724
C0F9S0,烏日,2022-02-07,24.107058,120.624103,0.0003678651
C0F9T0,西屯,2022-02-07,24.179494,120.641275,0.0003304437
C0F9U0,南屯,2022-02-07,24.137006,120.637969,0.0004418696
C0F9X0,大雅(中科園區),2022-02-07,24.21528,120.62445,0.00026548278
C0FA10,松柏,2022-02-07,24.429115,120.617482,0.0003291794
C0FA20,溫寮,2022-02-07,24.372177,120.583125,0.0003291794
C0FA30,梧棲,2022-02-07,24.256003,120.523381,0.0004451724
C0FA40,臺中電廠,2022-02-07,24.2146,120.4907,0.0004451724
C0FA50,霧峰,2022-02-07,24.0419,120.6995,0.0004001315
C0G620,芬園,2022-02-07,24.015678,120.6213,0.0013182686
C0G640,鹿港,2022-02-07,24.0753,120.430481,0.00038121545
C0G650,員林,2022-02-07,23.946503,120.585597,0.0019600287
C0G660,溪湖,2022-02-07,23.94835,120.479122,0.00091483817
C0G720,溪州,2022-02-07,23.851589,120.499093,0.0028005715
C0G730,二林,2022-02-07,23.903325,120.376081,0.0010936571
C0G740,大城,2022-02-07,23.852487,120.320935,0.0013909427
C0G770,福興,2022-02-07,24.041289,120.437669,0.00038121545
C0G780,秀水,2022-02-07,24.03405,120.503869,0.00027796286
C0G800,埔鹽,2022-02-07,24.000394,120.431683,0.00038121545
C0G810,埔心,2022-02-07,23.947633,120.525456,0.0010104473
C0G820,田尾,2022-02-07,23.901669,120.509389,0.001115738
C0G830,埤頭,2022-02-07,23.866003,120.452806,0.0034527096
C0G840,北斗,2022-02-07,23.877586,120.514222,0.001115738
C0G860,社頭,2022-02-07,23.897647,120.5862,0.002148059
C0G870,芳苑,2022-02-07,23.922303,120.320025,0.0015548171
C0G880,二水,2022-02-07,23.810742,120.6173,0.002229588
C0G890,伸港,2022-02-07,24.148933,120.484403,0.00056784664
C0G900,線西,2022-02-07,24.143358,120.443536,0.00051535905
C0G910,花壇,2022-02-07,24.032076,120.549461,0.00032879203
C0G920,永靖,2022-02-07,23.924703,120.547533,0.001115738
C0G940,竹塘,2022-02-07,23.848253,120.386764,0.004415254
C0G950,防潮門,2022-02-07,24.1835,120.4871,0.0004652605
C0G960,福寶,2022-02-07,24.0443,120.3814,0.00034722695
C0G970,三豐,2022-02-07,23.882,120.2895,0.0015548179
C0H890,埔里,2022-02-07,23.972169,120.952425,0.0012680207
C0H950,中寮,2022-02-07,23.884447,120.766406,0.00090591086
C0H960,草屯,2022-02-07,23.973672,120.68085,0.0015501251
C0I110,竹山,2022-02-07,23.761225,120.688156,0.0010744849
C0I360,水里,2022-02-07,23.812553,120.849792,0.0015775491
C0I380,集集,2022-02-07,23.828206,120.801467,0.0017002627
C0I410,名間,2022-02-07,23.837053,120.701447,0.001591292
C0I420,國姓,2022-02-07,24.037803,120.855072,0.0030583837
C0I460,南投,2022-02-07,23.911469,120.687331,0.001458075
C0K250,崙背,2022-02-07,23.75555,120.318925,0.0014183809
C0K280,四湖,2022-02-07,23.630414,120.227125,0.0016002769
C0K291,宜梧,2022-02-07,23.536281,120.169329,0.0034636194
C0K330,虎尾,2022-02-07,23.719183,120.442036,0.0041034883
C0K390,土庫,2022-02-07,23.679029,120.395574,0.004478922
C0K400,斗六,2022-02-07,23.720583,120.541127,0.0045385654
C0K410,北港,2022-02-07,23.573957,120.292802,0.0030189983
C0K420,西螺,2022-02-07,23.800407,120.467394,0.0033658526
C0K430,褒忠,2022-02-07,23.690938,120.303634,0.0020822948
C0K440,二崙,2022-02-07,23.772797,120.408944,0.0040482217
C0K450,大埤,2022-02-07,23.646074,120.431537,0.004151796
C0K460,斗南,2022-02-07,23.678734,120.478359,0.0052342867
C0K470,林內,2022-02-07,23.748675,120.609642,0.0025987828
C0K480,莿桐,2022-02-07,23.761192,120.502372,0.0031584413
C0K500,元長,2022-02-07,23.64981,120.315024,0.0023323204
C0K510,水林,2022-02-07,23.572924,120.24597,0.0024252743
C0K530,臺西,2022-02-07,23.701547,120.197559,0.0016676608
C0K550,蔦松,2022-02-07,23.514319,120.229736,0.0032300258
C0K560,棋山,2022-02-07,23.68645,120.603417,0.0041654357
C0K580,高鐵雲林,2022-02-07,23.737456,120.417944,0.004478922
C0K590,雲林東勢,2022-02-07,23.674192,120.255721,0.0020822948
C0K600,箔子寮,2022-02-07,23.6197,120.14,0.0025816176
C0M410,馬頭山,2022-02-07,23.324361,120.582017,0.0025380866
C0M520,東後寮,2022-02-07,23.369908,120.248065,0.009197036
C0M640,中埔,2022-02-07,23.42538,120.5229,0.0022757365
C0M650,朴子,2022-02-07,23.43463,120.23902,0.00426123
C0M660,溪口,2022-02-07,23.604131,120.403569,0.0013403229
C0M670,大林,2022-02-07,23.600616,120.45841,0.00121526
C0M680,太保,2022-02-07,23.455062,120.331455,0.0034568761
C0M690,水上,2022-02-07,23.419734,120.388909,0.0007864525
C0M700,竹崎,2022-02-07,23.526178,120.555508,0.0017118069
C0M710,東石,2022-02-07,23.458927,120.15385,0.0032300258
C0M720,番路,2022-02-07,23.464657,120.554156,0.0015559575
C0M730,嘉義市東區,2022-02-07,23.457673,120.460531,0.0008293145
C0M740,六腳,2022-02-07,23.492871,120.290625,0.0036653592
C0M750,布袋,2022-02-07,23.380878,120.167789,0.00426123
C0M760,民雄,2022-02-07,23.551754,120.428457,0.0010443252
C0M770,嘉義梅山,2022-02-07,23.585398,120.555587,0.0027917072
C0M780,鹿草,2022-02-07,23.41134,120.30835,0.0028684093
C0M790,新港,2022-02-07,23.553269,120.345728,0.002829501
C0M800,茶山,2022-02-07,23.299075,120.664767,0.0072571384
C0M880,好美里,2022-02-07,23.3364,120.138,0.015107609
C0N010,鯤鯓國小,2022-02-07,23.1879,120.0889,0.011995799
C0N020,城西,2022-02-07,23.0568,120.0956,0.014439218
C0N030,四草,2022-02-07,23.0235,120.1116,0.0064002364
C0N040,蘆竹溝,2022-02-07,23.2344,120.0961,0.011995828
C0N050,蚵寮,2022-02-07,23.301,120.1104,0.011995799
C0O810,曾文,2022-02-07,23.219681,120.497328,0.0011327945
C0O830,北寮,2022-02-07,23.079561,120.495008,0.024177447
C0O840,王爺宮,2022-02-07,23.222064,120.40085,0.0011327945
C0O860,大內,2022-02-07,23.11885,120.36083,0.0056192693
C0O900,善化,2022-02-07,23.112883,120.297219,0.009995992
C0O930,玉井,2022-02-07,23.126042,120.46055,0.0021718484
C0O950,安南,2022-02-07,23.076694,120.144861,0.008811763
C0O960,崎頂,2022-02-07,22.959547,120.369317,0.022468472
C0O970,虎頭埤,2022-02-07,23.021375,120.347878,0.01382847
C0O980,新市,2022-02-07,23.061614,120.298197,0.009995992
C0O990,媽廟,2022-02-07,22.99175,120.293525,0.010734757
C0R150,三地門,2022-02-07,22.709889,120.639944,0.5485767
C0R160,鹽埔,2022-02-07,22.739558,120.530778,0.28006107
C0R170,屏東,2022-02-07,22.660269,120.494072,0.07240044
C0R190,赤山,2022-02-07,22.592333,120.614306,0.3834861
C0R220,潮州,2022-02-07,22.534361,120.54,0.5804075
C0R240,來義,2022-02-07,22.527306,120.625111,0.6559562
C0R260,春日,2022-02-07,22.370361,120.628306,0.7145886
C0R270,琉球嶼,2022-02-07,22.332244,120.362236,0.7017701
C0R280,檳榔,2022-02-07,22.076078,120.836777,0.018995525
C0R320,車城,2022-02-07,22.0744,120.716247,0.13016693
C0R341,牡丹,2022-02-07,22.130036,120.792639,0.7655587
C0R350,貓鼻頭,2022-02-07,21.921774,120.7358,0.07806347
C0R470,高樹,2022-02-07,22.826389,120.600806,0.51224387
C0R480,長治,2022-02-07,22.693128,120.542622,0.26216608
C0R490,九如,2022-02-07,22.7405,120.490503,0.06969846
C0R520,崁頂,2022-02-07,22.514781,120.506914,0.07365748
C0R540,佳冬,2022-02-07,22.419456,120.552375,0.07800315
C0R550,新埤,2022-02-07,22.467947,120.582894,0.40801516
C0R560,新園,2022-02-07,22.5434,120.461558,0.07365748
C0R570,麟洛,2022-02-07,22.65078,120.52719,0.069698386
C0R580,南州,2022-02-07,22.48591,120.50274,0.07800315
C0R590,里港,2022-02-07,22.77919,120.49459,0.20803504
C0R620,墾雷,2022-02-07,21.900836,120.855269,0.07806351
C0R640,東港,2022-02-07,22.46247,120.44074,0.058086377
C0R650,竹田,2022-02-07,22.58486,120.54344,0.42894843
C0R660,枋寮,2022-02-07,22.367722,120.590647,0.6190857
C0R670,楓港,2022-02-07,22.190131,120.692156,0.88407964
C0R680,佳樂水,2022-02-07,21.993578,120.861633,0.09995519
C0R690,墾丁,2022-02-07,21.966756,120.810269,0.016474849
C0R700,枋山,2022-02-07,22.246844,120.661086,0.88407964
C0R710,龍磐,2022-02-07,21.931672,120.838942,0.031988602
C0R720,旭海,2022-02-07,22.205403,120.887614,0.27713722
C0R730,大坪頂,2022-02-07,22.024633,120.69355,0.038973875
C0R740,獅子,2022-02-07,22.201569,120.70525,0.86124223
C0R760,南仁湖,2022-02-07,22.084681,120.863353,0.010487339
C0R770,保力,2022-02-07,22.071122,120.764111,0.045657355
C0R780,滿州,2022-02-07,22.024403,120.839892,0.069621295
C0R790,九棚,2022-02-07,22.14195,120.889281,0.46794152
C0R800,丹路,2022-02-07,22.204481,120.750989,0.8041269
C0R810,內獅,2022-02-07,22.305064,120.642986,0.77831817
C0R830,高士,2022-02-07,22.121825,120.836781,0.0072797397
C0R850,林邊,2022-02-07,22.4634,120.5339,0.07365748
C0R860,鼻頭,2022-02-07,22.1043,120.8979,0.066607386
C0R870,興海,2022-02-07,21.9752,120.8439,0.09995519
C0R880,後壁湖,2022-02-07,21.9457,120.7457,0.14974642
C0R890,山海,2022-02-07,21.9878,120.7091,0.13016693
C0R900,竹坑,2022-02-07,22.1385,120.7022,0.90625733
C0R910,下寮,2022-02-07,22.3929,120.5548,0.07800315
C0R920,塭仔,2022-02-07,22.4169,120.5197,0.083092734
C0R930,萬丹,2022-02-07,22.5885,120.4851,0.42894843
C0R940,加祿堂,2022-02-07,22.3363,120.6217,0.77831817
C0S710,鹿野,2022-02-07,22.917711,121.122994,0.07163516
C0S730,綠島,2022-02-07,22.6672,121.47533,0.6956665
C0S740,池上,2022-02-07,23.119628,121.209469,0.18057165
C0S770,大溪山,2022-02-07,22.478475,120.943325,0.09635875
C0S790,金崙,2022-02-07,22.538122,120.966875,0.69545686
C0S810,東河,2022-02-07,22.972672,121.303986,0.5748332
C0S830,長濱,2022-02-07,23.286817,121.411975,0.05491792
C0S840,南田,2022-02-07,22.279725,120.889208,0.90276086
C0S890,關山,2022-02-07,23.0395,121.175017,0.38852173
C0S900,蘭嶼高中,2022-02-07,22.04909,121.51214,0.8200077
C0S910,蘭嶼燈塔,2022-02-07,22.081197,121.503117,0.2974511
C0S920,金峰嘉蘭,2022-02-07,22.594789,120.960825,0.8693052
C0S930,延平,2022-02-07,22.902581,121.084058,0.27005494
C0S940,石寧山,2022-02-07,23.223772,121.406639,0.20375356
C0S950,七塊厝,2022-02-07,22.954453,121.229922,0.05356692
C0S960,香蘭,2022-02-07,22.587569,120.993375,0.8906814
C0S970,加津林,2022-02-07,22.416211,120.926942,0.90779227
C0S990,山豬窟,2022-02-07,22.318619,120.857372,0.01951637
C0SA00,歷坵,2022-02-07,22.520969,120.89185,0.03190748
C0SA10,檳榔四格山,2022-02-07,22.810031,121.109308,0.011047695
C0SA30,都歷,2022-02-07,23.020333,121.323642,0.7323103
C0SA40,瑞和,2022-02-07,22.974361,121.156697,0.46039265
C0SA60,知本（水試所）,2022-02-07,22.702394,121.082761,0.8216549
C0SA80,土坂,2022-02-07,22.453108,120.887572,0.8406566
C0SA90,達仁林場,2022-02-07,22.264347,120.823972,0.045698904
C0T870,鯉魚潭,2022-02-07,23.935639,121.508944,0.18507178
C0T900,西林,2022-02-07,23.8119,121.441458,0.20310713
C0T960,光復,2022-02-07,23.660694,121.424964,0.09456355
C0T9A0,月眉山,2022-02-07,23.809928,121.539828,0.107683524
C0T9D0,和中,2022-02-07,24.26676,121.74103,0.40350494
C0T9E0,大坑,2022-02-07,23.880628,121.581981,0.16409475
C0T9F0,水璉,2022-02-07,23.797131,121.542514,0.19837159
C0T9I0,豐濱,2022-02-07,23.583897,121.514806,0.07063754
C0T9M0,靜浦,2022-02-07,23.455167,121.495028,0.046035744
C0T9N0,富里,2022-02-07,23.171639,121.249378,0.04864217
C0U600,礁溪,2022-02-07,24.817539,121.765608,0.031648893
C0U650,玉蘭,2022-02-07,24.675286,121.587061,0.0046828026
C0U750,龜山島,2022-02-07,24.841667,121.953133,0.016562635
C0U760,東澳,2022-02-07,24.52196,121.83318,0.13515228
C0U770,南澳,2022-02-07,24.44935,121.81022,0.4251665
C0U780,五結,2022-02-07,24.68637,121.79794,0.049914945
C0U860,頭城,2022-02-07,24.85323,121.8308,0.034105115
C0U870,大礁溪,2022-02-07,24.791042,121.675047,0.0053001754
C0U880,北關,2022-02-07,24.9072,121.8734,0.00084384956
C0U890,三星,2022-02-07,24.66812,121.65302,0.016155366
C0U900,內城,2022-02-07,24.71813,121.68766,0.025489988
C0U910,冬山,2022-02-07,24.63373,121.7937,0.049914945
C0U940,羅東,2022-02-07,24.68184,121.74934,0.045636144
C0U970,大福,2022-02-07,24.80064,121.81389,0.03680966
C0U990,員山,2022-02-07,24.74435,121.72247,0.045636144
C0UA00,土場,2022-02-07,24.576533,121.495333,0.008750784
C0UA80,大溪漁港,2022-02-07,24.941801,121.902955,0.03164891
C0UA90,石城,2022-02-07,24.980444,121.951214,0.015951375
C0UB00,淡江大學蘭陽校園,2022-02-07,24.823239,121.730383,0.005907447
C0UB10,蘇澳,2022-02-07,24.5969,121.8571,0.37791803
C0UB20,壯圍,2022-02-07,24.7359,121.8163,0.054487385
C0V250,甲仙,2022-02-07,23.080106,120.591758,0.003471794
C0V260,月眉,2022-02-07,22.971003,120.539853,0.031038174
C0V310,美濃,2022-02-07,22.898742,120.519153,0.014119606
C0V350,溪埔,2022-02-07,22.738578,120.446797,0.049906608
C0V360,內門,2022-02-07,22.975481,120.466769,0.006926994
C0V370,古亭坑,2022-02-07,22.893178,120.401947,0.010583043
C0V400,阿公店,2022-02-07,22.804194,120.355528,0.03596472
C0V440,鳳山,2022-02-07,22.646653,120.356122,0.05631655
C0V450,鳳森,2022-02-07,22.545064,120.392592,0.31094217
C0V490,新興,2022-02-07,22.627422,120.298803,0.05771754
C0V530,阿蓮,2022-02-07,22.883208,120.327508,0.010339788
C0V610,梓官,2022-02-07,22.760558,120.267211,0.040994953
C0V620,永安,2022-02-07,22.82315,120.236856,0.037381135
C0V630,茄萣,2022-02-07,22.906642,120.182608,0.0052431617
C0V640,湖內,2022-02-07,22.887139,120.2445,0.005487497
C0V650,彌陀,2022-02-07,22.783806,120.246361,0.037381135
C0V660,岡山,2022-02-07,22.797078,120.294958,0.040995017
C0V680,仁武,2022-02-07,22.701083,120.347722,0.047710843
C0V690,鼓山,2022-02-07,22.623325,120.275575,0.05771754
C0V700,三民,2022-02-07,22.645017,120.311233,0.05771754
C0V710,苓雅,2022-02-07,22.622742,120.330669,0.05771754
C0V720,林園,2022-02-07,22.507747,120.394511,0.05771754
C0V730,大寮,2022-02-07,22.605614,120.395717,0.42425054
C0V740,旗山,2022-02-07,22.888614,120.483597,0.012736737
C0V750,路竹,2022-02-07,22.854997,120.259439,0.034671076
C0V760,橋頭,2022-02-07,22.757806,120.30575,0.039868508
C0V770,大社,2022-02-07,22.730306,120.346639,0.047710843
C0V790,萬山,2022-02-07,22.905944,120.688056,0.0079086535
C0V800,六龜,2022-02-07,22.997889,120.633583,0.067833476
C0V810,左營,2022-02-07,22.67491,120.28491,0.049126253
C0V820,小林,2022-02-07,23.148408,120.63325,0.0061581754
C0V840,鳳鼻頭,2022-02-07,22.5083,120.3591,0.057456713
C0V850,蚵仔寮,2022-02-07,22.7256,120.2527,0.049960766
C0V860,南寮,2022-02-07,22.7616,120.2339,0.037820693
C0V870,文安,2022-02-07,22.8025,120.2164,0.037820693
C0V880,興達,2022-02-07,22.8778,120.2127,0.0052431617
C0V890,前鎮,2022-02-07,22.5718,120.3117,0.058086377
C0V900,汕尾,2022-02-07,22.4782,120.4151,0.08172374
C0X050,東河,2022-02-07,23.296598,120.385608,0.0022329893
C0X060,下營,2022-02-07,23.22695,120.256261,0.011837315
C0X080,佳里,2022-02-07,23.173039,120.145086,0.015107617
C0X100,臺南市北區,2022-02-07,23.010394,120.194228,0.0070041437
C0X110,臺南市南區,2022-02-07,22.961189,120.188378,0.0072760712
C0X120,麻豆,2022-02-07,23.183289,120.248611,0.015209512
C0X130,官田,2022-02-07,23.193217,120.315422,0.010125641
C0X140,西港,2022-02-07,23.125608,120.203108,0.013285666
C0X150,安定,2022-02-07,23.102614,120.227839,0.007915004
C0X160,仁德,2022-02-07,22.968258,120.257689,0.010307654
C0X170,關廟,2022-02-07,22.963017,120.327797,0.011864911
C0X180,山上,2022-02-07,23.0757,120.363253,0.003831617
C0X190,安平,2022-02-07,22.993161,120.152181,0.0070041437
C0X200,左鎮,2022-02-07,23.056758,120.408522,0.0041513974
C0X210,白河,2022-02-07,23.347466,120.414427,0.002118382
C0X220,學甲,2022-02-07,23.230367,120.182187,0.015209519
C0X230,鹽水,2022-02-07,23.272621,120.247641,0.012613441
C0X240,關子嶺,2022-02-07,23.331169,120.508025,0.0020333487
C0X250,新營,2022-02-07,23.310689,120.316681,0.007600775
C0X260,後壁,2022-02-07,23.366358,120.362326,0.0026690303
C0X280,將軍,2022-02-07,23.214999,120.13577,0.015107609
C0X290,北門,2022-02-07,23.267772,120.125481,0.015107609
C0X300,鹿寮,2022-02-07,23.386047,120.477331,0.0033151899
C0X310,七股,2022-02-07,23.147289,120.086253,0.023926742
C0X320,柳營,2022-02-07,23.253328,120.375253,0.0022329893
C0Z020,明里,2022-02-07,23.208717,121.262342,0.0754427
C0Z061,玉里,2022-02-07,23.3215,121.339656,0.36966637
C0Z070,舞鶴,2022-02-07,23.46811,121.37407,0.087077715
C0Z080,富源,2022-02-07,23.587642,121.378225,0.1037361
C0Z100,東華,2022-02-07,23.89525,121.549833,0.09666333
C0Z150,吉安光華,2022-02-07,23.930925,121.595153,0.0803805
C0Z160,鳳林,2022-02-07,23.746114,121.453411,0.085975386
C0Z170,卓溪,2022-02-07,23.3443,121.3029,0.28598097
C0Z180,新城,2022-02-07,24.03946,121.60454,0.15267089
C0Z190,富世,2022-02-07,24.14743,121.6297,0.13916048
C0Z200,萬榮,2022-02-07,23.709219,121.420106,0.18507178
C0Z210,瑞穗,2022-02-07,23.5239,121.39021,0.059844017
C0Z230,和平,2022-02-07,24.30717,121.77007,0.40350494
C0Z270,蕃薯寮,2022-02-07,23.73835,121.540108,0.07949495
C0Z280,德武,2022-02-07,23.47426,121.41071,0.066903844
C0Z300,東里,2022-02-07,23.26853,121.30547,0.32678935
C0Z310,清水斷崖,2022-02-07,24.218294,121.689142,0.3534116
C0Z330,安通山,2022-02-07,23.290728,121.348528,0.045625806
