站號,站名,日期,lat,lon,BlastGRU-TW
12J990,口湖工作站,2022-05-31,23.589978,120.180394,0.00442426
12Q970,東港工作站,2022-05-31,22.479997,120.466058,0.008714527
12Q980,恆春工作站,2022-05-31,22.079678,120.714425,0.034486406
466881,新北,2022-05-31,24.9593,121.52,0.9461457
466900,淡水,2022-05-31,25.164889,121.448906,0.94381106
466920,臺北,2022-05-31,25.037658,121.514853,0.9437881
466940,基隆,2022-05-31,25.133314,121.740475,0.950198
466990,花蓮,2022-05-31,23.975128,121.613275,0.6553114
467050,新屋,2022-05-31,25.006744,121.047486,0.9932471
467060,蘇澳,2022-05-31,24.596736,121.857372,0.023660522
467080,宜蘭,2022-05-31,24.763975,121.756528,0.8455991
467270,田中,2022-05-31,23.873803,120.581286,0.009563007
467300,東吉島,2022-05-31,23.25695,119.667467,0.09944145
467350,澎湖,2022-05-31,23.565503,119.563094,0.6104926
467410,臺南,2022-05-31,22.993239,120.204772,0.0061413776
467420,永康,2022-05-31,23.038386,120.2367,0.0061412225
467441,高雄,2022-05-31,22.7304,120.3125,0.0078029386
467480,嘉義,2022-05-31,23.495925,120.432906,0.0039219293
467490,臺中,2022-05-31,24.145736,120.684075,0.33341265
467540,大武,2022-05-31,22.355675,120.903789,0.01731226
467571,新竹,2022-05-31,24.827853,121.014219,0.9873671
467590,恆春,2022-05-31,22.003897,120.746339,0.042771444
467610,成功,2022-05-31,23.097486,121.373428,0.012332848
467620,蘭嶼,2022-05-31,22.036969,121.558339,0.9939879
467660,臺東,2022-05-31,22.752211,121.154586,0.10964039
467790,墾丁雷達站,2022-05-31,21.948235,120.808028,0.053542774
72AI40,桃改臺北分場,2022-05-31,24.944503,121.386972,0.945637
72C440,桃園農改場,2022-05-31,24.950944,121.030583,0.9929881
72D680,新埔,2022-05-31,24.834444,121.066111,0.98682666
72G600,臺中農改場,2022-05-31,24.003028,120.534389,0.018602809
72K220,雲林分場,2022-05-31,23.634556,120.477333,0.0065752384
72L140,朴子分場,2022-05-31,23.4982,120.2414,0.0042015095
72M360,義竹工作站,2022-05-31,23.360694,120.279361,0.0041442695
72M700,嘉義分場,2022-05-31,23.416869,120.283061,0.0039310227
72N100,臺南農改場,2022-05-31,23.0605,120.342194,0.0058528595
72N240,七股研究中心,2022-05-31,23.081672,120.062894,0.005147783
72Q010,高雄農改場,2022-05-31,22.709333,120.525889,0.021052588
72S200,斑鳩分場,2022-05-31,22.829528,121.077694,0.35948616
72S590,賓朗果園,2022-05-31,22.813889,121.071278,0.42248613
72T250,花蓮農改場,2022-05-31,23.975222,121.563889,0.71484447
72U480,蘭陽分場,2022-05-31,24.686306,121.716583,0.9069888
72V140,旗南,2022-05-31,22.857861,120.516667,0.05444875
82A750,文山分場,2022-05-31,24.955778,121.631222,0.93395764
82C160,茶改場(楊梅),2022-05-31,24.908472,121.185333,0.9762582
82H840,凍頂工作站,2022-05-31,23.762528,120.7405,0.8061884
82S580,龍田,2022-05-31,22.907694,121.130139,0.02162554
A0K420,麥寮,2022-05-31,23.7988,120.2177,0.003968438
A0W080,吉貝,2022-05-31,23.74,119.6042,0.97534597
A2C560,農工中心,2022-05-31,24.985917,121.239833,0.97444063
A2K360,臺西分所,2022-05-31,23.717231,120.190522,0.004428759
A2K570,古坑(花卉中心),2022-05-31,23.633531,120.552392,0.0121960575
A2K630,臺大雲林校區,2022-05-31,23.730628,120.423903,0.006473302
A2N290,臺南蘭花園區,2022-05-31,23.340258,120.379661,0.0039939606
B2E890,新竹畜試,2022-05-31,24.527806,120.770972,0.5505687
B2N890,畜產試驗所,2022-05-31,23.058972,120.336406,0.0058528595
B2Q810,恆春分所,2022-05-31,21.945583,120.802167,0.039613537
B2U990,宜蘭畜試,2022-05-31,24.669039,121.832561,0.9087058
C0A520,山佳,2022-05-31,24.974944,121.402008,0.94563705
C0A530,坪林,2022-05-31,24.938183,121.70975,0.90941143
C0A540,四堵,2022-05-31,24.8926,121.745736,0.94084954
C0A550,泰平,2022-05-31,24.971197,121.823711,0.9322438
C0A560,福山,2022-05-31,24.776203,121.502811,0.93395764
C0A570,桶後,2022-05-31,24.848222,121.597992,0.94304955
C0A640,石碇,2022-05-31,24.993969,121.662917,0.86104727
C0A650,火燒寮,2022-05-31,25.002719,121.742892,0.8705146
C0A660,瑞芳,2022-05-31,25.113169,121.801147,0.862875
C0A770,科教館,2022-05-31,25.096356,121.516507,0.9432862
C0A860,大坪,2022-05-31,25.165914,121.632969,0.9340475
C0A880,福隆,2022-05-31,25.017842,121.942083,0.8827869
C0A890,雙溪,2022-05-31,25.036003,121.864242,0.94438535
C0A920,富貴角,2022-05-31,25.263783,121.565258,0.9494273
C0A931,三和,2022-05-31,25.233153,121.595236,0.8666648
C0A940,金山,2022-05-31,25.223628,121.643967,0.9447328
C0A950,鼻頭角,2022-05-31,25.129036,121.923372,0.88525367
C0A970,三貂角,2022-05-31,25.007606,122.002058,0.87113637
C0A980,社子,2022-05-31,25.109508,121.469681,0.94270456
C0A9C0,天母,2022-05-31,25.117494,121.537169,0.9447772
C0A9F0,內湖,2022-05-31,25.079422,121.57545,0.9437881
C0AC60,三峽,2022-05-31,24.939025,121.369728,0.9475423
C0AC70,信義,2022-05-31,25.037822,121.564597,0.9437881
C0AC80,文山,2022-05-31,25.00235,121.575728,0.95022565
C0ACA0,新莊,2022-05-31,25.051478,121.446756,0.94257635
C0AD00,三芝,2022-05-31,25.258131,121.501917,0.94709593
C0AD10,八里,2022-05-31,25.150211,121.403947,0.94381106
C0AD30,蘆洲,2022-05-31,25.086594,121.472331,0.9432862
C0AD40,土城,2022-05-31,24.973208,121.445169,0.9438997
C0AD50,鶯歌,2022-05-31,24.951533,121.346294,0.946019
C0AG80,中和,2022-05-31,24.991622,121.491792,0.9437881
C0AH00,汐止,2022-05-31,25.066881,121.658778,0.94876343
C0AH10,永和,2022-05-31,25.01125,121.508111,0.94287765
C0AH40,平等,2022-05-31,25.129142,121.577086,0.94021076
C0AH50,林口,2022-05-31,25.072181,121.38084,0.93598187
C0AH70,松山,2022-05-31,25.04871,121.55042,0.9437882
C0AH80,深坑,2022-05-31,25.002703,121.628328,0.95022565
C0AI00,五股,2022-05-31,25.07445,121.42728,0.9676529
C0AI10,屈尺,2022-05-31,24.92184,121.54475,0.95022565
C0AI20,白沙灣,2022-05-31,25.283128,121.519058,0.94441676
C0AI30,三重,2022-05-31,25.057328,121.500629,0.9432862
C0AI40,石牌,2022-05-31,25.115597,121.513139,0.9438997
C0AJ10,澳底,2022-05-31,25.057107,121.927272,0.88777906
C0AJ20,野柳,2022-05-31,25.20703,121.690021,0.94876343
C0AJ30,淡水觀海,2022-05-31,25.184591,121.408616,0.94449323
C0AJ40,石門,2022-05-31,25.273672,121.601198,0.9582463
C0AJ50,水湳洞,2022-05-31,25.123695,121.862238,0.94876343
C0AJ60,六塊厝,2022-05-31,25.24,121.4481,0.94449323
C0AJ70,田寮,2022-05-31,25.2698,121.4886,0.9445248
C0AJ80,板橋,2022-05-31,25.0107,121.4489,0.9438997
C0B010,七堵,2022-05-31,25.094819,121.71713,0.94626606
C0B020,基隆嶼,2022-05-31,25.19141,121.78391,0.94876343
C0B040,大武崙,2022-05-31,25.166676,121.706993,0.94626606
C0B050,八斗子,2022-05-31,25.144754,121.79167,0.95179474
C0B060,暖暖,2022-05-31,25.0957,121.7403,0.94293034
C0C460,復興,2022-05-31,24.820208,121.352281,0.9418608
C0C480,桃園,2022-05-31,24.992425,121.323172,0.97669804
C0C490,八德,2022-05-31,24.928708,121.283289,0.9823655
C0C590,觀音,2022-05-31,25.027072,121.153317,0.94514054
C0C620,蘆竹,2022-05-31,25.084275,121.265767,0.9429776
C0C630,大溪,2022-05-31,24.882853,121.265547,0.9803715
C0C650,平鎮,2022-05-31,24.897503,121.214636,0.9762582
C0C660,楊梅,2022-05-31,24.912375,121.143047,0.97722316
C0C670,龍潭,2022-05-31,24.870056,121.221389,0.97795767
C0C680,龜山,2022-05-31,25.02846,121.38656,0.9472241
C0C700,中壢,2022-05-31,24.977661,121.256375,0.9737954
C0C710,大溪永福,2022-05-31,24.892936,121.324975,0.9724523
C0C720,竹圍,2022-05-31,25.112692,121.239824,0.94381106
C0C730,中大臨海站,2022-05-31,24.966126,121.008581,0.9934138
C0C740,觀音工業區,2022-05-31,25.064764,121.114856,0.9847008
C0C750,新興坑尾,2022-05-31,25.0061,121.0971,0.9776015
C0D390,關西,2022-05-31,24.7977,121.1732,0.9811613
C0D430,峨眉,2022-05-31,24.6905,121.017189,0.9859929
C0D480,打鐵坑,2022-05-31,24.849664,121.150789,0.97930306
C0D540,橫山,2022-05-31,24.71116,121.11693,0.98401994
C0D560,竹東,2022-05-31,24.767147,121.057881,0.98412716
C0D580,寶山,2022-05-31,24.735006,121.025192,0.98233277
C0D590,新豐,2022-05-31,24.87068,120.97721,0.98429114
C0D650,湖口,2022-05-31,24.904794,121.043628,0.9915801
C0D660,新竹市東區,2022-05-31,24.798681,120.986942,0.9865505
C0D670,海天一線,2022-05-31,24.831986,120.914438,0.9876608
C0D680,香山濕地,2022-05-31,24.783581,120.914988,0.9871943
C0D690,外湖,2022-05-31,24.917735,120.968711,0.9934138
C0E420,竹南,2022-05-31,24.708978,120.888897,0.9854958
C0E430,南庄,2022-05-31,24.601775,121.000214,0.98372424
C0E520,大湖,2022-05-31,24.41494,120.87087,0.9785844
C0E540,後龍,2022-05-31,24.606489,120.783933,0.48369777
C0E550,明德,2022-05-31,24.583486,120.885411,0.9687381
C0E590,通霄,2022-05-31,24.471892,120.704622,0.31522068
C0E730,頭份,2022-05-31,24.688247,120.912206,0.9854958
C0E740,造橋,2022-05-31,24.637056,120.864778,0.9384306
C0E750,苗栗,2022-05-31,24.564569,120.824575,0.7302944
C0E780,銅鑼,2022-05-31,24.489681,120.790853,0.86444485
C0E791,卓蘭,2022-05-31,24.3126,120.8244,0.95708495
C0E810,西湖,2022-05-31,24.562947,120.7485,0.64941555
C0E820,獅潭,2022-05-31,24.539133,120.920042,0.9508339
C0E830,苑裡,2022-05-31,24.439714,120.653053,0.051382065
C0E850,大河,2022-05-31,24.618069,120.948578,0.9760023
C0E870,高鐵苗栗,2022-05-31,24.60725,120.826094,0.54475194
C0E910,海埔,2022-05-31,24.648767,120.772435,0.84359014
C0E920,通霄漁港,2022-05-31,24.498589,120.673876,0.11665074
C0E930,龍鳳,2022-05-31,24.700034,120.859125,0.8959422
C0F000,大肚,2022-05-31,24.15295,120.572117,0.8960639
C0F0B0,石岡,2022-05-31,24.276061,120.777644,0.87302107
C0F850,東勢,2022-05-31,24.246428,120.833047,0.9564923
C0F930,大甲,2022-05-31,24.347667,120.640403,0.09130214
C0F970,大坑,2022-05-31,24.173142,120.722289,0.42107493
C0F9A0,中竹林,2022-05-31,24.103556,120.751061,0.8137335
C0F9I0,神岡,2022-05-31,24.272481,120.658314,0.9673305
C0F9K0,大安,2022-05-31,24.345061,120.588025,0.02175571
C0F9L0,后里,2022-05-31,24.310436,120.729725,0.9823821
C0F9M0,豐原,2022-05-31,24.254322,120.720692,0.9777698
C0F9N0,大里,2022-05-31,24.092464,120.701378,0.047249295
C0F9O0,潭子,2022-05-31,24.213106,120.703933,0.95012206
C0F9P0,清水,2022-05-31,24.312297,120.562242,0.016650971
C0F9Q0,外埔,2022-05-31,24.347817,120.705686,0.93063366
C0F9R0,龍井,2022-05-31,24.184536,120.528972,0.020376267
C0F9S0,烏日,2022-05-31,24.107058,120.624103,0.016232077
C0F9T0,西屯,2022-05-31,24.179494,120.641275,0.08964461
C0F9U0,南屯,2022-05-31,24.137006,120.637969,0.047249295
C0F9X0,大雅(中科園區),2022-05-31,24.21528,120.62445,0.40736642
C0FA10,松柏,2022-05-31,24.429115,120.617482,0.031990446
C0FA20,溫寮,2022-05-31,24.372177,120.583125,0.031990446
C0FA30,梧棲,2022-05-31,24.256003,120.523381,0.020376267
C0FA40,臺中電廠,2022-05-31,24.2146,120.4907,0.020376267
C0FA50,霧峰,2022-05-31,24.0419,120.6995,0.20366246
C0G620,芬園,2022-05-31,24.015678,120.6213,0.10701364
C0G640,鹿港,2022-05-31,24.0753,120.430481,0.027338015
C0G650,員林,2022-05-31,23.946503,120.585597,0.0413961
C0G660,溪湖,2022-05-31,23.94835,120.479122,0.040695053
C0G720,溪州,2022-05-31,23.851589,120.499093,0.011446373
C0G730,二林,2022-05-31,23.903325,120.376081,0.028919348
C0G740,大城,2022-05-31,23.852487,120.320935,0.004289837
C0G770,福興,2022-05-31,24.041289,120.437669,0.027338015
C0G780,秀水,2022-05-31,24.03405,120.503869,0.017203126
C0G800,埔鹽,2022-05-31,24.000394,120.431683,0.027338015
C0G810,埔心,2022-05-31,23.947633,120.525456,0.047518343
C0G820,田尾,2022-05-31,23.901669,120.509389,0.055175744
C0G830,埤頭,2022-05-31,23.866003,120.452806,0.010116368
C0G840,北斗,2022-05-31,23.877586,120.514222,0.055175744
C0G860,社頭,2022-05-31,23.897647,120.5862,0.049663033
C0G870,芳苑,2022-05-31,23.922303,120.320025,0.0042983573
C0G880,二水,2022-05-31,23.810742,120.6173,0.012206885
C0G890,伸港,2022-05-31,24.148933,120.484403,0.02088701
C0G900,線西,2022-05-31,24.143358,120.443536,0.04202398
C0G910,花壇,2022-05-31,24.032076,120.549461,0.020314954
C0G920,永靖,2022-05-31,23.924703,120.547533,0.055175744
C0G940,竹塘,2022-05-31,23.848253,120.386764,0.0073477565
C0G950,防潮門,2022-05-31,24.1835,120.4871,0.018471712
C0G960,福寶,2022-05-31,24.0443,120.3814,0.024631634
C0G970,三豐,2022-05-31,23.882,120.2895,0.0042983573
C0H890,埔里,2022-05-31,23.972169,120.952425,0.94057006
C0H950,中寮,2022-05-31,23.884447,120.766406,0.17063002
C0H960,草屯,2022-05-31,23.973672,120.68085,0.016079359
C0I110,竹山,2022-05-31,23.761225,120.688156,0.06808891
C0I360,水里,2022-05-31,23.812553,120.849792,0.041722186
C0I380,集集,2022-05-31,23.828206,120.801467,0.030674433
C0I410,名間,2022-05-31,23.837053,120.701447,0.01630721
C0I420,國姓,2022-05-31,24.037803,120.855072,0.87467223
C0I460,南投,2022-05-31,23.911469,120.687331,0.021787873
C0K250,崙背,2022-05-31,23.75555,120.318925,0.0042812587
C0K280,四湖,2022-05-31,23.630414,120.227125,0.0043981667
C0K291,宜梧,2022-05-31,23.536281,120.169329,0.004207481
C0K330,虎尾,2022-05-31,23.719183,120.442036,0.006553841
C0K390,土庫,2022-05-31,23.679029,120.395574,0.006473302
C0K400,斗六,2022-05-31,23.720583,120.541127,0.0064085135
C0K410,北港,2022-05-31,23.573957,120.292802,0.004066778
C0K420,西螺,2022-05-31,23.800407,120.467394,0.009718701
C0K430,褒忠,2022-05-31,23.690938,120.303634,0.003968438
C0K440,二崙,2022-05-31,23.772797,120.408944,0.0075235944
C0K450,大埤,2022-05-31,23.646074,120.431537,0.006310551
C0K460,斗南,2022-05-31,23.678734,120.478359,0.0061610043
C0K470,林內,2022-05-31,23.748675,120.609642,0.0077588507
C0K480,莿桐,2022-05-31,23.761192,120.502372,0.010385446
C0K500,元長,2022-05-31,23.64981,120.315024,0.0040388773
C0K510,水林,2022-05-31,23.572924,120.24597,0.0044210325
C0K530,臺西,2022-05-31,23.701547,120.197559,0.0044201594
C0K550,蔦松,2022-05-31,23.514319,120.229736,0.0042015095
C0K560,棋山,2022-05-31,23.68645,120.603417,0.0070956796
C0K580,高鐵雲林,2022-05-31,23.737456,120.417944,0.006473302
C0K590,雲林東勢,2022-05-31,23.674192,120.255721,0.003968438
C0K600,箔子寮,2022-05-31,23.6197,120.14,0.00442426
C0M410,馬頭山,2022-05-31,23.324361,120.582017,0.07982002
C0M520,東後寮,2022-05-31,23.369908,120.248065,0.004503993
C0M640,中埔,2022-05-31,23.42538,120.5229,0.01482109
C0M650,朴子,2022-05-31,23.43463,120.23902,0.0041730413
C0M660,溪口,2022-05-31,23.604131,120.403569,0.0040918826
C0M670,大林,2022-05-31,23.600616,120.45841,0.0041893953
C0M680,太保,2022-05-31,23.455062,120.331455,0.00386519
C0M690,水上,2022-05-31,23.419734,120.388909,0.0039059252
C0M700,竹崎,2022-05-31,23.526178,120.555508,0.025034266
C0M710,東石,2022-05-31,23.458927,120.15385,0.0042015095
C0M720,番路,2022-05-31,23.464657,120.554156,0.05555657
C0M730,嘉義市東區,2022-05-31,23.457673,120.460531,0.0040970407
C0M740,六腳,2022-05-31,23.492871,120.290625,0.0038748332
C0M750,布袋,2022-05-31,23.380878,120.167789,0.0041730413
C0M760,民雄,2022-05-31,23.551754,120.428457,0.004076008
C0M770,嘉義梅山,2022-05-31,23.585398,120.555587,0.009067368
C0M780,鹿草,2022-05-31,23.41134,120.30835,0.0039211265
C0M790,新港,2022-05-31,23.553269,120.345728,0.0040590866
C0M800,茶山,2022-05-31,23.299075,120.664767,0.047399074
C0M880,好美里,2022-05-31,23.3364,120.138,0.004829234
C0N010,鯤鯓國小,2022-05-31,23.1879,120.0889,0.004399104
C0N020,城西,2022-05-31,23.0568,120.0956,0.0051443386
C0N030,四草,2022-05-31,23.0235,120.1116,0.004902672
C0N040,蘆竹溝,2022-05-31,23.2344,120.0961,0.004399104
C0N050,蚵寮,2022-05-31,23.301,120.1104,0.004399104
C0O810,曾文,2022-05-31,23.219681,120.497328,0.00399768
C0O830,北寮,2022-05-31,23.079561,120.495008,0.13702367
C0O840,王爺宮,2022-05-31,23.222064,120.40085,0.00399768
C0O860,大內,2022-05-31,23.11885,120.36083,0.0062495787
C0O900,善化,2022-05-31,23.112883,120.297219,0.005757994
C0O930,玉井,2022-05-31,23.126042,120.46055,0.003960961
C0O950,安南,2022-05-31,23.076694,120.144861,0.0066714715
C0O960,崎頂,2022-05-31,22.959547,120.369317,0.12721655
C0O970,虎頭埤,2022-05-31,23.021375,120.347878,0.0043826634
C0O980,新市,2022-05-31,23.061614,120.298197,0.005757994
C0O990,媽廟,2022-05-31,22.99175,120.293525,0.005730863
C0R150,三地門,2022-05-31,22.709889,120.639944,0.011841113
C0R160,鹽埔,2022-05-31,22.739558,120.530778,0.021052588
C0R170,屏東,2022-05-31,22.660269,120.494072,0.006418705
C0R190,赤山,2022-05-31,22.592333,120.614306,0.023679718
C0R220,潮州,2022-05-31,22.534361,120.54,0.02343805
C0R240,來義,2022-05-31,22.527306,120.625111,0.027193157
C0R260,春日,2022-05-31,22.370361,120.628306,0.021596357
C0R270,琉球嶼,2022-05-31,22.332244,120.362236,0.022782577
C0R280,檳榔,2022-05-31,22.076078,120.836777,0.17788653
C0R320,車城,2022-05-31,22.0744,120.716247,0.03448636
C0R341,牡丹,2022-05-31,22.130036,120.792639,0.122397974
C0R350,貓鼻頭,2022-05-31,21.921774,120.7358,0.0459137
C0R470,高樹,2022-05-31,22.826389,120.600806,0.009527664
C0R480,長治,2022-05-31,22.693128,120.542622,0.02303895
C0R490,九如,2022-05-31,22.7405,120.490503,0.0064280266
C0R520,崁頂,2022-05-31,22.514781,120.506914,0.008750421
C0R540,佳冬,2022-05-31,22.419456,120.552375,0.008714527
C0R550,新埤,2022-05-31,22.467947,120.582894,0.021651328
C0R560,新園,2022-05-31,22.5434,120.461558,0.008750421
C0R570,麟洛,2022-05-31,22.65078,120.52719,0.0064280266
C0R580,南州,2022-05-31,22.48591,120.50274,0.008714527
C0R590,里港,2022-05-31,22.77919,120.49459,0.029751867
C0R620,墾雷,2022-05-31,21.900836,120.855269,0.0459137
C0R640,東港,2022-05-31,22.46247,120.44074,0.008070328
C0R650,竹田,2022-05-31,22.58486,120.54344,0.020057581
C0R660,枋寮,2022-05-31,22.367722,120.590647,0.020291187
C0R670,楓港,2022-05-31,22.190131,120.692156,0.016851636
C0R680,佳樂水,2022-05-31,21.993578,120.861633,0.039613537
C0R690,墾丁,2022-05-31,21.966756,120.810269,0.19543499
C0R700,枋山,2022-05-31,22.246844,120.661086,0.016851636
C0R710,龍磐,2022-05-31,21.931672,120.838942,0.09227587
C0R720,旭海,2022-05-31,22.205403,120.887614,0.29193348
C0R730,大坪頂,2022-05-31,22.024633,120.69355,0.09965024
C0R740,獅子,2022-05-31,22.201569,120.70525,0.020340757
C0R760,南仁湖,2022-05-31,22.084681,120.863353,0.26361385
C0R770,保力,2022-05-31,22.071122,120.764111,0.06799301
C0R780,滿州,2022-05-31,22.024403,120.839892,0.04974922
C0R790,九棚,2022-05-31,22.14195,120.889281,0.24252418
C0R800,丹路,2022-05-31,22.204481,120.750989,0.040385984
C0R810,內獅,2022-05-31,22.305064,120.642986,0.016987665
C0R830,高士,2022-05-31,22.121825,120.836781,0.28600094
C0R850,林邊,2022-05-31,22.4634,120.5339,0.008750421
C0R860,鼻頭,2022-05-31,22.1043,120.8979,0.5484631
C0R870,興海,2022-05-31,21.9752,120.8439,0.039613537
C0R880,後壁湖,2022-05-31,21.9457,120.7457,0.032419015
C0R890,山海,2022-05-31,21.9878,120.7091,0.034486406
C0R900,竹坑,2022-05-31,22.1385,120.7022,0.029925056
C0R910,下寮,2022-05-31,22.3929,120.5548,0.008714527
C0R920,塭仔,2022-05-31,22.4169,120.5197,0.0086801
C0R930,萬丹,2022-05-31,22.5885,120.4851,0.020057581
C0R940,加祿堂,2022-05-31,22.3363,120.6217,0.016987665
C0S710,鹿野,2022-05-31,22.917711,121.122994,0.033330493
C0S730,綠島,2022-05-31,22.6672,121.47533,0.014134368
C0S740,池上,2022-05-31,23.119628,121.209469,0.01944427
C0S770,大溪山,2022-05-31,22.478475,120.943325,0.36880666
C0S790,金崙,2022-05-31,22.538122,120.966875,0.16738133
C0S810,東河,2022-05-31,22.972672,121.303986,0.013548944
C0S830,長濱,2022-05-31,23.286817,121.411975,0.026426328
C0S840,南田,2022-05-31,22.279725,120.889208,0.055406343
C0S890,關山,2022-05-31,23.0395,121.175017,0.020266866
C0S900,蘭嶼高中,2022-05-31,22.04909,121.51214,0.9903233
C0S910,蘭嶼燈塔,2022-05-31,22.081197,121.503117,0.9922835
C0S920,金峰嘉蘭,2022-05-31,22.594789,120.960825,0.05656929
C0S930,延平,2022-05-31,22.902581,121.084058,0.022605678
C0S940,石寧山,2022-05-31,23.223772,121.406639,0.014047365
C0S950,七塊厝,2022-05-31,22.954453,121.229922,0.0435084
C0S960,香蘭,2022-05-31,22.587569,120.993375,0.028668731
C0S970,加津林,2022-05-31,22.416211,120.926942,0.018955389
C0S990,山豬窟,2022-05-31,22.318619,120.857372,0.40134066
C0SA00,歷坵,2022-05-31,22.520969,120.89185,0.40307415
C0SA10,檳榔四格山,2022-05-31,22.810031,121.109308,0.4785841
C0SA30,都歷,2022-05-31,23.020333,121.323642,0.013435149
C0SA40,瑞和,2022-05-31,22.974361,121.156697,0.01851203
C0SA60,知本（水試所）,2022-05-31,22.702394,121.082761,0.045089416
C0SA80,土坂,2022-05-31,22.453108,120.887572,0.08348824
C0SA90,達仁林場,2022-05-31,22.264347,120.823972,0.042701207
C0T870,鯉魚潭,2022-05-31,23.935639,121.508944,0.72127825
C0T900,西林,2022-05-31,23.8119,121.441458,0.80580145
C0T960,光復,2022-05-31,23.660694,121.424964,0.6046858
C0T9A0,月眉山,2022-05-31,23.809928,121.539828,0.96899897
C0T9D0,和中,2022-05-31,24.26676,121.74103,0.10811718
C0T9E0,大坑,2022-05-31,23.880628,121.581981,0.9488689
C0T9F0,水璉,2022-05-31,23.797131,121.542514,0.92645556
C0T9I0,豐濱,2022-05-31,23.583897,121.514806,0.61137694
C0T9M0,靜浦,2022-05-31,23.455167,121.495028,0.46132988
C0T9N0,富里,2022-05-31,23.171639,121.249378,0.04687206
C0U600,礁溪,2022-05-31,24.817539,121.765608,0.8467042
C0U650,玉蘭,2022-05-31,24.675286,121.587061,0.96521634
C0U750,龜山島,2022-05-31,24.841667,121.953133,0.92410415
C0U760,東澳,2022-05-31,24.52196,121.83318,0.04266153
C0U770,南澳,2022-05-31,24.44935,121.81022,0.012618068
C0U780,五結,2022-05-31,24.68637,121.79794,0.9087058
C0U860,頭城,2022-05-31,24.85323,121.8308,0.8455991
C0U870,大礁溪,2022-05-31,24.791042,121.675047,0.9288001
C0U880,北關,2022-05-31,24.9072,121.8734,0.9403555
C0U890,三星,2022-05-31,24.66812,121.65302,0.8701114
C0U900,內城,2022-05-31,24.71813,121.68766,0.8520361
C0U910,冬山,2022-05-31,24.63373,121.7937,0.9087058
C0U940,羅東,2022-05-31,24.68184,121.74934,0.90847147
C0U970,大福,2022-05-31,24.80064,121.81389,0.8443695
C0U990,員山,2022-05-31,24.74435,121.72247,0.90847147
C0UA00,土場,2022-05-31,24.576533,121.495333,0.9373312
C0UA80,大溪漁港,2022-05-31,24.941801,121.902955,0.84670424
C0UA90,石城,2022-05-31,24.980444,121.951214,0.8898064
C0UB00,淡江大學蘭陽校園,2022-05-31,24.823239,121.730383,0.9249081
C0UB20,壯圍,2022-05-31,24.7359,121.8163,0.9077755
C0V250,甲仙,2022-05-31,23.080106,120.591758,0.41559398
C0V260,月眉,2022-05-31,22.971003,120.539853,0.09133743
C0V310,美濃,2022-05-31,22.898742,120.519153,0.004125737
C0V350,溪埔,2022-05-31,22.738578,120.446797,0.0073542637
C0V360,內門,2022-05-31,22.975481,120.466769,0.0041671013
C0V370,古亭坑,2022-05-31,22.893178,120.401947,0.004178139
C0V400,阿公店,2022-05-31,22.804194,120.355528,0.0069655334
C0V440,鳳山,2022-05-31,22.646653,120.356122,0.008160015
C0V450,鳳森,2022-05-31,22.545064,120.392592,0.030694608
C0V490,新興,2022-05-31,22.627422,120.298803,0.008101804
C0V530,阿蓮,2022-05-31,22.883208,120.327508,0.0055826195
C0V610,梓官,2022-05-31,22.760558,120.267211,0.0069040903
C0V620,永安,2022-05-31,22.82315,120.236856,0.0074290303
C0V630,茄萣,2022-05-31,22.906642,120.182608,0.006227254
C0V640,湖內,2022-05-31,22.887139,120.2445,0.006241475
C0V650,彌陀,2022-05-31,22.783806,120.246361,0.0074290303
C0V660,岡山,2022-05-31,22.797078,120.294958,0.0069040903
C0V680,仁武,2022-05-31,22.701083,120.347722,0.007833587
C0V690,鼓山,2022-05-31,22.623325,120.275575,0.008101804
C0V700,三民,2022-05-31,22.645017,120.311233,0.008101804
C0V710,苓雅,2022-05-31,22.622742,120.330669,0.008101804
C0V720,林園,2022-05-31,22.507747,120.394511,0.008101804
C0V730,大寮,2022-05-31,22.605614,120.395717,0.020241173
C0V740,旗山,2022-05-31,22.888614,120.483597,0.0041147727
C0V750,路竹,2022-05-31,22.854997,120.259439,0.0065735104
C0V760,橋頭,2022-05-31,22.757806,120.30575,0.0069065657
C0V770,大社,2022-05-31,22.730306,120.346639,0.007833587
C0V790,萬山,2022-05-31,22.905944,120.688056,0.040358096
C0V800,六龜,2022-05-31,22.997889,120.633583,0.039980274
C0V810,左營,2022-05-31,22.67491,120.28491,0.0078029386
C0V820,小林,2022-05-31,23.148408,120.63325,0.068997316
C0V840,鳳鼻頭,2022-05-31,22.5083,120.3591,0.008070328
C0V850,蚵仔寮,2022-05-31,22.7256,120.2527,0.0077971043
C0V860,南寮,2022-05-31,22.7616,120.2339,0.0074077877
C0V870,文安,2022-05-31,22.8025,120.2164,0.0074077877
C0V880,興達,2022-05-31,22.8778,120.2127,0.006227254
C0V890,前鎮,2022-05-31,22.5718,120.3117,0.008070328
C0V900,汕尾,2022-05-31,22.4782,120.4151,0.007220103
C0X050,東河,2022-05-31,23.296598,120.385608,0.0039939606
C0X060,下營,2022-05-31,23.22695,120.256261,0.0045051044
C0X080,佳里,2022-05-31,23.173039,120.145086,0.004829234
C0X100,臺南市北區,2022-05-31,23.010394,120.194228,0.0060651065
C0X110,臺南市南區,2022-05-31,22.961189,120.188378,0.006080833
C0X120,麻豆,2022-05-31,23.183289,120.248611,0.004822288
C0X130,官田,2022-05-31,23.193217,120.315422,0.0044900705
C0X140,西港,2022-05-31,23.125608,120.203108,0.004925679
C0X150,安定,2022-05-31,23.102614,120.227839,0.006387183
C0X160,仁德,2022-05-31,22.968258,120.257689,0.0057193576
C0X170,關廟,2022-05-31,22.963017,120.327797,0.0057905754
C0X180,山上,2022-05-31,23.0757,120.363253,0.0042311717
C0X190,安平,2022-05-31,22.993161,120.152181,0.0060651065
C0X200,左鎮,2022-05-31,23.056758,120.408522,0.0042322665
C0X210,白河,2022-05-31,23.347466,120.414427,0.0039843624
C0X220,學甲,2022-05-31,23.230367,120.182187,0.004822288
C0X230,鹽水,2022-05-31,23.272621,120.247641,0.0045468197
C0X240,關子嶺,2022-05-31,23.331169,120.508025,0.31504482
C0X250,新營,2022-05-31,23.310689,120.316681,0.0042270194
C0X260,後壁,2022-05-31,23.366358,120.362326,0.004153125
C0X280,將軍,2022-05-31,23.214999,120.13577,0.004829234
C0X290,北門,2022-05-31,23.267772,120.125481,0.004829234
C0X300,鹿寮,2022-05-31,23.386047,120.477331,0.009922463
C0X310,七股,2022-05-31,23.147289,120.086253,0.004617317
C0X320,柳營,2022-05-31,23.253328,120.375253,0.0039939606
C0Z020,明里,2022-05-31,23.208717,121.262342,0.02151044
C0Z061,玉里,2022-05-31,23.3215,121.339656,0.014083491
C0Z070,舞鶴,2022-05-31,23.46811,121.37407,0.7050508
C0Z080,富源,2022-05-31,23.587642,121.378225,0.71193445
C0Z100,東華,2022-05-31,23.89525,121.549833,0.44751245
C0Z150,吉安光華,2022-05-31,23.930925,121.595153,0.3974521
C0Z160,鳳林,2022-05-31,23.746114,121.453411,0.5651052
C0Z170,卓溪,2022-05-31,23.3443,121.3029,0.015792591
C0Z180,新城,2022-05-31,24.03946,121.60454,0.69446504
C0Z190,富世,2022-05-31,24.14743,121.6297,0.4109703
C0Z200,萬榮,2022-05-31,23.709219,121.420106,0.72127825
C0Z210,瑞穗,2022-05-31,23.5239,121.39021,0.55138123
C0Z230,和平,2022-05-31,24.30717,121.77007,0.10811718
C0Z270,蕃薯寮,2022-05-31,23.73835,121.540108,0.531526
C0Z280,德武,2022-05-31,23.47426,121.41071,0.57024664
C0Z300,東里,2022-05-31,23.26853,121.30547,0.014878011
C0Z310,清水斷崖,2022-05-31,24.218294,121.689142,0.1261964
C0Z330,安通山,2022-05-31,23.290728,121.348528,0.040531848
CAA010,國一N013K,2022-05-31,25.06944,121.6281,0.9450479
CAA020,國一S026K,2022-05-31,25.07639,121.4964,0.9432862
CAA030,國三S010K,2022-05-31,25.08,121.6475,0.9437881
CAA040,國三S016K,2022-05-31,25.03306,121.6158,0.9529719
CAA050,國三S037K,2022-05-31,24.9828,121.471,0.9450479
CAA060,國三S042K,2022-05-31,24.96,121.4306,0.9467463
CAA070,國三N046K,2022-05-31,24.95083,121.3958,0.945637
CAA080,國三S054K,2022-05-31,24.93917,121.3239,0.98058975
CAA090,國三A005K,2022-05-31,25.00194,121.5975,0.9461457
CAAH60,大安森林,2022-05-31,25.02955,121.53628,0.9428776
CAB010,國一S001K,2022-05-31,25.11583,121.7286,0.9452728
CAB020,國一S006K,2022-05-31,25.08694,121.6869,0.9474443
CAB030,國三S004K,2022-05-31,25.11444,121.6886,0.8618268
CAB040,國三S007K,2022-05-31,25.09694,121.6678,0.94293034
CAB050,國三K002K,2022-05-31,25.14583,121.7217,0.94293034
CAC010,國一S072K,2022-05-31,24.89583,121.1342,0.9740287
CAC020,國二E009K,2022-05-31,25.02111,121.2736,0.9796734
CAC030,國三N063K,2022-05-31,24.889,121.26,0.98087907
CAC050,西濱S023K,2022-05-31,25.11649,121.27551,0.94381106
CAC060,西濱S032K,2022-05-31,25.091966,121.192505,0.94449323
CAD010,國一S105K,2022-05-31,24.726316,120.940643,0.986081
CAD020,國一N077K,2022-05-31,24.885,121.0889,0.9780987
CAD030,國一S082K,2022-05-31,24.87667,121.0467,0.99008775
CAD040,國一S088K,2022-05-31,24.84444,121.0214,0.9873671
CAD050,國一N094K,2022-05-31,24.79778,121.0089,0.98622715
CAD060,國一S098K,2022-05-31,24.76056,120.9911,0.98622715
CAD070,國三N076K,2022-05-31,24.800303,121.195739,0.9782394
CAD080,國三N085K,2022-05-31,24.78333,121.1211,0.9851029
CAD090,國三S103K,2022-05-31,24.75861,120.9608,0.98539555
CAD100,西濱N066K,2022-05-31,24.8956,120.9649,0.99332243
CAD110,西濱S082K,2022-05-31,24.751724,120.905028,0.9871943
CAE010,國一N142K,2022-05-31,24.453119,120.783221,0.97175485
CAE020,國一S114K,2022-05-31,24.668835,120.885811,0.9871943
CAE030,國一S123K,2022-05-31,24.59594,120.86071,0.8385365
CAE040,國一S132K,2022-05-31,24.524506,120.820831,0.8116436
CAE050,國一S152K,2022-05-31,24.375492,120.749184,0.97931975
CAE060,國三N119K,2022-05-31,24.675432,120.847389,0.9120941
CAE070,國三N151K,2022-05-31,24.440218,120.681656,0.089867376
CAE080,國三S140K,2022-05-31,24.522345,120.725006,0.43066218
CAE090,國三S156K,2022-05-31,24.39798,120.669487,0.07243386
CAE100,西濱N107K,2022-05-31,24.5958,120.7394,0.64941555
CAE110,西濱S129K,2022-05-31,24.4472,120.6428,0.03719433
CAF010,國一N174K,2022-05-31,24.2049,120.6552,0.42107493
CAF020,國一S162K,2022-05-31,24.295534,120.695976,0.9710449
CAF030,國一S169K,2022-05-31,24.237116,120.688271,0.95012206
CAF040,國一S188K,2022-05-31,24.118546,120.585747,0.017525798
CAF050,國三N208K,2022-05-31,24.066147,120.660919,0.017525807
CAF060,國三S168K,2022-05-31,24.308519,120.614471,0.050458286
CAF070,國三S173K,2022-05-31,24.27397,120.593079,0.35011014
CAF080,國三S178K,2022-05-31,24.226721,120.589058,0.4665191
CAF090,國四E5K,2022-05-31,24.296465,120.643135,0.16703035
CAF100,西濱N151K,2022-05-31,24.275964,120.547681,0.020376267
CAG010,國一N198K,2022-05-31,24.063889,120.523056,0.016991273
CAG030,國一S207K,2022-05-31,23.988304,120.508092,0.017203126
CAG040,國三N191K,2022-05-31,24.139256,120.5215,0.0259763
CAG050,國三N196K,2022-05-31,24.107155,120.554482,0.015018162
CAG060,國三S202K,2022-05-31,24.092468,120.603256,0.015018162
CAG070,西濱S173K,2022-05-31,24.1081,120.434576,0.024631634
CAG080,西濱S189K,2022-05-31,23.987857,120.369607,0.0045901514
CAG090,西濱N210K,2022-05-31,23.843536,120.293236,0.0042893915
CAG100,王功漁港,2022-05-31,23.96824,120.32586,0.0045901514
CAH010,國三N223K,2022-05-31,23.955116,120.662376,0.012910558
CAH020,國三S217K,2022-05-31,24.00683,120.653214,0.35356706
CAH030,茶改場竹圍站,2022-05-31,23.860083,120.637528,0.09306863
CAHA00,消防署訓練中心,2022-05-31,23.82137,120.72293,0.018103188
CAJ010,國三N252K,2022-05-31,23.77412,120.64061,0.016692856
CAJ020,國一N234K,2022-05-31,23.74633,120.467926,0.0061610043
CAJ030,西濱N222K,2022-05-31,23.737734,120.256132,0.0039786138
CAJ040,西濱S241K,2022-05-31,23.623426,120.172646,0.00442426
CAJ050,海口故事園區,2022-05-31,23.57543,120.14121,0.00442426
CAL010,國一N250K,2022-05-31,23.610292,120.436867,0.004076008
CAL020,國一S262K,2022-05-31,23.512333,120.403038,0.003932677
CAL030,國一N268K,2022-05-31,23.460833,120.375833,0.003932677
CAL040,國一N273K,2022-05-31,23.416666,120.355,0.003964895
CAL050,國三N279K,2022-05-31,23.596111,120.523333,0.00811419
CAL060,國三S286K,2022-05-31,23.533917,120.484583,0.011052295
CAL070,國三N295K,2022-05-31,23.468598,120.499369,0.010260856
CAL080,國三N303K,2022-05-31,23.428611,120.452416,0.0039059252
CAL090,西濱S257K,2022-05-31,23.502278,120.171861,0.004201506
CAL100,西濱S267K,2022-05-31,23.41613,120.162872,0.0041730413
CAL110,布袋國中,2022-05-31,23.35893,120.18026,0.004503993
CAN010,國一N288K,2022-05-31,23.30609,120.290033,0.0042384993
CAN020,國一S306K,2022-05-31,23.1565,120.239513,0.004822288
CAN030,國一N316K,2022-05-31,23.07309,120.253014,0.005757994
CAN040,國一N323K,2022-05-31,23.00421,120.245922,0.0061413776
CAN050,國一N335K,2022-05-31,22.897584,120.269895,0.005569719
CAN060,國三S311K,2022-05-31,23.346388,120.438888,0.003981404
CAN070,國三S329K,2022-05-31,23.212777,120.355833,0.004340084
CAN080,國三N336K,2022-05-31,23.154722,120.345,0.004482157
CAN090,國三S342K,2022-05-31,23.106694,120.327528,0.005828867
CAN100,國三S366K,2022-05-31,22.9077,120.3513,0.0057536988
CAN110,西濱S280K,2022-05-31,23.3052,120.14891,0.004829234
CAN120,西濱N304K,2022-05-31,23.103439,120.086694,0.0051443386
CAN130,水試所海水繁養殖中心,2022-05-31,23.120802,120.07968,0.005147783
CAN140,六官養殖協會,2022-05-31,23.22881,120.29962,0.0044966224
CAP010,國一S342K,2022-05-31,22.845555,120.295,0.0069040903
CAP020,國一S346K,2022-05-31,22.812222,120.314166,0.0069040903
CAP030,國一N351K,2022-05-31,22.765833,120.328888,0.0069065657
CAP040,國一N361K,2022-05-31,22.680555,120.328611,0.0078029386
CAP050,國三N372K,2022-05-31,22.858611,120.373611,0.0067064133
CAP060,國三S385K,2022-05-31,22.767777,120.444444,0.051350754
CAP070,高雄燈塔,2022-05-31,22.6146,120.2647,0.008101804
CAQ010,國三N425K,2022-05-31,22.480277,120.531666,0.008750421
CAQ020,國三S415K,2022-05-31,22.568,120.528,0.018467564
CAQ030,崎峰國小,2022-05-31,22.42565,120.49521,0.008714527
E2K600,四湖植物園,2022-05-31,23.676986,120.163433,0.0044201594
E2P980,林試六龜中心,2022-05-31,22.991703,120.645722,0.044366803
E2S390,太麻里分所,2022-05-31,22.5988,120.9811,0.052074548
E2S960,林試太麻里2,2022-05-31,22.598014,120.989761,0.028668731
E2S980,林試太麻里1,2022-05-31,22.598922,120.980044,0.05207463
G2AI50,關渡,2022-05-31,25.11575,121.492,0.94270456
G2F820,農試所(霧峰),2022-05-31,24.031261,120.688133,0.35356706
G2L020,嘉義分所,2022-05-31,23.485028,120.473806,0.010260856
G2M350,溪口農場,2022-05-31,23.58565,120.408111,0.0040918826
G2P820,鳳山園試所,2022-05-31,22.646611,120.356083,0.008160015
K2E360,苗栗農改場,2022-05-31,24.495722,120.829111,0.629699
K2E710,大湖分場,2022-05-31,24.422861,120.871833,0.975558
K2F750,種苗改良場,2022-05-31,24.225972,120.800917,0.9298158
U2HA50,臺大竹山,2022-05-31,23.756972,120.681556,0.08102887
V2C250,八德合作社,2022-05-31,24.93775,121.266389,0.98178047
V2C260,八德蔬果,2022-05-31,24.978508,121.281819,0.9756635
V2K610,大庄合作社,2022-05-31,23.8068,120.367939,0.0042846976
V2K620,麥寮合作社,2022-05-31,23.753836,120.294783,0.0042893915
