站號,站名,日期,lat,lon,BlastGRU-TW
12J990,口湖工作站,2022-01-02,23.589978,120.180394,0.010001377
12Q970,東港工作站,2022-01-02,22.479997,120.466058,0.2323229
12Q980,恆春工作站,2022-01-02,22.079678,120.714425,0.00030787574
466881,新北,2022-01-02,24.9593,121.52,0.0011929219
466900,淡水,2022-01-02,25.164889,121.448906,0.00082196173
466920,臺北,2022-01-02,25.037658,121.514853,0.0013343812
466940,基隆,2022-01-02,25.133314,121.740475,0.0018572225
466990,花蓮,2022-01-02,23.975128,121.613275,0.6646682
467050,新屋,2022-01-02,25.006744,121.047486,0.0012672269
467080,宜蘭,2022-01-02,24.763975,121.756528,0.004312304
467270,田中,2022-01-02,23.873803,120.581286,0.007368257
467300,東吉島,2022-01-02,23.25695,119.667467,0.00046983428
467350,澎湖,2022-01-02,23.565503,119.563094,0.00038235149
467410,臺南,2022-01-02,22.993239,120.204772,0.2331715
467420,永康,2022-01-02,23.038386,120.2367,0.24788076
467441,高雄,2022-01-02,22.7304,120.3125,0.21768473
467480,嘉義,2022-01-02,23.495925,120.432906,0.00096046773
467490,臺中,2022-01-02,24.145736,120.684075,0.00053856923
467540,大武,2022-01-02,22.355675,120.903789,0.6960524
467571,新竹,2022-01-02,24.827853,121.014219,0.00058930827
467590,恆春,2022-01-02,22.003897,120.746339,0.00023878268
467610,成功,2022-01-02,23.097486,121.373428,0.62633383
467620,蘭嶼,2022-01-02,22.036969,121.558339,0.0010058063
467660,臺東,2022-01-02,22.752211,121.154586,0.21583669
467790,墾丁雷達站,2022-01-02,21.948235,120.808028,0.00020146296
72AI40,桃改臺北分場,2022-01-02,24.944503,121.386972,0.00075717905
72C440,桃園農改場,2022-01-02,24.950944,121.030583,0.0011317579
72D680,新埔,2022-01-02,24.834444,121.066111,0.0005922548
72G600,臺中農改場,2022-01-02,24.003028,120.534389,0.0040216413
72K220,雲林分場,2022-01-02,23.634556,120.477333,0.011443421
72L140,朴子分場,2022-01-02,23.4982,120.2414,0.013139802
72M360,義竹工作站,2022-01-02,23.360694,120.279361,0.019718392
72M700,嘉義分場,2022-01-02,23.416869,120.283061,0.010809069
72N100,臺南農改場,2022-01-02,23.0605,120.342194,0.043341827
72N240,七股研究中心,2022-01-02,23.081672,120.062894,0.16945189
72Q010,高雄農改場,2022-01-02,22.709333,120.525889,0.17568268
72S200,斑鳩分場,2022-01-02,22.829528,121.077694,0.011408869
72S590,賓朗果園,2022-01-02,22.813889,121.071278,0.0065328553
72T250,花蓮農改場,2022-01-02,23.975222,121.563889,0.61862373
72U480,蘭陽分場,2022-01-02,24.686306,121.716583,0.012655205
72V140,旗南,2022-01-02,22.857861,120.516667,0.046394777
82A750,文山分場,2022-01-02,24.955778,121.631222,0.0014722436
82C160,茶改場(楊梅),2022-01-02,24.908472,121.185333,0.0003531811
82H840,凍頂工作站,2022-01-02,23.762528,120.7405,0.0017934632
82S580,龍田,2022-01-02,22.907694,121.130139,0.14318344
A0K420,麥寮,2022-01-02,23.7988,120.2177,0.0026339917
A0W080,吉貝,2022-01-02,23.74,119.6042,0.0003284496
A2C560,農工中心,2022-01-02,24.985917,121.239833,0.00043985553
A2K360,臺西分所,2022-01-02,23.717231,120.190522,0.0019308352
A2K570,古坑(花卉中心),2022-01-02,23.633531,120.552392,0.007853655
A2K630,臺大雲林校區,2022-01-02,23.730628,120.423903,0.038073637
A2N290,臺南蘭花園區,2022-01-02,23.340258,120.379661,0.0047983835
B2E890,新竹畜試,2022-01-02,24.527806,120.770972,0.00044085857
B2N890,畜產試驗所,2022-01-02,23.058972,120.336406,0.043790914
B2Q810,恆春分所,2022-01-02,21.945583,120.802167,0.0002614447
B2U990,宜蘭畜試,2022-01-02,24.669039,121.832561,0.0156104285
C0A520,山佳,2022-01-02,24.974944,121.402008,0.00075717905
C0A530,坪林,2022-01-02,24.938183,121.70975,0.0011374647
C0A540,四堵,2022-01-02,24.8926,121.745736,0.0009527635
C0A550,泰平,2022-01-02,24.971197,121.823711,0.0011883237
C0A560,福山,2022-01-02,24.776203,121.502811,0.0014722436
C0A570,桶後,2022-01-02,24.848222,121.597992,0.0010844158
C0A640,石碇,2022-01-02,24.993969,121.662917,0.0014043227
C0A650,火燒寮,2022-01-02,25.002719,121.742892,0.0010741252
C0A660,瑞芳,2022-01-02,25.113169,121.801147,0.0026134145
C0A770,科教館,2022-01-02,25.096356,121.516507,0.00085430156
C0A860,大坪,2022-01-02,25.165914,121.632969,0.00055020634
C0A880,福隆,2022-01-02,25.017842,121.942083,0.0056070266
C0A890,雙溪,2022-01-02,25.036003,121.864242,0.0013929178
C0A920,富貴角,2022-01-02,25.263783,121.565258,0.00059721357
C0A931,三和,2022-01-02,25.233153,121.595236,0.0010139758
C0A940,金山,2022-01-02,25.223628,121.643967,0.0006603789
C0A950,鼻頭角,2022-01-02,25.129036,121.923372,0.006081896
C0A970,三貂角,2022-01-02,25.007606,122.002058,0.0024000292
C0A980,社子,2022-01-02,25.109508,121.469681,0.0008921972
C0A9C0,天母,2022-01-02,25.117494,121.537169,0.00078706833
C0A9F0,內湖,2022-01-02,25.079422,121.57545,0.0013343812
C0AC60,三峽,2022-01-02,24.939025,121.369728,0.0011337127
C0AC70,信義,2022-01-02,25.037822,121.564597,0.0013343812
C0AC80,文山,2022-01-02,25.00235,121.575728,0.0010349606
C0ACA0,新莊,2022-01-02,25.051478,121.446756,0.00100168
C0AD00,三芝,2022-01-02,25.258131,121.501917,0.00057635154
C0AD10,八里,2022-01-02,25.150211,121.403947,0.00082196173
C0AD30,蘆洲,2022-01-02,25.086594,121.472331,0.00085430196
C0AD40,土城,2022-01-02,24.973208,121.445169,0.0008200806
C0AD50,鶯歌,2022-01-02,24.951533,121.346294,0.00059723004
C0AG80,中和,2022-01-02,24.991622,121.491792,0.0013343799
C0AH00,汐止,2022-01-02,25.066881,121.658778,0.0017510467
C0AH10,永和,2022-01-02,25.01125,121.508111,0.0013997036
C0AH40,平等,2022-01-02,25.129142,121.577086,0.0007622322
C0AH50,林口,2022-01-02,25.072181,121.38084,0.00091270637
C0AH70,松山,2022-01-02,25.04871,121.55042,0.0013343812
C0AH80,深坑,2022-01-02,25.002703,121.628328,0.0010349606
C0AI00,五股,2022-01-02,25.07445,121.42728,0.00045373922
C0AI10,屈尺,2022-01-02,24.92184,121.54475,0.0010349606
C0AI20,白沙灣,2022-01-02,25.283128,121.519058,0.0007106988
C0AI30,三重,2022-01-02,25.057328,121.500629,0.00085430156
C0AI40,石牌,2022-01-02,25.115597,121.513139,0.0008200806
C0AJ10,澳底,2022-01-02,25.057107,121.927272,0.006860701
C0AJ20,野柳,2022-01-02,25.20703,121.690021,0.0017510467
C0AJ30,淡水觀海,2022-01-02,25.184591,121.408616,0.0008533782
C0AJ40,石門,2022-01-02,25.273672,121.601198,0.00043270245
C0AJ50,水湳洞,2022-01-02,25.123695,121.862238,0.0017510467
C0AJ60,六塊厝,2022-01-02,25.24,121.4481,0.0008533782
C0AJ70,田寮,2022-01-02,25.2698,121.4886,0.00073670095
C0AJ80,板橋,2022-01-02,25.0107,121.4489,0.0008200806
C0B010,七堵,2022-01-02,25.094819,121.71713,0.001553165
C0B020,基隆嶼,2022-01-02,25.19141,121.78391,0.0017510467
C0B040,大武崙,2022-01-02,25.166676,121.706993,0.001553165
C0B050,八斗子,2022-01-02,25.144754,121.79167,0.0020657717
C0B060,暖暖,2022-01-02,25.0957,121.7403,0.0011860123
C0C460,復興,2022-01-02,24.820208,121.352281,0.0008278685
C0C480,桃園,2022-01-02,24.992425,121.323172,0.00048795156
C0C490,八德,2022-01-02,24.928708,121.283289,0.0006509033
C0C590,觀音,2022-01-02,25.027072,121.153317,0.0005759702
C0C620,蘆竹,2022-01-02,25.084275,121.265767,0.00075808004
C0C630,大溪,2022-01-02,24.882853,121.265547,0.00053889066
C0C650,平鎮,2022-01-02,24.897503,121.214636,0.0003531811
C0C660,楊梅,2022-01-02,24.912375,121.143047,0.000363083
C0C670,龍潭,2022-01-02,24.870056,121.221389,0.00032568382
C0C680,龜山,2022-01-02,25.02846,121.38656,0.0008103889
C0C700,中壢,2022-01-02,24.977661,121.256375,0.00045165865
C0C710,大溪永福,2022-01-02,24.892936,121.324975,0.0004198902
C0C720,竹圍,2022-01-02,25.112692,121.239824,0.00082196173
C0C730,中大臨海站,2022-01-02,24.966126,121.008581,0.0015112322
C0C740,觀音工業區,2022-01-02,25.064764,121.114856,0.00046355862
C0C750,新興坑尾,2022-01-02,25.0061,121.0971,0.00039527894
C0D430,峨眉,2022-01-02,24.6905,121.017189,0.00060254557
C0D480,打鐵坑,2022-01-02,24.849664,121.150789,0.00042748204
C0D540,橫山,2022-01-02,24.71116,121.11693,0.00040364778
C0D560,竹東,2022-01-02,24.767147,121.057881,0.00047316533
C0D580,寶山,2022-01-02,24.735006,121.025192,0.0005233131
C0D590,新豐,2022-01-02,24.87068,120.97721,0.0007447167
C0D650,湖口,2022-01-02,24.904794,121.043628,0.0008730012
C0D660,新竹市東區,2022-01-02,24.798681,120.986942,0.0005487977
C0D670,海天一線,2022-01-02,24.831986,120.914438,0.0006326962
C0D680,香山濕地,2022-01-02,24.783581,120.914988,0.00061181514
C0D690,外湖,2022-01-02,24.917735,120.968711,0.0015112322
C0D700,關西,2022-01-02,24.7977,121.1732,0.00041522234
C0E420,竹南,2022-01-02,24.708978,120.888897,0.000557748
C0E430,南庄,2022-01-02,24.601775,121.000214,0.00051688583
C0E520,大湖,2022-01-02,24.41494,120.87087,0.00052119023
C0E540,後龍,2022-01-02,24.606489,120.783933,0.0003988027
C0E550,明德,2022-01-02,24.583486,120.885411,0.0004704523
C0E590,通霄,2022-01-02,24.471892,120.704622,0.00046822563
C0E730,頭份,2022-01-02,24.688247,120.912206,0.000557748
C0E740,造橋,2022-01-02,24.637056,120.864778,0.00052857085
C0E750,苗栗,2022-01-02,24.564569,120.824575,0.00037060914
C0E780,銅鑼,2022-01-02,24.489681,120.790853,0.000569988
C0E791,卓蘭,2022-01-02,24.3126,120.8244,0.0011849322
C0E810,西湖,2022-01-02,24.562947,120.7485,0.00038238688
C0E820,獅潭,2022-01-02,24.539133,120.920042,0.0004795536
C0E830,苑裡,2022-01-02,24.439714,120.653053,0.0006198375
C0E850,大河,2022-01-02,24.618069,120.948578,0.0004518317
C0E870,高鐵苗栗,2022-01-02,24.60725,120.826094,0.0003934758
C0E910,海埔,2022-01-02,24.648767,120.772435,0.0006038375
C0E920,通霄漁港,2022-01-02,24.498589,120.673876,0.0005123067
C0E930,龍鳳,2022-01-02,24.700034,120.859125,0.0005730319
C0F000,大肚,2022-01-02,24.15295,120.572117,0.0020780792
C0F0B0,石岡,2022-01-02,24.276061,120.777644,0.002953256
C0F850,東勢,2022-01-02,24.246428,120.833047,0.0010250049
C0F930,大甲,2022-01-02,24.347667,120.640403,0.00060470076
C0F970,大坑,2022-01-02,24.173142,120.722289,0.00050072477
C0F9A0,中竹林,2022-01-02,24.103556,120.751061,0.0018874885
C0F9I0,神岡,2022-01-02,24.272481,120.658314,0.00064540067
C0F9K0,大安,2022-01-02,24.345061,120.588025,0.00076990173
C0F9L0,后里,2022-01-02,24.310436,120.729725,0.00053875614
C0F9M0,豐原,2022-01-02,24.254322,120.720692,0.00058635726
C0F9N0,大里,2022-01-02,24.092464,120.701378,0.00071226
C0F9O0,潭子,2022-01-02,24.213106,120.703933,0.0006755434
C0F9P0,清水,2022-01-02,24.312297,120.562242,0.0008225725
C0F9Q0,外埔,2022-01-02,24.347817,120.705686,0.000740657
C0F9R0,龍井,2022-01-02,24.184536,120.528972,0.0008597493
C0F9S0,烏日,2022-01-02,24.107058,120.624103,0.0042286166
C0F9T0,西屯,2022-01-02,24.179494,120.641275,0.0006173474
C0F9U0,南屯,2022-01-02,24.137006,120.637969,0.00071226
C0F9X0,大雅(中科園區),2022-01-02,24.21528,120.62445,0.0005205947
C0FA10,松柏,2022-01-02,24.429115,120.617482,0.0006668955
C0FA20,溫寮,2022-01-02,24.372177,120.583125,0.0006668955
C0FA30,梧棲,2022-01-02,24.256003,120.523381,0.0008597485
C0FA40,臺中電廠,2022-01-02,24.2146,120.4907,0.0008597493
C0FA50,霧峰,2022-01-02,24.0419,120.6995,0.0005490138
C0G620,芬園,2022-01-02,24.015678,120.6213,0.0015082341
C0G640,鹿港,2022-01-02,24.0753,120.430481,0.004507186
C0G650,員林,2022-01-02,23.946503,120.585597,0.0012853049
C0G660,溪湖,2022-01-02,23.94835,120.479122,0.0021652686
C0G720,溪州,2022-01-02,23.851589,120.499093,0.01099084
C0G730,二林,2022-01-02,23.903325,120.376081,0.0034136302
C0G740,大城,2022-01-02,23.852487,120.320935,0.0020969622
C0G770,福興,2022-01-02,24.041289,120.437669,0.0044160886
C0G780,秀水,2022-01-02,24.03405,120.503869,0.0043624174
C0G800,埔鹽,2022-01-02,24.000394,120.431683,0.0044160886
C0G810,埔心,2022-01-02,23.947633,120.525456,0.0020448307
C0G820,田尾,2022-01-02,23.901669,120.509389,0.001909746
C0G830,埤頭,2022-01-02,23.866003,120.452806,0.012970801
C0G840,北斗,2022-01-02,23.877586,120.514222,0.001909746
C0G860,社頭,2022-01-02,23.897647,120.5862,0.0012340494
C0G870,芳苑,2022-01-02,23.922303,120.320025,0.0022434103
C0G880,二水,2022-01-02,23.810742,120.6173,0.0034065861
C0G890,伸港,2022-01-02,24.148933,120.484403,0.00093897316
C0G900,線西,2022-01-02,24.143358,120.443536,0.00083431957
C0G910,花壇,2022-01-02,24.032076,120.549461,0.003721433
C0G920,永靖,2022-01-02,23.924703,120.547533,0.001909746
C0G940,竹塘,2022-01-02,23.848253,120.386764,0.025396168
C0G950,防潮門,2022-01-02,24.1835,120.4871,0.0008934461
C0G960,福寶,2022-01-02,24.0443,120.3814,0.004850816
C0G970,三豐,2022-01-02,23.882,120.2895,0.0022434103
C0H890,埔里,2022-01-02,23.972169,120.952425,0.0042012604
C0H950,中寮,2022-01-02,23.884447,120.766406,0.002157079
C0H960,草屯,2022-01-02,23.973672,120.68085,0.0057988805
C0I110,竹山,2022-01-02,23.761225,120.688156,0.002674177
C0I360,水里,2022-01-02,23.812553,120.849792,0.0041039535
C0I380,集集,2022-01-02,23.828206,120.801467,0.0045211227
C0I410,名間,2022-01-02,23.837053,120.701447,0.0031758908
C0I420,國姓,2022-01-02,24.037803,120.855072,0.0031668942
C0I460,南投,2022-01-02,23.911469,120.687331,0.003743569
C0K250,崙背,2022-01-02,23.75555,120.318925,0.0019641202
C0K280,四湖,2022-01-02,23.630414,120.227125,0.001677193
C0K291,宜梧,2022-01-02,23.536281,120.169329,0.014718555
C0K330,虎尾,2022-01-02,23.719183,120.442036,0.03490841
C0K390,土庫,2022-01-02,23.679029,120.395574,0.038073637
C0K400,斗六,2022-01-02,23.720583,120.541127,0.011044277
C0K410,北港,2022-01-02,23.573957,120.292802,0.015339983
C0K420,西螺,2022-01-02,23.800407,120.467394,0.0072604883
C0K430,褒忠,2022-01-02,23.690938,120.303634,0.0026339917
C0K440,二崙,2022-01-02,23.772797,120.408944,0.023012765
C0K450,大埤,2022-01-02,23.646074,120.431537,0.016265577
C0K460,斗南,2022-01-02,23.678734,120.478359,0.01290639
C0K470,林內,2022-01-02,23.748675,120.609642,0.007372251
C0K480,莿桐,2022-01-02,23.761192,120.502372,0.0067868936
C0K500,元長,2022-01-02,23.64981,120.315024,0.0022623914
C0K510,水林,2022-01-02,23.572924,120.24597,0.009046519
C0K530,臺西,2022-01-02,23.701547,120.197559,0.0018240494
C0K550,蔦松,2022-01-02,23.514319,120.229736,0.013139802
C0K560,棋山,2022-01-02,23.68645,120.603417,0.0074722446
C0K580,高鐵雲林,2022-01-02,23.737456,120.417944,0.038073637
C0K590,雲林東勢,2022-01-02,23.674192,120.255721,0.0026339917
C0K600,箔子寮,2022-01-02,23.6197,120.14,0.010001377
C0M410,馬頭山,2022-01-02,23.324361,120.582017,0.008113622
C0M520,東後寮,2022-01-02,23.369908,120.248065,0.031642675
C0M640,中埔,2022-01-02,23.42538,120.5229,0.007339904
C0M650,朴子,2022-01-02,23.43463,120.23902,0.017446196
C0M660,溪口,2022-01-02,23.604131,120.403569,0.0011870228
C0M670,大林,2022-01-02,23.600616,120.45841,0.0009521173
C0M680,太保,2022-01-02,23.455062,120.331455,0.013899332
C0M690,水上,2022-01-02,23.419734,120.388909,0.0010530595
C0M700,竹崎,2022-01-02,23.526178,120.555508,0.0052441047
C0M710,東石,2022-01-02,23.458927,120.15385,0.013139802
C0M720,番路,2022-01-02,23.464657,120.554156,0.004420621
C0M730,嘉義市東區,2022-01-02,23.457673,120.460531,0.0009663468
C0M740,六腳,2022-01-02,23.492871,120.290625,0.015661106
C0M750,布袋,2022-01-02,23.380878,120.167789,0.017446196
C0M760,民雄,2022-01-02,23.551754,120.428457,0.0010886479
C0M770,嘉義梅山,2022-01-02,23.585398,120.555587,0.0054078875
C0M780,鹿草,2022-01-02,23.41134,120.30835,0.00987792
C0M790,新港,2022-01-02,23.553269,120.345728,0.013898726
C0M800,茶山,2022-01-02,23.299075,120.664767,0.012331419
C0M880,好美里,2022-01-02,23.3364,120.138,0.04577856
C0N010,鯤鯓國小,2022-01-02,23.1879,120.0889,0.024595154
C0N020,城西,2022-01-02,23.0568,120.0956,0.15594399
C0N030,四草,2022-01-02,23.0235,120.1116,0.3240724
C0N040,蘆竹溝,2022-01-02,23.2344,120.0961,0.024595154
C0N050,蚵寮,2022-01-02,23.301,120.1104,0.024595154
C0O810,曾文,2022-01-02,23.219681,120.497328,0.0019593672
C0O830,北寮,2022-01-02,23.079561,120.495008,0.015922785
C0O840,王爺宮,2022-01-02,23.222064,120.40085,0.0019593672
C0O860,大內,2022-01-02,23.11885,120.36083,0.013228722
C0O900,善化,2022-01-02,23.112883,120.297219,0.058665264
C0O930,玉井,2022-01-02,23.126042,120.46055,0.004628538
C0O950,安南,2022-01-02,23.076694,120.144861,0.15003917
C0O960,崎頂,2022-01-02,22.959547,120.369317,0.020532167
C0O970,虎頭埤,2022-01-02,23.021375,120.347878,0.07716598
C0O980,新市,2022-01-02,23.061614,120.298197,0.058665264
C0O990,媽廟,2022-01-02,22.99175,120.293525,0.12857391
C0R150,三地門,2022-01-02,22.709889,120.639944,0.4340657
C0R160,鹽埔,2022-01-02,22.739558,120.530778,0.17568287
C0R170,屏東,2022-01-02,22.660269,120.494072,0.25326622
C0R190,赤山,2022-01-02,22.592333,120.614306,0.3206553
C0R220,潮州,2022-01-02,22.534361,120.54,0.22374061
C0R240,來義,2022-01-02,22.527306,120.625111,0.07909709
C0R260,春日,2022-01-02,22.370361,120.628306,0.072804086
C0R270,琉球嶼,2022-01-02,22.332244,120.362236,0.07454875
C0R280,檳榔,2022-01-02,22.076078,120.836777,0.00019441976
C0R320,車城,2022-01-02,22.0744,120.716247,0.00030787574
C0R341,牡丹,2022-01-02,22.130036,120.792639,0.051804014
C0R350,貓鼻頭,2022-01-02,21.921774,120.7358,0.0002248475
C0R470,高樹,2022-01-02,22.826389,120.600806,0.41220382
C0R480,長治,2022-01-02,22.693128,120.542622,0.15758997
C0R490,九如,2022-01-02,22.7405,120.490503,0.23989029
C0R520,崁頂,2022-01-02,22.514781,120.506914,0.22002988
C0R540,佳冬,2022-01-02,22.419456,120.552375,0.2323229
C0R550,新埤,2022-01-02,22.467947,120.582894,0.353005
C0R560,新園,2022-01-02,22.5434,120.461558,0.22002988
C0R570,麟洛,2022-01-02,22.65078,120.52719,0.23989029
C0R580,南州,2022-01-02,22.48591,120.50274,0.2323229
C0R590,里港,2022-01-02,22.77919,120.49459,0.09814348
C0R620,墾雷,2022-01-02,21.900836,120.855269,0.0002248475
C0R640,東港,2022-01-02,22.46247,120.44074,0.2024556
C0R650,竹田,2022-01-02,22.58486,120.54344,0.3804014
C0R660,枋寮,2022-01-02,22.367722,120.590647,0.21526411
C0R670,楓港,2022-01-02,22.190131,120.692156,0.062450215
C0R680,佳樂水,2022-01-02,21.993578,120.861633,0.00025735563
C0R690,墾丁,2022-01-02,21.966756,120.810269,0.00020303264
C0R700,枋山,2022-01-02,22.246844,120.661086,0.062450215
C0R710,龍磐,2022-01-02,21.931672,120.838942,0.0001615472
C0R720,旭海,2022-01-02,22.205403,120.887614,0.04967744
C0R730,大坪頂,2022-01-02,22.024633,120.69355,0.00018478176
C0R740,獅子,2022-01-02,22.201569,120.70525,0.060498644
C0R760,南仁湖,2022-01-02,22.084681,120.863353,0.000415433
C0R770,保力,2022-01-02,22.071122,120.764111,0.00017754135
C0R780,滿州,2022-01-02,22.024403,120.839892,0.0002113029
C0R790,九棚,2022-01-02,22.14195,120.889281,0.09668189
C0R800,丹路,2022-01-02,22.204481,120.750989,0.05743176
C0R810,內獅,2022-01-02,22.305064,120.642986,0.06533756
C0R830,高士,2022-01-02,22.121825,120.836781,0.00051460846
C0R850,林邊,2022-01-02,22.4634,120.5339,0.22002988
C0R860,鼻頭,2022-01-02,22.1043,120.8979,0.0010622093
C0R870,興海,2022-01-02,21.9752,120.8439,0.00025735563
C0R880,後壁湖,2022-01-02,21.9457,120.7457,0.00033632058
C0R890,山海,2022-01-02,21.9878,120.7091,0.00030787574
C0R900,竹坑,2022-01-02,22.1385,120.7022,0.08396054
C0R910,下寮,2022-01-02,22.3929,120.5548,0.2323229
C0R920,塭仔,2022-01-02,22.4169,120.5197,0.2466462
C0R930,萬丹,2022-01-02,22.5885,120.4851,0.3804014
C0R940,加祿堂,2022-01-02,22.3363,120.6217,0.06533756
C0S710,鹿野,2022-01-02,22.917711,121.122994,0.046600726
C0S730,綠島,2022-01-02,22.6672,121.47533,0.3941779
C0S740,池上,2022-01-02,23.119628,121.209469,0.13588008
C0S770,大溪山,2022-01-02,22.478475,120.943325,0.011008659
C0S790,金崙,2022-01-02,22.538122,120.966875,0.17613673
C0S810,東河,2022-01-02,22.972672,121.303986,0.50576663
C0S830,長濱,2022-01-02,23.286817,121.411975,0.06319485
C0S840,南田,2022-01-02,22.279725,120.889208,0.66024595
C0S890,關山,2022-01-02,23.0395,121.175017,0.103744306
C0S900,蘭嶼高中,2022-01-02,22.04909,121.51214,0.33364445
C0S910,蘭嶼燈塔,2022-01-02,22.081197,121.503117,0.02894132
C0S920,金峰嘉蘭,2022-01-02,22.594789,120.960825,0.5225533
C0S930,延平,2022-01-02,22.902581,121.084058,0.0995096
C0S940,石寧山,2022-01-02,23.223772,121.406639,0.26835716
C0S950,七塊厝,2022-01-02,22.954453,121.229922,0.033105426
C0S960,香蘭,2022-01-02,22.587569,120.993375,0.6386921
C0S970,加津林,2022-01-02,22.416211,120.926942,0.6829527
C0S990,山豬窟,2022-01-02,22.318619,120.857372,0.0064233635
C0SA00,歷坵,2022-01-02,22.520969,120.89185,0.005361719
C0SA10,檳榔四格山,2022-01-02,22.810031,121.109308,0.003182833
C0SA30,都歷,2022-01-02,23.020333,121.323642,0.48490822
C0SA40,瑞和,2022-01-02,22.974361,121.156697,0.14361812
C0SA60,知本（水試所）,2022-01-02,22.702394,121.082761,0.4076057
C0SA80,土坂,2022-01-02,22.453108,120.887572,0.41142014
C0SA90,達仁林場,2022-01-02,22.264347,120.823972,0.012404271
C0T870,鯉魚潭,2022-01-02,23.935639,121.508944,0.6758655
C0T900,西林,2022-01-02,23.8119,121.441458,0.5967278
C0T960,光復,2022-01-02,23.660694,121.424964,0.56110984
C0T9A0,月眉山,2022-01-02,23.809928,121.539828,0.09170219
C0T9D0,和中,2022-01-02,24.26676,121.74103,0.6042972
C0T9E0,大坑,2022-01-02,23.880628,121.581981,0.1858521
C0T9F0,水璉,2022-01-02,23.797131,121.542514,0.36550644
C0T9I0,豐濱,2022-01-02,23.583897,121.514806,0.5923333
C0T9M0,靜浦,2022-01-02,23.455167,121.495028,0.6920258
C0T9N0,富里,2022-01-02,23.171639,121.249378,0.014603458
C0U600,礁溪,2022-01-02,24.817539,121.765608,0.0040587923
C0U650,玉蘭,2022-01-02,24.675286,121.587061,0.011058416
C0U750,龜山島,2022-01-02,24.841667,121.953133,0.0025059257
C0U760,東澳,2022-01-02,24.52196,121.83318,0.021103343
C0U770,南澳,2022-01-02,24.44935,121.81022,0.06521257
C0U780,五結,2022-01-02,24.68637,121.79794,0.0156104285
C0U860,頭城,2022-01-02,24.85323,121.8308,0.004312304
C0U870,大礁溪,2022-01-02,24.791042,121.675047,0.0011672371
C0U880,北關,2022-01-02,24.9072,121.8734,0.0020930462
C0U890,三星,2022-01-02,24.66812,121.65302,0.0023057559
C0U900,內城,2022-01-02,24.71813,121.68766,0.0033528286
C0U910,冬山,2022-01-02,24.63373,121.7937,0.015610443
C0U940,羅東,2022-01-02,24.68184,121.74934,0.014070651
C0U970,大福,2022-01-02,24.80064,121.81389,0.0046318937
C0U990,員山,2022-01-02,24.74435,121.72247,0.014070664
C0UA00,土場,2022-01-02,24.576533,121.495333,0.0020906595
C0UA80,大溪漁港,2022-01-02,24.941801,121.902955,0.0040587923
C0UA90,石城,2022-01-02,24.980444,121.951214,0.0041481717
C0UB00,淡江大學蘭陽校園,2022-01-02,24.823239,121.730383,0.0012014244
C0UB10,蘇澳,2022-01-02,24.5969,121.8571,0.087917045
C0UB20,壯圍,2022-01-02,24.7359,121.8163,0.017424874
C0V250,甲仙,2022-01-02,23.080106,120.591758,0.006267028
C0V260,月眉,2022-01-02,22.971003,120.539853,0.024566673
C0V310,美濃,2022-01-02,22.898742,120.519153,0.06317493
C0V350,溪埔,2022-01-02,22.738578,120.446797,0.15321892
C0V360,內門,2022-01-02,22.975481,120.466769,0.019352803
C0V370,古亭坑,2022-01-02,22.893178,120.401947,0.0442407
C0V400,阿公店,2022-01-02,22.804194,120.355528,0.13344708
C0V440,鳳山,2022-01-02,22.646653,120.356122,0.16336678
C0V450,鳳森,2022-01-02,22.545064,120.392592,0.20275992
C0V490,新興,2022-01-02,22.627422,120.298803,0.18860337
C0V530,阿蓮,2022-01-02,22.883208,120.327508,0.2988091
C0V610,梓官,2022-01-02,22.760558,120.267211,0.23952441
C0V620,永安,2022-01-02,22.82315,120.236856,0.23436928
C0V630,茄萣,2022-01-02,22.906642,120.182608,0.31045678
C0V640,湖內,2022-01-02,22.887139,120.2445,0.29438686
C0V650,彌陀,2022-01-02,22.783806,120.246361,0.23436928
C0V660,岡山,2022-01-02,22.797078,120.294958,0.23952441
C0V680,仁武,2022-01-02,22.701083,120.347722,0.20331754
C0V690,鼓山,2022-01-02,22.623325,120.275575,0.18860337
C0V700,三民,2022-01-02,22.645017,120.311233,0.18860337
C0V710,苓雅,2022-01-02,22.622742,120.330669,0.18860337
C0V720,林園,2022-01-02,22.507747,120.394511,0.18860337
C0V730,大寮,2022-01-02,22.605614,120.395717,0.23768044
C0V740,旗山,2022-01-02,22.888614,120.483597,0.057609394
C0V750,路竹,2022-01-02,22.854997,120.259439,0.25639197
C0V760,橋頭,2022-01-02,22.757806,120.30575,0.22443603
C0V770,大社,2022-01-02,22.730306,120.346639,0.20331754
C0V790,萬山,2022-01-02,22.905944,120.688056,0.021764196
C0V800,六龜,2022-01-02,22.997889,120.633583,0.04239773
C0V810,左營,2022-01-02,22.67491,120.28491,0.21768473
C0V820,小林,2022-01-02,23.148408,120.63325,0.010603685
C0V840,鳳鼻頭,2022-01-02,22.5083,120.3591,0.2024556
C0V850,蚵仔寮,2022-01-02,22.7256,120.2527,0.23165086
C0V860,南寮,2022-01-02,22.7616,120.2339,0.24831584
C0V870,文安,2022-01-02,22.8025,120.2164,0.24831584
C0V880,興達,2022-01-02,22.8778,120.2127,0.31045678
C0V890,前鎮,2022-01-02,22.5718,120.3117,0.2024556
C0V900,汕尾,2022-01-02,22.4782,120.4151,0.3057779
C0X050,東河,2022-01-02,23.296598,120.385608,0.004798386
C0X060,下營,2022-01-02,23.22695,120.256261,0.026647206
C0X080,佳里,2022-01-02,23.173039,120.145086,0.04577856
C0X100,臺南市北區,2022-01-02,23.010394,120.194228,0.26422063
C0X110,臺南市南區,2022-01-02,22.961189,120.188378,0.24788076
C0X120,麻豆,2022-01-02,23.183289,120.248611,0.041377448
C0X130,官田,2022-01-02,23.193217,120.315422,0.020347347
C0X140,西港,2022-01-02,23.125608,120.203108,0.10136
C0X150,安定,2022-01-02,23.102614,120.227839,0.10128323
C0X160,仁德,2022-01-02,22.968258,120.257689,0.14433236
C0X170,關廟,2022-01-02,22.963017,120.327797,0.09834659
C0X180,山上,2022-01-02,23.0757,120.363253,0.008075464
C0X190,安平,2022-01-02,22.993161,120.152181,0.26422063
C0X200,左鎮,2022-01-02,23.056758,120.408522,0.008769898
C0X210,白河,2022-01-02,23.347466,120.414427,0.004453396
C0X220,學甲,2022-01-02,23.230367,120.182187,0.041377448
C0X230,鹽水,2022-01-02,23.272621,120.247641,0.028091773
C0X240,關子嶺,2022-01-02,23.331169,120.508025,0.0032972358
C0X250,新營,2022-01-02,23.310689,120.316681,0.02163968
C0X260,後壁,2022-01-02,23.366358,120.362326,0.007489781
C0X280,將軍,2022-01-02,23.214999,120.13577,0.04577856
C0X290,北門,2022-01-02,23.267772,120.125481,0.04577856
C0X300,鹿寮,2022-01-02,23.386047,120.477331,0.012540752
C0X310,七股,2022-01-02,23.147289,120.086253,0.1068602
C0X320,柳營,2022-01-02,23.253328,120.375253,0.004798386
C0Z020,明里,2022-01-02,23.208717,121.262342,0.09208151
C0Z061,玉里,2022-01-02,23.3215,121.339656,0.36543733
C0Z070,舞鶴,2022-01-02,23.46811,121.37407,0.5264828
C0Z080,富源,2022-01-02,23.587642,121.378225,0.512311
C0Z100,東華,2022-01-02,23.89525,121.549833,0.78982115
C0Z150,吉安光華,2022-01-02,23.930925,121.595153,0.79476136
C0Z160,鳳林,2022-01-02,23.746114,121.453411,0.59686196
C0Z170,卓溪,2022-01-02,23.3443,121.3029,0.27427584
C0Z180,新城,2022-01-02,24.03946,121.60454,0.6334993
C0Z190,富世,2022-01-02,24.14743,121.6297,0.192145
C0Z200,萬榮,2022-01-02,23.709219,121.420106,0.6758655
C0Z210,瑞穗,2022-01-02,23.5239,121.39021,0.6375243
C0Z230,和平,2022-01-02,24.30717,121.77007,0.6042972
C0Z270,蕃薯寮,2022-01-02,23.73835,121.540108,0.6252563
C0Z280,德武,2022-01-02,23.47426,121.41071,0.6464025
C0Z300,東里,2022-01-02,23.26853,121.30547,0.31859213
C0Z310,清水斷崖,2022-01-02,24.218294,121.689142,0.35815138
C0Z330,安通山,2022-01-02,23.290728,121.348528,0.041691303
CAA010,國一N013K,2022-01-02,25.06944,121.6281,0.00126416
CAA020,國一S026K,2022-01-02,25.07639,121.4964,0.00085430156
CAA030,國三S010K,2022-01-02,25.08,121.6475,0.0013343812
CAA040,國三S016K,2022-01-02,25.03306,121.6158,0.0009492479
CAA050,國三S037K,2022-01-02,24.9828,121.471,0.00126416
CAA060,國三S042K,2022-01-02,24.96,121.4306,0.0007282815
CAA070,國三N046K,2022-01-02,24.95083,121.3958,0.00075717905
CAA080,國三S054K,2022-01-02,24.93917,121.3239,0.00054669945
CAA090,國三A005K,2022-01-02,25.00194,121.5975,0.001192923
CAAH60,大安森林,2022-01-02,25.02955,121.53628,0.0013997036
CAB010,國一S001K,2022-01-02,25.11583,121.7286,0.0014617849
CAB020,國一S006K,2022-01-02,25.08694,121.6869,0.001641894
CAB030,國三S004K,2022-01-02,25.11444,121.6886,0.0026110874
CAB040,國三S007K,2022-01-02,25.09694,121.6678,0.0011860123
CAB050,國三K002K,2022-01-02,25.14583,121.7217,0.0011860123
CAC010,國一S072K,2022-01-02,24.89583,121.1342,0.00033071474
CAC020,國二E009K,2022-01-02,25.02111,121.2736,0.0005308186
CAC030,國三N063K,2022-01-02,24.889,121.26,0.0005579883
CAC050,西濱S023K,2022-01-02,25.11649,121.27551,0.00082196173
CAC060,西濱S032K,2022-01-02,25.091966,121.192505,0.0008533782
CAD010,國一S105K,2022-01-02,24.726316,120.940643,0.0005744685
CAD020,國一N077K,2022-01-02,24.885,121.0889,0.0003692023
CAD030,國一S082K,2022-01-02,24.87667,121.0467,0.0007305587
CAD040,國一S088K,2022-01-02,24.84444,121.0214,0.0005893077
CAD050,國一N094K,2022-01-02,24.79778,121.0089,0.0005310868
CAD060,國一S098K,2022-01-02,24.76056,120.9911,0.0005310868
CAD070,國三N076K,2022-01-02,24.800303,121.195739,0.00040771163
CAD080,國三N085K,2022-01-02,24.78333,121.1211,0.0003980467
CAD090,國三S103K,2022-01-02,24.75861,120.9608,0.00048929686
CAD100,西濱N066K,2022-01-02,24.8956,120.9649,0.0013364148
CAD110,西濱S082K,2022-01-02,24.751724,120.905028,0.00061181514
CAE010,國一N142K,2022-01-02,24.453119,120.783221,0.00045633636
CAE020,國一S114K,2022-01-02,24.668835,120.885811,0.00061181514
CAE030,國一S123K,2022-01-02,24.59594,120.86071,0.00034976722
CAE040,國一S132K,2022-01-02,24.524506,120.820831,0.00035655417
CAE050,國一S152K,2022-01-02,24.375492,120.749184,0.00053423364
CAE060,國三N119K,2022-01-02,24.675432,120.847389,0.00055717275
CAE070,國三N151K,2022-01-02,24.440218,120.681656,0.00057885563
CAE080,國三S140K,2022-01-02,24.522345,120.725006,0.0004539354
CAE090,國三S156K,2022-01-02,24.39798,120.669487,0.0005365844
CAE100,西濱N107K,2022-01-02,24.5958,120.7394,0.00038238688
CAE110,西濱S129K,2022-01-02,24.4472,120.6428,0.0006509136
CAF010,國一N174K,2022-01-02,24.2049,120.6552,0.00050072477
CAF020,國一S162K,2022-01-02,24.295534,120.695976,0.0006286294
CAF030,國一S169K,2022-01-02,24.237116,120.688271,0.0006755434
CAF040,國一S188K,2022-01-02,24.118546,120.585747,0.0038909211
CAF050,國三N208K,2022-01-02,24.066147,120.660919,0.0038909211
CAF060,國三S168K,2022-01-02,24.308519,120.614471,0.00064925343
CAF070,國三S173K,2022-01-02,24.27397,120.593079,0.0005191535
CAF080,國三S178K,2022-01-02,24.226721,120.589058,0.0005106888
CAF090,國四E5K,2022-01-02,24.296465,120.643135,0.0005587904
CAF100,西濱N151K,2022-01-02,24.275964,120.547681,0.0008597493
CAG010,國一N198K,2022-01-02,24.063889,120.523056,0.0054534245
CAG030,國一S207K,2022-01-02,23.988304,120.508092,0.0043624174
CAG040,國三N191K,2022-01-02,24.139256,120.5215,0.0008685018
CAG050,國三N196K,2022-01-02,24.107155,120.554482,0.0046011917
CAG060,國三S202K,2022-01-02,24.092468,120.603256,0.0046011917
CAG070,西濱S173K,2022-01-02,24.1081,120.434576,0.004850816
CAG080,西濱S189K,2022-01-02,23.987857,120.369607,0.0016948638
CAG090,西濱N210K,2022-01-02,23.843536,120.293236,0.0020969184
CAG100,王功漁港,2022-01-02,23.96824,120.32586,0.0016948638
CAH010,國三N223K,2022-01-02,23.955116,120.662376,0.00649948
CAH020,國三S217K,2022-01-02,24.00683,120.653214,0.00042876846
CAH030,茶改場竹圍站,2022-01-02,23.860083,120.637528,0.0032773658
CAHA00,消防署訓練中心,2022-01-02,23.82137,120.72293,0.0030445708
CAJ010,國三N252K,2022-01-02,23.77412,120.64061,0.0029522802
CAJ020,國一N234K,2022-01-02,23.74633,120.467926,0.01290639
CAJ030,西濱N222K,2022-01-02,23.737734,120.256132,0.002833156
CAJ040,西濱S241K,2022-01-02,23.623426,120.172646,0.010001377
CAJ050,海口故事園區,2022-01-02,23.57543,120.14121,0.010001377
CAL010,國一N250K,2022-01-02,23.610292,120.436867,0.0010886479
CAL020,國一S262K,2022-01-02,23.512333,120.403038,0.0009966766
CAL030,國一N268K,2022-01-02,23.460833,120.375833,0.0009966757
CAL040,國一N273K,2022-01-02,23.416666,120.355,0.0043415963
CAL050,國三N279K,2022-01-02,23.596111,120.523333,0.0069017787
CAL060,國三S286K,2022-01-02,23.533917,120.484583,0.008392132
CAL070,國三N295K,2022-01-02,23.468598,120.499369,0.0089862235
CAL080,國三N303K,2022-01-02,23.428611,120.452416,0.0010530595
CAL090,西濱S257K,2022-01-02,23.502278,120.171861,0.013139802
CAL100,西濱S267K,2022-01-02,23.41613,120.162872,0.017446196
CAL110,布袋國中,2022-01-02,23.35893,120.18026,0.031642675
CAN010,國一N288K,2022-01-02,23.30609,120.290033,0.023746263
CAN020,國一S306K,2022-01-02,23.1565,120.239513,0.041377448
CAN030,國一N316K,2022-01-02,23.07309,120.253014,0.058665264
CAN040,國一N323K,2022-01-02,23.00421,120.245922,0.2331715
CAN050,國一N335K,2022-01-02,22.897584,120.269895,0.34160164
CAN060,國三S311K,2022-01-02,23.346388,120.438888,0.0041838214
CAN070,國三S329K,2022-01-02,23.212777,120.355833,0.00710853
CAN080,國三N336K,2022-01-02,23.154722,120.345,0.018590732
CAN090,國三S342K,2022-01-02,23.106694,120.327528,0.048189934
CAN100,國三S366K,2022-01-02,22.9077,120.3513,0.07082875
CAN110,西濱S280K,2022-01-02,23.3052,120.14891,0.04577856
CAN120,西濱N304K,2022-01-02,23.103439,120.086694,0.15594399
CAN130,水試所海水繁養殖中心,2022-01-02,23.120802,120.07968,0.16945189
CAN140,六官養殖協會,2022-01-02,23.22881,120.29962,0.024252769
CAP010,國一S342K,2022-01-02,22.845555,120.295,0.23952441
CAP020,國一S346K,2022-01-02,22.812222,120.314166,0.23952441
CAP030,國一N351K,2022-01-02,22.765833,120.328888,0.22443612
CAP040,國一N361K,2022-01-02,22.680555,120.328611,0.21768473
CAP050,國三N372K,2022-01-02,22.858611,120.373611,0.05386013
CAP060,國三S385K,2022-01-02,22.767777,120.444444,0.07150726
CAP070,高雄燈塔,2022-01-02,22.6146,120.2647,0.18860327
CAQ010,國三N425K,2022-01-02,22.480277,120.531666,0.22002988
CAQ020,國三S415K,2022-01-02,22.568,120.528,0.4099407
CAQ030,崎峰國小,2022-01-02,22.42565,120.49521,0.23232293
E2K600,四湖植物園,2022-01-02,23.676986,120.163433,0.0018240494
E2P980,林試六龜中心,2022-01-02,22.991703,120.645722,0.039398145
E2S390,太麻里分所,2022-01-02,22.5988,120.9811,0.54194176
E2S960,林試太麻里2,2022-01-02,22.598014,120.989761,0.6386921
E2S980,林試太麻里1,2022-01-02,22.598922,120.980044,0.54194176
G2AI50,關渡,2022-01-02,25.11575,121.492,0.0008921972
G2F820,農試所(霧峰),2022-01-02,24.031261,120.688133,0.00042876846
G2L020,嘉義分所,2022-01-02,23.485028,120.473806,0.0089862235
G2M350,溪口農場,2022-01-02,23.58565,120.408111,0.0011870228
G2P820,鳳山園試所,2022-01-02,22.646611,120.356083,0.16336678
K2E360,苗栗農改場,2022-01-02,24.495722,120.829111,0.0006823188
K2E710,大湖分場,2022-01-02,24.422861,120.871833,0.00051751046
K2F750,種苗改良場,2022-01-02,24.225972,120.800917,0.0007924145
U2HA50,臺大竹山,2022-01-02,23.756972,120.681556,0.0025567051
V2C250,八德合作社,2022-01-02,24.93775,121.266389,0.00042552626
V2C260,八德蔬果,2022-01-02,24.978508,121.281819,0.00047526386
V2K610,大庄合作社,2022-01-02,23.8068,120.367939,0.0014109302
V2K620,麥寮合作社,2022-01-02,23.753836,120.294783,0.0020969184
