站號,站名,日期,lat,lon,BlastGRU-TW
466881,新北,2023-02-08,24.9593,121.52,0.00010279162
466900,淡水,2023-02-08,25.164889,121.448906,6.457441e-05
466920,臺北,2023-02-08,25.037658,121.514853,0.00010059105
467350,澎湖,2023-02-08,23.565503,119.563094,0.0004027904
467410,臺南,2023-02-08,22.993239,120.204772,0.0008880927
467420,永康,2023-02-08,23.038386,120.2367,0.0008836043
467790,墾丁雷達站,2023-02-08,21.948235,120.808028,0.00011919725
C0A520,山佳,2023-02-08,24.974944,121.402008,8.705598e-05
C0A530,坪林,2023-02-08,24.938183,121.70975,0.0006325687
C0A880,福隆,2023-02-08,25.017842,121.942083,0.0014963206
C0A890,雙溪,2023-02-08,25.036003,121.864242,6.966107e-05
C0A920,富貴角,2023-02-08,25.263783,121.565258,7.0134454e-05
C0AC80,文山,2023-02-08,25.00235,121.575728,0.00010513622
C0ACA0,新莊,2023-02-08,25.051478,121.446756,6.613131e-05
C0AD00,三芝,2023-02-08,25.258131,121.501917,6.745496e-05
C0AH70,松山,2023-02-08,25.04871,121.55042,0.00010059105
C0AH80,深坑,2023-02-08,25.002703,121.628328,0.00010513622
C0AI00,五股,2023-02-08,25.07445,121.42728,0.00017996124
C0AJ70,田寮,2023-02-08,25.2698,121.4886,6.818324e-05
