站號,站名,日期,lat,lon,BlastGRU-TW
12J990,口湖工作站,2023-04-12,23.589978,120.180394,0.8217825
12Q970,東港工作站,2023-04-12,22.479997,120.466058,0.64709735
12Q980,恆春工作站,2023-04-12,22.079678,120.714425,0.07507285
466881,新北,2023-04-12,24.9593,121.52,0.2645685
466900,淡水,2023-04-12,25.164889,121.448906,0.32175553
466920,臺北,2023-04-12,25.037658,121.514853,0.31174183
466940,基隆,2023-04-12,25.133314,121.740475,0.3355542
466990,花蓮,2023-04-12,23.975128,121.613275,0.32342035
467050,新屋,2023-04-12,25.006744,121.047486,0.50312364
467060,蘇澳,2023-04-12,24.596736,121.857372,0.8854377
467080,宜蘭,2023-04-12,24.763975,121.756528,0.33902943
467270,田中,2023-04-12,23.873803,120.581286,0.36143044
467300,東吉島,2023-04-12,23.25695,119.667467,0.94348514
467350,澎湖,2023-04-12,23.565503,119.563094,0.628202
467410,臺南,2023-04-12,22.993239,120.204772,0.78992254
467420,永康,2023-04-12,23.038386,120.2367,0.79051286
467441,高雄,2023-04-12,22.7304,120.3125,0.620025
467480,嘉義,2023-04-12,23.495925,120.432906,0.8612996
467490,臺中,2023-04-12,24.145736,120.684075,0.6563997
467540,大武,2023-04-12,22.355675,120.903789,0.14180385
467571,新竹,2023-04-12,24.827853,121.014219,0.42512715
467590,恆春,2023-04-12,22.003897,120.746339,0.071191646
467610,成功,2023-04-12,23.097486,121.373428,0.8964188
467620,蘭嶼,2023-04-12,22.036969,121.558339,0.31243733
467660,臺東,2023-04-12,22.752211,121.154586,0.34803522
467790,墾丁雷達站,2023-04-12,21.948235,120.808028,0.066565104
72AI40,桃改臺北分場,2023-04-12,24.944503,121.386972,0.27556577
72C440,桃園農改場,2023-04-12,24.950944,121.030583,0.4918647
72D680,新埔,2023-04-12,24.834444,121.066111,0.47379515
72G600,臺中農改場,2023-04-12,24.003028,120.534389,0.6043717
72K220,雲林分場,2023-04-12,23.634556,120.477333,0.5113174
72L140,朴子分場,2023-04-12,23.4982,120.2414,0.86113775
72M360,義竹工作站,2023-04-12,23.360694,120.279361,0.8845403
72M700,嘉義分場,2023-04-12,23.416869,120.283061,0.88764524
72N100,臺南農改場,2023-04-12,23.0605,120.342194,0.8025027
72N240,七股研究中心,2023-04-12,23.081672,120.062894,0.85136926
72Q010,高雄農改場,2023-04-12,22.709333,120.525889,0.58542573
72S200,斑鳩分場,2023-04-12,22.829528,121.077694,0.8048025
72S590,賓朗果園,2023-04-12,22.813889,121.071278,0.80932194
72T250,花蓮農改場,2023-04-12,23.975222,121.563889,0.27557403
72U480,蘭陽分場,2023-04-12,24.686306,121.716583,0.4089771
72V140,旗南,2023-04-12,22.857861,120.516667,0.68815106
82A750,文山分場,2023-04-12,24.955778,121.631222,0.116251
82C160,茶改場(楊梅),2023-04-12,24.908472,121.185333,0.112860486
82H840,凍頂工作站,2023-04-12,23.762528,120.7405,0.38491938
82S580,龍田,2023-04-12,22.907694,121.130139,0.68543696
A0K420,麥寮,2023-04-12,23.7988,120.2177,0.7025454
A0W080,吉貝,2023-04-12,23.74,119.6042,0.475978
A2C560,農工中心,2023-04-12,24.985917,121.239833,0.1341653
A2K360,臺西分所,2023-04-12,23.717231,120.190522,0.687867
A2K570,古坑(花卉中心),2023-04-12,23.633531,120.552392,0.38947687
A2K630,臺大雲林校區,2023-04-12,23.730628,120.423903,0.39795896
A2N290,臺南蘭花園區,2023-04-12,23.340258,120.379661,0.8600081
B2E890,新竹畜試,2023-04-12,24.527806,120.770972,0.5582761
B2N890,畜產試驗所,2023-04-12,23.058972,120.336406,0.8025027
B2Q810,恆春分所,2023-04-12,21.945583,120.802167,0.07295768
B2U990,宜蘭畜試,2023-04-12,24.669039,121.832561,0.5500545
C0A520,山佳,2023-04-12,24.974944,121.402008,0.27556577
C0A530,坪林,2023-04-12,24.938183,121.70975,0.05698137
C0A540,四堵,2023-04-12,24.8926,121.745736,0.07269212
C0A550,泰平,2023-04-12,24.971197,121.823711,0.023940772
C0A560,福山,2023-04-12,24.776203,121.502811,0.064732976
C0A570,桶後,2023-04-12,24.848222,121.597992,0.06513855
C0A640,石碇,2023-04-12,24.993969,121.662917,0.050531533
C0A650,火燒寮,2023-04-12,25.002719,121.742892,0.030681713
C0A660,瑞芳,2023-04-12,25.113169,121.801147,0.129909
C0A770,科教館,2023-04-12,25.096356,121.516507,0.36575717
C0A860,大坪,2023-04-12,25.165914,121.632969,0.02128081
C0A880,福隆,2023-04-12,25.017842,121.942083,0.44101983
C0A890,雙溪,2023-04-12,25.036003,121.864242,0.4031803
C0A920,富貴角,2023-04-12,25.263783,121.565258,0.14591566
C0A931,三和,2023-04-12,25.233153,121.595236,0.063277714
C0A940,金山,2023-04-12,25.223628,121.643967,0.17583045
C0A950,鼻頭角,2023-04-12,25.129036,121.923372,0.46363714
C0A970,三貂角,2023-04-12,25.007606,122.002058,0.39823398
C0A980,社子,2023-04-12,25.109508,121.469681,0.37949494
C0A9C0,天母,2023-04-12,25.117494,121.537169,0.2730634
C0A9F0,內湖,2023-04-12,25.079422,121.57545,0.20367026
C0AC60,三峽,2023-04-12,24.939025,121.369728,0.17961743
C0AC70,信義,2023-04-12,25.037822,121.564597,0.25002274
C0AC80,文山,2023-04-12,25.00235,121.575728,0.18333809
C0ACA0,新莊,2023-04-12,25.051478,121.446756,0.29237676
C0AD00,三芝,2023-04-12,25.258131,121.501917,0.12961616
C0AD10,八里,2023-04-12,25.150211,121.403947,0.24681443
C0AD30,蘆洲,2023-04-12,25.086594,121.472331,0.36575717
C0AD40,土城,2023-04-12,24.973208,121.445169,0.3274404
C0AD50,鶯歌,2023-04-12,24.951533,121.346294,0.38227987
C0AG80,中和,2023-04-12,24.991622,121.491792,0.3076791
C0AH00,汐止,2023-04-12,25.066881,121.658778,0.48935735
C0AH10,永和,2023-04-12,25.01125,121.508111,0.32902265
C0AH40,平等,2023-04-12,25.129142,121.577086,0.036401987
C0AH50,林口,2023-04-12,25.072181,121.38084,0.03962438
C0AH70,松山,2023-04-12,25.04871,121.55042,0.25002274
C0AH80,深坑,2023-04-12,25.002703,121.628328,0.16353805
C0AI00,五股,2023-04-12,25.07445,121.42728,0.05145458
C0AI10,屈尺,2023-04-12,24.92184,121.54475,0.21115589
C0AI20,白沙灣,2023-04-12,25.283128,121.519058,0.07332113
C0AI30,三重,2023-04-12,25.057328,121.500629,0.3787679
C0AI40,石牌,2023-04-12,25.115597,121.513139,0.3442674
C0AJ10,澳底,2023-04-12,25.057107,121.927272,0.48982102
C0AJ20,野柳,2023-04-12,25.20703,121.690021,0.28168118
C0AJ30,淡水觀海,2023-04-12,25.184591,121.408616,0.3446043
C0AJ40,石門,2023-04-12,25.273672,121.601198,0.06729727
C0AJ50,水湳洞,2023-04-12,25.123695,121.862238,0.46984267
C0AJ60,六塊厝,2023-04-12,25.24,121.4481,0.24075386
C0AJ70,田寮,2023-04-12,25.2698,121.4886,0.1678745
C0AJ80,板橋,2023-04-12,25.0107,121.4489,0.33567563
C0B010,七堵,2023-04-12,25.094819,121.71713,0.44771963
C0B020,基隆嶼,2023-04-12,25.19141,121.78391,0.2542486
C0B040,大武崙,2023-04-12,25.166676,121.706993,0.40487754
C0B050,八斗子,2023-04-12,25.144754,121.79167,0.31341073
C0B060,暖暖,2023-04-12,25.0957,121.7403,0.32875222
C0C460,復興,2023-04-12,24.820208,121.352281,0.06782117
C0C480,桃園,2023-04-12,24.992425,121.323172,0.13413537
C0C490,八德,2023-04-12,24.928708,121.283289,0.32831675
C0C590,觀音,2023-04-12,25.027072,121.153317,0.30954498
C0C620,蘆竹,2023-04-12,25.084275,121.265767,0.22959964
C0C630,大溪,2023-04-12,24.882853,121.265547,0.20738393
C0C650,平鎮,2023-04-12,24.897503,121.214636,0.112860486
C0C660,楊梅,2023-04-12,24.912375,121.143047,0.10078375
C0C670,龍潭,2023-04-12,24.870056,121.221389,0.1598746
C0C680,龜山,2023-04-12,25.02846,121.38656,0.1896594
C0C700,中壢,2023-04-12,24.977661,121.256375,0.10213136
C0C710,大溪永福,2023-04-12,24.892936,121.324975,0.114896156
C0C720,竹圍,2023-04-12,25.112692,121.239824,0.25262862
C0C730,中大臨海站,2023-04-12,24.966126,121.008581,0.4645975
C0C740,觀音工業區,2023-04-12,25.064764,121.114856,0.22024429
C0C750,新興坑尾,2023-04-12,25.0061,121.0971,0.09876682
C0D390,關西,2023-04-12,24.7977,121.1732,0.2214719
C0D430,峨眉,2023-04-12,24.6905,121.017189,0.5839452
C0D480,打鐵坑,2023-04-12,24.849664,121.150789,0.25134605
C0D540,橫山,2023-04-12,24.71116,121.11693,0.40684068
C0D560,竹東,2023-04-12,24.767147,121.057881,0.30244327
C0D580,寶山,2023-04-12,24.735006,121.025192,0.4902558
C0D590,新豐,2023-04-12,24.87068,120.97721,0.8929007
C0D650,湖口,2023-04-12,24.904794,121.043628,0.57253236
C0D660,新竹市東區,2023-04-12,24.798681,120.986942,0.3780326
C0D670,海天一線,2023-04-12,24.831986,120.914438,0.43735504
C0D680,香山濕地,2023-04-12,24.783581,120.914988,0.40096918
C0D690,外湖,2023-04-12,24.917735,120.968711,0.4719126
C0E420,竹南,2023-04-12,24.708978,120.888897,0.31057632
C0E430,南庄,2023-04-12,24.601775,121.000214,0.5361605
C0E520,大湖,2023-04-12,24.41494,120.87087,0.3966766
C0E540,後龍,2023-04-12,24.606489,120.783933,0.59001684
C0E550,明德,2023-04-12,24.583486,120.885411,0.4017538
C0E590,通霄,2023-04-12,24.471892,120.704622,0.49060485
C0E730,頭份,2023-04-12,24.688247,120.912206,0.3816699
C0E740,造橋,2023-04-12,24.637056,120.864778,0.41424823
C0E750,苗栗,2023-04-12,24.564569,120.824575,0.48332113
C0E780,銅鑼,2023-04-12,24.489681,120.790853,0.46000445
C0E791,卓蘭,2023-04-12,24.3126,120.8244,0.22167318
C0E810,西湖,2023-04-12,24.562947,120.7485,0.570681
C0E820,獅潭,2023-04-12,24.539133,120.920042,0.64943576
C0E830,苑裡,2023-04-12,24.439714,120.653053,0.55519223
C0E850,大河,2023-04-12,24.618069,120.948578,0.3419127
C0E870,高鐵苗栗,2023-04-12,24.60725,120.826094,0.5616506
C0E910,海埔,2023-04-12,24.648767,120.772435,0.617898
C0E920,通霄漁港,2023-04-12,24.498589,120.673876,0.48182622
C0E930,龍鳳,2023-04-12,24.700034,120.859125,0.47977775
C0F000,大肚,2023-04-12,24.15295,120.572117,0.092609785
C0F0B0,石岡,2023-04-12,24.276061,120.777644,0.2807435
C0F850,東勢,2023-04-12,24.246428,120.833047,0.21582773
C0F930,大甲,2023-04-12,24.347667,120.640403,0.5565544
C0F970,大坑,2023-04-12,24.173142,120.722289,0.6415732
C0F9A0,中竹林,2023-04-12,24.103556,120.751061,0.16873454
C0F9I0,神岡,2023-04-12,24.272481,120.658314,0.2498609
C0F9K0,大安,2023-04-12,24.345061,120.588025,0.5744067
C0F9L0,后里,2023-04-12,24.310436,120.729725,0.20990984
C0F9M0,豐原,2023-04-12,24.254322,120.720692,0.2591146
C0F9N0,大里,2023-04-12,24.092464,120.701378,0.6454566
C0F9O0,潭子,2023-04-12,24.213106,120.703933,0.27658567
C0F9P0,清水,2023-04-12,24.312297,120.562242,0.57125276
C0F9Q0,外埔,2023-04-12,24.347817,120.705686,0.2324673
C0F9R0,龍井,2023-04-12,24.184536,120.528972,0.59853023
C0F9S0,烏日,2023-04-12,24.107058,120.624103,0.5452601
C0F9T0,西屯,2023-04-12,24.179494,120.641275,0.5456376
C0F9U0,南屯,2023-04-12,24.137006,120.637969,0.5357858
C0F9X0,大雅(中科園區),2023-04-12,24.21528,120.62445,0.4933905
C0FA10,松柏,2023-04-12,24.429115,120.617482,0.5502753
C0FA20,溫寮,2023-04-12,24.372177,120.583125,0.56455445
C0FA30,梧棲,2023-04-12,24.256003,120.523381,0.5878647
C0FA40,臺中電廠,2023-04-12,24.2146,120.4907,0.59853023
C0FA50,霧峰,2023-04-12,24.0419,120.6995,0.67956215
C0G620,芬園,2023-04-12,24.015678,120.6213,0.54704183
C0G640,鹿港,2023-04-12,24.0753,120.430481,0.47829226
C0G650,員林,2023-04-12,23.946503,120.585597,0.63222045
C0G660,溪湖,2023-04-12,23.94835,120.479122,0.6023533
C0G720,溪州,2023-04-12,23.851589,120.499093,0.37115517
C0G730,二林,2023-04-12,23.903325,120.376081,0.5417031
C0G740,大城,2023-04-12,23.852487,120.320935,0.627313
C0G770,福興,2023-04-12,24.041289,120.437669,0.50260806
C0G780,秀水,2023-04-12,24.03405,120.503869,0.5452997
C0G800,埔鹽,2023-04-12,24.000394,120.431683,0.5201955
C0G810,埔心,2023-04-12,23.947633,120.525456,0.59649736
C0G820,田尾,2023-04-12,23.901669,120.509389,0.60131073
C0G830,埤頭,2023-04-12,23.866003,120.452806,0.3907964
C0G840,北斗,2023-04-12,23.877586,120.514222,0.60131073
C0G860,社頭,2023-04-12,23.897647,120.5862,0.6489974
C0G870,芳苑,2023-04-12,23.922303,120.320025,0.61573887
C0G880,二水,2023-04-12,23.810742,120.6173,0.3450278
C0G890,伸港,2023-04-12,24.148933,120.484403,0.5638919
C0G900,線西,2023-04-12,24.143358,120.443536,0.5599468
C0G910,花壇,2023-04-12,24.032076,120.549461,0.58689606
C0G920,永靖,2023-04-12,23.924703,120.547533,0.61858433
C0G940,竹塘,2023-04-12,23.848253,120.386764,0.3709012
C0G950,防潮門,2023-04-12,24.1835,120.4871,0.5945643
C0G960,福寶,2023-04-12,24.0443,120.3814,0.48430568
C0G970,三豐,2023-04-12,23.882,120.2895,0.61573887
C0H890,埔里,2023-04-12,23.972169,120.952425,0.66743517
C0H950,中寮,2023-04-12,23.884447,120.766406,0.28321642
C0H960,草屯,2023-04-12,23.973672,120.68085,0.342319
C0I110,竹山,2023-04-12,23.761225,120.688156,0.31587595
C0I360,水里,2023-04-12,23.812553,120.849792,0.7328022
C0I380,集集,2023-04-12,23.828206,120.801467,0.7251061
C0I410,名間,2023-04-12,23.837053,120.701447,0.37529072
C0I420,國姓,2023-04-12,24.037803,120.855072,0.5431969
C0I460,南投,2023-04-12,23.911469,120.687331,0.35547575
C0K250,崙背,2023-04-12,23.75555,120.318925,0.72444034
C0K280,四湖,2023-04-12,23.630414,120.227125,0.7520371
C0K291,宜梧,2023-04-12,23.536281,120.169329,0.84250885
C0K330,虎尾,2023-04-12,23.719183,120.442036,0.4046766
C0K390,土庫,2023-04-12,23.679029,120.395574,0.3915731
C0K400,斗六,2023-04-12,23.720583,120.541127,0.40769398
C0K410,北港,2023-04-12,23.573957,120.292802,0.8650643
C0K420,西螺,2023-04-12,23.800407,120.467394,0.3977669
C0K430,褒忠,2023-04-12,23.690938,120.303634,0.7791396
C0K440,二崙,2023-04-12,23.772797,120.408944,0.3816944
C0K450,大埤,2023-04-12,23.646074,120.431537,0.49924076
C0K460,斗南,2023-04-12,23.678734,120.478359,0.42844328
C0K470,林內,2023-04-12,23.748675,120.609642,0.41065827
C0K480,莿桐,2023-04-12,23.761192,120.502372,0.368058
C0K500,元長,2023-04-12,23.64981,120.315024,0.80349064
C0K510,水林,2023-04-12,23.572924,120.24597,0.84010404
C0K530,臺西,2023-04-12,23.701547,120.197559,0.68161684
C0K550,蔦松,2023-04-12,23.514319,120.229736,0.86113775
C0K560,棋山,2023-04-12,23.68645,120.603417,0.4293651
C0K580,高鐵雲林,2023-04-12,23.737456,120.417944,0.39795896
C0K590,雲林東勢,2023-04-12,23.674192,120.255721,0.7734201
C0K600,箔子寮,2023-04-12,23.6197,120.14,0.8019229
C0M410,馬頭山,2023-04-12,23.324361,120.582017,0.61019367
C0M520,東後寮,2023-04-12,23.369908,120.248065,0.886702
C0M640,中埔,2023-04-12,23.42538,120.5229,0.40431908
C0M650,朴子,2023-04-12,23.43463,120.23902,0.8752403
C0M660,溪口,2023-04-12,23.604131,120.403569,0.8330708
C0M670,大林,2023-04-12,23.600616,120.45841,0.793295
C0M680,太保,2023-04-12,23.455062,120.331455,0.8821004
C0M690,水上,2023-04-12,23.419734,120.388909,0.84999883
C0M700,竹崎,2023-04-12,23.526178,120.555508,0.38589972
C0M710,東石,2023-04-12,23.458927,120.15385,0.82770467
C0M720,番路,2023-04-12,23.464657,120.554156,0.37549663
C0M730,嘉義市東區,2023-04-12,23.457673,120.460531,0.7944956
C0M740,六腳,2023-04-12,23.492871,120.290625,0.877891
C0M750,布袋,2023-04-12,23.380878,120.167789,0.8627481
C0M760,民雄,2023-04-12,23.551754,120.428457,0.8452394
C0M770,嘉義梅山,2023-04-12,23.585398,120.555587,0.44327936
C0M780,鹿草,2023-04-12,23.41134,120.30835,0.88721067
C0M790,新港,2023-04-12,23.553269,120.345728,0.874458
C0M800,茶山,2023-04-12,23.299075,120.664767,0.7386859
C0M880,好美里,2023-04-12,23.3364,120.138,0.83798045
C0N010,鯤鯓國小,2023-04-12,23.1879,120.0889,0.8409927
C0N020,城西,2023-04-12,23.0568,120.0956,0.86646444
C0N030,四草,2023-04-12,23.0235,120.1116,0.83318913
C0N040,蘆竹溝,2023-04-12,23.2344,120.0961,0.8553637
C0N050,蚵寮,2023-04-12,23.301,120.1104,0.85026973
C0O810,曾文,2023-04-12,23.219681,120.497328,0.87275213
C0O830,北寮,2023-04-12,23.079561,120.495008,0.5503474
C0O840,王爺宮,2023-04-12,23.222064,120.40085,0.8599991
C0O860,大內,2023-04-12,23.11885,120.36083,0.8247204
C0O900,善化,2023-04-12,23.112883,120.297219,0.7928082
C0O930,玉井,2023-04-12,23.126042,120.46055,0.86649865
C0O950,安南,2023-04-12,23.076694,120.144861,0.79806876
C0O960,崎頂,2023-04-12,22.959547,120.369317,0.43317923
C0O970,虎頭埤,2023-04-12,23.021375,120.347878,0.87913764
C0O980,新市,2023-04-12,23.061614,120.298197,0.7953118
C0O990,媽廟,2023-04-12,22.99175,120.293525,0.78798306
C0R150,三地門,2023-04-12,22.709889,120.639944,0.645046
C0R160,鹽埔,2023-04-12,22.739558,120.530778,0.58443713
C0R170,屏東,2023-04-12,22.660269,120.494072,0.7898716
C0R190,赤山,2023-04-12,22.592333,120.614306,0.54052716
C0R220,潮州,2023-04-12,22.534361,120.54,0.4050039
C0R240,來義,2023-04-12,22.527306,120.625111,0.49824828
C0R260,春日,2023-04-12,22.370361,120.628306,0.40830442
C0R270,琉球嶼,2023-04-12,22.332244,120.362236,0.4067764
C0R280,檳榔,2023-04-12,22.076078,120.836777,0.028284749
C0R320,車城,2023-04-12,22.0744,120.716247,0.07507285
C0R341,牡丹,2023-04-12,22.130036,120.792639,0.28058347
C0R350,貓鼻頭,2023-04-12,21.921774,120.7358,0.06978817
C0R470,高樹,2023-04-12,22.826389,120.600806,0.74831694
C0R480,長治,2023-04-12,22.693128,120.542622,0.5792214
C0R490,九如,2023-04-12,22.7405,120.490503,0.78908503
C0R520,崁頂,2023-04-12,22.514781,120.506914,0.64564574
C0R540,佳冬,2023-04-12,22.419456,120.552375,0.6973631
C0R550,新埤,2023-04-12,22.467947,120.582894,0.5243196
C0R560,新園,2023-04-12,22.5434,120.461558,0.64953303
C0R570,麟洛,2023-04-12,22.65078,120.52719,0.7887605
C0R580,南州,2023-04-12,22.48591,120.50274,0.63711494
C0R590,里港,2023-04-12,22.77919,120.49459,0.6367903
C0R620,墾雷,2023-04-12,21.900836,120.855269,0.06891322
C0R640,東港,2023-04-12,22.46247,120.44074,0.6130896
C0R650,竹田,2023-04-12,22.58486,120.54344,0.515929
C0R660,枋寮,2023-04-12,22.367722,120.590647,0.4108087
C0R670,楓港,2023-04-12,22.190131,120.692156,0.2854947
C0R680,佳樂水,2023-04-12,21.993578,120.861633,0.07295768
C0R690,墾丁,2023-04-12,21.966756,120.810269,0.024742117
C0R700,枋山,2023-04-12,22.246844,120.661086,0.3320177
C0R710,龍磐,2023-04-12,21.931672,120.838942,0.05521967
C0R720,旭海,2023-04-12,22.205403,120.887614,0.067295246
C0R730,大坪頂,2023-04-12,22.024633,120.69355,0.044003874
C0R740,獅子,2023-04-12,22.201569,120.70525,0.2671453
C0R760,南仁湖,2023-04-12,22.084681,120.863353,0.025718968
C0R770,保力,2023-04-12,22.071122,120.764111,0.061644938
C0R780,滿州,2023-04-12,22.024403,120.839892,0.06799962
C0R790,九棚,2023-04-12,22.14195,120.889281,0.07942552
C0R800,丹路,2023-04-12,22.204481,120.750989,0.295171
C0R810,內獅,2023-04-12,22.305064,120.642986,0.5255454
C0R830,高士,2023-04-12,22.121825,120.836781,0.026578289
C0R850,林邊,2023-04-12,22.4634,120.5339,0.6865881
C0R860,鼻頭,2023-04-12,22.1043,120.8979,0.13889314
C0R870,興海,2023-04-12,21.9752,120.8439,0.07295761
C0R880,後壁湖,2023-04-12,21.9457,120.7457,0.07645142
C0R890,山海,2023-04-12,21.9878,120.7091,0.07600508
C0R900,竹坑,2023-04-12,22.1385,120.7022,0.46089742
C0R910,下寮,2023-04-12,22.3929,120.5548,0.6973631
C0R920,塭仔,2023-04-12,22.4169,120.5197,0.6739135
C0R930,萬丹,2023-04-12,22.5885,120.4851,0.4934782
C0R940,加祿堂,2023-04-12,22.3363,120.6217,0.42451242
C0S710,鹿野,2023-04-12,22.917711,121.122994,0.56636095
C0S730,綠島,2023-04-12,22.6672,121.47533,0.94570225
C0S740,池上,2023-04-12,23.119628,121.209469,0.63062656
C0S770,大溪山,2023-04-12,22.478475,120.943325,0.26529965
C0S790,金崙,2023-04-12,22.538122,120.966875,0.2044744
C0S810,東河,2023-04-12,22.972672,121.303986,0.82130176
C0S830,長濱,2023-04-12,23.286817,121.411975,0.5732288
C0S840,南田,2023-04-12,22.279725,120.889208,0.12709542
C0S890,關山,2023-04-12,23.0395,121.175017,0.759858
C0S900,蘭嶼高中,2023-04-12,22.04909,121.51214,0.33862984
C0S910,蘭嶼燈塔,2023-04-12,22.081197,121.503117,0.31622717
C0S920,金峰嘉蘭,2023-04-12,22.594789,120.960825,0.22748002
C0S930,延平,2023-04-12,22.902581,121.084058,0.61451995
C0S940,石寧山,2023-04-12,23.223772,121.406639,0.6962691
C0S950,七塊厝,2023-04-12,22.954453,121.229922,0.61149585
C0S960,香蘭,2023-04-12,22.587569,120.993375,0.21301271
C0S970,加津林,2023-04-12,22.416211,120.926942,0.11300176
C0S990,山豬窟,2023-04-12,22.318619,120.857372,0.038010806
C0SA00,歷坵,2023-04-12,22.520969,120.89185,0.59151745
C0SA10,檳榔四格山,2023-04-12,22.810031,121.109308,0.74879164
C0SA30,都歷,2023-04-12,23.020333,121.323642,0.91710037
C0SA40,瑞和,2023-04-12,22.974361,121.156697,0.8156043
C0SA60,知本（水試所）,2023-04-12,22.702394,121.082761,0.36141226
C0SA80,土坂,2023-04-12,22.453108,120.887572,0.19384898
C0SA90,達仁林場,2023-04-12,22.264347,120.823972,0.07336871
C0T870,鯉魚潭,2023-04-12,23.935639,121.508944,0.21386433
C0T900,西林,2023-04-12,23.8119,121.441458,0.21005566
C0T960,光復,2023-04-12,23.660694,121.424964,0.22848439
C0T9A0,月眉山,2023-04-12,23.809928,121.539828,0.2819841
C0T9D0,和中,2023-04-12,24.26676,121.74103,0.42708385
C0T9E0,大坑,2023-04-12,23.880628,121.581981,0.26701677
C0T9F0,水璉,2023-04-12,23.797131,121.542514,0.27766526
C0T9I0,豐濱,2023-04-12,23.583897,121.514806,0.26032245
C0T9M0,靜浦,2023-04-12,23.455167,121.495028,0.30926412
C0T9N0,富里,2023-04-12,23.171639,121.249378,0.5427716
C0U600,礁溪,2023-04-12,24.817539,121.765608,0.28562564
C0U650,玉蘭,2023-04-12,24.675286,121.587061,0.18206069
C0U750,龜山島,2023-04-12,24.841667,121.953133,0.2371337
C0U760,東澳,2023-04-12,24.52196,121.83318,0.6088549
C0U770,南澳,2023-04-12,24.44935,121.81022,0.7736325
C0U780,五結,2023-04-12,24.68637,121.79794,0.5442697
C0U860,頭城,2023-04-12,24.85323,121.8308,0.3860365
C0U870,大礁溪,2023-04-12,24.791042,121.675047,0.046193793
C0U880,北關,2023-04-12,24.9072,121.8734,0.33484676
C0U890,三星,2023-04-12,24.66812,121.65302,0.113481835
C0U900,內城,2023-04-12,24.71813,121.68766,0.23142695
C0U910,冬山,2023-04-12,24.63373,121.7937,0.5500545
C0U940,羅東,2023-04-12,24.68184,121.74934,0.43399698
C0U970,大福,2023-04-12,24.80064,121.81389,0.48033866
C0U990,員山,2023-04-12,24.74435,121.72247,0.45848012
C0UA00,土場,2023-04-12,24.576533,121.495333,0.061130174
C0UA80,大溪漁港,2023-04-12,24.941801,121.902955,0.32115203
C0UA90,石城,2023-04-12,24.980444,121.951214,0.58514374
C0UB00,淡江大學蘭陽校園,2023-04-12,24.823239,121.730383,0.033586524
C0UB10,蘇澳,2023-04-12,24.5969,121.8571,0.8854377
C0UB20,壯圍,2023-04-12,24.7359,121.8163,0.56700724
C0V250,甲仙,2023-04-12,23.080106,120.591758,0.47714883
C0V260,月眉,2023-04-12,22.971003,120.539853,0.54831606
C0V310,美濃,2023-04-12,22.898742,120.519153,0.90899664
C0V350,溪埔,2023-04-12,22.738578,120.446797,0.68779105
C0V360,內門,2023-04-12,22.975481,120.466769,0.8794002
C0V370,古亭坑,2023-04-12,22.893178,120.401947,0.8513252
C0V400,阿公店,2023-04-12,22.804194,120.355528,0.7554948
C0V440,鳳山,2023-04-12,22.646653,120.356122,0.63244313
C0V450,鳳森,2023-04-12,22.545064,120.392592,0.40123558
C0V490,新興,2023-04-12,22.627422,120.298803,0.620825
C0V530,阿蓮,2023-04-12,22.883208,120.327508,0.78063226
C0V610,梓官,2023-04-12,22.760558,120.267211,0.67676836
C0V620,永安,2023-04-12,22.82315,120.236856,0.76403767
C0V630,茄萣,2023-04-12,22.906642,120.182608,0.7533207
C0V640,湖內,2023-04-12,22.887139,120.2445,0.7685292
C0V650,彌陀,2023-04-12,22.783806,120.246361,0.76403767
C0V660,岡山,2023-04-12,22.797078,120.294958,0.70619464
C0V680,仁武,2023-04-12,22.701083,120.347722,0.6347776
C0V690,鼓山,2023-04-12,22.623325,120.275575,0.56522477
C0V700,三民,2023-04-12,22.645017,120.311233,0.620825
C0V710,苓雅,2023-04-12,22.622742,120.330669,0.6044595
C0V720,林園,2023-04-12,22.507747,120.394511,0.61191547
C0V730,大寮,2023-04-12,22.605614,120.395717,0.41211146
C0V740,旗山,2023-04-12,22.888614,120.483597,0.90449244
C0V750,路竹,2023-04-12,22.854997,120.259439,0.77248967
C0V760,橋頭,2023-04-12,22.757806,120.30575,0.7046085
C0V770,大社,2023-04-12,22.730306,120.346639,0.63629144
C0V790,萬山,2023-04-12,22.905944,120.688056,0.67937946
C0V800,六龜,2023-04-12,22.997889,120.633583,0.5345981
C0V810,左營,2023-04-12,22.67491,120.28491,0.61926514
C0V820,小林,2023-04-12,23.148408,120.63325,0.58178735
C0V840,鳳鼻頭,2023-04-12,22.5083,120.3591,0.6110786
C0V850,蚵仔寮,2023-04-12,22.7256,120.2527,0.5813004
C0V860,南寮,2023-04-12,22.7616,120.2339,0.7540308
C0V870,文安,2023-04-12,22.8025,120.2164,0.7423175
C0V880,興達,2023-04-12,22.8778,120.2127,0.7533209
C0V890,前鎮,2023-04-12,22.5718,120.3117,0.5979577
C0V900,汕尾,2023-04-12,22.4782,120.4151,0.70143944
C0X050,東河,2023-04-12,23.296598,120.385608,0.8663759
C0X060,下營,2023-04-12,23.22695,120.256261,0.8673051
C0X080,佳里,2023-04-12,23.173039,120.145086,0.8581104
C0X100,臺南市北區,2023-04-12,23.010394,120.194228,0.78286123
C0X110,臺南市南區,2023-04-12,22.961189,120.188378,0.78591955
C0X120,麻豆,2023-04-12,23.183289,120.248611,0.8772693
C0X130,官田,2023-04-12,23.193217,120.315422,0.87753326
C0X140,西港,2023-04-12,23.125608,120.203108,0.86034775
C0X150,安定,2023-04-12,23.102614,120.227839,0.7889727
C0X160,仁德,2023-04-12,22.968258,120.257689,0.77934694
C0X170,關廟,2023-04-12,22.963017,120.327797,0.7976609
C0X180,山上,2023-04-12,23.0757,120.363253,0.85465807
C0X190,安平,2023-04-12,22.993161,120.152181,0.7754522
C0X200,左鎮,2023-04-12,23.056758,120.408522,0.8601653
C0X210,白河,2023-04-12,23.347466,120.414427,0.86689585
C0X220,學甲,2023-04-12,23.230367,120.182187,0.8616319
C0X230,鹽水,2023-04-12,23.272621,120.247641,0.8901055
C0X240,關子嶺,2023-04-12,23.331169,120.508025,0.53109354
C0X250,新營,2023-04-12,23.310689,120.316681,0.88459575
C0X260,後壁,2023-04-12,23.366358,120.362326,0.8875895
C0X280,將軍,2023-04-12,23.214999,120.13577,0.8554931
C0X290,北門,2023-04-12,23.267772,120.125481,0.850541
C0X300,鹿寮,2023-04-12,23.386047,120.477331,0.5040858
C0X310,七股,2023-04-12,23.147289,120.086253,0.87140745
C0X320,柳營,2023-04-12,23.253328,120.375253,0.8752054
C0Z020,明里,2023-04-12,23.208717,121.262342,0.5251377
C0Z061,玉里,2023-04-12,23.3215,121.339656,0.693841
C0Z070,舞鶴,2023-04-12,23.46811,121.37407,0.2350161
C0Z080,富源,2023-04-12,23.587642,121.378225,0.2783789
C0Z100,東華,2023-04-12,23.89525,121.549833,0.26069316
C0Z150,吉安光華,2023-04-12,23.930925,121.595153,0.2965196
C0Z160,鳳林,2023-04-12,23.746114,121.453411,0.24660999
C0Z170,卓溪,2023-04-12,23.3443,121.3029,0.66723686
C0Z180,新城,2023-04-12,24.03946,121.60454,0.31975135
C0Z190,富世,2023-04-12,24.14743,121.6297,0.54259413
C0Z200,萬榮,2023-04-12,23.709219,121.420106,0.2177733
C0Z210,瑞穗,2023-04-12,23.5239,121.39021,0.23893712
C0Z230,和平,2023-04-12,24.30717,121.77007,0.42716733
C0Z270,蕃薯寮,2023-04-12,23.73835,121.540108,0.35650924
C0Z280,德武,2023-04-12,23.47426,121.41071,0.270953
C0Z300,東里,2023-04-12,23.26853,121.30547,0.64976114
C0Z310,清水斷崖,2023-04-12,24.218294,121.689142,0.5081555
C0Z330,安通山,2023-04-12,23.290728,121.348528,0.46305326
CAA010,國一N013K,2023-04-12,25.06944,121.6281,0.20498414
CAA020,國一S026K,2023-04-12,25.07639,121.4964,0.36575717
CAA030,國三S010K,2023-04-12,25.08,121.6475,0.18523395
CAA040,國三S016K,2023-04-12,25.03306,121.6158,0.120336406
CAA050,國三S037K,2023-04-12,24.9828,121.471,0.2872689
CAA060,國三S042K,2023-04-12,24.96,121.4306,0.2803798
CAA070,國三N046K,2023-04-12,24.95083,121.3958,0.27556577
CAA080,國三S054K,2023-04-12,24.93917,121.3239,0.16922757
CAA090,國三A005K,2023-04-12,25.00194,121.5975,0.21833238
CAAH60,大安森林,2023-04-12,25.02955,121.53628,0.27631247
CAB010,國一S001K,2023-04-12,25.11583,121.7286,0.42371958
CAB020,國一S006K,2023-04-12,25.08694,121.6869,0.47444463
CAB030,國三S004K,2023-04-12,25.11444,121.6886,0.15475471
CAB040,國三S007K,2023-04-12,25.09694,121.6678,0.31467837
CAB050,國三K002K,2023-04-12,25.14583,121.7217,0.24017574
CAC010,國一S072K,2023-04-12,24.89583,121.1342,0.0739857
CAC020,國二E009K,2023-04-12,25.02111,121.2736,0.17147838
CAC030,國三N063K,2023-04-12,24.889,121.26,0.21921806
CAC050,西濱S023K,2023-04-12,25.11649,121.27551,0.25262827
CAC060,西濱S032K,2023-04-12,25.091966,121.192505,0.2228313
CAD010,國一S105K,2023-04-12,24.726316,120.940643,0.3859585
CAD020,國一N077K,2023-04-12,24.885,121.0889,0.0976271
CAD030,國一S082K,2023-04-12,24.87667,121.0467,0.5233732
CAD040,國一S088K,2023-04-12,24.84444,121.0214,0.42512715
CAD050,國一N094K,2023-04-12,24.79778,121.0089,0.3496888
CAD060,國一S098K,2023-04-12,24.76056,120.9911,0.4162642
CAD070,國三N076K,2023-04-12,24.800303,121.195739,0.27027488
CAD080,國三N085K,2023-04-12,24.78333,121.1211,0.30383986
CAD090,國三S103K,2023-04-12,24.75861,120.9608,0.27319345
CAD100,西濱N066K,2023-04-12,24.8956,120.9649,0.48403183
CAD110,西濱S082K,2023-04-12,24.751724,120.905028,0.34849107
CAE010,國一N142K,2023-04-12,24.453119,120.783221,0.27294177
CAE020,國一S114K,2023-04-12,24.668835,120.885811,0.41746393
CAE030,國一S123K,2023-04-12,24.59594,120.86071,0.45709017
CAE040,國一S132K,2023-04-12,24.524506,120.820831,0.4519505
CAE050,國一S152K,2023-04-12,24.375492,120.749184,0.38110596
CAE060,國三N119K,2023-04-12,24.675432,120.847389,0.45183873
CAE070,國三N151K,2023-04-12,24.440218,120.681656,0.58372635
CAE080,國三S140K,2023-04-12,24.522345,120.725006,0.5449547
CAE090,國三S156K,2023-04-12,24.39798,120.669487,0.49702832
CAE100,西濱N107K,2023-04-12,24.5958,120.7394,0.50292057
CAE110,西濱S129K,2023-04-12,24.4472,120.6428,0.5534296
CAF010,國一N174K,2023-04-12,24.2049,120.6552,0.4775645
CAF020,國一S162K,2023-04-12,24.295534,120.695976,0.2316851
CAF030,國一S169K,2023-04-12,24.237116,120.688271,0.2537819
CAF040,國一S188K,2023-04-12,24.118546,120.585747,0.52967626
CAF050,國三N208K,2023-04-12,24.066147,120.660919,0.6121838
CAF060,國三S168K,2023-04-12,24.308519,120.614471,0.58297753
CAF070,國三S173K,2023-04-12,24.27397,120.593079,0.45053717
CAF080,國三S178K,2023-04-12,24.226721,120.589058,0.49478018
CAF090,國四E5K,2023-04-12,24.296465,120.643135,0.5222484
CAF100,西濱N151K,2023-04-12,24.275964,120.547681,0.6063447
CAG010,國一N198K,2023-04-12,24.063889,120.523056,0.51858467
CAG030,國一S207K,2023-04-12,23.988304,120.508092,0.5815948
CAG040,國三N191K,2023-04-12,24.139256,120.5215,0.57529217
CAG050,國三N196K,2023-04-12,24.107155,120.554482,0.5356575
CAG060,國三S202K,2023-04-12,24.092468,120.603256,0.54849696
CAG070,西濱S173K,2023-04-12,24.1081,120.434576,0.48789865
CAG080,西濱S189K,2023-04-12,23.987857,120.369607,0.60835063
CAG090,西濱N210K,2023-04-12,23.843536,120.293236,0.703485
CAG100,王功漁港,2023-04-12,23.96824,120.32586,0.6114157
CAH010,國三N223K,2023-04-12,23.955116,120.662376,0.36631685
CAH020,國三S217K,2023-04-12,24.00683,120.653214,0.6708608
CAH030,茶改場竹圍站,2023-04-12,23.860083,120.637528,0.62020314
CAHA00,消防署訓練中心,2023-04-12,23.82137,120.72293,0.3751847
CAJ010,國三N252K,2023-04-12,23.77412,120.64061,0.3426245
CAJ020,國一N234K,2023-04-12,23.74633,120.467926,0.4109997
CAJ030,西濱N222K,2023-04-12,23.737734,120.256132,0.7522999
CAJ040,西濱S241K,2023-04-12,23.623426,120.172646,0.8217825
CAJ050,海口故事園區,2023-04-12,23.57543,120.14121,0.8019229
CAL010,國一N250K,2023-04-12,23.610292,120.436867,0.84308356
CAL020,國一S262K,2023-04-12,23.512333,120.403038,0.85500956
CAL030,國一N268K,2023-04-12,23.460833,120.375833,0.8607435
CAL040,國一N273K,2023-04-12,23.416666,120.355,0.86717945
CAL050,國三N279K,2023-04-12,23.596111,120.523333,0.43330777
CAL060,國三S286K,2023-04-12,23.533917,120.484583,0.40232715
CAL070,國三N295K,2023-04-12,23.468598,120.499369,0.40421727
CAL080,國三N303K,2023-04-12,23.428611,120.452416,0.8431421
CAL090,西濱S257K,2023-04-12,23.502278,120.171861,0.8424932
CAL100,西濱S267K,2023-04-12,23.41613,120.162872,0.8627481
CAL110,布袋國中,2023-04-12,23.35893,120.18026,0.87821233
CAN010,國一N288K,2023-04-12,23.30609,120.290033,0.88408005
CAN020,國一S306K,2023-04-12,23.1565,120.239513,0.8781356
CAN030,國一N316K,2023-04-12,23.07309,120.253014,0.7912417
CAN040,國一N323K,2023-04-12,23.00421,120.245922,0.79404074
CAN050,國一N335K,2023-04-12,22.897584,120.269895,0.76805395
CAN060,國三S311K,2023-04-12,23.346388,120.438888,0.8676363
CAN070,國三S329K,2023-04-12,23.212777,120.355833,0.8537365
CAN080,國三N336K,2023-04-12,23.154722,120.345,0.8890013
CAN090,國三S342K,2023-04-12,23.106694,120.327528,0.7979951
CAN100,國三S366K,2023-04-12,22.9077,120.3513,0.7910795
CAN110,西濱S280K,2023-04-12,23.3052,120.14891,0.84625596
CAN120,西濱N304K,2023-04-12,23.103439,120.086694,0.85281396
CAN130,水試所海水繁養殖中心,2023-04-12,23.120802,120.07968,0.85136926
CAN140,六官養殖協會,2023-04-12,23.22881,120.29962,0.8733544
CAP010,國一S342K,2023-04-12,22.845555,120.295,0.7049613
CAP020,國一S346K,2023-04-12,22.812222,120.314166,0.70619464
CAP030,國一N351K,2023-04-12,22.765833,120.328888,0.7001551
CAP040,國一N361K,2023-04-12,22.680555,120.328611,0.6207686
CAP050,國三N372K,2023-04-12,22.858611,120.373611,0.81887484
CAP060,國三S385K,2023-04-12,22.767777,120.444444,0.4901481
CAP070,高雄燈塔,2023-04-12,22.6146,120.2647,0.56522477
CAQ010,國三N425K,2023-04-12,22.480277,120.531666,0.67269546
CAQ020,國三S415K,2023-04-12,22.568,120.528,0.47430506
CAQ030,崎峰國小,2023-04-12,22.42565,120.49521,0.63728756
E2K600,四湖植物園,2023-04-12,23.676986,120.163433,0.68161684
E2P980,林試六龜中心,2023-04-12,22.991703,120.645722,0.5285353
E2S390,太麻里分所,2023-04-12,22.5988,120.9811,0.20868897
E2S960,林試太麻里2,2023-04-12,22.598014,120.989761,0.21301271
E2S980,林試太麻里1,2023-04-12,22.598922,120.980044,0.20868897
G2AI50,關渡,2023-04-12,25.11575,121.492,0.37949494
G2F820,農試所(霧峰),2023-04-12,24.031261,120.688133,0.7108002
G2L020,嘉義分所,2023-04-12,23.485028,120.473806,0.40086138
G2M350,溪口農場,2023-04-12,23.58565,120.408111,0.8419051
G2P820,鳳山園試所,2023-04-12,22.646611,120.356083,0.6324427
K2E360,苗栗農改場,2023-04-12,24.495722,120.829111,0.5971944
K2E710,大湖分場,2023-04-12,24.422861,120.871833,0.2812338
K2F750,種苗改良場,2023-04-12,24.225972,120.800917,0.1204585
U2HA50,臺大竹山,2023-04-12,23.756972,120.681556,0.31385094
V2C250,八德合作社,2023-04-12,24.93775,121.266389,0.20402773
V2C260,八德蔬果,2023-04-12,24.978508,121.281819,0.123335354
V2K610,大庄合作社,2023-04-12,23.8068,120.367939,0.74399567
V2K620,麥寮合作社,2023-04-12,23.753836,120.294783,0.73038656
