站號,站名,日期,lat,lon,BLBTSLS
C0R710,龍磐,2023-06-25,21.931672,120.838942,3.2520707e-05
C1F9D1,白毛台,2023-06-25,24.158325,120.886933,2.8840915e-07
C0G940,竹塘,2023-06-25,23.848253,120.386764,0.0006229351
467590,恆春,2023-06-25,22.003897,120.746339,5.503861e-08
C1O850,環湖,2023-06-25,23.148617,120.418633,0.085707545
C0U710,太平山,2023-06-25,24.505486,121.525656,5.4456843e-09
C0E820,獅潭,2023-06-25,24.539133,120.920042,0.8975199
C0V880,興達,2023-06-25,22.8778,120.2127,0.002905584
C0S890,關山,2023-06-25,23.0395,121.175017,4.1286526e-06
K2F750,種苗繁殖,2023-06-25,24.225972,120.800917,0.005331507
C1Z130,銅門,2023-06-25,23.965694,121.492842,0.006230813
C0AD40,土城,2023-06-25,24.973208,121.445169,0.003095115
CAN140,六官養殖協會,2023-06-25,23.22881,120.29962,8.434507e-07
C0X180,山上,2023-06-25,23.0757,120.363253,0.00030220978
C0F9Z0,雪山東峰,2023-06-25,24.388792,121.268675,9.148726e-09
C1M480,獨立山,2023-06-25,23.537022,120.607797,2.3848679e-09
C0X220,學甲,2023-06-25,23.230367,120.182187,1.10656e-05
C0R170,屏東,2023-06-25,22.660269,120.494072,1.9801637e-06
467650,日月潭,2023-06-25,23.881325,120.90805,4.022126e-09
C0K600,箔子寮,2023-06-25,23.6197,120.14,0.00042767875
C0G830,埤頭,2023-06-25,23.866003,120.452806,0.0006570181
C0S950,七塊厝,2023-06-25,22.954453,121.229922,2.1428106e-07
467110,金門,2023-06-25,24.407306,118.289281,0.48859242
C0AH80,深坑,2023-06-25,25.002703,121.628328,0.001819342
467990,馬祖,2023-06-25,26.169269,119.923419,0.3942999
C0A970,三貂角,2023-06-25,25.007606,122.002058,0.9963384
C0K430,褒忠,2023-06-25,23.690938,120.303634,3.9200813e-06
467480,嘉義,2023-06-25,23.495925,120.432906,3.3831475e-06
C2E540,後龍,2023-06-25,24.606489,120.783933,0.14431912
C0V400,阿公店,2023-06-25,22.804194,120.355528,5.680458e-06
C0R440,大漢山,2023-06-25,22.405264,120.753181,2.4304583e-09
C0K280,四湖,2023-06-25,23.630414,120.227125,9.215018e-05
C1F9B1,桐林,2023-06-25,24.066172,120.735194,0.23280196
C0K390,土庫,2023-06-25,23.679029,120.395574,4.057994e-06
C1I450,望鄉山,2023-06-25,23.594153,120.944286,5.8491123e-09
C0E910,海埔,2023-06-25,24.648767,120.772435,0.17403881
B2E890,畜試北區分所,2023-06-25,24.527806,120.770972,0.9138464
C0R750,四林格山,2023-06-25,22.076989,120.802439,1.2720023e-09
C0F0C0,中坑,2023-06-25,24.248517,120.903319,3.4107224e-09
C1I121,大鞍,2023-06-25,23.678381,120.760017,3.0220497e-09
72U480,花改蘭陽分場,2023-06-25,24.686306,121.716583,0.056500062
C0A770,科教館,2023-06-25,25.096356,121.516507,0.011048007
C0AJ60,六塊厝,2023-06-25,25.24,121.4481,0.025327928
C0R620,墾雷,2023-06-25,21.900836,120.855269,1.3618418e-05
467420,永康,2023-06-25,23.038386,120.2367,5.781445e-05
467300,東吉島,2023-06-25,23.25695,119.667467,0.023864876
C0I410,名間,2023-06-25,23.837053,120.701447,0.05501102
A2C560,農工中心,2023-06-25,24.985917,121.239833,1.0855691e-06
C0V740,旗山,2023-06-25,22.888614,120.483597,1.6515305e-06
C0Z061,玉里,2023-06-25,23.3215,121.339656,3.224375e-07
C0S840,南田,2023-06-25,22.279725,120.889208,0.00025903742
C1I470,杉林溪,2023-06-25,23.639517,120.786444,3.0639602e-09
C1X040,東原,2023-06-25,23.291597,120.463822,0.007446318
C0R660,枋寮,2023-06-25,22.367722,120.590647,0.03379702
C1R120,上德文,2023-06-25,22.763272,120.704442,2.6443345e-08
C0K450,大埤,2023-06-25,23.646074,120.431537,0.0016687838
C0UA00,土場,2023-06-25,24.576533,121.495333,0.055778563
467080,宜蘭,2023-06-25,24.763975,121.756528,0.7977064
C0N030,四草,2023-06-25,23.0235,120.1116,7.539588e-05
C0V650,彌陀,2023-06-25,22.783806,120.246361,0.00549734
C0D660,新竹市東區,2023-06-25,24.798681,120.986942,1.825609e-05
82S580,茶改東部分場,2023-06-25,22.907694,121.130139,0.1279832
C0C710,大溪永福,2023-06-25,24.892936,121.324975,0.002397496
C0FA20,溫寮,2023-06-25,24.372177,120.583125,0.1494294
C0V640,湖內,2023-06-25,22.887139,120.2445,0.002661958
C0R910,下寮,2023-06-25,22.3929,120.5548,0.03379702
C0Z020,明里,2023-06-25,23.208717,121.262342,1.11047475e-05
C0M770,嘉義梅山,2023-06-25,23.585398,120.555587,0.00022117753
G2F820,農業試驗所,2023-06-25,24.031261,120.688133,0.1321727
C0C660,楊梅,2023-06-25,24.912375,121.143047,9.155573e-08
C1E511,新開,2023-06-25,24.347703,120.827019,0.00050320703
G2F820,農試所(霧峰),2023-06-25,24.031261,120.688133,0.1321727
C1I070,和社,2023-06-25,23.591131,120.888861,1.5491378e-05
C2F000,大肚,2023-06-25,24.15295,120.572117,0.06944524
C1S850,豐南,2023-06-25,23.122139,121.262389,8.264385e-08
C2A920,富貴角,2023-06-25,25.263783,121.565258,0.0015491558
CAH030,茶改場竹圍站,2023-06-25,23.860083,120.637528,0.00063606177
C0T960,光復,2023-06-25,23.660694,121.424964,3.91888e-05
C0F9M0,豐原,2023-06-25,24.254322,120.720692,0.79065245
C0R720,旭海,2023-06-25,22.205403,120.887614,1.3082419e-08
C0V710,苓雅,2023-06-25,22.622742,120.330669,6.340526e-05
C0C740,觀音工業區,2023-06-25,25.064764,121.114856,0.00063319306
CAC040,拉拉山,2023-06-25,24.699317,121.427133,4.4195905e-09
C0V790,萬山,2023-06-25,22.905944,120.688056,7.022854e-07
U2HA30,臺大和社,2023-06-25,23.590856,120.888864,1.5491363e-05
C0AJ90,澳底,2023-06-25,25.0552,121.9253,0.9969442
C0Z100,東華,2023-06-25,23.89525,121.549833,0.831553
C0G970,三豐,2023-06-25,23.882,120.2895,0.0015487752
V2K610,大庄合作社,2023-06-25,23.8068,120.367939,9.732635e-06
C0V900,汕尾,2023-06-25,22.4782,120.4151,0.0009854134
C1R630,龍泉,2023-06-25,22.66701,120.59091,0.00090352906
C1AC50,關渡,2023-06-25,25.133486,121.469331,0.003135857
C0F9I0,神岡,2023-06-25,24.272481,120.658314,0.07753149
C0K460,斗南,2023-06-25,23.678734,120.478359,0.0018579722
467410,臺南,2023-06-25,22.993239,120.204772,3.041396e-05
C2O810,曾文,2023-06-25,23.219681,120.497328,0.011449103
467280,後龍,2023-06-25,24.648563,120.831834,0.05175027
C1F9J1,清水林,2023-06-25,24.071242,120.820419,1.2853483e-08
C2A650,火燒寮,2023-06-25,25.002719,121.742892,0.9158419
466930,竹子湖,2023-06-25,25.162078,121.544547,4.5263833e-09
C1I220,樟湖,2023-06-25,23.905333,120.846983,2.2328848e-09
C0I390,仁愛,2023-06-25,24.022122,121.132206,2.9391725e-09
C0Z300,東里,2023-06-25,23.26853,121.30547,0.00023210431
C0V310,美濃,2023-06-25,22.898742,120.519153,1.925641e-06
C1V590,新發,2023-06-25,23.057019,120.646064,5.0517303e-07
C0K510,水林,2023-06-25,23.572924,120.24597,0.0007829985
72S590,東改賓朗果園,2023-06-25,22.813889,121.071278,0.0041669332
82A750,茶改北部分場,2023-06-25,24.955778,121.631222,1.12467134e-07
C1A750,石碇服務區,2023-06-25,25.00872,121.646242,0.0034668054
C0X300,鹿寮,2023-06-25,23.386047,120.477331,0.002262991
G2AI50,關渡,2023-06-25,25.11575,121.492,0.0013034814
C0K590,雲林東勢,2023-06-25,23.674192,120.255721,0.0001142998
C0A570,桶後,2023-06-25,24.848222,121.597992,0.042323507
C1S800,華源,2023-06-25,22.657883,121.02325,0.2622412
C0G720,溪州,2023-06-25,23.851589,120.499093,0.00041676377
C1V160,達卡努瓦,2023-06-25,23.279811,120.705319,5.8418093e-09
C2M410,馬頭山,2023-06-25,23.324361,120.582017,0.00035305368
C0V850,蚵仔寮,2023-06-25,22.7256,120.2527,0.0007504173
C0S740,池上,2023-06-25,23.119628,121.209469,0.00034536447
C1V390,尖山,2023-06-25,22.813153,120.367789,2.1464382e-06
C0AH70,松山,2023-06-25,25.04871,121.55042,0.010658297
C0N010,鯤鯓國小,2023-06-25,23.1879,120.0889,4.9286016e-05
C0R550,新埤,2023-06-25,22.467947,120.582894,0.00087761757
C0SA60,知本（水試所）,2023-06-25,22.702394,121.082761,0.42783624
C0T9I0,豐濱,2023-06-25,23.583897,121.514806,2.0449352e-06
C0UB00,淡江大學蘭陽校園,2023-06-25,24.823239,121.730383,0.0015815867
C0T9N0,富里,2023-06-25,23.171639,121.249378,0.00016169097
U2HA50,臺大竹山,2023-06-25,23.756972,120.681556,0.0053200116
C0V840,鳳鼻頭,2023-06-25,22.5083,120.3591,3.6540405e-05
C0X140,西港,2023-06-25,23.125608,120.203108,1.3494115e-05
72D080,桃改五峰分場,2023-06-25,24.612194,121.157167,1.1028353e-09
C0V530,阿蓮,2023-06-25,22.883208,120.327508,0.00080750405
C1O880,關山,2023-06-25,23.173397,120.594092,5.532531e-07
C0E791,卓蘭,2023-06-25,24.3126,120.8244,0.0050325785
C1I030,武界,2023-06-25,23.913225,121.052483,9.316295e-09
C0R520,崁頂,2023-06-25,22.514781,120.506914,0.00030720897
C0R341,牡丹,2023-06-25,22.130036,120.792639,1.0659814e-08
C0R930,萬丹,2023-06-25,22.5885,120.4851,1.9003247e-06
C0S760,紅石,2023-06-25,23.069131,121.126219,1.7455821e-09
C1M610,石磐龍,2023-06-25,23.496606,120.663506,4.1078128e-09
C0UA10,鴛鴦湖,2023-06-25,24.590269,121.412228,5.8075362e-09
V2C260,八德蔬果,2023-06-25,24.978508,121.281819,5.5939683e-05
C0R800,丹路,2023-06-25,22.204481,120.750989,7.461068e-08
C0G920,永靖,2023-06-25,23.924703,120.547533,0.0141961295
C1A630,下盆,2023-06-25,24.771003,121.538622,1.7740352e-07
B2N890,畜產試驗所,2023-06-25,23.058972,120.336406,3.628349e-05
C0UA30,白嶺,2023-06-25,24.527819,121.519031,7.2045414e-09
C1V580,溪南(特生中心),2023-06-25,23.084972,120.788475,3.3714687e-09
C1T970,大農,2023-06-25,23.615233,121.413331,3.102904e-07
E2S960,林試太麻里2,2023-06-25,22.598014,120.989761,0.66112846
C0R650,竹田,2023-06-25,22.58486,120.54344,0.00012508262
C1H900,清流,2023-06-25,24.080775,120.962997,3.1962033e-09
C1C510,水尾,2023-06-25,24.940081,121.087161,2.8160318e-06
C0F9X0,大雅(中科園區),2023-06-25,24.21528,120.62445,0.07039196
C0O970,虎頭埤,2023-06-25,23.021375,120.347878,0.00017734646
C0C730,中大臨海站,2023-06-25,24.966126,121.008581,5.8463622e-05
C0X250,新營,2023-06-25,23.310689,120.316681,1.2760046e-06
C0V700,三民,2023-06-25,22.645017,120.311233,0.00036190613
C0U870,大礁溪,2023-06-25,24.791042,121.675047,8.425374e-07
C0E870,高鐵苗栗,2023-06-25,24.60725,120.826094,0.064168684
A2K570,古坑花卉中心,2023-06-25,23.63353,120.55239,0.010051145
C0M860,新美,2023-06-25,23.338017,120.683169,4.9128104e-08
C1E701,八卦,2023-06-25,24.491756,120.927619,7.9439474e-08
C0I420,國姓,2023-06-25,24.037803,120.855072,0.16775362
C0S960,香蘭,2023-06-25,22.587569,120.993375,0.66112846
C0R260,春日,2023-06-25,22.370361,120.628306,0.0916755
72G600,臺中農改場,2023-06-25,24.003028,120.534389,0.07659341
C0Z210,瑞穗,2023-06-25,23.5239,121.39021,0.00029622106
C0M820,達邦,2023-06-25,23.453994,120.749517,5.254323e-09
C0V860,南寮,2023-06-25,22.7616,120.2339,0.0007504173
C0G740,大城,2023-06-25,23.852487,120.320935,0.0013402624
C0R920,塭仔,2023-06-25,22.4169,120.5197,0.024955219
C0R470,高樹,2023-06-25,22.826389,120.600806,1.2737584e-05
C0R680,佳樂水,2023-06-25,21.993578,120.861633,1.2725384e-07
C1O870,大棟山,2023-06-25,23.31157,120.52226,1.8737905e-09
C0D360,梅花,2023-06-25,24.678347,121.208558,1.0340956e-08
C0Z190,富世,2023-06-25,24.14743,121.6297,0.009858641
C0AI10,屈尺,2023-06-25,24.92184,121.54475,0.008777939
B2U990,畜試東區分所,2023-06-25,24.669039,121.832561,0.7901911
C0R240,來義,2023-06-25,22.527306,120.625111,6.177738e-05
C1R610,西大武山,2023-06-25,22.617719,120.7322,1.1150098e-09
C0G900,線西,2023-06-25,24.143358,120.443536,0.023469033
C0M700,竹崎,2023-06-25,23.526178,120.555508,0.00012900148
C2E880,三義,2023-06-25,24.405478,120.749819,6.1308415e-06
C0C720,竹圍,2023-06-25,25.112692,121.239824,0.0012887279
C0F9P0,清水,2023-06-25,24.312297,120.562242,0.058678802
C0Z150,吉安光華,2023-06-25,23.930925,121.595153,0.7400539
C1D640,外坪(五指山),2023-06-25,24.644447,121.090961,1.3622491e-08
C0F9O0,潭子,2023-06-25,24.213106,120.703933,0.932027
72T250,花蓮農改場,2023-06-25,23.975222,121.563889,0.8911455
C0E780,銅鑼,2023-06-25,24.489681,120.790853,0.5848677
C1T950,太安,2023-06-25,23.666719,121.370128,1.5417621e-08
C0E830,苑裡,2023-06-25,24.439714,120.653053,0.28196764
467270,田中,2023-06-25,23.873803,120.581286,0.01979919
C0SA10,檳榔四格山,2023-06-25,22.810031,121.109308,2.9050205e-05
C1T830,布洛灣,2023-06-25,24.17184,121.57127,0.7335982
C0F970,大坑,2023-06-25,24.173142,120.722289,0.291006
C1U920,思源,2023-06-25,24.393125,121.347214,1.9256088e-09
C0A931,三和,2023-06-25,25.233153,121.595236,0.0006994738
C0I010,廬山,2023-06-25,24.033311,121.181808,1.7444138e-09
C0R860,鼻頭,2023-06-25,22.1043,120.8979,1.2111703e-05
C0UB20,壯圍,2023-06-25,24.7359,121.8163,0.03332202
C0R790,九棚,2023-06-25,22.14195,120.889281,3.227534e-08
C0W110,東莒,2023-06-25,25.9652,119.98069,0.77496797
C1U930,粉鳥林,2023-06-25,24.497088,121.842479,0.9955045
C1I211,蘆竹湳,2023-06-25,23.934019,120.811994,3.9539177e-06
C0S830,長濱,2023-06-25,23.286817,121.411975,4.3317215e-08
C1F9F1,伯公龍,2023-06-25,24.272392,120.849047,4.3179432e-05
C0E810,西湖,2023-06-25,24.562947,120.7485,0.9651657
C1I440,新高口,2023-06-25,23.478744,120.878939,3.694756e-09
C0O840,王爺宮,2023-06-25,23.222064,120.40085,2.578126e-05
C0T9G0,鳳林山,2023-06-25,23.735269,121.420131,1.4714739e-08
C0X080,佳里,2023-06-25,23.173039,120.145086,4.941138e-05
C0Z310,清水斷崖,2023-06-25,24.218294,121.689142,0.003656574
C0M680,太保,2023-06-25,23.455062,120.331455,7.9001575e-06
C1S820,金峰,2023-06-25,22.590969,120.933236,0.7217054
C0AD10,八里,2023-06-25,25.150211,121.403947,0.0012482456
C2K240,草嶺,2023-06-25,23.59555,120.693461,3.2592242e-09
C1SA70,都蘭,2023-06-25,22.87794,121.226881,0.7805321
C0K440,二崙,2023-06-25,23.772797,120.408944,6.3707404e-05
C1A760,坪林交控,2023-06-25,24.94284,121.713442,0.99729395
C0F9N0,大里,2023-06-25,24.092464,120.701378,0.24016297
C0SA90,達仁林場,2023-06-25,22.264347,120.823972,3.347772e-09
C1R290,石門山,2023-06-25,22.112611,120.756597,3.5852765e-09
42HA10,萬大發電廠,2023-06-25,23.978875,121.139639,2.434792e-09
C0R890,山海,2023-06-25,21.9878,120.7091,0.0034996085
C0T9A0,月眉山,2023-06-25,23.809928,121.539828,2.8138704e-08
C0AC70,信義,2023-06-25,25.037822,121.564597,0.010658297
C0K560,棋山,2023-06-25,23.68645,120.603417,0.007658421
C1Z240,中平林道,2023-06-25,23.42115,121.26763,1.2919527e-08
U2H480,溪頭,2023-06-25,23.670306,120.798194,3.4917254e-09
C0M880,好美里,2023-06-25,23.3364,120.138,1.7018046e-05
C0T9E0,大坑,2023-06-25,23.880628,121.581981,3.4487056e-07
C0K530,臺西,2023-06-25,23.701547,120.197559,0.000118735996
C1E900,國一N128K,2023-06-25,24.560997,120.844186,0.8816765
C0AJ50,水湳洞,2023-06-25,25.123695,121.862238,0.017147906
C0AI20,白沙灣,2023-06-25,25.283128,121.519058,0.023564707
C0A860,大坪,2023-06-25,25.165914,121.632969,3.520967e-07
C1U850,觀音海岸,2023-06-25,24.38319,121.77856,1.01055925e-07
C0U950,鶯子嶺,2023-06-25,24.89754,121.79244,3.9292685e-09
C0O900,善化,2023-06-25,23.112883,120.297219,8.716771e-05
C0K550,蔦松,2023-06-25,23.514319,120.229736,2.3732044e-05
E2P980,林試六龜中心,2023-06-25,22.991703,120.645722,1.7131241e-06
C0E590,通霄,2023-06-25,24.471892,120.704622,0.7560489
C1I310,西巒,2023-06-25,23.754486,120.883956,1.4680678e-08
C0A550,泰平,2023-06-25,24.971197,121.823711,1.8567009e-07
C0I360,水里,2023-06-25,23.812553,120.849792,0.006557176
C0R830,高士,2023-06-25,22.121825,120.836781,2.3928644e-09
C1I101,溪頭,2023-06-25,23.661789,120.807647,3.627857e-09
C0AJ20,野柳,2023-06-25,25.20703,121.690021,0.023788588
C0B060,暖暖,2023-06-25,25.0957,121.7403,0.011000874
C1H920,長豐,2023-06-25,24.102039,120.879897,1.4763683e-08
C0V360,內門,2023-06-25,22.975481,120.466769,6.168971e-07
C0R850,林邊,2023-06-25,22.4634,120.5339,0.0009772185
C0E930,龍鳳,2023-06-25,24.700034,120.859125,3.183135e-05
C0U910,冬山,2023-06-25,24.63373,121.7937,0.7901911
C1E721,泰安,2023-06-25,24.489017,120.968036,1.1072826e-09
82H320,茶改中部分場,2023-06-25,23.875611,120.913583,1.6066258e-08
C0M750,布袋,2023-06-25,23.380878,120.167789,1.800266e-06
C1S860,利嘉,2023-06-25,22.809417,121.050528,1.3779147e-06
72C440,桃園農改,2023-06-25,24.950944,121.030583,2.2749804e-05
E2S980,林試太麻里1,2023-06-25,22.598922,120.980044,0.81162614
C0X170,關廟,2023-06-25,22.963017,120.327797,0.00019763227
C0V720,林園,2023-06-25,22.507747,120.394511,3.2113443e-05
C1I510,線浸林道,2023-06-25,23.761508,120.832956,2.0689563e-09
C0D690,外湖,2023-06-25,24.917735,120.968711,0.00011488407
C0C750,新興坑尾,2023-06-25,25.0061,121.0971,7.2607772e-06
B2Q810,畜試南區分所,2023-06-25,21.945583,120.802167,1.5226603e-07
C0S790,金崙,2023-06-25,22.538122,120.966875,0.2911543
C0AH90,福山植物園,2023-06-25,24.760717,121.58135,5.695602e-07
C0I540,奇萊稜線,2023-06-25,24.109231,121.326456,6.8059696e-09
C0M850,表湖,2023-06-25,23.24186,120.64166,4.2257517e-07
C0S770,大溪山,2023-06-25,22.478475,120.943325,2.2977263e-06
C0AG80,中和,2023-06-25,24.991622,121.491792,0.003095115
C0T790,大禹嶺,2023-06-25,24.186117,121.316086,3.6174648e-09
C0T9B0,水源,2023-06-25,23.991861,121.537169,4.914104e-08
C0R840,牡丹池山,2023-06-25,22.168389,120.841225,3.6495382e-09
C1I131,桶頭,2023-06-25,23.641944,120.654117,1.1327622e-05
CAL110,布袋國中,2023-06-25,23.35893,120.18026,1.800266e-06
467571,新竹,2023-06-25,24.827853,121.014219,5.782845e-07
C0Z290,赤柯山,2023-06-25,23.36893,121.38293,2.665317e-09
C0X280,將軍,2023-06-25,23.214999,120.13577,1.2917077e-05
C0S690,太麻里,2023-06-25,22.60902,120.98533,1.9151625e-05
C0U880,北關,2023-06-25,24.9072,121.8734,0.83080465
C1H860,瑞岩,2023-06-25,24.123772,121.18345,2.7583702e-09
C0G810,埔心,2023-06-25,23.947633,120.525456,0.0141961295
C0U970,大福,2023-06-25,24.80064,121.81389,0.7430775
C1E670,南礦,2023-06-25,24.538278,121.002836,1.3635768e-09
C0M520,東後寮,2023-06-25,23.369908,120.248065,1.6285749e-06
C1E461,松安,2023-06-25,24.397972,120.986022,8.379693e-10
72G600,臺中農改,2023-06-25,24.003028,120.534389,0.07659341
C2N160,西拉雅風管處,2023-06-25,23.189481,120.335297,2.631098e-05
C0A640,石碇,2023-06-25,24.993969,121.662917,0.00021557437
E2S960,林試太麻里2,2023-06-25,22.598,120.99775,0.6310037
C0F9Y0,桃山,2023-06-25,24.432739,121.303808,8.301302e-09
C1I020,萬大,2023-06-25,23.979817,121.132261,2.8469511e-09
C0U940,羅東,2023-06-25,24.68184,121.74934,0.04616861
C0M650,朴子,2023-06-25,23.43463,120.23902,1.5841725e-06
C1I500,大尖山,2023-06-25,23.858572,120.994889,3.867923e-09
C0G820,田尾,2023-06-25,23.901669,120.509389,0.0141961295
E2K600,四湖植物園,2023-06-25,23.676986,120.163433,9.215018e-05
C0S730,綠島,2023-06-25,22.6672,121.47533,0.064074226
12Q970,東港工作站,2023-06-25,22.479997,120.466058,0.0009824015
C0E430,南庄,2023-06-25,24.601775,121.000214,0.85683066
C1TA00,太魯閣,2023-06-25,24.15773,121.6236,0.00079054595
466920,臺北,2023-06-25,25.037658,121.514853,0.010658297
C0R600,舊泰武,2023-06-25,22.588194,120.664944,6.7774963e-09
C1I260,北坑,2023-06-25,23.9246,121.006903,3.1036498e-07
466910,鞍部,2023-06-25,25.182586,121.529731,2.1332442e-09
C1I230,九份二山,2023-06-25,23.961944,120.845,4.8903356e-08
C2A660,瑞芳,2023-06-25,25.113169,121.801147,0.009594629
C0R270,琉球嶼,2023-06-25,22.332244,120.362236,0.011333618
C1T990,高寮,2023-06-25,23.394239,121.356808,4.442615e-07
C0G620,芬園,2023-06-25,24.015678,120.6213,0.09877815
C1Z140,荖溪,2023-06-25,23.890575,121.45964,6.6186776e-09
C1I201,中心崙,2023-06-25,23.728722,120.712097,1.6743842e-08
C1I400,凌霄,2023-06-25,24.018778,121.004456,1.8161883e-09
C1M640,十字,2023-06-25,23.492153,120.753683,3.7219308e-09
G2P820,農試鳳山分所,2023-06-25,22.646611,120.356083,0.0002696971
C0Z270,蕃薯寮,2023-06-25,23.73835,121.540108,6.6346392e-06
C0F9Q0,外埔,2023-06-25,24.347817,120.705686,0.16273816
C0K580,高鐵雲林,2023-06-25,23.737456,120.417944,6.6712355e-06
C2I090,鳳凰,2023-06-25,23.728081,120.787347,1.3958658e-08
C0U990,員山,2023-06-25,24.74435,121.72247,0.04062846
C0V770,大社,2023-06-25,22.730306,120.346639,0.0006188856
C0X120,麻豆,2023-06-25,23.183289,120.248611,1.5189778e-06
C0C670,龍潭,2023-06-25,24.870056,121.221389,0.00023646341
C0D680,香山濕地,2023-06-25,24.783581,120.914988,0.00017806371
C0S980,勝林山,2023-06-25,22.430439,120.8938,2.1243358e-09
C0V730,大寮,2023-06-25,22.605614,120.395717,5.5984296e-05
C0R570,麟洛,2023-06-25,22.65078,120.52719,1.9794934e-06
CAG100,王功漁港,2023-06-25,23.96824,120.32586,0.0027599928
C0X290,北門,2023-06-25,23.267772,120.125481,1.2917077e-05
C2F930,大甲,2023-06-25,24.347667,120.640403,0.011316784
C0D650,湖口,2023-06-25,24.904794,121.043628,4.2361885e-06
C0E420,竹南,2023-06-25,24.708978,120.888897,6.460536e-06
C0U780,五結,2023-06-25,24.68637,121.79794,0.03332202
C1I250,鯉潭,2023-06-25,23.961922,120.991131,5.6955105e-06
C0R130,阿禮,2023-06-25,22.742908,120.743678,5.843615e-09
C0X100,臺南市北區,2023-06-25,23.010394,120.194228,5.2011357e-05
C0S920,金峰嘉蘭,2023-06-25,22.594789,120.960825,0.8200811
C0V490,新興,2023-06-25,22.627422,120.298803,6.3546424e-05
C0F9K0,大安,2023-06-25,24.345061,120.588025,0.105642356
72N100,臺南農改,2023-06-25,23.0605,120.342194,3.628349e-05
467290,古坑,2023-06-25,23.633639,120.551889,0.010051145
C0V440,鳳山,2023-06-25,22.646653,120.356122,0.0002696971
C1T940,大觀,2023-06-25,23.714206,121.373133,3.724887e-08
72T250,花蓮農改,2023-06-25,23.975222,121.563889,0.8911455
C0E740,造橋,2023-06-25,24.637056,120.864778,0.064168684
C0R100,尾寮山,2023-06-25,22.833111,120.683889,9.3893275e-09
A2K630,臺大雲林校區,2023-06-25,23.730628,120.423903,6.6712355e-06
C0D580,寶山,2023-06-25,24.735006,121.025192,0.0015271875
E2P990,林試扇平站,2023-06-25,22.9677,120.6857,0.4765235
C0AI30,三重,2023-06-25,25.057328,121.500629,0.011048007
C0AH00,汐止,2023-06-25,25.066881,121.658778,0.010658297
C1Z040,立山,2023-06-25,23.443356,121.327375,6.6361434e-07
C0R740,獅子,2023-06-25,22.201569,120.70525,1.8064762e-06
C0W130,花嶼,2023-06-25,23.40007,119.32276,0.11625262
C0A950,鼻頭角,2023-06-25,25.129036,121.923372,0.9991958
C0K470,林內,2023-06-25,23.748675,120.609642,0.010583588
82C160,茶改場,2023-06-25,24.908472,121.185333,4.4318917e-08
C0Z320,清水林道,2023-06-25,23.27125,121.188272,9.958998e-09
C0R760,南仁湖,2023-06-25,22.084681,120.863353,3.5852765e-09
C0M670,大林,2023-06-25,23.600616,120.45841,1.4077758e-05
C0M800,茶山,2023-06-25,23.299075,120.664767,3.4335512e-06
C0A9C0,天母,2023-06-25,25.117494,121.537169,0.0075994986
72K220,南改斗南分場,2023-06-25,23.634556,120.477333,0.0018579722
72AI40,桃改樹林分場,2023-06-25,24.944503,121.386972,0.0022359055
C0S910,蘭嶼燈塔,2023-06-25,22.081197,121.503117,5.1516558e-08
C0B050,八斗子,2023-06-25,25.144754,121.79167,0.018061435
C0U900,內城,2023-06-25,24.71813,121.68766,0.08550949
C0X320,柳營,2023-06-25,23.253328,120.375253,0.0011812797
C0M790,新港,2023-06-25,23.553269,120.345728,7.875394e-06
C0F9T0,西屯,2023-06-25,24.179494,120.641275,0.03715121
C0SA30,都歷,2023-06-25,23.020333,121.323642,0.00077023375
C0C620,蘆竹,2023-06-25,25.084275,121.265767,0.0011500169
C0R730,大坪頂,2023-06-25,22.024633,120.69355,2.4450253e-07
C0AJ40,石門,2023-06-25,25.273672,121.601198,0.0042985696
C0E750,苗栗,2023-06-25,24.564569,120.824575,0.89803517
C0T870,鯉魚潭,2023-06-25,23.935639,121.508944,0.038562194
C1V170,排雲,2023-06-25,23.463619,120.954147,8.163815e-09
C2H950,中寮,2023-06-25,23.884447,120.766406,0.044384323
C0R350,貓鼻頭,2023-06-25,21.921774,120.7358,0.0021480252
C0V660,岡山,2023-06-25,22.797078,120.294958,0.00549734
C1H941,雙冬,2023-06-25,23.967378,120.802189,1.4859219e-07
C0AJ70,田寮,2023-06-25,25.2698,121.4886,0.02478416
C0AI00,五股,2023-06-25,25.07445,121.42728,9.534592e-06
C0Z280,德武,2023-06-25,23.47426,121.41071,7.2910336e-07
C0R700,枋山,2023-06-25,22.246844,120.661086,0.0906278
C0C460,復興,2023-06-25,24.820208,121.352281,5.4656663e-08
E2H360,蓮華池,2023-06-25,23.918333,120.885278,1.7801984e-08
C0M640,中埔,2023-06-25,23.42538,120.5229,0.00033754524
C0W140,金沙,2023-06-25,24.488292,118.408778,0.82787424
C2A540,四堵,2023-06-25,24.8926,121.745736,0.8882669
C0ACA0,新莊,2023-06-25,25.051478,121.446756,0.005860894
C0R220,潮州,2023-06-25,22.534361,120.54,0.00029456115
U2HA40,臺大內茅埔,2023-06-25,23.689722,120.851117,0.05780086
467490,臺中,2023-06-25,24.145736,120.684075,0.19951718
C0U960,翠峰湖,2023-06-25,24.510856,121.608044,6.0751115e-09
E2HA20,林試畢祿溪站,2023-06-25,24.226944,121.308522,3.6753007e-09
C0V890,前鎮,2023-06-25,22.5718,120.3117,6.8386864e-05
467620,蘭嶼,2023-06-25,22.036969,121.558339,3.269499e-08
C1F941,雪嶺,2023-06-25,24.280586,121.026642,7.841457e-09
C0AC80,文山,2023-06-25,25.00235,121.575728,0.0018164504
C0F9R0,龍井,2023-06-25,24.184536,120.528972,0.07128728
C0M760,民雄,2023-06-25,23.551754,120.428457,1.772242e-05
C0UA40,西德山,2023-06-25,24.560647,121.752608,3.5554628e-09
C1T920,中興,2023-06-25,23.769503,121.498653,0.3426102
C0D550,雪霸,2023-06-25,24.526972,121.11605,1.4409605e-09
C2F860,梨山,2023-06-25,24.247522,121.243669,3.7470893e-09
C0R320,車城,2023-06-25,22.0744,120.716247,0.0424423
C1S870,南美山,2023-06-25,23.15025,121.382333,0.00027785424
C0B020,基隆嶼,2023-06-25,25.19141,121.78391,0.03564661
C1U501,牛鬥,2023-06-25,24.637836,121.573656,0.0676986
C0M730,嘉義市東區,2023-06-25,23.457673,120.460531,0.012522276
C0S700,知本,2023-06-25,22.684866,121.005642,1.1623587e-06
C1N001,沙崙,2023-06-25,22.935472,120.309406,0.00031751272
C0V760,橋頭,2023-06-25,22.757806,120.30575,0.00079070235
C0G960,福寶,2023-06-25,24.0443,120.3814,0.05502506
C0X210,白河,2023-06-25,23.347466,120.414427,0.0057942527
C0S810,東河,2023-06-25,22.972672,121.303986,0.16649157
C0R670,楓港,2023-06-25,22.190131,120.692156,0.0032453525
C0FA50,霧峰,2023-06-25,24.0419,120.6995,0.1259612
C0UB10,蘇澳,2023-06-25,24.5969,121.8571,0.91414046
C0G950,防潮門,2023-06-25,24.1835,120.4871,0.071287304
C0M740,六腳,2023-06-25,23.492871,120.290625,1.1450506e-05
C1R250,力里,2023-06-25,22.428117,120.629228,0.020463292
C0K330,虎尾,2023-06-25,23.719183,120.442036,4.5069473e-06
C2FA00,烏石坑,2023-06-25,24.273503,120.947617,4.357973e-09
C0V620,永安,2023-06-25,22.82315,120.236856,0.00549734
C1I330,楓樹林,2023-06-25,23.986803,121.076117,2.1133393e-09
C0W200,湖西,2023-06-25,23.596314,119.67275,0.038442913
72Q010,高雄農改場,2023-06-25,22.709333,120.525889,2.9376297e-06
C0SA40,瑞和,2023-06-25,22.974361,121.156697,0.00024226817
C0C680,龜山,2023-06-25,25.02846,121.38656,7.0811757e-07
C2V260,月眉,2023-06-25,22.971003,120.539853,5.9937297e-06
C0V450,鳳森,2023-06-25,22.545064,120.392592,8.793835e-06
C0U720,南山,2023-06-25,24.43742,121.38167,8.153144e-08
A2N290,臺南蘭花園區,2023-06-25,23.340258,120.379661,1.619589e-05
C0R560,新園,2023-06-25,22.5434,120.461558,3.2113443e-05
C0U890,三星,2023-06-25,24.66812,121.65302,0.48703057
C1V300,御油山,2023-06-25,23.001983,120.715364,2.723511e-09
C0U600,礁溪,2023-06-25,24.817539,121.765608,0.75198126
C1T980,龍澗,2023-06-25,24.023289,121.411328,6.0834022e-09
C0D670,海天一線,2023-06-25,24.831986,120.914438,3.0994163e-06
C0SA00,歷坵,2023-06-25,22.520969,120.89185,0.004921677
C0M710,東石,2023-06-25,23.458927,120.15385,0.00033949106
C0M780,鹿草,2023-06-25,23.41134,120.30835,1.0174945e-06
C0U520,雙連埤,2023-06-25,24.753033,121.641303,7.2769666e-07
C0B010,七堵,2023-06-25,25.094819,121.71713,0.014004608
C0R480,長治,2023-06-25,22.693128,120.542622,1.8440445e-06
C1V830,國三S383K,2023-06-25,22.781967,120.426475,8.008941e-08
12Q980,恆春工作站,2023-06-25,22.079678,120.714425,0.0424423
C1O940,東山服務區,2023-06-25,23.286016,120.398472,0.006556679
C1U840,東澳嶺,2023-06-25,24.5378,121.8485,3.3339653e-08
C1D630,飛鳳山,2023-06-25,24.766464,121.119178,2.992951e-08
C0S940,石寧山,2023-06-25,23.223772,121.406639,0.0018215074
C0K410,北港,2023-06-25,23.573957,120.292802,0.00052017404
C2M620,瑞里,2023-06-25,23.545133,120.675197,3.1687424e-09
C2O950,安南,2023-06-25,23.076694,120.144861,0.00050331064
C0F0E0,南湖圈谷,2023-06-25,24.363714,121.444667,1.2128695e-08
467610,成功,2023-06-25,23.097486,121.373428,0.6623795
C0G890,伸港,2023-06-25,24.148933,120.484403,0.023469033
C2E540,龍溪,2023-06-25,24.606489,120.783933,0.14431912
C1V200,梅山,2023-06-25,23.268447,120.823556,3.734327e-08
C0T9H0,加路蘭山,2023-06-25,23.682947,121.5274,6.9411454e-09
C2O930,玉井,2023-06-25,23.126042,120.46055,0.00030220978
C1F911,新伯公,2023-06-25,24.221361,120.841069,0.06612166
C0R490,九如,2023-06-25,22.7405,120.490503,3.3868762e-06
C0X200,左鎮,2023-06-25,23.056758,120.408522,0.00027816222
C1F891,稍來,2023-06-25,24.265689,121.001142,5.92069e-09
72N240,七股研究中心,2023-06-25,23.081672,120.062894,0.0006543258
C0C700,中壢,2023-06-25,24.977661,121.256375,1.9407149e-05
C0M690,水上,2023-06-25,23.419734,120.388909,7.211705e-06
C0V690,鼓山,2023-06-25,22.623325,120.275575,5.0121307e-05
C0O860,大內,2023-06-25,23.11885,120.36083,5.0330375e-05
C0Z200,萬榮,2023-06-25,23.709219,121.420106,0.362901
C0T9D0,和中,2023-06-25,24.26676,121.74103,0.86275154
C1O921,楠西,2023-06-25,23.183511,120.484083,0.042442113
C0AJ30,淡水觀海,2023-06-25,25.184591,121.408616,0.021051427
C0V810,左營,2023-06-25,22.67491,120.28491,0.00036190613
C0UA70,桃源谷,2023-06-25,24.962606,121.888875,2.0269404e-08
C0X130,官田,2023-06-25,23.193217,120.315422,3.264179e-05
C1H000,翠峰,2023-06-25,24.109397,121.205211,2.204532e-09
C0UA90,石城,2023-06-25,24.980444,121.951214,0.9877506
C1E681,南勢山,2023-06-25,24.421669,120.923831,8.331949e-09
C0A9F0,內湖,2023-06-25,25.079422,121.57545,0.010658297
C0K291,宜梧,2023-06-25,23.536281,120.169329,2.3732044e-05
C1K540,口湖,2023-06-25,23.585344,120.180517,0.00042767875
C0R780,滿州,2023-06-25,22.024403,120.839892,3.9284235e-08
C0V870,文安,2023-06-25,22.8025,120.2164,0.006904933
C0U650,玉蘭,2023-06-25,24.675286,121.587061,1.6805521e-07
C0R640,東港,2023-06-25,22.46247,120.44074,0.0009824015
K2E360,苗栗農改,2023-06-25,24.495722,120.829111,0.8752922
C0AJ80,板橋,2023-06-25,25.0107,121.4489,0.0032068442
C0S660,下馬,2023-06-25,23.150427,121.070312,1.4085912e-08
C1H9B1,阿眉,2023-06-25,24.1263,120.994672,3.0052079e-09
C0UA20,多加屯,2023-06-25,24.368614,121.373189,3.1240814e-09
C0E730,頭份,2023-06-25,24.688247,120.912206,1.1454504e-05
72V140,高改旗南分場,2023-06-25,22.857861,120.516667,1.925641e-06
C0K480,莿桐,2023-06-25,23.761192,120.502372,0.003169308
C0U980,坪林石牌,2023-06-25,24.86478,121.77396,1.586575e-07
C0T900,西林,2023-06-25,23.8119,121.441458,0.0024835144
C1I150,青雲,2023-06-25,23.793361,120.949378,6.360899e-05
467350,澎湖,2023-06-25,23.565503,119.563094,0.22075394
C0G800,埔鹽,2023-06-25,24.000394,120.431683,0.06842662
C0H960,草屯,2023-06-25,23.973672,120.68085,0.101416305
C1V780,多納林道,2023-06-25,22.888028,120.737917,7.2699167e-09
C0E920,通霄漁港,2023-06-25,24.498589,120.673876,0.74648833
C0Z330,安通山,2023-06-25,23.290728,121.348528,6.738556e-09
C0AH10,永和,2023-06-25,25.01125,121.508111,0.0032068442
C2G640,鹿港,2023-06-25,24.0753,120.430481,0.05502506
C1E890,國三N149K,2023-06-25,24.463414,120.680019,0.10784682
C1R110,口社,2023-06-25,22.770111,120.645222,0.0012669277
C1M870,國三N285K,2023-06-25,23.550319,120.505833,0.001400655
467050,新屋,2023-06-25,25.006744,121.047486,3.3244363e-05
C1E480,鳳美,2023-06-25,24.554803,121.034747,2.2762845e-06
C0M530,奮起湖,2023-06-25,23.493903,120.699253,2.9099654e-09
C0C590,觀音,2023-06-25,25.027072,121.153317,0.00019589161
C0T9M0,靜浦,2023-06-25,23.455167,121.495028,0.00020212676
C0AI40,石牌,2023-06-25,25.115597,121.513139,0.0074516595
C1F871,上谷關,2023-06-25,24.203483,121.018644,3.0654448e-09
C0G880,二水,2023-06-25,23.810742,120.6173,0.027481973
C0R940,加祿堂,2023-06-25,22.3363,120.6217,0.07554463
C0W220,北竿,2023-06-25,26.220358,119.974881,0.2818041
C0O960,崎頂,2023-06-25,22.959547,120.369317,2.1442658e-05
C0S750,向陽,2023-06-25,23.248397,120.986133,3.1934855e-09
C0T9F0,水璉,2023-06-25,23.797131,121.542514,1.3884034e-05
C1M600,頭凍,2023-06-25,23.406364,120.603339,2.2830966e-08
467660,臺東,2023-06-25,22.752211,121.154586,0.8712307
C1D380,新埔,2023-06-25,24.84745,121.03834,1.4104805e-07
C0V750,路竹,2023-06-25,22.854997,120.259439,0.0023201022
C0N050,蚵寮,2023-06-25,23.301,120.1104,1.701803e-05
72M700,南改鹿草分場,2023-06-25,23.416869,120.283061,1.5838538e-06
C1SA50,利嘉林道,2023-06-25,22.82325,121.009389,6.841837e-10
467550,玉山,2023-06-25,23.487614,120.959522,1.2490881e-08
C0A940,金山,2023-06-25,25.223628,121.643967,0.021702684
C1V340,大津,2023-06-25,22.888322,120.645986,0.0013697109
C0W180,七美,2023-06-25,23.219333,119.444892,0.20228586
C1F9C1,白冷,2023-06-25,24.182844,120.929889,3.962725e-06
K2E710,苗改生物防治研究中心,2023-06-25,24.422861,120.871833,0.14032535
C0N040,蘆竹溝,2023-06-25,23.2344,120.0961,1.2917077e-05
C2W230,畜試所澎湖,2023-06-25,23.628342,119.513206,0.6583245
C0R880,後壁湖,2023-06-25,21.9457,120.7457,0.0050365604
C1I280,埔中,2023-06-25,23.820778,120.642594,1.1679384e-05
467790,墾丁雷達站,2023-06-25,21.948235,120.808028,5.700134e-08
C0W190,望安,2023-06-25,23.380564,119.494075,0.59912306
466881,新北,2023-06-25,24.9593,121.52,0.002623394
C0Z170,卓溪,2023-06-25,23.3443,121.3029,7.0666246e-08
C0F850,東勢,2023-06-25,24.246428,120.833047,0.078621425
466900,淡水,2023-06-25,25.164889,121.448906,0.0011589791
C0I370,魚池,2023-06-25,23.895703,120.94135,1.4077935e-08
C0C630,大溪,2023-06-25,24.882853,121.265547,0.00040835445
C0A520,山佳,2023-06-25,24.974944,121.402008,0.007248699
C0I110,竹山,2023-06-25,23.761225,120.688156,0.018335572
82H840,茶改南部分場,2023-06-25,23.762528,120.7405,5.5640103e-05
C0G660,溪湖,2023-06-25,23.94835,120.479122,0.018826043
C1T800,洛韶,2023-06-25,24.204558,121.453956,6.2520162e-09
C1T810,慈恩,2023-06-25,24.192044,121.388386,1.0240104e-09
C1E451,象鼻,2023-06-25,24.368617,120.940228,7.1868915e-09
C0AC60,三峽,2023-06-25,24.939025,121.369728,0.0021044314
C0I490,萬大林道,2023-06-25,23.928228,121.091411,1.830143e-09
C1I290,豐丘,2023-06-25,23.668178,120.887417,3.1455107e-09
C1I320,奧萬大,2023-06-25,23.952956,121.178556,2.072515e-09
C0U770,南澳,2023-06-25,24.44935,121.81022,0.99698466
C0A980,社子,2023-06-25,25.109508,121.469681,0.0014881543
C0V800,六龜,2023-06-25,22.997889,120.633583,2.9980758e-06
C1G9D0,國一S218K,2023-06-25,23.890641,120.493253,0.0006570178
C2F9A0,中竹林,2023-06-25,24.103556,120.751061,0.00322067
C0FA40,臺中電廠,2023-06-25,24.2146,120.4907,0.071287304
C0H9C0,合歡山,2023-06-25,24.143442,121.272547,9.345322e-09
C0X060,下營,2023-06-25,23.22695,120.256261,8.434507e-07
G2M350,農試溪口農場,2023-06-25,23.58565,120.408111,2.4633335e-05
C0U860,頭城,2023-06-25,24.85323,121.8308,0.72243774
C0R580,南州,2023-06-25,22.48591,120.50274,0.0009824015
C0D430,峨眉,2023-06-25,24.6905,121.017189,1.0683776e-05
C0G780,秀水,2023-06-25,24.03405,120.503869,0.07659341
72N100,臺南農改場,2023-06-25,23.0605,120.342194,3.628349e-05
C0S900,蘭嶼高中,2023-06-25,22.04909,121.51214,4.5540662e-07
467540,大武,2023-06-25,22.355675,120.903789,0.001453887
C1F9W0,德基,2023-06-25,24.254783,121.190261,5.0978444e-09
C1Z120,壽豐,2023-06-25,23.870853,121.508081,0.831553
C0W160,烏坵,2023-06-25,24.9944,119.44956,0.8375001
C1I240,外大坪,2023-06-25,23.958697,120.917931,2.0296252e-06
C1I550,國六W023K,2023-06-25,23.979067,120.867742,0.001523679
C0R870,興海,2023-06-25,21.9752,120.8439,1.5226603e-07
C0R140,瑪家,2023-06-25,22.682903,120.686639,2.1499544e-07
C0A530,坪林,2023-06-25,24.938183,121.70975,0.9971866
C0X260,後壁,2023-06-25,23.366358,120.362326,1.619589e-05
C0Z230,和平,2023-06-25,24.30717,121.77007,0.83794206
C0G770,福興,2023-06-25,24.041289,120.437669,0.06842662
C0H9A0,神木村,2023-06-25,23.532742,120.843667,3.6619079e-09
C0I460,南投,2023-06-25,23.911469,120.687331,0.24140063
C0I480,梅峰,2023-06-25,24.085272,121.173572,2.712236e-09
C1V570,吉東,2023-06-25,22.85422,120.5454,1.1485648e-06
C2A560,福山,2023-06-25,24.776203,121.502811,0.92749065
C0AH30,五分山,2023-06-25,25.07125,121.780794,2.593395e-09
C0FA10,松柏,2023-06-25,24.429115,120.617482,0.33815587
72S200,東改班鳩分場,2023-06-25,22.829528,121.077694,0.07146342
72HA00,中改埔里分場,2023-06-25,23.903208,120.963364,4.962489e-08
C0C650,平鎮,2023-06-25,24.897503,121.214636,0.00042310054
C0S930,延平,2023-06-25,22.902581,121.084058,0.0124724265
C0UA60,樟樹山,2023-06-25,24.41393,121.78325,0.00016974547
C1S670,摩天,2023-06-25,23.199503,121.027,2.4622335e-09
C0V630,茄萣,2023-06-25,22.906642,120.182608,0.002905584
466940,基隆,2023-06-25,25.133314,121.740475,0.018046297
C0X050,東河,2023-06-25,23.296598,120.385608,0.009940674
C0R770,保力,2023-06-25,22.071122,120.764111,2.2257747e-05
G2L020,農試嘉義分所,2023-06-25,23.485028,120.473806,0.0013101703
C0X240,關子嶺,2023-06-25,23.331169,120.508025,5.3132835e-06
C0I380,集集,2023-06-25,23.828206,120.801467,0.007547831
466990,花蓮,2023-06-25,23.975128,121.613275,0.8982395
C1V220,小關山,2023-06-25,23.154217,120.813603,3.4132734e-09
C1F9G1,慶福山,2023-06-25,24.180853,120.848378,2.447019e-08
C0Z250,瑞穗林道,2023-06-25,23.49284,121.30688,9.170005e-09
C0D590,新豐,2023-06-25,24.87068,120.97721,1.0540673e-07
C0A870,五指山,2023-06-25,25.132153,121.608692,2.855037e-09
C0UA50,西帽山,2023-06-25,24.555361,121.802628,1.367286e-08
C0X160,仁德,2023-06-25,22.968258,120.257689,0.00019645503
C1H971,六分寮,2023-06-25,23.92507,120.6378,3.4611605e-06
C0W120,西嶼,2023-06-25,23.5626,119.468436,0.47872174
C0G650,員林,2023-06-25,23.946503,120.585597,0.09170671
C0AD50,鶯歌,2023-06-25,24.951533,121.346294,0.0018513589
C0S990,山豬窟,2023-06-25,22.318619,120.857372,4.6548947e-09
72Q010,高雄農改,2023-06-25,22.709333,120.525889,2.9376297e-06
C0X190,安平,2023-06-25,22.993161,120.152181,5.2011357e-05
C0K400,斗六,2023-06-25,23.720583,120.541127,0.0043559503
12J990,口湖工作站,2023-06-25,23.589978,120.180394,0.00042767875
C0O830,北寮,2023-06-25,23.079561,120.495008,8.962857e-06
C1D410,白蘭,2023-06-25,24.579364,121.079947,1.1962764e-09
C0S970,加津林,2023-06-25,22.416211,120.926942,0.0010864038
C0D700,關西,2023-06-25,24.7977,121.1732,1.2278196e-06
C0M810,里佳,2023-06-25,23.389125,120.716647,3.1488723e-09
C0U750,龜山島,2023-06-25,24.841667,121.953133,0.9989574
C0R810,內獅,2023-06-25,22.305064,120.642986,0.07489719
C1M390,龍美,2023-06-25,23.406728,120.654417,6.1596683e-09
C1H840,國三N238K,2023-06-25,23.841008,120.707711,0.005667699
CAQ030,崎峰國小,2023-06-25,22.42565,120.49521,0.0009824015
C2E520,大湖,2023-06-25,24.414939,120.870872,0.031215541
467530,阿里山,2023-06-25,23.508208,120.813242,4.8534985e-09
C1E691,南湖,2023-06-25,24.40135,120.837533,2.2759357e-08
C0FA30,梧棲,2023-06-25,24.256003,120.523381,0.058678802
C1V231,高中,2023-06-25,23.134911,120.716711,7.0019425e-08
C0F9V0,新社,2023-06-25,24.200172,120.815806,0.00022065769
C0H890,埔里,2023-06-25,23.972169,120.952425,1.7713244e-05
C0R690,墾丁,2023-06-25,21.966756,120.810269,3.2245417e-09
C0F0D0,審馬陣,2023-06-25,24.381675,121.4203,5.456591e-09
C0R820,白鷺,2023-06-25,22.454275,120.666219,9.103195e-08
U2H480,臺大溪頭,2023-06-25,23.670306,120.798194,3.4917254e-09
C1V190,南天池,2023-06-25,23.27403,120.91176,3.3027603e-09
K2E360,苗栗農改場,2023-06-25,24.495722,120.829111,0.8752922
CAJ050,海口故事園區,2023-06-25,23.57543,120.14121,0.00042767875
C0O990,媽廟,2023-06-25,22.99175,120.293525,3.5756362e-05
C0D480,打鐵坑,2023-06-25,24.849664,121.150789,0.00023143804
C0Z220,和平林道,2023-06-25,24.343922,121.656317,6.8961026e-07
72C440,桃園農改場,2023-06-25,24.950944,121.030583,2.2749804e-05
C1E711,馬拉邦山,2023-06-25,24.367306,120.901656,6.6567347e-09
C0D560,竹東,2023-06-25,24.767147,121.057881,2.4642397e-06
C0F9U0,南屯,2023-06-25,24.137006,120.637969,0.044954065
C0M720,番路,2023-06-25,23.464657,120.554156,3.6485915e-05
C0F0A0,雪山圈谷,2023-06-25,24.388594,121.236339,9.669452e-09
C1A9N0,四十份,2023-06-25,24.934158,121.593283,6.902387e-08
C0U760,東澳,2023-06-25,24.52196,121.83318,0.9974444
C0X230,鹽水,2023-06-25,23.272621,120.247641,1.384215e-05
C0V370,古亭坑,2023-06-25,22.893178,120.401947,6.6507283e-07
C1I340,新興橋,2023-06-25,23.563333,120.868728,7.811095e-09
C0SA80,土坂,2023-06-25,22.453108,120.887572,0.005378302
C0R160,鹽埔,2023-06-25,22.739558,120.530778,2.9376297e-06
C0AC40,大屯山,2023-06-25,25.175675,121.522408,1.4911602e-09
466850,五分山雷達站,2023-06-25,25.071182,121.781205,2.4954807e-09
C1AI50,國三N016K,2023-06-25,25.034164,121.619664,0.008474358
C1V600,藤枝,2023-06-25,23.071961,120.757042,3.3073118e-09
C1E601,南勢,2023-06-25,24.572486,120.734842,0.9543737
C0Z180,新城,2023-06-25,24.03946,121.60454,0.89516634
C0O980,新市,2023-06-25,23.061614,120.298197,8.716771e-05
C0K420,西螺,2023-06-25,23.800407,120.467394,4.4413904e-05
C0Z050,佳心,2023-06-25,23.34567,121.21316,3.478809e-09
C0AD30,蘆洲,2023-06-25,25.086594,121.472331,0.011048007
C0V610,梓官,2023-06-25,22.760558,120.267211,0.00079070235
K2F750,種苗改良場,2023-06-25,24.225972,120.800917,0.005331507
C0UA80,大溪漁港,2023-06-25,24.941801,121.902955,0.86284137
C1AI60,國一39K邊坡,2023-06-25,25.064361,121.383836,2.5285135e-06
C0W150,金寧,2023-06-25,24.457703,118.328989,0.5407112
V2C250,八德合作社,2023-06-25,24.93775,121.266389,0.0009572019
C0AH40,平等,2023-06-25,25.129142,121.577086,9.73814e-08
C0R540,佳冬,2023-06-25,22.419456,120.552375,0.03379702
466950,彭佳嶼,2023-06-25,25.627975,122.079744,9.558209e-06
C0A890,雙溪,2023-06-25,25.036003,121.864242,0.99834764
C0C480,桃園,2023-06-25,24.992425,121.323172,6.896559e-05
C0AH50,林口,2023-06-25,25.072181,121.38084,3.1439384e-07
A2K360,水試臺西試驗場,2023-06-25,23.717231,120.190522,0.0001496769
B2N890,畜試所,2023-06-25,23.058972,120.336406,3.628349e-05
C0F9S0,烏日,2023-06-25,24.107058,120.624103,0.21077125
C0C490,八德,2023-06-25,24.928708,121.283289,0.0009217573
C0R190,赤山,2023-06-25,22.592333,120.614306,8.792531e-05
C0T820,天祥,2023-06-25,24.179597,121.495639,0.008865689
C1F9E1,龍安,2023-06-25,24.1605,120.831961,1.8049412e-05
C0V820,小林,2023-06-25,23.148408,120.63325,1.9368075e-08
C2G870,芳苑,2023-06-25,23.922303,120.320025,0.0026086858
C0E850,大河,2023-06-25,24.618069,120.948578,0.2712358
C1U670,寒溪,2023-06-25,24.634,121.71691,0.99101555
C0N020,城西,2023-06-25,23.0568,120.0956,5.2011357e-05
C1Z110,三棧,2023-06-25,24.11557,121.60501,1.7935997e-06
C0R280,檳榔,2023-06-25,22.076078,120.836777,1.0189259e-08
C0F9L0,后里,2023-06-25,24.310436,120.729725,0.4279176
C0D540,橫山,2023-06-25,24.71116,121.11693,6.051206e-05
C1D420,太閣南,2023-06-25,24.632808,121.160575,4.446826e-09
C1E770,公館,2023-06-25,24.526914,120.830806,0.9138464
CAN130,水試所海水繁養殖中心,2023-06-25,23.120802,120.07968,0.00065212004
C1I430,翠華,2023-06-25,24.191961,121.224339,2.058482e-09
C1M400,菜瓜坪,2023-06-25,23.251928,120.576103,3.4373845e-06
C0G730,二林,2023-06-25,23.903325,120.376081,0.028746374
72M360,南改義竹分場,2023-06-25,23.360694,120.279361,1.6285749e-06
V2K620,麥寮合作社,2023-06-25,23.753836,120.294783,3.9200813e-06
C0Z070,舞鶴,2023-06-25,23.46811,121.37407,1.9626141e-07
C0B040,大武崙,2023-06-25,25.166676,121.706993,0.015898624
C1Z030,紅葉,2023-06-25,23.493119,121.338806,3.3026633e-06
C1I050,丹大,2023-06-25,23.753747,121.141147,4.3696256e-09
C0I080,信義,2023-06-25,23.689694,120.851036,0.05780086
C2A880,福隆,2023-06-25,25.017842,121.942083,0.983764
C0Z160,鳳林,2023-06-25,23.746114,121.453411,0.61635554
C0V210,復興,2023-06-25,23.222403,120.806089,1.2954229e-06
C0H990,昆陽,2023-06-25,24.121322,121.273642,4.4363127e-09
C0S710,鹿野,2023-06-25,22.917711,121.122994,3.9185718e-07
C0I530,小奇萊,2023-06-25,24.131764,121.295717,4.816821e-09
C0Z080,富源,2023-06-25,23.587642,121.378225,0.00056854234
467441,高雄,2023-06-25,22.7304,120.3125,0.0006188856
C1I140,卡奈托灣,2023-06-25,23.754364,121.087872,3.393533e-09
C0I520,玉山風口,2023-06-25,23.470489,120.955994,1.533281e-08
C1G691,下水埔,2023-06-25,23.816114,120.5676,0.0023123731
C0X110,臺南市南區,2023-06-25,22.961189,120.188378,0.00019701777
C0V680,仁武,2023-06-25,22.701083,120.347722,0.00036190613
C2G840,北斗,2023-06-25,23.877586,120.514222,0.00041676377
C0R900,竹坑,2023-06-25,22.1385,120.7022,0.034627005
C0K250,崙背,2023-06-25,23.75555,120.318925,3.919734e-06
C0G860,社頭,2023-06-25,23.897647,120.5862,0.020916978
C0X150,安定,2023-06-25,23.102614,120.227839,1.3508149e-05
C0R590,里港,2023-06-25,22.77919,120.49459,3.7807865e-07
C0E610,馬都安,2023-06-25,24.451272,120.930192,1.6580524e-08
C0E550,明德,2023-06-25,24.583486,120.885411,0.8515233
C0R150,三地門,2023-06-25,22.709889,120.639944,0.001441908
C0G910,花壇,2023-06-25,24.032076,120.549461,0.061178856
C1D400,鳥嘴山,2023-06-25,24.71909,121.28387,5.743983e-09
C0K500,元長,2023-06-25,23.64981,120.315024,0.0001628339
C0F0B0,石岡,2023-06-25,24.276061,120.777644,0.046976723
C2V250,甲仙,2023-06-25,23.080106,120.591758,7.46336e-08
C0SA20,金崙山,2023-06-25,22.567419,120.959667,1.9148054e-08
C0V350,溪埔,2023-06-25,22.738578,120.446797,1.0928602e-06
C0M660,溪口,2023-06-25,23.604131,120.403569,2.452696e-05
C1S880,壽卡,2023-06-25,22.238911,120.858903,3.725155e-09
72D680,桃改新埔分場,2023-06-25,24.834444,121.066111,1.5171348e-07
