站號,站名,日期,lat,lon,BLBTSLS
C0R710,龍磐,2023-04-27,21.931672,120.838942,0.8932429
C1F9D1,白毛台,2023-04-27,24.158325,120.886933,1.4591062e-09
C0G940,竹塘,2023-04-27,23.848253,120.386764,1.5091931e-08
467590,恆春,2023-04-27,22.003897,120.746339,0.2774271
C1O850,環湖,2023-04-27,23.148617,120.418633,2.7237002e-07
C0U710,太平山,2023-04-27,24.505486,121.525656,4.4576276e-09
C0E820,獅潭,2023-04-27,24.539133,120.920042,3.186622e-09
C0V880,興達,2023-04-27,22.8778,120.2127,2.1674829e-09
C0S890,關山,2023-04-27,23.0395,121.175017,1.2429179e-07
K2F750,種苗繁殖,2023-04-27,24.225972,120.800917,1.6194142e-09
C1Z130,銅門,2023-04-27,23.965694,121.492842,8.240346e-09
C0AD40,土城,2023-04-27,24.973208,121.445169,1.4117293e-07
CAN140,六官養殖協會,2023-04-27,23.22881,120.29962,2.0146297e-08
C0X180,山上,2023-04-27,23.0757,120.363253,1.942674e-07
C0F9Z0,雪山東峰,2023-04-27,24.388792,121.268675,1.9102346e-08
C1M480,獨立山,2023-04-27,23.537022,120.607797,2.8164677e-09
C0X220,學甲,2023-04-27,23.230367,120.182187,2.4920561e-09
C0R170,屏東,2023-04-27,22.660269,120.494072,7.38187e-08
467650,日月潭,2023-04-27,23.881325,120.90805,1.923179e-09
C0K600,箔子寮,2023-04-27,23.6197,120.14,1.306307e-08
C0G830,埤頭,2023-04-27,23.866003,120.452806,2.5575018e-09
C0S950,七塊厝,2023-04-27,22.954453,121.229922,3.1127922e-09
467110,金門,2023-04-27,24.407306,118.289281,0.31205347
C0AH80,深坑,2023-04-27,25.002703,121.628328,9.821671e-08
467990,馬祖,2023-04-27,26.169269,119.923419,4.1732235e-07
C0A970,三貂角,2023-04-27,25.007606,122.002058,1.120423e-08
C0K430,褒忠,2023-04-27,23.690938,120.303634,6.298408e-09
467480,嘉義,2023-04-27,23.495925,120.432906,2.3841004e-08
C2E540,後龍,2023-04-27,24.606489,120.783933,3.982961e-06
C0V400,阿公店,2023-04-27,22.804194,120.355528,4.222579e-09
C0R440,大漢山,2023-04-27,22.405264,120.753181,6.043514e-09
C0K280,四湖,2023-04-27,23.630414,120.227125,6.5826713e-09
C1F9B1,桐林,2023-04-27,24.066172,120.735194,2.4952334e-09
C0K390,土庫,2023-04-27,23.679029,120.395574,3.3892444e-09
C1I450,望鄉山,2023-04-27,23.594153,120.944286,1.1585452e-08
C0E910,海埔,2023-04-27,24.648767,120.772435,5.5088094e-06
B2E890,畜試北區分所,2023-04-27,24.527806,120.770972,1.1898185e-09
C0R750,四林格山,2023-04-27,22.076989,120.802439,3.5733176e-08
C0F0C0,中坑,2023-04-27,24.248517,120.903319,2.2271174e-09
C1I121,大鞍,2023-04-27,23.678381,120.760017,4.4776103e-09
72U480,花改蘭陽分場,2023-04-27,24.686306,121.716583,3.389419e-09
C0A770,科教館,2023-04-27,25.096356,121.516507,1.12777215e-07
C0AJ60,六塊厝,2023-04-27,25.24,121.4481,4.0681314e-07
C0R620,墾雷,2023-04-27,21.900836,120.855269,0.014929573
467420,永康,2023-04-27,23.038386,120.2367,2.500809e-08
467300,東吉島,2023-04-27,23.25695,119.667467,2.4289884e-05
C0I410,名間,2023-04-27,23.837053,120.701447,1.9750557e-09
A2C560,農工中心,2023-04-27,24.985917,121.239833,1.0390786e-05
C0V740,旗山,2023-04-27,22.888614,120.483597,1.8044494e-08
C0Z061,玉里,2023-04-27,23.3215,121.339656,5.120423e-09
C0S840,南田,2023-04-27,22.279725,120.889208,0.30233216
C1I470,杉林溪,2023-04-27,23.639517,120.786444,5.309034e-09
C1X040,東原,2023-04-27,23.291597,120.463822,3.9716807e-07
C0R660,枋寮,2023-04-27,22.367722,120.590647,2.0103613e-08
C1R120,上德文,2023-04-27,22.763272,120.704442,1.8304468e-09
C0K450,大埤,2023-04-27,23.646074,120.431537,5.9920358e-09
C0UA00,土場,2023-04-27,24.576533,121.495333,1.6376356e-08
467080,宜蘭,2023-04-27,24.763975,121.756528,1.7131596e-08
C0N030,四草,2023-04-27,23.0235,120.1116,2.333487e-09
C0V650,彌陀,2023-04-27,22.783806,120.246361,3.9984904e-09
C0D660,新竹市東區,2023-04-27,24.798681,120.986942,3.7004636e-08
82S580,茶改東部分場,2023-04-27,22.907694,121.130139,4.0814328e-08
C0C710,大溪永福,2023-04-27,24.892936,121.324975,1.7042062e-07
C0FA20,溫寮,2023-04-27,24.372177,120.583125,7.042187e-09
C0V640,湖內,2023-04-27,22.887139,120.2445,2.0778506e-09
C0R910,下寮,2023-04-27,22.3929,120.5548,2.0103613e-08
C0Z020,明里,2023-04-27,23.208717,121.262342,9.9511555e-09
C0M770,嘉義梅山,2023-04-27,23.585398,120.555587,3.294432e-08
G2F820,農業試驗所,2023-04-27,24.031261,120.688133,1.9845754e-09
C0C660,楊梅,2023-04-27,24.912375,121.143047,5.6730994e-07
C1E511,新開,2023-04-27,24.347703,120.827019,1.4307507e-09
G2F820,農試所(霧峰),2023-04-27,24.031261,120.688133,1.9845754e-09
C1I070,和社,2023-04-27,23.591131,120.888861,5.0143796e-09
C2F000,大肚,2023-04-27,24.15295,120.572117,1.4741025e-09
C1S850,豐南,2023-04-27,23.122139,121.262389,4.305665e-09
C2A920,富貴角,2023-04-27,25.263783,121.565258,5.611055e-08
CAH030,茶改場竹圍站,2023-04-27,23.860083,120.637528,1.0335862e-09
C0T960,光復,2023-04-27,23.660694,121.424964,2.4672262e-09
C0F9M0,豐原,2023-04-27,24.254322,120.720692,1.4887019e-09
C0R720,旭海,2023-04-27,22.205403,120.887614,0.0018891135
C0V710,苓雅,2023-04-27,22.622742,120.330669,6.163664e-09
C0C740,觀音工業區,2023-04-27,25.064764,121.114856,0.012290532
CAC040,拉拉山,2023-04-27,24.699317,121.427133,8.389053e-09
C0V790,萬山,2023-04-27,22.905944,120.688056,2.2680704e-08
U2HA30,臺大和社,2023-04-27,23.590856,120.888864,5.0143796e-09
C0AJ90,澳底,2023-04-27,25.0552,121.9253,2.851697e-08
C0Z100,東華,2023-04-27,23.89525,121.549833,9.609057e-09
C0G970,三豐,2023-04-27,23.882,120.2895,6.9732717e-09
V2K610,大庄合作社,2023-04-27,23.8068,120.367939,2.8508635e-09
C0V900,汕尾,2023-04-27,22.4782,120.4151,1.960124e-08
C1R630,龍泉,2023-04-27,22.66701,120.59091,0.2147987
C1AC50,關渡,2023-04-27,25.133486,121.469331,1.44112615e-08
C0F9I0,神岡,2023-04-27,24.272481,120.658314,1.0550862e-09
C0K460,斗南,2023-04-27,23.678734,120.478359,5.676154e-09
467410,臺南,2023-04-27,22.993239,120.204772,2.1191922e-09
C2O810,曾文,2023-04-27,23.219681,120.497328,5.764758e-06
467280,後龍,2023-04-27,24.648563,120.831834,2.5654697e-06
C1F9J1,清水林,2023-04-27,24.071242,120.820419,1.3077398e-09
C2A650,火燒寮,2023-04-27,25.002719,121.742892,6.214471e-09
466930,竹子湖,2023-04-27,25.162078,121.544547,2.7527467e-09
C1I220,樟湖,2023-04-27,23.905333,120.846983,1.7946628e-09
C0I390,仁愛,2023-04-27,24.022122,121.132206,4.1132147e-09
C0Z300,東里,2023-04-27,23.26853,121.30547,1.4000895e-08
C0V310,美濃,2023-04-27,22.898742,120.519153,2.0526217e-08
C1V590,新發,2023-04-27,23.057019,120.646064,2.7813833e-09
C0K510,水林,2023-04-27,23.572924,120.24597,1.9647827e-07
72S590,東改賓朗果園,2023-04-27,22.813889,121.071278,6.0537935e-09
82A750,茶改北部分場,2023-04-27,24.955778,121.631222,6.7289747e-09
C1A750,石碇服務區,2023-04-27,25.00872,121.646242,5.842325e-08
C0X300,鹿寮,2023-04-27,23.386047,120.477331,1.8244047e-05
G2AI50,關渡,2023-04-27,25.11575,121.492,4.826895e-07
C0K590,雲林東勢,2023-04-27,23.674192,120.255721,3.5951324e-08
C0A570,桶後,2023-04-27,24.848222,121.597992,5.020083e-09
C1S800,華源,2023-04-27,22.657883,121.02325,0.11567311
C0G720,溪州,2023-04-27,23.851589,120.499093,2.4363715e-09
C1V160,達卡努瓦,2023-04-27,23.279811,120.705319,2.399075e-09
C2M410,馬頭山,2023-04-27,23.324361,120.582017,7.254143e-08
C0V850,蚵仔寮,2023-04-27,22.7256,120.2527,3.2591434e-09
C0S740,池上,2023-04-27,23.119628,121.209469,1.926266e-07
C1V390,尖山,2023-04-27,22.813153,120.367789,3.507612e-09
C0AH70,松山,2023-04-27,25.04871,121.55042,9.0685525e-08
C0N010,鯤鯓國小,2023-04-27,23.1879,120.0889,2.6751366e-09
C0R550,新埤,2023-04-27,22.467947,120.582894,1.2061793e-08
C0SA60,知本（水試所）,2023-04-27,22.702394,121.082761,0.42353764
C0T9I0,豐濱,2023-04-27,23.583897,121.514806,3.6456422e-09
C0UB00,淡江大學蘭陽校園,2023-04-27,24.823239,121.730383,4.430757e-09
C0T9N0,富里,2023-04-27,23.171639,121.249378,1.7034887e-08
U2HA50,臺大竹山,2023-04-27,23.756972,120.681556,1.39548515e-08
C0V840,鳳鼻頭,2023-04-27,22.5083,120.3591,4.189567e-09
C0X140,西港,2023-04-27,23.125608,120.203108,3.675343e-09
72D080,桃改五峰分場,2023-04-27,24.612194,121.157167,2.041419e-09
C0V530,阿蓮,2023-04-27,22.883208,120.327508,8.530382e-09
C1O880,關山,2023-04-27,23.173397,120.594092,4.8625513e-09
C0E791,卓蘭,2023-04-27,24.3126,120.8244,1.3182454e-09
C1I030,武界,2023-04-27,23.913225,121.052483,1.4056919e-09
C0R520,崁頂,2023-04-27,22.514781,120.506914,2.1046412e-06
C0R341,牡丹,2023-04-27,22.130036,120.792639,3.3211718e-06
C0R930,萬丹,2023-04-27,22.5885,120.4851,1.3127328e-07
C0S760,紅石,2023-04-27,23.069131,121.126219,6.117483e-09
C1M610,石磐龍,2023-04-27,23.496606,120.663506,1.7661382e-09
C0UA10,鴛鴦湖,2023-04-27,24.590269,121.412228,3.9354564e-09
V2C260,八德蔬果,2023-04-27,24.978508,121.281819,6.8278425e-08
C0R800,丹路,2023-04-27,22.204481,120.750989,0.35845545
C0G920,永靖,2023-04-27,23.924703,120.547533,5.5024407e-09
C1A630,下盆,2023-04-27,24.771003,121.538622,2.8916296e-09
B2N890,畜產試驗所,2023-04-27,23.058972,120.336406,8.425087e-08
C0UA30,白嶺,2023-04-27,24.527819,121.519031,4.7968984e-09
C1V580,溪南(特生中心),2023-04-27,23.084972,120.788475,3.4949568e-09
C1T970,大農,2023-04-27,23.615233,121.413331,3.0611562e-09
E2S960,林試太麻里2,2023-04-27,22.598014,120.989761,0.31204373
C0R650,竹田,2023-04-27,22.58486,120.54344,0.024160825
C1H900,清流,2023-04-27,24.080775,120.962997,1.3193848e-09
C1C510,水尾,2023-04-27,24.940081,121.087161,0.00013771385
C0F9X0,大雅(中科園區),2023-04-27,24.21528,120.62445,1.003247e-09
C0O970,虎頭埤,2023-04-27,23.021375,120.347878,3.6288213e-07
C0C730,中大臨海站,2023-04-27,24.966126,121.008581,0.0023270815
C0X250,新營,2023-04-27,23.310689,120.316681,1.6578404e-08
C0V700,三民,2023-04-27,22.645017,120.311233,2.6323266e-09
C0U870,大礁溪,2023-04-27,24.791042,121.675047,2.883968e-09
C0E870,高鐵苗栗,2023-04-27,24.60725,120.826094,2.7668982e-06
A2K570,古坑花卉中心,2023-04-27,23.63353,120.55239,1.1679184e-07
C0M860,新美,2023-04-27,23.338017,120.683169,2.1317637e-09
C1E701,八卦,2023-04-27,24.491756,120.927619,1.7454456e-09
C0I420,國姓,2023-04-27,24.037803,120.855072,1.8720971e-09
C0S960,香蘭,2023-04-27,22.587569,120.993375,0.31204373
C0R260,春日,2023-04-27,22.370361,120.628306,1.210473e-08
72G600,臺中農改場,2023-04-27,24.003028,120.534389,4.66808e-09
C0Z210,瑞穗,2023-04-27,23.5239,121.39021,4.4801474e-09
C0M820,達邦,2023-04-27,23.453994,120.749517,1.5546301e-09
C0V860,南寮,2023-04-27,22.7616,120.2339,3.2591434e-09
C0G740,大城,2023-04-27,23.852487,120.320935,6.60599e-09
C0R920,塭仔,2023-04-27,22.4169,120.5197,2.2875732e-08
C0R470,高樹,2023-04-27,22.826389,120.600806,1.9983918e-07
C0R680,佳樂水,2023-04-27,21.993578,120.861633,0.073113
C1O870,大棟山,2023-04-27,23.31157,120.52226,1.8989217e-09
C0D360,梅花,2023-04-27,24.678347,121.208558,2.2140425e-09
C0Z190,富世,2023-04-27,24.14743,121.6297,3.430807e-08
C0AI10,屈尺,2023-04-27,24.92184,121.54475,5.229785e-07
B2U990,畜試東區分所,2023-04-27,24.669039,121.832561,2.3675918e-08
C0R240,來義,2023-04-27,22.527306,120.625111,2.449478e-07
C1R610,西大武山,2023-04-27,22.617719,120.7322,9.380915e-09
C0G900,線西,2023-04-27,24.143358,120.443536,3.15148e-09
C0M700,竹崎,2023-04-27,23.526178,120.555508,4.2710644e-07
C2E880,三義,2023-04-27,24.405478,120.749819,1.0982445e-09
C0C720,竹圍,2023-04-27,25.112692,121.239824,4.8214565e-07
C0F9P0,清水,2023-04-27,24.312297,120.562242,3.7500922e-09
C0Z150,吉安光華,2023-04-27,23.930925,121.595153,4.0375316e-08
C1D640,外坪(五指山),2023-04-27,24.644447,121.090961,1.6452959e-09
C0F9O0,潭子,2023-04-27,24.213106,120.703933,1.3406454e-09
72T250,花蓮農改場,2023-04-27,23.975222,121.563889,1.1886943e-07
C0E780,銅鑼,2023-04-27,24.489681,120.790853,1.1093416e-09
C1T950,太安,2023-04-27,23.666719,121.370128,3.2349174e-08
C0E830,苑裡,2023-04-27,24.439714,120.653053,4.811532e-09
467270,田中,2023-04-27,23.873803,120.581286,3.774246e-09
C0SA10,檳榔四格山,2023-04-27,22.810031,121.109308,3.6756933e-09
C1T830,布洛灣,2023-04-27,24.17184,121.57127,0.0026033402
C0F970,大坑,2023-04-27,24.173142,120.722289,1.754732e-09
C1U920,思源,2023-04-27,24.393125,121.347214,4.9875e-09
C0A931,三和,2023-04-27,25.233153,121.595236,8.752417e-09
C0I010,廬山,2023-04-27,24.033311,121.181808,5.4423825e-09
C0R860,鼻頭,2023-04-27,22.1043,120.8979,0.05510855
C0UB20,壯圍,2023-04-27,24.7359,121.8163,3.878073e-09
C0R790,九棚,2023-04-27,22.14195,120.889281,3.0127305e-05
C0W110,東莒,2023-04-27,25.9652,119.98069,4.574097e-07
C1U930,粉鳥林,2023-04-27,24.497088,121.842479,8.162962e-08
C1I211,蘆竹湳,2023-04-27,23.934019,120.811994,5.4750204e-10
C0S830,長濱,2023-04-27,23.286817,121.411975,3.5560326e-09
C1F9F1,伯公龍,2023-04-27,24.272392,120.849047,1.2972684e-09
C0E810,西湖,2023-04-27,24.562947,120.7485,7.252749e-06
C1I440,新高口,2023-04-27,23.478744,120.878939,8.231675e-09
C0O840,王爺宮,2023-04-27,23.222064,120.40085,9.6954025e-08
C0T9G0,鳳林山,2023-04-27,23.735269,121.420131,3.52509e-09
C0X080,佳里,2023-04-27,23.173039,120.145086,2.6751366e-09
C0Z310,清水斷崖,2023-04-27,24.218294,121.689142,2.860642e-08
C0M680,太保,2023-04-27,23.455062,120.331455,8.684342e-08
C1S820,金峰,2023-04-27,22.590969,120.933236,0.060775008
C0AD10,八里,2023-04-27,25.150211,121.403947,4.8214565e-07
C2K240,草嶺,2023-04-27,23.59555,120.693461,2.172553e-09
C1SA70,都蘭,2023-04-27,22.87794,121.226881,1.0705853e-06
C0K440,二崙,2023-04-27,23.772797,120.408944,2.1362083e-09
C1A760,坪林交控,2023-04-27,24.94284,121.713442,8.984343e-09
C0F9N0,大里,2023-04-27,24.092464,120.701378,2.9623772e-09
C0SA90,達仁林場,2023-04-27,22.264347,120.823972,1.016073e-08
C1R290,石門山,2023-04-27,22.112611,120.756597,3.7526883e-07
42HA10,萬大發電廠,2023-04-27,23.978875,121.139639,2.999882e-09
C0R890,山海,2023-04-27,21.9878,120.7091,0.0010557404
C0T9A0,月眉山,2023-04-27,23.809928,121.539828,2.0586235e-09
C0AC70,信義,2023-04-27,25.037822,121.564597,9.068535e-08
C0K560,棋山,2023-04-27,23.68645,120.603417,8.535203e-08
C1Z240,中平林道,2023-04-27,23.42115,121.26763,2.3213646e-08
U2H480,溪頭,2023-04-27,23.670306,120.798194,2.0156896e-09
C0M880,好美里,2023-04-27,23.3364,120.138,4.4480983e-09
C0T9E0,大坑,2023-04-27,23.880628,121.581981,2.2021869e-09
C0K530,臺西,2023-04-27,23.701547,120.197559,5.236874e-09
C1E900,國一N128K,2023-04-27,24.560997,120.844186,1.796681e-08
C0AJ50,水湳洞,2023-04-27,25.123695,121.862238,5.1194004e-08
C0AI20,白沙灣,2023-04-27,25.283128,121.519058,3.2185775e-07
C0A860,大坪,2023-04-27,25.165914,121.632969,4.440266e-09
C1U850,觀音海岸,2023-04-27,24.38319,121.77856,7.518191e-09
C0U950,鶯子嶺,2023-04-27,24.89754,121.79244,5.8330025e-09
C0O900,善化,2023-04-27,23.112883,120.297219,1.3817517e-07
C0K550,蔦松,2023-04-27,23.514319,120.229736,3.767638e-08
E2P980,林試六龜中心,2023-04-27,22.991703,120.645722,2.0525121e-08
C0E590,通霄,2023-04-27,24.471892,120.704622,2.963085e-08
C1I310,西巒,2023-04-27,23.754486,120.883956,1.88813e-09
C0A550,泰平,2023-04-27,24.971197,121.823711,4.7675277e-09
C0I360,水里,2023-04-27,23.812553,120.849792,1.9672919e-09
C0R830,高士,2023-04-27,22.121825,120.836781,1.4817064e-07
C1I101,溪頭,2023-04-27,23.661789,120.807647,1.03229825e-08
C0AJ20,野柳,2023-04-27,25.20703,121.690021,3.8936243e-08
C0B060,暖暖,2023-04-27,25.0957,121.7403,1.0003511e-07
C1H920,長豐,2023-04-27,24.102039,120.879897,1.1159437e-09
C0V360,內門,2023-04-27,22.975481,120.466769,1.3900235e-08
C0R850,林邊,2023-04-27,22.4634,120.5339,1.6067268e-08
C0E930,龍鳳,2023-04-27,24.700034,120.859125,1.1039996e-05
C0U910,冬山,2023-04-27,24.63373,121.7937,2.3675918e-08
C1E721,泰安,2023-04-27,24.489017,120.968036,3.1109049e-09
82H320,茶改中部分場,2023-04-27,23.875611,120.913583,1.6697367e-09
C0M750,布袋,2023-04-27,23.380878,120.167789,4.308797e-08
C1S860,利嘉,2023-04-27,22.809417,121.050528,1.4373344e-07
72C440,桃園農改,2023-04-27,24.950944,121.030583,0.00042541308
E2S980,林試太麻里1,2023-04-27,22.598922,120.980044,0.20683642
C0X170,關廟,2023-04-27,22.963017,120.327797,4.083621e-08
C0V720,林園,2023-04-27,22.507747,120.394511,3.870949e-09
C1I510,線浸林道,2023-04-27,23.761508,120.832956,1.3472999e-09
C0D690,外湖,2023-04-27,24.917735,120.968711,0.00074750214
C0C750,新興坑尾,2023-04-27,25.0061,121.0971,0.0011210052
B2Q810,畜試南區分所,2023-04-27,21.945583,120.802167,0.07221905
C0S790,金崙,2023-04-27,22.538122,120.966875,0.000114839604
C0AH90,福山植物園,2023-04-27,24.760717,121.58135,4.4500164e-09
C0I540,奇萊稜線,2023-04-27,24.109231,121.326456,1.263101e-08
C0M850,表湖,2023-04-27,23.24186,120.64166,1.9929471e-09
C0S770,大溪山,2023-04-27,22.478475,120.943325,2.3962437e-07
C0AG80,中和,2023-04-27,24.991622,121.491792,1.4117293e-07
C0T790,大禹嶺,2023-04-27,24.186117,121.316086,1.1760379e-08
C0T9B0,水源,2023-04-27,23.991861,121.537169,5.064061e-09
C0R840,牡丹池山,2023-04-27,22.168389,120.841225,6.74078e-09
C1I131,桶頭,2023-04-27,23.641944,120.654117,8.199239e-09
CAL110,布袋國中,2023-04-27,23.35893,120.18026,4.308797e-08
467571,新竹,2023-04-27,24.827853,121.014219,4.1459184e-06
C0Z290,赤柯山,2023-04-27,23.36893,121.38293,6.971915e-09
C0X280,將軍,2023-04-27,23.214999,120.13577,2.5487266e-09
C0S690,太麻里,2023-04-27,22.60902,120.98533,2.8514424e-07
C0U880,北關,2023-04-27,24.9072,121.8734,3.048235e-08
C1H860,瑞岩,2023-04-27,24.123772,121.18345,1.177845e-08
C0G810,埔心,2023-04-27,23.947633,120.525456,5.5024407e-09
C0U970,大福,2023-04-27,24.80064,121.81389,1.8800813e-08
C1E670,南礦,2023-04-27,24.538278,121.002836,1.8637922e-09
C0M520,東後寮,2023-04-27,23.369908,120.248065,3.7249723e-08
C1E461,松安,2023-04-27,24.397972,120.986022,3.1435854e-09
72G600,臺中農改,2023-04-27,24.003028,120.534389,4.66808e-09
C2N160,西拉雅風管處,2023-04-27,23.189481,120.335297,8.641651e-07
C0A640,石碇,2023-04-27,24.993969,121.662917,1.379793e-08
E2S960,林試太麻里2,2023-04-27,22.598,120.99775,0.32586387
C0F9Y0,桃山,2023-04-27,24.432739,121.303808,1.5618054e-08
C1I020,萬大,2023-04-27,23.979817,121.132261,4.1296047e-09
C0U940,羅東,2023-04-27,24.68184,121.74934,3.5783083e-09
C0M650,朴子,2023-04-27,23.43463,120.23902,2.4609983e-07
C1I500,大尖山,2023-04-27,23.858572,120.994889,1.0587677e-08
C0G820,田尾,2023-04-27,23.901669,120.509389,5.5024407e-09
E2K600,四湖植物園,2023-04-27,23.676986,120.163433,6.5826713e-09
C0S730,綠島,2023-04-27,22.6672,121.47533,0.11577807
12Q970,東港工作站,2023-04-27,22.479997,120.466058,1.9859018e-08
C0E430,南庄,2023-04-27,24.601775,121.000214,3.1194312e-09
C1TA00,太魯閣,2023-04-27,24.15773,121.6236,2.8983234e-08
466920,臺北,2023-04-27,25.037658,121.514853,9.0685525e-08
C0R600,舊泰武,2023-04-27,22.588194,120.664944,1.5719388e-09
C1I260,北坑,2023-04-27,23.9246,121.006903,5.477235e-10
466910,鞍部,2023-04-27,25.182586,121.529731,4.52087e-09
C1I230,九份二山,2023-04-27,23.961944,120.845,1.2630956e-09
C2A660,瑞芳,2023-04-27,25.113169,121.801147,2.5309104e-08
C0R270,琉球嶼,2023-04-27,22.332244,120.362236,1.3837973e-06
C1T990,高寮,2023-04-27,23.394239,121.356808,3.6200325e-09
C0G620,芬園,2023-04-27,24.015678,120.6213,1.8215656e-09
C1Z140,荖溪,2023-04-27,23.890575,121.45964,1.7962801e-08
C1I201,中心崙,2023-04-27,23.728722,120.712097,1.0102963e-09
C1I400,凌霄,2023-04-27,24.018778,121.004456,4.8425592e-09
C1M640,十字,2023-04-27,23.492153,120.753683,4.9614646e-09
G2P820,農試鳳山分所,2023-04-27,22.646611,120.356083,2.416554e-09
C0Z270,蕃薯寮,2023-04-27,23.73835,121.540108,5.705113e-09
C0F9Q0,外埔,2023-04-27,24.347817,120.705686,1.0500592e-09
C0K580,高鐵雲林,2023-04-27,23.737456,120.417944,2.8942782e-09
C2I090,鳳凰,2023-04-27,23.728081,120.787347,1.0704021e-09
C0U990,員山,2023-04-27,24.74435,121.72247,3.653543e-09
C0V770,大社,2023-04-27,22.730306,120.346639,3.0272707e-09
C0X120,麻豆,2023-04-27,23.183289,120.248611,8.408885e-09
C0C670,龍潭,2023-04-27,24.870056,121.221389,2.8634425e-08
C0D680,香山濕地,2023-04-27,24.783581,120.914988,9.896287e-08
C0S980,勝林山,2023-04-27,22.430439,120.8938,1.063228e-08
C0V730,大寮,2023-04-27,22.605614,120.395717,5.554426e-09
C0R570,麟洛,2023-04-27,22.65078,120.52719,7.38187e-08
CAG100,王功漁港,2023-04-27,23.96824,120.32586,1.2770008e-08
C0X290,北門,2023-04-27,23.267772,120.125481,2.5487266e-09
C2F930,大甲,2023-04-27,24.347667,120.640403,5.490678e-09
C0D650,湖口,2023-04-27,24.904794,121.043628,0.00016471437
C0E420,竹南,2023-04-27,24.708978,120.888897,6.4769947e-06
C0U780,五結,2023-04-27,24.68637,121.79794,3.878073e-09
C1I250,鯉潭,2023-04-27,23.961922,120.991131,1.2029852e-09
C0R130,阿禮,2023-04-27,22.742908,120.743678,1.6558487e-09
C0X100,臺南市北區,2023-04-27,23.010394,120.194228,2.2350963e-09
C0S920,金峰嘉蘭,2023-04-27,22.594789,120.960825,0.19446936
C0V490,新興,2023-04-27,22.627422,120.298803,6.164628e-09
C0F9K0,大安,2023-04-27,24.345061,120.588025,6.6656285e-09
72N100,臺南農改,2023-04-27,23.0605,120.342194,8.425087e-08
467290,古坑,2023-04-27,23.633639,120.551889,1.1679162e-07
C0V440,鳳山,2023-04-27,22.646653,120.356122,2.416554e-09
C1T940,大觀,2023-04-27,23.714206,121.373133,3.8535783e-09
72T250,花蓮農改,2023-04-27,23.975222,121.563889,1.1886943e-07
C0E740,造橋,2023-04-27,24.637056,120.864778,2.7678377e-06
C0R100,尾寮山,2023-04-27,22.833111,120.683889,1.7236568e-09
A2K630,臺大雲林校區,2023-04-27,23.730628,120.423903,2.8942782e-09
C0D580,寶山,2023-04-27,24.735006,121.025192,1.9868402e-09
E2P990,林試扇平站,2023-04-27,22.9677,120.6857,9.626998e-09
C0AI30,三重,2023-04-27,25.057328,121.500629,1.12777215e-07
C0AH00,汐止,2023-04-27,25.066881,121.658778,9.0685525e-08
C1Z040,立山,2023-04-27,23.443356,121.327375,3.2144175e-08
C0R740,獅子,2023-04-27,22.201569,120.70525,0.76599395
C0W130,花嶼,2023-04-27,23.40007,119.32276,1.1457148e-05
C0A950,鼻頭角,2023-04-27,25.129036,121.923372,9.636974e-07
C0K470,林內,2023-04-27,23.748675,120.609642,3.7645993e-08
82C160,茶改場,2023-04-27,24.908472,121.185333,2.425496e-07
C0Z320,清水林道,2023-04-27,23.27125,121.188272,1.1412342e-08
C0R760,南仁湖,2023-04-27,22.084681,120.863353,3.7524592e-07
C0M670,大林,2023-04-27,23.600616,120.45841,8.257307e-09
C0M800,茶山,2023-04-27,23.299075,120.664767,3.2644876e-09
C0A9C0,天母,2023-04-27,25.117494,121.537169,3.6058523e-08
72K220,南改斗南分場,2023-04-27,23.634556,120.477333,5.676154e-09
72AI40,桃改樹林分場,2023-04-27,24.944503,121.386972,3.688928e-06
C0S910,蘭嶼燈塔,2023-04-27,22.081197,121.503117,0.23741002
C0B050,八斗子,2023-04-27,25.144754,121.79167,6.240987e-08
C0U900,內城,2023-04-27,24.71813,121.68766,3.1625536e-09
C0X320,柳營,2023-04-27,23.253328,120.375253,2.137126e-06
C0M790,新港,2023-04-27,23.553269,120.345728,7.0638726e-09
C0F9T0,西屯,2023-04-27,24.179494,120.641275,1.4282205e-09
C0SA30,都歷,2023-04-27,23.020333,121.323642,5.142775e-05
C0C620,蘆竹,2023-04-27,25.084275,121.265767,0.00010340892
C0R730,大坪頂,2023-04-27,22.024633,120.69355,1.4276528e-06
C0AJ40,石門,2023-04-27,25.273672,121.601198,7.911875e-08
C0E750,苗栗,2023-04-27,24.564569,120.824575,1.8782247e-08
C0T870,鯉魚潭,2023-04-27,23.935639,121.508944,1.029459e-08
C1V170,排雲,2023-04-27,23.463619,120.954147,1.3707746e-08
C2H950,中寮,2023-04-27,23.884447,120.766406,1.8738404e-09
C0R350,貓鼻頭,2023-04-27,21.921774,120.7358,0.23140661
C0V660,岡山,2023-04-27,22.797078,120.294958,3.9984904e-09
C1H941,雙冬,2023-04-27,23.967378,120.802189,5.493556e-10
C0AJ70,田寮,2023-04-27,25.2698,121.4886,3.9314784e-07
C0AI00,五股,2023-04-27,25.07445,121.42728,1.2528078e-08
C0Z280,德武,2023-04-27,23.47426,121.41071,2.5062992e-09
C0R700,枋山,2023-04-27,22.246844,120.661086,1.2941433e-07
C0C460,復興,2023-04-27,24.820208,121.352281,1.1631728e-08
E2H360,蓮華池,2023-04-27,23.918333,120.885278,5.71088e-10
C0M640,中埔,2023-04-27,23.42538,120.5229,2.2715842e-07
C0W140,金沙,2023-04-27,24.488292,118.408778,0.15265982
C2A540,四堵,2023-04-27,24.8926,121.745736,6.028421e-09
C0ACA0,新莊,2023-04-27,25.051478,121.446756,3.423499e-08
C0R220,潮州,2023-04-27,22.534361,120.54,1.4851556e-06
U2HA40,臺大內茅埔,2023-04-27,23.689722,120.851117,2.0852748e-09
467490,臺中,2023-04-27,24.145736,120.684075,1.9170776e-09
C0U960,翠峰湖,2023-04-27,24.510856,121.608044,6.8123986e-09
E2HA20,林試畢祿溪站,2023-04-27,24.226944,121.308522,1.2983037e-08
C0V890,前鎮,2023-04-27,22.5718,120.3117,6.6297203e-09
467620,蘭嶼,2023-04-27,22.036969,121.558339,0.14787601
C1F941,雪嶺,2023-04-27,24.280586,121.026642,1.8185325e-08
C0AC80,文山,2023-04-27,25.00235,121.575728,9.821671e-08
C0F9R0,龍井,2023-04-27,24.184536,120.528972,2.2972133e-09
C0M760,民雄,2023-04-27,23.551754,120.428457,8.6461265e-09
C0UA40,西德山,2023-04-27,24.560647,121.752608,4.124197e-09
C1T920,中興,2023-04-27,23.769503,121.498653,6.581416e-09
C0D550,雪霸,2023-04-27,24.526972,121.11605,3.9879344e-09
C2F860,梨山,2023-04-27,24.247522,121.243669,1.3323027e-08
C0R320,車城,2023-04-27,22.0744,120.716247,1.8011747e-07
C1S870,南美山,2023-04-27,23.15025,121.382333,1.7676255e-08
C0B020,基隆嶼,2023-04-27,25.19141,121.78391,2.752649e-07
C1U501,牛鬥,2023-04-27,24.637836,121.573656,5.0532742e-09
C0M730,嘉義市東區,2023-04-27,23.457673,120.460531,4.8904894e-06
C0S700,知本,2023-04-27,22.684866,121.005642,2.0368506e-07
C1N001,沙崙,2023-04-27,22.935472,120.309406,5.145901e-08
C0V760,橋頭,2023-04-27,22.757806,120.30575,3.1307743e-09
C0G960,福寶,2023-04-27,24.0443,120.3814,3.5158372e-09
C0X210,白河,2023-04-27,23.347466,120.414427,6.882894e-05
C0S810,東河,2023-04-27,22.972672,121.303986,0.00010949177
C0R670,楓港,2023-04-27,22.190131,120.692156,2.1941992e-07
C0FA50,霧峰,2023-04-27,24.0419,120.6995,1.9762125e-09
C0UB10,蘇澳,2023-04-27,24.5969,121.8571,5.3965415e-08
C0G950,防潮門,2023-04-27,24.1835,120.4871,2.2972133e-09
C0M740,六腳,2023-04-27,23.492871,120.290625,1.6930295e-08
C1R250,力里,2023-04-27,22.428117,120.629228,8.3137124e-08
C0K330,虎尾,2023-04-27,23.719183,120.442036,2.7716076e-09
C2FA00,烏石坑,2023-04-27,24.273503,120.947617,2.6167732e-09
C0V620,永安,2023-04-27,22.82315,120.236856,3.9984904e-09
C1I330,楓樹林,2023-04-27,23.986803,121.076117,4.3049835e-09
C0W200,湖西,2023-04-27,23.596314,119.67275,0.00024616433
72Q010,高雄農改場,2023-04-27,22.709333,120.525889,5.6310935e-08
C0SA40,瑞和,2023-04-27,22.974361,121.156697,7.898094e-08
C0C680,龜山,2023-04-27,25.02846,121.38656,8.795694e-09
C2V260,月眉,2023-04-27,22.971003,120.539853,2.6653828e-07
C0V450,鳳森,2023-04-27,22.545064,120.392592,2.8056695e-09
C0U720,南山,2023-04-27,24.43742,121.38167,7.0504123e-09
A2N290,臺南蘭花園區,2023-04-27,23.340258,120.379661,1.4987886e-08
C0R560,新園,2023-04-27,22.5434,120.461558,3.870949e-09
C0U890,三星,2023-04-27,24.66812,121.65302,1.1467109e-08
C1V300,御油山,2023-04-27,23.001983,120.715364,3.0192437e-09
C0U600,礁溪,2023-04-27,24.817539,121.765608,7.154808e-08
C1T980,龍澗,2023-04-27,24.023289,121.411328,1.5838305e-08
C0D670,海天一線,2023-04-27,24.831986,120.914438,0.0010933314
C0SA00,歷坵,2023-04-27,22.520969,120.89185,2.5125618e-07
C0M710,東石,2023-04-27,23.458927,120.15385,1.4111674e-08
C0M780,鹿草,2023-04-27,23.41134,120.30835,1.8658334e-07
C0U520,雙連埤,2023-04-27,24.753033,121.641303,2.8959348e-09
C0B010,七堵,2023-04-27,25.094819,121.71713,2.2775126e-07
C0R480,長治,2023-04-27,22.693128,120.542622,7.594375e-09
C1V830,國三S383K,2023-04-27,22.781967,120.426475,3.0993086e-09
12Q980,恆春工作站,2023-04-27,22.079678,120.714425,1.8011747e-07
C1O940,東山服務區,2023-04-27,23.286016,120.398472,3.229645e-05
C1U840,東澳嶺,2023-04-27,24.5378,121.8485,4.627479e-09
C1D630,飛鳳山,2023-04-27,24.766464,121.119178,2.745453e-09
C0S940,石寧山,2023-04-27,23.223772,121.406639,1.8300499e-08
C0K410,北港,2023-04-27,23.573957,120.292802,1.5054016e-07
C2M620,瑞里,2023-04-27,23.545133,120.675197,1.9124904e-09
C2O950,安南,2023-04-27,23.076694,120.144861,1.4991173e-08
C0F0E0,南湖圈谷,2023-04-27,24.363714,121.444667,1.9099906e-08
467610,成功,2023-04-27,23.097486,121.373428,0.008282107
C0G890,伸港,2023-04-27,24.148933,120.484403,3.15148e-09
C2E540,龍溪,2023-04-27,24.606489,120.783933,3.982961e-06
C1V200,梅山,2023-04-27,23.268447,120.823556,6.221136e-09
C0T9H0,加路蘭山,2023-04-27,23.682947,121.5274,5.646255e-09
C2O930,玉井,2023-04-27,23.126042,120.46055,1.942674e-07
C1F911,新伯公,2023-04-27,24.221361,120.841069,1.66271e-09
C0R490,九如,2023-04-27,22.7405,120.490503,6.207556e-08
C0X200,左鎮,2023-04-27,23.056758,120.408522,4.8055e-07
C1F891,稍來,2023-04-27,24.265689,121.001142,1.1549996e-08
72N240,七股研究中心,2023-04-27,23.081672,120.062894,1.6107895e-08
C0C700,中壢,2023-04-27,24.977661,121.256375,5.422522e-08
C0M690,水上,2023-04-27,23.419734,120.388909,7.188485e-08
C0V690,鼓山,2023-04-27,22.623325,120.275575,6.1655925e-09
C0O860,大內,2023-04-27,23.11885,120.36083,1.00246744e-07
C0Z200,萬榮,2023-04-27,23.709219,121.420106,1.3686768e-08
C0T9D0,和中,2023-04-27,24.26676,121.74103,2.6490468e-05
C1O921,楠西,2023-04-27,23.183511,120.484083,1.9405483e-07
C0AJ30,淡水觀海,2023-04-27,25.184591,121.408616,1.9419048e-08
C0V810,左營,2023-04-27,22.67491,120.28491,2.6323266e-09
C0UA70,桃源谷,2023-04-27,24.962606,121.888875,4.3800394e-09
C0X130,官田,2023-04-27,23.193217,120.315422,9.457069e-07
C1H000,翠峰,2023-04-27,24.109397,121.205211,5.7730456e-09
C0UA90,石城,2023-04-27,24.980444,121.951214,1.6318205e-08
C1E681,南勢山,2023-04-27,24.421669,120.923831,1.871533e-09
C0A9F0,內湖,2023-04-27,25.079422,121.57545,9.0685525e-08
C0K291,宜梧,2023-04-27,23.536281,120.169329,3.7662225e-08
C1K540,口湖,2023-04-27,23.585344,120.180517,1.306307e-08
C0R780,滿州,2023-04-27,22.024403,120.839892,0.32758948
C0V870,文安,2023-04-27,22.8025,120.2164,4.1091055e-09
C0U650,玉蘭,2023-04-27,24.675286,121.587061,3.7120904e-09
C0R640,東港,2023-04-27,22.46247,120.44074,1.9606027e-08
K2E360,苗栗農改,2023-04-27,24.495722,120.829111,1.1508099e-09
C0AJ80,板橋,2023-04-27,25.0107,121.4489,1.5179309e-07
C0S660,下馬,2023-04-27,23.150427,121.070312,1.1970119e-08
C1H9B1,阿眉,2023-04-27,24.1263,120.994672,1.1721123e-08
C0UA20,多加屯,2023-04-27,24.368614,121.373189,9.733328e-09
C0E730,頭份,2023-04-27,24.688247,120.912206,7.134943e-06
72V140,高改旗南分場,2023-04-27,22.857861,120.516667,2.0526217e-08
C0K480,莿桐,2023-04-27,23.761192,120.502372,2.890819e-09
C0U980,坪林石牌,2023-04-27,24.86478,121.77396,3.7026573e-09
C0T900,西林,2023-04-27,23.8119,121.441458,3.5761112e-09
C1I150,青雲,2023-04-27,23.793361,120.949378,6.737794e-10
467350,澎湖,2023-04-27,23.565503,119.563094,0.0010620519
C0G800,埔鹽,2023-04-27,24.000394,120.431683,8.360731e-09
C0H960,草屯,2023-04-27,23.973672,120.68085,1.8375619e-09
C1V780,多納林道,2023-04-27,22.888028,120.737917,2.0578383e-09
C0E920,通霄漁港,2023-04-27,24.498589,120.673876,4.496904e-08
C0Z330,安通山,2023-04-27,23.290728,121.348528,2.2656697e-09
C0AH10,永和,2023-04-27,25.01125,121.508111,1.5179309e-07
C2G640,鹿港,2023-04-27,24.0753,120.430481,3.5158372e-09
C1E890,國三N149K,2023-04-27,24.463414,120.680019,4.390101e-09
C1R110,口社,2023-04-27,22.770111,120.645222,0.0005667874
C1M870,國三N285K,2023-04-27,23.550319,120.505833,6.692397e-08
467050,新屋,2023-04-27,25.006744,121.047486,0.0019807382
C1E480,鳳美,2023-04-27,24.554803,121.034747,1.9417188e-09
C0M530,奮起湖,2023-04-27,23.493903,120.699253,2.113412e-09
C0C590,觀音,2023-04-27,25.027072,121.153317,0.005802469
C0T9M0,靜浦,2023-04-27,23.455167,121.495028,4.179104e-09
C0AI40,石牌,2023-04-27,25.115597,121.513139,4.1540172e-08
C1F871,上谷關,2023-04-27,24.203483,121.018644,2.2621158e-09
C0G880,二水,2023-04-27,23.810742,120.6173,9.892833e-08
C0R940,加祿堂,2023-04-27,22.3363,120.6217,4.3645713e-08
C0W220,北竿,2023-04-27,26.220358,119.974881,3.3317568e-07
C0O960,崎頂,2023-04-27,22.959547,120.369317,1.7982307e-08
C0S750,向陽,2023-04-27,23.248397,120.986133,4.9554023e-09
C0T9F0,水璉,2023-04-27,23.797131,121.542514,2.7899112e-09
C1M600,頭凍,2023-04-27,23.406364,120.603339,3.107969e-09
467660,臺東,2023-04-27,22.752211,121.154586,0.00039333818
C1D380,新埔,2023-04-27,24.84745,121.03834,1.0605504e-06
C0V750,路竹,2023-04-27,22.854997,120.259439,1.9896467e-09
C0N050,蚵寮,2023-04-27,23.301,120.1104,4.4480983e-09
72M700,南改鹿草分場,2023-04-27,23.416869,120.283061,2.4621627e-07
C1SA50,利嘉林道,2023-04-27,22.82325,121.009389,7.1422197e-09
467550,玉山,2023-04-27,23.487614,120.959522,2.2084215e-08
C0A940,金山,2023-04-27,25.223628,121.643967,3.3544723e-08
C1V340,大津,2023-04-27,22.888322,120.645986,5.5929563e-06
C0W180,七美,2023-04-27,23.219333,119.444892,3.707729e-05
C1F9C1,白冷,2023-04-27,24.182844,120.929889,1.6185835e-09
K2E710,苗改生物防治研究中心,2023-04-27,24.422861,120.871833,9.556685e-10
C0N040,蘆竹溝,2023-04-27,23.2344,120.0961,2.5487266e-09
C2W230,畜試所澎湖,2023-04-27,23.628342,119.513206,0.00054015673
C0R880,後壁湖,2023-04-27,21.9457,120.7457,0.0010447681
C1I280,埔中,2023-04-27,23.820778,120.642594,1.0186436e-09
467790,墾丁雷達站,2023-04-27,21.948235,120.808028,0.0697133
C0W190,望安,2023-04-27,23.380564,119.494075,2.9117076e-05
466881,新北,2023-04-27,24.9593,121.52,1.5350155e-07
C0Z170,卓溪,2023-04-27,23.3443,121.3029,2.6025424e-09
C0F850,東勢,2023-04-27,24.246428,120.833047,1.1426168e-09
466900,淡水,2023-04-27,25.164889,121.448906,4.4525697e-07
C0I370,魚池,2023-04-27,23.895703,120.94135,5.8245836e-10
C0C630,大溪,2023-04-27,24.882853,121.265547,4.7723336e-08
C0A520,山佳,2023-04-27,24.974944,121.402008,1.3162769e-07
C0I110,竹山,2023-04-27,23.761225,120.688156,1.8745313e-08
82H840,茶改南部分場,2023-04-27,23.762528,120.7405,1.13535e-09
C0G660,溪湖,2023-04-27,23.94835,120.479122,5.6661813e-09
C1T800,洛韶,2023-04-27,24.204558,121.453956,2.2242698e-08
C1T810,慈恩,2023-04-27,24.192044,121.388386,3.6656396e-09
C1E451,象鼻,2023-04-27,24.368617,120.940228,1.7935609e-09
C0AC60,三峽,2023-04-27,24.939025,121.369728,2.1237997e-06
C0I490,萬大林道,2023-04-27,23.928228,121.091411,4.8892423e-09
C1I290,豐丘,2023-04-27,23.668178,120.887417,2.1332565e-09
C1I320,奧萬大,2023-04-27,23.952956,121.178556,3.5635013e-09
C0U770,南澳,2023-04-27,24.44935,121.81022,2.8429804e-08
C0A980,社子,2023-04-27,25.109508,121.469681,6.245917e-07
C0V800,六龜,2023-04-27,22.997889,120.633583,2.5291538e-08
C1G9D0,國一S218K,2023-04-27,23.890641,120.493253,2.5575018e-09
C2F9A0,中竹林,2023-04-27,24.103556,120.751061,2.0985176e-09
C0FA40,臺中電廠,2023-04-27,24.2146,120.4907,2.2972133e-09
C0H9C0,合歡山,2023-04-27,24.143442,121.272547,2.0522538e-08
C0X060,下營,2023-04-27,23.22695,120.256261,2.0146297e-08
G2M350,農試溪口農場,2023-04-27,23.58565,120.408111,9.434153e-09
C0U860,頭城,2023-04-27,24.85323,121.8308,8.279231e-08
C0R580,南州,2023-04-27,22.48591,120.50274,1.9606027e-08
C0D430,峨眉,2023-04-27,24.6905,121.017189,1.3823429e-08
C0G780,秀水,2023-04-27,24.03405,120.503869,4.66808e-09
72N100,臺南農改場,2023-04-27,23.0605,120.342194,8.425087e-08
C0S900,蘭嶼高中,2023-04-27,22.04909,121.51214,0.21063873
467540,大武,2023-04-27,22.355675,120.903789,0.06944639
C1F9W0,德基,2023-04-27,24.254783,121.190261,9.53788e-09
C1Z120,壽豐,2023-04-27,23.870853,121.508081,9.609057e-09
C0W160,烏坵,2023-04-27,24.9944,119.44956,2.3426726e-05
C1I240,外大坪,2023-04-27,23.958697,120.917931,1.2081934e-09
C1I550,國六W023K,2023-04-27,23.979067,120.867742,7.8543405e-10
C0R870,興海,2023-04-27,21.9752,120.8439,0.07221905
C0R140,瑪家,2023-04-27,22.682903,120.686639,2.7441023e-09
C0A530,坪林,2023-04-27,24.938183,121.70975,6.9608204e-09
C0X260,後壁,2023-04-27,23.366358,120.362326,1.4987886e-08
C0Z230,和平,2023-04-27,24.30717,121.77007,3.290884e-05
C0G770,福興,2023-04-27,24.041289,120.437669,8.293911e-09
C0H9A0,神木村,2023-04-27,23.532742,120.843667,5.0849094e-09
C0I460,南投,2023-04-27,23.911469,120.687331,3.5966463e-09
C0I480,梅峰,2023-04-27,24.085272,121.173572,9.213098e-09
C1V570,吉東,2023-04-27,22.85422,120.5454,1.7305393e-08
C2A560,福山,2023-04-27,24.776203,121.502811,6.4442296e-09
C0AH30,五分山,2023-04-27,25.07125,121.780794,4.045755e-09
C0FA10,松柏,2023-04-27,24.429115,120.617482,5.010947e-09
72S200,東改班鳩分場,2023-04-27,22.829528,121.077694,1.0551229e-08
72HA00,中改埔里分場,2023-04-27,23.903208,120.963364,5.620894e-10
C0C650,平鎮,2023-04-27,24.897503,121.214636,7.520274e-08
C0S930,延平,2023-04-27,22.902581,121.084058,1.3615867e-08
C0UA60,樟樹山,2023-04-27,24.41393,121.78325,1.8632386e-08
C1S670,摩天,2023-04-27,23.199503,121.027,7.530563e-09
C0V630,茄萣,2023-04-27,22.906642,120.182608,2.1674829e-09
466940,基隆,2023-04-27,25.133314,121.740475,5.962442e-08
C0X050,東河,2023-04-27,23.296598,120.385608,6.652873e-05
C0R770,保力,2023-04-27,22.071122,120.764111,8.307043e-06
G2L020,農試嘉義分所,2023-04-27,23.485028,120.473806,2.8774944e-06
C0X240,關子嶺,2023-04-27,23.331169,120.508025,1.8737449e-08
C0I380,集集,2023-04-27,23.828206,120.801467,1.9914386e-09
466990,花蓮,2023-04-27,23.975128,121.613275,1.7616973e-07
C1V220,小關山,2023-04-27,23.154217,120.813603,3.565609e-09
C1F9G1,慶福山,2023-04-27,24.180853,120.848378,1.5795065e-09
C0Z250,瑞穗林道,2023-04-27,23.49284,121.30688,2.2176826e-08
C0D590,新豐,2023-04-27,24.87068,120.97721,0.00052729616
C0A870,五指山,2023-04-27,25.132153,121.608692,2.653893e-09
C0UA50,西帽山,2023-04-27,24.555361,121.802628,4.336266e-09
C0X160,仁德,2023-04-27,22.968258,120.257689,3.594863e-09
C1H971,六分寮,2023-04-27,23.92507,120.6378,1.8658586e-09
C0W120,西嶼,2023-04-27,23.5626,119.468436,0.00067766744
C0G650,員林,2023-04-27,23.946503,120.585597,3.3805028e-09
C0AD50,鶯歌,2023-04-27,24.951533,121.346294,9.038313e-07
C0S990,山豬窟,2023-04-27,22.318619,120.857372,6.388305e-08
72Q010,高雄農改,2023-04-27,22.709333,120.525889,5.6310935e-08
C0X190,安平,2023-04-27,22.993161,120.152181,2.2350963e-09
C0K400,斗六,2023-04-27,23.720583,120.541127,2.3050124e-09
12J990,口湖工作站,2023-04-27,23.589978,120.180394,1.306307e-08
C0O830,北寮,2023-04-27,23.079561,120.495008,3.4623216e-08
C1D410,白蘭,2023-04-27,24.579364,121.079947,2.054599e-09
C0S970,加津林,2023-04-27,22.416211,120.926942,0.018047284
C0D700,關西,2023-04-27,24.7977,121.1732,3.4228962e-09
C0M810,里佳,2023-04-27,23.389125,120.716647,4.428442e-09
C0U750,龜山島,2023-04-27,24.841667,121.953133,2.065967e-07
C0R810,內獅,2023-04-27,22.305064,120.642986,4.968541e-08
C1M390,龍美,2023-04-27,23.406728,120.654417,3.5988148e-09
C1H840,國三N238K,2023-04-27,23.841008,120.707711,1.1214958e-09
CAQ030,崎峰國小,2023-04-27,22.42565,120.49521,1.9606027e-08
C2E520,大湖,2023-04-27,24.414939,120.870872,9.61226e-10
467530,阿里山,2023-04-27,23.508208,120.813242,1.2763652e-08
C1E691,南湖,2023-04-27,24.40135,120.837533,1.5845246e-09
C0FA30,梧棲,2023-04-27,24.256003,120.523381,3.7500922e-09
C1V231,高中,2023-04-27,23.134911,120.716711,2.6278018e-09
C0F9V0,新社,2023-04-27,24.200172,120.815806,1.5730006e-09
C0H890,埔里,2023-04-27,23.972169,120.952425,7.5663076e-10
C0R690,墾丁,2023-04-27,21.966756,120.810269,0.09163929
C0F0D0,審馬陣,2023-04-27,24.381675,121.4203,1.3867901e-08
C0R820,白鷺,2023-04-27,22.454275,120.666219,1.6094649e-09
U2H480,臺大溪頭,2023-04-27,23.670306,120.798194,2.0156896e-09
C1V190,南天池,2023-04-27,23.27403,120.91176,6.129291e-09
K2E360,苗栗農改場,2023-04-27,24.495722,120.829111,1.1508099e-09
CAJ050,海口故事園區,2023-04-27,23.57543,120.14121,1.306307e-08
C0O990,媽廟,2023-04-27,22.99175,120.293525,2.0216586e-08
C0D480,打鐵坑,2023-04-27,24.849664,121.150789,2.7872371e-08
C0Z220,和平林道,2023-04-27,24.343922,121.656317,9.90446e-09
72C440,桃園農改場,2023-04-27,24.950944,121.030583,0.00042541308
C1E711,馬拉邦山,2023-04-27,24.367306,120.901656,1.8574715e-09
C0D560,竹東,2023-04-27,24.767147,121.057881,3.6845869e-09
C0F9U0,南屯,2023-04-27,24.137006,120.637969,1.519324e-09
C0M720,番路,2023-04-27,23.464657,120.554156,6.979223e-08
C0F0A0,雪山圈谷,2023-04-27,24.388594,121.236339,1.9999204e-08
C1A9N0,四十份,2023-04-27,24.934158,121.593283,8.691894e-09
C0U760,東澳,2023-04-27,24.52196,121.83318,6.2163e-08
C0X230,鹽水,2023-04-27,23.272621,120.247641,4.2887396e-09
C0V370,古亭坑,2023-04-27,22.893178,120.401947,6.4217267e-09
C1I340,新興橋,2023-04-27,23.563333,120.868728,2.243686e-09
C0SA80,土坂,2023-04-27,22.453108,120.887572,0.00011181803
C0R160,鹽埔,2023-04-27,22.739558,120.530778,5.6310935e-08
C0AC40,大屯山,2023-04-27,25.175675,121.522408,5.097164e-09
466850,五分山雷達站,2023-04-27,25.071182,121.781205,4.0625268e-09
C1AI50,國三N016K,2023-04-27,25.034164,121.619664,5.3734727e-08
C1V600,藤枝,2023-04-27,23.071961,120.757042,3.138499e-09
C1E601,南勢,2023-04-27,24.572486,120.734842,3.707299e-07
C0Z180,新城,2023-04-27,24.03946,121.60454,1.5621413e-07
C0O980,新市,2023-04-27,23.061614,120.298197,1.3817517e-07
C0K420,西螺,2023-04-27,23.800407,120.467394,2.0922468e-09
C0Z050,佳心,2023-04-27,23.34567,121.21316,7.379881e-09
C0AD30,蘆洲,2023-04-27,25.086594,121.472331,1.12777215e-07
C0V610,梓官,2023-04-27,22.760558,120.267211,3.1307743e-09
K2F750,種苗改良場,2023-04-27,24.225972,120.800917,1.6194142e-09
C0UA80,大溪漁港,2023-04-27,24.941801,121.902955,2.8288952e-08
C1AI60,國一39K邊坡,2023-04-27,25.064361,121.383836,1.0369001e-08
C0W150,金寧,2023-04-27,24.457703,118.328989,0.3839554
V2C250,八德合作社,2023-04-27,24.93775,121.266389,1.6396179e-07
C0AH40,平等,2023-04-27,25.129142,121.577086,3.7213204e-09
C0R540,佳冬,2023-04-27,22.419456,120.552375,2.0103613e-08
466950,彭佳嶼,2023-04-27,25.627975,122.079744,8.276638e-06
C0A890,雙溪,2023-04-27,25.036003,121.864242,2.35433e-08
C0C480,桃園,2023-04-27,24.992425,121.323172,8.2259966e-08
C0AH50,林口,2023-04-27,25.072181,121.38084,8.066904e-09
A2K360,水試臺西試驗場,2023-04-27,23.717231,120.190522,5.6582974e-09
B2N890,畜試所,2023-04-27,23.058972,120.336406,8.425087e-08
C0F9S0,烏日,2023-04-27,24.107058,120.624103,3.3272425e-09
C0C490,八德,2023-04-27,24.928708,121.283289,1.5889705e-07
C0R190,赤山,2023-04-27,22.592333,120.614306,0.012328585
C0T820,天祥,2023-04-27,24.179597,121.495639,3.7608709e-06
C1F9E1,龍安,2023-04-27,24.1605,120.831961,3.1744167e-09
C0V820,小林,2023-04-27,23.148408,120.63325,2.3890108e-09
C2G870,芳苑,2023-04-27,23.922303,120.320025,1.141674e-08
C0E850,大河,2023-04-27,24.618069,120.948578,1.1178875e-07
C1U670,寒溪,2023-04-27,24.634,121.71691,1.09897424e-08
C0N020,城西,2023-04-27,23.0568,120.0956,2.2350963e-09
C1Z110,三棧,2023-04-27,24.11557,121.60501,1.7409272e-07
C0R280,檳榔,2023-04-27,22.076078,120.836777,2.4798749e-06
C0F9L0,后里,2023-04-27,24.310436,120.729725,1.4543022e-09
C0D540,橫山,2023-04-27,24.71116,121.11693,1.701679e-09
C1D420,太閣南,2023-04-27,24.632808,121.160575,3.2901226e-09
C1E770,公館,2023-04-27,24.526914,120.830806,1.1898161e-09
CAN130,水試所海水繁養殖中心,2023-04-27,23.120802,120.07968,1.6107895e-08
C1I430,翠華,2023-04-27,24.191961,121.224339,8.352506e-09
C1M400,菜瓜坪,2023-04-27,23.251928,120.576103,2.5977664e-09
C0G730,二林,2023-04-27,23.903325,120.376081,2.537818e-08
72M360,南改義竹分場,2023-04-27,23.360694,120.279361,3.727012e-08
V2K620,麥寮合作社,2023-04-27,23.753836,120.294783,6.298408e-09
C0Z070,舞鶴,2023-04-27,23.46811,121.37407,2.199257e-09
C0B040,大武崙,2023-04-27,25.166676,121.706993,4.2912127e-08
C1Z030,紅葉,2023-04-27,23.493119,121.338806,3.2783396e-09
C1I050,丹大,2023-04-27,23.753747,121.141147,5.348388e-09
C0I080,信義,2023-04-27,23.689694,120.851036,2.0852748e-09
C2A880,福隆,2023-04-27,25.017842,121.942083,1.6747483e-08
C0Z160,鳳林,2023-04-27,23.746114,121.453411,1.8574513e-08
C0V210,復興,2023-04-27,23.222403,120.806089,8.372508e-09
C0H990,昆陽,2023-04-27,24.121322,121.273642,9.808975e-09
C0S710,鹿野,2023-04-27,22.917711,121.122994,3.837632e-09
C0I530,小奇萊,2023-04-27,24.131764,121.295717,1.0360342e-08
C0Z080,富源,2023-04-27,23.587642,121.378225,8.373342e-08
467441,高雄,2023-04-27,22.7304,120.3125,3.0272707e-09
C1I140,卡奈托灣,2023-04-27,23.754364,121.087872,3.4752277e-09
C0I520,玉山風口,2023-04-27,23.470489,120.955994,2.3624585e-08
C1G691,下水埔,2023-04-27,23.816114,120.5676,2.485287e-09
C0X110,臺南市南區,2023-04-27,22.961189,120.188378,3.594863e-09
C0V680,仁武,2023-04-27,22.701083,120.347722,2.6323266e-09
C2G840,北斗,2023-04-27,23.877586,120.514222,2.4363715e-09
C0R900,竹坑,2023-04-27,22.1385,120.7022,1.4608214e-07
C0K250,崙背,2023-04-27,23.75555,120.318925,6.298408e-09
C0G860,社頭,2023-04-27,23.897647,120.5862,4.0263015e-09
C0X150,安定,2023-04-27,23.102614,120.227839,3.6753358e-09
C0R590,里港,2023-04-27,22.77919,120.49459,4.3974424e-09
C0E610,馬都安,2023-04-27,24.451272,120.930192,1.6314026e-09
C0E550,明德,2023-04-27,24.583486,120.885411,1.4868724e-08
C0R150,三地門,2023-04-27,22.709889,120.639944,0.00095792307
C0G910,花壇,2023-04-27,24.032076,120.549461,4.1298094e-09
C1D400,鳥嘴山,2023-04-27,24.71909,121.28387,3.6572103e-09
C0K500,元長,2023-04-27,23.64981,120.315024,4.0623195e-08
C0F0B0,石岡,2023-04-27,24.276061,120.777644,1.3877499e-09
C2V250,甲仙,2023-04-27,23.080106,120.591758,6.698153e-09
C0SA20,金崙山,2023-04-27,22.567419,120.959667,1.976681e-08
C0V350,溪埔,2023-04-27,22.738578,120.446797,5.2321214e-09
C0M660,溪口,2023-04-27,23.604131,120.403569,9.434153e-09
C1S880,壽卡,2023-04-27,22.238911,120.858903,1.0971961e-08
72D680,桃改新埔分場,2023-04-27,24.834444,121.066111,1.1772429e-06
