站號,站名,日期,lat,lon,BlastGRU-TW
466881,新北,2023-08-23,24.9593,121.52,0.9989548
466900,淡水,2023-08-23,25.164889,121.448906,0.99924904
466920,臺北,2023-08-23,25.037658,121.514853,0.9985964
466940,基隆,2023-08-23,25.133314,121.740475,0.9834478
466990,花蓮,2023-08-23,23.975128,121.613275,0.0088511985
467050,新屋,2023-08-23,25.006744,121.047486,0.9505261
467080,宜蘭,2023-08-23,24.763975,121.756528,0.22542974
467270,田中,2023-08-23,23.873803,120.581286,0.9962861
467300,東吉島,2023-08-23,23.25695,119.667467,0.19258797
467350,澎湖,2023-08-23,23.565503,119.563094,0.7911638
467410,臺南,2023-08-23,22.993239,120.204772,0.014339652
467420,永康,2023-08-23,23.038386,120.2367,0.01400603
467441,高雄,2023-08-23,22.7304,120.3125,0.011220781
467480,嘉義,2023-08-23,23.495925,120.432906,0.17776646
467490,臺中,2023-08-23,24.145736,120.684075,0.99881786
467540,大武,2023-08-23,22.355675,120.903789,0.58548796
467571,新竹,2023-08-23,24.827853,121.014219,0.984141
467590,恆春,2023-08-23,22.003897,120.746339,0.9303509
467610,成功,2023-08-23,23.097486,121.373428,0.20489818
467620,蘭嶼,2023-08-23,22.036969,121.558339,0.99871236
467660,臺東,2023-08-23,22.752211,121.154586,0.61696875
467790,墾丁雷達站,2023-08-23,21.948235,120.808028,0.95416516
C0A520,山佳,2023-08-23,24.974944,121.402008,0.9996597
C0A530,坪林,2023-08-23,24.938183,121.70975,0.9960982
C0A540,四堵,2023-08-23,24.8926,121.745736,0.91949594
C0A550,泰平,2023-08-23,24.971197,121.823711,0.06882363
C0A560,福山,2023-08-23,24.776203,121.502811,0.034511346
C0A570,桶後,2023-08-23,24.848222,121.597992,0.9670973
C0A640,石碇,2023-08-23,24.993969,121.662917,0.9927843
C0A650,火燒寮,2023-08-23,25.002719,121.742892,0.66706455
C0A660,瑞芳,2023-08-23,25.113169,121.801147,0.2720253
C0A770,科教館,2023-08-23,25.096356,121.516507,0.9991866
C0A860,大坪,2023-08-23,25.165914,121.632969,0.96910703
C0A880,福隆,2023-08-23,25.017842,121.942083,0.2208291
C0A890,雙溪,2023-08-23,25.036003,121.864242,0.9794619
C0A920,富貴角,2023-08-23,25.263783,121.565258,0.9952266
C0A931,三和,2023-08-23,25.233153,121.595236,0.53334695
C0A940,金山,2023-08-23,25.223628,121.643967,0.9977195
C0A950,鼻頭角,2023-08-23,25.129036,121.923372,0.212257
C0A970,三貂角,2023-08-23,25.007606,122.002058,0.3386677
C0A980,社子,2023-08-23,25.109508,121.469681,0.9991571
C0A9C0,天母,2023-08-23,25.117494,121.537169,0.99879014
C0A9F0,內湖,2023-08-23,25.079422,121.57545,0.9982414
C0AC60,三峽,2023-08-23,24.939025,121.369728,0.9996204
C0AC70,信義,2023-08-23,25.037822,121.564597,0.99956006
C0AC80,文山,2023-08-23,25.00235,121.575728,0.99978447
C0ACA0,新莊,2023-08-23,25.051478,121.446756,0.9998483
C0AD00,三芝,2023-08-23,25.258131,121.501917,0.99306035
C0AD10,八里,2023-08-23,25.150211,121.403947,0.99285054
C0AD30,蘆洲,2023-08-23,25.086594,121.472331,0.9991866
C0AD40,土城,2023-08-23,24.973208,121.445169,0.99956554
C0AD50,鶯歌,2023-08-23,24.951533,121.346294,0.9997107
C0AG80,中和,2023-08-23,24.991622,121.491792,0.998548
C0AH00,汐止,2023-08-23,25.066881,121.658778,0.99942183
C0AH10,永和,2023-08-23,25.01125,121.508111,0.9985025
C0AH40,平等,2023-08-23,25.129142,121.577086,0.9577358
C0AH50,林口,2023-08-23,25.072181,121.38084,0.99926955
C0AH70,松山,2023-08-23,25.04871,121.55042,0.99956006
C0AH80,深坑,2023-08-23,25.002703,121.628328,0.9996886
C0AI00,五股,2023-08-23,25.07445,121.42728,0.9997065
C0AI10,屈尺,2023-08-23,24.92184,121.54475,0.999772
C0AI20,白沙灣,2023-08-23,25.283128,121.519058,0.9849979
C0AI30,三重,2023-08-23,25.057328,121.500629,0.99894047
C0AI40,石牌,2023-08-23,25.115597,121.513139,0.9992073
C0AJ20,野柳,2023-08-23,25.20703,121.690021,0.99118656
C0AJ30,淡水觀海,2023-08-23,25.184591,121.408616,0.9942458
C0AJ40,石門,2023-08-23,25.273672,121.601198,0.99757034
C0AJ50,水湳洞,2023-08-23,25.123695,121.862238,0.97136605
C0AJ60,六塊厝,2023-08-23,25.24,121.4481,0.98391265
C0AJ70,田寮,2023-08-23,25.2698,121.4886,0.9891539
C0AJ80,板橋,2023-08-23,25.0107,121.4489,0.9997832
C0AJ90,澳底,2023-08-23,25.0552,121.9253,0.21869014
C0B010,七堵,2023-08-23,25.094819,121.71713,0.99668825
C0B020,基隆嶼,2023-08-23,25.19141,121.78391,0.9775304
C0B040,大武崙,2023-08-23,25.166676,121.706993,0.9940661
C0B050,八斗子,2023-08-23,25.144754,121.79167,0.9729894
C0B060,暖暖,2023-08-23,25.0957,121.7403,0.98846954
C0C460,復興,2023-08-23,24.820208,121.352281,0.98525673
C0C480,桃園,2023-08-23,24.992425,121.323172,0.9976802
C0C490,八德,2023-08-23,24.928708,121.283289,0.9984194
C0C590,觀音,2023-08-23,25.027072,121.153317,0.9914991
C0C620,蘆竹,2023-08-23,25.084275,121.265767,0.982688
C0C630,大溪,2023-08-23,24.882853,121.265547,0.99199134
C0C650,平鎮,2023-08-23,24.897503,121.214636,0.9960841
C0C660,楊梅,2023-08-23,24.912375,121.143047,0.9965968
C0C670,龍潭,2023-08-23,24.870056,121.221389,0.9922061
C0C680,龜山,2023-08-23,25.02846,121.38656,0.9991788
C0C700,中壢,2023-08-23,24.977661,121.256375,0.98865616
C0C710,大溪永福,2023-08-23,24.892936,121.324975,0.99868894
C0C720,竹圍,2023-08-23,25.112692,121.239824,0.98077327
C0C730,中大臨海站,2023-08-23,24.966126,121.008581,0.94652414
C0C740,觀音工業區,2023-08-23,25.064764,121.114856,0.9885927
C0C750,新興坑尾,2023-08-23,25.0061,121.0971,0.99414814
C0D430,峨眉,2023-08-23,24.6905,121.017189,0.9906401
C0D480,打鐵坑,2023-08-23,24.849664,121.150789,0.97877556
C0D540,橫山,2023-08-23,24.71116,121.11693,0.9992296
C0D560,竹東,2023-08-23,24.767147,121.057881,0.989193
C0D580,寶山,2023-08-23,24.735006,121.025192,0.9437452
C0D590,新豐,2023-08-23,24.87068,120.97721,0.8584223
C0D650,湖口,2023-08-23,24.904794,121.043628,0.9621077
C0D660,新竹市東區,2023-08-23,24.798681,120.986942,0.98653966
C0D670,海天一線,2023-08-23,24.831986,120.914438,0.9910642
C0D680,香山濕地,2023-08-23,24.783581,120.914988,0.9919114
C0D690,外湖,2023-08-23,24.917735,120.968711,0.94555527
C0D700,關西,2023-08-23,24.7977,121.1732,0.99657977
C0E420,竹南,2023-08-23,24.708978,120.888897,0.99371666
C0E430,南庄,2023-08-23,24.601775,121.000214,0.9967952
C0E520,大湖,2023-08-23,24.41494,120.87087,0.9948637
C0E540,後龍,2023-08-23,24.606489,120.783933,0.99899584
C0E550,明德,2023-08-23,24.583486,120.885411,0.9749252
C0E590,通霄,2023-08-23,24.471892,120.704622,0.9984195
C0E730,頭份,2023-08-23,24.688247,120.912206,0.99374235
C0E740,造橋,2023-08-23,24.637056,120.864778,0.9055902
C0E750,苗栗,2023-08-23,24.564569,120.824575,0.99917185
C0E780,銅鑼,2023-08-23,24.489681,120.790853,0.9697289
C0E791,卓蘭,2023-08-23,24.3126,120.8244,0.9995844
C0E810,西湖,2023-08-23,24.562947,120.7485,0.999135
C0E820,獅潭,2023-08-23,24.539133,120.920042,0.9910469
C0E830,苑裡,2023-08-23,24.439714,120.653053,0.9975842
C0E850,大河,2023-08-23,24.618069,120.948578,0.9884832
C0E870,高鐵苗栗,2023-08-23,24.60725,120.826094,0.9990305
C0E910,海埔,2023-08-23,24.648767,120.772435,0.933456
C0E920,通霄漁港,2023-08-23,24.498589,120.673876,0.9980895
C0E930,龍鳳,2023-08-23,24.700034,120.859125,0.88078576
C0F0B0,石岡,2023-08-23,24.276061,120.777644,0.99873847
C0F850,東勢,2023-08-23,24.246428,120.833047,0.99958503
C0F930,大甲,2023-08-23,24.347667,120.640403,0.9981281
C0F970,大坑,2023-08-23,24.173142,120.722289,0.99900186
C0F9A0,中竹林,2023-08-23,24.103556,120.751061,0.9988067
C0F9I0,神岡,2023-08-23,24.272481,120.658314,0.99512357
C0F9K0,大安,2023-08-23,24.345061,120.588025,0.9973723
C0F9L0,后里,2023-08-23,24.310436,120.729725,0.99792916
C0F9M0,豐原,2023-08-23,24.254322,120.720692,0.99724036
C0F9N0,大里,2023-08-23,24.092464,120.701378,0.99820215
C0F9O0,潭子,2023-08-23,24.213106,120.703933,0.9934361
C0F9P0,清水,2023-08-23,24.312297,120.562242,0.9972431
C0F9Q0,外埔,2023-08-23,24.347817,120.705686,0.9895232
C0F9R0,龍井,2023-08-23,24.184536,120.528972,0.9971642
C0F9S0,烏日,2023-08-23,24.107058,120.624103,0.99577045
C0F9T0,西屯,2023-08-23,24.179494,120.641275,0.99829674
C0F9U0,南屯,2023-08-23,24.137006,120.637969,0.998154
C0F9X0,大雅(中科園區),2023-08-23,24.21528,120.62445,0.9987376
C0FA10,松柏,2023-08-23,24.429115,120.617482,0.99734116
C0FA20,溫寮,2023-08-23,24.372177,120.583125,0.99736816
C0FA30,梧棲,2023-08-23,24.256003,120.523381,0.99706644
C0FA40,臺中電廠,2023-08-23,24.2146,120.4907,0.9971642
C0FA50,霧峰,2023-08-23,24.0419,120.6995,0.99861467
C0G620,芬園,2023-08-23,24.015678,120.6213,0.99689734
C0G640,鹿港,2023-08-23,24.0753,120.430481,0.99393284
C0G650,員林,2023-08-23,23.946503,120.585597,0.9965019
C0G660,溪湖,2023-08-23,23.94835,120.479122,0.9960147
C0G720,溪州,2023-08-23,23.851589,120.499093,0.9954218
C0G730,二林,2023-08-23,23.903325,120.376081,0.99427986
C0G740,大城,2023-08-23,23.852487,120.320935,0.09342342
C0G770,福興,2023-08-23,24.041289,120.437669,0.9942344
C0G780,秀水,2023-08-23,24.03405,120.503869,0.99488074
C0G800,埔鹽,2023-08-23,24.000394,120.431683,0.9944026
C0G810,埔心,2023-08-23,23.947633,120.525456,0.99610895
C0G820,田尾,2023-08-23,23.901669,120.509389,0.99623215
C0G830,埤頭,2023-08-23,23.866003,120.452806,0.9948113
C0G840,北斗,2023-08-23,23.877586,120.514222,0.99623215
C0G860,社頭,2023-08-23,23.897647,120.5862,0.9966338
C0G870,芳苑,2023-08-23,23.922303,120.320025,0.0903796
C0G880,二水,2023-08-23,23.810742,120.6173,0.99763334
C0G890,伸港,2023-08-23,24.148933,120.484403,0.9971549
C0G900,線西,2023-08-23,24.143358,120.443536,0.9970236
C0G910,花壇,2023-08-23,24.032076,120.549461,0.99523556
C0G920,永靖,2023-08-23,23.924703,120.547533,0.9962833
C0G940,竹塘,2023-08-23,23.848253,120.386764,0.9921512
C0G950,防潮門,2023-08-23,24.1835,120.4871,0.997064
C0G960,福寶,2023-08-23,24.0443,120.3814,0.9933043
C0G970,三豐,2023-08-23,23.882,120.2895,0.0903796
C0H890,埔里,2023-08-23,23.972169,120.952425,0.9995561
C0H950,中寮,2023-08-23,23.884447,120.766406,0.99928844
C0H960,草屯,2023-08-23,23.973672,120.68085,0.997691
C0I110,竹山,2023-08-23,23.761225,120.688156,0.9992156
C0I360,水里,2023-08-23,23.812553,120.849792,0.99984634
C0I380,集集,2023-08-23,23.828206,120.801467,0.9998304
C0I410,名間,2023-08-23,23.837053,120.701447,0.9982047
C0I420,國姓,2023-08-23,24.037803,120.855072,0.9986965
C0I460,南投,2023-08-23,23.911469,120.687331,0.9980256
C0K250,崙背,2023-08-23,23.75555,120.318925,0.108000316
C0K280,四湖,2023-08-23,23.630414,120.227125,0.10601482
C0K291,宜梧,2023-08-23,23.536281,120.169329,0.043874733
C0K330,虎尾,2023-08-23,23.719183,120.442036,0.992816
C0K390,土庫,2023-08-23,23.679029,120.395574,0.99227595
C0K400,斗六,2023-08-23,23.720583,120.541127,0.9982633
C0K410,北港,2023-08-23,23.573957,120.292802,0.04208008
C0K420,西螺,2023-08-23,23.800407,120.467394,0.9949256
C0K430,褒忠,2023-08-23,23.690938,120.303634,0.09292718
C0K440,二崙,2023-08-23,23.772797,120.408944,0.9928841
C0K450,大埤,2023-08-23,23.646074,120.431537,0.99218374
C0K460,斗南,2023-08-23,23.678734,120.478359,0.9956154
C0K470,林內,2023-08-23,23.748675,120.609642,0.99773926
C0K480,莿桐,2023-08-23,23.761192,120.502372,0.9957723
C0K500,元長,2023-08-23,23.64981,120.315024,0.104408704
C0K510,水林,2023-08-23,23.572924,120.24597,0.045509566
C0K530,臺西,2023-08-23,23.701547,120.197559,0.09638275
C0K550,蔦松,2023-08-23,23.514319,120.229736,0.0444067
C0K560,棋山,2023-08-23,23.68645,120.603417,0.99819255
C0K580,高鐵雲林,2023-08-23,23.737456,120.417944,0.992437
C0K590,雲林東勢,2023-08-23,23.674192,120.255721,0.09158933
C0K600,箔子寮,2023-08-23,23.6197,120.14,0.046440784
C0M410,馬頭山,2023-08-23,23.324361,120.582017,0.99985445
C0M520,東後寮,2023-08-23,23.369908,120.248065,0.029171458
C0M640,中埔,2023-08-23,23.42538,120.5229,0.99866134
C0M650,朴子,2023-08-23,23.43463,120.23902,0.045082673
C0M660,溪口,2023-08-23,23.604131,120.403569,0.12256647
C0M670,大林,2023-08-23,23.600616,120.45841,0.17298701
C0M680,太保,2023-08-23,23.455062,120.331455,0.04112249
C0M690,水上,2023-08-23,23.419734,120.388909,0.19295077
C0M700,竹崎,2023-08-23,23.526178,120.555508,0.9992285
C0M710,東石,2023-08-23,23.458927,120.15385,0.04868493
C0M720,番路,2023-08-23,23.464657,120.554156,0.9995094
C0M730,嘉義市東區,2023-08-23,23.457673,120.460531,0.23093148
C0M740,六腳,2023-08-23,23.492871,120.290625,0.040109415
C0M750,布袋,2023-08-23,23.380878,120.167789,0.04580541
C0M760,民雄,2023-08-23,23.551754,120.428457,0.13052304
C0M770,嘉義梅山,2023-08-23,23.585398,120.555587,0.99841636
C0M780,鹿草,2023-08-23,23.41134,120.30835,0.04974589
C0M790,新港,2023-08-23,23.553269,120.345728,0.043082926
C0M800,茶山,2023-08-23,23.299075,120.664767,0.99947554
C0M880,好美里,2023-08-23,23.3364,120.138,0.03453973
C0N010,鯤鯓國小,2023-08-23,23.1879,120.0889,0.05243986
C0N020,城西,2023-08-23,23.0568,120.0956,0.028549124
C0N030,四草,2023-08-23,23.0235,120.1116,0.025806177
C0N040,蘆竹溝,2023-08-23,23.2344,120.0961,0.050478343
C0N050,蚵寮,2023-08-23,23.301,120.1104,0.051812157
C0O810,曾文,2023-08-23,23.219681,120.497328,0.20348035
C0O830,北寮,2023-08-23,23.079561,120.495008,0.9978875
C0O840,王爺宮,2023-08-23,23.222064,120.40085,0.25363982
C0O860,大內,2023-08-23,23.11885,120.36083,0.019052593
C0O900,善化,2023-08-23,23.112883,120.297219,0.014760457
C0O930,玉井,2023-08-23,23.126042,120.46055,0.13293438
C0O950,安南,2023-08-23,23.076694,120.144861,0.0143511
C0O960,崎頂,2023-08-23,22.959547,120.369317,0.9980104
C0O970,虎頭埤,2023-08-23,23.021375,120.347878,0.03880553
C0O980,新市,2023-08-23,23.061614,120.298197,0.01476912
C0O990,媽廟,2023-08-23,22.99175,120.293525,0.014569757
C0R150,三地門,2023-08-23,22.709889,120.639944,0.81492853
C0R160,鹽埔,2023-08-23,22.739558,120.530778,0.8522416
C0R170,屏東,2023-08-23,22.660269,120.494072,0.010455885
C0R190,赤山,2023-08-23,22.592333,120.614306,0.82865787
C0R220,潮州,2023-08-23,22.534361,120.54,0.88148874
C0R240,來義,2023-08-23,22.527306,120.625111,0.87603384
C0R260,春日,2023-08-23,22.370361,120.628306,0.8944921
C0R270,琉球嶼,2023-08-23,22.332244,120.362236,0.8495119
C0R280,檳榔,2023-08-23,22.076078,120.836777,0.99545205
C0R320,車城,2023-08-23,22.0744,120.716247,0.90042937
C0R341,牡丹,2023-08-23,22.130036,120.792639,0.9180938
C0R350,貓鼻頭,2023-08-23,21.921774,120.7358,0.9390562
C0R470,高樹,2023-08-23,22.826389,120.600806,0.8741145
C0R480,長治,2023-08-23,22.693128,120.542622,0.854739
C0R490,九如,2023-08-23,22.7405,120.490503,0.010443258
C0R520,崁頂,2023-08-23,22.514781,120.506914,0.011845946
C0R540,佳冬,2023-08-23,22.419456,120.552375,0.012318655
C0R550,新埤,2023-08-23,22.467947,120.582894,0.87644994
C0R560,新園,2023-08-23,22.5434,120.461558,0.011683936
C0R570,麟洛,2023-08-23,22.65078,120.52719,0.010489403
C0R580,南州,2023-08-23,22.48591,120.50274,0.011783844
C0R590,里港,2023-08-23,22.77919,120.49459,0.85144925
C0R620,墾雷,2023-08-23,21.900836,120.855269,0.939449
C0R640,東港,2023-08-23,22.46247,120.44074,0.012297984
C0R650,竹田,2023-08-23,22.58486,120.54344,0.8486176
C0R660,枋寮,2023-08-23,22.367722,120.590647,0.920917
C0R670,楓港,2023-08-23,22.190131,120.692156,0.8398707
C0R680,佳樂水,2023-08-23,21.993578,120.861633,0.9208267
C0R690,墾丁,2023-08-23,21.966756,120.810269,0.99539137
C0R700,枋山,2023-08-23,22.246844,120.661086,0.84204465
C0R710,龍磐,2023-08-23,21.931672,120.838942,0.98516303
C0R720,旭海,2023-08-23,22.205403,120.887614,0.9806039
C0R730,大坪頂,2023-08-23,22.024633,120.69355,0.9880453
C0R740,獅子,2023-08-23,22.201569,120.70525,0.866164
C0R760,南仁湖,2023-08-23,22.084681,120.863353,0.9964968
C0R770,保力,2023-08-23,22.071122,120.764111,0.97250754
C0R780,滿州,2023-08-23,22.024403,120.839892,0.9470434
C0R790,九棚,2023-08-23,22.14195,120.889281,0.96704346
C0R800,丹路,2023-08-23,22.204481,120.750989,0.8990163
C0R810,內獅,2023-08-23,22.305064,120.642986,0.8266382
C0R830,高士,2023-08-23,22.121825,120.836781,0.99756783
C0R850,林邊,2023-08-23,22.4634,120.5339,0.011913479
C0R860,鼻頭,2023-08-23,22.1043,120.8979,0.9984154
C0R870,興海,2023-08-23,21.9752,120.8439,0.9208267
C0R880,後壁湖,2023-08-23,21.9457,120.7457,0.889575
C0R890,山海,2023-08-23,21.9878,120.7091,0.9000292
C0R900,竹坑,2023-08-23,22.1385,120.7022,0.8890144
C0R910,下寮,2023-08-23,22.3929,120.5548,0.012318655
C0R920,塭仔,2023-08-23,22.4169,120.5197,0.012760384
C0R930,萬丹,2023-08-23,22.5885,120.4851,0.84949934
C0R940,加祿堂,2023-08-23,22.3363,120.6217,0.86685896
C0S710,鹿野,2023-08-23,22.917711,121.122994,0.99572784
C0S730,綠島,2023-08-23,22.6672,121.47533,0.08557756
C0S740,池上,2023-08-23,23.119628,121.209469,0.96640515
C0S770,大溪山,2023-08-23,22.478475,120.943325,0.9911544
C0S790,金崙,2023-08-23,22.538122,120.966875,0.93079257
C0S810,東河,2023-08-23,22.972672,121.303986,0.07948221
C0S830,長濱,2023-08-23,23.286817,121.411975,0.6699944
C0S840,南田,2023-08-23,22.279725,120.889208,0.7726104
C0S890,關山,2023-08-23,23.0395,121.175017,0.9474275
C0S900,蘭嶼高中,2023-08-23,22.04909,121.51214,0.9994465
C0S910,蘭嶼燈塔,2023-08-23,22.081197,121.503117,0.9993046
C0S920,金峰嘉蘭,2023-08-23,22.594789,120.960825,0.74213433
C0S930,延平,2023-08-23,22.902581,121.084058,0.52215546
C0S940,石寧山,2023-08-23,23.223772,121.406639,0.15232798
C0S950,七塊厝,2023-08-23,22.954453,121.229922,0.92388433
C0S960,香蘭,2023-08-23,22.587569,120.993375,0.6278205
C0S970,加津林,2023-08-23,22.416211,120.926942,0.59097445
C0S990,山豬窟,2023-08-23,22.318619,120.857372,0.9931589
C0SA00,歷坵,2023-08-23,22.520969,120.89185,0.99215686
C0SA10,檳榔四格山,2023-08-23,22.810031,121.109308,0.992801
C0SA30,都歷,2023-08-23,23.020333,121.323642,0.13054924
C0SA40,瑞和,2023-08-23,22.974361,121.156697,0.6047101
C0SA60,知本（水試所）,2023-08-23,22.702394,121.082761,0.6483476
C0SA80,土坂,2023-08-23,22.453108,120.887572,0.8373924
C0SA90,達仁林場,2023-08-23,22.264347,120.823972,0.9898611
C0T870,鯉魚潭,2023-08-23,23.935639,121.508944,0.00734752
C0T900,西林,2023-08-23,23.8119,121.441458,0.007652523
C0T960,光復,2023-08-23,23.660694,121.424964,0.008231733
C0T9A0,月眉山,2023-08-23,23.809928,121.539828,0.007840007
C0T9D0,和中,2023-08-23,24.26676,121.74103,0.010591235
C0T9E0,大坑,2023-08-23,23.880628,121.581981,0.008017449
C0T9F0,水璉,2023-08-23,23.797131,121.542514,0.0076734917
C0T9I0,豐濱,2023-08-23,23.583897,121.514806,0.007480514
C0T9M0,靜浦,2023-08-23,23.455167,121.495028,0.007953871
C0T9N0,富里,2023-08-23,23.171639,121.249378,0.90981066
C0U600,礁溪,2023-08-23,24.817539,121.765608,0.21751076
C0U650,玉蘭,2023-08-23,24.675286,121.587061,0.011491708
C0U750,龜山島,2023-08-23,24.841667,121.953133,0.06654278
C0U760,東澳,2023-08-23,24.52196,121.83318,0.018084485
C0U770,南澳,2023-08-23,24.44935,121.81022,0.015691338
C0U780,五結,2023-08-23,24.68637,121.79794,0.21537298
C0U860,頭城,2023-08-23,24.85323,121.8308,0.21093345
C0U870,大礁溪,2023-08-23,24.791042,121.675047,0.061255567
C0U880,北關,2023-08-23,24.9072,121.8734,0.97471106
C0U890,三星,2023-08-23,24.66812,121.65302,0.28528967
C0U900,內城,2023-08-23,24.71813,121.68766,0.23636816
C0U910,冬山,2023-08-23,24.63373,121.7937,0.21114379
C0U940,羅東,2023-08-23,24.68184,121.74934,0.21832234
C0U970,大福,2023-08-23,24.80064,121.81389,0.22481999
C0U990,員山,2023-08-23,24.74435,121.72247,0.22507964
C0UA00,土場,2023-08-23,24.576533,121.495333,0.034270942
C0UA80,大溪漁港,2023-08-23,24.941801,121.902955,0.20019592
C0UA90,石城,2023-08-23,24.980444,121.951214,0.24650243
C0UB00,淡江大學蘭陽校園,2023-08-23,24.823239,121.730383,0.07316952
C0UB10,蘇澳,2023-08-23,24.5969,121.8571,0.024972634
C0UB20,壯圍,2023-08-23,24.7359,121.8163,0.21472995
C0V250,甲仙,2023-08-23,23.080106,120.591758,0.99878144
C0V260,月眉,2023-08-23,22.971003,120.539853,0.99763757
C0V310,美濃,2023-08-23,22.898742,120.519153,0.054418102
C0V350,溪埔,2023-08-23,22.738578,120.446797,0.011134944
C0V360,內門,2023-08-23,22.975481,120.466769,0.098631166
C0V370,古亭坑,2023-08-23,22.893178,120.401947,0.05514365
C0V400,阿公店,2023-08-23,22.804194,120.355528,0.011373209
C0V440,鳳山,2023-08-23,22.646653,120.356122,0.011323406
C0V450,鳳森,2023-08-23,22.545064,120.392592,0.9207905
C0V490,新興,2023-08-23,22.627422,120.298803,0.0114764
C0V530,阿蓮,2023-08-23,22.883208,120.327508,0.013711005
C0V610,梓官,2023-08-23,22.760558,120.267211,0.011544826
C0V620,永安,2023-08-23,22.82315,120.236856,0.011205223
C0V630,茄萣,2023-08-23,22.906642,120.182608,0.013183874
C0V640,湖內,2023-08-23,22.887139,120.2445,0.013117506
C0V650,彌陀,2023-08-23,22.783806,120.246361,0.011205223
C0V660,岡山,2023-08-23,22.797078,120.294958,0.011384565
C0V680,仁武,2023-08-23,22.701083,120.347722,0.011164158
C0V690,鼓山,2023-08-23,22.623325,120.275575,0.012386251
C0V700,三民,2023-08-23,22.645017,120.311233,0.0114764
C0V710,苓雅,2023-08-23,22.622742,120.330669,0.01174511
C0V720,林園,2023-08-23,22.507747,120.394511,0.012134881
C0V730,大寮,2023-08-23,22.605614,120.395717,0.87808573
C0V740,旗山,2023-08-23,22.888614,120.483597,0.057256397
C0V750,路竹,2023-08-23,22.854997,120.259439,0.01110438
C0V760,橋頭,2023-08-23,22.757806,120.30575,0.011469181
C0V770,大社,2023-08-23,22.730306,120.346639,0.01123499
C0V790,萬山,2023-08-23,22.905944,120.688056,0.9994782
C0V800,六龜,2023-08-23,22.997889,120.633583,0.99796575
C0V810,左營,2023-08-23,22.67491,120.28491,0.011367532
C0V820,小林,2023-08-23,23.148408,120.63325,0.9994756
C0V840,鳳鼻頭,2023-08-23,22.5083,120.3591,0.012061351
C0V850,蚵仔寮,2023-08-23,22.7256,120.2527,0.011302042
C0V860,南寮,2023-08-23,22.7616,120.2339,0.011240517
C0V870,文安,2023-08-23,22.8025,120.2164,0.011299186
C0V880,興達,2023-08-23,22.8778,120.2127,0.013183874
C0V890,前鎮,2023-08-23,22.5718,120.3117,0.012140918
C0V900,汕尾,2023-08-23,22.4782,120.4151,0.0112708025
C0X050,東河,2023-08-23,23.296598,120.385608,0.09071826
C0X060,下營,2023-08-23,23.22695,120.256261,0.038242176
C0X080,佳里,2023-08-23,23.173039,120.145086,0.030885778
C0X100,臺南市北區,2023-08-23,23.010394,120.194228,0.014011648
C0X110,臺南市南區,2023-08-23,22.961189,120.188378,0.014029049
C0X120,麻豆,2023-08-23,23.183289,120.248611,0.033307616
C0X130,官田,2023-08-23,23.193217,120.315422,0.041334126
C0X140,西港,2023-08-23,23.125608,120.203108,0.030476458
C0X150,安定,2023-08-23,23.102614,120.227839,0.014794184
C0X160,仁德,2023-08-23,22.968258,120.257689,0.014245415
C0X170,關廟,2023-08-23,22.963017,120.327797,0.015282419
C0X180,山上,2023-08-23,23.0757,120.363253,0.09270308
C0X190,安平,2023-08-23,22.993161,120.152181,0.014344451
C0X200,左鎮,2023-08-23,23.056758,120.408522,0.090294644
C0X210,白河,2023-08-23,23.347466,120.414427,0.09514357
C0X220,學甲,2023-08-23,23.230367,120.182187,0.032588053
C0X230,鹽水,2023-08-23,23.272621,120.247641,0.032310136
C0X240,關子嶺,2023-08-23,23.331169,120.508025,0.99956083
C0X250,新營,2023-08-23,23.310689,120.316681,0.03402442
C0X260,後壁,2023-08-23,23.366358,120.362326,0.0538999
C0X280,將軍,2023-08-23,23.214999,120.13577,0.03139745
C0X290,北門,2023-08-23,23.267772,120.125481,0.032575037
C0X300,鹿寮,2023-08-23,23.386047,120.477331,0.9979084
C0X310,七股,2023-08-23,23.147289,120.086253,0.04512143
C0X320,柳營,2023-08-23,23.253328,120.375253,0.09052467
C0Z020,明里,2023-08-23,23.208717,121.262342,0.63241076
C0Z061,玉里,2023-08-23,23.3215,121.339656,0.99951077
C0Z070,舞鶴,2023-08-23,23.46811,121.37407,0.008882892
C0Z080,富源,2023-08-23,23.587642,121.378225,0.0072464314
C0Z100,東華,2023-08-23,23.89525,121.549833,0.008116148
C0Z150,吉安光華,2023-08-23,23.930925,121.595153,0.008719636
C0Z160,鳳林,2023-08-23,23.746114,121.453411,0.007950633
C0Z170,卓溪,2023-08-23,23.3443,121.3029,0.99940497
C0Z180,新城,2023-08-23,24.03946,121.60454,0.008841946
C0Z190,富世,2023-08-23,24.14743,121.6297,0.012758642
C0Z200,萬榮,2023-08-23,23.709219,121.420106,0.008064658
C0Z210,瑞穗,2023-08-23,23.5239,121.39021,0.007831324
C0Z230,和平,2023-08-23,24.30717,121.77007,0.010183313
C0Z270,蕃薯寮,2023-08-23,23.73835,121.540108,0.007295232
C0Z280,德武,2023-08-23,23.47426,121.41071,0.007444091
C0Z300,東里,2023-08-23,23.26853,121.30547,0.6117856
C0Z310,清水斷崖,2023-08-23,24.218294,121.689142,0.010992949
C0Z330,安通山,2023-08-23,23.290728,121.348528,0.9923534
