站號,站名,日期,lat,lon,BlastGRU-TW
466881,新北,2023-06-04,24.9593,121.52,0.24747047
466900,淡水,2023-06-04,25.164889,121.448906,0.25498992
466920,臺北,2023-06-04,25.037658,121.514853,0.21606646
467441,高雄,2023-06-04,22.7304,120.3125,0.13946053
467480,嘉義,2023-06-04,23.495925,120.432906,0.9020476
467490,臺中,2023-06-04,24.145736,120.684075,0.9870106
C0A540,四堵,2023-06-04,24.8926,121.745736,0.9349794
C0A550,泰平,2023-06-04,24.971197,121.823711,0.98551804
C0A560,福山,2023-06-04,24.776203,121.502811,0.9824553
C0A931,三和,2023-06-04,25.233153,121.595236,0.97591066
C0A940,金山,2023-06-04,25.223628,121.643967,0.41673976
C0A950,鼻頭角,2023-06-04,25.129036,121.923372,0.9461737
C0AD10,八里,2023-06-04,25.150211,121.403947,0.25499034
C0AD30,蘆洲,2023-06-04,25.086594,121.472331,0.23999465
C0AD40,土城,2023-06-04,24.973208,121.445169,0.2544707
C0AI10,屈尺,2023-06-04,24.92184,121.54475,0.3070097
C0AI20,白沙灣,2023-06-04,25.283128,121.519058,0.3731733
C0AI30,三重,2023-06-04,25.057328,121.500629,0.23999465
C0B010,七堵,2023-06-04,25.094819,121.71713,0.31292996
C0B020,基隆嶼,2023-06-04,25.19141,121.78391,0.27689508
