站號,站名,日期,lat,lon,BLBTSLS
C0R710,龍磐,2023-02-26,21.931672,120.838942,0.85112125
C1F9D1,白毛台,2023-02-26,24.158325,120.886933,3.8954923e-10
C0G940,竹塘,2023-02-26,23.848253,120.386764,5.3510717e-05
467590,恆春,2023-02-26,22.003897,120.746339,0.99208915
C1O850,環湖,2023-02-26,23.148617,120.418633,0.0026234589
C0U710,太平山,2023-02-26,24.505486,121.525656,3.1065305e-08
C0E820,獅潭,2023-02-26,24.539133,120.920042,2.9327718e-09
C0V880,興達,2023-02-26,22.8778,120.2127,1.0813297e-08
C0S890,關山,2023-02-26,23.0395,121.175017,6.2189294e-09
K2F750,種苗繁殖,2023-02-26,24.225972,120.800917,3.6482073e-10
C1Z130,銅門,2023-02-26,23.965694,121.492842,8.580543e-09
C0AD40,土城,2023-02-26,24.973208,121.445169,3.5044383e-07
CAN140,六官養殖協會,2023-02-26,23.22881,120.29962,0.00235937
C0X180,山上,2023-02-26,23.0757,120.363253,0.28553405
C0F9Z0,雪山東峰,2023-02-26,24.388792,121.268675,1.1123295e-08
C1M480,獨立山,2023-02-26,23.537022,120.607797,8.8576435e-10
C0X220,學甲,2023-02-26,23.230367,120.182187,2.0045533e-07
C0R170,屏東,2023-02-26,22.660269,120.494072,1.2351899e-07
467650,日月潭,2023-02-26,23.881325,120.90805,2.2124342e-09
C0K600,箔子寮,2023-02-26,23.6197,120.14,8.2283e-06
C0G830,埤頭,2023-02-26,23.866003,120.452806,6.5923297e-07
C0S950,七塊厝,2023-02-26,22.954453,121.229922,7.910318e-09
467110,金門,2023-02-26,24.407306,118.289281,6.2393264e-07
C0AH80,深坑,2023-02-26,25.002703,121.628328,3.017772e-07
467990,馬祖,2023-02-26,26.169269,119.923419,1.2168699e-06
C0A970,三貂角,2023-02-26,25.007606,122.002058,1.9035497e-08
C0K430,褒忠,2023-02-26,23.690938,120.303634,5.5068267e-07
467480,嘉義,2023-02-26,23.495925,120.432906,0.003918494
C2E540,後龍,2023-02-26,24.606489,120.783933,0.004196525
C0V400,阿公店,2023-02-26,22.804194,120.355528,1.9706691e-05
C0R440,大漢山,2023-02-26,22.405264,120.753181,8.0282874e-08
C0K280,四湖,2023-02-26,23.630414,120.227125,8.013561e-05
C1F9B1,桐林,2023-02-26,24.066172,120.735194,1.8201729e-09
C0K390,土庫,2023-02-26,23.679029,120.395574,1.3535787e-06
C1I450,望鄉山,2023-02-26,23.594153,120.944286,9.556964e-09
C0E910,海埔,2023-02-26,24.648767,120.772435,0.004725879
B2E890,畜試北區分所,2023-02-26,24.527806,120.770972,1.5262374e-08
C0R750,四林格山,2023-02-26,22.076989,120.802439,0.0008759666
C0F0C0,中坑,2023-02-26,24.248517,120.903319,1.1823214e-09
C1I121,大鞍,2023-02-26,23.678381,120.760017,1.7158412e-08
72U480,花改蘭陽分場,2023-02-26,24.686306,121.716583,2.846598e-09
C0A770,科教館,2023-02-26,25.096356,121.516507,2.0371537e-07
C0AJ60,六塊厝,2023-02-26,25.24,121.4481,6.761778e-05
C0R620,墾雷,2023-02-26,21.900836,120.855269,0.98801714
467420,永康,2023-02-26,23.038386,120.2367,3.1407978e-07
467300,東吉島,2023-02-26,23.25695,119.667467,0.99687296
C0I410,名間,2023-02-26,23.837053,120.701447,1.2433121e-08
A2C560,農工中心,2023-02-26,24.985917,121.239833,3.5830635e-05
C0V740,旗山,2023-02-26,22.888614,120.483597,3.708533e-08
C0Z061,玉里,2023-02-26,23.3215,121.339656,2.5941322e-09
C0S840,南田,2023-02-26,22.279725,120.889208,0.996292
C1I470,杉林溪,2023-02-26,23.639517,120.786444,1.890293e-08
C1X040,東原,2023-02-26,23.291597,120.463822,4.4245585e-09
C0R660,枋寮,2023-02-26,22.367722,120.590647,0.9988311
C1R120,上德文,2023-02-26,22.763272,120.704442,1.9886488e-09
C0K450,大埤,2023-02-26,23.646074,120.431537,1.6861797e-05
C0UA00,土場,2023-02-26,24.576533,121.495333,1.5428975e-08
467080,宜蘭,2023-02-26,24.763975,121.756528,6.993224e-09
C0N030,四草,2023-02-26,23.0235,120.1116,6.351904e-08
C0V650,彌陀,2023-02-26,22.783806,120.246361,2.302807e-06
C0D660,新竹市東區,2023-02-26,24.798681,120.986942,0.22391418
82S580,茶改東部分場,2023-02-26,22.907694,121.130139,5.2612205e-07
C0C710,大溪永福,2023-02-26,24.892936,121.324975,2.6791138e-06
C0FA20,溫寮,2023-02-26,24.372177,120.583125,8.1335456e-05
C0V640,湖內,2023-02-26,22.887139,120.2445,9.721287e-09
C0R910,下寮,2023-02-26,22.3929,120.5548,0.9988311
C0Z020,明里,2023-02-26,23.208717,121.262342,4.3045647e-09
C0M770,嘉義梅山,2023-02-26,23.585398,120.555587,4.0131337e-05
G2F820,農業試驗所,2023-02-26,24.031261,120.688133,6.0023533e-09
C0C660,楊梅,2023-02-26,24.912375,121.143047,1.7897904e-05
C1E511,新開,2023-02-26,24.347703,120.827019,8.787556e-10
G2F820,農試所(霧峰),2023-02-26,24.031261,120.688133,6.0023533e-09
C1I070,和社,2023-02-26,23.591131,120.888861,1.0496752e-08
C2F000,大肚,2023-02-26,24.15295,120.572117,1.425616e-09
C1S850,豐南,2023-02-26,23.122139,121.262389,5.007221e-09
C2A920,富貴角,2023-02-26,25.263783,121.565258,3.0771885e-06
CAH030,茶改場竹圍站,2023-02-26,23.860083,120.637528,4.0116888e-10
C0T960,光復,2023-02-26,23.660694,121.424964,5.1405524e-09
C0F9M0,豐原,2023-02-26,24.254322,120.720692,6.0048927e-10
C0R720,旭海,2023-02-26,22.205403,120.887614,0.9993592
C0V710,苓雅,2023-02-26,22.622742,120.330669,4.149708e-06
C0C740,觀音工業區,2023-02-26,25.064764,121.114856,0.98364985
CAC040,拉拉山,2023-02-26,24.699317,121.427133,5.3728886e-08
C0V790,萬山,2023-02-26,22.905944,120.688056,4.6669296e-10
U2HA30,臺大和社,2023-02-26,23.590856,120.888864,1.0496752e-08
C0AJ90,澳底,2023-02-26,25.0552,121.9253,2.2444108e-07
C0Z100,東華,2023-02-26,23.89525,121.549833,4.040927e-09
C0G970,三豐,2023-02-26,23.882,120.2895,0.008971326
V2K610,大庄合作社,2023-02-26,23.8068,120.367939,1.0473813e-06
C0V900,汕尾,2023-02-26,22.4782,120.4151,2.6818175e-10
C1R630,龍泉,2023-02-26,22.66701,120.59091,7.723402e-10
C1AC50,關渡,2023-02-26,25.133486,121.469331,1.0185531e-07
C0F9I0,神岡,2023-02-26,24.272481,120.658314,1.5479844e-09
C0K460,斗南,2023-02-26,23.678734,120.478359,1.2554433e-05
467410,臺南,2023-02-26,22.993239,120.204772,4.4028322e-08
C2O810,曾文,2023-02-26,23.219681,120.497328,2.377335e-07
467280,後龍,2023-02-26,24.648563,120.831834,0.0023212635
C1F9J1,清水林,2023-02-26,24.071242,120.820419,4.7301174e-10
C2A650,火燒寮,2023-02-26,25.002719,121.742892,1.8016088e-08
466930,竹子湖,2023-02-26,25.162078,121.544547,2.6704171e-08
C1I220,樟湖,2023-02-26,23.905333,120.846983,2.1513127e-09
C0I390,仁愛,2023-02-26,24.022122,121.132206,9.442825e-10
C0Z300,東里,2023-02-26,23.26853,121.30547,3.9941153e-09
C0V310,美濃,2023-02-26,22.898742,120.519153,4.3429143e-08
C1V590,新發,2023-02-26,23.057019,120.646064,1.7079613e-09
C0K510,水林,2023-02-26,23.572924,120.24597,2.3334048e-06
72S590,東改賓朗果園,2023-02-26,22.813889,121.071278,0.00013204235
82A750,茶改北部分場,2023-02-26,24.955778,121.631222,7.027913e-08
C1A750,石碇服務區,2023-02-26,25.00872,121.646242,1.2274913e-07
C0X300,鹿寮,2023-02-26,23.386047,120.477331,0.00023771482
G2AI50,關渡,2023-02-26,25.11575,121.492,7.252265e-06
C0K590,雲林東勢,2023-02-26,23.674192,120.255721,5.526134e-07
C0A570,桶後,2023-02-26,24.848222,121.597992,1.3909146e-08
C1S800,華源,2023-02-26,22.657883,121.02325,7.321054e-09
C0G720,溪州,2023-02-26,23.851589,120.499093,5.464243e-07
C1V160,達卡努瓦,2023-02-26,23.279811,120.705319,3.9380694e-09
C2M410,馬頭山,2023-02-26,23.324361,120.582017,2.7773333e-09
C0V850,蚵仔寮,2023-02-26,22.7256,120.2527,1.7849785e-05
C0S740,池上,2023-02-26,23.119628,121.209469,2.1391205e-08
C1V390,尖山,2023-02-26,22.813153,120.367789,1.0020543e-05
C0AH70,松山,2023-02-26,25.04871,121.55042,1.9491154e-07
C0N010,鯤鯓國小,2023-02-26,23.1879,120.0889,9.368505e-09
C0R550,新埤,2023-02-26,22.467947,120.582894,2.6866045e-10
C0SA60,知本（水試所）,2023-02-26,22.702394,121.082761,8.346232e-09
C0T9I0,豐濱,2023-02-26,23.583897,121.514806,3.5448047e-09
C0UB00,淡江大學蘭陽校園,2023-02-26,24.823239,121.730383,1.4374311e-08
C0T9N0,富里,2023-02-26,23.171639,121.249378,1.2985117e-08
U2HA50,臺大竹山,2023-02-26,23.756972,120.681556,0.0002280831
C0V840,鳳鼻頭,2023-02-26,22.5083,120.3591,1.0098301e-09
C0X140,西港,2023-02-26,23.125608,120.203108,3.8081832e-06
72D080,桃改五峰分場,2023-02-26,24.612194,121.157167,5.842924e-09
C0V530,阿蓮,2023-02-26,22.883208,120.327508,4.1119724e-06
C1O880,關山,2023-02-26,23.173397,120.594092,2.9893095e-09
C0E791,卓蘭,2023-02-26,24.3126,120.8244,6.833373e-10
C1I030,武界,2023-02-26,23.913225,121.052483,1.3240865e-09
C0R520,崁頂,2023-02-26,22.514781,120.506914,4.6469525e-10
C0R341,牡丹,2023-02-26,22.130036,120.792639,0.9995525
C0R930,萬丹,2023-02-26,22.5885,120.4851,4.1389903e-08
C0S760,紅石,2023-02-26,23.069131,121.126219,1.9221275e-08
C1M610,石磐龍,2023-02-26,23.496606,120.663506,3.7629393e-09
C0UA10,鴛鴦湖,2023-02-26,24.590269,121.412228,2.3049608e-08
V2C260,八德蔬果,2023-02-26,24.978508,121.281819,2.8152397e-06
C0R800,丹路,2023-02-26,22.204481,120.750989,0.9993955
C0G920,永靖,2023-02-26,23.924703,120.547533,1.6776616e-07
C1A630,下盆,2023-02-26,24.771003,121.538622,1.1474088e-08
B2N890,畜產試驗所,2023-02-26,23.058972,120.336406,3.83451e-06
C0UA30,白嶺,2023-02-26,24.527819,121.519031,2.1327489e-08
C1V580,溪南(特生中心),2023-02-26,23.084972,120.788475,6.959559e-09
C1T970,大農,2023-02-26,23.615233,121.413331,3.773526e-09
E2S960,林試太麻里2,2023-02-26,22.598014,120.989761,1.9626118e-08
C0R650,竹田,2023-02-26,22.58486,120.54344,1.0126674e-09
C1H900,清流,2023-02-26,24.080775,120.962997,6.680606e-10
C1C510,水尾,2023-02-26,24.940081,121.087161,0.38063073
C0F9X0,大雅(中科園區),2023-02-26,24.21528,120.62445,4.937957e-09
C0O970,虎頭埤,2023-02-26,23.021375,120.347878,0.0013336753
C0C730,中大臨海站,2023-02-26,24.966126,121.008581,0.98075604
C0X250,新營,2023-02-26,23.310689,120.316681,0.007926271
C0V700,三民,2023-02-26,22.645017,120.311233,1.9811958e-07
C0U870,大礁溪,2023-02-26,24.791042,121.675047,1.09268505e-08
C0E870,高鐵苗栗,2023-02-26,24.60725,120.826094,0.0028763944
A2K570,古坑花卉中心,2023-02-26,23.63353,120.55239,0.0001808623
C0M860,新美,2023-02-26,23.338017,120.683169,5.0743465e-10
C1E701,八卦,2023-02-26,24.491756,120.927619,3.3894123e-09
C0I420,國姓,2023-02-26,24.037803,120.855072,3.7983935e-10
C0S960,香蘭,2023-02-26,22.587569,120.993375,1.9626118e-08
C0R260,春日,2023-02-26,22.370361,120.628306,0.9985246
72G600,臺中農改場,2023-02-26,24.003028,120.534389,3.288588e-07
C0Z210,瑞穗,2023-02-26,23.5239,121.39021,3.1364524e-09
C0M820,達邦,2023-02-26,23.453994,120.749517,1.8237314e-09
C0V860,南寮,2023-02-26,22.7616,120.2339,1.7849785e-05
C0G740,大城,2023-02-26,23.852487,120.320935,0.0061717317
C0R920,塭仔,2023-02-26,22.4169,120.5197,0.99883634
C0R470,高樹,2023-02-26,22.826389,120.600806,1.5085657e-08
C0R680,佳樂水,2023-02-26,21.993578,120.861633,0.13365428
C1O870,大棟山,2023-02-26,23.31157,120.52226,1.4329191e-09
C0D360,梅花,2023-02-26,24.678347,121.208558,1.7345544e-08
C0Z190,富世,2023-02-26,24.14743,121.6297,2.2120386e-08
C0AI10,屈尺,2023-02-26,24.92184,121.54475,8.685606e-07
B2U990,畜試東區分所,2023-02-26,24.669039,121.832561,2.91397e-09
C0R240,來義,2023-02-26,22.527306,120.625111,4.4168239e-10
C1R610,西大武山,2023-02-26,22.617719,120.7322,3.863442e-08
C0G900,線西,2023-02-26,24.143358,120.443536,0.0011917005
C0M700,竹崎,2023-02-26,23.526178,120.555508,0.00016707489
C2E880,三義,2023-02-26,24.405478,120.749819,1.4303742e-09
C0C720,竹圍,2023-02-26,25.112692,121.239824,7.2563676e-06
C0F9P0,清水,2023-02-26,24.312297,120.562242,0.00023097445
C0Z150,吉安光華,2023-02-26,23.930925,121.595153,8.88157e-09
C1D640,外坪(五指山),2023-02-26,24.644447,121.090961,2.9415728e-09
C0F9O0,潭子,2023-02-26,24.213106,120.703933,8.844796e-10
72T250,花蓮農改場,2023-02-26,23.975222,121.563889,8.5002405e-08
C0E780,銅鑼,2023-02-26,24.489681,120.790853,1.1285539e-08
C1T950,太安,2023-02-26,23.666719,121.370128,1.8221051e-08
C0E830,苑裡,2023-02-26,24.439714,120.653053,0.027641177
467270,田中,2023-02-26,23.873803,120.581286,2.2225518e-06
C0SA10,檳榔四格山,2023-02-26,22.810031,121.109308,6.6312045e-06
C1T830,布洛灣,2023-02-26,24.17184,121.57127,1.3098723e-08
C0F970,大坑,2023-02-26,24.173142,120.722289,2.2076119e-09
C1U920,思源,2023-02-26,24.393125,121.347214,2.0240893e-08
C0A931,三和,2023-02-26,25.233153,121.595236,7.8624566e-08
C0I010,廬山,2023-02-26,24.033311,121.181808,1.9893658e-09
C0R860,鼻頭,2023-02-26,22.1043,120.8979,0.9997565
C0UB20,壯圍,2023-02-26,24.7359,121.8163,2.7311473e-09
C0R790,九棚,2023-02-26,22.14195,120.889281,0.99978155
C0W110,東莒,2023-02-26,25.9652,119.98069,1.0811008e-06
C1U930,粉鳥林,2023-02-26,24.497088,121.842479,4.2927746e-09
C1I211,蘆竹湳,2023-02-26,23.934019,120.811994,3.9707937e-10
C0S830,長濱,2023-02-26,23.286817,121.411975,3.0384584e-09
C1F9F1,伯公龍,2023-02-26,24.272392,120.849047,5.0172183e-10
C0E810,西湖,2023-02-26,24.562947,120.7485,0.9990527
C1I440,新高口,2023-02-26,23.478744,120.878939,4.3726103e-09
C0O840,王爺宮,2023-02-26,23.222064,120.40085,8.894057e-06
C0T9G0,鳳林山,2023-02-26,23.735269,121.420131,5.8354392e-09
C0X080,佳里,2023-02-26,23.173039,120.145086,9.368505e-09
C0Z310,清水斷崖,2023-02-26,24.218294,121.689142,2.8090389e-08
C0M680,太保,2023-02-26,23.455062,120.331455,0.003967334
C1S820,金峰,2023-02-26,22.590969,120.933236,1.4409419e-08
C0AD10,八里,2023-02-26,25.150211,121.403947,7.2563676e-06
C2K240,草嶺,2023-02-26,23.59555,120.693461,4.5342463e-09
C1SA70,都蘭,2023-02-26,22.87794,121.226881,1.4002978e-05
C0K440,二崙,2023-02-26,23.772797,120.408944,1.4039797e-07
C1A760,坪林交控,2023-02-26,24.94284,121.713442,1.6563076e-08
C0F9N0,大里,2023-02-26,24.092464,120.701378,2.2234203e-09
C0SA90,達仁林場,2023-02-26,22.264347,120.823972,0.9859462
C1R290,石門山,2023-02-26,22.112611,120.756597,0.97998625
42HA10,萬大發電廠,2023-02-26,23.978875,121.139639,1.4092811e-09
C0R890,山海,2023-02-26,21.9878,120.7091,0.1089435
C0T9A0,月眉山,2023-02-26,23.809928,121.539828,6.6834005e-09
C0AC70,信義,2023-02-26,25.037822,121.564597,1.9491154e-07
C0K560,棋山,2023-02-26,23.68645,120.603417,0.00011365941
C1Z240,中平林道,2023-02-26,23.42115,121.26763,1.98315e-08
U2H480,溪頭,2023-02-26,23.670306,120.798194,3.1933027e-09
C0M880,好美里,2023-02-26,23.3364,120.138,6.1221767e-06
C0T9E0,大坑,2023-02-26,23.880628,121.581981,6.4464425e-09
C0K530,臺西,2023-02-26,23.701547,120.197559,0.000248223
C1E900,國一N128K,2023-02-26,24.560997,120.844186,3.4785958e-07
C0AJ50,水湳洞,2023-02-26,25.123695,121.862238,4.8927757e-07
C0AI20,白沙灣,2023-02-26,25.283128,121.519058,4.8200913e-05
C0A860,大坪,2023-02-26,25.165914,121.632969,2.9932423e-08
C1U850,觀音海岸,2023-02-26,24.38319,121.77856,1.0735309e-08
C0U950,鶯子嶺,2023-02-26,24.89754,121.79244,3.2468414e-08
C0O900,善化,2023-02-26,23.112883,120.297219,1.0450002e-05
C0K550,蔦松,2023-02-26,23.514319,120.229736,1.2504069e-05
E2P980,林試六龜中心,2023-02-26,22.991703,120.645722,6.9368006e-10
C0E590,通霄,2023-02-26,24.471892,120.704622,0.90903723
C1I310,西巒,2023-02-26,23.754486,120.883956,5.9502607e-09
C0A550,泰平,2023-02-26,24.971197,121.823711,4.072265e-08
C0I360,水里,2023-02-26,23.812553,120.849792,1.5920587e-09
C0R830,高士,2023-02-26,22.121825,120.836781,0.6973618
C1I101,溪頭,2023-02-26,23.661789,120.807647,1.0136921e-08
C0AJ20,野柳,2023-02-26,25.20703,121.690021,1.6598139e-07
C0B060,暖暖,2023-02-26,25.0957,121.7403,9.154735e-08
C1H920,長豐,2023-02-26,24.102039,120.879897,4.7536874e-10
C0V360,內門,2023-02-26,22.975481,120.466769,7.917164e-05
C0R850,林邊,2023-02-26,22.4634,120.5339,2.6775396e-10
C0E930,龍鳳,2023-02-26,24.700034,120.859125,0.9619113
C0U910,冬山,2023-02-26,24.63373,121.7937,2.91397e-09
C1E721,泰安,2023-02-26,24.489017,120.968036,4.6254933e-09
82H320,茶改中部分場,2023-02-26,23.875611,120.913583,1.7273033e-09
C0M750,布袋,2023-02-26,23.380878,120.167789,6.7831876e-05
C1S860,利嘉,2023-02-26,22.809417,121.050528,5.4180944e-09
72C440,桃園農改,2023-02-26,24.950944,121.030583,0.7622127
E2S980,林試太麻里1,2023-02-26,22.598922,120.980044,1.7026832e-08
C0X170,關廟,2023-02-26,22.963017,120.327797,3.4810346e-05
C0V720,林園,2023-02-26,22.507747,120.394511,9.925977e-10
C1I510,線浸林道,2023-02-26,23.761508,120.832956,4.807679e-09
C0D690,外湖,2023-02-26,24.917735,120.968711,0.9185366
C0C750,新興坑尾,2023-02-26,25.0061,121.0971,0.9224474
B2Q810,畜試南區分所,2023-02-26,21.945583,120.802167,0.13373694
C0S790,金崙,2023-02-26,22.538122,120.966875,9.452942e-08
C0AH90,福山植物園,2023-02-26,24.760717,121.58135,2.8537864e-08
C0I540,奇萊稜線,2023-02-26,24.109231,121.326456,2.6925578e-08
C0M850,表湖,2023-02-26,23.24186,120.64166,1.5679802e-09
C0S770,大溪山,2023-02-26,22.478475,120.943325,3.7854625e-07
C0AG80,中和,2023-02-26,24.991622,121.491792,3.5044383e-07
C0T790,大禹嶺,2023-02-26,24.186117,121.316086,9.922859e-09
C0T9B0,水源,2023-02-26,23.991861,121.537169,1.8731873e-08
C0R840,牡丹池山,2023-02-26,22.168389,120.841225,0.9995368
C1I131,桶頭,2023-02-26,23.641944,120.654117,1.2246188e-06
CAL110,布袋國中,2023-02-26,23.35893,120.18026,6.7831876e-05
467571,新竹,2023-02-26,24.827853,121.014219,0.7402883
C0Z290,赤柯山,2023-02-26,23.36893,121.38293,1.381842e-08
C0X280,將軍,2023-02-26,23.214999,120.13577,2.3768703e-07
C0S690,太麻里,2023-02-26,22.60902,120.98533,1.3566561e-08
C0U880,北關,2023-02-26,24.9072,121.8734,1.8032694e-08
C1H860,瑞岩,2023-02-26,24.123772,121.18345,5.250947e-09
C0G810,埔心,2023-02-26,23.947633,120.525456,1.67766e-07
C0U970,大福,2023-02-26,24.80064,121.81389,6.974495e-09
C1E670,南礦,2023-02-26,24.538278,121.002836,5.066051e-09
C0M520,東後寮,2023-02-26,23.369908,120.248065,6.005303e-05
C1E461,松安,2023-02-26,24.397972,120.986022,4.832069e-09
72G600,臺中農改,2023-02-26,24.003028,120.534389,3.288588e-07
C2N160,西拉雅風管處,2023-02-26,23.189481,120.335297,0.0018878155
C0A640,石碇,2023-02-26,24.993969,121.662917,6.9637316e-08
E2S960,林試太麻里2,2023-02-26,22.598,120.99775,2.0012445e-08
C0F9Y0,桃山,2023-02-26,24.432739,121.303808,1.2167808e-08
C1I020,萬大,2023-02-26,23.979817,121.132261,9.574055e-10
C0U940,羅東,2023-02-26,24.68184,121.74934,2.7992337e-09
C0M650,朴子,2023-02-26,23.43463,120.23902,0.00013677149
C1I500,大尖山,2023-02-26,23.858572,120.994889,5.406821e-09
C0G820,田尾,2023-02-26,23.901669,120.509389,1.67766e-07
E2K600,四湖植物園,2023-02-26,23.676986,120.163433,8.1411425e-05
C0S730,綠島,2023-02-26,22.6672,121.47533,0.9961363
12Q970,東港工作站,2023-02-26,22.479997,120.466058,2.6818175e-10
C0E430,南庄,2023-02-26,24.601775,121.000214,2.9686387e-09
C1TA00,太魯閣,2023-02-26,24.15773,121.6236,2.5243008e-08
466920,臺北,2023-02-26,25.037658,121.514853,1.9491154e-07
C0R600,舊泰武,2023-02-26,22.588194,120.664944,7.0816086e-10
C1I260,北坑,2023-02-26,23.9246,121.006903,4.2382386e-10
466910,鞍部,2023-02-26,25.182586,121.529731,4.3551083e-08
C1I230,九份二山,2023-02-26,23.961944,120.845,1.088707e-09
C2A660,瑞芳,2023-02-26,25.113169,121.801147,2.4087353e-07
C0R270,琉球嶼,2023-02-26,22.332244,120.362236,8.338288e-10
C1T990,高寮,2023-02-26,23.394239,121.356808,1.6869943e-09
C0G620,芬園,2023-02-26,24.015678,120.6213,5.0690865e-09
C1Z140,荖溪,2023-02-26,23.890575,121.45964,1.5939008e-08
C1I201,中心崙,2023-02-26,23.728722,120.712097,1.7032702e-09
C1I400,凌霄,2023-02-26,24.018778,121.004456,1.5611643e-09
C1M640,十字,2023-02-26,23.492153,120.753683,9.359432e-09
G2P820,農試鳳山分所,2023-02-26,22.646611,120.356083,1.2660756e-07
C0Z270,蕃薯寮,2023-02-26,23.73835,121.540108,3.956772e-09
C0F9Q0,外埔,2023-02-26,24.347817,120.705686,2.0821114e-09
C0K580,高鐵雲林,2023-02-26,23.737456,120.417944,5.1656923e-07
C2I090,鳳凰,2023-02-26,23.728081,120.787347,1.3749374e-09
C0U990,員山,2023-02-26,24.74435,121.72247,2.7754852e-09
C0V770,大社,2023-02-26,22.730306,120.346639,1.16181745e-05
C0X120,麻豆,2023-02-26,23.183289,120.248611,4.1898515e-05
C0C670,龍潭,2023-02-26,24.870056,121.221389,2.7151857e-06
C0D680,香山濕地,2023-02-26,24.783581,120.914988,0.4008988
C0S980,勝林山,2023-02-26,22.430439,120.8938,1.4590714e-07
C0V730,大寮,2023-02-26,22.605614,120.395717,3.4030318e-06
C0R570,麟洛,2023-02-26,22.65078,120.52719,1.2628114e-07
CAG100,王功漁港,2023-02-26,23.96824,120.32586,0.031654052
C0X290,北門,2023-02-26,23.267772,120.125481,2.3768703e-07
C2F930,大甲,2023-02-26,24.347667,120.640403,1.0387517e-05
C0D650,湖口,2023-02-26,24.904794,121.043628,0.45649815
C0E420,竹南,2023-02-26,24.708978,120.888897,0.8910736
C0U780,五結,2023-02-26,24.68637,121.79794,2.7300642e-09
C1I250,鯉潭,2023-02-26,23.961922,120.991131,8.6201374e-10
C0R130,阿禮,2023-02-26,22.742908,120.743678,2.6946525e-09
C0X100,臺南市北區,2023-02-26,23.010394,120.194228,4.9934133e-08
C0S920,金峰嘉蘭,2023-02-26,22.594789,120.960825,1.6690626e-08
C0V490,新興,2023-02-26,22.627422,120.298803,4.141761e-06
C0F9K0,大安,2023-02-26,24.345061,120.588025,5.119039e-05
72N100,臺南農改,2023-02-26,23.0605,120.342194,3.83451e-06
467290,古坑,2023-02-26,23.633639,120.551889,0.0001808623
C0V440,鳳山,2023-02-26,22.646653,120.356122,1.2660756e-07
C1T940,大觀,2023-02-26,23.714206,121.373133,5.0418945e-09
72T250,花蓮農改,2023-02-26,23.975222,121.563889,8.5002405e-08
C0E740,造橋,2023-02-26,24.637056,120.864778,0.0028466687
C0R100,尾寮山,2023-02-26,22.833111,120.683889,2.442327e-09
A2K630,臺大雲林校區,2023-02-26,23.730628,120.423903,5.1656923e-07
C0D580,寶山,2023-02-26,24.735006,121.025192,7.68564e-09
E2P990,林試扇平站,2023-02-26,22.9677,120.6857,1.918797e-09
C0AI30,三重,2023-02-26,25.057328,121.500629,2.0371537e-07
C0AH00,汐止,2023-02-26,25.066881,121.658778,1.9491154e-07
C1Z040,立山,2023-02-26,23.443356,121.327375,8.996827e-09
C0R740,獅子,2023-02-26,22.201569,120.70525,0.99922734
C0W130,花嶼,2023-02-26,23.40007,119.32276,0.99741226
C0A950,鼻頭角,2023-02-26,25.129036,121.923372,0.03900994
C0K470,林內,2023-02-26,23.748675,120.609642,0.002285462
82C160,茶改場,2023-02-26,24.908472,121.185333,7.462699e-06
C0Z320,清水林道,2023-02-26,23.27125,121.188272,1.2072979e-08
C0R760,南仁湖,2023-02-26,22.084681,120.863353,0.9794005
C0M670,大林,2023-02-26,23.600616,120.45841,0.0006433881
C0M800,茶山,2023-02-26,23.299075,120.664767,4.3298667e-10
C0A9C0,天母,2023-02-26,25.117494,121.537169,1.4737665e-07
72K220,南改斗南分場,2023-02-26,23.634556,120.477333,1.2714174e-05
72AI40,桃改樹林分場,2023-02-26,24.944503,121.386972,4.185754e-05
C0S910,蘭嶼燈塔,2023-02-26,22.081197,121.503117,0.9938041
C0B050,八斗子,2023-02-26,25.144754,121.79167,6.0007824e-07
C0U900,內城,2023-02-26,24.71813,121.68766,2.9162328e-09
C0X320,柳營,2023-02-26,23.253328,120.375253,0.0010008204
C0M790,新港,2023-02-26,23.553269,120.345728,1.5678854e-05
C0F9T0,西屯,2023-02-26,24.179494,120.641275,9.3265385e-08
C0SA30,都歷,2023-02-26,23.020333,121.323642,6.390447e-09
C0C620,蘆竹,2023-02-26,25.084275,121.265767,0.008883316
C0R730,大坪頂,2023-02-26,22.024633,120.69355,0.99990153
C0AJ40,石門,2023-02-26,25.273672,121.601198,5.577903e-06
C0E750,苗栗,2023-02-26,24.564569,120.824575,4.259037e-07
C0T870,鯉魚潭,2023-02-26,23.935639,121.508944,8.5494065e-09
C1V170,排雲,2023-02-26,23.463619,120.954147,1.391655e-08
C2H950,中寮,2023-02-26,23.884447,120.766406,9.656459e-09
C0R350,貓鼻頭,2023-02-26,21.921774,120.7358,0.93896735
C0V660,岡山,2023-02-26,22.797078,120.294958,2.7322358e-06
C1H941,雙冬,2023-02-26,23.967378,120.802189,4.2742668e-10
C0AJ70,田寮,2023-02-26,25.2698,121.4886,5.8908085e-05
C0AI00,五股,2023-02-26,25.07445,121.42728,1.3511489e-06
C0Z280,德武,2023-02-26,23.47426,121.41071,2.0506603e-09
C0R700,枋山,2023-02-26,22.246844,120.661086,0.98462445
C0C460,復興,2023-02-26,24.820208,121.352281,2.867083e-07
E2H360,蓮華池,2023-02-26,23.918333,120.885278,4.842012e-10
C0M640,中埔,2023-02-26,23.42538,120.5229,0.0008162183
C0W140,金沙,2023-02-26,24.488292,118.408778,1.2668779e-06
C2A540,四堵,2023-02-26,24.8926,121.745736,1.711654e-08
C0ACA0,新莊,2023-02-26,25.051478,121.446756,1.0806143e-06
C0R220,潮州,2023-02-26,22.534361,120.54,4.556429e-10
U2HA40,臺大內茅埔,2023-02-26,23.689722,120.851117,1.1542414e-09
467490,臺中,2023-02-26,24.145736,120.684075,2.7052611e-09
C0U960,翠峰湖,2023-02-26,24.510856,121.608044,2.9784463e-08
E2HA20,林試畢祿溪站,2023-02-26,24.226944,121.308522,7.0949833e-09
C0V890,前鎮,2023-02-26,22.5718,120.3117,5.0600124e-06
467620,蘭嶼,2023-02-26,22.036969,121.558339,0.9892458
C1F941,雪嶺,2023-02-26,24.280586,121.026642,1.0340442e-08
C0AC80,文山,2023-02-26,25.00235,121.575728,3.017772e-07
C0F9R0,龍井,2023-02-26,24.184536,120.528972,0.025322808
C0M760,民雄,2023-02-26,23.551754,120.428457,0.0011008463
C0UA40,西德山,2023-02-26,24.560647,121.752608,2.1175245e-08
C1T920,中興,2023-02-26,23.769503,121.498653,2.9962965e-09
C0D550,雪霸,2023-02-26,24.526972,121.11605,5.350133e-09
C2F860,梨山,2023-02-26,24.247522,121.243669,7.348096e-09
C0R320,車城,2023-02-26,22.0744,120.716247,0.9999886
C1S870,南美山,2023-02-26,23.15025,121.382333,1.2895818e-08
C0B020,基隆嶼,2023-02-26,25.19141,121.78391,0.020339495
C1U501,牛鬥,2023-02-26,24.637836,121.573656,8.069751e-09
C0M730,嘉義市東區,2023-02-26,23.457673,120.460531,0.01117028
C0S700,知本,2023-02-26,22.684866,121.005642,8.072552e-09
C1N001,沙崙,2023-02-26,22.935472,120.309406,4.20907e-05
C0V760,橋頭,2023-02-26,22.757806,120.30575,1.565022e-05
C0G960,福寶,2023-02-26,24.0443,120.3814,0.0001704723
C0X210,白河,2023-02-26,23.347466,120.414427,0.0006981715
C0S810,東河,2023-02-26,22.972672,121.303986,8.812938e-05
C0R670,楓港,2023-02-26,22.190131,120.692156,0.99999017
C0FA50,霧峰,2023-02-26,24.0419,120.6995,5.838401e-09
C0UB10,蘇澳,2023-02-26,24.5969,121.8571,6.3325216e-09
C0G950,防潮門,2023-02-26,24.1835,120.4871,0.024820462
C0M740,六腳,2023-02-26,23.492871,120.290625,0.00013584824
C1R250,力里,2023-02-26,22.428117,120.629228,3.2403916e-10
C0K330,虎尾,2023-02-26,23.719183,120.442036,4.4827908e-07
C2FA00,烏石坑,2023-02-26,24.273503,120.947617,2.413721e-09
C0V620,永安,2023-02-26,22.82315,120.236856,2.302807e-06
C1I330,楓樹林,2023-02-26,23.986803,121.076117,1.1705055e-09
C0W200,湖西,2023-02-26,23.596314,119.67275,0.9952213
72Q010,高雄農改場,2023-02-26,22.709333,120.525889,1.6331664e-07
C0SA40,瑞和,2023-02-26,22.974361,121.156697,8.770582e-09
C0C680,龜山,2023-02-26,25.02846,121.38656,7.9554155e-07
C2V260,月眉,2023-02-26,22.971003,120.539853,2.1553952e-09
C0V450,鳳森,2023-02-26,22.545064,120.392592,9.024544e-10
C0U720,南山,2023-02-26,24.43742,121.38167,1.2685115e-08
A2N290,臺南蘭花園區,2023-02-26,23.340258,120.379661,0.00427736
C0R560,新園,2023-02-26,22.5434,120.461558,9.925977e-10
C0U890,三星,2023-02-26,24.66812,121.65302,6.8219035e-09
C1V300,御油山,2023-02-26,23.001983,120.715364,7.774471e-09
C0U600,礁溪,2023-02-26,24.817539,121.765608,1.7473718e-08
C1T980,龍澗,2023-02-26,24.023289,121.411328,2.3076794e-08
C0D670,海天一線,2023-02-26,24.831986,120.914438,0.9891308
C0SA00,歷坵,2023-02-26,22.520969,120.89185,4.0615838e-08
C0M710,東石,2023-02-26,23.458927,120.15385,5.827584e-07
C0M780,鹿草,2023-02-26,23.41134,120.30835,9.416502e-05
C0U520,雙連埤,2023-02-26,24.753033,121.641303,1.0948088e-08
C0B010,七堵,2023-02-26,25.094819,121.71713,1.1808833e-07
C0R480,長治,2023-02-26,22.693128,120.542622,3.147217e-08
C1V830,國三S383K,2023-02-26,22.781967,120.426475,4.4227463e-08
12Q980,恆春工作站,2023-02-26,22.079678,120.714425,0.9999886
C1O940,東山服務區,2023-02-26,23.286016,120.398472,0.002692476
C1U840,東澳嶺,2023-02-26,24.5378,121.8485,1.4464493e-08
C1D630,飛鳳山,2023-02-26,24.766464,121.119178,8.527408e-08
C0S940,石寧山,2023-02-26,23.223772,121.406639,3.8495083e-09
C0K410,北港,2023-02-26,23.573957,120.292802,1.6811224e-06
C2M620,瑞里,2023-02-26,23.545133,120.675197,4.540235e-09
C2O950,安南,2023-02-26,23.076694,120.144861,8.514744e-09
C0F0E0,南湖圈谷,2023-02-26,24.363714,121.444667,4.4886e-08
467610,成功,2023-02-26,23.097486,121.373428,3.8915083e-08
C0G890,伸港,2023-02-26,24.148933,120.484403,0.0011917005
C2E540,龍溪,2023-02-26,24.606489,120.783933,0.0041965214
C1V200,梅山,2023-02-26,23.268447,120.823556,3.6291443e-09
C0T9H0,加路蘭山,2023-02-26,23.682947,121.5274,6.559234e-09
C2O930,玉井,2023-02-26,23.126042,120.46055,0.2854065
C1F911,新伯公,2023-02-26,24.221361,120.841069,3.3592196e-10
C0R490,九如,2023-02-26,22.7405,120.490503,1.712097e-07
C0X200,左鎮,2023-02-26,23.056758,120.408522,0.0018567259
C1F891,稍來,2023-02-26,24.265689,121.001142,1.0336203e-08
72N240,七股研究中心,2023-02-26,23.081672,120.062894,9.091982e-09
C0C700,中壢,2023-02-26,24.977661,121.256375,2.0966459e-06
C0M690,水上,2023-02-26,23.419734,120.388909,0.0027857837
C0V690,鼓山,2023-02-26,22.623325,120.275575,4.137008e-06
C0O860,大內,2023-02-26,23.11885,120.36083,5.389657e-06
C0Z200,萬榮,2023-02-26,23.709219,121.420106,2.9707004e-09
C0T9D0,和中,2023-02-26,24.26676,121.74103,3.3348492e-08
C1O921,楠西,2023-02-26,23.183511,120.484083,0.0010395473
C0AJ30,淡水觀海,2023-02-26,25.184591,121.408616,5.244804e-07
C0V810,左營,2023-02-26,22.67491,120.28491,1.9811958e-07
C0UA70,桃源谷,2023-02-26,24.962606,121.888875,3.925802e-08
C0X130,官田,2023-02-26,23.193217,120.315422,0.0026186288
C1H000,翠峰,2023-02-26,24.109397,121.205211,1.4779884e-08
C0UA90,石城,2023-02-26,24.980444,121.951214,2.0109825e-08
C1E681,南勢山,2023-02-26,24.421669,120.923831,3.1739746e-09
C0A9F0,內湖,2023-02-26,25.079422,121.57545,1.9491154e-07
C0K291,宜梧,2023-02-26,23.536281,120.169329,1.2504069e-05
C1K540,口湖,2023-02-26,23.585344,120.180517,8.2283e-06
C0R780,滿州,2023-02-26,22.024403,120.839892,0.99409956
C0V870,文安,2023-02-26,22.8025,120.2164,3.0290973e-06
C0U650,玉蘭,2023-02-26,24.675286,121.587061,1.2388429e-08
C0R640,東港,2023-02-26,22.46247,120.44074,2.6818175e-10
K2E360,苗栗農改,2023-02-26,24.495722,120.829111,1.3869726e-08
C0AJ80,板橋,2023-02-26,25.0107,121.4489,3.7435518e-07
C0S660,下馬,2023-02-26,23.150427,121.070312,8.829951e-09
C1H9B1,阿眉,2023-02-26,24.1263,120.994672,6.5448003e-09
C0UA20,多加屯,2023-02-26,24.368614,121.373189,5.996929e-09
C0E730,頭份,2023-02-26,24.688247,120.912206,0.9182477
72V140,高改旗南分場,2023-02-26,22.857861,120.516667,4.3429143e-08
C0K480,莿桐,2023-02-26,23.761192,120.502372,7.519903e-06
C0U980,坪林石牌,2023-02-26,24.86478,121.77396,1.5883108e-08
C0T900,西林,2023-02-26,23.8119,121.441458,3.509941e-09
C1I150,青雲,2023-02-26,23.793361,120.949378,4.5636134e-10
467350,澎湖,2023-02-26,23.565503,119.563094,0.99590695
C0G800,埔鹽,2023-02-26,24.000394,120.431683,2.52215e-05
C0H960,草屯,2023-02-26,23.973672,120.68085,5.1696762e-09
C1V780,多納林道,2023-02-26,22.888028,120.737917,2.9753502e-09
C0E920,通霄漁港,2023-02-26,24.498589,120.673876,0.98459566
C0Z330,安通山,2023-02-26,23.290728,121.348528,4.259912e-09
C0AH10,永和,2023-02-26,25.01125,121.508111,3.7327285e-07
C2G640,鹿港,2023-02-26,24.0753,120.430481,0.0001704723
C1E890,國三N149K,2023-02-26,24.463414,120.680019,0.0047025927
C1R110,口社,2023-02-26,22.770111,120.645222,3.7606554e-10
C1M870,國三N285K,2023-02-26,23.550319,120.505833,0.0001240186
467050,新屋,2023-02-26,25.006744,121.047486,0.9715473
C1E480,鳳美,2023-02-26,24.554803,121.034747,2.4690998e-09
C0M530,奮起湖,2023-02-26,23.493903,120.699253,5.104733e-09
C0C590,觀音,2023-02-26,25.027072,121.153317,0.93496525
C0T9M0,靜浦,2023-02-26,23.455167,121.495028,1.6624214e-09
C0AI40,石牌,2023-02-26,25.115597,121.513139,1.5516825e-07
C1F871,上谷關,2023-02-26,24.203483,121.018644,1.2227548e-09
C0G880,二水,2023-02-26,23.810742,120.6173,1.5197185e-05
C0R940,加祿堂,2023-02-26,22.3363,120.6217,0.999759
C0W220,北竿,2023-02-26,26.220358,119.974881,1.0333728e-06
C0O960,崎頂,2023-02-26,22.959547,120.369317,6.6338675e-06
C0S750,向陽,2023-02-26,23.248397,120.986133,8.705035e-09
C0T9F0,水璉,2023-02-26,23.797131,121.542514,4.076203e-09
C1M600,頭凍,2023-02-26,23.406364,120.603339,5.8263754e-09
467660,臺東,2023-02-26,22.752211,121.154586,0.8737006
C1D380,新埔,2023-02-26,24.84745,121.03834,0.35725364
C0V750,路竹,2023-02-26,22.854997,120.259439,9.232254e-09
C0N050,蚵寮,2023-02-26,23.301,120.1104,6.1221767e-06
72M700,南改鹿草分場,2023-02-26,23.416869,120.283061,0.00013693499
C1SA50,利嘉林道,2023-02-26,22.82325,121.009389,3.1894697e-08
467550,玉山,2023-02-26,23.487614,120.959522,1.6368018e-08
C0A940,金山,2023-02-26,25.223628,121.643967,1.5336941e-07
C1V340,大津,2023-02-26,22.888322,120.645986,4.4250453e-10
C0W180,七美,2023-02-26,23.219333,119.444892,0.9961905
C1F9C1,白冷,2023-02-26,24.182844,120.929889,4.6505436e-10
K2E710,苗改生物防治研究中心,2023-02-26,24.422861,120.871833,9.649458e-10
C0N040,蘆竹溝,2023-02-26,23.2344,120.0961,2.3768703e-07
C2W230,畜試所澎湖,2023-02-26,23.628342,119.513206,0.99431646
C0R880,後壁湖,2023-02-26,21.9457,120.7457,0.1037573
C1I280,埔中,2023-02-26,23.820778,120.642594,1.4423519e-09
467790,墾丁雷達站,2023-02-26,21.948235,120.808028,0.13985074
C0W190,望安,2023-02-26,23.380564,119.494075,0.99373484
466881,新北,2023-02-26,24.9593,121.52,3.299322e-07
C0Z170,卓溪,2023-02-26,23.3443,121.3029,1.9281374e-09
C0F850,東勢,2023-02-26,24.246428,120.833047,8.7683355e-10
466900,淡水,2023-02-26,25.164889,121.448906,5.9727713e-06
C0I370,魚池,2023-02-26,23.895703,120.94135,5.0385657e-10
C0C630,大溪,2023-02-26,24.882853,121.265547,3.9372676e-06
C0A520,山佳,2023-02-26,24.974944,121.402008,2.6825753e-06
C0I110,竹山,2023-02-26,23.761225,120.688156,3.9350375e-06
82H840,茶改南部分場,2023-02-26,23.762528,120.7405,1.469549e-09
C0G660,溪湖,2023-02-26,23.94835,120.479122,1.792656e-07
C1T800,洛韶,2023-02-26,24.204558,121.453956,2.1949248e-08
C1T810,慈恩,2023-02-26,24.192044,121.388386,1.4916445e-08
C1E451,象鼻,2023-02-26,24.368617,120.940228,1.898085e-09
C0AC60,三峽,2023-02-26,24.939025,121.369728,3.0121648e-05
C0I490,萬大林道,2023-02-26,23.928228,121.091411,2.5442628e-09
C1I290,豐丘,2023-02-26,23.668178,120.887417,3.4299152e-09
C1I320,奧萬大,2023-02-26,23.952956,121.178556,1.2847178e-09
C0U770,南澳,2023-02-26,24.44935,121.81022,7.7996605e-09
C0A980,社子,2023-02-26,25.109508,121.469681,7.531379e-06
C0V800,六龜,2023-02-26,22.997889,120.633583,7.092531e-10
C1G9D0,國一S218K,2023-02-26,23.890641,120.493253,6.5923297e-07
C2F9A0,中竹林,2023-02-26,24.103556,120.751061,4.2592194e-10
C0FA40,臺中電廠,2023-02-26,24.2146,120.4907,0.025322808
C0H9C0,合歡山,2023-02-26,24.143442,121.272547,1.8404567e-08
C0X060,下營,2023-02-26,23.22695,120.256261,0.0023593677
G2M350,農試溪口農場,2023-02-26,23.58565,120.408111,0.0013919034
C0U860,頭城,2023-02-26,24.85323,121.8308,1.7667592e-08
C0R580,南州,2023-02-26,22.48591,120.50274,2.6818175e-10
C0D430,峨眉,2023-02-26,24.6905,121.017189,6.2763394e-07
C0G780,秀水,2023-02-26,24.03405,120.503869,2.6631773e-07
72N100,臺南農改場,2023-02-26,23.0605,120.342194,3.83451e-06
C0S900,蘭嶼高中,2023-02-26,22.04909,121.51214,0.9957841
467540,大武,2023-02-26,22.355675,120.903789,0.9995649
C1F9W0,德基,2023-02-26,24.254783,121.190261,8.336797e-09
C1Z120,壽豐,2023-02-26,23.870853,121.508081,4.040927e-09
C0W160,烏坵,2023-02-26,24.9944,119.44956,0.84657484
C1I240,外大坪,2023-02-26,23.958697,120.917931,8.923846e-10
C1I550,國六W023K,2023-02-26,23.979067,120.867742,3.018022e-10
C0R870,興海,2023-02-26,21.9752,120.8439,0.13367447
C0R140,瑪家,2023-02-26,22.682903,120.686639,1.4258634e-09
C0A530,坪林,2023-02-26,24.938183,121.70975,1.6582737e-08
C0X260,後壁,2023-02-26,23.366358,120.362326,0.004277358
C0Z230,和平,2023-02-26,24.30717,121.77007,3.491727e-08
C0G770,福興,2023-02-26,24.041289,120.437669,2.52215e-05
C0H9A0,神木村,2023-02-26,23.532742,120.843667,9.538789e-09
C0I460,南投,2023-02-26,23.911469,120.687331,4.8776155e-10
C0I480,梅峰,2023-02-26,24.085272,121.173572,4.825916e-09
C1V570,吉東,2023-02-26,22.85422,120.5454,3.604271e-08
C2A560,福山,2023-02-26,24.776203,121.502811,2.7947431e-08
C0AH30,五分山,2023-02-26,25.07125,121.780794,3.6769855e-08
C0FA10,松柏,2023-02-26,24.429115,120.617482,0.057117566
72S200,東改班鳩分場,2023-02-26,22.829528,121.077694,0.0010268335
72HA00,中改埔里分場,2023-02-26,23.903208,120.963364,4.516782e-10
C0C650,平鎮,2023-02-26,24.897503,121.214636,2.3015511e-06
C0S930,延平,2023-02-26,22.902581,121.084058,2.2471094e-07
C0UA60,樟樹山,2023-02-26,24.41393,121.78325,8.906914e-09
C1S670,摩天,2023-02-26,23.199503,121.027,1.8290274e-08
C0V630,茄萣,2023-02-26,22.906642,120.182608,1.0813297e-08
466940,基隆,2023-02-26,25.133314,121.740475,5.6440774e-07
C0X050,東河,2023-02-26,23.296598,120.385608,0.0051142653
C0R770,保力,2023-02-26,22.071122,120.764111,0.999757
G2L020,農試嘉義分所,2023-02-26,23.485028,120.473806,0.00086430006
C0X240,關子嶺,2023-02-26,23.331169,120.508025,2.0094517e-09
C0I380,集集,2023-02-26,23.828206,120.801467,1.6245806e-09
466990,花蓮,2023-02-26,23.975128,121.613275,9.8907954e-08
C1V220,小關山,2023-02-26,23.154217,120.813603,6.6140213e-09
C1F9G1,慶福山,2023-02-26,24.180853,120.848378,4.9394056e-10
C0Z250,瑞穗林道,2023-02-26,23.49284,121.30688,2.004874e-08
C0D590,新豐,2023-02-26,24.87068,120.97721,0.9816426
C0A870,五指山,2023-02-26,25.132153,121.608692,2.6117482e-08
C0UA50,西帽山,2023-02-26,24.555361,121.802628,1.6213312e-08
C0X160,仁德,2023-02-26,22.968258,120.257689,3.771999e-07
C1H971,六分寮,2023-02-26,23.92507,120.6378,5.0149607e-10
C0W120,西嶼,2023-02-26,23.5626,119.468436,0.9960964
C0G650,員林,2023-02-26,23.946503,120.585597,4.0776047e-08
C0AD50,鶯歌,2023-02-26,24.951533,121.346294,2.0877409e-05
C0S990,山豬窟,2023-02-26,22.318619,120.857372,0.8195975
72Q010,高雄農改,2023-02-26,22.709333,120.525889,1.6331664e-07
C0X190,安平,2023-02-26,22.993161,120.152181,5.0179505e-08
C0K400,斗六,2023-02-26,23.720583,120.541127,8.096006e-06
12J990,口湖工作站,2023-02-26,23.589978,120.180394,8.2283e-06
C0O830,北寮,2023-02-26,23.079561,120.495008,1.01082005e-05
C1D410,白蘭,2023-02-26,24.579364,121.079947,5.729201e-09
C0S970,加津林,2023-02-26,22.416211,120.926942,0.9993777
C0D700,關西,2023-02-26,24.7977,121.1732,2.596602e-06
C0M810,里佳,2023-02-26,23.389125,120.716647,8.251104e-09
C0U750,龜山島,2023-02-26,24.841667,121.953133,1.2949069e-05
C0R810,內獅,2023-02-26,22.305064,120.642986,0.9997383
C1M390,龍美,2023-02-26,23.406728,120.654417,6.723548e-09
C1H840,國三N238K,2023-02-26,23.841008,120.707711,3.7326212e-10
CAQ030,崎峰國小,2023-02-26,22.42565,120.49521,2.6818175e-10
C2E520,大湖,2023-02-26,24.414939,120.870872,1.013446e-09
467530,阿里山,2023-02-26,23.508208,120.813242,1.241954e-08
C1E691,南湖,2023-02-26,24.40135,120.837533,2.4101419e-09
C0FA30,梧棲,2023-02-26,24.256003,120.523381,0.00023097445
C1V231,高中,2023-02-26,23.134911,120.716711,1.3277182e-09
C0F9V0,新社,2023-02-26,24.200172,120.815806,3.957441e-10
C0H890,埔里,2023-02-26,23.972169,120.952425,3.3258893e-10
C0R690,墾丁,2023-02-26,21.966756,120.810269,0.96779877
C0F0D0,審馬陣,2023-02-26,24.381675,121.4203,9.74635e-09
C0R820,白鷺,2023-02-26,22.454275,120.666219,1.3157943e-08
U2H480,臺大溪頭,2023-02-26,23.670306,120.798194,3.1933027e-09
C1V190,南天池,2023-02-26,23.27403,120.91176,8.108539e-09
K2E360,苗栗農改場,2023-02-26,24.495722,120.829111,1.3869726e-08
CAJ050,海口故事園區,2023-02-26,23.57543,120.14121,8.2283e-06
C0O990,媽廟,2023-02-26,22.99175,120.293525,2.2103332e-07
C0D480,打鐵坑,2023-02-26,24.849664,121.150789,2.4725166e-06
C0Z220,和平林道,2023-02-26,24.343922,121.656317,9.987284e-09
72C440,桃園農改場,2023-02-26,24.950944,121.030583,0.7622127
C1E711,馬拉邦山,2023-02-26,24.367306,120.901656,1.9767403e-09
C0D560,竹東,2023-02-26,24.767147,121.057881,2.7386689e-06
C0F9U0,南屯,2023-02-26,24.137006,120.637969,1.3970077e-07
C0M720,番路,2023-02-26,23.464657,120.554156,0.00014571952
C0F0A0,雪山圈谷,2023-02-26,24.388594,121.236339,1.5821216e-08
C1A9N0,四十份,2023-02-26,24.934158,121.593283,7.55511e-08
C0U760,東澳,2023-02-26,24.52196,121.83318,4.4194977e-09
C0X230,鹽水,2023-02-26,23.272621,120.247641,4.1187773e-06
C0V370,古亭坑,2023-02-26,22.893178,120.401947,0.00014972515
C1I340,新興橋,2023-02-26,23.563333,120.868728,3.4341636e-09
C0SA80,土坂,2023-02-26,22.453108,120.887572,1.8641042e-05
C0R160,鹽埔,2023-02-26,22.739558,120.530778,1.6347137e-07
C0AC40,大屯山,2023-02-26,25.175675,121.522408,4.429424e-08
466850,五分山雷達站,2023-02-26,25.071182,121.781205,3.7022215e-08
C1AI50,國三N016K,2023-02-26,25.034164,121.619664,1.4790169e-07
C1V600,藤枝,2023-02-26,23.071961,120.757042,6.138639e-09
C1E601,南勢,2023-02-26,24.572486,120.734842,0.98579204
C0Z180,新城,2023-02-26,24.03946,121.60454,9.233684e-08
C0O980,新市,2023-02-26,23.061614,120.298197,1.046622e-05
C0K420,西螺,2023-02-26,23.800407,120.467394,1.2726466e-07
C0Z050,佳心,2023-02-26,23.34567,121.21316,1.2749638e-08
C0AD30,蘆洲,2023-02-26,25.086594,121.472331,2.0377891e-07
C0V610,梓官,2023-02-26,22.760558,120.267211,1.565022e-05
K2F750,種苗改良場,2023-02-26,24.225972,120.800917,3.6482073e-10
C0UA80,大溪漁港,2023-02-26,24.941801,121.902955,1.7986183e-08
C1AI60,國一39K邊坡,2023-02-26,25.064361,121.383836,1.0303183e-06
C0W150,金寧,2023-02-26,24.457703,118.328989,7.5169174e-07
V2C250,八德合作社,2023-02-26,24.93775,121.266389,5.3625354e-06
C0AH40,平等,2023-02-26,25.129142,121.577086,2.8423948e-08
C0R540,佳冬,2023-02-26,22.419456,120.552375,0.99883026
466950,彭佳嶼,2023-02-26,25.627975,122.079744,0.07537275
C0A890,雙溪,2023-02-26,25.036003,121.864242,1.8336877e-07
C0C480,桃園,2023-02-26,24.992425,121.323172,3.0692927e-06
C0AH50,林口,2023-02-26,25.072181,121.38084,6.6488064e-07
A2K360,水試臺西試驗場,2023-02-26,23.717231,120.190522,0.00031488435
B2N890,畜試所,2023-02-26,23.058972,120.336406,3.83451e-06
C0F9S0,烏日,2023-02-26,24.107058,120.624103,2.5796802e-09
C0C490,八德,2023-02-26,24.928708,121.283289,5.255521e-06
C0R190,赤山,2023-02-26,22.592333,120.614306,9.477831e-10
C0T820,天祥,2023-02-26,24.179597,121.495639,1.3918488e-08
C1F9E1,龍安,2023-02-26,24.1605,120.831961,4.142058e-10
C0V820,小林,2023-02-26,23.148408,120.63325,1.7062324e-09
C2G870,芳苑,2023-02-26,23.922303,120.320025,0.027581109
C0E850,大河,2023-02-26,24.618069,120.948578,5.409276e-09
C1U670,寒溪,2023-02-26,24.634,121.71691,3.3179202e-09
C0N020,城西,2023-02-26,23.0568,120.0956,4.9934133e-08
C1Z110,三棧,2023-02-26,24.11557,121.60501,1.5349782e-08
C0R280,檳榔,2023-02-26,22.076078,120.836777,0.9994799
C0F9L0,后里,2023-02-26,24.310436,120.729725,6.0782035e-10
C0D540,橫山,2023-02-26,24.71116,121.11693,6.6741777e-09
C1D420,太閣南,2023-02-26,24.632808,121.160575,1.7193761e-08
C1E770,公館,2023-02-26,24.526914,120.830806,1.5262374e-08
CAN130,水試所海水繁養殖中心,2023-02-26,23.120802,120.07968,9.091982e-09
C1I430,翠華,2023-02-26,24.191961,121.224339,6.3932024e-09
C1M400,菜瓜坪,2023-02-26,23.251928,120.576103,4.0607814e-10
C0G730,二林,2023-02-26,23.903325,120.376081,4.040398e-05
72M360,南改義竹分場,2023-02-26,23.360694,120.279361,6.005303e-05
V2K620,麥寮合作社,2023-02-26,23.753836,120.294783,5.5068267e-07
C0Z070,舞鶴,2023-02-26,23.46811,121.37407,2.2246802e-09
C0B040,大武崙,2023-02-26,25.166676,121.706993,4.2792144e-07
C1Z030,紅葉,2023-02-26,23.493119,121.338806,3.4942236e-09
C1I050,丹大,2023-02-26,23.753747,121.141147,1.1878507e-08
C0I080,信義,2023-02-26,23.689694,120.851036,1.1542393e-09
C2A880,福隆,2023-02-26,25.017842,121.942083,2.0435472e-08
C0Z160,鳳林,2023-02-26,23.746114,121.453411,2.7779585e-09
C0V210,復興,2023-02-26,23.222403,120.806089,3.1960448e-09
C0H990,昆陽,2023-02-26,24.121322,121.273642,2.5978272e-08
C0S710,鹿野,2023-02-26,22.917711,121.122994,7.882514e-09
C0I530,小奇萊,2023-02-26,24.131764,121.295717,2.6978373e-08
C0Z080,富源,2023-02-26,23.587642,121.378225,5.0406253e-09
467441,高雄,2023-02-26,22.7304,120.3125,1.160565e-05
C1I140,卡奈托灣,2023-02-26,23.754364,121.087872,2.4281417e-09
C0I520,玉山風口,2023-02-26,23.470489,120.955994,1.9017424e-08
C1G691,下水埔,2023-02-26,23.816114,120.5676,4.379459e-06
C0X110,臺南市南區,2023-02-26,22.961189,120.188378,3.771999e-07
C0V680,仁武,2023-02-26,22.701083,120.347722,1.9910527e-07
C2G840,北斗,2023-02-26,23.877586,120.514222,5.400454e-07
C0R900,竹坑,2023-02-26,22.1385,120.7022,0.99998975
C0K250,崙背,2023-02-26,23.75555,120.318925,5.5068267e-07
C0G860,社頭,2023-02-26,23.897647,120.5862,2.487642e-06
C0X150,安定,2023-02-26,23.102614,120.227839,3.8081832e-06
C0R590,里港,2023-02-26,22.77919,120.49459,1.1063251e-07
C0E610,馬都安,2023-02-26,24.451272,120.930192,2.6131322e-09
C0E550,明德,2023-02-26,24.583486,120.885411,3.30581e-07
C0R150,三地門,2023-02-26,22.709889,120.639944,3.7874406e-10
C0G910,花壇,2023-02-26,24.032076,120.549461,2.391575e-07
C1D400,鳥嘴山,2023-02-26,24.71909,121.28387,4.5206995e-08
C0K500,元長,2023-02-26,23.64981,120.315024,7.3217063e-07
C0F0B0,石岡,2023-02-26,24.276061,120.777644,6.514074e-10
C2V250,甲仙,2023-02-26,23.080106,120.591758,4.602579e-07
C0SA20,金崙山,2023-02-26,22.567419,120.959667,1.4304895e-08
C0V350,溪埔,2023-02-26,22.738578,120.446797,7.902901e-08
C0M660,溪口,2023-02-26,23.604131,120.403569,0.0013919001
C1S880,壽卡,2023-02-26,22.238911,120.858903,0.9904558
72D680,桃改新埔分場,2023-02-26,24.834444,121.066111,0.3959566
