站號,站名,日期,lat,lon,BlastGRU-TW
12J990,口湖工作站,2023-03-21,23.589978,120.180394,1.2376037e-05
12Q970,東港工作站,2023-03-21,22.479997,120.466058,8.607351e-05
12Q980,恆春工作站,2023-03-21,22.079678,120.714425,2.7019061e-05
466881,新北,2023-03-21,24.9593,121.52,1.8728319e-05
466900,淡水,2023-03-21,25.164889,121.448906,1.3709933e-05
466920,臺北,2023-03-21,25.037658,121.514853,1.7691636e-05
466940,基隆,2023-03-21,25.133314,121.740475,1.8176406e-05
466990,花蓮,2023-03-21,23.975128,121.613275,0.026456198
467050,新屋,2023-03-21,25.006744,121.047486,1.4250249e-05
467060,蘇澳,2023-03-21,24.596736,121.857372,3.3171655e-05
467080,宜蘭,2023-03-21,24.763975,121.756528,2.0634105e-05
467270,田中,2023-03-21,23.873803,120.581286,6.7966095e-05
467300,東吉島,2023-03-21,23.25695,119.667467,0.0027612823
467350,澎湖,2023-03-21,23.565503,119.563094,0.0036381572
467410,臺南,2023-03-21,22.993239,120.204772,3.7304522e-05
467420,永康,2023-03-21,23.038386,120.2367,9.127944e-05
467441,高雄,2023-03-21,22.7304,120.3125,0.00012244856
467480,嘉義,2023-03-21,23.495925,120.432906,2.3108625e-05
467490,臺中,2023-03-21,24.145736,120.684075,4.491994e-05
467540,大武,2023-03-21,22.355675,120.903789,0.00069462816
467571,新竹,2023-03-21,24.827853,121.014219,7.9885795e-06
467590,恆春,2023-03-21,22.003897,120.746339,2.7200242e-05
467610,成功,2023-03-21,23.097486,121.373428,2.7706725e-05
467620,蘭嶼,2023-03-21,22.036969,121.558339,0.00010917244
467660,臺東,2023-03-21,22.752211,121.154586,2.8824032e-05
467790,墾丁雷達站,2023-03-21,21.948235,120.808028,2.6934757e-05
72AI40,桃改臺北分場,2023-03-21,24.944503,121.386972,1.5885926e-05
72C440,桃園農改,2023-03-21,24.950944,121.030583,1.4414279e-05
72C440,桃園農改場,2023-03-21,24.950944,121.030583,1.4414279e-05
72D680,新埔,2023-03-21,24.834444,121.066111,3.4687146e-06
72D680,桃園農改場新埔工作站,2023-03-21,24.834444,121.066111,3.4687146e-06
72G600,臺中農改,2023-03-21,24.003028,120.534389,2.0745307e-05
72G600,臺中農改場,2023-03-21,24.003028,120.534389,2.0745307e-05
72K220,雲林分場,2023-03-21,23.634556,120.477333,6.522946e-05
72L140,朴子分場,2023-03-21,23.4982,120.2414,1.1158367e-05
72M360,義竹分場,2023-03-21,23.360694,120.279361,6.431218e-05
72M360,義竹工作站,2023-03-21,23.360694,120.279361,6.431224e-05
72M700,嘉義分場,2023-03-21,23.416869,120.283061,1.764986e-05
72N100,臺南農改,2023-03-21,23.0605,120.342194,8.2624e-05
72N100,臺南農改場,2023-03-21,23.0605,120.342194,8.2624e-05
72N240,七股研究中心,2023-03-21,23.081672,120.062894,0.012518044
72Q010,高雄農改,2023-03-21,22.709333,120.525889,0.0001057432
72Q010,高雄農改場,2023-03-21,22.709333,120.525889,0.0001057432
72S200,斑鳩分場,2023-03-21,22.829528,121.077694,8.052531e-06
72S590,賓朗果園,2023-03-21,22.813889,121.071278,3.5130965e-05
72S590,賓朗農改,2023-03-21,22.813889,121.071278,3.5130965e-05
72T250,花蓮農改,2023-03-21,23.975222,121.563889,2.068821e-05
72T250,花蓮農改場,2023-03-21,23.975222,121.563889,2.068821e-05
72U480,蘭陽分場,2023-03-21,24.686306,121.716583,0.0057801036
72V140,旗南,2023-03-21,22.857861,120.516667,0.00010218881
72V140,旗南農改,2023-03-21,22.857861,120.516667,0.00010218881
82A750,文山分場,2023-03-21,24.955778,121.631222,2.0529784e-05
82A750,文山茶改,2023-03-21,24.955778,121.631222,2.0529804e-05
82C160,茶改場(楊梅),2023-03-21,24.908472,121.185333,1.237645e-05
82C160,茶改場,2023-03-21,24.908472,121.185333,1.237645e-05
82H840,凍頂工作站,2023-03-21,23.762528,120.7405,5.3572094e-05
82H840,凍頂茶改,2023-03-21,23.762528,120.7405,5.3572094e-05
82S580,臺東茶改,2023-03-21,22.907694,121.130139,3.871748e-05
82S580,龍田,2023-03-21,22.907694,121.130139,3.871748e-05
A0K420,麥寮,2023-03-21,23.7988,120.2177,9.844889e-06
A0W080,吉貝,2023-03-21,23.74,119.6042,0.0030416646
A2C560,農工中心,2023-03-21,24.985917,121.239833,1.0648673e-05
A2K360,臺西分所,2023-03-21,23.717231,120.190522,8.013791e-06
A2K360,臺西水試所,2023-03-21,23.717231,120.190522,8.013791e-06
A2K570,古坑(花卉中心),2023-03-21,23.633531,120.552392,5.9270464e-05
A2K570,古坑花卉中心,2023-03-21,23.63353,120.55239,5.9270464e-05
A2K630,臺大雲林校區,2023-03-21,23.730628,120.423903,7.054765e-05
A2N290,臺南蘭花園區,2023-03-21,23.340258,120.379661,6.182033e-05
B2E890,新竹畜試,2023-03-21,24.527806,120.770972,3.6592995e-05
B2N890,畜產試驗所,2023-03-21,23.058972,120.336406,8.2624e-05
B2N890,畜試所,2023-03-21,23.058972,120.336406,8.2624e-05
B2Q810,恆春分所,2023-03-21,21.945583,120.802167,2.7384069e-05
B2Q810,恆春畜試,2023-03-21,21.945583,120.802167,2.7384069e-05
B2U990,宜蘭畜試,2023-03-21,24.669039,121.832561,2.4575356e-05
C0A520,山佳,2023-03-21,24.974944,121.402008,1.5939493e-05
C0A530,坪林,2023-03-21,24.938183,121.70975,1.7698994e-05
C0A540,四堵,2023-03-21,24.8926,121.745736,1.9277582e-05
C0A550,泰平,2023-03-21,24.971197,121.823711,1.5706812e-05
C0A560,福山,2023-03-21,24.776203,121.502811,8.726659e-06
C0A570,桶後,2023-03-21,24.848222,121.597992,1.750725e-05
C0A640,石碇,2023-03-21,24.993969,121.662917,0.0042113867
C0A650,火燒寮,2023-03-21,25.002719,121.742892,1.5786733e-05
C0A660,瑞芳,2023-03-21,25.113169,121.801147,1.3014661e-05
C0A770,科教館,2023-03-21,25.096356,121.516507,8.593315e-06
C0A860,大坪,2023-03-21,25.165914,121.632969,1.617047e-05
C0A880,福隆,2023-03-21,25.017842,121.942083,1.1831794e-05
C0A890,雙溪,2023-03-21,25.036003,121.864242,1.689518e-05
C0A920,富貴角,2023-03-21,25.263783,121.565258,1.3496791e-05
C0A931,三和,2023-03-21,25.233153,121.595236,1.659508e-05
C0A940,金山,2023-03-21,25.223628,121.643967,0.0035796529
C0A950,鼻頭角,2023-03-21,25.129036,121.923372,2.3881797e-05
C0A970,三貂角,2023-03-21,25.007606,122.002058,2.1441758e-05
C0A980,社子,2023-03-21,25.109508,121.469681,8.618931e-06
C0A9C0,天母,2023-03-21,25.117494,121.537169,8.501726e-06
C0A9F0,內湖,2023-03-21,25.079422,121.57545,8.661621e-06
C0AC60,三峽,2023-03-21,24.939025,121.369728,1.6284152e-05
C0AC70,信義,2023-03-21,25.037822,121.564597,1.8427e-05
C0AC80,文山,2023-03-21,25.00235,121.575728,8.958242e-06
C0ACA0,新莊,2023-03-21,25.051478,121.446756,1.5708818e-05
C0AD00,三芝,2023-03-21,25.258131,121.501917,1.2092626e-05
C0AD10,八里,2023-03-21,25.150211,121.403947,1.0669236e-05
C0AD30,蘆洲,2023-03-21,25.086594,121.472331,8.593323e-06
C0AD40,土城,2023-03-21,24.973208,121.445169,1.752539e-05
C0AD50,鶯歌,2023-03-21,24.951533,121.346294,1.4929054e-05
C0AG80,中和,2023-03-21,24.991622,121.491792,9.138934e-06
C0AH00,汐止,2023-03-21,25.066881,121.658778,1.8810548e-05
C0AH10,永和,2023-03-21,25.01125,121.508111,9.161396e-06
C0AH40,平等,2023-03-21,25.129142,121.577086,1.49845255e-05
C0AH50,林口,2023-03-21,25.072181,121.38084,1.4408506e-05
C0AH70,松山,2023-03-21,25.04871,121.55042,1.8427e-05
C0AH80,深坑,2023-03-21,25.002703,121.628328,0.004039996
C0AI00,五股,2023-03-21,25.07445,121.42728,1.4929325e-05
C0AI10,屈尺,2023-03-21,24.92184,121.54475,8.455943e-06
C0AI20,白沙灣,2023-03-21,25.283128,121.519058,7.716629e-06
C0AI30,三重,2023-03-21,25.057328,121.500629,1.739664e-05
C0AI40,石牌,2023-03-21,25.115597,121.513139,8.570039e-06
C0AJ10,澳底,2023-03-21,25.057107,121.927272,2.29667e-05
C0AJ20,野柳,2023-03-21,25.20703,121.690021,0.002566249
C0AJ30,淡水觀海,2023-03-21,25.184591,121.408616,9.216331e-06
C0AJ40,石門,2023-03-21,25.273672,121.601198,1.4027035e-05
C0AJ50,水湳洞,2023-03-21,25.123695,121.862238,6.7101e-06
C0AJ60,六塊厝,2023-03-21,25.24,121.4481,1.1815062e-05
C0AJ70,田寮,2023-03-21,25.2698,121.4886,1.2461605e-05
C0AJ80,板橋,2023-03-21,25.0107,121.4489,1.0282667e-05
C0B010,七堵,2023-03-21,25.094819,121.71713,0.002180819
C0B020,基隆嶼,2023-03-21,25.19141,121.78391,5.0192853e-06
C0B040,大武崙,2023-03-21,25.166676,121.706993,1.68079e-05
C0B050,八斗子,2023-03-21,25.144754,121.79167,1.7369386e-05
C0B060,暖暖,2023-03-21,25.0957,121.7403,7.3496435e-06
C0C460,復興,2023-03-21,24.820208,121.352281,1.07103615e-05
C0C480,桃園,2023-03-21,24.992425,121.323172,1.0722789e-05
C0C490,八德,2023-03-21,24.928708,121.283289,1.4052381e-05
C0C590,觀音,2023-03-21,25.027072,121.153317,2.668435e-06
C0C620,蘆竹,2023-03-21,25.084275,121.265767,1.0769336e-05
C0C630,大溪,2023-03-21,24.882853,121.265547,1.13325705e-05
C0C650,平鎮,2023-03-21,24.897503,121.214636,1.237645e-05
C0C660,楊梅,2023-03-21,24.912375,121.143047,1.2373312e-05
C0C670,龍潭,2023-03-21,24.870056,121.221389,1.0145624e-05
C0C680,龜山,2023-03-21,25.02846,121.38656,1.3823496e-05
C0C700,中壢,2023-03-21,24.977661,121.256375,1.0699275e-05
C0C710,大溪永福,2023-03-21,24.892936,121.324975,1.1043018e-05
C0C720,竹圍,2023-03-21,25.112692,121.239824,1.0840642e-05
C0C730,中大臨海站,2023-03-21,24.966126,121.008581,1.39999465e-05
C0C740,觀音工業區,2023-03-21,25.064764,121.114856,2.5905274e-06
C0C750,新興坑尾,2023-03-21,25.0061,121.0971,1.1935548e-05
C0D390,關西,2023-03-21,24.7977,121.1732,1.3150214e-05
C0D430,峨眉,2023-03-21,24.6905,121.017189,1.5550111e-05
C0D480,打鐵坑,2023-03-21,24.849664,121.150789,4.1204394e-06
C0D540,橫山,2023-03-21,24.71116,121.11693,1.3946364e-05
C0D560,竹東,2023-03-21,24.767147,121.057881,4.2534093e-06
C0D580,寶山,2023-03-21,24.735006,121.025192,8.889944e-06
C0D590,新豐,2023-03-21,24.87068,120.97721,1.5137071e-05
C0D650,湖口,2023-03-21,24.904794,121.043628,1.4473261e-05
C0D660,新竹市東區,2023-03-21,24.798681,120.986942,1.4628845e-05
C0D670,海天一線,2023-03-21,24.831986,120.914438,1.3646343e-05
C0D680,香山濕地,2023-03-21,24.783581,120.914988,1.5023946e-05
C0D690,外湖,2023-03-21,24.917735,120.968711,1.5422305e-05
C0E420,竹南,2023-03-21,24.708978,120.888897,1.5371323e-05
C0E430,南庄,2023-03-21,24.601775,121.000214,1.5527587e-05
C0E520,大湖,2023-03-21,24.41494,120.87087,1.8030918e-05
C0E540,後龍,2023-03-21,24.606489,120.783933,1.4977839e-05
C0E550,明德,2023-03-21,24.583486,120.885411,1.6513697e-05
C0E590,通霄,2023-03-21,24.471892,120.704622,4.0539602e-05
C0E730,頭份,2023-03-21,24.688247,120.912206,1.5803602e-05
C0E740,造橋,2023-03-21,24.637056,120.864778,0.002341616
C0E750,苗栗,2023-03-21,24.564569,120.824575,0.0036767914
C0E780,銅鑼,2023-03-21,24.489681,120.790853,1.6498996e-05
C0E791,卓蘭,2023-03-21,24.3126,120.8244,2.1866486e-05
C0E810,西湖,2023-03-21,24.562947,120.7485,3.623487e-05
C0E820,獅潭,2023-03-21,24.539133,120.920042,2.2215803e-05
C0E830,苑裡,2023-03-21,24.439714,120.653053,4.2035346e-05
C0E850,大河,2023-03-21,24.618069,120.948578,1.6516311e-05
C0E870,高鐵苗栗,2023-03-21,24.60725,120.826094,1.4956543e-05
C0E910,海埔,2023-03-21,24.648767,120.772435,3.6103283e-05
C0E920,通霄漁港,2023-03-21,24.498589,120.673876,1.3405471e-05
C0E930,龍鳳,2023-03-21,24.700034,120.859125,1.5610374e-05
C0F000,大肚,2023-03-21,24.15295,120.572117,5.622393e-05
C0F0B0,石岡,2023-03-21,24.276061,120.777644,2.5846792e-05
C0F850,東勢,2023-03-21,24.246428,120.833047,0.0025392384
C0F930,大甲,2023-03-21,24.347667,120.640403,4.4135206e-05
C0F970,大坑,2023-03-21,24.173142,120.722289,4.2790583e-05
C0F9A0,中竹林,2023-03-21,24.103556,120.751061,2.9730189e-05
C0F9I0,神岡,2023-03-21,24.272481,120.658314,4.4821052e-05
C0F9K0,大安,2023-03-21,24.345061,120.588025,4.7290534e-05
C0F9L0,后里,2023-03-21,24.310436,120.729725,1.928253e-05
C0F9M0,豐原,2023-03-21,24.254322,120.720692,4.1535302e-05
C0F9N0,大里,2023-03-21,24.092464,120.701378,2.1416601e-05
C0F9O0,潭子,2023-03-21,24.213106,120.703933,1.8868528e-05
C0F9P0,清水,2023-03-21,24.312297,120.562242,1.3615275e-05
C0F9Q0,外埔,2023-03-21,24.347817,120.705686,4.5063545e-05
C0F9R0,龍井,2023-03-21,24.184536,120.528972,1.3425735e-05
C0F9S0,烏日,2023-03-21,24.107058,120.624103,2.298951e-05
C0F9T0,西屯,2023-03-21,24.179494,120.641275,1.7209126e-05
C0F9U0,南屯,2023-03-21,24.137006,120.637969,4.467349e-05
C0F9X0,大雅(中科園區),2023-03-21,24.21528,120.62445,1.6837757e-05
C0FA10,松柏,2023-03-21,24.429115,120.617482,4.2313543e-05
C0FA20,溫寮,2023-03-21,24.372177,120.583125,4.543499e-05
C0FA30,梧棲,2023-03-21,24.256003,120.523381,4.4923494e-05
C0FA40,臺中電廠,2023-03-21,24.2146,120.4907,1.3425735e-05
C0FA50,霧峰,2023-03-21,24.0419,120.6995,4.5374323e-05
C0G620,芬園,2023-03-21,24.015678,120.6213,2.2658844e-05
C0G640,鹿港,2023-03-21,24.0753,120.430481,1.1429896e-05
C0G650,員林,2023-03-21,23.946503,120.585597,5.145718e-05
C0G660,溪湖,2023-03-21,23.94835,120.479122,5.0185154e-05
C0G720,溪州,2023-03-21,23.851589,120.499093,6.112404e-05
C0G730,二林,2023-03-21,23.903325,120.376081,1.3581751e-05
C0G740,大城,2023-03-21,23.852487,120.320935,4.8712165e-05
C0G770,福興,2023-03-21,24.041289,120.437669,5.049623e-05
C0G780,秀水,2023-03-21,24.03405,120.503869,5.0953837e-05
C0G800,埔鹽,2023-03-21,24.000394,120.431683,1.30846e-05
C0G810,埔心,2023-03-21,23.947633,120.525456,5.001793e-05
C0G820,田尾,2023-03-21,23.901669,120.509389,1.9958312e-05
C0G830,埤頭,2023-03-21,23.866003,120.452806,6.2815605e-05
C0G840,北斗,2023-03-21,23.877586,120.514222,1.9958312e-05
C0G860,社頭,2023-03-21,23.897647,120.5862,2.1533007e-05
C0G870,芳苑,2023-03-21,23.922303,120.320025,5.8351584e-06
C0G880,二水,2023-03-21,23.810742,120.6173,3.3749646e-05
C0G890,伸港,2023-03-21,24.148933,120.484403,4.45046e-05
C0G900,線西,2023-03-21,24.143358,120.443536,4.4468576e-05
C0G910,花壇,2023-03-21,24.032076,120.549461,5.3127187e-05
C0G920,永靖,2023-03-21,23.924703,120.547533,2.2339664e-05
C0G940,竹塘,2023-03-21,23.848253,120.386764,6.102241e-05
C0G950,防潮門,2023-03-21,24.1835,120.4871,1.3481162e-05
C0G960,福寶,2023-03-21,24.0443,120.3814,4.7471814e-05
C0G970,三豐,2023-03-21,23.882,120.2895,5.8351584e-06
C0H890,埔里,2023-03-21,23.972169,120.952425,4.3037355e-05
C0H950,中寮,2023-03-21,23.884447,120.766406,3.3815108e-05
C0H960,草屯,2023-03-21,23.973672,120.68085,6.584186e-05
C0I110,竹山,2023-03-21,23.761225,120.688156,5.9519454e-05
C0I360,水里,2023-03-21,23.812553,120.849792,3.9833478e-05
C0I380,集集,2023-03-21,23.828206,120.801467,0.0015355094
C0I410,名間,2023-03-21,23.837053,120.701447,6.128934e-05
C0I420,國姓,2023-03-21,24.037803,120.855072,0.0033906326
C0I460,南投,2023-03-21,23.911469,120.687331,3.3684824e-05
C0K250,崙背,2023-03-21,23.75555,120.318925,5.0915853e-05
C0K280,四湖,2023-03-21,23.630414,120.227125,4.8340065e-05
C0K291,宜梧,2023-03-21,23.536281,120.169329,5.6080695e-05
C0K330,虎尾,2023-03-21,23.719183,120.442036,2.6391323e-05
C0K390,土庫,2023-03-21,23.679029,120.395574,2.3418417e-05
C0K400,斗六,2023-03-21,23.720583,120.541127,3.3809658e-05
C0K410,北港,2023-03-21,23.573957,120.292802,5.9765614e-05
C0K420,西螺,2023-03-21,23.800407,120.467394,1.8898563e-05
C0K430,褒忠,2023-03-21,23.690938,120.303634,9.732551e-06
C0K440,二崙,2023-03-21,23.772797,120.408944,6.550148e-05
C0K450,大埤,2023-03-21,23.646074,120.431537,7.014007e-05
C0K460,斗南,2023-03-21,23.678734,120.478359,3.0302037e-05
C0K470,林內,2023-03-21,23.748675,120.609642,6.1210834e-05
C0K480,莿桐,2023-03-21,23.761192,120.502372,6.136051e-05
C0K500,元長,2023-03-21,23.64981,120.315024,5.3383854e-05
C0K510,水林,2023-03-21,23.572924,120.24597,5.3742635e-05
C0K530,臺西,2023-03-21,23.701547,120.197559,7.969472e-06
C0K550,蔦松,2023-03-21,23.514319,120.229736,1.1158367e-05
C0K560,棋山,2023-03-21,23.68645,120.603417,3.813557e-05
C0K580,高鐵雲林,2023-03-21,23.737456,120.417944,7.054765e-05
C0K590,雲林東勢,2023-03-21,23.674192,120.255721,5.176499e-05
C0K600,箔子寮,2023-03-21,23.6197,120.14,1.1382047e-05
C0M410,馬頭山,2023-03-21,23.324361,120.582017,4.2553907e-05
C0M520,東後寮,2023-03-21,23.369908,120.248065,6.286714e-05
C0M640,中埔,2023-03-21,23.42538,120.5229,6.072676e-05
C0M650,朴子,2023-03-21,23.43463,120.23902,5.867939e-05
C0M660,溪口,2023-03-21,23.604131,120.403569,1.835341e-05
C0M670,大林,2023-03-21,23.600616,120.45841,1.8845867e-05
C0M680,太保,2023-03-21,23.455062,120.331455,6.45725e-05
C0M690,水上,2023-03-21,23.419734,120.388909,2.288814e-05
C0M700,竹崎,2023-03-21,23.526178,120.555508,5.8184196e-05
C0M710,東石,2023-03-21,23.458927,120.15385,5.2053085e-05
C0M720,番路,2023-03-21,23.464657,120.554156,5.823065e-05
C0M730,嘉義市東區,2023-03-21,23.457673,120.460531,5.263315e-05
C0M740,六腳,2023-03-21,23.492871,120.290625,1.7602037e-05
C0M750,布袋,2023-03-21,23.380878,120.167789,1.4325341e-05
C0M760,民雄,2023-03-21,23.551754,120.428457,5.3860793e-05
C0M770,嘉義梅山,2023-03-21,23.585398,120.555587,3.467401e-05
C0M780,鹿草,2023-03-21,23.41134,120.30835,1.7350281e-05
C0M790,新港,2023-03-21,23.553269,120.345728,5.9437032e-05
C0M800,茶山,2023-03-21,23.299075,120.664767,4.4930093e-05
C0M880,好美里,2023-03-21,23.3364,120.138,5.803181e-05
C0N010,鯤鯓國小,2023-03-21,23.1879,120.0889,0.010827499
C0N020,城西,2023-03-21,23.0568,120.0956,6.701168e-05
C0N030,四草,2023-03-21,23.0235,120.1116,3.5063156e-05
C0N040,蘆竹溝,2023-03-21,23.2344,120.0961,5.5926885e-05
C0N050,蚵寮,2023-03-21,23.301,120.1104,1.14572895e-05
C0O810,曾文,2023-03-21,23.219681,120.497328,4.003142e-05
C0O830,北寮,2023-03-21,23.079561,120.495008,5.50543e-05
C0O840,王爺宮,2023-03-21,23.222064,120.40085,2.9885192e-05
C0O860,大內,2023-03-21,23.11885,120.36083,4.3516295e-05
C0O900,善化,2023-03-21,23.112883,120.297219,3.2491906e-05
C0O930,玉井,2023-03-21,23.126042,120.46055,6.8380796e-05
C0O950,安南,2023-03-21,23.076694,120.144861,1.91095e-05
C0O960,崎頂,2023-03-21,22.959547,120.369317,9.455626e-05
C0O970,虎頭埤,2023-03-21,23.021375,120.347878,6.0655624e-05
C0O980,新市,2023-03-21,23.061614,120.298197,8.54364e-05
C0O990,媽廟,2023-03-21,22.99175,120.293525,5.1469644e-05
C0R150,三地門,2023-03-21,22.709889,120.639944,0.00012965308
C0R160,鹽埔,2023-03-21,22.739558,120.530778,0.000117955635
C0R170,屏東,2023-03-21,22.660269,120.494072,0.000109659166
C0R190,赤山,2023-03-21,22.592333,120.614306,0.00013561982
C0R220,潮州,2023-03-21,22.534361,120.54,0.00012274596
C0R240,來義,2023-03-21,22.527306,120.625111,0.00014221703
C0R260,春日,2023-03-21,22.370361,120.628306,0.019751199
C0R270,琉球嶼,2023-03-21,22.332244,120.362236,0.01857193
C0R280,檳榔,2023-03-21,22.076078,120.836777,3.2446704e-05
C0R320,車城,2023-03-21,22.0744,120.716247,2.7019061e-05
C0R341,牡丹,2023-03-21,22.130036,120.792639,0.05767684
C0R350,貓鼻頭,2023-03-21,21.921774,120.7358,2.7106787e-05
C0R470,高樹,2023-03-21,22.826389,120.600806,0.000104055944
C0R480,長治,2023-03-21,22.693128,120.542622,0.00011214959
C0R490,九如,2023-03-21,22.7405,120.490503,0.00010813852
C0R520,崁頂,2023-03-21,22.514781,120.506914,0.000102960454
C0R540,佳冬,2023-03-21,22.419456,120.552375,0.00011948881
C0R550,新埤,2023-03-21,22.467947,120.582894,0.0001251813
C0R560,新園,2023-03-21,22.5434,120.461558,0.00011727229
C0R570,麟洛,2023-03-21,22.65078,120.52719,0.00010873183
C0R580,南州,2023-03-21,22.48591,120.50274,0.000105244544
C0R590,里港,2023-03-21,22.77919,120.49459,9.5932664e-05
C0R620,墾雷,2023-03-21,21.900836,120.855269,2.6379244e-05
C0R640,東港,2023-03-21,22.46247,120.44074,0.0001257396
C0R650,竹田,2023-03-21,22.58486,120.54344,0.00013059383
C0R660,枋寮,2023-03-21,22.367722,120.590647,0.0138457
C0R670,楓港,2023-03-21,22.190131,120.692156,0.06890215
C0R680,佳樂水,2023-03-21,21.993578,120.861633,2.7384069e-05
C0R690,墾丁,2023-03-21,21.966756,120.810269,2.359349e-05
C0R700,枋山,2023-03-21,22.246844,120.661086,0.185003
C0R710,龍磐,2023-03-21,21.931672,120.838942,2.6506084e-05
C0R720,旭海,2023-03-21,22.205403,120.887614,0.00020232014
C0R730,大坪頂,2023-03-21,22.024633,120.69355,2.618687e-05
C0R740,獅子,2023-03-21,22.201569,120.70525,0.052335586
C0R760,南仁湖,2023-03-21,22.084681,120.863353,2.7264308e-05
C0R770,保力,2023-03-21,22.071122,120.764111,2.6862088e-05
C0R780,滿州,2023-03-21,22.024403,120.839892,2.697967e-05
C0R790,九棚,2023-03-21,22.14195,120.889281,0.00023576824
C0R800,丹路,2023-03-21,22.204481,120.750989,0.09086068
C0R810,內獅,2023-03-21,22.305064,120.642986,0.10721541
C0R830,高士,2023-03-21,22.121825,120.836781,3.0352474e-05
C0R850,林邊,2023-03-21,22.4634,120.5339,0.000112374604
C0R860,鼻頭,2023-03-21,22.1043,120.8979,3.5767614e-05
C0R870,興海,2023-03-21,21.9752,120.8439,2.7384069e-05
C0R880,後壁湖,2023-03-21,21.9457,120.7457,2.7404369e-05
C0R890,山海,2023-03-21,21.9878,120.7091,2.778197e-05
C0R900,竹坑,2023-03-21,22.1385,120.7022,0.14915447
C0R910,下寮,2023-03-21,22.3929,120.5548,0.000119975746
C0R920,塭仔,2023-03-21,22.4169,120.5197,0.00011631796
C0R930,萬丹,2023-03-21,22.5885,120.4851,0.00012286048
C0R940,加祿堂,2023-03-21,22.3363,120.6217,0.028640218
C0S710,鹿野,2023-03-21,22.917711,121.122994,3.786819e-05
C0S730,綠島,2023-03-21,22.6672,121.47533,0.000105249565
C0S740,池上,2023-03-21,23.119628,121.209469,2.8420503e-05
C0S770,大溪山,2023-03-21,22.478475,120.943325,4.9847033e-05
C0S790,金崙,2023-03-21,22.538122,120.966875,1.6061258e-05
C0S810,東河,2023-03-21,22.972672,121.303986,4.3702392e-05
C0S830,長濱,2023-03-21,23.286817,121.411975,1.6878399e-05
C0S840,南田,2023-03-21,22.279725,120.889208,0.0006008859
C0S890,關山,2023-03-21,23.0395,121.175017,1.4796895e-05
C0S900,蘭嶼高中,2023-03-21,22.04909,121.51214,7.229218e-05
C0S910,蘭嶼燈塔,2023-03-21,22.081197,121.503117,7.043821e-05
C0S920,金峰嘉蘭,2023-03-21,22.594789,120.960825,5.4653505e-05
C0S930,延平,2023-03-21,22.902581,121.084058,3.5658122e-05
C0S940,石寧山,2023-03-21,23.223772,121.406639,2.0098427e-05
C0S950,七塊厝,2023-03-21,22.954453,121.229922,3.0796917e-05
C0S960,香蘭,2023-03-21,22.587569,120.993375,6.114707e-05
C0S970,加津林,2023-03-21,22.416211,120.926942,9.295542e-05
C0S990,山豬窟,2023-03-21,22.318619,120.857372,0.00018552641
C0SA00,歷坵,2023-03-21,22.520969,120.89185,4.781981e-05
C0SA10,檳榔四格山,2023-03-21,22.810031,121.109308,3.4064364e-05
C0SA30,都歷,2023-03-21,23.020333,121.323642,3.5070712e-05
C0SA40,瑞和,2023-03-21,22.974361,121.156697,1.9839252e-05
C0SA60,知本（水試所）,2023-03-21,22.702394,121.082761,4.97336e-05
C0SA80,土坂,2023-03-21,22.453108,120.887572,0.012682271
C0SA90,達仁林場,2023-03-21,22.264347,120.823972,0.0011902732
C0T870,鯉魚潭,2023-03-21,23.935639,121.508944,3.498637e-05
C0T900,西林,2023-03-21,23.8119,121.441458,2.49639e-05
C0T960,光復,2023-03-21,23.660694,121.424964,1.7764147e-05
C0T9A0,月眉山,2023-03-21,23.809928,121.539828,1.9295407e-05
C0T9D0,和中,2023-03-21,24.26676,121.74103,1.2993788e-05
C0T9E0,大坑,2023-03-21,23.880628,121.581981,1.811836e-05
C0T9F0,水璉,2023-03-21,23.797131,121.542514,2.1729309e-05
C0T9I0,豐濱,2023-03-21,23.583897,121.514806,1.5539912e-05
C0T9M0,靜浦,2023-03-21,23.455167,121.495028,2.8432049e-05
C0T9N0,富里,2023-03-21,23.171639,121.249378,1.39720705e-05
C0U600,礁溪,2023-03-21,24.817539,121.765608,1.5554886e-05
C0U650,玉蘭,2023-03-21,24.675286,121.587061,8.6171885e-06
C0U750,龜山島,2023-03-21,24.841667,121.953133,2.0963154e-05
C0U760,東澳,2023-03-21,24.52196,121.83318,0.0006435442
C0U770,南澳,2023-03-21,24.44935,121.81022,1.2641704e-05
C0U780,五結,2023-03-21,24.68637,121.79794,1.9633118e-05
C0U860,頭城,2023-03-21,24.85323,121.8308,1.6561848e-05
C0U870,大礁溪,2023-03-21,24.791042,121.675047,0.004606571
C0U880,北關,2023-03-21,24.9072,121.8734,8.789517e-06
C0U890,三星,2023-03-21,24.66812,121.65302,1.7036296e-05
C0U900,內城,2023-03-21,24.71813,121.68766,0.006026783
C0U910,冬山,2023-03-21,24.63373,121.7937,2.4575356e-05
C0U940,羅東,2023-03-21,24.68184,121.74934,2.0305824e-05
C0U970,大福,2023-03-21,24.80064,121.81389,9.930813e-06
C0U990,員山,2023-03-21,24.74435,121.72247,2.9518164e-05
C0UA00,土場,2023-03-21,24.576533,121.495333,8.958703e-06
C0UA80,大溪漁港,2023-03-21,24.941801,121.902955,1.7877519e-05
C0UA90,石城,2023-03-21,24.980444,121.951214,1.1200629e-05
C0UB00,淡江大學蘭陽校園,2023-03-21,24.823239,121.730383,2.8688533e-05
C0UB20,壯圍,2023-03-21,24.7359,121.8163,3.0464409e-05
C0V250,甲仙,2023-03-21,23.080106,120.591758,4.9585942e-05
C0V260,月眉,2023-03-21,22.971003,120.539853,8.969551e-05
C0V310,美濃,2023-03-21,22.898742,120.519153,7.174058e-05
C0V350,溪埔,2023-03-21,22.738578,120.446797,0.00011715337
C0V360,內門,2023-03-21,22.975481,120.466769,5.5351888e-05
C0V370,古亭坑,2023-03-21,22.893178,120.401947,6.4931e-05
C0V400,阿公店,2023-03-21,22.804194,120.355528,8.047239e-05
C0V440,鳳山,2023-03-21,22.646653,120.356122,0.00011697422
C0V450,鳳森,2023-03-21,22.545064,120.392592,0.00013941084
C0V490,新興,2023-03-21,22.627422,120.298803,0.000116363226
C0V530,阿蓮,2023-03-21,22.883208,120.327508,7.609015e-05
C0V610,梓官,2023-03-21,22.760558,120.267211,0.00012428958
C0V620,永安,2023-03-21,22.82315,120.236856,4.257981e-05
C0V630,茄萣,2023-03-21,22.906642,120.182608,4.0362618e-05
C0V640,湖內,2023-03-21,22.887139,120.2445,3.958891e-05
C0V650,彌陀,2023-03-21,22.783806,120.246361,4.257981e-05
C0V660,岡山,2023-03-21,22.797078,120.294958,5.7427835e-05
C0V680,仁武,2023-03-21,22.701083,120.347722,7.439288e-05
C0V690,鼓山,2023-03-21,22.623325,120.275575,3.1542913e-05
C0V700,三民,2023-03-21,22.645017,120.311233,0.000116363226
C0V710,苓雅,2023-03-21,22.622742,120.330669,3.5656594e-05
C0V720,林園,2023-03-21,22.507747,120.394511,7.384153e-05
C0V730,大寮,2023-03-21,22.605614,120.395717,8.3842635e-05
C0V740,旗山,2023-03-21,22.888614,120.483597,7.040329e-05
C0V750,路竹,2023-03-21,22.854997,120.259439,0.000124073
C0V760,橋頭,2023-03-21,22.757806,120.30575,0.00012576983
C0V770,大社,2023-03-21,22.730306,120.346639,0.00012322843
C0V790,萬山,2023-03-21,22.905944,120.688056,6.958498e-05
C0V800,六龜,2023-03-21,22.997889,120.633583,7.3660565e-05
C0V810,左營,2023-03-21,22.67491,120.28491,0.00012457947
C0V820,小林,2023-03-21,23.148408,120.63325,6.410828e-05
C0V840,鳳鼻頭,2023-03-21,22.5083,120.3591,7.519678e-05
C0V850,蚵仔寮,2023-03-21,22.7256,120.2527,0.000118506265
C0V860,南寮,2023-03-21,22.7616,120.2339,0.000114304814
C0V870,文安,2023-03-21,22.8025,120.2164,3.8818853e-05
C0V880,興達,2023-03-21,22.8778,120.2127,4.0362618e-05
C0V890,前鎮,2023-03-21,22.5718,120.3117,0.00012209226
C0V900,汕尾,2023-03-21,22.4782,120.4151,0.00010545159
C0X050,東河,2023-03-21,23.296598,120.385608,3.0413119e-05
C0X060,下營,2023-03-21,23.22695,120.256261,6.492023e-05
C0X080,佳里,2023-03-21,23.173039,120.145086,6.0325387e-05
C0X100,臺南市北區,2023-03-21,23.010394,120.194228,3.9806742e-05
C0X110,臺南市南區,2023-03-21,22.961189,120.188378,9.274028e-05
C0X120,麻豆,2023-03-21,23.183289,120.248611,1.6830982e-05
C0X130,官田,2023-03-21,23.193217,120.315422,2.0437212e-05
C0X140,西港,2023-03-21,23.125608,120.203108,7.160211e-05
C0X150,安定,2023-03-21,23.102614,120.227839,2.4078488e-05
C0X160,仁德,2023-03-21,22.968258,120.257689,9.92851e-05
C0X170,關廟,2023-03-21,22.963017,120.327797,9.852972e-05
C0X180,山上,2023-03-21,23.0757,120.363253,4.076764e-05
C0X190,安平,2023-03-21,22.993161,120.152181,3.4261666e-05
C0X200,左鎮,2023-03-21,23.056758,120.408522,7.342395e-05
C0X210,白河,2023-03-21,23.347466,120.414427,6.3293504e-05
C0X220,學甲,2023-03-21,23.230367,120.182187,6.2986495e-05
C0X230,鹽水,2023-03-21,23.272621,120.247641,6.169324e-05
C0X240,關子嶺,2023-03-21,23.331169,120.508025,5.7854497e-05
C0X250,新營,2023-03-21,23.310689,120.316681,1.840001e-05
C0X260,後壁,2023-03-21,23.366358,120.362326,6.220359e-05
C0X280,將軍,2023-03-21,23.214999,120.13577,1.5091551e-05
C0X290,北門,2023-03-21,23.267772,120.125481,5.9190308e-05
C0X300,鹿寮,2023-03-21,23.386047,120.477331,4.1875745e-05
C0X310,七股,2023-03-21,23.147289,120.086253,6.21648e-05
C0X320,柳營,2023-03-21,23.253328,120.375253,6.247586e-05
C0Z020,明里,2023-03-21,23.208717,121.262342,1.912671e-05
C0Z061,玉里,2023-03-21,23.3215,121.339656,1.790581e-05
C0Z070,舞鶴,2023-03-21,23.46811,121.37407,1.5031312e-05
C0Z080,富源,2023-03-21,23.587642,121.378225,1.4018021e-05
C0Z100,東華,2023-03-21,23.89525,121.549833,2.2020693e-05
C0Z150,吉安光華,2023-03-21,23.930925,121.595153,4.9843944e-05
C0Z160,鳳林,2023-03-21,23.746114,121.453411,2.573562e-05
C0Z170,卓溪,2023-03-21,23.3443,121.3029,1.42268e-05
C0Z180,新城,2023-03-21,24.03946,121.60454,2.8334389e-05
C0Z190,富世,2023-03-21,24.14743,121.6297,1.6471797e-05
C0Z200,萬榮,2023-03-21,23.709219,121.420106,2.2019538e-05
C0Z210,瑞穗,2023-03-21,23.5239,121.39021,1.6936478e-05
C0Z230,和平,2023-03-21,24.30717,121.77007,0.0001933313
C0Z270,蕃薯寮,2023-03-21,23.73835,121.540108,2.8158196e-05
C0Z280,德武,2023-03-21,23.47426,121.41071,1.8117393e-05
C0Z300,東里,2023-03-21,23.26853,121.30547,1.6737105e-05
C0Z310,清水斷崖,2023-03-21,24.218294,121.689142,0.00422613
C0Z330,安通山,2023-03-21,23.290728,121.348528,1.505527e-05
CAA010,國一N013K,2023-03-21,25.06944,121.6281,1.887229e-05
CAA020,國一S026K,2023-03-21,25.07639,121.4964,8.593323e-06
CAA030,國三S010K,2023-03-21,25.08,121.6475,0.0037880891
CAA040,國三S016K,2023-03-21,25.03306,121.6158,1.851285e-05
CAA050,國三S037K,2023-03-21,24.9828,121.471,9.114694e-06
CAA060,國三S042K,2023-03-21,24.96,121.4306,1.7326736e-05
CAA070,國三N046K,2023-03-21,24.95083,121.3958,1.5885926e-05
CAA080,國三S054K,2023-03-21,24.93917,121.3239,1.359716e-05
CAA090,國三A005K,2023-03-21,25.00194,121.5975,0.0043347236
CAAH60,大安森林,2023-03-21,25.02955,121.53628,1.8475599e-05
CAB010,國一S001K,2023-03-21,25.11583,121.7286,7.4780164e-06
CAB020,國一S006K,2023-03-21,25.08694,121.6869,0.0021748606
CAB030,國三S004K,2023-03-21,25.11444,121.6886,0.0058554295
CAB040,國三S007K,2023-03-21,25.09694,121.6678,0.0021898034
CAB050,國三K002K,2023-03-21,25.14583,121.7217,1.7308768e-05
CAC010,國一S072K,2023-03-21,24.89583,121.1342,1.2305672e-05
CAC020,國二E009K,2023-03-21,25.02111,121.2736,1.0814115e-05
CAC030,國三N063K,2023-03-21,24.889,121.26,1.1350093e-05
CAC050,西濱S023K,2023-03-21,25.11649,121.27551,1.0840642e-05
CAC060,西濱S032K,2023-03-21,25.091966,121.192505,1.2351006e-05
CAD010,國一S105K,2023-03-21,24.726316,120.940643,8.799137e-06
CAD020,國一N077K,2023-03-21,24.885,121.0889,1.3588838e-05
CAD030,國一S082K,2023-03-21,24.87667,121.0467,1.428075e-05
CAD040,國一S088K,2023-03-21,24.84444,121.0214,7.9885795e-06
CAD050,國一N094K,2023-03-21,24.79778,121.0089,1.45615895e-05
CAD060,國一S098K,2023-03-21,24.76056,120.9911,6.3519255e-06
CAD070,國三N076K,2023-03-21,24.800303,121.195739,1.3583863e-05
CAD080,國三N085K,2023-03-21,24.78333,121.1211,1.3498105e-05
CAD090,國三S103K,2023-03-21,24.75861,120.9608,8.23155e-06
CAD100,西濱N066K,2023-03-21,24.8956,120.9649,1.5273436e-05
CAD110,西濱S082K,2023-03-21,24.751724,120.905028,0.0013155538
CAE010,國一N142K,2023-03-21,24.453119,120.783221,0.0028252313
CAE020,國一S114K,2023-03-21,24.668835,120.885811,0.0014254852
CAE030,國一S123K,2023-03-21,24.59594,120.86071,1.6043346e-05
CAE040,國一S132K,2023-03-21,24.524506,120.820831,1.5694772e-05
CAE050,國一S152K,2023-03-21,24.375492,120.749184,1.7176824e-05
CAE060,國三N119K,2023-03-21,24.675432,120.847389,1.558855e-05
CAE070,國三N151K,2023-03-21,24.440218,120.681656,4.3333333e-05
CAE080,國三S140K,2023-03-21,24.522345,120.725006,1.59085e-05
CAE090,國三S156K,2023-03-21,24.39798,120.669487,1.5200967e-05
CAE100,西濱N107K,2023-03-21,24.5958,120.7394,1.4461521e-05
CAE110,西濱S129K,2023-03-21,24.4472,120.6428,4.2219304e-05
CAF010,國一N174K,2023-03-21,24.2049,120.6552,1.6761383e-05
CAF020,國一S162K,2023-03-21,24.295534,120.695976,1.6811333e-05
CAF030,國一S169K,2023-03-21,24.237116,120.688271,4.542104e-05
CAF040,國一S188K,2023-03-21,24.118546,120.585747,1.8518465e-05
CAF050,國三N208K,2023-03-21,24.066147,120.660919,5.3457166e-05
CAF060,國三S168K,2023-03-21,24.308519,120.614471,1.6412338e-05
CAF070,國三S173K,2023-03-21,24.27397,120.593079,4.536511e-05
CAF080,國三S178K,2023-03-21,24.226721,120.589058,4.4457174e-05
CAF090,國四E5K,2023-03-21,24.296465,120.643135,1.610892e-05
CAF100,西濱N151K,2023-03-21,24.275964,120.547681,1.3095337e-05
CAG010,國一N198K,2023-03-21,24.063889,120.523056,5.183399e-05
CAG030,國一S207K,2023-03-21,23.988304,120.508092,1.8712928e-05
CAG040,國三N191K,2023-03-21,24.139256,120.5215,4.4265536e-05
CAG050,國三N196K,2023-03-21,24.107155,120.554482,1.8736e-05
CAG060,國三S202K,2023-03-21,24.092468,120.603256,2.3134668e-05
CAG070,西濱S173K,2023-03-21,24.1081,120.434576,1.1503918e-05
CAG080,西濱S189K,2023-03-21,23.987857,120.369607,1.0811681e-05
CAG090,西濱N210K,2023-03-21,23.843536,120.293236,4.949226e-05
CAG100,王功漁港,2023-03-21,23.96824,120.32586,4.587826e-05
CAH010,國三N223K,2023-03-21,23.955116,120.662376,6.7018394e-05
CAH020,國三S217K,2023-03-21,24.00683,120.653214,2.0241729e-05
CAH030,茶改場竹圍站,2023-03-21,23.860083,120.637528,5.88868e-05
CAHA00,消防署訓練中心,2023-03-21,23.82137,120.72293,3.9392857e-05
CAJ010,國三N252K,2023-03-21,23.77412,120.64061,6.0450926e-05
CAJ020,國一N234K,2023-03-21,23.74633,120.467926,6.6528155e-05
CAJ030,西濱N222K,2023-03-21,23.737734,120.256132,5.0071765e-05
CAJ040,西濱S241K,2023-03-21,23.623426,120.172646,1.2376037e-05
CAJ050,海口故事園區,2023-03-21,23.57543,120.14121,1.1382047e-05
CAL010,國一N250K,2023-03-21,23.610292,120.436867,2.0899879e-05
CAL020,國一S262K,2023-03-21,23.512333,120.403038,1.9710562e-05
CAL030,國一N268K,2023-03-21,23.460833,120.375833,5.3061365e-05
CAL040,國一N273K,2023-03-21,23.416666,120.355,2.666721e-05
CAL050,國三N279K,2023-03-21,23.596111,120.523333,3.0487137e-05
CAL060,國三S286K,2023-03-21,23.533917,120.484583,5.9612663e-05
CAL070,國三N295K,2023-03-21,23.468598,120.499369,6.0655046e-05
CAL080,國三N303K,2023-03-21,23.428611,120.452416,5.665337e-05
CAL090,西濱S257K,2023-03-21,23.502278,120.171861,1.3021303e-05
CAL100,西濱S267K,2023-03-21,23.41613,120.162872,1.4325341e-05
CAL110,布袋國中,2023-03-21,23.35893,120.18026,6.213062e-05
CAN010,國一N288K,2023-03-21,23.30609,120.290033,1.867866e-05
CAN020,國一S306K,2023-03-21,23.1565,120.239513,6.519687e-05
CAN030,國一N316K,2023-03-21,23.07309,120.253014,8.08442e-05
CAN040,國一N323K,2023-03-21,23.00421,120.245922,3.69781e-05
CAN050,國一N335K,2023-03-21,22.897584,120.269895,6.8644746e-05
CAN060,國三S311K,2023-03-21,23.346388,120.438888,6.278146e-05
CAN070,國三S329K,2023-03-21,23.212777,120.355833,3.524442e-05
CAN080,國三N336K,2023-03-21,23.154722,120.345,6.900513e-05
CAN090,國三S342K,2023-03-21,23.106694,120.327528,3.1284413e-05
CAN100,國三S366K,2023-03-21,22.9077,120.3513,6.929019e-05
CAN110,西濱S280K,2023-03-21,23.3052,120.14891,1.3832952e-05
CAN120,西濱N304K,2023-03-21,23.103439,120.086694,0.012446794
CAN130,水試所海水繁養殖中心,2023-03-21,23.120802,120.07968,0.012518044
CAN140,六官養殖協會,2023-03-21,23.22881,120.29962,6.794762e-05
CAP010,國一S342K,2023-03-21,22.845555,120.295,0.00012428447
CAP020,國一S346K,2023-03-21,22.812222,120.314166,5.7427835e-05
CAP030,國一N351K,2023-03-21,22.765833,120.328888,0.00012576983
CAP040,國一N361K,2023-03-21,22.680555,120.328611,4.223489e-05
CAP050,國三N372K,2023-03-21,22.858611,120.373611,0.00010429376
CAP060,國三S385K,2023-03-21,22.767777,120.444444,0.00011638642
CAP070,高雄燈塔,2023-03-21,22.6146,120.2647,3.1542913e-05
CAQ010,國三N425K,2023-03-21,22.480277,120.531666,0.00010922815
CAQ020,國三S415K,2023-03-21,22.568,120.528,0.00013152164
CAQ030,崎峰國小,2023-03-21,22.42565,120.49521,0.00012010291
E2K600,四湖植物園,2023-03-21,23.676986,120.163433,7.969472e-06
E2P980,林試六龜中心,2023-03-21,22.991703,120.645722,7.28615e-05
E2S390,太麻里分所,2023-03-21,22.5988,120.9811,5.5851517e-05
E2S960,林試太麻里2,2023-03-21,22.598014,120.989761,6.114707e-05
E2S980,林試太麻里1,2023-03-21,22.598922,120.980044,5.5851517e-05
G2AI50,關渡,2023-03-21,25.11575,121.492,8.618931e-06
G2F820,農業試驗所,2023-03-21,24.031261,120.688133,4.511252e-05
G2F820,農試所(霧峰),2023-03-21,24.031261,120.688133,4.511252e-05
G2L020,嘉義分所,2023-03-21,23.485028,120.473806,3.1835687e-05
G2L020,嘉義農試,2023-03-21,23.485028,120.473806,3.1835687e-05
G2M350,溪口農場,2023-03-21,23.58565,120.408111,2.1159025e-05
G2P820,鳳山園試所,2023-03-21,22.646611,120.356083,0.00011697422
G2P820,鳳山農試,2023-03-21,22.646611,120.356083,0.00011697422
K2E360,苗栗農改,2023-03-21,24.495722,120.829111,1.6721457e-05
K2E360,苗栗農改場,2023-03-21,24.495722,120.829111,1.6721457e-05
K2E710,大湖分場,2023-03-21,24.422861,120.871833,1.8247527e-05
K2F750,種苗改良場,2023-03-21,24.225972,120.800917,0.0017310634
K2F750,種苗繁殖,2023-03-21,24.225972,120.800917,0.0017310634
U2HA50,臺大竹山,2023-03-21,23.756972,120.681556,5.9126844e-05
V2C250,八德合作社,2023-03-21,24.93775,121.266389,9.033143e-06
V2C260,八德蔬果,2023-03-21,24.978508,121.281819,1.0702643e-05
V2K610,大庄合作社,2023-03-21,23.8068,120.367939,1.4436786e-05
V2K620,麥寮合作社,2023-03-21,23.753836,120.294783,5.1099036e-05
