站號,站名,日期,lat,lon,BlastGRU-TW
12J990,口湖工作站,2023-11-01,23.589978,120.180394,0.6654821
12Q970,東港工作站,2023-11-01,22.479997,120.466058,0.81955713
12Q980,恆春工作站,2023-11-01,22.079678,120.714425,0.009999725
466881,新北,2023-11-01,24.9593,121.52,0.088749334
466900,淡水,2023-11-01,25.164889,121.448906,0.05019971
466920,臺北,2023-11-01,25.037658,121.514853,0.06597748
466940,基隆,2023-11-01,25.133314,121.740475,0.33169916
466990,花蓮,2023-11-01,23.975128,121.613275,0.89522374
467050,新屋,2023-11-01,25.006744,121.047486,0.112163216
467080,宜蘭,2023-11-01,24.763975,121.756528,0.7870465
467270,田中,2023-11-01,23.873803,120.581286,0.768768
467300,東吉島,2023-11-01,23.25695,119.667467,0.6857253
467350,澎湖,2023-11-01,23.565503,119.563094,0.62707824
467410,臺南,2023-11-01,22.993239,120.204772,0.6951297
467420,永康,2023-11-01,23.038386,120.2367,0.70946884
467441,高雄,2023-11-01,22.7304,120.3125,0.7763136
467480,嘉義,2023-11-01,23.495925,120.432906,0.78718346
467490,臺中,2023-11-01,24.145736,120.684075,0.72713566
467540,大武,2023-11-01,22.355675,120.903789,0.047138218
467571,新竹,2023-11-01,24.827853,121.014219,0.09773205
467590,恆春,2023-11-01,22.003897,120.746339,0.010367369
467610,成功,2023-11-01,23.097486,121.373428,0.6121192
467620,蘭嶼,2023-11-01,22.036969,121.558339,0.42631638
467660,臺東,2023-11-01,22.752211,121.154586,0.37254804
467790,墾丁雷達站,2023-11-01,21.948235,120.808028,0.010726112
72AI40,桃改樹林分場,2023-11-01,24.944503,121.386972,0.099736996
72C440,桃園農改,2023-11-01,24.950944,121.030583,0.17270362
72C440,桃園農改場,2023-11-01,24.950944,121.030583,0.17270362
72D680,桃改新埔分場,2023-11-01,24.834444,121.066111,0.10128764
72G600,臺中農改,2023-11-01,24.003028,120.534389,0.6641107
72G600,臺中農改場,2023-11-01,24.003028,120.534389,0.6641107
72K220,南改斗南分場,2023-11-01,23.634556,120.477333,0.71174186
72M360,南改義竹分場,2023-11-01,23.360694,120.279361,0.6656775
72M700,南改鹿草分場,2023-11-01,23.416869,120.283061,0.73577446
72N100,臺南農改,2023-11-01,23.0605,120.342194,0.74545074
72N100,臺南農改場,2023-11-01,23.0605,120.342194,0.74545074
72N240,七股研究中心,2023-11-01,23.081672,120.062894,0.60599244
72Q010,高雄農改,2023-11-01,22.709333,120.525889,0.71624017
72Q010,高雄農改場,2023-11-01,22.709333,120.525889,0.71624017
72S200,東改班鳩分場,2023-11-01,22.829528,121.077694,0.12658285
72S590,東改賓朗果園,2023-11-01,22.813889,121.071278,0.20922922
72T250,花蓮農改,2023-11-01,23.975222,121.563889,0.74985534
72T250,花蓮農改場,2023-11-01,23.975222,121.563889,0.74985534
72U480,花改蘭陽分場,2023-11-01,24.686306,121.716583,0.9029288
72V140,高改旗南分場,2023-11-01,22.857861,120.516667,0.688251
82A750,茶改北部分場,2023-11-01,24.955778,121.631222,0.90298474
82C160,茶改場,2023-11-01,24.908472,121.185333,0.04885474
82H840,茶改南部分場,2023-11-01,23.762528,120.7405,0.37343058
82S580,茶改東部分場,2023-11-01,22.907694,121.130139,0.7875838
A2C560,農工中心,2023-11-01,24.985917,121.239833,0.07176916
A2K360,水試臺西試驗場,2023-11-01,23.717231,120.190522,0.69587463
A2K570,古坑花卉中心,2023-11-01,23.63353,120.55239,0.6849097
A2K630,臺大雲林校區,2023-11-01,23.730628,120.423903,0.74075425
A2N290,臺南蘭花園區,2023-11-01,23.340258,120.379661,0.81855404
B2E890,畜試北區分所,2023-11-01,24.527806,120.770972,0.33625877
B2N890,畜產試驗所,2023-11-01,23.058972,120.336406,0.7478364
B2N890,畜試所,2023-11-01,23.058972,120.336406,0.7478364
B2Q810,畜試南區分所,2023-11-01,21.945583,120.802167,0.0102469
B2U990,畜試東區分所,2023-11-01,24.669039,121.832561,0.9960444
C0A520,山佳,2023-11-01,24.974944,121.402008,0.08943517
C0A530,坪林,2023-11-01,24.938183,121.70975,0.4619593
C0A540,四堵,2023-11-01,24.8926,121.745736,0.0572867
C0A550,泰平,2023-11-01,24.971197,121.823711,0.74914414
C0A560,福山,2023-11-01,24.776203,121.502811,0.94878924
C0A570,桶後,2023-11-01,24.848222,121.597992,0.11540037
C0A640,石碇,2023-11-01,24.993969,121.662917,0.35815594
C0A650,火燒寮,2023-11-01,25.002719,121.742892,0.29336473
C0A660,瑞芳,2023-11-01,25.113169,121.801147,0.73236287
C0A770,科教館,2023-11-01,25.096356,121.516507,0.055355158
C0A860,大坪,2023-11-01,25.165914,121.632969,0.23729755
C0A880,福隆,2023-11-01,25.017842,121.942083,0.9488414
C0A890,雙溪,2023-11-01,25.036003,121.864242,0.12082551
C0A920,富貴角,2023-11-01,25.263783,121.565258,0.049558762
C0A931,三和,2023-11-01,25.233153,121.595236,0.9382996
C0A940,金山,2023-11-01,25.223628,121.643967,0.5195216
C0A950,鼻頭角,2023-11-01,25.129036,121.923372,0.991202
C0A970,三貂角,2023-11-01,25.007606,122.002058,0.9434178
C0A980,社子,2023-11-01,25.109508,121.469681,0.055854086
C0A9C0,天母,2023-11-01,25.117494,121.537169,0.06515409
C0A9F0,內湖,2023-11-01,25.079422,121.57545,0.08597685
C0AC60,三峽,2023-11-01,24.939025,121.369728,0.14052553
C0AC70,信義,2023-11-01,25.037822,121.564597,0.06983448
C0AC80,文山,2023-11-01,25.00235,121.575728,0.059991516
C0ACA0,新莊,2023-11-01,25.051478,121.446756,0.048749328
C0AD00,三芝,2023-11-01,25.258131,121.501917,0.042996895
C0AD10,八里,2023-11-01,25.150211,121.403947,0.05713295
C0AD30,蘆洲,2023-11-01,25.086594,121.472331,0.05503473
C0AD40,土城,2023-11-01,24.973208,121.445169,0.08094152
C0AD50,鶯歌,2023-11-01,24.951533,121.346294,0.074525625
C0AG80,中和,2023-11-01,24.991622,121.491792,0.071833186
C0AH00,汐止,2023-11-01,25.066881,121.658778,0.041549925
C0AH10,永和,2023-11-01,25.01125,121.508111,0.072123915
C0AH40,平等,2023-11-01,25.129142,121.577086,0.08564779
C0AH50,林口,2023-11-01,25.072181,121.38084,0.33764988
C0AH70,松山,2023-11-01,25.04871,121.55042,0.06983448
C0AH80,深坑,2023-11-01,25.002703,121.628328,0.046379063
C0AI00,五股,2023-11-01,25.07445,121.42728,0.040015694
C0AI10,屈尺,2023-11-01,24.92184,121.54475,0.064129665
C0AI20,白沙灣,2023-11-01,25.283128,121.519058,0.051782273
C0AI30,三重,2023-11-01,25.057328,121.500629,0.051480144
C0AI40,石牌,2023-11-01,25.115597,121.513139,0.055339623
C0AJ20,野柳,2023-11-01,25.20703,121.690021,0.5719036
C0AJ30,淡水觀海,2023-11-01,25.184591,121.408616,0.05249822
C0AJ40,石門,2023-11-01,25.273672,121.601198,0.19851716
C0AJ50,水湳洞,2023-11-01,25.123695,121.862238,0.16116315
C0AJ60,六塊厝,2023-11-01,25.24,121.4481,0.08466421
C0AJ70,田寮,2023-11-01,25.2698,121.4886,0.047578126
C0AJ80,板橋,2023-11-01,25.0107,121.4489,0.06614653
C0AJ90,澳底,2023-11-01,25.0552,121.9253,0.9647185
C0B010,七堵,2023-11-01,25.094819,121.71713,0.15411448
C0B020,基隆嶼,2023-11-01,25.19141,121.78391,0.11793626
C0B040,大武崙,2023-11-01,25.166676,121.706993,0.6376477
C0B050,八斗子,2023-11-01,25.144754,121.79167,0.14321709
C0B060,暖暖,2023-11-01,25.0957,121.7403,0.111821234
C0C460,復興,2023-11-01,24.820208,121.352281,0.32695752
C0C480,桃園,2023-11-01,24.992425,121.323172,0.0721852
C0C490,八德,2023-11-01,24.928708,121.283289,0.07844644
C0C590,觀音,2023-11-01,25.027072,121.153317,0.16053122
C0C620,蘆竹,2023-11-01,25.084275,121.265767,0.1031559
C0C630,大溪,2023-11-01,24.882853,121.265547,0.060031775
C0C650,平鎮,2023-11-01,24.897503,121.214636,0.04885474
C0C660,楊梅,2023-11-01,24.912375,121.143047,0.058276903
C0C670,龍潭,2023-11-01,24.870056,121.221389,0.11244961
C0C680,龜山,2023-11-01,25.02846,121.38656,0.29829517
C0C700,中壢,2023-11-01,24.977661,121.256375,0.07278587
C0C710,大溪永福,2023-11-01,24.892936,121.324975,0.04292601
C0C720,竹圍,2023-11-01,25.112692,121.239824,0.10562237
C0C730,中大臨海站,2023-11-01,24.966126,121.008581,0.17864333
C0C740,觀音工業區,2023-11-01,25.064764,121.114856,0.1546549
C0C750,新興坑尾,2023-11-01,25.0061,121.0971,0.08810422
C0D430,峨眉,2023-11-01,24.6905,121.017189,0.051399387
C0D480,打鐵坑,2023-11-01,24.849664,121.150789,0.17693938
C0D540,橫山,2023-11-01,24.71116,121.11693,0.09395609
C0D560,竹東,2023-11-01,24.767147,121.057881,0.043297533
C0D580,寶山,2023-11-01,24.735006,121.025192,0.102781825
C0D590,新豐,2023-11-01,24.87068,120.97721,0.1307087
C0D650,湖口,2023-11-01,24.904794,121.043628,0.056098845
C0D660,新竹市東區,2023-11-01,24.798681,120.986942,0.07473659
C0D670,海天一線,2023-11-01,24.831986,120.914438,0.21785834
C0D680,香山濕地,2023-11-01,24.783581,120.914988,0.09387662
C0D690,外湖,2023-11-01,24.917735,120.968711,0.1341192
C0D700,關西,2023-11-01,24.7977,121.1732,0.035697166
C0E420,竹南,2023-11-01,24.708978,120.888897,0.070801154
C0E430,南庄,2023-11-01,24.601775,121.000214,0.10195322
C0E520,大湖,2023-11-01,24.41494,120.87087,0.10331255
C0E540,後龍,2023-11-01,24.606489,120.783933,0.44107726
C0E550,明德,2023-11-01,24.583486,120.885411,0.27167073
C0E590,通霄,2023-11-01,24.471892,120.704622,0.47940087
C0E730,頭份,2023-11-01,24.688247,120.912206,0.062659435
C0E740,造橋,2023-11-01,24.637056,120.864778,0.3341583
C0E750,苗栗,2023-11-01,24.564569,120.824575,0.39332762
C0E780,銅鑼,2023-11-01,24.489681,120.790853,0.2431098
C0E791,卓蘭,2023-11-01,24.3126,120.8244,0.60922134
C0E810,西湖,2023-11-01,24.562947,120.7485,0.36424655
C0E820,獅潭,2023-11-01,24.539133,120.920042,0.22648232
C0E830,苑裡,2023-11-01,24.439714,120.653053,0.5198677
C0E850,大河,2023-11-01,24.618069,120.948578,0.26060906
C0E870,高鐵苗栗,2023-11-01,24.60725,120.826094,0.4451436
C0E910,海埔,2023-11-01,24.648767,120.772435,0.48897082
C0E920,通霄漁港,2023-11-01,24.498589,120.673876,0.4087256
C0E930,龍鳳,2023-11-01,24.700034,120.859125,0.37785417
C0F0B0,石岡,2023-11-01,24.276061,120.777644,0.5151823
C0F850,東勢,2023-11-01,24.246428,120.833047,0.6209341
C0F930,大甲,2023-11-01,24.347667,120.640403,0.5570674
C0F970,大坑,2023-11-01,24.173142,120.722289,0.65336955
C0F9A0,中竹林,2023-11-01,24.103556,120.751061,0.76084346
C0F9I0,神岡,2023-11-01,24.272481,120.658314,0.49763906
C0F9K0,大安,2023-11-01,24.345061,120.588025,0.6093842
C0F9L0,后里,2023-11-01,24.310436,120.729725,0.45653865
C0F9M0,豐原,2023-11-01,24.254322,120.720692,0.44241613
C0F9N0,大里,2023-11-01,24.092464,120.701378,0.704827
C0F9O0,潭子,2023-11-01,24.213106,120.703933,0.57265615
C0F9P0,清水,2023-11-01,24.312297,120.562242,0.5478591
C0F9Q0,外埔,2023-11-01,24.347817,120.705686,0.46535674
C0F9R0,龍井,2023-11-01,24.184536,120.528972,0.6331003
C0F9S0,烏日,2023-11-01,24.107058,120.624103,0.7086174
C0F9T0,西屯,2023-11-01,24.179494,120.641275,0.6048067
C0F9U0,南屯,2023-11-01,24.137006,120.637969,0.6947741
C0F9X0,大雅(中科園區),2023-11-01,24.21528,120.62445,0.6411612
C0FA10,松柏,2023-11-01,24.429115,120.617482,0.5711368
C0FA20,溫寮,2023-11-01,24.372177,120.583125,0.60246557
C0FA30,梧棲,2023-11-01,24.256003,120.523381,0.6579505
C0FA40,臺中電廠,2023-11-01,24.2146,120.4907,0.6575767
C0FA50,霧峰,2023-11-01,24.0419,120.6995,0.74954516
C0G620,芬園,2023-11-01,24.015678,120.6213,0.7916035
C0G640,鹿港,2023-11-01,24.0753,120.430481,0.73241866
C0G650,員林,2023-11-01,23.946503,120.585597,0.73136157
C0G660,溪湖,2023-11-01,23.94835,120.479122,0.76982236
C0G720,溪州,2023-11-01,23.851589,120.499093,0.80497015
C0G730,二林,2023-11-01,23.903325,120.376081,0.70675915
C0G740,大城,2023-11-01,23.852487,120.320935,0.66268563
C0G770,福興,2023-11-01,24.041289,120.437669,0.70154476
C0G780,秀水,2023-11-01,24.03405,120.503869,0.6752322
C0G800,埔鹽,2023-11-01,24.000394,120.431683,0.6869199
C0G810,埔心,2023-11-01,23.947633,120.525456,0.772423
C0G820,田尾,2023-11-01,23.901669,120.509389,0.8300086
C0G830,埤頭,2023-11-01,23.866003,120.452806,0.8062454
C0G840,北斗,2023-11-01,23.877586,120.514222,0.8300086
C0G860,社頭,2023-11-01,23.897647,120.5862,0.79069597
C0G870,芳苑,2023-11-01,23.922303,120.320025,0.68210214
C0G880,二水,2023-11-01,23.810742,120.6173,0.7251455
C0G890,伸港,2023-11-01,24.148933,120.484403,0.6419322
C0G900,線西,2023-11-01,24.143358,120.443536,0.74165154
C0G910,花壇,2023-11-01,24.032076,120.549461,0.6098078
C0G920,永靖,2023-11-01,23.924703,120.547533,0.8131064
C0G940,竹塘,2023-11-01,23.848253,120.386764,0.71683574
C0G950,防潮門,2023-11-01,24.1835,120.4871,0.6270004
C0G960,福寶,2023-11-01,24.0443,120.3814,0.7784534
C0G970,三豐,2023-11-01,23.882,120.2895,0.6959262
C0H890,埔里,2023-11-01,23.972169,120.952425,0.62786293
C0H950,中寮,2023-11-01,23.884447,120.766406,0.77009296
C0H960,草屯,2023-11-01,23.973672,120.68085,0.74220735
C0I110,竹山,2023-11-01,23.761225,120.688156,0.47680515
C0I360,水里,2023-11-01,23.812553,120.849792,0.31273624
C0I380,集集,2023-11-01,23.828206,120.801467,0.4576953
C0I410,名間,2023-11-01,23.837053,120.701447,0.70315117
C0I420,國姓,2023-11-01,24.037803,120.855072,0.41928384
C0I460,南投,2023-11-01,23.911469,120.687331,0.6455634
C0K250,崙背,2023-11-01,23.75555,120.318925,0.71063775
C0K280,四湖,2023-11-01,23.630414,120.227125,0.6350972
C0K291,宜梧,2023-11-01,23.536281,120.169329,0.6927314
C0K330,虎尾,2023-11-01,23.719183,120.442036,0.7389361
C0K390,土庫,2023-11-01,23.679029,120.395574,0.7219192
C0K400,斗六,2023-11-01,23.720583,120.541127,0.67615664
C0K410,北港,2023-11-01,23.573957,120.292802,0.69551814
C0K420,西螺,2023-11-01,23.800407,120.467394,0.7947896
C0K430,褒忠,2023-11-01,23.690938,120.303634,0.6818214
C0K440,二崙,2023-11-01,23.772797,120.408944,0.7424676
C0K450,大埤,2023-11-01,23.646074,120.431537,0.69366425
C0K460,斗南,2023-11-01,23.678734,120.478359,0.7575118
C0K470,林內,2023-11-01,23.748675,120.609642,0.61544746
C0K480,莿桐,2023-11-01,23.761192,120.502372,0.77660024
C0K500,元長,2023-11-01,23.64981,120.315024,0.70492643
C0K510,水林,2023-11-01,23.572924,120.24597,0.6528535
C0K530,臺西,2023-11-01,23.701547,120.197559,0.6992877
C0K550,蔦松,2023-11-01,23.514319,120.229736,0.6947101
C0K560,棋山,2023-11-01,23.68645,120.603417,0.50506467
C0K580,高鐵雲林,2023-11-01,23.737456,120.417944,0.74075425
C0K590,雲林東勢,2023-11-01,23.674192,120.255721,0.6820246
C0K600,箔子寮,2023-11-01,23.6197,120.14,0.7228235
C0M410,馬頭山,2023-11-01,23.324361,120.582017,0.40924293
C0M520,東後寮,2023-11-01,23.369908,120.248065,0.63016194
C0M640,中埔,2023-11-01,23.42538,120.5229,0.68403876
C0M650,朴子,2023-11-01,23.43463,120.23902,0.67187667
C0M660,溪口,2023-11-01,23.604131,120.403569,0.72380227
C0M670,大林,2023-11-01,23.600616,120.45841,0.7751233
C0M680,太保,2023-11-01,23.455062,120.331455,0.7124032
C0M690,水上,2023-11-01,23.419734,120.388909,0.8008741
C0M700,竹崎,2023-11-01,23.526178,120.555508,0.4949695
C0M710,東石,2023-11-01,23.458927,120.15385,0.7241714
C0M720,番路,2023-11-01,23.464657,120.554156,0.5657744
C0M730,嘉義市東區,2023-11-01,23.457673,120.460531,0.7901131
C0M740,六腳,2023-11-01,23.492871,120.290625,0.7056038
C0M750,布袋,2023-11-01,23.380878,120.167789,0.6651823
C0M760,民雄,2023-11-01,23.551754,120.428457,0.7304304
C0M770,嘉義梅山,2023-11-01,23.585398,120.555587,0.5086515
C0M780,鹿草,2023-11-01,23.41134,120.30835,0.7402392
C0M790,新港,2023-11-01,23.553269,120.345728,0.75314444
C0M800,茶山,2023-11-01,23.299075,120.664767,0.27664554
C0M880,好美里,2023-11-01,23.3364,120.138,0.63783133
C0N010,鯤鯓國小,2023-11-01,23.1879,120.0889,0.6872111
C0N020,城西,2023-11-01,23.0568,120.0956,0.6412296
C0N030,四草,2023-11-01,23.0235,120.1116,0.58235925
C0N040,蘆竹溝,2023-11-01,23.2344,120.0961,0.65992385
C0N050,蚵寮,2023-11-01,23.301,120.1104,0.67353976
C0O810,曾文,2023-11-01,23.219681,120.497328,0.81279874
C0O830,北寮,2023-11-01,23.079561,120.495008,0.72030824
C0O840,王爺宮,2023-11-01,23.222064,120.40085,0.87678593
C0O860,大內,2023-11-01,23.11885,120.36083,0.80693835
C0O900,善化,2023-11-01,23.112883,120.297219,0.73147404
C0O930,玉井,2023-11-01,23.126042,120.46055,0.8504752
C0O950,安南,2023-11-01,23.076694,120.144861,0.6872021
C0O960,崎頂,2023-11-01,22.959547,120.369317,0.7987004
C0O970,虎頭埤,2023-11-01,23.021375,120.347878,0.7964606
C0O980,新市,2023-11-01,23.061614,120.298197,0.73287004
C0O990,媽廟,2023-11-01,22.99175,120.293525,0.7446516
C0R150,三地門,2023-11-01,22.709889,120.639944,0.653717
C0R160,鹽埔,2023-11-01,22.739558,120.530778,0.7106083
C0R170,屏東,2023-11-01,22.660269,120.494072,0.8072388
C0R190,赤山,2023-11-01,22.592333,120.614306,0.6744374
C0R220,潮州,2023-11-01,22.534361,120.54,0.66704863
C0R240,來義,2023-11-01,22.527306,120.625111,0.6565171
C0R260,春日,2023-11-01,22.370361,120.628306,0.7288982
C0R270,琉球嶼,2023-11-01,22.332244,120.362236,0.7363131
C0R280,檳榔,2023-11-01,22.076078,120.836777,0.01084828
C0R320,車城,2023-11-01,22.0744,120.716247,0.009999725
C0R341,牡丹,2023-11-01,22.130036,120.792639,0.18682238
C0R350,貓鼻頭,2023-11-01,21.921774,120.7358,0.010497301
C0R470,高樹,2023-11-01,22.826389,120.600806,0.43489614
C0R480,長治,2023-11-01,22.693128,120.542622,0.71953076
C0R490,九如,2023-11-01,22.7405,120.490503,0.82913005
C0R520,崁頂,2023-11-01,22.514781,120.506914,0.8006571
C0R540,佳冬,2023-11-01,22.419456,120.552375,0.8463772
C0R550,新埤,2023-11-01,22.467947,120.582894,0.69260705
C0R560,新園,2023-11-01,22.5434,120.461558,0.81044984
C0R570,麟洛,2023-11-01,22.65078,120.52719,0.8102775
C0R580,南州,2023-11-01,22.48591,120.50274,0.7986574
C0R590,里港,2023-11-01,22.77919,120.49459,0.70563465
C0R620,墾雷,2023-11-01,21.900836,120.855269,0.010500054
C0R640,東港,2023-11-01,22.46247,120.44074,0.83605605
C0R650,竹田,2023-11-01,22.58486,120.54344,0.6663059
C0R660,枋寮,2023-11-01,22.367722,120.590647,0.73860407
C0R670,楓港,2023-11-01,22.190131,120.692156,0.66219103
C0R680,佳樂水,2023-11-01,21.993578,120.861633,0.0102469
C0R690,墾丁,2023-11-01,21.966756,120.810269,0.013012263
C0R700,枋山,2023-11-01,22.246844,120.661086,0.2092021
C0R710,龍磐,2023-11-01,21.931672,120.838942,0.011148675
C0R720,旭海,2023-11-01,22.205403,120.887614,0.09714284
C0R730,大坪頂,2023-11-01,22.024633,120.69355,0.0113708135
C0R740,獅子,2023-11-01,22.201569,120.70525,0.6944889
C0R760,南仁湖,2023-11-01,22.084681,120.863353,0.011367928
C0R770,保力,2023-11-01,22.071122,120.764111,0.010965745
C0R780,滿州,2023-11-01,22.024403,120.839892,0.010607828
C0R790,九棚,2023-11-01,22.14195,120.889281,0.10249258
C0R800,丹路,2023-11-01,22.204481,120.750989,0.20383763
C0R810,內獅,2023-11-01,22.305064,120.642986,0.17491536
C0R830,高士,2023-11-01,22.121825,120.836781,0.009844955
C0R850,林邊,2023-11-01,22.4634,120.5339,0.83016455
C0R860,鼻頭,2023-11-01,22.1043,120.8979,0.014318613
C0R870,興海,2023-11-01,21.9752,120.8439,0.0102469
C0R880,後壁湖,2023-11-01,21.9457,120.7457,0.009868993
C0R890,山海,2023-11-01,21.9878,120.7091,0.009982209
C0R900,竹坑,2023-11-01,22.1385,120.7022,0.39630085
C0R910,下寮,2023-11-01,22.3929,120.5548,0.8467577
C0R920,塭仔,2023-11-01,22.4169,120.5197,0.8268536
C0R930,萬丹,2023-11-01,22.5885,120.4851,0.6676972
C0R940,加祿堂,2023-11-01,22.3363,120.6217,0.71785367
C0S710,鹿野,2023-11-01,22.917711,121.122994,0.7966105
C0S730,綠島,2023-11-01,22.6672,121.47533,0.7780432
C0S740,池上,2023-11-01,23.119628,121.209469,0.6640495
C0S770,大溪山,2023-11-01,22.478475,120.943325,0.20022582
C0S790,金崙,2023-11-01,22.538122,120.966875,0.114944726
C0S810,東河,2023-11-01,22.972672,121.303986,0.68563175
C0S830,長濱,2023-11-01,23.286817,121.411975,0.8573811
C0S840,南田,2023-11-01,22.279725,120.889208,0.09050512
C0S890,關山,2023-11-01,23.0395,121.175017,0.26547837
C0S900,蘭嶼高中,2023-11-01,22.04909,121.51214,0.056737155
C0S910,蘭嶼燈塔,2023-11-01,22.081197,121.503117,0.24936168
C0S920,金峰嘉蘭,2023-11-01,22.594789,120.960825,0.07209927
C0S930,延平,2023-11-01,22.902581,121.084058,0.51913184
C0S940,石寧山,2023-11-01,23.223772,121.406639,0.8397988
C0S950,七塊厝,2023-11-01,22.954453,121.229922,0.78130186
C0S960,香蘭,2023-11-01,22.587569,120.993375,0.12549974
C0S970,加津林,2023-11-01,22.416211,120.926942,0.12608252
C0S990,山豬窟,2023-11-01,22.318619,120.857372,0.062307
C0SA00,歷坵,2023-11-01,22.520969,120.89185,0.1260899
C0SA10,檳榔四格山,2023-11-01,22.810031,121.109308,0.47081763
C0SA30,都歷,2023-11-01,23.020333,121.323642,0.48387688
C0SA40,瑞和,2023-11-01,22.974361,121.156697,0.43115228
C0SA60,知本（水試所）,2023-11-01,22.702394,121.082761,0.18541467
C0SA80,土坂,2023-11-01,22.453108,120.887572,0.07724187
C0SA90,達仁林場,2023-11-01,22.264347,120.823972,0.0853906
C0T870,鯉魚潭,2023-11-01,23.935639,121.508944,0.80046237
C0T900,西林,2023-11-01,23.8119,121.441458,0.79923534
C0T960,光復,2023-11-01,23.660694,121.424964,0.90866065
C0T9A0,月眉山,2023-11-01,23.809928,121.539828,0.9435636
C0T9D0,和中,2023-11-01,24.26676,121.74103,0.99196416
C0T9E0,大坑,2023-11-01,23.880628,121.581981,0.9303538
C0T9F0,水璉,2023-11-01,23.797131,121.542514,0.94896567
C0T9I0,豐濱,2023-11-01,23.583897,121.514806,0.917208
C0T9M0,靜浦,2023-11-01,23.455167,121.495028,0.96447325
C0T9N0,富里,2023-11-01,23.171639,121.249378,0.61306506
C0U600,礁溪,2023-11-01,24.817539,121.765608,0.6163488
C0U650,玉蘭,2023-11-01,24.675286,121.587061,0.95806813
C0U750,龜山島,2023-11-01,24.841667,121.953133,0.94552517
C0U760,東澳,2023-11-01,24.52196,121.83318,0.97928274
C0U770,南澳,2023-11-01,24.44935,121.81022,0.99710953
C0U780,五結,2023-11-01,24.68637,121.79794,0.86856484
C0U860,頭城,2023-11-01,24.85323,121.8308,0.7071582
C0U870,大礁溪,2023-11-01,24.791042,121.675047,0.960532
C0U880,北關,2023-11-01,24.9072,121.8734,0.14107484
C0U890,三星,2023-11-01,24.66812,121.65302,0.95485955
C0U900,內城,2023-11-01,24.71813,121.68766,0.9658797
C0U910,冬山,2023-11-01,24.63373,121.7937,0.9960444
C0U940,羅東,2023-11-01,24.68184,121.74934,0.9601902
C0U970,大福,2023-11-01,24.80064,121.81389,0.70084846
C0U990,員山,2023-11-01,24.74435,121.72247,0.46988514
C0UA00,土場,2023-11-01,24.576533,121.495333,0.9513512
C0UA80,大溪漁港,2023-11-01,24.941801,121.902955,0.9143674
C0UA90,石城,2023-11-01,24.980444,121.951214,0.95355266
C0UB00,淡江大學蘭陽校園,2023-11-01,24.823239,121.730383,0.9512029
C0UB10,蘇澳,2023-11-01,24.5969,121.8571,0.9930789
C0UB20,壯圍,2023-11-01,24.7359,121.8163,0.42603916
C0V250,甲仙,2023-11-01,23.080106,120.591758,0.6476753
C0V260,月眉,2023-11-01,22.971003,120.539853,0.7439131
C0V310,美濃,2023-11-01,22.898742,120.519153,0.8927464
C0V350,溪埔,2023-11-01,22.738578,120.446797,0.8088469
C0V360,內門,2023-11-01,22.975481,120.466769,0.8650017
C0V370,古亭坑,2023-11-01,22.893178,120.401947,0.8598481
C0V400,阿公店,2023-11-01,22.804194,120.355528,0.8126819
C0V440,鳳山,2023-11-01,22.646653,120.356122,0.79763186
C0V450,鳳森,2023-11-01,22.545064,120.392592,0.67563665
C0V490,新興,2023-11-01,22.627422,120.298803,0.8026459
C0V530,阿蓮,2023-11-01,22.883208,120.327508,0.74073935
C0V610,梓官,2023-11-01,22.760558,120.267211,0.7913648
C0V620,永安,2023-11-01,22.82315,120.236856,0.7723139
C0V630,茄萣,2023-11-01,22.906642,120.182608,0.70155287
C0V640,湖內,2023-11-01,22.887139,120.2445,0.69447905
C0V650,彌陀,2023-11-01,22.783806,120.246361,0.7725165
C0V660,岡山,2023-11-01,22.797078,120.294958,0.7796844
C0V680,仁武,2023-11-01,22.701083,120.347722,0.7825567
C0V690,鼓山,2023-11-01,22.623325,120.275575,0.8093468
C0V700,三民,2023-11-01,22.645017,120.311233,0.80145884
C0V710,苓雅,2023-11-01,22.622742,120.330669,0.80663395
C0V720,林園,2023-11-01,22.507747,120.394511,0.81897444
C0V730,大寮,2023-11-01,22.605614,120.395717,0.65201247
C0V740,旗山,2023-11-01,22.888614,120.483597,0.89472014
C0V750,路竹,2023-11-01,22.854997,120.259439,0.77455264
C0V760,橋頭,2023-11-01,22.757806,120.30575,0.77303606
C0V770,大社,2023-11-01,22.730306,120.346639,0.7814534
C0V790,萬山,2023-11-01,22.905944,120.688056,0.26551476
C0V800,六龜,2023-11-01,22.997889,120.633583,0.4419094
C0V810,左營,2023-11-01,22.67491,120.28491,0.78462577
C0V820,小林,2023-11-01,23.148408,120.63325,0.36253613
C0V840,鳳鼻頭,2023-11-01,22.5083,120.3591,0.848215
C0V850,蚵仔寮,2023-11-01,22.7256,120.2527,0.7951068
C0V860,南寮,2023-11-01,22.7616,120.2339,0.77896374
C0V870,文安,2023-11-01,22.8025,120.2164,0.8009172
C0V880,興達,2023-11-01,22.8778,120.2127,0.7117568
C0V890,前鎮,2023-11-01,22.5718,120.3117,0.8180155
C0V900,汕尾,2023-11-01,22.4782,120.4151,0.8410009
C0X050,東河,2023-11-01,23.296598,120.385608,0.8376757
C0X060,下營,2023-11-01,23.22695,120.256261,0.7103937
C0X080,佳里,2023-11-01,23.173039,120.145086,0.6270288
C0X100,臺南市北區,2023-11-01,23.010394,120.194228,0.6906227
C0X110,臺南市南區,2023-11-01,22.961189,120.188378,0.7012045
C0X120,麻豆,2023-11-01,23.183289,120.248611,0.68173754
C0X130,官田,2023-11-01,23.193217,120.315422,0.7403202
C0X140,西港,2023-11-01,23.125608,120.203108,0.6593778
C0X150,安定,2023-11-01,23.102614,120.227839,0.7138631
C0X160,仁德,2023-11-01,22.968258,120.257689,0.73181474
C0X170,關廟,2023-11-01,22.963017,120.327797,0.7668464
C0X180,山上,2023-11-01,23.0757,120.363253,0.8497489
C0X190,安平,2023-11-01,22.993161,120.152181,0.70117855
C0X200,左鎮,2023-11-01,23.056758,120.408522,0.8337609
C0X210,白河,2023-11-01,23.347466,120.414427,0.7596159
C0X220,學甲,2023-11-01,23.230367,120.182187,0.60866874
C0X230,鹽水,2023-11-01,23.272621,120.247641,0.69685495
C0X240,關子嶺,2023-11-01,23.331169,120.508025,0.6913581
C0X250,新營,2023-11-01,23.310689,120.316681,0.72404903
C0X260,後壁,2023-11-01,23.366358,120.362326,0.7711194
C0X280,將軍,2023-11-01,23.214999,120.13577,0.63904107
C0X290,北門,2023-11-01,23.267772,120.125481,0.6270121
C0X300,鹿寮,2023-11-01,23.386047,120.477331,0.58026576
C0X310,七股,2023-11-01,23.147289,120.086253,0.63122857
C0X320,柳營,2023-11-01,23.253328,120.375253,0.8605012
C0Z020,明里,2023-11-01,23.208717,121.262342,0.52658457
C0Z061,玉里,2023-11-01,23.3215,121.339656,0.6053712
C0Z070,舞鶴,2023-11-01,23.46811,121.37407,0.49803865
C0Z080,富源,2023-11-01,23.587642,121.378225,0.6403086
C0Z100,東華,2023-11-01,23.89525,121.549833,0.90693337
C0Z150,吉安光華,2023-11-01,23.930925,121.595153,0.8718694
C0Z160,鳳林,2023-11-01,23.746114,121.453411,0.86274797
C0Z170,卓溪,2023-11-01,23.3443,121.3029,0.5026811
C0Z180,新城,2023-11-01,24.03946,121.60454,0.8398783
C0Z190,富世,2023-11-01,24.14743,121.6297,0.99403864
C0Z200,萬榮,2023-11-01,23.709219,121.420106,0.92365813
C0Z210,瑞穗,2023-11-01,23.5239,121.39021,0.5969486
C0Z230,和平,2023-11-01,24.30717,121.77007,0.98830897
C0Z270,蕃薯寮,2023-11-01,23.73835,121.540108,0.9493784
C0Z280,德武,2023-11-01,23.47426,121.41071,0.5442762
C0Z300,東里,2023-11-01,23.26853,121.30547,0.5086876
C0Z310,清水斷崖,2023-11-01,24.218294,121.689142,0.9959208
C0Z330,安通山,2023-11-01,23.290728,121.348528,0.53238887
CAG100,王功漁港,2023-11-01,23.96824,120.32586,0.77061045
CAH030,茶改場竹圍站,2023-11-01,23.860083,120.637528,0.7800146
CAJ050,海口故事園區,2023-11-01,23.57543,120.14121,0.72123504
CAL110,布袋國中,2023-11-01,23.35893,120.18026,0.631975
CAN130,水試所海水繁養殖中心,2023-11-01,23.120802,120.07968,0.60599244
CAN140,六官養殖協會,2023-11-01,23.22881,120.29962,0.7253503
CAQ030,崎峰國小,2023-11-01,22.42565,120.49521,0.8164493
E2K600,四湖植物園,2023-11-01,23.676986,120.163433,0.6934283
E2P980,林試六龜中心,2023-11-01,22.991703,120.645722,0.43723688
E2S960,林試太麻里2,2023-11-01,22.598014,120.989761,0.12442927
E2S980,林試太麻里1,2023-11-01,22.598922,120.980044,0.14692321
G2AI50,關渡,2023-11-01,25.11575,121.492,0.055129956
G2F820,農業試驗所,2023-11-01,24.031261,120.688133,0.7437691
G2F820,農試所(霧峰),2023-11-01,24.031261,120.688133,0.7437691
G2L020,農試嘉義分所,2023-11-01,23.485028,120.473806,0.7099411
G2M350,農試溪口農場,2023-11-01,23.58565,120.408111,0.7187527
G2P820,農試鳳山分所,2023-11-01,22.646611,120.356083,0.79763186
K2E360,苗栗農改,2023-11-01,24.495722,120.829111,0.19907998
K2E360,苗栗農改場,2023-11-01,24.495722,120.829111,0.19907998
K2E710,苗改生物防治研究中心,2023-11-01,24.422861,120.871833,0.2695799
K2F750,種苗改良場,2023-11-01,24.225972,120.800917,0.6514814
K2F750,種苗繁殖,2023-11-01,24.225972,120.800917,0.6514814
U2HA50,臺大竹山,2023-11-01,23.756972,120.681556,0.59522635
V2C250,八德合作社,2023-11-01,24.93775,121.266389,0.07312588
V2C260,八德蔬果,2023-11-01,24.978508,121.281819,0.074353755
V2K610,大庄合作社,2023-11-01,23.8068,120.367939,0.778201
V2K620,麥寮合作社,2023-11-01,23.753836,120.294783,0.6914135
