站號,站名,日期,lat,lon,BlastGRU-TW
12J990,口湖工作站,2023-12-26,23.589978,120.180394,0.24970229
12Q970,東港工作站,2023-12-26,22.479997,120.466058,0.3320664
12Q980,恆春工作站,2023-12-26,22.079678,120.714425,0.0031467602
466881,新北,2023-12-26,24.9593,121.52,0.5118822
466900,淡水,2023-12-26,25.164889,121.448906,0.051644266
466920,臺北,2023-12-26,25.037658,121.514853,0.62580377
466940,基隆,2023-12-26,25.133314,121.740475,0.20341016
466990,花蓮,2023-12-26,23.975128,121.613275,0.7537542
467050,新屋,2023-12-26,25.006744,121.047486,0.059601348
467080,宜蘭,2023-12-26,24.763975,121.756528,0.44088325
467270,田中,2023-12-26,23.873803,120.581286,0.9164817
467300,東吉島,2023-12-26,23.25695,119.667467,0.0019361529
467350,澎湖,2023-12-26,23.565503,119.563094,0.003396201
467410,臺南,2023-12-26,22.993239,120.204772,0.76335776
467420,永康,2023-12-26,23.038386,120.2367,0.8930657
467441,高雄,2023-12-26,22.7304,120.3125,0.9157524
467480,嘉義,2023-12-26,23.495925,120.432906,0.9195721
467490,臺中,2023-12-26,24.145736,120.684075,0.82283306
467540,大武,2023-12-26,22.355675,120.903789,0.8776603
467571,新竹,2023-12-26,24.827853,121.014219,0.08691458
467590,恆春,2023-12-26,22.003897,120.746339,0.32825777
467610,成功,2023-12-26,23.097486,121.373428,0.3838013
467620,蘭嶼,2023-12-26,22.036969,121.558339,0.0030552726
467660,臺東,2023-12-26,22.752211,121.154586,0.7358444
467790,墾丁雷達站,2023-12-26,21.948235,120.808028,0.29691163
72AI40,桃改樹林分場,2023-12-26,24.944503,121.386972,0.44526693
72C440,桃園農改,2023-12-26,24.950944,121.030583,0.0793052
72C440,桃園農改場,2023-12-26,24.950944,121.030583,0.0793052
72D680,桃改新埔分場,2023-12-26,24.834444,121.066111,0.055452906
72G600,臺中農改,2023-12-26,24.003028,120.534389,0.56777316
72G600,臺中農改場,2023-12-26,24.003028,120.534389,0.56777316
72K220,南改斗南分場,2023-12-26,23.634556,120.477333,0.9265986
72M360,南改義竹分場,2023-12-26,23.360694,120.279361,0.71812785
72M700,南改鹿草分場,2023-12-26,23.416869,120.283061,0.85094905
72N100,臺南農改,2023-12-26,23.0605,120.342194,0.8871024
72N100,臺南農改場,2023-12-26,23.0605,120.342194,0.8871024
72N240,七股研究中心,2023-12-26,23.081672,120.062894,0.58921784
72Q010,高雄農改,2023-12-26,22.709333,120.525889,0.8765229
72Q010,高雄農改場,2023-12-26,22.709333,120.525889,0.8765229
72S200,東改班鳩分場,2023-12-26,22.829528,121.077694,0.38713515
72S590,東改賓朗果園,2023-12-26,22.813889,121.071278,0.26862645
72T250,花蓮農改,2023-12-26,23.975222,121.563889,0.71658665
72T250,花蓮農改場,2023-12-26,23.975222,121.563889,0.71658665
72U480,花改蘭陽分場,2023-12-26,24.686306,121.716583,0.4467244
72V140,高改旗南分場,2023-12-26,22.857861,120.516667,0.9290032
82A750,茶改北部分場,2023-12-26,24.955778,121.631222,0.015612979
82C160,茶改場,2023-12-26,24.908472,121.185333,0.11133248
82H840,茶改南部分場,2023-12-26,23.762528,120.7405,0.3629427
82S580,茶改東部分場,2023-12-26,22.907694,121.130139,0.4453957
A2C560,農工中心,2023-12-26,24.985917,121.239833,0.09464908
A2K360,水試臺西試驗場,2023-12-26,23.717231,120.190522,0.44060808
A2K570,古坑花卉中心,2023-12-26,23.63353,120.55239,0.8760297
A2K630,臺大雲林校區,2023-12-26,23.730628,120.423903,0.85126555
A2N290,臺南蘭花園區,2023-12-26,23.340258,120.379661,0.89968085
B2E890,畜試北區分所,2023-12-26,24.527806,120.770972,0.055949375
B2N890,畜產試驗所,2023-12-26,23.058972,120.336406,0.8871024
B2N890,畜試所,2023-12-26,23.058972,120.336406,0.8871024
B2Q810,畜試南區分所,2023-12-26,21.945583,120.802167,0.43438807
B2U990,畜試東區分所,2023-12-26,24.669039,121.832561,0.88515395
C0A520,山佳,2023-12-26,24.974944,121.402008,0.51913786
C0A530,坪林,2023-12-26,24.938183,121.70975,0.06397043
C0A540,四堵,2023-12-26,24.8926,121.745736,0.03746994
C0A550,泰平,2023-12-26,24.971197,121.823711,0.068295486
C0A560,福山,2023-12-26,24.776203,121.502811,0.09182243
C0A570,桶後,2023-12-26,24.848222,121.597992,0.07650708
C0A640,石碇,2023-12-26,24.993969,121.662917,0.112128876
C0A650,火燒寮,2023-12-26,25.002719,121.742892,0.221928
C0A660,瑞芳,2023-12-26,25.113169,121.801147,0.11439024
C0A770,科教館,2023-12-26,25.096356,121.516507,0.6164911
C0A860,大坪,2023-12-26,25.165914,121.632969,0.02876797
C0A880,福隆,2023-12-26,25.017842,121.942083,0.75901055
C0A890,雙溪,2023-12-26,25.036003,121.864242,0.43022466
C0A920,富貴角,2023-12-26,25.263783,121.565258,0.01613048
C0A931,三和,2023-12-26,25.233153,121.595236,0.078910016
C0A940,金山,2023-12-26,25.223628,121.643967,0.30123052
C0A950,鼻頭角,2023-12-26,25.129036,121.923372,0.115883216
C0A970,三貂角,2023-12-26,25.007606,122.002058,0.5919253
C0A980,社子,2023-12-26,25.109508,121.469681,0.06035954
C0A9C0,天母,2023-12-26,25.117494,121.537169,0.25020868
C0A9F0,內湖,2023-12-26,25.079422,121.57545,0.59613
C0AC60,三峽,2023-12-26,24.939025,121.369728,0.41587922
C0AC70,信義,2023-12-26,25.037822,121.564597,0.62625134
C0AC80,文山,2023-12-26,25.00235,121.575728,0.42466697
C0ACA0,新莊,2023-12-26,25.051478,121.446756,0.4274314
C0AD00,三芝,2023-12-26,25.258131,121.501917,0.05162339
C0AD10,八里,2023-12-26,25.150211,121.403947,0.052675687
C0AD30,蘆洲,2023-12-26,25.086594,121.472331,0.61649096
C0AD40,土城,2023-12-26,24.973208,121.445169,0.4939399
C0AD50,鶯歌,2023-12-26,24.951533,121.346294,0.37058607
C0AG80,中和,2023-12-26,24.991622,121.491792,0.5087198
C0AH00,汐止,2023-12-26,25.066881,121.658778,0.65829015
C0AH10,永和,2023-12-26,25.01125,121.508111,0.52717376
C0AH40,平等,2023-12-26,25.129142,121.577086,0.01808248
C0AH50,林口,2023-12-26,25.072181,121.38084,0.018716706
C0AH70,松山,2023-12-26,25.04871,121.55042,0.62625134
C0AH80,深坑,2023-12-26,25.002703,121.628328,0.40649444
C0AI00,五股,2023-12-26,25.07445,121.42728,0.04180826
C0AI10,屈尺,2023-12-26,24.92184,121.54475,0.102871776
C0AI20,白沙灣,2023-12-26,25.283128,121.519058,0.08295868
C0AI30,三重,2023-12-26,25.057328,121.500629,0.6467734
C0AI40,石牌,2023-12-26,25.115597,121.513139,0.27589184
C0AJ20,野柳,2023-12-26,25.20703,121.690021,0.33465862
C0AJ30,淡水觀海,2023-12-26,25.184591,121.408616,0.14231965
C0AJ40,石門,2023-12-26,25.273672,121.601198,0.026223037
C0AJ50,水湳洞,2023-12-26,25.123695,121.862238,0.20501737
C0AJ60,六塊厝,2023-12-26,25.24,121.4481,0.097828194
C0AJ70,田寮,2023-12-26,25.2698,121.4886,0.09001055
C0AJ80,板橋,2023-12-26,25.0107,121.4489,0.50034183
C0AJ90,澳底,2023-12-26,25.0552,121.9253,0.5686619
C0B010,七堵,2023-12-26,25.094819,121.71713,0.27700487
C0B020,基隆嶼,2023-12-26,25.19141,121.78391,0.03400031
C0B040,大武崙,2023-12-26,25.166676,121.706993,0.16353384
C0B050,八斗子,2023-12-26,25.144754,121.79167,0.21162364
C0B060,暖暖,2023-12-26,25.0957,121.7403,0.2003477
C0C460,復興,2023-12-26,24.820208,121.352281,0.009665505
C0C480,桃園,2023-12-26,24.992425,121.323172,0.19171777
C0C490,八德,2023-12-26,24.928708,121.283289,0.21032292
C0C590,觀音,2023-12-26,25.027072,121.153317,0.015064943
C0C620,蘆竹,2023-12-26,25.084275,121.265767,0.06467101
C0C630,大溪,2023-12-26,24.882853,121.265547,0.09931412
C0C650,平鎮,2023-12-26,24.897503,121.214636,0.11578839
C0C660,楊梅,2023-12-26,24.912375,121.143047,0.15987213
C0C670,龍潭,2023-12-26,24.870056,121.221389,0.06620881
C0C680,龜山,2023-12-26,25.02846,121.38656,0.02269099
C0C700,中壢,2023-12-26,24.977661,121.256375,0.1418954
C0C710,大溪永福,2023-12-26,24.892936,121.324975,0.080718026
C0C720,竹圍,2023-12-26,25.112692,121.239824,0.052198373
C0C730,中大臨海站,2023-12-26,24.966126,121.008581,0.066056706
C0C740,觀音工業區,2023-12-26,25.064764,121.114856,0.029517202
C0C750,新興坑尾,2023-12-26,25.0061,121.0971,0.04218379
C0D430,峨眉,2023-12-26,24.6905,121.017189,0.041116714
C0D480,打鐵坑,2023-12-26,24.849664,121.150789,0.06246391
C0D540,橫山,2023-12-26,24.71116,121.11693,0.06717742
C0D560,竹東,2023-12-26,24.767147,121.057881,0.095950015
C0D580,寶山,2023-12-26,24.735006,121.025192,0.13784361
C0D590,新豐,2023-12-26,24.87068,120.97721,0.0050757537
C0D650,湖口,2023-12-26,24.904794,121.043628,0.054553527
C0D660,新竹市東區,2023-12-26,24.798681,120.986942,0.03166591
C0D670,海天一線,2023-12-26,24.831986,120.914438,0.02087094
C0D680,香山濕地,2023-12-26,24.783581,120.914988,0.047453497
C0D690,外湖,2023-12-26,24.917735,120.968711,0.104034476
C0D700,關西,2023-12-26,24.7977,121.1732,0.07872438
C0E420,竹南,2023-12-26,24.708978,120.888897,0.011357152
C0E430,南庄,2023-12-26,24.601775,121.000214,0.17250532
C0E520,大湖,2023-12-26,24.41494,120.87087,0.12695469
C0E540,後龍,2023-12-26,24.606489,120.783933,0.04896846
C0E550,明德,2023-12-26,24.583486,120.885411,0.05397978
C0E590,通霄,2023-12-26,24.471892,120.704622,0.06521377
C0E730,頭份,2023-12-26,24.688247,120.912206,0.013806391
C0E740,造橋,2023-12-26,24.637056,120.864778,0.043746054
C0E750,苗栗,2023-12-26,24.564569,120.824575,0.061964866
C0E780,銅鑼,2023-12-26,24.489681,120.790853,0.025915353
C0E791,卓蘭,2023-12-26,24.3126,120.8244,0.1420532
C0E810,西湖,2023-12-26,24.562947,120.7485,0.010969625
C0E820,獅潭,2023-12-26,24.539133,120.920042,0.18484478
C0E830,苑裡,2023-12-26,24.439714,120.653053,0.026178408
C0E850,大河,2023-12-26,24.618069,120.948578,0.3147925
C0E870,高鐵苗栗,2023-12-26,24.60725,120.826094,0.04516292
C0E910,海埔,2023-12-26,24.648767,120.772435,0.042869687
C0E920,通霄漁港,2023-12-26,24.498589,120.673876,0.08615728
C0E930,龍鳳,2023-12-26,24.700034,120.859125,0.016691314
C0F0B0,石岡,2023-12-26,24.276061,120.777644,0.20146416
C0F850,東勢,2023-12-26,24.246428,120.833047,0.3210983
C0F930,大甲,2023-12-26,24.347667,120.640403,0.022958277
C0F970,大坑,2023-12-26,24.173142,120.722289,0.7495291
C0F9A0,中竹林,2023-12-26,24.103556,120.751061,0.20502764
C0F9I0,神岡,2023-12-26,24.272481,120.658314,0.059570353
C0F9K0,大安,2023-12-26,24.345061,120.588025,0.04438498
C0F9L0,后里,2023-12-26,24.310436,120.729725,0.30723777
C0F9M0,豐原,2023-12-26,24.254322,120.720692,0.36117542
C0F9N0,大里,2023-12-26,24.092464,120.701378,0.76870716
C0F9O0,潭子,2023-12-26,24.213106,120.703933,0.790044
C0F9P0,清水,2023-12-26,24.312297,120.562242,0.054337822
C0F9Q0,外埔,2023-12-26,24.347817,120.705686,0.11366544
C0F9R0,龍井,2023-12-26,24.184536,120.528972,0.11044377
C0F9S0,烏日,2023-12-26,24.107058,120.624103,0.8066971
C0F9T0,西屯,2023-12-26,24.179494,120.641275,0.2052604
C0F9U0,南屯,2023-12-26,24.137006,120.637969,0.26602685
C0F9X0,大雅(中科園區),2023-12-26,24.21528,120.62445,0.16529159
C0FA10,松柏,2023-12-26,24.429115,120.617482,0.03047618
C0FA20,溫寮,2023-12-26,24.372177,120.583125,0.05108781
C0FA30,梧棲,2023-12-26,24.256003,120.523381,0.05425988
C0FA40,臺中電廠,2023-12-26,24.2146,120.4907,0.11044377
C0FA50,霧峰,2023-12-26,24.0419,120.6995,0.92711705
C0G620,芬園,2023-12-26,24.015678,120.6213,0.9058291
C0G640,鹿港,2023-12-26,24.0753,120.430481,0.12895148
C0G650,員林,2023-12-26,23.946503,120.585597,0.9359712
C0G660,溪湖,2023-12-26,23.94835,120.479122,0.6943636
C0G720,溪州,2023-12-26,23.851589,120.499093,0.7808226
C0G730,二林,2023-12-26,23.903325,120.376081,0.25170198
C0G740,大城,2023-12-26,23.852487,120.320935,0.117511965
C0G770,福興,2023-12-26,24.041289,120.437669,0.21283288
C0G780,秀水,2023-12-26,24.03405,120.503869,0.55984503
C0G800,埔鹽,2023-12-26,24.000394,120.431683,0.21694319
C0G810,埔心,2023-12-26,23.947633,120.525456,0.684338
C0G820,田尾,2023-12-26,23.901669,120.509389,0.6830959
C0G830,埤頭,2023-12-26,23.866003,120.452806,0.7846202
C0G840,北斗,2023-12-26,23.877586,120.514222,0.7804589
C0G860,社頭,2023-12-26,23.897647,120.5862,0.92127836
C0G870,芳苑,2023-12-26,23.922303,120.320025,0.077755414
C0G880,二水,2023-12-26,23.810742,120.6173,0.69920427
C0G890,伸港,2023-12-26,24.148933,120.484403,0.094983906
C0G900,線西,2023-12-26,24.143358,120.443536,0.09247067
C0G910,花壇,2023-12-26,24.032076,120.549461,0.54146695
C0G920,永靖,2023-12-26,23.924703,120.547533,0.68261707
C0G940,竹塘,2023-12-26,23.848253,120.386764,0.38951606
C0G950,防潮門,2023-12-26,24.1835,120.4871,0.11044377
C0G960,福寶,2023-12-26,24.0443,120.3814,0.12748615
C0G970,三豐,2023-12-26,23.882,120.2895,0.12968163
C0H890,埔里,2023-12-26,23.972169,120.952425,0.44420695
C0H950,中寮,2023-12-26,23.884447,120.766406,0.6658866
C0H960,草屯,2023-12-26,23.973672,120.68085,0.9117821
C0I110,竹山,2023-12-26,23.761225,120.688156,0.6095578
C0I360,水里,2023-12-26,23.812553,120.849792,0.44436693
C0I380,集集,2023-12-26,23.828206,120.801467,0.45144922
C0I410,名間,2023-12-26,23.837053,120.701447,0.70532507
C0I420,國姓,2023-12-26,24.037803,120.855072,0.43072385
C0I460,南投,2023-12-26,23.911469,120.687331,0.8612755
C0K250,崙背,2023-12-26,23.75555,120.318925,0.8061476
C0K280,四湖,2023-12-26,23.630414,120.227125,0.2887563
C0K291,宜梧,2023-12-26,23.536281,120.169329,0.627768
C0K330,虎尾,2023-12-26,23.719183,120.442036,0.8440411
C0K390,土庫,2023-12-26,23.679029,120.395574,0.8427569
C0K400,斗六,2023-12-26,23.720583,120.541127,0.88899225
C0K410,北港,2023-12-26,23.573957,120.292802,0.70257723
C0K420,西螺,2023-12-26,23.800407,120.467394,0.7838324
C0K430,褒忠,2023-12-26,23.690938,120.303634,0.8070553
C0K440,二崙,2023-12-26,23.772797,120.408944,0.79370826
C0K450,大埤,2023-12-26,23.646074,120.431537,0.92985225
C0K460,斗南,2023-12-26,23.678734,120.478359,0.9268711
C0K470,林內,2023-12-26,23.748675,120.609642,0.83874273
C0K480,莿桐,2023-12-26,23.761192,120.502372,0.88905317
C0K500,元長,2023-12-26,23.64981,120.315024,0.7359217
C0K510,水林,2023-12-26,23.572924,120.24597,0.711523
C0K530,臺西,2023-12-26,23.701547,120.197559,0.42391184
C0K550,蔦松,2023-12-26,23.514319,120.229736,0.6305361
C0K560,棋山,2023-12-26,23.68645,120.603417,0.8708048
C0K580,高鐵雲林,2023-12-26,23.737456,120.417944,0.8512656
C0K590,雲林東勢,2023-12-26,23.674192,120.255721,0.7243997
C0K600,箔子寮,2023-12-26,23.6197,120.14,0.24556288
C0M410,馬頭山,2023-12-26,23.324361,120.582017,0.774226
C0M520,東後寮,2023-12-26,23.369908,120.248065,0.71812785
C0M640,中埔,2023-12-26,23.42538,120.5229,0.8375332
C0M650,朴子,2023-12-26,23.43463,120.23902,0.8509458
C0M660,溪口,2023-12-26,23.604131,120.403569,0.9259317
C0M670,大林,2023-12-26,23.600616,120.45841,0.9175301
C0M680,太保,2023-12-26,23.455062,120.331455,0.9274776
C0M690,水上,2023-12-26,23.419734,120.388909,0.9244948
C0M700,竹崎,2023-12-26,23.526178,120.555508,0.9393084
C0M710,東石,2023-12-26,23.458927,120.15385,0.523252
C0M720,番路,2023-12-26,23.464657,120.554156,0.7546118
C0M730,嘉義市東區,2023-12-26,23.457673,120.460531,0.9040777
C0M740,六腳,2023-12-26,23.492871,120.290625,0.8554606
C0M750,布袋,2023-12-26,23.380878,120.167789,0.72587407
C0M760,民雄,2023-12-26,23.551754,120.428457,0.92285985
C0M770,嘉義梅山,2023-12-26,23.585398,120.555587,0.8910151
C0M780,鹿草,2023-12-26,23.41134,120.30835,0.8460541
C0M790,新港,2023-12-26,23.553269,120.345728,0.7843879
C0M800,茶山,2023-12-26,23.299075,120.664767,0.76621294
C0M880,好美里,2023-12-26,23.3364,120.138,0.6557915
C0N010,鯤鯓國小,2023-12-26,23.1879,120.0889,0.72342116
C0N020,城西,2023-12-26,23.0568,120.0956,0.784807
C0N030,四草,2023-12-26,23.0235,120.1116,0.79916346
C0N040,蘆竹溝,2023-12-26,23.2344,120.0961,0.6794303
C0N050,蚵寮,2023-12-26,23.301,120.1104,0.65661377
C0O810,曾文,2023-12-26,23.219681,120.497328,0.8868076
C0O830,北寮,2023-12-26,23.079561,120.495008,0.69633204
C0O840,王爺宮,2023-12-26,23.222064,120.40085,0.657029
C0O860,大內,2023-12-26,23.11885,120.36083,0.89502454
C0O900,善化,2023-12-26,23.112883,120.297219,0.898875
C0O930,玉井,2023-12-26,23.126042,120.46055,0.9053965
C0O950,安南,2023-12-26,23.076694,120.144861,0.54496837
C0O960,崎頂,2023-12-26,22.959547,120.369317,0.8480598
C0O970,虎頭埤,2023-12-26,23.021375,120.347878,0.9301924
C0O980,新市,2023-12-26,23.061614,120.298197,0.8989579
C0O990,媽廟,2023-12-26,22.99175,120.293525,0.88641906
C0R150,三地門,2023-12-26,22.709889,120.639944,0.1595712
C0R160,鹽埔,2023-12-26,22.739558,120.530778,0.8778751
C0R170,屏東,2023-12-26,22.660269,120.494072,0.9361927
C0R190,赤山,2023-12-26,22.592333,120.614306,0.5615028
C0R220,潮州,2023-12-26,22.534361,120.54,0.6285704
C0R240,來義,2023-12-26,22.527306,120.625111,0.6936636
C0R260,春日,2023-12-26,22.370361,120.628306,0.006349951
C0R270,琉球嶼,2023-12-26,22.332244,120.362236,0.8114008
C0R280,檳榔,2023-12-26,22.076078,120.836777,0.7555247
C0R320,車城,2023-12-26,22.0744,120.716247,0.0031467602
C0R341,牡丹,2023-12-26,22.130036,120.792639,0.76469195
C0R350,貓鼻頭,2023-12-26,21.921774,120.7358,0.0032632279
C0R470,高樹,2023-12-26,22.826389,120.600806,0.80517423
C0R480,長治,2023-12-26,22.693128,120.542622,0.9329587
C0R490,九如,2023-12-26,22.7405,120.490503,0.8763368
C0R520,崁頂,2023-12-26,22.514781,120.506914,0.6110082
C0R540,佳冬,2023-12-26,22.419456,120.552375,0.006557835
C0R550,新埤,2023-12-26,22.467947,120.582894,0.33692235
C0R560,新園,2023-12-26,22.5434,120.461558,0.9040187
C0R570,麟洛,2023-12-26,22.65078,120.52719,0.9361927
C0R580,南州,2023-12-26,22.48591,120.50274,0.33247983
C0R590,里港,2023-12-26,22.77919,120.49459,0.9397478
C0R620,墾雷,2023-12-26,21.900836,120.855269,0.15207195
C0R640,東港,2023-12-26,22.46247,120.44074,0.34097186
C0R650,竹田,2023-12-26,22.58486,120.54344,0.5470145
C0R660,枋寮,2023-12-26,22.367722,120.590647,0.0065578315
C0R670,楓港,2023-12-26,22.190131,120.692156,0.00421868
C0R680,佳樂水,2023-12-26,21.993578,120.861633,0.41078395
C0R690,墾丁,2023-12-26,21.966756,120.810269,0.039840773
C0R700,枋山,2023-12-26,22.246844,120.661086,0.0037598244
C0R710,龍磐,2023-12-26,21.931672,120.838942,0.29379845
C0R720,旭海,2023-12-26,22.205403,120.887614,0.29576382
C0R730,大坪頂,2023-12-26,22.024633,120.69355,0.62158144
C0R740,獅子,2023-12-26,22.201569,120.70525,0.56141305
C0R760,南仁湖,2023-12-26,22.084681,120.863353,0.40992427
C0R770,保力,2023-12-26,22.071122,120.764111,0.6999066
C0R780,滿州,2023-12-26,22.024403,120.839892,0.31431013
C0R790,九棚,2023-12-26,22.14195,120.889281,0.7475143
C0R800,丹路,2023-12-26,22.204481,120.750989,0.6107734
C0R810,內獅,2023-12-26,22.305064,120.642986,0.0056839203
C0R830,高士,2023-12-26,22.121825,120.836781,0.2586817
C0R850,林邊,2023-12-26,22.4634,120.5339,0.30464512
C0R860,鼻頭,2023-12-26,22.1043,120.8979,0.67895985
C0R870,興海,2023-12-26,21.9752,120.8439,0.43438807
C0R880,後壁湖,2023-12-26,21.9457,120.7457,0.034513537
C0R890,山海,2023-12-26,21.9878,120.7091,0.038379353
C0R900,竹坑,2023-12-26,22.1385,120.7022,0.0031498205
C0R910,下寮,2023-12-26,22.3929,120.5548,0.0065578315
C0R920,塭仔,2023-12-26,22.4169,120.5197,0.006739985
C0R930,萬丹,2023-12-26,22.5885,120.4851,0.90695333
C0R940,加祿堂,2023-12-26,22.3363,120.6217,0.00571698
C0S710,鹿野,2023-12-26,22.917711,121.122994,0.10526166
C0S730,綠島,2023-12-26,22.6672,121.47533,0.017254936
C0S740,池上,2023-12-26,23.119628,121.209469,0.07246436
C0S770,大溪山,2023-12-26,22.478475,120.943325,0.48607716
C0S790,金崙,2023-12-26,22.538122,120.966875,0.8353025
C0S810,東河,2023-12-26,22.972672,121.303986,0.23154545
C0S830,長濱,2023-12-26,23.286817,121.411975,0.28333864
C0S840,南田,2023-12-26,22.279725,120.889208,0.5041429
C0S890,關山,2023-12-26,23.0395,121.175017,0.48820168
C0S900,蘭嶼高中,2023-12-26,22.04909,121.51214,0.07158892
C0S910,蘭嶼燈塔,2023-12-26,22.081197,121.503117,0.027531976
C0S920,金峰嘉蘭,2023-12-26,22.594789,120.960825,0.90983653
C0S930,延平,2023-12-26,22.902581,121.084058,0.3327733
C0S940,石寧山,2023-12-26,23.223772,121.406639,0.5300287
C0S950,七塊厝,2023-12-26,22.954453,121.229922,0.078142755
C0S960,香蘭,2023-12-26,22.587569,120.993375,0.9208995
C0S970,加津林,2023-12-26,22.416211,120.926942,0.78156704
C0S990,山豬窟,2023-12-26,22.318619,120.857372,0.5054103
C0SA00,歷坵,2023-12-26,22.520969,120.89185,0.40129367
C0SA10,檳榔四格山,2023-12-26,22.810031,121.109308,0.13601135
C0SA30,都歷,2023-12-26,23.020333,121.323642,0.7405964
C0SA40,瑞和,2023-12-26,22.974361,121.156697,0.526173
C0SA60,知本（水試所）,2023-12-26,22.702394,121.082761,0.8476744
C0SA80,土坂,2023-12-26,22.453108,120.887572,0.8783966
C0SA90,達仁林場,2023-12-26,22.264347,120.823972,0.31533316
C0T870,鯉魚潭,2023-12-26,23.935639,121.508944,0.48939708
C0T900,西林,2023-12-26,23.8119,121.441458,0.24127102
C0T960,光復,2023-12-26,23.660694,121.424964,0.3115983
C0T9A0,月眉山,2023-12-26,23.809928,121.539828,0.014640049
C0T9D0,和中,2023-12-26,24.26676,121.74103,0.7659321
C0T9E0,大坑,2023-12-26,23.880628,121.581981,0.032722533
C0T9F0,水璉,2023-12-26,23.797131,121.542514,0.11040166
C0T9I0,豐濱,2023-12-26,23.583897,121.514806,0.4094447
C0T9M0,靜浦,2023-12-26,23.455167,121.495028,0.5404261
C0T9N0,富里,2023-12-26,23.171639,121.249378,0.2648535
C0U600,礁溪,2023-12-26,24.817539,121.765608,0.33490837
C0U650,玉蘭,2023-12-26,24.675286,121.587061,0.024806315
C0U750,龜山島,2023-12-26,24.841667,121.953133,0.0048605646
C0U760,東澳,2023-12-26,24.52196,121.83318,0.5858363
C0U770,南澳,2023-12-26,24.44935,121.81022,0.02245116
C0U780,五結,2023-12-26,24.68637,121.79794,0.45811626
C0U860,頭城,2023-12-26,24.85323,121.8308,0.4123691
C0U870,大礁溪,2023-12-26,24.791042,121.675047,0.0130064525
C0U880,北關,2023-12-26,24.9072,121.8734,0.41703314
C0U890,三星,2023-12-26,24.66812,121.65302,0.8287881
C0U900,內城,2023-12-26,24.71813,121.68766,0.3971914
C0U910,冬山,2023-12-26,24.63373,121.7937,0.88515395
C0U940,羅東,2023-12-26,24.68184,121.74934,0.45088035
C0U970,大福,2023-12-26,24.80064,121.81389,0.52998775
C0U990,員山,2023-12-26,24.74435,121.72247,0.4437997
C0UA00,土場,2023-12-26,24.576533,121.495333,0.0813643
C0UA80,大溪漁港,2023-12-26,24.941801,121.902955,0.4264313
C0UA90,石城,2023-12-26,24.980444,121.951214,0.7443069
C0UB00,淡江大學蘭陽校園,2023-12-26,24.823239,121.730383,0.0512611
C0UB10,蘇澳,2023-12-26,24.5969,121.8571,0.9465201
C0UB20,壯圍,2023-12-26,24.7359,121.8163,0.4455436
C0V250,甲仙,2023-12-26,23.080106,120.591758,0.8205743
C0V260,月眉,2023-12-26,22.971003,120.539853,0.9063917
C0V310,美濃,2023-12-26,22.898742,120.519153,0.92896533
C0V350,溪埔,2023-12-26,22.738578,120.446797,0.93650764
C0V360,內門,2023-12-26,22.975481,120.466769,0.91986006
C0V370,古亭坑,2023-12-26,22.893178,120.401947,0.92762125
C0V400,阿公店,2023-12-26,22.804194,120.355528,0.92598975
C0V440,鳳山,2023-12-26,22.646653,120.356122,0.88694
C0V450,鳳森,2023-12-26,22.545064,120.392592,0.91134757
C0V490,新興,2023-12-26,22.627422,120.298803,0.9324592
C0V530,阿蓮,2023-12-26,22.883208,120.327508,0.9290201
C0V610,梓官,2023-12-26,22.760558,120.267211,0.91903704
C0V620,永安,2023-12-26,22.82315,120.236856,0.91599774
C0V630,茄萣,2023-12-26,22.906642,120.182608,0.8583852
C0V640,湖內,2023-12-26,22.887139,120.2445,0.84795946
C0V650,彌陀,2023-12-26,22.783806,120.246361,0.91599774
C0V660,岡山,2023-12-26,22.797078,120.294958,0.9145024
C0V680,仁武,2023-12-26,22.701083,120.347722,0.88889766
C0V690,鼓山,2023-12-26,22.623325,120.275575,0.9344259
C0V700,三民,2023-12-26,22.645017,120.311233,0.89108187
C0V710,苓雅,2023-12-26,22.622742,120.330669,0.93400276
C0V720,林園,2023-12-26,22.507747,120.394511,0.90743375
C0V730,大寮,2023-12-26,22.605614,120.395717,0.93225676
C0V740,旗山,2023-12-26,22.888614,120.483597,0.92870677
C0V750,路竹,2023-12-26,22.854997,120.259439,0.8410374
C0V760,橋頭,2023-12-26,22.757806,120.30575,0.9177423
C0V770,大社,2023-12-26,22.730306,120.346639,0.91645396
C0V790,萬山,2023-12-26,22.905944,120.688056,0.6396207
C0V800,六龜,2023-12-26,22.997889,120.633583,0.7968337
C0V810,左營,2023-12-26,22.67491,120.28491,0.89108187
C0V820,小林,2023-12-26,23.148408,120.63325,0.6806382
C0V840,鳳鼻頭,2023-12-26,22.5083,120.3591,0.9054875
C0V850,蚵仔寮,2023-12-26,22.7256,120.2527,0.92093456
C0V860,南寮,2023-12-26,22.7616,120.2339,0.92093456
C0V870,文安,2023-12-26,22.8025,120.2164,0.91871136
C0V880,興達,2023-12-26,22.8778,120.2127,0.8583851
C0V890,前鎮,2023-12-26,22.5718,120.3117,0.93502855
C0V900,汕尾,2023-12-26,22.4782,120.4151,0.33206695
C0X050,東河,2023-12-26,23.296598,120.385608,0.8878876
C0X060,下營,2023-12-26,23.22695,120.256261,0.8523964
C0X080,佳里,2023-12-26,23.173039,120.145086,0.70639896
C0X100,臺南市北區,2023-12-26,23.010394,120.194228,0.78692895
C0X110,臺南市南區,2023-12-26,22.961189,120.188378,0.8547419
C0X120,麻豆,2023-12-26,23.183289,120.248611,0.8515774
C0X130,官田,2023-12-26,23.193217,120.315422,0.8532419
C0X140,西港,2023-12-26,23.125608,120.203108,0.84487087
C0X150,安定,2023-12-26,23.102614,120.227839,0.8460346
C0X160,仁德,2023-12-26,22.968258,120.257689,0.85778135
C0X170,關廟,2023-12-26,22.963017,120.327797,0.89503014
C0X180,山上,2023-12-26,23.0757,120.363253,0.9044498
C0X190,安平,2023-12-26,22.993161,120.152181,0.78953415
C0X200,左鎮,2023-12-26,23.056758,120.408522,0.93189275
C0X210,白河,2023-12-26,23.347466,120.414427,0.90426147
C0X220,學甲,2023-12-26,23.230367,120.182187,0.66558033
C0X230,鹽水,2023-12-26,23.272621,120.247641,0.64477867
C0X240,關子嶺,2023-12-26,23.331169,120.508025,0.5781114
C0X250,新營,2023-12-26,23.310689,120.316681,0.83715504
C0X260,後壁,2023-12-26,23.366358,120.362326,0.89968085
C0X280,將軍,2023-12-26,23.214999,120.13577,0.67746246
C0X290,北門,2023-12-26,23.267772,120.125481,0.6794303
C0X300,鹿寮,2023-12-26,23.386047,120.477331,0.890299
C0X310,七股,2023-12-26,23.147289,120.086253,0.7190869
C0X320,柳營,2023-12-26,23.253328,120.375253,0.8205717
C0Z020,明里,2023-12-26,23.208717,121.262342,0.3627797
C0Z061,玉里,2023-12-26,23.3215,121.339656,0.55004835
C0Z070,舞鶴,2023-12-26,23.46811,121.37407,0.19472264
C0Z080,富源,2023-12-26,23.587642,121.378225,0.31372386
C0Z100,東華,2023-12-26,23.89525,121.549833,0.6871581
C0Z150,吉安光華,2023-12-26,23.930925,121.595153,0.72147983
C0Z160,鳳林,2023-12-26,23.746114,121.453411,0.5910037
C0Z170,卓溪,2023-12-26,23.3443,121.3029,0.40585542
C0Z180,新城,2023-12-26,24.03946,121.60454,0.77267015
C0Z190,富世,2023-12-26,24.14743,121.6297,0.09175452
C0Z200,萬榮,2023-12-26,23.709219,121.420106,0.4553781
C0Z210,瑞穗,2023-12-26,23.5239,121.39021,0.3807723
C0Z230,和平,2023-12-26,24.30717,121.77007,0.79094684
C0Z270,蕃薯寮,2023-12-26,23.73835,121.540108,0.12819742
C0Z280,德武,2023-12-26,23.47426,121.41071,0.27310854
C0Z300,東里,2023-12-26,23.26853,121.30547,0.4870204
C0Z310,清水斷崖,2023-12-26,24.218294,121.689142,0.062724896
C0Z330,安通山,2023-12-26,23.290728,121.348528,0.045032877
CAG100,王功漁港,2023-12-26,23.96824,120.32586,0.08820417
CAH030,茶改場竹圍站,2023-12-26,23.860083,120.637528,0.6333808
CAJ050,海口故事園區,2023-12-26,23.57543,120.14121,0.24556288
CAL110,布袋國中,2023-12-26,23.35893,120.18026,0.7240242
CAN130,水試所海水繁養殖中心,2023-12-26,23.120802,120.07968,0.58921784
CAN140,六官養殖協會,2023-12-26,23.22881,120.29962,0.850902
CAQ030,崎峰國小,2023-12-26,22.42565,120.49521,0.34589124
E2K600,四湖植物園,2023-12-26,23.676986,120.163433,0.28371078
E2P980,林試六龜中心,2023-12-26,22.991703,120.645722,0.7811372
E2S960,林試太麻里2,2023-12-26,22.598014,120.989761,0.9208995
E2S980,林試太麻里1,2023-12-26,22.598922,120.980044,0.90874034
G2AI50,關渡,2023-12-26,25.11575,121.492,0.056114502
G2F820,農業試驗所,2023-12-26,24.031261,120.688133,0.93110716
G2F820,農試所(霧峰),2023-12-26,24.031261,120.688133,0.9311073
G2L020,農試嘉義分所,2023-12-26,23.485028,120.473806,0.955996
G2M350,農試溪口農場,2023-12-26,23.58565,120.408111,0.9257949
G2P820,農試鳳山分所,2023-12-26,22.646611,120.356083,0.88694
K2E360,苗栗農改,2023-12-26,24.495722,120.829111,0.041518204
K2E360,苗栗農改場,2023-12-26,24.495722,120.829111,0.041518204
K2E710,苗改生物防治研究中心,2023-12-26,24.422861,120.871833,0.15887198
K2F750,種苗改良場,2023-12-26,24.225972,120.800917,0.55605125
K2F750,種苗繁殖,2023-12-26,24.225972,120.800917,0.5560516
U2HA50,臺大竹山,2023-12-26,23.756972,120.681556,0.77829796
V2C250,八德合作社,2023-12-26,24.93775,121.266389,0.20956546
V2C260,八德蔬果,2023-12-26,24.978508,121.281819,0.17880502
V2K610,大庄合作社,2023-12-26,23.8068,120.367939,0.51537454
V2K620,麥寮合作社,2023-12-26,23.753836,120.294783,0.8061476
