站號,站名,日期,lat,lon,BlastGRU-TW
12J990,口湖工作站,2023-12-04,23.589978,120.180394,0.043986365
12Q970,東港工作站,2023-12-04,22.479997,120.466058,0.33871827
12Q980,恆春工作站,2023-12-04,22.079678,120.714425,0.013413297
466881,新北,2023-12-04,24.9593,121.52,0.00066689646
466900,淡水,2023-12-04,25.164889,121.448906,0.00033683315
466920,臺北,2023-12-04,25.037658,121.514853,0.0021239868
466940,基隆,2023-12-04,25.133314,121.740475,0.0041181874
466990,花蓮,2023-12-04,23.975128,121.613275,0.11603105
467050,新屋,2023-12-04,25.006744,121.047486,0.0003498521
467080,宜蘭,2023-12-04,24.763975,121.756528,0.043403346
467270,田中,2023-12-04,23.873803,120.581286,0.15312381
467300,東吉島,2023-12-04,23.25695,119.667467,0.0011038755
467350,澎湖,2023-12-04,23.565503,119.563094,0.0009041129
467410,臺南,2023-12-04,22.993239,120.204772,0.25455657
467420,永康,2023-12-04,23.038386,120.2367,0.3040743
467441,高雄,2023-12-04,22.7304,120.3125,0.3772458
467480,嘉義,2023-12-04,23.495925,120.432906,0.1596261
467490,臺中,2023-12-04,24.145736,120.684075,0.046338387
467540,大武,2023-12-04,22.355675,120.903789,0.022988308
467571,新竹,2023-12-04,24.827853,121.014219,0.0004609608
467590,恆春,2023-12-04,22.003897,120.746339,0.030062363
467610,成功,2023-12-04,23.097486,121.373428,0.032952935
467620,蘭嶼,2023-12-04,22.036969,121.558339,0.000102533566
467660,臺東,2023-12-04,22.752211,121.154586,0.09465414
467790,墾丁雷達站,2023-12-04,21.948235,120.808028,0.010170373
72AI40,桃改樹林分場,2023-12-04,24.944503,121.386972,0.0014888268
72C440,桃園農改,2023-12-04,24.950944,121.030583,0.00032163487
72C440,桃園農改場,2023-12-04,24.950944,121.030583,0.00032163487
72D680,桃改新埔分場,2023-12-04,24.834444,121.066111,0.0003918856
72G600,臺中農改,2023-12-04,24.003028,120.534389,0.12615184
72G600,臺中農改場,2023-12-04,24.003028,120.534389,0.12615184
72K220,南改斗南分場,2023-12-04,23.634556,120.477333,0.15957244
72M360,南改義竹分場,2023-12-04,23.360694,120.279361,0.15030685
72M700,南改鹿草分場,2023-12-04,23.416869,120.283061,0.19822703
72N100,臺南農改,2023-12-04,23.0605,120.342194,0.36311507
72N100,臺南農改場,2023-12-04,23.0605,120.342194,0.36311507
72N240,七股研究中心,2023-12-04,23.081672,120.062894,0.10388929
72Q010,高雄農改,2023-12-04,22.709333,120.525889,0.31620154
72Q010,高雄農改場,2023-12-04,22.709333,120.525889,0.31620154
72S200,東改班鳩分場,2023-12-04,22.829528,121.077694,0.010511133
72S590,東改賓朗果園,2023-12-04,22.813889,121.071278,0.007433852
72T250,花蓮農改,2023-12-04,23.975222,121.563889,0.057108115
72T250,花蓮農改場,2023-12-04,23.975222,121.563889,0.057108115
72U480,花改蘭陽分場,2023-12-04,24.686306,121.716583,0.36355364
72V140,高改旗南分場,2023-12-04,22.857861,120.516667,0.31325078
82A750,茶改北部分場,2023-12-04,24.955778,121.631222,0.05433583
82C160,茶改場,2023-12-04,24.908472,121.185333,0.0017907122
82H840,茶改南部分場,2023-12-04,23.762528,120.7405,0.061663628
82S580,茶改東部分場,2023-12-04,22.907694,121.130139,0.014251457
A2C560,農工中心,2023-12-04,24.985917,121.239833,0.0007521965
A2K360,水試臺西試驗場,2023-12-04,23.717231,120.190522,0.021638654
A2K570,古坑花卉中心,2023-12-04,23.63353,120.55239,0.12768401
A2K630,臺大雲林校區,2023-12-04,23.730628,120.423903,0.2452375
A2N290,臺南蘭花園區,2023-12-04,23.340258,120.379661,0.21133944
B2E890,畜試北區分所,2023-12-04,24.527806,120.770972,0.0024544273
B2N890,畜產試驗所,2023-12-04,23.058972,120.336406,0.3623142
B2N890,畜試所,2023-12-04,23.058972,120.336406,0.36231393
B2Q810,畜試南區分所,2023-12-04,21.945583,120.802167,0.015679058
B2U990,畜試東區分所,2023-12-04,24.669039,121.832561,0.8516606
C0A520,山佳,2023-12-04,24.974944,121.402008,0.0012020636
C0A530,坪林,2023-12-04,24.938183,121.70975,0.03512659
C0A540,四堵,2023-12-04,24.8926,121.745736,0.010524114
C0A550,泰平,2023-12-04,24.971197,121.823711,0.012980617
C0A560,福山,2023-12-04,24.776203,121.502811,0.07626637
C0A570,桶後,2023-12-04,24.848222,121.597992,0.015611278
C0A640,石碇,2023-12-04,24.993969,121.662917,0.0014363048
C0A650,火燒寮,2023-12-04,25.002719,121.742892,0.036141306
C0A660,瑞芳,2023-12-04,25.113169,121.801147,0.008894806
C0A770,科教館,2023-12-04,25.096356,121.516507,0.0017182237
C0A860,大坪,2023-12-04,25.165914,121.632969,0.009090109
C0A880,福隆,2023-12-04,25.017842,121.942083,0.09818865
C0A890,雙溪,2023-12-04,25.036003,121.864242,0.037201203
C0A920,富貴角,2023-12-04,25.263783,121.565258,0.00030786663
C0A931,三和,2023-12-04,25.233153,121.595236,0.00047596137
C0A940,金山,2023-12-04,25.223628,121.643967,0.0065128226
C0A950,鼻頭角,2023-12-04,25.129036,121.923372,0.00072580314
C0A970,三貂角,2023-12-04,25.007606,122.002058,0.050161127
C0A980,社子,2023-12-04,25.109508,121.469681,0.00031261673
C0A9C0,天母,2023-12-04,25.117494,121.537169,0.0049866447
C0A9F0,內湖,2023-12-04,25.079422,121.57545,0.0029674426
C0AC60,三峽,2023-12-04,24.939025,121.369728,0.0014074462
C0AC70,信義,2023-12-04,25.037822,121.564597,0.004135484
C0AC80,文山,2023-12-04,25.00235,121.575728,0.000579517
C0ACA0,新莊,2023-12-04,25.051478,121.446756,0.0025131495
C0AD00,三芝,2023-12-04,25.258131,121.501917,0.00057670375
C0AD10,八里,2023-12-04,25.150211,121.403947,0.00020307834
C0AD30,蘆洲,2023-12-04,25.086594,121.472331,0.001680364
C0AD40,土城,2023-12-04,24.973208,121.445169,0.000652232
C0AD50,鶯歌,2023-12-04,24.951533,121.346294,0.001282962
C0AG80,中和,2023-12-04,24.991622,121.491792,0.0008038442
C0AH00,汐止,2023-12-04,25.066881,121.658778,0.0027504326
C0AH10,永和,2023-12-04,25.01125,121.508111,0.0008448199
C0AH40,平等,2023-12-04,25.129142,121.577086,0.007346136
C0AH50,林口,2023-12-04,25.072181,121.38084,0.0013079435
C0AH70,松山,2023-12-04,25.04871,121.55042,0.004135484
C0AH80,深坑,2023-12-04,25.002703,121.628328,0.0005566274
C0AI00,五股,2023-12-04,25.07445,121.42728,0.0007942444
C0AI10,屈尺,2023-12-04,24.92184,121.54475,0.0039311214
C0AI20,白沙灣,2023-12-04,25.283128,121.519058,6.9094676e-05
C0AI30,三重,2023-12-04,25.057328,121.500629,0.002231564
C0AI40,石牌,2023-12-04,25.115597,121.513139,0.0022173717
C0AJ20,野柳,2023-12-04,25.20703,121.690021,0.0023222896
C0AJ30,淡水觀海,2023-12-04,25.184591,121.408616,0.0037393633
C0AJ40,石門,2023-12-04,25.273672,121.601198,9.1489375e-05
C0AJ50,水湳洞,2023-12-04,25.123695,121.862238,0.009174243
C0AJ60,六塊厝,2023-12-04,25.24,121.4481,0.00021018829
C0AJ70,田寮,2023-12-04,25.2698,121.4886,0.00069573126
C0AJ80,板橋,2023-12-04,25.0107,121.4489,0.0008643994
C0AJ90,澳底,2023-12-04,25.0552,121.9253,0.02311709
C0B010,七堵,2023-12-04,25.094819,121.71713,0.005055135
C0B020,基隆嶼,2023-12-04,25.19141,121.78391,0.00019647769
C0B040,大武崙,2023-12-04,25.166676,121.706993,0.006593447
C0B050,八斗子,2023-12-04,25.144754,121.79167,0.0037408543
C0B060,暖暖,2023-12-04,25.0957,121.7403,0.0025032714
C0C460,復興,2023-12-04,24.820208,121.352281,0.0016558045
C0C480,桃園,2023-12-04,24.992425,121.323172,0.00062684354
C0C490,八德,2023-12-04,24.928708,121.283289,0.0014953548
C0C590,觀音,2023-12-04,25.027072,121.153317,0.00014294698
C0C620,蘆竹,2023-12-04,25.084275,121.265767,0.00017799038
C0C630,大溪,2023-12-04,24.882853,121.265547,0.0018106798
C0C650,平鎮,2023-12-04,24.897503,121.214636,0.002068929
C0C660,楊梅,2023-12-04,24.912375,121.143047,0.0012830794
C0C670,龍潭,2023-12-04,24.870056,121.221389,0.00085323583
C0C680,龜山,2023-12-04,25.02846,121.38656,0.0016318759
C0C700,中壢,2023-12-04,24.977661,121.256375,0.0007278749
C0C710,大溪永福,2023-12-04,24.892936,121.324975,0.0012794671
C0C720,竹圍,2023-12-04,25.112692,121.239824,0.00030080415
C0C730,中大臨海站,2023-12-04,24.966126,121.008581,0.0002975687
C0C740,觀音工業區,2023-12-04,25.064764,121.114856,0.00014514818
C0C750,新興坑尾,2023-12-04,25.0061,121.0971,0.00040018954
C0D430,峨眉,2023-12-04,24.6905,121.017189,0.0004264257
C0D480,打鐵坑,2023-12-04,24.849664,121.150789,0.0011564145
C0D540,橫山,2023-12-04,24.71116,121.11693,0.001451348
C0D560,竹東,2023-12-04,24.767147,121.057881,0.00047719863
C0D580,寶山,2023-12-04,24.735006,121.025192,0.00078275974
C0D590,新豐,2023-12-04,24.87068,120.97721,0.00021225437
C0D650,湖口,2023-12-04,24.904794,121.043628,0.0004845915
C0D660,新竹市東區,2023-12-04,24.798681,120.986942,0.00044631684
C0D670,海天一線,2023-12-04,24.831986,120.914438,0.00015825608
C0D680,香山濕地,2023-12-04,24.783581,120.914988,0.00043671494
C0D690,外湖,2023-12-04,24.917735,120.968711,0.0002797396
C0D700,關西,2023-12-04,24.7977,121.1732,0.0007629764
C0E420,竹南,2023-12-04,24.708978,120.888897,0.0003205931
C0E430,南庄,2023-12-04,24.601775,121.000214,0.009888167
C0E520,大湖,2023-12-04,24.41494,120.87087,0.0138765685
C0E540,後龍,2023-12-04,24.606489,120.783933,0.00065889896
C0E550,明德,2023-12-04,24.583486,120.885411,0.0013864224
C0E590,通霄,2023-12-04,24.471892,120.704622,0.0028090966
C0E730,頭份,2023-12-04,24.688247,120.912206,0.00024101418
C0E740,造橋,2023-12-04,24.637056,120.864778,0.0006864331
C0E750,苗栗,2023-12-04,24.564569,120.824575,0.003026501
C0E780,銅鑼,2023-12-04,24.489681,120.790853,0.005352943
C0E791,卓蘭,2023-12-04,24.3126,120.8244,0.02797232
C0E810,西湖,2023-12-04,24.562947,120.7485,0.00025344884
C0E820,獅潭,2023-12-04,24.539133,120.920042,0.008915824
C0E830,苑裡,2023-12-04,24.439714,120.653053,0.0006861002
C0E850,大河,2023-12-04,24.618069,120.948578,0.0035422912
C0E870,高鐵苗栗,2023-12-04,24.60725,120.826094,0.0010977346
C0E910,海埔,2023-12-04,24.648767,120.772435,0.00039769642
C0E920,通霄漁港,2023-12-04,24.498589,120.673876,0.0012537792
C0E930,龍鳳,2023-12-04,24.700034,120.859125,0.00031785681
C0F0B0,石岡,2023-12-04,24.276061,120.777644,0.0616798
C0F850,東勢,2023-12-04,24.246428,120.833047,0.023244333
C0F930,大甲,2023-12-04,24.347667,120.640403,0.0034871176
C0F970,大坑,2023-12-04,24.173142,120.722289,0.019633612
C0F9A0,中竹林,2023-12-04,24.103556,120.751061,0.06929633
C0F9I0,神岡,2023-12-04,24.272481,120.658314,0.030110134
C0F9K0,大安,2023-12-04,24.345061,120.588025,0.0010097321
C0F9L0,后里,2023-12-04,24.310436,120.729725,0.074938506
C0F9M0,豐原,2023-12-04,24.254322,120.720692,0.07123022
C0F9N0,大里,2023-12-04,24.092464,120.701378,0.09035218
C0F9O0,潭子,2023-12-04,24.213106,120.703933,0.030302513
C0F9P0,清水,2023-12-04,24.312297,120.562242,0.002286044
C0F9Q0,外埔,2023-12-04,24.347817,120.705686,0.035721205
C0F9R0,龍井,2023-12-04,24.184536,120.528972,0.0038137008
C0F9S0,烏日,2023-12-04,24.107058,120.624103,0.12433673
C0F9T0,西屯,2023-12-04,24.179494,120.641275,0.030107182
C0F9U0,南屯,2023-12-04,24.137006,120.637969,0.030141199
C0F9X0,大雅(中科園區),2023-12-04,24.21528,120.62445,0.029627824
C0FA10,松柏,2023-12-04,24.429115,120.617482,0.00070422806
C0FA20,溫寮,2023-12-04,24.372177,120.583125,0.0010012605
C0FA30,梧棲,2023-12-04,24.256003,120.523381,0.001308984
C0FA40,臺中電廠,2023-12-04,24.2146,120.4907,0.0026907476
C0FA50,霧峰,2023-12-04,24.0419,120.6995,0.11201447
C0G620,芬園,2023-12-04,24.015678,120.6213,0.1196374
C0G640,鹿港,2023-12-04,24.0753,120.430481,0.0071923067
C0G650,員林,2023-12-04,23.946503,120.585597,0.25379092
C0G660,溪湖,2023-12-04,23.94835,120.479122,0.26959333
C0G720,溪州,2023-12-04,23.851589,120.499093,0.29571822
C0G730,二林,2023-12-04,23.903325,120.376081,0.037937544
C0G740,大城,2023-12-04,23.852487,120.320935,0.02702625
C0G770,福興,2023-12-04,24.041289,120.437669,0.016883906
C0G780,秀水,2023-12-04,24.03405,120.503869,0.15396681
C0G800,埔鹽,2023-12-04,24.000394,120.431683,0.032214556
C0G810,埔心,2023-12-04,23.947633,120.525456,0.26414838
C0G820,田尾,2023-12-04,23.901669,120.509389,0.33209446
C0G830,埤頭,2023-12-04,23.866003,120.452806,0.2868725
C0G840,北斗,2023-12-04,23.877586,120.514222,0.3260405
C0G860,社頭,2023-12-04,23.897647,120.5862,0.15875837
C0G870,芳苑,2023-12-04,23.922303,120.320025,0.012099144
C0G880,二水,2023-12-04,23.810742,120.6173,0.10697067
C0G890,伸港,2023-12-04,24.148933,120.484403,0.007974472
C0G900,線西,2023-12-04,24.143358,120.443536,0.0038918953
C0G910,花壇,2023-12-04,24.032076,120.549461,0.07204681
C0G920,永靖,2023-12-04,23.924703,120.547533,0.16576596
C0G940,竹塘,2023-12-04,23.848253,120.386764,0.039608862
C0G950,防潮門,2023-12-04,24.1835,120.4871,0.0038137008
C0G960,福寶,2023-12-04,24.0443,120.3814,0.0045146076
C0G970,三豐,2023-12-04,23.882,120.2895,0.020020457
C0H890,埔里,2023-12-04,23.972169,120.952425,0.044158373
C0H950,中寮,2023-12-04,23.884447,120.766406,0.06281162
C0H960,草屯,2023-12-04,23.973672,120.68085,0.1098524
C0I110,竹山,2023-12-04,23.761225,120.688156,0.05148917
C0I360,水里,2023-12-04,23.812553,120.849792,0.07913461
C0I380,集集,2023-12-04,23.828206,120.801467,0.100773074
C0I410,名間,2023-12-04,23.837053,120.701447,0.07137354
C0I420,國姓,2023-12-04,24.037803,120.855072,0.04181105
C0I460,南投,2023-12-04,23.911469,120.687331,0.2080047
C0K250,崙背,2023-12-04,23.75555,120.318925,0.15229636
C0K280,四湖,2023-12-04,23.630414,120.227125,0.07765527
C0K291,宜梧,2023-12-04,23.536281,120.169329,0.08295375
C0K330,虎尾,2023-12-04,23.719183,120.442036,0.29576114
C0K390,土庫,2023-12-04,23.679029,120.395574,0.26461574
C0K400,斗六,2023-12-04,23.720583,120.541127,0.12487364
C0K410,北港,2023-12-04,23.573957,120.292802,0.15495478
C0K420,西螺,2023-12-04,23.800407,120.467394,0.19293934
C0K430,褒忠,2023-12-04,23.690938,120.303634,0.10923474
C0K440,二崙,2023-12-04,23.772797,120.408944,0.25695363
C0K450,大埤,2023-12-04,23.646074,120.431537,0.17056721
C0K460,斗南,2023-12-04,23.678734,120.478359,0.19576423
C0K470,林內,2023-12-04,23.748675,120.609642,0.076614805
C0K480,莿桐,2023-12-04,23.761192,120.502372,0.23230082
C0K500,元長,2023-12-04,23.64981,120.315024,0.18462205
C0K510,水林,2023-12-04,23.572924,120.24597,0.13181603
C0K530,臺西,2023-12-04,23.701547,120.197559,0.02030098
C0K550,蔦松,2023-12-04,23.514319,120.229736,0.116817504
C0K560,棋山,2023-12-04,23.68645,120.603417,0.06979716
C0K580,高鐵雲林,2023-12-04,23.737456,120.417944,0.2452375
C0K590,雲林東勢,2023-12-04,23.674192,120.255721,0.1352905
C0K600,箔子寮,2023-12-04,23.6197,120.14,0.010342214
C0M410,馬頭山,2023-12-04,23.324361,120.582017,0.055619102
C0M520,東後寮,2023-12-04,23.369908,120.248065,0.14864878
C0M640,中埔,2023-12-04,23.42538,120.5229,0.0926731
C0M650,朴子,2023-12-04,23.43463,120.23902,0.2071596
C0M660,溪口,2023-12-04,23.604131,120.403569,0.17280142
C0M670,大林,2023-12-04,23.600616,120.45841,0.17826006
C0M680,太保,2023-12-04,23.455062,120.331455,0.28222525
C0M690,水上,2023-12-04,23.419734,120.388909,0.21570858
C0M700,竹崎,2023-12-04,23.526178,120.555508,0.036784343
C0M710,東石,2023-12-04,23.458927,120.15385,0.021653747
C0M720,番路,2023-12-04,23.464657,120.554156,0.029580327
C0M730,嘉義市東區,2023-12-04,23.457673,120.460531,0.16928329
C0M740,六腳,2023-12-04,23.492871,120.290625,0.18826279
C0M750,布袋,2023-12-04,23.380878,120.167789,0.108365156
C0M760,民雄,2023-12-04,23.551754,120.428457,0.15822004
C0M770,嘉義梅山,2023-12-04,23.585398,120.555587,0.05376918
C0M780,鹿草,2023-12-04,23.41134,120.30835,0.19638766
C0M790,新港,2023-12-04,23.553269,120.345728,0.25571743
C0M800,茶山,2023-12-04,23.299075,120.664767,0.1075807
C0M880,好美里,2023-12-04,23.3364,120.138,0.061886616
C0N010,鯤鯓國小,2023-12-04,23.1879,120.0889,0.082135685
C0N020,城西,2023-12-04,23.0568,120.0956,0.28999522
C0N030,四草,2023-12-04,23.0235,120.1116,0.2870196
C0N040,蘆竹溝,2023-12-04,23.2344,120.0961,0.103340775
C0N050,蚵寮,2023-12-04,23.301,120.1104,0.09395186
C0O810,曾文,2023-12-04,23.219681,120.497328,0.17880175
C0O830,北寮,2023-12-04,23.079561,120.495008,0.16982566
C0O840,王爺宮,2023-12-04,23.222064,120.40085,0.18405025
C0O860,大內,2023-12-04,23.11885,120.36083,0.32510415
C0O900,善化,2023-12-04,23.112883,120.297219,0.34228724
C0O930,玉井,2023-12-04,23.126042,120.46055,0.24334873
C0O950,安南,2023-12-04,23.076694,120.144861,0.1419843
C0O960,崎頂,2023-12-04,22.959547,120.369317,0.288843
C0O970,虎頭埤,2023-12-04,23.021375,120.347878,0.34251326
C0O980,新市,2023-12-04,23.061614,120.298197,0.29371926
C0O990,媽廟,2023-12-04,22.99175,120.293525,0.30817488
C0R150,三地門,2023-12-04,22.709889,120.639944,0.22229074
C0R160,鹽埔,2023-12-04,22.739558,120.530778,0.31040168
C0R170,屏東,2023-12-04,22.660269,120.494072,0.35335174
C0R190,赤山,2023-12-04,22.592333,120.614306,0.20560957
C0R220,潮州,2023-12-04,22.534361,120.54,0.25610054
C0R240,來義,2023-12-04,22.527306,120.625111,0.23788905
C0R260,春日,2023-12-04,22.370361,120.628306,0.14581995
C0R270,琉球嶼,2023-12-04,22.332244,120.362236,0.5018506
C0R280,檳榔,2023-12-04,22.076078,120.836777,0.0055552595
C0R320,車城,2023-12-04,22.0744,120.716247,0.013413297
C0R341,牡丹,2023-12-04,22.130036,120.792639,0.0058576027
C0R350,貓鼻頭,2023-12-04,21.921774,120.7358,0.009056287
C0R470,高樹,2023-12-04,22.826389,120.600806,0.1489943
C0R480,長治,2023-12-04,22.693128,120.542622,0.31055406
C0R490,九如,2023-12-04,22.7405,120.490503,0.3075008
C0R520,崁頂,2023-12-04,22.514781,120.506914,0.30088735
C0R540,佳冬,2023-12-04,22.419456,120.552375,0.3079147
C0R550,新埤,2023-12-04,22.467947,120.582894,0.37331766
C0R560,新園,2023-12-04,22.5434,120.461558,0.34347504
C0R570,麟洛,2023-12-04,22.65078,120.52719,0.35335186
C0R580,南州,2023-12-04,22.48591,120.50274,0.31893006
C0R590,里港,2023-12-04,22.77919,120.49459,0.3590758
C0R620,墾雷,2023-12-04,21.900836,120.855269,0.002178694
C0R640,東港,2023-12-04,22.46247,120.44074,0.35224742
C0R650,竹田,2023-12-04,22.58486,120.54344,0.31146958
C0R660,枋寮,2023-12-04,22.367722,120.590647,0.3106876
C0R670,楓港,2023-12-04,22.190131,120.692156,0.013235776
C0R680,佳樂水,2023-12-04,21.993578,120.861633,0.015317772
C0R690,墾丁,2023-12-04,21.966756,120.810269,0.0009880804
C0R700,枋山,2023-12-04,22.246844,120.661086,0.031191846
C0R710,龍磐,2023-12-04,21.931672,120.838942,0.002935855
C0R720,旭海,2023-12-04,22.205403,120.887614,0.005097327
C0R730,大坪頂,2023-12-04,22.024633,120.69355,0.0038053077
C0R740,獅子,2023-12-04,22.201569,120.70525,0.026947785
C0R760,南仁湖,2023-12-04,22.084681,120.863353,0.0020718786
C0R770,保力,2023-12-04,22.071122,120.764111,0.011413049
C0R780,滿州,2023-12-04,22.024403,120.839892,0.025549142
C0R790,九棚,2023-12-04,22.14195,120.889281,0.008794558
C0R800,丹路,2023-12-04,22.204481,120.750989,0.008794533
C0R810,內獅,2023-12-04,22.305064,120.642986,0.029360557
C0R830,高士,2023-12-04,22.121825,120.836781,0.0010932456
C0R850,林邊,2023-12-04,22.4634,120.5339,0.34462443
C0R860,鼻頭,2023-12-04,22.1043,120.8979,0.02853571
C0R870,興海,2023-12-04,21.9752,120.8439,0.015679037
C0R880,後壁湖,2023-12-04,21.9457,120.7457,0.013560944
C0R890,山海,2023-12-04,21.9878,120.7091,0.013158916
C0R900,竹坑,2023-12-04,22.1385,120.7022,0.01304686
C0R910,下寮,2023-12-04,22.3929,120.5548,0.3106876
C0R920,塭仔,2023-12-04,22.4169,120.5197,0.28290167
C0R930,萬丹,2023-12-04,22.5885,120.4851,0.360931
C0R940,加祿堂,2023-12-04,22.3363,120.6217,0.061433323
C0S710,鹿野,2023-12-04,22.917711,121.122994,0.01180923
C0S730,綠島,2023-12-04,22.6672,121.47533,0.00056131877
C0S740,池上,2023-12-04,23.119628,121.209469,0.019405542
C0S770,大溪山,2023-12-04,22.478475,120.943325,0.0024170221
C0S790,金崙,2023-12-04,22.538122,120.966875,0.009268806
C0S810,東河,2023-12-04,22.972672,121.303986,0.0039984775
C0S830,長濱,2023-12-04,23.286817,121.411975,0.04246472
C0S840,南田,2023-12-04,22.279725,120.889208,0.029181853
C0S890,關山,2023-12-04,23.0395,121.175017,0.03225551
C0S900,蘭嶼高中,2023-12-04,22.04909,121.51214,0.016176503
C0S910,蘭嶼燈塔,2023-12-04,22.081197,121.503117,0.0014493074
C0S920,金峰嘉蘭,2023-12-04,22.594789,120.960825,0.033288814
C0S930,延平,2023-12-04,22.902581,121.084058,0.0025216846
C0S940,石寧山,2023-12-04,23.223772,121.406639,0.14325736
C0S950,七塊厝,2023-12-04,22.954453,121.229922,0.0077088545
C0S960,香蘭,2023-12-04,22.587569,120.993375,0.08405891
C0S970,加津林,2023-12-04,22.416211,120.926942,0.0823504
C0S990,山豬窟,2023-12-04,22.318619,120.857372,0.0017054919
C0SA00,歷坵,2023-12-04,22.520969,120.89185,0.005112039
C0SA10,檳榔四格山,2023-12-04,22.810031,121.109308,0.0071154595
C0SA30,都歷,2023-12-04,23.020333,121.323642,0.059254386
C0SA40,瑞和,2023-12-04,22.974361,121.156697,0.031908274
C0SA60,知本（水試所）,2023-12-04,22.702394,121.082761,0.16207917
C0SA80,土坂,2023-12-04,22.453108,120.887572,0.018877465
C0SA90,達仁林場,2023-12-04,22.264347,120.823972,0.0003394773
C0T870,鯉魚潭,2023-12-04,23.935639,121.508944,0.036927965
C0T900,西林,2023-12-04,23.8119,121.441458,0.064319134
C0T960,光復,2023-12-04,23.660694,121.424964,0.079049535
C0T9A0,月眉山,2023-12-04,23.809928,121.539828,0.029647907
C0T9D0,和中,2023-12-04,24.26676,121.74103,0.17763796
C0T9E0,大坑,2023-12-04,23.880628,121.581981,0.09998537
C0T9F0,水璉,2023-12-04,23.797131,121.542514,0.11802188
C0T9I0,豐濱,2023-12-04,23.583897,121.514806,0.07343747
C0T9M0,靜浦,2023-12-04,23.455167,121.495028,0.25758272
C0T9N0,富里,2023-12-04,23.171639,121.249378,0.018013641
C0U600,礁溪,2023-12-04,24.817539,121.765608,0.061859977
C0U650,玉蘭,2023-12-04,24.675286,121.587061,0.015262762
C0U750,龜山島,2023-12-04,24.841667,121.953133,0.00010778551
C0U760,東澳,2023-12-04,24.52196,121.83318,0.3961491
C0U770,南澳,2023-12-04,24.44935,121.81022,0.020316731
C0U780,五結,2023-12-04,24.68637,121.79794,0.3156503
C0U860,頭城,2023-12-04,24.85323,121.8308,0.022742555
C0U870,大礁溪,2023-12-04,24.791042,121.675047,0.017191326
C0U880,北關,2023-12-04,24.9072,121.8734,0.028875632
C0U890,三星,2023-12-04,24.66812,121.65302,0.62217504
C0U900,內城,2023-12-04,24.71813,121.68766,0.34416837
C0U910,冬山,2023-12-04,24.63373,121.7937,0.8516606
C0U940,羅東,2023-12-04,24.68184,121.74934,0.36832872
C0U970,大福,2023-12-04,24.80064,121.81389,0.035302218
C0U990,員山,2023-12-04,24.74435,121.72247,0.25993267
C0UA00,土場,2023-12-04,24.576533,121.495333,0.05092555
C0UA80,大溪漁港,2023-12-04,24.941801,121.902955,0.05940471
C0UA90,石城,2023-12-04,24.980444,121.951214,0.0911839
C0UB00,淡江大學蘭陽校園,2023-12-04,24.823239,121.730383,0.056353636
C0UB10,蘇澳,2023-12-04,24.5969,121.8571,0.7820628
C0UB20,壯圍,2023-12-04,24.7359,121.8163,0.2727813
C0V250,甲仙,2023-12-04,23.080106,120.591758,0.17403056
C0V260,月眉,2023-12-04,22.971003,120.539853,0.23393242
C0V310,美濃,2023-12-04,22.898742,120.519153,0.295392
C0V350,溪埔,2023-12-04,22.738578,120.446797,0.34722173
C0V360,內門,2023-12-04,22.975481,120.466769,0.33382216
C0V370,古亭坑,2023-12-04,22.893178,120.401947,0.315622
C0V400,阿公店,2023-12-04,22.804194,120.355528,0.3523423
C0V440,鳳山,2023-12-04,22.646653,120.356122,0.42492905
C0V450,鳳森,2023-12-04,22.545064,120.392592,0.3891566
C0V490,新興,2023-12-04,22.627422,120.298803,0.34387505
C0V530,阿蓮,2023-12-04,22.883208,120.327508,0.31948602
C0V610,梓官,2023-12-04,22.760558,120.267211,0.37232533
C0V620,永安,2023-12-04,22.82315,120.236856,0.31752875
C0V630,茄萣,2023-12-04,22.906642,120.182608,0.33684435
C0V640,湖內,2023-12-04,22.887139,120.2445,0.39424628
C0V650,彌陀,2023-12-04,22.783806,120.246361,0.36347163
C0V660,岡山,2023-12-04,22.797078,120.294958,0.37446174
C0V680,仁武,2023-12-04,22.701083,120.347722,0.3875706
C0V690,鼓山,2023-12-04,22.623325,120.275575,0.33178768
C0V700,三民,2023-12-04,22.645017,120.311233,0.35645413
C0V710,苓雅,2023-12-04,22.622742,120.330669,0.3719471
C0V720,林園,2023-12-04,22.507747,120.394511,0.38454407
C0V730,大寮,2023-12-04,22.605614,120.395717,0.40585685
C0V740,旗山,2023-12-04,22.888614,120.483597,0.29570335
C0V750,路竹,2023-12-04,22.854997,120.259439,0.3995063
C0V760,橋頭,2023-12-04,22.757806,120.30575,0.38056925
C0V770,大社,2023-12-04,22.730306,120.346639,0.37583682
C0V790,萬山,2023-12-04,22.905944,120.688056,0.15433365
C0V800,六龜,2023-12-04,22.997889,120.633583,0.145986
C0V810,左營,2023-12-04,22.67491,120.28491,0.35645413
C0V820,小林,2023-12-04,23.148408,120.63325,0.14727287
C0V840,鳳鼻頭,2023-12-04,22.5083,120.3591,0.35233763
C0V850,蚵仔寮,2023-12-04,22.7256,120.2527,0.37055677
C0V860,南寮,2023-12-04,22.7616,120.2339,0.3705569
C0V870,文安,2023-12-04,22.8025,120.2164,0.3711988
C0V880,興達,2023-12-04,22.8778,120.2127,0.4024597
C0V890,前鎮,2023-12-04,22.5718,120.3117,0.3742816
C0V900,汕尾,2023-12-04,22.4782,120.4151,0.33871827
C0X050,東河,2023-12-04,23.296598,120.385608,0.2404677
C0X060,下營,2023-12-04,23.22695,120.256261,0.29556054
C0X080,佳里,2023-12-04,23.173039,120.145086,0.124766186
C0X100,臺南市北區,2023-12-04,23.010394,120.194228,0.2607696
C0X110,臺南市南區,2023-12-04,22.961189,120.188378,0.28055644
C0X120,麻豆,2023-12-04,23.183289,120.248611,0.32720852
C0X130,官田,2023-12-04,23.193217,120.315422,0.27668372
C0X140,西港,2023-12-04,23.125608,120.203108,0.3728368
C0X150,安定,2023-12-04,23.102614,120.227839,0.37598863
C0X160,仁德,2023-12-04,22.968258,120.257689,0.30845246
C0X170,關廟,2023-12-04,22.963017,120.327797,0.3629217
C0X180,山上,2023-12-04,23.0757,120.363253,0.34538966
C0X190,安平,2023-12-04,22.993161,120.152181,0.28095874
C0X200,左鎮,2023-12-04,23.056758,120.408522,0.28651536
C0X210,白河,2023-12-04,23.347466,120.414427,0.08740195
C0X220,學甲,2023-12-04,23.230367,120.182187,0.15460645
C0X230,鹽水,2023-12-04,23.272621,120.247641,0.19336201
C0X240,關子嶺,2023-12-04,23.331169,120.508025,0.07911194
C0X250,新營,2023-12-04,23.310689,120.316681,0.294173
C0X260,後壁,2023-12-04,23.366358,120.362326,0.21133944
C0X280,將軍,2023-12-04,23.214999,120.13577,0.12182456
C0X290,北門,2023-12-04,23.267772,120.125481,0.10334093
C0X300,鹿寮,2023-12-04,23.386047,120.477331,0.05544992
C0X310,七股,2023-12-04,23.147289,120.086253,0.09805733
C0X320,柳營,2023-12-04,23.253328,120.375253,0.2717083
C0Z020,明里,2023-12-04,23.208717,121.262342,0.016212119
C0Z061,玉里,2023-12-04,23.3215,121.339656,0.15389246
C0Z070,舞鶴,2023-12-04,23.46811,121.37407,0.12146787
C0Z080,富源,2023-12-04,23.587642,121.378225,0.019979525
C0Z100,東華,2023-12-04,23.89525,121.549833,0.2743449
C0Z150,吉安光華,2023-12-04,23.930925,121.595153,0.19688816
C0Z160,鳳林,2023-12-04,23.746114,121.453411,0.15214288
C0Z170,卓溪,2023-12-04,23.3443,121.3029,0.06524492
C0Z180,新城,2023-12-04,24.03946,121.60454,0.091238245
C0Z190,富世,2023-12-04,24.14743,121.6297,0.0013495262
C0Z200,萬榮,2023-12-04,23.709219,121.420106,0.18418384
C0Z210,瑞穗,2023-12-04,23.5239,121.39021,0.10060827
C0Z230,和平,2023-12-04,24.30717,121.77007,0.09211246
C0Z270,蕃薯寮,2023-12-04,23.73835,121.540108,0.15293625
C0Z280,德武,2023-12-04,23.47426,121.41071,0.046199918
C0Z300,東里,2023-12-04,23.26853,121.30547,0.059644625
C0Z310,清水斷崖,2023-12-04,24.218294,121.689142,0.0019003142
C0Z330,安通山,2023-12-04,23.290728,121.348528,0.0049452824
CAG100,王功漁港,2023-12-04,23.96824,120.32586,0.0069548786
CAH030,茶改場竹圍站,2023-12-04,23.860083,120.637528,0.16720523
CAJ050,海口故事園區,2023-12-04,23.57543,120.14121,0.010338487
CAL110,布袋國中,2023-12-04,23.35893,120.18026,0.11822958
CAN130,水試所海水繁養殖中心,2023-12-04,23.120802,120.07968,0.10388929
CAN140,六官養殖協會,2023-12-04,23.22881,120.29962,0.27268466
CAQ030,崎峰國小,2023-12-04,22.42565,120.49521,0.3355765
E2K600,四湖植物園,2023-12-04,23.676986,120.163433,0.027622405
E2P980,林試六龜中心,2023-12-04,22.991703,120.645722,0.14808843
E2S960,林試太麻里2,2023-12-04,22.598014,120.989761,0.08331829
E2S980,林試太麻里1,2023-12-04,22.598922,120.980044,0.04755473
G2AI50,關渡,2023-12-04,25.11575,121.492,0.00029837663
G2F820,農業試驗所,2023-12-04,24.031261,120.688133,0.114148885
G2F820,農試所(霧峰),2023-12-04,24.031261,120.688133,0.114148885
G2L020,農試嘉義分所,2023-12-04,23.485028,120.473806,0.11383449
G2M350,農試溪口農場,2023-12-04,23.58565,120.408111,0.13621418
G2P820,農試鳳山分所,2023-12-04,22.646611,120.356083,0.42492905
K2E360,苗栗農改,2023-12-04,24.495722,120.829111,0.007162202
K2E360,苗栗農改場,2023-12-04,24.495722,120.829111,0.007162202
K2E710,苗改生物防治研究中心,2023-12-04,24.422861,120.871833,0.016694909
K2F750,種苗改良場,2023-12-04,24.225972,120.800917,0.074563414
K2F750,種苗繁殖,2023-12-04,24.225972,120.800917,0.074563414
U2HA50,臺大竹山,2023-12-04,23.756972,120.681556,0.051631745
V2C250,八德合作社,2023-12-04,24.93775,121.266389,0.0017979797
V2C260,八德蔬果,2023-12-04,24.978508,121.281819,0.0006258568
V2K610,大庄合作社,2023-12-04,23.8068,120.367939,0.08366527
V2K620,麥寮合作社,2023-12-04,23.753836,120.294783,0.09196234
