站號,站名,日期,lat,lon,BLBTSLS
C0R710,龍磐,2023-03-16,21.931672,120.838942,0.99240357
C1F9D1,白毛台,2023-03-16,24.158325,120.886933,3.1776333e-09
C0G940,竹塘,2023-03-16,23.848253,120.386764,1.7140739e-09
467590,恆春,2023-03-16,22.003897,120.746339,0.93720466
C1O850,環湖,2023-03-16,23.148617,120.418633,0.1246114
C0U710,太平山,2023-03-16,24.505486,121.525656,5.0893725e-09
C0E820,獅潭,2023-03-16,24.539133,120.920042,9.235621e-08
C0V880,興達,2023-03-16,22.8778,120.2127,1.9772822e-10
C0S890,關山,2023-03-16,23.0395,121.175017,6.683936e-09
K2F750,種苗繁殖,2023-03-16,24.225972,120.800917,0.00027896347
C1Z130,銅門,2023-03-16,23.965694,121.492842,2.787831e-05
C0AD40,土城,2023-03-16,24.973208,121.445169,0.11906463
CAN140,六官養殖協會,2023-03-16,23.22881,120.29962,4.1969752e-08
C0X180,山上,2023-03-16,23.0757,120.363253,0.0039176247
C0F9Z0,雪山東峰,2023-03-16,24.388792,121.268675,1.36277665e-08
C1M480,獨立山,2023-03-16,23.537022,120.607797,1.5048376e-07
C0X220,學甲,2023-03-16,23.230367,120.182187,3.0128225e-10
C0R170,屏東,2023-03-16,22.660269,120.494072,0.028684957
467650,日月潭,2023-03-16,23.881325,120.90805,1.3781405e-09
C0K600,箔子寮,2023-03-16,23.6197,120.14,4.808365e-10
C0G830,埤頭,2023-03-16,23.866003,120.452806,1.6583188e-07
C0S950,七塊厝,2023-03-16,22.954453,121.229922,7.283935e-09
467110,金門,2023-03-16,24.407306,118.289281,1.5525448e-08
C0AH80,深坑,2023-03-16,25.002703,121.628328,0.06837722
467990,馬祖,2023-03-16,26.169269,119.923419,4.8996252e-08
C0A970,三貂角,2023-03-16,25.007606,122.002058,3.3139013e-06
C0K430,褒忠,2023-03-16,23.690938,120.303634,3.7430605e-09
467480,嘉義,2023-03-16,23.495925,120.432906,6.217553e-05
C2E540,後龍,2023-03-16,24.606489,120.783933,4.3753468e-09
C0V400,阿公店,2023-03-16,22.804194,120.355528,8.741943e-08
C0R440,大漢山,2023-03-16,22.405264,120.753181,9.808825e-09
C0K280,四湖,2023-03-16,23.630414,120.227125,7.77859e-10
C1F9B1,桐林,2023-03-16,24.066172,120.735194,0.00022028603
C0K390,土庫,2023-03-16,23.679029,120.395574,9.317488e-08
C1I450,望鄉山,2023-03-16,23.594153,120.944286,1.6890269e-08
C0E910,海埔,2023-03-16,24.648767,120.772435,4.452402e-09
B2E890,畜試北區分所,2023-03-16,24.527806,120.770972,4.9753595e-08
C0R750,四林格山,2023-03-16,22.076989,120.802439,0.9986269
C0F0C0,中坑,2023-03-16,24.248517,120.903319,9.383594e-10
C1I121,大鞍,2023-03-16,23.678381,120.760017,6.9837336e-09
72U480,花改蘭陽分場,2023-03-16,24.686306,121.716583,4.0272824e-10
C0A770,科教館,2023-03-16,25.096356,121.516507,0.00033529
C0AJ60,六塊厝,2023-03-16,25.24,121.4481,0.99755836
C0R620,墾雷,2023-03-16,21.900836,120.855269,0.9997975
467420,永康,2023-03-16,23.038386,120.2367,2.9485172e-08
467300,東吉島,2023-03-16,23.25695,119.667467,0.6779225
C0I410,名間,2023-03-16,23.837053,120.701447,0.1580182
A2C560,農工中心,2023-03-16,24.985917,121.239833,2.7761272e-08
C0V740,旗山,2023-03-16,22.888614,120.483597,0.02719867
C0Z061,玉里,2023-03-16,23.3215,121.339656,7.705612e-10
C0S840,南田,2023-03-16,22.279725,120.889208,0.99870723
C1I470,杉林溪,2023-03-16,23.639517,120.786444,8.963307e-09
C1X040,東原,2023-03-16,23.291597,120.463822,2.168813e-05
C0R660,枋寮,2023-03-16,22.367722,120.590647,3.8295363e-07
C1R120,上德文,2023-03-16,22.763272,120.704442,4.601679e-10
C0K450,大埤,2023-03-16,23.646074,120.431537,0.002325373
C0UA00,土場,2023-03-16,24.576533,121.495333,9.208911e-10
467080,宜蘭,2023-03-16,24.763975,121.756528,7.296933e-10
C0N030,四草,2023-03-16,23.0235,120.1116,2.614846e-10
C0V650,彌陀,2023-03-16,22.783806,120.246361,5.6527877e-08
C0D660,新竹市東區,2023-03-16,24.798681,120.986942,0.0031045233
82S580,茶改東部分場,2023-03-16,22.907694,121.130139,2.4354738e-05
C0C710,大溪永福,2023-03-16,24.892936,121.324975,1.0726297e-05
C0FA20,溫寮,2023-03-16,24.372177,120.583125,6.0916666e-10
C0V640,湖內,2023-03-16,22.887139,120.2445,1.9597257e-10
C0R910,下寮,2023-03-16,22.3929,120.5548,3.8155886e-07
C0Z020,明里,2023-03-16,23.208717,121.262342,7.6001383e-10
C0M770,嘉義梅山,2023-03-16,23.585398,120.555587,0.98570555
G2F820,農業試驗所,2023-03-16,24.031261,120.688133,6.573521e-05
C0C660,楊梅,2023-03-16,24.912375,121.143047,2.2914902e-08
C1E511,新開,2023-03-16,24.347703,120.827019,1.4944972e-07
G2F820,農試所(霧峰),2023-03-16,24.031261,120.688133,6.573521e-05
C1I070,和社,2023-03-16,23.591131,120.888861,1.4722199e-09
C2F000,大肚,2023-03-16,24.15295,120.572117,0.00017811942
C1S850,豐南,2023-03-16,23.122139,121.262389,1.2425055e-09
C2A920,富貴角,2023-03-16,25.263783,121.565258,0.18103556
CAH030,茶改場竹圍站,2023-03-16,23.860083,120.637528,2.3996585e-05
C0T960,光復,2023-03-16,23.660694,121.424964,8.9485997e-07
C0F9M0,豐原,2023-03-16,24.254322,120.720692,0.0537965
C0R720,旭海,2023-03-16,22.205403,120.887614,0.9999322
C0V710,苓雅,2023-03-16,22.622742,120.330669,4.697158e-10
C0C740,觀音工業區,2023-03-16,25.064764,121.114856,8.037891e-09
CAC040,拉拉山,2023-03-16,24.699317,121.427133,9.598231e-09
C0V790,萬山,2023-03-16,22.905944,120.688056,0.0040127146
U2HA30,臺大和社,2023-03-16,23.590856,120.888864,1.4722199e-09
C0AJ90,澳底,2023-03-16,25.0552,121.9253,0.0014741691
C0Z100,東華,2023-03-16,23.89525,121.549833,1.6453554e-05
C0G970,三豐,2023-03-16,23.882,120.2895,6.2553057e-10
V2K610,大庄合作社,2023-03-16,23.8068,120.367939,1.7813998e-09
C0V900,汕尾,2023-03-16,22.4782,120.4151,7.795314e-10
C1R630,龍泉,2023-03-16,22.66701,120.59091,0.021916283
C1AC50,關渡,2023-03-16,25.133486,121.469331,0.0002202478
C0F9I0,神岡,2023-03-16,24.272481,120.658314,0.0042111585
C0K460,斗南,2023-03-16,23.678734,120.478359,0.001913303
467410,臺南,2023-03-16,22.993239,120.204772,2.5672703e-10
C2O810,曾文,2023-03-16,23.219681,120.497328,0.0023950136
467280,後龍,2023-03-16,24.648563,120.831834,4.638861e-09
C1F9J1,清水林,2023-03-16,24.071242,120.820419,9.620518e-09
C2A650,火燒寮,2023-03-16,25.002719,121.742892,1.04052404e-07
466930,竹子湖,2023-03-16,25.162078,121.544547,3.6597854e-09
C1I220,樟湖,2023-03-16,23.905333,120.846983,9.251027e-09
C0I390,仁愛,2023-03-16,24.022122,121.132206,2.2731623e-09
C0Z300,東里,2023-03-16,23.26853,121.30547,7.3532375e-10
C0V310,美濃,2023-03-16,22.898742,120.519153,0.03248505
C1V590,新發,2023-03-16,23.057019,120.646064,2.5934148e-09
C0K510,水林,2023-03-16,23.572924,120.24597,2.3901776e-09
72S590,東改賓朗果園,2023-03-16,22.813889,121.071278,0.9346854
82A750,茶改北部分場,2023-03-16,24.955778,121.631222,1.2705665e-05
C1A750,石碇服務區,2023-03-16,25.00872,121.646242,0.9380485
C0X300,鹿寮,2023-03-16,23.386047,120.477331,0.0429147
G2AI50,關渡,2023-03-16,25.11575,121.492,1.4779299e-07
C0K590,雲林東勢,2023-03-16,23.674192,120.255721,4.3000186e-09
C0A570,桶後,2023-03-16,24.848222,121.597992,3.4853775e-09
C1S800,華源,2023-03-16,22.657883,121.02325,5.8923906e-09
C0G720,溪州,2023-03-16,23.851589,120.499093,1.5534415e-07
C1V160,達卡努瓦,2023-03-16,23.279811,120.705319,1.9570972e-09
C2M410,馬頭山,2023-03-16,23.324361,120.582017,7.682765e-06
C0V850,蚵仔寮,2023-03-16,22.7256,120.2527,2.4822896e-08
C0S740,池上,2023-03-16,23.119628,121.209469,9.402011e-10
C1V390,尖山,2023-03-16,22.813153,120.367789,4.968996e-08
C0AH70,松山,2023-03-16,25.04871,121.55042,0.00029353568
C0N010,鯤鯓國小,2023-03-16,23.1879,120.0889,2.4422e-10
C0R550,新埤,2023-03-16,22.467947,120.582894,7.197918e-10
C0SA60,知本（水試所）,2023-03-16,22.702394,121.082761,9.132164e-09
C0T9I0,豐濱,2023-03-16,23.583897,121.514806,2.7682316e-09
C0UB00,淡江大學蘭陽校園,2023-03-16,24.823239,121.730383,3.737496e-09
C0T9N0,富里,2023-03-16,23.171639,121.249378,5.7891086e-10
U2HA50,臺大竹山,2023-03-16,23.756972,120.681556,0.988141
C0V840,鳳鼻頭,2023-03-16,22.5083,120.3591,1.3954579e-09
C0X140,西港,2023-03-16,23.125608,120.203108,1.1138045e-09
72D080,桃改五峰分場,2023-03-16,24.612194,121.157167,3.8180583e-09
C0V530,阿蓮,2023-03-16,22.883208,120.327508,6.237333e-08
C1O880,關山,2023-03-16,23.173397,120.594092,2.000759e-05
C0E791,卓蘭,2023-03-16,24.3126,120.8244,0.0059015052
C1I030,武界,2023-03-16,23.913225,121.052483,1.2415798e-08
C0R520,崁頂,2023-03-16,22.514781,120.506914,4.3486216e-05
C0R341,牡丹,2023-03-16,22.130036,120.792639,0.9998525
C0R930,萬丹,2023-03-16,22.5885,120.4851,8.77779e-06
C0S760,紅石,2023-03-16,23.069131,121.126219,1.0721005e-08
C1M610,石磐龍,2023-03-16,23.496606,120.663506,1.0984079e-09
C0UA10,鴛鴦湖,2023-03-16,24.590269,121.412228,4.1683332e-09
V2C260,八德蔬果,2023-03-16,24.978508,121.281819,1.1615359e-07
C0R800,丹路,2023-03-16,22.204481,120.750989,0.9999151
C0G920,永靖,2023-03-16,23.924703,120.547533,1.2931243e-07
C1A630,下盆,2023-03-16,24.771003,121.538622,2.3373579e-09
B2N890,畜產試驗所,2023-03-16,23.058972,120.336406,3.805508e-07
C0UA30,白嶺,2023-03-16,24.527819,121.519031,3.5649153e-09
C1V580,溪南(特生中心),2023-03-16,23.084972,120.788475,2.4718516e-09
C1T970,大農,2023-03-16,23.615233,121.413331,2.4762308e-09
E2S960,林試太麻里2,2023-03-16,22.598014,120.989761,1.7006611e-08
C0R650,竹田,2023-03-16,22.58486,120.54344,0.0046014492
C1H900,清流,2023-03-16,24.080775,120.962997,2.7912046e-09
C1C510,水尾,2023-03-16,24.940081,121.087161,2.6600416e-08
C0F9X0,大雅(中科園區),2023-03-16,24.21528,120.62445,0.0014397667
C0O970,虎頭埤,2023-03-16,23.021375,120.347878,2.3741619e-05
C0C730,中大臨海站,2023-03-16,24.966126,121.008581,1.18064305e-08
C0X250,新營,2023-03-16,23.310689,120.316681,1.9097834e-07
C0V700,三民,2023-03-16,22.645017,120.311233,1.7540861e-09
C0U870,大礁溪,2023-03-16,24.791042,121.675047,2.0763846e-09
C0E870,高鐵苗栗,2023-03-16,24.60725,120.826094,4.7521214e-09
A2K570,古坑花卉中心,2023-03-16,23.63353,120.55239,0.9966581
C0M860,新美,2023-03-16,23.338017,120.683169,1.378961e-09
C1E701,八卦,2023-03-16,24.491756,120.927619,1.6215622e-09
C0I420,國姓,2023-03-16,24.037803,120.855072,6.905988e-06
C0S960,香蘭,2023-03-16,22.587569,120.993375,1.7006611e-08
C0R260,春日,2023-03-16,22.370361,120.628306,1.07926134e-07
72G600,臺中農改場,2023-03-16,24.003028,120.534389,1.3048644e-07
C0Z210,瑞穗,2023-03-16,23.5239,121.39021,2.2048556e-09
C0M820,達邦,2023-03-16,23.453994,120.749517,1.4431939e-09
C0V860,南寮,2023-03-16,22.7616,120.2339,2.4780462e-08
C0G740,大城,2023-03-16,23.852487,120.320935,6.05632e-10
C0R920,塭仔,2023-03-16,22.4169,120.5197,5.026654e-07
C0R470,高樹,2023-03-16,22.826389,120.600806,0.538753
C0R680,佳樂水,2023-03-16,21.993578,120.861633,0.9670101
C1O870,大棟山,2023-03-16,23.31157,120.52226,1.2022764e-09
C0D360,梅花,2023-03-16,24.678347,121.208558,1.15328245e-08
C0Z190,富世,2023-03-16,24.14743,121.6297,0.37312374
C0AI10,屈尺,2023-03-16,24.92184,121.54475,0.9803405
B2U990,畜試東區分所,2023-03-16,24.669039,121.832561,1.0779582e-09
C0R240,來義,2023-03-16,22.527306,120.625111,1.1472914e-05
C1R610,西大武山,2023-03-16,22.617719,120.7322,1.4694909e-08
C0G900,線西,2023-03-16,24.143358,120.443536,1.1035512e-08
C0M700,竹崎,2023-03-16,23.526178,120.555508,0.86843896
C2E880,三義,2023-03-16,24.405478,120.749819,1.6699765e-08
C0C720,竹圍,2023-03-16,25.112692,121.239824,1.482939e-07
C0F9P0,清水,2023-03-16,24.312297,120.562242,9.971641e-08
C0Z150,吉安光華,2023-03-16,23.930925,121.595153,0.013108595
C1D640,外坪(五指山),2023-03-16,24.644447,121.090961,2.4173192e-09
C0F9O0,潭子,2023-03-16,24.213106,120.703933,0.40954623
72T250,花蓮農改場,2023-03-16,23.975222,121.563889,4.1934973e-06
C0E780,銅鑼,2023-03-16,24.489681,120.790853,1.663507e-08
C1T950,太安,2023-03-16,23.666719,121.370128,5.5171747e-09
C0E830,苑裡,2023-03-16,24.439714,120.653053,1.4210605e-09
467270,田中,2023-03-16,23.873803,120.581286,0.019544091
C0SA10,檳榔四格山,2023-03-16,22.810031,121.109308,0.6716661
C1T830,布洛灣,2023-03-16,24.17184,121.57127,4.1937325e-09
C0F970,大坑,2023-03-16,24.173142,120.722289,0.0027300254
C1U920,思源,2023-03-16,24.393125,121.347214,5.7154597e-09
C0A931,三和,2023-03-16,25.233153,121.595236,1.4083468e-08
C0I010,廬山,2023-03-16,24.033311,121.181808,3.5255607e-09
C0R860,鼻頭,2023-03-16,22.1043,120.8979,0.9997486
C0UB20,壯圍,2023-03-16,24.7359,121.8163,3.9135295e-10
C0R790,九棚,2023-03-16,22.14195,120.889281,0.99983925
C0W110,東莒,2023-03-16,25.9652,119.98069,4.6198263e-08
C1U930,粉鳥林,2023-03-16,24.497088,121.842479,1.0491071e-07
C1I211,蘆竹湳,2023-03-16,23.934019,120.811994,4.6609805e-09
C0S830,長濱,2023-03-16,23.286817,121.411975,8.443773e-10
C1F9F1,伯公龍,2023-03-16,24.272392,120.849047,5.7481838e-08
C0E810,西湖,2023-03-16,24.562947,120.7485,5.4986877e-08
C1I440,新高口,2023-03-16,23.478744,120.878939,5.0225637e-09
C0O840,王爺宮,2023-03-16,23.222064,120.40085,7.210614e-07
C0T9G0,鳳林山,2023-03-16,23.735269,121.420131,2.9641916e-09
C0X080,佳里,2023-03-16,23.173039,120.145086,2.4422e-10
C0Z310,清水斷崖,2023-03-16,24.218294,121.689142,3.5718712e-09
C0M680,太保,2023-03-16,23.455062,120.331455,5.720775e-06
C1S820,金峰,2023-03-16,22.590969,120.933236,7.0108532e-09
C0AD10,八里,2023-03-16,25.150211,121.403947,1.482939e-07
C2K240,草嶺,2023-03-16,23.59555,120.693461,1.3591055e-09
C1SA70,都蘭,2023-03-16,22.87794,121.226881,0.0002894011
C0K440,二崙,2023-03-16,23.772797,120.408944,4.3989793e-08
C1A760,坪林交控,2023-03-16,24.94284,121.713442,3.010618e-09
C0F9N0,大里,2023-03-16,24.092464,120.701378,0.00058694603
C0SA90,達仁林場,2023-03-16,22.264347,120.823972,0.9998206
C1R290,石門山,2023-03-16,22.112611,120.756597,0.99982536
42HA10,萬大發電廠,2023-03-16,23.978875,121.139639,4.4282054e-09
C0R890,山海,2023-03-16,21.9878,120.7091,0.98615193
C0T9A0,月眉山,2023-03-16,23.809928,121.539828,5.6084126e-08
C0AC70,信義,2023-03-16,25.037822,121.564597,0.00029410882
C0K560,棋山,2023-03-16,23.68645,120.603417,0.99546105
C1Z240,中平林道,2023-03-16,23.42115,121.26763,7.780405e-09
U2H480,溪頭,2023-03-16,23.670306,120.798194,2.0190525e-09
C0M880,好美里,2023-03-16,23.3364,120.138,4.341411e-10
C0T9E0,大坑,2023-03-16,23.880628,121.581981,4.279149e-08
C0K530,臺西,2023-03-16,23.701547,120.197559,8.183938e-10
C1E900,國一N128K,2023-03-16,24.560997,120.844186,7.375846e-08
C0AJ50,水湳洞,2023-03-16,25.123695,121.862238,2.1460231e-05
C0AI20,白沙灣,2023-03-16,25.283128,121.519058,0.9963807
C0A860,大坪,2023-03-16,25.165914,121.632969,3.5492294e-09
C1U850,觀音海岸,2023-03-16,24.38319,121.77856,2.1651987e-08
C0U950,鶯子嶺,2023-03-16,24.89754,121.79244,1.7730956e-08
C0O900,善化,2023-03-16,23.112883,120.297219,5.27211e-07
C0K550,蔦松,2023-03-16,23.514319,120.229736,7.451646e-10
E2P980,林試六龜中心,2023-03-16,22.991703,120.645722,0.001657074
C0E590,通霄,2023-03-16,24.471892,120.704622,8.854321e-09
C1I310,西巒,2023-03-16,23.754486,120.883956,1.0914686e-08
C0A550,泰平,2023-03-16,24.971197,121.823711,1.1195689e-07
C0I360,水里,2023-03-16,23.812553,120.849792,0.008582527
C0R830,高士,2023-03-16,22.121825,120.836781,0.9997441
C1I101,溪頭,2023-03-16,23.661789,120.807647,9.050043e-09
C0AJ20,野柳,2023-03-16,25.20703,121.690021,6.533291e-08
C0B060,暖暖,2023-03-16,25.0957,121.7403,0.00024812267
C1H920,長豐,2023-03-16,24.102039,120.879897,3.2307657e-09
C0V360,內門,2023-03-16,22.975481,120.466769,0.0001400166
C0R850,林邊,2023-03-16,22.4634,120.5339,7.578396e-10
C0E930,龍鳳,2023-03-16,24.700034,120.859125,1.6747667e-09
C0U910,冬山,2023-03-16,24.63373,121.7937,1.0779582e-09
C1E721,泰安,2023-03-16,24.489017,120.968036,2.1223068e-09
82H320,茶改中部分場,2023-03-16,23.875611,120.913583,1.3175013e-09
C0M750,布袋,2023-03-16,23.380878,120.167789,1.0559841e-09
C1S860,利嘉,2023-03-16,22.809417,121.050528,2.2347084e-09
72C440,桃園農改,2023-03-16,24.950944,121.030583,4.7432582e-08
E2S980,林試太麻里1,2023-03-16,22.598922,120.980044,1.1777798e-08
C0X170,關廟,2023-03-16,22.963017,120.327797,3.9788307e-07
C0V720,林園,2023-03-16,22.507747,120.394511,1.3314053e-09
C1I510,線浸林道,2023-03-16,23.761508,120.832956,1.5696118e-08
C0D690,外湖,2023-03-16,24.917735,120.968711,7.3536796e-08
C0C750,新興坑尾,2023-03-16,25.0061,121.0971,9.342453e-09
B2Q810,畜試南區分所,2023-03-16,21.945583,120.802167,0.9680009
C0S790,金崙,2023-03-16,22.538122,120.966875,1.4424565e-07
C0AH90,福山植物園,2023-03-16,24.760717,121.58135,3.890994e-09
C0I540,奇萊稜線,2023-03-16,24.109231,121.326456,1.6384261e-08
C0M850,表湖,2023-03-16,23.24186,120.64166,1.7252619e-09
C0S770,大溪山,2023-03-16,22.478475,120.943325,2.9840228e-05
C0AG80,中和,2023-03-16,24.991622,121.491792,0.119175434
C0T790,大禹嶺,2023-03-16,24.186117,121.316086,7.717134e-09
C0T9B0,水源,2023-03-16,23.991861,121.537169,1.7975173e-08
C0R840,牡丹池山,2023-03-16,22.168389,120.841225,0.99992
C1I131,桶頭,2023-03-16,23.641944,120.654117,0.7949885
CAL110,布袋國中,2023-03-16,23.35893,120.18026,1.0570884e-09
467571,新竹,2023-03-16,24.827853,121.014219,0.012943602
C0Z290,赤柯山,2023-03-16,23.36893,121.38293,5.42935e-09
C0X280,將軍,2023-03-16,23.214999,120.13577,3.076426e-10
C0S690,太麻里,2023-03-16,22.60902,120.98533,5.8785607e-09
C0U880,北關,2023-03-16,24.9072,121.8734,3.4145238e-09
C1H860,瑞岩,2023-03-16,24.123772,121.18345,3.4963636e-09
C0G810,埔心,2023-03-16,23.947633,120.525456,1.2931243e-07
C0U970,大福,2023-03-16,24.80064,121.81389,7.2796674e-10
C1E670,南礦,2023-03-16,24.538278,121.002836,2.5663267e-09
C0M520,東後寮,2023-03-16,23.369908,120.248065,1.0234988e-09
C1E461,松安,2023-03-16,24.397972,120.986022,1.739397e-09
72G600,臺中農改,2023-03-16,24.003028,120.534389,1.3048644e-07
C2N160,西拉雅風管處,2023-03-16,23.189481,120.335297,0.00011054971
C0A640,石碇,2023-03-16,24.993969,121.662917,0.5155614
E2S960,林試太麻里2,2023-03-16,22.598,120.99775,1.8178008e-08
C0F9Y0,桃山,2023-03-16,24.432739,121.303808,1.8502663e-08
C1I020,萬大,2023-03-16,23.979817,121.132261,2.2884843e-09
C0U940,羅東,2023-03-16,24.68184,121.74934,3.9974055e-10
C0M650,朴子,2023-03-16,23.43463,120.23902,3.0592475e-09
C1I500,大尖山,2023-03-16,23.858572,120.994889,8.95075e-09
C0G820,田尾,2023-03-16,23.901669,120.509389,1.2931243e-07
E2K600,四湖植物園,2023-03-16,23.676986,120.163433,7.782315e-10
C0S730,綠島,2023-03-16,22.6672,121.47533,0.9798815
12Q970,東港工作站,2023-03-16,22.479997,120.466058,7.817275e-10
C0E430,南庄,2023-03-16,24.601775,121.000214,7.541777e-08
C1TA00,太魯閣,2023-03-16,24.15773,121.6236,0.08241237
466920,臺北,2023-03-16,25.037658,121.514853,0.00029353568
C0R600,舊泰武,2023-03-16,22.588194,120.664944,7.7931284e-10
C1I260,北坑,2023-03-16,23.9246,121.006903,4.1747223e-09
466910,鞍部,2023-03-16,25.182586,121.529731,9.730358e-09
C1I230,九份二山,2023-03-16,23.961944,120.845,1.6981815e-08
C2A660,瑞芳,2023-03-16,25.113169,121.801147,4.1012768e-06
C0R270,琉球嶼,2023-03-16,22.332244,120.362236,1.4842401e-08
C1T990,高寮,2023-03-16,23.394239,121.356808,3.4095518e-09
C0G620,芬園,2023-03-16,24.015678,120.6213,3.853037e-05
C1Z140,荖溪,2023-03-16,23.890575,121.45964,4.6925757e-09
C1I201,中心崙,2023-03-16,23.728722,120.712097,5.311602e-06
C1I400,凌霄,2023-03-16,24.018778,121.004456,3.0240965e-09
C1M640,十字,2023-03-16,23.492153,120.753683,2.8764253e-09
G2P820,農試鳳山分所,2023-03-16,22.646611,120.356083,1.6125868e-09
C0Z270,蕃薯寮,2023-03-16,23.73835,121.540108,2.1269468e-09
C0F9Q0,外埔,2023-03-16,24.347817,120.705686,6.283326e-06
C0K580,高鐵雲林,2023-03-16,23.737456,120.417944,1.3451071e-07
C2I090,鳳凰,2023-03-16,23.728081,120.787347,3.2228202e-09
C0U990,員山,2023-03-16,24.74435,121.72247,3.9597062e-10
C0V770,大社,2023-03-16,22.730306,120.346639,1.7052345e-08
C0X120,麻豆,2023-03-16,23.183289,120.248611,4.1500474e-09
C0C670,龍潭,2023-03-16,24.870056,121.221389,1.2270598e-06
C0D680,香山濕地,2023-03-16,24.783581,120.914988,0.0055858498
C0S980,勝林山,2023-03-16,22.430439,120.8938,5.862392e-09
C0V730,大寮,2023-03-16,22.605614,120.395717,4.783219e-10
C0R570,麟洛,2023-03-16,22.65078,120.52719,0.028788047
CAG100,王功漁港,2023-03-16,23.96824,120.32586,5.345081e-10
C0X290,北門,2023-03-16,23.267772,120.125481,3.076426e-10
C2F930,大甲,2023-03-16,24.347667,120.640403,5.1230487e-10
C0D650,湖口,2023-03-16,24.904794,121.043628,2.868559e-08
C0E420,竹南,2023-03-16,24.708978,120.888897,1.5926449e-09
C0U780,五結,2023-03-16,24.68637,121.79794,3.9135295e-10
C1I250,鯉潭,2023-03-16,23.961922,120.991131,2.9154556e-08
C0R130,阿禮,2023-03-16,22.742908,120.743678,6.1046584e-10
C0X100,臺南市北區,2023-03-16,23.010394,120.194228,2.587904e-10
C0S920,金峰嘉蘭,2023-03-16,22.594789,120.960825,1.104364e-08
C0V490,新興,2023-03-16,22.627422,120.298803,4.689424e-10
C0F9K0,大安,2023-03-16,24.345061,120.588025,5.875531e-10
72N100,臺南農改,2023-03-16,23.0605,120.342194,3.805508e-07
467290,古坑,2023-03-16,23.633639,120.551889,0.9966581
C0V440,鳳山,2023-03-16,22.646653,120.356122,1.6125868e-09
C1T940,大觀,2023-03-16,23.714206,121.373133,2.519975e-09
72T250,花蓮農改,2023-03-16,23.975222,121.563889,4.1934973e-06
C0E740,造橋,2023-03-16,24.637056,120.864778,4.7521214e-09
C0R100,尾寮山,2023-03-16,22.833111,120.683889,6.5751393e-10
A2K630,臺大雲林校區,2023-03-16,23.730628,120.423903,1.3451071e-07
C0D580,寶山,2023-03-16,24.735006,121.025192,0.00019679999
E2P990,林試扇平站,2023-03-16,22.9677,120.6857,6.3384764e-10
C0AI30,三重,2023-03-16,25.057328,121.500629,0.00033529
C0AH00,汐止,2023-03-16,25.066881,121.658778,0.00029353568
C1Z040,立山,2023-03-16,23.443356,121.327375,3.0205973e-09
C0R740,獅子,2023-03-16,22.201569,120.70525,0.99983555
C0W130,花嶼,2023-03-16,23.40007,119.32276,0.31719622
C0A950,鼻頭角,2023-03-16,25.129036,121.923372,0.99992406
C0K470,林內,2023-03-16,23.748675,120.609642,0.996726
82C160,茶改場,2023-03-16,24.908472,121.185333,1.3994915e-08
C0Z320,清水林道,2023-03-16,23.27125,121.188272,3.7156604e-09
C0R760,南仁湖,2023-03-16,22.084681,120.863353,0.9998253
C0M670,大林,2023-03-16,23.600616,120.45841,0.00040650106
C0M800,茶山,2023-03-16,23.299075,120.664767,1.9861925e-09
C0A9C0,天母,2023-03-16,25.117494,121.537169,0.0033558542
72K220,南改斗南分場,2023-03-16,23.634556,120.477333,0.001913303
72AI40,桃改樹林分場,2023-03-16,24.944503,121.386972,7.2543986e-07
C0S910,蘭嶼燈塔,2023-03-16,22.081197,121.503117,0.9999328
C0B050,八斗子,2023-03-16,25.144754,121.79167,3.6241472e-05
C0U900,內城,2023-03-16,24.71813,121.68766,4.1200904e-10
C0X320,柳營,2023-03-16,23.253328,120.375253,3.6301649e-06
C0M790,新港,2023-03-16,23.553269,120.345728,5.872456e-08
C0F9T0,西屯,2023-03-16,24.179494,120.641275,1.26853865e-05
C0SA30,都歷,2023-03-16,23.020333,121.323642,1.5030741e-08
C0C620,蘆竹,2023-03-16,25.084275,121.265767,1.5156722e-08
C0R730,大坪頂,2023-03-16,22.024633,120.69355,0.9997119
C0AJ40,石門,2023-03-16,25.273672,121.601198,0.687309
C0E750,苗栗,2023-03-16,24.564569,120.824575,8.498944e-08
C0T870,鯉魚潭,2023-03-16,23.935639,121.508944,0.00011710837
C1V170,排雲,2023-03-16,23.463619,120.954147,3.0683303e-08
C2H950,中寮,2023-03-16,23.884447,120.766406,0.10200463
C0R350,貓鼻頭,2023-03-16,21.921774,120.7358,0.9985264
C0V660,岡山,2023-03-16,22.797078,120.294958,5.6527877e-08
C1H941,雙冬,2023-03-16,23.967378,120.802189,4.017541e-09
C0AJ70,田寮,2023-03-16,25.2698,121.4886,0.9971993
C0AI00,五股,2023-03-16,25.07445,121.42728,1.4113148e-07
C0Z280,德武,2023-03-16,23.47426,121.41071,7.375885e-09
C0R700,枋山,2023-03-16,22.246844,120.661086,0.99422866
C0C460,復興,2023-03-16,24.820208,121.352281,7.7297875e-09
E2H360,蓮華池,2023-03-16,23.918333,120.885278,3.4025225e-09
C0M640,中埔,2023-03-16,23.42538,120.5229,0.26899496
C0W140,金沙,2023-03-16,24.488292,118.408778,3.2344918e-08
C2A540,四堵,2023-03-16,24.8926,121.745736,3.2968819e-09
C0ACA0,新莊,2023-03-16,25.051478,121.446756,0.0018373838
C0R220,潮州,2023-03-16,22.534361,120.54,4.115989e-05
U2HA40,臺大內茅埔,2023-03-16,23.689722,120.851117,2.3354505e-09
467490,臺中,2023-03-16,24.145736,120.684075,0.006863375
C0U960,翠峰湖,2023-03-16,24.510856,121.608044,7.168902e-09
E2HA20,林試畢祿溪站,2023-03-16,24.226944,121.308522,4.5084527e-09
C0V890,前鎮,2023-03-16,22.5718,120.3117,4.8234844e-10
467620,蘭嶼,2023-03-16,22.036969,121.558339,0.9999336
C1F941,雪嶺,2023-03-16,24.280586,121.026642,8.808403e-09
C0AC80,文山,2023-03-16,25.00235,121.575728,0.06855315
C0F9R0,龍井,2023-03-16,24.184536,120.528972,3.1880987e-07
C0M760,民雄,2023-03-16,23.551754,120.428457,0.0005239492
C0UA40,西德山,2023-03-16,24.560647,121.752608,3.799852e-09
C1T920,中興,2023-03-16,23.769503,121.498653,2.042552e-05
C0D550,雪霸,2023-03-16,24.526972,121.11605,3.7284535e-09
C2F860,梨山,2023-03-16,24.247522,121.243669,4.7049884e-09
C0R320,車城,2023-03-16,22.0744,120.716247,0.99519205
C1S870,南美山,2023-03-16,23.15025,121.382333,5.798723e-10
C0B020,基隆嶼,2023-03-16,25.19141,121.78391,0.9997337
C1U501,牛鬥,2023-03-16,24.637836,121.573656,7.8744555e-10
C0M730,嘉義市東區,2023-03-16,23.457673,120.460531,0.8870348
C0S700,知本,2023-03-16,22.684866,121.005642,4.622451e-09
C1N001,沙崙,2023-03-16,22.935472,120.309406,4.8914416e-07
C0V760,橋頭,2023-03-16,22.757806,120.30575,1.8226405e-08
C0G960,福寶,2023-03-16,24.0443,120.3814,3.2466656e-07
C0X210,白河,2023-03-16,23.347466,120.414427,0.10874757
C0S810,東河,2023-03-16,22.972672,121.303986,0.9970556
C0R670,楓港,2023-03-16,22.190131,120.692156,0.99714035
C0FA50,霧峰,2023-03-16,24.0419,120.6995,5.9108406e-05
C0UB10,蘇澳,2023-03-16,24.5969,121.8571,3.0732252e-09
C0G950,防潮門,2023-03-16,24.1835,120.4871,3.1487963e-07
C0M740,六腳,2023-03-16,23.492871,120.290625,2.2265576e-08
C1R250,力里,2023-03-16,22.428117,120.629228,3.8877523e-09
C0K330,虎尾,2023-03-16,23.719183,120.442036,1.2260826e-07
C2FA00,烏石坑,2023-03-16,24.273503,120.947617,8.335918e-10
C0V620,永安,2023-03-16,22.82315,120.236856,5.6527877e-08
C1I330,楓樹林,2023-03-16,23.986803,121.076117,2.5048035e-09
C0W200,湖西,2023-03-16,23.596314,119.67275,0.9604816
72Q010,高雄農改場,2023-03-16,22.709333,120.525889,0.3377685
C0SA40,瑞和,2023-03-16,22.974361,121.156697,2.7944873e-08
C0C680,龜山,2023-03-16,25.02846,121.38656,4.9496805e-08
C2V260,月眉,2023-03-16,22.971003,120.539853,0.43912613
C0V450,鳳森,2023-03-16,22.545064,120.392592,1.0672911e-09
C0U720,南山,2023-03-16,24.43742,121.38167,1.6029609e-09
A2N290,臺南蘭花園區,2023-03-16,23.340258,120.379661,1.3662234e-06
C0R560,新園,2023-03-16,22.5434,120.461558,1.3314053e-09
C0U890,三星,2023-03-16,24.66812,121.65302,6.1128497e-10
C1V300,御油山,2023-03-16,23.001983,120.715364,2.3264344e-09
C0U600,礁溪,2023-03-16,24.817539,121.765608,8.48274e-10
C1T980,龍澗,2023-03-16,24.023289,121.411328,8.584636e-09
C0D670,海天一線,2023-03-16,24.831986,120.914438,0.0072942274
C0SA00,歷坵,2023-03-16,22.520969,120.89185,1.9807608e-08
C0M710,東石,2023-03-16,23.458927,120.15385,3.2633718e-10
C0M780,鹿草,2023-03-16,23.41134,120.30835,2.9746012e-09
C0U520,雙連埤,2023-03-16,24.753033,121.641303,2.1021511e-09
C0B010,七堵,2023-03-16,25.094819,121.71713,0.000818699
C0R480,長治,2023-03-16,22.693128,120.542622,2.1490612e-09
C1V830,國三S383K,2023-03-16,22.781967,120.426475,2.9652461e-05
12Q980,恆春工作站,2023-03-16,22.079678,120.714425,0.99519205
C1O940,東山服務區,2023-03-16,23.286016,120.398472,0.0016237623
C1U840,東澳嶺,2023-03-16,24.5378,121.8485,4.312758e-09
C1D630,飛鳳山,2023-03-16,24.766464,121.119178,2.609675e-07
C0S940,石寧山,2023-03-16,23.223772,121.406639,7.120127e-10
C0K410,北港,2023-03-16,23.573957,120.292802,2.2995936e-09
C2M620,瑞里,2023-03-16,23.545133,120.675197,1.3712002e-09
C2O950,安南,2023-03-16,23.076694,120.144861,2.0718025e-10
C0F0E0,南湖圈谷,2023-03-16,24.363714,121.444667,2.3899235e-08
467610,成功,2023-03-16,23.097486,121.373428,2.0871054e-09
C0G890,伸港,2023-03-16,24.148933,120.484403,1.1051648e-08
C2E540,龍溪,2023-03-16,24.606489,120.783933,4.3753468e-09
C1V200,梅山,2023-03-16,23.268447,120.823556,9.1821817e-10
C0T9H0,加路蘭山,2023-03-16,23.682947,121.5274,2.7854077e-09
C2O930,玉井,2023-03-16,23.126042,120.46055,0.0039176247
C1F911,新伯公,2023-03-16,24.221361,120.841069,0.0006699775
C0R490,九如,2023-03-16,22.7405,120.490503,0.4056084
C0X200,左鎮,2023-03-16,23.056758,120.408522,2.694984e-05
C1F891,稍來,2023-03-16,24.265689,121.001142,6.773193e-09
72N240,七股研究中心,2023-03-16,23.081672,120.062894,2.0707674e-10
C0C700,中壢,2023-03-16,24.977661,121.256375,6.88595e-08
C0M690,水上,2023-03-16,23.419734,120.388909,4.970071e-06
C0V690,鼓山,2023-03-16,22.623325,120.275575,4.689424e-10
C0O860,大內,2023-03-16,23.11885,120.36083,4.2189384e-07
C0Z200,萬榮,2023-03-16,23.709219,121.420106,1.9928712e-09
C0T9D0,和中,2023-03-16,24.26676,121.74103,4.270433e-08
C1O921,楠西,2023-03-16,23.183511,120.484083,0.102060914
C0AJ30,淡水觀海,2023-03-16,25.184591,121.408616,0.648141
C0V810,左營,2023-03-16,22.67491,120.28491,1.7540861e-09
C0UA70,桃源谷,2023-03-16,24.962606,121.888875,5.9281174e-08
C0X130,官田,2023-03-16,23.193217,120.315422,0.00012429396
C1H000,翠峰,2023-03-16,24.109397,121.205211,6.0684524e-09
C0UA90,石城,2023-03-16,24.980444,121.951214,9.1692345e-06
C1E681,南勢山,2023-03-16,24.421669,120.923831,2.4959759e-09
C0A9F0,內湖,2023-03-16,25.079422,121.57545,0.00029353568
C0K291,宜梧,2023-03-16,23.536281,120.169329,7.451646e-10
C1K540,口湖,2023-03-16,23.585344,120.180517,4.808438e-10
C0R780,滿州,2023-03-16,22.024403,120.839892,0.9531185
C0V870,文安,2023-03-16,22.8025,120.2164,7.230025e-08
C0U650,玉蘭,2023-03-16,24.675286,121.587061,1.5161223e-09
C0R640,東港,2023-03-16,22.46247,120.44074,7.817275e-10
K2E360,苗栗農改,2023-03-16,24.495722,120.829111,3.3936708e-08
C0AJ80,板橋,2023-03-16,25.0107,121.4489,0.13448556
C0S660,下馬,2023-03-16,23.150427,121.070312,3.0730025e-09
C1H9B1,阿眉,2023-03-16,24.1263,120.994672,4.1948844e-09
C0UA20,多加屯,2023-03-16,24.368614,121.373189,1.5679422e-08
C0E730,頭份,2023-03-16,24.688247,120.912206,1.5941676e-09
72V140,高改旗南分場,2023-03-16,22.857861,120.516667,0.03248505
C0K480,莿桐,2023-03-16,23.761192,120.502372,0.0017766511
C0U980,坪林石牌,2023-03-16,24.86478,121.77396,4.525356e-09
C0T900,西林,2023-03-16,23.8119,121.441458,1.2093109e-06
C1I150,青雲,2023-03-16,23.793361,120.949378,3.7135624e-07
467350,澎湖,2023-03-16,23.565503,119.563094,0.98340684
C0G800,埔鹽,2023-03-16,24.000394,120.431683,1.6065828e-08
C0H960,草屯,2023-03-16,23.973672,120.68085,4.1496227e-05
C1V780,多納林道,2023-03-16,22.888028,120.737917,7.92667e-10
C0E920,通霄漁港,2023-03-16,24.498589,120.673876,1.2413335e-08
C0Z330,安通山,2023-03-16,23.290728,121.348528,1.2182014e-09
C0AH10,永和,2023-03-16,25.01125,121.508111,0.13448556
C2G640,鹿港,2023-03-16,24.0753,120.430481,3.2835456e-07
C1E890,國三N149K,2023-03-16,24.463414,120.680019,1.2300881e-09
C1R110,口社,2023-03-16,22.770111,120.645222,0.0013326838
C1M870,國三N285K,2023-03-16,23.550319,120.505833,0.9929439
467050,新屋,2023-03-16,25.006744,121.047486,1.0919621e-08
C1E480,鳳美,2023-03-16,24.554803,121.034747,5.8885035e-09
C0M530,奮起湖,2023-03-16,23.493903,120.699253,1.6456505e-09
C0C590,觀音,2023-03-16,25.027072,121.153317,7.227347e-09
C0T9M0,靜浦,2023-03-16,23.455167,121.495028,1.29004185e-08
C0AI40,石牌,2023-03-16,25.115597,121.513139,0.0035923938
C1F871,上谷關,2023-03-16,24.203483,121.018644,9.659585e-10
C0G880,二水,2023-03-16,23.810742,120.6173,0.9874369
C0R940,加祿堂,2023-03-16,22.3363,120.6217,0.9994409
C0W220,北竿,2023-03-16,26.220358,119.974881,4.6740514e-08
C0O960,崎頂,2023-03-16,22.959547,120.369317,1.3715768e-07
C0S750,向陽,2023-03-16,23.248397,120.986133,4.232465e-09
C0T9F0,水璉,2023-03-16,23.797131,121.542514,2.4168278e-07
C1M600,頭凍,2023-03-16,23.406364,120.603339,2.5311844e-09
467660,臺東,2023-03-16,22.752211,121.154586,0.9986784
C1D380,新埔,2023-03-16,24.84745,121.03834,0.0020087366
C0V750,路竹,2023-03-16,22.854997,120.259439,1.9617227e-10
C0N050,蚵寮,2023-03-16,23.301,120.1104,4.341411e-10
72M700,南改鹿草分場,2023-03-16,23.416869,120.283061,3.0778302e-09
C1SA50,利嘉林道,2023-03-16,22.82325,121.009389,1.11875735e-08
467550,玉山,2023-03-16,23.487614,120.959522,3.1450686e-08
C0A940,金山,2023-03-16,25.223628,121.643967,5.3968403e-08
C1V340,大津,2023-03-16,22.888322,120.645986,0.44335657
C0W180,七美,2023-03-16,23.219333,119.444892,0.8705964
C1F9C1,白冷,2023-03-16,24.182844,120.929889,1.7112878e-05
K2E710,苗改生物防治研究中心,2023-03-16,24.422861,120.871833,3.623088e-07
C0N040,蘆竹溝,2023-03-16,23.2344,120.0961,3.076426e-10
C2W230,畜試所澎湖,2023-03-16,23.628342,119.513206,0.98500216
C0R880,後壁湖,2023-03-16,21.9457,120.7457,0.9867109
C1I280,埔中,2023-03-16,23.820778,120.642594,0.00096216676
467790,墾丁雷達站,2023-03-16,21.948235,120.808028,0.9659573
C0W190,望安,2023-03-16,23.380564,119.494075,0.9664731
466881,新北,2023-03-16,24.9593,121.52,0.10258244
C0Z170,卓溪,2023-03-16,23.3443,121.3029,2.7354485e-09
C0F850,東勢,2023-03-16,24.246428,120.833047,0.01128112
466900,淡水,2023-03-16,25.164889,121.448906,1.3978153e-07
C0I370,魚池,2023-03-16,23.895703,120.94135,3.5022505e-09
C0C630,大溪,2023-03-16,24.882853,121.265547,1.9955194e-06
C0A520,山佳,2023-03-16,24.974944,121.402008,0.00022764575
C0I110,竹山,2023-03-16,23.761225,120.688156,0.94827396
82H840,茶改南部分場,2023-03-16,23.762528,120.7405,0.0015462642
C0G660,溪湖,2023-03-16,23.94835,120.479122,1.4183553e-07
C1T800,洛韶,2023-03-16,24.204558,121.453956,7.1715687e-09
C1T810,慈恩,2023-03-16,24.192044,121.388386,3.9877213e-09
C1E451,象鼻,2023-03-16,24.368617,120.940228,3.254528e-09
C0AC60,三峽,2023-03-16,24.939025,121.369728,4.791648e-07
C0I490,萬大林道,2023-03-16,23.928228,121.091411,5.3047122e-09
C1I290,豐丘,2023-03-16,23.668178,120.887417,2.1334639e-09
C1I320,奧萬大,2023-03-16,23.952956,121.178556,3.7783443e-09
C0U770,南澳,2023-03-16,24.44935,121.81022,2.1743563e-09
C0A980,社子,2023-03-16,25.109508,121.469681,1.5959748e-07
C0V800,六龜,2023-03-16,22.997889,120.633583,0.0023896326
C1G9D0,國一S218K,2023-03-16,23.890641,120.493253,1.6583188e-07
C2F9A0,中竹林,2023-03-16,24.103556,120.751061,1.2407083e-05
C0FA40,臺中電廠,2023-03-16,24.2146,120.4907,3.1880987e-07
C0H9C0,合歡山,2023-03-16,24.143442,121.272547,1.5134594e-08
C0X060,下營,2023-03-16,23.22695,120.256261,4.0773248e-08
G2M350,農試溪口農場,2023-03-16,23.58565,120.408111,0.00061437563
C0U860,頭城,2023-03-16,24.85323,121.8308,8.38764e-10
C0R580,南州,2023-03-16,22.48591,120.50274,7.817275e-10
C0D430,峨眉,2023-03-16,24.6905,121.017189,0.0004074572
C0G780,秀水,2023-03-16,24.03405,120.503869,1.2970382e-07
72N100,臺南農改場,2023-03-16,23.0605,120.342194,3.805508e-07
C0S900,蘭嶼高中,2023-03-16,22.04909,121.51214,0.99996537
467540,大武,2023-03-16,22.355675,120.903789,0.9996918
C1F9W0,德基,2023-03-16,24.254783,121.190261,4.868797e-09
C1Z120,壽豐,2023-03-16,23.870853,121.508081,1.6453554e-05
C0W160,烏坵,2023-03-16,24.9944,119.44956,1.7761936e-07
C1I240,外大坪,2023-03-16,23.958697,120.917931,2.7113218e-08
C1I550,國六W023K,2023-03-16,23.979067,120.867742,1.4670694e-06
C0R870,興海,2023-03-16,21.9752,120.8439,0.9680009
C0R140,瑪家,2023-03-16,22.682903,120.686639,4.820725e-10
C0A530,坪林,2023-03-16,24.938183,121.70975,3.0883092e-09
C0X260,後壁,2023-03-16,23.366358,120.362326,1.3645215e-06
C0Z230,和平,2023-03-16,24.30717,121.77007,4.396882e-08
C0G770,福興,2023-03-16,24.041289,120.437669,1.5989647e-08
C0H9A0,神木村,2023-03-16,23.532742,120.843667,2.9841027e-09
C0I460,南投,2023-03-16,23.911469,120.687331,0.05258874
C0I480,梅峰,2023-03-16,24.085272,121.173572,4.1361945e-09
C1V570,吉東,2023-03-16,22.85422,120.5454,0.020120377
C2A560,福山,2023-03-16,24.776203,121.502811,2.9330123e-09
C0AH30,五分山,2023-03-16,25.07125,121.780794,1.9637577e-08
C0FA10,松柏,2023-03-16,24.429115,120.617482,1.5043037e-09
72S200,東改班鳩分場,2023-03-16,22.829528,121.077694,0.9735073
72HA00,中改埔里分場,2023-03-16,23.903208,120.963364,3.690136e-09
C0C650,平鎮,2023-03-16,24.897503,121.214636,2.480103e-08
C0S930,延平,2023-03-16,22.902581,121.084058,5.965741e-06
C0UA60,樟樹山,2023-03-16,24.41393,121.78325,2.6341949e-09
C1S670,摩天,2023-03-16,23.199503,121.027,9.8619335e-09
C0V630,茄萣,2023-03-16,22.906642,120.182608,1.9772822e-10
466940,基隆,2023-03-16,25.133314,121.740475,3.140284e-05
C0X050,東河,2023-03-16,23.296598,120.385608,0.0024504226
C0R770,保力,2023-03-16,22.071122,120.764111,0.9990568
G2L020,農試嘉義分所,2023-03-16,23.485028,120.473806,0.9732162
C0X240,關子嶺,2023-03-16,23.331169,120.508025,1.7536473e-06
C0I380,集集,2023-03-16,23.828206,120.801467,0.0102634225
466990,花蓮,2023-03-16,23.975128,121.613275,9.187731e-06
C1V220,小關山,2023-03-16,23.154217,120.813603,2.9106149e-09
C1F9G1,慶福山,2023-03-16,24.180853,120.848378,2.6616847e-09
C0Z250,瑞穗林道,2023-03-16,23.49284,121.30688,6.18531e-09
C0D590,新豐,2023-03-16,24.87068,120.97721,3.898989e-05
C0A870,五指山,2023-03-16,25.132153,121.608692,3.8808032e-09
C0UA50,西帽山,2023-03-16,24.555361,121.802628,2.11089e-09
C0X160,仁德,2023-03-16,22.968258,120.257689,4.0840007e-09
C1H971,六分寮,2023-03-16,23.92507,120.6378,0.00010495321
C0W120,西嶼,2023-03-16,23.5626,119.468436,0.9862217
C0G650,員林,2023-03-16,23.946503,120.585597,0.00016989915
C0AD50,鶯歌,2023-03-16,24.951533,121.346294,2.6566607e-07
C0S990,山豬窟,2023-03-16,22.318619,120.857372,0.9983301
72Q010,高雄農改,2023-03-16,22.709333,120.525889,0.3377685
C0X190,安平,2023-03-16,22.993161,120.152181,2.587904e-10
C0K400,斗六,2023-03-16,23.720583,120.541127,0.0015860436
12J990,口湖工作站,2023-03-16,23.589978,120.180394,4.808365e-10
C0O830,北寮,2023-03-16,23.079561,120.495008,0.0012699334
C1D410,白蘭,2023-03-16,24.579364,121.079947,2.955024e-09
C0S970,加津林,2023-03-16,22.416211,120.926942,0.9996536
C0D700,關西,2023-03-16,24.7977,121.1732,0.015176857
C0M810,里佳,2023-03-16,23.389125,120.716647,4.259709e-09
C0U750,龜山島,2023-03-16,24.841667,121.953133,0.972684
C0R810,內獅,2023-03-16,22.305064,120.642986,0.9994277
C1M390,龍美,2023-03-16,23.406728,120.654417,3.1626681e-09
C1H840,國三N238K,2023-03-16,23.841008,120.707711,4.649528e-05
CAQ030,崎峰國小,2023-03-16,22.42565,120.49521,7.817275e-10
C2E520,大湖,2023-03-16,24.414939,120.870872,1.9509582e-07
467530,阿里山,2023-03-16,23.508208,120.813242,8.124732e-09
C1E691,南湖,2023-03-16,24.40135,120.837533,2.2614386e-09
C0FA30,梧棲,2023-03-16,24.256003,120.523381,9.941541e-08
C1V231,高中,2023-03-16,23.134911,120.716711,3.684116e-09
C0F9V0,新社,2023-03-16,24.200172,120.815806,0.00011459512
C0H890,埔里,2023-03-16,23.972169,120.952425,6.143778e-07
C0R690,墾丁,2023-03-16,21.966756,120.810269,0.9965981
C0F0D0,審馬陣,2023-03-16,24.381675,121.4203,2.3938469e-08
C0R820,白鷺,2023-03-16,22.454275,120.666219,4.2831785e-10
U2H480,臺大溪頭,2023-03-16,23.670306,120.798194,2.0190525e-09
C1V190,南天池,2023-03-16,23.27403,120.91176,4.9799715e-09
K2E360,苗栗農改場,2023-03-16,24.495722,120.829111,3.3936708e-08
CAJ050,海口故事園區,2023-03-16,23.57543,120.14121,4.808365e-10
C0O990,媽廟,2023-03-16,22.99175,120.293525,2.5355778e-08
C0D480,打鐵坑,2023-03-16,24.849664,121.150789,1.112023e-06
C0Z220,和平林道,2023-03-16,24.343922,121.656317,2.4612675e-08
72C440,桃園農改場,2023-03-16,24.950944,121.030583,4.7432582e-08
C1E711,馬拉邦山,2023-03-16,24.367306,120.901656,3.3815346e-09
C0D560,竹東,2023-03-16,24.767147,121.057881,0.023871552
C0F9U0,南屯,2023-03-16,24.137006,120.637969,2.1974647e-05
C0M720,番路,2023-03-16,23.464657,120.554156,0.06610134
C0F0A0,雪山圈谷,2023-03-16,24.388594,121.236339,3.6330245e-08
C1A9N0,四十份,2023-03-16,24.934158,121.593283,0.10554136
C0U760,東澳,2023-03-16,24.52196,121.83318,8.293456e-08
C0X230,鹽水,2023-03-16,23.272621,120.247641,4.2808754e-10
C0V370,古亭坑,2023-03-16,22.893178,120.401947,4.7358816e-07
C1I340,新興橋,2023-03-16,23.563333,120.868728,1.0730473e-09
C0SA80,土坂,2023-03-16,22.453108,120.887572,0.90824294
C0R160,鹽埔,2023-03-16,22.739558,120.530778,0.3377685
C0AC40,大屯山,2023-03-16,25.175675,121.522408,1.159268e-08
466850,五分山雷達站,2023-03-16,25.071182,121.781205,1.9630349e-08
C1AI50,國三N016K,2023-03-16,25.034164,121.619664,0.00013636661
C1V600,藤枝,2023-03-16,23.071961,120.757042,2.042455e-09
C1E601,南勢,2023-03-16,24.572486,120.734842,2.2397533e-08
C0Z180,新城,2023-03-16,24.03946,121.60454,7.3303945e-06
C0O980,新市,2023-03-16,23.061614,120.298197,5.27211e-07
C0K420,西螺,2023-03-16,23.800407,120.467394,4.1792813e-08
C0Z050,佳心,2023-03-16,23.34567,121.21316,4.776174e-09
C0AD30,蘆洲,2023-03-16,25.086594,121.472331,0.0003352897
C0V610,梓官,2023-03-16,22.760558,120.267211,1.8066604e-08
K2F750,種苗改良場,2023-03-16,24.225972,120.800917,0.00027896347
C0UA80,大溪漁港,2023-03-16,24.941801,121.902955,3.3743892e-09
C1AI60,國一39K邊坡,2023-03-16,25.064361,121.383836,9.1787406e-08
C0W150,金寧,2023-03-16,24.457703,118.328989,1.5577683e-08
V2C250,八德合作社,2023-03-16,24.93775,121.266389,5.0565447e-08
C0AH40,平等,2023-03-16,25.129142,121.577086,3.5013288e-09
C0R540,佳冬,2023-03-16,22.419456,120.552375,3.8403948e-07
466950,彭佳嶼,2023-03-16,25.627975,122.079744,0.9999739
C0A890,雙溪,2023-03-16,25.036003,121.864242,0.00038391564
C0C480,桃園,2023-03-16,24.992425,121.323172,1.3934365e-07
C0AH50,林口,2023-03-16,25.072181,121.38084,3.9499117e-08
A2K360,水試臺西試驗場,2023-03-16,23.717231,120.190522,8.5031837e-10
B2N890,畜試所,2023-03-16,23.058972,120.336406,3.805508e-07
C0F9S0,烏日,2023-03-16,24.107058,120.624103,0.0011432754
C0C490,八德,2023-03-16,24.928708,121.283289,4.6473296e-08
C0R190,赤山,2023-03-16,22.592333,120.614306,0.0033238935
C0T820,天祥,2023-03-16,24.179597,121.495639,4.3815933e-09
C1F9E1,龍安,2023-03-16,24.1605,120.831961,1.0657035e-05
C0V820,小林,2023-03-16,23.148408,120.63325,2.8146678e-06
C2G870,芳苑,2023-03-16,23.922303,120.320025,5.268862e-10
C0E850,大河,2023-03-16,24.618069,120.948578,4.2595322e-05
C1U670,寒溪,2023-03-16,24.634,121.71691,1.0573062e-09
C0N020,城西,2023-03-16,23.0568,120.0956,2.587904e-10
C1Z110,三棧,2023-03-16,24.11557,121.60501,4.948366e-09
C0R280,檳榔,2023-03-16,22.076078,120.836777,0.999852
C0F9L0,后里,2023-03-16,24.310436,120.729725,0.035562333
C0D540,橫山,2023-03-16,24.71116,121.11693,6.532178e-05
C1D420,太閣南,2023-03-16,24.632808,121.160575,2.0061008e-09
C1E770,公館,2023-03-16,24.526914,120.830806,4.9753595e-08
CAN130,水試所海水繁養殖中心,2023-03-16,23.120802,120.07968,2.0707674e-10
C1I430,翠華,2023-03-16,24.191961,121.224339,4.8099267e-09
C1M400,菜瓜坪,2023-03-16,23.251928,120.576103,1.0044327e-08
C0G730,二林,2023-03-16,23.903325,120.376081,2.504426e-09
72M360,南改義竹分場,2023-03-16,23.360694,120.279361,1.0234988e-09
V2K620,麥寮合作社,2023-03-16,23.753836,120.294783,3.7430605e-09
C0Z070,舞鶴,2023-03-16,23.46811,121.37407,6.246045e-09
C0B040,大武崙,2023-03-16,25.166676,121.706993,1.4279239e-05
C1Z030,紅葉,2023-03-16,23.493119,121.338806,1.8317984e-09
C1I050,丹大,2023-03-16,23.753747,121.141147,6.280797e-09
C0I080,信義,2023-03-16,23.689694,120.851036,2.3354505e-09
C2A880,福隆,2023-03-16,25.017842,121.942083,1.190113e-05
C0Z160,鳳林,2023-03-16,23.746114,121.453411,2.0652464e-09
C0V210,復興,2023-03-16,23.222403,120.806089,7.8351436e-10
C0H990,昆陽,2023-03-16,24.121322,121.273642,1.2903962e-08
C0S710,鹿野,2023-03-16,22.917711,121.122994,8.130282e-09
C0I530,小奇萊,2023-03-16,24.131764,121.295717,1.3791852e-08
C0Z080,富源,2023-03-16,23.587642,121.378225,1.9345396e-09
467441,高雄,2023-03-16,22.7304,120.3125,1.6985151e-08
C1I140,卡奈托灣,2023-03-16,23.754364,121.087872,3.6566732e-09
C0I520,玉山風口,2023-03-16,23.470489,120.955994,2.149136e-08
C1G691,下水埔,2023-03-16,23.816114,120.5676,0.0012204639
C0X110,臺南市南區,2023-03-16,22.961189,120.188378,4.0840007e-09
C0V680,仁武,2023-03-16,22.701083,120.347722,1.7540861e-09
C2G840,北斗,2023-03-16,23.877586,120.514222,1.5471713e-07
C0R900,竹坑,2023-03-16,22.1385,120.7022,0.99564594
C0K250,崙背,2023-03-16,23.75555,120.318925,3.7430605e-09
C0G860,社頭,2023-03-16,23.897647,120.5862,0.025746992
C0X150,安定,2023-03-16,23.102614,120.227839,1.1138045e-09
C0R590,里港,2023-03-16,22.77919,120.49459,9.852981e-05
C0E610,馬都安,2023-03-16,24.451272,120.930192,2.2445419e-09
C0E550,明德,2023-03-16,24.583486,120.885411,7.011793e-08
C0R150,三地門,2023-03-16,22.709889,120.639944,0.0015829449
C0G910,花壇,2023-03-16,24.032076,120.549461,1.1158063e-07
C1D400,鳥嘴山,2023-03-16,24.71909,121.28387,1.2858136e-09
C0K500,元長,2023-03-16,23.64981,120.315024,4.7080317e-09
C0F0B0,石岡,2023-03-16,24.276061,120.777644,0.011315973
C2V250,甲仙,2023-03-16,23.080106,120.591758,7.673596e-05
C0SA20,金崙山,2023-03-16,22.567419,120.959667,6.9262143e-09
C0V350,溪埔,2023-03-16,22.738578,120.446797,1.4719346e-05
C0M660,溪口,2023-03-16,23.604131,120.403569,0.00061437563
C1S880,壽卡,2023-03-16,22.238911,120.858903,0.999832
72D680,桃改新埔分場,2023-03-16,24.834444,121.066111,0.0026106143
