站號,站名,日期,lat,lon,BlastGRU-TW
466881,新北,2023-01-30,24.9593,121.52,0.00063383306
466900,淡水,2023-01-30,25.164889,121.448906,0.000582574
466920,臺北,2023-01-30,25.037658,121.514853,0.00067875104
467441,高雄,2023-01-30,22.7304,120.3125,0.14966439
467480,嘉義,2023-01-30,23.495925,120.432906,0.000618373
467490,臺中,2023-01-30,24.145736,120.684075,0.0004132718
C0A540,四堵,2023-01-30,24.8926,121.745736,0.00072445767
C0A550,泰平,2023-01-30,24.971197,121.823711,0.0010335399
C0A560,福山,2023-01-30,24.776203,121.502811,0.0008366602
C0A931,三和,2023-01-30,25.233153,121.595236,0.0006527438
C0A940,金山,2023-01-30,25.223628,121.643967,0.0005285547
C0A950,鼻頭角,2023-01-30,25.129036,121.923372,0.0072066933
C0AD10,八里,2023-01-30,25.150211,121.403947,0.000582574
C0AD30,蘆洲,2023-01-30,25.086594,121.472331,0.0005954661
C0AD40,土城,2023-01-30,24.973208,121.445169,0.0005743139
C0AI10,屈尺,2023-01-30,24.92184,121.54475,0.00057336735
C0AI20,白沙灣,2023-01-30,25.283128,121.519058,0.0005604543
C0AI30,三重,2023-01-30,25.057328,121.500629,0.0005954661
C0B010,七堵,2023-01-30,25.094819,121.71713,0.0011063442
C0B020,基隆嶼,2023-01-30,25.19141,121.78391,0.0012238153
