站號,站名,日期,lat,lon,BlastGRU-TW
12J990,口湖工作站,2023-11-06,23.589978,120.180394,0.65109724
12Q970,東港工作站,2023-11-06,22.479997,120.466058,0.6314003
12Q980,恆春工作站,2023-11-06,22.079678,120.714425,0.008038981
466881,新北,2023-11-06,24.9593,121.52,0.01771604
466900,淡水,2023-11-06,25.164889,121.448906,0.0171296
466920,臺北,2023-11-06,25.037658,121.514853,0.03262931
466940,基隆,2023-11-06,25.133314,121.740475,0.021828363
466990,花蓮,2023-11-06,23.975128,121.613275,0.80503774
467050,新屋,2023-11-06,25.006744,121.047486,0.027664151
467080,宜蘭,2023-11-06,24.763975,121.756528,0.3739562
467270,田中,2023-11-06,23.873803,120.581286,0.28976604
467300,東吉島,2023-11-06,23.25695,119.667467,0.6297615
467350,澎湖,2023-11-06,23.565503,119.563094,0.60633236
467410,臺南,2023-11-06,22.993239,120.204772,0.54269403
467420,永康,2023-11-06,23.038386,120.2367,0.46914247
467441,高雄,2023-11-06,22.7304,120.3125,0.43192288
467480,嘉義,2023-11-06,23.495925,120.432906,0.8290819
467490,臺中,2023-11-06,24.145736,120.684075,0.57203096
467540,大武,2023-11-06,22.355675,120.903789,0.012312436
467571,新竹,2023-11-06,24.827853,121.014219,0.020476334
467590,恆春,2023-11-06,22.003897,120.746339,0.008267086
467610,成功,2023-11-06,23.097486,121.373428,0.95625466
467620,蘭嶼,2023-11-06,22.036969,121.558339,0.36675945
467660,臺東,2023-11-06,22.752211,121.154586,0.58966935
467790,墾丁雷達站,2023-11-06,21.948235,120.808028,0.008398217
72AI40,桃改樹林分場,2023-11-06,24.944503,121.386972,0.012061772
72C440,桃園農改,2023-11-06,24.950944,121.030583,0.042238962
72C440,桃園農改場,2023-11-06,24.950944,121.030583,0.042238962
72D680,桃改新埔分場,2023-11-06,24.834444,121.066111,0.020769184
72G600,臺中農改,2023-11-06,24.003028,120.534389,0.42035916
72G600,臺中農改場,2023-11-06,24.003028,120.534389,0.42035916
72K220,南改斗南分場,2023-11-06,23.634556,120.477333,0.3392254
72M360,南改義竹分場,2023-11-06,23.360694,120.279361,0.6865726
72M700,南改鹿草分場,2023-11-06,23.416869,120.283061,0.7844217
72N100,臺南農改,2023-11-06,23.0605,120.342194,0.63125986
72N100,臺南農改場,2023-11-06,23.0605,120.342194,0.63125986
72N240,七股研究中心,2023-11-06,23.081672,120.062894,0.6887068
72Q010,高雄農改,2023-11-06,22.709333,120.525889,0.31956348
72Q010,高雄農改場,2023-11-06,22.709333,120.525889,0.31956348
72S200,東改班鳩分場,2023-11-06,22.829528,121.077694,0.1826517
72S590,東改賓朗果園,2023-11-06,22.813889,121.071278,0.2510017
72T250,花蓮農改,2023-11-06,23.975222,121.563889,0.7843345
72T250,花蓮農改場,2023-11-06,23.975222,121.563889,0.7843345
72U480,花改蘭陽分場,2023-11-06,24.686306,121.716583,0.89279383
72V140,高改旗南分場,2023-11-06,22.857861,120.516667,0.2994419
82A750,茶改北部分場,2023-11-06,24.955778,121.631222,0.33600768
82C160,茶改場,2023-11-06,24.908472,121.185333,0.020044973
82H840,茶改南部分場,2023-11-06,23.762528,120.7405,0.12285422
82S580,茶改東部分場,2023-11-06,22.907694,121.130139,0.96585846
A2C560,農工中心,2023-11-06,24.985917,121.239833,0.023716033
A2K360,水試臺西試驗場,2023-11-06,23.717231,120.190522,0.8131998
A2K570,古坑花卉中心,2023-11-06,23.63353,120.55239,0.31476462
A2K630,臺大雲林校區,2023-11-06,23.730628,120.423903,0.3943242
A2N290,臺南蘭花園區,2023-11-06,23.340258,120.379661,0.8142911
B2E890,畜試北區分所,2023-11-06,24.527806,120.770972,0.31797624
B2N890,畜產試驗所,2023-11-06,23.058972,120.336406,0.63125986
B2N890,畜試所,2023-11-06,23.058972,120.336406,0.63125986
B2Q810,畜試南區分所,2023-11-06,21.945583,120.802167,0.008236989
B2U990,畜試東區分所,2023-11-06,24.669039,121.832561,0.2967192
C0A520,山佳,2023-11-06,24.974944,121.402008,0.012061772
C0A530,坪林,2023-11-06,24.938183,121.70975,0.24935117
C0A540,四堵,2023-11-06,24.8926,121.745736,0.6209335
C0A550,泰平,2023-11-06,24.971197,121.823711,0.68051565
C0A560,福山,2023-11-06,24.776203,121.502811,0.32934004
C0A570,桶後,2023-11-06,24.848222,121.597992,0.1669956
C0A640,石碇,2023-11-06,24.993969,121.662917,0.499427
C0A650,火燒寮,2023-11-06,25.002719,121.742892,0.7022155
C0A660,瑞芳,2023-11-06,25.113169,121.801147,0.69978434
C0A770,科教館,2023-11-06,25.096356,121.516507,0.023459245
C0A860,大坪,2023-11-06,25.165914,121.632969,0.2873567
C0A880,福隆,2023-11-06,25.017842,121.942083,0.5001473
C0A890,雙溪,2023-11-06,25.036003,121.864242,0.086980164
C0A920,富貴角,2023-11-06,25.263783,121.565258,0.07311494
C0A931,三和,2023-11-06,25.233153,121.595236,0.4106557
C0A940,金山,2023-11-06,25.223628,121.643967,0.11565826
C0A950,鼻頭角,2023-11-06,25.129036,121.923372,0.18539248
C0A970,三貂角,2023-11-06,25.007606,122.002058,0.75214887
C0A980,社子,2023-11-06,25.109508,121.469681,0.022796767
C0A9C0,天母,2023-11-06,25.117494,121.537169,0.019396072
C0A9F0,內湖,2023-11-06,25.079422,121.57545,0.027706362
C0AC60,三峽,2023-11-06,24.939025,121.369728,0.017479453
C0AC70,信義,2023-11-06,25.037822,121.564597,0.026435807
C0AC80,文山,2023-11-06,25.00235,121.575728,0.028827643
C0ACA0,新莊,2023-11-06,25.051478,121.446756,0.015247527
C0AD00,三芝,2023-11-06,25.258131,121.501917,0.01742041
C0AD10,八里,2023-11-06,25.150211,121.403947,0.016848903
C0AD30,蘆洲,2023-11-06,25.086594,121.472331,0.023459245
C0AD40,土城,2023-11-06,24.973208,121.445169,0.010062852
C0AD50,鶯歌,2023-11-06,24.951533,121.346294,0.009329859
C0AG80,中和,2023-11-06,24.991622,121.491792,0.027495505
C0AH00,汐止,2023-11-06,25.066881,121.658778,0.018193
C0AH10,永和,2023-11-06,25.01125,121.508111,0.02639964
C0AH40,平等,2023-11-06,25.129142,121.577086,0.17450336
C0AH50,林口,2023-11-06,25.072181,121.38084,0.12905481
C0AH70,松山,2023-11-06,25.04871,121.55042,0.026435807
C0AH80,深坑,2023-11-06,25.002703,121.628328,0.028561406
C0AI00,五股,2023-11-06,25.07445,121.42728,0.079300255
C0AI10,屈尺,2023-11-06,24.92184,121.54475,0.026457405
C0AI20,白沙灣,2023-11-06,25.283128,121.519058,0.02348511
C0AI30,三重,2023-11-06,25.057328,121.500629,0.022124454
C0AI40,石牌,2023-11-06,25.115597,121.513139,0.02420665
C0AJ20,野柳,2023-11-06,25.20703,121.690021,0.021191606
C0AJ30,淡水觀海,2023-11-06,25.184591,121.408616,0.017737413
C0AJ40,石門,2023-11-06,25.273672,121.601198,0.029236518
C0AJ50,水湳洞,2023-11-06,25.123695,121.862238,0.04093643
C0AJ60,六塊厝,2023-11-06,25.24,121.4481,0.02489719
C0AJ70,田寮,2023-11-06,25.2698,121.4886,0.01589042
C0AJ80,板橋,2023-11-06,25.0107,121.4489,0.016907575
C0AJ90,澳底,2023-11-06,25.0552,121.9253,0.47504652
C0B010,七堵,2023-11-06,25.094819,121.71713,0.01904469
C0B020,基隆嶼,2023-11-06,25.19141,121.78391,0.026449151
C0B040,大武崙,2023-11-06,25.166676,121.706993,0.023581244
C0B050,八斗子,2023-11-06,25.144754,121.79167,0.022405475
C0B060,暖暖,2023-11-06,25.0957,121.7403,0.030229758
C0C460,復興,2023-11-06,24.820208,121.352281,0.39165893
C0C480,桃園,2023-11-06,24.992425,121.323172,0.033314485
C0C490,八德,2023-11-06,24.928708,121.283289,0.040508654
C0C590,觀音,2023-11-06,25.027072,121.153317,0.01240356
C0C620,蘆竹,2023-11-06,25.084275,121.265767,0.017071847
C0C630,大溪,2023-11-06,24.882853,121.265547,0.028397059
C0C650,平鎮,2023-11-06,24.897503,121.214636,0.020044973
C0C660,楊梅,2023-11-06,24.912375,121.143047,0.021158502
C0C670,龍潭,2023-11-06,24.870056,121.221389,0.09369321
C0C680,龜山,2023-11-06,25.02846,121.38656,0.09699745
C0C700,中壢,2023-11-06,24.977661,121.256375,0.03186635
C0C710,大溪永福,2023-11-06,24.892936,121.324975,0.013389403
C0C720,竹圍,2023-11-06,25.112692,121.239824,0.017044246
C0C730,中大臨海站,2023-11-06,24.966126,121.008581,0.043008614
C0C740,觀音工業區,2023-11-06,25.064764,121.114856,0.031794548
C0C750,新興坑尾,2023-11-06,25.0061,121.0971,0.023594225
C0D430,峨眉,2023-11-06,24.6905,121.017189,0.02013636
C0D480,打鐵坑,2023-11-06,24.849664,121.150789,0.15262529
C0D540,橫山,2023-11-06,24.71116,121.11693,0.06712369
C0D560,竹東,2023-11-06,24.767147,121.057881,0.020012498
C0D580,寶山,2023-11-06,24.735006,121.025192,0.09956331
C0D590,新豐,2023-11-06,24.87068,120.97721,0.06418285
C0D650,湖口,2023-11-06,24.904794,121.043628,0.019359786
C0D660,新竹市東區,2023-11-06,24.798681,120.986942,0.017925922
C0D670,海天一線,2023-11-06,24.831986,120.914438,0.051034495
C0D680,香山濕地,2023-11-06,24.783581,120.914988,0.027575301
C0D690,外湖,2023-11-06,24.917735,120.968711,0.07222314
C0D700,關西,2023-11-06,24.7977,121.1732,0.026044395
C0E420,竹南,2023-11-06,24.708978,120.888897,0.02265271
C0E430,南庄,2023-11-06,24.601775,121.000214,0.068161346
C0E520,大湖,2023-11-06,24.41494,120.87087,0.12846927
C0E540,後龍,2023-11-06,24.606489,120.783933,0.37915784
C0E550,明德,2023-11-06,24.583486,120.885411,0.17788985
C0E590,通霄,2023-11-06,24.471892,120.704622,0.3727192
C0E730,頭份,2023-11-06,24.688247,120.912206,0.019124793
C0E740,造橋,2023-11-06,24.637056,120.864778,0.22027375
C0E750,苗栗,2023-11-06,24.564569,120.824575,0.34203032
C0E780,銅鑼,2023-11-06,24.489681,120.790853,0.16107142
C0E791,卓蘭,2023-11-06,24.3126,120.8244,0.1719852
C0E810,西湖,2023-11-06,24.562947,120.7485,0.354255
C0E820,獅潭,2023-11-06,24.539133,120.920042,0.20137976
C0E830,苑裡,2023-11-06,24.439714,120.653053,0.6431657
C0E850,大河,2023-11-06,24.618069,120.948578,0.15846325
C0E870,高鐵苗栗,2023-11-06,24.60725,120.826094,0.38433704
C0E910,海埔,2023-11-06,24.648767,120.772435,0.46646744
C0E920,通霄漁港,2023-11-06,24.498589,120.673876,0.4157269
C0E930,龍鳳,2023-11-06,24.700034,120.859125,0.30617547
C0F0B0,石岡,2023-11-06,24.276061,120.777644,0.12773305
C0F850,東勢,2023-11-06,24.246428,120.833047,0.16966875
C0F930,大甲,2023-11-06,24.347667,120.640403,0.55517775
C0F970,大坑,2023-11-06,24.173142,120.722289,0.5358084
C0F9A0,中竹林,2023-11-06,24.103556,120.751061,0.23959151
C0F9I0,神岡,2023-11-06,24.272481,120.658314,0.32929936
C0F9K0,大安,2023-11-06,24.345061,120.588025,0.68813086
C0F9L0,后里,2023-11-06,24.310436,120.729725,0.3230871
C0F9M0,豐原,2023-11-06,24.254322,120.720692,0.30055967
C0F9N0,大里,2023-11-06,24.092464,120.701378,0.5167634
C0F9O0,潭子,2023-11-06,24.213106,120.703933,0.33116227
C0F9P0,清水,2023-11-06,24.312297,120.562242,0.61663324
C0F9Q0,外埔,2023-11-06,24.347817,120.705686,0.30051368
C0F9R0,龍井,2023-11-06,24.184536,120.528972,0.67049193
C0F9S0,烏日,2023-11-06,24.107058,120.624103,0.37157583
C0F9T0,西屯,2023-11-06,24.179494,120.641275,0.5015885
C0F9U0,南屯,2023-11-06,24.137006,120.637969,0.5299578
C0F9X0,大雅(中科園區),2023-11-06,24.21528,120.62445,0.53505766
C0FA10,松柏,2023-11-06,24.429115,120.617482,0.6311703
C0FA20,溫寮,2023-11-06,24.372177,120.583125,0.6417169
C0FA30,梧棲,2023-11-06,24.256003,120.523381,0.7184537
C0FA40,臺中電廠,2023-11-06,24.2146,120.4907,0.67049193
C0FA50,霧峰,2023-11-06,24.0419,120.6995,0.5565649
C0G620,芬園,2023-11-06,24.015678,120.6213,0.41465694
C0G640,鹿港,2023-11-06,24.0753,120.430481,0.5215888
C0G650,員林,2023-11-06,23.946503,120.585597,0.4267802
C0G660,溪湖,2023-11-06,23.94835,120.479122,0.46097267
C0G720,溪州,2023-11-06,23.851589,120.499093,0.30455664
C0G730,二林,2023-11-06,23.903325,120.376081,0.5139056
C0G740,大城,2023-11-06,23.852487,120.320935,0.77362883
C0G770,福興,2023-11-06,24.041289,120.437669,0.45821363
C0G780,秀水,2023-11-06,24.03405,120.503869,0.3895377
C0G800,埔鹽,2023-11-06,24.000394,120.431683,0.42689762
C0G810,埔心,2023-11-06,23.947633,120.525456,0.46729746
C0G820,田尾,2023-11-06,23.901669,120.509389,0.48629755
C0G830,埤頭,2023-11-06,23.866003,120.452806,0.32880443
C0G840,北斗,2023-11-06,23.877586,120.514222,0.48629755
C0G860,社頭,2023-11-06,23.897647,120.5862,0.46182412
C0G870,芳苑,2023-11-06,23.922303,120.320025,0.77199006
C0G880,二水,2023-11-06,23.810742,120.6173,0.2688857
C0G890,伸港,2023-11-06,24.148933,120.484403,0.57240343
C0G900,線西,2023-11-06,24.143358,120.443536,0.6976637
C0G910,花壇,2023-11-06,24.032076,120.549461,0.3794298
C0G920,永靖,2023-11-06,23.924703,120.547533,0.48942682
C0G940,竹塘,2023-11-06,23.848253,120.386764,0.40668696
C0G950,防潮門,2023-11-06,24.1835,120.4871,0.66690814
C0G960,福寶,2023-11-06,24.0443,120.3814,0.62266624
C0G970,三豐,2023-11-06,23.882,120.2895,0.77199006
C0H890,埔里,2023-11-06,23.972169,120.952425,0.14242692
C0H950,中寮,2023-11-06,23.884447,120.766406,0.2290443
C0H960,草屯,2023-11-06,23.973672,120.68085,0.25217888
C0I110,竹山,2023-11-06,23.761225,120.688156,0.19990554
C0I360,水里,2023-11-06,23.812553,120.849792,0.077044785
C0I380,集集,2023-11-06,23.828206,120.801467,0.09192809
C0I410,名間,2023-11-06,23.837053,120.701447,0.23161332
C0I420,國姓,2023-11-06,24.037803,120.855072,0.06449082
C0I460,南投,2023-11-06,23.911469,120.687331,0.21392429
C0K250,崙背,2023-11-06,23.75555,120.318925,0.79200387
C0K280,四湖,2023-11-06,23.630414,120.227125,0.765656
C0K291,宜梧,2023-11-06,23.536281,120.169329,0.6648519
C0K330,虎尾,2023-11-06,23.719183,120.442036,0.37739852
C0K390,土庫,2023-11-06,23.679029,120.395574,0.3623825
C0K400,斗六,2023-11-06,23.720583,120.541127,0.3099602
C0K410,北港,2023-11-06,23.573957,120.292802,0.7278408
C0K420,西螺,2023-11-06,23.800407,120.467394,0.3925145
C0K430,褒忠,2023-11-06,23.690938,120.303634,0.81181806
C0K440,二崙,2023-11-06,23.772797,120.408944,0.38646823
C0K450,大埤,2023-11-06,23.646074,120.431537,0.37816194
C0K460,斗南,2023-11-06,23.678734,120.478359,0.33838406
C0K470,林內,2023-11-06,23.748675,120.609642,0.2610822
C0K480,莿桐,2023-11-06,23.761192,120.502372,0.3237902
C0K500,元長,2023-11-06,23.64981,120.315024,0.8049011
C0K510,水林,2023-11-06,23.572924,120.24597,0.65595055
C0K530,臺西,2023-11-06,23.701547,120.197559,0.81703275
C0K550,蔦松,2023-11-06,23.514319,120.229736,0.66509986
C0K560,棋山,2023-11-06,23.68645,120.603417,0.17993417
C0K580,高鐵雲林,2023-11-06,23.737456,120.417944,0.3943242
C0K590,雲林東勢,2023-11-06,23.674192,120.255721,0.81494987
C0K600,箔子寮,2023-11-06,23.6197,120.14,0.7935754
C0M410,馬頭山,2023-11-06,23.324361,120.582017,0.14731944
C0M520,東後寮,2023-11-06,23.369908,120.248065,0.6115093
C0M640,中埔,2023-11-06,23.42538,120.5229,0.3456539
C0M650,朴子,2023-11-06,23.43463,120.23902,0.6880189
C0M660,溪口,2023-11-06,23.604131,120.403569,0.7804703
C0M670,大林,2023-11-06,23.600616,120.45841,0.7802331
C0M680,太保,2023-11-06,23.455062,120.331455,0.7602569
C0M690,水上,2023-11-06,23.419734,120.388909,0.86968255
C0M700,竹崎,2023-11-06,23.526178,120.555508,0.1799463
C0M710,東石,2023-11-06,23.458927,120.15385,0.81253433
C0M720,番路,2023-11-06,23.464657,120.554156,0.22548184
C0M730,嘉義市東區,2023-11-06,23.457673,120.460531,0.80427545
C0M740,六腳,2023-11-06,23.492871,120.290625,0.75264627
C0M750,布袋,2023-11-06,23.380878,120.167789,0.69997257
C0M760,民雄,2023-11-06,23.551754,120.428457,0.79566765
C0M770,嘉義梅山,2023-11-06,23.585398,120.555587,0.16328694
C0M780,鹿草,2023-11-06,23.41134,120.30835,0.7886005
C0M790,新港,2023-11-06,23.553269,120.345728,0.7512836
C0M800,茶山,2023-11-06,23.299075,120.664767,0.16152318
C0M880,好美里,2023-11-06,23.3364,120.138,0.6987977
C0N010,鯤鯓國小,2023-11-06,23.1879,120.0889,0.8224454
C0N020,城西,2023-11-06,23.0568,120.0956,0.506387
C0N030,四草,2023-11-06,23.0235,120.1116,0.6195149
C0N040,蘆竹溝,2023-11-06,23.2344,120.0961,0.6635111
C0N050,蚵寮,2023-11-06,23.301,120.1104,0.730904
C0O810,曾文,2023-11-06,23.219681,120.497328,0.733245
C0O830,北寮,2023-11-06,23.079561,120.495008,0.26189896
C0O840,王爺宮,2023-11-06,23.222064,120.40085,0.8388319
C0O860,大內,2023-11-06,23.11885,120.36083,0.7055609
C0O900,善化,2023-11-06,23.112883,120.297219,0.58071464
C0O930,玉井,2023-11-06,23.126042,120.46055,0.74379706
C0O950,安南,2023-11-06,23.076694,120.144861,0.46158314
C0O960,崎頂,2023-11-06,22.959547,120.369317,0.48840284
C0O970,虎頭埤,2023-11-06,23.021375,120.347878,0.701774
C0O980,新市,2023-11-06,23.061614,120.298197,0.6080742
C0O990,媽廟,2023-11-06,22.99175,120.293525,0.66635376
C0R150,三地門,2023-11-06,22.709889,120.639944,0.20526704
C0R160,鹽埔,2023-11-06,22.739558,120.530778,0.2782948
C0R170,屏東,2023-11-06,22.660269,120.494072,0.68349016
C0R190,赤山,2023-11-06,22.592333,120.614306,0.13001184
C0R220,潮州,2023-11-06,22.534361,120.54,0.18028918
C0R240,來義,2023-11-06,22.527306,120.625111,0.10700446
C0R260,春日,2023-11-06,22.370361,120.628306,0.23026684
C0R270,琉球嶼,2023-11-06,22.332244,120.362236,0.26383168
C0R280,檳榔,2023-11-06,22.076078,120.836777,0.006375425
C0R320,車城,2023-11-06,22.0744,120.716247,0.008038981
C0R341,牡丹,2023-11-06,22.130036,120.792639,0.23391885
C0R350,貓鼻頭,2023-11-06,21.921774,120.7358,0.00833661
C0R470,高樹,2023-11-06,22.826389,120.600806,0.13053502
C0R480,長治,2023-11-06,22.693128,120.542622,0.33996126
C0R490,九如,2023-11-06,22.7405,120.490503,0.7019469
C0R520,崁頂,2023-11-06,22.514781,120.506914,0.5957904
C0R540,佳冬,2023-11-06,22.419456,120.552375,0.6606094
C0R550,新埤,2023-11-06,22.467947,120.582894,0.25877643
C0R560,新園,2023-11-06,22.5434,120.461558,0.5894338
C0R570,麟洛,2023-11-06,22.65078,120.52719,0.69178426
C0R580,南州,2023-11-06,22.48591,120.50274,0.5909519
C0R590,里港,2023-11-06,22.77919,120.49459,0.28990373
C0R620,墾雷,2023-11-06,21.900836,120.855269,0.008242937
C0R640,東港,2023-11-06,22.46247,120.44074,0.65428895
C0R650,竹田,2023-11-06,22.58486,120.54344,0.24875316
C0R660,枋寮,2023-11-06,22.367722,120.590647,0.26701304
C0R670,楓港,2023-11-06,22.190131,120.692156,0.5789595
C0R680,佳樂水,2023-11-06,21.993578,120.861633,0.008236989
C0R690,墾丁,2023-11-06,21.966756,120.810269,0.004408225
C0R700,枋山,2023-11-06,22.246844,120.661086,0.3328105
C0R710,龍磐,2023-11-06,21.931672,120.838942,0.007981109
C0R720,旭海,2023-11-06,22.205403,120.887614,0.08301496
C0R730,大坪頂,2023-11-06,22.024633,120.69355,0.00765462
C0R740,獅子,2023-11-06,22.201569,120.70525,0.53086203
C0R760,南仁湖,2023-11-06,22.084681,120.863353,0.003614459
C0R770,保力,2023-11-06,22.071122,120.764111,0.008335554
C0R780,滿州,2023-11-06,22.024403,120.839892,0.008345453
C0R790,九棚,2023-11-06,22.14195,120.889281,0.092791036
C0R800,丹路,2023-11-06,22.204481,120.750989,0.29621512
C0R810,內獅,2023-11-06,22.305064,120.642986,0.28028515
C0R830,高士,2023-11-06,22.121825,120.836781,0.0028675431
C0R850,林邊,2023-11-06,22.4634,120.5339,0.60707337
C0R860,鼻頭,2023-11-06,22.1043,120.8979,0.012623326
C0R870,興海,2023-11-06,21.9752,120.8439,0.008236989
C0R880,後壁湖,2023-11-06,21.9457,120.7457,0.007980652
C0R890,山海,2023-11-06,21.9878,120.7091,0.008107155
C0R900,竹坑,2023-11-06,22.1385,120.7022,0.6650828
C0R910,下寮,2023-11-06,22.3929,120.5548,0.6606094
C0R920,塭仔,2023-11-06,22.4169,120.5197,0.71754426
C0R930,萬丹,2023-11-06,22.5885,120.4851,0.2231555
C0R940,加祿堂,2023-11-06,22.3363,120.6217,0.20701388
C0S710,鹿野,2023-11-06,22.917711,121.122994,0.94737613
C0S730,綠島,2023-11-06,22.6672,121.47533,0.80890775
C0S740,池上,2023-11-06,23.119628,121.209469,0.9677388
C0S770,大溪山,2023-11-06,22.478475,120.943325,0.38725814
C0S790,金崙,2023-11-06,22.538122,120.966875,0.1544895
C0S810,東河,2023-11-06,22.972672,121.303986,0.9434259
C0S830,長濱,2023-11-06,23.286817,121.411975,0.92653143
C0S840,南田,2023-11-06,22.279725,120.889208,0.12382336
C0S890,關山,2023-11-06,23.0395,121.175017,0.9642675
C0S900,蘭嶼高中,2023-11-06,22.04909,121.51214,0.04230012
C0S910,蘭嶼燈塔,2023-11-06,22.081197,121.503117,0.107374005
C0S920,金峰嘉蘭,2023-11-06,22.594789,120.960825,0.046954203
C0S930,延平,2023-11-06,22.902581,121.084058,0.922818
C0S940,石寧山,2023-11-06,23.223772,121.406639,0.9662153
C0S950,七塊厝,2023-11-06,22.954453,121.229922,0.80711746
C0S960,香蘭,2023-11-06,22.587569,120.993375,0.2370297
C0S970,加津林,2023-11-06,22.416211,120.926942,0.13637026
C0S990,山豬窟,2023-11-06,22.318619,120.857372,0.05058588
C0SA00,歷坵,2023-11-06,22.520969,120.89185,0.31540412
C0SA10,檳榔四格山,2023-11-06,22.810031,121.109308,0.46679527
C0SA30,都歷,2023-11-06,23.020333,121.323642,0.935028
C0SA40,瑞和,2023-11-06,22.974361,121.156697,0.9428217
C0SA60,知本（水試所）,2023-11-06,22.702394,121.082761,0.23638575
C0SA80,土坂,2023-11-06,22.453108,120.887572,0.055281695
C0SA90,達仁林場,2023-11-06,22.264347,120.823972,0.028262792
C0T870,鯉魚潭,2023-11-06,23.935639,121.508944,0.7103931
C0T900,西林,2023-11-06,23.8119,121.441458,0.77900416
C0T960,光復,2023-11-06,23.660694,121.424964,0.87110573
C0T9A0,月眉山,2023-11-06,23.809928,121.539828,0.79966784
C0T9D0,和中,2023-11-06,24.26676,121.74103,0.021877639
C0T9E0,大坑,2023-11-06,23.880628,121.581981,0.8151722
C0T9F0,水璉,2023-11-06,23.797131,121.542514,0.8471622
C0T9I0,豐濱,2023-11-06,23.583897,121.514806,0.845867
C0T9M0,靜浦,2023-11-06,23.455167,121.495028,0.9381659
C0T9N0,富里,2023-11-06,23.171639,121.249378,0.9391818
C0U600,礁溪,2023-11-06,24.817539,121.765608,0.5364166
C0U650,玉蘭,2023-11-06,24.675286,121.587061,0.41582188
C0U750,龜山島,2023-11-06,24.841667,121.953133,0.9541155
C0U760,東澳,2023-11-06,24.52196,121.83318,0.48768416
C0U770,南澳,2023-11-06,24.44935,121.81022,0.076424226
C0U780,五結,2023-11-06,24.68637,121.79794,0.25996408
C0U860,頭城,2023-11-06,24.85323,121.8308,0.78877366
C0U870,大礁溪,2023-11-06,24.791042,121.675047,0.34847125
C0U880,北關,2023-11-06,24.9072,121.8734,0.90827703
C0U890,三星,2023-11-06,24.66812,121.65302,0.4474898
C0U900,內城,2023-11-06,24.71813,121.68766,0.8789604
C0U910,冬山,2023-11-06,24.63373,121.7937,0.2967192
C0U940,羅東,2023-11-06,24.68184,121.74934,0.51384914
C0U970,大福,2023-11-06,24.80064,121.81389,0.3452968
C0U990,員山,2023-11-06,24.74435,121.72247,0.3833423
C0UA00,土場,2023-11-06,24.576533,121.495333,0.23966937
C0UA80,大溪漁港,2023-11-06,24.941801,121.902955,0.85242814
C0UA90,石城,2023-11-06,24.980444,121.951214,0.60201424
C0UB00,淡江大學蘭陽校園,2023-11-06,24.823239,121.730383,0.6366217
C0UB10,蘇澳,2023-11-06,24.5969,121.8571,0.13249464
C0UB20,壯圍,2023-11-06,24.7359,121.8163,0.2617707
C0V250,甲仙,2023-11-06,23.080106,120.591758,0.25041148
C0V260,月眉,2023-11-06,22.971003,120.539853,0.39366516
C0V310,美濃,2023-11-06,22.898742,120.519153,0.781993
C0V350,溪埔,2023-11-06,22.738578,120.446797,0.53592455
C0V360,內門,2023-11-06,22.975481,120.466769,0.70956105
C0V370,古亭坑,2023-11-06,22.893178,120.401947,0.76584136
C0V400,阿公店,2023-11-06,22.804194,120.355528,0.6507075
C0V440,鳳山,2023-11-06,22.646653,120.356122,0.5234398
C0V450,鳳森,2023-11-06,22.545064,120.392592,0.19131435
C0V490,新興,2023-11-06,22.627422,120.298803,0.51383823
C0V530,阿蓮,2023-11-06,22.883208,120.327508,0.6150494
C0V610,梓官,2023-11-06,22.760558,120.267211,0.6037531
C0V620,永安,2023-11-06,22.82315,120.236856,0.52628994
C0V630,茄萣,2023-11-06,22.906642,120.182608,0.5419695
C0V640,湖內,2023-11-06,22.887139,120.2445,0.47902384
C0V650,彌陀,2023-11-06,22.783806,120.246361,0.52628994
C0V660,岡山,2023-11-06,22.797078,120.294958,0.46676156
C0V680,仁武,2023-11-06,22.701083,120.347722,0.4209637
C0V690,鼓山,2023-11-06,22.623325,120.275575,0.68349
C0V700,三民,2023-11-06,22.645017,120.311233,0.51383823
C0V710,苓雅,2023-11-06,22.622742,120.330669,0.56021804
C0V720,林園,2023-11-06,22.507747,120.394511,0.6167542
C0V730,大寮,2023-11-06,22.605614,120.395717,0.14396313
C0V740,旗山,2023-11-06,22.888614,120.483597,0.78632855
C0V750,路竹,2023-11-06,22.854997,120.259439,0.54251665
C0V760,橋頭,2023-11-06,22.757806,120.30575,0.4798426
C0V770,大社,2023-11-06,22.730306,120.346639,0.44221
C0V790,萬山,2023-11-06,22.905944,120.688056,0.1513405
C0V800,六龜,2023-11-06,22.997889,120.633583,0.12685356
C0V810,左營,2023-11-06,22.67491,120.28491,0.44435033
C0V820,小林,2023-11-06,23.148408,120.63325,0.12781718
C0V840,鳳鼻頭,2023-11-06,22.5083,120.3591,0.6108999
C0V850,蚵仔寮,2023-11-06,22.7256,120.2527,0.5604715
C0V860,南寮,2023-11-06,22.7616,120.2339,0.5759167
C0V870,文安,2023-11-06,22.8025,120.2164,0.678426
C0V880,興達,2023-11-06,22.8778,120.2127,0.5419695
C0V890,前鎮,2023-11-06,22.5718,120.3117,0.63913107
C0V900,汕尾,2023-11-06,22.4782,120.4151,0.69578665
C0X050,東河,2023-11-06,23.296598,120.385608,0.8165317
C0X060,下營,2023-11-06,23.22695,120.256261,0.6105264
C0X080,佳里,2023-11-06,23.173039,120.145086,0.51012653
C0X100,臺南市北區,2023-11-06,23.010394,120.194228,0.5211723
C0X110,臺南市南區,2023-11-06,22.961189,120.188378,0.54951036
C0X120,麻豆,2023-11-06,23.183289,120.248611,0.49766478
C0X130,官田,2023-11-06,23.193217,120.315422,0.6647529
C0X140,西港,2023-11-06,23.125608,120.203108,0.4896666
C0X150,安定,2023-11-06,23.102614,120.227839,0.50066006
C0X160,仁德,2023-11-06,22.968258,120.257689,0.6200982
C0X170,關廟,2023-11-06,22.963017,120.327797,0.7014757
C0X180,山上,2023-11-06,23.0757,120.363253,0.74158776
C0X190,安平,2023-11-06,22.993161,120.152181,0.6184875
C0X200,左鎮,2023-11-06,23.056758,120.408522,0.7211768
C0X210,白河,2023-11-06,23.347466,120.414427,0.76742065
C0X220,學甲,2023-11-06,23.230367,120.182187,0.44893438
C0X230,鹽水,2023-11-06,23.272621,120.247641,0.55800277
C0X240,關子嶺,2023-11-06,23.331169,120.508025,0.30672175
C0X250,新營,2023-11-06,23.310689,120.316681,0.68854433
C0X260,後壁,2023-11-06,23.366358,120.362326,0.7360181
C0X280,將軍,2023-11-06,23.214999,120.13577,0.53827155
C0X290,北門,2023-11-06,23.267772,120.125481,0.6047007
C0X300,鹿寮,2023-11-06,23.386047,120.477331,0.31663078
C0X310,七股,2023-11-06,23.147289,120.086253,0.7558909
C0X320,柳營,2023-11-06,23.253328,120.375253,0.82646924
C0Z020,明里,2023-11-06,23.208717,121.262342,0.94506794
C0Z061,玉里,2023-11-06,23.3215,121.339656,0.9745581
C0Z070,舞鶴,2023-11-06,23.46811,121.37407,0.86785364
C0Z080,富源,2023-11-06,23.587642,121.378225,0.7499383
C0Z100,東華,2023-11-06,23.89525,121.549833,0.7845824
C0Z150,吉安光華,2023-11-06,23.930925,121.595153,0.4596053
C0Z160,鳳林,2023-11-06,23.746114,121.453411,0.83631164
C0Z170,卓溪,2023-11-06,23.3443,121.3029,0.96730155
C0Z180,新城,2023-11-06,24.03946,121.60454,0.887332
C0Z190,富世,2023-11-06,24.14743,121.6297,0.61666393
C0Z200,萬榮,2023-11-06,23.709219,121.420106,0.89981955
C0Z210,瑞穗,2023-11-06,23.5239,121.39021,0.8475153
C0Z230,和平,2023-11-06,24.30717,121.77007,0.0077554528
C0Z270,蕃薯寮,2023-11-06,23.73835,121.540108,0.8622652
C0Z280,德武,2023-11-06,23.47426,121.41071,0.84189343
C0Z300,東里,2023-11-06,23.26853,121.30547,0.9639332
C0Z310,清水斷崖,2023-11-06,24.218294,121.689142,0.12291262
C0Z330,安通山,2023-11-06,23.290728,121.348528,0.932226
CAG100,王功漁港,2023-11-06,23.96824,120.32586,0.7535045
CAH030,茶改場竹圍站,2023-11-06,23.860083,120.637528,0.27243415
CAJ050,海口故事園區,2023-11-06,23.57543,120.14121,0.7922871
CAL110,布袋國中,2023-11-06,23.35893,120.18026,0.6121264
CAN130,水試所海水繁養殖中心,2023-11-06,23.120802,120.07968,0.6887068
CAN140,六官養殖協會,2023-11-06,23.22881,120.29962,0.65388983
CAQ030,崎峰國小,2023-11-06,22.42565,120.49521,0.63983816
E2K600,四湖植物園,2023-11-06,23.676986,120.163433,0.81703275
E2P980,林試六龜中心,2023-11-06,22.991703,120.645722,0.13021861
E2S960,林試太麻里2,2023-11-06,22.598014,120.989761,0.2370297
E2S980,林試太麻里1,2023-11-06,22.598922,120.980044,0.32396835
G2AI50,關渡,2023-11-06,25.11575,121.492,0.022796767
G2F820,農業試驗所,2023-11-06,24.031261,120.688133,0.5340656
G2F820,農試所(霧峰),2023-11-06,24.031261,120.688133,0.5340656
G2L020,農試嘉義分所,2023-11-06,23.485028,120.473806,0.36601016
G2M350,農試溪口農場,2023-11-06,23.58565,120.408111,0.7826273
G2P820,農試鳳山分所,2023-11-06,22.646611,120.356083,0.5234398
K2E360,苗栗農改,2023-11-06,24.495722,120.829111,0.13743967
K2E360,苗栗農改場,2023-11-06,24.495722,120.829111,0.13743967
K2E710,苗改生物防治研究中心,2023-11-06,24.422861,120.871833,0.26404372
K2F750,種苗改良場,2023-11-06,24.225972,120.800917,0.22070117
K2F750,種苗繁殖,2023-11-06,24.225972,120.800917,0.22070117
U2HA50,臺大竹山,2023-11-06,23.756972,120.681556,0.20394328
V2C250,八德合作社,2023-11-06,24.93775,121.266389,0.026181156
V2C260,八德蔬果,2023-11-06,24.978508,121.281819,0.03408745
V2K610,大庄合作社,2023-11-06,23.8068,120.367939,0.79765016
V2K620,麥寮合作社,2023-11-06,23.753836,120.294783,0.7875845
