站號,站名,日期,lat,lon,BlastGRU-TW
466881,新北,2023-08-28,24.9593,121.52,0.4922016
466900,淡水,2023-08-28,25.164889,121.448906,0.6238149
466920,臺北,2023-08-28,25.037658,121.514853,0.4733994
467350,澎湖,2023-08-28,23.565503,119.563094,0.92969614
467410,臺南,2023-08-28,22.993239,120.204772,0.057350803
467420,永康,2023-08-28,23.038386,120.2367,0.055749785
467790,墾丁雷達站,2023-08-28,21.948235,120.808028,0.9937758
C0A520,山佳,2023-08-28,24.974944,121.402008,0.6176961
C0A530,坪林,2023-08-28,24.938183,121.70975,0.1650509
C0A880,福隆,2023-08-28,25.017842,121.942083,0.08358473
C0A890,雙溪,2023-08-28,25.036003,121.864242,0.52614087
C0A920,富貴角,2023-08-28,25.263783,121.565258,0.7243759
C0AC80,文山,2023-08-28,25.00235,121.575728,0.5281703
C0ACA0,新莊,2023-08-28,25.051478,121.446756,0.59262335
C0AD00,三芝,2023-08-28,25.258131,121.501917,0.7133133
C0AH70,松山,2023-08-28,25.04871,121.55042,0.4733994
C0AH80,深坑,2023-08-28,25.002703,121.628328,0.5281703
C0AI00,五股,2023-08-28,25.07445,121.42728,0.8214992
C0AJ70,田寮,2023-08-28,25.2698,121.4886,0.63811356
