站號,站名,日期,lat,lon,BlastGRU-TW
12J990,口湖工作站,2023-03-24,23.589978,120.180394,0.004617858
12Q970,東港工作站,2023-03-24,22.479997,120.466058,0.024754304
12Q980,恆春工作站,2023-03-24,22.079678,120.714425,8.571402e-05
466881,新北,2023-03-24,24.9593,121.52,0.0030665188
466900,淡水,2023-03-24,25.164889,121.448906,0.0010625148
466920,臺北,2023-03-24,25.037658,121.514853,0.002282305
466940,基隆,2023-03-24,25.133314,121.740475,0.0014808226
466990,花蓮,2023-03-24,23.975128,121.613275,0.023294277
467050,新屋,2023-03-24,25.006744,121.047486,0.0014582644
467060,蘇澳,2023-03-24,24.596736,121.857372,0.011899779
467080,宜蘭,2023-03-24,24.763975,121.756528,0.00111376
467270,田中,2023-03-24,23.873803,120.581286,0.0022692387
467300,東吉島,2023-03-24,23.25695,119.667467,0.0012238923
467350,澎湖,2023-03-24,23.565503,119.563094,0.001466131
467410,臺南,2023-03-24,22.993239,120.204772,0.023678964
467420,永康,2023-03-24,23.038386,120.2367,0.02503189
467441,高雄,2023-03-24,22.7304,120.3125,0.01080756
467480,嘉義,2023-03-24,23.495925,120.432906,0.0029267152
467490,臺中,2023-03-24,24.145736,120.684075,0.0028408195
467540,大武,2023-03-24,22.355675,120.903789,0.0034093454
467571,新竹,2023-03-24,24.827853,121.014219,0.0020391042
467590,恆春,2023-03-24,22.003897,120.746339,9.228217e-05
467610,成功,2023-03-24,23.097486,121.373428,0.027811619
467620,蘭嶼,2023-03-24,22.036969,121.558339,0.0016244529
467660,臺東,2023-03-24,22.752211,121.154586,0.04851668
467790,墾丁雷達站,2023-03-24,21.948235,120.808028,0.00011057458
72AI40,桃改臺北分場,2023-03-24,24.944503,121.386972,0.0024716023
72C440,桃園農改,2023-03-24,24.950944,121.030583,0.0015657054
72C440,桃園農改場,2023-03-24,24.950944,121.030583,0.0015657054
72D680,新埔,2023-03-24,24.834444,121.066111,0.001698732
72D680,桃園農改場新埔工作站,2023-03-24,24.834444,121.066111,0.001698732
72G600,臺中農改,2023-03-24,24.003028,120.534389,0.0035097902
72G600,臺中農改場,2023-03-24,24.003028,120.534389,0.0035097902
72K220,雲林分場,2023-03-24,23.634556,120.477333,0.0026918473
72L140,朴子分場,2023-03-24,23.4982,120.2414,0.00593777
72M360,義竹分場,2023-03-24,23.360694,120.279361,0.012023222
72M360,義竹工作站,2023-03-24,23.360694,120.279361,0.012023222
72M700,嘉義分場,2023-03-24,23.416869,120.283061,0.01060397
72N100,臺南農改,2023-03-24,23.0605,120.342194,0.015229329
72N100,臺南農改場,2023-03-24,23.0605,120.342194,0.015229329
72N240,七股研究中心,2023-03-24,23.081672,120.062894,0.0067445966
72Q010,高雄農改,2023-03-24,22.709333,120.525889,0.04139907
72Q010,高雄農改場,2023-03-24,22.709333,120.525889,0.041398976
72S200,斑鳩分場,2023-03-24,22.829528,121.077694,0.0070589078
72S590,賓朗果園,2023-03-24,22.813889,121.071278,0.005053248
72S590,賓朗農改,2023-03-24,22.813889,121.071278,0.005053248
72T250,花蓮農改,2023-03-24,23.975222,121.563889,0.019041214
72T250,花蓮農改場,2023-03-24,23.975222,121.563889,0.019041214
72U480,蘭陽分場,2023-03-24,24.686306,121.716583,0.00246524
72V140,旗南,2023-03-24,22.857861,120.516667,0.031693414
72V140,旗南農改,2023-03-24,22.857861,120.516667,0.031693414
82A750,文山分場,2023-03-24,24.955778,121.631222,0.0019037168
82A750,文山茶改,2023-03-24,24.955778,121.631222,0.0019037168
82C160,茶改場(楊梅),2023-03-24,24.908472,121.185333,0.001113173
82C160,茶改場,2023-03-24,24.908472,121.185333,0.001113173
82H840,凍頂工作站,2023-03-24,23.762528,120.7405,0.0011903861
82H840,凍頂茶改,2023-03-24,23.762528,120.7405,0.0011903861
82S580,臺東茶改,2023-03-24,22.907694,121.130139,0.0063375346
82S580,龍田,2023-03-24,22.907694,121.130139,0.0063375435
A0K420,麥寮,2023-03-24,23.7988,120.2177,0.0039947117
A0W080,吉貝,2023-03-24,23.74,119.6042,0.0017104449
A2C560,農工中心,2023-03-24,24.985917,121.239833,0.0016680141
A2K360,臺西分所,2023-03-24,23.717231,120.190522,0.003933837
A2K360,臺西水試所,2023-03-24,23.717231,120.190522,0.003933837
A2K570,古坑(花卉中心),2023-03-24,23.633531,120.552392,0.0028420568
A2K570,古坑花卉中心,2023-03-24,23.63353,120.55239,0.0028420568
A2K630,臺大雲林校區,2023-03-24,23.730628,120.423903,0.0032264306
A2N290,臺南蘭花園區,2023-03-24,23.340258,120.379661,0.0090100905
B2E890,新竹畜試,2023-03-24,24.527806,120.770972,0.0017805743
B2N890,畜產試驗所,2023-03-24,23.058972,120.336406,0.015229329
B2N890,畜試所,2023-03-24,23.058972,120.336406,0.015229329
B2Q810,恆春分所,2023-03-24,21.945583,120.802167,9.95646e-05
B2Q810,恆春畜試,2023-03-24,21.945583,120.802167,9.95646e-05
B2U990,宜蘭畜試,2023-03-24,24.669039,121.832561,0.0038631049
C0A520,山佳,2023-03-24,24.974944,121.402008,0.0024716023
C0A530,坪林,2023-03-24,24.938183,121.70975,0.0011900244
C0A540,四堵,2023-03-24,24.8926,121.745736,0.0021429525
C0A550,泰平,2023-03-24,24.971197,121.823711,0.0023107997
C0A560,福山,2023-03-24,24.776203,121.502811,0.0018257595
C0A570,桶後,2023-03-24,24.848222,121.597992,0.0013457085
C0A640,石碇,2023-03-24,24.993969,121.662917,0.0012074342
C0A650,火燒寮,2023-03-24,25.002719,121.742892,0.0012055265
C0A660,瑞芳,2023-03-24,25.113169,121.801147,0.0016035816
C0A770,科教館,2023-03-24,25.096356,121.516507,0.0015885851
C0A860,大坪,2023-03-24,25.165914,121.632969,0.0011951745
C0A880,福隆,2023-03-24,25.017842,121.942083,0.0033045667
C0A890,雙溪,2023-03-24,25.036003,121.864242,0.00280823
C0A920,富貴角,2023-03-24,25.263783,121.565258,0.0023904312
C0A931,三和,2023-03-24,25.233153,121.595236,0.0009778073
C0A940,金山,2023-03-24,25.223628,121.643967,0.002963491
C0A950,鼻頭角,2023-03-24,25.129036,121.923372,0.0031827043
C0A970,三貂角,2023-03-24,25.007606,122.002058,0.0020893596
C0A980,社子,2023-03-24,25.109508,121.469681,0.0015691784
C0A9C0,天母,2023-03-24,25.117494,121.537169,0.003038293
C0A9F0,內湖,2023-03-24,25.079422,121.57545,0.0035878501
C0AC60,三峽,2023-03-24,24.939025,121.369728,0.0030098583
C0AC70,信義,2023-03-24,25.037822,121.564597,0.0030237786
C0AC80,文山,2023-03-24,25.00235,121.575728,0.0029024913
C0ACA0,新莊,2023-03-24,25.051478,121.446756,0.0013651813
C0AD00,三芝,2023-03-24,25.258131,121.501917,0.0016908427
C0AD10,八里,2023-03-24,25.150211,121.403947,0.0015143739
C0AD30,蘆洲,2023-03-24,25.086594,121.472331,0.0015885851
C0AD40,土城,2023-03-24,24.973208,121.445169,0.0023720046
C0AD50,鶯歌,2023-03-24,24.951533,121.346294,0.0013412571
C0AG80,中和,2023-03-24,24.991622,121.491792,0.0024995937
C0AH00,汐止,2023-03-24,25.066881,121.658778,0.0022513375
C0AH10,永和,2023-03-24,25.01125,121.508111,0.0024851048
C0AH40,平等,2023-03-24,25.129142,121.577086,0.0012322447
C0AH50,林口,2023-03-24,25.072181,121.38084,0.00084314024
C0AH70,松山,2023-03-24,25.04871,121.55042,0.0030237786
C0AH80,深坑,2023-03-24,25.002703,121.628328,0.0038744484
C0AI00,五股,2023-03-24,25.07445,121.42728,0.0018958849
C0AI10,屈尺,2023-03-24,24.92184,121.54475,0.0036499246
C0AI20,白沙灣,2023-03-24,25.283128,121.519058,0.0015597712
C0AI30,三重,2023-03-24,25.057328,121.500629,0.0016158652
C0AI40,石牌,2023-03-24,25.115597,121.513139,0.0016100946
C0AJ10,澳底,2023-03-24,25.057107,121.927272,0.0031152056
C0AJ20,野柳,2023-03-24,25.20703,121.690021,0.0020788487
C0AJ30,淡水觀海,2023-03-24,25.184591,121.408616,0.0013815383
C0AJ40,石門,2023-03-24,25.273672,121.601198,0.0015871269
C0AJ50,水湳洞,2023-03-24,25.123695,121.862238,0.0025353234
C0AJ60,六塊厝,2023-03-24,25.24,121.4481,0.0016008889
C0AJ70,田寮,2023-03-24,25.2698,121.4886,0.0019051199
C0AJ80,板橋,2023-03-24,25.0107,121.4489,0.0019652161
C0B010,七堵,2023-03-24,25.094819,121.71713,0.0025910644
C0B020,基隆嶼,2023-03-24,25.19141,121.78391,0.0011193148
C0B040,大武崙,2023-03-24,25.166676,121.706993,0.0025507668
C0B050,八斗子,2023-03-24,25.144754,121.79167,0.001009916
C0B060,暖暖,2023-03-24,25.0957,121.7403,0.0023684269
C0C460,復興,2023-03-24,24.820208,121.352281,0.0012863134
C0C480,桃園,2023-03-24,24.992425,121.323172,0.0018463457
C0C490,八德,2023-03-24,24.928708,121.283289,0.0022025346
C0C590,觀音,2023-03-24,25.027072,121.153317,0.0013268605
C0C620,蘆竹,2023-03-24,25.084275,121.265767,0.0015572181
C0C630,大溪,2023-03-24,24.882853,121.265547,0.0014532654
C0C650,平鎮,2023-03-24,24.897503,121.214636,0.001113173
C0C660,楊梅,2023-03-24,24.912375,121.143047,0.001314687
C0C670,龍潭,2023-03-24,24.870056,121.221389,0.00084663223
C0C680,龜山,2023-03-24,25.02846,121.38656,0.00086535787
C0C700,中壢,2023-03-24,24.977661,121.256375,0.0018759802
C0C710,大溪永福,2023-03-24,24.892936,121.324975,0.0013768333
C0C720,竹圍,2023-03-24,25.112692,121.239824,0.0015783124
C0C730,中大臨海站,2023-03-24,24.966126,121.008581,0.001565639
C0C740,觀音工業區,2023-03-24,25.064764,121.114856,0.0014202888
C0C750,新興坑尾,2023-03-24,25.0061,121.0971,0.0013796227
C0D390,關西,2023-03-24,24.7977,121.1732,0.0011899485
C0D430,峨眉,2023-03-24,24.6905,121.017189,0.0016678823
C0D480,打鐵坑,2023-03-24,24.849664,121.150789,0.0009070963
C0D540,橫山,2023-03-24,24.71116,121.11693,0.0011799808
C0D560,竹東,2023-03-24,24.767147,121.057881,0.0013741481
C0D580,寶山,2023-03-24,24.735006,121.025192,0.0017477783
C0D590,新豐,2023-03-24,24.87068,120.97721,0.0015657174
C0D650,湖口,2023-03-24,24.904794,121.043628,0.001585562
C0D660,新竹市東區,2023-03-24,24.798681,120.986942,0.0020270436
C0D670,海天一線,2023-03-24,24.831986,120.914438,0.0015050032
C0D680,香山濕地,2023-03-24,24.783581,120.914988,0.0015390071
C0D690,外湖,2023-03-24,24.917735,120.968711,0.001783711
C0E420,竹南,2023-03-24,24.708978,120.888897,0.0014317598
C0E430,南庄,2023-03-24,24.601775,121.000214,0.0012090097
C0E520,大湖,2023-03-24,24.41494,120.87087,0.0009812149
C0E540,後龍,2023-03-24,24.606489,120.783933,0.0016151484
C0E550,明德,2023-03-24,24.583486,120.885411,0.0015268677
C0E590,通霄,2023-03-24,24.471892,120.704622,0.0021157144
C0E730,頭份,2023-03-24,24.688247,120.912206,0.0013724981
C0E740,造橋,2023-03-24,24.637056,120.864778,0.0017331707
C0E750,苗栗,2023-03-24,24.564569,120.824575,0.0014029138
C0E780,銅鑼,2023-03-24,24.489681,120.790853,0.0019127021
C0E791,卓蘭,2023-03-24,24.3126,120.8244,0.0010945257
C0E810,西湖,2023-03-24,24.562947,120.7485,0.0015519136
C0E820,獅潭,2023-03-24,24.539133,120.920042,0.0013245916
C0E830,苑裡,2023-03-24,24.439714,120.653053,0.0021113448
C0E850,大河,2023-03-24,24.618069,120.948578,0.0014254785
C0E870,高鐵苗栗,2023-03-24,24.60725,120.826094,0.0015685355
C0E910,海埔,2023-03-24,24.648767,120.772435,0.0016151661
C0E920,通霄漁港,2023-03-24,24.498589,120.673876,0.002360998
C0E930,龍鳳,2023-03-24,24.700034,120.859125,0.0019020686
C0F000,大肚,2023-03-24,24.15295,120.572117,0.0012719537
C0F0B0,石岡,2023-03-24,24.276061,120.777644,0.0014468184
C0F850,東勢,2023-03-24,24.246428,120.833047,0.0012622777
C0F930,大甲,2023-03-24,24.347667,120.640403,0.0030481566
C0F970,大坑,2023-03-24,24.173142,120.722289,0.0031779173
C0F9A0,中竹林,2023-03-24,24.103556,120.751061,0.0016221846
C0F9I0,神岡,2023-03-24,24.272481,120.658314,0.0019891802
C0F9K0,大安,2023-03-24,24.345061,120.588025,0.0031327042
C0F9L0,后里,2023-03-24,24.310436,120.729725,0.0015727686
C0F9M0,豐原,2023-03-24,24.254322,120.720692,0.0019061321
C0F9N0,大里,2023-03-24,24.092464,120.701378,0.0032126175
C0F9O0,潭子,2023-03-24,24.213106,120.703933,0.0028061862
C0F9P0,清水,2023-03-24,24.312297,120.562242,0.00404348
C0F9Q0,外埔,2023-03-24,24.347817,120.705686,0.0025124971
C0F9R0,龍井,2023-03-24,24.184536,120.528972,0.0036661988
C0F9S0,烏日,2023-03-24,24.107058,120.624103,0.0032304742
C0F9T0,西屯,2023-03-24,24.179494,120.641275,0.0038989931
C0F9U0,南屯,2023-03-24,24.137006,120.637969,0.0036856653
C0F9X0,大雅(中科園區),2023-03-24,24.21528,120.62445,0.0027681394
C0FA10,松柏,2023-03-24,24.429115,120.617482,0.0023895008
C0FA20,溫寮,2023-03-24,24.372177,120.583125,0.002260983
C0FA30,梧棲,2023-03-24,24.256003,120.523381,0.0030797326
C0FA40,臺中電廠,2023-03-24,24.2146,120.4907,0.0036661988
C0FA50,霧峰,2023-03-24,24.0419,120.6995,0.002513128
C0G620,芬園,2023-03-24,24.015678,120.6213,0.0024585905
C0G640,鹿港,2023-03-24,24.0753,120.430481,0.0045936196
C0G650,員林,2023-03-24,23.946503,120.585597,0.0019293111
C0G660,溪湖,2023-03-24,23.94835,120.479122,0.0033140287
C0G720,溪州,2023-03-24,23.851589,120.499093,0.0029566558
C0G730,二林,2023-03-24,23.903325,120.376081,0.0047946163
C0G740,大城,2023-03-24,23.852487,120.320935,0.0057036923
C0G770,福興,2023-03-24,24.041289,120.437669,0.0050439783
C0G780,秀水,2023-03-24,24.03405,120.503869,0.004112934
C0G800,埔鹽,2023-03-24,24.000394,120.431683,0.0052051344
C0G810,埔心,2023-03-24,23.947633,120.525456,0.0032654516
C0G820,田尾,2023-03-24,23.901669,120.509389,0.0031342623
C0G830,埤頭,2023-03-24,23.866003,120.452806,0.0029536982
C0G840,北斗,2023-03-24,23.877586,120.514222,0.0031342623
C0G860,社頭,2023-03-24,23.897647,120.5862,0.0019425888
C0G870,芳苑,2023-03-24,23.922303,120.320025,0.0052992073
C0G880,二水,2023-03-24,23.810742,120.6173,0.0026773303
C0G890,伸港,2023-03-24,24.148933,120.484403,0.0047189314
C0G900,線西,2023-03-24,24.143358,120.443536,0.0035016045
C0G910,花壇,2023-03-24,24.032076,120.549461,0.003586459
C0G920,永靖,2023-03-24,23.924703,120.547533,0.0031895938
C0G940,竹塘,2023-03-24,23.848253,120.386764,0.0034454197
C0G950,防潮門,2023-03-24,24.1835,120.4871,0.0038497106
C0G960,福寶,2023-03-24,24.0443,120.3814,0.003974519
C0G970,三豐,2023-03-24,23.882,120.2895,0.0052992073
C0H890,埔里,2023-03-24,23.972169,120.952425,0.002533649
C0H950,中寮,2023-03-24,23.884447,120.766406,0.0019875595
C0H960,草屯,2023-03-24,23.973672,120.68085,0.0024759832
C0I110,竹山,2023-03-24,23.761225,120.688156,0.0021369522
C0I360,水里,2023-03-24,23.812553,120.849792,0.0019585209
C0I380,集集,2023-03-24,23.828206,120.801467,0.0021767707
C0I410,名間,2023-03-24,23.837053,120.701447,0.0025014814
C0I420,國姓,2023-03-24,24.037803,120.855072,0.0017780198
C0I460,南投,2023-03-24,23.911469,120.687331,0.0023440311
C0K250,崙背,2023-03-24,23.75555,120.318925,0.004767877
C0K280,四湖,2023-03-24,23.630414,120.227125,0.0038416097
C0K291,宜梧,2023-03-24,23.536281,120.169329,0.0060763215
C0K330,虎尾,2023-03-24,23.719183,120.442036,0.0032968912
C0K390,土庫,2023-03-24,23.679029,120.395574,0.0032641666
C0K400,斗六,2023-03-24,23.720583,120.541127,0.002639852
C0K410,北港,2023-03-24,23.573957,120.292802,0.0063844994
C0K420,西螺,2023-03-24,23.800407,120.467394,0.0023519539
C0K430,褒忠,2023-03-24,23.690938,120.303634,0.0068676276
C0K440,二崙,2023-03-24,23.772797,120.408944,0.0032735395
C0K450,大埤,2023-03-24,23.646074,120.431537,0.0029922272
C0K460,斗南,2023-03-24,23.678734,120.478359,0.002434389
C0K470,林內,2023-03-24,23.748675,120.609642,0.00287736
C0K480,莿桐,2023-03-24,23.761192,120.502372,0.0025108506
C0K500,元長,2023-03-24,23.64981,120.315024,0.0052063614
C0K510,水林,2023-03-24,23.572924,120.24597,0.004456877
C0K530,臺西,2023-03-24,23.701547,120.197559,0.0038645456
C0K550,蔦松,2023-03-24,23.514319,120.229736,0.00593777
C0K560,棋山,2023-03-24,23.68645,120.603417,0.002967835
C0K580,高鐵雲林,2023-03-24,23.737456,120.417944,0.0032264306
C0K590,雲林東勢,2023-03-24,23.674192,120.255721,0.0066271634
C0K600,箔子寮,2023-03-24,23.6197,120.14,0.0043695867
C0M410,馬頭山,2023-03-24,23.324361,120.582017,0.0045332992
C0M520,東後寮,2023-03-24,23.369908,120.248065,0.008231717
C0M640,中埔,2023-03-24,23.42538,120.5229,0.003485176
C0M650,朴子,2023-03-24,23.43463,120.23902,0.0075937216
C0M660,溪口,2023-03-24,23.604131,120.403569,0.0026687332
C0M670,大林,2023-03-24,23.600616,120.45841,0.001975668
C0M680,太保,2023-03-24,23.455062,120.331455,0.010879793
C0M690,水上,2023-03-24,23.419734,120.388909,0.004455705
C0M700,竹崎,2023-03-24,23.526178,120.555508,0.0022195547
C0M710,東石,2023-03-24,23.458927,120.15385,0.00617507
C0M720,番路,2023-03-24,23.464657,120.554156,0.0025555345
C0M730,嘉義市東區,2023-03-24,23.457673,120.460531,0.0019906757
C0M740,六腳,2023-03-24,23.492871,120.290625,0.011257754
C0M750,布袋,2023-03-24,23.380878,120.167789,0.007740891
C0M760,民雄,2023-03-24,23.551754,120.428457,0.0027602622
C0M770,嘉義梅山,2023-03-24,23.585398,120.555587,0.0028039105
C0M780,鹿草,2023-03-24,23.41134,120.30835,0.010321579
C0M790,新港,2023-03-24,23.553269,120.345728,0.006187188
C0M800,茶山,2023-03-24,23.299075,120.664767,0.0052599614
C0M880,好美里,2023-03-24,23.3364,120.138,0.007686848
C0N010,鯤鯓國小,2023-03-24,23.1879,120.0889,0.005850526
C0N020,城西,2023-03-24,23.0568,120.0956,0.007619962
C0N030,四草,2023-03-24,23.0235,120.1116,0.015114422
C0N040,蘆竹溝,2023-03-24,23.2344,120.0961,0.006586108
C0N050,蚵寮,2023-03-24,23.301,120.1104,0.006685909
C0O810,曾文,2023-03-24,23.219681,120.497328,0.0063897646
C0O830,北寮,2023-03-24,23.079561,120.495008,0.01244725
C0O840,王爺宮,2023-03-24,23.222064,120.40085,0.0057970607
C0O860,大內,2023-03-24,23.11885,120.36083,0.016453855
C0O900,善化,2023-03-24,23.112883,120.297219,0.0167349
C0O930,玉井,2023-03-24,23.126042,120.46055,0.014373693
C0O950,安南,2023-03-24,23.076694,120.144861,0.0075712916
C0O960,崎頂,2023-03-24,22.959547,120.369317,0.015069401
C0O970,虎頭埤,2023-03-24,23.021375,120.347878,0.041068725
C0O980,新市,2023-03-24,23.061614,120.298197,0.016932875
C0O990,媽廟,2023-03-24,22.99175,120.293525,0.044034395
C0R150,三地門,2023-03-24,22.709889,120.639944,0.05668118
C0R160,鹽埔,2023-03-24,22.739558,120.530778,0.0369771
C0R170,屏東,2023-03-24,22.660269,120.494072,0.08769871
C0R190,赤山,2023-03-24,22.592333,120.614306,0.02569471
C0R220,潮州,2023-03-24,22.534361,120.54,0.043239173
C0R240,來義,2023-03-24,22.527306,120.625111,0.09204811
C0R260,春日,2023-03-24,22.370361,120.628306,0.08921112
C0R270,琉球嶼,2023-03-24,22.332244,120.362236,0.08703969
C0R280,檳榔,2023-03-24,22.076078,120.836777,0.00019686078
C0R320,車城,2023-03-24,22.0744,120.716247,8.571402e-05
C0R341,牡丹,2023-03-24,22.130036,120.792639,0.1161281
C0R350,貓鼻頭,2023-03-24,21.921774,120.7358,9.4627874e-05
C0R470,高樹,2023-03-24,22.826389,120.600806,0.055319685
C0R480,長治,2023-03-24,22.693128,120.542622,0.042732563
C0R490,九如,2023-03-24,22.7405,120.490503,0.07664557
C0R520,崁頂,2023-03-24,22.514781,120.506914,0.029357867
C0R540,佳冬,2023-03-24,22.419456,120.552375,0.035205305
C0R550,新埤,2023-03-24,22.467947,120.582894,0.032135084
C0R560,新園,2023-03-24,22.5434,120.461558,0.02466433
C0R570,麟洛,2023-03-24,22.65078,120.52719,0.083777316
C0R580,南州,2023-03-24,22.48591,120.50274,0.03156418
C0R590,里港,2023-03-24,22.77919,120.49459,0.037691
C0R620,墾雷,2023-03-24,21.900836,120.855269,0.00010482289
C0R640,東港,2023-03-24,22.46247,120.44074,0.012743034
C0R650,竹田,2023-03-24,22.58486,120.54344,0.03981315
C0R660,枋寮,2023-03-24,22.367722,120.590647,0.03887537
C0R670,楓港,2023-03-24,22.190131,120.692156,0.27902257
C0R680,佳樂水,2023-03-24,21.993578,120.861633,9.95646e-05
C0R690,墾丁,2023-03-24,21.966756,120.810269,0.00021101903
C0R700,枋山,2023-03-24,22.246844,120.661086,0.27902257
C0R710,龍磐,2023-03-24,21.931672,120.838942,0.00013396525
C0R720,旭海,2023-03-24,22.205403,120.887614,0.0037773114
C0R730,大坪頂,2023-03-24,22.024633,120.69355,0.00013496882
C0R740,獅子,2023-03-24,22.201569,120.70525,0.25220543
C0R760,南仁湖,2023-03-24,22.084681,120.863353,0.00026169783
C0R770,保力,2023-03-24,22.071122,120.764111,0.000119466255
C0R780,滿州,2023-03-24,22.024403,120.839892,0.00010776772
C0R790,九棚,2023-03-24,22.14195,120.889281,0.004073806
C0R800,丹路,2023-03-24,22.204481,120.750989,0.1310151
C0R810,內獅,2023-03-24,22.305064,120.642986,0.10002598
C0R830,高士,2023-03-24,22.121825,120.836781,0.00031850836
C0R850,林邊,2023-03-24,22.4634,120.5339,0.034192093
C0R860,鼻頭,2023-03-24,22.1043,120.8979,0.00017319534
C0R870,興海,2023-03-24,21.9752,120.8439,9.95646e-05
C0R880,後壁湖,2023-03-24,21.9457,120.7457,8.383448e-05
C0R890,山海,2023-03-24,21.9878,120.7091,8.571402e-05
C0R900,竹坑,2023-03-24,22.1385,120.7022,0.3400231
C0R910,下寮,2023-03-24,22.3929,120.5548,0.035455536
C0R920,塭仔,2023-03-24,22.4169,120.5197,0.030868374
C0R930,萬丹,2023-03-24,22.5885,120.4851,0.031191237
C0R940,加祿堂,2023-03-24,22.3363,120.6217,0.10002598
C0S710,鹿野,2023-03-24,22.917711,121.122994,0.00826266
C0S730,綠島,2023-03-24,22.6672,121.47533,0.037196808
C0S740,池上,2023-03-24,23.119628,121.209469,0.0107298065
C0S770,大溪山,2023-03-24,22.478475,120.943325,0.008043883
C0S790,金崙,2023-03-24,22.538122,120.966875,0.011053788
C0S810,東河,2023-03-24,22.972672,121.303986,0.052358814
C0S830,長濱,2023-03-24,23.286817,121.411975,0.003358723
C0S840,南田,2023-03-24,22.279725,120.889208,0.003031619
C0S890,關山,2023-03-24,23.0395,121.175017,0.002415127
C0S900,蘭嶼高中,2023-03-24,22.04909,121.51214,0.0009471128
C0S910,蘭嶼燈塔,2023-03-24,22.081197,121.503117,0.0011909283
C0S920,金峰嘉蘭,2023-03-24,22.594789,120.960825,0.037943672
C0S930,延平,2023-03-24,22.902581,121.084058,0.0030011355
C0S940,石寧山,2023-03-24,23.223772,121.406639,0.009086528
C0S950,七塊厝,2023-03-24,22.954453,121.229922,0.009520435
C0S960,香蘭,2023-03-24,22.587569,120.993375,0.039622407
C0S970,加津林,2023-03-24,22.416211,120.926942,0.0065527386
C0S990,山豬窟,2023-03-24,22.318619,120.857372,0.0015802574
C0SA00,歷坵,2023-03-24,22.520969,120.89185,0.008421901
C0SA10,檳榔四格山,2023-03-24,22.810031,121.109308,0.0042910557
C0SA30,都歷,2023-03-24,23.020333,121.323642,0.021260897
C0SA40,瑞和,2023-03-24,22.974361,121.156697,0.0032555258
C0SA60,知本（水試所）,2023-03-24,22.702394,121.082761,0.021738961
C0SA80,土坂,2023-03-24,22.453108,120.887572,0.021001803
C0SA90,達仁林場,2023-03-24,22.264347,120.823972,0.0135825975
C0T870,鯉魚潭,2023-03-24,23.935639,121.508944,0.0267807
C0T900,西林,2023-03-24,23.8119,121.441458,0.022962367
C0T960,光復,2023-03-24,23.660694,121.424964,0.017054593
C0T9A0,月眉山,2023-03-24,23.809928,121.539828,0.010990721
C0T9D0,和中,2023-03-24,24.26676,121.74103,0.0041715535
C0T9E0,大坑,2023-03-24,23.880628,121.581981,0.016345963
C0T9F0,水璉,2023-03-24,23.797131,121.542514,0.020213831
C0T9I0,豐濱,2023-03-24,23.583897,121.514806,0.014973641
C0T9M0,靜浦,2023-03-24,23.455167,121.495028,0.037966527
C0T9N0,富里,2023-03-24,23.171639,121.249378,0.0019808928
C0U600,礁溪,2023-03-24,24.817539,121.765608,0.0012592617
C0U650,玉蘭,2023-03-24,24.675286,121.587061,0.0006306902
C0U750,龜山島,2023-03-24,24.841667,121.953133,0.0011885784
C0U760,東澳,2023-03-24,24.52196,121.83318,0.0052548097
C0U770,南澳,2023-03-24,24.44935,121.81022,0.0047138412
C0U780,五結,2023-03-24,24.68637,121.79794,0.0033045246
C0U860,頭城,2023-03-24,24.85323,121.8308,0.0025062955
C0U870,大礁溪,2023-03-24,24.791042,121.675047,0.0018387949
C0U880,北關,2023-03-24,24.9072,121.8734,0.0036062784
C0U890,三星,2023-03-24,24.66812,121.65302,0.0012132655
C0U900,內城,2023-03-24,24.71813,121.68766,0.0008820514
C0U910,冬山,2023-03-24,24.63373,121.7937,0.0038631049
C0U940,羅東,2023-03-24,24.68184,121.74934,0.003061897
C0U970,大福,2023-03-24,24.80064,121.81389,0.001892632
C0U990,員山,2023-03-24,24.74435,121.72247,0.0028539898
C0UA00,土場,2023-03-24,24.576533,121.495333,0.002121312
C0UA80,大溪漁港,2023-03-24,24.941801,121.902955,0.0035938316
C0UA90,石城,2023-03-24,24.980444,121.951214,0.0029285816
C0UB00,淡江大學蘭陽校園,2023-03-24,24.823239,121.730383,0.00151593
C0UB20,壯圍,2023-03-24,24.7359,121.8163,0.0028343743
C0V250,甲仙,2023-03-24,23.080106,120.591758,0.006247589
C0V260,月眉,2023-03-24,22.971003,120.539853,0.023153853
C0V310,美濃,2023-03-24,22.898742,120.519153,0.09469804
C0V350,溪埔,2023-03-24,22.738578,120.446797,0.025619468
C0V360,內門,2023-03-24,22.975481,120.466769,0.03500405
C0V370,古亭坑,2023-03-24,22.893178,120.401947,0.07844923
C0V400,阿公店,2023-03-24,22.804194,120.355528,0.05730303
C0V440,鳳山,2023-03-24,22.646653,120.356122,0.009595122
C0V450,鳳森,2023-03-24,22.545064,120.392592,0.009547415
C0V490,新興,2023-03-24,22.627422,120.298803,0.0077796197
C0V530,阿蓮,2023-03-24,22.883208,120.327508,0.119999215
C0V610,梓官,2023-03-24,22.760558,120.267211,0.018893713
C0V620,永安,2023-03-24,22.82315,120.236856,0.017283168
C0V630,茄萣,2023-03-24,22.906642,120.182608,0.015525438
C0V640,湖內,2023-03-24,22.887139,120.2445,0.017764175
C0V650,彌陀,2023-03-24,22.783806,120.246361,0.017283184
C0V660,岡山,2023-03-24,22.797078,120.294958,0.024187021
C0V680,仁武,2023-03-24,22.701083,120.347722,0.013028514
C0V690,鼓山,2023-03-24,22.623325,120.275575,0.0061753653
C0V700,三民,2023-03-24,22.645017,120.311233,0.0077796197
C0V710,苓雅,2023-03-24,22.622742,120.330669,0.007333785
C0V720,林園,2023-03-24,22.507747,120.394511,0.009593061
C0V730,大寮,2023-03-24,22.605614,120.395717,0.01129949
C0V740,旗山,2023-03-24,22.888614,120.483597,0.08513612
C0V750,路竹,2023-03-24,22.854997,120.259439,0.097535536
C0V760,橋頭,2023-03-24,22.757806,120.30575,0.024529438
C0V770,大社,2023-03-24,22.730306,120.346639,0.0128087215
C0V790,萬山,2023-03-24,22.905944,120.688056,0.0119455205
C0V800,六龜,2023-03-24,22.997889,120.633583,0.017743196
C0V810,左營,2023-03-24,22.67491,120.28491,0.009860298
C0V820,小林,2023-03-24,23.148408,120.63325,0.0073070065
C0V840,鳳鼻頭,2023-03-24,22.5083,120.3591,0.010044433
C0V850,蚵仔寮,2023-03-24,22.7256,120.2527,0.0077802683
C0V860,南寮,2023-03-24,22.7616,120.2339,0.017461987
C0V870,文安,2023-03-24,22.8025,120.2164,0.014049492
C0V880,興達,2023-03-24,22.8778,120.2127,0.015525438
C0V890,前鎮,2023-03-24,22.5718,120.3117,0.00764764
C0V900,汕尾,2023-03-24,22.4782,120.4151,0.041687775
C0X050,東河,2023-03-24,23.296598,120.385608,0.008761644
C0X060,下營,2023-03-24,23.22695,120.256261,0.009832
C0X080,佳里,2023-03-24,23.173039,120.145086,0.0069078607
C0X100,臺南市北區,2023-03-24,23.010394,120.194228,0.025612159
C0X110,臺南市南區,2023-03-24,22.961189,120.188378,0.023632135
C0X120,麻豆,2023-03-24,23.183289,120.248611,0.007302792
C0X130,官田,2023-03-24,23.193217,120.315422,0.009533823
C0X140,西港,2023-03-24,23.125608,120.203108,0.011769405
C0X150,安定,2023-03-24,23.102614,120.227839,0.011826822
C0X160,仁德,2023-03-24,22.968258,120.257689,0.044463556
C0X170,關廟,2023-03-24,22.963017,120.327797,0.04197148
C0X180,山上,2023-03-24,23.0757,120.363253,0.014347121
C0X190,安平,2023-03-24,22.993161,120.152181,0.022064155
C0X200,左鎮,2023-03-24,23.056758,120.408522,0.01621875
C0X210,白河,2023-03-24,23.347466,120.414427,0.008953512
C0X220,學甲,2023-03-24,23.230367,120.182187,0.007568601
C0X230,鹽水,2023-03-24,23.272621,120.247641,0.007123472
C0X240,關子嶺,2023-03-24,23.331169,120.508025,0.0018998827
C0X250,新營,2023-03-24,23.310689,120.316681,0.008567714
C0X260,後壁,2023-03-24,23.366358,120.362326,0.0066572
C0X280,將軍,2023-03-24,23.214999,120.13577,0.0070100557
C0X290,北門,2023-03-24,23.267772,120.125481,0.0070710764
C0X300,鹿寮,2023-03-24,23.386047,120.477331,0.007098502
C0X310,七股,2023-03-24,23.147289,120.086253,0.006106154
C0X320,柳營,2023-03-24,23.253328,120.375253,0.008821993
C0Z020,明里,2023-03-24,23.208717,121.262342,0.0024674512
C0Z061,玉里,2023-03-24,23.3215,121.339656,0.001991806
C0Z070,舞鶴,2023-03-24,23.46811,121.37407,0.0075791604
C0Z080,富源,2023-03-24,23.587642,121.378225,0.0062671257
C0Z100,東華,2023-03-24,23.89525,121.549833,0.078095496
C0Z150,吉安光華,2023-03-24,23.930925,121.595153,0.07712103
C0Z160,鳳林,2023-03-24,23.746114,121.453411,0.01610218
C0Z170,卓溪,2023-03-24,23.3443,121.3029,0.001713235
C0Z180,新城,2023-03-24,24.03946,121.60454,0.019925162
C0Z190,富世,2023-03-24,24.14743,121.6297,0.0067483005
C0Z200,萬榮,2023-03-24,23.709219,121.420106,0.04855313
C0Z210,瑞穗,2023-03-24,23.5239,121.39021,0.015354531
C0Z230,和平,2023-03-24,24.30717,121.77007,0.0030104509
C0Z270,蕃薯寮,2023-03-24,23.73835,121.540108,0.011145101
C0Z280,德武,2023-03-24,23.47426,121.41071,0.008688216
C0Z300,東里,2023-03-24,23.26853,121.30547,0.0021651934
C0Z310,清水斷崖,2023-03-24,24.218294,121.689142,0.0021455563
C0Z330,安通山,2023-03-24,23.290728,121.348528,0.002921285
CAA010,國一N013K,2023-03-24,25.06944,121.6281,0.0035107224
CAA020,國一S026K,2023-03-24,25.07639,121.4964,0.0015885851
CAA030,國三S010K,2023-03-24,25.08,121.6475,0.0030093207
CAA040,國三S016K,2023-03-24,25.03306,121.6158,0.0030204484
CAA050,國三S037K,2023-03-24,24.9828,121.471,0.002499847
CAA060,國三S042K,2023-03-24,24.96,121.4306,0.0024059287
CAA070,國三N046K,2023-03-24,24.95083,121.3958,0.0024716
CAA080,國三S054K,2023-03-24,24.93917,121.3239,0.0018552648
CAA090,國三A005K,2023-03-24,25.00194,121.5975,0.004083493
CAAH60,大安森林,2023-03-24,25.02955,121.53628,0.0030248468
CAB010,國一S001K,2023-03-24,25.11583,121.7286,0.002439813
CAB020,國一S006K,2023-03-24,25.08694,121.6869,0.002621481
CAB030,國三S004K,2023-03-24,25.11444,121.6886,0.0012680999
CAB040,國三S007K,2023-03-24,25.09694,121.6678,0.0024190329
CAB050,國三K002K,2023-03-24,25.14583,121.7217,0.0015771422
CAC010,國一S072K,2023-03-24,24.89583,121.1342,0.0011305091
CAC020,國二E009K,2023-03-24,25.02111,121.2736,0.0020528585
CAC030,國三N063K,2023-03-24,24.889,121.26,0.0015088251
CAC050,西濱S023K,2023-03-24,25.11649,121.27551,0.0015783124
CAC060,西濱S032K,2023-03-24,25.091966,121.192505,0.001530582
CAD010,國一S105K,2023-03-24,24.726316,120.940643,0.0014441527
CAD020,國一N077K,2023-03-24,24.885,121.0889,0.0012464094
CAD030,國一S082K,2023-03-24,24.87667,121.0467,0.0015697038
CAD040,國一S088K,2023-03-24,24.84444,121.0214,0.0020391042
CAD050,國一N094K,2023-03-24,24.79778,121.0089,0.0019758944
CAD060,國一S098K,2023-03-24,24.76056,120.9911,0.0018746947
CAD070,國三N076K,2023-03-24,24.800303,121.195739,0.0008153521
CAD080,國三N085K,2023-03-24,24.78333,121.1211,0.0013243984
CAD090,國三S103K,2023-03-24,24.75861,120.9608,0.0017631507
CAD100,西濱N066K,2023-03-24,24.8956,120.9649,0.0017456848
CAD110,西濱S082K,2023-03-24,24.751724,120.905028,0.0014920052
CAE010,國一N142K,2023-03-24,24.453119,120.783221,0.0013331822
CAE020,國一S114K,2023-03-24,24.668835,120.885811,0.0013806598
CAE030,國一S123K,2023-03-24,24.59594,120.86071,0.0012283513
CAE040,國一S132K,2023-03-24,24.524506,120.820831,0.0012868225
CAE050,國一S152K,2023-03-24,24.375492,120.749184,0.0010430054
CAE060,國三N119K,2023-03-24,24.675432,120.847389,0.001850559
CAE070,國三N151K,2023-03-24,24.440218,120.681656,0.0030596124
CAE080,國三S140K,2023-03-24,24.522345,120.725006,0.0021598756
CAE090,國三S156K,2023-03-24,24.39798,120.669487,0.0026868621
CAE100,西濱N107K,2023-03-24,24.5958,120.7394,0.001333321
CAE110,西濱S129K,2023-03-24,24.4472,120.6428,0.0022954796
CAF010,國一N174K,2023-03-24,24.2049,120.6552,0.0025855114
CAF020,國一S162K,2023-03-24,24.295534,120.695976,0.0019049747
CAF030,國一S169K,2023-03-24,24.237116,120.688271,0.002742925
CAF040,國一S188K,2023-03-24,24.118546,120.585747,0.0034239502
CAF050,國三N208K,2023-03-24,24.066147,120.660919,0.0032954405
CAF060,國三S168K,2023-03-24,24.308519,120.614471,0.0033100573
CAF070,國三S173K,2023-03-24,24.27397,120.593079,0.0019440564
CAF080,國三S178K,2023-03-24,24.226721,120.589058,0.0023371764
CAF090,國四E5K,2023-03-24,24.296465,120.643135,0.0025038242
CAF100,西濱N151K,2023-03-24,24.275964,120.547681,0.0045423587
CAG010,國一N198K,2023-03-24,24.063889,120.523056,0.005106641
CAG030,國一S207K,2023-03-24,23.988304,120.508092,0.003918989
CAG040,國三N191K,2023-03-24,24.139256,120.5215,0.0044859946
CAG050,國三N196K,2023-03-24,24.107155,120.554482,0.0034459366
CAG060,國三S202K,2023-03-24,24.092468,120.603256,0.0032300537
CAG070,西濱S173K,2023-03-24,24.1081,120.434576,0.004685379
CAG080,西濱S189K,2023-03-24,23.987857,120.369607,0.0039236397
CAG090,西濱N210K,2023-03-24,23.843536,120.293236,0.0046986244
CAG100,王功漁港,2023-03-24,23.96824,120.32586,0.0033860835
CAH010,國三N223K,2023-03-24,23.955116,120.662376,0.0025059863
CAH020,國三S217K,2023-03-24,24.00683,120.653214,0.0020403408
CAH030,茶改場竹圍站,2023-03-24,23.860083,120.637528,0.0020888904
CAHA00,消防署訓練中心,2023-03-24,23.82137,120.72293,0.0023877784
CAJ010,國三N252K,2023-03-24,23.77412,120.64061,0.002613028
CAJ020,國一N234K,2023-03-24,23.74633,120.467926,0.002189248
CAJ030,西濱N222K,2023-03-24,23.737734,120.256132,0.006487443
CAJ040,西濱S241K,2023-03-24,23.623426,120.172646,0.004617858
CAJ050,海口故事園區,2023-03-24,23.57543,120.14121,0.0043695867
CAL010,國一N250K,2023-03-24,23.610292,120.436867,0.0026772262
CAL020,國一S262K,2023-03-24,23.512333,120.403038,0.0028203374
CAL030,國一N268K,2023-03-24,23.460833,120.375833,0.0028168813
CAL040,國一N273K,2023-03-24,23.416666,120.355,0.006102939
CAL050,國三N279K,2023-03-24,23.596111,120.523333,0.0025442927
CAL060,國三S286K,2023-03-24,23.533917,120.484583,0.0026656736
CAL070,國三N295K,2023-03-24,23.468598,120.499369,0.0028628432
CAL080,國三N303K,2023-03-24,23.428611,120.452416,0.0046048597
CAL090,西濱S257K,2023-03-24,23.502278,120.171861,0.0061248792
CAL100,西濱S267K,2023-03-24,23.41613,120.162872,0.007740891
CAL110,布袋國中,2023-03-24,23.35893,120.18026,0.008482937
CAN010,國一N288K,2023-03-24,23.30609,120.290033,0.008741434
CAN020,國一S306K,2023-03-24,23.1565,120.239513,0.007251647
CAN030,國一N316K,2023-03-24,23.07309,120.253014,0.016352264
CAN040,國一N323K,2023-03-24,23.00421,120.245922,0.024508031
CAN050,國一N335K,2023-03-24,22.897584,120.269895,0.12208411
CAN060,國三S311K,2023-03-24,23.346388,120.438888,0.008526536
CAN070,國三S329K,2023-03-24,23.212777,120.355833,0.009574522
CAN080,國三N336K,2023-03-24,23.154722,120.345,0.009666172
CAN090,國三S342K,2023-03-24,23.106694,120.327528,0.015830519
CAN100,國三S366K,2023-03-24,22.9077,120.3513,0.08180014
CAN110,西濱S280K,2023-03-24,23.3052,120.14891,0.007178167
CAN120,西濱N304K,2023-03-24,23.103439,120.086694,0.006621534
CAN130,水試所海水繁養殖中心,2023-03-24,23.120802,120.07968,0.0067445966
CAN140,六官養殖協會,2023-03-24,23.22881,120.29962,0.009615095
CAP010,國一S342K,2023-03-24,22.845555,120.295,0.023212941
CAP020,國一S346K,2023-03-24,22.812222,120.314166,0.024187021
CAP030,國一N351K,2023-03-24,22.765833,120.328888,0.024529438
CAP040,國一N361K,2023-03-24,22.680555,120.328611,0.009691419
CAP050,國三N372K,2023-03-24,22.858611,120.373611,0.06577239
CAP060,國三S385K,2023-03-24,22.767777,120.444444,0.021206886
CAP070,高雄燈塔,2023-03-24,22.6146,120.2647,0.0061753653
CAQ010,國三N425K,2023-03-24,22.480277,120.531666,0.035369564
CAQ020,國三S415K,2023-03-24,22.568,120.528,0.030786673
CAQ030,崎峰國小,2023-03-24,22.42565,120.49521,0.029640617
E2K600,四湖植物園,2023-03-24,23.676986,120.163433,0.003864553
E2P980,林試六龜中心,2023-03-24,22.991703,120.645722,0.017204454
E2S390,太麻里分所,2023-03-24,22.5988,120.9811,0.028588539
E2S960,林試太麻里2,2023-03-24,22.598014,120.989761,0.039622407
E2S980,林試太麻里1,2023-03-24,22.598922,120.980044,0.0285886
G2AI50,關渡,2023-03-24,25.11575,121.492,0.0015691784
G2F820,農業試驗所,2023-03-24,24.031261,120.688133,0.0020243216
G2F820,農試所(霧峰),2023-03-24,24.031261,120.688133,0.0020243216
G2L020,嘉義分所,2023-03-24,23.485028,120.473806,0.002735209
G2L020,嘉義農試,2023-03-24,23.485028,120.473806,0.002735209
G2M350,溪口農場,2023-03-24,23.58565,120.408111,0.0027318306
G2P820,鳳山園試所,2023-03-24,22.646611,120.356083,0.009595122
G2P820,鳳山農試,2023-03-24,22.646611,120.356083,0.009595122
K2E360,苗栗農改,2023-03-24,24.495722,120.829111,0.0023121994
K2E360,苗栗農改場,2023-03-24,24.495722,120.829111,0.0023121994
K2E710,大湖分場,2023-03-24,24.422861,120.871833,0.0011799268
K2F750,種苗改良場,2023-03-24,24.225972,120.800917,0.0008772747
K2F750,種苗繁殖,2023-03-24,24.225972,120.800917,0.0008772747
U2HA50,臺大竹山,2023-03-24,23.756972,120.681556,0.0021063106
V2C250,八德合作社,2023-03-24,24.93775,121.266389,0.0016455279
V2C260,八德蔬果,2023-03-24,24.978508,121.281819,0.001838675
V2K610,大庄合作社,2023-03-24,23.8068,120.367939,0.0033348652
V2K620,麥寮合作社,2023-03-24,23.753836,120.294783,0.004888831
