站號,站名,日期,lat,lon,BLBTSLS
C0R710,龍磐,2023-02-23,21.931672,120.838942,0.97239065
C1F9D1,白毛台,2023-02-23,24.158325,120.886933,5.125003e-10
C0G940,竹塘,2023-02-23,23.848253,120.386764,1.4627592e-09
467590,恆春,2023-02-23,22.003897,120.746339,0.9993901
C1O850,環湖,2023-02-23,23.148617,120.418633,2.7855669e-09
C0U710,太平山,2023-02-23,24.505486,121.525656,7.683529e-09
C0E820,獅潭,2023-02-23,24.539133,120.920042,9.82616e-10
C0V880,興達,2023-02-23,22.8778,120.2127,7.3684847e-10
C0S890,關山,2023-02-23,23.0395,121.175017,1.4909668e-09
K2F750,種苗繁殖,2023-02-23,24.225972,120.800917,6.890174e-10
C1Z130,銅門,2023-02-23,23.965694,121.492842,1.8410595e-09
C0AD40,土城,2023-02-23,24.973208,121.445169,1.3934205e-09
CAN140,六官養殖協會,2023-02-23,23.22881,120.29962,2.2162734e-09
C0X180,山上,2023-02-23,23.0757,120.363253,5.8585132e-09
C0F9Z0,雪山東峰,2023-02-23,24.388792,121.268675,1.1360827e-08
C1M480,獨立山,2023-02-23,23.537022,120.607797,5.6680055e-10
C0X220,學甲,2023-02-23,23.230367,120.182187,3.995759e-10
C0R170,屏東,2023-02-23,22.660269,120.494072,1.8551498e-08
467650,日月潭,2023-02-23,23.881325,120.90805,1.0600302e-09
C0K600,箔子寮,2023-02-23,23.6197,120.14,5.3146874e-09
C0G830,埤頭,2023-02-23,23.866003,120.452806,1.2449466e-09
C0S950,七塊厝,2023-02-23,22.954453,121.229922,1.7723508e-09
467110,金門,2023-02-23,24.407306,118.289281,4.02143e-08
C0AH80,深坑,2023-02-23,25.002703,121.628328,1.4899633e-09
467990,馬祖,2023-02-23,26.169269,119.923419,6.3013786e-08
C0A970,三貂角,2023-02-23,25.007606,122.002058,7.3924054e-09
C0K430,褒忠,2023-02-23,23.690938,120.303634,5.784473e-10
467480,嘉義,2023-02-23,23.495925,120.432906,1.5861967e-09
C2E540,後龍,2023-02-23,24.606489,120.783933,7.001739e-09
C0V400,阿公店,2023-02-23,22.804194,120.355528,2.1619124e-07
C0R440,大漢山,2023-02-23,22.405264,120.753181,2.7290556e-08
C0K280,四湖,2023-02-23,23.630414,120.227125,4.77093e-09
C1F9B1,桐林,2023-02-23,24.066172,120.735194,2.367535e-10
C0K390,土庫,2023-02-23,23.679029,120.395574,8.4123775e-10
C1I450,望鄉山,2023-02-23,23.594153,120.944286,1.1269901e-08
C0E910,海埔,2023-02-23,24.648767,120.772435,7.4300774e-09
B2E890,畜試北區分所,2023-02-23,24.527806,120.770972,8.695405e-10
C0R750,四林格山,2023-02-23,22.076989,120.802439,3.2047872e-06
C0F0C0,中坑,2023-02-23,24.248517,120.903319,1.1496757e-09
C1I121,大鞍,2023-02-23,23.678381,120.760017,5.184251e-09
72U480,花改蘭陽分場,2023-02-23,24.686306,121.716583,1.7377788e-09
C0A770,科教館,2023-02-23,25.096356,121.516507,1.8888109e-09
C0AJ60,六塊厝,2023-02-23,25.24,121.4481,1.6712447e-08
C0R620,墾雷,2023-02-23,21.900836,120.855269,0.91551036
467420,永康,2023-02-23,23.038386,120.2367,2.6917708e-09
467300,東吉島,2023-02-23,23.25695,119.667467,0.80796134
C0I410,名間,2023-02-23,23.837053,120.701447,7.511279e-10
A2C560,農工中心,2023-02-23,24.985917,121.239833,5.4137352e-09
C0V740,旗山,2023-02-23,22.888614,120.483597,2.2241638e-08
C0Z061,玉里,2023-02-23,23.3215,121.339656,1.33005e-09
C0S840,南田,2023-02-23,22.279725,120.889208,0.9978088
C1I470,杉林溪,2023-02-23,23.639517,120.786444,6.2636776e-09
C1X040,東原,2023-02-23,23.291597,120.463822,4.0127143e-10
C0R660,枋寮,2023-02-23,22.367722,120.590647,0.9600599
C1R120,上德文,2023-02-23,22.763272,120.704442,5.900204e-10
C0K450,大埤,2023-02-23,23.646074,120.431537,6.3599476e-10
C0UA00,土場,2023-02-23,24.576533,121.495333,2.6979645e-09
467080,宜蘭,2023-02-23,24.763975,121.756528,3.9792343e-09
C0N030,四草,2023-02-23,23.0235,120.1116,5.2818216e-10
C0V650,彌陀,2023-02-23,22.783806,120.246361,2.2617028e-08
C0D660,新竹市東區,2023-02-23,24.798681,120.986942,1.4930385e-09
82S580,茶改東部分場,2023-02-23,22.907694,121.130139,1.5283808e-09
C0C710,大溪永福,2023-02-23,24.892936,121.324975,1.8016766e-09
C0FA20,溫寮,2023-02-23,24.372177,120.583125,4.4204924e-09
C0V640,湖內,2023-02-23,22.887139,120.2445,7.0641654e-10
C0R910,下寮,2023-02-23,22.3929,120.5548,0.9600599
C0Z020,明里,2023-02-23,23.208717,121.262342,2.6126787e-09
C0M770,嘉義梅山,2023-02-23,23.585398,120.555587,1.163747e-09
G2F820,農業試驗所,2023-02-23,24.031261,120.688133,2.7351185e-10
C0C660,楊梅,2023-02-23,24.912375,121.143047,2.0311657e-09
C1E511,新開,2023-02-23,24.347703,120.827019,5.5951155e-10
G2F820,農試所(霧峰),2023-02-23,24.031261,120.688133,2.7351185e-10
C1I070,和社,2023-02-23,23.591131,120.888861,1.8459506e-09
C2F000,大肚,2023-02-23,24.15295,120.572117,2.938588e-10
C1S850,豐南,2023-02-23,23.122139,121.262389,2.6707316e-09
C2A920,富貴角,2023-02-23,25.263783,121.565258,1.6220458e-08
CAH030,茶改場竹圍站,2023-02-23,23.860083,120.637528,4.6023899e-10
C0T960,光復,2023-02-23,23.660694,121.424964,2.1880437e-09
C0F9M0,豐原,2023-02-23,24.254322,120.720692,3.887046e-10
C0R720,旭海,2023-02-23,22.205403,120.887614,0.29523307
C0V710,苓雅,2023-02-23,22.622742,120.330669,3.470379e-09
C0C740,觀音工業區,2023-02-23,25.064764,121.114856,1.8619617e-07
CAC040,拉拉山,2023-02-23,24.699317,121.427133,1.3016212e-08
C0V790,萬山,2023-02-23,22.905944,120.688056,7.808677e-10
U2HA30,臺大和社,2023-02-23,23.590856,120.888864,1.8459506e-09
C0AJ90,澳底,2023-02-23,25.0552,121.9253,2.3507045e-08
C0Z100,東華,2023-02-23,23.89525,121.549833,1.6320126e-09
C0G970,三豐,2023-02-23,23.882,120.2895,2.7896412e-08
V2K610,大庄合作社,2023-02-23,23.8068,120.367939,7.025829e-10
C0V900,汕尾,2023-02-23,22.4782,120.4151,2.5665162e-10
C1R630,龍泉,2023-02-23,22.66701,120.59091,2.2182485e-09
C1AC50,關渡,2023-02-23,25.133486,121.469331,3.6133825e-09
C0F9I0,神岡,2023-02-23,24.272481,120.658314,3.6909295e-10
C0K460,斗南,2023-02-23,23.678734,120.478359,6.184517e-10
467410,臺南,2023-02-23,22.993239,120.204772,4.889324e-10
C2O810,曾文,2023-02-23,23.219681,120.497328,6.872429e-10
467280,後龍,2023-02-23,24.648563,120.831834,6.6850836e-09
C1F9J1,清水林,2023-02-23,24.071242,120.820419,5.0044213e-10
C2A650,火燒寮,2023-02-23,25.002719,121.742892,8.124515e-09
466930,竹子湖,2023-02-23,25.162078,121.544547,5.0484186e-09
C1I220,樟湖,2023-02-23,23.905333,120.846983,1.2625393e-09
C0I390,仁愛,2023-02-23,24.022122,121.132206,1.311144e-09
C0Z300,東里,2023-02-23,23.26853,121.30547,2.4712012e-09
C0V310,美濃,2023-02-23,22.898742,120.519153,2.6633213e-08
C1V590,新發,2023-02-23,23.057019,120.646064,9.6105e-10
C0K510,水林,2023-02-23,23.572924,120.24597,3.8888553e-10
72S590,東改賓朗果園,2023-02-23,22.813889,121.071278,3.7153487e-09
82A750,茶改北部分場,2023-02-23,24.955778,121.631222,1.41540495e-08
C1A750,石碇服務區,2023-02-23,25.00872,121.646242,2.6636147e-09
C0X300,鹿寮,2023-02-23,23.386047,120.477331,7.9900436e-10
G2AI50,關渡,2023-02-23,25.11575,121.492,1.5321469e-08
C0K590,雲林東勢,2023-02-23,23.674192,120.255721,4.946316e-10
C0A570,桶後,2023-02-23,24.848222,121.597992,8.056402e-09
C1S800,華源,2023-02-23,22.657883,121.02325,3.5971883e-09
C0G720,溪州,2023-02-23,23.851589,120.499093,1.1857495e-09
C1V160,達卡努瓦,2023-02-23,23.279811,120.705319,1.637135e-09
C2M410,馬頭山,2023-02-23,23.324361,120.582017,3.8156317e-10
C0V850,蚵仔寮,2023-02-23,22.7256,120.2527,8.223518e-08
C0S740,池上,2023-02-23,23.119628,121.209469,6.5688748e-09
C1V390,尖山,2023-02-23,22.813153,120.367789,9.026876e-08
C0AH70,松山,2023-02-23,25.04871,121.55042,1.9073576e-09
C0N010,鯤鯓國小,2023-02-23,23.1879,120.0889,3.3687222e-10
C0R550,新埤,2023-02-23,22.467947,120.582894,2.5331487e-10
C0SA60,知本（水試所）,2023-02-23,22.702394,121.082761,3.8324095e-09
C0T9I0,豐濱,2023-02-23,23.583897,121.514806,1.8641015e-09
C0UB00,淡江大學蘭陽校園,2023-02-23,24.823239,121.730383,8.48637e-09
C0T9N0,富里,2023-02-23,23.171639,121.249378,5.975099e-09
U2HA50,臺大竹山,2023-02-23,23.756972,120.681556,2.0376691e-09
C0V840,鳳鼻頭,2023-02-23,22.5083,120.3591,7.45914e-10
C0X140,西港,2023-02-23,23.125608,120.203108,7.348695e-10
72D080,桃改五峰分場,2023-02-23,24.612194,121.157167,4.119959e-09
C0V530,阿蓮,2023-02-23,22.883208,120.327508,6.233729e-08
C1O880,關山,2023-02-23,23.173397,120.594092,7.396266e-10
C0E791,卓蘭,2023-02-23,24.3126,120.8244,4.5114265e-10
C1I030,武界,2023-02-23,23.913225,121.052483,8.8424346e-10
C0R520,崁頂,2023-02-23,22.514781,120.506914,2.2241713e-09
C0R341,牡丹,2023-02-23,22.130036,120.792639,0.35614413
C0R930,萬丹,2023-02-23,22.5885,120.4851,2.3996114e-08
C0S760,紅石,2023-02-23,23.069131,121.126219,8.257465e-09
C1M610,石磐龍,2023-02-23,23.496606,120.663506,1.3630723e-09
C0UA10,鴛鴦湖,2023-02-23,24.590269,121.412228,6.912713e-09
V2C260,八德蔬果,2023-02-23,24.978508,121.281819,2.9803258e-09
C0R800,丹路,2023-02-23,22.204481,120.750989,0.73719776
C0G920,永靖,2023-02-23,23.924703,120.547533,1.0469993e-09
C1A630,下盆,2023-02-23,24.771003,121.538622,6.280642e-09
B2N890,畜產試驗所,2023-02-23,23.058972,120.336406,1.7108435e-09
C0UA30,白嶺,2023-02-23,24.527819,121.519031,5.6507474e-09
C1V580,溪南(特生中心),2023-02-23,23.084972,120.788475,3.2362486e-09
C1T970,大農,2023-02-23,23.615233,121.413331,1.978717e-09
E2S960,林試太麻里2,2023-02-23,22.598014,120.989761,5.6079283e-09
C0R650,竹田,2023-02-23,22.58486,120.54344,5.1258464e-09
C1H900,清流,2023-02-23,24.080775,120.962997,6.8115114e-10
C1C510,水尾,2023-02-23,24.940081,121.087161,8.2034e-09
C0F9X0,大雅(中科園區),2023-02-23,24.21528,120.62445,4.0491338e-10
C0O970,虎頭埤,2023-02-23,23.021375,120.347878,7.64517e-09
C0C730,中大臨海站,2023-02-23,24.966126,121.008581,4.2486434e-08
C0X250,新營,2023-02-23,23.310689,120.316681,1.5709168e-09
C0V700,三民,2023-02-23,22.645017,120.311233,7.81175e-09
C0U870,大礁溪,2023-02-23,24.791042,121.675047,5.939296e-09
C0E870,高鐵苗栗,2023-02-23,24.60725,120.826094,7.3053057e-09
A2K570,古坑花卉中心,2023-02-23,23.63353,120.55239,1.3193169e-09
C0M860,新美,2023-02-23,23.338017,120.683169,3.5849054e-10
C1E701,八卦,2023-02-23,24.491756,120.927619,1.8237418e-09
C0I420,國姓,2023-02-23,24.037803,120.855072,3.7442296e-10
C0S960,香蘭,2023-02-23,22.587569,120.993375,5.6079283e-09
C0R260,春日,2023-02-23,22.370361,120.628306,0.8163927
72G600,臺中農改場,2023-02-23,24.003028,120.534389,6.8779626e-10
C0Z210,瑞穗,2023-02-23,23.5239,121.39021,1.1961578e-09
C0M820,達邦,2023-02-23,23.453994,120.749517,7.407476e-10
C0V860,南寮,2023-02-23,22.7616,120.2339,8.223518e-08
C0G740,大城,2023-02-23,23.852487,120.320935,2.6530493e-08
C0R920,塭仔,2023-02-23,22.4169,120.5197,0.9666613
C0R470,高樹,2023-02-23,22.826389,120.600806,2.320673e-09
C0R680,佳樂水,2023-02-23,21.993578,120.861633,0.90511906
C1O870,大棟山,2023-02-23,23.31157,120.52226,9.6414e-10
C0D360,梅花,2023-02-23,24.678347,121.208558,1.7939783e-09
C0Z190,富世,2023-02-23,24.14743,121.6297,3.807564e-09
C0AI10,屈尺,2023-02-23,24.92184,121.54475,1.9202504e-09
B2U990,畜試東區分所,2023-02-23,24.669039,121.832561,1.9335953e-09
C0R240,來義,2023-02-23,22.527306,120.625111,1.4286946e-09
C1R610,西大武山,2023-02-23,22.617719,120.7322,2.0124292e-08
C0G900,線西,2023-02-23,24.143358,120.443536,6.5050005e-09
C0M700,竹崎,2023-02-23,23.526178,120.555508,1.0821112e-09
C2E880,三義,2023-02-23,24.405478,120.749819,7.6472656e-10
C0C720,竹圍,2023-02-23,25.112692,121.239824,1.5298808e-08
C0F9P0,清水,2023-02-23,24.312297,120.562242,3.3396979e-09
C0Z150,吉安光華,2023-02-23,23.930925,121.595153,1.5229797e-09
C1D640,外坪(五指山),2023-02-23,24.644447,121.090961,2.2339668e-09
C0F9O0,潭子,2023-02-23,24.213106,120.703933,3.151719e-10
72T250,花蓮農改場,2023-02-23,23.975222,121.563889,1.5100906e-09
C0E780,銅鑼,2023-02-23,24.489681,120.790853,9.885469e-10
C1T950,太安,2023-02-23,23.666719,121.370128,6.8326726e-09
C0E830,苑裡,2023-02-23,24.439714,120.653053,3.6733245e-09
467270,田中,2023-02-23,23.873803,120.581286,5.119776e-10
C0SA10,檳榔四格山,2023-02-23,22.810031,121.109308,4.0661314e-09
C1T830,布洛灣,2023-02-23,24.17184,121.57127,4.478524e-09
C0F970,大坑,2023-02-23,24.173142,120.722289,2.4571e-10
C1U920,思源,2023-02-23,24.393125,121.347214,8.28215e-09
C0A931,三和,2023-02-23,25.233153,121.595236,4.4218837e-09
C0I010,廬山,2023-02-23,24.033311,121.181808,2.3601694e-09
C0R860,鼻頭,2023-02-23,22.1043,120.8979,0.986572
C0UB20,壯圍,2023-02-23,24.7359,121.8163,1.6767547e-09
C0R790,九棚,2023-02-23,22.14195,120.889281,0.68419665
C0W110,東莒,2023-02-23,25.9652,119.98069,6.1111884e-08
C1U930,粉鳥林,2023-02-23,24.497088,121.842479,5.3934417e-09
C1I211,蘆竹湳,2023-02-23,23.934019,120.811994,4.1532838e-10
C0S830,長濱,2023-02-23,23.286817,121.411975,1.4898609e-09
C1F9F1,伯公龍,2023-02-23,24.272392,120.849047,7.8491585e-10
C0E810,西湖,2023-02-23,24.562947,120.7485,6.9502235e-08
C1I440,新高口,2023-02-23,23.478744,120.878939,6.036072e-09
C0O840,王爺宮,2023-02-23,23.222064,120.40085,6.808277e-10
C0T9G0,鳳林山,2023-02-23,23.735269,121.420131,3.9897676e-09
C0X080,佳里,2023-02-23,23.173039,120.145086,3.3687222e-10
C0Z310,清水斷崖,2023-02-23,24.218294,121.689142,8.717829e-09
C0M680,太保,2023-02-23,23.455062,120.331455,1.0693206e-09
C1S820,金峰,2023-02-23,22.590969,120.933236,4.4856283e-09
C0AD10,八里,2023-02-23,25.150211,121.403947,1.5298808e-08
C2K240,草嶺,2023-02-23,23.59555,120.693461,1.9201367e-09
C1SA70,都蘭,2023-02-23,22.87794,121.226881,1.4927622e-09
C0K440,二崙,2023-02-23,23.772797,120.408944,6.5832834e-10
C1A760,坪林交控,2023-02-23,24.94284,121.713442,7.0737283e-09
C0F9N0,大里,2023-02-23,24.092464,120.701378,2.2438044e-10
C0SA90,達仁林場,2023-02-23,22.264347,120.823972,0.0020109536
C1R290,石門山,2023-02-23,22.112611,120.756597,0.0044215615
42HA10,萬大發電廠,2023-02-23,23.978875,121.139639,1.2089634e-09
C0R890,山海,2023-02-23,21.9878,120.7091,0.99583644
C0T9A0,月眉山,2023-02-23,23.809928,121.539828,2.886929e-09
C0AC70,信義,2023-02-23,25.037822,121.564597,1.9073576e-09
C0K560,棋山,2023-02-23,23.68645,120.603417,1.2719004e-09
C1Z240,中平林道,2023-02-23,23.42115,121.26763,5.423854e-09
U2H480,溪頭,2023-02-23,23.670306,120.798194,2.2716975e-09
C0M880,好美里,2023-02-23,23.3364,120.138,3.8989043e-10
C0T9E0,大坑,2023-02-23,23.880628,121.581981,2.6942775e-09
C0K530,臺西,2023-02-23,23.701547,120.197559,7.533781e-09
C1E900,國一N128K,2023-02-23,24.560997,120.844186,1.914432e-09
C0AJ50,水湳洞,2023-02-23,25.123695,121.862238,7.165416e-09
C0AI20,白沙灣,2023-02-23,25.283128,121.519058,1.6596596e-08
C0A860,大坪,2023-02-23,25.165914,121.632969,3.6578591e-09
C1U850,觀音海岸,2023-02-23,24.38319,121.77856,8.050027e-09
C0U950,鶯子嶺,2023-02-23,24.89754,121.79244,1.7257532e-08
C0O900,善化,2023-02-23,23.112883,120.297219,1.9249295e-09
C0K550,蔦松,2023-02-23,23.514319,120.229736,3.042644e-10
E2P980,林試六龜中心,2023-02-23,22.991703,120.645722,1.0452553e-09
C0E590,通霄,2023-02-23,24.471892,120.704622,1.1892699e-08
C1I310,西巒,2023-02-23,23.754486,120.883956,2.8620433e-09
C0A550,泰平,2023-02-23,24.971197,121.823711,1.3668194e-08
C0I360,水里,2023-02-23,23.812553,120.849792,7.5537915e-10
C0R830,高士,2023-02-23,22.121825,120.836781,0.00022276548
C1I101,溪頭,2023-02-23,23.661789,120.807647,5.8652327e-09
C0AJ20,野柳,2023-02-23,25.20703,121.690021,3.8169876e-09
C0B060,暖暖,2023-02-23,25.0957,121.7403,2.2129745e-09
C1H920,長豐,2023-02-23,24.102039,120.879897,5.3717153e-10
C0V360,內門,2023-02-23,22.975481,120.466769,8.042669e-07
C0R850,林邊,2023-02-23,22.4634,120.5339,2.5553012e-10
C0E930,龍鳳,2023-02-23,24.700034,120.859125,5.079832e-08
C0U910,冬山,2023-02-23,24.63373,121.7937,1.9335953e-09
C1E721,泰安,2023-02-23,24.489017,120.968036,3.95147e-09
82H320,茶改中部分場,2023-02-23,23.875611,120.913583,8.357665e-10
C0M750,布袋,2023-02-23,23.380878,120.167789,3.6586528e-10
C1S860,利嘉,2023-02-23,22.809417,121.050528,3.370922e-09
72C440,桃園農改,2023-02-23,24.950944,121.030583,8.329343e-09
E2S980,林試太麻里1,2023-02-23,22.598922,120.980044,5.1165086e-09
C0X170,關廟,2023-02-23,22.963017,120.327797,3.2145586e-08
C0V720,林園,2023-02-23,22.507747,120.394511,7.069813e-10
C1I510,線浸林道,2023-02-23,23.761508,120.832956,2.1781212e-09
C0D690,外湖,2023-02-23,24.917735,120.968711,8.4158165e-09
C0C750,新興坑尾,2023-02-23,25.0061,121.0971,3.612282e-08
B2Q810,畜試南區分所,2023-02-23,21.945583,120.802167,0.8583453
C0S790,金崙,2023-02-23,22.538122,120.966875,9.625345e-09
C0AH90,福山植物園,2023-02-23,24.760717,121.58135,6.7739165e-09
C0I540,奇萊稜線,2023-02-23,24.109231,121.326456,1.7910322e-08
C0M850,表湖,2023-02-23,23.24186,120.64166,5.258481e-10
C0S770,大溪山,2023-02-23,22.478475,120.943325,2.0927509e-08
C0AG80,中和,2023-02-23,24.991622,121.491792,1.3934205e-09
C0T790,大禹嶺,2023-02-23,24.186117,121.316086,7.988189e-09
C0T9B0,水源,2023-02-23,23.991861,121.537169,3.2336387e-09
C0R840,牡丹池山,2023-02-23,22.168389,120.841225,0.06944591
C1I131,桶頭,2023-02-23,23.641944,120.654117,1.0694042e-09
CAL110,布袋國中,2023-02-23,23.35893,120.18026,3.6586528e-10
467571,新竹,2023-02-23,24.827853,121.014219,2.975214e-09
C0Z290,赤柯山,2023-02-23,23.36893,121.38293,5.2603797e-09
C0X280,將軍,2023-02-23,23.214999,120.13577,4.1132986e-10
C0S690,太麻里,2023-02-23,22.60902,120.98533,4.7644826e-09
C0U880,北關,2023-02-23,24.9072,121.8734,6.6303403e-09
C1H860,瑞岩,2023-02-23,24.123772,121.18345,4.9768283e-09
C0G810,埔心,2023-02-23,23.947633,120.525456,1.0469993e-09
C0U970,大福,2023-02-23,24.80064,121.81389,3.9648778e-09
C1E670,南礦,2023-02-23,24.538278,121.002836,4.333265e-09
C0M520,東後寮,2023-02-23,23.369908,120.248065,3.5873063e-10
C1E461,松安,2023-02-23,24.397972,120.986022,3.550123e-09
72G600,臺中農改,2023-02-23,24.003028,120.534389,6.8779754e-10
C2N160,西拉雅風管處,2023-02-23,23.189481,120.335297,2.182288e-09
C0A640,石碇,2023-02-23,24.993969,121.662917,3.049001e-09
E2S960,林試太麻里2,2023-02-23,22.598,120.99775,5.757848e-09
C0F9Y0,桃山,2023-02-23,24.432739,121.303808,1.2116695e-08
C1I020,萬大,2023-02-23,23.979817,121.132261,1.3291902e-09
C0U940,羅東,2023-02-23,24.68184,121.74934,1.7107652e-09
C0M650,朴子,2023-02-23,23.43463,120.23902,3.9517387e-10
C1I500,大尖山,2023-02-23,23.858572,120.994889,5.1587823e-09
C0G820,田尾,2023-02-23,23.901669,120.509389,1.0469993e-09
E2K600,四湖植物園,2023-02-23,23.676986,120.163433,4.77093e-09
C0S730,綠島,2023-02-23,22.6672,121.47533,0.9609528
12Q970,東港工作站,2023-02-23,22.479997,120.466058,2.5665162e-10
C0E430,南庄,2023-02-23,24.601775,121.000214,9.948797e-10
C1TA00,太魯閣,2023-02-23,24.15773,121.6236,4.07597e-09
466920,臺北,2023-02-23,25.037658,121.514853,1.9073576e-09
C0R600,舊泰武,2023-02-23,22.588194,120.664944,5.7298105e-10
C1I260,北坑,2023-02-23,23.9246,121.006903,4.4272233e-10
466910,鞍部,2023-02-23,25.182586,121.529731,9.376013e-09
C1I230,九份二山,2023-02-23,23.961944,120.845,7.5086287e-10
C2A660,瑞芳,2023-02-23,25.113169,121.801147,7.1918693e-09
C0R270,琉球嶼,2023-02-23,22.332244,120.362236,3.6291443e-09
C1T990,高寮,2023-02-23,23.394239,121.356808,8.587153e-10
C0G620,芬園,2023-02-23,24.015678,120.6213,2.8468194e-10
C1Z140,荖溪,2023-02-23,23.890575,121.45964,7.2989828e-09
C1I201,中心崙,2023-02-23,23.728722,120.712097,6.162697e-10
C1I400,凌霄,2023-02-23,24.018778,121.004456,1.9169824e-09
C1M640,十字,2023-02-23,23.492153,120.753683,4.153833e-09
G2P820,農試鳳山分所,2023-02-23,22.646611,120.356083,6.5169967e-09
C0Z270,蕃薯寮,2023-02-23,23.73835,121.540108,2.8862845e-09
C0F9Q0,外埔,2023-02-23,24.347817,120.705686,4.307971e-10
C0K580,高鐵雲林,2023-02-23,23.737456,120.417944,6.3748373e-10
C2I090,鳳凰,2023-02-23,23.728081,120.787347,9.313377e-10
C0U990,員山,2023-02-23,24.74435,121.72247,1.702614e-09
C0V770,大社,2023-02-23,22.730306,120.346639,5.862395e-08
C0X120,麻豆,2023-02-23,23.183289,120.248611,1.246743e-09
C0C670,龍潭,2023-02-23,24.870056,121.221389,1.4788054e-09
C0D680,香山濕地,2023-02-23,24.783581,120.914988,1.4760831e-09
C0S980,勝林山,2023-02-23,22.430439,120.8938,5.9514328e-08
C0V730,大寮,2023-02-23,22.605614,120.395717,3.1076075e-09
C0R570,麟洛,2023-02-23,22.65078,120.52719,1.8627837e-08
CAG100,王功漁港,2023-02-23,23.96824,120.32586,1.3083908e-07
C0X290,北門,2023-02-23,23.267772,120.125481,4.1132986e-10
C2F930,大甲,2023-02-23,24.347667,120.640403,3.547199e-09
C0D650,湖口,2023-02-23,24.904794,121.043628,8.13447e-09
C0E420,竹南,2023-02-23,24.708978,120.888897,3.685854e-08
C0U780,五結,2023-02-23,24.68637,121.79794,1.6767547e-09
C1I250,鯉潭,2023-02-23,23.961922,120.991131,6.3177164e-10
C0R130,阿禮,2023-02-23,22.742908,120.743678,8.289937e-10
C0X100,臺南市北區,2023-02-23,23.010394,120.194228,5.1507865e-10
C0S920,金峰嘉蘭,2023-02-23,22.594789,120.960825,5.119398e-09
C0V490,新興,2023-02-23,22.627422,120.298803,3.4575747e-09
C0F9K0,大安,2023-02-23,24.345061,120.588025,4.2181276e-09
72N100,臺南農改,2023-02-23,23.0605,120.342194,1.7108435e-09
467290,古坑,2023-02-23,23.633639,120.551889,1.3193169e-09
C0V440,鳳山,2023-02-23,22.646653,120.356122,6.5169967e-09
C1T940,大觀,2023-02-23,23.714206,121.373133,3.5298806e-09
72T250,花蓮農改,2023-02-23,23.975222,121.563889,1.5100906e-09
C0E740,造橋,2023-02-23,24.637056,120.864778,7.104761e-09
C0R100,尾寮山,2023-02-23,22.833111,120.683889,9.152701e-10
A2K630,臺大雲林校區,2023-02-23,23.730628,120.423903,6.3748373e-10
C0D580,寶山,2023-02-23,24.735006,121.025192,8.499503e-10
E2P990,林試扇平站,2023-02-23,22.9677,120.6857,1.1972648e-09
C0AI30,三重,2023-02-23,25.057328,121.500629,1.8888109e-09
C0AH00,汐止,2023-02-23,25.066881,121.658778,1.9073576e-09
C1Z040,立山,2023-02-23,23.443356,121.327375,3.5439125e-09
C0R740,獅子,2023-02-23,22.201569,120.70525,0.98770005
C0W130,花嶼,2023-02-23,23.40007,119.32276,0.9806565
C0A950,鼻頭角,2023-02-23,25.129036,121.923372,5.898128e-06
C0K470,林內,2023-02-23,23.748675,120.609642,2.4410882e-09
82C160,茶改場,2023-02-23,24.908472,121.185333,2.1924385e-09
C0Z320,清水林道,2023-02-23,23.27125,121.188272,3.6689831e-09
C0R760,南仁湖,2023-02-23,22.084681,120.863353,0.0044067
C0M670,大林,2023-02-23,23.600616,120.45841,1.2798141e-09
C0M800,茶山,2023-02-23,23.299075,120.664767,3.1293818e-10
C0A9C0,天母,2023-02-23,25.117494,121.537169,3.3069711e-09
72K220,南改斗南分場,2023-02-23,23.634556,120.477333,6.184517e-10
72AI40,桃改樹林分場,2023-02-23,24.944503,121.386972,1.5790578e-09
C0S910,蘭嶼燈塔,2023-02-23,22.081197,121.503117,0.96159035
C0B050,八斗子,2023-02-23,25.144754,121.79167,7.214525e-09
C0U900,內城,2023-02-23,24.71813,121.68766,1.7686564e-09
C0X320,柳營,2023-02-23,23.253328,120.375253,1.1737964e-09
C0M790,新港,2023-02-23,23.553269,120.345728,8.5450164e-10
C0F9T0,西屯,2023-02-23,24.179494,120.641275,6.733144e-10
C0SA30,都歷,2023-02-23,23.020333,121.323642,1.2723056e-09
C0C620,蘆竹,2023-02-23,25.084275,121.265767,1.5154814e-08
C0R730,大坪頂,2023-02-23,22.024633,120.69355,0.9978043
C0AJ40,石門,2023-02-23,25.273672,121.601198,1.646295e-08
C0E750,苗栗,2023-02-23,24.564569,120.824575,1.903066e-09
C0T870,鯉魚潭,2023-02-23,23.935639,121.508944,1.7700806e-09
C1V170,排雲,2023-02-23,23.463619,120.954147,1.7328215e-08
C2H950,中寮,2023-02-23,23.884447,120.766406,7.4609324e-10
C0R350,貓鼻頭,2023-02-23,21.921774,120.7358,0.7926978
C0V660,岡山,2023-02-23,22.797078,120.294958,2.440456e-08
C1H941,雙冬,2023-02-23,23.967378,120.802189,4.5302329e-10
C0AJ70,田寮,2023-02-23,25.2698,121.4886,1.6759179e-08
C0AI00,五股,2023-02-23,25.07445,121.42728,7.286742e-09
C0Z280,德武,2023-02-23,23.47426,121.41071,9.612461e-10
C0R700,枋山,2023-02-23,22.246844,120.661086,0.99987644
C0C460,復興,2023-02-23,24.820208,121.352281,2.9707004e-09
E2H360,蓮華池,2023-02-23,23.918333,120.885278,5.0293675e-10
C0M640,中埔,2023-02-23,23.42538,120.5229,1.0010566e-09
C0W140,金沙,2023-02-23,24.488292,118.408778,4.884295e-08
C2A540,四堵,2023-02-23,24.8926,121.745736,7.969501e-09
C0ACA0,新莊,2023-02-23,25.051478,121.446756,3.4100525e-09
C0R220,潮州,2023-02-23,22.534361,120.54,2.0524837e-09
U2HA40,臺大內茅埔,2023-02-23,23.689722,120.851117,9.609492e-10
467490,臺中,2023-02-23,24.145736,120.684075,2.3487615e-10
C0U960,翠峰湖,2023-02-23,24.510856,121.608044,9.779049e-09
E2HA20,林試畢祿溪站,2023-02-23,24.226944,121.308522,5.742625e-09
C0V890,前鎮,2023-02-23,22.5718,120.3117,3.6198875e-09
467620,蘭嶼,2023-02-23,22.036969,121.558339,0.9990431
C1F941,雪嶺,2023-02-23,24.280586,121.026642,8.454672e-09
C0AC80,文山,2023-02-23,25.00235,121.575728,1.4871155e-09
C0F9R0,龍井,2023-02-23,24.184536,120.528972,6.280318e-09
C0M760,民雄,2023-02-23,23.551754,120.428457,1.3332604e-09
C0UA40,西德山,2023-02-23,24.560647,121.752608,7.6607884e-09
C1T920,中興,2023-02-23,23.769503,121.498653,1.6238031e-09
C0D550,雪霸,2023-02-23,24.526972,121.11605,4.689247e-09
C2F860,梨山,2023-02-23,24.247522,121.243669,5.9515206e-09
C0R320,車城,2023-02-23,22.0744,120.716247,0.99997157
C1S870,南美山,2023-02-23,23.15025,121.382333,5.9610294e-09
C0B020,基隆嶼,2023-02-23,25.19141,121.78391,3.9641165e-07
C1U501,牛鬥,2023-02-23,24.637836,121.573656,3.2920435e-09
C0M730,嘉義市東區,2023-02-23,23.457673,120.460531,1.2603137e-09
C0S700,知本,2023-02-23,22.684866,121.005642,3.968123e-09
C1N001,沙崙,2023-02-23,22.935472,120.309406,4.142734e-08
C0V760,橋頭,2023-02-23,22.757806,120.30575,7.464598e-08
C0G960,福寶,2023-02-23,24.0443,120.3814,5.024307e-09
C0X210,白河,2023-02-23,23.347466,120.414427,8.6056157e-10
C0S810,東河,2023-02-23,22.972672,121.303986,3.605206e-08
C0R670,楓港,2023-02-23,22.190131,120.692156,0.99941224
C0FA50,霧峰,2023-02-23,24.0419,120.6995,2.7898195e-10
C0UB10,蘇澳,2023-02-23,24.5969,121.8571,3.1554557e-09
C0G950,防潮門,2023-02-23,24.1835,120.4871,6.2785936e-09
C0M740,六腳,2023-02-23,23.492871,120.290625,6.075097e-10
C1R250,力里,2023-02-23,22.428117,120.629228,4.2323334e-10
C0K330,虎尾,2023-02-23,23.719183,120.442036,6.1314515e-10
C2FA00,烏石坑,2023-02-23,24.273503,120.947617,1.6740385e-09
C0V620,永安,2023-02-23,22.82315,120.236856,2.2617028e-08
C1I330,楓樹林,2023-02-23,23.986803,121.076117,1.540039e-09
C0W200,湖西,2023-02-23,23.596314,119.67275,0.9155426
72Q010,高雄農改場,2023-02-23,22.709333,120.525889,4.832548e-09
C0SA40,瑞和,2023-02-23,22.974361,121.156697,1.301298e-09
C0C680,龜山,2023-02-23,25.02846,121.38656,7.2530053e-09
C2V260,月眉,2023-02-23,22.971003,120.539853,1.3476013e-08
C0V450,鳳森,2023-02-23,22.545064,120.392592,5.940551e-10
C0U720,南山,2023-02-23,24.43742,121.38167,2.753697e-09
A2N290,臺南蘭花園區,2023-02-23,23.340258,120.379661,8.527351e-10
C0R560,新園,2023-02-23,22.5434,120.461558,7.069813e-10
C0U890,三星,2023-02-23,24.66812,121.65302,2.8165483e-09
C1V300,御油山,2023-02-23,23.001983,120.715364,4.064643e-09
C0U600,礁溪,2023-02-23,24.817539,121.765608,5.1009956e-09
C1T980,龍澗,2023-02-23,24.023289,121.411328,1.1454038e-08
C0D670,海天一線,2023-02-23,24.831986,120.914438,9.4154956e-08
C0SA00,歷坵,2023-02-23,22.520969,120.89185,7.0741737e-09
C0M710,東石,2023-02-23,23.458927,120.15385,2.894724e-10
C0M780,鹿草,2023-02-23,23.41134,120.30835,3.8801054e-10
C0U520,雙連埤,2023-02-23,24.753033,121.641303,5.9633494e-09
C0B010,七堵,2023-02-23,25.094819,121.71713,2.1008724e-09
C0R480,長治,2023-02-23,22.693128,120.542622,9.378052e-09
C1V830,國三S383K,2023-02-23,22.781967,120.426475,5.6022516e-09
12Q980,恆春工作站,2023-02-23,22.079678,120.714425,0.99997157
C1O940,東山服務區,2023-02-23,23.286016,120.398472,1.2557881e-09
C1U840,東澳嶺,2023-02-23,24.5378,121.8485,7.3363884e-09
C1D630,飛鳳山,2023-02-23,24.766464,121.119178,1.601433e-09
C0S940,石寧山,2023-02-23,23.223772,121.406639,2.4260909e-09
C0K410,北港,2023-02-23,23.573957,120.292802,3.8544656e-10
C2M620,瑞里,2023-02-23,23.545133,120.675197,1.6872196e-09
C2O950,安南,2023-02-23,23.076694,120.144861,3.7678421e-10
C0F0E0,南湖圈谷,2023-02-23,24.363714,121.444667,2.9995803e-08
467610,成功,2023-02-23,23.097486,121.373428,7.787709e-09
C0G890,伸港,2023-02-23,24.148933,120.484403,6.5050005e-09
C2E540,龍溪,2023-02-23,24.606489,120.783933,7.001739e-09
C1V200,梅山,2023-02-23,23.268447,120.823556,1.7634555e-09
C0T9H0,加路蘭山,2023-02-23,23.682947,121.5274,4.35912e-09
C2O930,玉井,2023-02-23,23.126042,120.46055,5.842233e-09
C1F911,新伯公,2023-02-23,24.221361,120.841069,6.5932604e-10
C0R490,九如,2023-02-23,22.7405,120.490503,5.2321014e-09
C0X200,左鎮,2023-02-23,23.056758,120.408522,8.942765e-09
C1F891,稍來,2023-02-23,24.265689,121.001142,7.2659656e-09
72N240,七股研究中心,2023-02-23,23.081672,120.062894,3.8167672e-10
C0C700,中壢,2023-02-23,24.977661,121.256375,3.038354e-09
C0M690,水上,2023-02-23,23.419734,120.388909,1.0727321e-09
C0V690,鼓山,2023-02-23,22.623325,120.275575,3.4505978e-09
C0O860,大內,2023-02-23,23.11885,120.36083,1.748451e-09
C0Z200,萬榮,2023-02-23,23.709219,121.420106,2.3707676e-09
C0T9D0,和中,2023-02-23,24.26676,121.74103,1.8864068e-08
C1O921,楠西,2023-02-23,23.183511,120.484083,2.5235631e-09
C0AJ30,淡水觀海,2023-02-23,25.184591,121.408616,4.2469237e-09
C0V810,左營,2023-02-23,22.67491,120.28491,7.81175e-09
C0UA70,桃源谷,2023-02-23,24.962606,121.888875,1.4480254e-08
C0X130,官田,2023-02-23,23.193217,120.315422,2.3837945e-09
C1H000,翠峰,2023-02-23,24.109397,121.205211,8.043796e-09
C0UA90,石城,2023-02-23,24.980444,121.951214,7.282351e-09
C1E681,南勢山,2023-02-23,24.421669,120.923831,1.8181014e-09
C0A9F0,內湖,2023-02-23,25.079422,121.57545,1.9073576e-09
C0K291,宜梧,2023-02-23,23.536281,120.169329,3.042644e-10
C1K540,口湖,2023-02-23,23.585344,120.180517,5.3146874e-09
C0R780,滿州,2023-02-23,22.024403,120.839892,0.9994311
C0V870,文安,2023-02-23,22.8025,120.2164,2.4730742e-08
C0U650,玉蘭,2023-02-23,24.675286,121.587061,4.457279e-09
C0R640,東港,2023-02-23,22.46247,120.44074,2.5665162e-10
K2E360,苗栗農改,2023-02-23,24.495722,120.829111,9.1151925e-10
C0AJ80,板橋,2023-02-23,25.0107,121.4489,1.3830832e-09
C0S660,下馬,2023-02-23,23.150427,121.070312,4.5936575e-09
C1H9B1,阿眉,2023-02-23,24.1263,120.994672,4.972862e-09
C0UA20,多加屯,2023-02-23,24.368614,121.373189,4.853619e-09
C0E730,頭份,2023-02-23,24.688247,120.912206,3.9733283e-08
72V140,高改旗南分場,2023-02-23,22.857861,120.516667,2.6633213e-08
C0K480,莿桐,2023-02-23,23.761192,120.502372,5.7191213e-10
C0U980,坪林石牌,2023-02-23,24.86478,121.77396,9.93748e-09
C0T900,西林,2023-02-23,23.8119,121.441458,1.8878241e-09
C1I150,青雲,2023-02-23,23.793361,120.949378,4.6004855e-10
467350,澎湖,2023-02-23,23.565503,119.563094,0.94540757
C0G800,埔鹽,2023-02-23,24.000394,120.431683,3.49525e-09
C0H960,草屯,2023-02-23,23.973672,120.68085,2.840945e-10
C1V780,多納林道,2023-02-23,22.888028,120.737917,1.1048944e-09
C0E920,通霄漁港,2023-02-23,24.498589,120.673876,1.429085e-08
C0Z330,安通山,2023-02-23,23.290728,121.348528,2.0245903e-09
C0AH10,永和,2023-02-23,25.01125,121.508111,1.383115e-09
C2G640,鹿港,2023-02-23,24.0753,120.430481,5.024307e-09
C1E890,國三N149K,2023-02-23,24.463414,120.680019,3.4900873e-09
C1R110,口社,2023-02-23,22.770111,120.645222,8.692752e-10
C1M870,國三N285K,2023-02-23,23.550319,120.505833,1.2709789e-09
467050,新屋,2023-02-23,25.006744,121.047486,4.0429875e-08
C1E480,鳳美,2023-02-23,24.554803,121.034747,2.2051374e-09
C0M530,奮起湖,2023-02-23,23.493903,120.699253,1.9820372e-09
C0C590,觀音,2023-02-23,25.027072,121.153317,1.2865237e-07
C0T9M0,靜浦,2023-02-23,23.455167,121.495028,7.998735e-10
C0AI40,石牌,2023-02-23,25.115597,121.513139,3.2537706e-09
C1F871,上谷關,2023-02-23,24.203483,121.018644,1.1928929e-09
C0G880,二水,2023-02-23,23.810742,120.6173,1.6563351e-09
C0R940,加祿堂,2023-02-23,22.3363,120.6217,0.99893385
C0W220,北竿,2023-02-23,26.220358,119.974881,5.9273145e-08
C0O960,崎頂,2023-02-23,22.959547,120.369317,1.1616075e-08
C0S750,向陽,2023-02-23,23.248397,120.986133,7.015281e-09
C0T9F0,水璉,2023-02-23,23.797131,121.542514,2.1451543e-09
C1M600,頭凍,2023-02-23,23.406364,120.603339,2.0922468e-09
467660,臺東,2023-02-23,22.752211,121.154586,2.972463e-07
C1D380,新埔,2023-02-23,24.84745,121.03834,2.8488685e-09
C0V750,路竹,2023-02-23,22.854997,120.259439,6.848731e-10
C0N050,蚵寮,2023-02-23,23.301,120.1104,3.8989043e-10
72M700,南改鹿草分場,2023-02-23,23.416869,120.283061,3.9524398e-10
C1SA50,利嘉林道,2023-02-23,22.82325,121.009389,8.087378e-09
467550,玉山,2023-02-23,23.487614,120.959522,2.582862e-08
C0A940,金山,2023-02-23,25.223628,121.643967,3.860324e-09
C1V340,大津,2023-02-23,22.888322,120.645986,1.1331541e-09
C0W180,七美,2023-02-23,23.219333,119.444892,0.9391444
C1F9C1,白冷,2023-02-23,24.182844,120.929889,8.0510515e-10
K2E710,苗改生物防治研究中心,2023-02-23,24.422861,120.871833,5.0883414e-10
C0N040,蘆竹溝,2023-02-23,23.2344,120.0961,4.1132986e-10
C2W230,畜試所澎湖,2023-02-23,23.628342,119.513206,0.93972355
C0R880,後壁湖,2023-02-23,21.9457,120.7457,0.99224824
C1I280,埔中,2023-02-23,23.820778,120.642594,7.4106693e-10
467790,墾丁雷達站,2023-02-23,21.948235,120.808028,0.974823
C0W190,望安,2023-02-23,23.380564,119.494075,0.88416433
466881,新北,2023-02-23,24.9593,121.52,1.4106285e-09
C0Z170,卓溪,2023-02-23,23.3443,121.3029,9.436883e-10
C0F850,東勢,2023-02-23,24.246428,120.833047,4.094934e-10
466900,淡水,2023-02-23,25.164889,121.448906,1.4986256e-08
C0I370,魚池,2023-02-23,23.895703,120.94135,4.970792e-10
C0C630,大溪,2023-02-23,24.882853,121.265547,1.4058018e-09
C0A520,山佳,2023-02-23,24.974944,121.402008,2.0894155e-09
C0I110,竹山,2023-02-23,23.761225,120.688156,1.4559702e-09
82H840,茶改南部分場,2023-02-23,23.762528,120.7405,7.397987e-10
C0G660,溪湖,2023-02-23,23.94835,120.479122,1.125297e-09
C1T800,洛韶,2023-02-23,24.204558,121.453956,1.182473e-08
C1T810,慈恩,2023-02-23,24.192044,121.388386,6.07049e-09
C1E451,象鼻,2023-02-23,24.368617,120.940228,1.7743093e-09
C0AC60,三峽,2023-02-23,24.939025,121.369728,1.6134484e-09
C0I490,萬大林道,2023-02-23,23.928228,121.091411,2.6353608e-09
C1I290,豐丘,2023-02-23,23.668178,120.887417,2.4208076e-09
C1I320,奧萬大,2023-02-23,23.952956,121.178556,1.4830537e-09
C0U770,南澳,2023-02-23,24.44935,121.81022,5.568916e-09
C0A980,社子,2023-02-23,25.109508,121.469681,1.5200843e-08
C0V800,六龜,2023-02-23,22.997889,120.633583,1.085986e-09
C1G9D0,國一S218K,2023-02-23,23.890641,120.493253,1.2449466e-09
C2F9A0,中竹林,2023-02-23,24.103556,120.751061,4.5351e-10
C0FA40,臺中電廠,2023-02-23,24.2146,120.4907,6.280318e-09
C0H9C0,合歡山,2023-02-23,24.143442,121.272547,1.6384043e-08
C0X060,下營,2023-02-23,23.22695,120.256261,2.216396e-09
G2M350,農試溪口農場,2023-02-23,23.58565,120.408111,1.3662426e-09
C0U860,頭城,2023-02-23,24.85323,121.8308,5.1121187e-09
C0R580,南州,2023-02-23,22.48591,120.50274,2.5665162e-10
C0D430,峨眉,2023-02-23,24.6905,121.017189,1.3563449e-09
C0G780,秀水,2023-02-23,24.03405,120.503869,6.8569916e-10
72N100,臺南農改場,2023-02-23,23.0605,120.342194,1.7108435e-09
C0S900,蘭嶼高中,2023-02-23,22.04909,121.51214,0.90956986
467540,大武,2023-02-23,22.355675,120.903789,0.15740582
C1F9W0,德基,2023-02-23,24.254783,121.190261,5.650909e-09
C1Z120,壽豐,2023-02-23,23.870853,121.508081,1.6320126e-09
C0W160,烏坵,2023-02-23,24.9944,119.44956,1.745893e-06
C1I240,外大坪,2023-02-23,23.958697,120.917931,6.476844e-10
C1I550,國六W023K,2023-02-23,23.979067,120.867742,3.3971514e-10
C0R870,興海,2023-02-23,21.9752,120.8439,0.8581006
C0R140,瑪家,2023-02-23,22.682903,120.686639,6.549555e-10
C0A530,坪林,2023-02-23,24.938183,121.70975,7.471902e-09
C0X260,後壁,2023-02-23,23.366358,120.362326,8.527351e-10
C0Z230,和平,2023-02-23,24.30717,121.77007,2.038883e-08
C0G770,福興,2023-02-23,24.041289,120.437669,3.49525e-09
C0H9A0,神木村,2023-02-23,23.532742,120.843667,4.260042e-09
C0I460,南投,2023-02-23,23.911469,120.687331,3.5236228e-10
C0I480,梅峰,2023-02-23,24.085272,121.173572,4.4973305e-09
C1V570,吉東,2023-02-23,22.85422,120.5454,2.0625942e-08
C2A560,福山,2023-02-23,24.776203,121.502811,5.5203113e-09
C0AH30,五分山,2023-02-23,25.07125,121.780794,9.74189e-09
C0FA10,松柏,2023-02-23,24.429115,120.617482,3.8113495e-09
72S200,東改班鳩分場,2023-02-23,22.829528,121.077694,3.980229e-09
72HA00,中改埔里分場,2023-02-23,23.903208,120.963364,4.744665e-10
C0C650,平鎮,2023-02-23,24.897503,121.214636,2.039267e-09
C0S930,延平,2023-02-23,22.902581,121.084058,1.5759977e-09
C0UA60,樟樹山,2023-02-23,24.41393,121.78325,5.882217e-09
C1S670,摩天,2023-02-23,23.199503,121.027,6.259271e-09
C0V630,茄萣,2023-02-23,22.906642,120.182608,7.3684847e-10
466940,基隆,2023-02-23,25.133314,121.740475,7.192514e-09
C0X050,東河,2023-02-23,23.296598,120.385608,1.2901273e-09
C0R770,保力,2023-02-23,22.071122,120.764111,0.9982564
G2L020,農試嘉義分所,2023-02-23,23.485028,120.473806,1.2276529e-09
C0X240,關子嶺,2023-02-23,23.331169,120.508025,3.7646528e-10
C0I380,集集,2023-02-23,23.828206,120.801467,7.5600326e-10
466990,花蓮,2023-02-23,23.975128,121.613275,1.429207e-09
C1V220,小關山,2023-02-23,23.154217,120.813603,3.5428311e-09
C1F9G1,慶福山,2023-02-23,24.180853,120.848378,6.0949673e-10
C0Z250,瑞穗林道,2023-02-23,23.49284,121.30688,5.443753e-09
C0D590,新豐,2023-02-23,24.87068,120.97721,3.345393e-08
C0A870,五指山,2023-02-23,25.132153,121.608692,5.4443654e-09
C0UA50,西帽山,2023-02-23,24.555361,121.802628,5.3472045e-09
C0X160,仁德,2023-02-23,22.968258,120.257689,4.4989004e-09
C1H971,六分寮,2023-02-23,23.92507,120.6378,4.7566806e-10
C0W120,西嶼,2023-02-23,23.5626,119.468436,0.9659579
C0G650,員林,2023-02-23,23.946503,120.585597,3.1626426e-10
C0AD50,鶯歌,2023-02-23,24.951533,121.346294,1.68824e-09
C0S990,山豬窟,2023-02-23,22.318619,120.857372,0.00033420694
72Q010,高雄農改,2023-02-23,22.709333,120.525889,4.832548e-09
C0X190,安平,2023-02-23,22.993161,120.152181,5.1507865e-10
C0K400,斗六,2023-02-23,23.720583,120.541127,5.119151e-10
12J990,口湖工作站,2023-02-23,23.589978,120.180394,5.3146874e-09
C0O830,北寮,2023-02-23,23.079561,120.495008,1.0414469e-08
C1D410,白蘭,2023-02-23,24.579364,121.079947,4.8416355e-09
C0S970,加津林,2023-02-23,22.416211,120.926942,0.088643074
C0D700,關西,2023-02-23,24.7977,121.1732,6.203928e-10
C0M810,里佳,2023-02-23,23.389125,120.716647,3.319028e-09
C0U750,龜山島,2023-02-23,24.841667,121.953133,9.038833e-08
C0R810,內獅,2023-02-23,22.305064,120.642986,0.9989904
C1M390,龍美,2023-02-23,23.406728,120.654417,2.547604e-09
C1H840,國三N238K,2023-02-23,23.841008,120.707711,4.4895718e-10
CAQ030,崎峰國小,2023-02-23,22.42565,120.49521,2.5665162e-10
C2E520,大湖,2023-02-23,24.414939,120.870872,5.342635e-10
467530,阿里山,2023-02-23,23.508208,120.813242,8.3058955e-09
C1E691,南湖,2023-02-23,24.40135,120.837533,1.3383357e-09
C0FA30,梧棲,2023-02-23,24.256003,120.523381,3.3396979e-09
C1V231,高中,2023-02-23,23.134911,120.716711,5.0014154e-10
C0F9V0,新社,2023-02-23,24.200172,120.815806,7.2406864e-10
C0H890,埔里,2023-02-23,23.972169,120.952425,3.6871017e-10
C0R690,墾丁,2023-02-23,21.966756,120.810269,0.99991435
C0F0D0,審馬陣,2023-02-23,24.381675,121.4203,8.322038e-09
C0R820,白鷺,2023-02-23,22.454275,120.666219,1.9429043e-09
U2H480,臺大溪頭,2023-02-23,23.670306,120.798194,2.2717017e-09
C1V190,南天池,2023-02-23,23.27403,120.91176,6.1900542e-09
K2E360,苗栗農改場,2023-02-23,24.495722,120.829111,9.1151925e-10
CAJ050,海口故事園區,2023-02-23,23.57543,120.14121,5.3146874e-09
C0O990,媽廟,2023-02-23,22.99175,120.293525,2.2849558e-09
C0D480,打鐵坑,2023-02-23,24.849664,121.150789,1.4847349e-09
C0Z220,和平林道,2023-02-23,24.343922,121.656317,7.70619e-09
72C440,桃園農改場,2023-02-23,24.950944,121.030583,8.329343e-09
C1E711,馬拉邦山,2023-02-23,24.367306,120.901656,1.8429392e-09
C0D560,竹東,2023-02-23,24.767147,121.057881,6.1366695e-10
C0F9U0,南屯,2023-02-23,24.137006,120.637969,6.8518013e-10
C0M720,番路,2023-02-23,23.464657,120.554156,9.050245e-10
C0F0A0,雪山圈谷,2023-02-23,24.388594,121.236339,1.4028294e-08
C1A9N0,四十份,2023-02-23,24.934158,121.593283,5.7260987e-09
C0U760,東澳,2023-02-23,24.52196,121.83318,5.4009357e-09
C0X230,鹽水,2023-02-23,23.272621,120.247641,3.8394385e-10
C0V370,古亭坑,2023-02-23,22.893178,120.401947,2.435353e-05
C1I340,新興橋,2023-02-23,23.563333,120.868728,1.467342e-09
C0SA80,土坂,2023-02-23,22.453108,120.887572,9.521596e-08
C0R160,鹽埔,2023-02-23,22.739558,120.530778,4.8434274e-09
C0AC40,大屯山,2023-02-23,25.175675,121.522408,1.2286396e-08
466850,五分山雷達站,2023-02-23,25.071182,121.781205,9.853002e-09
C1AI50,國三N016K,2023-02-23,25.034164,121.619664,1.9608148e-09
C1V600,藤枝,2023-02-23,23.071961,120.757042,2.787055e-09
C1E601,南勢,2023-02-23,24.572486,120.734842,3.4800983e-08
C0Z180,新城,2023-02-23,24.03946,121.60454,1.4416147e-09
C0O980,新市,2023-02-23,23.061614,120.298197,1.9281448e-09
C0K420,西螺,2023-02-23,23.800407,120.467394,6.55708e-10
C0Z050,佳心,2023-02-23,23.34567,121.21316,4.7211786e-09
C0AD30,蘆洲,2023-02-23,25.086594,121.472331,1.8863484e-09
C0V610,梓官,2023-02-23,22.760558,120.267211,7.457155e-08
K2F750,種苗改良場,2023-02-23,24.225972,120.800917,6.890174e-10
C0UA80,大溪漁港,2023-02-23,24.941801,121.902955,6.6028534e-09
C1AI60,國一39K邊坡,2023-02-23,25.064361,121.383836,7.201876e-09
C0W150,金寧,2023-02-23,24.457703,118.328989,4.088071e-08
V2C250,八德合作社,2023-02-23,24.93775,121.266389,1.8905337e-09
C0AH40,平等,2023-02-23,25.129142,121.577086,3.8110226e-09
C0R540,佳冬,2023-02-23,22.419456,120.552375,0.9600599
466950,彭佳嶼,2023-02-23,25.627975,122.079744,6.0763832e-05
C0A890,雙溪,2023-02-23,25.036003,121.864242,2.3428132e-08
C0C480,桃園,2023-02-23,24.992425,121.323172,2.9493594e-09
C0AH50,林口,2023-02-23,25.072181,121.38084,7.43955e-09
A2K360,水試臺西試驗場,2023-02-23,23.717231,120.190522,7.946854e-09
B2N890,畜試所,2023-02-23,23.058972,120.336406,1.7108435e-09
C0F9S0,烏日,2023-02-23,24.107058,120.624103,2.1901844e-10
C0C490,八德,2023-02-23,24.928708,121.283289,1.895491e-09
C0R190,赤山,2023-02-23,22.592333,120.614306,4.390595e-09
C0T820,天祥,2023-02-23,24.179597,121.495639,5.1008207e-09
C1F9E1,龍安,2023-02-23,24.1605,120.831961,5.537435e-10
C0V820,小林,2023-02-23,23.148408,120.63325,6.600722e-10
C2G870,芳苑,2023-02-23,23.922303,120.320025,1.24863e-07
C0E850,大河,2023-02-23,24.618069,120.948578,1.0375406e-09
C1U670,寒溪,2023-02-23,24.634,121.71691,2.1587032e-09
C0N020,城西,2023-02-23,23.0568,120.0956,5.1507865e-10
C1Z110,三棧,2023-02-23,24.11557,121.60501,5.949841e-09
C0R280,檳榔,2023-02-23,22.076078,120.836777,0.2944729
C0F9L0,后里,2023-02-23,24.310436,120.729725,3.987453e-10
C0D540,橫山,2023-02-23,24.71116,121.11693,9.228358e-10
C1D420,太閣南,2023-02-23,24.632808,121.160575,4.733459e-09
C1E770,公館,2023-02-23,24.526914,120.830806,8.695405e-10
CAN130,水試所海水繁養殖中心,2023-02-23,23.120802,120.07968,3.8167672e-10
C1I430,翠華,2023-02-23,24.191961,121.224339,5.080731e-09
C1M400,菜瓜坪,2023-02-23,23.251928,120.576103,3.0787212e-10
C0G730,二林,2023-02-23,23.903325,120.376081,2.785312e-09
72M360,南改義竹分場,2023-02-23,23.360694,120.279361,3.5873063e-10
V2K620,麥寮合作社,2023-02-23,23.753836,120.294783,5.784473e-10
C0Z070,舞鶴,2023-02-23,23.46811,121.37407,1.036694e-09
C0B040,大武崙,2023-02-23,25.166676,121.706993,7.1526216e-09
C1Z030,紅葉,2023-02-23,23.493119,121.338806,1.3375446e-09
C1I050,丹大,2023-02-23,23.753747,121.141147,6.4040644e-09
C0I080,信義,2023-02-23,23.689694,120.851036,9.609492e-10
C2A880,福隆,2023-02-23,25.017842,121.942083,7.287367e-09
C0Z160,鳳林,2023-02-23,23.746114,121.453411,2.2653024e-09
C0V210,復興,2023-02-23,23.222403,120.806089,1.5778836e-09
C0H990,昆陽,2023-02-23,24.121322,121.273642,1.5441547e-08
C0S710,鹿野,2023-02-23,22.917711,121.122994,1.6904182e-09
C0I530,小奇萊,2023-02-23,24.131764,121.295717,1.625899e-08
C0Z080,富源,2023-02-23,23.587642,121.378225,2.915204e-09
467441,高雄,2023-02-23,22.7304,120.3125,5.8257893e-08
C1I140,卡奈托灣,2023-02-23,23.754364,121.087872,1.5553063e-09
C0I520,玉山風口,2023-02-23,23.470489,120.955994,2.6401416e-08
C1G691,下水埔,2023-02-23,23.816114,120.5676,5.671217e-10
C0X110,臺南市南區,2023-02-23,22.961189,120.188378,4.4989004e-09
C0V680,仁武,2023-02-23,22.701083,120.347722,7.863144e-09
C2G840,北斗,2023-02-23,23.877586,120.514222,1.1854058e-09
C0R900,竹坑,2023-02-23,22.1385,120.7022,0.9999706
C0K250,崙背,2023-02-23,23.75555,120.318925,5.784473e-10
C0G860,社頭,2023-02-23,23.897647,120.5862,5.125472e-10
C0X150,安定,2023-02-23,23.102614,120.227839,7.348695e-10
C0R590,里港,2023-02-23,22.77919,120.49459,1.1348655e-08
C0E610,馬都安,2023-02-23,24.451272,120.930192,1.455576e-09
C0E550,明德,2023-02-23,24.583486,120.885411,1.9173116e-09
C0R150,三地門,2023-02-23,22.709889,120.639944,8.8330454e-10
C0G910,花壇,2023-02-23,24.032076,120.549461,6.436782e-10
C1D400,鳥嘴山,2023-02-23,24.71909,121.28387,4.1664094e-09
C0K500,元長,2023-02-23,23.64981,120.315024,5.02373e-10
C0F0B0,石岡,2023-02-23,24.276061,120.777644,4.269044e-10
C2V250,甲仙,2023-02-23,23.080106,120.591758,3.3658722e-09
C0SA20,金崙山,2023-02-23,22.567419,120.959667,6.1930305e-09
C0V350,溪埔,2023-02-23,22.738578,120.446797,6.667841e-09
C0M660,溪口,2023-02-23,23.604131,120.403569,1.3662426e-09
C1S880,壽卡,2023-02-23,22.238911,120.858903,0.0034995005
72D680,桃改新埔分場,2023-02-23,24.834444,121.066111,2.8375509e-09
