站號,站名,日期,lat,lon,BlastGRU-TW
466881,新北,2023-06-16,24.9593,121.52,0.026522588
466900,淡水,2023-06-16,25.164889,121.448906,0.044078372
466920,臺北,2023-06-16,25.037658,121.514853,0.026372366
466940,基隆,2023-06-16,25.133314,121.740475,0.030169044
466990,花蓮,2023-06-16,23.975128,121.613275,0.62767583
467050,新屋,2023-06-16,25.006744,121.047486,0.07917151
467080,宜蘭,2023-06-16,24.763975,121.756528,0.02064841
467270,田中,2023-06-16,23.873803,120.581286,0.9661523
467300,東吉島,2023-06-16,23.25695,119.667467,0.6127578
467350,澎湖,2023-06-16,23.565503,119.563094,0.408713
467410,臺南,2023-06-16,22.993239,120.204772,0.99685425
467420,永康,2023-06-16,23.038386,120.2367,0.99702734
467441,高雄,2023-06-16,22.7304,120.3125,0.9977174
467480,嘉義,2023-06-16,23.495925,120.432906,0.9957296
467490,臺中,2023-06-16,24.145736,120.684075,0.8666862
467540,大武,2023-06-16,22.355675,120.903789,0.1449989
467571,新竹,2023-06-16,24.827853,121.014219,0.05007761
467590,恆春,2023-06-16,22.003897,120.746339,0.9879856
467610,成功,2023-06-16,23.097486,121.373428,0.99919647
467620,蘭嶼,2023-06-16,22.036969,121.558339,0.9980366
467660,臺東,2023-06-16,22.752211,121.154586,0.36862686
467790,墾丁雷達站,2023-06-16,21.948235,120.808028,0.9885347
C0A520,山佳,2023-06-16,24.974944,121.402008,0.033115335
C0A530,坪林,2023-06-16,24.938183,121.70975,0.04350042
C0A540,四堵,2023-06-16,24.8926,121.745736,0.017192487
C0A550,泰平,2023-06-16,24.971197,121.823711,0.07552223
C0A560,福山,2023-06-16,24.776203,121.502811,0.03577035
C0A570,桶後,2023-06-16,24.848222,121.597992,0.01565635
C0A640,石碇,2023-06-16,24.993969,121.662917,0.03931486
C0A650,火燒寮,2023-06-16,25.002719,121.742892,0.044584483
C0A660,瑞芳,2023-06-16,25.113169,121.801147,0.038675424
C0A770,科教館,2023-06-16,25.096356,121.516507,0.033152666
C0A860,大坪,2023-06-16,25.165914,121.632969,0.025593137
C0A880,福隆,2023-06-16,25.017842,121.942083,0.032416508
C0A890,雙溪,2023-06-16,25.036003,121.864242,0.030756505
C0A920,富貴角,2023-06-16,25.263783,121.565258,0.035855096
C0A931,三和,2023-06-16,25.233153,121.595236,0.050877035
C0A940,金山,2023-06-16,25.223628,121.643967,0.03775128
C0A950,鼻頭角,2023-06-16,25.129036,121.923372,0.031731963
C0A970,三貂角,2023-06-16,25.007606,122.002058,0.03932434
C0A980,社子,2023-06-16,25.109508,121.469681,0.0331985
C0A9C0,天母,2023-06-16,25.117494,121.537169,0.033107206
C0A9F0,內湖,2023-06-16,25.079422,121.57545,0.026372366
C0AC60,三峽,2023-06-16,24.939025,121.369728,0.026590612
C0AC70,信義,2023-06-16,25.037822,121.564597,0.026372366
C0AC80,文山,2023-06-16,25.00235,121.575728,0.026858505
C0ACA0,新莊,2023-06-16,25.051478,121.446756,0.03703058
C0AD00,三芝,2023-06-16,25.258131,121.501917,0.038302362
C0AD10,八里,2023-06-16,25.150211,121.403947,0.044078372
C0AD30,蘆洲,2023-06-16,25.086594,121.472331,0.03315265
C0AD40,土城,2023-06-16,24.973208,121.445169,0.033155657
C0AD50,鶯歌,2023-06-16,24.951533,121.346294,0.046478156
C0AG80,中和,2023-06-16,24.991622,121.491792,0.026372366
C0AH00,汐止,2023-06-16,25.066881,121.658778,0.030311162
C0AH10,永和,2023-06-16,25.01125,121.508111,0.026287109
C0AH40,平等,2023-06-16,25.129142,121.577086,0.01783242
C0AH50,林口,2023-06-16,25.072181,121.38084,0.025815928
C0AH70,松山,2023-06-16,25.04871,121.55042,0.026372366
C0AH80,深坑,2023-06-16,25.002703,121.628328,0.026858505
C0AI00,五股,2023-06-16,25.07445,121.42728,0.09394636
C0AI10,屈尺,2023-06-16,24.92184,121.54475,0.026858505
C0AI20,白沙灣,2023-06-16,25.283128,121.519058,0.03764561
C0AI30,三重,2023-06-16,25.057328,121.500629,0.033152666
C0AI40,石牌,2023-06-16,25.115597,121.513139,0.033155657
C0AJ20,野柳,2023-06-16,25.20703,121.690021,0.030311162
C0AJ30,淡水觀海,2023-06-16,25.184591,121.408616,0.044116925
C0AJ40,石門,2023-06-16,25.273672,121.601198,0.04383107
C0AJ50,水湳洞,2023-06-16,25.123695,121.862238,0.030311162
C0AJ60,六塊厝,2023-06-16,25.24,121.4481,0.044116925
C0AJ70,田寮,2023-06-16,25.2698,121.4886,0.037620045
C0AJ80,板橋,2023-06-16,25.0107,121.4489,0.033155657
C0AJ90,澳底,2023-06-16,25.0552,121.9253,0.032416508
C0B010,七堵,2023-06-16,25.094819,121.71713,0.030476984
C0B020,基隆嶼,2023-06-16,25.19141,121.78391,0.030311162
C0B040,大武崙,2023-06-16,25.166676,121.706993,0.030476984
C0B050,八斗子,2023-06-16,25.144754,121.79167,0.030117862
C0B060,暖暖,2023-06-16,25.0957,121.7403,0.03148763
C0C460,復興,2023-06-16,24.820208,121.352281,0.018299088
C0C480,桃園,2023-06-16,24.992425,121.323172,0.07101846
C0C490,八德,2023-06-16,24.928708,121.283289,0.051065557
C0C590,觀音,2023-06-16,25.027072,121.153317,0.052012697
C0C620,蘆竹,2023-06-16,25.084275,121.265767,0.044479854
C0C630,大溪,2023-06-16,24.882853,121.265547,0.06014663
C0C650,平鎮,2023-06-16,24.897503,121.214636,0.09428816
C0C660,楊梅,2023-06-16,24.912375,121.143047,0.0937648
C0C670,龍潭,2023-06-16,24.870056,121.221389,0.23074
C0C680,龜山,2023-06-16,25.02846,121.38656,0.0282139
C0C700,中壢,2023-06-16,24.977661,121.256375,0.07730538
C0C710,大溪永福,2023-06-16,24.892936,121.324975,0.08879527
C0C720,竹圍,2023-06-16,25.112692,121.239824,0.044078372
C0C730,中大臨海站,2023-06-16,24.966126,121.008581,0.07602745
C0C740,觀音工業區,2023-06-16,25.064764,121.114856,0.076695584
C0C750,新興坑尾,2023-06-16,25.0061,121.0971,0.0921803
C0D430,峨眉,2023-06-16,24.6905,121.017189,0.04306896
C0D480,打鐵坑,2023-06-16,24.849664,121.150789,0.18541242
C0D540,橫山,2023-06-16,24.71116,121.11693,0.12997296
C0D560,竹東,2023-06-16,24.767147,121.057881,0.057042845
C0D580,寶山,2023-06-16,24.735006,121.025192,0.096964896
C0D590,新豐,2023-06-16,24.87068,120.97721,0.121418625
C0D650,湖口,2023-06-16,24.904794,121.043628,0.08637681
C0D660,新竹市東區,2023-06-16,24.798681,120.986942,0.05182494
C0D670,海天一線,2023-06-16,24.831986,120.914438,0.043508787
C0D680,香山濕地,2023-06-16,24.783581,120.914988,0.04412994
C0D690,外湖,2023-06-16,24.917735,120.968711,0.07602745
C0D700,關西,2023-06-16,24.7977,121.1732,0.074045904
C0E420,竹南,2023-06-16,24.708978,120.888897,0.04649006
C0E430,南庄,2023-06-16,24.601775,121.000214,0.10492301
C0E520,大湖,2023-06-16,24.41494,120.87087,0.23878022
C0E540,後龍,2023-06-16,24.606489,120.783933,0.61419404
C0E550,明德,2023-06-16,24.583486,120.885411,0.26602432
C0E590,通霄,2023-06-16,24.471892,120.704622,0.5698181
C0E730,頭份,2023-06-16,24.688247,120.912206,0.04649006
C0E740,造橋,2023-06-16,24.637056,120.864778,0.18265758
C0E750,苗栗,2023-06-16,24.564569,120.824575,0.75576895
C0E780,銅鑼,2023-06-16,24.489681,120.790853,0.2368529
C0E791,卓蘭,2023-06-16,24.3126,120.8244,0.12532699
C0E810,西湖,2023-06-16,24.562947,120.7485,0.7018734
C0E820,獅潭,2023-06-16,24.539133,120.920042,0.21464968
C0E830,苑裡,2023-06-16,24.439714,120.653053,0.38383698
C0E850,大河,2023-06-16,24.618069,120.948578,0.29239872
C0E870,高鐵苗栗,2023-06-16,24.60725,120.826094,0.6434936
C0E910,海埔,2023-06-16,24.648767,120.772435,0.16892204
C0E920,通霄漁港,2023-06-16,24.498589,120.673876,0.4200974
C0E930,龍鳳,2023-06-16,24.700034,120.859125,0.15751697
C0F0B0,石岡,2023-06-16,24.276061,120.777644,0.41768396
C0F850,東勢,2023-06-16,24.246428,120.833047,0.25481132
C0F930,大甲,2023-06-16,24.347667,120.640403,0.5571961
C0F970,大坑,2023-06-16,24.173142,120.722289,0.88102174
C0F9A0,中竹林,2023-06-16,24.103556,120.751061,0.9231595
C0F9I0,神岡,2023-06-16,24.272481,120.658314,0.48535448
C0F9K0,大安,2023-06-16,24.345061,120.588025,0.29928997
C0F9L0,后里,2023-06-16,24.310436,120.729725,0.6430106
C0F9M0,豐原,2023-06-16,24.254322,120.720692,0.56487566
C0F9N0,大里,2023-06-16,24.092464,120.701378,0.487393
C0F9O0,潭子,2023-06-16,24.213106,120.703933,0.468411
C0F9P0,清水,2023-06-16,24.312297,120.562242,0.25723577
C0F9Q0,外埔,2023-06-16,24.347817,120.705686,0.38906527
C0F9R0,龍井,2023-06-16,24.184536,120.528972,0.33374473
C0F9S0,烏日,2023-06-16,24.107058,120.624103,0.8603472
C0F9T0,西屯,2023-06-16,24.179494,120.641275,0.60075617
C0F9U0,南屯,2023-06-16,24.137006,120.637969,0.487393
C0F9X0,大雅(中科園區),2023-06-16,24.21528,120.62445,0.821906
C0FA10,松柏,2023-06-16,24.429115,120.617482,0.30994916
C0FA20,溫寮,2023-06-16,24.372177,120.583125,0.30994916
C0FA30,梧棲,2023-06-16,24.256003,120.523381,0.33374473
C0FA40,臺中電廠,2023-06-16,24.2146,120.4907,0.33374438
C0FA50,霧峰,2023-06-16,24.0419,120.6995,0.7803937
C0G620,芬園,2023-06-16,24.015678,120.6213,0.97158045
C0G640,鹿港,2023-06-16,24.0753,120.430481,0.89647025
C0G650,員林,2023-06-16,23.946503,120.585597,0.95733875
C0G660,溪湖,2023-06-16,23.94835,120.479122,0.9520914
C0G720,溪州,2023-06-16,23.851589,120.499093,0.9639976
C0G730,二林,2023-06-16,23.903325,120.376081,0.92587537
C0G740,大城,2023-06-16,23.852487,120.320935,0.9978514
C0G770,福興,2023-06-16,24.041289,120.437669,0.89647025
C0G780,秀水,2023-06-16,24.03405,120.503869,0.87951535
C0G800,埔鹽,2023-06-16,24.000394,120.431683,0.89647025
C0G810,埔心,2023-06-16,23.947633,120.525456,0.9560332
C0G820,田尾,2023-06-16,23.901669,120.509389,0.9598306
C0G830,埤頭,2023-06-16,23.866003,120.452806,0.9574914
C0G840,北斗,2023-06-16,23.877586,120.514222,0.9598306
C0G860,社頭,2023-06-16,23.897647,120.5862,0.9609317
C0G870,芳苑,2023-06-16,23.922303,120.320025,0.99795085
C0G880,二水,2023-06-16,23.810742,120.6173,0.9738195
C0G890,伸港,2023-06-16,24.148933,120.484403,0.3142131
C0G900,線西,2023-06-16,24.143358,120.443536,0.4426898
C0G910,花壇,2023-06-16,24.032076,120.549461,0.9027478
C0G920,永靖,2023-06-16,23.924703,120.547533,0.9598306
C0G940,竹塘,2023-06-16,23.848253,120.386764,0.8513475
C0G950,防潮門,2023-06-16,24.1835,120.4871,0.31032553
C0G960,福寶,2023-06-16,24.0443,120.3814,0.88387483
C0G970,三豐,2023-06-16,23.882,120.2895,0.99795085
C0H890,埔里,2023-06-16,23.972169,120.952425,0.095490925
C0H950,中寮,2023-06-16,23.884447,120.766406,0.9825898
C0H960,草屯,2023-06-16,23.973672,120.68085,0.97962826
C0I110,竹山,2023-06-16,23.761225,120.688156,0.9817797
C0I360,水里,2023-06-16,23.812553,120.849792,0.9713883
C0I380,集集,2023-06-16,23.828206,120.801467,0.96561825
C0I410,名間,2023-06-16,23.837053,120.701447,0.97899276
C0I420,國姓,2023-06-16,24.037803,120.855072,0.54086894
C0I460,南投,2023-06-16,23.911469,120.687331,0.97835845
C0K250,崙背,2023-06-16,23.75555,120.318925,0.9978467
C0K280,四湖,2023-06-16,23.630414,120.227125,0.9976637
C0K291,宜梧,2023-06-16,23.536281,120.169329,0.9977833
C0K330,虎尾,2023-06-16,23.719183,120.442036,0.7623061
C0K390,土庫,2023-06-16,23.679029,120.395574,0.74025744
C0K400,斗六,2023-06-16,23.720583,120.541127,0.92962223
C0K410,北港,2023-06-16,23.573957,120.292802,0.9980461
C0K420,西螺,2023-06-16,23.800407,120.467394,0.9578617
C0K430,褒忠,2023-06-16,23.690938,120.303634,0.9984662
C0K440,二崙,2023-06-16,23.772797,120.408944,0.865207
C0K450,大埤,2023-06-16,23.646074,120.431537,0.7836643
C0K460,斗南,2023-06-16,23.678734,120.478359,0.91403306
C0K470,林內,2023-06-16,23.748675,120.609642,0.953892
C0K480,莿桐,2023-06-16,23.761192,120.502372,0.9610675
C0K500,元長,2023-06-16,23.64981,120.315024,0.9980876
C0K510,水林,2023-06-16,23.572924,120.24597,0.99763787
C0K530,臺西,2023-06-16,23.701547,120.197559,0.9981705
C0K550,蔦松,2023-06-16,23.514319,120.229736,0.99767053
C0K560,棋山,2023-06-16,23.68645,120.603417,0.9493122
C0K580,高鐵雲林,2023-06-16,23.737456,120.417944,0.74025744
C0K590,雲林東勢,2023-06-16,23.674192,120.255721,0.9984662
C0K600,箔子寮,2023-06-16,23.6197,120.14,0.99776053
C0M410,馬頭山,2023-06-16,23.324361,120.582017,0.96929586
C0M520,東後寮,2023-06-16,23.369908,120.248065,0.99758697
C0M640,中埔,2023-06-16,23.42538,120.5229,0.9790513
C0M650,朴子,2023-06-16,23.43463,120.23902,0.99764234
C0M660,溪口,2023-06-16,23.604131,120.403569,0.99716055
C0M670,大林,2023-06-16,23.600616,120.45841,0.99555796
C0M680,太保,2023-06-16,23.455062,120.331455,0.99801004
C0M690,水上,2023-06-16,23.419734,120.388909,0.99537677
C0M700,竹崎,2023-06-16,23.526178,120.555508,0.9813543
C0M710,東石,2023-06-16,23.458927,120.15385,0.99767053
C0M720,番路,2023-06-16,23.464657,120.554156,0.9848709
C0M730,嘉義市東區,2023-06-16,23.457673,120.460531,0.9949015
C0M740,六腳,2023-06-16,23.492871,120.290625,0.998117
C0M750,布袋,2023-06-16,23.380878,120.167789,0.99764234
C0M760,民雄,2023-06-16,23.551754,120.428457,0.99691784
C0M770,嘉義梅山,2023-06-16,23.585398,120.555587,0.96739334
C0M780,鹿草,2023-06-16,23.41134,120.30835,0.9971311
C0M790,新港,2023-06-16,23.553269,120.345728,0.99792695
C0M800,茶山,2023-06-16,23.299075,120.664767,0.99682266
C0M880,好美里,2023-06-16,23.3364,120.138,0.9975653
C0N010,鯤鯓國小,2023-06-16,23.1879,120.0889,0.9975913
C0N020,城西,2023-06-16,23.0568,120.0956,0.9980322
C0N030,四草,2023-06-16,23.0235,120.1116,0.998172
C0N040,蘆竹溝,2023-06-16,23.2344,120.0961,0.9975913
C0N050,蚵寮,2023-06-16,23.301,120.1104,0.9975913
C0O810,曾文,2023-06-16,23.219681,120.497328,0.9925392
C0O830,北寮,2023-06-16,23.079561,120.495008,0.9978309
C0O840,王爺宮,2023-06-16,23.222064,120.40085,0.9925392
C0O860,大內,2023-06-16,23.11885,120.36083,0.9919492
C0O900,善化,2023-06-16,23.112883,120.297219,0.99587613
C0O930,玉井,2023-06-16,23.126042,120.46055,0.9935241
C0O950,安南,2023-06-16,23.076694,120.144861,0.99710405
C0O960,崎頂,2023-06-16,22.959547,120.369317,0.9982224
C0O970,虎頭埤,2023-06-16,23.021375,120.347878,0.99628866
C0O980,新市,2023-06-16,23.061614,120.298197,0.99587613
C0O990,媽廟,2023-06-16,22.99175,120.293525,0.9958516
C0R150,三地門,2023-06-16,22.709889,120.639944,0.9921416
C0R160,鹽埔,2023-06-16,22.739558,120.530778,0.9925859
C0R170,屏東,2023-06-16,22.660269,120.494072,0.9969793
C0R190,赤山,2023-06-16,22.592333,120.614306,0.99302924
C0R220,潮州,2023-06-16,22.534361,120.54,0.99342424
C0R240,來義,2023-06-16,22.527306,120.625111,0.9944466
C0R260,春日,2023-06-16,22.370361,120.628306,0.9937596
C0R270,琉球嶼,2023-06-16,22.332244,120.362236,0.9939613
C0R280,檳榔,2023-06-16,22.076078,120.836777,0.98819983
C0R320,車城,2023-06-16,22.0744,120.716247,0.98678505
C0R341,牡丹,2023-06-16,22.130036,120.792639,0.9956701
C0R350,貓鼻頭,2023-06-16,21.921774,120.7358,0.9882717
C0R470,高樹,2023-06-16,22.826389,120.600806,0.9904333
C0R480,長治,2023-06-16,22.693128,120.542622,0.9927985
C0R490,九如,2023-06-16,22.7405,120.490503,0.9968972
C0R520,崁頂,2023-06-16,22.514781,120.506914,0.99724656
C0R540,佳冬,2023-06-16,22.419456,120.552375,0.99732333
C0R550,新埤,2023-06-16,22.467947,120.582894,0.992854
C0R560,新園,2023-06-16,22.5434,120.461558,0.9972206
C0R570,麟洛,2023-06-16,22.65078,120.52719,0.9968972
C0R580,南州,2023-06-16,22.48591,120.50274,0.99731815
C0R590,里港,2023-06-16,22.77919,120.49459,0.99283296
C0R620,墾雷,2023-06-16,21.900836,120.855269,0.9882717
C0R640,東港,2023-06-16,22.46247,120.44074,0.99743044
C0R650,竹田,2023-06-16,22.58486,120.54344,0.9926257
C0R660,枋寮,2023-06-16,22.367722,120.590647,0.9929441
C0R670,楓港,2023-06-16,22.190131,120.692156,0.99156827
C0R680,佳樂水,2023-06-16,21.993578,120.861633,0.98769265
C0R690,墾丁,2023-06-16,21.966756,120.810269,0.9878383
C0R700,枋山,2023-06-16,22.246844,120.661086,0.99156827
C0R710,龍磐,2023-06-16,21.931672,120.838942,0.98818016
C0R720,旭海,2023-06-16,22.205403,120.887614,0.7646071
C0R730,大坪頂,2023-06-16,22.024633,120.69355,0.9894934
C0R740,獅子,2023-06-16,22.201569,120.70525,0.993492
C0R760,南仁湖,2023-06-16,22.084681,120.863353,0.98744416
C0R770,保力,2023-06-16,22.071122,120.764111,0.9885719
C0R780,滿州,2023-06-16,22.024403,120.839892,0.98842704
C0R790,九棚,2023-06-16,22.14195,120.889281,0.7037075
C0R800,丹路,2023-06-16,22.204481,120.750989,0.9951165
C0R810,內獅,2023-06-16,22.305064,120.642986,0.99202275
C0R830,高士,2023-06-16,22.121825,120.836781,0.9863609
C0R850,林邊,2023-06-16,22.4634,120.5339,0.9972206
C0R860,鼻頭,2023-06-16,22.1043,120.8979,0.98571366
C0R870,興海,2023-06-16,21.9752,120.8439,0.98769265
C0R880,後壁湖,2023-06-16,21.9457,120.7457,0.98610455
C0R890,山海,2023-06-16,21.9878,120.7091,0.98678505
C0R900,竹坑,2023-06-16,22.1385,120.7022,0.99259174
C0R910,下寮,2023-06-16,22.3929,120.5548,0.99731815
C0R920,塭仔,2023-06-16,22.4169,120.5197,0.9973917
C0R930,萬丹,2023-06-16,22.5885,120.4851,0.9926257
C0R940,加祿堂,2023-06-16,22.3363,120.6217,0.99202275
C0S710,鹿野,2023-06-16,22.917711,121.122994,0.99886435
C0S730,綠島,2023-06-16,22.6672,121.47533,0.9995486
C0S740,池上,2023-06-16,23.119628,121.209469,0.99934024
C0S770,大溪山,2023-06-16,22.478475,120.943325,0.8333582
C0S790,金崙,2023-06-16,22.538122,120.966875,0.441595
C0S810,東河,2023-06-16,22.972672,121.303986,0.9995404
C0S830,長濱,2023-06-16,23.286817,121.411975,0.99907625
C0S840,南田,2023-06-16,22.279725,120.889208,0.32431456
C0S890,關山,2023-06-16,23.0395,121.175017,0.99963313
C0S900,蘭嶼高中,2023-06-16,22.04909,121.51214,0.9966123
C0S910,蘭嶼燈塔,2023-06-16,22.081197,121.503117,0.9980742
C0S920,金峰嘉蘭,2023-06-16,22.594789,120.960825,0.19689368
C0S930,延平,2023-06-16,22.902581,121.084058,0.9994656
C0S940,石寧山,2023-06-16,23.223772,121.406639,0.99944127
C0S950,七塊厝,2023-06-16,22.954453,121.229922,0.9986186
C0S960,香蘭,2023-06-16,22.587569,120.993375,0.12013197
C0S970,加津林,2023-06-16,22.416211,120.926942,0.15611534
C0S990,山豬窟,2023-06-16,22.318619,120.857372,0.9365842
C0SA00,歷坵,2023-06-16,22.520969,120.89185,0.93770665
C0SA10,檳榔四格山,2023-06-16,22.810031,121.109308,0.9721536
C0SA30,都歷,2023-06-16,23.020333,121.323642,0.9994695
C0SA40,瑞和,2023-06-16,22.974361,121.156697,0.99964803
C0SA60,知本（水試所）,2023-06-16,22.702394,121.082761,0.2595499
C0SA80,土坂,2023-06-16,22.453108,120.887572,0.27009147
C0SA90,達仁林場,2023-06-16,22.264347,120.823972,0.99624515
C0T870,鯉魚潭,2023-06-16,23.935639,121.508944,0.6347927
C0T900,西林,2023-06-16,23.8119,121.441458,0.6934322
C0T960,光復,2023-06-16,23.660694,121.424964,0.72133124
C0T9A0,月眉山,2023-06-16,23.809928,121.539828,0.9479533
C0T9D0,和中,2023-06-16,24.26676,121.74103,0.3794287
C0T9E0,大坑,2023-06-16,23.880628,121.581981,0.87672687
C0T9F0,水璉,2023-06-16,23.797131,121.542514,0.83025163
C0T9I0,豐濱,2023-06-16,23.583897,121.514806,0.7861764
C0T9M0,靜浦,2023-06-16,23.455167,121.495028,0.7053057
C0T9N0,富里,2023-06-16,23.171639,121.249378,0.9989861
C0U600,礁溪,2023-06-16,24.817539,121.765608,0.020931913
C0U650,玉蘭,2023-06-16,24.675286,121.587061,0.9898259
C0U750,龜山島,2023-06-16,24.841667,121.953133,0.038848132
C0U760,東澳,2023-06-16,24.52196,121.83318,0.01159222
C0U770,南澳,2023-06-16,24.44935,121.81022,0.011047778
C0U780,五結,2023-06-16,24.68637,121.79794,0.037865862
C0U860,頭城,2023-06-16,24.85323,121.8308,0.02064841
C0U870,大礁溪,2023-06-16,24.791042,121.675047,0.081917174
C0U880,北關,2023-06-16,24.9072,121.8734,0.025946744
C0U890,三星,2023-06-16,24.66812,121.65302,0.025532214
C0U900,內城,2023-06-16,24.71813,121.68766,0.022014728
C0U910,冬山,2023-06-16,24.63373,121.7937,0.037865862
C0U940,羅東,2023-06-16,24.68184,121.74934,0.038532373
C0U970,大福,2023-06-16,24.80064,121.81389,0.020313822
C0U990,員山,2023-06-16,24.74435,121.72247,0.038532373
C0UA00,土場,2023-06-16,24.576533,121.495333,0.10685152
C0UA80,大溪漁港,2023-06-16,24.941801,121.902955,0.020931913
C0UA90,石城,2023-06-16,24.980444,121.951214,0.033310615
C0UB00,淡江大學蘭陽校園,2023-06-16,24.823239,121.730383,0.20391048
C0UB10,蘇澳,2023-06-16,24.5969,121.8571,0.013696633
C0UB20,壯圍,2023-06-16,24.7359,121.8163,0.03718797
C0V250,甲仙,2023-06-16,23.080106,120.591758,0.99517405
C0V260,月眉,2023-06-16,22.971003,120.539853,0.99797225
C0V310,美濃,2023-06-16,22.898742,120.519153,0.99332464
C0V350,溪埔,2023-06-16,22.738578,120.446797,0.9973968
C0V360,內門,2023-06-16,22.975481,120.466769,0.9919317
C0V370,古亭坑,2023-06-16,22.893178,120.401947,0.9941727
C0V400,阿公店,2023-06-16,22.804194,120.355528,0.99715966
C0V440,鳳山,2023-06-16,22.646653,120.356122,0.99720526
C0V450,鳳森,2023-06-16,22.545064,120.392592,0.99391264
C0V490,新興,2023-06-16,22.627422,120.298803,0.99735993
C0V530,阿蓮,2023-06-16,22.883208,120.327508,0.9967018
C0V610,梓官,2023-06-16,22.760558,120.267211,0.99752736
C0V620,永安,2023-06-16,22.82315,120.236856,0.99749476
C0V630,茄萣,2023-06-16,22.906642,120.182608,0.99725986
C0V640,湖內,2023-06-16,22.887139,120.2445,0.99710673
C0V650,彌陀,2023-06-16,22.783806,120.246361,0.99749476
C0V660,岡山,2023-06-16,22.797078,120.294958,0.99752736
C0V680,仁武,2023-06-16,22.701083,120.347722,0.9977119
C0V690,鼓山,2023-06-16,22.623325,120.275575,0.99735993
C0V700,三民,2023-06-16,22.645017,120.311233,0.99735993
C0V710,苓雅,2023-06-16,22.622742,120.330669,0.99735993
C0V720,林園,2023-06-16,22.507747,120.394511,0.99735993
C0V730,大寮,2023-06-16,22.605614,120.395717,0.99311036
C0V740,旗山,2023-06-16,22.888614,120.483597,0.99314004
C0V750,路竹,2023-06-16,22.854997,120.259439,0.9973778
C0V760,橋頭,2023-06-16,22.757806,120.30575,0.99756
C0V770,大社,2023-06-16,22.730306,120.346639,0.9977119
C0V790,萬山,2023-06-16,22.905944,120.688056,0.99665695
C0V800,六龜,2023-06-16,22.997889,120.633583,0.9977143
C0V810,左營,2023-06-16,22.67491,120.28491,0.9977174
C0V820,小林,2023-06-16,23.148408,120.63325,0.99581504
C0V840,鳳鼻頭,2023-06-16,22.5083,120.3591,0.99743044
C0V850,蚵仔寮,2023-06-16,22.7256,120.2527,0.997705
C0V860,南寮,2023-06-16,22.7616,120.2339,0.9974173
C0V870,文安,2023-06-16,22.8025,120.2164,0.9974173
C0V880,興達,2023-06-16,22.8778,120.2127,0.99725986
C0V890,前鎮,2023-06-16,22.5718,120.3117,0.99743044
C0V900,汕尾,2023-06-16,22.4782,120.4151,0.9971981
C0X050,東河,2023-06-16,23.296598,120.385608,0.99457073
C0X060,下營,2023-06-16,23.22695,120.256261,0.99677944
C0X080,佳里,2023-06-16,23.173039,120.145086,0.9975653
C0X100,臺南市北區,2023-06-16,23.010394,120.194228,0.9971612
C0X110,臺南市南區,2023-06-16,22.961189,120.188378,0.99702734
C0X120,麻豆,2023-06-16,23.183289,120.248611,0.9974336
C0X130,官田,2023-06-16,23.193217,120.315422,0.9964409
C0X140,西港,2023-06-16,23.125608,120.203108,0.99774146
C0X150,安定,2023-06-16,23.102614,120.227839,0.9967227
C0X160,仁德,2023-06-16,22.968258,120.257689,0.9960637
C0X170,關廟,2023-06-16,22.963017,120.327797,0.9952655
C0X180,山上,2023-06-16,23.0757,120.363253,0.99243355
C0X190,安平,2023-06-16,22.993161,120.152181,0.9971612
C0X200,左鎮,2023-06-16,23.056758,120.408522,0.992632
C0X210,白河,2023-06-16,23.347466,120.414427,0.9944245
C0X220,學甲,2023-06-16,23.230367,120.182187,0.9974336
C0X230,鹽水,2023-06-16,23.272621,120.247641,0.9973512
C0X240,關子嶺,2023-06-16,23.331169,120.508025,0.99287134
C0X250,新營,2023-06-16,23.310689,120.316681,0.99716526
C0X260,後壁,2023-06-16,23.366358,120.362326,0.9942566
C0X280,將軍,2023-06-16,23.214999,120.13577,0.9975653
C0X290,北門,2023-06-16,23.267772,120.125481,0.9975653
C0X300,鹿寮,2023-06-16,23.386047,120.477331,0.9620777
C0X310,七股,2023-06-16,23.147289,120.086253,0.99816775
C0X320,柳營,2023-06-16,23.253328,120.375253,0.99457073
C0Z020,明里,2023-06-16,23.208717,121.262342,0.9992248
C0Z061,玉里,2023-06-16,23.3215,121.339656,0.99948925
C0Z070,舞鶴,2023-06-16,23.46811,121.37407,0.8388195
C0Z080,富源,2023-06-16,23.587642,121.378225,0.83842874
C0Z100,東華,2023-06-16,23.89525,121.549833,0.48023075
C0Z150,吉安光華,2023-06-16,23.930925,121.595153,0.45006996
C0Z160,鳳林,2023-06-16,23.746114,121.453411,0.7004247
C0Z170,卓溪,2023-06-16,23.3443,121.3029,0.9994349
C0Z180,新城,2023-06-16,24.03946,121.60454,0.6500559
C0Z190,富世,2023-06-16,24.14743,121.6297,0.9985523
C0Z200,萬榮,2023-06-16,23.709219,121.420106,0.6347927
C0Z210,瑞穗,2023-06-16,23.5239,121.39021,0.7532903
C0Z230,和平,2023-06-16,24.30717,121.77007,0.3794287
C0Z270,蕃薯寮,2023-06-16,23.73835,121.540108,0.75119877
C0Z280,德武,2023-06-16,23.47426,121.41071,0.77690035
C0Z300,東里,2023-06-16,23.26853,121.30547,0.99946225
C0Z310,清水斷崖,2023-06-16,24.218294,121.689142,0.8932571
C0Z330,安通山,2023-06-16,23.290728,121.348528,0.998748
