站號,站名,日期,lat,lon,BlastGRU-TW
466881,新北,2023-08-16,24.9593,121.52,0.054973215
466900,淡水,2023-08-16,25.164889,121.448906,0.14124377
466920,臺北,2023-08-16,25.037658,121.514853,0.070218235
466940,基隆,2023-08-16,25.133314,121.740475,0.27840906
466990,花蓮,2023-08-16,23.975128,121.613275,0.9997213
467050,新屋,2023-08-16,25.006744,121.047486,0.12506574
467080,宜蘭,2023-08-16,24.763975,121.756528,0.31108227
467270,田中,2023-08-16,23.873803,120.581286,0.75858706
467300,東吉島,2023-08-16,23.25695,119.667467,0.9997645
467350,澎湖,2023-08-16,23.565503,119.563094,0.9997098
467410,臺南,2023-08-16,22.993239,120.204772,0.1410734
467420,永康,2023-08-16,23.038386,120.2367,0.50595945
467441,高雄,2023-08-16,22.7304,120.3125,0.406601
467480,嘉義,2023-08-16,23.495925,120.432906,0.95342296
467490,臺中,2023-08-16,24.145736,120.684075,0.07228927
467540,大武,2023-08-16,22.355675,120.903789,0.99933416
467571,新竹,2023-08-16,24.827853,121.014219,0.17350823
467590,恆春,2023-08-16,22.003897,120.746339,0.9970027
467610,成功,2023-08-16,23.097486,121.373428,0.99994105
467620,蘭嶼,2023-08-16,22.036969,121.558339,0.99689806
467660,臺東,2023-08-16,22.752211,121.154586,0.9998082
467790,墾丁雷達站,2023-08-16,21.948235,120.808028,0.99736565
C0A520,山佳,2023-08-16,24.974944,121.402008,0.057360765
C0A530,坪林,2023-08-16,24.938183,121.70975,0.978697
C0A540,四堵,2023-08-16,24.8926,121.745736,0.85641885
C0A550,泰平,2023-08-16,24.971197,121.823711,0.99725896
C0A560,福山,2023-08-16,24.776203,121.502811,0.99931824
C0A570,桶後,2023-08-16,24.848222,121.597992,0.98091817
C0A640,石碇,2023-08-16,24.993969,121.662917,0.89317954
C0A650,火燒寮,2023-08-16,25.002719,121.742892,0.96904004
C0A660,瑞芳,2023-08-16,25.113169,121.801147,0.86431396
C0A770,科教館,2023-08-16,25.096356,121.516507,0.12735698
C0A860,大坪,2023-08-16,25.165914,121.632969,0.9750893
C0A880,福隆,2023-08-16,25.017842,121.942083,0.23447701
C0A890,雙溪,2023-08-16,25.036003,121.864242,0.11895155
C0A920,富貴角,2023-08-16,25.263783,121.565258,0.6837834
C0A931,三和,2023-08-16,25.233153,121.595236,0.991709
C0A940,金山,2023-08-16,25.223628,121.643967,0.59326875
C0A950,鼻頭角,2023-08-16,25.129036,121.923372,0.4772705
C0A970,三貂角,2023-08-16,25.007606,122.002058,0.24175104
C0A980,社子,2023-08-16,25.109508,121.469681,0.12379531
C0A9C0,天母,2023-08-16,25.117494,121.537169,0.20793326
C0A9F0,內湖,2023-08-16,25.079422,121.57545,0.17186886
C0AC60,三峽,2023-08-16,24.939025,121.369728,0.050900266
C0AC70,信義,2023-08-16,25.037822,121.564597,0.060901973
C0AC80,文山,2023-08-16,25.00235,121.575728,0.046665695
C0ACA0,新莊,2023-08-16,25.051478,121.446756,0.15016419
C0AD00,三芝,2023-08-16,25.258131,121.501917,0.5603168
C0AD10,八里,2023-08-16,25.150211,121.403947,0.5040376
C0AD30,蘆洲,2023-08-16,25.086594,121.472331,0.12735698
C0AD40,土城,2023-08-16,24.973208,121.445169,0.07207353
C0AD50,鶯歌,2023-08-16,24.951533,121.346294,0.06903481
C0AG80,中和,2023-08-16,24.991622,121.491792,0.04737387
C0AH00,汐止,2023-08-16,25.066881,121.658778,0.15867184
C0AH10,永和,2023-08-16,25.01125,121.508111,0.046923727
C0AH40,平等,2023-08-16,25.129142,121.577086,0.9448523
C0AH50,林口,2023-08-16,25.072181,121.38084,0.5421259
C0AH70,松山,2023-08-16,25.04871,121.55042,0.060901973
C0AH80,深坑,2023-08-16,25.002703,121.628328,0.06889248
C0AI00,五股,2023-08-16,25.07445,121.42728,0.097138874
C0AI10,屈尺,2023-08-16,24.92184,121.54475,0.09958586
C0AI20,白沙灣,2023-08-16,25.283128,121.519058,0.84345055
C0AI30,三重,2023-08-16,25.057328,121.500629,0.08018618
C0AI40,石牌,2023-08-16,25.115597,121.513139,0.13049884
C0AJ20,野柳,2023-08-16,25.20703,121.690021,0.5213543
C0AJ30,淡水觀海,2023-08-16,25.184591,121.408616,0.34630397
C0AJ40,石門,2023-08-16,25.273672,121.601198,0.8290699
C0AJ50,水湳洞,2023-08-16,25.123695,121.862238,0.19864033
C0AJ60,六塊厝,2023-08-16,25.24,121.4481,0.68613285
C0AJ70,田寮,2023-08-16,25.2698,121.4886,0.47817063
C0AJ80,板橋,2023-08-16,25.0107,121.4489,0.07086825
C0AJ90,澳底,2023-08-16,25.0552,121.9253,0.30775422
C0B010,七堵,2023-08-16,25.094819,121.71713,0.19836311
C0B020,基隆嶼,2023-08-16,25.19141,121.78391,0.28117108
C0B040,大武崙,2023-08-16,25.166676,121.706993,0.33827978
C0B050,八斗子,2023-08-16,25.144754,121.79167,0.2973158
C0B060,暖暖,2023-08-16,25.0957,121.7403,0.28840172
C0C460,復興,2023-08-16,24.820208,121.352281,0.9822571
C0C480,桃園,2023-08-16,24.992425,121.323172,0.08366124
C0C490,八德,2023-08-16,24.928708,121.283289,0.044467647
C0C590,觀音,2023-08-16,25.027072,121.153317,0.47863922
C0C620,蘆竹,2023-08-16,25.084275,121.265767,0.39387572
C0C630,大溪,2023-08-16,24.882853,121.265547,0.13734022
C0C650,平鎮,2023-08-16,24.897503,121.214636,0.45895383
C0C660,楊梅,2023-08-16,24.912375,121.143047,0.39887813
C0C670,龍潭,2023-08-16,24.870056,121.221389,0.23535472
C0C680,龜山,2023-08-16,25.02846,121.38656,0.49388045
C0C700,中壢,2023-08-16,24.977661,121.256375,0.09799676
C0C710,大溪永福,2023-08-16,24.892936,121.324975,0.070892096
C0C720,竹圍,2023-08-16,25.112692,121.239824,0.37404695
C0C730,中大臨海站,2023-08-16,24.966126,121.008581,0.310092
C0C740,觀音工業區,2023-08-16,25.064764,121.114856,0.38452485
C0C750,新興坑尾,2023-08-16,25.0061,121.0971,0.12750214
C0D430,峨眉,2023-08-16,24.6905,121.017189,0.09591546
C0D480,打鐵坑,2023-08-16,24.849664,121.150789,0.15236549
C0D540,橫山,2023-08-16,24.71116,121.11693,0.06406367
C0D560,竹東,2023-08-16,24.767147,121.057881,0.047497302
C0D580,寶山,2023-08-16,24.735006,121.025192,0.07532896
C0D590,新豐,2023-08-16,24.87068,120.97721,0.09372123
C0D650,湖口,2023-08-16,24.904794,121.043628,0.09339046
C0D660,新竹市東區,2023-08-16,24.798681,120.986942,0.15742238
C0D670,海天一線,2023-08-16,24.831986,120.914438,0.7208375
C0D680,香山濕地,2023-08-16,24.783581,120.914988,0.582058
C0D690,外湖,2023-08-16,24.917735,120.968711,0.48527598
C0D700,關西,2023-08-16,24.7977,121.1732,0.072625704
C0E420,竹南,2023-08-16,24.708978,120.888897,0.42645553
C0E430,南庄,2023-08-16,24.601775,121.000214,0.75587034
C0E520,大湖,2023-08-16,24.41494,120.87087,0.73587346
C0E540,後龍,2023-08-16,24.606489,120.783933,0.8534065
C0E550,明德,2023-08-16,24.583486,120.885411,0.7842837
C0E590,通霄,2023-08-16,24.471892,120.704622,0.3868558
C0E730,頭份,2023-08-16,24.688247,120.912206,0.15912254
C0E740,造橋,2023-08-16,24.637056,120.864778,0.6876291
C0E750,苗栗,2023-08-16,24.564569,120.824575,0.85883015
C0E780,銅鑼,2023-08-16,24.489681,120.790853,0.78531075
C0E791,卓蘭,2023-08-16,24.3126,120.8244,0.94266886
C0E810,西湖,2023-08-16,24.562947,120.7485,0.8075029
C0E820,獅潭,2023-08-16,24.539133,120.920042,0.9611022
C0E830,苑裡,2023-08-16,24.439714,120.653053,0.7070068
C0E850,大河,2023-08-16,24.618069,120.948578,0.82781285
C0E870,高鐵苗栗,2023-08-16,24.60725,120.826094,0.85864586
C0E910,海埔,2023-08-16,24.648767,120.772435,0.9325753
C0E920,通霄漁港,2023-08-16,24.498589,120.673876,0.67290705
C0E930,龍鳳,2023-08-16,24.700034,120.859125,0.80659
C0F0B0,石岡,2023-08-16,24.276061,120.777644,0.70310235
C0F850,東勢,2023-08-16,24.246428,120.833047,0.9208471
C0F930,大甲,2023-08-16,24.347667,120.640403,0.2649548
C0F970,大坑,2023-08-16,24.173142,120.722289,0.06613459
C0F9A0,中竹林,2023-08-16,24.103556,120.751061,0.041591607
C0F9I0,神岡,2023-08-16,24.272481,120.658314,0.4726197
C0F9K0,大安,2023-08-16,24.345061,120.588025,0.5401821
C0F9L0,后里,2023-08-16,24.310436,120.729725,0.8949317
C0F9M0,豐原,2023-08-16,24.254322,120.720692,0.8294262
C0F9N0,大里,2023-08-16,24.092464,120.701378,0.06683602
C0F9O0,潭子,2023-08-16,24.213106,120.703933,0.13029985
C0F9P0,清水,2023-08-16,24.312297,120.562242,0.27453864
C0F9Q0,外埔,2023-08-16,24.347817,120.705686,0.64324266
C0F9R0,龍井,2023-08-16,24.184536,120.528972,0.18674137
C0F9S0,烏日,2023-08-16,24.107058,120.624103,0.09164444
C0F9T0,西屯,2023-08-16,24.179494,120.641275,0.070746124
C0F9U0,南屯,2023-08-16,24.137006,120.637969,0.054332428
C0F9X0,大雅(中科園區),2023-08-16,24.21528,120.62445,0.085527055
C0FA10,松柏,2023-08-16,24.429115,120.617482,0.6807845
C0FA20,溫寮,2023-08-16,24.372177,120.583125,0.5428318
C0FA30,梧棲,2023-08-16,24.256003,120.523381,0.51226926
C0FA40,臺中電廠,2023-08-16,24.2146,120.4907,0.18674137
C0FA50,霧峰,2023-08-16,24.0419,120.6995,0.10575485
C0G620,芬園,2023-08-16,24.015678,120.6213,0.32121676
C0G640,鹿港,2023-08-16,24.0753,120.430481,0.39867747
C0G650,員林,2023-08-16,23.946503,120.585597,0.33664754
C0G660,溪湖,2023-08-16,23.94835,120.479122,0.3257053
C0G720,溪州,2023-08-16,23.851589,120.499093,0.806404
C0G730,二林,2023-08-16,23.903325,120.376081,0.40583947
C0G740,大城,2023-08-16,23.852487,120.320935,0.9217006
C0G770,福興,2023-08-16,24.041289,120.437669,0.30062497
C0G780,秀水,2023-08-16,24.03405,120.503869,0.19235016
C0G800,埔鹽,2023-08-16,24.000394,120.431683,0.28799295
C0G810,埔心,2023-08-16,23.947633,120.525456,0.33279273
C0G820,田尾,2023-08-16,23.901669,120.509389,0.38728347
C0G830,埤頭,2023-08-16,23.866003,120.452806,0.9136099
C0G840,北斗,2023-08-16,23.877586,120.514222,0.38728347
C0G860,社頭,2023-08-16,23.897647,120.5862,0.4342451
C0G870,芳苑,2023-08-16,23.922303,120.320025,0.92715514
C0G880,二水,2023-08-16,23.810742,120.6173,0.8370127
C0G890,伸港,2023-08-16,24.148933,120.484403,0.09608488
C0G900,線西,2023-08-16,24.143358,120.443536,0.600818
C0G910,花壇,2023-08-16,24.032076,120.549461,0.22019577
C0G920,永靖,2023-08-16,23.924703,120.547533,0.4339015
C0G940,竹塘,2023-08-16,23.848253,120.386764,0.8464858
C0G950,防潮門,2023-08-16,24.1835,120.4871,0.18310934
C0G960,福寶,2023-08-16,24.0443,120.3814,0.7985558
C0G970,三豐,2023-08-16,23.882,120.2895,0.92715514
C0H890,埔里,2023-08-16,23.972169,120.952425,0.019729432
C0H950,中寮,2023-08-16,23.884447,120.766406,0.4202344
C0H960,草屯,2023-08-16,23.973672,120.68085,0.6550871
C0I110,竹山,2023-08-16,23.761225,120.688156,0.9799916
C0I360,水里,2023-08-16,23.812553,120.849792,0.75758123
C0I380,集集,2023-08-16,23.828206,120.801467,0.9732108
C0I410,名間,2023-08-16,23.837053,120.701447,0.93111575
C0I420,國姓,2023-08-16,24.037803,120.855072,0.020102372
C0I460,南投,2023-08-16,23.911469,120.687331,0.85085493
C0K250,崙背,2023-08-16,23.75555,120.318925,0.8752784
C0K280,四湖,2023-08-16,23.630414,120.227125,0.76216805
C0K291,宜梧,2023-08-16,23.536281,120.169329,0.70204705
C0K330,虎尾,2023-08-16,23.719183,120.442036,0.8055942
C0K390,土庫,2023-08-16,23.679029,120.395574,0.7184456
C0K400,斗六,2023-08-16,23.720583,120.541127,0.87381494
C0K410,北港,2023-08-16,23.573957,120.292802,0.8628829
C0K420,西螺,2023-08-16,23.800407,120.467394,0.9207453
C0K430,褒忠,2023-08-16,23.690938,120.303634,0.8429082
C0K440,二崙,2023-08-16,23.772797,120.408944,0.78861153
C0K450,大埤,2023-08-16,23.646074,120.431537,0.7998207
C0K460,斗南,2023-08-16,23.678734,120.478359,0.85326725
C0K470,林內,2023-08-16,23.748675,120.609642,0.88699025
C0K480,莿桐,2023-08-16,23.761192,120.502372,0.8501599
C0K500,元長,2023-08-16,23.64981,120.315024,0.8312855
C0K510,水林,2023-08-16,23.572924,120.24597,0.76848674
C0K530,臺西,2023-08-16,23.701547,120.197559,0.7691399
C0K550,蔦松,2023-08-16,23.514319,120.229736,0.752272
C0K560,棋山,2023-08-16,23.68645,120.603417,0.9648593
C0K580,高鐵雲林,2023-08-16,23.737456,120.417944,0.7750428
C0K590,雲林東勢,2023-08-16,23.674192,120.255721,0.75553274
C0K600,箔子寮,2023-08-16,23.6197,120.14,0.7718133
C0M410,馬頭山,2023-08-16,23.324361,120.582017,0.9959806
C0M520,東後寮,2023-08-16,23.369908,120.248065,0.6047494
C0M640,中埔,2023-08-16,23.42538,120.5229,0.8974416
C0M650,朴子,2023-08-16,23.43463,120.23902,0.71606886
C0M660,溪口,2023-08-16,23.604131,120.403569,0.92248666
C0M670,大林,2023-08-16,23.600616,120.45841,0.96673465
C0M680,太保,2023-08-16,23.455062,120.331455,0.87672323
C0M690,水上,2023-08-16,23.419734,120.388909,0.95248336
C0M700,竹崎,2023-08-16,23.526178,120.555508,0.9830279
C0M710,東石,2023-08-16,23.458927,120.15385,0.72310007
C0M720,番路,2023-08-16,23.464657,120.554156,0.9861784
C0M730,嘉義市東區,2023-08-16,23.457673,120.460531,0.9723871
C0M740,六腳,2023-08-16,23.492871,120.290625,0.8651155
C0M750,布袋,2023-08-16,23.380878,120.167789,0.48675853
C0M760,民雄,2023-08-16,23.551754,120.428457,0.9396242
C0M770,嘉義梅山,2023-08-16,23.585398,120.555587,0.98465157
C0M780,鹿草,2023-08-16,23.41134,120.30835,0.901922
C0M790,新港,2023-08-16,23.553269,120.345728,0.92562443
C0M800,茶山,2023-08-16,23.299075,120.664767,0.98564875
C0M880,好美里,2023-08-16,23.3364,120.138,0.6341879
C0N010,鯤鯓國小,2023-08-16,23.1879,120.0889,0.31984192
C0N020,城西,2023-08-16,23.0568,120.0956,0.06438766
C0N030,四草,2023-08-16,23.0235,120.1116,0.06870247
C0N040,蘆竹溝,2023-08-16,23.2344,120.0961,0.18364027
C0N050,蚵寮,2023-08-16,23.301,120.1104,0.30872202
C0O810,曾文,2023-08-16,23.219681,120.497328,0.8966247
C0O830,北寮,2023-08-16,23.079561,120.495008,0.9241347
C0O840,王爺宮,2023-08-16,23.222064,120.40085,0.96422815
C0O860,大內,2023-08-16,23.11885,120.36083,0.9452042
C0O900,善化,2023-08-16,23.112883,120.297219,0.89764106
C0O930,玉井,2023-08-16,23.126042,120.46055,0.8939333
C0O950,安南,2023-08-16,23.076694,120.144861,0.22175446
C0O960,崎頂,2023-08-16,22.959547,120.369317,0.34250888
C0O970,虎頭埤,2023-08-16,23.021375,120.347878,0.3064255
C0O980,新市,2023-08-16,23.061614,120.298197,0.7308575
C0O990,媽廟,2023-08-16,22.99175,120.293525,0.59744656
C0R150,三地門,2023-08-16,22.709889,120.639944,0.071089156
C0R160,鹽埔,2023-08-16,22.739558,120.530778,0.14597449
C0R170,屏東,2023-08-16,22.660269,120.494072,0.58511156
C0R190,赤山,2023-08-16,22.592333,120.614306,0.074407324
C0R220,潮州,2023-08-16,22.534361,120.54,0.059990246
C0R240,來義,2023-08-16,22.527306,120.625111,0.067186825
C0R260,春日,2023-08-16,22.370361,120.628306,0.0393772
C0R270,琉球嶼,2023-08-16,22.332244,120.362236,0.18356006
C0R280,檳榔,2023-08-16,22.076078,120.836777,0.99814147
C0R320,車城,2023-08-16,22.0744,120.716247,0.9966199
C0R341,牡丹,2023-08-16,22.130036,120.792639,0.99880743
C0R350,貓鼻頭,2023-08-16,21.921774,120.7358,0.99712944
C0R470,高樹,2023-08-16,22.826389,120.600806,0.1599296
C0R480,長治,2023-08-16,22.693128,120.542622,0.10076279
C0R490,九如,2023-08-16,22.7405,120.490503,0.9127873
C0R520,崁頂,2023-08-16,22.514781,120.506914,0.40010485
C0R540,佳冬,2023-08-16,22.419456,120.552375,0.25762305
C0R550,新埤,2023-08-16,22.467947,120.582894,0.0700615
C0R560,新園,2023-08-16,22.5434,120.461558,0.35195357
C0R570,麟洛,2023-08-16,22.65078,120.52719,0.5923082
C0R580,南州,2023-08-16,22.48591,120.50274,0.39524177
C0R590,里港,2023-08-16,22.77919,120.49459,0.25263417
C0R620,墾雷,2023-08-16,21.900836,120.855269,0.9971914
C0R640,東港,2023-08-16,22.46247,120.44074,0.25691646
C0R650,竹田,2023-08-16,22.58486,120.54344,0.06242816
C0R660,枋寮,2023-08-16,22.367722,120.590647,0.06840352
C0R670,楓港,2023-08-16,22.190131,120.692156,0.99895304
C0R680,佳樂水,2023-08-16,21.993578,120.861633,0.9968562
C0R690,墾丁,2023-08-16,21.966756,120.810269,0.99816144
C0R700,枋山,2023-08-16,22.246844,120.661086,0.9976933
C0R710,龍磐,2023-08-16,21.931672,120.838942,0.9980185
C0R720,旭海,2023-08-16,22.205403,120.887614,0.9996108
C0R730,大坪頂,2023-08-16,22.024633,120.69355,0.9981197
C0R740,獅子,2023-08-16,22.201569,120.70525,0.9989824
C0R760,南仁湖,2023-08-16,22.084681,120.863353,0.99798584
C0R770,保力,2023-08-16,22.071122,120.764111,0.9976707
C0R780,滿州,2023-08-16,22.024403,120.839892,0.9972553
C0R790,九棚,2023-08-16,22.14195,120.889281,0.9995938
C0R800,丹路,2023-08-16,22.204481,120.750989,0.9986633
C0R810,內獅,2023-08-16,22.305064,120.642986,0.99761105
C0R830,高士,2023-08-16,22.121825,120.836781,0.9979149
C0R850,林邊,2023-08-16,22.4634,120.5339,0.32333124
C0R860,鼻頭,2023-08-16,22.1043,120.8979,0.99651295
C0R870,興海,2023-08-16,21.9752,120.8439,0.9968562
C0R880,後壁湖,2023-08-16,21.9457,120.7457,0.99645025
C0R890,山海,2023-08-16,21.9878,120.7091,0.9965296
C0R900,竹坑,2023-08-16,22.1385,120.7022,0.8678761
C0R910,下寮,2023-08-16,22.3929,120.5548,0.25762305
C0R920,塭仔,2023-08-16,22.4169,120.5197,0.2830897
C0R930,萬丹,2023-08-16,22.5885,120.4851,0.07564255
C0R940,加祿堂,2023-08-16,22.3363,120.6217,0.038246594
C0S710,鹿野,2023-08-16,22.917711,121.122994,0.99994606
C0S730,綠島,2023-08-16,22.6672,121.47533,0.99988264
C0S740,池上,2023-08-16,23.119628,121.209469,0.9999372
C0S770,大溪山,2023-08-16,22.478475,120.943325,0.99967116
C0S790,金崙,2023-08-16,22.538122,120.966875,0.9995378
C0S810,東河,2023-08-16,22.972672,121.303986,0.99995327
C0S830,長濱,2023-08-16,23.286817,121.411975,0.9999639
C0S840,南田,2023-08-16,22.279725,120.889208,0.99942434
C0S890,關山,2023-08-16,23.0395,121.175017,0.999922
C0S900,蘭嶼高中,2023-08-16,22.04909,121.51214,0.99809986
C0S910,蘭嶼燈塔,2023-08-16,22.081197,121.503117,0.99791384
C0S920,金峰嘉蘭,2023-08-16,22.594789,120.960825,0.9994643
C0S930,延平,2023-08-16,22.902581,121.084058,0.99982876
C0S940,石寧山,2023-08-16,23.223772,121.406639,0.9999629
C0S950,七塊厝,2023-08-16,22.954453,121.229922,0.99995464
C0S960,香蘭,2023-08-16,22.587569,120.993375,0.9996611
C0S970,加津林,2023-08-16,22.416211,120.926942,0.99948496
C0S990,山豬窟,2023-08-16,22.318619,120.857372,0.99962497
C0SA00,歷坵,2023-08-16,22.520969,120.89185,0.9995567
C0SA10,檳榔四格山,2023-08-16,22.810031,121.109308,0.99987054
C0SA30,都歷,2023-08-16,23.020333,121.323642,0.999944
C0SA40,瑞和,2023-08-16,22.974361,121.156697,0.999924
C0SA60,知本（水試所）,2023-08-16,22.702394,121.082761,0.9998029
C0SA80,土坂,2023-08-16,22.453108,120.887572,0.9994119
C0SA90,達仁林場,2023-08-16,22.264347,120.823972,0.99975103
C0T870,鯉魚潭,2023-08-16,23.935639,121.508944,0.99944437
C0T900,西林,2023-08-16,23.8119,121.441458,0.99947995
C0T960,光復,2023-08-16,23.660694,121.424964,0.99961793
C0T9A0,月眉山,2023-08-16,23.809928,121.539828,0.99985284
C0T9D0,和中,2023-08-16,24.26676,121.74103,0.9973435
C0T9E0,大坑,2023-08-16,23.880628,121.581981,0.99979824
C0T9F0,水璉,2023-08-16,23.797131,121.542514,0.9997857
C0T9I0,豐濱,2023-08-16,23.583897,121.514806,0.9997621
C0T9M0,靜浦,2023-08-16,23.455167,121.495028,0.9997801
C0T9N0,富里,2023-08-16,23.171639,121.249378,0.99994147
C0U600,礁溪,2023-08-16,24.817539,121.765608,0.5387356
C0U650,玉蘭,2023-08-16,24.675286,121.587061,0.9998174
C0U750,龜山島,2023-08-16,24.841667,121.953133,0.8742367
C0U760,東澳,2023-08-16,24.52196,121.83318,0.6988681
C0U770,南澳,2023-08-16,24.44935,121.81022,0.726473
C0U780,五結,2023-08-16,24.68637,121.79794,0.24724439
C0U860,頭城,2023-08-16,24.85323,121.8308,0.46818802
C0U870,大礁溪,2023-08-16,24.791042,121.675047,0.99926823
C0U880,北關,2023-08-16,24.9072,121.8734,0.09102089
C0U890,三星,2023-08-16,24.66812,121.65302,0.7245457
C0U900,內城,2023-08-16,24.71813,121.68766,0.3889956
C0U910,冬山,2023-08-16,24.63373,121.7937,0.31007218
C0U940,羅東,2023-08-16,24.68184,121.74934,0.24981007
C0U970,大福,2023-08-16,24.80064,121.81389,0.32530892
C0U990,員山,2023-08-16,24.74435,121.72247,0.2576002
C0UA00,土場,2023-08-16,24.576533,121.495333,0.9987673
C0UA80,大溪漁港,2023-08-16,24.941801,121.902955,0.46751827
C0UA90,石城,2023-08-16,24.980444,121.951214,0.25672558
C0UB00,淡江大學蘭陽校園,2023-08-16,24.823239,121.730383,0.99605554
C0UB10,蘇澳,2023-08-16,24.5969,121.8571,0.8707538
C0UB20,壯圍,2023-08-16,24.7359,121.8163,0.20671286
C0V250,甲仙,2023-08-16,23.080106,120.591758,0.96532154
C0V260,月眉,2023-08-16,22.971003,120.539853,0.90153253
C0V310,美濃,2023-08-16,22.898742,120.519153,0.38655028
C0V350,溪埔,2023-08-16,22.738578,120.446797,0.72373
C0V360,內門,2023-08-16,22.975481,120.466769,0.5402402
C0V370,古亭坑,2023-08-16,22.893178,120.401947,0.22300716
C0V400,阿公店,2023-08-16,22.804194,120.355528,0.78554416
C0V440,鳳山,2023-08-16,22.646653,120.356122,0.39738625
C0V450,鳳森,2023-08-16,22.545064,120.392592,0.054552663
C0V490,新興,2023-08-16,22.627422,120.298803,0.19373585
C0V530,阿蓮,2023-08-16,22.883208,120.327508,0.31427398
C0V610,梓官,2023-08-16,22.760558,120.267211,0.39254767
C0V620,永安,2023-08-16,22.82315,120.236856,0.33215135
C0V630,茄萣,2023-08-16,22.906642,120.182608,0.11031425
C0V640,湖內,2023-08-16,22.887139,120.2445,0.14612593
C0V650,彌陀,2023-08-16,22.783806,120.246361,0.33215135
C0V660,岡山,2023-08-16,22.797078,120.294958,0.48803315
C0V680,仁武,2023-08-16,22.701083,120.347722,0.4029668
C0V690,鼓山,2023-08-16,22.623325,120.275575,0.7998997
C0V700,三民,2023-08-16,22.645017,120.311233,0.19373585
C0V710,苓雅,2023-08-16,22.622742,120.330669,0.18848048
C0V720,林園,2023-08-16,22.507747,120.394511,0.28041235
C0V730,大寮,2023-08-16,22.605614,120.395717,0.06584768
C0V740,旗山,2023-08-16,22.888614,120.483597,0.3928743
C0V750,路竹,2023-08-16,22.854997,120.259439,0.354407
C0V760,橋頭,2023-08-16,22.757806,120.30575,0.40922436
C0V770,大社,2023-08-16,22.730306,120.346639,0.49271128
C0V790,萬山,2023-08-16,22.905944,120.688056,0.85940015
C0V800,六龜,2023-08-16,22.997889,120.633583,0.9295157
C0V810,左營,2023-08-16,22.67491,120.28491,0.1794425
C0V820,小林,2023-08-16,23.148408,120.63325,0.98966104
C0V840,鳳鼻頭,2023-08-16,22.5083,120.3591,0.27796155
C0V850,蚵仔寮,2023-08-16,22.7256,120.2527,0.39239407
C0V860,南寮,2023-08-16,22.7616,120.2339,0.37822732
C0V870,文安,2023-08-16,22.8025,120.2164,0.55105644
C0V880,興達,2023-08-16,22.8778,120.2127,0.11031425
C0V890,前鎮,2023-08-16,22.5718,120.3117,0.4954854
C0V900,汕尾,2023-08-16,22.4782,120.4151,0.20914328
C0X050,東河,2023-08-16,23.296598,120.385608,0.9405493
C0X060,下營,2023-08-16,23.22695,120.256261,0.59219044
C0X080,佳里,2023-08-16,23.173039,120.145086,0.12215326
C0X100,臺南市北區,2023-08-16,23.010394,120.194228,0.13893643
C0X110,臺南市南區,2023-08-16,22.961189,120.188378,0.11415717
C0X120,麻豆,2023-08-16,23.183289,120.248611,0.51015747
C0X130,官田,2023-08-16,23.193217,120.315422,0.6950129
C0X140,西港,2023-08-16,23.125608,120.203108,0.232201
C0X150,安定,2023-08-16,23.102614,120.227839,0.7614465
C0X160,仁德,2023-08-16,22.968258,120.257689,0.24605486
C0X170,關廟,2023-08-16,22.963017,120.327797,0.4987892
C0X180,山上,2023-08-16,23.0757,120.363253,0.7575023
C0X190,安平,2023-08-16,22.993161,120.152181,0.19433495
C0X200,左鎮,2023-08-16,23.056758,120.408522,0.42839202
C0X210,白河,2023-08-16,23.347466,120.414427,0.9636833
C0X220,學甲,2023-08-16,23.230367,120.182187,0.3855688
C0X230,鹽水,2023-08-16,23.272621,120.247641,0.57809365
C0X240,關子嶺,2023-08-16,23.331169,120.508025,0.9973709
C0X250,新營,2023-08-16,23.310689,120.316681,0.7243743
C0X260,後壁,2023-08-16,23.366358,120.362326,0.9094319
C0X280,將軍,2023-08-16,23.214999,120.13577,0.21285978
C0X290,北門,2023-08-16,23.267772,120.125481,0.3378774
C0X300,鹿寮,2023-08-16,23.386047,120.477331,0.9487705
C0X310,七股,2023-08-16,23.147289,120.086253,0.19516103
C0X320,柳營,2023-08-16,23.253328,120.375253,0.93186706
C0Z020,明里,2023-08-16,23.208717,121.262342,0.99993676
C0Z061,玉里,2023-08-16,23.3215,121.339656,0.99993503
C0Z070,舞鶴,2023-08-16,23.46811,121.37407,0.99969095
C0Z080,富源,2023-08-16,23.587642,121.378225,0.9995524
C0Z100,東華,2023-08-16,23.89525,121.549833,0.99962336
C0Z150,吉安光華,2023-08-16,23.930925,121.595153,0.99968886
C0Z160,鳳林,2023-08-16,23.746114,121.453411,0.999537
C0Z170,卓溪,2023-08-16,23.3443,121.3029,0.9999351
C0Z180,新城,2023-08-16,24.03946,121.60454,0.9997141
C0Z190,富世,2023-08-16,24.14743,121.6297,0.9981648
C0Z200,萬榮,2023-08-16,23.709219,121.420106,0.9996017
C0Z210,瑞穗,2023-08-16,23.5239,121.39021,0.999617
C0Z230,和平,2023-08-16,24.30717,121.77007,0.9969061
C0Z270,蕃薯寮,2023-08-16,23.73835,121.540108,0.9997804
C0Z280,德武,2023-08-16,23.47426,121.41071,0.9996871
C0Z300,東里,2023-08-16,23.26853,121.30547,0.99992853
C0Z310,清水斷崖,2023-08-16,24.218294,121.689142,0.99782646
C0Z330,安通山,2023-08-16,23.290728,121.348528,0.99995315
