站號,站名,日期,lat,lon,BLBTSLS
C0R710,龍磐,2023-11-17,21.931672,120.838942,0.9773926
C1F9D1,白毛台,2023-11-17,24.158325,120.886933,3.1082121e-09
C0G940,竹塘,2023-11-17,23.848253,120.386764,0.99920005
467590,恆春,2023-11-17,22.003897,120.746339,0.70925874
C1O850,環湖,2023-11-17,23.148617,120.418633,0.9953765
C0U710,太平山,2023-11-17,24.505486,121.525656,2.9783497e-08
C0E820,獅潭,2023-11-17,24.539133,120.920042,0.9975014
C0V880,興達,2023-11-17,22.8778,120.2127,0.9977294
C0S890,關山,2023-11-17,23.0395,121.175017,0.0010875184
K2F750,種苗繁殖,2023-11-17,24.225972,120.800917,0.9889354
C1Z130,銅門,2023-11-17,23.965694,121.492842,0.0019460114
C0AD40,土城,2023-11-17,24.973208,121.445169,0.39204994
CAN140,六官養殖協會,2023-11-17,23.22881,120.29962,0.998329
C0X180,山上,2023-11-17,23.0757,120.363253,0.9797943
C0F9Z0,雪山東峰,2023-11-17,24.388792,121.268675,1.1894015e-08
C1M480,獨立山,2023-11-17,23.537022,120.607797,2.852898e-09
C0X220,學甲,2023-11-17,23.230367,120.182187,0.99898094
C0R170,屏東,2023-11-17,22.660269,120.494072,0.5104861
467650,日月潭,2023-11-17,23.881325,120.90805,2.2511488e-09
C0K600,箔子寮,2023-11-17,23.6197,120.14,0.9976308
C0G830,埤頭,2023-11-17,23.866003,120.452806,0.9997684
C0S950,七塊厝,2023-11-17,22.954453,121.229922,4.2501063e-07
467110,金門,2023-11-17,24.407306,118.289281,0.9997254
C0AH80,深坑,2023-11-17,25.002703,121.628328,0.4988764
467990,馬祖,2023-11-17,26.169269,119.923419,0.59111243
C0A970,三貂角,2023-11-17,25.007606,122.002058,0.00015014275
C0K430,褒忠,2023-11-17,23.690938,120.303634,0.9993364
467480,嘉義,2023-11-17,23.495925,120.432906,0.99969923
C2E540,後龍,2023-11-17,24.606489,120.783933,0.44438714
C0V400,阿公店,2023-11-17,22.804194,120.355528,0.8432685
C0R440,大漢山,2023-11-17,22.405264,120.753181,3.411681e-08
C0K280,四湖,2023-11-17,23.630414,120.227125,0.998737
C1F9B1,桐林,2023-11-17,24.066172,120.735194,0.9996801
C0K390,土庫,2023-11-17,23.679029,120.395574,0.9997278
C1I450,望鄉山,2023-11-17,23.594153,120.944286,7.2997763e-09
C0E910,海埔,2023-11-17,24.648767,120.772435,0.437863
B2E890,畜試北區分所,2023-11-17,24.527806,120.770972,0.9993846
C0R750,四林格山,2023-11-17,22.076989,120.802439,0.9788312
C0F0C0,中坑,2023-11-17,24.248517,120.903319,1.9755795e-09
C1I121,大鞍,2023-11-17,23.678381,120.760017,5.031826e-09
72U480,花改蘭陽分場,2023-11-17,24.686306,121.716583,3.730668e-07
C0A770,科教館,2023-11-17,25.096356,121.516507,0.7307123
C0AJ60,六塊厝,2023-11-17,25.24,121.4481,0.63821274
C0R620,墾雷,2023-11-17,21.900836,120.855269,0.98590285
467420,永康,2023-11-17,23.038386,120.2367,0.999726
467300,東吉島,2023-11-17,23.25695,119.667467,0.9585501
C0I410,名間,2023-11-17,23.837053,120.701447,0.9993754
A2C560,農工中心,2023-11-17,24.985917,121.239833,0.38300353
C0V740,旗山,2023-11-17,22.888614,120.483597,0.96235627
C0Z061,玉里,2023-11-17,23.3215,121.339656,6.014779e-08
C0S840,南田,2023-11-17,22.279725,120.889208,0.17185503
C1I470,杉林溪,2023-11-17,23.639517,120.786444,5.4949107e-09
C1X040,東原,2023-11-17,23.291597,120.463822,0.997953
C0R660,枋寮,2023-11-17,22.367722,120.590647,0.37668413
C1R120,上德文,2023-11-17,22.763272,120.704442,7.662279e-09
C0K450,大埤,2023-11-17,23.646074,120.431537,0.999672
C0UA00,土場,2023-11-17,24.576533,121.495333,3.6041203e-07
467080,宜蘭,2023-11-17,24.763975,121.756528,1.8793032e-06
C0N030,四草,2023-11-17,23.0235,120.1116,0.9978821
C0V650,彌陀,2023-11-17,22.783806,120.246361,0.99625707
C0D660,新竹市東區,2023-11-17,24.798681,120.986942,0.32473665
82S580,茶改東部分場,2023-11-17,22.907694,121.130139,0.8591436
C0C710,大溪永福,2023-11-17,24.892936,121.324975,0.6425433
C0FA20,溫寮,2023-11-17,24.372177,120.583125,0.8709406
C0V640,湖內,2023-11-17,22.887139,120.2445,0.9978689
C0R910,下寮,2023-11-17,22.3929,120.5548,0.37635136
C0Z020,明里,2023-11-17,23.208717,121.262342,7.428791e-08
C0M770,嘉義梅山,2023-11-17,23.585398,120.555587,0.9985756
G2F820,農業試驗所,2023-11-17,24.031261,120.688133,0.9995631
C0C660,楊梅,2023-11-17,24.912375,121.143047,0.5445841
C1E511,新開,2023-11-17,24.347703,120.827019,0.9779209
G2F820,農試所(霧峰),2023-11-17,24.031261,120.688133,0.9995631
C1I070,和社,2023-11-17,23.591131,120.888861,4.866051e-08
C2F000,大肚,2023-11-17,24.15295,120.572117,0.9996688
C1S850,豐南,2023-11-17,23.122139,121.262389,8.895102e-08
C2A920,富貴角,2023-11-17,25.263783,121.565258,0.91820127
CAH030,茶改場竹圍站,2023-11-17,23.860083,120.637528,0.014088826
C0T960,光復,2023-11-17,23.660694,121.424964,0.0019444507
C0F9M0,豐原,2023-11-17,24.254322,120.720692,0.99956745
C0R720,旭海,2023-11-17,22.205403,120.887614,0.7861868
C0V710,苓雅,2023-11-17,22.622742,120.330669,0.0015511684
C0C740,觀音工業區,2023-11-17,25.064764,121.114856,0.78012687
CAC040,拉拉山,2023-11-17,24.699317,121.427133,4.149559e-08
C0V790,萬山,2023-11-17,22.905944,120.688056,2.7806614e-06
U2HA30,臺大和社,2023-11-17,23.590856,120.888864,4.866051e-08
C0AJ90,澳底,2023-11-17,25.0552,121.9253,0.7715035
C0Z100,東華,2023-11-17,23.89525,121.549833,0.0028646921
C0G970,三豐,2023-11-17,23.882,120.2895,0.9702923
V2K610,大庄合作社,2023-11-17,23.8068,120.367939,0.99943596
C0V900,汕尾,2023-11-17,22.4782,120.4151,0.055052236
C1R630,龍泉,2023-11-17,22.66701,120.59091,0.72343355
C1AC50,關渡,2023-11-17,25.133486,121.469331,0.61737627
C0F9I0,神岡,2023-11-17,24.272481,120.658314,0.99958223
C0K460,斗南,2023-11-17,23.678734,120.478359,0.99968356
467410,臺南,2023-11-17,22.993239,120.204772,0.99749935
C2O810,曾文,2023-11-17,23.219681,120.497328,0.99849707
467280,後龍,2023-11-17,24.648563,120.831834,0.4616428
C1F9J1,清水林,2023-11-17,24.071242,120.820419,8.416631e-10
C2A650,火燒寮,2023-11-17,25.002719,121.742892,5.1670816e-07
466930,竹子湖,2023-11-17,25.162078,121.544547,2.7927342e-08
C1I220,樟湖,2023-11-17,23.905333,120.846983,1.2290304e-09
C0I390,仁愛,2023-11-17,24.022122,121.132206,9.1031865e-10
C0Z300,東里,2023-11-17,23.26853,121.30547,2.5388766e-07
C0V310,美濃,2023-11-17,22.898742,120.519153,0.96741736
C1V590,新發,2023-11-17,23.057019,120.646064,8.3708e-09
C0K510,水林,2023-11-17,23.572924,120.24597,0.99921566
72S590,東改賓朗果園,2023-11-17,22.813889,121.071278,0.67991
82A750,茶改北部分場,2023-11-17,24.955778,121.631222,0.00094031566
C1A750,石碇服務區,2023-11-17,25.00872,121.646242,0.82705694
C0X300,鹿寮,2023-11-17,23.386047,120.477331,0.99919945
G2AI50,關渡,2023-11-17,25.11575,121.492,0.07338307
C0K590,雲林東勢,2023-11-17,23.674192,120.255721,0.9993526
C0A570,桶後,2023-11-17,24.848222,121.597992,8.134675e-08
C1S800,華源,2023-11-17,22.657883,121.02325,0.48632178
C0G720,溪州,2023-11-17,23.851589,120.499093,0.9997681
C1V160,達卡努瓦,2023-11-17,23.279811,120.705319,3.7562127e-09
C2M410,馬頭山,2023-11-17,23.324361,120.582017,0.9934792
C0V850,蚵仔寮,2023-11-17,22.7256,120.2527,0.2719232
C0S740,池上,2023-11-17,23.119628,121.209469,0.99384475
C1V390,尖山,2023-11-17,22.813153,120.367789,0.7259272
C0AH70,松山,2023-11-17,25.04871,121.55042,0.75492734
C0N010,鯤鯓國小,2023-11-17,23.1879,120.0889,0.9990543
C0R550,新埤,2023-11-17,22.467947,120.582894,0.055366714
C0SA60,知本（水試所）,2023-11-17,22.702394,121.082761,0.81374276
C0T9I0,豐濱,2023-11-17,23.583897,121.514806,6.2548344e-05
C0UB00,淡江大學蘭陽校園,2023-11-17,24.823239,121.730383,4.5456353e-08
C0T9N0,富里,2023-11-17,23.171639,121.249378,0.0656864
U2HA50,臺大竹山,2023-11-17,23.756972,120.681556,0.9995998
C0V840,鳳鼻頭,2023-11-17,22.5083,120.3591,0.03304316
C0X140,西港,2023-11-17,23.125608,120.203108,0.99950707
72D080,桃改五峰分場,2023-11-17,24.612194,121.157167,2.786901e-09
C0V530,阿蓮,2023-11-17,22.883208,120.327508,0.9915746
C1O880,關山,2023-11-17,23.173397,120.594092,0.0013264953
C0E791,卓蘭,2023-11-17,24.3126,120.8244,0.999252
C1I030,武界,2023-11-17,23.913225,121.052483,1.7331049e-09
C0R520,崁頂,2023-11-17,22.514781,120.506914,0.7437353
C0R341,牡丹,2023-11-17,22.130036,120.792639,0.949582
C0R930,萬丹,2023-11-17,22.5885,120.4851,0.9964064
C0S760,紅石,2023-11-17,23.069131,121.126219,1.5845588e-08
C1M610,石磐龍,2023-11-17,23.496606,120.663506,4.4198853e-09
C0UA10,鴛鴦湖,2023-11-17,24.590269,121.412228,2.9414508e-08
V2C260,八德蔬果,2023-11-17,24.978508,121.281819,0.42675364
C0R800,丹路,2023-11-17,22.204481,120.750989,0.49671814
C0G920,永靖,2023-11-17,23.924703,120.547533,0.999564
C1A630,下盆,2023-11-17,24.771003,121.538622,2.415486e-08
B2N890,畜產試驗所,2023-11-17,23.058972,120.336406,0.9997401
C0UA30,白嶺,2023-11-17,24.527819,121.519031,2.188533e-08
C1V580,溪南(特生中心),2023-11-17,23.084972,120.788475,4.2922914e-09
C1T970,大農,2023-11-17,23.615233,121.413331,2.7275548e-06
E2S960,林試太麻里2,2023-11-17,22.598014,120.989761,0.87993777
C0R650,竹田,2023-11-17,22.58486,120.54344,0.9106228
C1H900,清流,2023-11-17,24.080775,120.962997,6.0174243e-10
C1C510,水尾,2023-11-17,24.940081,121.087161,0.30604106
C0F9X0,大雅(中科園區),2023-11-17,24.21528,120.62445,0.9997648
C0O970,虎頭埤,2023-11-17,23.021375,120.347878,0.97760135
C0C730,中大臨海站,2023-11-17,24.966126,121.008581,0.5580561
C0X250,新營,2023-11-17,23.310689,120.316681,0.99790174
C0V700,三民,2023-11-17,22.645017,120.311233,0.09748822
C0U870,大礁溪,2023-11-17,24.791042,121.675047,2.7894178e-08
C0E870,高鐵苗栗,2023-11-17,24.60725,120.826094,0.45254442
A2K570,古坑花卉中心,2023-11-17,23.63353,120.55239,0.99921876
C0M860,新美,2023-11-17,23.338017,120.683169,7.713381e-09
C1E701,八卦,2023-11-17,24.491756,120.927619,2.9681136e-08
C0I420,國姓,2023-11-17,24.037803,120.855072,0.99962795
C0S960,香蘭,2023-11-17,22.587569,120.993375,0.8799377
C0R260,春日,2023-11-17,22.370361,120.628306,0.49029657
72G600,臺中農改場,2023-11-17,24.003028,120.534389,0.99904275
C0Z210,瑞穗,2023-11-17,23.5239,121.39021,0.00020801177
C0M820,達邦,2023-11-17,23.453994,120.749517,2.3775328e-09
C0V860,南寮,2023-11-17,22.7616,120.2339,0.34348884
C0G740,大城,2023-11-17,23.852487,120.320935,0.9682814
C0R920,塭仔,2023-11-17,22.4169,120.5197,0.362099
C0R470,高樹,2023-11-17,22.826389,120.600806,0.21375953
C0R680,佳樂水,2023-11-17,21.993578,120.861633,0.94953233
C1O870,大棟山,2023-11-17,23.31157,120.52226,1.0627895e-09
C0D360,梅花,2023-11-17,24.678347,121.208558,0.0006107364
C0Z190,富世,2023-11-17,24.14743,121.6297,0.89882123
C0AI10,屈尺,2023-11-17,24.92184,121.54475,0.8372159
B2U990,畜試東區分所,2023-11-17,24.669039,121.832561,1.087164e-07
C0R240,來義,2023-11-17,22.527306,120.625111,0.4693057
C1R610,西大武山,2023-11-17,22.617719,120.7322,2.1462194e-08
C0G900,線西,2023-11-17,24.143358,120.443536,0.99103546
C0M700,竹崎,2023-11-17,23.526178,120.555508,0.99918383
C2E880,三義,2023-11-17,24.405478,120.749819,1.6660538e-08
C0C720,竹圍,2023-11-17,25.112692,121.239824,0.073566996
C0F9P0,清水,2023-11-17,24.312297,120.562242,0.97754717
C0Z150,吉安光華,2023-11-17,23.930925,121.595153,0.86908746
C1D640,外坪(五指山),2023-11-17,24.644447,121.090961,4.514461e-08
C0F9O0,潭子,2023-11-17,24.213106,120.703933,0.9995318
72T250,花蓮農改場,2023-11-17,23.975222,121.563889,0.9224798
C0E780,銅鑼,2023-11-17,24.489681,120.790853,0.99924076
C1T950,太安,2023-11-17,23.666719,121.370128,6.411633e-08
C0E830,苑裡,2023-11-17,24.439714,120.653053,0.35535944
467270,田中,2023-11-17,23.873803,120.581286,0.99969184
C0SA10,檳榔四格山,2023-11-17,22.810031,121.109308,0.14619285
C1T830,布洛灣,2023-11-17,24.17184,121.57127,0.000278176
C0F970,大坑,2023-11-17,24.173142,120.722289,0.9994157
C1U920,思源,2023-11-17,24.393125,121.347214,1.7472352e-08
C0A931,三和,2023-11-17,25.233153,121.595236,0.13083898
C0I010,廬山,2023-11-17,24.033311,121.181808,1.1456917e-09
C0R860,鼻頭,2023-11-17,22.1043,120.8979,0.24793987
C0UB20,壯圍,2023-11-17,24.7359,121.8163,5.870149e-07
C0R790,九棚,2023-11-17,22.14195,120.889281,0.8826704
C0W110,東莒,2023-11-17,25.9652,119.98069,0.051274054
C1U930,粉鳥林,2023-11-17,24.497088,121.842479,6.5510854e-08
C1I211,蘆竹湳,2023-11-17,23.934019,120.811994,2.987172e-09
C0S830,長濱,2023-11-17,23.286817,121.411975,1.4390825e-08
C1F9F1,伯公龍,2023-11-17,24.272392,120.849047,0.011621431
C0E810,西湖,2023-11-17,24.562947,120.7485,0.73777646
C1I440,新高口,2023-11-17,23.478744,120.878939,2.859855e-09
C0O840,王爺宮,2023-11-17,23.222064,120.40085,0.999572
C0T9G0,鳳林山,2023-11-17,23.735269,121.420131,4.72644e-09
C0X080,佳里,2023-11-17,23.173039,120.145086,0.9990543
C0Z310,清水斷崖,2023-11-17,24.218294,121.689142,6.6686965e-08
C0M680,太保,2023-11-17,23.455062,120.331455,0.99904597
C1S820,金峰,2023-11-17,22.590969,120.933236,0.644105
C0AD10,八里,2023-11-17,25.150211,121.403947,0.073566996
C2K240,草嶺,2023-11-17,23.59555,120.693461,3.75612e-09
C1SA70,都蘭,2023-11-17,22.87794,121.226881,0.97444683
C0K440,二崙,2023-11-17,23.772797,120.408944,0.99976414
C1A760,坪林交控,2023-11-17,24.94284,121.713442,8.8750176e-07
C0F9N0,大里,2023-11-17,24.092464,120.701378,0.9995956
C0SA90,達仁林場,2023-11-17,22.264347,120.823972,0.9908502
C1R290,石門山,2023-11-17,22.112611,120.756597,0.9757971
42HA10,萬大發電廠,2023-11-17,23.978875,121.139639,9.971347e-10
C0R890,山海,2023-11-17,21.9878,120.7091,0.9967437
C0T9A0,月眉山,2023-11-17,23.809928,121.539828,6.309181e-09
C0AC70,信義,2023-11-17,25.037822,121.564597,0.75492734
C0K560,棋山,2023-11-17,23.68645,120.603417,0.99928236
C1Z240,中平林道,2023-11-17,23.42115,121.26763,1.00453455e-07
U2H480,溪頭,2023-11-17,23.670306,120.798194,2.830702e-09
C0M880,好美里,2023-11-17,23.3364,120.138,0.99812114
C0T9E0,大坑,2023-11-17,23.880628,121.581981,1.331015e-08
C0K530,臺西,2023-11-17,23.701547,120.197559,0.99883944
C1E900,國一N128K,2023-11-17,24.560997,120.844186,0.9923916
C0AJ50,水湳洞,2023-11-17,25.123695,121.862238,0.7738984
C0AI20,白沙灣,2023-11-17,25.283128,121.519058,0.7049775
C0A860,大坪,2023-11-17,25.165914,121.632969,3.9866362e-07
C1U850,觀音海岸,2023-11-17,24.38319,121.77856,5.411392e-09
C0U950,鶯子嶺,2023-11-17,24.89754,121.79244,3.4948254e-08
C0O900,善化,2023-11-17,23.112883,120.297219,0.9997391
C0K550,蔦松,2023-11-17,23.514319,120.229736,0.99891263
E2P980,林試六龜中心,2023-11-17,22.991703,120.645722,0.0034339142
C0E590,通霄,2023-11-17,24.471892,120.704622,0.21383004
C1I310,西巒,2023-11-17,23.754486,120.883956,3.829041e-09
C0A550,泰平,2023-11-17,24.971197,121.823711,3.2559753e-06
C0I360,水里,2023-11-17,23.812553,120.849792,0.9867485
C0R830,高士,2023-11-17,22.121825,120.836781,0.9784275
C1I101,溪頭,2023-11-17,23.661789,120.807647,4.1077968e-09
C0AJ20,野柳,2023-11-17,25.20703,121.690021,0.6557334
C0B060,暖暖,2023-11-17,25.0957,121.7403,0.84522897
C1H920,長豐,2023-11-17,24.102039,120.879897,8.860888e-10
C0V360,內門,2023-11-17,22.975481,120.466769,0.5723743
C0R850,林邊,2023-11-17,22.4634,120.5339,0.055241067
C0E930,龍鳳,2023-11-17,24.700034,120.859125,0.49366418
C0U910,冬山,2023-11-17,24.63373,121.7937,1.087164e-07
C1E721,泰安,2023-11-17,24.489017,120.968036,4.5550066e-09
82H320,茶改中部分場,2023-11-17,23.875611,120.913583,3.5232282e-09
C0M750,布袋,2023-11-17,23.380878,120.167789,0.99845946
C1S860,利嘉,2023-11-17,22.809417,121.050528,7.57458e-07
72C440,桃園農改,2023-11-17,24.950944,121.030583,0.28095955
E2S980,林試太麻里1,2023-11-17,22.598922,120.980044,0.853184
C0X170,關廟,2023-11-17,22.963017,120.327797,0.9732082
C0V720,林園,2023-11-17,22.507747,120.394511,0.025272613
C1I510,線浸林道,2023-11-17,23.761508,120.832956,2.4138407e-09
C0D690,外湖,2023-11-17,24.917735,120.968711,0.28218004
C0C750,新興坑尾,2023-11-17,25.0061,121.0971,0.41351953
B2Q810,畜試南區分所,2023-11-17,21.945583,120.802167,0.95055676
C0S790,金崙,2023-11-17,22.538122,120.966875,0.97422814
C0AH90,福山植物園,2023-11-17,24.760717,121.58135,9.536518e-08
C0I540,奇萊稜線,2023-11-17,24.109231,121.326456,1.5638086e-08
C0M850,表湖,2023-11-17,23.24186,120.64166,2.0593038e-08
C0S770,大溪山,2023-11-17,22.478475,120.943325,0.9996006
C0AG80,中和,2023-11-17,24.991622,121.491792,0.39230365
C0T790,大禹嶺,2023-11-17,24.186117,121.316086,4.874344e-09
C0T9B0,水源,2023-11-17,23.991861,121.537169,9.935683e-08
C0R840,牡丹池山,2023-11-17,22.168389,120.841225,0.9916093
C1I131,桶頭,2023-11-17,23.641944,120.654117,0.9994931
CAL110,布袋國中,2023-11-17,23.35893,120.18026,0.99845946
467571,新竹,2023-11-17,24.827853,121.014219,0.28594032
C0Z290,赤柯山,2023-11-17,23.36893,121.38293,1.9338767e-08
C0X280,將軍,2023-11-17,23.214999,120.13577,0.99894226
C0S690,太麻里,2023-11-17,22.60902,120.98533,4.641949e-06
C0U880,北關,2023-11-17,24.9072,121.8734,0.004274631
C1H860,瑞岩,2023-11-17,24.123772,121.18345,2.6429416e-09
C0G810,埔心,2023-11-17,23.947633,120.525456,0.999564
C0U970,大福,2023-11-17,24.80064,121.81389,2.427526e-06
C1E670,南礦,2023-11-17,24.538278,121.002836,4.005819e-09
C0M520,東後寮,2023-11-17,23.369908,120.248065,0.9985118
C1E461,松安,2023-11-17,24.397972,120.986022,4.1619934e-09
72G600,臺中農改,2023-11-17,24.003028,120.534389,0.99904275
C2N160,西拉雅風管處,2023-11-17,23.189481,120.335297,0.9996039
C0A640,石碇,2023-11-17,24.993969,121.662917,0.8698712
E2S960,林試太麻里2,2023-11-17,22.598,120.99775,0.88187945
C0F9Y0,桃山,2023-11-17,24.432739,121.303808,1.3195391e-08
C1I020,萬大,2023-11-17,23.979817,121.132261,9.115314e-10
C0U940,羅東,2023-11-17,24.68184,121.74934,4.0265996e-07
C0M650,朴子,2023-11-17,23.43463,120.23902,0.99937683
C1I500,大尖山,2023-11-17,23.858572,120.994889,3.1685974e-09
C0G820,田尾,2023-11-17,23.901669,120.509389,0.999564
E2K600,四湖植物園,2023-11-17,23.676986,120.163433,0.9987372
C0S730,綠島,2023-11-17,22.6672,121.47533,0.9914502
12Q970,東港工作站,2023-11-17,22.479997,120.466058,0.055286977
C0E430,南庄,2023-11-17,24.601775,121.000214,0.9967621
C1TA00,太魯閣,2023-11-17,24.15773,121.6236,0.64164305
466920,臺北,2023-11-17,25.037658,121.514853,0.75492734
C0R600,舊泰武,2023-11-17,22.588194,120.664944,4.7886894e-09
C1I260,北坑,2023-11-17,23.9246,121.006903,2.1549595e-09
466910,鞍部,2023-11-17,25.182586,121.529731,7.106092e-08
C1I230,九份二山,2023-11-17,23.961944,120.845,2.6080285e-09
C2A660,瑞芳,2023-11-17,25.113169,121.801147,0.75075686
C0R270,琉球嶼,2023-11-17,22.332244,120.362236,2.149421e-05
C1T990,高寮,2023-11-17,23.394239,121.356808,1.1240747e-05
C0G620,芬園,2023-11-17,24.015678,120.6213,0.99961305
C1Z140,荖溪,2023-11-17,23.890575,121.45964,8.998547e-08
C1I201,中心崙,2023-11-17,23.728722,120.712097,1.8476353e-08
C1I400,凌霄,2023-11-17,24.018778,121.004456,9.898167e-10
C1M640,十字,2023-11-17,23.492153,120.753683,5.0374918e-09
G2P820,農試鳳山分所,2023-11-17,22.646611,120.356083,0.049519114
C0Z270,蕃薯寮,2023-11-17,23.73835,121.540108,1.0249547e-08
C0F9Q0,外埔,2023-11-17,24.347817,120.705686,0.9995397
C0K580,高鐵雲林,2023-11-17,23.737456,120.417944,0.99978715
C2I090,鳳凰,2023-11-17,23.728081,120.787347,1.1066028e-09
C0U990,員山,2023-11-17,24.74435,121.72247,5.3975447e-07
C0V770,大社,2023-11-17,22.730306,120.346639,0.18316428
C0X120,麻豆,2023-11-17,23.183289,120.248611,0.9994684
C0C670,龍潭,2023-11-17,24.870056,121.221389,0.116532445
C0D680,香山濕地,2023-11-17,24.783581,120.914988,0.29307336
C0S980,勝林山,2023-11-17,22.430439,120.8938,0.0004418778
C0V730,大寮,2023-11-17,22.605614,120.395717,0.0011404087
C0R570,麟洛,2023-11-17,22.65078,120.52719,0.51109236
CAG100,王功漁港,2023-11-17,23.96824,120.32586,0.9243387
C0X290,北門,2023-11-17,23.267772,120.125481,0.99894226
C2F930,大甲,2023-11-17,24.347667,120.640403,0.98838633
C0D650,湖口,2023-11-17,24.904794,121.043628,0.29927444
C0E420,竹南,2023-11-17,24.708978,120.888897,0.4143857
C0U780,五結,2023-11-17,24.68637,121.79794,5.870149e-07
C1I250,鯉潭,2023-11-17,23.961922,120.991131,5.7870797e-09
C0R130,阿禮,2023-11-17,22.742908,120.743678,3.606497e-09
C0X100,臺南市北區,2023-11-17,23.010394,120.194228,0.99771917
C0S920,金峰嘉蘭,2023-11-17,22.594789,120.960825,0.8496896
C0V490,新興,2023-11-17,22.627422,120.298803,0.0015389594
C0F9K0,大安,2023-11-17,24.345061,120.588025,0.92556506
72N100,臺南農改,2023-11-17,23.0605,120.342194,0.99973893
467290,古坑,2023-11-17,23.633639,120.551889,0.99921876
C0V440,鳳山,2023-11-17,22.646653,120.356122,0.049519114
C1T940,大觀,2023-11-17,23.714206,121.373133,5.6307146e-09
72T250,花蓮農改,2023-11-17,23.975222,121.563889,0.9224798
C0E740,造橋,2023-11-17,24.637056,120.864778,0.45254442
C0R100,尾寮山,2023-11-17,22.833111,120.683889,5.4420606e-09
A2K630,臺大雲林校區,2023-11-17,23.730628,120.423903,0.99978715
C0D580,寶山,2023-11-17,24.735006,121.025192,0.91339725
E2P990,林試扇平站,2023-11-17,22.9677,120.6857,2.6792126e-08
C0AI30,三重,2023-11-17,25.057328,121.500629,0.7307123
C0AH00,汐止,2023-11-17,25.066881,121.658778,0.75492734
C1Z040,立山,2023-11-17,23.443356,121.327375,2.8521657e-07
C0R740,獅子,2023-11-17,22.201569,120.70525,0.23799415
C0W130,花嶼,2023-11-17,23.40007,119.32276,0.46102926
C0A950,鼻頭角,2023-11-17,25.129036,121.923372,0.5410594
C0K470,林內,2023-11-17,23.748675,120.609642,0.9994846
82C160,茶改場,2023-11-17,24.908472,121.185333,0.5504417
C0Z320,清水林道,2023-11-17,23.27125,121.188272,5.242503e-08
C0R760,南仁湖,2023-11-17,22.084681,120.863353,0.9757971
C0M670,大林,2023-11-17,23.600616,120.45841,0.99963355
C0M800,茶山,2023-11-17,23.299075,120.664767,8.055775e-08
C0A9C0,天母,2023-11-17,25.117494,121.537169,0.6768879
72K220,南改斗南分場,2023-11-17,23.634556,120.477333,0.99968356
72AI40,桃改樹林分場,2023-11-17,24.944503,121.386972,0.29865235
C0S910,蘭嶼燈塔,2023-11-17,22.081197,121.503117,0.9586022
C0B050,八斗子,2023-11-17,25.144754,121.79167,0.7714542
C0U900,內城,2023-11-17,24.71813,121.68766,2.6674502e-07
C0X320,柳營,2023-11-17,23.253328,120.375253,0.999034
C0M790,新港,2023-11-17,23.553269,120.345728,0.99969417
C0F9T0,西屯,2023-11-17,24.179494,120.641275,0.99946463
C0SA30,都歷,2023-11-17,23.020333,121.323642,0.99430805
C0C620,蘆竹,2023-11-17,25.084275,121.265767,0.2860635
C0R730,大坪頂,2023-11-17,22.024633,120.69355,0.12887612
C0AJ40,石門,2023-11-17,25.273672,121.601198,0.8990636
C0E750,苗栗,2023-11-17,24.564569,120.824575,0.99107707
C0T870,鯉魚潭,2023-11-17,23.935639,121.508944,0.014398744
C1V170,排雲,2023-11-17,23.463619,120.954147,9.56289e-09
C2H950,中寮,2023-11-17,23.884447,120.766406,0.9994041
C0R350,貓鼻頭,2023-11-17,21.921774,120.7358,0.9936121
C0V660,岡山,2023-11-17,22.797078,120.294958,0.99625707
C1H941,雙冬,2023-11-17,23.967378,120.802189,1.9390836e-09
C0AJ70,田寮,2023-11-17,25.2698,121.4886,0.6755997
C0AI00,五股,2023-11-17,25.07445,121.42728,0.3551951
C0Z280,德武,2023-11-17,23.47426,121.41071,1.9890251e-06
C0R700,枋山,2023-11-17,22.246844,120.661086,0.8103896
C0C460,復興,2023-11-17,24.820208,121.352281,0.06705911
E2H360,蓮華池,2023-11-17,23.918333,120.885278,1.330121e-09
C0M640,中埔,2023-11-17,23.42538,120.5229,0.9996697
C0W140,金沙,2023-11-17,24.488292,118.408778,0.46124893
C2A540,四堵,2023-11-17,24.8926,121.745736,1.319532e-07
C0ACA0,新莊,2023-11-17,25.051478,121.446756,0.4365955
C0R220,潮州,2023-11-17,22.534361,120.54,0.7316303
U2HA40,臺大內茅埔,2023-11-17,23.689722,120.851117,1.1147959e-07
467490,臺中,2023-11-17,24.145736,120.684075,0.9992342
C0U960,翠峰湖,2023-11-17,24.510856,121.608044,2.2452538e-08
E2HA20,林試畢祿溪站,2023-11-17,24.226944,121.308522,3.706572e-09
C0V890,前鎮,2023-11-17,22.5718,120.3117,0.0022978804
467620,蘭嶼,2023-11-17,22.036969,121.558339,0.937025
C1F941,雪嶺,2023-11-17,24.280586,121.026642,8.301065e-09
C0AC80,文山,2023-11-17,25.00235,121.575728,0.4988764
C0F9R0,龍井,2023-11-17,24.184536,120.528972,0.9845508
C0M760,民雄,2023-11-17,23.551754,120.428457,0.99962455
C0UA40,西德山,2023-11-17,24.560647,121.752608,2.1208187e-08
C1T920,中興,2023-11-17,23.769503,121.498653,4.4549782e-07
C0D550,雪霸,2023-11-17,24.526972,121.11605,5.271046e-09
C2F860,梨山,2023-11-17,24.247522,121.243669,3.8540486e-09
C0R320,車城,2023-11-17,22.0744,120.716247,0.73532873
C1S870,南美山,2023-11-17,23.15025,121.382333,0.124043934
C0B020,基隆嶼,2023-11-17,25.19141,121.78391,0.14812435
C1U501,牛鬥,2023-11-17,24.637836,121.573656,7.656132e-08
C0M730,嘉義市東區,2023-11-17,23.457673,120.460531,0.9995122
C0S700,知本,2023-11-17,22.684866,121.005642,1.188382e-06
C1N001,沙崙,2023-11-17,22.935472,120.309406,0.98376673
C0V760,橋頭,2023-11-17,22.757806,120.30575,0.26040632
C0G960,福寶,2023-11-17,24.0443,120.3814,0.99292344
C0X210,白河,2023-11-17,23.347466,120.414427,0.9990271
C0S810,東河,2023-11-17,22.972672,121.303986,0.87991977
C0R670,楓港,2023-11-17,22.190131,120.692156,0.12786011
C0FA50,霧峰,2023-11-17,24.0419,120.6995,0.99957967
C0UB10,蘇澳,2023-11-17,24.5969,121.8571,1.8155092e-07
C0G950,防潮門,2023-11-17,24.1835,120.4871,0.9845508
C0M740,六腳,2023-11-17,23.492871,120.290625,0.99965626
C1R250,力里,2023-11-17,22.428117,120.629228,0.31964165
C0K330,虎尾,2023-11-17,23.719183,120.442036,0.99978906
C2FA00,烏石坑,2023-11-17,24.273503,120.947617,4.674825e-09
C0V620,永安,2023-11-17,22.82315,120.236856,0.99625707
C1I330,楓樹林,2023-11-17,23.986803,121.076117,8.94752e-10
C0W200,湖西,2023-11-17,23.596314,119.67275,0.73191893
72Q010,高雄農改場,2023-11-17,22.709333,120.525889,0.07050946
C0SA40,瑞和,2023-11-17,22.974361,121.156697,0.42509708
C0C680,龜山,2023-11-17,25.02846,121.38656,0.5450105
C2V260,月眉,2023-11-17,22.971003,120.539853,0.9912657
C0V450,鳳森,2023-11-17,22.545064,120.392592,0.0008328386
C0U720,南山,2023-11-17,24.43742,121.38167,3.364725e-08
A2N290,臺南蘭花園區,2023-11-17,23.340258,120.379661,0.9986354
C0R560,新園,2023-11-17,22.5434,120.461558,0.025272613
C0U890,三星,2023-11-17,24.66812,121.65302,4.944576e-07
C1V300,御油山,2023-11-17,23.001983,120.715364,4.2133355e-09
C0U600,礁溪,2023-11-17,24.817539,121.765608,8.096647e-06
C1T980,龍澗,2023-11-17,24.023289,121.411328,5.7397806e-08
C0D670,海天一線,2023-11-17,24.831986,120.914438,0.29098928
C0SA00,歷坵,2023-11-17,22.520969,120.89185,0.10383936
C0M710,東石,2023-11-17,23.458927,120.15385,0.9987768
C0M780,鹿草,2023-11-17,23.41134,120.30835,0.9993967
C0U520,雙連埤,2023-11-17,24.753033,121.641303,2.8045312e-08
C0B010,七堵,2023-11-17,25.094819,121.71713,0.86161387
C0R480,長治,2023-11-17,22.693128,120.542622,0.8020333
C1V830,國三S383K,2023-11-17,22.781967,120.426475,0.2785658
12Q980,恆春工作站,2023-11-17,22.079678,120.714425,0.7353287
C1O940,東山服務區,2023-11-17,23.286016,120.398472,0.99895036
C1U840,東澳嶺,2023-11-17,24.5378,121.8485,1.8063124e-08
C1D630,飛鳳山,2023-11-17,24.766464,121.119178,0.023892311
C0S940,石寧山,2023-11-17,23.223772,121.406639,7.7508486e-07
C0K410,北港,2023-11-17,23.573957,120.292802,0.99924135
C2M620,瑞里,2023-11-17,23.545133,120.675197,4.1608423e-09
C2O950,安南,2023-11-17,23.076694,120.144861,0.99854493
C0F0E0,南湖圈谷,2023-11-17,24.363714,121.444667,3.600492e-08
467610,成功,2023-11-17,23.097486,121.373428,0.9388049
C0G890,伸港,2023-11-17,24.148933,120.484403,0.9910396
C2E540,龍溪,2023-11-17,24.606489,120.783933,0.44438714
C1V200,梅山,2023-11-17,23.268447,120.823556,1.6348269e-08
C0T9H0,加路蘭山,2023-11-17,23.682947,121.5274,8.166027e-09
C2O930,玉井,2023-11-17,23.126042,120.46055,0.9818952
C1F911,新伯公,2023-11-17,24.221361,120.841069,0.99814117
C0R490,九如,2023-11-17,22.7405,120.490503,0.115947075
C0X200,左鎮,2023-11-17,23.056758,120.408522,0.97900814
C1F891,稍來,2023-11-17,24.265689,121.001142,6.2514918e-09
72N240,七股研究中心,2023-11-17,23.081672,120.062894,0.9985086
C0C700,中壢,2023-11-17,24.977661,121.256375,0.46751165
C0M690,水上,2023-11-17,23.419734,120.388909,0.9990161
C0V690,鼓山,2023-11-17,22.623325,120.275575,0.0015320365
C0O860,大內,2023-11-17,23.11885,120.36083,0.9997421
C0Z200,萬榮,2023-11-17,23.709219,121.420106,5.3352878e-08
C0T9D0,和中,2023-11-17,24.26676,121.74103,0.53239286
C1O921,楠西,2023-11-17,23.183511,120.484083,0.99635935
C0AJ30,淡水觀海,2023-11-17,25.184591,121.408616,0.8087163
C0V810,左營,2023-11-17,22.67491,120.28491,0.09773695
C0UA70,桃源谷,2023-11-17,24.962606,121.888875,5.214098e-07
C0X130,官田,2023-11-17,23.193217,120.315422,0.9995951
C1H000,翠峰,2023-11-17,24.109397,121.205211,7.69582e-09
C0UA90,石城,2023-11-17,24.980444,121.951214,0.0054869163
C1E681,南勢山,2023-11-17,24.421669,120.923831,3.9769508e-09
C0A9F0,內湖,2023-11-17,25.079422,121.57545,0.75492734
C0K291,宜梧,2023-11-17,23.536281,120.169329,0.9989119
C1K540,口湖,2023-11-17,23.585344,120.180517,0.9976308
C0R780,滿州,2023-11-17,22.024403,120.839892,0.6774953
C0V870,文安,2023-11-17,22.8025,120.2164,0.99622
C0U650,玉蘭,2023-11-17,24.675286,121.587061,7.993603e-08
C0R640,東港,2023-11-17,22.46247,120.44074,0.055286977
K2E360,苗栗農改,2023-11-17,24.495722,120.829111,0.9994034
C0AJ80,板橋,2023-11-17,25.0107,121.4489,0.3644187
C0S660,下馬,2023-11-17,23.150427,121.070312,3.9154227e-08
C1H9B1,阿眉,2023-11-17,24.1263,120.994672,3.3386025e-09
C0UA20,多加屯,2023-11-17,24.368614,121.373189,5.6269784e-09
C0E730,頭份,2023-11-17,24.688247,120.912206,0.42869505
72V140,高改旗南分場,2023-11-17,22.857861,120.516667,0.9674174
C0K480,莿桐,2023-11-17,23.761192,120.502372,0.9998109
C0U980,坪林石牌,2023-11-17,24.86478,121.77396,1.9296799e-08
C0T900,西林,2023-11-17,23.8119,121.441458,5.62269e-08
C1I150,青雲,2023-11-17,23.793361,120.949378,7.5467915e-07
467350,澎湖,2023-11-17,23.565503,119.563094,0.844607
C0G800,埔鹽,2023-11-17,24.000394,120.431683,0.99547005
C0H960,草屯,2023-11-17,23.973672,120.68085,0.9996057
C1V780,多納林道,2023-11-17,22.888028,120.737917,7.2281607e-09
C0E920,通霄漁港,2023-11-17,24.498589,120.673876,0.20922884
C0Z330,安通山,2023-11-17,23.290728,121.348528,3.3674261e-09
C0AH10,永和,2023-11-17,25.01125,121.508111,0.36405766
C2G640,鹿港,2023-11-17,24.0753,120.430481,0.99292344
C1E890,國三N149K,2023-11-17,24.463414,120.680019,0.42656508
C1R110,口社,2023-11-17,22.770111,120.645222,0.6443157
C1M870,國三N285K,2023-11-17,23.550319,120.505833,0.99818486
467050,新屋,2023-11-17,25.006744,121.047486,0.51149607
C1E480,鳳美,2023-11-17,24.554803,121.034747,1.4177862e-06
C0M530,奮起湖,2023-11-17,23.493903,120.699253,4.18852e-09
C0C590,觀音,2023-11-17,25.027072,121.153317,0.6270327
C0T9M0,靜浦,2023-11-17,23.455167,121.495028,0.008308951
C0AI40,石牌,2023-11-17,25.115597,121.513139,0.66936255
C1F871,上谷關,2023-11-17,24.203483,121.018644,1.8908834e-09
C0G880,二水,2023-11-17,23.810742,120.6173,0.99919164
C0R940,加祿堂,2023-11-17,22.3363,120.6217,0.6429557
C0W220,北竿,2023-11-17,26.220358,119.974881,0.14067544
C0O960,崎頂,2023-11-17,22.959547,120.369317,0.4272716
C0S750,向陽,2023-11-17,23.248397,120.986133,5.201584e-09
C0T9F0,水璉,2023-11-17,23.797131,121.542514,2.0905048e-08
C1M600,頭凍,2023-11-17,23.406364,120.603339,4.16668e-09
467660,臺東,2023-11-17,22.752211,121.154586,0.06993565
C1D380,新埔,2023-11-17,24.84745,121.03834,0.3468285
C0V750,路竹,2023-11-17,22.854997,120.259439,0.99790883
C0N050,蚵寮,2023-11-17,23.301,120.1104,0.99812156
72M700,南改鹿草分場,2023-11-17,23.416869,120.283061,0.9993769
C1SA50,利嘉林道,2023-11-17,22.82325,121.009389,4.060445e-08
467550,玉山,2023-11-17,23.487614,120.959522,1.4126135e-08
C0A940,金山,2023-11-17,25.223628,121.643967,0.6324767
C1V340,大津,2023-11-17,22.888322,120.645986,0.069985546
C0W180,七美,2023-11-17,23.219333,119.444892,0.3950142
C1F9C1,白冷,2023-11-17,24.182844,120.929889,9.674845e-05
K2E710,苗改生物防治研究中心,2023-11-17,24.422861,120.871833,0.34247094
C0N040,蘆竹溝,2023-11-17,23.2344,120.0961,0.99894106
C2W230,畜試所澎湖,2023-11-17,23.628342,119.513206,0.7461993
C0R880,後壁湖,2023-11-17,21.9457,120.7457,0.99685705
C1I280,埔中,2023-11-17,23.820778,120.642594,0.0020545158
467790,墾丁雷達站,2023-11-17,21.948235,120.808028,0.94250065
C0W190,望安,2023-11-17,23.380564,119.494075,0.54926354
466881,新北,2023-11-17,24.9593,121.52,0.4090157
C0Z170,卓溪,2023-11-17,23.3443,121.3029,2.2876195e-07
C0F850,東勢,2023-11-17,24.246428,120.833047,0.9995794
466900,淡水,2023-11-17,25.164889,121.448906,0.06984979
C0I370,魚池,2023-11-17,23.895703,120.94135,1.6372194e-09
C0C630,大溪,2023-11-17,24.882853,121.265547,0.1056321
C0A520,山佳,2023-11-17,24.974944,121.402008,0.5444025
C0I110,竹山,2023-11-17,23.761225,120.688156,0.9993824
82H840,茶改南部分場,2023-11-17,23.762528,120.7405,0.022955246
C0G660,溪湖,2023-11-17,23.94835,120.479122,0.99955684
C1T800,洛韶,2023-11-17,24.204558,121.453956,3.4921e-08
C1T810,慈恩,2023-11-17,24.192044,121.388386,7.3660296e-09
C1E451,象鼻,2023-11-17,24.368617,120.940228,1.4130925e-09
C0AC60,三峽,2023-11-17,24.939025,121.369728,0.30075163
C0I490,萬大林道,2023-11-17,23.928228,121.091411,1.6507024e-09
C1I290,豐丘,2023-11-17,23.668178,120.887417,2.8745715e-09
C1I320,奧萬大,2023-11-17,23.952956,121.178556,1.257965e-09
C0U770,南澳,2023-11-17,24.44935,121.81022,6.953893e-09
C0A980,社子,2023-11-17,25.109508,121.469681,0.07680004
C0V800,六龜,2023-11-17,22.997889,120.633583,0.009075443
C1G9D0,國一S218K,2023-11-17,23.890641,120.493253,0.9997684
C2F9A0,中竹林,2023-11-17,24.103556,120.751061,0.9958162
C0FA40,臺中電廠,2023-11-17,24.2146,120.4907,0.9845508
C0H9C0,合歡山,2023-11-17,24.143442,121.272547,1.0149341e-08
C0X060,下營,2023-11-17,23.22695,120.256261,0.99833
G2M350,農試溪口農場,2023-11-17,23.58565,120.408111,0.99960065
C0U860,頭城,2023-11-17,24.85323,121.8308,1.0601272e-05
C0R580,南州,2023-11-17,22.48591,120.50274,0.055286977
C0D430,峨眉,2023-11-17,24.6905,121.017189,0.7778852
C0G780,秀水,2023-11-17,24.03405,120.503869,0.99904275
72N100,臺南農改場,2023-11-17,23.0605,120.342194,0.99973893
C0S900,蘭嶼高中,2023-11-17,22.04909,121.51214,0.9765944
467540,大武,2023-11-17,22.355675,120.903789,0.64812994
C1F9W0,德基,2023-11-17,24.254783,121.190261,4.9121245e-09
C1Z120,壽豐,2023-11-17,23.870853,121.508081,0.0028646921
C0W160,烏坵,2023-11-17,24.9944,119.44956,0.2543058
C1I240,外大坪,2023-11-17,23.958697,120.917931,4.9848654e-09
C1I550,國六W023K,2023-11-17,23.979067,120.867742,2.5673936e-07
C0R870,興海,2023-11-17,21.9752,120.8439,0.9505757
C0R140,瑪家,2023-11-17,22.682903,120.686639,1.5388183e-08
C0A530,坪林,2023-11-17,24.938183,121.70975,2.537197e-07
C0X260,後壁,2023-11-17,23.366358,120.362326,0.9986354
C0Z230,和平,2023-11-17,24.30717,121.77007,0.64310086
C0G770,福興,2023-11-17,24.041289,120.437669,0.99546695
C0H9A0,神木村,2023-11-17,23.532742,120.843667,5.0720264e-09
C0I460,南投,2023-11-17,23.911469,120.687331,0.99947816
C0I480,梅峰,2023-11-17,24.085272,121.173572,2.6933011e-09
C1V570,吉東,2023-11-17,22.85422,120.5454,0.9505145
C2A560,福山,2023-11-17,24.776203,121.502811,3.9038608e-07
C0AH30,五分山,2023-11-17,25.07125,121.780794,1.86854e-07
C0FA10,松柏,2023-11-17,24.429115,120.617482,0.3344745
72S200,東改班鳩分場,2023-11-17,22.829528,121.077694,0.81829685
72HA00,中改埔里分場,2023-11-17,23.903208,120.963364,1.6069037e-09
C0C650,平鎮,2023-11-17,24.897503,121.214636,0.4225789
C0S930,延平,2023-11-17,22.902581,121.084058,0.7151762
C0UA60,樟樹山,2023-11-17,24.41393,121.78325,3.6139085e-08
C1S670,摩天,2023-11-17,23.199503,121.027,2.0222062e-08
C0V630,茄萣,2023-11-17,22.906642,120.182608,0.9977294
466940,基隆,2023-11-17,25.133314,121.740475,0.77284706
C0X050,東河,2023-11-17,23.296598,120.385608,0.9987708
C0R770,保力,2023-11-17,22.071122,120.764111,0.13232446
G2L020,農試嘉義分所,2023-11-17,23.485028,120.473806,0.9988946
C0X240,關子嶺,2023-11-17,23.331169,120.508025,0.029045584
C0I380,集集,2023-11-17,23.828206,120.801467,0.9889551
466990,花蓮,2023-11-17,23.975128,121.613275,0.9413948
C1V220,小關山,2023-11-17,23.154217,120.813603,4.960509e-09
C1F9G1,慶福山,2023-11-17,24.180853,120.848378,1.356746e-09
C0Z250,瑞穗林道,2023-11-17,23.49284,121.30688,8.833627e-08
C0D590,新豐,2023-11-17,24.87068,120.97721,0.12404017
C0A870,五指山,2023-11-17,25.132153,121.608692,1.9796202e-08
C0UA50,西帽山,2023-11-17,24.555361,121.802628,2.8092424e-08
C0X160,仁德,2023-11-17,22.968258,120.257689,0.99953544
C1H971,六分寮,2023-11-17,23.92507,120.6378,0.99717975
C0W120,西嶼,2023-11-17,23.5626,119.468436,0.63791114
C0G650,員林,2023-11-17,23.946503,120.585597,0.9995209
C0AD50,鶯歌,2023-11-17,24.951533,121.346294,0.30257866
C0S990,山豬窟,2023-11-17,22.318619,120.857372,0.9826429
72Q010,高雄農改,2023-11-17,22.709333,120.525889,0.07050946
C0X190,安平,2023-11-17,22.993161,120.152181,0.99771917
C0K400,斗六,2023-11-17,23.720583,120.541127,0.9998214
12J990,口湖工作站,2023-11-17,23.589978,120.180394,0.9976308
C0O830,北寮,2023-11-17,23.079561,120.495008,0.98028827
C1D410,白蘭,2023-11-17,24.579364,121.079947,3.830765e-09
C0S970,加津林,2023-11-17,22.416211,120.926942,0.64636934
C0D700,關西,2023-11-17,24.7977,121.1732,0.74236864
C0M810,里佳,2023-11-17,23.389125,120.716647,3.6263212e-09
C0U750,龜山島,2023-11-17,24.841667,121.953133,0.0029911976
C0R810,內獅,2023-11-17,22.305064,120.642986,0.5758546
C1M390,龍美,2023-11-17,23.406728,120.654417,3.5804246e-09
C1H840,國三N238K,2023-11-17,23.841008,120.707711,0.6596068
CAQ030,崎峰國小,2023-11-17,22.42565,120.49521,0.055286977
C2E520,大湖,2023-11-17,24.414939,120.870872,0.010669208
467530,阿里山,2023-11-17,23.508208,120.813242,8.080764e-09
C1E691,南湖,2023-11-17,24.40135,120.837533,1.592099e-08
C0FA30,梧棲,2023-11-17,24.256003,120.523381,0.9775042
C1V231,高中,2023-11-17,23.134911,120.716711,9.988294e-09
C0F9V0,新社,2023-11-17,24.200172,120.815806,0.55727386
C0H890,埔里,2023-11-17,23.972169,120.952425,4.7499757e-08
C0R690,墾丁,2023-11-17,21.966756,120.810269,0.8594829
C0F0D0,審馬陣,2023-11-17,24.381675,121.4203,9.041503e-09
C0R820,白鷺,2023-11-17,22.454275,120.666219,2.3615978e-05
U2H480,臺大溪頭,2023-11-17,23.670306,120.798194,2.830702e-09
C1V190,南天池,2023-11-17,23.27403,120.91176,4.9681126e-09
K2E360,苗栗農改場,2023-11-17,24.495722,120.829111,0.9994034
CAJ050,海口故事園區,2023-11-17,23.57543,120.14121,0.9976308
C0O990,媽廟,2023-11-17,22.99175,120.293525,0.9997322
C0D480,打鐵坑,2023-11-17,24.849664,121.150789,0.11940442
C0Z220,和平林道,2023-11-17,24.343922,121.656317,7.0039166e-09
72C440,桃園農改場,2023-11-17,24.950944,121.030583,0.28095952
C1E711,馬拉邦山,2023-11-17,24.367306,120.901656,1.3297607e-09
C0D560,竹東,2023-11-17,24.767147,121.057881,0.72669363
C0F9U0,南屯,2023-11-17,24.137006,120.637969,0.9993946
C0M720,番路,2023-11-17,23.464657,120.554156,0.99971783
C0F0A0,雪山圈谷,2023-11-17,24.388594,121.236339,1.4550577e-08
C1A9N0,四十份,2023-11-17,24.934158,121.593283,0.009837647
C0U760,東澳,2023-11-17,24.52196,121.83318,5.425098e-08
C0X230,鹽水,2023-11-17,23.272621,120.247641,0.9982184
C0V370,古亭坑,2023-11-17,22.893178,120.401947,0.50929517
C1I340,新興橋,2023-11-17,23.563333,120.868728,5.8010263e-09
C0SA80,土坂,2023-11-17,22.453108,120.887572,0.94792163
C0R160,鹽埔,2023-11-17,22.739558,120.530778,0.07050946
C0AC40,大屯山,2023-11-17,25.175675,121.522408,3.563639e-08
466850,五分山雷達站,2023-11-17,25.071182,121.781205,1.7757041e-07
C1AI50,國三N016K,2023-11-17,25.034164,121.619664,0.8097251
C1V600,藤枝,2023-11-17,23.071961,120.757042,4.086346e-09
C1E601,南勢,2023-11-17,24.572486,120.734842,0.47592363
C0Z180,新城,2023-11-17,24.03946,121.60454,0.93449306
C0O980,新市,2023-11-17,23.061614,120.298197,0.9997391
C0K420,西螺,2023-11-17,23.800407,120.467394,0.9997654
C0Z050,佳心,2023-11-17,23.34567,121.21316,2.587408e-08
C0AD30,蘆洲,2023-11-17,25.086594,121.472331,0.7307123
C0V610,梓官,2023-11-17,22.760558,120.267211,0.26040632
K2F750,種苗改良場,2023-11-17,24.225972,120.800917,0.9889354
C0UA80,大溪漁港,2023-11-17,24.941801,121.902955,0.0028697462
C1AI60,國一39K邊坡,2023-11-17,25.064361,121.383836,0.44634053
C0W150,金寧,2023-11-17,24.457703,118.328989,0.9997163
V2C250,八德合作社,2023-11-17,24.93775,121.266389,0.38836792
C0AH40,平等,2023-11-17,25.129142,121.577086,1.7342558e-07
C0R540,佳冬,2023-11-17,22.419456,120.552375,0.37668413
466950,彭佳嶼,2023-11-17,25.627975,122.079744,0.50759214
C0A890,雙溪,2023-11-17,25.036003,121.864242,0.72730386
C0C480,桃園,2023-11-17,24.992425,121.323172,0.4176069
C0AH50,林口,2023-11-17,25.072181,121.38084,0.59236246
A2K360,水試臺西試驗場,2023-11-17,23.717231,120.190522,0.99864155
B2N890,畜試所,2023-11-17,23.058972,120.336406,0.9997401
C0F9S0,烏日,2023-11-17,24.107058,120.624103,0.9995264
C0C490,八德,2023-11-17,24.928708,121.283289,0.39400506
C0R190,赤山,2023-11-17,22.592333,120.614306,0.89089805
C0T820,天祥,2023-11-17,24.179597,121.495639,2.4178453e-06
C1F9E1,龍安,2023-11-17,24.1605,120.831961,0.67652714
C0V820,小林,2023-11-17,23.148408,120.63325,3.1547808e-07
C2G870,芳苑,2023-11-17,23.922303,120.320025,0.92406785
C0E850,大河,2023-11-17,24.618069,120.948578,0.992017
C1U670,寒溪,2023-11-17,24.634,121.71691,4.539224e-08
C0N020,城西,2023-11-17,23.0568,120.0956,0.99771917
C1Z110,三棧,2023-11-17,24.11557,121.60501,2.9432758e-07
C0R280,檳榔,2023-11-17,22.076078,120.836777,0.95139295
C0F9L0,后里,2023-11-17,24.310436,120.729725,0.99952894
C0D540,橫山,2023-11-17,24.71116,121.11693,0.94936794
C1D420,太閣南,2023-11-17,24.632808,121.160575,1.0138603e-08
C1E770,公館,2023-11-17,24.526914,120.830806,0.9993846
CAN130,水試所海水繁養殖中心,2023-11-17,23.120802,120.07968,0.9985086
C1I430,翠華,2023-11-17,24.191961,121.224339,2.8908906e-09
C1M400,菜瓜坪,2023-11-17,23.251928,120.576103,1.0502443e-07
C0G730,二林,2023-11-17,23.903325,120.376081,0.9976218
72M360,南改義竹分場,2023-11-17,23.360694,120.279361,0.9985118
V2K620,麥寮合作社,2023-11-17,23.753836,120.294783,0.9993364
C0Z070,舞鶴,2023-11-17,23.46811,121.37407,2.9854996e-07
C0B040,大武崙,2023-11-17,25.166676,121.706993,0.77405715
C1Z030,紅葉,2023-11-17,23.493119,121.338806,6.9505404e-07
C1I050,丹大,2023-11-17,23.753747,121.141147,6.2360574e-09
C0I080,信義,2023-11-17,23.689694,120.851036,1.1147959e-07
C2A880,福隆,2023-11-17,25.017842,121.942083,0.008418923
C0Z160,鳳林,2023-11-17,23.746114,121.453411,8.759051e-08
C0V210,復興,2023-11-17,23.222403,120.806089,4.7813717e-08
C0H990,昆陽,2023-11-17,24.121322,121.273642,1.3971497e-08
C0S710,鹿野,2023-11-17,22.917711,121.122994,1.3473915e-06
C0I530,小奇萊,2023-11-17,24.131764,121.295717,1.4642786e-08
C0Z080,富源,2023-11-17,23.587642,121.378225,6.292269e-07
467441,高雄,2023-11-17,22.7304,120.3125,0.18316436
C1I140,卡奈托灣,2023-11-17,23.754364,121.087872,1.7987305e-09
C0I520,玉山風口,2023-11-17,23.470489,120.955994,1.3790721e-08
C1G691,下水埔,2023-11-17,23.816114,120.5676,0.9998158
C0X110,臺南市南區,2023-11-17,22.961189,120.188378,0.999535
C0V680,仁武,2023-11-17,22.701083,120.347722,0.09798646
C2G840,北斗,2023-11-17,23.877586,120.514222,0.9997682
C0R900,竹坑,2023-11-17,22.1385,120.7022,0.6953911
C0K250,崙背,2023-11-17,23.75555,120.318925,0.9993364
C0G860,社頭,2023-11-17,23.897647,120.5862,0.9996882
C0X150,安定,2023-11-17,23.102614,120.227839,0.99950707
C0R590,里港,2023-11-17,22.77919,120.49459,0.86780375
C0E610,馬都安,2023-11-17,24.451272,120.930192,9.412297e-09
C0E550,明德,2023-11-17,24.583486,120.885411,0.9929547
C0R150,三地門,2023-11-17,22.709889,120.639944,0.6748184
C0G910,花壇,2023-11-17,24.032076,120.549461,0.9991148
C1D400,鳥嘴山,2023-11-17,24.71909,121.28387,2.8756344e-06
C0K500,元長,2023-11-17,23.64981,120.315024,0.9993166
C0F0B0,石岡,2023-11-17,24.276061,120.777644,0.99945956
C2V250,甲仙,2023-11-17,23.080106,120.591758,0.0007549171
C0SA20,金崙山,2023-11-17,22.567419,120.959667,3.958759e-08
C0V350,溪埔,2023-11-17,22.738578,120.446797,0.903861
C0M660,溪口,2023-11-17,23.604131,120.403569,0.99960065
C1S880,壽卡,2023-11-17,22.238911,120.858903,0.9903421
72D680,桃改新埔分場,2023-11-17,24.834444,121.066111,0.33880427
