站號,站名,日期,lat,lon,BlastGRU-TW
466881,新北,2023-02-22,24.9593,121.52,0.006342178
466900,淡水,2023-02-22,25.164889,121.448906,0.0032626605
466920,臺北,2023-02-22,25.037658,121.514853,0.00705735
467441,高雄,2023-02-22,22.7304,120.3125,0.37265146
467480,嘉義,2023-02-22,23.495925,120.432906,0.0010740075
467490,臺中,2023-02-22,24.145736,120.684075,0.0007331549
C0A530,坪林,2023-02-22,24.938183,121.70975,0.0041393014
C0A540,四堵,2023-02-22,24.8926,121.745736,0.0038523106
C0A550,泰平,2023-02-22,24.971197,121.823711,0.0060803746
C0A890,雙溪,2023-02-22,25.036003,121.864242,0.008790972
C0A920,富貴角,2023-02-22,25.263783,121.565258,0.0024275791
C0A931,三和,2023-02-22,25.233153,121.595236,0.0027515693
C0AC70,信義,2023-02-22,25.037822,121.564597,0.00705735
C0AC80,文山,2023-02-22,25.00235,121.575728,0.005456591
C0ACA0,新莊,2023-02-22,25.051478,121.446756,0.004326688
C0AH50,林口,2023-02-22,25.072181,121.38084,0.0022138269
C0AH70,松山,2023-02-22,25.04871,121.55042,0.00705735
C0AH80,深坑,2023-02-22,25.002703,121.628328,0.005456591
C0AJ60,六塊厝,2023-02-22,25.24,121.4481,0.0033896463
C0AJ70,田寮,2023-02-22,25.2698,121.4886,0.0026348475
