站號,站名,日期,lat,lon,BlastGRU-TW
466881,新北,2023-06-08,24.9593,121.52,0.07590621
466900,淡水,2023-06-08,25.164889,121.448906,0.09264078
466920,臺北,2023-06-08,25.037658,121.514853,0.07135724
467441,高雄,2023-06-08,22.7304,120.3125,0.30821612
467480,嘉義,2023-06-08,23.495925,120.432906,0.9990949
467490,臺中,2023-06-08,24.145736,120.684075,0.9987272
C0A540,四堵,2023-06-08,24.8926,121.745736,0.13174132
C0A550,泰平,2023-06-08,24.971197,121.823711,0.7020272
C0A560,福山,2023-06-08,24.776203,121.502811,0.29173145
C0A931,三和,2023-06-08,25.233153,121.595236,0.5703544
C0A940,金山,2023-06-08,25.223628,121.643967,0.11835771
C0A950,鼻頭角,2023-06-08,25.129036,121.923372,0.07581606
C0AD10,八里,2023-06-08,25.150211,121.403947,0.09264078
C0AD30,蘆洲,2023-06-08,25.086594,121.472331,0.08229966
C0AD40,土城,2023-06-08,24.973208,121.445169,0.08450429
C0AI10,屈尺,2023-06-08,24.92184,121.54475,0.084402725
C0AI20,白沙灣,2023-06-08,25.283128,121.519058,0.10934993
C0AI30,三重,2023-06-08,25.057328,121.500629,0.08229966
C0B010,七堵,2023-06-08,25.094819,121.71713,0.07556146
C0B020,基隆嶼,2023-06-08,25.19141,121.78391,0.07000789
