站號,站名,日期,lat,lon,BlastGRU-TW
12J990,口湖工作站,2023-10-19,23.589978,120.180394,0.64195627
12Q970,東港工作站,2023-10-19,22.479997,120.466058,0.25015342
12Q980,恆春工作站,2023-10-19,22.079678,120.714425,0.9827973
466881,新北,2023-10-19,24.9593,121.52,0.6914987
466900,淡水,2023-10-19,25.164889,121.448906,0.24469121
466920,臺北,2023-10-19,25.037658,121.514853,0.64503646
466940,基隆,2023-10-19,25.133314,121.740475,0.17690468
466990,花蓮,2023-10-19,23.975128,121.613275,0.6759877
467050,新屋,2023-10-19,25.006744,121.047486,0.026488265
467080,宜蘭,2023-10-19,24.763975,121.756528,0.025721496
467270,田中,2023-10-19,23.873803,120.581286,0.98795843
467300,東吉島,2023-10-19,23.25695,119.667467,0.968597
467350,澎湖,2023-10-19,23.565503,119.563094,0.9658008
467410,臺南,2023-10-19,22.993239,120.204772,0.21185265
467420,永康,2023-10-19,23.038386,120.2367,0.16284385
467441,高雄,2023-10-19,22.7304,120.3125,0.123155475
467480,嘉義,2023-10-19,23.495925,120.432906,0.8197798
467490,臺中,2023-10-19,24.145736,120.684075,0.9591965
467540,大武,2023-10-19,22.355675,120.903789,0.95720416
467571,新竹,2023-10-19,24.827853,121.014219,0.09977627
467590,恆春,2023-10-19,22.003897,120.746339,0.9843638
467610,成功,2023-10-19,23.097486,121.373428,0.9133605
467620,蘭嶼,2023-10-19,22.036969,121.558339,0.9952783
467660,臺東,2023-10-19,22.752211,121.154586,0.9769683
467790,墾丁雷達站,2023-10-19,21.948235,120.808028,0.9857266
72AI40,桃改樹林分場,2023-10-19,24.944503,121.386972,0.53966475
72C440,桃園農改,2023-10-19,24.950944,121.030583,0.03852569
72C440,桃園農改場,2023-10-19,24.950944,121.030583,0.03852569
72D680,桃改新埔分場,2023-10-19,24.834444,121.066111,0.14523777
72G600,臺中農改,2023-10-19,24.003028,120.534389,0.9598485
72G600,臺中農改場,2023-10-19,24.003028,120.534389,0.9598485
72K220,南改斗南分場,2023-10-19,23.634556,120.477333,0.99117935
72M360,南改義竹分場,2023-10-19,23.360694,120.279361,0.6499265
72M700,南改鹿草分場,2023-10-19,23.416869,120.283061,0.6545157
72N100,臺南農改,2023-10-19,23.0605,120.342194,0.4487508
72N100,臺南農改場,2023-10-19,23.0605,120.342194,0.4487508
72N240,七股研究中心,2023-10-19,23.081672,120.062894,0.4435779
72Q010,高雄農改,2023-10-19,22.709333,120.525889,0.5329825
72Q010,高雄農改場,2023-10-19,22.709333,120.525889,0.5329825
72S200,東改班鳩分場,2023-10-19,22.829528,121.077694,0.97188365
72S590,東改賓朗果園,2023-10-19,22.813889,121.071278,0.97103494
72T250,花蓮農改,2023-10-19,23.975222,121.563889,0.52024
72T250,花蓮農改場,2023-10-19,23.975222,121.563889,0.52024
72U480,花改蘭陽分場,2023-10-19,24.686306,121.716583,0.014534439
72V140,高改旗南分場,2023-10-19,22.857861,120.516667,0.7891949
82A750,茶改北部分場,2023-10-19,24.955778,121.631222,0.0019264165
82C160,茶改場,2023-10-19,24.908472,121.185333,0.54024196
82H840,茶改南部分場,2023-10-19,23.762528,120.7405,0.919073
82S580,茶改東部分場,2023-10-19,22.907694,121.130139,0.8349497
A2C560,農工中心,2023-10-19,24.985917,121.239833,0.18709241
A2K360,水試臺西試驗場,2023-10-19,23.717231,120.190522,0.8205871
A2K570,古坑花卉中心,2023-10-19,23.63353,120.55239,0.98775107
A2K630,臺大雲林校區,2023-10-19,23.730628,120.423903,0.9901692
A2N290,臺南蘭花園區,2023-10-19,23.340258,120.379661,0.74606806
B2E890,畜試北區分所,2023-10-19,24.527806,120.770972,0.96235704
B2N890,畜產試驗所,2023-10-19,23.058972,120.336406,0.4487508
B2N890,畜試所,2023-10-19,23.058972,120.336406,0.4487508
B2Q810,畜試南區分所,2023-10-19,21.945583,120.802167,0.9838629
B2U990,畜試東區分所,2023-10-19,24.669039,121.832561,0.01614057
C0A520,山佳,2023-10-19,24.974944,121.402008,0.53966475
C0A530,坪林,2023-10-19,24.938183,121.70975,0.01926233
C0A540,四堵,2023-10-19,24.8926,121.745736,0.056498412
C0A550,泰平,2023-10-19,24.971197,121.823711,0.0020823097
C0A560,福山,2023-10-19,24.776203,121.502811,0.0015593406
C0A570,桶後,2023-10-19,24.848222,121.597992,0.06250042
C0A640,石碇,2023-10-19,24.993969,121.662917,0.018673824
C0A650,火燒寮,2023-10-19,25.002719,121.742892,0.01354521
C0A660,瑞芳,2023-10-19,25.113169,121.801147,0.023847729
C0A770,科教館,2023-10-19,25.096356,121.516507,0.47622848
C0A860,大坪,2023-10-19,25.165914,121.632969,0.046143305
C0A880,福隆,2023-10-19,25.017842,121.942083,0.027065465
C0A890,雙溪,2023-10-19,25.036003,121.864242,0.34555885
C0A920,富貴角,2023-10-19,25.263783,121.565258,0.6017567
C0A931,三和,2023-10-19,25.233153,121.595236,0.028798135
C0A940,金山,2023-10-19,25.223628,121.643967,0.39609018
C0A950,鼻頭角,2023-10-19,25.129036,121.923372,0.03750929
C0A970,三貂角,2023-10-19,25.007606,122.002058,0.037278026
C0A980,社子,2023-10-19,25.109508,121.469681,0.44586712
C0A9C0,天母,2023-10-19,25.117494,121.537169,0.5776434
C0A9F0,內湖,2023-10-19,25.079422,121.57545,0.68786174
C0AC60,三峽,2023-10-19,24.939025,121.369728,0.70559216
C0AC70,信義,2023-10-19,25.037822,121.564597,0.652684
C0AC80,文山,2023-10-19,25.00235,121.575728,0.7580728
C0ACA0,新莊,2023-10-19,25.051478,121.446756,0.18080662
C0AD00,三芝,2023-10-19,25.258131,121.501917,0.4485582
C0AD10,八里,2023-10-19,25.150211,121.403947,0.21818681
C0AD30,蘆洲,2023-10-19,25.086594,121.472331,0.47622848
C0AD40,土城,2023-10-19,24.973208,121.445169,0.4725641
C0AD50,鶯歌,2023-10-19,24.951533,121.346294,0.4150679
C0AG80,中和,2023-10-19,24.991622,121.491792,0.639482
C0AH00,汐止,2023-10-19,25.066881,121.658778,0.18545176
C0AH10,永和,2023-10-19,25.01125,121.508111,0.61209065
C0AH40,平等,2023-10-19,25.129142,121.577086,0.06466209
C0AH50,林口,2023-10-19,25.072181,121.38084,0.069387905
C0AH70,松山,2023-10-19,25.04871,121.55042,0.652684
C0AH80,深坑,2023-10-19,25.002703,121.628328,0.7742334
C0AI00,五股,2023-10-19,25.07445,121.42728,0.3387938
C0AI10,屈尺,2023-10-19,24.92184,121.54475,0.7776535
C0AI20,白沙灣,2023-10-19,25.283128,121.519058,0.27300578
C0AI30,三重,2023-10-19,25.057328,121.500629,0.46823716
C0AI40,石牌,2023-10-19,25.115597,121.513139,0.5068253
C0AJ20,野柳,2023-10-19,25.20703,121.690021,0.20356748
C0AJ30,淡水觀海,2023-10-19,25.184591,121.408616,0.22236863
C0AJ40,石門,2023-10-19,25.273672,121.601198,0.6100457
C0AJ50,水湳洞,2023-10-19,25.123695,121.862238,0.23403142
C0AJ60,六塊厝,2023-10-19,25.24,121.4481,0.2088588
C0AJ70,田寮,2023-10-19,25.2698,121.4886,0.28147736
C0AJ80,板橋,2023-10-19,25.0107,121.4489,0.48000753
C0AJ90,澳底,2023-10-19,25.0552,121.9253,0.031224083
C0B010,七堵,2023-10-19,25.094819,121.71713,0.2391433
C0B020,基隆嶼,2023-10-19,25.19141,121.78391,0.20275092
C0B040,大武崙,2023-10-19,25.166676,121.706993,0.25184125
C0B050,八斗子,2023-10-19,25.144754,121.79167,0.16855405
C0B060,暖暖,2023-10-19,25.0957,121.7403,0.38943955
C0C460,復興,2023-10-19,24.820208,121.352281,0.052400872
C0C480,桃園,2023-10-19,24.992425,121.323172,0.2072555
C0C490,八德,2023-10-19,24.928708,121.283289,0.2780989
C0C590,觀音,2023-10-19,25.027072,121.153317,0.36715075
C0C620,蘆竹,2023-10-19,25.084275,121.265767,0.24698524
C0C630,大溪,2023-10-19,24.882853,121.265547,0.4610284
C0C650,平鎮,2023-10-19,24.897503,121.214636,0.54024196
C0C660,楊梅,2023-10-19,24.912375,121.143047,0.3925839
C0C670,龍潭,2023-10-19,24.870056,121.221389,0.88004184
C0C680,龜山,2023-10-19,25.02846,121.38656,0.096476465
C0C700,中壢,2023-10-19,24.977661,121.256375,0.26690355
C0C710,大溪永福,2023-10-19,24.892936,121.324975,0.22091366
C0C720,竹圍,2023-10-19,25.112692,121.239824,0.20661417
C0C730,中大臨海站,2023-10-19,24.966126,121.008581,0.027636465
C0C740,觀音工業區,2023-10-19,25.064764,121.114856,0.11206683
C0C750,新興坑尾,2023-10-19,25.0061,121.0971,0.19573848
C0D430,峨眉,2023-10-19,24.6905,121.017189,0.11683775
C0D480,打鐵坑,2023-10-19,24.849664,121.150789,0.9226214
C0D540,橫山,2023-10-19,24.71116,121.11693,0.8055684
C0D560,竹東,2023-10-19,24.767147,121.057881,0.25564644
C0D580,寶山,2023-10-19,24.735006,121.025192,0.66148597
C0D590,新豐,2023-10-19,24.87068,120.97721,0.29799208
C0D650,湖口,2023-10-19,24.904794,121.043628,0.04979665
C0D660,新竹市東區,2023-10-19,24.798681,120.986942,0.116437994
C0D670,海天一線,2023-10-19,24.831986,120.914438,0.12775698
C0D680,香山濕地,2023-10-19,24.783581,120.914988,0.13131514
C0D690,外湖,2023-10-19,24.917735,120.968711,0.038378187
C0D700,關西,2023-10-19,24.7977,121.1732,0.39505354
C0E420,竹南,2023-10-19,24.708978,120.888897,0.14965299
C0E430,南庄,2023-10-19,24.601775,121.000214,0.71814305
C0E520,大湖,2023-10-19,24.41494,120.87087,0.9261294
C0E540,後龍,2023-10-19,24.606489,120.783933,0.9654751
C0E550,明德,2023-10-19,24.583486,120.885411,0.9557775
C0E590,通霄,2023-10-19,24.471892,120.704622,0.95599955
C0E730,頭份,2023-10-19,24.688247,120.912206,0.11857086
C0E740,造橋,2023-10-19,24.637056,120.864778,0.9450649
C0E750,苗栗,2023-10-19,24.564569,120.824575,0.9673983
C0E780,銅鑼,2023-10-19,24.489681,120.790853,0.9559494
C0E791,卓蘭,2023-10-19,24.3126,120.8244,0.9846615
C0E810,西湖,2023-10-19,24.562947,120.7485,0.9685751
C0E820,獅潭,2023-10-19,24.539133,120.920042,0.9652991
C0E830,苑裡,2023-10-19,24.439714,120.653053,0.9520046
C0E850,大河,2023-10-19,24.618069,120.948578,0.9588225
C0E870,高鐵苗栗,2023-10-19,24.60725,120.826094,0.9663282
C0E910,海埔,2023-10-19,24.648767,120.772435,0.95773137
C0E920,通霄漁港,2023-10-19,24.498589,120.673876,0.9524667
C0E930,龍鳳,2023-10-19,24.700034,120.859125,0.9472518
C0F0B0,石岡,2023-10-19,24.276061,120.777644,0.94657415
C0F850,東勢,2023-10-19,24.246428,120.833047,0.9843889
C0F930,大甲,2023-10-19,24.347667,120.640403,0.9530218
C0F970,大坑,2023-10-19,24.173142,120.722289,0.96430737
C0F9A0,中竹林,2023-10-19,24.103556,120.751061,0.9065095
C0F9I0,神岡,2023-10-19,24.272481,120.658314,0.972451
C0F9K0,大安,2023-10-19,24.345061,120.588025,0.94130856
C0F9L0,后里,2023-10-19,24.310436,120.729725,0.97798234
C0F9M0,豐原,2023-10-19,24.254322,120.720692,0.9754182
C0F9N0,大里,2023-10-19,24.092464,120.701378,0.9286363
C0F9O0,潭子,2023-10-19,24.213106,120.703933,0.9674808
C0F9P0,清水,2023-10-19,24.312297,120.562242,0.9297146
C0F9Q0,外埔,2023-10-19,24.347817,120.705686,0.96756005
C0F9R0,龍井,2023-10-19,24.184536,120.528972,0.9356325
C0F9S0,烏日,2023-10-19,24.107058,120.624103,0.95914537
C0F9T0,西屯,2023-10-19,24.179494,120.641275,0.94834757
C0F9U0,南屯,2023-10-19,24.137006,120.637969,0.937221
C0F9X0,大雅(中科園區),2023-10-19,24.21528,120.62445,0.95970947
C0FA10,松柏,2023-10-19,24.429115,120.617482,0.9466647
C0FA20,溫寮,2023-10-19,24.372177,120.583125,0.94413304
C0FA30,梧棲,2023-10-19,24.256003,120.523381,0.94151455
C0FA40,臺中電廠,2023-10-19,24.2146,120.4907,0.9356325
C0FA50,霧峰,2023-10-19,24.0419,120.6995,0.95046973
C0G620,芬園,2023-10-19,24.015678,120.6213,0.97186583
C0G640,鹿港,2023-10-19,24.0753,120.430481,0.9679051
C0G650,員林,2023-10-19,23.946503,120.585597,0.971563
C0G660,溪湖,2023-10-19,23.94835,120.479122,0.9687122
C0G720,溪州,2023-10-19,23.851589,120.499093,0.985971
C0G730,二林,2023-10-19,23.903325,120.376081,0.9668855
C0G740,大城,2023-10-19,23.852487,120.320935,0.8033019
C0G770,福興,2023-10-19,24.041289,120.437669,0.9634838
C0G780,秀水,2023-10-19,24.03405,120.503869,0.96153325
C0G800,埔鹽,2023-10-19,24.000394,120.431683,0.9603747
C0G810,埔心,2023-10-19,23.947633,120.525456,0.96958417
C0G820,田尾,2023-10-19,23.901669,120.509389,0.96975106
C0G830,埤頭,2023-10-19,23.866003,120.452806,0.9868834
C0G840,北斗,2023-10-19,23.877586,120.514222,0.96975106
C0G860,社頭,2023-10-19,23.897647,120.5862,0.9712509
C0G870,芳苑,2023-10-19,23.922303,120.320025,0.8208294
C0G880,二水,2023-10-19,23.810742,120.6173,0.98812175
C0G890,伸港,2023-10-19,24.148933,120.484403,0.9244652
C0G900,線西,2023-10-19,24.143358,120.443536,0.94218814
C0G910,花壇,2023-10-19,24.032076,120.549461,0.9624182
C0G920,永靖,2023-10-19,23.924703,120.547533,0.96814156
C0G940,竹塘,2023-10-19,23.848253,120.386764,0.9890739
C0G950,防潮門,2023-10-19,24.1835,120.4871,0.9326623
C0G960,福寶,2023-10-19,24.0443,120.3814,0.9723055
C0G970,三豐,2023-10-19,23.882,120.2895,0.8208294
C0H890,埔里,2023-10-19,23.972169,120.952425,0.9857199
C0H950,中寮,2023-10-19,23.884447,120.766406,0.9763965
C0H960,草屯,2023-10-19,23.973672,120.68085,0.9840184
C0I110,竹山,2023-10-19,23.761225,120.688156,0.9807883
C0I360,水里,2023-10-19,23.812553,120.849792,0.9769925
C0I380,集集,2023-10-19,23.828206,120.801467,0.980873
C0I410,名間,2023-10-19,23.837053,120.701447,0.9854328
C0I420,國姓,2023-10-19,24.037803,120.855072,0.9323377
C0I460,南投,2023-10-19,23.911469,120.687331,0.9852329
C0K250,崙背,2023-10-19,23.75555,120.318925,0.803225
C0K280,四湖,2023-10-19,23.630414,120.227125,0.7527766
C0K291,宜梧,2023-10-19,23.536281,120.169329,0.6054205
C0K330,虎尾,2023-10-19,23.719183,120.442036,0.99011016
C0K390,土庫,2023-10-19,23.679029,120.395574,0.99032503
C0K400,斗六,2023-10-19,23.720583,120.541127,0.99013704
C0K410,北港,2023-10-19,23.573957,120.292802,0.6257902
C0K420,西螺,2023-10-19,23.800407,120.467394,0.9881912
C0K430,褒忠,2023-10-19,23.690938,120.303634,0.76615554
C0K440,二崙,2023-10-19,23.772797,120.408944,0.98821115
C0K450,大埤,2023-10-19,23.646074,120.431537,0.99079263
C0K460,斗南,2023-10-19,23.678734,120.478359,0.9905763
C0K470,林內,2023-10-19,23.748675,120.609642,0.99007183
C0K480,莿桐,2023-10-19,23.761192,120.502372,0.9877444
C0K500,元長,2023-10-19,23.64981,120.315024,0.7617812
C0K510,水林,2023-10-19,23.572924,120.24597,0.6039682
C0K530,臺西,2023-10-19,23.701547,120.197559,0.8278402
C0K550,蔦松,2023-10-19,23.514319,120.229736,0.5777726
C0K560,棋山,2023-10-19,23.68645,120.603417,0.98976797
C0K580,高鐵雲林,2023-10-19,23.737456,120.417944,0.9901692
C0K590,雲林東勢,2023-10-19,23.674192,120.255721,0.770793
C0K600,箔子寮,2023-10-19,23.6197,120.14,0.76827854
C0M410,馬頭山,2023-10-19,23.324361,120.582017,0.9817781
C0M520,東後寮,2023-10-19,23.369908,120.248065,0.5360416
C0M640,中埔,2023-10-19,23.42538,120.5229,0.98659647
C0M650,朴子,2023-10-19,23.43463,120.23902,0.5480054
C0M660,溪口,2023-10-19,23.604131,120.403569,0.80104214
C0M670,大林,2023-10-19,23.600616,120.45841,0.81875545
C0M680,太保,2023-10-19,23.455062,120.331455,0.61135876
C0M690,水上,2023-10-19,23.419734,120.388909,0.81536126
C0M700,竹崎,2023-10-19,23.526178,120.555508,0.9832781
C0M710,東石,2023-10-19,23.458927,120.15385,0.7308655
C0M720,番路,2023-10-19,23.464657,120.554156,0.9771406
C0M730,嘉義市東區,2023-10-19,23.457673,120.460531,0.8268112
C0M740,六腳,2023-10-19,23.492871,120.290625,0.5965871
C0M750,布袋,2023-10-19,23.380878,120.167789,0.5728288
C0M760,民雄,2023-10-19,23.551754,120.428457,0.80460835
C0M770,嘉義梅山,2023-10-19,23.585398,120.555587,0.9889032
C0M780,鹿草,2023-10-19,23.41134,120.30835,0.6723441
C0M790,新港,2023-10-19,23.553269,120.345728,0.62932
C0M800,茶山,2023-10-19,23.299075,120.664767,0.8224241
C0M880,好美里,2023-10-19,23.3364,120.138,0.58577013
C0N010,鯤鯓國小,2023-10-19,23.1879,120.0889,0.6094778
C0N020,城西,2023-10-19,23.0568,120.0956,0.35320145
C0N030,四草,2023-10-19,23.0235,120.1116,0.24744128
C0N040,蘆竹溝,2023-10-19,23.2344,120.0961,0.47599015
C0N050,蚵寮,2023-10-19,23.301,120.1104,0.5263456
C0O810,曾文,2023-10-19,23.219681,120.497328,0.7873372
C0O830,北寮,2023-10-19,23.079561,120.495008,0.5038467
C0O840,王爺宮,2023-10-19,23.222064,120.40085,0.7864296
C0O860,大內,2023-10-19,23.11885,120.36083,0.7600449
C0O900,善化,2023-10-19,23.112883,120.297219,0.3658055
C0O930,玉井,2023-10-19,23.126042,120.46055,0.7496936
C0O950,安南,2023-10-19,23.076694,120.144861,0.25758463
C0O960,崎頂,2023-10-19,22.959547,120.369317,0.406806
C0O970,虎頭埤,2023-10-19,23.021375,120.347878,0.49273768
C0O980,新市,2023-10-19,23.061614,120.298197,0.35448307
C0O990,媽廟,2023-10-19,22.99175,120.293525,0.26250395
C0R150,三地門,2023-10-19,22.709889,120.639944,0.46025968
C0R160,鹽埔,2023-10-19,22.739558,120.530778,0.5778391
C0R170,屏東,2023-10-19,22.660269,120.494072,0.47998664
C0R190,赤山,2023-10-19,22.592333,120.614306,0.17172417
C0R220,潮州,2023-10-19,22.534361,120.54,0.19716603
C0R240,來義,2023-10-19,22.527306,120.625111,0.40411082
C0R260,春日,2023-10-19,22.370361,120.628306,0.59575516
C0R270,琉球嶼,2023-10-19,22.332244,120.362236,0.75092965
C0R280,檳榔,2023-10-19,22.076078,120.836777,0.9904886
C0R320,車城,2023-10-19,22.0744,120.716247,0.9827973
C0R341,牡丹,2023-10-19,22.130036,120.792639,0.9638297
C0R350,貓鼻頭,2023-10-19,21.921774,120.7358,0.98484856
C0R470,高樹,2023-10-19,22.826389,120.600806,0.35808665
C0R480,長治,2023-10-19,22.693128,120.542622,0.51977116
C0R490,九如,2023-10-19,22.7405,120.490503,0.5623519
C0R520,崁頂,2023-10-19,22.514781,120.506914,0.22464573
C0R540,佳冬,2023-10-19,22.419456,120.552375,0.27990505
C0R550,新埤,2023-10-19,22.467947,120.582894,0.18613781
C0R560,新園,2023-10-19,22.5434,120.461558,0.28715774
C0R570,麟洛,2023-10-19,22.65078,120.52719,0.5174436
C0R580,南州,2023-10-19,22.48591,120.50274,0.20099764
C0R590,里港,2023-10-19,22.77919,120.49459,0.5799947
C0R620,墾雷,2023-10-19,21.900836,120.855269,0.9848797
C0R640,東港,2023-10-19,22.46247,120.44074,0.27206895
C0R650,竹田,2023-10-19,22.58486,120.54344,0.29318175
C0R660,枋寮,2023-10-19,22.367722,120.590647,0.19163373
C0R670,楓港,2023-10-19,22.190131,120.692156,0.4733144
C0R680,佳樂水,2023-10-19,21.993578,120.861633,0.9838629
C0R690,墾丁,2023-10-19,21.966756,120.810269,0.99024916
C0R700,枋山,2023-10-19,22.246844,120.661086,0.49027362
C0R710,龍磐,2023-10-19,21.931672,120.838942,0.98818207
C0R720,旭海,2023-10-19,22.205403,120.887614,0.9903644
C0R730,大坪頂,2023-10-19,22.024633,120.69355,0.98876905
C0R740,獅子,2023-10-19,22.201569,120.70525,0.66650033
C0R760,南仁湖,2023-10-19,22.084681,120.863353,0.99184966
C0R770,保力,2023-10-19,22.071122,120.764111,0.986944
C0R780,滿州,2023-10-19,22.024403,120.839892,0.98529184
C0R790,九棚,2023-10-19,22.14195,120.889281,0.9900694
C0R800,丹路,2023-10-19,22.204481,120.750989,0.88940245
C0R810,內獅,2023-10-19,22.305064,120.642986,0.37227455
C0R830,高士,2023-10-19,22.121825,120.836781,0.99305737
C0R850,林邊,2023-10-19,22.4634,120.5339,0.23341839
C0R860,鼻頭,2023-10-19,22.1043,120.8979,0.9943581
C0R870,興海,2023-10-19,21.9752,120.8439,0.9838629
C0R880,後壁湖,2023-10-19,21.9457,120.7457,0.9821625
C0R890,山海,2023-10-19,21.9878,120.7091,0.9827436
C0R900,竹坑,2023-10-19,22.1385,120.7022,0.5987571
C0R910,下寮,2023-10-19,22.3929,120.5548,0.27990505
C0R920,塭仔,2023-10-19,22.4169,120.5197,0.29712498
C0R930,萬丹,2023-10-19,22.5885,120.4851,0.36253548
C0R940,加祿堂,2023-10-19,22.3363,120.6217,0.37295333
C0S710,鹿野,2023-10-19,22.917711,121.122994,0.785635
C0S730,綠島,2023-10-19,22.6672,121.47533,0.8741486
C0S740,池上,2023-10-19,23.119628,121.209469,0.792364
C0S770,大溪山,2023-10-19,22.478475,120.943325,0.9730457
C0S790,金崙,2023-10-19,22.538122,120.966875,0.9623321
C0S810,東河,2023-10-19,22.972672,121.303986,0.9021805
C0S830,長濱,2023-10-19,23.286817,121.411975,0.83880574
C0S840,南田,2023-10-19,22.279725,120.889208,0.9820596
C0S890,關山,2023-10-19,23.0395,121.175017,0.92458636
C0S900,蘭嶼高中,2023-10-19,22.04909,121.51214,0.14185503
C0S910,蘭嶼燈塔,2023-10-19,22.081197,121.503117,0.7291967
C0S920,金峰嘉蘭,2023-10-19,22.594789,120.960825,0.9455663
C0S930,延平,2023-10-19,22.902581,121.084058,0.80043393
C0S940,石寧山,2023-10-19,23.223772,121.406639,0.90721947
C0S950,七塊厝,2023-10-19,22.954453,121.229922,0.7862868
C0S960,香蘭,2023-10-19,22.587569,120.993375,0.9609009
C0S970,加津林,2023-10-19,22.416211,120.926942,0.9725983
C0S990,山豬窟,2023-10-19,22.318619,120.857372,0.9905039
C0SA00,歷坵,2023-10-19,22.520969,120.89185,0.9552993
C0SA10,檳榔四格山,2023-10-19,22.810031,121.109308,0.98226583
C0SA30,都歷,2023-10-19,23.020333,121.323642,0.9445516
C0SA40,瑞和,2023-10-19,22.974361,121.156697,0.9170853
C0SA60,知本（水試所）,2023-10-19,22.702394,121.082761,0.97211504
C0SA80,土坂,2023-10-19,22.453108,120.887572,0.9517448
C0SA90,達仁林場,2023-10-19,22.264347,120.823972,0.9971183
C0T870,鯉魚潭,2023-10-19,23.935639,121.508944,0.37649855
C0T900,西林,2023-10-19,23.8119,121.441458,0.39508426
C0T960,光復,2023-10-19,23.660694,121.424964,0.5126161
C0T9A0,月眉山,2023-10-19,23.809928,121.539828,0.633866
C0T9D0,和中,2023-10-19,24.26676,121.74103,0.0024673608
C0T9E0,大坑,2023-10-19,23.880628,121.581981,0.62992215
C0T9F0,水璉,2023-10-19,23.797131,121.542514,0.6093656
C0T9I0,豐濱,2023-10-19,23.583897,121.514806,0.6186027
C0T9M0,靜浦,2023-10-19,23.455167,121.495028,0.53238374
C0T9N0,富里,2023-10-19,23.171639,121.249378,0.7164698
C0U600,礁溪,2023-10-19,24.817539,121.765608,0.024650946
C0U650,玉蘭,2023-10-19,24.675286,121.587061,0.0022955604
C0U750,龜山島,2023-10-19,24.841667,121.953133,0.005719756
C0U760,東澳,2023-10-19,24.52196,121.83318,0.0031737434
C0U770,南澳,2023-10-19,24.44935,121.81022,0.003321012
C0U780,五結,2023-10-19,24.68637,121.79794,0.018835861
C0U860,頭城,2023-10-19,24.85323,121.8308,0.035270605
C0U870,大礁溪,2023-10-19,24.791042,121.675047,0.0016512201
C0U880,北關,2023-10-19,24.9072,121.8734,0.80731046
C0U890,三星,2023-10-19,24.66812,121.65302,0.0104139885
C0U900,內城,2023-10-19,24.71813,121.68766,0.014713648
C0U910,冬山,2023-10-19,24.63373,121.7937,0.01614057
C0U940,羅東,2023-10-19,24.68184,121.74934,0.015913043
C0U970,大福,2023-10-19,24.80064,121.81389,0.04757643
C0U990,員山,2023-10-19,24.74435,121.72247,0.020235268
C0UA00,土場,2023-10-19,24.576533,121.495333,0.0014666715
C0UA80,大溪漁港,2023-10-19,24.941801,121.902955,0.023994338
C0UA90,石城,2023-10-19,24.980444,121.951214,0.029410351
C0UB00,淡江大學蘭陽校園,2023-10-19,24.823239,121.730383,0.002027263
C0UB10,蘇澳,2023-10-19,24.5969,121.8571,0.0044171284
C0UB20,壯圍,2023-10-19,24.7359,121.8163,0.026052767
C0V250,甲仙,2023-10-19,23.080106,120.591758,0.9410373
C0V260,月眉,2023-10-19,22.971003,120.539853,0.38682047
C0V310,美濃,2023-10-19,22.898742,120.519153,0.7504636
C0V350,溪埔,2023-10-19,22.738578,120.446797,0.28004888
C0V360,內門,2023-10-19,22.975481,120.466769,0.7684518
C0V370,古亭坑,2023-10-19,22.893178,120.401947,0.71392536
C0V400,阿公店,2023-10-19,22.804194,120.355528,0.38462672
C0V440,鳳山,2023-10-19,22.646653,120.356122,0.3836183
C0V450,鳳森,2023-10-19,22.545064,120.392592,0.29921117
C0V490,新興,2023-10-19,22.627422,120.298803,0.34519258
C0V530,阿蓮,2023-10-19,22.883208,120.327508,0.13350017
C0V610,梓官,2023-10-19,22.760558,120.267211,0.101307504
C0V620,永安,2023-10-19,22.82315,120.236856,0.0823503
C0V630,茄萣,2023-10-19,22.906642,120.182608,0.11907149
C0V640,湖內,2023-10-19,22.887139,120.2445,0.10469745
C0V650,彌陀,2023-10-19,22.783806,120.246361,0.0823503
C0V660,岡山,2023-10-19,22.797078,120.294958,0.08715404
C0V680,仁武,2023-10-19,22.701083,120.347722,0.102115795
C0V690,鼓山,2023-10-19,22.623325,120.275575,0.39431843
C0V700,三民,2023-10-19,22.645017,120.311233,0.34519258
C0V710,苓雅,2023-10-19,22.622742,120.330669,0.32831964
C0V720,林園,2023-10-19,22.507747,120.394511,0.27409768
C0V730,大寮,2023-10-19,22.605614,120.395717,0.24276415
C0V740,旗山,2023-10-19,22.888614,120.483597,0.75776774
C0V750,路竹,2023-10-19,22.854997,120.259439,0.10682066
C0V760,橋頭,2023-10-19,22.757806,120.30575,0.09636574
C0V770,大社,2023-10-19,22.730306,120.346639,0.11945245
C0V790,萬山,2023-10-19,22.905944,120.688056,0.8533007
C0V800,六龜,2023-10-19,22.997889,120.633583,0.39635652
C0V810,左營,2023-10-19,22.67491,120.28491,0.10112399
C0V820,小林,2023-10-19,23.148408,120.63325,0.8561786
C0V840,鳳鼻頭,2023-10-19,22.5083,120.3591,0.24834202
C0V850,蚵仔寮,2023-10-19,22.7256,120.2527,0.13092667
C0V860,南寮,2023-10-19,22.7616,120.2339,0.073046416
C0V870,文安,2023-10-19,22.8025,120.2164,0.10693432
C0V880,興達,2023-10-19,22.8778,120.2127,0.11907149
C0V890,前鎮,2023-10-19,22.5718,120.3117,0.2716072
C0V900,汕尾,2023-10-19,22.4782,120.4151,0.27357492
C0X050,東河,2023-10-19,23.296598,120.385608,0.7503321
C0X060,下營,2023-10-19,23.22695,120.256261,0.5438151
C0X080,佳里,2023-10-19,23.173039,120.145086,0.45719823
C0X100,臺南市北區,2023-10-19,23.010394,120.194228,0.17251496
C0X110,臺南市南區,2023-10-19,22.961189,120.188378,0.18194808
C0X120,麻豆,2023-10-19,23.183289,120.248611,0.43755236
C0X130,官田,2023-10-19,23.193217,120.315422,0.577594
C0X140,西港,2023-10-19,23.125608,120.203108,0.36629304
C0X150,安定,2023-10-19,23.102614,120.227839,0.26899782
C0X160,仁德,2023-10-19,22.968258,120.257689,0.25366476
C0X170,關廟,2023-10-19,22.963017,120.327797,0.35011223
C0X180,山上,2023-10-19,23.0757,120.363253,0.72773343
C0X190,安平,2023-10-19,22.993161,120.152181,0.2255451
C0X200,左鎮,2023-10-19,23.056758,120.408522,0.7288754
C0X210,白河,2023-10-19,23.347466,120.414427,0.7411367
C0X220,學甲,2023-10-19,23.230367,120.182187,0.45324948
C0X230,鹽水,2023-10-19,23.272621,120.247641,0.51106125
C0X240,關子嶺,2023-10-19,23.331169,120.508025,0.875531
C0X250,新營,2023-10-19,23.310689,120.316681,0.5790569
C0X260,後壁,2023-10-19,23.366358,120.362326,0.7577318
C0X280,將軍,2023-10-19,23.214999,120.13577,0.4740947
C0X290,北門,2023-10-19,23.267772,120.125481,0.50916684
C0X300,鹿寮,2023-10-19,23.386047,120.477331,0.9889294
C0X310,七股,2023-10-19,23.147289,120.086253,0.38217378
C0X320,柳營,2023-10-19,23.253328,120.375253,0.75375307
C0Z020,明里,2023-10-19,23.208717,121.262342,0.7497701
C0Z061,玉里,2023-10-19,23.3215,121.339656,0.8538548
C0Z070,舞鶴,2023-10-19,23.46811,121.37407,0.5917061
C0Z080,富源,2023-10-19,23.587642,121.378225,0.5244298
C0Z100,東華,2023-10-19,23.89525,121.549833,0.39847165
C0Z150,吉安光華,2023-10-19,23.930925,121.595153,0.39608106
C0Z160,鳳林,2023-10-19,23.746114,121.453411,0.49454972
C0Z170,卓溪,2023-10-19,23.3443,121.3029,0.8329615
C0Z180,新城,2023-10-19,24.03946,121.60454,0.6869174
C0Z190,富世,2023-10-19,24.14743,121.6297,0.0020114281
C0Z200,萬榮,2023-10-19,23.709219,121.420106,0.45110327
C0Z210,瑞穗,2023-10-19,23.5239,121.39021,0.543937
C0Z230,和平,2023-10-19,24.30717,121.77007,0.0024199674
C0Z270,蕃薯寮,2023-10-19,23.73835,121.540108,0.6752542
C0Z280,德武,2023-10-19,23.47426,121.41071,0.53662306
C0Z300,東里,2023-10-19,23.26853,121.30547,0.8242978
C0Z310,清水斷崖,2023-10-19,24.218294,121.689142,0.0024618206
C0Z330,安通山,2023-10-19,23.290728,121.348528,0.70151746
CAG100,王功漁港,2023-10-19,23.96824,120.32586,0.87329483
CAH030,茶改場竹圍站,2023-10-19,23.860083,120.637528,0.9792681
CAJ050,海口故事園區,2023-10-19,23.57543,120.14121,0.7644697
CAL110,布袋國中,2023-10-19,23.35893,120.18026,0.5514303
CAN130,水試所海水繁養殖中心,2023-10-19,23.120802,120.07968,0.4435779
CAN140,六官養殖協會,2023-10-19,23.22881,120.29962,0.5566838
CAQ030,崎峰國小,2023-10-19,22.42565,120.49521,0.25172076
E2K600,四湖植物園,2023-10-19,23.676986,120.163433,0.8278402
E2P980,林試六龜中心,2023-10-19,22.991703,120.645722,0.41725183
E2S960,林試太麻里2,2023-10-19,22.598014,120.989761,0.9609009
E2S980,林試太麻里1,2023-10-19,22.598922,120.980044,0.96623623
G2AI50,關渡,2023-10-19,25.11575,121.492,0.44586712
G2F820,農業試驗所,2023-10-19,24.031261,120.688133,0.95686823
G2F820,農試所(霧峰),2023-10-19,24.031261,120.688133,0.95686823
G2L020,農試嘉義分所,2023-10-19,23.485028,120.473806,0.98885447
G2M350,農試溪口農場,2023-10-19,23.58565,120.408111,0.7937737
G2P820,農試鳳山分所,2023-10-19,22.646611,120.356083,0.3836183
K2E360,苗栗農改,2023-10-19,24.495722,120.829111,0.94106746
K2E360,苗栗農改場,2023-10-19,24.495722,120.829111,0.94106746
K2E710,苗改生物防治研究中心,2023-10-19,24.422861,120.871833,0.9777716
K2F750,種苗改良場,2023-10-19,24.225972,120.800917,0.9823939
K2F750,種苗繁殖,2023-10-19,24.225972,120.800917,0.9823939
U2HA50,臺大竹山,2023-10-19,23.756972,120.681556,0.97999847
V2C250,八德合作社,2023-10-19,24.93775,121.266389,0.30306578
V2C260,八德蔬果,2023-10-19,24.978508,121.281819,0.22489303
V2K610,大庄合作社,2023-10-19,23.8068,120.367939,0.8322651
V2K620,麥寮合作社,2023-10-19,23.753836,120.294783,0.79418206
