站號,站名,日期,lat,lon,BLBTSLS
C0R710,龍磐,2023-06-26,21.931672,120.838942,0.03365032
C1F9D1,白毛台,2023-06-26,24.158325,120.886933,3.2420184e-07
C0G940,竹塘,2023-06-26,23.848253,120.386764,3.08084e-05
467590,恆春,2023-06-26,22.003897,120.746339,9.468105e-05
C1O850,環湖,2023-06-26,23.148617,120.418633,0.053547613
C0U710,太平山,2023-06-26,24.505486,121.525656,3.733385e-09
C0E820,獅潭,2023-06-26,24.539133,120.920042,0.9696925
C0V880,興達,2023-06-26,22.8778,120.2127,0.00028226516
C0S890,關山,2023-06-26,23.0395,121.175017,2.3078626e-07
K2F750,種苗繁殖,2023-06-26,24.225972,120.800917,0.22115287
C1Z130,銅門,2023-06-26,23.965694,121.492842,0.025167966
C0AD40,土城,2023-06-26,24.973208,121.445169,0.00057640654
CAN140,六官養殖協會,2023-06-26,23.22881,120.29962,2.6849839e-06
C0X180,山上,2023-06-26,23.0757,120.363253,0.0016431279
C0F9Z0,雪山東峰,2023-06-26,24.388792,121.268675,8.086684e-09
C1M480,獨立山,2023-06-26,23.537022,120.607797,1.7892693e-09
C0X220,學甲,2023-06-26,23.230367,120.182187,8.626998e-06
C0R170,屏東,2023-06-26,22.660269,120.494072,8.6881414e-07
467650,日月潭,2023-06-26,23.881325,120.90805,3.3978271e-09
C0K600,箔子寮,2023-06-26,23.6197,120.14,0.00014697657
C0G830,埤頭,2023-06-26,23.866003,120.452806,0.00012128764
C0S950,七塊厝,2023-06-26,22.954453,121.229922,2.8507236e-08
467110,金門,2023-06-26,24.407306,118.289281,0.101905316
C0AH80,深坑,2023-06-26,25.002703,121.628328,0.000306021
467990,馬祖,2023-06-26,26.169269,119.923419,0.00090654544
C0A970,三貂角,2023-06-26,25.007606,122.002058,0.99564075
C0K430,褒忠,2023-06-26,23.690938,120.303634,1.0329393e-06
467480,嘉義,2023-06-26,23.495925,120.432906,1.6101878e-06
C2E540,後龍,2023-06-26,24.606489,120.783933,0.8266964
C0V400,阿公店,2023-06-26,22.804194,120.355528,2.8624505e-05
C0R440,大漢山,2023-06-26,22.405264,120.753181,3.1556242e-09
C0K280,四湖,2023-06-26,23.630414,120.227125,1.901303e-05
C1F9B1,桐林,2023-06-26,24.066172,120.735194,0.63063294
C0K390,土庫,2023-06-26,23.679029,120.395574,2.6544192e-06
C1I450,望鄉山,2023-06-26,23.594153,120.944286,4.5872746e-09
C0E910,海埔,2023-06-26,24.648767,120.772435,0.8391975
B2E890,畜試北區分所,2023-06-26,24.527806,120.770972,0.9636191
C0R750,四林格山,2023-06-26,22.076989,120.802439,8.554463e-09
C0F0C0,中坑,2023-06-26,24.248517,120.903319,4.5287236e-09
C1I121,大鞍,2023-06-26,23.678381,120.760017,1.850484e-09
72U480,花改蘭陽分場,2023-06-26,24.686306,121.716583,0.043365095
C0A770,科教館,2023-06-26,25.096356,121.516507,0.0032242264
C0AJ60,六塊厝,2023-06-26,25.24,121.4481,0.0007107232
C0R620,墾雷,2023-06-26,21.900836,120.855269,0.0016424881
467420,永康,2023-06-26,23.038386,120.2367,7.950111e-05
467300,東吉島,2023-06-26,23.25695,119.667467,0.0017725441
C0I410,名間,2023-06-26,23.837053,120.701447,0.003474671
A2C560,農工中心,2023-06-26,24.985917,121.239833,4.1248504e-06
C0V740,旗山,2023-06-26,22.888614,120.483597,8.547707e-06
C0Z061,玉里,2023-06-26,23.3215,121.339656,7.047995e-08
C0S840,南田,2023-06-26,22.279725,120.889208,0.00018265688
C1I470,杉林溪,2023-06-26,23.639517,120.786444,2.0063802e-09
C1X040,東原,2023-06-26,23.291597,120.463822,0.002132139
C0R660,枋寮,2023-06-26,22.367722,120.590647,0.013890918
C1R120,上德文,2023-06-26,22.763272,120.704442,5.5859932e-08
C0K450,大埤,2023-06-26,23.646074,120.431537,0.00047420926
C0UA00,土場,2023-06-26,24.576533,121.495333,0.00377252
467080,宜蘭,2023-06-26,24.763975,121.756528,0.8543091
C0N030,四草,2023-06-26,23.0235,120.1116,0.00018105262
C0V650,彌陀,2023-06-26,22.783806,120.246361,0.00033799265
C0D660,新竹市東區,2023-06-26,24.798681,120.986942,0.0013518531
82S580,茶改東部分場,2023-06-26,22.907694,121.130139,0.0005237947
C0C710,大溪永福,2023-06-26,24.892936,121.324975,0.00016410924
C0FA20,溫寮,2023-06-26,24.372177,120.583125,0.14076371
C0V640,湖內,2023-06-26,22.887139,120.2445,0.0002594507
C0R910,下寮,2023-06-26,22.3929,120.5548,0.013890918
C0Z020,明里,2023-06-26,23.208717,121.262342,2.5795396e-07
C0M770,嘉義梅山,2023-06-26,23.585398,120.555587,3.058212e-05
G2F820,農業試驗所,2023-06-26,24.031261,120.688133,0.19324782
C0C660,楊梅,2023-06-26,24.912375,121.143047,3.2019503e-07
C1E511,新開,2023-06-26,24.347703,120.827019,0.0013545016
G2F820,農試所(霧峰),2023-06-26,24.031261,120.688133,0.19324782
C1I070,和社,2023-06-26,23.591131,120.888861,5.0371057e-07
C2F000,大肚,2023-06-26,24.15295,120.572117,0.8319504
C1S850,豐南,2023-06-26,23.122139,121.262389,2.4559403e-08
C2A920,富貴角,2023-06-26,25.263783,121.565258,3.3349752e-05
CAH030,茶改場竹圍站,2023-06-26,23.860083,120.637528,0.00012430239
C0T960,光復,2023-06-26,23.660694,121.424964,0.00027553173
C0F9M0,豐原,2023-06-26,24.254322,120.720692,0.9728324
C0R720,旭海,2023-06-26,22.205403,120.887614,1.7262738e-06
C0V710,苓雅,2023-06-26,22.622742,120.330669,8.181612e-05
C0C740,觀音工業區,2023-06-26,25.064764,121.114856,0.00012644878
CAC040,拉拉山,2023-06-26,24.699317,121.427133,4.7608943e-09
C0V790,萬山,2023-06-26,22.905944,120.688056,1.0381907e-07
U2HA30,臺大和社,2023-06-26,23.590856,120.888864,5.037096e-07
C0AJ90,澳底,2023-06-26,25.0552,121.9253,0.99794865
C0Z100,東華,2023-06-26,23.89525,121.549833,0.7387815
C0G970,三豐,2023-06-26,23.882,120.2895,6.4556305e-05
V2K610,大庄合作社,2023-06-26,23.8068,120.367939,9.033642e-07
C0V900,汕尾,2023-06-26,22.4782,120.4151,0.0007192855
C1R630,龍泉,2023-06-26,22.66701,120.59091,0.00045109386
C1AC50,關渡,2023-06-26,25.133486,121.469331,0.0011684542
C0F9I0,神岡,2023-06-26,24.272481,120.658314,0.3975792
C0K460,斗南,2023-06-26,23.678734,120.478359,0.0006095823
467410,臺南,2023-06-26,22.993239,120.204772,8.616893e-05
C2O810,曾文,2023-06-26,23.219681,120.497328,0.0018002567
467280,後龍,2023-06-26,24.648563,120.831834,0.70644116
C1F9J1,清水林,2023-06-26,24.071242,120.820419,1.6107126e-08
C2A650,火燒寮,2023-06-26,25.002719,121.742892,0.9924125
466930,竹子湖,2023-06-26,25.162078,121.544547,5.933103e-09
C1I220,樟湖,2023-06-26,23.905333,120.846983,1.7883857e-09
C0I390,仁愛,2023-06-26,24.022122,121.132206,1.7409936e-09
C0Z300,東里,2023-06-26,23.26853,121.30547,9.553538e-07
C0V310,美濃,2023-06-26,22.898742,120.519153,9.412196e-06
C1V590,新發,2023-06-26,23.057019,120.646064,0.0007478006
C0K510,水林,2023-06-26,23.572924,120.24597,0.00016599431
72S590,東改賓朗果園,2023-06-26,22.813889,121.071278,1.00097695e-05
82A750,茶改北部分場,2023-06-26,24.955778,121.631222,2.6102128e-07
C1A750,石碇服務區,2023-06-26,25.00872,121.646242,0.00094488554
C0X300,鹿寮,2023-06-26,23.386047,120.477331,0.00025971505
G2AI50,關渡,2023-06-26,25.11575,121.492,0.0004087223
C0K590,雲林東勢,2023-06-26,23.674192,120.255721,1.2688012e-05
C0A570,桶後,2023-06-26,24.848222,121.597992,0.9673703
C1S800,華源,2023-06-26,22.657883,121.02325,0.0150754955
C0G720,溪州,2023-06-26,23.851589,120.499093,8.943356e-05
C1V160,達卡努瓦,2023-06-26,23.279811,120.705319,7.867059e-09
C2M410,馬頭山,2023-06-26,23.324361,120.582017,0.0001764858
C0V850,蚵仔寮,2023-06-26,22.7256,120.2527,0.0002125452
C0S740,池上,2023-06-26,23.119628,121.209469,1.511873e-06
C1V390,尖山,2023-06-26,22.813153,120.367789,1.2795026e-05
C0AH70,松山,2023-06-26,25.04871,121.55042,0.0029221047
C0N010,鯤鯓國小,2023-06-26,23.1879,120.0889,2.2561406e-05
C0R550,新埤,2023-06-26,22.467947,120.582894,0.00050159387
C0SA60,知本（水試所）,2023-06-26,22.702394,121.082761,0.07860753
C0T9I0,豐濱,2023-06-26,23.583897,121.514806,7.79923e-07
C0UB00,淡江大學蘭陽校園,2023-06-26,24.823239,121.730383,0.33007312
C0T9N0,富里,2023-06-26,23.171639,121.249378,8.683801e-07
U2HA50,臺大竹山,2023-06-26,23.756972,120.681556,0.00026301603
C0V840,鳳鼻頭,2023-06-26,22.5083,120.3591,3.6612437e-05
C0X140,西港,2023-06-26,23.125608,120.203108,1.9721412e-05
72D080,桃改五峰分場,2023-06-26,24.612194,121.157167,8.4648805e-10
C0V530,阿蓮,2023-06-26,22.883208,120.327508,0.0001953768
C1O880,關山,2023-06-26,23.173397,120.594092,7.493491e-07
C0E791,卓蘭,2023-06-26,24.3126,120.8244,0.3661049
C1I030,武界,2023-06-26,23.913225,121.052483,8.36582e-09
C0R520,崁頂,2023-06-26,22.514781,120.506914,0.00030896688
C0R341,牡丹,2023-06-26,22.130036,120.792639,1.6160861e-06
C0R930,萬丹,2023-06-26,22.5885,120.4851,1.7491327e-06
C0S760,紅石,2023-06-26,23.069131,121.126219,1.4185122e-09
C1M610,石磐龍,2023-06-26,23.496606,120.663506,5.727311e-09
C0UA10,鴛鴦湖,2023-06-26,24.590269,121.412228,6.7220736e-09
V2C260,八德蔬果,2023-06-26,24.978508,121.281819,3.176209e-05
C0R800,丹路,2023-06-26,22.204481,120.750989,1.6409615e-05
C0G920,永靖,2023-06-26,23.924703,120.547533,0.0026046096
C1A630,下盆,2023-06-26,24.771003,121.538622,1.4700902e-07
B2N890,畜產試驗所,2023-06-26,23.058972,120.336406,0.00011213087
C0UA30,白嶺,2023-06-26,24.527819,121.519031,4.197934e-09
C1V580,溪南(特生中心),2023-06-26,23.084972,120.788475,3.1693228e-09
C1T970,大農,2023-06-26,23.615233,121.413331,2.0572865e-07
E2S960,林試太麻里2,2023-06-26,22.598014,120.989761,0.27675503
C0R650,竹田,2023-06-26,22.58486,120.54344,0.000119871336
C1H900,清流,2023-06-26,24.080775,120.962997,3.8979246e-09
C1C510,水尾,2023-06-26,24.940081,121.087161,2.820563e-05
C0F9X0,大雅(中科園區),2023-06-26,24.21528,120.62445,0.081048705
C0O970,虎頭埤,2023-06-26,23.021375,120.347878,0.0005888198
C0C730,中大臨海站,2023-06-26,24.966126,121.008581,7.637729e-05
C0X250,新營,2023-06-26,23.310689,120.316681,2.7074157e-06
C0V700,三民,2023-06-26,22.645017,120.311233,0.000100462115
C0U870,大礁溪,2023-06-26,24.791042,121.675047,7.999335e-07
C0E870,高鐵苗栗,2023-06-26,24.60725,120.826094,0.7276953
A2K570,古坑花卉中心,2023-06-26,23.63353,120.55239,0.0010110249
C0M860,新美,2023-06-26,23.338017,120.683169,2.6524066e-08
C1E701,八卦,2023-06-26,24.491756,120.927619,8.821653e-07
C0I420,國姓,2023-06-26,24.037803,120.855072,0.034276385
C0S960,香蘭,2023-06-26,22.587569,120.993375,0.27675503
C0R260,春日,2023-06-26,22.370361,120.628306,0.028912421
72G600,臺中農改場,2023-06-26,24.003028,120.534389,0.032156035
C0Z210,瑞穗,2023-06-26,23.5239,121.39021,1.8278279e-06
C0M820,達邦,2023-06-26,23.453994,120.749517,8.168426e-09
C0V860,南寮,2023-06-26,22.7616,120.2339,0.0002125452
C0G740,大城,2023-06-26,23.852487,120.320935,5.210399e-05
C0R920,塭仔,2023-06-26,22.4169,120.5197,0.012443629
C0R470,高樹,2023-06-26,22.826389,120.600806,3.0157084e-06
C0R680,佳樂水,2023-06-26,21.993578,120.861633,0.00032148496
C1O870,大棟山,2023-06-26,23.31157,120.52226,1.8263491e-09
C0D360,梅花,2023-06-26,24.678347,121.208558,3.802049e-09
C0Z190,富世,2023-06-26,24.14743,121.6297,6.9041505e-07
C0AI10,屈尺,2023-06-26,24.92184,121.54475,0.0015593139
B2U990,畜試東區分所,2023-06-26,24.669039,121.832561,0.68804663
C0R240,來義,2023-06-26,22.527306,120.625111,9.13627e-05
C1R610,西大武山,2023-06-26,22.617719,120.7322,1.328625e-09
C0G900,線西,2023-06-26,24.143358,120.443536,0.011528428
C0M700,竹崎,2023-06-26,23.526178,120.555508,1.6386502e-05
C2E880,三義,2023-06-26,24.405478,120.749819,0.0007657763
C0C720,竹圍,2023-06-26,25.112692,121.239824,0.0004087223
C0F9P0,清水,2023-06-26,24.312297,120.562242,0.034403324
C0Z150,吉安光華,2023-06-26,23.930925,121.595153,0.59222543
C1D640,外坪(五指山),2023-06-26,24.644447,121.090961,1.678586e-08
C0F9O0,潭子,2023-06-26,24.213106,120.703933,0.97528297
72T250,花蓮農改場,2023-06-26,23.975222,121.563889,0.7943051
C0E780,銅鑼,2023-06-26,24.489681,120.790853,0.9192631
C1T950,太安,2023-06-26,23.666719,121.370128,6.2110583e-09
C0E830,苑裡,2023-06-26,24.439714,120.653053,0.35846376
467270,田中,2023-06-26,23.873803,120.581286,0.0016554822
C0SA10,檳榔四格山,2023-06-26,22.810031,121.109308,7.027316e-07
C1T830,布洛灣,2023-06-26,24.17184,121.57127,0.13937102
C0F970,大坑,2023-06-26,24.173142,120.722289,0.5729671
C1U920,思源,2023-06-26,24.393125,121.347214,1.7051588e-09
C0A931,三和,2023-06-26,25.233153,121.595236,5.836513e-05
C0I010,廬山,2023-06-26,24.033311,121.181808,1.2111999e-09
C0R860,鼻頭,2023-06-26,22.1043,120.8979,0.00063627335
C0UB20,壯圍,2023-06-26,24.7359,121.8163,0.026502613
C0R790,九棚,2023-06-26,22.14195,120.889281,1.4204511e-05
C0W110,東莒,2023-06-26,25.9652,119.98069,0.0006996562
C1U930,粉鳥林,2023-06-26,24.497088,121.842479,0.9868965
C1I211,蘆竹湳,2023-06-26,23.934019,120.811994,5.3611325e-07
C0S830,長濱,2023-06-26,23.286817,121.411975,1.7798147e-08
C1F9F1,伯公龍,2023-06-26,24.272392,120.849047,0.0055901688
C0E810,西湖,2023-06-26,24.562947,120.7485,0.9934835
C1I440,新高口,2023-06-26,23.478744,120.878939,2.8236216e-09
C0O840,王爺宮,2023-06-26,23.222064,120.40085,3.0495976e-05
C0T9G0,鳳林山,2023-06-26,23.735269,121.420131,1.0549137e-08
C0X080,佳里,2023-06-26,23.173039,120.145086,2.2590835e-05
C0Z310,清水斷崖,2023-06-26,24.218294,121.689142,2.7033678e-07
C0M680,太保,2023-06-26,23.455062,120.331455,4.723077e-06
C1S820,金峰,2023-06-26,22.590969,120.933236,0.06592326
C0AD10,八里,2023-06-26,25.150211,121.403947,0.00039360733
C2K240,草嶺,2023-06-26,23.59555,120.693461,1.8325778e-09
C1SA70,都蘭,2023-06-26,22.87794,121.226881,0.07078021
C0K440,二崙,2023-06-26,23.772797,120.408944,1.1738645e-05
C1A760,坪林交控,2023-06-26,24.94284,121.713442,0.9973949
C0F9N0,大里,2023-06-26,24.092464,120.701378,0.58665156
C0SA90,達仁林場,2023-06-26,22.264347,120.823972,5.4632068e-08
C1R290,石門山,2023-06-26,22.112611,120.756597,1.3108838e-07
42HA10,萬大發電廠,2023-06-26,23.978875,121.139639,1.9292483e-09
C0R890,山海,2023-06-26,21.9878,120.7091,0.07248209
C0T9A0,月眉山,2023-06-26,23.809928,121.539828,1.69502e-08
C0AC70,信義,2023-06-26,25.037822,121.564597,0.0029221047
C0K560,棋山,2023-06-26,23.68645,120.603417,0.00067595945
C1Z240,中平林道,2023-06-26,23.42115,121.26763,5.8471823e-09
U2H480,溪頭,2023-06-26,23.670306,120.798194,2.627516e-09
C0M880,好美里,2023-06-26,23.3364,120.138,5.3615995e-06
C0T9E0,大坑,2023-06-26,23.880628,121.581981,2.8351565e-07
C0K530,臺西,2023-06-26,23.701547,120.197559,1.1216471e-05
C1E900,國一N128K,2023-06-26,24.560997,120.844186,0.9731693
C0AJ50,水湳洞,2023-06-26,25.123695,121.862238,0.0043970495
C0AI20,白沙灣,2023-06-26,25.283128,121.519058,0.00062908523
C0A860,大坪,2023-06-26,25.165914,121.632969,1.4747761e-06
C1U850,觀音海岸,2023-06-26,24.38319,121.77856,2.7660427e-08
C0U950,鶯子嶺,2023-06-26,24.89754,121.79244,4.574396e-09
C0O900,善化,2023-06-26,23.112883,120.297219,0.00021731287
C0K550,蔦松,2023-06-26,23.514319,120.229736,4.288421e-05
E2P980,林試六龜中心,2023-06-26,22.991703,120.645722,1.3311302e-06
C0E590,通霄,2023-06-26,24.471892,120.704622,0.95039374
C1I310,西巒,2023-06-26,23.754486,120.883956,7.64119e-09
C0A550,泰平,2023-06-26,24.971197,121.823711,7.8814253e-07
C0I360,水里,2023-06-26,23.812553,120.849792,0.0027053747
C0R830,高士,2023-06-26,22.121825,120.836781,4.4475236e-08
C1I101,溪頭,2023-06-26,23.661789,120.807647,2.891045e-09
C0AJ20,野柳,2023-06-26,25.20703,121.690021,0.0039532585
C0B060,暖暖,2023-06-26,25.0957,121.7403,0.0023620564
C1H920,長豐,2023-06-26,24.102039,120.879897,3.2786794e-08
C0V360,內門,2023-06-26,22.975481,120.466769,3.928065e-05
C0R850,林邊,2023-06-26,22.4634,120.5339,0.00065923814
C0E930,龍鳳,2023-06-26,24.700034,120.859125,0.0008006549
C0U910,冬山,2023-06-26,24.63373,121.7937,0.68804663
C1E721,泰安,2023-06-26,24.489017,120.968036,1.0939316e-09
82H320,茶改中部分場,2023-06-26,23.875611,120.913583,1.1588921e-08
C0M750,布袋,2023-06-26,23.380878,120.167789,4.4125823e-06
C1S860,利嘉,2023-06-26,22.809417,121.050528,4.063583e-08
72C440,桃園農改,2023-06-26,24.950944,121.030583,0.00016651045
E2S980,林試太麻里1,2023-06-26,22.598922,120.980044,0.2522926
C0X170,關廟,2023-06-26,22.963017,120.327797,0.00010341198
C0V720,林園,2023-06-26,22.507747,120.394511,3.292761e-05
C1I510,線浸林道,2023-06-26,23.761508,120.832956,1.6298507e-09
C0D690,外湖,2023-06-26,24.917735,120.968711,0.0006999509
C0C750,新興坑尾,2023-06-26,25.0061,121.0971,1.4987611e-05
B2Q810,畜試南區分所,2023-06-26,21.945583,120.802167,0.0003937659
C0S790,金崙,2023-06-26,22.538122,120.966875,0.0029727367
C0AH90,福山植物園,2023-06-26,24.760717,121.58135,9.586029e-07
C0I540,奇萊稜線,2023-06-26,24.109231,121.326456,5.503774e-09
C0M850,表湖,2023-06-26,23.24186,120.64166,2.0648024e-06
C0S770,大溪山,2023-06-26,22.478475,120.943325,4.1006993e-07
C0AG80,中和,2023-06-26,24.991622,121.491792,0.00057640654
C0T790,大禹嶺,2023-06-26,24.186117,121.316086,2.5025542e-09
C0T9B0,水源,2023-06-26,23.991861,121.537169,3.8247148e-08
C0R840,牡丹池山,2023-06-26,22.168389,120.841225,6.1580735e-08
C1I131,桶頭,2023-06-26,23.641944,120.654117,1.7116413e-06
CAL110,布袋國中,2023-06-26,23.35893,120.18026,4.4125823e-06
467571,新竹,2023-06-26,24.827853,121.014219,1.4879547e-05
C0Z290,赤柯山,2023-06-26,23.36893,121.38293,1.4931922e-09
C0X280,將軍,2023-06-26,23.214999,120.13577,9.284125e-06
C0S690,太麻里,2023-06-26,22.60902,120.98533,4.9635776e-08
C0U880,北關,2023-06-26,24.9072,121.8734,0.6690809
C1H860,瑞岩,2023-06-26,24.123772,121.18345,1.991454e-09
C0G810,埔心,2023-06-26,23.947633,120.525456,0.0026046096
C0U970,大福,2023-06-26,24.80064,121.81389,0.8198193
C1E670,南礦,2023-06-26,24.538278,121.002836,1.0383245e-09
C0M520,東後寮,2023-06-26,23.369908,120.248065,4.049836e-06
C1E461,松安,2023-06-26,24.397972,120.986022,8.3340107e-10
72G600,臺中農改,2023-06-26,24.003028,120.534389,0.032156035
C2N160,西拉雅風管處,2023-06-26,23.189481,120.335297,5.357843e-05
C0A640,石碇,2023-06-26,24.993969,121.662917,4.349364e-05
E2S960,林試太麻里2,2023-06-26,22.598,120.99775,0.2645052
C0F9Y0,桃山,2023-06-26,24.432739,121.303808,7.46431e-09
C1I020,萬大,2023-06-26,23.979817,121.132261,1.6757892e-09
C0U940,羅東,2023-06-26,24.68184,121.74934,0.03474014
C0M650,朴子,2023-06-26,23.43463,120.23902,3.311456e-06
C1I500,大尖山,2023-06-26,23.858572,120.994889,2.8792302e-09
C0G820,田尾,2023-06-26,23.901669,120.509389,0.0026046096
E2K600,四湖植物園,2023-06-26,23.676986,120.163433,1.901303e-05
C0S730,綠島,2023-06-26,22.6672,121.47533,0.0010262731
12Q970,東港工作站,2023-06-26,22.479997,120.466058,0.0007156006
C0E430,南庄,2023-06-26,24.601775,121.000214,0.9643949
C1TA00,太魯閣,2023-06-26,24.15773,121.6236,2.5621884e-07
466920,臺北,2023-06-26,25.037658,121.514853,0.0029221047
C0R600,舊泰武,2023-06-26,22.588194,120.664944,6.324157e-09
C1I260,北坑,2023-06-26,23.9246,121.006903,1.0324423e-07
466910,鞍部,2023-06-26,25.182586,121.529731,1.9586543e-09
C1I230,九份二山,2023-06-26,23.961944,120.845,8.1346286e-08
C2A660,瑞芳,2023-06-26,25.113169,121.801147,0.0016678895
C0R270,琉球嶼,2023-06-26,22.332244,120.362236,0.07766852
C1T990,高寮,2023-06-26,23.394239,121.356808,1.3210291e-07
C0G620,芬園,2023-06-26,24.015678,120.6213,0.119108915
C1Z140,荖溪,2023-06-26,23.890575,121.45964,2.920129e-09
C1I201,中心崙,2023-06-26,23.728722,120.712097,1.6515946e-08
C1I400,凌霄,2023-06-26,24.018778,121.004456,1.1943909e-09
C1M640,十字,2023-06-26,23.492153,120.753683,2.2837618e-09
G2P820,農試鳳山分所,2023-06-26,22.646611,120.356083,8.0308026e-05
C0Z270,蕃薯寮,2023-06-26,23.73835,121.540108,7.0225583e-06
C0F9Q0,外埔,2023-06-26,24.347817,120.705686,0.2888184
C0K580,高鐵雲林,2023-06-26,23.737456,120.417944,5.223816e-06
C2I090,鳳凰,2023-06-26,23.728081,120.787347,7.998495e-09
C0U990,員山,2023-06-26,24.74435,121.72247,0.031894423
C0V770,大社,2023-06-26,22.730306,120.346639,0.00020755948
C0X120,麻豆,2023-06-26,23.183289,120.248611,6.9397247e-06
C0C670,龍潭,2023-06-26,24.870056,121.221389,4.0462317e-07
C0D680,香山濕地,2023-06-26,24.783581,120.914988,0.02625721
C0S980,勝林山,2023-06-26,22.430439,120.8938,6.9687776e-09
C0V730,大寮,2023-06-26,22.605614,120.395717,7.376474e-05
C0R570,麟洛,2023-06-26,22.65078,120.52719,8.684033e-07
CAG100,王功漁港,2023-06-26,23.96824,120.32586,0.00016898273
C0X290,北門,2023-06-26,23.267772,120.125481,9.284125e-06
C2F930,大甲,2023-06-26,24.347667,120.640403,0.01561745
C0D650,湖口,2023-06-26,24.904794,121.043628,4.2505482e-05
C0E420,竹南,2023-06-26,24.708978,120.888897,0.00011848682
C0U780,五結,2023-06-26,24.68637,121.79794,0.026502613
C1I250,鯉潭,2023-06-26,23.961922,120.991131,9.221958e-06
C0R130,阿禮,2023-06-26,22.742908,120.743678,9.378195e-09
C0X100,臺南市北區,2023-06-26,23.010394,120.194228,0.00013554741
C0S920,金峰嘉蘭,2023-06-26,22.594789,120.960825,0.2451625
C0V490,新興,2023-06-26,22.627422,120.298803,8.1935585e-05
C0F9K0,大安,2023-06-26,24.345061,120.588025,0.106553495
72N100,臺南農改,2023-06-26,23.0605,120.342194,0.0001119737
467290,古坑,2023-06-26,23.633639,120.551889,0.0010110249
C0V440,鳳山,2023-06-26,22.646653,120.356122,8.0308026e-05
C1T940,大觀,2023-06-26,23.714206,121.373133,2.968493e-08
72T250,花蓮農改,2023-06-26,23.975222,121.563889,0.7943051
C0E740,造橋,2023-06-26,24.637056,120.864778,0.7276953
C0R100,尾寮山,2023-06-26,22.833111,120.683889,1.2844782e-08
A2K630,臺大雲林校區,2023-06-26,23.730628,120.423903,5.223816e-06
C0D580,寶山,2023-06-26,24.735006,121.025192,1.5429807e-05
E2P990,林試扇平站,2023-06-26,22.9677,120.6857,0.6434446
C0AI30,三重,2023-06-26,25.057328,121.500629,0.0032242264
C0AH00,汐止,2023-06-26,25.066881,121.658778,0.0029221047
C1Z040,立山,2023-06-26,23.443356,121.327375,1.303075e-07
C0R740,獅子,2023-06-26,22.201569,120.70525,0.00012970452
C0W130,花嶼,2023-06-26,23.40007,119.32276,0.014593533
C0A950,鼻頭角,2023-06-26,25.129036,121.923372,0.9997005
C0K470,林內,2023-06-26,23.748675,120.609642,0.0021191582
82C160,茶改場,2023-06-26,24.908472,121.185333,1.04755145e-07
C0Z320,清水林道,2023-06-26,23.27125,121.188272,3.1799434e-09
C0R760,南仁湖,2023-06-26,22.084681,120.863353,1.3108838e-07
C0M670,大林,2023-06-26,23.600616,120.45841,7.5333546e-06
C0M800,茶山,2023-06-26,23.299075,120.664767,3.5588783e-07
C0A9C0,天母,2023-06-26,25.117494,121.537169,0.0015481949
72K220,南改斗南分場,2023-06-26,23.634556,120.477333,0.0006095823
72AI40,桃改樹林分場,2023-06-26,24.944503,121.386972,0.00029753492
C0S910,蘭嶼燈塔,2023-06-26,22.081197,121.503117,3.0918153e-07
C0B050,八斗子,2023-06-26,25.144754,121.79167,0.0049066134
C0U900,內城,2023-06-26,24.71813,121.68766,0.05993532
C0X320,柳營,2023-06-26,23.253328,120.375253,0.0015071199
C0M790,新港,2023-06-26,23.553269,120.345728,2.3571397e-06
C0F9T0,西屯,2023-06-26,24.179494,120.641275,0.024357213
C0SA30,都歷,2023-06-26,23.020333,121.323642,2.098764e-05
C0C620,蘆竹,2023-06-26,25.084275,121.265767,0.00018456903
C0R730,大坪頂,2023-06-26,22.024633,120.69355,0.00016963658
C0AJ40,石門,2023-06-26,25.273672,121.601198,0.00010042802
C0E750,苗栗,2023-06-26,24.564569,120.824575,0.97382253
C0T870,鯉魚潭,2023-06-26,23.935639,121.508944,0.102541104
C1V170,排雲,2023-06-26,23.463619,120.954147,6.8313044e-09
C2H950,中寮,2023-06-26,23.884447,120.766406,0.0019482659
C0R350,貓鼻頭,2023-06-26,21.921774,120.7358,0.5983191
C0V660,岡山,2023-06-26,22.797078,120.294958,0.00033799265
C1H941,雙冬,2023-06-26,23.967378,120.802189,6.196436e-08
C0AJ70,田寮,2023-06-26,25.2698,121.4886,0.0006768187
C0AI00,五股,2023-06-26,25.07445,121.42728,1.5666063e-05
C0Z280,德武,2023-06-26,23.47426,121.41071,8.92772e-08
C0R700,枋山,2023-06-26,22.246844,120.661086,0.04300977
C0C460,復興,2023-06-26,24.820208,121.352281,5.2657526e-08
E2H360,蓮華池,2023-06-26,23.918333,120.885278,1.2445506e-08
C0M640,中埔,2023-06-26,23.42538,120.5229,0.0001100753
C0W140,金沙,2023-06-26,24.488292,118.408778,0.33485842
C2A540,四堵,2023-06-26,24.8926,121.745736,0.99817026
C0ACA0,新莊,2023-06-26,25.051478,121.446756,0.0008510148
C0R220,潮州,2023-06-26,22.534361,120.54,0.00030028578
U2HA40,臺大內茅埔,2023-06-26,23.689722,120.851117,0.006201783
467490,臺中,2023-06-26,24.145736,120.684075,0.2761854
C0U960,翠峰湖,2023-06-26,24.510856,121.608044,4.5235438e-09
E2HA20,林試畢祿溪站,2023-06-26,24.226944,121.308522,2.4435758e-09
C0V890,前鎮,2023-06-26,22.5718,120.3117,8.220048e-05
467620,蘭嶼,2023-06-26,22.036969,121.558339,1.9077574e-07
C1F941,雪嶺,2023-06-26,24.280586,121.026642,6.499556e-09
C0AC80,文山,2023-06-26,25.00235,121.575728,0.0003052805
C0F9R0,龍井,2023-06-26,24.184536,120.528972,0.030319659
C0M760,民雄,2023-06-26,23.551754,120.428457,8.834216e-06
C0UA40,西德山,2023-06-26,24.560647,121.752608,2.7279456e-09
C1T920,中興,2023-06-26,23.769503,121.498653,0.10350451
C0D550,雪霸,2023-06-26,24.526972,121.11605,1.1204888e-09
C2F860,梨山,2023-06-26,24.247522,121.243669,2.523414e-09
C0R320,車城,2023-06-26,22.0744,120.716247,0.029371185
C1S870,南美山,2023-06-26,23.15025,121.382333,1.0822934e-06
C0B020,基隆嶼,2023-06-26,25.19141,121.78391,0.020846112
C1U501,牛鬥,2023-06-26,24.637836,121.573656,0.045312777
C0M730,嘉義市東區,2023-06-26,23.457673,120.460531,0.0012756486
C0S700,知本,2023-06-26,22.684866,121.005642,2.7189655e-08
C1N001,沙崙,2023-06-26,22.935472,120.309406,0.00014342609
C0V760,橋頭,2023-06-26,22.757806,120.30575,0.00023670499
C0G960,福寶,2023-06-26,24.0443,120.3814,0.020579673
C0X210,白河,2023-06-26,23.347466,120.414427,0.0005844296
C0S810,東河,2023-06-26,22.972672,121.303986,0.00035310065
C0R670,楓港,2023-06-26,22.190131,120.692156,0.0060204538
C0FA50,霧峰,2023-06-26,24.0419,120.6995,0.18109967
C0UB10,蘇澳,2023-06-26,24.5969,121.8571,0.8339189
C0G950,防潮門,2023-06-26,24.1835,120.4871,0.030319678
C0M740,六腳,2023-06-26,23.492871,120.290625,7.0249366e-06
C1R250,力里,2023-06-26,22.428117,120.629228,0.005766091
C0K330,虎尾,2023-06-26,23.719183,120.442036,3.762808e-06
C2FA00,烏石坑,2023-06-26,24.273503,120.947617,7.524016e-09
C0V620,永安,2023-06-26,22.82315,120.236856,0.00033799265
C1I330,楓樹林,2023-06-26,23.986803,121.076117,1.3219844e-09
C0W200,湖西,2023-06-26,23.596314,119.67275,0.011267933
72Q010,高雄農改場,2023-06-26,22.709333,120.525889,3.7497084e-06
C0SA40,瑞和,2023-06-26,22.974361,121.156697,1.8278558e-06
C0C680,龜山,2023-06-26,25.02846,121.38656,2.090365e-06
C2V260,月眉,2023-06-26,22.971003,120.539853,1.3616509e-05
C0V450,鳳森,2023-06-26,22.545064,120.392592,1.27236235e-05
C0U720,南山,2023-06-26,24.43742,121.38167,9.024704e-09
A2N290,臺南蘭花園區,2023-06-26,23.340258,120.379661,7.555313e-06
C0R560,新園,2023-06-26,22.5434,120.461558,3.292761e-05
C0U890,三星,2023-06-26,24.66812,121.65302,0.4048449
C1V300,御油山,2023-06-26,23.001983,120.715364,2.5979796e-09
C0U600,礁溪,2023-06-26,24.817539,121.765608,0.85182905
C1T980,龍澗,2023-06-26,24.023289,121.411328,3.5976e-09
C0D670,海天一線,2023-06-26,24.831986,120.914438,0.00017276255
C0SA00,歷坵,2023-06-26,22.520969,120.89185,4.2825988e-07
C0M710,東石,2023-06-26,23.458927,120.15385,0.00016526245
C0M780,鹿草,2023-06-26,23.41134,120.30835,2.3002785e-06
C0U520,雙連埤,2023-06-26,24.753033,121.641303,6.8624075e-07
C0B010,七堵,2023-06-26,25.094819,121.71713,0.0036252388
C0R480,長治,2023-06-26,22.693128,120.542622,5.7796155e-06
C1V830,國三S383K,2023-06-26,22.781967,120.426475,2.437203e-07
12Q980,恆春工作站,2023-06-26,22.079678,120.714425,0.029371185
C1O940,東山服務區,2023-06-26,23.286016,120.398472,0.001122969
C1U840,東澳嶺,2023-06-26,24.5378,121.8485,3.0113547e-08
C1D630,飛鳳山,2023-06-26,24.766464,121.119178,3.5233694e-09
C0S940,石寧山,2023-06-26,23.223772,121.406639,3.6869935e-06
C0K410,北港,2023-06-26,23.573957,120.292802,0.0001303269
C2M620,瑞里,2023-06-26,23.545133,120.675197,3.959633e-09
C2O950,安南,2023-06-26,23.076694,120.144861,0.00013052861
C0F0E0,南湖圈谷,2023-06-26,24.363714,121.444667,1.0789111e-08
467610,成功,2023-06-26,23.097486,121.373428,0.069140345
C0G890,伸港,2023-06-26,24.148933,120.484403,0.011528428
C2E540,龍溪,2023-06-26,24.606489,120.783933,0.8266964
C1V200,梅山,2023-06-26,23.268447,120.823556,1.0923079e-08
C0T9H0,加路蘭山,2023-06-26,23.682947,121.5274,3.6940655e-09
C2O930,玉井,2023-06-26,23.126042,120.46055,0.0016431279
C1F911,新伯公,2023-06-26,24.221361,120.841069,0.5377497
C0R490,九如,2023-06-26,22.7405,120.490503,4.186912e-06
C0X200,左鎮,2023-06-26,23.056758,120.408522,0.0008773801
C1F891,稍來,2023-06-26,24.265689,121.001142,5.2525895e-09
72N240,七股研究中心,2023-06-26,23.081672,120.062894,0.0001609431
C0C700,中壢,2023-06-26,24.977661,121.256375,1.7060196e-05
C0M690,水上,2023-06-26,23.419734,120.388909,4.292357e-06
C0V690,鼓山,2023-06-26,22.623325,120.275575,6.5809276e-05
C0O860,大內,2023-06-26,23.11885,120.36083,0.00014329977
C0Z200,萬榮,2023-06-26,23.709219,121.420106,0.09297584
C0T9D0,和中,2023-06-26,24.26676,121.74103,0.85625255
C1O921,楠西,2023-06-26,23.183511,120.484083,0.03219104
C0AJ30,淡水觀海,2023-06-26,25.184591,121.408616,0.002697364
C0V810,左營,2023-06-26,22.67491,120.28491,0.000100462115
C0UA70,桃源谷,2023-06-26,24.962606,121.888875,5.819792e-08
C0X130,官田,2023-06-26,23.193217,120.315422,6.405628e-05
C1H000,翠峰,2023-06-26,24.109397,121.205211,1.6678555e-09
C0UA90,石城,2023-06-26,24.980444,121.951214,0.978254
C1E681,南勢山,2023-06-26,24.421669,120.923831,2.5080363e-08
C0A9F0,內湖,2023-06-26,25.079422,121.57545,0.0029221047
C0K291,宜梧,2023-06-26,23.536281,120.169329,4.288421e-05
C1K540,口湖,2023-06-26,23.585344,120.180517,0.00014697657
C0R780,滿州,2023-06-26,22.024403,120.839892,5.798993e-05
C0V870,文安,2023-06-26,22.8025,120.2164,0.0003845901
C0U650,玉蘭,2023-06-26,24.675286,121.587061,1.4950632e-07
C0R640,東港,2023-06-26,22.46247,120.44074,0.0007156006
K2E360,苗栗農改,2023-06-26,24.495722,120.829111,0.9578444
C0AJ80,板橋,2023-06-26,25.0107,121.4489,0.00062307704
C0S660,下馬,2023-06-26,23.150427,121.070312,6.9782478e-09
C1H9B1,阿眉,2023-06-26,24.1263,120.994672,2.839359e-09
C0UA20,多加屯,2023-06-26,24.368614,121.373189,2.616384e-09
C0E730,頭份,2023-06-26,24.688247,120.912206,0.0002410167
72V140,高改旗南分場,2023-06-26,22.857861,120.516667,9.412196e-06
C0K480,莿桐,2023-06-26,23.761192,120.502372,0.00021108947
C0U980,坪林石牌,2023-06-26,24.86478,121.77396,1.4891864e-06
C0T900,西林,2023-06-26,23.8119,121.441458,0.00046691636
C1I150,青雲,2023-06-26,23.793361,120.949378,0.0039534206
467350,澎湖,2023-06-26,23.565503,119.563094,0.046774168
C0G800,埔鹽,2023-06-26,24.000394,120.431683,0.024863057
C0H960,草屯,2023-06-26,23.973672,120.68085,0.123393565
C1V780,多納林道,2023-06-26,22.888028,120.737917,7.686167e-09
C0E920,通霄漁港,2023-06-26,24.498589,120.673876,0.95452684
C0Z330,安通山,2023-06-26,23.290728,121.348528,4.4282222e-09
C0AH10,永和,2023-06-26,25.01125,121.508111,0.00062307704
C2G640,鹿港,2023-06-26,24.0753,120.430481,0.020579673
C1E890,國三N149K,2023-06-26,24.463414,120.680019,0.24013951
C1R110,口社,2023-06-26,22.770111,120.645222,0.00094024977
C1M870,國三N285K,2023-06-26,23.550319,120.505833,0.00012376685
467050,新屋,2023-06-26,25.006744,121.047486,5.0262646e-05
C1E480,鳳美,2023-06-26,24.554803,121.034747,1.5547057e-05
C0M530,奮起湖,2023-06-26,23.493903,120.699253,3.244679e-09
C0C590,觀音,2023-06-26,25.027072,121.153317,3.4041466e-05
C0T9M0,靜浦,2023-06-26,23.455167,121.495028,1.768462e-06
C0AI40,石牌,2023-06-26,25.115597,121.513139,0.0015372313
C1F871,上谷關,2023-06-26,24.203483,121.018644,3.845736e-09
C0G880,二水,2023-06-26,23.810742,120.6173,0.010581981
C0R940,加祿堂,2023-06-26,22.3363,120.6217,0.034952324
C0W220,北竿,2023-06-26,26.220358,119.974881,0.00020354126
C0O960,崎頂,2023-06-26,22.959547,120.369317,1.6180451e-05
C0S750,向陽,2023-06-26,23.248397,120.986133,3.1563947e-09
C0T9F0,水璉,2023-06-26,23.797131,121.542514,2.6833072e-06
C1M600,頭凍,2023-06-26,23.406364,120.603339,1.0702009e-07
467660,臺東,2023-06-26,22.752211,121.154586,0.16320145
C1D380,新埔,2023-06-26,24.84745,121.03834,1.1712171e-06
C0V750,路竹,2023-06-26,22.854997,120.259439,0.0002407698
C0N050,蚵寮,2023-06-26,23.301,120.1104,5.3615945e-06
72M700,南改鹿草分場,2023-06-26,23.416869,120.283061,3.3109004e-06
C1SA50,利嘉林道,2023-06-26,22.82325,121.009389,8.287724e-10
467550,玉山,2023-06-26,23.487614,120.959522,1.0338254e-08
C0A940,金山,2023-06-26,25.223628,121.643967,0.00355298
C1V340,大津,2023-06-26,22.888322,120.645986,3.1272368e-05
C0W180,七美,2023-06-26,23.219333,119.444892,0.00488215
C1F9C1,白冷,2023-06-26,24.182844,120.929889,0.0001726634
K2E710,苗改生物防治研究中心,2023-06-26,24.422861,120.871833,0.85713935
C0N040,蘆竹溝,2023-06-26,23.2344,120.0961,9.284125e-06
C2W230,畜試所澎湖,2023-06-26,23.628342,119.513206,0.2568368
C0R880,後壁湖,2023-06-26,21.9457,120.7457,0.07838978
C1I280,埔中,2023-06-26,23.820778,120.642594,1.20175655e-05
467790,墾丁雷達站,2023-06-26,21.948235,120.808028,0.0001221789
C0W190,望安,2023-06-26,23.380564,119.494075,0.01517333
466881,新北,2023-06-26,24.9593,121.52,0.00046243033
C0Z170,卓溪,2023-06-26,23.3443,121.3029,3.6373653e-08
C0F850,東勢,2023-06-26,24.246428,120.833047,0.9594204
466900,淡水,2023-06-26,25.164889,121.448906,0.00036719834
C0I370,魚池,2023-06-26,23.895703,120.94135,3.0712112e-08
C0C630,大溪,2023-06-26,24.882853,121.265547,1.3486333e-06
C0A520,山佳,2023-06-26,24.974944,121.402008,0.0005365954
C0I110,竹山,2023-06-26,23.761225,120.688156,0.001996979
82H840,茶改南部分場,2023-06-26,23.762528,120.7405,4.413857e-05
C0G660,溪湖,2023-06-26,23.94835,120.479122,0.0034738733
C1T800,洛韶,2023-06-26,24.204558,121.453956,5.7624625e-09
C1T810,慈恩,2023-06-26,24.192044,121.388386,8.0316187e-10
C1E451,象鼻,2023-06-26,24.368617,120.940228,3.6768594e-08
C0AC60,三峽,2023-06-26,24.939025,121.369728,0.00021843691
C0I490,萬大林道,2023-06-26,23.928228,121.091411,1.339932e-09
C1I290,豐丘,2023-06-26,23.668178,120.887417,2.4343787e-09
C1I320,奧萬大,2023-06-26,23.952956,121.178556,1.4510743e-09
C0U770,南澳,2023-06-26,24.44935,121.81022,0.99889123
C0A980,社子,2023-06-26,25.109508,121.469681,0.00045542748
C0V800,六龜,2023-06-26,22.997889,120.633583,2.094947e-06
C1G9D0,國一S218K,2023-06-26,23.890641,120.493253,0.00012145477
C2F9A0,中竹林,2023-06-26,24.103556,120.751061,0.0012717528
C0FA40,臺中電廠,2023-06-26,24.2146,120.4907,0.030319678
C0H9C0,合歡山,2023-06-26,24.143442,121.272547,7.0129396e-09
C0X060,下營,2023-06-26,23.22695,120.256261,2.6849839e-06
G2M350,農試溪口農場,2023-06-26,23.58565,120.408111,1.1766507e-05
C0U860,頭城,2023-06-26,24.85323,121.8308,0.83437735
C0R580,南州,2023-06-26,22.48591,120.50274,0.0007156006
C0D430,峨眉,2023-06-26,24.6905,121.017189,2.0541513e-05
C0G780,秀水,2023-06-26,24.03405,120.503869,0.032156035
72N100,臺南農改場,2023-06-26,23.0605,120.342194,0.0001119737
C0S900,蘭嶼高中,2023-06-26,22.04909,121.51214,2.403589e-06
467540,大武,2023-06-26,22.355675,120.903789,0.0012779539
C1F9W0,德基,2023-06-26,24.254783,121.190261,4.4222297e-09
C1Z120,壽豐,2023-06-26,23.870853,121.508081,0.7387815
C0W160,烏坵,2023-06-26,24.9944,119.44956,0.0369584
C1I240,外大坪,2023-06-26,23.958697,120.917931,3.0502322e-06
C1I550,國六W023K,2023-06-26,23.979067,120.867742,0.00020141494
C0R870,興海,2023-06-26,21.9752,120.8439,0.0003937659
C0R140,瑪家,2023-06-26,22.682903,120.686639,3.51997e-07
C0A530,坪林,2023-06-26,24.938183,121.70975,0.9989218
C0X260,後壁,2023-06-26,23.366358,120.362326,7.555313e-06
C0Z230,和平,2023-06-26,24.30717,121.77007,0.8247685
C0G770,福興,2023-06-26,24.041289,120.437669,0.024863057
C0H9A0,神木村,2023-06-26,23.532742,120.843667,2.2884405e-09
C0I460,南投,2023-06-26,23.911469,120.687331,0.259155
C0I480,梅峰,2023-06-26,24.085272,121.173572,1.9906716e-09
C1V570,吉東,2023-06-26,22.85422,120.5454,6.0157768e-06
C2A560,福山,2023-06-26,24.776203,121.502811,0.95426786
C0AH30,五分山,2023-06-26,25.07125,121.780794,2.554109e-09
C0FA10,松柏,2023-06-26,24.429115,120.617482,0.37925354
72S200,東改班鳩分場,2023-06-26,22.829528,121.077694,0.000108532724
72HA00,中改埔里分場,2023-06-26,23.903208,120.963364,2.7703404e-08
C0C650,平鎮,2023-06-26,24.897503,121.214636,2.790581e-06
C0S930,延平,2023-06-26,22.902581,121.084058,2.590592e-05
C0UA60,樟樹山,2023-06-26,24.41393,121.78325,3.0480596e-05
C1S670,摩天,2023-06-26,23.199503,121.027,1.9171105e-09
C0V630,茄萣,2023-06-26,22.906642,120.182608,0.00028226516
466940,基隆,2023-06-26,25.133314,121.740475,0.0047882544
C0X050,東河,2023-06-26,23.296598,120.385608,0.0016664688
C0R770,保力,2023-06-26,22.071122,120.764111,0.001640761
G2L020,農試嘉義分所,2023-06-26,23.485028,120.473806,0.00013272566
C0X240,關子嶺,2023-06-26,23.331169,120.508025,2.8709678e-06
C0I380,集集,2023-06-26,23.828206,120.801467,0.0026115247
466990,花蓮,2023-06-26,23.975128,121.613275,0.79924613
C1V220,小關山,2023-06-26,23.154217,120.813603,3.1881542e-09
C1F9G1,慶福山,2023-06-26,24.180853,120.848378,2.7752431e-08
C0Z250,瑞穗林道,2023-06-26,23.49284,121.30688,5.8597314e-09
C0D590,新豐,2023-06-26,24.87068,120.97721,6.6755615e-07
C0A870,五指山,2023-06-26,25.132153,121.608692,3.3655705e-09
C0UA50,西帽山,2023-06-26,24.555361,121.802628,8.747427e-09
C0X160,仁德,2023-06-26,22.968258,120.257689,0.00010534144
C1H971,六分寮,2023-06-26,23.92507,120.6378,2.449441e-07
C0W120,西嶼,2023-06-26,23.5626,119.468436,0.14765479
C0G650,員林,2023-06-26,23.946503,120.585597,0.046064142
C0AD50,鶯歌,2023-06-26,24.951533,121.346294,0.00010966806
C0S990,山豬窟,2023-06-26,22.318619,120.857372,8.1269825e-08
72Q010,高雄農改,2023-06-26,22.709333,120.525889,3.7497084e-06
C0X190,安平,2023-06-26,22.993161,120.152181,0.00013554741
C0K400,斗六,2023-06-26,23.720583,120.541127,0.0007091779
12J990,口湖工作站,2023-06-26,23.589978,120.180394,0.00014697657
C0O830,北寮,2023-06-26,23.079561,120.495008,0.00063755416
C1D410,白蘭,2023-06-26,24.579364,121.079947,9.521679e-10
C0S970,加津林,2023-06-26,22.416211,120.926942,0.0009976337
C0D700,關西,2023-06-26,24.7977,121.1732,3.6882562e-07
C0M810,里佳,2023-06-26,23.389125,120.716647,4.83524e-09
C0U750,龜山島,2023-06-26,24.841667,121.953133,0.99448913
C0R810,內獅,2023-06-26,22.305064,120.642986,0.034804195
C1M390,龍美,2023-06-26,23.406728,120.654417,1.4395492e-08
C1H840,國三N238K,2023-06-26,23.841008,120.707711,0.00080246164
CAQ030,崎峰國小,2023-06-26,22.42565,120.49521,0.0007156006
C2E520,大湖,2023-06-26,24.414939,120.870872,0.74178934
467530,阿里山,2023-06-26,23.508208,120.813242,3.944301e-09
C1E691,南湖,2023-06-26,24.40135,120.837533,1.387243e-07
C0FA30,梧棲,2023-06-26,24.256003,120.523381,0.034403324
C1V231,高中,2023-06-26,23.134911,120.716711,2.5014754e-07
C0F9V0,新社,2023-06-26,24.200172,120.815806,0.012823623
C0H890,埔里,2023-06-26,23.972169,120.952425,5.4551806e-06
C0R690,墾丁,2023-06-26,21.966756,120.810269,1.9871507e-07
C0F0D0,審馬陣,2023-06-26,24.381675,121.4203,4.727468e-09
C0R820,白鷺,2023-06-26,22.454275,120.666219,5.412416e-07
U2H480,臺大溪頭,2023-06-26,23.670306,120.798194,2.627516e-09
C1V190,南天池,2023-06-26,23.27403,120.91176,3.0795801e-09
K2E360,苗栗農改場,2023-06-26,24.495722,120.829111,0.9578444
CAJ050,海口故事園區,2023-06-26,23.57543,120.14121,0.00014697657
C0O990,媽廟,2023-06-26,22.99175,120.293525,5.348281e-05
C0D480,打鐵坑,2023-06-26,24.849664,121.150789,3.7936735e-07
C0Z220,和平林道,2023-06-26,24.343922,121.656317,8.392737e-08
72C440,桃園農改場,2023-06-26,24.950944,121.030583,0.00016651045
C1E711,馬拉邦山,2023-06-26,24.367306,120.901656,3.1566433e-08
C0D560,竹東,2023-06-26,24.767147,121.057881,6.6099375e-07
C0F9U0,南屯,2023-06-26,24.137006,120.637969,0.03038559
C0M720,番路,2023-06-26,23.464657,120.554156,1.6918786e-05
C0F0A0,雪山圈谷,2023-06-26,24.388594,121.236339,8.6344585e-09
C1A9N0,四十份,2023-06-26,24.934158,121.593283,8.435925e-08
C0U760,東澳,2023-06-26,24.52196,121.83318,0.99482536
C0X230,鹽水,2023-06-26,23.272621,120.247641,4.679748e-06
C0V370,古亭坑,2023-06-26,22.893178,120.401947,7.3897327e-06
C1I340,新興橋,2023-06-26,23.563333,120.868728,3.2815177e-09
C0SA80,土坂,2023-06-26,22.453108,120.887572,0.0005814604
C0R160,鹽埔,2023-06-26,22.739558,120.530778,3.7497084e-06
C0AC40,大屯山,2023-06-26,25.175675,121.522408,1.2427142e-09
466850,五分山雷達站,2023-06-26,25.071182,121.781205,2.4214493e-09
C1AI50,國三N016K,2023-06-26,25.034164,121.619664,0.0020024395
C1V600,藤枝,2023-06-26,23.071961,120.757042,3.0608878e-09
C1E601,南勢,2023-06-26,24.572486,120.734842,0.9910284
C0Z180,新城,2023-06-26,24.03946,121.60454,0.8009941
C0O980,新市,2023-06-26,23.061614,120.298197,0.00021731287
C0K420,西螺,2023-06-26,23.800407,120.467394,8.528166e-06
C0Z050,佳心,2023-06-26,23.34567,121.21316,1.8018862e-09
C0AD30,蘆洲,2023-06-26,25.086594,121.472331,0.0032298937
C0V610,梓官,2023-06-26,22.760558,120.267211,0.00023670499
K2F750,種苗改良場,2023-06-26,24.225972,120.800917,0.22115287
C0UA80,大溪漁港,2023-06-26,24.941801,121.902955,0.72229934
C1AI60,國一39K邊坡,2023-06-26,25.064361,121.383836,6.1641413e-06
C0W150,金寧,2023-06-26,24.457703,118.328989,0.12586658
V2C250,八德合作社,2023-06-26,24.93775,121.266389,1.48274485e-05
C0AH40,平等,2023-06-26,25.129142,121.577086,2.3847628e-07
C0R540,佳冬,2023-06-26,22.419456,120.552375,0.013890918
466950,彭佳嶼,2023-06-26,25.627975,122.079744,3.06035e-07
C0A890,雙溪,2023-06-26,25.036003,121.864242,0.99902374
C0C480,桃園,2023-06-26,24.992425,121.323172,3.546671e-05
C0AH50,林口,2023-06-26,25.072181,121.38084,9.561669e-07
A2K360,水試臺西試驗場,2023-06-26,23.717231,120.190522,1.313362e-05
B2N890,畜試所,2023-06-26,23.058972,120.336406,0.00011213087
C0F9S0,烏日,2023-06-26,24.107058,120.624103,0.45745844
C0C490,八德,2023-06-26,24.928708,121.283289,1.3384879e-05
C0R190,赤山,2023-06-26,22.592333,120.614306,9.552244e-05
C0T820,天祥,2023-06-26,24.179597,121.495639,0.0012075491
C1F9E1,龍安,2023-06-26,24.1605,120.831961,0.00017310538
C0V820,小林,2023-06-26,23.148408,120.63325,2.8226484e-08
C2G870,芳苑,2023-06-26,23.922303,120.320025,0.00013367305
C0E850,大河,2023-06-26,24.618069,120.948578,0.0087513635
C1U670,寒溪,2023-06-26,24.634,121.71691,0.9887152
C0N020,城西,2023-06-26,23.0568,120.0956,0.00013554741
C1Z110,三棧,2023-06-26,24.11557,121.60501,3.9699086e-07
C0R280,檳榔,2023-06-26,22.076078,120.836777,1.4685028e-06
C0F9L0,后里,2023-06-26,24.310436,120.729725,0.93944865
C0D540,橫山,2023-06-26,24.71116,121.11693,8.01713e-07
C1D420,太閣南,2023-06-26,24.632808,121.160575,4.66436e-09
C1E770,公館,2023-06-26,24.526914,120.830806,0.9636191
CAN130,水試所海水繁養殖中心,2023-06-26,23.120802,120.07968,0.00016035383
C1I430,翠華,2023-06-26,24.191961,121.224339,1.3430793e-09
C1M400,菜瓜坪,2023-06-26,23.251928,120.576103,1.0106149e-06
C0G730,二林,2023-06-26,23.903325,120.376081,0.0045888927
72M360,南改義竹分場,2023-06-26,23.360694,120.279361,4.049836e-06
V2K620,麥寮合作社,2023-06-26,23.753836,120.294783,1.0329393e-06
C0Z070,舞鶴,2023-06-26,23.46811,121.37407,4.141004e-08
C0B040,大武崙,2023-06-26,25.166676,121.706993,0.0038983948
C1Z030,紅葉,2023-06-26,23.493119,121.338806,2.0570707e-07
C1I050,丹大,2023-06-26,23.753747,121.141147,4.221516e-09
C0I080,信義,2023-06-26,23.689694,120.851036,0.006201783
C2A880,福隆,2023-06-26,25.017842,121.942083,0.9704834
C0Z160,鳳林,2023-06-26,23.746114,121.453411,0.25729445
C0V210,復興,2023-06-26,23.222403,120.806089,9.38532e-08
C0H990,昆陽,2023-06-26,24.121322,121.273642,3.690882e-09
C0S710,鹿野,2023-06-26,22.917711,121.122994,4.071263e-08
C0I530,小奇萊,2023-06-26,24.131764,121.295717,4.022533e-09
C0Z080,富源,2023-06-26,23.587642,121.378225,0.00018496171
467441,高雄,2023-06-26,22.7304,120.3125,0.00020755948
C1I140,卡奈托灣,2023-06-26,23.754364,121.087872,2.6661102e-09
C0I520,玉山風口,2023-06-26,23.470489,120.955994,1.3405182e-08
C1G691,下水埔,2023-06-26,23.816114,120.5676,0.00012661346
C0X110,臺南市南區,2023-06-26,22.961189,120.188378,0.00011594345
C0V680,仁武,2023-06-26,22.701083,120.347722,0.000100462115
C2G840,北斗,2023-06-26,23.877586,120.514222,8.943356e-05
C0R900,竹坑,2023-06-26,22.1385,120.7022,0.026411312
C0K250,崙背,2023-06-26,23.75555,120.318925,1.0330693e-06
C0G860,社頭,2023-06-26,23.897647,120.5862,0.0022025493
C0X150,安定,2023-06-26,23.102614,120.227839,1.9741525e-05
C0R590,里港,2023-06-26,22.77919,120.49459,9.665166e-07
C0E610,馬都安,2023-06-26,24.451272,120.930192,7.535997e-08
C0E550,明德,2023-06-26,24.583486,120.885411,0.96923596
C0R150,三地門,2023-06-26,22.709889,120.639944,0.0009972664
C0G910,花壇,2023-06-26,24.032076,120.549461,0.024464041
C1D400,鳥嘴山,2023-06-26,24.71909,121.28387,3.736555e-09
C0K500,元長,2023-06-26,23.64981,120.315024,1.5999085e-05
C0F0B0,石岡,2023-06-26,24.276061,120.777644,0.7833525
C2V250,甲仙,2023-06-26,23.080106,120.591758,2.6803712e-06
C0SA20,金崙山,2023-06-26,22.567419,120.959667,4.09364e-09
C0V350,溪埔,2023-06-26,22.738578,120.446797,2.0644834e-06
C0M660,溪口,2023-06-26,23.604131,120.403569,1.1704864e-05
C1S880,壽卡,2023-06-26,22.238911,120.858903,6.8756215e-08
72D680,桃改新埔分場,2023-06-26,24.834444,121.066111,1.3595388e-06
