站號,站名,日期,lat,lon,BLBTSLS
C0R710,龍磐,2023-10-10,21.931672,120.838942,0.0009908283
C1F9D1,白毛台,2023-10-10,24.158325,120.886933,1.1101157e-06
C0G940,竹塘,2023-10-10,23.848253,120.386764,0.9997624
467590,恆春,2023-10-10,22.003897,120.746339,0.0023268757
C1O850,環湖,2023-10-10,23.148617,120.418633,0.49186036
C0U710,太平山,2023-10-10,24.505486,121.525656,2.997533e-08
C0E820,獅潭,2023-10-10,24.539133,120.920042,0.015577547
C0V880,興達,2023-10-10,22.8778,120.2127,0.66392124
C0S890,關山,2023-10-10,23.0395,121.175017,5.313434e-07
K2F750,種苗繁殖,2023-10-10,24.225972,120.800917,0.0010580604
C1Z130,銅門,2023-10-10,23.965694,121.492842,0.9374615
C0AD40,土城,2023-10-10,24.973208,121.445169,0.97868264
CAN140,六官養殖協會,2023-10-10,23.22881,120.29962,0.9890647
C0X180,山上,2023-10-10,23.0757,120.363253,0.60785264
C0F9Z0,雪山東峰,2023-10-10,24.388792,121.268675,1.770919e-08
C1M480,獨立山,2023-10-10,23.537022,120.607797,6.568577e-08
C0X220,學甲,2023-10-10,23.230367,120.182187,0.9986847
C0R170,屏東,2023-10-10,22.660269,120.494072,0.0068877493
467650,日月潭,2023-10-10,23.881325,120.90805,5.5479457e-09
C0K600,箔子寮,2023-10-10,23.6197,120.14,0.9998811
C0G830,埤頭,2023-10-10,23.866003,120.452806,0.9928199
C0S950,七塊厝,2023-10-10,22.954453,121.229922,4.9731582e-08
467110,金門,2023-10-10,24.407306,118.289281,0.99987537
C0AH80,深坑,2023-10-10,25.002703,121.628328,0.9750357
467990,馬祖,2023-10-10,26.169269,119.923419,0.9889667
C0A970,三貂角,2023-10-10,25.007606,122.002058,0.7851868
C0K430,褒忠,2023-10-10,23.690938,120.303634,0.99966264
467480,嘉義,2023-10-10,23.495925,120.432906,0.97761077
C2E540,後龍,2023-10-10,24.606489,120.783933,0.98679245
C0V400,阿公店,2023-10-10,22.804194,120.355528,0.011604661
C0R440,大漢山,2023-10-10,22.405264,120.753181,1.0106672e-07
C0K280,四湖,2023-10-10,23.630414,120.227125,0.99985576
C1F9B1,桐林,2023-10-10,24.066172,120.735194,0.99536926
C0K390,土庫,2023-10-10,23.679029,120.395574,0.997117
C1I450,望鄉山,2023-10-10,23.594153,120.944286,1.2676432e-08
C0E910,海埔,2023-10-10,24.648767,120.772435,0.98716974
B2E890,畜試北區分所,2023-10-10,24.527806,120.770972,0.06055901
C0R750,四林格山,2023-10-10,22.076989,120.802439,4.781545e-08
C0F0C0,中坑,2023-10-10,24.248517,120.903319,1.0815298e-08
C1I121,大鞍,2023-10-10,23.678381,120.760017,1.5372049e-08
72U480,花改蘭陽分場,2023-10-10,24.686306,121.716583,0.70703375
C0A770,科教館,2023-10-10,25.096356,121.516507,0.14806458
C0AJ60,六塊厝,2023-10-10,25.24,121.4481,0.89635676
C0R620,墾雷,2023-10-10,21.900836,120.855269,0.014695167
467420,永康,2023-10-10,23.038386,120.2367,0.97897977
467300,東吉島,2023-10-10,23.25695,119.667467,0.98011804
C0I410,名間,2023-10-10,23.837053,120.701447,0.70992786
A2C560,農工中心,2023-10-10,24.985917,121.239833,0.9556472
C0V740,旗山,2023-10-10,22.888614,120.483597,0.26202562
C0Z061,玉里,2023-10-10,23.3215,121.339656,0.008804735
C0S840,南田,2023-10-10,22.279725,120.889208,0.0020960902
C1I470,杉林溪,2023-10-10,23.639517,120.786444,9.1710195e-09
C1X040,東原,2023-10-10,23.291597,120.463822,0.75859207
C0R660,枋寮,2023-10-10,22.367722,120.590647,0.044345923
C1R120,上德文,2023-10-10,22.763272,120.704442,0.1686162
C0K450,大埤,2023-10-10,23.646074,120.431537,0.69930196
C0UA00,土場,2023-10-10,24.576533,121.495333,0.97098416
467080,宜蘭,2023-10-10,24.763975,121.756528,0.77134395
C0N030,四草,2023-10-10,23.0235,120.1116,0.24343881
C0V650,彌陀,2023-10-10,22.783806,120.246361,0.03150713
C0D660,新竹市東區,2023-10-10,24.798681,120.986942,0.9814438
82S580,茶改東部分場,2023-10-10,22.907694,121.130139,5.159112e-05
C0C710,大溪永福,2023-10-10,24.892936,121.324975,0.913688
C0FA20,溫寮,2023-10-10,24.372177,120.583125,0.9776977
C0V640,湖內,2023-10-10,22.887139,120.2445,0.6398461
C0R910,下寮,2023-10-10,22.3929,120.5548,0.044345953
C0Z020,明里,2023-10-10,23.208717,121.262342,0.0046942867
C0M770,嘉義梅山,2023-10-10,23.585398,120.555587,0.27698964
G2F820,農業試驗所,2023-10-10,24.031261,120.688133,0.9955164
C0C660,楊梅,2023-10-10,24.912375,121.143047,0.9501632
C1E511,新開,2023-10-10,24.347703,120.827019,0.02841511
G2F820,農試所(霧峰),2023-10-10,24.031261,120.688133,0.9955164
C1I070,和社,2023-10-10,23.591131,120.888861,0.9449163
C2F000,大肚,2023-10-10,24.15295,120.572117,0.9916083
C1S850,豐南,2023-10-10,23.122139,121.262389,8.969297e-08
C2A920,富貴角,2023-10-10,25.263783,121.565258,0.6502895
CAH030,茶改場竹圍站,2023-10-10,23.860083,120.637528,0.945057
C0T960,光復,2023-10-10,23.660694,121.424964,0.764244
C0F9M0,豐原,2023-10-10,24.254322,120.720692,0.0570787
C0R720,旭海,2023-10-10,22.205403,120.887614,0.94656676
C0V710,苓雅,2023-10-10,22.622742,120.330669,0.0059292335
C0C740,觀音工業區,2023-10-10,25.064764,121.114856,0.9919664
CAC040,拉拉山,2023-10-10,24.699317,121.427133,1.242218e-06
C0V790,萬山,2023-10-10,22.905944,120.688056,0.83682615
U2HA30,臺大和社,2023-10-10,23.590856,120.888864,0.9449163
C0AJ90,澳底,2023-10-10,25.0552,121.9253,0.31855142
C0Z100,東華,2023-10-10,23.89525,121.549833,0.831521
C0G970,三豐,2023-10-10,23.882,120.2895,0.99518293
V2K610,大庄合作社,2023-10-10,23.8068,120.367939,0.999751
C0V900,汕尾,2023-10-10,22.4782,120.4151,0.002662024
C1R630,龍泉,2023-10-10,22.66701,120.59091,0.0017884006
C1AC50,關渡,2023-10-10,25.133486,121.469331,0.23045777
C0F9I0,神岡,2023-10-10,24.272481,120.658314,0.9981096
C0K460,斗南,2023-10-10,23.678734,120.478359,0.724586
467410,臺南,2023-10-10,22.993239,120.204772,0.2250495
C2O810,曾文,2023-10-10,23.219681,120.497328,0.3424468
467280,後龍,2023-10-10,24.648563,120.831834,0.9862618
C1F9J1,清水林,2023-10-10,24.071242,120.820419,1.1703966e-08
C2A650,火燒寮,2023-10-10,25.002719,121.742892,0.93967867
466930,竹子湖,2023-10-10,25.162078,121.544547,0.91171527
C1I220,樟湖,2023-10-10,23.905333,120.846983,2.9364324e-09
C0I390,仁愛,2023-10-10,24.022122,121.132206,3.4646744e-06
C0Z300,東里,2023-10-10,23.26853,121.30547,0.0072947694
C0V310,美濃,2023-10-10,22.898742,120.519153,0.25812125
C1V590,新發,2023-10-10,23.057019,120.646064,9.94482e-07
C0K510,水林,2023-10-10,23.572924,120.24597,0.9994717
72S590,東改賓朗果園,2023-10-10,22.813889,121.071278,2.8089724e-05
82A750,茶改北部分場,2023-10-10,24.955778,121.631222,0.99485075
C1A750,石碇服務區,2023-10-10,25.00872,121.646242,0.85709244
C0X300,鹿寮,2023-10-10,23.386047,120.477331,0.79668254
G2AI50,關渡,2023-10-10,25.11575,121.492,0.9746869
C0K590,雲林東勢,2023-10-10,23.674192,120.255721,0.99940723
C0A570,桶後,2023-10-10,24.848222,121.597992,0.8536222
C1S800,華源,2023-10-10,22.657883,121.02325,0.007955343
C0G720,溪州,2023-10-10,23.851589,120.499093,0.99384356
C1V160,達卡努瓦,2023-10-10,23.279811,120.705319,1.6273882e-08
C2M410,馬頭山,2023-10-10,23.324361,120.582017,0.82140213
C0V850,蚵仔寮,2023-10-10,22.7256,120.2527,0.0038690418
C0S740,池上,2023-10-10,23.119628,121.209469,0.0034164898
C1V390,尖山,2023-10-10,22.813153,120.367789,0.011819518
C0AH70,松山,2023-10-10,25.04871,121.55042,0.146475
C0N010,鯤鯓國小,2023-10-10,23.1879,120.0889,0.99820185
C0R550,新埤,2023-10-10,22.467947,120.582894,0.0026359342
C0SA60,知本（水試所）,2023-10-10,22.702394,121.082761,0.013615321
C0T9I0,豐濱,2023-10-10,23.583897,121.514806,0.4018212
C0UB00,淡江大學蘭陽校園,2023-10-10,24.823239,121.730383,0.78124404
C0T9N0,富里,2023-10-10,23.171639,121.249378,0.012558785
U2HA50,臺大竹山,2023-10-10,23.756972,120.681556,0.2566898
C0V840,鳳鼻頭,2023-10-10,22.5083,120.3591,0.006428651
C0X140,西港,2023-10-10,23.125608,120.203108,0.9906884
72D080,桃改五峰分場,2023-10-10,24.612194,121.157167,8.2029004e-07
C0V530,阿蓮,2023-10-10,22.883208,120.327508,0.014721039
C1O880,關山,2023-10-10,23.173397,120.594092,0.598476
C0E791,卓蘭,2023-10-10,24.3126,120.8244,0.030851673
C1I030,武界,2023-10-10,23.913225,121.052483,3.632408e-08
C0R520,崁頂,2023-10-10,22.514781,120.506914,0.0017520882
C0R341,牡丹,2023-10-10,22.130036,120.792639,6.1106275e-06
C0R930,萬丹,2023-10-10,22.5885,120.4851,0.007409071
C0S760,紅石,2023-10-10,23.069131,121.126219,4.3202522e-08
C1M610,石磐龍,2023-10-10,23.496606,120.663506,1.5144346e-07
C0UA10,鴛鴦湖,2023-10-10,24.590269,121.412228,2.46384e-07
V2C260,八德蔬果,2023-10-10,24.978508,121.281819,0.92500734
C0R800,丹路,2023-10-10,22.204481,120.750989,0.76155114
C0G920,永靖,2023-10-10,23.924703,120.547533,0.9902331
C1A630,下盆,2023-10-10,24.771003,121.538622,0.038930297
B2N890,畜產試驗所,2023-10-10,23.058972,120.336406,0.9865611
C0UA30,白嶺,2023-10-10,24.527819,121.519031,7.8028485e-08
C1V580,溪南(特生中心),2023-10-10,23.084972,120.788475,8.847201e-08
C1T970,大農,2023-10-10,23.615233,121.413331,0.37515447
E2S960,林試太麻里2,2023-10-10,22.598014,120.989761,0.27174714
C0R650,竹田,2023-10-10,22.58486,120.54344,0.0015845698
C1H900,清流,2023-10-10,24.080775,120.962997,6.534999e-08
C1C510,水尾,2023-10-10,24.940081,121.087161,0.9824467
C0F9X0,大雅(中科園區),2023-10-10,24.21528,120.62445,0.99982566
C0O970,虎頭埤,2023-10-10,23.021375,120.347878,0.7908056
C0C730,中大臨海站,2023-10-10,24.966126,121.008581,0.99083346
C0X250,新營,2023-10-10,23.310689,120.316681,0.98588634
C0V700,三民,2023-10-10,22.645017,120.311233,0.0014712007
C0U870,大礁溪,2023-10-10,24.791042,121.675047,0.1483228
C0E870,高鐵苗栗,2023-10-10,24.60725,120.826094,0.98660684
A2K570,古坑花卉中心,2023-10-10,23.63353,120.55239,0.14750119
C0M860,新美,2023-10-10,23.338017,120.683169,3.0154703e-07
C1E701,八卦,2023-10-10,24.491756,120.927619,2.4050949e-05
C0I420,國姓,2023-10-10,24.037803,120.855072,0.04032807
C0S960,香蘭,2023-10-10,22.587569,120.993375,0.27174705
C0R260,春日,2023-10-10,22.370361,120.628306,0.152058
72G600,臺中農改場,2023-10-10,24.003028,120.534389,0.9958707
C0Z210,瑞穗,2023-10-10,23.5239,121.39021,0.16281503
C0M820,達邦,2023-10-10,23.453994,120.749517,6.726681e-08
C0V860,南寮,2023-10-10,22.7616,120.2339,0.0038714262
C0G740,大城,2023-10-10,23.852487,120.320935,0.9949898
C0R920,塭仔,2023-10-10,22.4169,120.5197,0.03838187
C0R470,高樹,2023-10-10,22.826389,120.600806,0.023083748
C0R680,佳樂水,2023-10-10,21.993578,120.861633,0.001037873
C1O870,大棟山,2023-10-10,23.31157,120.52226,2.5475213e-09
C0D360,梅花,2023-10-10,24.678347,121.208558,0.79261637
C0Z190,富世,2023-10-10,24.14743,121.6297,0.06659367
C0AI10,屈尺,2023-10-10,24.92184,121.54475,0.9114052
B2U990,畜試東區分所,2023-10-10,24.669039,121.832561,0.24387309
C0R240,來義,2023-10-10,22.527306,120.625111,0.0013114698
C1R610,西大武山,2023-10-10,22.617719,120.7322,1.3824713e-07
C0G900,線西,2023-10-10,24.143358,120.443536,0.9996533
C0M700,竹崎,2023-10-10,23.526178,120.555508,0.55710536
C2E880,三義,2023-10-10,24.405478,120.749819,0.0026697917
C0C720,竹圍,2023-10-10,25.112692,121.239824,0.97471756
C0F9P0,清水,2023-10-10,24.312297,120.562242,0.99773026
C0Z150,吉安光華,2023-10-10,23.930925,121.595153,0.8712853
C1D640,外坪(五指山),2023-10-10,24.644447,121.090961,0.19219574
C0F9O0,潭子,2023-10-10,24.213106,120.703933,0.77043146
72T250,花蓮農改場,2023-10-10,23.975222,121.563889,0.8071401
C0E780,銅鑼,2023-10-10,24.489681,120.790853,0.04772145
C1T950,太安,2023-10-10,23.666719,121.370128,3.2800866e-08
C0E830,苑裡,2023-10-10,24.439714,120.653053,0.9708711
467270,田中,2023-10-10,23.873803,120.581286,0.81017953
C0SA10,檳榔四格山,2023-10-10,22.810031,121.109308,1.36974395e-05
C1T830,布洛灣,2023-10-10,24.17184,121.57127,0.025741234
C0F970,大坑,2023-10-10,24.173142,120.722289,0.99402755
C1U920,思源,2023-10-10,24.393125,121.347214,2.4755803e-08
C0A931,三和,2023-10-10,25.233153,121.595236,0.8376374
C0I010,廬山,2023-10-10,24.033311,121.181808,1.8387585e-08
C0R860,鼻頭,2023-10-10,22.1043,120.8979,0.0012275612
C0UB20,壯圍,2023-10-10,24.7359,121.8163,0.738755
C0R790,九棚,2023-10-10,22.14195,120.889281,3.28808e-05
C0W110,東莒,2023-10-10,25.9652,119.98069,0.9907939
C1U930,粉鳥林,2023-10-10,24.497088,121.842479,0.6026168
C1I211,蘆竹湳,2023-10-10,23.934019,120.811994,1.5065635e-07
C0S830,長濱,2023-10-10,23.286817,121.411975,0.0035225395
C1F9F1,伯公龍,2023-10-10,24.272392,120.849047,0.006559829
C0E810,西湖,2023-10-10,24.562947,120.7485,0.99106544
C1I440,新高口,2023-10-10,23.478744,120.878939,2.6874424e-08
C0O840,王爺宮,2023-10-10,23.222064,120.40085,0.9972157
C0T9G0,鳳林山,2023-10-10,23.735269,121.420131,9.502145e-09
C0X080,佳里,2023-10-10,23.173039,120.145086,0.99820185
C0Z310,清水斷崖,2023-10-10,24.218294,121.689142,4.2478555e-06
C0M680,太保,2023-10-10,23.455062,120.331455,0.9835426
C1S820,金峰,2023-10-10,22.590969,120.933236,0.48152217
C0AD10,八里,2023-10-10,25.150211,121.403947,0.97471756
C2K240,草嶺,2023-10-10,23.59555,120.693461,1.2862256e-07
C1SA70,都蘭,2023-10-10,22.87794,121.226881,0.00024811202
C0K440,二崙,2023-10-10,23.772797,120.408944,0.9961702
C1A760,坪林交控,2023-10-10,24.94284,121.713442,0.87507856
C0F9N0,大里,2023-10-10,24.092464,120.701378,0.9859456
C0SA90,達仁林場,2023-10-10,22.264347,120.823972,0.00030898987
C1R290,石門山,2023-10-10,22.112611,120.756597,6.057481e-07
42HA10,萬大發電廠,2023-10-10,23.978875,121.139639,1.0771592e-08
C0R890,山海,2023-10-10,21.9878,120.7091,2.802871e-06
C0T9A0,月眉山,2023-10-10,23.809928,121.539828,1.3241774e-07
C0AC70,信義,2023-10-10,25.037822,121.564597,0.146475
C0K560,棋山,2023-10-10,23.68645,120.603417,0.16297027
C1Z240,中平林道,2023-10-10,23.42115,121.26763,2.6150929e-08
U2H480,溪頭,2023-10-10,23.670306,120.798194,5.092657e-08
C0M880,好美里,2023-10-10,23.3364,120.138,0.9979844
C0T9E0,大坑,2023-10-10,23.880628,121.581981,0.10253044
C0K530,臺西,2023-10-10,23.701547,120.197559,0.99988025
C1E900,國一N128K,2023-10-10,24.560997,120.844186,0.6701801
C0AJ50,水湳洞,2023-10-10,25.123695,121.862238,0.1856875
C0AI20,白沙灣,2023-10-10,25.283128,121.519058,0.8883533
C0A860,大坪,2023-10-10,25.165914,121.632969,0.9695321
C1U850,觀音海岸,2023-10-10,24.38319,121.77856,2.8926002e-07
C0U950,鶯子嶺,2023-10-10,24.89754,121.79244,0.0926293
C0O900,善化,2023-10-10,23.112883,120.297219,0.9809749
C0K550,蔦松,2023-10-10,23.514319,120.229736,0.99949473
E2P980,林試六龜中心,2023-10-10,22.991703,120.645722,0.9026328
C0E590,通霄,2023-10-10,24.471892,120.704622,0.9143218
C1I310,西巒,2023-10-10,23.754486,120.883956,7.412196e-07
C0A550,泰平,2023-10-10,24.971197,121.823711,0.9978788
C0I360,水里,2023-10-10,23.812553,120.849792,0.9586375
C0R830,高士,2023-10-10,22.121825,120.836781,2.2848332e-07
C1I101,溪頭,2023-10-10,23.661789,120.807647,1.40776395e-08
C0AJ20,野柳,2023-10-10,25.20703,121.690021,0.24293764
C0B060,暖暖,2023-10-10,25.0957,121.7403,0.22700618
C1H920,長豐,2023-10-10,24.102039,120.879897,2.3705688e-06
C0V360,內門,2023-10-10,22.975481,120.466769,0.03015271
C0R850,林邊,2023-10-10,22.4634,120.5339,0.0026282656
C0E930,龍鳳,2023-10-10,24.700034,120.859125,0.99528533
C0U910,冬山,2023-10-10,24.63373,121.7937,0.2438729
C1E721,泰安,2023-10-10,24.489017,120.968036,1.9658826e-08
82H320,茶改中部分場,2023-10-10,23.875611,120.913583,2.2534396e-08
C0M750,布袋,2023-10-10,23.380878,120.167789,0.9947366
C1S860,利嘉,2023-10-10,22.809417,121.050528,0.0007948785
72C440,桃園農改,2023-10-10,24.950944,121.030583,0.983628
E2S980,林試太麻里1,2023-10-10,22.598922,120.980044,0.37421575
C0X170,關廟,2023-10-10,22.963017,120.327797,0.061393037
C0V720,林園,2023-10-10,22.507747,120.394511,0.006300608
C1I510,線浸林道,2023-10-10,23.761508,120.832956,1.9833872e-09
C0D690,外湖,2023-10-10,24.917735,120.968711,0.9845453
C0C750,新興坑尾,2023-10-10,25.0061,121.0971,0.99031574
B2Q810,畜試南區分所,2023-10-10,21.945583,120.802167,0.0010226137
C0S790,金崙,2023-10-10,22.538122,120.966875,0.48875573
C0AH90,福山植物園,2023-10-10,24.760717,121.58135,0.59375185
C0I540,奇萊稜線,2023-10-10,24.109231,121.326456,6.496163e-08
C0M850,表湖,2023-10-10,23.24186,120.64166,2.8234535e-06
C0S770,大溪山,2023-10-10,22.478475,120.943325,0.94340897
C0AG80,中和,2023-10-10,24.991622,121.491792,0.97868264
C0T790,大禹嶺,2023-10-10,24.186117,121.316086,3.647063e-08
C0T9B0,水源,2023-10-10,23.991861,121.537169,0.0068492377
C0R840,牡丹池山,2023-10-10,22.168389,120.841225,3.985746e-08
C1I131,桶頭,2023-10-10,23.641944,120.654117,0.6601272
CAL110,布袋國中,2023-10-10,23.35893,120.18026,0.9947366
467571,新竹,2023-10-10,24.827853,121.014219,0.97772807
C0Z290,赤柯山,2023-10-10,23.36893,121.38293,5.918229e-09
C0X280,將軍,2023-10-10,23.214999,120.13577,0.9985664
C0S690,太麻里,2023-10-10,22.60902,120.98533,0.034515627
C0U880,北關,2023-10-10,24.9072,121.8734,0.7005037
C1H860,瑞岩,2023-10-10,24.123772,121.18345,1.8869537e-08
C0G810,埔心,2023-10-10,23.947633,120.525456,0.99025387
C0U970,大福,2023-10-10,24.80064,121.81389,0.76889074
C1E670,南礦,2023-10-10,24.538278,121.002836,4.2761627e-08
C0M520,東後寮,2023-10-10,23.369908,120.248065,0.99535936
C1E461,松安,2023-10-10,24.397972,120.986022,1.1837823e-07
72G600,臺中農改,2023-10-10,24.003028,120.534389,0.9958707
C2N160,西拉雅風管處,2023-10-10,23.189481,120.335297,0.9836012
C0A640,石碇,2023-10-10,24.993969,121.662917,0.44508976
E2S960,林試太麻里2,2023-10-10,22.598,120.99775,0.26010236
C0F9Y0,桃山,2023-10-10,24.432739,121.303808,2.3020302e-08
C1I020,萬大,2023-10-10,23.979817,121.132261,3.0242625e-06
C0U940,羅東,2023-10-10,24.68184,121.74934,0.7067509
C0M650,朴子,2023-10-10,23.43463,120.23902,0.9944675
C1I500,大尖山,2023-10-10,23.858572,120.994889,6.4004007e-09
C0G820,田尾,2023-10-10,23.901669,120.509389,0.9902331
E2K600,四湖植物園,2023-10-10,23.676986,120.163433,0.9998558
C0S730,綠島,2023-10-10,22.6672,121.47533,0.27080873
12Q970,東港工作站,2023-10-10,22.479997,120.466058,0.0026647954
C0E430,南庄,2023-10-10,24.601775,121.000214,0.013975246
C1TA00,太魯閣,2023-10-10,24.15773,121.6236,0.071293995
466920,臺北,2023-10-10,25.037658,121.514853,0.146475
C0R600,舊泰武,2023-10-10,22.588194,120.664944,1.967028e-06
C1I260,北坑,2023-10-10,23.9246,121.006903,8.545106e-08
466910,鞍部,2023-10-10,25.182586,121.529731,0.9291299
C1I230,九份二山,2023-10-10,23.961944,120.845,4.634786e-07
C2A660,瑞芳,2023-10-10,25.113169,121.801147,0.25042948
C0R270,琉球嶼,2023-10-10,22.332244,120.362236,0.0001151474
C1T990,高寮,2023-10-10,23.394239,121.356808,0.037207916
C0G620,芬園,2023-10-10,24.015678,120.6213,0.99805677
C1Z140,荖溪,2023-10-10,23.890575,121.45964,1.3881821e-08
C1I201,中心崙,2023-10-10,23.728722,120.712097,7.355458e-05
C1I400,凌霄,2023-10-10,24.018778,121.004456,4.595833e-08
C1M640,十字,2023-10-10,23.492153,120.753683,3.56574e-08
G2P820,農試鳳山分所,2023-10-10,22.646611,120.356083,0.0013548692
C0Z270,蕃薯寮,2023-10-10,23.73835,121.540108,2.3837326e-07
C0F9Q0,外埔,2023-10-10,24.347817,120.705686,0.65997046
C0K580,高鐵雲林,2023-10-10,23.737456,120.417944,0.9945117
C2I090,鳳凰,2023-10-10,23.728081,120.787347,1.5498309e-06
C0U990,員山,2023-10-10,24.74435,121.72247,0.7211442
C0V770,大社,2023-10-10,22.730306,120.346639,0.003982185
C0X120,麻豆,2023-10-10,23.183289,120.248611,0.99113876
C0C670,龍潭,2023-10-10,24.870056,121.221389,0.8794848
C0D680,香山濕地,2023-10-10,24.783581,120.914988,0.9832839
C0S980,勝林山,2023-10-10,22.430439,120.8938,0.19745739
C0V730,大寮,2023-10-10,22.605614,120.395717,0.0059992354
C0R570,麟洛,2023-10-10,22.65078,120.52719,0.0068877493
CAG100,王功漁港,2023-10-10,23.96824,120.32586,0.97432756
C0X290,北門,2023-10-10,23.267772,120.125481,0.9985664
C2F930,大甲,2023-10-10,24.347667,120.640403,0.9750975
C0D650,湖口,2023-10-10,24.904794,121.043628,0.98262906
C0E420,竹南,2023-10-10,24.708978,120.888897,0.99481016
C0U780,五結,2023-10-10,24.68637,121.79794,0.738755
C1I250,鯉潭,2023-10-10,23.961922,120.991131,1.2847112e-05
C0R130,阿禮,2023-10-10,22.742908,120.743678,0.004722996
C0X100,臺南市北區,2023-10-10,23.010394,120.194228,0.23721299
C0S920,金峰嘉蘭,2023-10-10,22.594789,120.960825,0.3984625
C0V490,新興,2023-10-10,22.627422,120.298803,0.0059250304
C0F9K0,大安,2023-10-10,24.345061,120.588025,0.977268
72N100,臺南農改,2023-10-10,23.0605,120.342194,0.9865611
467290,古坑,2023-10-10,23.633639,120.551889,0.14750119
C0V440,鳳山,2023-10-10,22.646653,120.356122,0.0013548692
C1T940,大觀,2023-10-10,23.714206,121.373133,1.9243945e-08
72T250,花蓮農改,2023-10-10,23.975222,121.563889,0.8071401
C0E740,造橋,2023-10-10,24.637056,120.864778,0.98660684
C0R100,尾寮山,2023-10-10,22.833111,120.683889,0.10308947
A2K630,臺大雲林校區,2023-10-10,23.730628,120.423903,0.9945117
C0D580,寶山,2023-10-10,24.735006,121.025192,0.21739791
E2P990,林試扇平站,2023-10-10,22.9677,120.6857,0.00035949508
C0AI30,三重,2023-10-10,25.057328,121.500629,0.14806458
C0AH00,汐止,2023-10-10,25.066881,121.658778,0.146475
C1Z040,立山,2023-10-10,23.443356,121.327375,2.7966317e-07
C0R740,獅子,2023-10-10,22.201569,120.70525,0.31028894
C0W130,花嶼,2023-10-10,23.40007,119.32276,0.98647356
C0A950,鼻頭角,2023-10-10,25.129036,121.923372,0.5316985
C0K470,林內,2023-10-10,23.748675,120.609642,0.17180371
82C160,茶改場,2023-10-10,24.908472,121.185333,0.9462834
C0Z320,清水林道,2023-10-10,23.27125,121.188272,2.1420234e-08
C0R760,南仁湖,2023-10-10,22.084681,120.863353,6.057481e-07
C0M670,大林,2023-10-10,23.600616,120.45841,0.94512856
C0M800,茶山,2023-10-10,23.299075,120.664767,0.000273232
C0A9C0,天母,2023-10-10,25.117494,121.537169,0.17389074
72K220,南改斗南分場,2023-10-10,23.634556,120.477333,0.7244149
72AI40,桃改樹林分場,2023-10-10,24.944503,121.386972,0.95435613
C0S910,蘭嶼燈塔,2023-10-10,22.081197,121.503117,0.336809
C0B050,八斗子,2023-10-10,25.144754,121.79167,0.1775085
C0U900,內城,2023-10-10,24.71813,121.68766,0.6878567
C0X320,柳營,2023-10-10,23.253328,120.375253,0.96898633
C0M790,新港,2023-10-10,23.553269,120.345728,0.9980008
C0F9T0,西屯,2023-10-10,24.179494,120.641275,0.99975705
C0SA30,都歷,2023-10-10,23.020333,121.323642,2.0804444e-05
C0C620,蘆竹,2023-10-10,25.084275,121.265767,0.98452634
C0R730,大坪頂,2023-10-10,22.024633,120.69355,1.970273e-07
C0AJ40,石門,2023-10-10,25.273672,121.601198,0.7659652
C0E750,苗栗,2023-10-10,24.564569,120.824575,0.69871455
C0T870,鯉魚潭,2023-10-10,23.935639,121.508944,0.96360874
C1V170,排雲,2023-10-10,23.463619,120.954147,5.991536e-08
C2H950,中寮,2023-10-10,23.884447,120.766406,0.81572306
C0R350,貓鼻頭,2023-10-10,21.921774,120.7358,0.00025336453
C0V660,岡山,2023-10-10,22.797078,120.294958,0.03150713
C1H941,雙冬,2023-10-10,23.967378,120.802189,6.817237e-08
C0AJ70,田寮,2023-10-10,25.2698,121.4886,0.89274025
C0AI00,五股,2023-10-10,25.07445,121.42728,0.90567094
C0Z280,德武,2023-10-10,23.47426,121.41071,0.39263305
C0R700,枋山,2023-10-10,22.246844,120.661086,9.032575e-06
C0C460,復興,2023-10-10,24.820208,121.352281,0.9270734
E2H360,蓮華池,2023-10-10,23.918333,120.885278,2.6061251e-08
C0M640,中埔,2023-10-10,23.42538,120.5229,0.89121497
C0W140,金沙,2023-10-10,24.488292,118.408778,0.9997533
C2A540,四堵,2023-10-10,24.8926,121.745736,0.98724586
C0ACA0,新莊,2023-10-10,25.051478,121.446756,0.7693065
C0R220,潮州,2023-10-10,22.534361,120.54,0.0017083016
U2HA40,臺大內茅埔,2023-10-10,23.689722,120.851117,0.9890797
467490,臺中,2023-10-10,24.145736,120.684075,0.9920588
C0U960,翠峰湖,2023-10-10,24.510856,121.608044,3.6591242e-08
E2HA20,林試畢祿溪站,2023-10-10,24.226944,121.308522,2.5200961e-08
C0V890,前鎮,2023-10-10,22.5718,120.3117,0.005863748
467620,蘭嶼,2023-10-10,22.036969,121.558339,0.28725094
C1F941,雪嶺,2023-10-10,24.280586,121.026642,1.6583149e-08
C0AC80,文山,2023-10-10,25.00235,121.575728,0.9750357
C0F9R0,龍井,2023-10-10,24.184536,120.528972,0.9994477
C0M760,民雄,2023-10-10,23.551754,120.428457,0.9343168
C0UA40,西德山,2023-10-10,24.560647,121.752608,2.847035e-07
C1T920,中興,2023-10-10,23.769503,121.498653,0.089347035
C0D550,雪霸,2023-10-10,24.526972,121.11605,6.2351537e-09
C2F860,梨山,2023-10-10,24.247522,121.243669,2.3467711e-08
C0R320,車城,2023-10-10,22.0744,120.716247,0.0012473798
C1S870,南美山,2023-10-10,23.15025,121.382333,0.014169296
C0B020,基隆嶼,2023-10-10,25.19141,121.78391,0.7819408
C1U501,牛鬥,2023-10-10,24.637836,121.573656,0.7159488
C0M730,嘉義市東區,2023-10-10,23.457673,120.460531,0.61258954
C0S700,知本,2023-10-10,22.684866,121.005642,0.0035973454
C1N001,沙崙,2023-10-10,22.935472,120.309406,0.06487076
C0V760,橋頭,2023-10-10,22.757806,120.30575,0.003945933
C0G960,福寶,2023-10-10,24.0443,120.3814,0.99969476
C0X210,白河,2023-10-10,23.347466,120.414427,0.6630915
C0S810,東河,2023-10-10,22.972672,121.303986,0.006237975
C0R670,楓港,2023-10-10,22.190131,120.692156,8.71978e-05
C0FA50,霧峰,2023-10-10,24.0419,120.6995,0.99621814
C0UB10,蘇澳,2023-10-10,24.5969,121.8571,0.3715831
C0G950,防潮門,2023-10-10,24.1835,120.4871,0.9994477
C0M740,六腳,2023-10-10,23.492871,120.290625,0.99575025
C1R250,力里,2023-10-10,22.428117,120.629228,0.0035533379
C0K330,虎尾,2023-10-10,23.719183,120.442036,0.9952061
C2FA00,烏石坑,2023-10-10,24.273503,120.947617,6.34877e-06
C0V620,永安,2023-10-10,22.82315,120.236856,0.03150713
C1I330,楓樹林,2023-10-10,23.986803,121.076117,2.9153065e-07
C0W200,湖西,2023-10-10,23.596314,119.67275,0.9980974
72Q010,高雄農改場,2023-10-10,22.709333,120.525889,0.024258032
C0SA40,瑞和,2023-10-10,22.974361,121.156697,6.272928e-07
C0C680,龜山,2023-10-10,25.02846,121.38656,0.8671136
C2V260,月眉,2023-10-10,22.971003,120.539853,0.19067124
C0V450,鳳森,2023-10-10,22.545064,120.392592,0.0066635823
C0U720,南山,2023-10-10,24.43742,121.38167,2.2739239e-06
A2N290,臺南蘭花園區,2023-10-10,23.340258,120.379661,0.9890851
C0R560,新園,2023-10-10,22.5434,120.461558,0.006300608
C0U890,三星,2023-10-10,24.66812,121.65302,0.76923364
C1V300,御油山,2023-10-10,23.001983,120.715364,7.402197e-09
C0U600,礁溪,2023-10-10,24.817539,121.765608,0.71232045
C1T980,龍澗,2023-10-10,24.023289,121.411328,3.1185703e-08
C0D670,海天一線,2023-10-10,24.831986,120.914438,0.98641276
C0SA00,歷坵,2023-10-10,22.520969,120.89185,0.29628286
C0M710,東石,2023-10-10,23.458927,120.15385,0.9994423
C0M780,鹿草,2023-10-10,23.41134,120.30835,0.9949115
C0U520,雙連埤,2023-10-10,24.753033,121.641303,0.12963055
C0B010,七堵,2023-10-10,25.094819,121.71713,0.20301631
C0R480,長治,2023-10-10,22.693128,120.542622,0.011634221
C1V830,國三S383K,2023-10-10,22.781967,120.426475,0.14578955
12Q980,恆春工作站,2023-10-10,22.079678,120.714425,0.0012473798
C1O940,東山服務區,2023-10-10,23.286016,120.398472,0.8386386
C1U840,東澳嶺,2023-10-10,24.5378,121.8485,8.065861e-08
C1D630,飛鳳山,2023-10-10,24.766464,121.119178,0.9132941
C0S940,石寧山,2023-10-10,23.223772,121.406639,0.008628667
C0K410,北港,2023-10-10,23.573957,120.292802,0.9994862
C2M620,瑞里,2023-10-10,23.545133,120.675197,4.0460577e-08
C2O950,安南,2023-10-10,23.076694,120.144861,0.95437086
C0F0E0,南湖圈谷,2023-10-10,24.363714,121.444667,3.9220225e-08
467610,成功,2023-10-10,23.097486,121.373428,0.0065049347
C0G890,伸港,2023-10-10,24.148933,120.484403,0.9996533
C2E540,龍溪,2023-10-10,24.606489,120.783933,0.98679245
C1V200,梅山,2023-10-10,23.268447,120.823556,0.006697309
C0T9H0,加路蘭山,2023-10-10,23.682947,121.5274,3.850867e-09
C2O930,玉井,2023-10-10,23.126042,120.46055,0.6074072
C1F911,新伯公,2023-10-10,24.221361,120.841069,0.0043217465
C0R490,九如,2023-10-10,22.7405,120.490503,0.024124818
C0X200,左鎮,2023-10-10,23.056758,120.408522,0.771103
C1F891,稍來,2023-10-10,24.265689,121.001142,3.810354e-09
72N240,七股研究中心,2023-10-10,23.081672,120.062894,0.9564327
C0C700,中壢,2023-10-10,24.977661,121.256375,0.91823596
C0M690,水上,2023-10-10,23.419734,120.388909,0.98495376
C0V690,鼓山,2023-10-10,22.623325,120.275575,0.0059304987
C0O860,大內,2023-10-10,23.11885,120.36083,0.9850642
C0Z200,萬榮,2023-10-10,23.709219,121.420106,9.46055e-05
C0T9D0,和中,2023-10-10,24.26676,121.74103,0.7617917
C1O921,楠西,2023-10-10,23.183511,120.484083,0.57925373
C0AJ30,淡水觀海,2023-10-10,25.184591,121.408616,0.21673284
C0V810,左營,2023-10-10,22.67491,120.28491,0.0014712007
C0UA70,桃源谷,2023-10-10,24.962606,121.888875,0.98696864
C0X130,官田,2023-10-10,23.193217,120.315422,0.9824711
C1H000,翠峰,2023-10-10,24.109397,121.205211,1.617656e-07
C0UA90,石城,2023-10-10,24.980444,121.951214,0.78598034
C1E681,南勢山,2023-10-10,24.421669,120.923831,2.9335956e-08
C0A9F0,內湖,2023-10-10,25.079422,121.57545,0.146475
C0K291,宜梧,2023-10-10,23.536281,120.169329,0.99949473
C1K540,口湖,2023-10-10,23.585344,120.180517,0.9998811
C0R780,滿州,2023-10-10,22.024403,120.839892,0.00260512
C0V870,文安,2023-10-10,22.8025,120.2164,0.034646403
C0U650,玉蘭,2023-10-10,24.675286,121.587061,0.40082437
C0R640,東港,2023-10-10,22.46247,120.44074,0.0026647954
K2E360,苗栗農改,2023-10-10,24.495722,120.829111,0.060254958
C0AJ80,板橋,2023-10-10,25.0107,121.4489,0.97927916
C0S660,下馬,2023-10-10,23.150427,121.070312,1.6176955e-08
C1H9B1,阿眉,2023-10-10,24.1263,120.994672,6.4550427e-09
C0UA20,多加屯,2023-10-10,24.368614,121.373189,1.7274361e-08
C0E730,頭份,2023-10-10,24.688247,120.912206,0.9948385
72V140,高改旗南分場,2023-10-10,22.857861,120.516667,0.25812125
C0K480,莿桐,2023-10-10,23.761192,120.502372,0.8951841
C0U980,坪林石牌,2023-10-10,24.86478,121.77396,0.42748702
C0T900,西林,2023-10-10,23.8119,121.441458,0.0044118264
C1I150,青雲,2023-10-10,23.793361,120.949378,0.039301526
467350,澎湖,2023-10-10,23.565503,119.563094,0.9977655
C0G800,埔鹽,2023-10-10,24.000394,120.431683,0.9996282
C0H960,草屯,2023-10-10,23.973672,120.68085,0.99781924
C1V780,多納林道,2023-10-10,22.888028,120.737917,0.10957844
C0E920,通霄漁港,2023-10-10,24.498589,120.673876,0.92584836
C0Z330,安通山,2023-10-10,23.290728,121.348528,5.033268e-06
C0AH10,永和,2023-10-10,25.01125,121.508111,0.97927916
C2G640,鹿港,2023-10-10,24.0753,120.430481,0.99969476
C1E890,國三N149K,2023-10-10,24.463414,120.680019,0.9663752
C1R110,口社,2023-10-10,22.770111,120.645222,0.0005904811
C1M870,國三N285K,2023-10-10,23.550319,120.505833,0.21769992
467050,新屋,2023-10-10,25.006744,121.047486,0.9906752
C1E480,鳳美,2023-10-10,24.554803,121.034747,0.014979064
C0M530,奮起湖,2023-10-10,23.493903,120.699253,2.2322343e-08
C0C590,觀音,2023-10-10,25.027072,121.153317,0.99144506
C0T9M0,靜浦,2023-10-10,23.455167,121.495028,0.4480886
C0AI40,石牌,2023-10-10,25.115597,121.513139,0.17205158
C1F871,上谷關,2023-10-10,24.203483,121.018644,7.67237e-09
C0G880,二水,2023-10-10,23.810742,120.6173,0.16759412
C0R940,加祿堂,2023-10-10,22.3363,120.6217,0.03871719
C0W220,北竿,2023-10-10,26.220358,119.974881,0.99395853
C0O960,崎頂,2023-10-10,22.959547,120.369317,0.056065552
C0S750,向陽,2023-10-10,23.248397,120.986133,8.4903725e-08
C0T9F0,水璉,2023-10-10,23.797131,121.542514,0.00031188293
C1M600,頭凍,2023-10-10,23.406364,120.603339,2.931007e-07
467660,臺東,2023-10-10,22.752211,121.154586,0.0021442068
C1D380,新埔,2023-10-10,24.84745,121.03834,0.9736087
C0V750,路竹,2023-10-10,22.854997,120.259439,0.630534
C0N050,蚵寮,2023-10-10,23.301,120.1104,0.9979844
72M700,南改鹿草分場,2023-10-10,23.416869,120.283061,0.9944675
C1SA50,利嘉林道,2023-10-10,22.82325,121.009389,0.0004957122
467550,玉山,2023-10-10,23.487614,120.959522,2.458021e-08
C0A940,金山,2023-10-10,25.223628,121.643967,0.2706287
C1V340,大津,2023-10-10,22.888322,120.645986,0.17202576
C0W180,七美,2023-10-10,23.219333,119.444892,0.93018746
C1F9C1,白冷,2023-10-10,24.182844,120.929889,7.4386156e-07
K2E710,苗改生物防治研究中心,2023-10-10,24.422861,120.871833,0.013928139
C0N040,蘆竹溝,2023-10-10,23.2344,120.0961,0.9985664
C2W230,畜試所澎湖,2023-10-10,23.628342,119.513206,0.99646145
C0R880,後壁湖,2023-10-10,21.9457,120.7457,3.0487317e-06
C1I280,埔中,2023-10-10,23.820778,120.642594,0.85900754
467790,墾丁雷達站,2023-10-10,21.948235,120.808028,0.0011547155
C0W190,望安,2023-10-10,23.380564,119.494075,0.9917305
466881,新北,2023-10-10,24.9593,121.52,0.97759163
C0Z170,卓溪,2023-10-10,23.3443,121.3029,0.014814268
C0F850,東勢,2023-10-10,24.246428,120.833047,0.14567268
466900,淡水,2023-10-10,25.164889,121.448906,0.9739259
C0I370,魚池,2023-10-10,23.895703,120.94135,6.5459766e-08
C0C630,大溪,2023-10-10,24.882853,121.265547,0.8827266
C0A520,山佳,2023-10-10,24.974944,121.402008,0.93234384
C0I110,竹山,2023-10-10,23.761225,120.688156,0.2580996
82H840,茶改南部分場,2023-10-10,23.762528,120.7405,0.95445234
C0G660,溪湖,2023-10-10,23.94835,120.479122,0.98897773
C1T800,洛韶,2023-10-10,24.204558,121.453956,1.7113601e-08
C1T810,慈恩,2023-10-10,24.192044,121.388386,1.2273976e-07
C1E451,象鼻,2023-10-10,24.368617,120.940228,1.2266517e-08
C0AC60,三峽,2023-10-10,24.939025,121.369728,0.95239383
C0I490,萬大林道,2023-10-10,23.928228,121.091411,6.846553e-09
C1I290,豐丘,2023-10-10,23.668178,120.887417,3.3550418e-08
C1I320,奧萬大,2023-10-10,23.952956,121.178556,4.3812694e-08
C0U770,南澳,2023-10-10,24.44935,121.81022,4.7177382e-05
C0A980,社子,2023-10-10,25.109508,121.469681,0.9748944
C0V800,六龜,2023-10-10,22.997889,120.633583,0.87316215
C1G9D0,國一S218K,2023-10-10,23.890641,120.493253,0.99282706
C2F9A0,中竹林,2023-10-10,24.103556,120.751061,0.0020633915
C0FA40,臺中電廠,2023-10-10,24.2146,120.4907,0.9994477
C0H9C0,合歡山,2023-10-10,24.143442,121.272547,3.0373013e-08
C0X060,下營,2023-10-10,23.22695,120.256261,0.98907596
G2M350,農試溪口農場,2023-10-10,23.58565,120.408111,0.93112797
C0U860,頭城,2023-10-10,24.85323,121.8308,0.72646177
C0R580,南州,2023-10-10,22.48591,120.50274,0.0026647954
C0D430,峨眉,2023-10-10,24.6905,121.017189,0.9713993
C0G780,秀水,2023-10-10,24.03405,120.503869,0.9958707
72N100,臺南農改場,2023-10-10,23.0605,120.342194,0.9865611
C0S900,蘭嶼高中,2023-10-10,22.04909,121.51214,0.29002017
467540,大武,2023-10-10,22.355675,120.903789,0.44172338
C1F9W0,德基,2023-10-10,24.254783,121.190261,4.1311328e-09
C1Z120,壽豐,2023-10-10,23.870853,121.508081,0.831521
C0W160,烏坵,2023-10-10,24.9944,119.44956,0.98724383
C1I240,外大坪,2023-10-10,23.958697,120.917931,7.3381857e-06
C1I550,國六W023K,2023-10-10,23.979067,120.867742,2.891993e-05
C0R870,興海,2023-10-10,21.9752,120.8439,0.0010221452
C0R140,瑪家,2023-10-10,22.682903,120.686639,0.07194057
C0A530,坪林,2023-10-10,24.938183,121.70975,0.9670545
C0X260,後壁,2023-10-10,23.366358,120.362326,0.9890968
C0Z230,和平,2023-10-10,24.30717,121.77007,0.72802186
C0G770,福興,2023-10-10,24.041289,120.437669,0.9996282
C0H9A0,神木村,2023-10-10,23.532742,120.843667,3.1856636e-08
C0I460,南投,2023-10-10,23.911469,120.687331,0.57284874
C0I480,梅峰,2023-10-10,24.085272,121.173572,4.1649574e-08
C1V570,吉東,2023-10-10,22.85422,120.5454,0.29072794
C2A560,福山,2023-10-10,24.776203,121.502811,0.8740774
C0AH30,五分山,2023-10-10,25.07125,121.780794,0.9784547
C0FA10,松柏,2023-10-10,24.429115,120.617482,0.97186434
72S200,東改班鳩分場,2023-10-10,22.829528,121.077694,3.915988e-05
72HA00,中改埔里分場,2023-10-10,23.903208,120.963364,4.448287e-08
C0C650,平鎮,2023-10-10,24.897503,121.214636,0.9296492
C0S930,延平,2023-10-10,22.902581,121.084058,3.0720028e-05
C0UA60,樟樹山,2023-10-10,24.41393,121.78325,0.003170779
C1S670,摩天,2023-10-10,23.199503,121.027,2.5020112e-08
C0V630,茄萣,2023-10-10,22.906642,120.182608,0.66392124
466940,基隆,2023-10-10,25.133314,121.740475,0.18076345
C0X050,東河,2023-10-10,23.296598,120.385608,0.8140241
C0R770,保力,2023-10-10,22.071122,120.764111,1.2770649e-06
G2L020,農試嘉義分所,2023-10-10,23.485028,120.473806,0.40062898
C0X240,關子嶺,2023-10-10,23.331169,120.508025,0.13170248
C0I380,集集,2023-10-10,23.828206,120.801467,0.95211613
466990,花蓮,2023-10-10,23.975128,121.613275,0.77861
C1V220,小關山,2023-10-10,23.154217,120.813603,5.686473e-08
C1F9G1,慶福山,2023-10-10,24.180853,120.848378,5.085251e-08
C0Z250,瑞穗林道,2023-10-10,23.49284,121.30688,8.5653404e-08
C0D590,新豐,2023-10-10,24.87068,120.97721,0.9836258
C0A870,五指山,2023-10-10,25.132153,121.608692,0.8129456
C0UA50,西帽山,2023-10-10,24.555361,121.802628,6.8158784e-06
C0X160,仁德,2023-10-10,22.968258,120.257689,0.55245906
C1H971,六分寮,2023-10-10,23.92507,120.6378,0.12705411
C0W120,西嶼,2023-10-10,23.5626,119.468436,0.99575174
C0G650,員林,2023-10-10,23.946503,120.585597,0.93670976
C0AD50,鶯歌,2023-10-10,24.951533,121.346294,0.95182055
C0S990,山豬窟,2023-10-10,22.318619,120.857372,0.9955148
72Q010,高雄農改,2023-10-10,22.709333,120.525889,0.024258032
C0X190,安平,2023-10-10,22.993161,120.152181,0.23721299
C0K400,斗六,2023-10-10,23.720583,120.541127,0.68150485
12J990,口湖工作站,2023-10-10,23.589978,120.180394,0.9998811
C0O830,北寮,2023-10-10,23.079561,120.495008,0.0788389
C1D410,白蘭,2023-10-10,24.579364,121.079947,2.1267166e-08
C0S970,加津林,2023-10-10,22.416211,120.926942,0.5277103
C0D700,關西,2023-10-10,24.7977,121.1732,0.8566863
C0M810,里佳,2023-10-10,23.389125,120.716647,1.4162988e-08
C0U750,龜山島,2023-10-10,24.841667,121.953133,0.01977173
C0R810,內獅,2023-10-10,22.305064,120.642986,0.03230805
C1M390,龍美,2023-10-10,23.406728,120.654417,4.354701e-08
C1H840,國三N238K,2023-10-10,23.841008,120.707711,0.9770727
CAQ030,崎峰國小,2023-10-10,22.42565,120.49521,0.0026647954
C2E520,大湖,2023-10-10,24.414939,120.870872,0.013383434
467530,阿里山,2023-10-10,23.508208,120.813242,9.867295e-09
C1E691,南湖,2023-10-10,24.40135,120.837533,3.0621268e-06
C0FA30,梧棲,2023-10-10,24.256003,120.523381,0.99773026
C1V231,高中,2023-10-10,23.134911,120.716711,6.8330673e-06
C0F9V0,新社,2023-10-10,24.200172,120.815806,0.00011644603
C0H890,埔里,2023-10-10,23.972169,120.952425,1.2519691e-06
C0R690,墾丁,2023-10-10,21.966756,120.810269,0.00130053
C0F0D0,審馬陣,2023-10-10,24.381675,121.4203,2.1057799e-08
C0R820,白鷺,2023-10-10,22.454275,120.666219,0.1705631
U2H480,臺大溪頭,2023-10-10,23.670306,120.798194,5.092657e-08
C1V190,南天池,2023-10-10,23.27403,120.91176,1.3610772e-07
K2E360,苗栗農改場,2023-10-10,24.495722,120.829111,0.060254958
CAJ050,海口故事園區,2023-10-10,23.57543,120.14121,0.9998811
C0O990,媽廟,2023-10-10,22.99175,120.293525,0.9804402
C0D480,打鐵坑,2023-10-10,24.849664,121.150789,0.8771563
C0Z220,和平林道,2023-10-10,24.343922,121.656317,6.9130915e-06
72C440,桃園農改場,2023-10-10,24.950944,121.030583,0.983628
C1E711,馬拉邦山,2023-10-10,24.367306,120.901656,9.582573e-09
C0D560,竹東,2023-10-10,24.767147,121.057881,0.866825
C0F9U0,南屯,2023-10-10,24.137006,120.637969,0.9996667
C0M720,番路,2023-10-10,23.464657,120.554156,0.98789287
C0F0A0,雪山圈谷,2023-10-10,24.388594,121.236339,2.7762013e-08
C1A9N0,四十份,2023-10-10,24.934158,121.593283,0.99568677
C0U760,東澳,2023-10-10,24.52196,121.83318,0.45348215
C0X230,鹽水,2023-10-10,23.272621,120.247641,0.9981563
C0V370,古亭坑,2023-10-10,22.893178,120.401947,0.028133327
C1I340,新興橋,2023-10-10,23.563333,120.868728,2.1590666e-05
C0SA80,土坂,2023-10-10,22.453108,120.887572,0.6802771
C0R160,鹽埔,2023-10-10,22.739558,120.530778,0.024338584
C0AC40,大屯山,2023-10-10,25.175675,121.522408,0.65580773
466850,五分山雷達站,2023-10-10,25.071182,121.781205,0.9777996
C1AI50,國三N016K,2023-10-10,25.034164,121.619664,0.14650406
C1V600,藤枝,2023-10-10,23.071961,120.757042,2.0573826e-07
C1E601,南勢,2023-10-10,24.572486,120.734842,0.9905848
C0Z180,新城,2023-10-10,24.03946,121.60454,0.78746384
C0O980,新市,2023-10-10,23.061614,120.298197,0.9809721
C0K420,西螺,2023-10-10,23.800407,120.467394,0.99635047
C0Z050,佳心,2023-10-10,23.34567,121.21316,6.854615e-09
C0AD30,蘆洲,2023-10-10,25.086594,121.472331,0.14806458
C0V610,梓官,2023-10-10,22.760558,120.267211,0.003945933
K2F750,種苗改良場,2023-10-10,24.225972,120.800917,0.0010580604
C0UA80,大溪漁港,2023-10-10,24.941801,121.902955,0.6958022
C1AI60,國一39K邊坡,2023-10-10,25.064361,121.383836,0.88935363
C0W150,金寧,2023-10-10,24.457703,118.328989,0.99987566
V2C250,八德合作社,2023-10-10,24.93775,121.266389,0.9397558
C0AH40,平等,2023-10-10,25.129142,121.577086,0.9694455
C0R540,佳冬,2023-10-10,22.419456,120.552375,0.044345953
466950,彭佳嶼,2023-10-10,25.627975,122.079744,0.95489746
C0A890,雙溪,2023-10-10,25.036003,121.864242,0.43198857
C0C480,桃園,2023-10-10,24.992425,121.323172,0.9273023
C0AH50,林口,2023-10-10,25.072181,121.38084,0.8433305
A2K360,水試臺西試驗場,2023-10-10,23.717231,120.190522,0.9998784
B2N890,畜試所,2023-10-10,23.058972,120.336406,0.9865611
C0F9S0,烏日,2023-10-10,24.107058,120.624103,0.9760541
C0C490,八德,2023-10-10,24.928708,121.283289,0.93936527
C0R190,赤山,2023-10-10,22.592333,120.614306,0.0014857131
C0T820,天祥,2023-10-10,24.179597,121.495639,4.7003236e-05
C1F9E1,龍安,2023-10-10,24.1605,120.831961,8.570069e-05
C0V820,小林,2023-10-10,23.148408,120.63325,0.0007793019
C2G870,芳苑,2023-10-10,23.922303,120.320025,0.97399557
C0E850,大河,2023-10-10,24.618069,120.948578,0.5963602
C1U670,寒溪,2023-10-10,24.634,121.71691,0.06759845
C0N020,城西,2023-10-10,23.0568,120.0956,0.23721299
C1Z110,三棧,2023-10-10,24.11557,121.60501,5.805512e-07
C0R280,檳榔,2023-10-10,22.076078,120.836777,4.4502326e-06
C0F9L0,后里,2023-10-10,24.310436,120.729725,0.05156249
C0D540,橫山,2023-10-10,24.71116,121.11693,0.130904
C1D420,太閣南,2023-10-10,24.632808,121.160575,1.2589696e-06
C1E770,公館,2023-10-10,24.526914,120.830806,0.06055901
CAN130,水試所海水繁養殖中心,2023-10-10,23.120802,120.07968,0.9564327
C1I430,翠華,2023-10-10,24.191961,121.224339,5.3676853e-08
C1M400,菜瓜坪,2023-10-10,23.251928,120.576103,0.005730839
C0G730,二林,2023-10-10,23.903325,120.376081,0.999685
72M360,南改義竹分場,2023-10-10,23.360694,120.279361,0.99535936
V2K620,麥寮合作社,2023-10-10,23.753836,120.294783,0.99966264
C0Z070,舞鶴,2023-10-10,23.46811,121.37407,0.2418003
C0B040,大武崙,2023-10-10,25.166676,121.706993,0.19181348
C1Z030,紅葉,2023-10-10,23.493119,121.338806,0.10291147
C1I050,丹大,2023-10-10,23.753747,121.141147,1.3040035e-07
C0I080,信義,2023-10-10,23.689694,120.851036,0.9890797
C2A880,福隆,2023-10-10,25.017842,121.942083,0.7890435
C0Z160,鳳林,2023-10-10,23.746114,121.453411,0.00048711992
C0V210,復興,2023-10-10,23.222403,120.806089,0.29347947
C0H990,昆陽,2023-10-10,24.121322,121.273642,5.969213e-08
C0S710,鹿野,2023-10-10,22.917711,121.122994,6.641595e-08
C0I530,小奇萊,2023-10-10,24.131764,121.295717,5.884756e-08
C0Z080,富源,2023-10-10,23.587642,121.378225,1.8527264e-07
467441,高雄,2023-10-10,22.7304,120.3125,0.003985108
C1I140,卡奈托灣,2023-10-10,23.754364,121.087872,2.460554e-08
C0I520,玉山風口,2023-10-10,23.470489,120.955994,2.9808504e-08
C1G691,下水埔,2023-10-10,23.816114,120.5676,0.9143546
C0X110,臺南市南區,2023-10-10,22.961189,120.188378,0.5519899
C0V680,仁武,2023-10-10,22.701083,120.347722,0.0014727034
C2G840,北斗,2023-10-10,23.877586,120.514222,0.9938564
C0R900,竹坑,2023-10-10,22.1385,120.7022,0.001132049
C0K250,崙背,2023-10-10,23.75555,120.318925,0.99966264
C0G860,社頭,2023-10-10,23.897647,120.5862,0.7973221
C0X150,安定,2023-10-10,23.102614,120.227839,0.9906936
C0R590,里港,2023-10-10,22.77919,120.49459,0.083314896
C0E610,馬都安,2023-10-10,24.451272,120.930192,5.1465787e-07
C0E550,明德,2023-10-10,24.583486,120.885411,0.6587128
C0R150,三地門,2023-10-10,22.709889,120.639944,0.0005717114
C0G910,花壇,2023-10-10,24.032076,120.549461,0.9967381
C1D400,鳥嘴山,2023-10-10,24.71909,121.28387,0.33273935
C0K500,元長,2023-10-10,23.64981,120.315024,0.9993941
C0F0B0,石岡,2023-10-10,24.276061,120.777644,0.037978303
C2V250,甲仙,2023-10-10,23.080106,120.591758,0.12345826
C0SA20,金崙山,2023-10-10,22.567419,120.959667,0.0009893775
C0V350,溪埔,2023-10-10,22.738578,120.446797,0.01917275
C0M660,溪口,2023-10-10,23.604131,120.403569,0.93112797
C1S880,壽卡,2023-10-10,22.238911,120.858903,0.000443812
72D680,桃改新埔分場,2023-10-10,24.834444,121.066111,0.9739777
