站號,站名,日期,lat,lon,BlastGRU-TW
466881,新北,2023-04-10,24.9593,121.52,0.1383637
466900,淡水,2023-04-10,25.164889,121.448906,0.18932933
466920,臺北,2023-04-10,25.037658,121.514853,0.159686
467441,高雄,2023-04-10,22.7304,120.3125,0.84708995
467480,嘉義,2023-04-10,23.495925,120.432906,0.7399418
467490,臺中,2023-04-10,24.145736,120.684075,0.5402918
C0A540,四堵,2023-04-10,24.8926,121.745736,0.08309044
C0A550,泰平,2023-04-10,24.971197,121.823711,0.15557523
C0A560,福山,2023-04-10,24.776203,121.502811,0.20685898
C0A931,三和,2023-04-10,25.233153,121.595236,0.18076733
C0A940,金山,2023-04-10,25.223628,121.643967,0.059062935
C0A950,鼻頭角,2023-04-10,25.129036,121.923372,0.8310372
C0AD10,八里,2023-04-10,25.150211,121.403947,0.18932933
C0AD30,蘆洲,2023-04-10,25.086594,121.472331,0.19545862
C0AD40,土城,2023-04-10,24.973208,121.445169,0.17951052
C0AI10,屈尺,2023-04-10,24.92184,121.54475,0.111684375
C0AI20,白沙灣,2023-04-10,25.283128,121.519058,0.07281765
C0AI30,三重,2023-04-10,25.057328,121.500629,0.19545862
C0B010,七堵,2023-04-10,25.094819,121.71713,0.23510133
C0B020,基隆嶼,2023-04-10,25.19141,121.78391,0.27632043
