站號,站名,日期,lat,lon,BlastGRU-TW
466881,新北,2023-06-10,24.9593,121.52,0.090200804
466900,淡水,2023-06-10,25.1649,121.4489,0.06718713
466920,臺北,2023-06-10,25.0377,121.5149,0.057747897
466940,基隆,2023-06-10,25.1333,121.7405,0.06841209
466990,花蓮,2023-06-10,23.9751,121.6133,0.91415024
467050,新屋,2023-06-10,25.0067,121.0475,0.07097722
467080,宜蘭,2023-06-10,24.764,121.7565,0.15582311
467270,田中,2023-06-10,23.8738,120.5813,0.5013648
467300,東吉島,2023-06-10,23.2569,119.6675,0.8984474
467350,澎湖,2023-06-10,23.5655,119.5631,0.874539
467410,臺南,2023-06-10,22.9932,120.2048,0.14168632
467420,永康,2023-06-10,23.0384,120.2367,0.13026634
467441,高雄,2023-06-10,22.7304,120.3125,0.13577583
467480,嘉義,2023-06-10,23.4959,120.4329,0.9971402
467490,臺中,2023-06-10,24.1457,120.6841,0.98893684
467540,大武,2023-06-10,22.3557,120.9038,0.034717783
467571,新竹,2023-06-10,24.8279,121.0142,0.070007615
467590,恆春,2023-06-10,22.0039,120.7463,0.08518213
467610,成功,2023-06-10,23.0975,121.3734,0.04815571
467620,蘭嶼,2023-06-10,22.037,121.5583,0.9923994
467660,臺東,2023-06-10,22.7522,121.1546,0.03367954
467790,墾丁雷達站,2023-06-10,21.9482,120.808,0.09044828
C0A520,山佳,2023-06-10,24.9749,121.402,0.063629694
C0A530,坪林,2023-06-10,24.9382,121.7097,0.9793295
C0A540,四堵,2023-06-10,24.8926,121.7457,0.51994616
C0A550,泰平,2023-06-10,24.9712,121.8237,0.83868754
C0A560,福山,2023-06-10,24.7762,121.5028,0.98924136
C0A570,桶後,2023-06-10,24.8482,121.598,0.3891422
C0A640,石碇,2023-06-10,24.994,121.6629,0.8511699
C0A650,火燒寮,2023-06-10,25.0027,121.7429,0.93852466
C0A660,瑞芳,2023-06-10,25.1132,121.8011,0.704845
C0A770,科教館,2023-06-10,25.0964,121.5165,0.05908276
C0A860,大坪,2023-06-10,25.1659,121.633,0.9700847
C0A880,福隆,2023-06-10,25.0178,121.9421,0.32639548
C0A890,雙溪,2023-06-10,25.036,121.8642,0.08770653
C0A920,富貴角,2023-06-10,25.2638,121.5653,0.10517775
C0A931,三和,2023-06-10,25.2332,121.5952,0.867746
C0A940,金山,2023-06-10,25.2236,121.644,0.08726649
C0A950,鼻頭角,2023-06-10,25.129,121.9234,0.2471496
C0A970,三貂角,2023-06-10,25.0076,122.0021,0.90168595
C0A980,社子,2023-06-10,25.1095,121.4697,0.0577514
C0A9C0,天母,2023-06-10,25.1175,121.5372,0.062252667
C0A9F0,內湖,2023-06-10,25.0794,121.5755,0.056381203
C0AC60,三峽,2023-06-10,24.939,121.3697,0.060435884
C0AC70,信義,2023-06-10,25.0378,121.5646,0.05788002
C0AC80,文山,2023-06-10,25.0023,121.5757,0.08570492
C0ACA0,新莊,2023-06-10,25.0515,121.4468,0.06284882
C0AD00,三芝,2023-06-10,25.2581,121.5019,0.09915045
C0AD10,八里,2023-06-10,25.1502,121.4039,0.06688908
C0AD30,蘆洲,2023-06-10,25.0866,121.4723,0.05908276
C0AD40,土城,2023-06-10,24.9732,121.4452,0.0810075
C0AD50,鶯歌,2023-06-10,24.9515,121.3463,0.075609416
C0AG80,中和,2023-06-10,24.9916,121.4918,0.05823738
C0AH00,汐止,2023-06-10,25.0669,121.6588,0.0699974
C0AH10,永和,2023-06-10,25.0113,121.5081,0.05658978
C0AH40,平等,2023-06-10,25.1291,121.5771,0.9063675
C0AH50,林口,2023-06-10,25.0722,121.3808,0.49928746
C0AH70,松山,2023-06-10,25.0487,121.5504,0.05788002
C0AH80,深坑,2023-06-10,25.0027,121.6283,0.081066385
C0AI00,五股,2023-06-10,25.0744,121.4273,0.28431103
C0AI10,屈尺,2023-06-10,24.9218,121.5447,0.23517221
C0AI20,白沙灣,2023-06-10,25.2831,121.5191,0.084470116
C0AI30,三重,2023-06-10,25.0573,121.5006,0.0607197
C0AI40,石牌,2023-06-10,25.1156,121.5131,0.060919467
C0AJ10,澳底,2023-06-10,25.0571,121.9273,0.2257832
C0AJ20,野柳,2023-06-10,25.207,121.69,0.07096463
C0AJ30,淡水觀海,2023-06-10,25.1846,121.4086,0.065316014
C0AJ40,石門,2023-06-10,25.2737,121.6012,0.13992189
C0AJ50,水湳洞,2023-06-10,25.1237,121.8622,0.071706764
C0AJ60,六塊厝,2023-06-10,25.24,121.4481,0.06558477
C0AJ70,田寮,2023-06-10,25.2698,121.4886,0.07939113
C0AJ80,板橋,2023-06-10,25.0107,121.4489,0.061327543
C0B010,七堵,2023-06-10,25.0948,121.7171,0.07329921
C0B020,基隆嶼,2023-06-10,25.1914,121.7839,0.07059264
C0B040,大武崙,2023-06-10,25.1667,121.707,0.07429648
C0B050,八斗子,2023-06-10,25.1448,121.7917,0.06598087
C0B060,暖暖,2023-06-10,25.0957,121.7403,0.09209851
C0C460,復興,2023-06-10,24.8202,121.3523,0.51438797
C0C480,桃園,2023-06-10,24.9924,121.3232,0.14980675
C0C490,八德,2023-06-10,24.9287,121.2833,0.10314296
C0C590,觀音,2023-06-10,25.0271,121.1533,0.07864105
C0C620,蘆竹,2023-06-10,25.0843,121.2658,0.069576785
C0C630,大溪,2023-06-10,24.8829,121.2655,0.14413755
C0C650,平鎮,2023-06-10,24.8975,121.2146,0.26822877
C0C660,楊梅,2023-06-10,24.9124,121.143,0.24105951
C0C670,龍潭,2023-06-10,24.8701,121.2214,0.5513774
C0C680,龜山,2023-06-10,25.0285,121.3866,0.20772661
C0C700,中壢,2023-06-10,24.9777,121.2564,0.1826691
C0C710,大溪永福,2023-06-10,24.8929,121.325,0.17152949
C0C720,竹圍,2023-06-10,25.1127,121.2398,0.06607595
C0C730,中大臨海站,2023-06-10,24.9661,121.0086,0.06727468
C0C740,觀音工業區,2023-06-10,25.0648,121.1149,0.17182946
C0C750,新興坑尾,2023-06-10,25.0061,121.0971,0.24672243
C0D430,峨眉,2023-06-10,24.6905,121.0172,0.061421443
C0D480,打鐵坑,2023-06-10,24.8497,121.1508,0.4398837
C0D540,橫山,2023-06-10,24.7112,121.1169,0.23747633
C0D560,竹東,2023-06-10,24.7671,121.0579,0.10172355
C0D580,寶山,2023-06-10,24.735,121.0252,0.13072833
C0D590,新豐,2023-06-10,24.8707,120.9772,0.13906093
C0D650,湖口,2023-06-10,24.9048,121.0436,0.08371152
C0D660,新竹市東區,2023-06-10,24.7987,120.9869,0.07763609
C0D670,海天一線,2023-06-10,24.832,120.9144,0.06479391
C0D680,香山濕地,2023-06-10,24.7836,120.915,0.06448346
C0D690,外湖,2023-06-10,24.9177,120.9687,0.06840751
C0D700,關西,2023-06-10,24.7977,121.1732,0.18102182
C0E420,竹南,2023-06-10,24.709,120.8889,0.074045025
C0E430,南庄,2023-06-10,24.6018,121.0002,0.2031885
C0E520,大湖,2023-06-10,24.4149,120.8709,0.64231735
C0E540,後龍,2023-06-10,24.6065,120.7839,0.86423266
C0E550,明德,2023-06-10,24.5835,120.8854,0.48578689
C0E590,通霄,2023-06-10,24.4719,120.7046,0.87090397
C0E730,頭份,2023-06-10,24.6882,120.9122,0.071203135
C0E740,造橋,2023-06-10,24.6371,120.8648,0.37455323
C0E750,苗栗,2023-06-10,24.5646,120.8246,0.9512638
C0E780,銅鑼,2023-06-10,24.4897,120.7909,0.46014595
C0E791,卓蘭,2023-06-10,24.3126,120.8244,0.94944596
C0E810,西湖,2023-06-10,24.5629,120.7485,0.9148973
C0E820,獅潭,2023-06-10,24.5391,120.92,0.51664174
C0E830,苑裡,2023-06-10,24.4397,120.6531,0.8048886
C0E850,大河,2023-06-10,24.6181,120.9486,0.56545556
C0E870,高鐵苗栗,2023-06-10,24.6073,120.8261,0.8823337
C0E910,海埔,2023-06-10,24.6488,120.7724,0.32044524
C0E920,通霄漁港,2023-06-10,24.4986,120.6739,0.7682907
C0E930,龍鳳,2023-06-10,24.7,120.8591,0.33062804
C0F000,大肚,2023-06-10,24.153,120.5721,0.5099457
C0F0B0,石岡,2023-06-10,24.2761,120.7776,0.5355471
C0F850,東勢,2023-06-10,24.2464,120.833,0.97752124
C0F930,大甲,2023-06-10,24.3477,120.6404,0.9022894
C0F970,大坑,2023-06-10,24.1731,120.7223,0.99216145
C0F9A0,中竹林,2023-06-10,24.1036,120.7511,0.91593415
C0F9I0,神岡,2023-06-10,24.2725,120.6583,0.8661989
C0F9K0,大安,2023-06-10,24.3451,120.588,0.71611834
C0F9L0,后里,2023-06-10,24.3104,120.7297,0.9681444
C0F9M0,豐原,2023-06-10,24.2543,120.7207,0.9441911
C0F9N0,大里,2023-06-10,24.0925,120.7014,0.86580545
C0F9O0,潭子,2023-06-10,24.2131,120.7039,0.8617852
C0F9P0,清水,2023-06-10,24.3123,120.5622,0.6445956
C0F9Q0,外埔,2023-06-10,24.3478,120.7057,0.7301233
C0F9R0,龍井,2023-06-10,24.1845,120.529,0.7367215
C0F9S0,烏日,2023-06-10,24.1071,120.6241,0.55794674
C0F9T0,西屯,2023-06-10,24.1795,120.6413,0.9235332
C0F9U0,南屯,2023-06-10,24.137,120.638,0.85492057
C0F9X0,大雅(中科園區),2023-06-10,24.2153,120.6244,0.98328686
C0FA10,松柏,2023-06-10,24.4291,120.6175,0.7292095
C0FA20,溫寮,2023-06-10,24.3722,120.5831,0.726
C0FA30,梧棲,2023-06-10,24.256,120.5234,0.7477402
C0FA40,臺中電廠,2023-06-10,24.2146,120.4907,0.7367215
C0FA50,霧峰,2023-06-10,24.0419,120.6995,0.96122664
C0G620,芬園,2023-06-10,24.0157,120.6213,0.9190075
C0G640,鹿港,2023-06-10,24.0753,120.4305,0.5962737
C0G650,員林,2023-06-10,23.9465,120.5856,0.83429563
C0G660,溪湖,2023-06-10,23.9484,120.4791,0.7968903
C0G720,溪州,2023-06-10,23.8516,120.4991,0.4617176
C0G730,二林,2023-06-10,23.9033,120.3761,0.654437
C0G740,大城,2023-06-10,23.8525,120.3209,0.97326404
C0G770,福興,2023-06-10,24.0413,120.4377,0.5853218
C0G780,秀水,2023-06-10,24.0341,120.5039,0.5216856
C0G800,埔鹽,2023-06-10,24.0004,120.4317,0.5745689
C0G810,埔心,2023-06-10,23.9476,120.5255,0.82138485
C0G820,田尾,2023-06-10,23.9017,120.5094,0.8402747
C0G830,埤頭,2023-06-10,23.866,120.4528,0.42560044
C0G840,北斗,2023-06-10,23.8776,120.5142,0.8402747
C0G860,社頭,2023-06-10,23.8976,120.5862,0.8545219
C0G870,芳苑,2023-06-10,23.9223,120.32,0.96696573
C0G880,二水,2023-06-10,23.8107,120.6173,0.8201287
C0G890,伸港,2023-06-10,24.1489,120.4844,0.69211644
C0G900,線西,2023-06-10,24.1434,120.4435,0.82078266
C0G910,花壇,2023-06-10,24.0321,120.5495,0.59653157
C0G920,永靖,2023-06-10,23.9247,120.5475,0.8602324
C0G940,竹塘,2023-06-10,23.8483,120.3868,0.28663233
C0G950,防潮門,2023-06-10,24.1835,120.4871,0.7118899
C0G960,福寶,2023-06-10,24.0443,120.3814,0.5925096
C0G970,三豐,2023-06-10,23.882,120.2895,0.96696573
C0H890,埔里,2023-06-10,23.9722,120.9524,0.9190381
C0H950,中寮,2023-06-10,23.8844,120.7664,0.9698564
C0H960,草屯,2023-06-10,23.9737,120.6809,0.7047921
C0I110,竹山,2023-06-10,23.7612,120.6882,0.9985247
C0I360,水里,2023-06-10,23.8126,120.8498,0.206539
C0I380,集集,2023-06-10,23.8282,120.8015,0.1884188
C0I410,名間,2023-06-10,23.8371,120.7014,0.86384434
C0I420,國姓,2023-06-10,24.0378,120.8551,0.74588215
C0I460,南投,2023-06-10,23.9115,120.6873,0.75583476
C0K250,崙背,2023-06-10,23.7555,120.3189,0.9695372
C0K280,四湖,2023-06-10,23.6304,120.2271,0.9710407
C0K291,宜梧,2023-06-10,23.5363,120.1693,0.7204028
C0K330,虎尾,2023-06-10,23.7192,120.442,0.28720823
C0K390,土庫,2023-06-10,23.679,120.3956,0.25577307
C0K400,斗六,2023-06-10,23.7206,120.5411,0.9965858
C0K410,北港,2023-06-10,23.574,120.2928,0.71111804
C0K420,西螺,2023-06-10,23.8004,120.4674,0.42991474
C0K430,褒忠,2023-06-10,23.6909,120.3036,0.93708867
C0K440,二崙,2023-06-10,23.7728,120.4089,0.32134336
C0K450,大埤,2023-06-10,23.6461,120.4315,0.27124515
C0K460,斗南,2023-06-10,23.6787,120.4784,0.7610485
C0K470,林內,2023-06-10,23.7487,120.6096,0.9737739
C0K480,莿桐,2023-06-10,23.7612,120.5024,0.72131777
C0K500,元長,2023-06-10,23.6498,120.315,0.9522728
C0K510,水林,2023-06-10,23.5729,120.246,0.801321
C0K530,臺西,2023-06-10,23.7015,120.1976,0.9622962
C0K550,蔦松,2023-06-10,23.5143,120.2297,0.7594829
C0K560,棋山,2023-06-10,23.6865,120.6034,0.9987613
C0K580,高鐵雲林,2023-06-10,23.7375,120.4179,0.27103385
C0K590,雲林東勢,2023-06-10,23.6742,120.2557,0.9371922
C0K600,箔子寮,2023-06-10,23.6197,120.14,0.80016285
C0M410,馬頭山,2023-06-10,23.3244,120.582,0.1743195
C0M520,東後寮,2023-06-10,23.3699,120.2481,0.5319251
C0M640,中埔,2023-06-10,23.4254,120.5229,0.9000397
C0M650,朴子,2023-06-10,23.4346,120.239,0.7431766
C0M660,溪口,2023-06-10,23.6041,120.4036,0.9748032
C0M670,大林,2023-06-10,23.6006,120.4584,0.9941101
C0M680,太保,2023-06-10,23.4551,120.3315,0.7110083
C0M690,水上,2023-06-10,23.4197,120.3889,0.99826497
C0M700,竹崎,2023-06-10,23.5262,120.5555,0.9797464
C0M710,東石,2023-06-10,23.4589,120.1539,0.81161076
C0M720,番路,2023-06-10,23.4647,120.5542,0.9962715
C0M730,嘉義市東區,2023-06-10,23.4577,120.4605,0.99864787
C0M740,六腳,2023-06-10,23.4929,120.2906,0.67863953
C0M750,布袋,2023-06-10,23.3809,120.1678,0.7475997
C0M760,民雄,2023-06-10,23.5518,120.4285,0.9836768
C0M770,嘉義梅山,2023-06-10,23.5854,120.5556,0.97621447
C0M780,鹿草,2023-06-10,23.4113,120.3084,0.84248513
C0M790,新港,2023-06-10,23.5533,120.3457,0.7284336
C0M800,茶山,2023-06-10,23.2991,120.6648,0.61916465
C0M880,好美里,2023-06-10,23.3364,120.138,0.47936222
C0N010,鯤鯓國小,2023-06-10,23.1879,120.0889,0.6878346
C0N020,城西,2023-06-10,23.0568,120.0956,0.38474008
C0N030,四草,2023-06-10,23.0235,120.1116,0.31126088
C0N040,蘆竹溝,2023-06-10,23.2344,120.0961,0.6737367
C0N050,蚵寮,2023-06-10,23.301,120.1104,0.68072367
C0O810,曾文,2023-06-10,23.2197,120.4973,0.9978059
C0O830,北寮,2023-06-10,23.0796,120.495,0.2587119
C0O840,王爺宮,2023-06-10,23.2221,120.4009,0.9972706
C0O860,大內,2023-06-10,23.1188,120.3608,0.5696664
C0O900,善化,2023-06-10,23.1129,120.2972,0.173679
C0O930,玉井,2023-06-10,23.126,120.4605,0.99148864
C0O950,安南,2023-06-10,23.0767,120.1449,0.15200207
C0O960,崎頂,2023-06-10,22.9595,120.3693,0.13368529
C0O970,虎頭埤,2023-06-10,23.0214,120.3479,0.62154585
C0O980,新市,2023-06-10,23.0616,120.2982,0.17275658
C0O990,媽廟,2023-06-10,22.9917,120.2935,0.16241127
C0R150,三地門,2023-06-10,22.7099,120.6399,0.19947532
C0R160,鹽埔,2023-06-10,22.7396,120.5308,0.19157368
C0R170,屏東,2023-06-10,22.6603,120.4941,0.34711143
C0R190,赤山,2023-06-10,22.5923,120.6143,0.22275199
C0R220,潮州,2023-06-10,22.5344,120.54,0.18383738
C0R240,來義,2023-06-10,22.5273,120.6251,0.21762224
C0R260,春日,2023-06-10,22.3704,120.6283,0.17955409
C0R270,琉球嶼,2023-06-10,22.3322,120.3622,0.18746495
C0R280,檳榔,2023-06-10,22.0761,120.8368,0.1264617
C0R320,車城,2023-06-10,22.0744,120.7162,0.08088198
C0R341,牡丹,2023-06-10,22.13,120.7926,0.3782235
C0R350,貓鼻頭,2023-06-10,21.9218,120.7358,0.08718827
C0R470,高樹,2023-06-10,22.8264,120.6008,0.22089896
C0R480,長治,2023-06-10,22.6931,120.5426,0.22441344
C0R490,九如,2023-06-10,22.7405,120.4905,0.37311783
C0R520,崁頂,2023-06-10,22.5148,120.5069,0.34432358
C0R540,佳冬,2023-06-10,22.4195,120.5524,0.3774881
C0R550,新埤,2023-06-10,22.4679,120.5829,0.1931989
C0R560,新園,2023-06-10,22.5434,120.4616,0.3366808
C0R570,麟洛,2023-06-10,22.6508,120.5272,0.3755886
C0R580,南州,2023-06-10,22.4859,120.5027,0.3219158
C0R590,里港,2023-06-10,22.7792,120.4946,0.19884199
C0R620,墾雷,2023-06-10,21.9008,120.8553,0.08718816
C0R640,東港,2023-06-10,22.4625,120.4407,0.2538683
C0R650,竹田,2023-06-10,22.5849,120.5434,0.14272036
C0R660,枋寮,2023-06-10,22.3677,120.5906,0.17400752
C0R670,楓港,2023-06-10,22.1901,120.6922,0.13251632
C0R680,佳樂水,2023-06-10,21.9936,120.8616,0.08367896
C0R690,墾丁,2023-06-10,21.9668,120.8103,0.13399108
C0R700,枋山,2023-06-10,22.2468,120.6611,0.13884261
C0R710,龍磐,2023-06-10,21.9317,120.8389,0.104155056
C0R720,旭海,2023-06-10,22.2054,120.8876,0.09171546
C0R730,大坪頂,2023-06-10,22.0246,120.6936,0.101163566
C0R740,獅子,2023-06-10,22.2016,120.7053,0.15753058
C0R760,南仁湖,2023-06-10,22.0847,120.8634,0.1501364
C0R770,保力,2023-06-10,22.0711,120.7641,0.09596083
C0R780,滿州,2023-06-10,22.0244,120.8399,0.08884071
C0R790,九棚,2023-06-10,22.142,120.8893,0.07523253
C0R800,丹路,2023-06-10,22.2045,120.751,0.24543692
C0R810,內獅,2023-06-10,22.3051,120.643,0.1560838
C0R830,高士,2023-06-10,22.1218,120.8368,0.17742187
C0R850,林邊,2023-06-10,22.4634,120.5339,0.3738202
C0R860,鼻頭,2023-06-10,22.1043,120.8979,0.0875067
C0R870,興海,2023-06-10,21.9752,120.8439,0.08367901
C0R880,後壁湖,2023-06-10,21.9457,120.7457,0.07954238
C0R890,山海,2023-06-10,21.9878,120.7091,0.08096326
C0R900,竹坑,2023-06-10,22.1385,120.7022,0.17763573
C0R910,下寮,2023-06-10,22.3929,120.5548,0.3756303
C0R920,塭仔,2023-06-10,22.4169,120.5197,0.33364403
C0R930,萬丹,2023-06-10,22.5885,120.4851,0.15166627
C0R940,加祿堂,2023-06-10,22.3363,120.6217,0.14241704
C0S710,鹿野,2023-06-10,22.9177,121.123,0.8154781
C0S730,綠島,2023-06-10,22.6672,121.4753,0.06120751
C0S740,池上,2023-06-10,23.1196,121.2095,0.24812837
C0S770,大溪山,2023-06-10,22.4785,120.9433,0.16205898
C0S790,金崙,2023-06-10,22.5381,120.9669,0.042350817
C0S810,東河,2023-06-10,22.9727,121.304,0.054975502
C0S830,長濱,2023-06-10,23.2868,121.412,0.74113077
C0S840,南田,2023-06-10,22.2797,120.8892,0.042451534
C0S890,關山,2023-06-10,23.0395,121.175,0.077930376
C0S900,蘭嶼高中,2023-06-10,22.0491,121.5121,0.22747505
C0S910,蘭嶼燈塔,2023-06-10,22.0812,121.5031,0.65454423
C0S920,金峰嘉蘭,2023-06-10,22.5948,120.9608,0.026013695
C0S930,延平,2023-06-10,22.9026,121.0841,0.102784224
C0S940,石寧山,2023-06-10,23.2238,121.4066,0.15238976
C0S950,七塊厝,2023-06-10,22.9545,121.2299,0.89382136
C0S960,香蘭,2023-06-10,22.5876,120.9934,0.031112544
C0S970,加津林,2023-06-10,22.4162,120.9269,0.07919805
C0S990,山豬窟,2023-06-10,22.3186,120.8574,0.2260663
C0SA00,歷坵,2023-06-10,22.521,120.8919,0.34975272
C0SA10,檳榔四格山,2023-06-10,22.81,121.1093,0.40721464
C0SA30,都歷,2023-06-10,23.0203,121.3236,0.05837919
C0SA40,瑞和,2023-06-10,22.9744,121.1567,0.0709176
C0SA60,知本（水試所）,2023-06-10,22.7024,121.0828,0.031017214
C0SA80,土,2023-06-10,22.4531,120.8876,0.032627698
C0SA90,達仁林場,2023-06-10,22.2643,120.824,0.47013113
C0T870,鯉魚潭,2023-06-10,23.9356,121.5089,0.99699277
C0T900,西林,2023-06-10,23.8119,121.4415,0.99710536
C0T960,光復,2023-06-10,23.6607,121.425,0.97216916
C0T9A0,月眉山,2023-06-10,23.8099,121.5398,0.9958421
C0T9D0,和中,2023-06-10,24.2668,121.741,0.03196219
C0T9E0,大坑,2023-06-10,23.8806,121.582,0.9949299
C0T9F0,水璉,2023-06-10,23.7971,121.5425,0.994625
C0T9I0,豐濱,2023-06-10,23.5839,121.5148,0.99050164
C0T9M0,靜浦,2023-06-10,23.4552,121.495,0.97166574
C0T9N0,富里,2023-06-10,23.1716,121.2494,0.8289373
C0U600,礁溪,2023-06-10,24.8175,121.7656,0.19696142
C0U650,玉蘭,2023-06-10,24.6753,121.5871,0.99292743
C0U750,龜山島,2023-06-10,24.8417,121.9531,0.7379029
C0U760,東澳,2023-06-10,24.522,121.8332,0.08203401
C0U770,南澳,2023-06-10,24.4493,121.8102,0.06859705
C0U780,五結,2023-06-10,24.6864,121.7979,0.09644301
C0U860,頭城,2023-06-10,24.8532,121.8308,0.30702025
C0U870,大礁溪,2023-06-10,24.791,121.675,0.43427837
C0U880,北關,2023-06-10,24.9072,121.8734,0.07148817
C0U890,三星,2023-06-10,24.6681,121.653,0.37185746
C0U900,內城,2023-06-10,24.7181,121.6877,0.22051786
C0U910,冬山,2023-06-10,24.6337,121.7937,0.106707595
C0U940,羅東,2023-06-10,24.6818,121.7493,0.07102195
C0U970,大福,2023-06-10,24.8006,121.8139,0.24981132
C0U990,員山,2023-06-10,24.7444,121.7225,0.07032762
C0UA00,土場,2023-06-10,24.5765,121.4953,0.72541064
C0UA80,大溪漁港,2023-06-10,24.9418,121.903,0.49664074
C0UA90,石城,2023-06-10,24.9804,121.9512,0.5141395
C0UB00,淡江大學蘭陽校園,2023-06-10,24.8232,121.7304,0.9083208
C0UB10,蘇澳,2023-06-10,24.5969,121.8571,0.076147184
C0UB20,壯圍,2023-06-10,24.7359,121.8163,0.07773975
C0V250,甲仙,2023-06-10,23.0801,120.5918,0.8610513
C0V260,月眉,2023-06-10,22.971,120.5399,0.27156872
C0V310,美濃,2023-06-10,22.8987,120.5192,0.9745067
C0V350,溪埔,2023-06-10,22.7386,120.4468,0.20646872
C0V360,內門,2023-06-10,22.9755,120.4668,0.99166864
C0V370,古亭坑,2023-06-10,22.8932,120.4019,0.89888805
C0V400,阿公店,2023-06-10,22.8042,120.3555,0.22014837
C0V440,鳳山,2023-06-10,22.6467,120.3561,0.26289544
C0V450,鳳森,2023-06-10,22.5451,120.3926,0.19069394
C0V490,新興,2023-06-10,22.6274,120.2988,0.24882779
C0V530,阿蓮,2023-06-10,22.8832,120.3275,0.12080808
C0V610,梓官,2023-06-10,22.7606,120.2672,0.12795654
C0V620,永安,2023-06-10,22.8231,120.2369,0.11772484
C0V630,茄萣,2023-06-10,22.9066,120.1826,0.12647782
C0V640,湖內,2023-06-10,22.8871,120.2445,0.12681936
C0V650,彌陀,2023-06-10,22.7838,120.2464,0.11772484
C0V660,岡山,2023-06-10,22.7971,120.295,0.117452934
C0V680,仁武,2023-06-10,22.7011,120.3477,0.14230654
C0V690,鼓山,2023-06-10,22.6233,120.2756,0.26675695
C0V700,三民,2023-06-10,22.645,120.3112,0.24882779
C0V710,苓雅,2023-06-10,22.6227,120.3307,0.2635829
C0V720,林園,2023-06-10,22.5077,120.3945,0.2677871
C0V730,大寮,2023-06-10,22.6056,120.3957,0.129793
C0V740,旗山,2023-06-10,22.8886,120.4836,0.9786819
C0V750,路竹,2023-06-10,22.855,120.2594,0.10419341
C0V760,橋頭,2023-06-10,22.7578,120.3058,0.12335654
C0V770,大社,2023-06-10,22.7303,120.3466,0.14073656
C0V790,萬山,2023-06-10,22.9059,120.6881,0.70569366
C0V800,六龜,2023-06-10,22.9979,120.6336,0.78029484
C0V810,左營,2023-06-10,22.6749,120.2849,0.14379796
C0V820,小林,2023-06-10,23.1484,120.6333,0.95907307
C0V840,鳳鼻頭,2023-06-10,22.5083,120.3591,0.24990374
C0V850,蚵仔寮,2023-06-10,22.7256,120.2527,0.1400289
C0V860,南寮,2023-06-10,22.7616,120.2339,0.116835214
C0V870,文安,2023-06-10,22.8025,120.2164,0.12059795
C0V880,興達,2023-06-10,22.8778,120.2127,0.12647781
C0V890,前鎮,2023-06-10,22.5718,120.3117,0.24624982
C0V900,汕尾,2023-06-10,22.4782,120.4151,0.30829382
C0X050,東河,2023-06-10,23.2966,120.3856,0.98270607
C0X060,下營,2023-06-10,23.2269,120.2563,0.57440835
C0X080,佳里,2023-06-10,23.173,120.1451,0.44152468
C0X100,臺南市北區,2023-06-10,23.0104,120.1942,0.13018334
C0X110,臺南市南區,2023-06-10,22.9612,120.1884,0.13545525
C0X120,麻豆,2023-06-10,23.1833,120.2486,0.47986066
C0X130,官田,2023-06-10,23.1932,120.3154,0.6438532
C0X140,西港,2023-06-10,23.1256,120.2031,0.38944408
C0X150,安定,2023-06-10,23.1026,120.2278,0.15602387
C0X160,仁德,2023-06-10,22.9683,120.2577,0.15150224
C0X170,關廟,2023-06-10,22.963,120.3278,0.19275482
C0X180,山上,2023-06-10,23.0757,120.3633,0.97710097
C0X190,安平,2023-06-10,22.9932,120.1522,0.13629253
C0X200,左鎮,2023-06-10,23.0568,120.4085,0.97763926
C0X210,白河,2023-06-10,23.3475,120.4144,0.993575
C0X220,學甲,2023-06-10,23.2304,120.1822,0.47723973
C0X230,鹽水,2023-06-10,23.2726,120.2476,0.52407086
C0X240,關子嶺,2023-06-10,23.3312,120.508,0.9541053
C0X250,新營,2023-06-10,23.3107,120.3167,0.54491264
C0X260,後壁,2023-06-10,23.3664,120.3623,0.970646
C0X280,將軍,2023-06-10,23.215,120.1358,0.44815183
C0X290,北門,2023-06-10,23.2678,120.1255,0.45467234
C0X300,鹿寮,2023-06-10,23.386,120.4773,0.8903722
C0X310,七股,2023-06-10,23.1473,120.0863,0.57903033
C0X320,柳營,2023-06-10,23.2533,120.3753,0.9863379
C0Z020,明里,2023-06-10,23.2087,121.2623,0.5340475
C0Z061,玉里,2023-06-10,23.3215,121.3397,0.07629132
C0Z070,舞鶴,2023-06-10,23.4681,121.3741,0.9944148
C0Z080,富源,2023-06-10,23.5876,121.3782,0.9967637
C0Z100,東華,2023-06-10,23.8953,121.5498,0.750632
C0Z150,吉安光華,2023-06-10,23.9309,121.5952,0.7357972
C0Z160,鳳林,2023-06-10,23.7461,121.4534,0.9884621
C0Z170,卓溪,2023-06-10,23.3443,121.3029,0.11125169
C0Z180,新城,2023-06-10,24.0395,121.6045,0.9335955
C0Z190,富世,2023-06-10,24.1474,121.6297,0.058885835
C0Z200,萬榮,2023-06-10,23.7092,121.4201,0.935493
C0Z210,瑞穗,2023-06-10,23.5239,121.3902,0.98429734
C0Z230,和平,2023-06-10,24.3072,121.7701,0.030112028
C0Z270,蕃薯寮,2023-06-10,23.7384,121.5401,0.9864042
C0Z280,德武,2023-06-10,23.4743,121.4107,0.986959
C0Z300,東里,2023-06-10,23.2685,121.3055,0.09416044
C0Z310,清水斷崖,2023-06-10,24.2183,121.6891,0.037820537
C0Z330,安通山,2023-06-10,23.2907,121.3485,0.8325817
