站號,站名,日期,lat,lon,BlastGRU-TW
12J990,口湖工作站,2023-03-21,23.589978,120.180394,0.01162698
12Q970,東港工作站,2023-03-21,22.479997,120.466058,0.006476581
12Q980,恆春工作站,2023-03-21,22.079678,120.714425,2.240138e-05
466881,新北,2023-03-21,24.9593,121.52,0.0037728837
466900,淡水,2023-03-21,25.164889,121.448906,0.0009002302
466920,臺北,2023-03-21,25.037658,121.514853,0.0026943923
466940,基隆,2023-03-21,25.133314,121.740475,0.0011909192
466990,花蓮,2023-03-21,23.975128,121.613275,0.0069687604
467050,新屋,2023-03-21,25.006744,121.047486,0.0005461672
467060,蘇澳,2023-03-21,24.596736,121.857372,0.005909996
467080,宜蘭,2023-03-21,24.763975,121.756528,0.0051795575
467270,田中,2023-03-21,23.873803,120.581286,0.0028123187
467300,東吉島,2023-03-21,23.25695,119.667467,0.0026001835
467350,澎湖,2023-03-21,23.565503,119.563094,0.003519361
467410,臺南,2023-03-21,22.993239,120.204772,0.029485377
467420,永康,2023-03-21,23.038386,120.2367,0.036133427
467441,高雄,2023-03-21,22.7304,120.3125,0.0057185143
467480,嘉義,2023-03-21,23.495925,120.432906,0.007423442
467490,臺中,2023-03-21,24.145736,120.684075,0.0057700416
467540,大武,2023-03-21,22.355675,120.903789,0.00020389126
467571,新竹,2023-03-21,24.827853,121.014219,0.0016614571
467590,恆春,2023-03-21,22.003897,120.746339,2.3569246e-05
467610,成功,2023-03-21,23.097486,121.373428,0.0040665944
467620,蘭嶼,2023-03-21,22.036969,121.558339,0.0001740222
467660,臺東,2023-03-21,22.752211,121.154586,0.0065831635
467790,墾丁雷達站,2023-03-21,21.948235,120.808028,1.9266501e-05
72AI40,桃改臺北分場,2023-03-21,24.944503,121.386972,0.0034128942
72C440,桃園農改,2023-03-21,24.950944,121.030583,0.0005271756
72C440,桃園農改場,2023-03-21,24.950944,121.030583,0.0005271756
72D680,新埔,2023-03-21,24.834444,121.066111,0.0011467143
72D680,桃園農改場新埔工作站,2023-03-21,24.834444,121.066111,0.0011467143
72G600,臺中農改,2023-03-21,24.003028,120.534389,0.006624292
72G600,臺中農改場,2023-03-21,24.003028,120.534389,0.006624292
72K220,雲林分場,2023-03-21,23.634556,120.477333,0.0028074821
72L140,朴子分場,2023-03-21,23.4982,120.2414,0.014038538
72M360,義竹分場,2023-03-21,23.360694,120.279361,0.026835026
72M360,義竹工作站,2023-03-21,23.360694,120.279361,0.026835047
72M700,嘉義分場,2023-03-21,23.416869,120.283061,0.022278668
72N100,臺南農改,2023-03-21,23.0605,120.342194,0.026428886
72N100,臺南農改場,2023-03-21,23.0605,120.342194,0.026428886
72N240,七股研究中心,2023-03-21,23.081672,120.062894,0.008909157
72Q010,高雄農改,2023-03-21,22.709333,120.525889,0.012029925
72Q010,高雄農改場,2023-03-21,22.709333,120.525889,0.012029925
72S200,斑鳩分場,2023-03-21,22.829528,121.077694,0.0020308045
72S590,賓朗果園,2023-03-21,22.813889,121.071278,0.0014953086
72S590,賓朗農改,2023-03-21,22.813889,121.071278,0.0014953086
72T250,花蓮農改,2023-03-21,23.975222,121.563889,0.0046968744
72T250,花蓮農改場,2023-03-21,23.975222,121.563889,0.0046968744
72U480,蘭陽分場,2023-03-21,24.686306,121.716583,0.003791258
72V140,旗南,2023-03-21,22.857861,120.516667,0.013631417
72V140,旗南農改,2023-03-21,22.857861,120.516667,0.013631417
82A750,文山分場,2023-03-21,24.955778,121.631222,0.002301519
82A750,文山茶改,2023-03-21,24.955778,121.631222,0.0023015167
82C160,茶改場(楊梅),2023-03-21,24.908472,121.185333,0.0016111985
82C160,茶改場,2023-03-21,24.908472,121.185333,0.0016111985
82H840,凍頂工作站,2023-03-21,23.762528,120.7405,0.0019514173
82H840,凍頂茶改,2023-03-21,23.762528,120.7405,0.0019514173
82S580,臺東茶改,2023-03-21,22.907694,121.130139,0.002257072
82S580,龍田,2023-03-21,22.907694,121.130139,0.002257072
A0K420,麥寮,2023-03-21,23.7988,120.2177,0.010474748
A0W080,吉貝,2023-03-21,23.74,119.6042,0.0032058493
A2C560,農工中心,2023-03-21,24.985917,121.239833,0.0015480305
A2K360,臺西分所,2023-03-21,23.717231,120.190522,0.009194315
A2K360,臺西水試所,2023-03-21,23.717231,120.190522,0.009194315
A2K570,古坑(花卉中心),2023-03-21,23.633531,120.552392,0.0026533739
A2K570,古坑花卉中心,2023-03-21,23.63353,120.55239,0.0026533739
A2K630,臺大雲林校區,2023-03-21,23.730628,120.423903,0.0111657
A2N290,臺南蘭花園區,2023-03-21,23.340258,120.379661,0.016672581
B2E890,新竹畜試,2023-03-21,24.527806,120.770972,0.003242448
B2N890,畜產試驗所,2023-03-21,23.058972,120.336406,0.026428886
B2N890,畜試所,2023-03-21,23.058972,120.336406,0.026428886
B2Q810,恆春分所,2023-03-21,21.945583,120.802167,1.8019571e-05
B2Q810,恆春畜試,2023-03-21,21.945583,120.802167,1.8019571e-05
B2U990,宜蘭畜試,2023-03-21,24.669039,121.832561,0.0022317043
C0A520,山佳,2023-03-21,24.974944,121.402008,0.003435829
C0A530,坪林,2023-03-21,24.938183,121.70975,0.0024910271
C0A540,四堵,2023-03-21,24.8926,121.745736,0.004566847
C0A550,泰平,2023-03-21,24.971197,121.823711,0.0061123585
C0A560,福山,2023-03-21,24.776203,121.502811,0.0018764581
C0A570,桶後,2023-03-21,24.848222,121.597992,0.0018988595
C0A640,石碇,2023-03-21,24.993969,121.662917,0.0043679443
C0A650,火燒寮,2023-03-21,25.002719,121.742892,0.004010006
C0A660,瑞芳,2023-03-21,25.113169,121.801147,0.006232
C0A770,科教館,2023-03-21,25.096356,121.516507,0.0017649082
C0A860,大坪,2023-03-21,25.165914,121.632969,0.0027996942
C0A880,福隆,2023-03-21,25.017842,121.942083,0.0057097664
C0A890,雙溪,2023-03-21,25.036003,121.864242,0.0024070025
C0A920,富貴角,2023-03-21,25.263783,121.565258,0.0030125796
C0A931,三和,2023-03-21,25.233153,121.595236,0.0049010827
C0A940,金山,2023-03-21,25.223628,121.643967,0.003290484
C0A950,鼻頭角,2023-03-21,25.129036,121.923372,0.0063241413
C0A970,三貂角,2023-03-21,25.007606,122.002058,0.0044547534
C0A980,社子,2023-03-21,25.109508,121.469681,0.0017153372
C0A9C0,天母,2023-03-21,25.117494,121.537169,0.003450871
C0A9F0,內湖,2023-03-21,25.079422,121.57545,0.0038324615
C0AC60,三峽,2023-03-21,24.939025,121.369728,0.003478573
C0AC70,信義,2023-03-21,25.037822,121.564597,0.0036883121
C0AC80,文山,2023-03-21,25.00235,121.575728,0.0034985428
C0ACA0,新莊,2023-03-21,25.051478,121.446756,0.0017714478
C0AD00,三芝,2023-03-21,25.258131,121.501917,0.0017064527
C0AD10,八里,2023-03-21,25.150211,121.403947,0.0015205309
C0AD30,蘆洲,2023-03-21,25.086594,121.472331,0.0017649082
C0AD40,土城,2023-03-21,24.973208,121.445169,0.0033481345
C0AD50,鶯歌,2023-03-21,24.951533,121.346294,0.0017154155
C0AG80,中和,2023-03-21,24.991622,121.491792,0.0034110458
C0AH00,汐止,2023-03-21,25.066881,121.658778,0.00096502603
C0AH10,永和,2023-03-21,25.01125,121.508111,0.0034252144
C0AH40,平等,2023-03-21,25.129142,121.577086,0.0023813331
C0AH50,林口,2023-03-21,25.072181,121.38084,0.0020532522
C0AH70,松山,2023-03-21,25.04871,121.55042,0.0036883121
C0AH80,深坑,2023-03-21,25.002703,121.628328,0.003676159
C0AI00,五股,2023-03-21,25.07445,121.42728,0.0014190815
C0AI10,屈尺,2023-03-21,24.92184,121.54475,0.0036870018
C0AI20,白沙灣,2023-03-21,25.283128,121.519058,0.001295728
C0AI30,三重,2023-03-21,25.057328,121.500629,0.0018374082
C0AI40,石牌,2023-03-21,25.115597,121.513139,0.0018274323
C0AJ10,澳底,2023-03-21,25.057107,121.927272,0.0064413305
C0AJ20,野柳,2023-03-21,25.20703,121.690021,0.0019810277
C0AJ30,淡水觀海,2023-03-21,25.184591,121.408616,0.0011529016
C0AJ40,石門,2023-03-21,25.273672,121.601198,0.0025525957
C0AJ50,水湳洞,2023-03-21,25.123695,121.862238,0.002361155
C0AJ60,六塊厝,2023-03-21,25.24,121.4481,0.0016427218
C0AJ70,田寮,2023-03-21,25.2698,121.4886,0.001589888
C0AJ80,板橋,2023-03-21,25.0107,121.4489,0.0028476096
C0B010,七堵,2023-03-21,25.094819,121.71713,0.0017609164
C0B020,基隆嶼,2023-03-21,25.19141,121.78391,0.00087968033
C0B040,大武崙,2023-03-21,25.166676,121.706993,0.0022061132
C0B050,八斗子,2023-03-21,25.144754,121.79167,0.0007045369
C0B060,暖暖,2023-03-21,25.0957,121.7403,0.0014565858
C0C460,復興,2023-03-21,24.820208,121.352281,0.0014019522
C0C480,桃園,2023-03-21,24.992425,121.323172,0.0015846574
C0C490,八德,2023-03-21,24.928708,121.283289,0.0021886157
C0C590,觀音,2023-03-21,25.027072,121.153317,0.0018880852
C0C620,蘆竹,2023-03-21,25.084275,121.265767,0.0019083387
C0C630,大溪,2023-03-21,24.882853,121.265547,0.0020767031
C0C650,平鎮,2023-03-21,24.897503,121.214636,0.0016111985
C0C660,楊梅,2023-03-21,24.912375,121.143047,0.0014739311
C0C670,龍潭,2023-03-21,24.870056,121.221389,0.0011705775
C0C680,龜山,2023-03-21,25.02846,121.38656,0.0030639062
C0C700,中壢,2023-03-21,24.977661,121.256375,0.0016624635
C0C710,大溪永福,2023-03-21,24.892936,121.324975,0.0014955172
C0C720,竹圍,2023-03-21,25.112692,121.239824,0.0018799827
C0C730,中大臨海站,2023-03-21,24.966126,121.008581,0.00039825257
C0C740,觀音工業區,2023-03-21,25.064764,121.114856,0.001702678
C0C750,新興坑尾,2023-03-21,25.0061,121.0971,0.0016280684
C0D390,關西,2023-03-21,24.7977,121.1732,0.0018805303
C0D430,峨眉,2023-03-21,24.6905,121.017189,0.0011380245
C0D480,打鐵坑,2023-03-21,24.849664,121.150789,0.0013808405
C0D540,橫山,2023-03-21,24.71116,121.11693,0.002353308
C0D560,竹東,2023-03-21,24.767147,121.057881,0.0014545518
C0D580,寶山,2023-03-21,24.735006,121.025192,0.0017260269
C0D590,新豐,2023-03-21,24.87068,120.97721,0.0009462846
C0D650,湖口,2023-03-21,24.904794,121.043628,0.0005934703
C0D660,新竹市東區,2023-03-21,24.798681,120.986942,0.0016065548
C0D670,海天一線,2023-03-21,24.831986,120.914438,0.0009894792
C0D680,香山濕地,2023-03-21,24.783581,120.914988,0.0011004767
C0D690,外湖,2023-03-21,24.917735,120.968711,0.00056754664
C0E420,竹南,2023-03-21,24.708978,120.888897,0.0012534239
C0E430,南庄,2023-03-21,24.601775,121.000214,0.0029805794
C0E520,大湖,2023-03-21,24.41494,120.87087,0.0033165908
C0E540,後龍,2023-03-21,24.606489,120.783933,0.0037728425
C0E550,明德,2023-03-21,24.583486,120.885411,0.0023537995
C0E590,通霄,2023-03-21,24.471892,120.704622,0.0034109566
C0E730,頭份,2023-03-21,24.688247,120.912206,0.0009247146
C0E740,造橋,2023-03-21,24.637056,120.864778,0.0022840437
C0E750,苗栗,2023-03-21,24.564569,120.824575,0.00347953
C0E780,銅鑼,2023-03-21,24.489681,120.790853,0.0030853595
C0E791,卓蘭,2023-03-21,24.3126,120.8244,0.002769792
C0E810,西湖,2023-03-21,24.562947,120.7485,0.0034890466
C0E820,獅潭,2023-03-21,24.539133,120.920042,0.003963772
C0E830,苑裡,2023-03-21,24.439714,120.653053,0.0031168808
C0E850,大河,2023-03-21,24.618069,120.948578,0.0026032904
C0E870,高鐵苗栗,2023-03-21,24.60725,120.826094,0.0036759828
C0E910,海埔,2023-03-21,24.648767,120.772435,0.0027355526
C0E920,通霄漁港,2023-03-21,24.498589,120.673876,0.0036669876
C0E930,龍鳳,2023-03-21,24.700034,120.859125,0.002543348
C0F000,大肚,2023-03-21,24.15295,120.572117,0.0029204076
C0F0B0,石岡,2023-03-21,24.276061,120.777644,0.0028433113
C0F850,東勢,2023-03-21,24.246428,120.833047,0.002536011
C0F930,大甲,2023-03-21,24.347667,120.640403,0.0036861573
C0F970,大坑,2023-03-21,24.173142,120.722289,0.005491404
C0F9A0,中竹林,2023-03-21,24.103556,120.751061,0.0013910818
C0F9I0,神岡,2023-03-21,24.272481,120.658314,0.0035037564
C0F9K0,大安,2023-03-21,24.345061,120.588025,0.0040008784
C0F9L0,后里,2023-03-21,24.310436,120.729725,0.0026259355
C0F9M0,豐原,2023-03-21,24.254322,120.720692,0.003064464
C0F9N0,大里,2023-03-21,24.092464,120.701378,0.0059120213
C0F9O0,潭子,2023-03-21,24.213106,120.703933,0.004209979
C0F9P0,清水,2023-03-21,24.312297,120.562242,0.0048892996
C0F9Q0,外埔,2023-03-21,24.347817,120.705686,0.004126537
C0F9R0,龍井,2023-03-21,24.184536,120.528972,0.0050100107
C0F9S0,烏日,2023-03-21,24.107058,120.624103,0.0073496876
C0F9T0,西屯,2023-03-21,24.179494,120.641275,0.0054404642
C0F9U0,南屯,2023-03-21,24.137006,120.637969,0.0065157823
C0F9X0,大雅(中科園區),2023-03-21,24.21528,120.62445,0.0042162086
C0FA10,松柏,2023-03-21,24.429115,120.617482,0.0034361307
C0FA20,溫寮,2023-03-21,24.372177,120.583125,0.0035358896
C0FA30,梧棲,2023-03-21,24.256003,120.523381,0.004497404
C0FA40,臺中電廠,2023-03-21,24.2146,120.4907,0.0050100107
C0FA50,霧峰,2023-03-21,24.0419,120.6995,0.004351816
C0G620,芬園,2023-03-21,24.015678,120.6213,0.004843187
C0G640,鹿港,2023-03-21,24.0753,120.430481,0.008375675
C0G650,員林,2023-03-21,23.946503,120.585597,0.0039022516
C0G660,溪湖,2023-03-21,23.94835,120.479122,0.006668076
C0G720,溪州,2023-03-21,23.851589,120.499093,0.0045953593
C0G730,二林,2023-03-21,23.903325,120.376081,0.008512462
C0G740,大城,2023-03-21,23.852487,120.320935,0.00863152
C0G770,福興,2023-03-21,24.041289,120.437669,0.009168207
C0G780,秀水,2023-03-21,24.03405,120.503869,0.008880836
C0G800,埔鹽,2023-03-21,24.000394,120.431683,0.00974678
C0G810,埔心,2023-03-21,23.947633,120.525456,0.0065132054
C0G820,田尾,2023-03-21,23.901669,120.509389,0.0059705502
C0G830,埤頭,2023-03-21,23.866003,120.452806,0.005210977
C0G840,北斗,2023-03-21,23.877586,120.514222,0.005970556
C0G860,社頭,2023-03-21,23.897647,120.5862,0.0035953806
C0G870,芳苑,2023-03-21,23.922303,120.320025,0.008175296
C0G880,二水,2023-03-21,23.810742,120.6173,0.0017967152
C0G890,伸港,2023-03-21,24.148933,120.484403,0.006476974
C0G900,線西,2023-03-21,24.143358,120.443536,0.004734931
C0G910,花壇,2023-03-21,24.032076,120.549461,0.007151444
C0G920,永靖,2023-03-21,23.924703,120.547533,0.0051930742
C0G940,竹塘,2023-03-21,23.848253,120.386764,0.009856007
C0G950,防潮門,2023-03-21,24.1835,120.4871,0.0051991697
C0G960,福寶,2023-03-21,24.0443,120.3814,0.0078056823
C0G970,三豐,2023-03-21,23.882,120.2895,0.008175296
C0H890,埔里,2023-03-21,23.972169,120.952425,0.0044622817
C0H950,中寮,2023-03-21,23.884447,120.766406,0.0017033102
C0H960,草屯,2023-03-21,23.973672,120.68085,0.0032223891
C0I110,竹山,2023-03-21,23.761225,120.688156,0.002039844
C0I360,水里,2023-03-21,23.812553,120.849792,0.0018730814
C0I380,集集,2023-03-21,23.828206,120.801467,0.0014672666
C0I410,名間,2023-03-21,23.837053,120.701447,0.0015878759
C0I420,國姓,2023-03-21,24.037803,120.855072,0.0031919214
C0I460,南投,2023-03-21,23.911469,120.687331,0.0022311544
C0K250,崙背,2023-03-21,23.75555,120.318925,0.010567342
C0K280,四湖,2023-03-21,23.630414,120.227125,0.009869613
C0K291,宜梧,2023-03-21,23.536281,120.169329,0.014971488
C0K330,虎尾,2023-03-21,23.719183,120.442036,0.010481779
C0K390,土庫,2023-03-21,23.679029,120.395574,0.012277467
C0K400,斗六,2023-03-21,23.720583,120.541127,0.003147909
C0K410,北港,2023-03-21,23.573957,120.292802,0.016402155
C0K420,西螺,2023-03-21,23.800407,120.467394,0.0041304873
C0K430,褒忠,2023-03-21,23.690938,120.303634,0.015306075
C0K440,二崙,2023-03-21,23.772797,120.408944,0.008312642
C0K450,大埤,2023-03-21,23.646074,120.431537,0.0056885253
C0K460,斗南,2023-03-21,23.678734,120.478359,0.0032384528
C0K470,林內,2023-03-21,23.748675,120.609642,0.0028072041
C0K480,莿桐,2023-03-21,23.761192,120.502372,0.0036352423
C0K500,元長,2023-03-21,23.64981,120.315024,0.01317686
C0K510,水林,2023-03-21,23.572924,120.24597,0.010850859
C0K530,臺西,2023-03-21,23.701547,120.197559,0.009036021
C0K550,蔦松,2023-03-21,23.514319,120.229736,0.014038538
C0K560,棋山,2023-03-21,23.68645,120.603417,0.002225958
C0K580,高鐵雲林,2023-03-21,23.737456,120.417944,0.0111657
C0K590,雲林東勢,2023-03-21,23.674192,120.255721,0.014960994
C0K600,箔子寮,2023-03-21,23.6197,120.14,0.010486533
C0M410,馬頭山,2023-03-21,23.324361,120.582017,0.0066445554
C0M520,東後寮,2023-03-21,23.369908,120.248065,0.01731462
C0M640,中埔,2023-03-21,23.42538,120.5229,0.004998778
C0M650,朴子,2023-03-21,23.43463,120.23902,0.017490184
C0M660,溪口,2023-03-21,23.604131,120.403569,0.0069551715
C0M670,大林,2023-03-21,23.600616,120.45841,0.003554383
C0M680,太保,2023-03-21,23.455062,120.331455,0.025013266
C0M690,水上,2023-03-21,23.419734,120.388909,0.011180081
C0M700,竹崎,2023-03-21,23.526178,120.555508,0.003112263
C0M710,東石,2023-03-21,23.458927,120.15385,0.013280254
C0M720,番路,2023-03-21,23.464657,120.554156,0.004626685
C0M730,嘉義市東區,2023-03-21,23.457673,120.460531,0.0037674517
C0M740,六腳,2023-03-21,23.492871,120.290625,0.026664985
C0M750,布袋,2023-03-21,23.380878,120.167789,0.01766369
C0M760,民雄,2023-03-21,23.551754,120.428457,0.0058958405
C0M770,嘉義梅山,2023-03-21,23.585398,120.555587,0.0021979643
C0M780,鹿草,2023-03-21,23.41134,120.30835,0.021787489
C0M790,新港,2023-03-21,23.553269,120.345728,0.013999697
C0M800,茶山,2023-03-21,23.299075,120.664767,0.011375503
C0M880,好美里,2023-03-21,23.3364,120.138,0.012264735
C0N010,鯤鯓國小,2023-03-21,23.1879,120.0889,0.01046633
C0N020,城西,2023-03-21,23.0568,120.0956,0.009173852
C0N030,四草,2023-03-21,23.0235,120.1116,0.025541503
C0N040,蘆竹溝,2023-03-21,23.2344,120.0961,0.011801998
C0N050,蚵寮,2023-03-21,23.301,120.1104,0.011022378
C0O810,曾文,2023-03-21,23.219681,120.497328,0.010167104
C0O830,北寮,2023-03-21,23.079561,120.495008,0.009939436
C0O840,王爺宮,2023-03-21,23.222064,120.40085,0.008482732
C0O860,大內,2023-03-21,23.11885,120.36083,0.024538001
C0O900,善化,2023-03-21,23.112883,120.297219,0.030923579
C0O930,玉井,2023-03-21,23.126042,120.46055,0.019879464
C0O950,安南,2023-03-21,23.076694,120.144861,0.010387182
C0O960,崎頂,2023-03-21,22.959547,120.369317,0.012237373
C0O970,虎頭埤,2023-03-21,23.021375,120.347878,0.05787598
C0O980,新市,2023-03-21,23.061614,120.298197,0.02818269
C0O990,媽廟,2023-03-21,22.99175,120.293525,0.069883406
C0R150,三地門,2023-03-21,22.709889,120.639944,0.017153325
C0R160,鹽埔,2023-03-21,22.739558,120.530778,0.01090419
C0R170,屏東,2023-03-21,22.660269,120.494072,0.03702859
C0R190,赤山,2023-03-21,22.592333,120.614306,0.0076154135
C0R220,潮州,2023-03-21,22.534361,120.54,0.0064547416
C0R240,來義,2023-03-21,22.527306,120.625111,0.008284137
C0R260,春日,2023-03-21,22.370361,120.628306,0.01537509
C0R270,琉球嶼,2023-03-21,22.332244,120.362236,0.014951981
C0R280,檳榔,2023-03-21,22.076078,120.836777,3.2297285e-05
C0R320,車城,2023-03-21,22.0744,120.716247,2.240138e-05
C0R341,牡丹,2023-03-21,22.130036,120.792639,0.01982726
C0R350,貓鼻頭,2023-03-21,21.921774,120.7358,2.3941062e-05
C0R470,高樹,2023-03-21,22.826389,120.600806,0.021821747
C0R480,長治,2023-03-21,22.693128,120.542622,0.012282446
C0R490,九如,2023-03-21,22.7405,120.490503,0.03336272
C0R520,崁頂,2023-03-21,22.514781,120.506914,0.007154722
C0R540,佳冬,2023-03-21,22.419456,120.552375,0.0086349435
C0R550,新埤,2023-03-21,22.467947,120.582894,0.009614936
C0R560,新園,2023-03-21,22.5434,120.461558,0.0061753592
C0R570,麟洛,2023-03-21,22.65078,120.52719,0.035330683
C0R580,南州,2023-03-21,22.48591,120.50274,0.007826931
C0R590,里港,2023-03-21,22.77919,120.49459,0.0139115015
C0R620,墾雷,2023-03-21,21.900836,120.855269,1.8605486e-05
C0R640,東港,2023-03-21,22.46247,120.44074,0.0051066093
C0R650,竹田,2023-03-21,22.58486,120.54344,0.010881814
C0R660,枋寮,2023-03-21,22.367722,120.590647,0.008853998
C0R670,楓港,2023-03-21,22.190131,120.692156,0.08727956
C0R680,佳樂水,2023-03-21,21.993578,120.861633,1.8019571e-05
C0R690,墾丁,2023-03-21,21.966756,120.810269,3.3989116e-05
C0R700,枋山,2023-03-21,22.246844,120.661086,0.08727956
C0R710,龍磐,2023-03-21,21.931672,120.838942,2.2268894e-05
C0R720,旭海,2023-03-21,22.205403,120.887614,0.00027787144
C0R730,大坪頂,2023-03-21,22.024633,120.69355,3.322259e-05
C0R740,獅子,2023-03-21,22.201569,120.70525,0.07622179
C0R760,南仁湖,2023-03-21,22.084681,120.863353,4.890566e-05
C0R770,保力,2023-03-21,22.071122,120.764111,2.045148e-05
C0R780,滿州,2023-03-21,22.024403,120.839892,1.8968442e-05
C0R790,九棚,2023-03-21,22.14195,120.889281,0.00028868378
C0R800,丹路,2023-03-21,22.204481,120.750989,0.023195213
C0R810,內獅,2023-03-21,22.305064,120.642986,0.017691704
C0R830,高士,2023-03-21,22.121825,120.836781,5.9565326e-05
C0R850,林邊,2023-03-21,22.4634,120.5339,0.008018899
C0R860,鼻頭,2023-03-21,22.1043,120.8979,2.7751861e-05
C0R870,興海,2023-03-21,21.9752,120.8439,1.8019571e-05
C0R880,後壁湖,2023-03-21,21.9457,120.7457,2.2129594e-05
C0R890,山海,2023-03-21,21.9878,120.7091,2.240138e-05
C0R900,竹坑,2023-03-21,22.1385,120.7022,0.10969157
C0R910,下寮,2023-03-21,22.3929,120.5548,0.008825335
C0R920,塭仔,2023-03-21,22.4169,120.5197,0.007665991
C0R930,萬丹,2023-03-21,22.5885,120.4851,0.0091677345
C0R940,加祿堂,2023-03-21,22.3363,120.6217,0.017691704
C0S710,鹿野,2023-03-21,22.917711,121.122994,0.0026570887
C0S730,綠島,2023-03-21,22.6672,121.47533,0.0029638335
C0S740,池上,2023-03-21,23.119628,121.209469,0.003836303
C0S770,大溪山,2023-03-21,22.478475,120.943325,0.0025561517
C0S790,金崙,2023-03-21,22.538122,120.966875,0.0032179065
C0S810,東河,2023-03-21,22.972672,121.303986,0.0061853966
C0S830,長濱,2023-03-21,23.286817,121.411975,0.0012534467
C0S840,南田,2023-03-21,22.279725,120.889208,0.00016851371
C0S890,關山,2023-03-21,23.0395,121.175017,0.001242224
C0S900,蘭嶼高中,2023-03-21,22.04909,121.51214,7.139259e-05
C0S910,蘭嶼燈塔,2023-03-21,22.081197,121.503117,9.51321e-05
C0S920,金峰嘉蘭,2023-03-21,22.594789,120.960825,0.0061051007
C0S930,延平,2023-03-21,22.902581,121.084058,0.0011310279
C0S940,石寧山,2023-03-21,23.223772,121.406639,0.0020270399
C0S950,七塊厝,2023-03-21,22.954453,121.229922,0.002993696
C0S960,香蘭,2023-03-21,22.587569,120.993375,0.0032008186
C0S970,加津林,2023-03-21,22.416211,120.926942,0.000305542
C0S990,山豬窟,2023-03-21,22.318619,120.857372,0.00017294599
C0SA00,歷坵,2023-03-21,22.520969,120.89185,0.001947582
C0SA10,檳榔四格山,2023-03-21,22.810031,121.109308,0.00085992296
C0SA30,都歷,2023-03-21,23.020333,121.323642,0.0033419807
C0SA40,瑞和,2023-03-21,22.974361,121.156697,0.0012850747
C0SA60,知本（水試所）,2023-03-21,22.702394,121.082761,0.0015871897
C0SA80,土坂,2023-03-21,22.453108,120.887572,0.0066898083
C0SA90,達仁林場,2023-03-21,22.264347,120.823972,0.0017036711
C0T870,鯉魚潭,2023-03-21,23.935639,121.508944,0.010776823
C0T900,西林,2023-03-21,23.8119,121.441458,0.009110722
C0T960,光復,2023-03-21,23.660694,121.424964,0.002682039
C0T9A0,月眉山,2023-03-21,23.809928,121.539828,0.0022884172
C0T9D0,和中,2023-03-21,24.26676,121.74103,0.007472676
C0T9E0,大坑,2023-03-21,23.880628,121.581981,0.003420974
C0T9F0,水璉,2023-03-21,23.797131,121.542514,0.005183734
C0T9I0,豐濱,2023-03-21,23.583897,121.514806,0.0015761903
C0T9M0,靜浦,2023-03-21,23.455167,121.495028,0.0038003435
C0T9N0,富里,2023-03-21,23.171639,121.249378,0.0007561976
C0U600,礁溪,2023-03-21,24.817539,121.765608,0.0075423997
C0U650,玉蘭,2023-03-21,24.675286,121.587061,0.0027888678
C0U750,龜山島,2023-03-21,24.841667,121.953133,0.0036500078
C0U760,東澳,2023-03-21,24.52196,121.83318,0.01344013
C0U770,南澳,2023-03-21,24.44935,121.81022,0.008419173
C0U780,五結,2023-03-21,24.68637,121.79794,0.0015682479
C0U860,頭城,2023-03-21,24.85323,121.8308,0.009536892
C0U870,大礁溪,2023-03-21,24.791042,121.675047,0.0022956969
C0U880,北關,2023-03-21,24.9072,121.8734,0.008608672
C0U890,三星,2023-03-21,24.66812,121.65302,0.0056639775
C0U900,內城,2023-03-21,24.71813,121.68766,0.0056594578
C0U910,冬山,2023-03-21,24.63373,121.7937,0.0022317043
C0U940,羅東,2023-03-21,24.68184,121.74934,0.0027615486
C0U970,大福,2023-03-21,24.80064,121.81389,0.005110239
C0U990,員山,2023-03-21,24.74435,121.72247,0.0022256933
C0UA00,土場,2023-03-21,24.576533,121.495333,0.002384496
C0UA80,大溪漁港,2023-03-21,24.941801,121.902955,0.011063357
C0UA90,石城,2023-03-21,24.980444,121.951214,0.0063625695
C0UB00,淡江大學蘭陽校園,2023-03-21,24.823239,121.730383,0.002727744
C0UB20,壯圍,2023-03-21,24.7359,121.8163,0.0013265383
C0V250,甲仙,2023-03-21,23.080106,120.591758,0.0042306413
C0V260,月眉,2023-03-21,22.971003,120.539853,0.012750013
C0V310,美濃,2023-03-21,22.898742,120.519153,0.05013056
C0V350,溪埔,2023-03-21,22.738578,120.446797,0.02034664
C0V360,內門,2023-03-21,22.975481,120.466769,0.034963734
C0V370,古亭坑,2023-03-21,22.893178,120.401947,0.07541728
C0V400,阿公店,2023-03-21,22.804194,120.355528,0.06431772
C0V440,鳳山,2023-03-21,22.646653,120.356122,0.0040897066
C0V450,鳳森,2023-03-21,22.545064,120.392592,0.002607733
C0V490,新興,2023-03-21,22.627422,120.298803,0.003525924
C0V530,阿蓮,2023-03-21,22.883208,120.327508,0.16992706
C0V610,梓官,2023-03-21,22.760558,120.267211,0.0264985
C0V620,永安,2023-03-21,22.82315,120.236856,0.021017667
C0V630,茄萣,2023-03-21,22.906642,120.182608,0.023155235
C0V640,湖內,2023-03-21,22.887139,120.2445,0.022977877
C0V650,彌陀,2023-03-21,22.783806,120.246361,0.021017667
C0V660,岡山,2023-03-21,22.797078,120.294958,0.029035218
C0V680,仁武,2023-03-21,22.701083,120.347722,0.006586944
C0V690,鼓山,2023-03-21,22.623325,120.275575,0.0029574092
C0V700,三民,2023-03-21,22.645017,120.311233,0.003525924
C0V710,苓雅,2023-03-21,22.622742,120.330669,0.0033653954
C0V720,林園,2023-03-21,22.507747,120.394511,0.004026172
C0V730,大寮,2023-03-21,22.605614,120.395717,0.002898124
C0V740,旗山,2023-03-21,22.888614,120.483597,0.04571603
C0V750,路竹,2023-03-21,22.854997,120.259439,0.15840966
C0V760,橋頭,2023-03-21,22.757806,120.30575,0.029364614
C0V770,大社,2023-03-21,22.730306,120.346639,0.006479285
C0V790,萬山,2023-03-21,22.905944,120.688056,0.014130821
C0V800,六龜,2023-03-21,22.997889,120.633583,0.012899588
C0V810,左營,2023-03-21,22.67491,120.28491,0.0054514254
C0V820,小林,2023-03-21,23.148408,120.63325,0.0077051893
C0V840,鳳鼻頭,2023-03-21,22.5083,120.3591,0.0041223885
C0V850,蚵仔寮,2023-03-21,22.7256,120.2527,0.004616572
C0V860,南寮,2023-03-21,22.7616,120.2339,0.021405071
C0V870,文安,2023-03-21,22.8025,120.2164,0.021174498
C0V880,興達,2023-03-21,22.8778,120.2127,0.023155235
C0V890,前鎮,2023-03-21,22.5718,120.3117,0.0033603448
C0V900,汕尾,2023-03-21,22.4782,120.4151,0.022243887
C0X050,東河,2023-03-21,23.296598,120.385608,0.016644977
C0X060,下營,2023-03-21,23.22695,120.256261,0.019268911
C0X080,佳里,2023-03-21,23.173039,120.145086,0.011522451
C0X100,臺南市北區,2023-03-21,23.010394,120.194228,0.030978179
C0X110,臺南市南區,2023-03-21,22.961189,120.188378,0.030719865
C0X120,麻豆,2023-03-21,23.183289,120.248611,0.010172865
C0X130,官田,2023-03-21,23.193217,120.315422,0.014822169
C0X140,西港,2023-03-21,23.125608,120.203108,0.02028035
C0X150,安定,2023-03-21,23.102614,120.227839,0.015518889
C0X160,仁德,2023-03-21,22.968258,120.257689,0.07901405
C0X170,關廟,2023-03-21,22.963017,120.327797,0.06142264
C0X180,山上,2023-03-21,23.0757,120.363253,0.021619603
C0X190,安平,2023-03-21,22.993161,120.152181,0.033629656
C0X200,左鎮,2023-03-21,23.056758,120.408522,0.019210117
C0X210,白河,2023-03-21,23.347466,120.414427,0.015746722
C0X220,學甲,2023-03-21,23.230367,120.182187,0.014327223
C0X230,鹽水,2023-03-21,23.272621,120.247641,0.0125464555
C0X240,關子嶺,2023-03-21,23.331169,120.508025,0.0023579192
C0X250,新營,2023-03-21,23.310689,120.316681,0.015300038
C0X260,後壁,2023-03-21,23.366358,120.362326,0.013173648
C0X280,將軍,2023-03-21,23.214999,120.13577,0.012333817
C0X290,北門,2023-03-21,23.267772,120.125481,0.012358511
C0X300,鹿寮,2023-03-21,23.386047,120.477331,0.01653406
C0X310,七股,2023-03-21,23.147289,120.086253,0.008944939
C0X320,柳營,2023-03-21,23.253328,120.375253,0.01585832
C0Z020,明里,2023-03-21,23.208717,121.262342,0.00088851113
C0Z061,玉里,2023-03-21,23.3215,121.339656,0.0010151443
C0Z070,舞鶴,2023-03-21,23.46811,121.37407,0.0010373871
C0Z080,富源,2023-03-21,23.587642,121.378225,0.001047013
C0Z100,東華,2023-03-21,23.89525,121.549833,0.023889787
C0Z150,吉安光華,2023-03-21,23.930925,121.595153,0.03802734
C0Z160,鳳林,2023-03-21,23.746114,121.453411,0.0032634698
C0Z170,卓溪,2023-03-21,23.3443,121.3029,0.00095069734
C0Z180,新城,2023-03-21,24.03946,121.60454,0.0070066443
C0Z190,富世,2023-03-21,24.14743,121.6297,0.039867073
C0Z200,萬榮,2023-03-21,23.709219,121.420106,0.0128323855
C0Z210,瑞穗,2023-03-21,23.5239,121.39021,0.0019030909
C0Z230,和平,2023-03-21,24.30717,121.77007,0.01409626
C0Z270,蕃薯寮,2023-03-21,23.73835,121.540108,0.0014147306
C0Z280,德武,2023-03-21,23.47426,121.41071,0.0010603186
C0Z300,東里,2023-03-21,23.26853,121.30547,0.0010581823
C0Z310,清水斷崖,2023-03-21,24.218294,121.689142,0.007464349
C0Z330,安通山,2023-03-21,23.290728,121.348528,0.0010887905
CAA010,國一N013K,2023-03-21,25.06944,121.6281,0.004025276
CAA020,國一S026K,2023-03-21,25.07639,121.4964,0.0017649082
CAA030,國三S010K,2023-03-21,25.08,121.6475,0.0042986535
CAA040,國三S016K,2023-03-21,25.03306,121.6158,0.003357138
CAA050,國三S037K,2023-03-21,24.9828,121.471,0.003394755
CAA060,國三S042K,2023-03-21,24.96,121.4306,0.0032654172
CAA070,國三N046K,2023-03-21,24.95083,121.3958,0.0034128942
CAA080,國三S054K,2023-03-21,24.93917,121.3239,0.001669231
CAA090,國三A005K,2023-03-21,25.00194,121.5975,0.0039482615
CAAH60,大安森林,2023-03-21,25.02955,121.53628,0.0037281534
CAB010,國一S001K,2023-03-21,25.11583,121.7286,0.0013361159
CAB020,國一S006K,2023-03-21,25.08694,121.6869,0.0017270376
CAB030,國三S004K,2023-03-21,25.11444,121.6886,0.0064084586
CAB040,國三S007K,2023-03-21,25.09694,121.6678,0.0018822721
CAB050,國三K002K,2023-03-21,25.14583,121.7217,0.0014435248
CAC010,國一S072K,2023-03-21,24.89583,121.1342,0.001327468
CAC020,國二E009K,2023-03-21,25.02111,121.2736,0.001806043
CAC030,國三N063K,2023-03-21,24.889,121.26,0.0021380659
CAC050,西濱S023K,2023-03-21,25.11649,121.27551,0.0018799827
CAC060,西濱S032K,2023-03-21,25.091966,121.192505,0.0018441956
CAD010,國一S105K,2023-03-21,24.726316,120.940643,0.0009812248
CAD020,國一N077K,2023-03-21,24.885,121.0889,0.0014483953
CAD030,國一S082K,2023-03-21,24.87667,121.0467,0.00070228183
CAD040,國一S088K,2023-03-21,24.84444,121.0214,0.0016614571
CAD050,國一N094K,2023-03-21,24.79778,121.0089,0.0016145571
CAD060,國一S098K,2023-03-21,24.76056,120.9911,0.0015325703
CAD070,國三N076K,2023-03-21,24.800303,121.195739,0.0014430315
CAD080,國三N085K,2023-03-21,24.78333,121.1211,0.0015536428
CAD090,國三S103K,2023-03-21,24.75861,120.9608,0.001764762
CAD100,西濱N066K,2023-03-21,24.8956,120.9649,0.00062258705
CAD110,西濱S082K,2023-03-21,24.751724,120.905028,0.001242066
CAE010,國一N142K,2023-03-21,24.453119,120.783221,0.0028208285
CAE020,國一S114K,2023-03-21,24.668835,120.885811,0.0010624035
CAE030,國一S123K,2023-03-21,24.59594,120.86071,0.003119083
CAE040,國一S132K,2023-03-21,24.524506,120.820831,0.0033332726
CAE050,國一S152K,2023-03-21,24.375492,120.749184,0.0019146841
CAE060,國三N119K,2023-03-21,24.675432,120.847389,0.0025111388
CAE070,國三N151K,2023-03-21,24.440218,120.681656,0.0038165858
CAE080,國三S140K,2023-03-21,24.522345,120.725006,0.0034207723
CAE090,國三S156K,2023-03-21,24.39798,120.669487,0.005223269
CAE100,西濱N107K,2023-03-21,24.5958,120.7394,0.003458544
CAE110,西濱S129K,2023-03-21,24.4472,120.6428,0.003327777
CAF010,國一N174K,2023-03-21,24.2049,120.6552,0.0050124484
CAF020,國一S162K,2023-03-21,24.295534,120.695976,0.0033946855
CAF030,國一S169K,2023-03-21,24.237116,120.688271,0.004423569
CAF040,國一S188K,2023-03-21,24.118546,120.585747,0.008788454
CAF050,國三N208K,2023-03-21,24.066147,120.660919,0.0062873303
CAF060,國三S168K,2023-03-21,24.308519,120.614471,0.0041211336
CAF070,國三S173K,2023-03-21,24.27397,120.593079,0.0027985226
CAF080,國三S178K,2023-03-21,24.226721,120.589058,0.003653629
CAF090,國四E5K,2023-03-21,24.296465,120.643135,0.0033229298
CAF100,西濱N151K,2023-03-21,24.275964,120.547681,0.0053988798
CAG010,國一N198K,2023-03-21,24.063889,120.523056,0.011216211
CAG030,國一S207K,2023-03-21,23.988304,120.508092,0.008583322
CAG040,國三N191K,2023-03-21,24.139256,120.5215,0.006207187
CAG050,國三N196K,2023-03-21,24.107155,120.554482,0.008872663
CAG060,國三S202K,2023-03-21,24.092468,120.603256,0.0073272623
CAG070,西濱S173K,2023-03-21,24.1081,120.434576,0.008573168
CAG080,西濱S189K,2023-03-21,23.987857,120.369607,0.0070690983
CAG090,西濱N210K,2023-03-21,23.843536,120.293236,0.009854271
CAG100,王功漁港,2023-03-21,23.96824,120.32586,0.0065342453
CAH010,國三N223K,2023-03-21,23.955116,120.662376,0.003232024
CAH020,國三S217K,2023-03-21,24.00683,120.653214,0.0038377137
CAH030,茶改場竹圍站,2023-03-21,23.860083,120.637528,0.0007237538
CAHA00,消防署訓練中心,2023-03-21,23.82137,120.72293,0.0018224769
CAJ010,國三N252K,2023-03-21,23.77412,120.64061,0.0017111982
CAJ020,國一N234K,2023-03-21,23.74633,120.467926,0.00395049
CAJ030,西濱N222K,2023-03-21,23.737734,120.256132,0.014406514
CAJ040,西濱S241K,2023-03-21,23.623426,120.172646,0.011626975
CAJ050,海口故事園區,2023-03-21,23.57543,120.14121,0.010486533
CAL010,國一N250K,2023-03-21,23.610292,120.436867,0.006017566
CAL020,國一S262K,2023-03-21,23.512333,120.403038,0.008240524
CAL030,國一N268K,2023-03-21,23.460833,120.375833,0.008324773
CAL040,國一N273K,2023-03-21,23.416666,120.355,0.01327821
CAL050,國三N279K,2023-03-21,23.596111,120.523333,0.0027522761
CAL060,國三S286K,2023-03-21,23.533917,120.484583,0.0025801496
CAL070,國三N295K,2023-03-21,23.468598,120.499369,0.0030818356
CAL080,國三N303K,2023-03-21,23.428611,120.452416,0.01090601
CAL090,西濱S257K,2023-03-21,23.502278,120.171861,0.01454814
CAL100,西濱S267K,2023-03-21,23.41613,120.162872,0.01766369
CAL110,布袋國中,2023-03-21,23.35893,120.18026,0.019240228
CAN010,國一N288K,2023-03-21,23.30609,120.290033,0.015376896
CAN020,國一S306K,2023-03-21,23.1565,120.239513,0.010104667
CAN030,國一N316K,2023-03-21,23.07309,120.253014,0.033367533
CAN040,國一N323K,2023-03-21,23.00421,120.245922,0.03325456
CAN050,國一N335K,2023-03-21,22.897584,120.269895,0.18938261
CAN060,國三S311K,2023-03-21,23.346388,120.438888,0.014883416
CAN070,國三S329K,2023-03-21,23.212777,120.355833,0.014831419
CAN080,國三N336K,2023-03-21,23.154722,120.345,0.012239126
CAN090,國三S342K,2023-03-21,23.106694,120.327528,0.029941311
CAN100,國三S366K,2023-03-21,22.9077,120.3513,0.083400466
CAN110,西濱S280K,2023-03-21,23.3052,120.14891,0.011479836
CAN120,西濱N304K,2023-03-21,23.103439,120.086694,0.009019909
CAN130,水試所海水繁養殖中心,2023-03-21,23.120802,120.07968,0.008909157
CAN140,六官養殖協會,2023-03-21,23.22881,120.29962,0.015166776
CAP010,國一S342K,2023-03-21,22.845555,120.295,0.028716229
CAP020,國一S346K,2023-03-21,22.812222,120.314166,0.029035218
CAP030,國一N351K,2023-03-21,22.765833,120.328888,0.029364614
CAP040,國一N361K,2023-03-21,22.680555,120.328611,0.0054773134
CAP050,國三N372K,2023-03-21,22.858611,120.373611,0.07575328
CAP060,國三S385K,2023-03-21,22.767777,120.444444,0.015123709
CAP070,高雄燈塔,2023-03-21,22.6146,120.2647,0.0029574092
CAQ010,國三N425K,2023-03-21,22.480277,120.531666,0.007870061
CAQ020,國三S415K,2023-03-21,22.568,120.528,0.009210697
CAQ030,崎峰國小,2023-03-21,22.42565,120.49521,0.0076480997
E2K600,四湖植物園,2023-03-21,23.676986,120.163433,0.009036021
E2P980,林試六龜中心,2023-03-21,22.991703,120.645722,0.012695885
E2S390,太麻里分所,2023-03-21,22.5988,120.9811,0.0024604741
E2S960,林試太麻里2,2023-03-21,22.598014,120.989761,0.0032008186
E2S980,林試太麻里1,2023-03-21,22.598922,120.980044,0.0024604741
G2AI50,關渡,2023-03-21,25.11575,121.492,0.0017153372
G2F820,農業試驗所,2023-03-21,24.031261,120.688133,0.0035508722
G2F820,農試所(霧峰),2023-03-21,24.031261,120.688133,0.0035508722
G2L020,嘉義分所,2023-03-21,23.485028,120.473806,0.0031123047
G2L020,嘉義農試,2023-03-21,23.485028,120.473806,0.0031123047
G2M350,溪口農場,2023-03-21,23.58565,120.408111,0.0059296074
G2P820,鳳山園試所,2023-03-21,22.646611,120.356083,0.0040897047
G2P820,鳳山農試,2023-03-21,22.646611,120.356083,0.0040897066
K2E360,苗栗農改,2023-03-21,24.495722,120.829111,0.0033998357
K2E360,苗栗農改場,2023-03-21,24.495722,120.829111,0.0033998357
K2E710,大湖分場,2023-03-21,24.422861,120.871833,0.0036193407
K2F750,種苗改良場,2023-03-21,24.225972,120.800917,0.001748996
K2F750,種苗繁殖,2023-03-21,24.225972,120.800917,0.001748996
U2HA50,臺大竹山,2023-03-21,23.756972,120.681556,0.0019780027
V2C250,八德合作社,2023-03-21,24.93775,121.266389,0.0016568115
V2C260,八德蔬果,2023-03-21,24.978508,121.281819,0.0015667389
V2K610,大庄合作社,2023-03-21,23.8068,120.367939,0.008017036
V2K620,麥寮合作社,2023-03-21,23.753836,120.294783,0.010866449
