站號,站名,日期,lat,lon,BlastGRU-TW
466920,臺北,2023-08-23,25.037658,121.514853,0.9291142
466940,基隆,2023-08-23,25.133314,121.740475,0.9765347
466990,花蓮,2023-08-23,23.975128,121.613275,0.107310705
467050,新屋,2023-08-23,25.006744,121.047486,0.9458909
467080,宜蘭,2023-08-23,24.763975,121.756528,0.34443155
467270,田中,2023-08-23,23.873803,120.581286,0.9946116
467300,東吉島,2023-08-23,23.25695,119.667467,0.08257713
467350,澎湖,2023-08-23,23.565503,119.563094,0.38072664
467410,臺南,2023-08-23,22.993239,120.204772,0.016962443
467420,永康,2023-08-23,23.038386,120.2367,0.05889754
467441,高雄,2023-08-23,22.7304,120.3125,0.013275506
467480,嘉義,2023-08-23,23.495925,120.432906,0.36568743
467490,臺中,2023-08-23,24.145736,120.684075,0.9653107
467540,大武,2023-08-23,22.355675,120.903789,0.9810163
467571,新竹,2023-08-23,24.827853,121.014219,0.9553478
467590,恆春,2023-08-23,22.003897,120.746339,0.99348634
467610,成功,2023-08-23,23.097486,121.373428,0.37899888
467620,蘭嶼,2023-08-23,22.036969,121.558339,0.99870795
467660,臺東,2023-08-23,22.752211,121.154586,0.63268167
467790,墾丁雷達站,2023-08-23,21.948235,120.808028,0.9949182
C0A520,山佳,2023-08-23,24.974944,121.402008,0.9287045
C0A530,坪林,2023-08-23,24.938183,121.70975,0.9704473
C0A540,四堵,2023-08-23,24.8926,121.745736,0.98516154
C0A550,泰平,2023-08-23,24.971197,121.823711,0.9382547
C0A560,福山,2023-08-23,24.776203,121.502811,0.98075306
C0A570,桶後,2023-08-23,24.848222,121.597992,0.98318267
C0A640,石碇,2023-08-23,24.993969,121.662917,0.9208975
C0A650,火燒寮,2023-08-23,25.002719,121.742892,0.9860851
C0A660,瑞芳,2023-08-23,25.113169,121.801147,0.94539654
C0A770,科教館,2023-08-23,25.096356,121.516507,0.9388419
C0A860,大坪,2023-08-23,25.165914,121.632969,0.9906998
C0A880,福隆,2023-08-23,25.017842,121.942083,0.59373826
C0A890,雙溪,2023-08-23,25.036003,121.864242,0.9779714
C0A920,富貴角,2023-08-23,25.263783,121.565258,0.9978239
C0A931,三和,2023-08-23,25.233153,121.595236,0.9916137
C0A940,金山,2023-08-23,25.223628,121.643967,0.9976248
C0A950,鼻頭角,2023-08-23,25.129036,121.923372,0.8433728
C0A970,三貂角,2023-08-23,25.007606,122.002058,0.61951226
C0A980,社子,2023-08-23,25.109508,121.469681,0.9379904
C0A9C0,天母,2023-08-23,25.117494,121.537169,0.96365213
C0A9F0,內湖,2023-08-23,25.079422,121.57545,0.9536765
C0AC60,三峽,2023-08-23,24.939025,121.369728,0.8740192
C0AC70,信義,2023-08-23,25.037822,121.564597,0.9225779
C0AC80,文山,2023-08-23,25.00235,121.575728,0.9150934
C0ACA0,新莊,2023-08-23,25.051478,121.446756,0.9655852
C0AD00,三芝,2023-08-23,25.258131,121.501917,0.98504585
C0AD10,八里,2023-08-23,25.150211,121.403947,0.9865411
C0AD30,蘆洲,2023-08-23,25.086594,121.472331,0.938673
C0AD40,土城,2023-08-23,24.973208,121.445169,0.9812888
C0AD50,鶯歌,2023-08-23,24.951533,121.346294,0.9188239
C0AG80,中和,2023-08-23,24.991622,121.491792,0.89830136
C0AH00,汐止,2023-08-23,25.066881,121.658778,0.9798874
C0AH10,永和,2023-08-23,25.01125,121.508111,0.8966976
C0AH40,平等,2023-08-23,25.129142,121.577086,0.9834528
C0AH50,林口,2023-08-23,25.072181,121.38084,0.9109193
C0AH70,松山,2023-08-23,25.04871,121.55042,0.9225779
C0AH80,深坑,2023-08-23,25.002703,121.628328,0.958514
C0AI00,五股,2023-08-23,25.07445,121.42728,0.94200784
C0AI10,屈尺,2023-08-23,24.92184,121.54475,0.960272
C0AI20,白沙灣,2023-08-23,25.283128,121.519058,0.996851
C0AI30,三重,2023-08-23,25.057328,121.500629,0.9407627
C0AI40,石牌,2023-08-23,25.115597,121.513139,0.9396311
C0AJ20,野柳,2023-08-23,25.20703,121.690021,0.9836074
C0AJ30,淡水觀海,2023-08-23,25.184591,121.408616,0.97325623
C0AJ40,石門,2023-08-23,25.273672,121.601198,0.9988451
C0AJ50,水湳洞,2023-08-23,25.123695,121.862238,0.9901077
C0AJ60,六塊厝,2023-08-23,25.24,121.4481,0.98952246
C0AJ70,田寮,2023-08-23,25.2698,121.4886,0.98220295
C0AJ80,板橋,2023-08-23,25.0107,121.4489,0.95009696
C0AJ90,澳底,2023-08-23,25.0552,121.9253,0.6619079
C0B010,七堵,2023-08-23,25.094819,121.71713,0.97497785
C0B020,基隆嶼,2023-08-23,25.19141,121.78391,0.9778322
C0B040,大武崙,2023-08-23,25.166676,121.706993,0.98274225
C0B050,八斗子,2023-08-23,25.144754,121.79167,0.98513764
C0B060,暖暖,2023-08-23,25.0957,121.7403,0.9881243
C0C460,復興,2023-08-23,24.820208,121.352281,0.99763304
C0C480,桃園,2023-08-23,24.992425,121.323172,0.9463775
C0C490,八德,2023-08-23,24.928708,121.283289,0.92242235
C0C590,觀音,2023-08-23,25.027072,121.153317,0.99184567
C0C620,蘆竹,2023-08-23,25.084275,121.265767,0.9855007
C0C630,大溪,2023-08-23,24.882853,121.265547,0.96330243
C0C650,平鎮,2023-08-23,24.897503,121.214636,0.9864772
C0C660,楊梅,2023-08-23,24.912375,121.143047,0.991141
C0C670,龍潭,2023-08-23,24.870056,121.221389,0.9672881
C0C680,龜山,2023-08-23,25.02846,121.38656,0.9247998
C0C700,中壢,2023-08-23,24.977661,121.256375,0.9542548
C0C710,大溪永福,2023-08-23,24.892936,121.324975,0.93905133
C0C720,竹圍,2023-08-23,25.112692,121.239824,0.9849049
C0C730,中大臨海站,2023-08-23,24.966126,121.008581,0.96227545
C0C740,觀音工業區,2023-08-23,25.064764,121.114856,0.9709942
C0C750,新興坑尾,2023-08-23,25.0061,121.0971,0.95833683
C0D430,峨眉,2023-08-23,24.6905,121.017189,0.98070234
C0D480,打鐵坑,2023-08-23,24.849664,121.150789,0.9499936
C0D540,橫山,2023-08-23,24.71116,121.11693,0.98537827
C0D560,竹東,2023-08-23,24.767147,121.057881,0.9650896
C0D580,寶山,2023-08-23,24.735006,121.025192,0.88560444
C0D590,新豐,2023-08-23,24.87068,120.97721,0.8393659
C0D650,湖口,2023-08-23,24.904794,121.043628,0.9617503
C0D660,新竹市東區,2023-08-23,24.798681,120.986942,0.9629808
C0D670,海天一線,2023-08-23,24.831986,120.914438,0.987225
C0D680,香山濕地,2023-08-23,24.783581,120.914988,0.9828635
C0D690,外湖,2023-08-23,24.917735,120.968711,0.97625315
C0D700,關西,2023-08-23,24.7977,121.1732,0.9872164
C0E420,竹南,2023-08-23,24.708978,120.888897,0.9758329
C0E430,南庄,2023-08-23,24.601775,121.000214,0.99692506
C0E520,大湖,2023-08-23,24.41494,120.87087,0.96750605
C0E540,後龍,2023-08-23,24.606489,120.783933,0.9980104
C0E550,明德,2023-08-23,24.583486,120.885411,0.8619234
C0E590,通霄,2023-08-23,24.471892,120.704622,0.9915832
C0E730,頭份,2023-08-23,24.688247,120.912206,0.9654542
C0E740,造橋,2023-08-23,24.637056,120.864778,0.8555163
C0E750,苗栗,2023-08-23,24.564569,120.824575,0.9967466
C0E780,銅鑼,2023-08-23,24.489681,120.790853,0.81565887
C0E791,卓蘭,2023-08-23,24.3126,120.8244,0.99924564
C0E810,西湖,2023-08-23,24.562947,120.7485,0.9972496
C0E820,獅潭,2023-08-23,24.539133,120.920042,0.9927328
C0E830,苑裡,2023-08-23,24.439714,120.653053,0.99519336
C0E850,大河,2023-08-23,24.618069,120.948578,0.96943766
C0E870,高鐵苗栗,2023-08-23,24.60725,120.826094,0.9972876
C0E910,海埔,2023-08-23,24.648767,120.772435,0.9688632
C0E920,通霄漁港,2023-08-23,24.498589,120.673876,0.9954159
C0E930,龍鳳,2023-08-23,24.700034,120.859125,0.9303767
C0F0B0,石岡,2023-08-23,24.276061,120.777644,0.9968843
C0F850,東勢,2023-08-23,24.246428,120.833047,0.99927014
C0F930,大甲,2023-08-23,24.347667,120.640403,0.9893189
C0F970,大坑,2023-08-23,24.173142,120.722289,0.94702667
C0F9A0,中竹林,2023-08-23,24.103556,120.751061,0.9801845
C0F9I0,神岡,2023-08-23,24.272481,120.658314,0.4810088
C0F9K0,大安,2023-08-23,24.345061,120.588025,0.9916916
C0F9L0,后里,2023-08-23,24.310436,120.729725,0.70911384
C0F9M0,豐原,2023-08-23,24.254322,120.720692,0.5832477
C0F9N0,大里,2023-08-23,24.092464,120.701378,0.9759673
C0F9O0,潭子,2023-08-23,24.213106,120.703933,0.29968292
C0F9P0,清水,2023-08-23,24.312297,120.562242,0.99401253
C0F9Q0,外埔,2023-08-23,24.347817,120.705686,0.57188505
C0F9R0,龍井,2023-08-23,24.184536,120.528972,0.9932179
C0F9S0,烏日,2023-08-23,24.107058,120.624103,0.9834478
C0F9T0,西屯,2023-08-23,24.179494,120.641275,0.9831925
C0F9U0,南屯,2023-08-23,24.137006,120.637969,0.97702456
C0F9X0,大雅(中科園區),2023-08-23,24.21528,120.62445,0.9842623
C0FA10,松柏,2023-08-23,24.429115,120.617482,0.9933959
C0FA20,溫寮,2023-08-23,24.372177,120.583125,0.9916529
C0FA30,梧棲,2023-08-23,24.256003,120.523381,0.995333
C0FA40,臺中電廠,2023-08-23,24.2146,120.4907,0.9933165
C0FA50,霧峰,2023-08-23,24.0419,120.6995,0.9869546
C0G620,芬園,2023-08-23,24.015678,120.6213,0.9928952
C0G640,鹿港,2023-08-23,24.0753,120.430481,0.9907125
C0G650,員林,2023-08-23,23.946503,120.585597,0.9957443
C0G660,溪湖,2023-08-23,23.94835,120.479122,0.9925626
C0G720,溪州,2023-08-23,23.851589,120.499093,0.99543893
C0G730,二林,2023-08-23,23.903325,120.376081,0.9931029
C0G740,大城,2023-08-23,23.852487,120.320935,0.32741353
C0G770,福興,2023-08-23,24.041289,120.437669,0.99059355
C0G780,秀水,2023-08-23,24.03405,120.503869,0.9892623
C0G800,埔鹽,2023-08-23,24.000394,120.431683,0.9910137
C0G810,埔心,2023-08-23,23.947633,120.525456,0.9926018
C0G820,田尾,2023-08-23,23.901669,120.509389,0.99498534
C0G830,埤頭,2023-08-23,23.866003,120.452806,0.9963226
C0G840,北斗,2023-08-23,23.877586,120.514222,0.99498534
C0G860,社頭,2023-08-23,23.897647,120.5862,0.99499804
C0G870,芳苑,2023-08-23,23.922303,120.320025,0.347829
C0G880,二水,2023-08-23,23.810742,120.6173,0.9947264
C0G890,伸港,2023-08-23,24.148933,120.484403,0.99198884
C0G900,線西,2023-08-23,24.143358,120.443536,0.99610245
C0G910,花壇,2023-08-23,24.032076,120.549461,0.9893537
C0G920,永靖,2023-08-23,23.924703,120.547533,0.9947203
C0G940,竹塘,2023-08-23,23.848253,120.386764,0.9941934
C0G950,防潮門,2023-08-23,24.1835,120.4871,0.9930944
C0G960,福寶,2023-08-23,24.0443,120.3814,0.99355364
C0G970,三豐,2023-08-23,23.882,120.2895,0.34637177
C0H890,埔里,2023-08-23,23.972169,120.952425,0.9907023
C0H950,中寮,2023-08-23,23.884447,120.766406,0.97705084
C0H960,草屯,2023-08-23,23.973672,120.68085,0.9904667
C0I110,竹山,2023-08-23,23.761225,120.688156,0.99745053
C0I360,水里,2023-08-23,23.812553,120.849792,0.9962736
C0I380,集集,2023-08-23,23.828206,120.801467,0.99859685
C0I410,名間,2023-08-23,23.837053,120.701447,0.9951887
C0I420,國姓,2023-08-23,24.037803,120.855072,0.9427839
C0I460,南投,2023-08-23,23.911469,120.687331,0.9948909
C0K250,崙背,2023-08-23,23.75555,120.318925,0.26661927
C0K280,四湖,2023-08-23,23.630414,120.227125,0.21301804
C0K291,宜梧,2023-08-23,23.536281,120.169329,0.33030555
C0K330,虎尾,2023-08-23,23.719183,120.442036,0.9930986
C0K390,土庫,2023-08-23,23.679029,120.395574,0.991976
C0K400,斗六,2023-08-23,23.720583,120.541127,0.9949517
C0K410,北港,2023-08-23,23.573957,120.292802,0.5401595
C0K420,西螺,2023-08-23,23.800407,120.467394,0.9947812
C0K430,褒忠,2023-08-23,23.690938,120.303634,0.2704597
C0K440,二崙,2023-08-23,23.772797,120.408944,0.9924527
C0K450,大埤,2023-08-23,23.646074,120.431537,0.99262357
C0K460,斗南,2023-08-23,23.678734,120.478359,0.9947241
C0K470,林內,2023-08-23,23.748675,120.609642,0.9954364
C0K480,莿桐,2023-08-23,23.761192,120.502372,0.99377704
C0K500,元長,2023-08-23,23.64981,120.315024,0.25773326
C0K510,水林,2023-08-23,23.572924,120.24597,0.39274442
C0K530,臺西,2023-08-23,23.701547,120.197559,0.21091524
C0K550,蔦松,2023-08-23,23.514319,120.229736,0.47797066
C0K560,棋山,2023-08-23,23.68645,120.603417,0.9969668
C0K580,高鐵雲林,2023-08-23,23.737456,120.417944,0.99222094
C0K590,雲林東勢,2023-08-23,23.674192,120.255721,0.2198326
C0K600,箔子寮,2023-08-23,23.6197,120.14,0.20072576
C0M410,馬頭山,2023-08-23,23.324361,120.582017,0.99976885
C0M520,東後寮,2023-08-23,23.369908,120.248065,0.8566719
C0M640,中埔,2023-08-23,23.42538,120.5229,0.98772675
C0M650,朴子,2023-08-23,23.43463,120.23902,0.5085507
C0M660,溪口,2023-08-23,23.604131,120.403569,0.3152549
C0M670,大林,2023-08-23,23.600616,120.45841,0.39987406
C0M680,太保,2023-08-23,23.455062,120.331455,0.60003895
C0M690,水上,2023-08-23,23.419734,120.388909,0.30557597
C0M700,竹崎,2023-08-23,23.526178,120.555508,0.9956718
C0M710,東石,2023-08-23,23.458927,120.15385,0.14400904
C0M720,番路,2023-08-23,23.464657,120.554156,0.99348676
C0M730,嘉義市東區,2023-08-23,23.457673,120.460531,0.40584767
C0M740,六腳,2023-08-23,23.492871,120.290625,0.6549849
C0M750,布袋,2023-08-23,23.380878,120.167789,0.22988737
C0M760,民雄,2023-08-23,23.551754,120.428457,0.36911678
C0M770,嘉義梅山,2023-08-23,23.585398,120.555587,0.9970292
C0M780,鹿草,2023-08-23,23.41134,120.30835,0.7188131
C0M790,新港,2023-08-23,23.553269,120.345728,0.67782915
C0M800,茶山,2023-08-23,23.299075,120.664767,0.99904627
C0M880,好美里,2023-08-23,23.3364,120.138,0.1655807
C0N010,鯤鯓國小,2023-08-23,23.1879,120.0889,0.02062395
C0N020,城西,2023-08-23,23.0568,120.0956,0.02093249
C0N030,四草,2023-08-23,23.0235,120.1116,0.023044927
C0N040,蘆竹溝,2023-08-23,23.2344,120.0961,0.034798287
C0N050,蚵寮,2023-08-23,23.301,120.1104,0.051158965
C0O810,曾文,2023-08-23,23.219681,120.497328,0.51871645
C0O830,北寮,2023-08-23,23.079561,120.495008,0.9967843
C0O840,王爺宮,2023-08-23,23.222064,120.40085,0.4638361
C0O860,大內,2023-08-23,23.11885,120.36083,0.35181296
C0O900,善化,2023-08-23,23.112883,120.297219,0.3214859
C0O930,玉井,2023-08-23,23.126042,120.46055,0.4227997
C0O950,安南,2023-08-23,23.076694,120.144861,0.012579587
C0O960,崎頂,2023-08-23,22.959547,120.369317,0.9940907
C0O970,虎頭埤,2023-08-23,23.021375,120.347878,0.6030308
C0O980,新市,2023-08-23,23.061614,120.298197,0.23430596
C0O990,媽廟,2023-08-23,22.99175,120.293525,0.14260542
C0R150,三地門,2023-08-23,22.709889,120.639944,0.8206872
C0R160,鹽埔,2023-08-23,22.739558,120.530778,0.9342719
C0R170,屏東,2023-08-23,22.660269,120.494072,0.053614955
C0R190,赤山,2023-08-23,22.592333,120.614306,0.4759948
C0R220,潮州,2023-08-23,22.534361,120.54,0.75852704
C0R240,來義,2023-08-23,22.527306,120.625111,0.15523337
C0R260,春日,2023-08-23,22.370361,120.628306,0.03625065
C0R270,琉球嶼,2023-08-23,22.332244,120.362236,0.2764883
C0R280,檳榔,2023-08-23,22.076078,120.836777,0.9981127
C0R320,車城,2023-08-23,22.0744,120.716247,0.9920088
C0R341,牡丹,2023-08-23,22.130036,120.792639,0.99880505
C0R350,貓鼻頭,2023-08-23,21.921774,120.7358,0.9940463
C0R470,高樹,2023-08-23,22.826389,120.600806,0.88449574
C0R480,長治,2023-08-23,22.693128,120.542622,0.9215812
C0R490,九如,2023-08-23,22.7405,120.490503,0.07577429
C0R520,崁頂,2023-08-23,22.514781,120.506914,0.012622006
C0R540,佳冬,2023-08-23,22.419456,120.552375,0.012326228
C0R550,新埤,2023-08-23,22.467947,120.582894,0.07522613
C0R560,新園,2023-08-23,22.5434,120.461558,0.012042774
C0R570,麟洛,2023-08-23,22.65078,120.52719,0.053890757
C0R580,南州,2023-08-23,22.48591,120.50274,0.012599404
C0R590,里港,2023-08-23,22.77919,120.49459,0.9462797
C0R620,墾雷,2023-08-23,21.900836,120.855269,0.99442255
C0R640,東港,2023-08-23,22.46247,120.44074,0.01725639
C0R650,竹田,2023-08-23,22.58486,120.54344,0.87735546
C0R660,枋寮,2023-08-23,22.367722,120.590647,0.070001386
C0R670,楓港,2023-08-23,22.190131,120.692156,0.9982659
C0R680,佳樂水,2023-08-23,21.993578,120.861633,0.9928789
C0R690,墾丁,2023-08-23,21.966756,120.810269,0.99818635
C0R700,枋山,2023-08-23,22.246844,120.661086,0.9976589
C0R710,龍磐,2023-08-23,21.931672,120.838942,0.99666315
C0R720,旭海,2023-08-23,22.205403,120.887614,0.9861919
C0R730,大坪頂,2023-08-23,22.024633,120.69355,0.9971479
C0R740,獅子,2023-08-23,22.201569,120.70525,0.9984953
C0R760,南仁湖,2023-08-23,22.084681,120.863353,0.9983314
C0R770,保力,2023-08-23,22.071122,120.764111,0.99581736
C0R780,滿州,2023-08-23,22.024403,120.839892,0.99450135
C0R790,九棚,2023-08-23,22.14195,120.889281,0.9832289
C0R800,丹路,2023-08-23,22.204481,120.750989,0.9985189
C0R810,內獅,2023-08-23,22.305064,120.642986,0.99766773
C0R830,高士,2023-08-23,22.121825,120.836781,0.9983067
C0R850,林邊,2023-08-23,22.4634,120.5339,0.012999721
C0R860,鼻頭,2023-08-23,22.1043,120.8979,0.9974999
C0R870,興海,2023-08-23,21.9752,120.8439,0.9928789
C0R880,後壁湖,2023-08-23,21.9457,120.7457,0.9911974
C0R890,山海,2023-08-23,21.9878,120.7091,0.99134207
C0R900,竹坑,2023-08-23,22.1385,120.7022,0.9932653
C0R910,下寮,2023-08-23,22.3929,120.5548,0.012306384
C0R920,塭仔,2023-08-23,22.4169,120.5197,0.016415168
C0R930,萬丹,2023-08-23,22.5885,120.4851,0.68541545
C0R940,加祿堂,2023-08-23,22.3363,120.6217,0.036780987
C0S710,鹿野,2023-08-23,22.917711,121.122994,0.42086706
C0S730,綠島,2023-08-23,22.6672,121.47533,0.4693508
C0S740,池上,2023-08-23,23.119628,121.209469,0.18372627
C0S770,大溪山,2023-08-23,22.478475,120.943325,0.9217151
C0S790,金崙,2023-08-23,22.538122,120.966875,0.9691429
C0S810,東河,2023-08-23,22.972672,121.303986,0.32805353
C0S830,長濱,2023-08-23,23.286817,121.411975,0.42960432
C0S840,南田,2023-08-23,22.279725,120.889208,0.9536736
C0S890,關山,2023-08-23,23.0395,121.175017,0.33770198
C0S900,蘭嶼高中,2023-08-23,22.04909,121.51214,0.99934036
C0S910,蘭嶼燈塔,2023-08-23,22.081197,121.503117,0.9992022
C0S920,金峰嘉蘭,2023-08-23,22.594789,120.960825,0.9915683
C0S930,延平,2023-08-23,22.902581,121.084058,0.9085743
C0S940,石寧山,2023-08-23,23.223772,121.406639,0.26226455
C0S950,七塊厝,2023-08-23,22.954453,121.229922,0.5118885
C0S960,香蘭,2023-08-23,22.587569,120.993375,0.83059454
C0S970,加津林,2023-08-23,22.416211,120.926942,0.84901774
C0S990,山豬窟,2023-08-23,22.318619,120.857372,0.9869731
C0SA00,歷坵,2023-08-23,22.520969,120.89185,0.99240226
C0SA10,檳榔四格山,2023-08-23,22.810031,121.109308,0.74635863
C0SA30,都歷,2023-08-23,23.020333,121.323642,0.34699607
C0SA40,瑞和,2023-08-23,22.974361,121.156697,0.42932507
C0SA60,知本（水試所）,2023-08-23,22.702394,121.082761,0.68159556
C0SA80,土坂,2023-08-23,22.453108,120.887572,0.99079365
C0SA90,達仁林場,2023-08-23,22.264347,120.823972,0.99791247
C0T870,鯉魚潭,2023-08-23,23.935639,121.508944,0.35452202
C0T900,西林,2023-08-23,23.8119,121.441458,0.27403748
C0T960,光復,2023-08-23,23.660694,121.424964,0.19180985
C0T9A0,月眉山,2023-08-23,23.809928,121.539828,0.19883505
C0T9D0,和中,2023-08-23,24.26676,121.74103,0.062564895
C0T9E0,大坑,2023-08-23,23.880628,121.581981,0.1293574
C0T9F0,水璉,2023-08-23,23.797131,121.542514,0.21867658
C0T9I0,豐濱,2023-08-23,23.583897,121.514806,0.28558412
C0T9M0,靜浦,2023-08-23,23.455167,121.495028,0.24696605
C0T9N0,富里,2023-08-23,23.171639,121.249378,0.28454903
C0U600,礁溪,2023-08-23,24.817539,121.765608,0.46227938
C0U650,玉蘭,2023-08-23,24.675286,121.587061,0.9224506
C0U750,龜山島,2023-08-23,24.841667,121.953133,0.20160303
C0U760,東澳,2023-08-23,24.52196,121.83318,0.22993115
C0U770,南澳,2023-08-23,24.44935,121.81022,0.13360183
C0U780,五結,2023-08-23,24.68637,121.79794,0.42814687
C0U860,頭城,2023-08-23,24.85323,121.8308,0.59789157
C0U870,大礁溪,2023-08-23,24.791042,121.675047,0.8099615
C0U880,北關,2023-08-23,24.9072,121.8734,0.9449657
C0U890,三星,2023-08-23,24.66812,121.65302,0.8747486
C0U900,內城,2023-08-23,24.71813,121.68766,0.39741644
C0U910,冬山,2023-08-23,24.63373,121.7937,0.5393435
C0U940,羅東,2023-08-23,24.68184,121.74934,0.35514525
C0U970,大福,2023-08-23,24.80064,121.81389,0.5030573
C0U990,員山,2023-08-23,24.74435,121.72247,0.35831058
C0UA00,土場,2023-08-23,24.576533,121.495333,0.99062085
C0UA80,大溪漁港,2023-08-23,24.941801,121.902955,0.68941504
C0UA90,石城,2023-08-23,24.980444,121.951214,0.6148934
C0UB00,淡江大學蘭陽校園,2023-08-23,24.823239,121.730383,0.18969692
C0UB10,蘇澳,2023-08-23,24.5969,121.8571,0.1944476
C0UB20,壯圍,2023-08-23,24.7359,121.8163,0.46564513
C0V250,甲仙,2023-08-23,23.080106,120.591758,0.9943167
C0V260,月眉,2023-08-23,22.971003,120.539853,0.99644
C0V310,美濃,2023-08-23,22.898742,120.519153,0.4779791
C0V350,溪埔,2023-08-23,22.738578,120.446797,0.05705145
C0V360,內門,2023-08-23,22.975481,120.466769,0.6956855
C0V370,古亭坑,2023-08-23,22.893178,120.401947,0.27500287
C0V400,阿公店,2023-08-23,22.804194,120.355528,0.03437016
C0V440,鳳山,2023-08-23,22.646653,120.356122,0.011908451
C0V450,鳳森,2023-08-23,22.545064,120.392592,0.053721864
C0V490,新興,2023-08-23,22.627422,120.298803,0.013147848
C0V530,阿蓮,2023-08-23,22.883208,120.327508,0.03495991
C0V610,梓官,2023-08-23,22.760558,120.267211,0.015267931
C0V620,永安,2023-08-23,22.82315,120.236856,0.014248817
C0V630,茄萣,2023-08-23,22.906642,120.182608,0.01858406
C0V640,湖內,2023-08-23,22.887139,120.2445,0.021277219
C0V650,彌陀,2023-08-23,22.783806,120.246361,0.015714297
C0V660,岡山,2023-08-23,22.797078,120.294958,0.016542096
C0V680,仁武,2023-08-23,22.701083,120.347722,0.015935147
C0V690,鼓山,2023-08-23,22.623325,120.275575,0.029967282
C0V700,三民,2023-08-23,22.645017,120.311233,0.013206972
C0V710,苓雅,2023-08-23,22.622742,120.330669,0.013340102
C0V720,林園,2023-08-23,22.507747,120.394511,0.017520158
C0V730,大寮,2023-08-23,22.605614,120.395717,0.053172063
C0V740,旗山,2023-08-23,22.888614,120.483597,0.47641897
C0V750,路竹,2023-08-23,22.854997,120.259439,0.014979958
C0V760,橋頭,2023-08-23,22.757806,120.30575,0.0139869405
C0V770,大社,2023-08-23,22.730306,120.346639,0.022654224
C0V790,萬山,2023-08-23,22.905944,120.688056,0.99873066
C0V800,六龜,2023-08-23,22.997889,120.633583,0.9941984
C0V810,左營,2023-08-23,22.67491,120.28491,0.013215712
C0V820,小林,2023-08-23,23.148408,120.63325,0.99916416
C0V840,鳳鼻頭,2023-08-23,22.5083,120.3591,0.018310348
C0V850,蚵仔寮,2023-08-23,22.7256,120.2527,0.014844865
C0V860,南寮,2023-08-23,22.7616,120.2339,0.015071008
C0V870,文安,2023-08-23,22.8025,120.2164,0.022206733
C0V880,興達,2023-08-23,22.8778,120.2127,0.01902715
C0V890,前鎮,2023-08-23,22.5718,120.3117,0.022502013
C0V900,汕尾,2023-08-23,22.4782,120.4151,0.01184103
C0X050,東河,2023-08-23,23.296598,120.385608,0.47688684
C0X060,下營,2023-08-23,23.22695,120.256261,0.73227847
C0X080,佳里,2023-08-23,23.173039,120.145086,0.027883496
C0X100,臺南市北區,2023-08-23,23.010394,120.194228,0.016774248
C0X110,臺南市南區,2023-08-23,22.961189,120.188378,0.018670922
C0X120,麻豆,2023-08-23,23.183289,120.248611,0.6525358
C0X130,官田,2023-08-23,23.193217,120.315422,0.76047236
C0X140,西港,2023-08-23,23.125608,120.203108,0.11330782
C0X150,安定,2023-08-23,23.102614,120.227839,0.118199155
C0X160,仁德,2023-08-23,22.968258,120.257689,0.025237093
C0X170,關廟,2023-08-23,22.963017,120.327797,0.06024347
C0X180,山上,2023-08-23,23.0757,120.363253,0.76444054
C0X190,安平,2023-08-23,22.993161,120.152181,0.014483379
C0X200,左鎮,2023-08-23,23.056758,120.408522,0.772422
C0X210,白河,2023-08-23,23.347466,120.414427,0.61361027
C0X220,學甲,2023-08-23,23.230367,120.182187,0.30189052
C0X230,鹽水,2023-08-23,23.272621,120.247641,0.72209394
C0X240,關子嶺,2023-08-23,23.331169,120.508025,0.99888337
C0X250,新營,2023-08-23,23.310689,120.316681,0.8023125
C0X260,後壁,2023-08-23,23.366358,120.362326,0.8775934
C0X280,將軍,2023-08-23,23.214999,120.13577,0.04009213
C0X290,北門,2023-08-23,23.267772,120.125481,0.05764619
C0X300,鹿寮,2023-08-23,23.386047,120.477331,0.9904217
C0X310,七股,2023-08-23,23.147289,120.086253,0.018280394
C0X320,柳營,2023-08-23,23.253328,120.375253,0.44790247
C0Z020,明里,2023-08-23,23.208717,121.262342,0.21719669
C0Z061,玉里,2023-08-23,23.3215,121.339656,0.21418989
C0Z070,舞鶴,2023-08-23,23.46811,121.37407,0.2040596
C0Z080,富源,2023-08-23,23.587642,121.378225,0.32292587
C0Z100,東華,2023-08-23,23.89525,121.549833,0.1269071
C0Z150,吉安光華,2023-08-23,23.930925,121.595153,0.12492591
C0Z160,鳳林,2023-08-23,23.746114,121.453411,0.20433168
C0Z170,卓溪,2023-08-23,23.3443,121.3029,0.29731935
C0Z180,新城,2023-08-23,24.03946,121.60454,0.11982875
C0Z190,富世,2023-08-23,24.14743,121.6297,0.15245979
C0Z200,萬榮,2023-08-23,23.709219,121.420106,0.1611582
C0Z210,瑞穗,2023-08-23,23.5239,121.39021,0.24131587
C0Z230,和平,2023-08-23,24.30717,121.77007,0.122296005
C0Z270,蕃薯寮,2023-08-23,23.73835,121.540108,0.2033371
C0Z280,德武,2023-08-23,23.47426,121.41071,0.3018328
C0Z300,東里,2023-08-23,23.26853,121.30547,0.31459272
C0Z310,清水斷崖,2023-08-23,24.218294,121.689142,0.0857078
C0Z330,安通山,2023-08-23,23.290728,121.348528,0.6578531
