站號,站名,日期,lat,lon,BlastGRU-TW
466881,新北,2023-06-27,24.9593,121.52,0.9695819
466900,淡水,2023-06-27,25.1649,121.4489,0.1101601
466920,臺北,2023-06-27,25.0377,121.5149,0.21120892
466940,基隆,2023-06-27,25.1333,121.7405,0.1313004
466990,花蓮,2023-06-27,23.9751,121.6133,0.7916524
467050,新屋,2023-06-27,25.0067,121.0475,0.51625204
467080,宜蘭,2023-06-27,24.764,121.7565,0.20482521
467270,田中,2023-06-27,23.8738,120.5813,0.09338161
467300,東吉島,2023-06-27,23.2569,119.6675,0.63749135
467350,澎湖,2023-06-27,23.5655,119.5631,0.61406523
467410,臺南,2023-06-27,22.9932,120.2048,0.06266311
467420,永康,2023-06-27,23.0384,120.2367,0.06972789
467441,高雄,2023-06-27,22.7304,120.3125,0.1266846
467480,嘉義,2023-06-27,23.4959,120.4329,0.10823796
467490,臺中,2023-06-27,24.1457,120.6841,0.34355277
467540,大武,2023-06-27,22.3557,120.9038,0.17429219
467571,新竹,2023-06-27,24.8279,121.0142,0.7132015
467590,恆春,2023-06-27,22.0039,120.7463,0.40147796
467610,成功,2023-06-27,23.0975,121.3734,0.23752938
467620,蘭嶼,2023-06-27,22.037,121.5583,0.9926572
467660,臺東,2023-06-27,22.7522,121.1546,0.19092096
467790,墾丁雷達站,2023-06-27,21.9482,120.808,0.43379787
C0A520,山佳,2023-06-27,24.9749,121.402,0.3386378
C0A530,坪林,2023-06-27,24.9382,121.7097,0.68552697
C0A540,四堵,2023-06-27,24.8926,121.7457,0.17140982
C0A550,泰平,2023-06-27,24.9712,121.8237,0.66047394
C0A560,福山,2023-06-27,24.7762,121.5028,0.78536314
C0A570,桶後,2023-06-27,24.8482,121.598,0.49313188
C0A640,石碇,2023-06-27,24.994,121.6629,0.27270803
C0A650,火燒寮,2023-06-27,25.0027,121.7429,0.43356493
C0A660,瑞芳,2023-06-27,25.1132,121.8011,0.14589989
C0A770,科教館,2023-06-27,25.0964,121.5165,0.14289953
C0A860,大坪,2023-06-27,25.1659,121.633,0.96235025
C0A880,福隆,2023-06-27,25.0178,121.9421,0.068495706
C0A890,雙溪,2023-06-27,25.036,121.8642,0.056885604
C0A920,富貴角,2023-06-27,25.2638,121.5653,0.84205264
C0A931,三和,2023-06-27,25.2332,121.5952,0.8308405
C0A940,金山,2023-06-27,25.2236,121.644,0.76116276
C0A950,鼻頭角,2023-06-27,25.129,121.9234,0.10940048
C0A970,三貂角,2023-06-27,25.0076,122.0021,0.18092187
C0A980,社子,2023-06-27,25.1095,121.4697,0.13390398
C0A9C0,天母,2023-06-27,25.1175,121.5372,0.32006705
C0A9F0,內湖,2023-06-27,25.0794,121.5755,0.25753686
C0AC60,三峽,2023-06-27,24.939,121.3697,0.34523833
C0AC70,信義,2023-06-27,25.0378,121.5646,0.68746185
C0AC80,文山,2023-06-27,25.0023,121.5757,0.99746436
C0ACA0,新莊,2023-06-27,25.0515,121.4468,0.15471709
C0AD00,三芝,2023-06-27,25.2581,121.5019,0.73797774
C0AD10,八里,2023-06-27,25.1502,121.4039,0.55389744
C0AD30,蘆洲,2023-06-27,25.0866,121.4723,0.14289953
C0AD40,土城,2023-06-27,24.9732,121.4452,0.9973713
C0AD50,鶯歌,2023-06-27,24.9515,121.3463,0.43427253
C0AG80,中和,2023-06-27,24.9916,121.4918,0.9990468
C0AH00,汐止,2023-06-27,25.0669,121.6588,0.07773191
C0AH10,永和,2023-06-27,25.0113,121.5081,0.9990187
C0AH40,平等,2023-06-27,25.1291,121.5771,0.94241714
C0AH50,林口,2023-06-27,25.0722,121.3808,0.74123836
C0AH70,松山,2023-06-27,25.0487,121.5504,0.68746185
C0AH80,深坑,2023-06-27,25.0027,121.6283,0.23863688
C0AI00,五股,2023-06-27,25.0744,121.4273,0.7052657
C0AI10,屈尺,2023-06-27,24.9218,121.5447,0.7041822
C0AI20,白沙灣,2023-06-27,25.2831,121.5191,0.85608757
C0AI30,三重,2023-06-27,25.0573,121.5006,0.20326264
C0AI40,石牌,2023-06-27,25.1156,121.5131,0.15175878
C0AJ20,野柳,2023-06-27,25.207,121.69,0.21387334
C0AJ30,淡水觀海,2023-06-27,25.1846,121.4086,0.36953306
C0AJ40,石門,2023-06-27,25.2737,121.6012,0.8465581
C0AJ50,水湳洞,2023-06-27,25.1237,121.8622,0.063538425
C0AJ60,六塊厝,2023-06-27,25.24,121.4481,0.7343098
C0AJ70,田寮,2023-06-27,25.2698,121.4886,0.6215023
C0AJ80,板橋,2023-06-27,25.0107,121.4489,0.45675924
C0AJ90,澳底,2023-06-27,25.0552,121.9253,0.07282628
C0B010,七堵,2023-06-27,25.0948,121.7171,0.16285509
C0B020,基隆嶼,2023-06-27,25.1914,121.7839,0.14933455
C0B040,大武崙,2023-06-27,25.1667,121.707,0.31957176
C0B050,八斗子,2023-06-27,25.1448,121.7917,0.10670335
C0B060,暖暖,2023-06-27,25.0957,121.7403,0.14105777
C0C460,復興,2023-06-27,24.8202,121.3523,0.9290861
C0C480,桃園,2023-06-27,24.9924,121.3232,0.62155336
C0C490,八德,2023-06-27,24.9287,121.2833,0.48141003
C0C590,觀音,2023-06-27,25.0271,121.1533,0.8179437
C0C620,蘆竹,2023-06-27,25.0843,121.2658,0.49279526
C0C630,大溪,2023-06-27,24.8829,121.2655,0.79446757
C0C650,平鎮,2023-06-27,24.8975,121.2146,0.91886955
C0C660,楊梅,2023-06-27,24.9124,121.143,0.91833764
C0C670,龍潭,2023-06-27,24.8701,121.2214,0.9066801
C0C680,龜山,2023-06-27,25.0285,121.3866,0.72846
C0C700,中壢,2023-06-27,24.9777,121.2564,0.7106547
C0C710,大溪永福,2023-06-27,24.8929,121.325,0.81001616
C0C720,竹圍,2023-06-27,25.1127,121.2398,0.44372523
C0C730,中大臨海站,2023-06-27,24.9661,121.0086,0.61742026
C0C740,觀音工業區,2023-06-27,25.0648,121.1149,0.8553211
C0C750,新興坑尾,2023-06-27,25.0061,121.0971,0.8581979
C0D430,峨眉,2023-06-27,24.6905,121.0172,0.7876686
C0D480,打鐵坑,2023-06-27,24.8497,121.1508,0.9013738
C0D540,橫山,2023-06-27,24.7112,121.1169,0.92946815
C0D560,竹東,2023-06-27,24.7671,121.0579,0.74039644
C0D580,寶山,2023-06-27,24.735,121.0252,0.7729353
C0D590,新豐,2023-06-27,24.8707,120.9772,0.6782537
C0D650,湖口,2023-06-27,24.9048,121.0436,0.6129979
C0D660,新竹市東區,2023-06-27,24.7987,120.9869,0.7269767
C0D670,海天一線,2023-06-27,24.832,120.9144,0.84212244
C0D680,香山濕地,2023-06-27,24.7836,120.915,0.81147027
C0D690,外湖,2023-06-27,24.9177,120.9687,0.73103225
C0D700,關西,2023-06-27,24.7977,121.1732,0.85476226
C0E420,竹南,2023-06-27,24.709,120.8889,0.79484457
C0E430,南庄,2023-06-27,24.6018,121.0002,0.96231127
C0E520,大湖,2023-06-27,24.4149,120.8709,0.97601557
C0E540,後龍,2023-06-27,24.6065,120.7839,0.38539067
C0E550,明德,2023-06-27,24.5835,120.8854,0.64830124
C0E590,通霄,2023-06-27,24.4719,120.7046,0.34543326
C0E730,頭份,2023-06-27,24.6882,120.9122,0.7764056
C0E740,造橋,2023-06-27,24.6371,120.8648,0.58047473
C0E750,苗栗,2023-06-27,24.5646,120.8246,0.43267053
C0E780,銅鑼,2023-06-27,24.4897,120.7909,0.5946039
C0E791,卓蘭,2023-06-27,24.3126,120.8244,0.7760033
C0E810,西湖,2023-06-27,24.5629,120.7485,0.4119778
C0E820,獅潭,2023-06-27,24.5391,120.92,0.62157595
C0E830,苑裡,2023-06-27,24.4397,120.6531,0.3660984
C0E850,大河,2023-06-27,24.6181,120.9486,0.7139989
C0E870,高鐵苗栗,2023-06-27,24.6073,120.8261,0.3932688
C0E910,海埔,2023-06-27,24.6488,120.7724,0.64728844
C0E920,通霄漁港,2023-06-27,24.4986,120.6739,0.35314494
C0E930,龍鳳,2023-06-27,24.7,120.8591,0.5904388
C0F000,大肚,2023-06-27,24.153,120.5721,0.43745866
C0F0B0,石岡,2023-06-27,24.2761,120.7776,0.40922096
C0F850,東勢,2023-06-27,24.2464,120.833,0.81951046
C0F930,大甲,2023-06-27,24.3477,120.6404,0.3056382
C0F970,大坑,2023-06-27,24.1731,120.7223,0.29958797
C0F9A0,中竹林,2023-06-27,24.1036,120.7511,0.5360338
C0F9I0,神岡,2023-06-27,24.2725,120.6583,0.653297
C0F9K0,大安,2023-06-27,24.3451,120.588,0.31102312
C0F9L0,后里,2023-06-27,24.3104,120.7297,0.75793034
C0F9M0,豐原,2023-06-27,24.2543,120.7207,0.72664624
C0F9N0,大里,2023-06-27,24.0925,120.7014,0.22294731
C0F9O0,潭子,2023-06-27,24.2131,120.7039,0.6005297
C0F9P0,清水,2023-06-27,24.3123,120.5622,0.25647706
C0F9Q0,外埔,2023-06-27,24.3478,120.7057,0.58738595
C0F9R0,龍井,2023-06-27,24.1845,120.529,0.25775716
C0F9S0,烏日,2023-06-27,24.1071,120.6241,0.12166257
C0F9T0,西屯,2023-06-27,24.1795,120.6413,0.26027808
C0F9U0,南屯,2023-06-27,24.137,120.638,0.22047816
C0F9X0,大雅(中科園區),2023-06-27,24.2153,120.6244,0.31935132
C0FA10,松柏,2023-06-27,24.4291,120.6175,0.34380472
C0FA20,溫寮,2023-06-27,24.3722,120.5831,0.32027948
C0FA30,梧棲,2023-06-27,24.256,120.5234,0.3072464
C0FA40,臺中電廠,2023-06-27,24.2146,120.4907,0.25775728
C0FA50,霧峰,2023-06-27,24.0419,120.6995,0.27452672
C0G620,芬園,2023-06-27,24.0157,120.6213,0.18291733
C0G640,鹿港,2023-06-27,24.0753,120.4305,0.15146579
C0G650,員林,2023-06-27,23.9465,120.5856,0.16453369
C0G660,溪湖,2023-06-27,23.9484,120.4791,0.14987896
C0G720,溪州,2023-06-27,23.8516,120.4991,0.095290415
C0G730,二林,2023-06-27,23.9033,120.3761,0.13738738
C0G740,大城,2023-06-27,23.8525,120.3209,0.087138005
C0G770,福興,2023-06-27,24.0413,120.4377,0.13829412
C0G780,秀水,2023-06-27,24.0341,120.5039,0.13392873
C0G800,埔鹽,2023-06-27,24.0004,120.4317,0.1288499
C0G810,埔心,2023-06-27,23.9476,120.5255,0.1530992
C0G820,田尾,2023-06-27,23.9017,120.5094,0.15731125
C0G830,埤頭,2023-06-27,23.866,120.4528,0.108310565
C0G840,北斗,2023-06-27,23.8776,120.5142,0.15731125
C0G860,社頭,2023-06-27,23.8976,120.5862,0.1683835
C0G870,芳苑,2023-06-27,23.9223,120.32,0.09147327
C0G880,二水,2023-06-27,23.8107,120.6173,0.04995746
C0G890,伸港,2023-06-27,24.1489,120.4844,0.21371196
C0G900,線西,2023-06-27,24.1434,120.4435,0.30594775
C0G910,花壇,2023-06-27,24.0321,120.5495,0.14015082
C0G920,永靖,2023-06-27,23.9247,120.5475,0.15826643
C0G940,竹塘,2023-06-27,23.8483,120.3868,0.08059113
C0G950,防潮門,2023-06-27,24.1835,120.4871,0.25188294
C0G960,福寶,2023-06-27,24.0443,120.3814,0.16452046
C0G970,三豐,2023-06-27,23.882,120.2895,0.09147327
C0H890,埔里,2023-06-27,23.9722,120.9524,0.3252867
C0H950,中寮,2023-06-27,23.8844,120.7664,0.102935724
C0H960,草屯,2023-06-27,23.9737,120.6809,0.09024492
C0I110,竹山,2023-06-27,23.7612,120.6882,0.0398631
C0I360,水里,2023-06-27,23.8126,120.8498,0.015229794
C0I380,集集,2023-06-27,23.8282,120.8015,0.0500313
C0I410,名間,2023-06-27,23.8371,120.7014,0.07509835
C0I420,國姓,2023-06-27,24.0378,120.8551,0.29628307
C0I460,南投,2023-06-27,23.9115,120.6873,0.086904176
C0K250,崙背,2023-06-27,23.7555,120.3189,0.06796398
C0K280,四湖,2023-06-27,23.6304,120.2271,0.059109673
C0K291,宜梧,2023-06-27,23.5363,120.1693,0.03840804
C0K330,虎尾,2023-06-27,23.7192,120.442,0.061713252
C0K390,土庫,2023-06-27,23.679,120.3956,0.06254483
C0K400,斗六,2023-06-27,23.7206,120.5411,0.03674065
C0K410,北港,2023-06-27,23.574,120.2928,0.048364144
C0K420,西螺,2023-06-27,23.8004,120.4674,0.10915132
C0K430,褒忠,2023-06-27,23.6909,120.3036,0.058801584
C0K440,二崙,2023-06-27,23.7728,120.4089,0.07041031
C0K450,大埤,2023-06-27,23.6461,120.4315,0.06399572
C0K460,斗南,2023-06-27,23.6787,120.4784,0.05674993
C0K470,林內,2023-06-27,23.7487,120.6096,0.035349574
C0K480,莿桐,2023-06-27,23.7612,120.5024,0.079373166
C0K500,元長,2023-06-27,23.6498,120.315,0.06449183
C0K510,水林,2023-06-27,23.5729,120.246,0.048348792
C0K530,臺西,2023-06-27,23.7015,120.1976,0.07956889
C0K550,蔦松,2023-06-27,23.5143,120.2297,0.049099445
C0K560,棋山,2023-06-27,23.6865,120.6034,0.027944889
C0K580,高鐵雲林,2023-06-27,23.7375,120.4179,0.06262518
C0K590,雲林東勢,2023-06-27,23.6742,120.2557,0.04903051
C0K600,箔子寮,2023-06-27,23.6197,120.14,0.15472655
C0M410,馬頭山,2023-06-27,23.3244,120.582,0.28021175
C0M520,東後寮,2023-06-27,23.3699,120.2481,0.05611867
C0M640,中埔,2023-06-27,23.4254,120.5229,0.068553
C0M650,朴子,2023-06-27,23.4346,120.239,0.04940517
C0M660,溪口,2023-06-27,23.6041,120.4036,0.08422913
C0M670,大林,2023-06-27,23.6006,120.4584,0.11692036
C0M680,太保,2023-06-27,23.4551,120.3315,0.044997077
C0M690,水上,2023-06-27,23.4197,120.3889,0.11306866
C0M700,竹崎,2023-06-27,23.5262,120.5555,0.044311177
C0M710,東石,2023-06-27,23.4589,120.1539,0.08686082
C0M720,番路,2023-06-27,23.4647,120.5542,0.03322
C0M730,嘉義市東區,2023-06-27,23.4577,120.4605,0.14344013
C0M740,六腳,2023-06-27,23.4929,120.2906,0.043319076
C0M750,布袋,2023-06-27,23.3809,120.1678,0.04368595
C0M760,民雄,2023-06-27,23.5518,120.4285,0.08546829
C0M770,嘉義梅山,2023-06-27,23.5854,120.5556,0.033311687
C0M780,鹿草,2023-06-27,23.4113,120.3084,0.05336593
C0M790,新港,2023-06-27,23.5533,120.3457,0.051848385
C0M800,茶山,2023-06-27,23.2991,120.6648,0.13665551
C0M880,好美里,2023-06-27,23.3364,120.138,0.06762088
C0N010,鯤鯓國小,2023-06-27,23.1879,120.0889,0.13753428
C0N020,城西,2023-06-27,23.0568,120.0956,0.045982696
C0N030,四草,2023-06-27,23.0235,120.1116,0.07400351
C0N040,蘆竹溝,2023-06-27,23.2344,120.0961,0.04427073
C0N050,蚵寮,2023-06-27,23.301,120.1104,0.048016336
C0O810,曾文,2023-06-27,23.2197,120.4973,0.16289203
C0O830,北寮,2023-06-27,23.0796,120.495,0.44448772
C0O840,王爺宮,2023-06-27,23.2221,120.4009,0.16008238
C0O860,大內,2023-06-27,23.1188,120.3608,0.13341881
C0O900,善化,2023-06-27,23.1129,120.2972,0.079586245
C0O930,玉井,2023-06-27,23.126,120.4605,0.1065423
C0O950,安南,2023-06-27,23.0767,120.1449,0.05988286
C0O960,崎頂,2023-06-27,22.9595,120.3693,0.37929663
C0O970,虎頭埤,2023-06-27,23.0214,120.3479,0.06519528
C0O980,新市,2023-06-27,23.0616,120.2982,0.078185685
C0O990,媽廟,2023-06-27,22.9917,120.2935,0.08371438
C0R150,三地門,2023-06-27,22.7099,120.6399,0.44803426
C0R160,鹽埔,2023-06-27,22.7396,120.5308,0.25327045
C0R170,屏東,2023-06-27,22.6603,120.4941,0.19239533
C0R190,赤山,2023-06-27,22.5923,120.6143,0.5493126
C0R220,潮州,2023-06-27,22.5344,120.54,0.3713079
C0R240,來義,2023-06-27,22.5273,120.6251,0.374664
C0R260,春日,2023-06-27,22.3704,120.6283,0.37065256
C0R270,琉球嶼,2023-06-27,22.3322,120.3622,0.46809793
C0R280,檳榔,2023-06-27,22.0761,120.8368,0.56477803
C0R320,車城,2023-06-27,22.0744,120.7162,0.3745575
C0R341,牡丹,2023-06-27,22.13,120.7926,0.6349404
C0R350,貓鼻頭,2023-06-27,21.9218,120.7358,0.41281867
C0R470,高樹,2023-06-27,22.8264,120.6008,0.35402814
C0R480,長治,2023-06-27,22.6931,120.5426,0.32686055
C0R490,九如,2023-06-27,22.7405,120.4905,0.18717776
C0R520,崁頂,2023-06-27,22.5148,120.5069,0.19906059
C0R540,佳冬,2023-06-27,22.4195,120.5524,0.25576842
C0R550,新埤,2023-06-27,22.4679,120.5829,0.4051034
C0R560,新園,2023-06-27,22.5434,120.4616,0.18026665
C0R570,麟洛,2023-06-27,22.6508,120.5272,0.19754933
C0R580,南州,2023-06-27,22.4859,120.5027,0.19378333
C0R590,里港,2023-06-27,22.7792,120.4946,0.35228407
C0R620,墾雷,2023-06-27,21.9008,120.8553,0.41281867
C0R640,東港,2023-06-27,22.4625,120.4407,0.2347652
C0R650,竹田,2023-06-27,22.5849,120.5434,0.28082627
C0R660,枋寮,2023-06-27,22.3677,120.5906,0.4906294
C0R670,楓港,2023-06-27,22.1901,120.6922,0.3819029
C0R680,佳樂水,2023-06-27,21.9936,120.8616,0.3928611
C0R690,墾丁,2023-06-27,21.9668,120.8103,0.56648374
C0R700,枋山,2023-06-27,22.2468,120.6611,0.38500658
C0R710,龍磐,2023-06-27,21.9317,120.8389,0.5157397
C0R720,旭海,2023-06-27,22.2054,120.8876,0.5525999
C0R730,大坪頂,2023-06-27,22.0246,120.6936,0.50757295
C0R740,獅子,2023-06-27,22.2016,120.7053,0.44685185
C0R760,南仁湖,2023-06-27,22.0847,120.8634,0.64870745
C0R770,保力,2023-06-27,22.0711,120.7641,0.46561775
C0R780,滿州,2023-06-27,22.0244,120.8399,0.42193103
C0R790,九棚,2023-06-27,22.142,120.8893,0.49506757
C0R800,丹路,2023-06-27,22.2045,120.751,0.57785815
C0R810,內獅,2023-06-27,22.3051,120.643,0.37311783
C0R830,高士,2023-06-27,22.1218,120.8368,0.74223983
C0R850,林邊,2023-06-27,22.4634,120.5339,0.23680213
C0R860,鼻頭,2023-06-27,22.1043,120.8979,0.4385792
C0R870,興海,2023-06-27,21.9752,120.8439,0.3928611
C0R880,後壁湖,2023-06-27,21.9457,120.7457,0.36436826
C0R890,山海,2023-06-27,21.9878,120.7091,0.3740232
C0R900,竹坑,2023-06-27,22.1385,120.7022,0.47122306
C0R910,下寮,2023-06-27,22.3929,120.5548,0.25576842
C0R920,塭仔,2023-06-27,22.4169,120.5197,0.25895855
C0R930,萬丹,2023-06-27,22.5885,120.4851,0.25411734
C0R940,加祿堂,2023-06-27,22.3363,120.6217,0.29089037
C0S710,鹿野,2023-06-27,22.9177,121.123,0.8730657
C0S730,綠島,2023-06-27,22.6672,121.4753,0.44538632
C0S740,池上,2023-06-27,23.1196,121.2095,0.782034
C0S770,大溪山,2023-06-27,22.4785,120.9433,0.67097616
C0S790,金崙,2023-06-27,22.5381,120.9669,0.41556254
C0S810,東河,2023-06-27,22.9727,121.304,0.44545227
C0S830,長濱,2023-06-27,23.2868,121.412,0.8673387
C0S840,南田,2023-06-27,22.2797,120.8892,0.26232508
C0S890,關山,2023-06-27,23.0395,121.175,0.43485957
C0S900,蘭嶼高中,2023-06-27,22.0491,121.5121,0.89307874
C0S910,蘭嶼燈塔,2023-06-27,22.0812,121.5031,0.9624617
C0S920,金峰嘉蘭,2023-06-27,22.5948,120.9608,0.25657627
C0S930,延平,2023-06-27,22.9026,121.0841,0.74821484
C0S940,石寧山,2023-06-27,23.2238,121.4066,0.7028794
C0S950,七塊厝,2023-06-27,22.9545,121.2299,0.81949484
C0S960,香蘭,2023-06-27,22.5876,120.9934,0.20985551
C0S970,加津林,2023-06-27,22.4162,120.9269,0.19892368
C0S990,山豬窟,2023-06-27,22.3186,120.8574,0.71776724
C0SA00,歷坵,2023-06-27,22.521,120.8919,0.76752985
C0SA10,檳榔四格山,2023-06-27,22.81,121.1093,0.7327107
C0SA30,都歷,2023-06-27,23.0203,121.3236,0.2496854
C0SA40,瑞和,2023-06-27,22.9744,121.1567,0.2844455
C0SA60,知本（水試所）,2023-06-27,22.7024,121.0828,0.21166985
C0SA80,土,2023-06-27,22.4531,120.8876,0.3202696
C0SA90,達仁林場,2023-06-27,22.2643,120.824,0.6517805
C0T870,鯉魚潭,2023-06-27,23.9356,121.5089,0.74256366
C0T900,西林,2023-06-27,23.8119,121.4415,0.64464414
C0T960,光復,2023-06-27,23.6607,121.425,0.65072924
C0T9A0,月眉山,2023-06-27,23.8099,121.5398,0.88478106
C0T9D0,和中,2023-06-27,24.2668,121.741,0.76887584
C0T9E0,大坑,2023-06-27,23.8806,121.582,0.86059046
C0T9F0,水璉,2023-06-27,23.7971,121.5425,0.84116185
C0T9I0,豐濱,2023-06-27,23.5839,121.5148,0.7727455
C0T9M0,靜浦,2023-06-27,23.4552,121.495,0.830261
C0T9N0,富里,2023-06-27,23.1716,121.2494,0.8842372
C0U600,礁溪,2023-06-27,24.8175,121.7656,0.17737979
C0U650,玉蘭,2023-06-27,24.6753,121.5871,0.77029777
C0U750,龜山島,2023-06-27,24.8417,121.9531,0.6220441
C0U760,東澳,2023-06-27,24.522,121.8332,0.66918105
C0U770,南澳,2023-06-27,24.4493,121.8102,0.3811129
C0U780,五結,2023-06-27,24.6864,121.7979,0.08074391
C0U860,頭城,2023-06-27,24.8532,121.8308,0.2485053
C0U870,大礁溪,2023-06-27,24.791,121.675,0.4233018
C0U880,北關,2023-06-27,24.9072,121.8734,0.18057899
C0U890,三星,2023-06-27,24.6681,121.653,0.29636216
C0U900,內城,2023-06-27,24.7181,121.6877,0.2651278
C0U910,冬山,2023-06-27,24.6337,121.7937,0.07997573
C0U940,羅東,2023-06-27,24.6818,121.7493,0.092034
C0U970,大福,2023-06-27,24.8006,121.8139,0.26560336
C0U990,員山,2023-06-27,24.7444,121.7225,0.10379885
C0UA00,土場,2023-06-27,24.5765,121.4953,0.67960155
C0UA80,大溪漁港,2023-06-27,24.9418,121.903,0.162716
C0UA90,石城,2023-06-27,24.9804,121.9512,0.0783699
C0UB00,淡江大學蘭陽校園,2023-06-27,24.8232,121.7304,0.68885326
C0UB10,蘇澳,2023-06-27,24.5969,121.8571,0.15474078
C0UB20,壯圍,2023-06-27,24.7359,121.8163,0.08795782
C0V250,甲仙,2023-06-27,23.0801,120.5918,0.6353731
C0V260,月眉,2023-06-27,22.971,120.5399,0.4349817
C0V310,美濃,2023-06-27,22.8987,120.5192,0.07119735
C0V350,溪埔,2023-06-27,22.7386,120.4468,0.14272358
C0V360,內門,2023-06-27,22.9755,120.4668,0.096597485
C0V370,古亭坑,2023-06-27,22.8932,120.4019,0.06873912
C0V400,阿公店,2023-06-27,22.8042,120.3555,0.1764383
C0V440,鳳山,2023-06-27,22.6467,120.3561,0.16023341
C0V450,鳳森,2023-06-27,22.5451,120.3926,0.2556554
C0V490,新興,2023-06-27,22.6274,120.2988,0.1532363
C0V530,阿蓮,2023-06-27,22.8832,120.3275,0.07218155
C0V610,梓官,2023-06-27,22.7606,120.2672,0.13857849
C0V620,永安,2023-06-27,22.8231,120.2369,0.11652545
C0V630,茄萣,2023-06-27,22.9066,120.1826,0.067635976
C0V640,湖內,2023-06-27,22.8871,120.2445,0.064657845
C0V650,彌陀,2023-06-27,22.7838,120.2464,0.11652545
C0V660,岡山,2023-06-27,22.7971,120.295,0.11746971
C0V680,仁武,2023-06-27,22.7011,120.3477,0.12058246
C0V690,鼓山,2023-06-27,22.6233,120.2756,0.25893384
C0V700,三民,2023-06-27,22.645,120.3112,0.1532363
C0V710,苓雅,2023-06-27,22.6227,120.3307,0.16560946
C0V720,林園,2023-06-27,22.5077,120.3945,0.21705043
C0V730,大寮,2023-06-27,22.6056,120.3957,0.16558138
C0V740,旗山,2023-06-27,22.8886,120.4836,0.072667226
C0V750,路竹,2023-06-27,22.855,120.2594,0.115817375
C0V760,橋頭,2023-06-27,22.7578,120.3058,0.12173133
C0V770,大社,2023-06-27,22.7303,120.3466,0.13695624
C0V790,萬山,2023-06-27,22.9059,120.6881,0.43665215
C0V800,六龜,2023-06-27,22.9979,120.6336,0.43783718
C0V810,左營,2023-06-27,22.6749,120.2849,0.13296519
C0V820,小林,2023-06-27,23.1484,120.6333,0.41293135
C0V840,鳳鼻頭,2023-06-27,22.5083,120.3591,0.21124768
C0V850,蚵仔寮,2023-06-27,22.7256,120.2527,0.1436459
C0V860,南寮,2023-06-27,22.7616,120.2339,0.12904057
C0V870,文安,2023-06-27,22.8025,120.2164,0.17714953
C0V880,興達,2023-06-27,22.8778,120.2127,0.067635976
C0V890,前鎮,2023-06-27,22.5718,120.3117,0.20567021
C0V900,汕尾,2023-06-27,22.4782,120.4151,0.16875732
C0X050,東河,2023-06-27,23.2966,120.3856,0.083144516
C0X060,下營,2023-06-27,23.2269,120.2563,0.05906316
C0X080,佳里,2023-06-27,23.173,120.1451,0.04344102
C0X100,臺南市北區,2023-06-27,23.0104,120.1942,0.06042079
C0X110,臺南市南區,2023-06-27,22.9612,120.1884,0.06694277
C0X120,麻豆,2023-06-27,23.1833,120.2486,0.0592274
C0X130,官田,2023-06-27,23.1932,120.3154,0.0685303
C0X140,西港,2023-06-27,23.1256,120.2031,0.048439838
C0X150,安定,2023-06-27,23.1026,120.2278,0.076413825
C0X160,仁德,2023-06-27,22.9683,120.2577,0.06950101
C0X170,關廟,2023-06-27,22.963,120.3278,0.08661052
C0X180,山上,2023-06-27,23.0757,120.3633,0.095574155
C0X190,安平,2023-06-27,22.9932,120.1522,0.097193964
C0X200,左鎮,2023-06-27,23.0568,120.4085,0.10081204
C0X210,白河,2023-06-27,23.3475,120.4144,0.14746246
C0X220,學甲,2023-06-27,23.2304,120.1822,0.05203632
C0X230,鹽水,2023-06-27,23.2726,120.2476,0.056292124
C0X240,關子嶺,2023-06-27,23.3312,120.508,0.66142577
C0X250,新營,2023-06-27,23.3107,120.3167,0.05906851
C0X260,後壁,2023-06-27,23.3664,120.3623,0.09137548
C0X280,將軍,2023-06-27,23.215,120.1358,0.049850114
C0X290,北門,2023-06-27,23.2678,120.1255,0.054589752
C0X300,鹿寮,2023-06-27,23.386,120.4773,0.046986327
C0X310,七股,2023-06-27,23.1473,120.0863,0.112523355
C0X320,柳營,2023-06-27,23.2533,120.3753,0.085432775
C0Z020,明里,2023-06-27,23.2087,121.2623,0.7972651
C0Z061,玉里,2023-06-27,23.3215,121.3397,0.46146375
C0Z070,舞鶴,2023-06-27,23.4681,121.3741,0.7493752
C0Z080,富源,2023-06-27,23.5876,121.3782,0.6055412
C0Z100,東華,2023-06-27,23.8953,121.5498,0.7260157
C0Z150,吉安光華,2023-06-27,23.9309,121.5952,0.76868266
C0Z160,鳳林,2023-06-27,23.7461,121.4534,0.63172346
C0Z170,卓溪,2023-06-27,23.3443,121.3029,0.6246289
C0Z180,新城,2023-06-27,24.0395,121.6045,0.8332489
C0Z190,富世,2023-06-27,24.1474,121.6297,0.95978403
C0Z200,萬榮,2023-06-27,23.7092,121.4201,0.67060035
C0Z210,瑞穗,2023-06-27,23.5239,121.3902,0.7511298
C0Z230,和平,2023-06-27,24.3072,121.7701,0.8602448
C0Z270,蕃薯寮,2023-06-27,23.7384,121.5401,0.76274544
C0Z280,德武,2023-06-27,23.4743,121.4107,0.7691955
C0Z300,東里,2023-06-27,23.2685,121.3055,0.516747
C0Z310,清水斷崖,2023-06-27,24.2183,121.6891,0.87115526
C0Z330,安通山,2023-06-27,23.2907,121.3485,0.88225156
