站號,站名,日期,lat,lon,BlastGRU-TW
12J990,口湖工作站,2023-04-10,23.589978,120.180394,0.89017695
12Q970,東港工作站,2023-04-10,22.479997,120.466058,0.8408299
12Q980,恆春工作站,2023-04-10,22.079678,120.714425,0.506517
466881,新北,2023-04-10,24.9593,121.52,0.2603353
466900,淡水,2023-04-10,25.164889,121.448906,0.19285657
466920,臺北,2023-04-10,25.037658,121.514853,0.4106616
466940,基隆,2023-04-10,25.133314,121.740475,0.57043433
466990,花蓮,2023-04-10,23.975128,121.613275,0.30068922
467050,新屋,2023-04-10,25.006744,121.047486,0.3831471
467060,蘇澳,2023-04-10,24.596736,121.857372,0.9918937
467080,宜蘭,2023-04-10,24.763975,121.756528,0.9227877
467270,田中,2023-04-10,23.873803,120.581286,0.35721698
467300,東吉島,2023-04-10,23.25695,119.667467,0.6910598
467350,澎湖,2023-04-10,23.565503,119.563094,0.23730491
467410,臺南,2023-04-10,22.993239,120.204772,0.7606824
467420,永康,2023-04-10,23.038386,120.2367,0.7397104
467441,高雄,2023-04-10,22.7304,120.3125,0.7088702
467480,嘉義,2023-04-10,23.495925,120.432906,0.89245945
467490,臺中,2023-04-10,24.145736,120.684075,0.831318
467540,大武,2023-04-10,22.355675,120.903789,0.49121946
467571,新竹,2023-04-10,24.827853,121.014219,0.23012453
467590,恆春,2023-04-10,22.003897,120.746339,0.5146873
467610,成功,2023-04-10,23.097486,121.373428,0.9832229
467620,蘭嶼,2023-04-10,22.036969,121.558339,0.9884211
467660,臺東,2023-04-10,22.752211,121.154586,0.81511426
467790,墾丁雷達站,2023-04-10,21.948235,120.808028,0.51187074
72AI40,桃改臺北分場,2023-04-10,24.944503,121.386972,0.21991304
72C440,桃園農改場,2023-04-10,24.950944,121.030583,0.33685333
72D680,新埔,2023-04-10,24.834444,121.066111,0.27279288
72G600,臺中農改場,2023-04-10,24.003028,120.534389,0.8078238
72K220,雲林分場,2023-04-10,23.634556,120.477333,0.4252101
72L140,朴子分場,2023-04-10,23.4982,120.2414,0.9008452
72M360,義竹工作站,2023-04-10,23.360694,120.279361,0.9278265
72M700,嘉義分場,2023-04-10,23.416869,120.283061,0.9112115
72N100,臺南農改場,2023-04-10,23.0605,120.342194,0.7557902
72N240,七股研究中心,2023-04-10,23.081672,120.062894,0.9172367
72Q010,高雄農改場,2023-04-10,22.709333,120.525889,0.5976878
72S200,斑鳩分場,2023-04-10,22.829528,121.077694,0.77983356
72S590,賓朗果園,2023-04-10,22.813889,121.071278,0.7436365
72T250,花蓮農改場,2023-04-10,23.975222,121.563889,0.16156924
72U480,蘭陽分場,2023-04-10,24.686306,121.716583,0.75918764
72V140,旗南,2023-04-10,22.857861,120.516667,0.55062264
82A750,文山分場,2023-04-10,24.955778,121.631222,0.50625986
82C160,茶改場(楊梅),2023-04-10,24.908472,121.185333,0.17086975
82H840,凍頂工作站,2023-04-10,23.762528,120.7405,0.16722034
82S580,龍田,2023-04-10,22.907694,121.130139,0.89695424
A0K420,麥寮,2023-04-10,23.7988,120.2177,0.8688579
A0W080,吉貝,2023-04-10,23.74,119.6042,0.16008654
A2C560,農工中心,2023-04-10,24.985917,121.239833,0.11948212
A2K360,臺西分所,2023-04-10,23.717231,120.190522,0.8484718
A2K570,古坑(花卉中心),2023-04-10,23.633531,120.552392,0.37080473
A2K630,臺大雲林校區,2023-04-10,23.730628,120.423903,0.4121936
A2N290,臺南蘭花園區,2023-04-10,23.340258,120.379661,0.90230805
B2E890,新竹畜試,2023-04-10,24.527806,120.770972,0.82679576
B2N890,畜產試驗所,2023-04-10,23.058972,120.336406,0.7557902
B2Q810,恆春分所,2023-04-10,21.945583,120.802167,0.51336354
B2U990,宜蘭畜試,2023-04-10,24.669039,121.832561,0.97057563
C0A520,山佳,2023-04-10,24.974944,121.402008,0.21991304
C0A530,坪林,2023-04-10,24.938183,121.70975,0.11282258
C0A540,四堵,2023-04-10,24.8926,121.745736,0.22353469
C0A550,泰平,2023-04-10,24.971197,121.823711,0.13300274
C0A560,福山,2023-04-10,24.776203,121.502811,0.109496646
C0A570,桶後,2023-04-10,24.848222,121.597992,0.092019856
C0A640,石碇,2023-04-10,24.993969,121.662917,0.14651631
C0A650,火燒寮,2023-04-10,25.002719,121.742892,0.12006627
C0A660,瑞芳,2023-04-10,25.113169,121.801147,0.62526757
C0A770,科教館,2023-04-10,25.096356,121.516507,0.331948
C0A860,大坪,2023-04-10,25.165914,121.632969,0.017022036
C0A880,福隆,2023-04-10,25.017842,121.942083,0.9474192
C0A890,雙溪,2023-04-10,25.036003,121.864242,0.41163826
C0A920,富貴角,2023-04-10,25.263783,121.565258,0.06499439
C0A931,三和,2023-04-10,25.233153,121.595236,0.11954876
C0A940,金山,2023-04-10,25.223628,121.643967,0.07641386
C0A950,鼻頭角,2023-04-10,25.129036,121.923372,0.9686225
C0A970,三貂角,2023-04-10,25.007606,122.002058,0.9602353
C0A980,社子,2023-04-10,25.109508,121.469681,0.34215423
C0A9C0,天母,2023-04-10,25.117494,121.537169,0.27180952
C0A9F0,內湖,2023-04-10,25.079422,121.57545,0.29782176
C0AC60,三峽,2023-04-10,24.939025,121.369728,0.21603182
C0AC70,信義,2023-04-10,25.037822,121.564597,0.42393076
C0AC80,文山,2023-04-10,25.00235,121.575728,0.32851118
C0ACA0,新莊,2023-04-10,25.051478,121.446756,0.19978197
C0AD00,三芝,2023-04-10,25.258131,121.501917,0.051261157
C0AD10,八里,2023-04-10,25.150211,121.403947,0.1818231
C0AD30,蘆洲,2023-04-10,25.086594,121.472331,0.331948
C0AD40,土城,2023-04-10,24.973208,121.445169,0.26756504
C0AD50,鶯歌,2023-04-10,24.951533,121.346294,0.22033672
C0AG80,中和,2023-04-10,24.991622,121.491792,0.40513167
C0AH00,汐止,2023-04-10,25.066881,121.658778,0.46260098
C0AH10,永和,2023-04-10,25.01125,121.508111,0.4215831
C0AH40,平等,2023-04-10,25.129142,121.577086,0.071378134
C0AH50,林口,2023-04-10,25.072181,121.38084,0.029494297
C0AH70,松山,2023-04-10,25.04871,121.55042,0.42393076
C0AH80,深坑,2023-04-10,25.002703,121.628328,0.2828976
C0AI00,五股,2023-04-10,25.07445,121.42728,0.064109355
C0AI10,屈尺,2023-04-10,24.92184,121.54475,0.16722816
C0AI20,白沙灣,2023-04-10,25.283128,121.519058,0.0695156
C0AI30,三重,2023-04-10,25.057328,121.500629,0.40584725
C0AI40,石牌,2023-04-10,25.115597,121.513139,0.3171653
C0AJ10,澳底,2023-04-10,25.057107,121.927272,0.9576549
C0AJ20,野柳,2023-04-10,25.20703,121.690021,0.42289963
C0AJ30,淡水觀海,2023-04-10,25.184591,121.408616,0.21004327
C0AJ40,石門,2023-04-10,25.273672,121.601198,0.017570643
C0AJ50,水湳洞,2023-04-10,25.123695,121.862238,0.55338854
C0AJ60,六塊厝,2023-04-10,25.24,121.4481,0.234907
C0AJ70,田寮,2023-04-10,25.2698,121.4886,0.09096869
C0AJ80,板橋,2023-04-10,25.0107,121.4489,0.30070758
C0B010,七堵,2023-04-10,25.094819,121.71713,0.40120307
C0B020,基隆嶼,2023-04-10,25.19141,121.78391,0.6935135
C0B040,大武崙,2023-04-10,25.166676,121.706993,0.37326032
C0B050,八斗子,2023-04-10,25.144754,121.79167,0.7238099
C0B060,暖暖,2023-04-10,25.0957,121.7403,0.31388664
C0C460,復興,2023-04-10,24.820208,121.352281,0.087090805
C0C480,桃園,2023-04-10,24.992425,121.323172,0.14165293
C0C490,八德,2023-04-10,24.928708,121.283289,0.29176345
C0C590,觀音,2023-04-10,25.027072,121.153317,0.14660473
C0C620,蘆竹,2023-04-10,25.084275,121.265767,0.13865772
C0C630,大溪,2023-04-10,24.882853,121.265547,0.26999587
C0C650,平鎮,2023-04-10,24.897503,121.214636,0.17086975
C0C660,楊梅,2023-04-10,24.912375,121.143047,0.13842705
C0C670,龍潭,2023-04-10,24.870056,121.221389,0.19377033
C0C680,龜山,2023-04-10,25.02846,121.38656,0.1015603
C0C700,中壢,2023-04-10,24.977661,121.256375,0.1268146
C0C710,大溪永福,2023-04-10,24.892936,121.324975,0.12639956
C0C720,竹圍,2023-04-10,25.112692,121.239824,0.15711947
C0C730,中大臨海站,2023-04-10,24.966126,121.008581,0.4555021
C0C740,觀音工業區,2023-04-10,25.064764,121.114856,0.12028335
C0C750,新興坑尾,2023-04-10,25.0061,121.0971,0.08776278
C0D390,關西,2023-04-10,24.7977,121.1732,0.21254832
C0D430,峨眉,2023-04-10,24.6905,121.017189,0.25612667
C0D480,打鐵坑,2023-04-10,24.849664,121.150789,0.24464564
C0D540,橫山,2023-04-10,24.71116,121.11693,0.20683135
C0D560,竹東,2023-04-10,24.767147,121.057881,0.2025393
C0D580,寶山,2023-04-10,24.735006,121.025192,0.33731055
C0D590,新豐,2023-04-10,24.87068,120.97721,0.5574967
C0D650,湖口,2023-04-10,24.904794,121.043628,0.284792
C0D660,新竹市東區,2023-04-10,24.798681,120.986942,0.20606041
C0D670,海天一線,2023-04-10,24.831986,120.914438,0.24192692
C0D680,香山濕地,2023-04-10,24.783581,120.914988,0.22519387
C0D690,外湖,2023-04-10,24.917735,120.968711,0.38990554
C0E420,竹南,2023-04-10,24.708978,120.888897,0.19389164
C0E430,南庄,2023-04-10,24.601775,121.000214,0.30785218
C0E520,大湖,2023-04-10,24.41494,120.87087,0.3834417
C0E540,後龍,2023-04-10,24.606489,120.783933,0.75277203
C0E550,明德,2023-04-10,24.583486,120.885411,0.4656189
C0E590,通霄,2023-04-10,24.471892,120.704622,0.8431972
C0E730,頭份,2023-04-10,24.688247,120.912206,0.18984176
C0E740,造橋,2023-04-10,24.637056,120.864778,0.48122615
C0E750,苗栗,2023-04-10,24.564569,120.824575,0.80393153
C0E780,銅鑼,2023-04-10,24.489681,120.790853,0.5357818
C0E791,卓蘭,2023-04-10,24.3126,120.8244,0.4507428
C0E810,西湖,2023-04-10,24.562947,120.7485,0.81302357
C0E820,獅潭,2023-04-10,24.539133,120.920042,0.33000523
C0E830,苑裡,2023-04-10,24.439714,120.653053,0.8626346
C0E850,大河,2023-04-10,24.618069,120.948578,0.37512746
C0E870,高鐵苗栗,2023-04-10,24.60725,120.826094,0.7639058
C0E910,海埔,2023-04-10,24.648767,120.772435,0.7041405
C0E920,通霄漁港,2023-04-10,24.498589,120.673876,0.8310678
C0E930,龍鳳,2023-04-10,24.700034,120.859125,0.5244434
C0F000,大肚,2023-04-10,24.15295,120.572117,0.20389453
C0F0B0,石岡,2023-04-10,24.276061,120.777644,0.26515067
C0F850,東勢,2023-04-10,24.246428,120.833047,0.40475792
C0F930,大甲,2023-04-10,24.347667,120.640403,0.8469891
C0F970,大坑,2023-04-10,24.173142,120.722289,0.85816854
C0F9A0,中竹林,2023-04-10,24.103556,120.751061,0.35111973
C0F9I0,神岡,2023-04-10,24.272481,120.658314,0.6912438
C0F9K0,大安,2023-04-10,24.345061,120.588025,0.85637534
C0F9L0,后里,2023-04-10,24.310436,120.729725,0.5720995
C0F9M0,豐原,2023-04-10,24.254322,120.720692,0.64349014
C0F9N0,大里,2023-04-10,24.092464,120.701378,0.8517344
C0F9O0,潭子,2023-04-10,24.213106,120.703933,0.7114312
C0F9P0,清水,2023-04-10,24.312297,120.562242,0.8598762
C0F9Q0,外埔,2023-04-10,24.347817,120.705686,0.678364
C0F9R0,龍井,2023-04-10,24.184536,120.528972,0.8648247
C0F9S0,烏日,2023-04-10,24.107058,120.624103,0.80432934
C0F9T0,西屯,2023-04-10,24.179494,120.641275,0.85808456
C0F9U0,南屯,2023-04-10,24.137006,120.637969,0.8365987
C0F9X0,大雅(中科園區),2023-04-10,24.21528,120.62445,0.8152455
C0FA10,松柏,2023-04-10,24.429115,120.617482,0.86717707
C0FA20,溫寮,2023-04-10,24.372177,120.583125,0.8577948
C0FA30,梧棲,2023-04-10,24.256003,120.523381,0.85470307
C0FA40,臺中電廠,2023-04-10,24.2146,120.4907,0.8648247
C0FA50,霧峰,2023-04-10,24.0419,120.6995,0.8555636
C0G620,芬園,2023-04-10,24.015678,120.6213,0.8045343
C0G640,鹿港,2023-04-10,24.0753,120.430481,0.7221126
C0G650,員林,2023-04-10,23.946503,120.585597,0.82130754
C0G660,溪湖,2023-04-10,23.94835,120.479122,0.7886266
C0G720,溪州,2023-04-10,23.851589,120.499093,0.33710355
C0G730,二林,2023-04-10,23.903325,120.376081,0.75287366
C0G740,大城,2023-04-10,23.852487,120.320935,0.8112462
C0G770,福興,2023-04-10,24.041289,120.437669,0.7419217
C0G780,秀水,2023-04-10,24.03405,120.503869,0.78281105
C0G800,埔鹽,2023-04-10,24.000394,120.431683,0.7572528
C0G810,埔心,2023-04-10,23.947633,120.525456,0.7857483
C0G820,田尾,2023-04-10,23.901669,120.509389,0.8000775
C0G830,埤頭,2023-04-10,23.866003,120.452806,0.33441865
C0G840,北斗,2023-04-10,23.877586,120.514222,0.80007756
C0G860,社頭,2023-04-10,23.897647,120.5862,0.834113
C0G870,芳苑,2023-04-10,23.922303,120.320025,0.7916026
C0G880,二水,2023-04-10,23.810742,120.6173,0.3500007
C0G890,伸港,2023-04-10,24.148933,120.484403,0.8522016
C0G900,線西,2023-04-10,24.143358,120.443536,0.83397263
C0G910,花壇,2023-04-10,24.032076,120.549461,0.8030156
C0G920,永靖,2023-04-10,23.924703,120.547533,0.8056316
C0G940,竹塘,2023-04-10,23.848253,120.386764,0.3365931
C0G950,防潮門,2023-04-10,24.1835,120.4871,0.86365014
C0G960,福寶,2023-04-10,24.0443,120.3814,0.6924705
C0G970,三豐,2023-04-10,23.882,120.2895,0.7916026
C0H890,埔里,2023-04-10,23.972169,120.952425,0.6561141
C0H950,中寮,2023-04-10,23.884447,120.766406,0.2415217
C0H960,草屯,2023-04-10,23.973672,120.68085,0.30365643
C0I110,竹山,2023-04-10,23.761225,120.688156,0.28369558
C0I360,水里,2023-04-10,23.812553,120.849792,0.21499619
C0I380,集集,2023-04-10,23.828206,120.801467,0.19587457
C0I410,名間,2023-04-10,23.837053,120.701447,0.34812048
C0I420,國姓,2023-04-10,24.037803,120.855072,0.21569626
C0I460,南投,2023-04-10,23.911469,120.687331,0.33796698
C0K250,崙背,2023-04-10,23.75555,120.318925,0.8548738
C0K280,四湖,2023-04-10,23.630414,120.227125,0.8644668
C0K291,宜梧,2023-04-10,23.536281,120.169329,0.894542
C0K330,虎尾,2023-04-10,23.719183,120.442036,0.40158373
C0K390,土庫,2023-04-10,23.679029,120.395574,0.38948902
C0K400,斗六,2023-04-10,23.720583,120.541127,0.39071584
C0K410,北港,2023-04-10,23.573957,120.292802,0.8921614
C0K420,西螺,2023-04-10,23.800407,120.467394,0.36191675
C0K430,褒忠,2023-04-10,23.690938,120.303634,0.86780363
C0K440,二崙,2023-04-10,23.772797,120.408944,0.38176104
C0K450,大埤,2023-04-10,23.646074,120.431537,0.4306165
C0K460,斗南,2023-04-10,23.678734,120.478359,0.42276898
C0K470,林內,2023-04-10,23.748675,120.609642,0.37571886
C0K480,莿桐,2023-04-10,23.761192,120.502372,0.37538385
C0K500,元長,2023-04-10,23.64981,120.315024,0.87046725
C0K510,水林,2023-04-10,23.572924,120.24597,0.89397633
C0K530,臺西,2023-04-10,23.701547,120.197559,0.8464648
C0K550,蔦松,2023-04-10,23.514319,120.229736,0.9008452
C0K560,棋山,2023-04-10,23.68645,120.603417,0.4046019
C0K580,高鐵雲林,2023-04-10,23.737456,120.417944,0.4121936
C0K590,雲林東勢,2023-04-10,23.674192,120.255721,0.8688037
C0K600,箔子寮,2023-04-10,23.6197,120.14,0.89384186
C0M410,馬頭山,2023-04-10,23.324361,120.582017,0.45851424
C0M520,東後寮,2023-04-10,23.369908,120.248065,0.9276583
C0M640,中埔,2023-04-10,23.42538,120.5229,0.45488706
C0M650,朴子,2023-04-10,23.43463,120.23902,0.90467465
C0M660,溪口,2023-04-10,23.604131,120.403569,0.8713812
C0M670,大林,2023-04-10,23.600616,120.45841,0.8635079
C0M680,太保,2023-04-10,23.455062,120.331455,0.90442353
C0M690,水上,2023-04-10,23.419734,120.388909,0.8999691
C0M700,竹崎,2023-04-10,23.526178,120.555508,0.39375848
C0M710,東石,2023-04-10,23.458927,120.15385,0.9065352
C0M720,番路,2023-04-10,23.464657,120.554156,0.40198085
C0M730,嘉義市東區,2023-04-10,23.457673,120.460531,0.8838535
C0M740,六腳,2023-04-10,23.492871,120.290625,0.89831215
C0M750,布袋,2023-04-10,23.380878,120.167789,0.90169996
C0M760,民雄,2023-04-10,23.551754,120.428457,0.8861928
C0M770,嘉義梅山,2023-04-10,23.585398,120.555587,0.43424976
C0M780,鹿草,2023-04-10,23.41134,120.30835,0.91214997
C0M790,新港,2023-04-10,23.553269,120.345728,0.8961384
C0M800,茶山,2023-04-10,23.299075,120.664767,0.67342424
C0M880,好美里,2023-04-10,23.3364,120.138,0.90142035
C0N010,鯤鯓國小,2023-04-10,23.1879,120.0889,0.9144075
C0N020,城西,2023-04-10,23.0568,120.0956,0.91590387
C0N030,四草,2023-04-10,23.0235,120.1116,0.90831536
C0N040,蘆竹溝,2023-04-10,23.2344,120.0961,0.900385
C0N050,蚵寮,2023-04-10,23.301,120.1104,0.9004233
C0O810,曾文,2023-04-10,23.219681,120.497328,0.91342163
C0O830,北寮,2023-04-10,23.079561,120.495008,0.4262516
C0O840,王爺宮,2023-04-10,23.222064,120.40085,0.9018055
C0O860,大內,2023-04-10,23.11885,120.36083,0.7585126
C0O900,善化,2023-04-10,23.112883,120.297219,0.7371627
C0O930,玉井,2023-04-10,23.126042,120.46055,0.8880637
C0O950,安南,2023-04-10,23.076694,120.144861,0.76638424
C0O960,崎頂,2023-04-10,22.959547,120.369317,0.34066013
C0O970,虎頭埤,2023-04-10,23.021375,120.347878,0.9127409
C0O980,新市,2023-04-10,23.061614,120.298197,0.7486275
C0O990,媽廟,2023-04-10,22.99175,120.293525,0.76174384
C0R150,三地門,2023-04-10,22.709889,120.639944,0.63837683
C0R160,鹽埔,2023-04-10,22.739558,120.530778,0.5720949
C0R170,屏東,2023-04-10,22.660269,120.494072,0.8138171
C0R190,赤山,2023-04-10,22.592333,120.614306,0.5109657
C0R220,潮州,2023-04-10,22.534361,120.54,0.5611283
C0R240,來義,2023-04-10,22.527306,120.625111,0.6589647
C0R260,春日,2023-04-10,22.370361,120.628306,0.7664219
C0R270,琉球嶼,2023-04-10,22.332244,120.362236,0.7598231
C0R280,檳榔,2023-04-10,22.076078,120.836777,0.2968297
C0R320,車城,2023-04-10,22.0744,120.716247,0.506517
C0R341,牡丹,2023-04-10,22.130036,120.792639,0.41603708
C0R350,貓鼻頭,2023-04-10,21.921774,120.7358,0.5136965
C0R470,高樹,2023-04-10,22.826389,120.600806,0.59091485
C0R480,長治,2023-04-10,22.693128,120.542622,0.568339
C0R490,九如,2023-04-10,22.7405,120.490503,0.7951502
C0R520,崁頂,2023-04-10,22.514781,120.506914,0.82776374
C0R540,佳冬,2023-04-10,22.419456,120.552375,0.8519776
C0R550,新埤,2023-04-10,22.467947,120.582894,0.6947602
C0R560,新園,2023-04-10,22.5434,120.461558,0.81345546
C0R570,麟洛,2023-04-10,22.65078,120.52719,0.81069976
C0R580,南州,2023-04-10,22.48591,120.50274,0.827145
C0R590,里港,2023-04-10,22.77919,120.49459,0.5579176
C0R620,墾雷,2023-04-10,21.900836,120.855269,0.50892687
C0R640,東港,2023-04-10,22.46247,120.44074,0.8558277
C0R650,竹田,2023-04-10,22.58486,120.54344,0.58682877
C0R660,枋寮,2023-04-10,22.367722,120.590647,0.74511385
C0R670,楓港,2023-04-10,22.190131,120.692156,0.52050865
C0R680,佳樂水,2023-04-10,21.993578,120.861633,0.51336354
C0R690,墾丁,2023-04-10,21.966756,120.810269,0.28903323
C0R700,枋山,2023-04-10,22.246844,120.661086,0.58372694
C0R710,龍磐,2023-04-10,21.931672,120.838942,0.49028653
C0R720,旭海,2023-04-10,22.205403,120.887614,0.651155
C0R730,大坪頂,2023-04-10,22.024633,120.69355,0.3762125
C0R740,獅子,2023-04-10,22.201569,120.70525,0.48831478
C0R760,南仁湖,2023-04-10,22.084681,120.863353,0.26228267
C0R770,保力,2023-04-10,22.071122,120.764111,0.5062148
C0R780,滿州,2023-04-10,22.024403,120.839892,0.51391107
C0R790,九棚,2023-04-10,22.14195,120.889281,0.6677422
C0R800,丹路,2023-04-10,22.204481,120.750989,0.4805922
C0R810,內獅,2023-04-10,22.305064,120.642986,0.7603241
C0R830,高士,2023-04-10,22.121825,120.836781,0.2746787
C0R850,林邊,2023-04-10,22.4634,120.5339,0.8375808
C0R860,鼻頭,2023-04-10,22.1043,120.8979,0.79188097
C0R870,興海,2023-04-10,21.9752,120.8439,0.51336354
C0R880,後壁湖,2023-04-10,21.9457,120.7457,0.5036977
C0R890,山海,2023-04-10,21.9878,120.7091,0.51075476
C0R900,竹坑,2023-04-10,22.1385,120.7022,0.7056009
C0R910,下寮,2023-04-10,22.3929,120.5548,0.8519776
C0R920,塭仔,2023-04-10,22.4169,120.5197,0.8710784
C0R930,萬丹,2023-04-10,22.5885,120.4851,0.601686
C0R940,加祿堂,2023-04-10,22.3363,120.6217,0.80014545
C0S710,鹿野,2023-04-10,22.917711,121.122994,0.8819154
C0S730,綠島,2023-04-10,22.6672,121.47533,0.9895848
C0S740,池上,2023-04-10,23.119628,121.209469,0.8360109
C0S770,大溪山,2023-04-10,22.478475,120.943325,0.7327232
C0S790,金崙,2023-04-10,22.538122,120.966875,0.75413674
C0S810,東河,2023-04-10,22.972672,121.303986,0.9707997
C0S830,長濱,2023-04-10,23.286817,121.411975,0.9665634
C0S840,南田,2023-04-10,22.279725,120.889208,0.6170988
C0S890,關山,2023-04-10,23.0395,121.175017,0.8977462
C0S900,蘭嶼高中,2023-04-10,22.04909,121.51214,0.9588735
C0S910,蘭嶼燈塔,2023-04-10,22.081197,121.503117,0.976367
C0S920,金峰嘉蘭,2023-04-10,22.594789,120.960825,0.67858636
C0S930,延平,2023-04-10,22.902581,121.084058,0.8551864
C0S940,石寧山,2023-04-10,23.223772,121.406639,0.9779778
C0S950,七塊厝,2023-04-10,22.954453,121.229922,0.9266478
C0S960,香蘭,2023-04-10,22.587569,120.993375,0.775323
C0S970,加津林,2023-04-10,22.416211,120.926942,0.43141904
C0S990,山豬窟,2023-04-10,22.318619,120.857372,0.4762086
C0SA00,歷坵,2023-04-10,22.520969,120.89185,0.70695966
C0SA10,檳榔四格山,2023-04-10,22.810031,121.109308,0.7553941
C0SA30,都歷,2023-04-10,23.020333,121.323642,0.9812806
C0SA40,瑞和,2023-04-10,22.974361,121.156697,0.91499424
C0SA60,知本（水試所）,2023-04-10,22.702394,121.082761,0.8816378
C0SA80,土坂,2023-04-10,22.453108,120.887572,0.7112219
C0SA90,達仁林場,2023-04-10,22.264347,120.823972,0.18651362
C0T870,鯉魚潭,2023-04-10,23.935639,121.508944,0.12781127
C0T900,西林,2023-04-10,23.8119,121.441458,0.097457804
C0T960,光復,2023-04-10,23.660694,121.424964,0.26193473
C0T9A0,月眉山,2023-04-10,23.809928,121.539828,0.63573194
C0T9D0,和中,2023-04-10,24.26676,121.74103,0.7921943
C0T9E0,大坑,2023-04-10,23.880628,121.581981,0.28300777
C0T9F0,水璉,2023-04-10,23.797131,121.542514,0.5177191
C0T9I0,豐濱,2023-04-10,23.583897,121.514806,0.578232
C0T9M0,靜浦,2023-04-10,23.455167,121.495028,0.79059774
C0T9N0,富里,2023-04-10,23.171639,121.249378,0.8222986
C0U600,礁溪,2023-04-10,24.817539,121.765608,0.8167015
C0U650,玉蘭,2023-04-10,24.675286,121.587061,0.09285658
C0U750,龜山島,2023-04-10,24.841667,121.953133,0.9647971
C0U760,東澳,2023-04-10,24.52196,121.83318,0.8486705
C0U770,南澳,2023-04-10,24.44935,121.81022,0.9713685
C0U780,五結,2023-04-10,24.68637,121.79794,0.9731573
C0U860,頭城,2023-04-10,24.85323,121.8308,0.8835412
C0U870,大礁溪,2023-04-10,24.791042,121.675047,0.115251906
C0U880,北關,2023-04-10,24.9072,121.8734,0.6722746
C0U890,三星,2023-04-10,24.66812,121.65302,0.38491675
C0U900,內城,2023-04-10,24.71813,121.68766,0.76171523
C0U910,冬山,2023-04-10,24.63373,121.7937,0.97057563
C0U940,羅東,2023-04-10,24.68184,121.74934,0.90464747
C0U970,大福,2023-04-10,24.80064,121.81389,0.9687627
C0U990,員山,2023-04-10,24.74435,121.72247,0.9009608
C0UA00,土場,2023-04-10,24.576533,121.495333,0.11155162
C0UA80,大溪漁港,2023-04-10,24.941801,121.902955,0.6313042
C0UA90,石城,2023-04-10,24.980444,121.951214,0.95657533
C0UB00,淡江大學蘭陽校園,2023-04-10,24.823239,121.730383,0.62045836
C0UB10,蘇澳,2023-04-10,24.5969,121.8571,0.9918937
C0UB20,壯圍,2023-04-10,24.7359,121.8163,0.9732601
C0V250,甲仙,2023-04-10,23.080106,120.591758,0.30563262
C0V260,月眉,2023-04-10,22.971003,120.539853,0.41309565
C0V310,美濃,2023-04-10,22.898742,120.519153,0.9180724
C0V350,溪埔,2023-04-10,22.738578,120.446797,0.7499826
C0V360,內門,2023-04-10,22.975481,120.466769,0.8806816
C0V370,古亭坑,2023-04-10,22.893178,120.401947,0.91421473
C0V400,阿公店,2023-04-10,22.804194,120.355528,0.7341356
C0V440,鳳山,2023-04-10,22.646653,120.356122,0.75379616
C0V450,鳳森,2023-04-10,22.545064,120.392592,0.5643884
C0V490,新興,2023-04-10,22.627422,120.298803,0.7629089
C0V530,阿蓮,2023-04-10,22.883208,120.327508,0.77349263
C0V610,梓官,2023-04-10,22.760558,120.267211,0.72899896
C0V620,永安,2023-04-10,22.82315,120.236856,0.707951
C0V630,茄萣,2023-04-10,22.906642,120.182608,0.7798736
C0V640,湖內,2023-04-10,22.887139,120.2445,0.76022875
C0V650,彌陀,2023-04-10,22.783806,120.246361,0.707951
C0V660,岡山,2023-04-10,22.797078,120.294958,0.6950254
C0V680,仁武,2023-04-10,22.701083,120.347722,0.71622413
C0V690,鼓山,2023-04-10,22.623325,120.275575,0.83321893
C0V700,三民,2023-04-10,22.645017,120.311233,0.76290905
C0V710,苓雅,2023-04-10,22.622742,120.330669,0.7856232
C0V720,林園,2023-04-10,22.507747,120.394511,0.84412634
C0V730,大寮,2023-04-10,22.605614,120.395717,0.507682
C0V740,旗山,2023-04-10,22.888614,120.483597,0.9146221
C0V750,路竹,2023-04-10,22.854997,120.259439,0.6804793
C0V760,橋頭,2023-04-10,22.757806,120.30575,0.70053387
C0V770,大社,2023-04-10,22.730306,120.346639,0.71485484
C0V790,萬山,2023-04-10,22.905944,120.688056,0.49950337
C0V800,六龜,2023-04-10,22.997889,120.633583,0.30748785
C0V810,左營,2023-04-10,22.67491,120.28491,0.72754234
C0V820,小林,2023-04-10,23.148408,120.63325,0.47858924
C0V840,鳳鼻頭,2023-04-10,22.5083,120.3591,0.8459241
C0V850,蚵仔寮,2023-04-10,22.7256,120.2527,0.73838913
C0V860,南寮,2023-04-10,22.7616,120.2339,0.7298569
C0V870,文安,2023-04-10,22.8025,120.2164,0.7498201
C0V880,興達,2023-04-10,22.8778,120.2127,0.7798736
C0V890,前鎮,2023-04-10,22.5718,120.3117,0.8314338
C0V900,汕尾,2023-04-10,22.4782,120.4151,0.8524334
C0X050,東河,2023-04-10,23.296598,120.385608,0.90483314
C0X060,下營,2023-04-10,23.22695,120.256261,0.90764654
C0X080,佳里,2023-04-10,23.173039,120.145086,0.9075614
C0X100,臺南市北區,2023-04-10,23.010394,120.194228,0.7565633
C0X110,臺南市南區,2023-04-10,22.961189,120.188378,0.76244134
C0X120,麻豆,2023-04-10,23.183289,120.248611,0.91185564
C0X130,官田,2023-04-10,23.193217,120.315422,0.91866094
C0X140,西港,2023-04-10,23.125608,120.203108,0.89074856
C0X150,安定,2023-04-10,23.102614,120.227839,0.7397243
C0X160,仁德,2023-04-10,22.968258,120.257689,0.7491079
C0X170,關廟,2023-04-10,22.963017,120.327797,0.77622974
C0X180,山上,2023-04-10,23.0757,120.363253,0.9077191
C0X190,安平,2023-04-10,22.993161,120.152181,0.78598404
C0X200,左鎮,2023-04-10,23.056758,120.408522,0.9158509
C0X210,白河,2023-04-10,23.347466,120.414427,0.91578
C0X220,學甲,2023-04-10,23.230367,120.182187,0.9061042
C0X230,鹽水,2023-04-10,23.272621,120.247641,0.9249214
C0X240,關子嶺,2023-04-10,23.331169,120.508025,0.22791545
C0X250,新營,2023-04-10,23.310689,120.316681,0.9272532
C0X260,後壁,2023-04-10,23.366358,120.362326,0.92051005
C0X280,將軍,2023-04-10,23.214999,120.13577,0.9051895
C0X290,北門,2023-04-10,23.267772,120.125481,0.9053407
C0X300,鹿寮,2023-04-10,23.386047,120.477331,0.53040534
C0X310,七股,2023-04-10,23.147289,120.086253,0.916236
C0X320,柳營,2023-04-10,23.253328,120.375253,0.90546554
C0Z020,明里,2023-04-10,23.208717,121.262342,0.8433482
C0Z061,玉里,2023-04-10,23.3215,121.339656,0.9000199
C0Z070,舞鶴,2023-04-10,23.46811,121.37407,0.33938912
C0Z080,富源,2023-04-10,23.587642,121.378225,0.17900601
C0Z100,東華,2023-04-10,23.89525,121.549833,0.23675494
C0Z150,吉安光華,2023-04-10,23.930925,121.595153,0.31973475
C0Z160,鳳林,2023-04-10,23.746114,121.453411,0.16648091
C0Z170,卓溪,2023-04-10,23.3443,121.3029,0.874309
C0Z180,新城,2023-04-10,24.03946,121.60454,0.30178872
C0Z190,富世,2023-04-10,24.14743,121.6297,0.6249369
C0Z200,萬榮,2023-04-10,23.709219,121.420106,0.2510209
C0Z210,瑞穗,2023-04-10,23.5239,121.39021,0.32698214
C0Z230,和平,2023-04-10,24.30717,121.77007,0.54036975
C0Z270,蕃薯寮,2023-04-10,23.73835,121.540108,0.5358095
C0Z280,德武,2023-04-10,23.47426,121.41071,0.4595292
C0Z300,東里,2023-04-10,23.26853,121.30547,0.9027495
C0Z310,清水斷崖,2023-04-10,24.218294,121.689142,0.69199646
C0Z330,安通山,2023-04-10,23.290728,121.348528,0.89180243
CAA010,國一N013K,2023-04-10,25.06944,121.6281,0.4375697
CAA020,國一S026K,2023-04-10,25.07639,121.4964,0.331948
CAA030,國三S010K,2023-04-10,25.08,121.6475,0.32999596
CAA040,國三S016K,2023-04-10,25.03306,121.6158,0.31462502
CAA050,國三S037K,2023-04-10,24.9828,121.471,0.38787085
CAA060,國三S042K,2023-04-10,24.96,121.4306,0.23177168
CAA070,國三N046K,2023-04-10,24.95083,121.3958,0.21991304
CAA080,國三S054K,2023-04-10,24.93917,121.3239,0.18415378
CAA090,國三A005K,2023-04-10,25.00194,121.5975,0.34206825
CAAH60,大安森林,2023-04-10,25.02955,121.53628,0.4401027
CAB010,國一S001K,2023-04-10,25.11583,121.7286,0.4119772
CAB020,國一S006K,2023-04-10,25.08694,121.6869,0.42368194
CAB030,國三S004K,2023-04-10,25.11444,121.6886,0.70434743
CAB040,國三S007K,2023-04-10,25.09694,121.6678,0.2929253
CAB050,國三K002K,2023-04-10,25.14583,121.7217,0.38106313
CAC010,國一S072K,2023-04-10,24.89583,121.1342,0.1076207
CAC020,國二E009K,2023-04-10,25.02111,121.2736,0.16688044
CAC030,國三N063K,2023-04-10,24.889,121.26,0.27590373
CAC050,西濱S023K,2023-04-10,25.11649,121.27551,0.15711947
CAC060,西濱S032K,2023-04-10,25.091966,121.192505,0.17694807
CAD010,國一S105K,2023-04-10,24.726316,120.940643,0.2020986
CAD020,國一N077K,2023-04-10,24.885,121.0889,0.13524057
CAD030,國一S082K,2023-04-10,24.87667,121.0467,0.22291018
CAD040,國一S088K,2023-04-10,24.84444,121.0214,0.23012453
CAD050,國一N094K,2023-04-10,24.79778,121.0089,0.19764686
CAD060,國一S098K,2023-04-10,24.76056,120.9911,0.19747262
CAD070,國三N076K,2023-04-10,24.800303,121.195739,0.20267351
CAD080,國三N085K,2023-04-10,24.78333,121.1211,0.23766464
CAD090,國三S103K,2023-04-10,24.75861,120.9608,0.16798665
CAD100,西濱N066K,2023-04-10,24.8956,120.9649,0.35537052
CAD110,西濱S082K,2023-04-10,24.751724,120.905028,0.23864242
CAE010,國一N142K,2023-04-10,24.453119,120.783221,0.52210146
CAE020,國一S114K,2023-04-10,24.668835,120.885811,0.21906665
CAE030,國一S123K,2023-04-10,24.59594,120.86071,0.7445645
CAE040,國一S132K,2023-04-10,24.524506,120.820831,0.7995908
CAE050,國一S152K,2023-04-10,24.375492,120.749184,0.33413815
CAE060,國三N119K,2023-04-10,24.675432,120.847389,0.51383966
CAE070,國三N151K,2023-04-10,24.440218,120.681656,0.8436745
CAE080,國三S140K,2023-04-10,24.522345,120.725006,0.8323845
CAE090,國三S156K,2023-04-10,24.39798,120.669487,0.8415759
CAE100,西濱N107K,2023-04-10,24.5958,120.7394,0.80617917
CAE110,西濱S129K,2023-04-10,24.4472,120.6428,0.8664747
CAF010,國一N174K,2023-04-10,24.2049,120.6552,0.8484373
CAF020,國一S162K,2023-04-10,24.295534,120.695976,0.6565135
CAF030,國一S169K,2023-04-10,24.237116,120.688271,0.7068929
CAF040,國一S188K,2023-04-10,24.118546,120.585747,0.79363185
CAF050,國三N208K,2023-04-10,24.066147,120.660919,0.8124652
CAF060,國三S168K,2023-04-10,24.308519,120.614471,0.863342
CAF070,國三S173K,2023-04-10,24.27397,120.593079,0.8059368
CAF080,國三S178K,2023-04-10,24.226721,120.589058,0.820019
CAF090,國四E5K,2023-04-10,24.296465,120.643135,0.8312022
CAF100,西濱N151K,2023-04-10,24.275964,120.547681,0.8639861
CAG010,國一N198K,2023-04-10,24.063889,120.523056,0.7820023
CAG030,國一S207K,2023-04-10,23.988304,120.508092,0.79725957
CAG040,國三N191K,2023-04-10,24.139256,120.5215,0.86180115
CAG050,國三N196K,2023-04-10,24.107155,120.554482,0.79133165
CAG060,國三S202K,2023-04-10,24.092468,120.603256,0.8028254
CAG070,西濱S173K,2023-04-10,24.1081,120.434576,0.7277714
CAG080,西濱S189K,2023-04-10,23.987857,120.369607,0.7601934
CAG090,西濱N210K,2023-04-10,23.843536,120.293236,0.8406178
CAG100,王功漁港,2023-04-10,23.96824,120.32586,0.773151
CAH010,國三N223K,2023-04-10,23.955116,120.662376,0.31824648
CAH020,國三S217K,2023-04-10,24.00683,120.653214,0.8830832
CAH030,茶改場竹圍站,2023-04-10,23.860083,120.637528,0.22715825
CAHA00,消防署訓練中心,2023-04-10,23.82137,120.72293,0.27078032
CAJ010,國三N252K,2023-04-10,23.77412,120.64061,0.33839512
CAJ020,國一N234K,2023-04-10,23.74633,120.467926,0.42291304
CAJ030,西濱N222K,2023-04-10,23.737734,120.256132,0.85820127
CAJ040,西濱S241K,2023-04-10,23.623426,120.172646,0.89017695
CAJ050,海口故事園區,2023-04-10,23.57543,120.14121,0.89384186
CAL010,國一N250K,2023-04-10,23.610292,120.436867,0.8807043
CAL020,國一S262K,2023-04-10,23.512333,120.403038,0.8865623
CAL030,國一N268K,2023-04-10,23.460833,120.375833,0.89467597
CAL040,國一N273K,2023-04-10,23.416666,120.355,0.9046142
CAL050,國三N279K,2023-04-10,23.596111,120.523333,0.40681544
CAL060,國三S286K,2023-04-10,23.533917,120.484583,0.38536906
CAL070,國三N295K,2023-04-10,23.468598,120.499369,0.45970812
CAL080,國三N303K,2023-04-10,23.428611,120.452416,0.89481115
CAL090,西濱S257K,2023-04-10,23.502278,120.171861,0.8981518
CAL100,西濱S267K,2023-04-10,23.41613,120.162872,0.90169996
CAL110,布袋國中,2023-04-10,23.35893,120.18026,0.9246366
CAN010,國一N288K,2023-04-10,23.30609,120.290033,0.92522126
CAN020,國一S306K,2023-04-10,23.1565,120.239513,0.91339904
CAN030,國一N316K,2023-04-10,23.07309,120.253014,0.739789
CAN040,國一N323K,2023-04-10,23.00421,120.245922,0.7447153
CAN050,國一N335K,2023-04-10,22.897584,120.269895,0.75706464
CAN060,國三S311K,2023-04-10,23.346388,120.438888,0.9173287
CAN070,國三S329K,2023-04-10,23.212777,120.355833,0.9103586
CAN080,國三N336K,2023-04-10,23.154722,120.345,0.92205256
CAN090,國三S342K,2023-04-10,23.106694,120.327528,0.7416237
CAN100,國三S366K,2023-04-10,22.9077,120.3513,0.7986335
CAN110,西濱S280K,2023-04-10,23.3052,120.14891,0.9067577
CAN120,西濱N304K,2023-04-10,23.103439,120.086694,0.9195495
CAN130,水試所海水繁養殖中心,2023-04-10,23.120802,120.07968,0.9172367
CAN140,六官養殖協會,2023-04-10,23.22881,120.29962,0.91445905
CAP010,國一S342K,2023-04-10,22.845555,120.295,0.6913025
CAP020,國一S346K,2023-04-10,22.812222,120.314166,0.6950254
CAP030,國一N351K,2023-04-10,22.765833,120.328888,0.6989708
CAP040,國一N361K,2023-04-10,22.680555,120.328611,0.70734894
CAP050,國三N372K,2023-04-10,22.858611,120.373611,0.7382154
CAP060,國三S385K,2023-04-10,22.767777,120.444444,0.4228911
CAP070,高雄燈塔,2023-04-10,22.6146,120.2647,0.83321893
CAQ010,國三N425K,2023-04-10,22.480277,120.531666,0.82440746
CAQ020,國三S415K,2023-04-10,22.568,120.528,0.6231167
CAQ030,崎峰國小,2023-04-10,22.42565,120.49521,0.8490178
E2K600,四湖植物園,2023-04-10,23.676986,120.163433,0.8464648
E2P980,林試六龜中心,2023-04-10,22.991703,120.645722,0.30588844
E2S390,太麻里分所,2023-04-10,22.5988,120.9811,0.8073173
E2S960,林試太麻里2,2023-04-10,22.598014,120.989761,0.775323
E2S980,林試太麻里1,2023-04-10,22.598922,120.980044,0.8073173
G2AI50,關渡,2023-04-10,25.11575,121.492,0.34215423
G2F820,農試所(霧峰),2023-04-10,24.031261,120.688133,0.87791926
G2L020,嘉義分所,2023-04-10,23.485028,120.473806,0.43888646
G2M350,溪口農場,2023-04-10,23.58565,120.408111,0.87836015
G2P820,鳳山園試所,2023-04-10,22.646611,120.356083,0.75379616
K2E360,苗栗農改場,2023-04-10,24.495722,120.829111,0.62656593
K2E710,大湖分場,2023-04-10,24.422861,120.871833,0.4414945
K2F750,種苗改良場,2023-04-10,24.225972,120.800917,0.275708
U2HA50,臺大竹山,2023-04-10,23.756972,120.681556,0.2829926
V2C250,八德合作社,2023-04-10,24.93775,121.266389,0.20467864
V2C260,八德蔬果,2023-04-10,24.978508,121.281819,0.13539112
V2K610,大庄合作社,2023-04-10,23.8068,120.367939,0.855359
V2K620,麥寮合作社,2023-04-10,23.753836,120.294783,0.8566068
