站號,站名,日期,lat,lon,BlastGRU-TW
466920,臺北,2023-08-16,25.037658,121.514853,0.075675465
466940,基隆,2023-08-16,25.133314,121.740475,0.27687213
466990,花蓮,2023-08-16,23.975128,121.613275,0.9996425
467050,新屋,2023-08-16,25.006744,121.047486,0.11733409
467080,宜蘭,2023-08-16,24.763975,121.756528,0.3944653
467270,田中,2023-08-16,23.873803,120.581286,0.83237815
467300,東吉島,2023-08-16,23.25695,119.667467,0.9996191
467350,澎湖,2023-08-16,23.565503,119.563094,0.9997357
467410,臺南,2023-08-16,22.993239,120.204772,0.31076774
467420,永康,2023-08-16,23.038386,120.2367,0.8519421
467441,高雄,2023-08-16,22.7304,120.3125,0.9182967
467480,嘉義,2023-08-16,23.495925,120.432906,0.97509277
467490,臺中,2023-08-16,24.145736,120.684075,0.08521638
467540,大武,2023-08-16,22.355675,120.903789,0.99943054
467571,新竹,2023-08-16,24.827853,121.014219,0.22378246
467590,恆春,2023-08-16,22.003897,120.746339,0.99748486
467610,成功,2023-08-16,23.097486,121.373428,0.99993
467620,蘭嶼,2023-08-16,22.036969,121.558339,0.99685425
467660,臺東,2023-08-16,22.752211,121.154586,0.99980307
467790,墾丁雷達站,2023-08-16,21.948235,120.808028,0.99777746
C0A520,山佳,2023-08-16,24.974944,121.402008,0.08049873
C0A530,坪林,2023-08-16,24.938183,121.70975,0.9724138
C0A540,四堵,2023-08-16,24.8926,121.745736,0.6121286
C0A550,泰平,2023-08-16,24.971197,121.823711,0.99606544
C0A560,福山,2023-08-16,24.776203,121.502811,0.99931234
C0A570,桶後,2023-08-16,24.848222,121.597992,0.909173
C0A640,石碇,2023-08-16,24.993969,121.662917,0.93357915
C0A650,火燒寮,2023-08-16,25.002719,121.742892,0.9654669
C0A660,瑞芳,2023-08-16,25.113169,121.801147,0.74111867
C0A770,科教館,2023-08-16,25.096356,121.516507,0.17512836
C0A860,大坪,2023-08-16,25.165914,121.632969,0.9804558
C0A880,福隆,2023-08-16,25.017842,121.942083,0.30740553
C0A890,雙溪,2023-08-16,25.036003,121.864242,0.16188289
C0A920,富貴角,2023-08-16,25.263783,121.565258,0.72014135
C0A931,三和,2023-08-16,25.233153,121.595236,0.9866605
C0A940,金山,2023-08-16,25.223628,121.643967,0.6050083
C0A950,鼻頭角,2023-08-16,25.129036,121.923372,0.36758757
C0A970,三貂角,2023-08-16,25.007606,122.002058,0.34798327
C0A980,社子,2023-08-16,25.109508,121.469681,0.16804832
C0A9C0,天母,2023-08-16,25.117494,121.537169,0.3044141
C0A9F0,內湖,2023-08-16,25.079422,121.57545,0.18983069
C0AC60,三峽,2023-08-16,24.939025,121.369728,0.060949113
C0AC70,信義,2023-08-16,25.037822,121.564597,0.07692681
C0AC80,文山,2023-08-16,25.00235,121.575728,0.068859406
C0ACA0,新莊,2023-08-16,25.051478,121.446756,0.17481044
C0AD00,三芝,2023-08-16,25.258131,121.501917,0.62902474
C0AD10,八里,2023-08-16,25.150211,121.403947,0.5126028
C0AD30,蘆洲,2023-08-16,25.086594,121.472331,0.17512836
C0AD40,土城,2023-08-16,24.973208,121.445169,0.09290385
C0AD50,鶯歌,2023-08-16,24.951533,121.346294,0.10713676
C0AG80,中和,2023-08-16,24.991622,121.491792,0.05561959
C0AH00,汐止,2023-08-16,25.066881,121.658778,0.23316097
C0AH10,永和,2023-08-16,25.01125,121.508111,0.054779224
C0AH40,平等,2023-08-16,25.129142,121.577086,0.9326793
C0AH50,林口,2023-08-16,25.072181,121.38084,0.65405697
C0AH70,松山,2023-08-16,25.04871,121.55042,0.07692697
C0AH80,深坑,2023-08-16,25.002703,121.628328,0.108507484
C0AI00,五股,2023-08-16,25.07445,121.42728,0.094026044
C0AI10,屈尺,2023-08-16,24.92184,121.54475,0.16810454
C0AI20,白沙灣,2023-08-16,25.283128,121.519058,0.7849093
C0AI30,三重,2023-08-16,25.057328,121.500629,0.11343314
C0AI40,石牌,2023-08-16,25.115597,121.513139,0.18140005
C0AJ20,野柳,2023-08-16,25.20703,121.690021,0.45889175
C0AJ30,淡水觀海,2023-08-16,25.184591,121.408616,0.37826347
C0AJ40,石門,2023-08-16,25.273672,121.601198,0.8174326
C0AJ50,水湳洞,2023-08-16,25.123695,121.862238,0.1963016
C0AJ60,六塊厝,2023-08-16,25.24,121.4481,0.64711374
C0AJ70,田寮,2023-08-16,25.2698,121.4886,0.52814853
C0AJ80,板橋,2023-08-16,25.0107,121.4489,0.08674436
C0AJ90,澳底,2023-08-16,25.0552,121.9253,0.32010463
C0B010,七堵,2023-08-16,25.094819,121.71713,0.2504628
C0B020,基隆嶼,2023-08-16,25.19141,121.78391,0.24719581
C0B040,大武崙,2023-08-16,25.166676,121.706993,0.3635278
C0B050,八斗子,2023-08-16,25.144754,121.79167,0.25511166
C0B060,暖暖,2023-08-16,25.0957,121.7403,0.32932895
C0C460,復興,2023-08-16,24.820208,121.352281,0.98385936
C0C480,桃園,2023-08-16,24.992425,121.323172,0.10839457
C0C490,八德,2023-08-16,24.928708,121.283289,0.061964594
C0C590,觀音,2023-08-16,25.027072,121.153317,0.6640768
C0C620,蘆竹,2023-08-16,25.084275,121.265767,0.42696157
C0C630,大溪,2023-08-16,24.882853,121.265547,0.21748376
C0C650,平鎮,2023-08-16,24.897503,121.214636,0.63145214
C0C660,楊梅,2023-08-16,24.912375,121.143047,0.6298699
C0C670,龍潭,2023-08-16,24.870056,121.221389,0.19002503
C0C680,龜山,2023-08-16,25.02846,121.38656,0.62085867
C0C700,中壢,2023-08-16,24.977661,121.256375,0.12966157
C0C710,大溪永福,2023-08-16,24.892936,121.324975,0.11219843
C0C720,竹圍,2023-08-16,25.112692,121.239824,0.40176797
C0C730,中大臨海站,2023-08-16,24.966126,121.008581,0.24683066
C0C740,觀音工業區,2023-08-16,25.064764,121.114856,0.48032022
C0C750,新興坑尾,2023-08-16,25.0061,121.0971,0.2832113
C0D430,峨眉,2023-08-16,24.6905,121.017189,0.16628216
C0D480,打鐵坑,2023-08-16,24.849664,121.150789,0.17625976
C0D540,橫山,2023-08-16,24.71116,121.11693,0.0727028
C0D560,竹東,2023-08-16,24.767147,121.057881,0.07068741
C0D580,寶山,2023-08-16,24.735006,121.025192,0.074655786
C0D590,新豐,2023-08-16,24.87068,120.97721,0.06813123
C0D650,湖口,2023-08-16,24.904794,121.043628,0.11309213
C0D660,新竹市東區,2023-08-16,24.798681,120.986942,0.19007185
C0D670,海天一線,2023-08-16,24.831986,120.914438,0.7237524
C0D680,香山濕地,2023-08-16,24.783581,120.914988,0.6260868
C0D690,外湖,2023-08-16,24.917735,120.968711,0.38340136
C0D700,關西,2023-08-16,24.7977,121.1732,0.15076782
C0E420,竹南,2023-08-16,24.708978,120.888897,0.5762215
C0E430,南庄,2023-08-16,24.601775,121.000214,0.80331725
C0E520,大湖,2023-08-16,24.41494,120.87087,0.8846858
C0E540,後龍,2023-08-16,24.606489,120.783933,0.86685497
C0E550,明德,2023-08-16,24.583486,120.885411,0.8125773
C0E590,通霄,2023-08-16,24.471892,120.704622,0.4521064
C0E730,頭份,2023-08-16,24.688247,120.912206,0.31034294
C0E740,造橋,2023-08-16,24.637056,120.864778,0.684296
C0E750,苗栗,2023-08-16,24.564569,120.824575,0.88005674
C0E780,銅鑼,2023-08-16,24.489681,120.790853,0.81914043
C0E791,卓蘭,2023-08-16,24.3126,120.8244,0.9563372
C0E810,西湖,2023-08-16,24.562947,120.7485,0.8449792
C0E820,獅潭,2023-08-16,24.539133,120.920042,0.9513189
C0E830,苑裡,2023-08-16,24.439714,120.653053,0.71251935
C0E850,大河,2023-08-16,24.618069,120.948578,0.82282877
C0E870,高鐵苗栗,2023-08-16,24.60725,120.826094,0.8738544
C0E910,海埔,2023-08-16,24.648767,120.772435,0.9088458
C0E920,通霄漁港,2023-08-16,24.498589,120.673876,0.6916231
C0E930,龍鳳,2023-08-16,24.700034,120.859125,0.74641776
C0F0B0,石岡,2023-08-16,24.276061,120.777644,0.8323101
C0F850,東勢,2023-08-16,24.246428,120.833047,0.9295199
C0F930,大甲,2023-08-16,24.347667,120.640403,0.34691203
C0F970,大坑,2023-08-16,24.173142,120.722289,0.08754828
C0F9A0,中竹林,2023-08-16,24.103556,120.751061,0.07070365
C0F9I0,神岡,2023-08-16,24.272481,120.658314,0.7346412
C0F9K0,大安,2023-08-16,24.345061,120.588025,0.5601651
C0F9L0,后里,2023-08-16,24.310436,120.729725,0.9403564
C0F9M0,豐原,2023-08-16,24.254322,120.720692,0.89873576
C0F9N0,大里,2023-08-16,24.092464,120.701378,0.076185085
C0F9O0,潭子,2023-08-16,24.213106,120.703933,0.27181962
C0F9P0,清水,2023-08-16,24.312297,120.562242,0.31384072
C0F9Q0,外埔,2023-08-16,24.347817,120.705686,0.7801725
C0F9R0,龍井,2023-08-16,24.184536,120.528972,0.2061514
C0F9S0,烏日,2023-08-16,24.107058,120.624103,0.09528559
C0F9T0,西屯,2023-08-16,24.179494,120.641275,0.09439114
C0F9U0,南屯,2023-08-16,24.137006,120.637969,0.065995805
C0F9X0,大雅(中科園區),2023-08-16,24.21528,120.62445,0.121874824
C0FA10,松柏,2023-08-16,24.429115,120.617482,0.6752962
C0FA20,溫寮,2023-08-16,24.372177,120.583125,0.5483071
C0FA30,梧棲,2023-08-16,24.256003,120.523381,0.523483
C0FA40,臺中電廠,2023-08-16,24.2146,120.4907,0.2061514
C0FA50,霧峰,2023-08-16,24.0419,120.6995,0.1391786
C0G620,芬園,2023-08-16,24.015678,120.6213,0.41061613
C0G640,鹿港,2023-08-16,24.0753,120.430481,0.38803068
C0G650,員林,2023-08-16,23.946503,120.585597,0.36820522
C0G660,溪湖,2023-08-16,23.94835,120.479122,0.3352198
C0G720,溪州,2023-08-16,23.851589,120.499093,0.8475002
C0G730,二林,2023-08-16,23.903325,120.376081,0.47924852
C0G740,大城,2023-08-16,23.852487,120.320935,0.91816396
C0G770,福興,2023-08-16,24.041289,120.437669,0.30229303
C0G780,秀水,2023-08-16,24.03405,120.503869,0.19888695
C0G800,埔鹽,2023-08-16,24.000394,120.431683,0.29527685
C0G810,埔心,2023-08-16,23.947633,120.525456,0.34478098
C0G820,田尾,2023-08-16,23.901669,120.509389,0.41615707
C0G830,埤頭,2023-08-16,23.866003,120.452806,0.941539
C0G840,北斗,2023-08-16,23.877586,120.514222,0.41615707
C0G860,社頭,2023-08-16,23.897647,120.5862,0.5055086
C0G870,芳苑,2023-08-16,23.922303,120.320025,0.9175763
C0G880,二水,2023-08-16,23.810742,120.6173,0.8834135
C0G890,伸港,2023-08-16,24.148933,120.484403,0.11562254
C0G900,線西,2023-08-16,24.143358,120.443536,0.6045573
C0G910,花壇,2023-08-16,24.032076,120.549461,0.2439938
C0G920,永靖,2023-08-16,23.924703,120.547533,0.49037525
C0G940,竹塘,2023-08-16,23.848253,120.386764,0.89426756
C0G950,防潮門,2023-08-16,24.1835,120.4871,0.20046528
C0G960,福寶,2023-08-16,24.0443,120.3814,0.8221211
C0G970,三豐,2023-08-16,23.882,120.2895,0.9175763
C0H890,埔里,2023-08-16,23.972169,120.952425,0.015246566
C0H950,中寮,2023-08-16,23.884447,120.766406,0.50942
C0H960,草屯,2023-08-16,23.973672,120.68085,0.72317207
C0I110,竹山,2023-08-16,23.761225,120.688156,0.97635084
C0I360,水里,2023-08-16,23.812553,120.849792,0.6359882
C0I380,集集,2023-08-16,23.828206,120.801467,0.95613486
C0I410,名間,2023-08-16,23.837053,120.701447,0.95132357
C0I420,國姓,2023-08-16,24.037803,120.855072,0.018275233
C0I460,南投,2023-08-16,23.911469,120.687331,0.8964726
C0K250,崙背,2023-08-16,23.75555,120.318925,0.8989642
C0K280,四湖,2023-08-16,23.630414,120.227125,0.7919191
C0K291,宜梧,2023-08-16,23.536281,120.169329,0.7866735
C0K330,虎尾,2023-08-16,23.719183,120.442036,0.84890896
C0K390,土庫,2023-08-16,23.679029,120.395574,0.81899345
C0K400,斗六,2023-08-16,23.720583,120.541127,0.90228355
C0K410,北港,2023-08-16,23.573957,120.292802,0.8801115
C0K420,西螺,2023-08-16,23.800407,120.467394,0.9452275
C0K430,褒忠,2023-08-16,23.690938,120.303634,0.87355286
C0K440,二崙,2023-08-16,23.772797,120.408944,0.8445588
C0K450,大埤,2023-08-16,23.646074,120.431537,0.861571
C0K460,斗南,2023-08-16,23.678734,120.478359,0.8820893
C0K470,林內,2023-08-16,23.748675,120.609642,0.87974966
C0K480,莿桐,2023-08-16,23.761192,120.502372,0.88683784
C0K500,元長,2023-08-16,23.64981,120.315024,0.8775022
C0K510,水林,2023-08-16,23.572924,120.24597,0.83128077
C0K530,臺西,2023-08-16,23.701547,120.197559,0.778072
C0K550,蔦松,2023-08-16,23.514319,120.229736,0.8390803
C0K560,棋山,2023-08-16,23.68645,120.603417,0.9515312
C0K580,高鐵雲林,2023-08-16,23.737456,120.417944,0.8239642
C0K590,雲林東勢,2023-08-16,23.674192,120.255721,0.7908062
C0K600,箔子寮,2023-08-16,23.6197,120.14,0.7119734
C0M410,馬頭山,2023-08-16,23.324361,120.582017,0.99547416
C0M520,東後寮,2023-08-16,23.369908,120.248065,0.83578116
C0M640,中埔,2023-08-16,23.42538,120.5229,0.9519852
C0M650,朴子,2023-08-16,23.43463,120.23902,0.82893634
C0M660,溪口,2023-08-16,23.604131,120.403569,0.9481255
C0M670,大林,2023-08-16,23.600616,120.45841,0.9745687
C0M680,太保,2023-08-16,23.455062,120.331455,0.9012169
C0M690,水上,2023-08-16,23.419734,120.388909,0.97773945
C0M700,竹崎,2023-08-16,23.526178,120.555508,0.9643232
C0M710,東石,2023-08-16,23.458927,120.15385,0.6752609
C0M720,番路,2023-08-16,23.464657,120.554156,0.96960497
C0M730,嘉義市東區,2023-08-16,23.457673,120.460531,0.9862586
C0M740,六腳,2023-08-16,23.492871,120.290625,0.88746554
C0M750,布袋,2023-08-16,23.380878,120.167789,0.6594903
C0M760,民雄,2023-08-16,23.551754,120.428457,0.9563938
C0M770,嘉義梅山,2023-08-16,23.585398,120.555587,0.97869
C0M780,鹿草,2023-08-16,23.41134,120.30835,0.9261415
C0M790,新港,2023-08-16,23.553269,120.345728,0.9380623
C0M800,茶山,2023-08-16,23.299075,120.664767,0.9843133
C0M880,好美里,2023-08-16,23.3364,120.138,0.6072402
C0N010,鯤鯓國小,2023-08-16,23.1879,120.0889,0.3005821
C0N020,城西,2023-08-16,23.0568,120.0956,0.099100456
C0N030,四草,2023-08-16,23.0235,120.1116,0.081311814
C0N040,蘆竹溝,2023-08-16,23.2344,120.0961,0.26084873
C0N050,蚵寮,2023-08-16,23.301,120.1104,0.35472667
C0O810,曾文,2023-08-16,23.219681,120.497328,0.9762933
C0O830,北寮,2023-08-16,23.079561,120.495008,0.99581087
C0O840,王爺宮,2023-08-16,23.222064,120.40085,0.98125535
C0O860,大內,2023-08-16,23.11885,120.36083,0.9812324
C0O900,善化,2023-08-16,23.112883,120.297219,0.96247834
C0O930,玉井,2023-08-16,23.126042,120.46055,0.9590218
C0O950,安南,2023-08-16,23.076694,120.144861,0.35089347
C0O960,崎頂,2023-08-16,22.959547,120.369317,0.8276875
C0O970,虎頭埤,2023-08-16,23.021375,120.347878,0.84443796
C0O980,新市,2023-08-16,23.061614,120.298197,0.9526421
C0O990,媽廟,2023-08-16,22.99175,120.293525,0.9340642
C0R150,三地門,2023-08-16,22.709889,120.639944,0.42915574
C0R160,鹽埔,2023-08-16,22.739558,120.530778,0.4907692
C0R170,屏東,2023-08-16,22.660269,120.494072,0.99510944
C0R190,赤山,2023-08-16,22.592333,120.614306,0.37159216
C0R220,潮州,2023-08-16,22.534361,120.54,0.47387257
C0R240,來義,2023-08-16,22.527306,120.625111,0.39149347
C0R260,春日,2023-08-16,22.370361,120.628306,0.17863375
C0R270,琉球嶼,2023-08-16,22.332244,120.362236,0.2169711
C0R280,檳榔,2023-08-16,22.076078,120.836777,0.9982623
C0R320,車城,2023-08-16,22.0744,120.716247,0.9971592
C0R341,牡丹,2023-08-16,22.130036,120.792639,0.99837095
C0R350,貓鼻頭,2023-08-16,21.921774,120.7358,0.9975883
C0R470,高樹,2023-08-16,22.826389,120.600806,0.40474418
C0R480,長治,2023-08-16,22.693128,120.542622,0.52501607
C0R490,九如,2023-08-16,22.7405,120.490503,0.9954195
C0R520,崁頂,2023-08-16,22.514781,120.506914,0.9702621
C0R540,佳冬,2023-08-16,22.419456,120.552375,0.9605961
C0R550,新埤,2023-08-16,22.467947,120.582894,0.34966773
C0R560,新園,2023-08-16,22.5434,120.461558,0.93568695
C0R570,麟洛,2023-08-16,22.65078,120.52719,0.9952481
C0R580,南州,2023-08-16,22.48591,120.50274,0.9693684
C0R590,里港,2023-08-16,22.77919,120.49459,0.513613
C0R620,墾雷,2023-08-16,21.900836,120.855269,0.9976305
C0R640,東港,2023-08-16,22.46247,120.44074,0.7901543
C0R650,竹田,2023-08-16,22.58486,120.54344,0.49770182
C0R660,枋寮,2023-08-16,22.367722,120.590647,0.2942835
C0R670,楓港,2023-08-16,22.190131,120.692156,0.9987784
C0R680,佳樂水,2023-08-16,21.993578,120.861633,0.9973659
C0R690,墾丁,2023-08-16,21.966756,120.810269,0.99830306
C0R700,枋山,2023-08-16,22.246844,120.661086,0.9700559
C0R710,龍磐,2023-08-16,21.931672,120.838942,0.99828666
C0R720,旭海,2023-08-16,22.205403,120.887614,0.9995996
C0R730,大坪頂,2023-08-16,22.024633,120.69355,0.9983427
C0R740,獅子,2023-08-16,22.201569,120.70525,0.99885195
C0R760,南仁湖,2023-08-16,22.084681,120.863353,0.99818224
C0R770,保力,2023-08-16,22.071122,120.764111,0.9980185
C0R780,滿州,2023-08-16,22.024403,120.839892,0.99768883
C0R790,九棚,2023-08-16,22.14195,120.889281,0.99958885
C0R800,丹路,2023-08-16,22.204481,120.750989,0.9969544
C0R810,內獅,2023-08-16,22.305064,120.642986,0.96587604
C0R830,高士,2023-08-16,22.121825,120.836781,0.9981425
C0R850,林邊,2023-08-16,22.4634,120.5339,0.97826165
C0R860,鼻頭,2023-08-16,22.1043,120.8979,0.99710613
C0R870,興海,2023-08-16,21.9752,120.8439,0.9973659
C0R880,後壁湖,2023-08-16,21.9457,120.7457,0.99701244
C0R890,山海,2023-08-16,21.9878,120.7091,0.9970958
C0R900,竹坑,2023-08-16,22.1385,120.7022,0.57283914
C0R910,下寮,2023-08-16,22.3929,120.5548,0.9605961
C0R920,塭仔,2023-08-16,22.4169,120.5197,0.9057178
C0R930,萬丹,2023-08-16,22.5885,120.4851,0.43224877
C0R940,加祿堂,2023-08-16,22.3363,120.6217,0.16745947
C0S710,鹿野,2023-08-16,22.917711,121.122994,0.999947
C0S730,綠島,2023-08-16,22.6672,121.47533,0.99990934
C0S740,池上,2023-08-16,23.119628,121.209469,0.99994016
C0S770,大溪山,2023-08-16,22.478475,120.943325,0.9996463
C0S790,金崙,2023-08-16,22.538122,120.966875,0.9995794
C0S810,東河,2023-08-16,22.972672,121.303986,0.9999481
C0S830,長濱,2023-08-16,23.286817,121.411975,0.99996287
C0S840,南田,2023-08-16,22.279725,120.889208,0.99945736
C0S890,關山,2023-08-16,23.0395,121.175017,0.99992025
C0S900,蘭嶼高中,2023-08-16,22.04909,121.51214,0.9980574
C0S910,蘭嶼燈塔,2023-08-16,22.081197,121.503117,0.9977971
C0S920,金峰嘉蘭,2023-08-16,22.594789,120.960825,0.99948686
C0S930,延平,2023-08-16,22.902581,121.084058,0.99991196
C0S940,石寧山,2023-08-16,23.223772,121.406639,0.9999603
C0S950,七塊厝,2023-08-16,22.954453,121.229922,0.9999532
C0S960,香蘭,2023-08-16,22.587569,120.993375,0.9997676
C0S970,加津林,2023-08-16,22.416211,120.926942,0.99962264
C0S990,山豬窟,2023-08-16,22.318619,120.857372,0.99962586
C0SA00,歷坵,2023-08-16,22.520969,120.89185,0.99953544
C0SA10,檳榔四格山,2023-08-16,22.810031,121.109308,0.99985725
C0SA30,都歷,2023-08-16,23.020333,121.323642,0.99993455
C0SA40,瑞和,2023-08-16,22.974361,121.156697,0.99991864
C0SA60,知本（水試所）,2023-08-16,22.702394,121.082761,0.9997914
C0SA80,土坂,2023-08-16,22.453108,120.887572,0.9994241
C0SA90,達仁林場,2023-08-16,22.264347,120.823972,0.99979097
C0T870,鯉魚潭,2023-08-16,23.935639,121.508944,0.9994771
C0T900,西林,2023-08-16,23.8119,121.441458,0.99954796
C0T960,光復,2023-08-16,23.660694,121.424964,0.99957424
C0T9A0,月眉山,2023-08-16,23.809928,121.539828,0.9998201
C0T9D0,和中,2023-08-16,24.26676,121.74103,0.99662155
C0T9E0,大坑,2023-08-16,23.880628,121.581981,0.9997536
C0T9F0,水璉,2023-08-16,23.797131,121.542514,0.9997131
C0T9I0,豐濱,2023-08-16,23.583897,121.514806,0.99969286
C0T9M0,靜浦,2023-08-16,23.455167,121.495028,0.9997117
C0T9N0,富里,2023-08-16,23.171639,121.249378,0.99994355
C0U600,礁溪,2023-08-16,24.817539,121.765608,0.5173547
C0U650,玉蘭,2023-08-16,24.675286,121.587061,0.99974835
C0U750,龜山島,2023-08-16,24.841667,121.953133,0.9068035
C0U760,東澳,2023-08-16,24.52196,121.83318,0.63774806
C0U770,南澳,2023-08-16,24.44935,121.81022,0.6889791
C0U780,五結,2023-08-16,24.68637,121.79794,0.34904358
C0U860,頭城,2023-08-16,24.85323,121.8308,0.4155843
C0U870,大礁溪,2023-08-16,24.791042,121.675047,0.99852073
C0U880,北關,2023-08-16,24.9072,121.8734,0.13141483
C0U890,三星,2023-08-16,24.66812,121.65302,0.71778566
C0U900,內城,2023-08-16,24.71813,121.68766,0.4522444
C0U910,冬山,2023-08-16,24.63373,121.7937,0.4468649
C0U940,羅東,2023-08-16,24.68184,121.74934,0.32151583
C0U970,大福,2023-08-16,24.80064,121.81389,0.36692947
C0U990,員山,2023-08-16,24.74435,121.72247,0.3072291
C0UA00,土場,2023-08-16,24.576533,121.495333,0.99825466
C0UA80,大溪漁港,2023-08-16,24.941801,121.902955,0.38906625
C0UA90,石城,2023-08-16,24.980444,121.951214,0.3159678
C0UB00,淡江大學蘭陽校園,2023-08-16,24.823239,121.730383,0.99614286
C0UB10,蘇澳,2023-08-16,24.5969,121.8571,0.88924986
C0UB20,壯圍,2023-08-16,24.7359,121.8163,0.26402724
C0V250,甲仙,2023-08-16,23.080106,120.591758,0.9926863
C0V260,月眉,2023-08-16,22.971003,120.539853,0.9932204
C0V310,美濃,2023-08-16,22.898742,120.519153,0.89588356
C0V350,溪埔,2023-08-16,22.738578,120.446797,0.9927526
C0V360,內門,2023-08-16,22.975481,120.466769,0.9497081
C0V370,古亭坑,2023-08-16,22.893178,120.401947,0.75887513
C0V400,阿公店,2023-08-16,22.804194,120.355528,0.9905052
C0V440,鳳山,2023-08-16,22.646653,120.356122,0.94428164
C0V450,鳳森,2023-08-16,22.545064,120.392592,0.111018576
C0V490,新興,2023-08-16,22.627422,120.298803,0.6243555
C0V530,阿蓮,2023-08-16,22.883208,120.327508,0.7593284
C0V610,梓官,2023-08-16,22.760558,120.267211,0.6391562
C0V620,永安,2023-08-16,22.82315,120.236856,0.6302852
C0V630,茄萣,2023-08-16,22.906642,120.182608,0.14199686
C0V640,湖內,2023-08-16,22.887139,120.2445,0.32311046
C0V650,彌陀,2023-08-16,22.783806,120.246361,0.6302852
C0V660,岡山,2023-08-16,22.797078,120.294958,0.9477121
C0V680,仁武,2023-08-16,22.701083,120.347722,0.96939874
C0V690,鼓山,2023-08-16,22.623325,120.275575,0.81765264
C0V700,三民,2023-08-16,22.645017,120.311233,0.6243555
C0V710,苓雅,2023-08-16,22.622742,120.330669,0.50114465
C0V720,林園,2023-08-16,22.507747,120.394511,0.6957723
C0V730,大寮,2023-08-16,22.605614,120.395717,0.15131879
C0V740,旗山,2023-08-16,22.888614,120.483597,0.89956856
C0V750,路竹,2023-08-16,22.854997,120.259439,0.73485404
C0V760,橋頭,2023-08-16,22.757806,120.30575,0.9136893
C0V770,大社,2023-08-16,22.730306,120.346639,0.9811961
C0V790,萬山,2023-08-16,22.905944,120.688056,0.9858062
C0V800,六龜,2023-08-16,22.997889,120.633583,0.99239653
C0V810,左營,2023-08-16,22.67491,120.28491,0.5733718
C0V820,小林,2023-08-16,23.148408,120.63325,0.9885068
C0V840,鳳鼻頭,2023-08-16,22.5083,120.3591,0.6894272
C0V850,蚵仔寮,2023-08-16,22.7256,120.2527,0.6508793
C0V860,南寮,2023-08-16,22.7616,120.2339,0.60039186
C0V870,文安,2023-08-16,22.8025,120.2164,0.5130451
C0V880,興達,2023-08-16,22.8778,120.2127,0.14199686
C0V890,前鎮,2023-08-16,22.5718,120.3117,0.73609835
C0V900,汕尾,2023-08-16,22.4782,120.4151,0.7820379
C0X050,東河,2023-08-16,23.296598,120.385608,0.9576394
C0X060,下營,2023-08-16,23.22695,120.256261,0.8386708
C0X080,佳里,2023-08-16,23.173039,120.145086,0.20169714
C0X100,臺南市北區,2023-08-16,23.010394,120.194228,0.30253452
C0X110,臺南市南區,2023-08-16,22.961189,120.188378,0.19334005
C0X120,麻豆,2023-08-16,23.183289,120.248611,0.79872364
C0X130,官田,2023-08-16,23.193217,120.315422,0.8835861
C0X140,西港,2023-08-16,23.125608,120.203108,0.44828525
C0X150,安定,2023-08-16,23.102614,120.227839,0.9197254
C0X160,仁德,2023-08-16,22.968258,120.257689,0.5867343
C0X170,關廟,2023-08-16,22.963017,120.327797,0.88604176
C0X180,山上,2023-08-16,23.0757,120.363253,0.9421327
C0X190,安平,2023-08-16,22.993161,120.152181,0.22498
C0X200,左鎮,2023-08-16,23.056758,120.408522,0.9393364
C0X210,白河,2023-08-16,23.347466,120.414427,0.9777166
C0X220,學甲,2023-08-16,23.230367,120.182187,0.65363777
C0X230,鹽水,2023-08-16,23.272621,120.247641,0.82865006
C0X240,關子嶺,2023-08-16,23.331169,120.508025,0.99631727
C0X250,新營,2023-08-16,23.310689,120.316681,0.8938269
C0X260,後壁,2023-08-16,23.366358,120.362326,0.97282267
C0X280,將軍,2023-08-16,23.214999,120.13577,0.30673712
C0X290,北門,2023-08-16,23.267772,120.125481,0.4266671
C0X300,鹿寮,2023-08-16,23.386047,120.477331,0.9500324
C0X310,七股,2023-08-16,23.147289,120.086253,0.18148747
C0X320,柳營,2023-08-16,23.253328,120.375253,0.9543941
C0Z020,明里,2023-08-16,23.208717,121.262342,0.9999392
C0Z061,玉里,2023-08-16,23.3215,121.339656,0.99993443
C0Z070,舞鶴,2023-08-16,23.46811,121.37407,0.99964714
C0Z080,富源,2023-08-16,23.587642,121.378225,0.99961704
C0Z100,東華,2023-08-16,23.89525,121.549833,0.9995244
C0Z150,吉安光華,2023-08-16,23.930925,121.595153,0.9995723
C0Z160,鳳林,2023-08-16,23.746114,121.453411,0.99960625
C0Z170,卓溪,2023-08-16,23.3443,121.3029,0.99993503
C0Z180,新城,2023-08-16,24.03946,121.60454,0.9996456
C0Z190,富世,2023-08-16,24.14743,121.6297,0.99754715
C0Z200,萬榮,2023-08-16,23.709219,121.420106,0.999566
C0Z210,瑞穗,2023-08-16,23.5239,121.39021,0.9995835
C0Z230,和平,2023-08-16,24.30717,121.77007,0.99567515
C0Z270,蕃薯寮,2023-08-16,23.73835,121.540108,0.9997131
C0Z280,德武,2023-08-16,23.47426,121.41071,0.9996487
C0Z300,東里,2023-08-16,23.26853,121.30547,0.99992853
C0Z310,清水斷崖,2023-08-16,24.218294,121.689142,0.99701345
C0Z330,安通山,2023-08-16,23.290728,121.348528,0.9999515
