站號,站名,日期,lat,lon,BlastGRU-TW
12J990,口湖工作站,2023-06-10,23.589978,120.180394,0.79235077
12Q970,東港工作站,2023-06-10,22.479997,120.466058,0.3316515
12Q980,恆春工作站,2023-06-10,22.079678,120.714425,0.0793359
466881,新北,2023-06-10,24.9593,121.52,0.058219235
466900,淡水,2023-06-10,25.164889,121.448906,0.06734804
466920,臺北,2023-06-10,25.037658,121.514853,0.05479332
466940,基隆,2023-06-10,25.133314,121.740475,0.06583542
466990,花蓮,2023-06-10,23.975128,121.613275,0.9629552
467050,新屋,2023-06-10,25.006744,121.047486,0.08168336
467080,宜蘭,2023-06-10,24.763975,121.756528,0.18423927
467270,田中,2023-06-10,23.873803,120.581286,0.48162246
467300,東吉島,2023-06-10,23.25695,119.667467,0.8592585
467350,澎湖,2023-06-10,23.565503,119.563094,0.8744378
467410,臺南,2023-06-10,22.993239,120.204772,0.1595226
467420,永康,2023-06-10,23.038386,120.2367,0.1523791
467441,高雄,2023-06-10,22.7304,120.3125,0.15218917
467480,嘉義,2023-06-10,23.495925,120.432906,0.9976044
467490,臺中,2023-06-10,24.145736,120.684075,0.992974
467540,大武,2023-06-10,22.355675,120.903789,0.040288117
467571,新竹,2023-06-10,24.827853,121.014219,0.07815999
467590,恆春,2023-06-10,22.003897,120.746339,0.08341662
467610,成功,2023-06-10,23.097486,121.373428,0.10620891
467620,蘭嶼,2023-06-10,22.036969,121.558339,0.9929584
467660,臺東,2023-06-10,22.752211,121.154586,0.031241866
467790,墾丁雷達站,2023-06-10,21.948235,120.808028,0.088695556
72AI40,桃改樹林分場,2023-06-10,24.944503,121.386972,0.062676154
72C440,桃園農改,2023-06-10,24.950944,121.030583,0.08537691
72D680,桃改新埔分場,2023-06-10,24.834444,121.066111,0.08444002
72G600,臺中農改,2023-06-10,24.003028,120.534389,0.6265709
72K220,南改斗南分場,2023-06-10,23.634556,120.477333,0.3611151
72M360,南改義竹分場,2023-06-10,23.360694,120.279361,0.65170956
72M700,南改鹿草分場,2023-06-10,23.416869,120.283061,0.82484657
72N100,臺南農改,2023-06-10,23.0605,120.342194,0.22211412
72N240,七股研究中心,2023-06-10,23.081672,120.062894,0.43160608
72Q010,高雄農改,2023-06-10,22.709333,120.525889,0.19456506
72S200,東改班鳩分場,2023-06-10,22.829528,121.077694,0.09094372
72S590,東改賓朗果園,2023-06-10,22.813889,121.071278,0.15990351
72T250,花蓮農改,2023-06-10,23.975222,121.563889,0.97378063
72U480,花改蘭陽分場,2023-06-10,24.686306,121.716583,0.08788221
72V140,高改旗南分場,2023-06-10,22.857861,120.516667,0.30879888
82A750,茶改北部分場,2023-06-10,24.955778,121.631222,0.33513993
82C160,茶改場,2023-06-10,24.908472,121.185333,0.31193468
82H840,茶改南部分場,2023-06-10,23.762528,120.7405,0.939341
82S580,茶改東部分場,2023-06-10,22.907694,121.130139,0.16396795
A2C560,農工中心,2023-06-10,24.985917,121.239833,0.24181828
A2K360,水試臺西試驗場,2023-06-10,23.717231,120.190522,0.95350724
A2K570,古坑花卉中心,2023-06-10,23.63353,120.55239,0.7036685
A2K630,臺大雲林校區,2023-06-10,23.730628,120.423903,0.25120148
A2N290,臺南蘭花園區,2023-06-10,23.340258,120.379661,0.98733854
B2E890,畜試北區分所,2023-06-10,24.527806,120.770972,0.95886403
B2N890,畜試所,2023-06-10,23.058972,120.336406,0.22211412
B2Q810,畜試南區分所,2023-06-10,21.945583,120.802167,0.08202584
B2U990,畜試東區分所,2023-06-10,24.669039,121.832561,0.07548106
C0A520,山佳,2023-06-10,24.974944,121.402008,0.062676154
C0A530,坪林,2023-06-10,24.938183,121.70975,0.98547536
C0A540,四堵,2023-06-10,24.8926,121.745736,0.8144277
C0A550,泰平,2023-06-10,24.971197,121.823711,0.66443795
C0A560,福山,2023-06-10,24.776203,121.502811,0.33513993
C0A570,桶後,2023-06-10,24.848222,121.597992,0.9357208
C0A640,石碇,2023-06-10,24.993969,121.662917,0.7630244
C0A650,火燒寮,2023-06-10,25.002719,121.742892,0.93797123
C0A660,瑞芳,2023-06-10,25.113169,121.801147,0.45814672
C0A770,科教館,2023-06-10,25.096356,121.516507,0.057729993
C0A860,大坪,2023-06-10,25.165914,121.632969,0.9470587
C0A880,福隆,2023-06-10,25.017842,121.942083,0.110046804
C0A890,雙溪,2023-06-10,25.036003,121.864242,0.07939682
C0A920,富貴角,2023-06-10,25.263783,121.565258,0.10625883
C0A931,三和,2023-06-10,25.233153,121.595236,0.8245932
C0A940,金山,2023-06-10,25.223628,121.643967,0.08850222
C0A950,鼻頭角,2023-06-10,25.129036,121.923372,0.09520846
C0A970,三貂角,2023-06-10,25.007606,122.002058,0.57991856
C0A980,社子,2023-06-10,25.109508,121.469681,0.05653958
C0A9C0,天母,2023-06-10,25.117494,121.537169,0.060771376
C0A9F0,內湖,2023-06-10,25.079422,121.57545,0.05479332
C0AC60,三峽,2023-06-10,24.939025,121.369728,0.060108144
C0AC70,信義,2023-06-10,25.037822,121.564597,0.05479332
C0AC80,文山,2023-06-10,25.00235,121.575728,0.06444162
C0ACA0,新莊,2023-06-10,25.051478,121.446756,0.0615862
C0AD00,三芝,2023-06-10,25.258131,121.501917,0.10065472
C0AD10,八里,2023-06-10,25.150211,121.403947,0.06734804
C0AD30,蘆洲,2023-06-10,25.086594,121.472331,0.05772998
C0AD40,土城,2023-06-10,24.973208,121.445169,0.059399217
C0AD50,鶯歌,2023-06-10,24.951533,121.346294,0.075090796
C0AG80,中和,2023-06-10,24.991622,121.491792,0.05479332
C0AH00,汐止,2023-06-10,25.066881,121.658778,0.0687972
C0AH10,永和,2023-06-10,25.01125,121.508111,0.053252358
C0AH40,平等,2023-06-10,25.129142,121.577086,0.8396574
C0AH50,林口,2023-06-10,25.072181,121.38084,0.3977028
C0AH70,松山,2023-06-10,25.04871,121.55042,0.05479332
C0AH80,深坑,2023-06-10,25.002703,121.628328,0.06444162
C0AI00,五股,2023-06-10,25.07445,121.42728,0.30705246
C0AI10,屈尺,2023-06-10,24.92184,121.54475,0.06444162
C0AI20,白沙灣,2023-06-10,25.283128,121.519058,0.0831746
C0AI30,三重,2023-06-10,25.057328,121.500629,0.057729993
C0AI40,石牌,2023-06-10,25.115597,121.513139,0.059399217
C0AJ20,野柳,2023-06-10,25.20703,121.690021,0.0687972
C0AJ30,淡水觀海,2023-06-10,25.184591,121.408616,0.06604473
C0AJ40,石門,2023-06-10,25.273672,121.601198,0.13681363
C0AJ50,水湳洞,2023-06-10,25.123695,121.862238,0.0687972
C0AJ60,六塊厝,2023-06-10,25.24,121.4481,0.06604473
C0AJ70,田寮,2023-06-10,25.2698,121.4886,0.08039449
C0AJ80,板橋,2023-06-10,25.0107,121.4489,0.059399217
C0AJ90,澳底,2023-06-10,25.0552,121.9253,0.110046804
C0B010,七堵,2023-06-10,25.094819,121.71713,0.07371729
C0B020,基隆嶼,2023-06-10,25.19141,121.78391,0.0687972
C0B040,大武崙,2023-06-10,25.166676,121.706993,0.07371729
C0B050,八斗子,2023-06-10,25.144754,121.79167,0.06386413
C0B060,暖暖,2023-06-10,25.0957,121.7403,0.08948185
C0C460,復興,2023-06-10,24.820208,121.352281,0.94517964
C0C480,桃園,2023-06-10,24.992425,121.323172,0.17673421
C0C490,八德,2023-06-10,24.928708,121.283289,0.11163945
C0C590,觀音,2023-06-10,25.027072,121.153317,0.08361286
C0C620,蘆竹,2023-06-10,25.084275,121.265767,0.07069844
C0C630,大溪,2023-06-10,24.882853,121.265547,0.16148864
C0C650,平鎮,2023-06-10,24.897503,121.214636,0.31193468
C0C660,楊梅,2023-06-10,24.912375,121.143047,0.28479147
C0C670,龍潭,2023-06-10,24.870056,121.221389,0.6542886
C0C680,龜山,2023-06-10,25.02846,121.38656,0.18709339
C0C700,中壢,2023-06-10,24.977661,121.256375,0.21226558
C0C710,大溪永福,2023-06-10,24.892936,121.324975,0.27139235
C0C720,竹圍,2023-06-10,25.112692,121.239824,0.06734804
C0C730,中大臨海站,2023-06-10,24.966126,121.008581,0.07681552
C0C740,觀音工業區,2023-06-10,25.064764,121.114856,0.18397379
C0C750,新興坑尾,2023-06-10,25.0061,121.0971,0.27243793
C0D430,峨眉,2023-06-10,24.6905,121.017189,0.06721685
C0D480,打鐵坑,2023-06-10,24.849664,121.150789,0.50669044
C0D540,橫山,2023-06-10,24.71116,121.11693,0.24841297
C0D560,竹東,2023-06-10,24.767147,121.057881,0.11462773
C0D580,寶山,2023-06-10,24.735006,121.025192,0.14214028
C0D590,新豐,2023-06-10,24.87068,120.97721,0.15237825
C0D650,湖口,2023-06-10,24.904794,121.043628,0.096632265
C0D660,新竹市東區,2023-06-10,24.798681,120.986942,0.08519111
C0D670,海天一線,2023-06-10,24.831986,120.914438,0.06894047
C0D680,香山濕地,2023-06-10,24.783581,120.914988,0.0711994
C0D690,外湖,2023-06-10,24.917735,120.968711,0.07681552
C0D700,關西,2023-06-10,24.7977,121.1732,0.2021114
C0E420,竹南,2023-06-10,24.708978,120.888897,0.0804585
C0E430,南庄,2023-06-10,24.601775,121.000214,0.15383284
C0E520,大湖,2023-06-10,24.41494,120.87087,0.67950404
C0E540,後龍,2023-06-10,24.606489,120.783933,0.89535034
C0E550,明德,2023-06-10,24.583486,120.885411,0.50781286
C0E590,通霄,2023-06-10,24.471892,120.704622,0.91178197
C0E730,頭份,2023-06-10,24.688247,120.912206,0.0804585
C0E740,造橋,2023-06-10,24.637056,120.864778,0.40305698
C0E750,苗栗,2023-06-10,24.564569,120.824575,0.95876116
C0E780,銅鑼,2023-06-10,24.489681,120.790853,0.4777858
C0E791,卓蘭,2023-06-10,24.3126,120.8244,0.9624522
C0E810,西湖,2023-06-10,24.562947,120.7485,0.9384925
C0E820,獅潭,2023-06-10,24.539133,120.920042,0.45743352
C0E830,苑裡,2023-06-10,24.439714,120.653053,0.8210407
C0E850,大河,2023-06-10,24.618069,120.948578,0.56206065
C0E870,高鐵苗栗,2023-06-10,24.60725,120.826094,0.9110899
C0E910,海埔,2023-06-10,24.648767,120.772435,0.33813956
C0E920,通霄漁港,2023-06-10,24.498589,120.673876,0.8171336
C0E930,龍鳳,2023-06-10,24.700034,120.859125,0.35810903
C0F0B0,石岡,2023-06-10,24.276061,120.777644,0.6398918
C0F850,東勢,2023-06-10,24.246428,120.833047,0.98224866
C0F930,大甲,2023-06-10,24.347667,120.640403,0.9340092
C0F970,大坑,2023-06-10,24.173142,120.722289,0.9943438
C0F9A0,中竹林,2023-06-10,24.103556,120.751061,0.92591006
C0F9I0,神岡,2023-06-10,24.272481,120.658314,0.91313463
C0F9K0,大安,2023-06-10,24.345061,120.588025,0.7490021
C0F9L0,后里,2023-06-10,24.310436,120.729725,0.9765829
C0F9M0,豐原,2023-06-10,24.254322,120.720692,0.9571093
C0F9N0,大里,2023-06-10,24.092464,120.701378,0.9044107
C0F9O0,潭子,2023-06-10,24.213106,120.703933,0.90755635
C0F9P0,清水,2023-06-10,24.312297,120.562242,0.6998353
C0F9Q0,外埔,2023-06-10,24.347817,120.705686,0.80234313
C0F9R0,龍井,2023-06-10,24.184536,120.528972,0.78786105
C0F9S0,烏日,2023-06-10,24.107058,120.624103,0.59727854
C0F9T0,西屯,2023-06-10,24.179494,120.641275,0.9519802
C0F9U0,南屯,2023-06-10,24.137006,120.637969,0.9044107
C0F9X0,大雅(中科園區),2023-06-10,24.21528,120.62445,0.9904112
C0FA10,松柏,2023-06-10,24.429115,120.617482,0.75327516
C0FA20,溫寮,2023-06-10,24.372177,120.583125,0.75327545
C0FA30,梧棲,2023-06-10,24.256003,120.523381,0.78786105
C0FA40,臺中電廠,2023-06-10,24.2146,120.4907,0.7878604
C0FA50,霧峰,2023-06-10,24.0419,120.6995,0.98277205
C0G620,芬園,2023-06-10,24.015678,120.6213,0.9550233
C0G640,鹿港,2023-06-10,24.0753,120.430481,0.6318209
C0G650,員林,2023-06-10,23.946503,120.585597,0.883534
C0G660,溪湖,2023-06-10,23.94835,120.479122,0.86774784
C0G720,溪州,2023-06-10,23.851589,120.499093,0.4805479
C0G730,二林,2023-06-10,23.903325,120.376081,0.7118825
C0G740,大城,2023-06-10,23.852487,120.320935,0.9745736
C0G770,福興,2023-06-10,24.041289,120.437669,0.6318209
C0G780,秀水,2023-06-10,24.03405,120.503869,0.5935613
C0G800,埔鹽,2023-06-10,24.000394,120.431683,0.6318209
C0G810,埔心,2023-06-10,23.947633,120.525456,0.8880698
C0G820,田尾,2023-06-10,23.901669,120.509389,0.90696347
C0G830,埤頭,2023-06-10,23.866003,120.452806,0.44120497
C0G840,北斗,2023-06-10,23.877586,120.514222,0.90696347
C0G860,社頭,2023-06-10,23.897647,120.5862,0.9039364
C0G870,芳苑,2023-06-10,23.922303,120.320025,0.9700887
C0G880,二水,2023-06-10,23.810742,120.6173,0.6096307
C0G890,伸港,2023-06-10,24.148933,120.484403,0.7619645
C0G900,線西,2023-06-10,24.143358,120.443536,0.85288775
C0G910,花壇,2023-06-10,24.032076,120.549461,0.6585067
C0G920,永靖,2023-06-10,23.924703,120.547533,0.90696347
C0G940,竹塘,2023-06-10,23.848253,120.386764,0.29168975
C0G950,防潮門,2023-06-10,24.1835,120.4871,0.7643638
C0G960,福寶,2023-06-10,24.0443,120.3814,0.6006256
C0G970,三豐,2023-06-10,23.882,120.2895,0.9700887
C0H890,埔里,2023-06-10,23.972169,120.952425,0.88772273
C0H950,中寮,2023-06-10,23.884447,120.766406,0.95956457
C0H960,草屯,2023-06-10,23.973672,120.68085,0.7185811
C0I110,竹山,2023-06-10,23.761225,120.688156,0.9017999
C0I360,水里,2023-06-10,23.812553,120.849792,0.7567971
C0I380,集集,2023-06-10,23.828206,120.801467,0.63762677
C0I410,名間,2023-06-10,23.837053,120.701447,0.80196154
C0I420,國姓,2023-06-10,24.037803,120.855072,0.7654811
C0I460,南投,2023-06-10,23.911469,120.687331,0.7449508
C0K250,崙背,2023-06-10,23.75555,120.318925,0.9728662
C0K280,四湖,2023-06-10,23.630414,120.227125,0.97508407
C0K291,宜梧,2023-06-10,23.536281,120.169329,0.74900275
C0K330,虎尾,2023-06-10,23.719183,120.442036,0.25909832
C0K390,土庫,2023-06-10,23.679029,120.395574,0.25120148
C0K400,斗六,2023-06-10,23.720583,120.541127,0.375849
C0K410,北港,2023-06-10,23.573957,120.292802,0.70098597
C0K420,西螺,2023-06-10,23.800407,120.467394,0.42823216
C0K430,褒忠,2023-06-10,23.690938,120.303634,0.9286268
C0K440,二崙,2023-06-10,23.772797,120.408944,0.30068094
C0K450,大埤,2023-06-10,23.646074,120.431537,0.26262307
C0K460,斗南,2023-06-10,23.678734,120.478359,0.34913537
C0K470,林內,2023-06-10,23.748675,120.609642,0.46148694
C0K480,莿桐,2023-06-10,23.761192,120.502372,0.4474565
C0K500,元長,2023-06-10,23.64981,120.315024,0.95212585
C0K510,水林,2023-06-10,23.572924,120.24597,0.8147261
C0K530,臺西,2023-06-10,23.701547,120.197559,0.9594161
C0K550,蔦松,2023-06-10,23.514319,120.229736,0.7751961
C0K560,棋山,2023-06-10,23.68645,120.603417,0.44106913
C0K580,高鐵雲林,2023-06-10,23.737456,120.417944,0.25120148
C0K590,雲林東勢,2023-06-10,23.674192,120.255721,0.9286268
C0K600,箔子寮,2023-06-10,23.6197,120.14,0.79235077
C0M410,馬頭山,2023-06-10,23.324361,120.582017,0.80815923
C0M520,東後寮,2023-06-10,23.369908,120.248065,0.5674672
C0M640,中埔,2023-06-10,23.42538,120.5229,0.80957395
C0M650,朴子,2023-06-10,23.43463,120.23902,0.76668596
C0M660,溪口,2023-06-10,23.604131,120.403569,0.97687775
C0M670,大林,2023-06-10,23.600616,120.45841,0.99548495
C0M680,太保,2023-06-10,23.455062,120.331455,0.7055127
C0M690,水上,2023-06-10,23.419734,120.388909,0.99844784
C0M700,竹崎,2023-06-10,23.526178,120.555508,0.8736736
C0M710,東石,2023-06-10,23.458927,120.15385,0.7751961
C0M720,番路,2023-06-10,23.464657,120.554156,0.9628641
C0M730,嘉義市東區,2023-06-10,23.457673,120.460531,0.9987419
C0M740,六腳,2023-06-10,23.492871,120.290625,0.6767257
C0M750,布袋,2023-06-10,23.380878,120.167789,0.7666858
C0M760,民雄,2023-06-10,23.551754,120.428457,0.9835846
C0M770,嘉義梅山,2023-06-10,23.585398,120.555587,0.5466039
C0M780,鹿草,2023-06-10,23.41134,120.30835,0.84742963
C0M790,新港,2023-06-10,23.553269,120.345728,0.72573173
C0M800,茶山,2023-06-10,23.299075,120.664767,0.8792427
C0M880,好美里,2023-06-10,23.3364,120.138,0.5199196
C0N010,鯤鯓國小,2023-06-10,23.1879,120.0889,0.7315725
C0N020,城西,2023-06-10,23.0568,120.0956,0.45611438
C0N030,四草,2023-06-10,23.0235,120.1116,0.34875208
C0N040,蘆竹溝,2023-06-10,23.2344,120.0961,0.7315725
C0N050,蚵寮,2023-06-10,23.301,120.1104,0.7315725
C0O810,曾文,2023-06-10,23.219681,120.497328,0.99763304
C0O830,北寮,2023-06-10,23.079561,120.495008,0.26681545
C0O840,王爺宮,2023-06-10,23.222064,120.40085,0.99763304
C0O860,大內,2023-06-10,23.11885,120.36083,0.6059497
C0O900,善化,2023-06-10,23.112883,120.297219,0.18794917
C0O930,玉井,2023-06-10,23.126042,120.46055,0.9929988
C0O950,安南,2023-06-10,23.076694,120.144861,0.17878897
C0O960,崎頂,2023-06-10,22.959547,120.369317,0.16489576
C0O970,虎頭埤,2023-06-10,23.021375,120.347878,0.67906386
C0O980,新市,2023-06-10,23.061614,120.298197,0.18794917
C0O990,媽廟,2023-06-10,22.99175,120.293525,0.1829616
C0R150,三地門,2023-06-10,22.709889,120.639944,0.17567165
C0R160,鹽埔,2023-06-10,22.739558,120.530778,0.19456506
C0R170,屏東,2023-06-10,22.660269,120.494072,0.34875125
C0R190,赤山,2023-06-10,22.592333,120.614306,0.1848942
C0R220,潮州,2023-06-10,22.534361,120.54,0.19909714
C0R240,來義,2023-06-10,22.527306,120.625111,0.22746049
C0R260,春日,2023-06-10,22.370361,120.628306,0.19140421
C0R270,琉球嶼,2023-06-10,22.332244,120.362236,0.19959909
C0R280,檳榔,2023-06-10,22.076078,120.836777,0.12233389
C0R320,車城,2023-06-10,22.0744,120.716247,0.0793359
C0R341,牡丹,2023-06-10,22.130036,120.792639,0.383372
C0R350,貓鼻頭,2023-06-10,21.921774,120.7358,0.08548388
C0R470,高樹,2023-06-10,22.826389,120.600806,0.1406083
C0R480,長治,2023-06-10,22.693128,120.542622,0.21205285
C0R490,九如,2023-06-10,22.7405,120.490503,0.37866384
C0R520,崁頂,2023-06-10,22.514781,120.506914,0.3529912
C0R540,佳冬,2023-06-10,22.419456,120.552375,0.3316515
C0R550,新埤,2023-06-10,22.467947,120.582894,0.1725315
C0R560,新園,2023-06-10,22.5434,120.461558,0.3529912
C0R570,麟洛,2023-06-10,22.65078,120.52719,0.37866384
C0R580,南州,2023-06-10,22.48591,120.50274,0.32978043
C0R590,里港,2023-06-10,22.77919,120.49459,0.20772527
C0R620,墾雷,2023-06-10,21.900836,120.855269,0.08548388
C0R640,東港,2023-06-10,22.46247,120.44074,0.23844069
C0R650,竹田,2023-06-10,22.58486,120.54344,0.16010289
C0R660,枋寮,2023-06-10,22.367722,120.590647,0.17560336
C0R670,楓港,2023-06-10,22.190131,120.692156,0.13055608
C0R680,佳樂水,2023-06-10,21.993578,120.861633,0.08202584
C0R690,墾丁,2023-06-10,21.966756,120.810269,0.1277586
C0R700,枋山,2023-06-10,22.246844,120.661086,0.13055608
C0R710,龍磐,2023-06-10,21.931672,120.838942,0.102132514
C0R720,旭海,2023-06-10,22.205403,120.887614,0.1134239
C0R730,大坪頂,2023-06-10,22.024633,120.69355,0.10018978
C0R740,獅子,2023-06-10,22.201569,120.70525,0.15651383
C0R760,南仁湖,2023-06-10,22.084681,120.863353,0.14415708
C0R770,保力,2023-06-10,22.071122,120.764111,0.09399366
C0R780,滿州,2023-06-10,22.024403,120.839892,0.08701455
C0R790,九棚,2023-06-10,22.14195,120.889281,0.089675605
C0R800,丹路,2023-06-10,22.204481,120.750989,0.23920973
C0R810,內獅,2023-06-10,22.305064,120.642986,0.15301503
C0R830,高士,2023-06-10,22.121825,120.836781,0.16432637
C0R850,林邊,2023-06-10,22.4634,120.5339,0.3529912
C0R860,鼻頭,2023-06-10,22.1043,120.8979,0.08440794
C0R870,興海,2023-06-10,21.9752,120.8439,0.08202584
C0R880,後壁湖,2023-06-10,21.9457,120.7457,0.07802786
C0R890,山海,2023-06-10,21.9878,120.7091,0.0793359
C0R900,竹坑,2023-06-10,22.1385,120.7022,0.16678993
C0R910,下寮,2023-06-10,22.3929,120.5548,0.32978043
C0R920,塭仔,2023-06-10,22.4169,120.5197,0.30959398
C0R930,萬丹,2023-06-10,22.5885,120.4851,0.16010289
C0R940,加祿堂,2023-06-10,22.3363,120.6217,0.15301503
C0S710,鹿野,2023-06-10,22.917711,121.122994,0.86578125
C0S730,綠島,2023-06-10,22.6672,121.47533,0.11544506
C0S740,池上,2023-06-10,23.119628,121.209469,0.28423715
C0S770,大溪山,2023-06-10,22.478475,120.943325,0.11593542
C0S790,金崙,2023-06-10,22.538122,120.966875,0.036638465
C0S810,東河,2023-06-10,22.972672,121.303986,0.08365603
C0S830,長濱,2023-06-10,23.286817,121.411975,0.7650722
C0S840,南田,2023-06-10,22.279725,120.889208,0.046978686
C0S890,關山,2023-06-10,23.0395,121.175017,0.14202586
C0S900,蘭嶼高中,2023-06-10,22.04909,121.51214,0.2255457
C0S910,蘭嶼燈塔,2023-06-10,22.081197,121.503117,0.64324975
C0S920,金峰嘉蘭,2023-06-10,22.594789,120.960825,0.029913712
C0S930,延平,2023-06-10,22.902581,121.084058,0.14878199
C0S940,石寧山,2023-06-10,23.223772,121.406639,0.14693049
C0S950,七塊厝,2023-06-10,22.954453,121.229922,0.9261729
C0S960,香蘭,2023-06-10,22.587569,120.993375,0.028363654
C0S970,加津林,2023-06-10,22.416211,120.926942,0.04068513
C0S990,山豬窟,2023-06-10,22.318619,120.857372,0.31329817
C0SA00,歷坵,2023-06-10,22.520969,120.89185,0.27331945
C0SA10,檳榔四格山,2023-06-10,22.810031,121.109308,0.42407635
C0SA30,都歷,2023-06-10,23.020333,121.323642,0.11248787
C0SA40,瑞和,2023-06-10,22.974361,121.156697,0.13288234
C0SA60,知本（水試所）,2023-06-10,22.702394,121.082761,0.029829146
C0SA80,土坂,2023-06-10,22.453108,120.887572,0.031371865
C0SA90,達仁林場,2023-06-10,22.264347,120.823972,0.62383825
C0T870,鯉魚潭,2023-06-10,23.935639,121.508944,0.9803973
C0T900,西林,2023-06-10,23.8119,121.441458,0.9900671
C0T960,光復,2023-06-10,23.660694,121.424964,0.9941739
C0T9A0,月眉山,2023-06-10,23.809928,121.539828,0.9953684
C0T9D0,和中,2023-06-10,24.26676,121.74103,0.030739762
C0T9E0,大坑,2023-06-10,23.880628,121.581981,0.9959853
C0T9F0,水璉,2023-06-10,23.797131,121.542514,0.99557763
C0T9I0,豐濱,2023-06-10,23.583897,121.514806,0.9965549
C0T9M0,靜浦,2023-06-10,23.455167,121.495028,0.9915352
C0T9N0,富里,2023-06-10,23.171639,121.249378,0.8733196
C0U600,礁溪,2023-06-10,24.817539,121.765608,0.2149182
C0U650,玉蘭,2023-06-10,24.675286,121.587061,0.81255686
C0U750,龜山島,2023-06-10,24.841667,121.953133,0.47600624
C0U760,東澳,2023-06-10,24.52196,121.83318,0.06125471
C0U770,南澳,2023-06-10,24.44935,121.81022,0.05212176
C0U780,五結,2023-06-10,24.68637,121.79794,0.07548106
C0U860,頭城,2023-06-10,24.85323,121.8308,0.18423927
C0U870,大礁溪,2023-06-10,24.791042,121.675047,0.6183028
C0U880,北關,2023-06-10,24.9072,121.8734,0.06474115
C0U890,三星,2023-06-10,24.66812,121.65302,0.7983427
C0U900,內城,2023-06-10,24.71813,121.68766,0.36125827
C0U910,冬山,2023-06-10,24.63373,121.7937,0.07548106
C0U940,羅東,2023-06-10,24.68184,121.74934,0.08130669
C0U970,大福,2023-06-10,24.80064,121.81389,0.15396869
C0U990,員山,2023-06-10,24.74435,121.72247,0.081306666
C0UA00,土場,2023-06-10,24.576533,121.495333,0.60076195
C0UA80,大溪漁港,2023-06-10,24.941801,121.902955,0.2149182
C0UA90,石城,2023-06-10,24.980444,121.951214,0.1906286
C0UB00,淡江大學蘭陽校園,2023-06-10,24.823239,121.730383,0.84102994
C0UB10,蘇澳,2023-06-10,24.5969,121.8571,0.058594264
C0UB20,壯圍,2023-06-10,24.7359,121.8163,0.07056995
C0V250,甲仙,2023-06-10,23.080106,120.591758,0.89402694
C0V260,月眉,2023-06-10,22.971003,120.539853,0.25846145
C0V310,美濃,2023-06-10,22.898742,120.519153,0.9774481
C0V350,溪埔,2023-06-10,22.738578,120.446797,0.22448124
C0V360,內門,2023-06-10,22.975481,120.466769,0.99290895
C0V370,古亭坑,2023-06-10,22.893178,120.401947,0.9309595
C0V400,阿公店,2023-06-10,22.804194,120.355528,0.24265903
C0V440,鳳山,2023-06-10,22.646653,120.356122,0.29017162
C0V450,鳳森,2023-06-10,22.545064,120.392592,0.20024262
C0V490,新興,2023-06-10,22.627422,120.298803,0.2555391
C0V530,阿蓮,2023-06-10,22.883208,120.327508,0.13725175
C0V610,梓官,2023-06-10,22.760558,120.267211,0.13167407
C0V620,永安,2023-06-10,22.82315,120.236856,0.12832078
C0V630,茄萣,2023-06-10,22.906642,120.182608,0.14076342
C0V640,湖內,2023-06-10,22.887139,120.2445,0.14668
C0V650,彌陀,2023-06-10,22.783806,120.246361,0.12832078
C0V660,岡山,2023-06-10,22.797078,120.294958,0.13167407
C0V680,仁武,2023-06-10,22.701083,120.347722,0.15966152
C0V690,鼓山,2023-06-10,22.623325,120.275575,0.2555391
C0V700,三民,2023-06-10,22.645017,120.311233,0.2555391
C0V710,苓雅,2023-06-10,22.622742,120.330669,0.2555395
C0V720,林園,2023-06-10,22.507747,120.394511,0.2555391
C0V730,大寮,2023-06-10,22.605614,120.395717,0.14517593
C0V740,旗山,2023-06-10,22.888614,120.483597,0.98130983
C0V750,路竹,2023-06-10,22.854997,120.259439,0.116092056
C0V760,橋頭,2023-06-10,22.757806,120.30575,0.13707843
C0V770,大社,2023-06-10,22.730306,120.346639,0.15966152
C0V790,萬山,2023-06-10,22.905944,120.688056,0.91489834
C0V800,六龜,2023-06-10,22.997889,120.633583,0.23746304
C0V810,左營,2023-06-10,22.67491,120.28491,0.15218917
C0V820,小林,2023-06-10,23.148408,120.63325,0.9384066
C0V840,鳳鼻頭,2023-06-10,22.5083,120.3591,0.23844069
C0V850,蚵仔寮,2023-06-10,22.7256,120.2527,0.14562666
C0V860,南寮,2023-06-10,22.7616,120.2339,0.1234767
C0V870,文安,2023-06-10,22.8025,120.2164,0.1234767
C0V880,興達,2023-06-10,22.8778,120.2127,0.14076342
C0V890,前鎮,2023-06-10,22.5718,120.3117,0.23844069
C0V900,汕尾,2023-06-10,22.4782,120.4151,0.27961546
C0X050,東河,2023-06-10,23.296598,120.385608,0.98733854
C0X060,下營,2023-06-10,23.22695,120.256261,0.62435377
C0X080,佳里,2023-06-10,23.173039,120.145086,0.5199196
C0X100,臺南市北區,2023-06-10,23.010394,120.194228,0.14660846
C0X110,臺南市南區,2023-06-10,22.961189,120.188378,0.1523791
C0X120,麻豆,2023-06-10,23.183289,120.248611,0.55209196
C0X130,官田,2023-06-10,23.193217,120.315422,0.6915089
C0X140,西港,2023-06-10,23.125608,120.203108,0.47244826
C0X150,安定,2023-06-10,23.102614,120.227839,0.18149136
C0X160,仁德,2023-06-10,22.968258,120.257689,0.17427014
C0X170,關廟,2023-06-10,22.963017,120.327797,0.21796106
C0X180,山上,2023-06-10,23.0757,120.363253,0.9828466
C0X190,安平,2023-06-10,22.993161,120.152181,0.14660846
C0X200,左鎮,2023-06-10,23.056758,120.408522,0.9795435
C0X210,白河,2023-06-10,23.347466,120.414427,0.9894215
C0X220,學甲,2023-06-10,23.230367,120.182187,0.55209196
C0X230,鹽水,2023-06-10,23.272621,120.247641,0.58336234
C0X240,關子嶺,2023-06-10,23.331169,120.508025,0.9732482
C0X250,新營,2023-06-10,23.310689,120.316681,0.567449
C0X260,後壁,2023-06-10,23.366358,120.362326,0.9733837
C0X280,將軍,2023-06-10,23.214999,120.13577,0.5199196
C0X290,北門,2023-06-10,23.267772,120.125481,0.5199196
C0X300,鹿寮,2023-06-10,23.386047,120.477331,0.51482147
C0X310,七股,2023-06-10,23.147289,120.086253,0.648614
C0X320,柳營,2023-06-10,23.253328,120.375253,0.98733854
C0Z020,明里,2023-06-10,23.208717,121.262342,0.5579184
C0Z061,玉里,2023-06-10,23.3215,121.339656,0.11201146
C0Z070,舞鶴,2023-06-10,23.46811,121.37407,0.99751794
C0Z080,富源,2023-06-10,23.587642,121.378225,0.997539
C0Z100,東華,2023-06-10,23.89525,121.549833,0.8992401
C0Z150,吉安光華,2023-06-10,23.930925,121.595153,0.85816854
C0Z160,鳳林,2023-06-10,23.746114,121.453411,0.992594
C0Z170,卓溪,2023-06-10,23.3443,121.3029,0.14495768
C0Z180,新城,2023-06-10,24.03946,121.60454,0.9707235
C0Z190,富世,2023-06-10,24.14743,121.6297,0.063396886
C0Z200,萬榮,2023-06-10,23.709219,121.420106,0.9803973
C0Z210,瑞穗,2023-06-10,23.5239,121.39021,0.99524873
C0Z230,和平,2023-06-10,24.30717,121.77007,0.030739762
C0Z270,蕃薯寮,2023-06-10,23.73835,121.540108,0.9947905
C0Z280,德武,2023-06-10,23.47426,121.41071,0.99594706
C0Z300,東里,2023-06-10,23.26853,121.30547,0.12717924
C0Z310,清水斷崖,2023-06-10,24.218294,121.689142,0.039855815
C0Z330,安通山,2023-06-10,23.290728,121.348528,0.8866905
CAG100,王功漁港,2023-06-10,23.96824,120.32586,0.9878748
CAJ050,海口故事園區,2023-06-10,23.57543,120.14121,0.79235077
CAL110,布袋國中,2023-06-10,23.35893,120.18026,0.5674672
CAN130,水試所海水繁養殖中心,2023-06-10,23.120802,120.07968,0.43160704
CAN140,六官養殖協會,2023-06-10,23.22881,120.29962,0.65735644
CAQ030,崎峰國小,2023-06-10,22.42565,120.49521,0.32978043
E2K600,四湖植物園,2023-06-10,23.676986,120.163433,0.959416
E2P980,林試六龜中心,2023-06-10,22.991703,120.645722,0.2770121
E2S960,林試太麻里2,2023-06-10,22.598014,120.989761,0.028363647
E2S980,林試太麻里1,2023-06-10,22.598922,120.980044,0.029660882
G2F820,農業試驗所,2023-06-10,24.031261,120.688133,0.9890998
G2L020,農試嘉義分所,2023-06-10,23.485028,120.473806,0.639555
G2M350,農試溪口農場,2023-06-10,23.58565,120.408111,0.97687775
G2P820,農試鳳山分所,2023-06-10,22.646611,120.356083,0.29017162
K2E360,苗栗農改,2023-06-10,24.495722,120.829111,0.3633307
K2E710,苗改生物防治研究中心,2023-06-10,24.422861,120.871833,0.958725
K2F750,種苗繁殖,2023-06-10,24.225972,120.800917,0.9879411
U2HA50,臺大竹山,2023-06-10,23.756972,120.681556,0.917685
V2K620,麥寮合作社,2023-06-10,23.753836,120.294783,0.9680813
