站號,站名,日期,lat,lon,BlastGRU-TW
466881,新北,2023-04-03,24.9593,121.52,0.120553814
466900,淡水,2023-04-03,25.164889,121.448906,0.047188736
466920,臺北,2023-04-03,25.037658,121.514853,0.13854197
467441,高雄,2023-04-03,22.7304,120.3125,0.47602487
467480,嘉義,2023-04-03,23.495925,120.432906,0.04668945
467490,臺中,2023-04-03,24.145736,120.684075,0.003227147
C0A530,坪林,2023-04-03,24.938183,121.70975,0.03439359
C0A540,四堵,2023-04-03,24.8926,121.745736,0.12994812
C0A550,泰平,2023-04-03,24.971197,121.823711,0.025301471
C0A890,雙溪,2023-04-03,25.036003,121.864242,0.1025044
C0A920,富貴角,2023-04-03,25.263783,121.565258,0.019323459
C0A931,三和,2023-04-03,25.233153,121.595236,0.007315018
C0AC70,信義,2023-04-03,25.037822,121.564597,0.13854231
C0AC80,文山,2023-04-03,25.00235,121.575728,0.09749341
C0ACA0,新莊,2023-04-03,25.051478,121.446756,0.05968042
C0AH50,林口,2023-04-03,25.072181,121.38084,0.061940838
C0AH70,松山,2023-04-03,25.04871,121.55042,0.13854197
C0AH80,深坑,2023-04-03,25.002703,121.628328,0.09749341
C0AJ60,六塊厝,2023-04-03,25.24,121.4481,0.051542204
C0AJ70,田寮,2023-04-03,25.2698,121.4886,0.02544647
