站號,站名,日期,lat,lon,BLBTSLS
C0R710,龍磐,2023-04-15,21.931672,120.838942,0.9046669
C1F9D1,白毛台,2023-04-15,24.158325,120.886933,7.6801404e-10
C0G940,竹塘,2023-04-15,23.848253,120.386764,2.5157243e-07
467590,恆春,2023-04-15,22.003897,120.746339,0.9893448
C1O850,環湖,2023-04-15,23.148617,120.418633,0.99113214
C0U710,太平山,2023-04-15,24.505486,121.525656,1.1652889e-08
C0E820,獅潭,2023-04-15,24.539133,120.920042,3.9279174e-10
C0V880,興達,2023-04-15,22.8778,120.2127,1.9990075e-07
C0S890,關山,2023-04-15,23.0395,121.175017,6.426637e-10
K2F750,種苗繁殖,2023-04-15,24.225972,120.800917,8.436094e-10
C1Z130,銅門,2023-04-15,23.965694,121.492842,8.5263263e-10
C0AD40,土城,2023-04-15,24.973208,121.445169,0.033508193
CAN140,六官養殖協會,2023-04-15,23.22881,120.29962,0.85704136
C0X180,山上,2023-04-15,23.0757,120.363253,0.9247913
C0F9Z0,雪山東峰,2023-04-15,24.388792,121.268675,1.3929881e-08
C1M480,獨立山,2023-04-15,23.537022,120.607797,2.9757122e-10
C0X220,學甲,2023-04-15,23.230367,120.182187,6.631317e-08
C0R170,屏東,2023-04-15,22.660269,120.494072,0.9234031
467650,日月潭,2023-04-15,23.881325,120.90805,1.980144e-09
C0K600,箔子寮,2023-04-15,23.6197,120.14,6.474189e-10
C0G830,埤頭,2023-04-15,23.866003,120.452806,2.4408564e-08
C0S950,七塊厝,2023-04-15,22.954453,121.229922,1.0621026e-09
467110,金門,2023-04-15,24.407306,118.289281,4.935876e-09
C0AH80,深坑,2023-04-15,25.002703,121.628328,0.018022474
467990,馬祖,2023-04-15,26.169269,119.923419,3.2550265e-08
C0A970,三貂角,2023-04-15,25.007606,122.002058,0.412968
C0K430,褒忠,2023-04-15,23.690938,120.303634,0.0073127197
467480,嘉義,2023-04-15,23.495925,120.432906,0.96752864
C2E540,後龍,2023-04-15,24.606489,120.783933,7.0761674e-10
C0V400,阿公店,2023-04-15,22.804194,120.355528,0.9942874
C0R440,大漢山,2023-04-15,22.405264,120.753181,9.7698765e-09
C0K280,四湖,2023-04-15,23.630414,120.227125,1.5989637e-09
C1F9B1,桐林,2023-04-15,24.066172,120.735194,1.0566208e-09
C0K390,土庫,2023-04-15,23.679029,120.395574,0.00021256263
C1I450,望鄉山,2023-04-15,23.594153,120.944286,6.015694e-09
C0E910,海埔,2023-04-15,24.648767,120.772435,7.5193923e-10
B2E890,畜試北區分所,2023-04-15,24.527806,120.770972,4.0443868e-10
C0R750,四林格山,2023-04-15,22.076989,120.802439,0.9736464
C0F0C0,中坑,2023-04-15,24.248517,120.903319,1.4898979e-09
C1I121,大鞍,2023-04-15,23.678381,120.760017,4.4849693e-09
72U480,花改蘭陽分場,2023-04-15,24.686306,121.716583,2.2574782e-09
C0A770,科教館,2023-04-15,25.096356,121.516507,0.05281668
C0AJ60,六塊厝,2023-04-15,25.24,121.4481,0.7138628
C0R620,墾雷,2023-04-15,21.900836,120.855269,0.37970835
467420,永康,2023-04-15,23.038386,120.2367,0.010380695
467300,東吉島,2023-04-15,23.25695,119.667467,0.00011350639
C0I410,名間,2023-04-15,23.837053,120.701447,4.6370363e-10
A2C560,農工中心,2023-04-15,24.985917,121.239833,2.8971185e-08
C0V740,旗山,2023-04-15,22.888614,120.483597,0.9974061
C0Z061,玉里,2023-04-15,23.3215,121.339656,6.3496086e-10
C0S840,南田,2023-04-15,22.279725,120.889208,0.9868613
C1I470,杉林溪,2023-04-15,23.639517,120.786444,5.2947655e-09
C1X040,東原,2023-04-15,23.291597,120.463822,2.7722785e-06
C0R660,枋寮,2023-04-15,22.367722,120.590647,0.5614012
C1R120,上德文,2023-04-15,22.763272,120.704442,3.4420378e-10
C0K450,大埤,2023-04-15,23.646074,120.431537,0.00013643436
C0UA00,土場,2023-04-15,24.576533,121.495333,2.7304754e-09
467080,宜蘭,2023-04-15,24.763975,121.756528,3.0582559e-09
C0N030,四草,2023-04-15,23.0235,120.1116,1.6868569e-08
C0V650,彌陀,2023-04-15,22.783806,120.246361,0.95133203
C0D660,新竹市東區,2023-04-15,24.798681,120.986942,2.3648377e-09
82S580,茶改東部分場,2023-04-15,22.907694,121.130139,2.46788e-07
C0C710,大溪永福,2023-04-15,24.892936,121.324975,6.9079813e-09
C0FA20,溫寮,2023-04-15,24.372177,120.583125,1.0786596e-09
C0V640,湖內,2023-04-15,22.887139,120.2445,1.696667e-07
C0R910,下寮,2023-04-15,22.3929,120.5548,0.5614012
C0Z020,明里,2023-04-15,23.208717,121.262342,9.1645097e-10
C0M770,嘉義梅山,2023-04-15,23.585398,120.555587,1.5722605e-08
G2F820,農業試驗所,2023-04-15,24.031261,120.688133,2.1802826e-09
C0C660,楊梅,2023-04-15,24.912375,121.143047,1.2148995e-09
C1E511,新開,2023-04-15,24.347703,120.827019,3.0609096e-10
G2F820,農試所(霧峰),2023-04-15,24.031261,120.688133,2.1802826e-09
C1I070,和社,2023-04-15,23.591131,120.888861,3.165867e-09
C2F000,大肚,2023-04-15,24.15295,120.572117,5.422165e-10
C1S850,豐南,2023-04-15,23.122139,121.262389,6.3597533e-10
C2A920,富貴角,2023-04-15,25.263783,121.565258,0.015219572
CAH030,茶改場竹圍站,2023-04-15,23.860083,120.637528,2.5720392e-10
C0T960,光復,2023-04-15,23.660694,121.424964,8.342917e-10
C0F9M0,豐原,2023-04-15,24.254322,120.720692,4.5724832e-10
C0R720,旭海,2023-04-15,22.205403,120.887614,0.99509555
C0V710,苓雅,2023-04-15,22.622742,120.330669,0.00023870119
C0C740,觀音工業區,2023-04-15,25.064764,121.114856,7.143387e-05
CAC040,拉拉山,2023-04-15,24.699317,121.427133,1.640471e-08
C0V790,萬山,2023-04-15,22.905944,120.688056,9.461196e-10
U2HA30,臺大和社,2023-04-15,23.590856,120.888864,3.165867e-09
C0AJ90,澳底,2023-04-15,25.0552,121.9253,0.97730523
C0Z100,東華,2023-04-15,23.89525,121.549833,6.323575e-10
C0G970,三豐,2023-04-15,23.882,120.2895,9.238014e-09
V2K610,大庄合作社,2023-04-15,23.8068,120.367939,1.0165992e-06
C0V900,汕尾,2023-04-15,22.4782,120.4151,9.751281e-06
C1R630,龍泉,2023-04-15,22.66701,120.59091,0.9996755
C1AC50,關渡,2023-04-15,25.133486,121.469331,0.024264816
C0F9I0,神岡,2023-04-15,24.272481,120.658314,3.2520753e-10
C0K460,斗南,2023-04-15,23.678734,120.478359,9.6392716e-05
467410,臺南,2023-04-15,22.993239,120.204772,1.27449695e-08
C2O810,曾文,2023-04-15,23.219681,120.497328,0.1612815
467280,後龍,2023-04-15,24.648563,120.831834,6.68016e-10
C1F9J1,清水林,2023-04-15,24.071242,120.820419,4.4263115e-10
C2A650,火燒寮,2023-04-15,25.002719,121.742892,0.0012810115
466930,竹子湖,2023-04-15,25.162078,121.544547,7.056012e-08
C1I220,樟湖,2023-04-15,23.905333,120.846983,2.152536e-09
C0I390,仁愛,2023-04-15,24.022122,121.132206,1.1180679e-09
C0Z300,東里,2023-04-15,23.26853,121.30547,8.546614e-10
C0V310,美濃,2023-04-15,22.898742,120.519153,0.9976278
C1V590,新發,2023-04-15,23.057019,120.646064,8.725909e-10
C0K510,水林,2023-04-15,23.572924,120.24597,8.142387e-06
72S590,東改賓朗果園,2023-04-15,22.813889,121.071278,0.026437042
82A750,茶改北部分場,2023-04-15,24.955778,121.631222,2.7001985e-07
C1A750,石碇服務區,2023-04-15,25.00872,121.646242,0.07473691
C0X300,鹿寮,2023-04-15,23.386047,120.477331,0.9950087
G2AI50,關渡,2023-04-15,25.11575,121.492,4.0054296e-05
C0K590,雲林東勢,2023-04-15,23.674192,120.255721,1.2764922e-05
C0A570,桶後,2023-04-15,24.848222,121.597992,9.641514e-09
C1S800,華源,2023-04-15,22.657883,121.02325,2.0155674e-08
C0G720,溪州,2023-04-15,23.851589,120.499093,1.9996495e-08
C1V160,達卡努瓦,2023-04-15,23.279811,120.705319,1.3458976e-09
C2M410,馬頭山,2023-04-15,23.324361,120.582017,4.3744853e-07
C0V850,蚵仔寮,2023-04-15,22.7256,120.2527,0.5922491
C0S740,池上,2023-04-15,23.119628,121.209469,7.238477e-10
C1V390,尖山,2023-04-15,22.813153,120.367789,0.97531295
C0AH70,松山,2023-04-15,25.04871,121.55042,0.07601137
C0N010,鯤鯓國小,2023-04-15,23.1879,120.0889,4.9291775e-09
C0R550,新埤,2023-04-15,22.467947,120.582894,7.5116172e-06
C0SA60,知本（水試所）,2023-04-15,22.702394,121.082761,4.3462705e-08
C0T9I0,豐濱,2023-04-15,23.583897,121.514806,4.0790393e-10
C0UB00,淡江大學蘭陽校園,2023-04-15,24.823239,121.730383,8.917947e-09
C0T9N0,富里,2023-04-15,23.171639,121.249378,1.0300576e-09
U2HA50,臺大竹山,2023-04-15,23.756972,120.681556,3.3582093e-09
C0V840,鳳鼻頭,2023-04-15,22.5083,120.3591,8.3332134e-07
C0X140,西港,2023-04-15,23.125608,120.203108,2.63747e-06
72D080,桃改五峰分場,2023-04-15,24.612194,121.157167,4.256087e-09
C0V530,阿蓮,2023-04-15,22.883208,120.327508,0.8518499
C1O880,關山,2023-04-15,23.173397,120.594092,1.5329805e-07
C0E791,卓蘭,2023-04-15,24.3126,120.8244,4.034294e-10
C1I030,武界,2023-04-15,23.913225,121.052483,1.8060599e-09
C0R520,崁頂,2023-04-15,22.514781,120.506914,0.6469844
C0R341,牡丹,2023-04-15,22.130036,120.792639,0.99742144
C0R930,萬丹,2023-04-15,22.5885,120.4851,0.08237282
C0S760,紅石,2023-04-15,23.069131,121.126219,1.4168986e-08
C1M610,石磐龍,2023-04-15,23.496606,120.663506,1.2752137e-09
C0UA10,鴛鴦湖,2023-04-15,24.590269,121.412228,1.41350025e-08
V2C260,八德蔬果,2023-04-15,24.978508,121.281819,1.7309324e-06
C0R800,丹路,2023-04-15,22.204481,120.750989,0.9913166
C0G920,永靖,2023-04-15,23.924703,120.547533,2.0386643e-09
C1A630,下盆,2023-04-15,24.771003,121.538622,2.870999e-09
B2N890,畜產試驗所,2023-04-15,23.058972,120.336406,0.10431422
C0UA30,白嶺,2023-04-15,24.527819,121.519031,8.078468e-09
C1V580,溪南(特生中心),2023-04-15,23.084972,120.788475,1.3486832e-09
C1T970,大農,2023-04-15,23.615233,121.413331,4.2689707e-10
E2S960,林試太麻里2,2023-04-15,22.598014,120.989761,6.3833845e-08
C0R650,竹田,2023-04-15,22.58486,120.54344,0.9874238
C1H900,清流,2023-04-15,24.080775,120.962997,1.0799812e-09
C1C510,水尾,2023-04-15,24.940081,121.087161,1.8145886e-09
C0F9X0,大雅(中科園區),2023-04-15,24.21528,120.62445,5.70089e-10
C0O970,虎頭埤,2023-04-15,23.021375,120.347878,0.6908202
C0C730,中大臨海站,2023-04-15,24.966126,121.008581,2.8701244e-08
C0X250,新營,2023-04-15,23.310689,120.316681,0.9936708
C0V700,三民,2023-04-15,22.645017,120.311233,0.0051411106
C0U870,大礁溪,2023-04-15,24.791042,121.675047,2.6721074e-09
C0E870,高鐵苗栗,2023-04-15,24.60725,120.826094,7.0440104e-10
A2K570,古坑花卉中心,2023-04-15,23.63353,120.55239,2.6898578e-08
C0M860,新美,2023-04-15,23.338017,120.683169,3.132559e-10
C1E701,八卦,2023-04-15,24.491756,120.927619,1.5343333e-09
C0I420,國姓,2023-04-15,24.037803,120.855072,5.448217e-10
C0S960,香蘭,2023-04-15,22.587569,120.993375,6.3833845e-08
C0R260,春日,2023-04-15,22.370361,120.628306,0.24085683
72G600,臺中農改場,2023-04-15,24.003028,120.534389,2.3469358e-09
C0Z210,瑞穗,2023-04-15,23.5239,121.39021,4.4282705e-10
C0M820,達邦,2023-04-15,23.453994,120.749517,5.75262e-10
C0V860,南寮,2023-04-15,22.7616,120.2339,0.5922491
C0G740,大城,2023-04-15,23.852487,120.320935,8.158554e-09
C0R920,塭仔,2023-04-15,22.4169,120.5197,0.66388166
C0R470,高樹,2023-04-15,22.826389,120.600806,2.78584e-06
C0R680,佳樂水,2023-04-15,21.993578,120.861633,0.99783313
C1O870,大棟山,2023-04-15,23.31157,120.52226,4.4789916e-10
C0D360,梅花,2023-04-15,24.678347,121.208558,1.5784254e-09
C0Z190,富世,2023-04-15,24.14743,121.6297,3.228852e-08
C0AI10,屈尺,2023-04-15,24.92184,121.54475,1.1049417e-07
B2U990,畜試東區分所,2023-04-15,24.669039,121.832561,1.0365323e-08
C0R240,來義,2023-04-15,22.527306,120.625111,0.08239759
C1R610,西大武山,2023-04-15,22.617719,120.7322,1.5171473e-08
C0G900,線西,2023-04-15,24.143358,120.443536,3.7281693e-09
C0M700,竹崎,2023-04-15,23.526178,120.555508,7.820287e-06
C2E880,三義,2023-04-15,24.405478,120.749819,3.3535286e-10
C0C720,竹圍,2023-04-15,25.112692,121.239824,4.0054296e-05
C0F9P0,清水,2023-04-15,24.312297,120.562242,1.0546979e-09
C0Z150,吉安光華,2023-04-15,23.930925,121.595153,8.026779e-10
C1D640,外坪(五指山),2023-04-15,24.644447,121.090961,2.9267646e-09
C0F9O0,潭子,2023-04-15,24.213106,120.703933,9.628462e-10
72T250,花蓮農改場,2023-04-15,23.975222,121.563889,2.9813207e-09
C0E780,銅鑼,2023-04-15,24.489681,120.790853,3.478628e-10
C1T950,太安,2023-04-15,23.666719,121.370128,1.4191787e-08
C0E830,苑裡,2023-04-15,24.439714,120.653053,1.2325471e-09
467270,田中,2023-04-15,23.873803,120.581286,4.832735e-07
C0SA10,檳榔四格山,2023-04-15,22.810031,121.109308,0.0035548327
C1T830,布洛灣,2023-04-15,24.17184,121.57127,4.3338865e-08
C0F970,大坑,2023-04-15,24.173142,120.722289,1.5864691e-09
C1U920,思源,2023-04-15,24.393125,121.347214,7.733814e-09
C0A931,三和,2023-04-15,25.233153,121.595236,0.0010045222
C0I010,廬山,2023-04-15,24.033311,121.181808,1.9950503e-09
C0R860,鼻頭,2023-04-15,22.1043,120.8979,0.99063504
C0UB20,壯圍,2023-04-15,24.7359,121.8163,2.535093e-09
C0R790,九棚,2023-04-15,22.14195,120.889281,0.9968876
C0W110,東莒,2023-04-15,25.9652,119.98069,2.397763e-08
C1U930,粉鳥林,2023-04-15,24.497088,121.842479,1.0667966e-05
C1I211,蘆竹湳,2023-04-15,23.934019,120.811994,3.6276684e-10
C0S830,長濱,2023-04-15,23.286817,121.411975,7.3746853e-10
C1F9F1,伯公龍,2023-04-15,24.272392,120.849047,6.23332e-10
C0E810,西湖,2023-04-15,24.562947,120.7485,4.136952e-09
C1I440,新高口,2023-04-15,23.478744,120.878939,2.3809683e-09
C0O840,王爺宮,2023-04-15,23.222064,120.40085,0.07167747
C0T9G0,鳳林山,2023-04-15,23.735269,121.420131,2.2693978e-09
C0X080,佳里,2023-04-15,23.173039,120.145086,4.9291775e-09
C0Z310,清水斷崖,2023-04-15,24.218294,121.689142,9.032212e-09
C0M680,太保,2023-04-15,23.455062,120.331455,0.99812496
C1S820,金峰,2023-04-15,22.590969,120.933236,1.8535795e-08
C0AD10,八里,2023-04-15,25.150211,121.403947,4.0054296e-05
C2K240,草嶺,2023-04-15,23.59555,120.693461,1.5813725e-09
C1SA70,都蘭,2023-04-15,22.87794,121.226881,0.00017123454
C0K440,二崙,2023-04-15,23.772797,120.408944,4.0714728e-08
C1A760,坪林交控,2023-04-15,24.94284,121.713442,1.4627592e-07
C0F9N0,大里,2023-04-15,24.092464,120.701378,2.8142233e-09
C0SA90,達仁林場,2023-04-15,22.264347,120.823972,0.7939051
C1R290,石門山,2023-04-15,22.112611,120.756597,0.9965406
42HA10,萬大發電廠,2023-04-15,23.978875,121.139639,2.3023674e-09
C0R890,山海,2023-04-15,21.9878,120.7091,0.9979786
C0T9A0,月眉山,2023-04-15,23.809928,121.539828,2.2607571e-09
C0AC70,信義,2023-04-15,25.037822,121.564597,0.07822561
C0K560,棋山,2023-04-15,23.68645,120.603417,2.101623e-08
C1Z240,中平林道,2023-04-15,23.42115,121.26763,2.1912856e-08
U2H480,溪頭,2023-04-15,23.670306,120.798194,1.812361e-09
C0M880,好美里,2023-04-15,23.3364,120.138,8.216296e-07
C0T9E0,大坑,2023-04-15,23.880628,121.581981,1.0245222e-09
C0K530,臺西,2023-04-15,23.701547,120.197559,2.6557377e-08
C1E900,國一N128K,2023-04-15,24.560997,120.844186,3.9650874e-10
C0AJ50,水湳洞,2023-04-15,25.123695,121.862238,0.98609334
C0AI20,白沙灣,2023-04-15,25.283128,121.519058,0.6162218
C0A860,大坪,2023-04-15,25.165914,121.632969,2.786119e-06
C1U850,觀音海岸,2023-04-15,24.38319,121.77856,2.7124855e-08
C0U950,鶯子嶺,2023-04-15,24.89754,121.79244,3.585887e-08
C0O900,善化,2023-04-15,23.112883,120.297219,0.38377577
C0K550,蔦松,2023-04-15,23.514319,120.229736,7.266648e-08
E2P980,林試六龜中心,2023-04-15,22.991703,120.645722,7.9195067e-10
C0E590,通霄,2023-04-15,24.471892,120.704622,2.387371e-09
C1I310,西巒,2023-04-15,23.754486,120.883956,2.7418159e-09
C0A550,泰平,2023-04-15,24.971197,121.823711,9.300414e-07
C0I360,水里,2023-04-15,23.812553,120.849792,3.0908653e-10
C0R830,高士,2023-04-15,22.121825,120.836781,0.99504924
C1I101,溪頭,2023-04-15,23.661789,120.807647,4.2863193e-09
C0AJ20,野柳,2023-04-15,25.20703,121.690021,0.4630118
C0B060,暖暖,2023-04-15,25.0957,121.7403,0.93510467
C1H920,長豐,2023-04-15,24.102039,120.879897,1.0094026e-09
C0V360,內門,2023-04-15,22.975481,120.466769,0.99237996
C0R850,林邊,2023-04-15,22.4634,120.5339,1.0876773e-05
C0E930,龍鳳,2023-04-15,24.700034,120.859125,1.106911e-09
C0U910,冬山,2023-04-15,24.63373,121.7937,1.0365323e-08
C1E721,泰安,2023-04-15,24.489017,120.968036,3.31024e-09
82H320,茶改中部分場,2023-04-15,23.875611,120.913583,1.8061495e-09
C0M750,布袋,2023-04-15,23.380878,120.167789,0.0012746091
C1S860,利嘉,2023-04-15,22.809417,121.050528,5.255997e-09
72C440,桃園農改,2023-04-15,24.950944,121.030583,2.2110926e-09
E2S980,林試太麻里1,2023-04-15,22.598922,120.980044,3.4222648e-08
C0X170,關廟,2023-04-15,22.963017,120.327797,0.7669285
C0V720,林園,2023-04-15,22.507747,120.394511,7.125935e-07
C1I510,線浸林道,2023-04-15,23.761508,120.832956,2.5241167e-09
C0D690,外湖,2023-04-15,24.917735,120.968711,2.6944265e-09
C0C750,新興坑尾,2023-04-15,25.0061,121.0971,2.3169367e-08
B2Q810,畜試南區分所,2023-04-15,21.945583,120.802167,0.9982919
C0S790,金崙,2023-04-15,22.538122,120.966875,2.7854302e-08
C0AH90,福山植物園,2023-04-15,24.760717,121.58135,5.292231e-09
C0I540,奇萊稜線,2023-04-15,24.109231,121.326456,8.934871e-09
C0M850,表湖,2023-04-15,23.24186,120.64166,5.221342e-10
C0S770,大溪山,2023-04-15,22.478475,120.943325,1.6886306e-08
C0AG80,中和,2023-04-15,24.991622,121.491792,0.033508193
C0T790,大禹嶺,2023-04-15,24.186117,121.316086,4.7089297e-09
C0T9B0,水源,2023-04-15,23.991861,121.537169,2.7604123e-09
C0R840,牡丹池山,2023-04-15,22.168389,120.841225,0.99959016
C1I131,桶頭,2023-04-15,23.641944,120.654117,1.314399e-09
CAL110,布袋國中,2023-04-15,23.35893,120.18026,0.0012746091
467571,新竹,2023-04-15,24.827853,121.014219,1.1519014e-09
C0Z290,赤柯山,2023-04-15,23.36893,121.38293,7.2267685e-09
C0X280,將軍,2023-04-15,23.214999,120.13577,8.1857415e-08
C0S690,太麻里,2023-04-15,22.60902,120.98533,7.657151e-09
C0U880,北關,2023-04-15,24.9072,121.8734,4.356157e-06
C1H860,瑞岩,2023-04-15,24.123772,121.18345,4.621481e-09
C0G810,埔心,2023-04-15,23.947633,120.525456,2.0341664e-09
C0U970,大福,2023-04-15,24.80064,121.81389,3.2691234e-09
C1E670,南礦,2023-04-15,24.538278,121.002836,6.3287664e-09
C0M520,東後寮,2023-04-15,23.369908,120.248065,0.0009253844
C1E461,松安,2023-04-15,24.397972,120.986022,3.203674e-09
72G600,臺中農改,2023-04-15,24.003028,120.534389,2.3469358e-09
C2N160,西拉雅風管處,2023-04-15,23.189481,120.335297,0.97635376
C0A640,石碇,2023-04-15,24.993969,121.662917,0.002807689
E2S960,林試太麻里2,2023-04-15,22.598,120.99775,7.394383e-08
C0F9Y0,桃山,2023-04-15,24.432739,121.303808,1.1650134e-08
C1I020,萬大,2023-04-15,23.979817,121.132261,1.1261623e-09
C0U940,羅東,2023-04-15,24.68184,121.74934,2.3457944e-09
C0M650,朴子,2023-04-15,23.43463,120.23902,0.3662248
C1I500,大尖山,2023-04-15,23.858572,120.994889,5.439394e-09
C0G820,田尾,2023-04-15,23.901669,120.509389,2.0341664e-09
E2K600,四湖植物園,2023-04-15,23.676986,120.163433,1.5989637e-09
C0S730,綠島,2023-04-15,22.6672,121.47533,0.0027826617
12Q970,東港工作站,2023-04-15,22.479997,120.466058,1.0346496e-05
C0E430,南庄,2023-04-15,24.601775,121.000214,3.93625e-10
C1TA00,太魯閣,2023-04-15,24.15773,121.6236,2.8221693e-08
466920,臺北,2023-04-15,25.037658,121.514853,0.07601137
C0R600,舊泰武,2023-04-15,22.588194,120.664944,5.5563726e-10
C1I260,北坑,2023-04-15,23.9246,121.006903,3.6638065e-10
466910,鞍部,2023-04-15,25.182586,121.529731,5.1647902e-08
C1I230,九份二山,2023-04-15,23.961944,120.845,1.7324836e-09
C2A660,瑞芳,2023-04-15,25.113169,121.801147,0.9530501
C0R270,琉球嶼,2023-04-15,22.332244,120.362236,1.9016541e-07
C1T990,高寮,2023-04-15,23.394239,121.356808,4.615999e-10
C0G620,芬園,2023-04-15,24.015678,120.6213,1.1874493e-09
C1Z140,荖溪,2023-04-15,23.890575,121.45964,1.0702291e-08
C1I201,中心崙,2023-04-15,23.728722,120.712097,2.4611524e-10
C1I400,凌霄,2023-04-15,24.018778,121.004456,1.627288e-09
C1M640,十字,2023-04-15,23.492153,120.753683,3.6584034e-09
G2P820,農試鳳山分所,2023-04-15,22.646611,120.356083,0.0022030144
C0Z270,蕃薯寮,2023-04-15,23.73835,121.540108,1.4455328e-09
C0F9Q0,外埔,2023-04-15,24.347817,120.705686,3.4891737e-10
C0K580,高鐵雲林,2023-04-15,23.737456,120.417944,6.7766273e-06
C2I090,鳳凰,2023-04-15,23.728081,120.787347,8.3842333e-10
C0U990,員山,2023-04-15,24.74435,121.72247,2.4256974e-09
C0V770,大社,2023-04-15,22.730306,120.346639,0.39620394
C0X120,麻豆,2023-04-15,23.183289,120.248611,0.0010981315
C0C670,龍潭,2023-04-15,24.870056,121.221389,1.3771657e-09
C0D680,香山濕地,2023-04-15,24.783581,120.914988,3.5098338e-09
C0S980,勝林山,2023-04-15,22.430439,120.8938,1.487888e-08
C0V730,大寮,2023-04-15,22.605614,120.395717,0.00019891515
C0R570,麟洛,2023-04-15,22.65078,120.52719,0.9234031
CAG100,王功漁港,2023-04-15,23.96824,120.32586,2.8936764e-09
C0X290,北門,2023-04-15,23.267772,120.125481,8.1857415e-08
C2F930,大甲,2023-04-15,24.347667,120.640403,8.508992e-10
C0D650,湖口,2023-04-15,24.904794,121.043628,1.8294242e-09
C0E420,竹南,2023-04-15,24.708978,120.888897,9.887298e-10
C0U780,五結,2023-04-15,24.68637,121.79794,2.535093e-09
C1I250,鯉潭,2023-04-15,23.961922,120.991131,1.7683832e-09
C0R130,阿禮,2023-04-15,22.742908,120.743678,4.1384177e-10
C0X100,臺南市北區,2023-04-15,23.010394,120.194228,1.6021183e-08
C0S920,金峰嘉蘭,2023-04-15,22.594789,120.960825,3.343766e-08
C0V490,新興,2023-04-15,22.627422,120.298803,0.00023870119
C0F9K0,大安,2023-04-15,24.345061,120.588025,1.0070507e-09
72N100,臺南農改,2023-04-15,23.0605,120.342194,0.10431422
467290,古坑,2023-04-15,23.633639,120.551889,2.6898578e-08
C0V440,鳳山,2023-04-15,22.646653,120.356122,0.0022030144
C1T940,大觀,2023-04-15,23.714206,121.373133,1.959398e-09
72T250,花蓮農改,2023-04-15,23.975222,121.563889,2.9813207e-09
C0E740,造橋,2023-04-15,24.637056,120.864778,7.0347866e-10
C0R100,尾寮山,2023-04-15,22.833111,120.683889,4.0036702e-10
A2K630,臺大雲林校區,2023-04-15,23.730628,120.423903,6.7766273e-06
C0D580,寶山,2023-04-15,24.735006,121.025192,6.208568e-10
E2P990,林試扇平站,2023-04-15,22.9677,120.6857,6.563737e-10
C0AI30,三重,2023-04-15,25.057328,121.500629,0.05281668
C0AH00,汐止,2023-04-15,25.066881,121.658778,0.07601137
C1Z040,立山,2023-04-15,23.443356,121.327375,4.6656323e-09
C0R740,獅子,2023-04-15,22.201569,120.70525,0.9876795
C0W130,花嶼,2023-04-15,23.40007,119.32276,0.05225101
C0A950,鼻頭角,2023-04-15,25.129036,121.923372,0.9786589
C0K470,林內,2023-04-15,23.748675,120.609642,1.3127811e-08
82C160,茶改場,2023-04-15,24.908472,121.185333,1.1593404e-09
C0Z320,清水林道,2023-04-15,23.27125,121.188272,6.40982e-09
C0R760,南仁湖,2023-04-15,22.084681,120.863353,0.9965406
C0M670,大林,2023-04-15,23.600616,120.45841,0.002684207
C0M800,茶山,2023-04-15,23.299075,120.664767,3.9826262e-10
C0A9C0,天母,2023-04-15,25.117494,121.537169,0.21689022
72K220,南改斗南分場,2023-04-15,23.634556,120.477333,9.752514e-05
72AI40,桃改樹林分場,2023-04-15,24.944503,121.386972,2.8269411e-09
C0S910,蘭嶼燈塔,2023-04-15,22.081197,121.503117,0.97092307
C0B050,八斗子,2023-04-15,25.144754,121.79167,0.9883019
C0U900,內城,2023-04-15,24.71813,121.68766,2.12355e-09
C0X320,柳營,2023-04-15,23.253328,120.375253,0.95565856
C0M790,新港,2023-04-15,23.553269,120.345728,0.03702761
C0F9T0,西屯,2023-04-15,24.179494,120.641275,2.2031152e-09
C0SA30,都歷,2023-04-15,23.020333,121.323642,9.581417e-10
C0C620,蘆竹,2023-04-15,25.084275,121.265767,0.0769925
C0R730,大坪頂,2023-04-15,22.024633,120.69355,0.9954789
C0AJ40,石門,2023-04-15,25.273672,121.601198,0.052101713
C0E750,苗栗,2023-04-15,24.564569,120.824575,3.9921177e-10
C0T870,鯉魚潭,2023-04-15,23.935639,121.508944,8.274898e-10
C1V170,排雲,2023-04-15,23.463619,120.954147,7.653647e-09
C2H950,中寮,2023-04-15,23.884447,120.766406,4.2237772e-10
C0R350,貓鼻頭,2023-04-15,21.921774,120.7358,0.9955539
C0V660,岡山,2023-04-15,22.797078,120.294958,0.9478065
C1H941,雙冬,2023-04-15,23.967378,120.802189,3.6819225e-10
C0AJ70,田寮,2023-04-15,25.2698,121.4886,0.6271365
C0AI00,五股,2023-04-15,25.07445,121.42728,0.062357627
C0Z280,德武,2023-04-15,23.47426,121.41071,4.907477e-10
C0R700,枋山,2023-04-15,22.246844,120.661086,0.93935
C0C460,復興,2023-04-15,24.820208,121.352281,1.926362e-09
E2H360,蓮華池,2023-04-15,23.918333,120.885278,3.8080558e-10
C0M640,中埔,2023-04-15,23.42538,120.5229,0.035521004
C0W140,金沙,2023-04-15,24.488292,118.408778,7.572332e-09
C2A540,四堵,2023-04-15,24.8926,121.745736,5.6455256e-08
C0ACA0,新莊,2023-04-15,25.051478,121.446756,0.87498516
C0R220,潮州,2023-04-15,22.534361,120.54,0.5509184
U2HA40,臺大內茅埔,2023-04-15,23.689722,120.851117,1.0517509e-09
467490,臺中,2023-04-15,24.145736,120.684075,3.868587e-09
C0U960,翠峰湖,2023-04-15,24.510856,121.608044,1.2519073e-08
E2HA20,林試畢祿溪站,2023-04-15,24.226944,121.308522,7.1762756e-09
C0V890,前鎮,2023-04-15,22.5718,120.3117,0.00040725016
467620,蘭嶼,2023-04-15,22.036969,121.558339,0.9908616
C1F941,雪嶺,2023-04-15,24.280586,121.026642,1.4379795e-08
C0AC80,文山,2023-04-15,25.00235,121.575728,0.018022474
C0F9R0,龍井,2023-04-15,24.184536,120.528972,2.0766382e-09
C0M760,民雄,2023-04-15,23.551754,120.428457,0.003530083
C0UA40,西德山,2023-04-15,24.560647,121.752608,4.432735e-09
C1T920,中興,2023-04-15,23.769503,121.498653,1.4514618e-09
C0D550,雪霸,2023-04-15,24.526972,121.11605,4.074897e-09
C2F860,梨山,2023-04-15,24.247522,121.243669,7.4299216e-09
C0R320,車城,2023-04-15,22.0744,120.716247,0.9615192
C1S870,南美山,2023-04-15,23.15025,121.382333,1.0328137e-09
C0B020,基隆嶼,2023-04-15,25.19141,121.78391,0.000104140214
C1U501,牛鬥,2023-04-15,24.637836,121.573656,9.2886465e-10
C0M730,嘉義市東區,2023-04-15,23.457673,120.460531,0.7900471
C0S700,知本,2023-04-15,22.684866,121.005642,8.870447e-09
C1N001,沙崙,2023-04-15,22.935472,120.309406,0.7925521
C0V760,橋頭,2023-04-15,22.757806,120.30575,0.52975875
C0G960,福寶,2023-04-15,24.0443,120.3814,9.308303e-09
C0X210,白河,2023-04-15,23.347466,120.414427,0.9977251
C0S810,東河,2023-04-15,22.972672,121.303986,0.0052254
C0R670,楓港,2023-04-15,22.190131,120.692156,0.96005905
C0FA50,霧峰,2023-04-15,24.0419,120.6995,1.7664414e-09
C0UB10,蘇澳,2023-04-15,24.5969,121.8571,2.9666518e-09
C0G950,防潮門,2023-04-15,24.1835,120.4871,2.0766382e-09
C0M740,六腳,2023-04-15,23.492871,120.290625,0.77883166
C1R250,力里,2023-04-15,22.428117,120.629228,0.00078931305
C0K330,虎尾,2023-04-15,23.719183,120.442036,5.4071666e-06
C2FA00,烏石坑,2023-04-15,24.273503,120.947617,2.0230384e-09
C0V620,永安,2023-04-15,22.82315,120.236856,0.95133203
C1I330,楓樹林,2023-04-15,23.986803,121.076117,1.3152065e-09
C0W200,湖西,2023-04-15,23.596314,119.67275,0.66877913
72Q010,高雄農改場,2023-04-15,22.709333,120.525889,0.6789296
C0SA40,瑞和,2023-04-15,22.974361,121.156697,2.2709652e-09
C0C680,龜山,2023-04-15,25.02846,121.38656,0.008329934
C2V260,月眉,2023-04-15,22.971003,120.539853,2.3423654e-06
C0V450,鳳森,2023-04-15,22.545064,120.392592,2.946792e-07
C0U720,南山,2023-04-15,24.43742,121.38167,5.474678e-09
A2N290,臺南蘭花園區,2023-04-15,23.340258,120.379661,0.9991013
C0R560,新園,2023-04-15,22.5434,120.461558,7.125935e-07
C0U890,三星,2023-04-15,24.66812,121.65302,8.478664e-10
C1V300,御油山,2023-04-15,23.001983,120.715364,1.3862472e-09
C0U600,礁溪,2023-04-15,24.817539,121.765608,9.8017185e-09
C1T980,龍澗,2023-04-15,24.023289,121.411328,1.4381962e-08
C0D670,海天一線,2023-04-15,24.831986,120.914438,4.249784e-09
C0SA00,歷坵,2023-04-15,22.520969,120.89185,1.10618545e-08
C0M710,東石,2023-04-15,23.458927,120.15385,1.0473707e-09
C0M780,鹿草,2023-04-15,23.41134,120.30835,0.2305723
C0U520,雙連埤,2023-04-15,24.753033,121.641303,2.6490028e-09
C0B010,七堵,2023-04-15,25.094819,121.71713,0.96664643
C0R480,長治,2023-04-15,22.693128,120.542622,0.2220797
C1V830,國三S383K,2023-04-15,22.781967,120.426475,0.9967919
12Q980,恆春工作站,2023-04-15,22.079678,120.714425,0.9615192
C1O940,東山服務區,2023-04-15,23.286016,120.398472,0.99852836
C1U840,東澳嶺,2023-04-15,24.5378,121.8485,5.3011013e-09
C1D630,飛鳳山,2023-04-15,24.766464,121.119178,1.9548996e-09
C0S940,石寧山,2023-04-15,23.223772,121.406639,8.129223e-10
C0K410,北港,2023-04-15,23.573957,120.292802,6.2212202e-06
C2M620,瑞里,2023-04-15,23.545133,120.675197,1.5284886e-09
C2O950,安南,2023-04-15,23.076694,120.144861,3.734275e-09
C0F0E0,南湖圈谷,2023-04-15,24.363714,121.444667,2.4255783e-08
467610,成功,2023-04-15,23.097486,121.373428,8.59961e-10
C0G890,伸港,2023-04-15,24.148933,120.484403,3.7359995e-09
C2E540,龍溪,2023-04-15,24.606489,120.783933,7.0761674e-10
C1V200,梅山,2023-04-15,23.268447,120.823556,1.0761771e-09
C0T9H0,加路蘭山,2023-04-15,23.682947,121.5274,2.9587406e-09
C2O930,玉井,2023-04-15,23.126042,120.46055,0.9247913
C1F911,新伯公,2023-04-15,24.221361,120.841069,8.678207e-10
C0R490,九如,2023-04-15,22.7405,120.490503,0.80238026
C0X200,左鎮,2023-04-15,23.056758,120.408522,0.7501855
C1F891,稍來,2023-04-15,24.265689,121.001142,1.16902e-08
72N240,七股研究中心,2023-04-15,23.081672,120.062894,4.0877413e-09
C0C700,中壢,2023-04-15,24.977661,121.256375,9.939605e-07
C0M690,水上,2023-04-15,23.419734,120.388909,0.9976505
C0V690,鼓山,2023-04-15,22.623325,120.275575,0.00023870119
C0O860,大內,2023-04-15,23.11885,120.36083,0.18139195
C0Z200,萬榮,2023-04-15,23.709219,121.420106,1.122628e-09
C0T9D0,和中,2023-04-15,24.26676,121.74103,2.1207282e-07
C1O921,楠西,2023-04-15,23.183511,120.484083,0.9799663
C0AJ30,淡水觀海,2023-04-15,25.184591,121.408616,0.94461274
C0V810,左營,2023-04-15,22.67491,120.28491,0.005141745
C0UA70,桃源谷,2023-04-15,24.962606,121.888875,3.8407393e-07
C0X130,官田,2023-04-15,23.193217,120.315422,0.9848342
C1H000,翠峰,2023-04-15,24.109397,121.205211,3.1125666e-09
C0UA90,石城,2023-04-15,24.980444,121.951214,0.7717571
C1E681,南勢山,2023-04-15,24.421669,120.923831,1.3406913e-09
C0A9F0,內湖,2023-04-15,25.079422,121.57545,0.07601137
C0K291,宜梧,2023-04-15,23.536281,120.169329,7.266648e-08
C1K540,口湖,2023-04-15,23.585344,120.180517,6.474189e-10
C0R780,滿州,2023-04-15,22.024403,120.839892,0.9901898
C0V870,文安,2023-04-15,22.8025,120.2164,0.9639562
C0U650,玉蘭,2023-04-15,24.675286,121.587061,1.6244133e-09
C0R640,東港,2023-04-15,22.46247,120.44074,1.0346496e-05
K2E360,苗栗農改,2023-04-15,24.495722,120.829111,3.7909387e-10
C0AJ80,板橋,2023-04-15,25.0107,121.4489,0.041085836
C0S660,下馬,2023-04-15,23.150427,121.070312,6.820121e-09
C1H9B1,阿眉,2023-04-15,24.1263,120.994672,6.958192e-09
C0UA20,多加屯,2023-04-15,24.368614,121.373189,3.8511683e-09
C0E730,頭份,2023-04-15,24.688247,120.912206,1.0319277e-09
72V140,高改旗南分場,2023-04-15,22.857861,120.516667,0.9976278
C0K480,莿桐,2023-04-15,23.761192,120.502372,1.7467046e-07
C0U980,坪林石牌,2023-04-15,24.86478,121.77396,8.047479e-09
C0T900,西林,2023-04-15,23.8119,121.441458,1.6176082e-09
C1I150,青雲,2023-04-15,23.793361,120.949378,3.4650596e-10
467350,澎湖,2023-04-15,23.565503,119.563094,0.9316858
C0G800,埔鹽,2023-04-15,24.000394,120.431683,4.9323e-09
C0H960,草屯,2023-04-15,23.973672,120.68085,1.3013872e-09
C1V780,多納林道,2023-04-15,22.888028,120.737917,4.330065e-10
C0E920,通霄漁港,2023-04-15,24.498589,120.673876,4.06324e-09
C0Z330,安通山,2023-04-15,23.290728,121.348528,1.102032e-09
C0AH10,永和,2023-04-15,25.01125,121.508111,0.041073356
C2G640,鹿港,2023-04-15,24.0753,120.430481,9.308303e-09
C1E890,國三N149K,2023-04-15,24.463414,120.680019,9.909217e-10
C1R110,口社,2023-04-15,22.770111,120.645222,0.9981692
C1M870,國三N285K,2023-04-15,23.550319,120.505833,2.6995359e-08
467050,新屋,2023-04-15,25.006744,121.047486,3.1673785e-08
C1E480,鳳美,2023-04-15,24.554803,121.034747,1.8300593e-09
C0M530,奮起湖,2023-04-15,23.493903,120.699253,1.7723913e-09
C0C590,觀音,2023-04-15,25.027072,121.153317,1.8575223e-05
C0T9M0,靜浦,2023-04-15,23.455167,121.495028,4.3918993e-10
C0AI40,石牌,2023-04-15,25.115597,121.513139,0.25188392
C1F871,上谷關,2023-04-15,24.203483,121.018644,1.5180148e-09
C0G880,二水,2023-04-15,23.810742,120.6173,1.39829e-09
C0R940,加祿堂,2023-04-15,22.3363,120.6217,0.9701963
C0W220,北竿,2023-04-15,26.220358,119.974881,2.7617936e-08
C0O960,崎頂,2023-04-15,22.959547,120.369317,0.06286553
C0S750,向陽,2023-04-15,23.248397,120.986133,1.599763e-09
C0T9F0,水璉,2023-04-15,23.797131,121.542514,1.7575221e-09
C1M600,頭凍,2023-04-15,23.406364,120.603339,1.7136326e-09
467660,臺東,2023-04-15,22.752211,121.154586,0.9856419
C1D380,新埔,2023-04-15,24.84745,121.03834,8.994763e-10
C0V750,路竹,2023-04-15,22.854997,120.259439,1.4115112e-07
C0N050,蚵寮,2023-04-15,23.301,120.1104,8.216296e-07
72M700,南改鹿草分場,2023-04-15,23.416869,120.283061,0.3662248
C1SA50,利嘉林道,2023-04-15,22.82325,121.009389,1.231152e-08
467550,玉山,2023-04-15,23.487614,120.959522,1.2413667e-08
C0A940,金山,2023-04-15,25.223628,121.643967,0.466634
C1V340,大津,2023-04-15,22.888322,120.645986,1.1073634e-08
C0W180,七美,2023-04-15,23.219333,119.444892,0.048021644
C1F9C1,白冷,2023-04-15,24.182844,120.929889,8.7904733e-10
K2E710,苗改生物防治研究中心,2023-04-15,24.422861,120.871833,2.4931532e-10
C0N040,蘆竹溝,2023-04-15,23.2344,120.0961,6.981193e-08
C2W230,畜試所澎湖,2023-04-15,23.628342,119.513206,0.9909358
C0R880,後壁湖,2023-04-15,21.9457,120.7457,0.9981664
C1I280,埔中,2023-04-15,23.820778,120.642594,2.575112e-10
467790,墾丁雷達站,2023-04-15,21.948235,120.808028,0.996138
C0W190,望安,2023-04-15,23.380564,119.494075,0.048027176
466881,新北,2023-04-15,24.9593,121.52,0.031319376
C0Z170,卓溪,2023-04-15,23.3443,121.3029,5.0042875e-10
C0F850,東勢,2023-04-15,24.246428,120.833047,5.281187e-10
466900,淡水,2023-04-15,25.164889,121.448906,3.485094e-05
C0I370,魚池,2023-04-15,23.895703,120.94135,3.440843e-10
C0C630,大溪,2023-04-15,24.882853,121.265547,1.2984368e-09
C0A520,山佳,2023-04-15,24.974944,121.402008,0.0928759
C0I110,竹山,2023-04-15,23.761225,120.688156,7.5693385e-10
82H840,茶改南部分場,2023-04-15,23.762528,120.7405,2.6244293e-10
C0G660,溪湖,2023-04-15,23.94835,120.479122,2.1577111e-09
C1T800,洛韶,2023-04-15,24.204558,121.453956,1.676826e-08
C1T810,慈恩,2023-04-15,24.192044,121.388386,1.7649192e-09
C1E451,象鼻,2023-04-15,24.368617,120.940228,1.0861599e-09
C0AC60,三峽,2023-04-15,24.939025,121.369728,2.6443534e-09
C0I490,萬大林道,2023-04-15,23.928228,121.091411,3.182504e-09
C1I290,豐丘,2023-04-15,23.668178,120.887417,1.9317816e-09
C1I320,奧萬大,2023-04-15,23.952956,121.178556,2.1159852e-09
C0U770,南澳,2023-04-15,24.44935,121.81022,1.4317506e-08
C0A980,社子,2023-04-15,25.109508,121.469681,5.0772138e-05
C0V800,六龜,2023-04-15,22.997889,120.633583,8.9906294e-10
C1G9D0,國一S218K,2023-04-15,23.890641,120.493253,2.4408564e-08
C2F9A0,中竹林,2023-04-15,24.103556,120.751061,6.73561e-10
C0FA40,臺中電廠,2023-04-15,24.2146,120.4907,2.0766382e-09
C0H9C0,合歡山,2023-04-15,24.143442,121.272547,1.0448751e-08
C0X060,下營,2023-04-15,23.22695,120.256261,0.85704136
G2M350,農試溪口農場,2023-04-15,23.58565,120.408111,0.006055241
C0U860,頭城,2023-04-15,24.85323,121.8308,1.0241477e-08
C0R580,南州,2023-04-15,22.48591,120.50274,1.0346496e-05
C0D430,峨眉,2023-04-15,24.6905,121.017189,7.3550754e-10
C0G780,秀水,2023-04-15,24.03405,120.503869,2.3469358e-09
72N100,臺南農改場,2023-04-15,23.0605,120.342194,0.10431422
C0S900,蘭嶼高中,2023-04-15,22.04909,121.51214,0.96143055
467540,大武,2023-04-15,22.355675,120.903789,0.0049439734
C1F9W0,德基,2023-04-15,24.254783,121.190261,1.0088718e-08
C1Z120,壽豐,2023-04-15,23.870853,121.508081,6.323575e-10
C0W160,烏坵,2023-04-15,24.9944,119.44956,9.1850154e-07
C1I240,外大坪,2023-04-15,23.958697,120.917931,1.7590682e-09
C1I550,國六W023K,2023-04-15,23.979067,120.867742,2.935647e-10
C0R870,興海,2023-04-15,21.9752,120.8439,0.9982919
C0R140,瑪家,2023-04-15,22.682903,120.686639,3.8768724e-10
C0A530,坪林,2023-04-15,24.938183,121.70975,7.997553e-08
C0X260,後壁,2023-04-15,23.366358,120.362326,0.9991013
C0Z230,和平,2023-04-15,24.30717,121.77007,2.7067938e-07
C0G770,福興,2023-04-15,24.041289,120.437669,4.9323e-09
C0H9A0,神木村,2023-04-15,23.532742,120.843667,3.732125e-09
C0I460,南投,2023-04-15,23.911469,120.687331,6.6584965e-10
C0I480,梅峰,2023-04-15,24.085272,121.173572,2.0886266e-09
C1V570,吉東,2023-04-15,22.85422,120.5454,0.9967446
C2A560,福山,2023-04-15,24.776203,121.502811,4.416776e-09
C0AH30,五分山,2023-04-15,25.07125,121.780794,6.189131e-07
C0FA10,松柏,2023-04-15,24.429115,120.617482,1.3575562e-09
72S200,東改班鳩分場,2023-04-15,22.829528,121.077694,0.07199155
72HA00,中改埔里分場,2023-04-15,23.903208,120.963364,3.7317385e-10
C0C650,平鎮,2023-04-15,24.897503,121.214636,1.4885515e-09
C0S930,延平,2023-04-15,22.902581,121.084058,3.622355e-08
C0UA60,樟樹山,2023-04-15,24.41393,121.78325,6.012368e-09
C1S670,摩天,2023-04-15,23.199503,121.027,1.4668335e-08
C0V630,茄萣,2023-04-15,22.906642,120.182608,1.9990075e-07
466940,基隆,2023-04-15,25.133314,121.740475,0.98876333
C0X050,東河,2023-04-15,23.296598,120.385608,0.99882203
C0R770,保力,2023-04-15,22.071122,120.764111,0.9911362
G2L020,農試嘉義分所,2023-04-15,23.485028,120.473806,7.8198835e-05
C0X240,關子嶺,2023-04-15,23.331169,120.508025,5.375195e-08
C0I380,集集,2023-04-15,23.828206,120.801467,3.1729988e-10
466990,花蓮,2023-04-15,23.975128,121.613275,3.294091e-09
C1V220,小關山,2023-04-15,23.154217,120.813603,1.3198002e-09
C1F9G1,慶福山,2023-04-15,24.180853,120.848378,8.122156e-10
C0Z250,瑞穗林道,2023-04-15,23.49284,121.30688,1.876309e-08
C0D590,新豐,2023-04-15,24.87068,120.97721,2.0530397e-09
C0A870,五指山,2023-04-15,25.132153,121.608692,5.833239e-08
C0UA50,西帽山,2023-04-15,24.555361,121.802628,2.6658764e-09
C0X160,仁德,2023-04-15,22.968258,120.257689,0.00343218
C1H971,六分寮,2023-04-15,23.92507,120.6378,3.3511116e-10
C0W120,西嶼,2023-04-15,23.5626,119.468436,0.9257296
C0G650,員林,2023-04-15,23.946503,120.585597,3.5198764e-09
C0AD50,鶯歌,2023-04-15,24.951533,121.346294,2.3739577e-09
C0S990,山豬窟,2023-04-15,22.318619,120.857372,2.9670778e-06
72Q010,高雄農改,2023-04-15,22.709333,120.525889,0.6789296
C0X190,安平,2023-04-15,22.993161,120.152181,1.6021183e-08
C0K400,斗六,2023-04-15,23.720583,120.541127,0.00033316153
12J990,口湖工作站,2023-04-15,23.589978,120.180394,6.474189e-10
C0O830,北寮,2023-04-15,23.079561,120.495008,0.8231495
C1D410,白蘭,2023-04-15,24.579364,121.079947,6.6972077e-09
C0S970,加津林,2023-04-15,22.416211,120.926942,0.002065962
C0D700,關西,2023-04-15,24.7977,121.1732,5.728368e-10
C0M810,里佳,2023-04-15,23.389125,120.716647,2.5774327e-09
C0U750,龜山島,2023-04-15,24.841667,121.953133,0.003107476
C0R810,內獅,2023-04-15,22.305064,120.642986,0.9638448
C1M390,龍美,2023-04-15,23.406728,120.654417,1.9946738e-09
C1H840,國三N238K,2023-04-15,23.841008,120.707711,2.7034494e-10
CAQ030,崎峰國小,2023-04-15,22.42565,120.49521,1.0346496e-05
C2E520,大湖,2023-04-15,24.414939,120.870872,2.5579638e-10
467530,阿里山,2023-04-15,23.508208,120.813242,7.177631e-09
C1E691,南湖,2023-04-15,24.40135,120.837533,1.0088309e-09
C0FA30,梧棲,2023-04-15,24.256003,120.523381,1.0546979e-09
C1V231,高中,2023-04-15,23.134911,120.716711,3.6873268e-10
C0F9V0,新社,2023-04-15,24.200172,120.815806,8.3330093e-10
C0H890,埔里,2023-04-15,23.972169,120.952425,2.8011232e-10
C0R690,墾丁,2023-04-15,21.966756,120.810269,0.9962528
C0F0D0,審馬陣,2023-04-15,24.381675,121.4203,6.8159207e-09
C0R820,白鷺,2023-04-15,22.454275,120.666219,1.3869533e-09
U2H480,臺大溪頭,2023-04-15,23.670306,120.798194,1.812361e-09
C1V190,南天池,2023-04-15,23.27403,120.91176,1.6896574e-09
K2E360,苗栗農改場,2023-04-15,24.495722,120.829111,3.7909387e-10
CAJ050,海口故事園區,2023-04-15,23.57543,120.14121,6.474189e-10
C0O990,媽廟,2023-04-15,22.99175,120.293525,0.0036095423
C0D480,打鐵坑,2023-04-15,24.849664,121.150789,1.3698382e-09
C0Z220,和平林道,2023-04-15,24.343922,121.656317,3.412006e-08
72C440,桃園農改場,2023-04-15,24.950944,121.030583,2.2110926e-09
C1E711,馬拉邦山,2023-04-15,24.367306,120.901656,1.132467e-09
C0D560,竹東,2023-04-15,24.767147,121.057881,5.91905e-10
C0F9U0,南屯,2023-04-15,24.137006,120.637969,3.5863434e-09
C0M720,番路,2023-04-15,23.464657,120.554156,0.000691976
C0F0A0,雪山圈谷,2023-04-15,24.388594,121.236339,1.1791735e-08
C1A9N0,四十份,2023-04-15,24.934158,121.593283,3.52921e-07
C0U760,東澳,2023-04-15,24.52196,121.83318,3.15876e-06
C0X230,鹽水,2023-04-15,23.272621,120.247641,5.8278897e-07
C0V370,古亭坑,2023-04-15,22.893178,120.401947,0.9973216
C1I340,新興橋,2023-04-15,23.563333,120.868728,1.2781844e-09
C0SA80,土坂,2023-04-15,22.453108,120.887572,2.7513292e-07
C0R160,鹽埔,2023-04-15,22.739558,120.530778,0.6852046
C0AC40,大屯山,2023-04-15,25.175675,121.522408,3.52282e-08
466850,五分山雷達站,2023-04-15,25.071182,121.781205,5.7151846e-07
C1AI50,國三N016K,2023-04-15,25.034164,121.619664,0.043209918
C1V600,藤枝,2023-04-15,23.071961,120.757042,1.120989e-09
C1E601,南勢,2023-04-15,24.572486,120.734842,2.3884823e-09
C0Z180,新城,2023-04-15,24.03946,121.60454,3.1349092e-09
C0O980,新市,2023-04-15,23.061614,120.298197,0.38377577
C0K420,西螺,2023-04-15,23.800407,120.467394,3.652681e-08
C0Z050,佳心,2023-04-15,23.34567,121.21316,6.636527e-09
C0AD30,蘆洲,2023-04-15,25.086594,121.472331,0.053226423
C0V610,梓官,2023-04-15,22.760558,120.267211,0.52975875
K2F750,種苗改良場,2023-04-15,24.225972,120.800917,8.436094e-10
C0UA80,大溪漁港,2023-04-15,24.941801,121.902955,3.5002836e-06
C1AI60,國一39K邊坡,2023-04-15,25.064361,121.383836,0.022389313
C0W150,金寧,2023-04-15,24.457703,118.328989,4.952596e-09
V2C250,八德合作社,2023-04-15,24.93775,121.266389,1.5674121e-09
C0AH40,平等,2023-04-15,25.129142,121.577086,5.499799e-07
C0R540,佳冬,2023-04-15,22.419456,120.552375,0.5614012
466950,彭佳嶼,2023-04-15,25.627975,122.079744,0.998348
C0A890,雙溪,2023-04-15,25.036003,121.864242,0.9603335
C0C480,桃園,2023-04-15,24.992425,121.323172,1.8297952e-06
C0AH50,林口,2023-04-15,25.072181,121.38084,0.0036074696
A2K360,水試臺西試驗場,2023-04-15,23.717231,120.190522,3.4064918e-08
B2N890,畜試所,2023-04-15,23.058972,120.336406,0.10431422
C0F9S0,烏日,2023-04-15,24.107058,120.624103,4.061636e-09
C0C490,八德,2023-04-15,24.928708,121.283289,1.5960904e-09
C0R190,赤山,2023-04-15,22.592333,120.614306,0.98005426
C0T820,天祥,2023-04-15,24.179597,121.495639,2.7160215e-08
C1F9E1,龍安,2023-04-15,24.1605,120.831961,9.1751085e-10
C0V820,小林,2023-04-15,23.148408,120.63325,1.24741915e-08
C2G870,芳苑,2023-04-15,23.922303,120.320025,2.7325646e-09
C0E850,大河,2023-04-15,24.618069,120.948578,4.442873e-10
C1U670,寒溪,2023-04-15,24.634,121.71691,7.3413715e-09
C0N020,城西,2023-04-15,23.0568,120.0956,1.6021183e-08
C1Z110,三棧,2023-04-15,24.11557,121.60501,2.0645267e-08
C0R280,檳榔,2023-04-15,22.076078,120.836777,0.9974927
C0F9L0,后里,2023-04-15,24.310436,120.729725,4.3702983e-10
C0D540,橫山,2023-04-15,24.71116,121.11693,5.844604e-10
C1D420,太閣南,2023-04-15,24.632808,121.160575,9.658467e-09
C1E770,公館,2023-04-15,24.526914,120.830806,4.0443868e-10
CAN130,水試所海水繁養殖中心,2023-04-15,23.120802,120.07968,4.0877413e-09
C1I430,翠華,2023-04-15,24.191961,121.224339,2.6632743e-09
C1M400,菜瓜坪,2023-04-15,23.251928,120.576103,7.400189e-10
C0G730,二林,2023-04-15,23.903325,120.376081,4.7021627e-09
72M360,南改義竹分場,2023-04-15,23.360694,120.279361,0.00092713936
V2K620,麥寮合作社,2023-04-15,23.753836,120.294783,0.007243177
C0Z070,舞鶴,2023-04-15,23.46811,121.37407,5.2301335e-10
C0B040,大武崙,2023-04-15,25.166676,121.706993,0.98261064
C1Z030,紅葉,2023-04-15,23.493119,121.338806,4.877141e-10
C1I050,丹大,2023-04-15,23.753747,121.141147,2.6346472e-09
C0I080,信義,2023-04-15,23.689694,120.851036,1.0517509e-09
C2A880,福隆,2023-04-15,25.017842,121.942083,0.79441524
C0Z160,鳳林,2023-04-15,23.746114,121.453411,1.0673156e-09
C0V210,復興,2023-04-15,23.222403,120.806089,1.1271852e-09
C0H990,昆陽,2023-04-15,24.121322,121.273642,6.8669683e-09
C0S710,鹿野,2023-04-15,22.917711,121.122994,1.0529974e-09
C0I530,小奇萊,2023-04-15,24.131764,121.295717,7.3654953e-09
C0Z080,富源,2023-04-15,23.587642,121.378225,2.2393507e-09
467441,高雄,2023-04-15,22.7304,120.3125,0.39559168
C1I140,卡奈托灣,2023-04-15,23.754364,121.087872,8.3272894e-10
C0I520,玉山風口,2023-04-15,23.470489,120.955994,1.3002317e-08
C1G691,下水埔,2023-04-15,23.816114,120.5676,1.0227893e-07
C0X110,臺南市南區,2023-04-15,22.961189,120.188378,0.00343218
C0V680,仁武,2023-04-15,22.701083,120.347722,0.005141745
C2G840,北斗,2023-04-15,23.877586,120.514222,1.9908814e-08
C0R900,竹坑,2023-04-15,22.1385,120.7022,0.9620187
C0K250,崙背,2023-04-15,23.75555,120.318925,0.0073127197
C0G860,社頭,2023-04-15,23.897647,120.5862,6.07716e-07
C0X150,安定,2023-04-15,23.102614,120.227839,2.63747e-06
C0R590,里港,2023-04-15,22.77919,120.49459,0.9991609
C0E610,馬都安,2023-04-15,24.451272,120.930192,1.0857292e-09
C0E550,明德,2023-04-15,24.583486,120.885411,3.8614045e-10
C0R150,三地門,2023-04-15,22.709889,120.639944,0.99851596
C0G910,花壇,2023-04-15,24.032076,120.549461,1.815042e-09
C1D400,鳥嘴山,2023-04-15,24.71909,121.28387,7.976481e-09
C0K500,元長,2023-04-15,23.64981,120.315024,2.181121e-05
C0F0B0,石岡,2023-04-15,24.276061,120.777644,4.1576115e-10
C2V250,甲仙,2023-04-15,23.080106,120.591758,0.00045562178
C0SA20,金崙山,2023-04-15,22.567419,120.959667,7.508404e-09
C0V350,溪埔,2023-04-15,22.738578,120.446797,0.9993798
C0M660,溪口,2023-04-15,23.604131,120.403569,0.0060552484
C1S880,壽卡,2023-04-15,22.238911,120.858903,0.86081576
72D680,桃改新埔分場,2023-04-15,24.834444,121.066111,9.071779e-10
