站號,站名,日期,lat,lon,BLBTSLS
C0R710,龍磐,2023-07-21,21.931672,120.838942,0.550361
C1F9D1,白毛台,2023-07-21,24.158325,120.886933,0.00508545
C0G940,竹塘,2023-07-21,23.848253,120.386764,0.11814642
467590,恆春,2023-07-21,22.003897,120.746339,0.14796111
C1O850,環湖,2023-07-21,23.148617,120.418633,0.014171227
C0U710,太平山,2023-07-21,24.505486,121.525656,1.8490939e-09
C0E820,獅潭,2023-07-21,24.539133,120.920042,0.31610817
C0V880,興達,2023-07-21,22.8778,120.2127,0.034942146
C0S890,關山,2023-07-21,23.0395,121.175017,0.99852645
K2F750,種苗繁殖,2023-07-21,24.225972,120.800917,0.0007490034
C1Z130,銅門,2023-07-21,23.965694,121.492842,0.97408295
C0AD40,土城,2023-07-21,24.973208,121.445169,0.6529765
CAN140,六官養殖協會,2023-07-21,23.22881,120.29962,0.16757403
C0X180,山上,2023-07-21,23.0757,120.363253,0.19759789
C0F9Z0,雪山東峰,2023-07-21,24.388792,121.268675,4.853082e-09
C1M480,獨立山,2023-07-21,23.537022,120.607797,0.0002892116
C0X220,學甲,2023-07-21,23.230367,120.182187,0.016483119
C0R170,屏東,2023-07-21,22.660269,120.494072,0.11252253
467650,日月潭,2023-07-21,23.881325,120.90805,3.6815652e-07
C0K600,箔子寮,2023-07-21,23.6197,120.14,0.27314126
C0G830,埤頭,2023-07-21,23.866003,120.452806,0.35897702
C0S950,七塊厝,2023-07-21,22.954453,121.229922,0.7117606
467110,金門,2023-07-21,24.407306,118.289281,0.0017660864
C0AH80,深坑,2023-07-21,25.002703,121.628328,0.6177785
467990,馬祖,2023-07-21,26.169269,119.923419,0.21692811
C0A970,三貂角,2023-07-21,25.007606,122.002058,0.9999103
C0K430,褒忠,2023-07-21,23.690938,120.303634,0.30979833
467480,嘉義,2023-07-21,23.495925,120.432906,0.11114379
C2E540,後龍,2023-07-21,24.606489,120.783933,0.69005376
C0V400,阿公店,2023-07-21,22.804194,120.355528,0.2937133
C0R440,大漢山,2023-07-21,22.405264,120.753181,4.0196273e-06
C0K280,四湖,2023-07-21,23.630414,120.227125,0.19594847
C1F9B1,桐林,2023-07-21,24.066172,120.735194,0.42937076
C0K390,土庫,2023-07-21,23.679029,120.395574,0.29697147
C1I450,望鄉山,2023-07-21,23.594153,120.944286,4.429118e-09
C0E910,海埔,2023-07-21,24.648767,120.772435,0.67249656
B2E890,畜試北區分所,2023-07-21,24.527806,120.770972,0.07293671
C0R750,四林格山,2023-07-21,22.076989,120.802439,0.9194634
C0F0C0,中坑,2023-07-21,24.248517,120.903319,3.623057e-07
C1I121,大鞍,2023-07-21,23.678381,120.760017,2.17887e-08
72U480,花改蘭陽分場,2023-07-21,24.686306,121.716583,0.59207296
C0A770,科教館,2023-07-21,25.096356,121.516507,0.24160892
C0AJ60,六塊厝,2023-07-21,25.24,121.4481,0.4513062
C0R620,墾雷,2023-07-21,21.900836,120.855269,0.8871733
467420,永康,2023-07-21,23.038386,120.2367,0.23081078
467300,東吉島,2023-07-21,23.25695,119.667467,1.42027775e-05
C0I410,名間,2023-07-21,23.837053,120.701447,0.22828498
A2C560,農工中心,2023-07-21,24.985917,121.239833,0.6271182
C0V740,旗山,2023-07-21,22.888614,120.483597,0.1677716
C0Z061,玉里,2023-07-21,23.3215,121.339656,0.92553943
C0S840,南田,2023-07-21,22.279725,120.889208,0.43556422
C1I470,杉林溪,2023-07-21,23.639517,120.786444,1.1776271e-08
C1X040,東原,2023-07-21,23.291597,120.463822,0.01238322
C0R660,枋寮,2023-07-21,22.367722,120.590647,0.22310053
C1R120,上德文,2023-07-21,22.763272,120.704442,0.23696522
C0K450,大埤,2023-07-21,23.646074,120.431537,0.15633358
C0UA00,土場,2023-07-21,24.576533,121.495333,0.9959772
467080,宜蘭,2023-07-21,24.763975,121.756528,0.9385708
C0N030,四草,2023-07-21,23.0235,120.1116,0.05223062
C0V650,彌陀,2023-07-21,22.783806,120.246361,0.046691127
C0D660,新竹市東區,2023-07-21,24.798681,120.986942,0.86812276
82S580,茶改東部分場,2023-07-21,22.907694,121.130139,0.0040898877
C0C710,大溪永福,2023-07-21,24.892936,121.324975,0.19132546
C0FA20,溫寮,2023-07-21,24.372177,120.583125,0.0018587144
C0V640,湖內,2023-07-21,22.887139,120.2445,0.03460798
C0R910,下寮,2023-07-21,22.3929,120.5548,0.22310053
C0Z020,明里,2023-07-21,23.208717,121.262342,0.98094577
C0M770,嘉義梅山,2023-07-21,23.585398,120.555587,0.15757808
G2F820,農業試驗所,2023-07-21,24.031261,120.688133,0.34555095
C0C660,楊梅,2023-07-21,24.912375,121.143047,0.7493056
C1E511,新開,2023-07-21,24.347703,120.827019,0.71682763
G2F820,農試所(霧峰),2023-07-21,24.031261,120.688133,0.34555095
C1I070,和社,2023-07-21,23.591131,120.888861,0.85275877
C2F000,大肚,2023-07-21,24.15295,120.572117,0.014885771
C1S850,豐南,2023-07-21,23.122139,121.262389,0.9990121
C2A920,富貴角,2023-07-21,25.263783,121.565258,0.8066457
CAH030,茶改場竹圍站,2023-07-21,23.860083,120.637528,0.8660956
C0T960,光復,2023-07-21,23.660694,121.424964,0.5342979
C0F9M0,豐原,2023-07-21,24.254322,120.720692,0.14325076
C0R720,旭海,2023-07-21,22.205403,120.887614,0.25269228
C0V710,苓雅,2023-07-21,22.622742,120.330669,0.13982692
C0C740,觀音工業區,2023-07-21,25.064764,121.114856,0.19497533
CAC040,拉拉山,2023-07-21,24.699317,121.427133,3.331143e-08
C0V790,萬山,2023-07-21,22.905944,120.688056,0.6583117
U2HA30,臺大和社,2023-07-21,23.590856,120.888864,0.85275877
C0AJ90,澳底,2023-07-21,25.0552,121.9253,0.99549186
C0Z100,東華,2023-07-21,23.89525,121.549833,0.88615793
C0G970,三豐,2023-07-21,23.882,120.2895,0.00029596503
V2K610,大庄合作社,2023-07-21,23.8068,120.367939,0.3799993
C0V900,汕尾,2023-07-21,22.4782,120.4151,0.60476655
C1R630,龍泉,2023-07-21,22.66701,120.59091,0.06313517
C1AC50,關渡,2023-07-21,25.133486,121.469331,0.82265735
C0F9I0,神岡,2023-07-21,24.272481,120.658314,0.31050107
C0K460,斗南,2023-07-21,23.678734,120.478359,0.1572054
467410,臺南,2023-07-21,22.993239,120.204772,0.04208524
C2O810,曾文,2023-07-21,23.219681,120.497328,0.00417832
467280,後龍,2023-07-21,24.648563,120.831834,0.72312886
C1F9J1,清水林,2023-07-21,24.071242,120.820419,5.3290063e-05
C2A650,火燒寮,2023-07-21,25.002719,121.742892,0.9998047
466930,竹子湖,2023-07-21,25.162078,121.544547,0.99917084
C1I220,樟湖,2023-07-21,23.905333,120.846983,1.5174221e-08
C0I390,仁愛,2023-07-21,24.022122,121.132206,2.7980073e-08
C0Z300,東里,2023-07-21,23.26853,121.30547,0.965652
C0V310,美濃,2023-07-21,22.898742,120.519153,0.16439542
C1V590,新發,2023-07-21,23.057019,120.646064,0.05647623
C0K510,水林,2023-07-21,23.572924,120.24597,0.19109952
72S590,東改賓朗果園,2023-07-21,22.813889,121.071278,0.0073262323
82A750,茶改北部分場,2023-07-21,24.955778,121.631222,0.99989736
C1A750,石碇服務區,2023-07-21,25.00872,121.646242,0.4831534
C0X300,鹿寮,2023-07-21,23.386047,120.477331,0.05752433
G2AI50,關渡,2023-07-21,25.11575,121.492,0.120750576
C0K590,雲林東勢,2023-07-21,23.674192,120.255721,0.2649768
C0A570,桶後,2023-07-21,24.848222,121.597992,0.9978495
C1S800,華源,2023-07-21,22.657883,121.02325,0.07551221
C0G720,溪州,2023-07-21,23.851589,120.499093,0.3672135
C1V160,達卡努瓦,2023-07-21,23.279811,120.705319,4.163453e-07
C2M410,馬頭山,2023-07-21,23.324361,120.582017,0.004237298
C0V850,蚵仔寮,2023-07-21,22.7256,120.2527,0.17256406
C0S740,池上,2023-07-21,23.119628,121.209469,0.97415006
C1V390,尖山,2023-07-21,22.813153,120.367789,0.34622696
C0AH70,松山,2023-07-21,25.04871,121.55042,0.24488477
C0N010,鯤鯓國小,2023-07-21,23.1879,120.0889,0.031712096
C0R550,新埤,2023-07-21,22.467947,120.582894,0.6228184
C0SA60,知本（水試所）,2023-07-21,22.702394,121.082761,0.14528958
C0T9I0,豐濱,2023-07-21,23.583897,121.514806,0.41164777
C0UB00,淡江大學蘭陽校園,2023-07-21,24.823239,121.730383,0.99869275
C0T9N0,富里,2023-07-21,23.171639,121.249378,0.98663425
U2HA50,臺大竹山,2023-07-21,23.756972,120.681556,0.13237104
C0V840,鳳鼻頭,2023-07-21,22.5083,120.3591,0.124979265
C0X140,西港,2023-07-21,23.125608,120.203108,0.27815557
72D080,桃改五峰分場,2023-07-21,24.612194,121.157167,0.00027678732
C0V530,阿蓮,2023-07-21,22.883208,120.327508,0.13010108
C1O880,關山,2023-07-21,23.173397,120.594092,0.05604352
C0E791,卓蘭,2023-07-21,24.3126,120.8244,0.098422706
C1I030,武界,2023-07-21,23.913225,121.052483,4.479355e-07
C0R520,崁頂,2023-07-21,22.514781,120.506914,0.27719826
C0R341,牡丹,2023-07-21,22.130036,120.792639,0.56702477
C0R930,萬丹,2023-07-21,22.5885,120.4851,0.13010316
C0S760,紅石,2023-07-21,23.069131,121.126219,2.9755205e-09
C1M610,石磐龍,2023-07-21,23.496606,120.663506,3.6696224e-07
C0UA10,鴛鴦湖,2023-07-21,24.590269,121.412228,1.4546192e-08
V2C260,八德蔬果,2023-07-21,24.978508,121.281819,0.48996088
C0R800,丹路,2023-07-21,22.204481,120.750989,0.17511414
C0G920,永靖,2023-07-21,23.924703,120.547533,0.32587385
C1A630,下盆,2023-07-21,24.771003,121.538622,0.973977
B2N890,畜產試驗所,2023-07-21,23.058972,120.336406,0.3996264
C0UA30,白嶺,2023-07-21,24.527819,121.519031,8.730396e-08
C1V580,溪南(特生中心),2023-07-21,23.084972,120.788475,6.041843e-09
C1T970,大農,2023-07-21,23.615233,121.413331,0.50832474
E2S960,林試太麻里2,2023-07-21,22.598014,120.989761,0.034046073
C0R650,竹田,2023-07-21,22.58486,120.54344,0.14951551
C1H900,清流,2023-07-21,24.080775,120.962997,3.5610714e-07
C1C510,水尾,2023-07-21,24.940081,121.087161,0.439227
C0F9X0,大雅(中科園區),2023-07-21,24.21528,120.62445,0.28794703
C0O970,虎頭埤,2023-07-21,23.021375,120.347878,0.3092077
C0C730,中大臨海站,2023-07-21,24.966126,121.008581,0.68735075
C0X250,新營,2023-07-21,23.310689,120.316681,0.12190873
C0V700,三民,2023-07-21,22.645017,120.311233,0.013835839
C0U870,大礁溪,2023-07-21,24.791042,121.675047,0.98558587
C0E870,高鐵苗栗,2023-07-21,24.60725,120.826094,0.705611
A2K570,古坑花卉中心,2023-07-21,23.63353,120.55239,0.07295469
C0M860,新美,2023-07-21,23.338017,120.683169,0.1176984
C1E701,八卦,2023-07-21,24.491756,120.927619,0.10811213
C0I420,國姓,2023-07-21,24.037803,120.855072,0.0389699
C0S960,香蘭,2023-07-21,22.587569,120.993375,0.034046073
C0R260,春日,2023-07-21,22.370361,120.628306,0.2107871
72G600,臺中農改場,2023-07-21,24.003028,120.534389,0.20782414
C0Z210,瑞穗,2023-07-21,23.5239,121.39021,0.8137942
C0M820,達邦,2023-07-21,23.453994,120.749517,8.750718e-06
C0V860,南寮,2023-07-21,22.7616,120.2339,0.17252138
C0G740,大城,2023-07-21,23.852487,120.320935,0.00027036777
C0R920,塭仔,2023-07-21,22.4169,120.5197,0.2256466
C0R470,高樹,2023-07-21,22.826389,120.600806,0.097815745
C0R680,佳樂水,2023-07-21,21.993578,120.861633,0.13153365
C1O870,大棟山,2023-07-21,23.31157,120.52226,1.5375099e-08
C0D360,梅花,2023-07-21,24.678347,121.208558,0.8272033
C0Z190,富世,2023-07-21,24.14743,121.6297,0.11617805
C0AI10,屈尺,2023-07-21,24.92184,121.54475,0.22076072
B2U990,畜試東區分所,2023-07-21,24.669039,121.832561,0.24131167
C0R240,來義,2023-07-21,22.527306,120.625111,0.2914559
C1R610,西大武山,2023-07-21,22.617719,120.7322,4.159226e-08
C0G900,線西,2023-07-21,24.143358,120.443536,0.007169747
C0M700,竹崎,2023-07-21,23.526178,120.555508,0.2649832
C2E880,三義,2023-07-21,24.405478,120.749819,0.9027161
C0C720,竹圍,2023-07-21,25.112692,121.239824,0.120750576
C0F9P0,清水,2023-07-21,24.312297,120.562242,0.014980843
C0Z150,吉安光華,2023-07-21,23.930925,121.595153,0.61493564
C1D640,外坪(五指山),2023-07-21,24.644447,121.090961,0.52797407
C0F9O0,潭子,2023-07-21,24.213106,120.703933,0.014495451
72T250,花蓮農改場,2023-07-21,23.975222,121.563889,0.60624385
C0E780,銅鑼,2023-07-21,24.489681,120.790853,0.063266456
C1T950,太安,2023-07-21,23.666719,121.370128,1.4489422e-06
C0E830,苑裡,2023-07-21,24.439714,120.653053,0.0029601846
467270,田中,2023-07-21,23.873803,120.581286,0.32000592
C0SA10,檳榔四格山,2023-07-21,22.810031,121.109308,0.05601123
C1T830,布洛灣,2023-07-21,24.17184,121.57127,0.99937487
C0F970,大坑,2023-07-21,24.173142,120.722289,0.20157574
C1U920,思源,2023-07-21,24.393125,121.347214,2.0672957e-09
C0A931,三和,2023-07-21,25.233153,121.595236,0.9807869
C0I010,廬山,2023-07-21,24.033311,121.181808,3.4352314e-09
C0R860,鼻頭,2023-07-21,22.1043,120.8979,0.18233627
C0UB20,壯圍,2023-07-21,24.7359,121.8163,0.48568302
C0R790,九棚,2023-07-21,22.14195,120.889281,0.4053163
C0W110,東莒,2023-07-21,25.9652,119.98069,0.15317082
C1U930,粉鳥林,2023-07-21,24.497088,121.842479,0.99571747
C1I211,蘆竹湳,2023-07-21,23.934019,120.811994,0.9947316
C0S830,長濱,2023-07-21,23.286817,121.411975,0.9824373
C1F9F1,伯公龍,2023-07-21,24.272392,120.849047,0.0787107
C0E810,西湖,2023-07-21,24.562947,120.7485,0.000435853
C1I440,新高口,2023-07-21,23.478744,120.878939,4.488735e-09
C0O840,王爺宮,2023-07-21,23.222064,120.40085,0.058553547
C0T9G0,鳳林山,2023-07-21,23.735269,121.420131,0.996358
C0X080,佳里,2023-07-21,23.173039,120.145086,0.031712096
C0Z310,清水斷崖,2023-07-21,24.218294,121.689142,0.6281909
C0M680,太保,2023-07-21,23.455062,120.331455,0.14670908
C1S820,金峰,2023-07-21,22.590969,120.933236,0.026355103
C0AD10,八里,2023-07-21,25.150211,121.403947,0.12125175
C2K240,草嶺,2023-07-21,23.59555,120.693461,5.285899e-07
C1SA70,都蘭,2023-07-21,22.87794,121.226881,0.006057092
C0K440,二崙,2023-07-21,23.772797,120.408944,0.4484481
C1A760,坪林交控,2023-07-21,24.94284,121.713442,0.99982285
C0F9N0,大里,2023-07-21,24.092464,120.701378,0.4447336
C0SA90,達仁林場,2023-07-21,22.264347,120.823972,0.5714376
C1R290,石門山,2023-07-21,22.112611,120.756597,0.78010064
42HA10,萬大發電廠,2023-07-21,23.978875,121.139639,9.489304e-09
C0R890,山海,2023-07-21,21.9878,120.7091,0.26108906
C0T9A0,月眉山,2023-07-21,23.809928,121.539828,0.9982195
C0AC70,信義,2023-07-21,25.037822,121.564597,0.24488477
C0K560,棋山,2023-07-21,23.68645,120.603417,0.07194363
C1Z240,中平林道,2023-07-21,23.42115,121.26763,1.2887015e-08
U2H480,溪頭,2023-07-21,23.670306,120.798194,6.13976e-07
C0M880,好美里,2023-07-21,23.3364,120.138,0.051319946
C0T9E0,大坑,2023-07-21,23.880628,121.581981,0.99912983
C0K530,臺西,2023-07-21,23.701547,120.197559,0.11829017
C1E900,國一N128K,2023-07-21,24.560997,120.844186,0.19306214
C0AJ50,水湳洞,2023-07-21,25.123695,121.862238,0.28440934
C0AI20,白沙灣,2023-07-21,25.283128,121.519058,0.4729973
C0A860,大坪,2023-07-21,25.165914,121.632969,0.9839929
C1U850,觀音海岸,2023-07-21,24.38319,121.77856,0.41013092
C0U950,鶯子嶺,2023-07-21,24.89754,121.79244,0.93100566
C0O900,善化,2023-07-21,23.112883,120.297219,0.3270812
C0K550,蔦松,2023-07-21,23.514319,120.229736,0.18007961
E2P980,林試六龜中心,2023-07-21,22.991703,120.645722,0.49575976
C0E590,通霄,2023-07-21,24.471892,120.704622,3.081392e-05
C1I310,西巒,2023-07-21,23.754486,120.883956,0.00022779645
C0A550,泰平,2023-07-21,24.971197,121.823711,0.99987495
C0I360,水里,2023-07-21,23.812553,120.849792,0.104310185
C0R830,高士,2023-07-21,22.121825,120.836781,0.8622849
C1I101,溪頭,2023-07-21,23.661789,120.807647,5.605426e-09
C0AJ20,野柳,2023-07-21,25.20703,121.690021,0.3347501
C0B060,暖暖,2023-07-21,25.0957,121.7403,0.2923611
C1H920,長豐,2023-07-21,24.102039,120.879897,0.0013322567
C0V360,內門,2023-07-21,22.975481,120.466769,0.07983176
C0R850,林邊,2023-07-21,22.4634,120.5339,0.6095348
C0E930,龍鳳,2023-07-21,24.700034,120.859125,0.8006198
C0U910,冬山,2023-07-21,24.63373,121.7937,0.24131162
C1E721,泰安,2023-07-21,24.489017,120.968036,9.2188664e-08
82H320,茶改中部分場,2023-07-21,23.875611,120.913583,0.00014307395
C0M750,布袋,2023-07-21,23.380878,120.167789,0.14315303
C1S860,利嘉,2023-07-21,22.809417,121.050528,0.037957206
72C440,桃園農改,2023-07-21,24.950944,121.030583,0.40596437
E2S980,林試太麻里1,2023-07-21,22.598922,120.980044,0.031329587
C0X170,關廟,2023-07-21,22.963017,120.327797,0.29042903
C0V720,林園,2023-07-21,22.507747,120.394511,0.1283279
C1I510,線浸林道,2023-07-21,23.761508,120.832956,2.1776735e-08
C0D690,外湖,2023-07-21,24.917735,120.968711,0.3885462
C0C750,新興坑尾,2023-07-21,25.0061,121.0971,0.79095066
B2Q810,畜試南區分所,2023-07-21,21.945583,120.802167,0.13105454
C0S790,金崙,2023-07-21,22.538122,120.966875,0.31752574
C0AH90,福山植物園,2023-07-21,24.760717,121.58135,0.84456915
C0I540,奇萊稜線,2023-07-21,24.109231,121.326456,1.1289005e-08
C0M850,表湖,2023-07-21,23.24186,120.64166,0.28996697
C0S770,大溪山,2023-07-21,22.478475,120.943325,0.62779325
C0AG80,中和,2023-07-21,24.991622,121.491792,0.6529765
C0T790,大禹嶺,2023-07-21,24.186117,121.316086,4.2465107e-09
C0T9B0,水源,2023-07-21,23.991861,121.537169,0.38499838
C0R840,牡丹池山,2023-07-21,22.168389,120.841225,0.7154206
C1I131,桶頭,2023-07-21,23.641944,120.654117,0.09137059
CAL110,布袋國中,2023-07-21,23.35893,120.18026,0.14315301
467571,新竹,2023-07-21,24.827853,121.014219,0.8285229
C0Z290,赤柯山,2023-07-21,23.36893,121.38293,0.007232473
C0X280,將軍,2023-07-21,23.214999,120.13577,0.01680553
C0S690,太麻里,2023-07-21,22.60902,120.98533,0.07495574
C0U880,北關,2023-07-21,24.9072,121.8734,0.9998
C1H860,瑞岩,2023-07-21,24.123772,121.18345,2.7060816e-09
C0G810,埔心,2023-07-21,23.947633,120.525456,0.32531136
C0U970,大福,2023-07-21,24.80064,121.81389,0.9305619
C1E670,南礦,2023-07-21,24.538278,121.002836,6.673709e-07
C0M520,東後寮,2023-07-21,23.369908,120.248065,0.14895232
C1E461,松安,2023-07-21,24.397972,120.986022,4.697996e-08
72G600,臺中農改,2023-07-21,24.003028,120.534389,0.20782416
C2N160,西拉雅風管處,2023-07-21,23.189481,120.335297,0.3333206
C0A640,石碇,2023-07-21,24.993969,121.662917,0.5593274
E2S960,林試太麻里2,2023-07-21,22.598,120.99775,0.036415957
C0F9Y0,桃山,2023-07-21,24.432739,121.303808,6.3572094e-09
C1I020,萬大,2023-07-21,23.979817,121.132261,2.4976295e-08
C0U940,羅東,2023-07-21,24.68184,121.74934,0.5601639
C0M650,朴子,2023-07-21,23.43463,120.23902,0.32354304
C1I500,大尖山,2023-07-21,23.858572,120.994889,3.956281e-09
C0G820,田尾,2023-07-21,23.901669,120.509389,0.3257412
E2K600,四湖植物園,2023-07-21,23.676986,120.163433,0.19618274
C0S730,綠島,2023-07-21,22.6672,121.47533,0.010689617
12Q970,東港工作站,2023-07-21,22.479997,120.466058,0.60476655
C0E430,南庄,2023-07-21,24.601775,121.000214,0.3264075
C1TA00,太魯閣,2023-07-21,24.15773,121.6236,0.048145395
466920,臺北,2023-07-21,25.037658,121.514853,0.24488477
C0R600,舊泰武,2023-07-21,22.588194,120.664944,0.11406776
C1I260,北坑,2023-07-21,23.9246,121.006903,0.9796094
466910,鞍部,2023-07-21,25.182586,121.529731,0.99967784
C1I230,九份二山,2023-07-21,23.961944,120.845,5.5268392e-05
C2A660,瑞芳,2023-07-21,25.113169,121.801147,0.40372452
C0R270,琉球嶼,2023-07-21,22.332244,120.362236,0.036595743
C1T990,高寮,2023-07-21,23.394239,121.356808,0.5337057
C0G620,芬園,2023-07-21,24.015678,120.6213,0.42968112
C1Z140,荖溪,2023-07-21,23.890575,121.45964,6.0706494e-05
C1I201,中心崙,2023-07-21,23.728722,120.712097,0.10249732
C1I400,凌霄,2023-07-21,24.018778,121.004456,4.571291e-09
C1M640,十字,2023-07-21,23.492153,120.753683,2.1591653e-08
G2P820,農試鳳山分所,2023-07-21,22.646611,120.356083,0.011403944
C0Z270,蕃薯寮,2023-07-21,23.73835,121.540108,0.9974976
C0F9Q0,外埔,2023-07-21,24.347817,120.705686,0.16836557
C0K580,高鐵雲林,2023-07-21,23.737456,120.417944,0.4030015
C2I090,鳳凰,2023-07-21,23.728081,120.787347,0.045506943
C0U990,員山,2023-07-21,24.74435,121.72247,0.52013737
C0V770,大社,2023-07-21,22.730306,120.346639,0.18566939
C0X120,麻豆,2023-07-21,23.183289,120.248611,0.26877353
C0C670,龍潭,2023-07-21,24.870056,121.221389,0.3792902
C0D680,香山濕地,2023-07-21,24.783581,120.914988,0.7593346
C0S980,勝林山,2023-07-21,22.430439,120.8938,0.5658425
C0V730,大寮,2023-07-21,22.605614,120.395717,0.14358434
C0R570,麟洛,2023-07-21,22.65078,120.52719,0.11252253
CAG100,王功漁港,2023-07-21,23.96824,120.32586,9.704339e-05
C0X290,北門,2023-07-21,23.267772,120.125481,0.016747922
C2F930,大甲,2023-07-21,24.347667,120.640403,0.0004282603
C0D650,湖口,2023-07-21,24.904794,121.043628,0.44404793
C0E420,竹南,2023-07-21,24.708978,120.888897,0.8406295
C0U780,五結,2023-07-21,24.68637,121.79794,0.48591897
C1I250,鯉潭,2023-07-21,23.961922,120.991131,0.0066592754
C0R130,阿禮,2023-07-21,22.742908,120.743678,0.0002801111
C0X100,臺南市北區,2023-07-21,23.010394,120.194228,0.047956996
C0S920,金峰嘉蘭,2023-07-21,22.594789,120.960825,0.03273824
C0V490,新興,2023-07-21,22.627422,120.298803,0.13982692
C0F9K0,大安,2023-07-21,24.345061,120.588025,0.0013823307
72N100,臺南農改,2023-07-21,23.0605,120.342194,0.3996264
467290,古坑,2023-07-21,23.633639,120.551889,0.07295469
C0V440,鳳山,2023-07-21,22.646653,120.356122,0.011403944
C1T940,大觀,2023-07-21,23.714206,121.373133,0.99879026
72T250,花蓮農改,2023-07-21,23.975222,121.563889,0.60624385
C0E740,造橋,2023-07-21,24.637056,120.864778,0.7050371
C0R100,尾寮山,2023-07-21,22.833111,120.683889,0.07394215
A2K630,臺大雲林校區,2023-07-21,23.730628,120.423903,0.4030015
C0D580,寶山,2023-07-21,24.735006,121.025192,0.19337006
E2P990,林試扇平站,2023-07-21,22.9677,120.6857,0.9128175
C0AI30,三重,2023-07-21,25.057328,121.500629,0.24160892
C0AH00,汐止,2023-07-21,25.066881,121.658778,0.24488482
C1Z040,立山,2023-07-21,23.443356,121.327375,0.9983753
C0R740,獅子,2023-07-21,22.201569,120.70525,0.14696947
C0W130,花嶼,2023-07-21,23.40007,119.32276,4.7476115e-05
C0A950,鼻頭角,2023-07-21,25.129036,121.923372,0.999873
C0K470,林內,2023-07-21,23.748675,120.609642,0.117921725
82C160,茶改場,2023-07-21,24.908472,121.185333,0.8579412
C0Z320,清水林道,2023-07-21,23.27125,121.188272,0.9994434
C0R760,南仁湖,2023-07-21,22.084681,120.863353,0.7800009
C0M670,大林,2023-07-21,23.600616,120.45841,0.14676522
C0M800,茶山,2023-07-21,23.299075,120.664767,0.664678
C0A9C0,天母,2023-07-21,25.117494,121.537169,0.48330462
72K220,南改斗南分場,2023-07-21,23.634556,120.477333,0.1573698
72AI40,桃改樹林分場,2023-07-21,24.944503,121.386972,0.24155536
C0S910,蘭嶼燈塔,2023-07-21,22.081197,121.503117,0.08923625
C0B050,八斗子,2023-07-21,25.144754,121.79167,0.2682854
C0U900,內城,2023-07-21,24.71813,121.68766,0.65707135
C0X320,柳營,2023-07-21,23.253328,120.375253,0.07826548
C0M790,新港,2023-07-21,23.553269,120.345728,0.28036472
C0F9T0,西屯,2023-07-21,24.179494,120.641275,0.1377558
C0SA30,都歷,2023-07-21,23.020333,121.323642,0.9913815
C0C620,蘆竹,2023-07-21,25.084275,121.265767,0.5280188
C0R730,大坪頂,2023-07-21,22.024633,120.69355,0.19755436
C0AJ40,石門,2023-07-21,25.273672,121.601198,0.7100453
C0E750,苗栗,2023-07-21,24.564569,120.824575,0.19222698
C0T870,鯉魚潭,2023-07-21,23.935639,121.508944,0.95804644
C1V170,排雲,2023-07-21,23.463619,120.954147,1.847653e-08
C2H950,中寮,2023-07-21,23.884447,120.766406,0.2548395
C0R350,貓鼻頭,2023-07-21,21.921774,120.7358,0.916492
C0V660,岡山,2023-07-21,22.797078,120.294958,0.046691127
C1H941,雙冬,2023-07-21,23.967378,120.802189,0.9432353
C0AJ70,田寮,2023-07-21,25.2698,121.4886,0.46154943
C0AI00,五股,2023-07-21,25.07445,121.42728,0.59444404
C0Z280,德武,2023-07-21,23.47426,121.41071,0.88551754
C0R700,枋山,2023-07-21,22.246844,120.661086,0.99085855
C0C460,復興,2023-07-21,24.820208,121.352281,0.47460213
E2H360,蓮華池,2023-07-21,23.918333,120.885278,0.04556232
C0M640,中埔,2023-07-21,23.42538,120.5229,0.12102528
C0W140,金沙,2023-07-21,24.488292,118.408778,0.00011248288
C2A540,四堵,2023-07-21,24.8926,121.745736,0.99953914
C0ACA0,新莊,2023-07-21,25.051478,121.446756,0.26219434
C0R220,潮州,2023-07-21,22.534361,120.54,0.27650094
U2HA40,臺大內茅埔,2023-07-21,23.689722,120.851117,0.80112344
467490,臺中,2023-07-21,24.145736,120.684075,0.18408455
C0U960,翠峰湖,2023-07-21,24.510856,121.608044,1.7602362e-09
E2HA20,林試畢祿溪站,2023-07-21,24.226944,121.308522,3.204493e-09
C0V890,前鎮,2023-07-21,22.5718,120.3117,0.13565487
467620,蘭嶼,2023-07-21,22.036969,121.558339,0.1464435
C1F941,雪嶺,2023-07-21,24.280586,121.026642,4.2699506e-09
C0AC80,文山,2023-07-21,25.00235,121.575728,0.6177051
C0F9R0,龍井,2023-07-21,24.184536,120.528972,0.012224854
C0M760,民雄,2023-07-21,23.551754,120.428457,0.14543736
C0UA40,西德山,2023-07-21,24.560647,121.752608,1.8687267e-08
C1T920,中興,2023-07-21,23.769503,121.498653,0.9395857
C0D550,雪霸,2023-07-21,24.526972,121.11605,1.0963384e-08
C2F860,梨山,2023-07-21,24.247522,121.243669,3.1155007e-09
C0R320,車城,2023-07-21,22.0744,120.716247,0.11581386
C1S870,南美山,2023-07-21,23.15025,121.382333,0.9858058
C0B020,基隆嶼,2023-07-21,25.19141,121.78391,0.8405312
C1U501,牛鬥,2023-07-21,24.637836,121.573656,0.9706923
C0M730,嘉義市東區,2023-07-21,23.457673,120.460531,0.096306674
C0S700,知本,2023-07-21,22.684866,121.005642,0.0032386098
C1N001,沙崙,2023-07-21,22.935472,120.309406,0.2715313
C0V760,橋頭,2023-07-21,22.757806,120.30575,0.18145272
C0G960,福寶,2023-07-21,24.0443,120.3814,0.039361913
C0X210,白河,2023-07-21,23.347466,120.414427,0.05896949
C0S810,東河,2023-07-21,22.972672,121.303986,0.5574386
C0R670,楓港,2023-07-21,22.190131,120.692156,0.15186983
C0FA50,霧峰,2023-07-21,24.0419,120.6995,0.3653671
C0UB10,蘇澳,2023-07-21,24.5969,121.8571,0.98409104
C0G950,防潮門,2023-07-21,24.1835,120.4871,0.01235043
C0M740,六腳,2023-07-21,23.492871,120.290625,0.35352844
C1R250,力里,2023-07-21,22.428117,120.629228,0.15662009
C0K330,虎尾,2023-07-21,23.719183,120.442036,0.41846967
C2FA00,烏石坑,2023-07-21,24.273503,120.947617,6.825564e-06
C0V620,永安,2023-07-21,22.82315,120.236856,0.046691127
C1I330,楓樹林,2023-07-21,23.986803,121.076117,1.0171861e-08
C0W200,湖西,2023-07-21,23.596314,119.67275,3.976027e-06
72Q010,高雄農改場,2023-07-21,22.709333,120.525889,0.05020471
C0SA40,瑞和,2023-07-21,22.974361,121.156697,0.9828394
C0C680,龜山,2023-07-21,25.02846,121.38656,0.72245777
C2V260,月眉,2023-07-21,22.971003,120.539853,0.20030978
C0V450,鳳森,2023-07-21,22.545064,120.392592,0.15410282
C0U720,南山,2023-07-21,24.43742,121.38167,4.1006893e-05
A2N290,臺南蘭花園區,2023-07-21,23.340258,120.379661,0.1949465
C0R560,新園,2023-07-21,22.5434,120.461558,0.1283279
C0U890,三星,2023-07-21,24.66812,121.65302,0.90521985
C1V300,御油山,2023-07-21,23.001983,120.715364,8.651422e-09
C0U600,礁溪,2023-07-21,24.817539,121.765608,0.99863297
C1T980,龍澗,2023-07-21,24.023289,121.411328,3.789596e-09
C0D670,海天一線,2023-07-21,24.831986,120.914438,4.9354453e-06
C0SA00,歷坵,2023-07-21,22.520969,120.89185,0.43054408
C0M710,東石,2023-07-21,23.458927,120.15385,0.18500596
C0M780,鹿草,2023-07-21,23.41134,120.30835,0.3436984
C0U520,雙連埤,2023-07-21,24.753033,121.641303,0.9853916
C0B010,七堵,2023-07-21,25.094819,121.71713,0.26270306
C0R480,長治,2023-07-21,22.693128,120.542622,0.31323647
C1V830,國三S383K,2023-07-21,22.781967,120.426475,0.4265333
12Q980,恆春工作站,2023-07-21,22.079678,120.714425,0.11584122
C1O940,東山服務區,2023-07-21,23.286016,120.398472,0.066503905
C1U840,東澳嶺,2023-07-21,24.5378,121.8485,0.8106699
C1D630,飛鳳山,2023-07-21,24.766464,121.119178,0.9498255
C0S940,石寧山,2023-07-21,23.223772,121.406639,0.9435187
C0K410,北港,2023-07-21,23.573957,120.292802,0.19658157
C2M620,瑞里,2023-07-21,23.545133,120.675197,5.1457146e-08
C2O950,安南,2023-07-21,23.076694,120.144861,0.008486516
C0F0E0,南湖圈谷,2023-07-21,24.363714,121.444667,9.125826e-09
467610,成功,2023-07-21,23.097486,121.373428,0.4756889
C0G890,伸港,2023-07-21,24.148933,120.484403,0.0072150463
C2E540,龍溪,2023-07-21,24.606489,120.783933,0.69005376
C1V200,梅山,2023-07-21,23.268447,120.823556,0.002630862
C0T9H0,加路蘭山,2023-07-21,23.682947,121.5274,0.9981295
C2O930,玉井,2023-07-21,23.126042,120.46055,0.19759789
C1F911,新伯公,2023-07-21,24.221361,120.841069,0.0008045818
C0R490,九如,2023-07-21,22.7405,120.490503,0.051665172
C0X200,左鎮,2023-07-21,23.056758,120.408522,0.29190883
C1F891,稍來,2023-07-21,24.265689,121.001142,4.856369e-09
72N240,七股研究中心,2023-07-21,23.081672,120.062894,0.009202697
C0C700,中壢,2023-07-21,24.977661,121.256375,0.52847904
C0M690,水上,2023-07-21,23.419734,120.388909,0.14852354
C0V690,鼓山,2023-07-21,22.623325,120.275575,0.13982692
C0O860,大內,2023-07-21,23.11885,120.36083,0.36560124
C0Z200,萬榮,2023-07-21,23.709219,121.420106,0.6909452
C0T9D0,和中,2023-07-21,24.26676,121.74103,0.9374121
C1O921,楠西,2023-07-21,23.183511,120.484083,0.012702852
C0AJ30,淡水觀海,2023-07-21,25.184591,121.408616,0.84006435
C0V810,左營,2023-07-21,22.67491,120.28491,0.013835839
C0UA70,桃源谷,2023-07-21,24.962606,121.888875,0.9996453
C0X130,官田,2023-07-21,23.193217,120.315422,0.31924453
C1H000,翠峰,2023-07-21,24.109397,121.205211,8.275518e-09
C0UA90,石城,2023-07-21,24.980444,121.951214,0.9998799
C1E681,南勢山,2023-07-21,24.421669,120.923831,0.00014586312
C0A9F0,內湖,2023-07-21,25.079422,121.57545,0.24488477
C0K291,宜梧,2023-07-21,23.536281,120.169329,0.18007961
C1K540,口湖,2023-07-21,23.585344,120.180517,0.2840519
C0R780,滿州,2023-07-21,22.024403,120.839892,0.15064503
C0V870,文安,2023-07-21,22.8025,120.2164,0.046343453
C0U650,玉蘭,2023-07-21,24.675286,121.587061,0.91162014
C0R640,東港,2023-07-21,22.46247,120.44074,0.60476655
K2E360,苗栗農改,2023-07-21,24.495722,120.829111,0.07686305
C0AJ80,板橋,2023-07-21,25.0107,121.4489,0.66106457
C0S660,下馬,2023-07-21,23.150427,121.070312,0.037453007
C1H9B1,阿眉,2023-07-21,24.1263,120.994672,2.6941849e-09
C0UA20,多加屯,2023-07-21,24.368614,121.373189,3.0344853e-09
C0E730,頭份,2023-07-21,24.688247,120.912206,0.8307254
72V140,高改旗南分場,2023-07-21,22.857861,120.516667,0.16439542
C0K480,莿桐,2023-07-21,23.761192,120.502372,0.28291214
C0U980,坪林石牌,2023-07-21,24.86478,121.77396,0.99205375
C0T900,西林,2023-07-21,23.8119,121.441458,0.99514514
C1I150,青雲,2023-07-21,23.793361,120.949378,0.97372675
467350,澎湖,2023-07-21,23.565503,119.563094,1.3361412e-05
C0G800,埔鹽,2023-07-21,24.000394,120.431683,0.019021489
C0H960,草屯,2023-07-21,23.973672,120.68085,0.41526058
C1V780,多納林道,2023-07-21,22.888028,120.737917,0.020157432
C0E920,通霄漁港,2023-07-21,24.498589,120.673876,3.7722002e-05
C0Z330,安通山,2023-07-21,23.290728,121.348528,0.9463148
C0AH10,永和,2023-07-21,25.01125,121.508111,0.66106457
C2G640,鹿港,2023-07-21,24.0753,120.430481,0.039361913
C1E890,國三N149K,2023-07-21,24.463414,120.680019,0.0014847345
C1R110,口社,2023-07-21,22.770111,120.645222,0.08766424
C1M870,國三N285K,2023-07-21,23.550319,120.505833,0.14560018
467050,新屋,2023-07-21,25.006744,121.047486,0.7146542
C1E480,鳳美,2023-07-21,24.554803,121.034747,0.9696658
C0M530,奮起湖,2023-07-21,23.493903,120.699253,2.173387e-08
C0C590,觀音,2023-07-21,25.027072,121.153317,0.14371122
C0T9M0,靜浦,2023-07-21,23.455167,121.495028,0.54918176
C0AI40,石牌,2023-07-21,25.115597,121.513139,0.4596188
C1F871,上谷關,2023-07-21,24.203483,121.018644,1.8766262e-07
C0G880,二水,2023-07-21,23.810742,120.6173,0.16542041
C0R940,加祿堂,2023-07-21,22.3363,120.6217,0.16634679
C0W220,北竿,2023-07-21,26.220358,119.974881,0.2753392
C0O960,崎頂,2023-07-21,22.959547,120.369317,0.45962048
C0S750,向陽,2023-07-21,23.248397,120.986133,7.3865e-09
C0T9F0,水璉,2023-07-21,23.797131,121.542514,0.9986154
C1M600,頭凍,2023-07-21,23.406364,120.603339,3.1846635e-06
467660,臺東,2023-07-21,22.752211,121.154586,0.0006424167
C1D380,新埔,2023-07-21,24.84745,121.03834,0.92764425
C0V750,路竹,2023-07-21,22.854997,120.259439,0.03407499
C0N050,蚵寮,2023-07-21,23.301,120.1104,0.051319946
72M700,南改鹿草分場,2023-07-21,23.416869,120.283061,0.32374638
C1SA50,利嘉林道,2023-07-21,22.82325,121.009389,1.9871009e-06
467550,玉山,2023-07-21,23.487614,120.959522,1.1592591e-08
C0A940,金山,2023-07-21,25.223628,121.643967,0.38820314
C1V340,大津,2023-07-21,22.888322,120.645986,0.3038884
C0W180,七美,2023-07-21,23.219333,119.444892,1.7621824e-05
C1F9C1,白冷,2023-07-21,24.182844,120.929889,0.0003112529
K2E710,苗改生物防治研究中心,2023-07-21,24.422861,120.871833,0.6129865
C0N040,蘆竹溝,2023-07-21,23.2344,120.0961,0.016747922
C2W230,畜試所澎湖,2023-07-21,23.628342,119.513206,1.7906015e-05
C0R880,後壁湖,2023-07-21,21.9457,120.7457,0.2927747
C1I280,埔中,2023-07-21,23.820778,120.642594,0.28440797
467790,墾丁雷達站,2023-07-21,21.948235,120.808028,0.13093568
C0W190,望安,2023-07-21,23.380564,119.494075,1.5680738e-05
466881,新北,2023-07-21,24.9593,121.52,0.6411176
C0Z170,卓溪,2023-07-21,23.3443,121.3029,0.837602
C0F850,東勢,2023-07-21,24.246428,120.833047,0.0044486714
466900,淡水,2023-07-21,25.164889,121.448906,0.12229042
C0I370,魚池,2023-07-21,23.895703,120.94135,0.9731529
C0C630,大溪,2023-07-21,24.882853,121.265547,0.28027877
C0A520,山佳,2023-07-21,24.974944,121.402008,0.31480128
C0I110,竹山,2023-07-21,23.761225,120.688156,0.24102473
82H840,茶改南部分場,2023-07-21,23.762528,120.7405,0.2147103
C0G660,溪湖,2023-07-21,23.94835,120.479122,0.3057004
C1T800,洛韶,2023-07-21,24.204558,121.453956,1.5226409e-08
C1T810,慈恩,2023-07-21,24.192044,121.388386,3.196996e-09
C1E451,象鼻,2023-07-21,24.368617,120.940228,0.00084722985
C0AC60,三峽,2023-07-21,24.939025,121.369728,0.24622527
C0I490,萬大林道,2023-07-21,23.928228,121.091411,4.136226e-09
C1I290,豐丘,2023-07-21,23.668178,120.887417,2.1163761e-07
C1I320,奧萬大,2023-07-21,23.952956,121.178556,1.5122648e-08
C0U770,南澳,2023-07-21,24.44935,121.81022,0.9836585
C0A980,社子,2023-07-21,25.109508,121.469681,0.12509382
C0V800,六龜,2023-07-21,22.997889,120.633583,0.47297174
C1G9D0,國一S218K,2023-07-21,23.890641,120.493253,0.3591123
C2F9A0,中竹林,2023-07-21,24.103556,120.751061,0.0005919625
C0FA40,臺中電廠,2023-07-21,24.2146,120.4907,0.012224854
C0H9C0,合歡山,2023-07-21,24.143442,121.272547,7.471503e-09
C0X060,下營,2023-07-21,23.22695,120.256261,0.16743746
G2M350,農試溪口農場,2023-07-21,23.58565,120.408111,0.14498964
C0U860,頭城,2023-07-21,24.85323,121.8308,0.99850005
C0R580,南州,2023-07-21,22.48591,120.50274,0.60476655
C0D430,峨眉,2023-07-21,24.6905,121.017189,0.8112653
C0G780,秀水,2023-07-21,24.03405,120.503869,0.20782414
72N100,臺南農改場,2023-07-21,23.0605,120.342194,0.3996264
C0S900,蘭嶼高中,2023-07-21,22.04909,121.51214,0.3379674
467540,大武,2023-07-21,22.355675,120.903789,0.13713685
C1F9W0,德基,2023-07-21,24.254783,121.190261,4.610669e-09
C1Z120,壽豐,2023-07-21,23.870853,121.508081,0.88615793
C0W160,烏坵,2023-07-21,24.9944,119.44956,1.6158523e-05
C1I240,外大坪,2023-07-21,23.958697,120.917931,0.0027704728
C1I550,國六W023K,2023-07-21,23.979067,120.867742,0.9646385
C0R870,興海,2023-07-21,21.9752,120.8439,0.13105454
C0R140,瑪家,2023-07-21,22.682903,120.686639,0.90432125
C0A530,坪林,2023-07-21,24.938183,121.70975,0.999706
C0X260,後壁,2023-07-21,23.366358,120.362326,0.1949465
C0Z230,和平,2023-07-21,24.30717,121.77007,0.9326921
C0G770,福興,2023-07-21,24.041289,120.437669,0.019021489
C0H9A0,神木村,2023-07-21,23.532742,120.843667,2.0304075e-08
C0I460,南投,2023-07-21,23.911469,120.687331,0.25235114
C0I480,梅峰,2023-07-21,24.085272,121.173572,3.7263703e-09
C1V570,吉東,2023-07-21,22.85422,120.5454,0.17877021
C2A560,福山,2023-07-21,24.776203,121.502811,0.96979237
C0AH30,五分山,2023-07-21,25.07125,121.780794,0.9995311
C0FA10,松柏,2023-07-21,24.429115,120.617482,0.0037941008
72S200,東改班鳩分場,2023-07-21,22.829528,121.077694,0.0045426907
72HA00,中改埔里分場,2023-07-21,23.903208,120.963364,0.5068373
C0C650,平鎮,2023-07-21,24.897503,121.214636,0.39924595
C0S930,延平,2023-07-21,22.902581,121.084058,0.004732628
C0UA60,樟樹山,2023-07-21,24.41393,121.78325,0.9713995
C1S670,摩天,2023-07-21,23.199503,121.027,2.3496052e-09
C0V630,茄萣,2023-07-21,22.906642,120.182608,0.034942146
466940,基隆,2023-07-21,25.133314,121.740475,0.2775704
C0X050,東河,2023-07-21,23.296598,120.385608,0.066350795
C0R770,保力,2023-07-21,22.071122,120.764111,0.15353082
G2L020,農試嘉義分所,2023-07-21,23.485028,120.473806,0.22349419
C0X240,關子嶺,2023-07-21,23.331169,120.508025,0.001987497
C0I380,集集,2023-07-21,23.828206,120.801467,0.10614481
466990,花蓮,2023-07-21,23.975128,121.613275,0.5339236
C1V220,小關山,2023-07-21,23.154217,120.813603,7.3279693e-09
C1F9G1,慶福山,2023-07-21,24.180853,120.848378,0.00010386422
C0Z250,瑞穗林道,2023-07-21,23.49284,121.30688,9.229088e-08
C0D590,新豐,2023-07-21,24.87068,120.97721,1.2564414e-06
C0A870,五指山,2023-07-21,25.132153,121.608692,0.99956614
C0UA50,西帽山,2023-07-21,24.555361,121.802628,0.018424999
C0X160,仁德,2023-07-21,22.968258,120.257689,0.083923966
C1H971,六分寮,2023-07-21,23.92507,120.6378,0.015960418
C0W120,西嶼,2023-07-21,23.5626,119.468436,0.00018234036
C0G650,員林,2023-07-21,23.946503,120.585597,0.19840345
C0AD50,鶯歌,2023-07-21,24.951533,121.346294,0.25424993
C0S990,山豬窟,2023-07-21,22.318619,120.857372,0.3280587
72Q010,高雄農改,2023-07-21,22.709333,120.525889,0.05020471
C0X190,安平,2023-07-21,22.993161,120.152181,0.047956996
C0K400,斗六,2023-07-21,23.720583,120.541127,0.2172127
12J990,口湖工作站,2023-07-21,23.589978,120.180394,0.27314126
C0O830,北寮,2023-07-21,23.079561,120.495008,0.06820961
C1D410,白蘭,2023-07-21,24.579364,121.079947,1.6784475e-07
C0S970,加津林,2023-07-21,22.416211,120.926942,0.13931444
C0D700,關西,2023-07-21,24.7977,121.1732,0.61386144
C0M810,里佳,2023-07-21,23.389125,120.716647,2.1712987e-08
C0U750,龜山島,2023-07-21,24.841667,121.953133,0.9998345
C0R810,內獅,2023-07-21,22.305064,120.642986,0.17468631
C1M390,龍美,2023-07-21,23.406728,120.654417,1.4666621e-07
C1H840,國三N238K,2023-07-21,23.841008,120.707711,0.7401552
CAQ030,崎峰國小,2023-07-21,22.42565,120.49521,0.60476655
C2E520,大湖,2023-07-21,24.414939,120.870872,0.7328299
467530,阿里山,2023-07-21,23.508208,120.813242,5.8187237e-09
C1E691,南湖,2023-07-21,24.40135,120.837533,0.025103878
C0FA30,梧棲,2023-07-21,24.256003,120.523381,0.01567248
C1V231,高中,2023-07-21,23.134911,120.716711,0.10665843
C0F9V0,新社,2023-07-21,24.200172,120.815806,0.0003866955
C0H890,埔里,2023-07-21,23.972169,120.952425,0.7512191
C0R690,墾丁,2023-07-21,21.966756,120.810269,0.16102096
C0F0D0,審馬陣,2023-07-21,24.381675,121.4203,3.935809e-09
C0R820,白鷺,2023-07-21,22.454275,120.666219,0.9053973
U2H480,臺大溪頭,2023-07-21,23.670306,120.798194,6.13976e-07
C1V190,南天池,2023-07-21,23.27403,120.91176,8.850016e-09
K2E360,苗栗農改場,2023-07-21,24.495722,120.829111,0.07686305
CAJ050,海口故事園區,2023-07-21,23.57543,120.14121,0.2840519
C0O990,媽廟,2023-07-21,22.99175,120.293525,0.2542909
C0D480,打鐵坑,2023-07-21,24.849664,121.150789,0.40251985
C0Z220,和平林道,2023-07-21,24.343922,121.656317,0.84755135
72C440,桃園農改場,2023-07-21,24.950944,121.030583,0.40596437
C1E711,馬拉邦山,2023-07-21,24.367306,120.901656,0.00041535535
C0D560,竹東,2023-07-21,24.767147,121.057881,0.5498525
C0F9U0,南屯,2023-07-21,24.137006,120.637969,0.13256714
C0M720,番路,2023-07-21,23.464657,120.554156,0.15772387
C0F0A0,雪山圈谷,2023-07-21,24.388594,121.236339,6.924814e-09
C1A9N0,四十份,2023-07-21,24.934158,121.593283,0.72537833
C0U760,東澳,2023-07-21,24.52196,121.83318,0.9966055
C0X230,鹽水,2023-07-21,23.272621,120.247641,0.05129482
C0V370,古亭坑,2023-07-21,22.893178,120.401947,0.034881823
C1I340,新興橋,2023-07-21,23.563333,120.868728,0.002065422
C0SA80,土坂,2023-07-21,22.453108,120.887572,0.21745546
C0R160,鹽埔,2023-07-21,22.739558,120.530778,0.05020471
C0AC40,大屯山,2023-07-21,25.175675,121.522408,0.97687805
466850,五分山雷達站,2023-07-21,25.071182,121.781205,0.99949396
C1AI50,國三N016K,2023-07-21,25.034164,121.619664,0.25762576
C1V600,藤枝,2023-07-21,23.071961,120.757042,8.431257e-09
C1E601,南勢,2023-07-21,24.572486,120.734842,0.0001938572
C0Z180,新城,2023-07-21,24.03946,121.60454,0.56608635
C0O980,新市,2023-07-21,23.061614,120.298197,0.32728976
C0K420,西螺,2023-07-21,23.800407,120.467394,0.45352912
C0Z050,佳心,2023-07-21,23.34567,121.21316,0.7885175
C0AD30,蘆洲,2023-07-21,25.086594,121.472331,0.24160892
C0V610,梓官,2023-07-21,22.760558,120.267211,0.18145272
K2F750,種苗改良場,2023-07-21,24.225972,120.800917,0.0007490034
C0UA80,大溪漁港,2023-07-21,24.941801,121.902955,0.9998068
C1AI60,國一39K邊坡,2023-07-21,25.064361,121.383836,0.6555941
C0W150,金寧,2023-07-21,24.457703,118.328989,0.0020032064
V2C250,八德合作社,2023-07-21,24.93775,121.266389,0.30152863
C0AH40,平等,2023-07-21,25.129142,121.577086,0.99425817
C0R540,佳冬,2023-07-21,22.419456,120.552375,0.2232054
466950,彭佳嶼,2023-07-21,25.627975,122.079744,0.9999386
C0A890,雙溪,2023-07-21,25.036003,121.864242,0.9976979
C0C480,桃園,2023-07-21,24.992425,121.323172,0.47754753
C0AH50,林口,2023-07-21,25.072181,121.38084,0.7626523
A2K360,水試臺西試驗場,2023-07-21,23.717231,120.190522,0.11643604
B2N890,畜試所,2023-07-21,23.058972,120.336406,0.3996264
C0F9S0,烏日,2023-07-21,24.107058,120.624103,0.4007237
C0C490,八德,2023-07-21,24.928708,121.283289,0.30453625
C0R190,赤山,2023-07-21,22.592333,120.614306,0.15062842
C0T820,天祥,2023-07-21,24.179597,121.495639,0.9984968
C1F9E1,龍安,2023-07-21,24.1605,120.831961,3.5743953e-05
C0V820,小林,2023-07-21,23.148408,120.63325,0.012888772
C2G870,芳苑,2023-07-21,23.922303,120.320025,8.842679e-05
C0E850,大河,2023-07-21,24.618069,120.948578,0.60981566
C1U670,寒溪,2023-07-21,24.634,121.71691,0.510271
C0N020,城西,2023-07-21,23.0568,120.0956,0.047956996
C1Z110,三棧,2023-07-21,24.11557,121.60501,0.39324895
C0R280,檳榔,2023-07-21,22.076078,120.836777,0.58776236
C0F9L0,后里,2023-07-21,24.310436,120.729725,0.124217615
C0D540,橫山,2023-07-21,24.71116,121.11693,0.2294496
C1D420,太閣南,2023-07-21,24.632808,121.160575,6.3783546e-06
C1E770,公館,2023-07-21,24.526914,120.830806,0.07293671
CAN130,水試所海水繁養殖中心,2023-07-21,23.120802,120.07968,0.009202697
C1I430,翠華,2023-07-21,24.191961,121.224339,4.724683e-09
C1M400,菜瓜坪,2023-07-21,23.251928,120.576103,0.15279743
C0G730,二林,2023-07-21,23.903325,120.376081,0.03974356
72M360,南改義竹分場,2023-07-21,23.360694,120.279361,0.14895232
V2K620,麥寮合作社,2023-07-21,23.753836,120.294783,0.30979833
C0Z070,舞鶴,2023-07-21,23.46811,121.37407,0.927321
C0B040,大武崙,2023-07-21,25.166676,121.706993,0.29409212
C1Z030,紅葉,2023-07-21,23.493119,121.338806,0.9217884
C1I050,丹大,2023-07-21,23.753747,121.141147,1.4714739e-08
C0I080,信義,2023-07-21,23.689694,120.851036,0.80112344
C2A880,福隆,2023-07-21,25.017842,121.942083,0.9998731
C0Z160,鳳林,2023-07-21,23.746114,121.453411,0.5761492
C0V210,復興,2023-07-21,23.222403,120.806089,0.9310028
C0H990,昆陽,2023-07-21,24.121322,121.273642,7.881463e-09
C0S710,鹿野,2023-07-21,22.917711,121.122994,0.90476334
C0I530,小奇萊,2023-07-21,24.131764,121.295717,8.350372e-09
C0Z080,富源,2023-07-21,23.587642,121.378225,0.99087477
467441,高雄,2023-07-21,22.7304,120.3125,0.18566939
C1I140,卡奈托灣,2023-07-21,23.754364,121.087872,2.2542899e-09
C0I520,玉山風口,2023-07-21,23.470489,120.955994,1.4867419e-08
C1G691,下水埔,2023-07-21,23.816114,120.5676,0.30896845
C0X110,臺南市南區,2023-07-21,22.961189,120.188378,0.083923966
C0V680,仁武,2023-07-21,22.701083,120.347722,0.013900837
C2G840,北斗,2023-07-21,23.877586,120.514222,0.3672135
C0R900,竹坑,2023-07-21,22.1385,120.7022,0.11627506
C0K250,崙背,2023-07-21,23.75555,120.318925,0.30979833
C0G860,社頭,2023-07-21,23.897647,120.5862,0.30181774
C0X150,安定,2023-07-21,23.102614,120.227839,0.27815557
C0R590,里港,2023-07-21,22.77919,120.49459,0.2276123
C0E610,馬都安,2023-07-21,24.451272,120.930192,0.0058515193
C0E550,明德,2023-07-21,24.583486,120.885411,0.19811903
C0R150,三地門,2023-07-21,22.709889,120.639944,0.08407126
C0G910,花壇,2023-07-21,24.032076,120.549461,0.20542309
C1D400,鳥嘴山,2023-07-21,24.71909,121.28387,0.23451161
C0K500,元長,2023-07-21,23.64981,120.315024,0.25823978
C0F0B0,石岡,2023-07-21,24.276061,120.777644,0.0861929
C2V250,甲仙,2023-07-21,23.080106,120.591758,0.063975126
C0SA20,金崙山,2023-07-21,22.567419,120.959667,9.333105e-08
C0V350,溪埔,2023-07-21,22.738578,120.446797,0.5858012
C0M660,溪口,2023-07-21,23.604131,120.403569,0.14498964
C1S880,壽卡,2023-07-21,22.238911,120.858903,0.53757757
72D680,桃改新埔分場,2023-07-21,24.834444,121.066111,0.921406
