站號,站名,日期,lat,lon,BlastGRU-TW
12J990,口湖工作站,2023-12-06,23.589978,120.180394,0.03403128
12Q970,東港工作站,2023-12-06,22.479997,120.466058,0.03215097
12Q980,恆春工作站,2023-12-06,22.079678,120.714425,0.023833605
466881,新北,2023-12-06,24.9593,121.52,0.025679206
466900,淡水,2023-12-06,25.164889,121.448906,0.0005597691
466920,臺北,2023-12-06,25.037658,121.514853,0.0032663827
466940,基隆,2023-12-06,25.133314,121.740475,0.0086142495
466990,花蓮,2023-12-06,23.975128,121.613275,0.016308788
467050,新屋,2023-12-06,25.006744,121.047486,0.00039529757
467080,宜蘭,2023-12-06,24.763975,121.756528,0.008032063
467270,田中,2023-12-06,23.873803,120.581286,0.18134828
467300,東吉島,2023-12-06,23.25695,119.667467,0.0018871975
467350,澎湖,2023-12-06,23.565503,119.563094,0.0013932235
467410,臺南,2023-12-06,22.993239,120.204772,0.20336218
467420,永康,2023-12-06,23.038386,120.2367,0.39157355
467441,高雄,2023-12-06,22.7304,120.3125,0.069361374
467480,嘉義,2023-12-06,23.495925,120.432906,0.18223132
467490,臺中,2023-12-06,24.145736,120.684075,0.13824278
467540,大武,2023-12-06,22.355675,120.903789,0.043943193
467571,新竹,2023-12-06,24.827853,121.014219,0.0023200922
467590,恆春,2023-12-06,22.003897,120.746339,0.23823605
467610,成功,2023-12-06,23.097486,121.373428,0.013191395
467620,蘭嶼,2023-12-06,22.036969,121.558339,0.00029042183
467660,臺東,2023-12-06,22.752211,121.154586,0.0055962605
467790,墾丁雷達站,2023-12-06,21.948235,120.808028,0.017100051
72AI40,桃改樹林分場,2023-12-06,24.944503,121.386972,0.009548494
72C440,桃園農改,2023-12-06,24.950944,121.030583,0.0008213483
72C440,桃園農改場,2023-12-06,24.950944,121.030583,0.0008213483
72D680,桃改新埔分場,2023-12-06,24.834444,121.066111,0.0025106082
72G600,臺中農改,2023-12-06,24.003028,120.534389,0.2300029
72G600,臺中農改場,2023-12-06,24.003028,120.534389,0.2300029
72K220,南改斗南分場,2023-12-06,23.634556,120.477333,0.07978198
72M360,南改義竹分場,2023-12-06,23.360694,120.279361,0.11319275
72M700,南改鹿草分場,2023-12-06,23.416869,120.283061,0.29672247
72N100,臺南農改,2023-12-06,23.0605,120.342194,0.37942567
72N100,臺南農改場,2023-12-06,23.0605,120.342194,0.37942567
72N240,七股研究中心,2023-12-06,23.081672,120.062894,0.018221894
72Q010,高雄農改,2023-12-06,22.709333,120.525889,0.030721745
72Q010,高雄農改場,2023-12-06,22.709333,120.525889,0.030721745
72S200,東改班鳩分場,2023-12-06,22.829528,121.077694,0.0061337217
72S590,東改賓朗果園,2023-12-06,22.813889,121.071278,0.0028152622
72T250,花蓮農改,2023-12-06,23.975222,121.563889,0.1903434
72T250,花蓮農改場,2023-12-06,23.975222,121.563889,0.1903434
72U480,花改蘭陽分場,2023-12-06,24.686306,121.716583,0.12634087
72V140,高改旗南分場,2023-12-06,22.857861,120.516667,0.05723696
82A750,茶改北部分場,2023-12-06,24.955778,121.631222,0.040302113
82C160,茶改場,2023-12-06,24.908472,121.185333,0.0075268033
82H840,茶改南部分場,2023-12-06,23.762528,120.7405,0.07417044
82S580,茶改東部分場,2023-12-06,22.907694,121.130139,0.010288224
A2C560,農工中心,2023-12-06,24.985917,121.239833,0.0038456665
A2K360,水試臺西試驗場,2023-12-06,23.717231,120.190522,0.030915258
A2K570,古坑花卉中心,2023-12-06,23.63353,120.55239,0.059108697
A2K630,臺大雲林校區,2023-12-06,23.730628,120.423903,0.3353254
A2N290,臺南蘭花園區,2023-12-06,23.340258,120.379661,0.29580107
B2E890,畜試北區分所,2023-12-06,24.527806,120.770972,0.0114624845
B2N890,畜產試驗所,2023-12-06,23.058972,120.336406,0.37942567
B2N890,畜試所,2023-12-06,23.058972,120.336406,0.37942567
B2Q810,畜試南區分所,2023-12-06,21.945583,120.802167,0.031932734
B2U990,畜試東區分所,2023-12-06,24.669039,121.832561,0.55714256
C0A520,山佳,2023-12-06,24.974944,121.402008,0.0053839013
C0A530,坪林,2023-12-06,24.938183,121.70975,0.008413522
C0A540,四堵,2023-12-06,24.8926,121.745736,0.0059654415
C0A550,泰平,2023-12-06,24.971197,121.823711,0.009763465
C0A560,福山,2023-12-06,24.776203,121.502811,0.12021869
C0A570,桶後,2023-12-06,24.848222,121.597992,0.03661897
C0A640,石碇,2023-12-06,24.993969,121.662917,0.0059450753
C0A650,火燒寮,2023-12-06,25.002719,121.742892,0.010684253
C0A660,瑞芳,2023-12-06,25.113169,121.801147,0.0039210073
C0A770,科教館,2023-12-06,25.096356,121.516507,0.0026095852
C0A860,大坪,2023-12-06,25.165914,121.632969,0.0016479996
C0A880,福隆,2023-12-06,25.017842,121.942083,0.07254254
C0A890,雙溪,2023-12-06,25.036003,121.864242,0.020721171
C0A920,富貴角,2023-12-06,25.263783,121.565258,0.0011490374
C0A931,三和,2023-12-06,25.233153,121.595236,0.0013367808
C0A940,金山,2023-12-06,25.223628,121.643967,0.0036244655
C0A950,鼻頭角,2023-12-06,25.129036,121.923372,0.006442441
C0A970,三貂角,2023-12-06,25.007606,122.002058,0.021171967
C0A980,社子,2023-12-06,25.109508,121.469681,0.00029826397
C0A9C0,天母,2023-12-06,25.117494,121.537169,0.04473877
C0A9F0,內湖,2023-12-06,25.079422,121.57545,0.024586001
C0AC60,三峽,2023-12-06,24.939025,121.369728,0.009254752
C0AC70,信義,2023-12-06,25.037822,121.564597,0.0068757534
C0AC80,文山,2023-12-06,25.00235,121.575728,0.0011425219
C0ACA0,新莊,2023-12-06,25.051478,121.446756,0.0021024323
C0AD00,三芝,2023-12-06,25.258131,121.501917,0.006897035
C0AD10,八里,2023-12-06,25.150211,121.403947,0.0004042377
C0AD30,蘆洲,2023-12-06,25.086594,121.472331,0.0026095852
C0AD40,土城,2023-12-06,24.973208,121.445169,0.01381495
C0AD50,鶯歌,2023-12-06,24.951533,121.346294,0.008872701
C0AG80,中和,2023-12-06,24.991622,121.491792,0.0005203152
C0AH00,汐止,2023-12-06,25.066881,121.658778,0.09699294
C0AH10,永和,2023-12-06,25.01125,121.508111,0.00051893876
C0AH40,平等,2023-12-06,25.129142,121.577086,0.0041584256
C0AH50,林口,2023-12-06,25.072181,121.38084,0.008491492
C0AH70,松山,2023-12-06,25.04871,121.55042,0.0068757534
C0AH80,深坑,2023-12-06,25.002703,121.628328,0.009415137
C0AI00,五股,2023-12-06,25.07445,121.42728,0.0012444882
C0AI10,屈尺,2023-12-06,24.92184,121.54475,0.0033336736
C0AI20,白沙灣,2023-12-06,25.283128,121.519058,0.00093720393
C0AI30,三重,2023-12-06,25.057328,121.500629,0.003292236
C0AI40,石牌,2023-12-06,25.115597,121.513139,0.0077264667
C0AJ20,野柳,2023-12-06,25.20703,121.690021,0.0027369368
C0AJ30,淡水觀海,2023-12-06,25.184591,121.408616,0.008560884
C0AJ40,石門,2023-12-06,25.273672,121.601198,0.0004613703
C0AJ50,水湳洞,2023-12-06,25.123695,121.862238,0.003762299
C0AJ60,六塊厝,2023-12-06,25.24,121.4481,0.00090042787
C0AJ70,田寮,2023-12-06,25.2698,121.4886,0.009111562
C0AJ80,板橋,2023-12-06,25.0107,121.4489,0.0005210812
C0AJ90,澳底,2023-12-06,25.0552,121.9253,0.015952436
C0B010,七堵,2023-12-06,25.094819,121.71713,0.030527586
C0B020,基隆嶼,2023-12-06,25.19141,121.78391,0.0029704885
C0B040,大武崙,2023-12-06,25.166676,121.706993,0.0040382906
C0B050,八斗子,2023-12-06,25.144754,121.79167,0.009892896
C0B060,暖暖,2023-12-06,25.0957,121.7403,0.015412739
C0C460,復興,2023-12-06,24.820208,121.352281,0.005344805
C0C480,桃園,2023-12-06,24.992425,121.323172,0.0036455072
C0C490,八德,2023-12-06,24.928708,121.283289,0.0052790646
C0C590,觀音,2023-12-06,25.027072,121.153317,0.00012880712
C0C620,蘆竹,2023-12-06,25.084275,121.265767,0.00042728547
C0C630,大溪,2023-12-06,24.882853,121.265547,0.009038981
C0C650,平鎮,2023-12-06,24.897503,121.214636,0.006253871
C0C660,楊梅,2023-12-06,24.912375,121.143047,0.0070925555
C0C670,龍潭,2023-12-06,24.870056,121.221389,0.0073773675
C0C680,龜山,2023-12-06,25.02846,121.38656,0.0086054085
C0C700,中壢,2023-12-06,24.977661,121.256375,0.0032283142
C0C710,大溪永福,2023-12-06,24.892936,121.324975,0.010537636
C0C720,竹圍,2023-12-06,25.112692,121.239824,0.0003956433
C0C730,中大臨海站,2023-12-06,24.966126,121.008581,0.0003398044
C0C740,觀音工業區,2023-12-06,25.064764,121.114856,0.00010950837
C0C750,新興坑尾,2023-12-06,25.0061,121.0971,0.0007940208
C0D430,峨眉,2023-12-06,24.6905,121.017189,0.005146926
C0D480,打鐵坑,2023-12-06,24.849664,121.150789,0.006428508
C0D540,橫山,2023-12-06,24.71116,121.11693,0.02232872
C0D560,竹東,2023-12-06,24.767147,121.057881,0.008774318
C0D580,寶山,2023-12-06,24.735006,121.025192,0.014980829
C0D590,新豐,2023-12-06,24.87068,120.97721,0.0021353655
C0D650,湖口,2023-12-06,24.904794,121.043628,0.0022704774
C0D660,新竹市東區,2023-12-06,24.798681,120.986942,0.0023001758
C0D670,海天一線,2023-12-06,24.831986,120.914438,0.0018010675
C0D680,香山濕地,2023-12-06,24.783581,120.914988,0.0018253904
C0D690,外湖,2023-12-06,24.917735,120.968711,0.000709427
C0D700,關西,2023-12-06,24.7977,121.1732,0.007469331
C0E420,竹南,2023-12-06,24.708978,120.888897,0.0017355699
C0E430,南庄,2023-12-06,24.601775,121.000214,0.035611194
C0E520,大湖,2023-12-06,24.41494,120.87087,0.04934855
C0E540,後龍,2023-12-06,24.606489,120.783933,0.004492878
C0E550,明德,2023-12-06,24.583486,120.885411,0.007206171
C0E590,通霄,2023-12-06,24.471892,120.704622,0.023160929
C0E730,頭份,2023-12-06,24.688247,120.912206,0.0025920023
C0E740,造橋,2023-12-06,24.637056,120.864778,0.0025583985
C0E750,苗栗,2023-12-06,24.564569,120.824575,0.010746324
C0E780,銅鑼,2023-12-06,24.489681,120.790853,0.011372742
C0E791,卓蘭,2023-12-06,24.3126,120.8244,0.04825053
C0E810,西湖,2023-12-06,24.562947,120.7485,0.0038042034
C0E820,獅潭,2023-12-06,24.539133,120.920042,0.040649652
C0E830,苑裡,2023-12-06,24.439714,120.653053,0.0013394712
C0E850,大河,2023-12-06,24.618069,120.948578,0.020328712
C0E870,高鐵苗栗,2023-12-06,24.60725,120.826094,0.0044066184
C0E910,海埔,2023-12-06,24.648767,120.772435,0.0005367569
C0E920,通霄漁港,2023-12-06,24.498589,120.673876,0.021265196
C0E930,龍鳳,2023-12-06,24.700034,120.859125,0.0018033828
C0F0B0,石岡,2023-12-06,24.276061,120.777644,0.05575734
C0F850,東勢,2023-12-06,24.246428,120.833047,0.036718994
C0F930,大甲,2023-12-06,24.347667,120.640403,0.006283798
C0F970,大坑,2023-12-06,24.173142,120.722289,0.13366936
C0F9A0,中竹林,2023-12-06,24.103556,120.751061,0.0799714
C0F9I0,神岡,2023-12-06,24.272481,120.658314,0.0326238
C0F9K0,大安,2023-12-06,24.345061,120.588025,0.0029864402
C0F9L0,后里,2023-12-06,24.310436,120.729725,0.07377321
C0F9M0,豐原,2023-12-06,24.254322,120.720692,0.09358402
C0F9N0,大里,2023-12-06,24.092464,120.701378,0.20845018
C0F9O0,潭子,2023-12-06,24.213106,120.703933,0.07647688
C0F9P0,清水,2023-12-06,24.312297,120.562242,0.0068097045
C0F9Q0,外埔,2023-12-06,24.347817,120.705686,0.028008513
C0F9R0,龍井,2023-12-06,24.184536,120.528972,0.0068849935
C0F9S0,烏日,2023-12-06,24.107058,120.624103,0.19578777
C0F9T0,西屯,2023-12-06,24.179494,120.641275,0.048875332
C0F9U0,南屯,2023-12-06,24.137006,120.637969,0.074290134
C0F9X0,大雅(中科園區),2023-12-06,24.21528,120.62445,0.033297364
C0FA10,松柏,2023-12-06,24.429115,120.617482,0.0013525396
C0FA20,溫寮,2023-12-06,24.372177,120.583125,0.003079087
C0FA30,梧棲,2023-12-06,24.256003,120.523381,0.0042158864
C0FA40,臺中電廠,2023-12-06,24.2146,120.4907,0.0068849935
C0FA50,霧峰,2023-12-06,24.0419,120.6995,0.3152031
C0G620,芬園,2023-12-06,24.015678,120.6213,0.24079822
C0G640,鹿港,2023-12-06,24.0753,120.430481,0.0069535747
C0G650,員林,2023-12-06,23.946503,120.585597,0.23554689
C0G660,溪湖,2023-12-06,23.94835,120.479122,0.2679935
C0G720,溪州,2023-12-06,23.851589,120.499093,0.30019364
C0G730,二林,2023-12-06,23.903325,120.376081,0.022110056
C0G740,大城,2023-12-06,23.852487,120.320935,0.05496213
C0G770,福興,2023-12-06,24.041289,120.437669,0.012044652
C0G780,秀水,2023-12-06,24.03405,120.503869,0.19278017
C0G800,埔鹽,2023-12-06,24.000394,120.431683,0.016541632
C0G810,埔心,2023-12-06,23.947633,120.525456,0.25962967
C0G820,田尾,2023-12-06,23.901669,120.509389,0.25963
C0G830,埤頭,2023-12-06,23.866003,120.452806,0.23913707
C0G840,北斗,2023-12-06,23.877586,120.514222,0.29780012
C0G860,社頭,2023-12-06,23.897647,120.5862,0.1888393
C0G870,芳苑,2023-12-06,23.922303,120.320025,0.014394081
C0G880,二水,2023-12-06,23.810742,120.6173,0.039331242
C0G890,伸港,2023-12-06,24.148933,120.484403,0.0102794785
C0G900,線西,2023-12-06,24.143358,120.443536,0.0038798577
C0G910,花壇,2023-12-06,24.032076,120.549461,0.22518487
C0G920,永靖,2023-12-06,23.924703,120.547533,0.2532964
C0G940,竹塘,2023-12-06,23.848253,120.386764,0.05362237
C0G950,防潮門,2023-12-06,24.1835,120.4871,0.0068849935
C0G960,福寶,2023-12-06,24.0443,120.3814,0.0034868424
C0G970,三豐,2023-12-06,23.882,120.2895,0.04193833
C0H890,埔里,2023-12-06,23.972169,120.952425,0.11442234
C0H950,中寮,2023-12-06,23.884447,120.766406,0.115438335
C0H960,草屯,2023-12-06,23.973672,120.68085,0.2990124
C0I110,竹山,2023-12-06,23.761225,120.688156,0.057389703
C0I360,水里,2023-12-06,23.812553,120.849792,0.14523882
C0I380,集集,2023-12-06,23.828206,120.801467,0.15613396
C0I410,名間,2023-12-06,23.837053,120.701447,0.102021165
C0I420,國姓,2023-12-06,24.037803,120.855072,0.1799959
C0I460,南投,2023-12-06,23.911469,120.687331,0.25517935
C0K250,崙背,2023-12-06,23.75555,120.318925,0.23110873
C0K280,四湖,2023-12-06,23.630414,120.227125,0.09731603
C0K291,宜梧,2023-12-06,23.536281,120.169329,0.10197392
C0K330,虎尾,2023-12-06,23.719183,120.442036,0.3451186
C0K390,土庫,2023-12-06,23.679029,120.395574,0.3220021
C0K400,斗六,2023-12-06,23.720583,120.541127,0.16032515
C0K410,北港,2023-12-06,23.573957,120.292802,0.27292055
C0K420,西螺,2023-12-06,23.800407,120.467394,0.31532395
C0K430,褒忠,2023-12-06,23.690938,120.303634,0.26188272
C0K440,二崙,2023-12-06,23.772797,120.408944,0.3881002
C0K450,大埤,2023-12-06,23.646074,120.431537,0.07649878
C0K460,斗南,2023-12-06,23.678734,120.478359,0.09149202
C0K470,林內,2023-12-06,23.748675,120.609642,0.046759944
C0K480,莿桐,2023-12-06,23.761192,120.502372,0.24155258
C0K500,元長,2023-12-06,23.64981,120.315024,0.31312862
C0K510,水林,2023-12-06,23.572924,120.24597,0.25167623
C0K530,臺西,2023-12-06,23.701547,120.197559,0.028712783
C0K550,蔦松,2023-12-06,23.514319,120.229736,0.14377746
C0K560,棋山,2023-12-06,23.68645,120.603417,0.07727729
C0K580,高鐵雲林,2023-12-06,23.737456,120.417944,0.3353254
C0K590,雲林東勢,2023-12-06,23.674192,120.255721,0.27447897
C0K600,箔子寮,2023-12-06,23.6197,120.14,0.012631417
C0M410,馬頭山,2023-12-06,23.324361,120.582017,0.24187809
C0M520,東後寮,2023-12-06,23.369908,120.248065,0.11319275
C0M640,中埔,2023-12-06,23.42538,120.5229,0.06597669
C0M650,朴子,2023-12-06,23.43463,120.23902,0.27011645
C0M660,溪口,2023-12-06,23.604131,120.403569,0.07084776
C0M670,大林,2023-12-06,23.600616,120.45841,0.07966153
C0M680,太保,2023-12-06,23.455062,120.331455,0.3091788
C0M690,水上,2023-12-06,23.419734,120.388909,0.32644436
C0M700,竹崎,2023-12-06,23.526178,120.555508,0.060641423
C0M710,東石,2023-12-06,23.458927,120.15385,0.010115399
C0M720,番路,2023-12-06,23.464657,120.554156,0.076535456
C0M730,嘉義市東區,2023-12-06,23.457673,120.460531,0.06579053
C0M740,六腳,2023-12-06,23.492871,120.290625,0.360256
C0M750,布袋,2023-12-06,23.380878,120.167789,0.07728734
C0M760,民雄,2023-12-06,23.551754,120.428457,0.09140259
C0M770,嘉義梅山,2023-12-06,23.585398,120.555587,0.060656577
C0M780,鹿草,2023-12-06,23.41134,120.30835,0.2879616
C0M790,新港,2023-12-06,23.553269,120.345728,0.30041784
C0M800,茶山,2023-12-06,23.299075,120.664767,0.71716714
C0M880,好美里,2023-12-06,23.3364,120.138,0.021382736
C0N010,鯤鯓國小,2023-12-06,23.1879,120.0889,0.01936711
C0N020,城西,2023-12-06,23.0568,120.0956,0.21239366
C0N030,四草,2023-12-06,23.0235,120.1116,0.15110523
C0N040,蘆竹溝,2023-12-06,23.2344,120.0961,0.03806114
C0N050,蚵寮,2023-12-06,23.301,120.1104,0.0249954
C0O810,曾文,2023-12-06,23.219681,120.497328,0.14277114
C0O830,北寮,2023-12-06,23.079561,120.495008,0.1200017
C0O840,王爺宮,2023-12-06,23.222064,120.40085,0.20459633
C0O860,大內,2023-12-06,23.11885,120.36083,0.39906123
C0O900,善化,2023-12-06,23.112883,120.297219,0.44883415
C0O930,玉井,2023-12-06,23.126042,120.46055,0.14826286
C0O950,安南,2023-12-06,23.076694,120.144861,0.06316229
C0O960,崎頂,2023-12-06,22.959547,120.369317,0.119366474
C0O970,虎頭埤,2023-12-06,23.021375,120.347878,0.13475464
C0O980,新市,2023-12-06,23.061614,120.298197,0.40155694
C0O990,媽廟,2023-12-06,22.99175,120.293525,0.27036488
C0R150,三地門,2023-12-06,22.709889,120.639944,0.018605705
C0R160,鹽埔,2023-12-06,22.739558,120.530778,0.02401697
C0R170,屏東,2023-12-06,22.660269,120.494072,0.053376183
C0R190,赤山,2023-12-06,22.592333,120.614306,0.025508452
C0R220,潮州,2023-12-06,22.534361,120.54,0.035618596
C0R240,來義,2023-12-06,22.527306,120.625111,0.0427414
C0R260,春日,2023-12-06,22.370361,120.628306,0.11529787
C0R270,琉球嶼,2023-12-06,22.332244,120.362236,0.08137571
C0R280,檳榔,2023-12-06,22.076078,120.836777,0.012735436
C0R320,車城,2023-12-06,22.0744,120.716247,0.023833605
C0R341,牡丹,2023-12-06,22.130036,120.792639,0.013248187
C0R350,貓鼻頭,2023-12-06,21.921774,120.7358,0.01263491
C0R470,高樹,2023-12-06,22.826389,120.600806,0.017943038
C0R480,長治,2023-12-06,22.693128,120.542622,0.2541978
C0R490,九如,2023-12-06,22.7405,120.490503,0.023892911
C0R520,崁頂,2023-12-06,22.514781,120.506914,0.036381572
C0R540,佳冬,2023-12-06,22.419456,120.552375,0.04320721
C0R550,新埤,2023-12-06,22.467947,120.582894,0.047975097
C0R560,新園,2023-12-06,22.5434,120.461558,0.09676481
C0R570,麟洛,2023-12-06,22.65078,120.52719,0.053376183
C0R580,南州,2023-12-06,22.48591,120.50274,0.04004471
C0R590,里港,2023-12-06,22.77919,120.49459,0.10507523
C0R620,墾雷,2023-12-06,21.900836,120.855269,0.00086468767
C0R640,東港,2023-12-06,22.46247,120.44074,0.041565776
C0R650,竹田,2023-12-06,22.58486,120.54344,0.033424564
C0R660,枋寮,2023-12-06,22.367722,120.590647,0.04320721
C0R670,楓港,2023-12-06,22.190131,120.692156,0.0059822234
C0R680,佳樂水,2023-12-06,21.993578,120.861633,0.029919643
C0R690,墾丁,2023-12-06,21.966756,120.810269,0.0006225874
C0R700,枋山,2023-12-06,22.246844,120.661086,0.045947094
C0R710,龍磐,2023-12-06,21.931672,120.838942,0.003368354
C0R720,旭海,2023-12-06,22.205403,120.887614,0.008798825
C0R730,大坪頂,2023-12-06,22.024633,120.69355,0.008903189
C0R740,獅子,2023-12-06,22.201569,120.70525,0.05624666
C0R760,南仁湖,2023-12-06,22.084681,120.863353,0.0041489163
C0R770,保力,2023-12-06,22.071122,120.764111,0.034654025
C0R780,滿州,2023-12-06,22.024403,120.839892,0.19289061
C0R790,九棚,2023-12-06,22.14195,120.889281,0.011397398
C0R800,丹路,2023-12-06,22.204481,120.750989,0.023270905
C0R810,內獅,2023-12-06,22.305064,120.642986,0.06896058
C0R830,高士,2023-12-06,22.121825,120.836781,0.0023948117
C0R850,林邊,2023-12-06,22.4634,120.5339,0.048435565
C0R860,鼻頭,2023-12-06,22.1043,120.8979,0.26198295
C0R870,興海,2023-12-06,21.9752,120.8439,0.031932734
C0R880,後壁湖,2023-12-06,21.9457,120.7457,0.020881535
C0R890,山海,2023-12-06,21.9878,120.7091,0.019660877
C0R900,竹坑,2023-12-06,22.1385,120.7022,0.022596577
C0R910,下寮,2023-12-06,22.3929,120.5548,0.04320721
C0R920,塭仔,2023-12-06,22.4169,120.5197,0.046161443
C0R930,萬丹,2023-12-06,22.5885,120.4851,0.12047997
C0R940,加祿堂,2023-12-06,22.3363,120.6217,0.027916573
C0S710,鹿野,2023-12-06,22.917711,121.122994,0.009533246
C0S730,綠島,2023-12-06,22.6672,121.47533,0.002575939
C0S740,池上,2023-12-06,23.119628,121.209469,0.00989471
C0S770,大溪山,2023-12-06,22.478475,120.943325,0.001870676
C0S790,金崙,2023-12-06,22.538122,120.966875,0.0027476898
C0S810,東河,2023-12-06,22.972672,121.303986,0.0009205272
C0S830,長濱,2023-12-06,23.286817,121.411975,0.0062240884
C0S840,南田,2023-12-06,22.279725,120.889208,0.036351353
C0S890,關山,2023-12-06,23.0395,121.175017,0.061062995
C0S900,蘭嶼高中,2023-12-06,22.04909,121.51214,0.017428149
C0S910,蘭嶼燈塔,2023-12-06,22.081197,121.503117,0.0010938613
C0S920,金峰嘉蘭,2023-12-06,22.594789,120.960825,0.01510402
C0S930,延平,2023-12-06,22.902581,121.084058,0.012829842
C0S940,石寧山,2023-12-06,23.223772,121.406639,0.0029762266
C0S950,七塊厝,2023-12-06,22.954453,121.229922,0.005757934
C0S960,香蘭,2023-12-06,22.587569,120.993375,0.0072735846
C0S970,加津林,2023-12-06,22.416211,120.926942,0.017504383
C0S990,山豬窟,2023-12-06,22.318619,120.857372,0.0027309083
C0SA00,歷坵,2023-12-06,22.520969,120.89185,0.0060466737
C0SA10,檳榔四格山,2023-12-06,22.810031,121.109308,0.0011799836
C0SA30,都歷,2023-12-06,23.020333,121.323642,0.013814288
C0SA40,瑞和,2023-12-06,22.974361,121.156697,0.030684741
C0SA60,知本（水試所）,2023-12-06,22.702394,121.082761,0.018992499
C0SA80,土坂,2023-12-06,22.453108,120.887572,0.024186466
C0SA90,達仁林場,2023-12-06,22.264347,120.823972,0.00042831845
C0T870,鯉魚潭,2023-12-06,23.935639,121.508944,0.18928939
C0T900,西林,2023-12-06,23.8119,121.441458,0.08570599
C0T960,光復,2023-12-06,23.660694,121.424964,0.048283804
C0T9A0,月眉山,2023-12-06,23.809928,121.539828,0.0015775671
C0T9D0,和中,2023-12-06,24.26676,121.74103,0.003044163
C0T9E0,大坑,2023-12-06,23.880628,121.581981,0.008303345
C0T9F0,水璉,2023-12-06,23.797131,121.542514,0.0045673945
C0T9I0,豐濱,2023-12-06,23.583897,121.514806,0.013203642
C0T9M0,靜浦,2023-12-06,23.455167,121.495028,0.0022315537
C0T9N0,富里,2023-12-06,23.171639,121.249378,0.015832957
C0U600,礁溪,2023-12-06,24.817539,121.765608,0.0343078
C0U650,玉蘭,2023-12-06,24.675286,121.587061,0.022931205
C0U750,龜山島,2023-12-06,24.841667,121.953133,0.0006294504
C0U760,東澳,2023-12-06,24.52196,121.83318,0.45876113
C0U770,南澳,2023-12-06,24.44935,121.81022,0.019899677
C0U780,五結,2023-12-06,24.68637,121.79794,0.03910394
C0U860,頭城,2023-12-06,24.85323,121.8308,0.016584162
C0U870,大礁溪,2023-12-06,24.791042,121.675047,0.008160482
C0U880,北關,2023-12-06,24.9072,121.8734,0.03390132
C0U890,三星,2023-12-06,24.66812,121.65302,0.5657737
C0U900,內城,2023-12-06,24.71813,121.68766,0.11305317
C0U910,冬山,2023-12-06,24.63373,121.7937,0.55714256
C0U940,羅東,2023-12-06,24.68184,121.74934,0.08438976
C0U970,大福,2023-12-06,24.80064,121.81389,0.004726404
C0U990,員山,2023-12-06,24.74435,121.72247,0.032480292
C0UA00,土場,2023-12-06,24.576533,121.495333,0.058378648
C0UA80,大溪漁港,2023-12-06,24.941801,121.902955,0.075591676
C0UA90,石城,2023-12-06,24.980444,121.951214,0.0677748
C0UB00,淡江大學蘭陽校園,2023-12-06,24.823239,121.730383,0.009273238
C0UB10,蘇澳,2023-12-06,24.5969,121.8571,0.92789763
C0UB20,壯圍,2023-12-06,24.7359,121.8163,0.01595853
C0V250,甲仙,2023-12-06,23.080106,120.591758,0.05443405
C0V260,月眉,2023-12-06,22.971003,120.539853,0.04213413
C0V310,美濃,2023-12-06,22.898742,120.519153,0.052494608
C0V350,溪埔,2023-12-06,22.738578,120.446797,0.1974451
C0V360,內門,2023-12-06,22.975481,120.466769,0.23704568
C0V370,古亭坑,2023-12-06,22.893178,120.401947,0.13641602
C0V400,阿公店,2023-12-06,22.804194,120.355528,0.20866063
C0V440,鳳山,2023-12-06,22.646653,120.356122,0.05910444
C0V450,鳳森,2023-12-06,22.545064,120.392592,0.081927575
C0V490,新興,2023-12-06,22.627422,120.298803,0.148936
C0V530,阿蓮,2023-12-06,22.883208,120.327508,0.08212544
C0V610,梓官,2023-12-06,22.760558,120.267211,0.04798212
C0V620,永安,2023-12-06,22.82315,120.236856,0.018916342
C0V630,茄萣,2023-12-06,22.906642,120.182608,0.0216539
C0V640,湖內,2023-12-06,22.887139,120.2445,0.026816385
C0V650,彌陀,2023-12-06,22.783806,120.246361,0.018916342
C0V660,岡山,2023-12-06,22.797078,120.294958,0.024788447
C0V680,仁武,2023-12-06,22.701083,120.347722,0.060496904
C0V690,鼓山,2023-12-06,22.623325,120.275575,0.10637871
C0V700,三民,2023-12-06,22.645017,120.311233,0.04718372
C0V710,苓雅,2023-12-06,22.622742,120.330669,0.13293809
C0V720,林園,2023-12-06,22.507747,120.394511,0.08042519
C0V730,大寮,2023-12-06,22.605614,120.395717,0.17063744
C0V740,旗山,2023-12-06,22.888614,120.483597,0.05230129
C0V750,路竹,2023-12-06,22.854997,120.259439,0.021469466
C0V760,橋頭,2023-12-06,22.757806,120.30575,0.06983787
C0V770,大社,2023-12-06,22.730306,120.346639,0.08416926
C0V790,萬山,2023-12-06,22.905944,120.688056,0.1440603
C0V800,六龜,2023-12-06,22.997889,120.633583,0.043012016
C0V810,左營,2023-12-06,22.67491,120.28491,0.04718372
C0V820,小林,2023-12-06,23.148408,120.63325,0.112251684
C0V840,鳳鼻頭,2023-12-06,22.5083,120.3591,0.08007479
C0V850,蚵仔寮,2023-12-06,22.7256,120.2527,0.048599247
C0V860,南寮,2023-12-06,22.7616,120.2339,0.048599247
C0V870,文安,2023-12-06,22.8025,120.2164,0.014065775
C0V880,興達,2023-12-06,22.8778,120.2127,0.0216539
C0V890,前鎮,2023-12-06,22.5718,120.3117,0.13123891
C0V900,汕尾,2023-12-06,22.4782,120.4151,0.03215097
C0X050,東河,2023-12-06,23.296598,120.385608,0.26071063
C0X060,下營,2023-12-06,23.22695,120.256261,0.25392267
C0X080,佳里,2023-12-06,23.173039,120.145086,0.08984368
C0X100,臺南市北區,2023-12-06,23.010394,120.194228,0.21450733
C0X110,臺南市南區,2023-12-06,22.961189,120.188378,0.072463416
C0X120,麻豆,2023-12-06,23.183289,120.248611,0.37491384
C0X130,官田,2023-12-06,23.193217,120.315422,0.326038
C0X140,西港,2023-12-06,23.125608,120.203108,0.38488862
C0X150,安定,2023-12-06,23.102614,120.227839,0.42128456
C0X160,仁德,2023-12-06,22.968258,120.257689,0.088351525
C0X170,關廟,2023-12-06,22.963017,120.327797,0.1613159
C0X180,山上,2023-12-06,23.0757,120.363253,0.15486436
C0X190,安平,2023-12-06,22.993161,120.152181,0.14621271
C0X200,左鎮,2023-12-06,23.056758,120.408522,0.18011542
C0X210,白河,2023-12-06,23.347466,120.414427,0.17187537
C0X220,學甲,2023-12-06,23.230367,120.182187,0.09580369
C0X230,鹽水,2023-12-06,23.272621,120.247641,0.10062706
C0X240,關子嶺,2023-12-06,23.331169,120.508025,0.30808607
C0X250,新營,2023-12-06,23.310689,120.316681,0.19694002
C0X260,後壁,2023-12-06,23.366358,120.362326,0.29580107
C0X280,將軍,2023-12-06,23.214999,120.13577,0.05705173
C0X290,北門,2023-12-06,23.267772,120.125481,0.03806114
C0X300,鹿寮,2023-12-06,23.386047,120.477331,0.23608112
C0X310,七股,2023-12-06,23.147289,120.086253,0.024368014
C0X320,柳營,2023-12-06,23.253328,120.375253,0.35398382
C0Z020,明里,2023-12-06,23.208717,121.262342,0.031365003
C0Z061,玉里,2023-12-06,23.3215,121.339656,0.09162223
C0Z070,舞鶴,2023-12-06,23.46811,121.37407,0.02711863
C0Z080,富源,2023-12-06,23.587642,121.378225,0.045125205
C0Z100,東華,2023-12-06,23.89525,121.549833,0.120256096
C0Z150,吉安光華,2023-12-06,23.930925,121.595153,0.022415303
C0Z160,鳳林,2023-12-06,23.746114,121.453411,0.2092392
C0Z170,卓溪,2023-12-06,23.3443,121.3029,0.03727947
C0Z180,新城,2023-12-06,24.03946,121.60454,0.016352288
C0Z190,富世,2023-12-06,24.14743,121.6297,0.0064939125
C0Z200,萬榮,2023-12-06,23.709219,121.420106,0.12554164
C0Z210,瑞穗,2023-12-06,23.5239,121.39021,0.052100923
C0Z230,和平,2023-12-06,24.30717,121.77007,0.006998186
C0Z270,蕃薯寮,2023-12-06,23.73835,121.540108,0.0018502745
C0Z280,德武,2023-12-06,23.47426,121.41071,0.05437336
C0Z300,東里,2023-12-06,23.26853,121.30547,0.09805111
C0Z310,清水斷崖,2023-12-06,24.218294,121.689142,0.00038482956
C0Z330,安通山,2023-12-06,23.290728,121.348528,0.010297642
CAG100,王功漁港,2023-12-06,23.96824,120.32586,0.009136009
CAH030,茶改場竹圍站,2023-12-06,23.860083,120.637528,0.09660336
CAJ050,海口故事園區,2023-12-06,23.57543,120.14121,0.012631417
CAL110,布袋國中,2023-12-06,23.35893,120.18026,0.0862295
CAN130,水試所海水繁養殖中心,2023-12-06,23.120802,120.07968,0.018221894
CAN140,六官養殖協會,2023-12-06,23.22881,120.29962,0.25388455
CAQ030,崎峰國小,2023-12-06,22.42565,120.49521,0.041595805
E2K600,四湖植物園,2023-12-06,23.676986,120.163433,0.032821484
E2P980,林試六龜中心,2023-12-06,22.991703,120.645722,0.042382073
E2S960,林試太麻里2,2023-12-06,22.598014,120.989761,0.0072735846
E2S980,林試太麻里1,2023-12-06,22.598922,120.980044,0.0050139106
G2AI50,關渡,2023-12-06,25.11575,121.492,0.0002974964
G2F820,農業試驗所,2023-12-06,24.031261,120.688133,0.3214591
G2F820,農試所(霧峰),2023-12-06,24.031261,120.688133,0.3214591
G2L020,農試嘉義分所,2023-12-06,23.485028,120.473806,0.056656048
G2M350,農試溪口農場,2023-12-06,23.58565,120.408111,0.08353096
G2P820,農試鳳山分所,2023-12-06,22.646611,120.356083,0.05910444
K2E360,苗栗農改,2023-12-06,24.495722,120.829111,0.014013644
K2E360,苗栗農改場,2023-12-06,24.495722,120.829111,0.014013644
K2E710,苗改生物防治研究中心,2023-12-06,24.422861,120.871833,0.058474384
K2F750,種苗改良場,2023-12-06,24.225972,120.800917,0.08500662
K2F750,種苗繁殖,2023-12-06,24.225972,120.800917,0.08500662
U2HA50,臺大竹山,2023-12-06,23.756972,120.681556,0.048736528
V2C250,八德合作社,2023-12-06,24.93775,121.266389,0.0058389115
V2C260,八德蔬果,2023-12-06,24.978508,121.281819,0.0036698005
V2K610,大庄合作社,2023-12-06,23.8068,120.367939,0.15887968
V2K620,麥寮合作社,2023-12-06,23.753836,120.294783,0.23110873
