站號,站名,日期,lat,lon,BLBTSLS
C0R710,龍磐,2023-10-24,21.931672,120.838942,0.98038226
C1F9D1,白毛台,2023-10-24,24.158325,120.886933,9.006992e-09
C0G940,竹塘,2023-10-24,23.848253,120.386764,0.9983045
467590,恆春,2023-10-24,22.003897,120.746339,0.10039273
C1O850,環湖,2023-10-24,23.148617,120.418633,0.0013684827
C0U710,太平山,2023-10-24,24.505486,121.525656,1.2437367e-08
C0E820,獅潭,2023-10-24,24.539133,120.920042,0.99989486
C0V880,興達,2023-10-24,22.8778,120.2127,0.47189483
C0S890,關山,2023-10-24,23.0395,121.175017,2.7066126e-06
K2F750,種苗繁殖,2023-10-24,24.225972,120.800917,0.12595153
C1Z130,銅門,2023-10-24,23.965694,121.492842,0.03887528
C0AD40,土城,2023-10-24,24.973208,121.445169,0.75295407
CAN140,六官養殖協會,2023-10-24,23.22881,120.29962,0.27025795
C0X180,山上,2023-10-24,23.0757,120.363253,0.0001571958
C0F9Z0,雪山東峰,2023-10-24,24.388792,121.268675,1.1853499e-08
C1M480,獨立山,2023-10-24,23.537022,120.607797,8.7082235e-09
C0X220,學甲,2023-10-24,23.230367,120.182187,0.4715854
C0R170,屏東,2023-10-24,22.660269,120.494072,0.089840196
467650,日月潭,2023-10-24,23.881325,120.90805,1.2445388e-08
C0K600,箔子寮,2023-10-24,23.6197,120.14,0.28347602
C0G830,埤頭,2023-10-24,23.866003,120.452806,0.99930716
C0S950,七塊厝,2023-10-24,22.954453,121.229922,8.825257e-08
467110,金門,2023-10-24,24.407306,118.289281,0.9948935
C0AH80,深坑,2023-10-24,25.002703,121.628328,0.8620009
467990,馬祖,2023-10-24,26.169269,119.923419,0.85596263
C0A970,三貂角,2023-10-24,25.007606,122.002058,0.99603957
C0K430,褒忠,2023-10-24,23.690938,120.303634,0.9992987
467480,嘉義,2023-10-24,23.495925,120.432906,0.99758625
C2E540,後龍,2023-10-24,24.606489,120.783933,0.9538176
C0V400,阿公店,2023-10-24,22.804194,120.355528,0.3065575
C0R440,大漢山,2023-10-24,22.405264,120.753181,1.6761824e-07
C0K280,四湖,2023-10-24,23.630414,120.227125,0.3429334
C1F9B1,桐林,2023-10-24,24.066172,120.735194,0.9987447
C0K390,土庫,2023-10-24,23.679029,120.395574,0.99840677
C1I450,望鄉山,2023-10-24,23.594153,120.944286,9.6981365e-09
C0E910,海埔,2023-10-24,24.648767,120.772435,0.956225
B2E890,畜試北區分所,2023-10-24,24.527806,120.770972,0.940362
C0R750,四林格山,2023-10-24,22.076989,120.802439,0.9560693
C0F0C0,中坑,2023-10-24,24.248517,120.903319,2.0428603e-09
C1I121,大鞍,2023-10-24,23.678381,120.760017,4.7573994e-09
72U480,花改蘭陽分場,2023-10-24,24.686306,121.716583,0.03658989
C0A770,科教館,2023-10-24,25.096356,121.516507,0.9984666
C0AJ60,六塊厝,2023-10-24,25.24,121.4481,0.18838418
C0R620,墾雷,2023-10-24,21.900836,120.855269,0.99886954
467420,永康,2023-10-24,23.038386,120.2367,0.0009760811
467300,東吉島,2023-10-24,23.25695,119.667467,0.9998413
C0I410,名間,2023-10-24,23.837053,120.701447,0.90849996
A2C560,農工中心,2023-10-24,24.985917,121.239833,0.13334364
C0V740,旗山,2023-10-24,22.888614,120.483597,0.44218707
C0Z061,玉里,2023-10-24,23.3215,121.339656,1.6306902e-07
C0S840,南田,2023-10-24,22.279725,120.889208,0.114101484
C1I470,杉林溪,2023-10-24,23.639517,120.786444,5.0421733e-09
C1X040,東原,2023-10-24,23.291597,120.463822,3.9404465e-05
C0R660,枋寮,2023-10-24,22.367722,120.590647,0.5385148
C1R120,上德文,2023-10-24,22.763272,120.704442,1.7746815e-07
C0K450,大埤,2023-10-24,23.646074,120.431537,0.84992933
C0UA00,土場,2023-10-24,24.576533,121.495333,2.5108948e-06
467080,宜蘭,2023-10-24,24.763975,121.756528,0.09353714
C0N030,四草,2023-10-24,23.0235,120.1116,0.9434071
C0V650,彌陀,2023-10-24,22.783806,120.246361,0.008000409
C0D660,新竹市東區,2023-10-24,24.798681,120.986942,0.9948179
82S580,茶改東部分場,2023-10-24,22.907694,121.130139,0.1524512
C0C710,大溪永福,2023-10-24,24.892936,121.324975,0.09418164
C0FA20,溫寮,2023-10-24,24.372177,120.583125,0.19688642
C0V640,湖內,2023-10-24,22.887139,120.2445,0.48209518
C0R910,下寮,2023-10-24,22.3929,120.5548,0.5385148
C0Z020,明里,2023-10-24,23.208717,121.262342,1.4206271e-06
C0M770,嘉義梅山,2023-10-24,23.585398,120.555587,0.5451804
G2F820,農業試驗所,2023-10-24,24.031261,120.688133,0.99517447
C0C660,楊梅,2023-10-24,24.912375,121.143047,0.1601853
C1E511,新開,2023-10-24,24.347703,120.827019,0.99873096
G2F820,農試所(霧峰),2023-10-24,24.031261,120.688133,0.99517447
C1I070,和社,2023-10-24,23.591131,120.888861,2.1248296e-07
C2F000,大肚,2023-10-24,24.15295,120.572117,0.9993258
C1S850,豐南,2023-10-24,23.122139,121.262389,2.4468788e-08
C2A920,富貴角,2023-10-24,25.263783,121.565258,0.43019247
CAH030,茶改場竹圍站,2023-10-24,23.860083,120.637528,3.8360977e-06
C0T960,光復,2023-10-24,23.660694,121.424964,3.5240486e-05
C0F9M0,豐原,2023-10-24,24.254322,120.720692,0.99950194
C0R720,旭海,2023-10-24,22.205403,120.887614,0.33674106
C0V710,苓雅,2023-10-24,22.622742,120.330669,0.012744793
C0C740,觀音工業區,2023-10-24,25.064764,121.114856,0.99753326
CAC040,拉拉山,2023-10-24,24.699317,121.427133,1.9514323e-08
C0V790,萬山,2023-10-24,22.905944,120.688056,4.6942852e-05
U2HA30,臺大和社,2023-10-24,23.590856,120.888864,2.1248296e-07
C0AJ90,澳底,2023-10-24,25.0552,121.9253,0.7991094
C0Z100,東華,2023-10-24,23.89525,121.549833,0.03838616
C0G970,三豐,2023-10-24,23.882,120.2895,0.34640914
V2K610,大庄合作社,2023-10-24,23.8068,120.367939,0.9991934
C0V900,汕尾,2023-10-24,22.4782,120.4151,0.07382894
C1R630,龍泉,2023-10-24,22.66701,120.59091,0.5320183
C1AC50,關渡,2023-10-24,25.133486,121.469331,0.9990926
C0F9I0,神岡,2023-10-24,24.272481,120.658314,0.9993984
C0K460,斗南,2023-10-24,23.678734,120.478359,0.81551135
467410,臺南,2023-10-24,22.993239,120.204772,0.92546135
C2O810,曾文,2023-10-24,23.219681,120.497328,0.00027276456
467280,後龍,2023-10-24,24.648563,120.831834,0.94512236
C1F9J1,清水林,2023-10-24,24.071242,120.820419,2.7762106e-09
C2A650,火燒寮,2023-10-24,25.002719,121.742892,0.9984297
466930,竹子湖,2023-10-24,25.162078,121.544547,0.00028826407
C1I220,樟湖,2023-10-24,23.905333,120.846983,3.8530783e-09
C0I390,仁愛,2023-10-24,24.022122,121.132206,1.6743259e-09
C0Z300,東里,2023-10-24,23.26853,121.30547,1.0309071e-05
C0V310,美濃,2023-10-24,22.898742,120.519153,0.48134777
C1V590,新發,2023-10-24,23.057019,120.646064,5.030312e-08
C0K510,水林,2023-10-24,23.572924,120.24597,0.999307
72S590,東改賓朗果園,2023-10-24,22.813889,121.071278,0.050521594
82A750,茶改北部分場,2023-10-24,24.955778,121.631222,0.99697703
C1A750,石碇服務區,2023-10-24,25.00872,121.646242,0.9892966
C0X300,鹿寮,2023-10-24,23.386047,120.477331,0.566816
G2AI50,關渡,2023-10-24,25.11575,121.492,0.32087368
C0K590,雲林東勢,2023-10-24,23.674192,120.255721,0.9994091
C0A570,桶後,2023-10-24,24.848222,121.597992,0.24150477
C1S800,華源,2023-10-24,22.657883,121.02325,0.99298203
C0G720,溪州,2023-10-24,23.851589,120.499093,0.9992801
C1V160,達卡努瓦,2023-10-24,23.279811,120.705319,1.1876605e-08
C2M410,馬頭山,2023-10-24,23.324361,120.582017,1.0297103e-06
C0V850,蚵仔寮,2023-10-24,22.7256,120.2527,0.13180391
C0S740,池上,2023-10-24,23.119628,121.209469,0.6382849
C1V390,尖山,2023-10-24,22.813153,120.367789,0.11177678
C0AH70,松山,2023-10-24,25.04871,121.55042,0.9985096
C0N010,鯤鯓國小,2023-10-24,23.1879,120.0889,0.6669456
C0R550,新埤,2023-10-24,22.467947,120.582894,0.08314962
C0SA60,知本（水試所）,2023-10-24,22.702394,121.082761,0.9959061
C0T9I0,豐濱,2023-10-24,23.583897,121.514806,7.436097e-05
C0UB00,淡江大學蘭陽校園,2023-10-24,24.823239,121.730383,0.05182646
C0T9N0,富里,2023-10-24,23.171639,121.249378,0.093194574
U2HA50,臺大竹山,2023-10-24,23.756972,120.681556,0.38483745
C0V840,鳳鼻頭,2023-10-24,22.5083,120.3591,0.15438703
C0X140,西港,2023-10-24,23.125608,120.203108,0.020914366
72D080,桃改五峰分場,2023-10-24,24.612194,121.157167,2.1588844e-09
C0V530,阿蓮,2023-10-24,22.883208,120.327508,0.00036611056
C1O880,關山,2023-10-24,23.173397,120.594092,6.297972e-07
C0E791,卓蘭,2023-10-24,24.3126,120.8244,0.99958205
C1I030,武界,2023-10-24,23.913225,121.052483,6.3911054e-09
C0R520,崁頂,2023-10-24,22.514781,120.506914,0.40504044
C0R341,牡丹,2023-10-24,22.130036,120.792639,0.8915808
C0R930,萬丹,2023-10-24,22.5885,120.4851,0.10557018
C0S760,紅石,2023-10-24,23.069131,121.126219,5.008589e-08
C1M610,石磐龍,2023-10-24,23.496606,120.663506,1.8217612e-08
C0UA10,鴛鴦湖,2023-10-24,24.590269,121.412228,6.29262e-09
V2C260,八德蔬果,2023-10-24,24.978508,121.281819,0.20065798
C0R800,丹路,2023-10-24,22.204481,120.750989,0.33394837
C0G920,永靖,2023-10-24,23.924703,120.547533,0.99895835
C1A630,下盆,2023-10-24,24.771003,121.538622,6.264899e-08
B2N890,畜產試驗所,2023-10-24,23.058972,120.336406,8.0589225e-06
C0UA30,白嶺,2023-10-24,24.527819,121.519031,1.1826083e-08
C1V580,溪南(特生中心),2023-10-24,23.084972,120.788475,1.4168203e-08
C1T970,大農,2023-10-24,23.615233,121.413331,6.422026e-06
E2S960,林試太麻里2,2023-10-24,22.598014,120.989761,0.99826884
C0R650,竹田,2023-10-24,22.58486,120.54344,0.717766
C1H900,清流,2023-10-24,24.080775,120.962997,2.1844908e-09
C1C510,水尾,2023-10-24,24.940081,121.087161,0.995232
C0F9X0,大雅(中科園區),2023-10-24,24.21528,120.62445,0.9991878
C0O970,虎頭埤,2023-10-24,23.021375,120.347878,6.571045e-05
C0C730,中大臨海站,2023-10-24,24.966126,121.008581,0.9934305
C0X250,新營,2023-10-24,23.310689,120.316681,0.8840756
C0V700,三民,2023-10-24,22.645017,120.311233,0.055782326
C0U870,大礁溪,2023-10-24,24.791042,121.675047,1.2649387e-07
C0E870,高鐵苗栗,2023-10-24,24.60725,120.826094,0.9480285
A2K570,古坑花卉中心,2023-10-24,23.63353,120.55239,0.82296324
C0M860,新美,2023-10-24,23.338017,120.683169,1.9380419e-08
C1E701,八卦,2023-10-24,24.491756,120.927619,1.1740835e-08
C0I420,國姓,2023-10-24,24.037803,120.855072,1.0851327e-05
C0S960,香蘭,2023-10-24,22.587569,120.993375,0.99826884
C0R260,春日,2023-10-24,22.370361,120.628306,0.8541808
72G600,臺中農改場,2023-10-24,24.003028,120.534389,0.9982407
C0Z210,瑞穗,2023-10-24,23.5239,121.39021,0.0016006297
C0M820,達邦,2023-10-24,23.453994,120.749517,1.5095328e-08
C0V860,南寮,2023-10-24,22.7616,120.2339,0.13189904
C0G740,大城,2023-10-24,23.852487,120.320935,0.38194197
C0R920,塭仔,2023-10-24,22.4169,120.5197,0.48747018
C0R470,高樹,2023-10-24,22.826389,120.600806,0.28950176
C0R680,佳樂水,2023-10-24,21.993578,120.861633,0.46026182
C1O870,大棟山,2023-10-24,23.31157,120.52226,3.8683656e-09
C0D360,梅花,2023-10-24,24.678347,121.208558,0.32718998
C0Z190,富世,2023-10-24,24.14743,121.6297,0.98266846
C0AI10,屈尺,2023-10-24,24.92184,121.54475,0.072129466
B2U990,畜試東區分所,2023-10-24,24.669039,121.832561,0.0003773385
C0R240,來義,2023-10-24,22.527306,120.625111,0.24421376
C1R610,西大武山,2023-10-24,22.617719,120.7322,4.463177e-08
C0G900,線西,2023-10-24,24.143358,120.443536,0.65899915
C0M700,竹崎,2023-10-24,23.526178,120.555508,0.05030467
C2E880,三義,2023-10-24,24.405478,120.749819,1.3043518e-07
C0C720,竹圍,2023-10-24,25.112692,121.239824,0.32090428
C0F9P0,清水,2023-10-24,24.312297,120.562242,0.25479594
C0Z150,吉安光華,2023-10-24,23.930925,121.595153,0.9796003
C1D640,外坪(五指山),2023-10-24,24.644447,121.090961,4.0193672e-08
C0F9O0,潭子,2023-10-24,24.213106,120.703933,0.99835515
72T250,花蓮農改場,2023-10-24,23.975222,121.563889,0.9864445
C0E780,銅鑼,2023-10-24,24.489681,120.790853,0.9948502
C1T950,太安,2023-10-24,23.666719,121.370128,2.8897492e-07
C0E830,苑裡,2023-10-24,24.439714,120.653053,0.30439934
467270,田中,2023-10-24,23.873803,120.581286,0.99499613
C0SA10,檳榔四格山,2023-10-24,22.810031,121.109308,0.0009578454
C1T830,布洛灣,2023-10-24,24.17184,121.57127,0.03305936
C0F970,大坑,2023-10-24,24.173142,120.722289,0.99860114
C1U920,思源,2023-10-24,24.393125,121.347214,9.730562e-09
C0A931,三和,2023-10-24,25.233153,121.595236,0.997508
C0I010,廬山,2023-10-24,24.033311,121.181808,1.6517984e-09
C0R860,鼻頭,2023-10-24,22.1043,120.8979,0.70797735
C0UB20,壯圍,2023-10-24,24.7359,121.8163,0.086384185
C0R790,九棚,2023-10-24,22.14195,120.889281,0.86623776
C0W110,東莒,2023-10-24,25.9652,119.98069,0.9174178
C1U930,粉鳥林,2023-10-24,24.497088,121.842479,0.89977616
C1I211,蘆竹湳,2023-10-24,23.934019,120.811994,7.500131e-09
C0S830,長濱,2023-10-24,23.286817,121.411975,3.9085133e-08
C1F9F1,伯公龍,2023-10-24,24.272392,120.849047,0.3318893
C0E810,西湖,2023-10-24,24.562947,120.7485,0.9990271
C1I440,新高口,2023-10-24,23.478744,120.878939,7.302213e-09
C0O840,王爺宮,2023-10-24,23.222064,120.40085,3.2798819e-06
C0T9G0,鳳林山,2023-10-24,23.735269,121.420131,5.098311e-09
C0X080,佳里,2023-10-24,23.173039,120.145086,0.6669456
C0Z310,清水斷崖,2023-10-24,24.218294,121.689142,2.554474e-07
C0M680,太保,2023-10-24,23.455062,120.331455,0.9981924
C1S820,金峰,2023-10-24,22.590969,120.933236,0.9993043
C0AD10,八里,2023-10-24,25.150211,121.403947,0.32090428
C2K240,草嶺,2023-10-24,23.59555,120.693461,2.8606149e-08
C1SA70,都蘭,2023-10-24,22.87794,121.226881,0.8715317
C0K440,二崙,2023-10-24,23.772797,120.408944,0.99882376
C1A760,坪林交控,2023-10-24,24.94284,121.713442,0.9966432
C0F9N0,大里,2023-10-24,24.092464,120.701378,0.99895775
C0SA90,達仁林場,2023-10-24,22.264347,120.823972,0.9979051
C1R290,石門山,2023-10-24,22.112611,120.756597,0.89301175
42HA10,萬大發電廠,2023-10-24,23.978875,121.139639,2.9999676e-09
C0R890,山海,2023-10-24,21.9878,120.7091,0.794267
C0T9A0,月眉山,2023-10-24,23.809928,121.539828,5.577165e-09
C0AC70,信義,2023-10-24,25.037822,121.564597,0.99851966
C0K560,棋山,2023-10-24,23.68645,120.603417,0.7578105
C1Z240,中平林道,2023-10-24,23.42115,121.26763,3.797409e-07
U2H480,溪頭,2023-10-24,23.670306,120.798194,9.777482e-09
C0M880,好美里,2023-10-24,23.3364,120.138,0.97829115
C0T9E0,大坑,2023-10-24,23.880628,121.581981,1.5723176e-08
C0K530,臺西,2023-10-24,23.701547,120.197559,0.30800867
C1E900,國一N128K,2023-10-24,24.560997,120.844186,0.27198535
C0AJ50,水湳洞,2023-10-24,25.123695,121.862238,0.29289973
C0AI20,白沙灣,2023-10-24,25.283128,121.519058,0.18204351
C0A860,大坪,2023-10-24,25.165914,121.632969,0.90957487
C1U850,觀音海岸,2023-10-24,24.38319,121.77856,1.3057938e-08
C0U950,鶯子嶺,2023-10-24,24.89754,121.79244,5.7114366e-06
C0O900,善化,2023-10-24,23.112883,120.297219,3.9690374e-05
C0K550,蔦松,2023-10-24,23.514319,120.229736,0.99887
E2P980,林試六龜中心,2023-10-24,22.991703,120.645722,2.8542838e-05
C0E590,通霄,2023-10-24,24.471892,120.704622,0.3311043
C1I310,西巒,2023-10-24,23.754486,120.883956,1.9708524e-09
C0A550,泰平,2023-10-24,24.971197,121.823711,0.9851525
C0I360,水里,2023-10-24,23.812553,120.849792,0.0013388258
C0R830,高士,2023-10-24,22.121825,120.836781,0.8860041
C1I101,溪頭,2023-10-24,23.661789,120.807647,4.4515103e-09
C0AJ20,野柳,2023-10-24,25.20703,121.690021,0.9744942
C0B060,暖暖,2023-10-24,25.0957,121.7403,0.9797708
C1H920,長豐,2023-10-24,24.102039,120.879897,3.7723242e-09
C0V360,內門,2023-10-24,22.975481,120.466769,0.003311102
C0R850,林邊,2023-10-24,22.4634,120.5339,0.07961805
C0E930,龍鳳,2023-10-24,24.700034,120.859125,0.9975861
C0U910,冬山,2023-10-24,24.63373,121.7937,0.00037733887
C1E721,泰安,2023-10-24,24.489017,120.968036,2.0864963e-09
82H320,茶改中部分場,2023-10-24,23.875611,120.913583,3.5940012e-08
C0M750,布袋,2023-10-24,23.380878,120.167789,0.9977268
C1S860,利嘉,2023-10-24,22.809417,121.050528,6.0518977e-07
72C440,桃園農改,2023-10-24,24.950944,121.030583,0.9962897
E2S980,林試太麻里1,2023-10-24,22.598922,120.980044,0.9991905
C0X170,關廟,2023-10-24,22.963017,120.327797,0.0004926477
C0V720,林園,2023-10-24,22.507747,120.394511,0.13413641
C1I510,線浸林道,2023-10-24,23.761508,120.832956,3.76635e-09
C0D690,外湖,2023-10-24,24.917735,120.968711,0.99706364
C0C750,新興坑尾,2023-10-24,25.0061,121.0971,0.99011195
B2Q810,畜試南區分所,2023-10-24,21.945583,120.802167,0.4804024
C0S790,金崙,2023-10-24,22.538122,120.966875,0.999466
C0AH90,福山植物園,2023-10-24,24.760717,121.58135,2.2600646e-07
C0I540,奇萊稜線,2023-10-24,24.109231,121.326456,1.36680365e-08
C0M850,表湖,2023-10-24,23.24186,120.64166,2.9180983e-08
C0S770,大溪山,2023-10-24,22.478475,120.943325,0.9994524
C0AG80,中和,2023-10-24,24.991622,121.491792,0.75295407
C0T790,大禹嶺,2023-10-24,24.186117,121.316086,4.1438066e-09
C0T9B0,水源,2023-10-24,23.991861,121.537169,7.68069e-08
C0R840,牡丹池山,2023-10-24,22.168389,120.841225,0.98829323
C1I131,桶頭,2023-10-24,23.641944,120.654117,0.00036116302
CAL110,布袋國中,2023-10-24,23.35893,120.18026,0.9977268
467571,新竹,2023-10-24,24.827853,121.014219,0.99705887
C0Z290,赤柯山,2023-10-24,23.36893,121.38293,2.7054275e-08
C0X280,將軍,2023-10-24,23.214999,120.13577,0.56189334
C0S690,太麻里,2023-10-24,22.60902,120.98533,1.2942624e-05
C0U880,北關,2023-10-24,24.9072,121.8734,0.9962922
C1H860,瑞岩,2023-10-24,24.123772,121.18345,2.663574e-09
C0G810,埔心,2023-10-24,23.947633,120.525456,0.99895835
C0U970,大福,2023-10-24,24.80064,121.81389,0.10438164
C1E670,南礦,2023-10-24,24.538278,121.002836,1.4030561e-09
C0M520,東後寮,2023-10-24,23.369908,120.248065,0.99752927
C1E461,松安,2023-10-24,24.397972,120.986022,2.1537638e-09
72G600,臺中農改,2023-10-24,24.003028,120.534389,0.9982407
C2N160,西拉雅風管處,2023-10-24,23.189481,120.335297,2.4351371e-05
C0A640,石碇,2023-10-24,24.993969,121.662917,0.9961718
E2S960,林試太麻里2,2023-10-24,22.598,120.99775,0.9980112
C0F9Y0,桃山,2023-10-24,24.432739,121.303808,1.175262e-08
C1I020,萬大,2023-10-24,23.979817,121.132261,1.6471515e-09
C0U940,羅東,2023-10-24,24.68184,121.74934,0.04747901
C0M650,朴子,2023-10-24,23.43463,120.23902,0.99873126
C1I500,大尖山,2023-10-24,23.858572,120.994889,5.8612293e-09
C0G820,田尾,2023-10-24,23.901669,120.509389,0.99895835
E2K600,四湖植物園,2023-10-24,23.676986,120.163433,0.34293333
C0S730,綠島,2023-10-24,22.6672,121.47533,0.97778505
12Q970,東港工作站,2023-10-24,22.479997,120.466058,0.07382894
C0E430,南庄,2023-10-24,24.601775,121.000214,0.9998961
C1TA00,太魯閣,2023-10-24,24.15773,121.6236,0.88087386
466920,臺北,2023-10-24,25.037658,121.514853,0.9985096
C0R600,舊泰武,2023-10-24,22.588194,120.664944,3.2736676e-08
C1I260,北坑,2023-10-24,23.9246,121.006903,5.321839e-09
466910,鞍部,2023-10-24,25.182586,121.529731,1.6042899e-06
C1I230,九份二山,2023-10-24,23.961944,120.845,1.2257488e-08
C2A660,瑞芳,2023-10-24,25.113169,121.801147,0.8474415
C0R270,琉球嶼,2023-10-24,22.332244,120.362236,6.267869e-05
C1T990,高寮,2023-10-24,23.394239,121.356808,5.71791e-07
C0G620,芬園,2023-10-24,24.015678,120.6213,0.9823832
C1Z140,荖溪,2023-10-24,23.890575,121.45964,6.989547e-08
C1I201,中心崙,2023-10-24,23.728722,120.712097,9.366504e-09
C1I400,凌霄,2023-10-24,24.018778,121.004456,1.4821572e-09
C1M640,十字,2023-10-24,23.492153,120.753683,9.487892e-09
G2P820,農試鳳山分所,2023-10-24,22.646611,120.356083,0.04472582
C0Z270,蕃薯寮,2023-10-24,23.73835,121.540108,1.5210414e-08
C0F9Q0,外埔,2023-10-24,24.347817,120.705686,0.99944365
C0K580,高鐵雲林,2023-10-24,23.737456,120.417944,0.99626154
C2I090,鳳凰,2023-10-24,23.728081,120.787347,3.6847274e-09
C0U990,員山,2023-10-24,24.74435,121.72247,0.06805105
C0V770,大社,2023-10-24,22.730306,120.346639,0.10928984
C0X120,麻豆,2023-10-24,23.183289,120.248611,0.00050851604
C0C670,龍潭,2023-10-24,24.870056,121.221389,0.6026036
C0D680,香山濕地,2023-10-24,24.783581,120.914988,0.995889
C0S980,勝林山,2023-10-24,22.430439,120.8938,0.008832214
C0V730,大寮,2023-10-24,22.605614,120.395717,0.010289166
C0R570,麟洛,2023-10-24,22.65078,120.52719,0.089401715
CAG100,王功漁港,2023-10-24,23.96824,120.32586,0.4620874
C0X290,北門,2023-10-24,23.267772,120.125481,0.56189334
C2F930,大甲,2023-10-24,24.347667,120.640403,0.30126393
C0D650,湖口,2023-10-24,24.904794,121.043628,0.9955683
C0E420,竹南,2023-10-24,24.708978,120.888897,0.99764407
C0U780,五結,2023-10-24,24.68637,121.79794,0.086384185
C1I250,鯉潭,2023-10-24,23.961922,120.991131,3.3015528e-08
C0R130,阿禮,2023-10-24,22.742908,120.743678,2.6152925e-08
C0X100,臺南市北區,2023-10-24,23.010394,120.194228,0.9573725
C0S920,金峰嘉蘭,2023-10-24,22.594789,120.960825,0.99924475
C0V490,新興,2023-10-24,22.627422,120.298803,0.012744793
C0F9K0,大安,2023-10-24,24.345061,120.588025,0.20289615
72N100,臺南農改,2023-10-24,23.0605,120.342194,8.0589225e-06
467290,古坑,2023-10-24,23.633639,120.551889,0.82296324
C0V440,鳳山,2023-10-24,22.646653,120.356122,0.04472582
C1T940,大觀,2023-10-24,23.714206,121.373133,6.5682104e-09
72T250,花蓮農改,2023-10-24,23.975222,121.563889,0.9864445
C0E740,造橋,2023-10-24,24.637056,120.864778,0.9480285
C0R100,尾寮山,2023-10-24,22.833111,120.683889,4.917301e-08
A2K630,臺大雲林校區,2023-10-24,23.730628,120.423903,0.99626154
C0D580,寶山,2023-10-24,24.735006,121.025192,0.9954138
E2P990,林試扇平站,2023-10-24,22.9677,120.6857,3.0132398e-07
C0AI30,三重,2023-10-24,25.057328,121.500629,0.9984666
C0AH00,汐止,2023-10-24,25.066881,121.658778,0.9985096
C1Z040,立山,2023-10-24,23.443356,121.327375,1.3861428e-07
C0R740,獅子,2023-10-24,22.201569,120.70525,0.28106532
C0W130,花嶼,2023-10-24,23.40007,119.32276,0.9954804
C0A950,鼻頭角,2023-10-24,25.129036,121.923372,0.7303688
C0K470,林內,2023-10-24,23.748675,120.609642,0.8607161
82C160,茶改場,2023-10-24,24.908472,121.185333,0.16045389
C0Z320,清水林道,2023-10-24,23.27125,121.188272,9.121009e-08
C0R760,南仁湖,2023-10-24,22.084681,120.863353,0.89301175
C0M670,大林,2023-10-24,23.600616,120.45841,0.95697963
C0M800,茶山,2023-10-24,23.299075,120.664767,9.108474e-08
C0A9C0,天母,2023-10-24,25.117494,121.537169,0.99867207
72K220,南改斗南分場,2023-10-24,23.634556,120.477333,0.8188771
72AI40,桃改樹林分場,2023-10-24,24.944503,121.386972,0.20705777
C0S910,蘭嶼燈塔,2023-10-24,22.081197,121.503117,0.99980485
C0B050,八斗子,2023-10-24,25.144754,121.79167,0.20993528
C0U900,內城,2023-10-24,24.71813,121.68766,0.018381577
C0X320,柳營,2023-10-24,23.253328,120.375253,0.010384893
C0M790,新港,2023-10-24,23.553269,120.345728,0.9991053
C0F9T0,西屯,2023-10-24,24.179494,120.641275,0.9989449
C0SA30,都歷,2023-10-24,23.020333,121.323642,0.017377935
C0C620,蘆竹,2023-10-24,25.084275,121.265767,0.17820412
C0R730,大坪頂,2023-10-24,22.024633,120.69355,0.2941385
C0AJ40,石門,2023-10-24,25.273672,121.601198,0.29087794
C0E750,苗栗,2023-10-24,24.564569,120.824575,0.2673371
C0T870,鯉魚潭,2023-10-24,23.935639,121.508944,0.26161793
C1V170,排雲,2023-10-24,23.463619,120.954147,1.7484988e-08
C2H950,中寮,2023-10-24,23.884447,120.766406,0.63304496
C0R350,貓鼻頭,2023-10-24,21.921774,120.7358,0.9915057
C0V660,岡山,2023-10-24,22.797078,120.294958,0.008000417
C1H941,雙冬,2023-10-24,23.967378,120.802189,4.6931667e-09
C0AJ70,田寮,2023-10-24,25.2698,121.4886,0.18499537
C0AI00,五股,2023-10-24,25.07445,121.42728,0.56004924
C0Z280,德武,2023-10-24,23.47426,121.41071,5.2240324e-07
C0R700,枋山,2023-10-24,22.246844,120.661086,0.04612667
C0C460,復興,2023-10-24,24.820208,121.352281,0.9919899
E2H360,蓮華池,2023-10-24,23.918333,120.885278,3.0688907e-09
C0M640,中埔,2023-10-24,23.42538,120.5229,0.1011857
C0W140,金沙,2023-10-24,24.488292,118.408778,0.97058505
C2A540,四堵,2023-10-24,24.8926,121.745736,0.9780706
C0ACA0,新莊,2023-10-24,25.051478,121.446756,0.9851805
C0R220,潮州,2023-10-24,22.534361,120.54,0.40300703
U2HA40,臺大內茅埔,2023-10-24,23.689722,120.851117,3.69528e-06
467490,臺中,2023-10-24,24.145736,120.684075,0.998019
C0U960,翠峰湖,2023-10-24,24.510856,121.608044,1.3796825e-08
E2HA20,林試畢祿溪站,2023-10-24,24.226944,121.308522,3.7347525e-09
C0V890,前鎮,2023-10-24,22.5718,120.3117,0.016624175
467620,蘭嶼,2023-10-24,22.036969,121.558339,0.9996751
C1F941,雪嶺,2023-10-24,24.280586,121.026642,9.533533e-09
C0AC80,文山,2023-10-24,25.00235,121.575728,0.86183864
C0F9R0,龍井,2023-10-24,24.184536,120.528972,0.38493443
C0M760,民雄,2023-10-24,23.551754,120.428457,0.9731037
C0UA40,西德山,2023-10-24,24.560647,121.752608,5.730808e-09
C1T920,中興,2023-10-24,23.769503,121.498653,6.371554e-05
C0D550,雪霸,2023-10-24,24.526972,121.11605,3.7131809e-09
C2F860,梨山,2023-10-24,24.247522,121.243669,3.874184e-09
C0R320,車城,2023-10-24,22.0744,120.716247,0.09327015
C1S870,南美山,2023-10-24,23.15025,121.382333,0.15688854
C0B020,基隆嶼,2023-10-24,25.19141,121.78391,0.9293269
C1U501,牛鬥,2023-10-24,24.637836,121.573656,1.5144518e-07
C0M730,嘉義市東區,2023-10-24,23.457673,120.460531,0.9842185
C0S700,知本,2023-10-24,22.684866,121.005642,6.39415e-07
C1N001,沙崙,2023-10-24,22.935472,120.309406,0.0009861314
C0V760,橋頭,2023-10-24,22.757806,120.30575,0.11745644
C0G960,福寶,2023-10-24,24.0443,120.3814,0.84263057
C0X210,白河,2023-10-24,23.347466,120.414427,0.92362225
C0S810,東河,2023-10-24,22.972672,121.303986,0.13466673
C0R670,楓港,2023-10-24,22.190131,120.692156,0.14243084
C0FA50,霧峰,2023-10-24,24.0419,120.6995,0.99354976
C0UB10,蘇澳,2023-10-24,24.5969,121.8571,1.5358399e-05
C0G950,防潮門,2023-10-24,24.1835,120.4871,0.38493443
C0M740,六腳,2023-10-24,23.492871,120.290625,0.998996
C1R250,力里,2023-10-24,22.428117,120.629228,0.469883
C0K330,虎尾,2023-10-24,23.719183,120.442036,0.99607307
C2FA00,烏石坑,2023-10-24,24.273503,120.947617,2.85206e-09
C0V620,永安,2023-10-24,22.82315,120.236856,0.008000409
C1I330,楓樹林,2023-10-24,23.986803,121.076117,1.5205851e-09
C0W200,湖西,2023-10-24,23.596314,119.67275,0.99961317
72Q010,高雄農改場,2023-10-24,22.709333,120.525889,0.19702779
C0SA40,瑞和,2023-10-24,22.974361,121.156697,0.0006175628
C0C680,龜山,2023-10-24,25.02846,121.38656,0.83733165
C2V260,月眉,2023-10-24,22.971003,120.539853,0.041845046
C0V450,鳳森,2023-10-24,22.545064,120.392592,0.039191872
C0U720,南山,2023-10-24,24.43742,121.38167,1.5846494e-08
A2N290,臺南蘭花園區,2023-10-24,23.340258,120.379661,0.9727683
C0R560,新園,2023-10-24,22.5434,120.461558,0.13413641
C0U890,三星,2023-10-24,24.66812,121.65302,0.0001138398
C1V300,御油山,2023-10-24,23.001983,120.715364,1.3168563e-08
C0U600,礁溪,2023-10-24,24.817539,121.765608,0.97550094
C1T980,龍澗,2023-10-24,24.023289,121.411328,5.9429482e-08
C0D670,海天一線,2023-10-24,24.831986,120.914438,0.8626568
C0SA00,歷坵,2023-10-24,22.520969,120.89185,0.26019996
C0M710,東石,2023-10-24,23.458927,120.15385,0.99457186
C0M780,鹿草,2023-10-24,23.41134,120.30835,0.99841094
C0U520,雙連埤,2023-10-24,24.753033,121.641303,1.2169636e-07
C0B010,七堵,2023-10-24,25.094819,121.71713,0.968294
C0R480,長治,2023-10-24,22.693128,120.542622,0.022049213
C1V830,國三S383K,2023-10-24,22.781967,120.426475,0.077784605
12Q980,恆春工作站,2023-10-24,22.079678,120.714425,0.09327015
C1O940,東山服務區,2023-10-24,23.286016,120.398472,0.8844739
C1U840,東澳嶺,2023-10-24,24.5378,121.8485,3.456256e-09
C1D630,飛鳳山,2023-10-24,24.766464,121.119178,0.99888897
C0S940,石寧山,2023-10-24,23.223772,121.406639,6.884843e-05
C0K410,北港,2023-10-24,23.573957,120.292802,0.9993212
C2M620,瑞里,2023-10-24,23.545133,120.675197,1.4030274e-08
C2O950,安南,2023-10-24,23.076694,120.144861,0.9511734
C0F0E0,南湖圈谷,2023-10-24,24.363714,121.444667,2.6048927e-08
467610,成功,2023-10-24,23.097486,121.373428,0.8217651
C0G890,伸港,2023-10-24,24.148933,120.484403,0.65899915
C2E540,龍溪,2023-10-24,24.606489,120.783933,0.9538176
C1V200,梅山,2023-10-24,23.268447,120.823556,1.263839e-07
C0T9H0,加路蘭山,2023-10-24,23.682947,121.5274,6.9726065e-09
C2O930,玉井,2023-10-24,23.126042,120.46055,0.0001571958
C1F911,新伯公,2023-10-24,24.221361,120.841069,0.68281615
C0R490,九如,2023-10-24,22.7405,120.490503,0.21328317
C0X200,左鎮,2023-10-24,23.056758,120.408522,8.6423875e-05
C1F891,稍來,2023-10-24,24.265689,121.001142,7.664252e-09
72N240,七股研究中心,2023-10-24,23.081672,120.062894,0.9473431
C0C700,中壢,2023-10-24,24.977661,121.256375,0.21327989
C0M690,水上,2023-10-24,23.419734,120.388909,0.9981368
C0V690,鼓山,2023-10-24,22.623325,120.275575,0.012744793
C0O860,大內,2023-10-24,23.11885,120.36083,1.4572676e-05
C0Z200,萬榮,2023-10-24,23.709219,121.420106,1.9350854e-07
C0T9D0,和中,2023-10-24,24.26676,121.74103,0.95879817
C1O921,楠西,2023-10-24,23.183511,120.484083,0.0006407779
C0AJ30,淡水觀海,2023-10-24,25.184591,121.408616,0.10934482
C0V810,左營,2023-10-24,22.67491,120.28491,0.055782326
C0UA70,桃源谷,2023-10-24,24.962606,121.888875,0.79758847
C0X130,官田,2023-10-24,23.193217,120.315422,3.7293605e-05
C1H000,翠峰,2023-10-24,24.109397,121.205211,6.2875216e-09
C0UA90,石城,2023-10-24,24.980444,121.951214,0.9892896
C1E681,南勢山,2023-10-24,24.421669,120.923831,2.6356926e-09
C0A9F0,內湖,2023-10-24,25.079422,121.57545,0.9985096
C0K291,宜梧,2023-10-24,23.536281,120.169329,0.99887
C1K540,口湖,2023-10-24,23.585344,120.180517,0.28347602
C0R780,滿州,2023-10-24,22.024403,120.839892,0.10293843
C0V870,文安,2023-10-24,22.8025,120.2164,0.008776135
C0U650,玉蘭,2023-10-24,24.675286,121.587061,1.211484e-07
C0R640,東港,2023-10-24,22.46247,120.44074,0.07382894
K2E360,苗栗農改,2023-10-24,24.495722,120.829111,0.9781984
C0AJ80,板橋,2023-10-24,25.0107,121.4489,0.7265273
C0S660,下馬,2023-10-24,23.150427,121.070312,9.876073e-08
C1H9B1,阿眉,2023-10-24,24.1263,120.994672,4.849464e-09
C0UA20,多加屯,2023-10-24,24.368614,121.373189,4.1012758e-09
C0E730,頭份,2023-10-24,24.688247,120.912206,0.9977208
72V140,高改旗南分場,2023-10-24,22.857861,120.516667,0.48134777
C0K480,莿桐,2023-10-24,23.761192,120.502372,0.9977496
C0U980,坪林石牌,2023-10-24,24.86478,121.77396,2.5480591e-05
C0T900,西林,2023-10-24,23.8119,121.441458,1.347201e-07
C1I150,青雲,2023-10-24,23.793361,120.949378,7.3057414e-08
467350,澎湖,2023-10-24,23.565503,119.563094,0.9992449
C0G800,埔鹽,2023-10-24,24.000394,120.431683,0.8771091
C0H960,草屯,2023-10-24,23.973672,120.68085,0.987416
C1V780,多納林道,2023-10-24,22.888028,120.737917,2.4801363e-08
C0E920,通霄漁港,2023-10-24,24.498589,120.673876,0.33709493
C0Z330,安通山,2023-10-24,23.290728,121.348528,9.206668e-09
C0AH10,永和,2023-10-24,25.01125,121.508111,0.68606037
C2G640,鹿港,2023-10-24,24.0753,120.430481,0.84263057
C1E890,國三N149K,2023-10-24,24.463414,120.680019,0.3284435
C1R110,口社,2023-10-24,22.770111,120.645222,0.19521199
C1M870,國三N285K,2023-10-24,23.550319,120.505833,0.75643384
467050,新屋,2023-10-24,25.006744,121.047486,0.99265426
C1E480,鳳美,2023-10-24,24.554803,121.034747,0.00012211253
C0M530,奮起湖,2023-10-24,23.493903,120.699253,1.2567544e-08
C0C590,觀音,2023-10-24,25.027072,121.153317,0.9960386
C0T9M0,靜浦,2023-10-24,23.455167,121.495028,0.00068635325
C0AI40,石牌,2023-10-24,25.115597,121.513139,0.9985587
C1F871,上谷關,2023-10-24,24.203483,121.018644,1.966264e-09
C0G880,二水,2023-10-24,23.810742,120.6173,0.967001
C0R940,加祿堂,2023-10-24,22.3363,120.6217,0.65606755
C0W220,北竿,2023-10-24,26.220358,119.974881,0.5534184
C0O960,崎頂,2023-10-24,22.959547,120.369317,1.22866395e-05
C0S750,向陽,2023-10-24,23.248397,120.986133,1.5433598e-08
C0T9F0,水璉,2023-10-24,23.797131,121.542514,2.7170579e-08
C1M600,頭凍,2023-10-24,23.406364,120.603339,1.6094996e-08
467660,臺東,2023-10-24,22.752211,121.154586,0.48627958
C1D380,新埔,2023-10-24,24.84745,121.03834,0.9961628
C0V750,路竹,2023-10-24,22.854997,120.259439,0.4969671
C0N050,蚵寮,2023-10-24,23.301,120.1104,0.97829115
72M700,南改鹿草分場,2023-10-24,23.416869,120.283061,0.99873126
C1SA50,利嘉林道,2023-10-24,22.82325,121.009389,1.4475165e-07
467550,玉山,2023-10-24,23.487614,120.959522,1.9581137e-08
C0A940,金山,2023-10-24,25.223628,121.643967,0.97788584
C1V340,大津,2023-10-24,22.888322,120.645986,0.53599405
C0W180,七美,2023-10-24,23.219333,119.444892,0.9990816
C1F9C1,白冷,2023-10-24,24.182844,120.929889,1.8735913e-06
K2E710,苗改生物防治研究中心,2023-10-24,24.422861,120.871833,0.9929003
C0N040,蘆竹溝,2023-10-24,23.2344,120.0961,0.56189334
C2W230,畜試所澎湖,2023-10-24,23.628342,119.513206,0.99880475
C0R880,後壁湖,2023-10-24,21.9457,120.7457,0.81701255
C1I280,埔中,2023-10-24,23.820778,120.642594,3.7630454e-07
467790,墾丁雷達站,2023-10-24,21.948235,120.808028,0.3384838
C0W190,望安,2023-10-24,23.380564,119.494075,0.99839115
466881,新北,2023-10-24,24.9593,121.52,0.7893112
C0Z170,卓溪,2023-10-24,23.3443,121.3029,9.147299e-08
C0F850,東勢,2023-10-24,24.246428,120.833047,0.9991913
466900,淡水,2023-10-24,25.164889,121.448906,0.32374254
C0I370,魚池,2023-10-24,23.895703,120.94135,3.9252908e-09
C0C630,大溪,2023-10-24,24.882853,121.265547,0.58355325
C0A520,山佳,2023-10-24,24.974944,121.402008,0.24978171
C0I110,竹山,2023-10-24,23.761225,120.688156,0.7444271
82H840,茶改南部分場,2023-10-24,23.762528,120.7405,1.2251e-06
C0G660,溪湖,2023-10-24,23.94835,120.479122,0.9990537
C1T800,洛韶,2023-10-24,24.204558,121.453956,5.3640008e-08
C1T810,慈恩,2023-10-24,24.192044,121.388386,3.853108e-09
C1E451,象鼻,2023-10-24,24.368617,120.940228,2.7869063e-09
C0AC60,三峽,2023-10-24,24.939025,121.369728,0.19937754
C0I490,萬大林道,2023-10-24,23.928228,121.091411,2.9771952e-09
C1I290,豐丘,2023-10-24,23.668178,120.887417,9.282081e-09
C1I320,奧萬大,2023-10-24,23.952956,121.178556,2.8509395e-09
C0U770,南澳,2023-10-24,24.44935,121.81022,6.489835e-07
C0A980,社子,2023-10-24,25.109508,121.469681,0.3184963
C0V800,六龜,2023-10-24,22.997889,120.633583,7.275437e-05
C1G9D0,國一S218K,2023-10-24,23.890641,120.493253,0.9993089
C2F9A0,中竹林,2023-10-24,24.103556,120.751061,9.1304435e-05
C0FA40,臺中電廠,2023-10-24,24.2146,120.4907,0.38524997
C0H9C0,合歡山,2023-10-24,24.143442,121.272547,9.892623e-09
C0X060,下營,2023-10-24,23.22695,120.256261,0.27056444
G2M350,農試溪口農場,2023-10-24,23.58565,120.408111,0.97946435
C0U860,頭城,2023-10-24,24.85323,121.8308,0.9761585
C0R580,南州,2023-10-24,22.48591,120.50274,0.07382894
C0D430,峨眉,2023-10-24,24.6905,121.017189,0.72046137
C0G780,秀水,2023-10-24,24.03405,120.503869,0.9982407
72N100,臺南農改場,2023-10-24,23.0605,120.342194,8.0589225e-06
C0S900,蘭嶼高中,2023-10-24,22.04909,121.51214,0.99985224
467540,大武,2023-10-24,22.355675,120.903789,0.51494086
C1F9W0,德基,2023-10-24,24.254783,121.190261,6.3898375e-09
C1Z120,壽豐,2023-10-24,23.870853,121.508081,0.03838616
C0W160,烏坵,2023-10-24,24.9944,119.44956,0.96982557
C1I240,外大坪,2023-10-24,23.958697,120.917931,2.7344013e-08
C1I550,國六W023K,2023-10-24,23.979067,120.867742,9.871195e-08
C0R870,興海,2023-10-24,21.9752,120.8439,0.4804024
C0R140,瑪家,2023-10-24,22.682903,120.686639,1.2257318e-07
C0A530,坪林,2023-10-24,24.938183,121.70975,0.9925729
C0X260,後壁,2023-10-24,23.366358,120.362326,0.972462
C0Z230,和平,2023-10-24,24.30717,121.77007,0.96591324
C0G770,福興,2023-10-24,24.041289,120.437669,0.8771091
C0H9A0,神木村,2023-10-24,23.532742,120.843667,9.396745e-09
C0I460,南投,2023-10-24,23.911469,120.687331,0.995614
C0I480,梅峰,2023-10-24,24.085272,121.173572,2.4461404e-09
C1V570,吉東,2023-10-24,22.85422,120.5454,0.39412627
C2A560,福山,2023-10-24,24.776203,121.502811,1.0171657e-05
C0AH30,五分山,2023-10-24,25.07125,121.780794,0.0009648656
C0FA10,松柏,2023-10-24,24.429115,120.617482,0.30585125
72S200,東改班鳩分場,2023-10-24,22.829528,121.077694,0.40661815
72HA00,中改埔里分場,2023-10-24,23.903208,120.963364,3.9186556e-09
C0C650,平鎮,2023-10-24,24.897503,121.214636,0.22367387
C0S930,延平,2023-10-24,22.902581,121.084058,0.004898107
C0UA60,樟樹山,2023-10-24,24.41393,121.78325,9.604295e-08
C1S670,摩天,2023-10-24,23.199503,121.027,8.314521e-08
C0V630,茄萣,2023-10-24,22.906642,120.182608,0.47189462
466940,基隆,2023-10-24,25.133314,121.740475,0.23640795
C0X050,東河,2023-10-24,23.296598,120.385608,0.93949103
C0R770,保力,2023-10-24,22.071122,120.764111,0.1508069
G2L020,農試嘉義分所,2023-10-24,23.485028,120.473806,0.79047066
C0X240,關子嶺,2023-10-24,23.331169,120.508025,3.9498815e-08
C0I380,集集,2023-10-24,23.828206,120.801467,0.0025704855
466990,花蓮,2023-10-24,23.975128,121.613275,0.98696405
C1V220,小關山,2023-10-24,23.154217,120.813603,1.4054835e-08
C1F9G1,慶福山,2023-10-24,24.180853,120.848378,3.7431747e-09
C0Z250,瑞穗林道,2023-10-24,23.49284,121.30688,2.978669e-07
C0D590,新豐,2023-10-24,24.87068,120.97721,0.9078439
C0A870,五指山,2023-10-24,25.132153,121.608692,2.221733e-05
C0UA50,西帽山,2023-10-24,24.555361,121.802628,7.2781576e-09
C0X160,仁德,2023-10-24,22.968258,120.257689,0.49517
C1H971,六分寮,2023-10-24,23.92507,120.6378,1.9042183e-07
C0W120,西嶼,2023-10-24,23.5626,119.468436,0.9981155
C0G650,員林,2023-10-24,23.946503,120.585597,0.99779654
C0AD50,鶯歌,2023-10-24,24.951533,121.346294,0.19662288
C0S990,山豬窟,2023-10-24,22.318619,120.857372,0.9956946
72Q010,高雄農改,2023-10-24,22.709333,120.525889,0.19702779
C0X190,安平,2023-10-24,22.993161,120.152181,0.9573725
C0K400,斗六,2023-10-24,23.720583,120.541127,0.9573713
12J990,口湖工作站,2023-10-24,23.589978,120.180394,0.28347602
C0O830,北寮,2023-10-24,23.079561,120.495008,0.00016445918
C1D410,白蘭,2023-10-24,24.579364,121.079947,1.4900002e-09
C0S970,加津林,2023-10-24,22.416211,120.926942,0.55533266
C0D700,關西,2023-10-24,24.7977,121.1732,0.41014394
C0M810,里佳,2023-10-24,23.389125,120.716647,8.724848e-09
C0U750,龜山島,2023-10-24,24.841667,121.953133,0.60658824
C0R810,內獅,2023-10-24,22.305064,120.642986,0.6486343
C1M390,龍美,2023-10-24,23.406728,120.654417,1.11826886e-08
C1H840,國三N238K,2023-10-24,23.841008,120.707711,6.1433995e-05
CAQ030,崎峰國小,2023-10-24,22.42565,120.49521,0.07382894
C2E520,大湖,2023-10-24,24.414939,120.870872,0.9144424
467530,阿里山,2023-10-24,23.508208,120.813242,1.0870952e-08
C1E691,南湖,2023-10-24,24.40135,120.837533,6.198242e-09
C0FA30,梧棲,2023-10-24,24.256003,120.523381,0.25479594
C1V231,高中,2023-10-24,23.134911,120.716711,1.7964172e-08
C0F9V0,新社,2023-10-24,24.200172,120.815806,0.0025443584
C0H890,埔里,2023-10-24,23.972169,120.952425,1.21600126e-08
C0R690,墾丁,2023-10-24,21.966756,120.810269,0.095126316
C0F0D0,審馬陣,2023-10-24,24.381675,121.4203,6.9650303e-09
C0R820,白鷺,2023-10-24,22.454275,120.666219,0.0007294342
U2H480,臺大溪頭,2023-10-24,23.670306,120.798194,9.777482e-09
C1V190,南天池,2023-10-24,23.27403,120.91176,1.4939395e-08
K2E360,苗栗農改場,2023-10-24,24.495722,120.829111,0.9781984
CAJ050,海口故事園區,2023-10-24,23.57543,120.14121,0.28347602
C0O990,媽廟,2023-10-24,22.99175,120.293525,0.00026382
C0D480,打鐵坑,2023-10-24,24.849664,121.150789,0.60964555
C0Z220,和平林道,2023-10-24,24.343922,121.656317,2.297166e-08
72C440,桃園農改場,2023-10-24,24.950944,121.030583,0.9962897
C1E711,馬拉邦山,2023-10-24,24.367306,120.901656,2.5847482e-09
C0D560,竹東,2023-10-24,24.767147,121.057881,0.4174722
C0F9U0,南屯,2023-10-24,24.137006,120.637969,0.99866533
C0M720,番路,2023-10-24,23.464657,120.554156,0.00014344112
C0F0A0,雪山圈谷,2023-10-24,24.388594,121.236339,1.1806025e-08
C1A9N0,四十份,2023-10-24,24.934158,121.593283,0.9997355
C0U760,東澳,2023-10-24,24.52196,121.83318,0.8078852
C0X230,鹽水,2023-10-24,23.272621,120.247641,0.9743438
C0V370,古亭坑,2023-10-24,22.893178,120.401947,0.015535777
C1I340,新興橋,2023-10-24,23.563333,120.868728,9.603434e-08
C0SA80,土坂,2023-10-24,22.453108,120.887572,0.9835048
C0R160,鹽埔,2023-10-24,22.739558,120.530778,0.19702779
C0AC40,大屯山,2023-10-24,25.175675,121.522408,6.20784e-08
466850,五分山雷達站,2023-10-24,25.071182,121.781205,0.00072721066
C1AI50,國三N016K,2023-10-24,25.034164,121.619664,0.99867713
C1V600,藤枝,2023-10-24,23.071961,120.757042,1.5029338e-08
C1E601,南勢,2023-10-24,24.572486,120.734842,0.9984488
C0Z180,新城,2023-10-24,24.03946,121.60454,0.9870402
C0O980,新市,2023-10-24,23.061614,120.298197,3.9690374e-05
C0K420,西螺,2023-10-24,23.800407,120.467394,0.99874467
C0Z050,佳心,2023-10-24,23.34567,121.21316,3.2309586e-08
C0AD30,蘆洲,2023-10-24,25.086594,121.472331,0.9984688
C0V610,梓官,2023-10-24,22.760558,120.267211,0.11745644
K2F750,種苗改良場,2023-10-24,24.225972,120.800917,0.12595153
C0UA80,大溪漁港,2023-10-24,24.941801,121.902955,0.9964573
C1AI60,國一39K邊坡,2023-10-24,25.064361,121.383836,0.70230556
C0W150,金寧,2023-10-24,24.457703,118.328989,0.99546343
V2C250,八德合作社,2023-10-24,24.93775,121.266389,0.19941346
C0AH40,平等,2023-10-24,25.129142,121.577086,0.8233172
C0R540,佳冬,2023-10-24,22.419456,120.552375,0.5385148
466950,彭佳嶼,2023-10-24,25.627975,122.079744,0.9958842
C0A890,雙溪,2023-10-24,25.036003,121.864242,0.909371
C0C480,桃園,2023-10-24,24.992425,121.323172,0.1984485
C0AH50,林口,2023-10-24,25.072181,121.38084,0.89811736
A2K360,水試臺西試驗場,2023-10-24,23.717231,120.190522,0.2954035
B2N890,畜試所,2023-10-24,23.058972,120.336406,8.0589225e-06
C0F9S0,烏日,2023-10-24,24.107058,120.624103,0.998989
C0C490,八德,2023-10-24,24.928708,121.283289,0.20390397
C0R190,赤山,2023-10-24,22.592333,120.614306,0.7224749
C0T820,天祥,2023-10-24,24.179597,121.495639,3.2398897e-05
C1F9E1,龍安,2023-10-24,24.1605,120.831961,1.3633519e-07
C0V820,小林,2023-10-24,23.148408,120.63325,2.6575364e-08
C2G870,芳苑,2023-10-24,23.922303,120.320025,0.46392238
C0E850,大河,2023-10-24,24.618069,120.948578,0.9950587
C1U670,寒溪,2023-10-24,24.634,121.71691,3.1690746e-05
C0N020,城西,2023-10-24,23.0568,120.0956,0.9573725
C1Z110,三棧,2023-10-24,24.11557,121.60501,1.3694886e-06
C0R280,檳榔,2023-10-24,22.076078,120.836777,0.89594066
C0F9L0,后里,2023-10-24,24.310436,120.729725,0.999544
C0D540,橫山,2023-10-24,24.71116,121.11693,0.99891704
C1D420,太閣南,2023-10-24,24.632808,121.160575,4.9196722e-09
C1E770,公館,2023-10-24,24.526914,120.830806,0.940362
CAN130,水試所海水繁養殖中心,2023-10-24,23.120802,120.07968,0.9473431
C1I430,翠華,2023-10-24,24.191961,121.224339,2.3781814e-09
C1M400,菜瓜坪,2023-10-24,23.251928,120.576103,4.498362e-08
C0G730,二林,2023-10-24,23.903325,120.376081,0.9902248
72M360,南改義竹分場,2023-10-24,23.360694,120.279361,0.9974484
V2K620,麥寮合作社,2023-10-24,23.753836,120.294783,0.9992987
C0Z070,舞鶴,2023-10-24,23.46811,121.37407,1.3003364e-07
C0B040,大武崙,2023-10-24,25.166676,121.706993,0.38013017
C1Z030,紅葉,2023-10-24,23.493119,121.338806,1.0732681e-05
C1I050,丹大,2023-10-24,23.753747,121.141147,6.2851355e-09
C0I080,信義,2023-10-24,23.689694,120.851036,3.69528e-06
C2A880,福隆,2023-10-24,25.017842,121.942083,0.9877375
C0Z160,鳳林,2023-10-24,23.746114,121.453411,5.255018e-07
C0V210,復興,2023-10-24,23.222403,120.806089,7.744997e-07
C0H990,昆陽,2023-10-24,24.121322,121.273642,1.0700107e-08
C0S710,鹿野,2023-10-24,22.917711,121.122994,1.325101e-07
C0I530,小奇萊,2023-10-24,24.131764,121.295717,1.1319795e-08
C0Z080,富源,2023-10-24,23.587642,121.378225,2.439303e-07
467441,高雄,2023-10-24,22.7304,120.3125,0.10928984
C1I140,卡奈托灣,2023-10-24,23.754364,121.087872,2.624791e-09
C0I520,玉山風口,2023-10-24,23.470489,120.955994,2.2012136e-08
C1G691,下水埔,2023-10-24,23.816114,120.5676,0.9976549
C0X110,臺南市南區,2023-10-24,22.961189,120.188378,0.49517
C0V680,仁武,2023-10-24,22.701083,120.347722,0.05589982
C2G840,北斗,2023-10-24,23.877586,120.514222,0.9992801
C0R900,竹坑,2023-10-24,22.1385,120.7022,0.09296437
C0K250,崙背,2023-10-24,23.75555,120.318925,0.99929845
C0G860,社頭,2023-10-24,23.897647,120.5862,0.99605244
C0X150,安定,2023-10-24,23.102614,120.227839,0.020577243
C0R590,里港,2023-10-24,22.77919,120.49459,0.31213367
C0E610,馬都安,2023-10-24,24.451272,120.930192,4.4716018e-09
C0E550,明德,2023-10-24,24.583486,120.885411,0.27875713
C0R150,三地門,2023-10-24,22.709889,120.639944,0.21830551
C0G910,花壇,2023-10-24,24.032076,120.549461,0.99807245
C1D400,鳥嘴山,2023-10-24,24.71909,121.28387,9.381255e-09
C0K500,元長,2023-10-24,23.64981,120.315024,0.9994024
C0F0B0,石岡,2023-10-24,24.276061,120.777644,0.99959713
C2V250,甲仙,2023-10-24,23.080106,120.591758,2.562946e-07
C0SA20,金崙山,2023-10-24,22.567419,120.959667,9.157127e-08
C0V350,溪埔,2023-10-24,22.738578,120.446797,0.16924927
C0M660,溪口,2023-10-24,23.604131,120.403569,0.9794644
C1S880,壽卡,2023-10-24,22.238911,120.858903,0.9973778
72D680,桃改新埔分場,2023-10-24,24.834444,121.066111,0.99639416
