站號,站名,日期,lat,lon,BlastGRU-TW
466881,新北,2023-01-26,24.9593,121.52,0.0013312497
466900,淡水,2023-01-26,25.164889,121.448906,0.0008229025
466920,臺北,2023-01-26,25.037658,121.514853,0.001440678
467350,澎湖,2023-01-26,23.565503,119.563094,0.0007581573
467410,臺南,2023-01-26,22.993239,120.204772,0.16846822
467420,永康,2023-01-26,23.038386,120.2367,0.18502842
467790,墾丁雷達站,2023-01-26,21.948235,120.808028,3.8230388e-05
C0A520,山佳,2023-01-26,24.974944,121.402008,0.0008816729
C0A530,坪林,2023-01-26,24.938183,121.70975,0.001089264
C0A880,福隆,2023-01-26,25.017842,121.942083,0.0016618264
C0A890,雙溪,2023-01-26,25.036003,121.864242,0.0010819198
C0A920,富貴角,2023-01-26,25.263783,121.565258,0.00052555907
C0AC80,文山,2023-01-26,25.00235,121.575728,0.0011548767
C0ACA0,新莊,2023-01-26,25.051478,121.446756,0.00091194356
C0AD00,三芝,2023-01-26,25.258131,121.501917,0.00056705833
C0AH70,松山,2023-01-26,25.04871,121.55042,0.001440678
C0AH80,深坑,2023-01-26,25.002703,121.628328,0.0011548767
C0AI00,五股,2023-01-26,25.07445,121.42728,0.0006348354
C0AJ70,田寮,2023-01-26,25.2698,121.4886,0.00076289097
