站號,站名,日期,lat,lon,BlastGRU-TW
466881,新北,2023-06-04,24.9593,121.52,0.9769049
466900,淡水,2023-06-04,25.1649,121.4489,0.978694
466920,臺北,2023-06-04,25.0377,121.5149,0.62382334
466940,基隆,2023-06-04,25.1333,121.7405,0.89961326
466990,花蓮,2023-06-04,23.9751,121.6133,0.98798996
467050,新屋,2023-06-04,25.0067,121.0475,0.88053507
467080,宜蘭,2023-06-04,24.764,121.7565,0.67161465
467270,田中,2023-06-04,23.8738,120.5813,0.8220225
467300,東吉島,2023-06-04,23.2569,119.6675,0.9845489
467350,澎湖,2023-06-04,23.5655,119.5631,0.980735
467410,臺南,2023-06-04,22.9932,120.2048,0.6632923
467420,永康,2023-06-04,23.0384,120.2367,0.6343186
467441,高雄,2023-06-04,22.7304,120.3125,0.36714402
467480,嘉義,2023-06-04,23.4959,120.4329,0.8270177
467490,臺中,2023-06-04,24.1457,120.6841,0.9649806
467540,大武,2023-06-04,22.3557,120.9038,0.12096868
467571,新竹,2023-06-04,24.8279,121.0142,0.93253535
467590,恆春,2023-06-04,22.0039,120.7463,0.34524018
467610,成功,2023-06-04,23.0975,121.3734,0.9858086
467620,蘭嶼,2023-06-04,22.037,121.5583,0.97847676
467660,臺東,2023-06-04,22.7522,121.1546,0.7234643
467790,墾丁雷達站,2023-06-04,21.9482,120.808,0.39993295
C0A520,山佳,2023-06-04,24.9749,121.402,0.9055692
C0A530,坪林,2023-06-04,24.9382,121.7097,0.9809766
C0A540,四堵,2023-06-04,24.8926,121.7457,0.9455149
C0A550,泰平,2023-06-04,24.9712,121.8237,0.9840449
C0A560,福山,2023-06-04,24.7762,121.5028,0.8356002
C0A570,桶後,2023-06-04,24.8482,121.598,0.89467084
C0A640,石碇,2023-06-04,24.994,121.6629,0.9899812
C0A650,火燒寮,2023-06-04,25.0027,121.7429,0.98732436
C0A660,瑞芳,2023-06-04,25.1132,121.8011,0.97858685
C0A770,科教館,2023-06-04,25.0964,121.5165,0.9854493
C0A860,大坪,2023-06-04,25.1659,121.633,0.87566876
C0A880,福隆,2023-06-04,25.0178,121.9421,0.96859777
C0A890,雙溪,2023-06-04,25.036,121.8642,0.97300345
C0A920,富貴角,2023-06-04,25.2638,121.5653,0.9578424
C0A931,三和,2023-06-04,25.2332,121.5952,0.8149044
C0A940,金山,2023-06-04,25.2236,121.644,0.9682342
C0A950,鼻頭角,2023-06-04,25.129,121.9234,0.8011299
C0A970,三貂角,2023-06-04,25.0076,122.0021,0.92820454
C0A980,社子,2023-06-04,25.1095,121.4697,0.9852798
C0A9C0,天母,2023-06-04,25.1175,121.5372,0.98038614
C0A9F0,內湖,2023-06-04,25.0794,121.5755,0.97756416
C0AC60,三峽,2023-06-04,24.939,121.3697,0.9010399
C0AC70,信義,2023-06-04,25.0378,121.5646,0.94607353
C0AC80,文山,2023-06-04,25.0023,121.5757,0.959102
C0ACA0,新莊,2023-06-04,25.0515,121.4468,0.60121036
C0AD00,三芝,2023-06-04,25.2581,121.5019,0.93881357
C0AD10,八里,2023-06-04,25.1502,121.4039,0.7880947
C0AD30,蘆洲,2023-06-04,25.0866,121.4723,0.9854493
C0AD40,土城,2023-06-04,24.9732,121.4452,0.9689558
C0AD50,鶯歌,2023-06-04,24.9515,121.3463,0.89549327
C0AG80,中和,2023-06-04,24.9916,121.4918,0.5261358
C0AH00,汐止,2023-06-04,25.0669,121.6588,0.9866035
C0AH10,永和,2023-06-04,25.0113,121.5081,0.51569235
C0AH40,平等,2023-06-04,25.1291,121.5771,0.8066338
C0AH50,林口,2023-06-04,25.0722,121.3808,0.8603014
C0AH70,松山,2023-06-04,25.0487,121.5504,0.94607353
C0AH80,深坑,2023-06-04,25.0027,121.6283,0.9835614
C0AI00,五股,2023-06-04,25.0744,121.4273,0.8799252
C0AI10,屈尺,2023-06-04,24.9218,121.5447,0.98793536
C0AI20,白沙灣,2023-06-04,25.2831,121.5191,0.6900888
C0AI30,三重,2023-06-04,25.0573,121.5006,0.645428
C0AI40,石牌,2023-06-04,25.1156,121.5131,0.9856046
C0AJ10,澳底,2023-06-04,25.0571,121.9273,0.95546407
C0AJ20,野柳,2023-06-04,25.207,121.69,0.8900231
C0AJ30,淡水觀海,2023-06-04,25.1846,121.4086,0.982216
C0AJ40,石門,2023-06-04,25.2737,121.6012,0.84607935
C0AJ50,水湳洞,2023-06-04,25.1237,121.8622,0.9734301
C0AJ60,六塊厝,2023-06-04,25.24,121.4481,0.8535203
C0AJ70,田寮,2023-06-04,25.2698,121.4886,0.93112224
C0AJ80,板橋,2023-06-04,25.0107,121.4489,0.6059102
C0B010,七堵,2023-06-04,25.0948,121.7171,0.97197044
C0B020,基隆嶼,2023-06-04,25.1914,121.7839,0.7184357
C0B040,大武崙,2023-06-04,25.1667,121.707,0.9650782
C0B050,八斗子,2023-06-04,25.1448,121.7917,0.8466661
C0B060,暖暖,2023-06-04,25.0957,121.7403,0.9708924
C0C460,復興,2023-06-04,24.8202,121.3523,0.7298831
C0C480,桃園,2023-06-04,24.9924,121.3232,0.8983506
C0C490,八德,2023-06-04,24.9287,121.2833,0.9252374
C0C590,觀音,2023-06-04,25.0271,121.1533,0.874411
C0C620,蘆竹,2023-06-04,25.0843,121.2658,0.68094903
C0C630,大溪,2023-06-04,24.8829,121.2655,0.97729504
C0C650,平鎮,2023-06-04,24.8975,121.2146,0.97542924
C0C660,楊梅,2023-06-04,24.9124,121.143,0.9784385
C0C670,龍潭,2023-06-04,24.8701,121.2214,0.9582414
C0C680,龜山,2023-06-04,25.0285,121.3866,0.8241535
C0C700,中壢,2023-06-04,24.9777,121.2564,0.9007515
C0C710,大溪永福,2023-06-04,24.8929,121.325,0.97187525
C0C720,竹圍,2023-06-04,25.1127,121.2398,0.66764414
C0C730,中大臨海站,2023-06-04,24.9661,121.0086,0.9347926
C0C740,觀音工業區,2023-06-04,25.0648,121.1149,0.92528814
C0C750,新興坑尾,2023-06-04,25.0061,121.0971,0.9290544
C0D430,峨眉,2023-06-04,24.6905,121.0172,0.9772941
C0D480,打鐵坑,2023-06-04,24.8497,121.1508,0.979141
C0D540,橫山,2023-06-04,24.7112,121.1169,0.9543352
C0D560,竹東,2023-06-04,24.7671,121.0579,0.9733509
C0D580,寶山,2023-06-04,24.735,121.0252,0.95852834
C0D590,新豐,2023-06-04,24.8707,120.9772,0.9384732
C0D650,湖口,2023-06-04,24.9048,121.0436,0.9685891
C0D660,新竹市東區,2023-06-04,24.7987,120.9869,0.9274031
C0D670,海天一線,2023-06-04,24.832,120.9144,0.96133626
C0D680,香山濕地,2023-06-04,24.7836,120.915,0.95289296
C0D690,外湖,2023-06-04,24.9177,120.9687,0.9741587
C0D700,關西,2023-06-04,24.7977,121.1732,0.94865274
C0E420,竹南,2023-06-04,24.709,120.8889,0.9620535
C0E430,南庄,2023-06-04,24.6018,121.0002,0.95832914
C0E520,大湖,2023-06-04,24.4149,120.8709,0.9442396
C0E540,後龍,2023-06-04,24.6065,120.7839,0.96553177
C0E550,明德,2023-06-04,24.5835,120.8854,0.99135125
C0E590,通霄,2023-06-04,24.4719,120.7046,0.967256
C0E730,頭份,2023-06-04,24.6882,120.9122,0.9474836
C0E740,造橋,2023-06-04,24.6371,120.8648,0.9799562
C0E750,苗栗,2023-06-04,24.5646,120.8246,0.96109056
C0E780,銅鑼,2023-06-04,24.4897,120.7909,0.9922031
C0E791,卓蘭,2023-06-04,24.3126,120.8244,0.9753485
C0E810,西湖,2023-06-04,24.5629,120.7485,0.96582544
C0E820,獅潭,2023-06-04,24.5391,120.92,0.991
C0E830,苑裡,2023-06-04,24.4397,120.6531,0.9884818
C0E850,大河,2023-06-04,24.6181,120.9486,0.99501884
C0E870,高鐵苗栗,2023-06-04,24.6073,120.8261,0.9668344
C0E910,海埔,2023-06-04,24.6488,120.7724,0.9882932
C0E920,通霄漁港,2023-06-04,24.4986,120.6739,0.9743856
C0E930,龍鳳,2023-06-04,24.7,120.8591,0.98459107
C0F000,大肚,2023-06-04,24.153,120.5721,0.9375914
C0F0B0,石岡,2023-06-04,24.2761,120.7776,0.9550866
C0F850,東勢,2023-06-04,24.2464,120.833,0.9692175
C0F930,大甲,2023-06-04,24.3477,120.6404,0.97623616
C0F970,大坑,2023-06-04,24.1731,120.7223,0.9733275
C0F9A0,中竹林,2023-06-04,24.1036,120.7511,0.9357495
C0F9I0,神岡,2023-06-04,24.2725,120.6583,0.9892682
C0F9K0,大安,2023-06-04,24.3451,120.588,0.98700905
C0F9L0,后里,2023-06-04,24.3104,120.7297,0.9873155
C0F9M0,豐原,2023-06-04,24.2543,120.7207,0.98736733
C0F9N0,大里,2023-06-04,24.0925,120.7014,0.9212548
C0F9O0,潭子,2023-06-04,24.2131,120.7039,0.9907004
C0F9P0,清水,2023-06-04,24.3123,120.5622,0.97898036
C0F9Q0,外埔,2023-06-04,24.3478,120.7057,0.9905705
C0F9R0,龍井,2023-06-04,24.1845,120.529,0.98154265
C0F9S0,烏日,2023-06-04,24.1071,120.6241,0.9386541
C0F9T0,西屯,2023-06-04,24.1795,120.6413,0.96949637
C0F9U0,南屯,2023-06-04,24.137,120.638,0.96008146
C0F9X0,大雅(中科園區),2023-06-04,24.2153,120.6244,0.9775914
C0FA10,松柏,2023-06-04,24.4291,120.6175,0.98755944
C0FA20,溫寮,2023-06-04,24.3722,120.5831,0.9862523
C0FA30,梧棲,2023-06-04,24.256,120.5234,0.9874169
C0FA40,臺中電廠,2023-06-04,24.2146,120.4907,0.98154265
C0FA50,霧峰,2023-06-04,24.0419,120.6995,0.9299316
C0G620,芬園,2023-06-04,24.0157,120.6213,0.95036143
C0G640,鹿港,2023-06-04,24.0753,120.4305,0.9790391
C0G650,員林,2023-06-04,23.9465,120.5856,0.936888
C0G660,溪湖,2023-06-04,23.9484,120.4791,0.93911743
C0G720,溪州,2023-06-04,23.8516,120.4991,0.8766617
C0G730,二林,2023-06-04,23.9033,120.3761,0.9642231
C0G740,大城,2023-06-04,23.8525,120.3209,0.8804587
C0G770,福興,2023-06-04,24.0413,120.4377,0.97443485
C0G780,秀水,2023-06-04,24.0341,120.5039,0.95376563
C0G800,埔鹽,2023-06-04,24.0004,120.4317,0.9655799
C0G810,埔心,2023-06-04,23.9476,120.5255,0.9421661
C0G820,田尾,2023-06-04,23.9017,120.5094,0.89481467
C0G830,埤頭,2023-06-04,23.866,120.4528,0.95725644
C0G840,北斗,2023-06-04,23.8776,120.5142,0.89481467
C0G860,社頭,2023-06-04,23.8976,120.5862,0.9066355
C0G870,芳苑,2023-06-04,23.9223,120.32,0.89566535
C0G880,二水,2023-06-04,23.8107,120.6173,0.9066284
C0G890,伸港,2023-06-04,24.1489,120.4844,0.969541
C0G900,線西,2023-06-04,24.1434,120.4435,0.9874635
C0G910,花壇,2023-06-04,24.0321,120.5495,0.9263935
C0G920,永靖,2023-06-04,23.9247,120.5475,0.8912085
C0G940,竹塘,2023-06-04,23.8483,120.3868,0.96760124
C0G950,防潮門,2023-06-04,24.1835,120.4871,0.98087525
C0G960,福寶,2023-06-04,24.0443,120.3814,0.98234576
C0G970,三豐,2023-06-04,23.882,120.2895,0.89566535
C0H890,埔里,2023-06-04,23.9722,120.9524,0.97951055
C0H950,中寮,2023-06-04,23.8844,120.7664,0.9499021
C0H960,草屯,2023-06-04,23.9737,120.6809,0.939058
C0I110,竹山,2023-06-04,23.7612,120.6882,0.95015866
C0I360,水里,2023-06-04,23.8126,120.8498,0.97802603
C0I380,集集,2023-06-04,23.8282,120.8015,0.97443753
C0I410,名間,2023-06-04,23.8371,120.7014,0.9473332
C0I420,國姓,2023-06-04,24.0378,120.8551,0.96529806
C0I460,南投,2023-06-04,23.9115,120.6873,0.94861895
C0K250,崙背,2023-06-04,23.7555,120.3189,0.85321313
C0K280,四湖,2023-06-04,23.6304,120.2271,0.81112385
C0K291,宜梧,2023-06-04,23.5363,120.1693,0.5059378
C0K330,虎尾,2023-06-04,23.7192,120.442,0.74422884
C0K390,土庫,2023-06-04,23.679,120.3956,0.8612668
C0K400,斗六,2023-06-04,23.7206,120.5411,0.86528665
C0K410,北港,2023-06-04,23.574,120.2928,0.48273864
C0K420,西螺,2023-06-04,23.8004,120.4674,0.96663195
C0K430,褒忠,2023-06-04,23.6909,120.3036,0.7944741
C0K440,二崙,2023-06-04,23.7728,120.4089,0.853743
C0K450,大埤,2023-06-04,23.6461,120.4315,0.57426137
C0K460,斗南,2023-06-04,23.6787,120.4784,0.7178774
C0K470,林內,2023-06-04,23.7487,120.6096,0.90988505
C0K480,莿桐,2023-06-04,23.7612,120.5024,0.84050024
C0K500,元長,2023-06-04,23.6498,120.315,0.786207
C0K510,水林,2023-06-04,23.5729,120.246,0.51296127
C0K530,臺西,2023-06-04,23.7015,120.1976,0.8917829
C0K550,蔦松,2023-06-04,23.5143,120.2297,0.44749475
C0K560,棋山,2023-06-04,23.6865,120.6034,0.89895326
C0K580,高鐵雲林,2023-06-04,23.7375,120.4179,0.8158601
C0K590,雲林東勢,2023-06-04,23.6742,120.2557,0.80753416
C0K600,箔子寮,2023-06-04,23.6197,120.14,0.72738373
C0M410,馬頭山,2023-06-04,23.3244,120.582,0.9729798
C0M520,東後寮,2023-06-04,23.3699,120.2481,0.760452
C0M640,中埔,2023-06-04,23.4254,120.5229,0.9545628
C0M650,朴子,2023-06-04,23.4346,120.239,0.39942014
C0M660,溪口,2023-06-04,23.6041,120.4036,0.79921514
C0M670,大林,2023-06-04,23.6006,120.4584,0.8354659
C0M680,太保,2023-06-04,23.4551,120.3315,0.40120846
C0M690,水上,2023-06-04,23.4197,120.3889,0.84705335
C0M700,竹崎,2023-06-04,23.5262,120.5555,0.9537905
C0M710,東石,2023-06-04,23.4589,120.1539,0.6787168
C0M720,番路,2023-06-04,23.4647,120.5542,0.9563707
C0M730,嘉義市東區,2023-06-04,23.4577,120.4605,0.87144816
C0M740,六腳,2023-06-04,23.4929,120.2906,0.42743176
C0M750,布袋,2023-06-04,23.3809,120.1678,0.4208306
C0M760,民雄,2023-06-04,23.5518,120.4285,0.77821356
C0M770,嘉義梅山,2023-06-04,23.5854,120.5556,0.9269047
C0M780,鹿草,2023-06-04,23.4113,120.3084,0.46256778
C0M790,新港,2023-06-04,23.5533,120.3457,0.49967244
C0M800,茶山,2023-06-04,23.2991,120.6648,0.9216531
C0M880,好美里,2023-06-04,23.3364,120.138,0.8897615
C0N010,鯤鯓國小,2023-06-04,23.1879,120.0889,0.6122936
C0N020,城西,2023-06-04,23.0568,120.0956,0.67954284
C0N030,四草,2023-06-04,23.0235,120.1116,0.62934333
C0N040,蘆竹溝,2023-06-04,23.2344,120.0961,0.44012022
C0N050,蚵寮,2023-06-04,23.301,120.1104,0.5013563
C0O810,曾文,2023-06-04,23.2197,120.4973,0.6874415
C0O830,北寮,2023-06-04,23.0796,120.495,0.8449088
C0O840,王爺宮,2023-06-04,23.2221,120.4009,0.6680903
C0O860,大內,2023-06-04,23.1188,120.3608,0.81667936
C0O900,善化,2023-06-04,23.1129,120.2972,0.71680856
C0O930,玉井,2023-06-04,23.126,120.4605,0.50901496
C0O950,安南,2023-06-04,23.0767,120.1449,0.8263722
C0O960,崎頂,2023-06-04,22.9595,120.3693,0.7435638
C0O970,虎頭埤,2023-06-04,23.0214,120.3479,0.6889532
C0O980,新市,2023-06-04,23.0616,120.2982,0.65491503
C0O990,媽廟,2023-06-04,22.9917,120.2935,0.5364507
C0R150,三地門,2023-06-04,22.7099,120.6399,0.20161526
C0R160,鹽埔,2023-06-04,22.7396,120.5308,0.25552887
C0R170,屏東,2023-06-04,22.6603,120.4941,0.3178656
C0R190,赤山,2023-06-04,22.5923,120.6143,0.44101238
C0R220,潮州,2023-06-04,22.5344,120.54,0.26110443
C0R240,來義,2023-06-04,22.5273,120.6251,0.35854343
C0R260,春日,2023-06-04,22.3704,120.6283,0.16401488
C0R270,琉球嶼,2023-06-04,22.3322,120.3622,0.17328808
C0R280,檳榔,2023-06-04,22.0761,120.8368,0.6056124
C0R320,車城,2023-06-04,22.0744,120.7162,0.30274296
C0R341,牡丹,2023-06-04,22.13,120.7926,0.5550879
C0R350,貓鼻頭,2023-06-04,21.9218,120.7358,0.36491552
C0R470,高樹,2023-06-04,22.8264,120.6008,0.20643961
C0R480,長治,2023-06-04,22.6931,120.5426,0.16867536
C0R490,九如,2023-06-04,22.7405,120.4905,0.24727449
C0R520,崁頂,2023-06-04,22.5148,120.5069,0.33938196
C0R540,佳冬,2023-06-04,22.4195,120.5524,0.51536655
C0R550,新埤,2023-06-04,22.4679,120.5829,0.3814453
C0R560,新園,2023-06-04,22.5434,120.4616,0.37015814
C0R570,麟洛,2023-06-04,22.6508,120.5272,0.3296339
C0R580,南州,2023-06-04,22.4859,120.5027,0.32711032
C0R590,里港,2023-06-04,22.7792,120.4946,0.19732702
C0R620,墾雷,2023-06-04,21.9008,120.8553,0.36491552
C0R640,東港,2023-06-04,22.4625,120.4407,0.6337542
C0R650,竹田,2023-06-04,22.5849,120.5434,0.18798076
C0R660,枋寮,2023-06-04,22.3677,120.5906,0.09556463
C0R670,楓港,2023-06-04,22.1901,120.6922,0.165001
C0R680,佳樂水,2023-06-04,21.9936,120.8616,0.33076736
C0R690,墾丁,2023-06-04,21.9668,120.8103,0.47761273
C0R700,枋山,2023-06-04,22.2468,120.6611,0.19996855
C0R710,龍磐,2023-06-04,21.9317,120.8389,0.5160526
C0R720,旭海,2023-06-04,22.2054,120.8876,0.7316643
C0R730,大坪頂,2023-06-04,22.0246,120.6936,0.534835
C0R740,獅子,2023-06-04,22.2016,120.7053,0.20653825
C0R760,南仁湖,2023-06-04,22.0847,120.8634,0.6988564
C0R770,保力,2023-06-04,22.0711,120.7641,0.4494591
C0R780,滿州,2023-06-04,22.0244,120.8399,0.37979135
C0R790,九棚,2023-06-04,22.142,120.8893,0.609822
C0R800,丹路,2023-06-04,22.2045,120.751,0.37355077
C0R810,內獅,2023-06-04,22.3051,120.643,0.20083313
C0R830,高士,2023-06-04,22.1218,120.8368,0.78457564
C0R850,林邊,2023-06-04,22.4634,120.5339,0.34493524
C0R860,鼻頭,2023-06-04,22.1043,120.8979,0.65942067
C0R870,興海,2023-06-04,21.9752,120.8439,0.33076736
C0R880,後壁湖,2023-06-04,21.9457,120.7457,0.28695327
C0R890,山海,2023-06-04,21.9878,120.7091,0.29824492
C0R900,竹坑,2023-06-04,22.1385,120.7022,0.43032575
C0R910,下寮,2023-06-04,22.3929,120.5548,0.51536655
C0R920,塭仔,2023-06-04,22.4169,120.5197,0.7088572
C0R930,萬丹,2023-06-04,22.5885,120.4851,0.32336074
C0R940,加祿堂,2023-06-04,22.3363,120.6217,0.122945376
C0S710,鹿野,2023-06-04,22.9177,121.123,0.9796425
C0S730,綠島,2023-06-04,22.6672,121.4753,0.94636357
C0S740,池上,2023-06-04,23.1196,121.2095,0.98063266
C0S770,大溪山,2023-06-04,22.4785,120.9433,0.9424408
C0S790,金崙,2023-06-04,22.5381,120.9669,0.8763314
C0S810,東河,2023-06-04,22.9727,121.304,0.98089653
C0S830,長濱,2023-06-04,23.2868,121.412,0.9846245
C0S840,南田,2023-06-04,22.2797,120.8892,0.18078373
C0S890,關山,2023-06-04,23.0395,121.175,0.97850776
C0S900,蘭嶼高中,2023-06-04,22.0491,121.5121,0.9111143
C0S910,蘭嶼燈塔,2023-06-04,22.0812,121.5031,0.96330667
C0S920,金峰嘉蘭,2023-06-04,22.5948,120.9608,0.77338713
C0S930,延平,2023-06-04,22.9026,121.0841,0.972938
C0S940,石寧山,2023-06-04,23.2238,121.4066,0.99025005
C0S950,七塊厝,2023-06-04,22.9545,121.2299,0.9843811
C0S960,香蘭,2023-06-04,22.5876,120.9934,0.6370078
C0S970,加津林,2023-06-04,22.4162,120.9269,0.58915675
C0S990,山豬窟,2023-06-04,22.3186,120.8574,0.86973184
C0SA00,歷坵,2023-06-04,22.521,120.8919,0.90864676
C0SA10,檳榔四格山,2023-06-04,22.81,121.1093,0.9208445
C0SA30,都歷,2023-06-04,23.0203,121.3236,0.94037294
C0SA40,瑞和,2023-06-04,22.9744,121.1567,0.98085535
C0SA60,知本（水試所）,2023-06-04,22.7024,121.0828,0.7262996
C0SA80,土,2023-06-04,22.4531,120.8876,0.82633436
C0SA90,達仁林場,2023-06-04,22.2643,120.824,0.757152
C0T870,鯉魚潭,2023-06-04,23.9356,121.5089,0.9878376
C0T900,西林,2023-06-04,23.8119,121.4415,0.9858776
C0T960,光復,2023-06-04,23.6607,121.425,0.9849075
C0T9A0,月眉山,2023-06-04,23.8099,121.5398,0.9879267
C0T9D0,和中,2023-06-04,24.2668,121.741,0.84258306
C0T9E0,大坑,2023-06-04,23.8806,121.582,0.98795915
C0T9F0,水璉,2023-06-04,23.7971,121.5425,0.98656046
C0T9I0,豐濱,2023-06-04,23.5839,121.5148,0.98645246
C0T9M0,靜浦,2023-06-04,23.4552,121.495,0.9857312
C0T9N0,富里,2023-06-04,23.1716,121.2494,0.97119576
C0U600,礁溪,2023-06-04,24.8175,121.7656,0.8967571
C0U650,玉蘭,2023-06-04,24.6753,121.5871,0.88212353
C0U750,龜山島,2023-06-04,24.8417,121.9531,0.95134616
C0U760,東澳,2023-06-04,24.522,121.8332,0.92998457
C0U770,南澳,2023-06-04,24.4493,121.8102,0.9972881
C0U780,五結,2023-06-04,24.6864,121.7979,0.5892124
C0U860,頭城,2023-06-04,24.8532,121.8308,0.9522269
C0U870,大礁溪,2023-06-04,24.791,121.675,0.974017
C0U880,北關,2023-06-04,24.9072,121.8734,0.9563733
C0U890,三星,2023-06-04,24.6681,121.653,0.9057681
C0U900,內城,2023-06-04,24.7181,121.6877,0.68604475
C0U910,冬山,2023-06-04,24.6337,121.7937,0.5168568
C0U940,羅東,2023-06-04,24.6818,121.7493,0.51050204
C0U970,大福,2023-06-04,24.8006,121.8139,0.8833617
C0U990,員山,2023-06-04,24.7444,121.7225,0.62967926
C0UA00,土場,2023-06-04,24.5765,121.4953,0.5708415
C0UA80,大溪漁港,2023-06-04,24.9418,121.903,0.9854511
C0UA90,石城,2023-06-04,24.9804,121.9512,0.96702564
C0UB00,淡江大學蘭陽校園,2023-06-04,24.8232,121.7304,0.92802197
C0UB10,蘇澳,2023-06-04,24.5969,121.8571,0.8089327
C0UB20,壯圍,2023-06-04,24.7359,121.8163,0.7085662
C0V250,甲仙,2023-06-04,23.0801,120.5918,0.93130684
C0V260,月眉,2023-06-04,22.971,120.5399,0.74231386
C0V310,美濃,2023-06-04,22.8987,120.5192,0.6354569
C0V350,溪埔,2023-06-04,22.7386,120.4468,0.32077175
C0V360,內門,2023-06-04,22.9755,120.4668,0.8322311
C0V370,古亭坑,2023-06-04,22.8932,120.4019,0.7443711
C0V400,阿公店,2023-06-04,22.8042,120.3555,0.47554874
C0V440,鳳山,2023-06-04,22.6467,120.3561,0.44573027
C0V450,鳳森,2023-06-04,22.5451,120.3926,0.5006878
C0V490,新興,2023-06-04,22.6274,120.2988,0.5995673
C0V530,阿蓮,2023-06-04,22.8832,120.3275,0.37066972
C0V610,梓官,2023-06-04,22.7606,120.2672,0.64412296
C0V620,永安,2023-06-04,22.8231,120.2369,0.49778932
C0V630,茄萣,2023-06-04,22.9066,120.1826,0.7646241
C0V640,湖內,2023-06-04,22.8871,120.2445,0.4456888
C0V650,彌陀,2023-06-04,22.7838,120.2464,0.49778932
C0V660,岡山,2023-06-04,22.7971,120.295,0.34523103
C0V680,仁武,2023-06-04,22.7011,120.3477,0.31779075
C0V690,鼓山,2023-06-04,22.6233,120.2756,0.876215
C0V700,三民,2023-06-04,22.645,120.3112,0.5995673
C0V710,苓雅,2023-06-04,22.6227,120.3307,0.6587518
C0V720,林園,2023-06-04,22.5077,120.3945,0.6481527
C0V730,大寮,2023-06-04,22.6056,120.3957,0.42261606
C0V740,旗山,2023-06-04,22.8886,120.4836,0.6507357
C0V750,路竹,2023-06-04,22.855,120.2594,0.48000035
C0V760,橋頭,2023-06-04,22.7578,120.3058,0.37351418
C0V770,大社,2023-06-04,22.7303,120.3466,0.28949377
C0V790,萬山,2023-06-04,22.9059,120.6881,0.9769354
C0V800,六龜,2023-06-04,22.9979,120.6336,0.92330444
C0V810,左營,2023-06-04,22.6749,120.2849,0.48250684
C0V820,小林,2023-06-04,23.1484,120.6333,0.9796552
C0V840,鳳鼻頭,2023-06-04,22.5083,120.3591,0.63365704
C0V850,蚵仔寮,2023-06-04,22.7256,120.2527,0.63426584
C0V860,南寮,2023-06-04,22.7616,120.2339,0.60364753
C0V870,文安,2023-06-04,22.8025,120.2164,0.86205816
C0V880,興達,2023-06-04,22.8778,120.2127,0.7646241
C0V890,前鎮,2023-06-04,22.5718,120.3117,0.76678264
C0V900,汕尾,2023-06-04,22.4782,120.4151,0.46185288
C0X050,東河,2023-06-04,23.2966,120.3856,0.57964885
C0X060,下營,2023-06-04,23.2269,120.2563,0.78226477
C0X080,佳里,2023-06-04,23.173,120.1451,0.73366845
C0X100,臺南市北區,2023-06-04,23.0104,120.1942,0.6363885
C0X110,臺南市南區,2023-06-04,22.9612,120.1884,0.6999547
C0X120,麻豆,2023-06-04,23.1833,120.2486,0.6791307
C0X130,官田,2023-06-04,23.1932,120.3154,0.77209425
C0X140,西港,2023-06-04,23.1256,120.2031,0.6599783
C0X150,安定,2023-06-04,23.1026,120.2278,0.65365916
C0X160,仁德,2023-06-04,22.9683,120.2577,0.61245495
C0X170,關廟,2023-06-04,22.963,120.3278,0.5189392
C0X180,山上,2023-06-04,23.0757,120.3633,0.86801136
C0X190,安平,2023-06-04,22.9932,120.1522,0.89310086
C0X200,左鎮,2023-06-04,23.0568,120.4085,0.83336246
C0X210,白河,2023-06-04,23.3475,120.4144,0.5505832
C0X220,學甲,2023-06-04,23.2304,120.1822,0.71281123
C0X230,鹽水,2023-06-04,23.2726,120.2476,0.71961856
C0X240,關子嶺,2023-06-04,23.3312,120.508,0.9733423
C0X250,新營,2023-06-04,23.3107,120.3167,0.78572714
C0X260,後壁,2023-06-04,23.3664,120.3623,0.9038676
C0X280,將軍,2023-06-04,23.215,120.1358,0.7788351
C0X290,北門,2023-06-04,23.2678,120.1255,0.811154
C0X300,鹿寮,2023-06-04,23.386,120.4773,0.9069662
C0X310,七股,2023-06-04,23.1473,120.0863,0.5009947
C0X320,柳營,2023-06-04,23.2533,120.3753,0.5827864
C0Z020,明里,2023-06-04,23.2087,121.2623,0.9709847
C0Z061,玉里,2023-06-04,23.3215,121.3397,0.9754631
C0Z070,舞鶴,2023-06-04,23.4681,121.3741,0.98694026
C0Z080,富源,2023-06-04,23.5876,121.3782,0.98580164
C0Z100,東華,2023-06-04,23.8953,121.5498,0.97506356
C0Z150,吉安光華,2023-06-04,23.9309,121.5952,0.9853484
C0Z160,鳳林,2023-06-04,23.7461,121.4534,0.98643684
C0Z170,卓溪,2023-06-04,23.3443,121.3029,0.97751194
C0Z180,新城,2023-06-04,24.0395,121.6045,0.9886887
C0Z190,富世,2023-06-04,24.1474,121.6297,0.9091032
C0Z200,萬榮,2023-06-04,23.7092,121.4201,0.9855356
C0Z210,瑞穗,2023-06-04,23.5239,121.3902,0.9863414
C0Z230,和平,2023-06-04,24.3072,121.7701,0.9260485
C0Z270,蕃薯寮,2023-06-04,23.7384,121.5401,0.9867483
C0Z280,德武,2023-06-04,23.4743,121.4107,0.986114
C0Z300,東里,2023-06-04,23.2685,121.3055,0.9712287
C0Z310,清水斷崖,2023-06-04,24.2183,121.6891,0.90850073
C0Z330,安通山,2023-06-04,23.2907,121.3485,0.9727784
