站號,站名,日期,lat,lon,BlastGRU-TW
466881,新北,2023-04-13,24.9593,121.52,0.42034033
466900,淡水,2023-04-13,25.1649,121.4489,0.2994342
466920,臺北,2023-04-13,25.0377,121.5149,0.43586427
466940,基隆,2023-04-13,25.1333,121.7405,0.22138855
466990,花蓮,2023-04-13,23.9751,121.6133,0.40720516
467050,新屋,2023-04-13,25.0067,121.0475,0.323275
467080,宜蘭,2023-04-13,24.764,121.7565,0.53711545
467270,田中,2023-04-13,23.8738,120.5813,0.46861956
467300,東吉島,2023-04-13,23.2569,119.6675,0.47262803
467350,澎湖,2023-04-13,23.5655,119.5631,0.09643532
467410,臺南,2023-04-13,22.9932,120.2048,0.828093
467420,永康,2023-04-13,23.0384,120.2367,0.8258377
467441,高雄,2023-04-13,22.7304,120.3125,0.42178863
467480,嘉義,2023-04-13,23.4959,120.4329,0.7744634
467490,臺中,2023-04-13,24.1457,120.6841,0.77718896
467540,大武,2023-04-13,22.3557,120.9038,0.046703987
467571,新竹,2023-04-13,24.8279,121.0142,0.45741132
467590,恆春,2023-04-13,22.0039,120.7463,0.016515795
467610,成功,2023-04-13,23.0975,121.3734,0.9237192
467620,蘭嶼,2023-04-13,22.037,121.5583,0.018581476
467660,臺東,2023-04-13,22.7522,121.1546,0.33148953
467790,墾丁雷達站,2023-04-13,21.9482,120.808,0.016246246
C0A520,山佳,2023-04-13,24.9749,121.402,0.41902322
C0A530,坪林,2023-04-13,24.9382,121.7097,0.13843745
C0A540,四堵,2023-04-13,24.8926,121.7457,0.1773752
C0A550,泰平,2023-04-13,24.9712,121.8237,0.08246428
C0A560,福山,2023-04-13,24.7762,121.5028,0.112363204
C0A570,桶後,2023-04-13,24.8482,121.598,0.11846413
C0A640,石碇,2023-04-13,24.994,121.6629,0.37392715
C0A650,火燒寮,2023-04-13,25.0027,121.7429,0.25673485
C0A660,瑞芳,2023-04-13,25.1132,121.8011,0.40556628
C0A770,科教館,2023-04-13,25.0964,121.5165,0.43185624
C0A860,大坪,2023-04-13,25.1659,121.633,0.048721537
C0A880,福隆,2023-04-13,25.0178,121.9421,0.38968247
C0A890,雙溪,2023-04-13,25.036,121.8642,0.24793538
C0A920,富貴角,2023-04-13,25.2638,121.5653,0.3292456
C0A931,三和,2023-04-13,25.2332,121.5952,0.3663816
C0A940,金山,2023-04-13,25.2236,121.644,0.17583825
C0A950,鼻頭角,2023-04-13,25.129,121.9234,0.39209583
C0A970,三貂角,2023-04-13,25.0076,122.0021,0.5126706
C0A980,社子,2023-04-13,25.1095,121.4697,0.43202233
C0A9C0,天母,2023-04-13,25.1175,121.5372,0.42546162
C0A9F0,內湖,2023-04-13,25.0794,121.5755,0.43586427
C0AC60,三峽,2023-04-13,24.939,121.3697,0.4115737
C0AC70,信義,2023-04-13,25.0378,121.5646,0.43586427
C0AC80,文山,2023-04-13,25.0023,121.5757,0.39001754
C0ACA0,新莊,2023-04-13,25.0515,121.4468,0.32627323
C0AD00,三芝,2023-04-13,25.2581,121.5019,0.1803864
C0AD10,八里,2023-04-13,25.1502,121.4039,0.2994342
C0AD30,蘆洲,2023-04-13,25.0866,121.4723,0.43185624
C0AD40,土城,2023-04-13,24.9732,121.4452,0.4262064
C0AD50,鶯歌,2023-04-13,24.9515,121.3463,0.41027173
C0AG80,中和,2023-04-13,24.9916,121.4918,0.43586427
C0AH00,汐止,2023-04-13,25.0669,121.6588,0.22542815
C0AH10,永和,2023-04-13,25.0113,121.5081,0.44283926
C0AH40,平等,2023-04-13,25.1291,121.5771,0.112838626
C0AH50,林口,2023-04-13,25.0722,121.3808,0.26309285
C0AH70,松山,2023-04-13,25.0487,121.5504,0.43586427
C0AH80,深坑,2023-04-13,25.0027,121.6283,0.4009652
C0AI00,五股,2023-04-13,25.0744,121.4273,0.12729444
C0AI10,屈尺,2023-04-13,24.9218,121.5447,0.39001754
C0AI20,白沙灣,2023-04-13,25.2831,121.5191,0.1724259
C0AI30,三重,2023-04-13,25.0573,121.5006,0.43185624
C0AI40,石牌,2023-04-13,25.1156,121.5131,0.4262064
C0AJ10,澳底,2023-04-13,25.0571,121.9273,0.39397037
C0AJ20,野柳,2023-04-13,25.207,121.69,0.22542815
C0AJ30,淡水觀海,2023-04-13,25.1846,121.4086,0.29820243
C0AJ40,石門,2023-04-13,25.2737,121.6012,0.15199439
C0AJ50,水湳洞,2023-04-13,25.1237,121.8622,0.22542804
C0AJ60,六塊厝,2023-04-13,25.24,121.4481,0.29820243
C0AJ70,田寮,2023-04-13,25.2698,121.4886,0.17031343
C0AJ80,板橋,2023-04-13,25.0107,121.4489,0.42620617
C0B010,七堵,2023-04-13,25.0948,121.7171,0.2359158
C0B020,基隆嶼,2023-04-13,25.1914,121.7839,0.22542815
C0B040,大武崙,2023-04-13,25.1667,121.707,0.2359158
C0B050,八斗子,2023-04-13,25.1448,121.7917,0.21714903
C0B060,暖暖,2023-04-13,25.0957,121.7403,0.26729047
C0C460,復興,2023-04-13,24.8202,121.3523,0.10637339
C0C480,桃園,2023-04-13,24.9924,121.3232,0.4024701
C0C490,八德,2023-04-13,24.9287,121.2833,0.5791626
C0C590,觀音,2023-04-13,25.0271,121.1533,0.3220367
C0C620,蘆竹,2023-04-13,25.0843,121.2658,0.3020542
C0C630,大溪,2023-04-13,24.8829,121.2655,0.4514853
C0C650,平鎮,2023-04-13,24.8975,121.2146,0.32313797
C0C660,楊梅,2023-04-13,24.9124,121.143,0.35270235
C0C670,龍潭,2023-04-13,24.8701,121.2214,0.23954326
C0C680,龜山,2023-04-13,25.0285,121.3866,0.49699175
C0C700,中壢,2023-04-13,24.9777,121.2564,0.3412389
C0C710,大溪永福,2023-04-13,24.8929,121.325,0.5054199
C0C720,竹圍,2023-04-13,25.1127,121.2398,0.2994342
C0C730,中大臨海站,2023-04-13,24.9661,121.0086,0.31935778
C0C740,觀音工業區,2023-04-13,25.0648,121.1149,0.44327036
C0C750,新興坑尾,2023-04-13,25.0061,121.0971,0.37072808
C0D430,峨眉,2023-04-13,24.6905,121.0172,0.5690884
C0D480,打鐵坑,2023-04-13,24.8497,121.1508,0.32875547
C0D540,橫山,2023-04-13,24.7112,121.1169,0.4663775
C0D560,竹東,2023-04-13,24.7671,121.0579,0.5499012
C0D580,寶山,2023-04-13,24.735,121.0252,0.6779783
C0D590,新豐,2023-04-13,24.8707,120.9772,0.6551917
C0D650,湖口,2023-04-13,24.9048,121.0436,0.3458094
C0D660,新竹市東區,2023-04-13,24.7987,120.9869,0.47149572
C0D670,海天一線,2023-04-13,24.832,120.9144,0.45556104
C0D680,香山濕地,2023-04-13,24.7836,120.915,0.4624788
C0D690,外湖,2023-04-13,24.9177,120.9687,0.31935796
C0D700,關西,2023-04-13,24.7977,121.1732,0.48313117
C0E420,竹南,2023-04-13,24.709,120.8889,0.48344168
C0E430,南庄,2023-04-13,24.6018,121.0002,0.70367736
C0E520,大湖,2023-04-13,24.4149,120.8709,0.38788912
C0E540,後龍,2023-04-13,24.6065,120.7839,0.7910743
C0E550,明德,2023-04-13,24.5835,120.8854,0.49252102
C0E590,通霄,2023-04-13,24.4719,120.7046,0.69648904
C0E730,頭份,2023-04-13,24.6882,120.9122,0.48344168
C0E740,造橋,2023-04-13,24.6371,120.8648,0.51114035
C0E750,苗栗,2023-04-13,24.5646,120.8246,0.73136955
C0E780,銅鑼,2023-04-13,24.4897,120.7909,0.5402852
C0E791,卓蘭,2023-04-13,24.3126,120.8244,0.26260367
C0E810,西湖,2023-04-13,24.5629,120.7485,0.76039225
C0E820,獅潭,2023-04-13,24.5391,120.92,0.5428379
C0E830,苑裡,2023-04-13,24.4397,120.6531,0.68328077
C0E850,大河,2023-04-13,24.6181,120.9486,0.46678618
C0E870,高鐵苗栗,2023-04-13,24.6073,120.8261,0.78322726
C0E910,海埔,2023-04-13,24.6488,120.7724,0.5562141
C0E920,通霄漁港,2023-04-13,24.4986,120.6739,0.7844848
C0E930,龍鳳,2023-04-13,24.7,120.8591,0.54040486
C0F000,大肚,2023-04-13,24.153,120.5721,0.36816162
C0F0B0,石岡,2023-04-13,24.2761,120.7776,0.474368
C0F850,東勢,2023-04-13,24.2464,120.833,0.20751081
C0F930,大甲,2023-04-13,24.3477,120.6404,0.5837985
C0F970,大坑,2023-04-13,24.1731,120.7223,0.59859776
C0F9A0,中竹林,2023-04-13,24.1036,120.7511,0.3744244
C0F9I0,神岡,2023-04-13,24.2725,120.6583,0.29417357
C0F9K0,大安,2023-04-13,24.3451,120.588,0.75926113
C0F9L0,后里,2023-04-13,24.3104,120.7297,0.21238875
C0F9M0,豐原,2023-04-13,24.2543,120.7207,0.249035
C0F9N0,大里,2023-04-13,24.0925,120.7014,0.8130251
C0F9O0,潭子,2023-04-13,24.2131,120.7039,0.3024012
C0F9P0,清水,2023-04-13,24.3123,120.5622,0.78720355
C0F9Q0,外埔,2023-04-13,24.3478,120.7057,0.36426
C0F9R0,龍井,2023-04-13,24.1845,120.529,0.7665476
C0F9S0,烏日,2023-04-13,24.1071,120.6241,0.6168435
C0F9T0,西屯,2023-04-13,24.1795,120.6413,0.6447932
C0F9U0,南屯,2023-04-13,24.137,120.638,0.8130251
C0F9X0,大雅(中科園區),2023-04-13,24.2153,120.6244,0.45807278
C0FA10,松柏,2023-04-13,24.4291,120.6175,0.7366195
C0FA20,溫寮,2023-04-13,24.3722,120.5831,0.7366195
C0FA30,梧棲,2023-04-13,24.256,120.5234,0.7665476
C0FA40,臺中電廠,2023-04-13,24.2146,120.4907,0.7665476
C0FA50,霧峰,2023-04-13,24.0419,120.6995,0.8242345
C0G620,芬園,2023-04-13,24.0157,120.6213,0.509136
C0G640,鹿港,2023-04-13,24.0753,120.4305,0.5476463
C0G650,員林,2023-04-13,23.9465,120.5856,0.6525069
C0G660,溪湖,2023-04-13,23.9484,120.4791,0.5854135
C0G720,溪州,2023-04-13,23.8516,120.4991,0.45992118
C0G730,二林,2023-04-13,23.9033,120.3761,0.545656
C0G740,大城,2023-04-13,23.8525,120.3209,0.69417924
C0G770,福興,2023-04-13,24.0413,120.4377,0.5476463
C0G780,秀水,2023-04-13,24.0341,120.5039,0.6299695
C0G800,埔鹽,2023-04-13,24.0004,120.4317,0.5476463
C0G810,埔心,2023-04-13,23.9476,120.5255,0.5700583
C0G820,田尾,2023-04-13,23.9017,120.5094,0.5514748
C0G830,埤頭,2023-04-13,23.866,120.4528,0.47293293
C0G840,北斗,2023-04-13,23.8776,120.5142,0.5514748
C0G860,社頭,2023-04-13,23.8976,120.5862,0.6370881
C0G870,芳苑,2023-04-13,23.9223,120.32,0.7081708
C0G880,二水,2023-04-13,23.8107,120.6173,0.43599576
C0G890,伸港,2023-04-13,24.1489,120.4844,0.82469463
C0G900,線西,2023-04-13,24.1434,120.4435,0.8001315
C0G910,花壇,2023-04-13,24.0321,120.5495,0.6010131
C0G920,永靖,2023-04-13,23.9247,120.5475,0.5514748
C0G940,竹塘,2023-04-13,23.8483,120.3868,0.45175454
C0G950,防潮門,2023-04-13,24.1835,120.4871,0.78078586
C0G960,福寶,2023-04-13,24.0443,120.3814,0.5632845
C0G970,三豐,2023-04-13,23.882,120.2895,0.7081708
C0H890,埔里,2023-04-13,23.9722,120.9524,0.45731235
C0H950,中寮,2023-04-13,23.8844,120.7664,0.37238377
C0H960,草屯,2023-04-13,23.9737,120.6809,0.45991686
C0I110,竹山,2023-04-13,23.7612,120.6882,0.39269206
C0I360,水里,2023-04-13,23.8126,120.8498,0.72106767
C0I380,集集,2023-04-13,23.8282,120.8015,0.7446414
C0I410,名間,2023-04-13,23.8371,120.7014,0.4298683
C0I420,國姓,2023-04-13,24.0378,120.8551,0.5115374
C0I460,南投,2023-04-13,23.9115,120.6873,0.40989417
C0K250,崙背,2023-04-13,23.7555,120.3189,0.75613004
C0K280,四湖,2023-04-13,23.6304,120.2271,0.7989146
C0K291,宜梧,2023-04-13,23.5363,120.1693,0.9135085
C0K330,虎尾,2023-04-13,23.7192,120.442,0.41731825
C0K390,土庫,2023-04-13,23.679,120.3956,0.42641756
C0K400,斗六,2023-04-13,23.7206,120.5411,0.40459463
C0K410,北港,2023-04-13,23.574,120.2928,0.91181356
C0K420,西螺,2023-04-13,23.8004,120.4674,0.45742422
C0K430,褒忠,2023-04-13,23.6909,120.3036,0.8141871
C0K440,二崙,2023-04-13,23.7728,120.4089,0.4453445
C0K450,大埤,2023-04-13,23.6461,120.4315,0.4851369
C0K460,斗南,2023-04-13,23.6787,120.4784,0.42030743
C0K470,林內,2023-04-13,23.7487,120.6096,0.39451492
C0K480,莿桐,2023-04-13,23.7612,120.5024,0.45139384
C0K500,元長,2023-04-13,23.6498,120.315,0.83212435
C0K510,水林,2023-04-13,23.5729,120.246,0.8871682
C0K530,臺西,2023-04-13,23.7015,120.1976,0.7761032
C0K550,蔦松,2023-04-13,23.5143,120.2297,0.91096985
C0K560,棋山,2023-04-13,23.6865,120.6034,0.46543714
C0K580,高鐵雲林,2023-04-13,23.7375,120.4179,0.42641756
C0K590,雲林東勢,2023-04-13,23.6742,120.2557,0.8141871
C0K600,箔子寮,2023-04-13,23.6197,120.14,0.8909848
C0M410,馬頭山,2023-04-13,23.3244,120.582,0.7455517
C0M520,東後寮,2023-04-13,23.3699,120.2481,0.90242153
C0M640,中埔,2023-04-13,23.4254,120.5229,0.37134886
C0M650,朴子,2023-04-13,23.4346,120.239,0.9199815
C0M660,溪口,2023-04-13,23.6041,120.4036,0.8318111
C0M670,大林,2023-04-13,23.6006,120.4584,0.8281893
C0M680,太保,2023-04-13,23.4551,120.3315,0.9221529
C0M690,水上,2023-04-13,23.4197,120.3889,0.7867153
C0M700,竹崎,2023-04-13,23.5262,120.5555,0.31200585
C0M710,東石,2023-04-13,23.4589,120.1539,0.9109698
C0M720,番路,2023-04-13,23.4647,120.5542,0.32971284
C0M730,嘉義市東區,2023-04-13,23.4577,120.4605,0.789791
C0M740,六腳,2023-04-13,23.4929,120.2906,0.9242473
C0M750,布袋,2023-04-13,23.3809,120.1678,0.9199815
C0M760,民雄,2023-04-13,23.5518,120.4285,0.81790996
C0M770,嘉義梅山,2023-04-13,23.5854,120.5556,0.4338221
C0M780,鹿草,2023-04-13,23.4113,120.3084,0.91480607
C0M790,新港,2023-04-13,23.5533,120.3457,0.90836626
C0M800,茶山,2023-04-13,23.2991,120.6648,0.82468134
C0M880,好美里,2023-04-13,23.3364,120.138,0.87910014
C0N010,鯤鯓國小,2023-04-13,23.1879,120.0889,0.91583097
C0N020,城西,2023-04-13,23.0568,120.0956,0.8687663
C0N030,四草,2023-04-13,23.0235,120.1116,0.83009535
C0N040,蘆竹溝,2023-04-13,23.2344,120.0961,0.91583097
C0N050,蚵寮,2023-04-13,23.301,120.1104,0.9158311
C0O810,曾文,2023-04-13,23.2197,120.4973,0.75053436
C0O830,北寮,2023-04-13,23.0796,120.495,0.57704926
C0O840,王爺宮,2023-04-13,23.2221,120.4009,0.75053453
C0O860,大內,2023-04-13,23.1188,120.3608,0.8767522
C0O900,善化,2023-04-13,23.1129,120.2972,0.8280901
C0O930,玉井,2023-04-13,23.126,120.4605,0.8977245
C0O950,安南,2023-04-13,23.0767,120.1449,0.8210394
C0O960,崎頂,2023-04-13,22.9595,120.3693,0.48828536
C0O970,虎頭埤,2023-04-13,23.0214,120.3479,0.8736769
C0O980,新市,2023-04-13,23.0616,120.2982,0.8280901
C0O990,媽廟,2023-04-13,22.9917,120.2935,0.8220074
C0R150,三地門,2023-04-13,22.7099,120.6399,0.5674849
C0R160,鹽埔,2023-04-13,22.7396,120.5308,0.54839444
C0R170,屏東,2023-04-13,22.6603,120.4941,0.68034846
C0R190,赤山,2023-04-13,22.5923,120.6143,0.42389727
C0R220,潮州,2023-04-13,22.5344,120.54,0.26970607
C0R240,來義,2023-04-13,22.5273,120.6251,0.20351844
C0R260,春日,2023-04-13,22.3704,120.6283,0.20954801
C0R270,琉球嶼,2023-04-13,22.3322,120.3622,0.20841113
C0R280,檳榔,2023-04-13,22.0761,120.8368,0.013420859
C0R320,車城,2023-04-13,22.0744,120.7162,0.016950717
C0R341,牡丹,2023-04-13,22.13,120.7926,0.09213344
C0R350,貓鼻頭,2023-04-13,21.9218,120.7358,0.016423494
C0R470,高樹,2023-04-13,22.8264,120.6008,0.6999498
C0R480,長治,2023-04-13,22.6931,120.5426,0.53998697
C0R490,九如,2023-04-13,22.7405,120.4905,0.6882138
C0R520,崁頂,2023-04-13,22.5148,120.5069,0.37819645
C0R540,佳冬,2023-04-13,22.4195,120.5524,0.36961654
C0R550,新埤,2023-04-13,22.4679,120.5829,0.42684844
C0R560,新園,2023-04-13,22.5434,120.4616,0.37819645
C0R570,麟洛,2023-04-13,22.6508,120.5272,0.6882138
C0R580,南州,2023-04-13,22.4859,120.5027,0.36961645
C0R590,里港,2023-04-13,22.7792,120.4946,0.61462444
C0R620,墾雷,2023-04-13,21.9008,120.8553,0.016423494
C0R640,東港,2023-04-13,22.4625,120.4407,0.3659608
C0R650,竹田,2023-04-13,22.5849,120.5434,0.4298935
C0R660,枋寮,2023-04-13,22.3677,120.5906,0.26955792
C0R670,楓港,2023-04-13,22.1901,120.6922,0.11082263
C0R680,佳樂水,2023-04-13,21.9936,120.8616,0.016655501
C0R690,墾丁,2023-04-13,21.9668,120.8103,0.013048064
C0R700,枋山,2023-04-13,22.2468,120.6611,0.11082263
C0R710,龍磐,2023-04-13,21.9317,120.8389,0.015874045
C0R720,旭海,2023-04-13,22.2054,120.8876,0.016810052
C0R730,大坪頂,2023-04-13,22.0246,120.6936,0.014738894
C0R740,獅子,2023-04-13,22.2016,120.7053,0.10659236
C0R760,南仁湖,2023-04-13,22.0847,120.8634,0.012211435
C0R770,保力,2023-04-13,22.0711,120.7641,0.016054437
C0R780,滿州,2023-04-13,22.0244,120.8399,0.016317755
C0R790,九棚,2023-04-13,22.142,120.8893,0.018598774
C0R800,丹路,2023-04-13,22.2045,120.751,0.099487275
C0R810,內獅,2023-04-13,22.3051,120.643,0.22232126
C0R830,高士,2023-04-13,22.1218,120.8368,0.00989689
C0R850,林邊,2023-04-13,22.4634,120.5339,0.37819645
C0R860,鼻頭,2023-04-13,22.1043,120.8979,0.013763632
C0R870,興海,2023-04-13,21.9752,120.8439,0.016655501
C0R880,後壁湖,2023-04-13,21.9457,120.7457,0.017094249
C0R890,山海,2023-04-13,21.9878,120.7091,0.016950717
C0R900,竹坑,2023-04-13,22.1385,120.7022,0.123329505
C0R910,下寮,2023-04-13,22.3929,120.5548,0.36961654
C0R920,塭仔,2023-04-13,22.4169,120.5197,0.35951868
C0R930,萬丹,2023-04-13,22.5885,120.4851,0.4298935
C0R940,加祿堂,2023-04-13,22.3363,120.6217,0.22232126
C0S710,鹿野,2023-04-13,22.9177,121.123,0.4106141
C0S730,綠島,2023-04-13,22.6672,121.4753,0.88322586
C0S740,池上,2023-04-13,23.1196,121.2095,0.52370316
C0S770,大溪山,2023-04-13,22.4785,120.9433,0.15314694
C0S790,金崙,2023-04-13,22.5381,120.9669,0.046860844
C0S810,東河,2023-04-13,22.9727,121.304,0.7253515
C0S830,長濱,2023-04-13,23.2868,121.412,0.5395381
C0S840,南田,2023-04-13,22.2797,120.8892,0.033394583
C0S890,關山,2023-04-13,23.0395,121.175,0.78998697
C0S900,蘭嶼高中,2023-04-13,22.0491,121.5121,0.06481026
C0S910,蘭嶼燈塔,2023-04-13,22.0812,121.5031,0.047179323
C0S920,金峰嘉蘭,2023-04-13,22.5948,120.9608,0.059713356
C0S930,延平,2023-04-13,22.9026,121.0841,0.6689499
C0S940,石寧山,2023-04-13,23.2238,121.4066,0.65825254
C0S950,七塊厝,2023-04-13,22.9545,121.2299,0.34503692
C0S960,香蘭,2023-04-13,22.5876,120.9934,0.08028513
C0S970,加津林,2023-04-13,22.4162,120.9269,0.04521124
C0S990,山豬窟,2023-04-13,22.3186,120.8574,0.012827517
C0SA00,歷坵,2023-04-13,22.521,120.8919,0.37983006
C0SA10,檳榔四格山,2023-04-13,22.81,121.1093,0.77896893
C0SA30,都歷,2023-04-13,23.0203,121.3236,0.89834
C0SA40,瑞和,2023-04-13,22.9744,121.1567,0.81370354
C0SA60,知本（水試所）,2023-04-13,22.7024,121.0828,0.096649826
C0SA80,土,2023-04-13,22.4531,120.8876,0.05292517
C0SA90,達仁林場,2023-04-13,22.2643,120.824,0.048367765
C0T870,鯉魚潭,2023-04-13,23.9356,121.5089,0.31311893
C0T900,西林,2023-04-13,23.8119,121.4415,0.3100168
C0T960,光復,2023-04-13,23.6607,121.425,0.38226643
C0T9A0,月眉山,2023-04-13,23.8099,121.5398,0.2867076
C0T9D0,和中,2023-04-13,24.2668,121.741,0.76695734
C0T9E0,大坑,2023-04-13,23.8806,121.582,0.31975254
C0T9F0,水璉,2023-04-13,23.7971,121.5425,0.32585815
C0T9I0,豐濱,2023-04-13,23.5839,121.5148,0.4145466
C0T9M0,靜浦,2023-04-13,23.4552,121.495,0.45552057
C0T9N0,富里,2023-04-13,23.1716,121.2494,0.54922193
C0U600,礁溪,2023-04-13,24.8175,121.7656,0.4980626
C0U650,玉蘭,2023-04-13,24.6753,121.5871,0.26404536
C0U750,龜山島,2023-04-13,24.8417,121.9531,0.1529842
C0U760,東澳,2023-04-13,24.522,121.8332,0.68164617
C0U770,南澳,2023-04-13,24.4493,121.8102,0.8420064
C0U780,五結,2023-04-13,24.6864,121.7979,0.35925373
C0U860,頭城,2023-04-13,24.8532,121.8308,0.53711545
C0U870,大礁溪,2023-04-13,24.791,121.675,0.097199485
C0U880,北關,2023-04-13,24.9072,121.8734,0.51310617
C0U890,三星,2023-04-13,24.6681,121.653,0.2418641
C0U900,內城,2023-04-13,24.7181,121.6877,0.4048629
C0U910,冬山,2023-04-13,24.6337,121.7937,0.35925373
C0U940,羅東,2023-04-13,24.6818,121.7493,0.3529194
C0U970,大福,2023-04-13,24.8006,121.8139,0.5660943
C0U990,員山,2023-04-13,24.7444,121.7225,0.3529194
C0UA00,土場,2023-04-13,24.5765,121.4953,0.097781405
C0UA80,大溪漁港,2023-04-13,24.9418,121.903,0.5088874
C0UA90,石城,2023-04-13,24.9804,121.9512,0.5044818
C0UB00,淡江大學蘭陽校園,2023-04-13,24.8232,121.7304,0.06924413
C0UB10,蘇澳,2023-04-13,24.5969,121.8571,0.78586835
C0UB20,壯圍,2023-04-13,24.7359,121.8163,0.3657959
C0V250,甲仙,2023-04-13,23.0801,120.5918,0.7456637
C0V260,月眉,2023-04-13,22.971,120.5399,0.5534456
C0V310,美濃,2023-04-13,22.8987,120.5192,0.8223313
C0V350,溪埔,2023-04-13,22.7386,120.4468,0.51338565
C0V360,內門,2023-04-13,22.9755,120.4668,0.82985
C0V370,古亭坑,2023-04-13,22.8932,120.4019,0.852306
C0V400,阿公店,2023-04-13,22.8042,120.3555,0.7365166
C0V440,鳳山,2023-04-13,22.6467,120.3561,0.3885409
C0V450,鳳森,2023-04-13,22.5451,120.3926,0.33962005
C0V490,新興,2023-04-13,22.6274,120.2988,0.37185332
C0V530,阿蓮,2023-04-13,22.8832,120.3275,0.8082319
C0V610,梓官,2023-04-13,22.7606,120.2672,0.6480051
C0V620,永安,2023-04-13,22.8231,120.2369,0.77110904
C0V630,茄萣,2023-04-13,22.9066,120.1826,0.77186966
C0V640,湖內,2023-04-13,22.8871,120.2445,0.7743593
C0V650,彌陀,2023-04-13,22.7838,120.2464,0.7711092
C0V660,岡山,2023-04-13,22.7971,120.295,0.6480051
C0V680,仁武,2023-04-13,22.7011,120.3477,0.43230024
C0V690,鼓山,2023-04-13,22.6233,120.2756,0.3718535
C0V700,三民,2023-04-13,22.645,120.3112,0.3718535
C0V710,苓雅,2023-04-13,22.6227,120.3307,0.3718535
C0V720,林園,2023-04-13,22.5077,120.3945,0.3718535
C0V730,大寮,2023-04-13,22.6056,120.3957,0.3476669
C0V740,旗山,2023-04-13,22.8886,120.4836,0.82409894
C0V750,路竹,2023-04-13,22.855,120.2594,0.80655074
C0V760,橋頭,2023-04-13,22.7578,120.3058,0.65456086
C0V770,大社,2023-04-13,22.7303,120.3466,0.43230024
C0V790,萬山,2023-04-13,22.9059,120.6881,0.8157536
C0V800,六龜,2023-04-13,22.9979,120.6336,0.5390079
C0V810,左營,2023-04-13,22.6749,120.2849,0.42178863
C0V820,小林,2023-04-13,23.1484,120.6333,0.8236557
C0V840,鳳鼻頭,2023-04-13,22.5083,120.3591,0.365961
C0V850,蚵仔寮,2023-04-13,22.7256,120.2527,0.42309728
C0V860,南寮,2023-04-13,22.7616,120.2339,0.76726717
C0V870,文安,2023-04-13,22.8025,120.2164,0.76726717
C0V880,興達,2023-04-13,22.8778,120.2127,0.77186966
C0V890,前鎮,2023-04-13,22.5718,120.3117,0.365961
C0V900,汕尾,2023-04-13,22.4782,120.4151,0.4807677
C0X050,東河,2023-04-13,23.2966,120.3856,0.8966276
C0X060,下營,2023-04-13,23.2269,120.2563,0.8862089
C0X080,佳里,2023-04-13,23.173,120.1451,0.87910014
C0X100,臺南市北區,2023-04-13,23.0104,120.1942,0.82394546
C0X110,臺南市南區,2023-04-13,22.9612,120.1884,0.8258377
C0X120,麻豆,2023-04-13,23.1833,120.2486,0.8790329
C0X130,官田,2023-04-13,23.1932,120.3154,0.88550466
C0X140,西港,2023-04-13,23.1256,120.2031,0.87390304
C0X150,安定,2023-04-13,23.1026,120.2278,0.8258583
C0X160,仁德,2023-04-13,22.9683,120.2577,0.8198774
C0X170,關廟,2023-04-13,22.963,120.3278,0.82605594
C0X180,山上,2023-04-13,23.0757,120.3633,0.8891886
C0X190,安平,2023-04-13,22.9932,120.1522,0.82394546
C0X200,左鎮,2023-04-13,23.0568,120.4085,0.8896489
C0X210,白河,2023-04-13,23.3475,120.4144,0.8855858
C0X220,學甲,2023-04-13,23.2304,120.1822,0.8790329
C0X230,鹽水,2023-04-13,23.2726,120.2476,0.89812946
C0X240,關子嶺,2023-04-13,23.3312,120.508,0.67333084
C0X250,新營,2023-04-13,23.3107,120.3167,0.89569443
C0X260,後壁,2023-04-13,23.3664,120.3623,0.90648067
C0X280,將軍,2023-04-13,23.215,120.1358,0.87910014
C0X290,北門,2023-04-13,23.2678,120.1255,0.87910014
C0X300,鹿寮,2023-04-13,23.386,120.4773,0.40002164
C0X310,七股,2023-04-13,23.1473,120.0863,0.9139667
C0X320,柳營,2023-04-13,23.2533,120.3753,0.89138496
C0Z020,明里,2023-04-13,23.2087,121.2623,0.567626
C0Z061,玉里,2023-04-13,23.3215,121.3397,0.690008
C0Z070,舞鶴,2023-04-13,23.4681,121.3741,0.4096005
C0Z080,富源,2023-04-13,23.5876,121.3782,0.43651783
C0Z100,東華,2023-04-13,23.8953,121.5498,0.3616016
C0Z150,吉安光華,2023-04-13,23.9309,121.5952,0.37665662
C0Z160,鳳林,2023-04-13,23.7461,121.4534,0.39256003
C0Z170,卓溪,2023-04-13,23.3443,121.3029,0.65857214
C0Z180,新城,2023-04-13,24.0395,121.6045,0.39508608
C0Z190,富世,2023-04-13,24.1474,121.6297,0.7187886
C0Z200,萬榮,2023-04-13,23.7092,121.4201,0.31311896
C0Z210,瑞穗,2023-04-13,23.5239,121.3902,0.42922541
C0Z230,和平,2023-04-13,24.3072,121.7701,0.76695734
C0Z270,蕃薯寮,2023-04-13,23.7384,121.5401,0.46992797
C0Z280,德武,2023-04-13,23.4743,121.4107,0.44845837
C0Z300,東里,2023-04-13,23.2685,121.3055,0.67411375
C0Z310,清水斷崖,2023-04-13,24.2183,121.6891,0.78123283
C0Z330,安通山,2023-04-13,23.2907,121.3485,0.42678612
