站號,站名,日期,lat,lon,BLBTSLS
C0R710,龍磐,2023-05-04,21.931672,120.838942,0.11209219
C1F9D1,白毛台,2023-05-04,24.158325,120.886933,1.1890993e-09
C0G940,竹塘,2023-05-04,23.848253,120.386764,0.028684026
467590,恆春,2023-05-04,22.003897,120.746339,0.46127108
C1O850,環湖,2023-05-04,23.148617,120.418633,0.003845257
C0U710,太平山,2023-05-04,24.505486,121.525656,9.940248e-09
C0E820,獅潭,2023-05-04,24.539133,120.920042,4.7215387e-09
C0V880,興達,2023-05-04,22.8778,120.2127,0.0001281924
C0S890,關山,2023-05-04,23.0395,121.175017,1.4349048e-07
K2F750,種苗繁殖,2023-05-04,24.225972,120.800917,2.7850782e-09
C1Z130,銅門,2023-05-04,23.965694,121.492842,4.1294253e-08
C0AD40,土城,2023-05-04,24.973208,121.445169,1.0984172e-07
CAN140,六官養殖協會,2023-05-04,23.22881,120.29962,0.99955434
C0X180,山上,2023-05-04,23.0757,120.363253,0.001171817
C0F9Z0,雪山東峰,2023-05-04,24.388792,121.268675,1.1606662e-08
C1M480,獨立山,2023-05-04,23.537022,120.607797,1.4952072e-09
C0X220,學甲,2023-05-04,23.230367,120.182187,0.05993018
C0R170,屏東,2023-05-04,22.660269,120.494072,2.3355926e-07
467650,日月潭,2023-05-04,23.881325,120.90805,4.621666e-09
C0K600,箔子寮,2023-05-04,23.6197,120.14,0.9946506
C0G830,埤頭,2023-05-04,23.866003,120.452806,0.00034706778
C0S950,七塊厝,2023-05-04,22.954453,121.229922,1.021323e-08
467110,金門,2023-05-04,24.407306,118.289281,0.10109215
C0AH80,深坑,2023-05-04,25.002703,121.628328,5.9264554e-08
467990,馬祖,2023-05-04,26.169269,119.923419,0.0030508186
C0A970,三貂角,2023-05-04,25.007606,122.002058,6.00049e-08
C0K430,褒忠,2023-05-04,23.690938,120.303634,0.7657909
467480,嘉義,2023-05-04,23.495925,120.432906,0.5674332
C2E540,後龍,2023-05-04,24.606489,120.783933,0.0051397355
C0V400,阿公店,2023-05-04,22.804194,120.355528,4.987778e-08
C0R440,大漢山,2023-05-04,22.405264,120.753181,1.5182588e-08
C0K280,四湖,2023-05-04,23.630414,120.227125,0.99770087
C1F9B1,桐林,2023-05-04,24.066172,120.735194,7.957198e-07
C0K390,土庫,2023-05-04,23.679029,120.395574,0.04025315
C1I450,望鄉山,2023-05-04,23.594153,120.944286,5.6640417e-09
C0E910,海埔,2023-05-04,24.648767,120.772435,0.0071023204
B2E890,畜試北區分所,2023-05-04,24.527806,120.770972,2.7604042e-07
C0R750,四林格山,2023-05-04,22.076989,120.802439,0.8092944
C0F0C0,中坑,2023-05-04,24.248517,120.903319,2.0956377e-09
C1I121,大鞍,2023-05-04,23.678381,120.760017,5.98959e-09
72U480,花改蘭陽分場,2023-05-04,24.686306,121.716583,1.923246e-08
C0A770,科教館,2023-05-04,25.096356,121.516507,1.1290829e-07
C0AJ60,六塊厝,2023-05-04,25.24,121.4481,0.40370426
C0R620,墾雷,2023-05-04,21.900836,120.855269,0.06979022
467420,永康,2023-05-04,23.038386,120.2367,0.9763225
467300,東吉島,2023-05-04,23.25695,119.667467,0.27558428
C0I410,名間,2023-05-04,23.837053,120.701447,3.5330658e-07
A2C560,農工中心,2023-05-04,24.985917,121.239833,1.6285082e-07
C0V740,旗山,2023-05-04,22.888614,120.483597,1.5306805e-08
C0Z061,玉里,2023-05-04,23.3215,121.339656,1.1676184e-08
C0S840,南田,2023-05-04,22.279725,120.889208,0.5815734
C1I470,杉林溪,2023-05-04,23.639517,120.786444,6.5339365e-09
C1X040,東原,2023-05-04,23.291597,120.463822,5.909349e-07
C0R660,枋寮,2023-05-04,22.367722,120.590647,0.0036755148
C1R120,上德文,2023-05-04,22.763272,120.704442,4.9308984e-09
C0K450,大埤,2023-05-04,23.646074,120.431537,0.002156017
C0UA00,土場,2023-05-04,24.576533,121.495333,2.977583e-08
467080,宜蘭,2023-05-04,24.763975,121.756528,5.075092e-07
C0N030,四草,2023-05-04,23.0235,120.1116,0.36328796
C0V650,彌陀,2023-05-04,22.783806,120.246361,1.0700567e-06
C0D660,新竹市東區,2023-05-04,24.798681,120.986942,2.5308632e-06
82S580,茶改東部分場,2023-05-04,22.907694,121.130139,1.3634518e-05
C0C710,大溪永福,2023-05-04,24.892936,121.324975,2.653382e-09
C0FA20,溫寮,2023-05-04,24.372177,120.583125,0.59594303
C0V640,湖內,2023-05-04,22.887139,120.2445,8.4040104e-05
C0R910,下寮,2023-05-04,22.3929,120.5548,0.0036755097
C0Z020,明里,2023-05-04,23.208717,121.262342,2.2523912e-08
C0M770,嘉義梅山,2023-05-04,23.585398,120.555587,5.12998e-06
G2F820,農業試驗所,2023-05-04,24.031261,120.688133,1.322985e-06
C0C660,楊梅,2023-05-04,24.912375,121.143047,1.2064554e-08
C1E511,新開,2023-05-04,24.347703,120.827019,1.2772176e-08
G2F820,農試所(霧峰),2023-05-04,24.031261,120.688133,1.322985e-06
C1I070,和社,2023-05-04,23.591131,120.888861,1.9698348e-08
C2F000,大肚,2023-05-04,24.15295,120.572117,6.570782e-08
C1S850,豐南,2023-05-04,23.122139,121.262389,2.4954427e-09
C2A920,富貴角,2023-05-04,25.263783,121.565258,7.381999e-06
CAH030,茶改場竹圍站,2023-05-04,23.860083,120.637528,2.1323574e-09
C0T960,光復,2023-05-04,23.660694,121.424964,4.958752e-08
C0F9M0,豐原,2023-05-04,24.254322,120.720692,2.0709294e-06
C0R720,旭海,2023-05-04,22.205403,120.887614,0.744263
C0V710,苓雅,2023-05-04,22.622742,120.330669,3.522874e-08
C0C740,觀音工業區,2023-05-04,25.064764,121.114856,0.99965715
CAC040,拉拉山,2023-05-04,24.699317,121.427133,1.0458042e-08
C0V790,萬山,2023-05-04,22.905944,120.688056,5.1705342e-09
U2HA30,臺大和社,2023-05-04,23.590856,120.888864,1.9698348e-08
C0AJ90,澳底,2023-05-04,25.0552,121.9253,3.833483e-06
C0Z100,東華,2023-05-04,23.89525,121.549833,2.8626342e-08
C0G970,三豐,2023-05-04,23.882,120.2895,0.99432015
V2K610,大庄合作社,2023-05-04,23.8068,120.367939,0.00819324
C0V900,汕尾,2023-05-04,22.4782,120.4151,1.866095e-07
C1R630,龍泉,2023-05-04,22.66701,120.59091,2.2068903e-06
C1AC50,關渡,2023-05-04,25.133486,121.469331,4.671155e-08
C0F9I0,神岡,2023-05-04,24.272481,120.658314,3.652121e-07
C0K460,斗南,2023-05-04,23.678734,120.478359,0.001095688
467410,臺南,2023-05-04,22.993239,120.204772,0.10587961
C2O810,曾文,2023-05-04,23.219681,120.497328,2.6642647e-06
467280,後龍,2023-05-04,24.648563,120.831834,0.0020479672
C1F9J1,清水林,2023-05-04,24.071242,120.820419,7.0104755e-10
C2A650,火燒寮,2023-05-04,25.002719,121.742892,1.7730416e-08
466930,竹子湖,2023-05-04,25.162078,121.544547,3.024212e-09
C1I220,樟湖,2023-05-04,23.905333,120.846983,2.424236e-09
C0I390,仁愛,2023-05-04,24.022122,121.132206,1.89285e-09
C0Z300,東里,2023-05-04,23.26853,121.30547,3.7747444e-08
C0V310,美濃,2023-05-04,22.898742,120.519153,1.8424446e-08
C1V590,新發,2023-05-04,23.057019,120.646064,9.962494e-09
C0K510,水林,2023-05-04,23.572924,120.24597,0.9993866
72S590,東改賓朗果園,2023-05-04,22.813889,121.071278,1.946236e-06
82A750,茶改北部分場,2023-05-04,24.955778,121.631222,1.1295962e-08
C1A750,石碇服務區,2023-05-04,25.00872,121.646242,2.0193077e-08
C0X300,鹿寮,2023-05-04,23.386047,120.477331,0.68911445
G2AI50,關渡,2023-05-04,25.11575,121.492,0.14898181
C0K590,雲林東勢,2023-05-04,23.674192,120.255721,0.9964338
C0A570,桶後,2023-05-04,24.848222,121.597992,3.041075e-08
C1S800,華源,2023-05-04,22.657883,121.02325,0.9967813
C0G720,溪州,2023-05-04,23.851589,120.499093,0.00022755376
C1V160,達卡努瓦,2023-05-04,23.279811,120.705319,2.6733715e-09
C2M410,馬頭山,2023-05-04,23.324361,120.582017,5.3376084e-08
C0V850,蚵仔寮,2023-05-04,22.7256,120.2527,2.112361e-08
C0S740,池上,2023-05-04,23.119628,121.209469,1.2249459e-06
C1V390,尖山,2023-05-04,22.813153,120.367789,2.6475949e-08
C0AH70,松山,2023-05-04,25.04871,121.55042,8.18646e-08
C0N010,鯤鯓國小,2023-05-04,23.1879,120.0889,0.083874665
C0R550,新埤,2023-05-04,22.467947,120.582894,1.2786478e-07
C0SA60,知本（水試所）,2023-05-04,22.702394,121.082761,0.9998273
C0T9I0,豐濱,2023-05-04,23.583897,121.514806,1.8360144e-08
C0UB00,淡江大學蘭陽校園,2023-05-04,24.823239,121.730383,2.2315191e-08
C0T9N0,富里,2023-05-04,23.171639,121.249378,2.0228721e-07
U2HA50,臺大竹山,2023-05-04,23.756972,120.681556,4.1790543e-07
C0V840,鳳鼻頭,2023-05-04,22.5083,120.3591,9.310294e-08
C0X140,西港,2023-05-04,23.125608,120.203108,0.99841225
72D080,桃改五峰分場,2023-05-04,24.612194,121.157167,4.701445e-09
C0V530,阿蓮,2023-05-04,22.883208,120.327508,7.316196e-06
C1O880,關山,2023-05-04,23.173397,120.594092,6.3624377e-09
C0E791,卓蘭,2023-05-04,24.3126,120.8244,6.5589866e-08
C1I030,武界,2023-05-04,23.913225,121.052483,2.6679414e-09
C0R520,崁頂,2023-05-04,22.514781,120.506914,3.6901936e-05
C0R341,牡丹,2023-05-04,22.130036,120.792639,0.9600546
C0R930,萬丹,2023-05-04,22.5885,120.4851,1.6841503e-06
C0S760,紅石,2023-05-04,23.069131,121.126219,1.1046041e-08
C1M610,石磐龍,2023-05-04,23.496606,120.663506,6.4725003e-09
C0UA10,鴛鴦湖,2023-05-04,24.590269,121.412228,8.690237e-09
V2C260,八德蔬果,2023-05-04,24.978508,121.281819,5.612733e-09
C0R800,丹路,2023-05-04,22.204481,120.750989,0.75578666
C0G920,永靖,2023-05-04,23.924703,120.547533,0.00028645314
C1A630,下盆,2023-05-04,24.771003,121.538622,1.1722218e-08
B2N890,畜產試驗所,2023-05-04,23.058972,120.336406,0.9983526
C0UA30,白嶺,2023-05-04,24.527819,121.519031,1.0730539e-08
C1V580,溪南(特生中心),2023-05-04,23.084972,120.788475,5.5180167e-09
C1T970,大農,2023-05-04,23.615233,121.413331,1.156825e-08
E2S960,林試太麻里2,2023-05-04,22.598014,120.989761,0.9998863
C0R650,竹田,2023-05-04,22.58486,120.54344,1.0124978e-05
C1H900,清流,2023-05-04,24.080775,120.962997,1.4278583e-09
C1C510,水尾,2023-05-04,24.940081,121.087161,0.18532257
C0F9X0,大雅(中科園區),2023-05-04,24.21528,120.62445,6.873103e-07
C0O970,虎頭埤,2023-05-04,23.021375,120.347878,1.7000251e-05
C0C730,中大臨海站,2023-05-04,24.966126,121.008581,0.998049
C0X250,新營,2023-05-04,23.310689,120.316681,0.99964684
C0V700,三民,2023-05-04,22.645017,120.311233,2.5474398e-08
C0U870,大礁溪,2023-05-04,24.791042,121.675047,1.2970686e-08
C0E870,高鐵苗栗,2023-05-04,24.60725,120.826094,0.0029135037
A2K570,古坑花卉中心,2023-05-04,23.63353,120.55239,2.6895943e-06
C0M860,新美,2023-05-04,23.338017,120.683169,2.0520101e-09
C1E701,八卦,2023-05-04,24.491756,120.927619,2.3455484e-09
C0I420,國姓,2023-05-04,24.037803,120.855072,5.8290097e-09
C0S960,香蘭,2023-05-04,22.587569,120.993375,0.9998863
C0R260,春日,2023-05-04,22.370361,120.628306,4.7050547e-05
72G600,臺中農改場,2023-05-04,24.003028,120.534389,9.346508e-05
C0Z210,瑞穗,2023-05-04,23.5239,121.39021,1.0937068e-08
C0M820,達邦,2023-05-04,23.453994,120.749517,3.513598e-09
C0V860,南寮,2023-05-04,22.7616,120.2339,2.112365e-08
C0G740,大城,2023-05-04,23.852487,120.320935,0.9942695
C0R920,塭仔,2023-05-04,22.4169,120.5197,0.005813187
C0R470,高樹,2023-05-04,22.826389,120.600806,2.818506e-08
C0R680,佳樂水,2023-05-04,21.993578,120.861633,0.17051575
C1O870,大棟山,2023-05-04,23.31157,120.52226,1.8623031e-09
C0D360,梅花,2023-05-04,24.678347,121.208558,2.4584466e-09
C0Z190,富世,2023-05-04,24.14743,121.6297,1.2992401e-08
C0AI10,屈尺,2023-05-04,24.92184,121.54475,4.526245e-09
B2U990,畜試東區分所,2023-05-04,24.669039,121.832561,1.2607326e-08
C0R240,來義,2023-05-04,22.527306,120.625111,1.7775216e-06
C1R610,西大武山,2023-05-04,22.617719,120.7322,2.6582766e-08
C0G900,線西,2023-05-04,24.143358,120.443536,0.52759993
C0M700,竹崎,2023-05-04,23.526178,120.555508,1.7220086e-06
C2E880,三義,2023-05-04,24.405478,120.749819,1.0721655e-09
C0C720,竹圍,2023-05-04,25.112692,121.239824,0.1489815
C0F9P0,清水,2023-05-04,24.312297,120.562242,0.8470634
C0Z150,吉安光華,2023-05-04,23.930925,121.595153,2.2019532e-07
C1D640,外坪(五指山),2023-05-04,24.644447,121.090961,5.761847e-09
C0F9O0,潭子,2023-05-04,24.213106,120.703933,2.1659256e-05
72T250,花蓮農改場,2023-05-04,23.975222,121.563889,2.0258851e-06
C0E780,銅鑼,2023-05-04,24.489681,120.790853,4.006249e-08
C1T950,太安,2023-05-04,23.666719,121.370128,1.8428828e-07
C0E830,苑裡,2023-05-04,24.439714,120.653053,0.87883866
467270,田中,2023-05-04,23.873803,120.581286,0.022407511
C0SA10,檳榔四格山,2023-05-04,22.810031,121.109308,2.6923354e-07
C1T830,布洛灣,2023-05-04,24.17184,121.57127,7.0006965e-05
C0F970,大坑,2023-05-04,24.173142,120.722289,1.3991191e-05
C1U920,思源,2023-05-04,24.393125,121.347214,6.333029e-09
C0A931,三和,2023-05-04,25.233153,121.595236,3.190833e-08
C0I010,廬山,2023-05-04,24.033311,121.181808,2.605428e-09
C0R860,鼻頭,2023-05-04,22.1043,120.8979,0.95666826
C0UB20,壯圍,2023-05-04,24.7359,121.8163,2.2195232e-08
C0R790,九棚,2023-05-04,22.14195,120.889281,0.9631652
C0W110,東莒,2023-05-04,25.9652,119.98069,0.0320872
C1U930,粉鳥林,2023-05-04,24.497088,121.842479,6.318406e-06
C1I211,蘆竹湳,2023-05-04,23.934019,120.811994,2.0564885e-09
C0S830,長濱,2023-05-04,23.286817,121.411975,6.8970274e-09
C1F9F1,伯公龍,2023-05-04,24.272392,120.849047,2.206206e-09
C0E810,西湖,2023-05-04,24.562947,120.7485,0.765397
C1I440,新高口,2023-05-04,23.478744,120.878939,2.735824e-09
C0O840,王爺宮,2023-05-04,23.222064,120.40085,0.9884298
C0T9G0,鳳林山,2023-05-04,23.735269,121.420131,1.0921392e-08
C0X080,佳里,2023-05-04,23.173039,120.145086,0.083835885
C0Z310,清水斷崖,2023-05-04,24.218294,121.689142,1.647828e-08
C0M680,太保,2023-05-04,23.455062,120.331455,0.9951317
C1S820,金峰,2023-05-04,22.590969,120.933236,0.97051984
C0AD10,八里,2023-05-04,25.150211,121.403947,0.1489815
C2K240,草嶺,2023-05-04,23.59555,120.693461,8.575243e-09
C1SA70,都蘭,2023-05-04,22.87794,121.226881,0.001441461
C0K440,二崙,2023-05-04,23.772797,120.408944,1.7959936e-05
C1A760,坪林交控,2023-05-04,24.94284,121.713442,4.558581e-08
C0F9N0,大里,2023-05-04,24.092464,120.701378,9.817512e-06
C0SA90,達仁林場,2023-05-04,22.264347,120.823972,0.35692653
C1R290,石門山,2023-05-04,22.112611,120.756597,0.95444596
42HA10,萬大發電廠,2023-05-04,23.978875,121.139639,2.2490587e-09
C0R890,山海,2023-05-04,21.9878,120.7091,0.1856006
C0T9A0,月眉山,2023-05-04,23.809928,121.539828,7.2472113e-09
C0AC70,信義,2023-05-04,25.037822,121.564597,8.918427e-08
C0K560,棋山,2023-05-04,23.68645,120.603417,1.4764789e-06
C1Z240,中平林道,2023-05-04,23.42115,121.26763,6.973328e-08
U2H480,溪頭,2023-05-04,23.670306,120.798194,6.596849e-09
C0M880,好美里,2023-05-04,23.3364,120.138,0.479877
C0T9E0,大坑,2023-05-04,23.880628,121.581981,6.4944876e-09
C0K530,臺西,2023-05-04,23.701547,120.197559,0.9985126
C1E900,國一N128K,2023-05-04,24.560997,120.844186,2.483266e-07
C0AJ50,水湳洞,2023-05-04,25.123695,121.862238,1.5054073e-06
C0AI20,白沙灣,2023-05-04,25.283128,121.519058,0.17790607
C0A860,大坪,2023-05-04,25.165914,121.632969,4.5975845e-09
C1U850,觀音海岸,2023-05-04,24.38319,121.77856,1.4492052e-08
C0U950,鶯子嶺,2023-05-04,24.89754,121.79244,8.10758e-09
C0O900,善化,2023-05-04,23.112883,120.297219,0.9990419
C0K550,蔦松,2023-05-04,23.514319,120.229736,0.9984098
E2P980,林試六龜中心,2023-05-04,22.991703,120.645722,2.194928e-09
C0E590,通霄,2023-05-04,24.471892,120.704622,0.7028173
C1I310,西巒,2023-05-04,23.754486,120.883956,5.576718e-09
C0A550,泰平,2023-05-04,24.971197,121.823711,7.180164e-09
C0I360,水里,2023-05-04,23.812553,120.849792,4.332182e-09
C0R830,高士,2023-05-04,22.121825,120.836781,0.9765394
C1I101,溪頭,2023-05-04,23.661789,120.807647,5.60887e-09
C0AJ20,野柳,2023-05-04,25.20703,121.690021,1.127989e-06
C0B060,暖暖,2023-05-04,25.0957,121.7403,4.745955e-08
C1H920,長豐,2023-05-04,24.102039,120.879897,1.5654551e-09
C0V360,內門,2023-05-04,22.975481,120.466769,4.292375e-08
C0R850,林邊,2023-05-04,22.4634,120.5339,1.6464323e-07
C0E930,龍鳳,2023-05-04,24.700034,120.859125,0.089223415
C0U910,冬山,2023-05-04,24.63373,121.7937,1.2607326e-08
C1E721,泰安,2023-05-04,24.489017,120.968036,3.97667e-09
82H320,茶改中部分場,2023-05-04,23.875611,120.913583,5.8251084e-09
C0M750,布袋,2023-05-04,23.380878,120.167789,0.9947121
C1S860,利嘉,2023-05-04,22.809417,121.050528,1.3446133e-07
72C440,桃園農改,2023-05-04,24.950944,121.030583,0.45605385
E2S980,林試太麻里1,2023-05-04,22.598922,120.980044,0.9997818
C0X170,關廟,2023-05-04,22.963017,120.327797,6.2749123e-06
C0V720,林園,2023-05-04,22.507747,120.394511,7.974933e-08
C1I510,線浸林道,2023-05-04,23.761508,120.832956,3.5383942e-09
C0D690,外湖,2023-05-04,24.917735,120.968711,0.8310813
C0C750,新興坑尾,2023-05-04,25.0061,121.0971,0.9952825
B2Q810,畜試南區分所,2023-05-04,21.945583,120.802167,0.15903372
C0S790,金崙,2023-05-04,22.538122,120.966875,0.99878484
C0AH90,福山植物園,2023-05-04,24.760717,121.58135,1.4237797e-08
C0I540,奇萊稜線,2023-05-04,24.109231,121.326456,9.377623e-09
C0M850,表湖,2023-05-04,23.24186,120.64166,2.0435462e-09
C0S770,大溪山,2023-05-04,22.478475,120.943325,0.9955675
C0AG80,中和,2023-05-04,24.991622,121.491792,1.0984172e-07
C0T790,大禹嶺,2023-05-04,24.186117,121.316086,4.1892236e-09
C0T9B0,水源,2023-05-04,23.991861,121.537169,1.8429157e-08
C0R840,牡丹池山,2023-05-04,22.168389,120.841225,0.76477134
C1I131,桶頭,2023-05-04,23.641944,120.654117,1.0747684e-08
CAL110,布袋國中,2023-05-04,23.35893,120.18026,0.9947121
467571,新竹,2023-05-04,24.827853,121.014219,0.0058990107
C0Z290,赤柯山,2023-05-04,23.36893,121.38293,1.1077457e-08
C0X280,將軍,2023-05-04,23.214999,120.13577,0.07309906
C0S690,太麻里,2023-05-04,22.60902,120.98533,1.632604e-06
C0U880,北關,2023-05-04,24.9072,121.8734,5.6708654e-07
C1H860,瑞岩,2023-05-04,24.123772,121.18345,5.374239e-09
C0G810,埔心,2023-05-04,23.947633,120.525456,0.00028629482
C0U970,大福,2023-05-04,24.80064,121.81389,6.789253e-07
C1E670,南礦,2023-05-04,24.538278,121.002836,5.228191e-09
C0M520,東後寮,2023-05-04,23.369908,120.248065,0.9932874
C1E461,松安,2023-05-04,24.397972,120.986022,3.6328633e-09
72G600,臺中農改,2023-05-04,24.003028,120.534389,9.346508e-05
C2N160,西拉雅風管處,2023-05-04,23.189481,120.335297,0.99938524
C0A640,石碇,2023-05-04,24.993969,121.662917,3.6026058e-09
E2S960,林試太麻里2,2023-05-04,22.598,120.99775,0.9998919
C0F9Y0,桃山,2023-05-04,24.432739,121.303808,1.1225643e-08
C1I020,萬大,2023-05-04,23.979817,121.132261,1.8379895e-09
C0U940,羅東,2023-05-04,24.68184,121.74934,2.0487848e-08
C0M650,朴子,2023-05-04,23.43463,120.23902,0.9967335
C1I500,大尖山,2023-05-04,23.858572,120.994889,6.5378383e-09
C0G820,田尾,2023-05-04,23.901669,120.509389,0.0002866318
E2K600,四湖植物園,2023-05-04,23.676986,120.163433,0.99770087
C0S730,綠島,2023-05-04,22.6672,121.47533,0.073088236
12Q970,東港工作站,2023-05-04,22.479997,120.466058,1.8725876e-07
C0E430,南庄,2023-05-04,24.601775,121.000214,4.4563184e-09
C1TA00,太魯閣,2023-05-04,24.15773,121.6236,1.1570148e-08
466920,臺北,2023-05-04,25.037658,121.514853,8.18646e-08
C0R600,舊泰武,2023-05-04,22.588194,120.664944,3.275602e-09
C1I260,北坑,2023-05-04,23.9246,121.006903,1.7129006e-09
466910,鞍部,2023-05-04,25.182586,121.529731,6.5809638e-09
C1I230,九份二山,2023-05-04,23.961944,120.845,3.3698806e-09
C2A660,瑞芳,2023-05-04,25.113169,121.801147,2.9009405e-07
C0R270,琉球嶼,2023-05-04,22.332244,120.362236,5.4235847e-09
C1T990,高寮,2023-05-04,23.394239,121.356808,8.441861e-09
C0G620,芬園,2023-05-04,24.015678,120.6213,2.9627358e-07
C1Z140,荖溪,2023-05-04,23.890575,121.45964,5.849037e-08
C1I201,中心崙,2023-05-04,23.728722,120.712097,7.4098216e-10
C1I400,凌霄,2023-05-04,24.018778,121.004456,2.2716324e-09
C1M640,十字,2023-05-04,23.492153,120.753683,5.041317e-09
G2P820,農試鳳山分所,2023-05-04,22.646611,120.356083,1.7212036e-08
C0Z270,蕃薯寮,2023-05-04,23.73835,121.540108,1.9227912e-08
C0F9Q0,外埔,2023-05-04,24.347817,120.705686,1.1114971e-06
C0K580,高鐵雲林,2023-05-04,23.737456,120.417944,0.00017850994
C2I090,鳳凰,2023-05-04,23.728081,120.787347,2.8779126e-09
C0U990,員山,2023-05-04,24.74435,121.72247,2.193527e-08
C0V770,大社,2023-05-04,22.730306,120.346639,1.3490776e-08
C0X120,麻豆,2023-05-04,23.183289,120.248611,0.9992064
C0C670,龍潭,2023-05-04,24.870056,121.221389,3.6453294e-09
C0D680,香山濕地,2023-05-04,24.783581,120.914988,0.00018504163
C0S980,勝林山,2023-05-04,22.430439,120.8938,3.5418574e-07
C0V730,大寮,2023-05-04,22.605614,120.395717,3.1558006e-08
C0R570,麟洛,2023-05-04,22.65078,120.52719,2.3355926e-07
CAG100,王功漁港,2023-05-04,23.96824,120.32586,0.9935273
C0X290,北門,2023-05-04,23.267772,120.125481,0.073071845
C2F930,大甲,2023-05-04,24.347667,120.640403,0.043022696
C0D650,湖口,2023-05-04,24.904794,121.043628,0.22292395
C0E420,竹南,2023-05-04,24.708978,120.888897,0.028085683
C0U780,五結,2023-05-04,24.68637,121.79794,2.2195232e-08
C1I250,鯉潭,2023-05-04,23.961922,120.991131,4.9310582e-09
C0R130,阿禮,2023-05-04,22.742908,120.743678,4.0307353e-09
C0X100,臺南市北區,2023-05-04,23.010394,120.194228,0.2250855
C0S920,金峰嘉蘭,2023-05-04,22.594789,120.960825,0.99975556
C0V490,新興,2023-05-04,22.627422,120.298803,3.522874e-08
C0F9K0,大安,2023-05-04,24.345061,120.588025,0.39285544
72N100,臺南農改,2023-05-04,23.0605,120.342194,0.9983526
467290,古坑,2023-05-04,23.633639,120.551889,2.6895943e-06
C0V440,鳳山,2023-05-04,22.646653,120.356122,1.7212036e-08
C1T940,大觀,2023-05-04,23.714206,121.373133,1.2164281e-08
72T250,花蓮農改,2023-05-04,23.975222,121.563889,2.0258851e-06
C0E740,造橋,2023-05-04,24.637056,120.864778,0.0029194187
C0R100,尾寮山,2023-05-04,22.833111,120.683889,2.9764458e-09
A2K630,臺大雲林校區,2023-05-04,23.730628,120.423903,0.00017850994
C0D580,寶山,2023-05-04,24.735006,121.025192,2.3892295e-09
E2P990,林試扇平站,2023-05-04,22.9677,120.6857,1.4559071e-08
C0AI30,三重,2023-05-04,25.057328,121.500629,1.1290829e-07
C0AH00,汐止,2023-05-04,25.066881,121.658778,8.18646e-08
C1Z040,立山,2023-05-04,23.443356,121.327375,2.0470699e-08
C0R740,獅子,2023-05-04,22.201569,120.70525,0.792337
C0W130,花嶼,2023-05-04,23.40007,119.32276,0.79207885
C0A950,鼻頭角,2023-05-04,25.129036,121.923372,0.99815375
C0K470,林內,2023-05-04,23.748675,120.609642,2.9362352e-06
82C160,茶改場,2023-05-04,24.908472,121.185333,7.187961e-09
C0Z320,清水林道,2023-05-04,23.27125,121.188272,1.6164678e-08
C0R760,南仁湖,2023-05-04,22.084681,120.863353,0.9546015
C0M670,大林,2023-05-04,23.600616,120.45841,0.03364953
C0M800,茶山,2023-05-04,23.299075,120.664767,3.4016139e-09
C0A9C0,天母,2023-05-04,25.117494,121.537169,3.0697885e-07
72K220,南改斗南分場,2023-05-04,23.634556,120.477333,0.001095688
72AI40,桃改樹林分場,2023-05-04,24.944503,121.386972,8.241698e-09
C0S910,蘭嶼燈塔,2023-05-04,22.081197,121.503117,0.2159638
C0B050,八斗子,2023-05-04,25.144754,121.79167,3.3399085e-06
C0U900,內城,2023-05-04,24.71813,121.68766,1.7025501e-08
C0X320,柳營,2023-05-04,23.253328,120.375253,0.9996398
C0M790,新港,2023-05-04,23.553269,120.345728,0.9120198
C0F9T0,西屯,2023-05-04,24.179494,120.641275,1.264459e-06
C0SA30,都歷,2023-05-04,23.020333,121.323642,8.15857e-06
C0C620,蘆竹,2023-05-04,25.084275,121.265767,0.58326197
C0R730,大坪頂,2023-05-04,22.024633,120.69355,0.9863776
C0AJ40,石門,2023-05-04,25.273672,121.601198,6.309013e-05
C0E750,苗栗,2023-05-04,24.564569,120.824575,2.768366e-07
C0T870,鯉魚潭,2023-05-04,23.935639,121.508944,5.260091e-08
C1V170,排雲,2023-05-04,23.463619,120.954147,7.827589e-09
C2H950,中寮,2023-05-04,23.884447,120.766406,1.6914954e-07
C0R350,貓鼻頭,2023-05-04,21.921774,120.7358,0.09471464
C0V660,岡山,2023-05-04,22.797078,120.294958,1.0700567e-06
C1H941,雙冬,2023-05-04,23.967378,120.802189,1.6760768e-09
C0AJ70,田寮,2023-05-04,25.2698,121.4886,0.27314374
C0AI00,五股,2023-05-04,25.07445,121.42728,1.8105274e-08
C0Z280,德武,2023-05-04,23.47426,121.41071,5.632283e-09
C0R700,枋山,2023-05-04,22.246844,120.661086,0.009759427
C0C460,復興,2023-05-04,24.820208,121.352281,2.4913385e-09
E2H360,蓮華池,2023-05-04,23.918333,120.885278,1.3545559e-09
C0M640,中埔,2023-05-04,23.42538,120.5229,2.675688e-05
C0W140,金沙,2023-05-04,24.488292,118.408778,0.3096042
C2A540,四堵,2023-05-04,24.8926,121.745736,2.058016e-08
C0ACA0,新莊,2023-05-04,25.051478,121.446756,2.7106014e-07
C0R220,潮州,2023-05-04,22.534361,120.54,2.7117027e-05
U2HA40,臺大內茅埔,2023-05-04,23.689722,120.851117,5.1426237e-08
467490,臺中,2023-05-04,24.145736,120.684075,0.0001509924
C0U960,翠峰湖,2023-05-04,24.510856,121.608044,1.3426138e-08
E2HA20,林試畢祿溪站,2023-05-04,24.226944,121.308522,5.797896e-09
C0V890,前鎮,2023-05-04,22.5718,120.3117,4.3041315e-08
467620,蘭嶼,2023-05-04,22.036969,121.558339,0.96303964
C1F941,雪嶺,2023-05-04,24.280586,121.026642,1.066734e-08
C0AC80,文山,2023-05-04,25.00235,121.575728,5.926659e-08
C0F9R0,龍井,2023-05-04,24.184536,120.528972,0.9854612
C0M760,民雄,2023-05-04,23.551754,120.428457,0.050651856
C0UA40,西德山,2023-05-04,24.560647,121.752608,1.2527218e-08
C1T920,中興,2023-05-04,23.769503,121.498653,2.642943e-08
C0D550,雪霸,2023-05-04,24.526972,121.11605,4.6220805e-09
C2F860,梨山,2023-05-04,24.247522,121.243669,6.006018e-09
C0R320,車城,2023-05-04,22.0744,120.716247,0.66467094
C1S870,南美山,2023-05-04,23.15025,121.382333,2.4743466e-07
C0B020,基隆嶼,2023-05-04,25.19141,121.78391,0.99465734
C1U501,牛鬥,2023-05-04,24.637836,121.573656,1.2238075e-08
C0M730,嘉義市東區,2023-05-04,23.457673,120.460531,0.010497251
C0S700,知本,2023-05-04,22.684866,121.005642,9.728753e-07
C1N001,沙崙,2023-05-04,22.935472,120.309406,1.0476616e-05
C0V760,橋頭,2023-05-04,22.757806,120.30575,1.78101e-08
C0G960,福寶,2023-05-04,24.0443,120.3814,0.4191035
C0X210,白河,2023-05-04,23.347466,120.414427,0.9604223
C0S810,東河,2023-05-04,22.972672,121.303986,0.9977231
C0R670,楓港,2023-05-04,22.190131,120.692156,0.98239875
C0FA50,霧峰,2023-05-04,24.0419,120.6995,8.303378e-07
C0UB10,蘇澳,2023-05-04,24.5969,121.8571,9.4169145e-08
C0G950,防潮門,2023-05-04,24.1835,120.4871,0.9853871
C0M740,六腳,2023-05-04,23.492871,120.290625,0.9886174
C1R250,力里,2023-05-04,22.428117,120.629228,1.9607116e-07
C0K330,虎尾,2023-05-04,23.719183,120.442036,0.00014389251
C2FA00,烏石坑,2023-05-04,24.273503,120.947617,3.1712577e-09
C0V620,永安,2023-05-04,22.82315,120.236856,1.0700567e-06
C1I330,楓樹林,2023-05-04,23.986803,121.076117,1.999641e-09
C0W200,湖西,2023-05-04,23.596314,119.67275,0.20630004
72Q010,高雄農改場,2023-05-04,22.709333,120.525889,6.051626e-08
C0SA40,瑞和,2023-05-04,22.974361,121.156697,1.7247534e-06
C0C680,龜山,2023-05-04,25.02846,121.38656,8.662203e-09
C2V260,月眉,2023-05-04,22.971003,120.539853,1.5328833e-08
C0V450,鳳森,2023-05-04,22.545064,120.392592,3.749436e-08
C0U720,南山,2023-05-04,24.43742,121.38167,7.525652e-09
A2N290,臺南蘭花園區,2023-05-04,23.340258,120.379661,0.99948925
C0R560,新園,2023-05-04,22.5434,120.461558,7.974933e-08
C0U890,三星,2023-05-04,24.66812,121.65302,2.3684816e-08
C1V300,御油山,2023-05-04,23.001983,120.715364,6.568148e-09
C0U600,礁溪,2023-05-04,24.817539,121.765608,2.0794412e-05
C1T980,龍澗,2023-05-04,24.023289,121.411328,5.5516534e-08
C0D670,海天一線,2023-05-04,24.831986,120.914438,0.5032493
C0SA00,歷坵,2023-05-04,22.520969,120.89185,0.0002907676
C0M710,東石,2023-05-04,23.458927,120.15385,0.7092638
C0M780,鹿草,2023-05-04,23.41134,120.30835,0.9960483
C0U520,雙連埤,2023-05-04,24.753033,121.641303,1.2753796e-08
C0B010,七堵,2023-05-04,25.094819,121.71713,1.6837251e-07
C0R480,長治,2023-05-04,22.693128,120.542622,6.497055e-08
C1V830,國三S383K,2023-05-04,22.781967,120.426475,6.12325e-09
12Q980,恆春工作站,2023-05-04,22.079678,120.714425,0.66467094
C1O940,東山服務區,2023-05-04,23.286016,120.398472,0.999006
C1U840,東澳嶺,2023-05-04,24.5378,121.8485,1.1399637e-08
C1D630,飛鳳山,2023-05-04,24.766464,121.119178,1.5597535e-09
C0S940,石寧山,2023-05-04,23.223772,121.406639,5.5030522e-08
C0K410,北港,2023-05-04,23.573957,120.292802,0.9993311
C2M620,瑞里,2023-05-04,23.545133,120.675197,6.2099095e-09
C2O950,安南,2023-05-04,23.076694,120.144861,0.3478582
C0F0E0,南湖圈谷,2023-05-04,24.363714,121.444667,2.1805954e-08
467610,成功,2023-05-04,23.097486,121.373428,0.58894205
C0G890,伸港,2023-05-04,24.148933,120.484403,0.5275996
C2E540,龍溪,2023-05-04,24.606489,120.783933,0.0051397355
C1V200,梅山,2023-05-04,23.268447,120.823556,7.144086e-09
C0T9H0,加路蘭山,2023-05-04,23.682947,121.5274,1.4750426e-08
C2O930,玉井,2023-05-04,23.126042,120.46055,0.001171817
C1F911,新伯公,2023-05-04,24.221361,120.841069,4.4643667e-09
C0R490,九如,2023-05-04,22.7405,120.490503,6.565971e-08
C0X200,左鎮,2023-05-04,23.056758,120.408522,2.4900297e-05
C1F891,稍來,2023-05-04,24.265689,121.001142,1.0034925e-08
72N240,七股研究中心,2023-05-04,23.081672,120.062894,0.43472794
C0C700,中壢,2023-05-04,24.977661,121.256375,4.6582964e-09
C0M690,水上,2023-05-04,23.419734,120.388909,0.99423844
C0V690,鼓山,2023-05-04,22.623325,120.275575,3.5183078e-08
C0O860,大內,2023-05-04,23.11885,120.36083,0.9986532
C0Z200,萬榮,2023-05-04,23.709219,121.420106,4.3950628e-08
C0T9D0,和中,2023-05-04,24.26676,121.74103,1.3198797e-06
C1O921,楠西,2023-05-04,23.183511,120.484083,0.0008652485
C0AJ30,淡水觀海,2023-05-04,25.184591,121.408616,7.102343e-06
C0V810,左營,2023-05-04,22.67491,120.28491,2.5474398e-08
C0UA70,桃源谷,2023-05-04,24.962606,121.888875,6.240936e-09
C0X130,官田,2023-05-04,23.193217,120.315422,0.99943113
C1H000,翠峰,2023-05-04,24.109397,121.205211,3.4750884e-09
C0UA90,石城,2023-05-04,24.980444,121.951214,1.2828103e-07
C1E681,南勢山,2023-05-04,24.421669,120.923831,2.3614348e-09
C0A9F0,內湖,2023-05-04,25.079422,121.57545,8.18646e-08
C0K291,宜梧,2023-05-04,23.536281,120.169329,0.99840236
C1K540,口湖,2023-05-04,23.585344,120.180517,0.9946506
C0R780,滿州,2023-05-04,22.024403,120.839892,0.48379177
C0V870,文安,2023-05-04,22.8025,120.2164,1.5240855e-06
C0U650,玉蘭,2023-05-04,24.675286,121.587061,1.9144549e-08
C0R640,東港,2023-05-04,22.46247,120.44074,1.8725876e-07
K2E360,苗栗農改,2023-05-04,24.495722,120.829111,1.2129696e-07
C0AJ80,板橋,2023-05-04,25.0107,121.4489,1.3601415e-07
C0S660,下馬,2023-05-04,23.150427,121.070312,9.00871e-09
C1H9B1,阿眉,2023-05-04,24.1263,120.994672,6.7897106e-09
C0UA20,多加屯,2023-05-04,24.368614,121.373189,3.917572e-09
C0E730,頭份,2023-05-04,24.688247,120.912206,0.034496825
72V140,高改旗南分場,2023-05-04,22.857861,120.516667,1.8424446e-08
C0K480,莿桐,2023-05-04,23.761192,120.502372,0.00076240767
C0U980,坪林石牌,2023-05-04,24.86478,121.77396,1.3298172e-08
C0T900,西林,2023-05-04,23.8119,121.441458,1.4650943e-08
C1I150,青雲,2023-05-04,23.793361,120.949378,2.5097626e-09
467350,澎湖,2023-05-04,23.565503,119.563094,0.45261458
C0G800,埔鹽,2023-05-04,24.000394,120.431683,0.16583426
C0H960,草屯,2023-05-04,23.973672,120.68085,3.5148307e-07
C1V780,多納林道,2023-05-04,22.888028,120.737917,2.3055708e-09
C0E920,通霄漁港,2023-05-04,24.498589,120.673876,0.765601
C0Z330,安通山,2023-05-04,23.290728,121.348528,4.039155e-09
C0AH10,永和,2023-05-04,25.01125,121.508111,1.3601415e-07
C2G640,鹿港,2023-05-04,24.0753,120.430481,0.336785
C1E890,國三N149K,2023-05-04,24.463414,120.680019,0.4910942
C1R110,口社,2023-05-04,22.770111,120.645222,4.891516e-07
C1M870,國三N285K,2023-05-04,23.550319,120.505833,2.9794617e-05
467050,新屋,2023-05-04,25.006744,121.047486,0.99798715
C1E480,鳳美,2023-05-04,24.554803,121.034747,2.7982354e-09
C0M530,奮起湖,2023-05-04,23.493903,120.699253,6.1418715e-09
C0C590,觀音,2023-05-04,25.027072,121.153317,0.99967134
C0T9M0,靜浦,2023-05-04,23.455167,121.495028,1.2984646e-08
C0AI40,石牌,2023-05-04,25.115597,121.513139,4.47067e-07
C1F871,上谷關,2023-05-04,24.203483,121.018644,2.1055822e-09
C0G880,二水,2023-05-04,23.810742,120.6173,1.478131e-05
C0R940,加祿堂,2023-05-04,22.3363,120.6217,0.9241838
C0W220,北竿,2023-05-04,26.220358,119.974881,0.08636913
C0O960,崎頂,2023-05-04,22.959547,120.369317,6.9332685e-07
C0S750,向陽,2023-05-04,23.248397,120.986133,3.412284e-09
C0T9F0,水璉,2023-05-04,23.797131,121.542514,1.090395e-08
C1M600,頭凍,2023-05-04,23.406364,120.603339,3.9349533e-09
467660,臺東,2023-05-04,22.752211,121.154586,0.51088226
C1D380,新埔,2023-05-04,24.84745,121.03834,0.0006757485
C0V750,路竹,2023-05-04,22.854997,120.259439,6.6677094e-05
C0N050,蚵寮,2023-05-04,23.301,120.1104,0.479877
72M700,南改鹿草分場,2023-05-04,23.416869,120.283061,0.9967335
C1SA50,利嘉林道,2023-05-04,22.82325,121.009389,1.96622e-08
467550,玉山,2023-05-04,23.487614,120.959522,1.235372e-08
C0A940,金山,2023-05-04,25.223628,121.643967,7.311679e-07
C1V340,大津,2023-05-04,22.888322,120.645986,8.8473186e-08
C0W180,七美,2023-05-04,23.219333,119.444892,0.8934206
C1F9C1,白冷,2023-05-04,24.182844,120.929889,1.4115301e-09
K2E710,苗改生物防治研究中心,2023-05-04,24.422861,120.871833,5.1451625e-09
C0N040,蘆竹溝,2023-05-04,23.2344,120.0961,0.07265853
C2W230,畜試所澎湖,2023-05-04,23.628342,119.513206,0.75868857
C0R880,後壁湖,2023-05-04,21.9457,120.7457,0.17737085
C1I280,埔中,2023-05-04,23.820778,120.642594,1.0744481e-09
467790,墾丁雷達站,2023-05-04,21.948235,120.808028,0.2163114
C0W190,望安,2023-05-04,23.380564,119.494075,0.91455317
466881,新北,2023-05-04,24.9593,121.52,9.3561866e-08
C0Z170,卓溪,2023-05-04,23.3443,121.3029,5.1804454e-09
C0F850,東勢,2023-05-04,24.246428,120.833047,2.0536831e-08
466900,淡水,2023-05-04,25.164889,121.448906,0.06390503
C0I370,魚池,2023-05-04,23.895703,120.94135,1.4660327e-09
C0C630,大溪,2023-05-04,24.882853,121.265547,4.8226405e-09
C0A520,山佳,2023-05-04,24.974944,121.402008,6.5920314e-09
C0I110,竹山,2023-05-04,23.761225,120.688156,1.1113954e-06
82H840,茶改南部分場,2023-05-04,23.762528,120.7405,1.301154e-09
C0G660,溪湖,2023-05-04,23.94835,120.479122,0.00038193312
C1T800,洛韶,2023-05-04,24.204558,121.453956,5.4304607e-08
C1T810,慈恩,2023-05-04,24.192044,121.388386,1.2760166e-09
C1E451,象鼻,2023-05-04,24.368617,120.940228,1.7055718e-09
C0AC60,三峽,2023-05-04,24.939025,121.369728,6.9450254e-09
C0I490,萬大林道,2023-05-04,23.928228,121.091411,3.5796668e-09
C1I290,豐丘,2023-05-04,23.668178,120.887417,6.5650165e-09
C1I320,奧萬大,2023-05-04,23.952956,121.178556,2.63938e-09
C0U770,南澳,2023-05-04,24.44935,121.81022,1.6872808e-07
C0A980,社子,2023-05-04,25.109508,121.469681,0.28409258
C0V800,六龜,2023-05-04,22.997889,120.633583,2.494134e-09
C1G9D0,國一S218K,2023-05-04,23.890641,120.493253,0.00034706778
C2F9A0,中竹林,2023-05-04,24.103556,120.751061,2.3236937e-09
C0FA40,臺中電廠,2023-05-04,24.2146,120.4907,0.9854612
C0H9C0,合歡山,2023-05-04,24.143442,121.272547,1.1378023e-08
C0X060,下營,2023-05-04,23.22695,120.256261,0.99955434
G2M350,農試溪口農場,2023-05-04,23.58565,120.408111,0.100925975
C0U860,頭城,2023-05-04,24.85323,121.8308,3.393923e-05
C0R580,南州,2023-05-04,22.48591,120.50274,1.8725876e-07
C0D430,峨眉,2023-05-04,24.6905,121.017189,8.776573e-09
C0G780,秀水,2023-05-04,24.03405,120.503869,9.346508e-05
72N100,臺南農改場,2023-05-04,23.0605,120.342194,0.9983526
C0S900,蘭嶼高中,2023-05-04,22.04909,121.51214,0.12964869
467540,大武,2023-05-04,22.355675,120.903789,0.9981228
C1F9W0,德基,2023-05-04,24.254783,121.190261,8.454236e-09
C1Z120,壽豐,2023-05-04,23.870853,121.508081,2.8626342e-08
C0W160,烏坵,2023-05-04,24.9944,119.44956,0.94196063
C1I240,外大坪,2023-05-04,23.958697,120.917931,4.5967425e-09
C1I550,國六W023K,2023-05-04,23.979067,120.867742,2.2052804e-09
C0R870,興海,2023-05-04,21.9752,120.8439,0.15903372
C0R140,瑪家,2023-05-04,22.682903,120.686639,6.978101e-09
C0A530,坪林,2023-05-04,24.938183,121.70975,2.7194634e-08
C0X260,後壁,2023-05-04,23.366358,120.362326,0.9995034
C0Z230,和平,2023-05-04,24.30717,121.77007,1.7489742e-06
C0G770,福興,2023-05-04,24.041289,120.437669,0.16583426
C0H9A0,神木村,2023-05-04,23.532742,120.843667,5.1074114e-09
C0I460,南投,2023-05-04,23.911469,120.687331,4.3694357e-08
C0I480,梅峰,2023-05-04,24.085272,121.173572,3.3584975e-09
C1V570,吉東,2023-05-04,22.85422,120.5454,1.4490587e-08
C2A560,福山,2023-05-04,24.776203,121.502811,2.0623974e-08
C0AH30,五分山,2023-05-04,25.07125,121.780794,4.0248813e-09
C0FA10,松柏,2023-05-04,24.429115,120.617482,0.93556255
72S200,東改班鳩分場,2023-05-04,22.829528,121.077694,9.638559e-06
72HA00,中改埔里分場,2023-05-04,23.903208,120.963364,1.5004267e-09
C0C650,平鎮,2023-05-04,24.897503,121.214636,2.482189e-09
C0S930,延平,2023-05-04,22.902581,121.084058,2.1810215e-06
C0UA60,樟樹山,2023-05-04,24.41393,121.78325,1.8116074e-07
C1S670,摩天,2023-05-04,23.199503,121.027,1.6081678e-08
C0V630,茄萣,2023-05-04,22.906642,120.182608,0.0001281924
466940,基隆,2023-05-04,25.133314,121.740475,2.52964e-06
C0X050,東河,2023-05-04,23.296598,120.385608,0.9992347
C0R770,保力,2023-05-04,22.071122,120.764111,0.9675132
G2L020,農試嘉義分所,2023-05-04,23.485028,120.473806,1.9632464e-05
C0X240,關子嶺,2023-05-04,23.331169,120.508025,5.469637e-09
C0I380,集集,2023-05-04,23.828206,120.801467,5.181226e-09
466990,花蓮,2023-05-04,23.975128,121.613275,3.5994972e-06
C1V220,小關山,2023-05-04,23.154217,120.813603,5.3327622e-09
C1F9G1,慶福山,2023-05-04,24.180853,120.848378,1.0300477e-09
C0Z250,瑞穗林道,2023-05-04,23.49284,121.30688,7.744504e-08
C0D590,新豐,2023-05-04,24.87068,120.97721,0.51751417
C0A870,五指山,2023-05-04,25.132153,121.608692,3.0366392e-09
C0UA50,西帽山,2023-05-04,24.555361,121.802628,1.3181656e-08
C0X160,仁德,2023-05-04,22.968258,120.257689,0.93384427
C1H971,六分寮,2023-05-04,23.92507,120.6378,1.1107517e-09
C0W120,西嶼,2023-05-04,23.5626,119.468436,0.6168195
C0G650,員林,2023-05-04,23.946503,120.585597,0.0002194433
C0AD50,鶯歌,2023-05-04,24.951533,121.346294,5.5207536e-09
C0S990,山豬窟,2023-05-04,22.318619,120.857372,0.9990045
72Q010,高雄農改,2023-05-04,22.709333,120.525889,6.051626e-08
C0X190,安平,2023-05-04,22.993161,120.152181,0.2250855
C0K400,斗六,2023-05-04,23.720583,120.541127,0.00010405336
12J990,口湖工作站,2023-05-04,23.589978,120.180394,0.9946506
C0O830,北寮,2023-05-04,23.079561,120.495008,6.5385024e-08
C1D410,白蘭,2023-05-04,24.579364,121.079947,5.4612035e-09
C0S970,加津林,2023-05-04,22.416211,120.926942,0.9985221
C0D700,關西,2023-05-04,24.7977,121.1732,2.9944454e-09
C0M810,里佳,2023-05-04,23.389125,120.716647,3.890868e-09
C0U750,龜山島,2023-05-04,24.841667,121.953133,1.1111785e-07
C0R810,內獅,2023-05-04,22.305064,120.642986,0.91453236
C1M390,龍美,2023-05-04,23.406728,120.654417,3.5097603e-09
C1H840,國三N238K,2023-05-04,23.841008,120.707711,3.8871595e-09
CAQ030,崎峰國小,2023-05-04,22.42565,120.49521,1.8725876e-07
C2E520,大湖,2023-05-04,24.414939,120.870872,3.4957768e-09
467530,阿里山,2023-05-04,23.508208,120.813242,5.956904e-09
C1E691,南湖,2023-05-04,24.40135,120.837533,2.3531035e-09
C0FA30,梧棲,2023-05-04,24.256003,120.523381,0.8470634
C1V231,高中,2023-05-04,23.134911,120.716711,1.3650184e-09
C0F9V0,新社,2023-05-04,24.200172,120.815806,2.1682478e-09
C0H890,埔里,2023-05-04,23.972169,120.952425,1.2324953e-09
C0R690,墾丁,2023-05-04,21.966756,120.810269,0.82826006
C0F0D0,審馬陣,2023-05-04,24.381675,121.4203,6.732762e-09
C0R820,白鷺,2023-05-04,22.454275,120.666219,1.29906415e-08
U2H480,臺大溪頭,2023-05-04,23.670306,120.798194,6.596849e-09
C1V190,南天池,2023-05-04,23.27403,120.91176,3.3178886e-09
K2E360,苗栗農改場,2023-05-04,24.495722,120.829111,1.2129696e-07
CAJ050,海口故事園區,2023-05-04,23.57543,120.14121,0.9946506
C0O990,媽廟,2023-05-04,22.99175,120.293525,0.94052446
C0D480,打鐵坑,2023-05-04,24.849664,121.150789,3.6323298e-09
C0Z220,和平林道,2023-05-04,24.343922,121.656317,1.690416e-08
72C440,桃園農改場,2023-05-04,24.950944,121.030583,0.45605385
C1E711,馬拉邦山,2023-05-04,24.367306,120.901656,1.7255778e-09
C0D560,竹東,2023-05-04,24.767147,121.057881,3.758499e-09
C0F9U0,南屯,2023-05-04,24.137006,120.637969,7.719323e-06
C0M720,番路,2023-05-04,23.464657,120.554156,1.5374841e-06
C0F0A0,雪山圈谷,2023-05-04,24.388594,121.236339,1.1557069e-08
C1A9N0,四十份,2023-05-04,24.934158,121.593283,3.1424343e-09
C0U760,東澳,2023-05-04,24.52196,121.83318,3.4822774e-06
C0X230,鹽水,2023-05-04,23.272621,120.247641,0.3239222
C0V370,古亭坑,2023-05-04,22.893178,120.401947,8.254398e-08
C1I340,新興橋,2023-05-04,23.563333,120.868728,1.2462538e-08
C0SA80,土坂,2023-05-04,22.453108,120.887572,0.99973744
C0R160,鹽埔,2023-05-04,22.739558,120.530778,6.052653e-08
C0AC40,大屯山,2023-05-04,25.175675,121.522408,7.127237e-09
466850,五分山雷達站,2023-05-04,25.071182,121.781205,4.0415435e-09
C1AI50,國三N016K,2023-05-04,25.034164,121.619664,3.5673796e-08
C1V600,藤枝,2023-05-04,23.071961,120.757042,5.101181e-09
C1E601,南勢,2023-05-04,24.572486,120.734842,0.31440872
C0Z180,新城,2023-05-04,24.03946,121.60454,2.9347905e-06
C0O980,新市,2023-05-04,23.061614,120.298197,0.9990419
C0K420,西螺,2023-05-04,23.800407,120.467394,1.3627304e-05
C0Z050,佳心,2023-05-04,23.34567,121.21316,1.1276803e-08
C0AD30,蘆洲,2023-05-04,25.086594,121.472331,1.1290829e-07
C0V610,梓官,2023-05-04,22.760558,120.267211,1.78101e-08
K2F750,種苗改良場,2023-05-04,24.225972,120.800917,2.7850782e-09
C0UA80,大溪漁港,2023-05-04,24.941801,121.902955,5.1816096e-07
C1AI60,國一39K邊坡,2023-05-04,25.064361,121.383836,1.2147309e-08
C0W150,金寧,2023-05-04,24.457703,118.328989,0.24158223
V2C250,八德合作社,2023-05-04,24.93775,121.266389,3.2613134e-09
C0AH40,平等,2023-05-04,25.129142,121.577086,3.9579264e-09
C0R540,佳冬,2023-05-04,22.419456,120.552375,0.0036755097
466950,彭佳嶼,2023-05-04,25.627975,122.079744,0.99829835
C0A890,雙溪,2023-05-04,25.036003,121.864242,1.2348901e-06
C0C480,桃園,2023-05-04,24.992425,121.323172,5.79185e-09
C0AH50,林口,2023-05-04,25.072181,121.38084,7.319588e-09
A2K360,水試臺西試驗場,2023-05-04,23.717231,120.190522,0.9984872
B2N890,畜試所,2023-05-04,23.058972,120.336406,0.9983526
C0F9S0,烏日,2023-05-04,24.107058,120.624103,5.1345174e-05
C0C490,八德,2023-05-04,24.928708,121.283289,3.1714573e-09
C0R190,赤山,2023-05-04,22.592333,120.614306,5.3594626e-06
C0T820,天祥,2023-05-04,24.179597,121.495639,2.5062775e-06
C1F9E1,龍安,2023-05-04,24.1605,120.831961,1.2880129e-09
C0V820,小林,2023-05-04,23.148408,120.63325,1.1696216e-09
C2G870,芳苑,2023-05-04,23.922303,120.320025,0.9926012
C0E850,大河,2023-05-04,24.618069,120.948578,8.839657e-09
C1U670,寒溪,2023-05-04,24.634,121.71691,8.062504e-09
C0N020,城西,2023-05-04,23.0568,120.0956,0.2250855
C1Z110,三棧,2023-05-04,24.11557,121.60501,4.2855896e-07
C0R280,檳榔,2023-05-04,22.076078,120.836777,0.9588696
C0F9L0,后里,2023-05-04,24.310436,120.729725,1.0837734e-06
C0D540,橫山,2023-05-04,24.71116,121.11693,1.2750726e-09
C1D420,太閣南,2023-05-04,24.632808,121.160575,1.00064845e-08
C1E770,公館,2023-05-04,24.526914,120.830806,2.7604042e-07
CAN130,水試所海水繁養殖中心,2023-05-04,23.120802,120.07968,0.43472794
C1I430,翠華,2023-05-04,24.191961,121.224339,2.3607503e-09
C1M400,菜瓜坪,2023-05-04,23.251928,120.576103,1.284637e-09
C0G730,二林,2023-05-04,23.903325,120.376081,0.10736039
72M360,南改義竹分場,2023-05-04,23.360694,120.279361,0.99331385
V2K620,麥寮合作社,2023-05-04,23.753836,120.294783,0.76608825
C0Z070,舞鶴,2023-05-04,23.46811,121.37407,4.449643e-09
C0B040,大武崙,2023-05-04,25.166676,121.706993,9.562015e-07
C1Z030,紅葉,2023-05-04,23.493119,121.338806,6.6161157e-09
C1I050,丹大,2023-05-04,23.753747,121.141147,3.423706e-09
C0I080,信義,2023-05-04,23.689694,120.851036,5.1426237e-08
C2A880,福隆,2023-05-04,25.017842,121.942083,1.4468459e-07
C0Z160,鳳林,2023-05-04,23.746114,121.453411,5.8116502e-08
C0V210,復興,2023-05-04,23.222403,120.806089,1.0999851e-08
C0H990,昆陽,2023-05-04,24.121322,121.273642,6.4097954e-09
C0S710,鹿野,2023-05-04,22.917711,121.122994,1.8422549e-08
C0I530,小奇萊,2023-05-04,24.131764,121.295717,6.8962516e-09
C0Z080,富源,2023-05-04,23.587642,121.378225,5.0941726e-08
467441,高雄,2023-05-04,22.7304,120.3125,1.3490776e-08
C1I140,卡奈托灣,2023-05-04,23.754364,121.087872,1.6617588e-09
C0I520,玉山風口,2023-05-04,23.470489,120.955994,1.418816e-08
C1G691,下水埔,2023-05-04,23.816114,120.5676,0.0003014728
C0X110,臺南市南區,2023-05-04,22.961189,120.188378,0.93384427
C0V680,仁武,2023-05-04,22.701083,120.347722,2.5460213e-08
C2G840,北斗,2023-05-04,23.877586,120.514222,0.00022755376
C0R900,竹坑,2023-05-04,22.1385,120.7022,0.6966168
C0K250,崙背,2023-05-04,23.75555,120.318925,0.7657909
C0G860,社頭,2023-05-04,23.897647,120.5862,0.034338538
C0X150,安定,2023-05-04,23.102614,120.227839,0.99841225
C0R590,里港,2023-05-04,22.77919,120.49459,1.6639513e-08
C0E610,馬都安,2023-05-04,24.451272,120.930192,2.3093516e-09
C0E550,明德,2023-05-04,24.583486,120.885411,1.5451099e-07
C0R150,三地門,2023-05-04,22.709889,120.639944,5.9712227e-07
C0G910,花壇,2023-05-04,24.032076,120.549461,4.7133857e-05
C1D400,鳥嘴山,2023-05-04,24.71909,121.28387,6.953429e-09
C0K500,元長,2023-05-04,23.64981,120.315024,0.99772525
C0F0B0,石岡,2023-05-04,24.276061,120.777644,2.0065347e-07
C2V250,甲仙,2023-05-04,23.080106,120.591758,3.7004968e-09
C0SA20,金崙山,2023-05-04,22.567419,120.959667,8.137748e-08
C0V350,溪埔,2023-05-04,22.738578,120.446797,6.545327e-08
C0M660,溪口,2023-05-04,23.604131,120.403569,0.100925975
C1S880,壽卡,2023-05-04,22.238911,120.858903,0.3829552
72D680,桃改新埔分場,2023-05-04,24.834444,121.066111,0.0007028064
