站號,站名,日期,lat,lon,BLBTSLS
C0R710,龍磐,2023-12-13,21.931672,120.838942,0.6243424
C1F9D1,白毛台,2023-12-13,24.158325,120.886933,1.4271613e-09
C0G940,竹塘,2023-12-13,23.848253,120.386764,2.1805123e-08
467590,恆春,2023-12-13,22.003897,120.746339,0.18556993
C1O850,環湖,2023-12-13,23.148617,120.418633,3.436086e-07
C0U710,太平山,2023-12-13,24.505486,121.525656,2.1463258e-08
C0E820,獅潭,2023-12-13,24.539133,120.920042,2.105763e-09
C0V880,興達,2023-12-13,22.8778,120.2127,0.11736645
C0S890,關山,2023-12-13,23.0395,121.175017,8.0524337e-10
K2F750,種苗繁殖,2023-12-13,24.225972,120.800917,1.5341168e-09
C1Z130,銅門,2023-12-13,23.965694,121.492842,4.808138e-09
C0AD40,土城,2023-12-13,24.973208,121.445169,4.854528e-08
CAN140,六官養殖協會,2023-12-13,23.22881,120.29962,4.387186e-07
C0X180,山上,2023-12-13,23.0757,120.363253,1.3221137e-08
C0F9Z0,雪山東峰,2023-12-13,24.388792,121.268675,2.7576457e-08
C1M480,獨立山,2023-12-13,23.537022,120.607797,1.661293e-09
C0X220,學甲,2023-12-13,23.230367,120.182187,0.00038657332
C0R170,屏東,2023-12-13,22.660269,120.494072,2.4570308e-09
467650,日月潭,2023-12-13,23.881325,120.90805,3.5728318e-09
C0K600,箔子寮,2023-12-13,23.6197,120.14,0.0020305116
C0G830,埤頭,2023-12-13,23.866003,120.452806,5.841506e-10
C0S950,七塊厝,2023-12-13,22.954453,121.229922,8.828228e-10
467110,金門,2023-12-13,24.407306,118.289281,2.730689e-09
C0AH80,深坑,2023-12-13,25.002703,121.628328,3.4228524e-08
467990,馬祖,2023-12-13,26.169269,119.923419,2.9875956e-08
C0A970,三貂角,2023-12-13,25.007606,122.002058,1.3770475e-07
C0K430,褒忠,2023-12-13,23.690938,120.303634,8.193439e-09
467480,嘉義,2023-12-13,23.495925,120.432906,2.3884004e-09
C2E540,後龍,2023-12-13,24.606489,120.783933,2.9222742e-09
C0V400,阿公店,2023-12-13,22.804194,120.355528,1.1236611e-08
C0R440,大漢山,2023-12-13,22.405264,120.753181,1.4731953e-08
C0K280,四湖,2023-12-13,23.630414,120.227125,0.0008070079
C1F9B1,桐林,2023-12-13,24.066172,120.735194,5.829007e-10
C0K390,土庫,2023-12-13,23.679029,120.395574,7.254455e-10
C1I450,望鄉山,2023-12-13,23.594153,120.944286,1.3205411e-08
C0E910,海埔,2023-12-13,24.648767,120.772435,3.002979e-09
B2E890,畜試北區分所,2023-12-13,24.527806,120.770972,2.3388296e-09
C0R750,四林格山,2023-12-13,22.076989,120.802439,0.9974183
C0F0C0,中坑,2023-12-13,24.248517,120.903319,2.2464521e-09
C1I121,大鞍,2023-12-13,23.678381,120.760017,4.7497832e-09
72U480,花改蘭陽分場,2023-12-13,24.686306,121.716583,3.3149155e-09
C0A770,科教館,2023-12-13,25.096356,121.516507,1.4431754e-08
C0AJ60,六塊厝,2023-12-13,25.24,121.4481,2.3628165e-05
C0R620,墾雷,2023-12-13,21.900836,120.855269,0.59940046
467420,永康,2023-12-13,23.038386,120.2367,3.787535e-07
467300,東吉島,2023-12-13,23.25695,119.667467,0.9885044
C0I410,名間,2023-12-13,23.837053,120.701447,9.2956826e-10
A2C560,農工中心,2023-12-13,24.985917,121.239833,3.2753326e-07
C0V740,旗山,2023-12-13,22.888614,120.483597,2.3304267e-09
C0Z061,玉里,2023-12-13,23.3215,121.339656,2.6651952e-09
C0S840,南田,2023-12-13,22.279725,120.889208,0.51602155
C1I470,杉林溪,2023-12-13,23.639517,120.786444,5.7769998e-09
C1X040,東原,2023-12-13,23.291597,120.463822,1.1238191e-09
C0R660,枋寮,2023-12-13,22.367722,120.590647,1.7629048e-08
C1R120,上德文,2023-12-13,22.763272,120.704442,1.3823342e-09
C0K450,大埤,2023-12-13,23.646074,120.431537,4.5669832e-10
C0UA00,土場,2023-12-13,24.576533,121.495333,1.0864961e-08
467080,宜蘭,2023-12-13,24.763975,121.756528,3.8592125e-09
C0N030,四草,2023-12-13,23.0235,120.1116,0.0012026528
C0V650,彌陀,2023-12-13,22.783806,120.246361,4.345013e-06
C0D660,新竹市東區,2023-12-13,24.798681,120.986942,1.2837851e-08
82S580,茶改東部分場,2023-12-13,22.907694,121.130139,2.1650615e-09
C0C710,大溪永福,2023-12-13,24.892936,121.324975,1.0694459e-07
C0FA20,溫寮,2023-12-13,24.372177,120.583125,1.0636199e-07
C0V640,湖內,2023-12-13,22.887139,120.2445,0.12706842
C0R910,下寮,2023-12-13,22.3929,120.5548,1.7644657e-08
C0Z020,明里,2023-12-13,23.208717,121.262342,4.4344093e-09
C0M770,嘉義梅山,2023-12-13,23.585398,120.555587,7.137545e-10
G2F820,農業試驗所,2023-12-13,24.031261,120.688133,6.969585e-10
C0C660,楊梅,2023-12-13,24.912375,121.143047,1.1272856e-06
C1E511,新開,2023-12-13,24.347703,120.827019,1.4239039e-09
G2F820,農試所(霧峰),2023-12-13,24.031261,120.688133,6.969585e-10
C1I070,和社,2023-12-13,23.591131,120.888861,1.5791511e-09
C2F000,大肚,2023-12-13,24.15295,120.572117,8.271663e-10
C1S850,豐南,2023-12-13,23.122139,121.262389,1.5636437e-09
C2A920,富貴角,2023-12-13,25.263783,121.565258,5.814438e-07
CAH030,茶改場竹圍站,2023-12-13,23.860083,120.637528,7.778575e-10
C0T960,光復,2023-12-13,23.660694,121.424964,1.1119938e-09
C0F9M0,豐原,2023-12-13,24.254322,120.720692,1.4200038e-09
C0R720,旭海,2023-12-13,22.205403,120.887614,0.9956286
C0V710,苓雅,2023-12-13,22.622742,120.330669,3.6194622e-06
C0C740,觀音工業區,2023-12-13,25.064764,121.114856,0.006399078
CAC040,拉拉山,2023-12-13,24.699317,121.427133,3.0631906e-08
C0V790,萬山,2023-12-13,22.905944,120.688056,2.098922e-09
U2HA30,臺大和社,2023-12-13,23.590856,120.888864,1.5791511e-09
C0AJ90,澳底,2023-12-13,25.0552,121.9253,3.6376326e-07
C0Z100,東華,2023-12-13,23.89525,121.549833,2.6928235e-09
C0G970,三豐,2023-12-13,23.882,120.2895,0.8568463
V2K610,大庄合作社,2023-12-13,23.8068,120.367939,1.7542142e-08
C0V900,汕尾,2023-12-13,22.4782,120.4151,0.00039953637
C1R630,龍泉,2023-12-13,22.66701,120.59091,6.0520966e-09
C1AC50,關渡,2023-12-13,25.133486,121.469331,1.8105274e-08
C0F9I0,神岡,2023-12-13,24.272481,120.658314,1.5973147e-09
C0K460,斗南,2023-12-13,23.678734,120.478359,4.499018e-10
467410,臺南,2023-12-13,22.993239,120.204772,0.00048518312
C2O810,曾文,2023-12-13,23.219681,120.497328,5.4438254e-09
467280,後龍,2023-12-13,24.648563,120.831834,2.7960214e-09
C1F9J1,清水林,2023-12-13,24.071242,120.820419,1.4665166e-09
C2A650,火燒寮,2023-12-13,25.002719,121.742892,4.1640284e-08
466930,竹子湖,2023-12-13,25.162078,121.544547,1.0925454e-08
C1I220,樟湖,2023-12-13,23.905333,120.846983,2.2362605e-09
C0I390,仁愛,2023-12-13,24.022122,121.132206,1.9587254e-09
C0Z300,東里,2023-12-13,23.26853,121.30547,4.8474846e-09
C0V310,美濃,2023-12-13,22.898742,120.519153,2.6518236e-09
C1V590,新發,2023-12-13,23.057019,120.646064,3.104361e-09
C0K510,水林,2023-12-13,23.572924,120.24597,3.483133e-08
72S590,東改賓朗果園,2023-12-13,22.813889,121.071278,3.4639314e-09
82A750,茶改北部分場,2023-12-13,24.955778,121.631222,3.9701465e-08
C1A750,石碇服務區,2023-12-13,25.00872,121.646242,7.5094384e-08
C0X300,鹿寮,2023-12-13,23.386047,120.477331,9.482731e-10
G2AI50,關渡,2023-12-13,25.11575,121.492,1.1272076e-07
C0K590,雲林東勢,2023-12-13,23.674192,120.255721,8.822662e-09
C0A570,桶後,2023-12-13,24.848222,121.597992,1.3965902e-08
C1S800,華源,2023-12-13,22.657883,121.02325,2.3745248e-08
C0G720,溪州,2023-12-13,23.851589,120.499093,5.6674215e-10
C1V160,達卡努瓦,2023-12-13,23.279811,120.705319,2.1091875e-09
C2M410,馬頭山,2023-12-13,23.324361,120.582017,9.083276e-10
C0V850,蚵仔寮,2023-12-13,22.7256,120.2527,2.7438886e-05
C0S740,池上,2023-12-13,23.119628,121.209469,3.3136764e-09
C1V390,尖山,2023-12-13,22.813153,120.367789,5.7386176e-09
C0AH70,松山,2023-12-13,25.04871,121.55042,1.3663762e-08
C0N010,鯤鯓國小,2023-12-13,23.1879,120.0889,0.008275589
C0R550,新埤,2023-12-13,22.467947,120.582894,0.000110178
C0SA60,知本（水試所）,2023-12-13,22.702394,121.082761,6.205034e-08
C0T9I0,豐濱,2023-12-13,23.583897,121.514806,1.4505623e-09
C0UB00,淡江大學蘭陽校園,2023-12-13,24.823239,121.730383,1.37319e-08
C0T9N0,富里,2023-12-13,23.171639,121.249378,3.796599e-09
U2HA50,臺大竹山,2023-12-13,23.756972,120.681556,5.8500577e-10
C0V840,鳳鼻頭,2023-12-13,22.5083,120.3591,1.4671486e-05
C0X140,西港,2023-12-13,23.125608,120.203108,6.078713e-05
72D080,桃改五峰分場,2023-12-13,24.612194,121.157167,5.174846e-09
C0V530,阿蓮,2023-12-13,22.883208,120.327508,3.1273505e-08
C1O880,關山,2023-12-13,23.173397,120.594092,8.1174784e-10
C0E791,卓蘭,2023-12-13,24.3126,120.8244,1.502824e-09
C1I030,武界,2023-12-13,23.913225,121.052483,1.5827304e-09
C0R520,崁頂,2023-12-13,22.514781,120.506914,7.255776e-08
C0R341,牡丹,2023-12-13,22.130036,120.792639,0.9980705
C0R930,萬丹,2023-12-13,22.5885,120.4851,3.829021e-08
C0S760,紅石,2023-12-13,23.069131,121.126219,1.445506e-08
C1M610,石磐龍,2023-12-13,23.496606,120.663506,2.7975524e-09
C0UA10,鴛鴦湖,2023-12-13,24.590269,121.412228,1.5359388e-08
V2C260,八德蔬果,2023-12-13,24.978508,121.281819,2.4923233e-08
C0R800,丹路,2023-12-13,22.204481,120.750989,0.9817248
C0G920,永靖,2023-12-13,23.924703,120.547533,6.386764e-10
C1A630,下盆,2023-12-13,24.771003,121.538622,1.300378e-08
B2N890,畜產試驗所,2023-12-13,23.058972,120.336406,2.9471883e-07
C0UA30,白嶺,2023-12-13,24.527819,121.519031,1.5839241e-08
C1V580,溪南(特生中心),2023-12-13,23.084972,120.788475,3.80662e-09
C1T970,大農,2023-12-13,23.615233,121.413331,1.4066575e-09
E2S960,林試太麻里2,2023-12-13,22.598014,120.989761,1.8012709e-07
C0R650,竹田,2023-12-13,22.58486,120.54344,1.0202405e-08
C1H900,清流,2023-12-13,24.080775,120.962997,2.0043416e-09
C1C510,水尾,2023-12-13,24.940081,121.087161,0.00017803417
C0F9X0,大雅(中科園區),2023-12-13,24.21528,120.62445,9.850367e-10
C0O970,虎頭埤,2023-12-13,23.021375,120.347878,3.3727678e-09
C0C730,中大臨海站,2023-12-13,24.966126,121.008581,0.00026554786
C0X250,新營,2023-12-13,23.310689,120.316681,3.718683e-08
C0V700,三民,2023-12-13,22.645017,120.311233,0.93133885
C0U870,大礁溪,2023-12-13,24.791042,121.675047,1.2726047e-08
C0E870,高鐵苗栗,2023-12-13,24.60725,120.826094,2.8579192e-09
A2K570,古坑花卉中心,2023-12-13,23.63353,120.55239,8.420918e-10
C0M860,新美,2023-12-13,23.338017,120.683169,1.3548919e-09
C1E701,八卦,2023-12-13,24.491756,120.927619,4.679196e-09
C0I420,國姓,2023-12-13,24.037803,120.855072,1.1120618e-09
C0S960,香蘭,2023-12-13,22.587569,120.993375,1.8012743e-07
C0R260,春日,2023-12-13,22.370361,120.628306,5.024058e-09
72G600,臺中農改場,2023-12-13,24.003028,120.534389,7.928273e-10
C0Z210,瑞穗,2023-12-13,23.5239,121.39021,1.4900854e-09
C0M820,達邦,2023-12-13,23.453994,120.749517,2.3643507e-09
C0V860,南寮,2023-12-13,22.7616,120.2339,2.7438886e-05
C0G740,大城,2023-12-13,23.852487,120.320935,0.85504353
C0R920,塭仔,2023-12-13,22.4169,120.5197,2.1827343e-08
C0R470,高樹,2023-12-13,22.826389,120.600806,4.3482666e-09
C0R680,佳樂水,2023-12-13,21.993578,120.861633,0.18737033
C1O870,大棟山,2023-12-13,23.31157,120.52226,2.6674531e-09
C0D360,梅花,2023-12-13,24.678347,121.208558,2.3603675e-09
C0Z190,富世,2023-12-13,24.14743,121.6297,8.788517e-09
C0AI10,屈尺,2023-12-13,24.92184,121.54475,1.0618807e-07
B2U990,畜試東區分所,2023-12-13,24.669039,121.832561,5.2706635e-09
C0R240,來義,2023-12-13,22.527306,120.625111,1.5574505e-08
C1R610,西大武山,2023-12-13,22.617719,120.7322,1.7990677e-08
C0G900,線西,2023-12-13,24.143358,120.443536,2.8485276e-08
C0M700,竹崎,2023-12-13,23.526178,120.555508,5.015133e-10
C2E880,三義,2023-12-13,24.405478,120.749819,2.6574694e-09
C0C720,竹圍,2023-12-13,25.112692,121.239824,1.1256317e-07
C0F9P0,清水,2023-12-13,24.312297,120.562242,5.4131288e-08
C0Z150,吉安光華,2023-12-13,23.930925,121.595153,5.8570495e-09
C1D640,外坪(五指山),2023-12-13,24.644447,121.090961,3.6061325e-09
C0F9O0,潭子,2023-12-13,24.213106,120.703933,1.1185904e-09
72T250,花蓮農改場,2023-12-13,23.975222,121.563889,6.0542322e-09
C0E780,銅鑼,2023-12-13,24.489681,120.790853,2.1631752e-09
C1T950,太安,2023-12-13,23.666719,121.370128,1.91736e-08
C0E830,苑裡,2023-12-13,24.439714,120.653053,2.9293668e-07
467270,田中,2023-12-13,23.873803,120.581286,4.2257756e-10
C0SA10,檳榔四格山,2023-12-13,22.810031,121.109308,2.36125e-09
C1T830,布洛灣,2023-12-13,24.17184,121.57127,1.5893919e-07
C0F970,大坑,2023-12-13,24.173142,120.722289,7.6582424e-10
C1U920,思源,2023-12-13,24.393125,121.347214,1.4223493e-08
C0A931,三和,2023-12-13,25.233153,121.595236,5.4779502e-08
C0I010,廬山,2023-12-13,24.033311,121.181808,3.4954635e-09
C0R860,鼻頭,2023-12-13,22.1043,120.8979,0.9901484
C0UB20,壯圍,2023-12-13,24.7359,121.8163,3.3400929e-09
C0R790,九棚,2023-12-13,22.14195,120.889281,0.9968544
C0W110,東莒,2023-12-13,25.9652,119.98069,0.0026725319
C1U930,粉鳥林,2023-12-13,24.497088,121.842479,7.500288e-09
C1I211,蘆竹湳,2023-12-13,23.934019,120.811994,1.4340511e-09
C0S830,長濱,2023-12-13,23.286817,121.411975,2.6754017e-09
C1F9F1,伯公龍,2023-12-13,24.272392,120.849047,1.7769204e-09
C0E810,西湖,2023-12-13,24.562947,120.7485,0.0014773626
C1I440,新高口,2023-12-13,23.478744,120.878939,1.1535333e-08
C0O840,王爺宮,2023-12-13,23.222064,120.40085,3.9006117e-08
C0T9G0,鳳林山,2023-12-13,23.735269,121.420131,4.050982e-09
C0X080,佳里,2023-12-13,23.173039,120.145086,0.008275589
C0Z310,清水斷崖,2023-12-13,24.218294,121.689142,3.8245376e-09
C0M680,太保,2023-12-13,23.455062,120.331455,1.4887105e-09
C1S820,金峰,2023-12-13,22.590969,120.933236,3.668446e-08
C0AD10,八里,2023-12-13,25.150211,121.403947,1.1256317e-07
C2K240,草嶺,2023-12-13,23.59555,120.693461,2.523327e-09
C1SA70,都蘭,2023-12-13,22.87794,121.226881,6.5203913e-09
C0K440,二崙,2023-12-13,23.772797,120.408944,5.283343e-10
C1A760,坪林交控,2023-12-13,24.94284,121.713442,6.2581634e-08
C0F9N0,大里,2023-12-13,24.092464,120.701378,5.840314e-10
C0SA90,達仁林場,2023-12-13,22.264347,120.823972,0.9952495
C1R290,石門山,2023-12-13,22.112611,120.756597,0.9992595
42HA10,萬大發電廠,2023-12-13,23.978875,121.139639,1.7816683e-09
C0R890,山海,2023-12-13,21.9878,120.7091,0.108009204
C0T9A0,月眉山,2023-12-13,23.809928,121.539828,2.850385e-09
C0AC70,信義,2023-12-13,25.037822,121.564597,1.3663762e-08
C0K560,棋山,2023-12-13,23.68645,120.603417,8.345463e-10
C1Z240,中平林道,2023-12-13,23.42115,121.26763,3.9115335e-08
U2H480,溪頭,2023-12-13,23.670306,120.798194,3.8687493e-09
C0M880,好美里,2023-12-13,23.3364,120.138,5.691253e-05
C0T9E0,大坑,2023-12-13,23.880628,121.581981,2.7468514e-09
C0K530,臺西,2023-12-13,23.701547,120.197559,0.00096462754
C1E900,國一N128K,2023-12-13,24.560997,120.844186,2.2259834e-09
C0AJ50,水湳洞,2023-12-13,25.123695,121.862238,2.2353174e-07
C0AI20,白沙灣,2023-12-13,25.283128,121.519058,1.6606939e-05
C0A860,大坪,2023-12-13,25.165914,121.632969,1.2088325e-08
C1U850,觀音海岸,2023-12-13,24.38319,121.77856,4.1846953e-09
C0U950,鶯子嶺,2023-12-13,24.89754,121.79244,2.584789e-08
C0O900,善化,2023-12-13,23.112883,120.297219,5.82844e-07
C0K550,蔦松,2023-12-13,23.514319,120.229736,3.0061128e-07
E2P980,林試六龜中心,2023-12-13,22.991703,120.645722,1.2921271e-09
C0E590,通霄,2023-12-13,24.471892,120.704622,0.004019047
C1I310,西巒,2023-12-13,23.754486,120.883956,2.8200693e-09
C0A550,泰平,2023-12-13,24.971197,121.823711,3.3788545e-08
C0I360,水里,2023-12-13,23.812553,120.849792,8.612397e-10
C0R830,高士,2023-12-13,22.121825,120.836781,0.9995041
C1I101,溪頭,2023-12-13,23.661789,120.807647,6.1648278e-09
C0AJ20,野柳,2023-12-13,25.20703,121.690021,4.0152224e-07
C0B060,暖暖,2023-12-13,25.0957,121.7403,4.256227e-08
C1H920,長豐,2023-12-13,24.102039,120.879897,1.5766412e-09
C0V360,內門,2023-12-13,22.975481,120.466769,3.0359268e-09
C0R850,林邊,2023-12-13,22.4634,120.5339,0.00024156424
C0E930,龍鳳,2023-12-13,24.700034,120.859125,1.3864046e-07
C0U910,冬山,2023-12-13,24.63373,121.7937,5.2706737e-09
C1E721,泰安,2023-12-13,24.489017,120.968036,5.477707e-09
82H320,茶改中部分場,2023-12-13,23.875611,120.913583,3.137278e-09
C0M750,布袋,2023-12-13,23.380878,120.167789,1.5122048e-06
C1S860,利嘉,2023-12-13,22.809417,121.050528,8.301682e-09
72C440,桃園農改,2023-12-13,24.950944,121.030583,0.0006303654
E2S980,林試太麻里1,2023-12-13,22.598922,120.980044,8.2936616e-08
C0X170,關廟,2023-12-13,22.963017,120.327797,1.3133196e-08
C0V720,林園,2023-12-13,22.507747,120.394511,7.474751e-06
C1I510,線浸林道,2023-12-13,23.761508,120.832956,3.5793937e-09
C0D690,外湖,2023-12-13,24.917735,120.968711,0.0017252358
C0C750,新興坑尾,2023-12-13,25.0061,121.0971,4.5214292e-05
B2Q810,畜試南區分所,2023-12-13,21.945583,120.802167,0.19743493
C0S790,金崙,2023-12-13,22.538122,120.966875,9.594372e-08
C0AH90,福山植物園,2023-12-13,24.760717,121.58135,2.0464844e-08
C0I540,奇萊稜線,2023-12-13,24.109231,121.326456,2.0930024e-08
C0M850,表湖,2023-12-13,23.24186,120.64166,1.6729946e-09
C0S770,大溪山,2023-12-13,22.478475,120.943325,1.5423834e-07
C0AG80,中和,2023-12-13,24.991622,121.491792,4.854528e-08
C0T790,大禹嶺,2023-12-13,24.186117,121.316086,1.37117215e-08
C0T9B0,水源,2023-12-13,23.991861,121.537169,4.3206128e-09
C0R840,牡丹池山,2023-12-13,22.168389,120.841225,0.9981645
C1I131,桶頭,2023-12-13,23.641944,120.654117,8.580539e-10
CAL110,布袋國中,2023-12-13,23.35893,120.18026,1.5122048e-06
467571,新竹,2023-12-13,24.827853,121.014219,0.00042646818
C0Z290,赤柯山,2023-12-13,23.36893,121.38293,1.6994127e-08
C0X280,將軍,2023-12-13,23.214999,120.13577,0.0004877381
C0S690,太麻里,2023-12-13,22.60902,120.98533,9.8410196e-09
C0U880,北關,2023-12-13,24.9072,121.8734,5.4875136e-07
C1H860,瑞岩,2023-12-13,24.123772,121.18345,9.430645e-09
C0G810,埔心,2023-12-13,23.947633,120.525456,6.39148e-10
C0U970,大福,2023-12-13,24.80064,121.81389,3.901525e-09
C1E670,南礦,2023-12-13,24.538278,121.002836,6.62747e-09
C0M520,東後寮,2023-12-13,23.369908,120.248065,1.0340274e-06
C1E461,松安,2023-12-13,24.397972,120.986022,5.052455e-09
72G600,臺中農改,2023-12-13,24.003028,120.534389,7.928273e-10
C2N160,西拉雅風管處,2023-12-13,23.189481,120.335297,5.348791e-06
C0A640,石碇,2023-12-13,24.993969,121.662917,3.1123605e-08
E2S960,林試太麻里2,2023-12-13,22.598,120.99775,1.994502e-07
C0F9Y0,桃山,2023-12-13,24.432739,121.303808,2.369218e-08
C1I020,萬大,2023-12-13,23.979817,121.132261,1.9854274e-09
C0U940,羅東,2023-12-13,24.68184,121.74934,3.3240137e-09
C0M650,朴子,2023-12-13,23.43463,120.23902,7.932013e-09
C1I500,大尖山,2023-12-13,23.858572,120.994889,8.087872e-09
C0G820,田尾,2023-12-13,23.901669,120.509389,6.386764e-10
E2K600,四湖植物園,2023-12-13,23.676986,120.163433,0.0008070079
C0S730,綠島,2023-12-13,22.6672,121.47533,0.13017613
12Q970,東港工作站,2023-12-13,22.479997,120.466058,0.00039953637
C0E430,南庄,2023-12-13,24.601775,121.000214,2.1084394e-09
C1TA00,太魯閣,2023-12-13,24.15773,121.6236,8.283098e-09
466920,臺北,2023-12-13,25.037658,121.514853,1.3663762e-08
C0R600,舊泰武,2023-12-13,22.588194,120.664944,1.2241081e-09
C1I260,北坑,2023-12-13,23.9246,121.006903,1.4930585e-09
466910,鞍部,2023-12-13,25.182586,121.529731,2.3798796e-08
C1I230,九份二山,2023-12-13,23.961944,120.845,1.385708e-09
C2A660,瑞芳,2023-12-13,25.113169,121.801147,8.4171845e-08
C0R270,琉球嶼,2023-12-13,22.332244,120.362236,0.06342349
C1T990,高寮,2023-12-13,23.394239,121.356808,2.0747815e-09
C0G620,芬園,2023-12-13,24.015678,120.6213,7.07857e-10
C1Z140,荖溪,2023-12-13,23.890575,121.45964,1.861182e-08
C1I201,中心崙,2023-12-13,23.728722,120.712097,1.5132535e-09
C1I400,凌霄,2023-12-13,24.018778,121.004456,2.825809e-09
C1M640,十字,2023-12-13,23.492153,120.753683,4.0133212e-09
G2P820,農試鳳山分所,2023-12-13,22.646611,120.356083,0.7499146
C0Z270,蕃薯寮,2023-12-13,23.73835,121.540108,3.1122105e-09
C0F9Q0,外埔,2023-12-13,24.347817,120.705686,1.7891704e-09
C0K580,高鐵雲林,2023-12-13,23.737456,120.417944,5.1601673e-10
C2I090,鳳凰,2023-12-13,23.728081,120.787347,3.2251384e-09
C0U990,員山,2023-12-13,24.74435,121.72247,3.3344596e-09
C0V770,大社,2023-12-13,22.730306,120.346639,8.553399e-06
C0X120,麻豆,2023-12-13,23.183289,120.248611,1.2952355e-05
C0C670,龍潭,2023-12-13,24.870056,121.221389,2.095283e-08
C0D680,香山濕地,2023-12-13,24.783581,120.914988,2.1781014e-08
C0S980,勝林山,2023-12-13,22.430439,120.8938,4.223886e-08
C0V730,大寮,2023-12-13,22.605614,120.395717,2.6383177e-06
C0R570,麟洛,2023-12-13,22.65078,120.52719,2.4570308e-09
CAG100,王功漁港,2023-12-13,23.96824,120.32586,0.7018471
C0X290,北門,2023-12-13,23.267772,120.125481,0.0004877381
C2F930,大甲,2023-12-13,24.347667,120.640403,2.7650247e-08
C0D650,湖口,2023-12-13,24.904794,121.043628,0.00022031102
C0E420,竹南,2023-12-13,24.708978,120.888897,6.476739e-08
C0U780,五結,2023-12-13,24.68637,121.79794,3.3400929e-09
C1I250,鯉潭,2023-12-13,23.961922,120.991131,1.2330926e-09
C0R130,阿禮,2023-12-13,22.742908,120.743678,1.6985401e-09
C0X100,臺南市北區,2023-12-13,23.010394,120.194228,0.0009493338
C0S920,金峰嘉蘭,2023-12-13,22.594789,120.960825,7.6196535e-08
C0V490,新興,2023-12-13,22.627422,120.298803,3.6194726e-06
C0F9K0,大安,2023-12-13,24.345061,120.588025,7.6565115e-08
72N100,臺南農改,2023-12-13,23.0605,120.342194,2.9471883e-07
467290,古坑,2023-12-13,23.633639,120.551889,8.420918e-10
C0V440,鳳山,2023-12-13,22.646653,120.356122,0.7499146
C1T940,大觀,2023-12-13,23.714206,121.373133,3.6414518e-09
72T250,花蓮農改,2023-12-13,23.975222,121.563889,6.0542322e-09
C0E740,造橋,2023-12-13,24.637056,120.864778,2.8667144e-09
C0R100,尾寮山,2023-12-13,22.833111,120.683889,1.762188e-09
A2K630,臺大雲林校區,2023-12-13,23.730628,120.423903,5.1601673e-10
C0D580,寶山,2023-12-13,24.735006,121.025192,1.6920279e-09
E2P990,林試扇平站,2023-12-13,22.9677,120.6857,1.4390433e-09
C0AI30,三重,2023-12-13,25.057328,121.500629,1.4431754e-08
C0AH00,汐止,2023-12-13,25.066881,121.658778,1.3663762e-08
C1Z040,立山,2023-12-13,23.443356,121.327375,1.45322705e-08
C0R740,獅子,2023-12-13,22.201569,120.70525,0.94512665
C0W130,花嶼,2023-12-13,23.40007,119.32276,0.9674049
C0A950,鼻頭角,2023-12-13,25.129036,121.923372,0.0018864889
C0K470,林內,2023-12-13,23.748675,120.609642,5.932964e-10
82C160,茶改場,2023-12-13,24.908472,121.185333,4.8151566e-07
C0Z320,清水林道,2023-12-13,23.27125,121.188272,1.4507374e-08
C0R760,南仁湖,2023-12-13,22.084681,120.863353,0.9992574
C0M670,大林,2023-12-13,23.600616,120.45841,7.0945466e-10
C0M800,茶山,2023-12-13,23.299075,120.664767,1.3568184e-09
C0A9C0,天母,2023-12-13,25.117494,121.537169,2.5943462e-08
72K220,南改斗南分場,2023-12-13,23.634556,120.477333,4.499018e-10
72AI40,桃改樹林分場,2023-12-13,24.944503,121.386972,1.0525791e-06
C0S910,蘭嶼燈塔,2023-12-13,22.081197,121.503117,0.008592567
C0B050,八斗子,2023-12-13,25.144754,121.79167,3.348627e-07
C0U900,內城,2023-12-13,24.71813,121.68766,3.2482395e-09
C0X320,柳營,2023-12-13,23.253328,120.375253,7.0327866e-07
C0M790,新港,2023-12-13,23.553269,120.345728,4.4378274e-09
C0F9T0,西屯,2023-12-13,24.179494,120.641275,7.2816114e-10
C0SA30,都歷,2023-12-13,23.020333,121.323642,1.1468394e-09
C0C620,蘆竹,2023-12-13,25.084275,121.265767,1.1257054e-06
C0R730,大坪頂,2023-12-13,22.024633,120.69355,0.8723562
C0AJ40,石門,2023-12-13,25.273672,121.601198,1.1711188e-06
C0E750,苗栗,2023-12-13,24.564569,120.824575,2.2597053e-09
C0T870,鯉魚潭,2023-12-13,23.935639,121.508944,4.9965263e-09
C1V170,排雲,2023-12-13,23.463619,120.954147,2.026519e-08
C2H950,中寮,2023-12-13,23.884447,120.766406,9.352076e-10
C0R350,貓鼻頭,2023-12-13,21.921774,120.7358,0.41415167
C0V660,岡山,2023-12-13,22.797078,120.294958,4.346468e-06
C1H941,雙冬,2023-12-13,23.967378,120.802189,1.5186403e-09
C0AJ70,田寮,2023-12-13,25.2698,121.4886,2.0827254e-05
C0AI00,五股,2023-12-13,25.07445,121.42728,1.1465579e-08
C0Z280,德武,2023-12-13,23.47426,121.41071,1.5920132e-09
C0R700,枋山,2023-12-13,22.246844,120.661086,0.6830473
C0C460,復興,2023-12-13,24.820208,121.352281,1.689204e-08
E2H360,蓮華池,2023-12-13,23.918333,120.885278,1.6406173e-09
C0M640,中埔,2023-12-13,23.42538,120.5229,4.375578e-10
C0W140,金沙,2023-12-13,24.488292,118.408778,1.5323455e-08
C2A540,四堵,2023-12-13,24.8926,121.745736,3.469792e-08
C0ACA0,新莊,2023-12-13,25.051478,121.446756,1.1056855e-08
C0R220,潮州,2023-12-13,22.534361,120.54,6.1036744e-08
U2HA40,臺大內茅埔,2023-12-13,23.689722,120.851117,2.645317e-09
467490,臺中,2023-12-13,24.145736,120.684075,7.8206014e-10
C0U960,翠峰湖,2023-12-13,24.510856,121.608044,2.153999e-08
E2HA20,林試畢祿溪站,2023-12-13,24.226944,121.308522,1.647627e-08
C0V890,前鎮,2023-12-13,22.5718,120.3117,6.6249086e-06
467620,蘭嶼,2023-12-13,22.036969,121.558339,0.070622645
C1F941,雪嶺,2023-12-13,24.280586,121.026642,2.9263083e-08
C0AC80,文山,2023-12-13,25.00235,121.575728,3.4228524e-08
C0F9R0,龍井,2023-12-13,24.184536,120.528972,3.2735052e-08
C0M760,民雄,2023-12-13,23.551754,120.428457,7.320743e-10
C0UA40,西德山,2023-12-13,24.560647,121.752608,1.3384998e-08
C1T920,中興,2023-12-13,23.769503,121.498653,2.1978814e-09
C0D550,雪霸,2023-12-13,24.526972,121.11605,7.355472e-09
C2F860,梨山,2023-12-13,24.247522,121.243669,1.6766597e-08
C0R320,車城,2023-12-13,22.0744,120.716247,0.04278716
C1S870,南美山,2023-12-13,23.15025,121.382333,4.001985e-09
C0B020,基隆嶼,2023-12-13,25.19141,121.78391,0.011227239
C1U501,牛鬥,2023-12-13,24.637836,121.573656,7.2479165e-09
C0M730,嘉義市東區,2023-12-13,23.457673,120.460531,5.0515564e-10
C0S700,知本,2023-12-13,22.684866,121.005642,8.242327e-09
C1N001,沙崙,2023-12-13,22.935472,120.309406,1.5976171e-08
C0V760,橋頭,2023-12-13,22.757806,120.30575,1.7159091e-05
C0G960,福寶,2023-12-13,24.0443,120.3814,1.1631905e-08
C0X210,白河,2023-12-13,23.347466,120.414427,1.2079147e-09
C0S810,東河,2023-12-13,22.972672,121.303986,0.9888761
C0R670,楓港,2023-12-13,22.190131,120.692156,0.21312897
C0FA50,霧峰,2023-12-13,24.0419,120.6995,6.957671e-10
C0UB10,蘇澳,2023-12-13,24.5969,121.8571,1.1919632e-08
C0G950,防潮門,2023-12-13,24.1835,120.4871,3.2857407e-08
C0M740,六腳,2023-12-13,23.492871,120.290625,6.0957257e-09
C1R250,力里,2023-12-13,22.428117,120.629228,1.4769139e-09
C0K330,虎尾,2023-12-13,23.719183,120.442036,5.0337723e-10
C2FA00,烏石坑,2023-12-13,24.273503,120.947617,3.0305e-09
C0V620,永安,2023-12-13,22.82315,120.236856,4.345013e-06
C1I330,楓樹林,2023-12-13,23.986803,121.076117,2.2456639e-09
C0W200,湖西,2023-12-13,23.596314,119.67275,0.8144661
72Q010,高雄農改場,2023-12-13,22.709333,120.525889,2.4066187e-09
C0SA40,瑞和,2023-12-13,22.974361,121.156697,1.587477e-09
C0C680,龜山,2023-12-13,25.02846,121.38656,9.6033395e-09
C2V260,月眉,2023-12-13,22.971003,120.539853,1.5336867e-09
C0V450,鳳森,2023-12-13,22.545064,120.392592,5.2185055e-07
C0U720,南山,2023-12-13,24.43742,121.38167,1.6453908e-08
A2N290,臺南蘭花園區,2023-12-13,23.340258,120.379661,4.449303e-09
C0R560,新園,2023-12-13,22.5434,120.461558,7.474751e-06
C0U890,三星,2023-12-13,24.66812,121.65302,7.528337e-09
C1V300,御油山,2023-12-13,23.001983,120.715364,3.8258876e-09
C0U600,礁溪,2023-12-13,24.817539,121.765608,1.7479453e-08
C1T980,龍澗,2023-12-13,24.023289,121.411328,3.299639e-08
C0D670,海天一線,2023-12-13,24.831986,120.914438,0.95157546
C0SA00,歷坵,2023-12-13,22.520969,120.89185,2.2856106e-08
C0M710,東石,2023-12-13,23.458927,120.15385,5.3825417e-05
C0M780,鹿草,2023-12-13,23.41134,120.30835,7.660833e-09
C0U520,雙連埤,2023-12-13,24.753033,121.641303,1.2706352e-08
C0B010,七堵,2023-12-13,25.094819,121.71713,6.225804e-08
C0R480,長治,2023-12-13,22.693128,120.542622,8.9205535e-08
C1V830,國三S383K,2023-12-13,22.781967,120.426475,9.470621e-10
12Q980,恆春工作站,2023-12-13,22.079678,120.714425,0.04278716
C1O940,東山服務區,2023-12-13,23.286016,120.398472,7.113371e-09
C1U840,東澳嶺,2023-12-13,24.5378,121.8485,1.1038817e-08
C1D630,飛鳳山,2023-12-13,24.766464,121.119178,2.922001e-09
C0S940,石寧山,2023-12-13,23.223772,121.406639,5.127147e-09
C0K410,北港,2023-12-13,23.573957,120.292802,2.9020075e-08
C2M620,瑞里,2023-12-13,23.545133,120.675197,3.2656209e-09
C2O950,安南,2023-12-13,23.076694,120.144861,0.87741613
C0F0E0,南湖圈谷,2023-12-13,24.363714,121.444667,3.5982676e-08
467610,成功,2023-12-13,23.097486,121.373428,7.068842e-07
C0G890,伸港,2023-12-13,24.148933,120.484403,2.8485331e-08
C2E540,龍溪,2023-12-13,24.606489,120.783933,2.9222742e-09
C1V200,梅山,2023-12-13,23.268447,120.823556,1.3850262e-09
C0T9H0,加路蘭山,2023-12-13,23.682947,121.5274,5.275612e-09
C2O930,玉井,2023-12-13,23.126042,120.46055,1.3224164e-08
C1F911,新伯公,2023-12-13,24.221361,120.841069,1.459532e-09
C0R490,九如,2023-12-13,22.7405,120.490503,2.910676e-09
C0X200,左鎮,2023-12-13,23.056758,120.408522,3.5390018e-09
C1F891,稍來,2023-12-13,24.265689,121.001142,1.6122096e-08
72N240,七股研究中心,2023-12-13,23.081672,120.062894,0.9401575
C0C700,中壢,2023-12-13,24.977661,121.256375,2.2642753e-08
C0M690,水上,2023-12-13,23.419734,120.388909,1.3667326e-09
C0V690,鼓山,2023-12-13,22.623325,120.275575,3.6194622e-06
C0O860,大內,2023-12-13,23.11885,120.36083,3.4214432e-07
C0Z200,萬榮,2023-12-13,23.709219,121.420106,2.964214e-09
C0T9D0,和中,2023-12-13,24.26676,121.74103,6.73632e-09
C1O921,楠西,2023-12-13,23.183511,120.484083,1.4474614e-07
C0AJ30,淡水觀海,2023-12-13,25.184591,121.408616,1.5785324e-07
C0V810,左營,2023-12-13,22.67491,120.28491,0.93133885
C0UA70,桃源谷,2023-12-13,24.962606,121.888875,2.9300168e-08
C0X130,官田,2023-12-13,23.193217,120.315422,6.4927094e-06
C1H000,翠峰,2023-12-13,24.109397,121.205211,9.691739e-09
C0UA90,石城,2023-12-13,24.980444,121.951214,3.2816047e-07
C1E681,南勢山,2023-12-13,24.421669,120.923831,3.619128e-09
C0A9F0,內湖,2023-12-13,25.079422,121.57545,1.3663762e-08
C0K291,宜梧,2023-12-13,23.536281,120.169329,3.0102956e-07
C1K540,口湖,2023-12-13,23.585344,120.180517,0.0021357476
C0R780,滿州,2023-12-13,22.024403,120.839892,0.20216395
C0V870,文安,2023-12-13,22.8025,120.2164,7.855951e-06
C0U650,玉蘭,2023-12-13,24.675286,121.587061,8.883704e-09
C0R640,東港,2023-12-13,22.46247,120.44074,0.00039953637
K2E360,苗栗農改,2023-12-13,24.495722,120.829111,2.2767292e-09
C0AJ80,板橋,2023-12-13,25.0107,121.4489,5.1650268e-08
C0S660,下馬,2023-12-13,23.150427,121.070312,1.1810845e-08
C1H9B1,阿眉,2023-12-13,24.1263,120.994672,9.005033e-09
C0UA20,多加屯,2023-12-13,24.368614,121.373189,1.42103955e-08
C0E730,頭份,2023-12-13,24.688247,120.912206,7.466563e-08
72V140,高改旗南分場,2023-12-13,22.857861,120.516667,2.6518236e-09
C0K480,莿桐,2023-12-13,23.761192,120.502372,3.2655945e-10
C0U980,坪林石牌,2023-12-13,24.86478,121.77396,1.3976455e-08
C0T900,西林,2023-12-13,23.8119,121.441458,2.237276e-09
C1I150,青雲,2023-12-13,23.793361,120.949378,1.169189e-09
467350,澎湖,2023-12-13,23.565503,119.563094,0.7670531
C0G800,埔鹽,2023-12-13,24.000394,120.431683,7.162451e-09
C0H960,草屯,2023-12-13,23.973672,120.68085,7.066173e-10
C1V780,多納林道,2023-12-13,22.888028,120.737917,1.6208201e-09
C0E920,通霄漁港,2023-12-13,24.498589,120.673876,0.0073390873
C0Z330,安通山,2023-12-13,23.290728,121.348528,3.0670648e-09
C0AH10,永和,2023-12-13,25.01125,121.508111,5.169718e-08
C2G640,鹿港,2023-12-13,24.0753,120.430481,1.1631905e-08
C1E890,國三N149K,2023-12-13,24.463414,120.680019,1.0336778e-07
C1R110,口社,2023-12-13,22.770111,120.645222,5.5983738e-09
C1M870,國三N285K,2023-12-13,23.550319,120.505833,7.3004547e-10
467050,新屋,2023-12-13,25.006744,121.047486,0.00016008815
C1E480,鳳美,2023-12-13,24.554803,121.034747,3.952683e-09
C0M530,奮起湖,2023-12-13,23.493903,120.699253,3.68882e-09
C0C590,觀音,2023-12-13,25.027072,121.153317,0.0007884752
C0T9M0,靜浦,2023-12-13,23.455167,121.495028,1.6494371e-09
C0AI40,石牌,2023-12-13,25.115597,121.513139,2.7480686e-08
C1F871,上谷關,2023-12-13,24.203483,121.018644,2.3101225e-09
C0G880,二水,2023-12-13,23.810742,120.6173,6.489049e-10
C0R940,加祿堂,2023-12-13,22.3363,120.6217,0.53093266
C0W220,北竿,2023-12-13,26.220358,119.974881,8.6942083e-07
C0O960,崎頂,2023-12-13,22.959547,120.369317,5.6547154e-09
C0S750,向陽,2023-12-13,23.248397,120.986133,6.257361e-09
C0T9F0,水璉,2023-12-13,23.797131,121.542514,2.3300268e-09
C1M600,頭凍,2023-12-13,23.406364,120.603339,2.2744027e-09
467660,臺東,2023-12-13,22.752211,121.154586,0.21358947
C1D380,新埔,2023-12-13,24.84745,121.03834,8.792422e-05
C0V750,路竹,2023-12-13,22.854997,120.259439,0.07550855
C0N050,蚵寮,2023-12-13,23.301,120.1104,5.691253e-05
72M700,南改鹿草分場,2023-12-13,23.416869,120.283061,7.932013e-09
C1SA50,利嘉林道,2023-12-13,22.82325,121.009389,1.6033502e-08
467550,玉山,2023-12-13,23.487614,120.959522,2.9932878e-08
C0A940,金山,2023-12-13,25.223628,121.643967,3.124358e-07
C1V340,大津,2023-12-13,22.888322,120.645986,8.358324e-09
C0W180,七美,2023-12-13,23.219333,119.444892,0.95518863
C1F9C1,白冷,2023-12-13,24.182844,120.929889,1.8487201e-09
K2E710,苗改生物防治研究中心,2023-12-13,24.422861,120.871833,2.0928457e-09
C0N040,蘆竹溝,2023-12-13,23.2344,120.0961,0.0004877381
C2W230,畜試所澎湖,2023-12-13,23.628342,119.513206,0.9199441
C0R880,後壁湖,2023-12-13,21.9457,120.7457,0.114306256
C1I280,埔中,2023-12-13,23.820778,120.642594,8.581979e-10
467790,墾丁雷達站,2023-12-13,21.948235,120.808028,0.13385016
C0W190,望安,2023-12-13,23.380564,119.494075,0.55900496
466881,新北,2023-12-13,24.9593,121.52,4.572976e-08
C0Z170,卓溪,2023-12-13,23.3443,121.3029,2.0732505e-09
C0F850,東勢,2023-12-13,24.246428,120.833047,1.3254813e-09
466900,淡水,2023-12-13,25.164889,121.448906,9.460951e-08
C0I370,魚池,2023-12-13,23.895703,120.94135,1.5093793e-09
C0C630,大溪,2023-12-13,24.882853,121.265547,2.6988358e-08
C0A520,山佳,2023-12-13,24.974944,121.402008,1.5295043e-08
C0I110,竹山,2023-12-13,23.761225,120.688156,6.134738e-10
82H840,茶改南部分場,2023-12-13,23.762528,120.7405,8.697462e-10
C0G660,溪湖,2023-12-13,23.94835,120.479122,6.599363e-10
C1T800,洛韶,2023-12-13,24.204558,121.453956,2.8873103e-08
C1T810,慈恩,2023-12-13,24.192044,121.388386,6.159809e-09
C1E451,象鼻,2023-12-13,24.368617,120.940228,2.8462779e-09
C0AC60,三峽,2023-12-13,24.939025,121.369728,7.7755914e-07
C0I490,萬大林道,2023-12-13,23.928228,121.091411,4.0385615e-09
C1I290,豐丘,2023-12-13,23.668178,120.887417,4.0655266e-09
C1I320,奧萬大,2023-12-13,23.952956,121.178556,2.3218771e-09
C0U770,南澳,2023-12-13,24.44935,121.81022,3.5125394e-09
C0A980,社子,2023-12-13,25.109508,121.469681,1.15434695e-07
C0V800,六龜,2023-12-13,22.997889,120.633583,1.3750318e-09
C1G9D0,國一S218K,2023-12-13,23.890641,120.493253,5.841506e-10
C2F9A0,中竹林,2023-12-13,24.103556,120.751061,1.0953722e-09
C0FA40,臺中電廠,2023-12-13,24.2146,120.4907,3.2735052e-08
C0H9C0,合歡山,2023-12-13,24.143442,121.272547,2.1074554e-08
C0X060,下營,2023-12-13,23.22695,120.256261,4.387889e-07
G2M350,農試溪口農場,2023-12-13,23.58565,120.408111,7.905381e-10
C0U860,頭城,2023-12-13,24.85323,121.8308,1.8485766e-08
C0R580,南州,2023-12-13,22.48591,120.50274,0.00039953637
C0D430,峨眉,2023-12-13,24.6905,121.017189,1.615148e-09
C0G780,秀水,2023-12-13,24.03405,120.503869,7.928273e-10
72N100,臺南農改場,2023-12-13,23.0605,120.342194,2.9471883e-07
C0S900,蘭嶼高中,2023-12-13,22.04909,121.51214,0.15856847
467540,大武,2023-12-13,22.355675,120.903789,0.99981934
C1F9W0,德基,2023-12-13,24.254783,121.190261,1.375001e-08
C1Z120,壽豐,2023-12-13,23.870853,121.508081,2.6928235e-09
C0W160,烏坵,2023-12-13,24.9944,119.44956,0.078398064
C1I240,外大坪,2023-12-13,23.958697,120.917931,1.252965e-09
C1I550,國六W023K,2023-12-13,23.979067,120.867742,8.626322e-10
C0R870,興海,2023-12-13,21.9752,120.8439,0.19743493
C0R140,瑪家,2023-12-13,22.682903,120.686639,1.2433377e-09
C0A530,坪林,2023-12-13,24.938183,121.70975,4.1247652e-08
C0X260,後壁,2023-12-13,23.366358,120.362326,4.449303e-09
C0Z230,和平,2023-12-13,24.30717,121.77007,6.9323733e-09
C0G770,福興,2023-12-13,24.041289,120.437669,7.162451e-09
C0H9A0,神木村,2023-12-13,23.532742,120.843667,4.141168e-09
C0I460,南投,2023-12-13,23.911469,120.687331,9.455603e-10
C0I480,梅峰,2023-12-13,24.085272,121.173572,6.173559e-09
C1V570,吉東,2023-12-13,22.85422,120.5454,2.229808e-09
C2A560,福山,2023-12-13,24.776203,121.502811,2.0782599e-08
C0AH30,五分山,2023-12-13,25.07125,121.780794,1.9587972e-08
C0FA10,松柏,2023-12-13,24.429115,120.617482,4.9953854e-07
72S200,東改班鳩分場,2023-12-13,22.829528,121.077694,5.0153264e-09
72HA00,中改埔里分場,2023-12-13,23.903208,120.963364,1.5733906e-09
C0C650,平鎮,2023-12-13,24.897503,121.214636,8.473952e-08
C0S930,延平,2023-12-13,22.902581,121.084058,1.6418538e-09
C0UA60,樟樹山,2023-12-13,24.41393,121.78325,1.9274545e-08
C1S670,摩天,2023-12-13,23.199503,121.027,1.9201414e-08
C0V630,茄萣,2023-12-13,22.906642,120.182608,0.11736645
466940,基隆,2023-12-13,25.133314,121.740475,2.8505724e-07
C0X050,東河,2023-12-13,23.296598,120.385608,8.458994e-09
C0R770,保力,2023-12-13,22.071122,120.764111,0.67584234
G2L020,農試嘉義分所,2023-12-13,23.485028,120.473806,5.323197e-10
C0X240,關子嶺,2023-12-13,23.331169,120.508025,7.6706536e-10
C0I380,集集,2023-12-13,23.828206,120.801467,8.5712315e-10
466990,花蓮,2023-12-13,23.975128,121.613275,6.4039054e-09
C1V220,小關山,2023-12-13,23.154217,120.813603,4.372185e-09
C1F9G1,慶福山,2023-12-13,24.180853,120.848378,1.6966459e-09
C0Z250,瑞穗林道,2023-12-13,23.49284,121.30688,3.1812192e-08
C0D590,新豐,2023-12-13,24.87068,120.97721,0.6715405
C0A870,五指山,2023-12-13,25.132153,121.608692,1.1137582e-08
C0UA50,西帽山,2023-12-13,24.555361,121.802628,1.042544e-08
C0X160,仁德,2023-12-13,22.968258,120.257689,4.3496253e-05
C1H971,六分寮,2023-12-13,23.92507,120.6378,1.1487704e-09
C0W120,西嶼,2023-12-13,23.5626,119.468436,0.9522819
C0G650,員林,2023-12-13,23.946503,120.585597,7.2388634e-10
C0AD50,鶯歌,2023-12-13,24.951533,121.346294,5.1381585e-07
C0S990,山豬窟,2023-12-13,22.318619,120.857372,0.97962046
72Q010,高雄農改,2023-12-13,22.709333,120.525889,2.4066187e-09
C0X190,安平,2023-12-13,22.993161,120.152181,0.00095552806
C0K400,斗六,2023-12-13,23.720583,120.541127,3.5068343e-10
12J990,口湖工作站,2023-12-13,23.589978,120.180394,0.0020305116
C0O830,北寮,2023-12-13,23.079561,120.495008,1.2979862e-09
C1D410,白蘭,2023-12-13,24.579364,121.079947,7.1349624e-09
C0S970,加津林,2023-12-13,22.416211,120.926942,0.9998273
C0D700,關西,2023-12-13,24.7977,121.1732,4.5466133e-09
C0M810,里佳,2023-12-13,23.389125,120.716647,3.5888958e-09
C0U750,龜山島,2023-12-13,24.841667,121.953133,0.0014952887
C0R810,內獅,2023-12-13,22.305064,120.642986,0.5534028
C1M390,龍美,2023-12-13,23.406728,120.654417,2.7016824e-09
C1H840,國三N238K,2023-12-13,23.841008,120.707711,7.636873e-10
CAQ030,崎峰國小,2023-12-13,22.42565,120.49521,0.00039953637
C2E520,大湖,2023-12-13,24.414939,120.870872,2.1452524e-09
467530,阿里山,2023-12-13,23.508208,120.813242,1.4385502e-08
C1E691,南湖,2023-12-13,24.40135,120.837533,2.9264073e-09
C0FA30,梧棲,2023-12-13,24.256003,120.523381,5.4131288e-08
C1V231,高中,2023-12-13,23.134911,120.716711,1.7348842e-09
C0F9V0,新社,2023-12-13,24.200172,120.815806,1.6329125e-09
C0H890,埔里,2023-12-13,23.972169,120.952425,9.321979e-10
C0R690,墾丁,2023-12-13,21.966756,120.810269,0.10501083
C0F0D0,審馬陣,2023-12-13,24.381675,121.4203,1.9689933e-08
C0R820,白鷺,2023-12-13,22.454275,120.666219,1.6847274e-09
U2H480,臺大溪頭,2023-12-13,23.670306,120.798194,3.8687493e-09
C1V190,南天池,2023-12-13,23.27403,120.91176,5.954007e-09
K2E360,苗栗農改場,2023-12-13,24.495722,120.829111,2.2767292e-09
CAJ050,海口故事園區,2023-12-13,23.57543,120.14121,0.0020305116
C0O990,媽廟,2023-12-13,22.99175,120.293525,2.4701475e-07
C0D480,打鐵坑,2023-12-13,24.849664,121.150789,2.084604e-08
C0Z220,和平林道,2023-12-13,24.343922,121.656317,3.7718135e-09
72C440,桃園農改場,2023-12-13,24.950944,121.030583,0.0006303654
C1E711,馬拉邦山,2023-12-13,24.367306,120.901656,2.9429477e-09
C0D560,竹東,2023-12-13,24.767147,121.057881,4.6498276e-09
C0F9U0,南屯,2023-12-13,24.137006,120.637969,7.9098605e-10
C0M720,番路,2023-12-13,23.464657,120.554156,4.2113404e-10
C0F0A0,雪山圈谷,2023-12-13,24.388594,121.236339,2.748163e-08
C1A9N0,四十份,2023-12-13,24.934158,121.593283,2.9761974e-08
C0U760,東澳,2023-12-13,24.52196,121.83318,6.8420625e-09
C0X230,鹽水,2023-12-13,23.272621,120.247641,3.969344e-05
C0V370,古亭坑,2023-12-13,22.893178,120.401947,2.4108409e-09
C1I340,新興橋,2023-12-13,23.563333,120.868728,2.01102e-09
C0SA80,土坂,2023-12-13,22.453108,120.887572,1.12203115e-05
C0R160,鹽埔,2023-12-13,22.739558,120.530778,2.4066187e-09
C0AC40,大屯山,2023-12-13,25.175675,121.522408,2.5238915e-08
466850,五分山雷達站,2023-12-13,25.071182,121.781205,1.9616762e-08
C1AI50,國三N016K,2023-12-13,25.034164,121.619664,1.2125689e-08
C1V600,藤枝,2023-12-13,23.071961,120.757042,3.2543603e-09
C1E601,南勢,2023-12-13,24.572486,120.734842,0.00014574663
C0Z180,新城,2023-12-13,24.03946,121.60454,6.3596715e-09
C0O980,新市,2023-12-13,23.061614,120.298197,5.82844e-07
C0K420,西螺,2023-12-13,23.800407,120.467394,5.1219445e-10
C0Z050,佳心,2023-12-13,23.34567,121.21316,1.6892363e-08
C0AD30,蘆洲,2023-12-13,25.086594,121.472331,1.4431754e-08
C0V610,梓官,2023-12-13,22.760558,120.267211,1.7159091e-05
K2F750,種苗改良場,2023-12-13,24.225972,120.800917,1.5341168e-09
C0UA80,大溪漁港,2023-12-13,24.941801,121.902955,4.954016e-07
C1AI60,國一39K邊坡,2023-12-13,25.064361,121.383836,1.0242727e-08
C0W150,金寧,2023-12-13,24.457703,118.328989,3.2245542e-09
V2C250,八德合作社,2023-12-13,24.93775,121.266389,1.5580319e-07
C0AH40,平等,2023-12-13,25.129142,121.577086,1.1553499e-08
C0R540,佳冬,2023-12-13,22.419456,120.552375,1.7629048e-08
466950,彭佳嶼,2023-12-13,25.627975,122.079744,0.99988127
C0A890,雙溪,2023-12-13,25.036003,121.864242,1.8465384e-07
C0C480,桃園,2023-12-13,24.992425,121.323172,2.6210252e-08
C0AH50,林口,2023-12-13,25.072181,121.38084,9.080561e-09
A2K360,水試臺西試驗場,2023-12-13,23.717231,120.190522,0.0010676195
B2N890,畜試所,2023-12-13,23.058972,120.336406,2.9471883e-07
C0F9S0,烏日,2023-12-13,24.107058,120.624103,5.888815e-10
C0C490,八德,2023-12-13,24.928708,121.283289,1.4655798e-07
C0R190,赤山,2023-12-13,22.592333,120.614306,7.855753e-09
C0T820,天祥,2023-12-13,24.179597,121.495639,7.947236e-08
C1F9E1,龍安,2023-12-13,24.1605,120.831961,1.431081e-09
C0V820,小林,2023-12-13,23.148408,120.63325,6.4180256e-10
C2G870,芳苑,2023-12-13,23.922303,120.320025,0.6948748
C0E850,大河,2023-12-13,24.618069,120.948578,1.6008314e-09
C1U670,寒溪,2023-12-13,24.634,121.71691,4.8558224e-09
C0N020,城西,2023-12-13,23.0568,120.0956,0.0009493338
C1Z110,三棧,2023-12-13,24.11557,121.60501,5.348319e-08
C0R280,檳榔,2023-12-13,22.076078,120.836777,0.9981731
C0F9L0,后里,2023-12-13,24.310436,120.729725,1.4249499e-09
C0D540,橫山,2023-12-13,24.71116,121.11693,1.7279163e-09
C1D420,太閣南,2023-12-13,24.632808,121.160575,8.9131005e-09
C1E770,公館,2023-12-13,24.526914,120.830806,2.3388296e-09
CAN130,水試所海水繁養殖中心,2023-12-13,23.120802,120.07968,0.9401575
C1I430,翠華,2023-12-13,24.191961,121.224339,9.541227e-09
C1M400,菜瓜坪,2023-12-13,23.251928,120.576103,1.2000564e-09
C0G730,二林,2023-12-13,23.903325,120.376081,1.5414063e-08
72M360,南改義竹分場,2023-12-13,23.360694,120.279361,1.0340274e-06
V2K620,麥寮合作社,2023-12-13,23.753836,120.294783,8.193439e-09
C0Z070,舞鶴,2023-12-13,23.46811,121.37407,1.6024382e-09
C0B040,大武崙,2023-12-13,25.166676,121.706993,1.7905596e-07
C1Z030,紅葉,2023-12-13,23.493119,121.338806,1.4211554e-09
C1I050,丹大,2023-12-13,23.753747,121.141147,7.633236e-09
C0I080,信義,2023-12-13,23.689694,120.851036,2.645317e-09
C2A880,福隆,2023-12-13,25.017842,121.942083,3.5306238e-07
C0Z160,鳳林,2023-12-13,23.746114,121.453411,2.9481275e-09
C0V210,復興,2023-12-13,23.222403,120.806089,1.179805e-09
C0H990,昆陽,2023-12-13,24.121322,121.273642,1.668251e-08
C0S710,鹿野,2023-12-13,22.917711,121.122994,9.0875735e-10
C0I530,小奇萊,2023-12-13,24.131764,121.295717,1.7481453e-08
C0Z080,富源,2023-12-13,23.587642,121.378225,6.26412e-09
467441,高雄,2023-12-13,22.7304,120.3125,8.553399e-06
C1I140,卡奈托灣,2023-12-13,23.754364,121.087872,2.5258697e-09
C0I520,玉山風口,2023-12-13,23.470489,120.955994,3.8224172e-08
C1G691,下水埔,2023-12-13,23.816114,120.5676,3.244789e-10
C0X110,臺南市南區,2023-12-13,22.961189,120.188378,4.3496253e-05
C0V680,仁武,2023-12-13,22.701083,120.347722,0.93133885
C2G840,北斗,2023-12-13,23.877586,120.514222,5.6646876e-10
C0R900,竹坑,2023-12-13,22.1385,120.7022,0.041953903
C0K250,崙背,2023-12-13,23.75555,120.318925,8.193439e-09
C0G860,社頭,2023-12-13,23.897647,120.5862,4.250803e-10
C0X150,安定,2023-12-13,23.102614,120.227839,6.078713e-05
C0R590,里港,2023-12-13,22.77919,120.49459,1.540556e-09
C0E610,馬都安,2023-12-13,24.451272,120.930192,3.0903775e-09
C0E550,明德,2023-12-13,24.583486,120.885411,2.2445548e-09
C0R150,三地門,2023-12-13,22.709889,120.639944,6.1398917e-09
C0G910,花壇,2023-12-13,24.032076,120.549461,7.583775e-10
C1D400,鳥嘴山,2023-12-13,24.71909,121.28387,6.696262e-09
C0K500,元長,2023-12-13,23.64981,120.315024,9.814102e-09
C0F0B0,石岡,2023-12-13,24.276061,120.777644,1.4668915e-09
C2V250,甲仙,2023-12-13,23.080106,120.591758,5.670341e-10
C0SA20,金崙山,2023-12-13,22.567419,120.959667,8.233026e-09
C0V350,溪埔,2023-12-13,22.738578,120.446797,5.54875e-09
C0M660,溪口,2023-12-13,23.604131,120.403569,7.905381e-10
C1S880,壽卡,2023-12-13,22.238911,120.858903,0.9979327
72D680,桃改新埔分場,2023-12-13,24.834444,121.066111,0.00011191616
