站號,站名,日期,lat,lon,BlastGRU-TW
12J990,口湖工作站,2023-03-24,23.589978,120.180394,0.00018608749
12Q970,東港工作站,2023-03-24,22.479997,120.466058,0.0005100994
12Q980,恆春工作站,2023-03-24,22.079678,120.714425,9.2784685e-05
466881,新北,2023-03-24,24.9593,121.52,0.00016150929
466900,淡水,2023-03-24,25.164889,121.448906,0.00014679616
466920,臺北,2023-03-24,25.037658,121.514853,0.00016330346
466940,基隆,2023-03-24,25.133314,121.740475,0.00012968201
466990,花蓮,2023-03-24,23.975128,121.613275,0.03000455
467050,新屋,2023-03-24,25.006744,121.047486,0.00012198147
467060,蘇澳,2023-03-24,24.596736,121.857372,0.0003026509
467080,宜蘭,2023-03-24,24.763975,121.756528,0.00013514694
467270,田中,2023-03-24,23.873803,120.581286,0.000116074756
467300,東吉島,2023-03-24,23.25695,119.667467,0.0011715826
467350,澎湖,2023-03-24,23.565503,119.563094,0.0014158807
467410,臺南,2023-03-24,22.993239,120.204772,0.00040328738
467420,永康,2023-03-24,23.038386,120.2367,0.00024616456
467441,高雄,2023-03-24,22.7304,120.3125,0.00018659154
467480,嘉義,2023-03-24,23.495925,120.432906,0.00026945758
467490,臺中,2023-03-24,24.145736,120.684075,0.00010604108
467540,大武,2023-03-24,22.355675,120.903789,0.016707249
467571,新竹,2023-03-24,24.827853,121.014219,6.513448e-05
467590,恆春,2023-03-24,22.003897,120.746339,9.424201e-05
467610,成功,2023-03-24,23.097486,121.373428,7.124732e-05
467620,蘭嶼,2023-03-24,22.036969,121.558339,0.0011669875
467660,臺東,2023-03-24,22.752211,121.154586,0.00034475507
467790,墾丁雷達站,2023-03-24,21.948235,120.808028,9.477986e-05
72AI40,桃改臺北分場,2023-03-24,24.944503,121.386972,0.00016752265
72C440,桃園農改,2023-03-24,24.950944,121.030583,5.3180564e-05
72C440,桃園農改場,2023-03-24,24.950944,121.030583,5.3180564e-05
72D680,新埔,2023-03-24,24.834444,121.066111,0.00016606983
72D680,桃園農改場新埔工作站,2023-03-24,24.834444,121.066111,0.00016606983
72G600,臺中農改,2023-03-24,24.003028,120.534389,0.00019052846
72G600,臺中農改場,2023-03-24,24.003028,120.534389,0.00019052846
72K220,雲林分場,2023-03-24,23.634556,120.477333,0.00015008336
72L140,朴子分場,2023-03-24,23.4982,120.2414,0.00022083617
72M360,義竹分場,2023-03-24,23.360694,120.279361,0.00023960327
72M360,義竹工作站,2023-03-24,23.360694,120.279361,0.00023960327
72M700,嘉義分場,2023-03-24,23.416869,120.283061,0.0002588829
72N100,臺南農改,2023-03-24,23.0605,120.342194,0.00021166727
72N100,臺南農改場,2023-03-24,23.0605,120.342194,0.00021166727
72N240,七股研究中心,2023-03-24,23.081672,120.062894,0.007332102
72Q010,高雄農改,2023-03-24,22.709333,120.525889,0.00038669992
72Q010,高雄農改場,2023-03-24,22.709333,120.525889,0.00038669992
72S200,斑鳩分場,2023-03-24,22.829528,121.077694,0.00023431874
72S590,賓朗果園,2023-03-24,22.813889,121.071278,0.00016690804
72S590,賓朗農改,2023-03-24,22.813889,121.071278,0.00016690804
72T250,花蓮農改,2023-03-24,23.975222,121.563889,4.040313e-05
72T250,花蓮農改場,2023-03-24,23.975222,121.563889,4.040313e-05
72U480,蘭陽分場,2023-03-24,24.686306,121.716583,0.0013446632
72V140,旗南,2023-03-24,22.857861,120.516667,0.00011489886
72V140,旗南農改,2023-03-24,22.857861,120.516667,0.00011489886
82A750,文山分場,2023-03-24,24.955778,121.631222,0.00014863753
82A750,文山茶改,2023-03-24,24.955778,121.631222,0.00014863753
82C160,茶改場(楊梅),2023-03-24,24.908472,121.185333,0.00010297115
82C160,茶改場,2023-03-24,24.908472,121.185333,0.00010297115
82H840,凍頂工作站,2023-03-24,23.762528,120.7405,7.1845876e-05
82H840,凍頂茶改,2023-03-24,23.762528,120.7405,7.1845876e-05
82S580,臺東茶改,2023-03-24,22.907694,121.130139,0.00012639428
82S580,龍田,2023-03-24,22.907694,121.130139,0.00012639428
A0K420,麥寮,2023-03-24,23.7988,120.2177,0.00013207397
A0W080,吉貝,2023-03-24,23.74,119.6042,0.0015248467
A2C560,農工中心,2023-03-24,24.985917,121.239833,7.8322046e-05
A2K360,臺西分所,2023-03-24,23.717231,120.190522,0.00012397036
A2K360,臺西水試所,2023-03-24,23.717231,120.190522,0.00012397036
A2K570,古坑(花卉中心),2023-03-24,23.633531,120.552392,0.00013026179
A2K570,古坑花卉中心,2023-03-24,23.63353,120.55239,0.0001302619
A2K630,臺大雲林校區,2023-03-24,23.730628,120.423903,0.00016506182
A2N290,臺南蘭花園區,2023-03-24,23.340258,120.379661,0.00020978766
B2E890,新竹畜試,2023-03-24,24.527806,120.770972,0.000104331855
B2N890,畜產試驗所,2023-03-24,23.058972,120.336406,0.00021166727
B2N890,畜試所,2023-03-24,23.058972,120.336406,0.00021166727
B2Q810,恆春分所,2023-03-24,21.945583,120.802167,9.3961055e-05
B2Q810,恆春畜試,2023-03-24,21.945583,120.802167,9.3961055e-05
B2U990,宜蘭畜試,2023-03-24,24.669039,121.832561,8.476116e-05
C0A520,山佳,2023-03-24,24.974944,121.402008,0.00016752265
C0A530,坪林,2023-03-24,24.938183,121.70975,0.0001309571
C0A540,四堵,2023-03-24,24.8926,121.745736,0.00019711979
C0A550,泰平,2023-03-24,24.971197,121.823711,0.00010173592
C0A560,福山,2023-03-24,24.776203,121.502811,3.9318093e-05
C0A570,桶後,2023-03-24,24.848222,121.597992,0.00013935249
C0A640,石碇,2023-03-24,24.993969,121.662917,0.00085385
C0A650,火燒寮,2023-03-24,25.002719,121.742892,0.00020856984
C0A660,瑞芳,2023-03-24,25.113169,121.801147,0.00022783727
C0A770,科教館,2023-03-24,25.096356,121.516507,4.411526e-05
C0A860,大坪,2023-03-24,25.165914,121.632969,0.00014572522
C0A880,福隆,2023-03-24,25.017842,121.942083,0.00020784128
C0A890,雙溪,2023-03-24,25.036003,121.864242,0.000104887884
C0A920,富貴角,2023-03-24,25.263783,121.565258,0.00014531049
C0A931,三和,2023-03-24,25.233153,121.595236,0.00013753983
C0A940,金山,2023-03-24,25.223628,121.643967,0.0044433777
C0A950,鼻頭角,2023-03-24,25.129036,121.923372,7.115471e-05
C0A970,三貂角,2023-03-24,25.007606,122.002058,0.00021373466
C0A980,社子,2023-03-24,25.109508,121.469681,4.4025408e-05
C0A9C0,天母,2023-03-24,25.117494,121.537169,4.511777e-05
C0A9F0,內湖,2023-03-24,25.079422,121.57545,4.572687e-05
C0AC60,三峽,2023-03-24,24.939025,121.369728,0.00016932144
C0AC70,信義,2023-03-24,25.037822,121.564597,0.00015801605
C0AC80,文山,2023-03-24,25.00235,121.575728,4.404808e-05
C0ACA0,新莊,2023-03-24,25.051478,121.446756,0.00015702084
C0AD00,三芝,2023-03-24,25.258131,121.501917,0.0001493255
C0AD10,八里,2023-03-24,25.150211,121.403947,0.00014370862
C0AD30,蘆洲,2023-03-24,25.086594,121.472331,4.411526e-05
C0AD40,土城,2023-03-24,24.973208,121.445169,0.00016010815
C0AD50,鶯歌,2023-03-24,24.951533,121.346294,0.0001642141
C0AG80,中和,2023-03-24,24.991622,121.491792,4.38867e-05
C0AH00,汐止,2023-03-24,25.066881,121.658778,0.00013028836
C0AH10,永和,2023-03-24,25.01125,121.508111,4.3795764e-05
C0AH40,平等,2023-03-24,25.129142,121.577086,0.00014879834
C0AH50,林口,2023-03-24,25.072181,121.38084,0.0001535772
C0AH70,松山,2023-03-24,25.04871,121.55042,0.00015801605
C0AH80,深坑,2023-03-24,25.002703,121.628328,0.0029612095
C0AI00,五股,2023-03-24,25.07445,121.42728,0.00015463032
C0AI10,屈尺,2023-03-24,24.92184,121.54475,3.9726197e-05
C0AI20,白沙灣,2023-03-24,25.283128,121.519058,4.166074e-05
C0AI30,三重,2023-03-24,25.057328,121.500629,0.00016159032
C0AI40,石牌,2023-03-24,25.115597,121.513139,4.4214314e-05
C0AJ10,澳底,2023-03-24,25.057107,121.927272,6.8319925e-05
C0AJ20,野柳,2023-03-24,25.20703,121.690021,0.004307397
C0AJ30,淡水觀海,2023-03-24,25.184591,121.408616,5.5054406e-05
C0AJ40,石門,2023-03-24,25.273672,121.601198,0.00013508639
C0AJ50,水湳洞,2023-03-24,25.123695,121.862238,0.00018758677
C0AJ60,六塊厝,2023-03-24,25.24,121.4481,0.00014748928
C0AJ70,田寮,2023-03-24,25.2698,121.4886,0.00014916428
C0AJ80,板橋,2023-03-24,25.0107,121.4489,5.6779932e-05
C0B010,七堵,2023-03-24,25.094819,121.71713,0.0017274619
C0B020,基隆嶼,2023-03-24,25.19141,121.78391,0.000145764
C0B040,大武崙,2023-03-24,25.166676,121.706993,0.00012791669
C0B050,八斗子,2023-03-24,25.144754,121.79167,0.000104893785
C0B060,暖暖,2023-03-24,25.0957,121.7403,0.00014315227
C0C460,復興,2023-03-24,24.820208,121.352281,5.0481405e-05
C0C480,桃園,2023-03-24,24.992425,121.323172,7.5012715e-05
C0C490,八德,2023-03-24,24.928708,121.283289,0.0001618355
C0C590,觀音,2023-03-24,25.027072,121.153317,0.00016094158
C0C620,蘆竹,2023-03-24,25.084275,121.265767,7.528969e-05
C0C630,大溪,2023-03-24,24.882853,121.265547,7.7264645e-05
C0C650,平鎮,2023-03-24,24.897503,121.214636,0.00010297115
C0C660,楊梅,2023-03-24,24.912375,121.143047,0.00010529826
C0C670,龍潭,2023-03-24,24.870056,121.221389,0.00016537943
C0C680,龜山,2023-03-24,25.02846,121.38656,0.00015638565
C0C700,中壢,2023-03-24,24.977661,121.256375,7.91468e-05
C0C710,大溪永福,2023-03-24,24.892936,121.324975,7.205069e-05
C0C720,竹圍,2023-03-24,25.112692,121.239824,7.487943e-05
C0C730,中大臨海站,2023-03-24,24.966126,121.008581,5.598782e-05
C0C740,觀音工業區,2023-03-24,25.064764,121.114856,0.00015812984
C0C750,新興坑尾,2023-03-24,25.0061,121.0971,0.00010798086
C0D390,關西,2023-03-24,24.7977,121.1732,9.518681e-05
C0D430,峨眉,2023-03-24,24.6905,121.017189,0.00012094037
C0D480,打鐵坑,2023-03-24,24.849664,121.150789,0.00016998437
C0D540,橫山,2023-03-24,24.71116,121.11693,9.054568e-05
C0D560,竹東,2023-03-24,24.767147,121.057881,0.00017138172
C0D580,寶山,2023-03-24,24.735006,121.025192,9.168685e-05
C0D590,新豐,2023-03-24,24.87068,120.97721,6.680285e-05
C0D650,湖口,2023-03-24,24.904794,121.043628,0.00012434863
C0D660,新竹市東區,2023-03-24,24.798681,120.986942,0.00012935609
C0D670,海天一線,2023-03-24,24.831986,120.914438,5.0139657e-05
C0D680,香山濕地,2023-03-24,24.783581,120.914988,0.00014873873
C0D690,外湖,2023-03-24,24.917735,120.968711,0.00014676832
C0E420,竹南,2023-03-24,24.708978,120.888897,0.00015212513
C0E430,南庄,2023-03-24,24.601775,121.000214,0.00011760724
C0E520,大湖,2023-03-24,24.41494,120.87087,0.00015566916
C0E540,後龍,2023-03-24,24.606489,120.783933,0.00018617269
C0E550,明德,2023-03-24,24.583486,120.885411,0.00016600871
C0E590,通霄,2023-03-24,24.471892,120.704622,0.00011355758
C0E730,頭份,2023-03-24,24.688247,120.912206,0.00014808482
C0E740,造橋,2023-03-24,24.637056,120.864778,0.0012369986
C0E750,苗栗,2023-03-24,24.564569,120.824575,0.0012349444
C0E780,銅鑼,2023-03-24,24.489681,120.790853,0.00018021521
C0E791,卓蘭,2023-03-24,24.3126,120.8244,0.00017249769
C0E810,西湖,2023-03-24,24.562947,120.7485,0.00010388204
C0E820,獅潭,2023-03-24,24.539133,120.920042,0.00017051747
C0E830,苑裡,2023-03-24,24.439714,120.653053,0.00014001378
C0E850,大河,2023-03-24,24.618069,120.948578,0.00016337012
C0E870,高鐵苗栗,2023-03-24,24.60725,120.826094,0.00018620127
C0E910,海埔,2023-03-24,24.648767,120.772435,0.00010460191
C0E920,通霄漁港,2023-03-24,24.498589,120.673876,0.00018286286
C0E930,龍鳳,2023-03-24,24.700034,120.859125,0.00016852946
C0F000,大肚,2023-03-24,24.15295,120.572117,0.00010882061
C0F0B0,石岡,2023-03-24,24.276061,120.777644,0.00016357712
C0F850,東勢,2023-03-24,24.246428,120.833047,0.0016262912
C0F930,大甲,2023-03-24,24.347667,120.640403,0.00013689346
C0F970,大坑,2023-03-24,24.173142,120.722289,0.00010213406
C0F9A0,中竹林,2023-03-24,24.103556,120.751061,0.00017102079
C0F9I0,神岡,2023-03-24,24.272481,120.658314,0.00010257542
C0F9K0,大安,2023-03-24,24.345061,120.588025,0.00014246894
C0F9L0,后里,2023-03-24,24.310436,120.729725,0.00017589578
C0F9M0,豐原,2023-03-24,24.254322,120.720692,9.662555e-05
C0F9N0,大里,2023-03-24,24.092464,120.701378,0.00019253991
C0F9O0,潭子,2023-03-24,24.213106,120.703933,0.0001755997
C0F9P0,清水,2023-03-24,24.312297,120.562242,0.00017657015
C0F9Q0,外埔,2023-03-24,24.347817,120.705686,0.00010342973
C0F9R0,龍井,2023-03-24,24.184536,120.528972,0.00017221716
C0F9S0,烏日,2023-03-24,24.107058,120.624103,0.00018342935
C0F9T0,西屯,2023-03-24,24.179494,120.641275,0.00018112928
C0F9U0,南屯,2023-03-24,24.137006,120.637969,0.00012785729
C0F9X0,大雅(中科園區),2023-03-24,24.21528,120.62445,0.00018051789
C0FA10,松柏,2023-03-24,24.429115,120.617482,0.00013985288
C0FA20,溫寮,2023-03-24,24.372177,120.583125,0.00014267095
C0FA30,梧棲,2023-03-24,24.256003,120.523381,0.00016536588
C0FA40,臺中電廠,2023-03-24,24.2146,120.4907,0.00017221716
C0FA50,霧峰,2023-03-24,24.0419,120.6995,0.000110244204
C0G620,芬園,2023-03-24,24.015678,120.6213,0.0001910666
C0G640,鹿港,2023-03-24,24.0753,120.430481,0.00016696565
C0G650,員林,2023-03-24,23.946503,120.585597,0.000140261
C0G660,溪湖,2023-03-24,23.94835,120.479122,0.0001632306
C0G720,溪州,2023-03-24,23.851589,120.499093,0.00015050267
C0G730,二林,2023-03-24,23.903325,120.376081,0.00018192478
C0G740,大城,2023-03-24,23.852487,120.320935,0.0002188021
C0G770,福興,2023-03-24,24.041289,120.437669,0.00016551037
C0G780,秀水,2023-03-24,24.03405,120.503869,0.00015544354
C0G800,埔鹽,2023-03-24,24.000394,120.431683,0.000178722
C0G810,埔心,2023-03-24,23.947633,120.525456,0.00016330845
C0G820,田尾,2023-03-24,23.901669,120.509389,0.00019272044
C0G830,埤頭,2023-03-24,23.866003,120.452806,0.00016554272
C0G840,北斗,2023-03-24,23.877586,120.514222,0.00019272044
C0G860,社頭,2023-03-24,23.897647,120.5862,0.00020310488
C0G870,芳苑,2023-03-24,23.922303,120.320025,0.00019426503
C0G880,二水,2023-03-24,23.810742,120.6173,0.00019727116
C0G890,伸港,2023-03-24,24.148933,120.484403,0.0001589842
C0G900,線西,2023-03-24,24.143358,120.443536,0.0001664749
C0G910,花壇,2023-03-24,24.032076,120.549461,0.00013043679
C0G920,永靖,2023-03-24,23.924703,120.547533,0.00020103005
C0G940,竹塘,2023-03-24,23.848253,120.386764,0.00018608342
C0G950,防潮門,2023-03-24,24.1835,120.4871,0.00017235038
C0G960,福寶,2023-03-24,24.0443,120.3814,0.00018440474
C0G970,三豐,2023-03-24,23.882,120.2895,0.00019426503
C0H890,埔里,2023-03-24,23.972169,120.952425,0.00035115625
C0H950,中寮,2023-03-24,23.884447,120.766406,0.00016986269
C0H960,草屯,2023-03-24,23.973672,120.68085,7.8137105e-05
C0I110,竹山,2023-03-24,23.761225,120.688156,8.243558e-05
C0I360,水里,2023-03-24,23.812553,120.849792,0.00014568189
C0I380,集集,2023-03-24,23.828206,120.801467,0.00145184
C0I410,名間,2023-03-24,23.837053,120.701447,8.2739265e-05
C0I420,國姓,2023-03-24,24.037803,120.855072,0.0014518338
C0I460,南投,2023-03-24,23.911469,120.687331,0.00019250062
C0K250,崙背,2023-03-24,23.75555,120.318925,0.0002228902
C0K280,四湖,2023-03-24,23.630414,120.227125,0.00023757889
C0K291,宜梧,2023-03-24,23.536281,120.169329,0.00027596497
C0K330,虎尾,2023-03-24,23.719183,120.442036,0.00022379115
C0K390,土庫,2023-03-24,23.679029,120.395574,0.00020761607
C0K400,斗六,2023-03-24,23.720583,120.541127,0.0002244123
C0K410,北港,2023-03-24,23.573957,120.292802,0.00022233368
C0K420,西螺,2023-03-24,23.800407,120.467394,0.00019964289
C0K430,褒忠,2023-03-24,23.690938,120.303634,0.00022096696
C0K440,二崙,2023-03-24,23.772797,120.408944,0.00016732614
C0K450,大埤,2023-03-24,23.646074,120.431537,0.00016641158
C0K460,斗南,2023-03-24,23.678734,120.478359,0.00021327764
C0K470,林內,2023-03-24,23.748675,120.609642,0.000105267536
C0K480,莿桐,2023-03-24,23.761192,120.502372,0.0001505565
C0K500,元長,2023-03-24,23.64981,120.315024,0.00022815706
C0K510,水林,2023-03-24,23.572924,120.24597,0.00023334356
C0K530,臺西,2023-03-24,23.701547,120.197559,0.00012258784
C0K550,蔦松,2023-03-24,23.514319,120.229736,0.00022083617
C0K560,棋山,2023-03-24,23.68645,120.603417,0.0002055091
C0K580,高鐵雲林,2023-03-24,23.737456,120.417944,0.00016506182
C0K590,雲林東勢,2023-03-24,23.674192,120.255721,0.00024027973
C0K600,箔子寮,2023-03-24,23.6197,120.14,0.00014596664
C0M410,馬頭山,2023-03-24,23.324361,120.582017,0.0002673864
C0M520,東後寮,2023-03-24,23.369908,120.248065,0.0002395804
C0M640,中埔,2023-03-24,23.42538,120.5229,0.00016310552
C0M650,朴子,2023-03-24,23.43463,120.23902,0.00023931534
C0M660,溪口,2023-03-24,23.604131,120.403569,0.00023370092
C0M670,大林,2023-03-24,23.600616,120.45841,0.0002467565
C0M680,太保,2023-03-24,23.455062,120.331455,0.0002237214
C0M690,水上,2023-03-24,23.419734,120.388909,0.0002581686
C0M700,竹崎,2023-03-24,23.526178,120.555508,0.00013859305
C0M710,東石,2023-03-24,23.458927,120.15385,0.00030089763
C0M720,番路,2023-03-24,23.464657,120.554156,0.0001382955
C0M730,嘉義市東區,2023-03-24,23.457673,120.460531,0.0001950055
C0M740,六腳,2023-03-24,23.492871,120.290625,0.00024705118
C0M750,布袋,2023-03-24,23.380878,120.167789,0.0002684194
C0M760,民雄,2023-03-24,23.551754,120.428457,0.00019597645
C0M770,嘉義梅山,2023-03-24,23.585398,120.555587,0.00023702365
C0M780,鹿草,2023-03-24,23.41134,120.30835,0.00025835622
C0M790,新港,2023-03-24,23.553269,120.345728,0.0002029566
C0M800,茶山,2023-03-24,23.299075,120.664767,0.00023756914
C0M880,好美里,2023-03-24,23.3364,120.138,0.00030785723
C0N010,鯤鯓國小,2023-03-24,23.1879,120.0889,0.005092341
C0N020,城西,2023-03-24,23.0568,120.0956,0.0003134888
C0N030,四草,2023-03-24,23.0235,120.1116,0.00038048057
C0N040,蘆竹溝,2023-03-24,23.2344,120.0961,0.00030283912
C0N050,蚵寮,2023-03-24,23.301,120.1104,0.00023974536
C0O810,曾文,2023-03-24,23.219681,120.497328,0.00027497066
C0O830,北寮,2023-03-24,23.079561,120.495008,0.00028468372
C0O840,王爺宮,2023-03-24,23.222064,120.40085,0.00028846096
C0O860,大內,2023-03-24,23.11885,120.36083,0.00031156524
C0O900,善化,2023-03-24,23.112883,120.297219,0.00030907473
C0O930,玉井,2023-03-24,23.126042,120.46055,0.00018096219
C0O950,安南,2023-03-24,23.076694,120.144861,0.00032850844
C0O960,崎頂,2023-03-24,22.959547,120.369317,0.00016317272
C0O970,虎頭埤,2023-03-24,23.021375,120.347878,0.00033956618
C0O980,新市,2023-03-24,23.061614,120.298197,0.00021079037
C0O990,媽廟,2023-03-24,22.99175,120.293525,0.00035277006
C0R150,三地門,2023-03-24,22.709889,120.639944,0.0003402186
C0R160,鹽埔,2023-03-24,22.739558,120.530778,0.000106812375
C0R170,屏東,2023-03-24,22.660269,120.494072,0.00012853218
C0R190,赤山,2023-03-24,22.592333,120.614306,0.00034569603
C0R220,潮州,2023-03-24,22.534361,120.54,8.5028965e-05
C0R240,來義,2023-03-24,22.527306,120.625111,8.61954e-05
C0R260,春日,2023-03-24,22.370361,120.628306,0.12991892
C0R270,琉球嶼,2023-03-24,22.332244,120.362236,0.1230077
C0R280,檳榔,2023-03-24,22.076078,120.836777,0.00011624778
C0R320,車城,2023-03-24,22.0744,120.716247,9.2784685e-05
C0R341,牡丹,2023-03-24,22.130036,120.792639,0.16329184
C0R350,貓鼻頭,2023-03-24,21.921774,120.7358,9.4186755e-05
C0R470,高樹,2023-03-24,22.826389,120.600806,8.105269e-05
C0R480,長治,2023-03-24,22.693128,120.542622,0.00041190247
C0R490,九如,2023-03-24,22.7405,120.490503,0.00012855485
C0R520,崁頂,2023-03-24,22.514781,120.506914,0.00045703418
C0R540,佳冬,2023-03-24,22.419456,120.552375,0.00052977004
C0R550,新埤,2023-03-24,22.467947,120.582894,9.031991e-05
C0R560,新園,2023-03-24,22.5434,120.461558,0.0001367853
C0R570,麟洛,2023-03-24,22.65078,120.52719,0.00012907037
C0R580,南州,2023-03-24,22.48591,120.50274,0.00045885518
C0R590,里港,2023-03-24,22.77919,120.49459,0.00036762076
C0R620,墾雷,2023-03-24,21.900836,120.855269,9.285009e-05
C0R640,東港,2023-03-24,22.46247,120.44074,0.0001437943
C0R650,竹田,2023-03-24,22.58486,120.54344,0.00042845157
C0R660,枋寮,2023-03-24,22.367722,120.590647,0.08219904
C0R670,楓港,2023-03-24,22.190131,120.692156,0.3305081
C0R680,佳樂水,2023-03-24,21.993578,120.861633,9.3961055e-05
C0R690,墾丁,2023-03-24,21.966756,120.810269,0.0001325658
C0R700,枋山,2023-03-24,22.246844,120.661086,0.3967766
C0R710,龍磐,2023-03-24,21.931672,120.838942,9.719082e-05
C0R720,旭海,2023-03-24,22.205403,120.887614,0.0038010296
C0R730,大坪頂,2023-03-24,22.024633,120.69355,9.379571e-05
C0R740,獅子,2023-03-24,22.201569,120.70525,0.2708697
C0R760,南仁湖,2023-03-24,22.084681,120.863353,0.00012276949
C0R770,保力,2023-03-24,22.071122,120.764111,9.606879e-05
C0R780,滿州,2023-03-24,22.024403,120.839892,9.4683935e-05
C0R790,九棚,2023-03-24,22.14195,120.889281,0.004734243
C0R800,丹路,2023-03-24,22.204481,120.750989,0.22379
C0R810,內獅,2023-03-24,22.305064,120.642986,0.30631408
C0R830,高士,2023-03-24,22.121825,120.836781,0.00012990442
C0R850,林邊,2023-03-24,22.4634,120.5339,0.000104988445
C0R860,鼻頭,2023-03-24,22.1043,120.8979,0.000118506716
C0R870,興海,2023-03-24,21.9752,120.8439,9.3961055e-05
C0R880,後壁湖,2023-03-24,21.9457,120.7457,9.3035145e-05
C0R890,山海,2023-03-24,21.9878,120.7091,9.4169875e-05
C0R900,竹坑,2023-03-24,22.1385,120.7022,0.38068423
C0R910,下寮,2023-03-24,22.3929,120.5548,0.0005301554
C0R920,塭仔,2023-03-24,22.4169,120.5197,0.00051024114
C0R930,萬丹,2023-03-24,22.5885,120.4851,0.000406003
C0R940,加祿堂,2023-03-24,22.3363,120.6217,0.17453507
C0S710,鹿野,2023-03-24,22.917711,121.122994,0.00013358447
C0S730,綠島,2023-03-24,22.6672,121.47533,0.0006339285
C0S740,池上,2023-03-24,23.119628,121.209469,0.0001000745
C0S770,大溪山,2023-03-24,22.478475,120.943325,0.00024576095
C0S790,金崙,2023-03-24,22.538122,120.966875,0.00034195118
C0S810,東河,2023-03-24,22.972672,121.303986,0.00032073373
C0S830,長濱,2023-03-24,23.286817,121.411975,7.252703e-05
C0S840,南田,2023-03-24,22.279725,120.889208,0.014043449
C0S890,關山,2023-03-24,23.0395,121.175017,0.00022595904
C0S900,蘭嶼高中,2023-03-24,22.04909,121.51214,0.0011005297
C0S910,蘭嶼燈塔,2023-03-24,22.081197,121.503117,0.0012018025
C0S920,金峰嘉蘭,2023-03-24,22.594789,120.960825,0.0002262104
C0S930,延平,2023-03-24,22.902581,121.084058,0.00015269277
C0S940,石寧山,2023-03-24,23.223772,121.406639,7.978174e-05
C0S950,七塊厝,2023-03-24,22.954453,121.229922,0.00028913497
C0S960,香蘭,2023-03-24,22.587569,120.993375,0.00021006467
C0S970,加津林,2023-03-24,22.416211,120.926942,0.00028058715
C0S990,山豬窟,2023-03-24,22.318619,120.857372,0.0020308606
C0SA00,歷坵,2023-03-24,22.520969,120.89185,0.00022554406
C0SA10,檳榔四格山,2023-03-24,22.810031,121.109308,0.00014649106
C0SA30,都歷,2023-03-24,23.020333,121.323642,9.223492e-05
C0SA40,瑞和,2023-03-24,22.974361,121.156697,0.0002376822
C0SA60,知本（水試所）,2023-03-24,22.702394,121.082761,0.00021585495
C0SA80,土坂,2023-03-24,22.453108,120.887572,0.023269609
C0SA90,達仁林場,2023-03-24,22.264347,120.823972,0.0053556603
C0T870,鯉魚潭,2023-03-24,23.935639,121.508944,0.00021662355
C0T900,西林,2023-03-24,23.8119,121.441458,5.1237566e-05
C0T960,光復,2023-03-24,23.660694,121.424964,0.00015974916
C0T9A0,月眉山,2023-03-24,23.809928,121.539828,5.7129e-05
C0T9D0,和中,2023-03-24,24.26676,121.74103,9.317889e-05
C0T9E0,大坑,2023-03-24,23.880628,121.581981,4.801639e-05
C0T9F0,水璉,2023-03-24,23.797131,121.542514,5.2614836e-05
C0T9I0,豐濱,2023-03-24,23.583897,121.514806,3.481287e-05
C0T9M0,靜浦,2023-03-24,23.455167,121.495028,0.00024106586
C0T9N0,富里,2023-03-24,23.171639,121.249378,0.00023934798
C0U600,礁溪,2023-03-24,24.817539,121.765608,0.00026214958
C0U650,玉蘭,2023-03-24,24.675286,121.587061,3.9852705e-05
C0U750,龜山島,2023-03-24,24.841667,121.953133,7.497617e-05
C0U760,東澳,2023-03-24,24.52196,121.83318,0.00038157305
C0U770,南澳,2023-03-24,24.44935,121.81022,5.907296e-05
C0U780,五結,2023-03-24,24.68637,121.79794,0.00034726056
C0U860,頭城,2023-03-24,24.85323,121.8308,0.000103259255
C0U870,大礁溪,2023-03-24,24.791042,121.675047,0.0029512122
C0U880,北關,2023-03-24,24.9072,121.8734,0.00021094136
C0U890,三星,2023-03-24,24.66812,121.65302,0.00013459445
C0U900,內城,2023-03-24,24.71813,121.68766,0.0007002602
C0U910,冬山,2023-03-24,24.63373,121.7937,8.476116e-05
C0U940,羅東,2023-03-24,24.68184,121.74934,0.00037659178
C0U970,大福,2023-03-24,24.80064,121.81389,0.00024094316
C0U990,員山,2023-03-24,24.74435,121.72247,0.00012631236
C0UA00,土場,2023-03-24,24.576533,121.495333,3.3807915e-05
C0UA80,大溪漁港,2023-03-24,24.941801,121.902955,0.00010596022
C0UA90,石城,2023-03-24,24.980444,121.951214,0.00020856348
C0UB00,淡江大學蘭陽校園,2023-03-24,24.823239,121.730383,0.00030836952
C0UB20,壯圍,2023-03-24,24.7359,121.8163,9.962851e-05
C0V250,甲仙,2023-03-24,23.080106,120.591758,0.0002956156
C0V260,月眉,2023-03-24,22.971003,120.539853,9.2606926e-05
C0V310,美濃,2023-03-24,22.898742,120.519153,0.00036266286
C0V350,溪埔,2023-03-24,22.738578,120.446797,0.00013539188
C0V360,內門,2023-03-24,22.975481,120.466769,0.00036531338
C0V370,古亭坑,2023-03-24,22.893178,120.401947,0.0003665277
C0V400,阿公店,2023-03-24,22.804194,120.355528,0.0003919108
C0V440,鳳山,2023-03-24,22.646653,120.356122,0.00017206665
C0V450,鳳森,2023-03-24,22.545064,120.392592,0.00014561103
C0V490,新興,2023-03-24,22.627422,120.298803,0.00018668197
C0V530,阿蓮,2023-03-24,22.883208,120.327508,0.00039445586
C0V610,梓官,2023-03-24,22.760558,120.267211,0.00023776741
C0V620,永安,2023-03-24,22.82315,120.236856,0.0003354598
C0V630,茄萣,2023-03-24,22.906642,120.182608,0.0004052217
C0V640,湖內,2023-03-24,22.887139,120.2445,0.0003221265
C0V650,彌陀,2023-03-24,22.783806,120.246361,0.0003354598
C0V660,岡山,2023-03-24,22.797078,120.294958,0.00037939198
C0V680,仁武,2023-03-24,22.701083,120.347722,0.00040978854
C0V690,鼓山,2023-03-24,22.623325,120.275575,0.00037355872
C0V700,三民,2023-03-24,22.645017,120.311233,0.00018668197
C0V710,苓雅,2023-03-24,22.622742,120.330669,0.0003960986
C0V720,林園,2023-03-24,22.507747,120.394511,0.000471697
C0V730,大寮,2023-03-24,22.605614,120.395717,0.00042128144
C0V740,旗山,2023-03-24,22.888614,120.483597,0.0003606528
C0V750,路竹,2023-03-24,22.854997,120.259439,0.00023445774
C0V760,橋頭,2023-03-24,22.757806,120.30575,0.00018950301
C0V770,大社,2023-03-24,22.730306,120.346639,0.000169143
C0V790,萬山,2023-03-24,22.905944,120.688056,0.00033261668
C0V800,六龜,2023-03-24,22.997889,120.633583,0.0002915707
C0V810,左營,2023-03-24,22.67491,120.28491,0.00018511081
C0V820,小林,2023-03-24,23.148408,120.63325,0.00010154237
C0V840,鳳鼻頭,2023-03-24,22.5083,120.3591,0.0004734489
C0V850,蚵仔寮,2023-03-24,22.7256,120.2527,0.00023561092
C0V860,南寮,2023-03-24,22.7616,120.2339,0.00024102682
C0V870,文安,2023-03-24,22.8025,120.2164,0.00041647663
C0V880,興達,2023-03-24,22.8778,120.2127,0.00040522192
C0V890,前鎮,2023-03-24,22.5718,120.3117,0.00018612226
C0V900,汕尾,2023-03-24,22.4782,120.4151,0.0005227368
C0X050,東河,2023-03-24,23.296598,120.385608,0.0002734186
C0X060,下營,2023-03-24,23.22695,120.256261,0.00024033195
C0X080,佳里,2023-03-24,23.173039,120.145086,0.00030341567
C0X100,臺南市北區,2023-03-24,23.010394,120.194228,0.00040679215
C0X110,臺南市南區,2023-03-24,22.961189,120.188378,0.00027901644
C0X120,麻豆,2023-03-24,23.183289,120.248611,0.0002606893
C0X130,官田,2023-03-24,23.193217,120.315422,0.00028503107
C0X140,西港,2023-03-24,23.125608,120.203108,0.0002756447
C0X150,安定,2023-03-24,23.102614,120.227839,0.00028459338
C0X160,仁德,2023-03-24,22.968258,120.257689,0.0002457743
C0X170,關廟,2023-03-24,22.963017,120.327797,0.0002121532
C0X180,山上,2023-03-24,23.0757,120.363253,0.00031165464
C0X190,安平,2023-03-24,22.993161,120.152181,0.00038400755
C0X200,左鎮,2023-03-24,23.056758,120.408522,0.00017420265
C0X210,白河,2023-03-24,23.347466,120.414427,0.00019004711
C0X220,學甲,2023-03-24,23.230367,120.182187,0.0002745955
C0X230,鹽水,2023-03-24,23.272621,120.247641,0.00023947605
C0X240,關子嶺,2023-03-24,23.331169,120.508025,0.00015716134
C0X250,新營,2023-03-24,23.310689,120.316681,0.0002672697
C0X260,後壁,2023-03-24,23.366358,120.362326,0.00020391423
C0X280,將軍,2023-03-24,23.214999,120.13577,0.00028003976
C0X290,北門,2023-03-24,23.267772,120.125481,0.0003045706
C0X300,鹿寮,2023-03-24,23.386047,120.477331,0.0002522702
C0X310,七股,2023-03-24,23.147289,120.086253,0.00038373933
C0X320,柳營,2023-03-24,23.253328,120.375253,0.00020935124
C0Z020,明里,2023-03-24,23.208717,121.262342,7.536843e-05
C0Z061,玉里,2023-03-24,23.3215,121.339656,6.155233e-05
C0Z070,舞鶴,2023-03-24,23.46811,121.37407,0.00020589566
C0Z080,富源,2023-03-24,23.587642,121.378225,3.8802937e-05
C0Z100,東華,2023-03-24,23.89525,121.549833,4.0808212e-05
C0Z150,吉安光華,2023-03-24,23.930925,121.595153,0.00023829214
C0Z160,鳳林,2023-03-24,23.746114,121.453411,0.00019212216
C0Z170,卓溪,2023-03-24,23.3443,121.3029,0.00019039882
C0Z180,新城,2023-03-24,24.03946,121.60454,0.00019455458
C0Z190,富世,2023-03-24,24.14743,121.6297,0.00012175846
C0Z200,萬榮,2023-03-24,23.709219,121.420106,4.717032e-05
C0Z210,瑞穗,2023-03-24,23.5239,121.39021,3.8503993e-05
C0Z230,和平,2023-03-24,24.30717,121.77007,0.00039765643
C0Z270,蕃薯寮,2023-03-24,23.73835,121.540108,0.00019759456
C0Z280,德武,2023-03-24,23.47426,121.41071,0.00017647183
C0Z300,東里,2023-03-24,23.26853,121.30547,0.00020356242
C0Z310,清水斷崖,2023-03-24,24.218294,121.689142,0.0024526382
C0Z330,安通山,2023-03-24,23.290728,121.348528,5.63519e-05
CAA010,國一N013K,2023-03-24,25.06944,121.6281,0.00015887509
CAA020,國一S026K,2023-03-24,25.07639,121.4964,4.411526e-05
CAA030,國三S010K,2023-03-24,25.08,121.6475,0.0018030085
CAA040,國三S016K,2023-03-24,25.03306,121.6158,0.00015891873
CAA050,國三S037K,2023-03-24,24.9828,121.471,4.3971697e-05
CAA060,國三S042K,2023-03-24,24.96,121.4306,0.00016000071
CAA070,國三N046K,2023-03-24,24.95083,121.3958,0.00016752265
CAA080,國三S054K,2023-03-24,24.93917,121.3239,0.00015948906
CAA090,國三A005K,2023-03-24,25.00194,121.5975,0.0030943188
CAAH60,大安森林,2023-03-24,25.02955,121.53628,0.00015800595
CAB010,國一S001K,2023-03-24,25.11583,121.7286,0.00015028327
CAB020,國一S006K,2023-03-24,25.08694,121.6869,0.0017562389
CAB030,國三S004K,2023-03-24,25.11444,121.6886,0.00085829315
CAB040,國三S007K,2023-03-24,25.09694,121.6678,0.0016083684
CAB050,國三K002K,2023-03-24,25.14583,121.7217,0.00013019932
CAC010,國一S072K,2023-03-24,24.89583,121.1342,0.0001060609
CAC020,國二E009K,2023-03-24,25.02111,121.2736,7.825038e-05
CAC030,國三N063K,2023-03-24,24.889,121.26,7.7144636e-05
CAC050,西濱S023K,2023-03-24,25.11649,121.27551,7.487943e-05
CAC060,西濱S032K,2023-03-24,25.091966,121.192505,0.00010000257
CAD010,國一S105K,2023-03-24,24.726316,120.940643,6.914207e-05
CAD020,國一N077K,2023-03-24,24.885,121.0889,0.00013344215
CAD030,國一S082K,2023-03-24,24.87667,121.0467,0.00012510551
CAD040,國一S088K,2023-03-24,24.84444,121.0214,6.513448e-05
CAD050,國一N094K,2023-03-24,24.79778,121.0089,0.00012955334
CAD060,國一S098K,2023-03-24,24.76056,120.9911,9.3047296e-05
CAD070,國三N076K,2023-03-24,24.800303,121.195739,0.00010225607
CAD080,國三N085K,2023-03-24,24.78333,121.1211,0.00010261484
CAD090,國三S103K,2023-03-24,24.75861,120.9608,7.112594e-05
CAD100,西濱N066K,2023-03-24,24.8956,120.9649,0.00014698469
CAD110,西濱S082K,2023-03-24,24.751724,120.905028,0.00056315924
CAE010,國一N142K,2023-03-24,24.453119,120.783221,0.0010428722
CAE020,國一S114K,2023-03-24,24.668835,120.885811,0.0006814487
CAE030,國一S123K,2023-03-24,24.59594,120.86071,0.0001777331
CAE040,國一S132K,2023-03-24,24.524506,120.820831,0.00019169178
CAE050,國一S152K,2023-03-24,24.375492,120.749184,0.00016506371
CAE060,國三N119K,2023-03-24,24.675432,120.847389,0.00016860243
CAE070,國三N151K,2023-03-24,24.440218,120.681656,0.00011383274
CAE080,國三S140K,2023-03-24,24.522345,120.725006,0.00018242051
CAE090,國三S156K,2023-03-24,24.39798,120.669487,0.00018314169
CAE100,西濱N107K,2023-03-24,24.5958,120.7394,0.00018622258
CAE110,西濱S129K,2023-03-24,24.4472,120.6428,0.00013990662
CAF010,國一N174K,2023-03-24,24.2049,120.6552,0.00018023653
CAF020,國一S162K,2023-03-24,24.295534,120.695976,0.00017583878
CAF030,國一S169K,2023-03-24,24.237116,120.688271,0.00010206611
CAF040,國一S188K,2023-03-24,24.118546,120.585747,0.0001783405
CAF050,國三N208K,2023-03-24,24.066147,120.660919,9.88891e-05
CAF060,國三S168K,2023-03-24,24.308519,120.614471,0.00018439243
CAF070,國三S173K,2023-03-24,24.27397,120.593079,0.00013924717
CAF080,國三S178K,2023-03-24,24.226721,120.589058,0.00013866325
CAF090,國四E5K,2023-03-24,24.296465,120.643135,0.0001839278
CAF100,西濱N151K,2023-03-24,24.275964,120.547681,0.00017658526
CAG010,國一N198K,2023-03-24,24.063889,120.523056,0.00015552137
CAG030,國一S207K,2023-03-24,23.988304,120.508092,0.0001825639
CAG040,國三N191K,2023-03-24,24.139256,120.5215,0.00015902802
CAG050,國三N196K,2023-03-24,24.107155,120.554482,0.00017861908
CAG060,國三S202K,2023-03-24,24.092468,120.603256,0.00018355742
CAG070,西濱S173K,2023-03-24,24.1081,120.434576,0.0001671082
CAG080,西濱S189K,2023-03-24,23.987857,120.369607,0.00017242122
CAG090,西濱N210K,2023-03-24,23.843536,120.293236,0.00021857963
CAG100,王功漁港,2023-03-24,23.96824,120.32586,0.00021004866
CAH010,國三N223K,2023-03-24,23.955116,120.662376,7.735171e-05
CAH020,國三S217K,2023-03-24,24.00683,120.653214,0.00019898229
CAH030,茶改場竹圍站,2023-03-24,23.860083,120.637528,0.00010333924
CAHA00,消防署訓練中心,2023-03-24,23.82137,120.72293,0.00018144112
CAJ010,國三N252K,2023-03-24,23.77412,120.64061,0.00010405971
CAJ020,國一N234K,2023-03-24,23.74633,120.467926,0.00016624457
CAJ030,西濱N222K,2023-03-24,23.737734,120.256132,0.00023625564
CAJ040,西濱S241K,2023-03-24,23.623426,120.172646,0.00018608749
CAJ050,海口故事園區,2023-03-24,23.57543,120.14121,0.00014596664
CAL010,國一N250K,2023-03-24,23.610292,120.436867,0.00025392388
CAL020,國一S262K,2023-03-24,23.512333,120.403038,0.00024307892
CAL030,國一N268K,2023-03-24,23.460833,120.375833,0.00021277636
CAL040,國一N273K,2023-03-24,23.416666,120.355,0.0002535571
CAL050,國三N279K,2023-03-24,23.596111,120.523333,0.00022228174
CAL060,國三S286K,2023-03-24,23.533917,120.484583,0.00015935514
CAL070,國三N295K,2023-03-24,23.468598,120.499369,0.00016177827
CAL080,國三N303K,2023-03-24,23.428611,120.452416,0.00019585672
CAL090,西濱S257K,2023-03-24,23.502278,120.171861,0.00022864551
CAL100,西濱S267K,2023-03-24,23.41613,120.162872,0.0002684194
CAL110,布袋國中,2023-03-24,23.35893,120.18026,0.00027445285
CAN010,國一N288K,2023-03-24,23.30609,120.290033,0.000267835
CAN020,國一S306K,2023-03-24,23.1565,120.239513,0.00024181818
CAN030,國一N316K,2023-03-24,23.07309,120.253014,0.00024504264
CAN040,國一N323K,2023-03-24,23.00421,120.245922,0.0003129874
CAN050,國一N335K,2023-03-24,22.897584,120.269895,0.0003553085
CAN060,國三S311K,2023-03-24,23.346388,120.438888,0.00019023803
CAN070,國三S329K,2023-03-24,23.212777,120.355833,0.00029318692
CAN080,國三N336K,2023-03-24,23.154722,120.345,0.00019947943
CAN090,國三S342K,2023-03-24,23.106694,120.327528,0.00030705024
CAN100,國三S366K,2023-03-24,22.9077,120.3513,0.00036542848
CAN110,西濱S280K,2023-03-24,23.3052,120.14891,0.00025644322
CAN120,西濱N304K,2023-03-24,23.103439,120.086694,0.0071041333
CAN130,水試所海水繁養殖中心,2023-03-24,23.120802,120.07968,0.007332102
CAN140,六官養殖協會,2023-03-24,23.22881,120.29962,0.00021947031
CAP010,國一S342K,2023-03-24,22.845555,120.295,0.0001900743
CAP020,國一S346K,2023-03-24,22.812222,120.314166,0.00037939198
CAP030,國一N351K,2023-03-24,22.765833,120.328888,0.00018950301
CAP040,國一N361K,2023-03-24,22.680555,120.328611,0.00038109208
CAP050,國三N372K,2023-03-24,22.858611,120.373611,0.00018137053
CAP060,國三S385K,2023-03-24,22.767777,120.444444,0.00011782019
CAP070,高雄燈塔,2023-03-24,22.6146,120.2647,0.00037355872
CAQ010,國三N425K,2023-03-24,22.480277,120.531666,0.00047724255
CAQ020,國三S415K,2023-03-24,22.568,120.528,0.00010804637
CAQ030,崎峰國小,2023-03-24,22.42565,120.49521,0.00013462346
E2K600,四湖植物園,2023-03-24,23.676986,120.163433,0.00012258784
E2P980,林試六龜中心,2023-03-24,22.991703,120.645722,0.00029121758
E2S390,太麻里分所,2023-03-24,22.5988,120.9811,0.00021198296
E2S960,林試太麻里2,2023-03-24,22.598014,120.989761,0.00021006467
E2S980,林試太麻里1,2023-03-24,22.598922,120.980044,0.00021198296
G2AI50,關渡,2023-03-24,25.11575,121.492,4.4025408e-05
G2F820,農業試驗所,2023-03-24,24.031261,120.688133,0.00011180022
G2F820,農試所(霧峰),2023-03-24,24.031261,120.688133,0.00011180022
G2L020,嘉義分所,2023-03-24,23.485028,120.473806,0.000231905
G2L020,嘉義農試,2023-03-24,23.485028,120.473806,0.00023190478
G2M350,溪口農場,2023-03-24,23.58565,120.408111,0.0002545114
G2P820,鳳山園試所,2023-03-24,22.646611,120.356083,0.00017206665
G2P820,鳳山農試,2023-03-24,22.646611,120.356083,0.00017206665
K2E360,苗栗農改,2023-03-24,24.495722,120.829111,0.00018003452
K2E360,苗栗農改場,2023-03-24,24.495722,120.829111,0.00018003452
K2E710,大湖分場,2023-03-24,24.422861,120.871833,0.0001646828
K2F750,種苗改良場,2023-03-24,24.225972,120.800917,0.0012448226
K2F750,種苗繁殖,2023-03-24,24.225972,120.800917,0.0012448226
U2HA50,臺大竹山,2023-03-24,23.756972,120.681556,8.282492e-05
V2C250,八德合作社,2023-03-24,24.93775,121.266389,0.00016032142
V2C260,八德蔬果,2023-03-24,24.978508,121.281819,7.5159565e-05
V2K610,大庄合作社,2023-03-24,23.8068,120.367939,0.00019792511
V2K620,麥寮合作社,2023-03-24,23.753836,120.294783,0.00022298371
