站號,站名,日期,lat,lon,BLBTSLS
C0R710,龍磐,2023-05-13,21.931672,120.838942,0.15923868
C1F9D1,白毛台,2023-05-13,24.158325,120.886933,9.607297e-09
C0G940,竹塘,2023-05-13,23.848253,120.386764,1.9237825e-05
467590,恆春,2023-05-13,22.003897,120.746339,0.06078129
C1O850,環湖,2023-05-13,23.148617,120.418633,0.7851855
C0U710,太平山,2023-05-13,24.505486,121.525656,6.073443e-09
C0E820,獅潭,2023-05-13,24.539133,120.920042,2.6050674e-07
C0V880,興達,2023-05-13,22.8778,120.2127,0.00017751176
C0S890,關山,2023-05-13,23.0395,121.175017,9.67847e-10
K2F750,種苗繁殖,2023-05-13,24.225972,120.800917,2.3349511e-07
C1Z130,銅門,2023-05-13,23.965694,121.492842,3.7057326e-08
C0AD40,土城,2023-05-13,24.973208,121.445169,1.4630938e-05
CAN140,六官養殖協會,2023-05-13,23.22881,120.29962,0.9866741
C0X180,山上,2023-05-13,23.0757,120.363253,0.9743097
C0F9Z0,雪山東峰,2023-05-13,24.388792,121.268675,1.2451633e-08
C1M480,獨立山,2023-05-13,23.537022,120.607797,1.3856948e-09
C0X220,學甲,2023-05-13,23.230367,120.182187,0.48125252
C0R170,屏東,2023-05-13,22.660269,120.494072,6.9667316e-05
467650,日月潭,2023-05-13,23.881325,120.90805,8.754771e-09
C0K600,箔子寮,2023-05-13,23.6197,120.14,0.0007090333
C0G830,埤頭,2023-05-13,23.866003,120.452806,1.5953813e-07
C0S950,七塊厝,2023-05-13,22.954453,121.229922,5.56143e-10
467110,金門,2023-05-13,24.407306,118.289281,0.23837286
C0AH80,深坑,2023-05-13,25.002703,121.628328,5.0102176e-06
467990,馬祖,2023-05-13,26.169269,119.923419,1.3058111e-05
C0A970,三貂角,2023-05-13,25.007606,122.002058,1.5103124e-06
C0K430,褒忠,2023-05-13,23.690938,120.303634,3.6988047e-05
467480,嘉義,2023-05-13,23.495925,120.432906,4.392124e-05
C2E540,後龍,2023-05-13,24.606489,120.783933,0.00027581508
C0V400,阿公店,2023-05-13,22.804194,120.355528,0.011849804
C0R440,大漢山,2023-05-13,22.405264,120.753181,6.8470496e-09
C0K280,四湖,2023-05-13,23.630414,120.227125,0.01492542
C1F9B1,桐林,2023-05-13,24.066172,120.735194,5.5906725e-08
C0K390,土庫,2023-05-13,23.679029,120.395574,1.5934091e-06
C1I450,望鄉山,2023-05-13,23.594153,120.944286,7.9947124e-09
C0E910,海埔,2023-05-13,24.648767,120.772435,0.0003901506
B2E890,畜試北區分所,2023-05-13,24.527806,120.770972,2.2914242e-06
C0R750,四林格山,2023-05-13,22.076989,120.802439,9.4209537e-07
C0F0C0,中坑,2023-05-13,24.248517,120.903319,3.5469825e-09
C1I121,大鞍,2023-05-13,23.678381,120.760017,4.1469854e-09
72U480,花改蘭陽分場,2023-05-13,24.686306,121.716583,0.0004220997
C0A770,科教館,2023-05-13,25.096356,121.516507,7.248811e-07
C0AJ60,六塊厝,2023-05-13,25.24,121.4481,0.8396144
C0R620,墾雷,2023-05-13,21.900836,120.855269,0.008945921
467420,永康,2023-05-13,23.038386,120.2367,0.9875583
467300,東吉島,2023-05-13,23.25695,119.667467,0.9992115
C0I410,名間,2023-05-13,23.837053,120.701447,1.5002007e-06
A2C560,農工中心,2023-05-13,24.985917,121.239833,6.2966215e-08
C0V740,旗山,2023-05-13,22.888614,120.483597,0.00025214851
C0Z061,玉里,2023-05-13,23.3215,121.339656,1.1600372e-09
C0S840,南田,2023-05-13,22.279725,120.889208,0.015591755
C1I470,杉林溪,2023-05-13,23.639517,120.786444,4.669416e-09
C1X040,東原,2023-05-13,23.291597,120.463822,8.40465e-06
C0R660,枋寮,2023-05-13,22.367722,120.590647,0.0009965018
C1R120,上德文,2023-05-13,22.763272,120.704442,5.3398436e-10
C0K450,大埤,2023-05-13,23.646074,120.431537,9.9482556e-08
C0UA00,土場,2023-05-13,24.576533,121.495333,8.899375e-09
467080,宜蘭,2023-05-13,24.763975,121.756528,0.008231967
C0N030,四草,2023-05-13,23.0235,120.1116,0.008599516
C0V650,彌陀,2023-05-13,22.783806,120.246361,0.08523149
C0D660,新竹市東區,2023-05-13,24.798681,120.986942,5.2082378e-05
82S580,茶改東部分場,2023-05-13,22.907694,121.130139,1.3738842e-08
C0C710,大溪永福,2023-05-13,24.892936,121.324975,8.6486756e-07
C0FA20,溫寮,2023-05-13,24.372177,120.583125,0.01422288
C0V640,湖內,2023-05-13,22.887139,120.2445,0.0001417928
C0R910,下寮,2023-05-13,22.3929,120.5548,0.0009965018
C0Z020,明里,2023-05-13,23.208717,121.262342,1.6717794e-09
C0M770,嘉義梅山,2023-05-13,23.585398,120.555587,4.2159594e-05
G2F820,農業試驗所,2023-05-13,24.031261,120.688133,7.225063e-08
C0C660,楊梅,2023-05-13,24.912375,121.143047,2.2184044e-07
C1E511,新開,2023-05-13,24.347703,120.827019,3.6747986e-07
G2F820,農試所(霧峰),2023-05-13,24.031261,120.688133,7.225063e-08
C1I070,和社,2023-05-13,23.591131,120.888861,2.3547567e-08
C2F000,大肚,2023-05-13,24.15295,120.572117,3.660248e-08
C1S850,豐南,2023-05-13,23.122139,121.262389,7.568314e-10
C2A920,富貴角,2023-05-13,25.263783,121.565258,9.053204e-05
CAH030,茶改場竹圍站,2023-05-13,23.860083,120.637528,2.8131941e-08
C0T960,光復,2023-05-13,23.660694,121.424964,2.929546e-09
C0F9M0,豐原,2023-05-13,24.254322,120.720692,0.0028473227
C0R720,旭海,2023-05-13,22.205403,120.887614,0.0027899886
C0V710,苓雅,2023-05-13,22.622742,120.330669,0.0077481386
C0C740,觀音工業區,2023-05-13,25.064764,121.114856,4.450931e-07
CAC040,拉拉山,2023-05-13,24.699317,121.427133,1.0970329e-08
C0V790,萬山,2023-05-13,22.905944,120.688056,3.1776509e-07
U2HA30,臺大和社,2023-05-13,23.590856,120.888864,2.3547567e-08
C0AJ90,澳底,2023-05-13,25.0552,121.9253,0.0012689311
C0Z100,東華,2023-05-13,23.89525,121.549833,1.4588954e-08
C0G970,三豐,2023-05-13,23.882,120.2895,0.00033588847
V2K610,大庄合作社,2023-05-13,23.8068,120.367939,1.8333398e-05
C0V900,汕尾,2023-05-13,22.4782,120.4151,0.00053590746
C1R630,龍泉,2023-05-13,22.66701,120.59091,1.0388983e-05
C1AC50,關渡,2023-05-13,25.133486,121.469331,7.837004e-08
C0F9I0,神岡,2023-05-13,24.272481,120.658314,1.027604e-05
C0K460,斗南,2023-05-13,23.678734,120.478359,8.494163e-08
467410,臺南,2023-05-13,22.993239,120.204772,0.0063285953
C2O810,曾文,2023-05-13,23.219681,120.497328,0.017540822
467280,後龍,2023-05-13,24.648563,120.831834,0.00013378066
C1F9J1,清水林,2023-05-13,24.071242,120.820419,2.7235734e-09
C2A650,火燒寮,2023-05-13,25.002719,121.742892,1.781845e-07
466930,竹子湖,2023-05-13,25.162078,121.544547,4.8754787e-09
C1I220,樟湖,2023-05-13,23.905333,120.846983,4.492889e-09
C0I390,仁愛,2023-05-13,24.022122,121.132206,3.6749221e-09
C0Z300,東里,2023-05-13,23.26853,121.30547,1.9044422e-09
C0V310,美濃,2023-05-13,22.898742,120.519153,0.00031384855
C1V590,新發,2023-05-13,23.057019,120.646064,2.5149102e-08
C0K510,水林,2023-05-13,23.572924,120.24597,4.0000283e-05
72S590,東改賓朗果園,2023-05-13,22.813889,121.071278,1.43794665e-08
82A750,茶改北部分場,2023-05-13,24.955778,121.631222,3.1545127e-08
C1A750,石碇服務區,2023-05-13,25.00872,121.646242,3.6476445e-07
C0X300,鹿寮,2023-05-13,23.386047,120.477331,0.6601385
G2AI50,關渡,2023-05-13,25.11575,121.492,1.5644299e-06
C0K590,雲林東勢,2023-05-13,23.674192,120.255721,8.04585e-05
C0A570,桶後,2023-05-13,24.848222,121.597992,7.731162e-08
C1S800,華源,2023-05-13,22.657883,121.02325,6.5835548e-06
C0G720,溪州,2023-05-13,23.851589,120.499093,1.4561661e-07
C1V160,達卡努瓦,2023-05-13,23.279811,120.705319,5.434364e-09
C2M410,馬頭山,2023-05-13,23.324361,120.582017,5.6786473e-07
C0V850,蚵仔寮,2023-05-13,22.7256,120.2527,0.15544443
C0S740,池上,2023-05-13,23.119628,121.209469,4.843677e-09
C1V390,尖山,2023-05-13,22.813153,120.367789,0.0049435087
C0AH70,松山,2023-05-13,25.04871,121.55042,6.3126504e-07
C0N010,鯤鯓國小,2023-05-13,23.1879,120.0889,0.2033666
C0R550,新埤,2023-05-13,22.467947,120.582894,0.00035907334
C0SA60,知本（水試所）,2023-05-13,22.702394,121.082761,0.002283686
C0T9I0,豐濱,2023-05-13,23.583897,121.514806,2.7997678e-09
C0UB00,淡江大學蘭陽校園,2023-05-13,24.823239,121.730383,4.6558647e-08
C0T9N0,富里,2023-05-13,23.171639,121.249378,2.895018e-09
U2HA50,臺大竹山,2023-05-13,23.756972,120.681556,1.8243629e-05
C0V840,鳳鼻頭,2023-05-13,22.5083,120.3591,0.0002511973
C0X140,西港,2023-05-13,23.125608,120.203108,0.97885025
72D080,桃改五峰分場,2023-05-13,24.612194,121.157167,1.6105121e-09
C0V530,阿蓮,2023-05-13,22.883208,120.327508,0.12654583
C1O880,關山,2023-05-13,23.173397,120.594092,2.5597233e-08
C0E791,卓蘭,2023-05-13,24.3126,120.8244,1.21263e-06
C1I030,武界,2023-05-13,23.913225,121.052483,6.347686e-09
C0R520,崁頂,2023-05-13,22.514781,120.506914,0.04753598
C0R341,牡丹,2023-05-13,22.130036,120.792639,0.80615854
C0R930,萬丹,2023-05-13,22.5885,120.4851,7.391797e-05
C0S760,紅石,2023-05-13,23.069131,121.126219,5.323514e-09
C1M610,石磐龍,2023-05-13,23.496606,120.663506,4.333306e-09
C0UA10,鴛鴦湖,2023-05-13,24.590269,121.412228,4.836716e-09
V2C260,八德蔬果,2023-05-13,24.978508,121.281819,8.5837556e-08
C0R800,丹路,2023-05-13,22.204481,120.750989,0.016456014
C0G920,永靖,2023-05-13,23.924703,120.547533,2.5870438e-06
C1A630,下盆,2023-05-13,24.771003,121.538622,1.7153535e-08
B2N890,畜產試驗所,2023-05-13,23.058972,120.336406,0.988902
C0UA30,白嶺,2023-05-13,24.527819,121.519031,3.5756338e-09
C1V580,溪南(特生中心),2023-05-13,23.084972,120.788475,3.8736445e-09
C1T970,大農,2023-05-13,23.615233,121.413331,2.3698228e-09
E2S960,林試太麻里2,2023-05-13,22.598014,120.989761,0.1223088
C0R650,竹田,2023-05-13,22.58486,120.54344,0.011293754
C1H900,清流,2023-05-13,24.080775,120.962997,3.410163e-09
C1C510,水尾,2023-05-13,24.940081,121.087161,2.9972443e-07
C0F9X0,大雅(中科園區),2023-05-13,24.21528,120.62445,2.2434222e-07
C0O970,虎頭埤,2023-05-13,23.021375,120.347878,0.9876956
C0C730,中大臨海站,2023-05-13,24.966126,121.008581,4.1995736e-07
C0X250,新營,2023-05-13,23.310689,120.316681,0.8612564
C0V700,三民,2023-05-13,22.645017,120.311233,0.079882145
C0U870,大礁溪,2023-05-13,24.791042,121.675047,2.389217e-08
C0E870,高鐵苗栗,2023-05-13,24.60725,120.826094,0.00018921394
A2K570,古坑花卉中心,2023-05-13,23.63353,120.55239,5.088391e-05
C0M860,新美,2023-05-13,23.338017,120.683169,7.516944e-09
C1E701,八卦,2023-05-13,24.491756,120.927619,2.5871059e-09
C0I420,國姓,2023-05-13,24.037803,120.855072,1.41177585e-08
C0S960,香蘭,2023-05-13,22.587569,120.993375,0.1223088
C0R260,春日,2023-05-13,22.370361,120.628306,0.00059066986
72G600,臺中農改場,2023-05-13,24.003028,120.534389,1.0395912e-06
C0Z210,瑞穗,2023-05-13,23.5239,121.39021,3.1397085e-09
C0M820,達邦,2023-05-13,23.453994,120.749517,4.6322035e-09
C0V860,南寮,2023-05-13,22.7616,120.2339,0.15544443
C0G740,大城,2023-05-13,23.852487,120.320935,0.00021211052
C0R920,塭仔,2023-05-13,22.4169,120.5197,0.0011365408
C0R470,高樹,2023-05-13,22.826389,120.600806,2.180198e-05
C0R680,佳樂水,2023-05-13,21.993578,120.861633,0.17187238
C1O870,大棟山,2023-05-13,23.31157,120.52226,1.6869557e-09
C0D360,梅花,2023-05-13,24.678347,121.208558,3.1058416e-09
C0Z190,富世,2023-05-13,24.14743,121.6297,3.5090264e-07
C0AI10,屈尺,2023-05-13,24.92184,121.54475,8.572872e-07
B2U990,畜試東區分所,2023-05-13,24.669039,121.832561,1.6157041e-07
C0R240,來義,2023-05-13,22.527306,120.625111,0.005913611
C1R610,西大武山,2023-05-13,22.617719,120.7322,7.046003e-09
C0G900,線西,2023-05-13,24.143358,120.443536,3.2643982e-06
C0M700,竹崎,2023-05-13,23.526178,120.555508,0.006581558
C2E880,三義,2023-05-13,24.405478,120.749819,2.6184808e-09
C0C720,竹圍,2023-05-13,25.112692,121.239824,1.370556e-06
C0F9P0,清水,2023-05-13,24.312297,120.562242,0.032857824
C0Z150,吉安光華,2023-05-13,23.930925,121.595153,1.2523668e-06
C1D640,外坪(五指山),2023-05-13,24.644447,121.090961,2.245938e-09
C0F9O0,潭子,2023-05-13,24.213106,120.703933,1.2576219e-05
72T250,花蓮農改場,2023-05-13,23.975222,121.563889,0.0054730447
C0E780,銅鑼,2023-05-13,24.489681,120.790853,1.13347824e-07
C1T950,太安,2023-05-13,23.666719,121.370128,1.4135542e-08
C0E830,苑裡,2023-05-13,24.439714,120.653053,0.024605608
467270,田中,2023-05-13,23.873803,120.581286,1.3976143e-06
C0SA10,檳榔四格山,2023-05-13,22.810031,121.109308,4.860205e-09
C1T830,布洛灣,2023-05-13,24.17184,121.57127,0.09394305
C0F970,大坑,2023-05-13,24.173142,120.722289,1.8927102e-06
C1U920,思源,2023-05-13,24.393125,121.347214,3.808276e-09
C0A931,三和,2023-05-13,25.233153,121.595236,1.4262673e-07
C0I010,廬山,2023-05-13,24.033311,121.181808,4.5007718e-09
C0R860,鼻頭,2023-05-13,22.1043,120.8979,0.7760894
C0UB20,壯圍,2023-05-13,24.7359,121.8163,0.0008844314
C0R790,九棚,2023-05-13,22.14195,120.889281,0.9496138
C0W110,東莒,2023-05-13,25.9652,119.98069,3.7283222e-05
C1U930,粉鳥林,2023-05-13,24.497088,121.842479,5.4719564e-08
C1I211,蘆竹湳,2023-05-13,23.934019,120.811994,7.324085e-09
C0S830,長濱,2023-05-13,23.286817,121.411975,9.888957e-10
C1F9F1,伯公龍,2023-05-13,24.272392,120.849047,2.378435e-07
C0E810,西湖,2023-05-13,24.562947,120.7485,0.030083038
C1I440,新高口,2023-05-13,23.478744,120.878939,4.9340314e-09
C0O840,王爺宮,2023-05-13,23.222064,120.40085,0.96944034
C0T9G0,鳳林山,2023-05-13,23.735269,121.420131,4.2704067e-09
C0X080,佳里,2023-05-13,23.173039,120.145086,0.2033666
C0Z310,清水斷崖,2023-05-13,24.218294,121.689142,2.588216e-07
C0M680,太保,2023-05-13,23.455062,120.331455,0.06306653
C1S820,金峰,2023-05-13,22.590969,120.933236,1.4470666e-05
C0AD10,八里,2023-05-13,25.150211,121.403947,1.370556e-06
C2K240,草嶺,2023-05-13,23.59555,120.693461,2.898615e-09
C1SA70,都蘭,2023-05-13,22.87794,121.226881,2.1955681e-07
C0K440,二崙,2023-05-13,23.772797,120.408944,5.1169792e-08
C1A760,坪林交控,2023-05-13,24.94284,121.713442,4.5949258e-07
C0F9N0,大里,2023-05-13,24.092464,120.701378,1.8952774e-07
C0SA90,達仁林場,2023-05-13,22.264347,120.823972,2.2996764e-07
C1R290,石門山,2023-05-13,22.112611,120.756597,0.016221939
42HA10,萬大發電廠,2023-05-13,23.978875,121.139639,3.7892565e-09
C0R890,山海,2023-05-13,21.9878,120.7091,0.14299731
C0T9A0,月眉山,2023-05-13,23.809928,121.539828,3.149617e-09
C0AC70,信義,2023-05-13,25.037822,121.564597,6.3126504e-07
C0K560,棋山,2023-05-13,23.68645,120.603417,2.4952189e-05
C1Z240,中平林道,2023-05-13,23.42115,121.26763,1.025962e-08
U2H480,溪頭,2023-05-13,23.670306,120.798194,1.4930385e-09
C0M880,好美里,2023-05-13,23.3364,120.138,0.14383684
C0T9E0,大坑,2023-05-13,23.880628,121.581981,3.0367375e-09
C0K530,臺西,2023-05-13,23.701547,120.197559,0.0027014732
C1E900,國一N128K,2023-05-13,24.560997,120.844186,0.0004934229
C0AJ50,水湳洞,2023-05-13,25.123695,121.862238,0.011458672
C0AI20,白沙灣,2023-05-13,25.283128,121.519058,0.7376465
C0A860,大坪,2023-05-13,25.165914,121.632969,1.0794318e-08
C1U850,觀音海岸,2023-05-13,24.38319,121.77856,1.3337062e-08
C0U950,鶯子嶺,2023-05-13,24.89754,121.79244,1.8503933e-08
C0O900,善化,2023-05-13,23.112883,120.297219,0.9885869
C0K550,蔦松,2023-05-13,23.514319,120.229736,0.00024286046
E2P980,林試六龜中心,2023-05-13,22.991703,120.645722,4.901981e-08
C0E590,通霄,2023-05-13,24.471892,120.704622,0.01700725
C1I310,西巒,2023-05-13,23.754486,120.883956,7.858885e-09
C0A550,泰平,2023-05-13,24.971197,121.823711,4.0901767e-08
C0I360,水里,2023-05-13,23.812553,120.849792,5.822879e-08
C0R830,高士,2023-05-13,22.121825,120.836781,0.0002820029
C1I101,溪頭,2023-05-13,23.661789,120.807647,6.0824275e-09
C0AJ20,野柳,2023-05-13,25.20703,121.690021,1.3778524e-05
C0B060,暖暖,2023-05-13,25.0957,121.7403,5.463894e-07
C1H920,長豐,2023-05-13,24.102039,120.879897,6.1975443e-09
C0V360,內門,2023-05-13,22.975481,120.466769,0.00015284032
C0R850,林邊,2023-05-13,22.4634,120.5339,0.0005057303
C0E930,龍鳳,2023-05-13,24.700034,120.859125,4.772953e-06
C0U910,冬山,2023-05-13,24.63373,121.7937,1.6157041e-07
C1E721,泰安,2023-05-13,24.489017,120.968036,2.2895539e-09
82H320,茶改中部分場,2023-05-13,23.875611,120.913583,1.761117e-08
C0M750,布袋,2023-05-13,23.380878,120.167789,0.05200963
C1S860,利嘉,2023-05-13,22.809417,121.050528,5.039587e-09
72C440,桃園農改,2023-05-13,24.950944,121.030583,7.1760934e-07
E2S980,林試太麻里1,2023-05-13,22.598922,120.980044,0.0031974171
C0X170,關廟,2023-05-13,22.963017,120.327797,0.87093407
C0V720,林園,2023-05-13,22.507747,120.394511,0.00017815983
C1I510,線浸林道,2023-05-13,23.761508,120.832956,5.4864278e-09
C0D690,外湖,2023-05-13,24.917735,120.968711,1.7836721e-06
C0C750,新興坑尾,2023-05-13,25.0061,121.0971,1.8422571e-07
B2Q810,畜試南區分所,2023-05-13,21.945583,120.802167,0.1700061
C0S790,金崙,2023-05-13,22.538122,120.966875,1.6305765e-06
C0AH90,福山植物園,2023-05-13,24.760717,121.58135,1.3507124e-08
C0I540,奇萊稜線,2023-05-13,24.109231,121.326456,1.4786764e-08
C0M850,表湖,2023-05-13,23.24186,120.64166,4.5614076e-08
C0S770,大溪山,2023-05-13,22.478475,120.943325,4.5587548e-08
C0AG80,中和,2023-05-13,24.991622,121.491792,1.4630938e-05
C0T790,大禹嶺,2023-05-13,24.186117,121.316086,7.1099118e-09
C0T9B0,水源,2023-05-13,23.991861,121.537169,1.7382371e-08
C0R840,牡丹池山,2023-05-13,22.168389,120.841225,4.2821537e-07
C1I131,桶頭,2023-05-13,23.641944,120.654117,5.05398e-08
CAL110,布袋國中,2023-05-13,23.35893,120.18026,0.052156366
467571,新竹,2023-05-13,24.827853,121.014219,6.4453848e-06
C0Z290,赤柯山,2023-05-13,23.36893,121.38293,3.4568757e-09
C0X280,將軍,2023-05-13,23.214999,120.13577,0.5334165
C0S690,太麻里,2023-05-13,22.60902,120.98533,1.2827082e-08
C0U880,北關,2023-05-13,24.9072,121.8734,4.2486598e-05
C1H860,瑞岩,2023-05-13,24.123772,121.18345,6.7697705e-09
C0G810,埔心,2023-05-13,23.947633,120.525456,2.5877446e-06
C0U970,大福,2023-05-13,24.80064,121.81389,0.009880914
C1E670,南礦,2023-05-13,24.538278,121.002836,2.3709033e-09
C0M520,東後寮,2023-05-13,23.369908,120.248065,0.036014125
C1E461,松安,2023-05-13,24.397972,120.986022,2.858181e-09
72G600,臺中農改,2023-05-13,24.003028,120.534389,1.0395912e-06
C2N160,西拉雅風管處,2023-05-13,23.189481,120.335297,0.9745542
C0A640,石碇,2023-05-13,24.993969,121.662917,5.5089018e-08
E2S960,林試太麻里2,2023-05-13,22.598,120.99775,0.19373931
C0F9Y0,桃山,2023-05-13,24.432739,121.303808,1.166897e-08
C1I020,萬大,2023-05-13,23.979817,121.132261,3.649789e-09
C0U940,羅東,2023-05-13,24.68184,121.74934,0.0005497259
C0M650,朴子,2023-05-13,23.43463,120.23902,0.0033768418
C1I500,大尖山,2023-05-13,23.858572,120.994889,8.522672e-09
C0G820,田尾,2023-05-13,23.901669,120.509389,2.5869476e-06
E2K600,四湖植物園,2023-05-13,23.676986,120.163433,0.014914853
C0S730,綠島,2023-05-13,22.6672,121.47533,0.98449117
12Q970,東港工作站,2023-05-13,22.479997,120.466058,0.0005493051
C0E430,南庄,2023-05-13,24.601775,121.000214,2.171405e-07
C1TA00,太魯閣,2023-05-13,24.15773,121.6236,2.1613126e-07
466920,臺北,2023-05-13,25.037658,121.514853,6.3126504e-07
C0R600,舊泰武,2023-05-13,22.588194,120.664944,5.0215077e-10
C1I260,北坑,2023-05-13,23.9246,121.006903,5.615453e-09
466910,鞍部,2023-05-13,25.182586,121.529731,1.2812728e-08
C1I230,九份二山,2023-05-13,23.961944,120.845,9.757976e-09
C2A660,瑞芳,2023-05-13,25.113169,121.801147,8.36323e-05
C0R270,琉球嶼,2023-05-13,22.332244,120.362236,0.9664139
C1T990,高寮,2023-05-13,23.394239,121.356808,8.89937e-10
C0G620,芬園,2023-05-13,24.015678,120.6213,3.913504e-08
C1Z140,荖溪,2023-05-13,23.890575,121.45964,2.0557092e-08
C1I201,中心崙,2023-05-13,23.728722,120.712097,1.3483797e-09
C1I400,凌霄,2023-05-13,24.018778,121.004456,4.03964e-09
C1M640,十字,2023-05-13,23.492153,120.753683,7.136242e-09
G2P820,農試鳳山分所,2023-05-13,22.646611,120.356083,0.069146164
C0Z270,蕃薯寮,2023-05-13,23.73835,121.540108,6.61763e-09
C0F9Q0,外埔,2023-05-13,24.347817,120.705686,8.027115e-06
C0K580,高鐵雲林,2023-05-13,23.737456,120.417944,4.3461174e-07
C2I090,鳳凰,2023-05-13,23.728081,120.787347,1.4717735e-09
C0U990,員山,2023-05-13,24.74435,121.72247,0.00069035
C0V770,大社,2023-05-13,22.730306,120.346639,0.113547556
C0X120,麻豆,2023-05-13,23.183289,120.248611,0.99385846
C0C670,龍潭,2023-05-13,24.870056,121.221389,4.1060878e-07
C0D680,香山濕地,2023-05-13,24.783581,120.914988,0.00021070859
C0S980,勝林山,2023-05-13,22.430439,120.8938,1.0998026e-08
C0V730,大寮,2023-05-13,22.605614,120.395717,0.006439256
C0R570,麟洛,2023-05-13,22.65078,120.52719,6.9667316e-05
CAG100,王功漁港,2023-05-13,23.96824,120.32586,0.0007727194
C0X290,北門,2023-05-13,23.267772,120.125481,0.5334165
C2F930,大甲,2023-05-13,24.347667,120.640403,0.0004405517
C0D650,湖口,2023-05-13,24.904794,121.043628,3.2983024e-07
C0E420,竹南,2023-05-13,24.708978,120.888897,2.1229735e-06
C0U780,五結,2023-05-13,24.68637,121.79794,0.0008924089
C1I250,鯉潭,2023-05-13,23.961922,120.991131,2.0226922e-08
C0R130,阿禮,2023-05-13,22.742908,120.743678,5.213471e-10
C0X100,臺南市北區,2023-05-13,23.010394,120.194228,0.008262852
C0S920,金峰嘉蘭,2023-05-13,22.594789,120.960825,0.0024474452
C0V490,新興,2023-05-13,22.627422,120.298803,0.0076974137
C0F9K0,大安,2023-05-13,24.345061,120.588025,0.0056879213
72N100,臺南農改,2023-05-13,23.0605,120.342194,0.988902
467290,古坑,2023-05-13,23.633639,120.551889,5.088391e-05
C0V440,鳳山,2023-05-13,22.646653,120.356122,0.069146164
C1T940,大觀,2023-05-13,23.714206,121.373133,4.5405555e-09
72T250,花蓮農改,2023-05-13,23.975222,121.563889,0.0054730447
C0E740,造橋,2023-05-13,24.637056,120.864778,0.00019030587
C0R100,尾寮山,2023-05-13,22.833111,120.683889,5.583559e-10
A2K630,臺大雲林校區,2023-05-13,23.730628,120.423903,4.3467557e-07
C0D580,寶山,2023-05-13,24.735006,121.025192,5.7228254e-07
E2P990,林試扇平站,2023-05-13,22.9677,120.6857,1.2235788e-08
C0AI30,三重,2023-05-13,25.057328,121.500629,7.248811e-07
C0AH00,汐止,2023-05-13,25.066881,121.658778,6.3126504e-07
C1Z040,立山,2023-05-13,23.443356,121.327375,1.6500769e-08
C0R740,獅子,2023-05-13,22.201569,120.70525,0.102783486
C0W130,花嶼,2023-05-13,23.40007,119.32276,0.9997876
C0A950,鼻頭角,2023-05-13,25.129036,121.923372,0.926439
C0K470,林內,2023-05-13,23.748675,120.609642,0.0004386762
82C160,茶改場,2023-05-13,24.908472,121.185333,1.0369044e-07
C0Z320,清水林道,2023-05-13,23.27125,121.188272,2.5854139e-09
C0R760,南仁湖,2023-05-13,22.084681,120.863353,0.016221939
C0M670,大林,2023-05-13,23.600616,120.45841,6.0865955e-06
C0M800,茶山,2023-05-13,23.299075,120.664767,3.5733315e-08
C0A9C0,天母,2023-05-13,25.117494,121.537169,3.2012144e-07
72K220,南改斗南分場,2023-05-13,23.634556,120.477333,8.392849e-08
72AI40,桃改樹林分場,2023-05-13,24.944503,121.386972,0.00010225812
C0S910,蘭嶼燈塔,2023-05-13,22.081197,121.503117,0.9654546
C0B050,八斗子,2023-05-13,25.144754,121.79167,0.034524534
C0U900,內城,2023-05-13,24.71813,121.68766,0.00028321295
C0X320,柳營,2023-05-13,23.253328,120.375253,0.98430085
C0M790,新港,2023-05-13,23.553269,120.345728,1.0036103e-05
C0F9T0,西屯,2023-05-13,24.179494,120.641275,9.237119e-08
C0SA30,都歷,2023-05-13,23.020333,121.323642,2.3951976e-09
C0C620,蘆竹,2023-05-13,25.084275,121.265767,1.0454895e-07
C0R730,大坪頂,2023-05-13,22.024633,120.69355,0.96500754
C0AJ40,石門,2023-05-13,25.273672,121.601198,0.0010026032
C0E750,苗栗,2023-05-13,24.564569,120.824575,0.00067975966
C0T870,鯉魚潭,2023-05-13,23.935639,121.508944,5.6124897e-08
C1V170,排雲,2023-05-13,23.463619,120.954147,1.1513791e-08
C2H950,中寮,2023-05-13,23.884447,120.766406,6.166836e-07
C0R350,貓鼻頭,2023-05-13,21.921774,120.7358,0.104411334
C0V660,岡山,2023-05-13,22.797078,120.294958,0.08661497
C1H941,雙冬,2023-05-13,23.967378,120.802189,5.1381113e-09
C0AJ70,田寮,2023-05-13,25.2698,121.4886,0.7709117
C0AI00,五股,2023-05-13,25.07445,121.42728,1.3841475e-08
C0Z280,德武,2023-05-13,23.47426,121.41071,1.2626428e-09
C0R700,枋山,2023-05-13,22.246844,120.661086,0.41060165
C0C460,復興,2023-05-13,24.820208,121.352281,2.4019377e-08
E2H360,蓮華池,2023-05-13,23.918333,120.885278,3.6067997e-09
C0M640,中埔,2023-05-13,23.42538,120.5229,0.008557781
C0W140,金沙,2023-05-13,24.488292,118.408778,0.2403658
C2A540,四堵,2023-05-13,24.8926,121.745736,1.431332e-07
C0ACA0,新莊,2023-05-13,25.051478,121.446756,2.0153759e-07
C0R220,潮州,2023-05-13,22.534361,120.54,0.04342448
U2HA40,臺大內茅埔,2023-05-13,23.689722,120.851117,1.307915e-08
467490,臺中,2023-05-13,24.145736,120.684075,1.1865036e-05
C0U960,翠峰湖,2023-05-13,24.510856,121.608044,6.153398e-09
E2HA20,林試畢祿溪站,2023-05-13,24.226944,121.308522,6.805619e-09
C0V890,前鎮,2023-05-13,22.5718,120.3117,0.008262669
467620,蘭嶼,2023-05-13,22.036969,121.558339,0.9987175
C1F941,雪嶺,2023-05-13,24.280586,121.026642,1.1915631e-08
C0AC80,文山,2023-05-13,25.00235,121.575728,5.010213e-06
C0F9R0,龍井,2023-05-13,24.184536,120.528972,1.19778515e-05
C0M760,民雄,2023-05-13,23.551754,120.428457,7.745871e-06
C0UA40,西德山,2023-05-13,24.560647,121.752608,4.6926654e-09
C1T920,中興,2023-05-13,23.769503,121.498653,1.0258837e-08
C0D550,雪霸,2023-05-13,24.526972,121.11605,2.8332028e-09
C2F860,梨山,2023-05-13,24.247522,121.243669,7.0258728e-09
C0R320,車城,2023-05-13,22.0744,120.716247,0.720884
C1S870,南美山,2023-05-13,23.15025,121.382333,3.0229548e-09
C0B020,基隆嶼,2023-05-13,25.19141,121.78391,0.9875965
C1U501,牛鬥,2023-05-13,24.637836,121.573656,1.3257121e-08
C0M730,嘉義市東區,2023-05-13,23.457673,120.460531,0.56407356
C0S700,知本,2023-05-13,22.684866,121.005642,8.888586e-09
C1N001,沙崙,2023-05-13,22.935472,120.309406,0.896311
C0V760,橋頭,2023-05-13,22.757806,120.30575,0.14759244
C0G960,福寶,2023-05-13,24.0443,120.3814,1.7302646e-05
C0X210,白河,2023-05-13,23.347466,120.414427,0.7576901
C0S810,東河,2023-05-13,22.972672,121.303986,0.00040837197
C0R670,楓港,2023-05-13,22.190131,120.692156,0.3302587
C0FA50,霧峰,2023-05-13,24.0419,120.6995,6.5755216e-08
C0UB10,蘇澳,2023-05-13,24.5969,121.8571,2.0673362e-08
C0G950,防潮門,2023-05-13,24.1835,120.4871,1.1977269e-05
C0M740,六腳,2023-05-13,23.492871,120.290625,0.00029687528
C1R250,力里,2023-05-13,22.428117,120.629228,0.036666073
C0K330,虎尾,2023-05-13,23.719183,120.442036,3.5445504e-07
C2FA00,烏石坑,2023-05-13,24.273503,120.947617,4.301692e-09
C0V620,永安,2023-05-13,22.82315,120.236856,0.08523149
C1I330,楓樹林,2023-05-13,23.986803,121.076117,3.7584704e-09
C0W200,湖西,2023-05-13,23.596314,119.67275,0.99735886
72Q010,高雄農改場,2023-05-13,22.709333,120.525889,3.7672107e-05
C0SA40,瑞和,2023-05-13,22.974361,121.156697,1.6299035e-09
C0C680,龜山,2023-05-13,25.02846,121.38656,8.200272e-09
C2V260,月眉,2023-05-13,22.971003,120.539853,9.7041175e-06
C0V450,鳳森,2023-05-13,22.545064,120.392592,3.243303e-05
C0U720,南山,2023-05-13,24.43742,121.38167,2.7391867e-09
A2N290,臺南蘭花園區,2023-05-13,23.340258,120.379661,0.10537099
C0R560,新園,2023-05-13,22.5434,120.461558,0.00017815983
C0U890,三星,2023-05-13,24.66812,121.65302,5.7539207e-08
C1V300,御油山,2023-05-13,23.001983,120.715364,3.1557867e-09
C0U600,礁溪,2023-05-13,24.817539,121.765608,0.31712154
C1T980,龍澗,2023-05-13,24.023289,121.411328,2.3858654e-08
C0D670,海天一線,2023-05-13,24.831986,120.914438,0.0006006197
C0SA00,歷坵,2023-05-13,22.520969,120.89185,1.6251704e-08
C0M710,東石,2023-05-13,23.458927,120.15385,0.00023629256
C0M780,鹿草,2023-05-13,23.41134,120.30835,0.0030545143
C0U520,雙連埤,2023-05-13,24.753033,121.641303,2.2450738e-08
C0B010,七堵,2023-05-13,25.094819,121.71713,1.5867853e-06
C0R480,長治,2023-05-13,22.693128,120.542622,0.00013511292
C1V830,國三S383K,2023-05-13,22.781967,120.426475,1.3674781e-05
12Q980,恆春工作站,2023-05-13,22.079678,120.714425,0.720884
C1O940,東山服務區,2023-05-13,23.286016,120.398472,0.93053466
C1U840,東澳嶺,2023-05-13,24.5378,121.8485,5.1919695e-09
C1D630,飛鳳山,2023-05-13,24.766464,121.119178,1.387171e-08
C0S940,石寧山,2023-05-13,23.223772,121.406639,2.2712339e-09
C0K410,北港,2023-05-13,23.573957,120.292802,3.3480756e-05
C2M620,瑞里,2023-05-13,23.545133,120.675197,3.6980414e-09
C2O950,安南,2023-05-13,23.076694,120.144861,0.0012107487
C0F0E0,南湖圈谷,2023-05-13,24.363714,121.444667,1.7180385e-08
467610,成功,2023-05-13,23.097486,121.373428,2.9429026e-07
C0G890,伸港,2023-05-13,24.148933,120.484403,3.2643982e-06
C2E540,龍溪,2023-05-13,24.606489,120.783933,0.00027581508
C1V200,梅山,2023-05-13,23.268447,120.823556,6.24338e-08
C0T9H0,加路蘭山,2023-05-13,23.682947,121.5274,3.9426764e-09
C2O930,玉井,2023-05-13,23.126042,120.46055,0.97429776
C1F911,新伯公,2023-05-13,24.221361,120.841069,1.2979344e-06
C0R490,九如,2023-05-13,22.7405,120.490503,4.0719035e-05
C0X200,左鎮,2023-05-13,23.056758,120.408522,0.98317885
C1F891,稍來,2023-05-13,24.265689,121.001142,7.071152e-09
72N240,七股研究中心,2023-05-13,23.081672,120.062894,0.0014367008
C0C700,中壢,2023-05-13,24.977661,121.256375,5.559113e-08
C0M690,水上,2023-05-13,23.419734,120.388909,0.04738748
C0V690,鼓山,2023-05-13,22.623325,120.275575,0.0076974137
C0O860,大內,2023-05-13,23.11885,120.36083,0.98886615
C0Z200,萬榮,2023-05-13,23.709219,121.420106,1.476174e-08
C0T9D0,和中,2023-05-13,24.26676,121.74103,0.2236625
C1O921,楠西,2023-05-13,23.183511,120.484083,0.7385133
C0AJ30,淡水觀海,2023-05-13,25.184591,121.408616,1.4583632e-05
C0V810,左營,2023-05-13,22.67491,120.28491,0.079882145
C0UA70,桃源谷,2023-05-13,24.962606,121.888875,2.9170353e-08
C0X130,官田,2023-05-13,23.193217,120.315422,0.9741928
C1H000,翠峰,2023-05-13,24.109397,121.205211,6.4882597e-09
C0UA90,石城,2023-05-13,24.980444,121.951214,5.836789e-06
C1E681,南勢山,2023-05-13,24.421669,120.923831,2.75092e-09
C0A9F0,內湖,2023-05-13,25.079422,121.57545,6.3126504e-07
C0K291,宜梧,2023-05-13,23.536281,120.169329,0.00024286046
C1K540,口湖,2023-05-13,23.585344,120.180517,0.0007097888
C0R780,滿州,2023-05-13,22.024403,120.839892,0.08257272
C0V870,文安,2023-05-13,22.8025,120.2164,0.10753281
C0U650,玉蘭,2023-05-13,24.675286,121.587061,1.8193687e-08
C0R640,東港,2023-05-13,22.46247,120.44074,0.0005493051
K2E360,苗栗農改,2023-05-13,24.495722,120.829111,7.058649e-07
C0AJ80,板橋,2023-05-13,25.0107,121.4489,1.795913e-05
C0S660,下馬,2023-05-13,23.150427,121.070312,3.861436e-09
C1H9B1,阿眉,2023-05-13,24.1263,120.994672,6.9973605e-09
C0UA20,多加屯,2023-05-13,24.368614,121.373189,5.835306e-09
C0E730,頭份,2023-05-13,24.688247,120.912206,2.4306835e-06
72V140,高改旗南分場,2023-05-13,22.857861,120.516667,0.00031384855
C0K480,莿桐,2023-05-13,23.761192,120.502372,3.525661e-07
C0U980,坪林石牌,2023-05-13,24.86478,121.77396,2.0202593e-08
C0T900,西林,2023-05-13,23.8119,121.441458,5.814785e-09
C1I150,青雲,2023-05-13,23.793361,120.949378,3.6411045e-09
467350,澎湖,2023-05-13,23.565503,119.563094,0.99955904
C0G800,埔鹽,2023-05-13,24.000394,120.431683,0.0001353946
C0H960,草屯,2023-05-13,23.973672,120.68085,4.0015138e-08
C1V780,多納林道,2023-05-13,22.888028,120.737917,6.332845e-10
C0E920,通霄漁港,2023-05-13,24.498589,120.673876,0.088115595
C0Z330,安通山,2023-05-13,23.290728,121.348528,9.418794e-10
C0AH10,永和,2023-05-13,25.01125,121.508111,1.795913e-05
C2G640,鹿港,2023-05-13,24.0753,120.430481,1.7302646e-05
C1E890,國三N149K,2023-05-13,24.463414,120.680019,0.0060114292
C1R110,口社,2023-05-13,22.770111,120.645222,0.037938382
C1M870,國三N285K,2023-05-13,23.550319,120.505833,0.0002774873
467050,新屋,2023-05-13,25.006744,121.047486,3.2657323e-07
C1E480,鳳美,2023-05-13,24.554803,121.034747,3.8441668e-09
C0M530,奮起湖,2023-05-13,23.493903,120.699253,3.5902583e-09
C0C590,觀音,2023-05-13,25.027072,121.153317,1.8351449e-07
C0T9M0,靜浦,2023-05-13,23.455167,121.495028,1.8567702e-09
C0AI40,石牌,2023-05-13,25.115597,121.513139,4.2082496e-07
C1F871,上谷關,2023-05-13,24.203483,121.018644,3.3130318e-09
C0G880,二水,2023-05-13,23.810742,120.6173,9.927696e-05
C0R940,加祿堂,2023-05-13,22.3363,120.6217,0.0073961527
C0W220,北竿,2023-05-13,26.220358,119.974881,2.2369677e-05
C0O960,崎頂,2023-05-13,22.959547,120.369317,0.5682891
C0S750,向陽,2023-05-13,23.248397,120.986133,4.3670676e-09
C0T9F0,水璉,2023-05-13,23.797131,121.542514,4.2171626e-09
C1M600,頭凍,2023-05-13,23.406364,120.603339,1.7103941e-08
467660,臺東,2023-05-13,22.752211,121.154586,0.0018258066
C1D380,新埔,2023-05-13,24.84745,121.03834,1.1652277e-06
C0V750,路竹,2023-05-13,22.854997,120.259439,0.00012199845
C0N050,蚵寮,2023-05-13,23.301,120.1104,0.14383684
72M700,南改鹿草分場,2023-05-13,23.416869,120.283061,0.0033768418
C1SA50,利嘉林道,2023-05-13,22.82325,121.009389,3.070618e-09
467550,玉山,2023-05-13,23.487614,120.959522,1.6007467e-08
C0A940,金山,2023-05-13,25.223628,121.643967,7.08462e-06
C1V340,大津,2023-05-13,22.888322,120.645986,0.5511188
C0W180,七美,2023-05-13,23.219333,119.444892,0.9996716
C1F9C1,白冷,2023-05-13,24.182844,120.929889,1.1429682e-08
K2E710,苗改生物防治研究中心,2023-05-13,24.422861,120.871833,2.9461992e-07
C0N040,蘆竹溝,2023-05-13,23.2344,120.0961,0.5334165
C2W230,畜試所澎湖,2023-05-13,23.628342,119.513206,0.9996936
C0R880,後壁湖,2023-05-13,21.9457,120.7457,0.14115952
C1I280,埔中,2023-05-13,23.820778,120.642594,4.8469118e-09
467790,墾丁雷達站,2023-05-13,21.948235,120.808028,0.20929828
C0W190,望安,2023-05-13,23.380564,119.494075,0.9997664
466881,新北,2023-05-13,24.9593,121.52,1.0510201e-05
C0Z170,卓溪,2023-05-13,23.3443,121.3029,7.6445095e-10
C0F850,東勢,2023-05-13,24.246428,120.833047,2.1503373e-08
466900,淡水,2023-05-13,25.164889,121.448906,9.801504e-07
C0I370,魚池,2023-05-13,23.895703,120.94135,2.27911e-09
C0C630,大溪,2023-05-13,24.882853,121.265547,1.6565751e-06
C0A520,山佳,2023-05-13,24.974944,121.402008,2.3579318e-05
C0I110,竹山,2023-05-13,23.761225,120.688156,6.438762e-06
82H840,茶改南部分場,2023-05-13,23.762528,120.7405,6.72705e-09
C0G660,溪湖,2023-05-13,23.94835,120.479122,3.2597566e-06
C1T800,洛韶,2023-05-13,24.204558,121.453956,3.7479776e-08
C1T810,慈恩,2023-05-13,24.192044,121.388386,3.0824125e-09
C1E451,象鼻,2023-05-13,24.368617,120.940228,3.3228285e-09
C0AC60,三峽,2023-05-13,24.939025,121.369728,3.6757378e-05
C0I490,萬大林道,2023-05-13,23.928228,121.091411,5.55038e-09
C1I290,豐丘,2023-05-13,23.668178,120.887417,1.4973334e-09
C1I320,奧萬大,2023-05-13,23.952956,121.178556,4.775719e-09
C0U770,南澳,2023-05-13,24.44935,121.81022,1.7804666e-08
C0A980,社子,2023-05-13,25.109508,121.469681,1.8025474e-06
C0V800,六龜,2023-05-13,22.997889,120.633583,7.071694e-08
C1G9D0,國一S218K,2023-05-13,23.890641,120.493253,1.5953813e-07
C2F9A0,中竹林,2023-05-13,24.103556,120.751061,6.740754e-09
C0FA40,臺中電廠,2023-05-13,24.2146,120.4907,1.19778515e-05
C0H9C0,合歡山,2023-05-13,24.143442,121.272547,1.3938386e-08
C0X060,下營,2023-05-13,23.22695,120.256261,0.9866615
G2M350,農試溪口農場,2023-05-13,23.58565,120.408111,8.488974e-06
C0U860,頭城,2023-05-13,24.85323,121.8308,0.3529106
C0R580,南州,2023-05-13,22.48591,120.50274,0.0005493051
C0D430,峨眉,2023-05-13,24.6905,121.017189,2.3489656e-05
C0G780,秀水,2023-05-13,24.03405,120.503869,1.0395912e-06
72N100,臺南農改場,2023-05-13,23.0605,120.342194,0.988902
C0S900,蘭嶼高中,2023-05-13,22.04909,121.51214,0.49809277
467540,大武,2023-05-13,22.355675,120.903789,0.00781739
C1F9W0,德基,2023-05-13,24.254783,121.190261,5.5800164e-09
C1Z120,壽豐,2023-05-13,23.870853,121.508081,1.4588954e-08
C0W160,烏坵,2023-05-13,24.9944,119.44956,0.29472715
C1I240,外大坪,2023-05-13,23.958697,120.917931,1.7738872e-08
C1I550,國六W023K,2023-05-13,23.979067,120.867742,8.95227e-09
C0R870,興海,2023-05-13,21.9752,120.8439,0.1700061
C0R140,瑪家,2023-05-13,22.682903,120.686639,7.3925144e-10
C0A530,坪林,2023-05-13,24.938183,121.70975,2.2141138e-07
C0X260,後壁,2023-05-13,23.366358,120.362326,0.10537099
C0Z230,和平,2023-05-13,24.30717,121.77007,0.23254701
C0G770,福興,2023-05-13,24.041289,120.437669,0.0001354274
C0H9A0,神木村,2023-05-13,23.532742,120.843667,7.1920203e-09
C0I460,南投,2023-05-13,23.911469,120.687331,1.3004856e-06
C0I480,梅峰,2023-05-13,24.085272,121.173572,5.283668e-09
C1V570,吉東,2023-05-13,22.85422,120.5454,0.00017739365
C2A560,福山,2023-05-13,24.776203,121.502811,2.9615595e-08
C0AH30,五分山,2023-05-13,25.07125,121.780794,1.9976673e-08
C0FA10,松柏,2023-05-13,24.429115,120.617482,0.041811127
72S200,東改班鳩分場,2023-05-13,22.829528,121.077694,3.1573116e-08
72HA00,中改埔里分場,2023-05-13,23.903208,120.963364,4.305263e-09
C0C650,平鎮,2023-05-13,24.897503,121.214636,1.3298991e-07
C0S930,延平,2023-05-13,22.902581,121.084058,5.6917004e-09
C0UA60,樟樹山,2023-05-13,24.41393,121.78325,3.1923303e-08
C1S670,摩天,2023-05-13,23.199503,121.027,4.486886e-09
C0V630,茄萣,2023-05-13,22.906642,120.182608,0.00017751176
466940,基隆,2023-05-13,25.133314,121.740475,0.030234972
C0X050,東河,2023-05-13,23.296598,120.385608,0.93199915
C0R770,保力,2023-05-13,22.071122,120.764111,0.8923299
G2L020,農試嘉義分所,2023-05-13,23.485028,120.473806,0.22763655
C0X240,關子嶺,2023-05-13,23.331169,120.508025,5.050607e-08
C0I380,集集,2023-05-13,23.828206,120.801467,7.38818e-08
466990,花蓮,2023-05-13,23.975128,121.613275,0.045448843
C1V220,小關山,2023-05-13,23.154217,120.813603,4.4961213e-09
C1F9G1,慶福山,2023-05-13,24.180853,120.848378,4.4457065e-09
C0Z250,瑞穗林道,2023-05-13,23.49284,121.30688,2.0326278e-08
C0D590,新豐,2023-05-13,24.87068,120.97721,5.3376975e-06
C0A870,五指山,2023-05-13,25.132153,121.608692,4.447182e-09
C0UA50,西帽山,2023-05-13,24.555361,121.802628,4.0731876e-09
C0X160,仁德,2023-05-13,22.968258,120.257689,0.89329344
C1H971,六分寮,2023-05-13,23.92507,120.6378,3.3694179e-09
C0W120,西嶼,2023-05-13,23.5626,119.468436,0.9997461
C0G650,員林,2023-05-13,23.946503,120.585597,2.390716e-06
C0AD50,鶯歌,2023-05-13,24.951533,121.346294,1.0437514e-05
C0S990,山豬窟,2023-05-13,22.318619,120.857372,1.6911616e-07
72Q010,高雄農改,2023-05-13,22.709333,120.525889,3.7672107e-05
C0X190,安平,2023-05-13,22.993161,120.152181,0.008262864
C0K400,斗六,2023-05-13,23.720583,120.541127,3.8076388e-07
12J990,口湖工作站,2023-05-13,23.589978,120.180394,0.0007090333
C0O830,北寮,2023-05-13,23.079561,120.495008,2.6609408e-07
C1D410,白蘭,2023-05-13,24.579364,121.079947,2.424347e-09
C0S970,加津林,2023-05-13,22.416211,120.926942,0.0037634985
C0D700,關西,2023-05-13,24.7977,121.1732,7.185284e-07
C0M810,里佳,2023-05-13,23.389125,120.716647,6.7618986e-09
C0U750,龜山島,2023-05-13,24.841667,121.953133,0.0001767475
C0R810,內獅,2023-05-13,22.305064,120.642986,0.0069217635
C1M390,龍美,2023-05-13,23.406728,120.654417,9.048351e-09
C1H840,國三N238K,2023-05-13,23.841008,120.707711,9.325756e-08
CAQ030,崎峰國小,2023-05-13,22.42565,120.49521,0.0005493051
C2E520,大湖,2023-05-13,24.414939,120.870872,1.16014434e-07
467530,阿里山,2023-05-13,23.508208,120.813242,8.4498675e-09
C1E691,南湖,2023-05-13,24.40135,120.837533,4.7258903e-09
C0FA30,梧棲,2023-05-13,24.256003,120.523381,0.032857824
C1V231,高中,2023-05-13,23.134911,120.716711,4.537491e-09
C0F9V0,新社,2023-05-13,24.200172,120.815806,5.133735e-08
C0H890,埔里,2023-05-13,23.972169,120.952425,5.350051e-09
C0R690,墾丁,2023-05-13,21.966756,120.810269,0.81497234
C0F0D0,審馬陣,2023-05-13,24.381675,121.4203,9.208565e-09
C0R820,白鷺,2023-05-13,22.454275,120.666219,3.7008074e-09
U2H480,臺大溪頭,2023-05-13,23.670306,120.798194,1.4930385e-09
C1V190,南天池,2023-05-13,23.27403,120.91176,4.669861e-09
K2E360,苗栗農改場,2023-05-13,24.495722,120.829111,7.058649e-07
CAJ050,海口故事園區,2023-05-13,23.57543,120.14121,0.0007097888
C0O990,媽廟,2023-05-13,22.99175,120.293525,0.98718464
C0D480,打鐵坑,2023-05-13,24.849664,121.150789,3.8555913e-07
C0Z220,和平林道,2023-05-13,24.343922,121.656317,2.3322777e-08
72C440,桃園農改場,2023-05-13,24.950944,121.030583,7.1760934e-07
C1E711,馬拉邦山,2023-05-13,24.367306,120.901656,3.1449348e-09
C0D560,竹東,2023-05-13,24.767147,121.057881,1.0490096e-06
C0F9U0,南屯,2023-05-13,24.137006,120.637969,2.0067357e-07
C0M720,番路,2023-05-13,23.464657,120.554156,0.00013945032
C0F0A0,雪山圈谷,2023-05-13,24.388594,121.236339,1.4541865e-08
C1A9N0,四十份,2023-05-13,24.934158,121.593283,1.4667523e-08
C0U760,東澳,2023-05-13,24.52196,121.83318,5.255438e-08
C0X230,鹽水,2023-05-13,23.272621,120.247641,0.10601866
C0V370,古亭坑,2023-05-13,22.893178,120.401947,0.0013953854
C1I340,新興橋,2023-05-13,23.563333,120.868728,3.8861216e-09
C0SA80,土坂,2023-05-13,22.453108,120.887572,4.1071075e-05
C0R160,鹽埔,2023-05-13,22.739558,120.530778,3.7672107e-05
C0AC40,大屯山,2023-05-13,25.175675,121.522408,1.2018138e-08
466850,五分山雷達站,2023-05-13,25.071182,121.781205,1.9649004e-08
C1AI50,國三N016K,2023-05-13,25.034164,121.619664,2.543069e-07
C1V600,藤枝,2023-05-13,23.071961,120.757042,3.4638123e-09
C1E601,南勢,2023-05-13,24.572486,120.734842,0.001095208
C0Z180,新城,2023-05-13,24.03946,121.60454,0.022129215
C0O980,新市,2023-05-13,23.061614,120.298197,0.9885869
C0K420,西螺,2023-05-13,23.800407,120.467394,4.2960448e-08
C0Z050,佳心,2023-05-13,23.34567,121.21316,3.331853e-09
C0AD30,蘆洲,2023-05-13,25.086594,121.472331,7.248811e-07
C0V610,梓官,2023-05-13,22.760558,120.267211,0.14759244
K2F750,種苗改良場,2023-05-13,24.225972,120.800917,2.3349511e-07
C0UA80,大溪漁港,2023-05-13,24.941801,121.902955,2.697833e-05
C1AI60,國一39K邊坡,2023-05-13,25.064361,121.383836,1.0452998e-08
C0W150,金寧,2023-05-13,24.457703,118.328989,0.30994216
V2C250,八德合作社,2023-05-13,24.93775,121.266389,4.4798546e-07
C0AH40,平等,2023-05-13,25.129142,121.577086,8.140336e-09
C0R540,佳冬,2023-05-13,22.419456,120.552375,0.0009965018
466950,彭佳嶼,2023-05-13,25.627975,122.079744,0.9985783
C0A890,雙溪,2023-05-13,25.036003,121.864242,0.00024383633
C0C480,桃園,2023-05-13,24.992425,121.323172,9.9679895e-08
C0AH50,林口,2023-05-13,25.072181,121.38084,6.7761263e-09
A2K360,水試臺西試驗場,2023-05-13,23.717231,120.190522,0.0040369383
B2N890,畜試所,2023-05-13,23.058972,120.336406,0.988902
C0F9S0,烏日,2023-05-13,24.107058,120.624103,4.6900593e-07
C0C490,八德,2023-05-13,24.928708,121.283289,4.2162114e-07
C0R190,赤山,2023-05-13,22.592333,120.614306,0.005804254
C0T820,天祥,2023-05-13,24.179597,121.495639,0.00022968448
C1F9E1,龍安,2023-05-13,24.1605,120.831961,7.3236937e-09
C0V820,小林,2023-05-13,23.148408,120.63325,2.6576619e-09
C2G870,芳苑,2023-05-13,23.922303,120.320025,0.00042566014
C0E850,大河,2023-05-13,24.618069,120.948578,2.0826421e-05
C1U670,寒溪,2023-05-13,24.634,121.71691,4.9438306e-08
C0N020,城西,2023-05-13,23.0568,120.0956,0.008262864
C1Z110,三棧,2023-05-13,24.11557,121.60501,1.6594545e-06
C0R280,檳榔,2023-05-13,22.076078,120.836777,0.73550546
C0F9L0,后里,2023-05-13,24.310436,120.729725,0.00026932324
C0D540,橫山,2023-05-13,24.71116,121.11693,4.3985263e-08
C1D420,太閣南,2023-05-13,24.632808,121.160575,3.3634848e-09
C1E770,公館,2023-05-13,24.526914,120.830806,2.2914242e-06
CAN130,水試所海水繁養殖中心,2023-05-13,23.120802,120.07968,0.0014367008
C1I430,翠華,2023-05-13,24.191961,121.224339,4.5326036e-09
C1M400,菜瓜坪,2023-05-13,23.251928,120.576103,5.9037526e-09
C0G730,二林,2023-05-13,23.903325,120.376081,4.5504014e-05
72M360,南改義竹分場,2023-05-13,23.360694,120.279361,0.036237013
V2K620,麥寮合作社,2023-05-13,23.753836,120.294783,3.6988047e-05
C0Z070,舞鶴,2023-05-13,23.46811,121.37407,1.1530092e-09
C0B040,大武崙,2023-05-13,25.166676,121.706993,0.004014322
C1Z030,紅葉,2023-05-13,23.493119,121.338806,2.3474775e-09
C1I050,丹大,2023-05-13,23.753747,121.141147,5.8922107e-09
C0I080,信義,2023-05-13,23.689694,120.851036,1.307915e-08
C2A880,福隆,2023-05-13,25.017842,121.942083,6.3474927e-06
C0Z160,鳳林,2023-05-13,23.746114,121.453411,1.989549e-08
C0V210,復興,2023-05-13,23.222403,120.806089,1.0169687e-06
C0H990,昆陽,2023-05-13,24.121322,121.273642,1.0759416e-08
C0S710,鹿野,2023-05-13,22.917711,121.122994,6.076569e-10
C0I530,小奇萊,2023-05-13,24.131764,121.295717,1.1400377e-08
C0Z080,富源,2023-05-13,23.587642,121.378225,2.1173951e-08
467441,高雄,2023-05-13,22.7304,120.3125,0.11279166
C1I140,卡奈托灣,2023-05-13,23.754364,121.087872,2.6073321e-09
C0I520,玉山風口,2023-05-13,23.470489,120.955994,1.8440442e-08
C1G691,下水埔,2023-05-13,23.816114,120.5676,2.3644358e-07
C0X110,臺南市南區,2023-05-13,22.961189,120.188378,0.89329344
C0V680,仁武,2023-05-13,22.701083,120.347722,0.079882145
C2G840,北斗,2023-05-13,23.877586,120.514222,1.4555357e-07
C0R900,竹坑,2023-05-13,22.1385,120.7022,0.76471436
C0K250,崙背,2023-05-13,23.75555,120.318925,3.6988047e-05
C0G860,社頭,2023-05-13,23.897647,120.5862,1.6600449e-06
C0X150,安定,2023-05-13,23.102614,120.227839,0.978821
C0R590,里港,2023-05-13,22.77919,120.49459,0.0001495321
C0E610,馬都安,2023-05-13,24.451272,120.930192,3.8558943e-09
C0E550,明德,2023-05-13,24.583486,120.885411,0.00029793943
C0R150,三地門,2023-05-13,22.709889,120.639944,0.065902606
C0G910,花壇,2023-05-13,24.032076,120.549461,6.968946e-07
C1D400,鳥嘴山,2023-05-13,24.71909,121.28387,5.259587e-09
C0K500,元長,2023-05-13,23.64981,120.315024,9.5714095e-05
C0F0B0,石岡,2023-05-13,24.276061,120.777644,9.288402e-06
C2V250,甲仙,2023-05-13,23.080106,120.591758,1.4738727e-08
C0SA20,金崙山,2023-05-13,22.567419,120.959667,4.150277e-09
C0V350,溪埔,2023-05-13,22.738578,120.446797,0.00022305897
C0M660,溪口,2023-05-13,23.604131,120.403569,8.49675e-06
C1S880,壽卡,2023-05-13,22.238911,120.858903,2.7746117e-07
72D680,桃改新埔分場,2023-05-13,24.834444,121.066111,1.3141774e-06
