站號,站名,日期,lat,lon,BLBTSLS
C0R710,龍磐,2023-11-21,21.931672,120.838942,0.7116312
C1F9D1,白毛台,2023-11-21,24.158325,120.886933,1.7145807e-09
C0G940,竹塘,2023-11-21,23.848253,120.386764,0.9996905
467590,恆春,2023-11-21,22.003897,120.746339,0.25598946
C1O850,環湖,2023-11-21,23.148617,120.418633,0.999593
C0U710,太平山,2023-11-21,24.505486,121.525656,3.787719e-08
C0E820,獅潭,2023-11-21,24.539133,120.920042,3.492418e-09
C0V880,興達,2023-11-21,22.8778,120.2127,0.99969476
C0S890,關山,2023-11-21,23.0395,121.175017,0.9939925
K2F750,種苗繁殖,2023-11-21,24.225972,120.800917,3.0824183e-09
C1Z130,銅門,2023-11-21,23.965694,121.492842,2.2613447e-08
C0AD40,土城,2023-11-21,24.973208,121.445169,0.4696512
CAN140,六官養殖協會,2023-11-21,23.22881,120.29962,0.9995576
C0X180,山上,2023-11-21,23.0757,120.363253,0.9996128
C0F9Z0,雪山東峰,2023-11-21,24.388792,121.268675,1.7545121e-08
C1M480,獨立山,2023-11-21,23.537022,120.607797,9.0947866e-10
C0X220,學甲,2023-11-21,23.230367,120.182187,0.99982804
C0R170,屏東,2023-11-21,22.660269,120.494072,7.7738713e-07
467650,日月潭,2023-11-21,23.881325,120.90805,3.6780567e-09
C0K600,箔子寮,2023-11-21,23.6197,120.14,0.99981487
C0G830,埤頭,2023-11-21,23.866003,120.452806,0.021440083
C0S950,七塊厝,2023-11-21,22.954453,121.229922,0.0004178916
467110,金門,2023-11-21,24.407306,118.289281,0.99982136
C0AH80,深坑,2023-11-21,25.002703,121.628328,0.19938089
467990,馬祖,2023-11-21,26.169269,119.923419,0.4631212
C0A970,三貂角,2023-11-21,25.007606,122.002058,0.0002543006
C0K430,褒忠,2023-11-21,23.690938,120.303634,0.99974686
467480,嘉義,2023-11-21,23.495925,120.432906,0.9997912
C2E540,後龍,2023-11-21,24.606489,120.783933,0.30204672
C0V400,阿公店,2023-11-21,22.804194,120.355528,0.9814539
C0R440,大漢山,2023-11-21,22.405264,120.753181,1.330949e-08
C0K280,四湖,2023-11-21,23.630414,120.227125,0.99977237
C1F9B1,桐林,2023-11-21,24.066172,120.735194,0.0011309496
C0K390,土庫,2023-11-21,23.679029,120.395574,0.9995869
C1I450,望鄉山,2023-11-21,23.594153,120.944286,1.1968841e-08
C0E910,海埔,2023-11-21,24.648767,120.772435,0.39023814
B2E890,畜試北區分所,2023-11-21,24.527806,120.770972,1.7120168e-06
C0R750,四林格山,2023-11-21,22.076989,120.802439,0.99401647
C0F0C0,中坑,2023-11-21,24.248517,120.903319,2.863605e-09
C1I121,大鞍,2023-11-21,23.678381,120.760017,7.3522037e-09
72U480,花改蘭陽分場,2023-11-21,24.686306,121.716583,6.401673e-08
C0A770,科教館,2023-11-21,25.096356,121.516507,0.007094547
C0AJ60,六塊厝,2023-11-21,25.24,121.4481,0.9997567
C0R620,墾雷,2023-11-21,21.900836,120.855269,0.78721064
467420,永康,2023-11-21,23.038386,120.2367,0.9995791
467300,東吉島,2023-11-21,23.25695,119.667467,0.99741775
C0I410,名間,2023-11-21,23.837053,120.701447,0.00010353266
A2C560,農工中心,2023-11-21,24.985917,121.239833,0.99750596
C0V740,旗山,2023-11-21,22.888614,120.483597,0.00032990513
C0Z061,玉里,2023-11-21,23.3215,121.339656,2.847262e-08
C0S840,南田,2023-11-21,22.279725,120.889208,0.13541049
C1I470,杉林溪,2023-11-21,23.639517,120.786444,7.9616e-09
C1X040,東原,2023-11-21,23.291597,120.463822,0.013548167
C0R660,枋寮,2023-11-21,22.367722,120.590647,0.92813253
C1R120,上德文,2023-11-21,22.763272,120.704442,2.0301973e-09
C0K450,大埤,2023-11-21,23.646074,120.431537,0.99970067
C0UA00,土場,2023-11-21,24.576533,121.495333,2.819569e-07
467080,宜蘭,2023-11-21,24.763975,121.756528,7.956867e-08
C0N030,四草,2023-11-21,23.0235,120.1116,0.99889284
C0V650,彌陀,2023-11-21,22.783806,120.246361,0.99958026
C0D660,新竹市東區,2023-11-21,24.798681,120.986942,0.68648064
82S580,茶改東部分場,2023-11-21,22.907694,121.130139,0.9287185
C0C710,大溪永福,2023-11-21,24.892936,121.324975,0.0010036144
C0FA20,溫寮,2023-11-21,24.372177,120.583125,0.99323475
C0V640,湖內,2023-11-21,22.887139,120.2445,0.999684
C0R910,下寮,2023-11-21,22.3929,120.5548,0.92813253
C0Z020,明里,2023-11-21,23.208717,121.262342,3.9624002e-08
C0M770,嘉義梅山,2023-11-21,23.585398,120.555587,0.9996239
G2F820,農業試驗所,2023-11-21,24.031261,120.688133,2.3263117e-05
C0C660,楊梅,2023-11-21,24.912375,121.143047,0.9655835
C1E511,新開,2023-11-21,24.347703,120.827019,3.6629837e-09
G2F820,農試所(霧峰),2023-11-21,24.031261,120.688133,2.3263117e-05
C1I070,和社,2023-11-21,23.591131,120.888861,2.6108715e-08
C2F000,大肚,2023-11-21,24.15295,120.572117,7.4830027e-06
C1S850,豐南,2023-11-21,23.122139,121.262389,2.0505166e-08
C2A920,富貴角,2023-11-21,25.263783,121.565258,0.9957002
CAH030,茶改場竹圍站,2023-11-21,23.860083,120.637528,1.2030219e-09
C0T960,光復,2023-11-21,23.660694,121.424964,2.6569824e-06
C0F9M0,豐原,2023-11-21,24.254322,120.720692,3.0158038e-08
C0R720,旭海,2023-11-21,22.205403,120.887614,0.6898242
C0V710,苓雅,2023-11-21,22.622742,120.330669,0.00065476436
C0C740,觀音工業區,2023-11-21,25.064764,121.114856,0.94493306
CAC040,拉拉山,2023-11-21,24.699317,121.427133,6.0902195e-08
C0V790,萬山,2023-11-21,22.905944,120.688056,3.3876026e-09
U2HA30,臺大和社,2023-11-21,23.590856,120.888864,2.6108715e-08
C0AJ90,澳底,2023-11-21,25.0552,121.9253,0.06936893
C0Z100,東華,2023-11-21,23.89525,121.549833,3.8807755e-08
C0G970,三豐,2023-11-21,23.882,120.2895,0.9188914
V2K610,大庄合作社,2023-11-21,23.8068,120.367939,0.9996938
C0V900,汕尾,2023-11-21,22.4782,120.4151,5.0379786e-05
C1R630,龍泉,2023-11-21,22.66701,120.59091,1.2621611e-05
C1AC50,關渡,2023-11-21,25.133486,121.469331,7.6662745e-06
C0F9I0,神岡,2023-11-21,24.272481,120.658314,6.023614e-07
C0K460,斗南,2023-11-21,23.678734,120.478359,0.99968565
467410,臺南,2023-11-21,22.993239,120.204772,0.99842465
C2O810,曾文,2023-11-21,23.219681,120.497328,0.9976792
467280,後龍,2023-11-21,24.648563,120.831834,0.21720333
C1F9J1,清水林,2023-11-21,24.071242,120.820419,7.2578593e-10
C2A650,火燒寮,2023-11-21,25.002719,121.742892,4.067798e-07
466930,竹子湖,2023-11-21,25.162078,121.544547,3.1008476e-08
C1I220,樟湖,2023-11-21,23.905333,120.846983,2.0702275e-09
C0I390,仁愛,2023-11-21,24.022122,121.132206,2.2154831e-09
C0Z300,東里,2023-11-21,23.26853,121.30547,8.16441e-08
C0V310,美濃,2023-11-21,22.898742,120.519153,0.0005517335
C1V590,新發,2023-11-21,23.057019,120.646064,4.708247e-09
C0K510,水林,2023-11-21,23.572924,120.24597,0.9997128
72S590,東改賓朗果園,2023-11-21,22.813889,121.071278,0.002342584
82A750,茶改北部分場,2023-11-21,24.955778,121.631222,2.939133e-07
C1A750,石碇服務區,2023-11-21,25.00872,121.646242,0.0010356797
C0X300,鹿寮,2023-11-21,23.386047,120.477331,0.9997986
G2AI50,關渡,2023-11-21,25.11575,121.492,0.99874264
C0K590,雲林東勢,2023-11-21,23.674192,120.255721,0.9997912
C0A570,桶後,2023-11-21,24.848222,121.597992,6.928107e-08
C1S800,華源,2023-11-21,22.657883,121.02325,0.0025301534
C0G720,溪州,2023-11-21,23.851589,120.499093,0.015070442
C1V160,達卡努瓦,2023-11-21,23.279811,120.705319,4.47475e-09
C2M410,馬頭山,2023-11-21,23.324361,120.582017,2.1675083e-05
C0V850,蚵仔寮,2023-11-21,22.7256,120.2527,0.6746022
C0S740,池上,2023-11-21,23.119628,121.209469,0.9987568
C1V390,尖山,2023-11-21,22.813153,120.367789,0.82873565
C0AH70,松山,2023-11-21,25.04871,121.55042,0.003504056
C0N010,鯤鯓國小,2023-11-21,23.1879,120.0889,0.9997908
C0R550,新埤,2023-11-21,22.467947,120.582894,1.738334e-05
C0SA60,知本（水試所）,2023-11-21,22.702394,121.082761,0.9193207
C0T9I0,豐濱,2023-11-21,23.583897,121.514806,7.1639016e-07
C0UB00,淡江大學蘭陽校園,2023-11-21,24.823239,121.730383,5.4078555e-08
C0T9N0,富里,2023-11-21,23.171639,121.249378,0.25013608
U2HA50,臺大竹山,2023-11-21,23.756972,120.681556,0.80243975
C0V840,鳳鼻頭,2023-11-21,22.5083,120.3591,9.6206124e-05
C0X140,西港,2023-11-21,23.125608,120.203108,0.9994597
72D080,桃改五峰分場,2023-11-21,24.612194,121.157167,4.1348063e-09
C0V530,阿蓮,2023-11-21,22.883208,120.327508,0.9994412
C1O880,關山,2023-11-21,23.173397,120.594092,1.2779145e-08
C0E791,卓蘭,2023-11-21,24.3126,120.8244,7.992029e-09
C1I030,武界,2023-11-21,23.913225,121.052483,2.115396e-09
C0R520,崁頂,2023-11-21,22.514781,120.506914,0.00018035204
C0R341,牡丹,2023-11-21,22.130036,120.792639,0.9491001
C0R930,萬丹,2023-11-21,22.5885,120.4851,0.00012619955
C0S760,紅石,2023-11-21,23.069131,121.126219,1.7412768e-08
C1M610,石磐龍,2023-11-21,23.496606,120.663506,5.055048e-09
C0UA10,鴛鴦湖,2023-11-21,24.590269,121.412228,2.831173e-08
V2C260,八德蔬果,2023-11-21,24.978508,121.281819,0.07998078
C0R800,丹路,2023-11-21,22.204481,120.750989,0.4655233
C0G920,永靖,2023-11-21,23.924703,120.547533,0.0026032967
C1A630,下盆,2023-11-21,24.771003,121.538622,3.7756156e-08
B2N890,畜產試驗所,2023-11-21,23.058972,120.336406,0.9996983
C0UA30,白嶺,2023-11-21,24.527819,121.519031,3.2461912e-08
C1V580,溪南(特生中心),2023-11-21,23.084972,120.788475,6.653993e-09
C1T970,大農,2023-11-21,23.615233,121.413331,1.5396277e-07
E2S960,林試太麻里2,2023-11-21,22.598014,120.989761,0.9711271
C0R650,竹田,2023-11-21,22.58486,120.54344,0.0018311834
C1H900,清流,2023-11-21,24.080775,120.962997,1.2938312e-09
C1C510,水尾,2023-11-21,24.940081,121.087161,0.9937787
C0F9X0,大雅(中科園區),2023-11-21,24.21528,120.62445,4.4898825e-05
C0O970,虎頭埤,2023-11-21,23.021375,120.347878,0.9991202
C0C730,中大臨海站,2023-11-21,24.966126,121.008581,0.994832
C0X250,新營,2023-11-21,23.310689,120.316681,0.9996294
C0V700,三民,2023-11-21,22.645017,120.311233,0.31362444
C0U870,大礁溪,2023-11-21,24.791042,121.675047,4.206464e-08
C0E870,高鐵苗栗,2023-11-21,24.60725,120.826094,0.30972478
A2K570,古坑花卉中心,2023-11-21,23.63353,120.55239,0.99896055
C0M860,新美,2023-11-21,23.338017,120.683169,1.8953863e-09
C1E701,八卦,2023-11-21,24.491756,120.927619,5.758628e-09
C0I420,國姓,2023-11-21,24.037803,120.855072,1.3880418e-08
C0S960,香蘭,2023-11-21,22.587569,120.993375,0.9712264
C0R260,春日,2023-11-21,22.370361,120.628306,0.08225049
72G600,臺中農改場,2023-11-21,24.003028,120.534389,0.00067318766
C0Z210,瑞穗,2023-11-21,23.5239,121.39021,3.4302874e-07
C0M820,達邦,2023-11-21,23.453994,120.749517,2.5920994e-09
C0V860,南寮,2023-11-21,22.7616,120.2339,0.6889881
C0G740,大城,2023-11-21,23.852487,120.320935,0.9309276
C0R920,塭仔,2023-11-21,22.4169,120.5197,0.9487175
C0R470,高樹,2023-11-21,22.826389,120.600806,5.6605884e-08
C0R680,佳樂水,2023-11-21,21.993578,120.861633,0.80411625
C1O870,大棟山,2023-11-21,23.31157,120.52226,1.5059199e-09
C0D360,梅花,2023-11-21,24.678347,121.208558,5.04813e-09
C0Z190,富世,2023-11-21,24.14743,121.6297,1.0997617e-06
C0AI10,屈尺,2023-11-21,24.92184,121.54475,0.0027934548
B2U990,畜試東區分所,2023-11-21,24.669039,121.832561,3.60053e-07
C0R240,來義,2023-11-21,22.527306,120.625111,2.947016e-06
C1R610,西大武山,2023-11-21,22.617719,120.7322,1.7066565e-08
C0G900,線西,2023-11-21,24.143358,120.443536,0.9996815
C0M700,竹崎,2023-11-21,23.526178,120.555508,0.9997605
C2E880,三義,2023-11-21,24.405478,120.749819,1.3406095e-09
C0C720,竹圍,2023-11-21,25.112692,121.239824,0.9986016
C0F9P0,清水,2023-11-21,24.312297,120.562242,0.9910778
C0Z150,吉安光華,2023-11-21,23.930925,121.595153,1.4850507e-07
C1D640,外坪(五指山),2023-11-21,24.644447,121.090961,3.6759598e-09
C0F9O0,潭子,2023-11-21,24.213106,120.703933,2.0733048e-06
72T250,花蓮農改場,2023-11-21,23.975222,121.563889,6.0343314e-07
C0E780,銅鑼,2023-11-21,24.489681,120.790853,1.2382635e-07
C1T950,太安,2023-11-21,23.666719,121.370128,3.997806e-08
C0E830,苑裡,2023-11-21,24.439714,120.653053,0.91274273
467270,田中,2023-11-21,23.873803,120.581286,0.026402706
C0SA10,檳榔四格山,2023-11-21,22.810031,121.109308,1.3922284e-05
C1T830,布洛灣,2023-11-21,24.17184,121.57127,2.9405392e-06
C0F970,大坑,2023-11-21,24.173142,120.722289,0.009623418
C1U920,思源,2023-11-21,24.393125,121.347214,2.2038181e-08
C0A931,三和,2023-11-21,25.233153,121.595236,0.0001989734
C0I010,廬山,2023-11-21,24.033311,121.181808,3.1578942e-09
C0R860,鼻頭,2023-11-21,22.1043,120.8979,0.45271778
C0UB20,壯圍,2023-11-21,24.7359,121.8163,7.8409364e-08
C0R790,九棚,2023-11-21,22.14195,120.889281,0.8998287
C0W110,東莒,2023-11-21,25.9652,119.98069,0.20682597
C1U930,粉鳥林,2023-11-21,24.497088,121.842479,1.3643051e-05
C1I211,蘆竹湳,2023-11-21,23.934019,120.811994,1.0800183e-09
C0S830,長濱,2023-11-21,23.286817,121.411975,1.2269886e-08
C1F9F1,伯公龍,2023-11-21,24.272392,120.849047,1.8595594e-09
C0E810,西湖,2023-11-21,24.562947,120.7485,0.734886
C1I440,新高口,2023-11-21,23.478744,120.878939,6.289069e-09
C0O840,王爺宮,2023-11-21,23.222064,120.40085,0.9997747
C0T9G0,鳳林山,2023-11-21,23.735269,121.420131,5.082408e-09
C0X080,佳里,2023-11-21,23.173039,120.145086,0.9997908
C0Z310,清水斷崖,2023-11-21,24.218294,121.689142,1.35598865e-08
C0M680,太保,2023-11-21,23.455062,120.331455,0.999786
C1S820,金峰,2023-11-21,22.590969,120.933236,0.0029521063
C0AD10,八里,2023-11-21,25.150211,121.403947,0.9986016
C2K240,草嶺,2023-11-21,23.59555,120.693461,5.4997757e-09
C1SA70,都蘭,2023-11-21,22.87794,121.226881,0.997532
C0K440,二崙,2023-11-21,23.772797,120.408944,0.4029221
C1A760,坪林交控,2023-11-21,24.94284,121.713442,4.820978e-06
C0F9N0,大里,2023-11-21,24.092464,120.701378,0.014608537
C0SA90,達仁林場,2023-11-21,22.264347,120.823972,0.99516845
C1R290,石門山,2023-11-21,22.112611,120.756597,0.9701245
42HA10,萬大發電廠,2023-11-21,23.978875,121.139639,1.5495619e-09
C0R890,山海,2023-11-21,21.9878,120.7091,0.91301227
C0T9A0,月眉山,2023-11-21,23.809928,121.539828,4.7672275e-09
C0AC70,信義,2023-11-21,25.037822,121.564597,0.003504056
C0K560,棋山,2023-11-21,23.68645,120.603417,0.99859476
C1Z240,中平林道,2023-11-21,23.42115,121.26763,8.928486e-08
U2H480,溪頭,2023-11-21,23.670306,120.798194,4.3420094e-09
C0M880,好美里,2023-11-21,23.3364,120.138,0.9997593
C0T9E0,大坑,2023-11-21,23.880628,121.581981,5.381686e-09
C0K530,臺西,2023-11-21,23.701547,120.197559,0.9997765
C1E900,國一N128K,2023-11-21,24.560997,120.844186,4.1686526e-05
C0AJ50,水湳洞,2023-11-21,25.123695,121.862238,0.76112723
C0AI20,白沙灣,2023-11-21,25.283128,121.519058,0.9997489
C0A860,大坪,2023-11-21,25.165914,121.632969,7.174801e-08
C1U850,觀音海岸,2023-11-21,24.38319,121.77856,1.4589288e-08
C0U950,鶯子嶺,2023-11-21,24.89754,121.79244,3.8313953e-08
C0O900,善化,2023-11-21,23.112883,120.297219,0.999702
C0K550,蔦松,2023-11-21,23.514319,120.229736,0.99954283
E2P980,林試六龜中心,2023-11-21,22.991703,120.645722,7.637081e-09
C0E590,通霄,2023-11-21,24.471892,120.704622,0.71497554
C1I310,西巒,2023-11-21,23.754486,120.883956,5.2553353e-09
C0A550,泰平,2023-11-21,24.971197,121.823711,2.0134163e-07
C0I360,水里,2023-11-21,23.812553,120.849792,1.6053812e-09
C0R830,高士,2023-11-21,22.121825,120.836781,0.97866577
C1I101,溪頭,2023-11-21,23.661789,120.807647,7.2192874e-09
C0AJ20,野柳,2023-11-21,25.20703,121.690021,0.38695988
C0B060,暖暖,2023-11-21,25.0957,121.7403,7.308613e-05
C1H920,長豐,2023-11-21,24.102039,120.879897,1.2062179e-09
C0V360,內門,2023-11-21,22.975481,120.466769,0.0018944173
C0R850,林邊,2023-11-21,22.4634,120.5339,3.6201745e-05
C0E930,龍鳳,2023-11-21,24.700034,120.859125,0.9833932
C0U910,冬山,2023-11-21,24.63373,121.7937,3.60053e-07
C1E721,泰安,2023-11-21,24.489017,120.968036,6.961046e-09
82H320,茶改中部分場,2023-11-21,23.875611,120.913583,4.227213e-09
C0M750,布袋,2023-11-21,23.380878,120.167789,0.9996748
C1S860,利嘉,2023-11-21,22.809417,121.050528,5.7644e-08
72C440,桃園農改,2023-11-21,24.950944,121.030583,0.98682445
E2S980,林試太麻里1,2023-11-21,22.598922,120.980044,0.7854367
C0X170,關廟,2023-11-21,22.963017,120.327797,0.9992008
C0V720,林園,2023-11-21,22.507747,120.394511,6.0945476e-05
C1I510,線浸林道,2023-11-21,23.761508,120.832956,4.3675175e-09
C0D690,外湖,2023-11-21,24.917735,120.968711,0.9729691
C0C750,新興坑尾,2023-11-21,25.0061,121.0971,0.9982703
B2Q810,畜試南區分所,2023-11-21,21.945583,120.802167,0.812849
C0S790,金崙,2023-11-21,22.538122,120.966875,0.9299593
C0AH90,福山植物園,2023-11-21,24.760717,121.58135,9.2568015e-08
C0I540,奇萊稜線,2023-11-21,24.109231,121.326456,2.3957059e-08
C0M850,表湖,2023-11-21,23.24186,120.64166,5.2139804e-09
C0S770,大溪山,2023-11-21,22.478475,120.943325,0.99973863
C0AG80,中和,2023-11-21,24.991622,121.491792,0.4696512
C0T790,大禹嶺,2023-11-21,24.186117,121.316086,1.194772e-08
C0T9B0,水源,2023-11-21,23.991861,121.537169,8.98688e-09
C0R840,牡丹池山,2023-11-21,22.168389,120.841225,0.98264605
C1I131,桶頭,2023-11-21,23.641944,120.654117,0.013636194
CAL110,布袋國中,2023-11-21,23.35893,120.18026,0.9996748
467571,新竹,2023-11-21,24.827853,121.014219,0.8340356
C0Z290,赤柯山,2023-11-21,23.36893,121.38293,1.6368954e-08
C0X280,將軍,2023-11-21,23.214999,120.13577,0.99982214
C0S690,太麻里,2023-11-21,22.60902,120.98533,7.990341e-08
C0U880,北關,2023-11-21,24.9072,121.8734,0.008138604
C1H860,瑞岩,2023-11-21,24.123772,121.18345,6.684497e-09
C0G810,埔心,2023-11-21,23.947633,120.525456,0.0026032967
C0U970,大福,2023-11-21,24.80064,121.81389,8.828641e-08
C1E670,南礦,2023-11-21,24.538278,121.002836,6.801921e-09
C0M520,東後寮,2023-11-21,23.369908,120.248065,0.99968433
C1E461,松安,2023-11-21,24.397972,120.986022,6.574001e-09
72G600,臺中農改,2023-11-21,24.003028,120.534389,0.00067318766
C2N160,西拉雅風管處,2023-11-21,23.189481,120.335297,0.9997473
C0A640,石碇,2023-11-21,24.993969,121.662917,2.1154653e-06
E2S960,林試太麻里2,2023-11-21,22.598,120.99775,0.97410655
C0F9Y0,桃山,2023-11-21,24.432739,121.303808,1.8537138e-08
C1I020,萬大,2023-11-21,23.979817,121.132261,2.2202167e-09
C0U940,羅東,2023-11-21,24.68184,121.74934,6.901992e-08
C0M650,朴子,2023-11-21,23.43463,120.23902,0.9997322
C1I500,大尖山,2023-11-21,23.858572,120.994889,6.1512853e-09
C0G820,田尾,2023-11-21,23.901669,120.509389,0.0026032967
E2K600,四湖植物園,2023-11-21,23.676986,120.163433,0.99977237
C0S730,綠島,2023-11-21,22.6672,121.47533,0.016052486
12Q970,東港工作站,2023-11-21,22.479997,120.466058,5.049681e-05
C0E430,南庄,2023-11-21,24.601775,121.000214,3.3622212e-09
C1TA00,太魯閣,2023-11-21,24.15773,121.6236,4.2331249e-07
466920,臺北,2023-11-21,25.037658,121.514853,0.003504056
C0R600,舊泰武,2023-11-21,22.588194,120.664944,2.2736437e-09
C1I260,北坑,2023-11-21,23.9246,121.006903,1.0105083e-09
466910,鞍部,2023-11-21,25.182586,121.529731,6.955488e-08
C1I230,九份二山,2023-11-21,23.961944,120.845,2.3276683e-09
C2A660,瑞芳,2023-11-21,25.113169,121.801147,0.25565407
C0R270,琉球嶼,2023-11-21,22.332244,120.362236,9.599632e-07
C1T990,高寮,2023-11-21,23.394239,121.356808,2.8427635e-08
C0G620,芬園,2023-11-21,24.015678,120.6213,6.0055277e-06
C1Z140,荖溪,2023-11-21,23.890575,121.45964,5.166692e-08
C1I201,中心崙,2023-11-21,23.728722,120.712097,7.0036055e-10
C1I400,凌霄,2023-11-21,24.018778,121.004456,2.7728024e-09
C1M640,十字,2023-11-21,23.492153,120.753683,7.322967e-09
G2P820,農試鳳山分所,2023-11-21,22.646611,120.356083,0.1745707
C0Z270,蕃薯寮,2023-11-21,23.73835,121.540108,6.5775505e-09
C0F9Q0,外埔,2023-11-21,24.347817,120.705686,1.00719944e-07
C0K580,高鐵雲林,2023-11-21,23.737456,120.417944,0.9850016
C2I090,鳳凰,2023-11-21,23.728081,120.787347,1.6450542e-09
C0U990,員山,2023-11-21,24.74435,121.72247,7.249067e-08
C0V770,大社,2023-11-21,22.730306,120.346639,0.44957644
C0X120,麻豆,2023-11-21,23.183289,120.248611,0.99957776
C0C670,龍潭,2023-11-21,24.870056,121.221389,0.0041717594
C0D680,香山濕地,2023-11-21,24.783581,120.914988,0.64576477
C0S980,勝林山,2023-11-21,22.430439,120.8938,5.9597704e-07
C0V730,大寮,2023-11-21,22.605614,120.395717,0.00041286185
C0R570,麟洛,2023-11-21,22.65078,120.52719,7.760168e-07
CAG100,王功漁港,2023-11-21,23.96824,120.32586,0.6513159
C0X290,北門,2023-11-21,23.267772,120.125481,0.99982214
C2F930,大甲,2023-11-21,24.347667,120.640403,0.9966639
C0D650,湖口,2023-11-21,24.904794,121.043628,0.9929369
C0E420,竹南,2023-11-21,24.708978,120.888897,0.98583335
C0U780,五結,2023-11-21,24.68637,121.79794,7.8409364e-08
C1I250,鯉潭,2023-11-21,23.961922,120.991131,2.8102538e-09
C0R130,阿禮,2023-11-21,22.742908,120.743678,1.9086859e-09
C0X100,臺南市北區,2023-11-21,23.010394,120.194228,0.9987623
C0S920,金峰嘉蘭,2023-11-21,22.594789,120.960825,0.7074237
C0V490,新興,2023-11-21,22.627422,120.298803,0.0006540988
C0F9K0,大安,2023-11-21,24.345061,120.588025,0.99467397
72N100,臺南農改,2023-11-21,23.0605,120.342194,0.9996983
467290,古坑,2023-11-21,23.633639,120.551889,0.99896055
C0V440,鳳山,2023-11-21,22.646653,120.356122,0.1745707
C1T940,大觀,2023-11-21,23.714206,121.373133,5.253892e-09
72T250,花蓮農改,2023-11-21,23.975222,121.563889,6.0343314e-07
C0E740,造橋,2023-11-21,24.637056,120.864778,0.30972478
C0R100,尾寮山,2023-11-21,22.833111,120.683889,1.8792308e-09
A2K630,臺大雲林校區,2023-11-21,23.730628,120.423903,0.9850016
C0D580,寶山,2023-11-21,24.735006,121.025192,2.4182597e-07
E2P990,林試扇平站,2023-11-21,22.9677,120.6857,1.2235579e-08
C0AI30,三重,2023-11-21,25.057328,121.500629,0.007094547
C0AH00,汐止,2023-11-21,25.066881,121.658778,0.003504056
C1Z040,立山,2023-11-21,23.443356,121.327375,3.152648e-08
C0R740,獅子,2023-11-21,22.201569,120.70525,0.30946878
C0W130,花嶼,2023-11-21,23.40007,119.32276,0.9954087
C0A950,鼻頭角,2023-11-21,25.129036,121.923372,0.9712408
C0K470,林內,2023-11-21,23.748675,120.609642,0.99326146
82C160,茶改場,2023-11-21,24.908472,121.185333,0.3984289
C0Z320,清水林道,2023-11-21,23.27125,121.188272,2.5316973e-08
C0R760,南仁湖,2023-11-21,22.084681,120.863353,0.9701245
C0M670,大林,2023-11-21,23.600616,120.45841,0.9997859
C0M800,茶山,2023-11-21,23.299075,120.664767,3.2141154e-09
C0A9C0,天母,2023-11-21,25.117494,121.537169,0.00031312468
72K220,南改斗南分場,2023-11-21,23.634556,120.477333,0.99968565
72AI40,桃改樹林分場,2023-11-21,24.944503,121.386972,0.99054265
C0S910,蘭嶼燈塔,2023-11-21,22.081197,121.503117,0.027275378
C0B050,八斗子,2023-11-21,25.144754,121.79167,0.8782607
C0U900,內城,2023-11-21,24.71813,121.68766,5.7012976e-08
C0X320,柳營,2023-11-21,23.253328,120.375253,0.9997755
C0M790,新港,2023-11-21,23.553269,120.345728,0.9997822
C0F9T0,西屯,2023-11-21,24.179494,120.641275,0.0025127947
C0SA30,都歷,2023-11-21,23.020333,121.323642,0.99963284
C0C620,蘆竹,2023-11-21,25.084275,121.265767,0.9991505
C0R730,大坪頂,2023-11-21,22.024633,120.69355,0.15148522
C0AJ40,石門,2023-11-21,25.273672,121.601198,0.9992379
C0E750,苗栗,2023-11-21,24.564569,120.824575,8.243668e-05
C0T870,鯉魚潭,2023-11-21,23.935639,121.508944,2.9030371e-08
C1V170,排雲,2023-11-21,23.463619,120.954147,1.5325618e-08
C2H950,中寮,2023-11-21,23.884447,120.766406,2.4878744e-05
C0R350,貓鼻頭,2023-11-21,21.921774,120.7358,0.93161637
C0V660,岡山,2023-11-21,22.797078,120.294958,0.99958026
C1H941,雙冬,2023-11-21,23.967378,120.802189,9.882811e-10
C0AJ70,田寮,2023-11-21,25.2698,121.4886,0.99975127
C0AI00,五股,2023-11-21,25.07445,121.42728,0.0015854314
C0Z280,德武,2023-11-21,23.47426,121.41071,1.0906238e-08
C0R700,枋山,2023-11-21,22.246844,120.661086,0.9518339
C0C460,復興,2023-11-21,24.820208,121.352281,1.0135866e-06
E2H360,蓮華池,2023-11-21,23.918333,120.885278,9.276713e-10
C0M640,中埔,2023-11-21,23.42538,120.5229,0.99976385
C0W140,金沙,2023-11-21,24.488292,118.408778,0.9817885
C2A540,四堵,2023-11-21,24.8926,121.745736,3.3337338e-07
C0ACA0,新莊,2023-11-21,25.051478,121.446756,0.032018576
C0R220,潮州,2023-11-21,22.534361,120.54,0.00011432139
U2HA40,臺大內茅埔,2023-11-21,23.689722,120.851117,7.874986e-09
467490,臺中,2023-11-21,24.145736,120.684075,0.09847256
C0U960,翠峰湖,2023-11-21,24.510856,121.608044,3.2151842e-08
E2HA20,林試畢祿溪站,2023-11-21,24.226944,121.308522,1.0427429e-08
C0V890,前鎮,2023-11-21,22.5718,120.3117,0.0008311028
467620,蘭嶼,2023-11-21,22.036969,121.558339,0.0075976253
C1F941,雪嶺,2023-11-21,24.280586,121.026642,1.565671e-08
C0AC80,文山,2023-11-21,25.00235,121.575728,0.19956887
C0F9R0,龍井,2023-11-21,24.184536,120.528972,0.9984286
C0M760,民雄,2023-11-21,23.551754,120.428457,0.99978787
C0UA40,西德山,2023-11-21,24.560647,121.752608,4.7402374e-08
C1T920,中興,2023-11-21,23.769503,121.498653,1.8323236e-08
C0D550,雪霸,2023-11-21,24.526972,121.11605,8.842575e-09
C2F860,梨山,2023-11-21,24.247522,121.243669,1.0687563e-08
C0R320,車城,2023-11-21,22.0744,120.716247,0.23703378
C1S870,南美山,2023-11-21,23.15025,121.382333,0.3154064
C0B020,基隆嶼,2023-11-21,25.19141,121.78391,0.99132144
C1U501,牛鬥,2023-11-21,24.637836,121.573656,8.925557e-08
C0M730,嘉義市東區,2023-11-21,23.457673,120.460531,0.9997908
C0S700,知本,2023-11-21,22.684866,121.005642,7.0594716e-08
C1N001,沙崙,2023-11-21,22.935472,120.309406,0.9992432
C0V760,橋頭,2023-11-21,22.757806,120.30575,0.605124
C0G960,福寶,2023-11-21,24.0443,120.3814,0.99969137
C0X210,白河,2023-11-21,23.347466,120.414427,0.99980456
C0S810,東河,2023-11-21,22.972672,121.303986,0.5961509
C0R670,楓港,2023-11-21,22.190131,120.692156,0.11713356
C0FA50,霧峰,2023-11-21,24.0419,120.6995,1.6427839e-05
C0UB10,蘇澳,2023-11-21,24.5969,121.8571,1.7414714e-06
C0G950,防潮門,2023-11-21,24.1835,120.4871,0.9984286
C0M740,六腳,2023-11-21,23.492871,120.290625,0.99978757
C1R250,力里,2023-11-21,22.428117,120.629228,7.625402e-07
C0K330,虎尾,2023-11-21,23.719183,120.442036,0.97920066
C2FA00,烏石坑,2023-11-21,24.273503,120.947617,3.796563e-09
C0V620,永安,2023-11-21,22.82315,120.236856,0.99958026
C1I330,楓樹林,2023-11-21,23.986803,121.076117,2.3884004e-09
C0W200,湖西,2023-11-21,23.596314,119.67275,0.99549776
72Q010,高雄農改場,2023-11-21,22.709333,120.525889,2.2768067e-07
C0SA40,瑞和,2023-11-21,22.974361,121.156697,0.9982063
C0C680,龜山,2023-11-21,25.02846,121.38656,1.707693e-05
C2V260,月眉,2023-11-21,22.971003,120.539853,8.682313e-06
C0V450,鳳森,2023-11-21,22.545064,120.392592,3.1791285e-06
C0U720,南山,2023-11-21,24.43742,121.38167,4.7242434e-08
A2N290,臺南蘭花園區,2023-11-21,23.340258,120.379661,0.9997474
C0R560,新園,2023-11-21,22.5434,120.461558,6.0945476e-05
C0U890,三星,2023-11-21,24.66812,121.65302,2.5680276e-07
C1V300,御油山,2023-11-21,23.001983,120.715364,7.094902e-09
C0U600,礁溪,2023-11-21,24.817539,121.765608,2.7733997e-06
C1T980,龍澗,2023-11-21,24.023289,121.411328,5.0108728e-08
C0D670,海天一線,2023-11-21,24.831986,120.914438,0.24248199
C0SA00,歷坵,2023-11-21,22.520969,120.89185,3.4528066e-06
C0M710,東石,2023-11-21,23.458927,120.15385,0.9988318
C0M780,鹿草,2023-11-21,23.41134,120.30835,0.9997373
C0U520,雙連埤,2023-11-21,24.753033,121.641303,4.17357e-08
C0B010,七堵,2023-11-21,25.094819,121.71713,0.0019425119
C0R480,長治,2023-11-21,22.693128,120.542622,2.0579904e-05
C1V830,國三S383K,2023-11-21,22.781967,120.426475,3.38368e-06
12Q980,恆春工作站,2023-11-21,22.079678,120.714425,0.23703378
C1O940,東山服務區,2023-11-21,23.286016,120.398472,0.9997848
C1U840,東澳嶺,2023-11-21,24.5378,121.8485,3.8200195e-08
C1D630,飛鳳山,2023-11-21,24.766464,121.119178,8.170003e-08
C0S940,石寧山,2023-11-21,23.223772,121.406639,1.5484747e-07
C0K410,北港,2023-11-21,23.573957,120.292802,0.9997273
C2M620,瑞里,2023-11-21,23.545133,120.675197,5.2428804e-09
C2O950,安南,2023-11-21,23.076694,120.144861,0.99965775
C0F0E0,南湖圈谷,2023-11-21,24.363714,121.444667,4.1983203e-08
467610,成功,2023-11-21,23.097486,121.373428,0.99207586
C0G890,伸港,2023-11-21,24.148933,120.484403,0.9996823
C2E540,龍溪,2023-11-21,24.606489,120.783933,0.30204672
C1V200,梅山,2023-11-21,23.268447,120.823556,1.0893389e-08
C0T9H0,加路蘭山,2023-11-21,23.682947,121.5274,5.1595106e-09
C2O930,玉井,2023-11-21,23.126042,120.46055,0.9996128
C1F911,新伯公,2023-11-21,24.221361,120.841069,5.8984515e-09
C0R490,九如,2023-11-21,22.7405,120.490503,3.0191853e-07
C0X200,左鎮,2023-11-21,23.056758,120.408522,0.9991607
C1F891,稍來,2023-11-21,24.265689,121.001142,1.18006e-08
72N240,七股研究中心,2023-11-21,23.081672,120.062894,0.9996264
C0C700,中壢,2023-11-21,24.977661,121.256375,0.0075761797
C0M690,水上,2023-11-21,23.419734,120.388909,0.9997883
C0V690,鼓山,2023-11-21,22.623325,120.275575,0.0006540988
C0O860,大內,2023-11-21,23.11885,120.36083,0.999702
C0Z200,萬榮,2023-11-21,23.709219,121.420106,1.136139e-08
C0T9D0,和中,2023-11-21,24.26676,121.74103,9.579518e-06
C1O921,楠西,2023-11-21,23.183511,120.484083,0.9995734
C0AJ30,淡水觀海,2023-11-21,25.184591,121.408616,0.99531585
C0V810,左營,2023-11-21,22.67491,120.28491,0.31323686
C0UA70,桃源谷,2023-11-21,24.962606,121.888875,1.1706225e-07
C0X130,官田,2023-11-21,23.193217,120.315422,0.9997468
C1H000,翠峰,2023-11-21,24.109397,121.205211,1.3835404e-08
C0UA90,石城,2023-11-21,24.980444,121.951214,0.0024531693
C1E681,南勢山,2023-11-21,24.421669,120.923831,3.4139638e-09
C0A9F0,內湖,2023-11-21,25.079422,121.57545,0.003504056
C0K291,宜梧,2023-11-21,23.536281,120.169329,0.99954295
C1K540,口湖,2023-11-21,23.585344,120.180517,0.99981487
C0R780,滿州,2023-11-21,22.024403,120.839892,0.24682677
C0V870,文安,2023-11-21,22.8025,120.2164,0.9995652
C0U650,玉蘭,2023-11-21,24.675286,121.587061,7.7050615e-08
C0R640,東港,2023-11-21,22.46247,120.44074,5.049681e-05
K2E360,苗栗農改,2023-11-21,24.495722,120.829111,6.669478e-07
C0AJ80,板橋,2023-11-21,25.0107,121.4489,0.5592892
C0S660,下馬,2023-11-21,23.150427,121.070312,1.2333378e-08
C1H9B1,阿眉,2023-11-21,24.1263,120.994672,7.890999e-09
C0UA20,多加屯,2023-11-21,24.368614,121.373189,1.0079698e-08
C0E730,頭份,2023-11-21,24.688247,120.912206,0.98500645
72V140,高改旗南分場,2023-11-21,22.857861,120.516667,0.00055173243
C0K480,莿桐,2023-11-21,23.761192,120.502372,0.9730748
C0U980,坪林石牌,2023-11-21,24.86478,121.77396,3.477358e-08
C0T900,西林,2023-11-21,23.8119,121.441458,9.44937e-09
C1I150,青雲,2023-11-21,23.793361,120.949378,8.28736e-10
467350,澎湖,2023-11-21,23.565503,119.563094,0.99682105
C0G800,埔鹽,2023-11-21,24.000394,120.431683,0.9995954
C0H960,草屯,2023-11-21,23.973672,120.68085,6.320172e-06
C1V780,多納林道,2023-11-21,22.888028,120.737917,3.3630807e-09
C0E920,通霄漁港,2023-11-21,24.498589,120.673876,0.518051
C0Z330,安通山,2023-11-21,23.290728,121.348528,4.9766578e-09
C0AH10,永和,2023-11-21,25.01125,121.508111,0.5597772
C2G640,鹿港,2023-11-21,24.0753,120.430481,0.99969137
C1E890,國三N149K,2023-11-21,24.463414,120.680019,0.9483865
C1R110,口社,2023-11-21,22.770111,120.645222,1.0998456e-06
C1M870,國三N285K,2023-11-21,23.550319,120.505833,0.9996565
467050,新屋,2023-11-21,25.006744,121.047486,0.9963277
C1E480,鳳美,2023-11-21,24.554803,121.034747,4.7895297e-09
C0M530,奮起湖,2023-11-21,23.493903,120.699253,5.5037006e-09
C0C590,觀音,2023-11-21,25.027072,121.153317,0.9862232
C0T9M0,靜浦,2023-11-21,23.455167,121.495028,5.5230313e-08
C0AI40,石牌,2023-11-21,25.115597,121.513139,0.00052214344
C1F871,上谷關,2023-11-21,24.203483,121.018644,2.9019507e-09
C0G880,二水,2023-11-21,23.810742,120.6173,0.99471265
C0R940,加祿堂,2023-11-21,22.3363,120.6217,0.20715812
C0W220,北竿,2023-11-21,26.220358,119.974881,0.47729915
C0O960,崎頂,2023-11-21,22.959547,120.369317,0.9984978
C0S750,向陽,2023-11-21,23.248397,120.986133,7.682049e-09
C0T9F0,水璉,2023-11-21,23.797131,121.542514,7.027253e-09
C1M600,頭凍,2023-11-21,23.406364,120.603339,5.4329443e-09
467660,臺東,2023-11-21,22.752211,121.154586,0.9643297
C1D380,新埔,2023-11-21,24.84745,121.03834,0.94431
C0V750,路竹,2023-11-21,22.854997,120.259439,0.9996841
C0N050,蚵寮,2023-11-21,23.301,120.1104,0.9997593
72M700,南改鹿草分場,2023-11-21,23.416869,120.283061,0.99973214
C1SA50,利嘉林道,2023-11-21,22.82325,121.009389,2.037841e-08
467550,玉山,2023-11-21,23.487614,120.959522,2.0846239e-08
C0A940,金山,2023-11-21,25.223628,121.643967,0.26087222
C1V340,大津,2023-11-21,22.888322,120.645986,7.604728e-08
C0W180,七美,2023-11-21,23.219333,119.444892,0.99593
C1F9C1,白冷,2023-11-21,24.182844,120.929889,1.3093946e-09
K2E710,苗改生物防治研究中心,2023-11-21,24.422861,120.871833,6.2024874e-09
C0N040,蘆竹溝,2023-11-21,23.2344,120.0961,0.99982214
C2W230,畜試所澎湖,2023-11-21,23.628342,119.513206,0.9978743
C0R880,後壁湖,2023-11-21,21.9457,120.7457,0.914843
C1I280,埔中,2023-11-21,23.820778,120.642594,6.928206e-10
467790,墾丁雷達站,2023-11-21,21.948235,120.808028,0.7764075
C0W190,望安,2023-11-21,23.380564,119.494075,0.9932307
466881,新北,2023-11-21,24.9593,121.52,0.4085084
C0Z170,卓溪,2023-11-21,23.3443,121.3029,1.3700663e-08
C0F850,東勢,2023-11-21,24.246428,120.833047,1.34979565e-08
466900,淡水,2023-11-21,25.164889,121.448906,0.9986386
C0I370,魚池,2023-11-21,23.895703,120.94135,6.74901e-10
C0C630,大溪,2023-11-21,24.882853,121.265547,0.62971824
C0A520,山佳,2023-11-21,24.974944,121.402008,0.8000814
C0I110,竹山,2023-11-21,23.761225,120.688156,0.78145427
82H840,茶改南部分場,2023-11-21,23.762528,120.7405,7.822839e-10
C0G660,溪湖,2023-11-21,23.94835,120.479122,0.0040359073
C1T800,洛韶,2023-11-21,24.204558,121.453956,3.621747e-08
C1T810,慈恩,2023-11-21,24.192044,121.388386,1.1406793e-08
C1E451,象鼻,2023-11-21,24.368617,120.940228,1.8849564e-09
C0AC60,三峽,2023-11-21,24.939025,121.369728,0.976772
C0I490,萬大林道,2023-11-21,23.928228,121.091411,3.4650744e-09
C1I290,豐丘,2023-11-21,23.668178,120.887417,4.453124e-09
C1I320,奧萬大,2023-11-21,23.952956,121.178556,2.5297122e-09
C0U770,南澳,2023-11-21,24.44935,121.81022,5.205497e-08
C0A980,社子,2023-11-21,25.109508,121.469681,0.9986267
C0V800,六龜,2023-11-21,22.997889,120.633583,9.423057e-09
C1G9D0,國一S218K,2023-11-21,23.890641,120.493253,0.021440083
C2F9A0,中竹林,2023-11-21,24.103556,120.751061,4.778352e-09
C0FA40,臺中電廠,2023-11-21,24.2146,120.4907,0.9984286
C0H9C0,合歡山,2023-11-21,24.143442,121.272547,1.8841126e-08
C0X060,下營,2023-11-21,23.22695,120.256261,0.9995576
G2M350,農試溪口農場,2023-11-21,23.58565,120.408111,0.9997905
C0U860,頭城,2023-11-21,24.85323,121.8308,2.9398186e-06
C0R580,南州,2023-11-21,22.48591,120.50274,5.049681e-05
C0D430,峨眉,2023-11-21,24.6905,121.017189,3.4818648e-05
C0G780,秀水,2023-11-21,24.03405,120.503869,0.00067318766
72N100,臺南農改場,2023-11-21,23.0605,120.342194,0.9996983
C0S900,蘭嶼高中,2023-11-21,22.04909,121.51214,0.18273818
467540,大武,2023-11-21,22.355675,120.903789,0.7559056
C1F9W0,德基,2023-11-21,24.254783,121.190261,9.976279e-09
C1Z120,壽豐,2023-11-21,23.870853,121.508081,3.8807755e-08
C0W160,烏坵,2023-11-21,24.9944,119.44956,0.61478597
C1I240,外大坪,2023-11-21,23.958697,120.917931,2.7024607e-09
C1I550,國六W023K,2023-11-21,23.979067,120.867742,1.0758343e-09
C0R870,興海,2023-11-21,21.9752,120.8439,0.8126571
C0R140,瑪家,2023-11-21,22.682903,120.686639,3.7011887e-09
C0A530,坪林,2023-11-21,24.938183,121.70975,7.749171e-07
C0X260,後壁,2023-11-21,23.366358,120.362326,0.9997474
C0Z230,和平,2023-11-21,24.30717,121.77007,1.3960882e-05
C0G770,福興,2023-11-21,24.041289,120.437669,0.99959534
C0H9A0,神木村,2023-11-21,23.532742,120.843667,7.4251756e-09
C0I460,南投,2023-11-21,23.911469,120.687331,7.996003e-06
C0I480,梅峰,2023-11-21,24.085272,121.173572,6.854014e-09
C1V570,吉東,2023-11-21,22.85422,120.5454,0.00017648327
C2A560,福山,2023-11-21,24.776203,121.502811,1.747641e-07
C0AH30,五分山,2023-11-21,25.07125,121.780794,5.8177168e-08
C0FA10,松柏,2023-11-21,24.429115,120.617482,0.8886619
72S200,東改班鳩分場,2023-11-21,22.829528,121.077694,0.122707434
72HA00,中改埔里分場,2023-11-21,23.903208,120.963364,9.538548e-10
C0C650,平鎮,2023-11-21,24.897503,121.214636,0.00031315963
C0S930,延平,2023-11-21,22.902581,121.084058,0.41571528
C0UA60,樟樹山,2023-11-21,24.41393,121.78325,6.5700306e-08
C1S670,摩天,2023-11-21,23.199503,121.027,2.8385644e-08
C0V630,茄萣,2023-11-21,22.906642,120.182608,0.99969476
466940,基隆,2023-11-21,25.133314,121.740475,0.83830535
C0X050,東河,2023-11-21,23.296598,120.385608,0.99978656
C0R770,保力,2023-11-21,22.071122,120.764111,0.13803244
G2L020,農試嘉義分所,2023-11-21,23.485028,120.473806,0.9997657
C0X240,關子嶺,2023-11-21,23.331169,120.508025,1.7303222e-07
C0I380,集集,2023-11-21,23.828206,120.801467,1.7820795e-09
466990,花蓮,2023-11-21,23.975128,121.613275,9.977784e-07
C1V220,小關山,2023-11-21,23.154217,120.813603,7.377925e-09
C1F9G1,慶福山,2023-11-21,24.180853,120.848378,1.5309015e-09
C0Z250,瑞穗林道,2023-11-21,23.49284,121.30688,8.320185e-08
C0D590,新豐,2023-11-21,24.87068,120.97721,0.2241718
C0A870,五指山,2023-11-21,25.132153,121.608692,2.6810273e-08
C0UA50,西帽山,2023-11-21,24.555361,121.802628,7.044031e-08
C0X160,仁德,2023-11-21,22.968258,120.257689,0.99942315
C1H971,六分寮,2023-11-21,23.92507,120.6378,2.9880212e-09
C0W120,西嶼,2023-11-21,23.5626,119.468436,0.9977556
C0G650,員林,2023-11-21,23.946503,120.585597,3.0531862e-06
C0AD50,鶯歌,2023-11-21,24.951533,121.346294,0.9029762
C0S990,山豬窟,2023-11-21,22.318619,120.857372,0.9967053
72Q010,高雄農改,2023-11-21,22.709333,120.525889,2.2768067e-07
C0X190,安平,2023-11-21,22.993161,120.152181,0.9987623
C0K400,斗六,2023-11-21,23.720583,120.541127,0.9960316
12J990,口湖工作站,2023-11-21,23.589978,120.180394,0.99981487
C0O830,北寮,2023-11-21,23.079561,120.495008,4.9253547e-05
C1D410,白蘭,2023-11-21,24.579364,121.079947,7.108597e-09
C0S970,加津林,2023-11-21,22.416211,120.926942,0.7606125
C0D700,關西,2023-11-21,24.7977,121.1732,0.31084737
C0M810,里佳,2023-11-21,23.389125,120.716647,5.30102e-09
C0U750,龜山島,2023-11-21,24.841667,121.953133,0.9566287
C0R810,內獅,2023-11-21,22.305064,120.642986,0.19733614
C1M390,龍美,2023-11-21,23.406728,120.654417,5.118695e-09
C1H840,國三N238K,2023-11-21,23.841008,120.707711,1.5273083e-09
CAQ030,崎峰國小,2023-11-21,22.42565,120.49521,5.049681e-05
C2E520,大湖,2023-11-21,24.414939,120.870872,4.448862e-09
467530,阿里山,2023-11-21,23.508208,120.813242,1.1294885e-08
C1E691,南湖,2023-11-21,24.40135,120.837533,3.411321e-09
C0FA30,梧棲,2023-11-21,24.256003,120.523381,0.9910778
C1V231,高中,2023-11-21,23.134911,120.716711,2.576897e-09
C0F9V0,新社,2023-11-21,24.200172,120.815806,2.0774187e-09
C0H890,埔里,2023-11-21,23.972169,120.952425,7.9764917e-10
C0R690,墾丁,2023-11-21,21.966756,120.810269,0.35512602
C0F0D0,審馬陣,2023-11-21,24.381675,121.4203,1.4590902e-08
C0R820,白鷺,2023-11-21,22.454275,120.666219,5.619117e-09
U2H480,臺大溪頭,2023-11-21,23.670306,120.798194,4.3420094e-09
C1V190,南天池,2023-11-21,23.27403,120.91176,7.837629e-09
K2E360,苗栗農改場,2023-11-21,24.495722,120.829111,6.669478e-07
CAJ050,海口故事園區,2023-11-21,23.57543,120.14121,0.99981487
C0O990,媽廟,2023-11-21,22.99175,120.293525,0.99956256
C0D480,打鐵坑,2023-11-21,24.849664,121.150789,0.0025246032
C0Z220,和平林道,2023-11-21,24.343922,121.656317,1.80253e-08
72C440,桃園農改場,2023-11-21,24.950944,121.030583,0.98682445
C1E711,馬拉邦山,2023-11-21,24.367306,120.901656,1.9306803e-09
C0D560,竹東,2023-11-21,24.767147,121.057881,0.5117044
C0F9U0,南屯,2023-11-21,24.137006,120.637969,0.007006824
C0M720,番路,2023-11-21,23.464657,120.554156,0.9996571
C0F0A0,雪山圈谷,2023-11-21,24.388594,121.236339,2.1110802e-08
C1A9N0,四十份,2023-11-21,24.934158,121.593283,3.0316005e-07
C0U760,東澳,2023-11-21,24.52196,121.83318,5.5080213e-06
C0X230,鹽水,2023-11-21,23.272621,120.247641,0.9997683
C0V370,古亭坑,2023-11-21,22.893178,120.401947,0.08207251
C1I340,新興橋,2023-11-21,23.563333,120.868728,5.9270744e-09
C0SA80,土坂,2023-11-21,22.453108,120.887572,0.98821586
C0R160,鹽埔,2023-11-21,22.739558,120.530778,2.2768067e-07
C0AC40,大屯山,2023-11-21,25.175675,121.522408,4.6393232e-08
466850,五分山雷達站,2023-11-21,25.071182,121.781205,5.6926698e-08
C1AI50,國三N016K,2023-11-21,25.034164,121.619664,0.00031315544
C1V600,藤枝,2023-11-21,23.071961,120.757042,6.288565e-09
C1E601,南勢,2023-11-21,24.572486,120.734842,0.98242056
C0Z180,新城,2023-11-21,24.03946,121.60454,8.706206e-07
C0O980,新市,2023-11-21,23.061614,120.298197,0.999702
C0K420,西螺,2023-11-21,23.800407,120.467394,0.3190432
C0Z050,佳心,2023-11-21,23.34567,121.21316,1.7695044e-08
C0AD30,蘆洲,2023-11-21,25.086594,121.472331,0.0070362138
C0V610,梓官,2023-11-21,22.760558,120.267211,0.605124
K2F750,種苗改良場,2023-11-21,24.225972,120.800917,3.0824183e-09
C0UA80,大溪漁港,2023-11-21,24.941801,121.902955,0.0071802293
C1AI60,國一39K邊坡,2023-11-21,25.064361,121.383836,9.7473996e-05
C0W150,金寧,2023-11-21,24.457703,118.328989,0.9998565
V2C250,八德合作社,2023-11-21,24.93775,121.266389,0.019343698
C0AH40,平等,2023-11-21,25.129142,121.577086,5.635144e-08
C0R540,佳冬,2023-11-21,22.419456,120.552375,0.92813253
466950,彭佳嶼,2023-11-21,25.627975,122.079744,0.2228342
C0A890,雙溪,2023-11-21,25.036003,121.864242,0.040244315
C0C480,桃園,2023-11-21,24.992425,121.323172,0.1339544
C0AH50,林口,2023-11-21,25.072181,121.38084,6.2797617e-06
A2K360,水試臺西試驗場,2023-11-21,23.717231,120.190522,0.9997701
B2N890,畜試所,2023-11-21,23.058972,120.336406,0.9996983
C0F9S0,烏日,2023-11-21,24.107058,120.624103,0.0943205
C0C490,八德,2023-11-21,24.928708,121.283289,0.01610839
C0R190,赤山,2023-11-21,22.592333,120.614306,0.00062961545
C0T820,天祥,2023-11-21,24.179597,121.495639,5.324198e-07
C1F9E1,龍安,2023-11-21,24.1605,120.831961,1.7652525e-09
C0V820,小林,2023-11-21,23.148408,120.63325,2.1933837e-09
C2G870,芳苑,2023-11-21,23.922303,120.320025,0.69789326
C0E850,大河,2023-11-21,24.618069,120.948578,3.5479502e-09
C1U670,寒溪,2023-11-21,24.634,121.71691,1.4075901e-07
C0N020,城西,2023-11-21,23.0568,120.0956,0.9987623
C1Z110,三棧,2023-11-21,24.11557,121.60501,1.900878e-07
C0R280,檳榔,2023-11-21,22.076078,120.836777,0.95132077
C0F9L0,后里,2023-11-21,24.310436,120.729725,2.1418927e-08
C0D540,橫山,2023-11-21,24.71116,121.11693,2.6264651e-08
C1D420,太閣南,2023-11-21,24.632808,121.160575,1.3507434e-08
C1E770,公館,2023-11-21,24.526914,120.830806,1.7120168e-06
CAN130,水試所海水繁養殖中心,2023-11-21,23.120802,120.07968,0.9996264
C1I430,翠華,2023-11-21,24.191961,121.224339,8.426273e-09
C1M400,菜瓜坪,2023-11-21,23.251928,120.576103,3.1438192e-09
C0G730,二林,2023-11-21,23.903325,120.376081,0.9996876
72M360,南改義竹分場,2023-11-21,23.360694,120.279361,0.99968445
V2K620,麥寮合作社,2023-11-21,23.753836,120.294783,0.99974686
C0Z070,舞鶴,2023-11-21,23.46811,121.37407,7.262765e-09
C0B040,大武崙,2023-11-21,25.166676,121.706993,0.6632864
C1Z030,紅葉,2023-11-21,23.493119,121.338806,4.454332e-08
C1I050,丹大,2023-11-21,23.753747,121.141147,9.4657135e-09
C0I080,信義,2023-11-21,23.689694,120.851036,7.874986e-09
C2A880,福隆,2023-11-21,25.017842,121.942083,0.002933102
C0Z160,鳳林,2023-11-21,23.746114,121.453411,1.3522179e-08
C0V210,復興,2023-11-21,23.222403,120.806089,1.8184632e-08
C0H990,昆陽,2023-11-21,24.121322,121.273642,2.2000298e-08
C0S710,鹿野,2023-11-21,22.917711,121.122994,0.006747006
C0I530,小奇萊,2023-11-21,24.131764,121.295717,2.2849742e-08
C0Z080,富源,2023-11-21,23.587642,121.378225,1.2347124e-08
467441,高雄,2023-11-21,22.7304,120.3125,0.44836232
C1I140,卡奈托灣,2023-11-21,23.754364,121.087872,2.8381786e-09
C0I520,玉山風口,2023-11-21,23.470489,120.955994,2.0666976e-08
C1G691,下水埔,2023-11-21,23.816114,120.5676,0.9443698
C0X110,臺南市南區,2023-11-21,22.961189,120.188378,0.9994233
C0V680,仁武,2023-11-21,22.701083,120.347722,0.31284827
C2G840,北斗,2023-11-21,23.877586,120.514222,0.0150925405
C0R900,竹坑,2023-11-21,22.1385,120.7022,0.21113096
C0K250,崙背,2023-11-21,23.75555,120.318925,0.99974686
C0G860,社頭,2023-11-21,23.897647,120.5862,0.03253035
C0X150,安定,2023-11-21,23.102614,120.227839,0.9994597
C0R590,里港,2023-11-21,22.77919,120.49459,0.00023568932
C0E610,馬都安,2023-11-21,24.451272,120.930192,3.38779e-09
C0E550,明德,2023-11-21,24.583486,120.885411,2.392691e-05
C0R150,三地門,2023-11-21,22.709889,120.639944,1.992395e-06
C0G910,花壇,2023-11-21,24.032076,120.549461,0.00036811593
C1D400,鳥嘴山,2023-11-21,24.71909,121.28387,3.5888775e-08
C0K500,元長,2023-11-21,23.64981,120.315024,0.99978775
C0F0B0,石岡,2023-11-21,24.276061,120.777644,1.1706891e-08
C2V250,甲仙,2023-11-21,23.080106,120.591758,6.410422e-08
C0SA20,金崙山,2023-11-21,22.567419,120.959667,1.5105725e-08
C0V350,溪埔,2023-11-21,22.738578,120.446797,6.773395e-05
C0M660,溪口,2023-11-21,23.604131,120.403569,0.9997905
C1S880,壽卡,2023-11-21,22.238911,120.858903,0.9940835
72D680,桃改新埔分場,2023-11-21,24.834444,121.066111,0.9397483
