站號,站名,日期,lat,lon,BlastGRU-TW
466881,新北,2023-02-08,24.9593,121.52,0.00010279162
466900,淡水,2023-02-08,25.164889,121.448906,6.457441e-05
466920,臺北,2023-02-08,25.037658,121.514853,0.00010059105
467441,高雄,2023-02-08,22.7304,120.3125,0.0006009976
467480,嘉義,2023-02-08,23.495925,120.432906,0.00066092063
467490,臺中,2023-02-08,24.145736,120.684075,0.00057440286
C0A540,四堵,2023-02-08,24.8926,121.745736,0.00014547407
C0A550,泰平,2023-02-08,24.971197,121.823711,0.0016906762
C0A560,福山,2023-02-08,24.776203,121.502811,0.0018081401
C0A931,三和,2023-02-08,25.233153,121.595236,0.0006991813
C0A940,金山,2023-02-08,25.223628,121.643967,6.755429e-05
C0A950,鼻頭角,2023-02-08,25.129036,121.923372,0.0015455371
C0AD10,八里,2023-02-08,25.150211,121.403947,6.457441e-05
C0AD30,蘆洲,2023-02-08,25.086594,121.472331,8.384624e-05
C0AD40,土城,2023-02-08,24.973208,121.445169,8.493641e-05
C0AI10,屈尺,2023-02-08,24.92184,121.54475,0.00010513622
C0AI20,白沙灣,2023-02-08,25.283128,121.519058,6.78593e-05
C0AI30,三重,2023-02-08,25.057328,121.500629,8.384624e-05
C0B010,七堵,2023-02-08,25.094819,121.71713,7.151299e-05
C0B020,基隆嶼,2023-02-08,25.19141,121.78391,7.379901e-05
