站號,站名,日期,lat,lon,BlastGRU-TW
12J990,口湖工作站,2023-04-12,23.589978,120.180394,0.8310054
12Q970,東港工作站,2023-04-12,22.479997,120.466058,0.6699011
12Q980,恆春工作站,2023-04-12,22.079678,120.714425,0.086681336
466881,新北,2023-04-12,24.9593,121.52,0.4131515
466900,淡水,2023-04-12,25.164889,121.448906,0.39776966
466920,臺北,2023-04-12,25.037658,121.514853,0.3527361
466940,基隆,2023-04-12,25.133314,121.740475,0.80110985
466990,花蓮,2023-04-12,23.975128,121.613275,0.6222235
467050,新屋,2023-04-12,25.006744,121.047486,0.52864105
467060,蘇澳,2023-04-12,24.596736,121.857372,0.9605262
467080,宜蘭,2023-04-12,24.763975,121.756528,0.66483605
467270,田中,2023-04-12,23.873803,120.581286,0.6229889
467300,東吉島,2023-04-12,23.25695,119.667467,0.85112184
467350,澎湖,2023-04-12,23.565503,119.563094,0.2879511
467410,臺南,2023-04-12,22.993239,120.204772,0.67461336
467420,永康,2023-04-12,23.038386,120.2367,0.65985906
467441,高雄,2023-04-12,22.7304,120.3125,0.44590154
467480,嘉義,2023-04-12,23.495925,120.432906,0.9171687
467490,臺中,2023-04-12,24.145736,120.684075,0.8696932
467540,大武,2023-04-12,22.355675,120.903789,0.11049592
467571,新竹,2023-04-12,24.827853,121.014219,0.4958851
467590,恆春,2023-04-12,22.003897,120.746339,0.08220817
467610,成功,2023-04-12,23.097486,121.373428,0.9670595
467620,蘭嶼,2023-04-12,22.036969,121.558339,0.34387732
467660,臺東,2023-04-12,22.752211,121.154586,0.20447873
467790,墾丁雷達站,2023-04-12,21.948235,120.808028,0.075458966
72AI40,桃改臺北分場,2023-04-12,24.944503,121.386972,0.29455987
72C440,桃園農改場,2023-04-12,24.950944,121.030583,0.43800333
72D680,新埔,2023-04-12,24.834444,121.066111,0.54778045
72G600,臺中農改場,2023-04-12,24.003028,120.534389,0.78890693
72K220,雲林分場,2023-04-12,23.634556,120.477333,0.63867223
72L140,朴子分場,2023-04-12,23.4982,120.2414,0.87451977
72M360,義竹工作站,2023-04-12,23.360694,120.279361,0.8594771
72M700,嘉義分場,2023-04-12,23.416869,120.283061,0.9062982
72N100,臺南農改場,2023-04-12,23.0605,120.342194,0.7297704
72N240,七股研究中心,2023-04-12,23.081672,120.062894,0.7445479
72Q010,高雄農改場,2023-04-12,22.709333,120.525889,0.50231946
72S200,斑鳩分場,2023-04-12,22.829528,121.077694,0.7344612
72S590,賓朗果園,2023-04-12,22.813889,121.071278,0.44550237
72T250,花蓮農改場,2023-04-12,23.975222,121.563889,0.1288351
72U480,蘭陽分場,2023-04-12,24.686306,121.716583,0.3194892
72V140,旗南,2023-04-12,22.857861,120.516667,0.5887927
82A750,文山分場,2023-04-12,24.955778,121.631222,0.19534217
82C160,茶改場(楊梅),2023-04-12,24.908472,121.185333,0.14152995
82H840,凍頂工作站,2023-04-12,23.762528,120.7405,0.38602322
82S580,龍田,2023-04-12,22.907694,121.130139,0.8898294
A0K420,麥寮,2023-04-12,23.7988,120.2177,0.8676167
A0W080,吉貝,2023-04-12,23.74,119.6042,0.2265191
A2C560,農工中心,2023-04-12,24.985917,121.239833,0.24744749
A2K360,臺西分所,2023-04-12,23.717231,120.190522,0.83591837
A2K570,古坑(花卉中心),2023-04-12,23.633531,120.552392,0.71497804
A2K630,臺大雲林校區,2023-04-12,23.730628,120.423903,0.62811446
A2N290,臺南蘭花園區,2023-04-12,23.340258,120.379661,0.89939976
B2E890,新竹畜試,2023-04-12,24.527806,120.770972,0.8435652
B2N890,畜產試驗所,2023-04-12,23.058972,120.336406,0.7297704
B2Q810,恆春分所,2023-04-12,21.945583,120.802167,0.084716715
B2U990,宜蘭畜試,2023-04-12,24.669039,121.832561,0.7940452
C0A520,山佳,2023-04-12,24.974944,121.402008,0.29455987
C0A530,坪林,2023-04-12,24.938183,121.70975,0.10825087
C0A540,四堵,2023-04-12,24.8926,121.745736,0.14714135
C0A550,泰平,2023-04-12,24.971197,121.823711,0.032632057
C0A560,福山,2023-04-12,24.776203,121.502811,0.09778435
C0A570,桶後,2023-04-12,24.848222,121.597992,0.07762527
C0A640,石碇,2023-04-12,24.993969,121.662917,0.10221121
C0A650,火燒寮,2023-04-12,25.002719,121.742892,0.06705842
C0A660,瑞芳,2023-04-12,25.113169,121.801147,0.4807318
C0A770,科教館,2023-04-12,25.096356,121.516507,0.36625966
C0A860,大坪,2023-04-12,25.165914,121.632969,0.020096816
C0A880,福隆,2023-04-12,25.017842,121.942083,0.90946734
C0A890,雙溪,2023-04-12,25.036003,121.864242,0.7758811
C0A920,富貴角,2023-04-12,25.263783,121.565258,0.20224173
C0A931,三和,2023-04-12,25.233153,121.595236,0.11279488
C0A940,金山,2023-04-12,25.223628,121.643967,0.22310457
C0A950,鼻頭角,2023-04-12,25.129036,121.923372,0.89158165
C0A970,三貂角,2023-04-12,25.007606,122.002058,0.8955433
C0A980,社子,2023-04-12,25.109508,121.469681,0.379445
C0A9C0,天母,2023-04-12,25.117494,121.537169,0.32552812
C0A9F0,內湖,2023-04-12,25.079422,121.57545,0.31729406
C0AC60,三峽,2023-04-12,24.939025,121.369728,0.25747404
C0AC70,信義,2023-04-12,25.037822,121.564597,0.38452125
C0AC80,文山,2023-04-12,25.00235,121.575728,0.34353536
C0ACA0,新莊,2023-04-12,25.051478,121.446756,0.26406854
C0AD00,三芝,2023-04-12,25.258131,121.501917,0.12052289
C0AD10,八里,2023-04-12,25.150211,121.403947,0.26992646
C0AD30,蘆洲,2023-04-12,25.086594,121.472331,0.36625966
C0AD40,土城,2023-04-12,24.973208,121.445169,0.40165496
C0AD50,鶯歌,2023-04-12,24.951533,121.346294,0.3438368
C0AG80,中和,2023-04-12,24.991622,121.491792,0.38043058
C0AH00,汐止,2023-04-12,25.066881,121.658778,0.7824795
C0AH10,永和,2023-04-12,25.01125,121.508111,0.3988603
C0AH40,平等,2023-04-12,25.129142,121.577086,0.027206607
C0AH50,林口,2023-04-12,25.072181,121.38084,0.05628512
C0AH70,松山,2023-04-12,25.04871,121.55042,0.38452125
C0AH80,深坑,2023-04-12,25.002703,121.628328,0.44752482
C0AI00,五股,2023-04-12,25.07445,121.42728,0.12745525
C0AI10,屈尺,2023-04-12,24.92184,121.54475,0.34783283
C0AI20,白沙灣,2023-04-12,25.283128,121.519058,0.060608193
C0AI30,三重,2023-04-12,25.057328,121.500629,0.383757
C0AI40,石牌,2023-04-12,25.115597,121.513139,0.34777936
C0AJ10,澳底,2023-04-12,25.057107,121.927272,0.92354816
C0AJ20,野柳,2023-04-12,25.20703,121.690021,0.6528211
C0AJ30,淡水觀海,2023-04-12,25.184591,121.408616,0.3423041
C0AJ40,石門,2023-04-12,25.273672,121.601198,0.11903351
C0AJ50,水湳洞,2023-04-12,25.123695,121.862238,0.8949126
C0AJ60,六塊厝,2023-04-12,25.24,121.4481,0.21873814
C0AJ70,田寮,2023-04-12,25.2698,121.4886,0.17127295
C0AJ80,板橋,2023-04-12,25.0107,121.4489,0.33098158
C0B010,七堵,2023-04-12,25.094819,121.71713,0.6667493
C0B020,基隆嶼,2023-04-12,25.19141,121.78391,0.7695036
C0B040,大武崙,2023-04-12,25.166676,121.706993,0.62890226
C0B050,八斗子,2023-04-12,25.144754,121.79167,0.8822425
C0B060,暖暖,2023-04-12,25.0957,121.7403,0.64980006
C0C460,復興,2023-04-12,24.820208,121.352281,0.08094677
C0C480,桃園,2023-04-12,24.992425,121.323172,0.26201218
C0C490,八德,2023-04-12,24.928708,121.283289,0.50313663
C0C590,觀音,2023-04-12,25.027072,121.153317,0.2164725
C0C620,蘆竹,2023-04-12,25.084275,121.265767,0.19898063
C0C630,大溪,2023-04-12,24.882853,121.265547,0.27932474
C0C650,平鎮,2023-04-12,24.897503,121.214636,0.14152995
C0C660,楊梅,2023-04-12,24.912375,121.143047,0.17178744
C0C670,龍潭,2023-04-12,24.870056,121.221389,0.24130961
C0C680,龜山,2023-04-12,25.02846,121.38656,0.18229645
C0C700,中壢,2023-04-12,24.977661,121.256375,0.2349983
C0C710,大溪永福,2023-04-12,24.892936,121.324975,0.23833603
C0C720,竹圍,2023-04-12,25.112692,121.239824,0.21948491
C0C730,中大臨海站,2023-04-12,24.966126,121.008581,0.46134973
C0C740,觀音工業區,2023-04-12,25.064764,121.114856,0.23241666
C0C750,新興坑尾,2023-04-12,25.0061,121.0971,0.22531487
C0D390,關西,2023-04-12,24.7977,121.1732,0.23471642
C0D430,峨眉,2023-04-12,24.6905,121.017189,0.45799875
C0D480,打鐵坑,2023-04-12,24.849664,121.150789,0.3870617
C0D540,橫山,2023-04-12,24.71116,121.11693,0.37882355
C0D560,竹東,2023-04-12,24.767147,121.057881,0.28742215
C0D580,寶山,2023-04-12,24.735006,121.025192,0.65952873
C0D590,新豐,2023-04-12,24.87068,120.97721,0.8928437
C0D650,湖口,2023-04-12,24.904794,121.043628,0.5369606
C0D660,新竹市東區,2023-04-12,24.798681,120.986942,0.45145497
C0D670,海天一線,2023-04-12,24.831986,120.914438,0.47923785
C0D680,香山濕地,2023-04-12,24.783581,120.914988,0.49165273
C0D690,外湖,2023-04-12,24.917735,120.968711,0.44994977
C0E420,竹南,2023-04-12,24.708978,120.888897,0.3001359
C0E430,南庄,2023-04-12,24.601775,121.000214,0.46967527
C0E520,大湖,2023-04-12,24.41494,120.87087,0.607777
C0E540,後龍,2023-04-12,24.606489,120.783933,0.8024986
C0E550,明德,2023-04-12,24.583486,120.885411,0.55789083
C0E590,通霄,2023-04-12,24.471892,120.704622,0.8021344
C0E730,頭份,2023-04-12,24.688247,120.912206,0.3557777
C0E740,造橋,2023-04-12,24.637056,120.864778,0.5934438
C0E750,苗栗,2023-04-12,24.564569,120.824575,0.7256359
C0E780,銅鑼,2023-04-12,24.489681,120.790853,0.63530743
C0E791,卓蘭,2023-04-12,24.3126,120.8244,0.34378555
C0E810,西湖,2023-04-12,24.562947,120.7485,0.80755764
C0E820,獅潭,2023-04-12,24.539133,120.920042,0.72100484
C0E830,苑裡,2023-04-12,24.439714,120.653053,0.87684125
C0E850,大河,2023-04-12,24.618069,120.948578,0.4694523
C0E870,高鐵苗栗,2023-04-12,24.60725,120.826094,0.7871663
C0E910,海埔,2023-04-12,24.648767,120.772435,0.82379276
C0E920,通霄漁港,2023-04-12,24.498589,120.673876,0.78079295
C0E930,龍鳳,2023-04-12,24.700034,120.859125,0.66792285
C0F000,大肚,2023-04-12,24.15295,120.572117,0.11213107
C0F0B0,石岡,2023-04-12,24.276061,120.777644,0.5234424
C0F850,東勢,2023-04-12,24.246428,120.833047,0.32693657
C0F930,大甲,2023-04-12,24.347667,120.640403,0.87162143
C0F970,大坑,2023-04-12,24.173142,120.722289,0.8882473
C0F9A0,中竹林,2023-04-12,24.103556,120.751061,0.41109788
C0F9I0,神岡,2023-04-12,24.272481,120.658314,0.5485899
C0F9K0,大安,2023-04-12,24.345061,120.588025,0.8679752
C0F9L0,后里,2023-04-12,24.310436,120.729725,0.50941294
C0F9M0,豐原,2023-04-12,24.254322,120.720692,0.5805436
C0F9N0,大里,2023-04-12,24.092464,120.701378,0.877835
C0F9O0,潭子,2023-04-12,24.213106,120.703933,0.5352692
C0F9P0,清水,2023-04-12,24.312297,120.562242,0.8627216
C0F9Q0,外埔,2023-04-12,24.347817,120.705686,0.48931333
C0F9R0,龍井,2023-04-12,24.184536,120.528972,0.8710224
C0F9S0,烏日,2023-04-12,24.107058,120.624103,0.7369768
C0F9T0,西屯,2023-04-12,24.179494,120.641275,0.85483545
C0F9U0,南屯,2023-04-12,24.137006,120.637969,0.8266466
C0F9X0,大雅(中科園區),2023-04-12,24.21528,120.62445,0.8375169
C0FA10,松柏,2023-04-12,24.429115,120.617482,0.8712595
C0FA20,溫寮,2023-04-12,24.372177,120.583125,0.8632944
C0FA30,梧棲,2023-04-12,24.256003,120.523381,0.8633
C0FA40,臺中電廠,2023-04-12,24.2146,120.4907,0.87102246
C0FA50,霧峰,2023-04-12,24.0419,120.6995,0.8842353
C0G620,芬園,2023-04-12,24.015678,120.6213,0.763321
C0G640,鹿港,2023-04-12,24.0753,120.430481,0.5881217
C0G650,員林,2023-04-12,23.946503,120.585597,0.782351
C0G660,溪湖,2023-04-12,23.94835,120.479122,0.7551908
C0G720,溪州,2023-04-12,23.851589,120.499093,0.588761
C0G730,二林,2023-04-12,23.903325,120.376081,0.6839745
C0G740,大城,2023-04-12,23.852487,120.320935,0.7996217
C0G770,福興,2023-04-12,24.041289,120.437669,0.6266251
C0G780,秀水,2023-04-12,24.03405,120.503869,0.69771945
C0G800,埔鹽,2023-04-12,24.000394,120.431683,0.66329974
C0G810,埔心,2023-04-12,23.947633,120.525456,0.752586
C0G820,田尾,2023-04-12,23.901669,120.509389,0.78029114
C0G830,埤頭,2023-04-12,23.866003,120.452806,0.5739635
C0G840,北斗,2023-04-12,23.877586,120.514222,0.78029114
C0G860,社頭,2023-04-12,23.897647,120.5862,0.8086214
C0G870,芳苑,2023-04-12,23.922303,120.320025,0.7808067
C0G880,二水,2023-04-12,23.810742,120.6173,0.6587065
C0G890,伸港,2023-04-12,24.148933,120.484403,0.8418474
C0G900,線西,2023-04-12,24.143358,120.443536,0.8155405
C0G910,花壇,2023-04-12,24.032076,120.549461,0.7848293
C0G920,永靖,2023-04-12,23.924703,120.547533,0.8011058
C0G940,竹塘,2023-04-12,23.848253,120.386764,0.6100328
C0G950,防潮門,2023-04-12,24.1835,120.4871,0.8678172
C0G960,福寶,2023-04-12,24.0443,120.3814,0.5657943
C0G970,三豐,2023-04-12,23.882,120.2895,0.7808067
C0H890,埔里,2023-04-12,23.972169,120.952425,0.67774034
C0H950,中寮,2023-04-12,23.884447,120.766406,0.6849721
C0H960,草屯,2023-04-12,23.973672,120.68085,0.67769647
C0I110,竹山,2023-04-12,23.761225,120.688156,0.6918112
C0I360,水里,2023-04-12,23.812553,120.849792,0.60197335
C0I380,集集,2023-04-12,23.828206,120.801467,0.68775624
C0I410,名間,2023-04-12,23.837053,120.701447,0.7232281
C0I420,國姓,2023-04-12,24.037803,120.855072,0.5577743
C0I460,南投,2023-04-12,23.911469,120.687331,0.692968
C0K250,崙背,2023-04-12,23.75555,120.318925,0.85437024
C0K280,四湖,2023-04-12,23.630414,120.227125,0.85969895
C0K291,宜梧,2023-04-12,23.536281,120.169329,0.8484614
C0K330,虎尾,2023-04-12,23.719183,120.442036,0.6366337
C0K390,土庫,2023-04-12,23.679029,120.395574,0.64888173
C0K400,斗六,2023-04-12,23.720583,120.541127,0.70832086
C0K410,北港,2023-04-12,23.573957,120.292802,0.87973183
C0K420,西螺,2023-04-12,23.800407,120.467394,0.62580544
C0K430,褒忠,2023-04-12,23.690938,120.303634,0.8764837
C0K440,二崙,2023-04-12,23.772797,120.408944,0.59427935
C0K450,大埤,2023-04-12,23.646074,120.431537,0.62257814
C0K460,斗南,2023-04-12,23.678734,120.478359,0.67516977
C0K470,林內,2023-04-12,23.748675,120.609642,0.6951254
C0K480,莿桐,2023-04-12,23.761192,120.502372,0.6377808
C0K500,元長,2023-04-12,23.64981,120.315024,0.8785824
C0K510,水林,2023-04-12,23.572924,120.24597,0.8560814
C0K530,臺西,2023-04-12,23.701547,120.197559,0.8348474
C0K550,蔦松,2023-04-12,23.514319,120.229736,0.87451977
C0K560,棋山,2023-04-12,23.68645,120.603417,0.7780673
C0K580,高鐵雲林,2023-04-12,23.737456,120.417944,0.62811446
C0K590,雲林東勢,2023-04-12,23.674192,120.255721,0.8763996
C0K600,箔子寮,2023-04-12,23.6197,120.14,0.7947962
C0M410,馬頭山,2023-04-12,23.324361,120.582017,0.6359446
C0M520,東後寮,2023-04-12,23.369908,120.248065,0.85136145
C0M640,中埔,2023-04-12,23.42538,120.5229,0.67475486
C0M650,朴子,2023-04-12,23.43463,120.23902,0.87834084
C0M660,溪口,2023-04-12,23.604131,120.403569,0.8836045
C0M670,大林,2023-04-12,23.600616,120.45841,0.85641515
C0M680,太保,2023-04-12,23.455062,120.331455,0.9028978
C0M690,水上,2023-04-12,23.419734,120.388909,0.9168236
C0M700,竹崎,2023-04-12,23.526178,120.555508,0.73759156
C0M710,東石,2023-04-12,23.458927,120.15385,0.8542974
C0M720,番路,2023-04-12,23.464657,120.554156,0.7172803
C0M730,嘉義市東區,2023-04-12,23.457673,120.460531,0.87607694
C0M740,六腳,2023-04-12,23.492871,120.290625,0.8917008
C0M750,布袋,2023-04-12,23.380878,120.167789,0.8702607
C0M760,民雄,2023-04-12,23.551754,120.428457,0.90242153
C0M770,嘉義梅山,2023-04-12,23.585398,120.555587,0.7808288
C0M780,鹿草,2023-04-12,23.41134,120.30835,0.90897185
C0M790,新港,2023-04-12,23.553269,120.345728,0.8950989
C0M800,茶山,2023-04-12,23.299075,120.664767,0.70863175
C0M880,好美里,2023-04-12,23.3364,120.138,0.7265672
C0N010,鯤鯓國小,2023-04-12,23.1879,120.0889,0.8099805
C0N020,城西,2023-04-12,23.0568,120.0956,0.779007
C0N030,四草,2023-04-12,23.0235,120.1116,0.70176727
C0N040,蘆竹溝,2023-04-12,23.2344,120.0961,0.80964637
C0N050,蚵寮,2023-04-12,23.301,120.1104,0.8047797
C0O810,曾文,2023-04-12,23.219681,120.497328,0.9269513
C0O830,北寮,2023-04-12,23.079561,120.495008,0.5423148
C0O840,王爺宮,2023-04-12,23.222064,120.40085,0.91603047
C0O860,大內,2023-04-12,23.11885,120.36083,0.78655386
C0O900,善化,2023-04-12,23.112883,120.297219,0.699272
C0O930,玉井,2023-04-12,23.126042,120.46055,0.886644
C0O950,安南,2023-04-12,23.076694,120.144861,0.69023293
C0O960,崎頂,2023-04-12,22.959547,120.369317,0.42271155
C0O970,虎頭埤,2023-04-12,23.021375,120.347878,0.8257682
C0O980,新市,2023-04-12,23.061614,120.298197,0.7123389
C0O990,媽廟,2023-04-12,22.99175,120.293525,0.7010345
C0R150,三地門,2023-04-12,22.709889,120.639944,0.49836624
C0R160,鹽埔,2023-04-12,22.739558,120.530778,0.46401462
C0R170,屏東,2023-04-12,22.660269,120.494072,0.7572998
C0R190,赤山,2023-04-12,22.592333,120.614306,0.35260603
C0R220,潮州,2023-04-12,22.534361,120.54,0.3494101
C0R240,來義,2023-04-12,22.527306,120.625111,0.4879276
C0R260,春日,2023-04-12,22.370361,120.628306,0.5065748
C0R270,琉球嶼,2023-04-12,22.332244,120.362236,0.50071704
C0R280,檳榔,2023-04-12,22.076078,120.836777,0.023186192
C0R320,車城,2023-04-12,22.0744,120.716247,0.086681336
C0R341,牡丹,2023-04-12,22.130036,120.792639,0.35188484
C0R350,貓鼻頭,2023-04-12,21.921774,120.7358,0.0801078
C0R470,高樹,2023-04-12,22.826389,120.600806,0.54075766
C0R480,長治,2023-04-12,22.693128,120.542622,0.474138
C0R490,九如,2023-04-12,22.7405,120.490503,0.7425308
C0R520,崁頂,2023-04-12,22.514781,120.506914,0.6782029
C0R540,佳冬,2023-04-12,22.419456,120.552375,0.7485731
C0R550,新埤,2023-04-12,22.467947,120.582894,0.5827932
C0R560,新園,2023-04-12,22.5434,120.461558,0.6327755
C0R570,麟洛,2023-04-12,22.65078,120.52719,0.7572072
C0R580,南州,2023-04-12,22.48591,120.50274,0.67037433
C0R590,里港,2023-04-12,22.77919,120.49459,0.5224119
C0R620,墾雷,2023-04-12,21.900836,120.855269,0.07765161
C0R640,東港,2023-04-12,22.46247,120.44074,0.62220746
C0R650,竹田,2023-04-12,22.58486,120.54344,0.39857158
C0R660,枋寮,2023-04-12,22.367722,120.590647,0.55759114
C0R670,楓港,2023-04-12,22.190131,120.692156,0.45309314
C0R680,佳樂水,2023-04-12,21.993578,120.861633,0.084716715
C0R690,墾丁,2023-04-12,21.966756,120.810269,0.023171337
C0R700,枋山,2023-04-12,22.246844,120.661086,0.52644616
C0R710,龍磐,2023-04-12,21.931672,120.838942,0.05780814
C0R720,旭海,2023-04-12,22.205403,120.887614,0.06671656
C0R730,大坪頂,2023-04-12,22.024633,120.69355,0.040723894
C0R740,獅子,2023-04-12,22.201569,120.70525,0.4076432
C0R760,南仁湖,2023-04-12,22.084681,120.863353,0.019555256
C0R770,保力,2023-04-12,22.071122,120.764111,0.068461835
C0R780,滿州,2023-04-12,22.024403,120.839892,0.07758672
C0R790,九棚,2023-04-12,22.14195,120.889281,0.07874684
C0R800,丹路,2023-04-12,22.204481,120.750989,0.4185959
C0R810,內獅,2023-04-12,22.305064,120.642986,0.67577964
C0R830,高士,2023-04-12,22.121825,120.836781,0.018261496
C0R850,林邊,2023-04-12,22.4634,120.5339,0.7278887
C0R860,鼻頭,2023-04-12,22.1043,120.8979,0.14008848
C0R870,興海,2023-04-12,21.9752,120.8439,0.084716715
C0R880,後壁湖,2023-04-12,21.9457,120.7457,0.088463396
C0R890,山海,2023-04-12,21.9878,120.7091,0.08919384
C0R900,竹坑,2023-04-12,22.1385,120.7022,0.75070834
C0R910,下寮,2023-04-12,22.3929,120.5548,0.7485731
C0R920,塭仔,2023-04-12,22.4169,120.5197,0.7207702
C0R930,萬丹,2023-04-12,22.5885,120.4851,0.4013733
C0R940,加祿堂,2023-04-12,22.3363,120.6217,0.5462148
C0S710,鹿野,2023-04-12,22.917711,121.122994,0.8703221
C0S730,綠島,2023-04-12,22.6672,121.47533,0.9521708
C0S740,池上,2023-04-12,23.119628,121.209469,0.84534824
C0S770,大溪山,2023-04-12,22.478475,120.943325,0.119027376
C0S790,金崙,2023-04-12,22.538122,120.966875,0.14015234
C0S810,東河,2023-04-12,22.972672,121.303986,0.96505463
C0S830,長濱,2023-04-12,23.286817,121.411975,0.9688116
C0S840,南田,2023-04-12,22.279725,120.889208,0.121364
C0S890,關山,2023-04-12,23.0395,121.175017,0.8755597
C0S900,蘭嶼高中,2023-04-12,22.04909,121.51214,0.38083595
C0S910,蘭嶼燈塔,2023-04-12,22.081197,121.503117,0.34474036
C0S920,金峰嘉蘭,2023-04-12,22.594789,120.960825,0.78326684
C0S930,延平,2023-04-12,22.902581,121.084058,0.75694865
C0S940,石寧山,2023-04-12,23.223772,121.406639,0.97767204
C0S950,七塊厝,2023-04-12,22.954453,121.229922,0.91789776
C0S960,香蘭,2023-04-12,22.587569,120.993375,0.09270986
C0S970,加津林,2023-04-12,22.416211,120.926942,0.05714622
C0S990,山豬窟,2023-04-12,22.318619,120.857372,0.030189818
C0SA00,歷坵,2023-04-12,22.520969,120.89185,0.5816937
C0SA10,檳榔四格山,2023-04-12,22.810031,121.109308,0.35332724
C0SA30,都歷,2023-04-12,23.020333,121.323642,0.9626349
C0SA40,瑞和,2023-04-12,22.974361,121.156697,0.8973802
C0SA60,知本（水試所）,2023-04-12,22.702394,121.082761,0.19496952
C0SA80,土坂,2023-04-12,22.453108,120.887572,0.307859
C0SA90,達仁林場,2023-04-12,22.264347,120.823972,0.041297305
C0T870,鯉魚潭,2023-04-12,23.935639,121.508944,0.08105715
C0T900,西林,2023-04-12,23.8119,121.441458,0.13932154
C0T960,光復,2023-04-12,23.660694,121.424964,0.49129823
C0T9A0,月眉山,2023-04-12,23.809928,121.539828,0.74924177
C0T9D0,和中,2023-04-12,24.26676,121.74103,0.67178226
C0T9E0,大坑,2023-04-12,23.880628,121.581981,0.35945418
C0T9F0,水璉,2023-04-12,23.797131,121.542514,0.70240545
C0T9I0,豐濱,2023-04-12,23.583897,121.514806,0.7489688
C0T9M0,靜浦,2023-04-12,23.455167,121.495028,0.90096664
C0T9N0,富里,2023-04-12,23.171639,121.249378,0.76449156
C0U600,礁溪,2023-04-12,24.817539,121.765608,0.38692543
C0U650,玉蘭,2023-04-12,24.675286,121.587061,0.14508513
C0U750,龜山島,2023-04-12,24.841667,121.953133,0.92674845
C0U760,東澳,2023-04-12,24.52196,121.83318,0.84647506
C0U770,南澳,2023-04-12,24.44935,121.81022,0.9007016
C0U780,五結,2023-04-12,24.68637,121.79794,0.79422903
C0U860,頭城,2023-04-12,24.85323,121.8308,0.8055214
C0U870,大礁溪,2023-04-12,24.791042,121.675047,0.061334193
C0U880,北關,2023-04-12,24.9072,121.8734,0.95334214
C0U890,三星,2023-04-12,24.66812,121.65302,0.1658982
C0U900,內城,2023-04-12,24.71813,121.68766,0.27937666
C0U910,冬山,2023-04-12,24.63373,121.7937,0.7940452
C0U940,羅東,2023-04-12,24.68184,121.74934,0.5330946
C0U970,大福,2023-04-12,24.80064,121.81389,0.8768938
C0U990,員山,2023-04-12,24.74435,121.72247,0.50827503
C0UA00,土場,2023-04-12,24.576533,121.495333,0.110587575
C0UA80,大溪漁港,2023-04-12,24.941801,121.902955,0.7545667
C0UA90,石城,2023-04-12,24.980444,121.951214,0.93554306
C0UB00,淡江大學蘭陽校園,2023-04-12,24.823239,121.730383,0.12920189
C0UB20,壯圍,2023-04-12,24.7359,121.8163,0.78224665
C0V250,甲仙,2023-04-12,23.080106,120.591758,0.5079354
C0V260,月眉,2023-04-12,22.971003,120.539853,0.5433063
C0V310,美濃,2023-04-12,22.898742,120.519153,0.90604436
C0V350,溪埔,2023-04-12,22.738578,120.446797,0.57920754
C0V360,內門,2023-04-12,22.975481,120.466769,0.87798107
C0V370,古亭坑,2023-04-12,22.893178,120.401947,0.8353756
C0V400,阿公店,2023-04-12,22.804194,120.355528,0.64559084
C0V440,鳳山,2023-04-12,22.646653,120.356122,0.52285594
C0V450,鳳森,2023-04-12,22.545064,120.392592,0.30374455
C0V490,新興,2023-04-12,22.627422,120.298803,0.49729234
C0V530,阿蓮,2023-04-12,22.883208,120.327508,0.66890246
C0V610,梓官,2023-04-12,22.760558,120.267211,0.5101029
C0V620,永安,2023-04-12,22.82315,120.236856,0.5986608
C0V630,茄萣,2023-04-12,22.906642,120.182608,0.6201044
C0V640,湖內,2023-04-12,22.887139,120.2445,0.62899005
C0V650,彌陀,2023-04-12,22.783806,120.246361,0.5986608
C0V660,岡山,2023-04-12,22.797078,120.294958,0.52894425
C0V680,仁武,2023-04-12,22.701083,120.347722,0.48086143
C0V690,鼓山,2023-04-12,22.623325,120.275575,0.50929344
C0V700,三民,2023-04-12,22.645017,120.311233,0.49729255
C0V710,苓雅,2023-04-12,22.622742,120.330669,0.50135434
C0V720,林園,2023-04-12,22.507747,120.394511,0.6102976
C0V730,大寮,2023-04-12,22.605614,120.395717,0.24110073
C0V740,旗山,2023-04-12,22.888614,120.483597,0.9034765
C0V750,路竹,2023-04-12,22.854997,120.259439,0.5873627
C0V760,橋頭,2023-04-12,22.757806,120.30575,0.53327656
C0V770,大社,2023-04-12,22.730306,120.346639,0.47676796
C0V790,萬山,2023-04-12,22.905944,120.688056,0.8155383
C0V800,六龜,2023-04-12,22.997889,120.633583,0.4335406
C0V810,左營,2023-04-12,22.67491,120.28491,0.45958582
C0V820,小林,2023-04-12,23.148408,120.63325,0.71656317
C0V840,鳳鼻頭,2023-04-12,22.5083,120.3591,0.6061112
C0V850,蚵仔寮,2023-04-12,22.7256,120.2527,0.4151671
C0V860,南寮,2023-04-12,22.7616,120.2339,0.5966007
C0V870,文安,2023-04-12,22.8025,120.2164,0.59611994
C0V880,興達,2023-04-12,22.8778,120.2127,0.6201044
C0V890,前鎮,2023-04-12,22.5718,120.3117,0.55294436
C0V900,汕尾,2023-04-12,22.4782,120.4151,0.7105676
C0X050,東河,2023-04-12,23.296598,120.385608,0.9039996
C0X060,下營,2023-04-12,23.22695,120.256261,0.80568993
C0X080,佳里,2023-04-12,23.173039,120.145086,0.77417153
C0X100,臺南市北區,2023-04-12,23.010394,120.194228,0.6582064
C0X110,臺南市南區,2023-04-12,22.961189,120.188378,0.6682821
C0X120,麻豆,2023-04-12,23.183289,120.248611,0.80470735
C0X130,官田,2023-04-12,23.193217,120.315422,0.83560914
C0X140,西港,2023-04-12,23.125608,120.203108,0.7436594
C0X150,安定,2023-04-12,23.102614,120.227839,0.68392956
C0X160,仁德,2023-04-12,22.968258,120.257689,0.6736288
C0X170,關廟,2023-04-12,22.963017,120.327797,0.731864
C0X180,山上,2023-04-12,23.0757,120.363253,0.8562714
C0X190,安平,2023-04-12,22.993161,120.152181,0.6713248
C0X200,左鎮,2023-04-12,23.056758,120.408522,0.8711153
C0X210,白河,2023-04-12,23.347466,120.414427,0.9111189
C0X220,學甲,2023-04-12,23.230367,120.182187,0.77869266
C0X230,鹽水,2023-04-12,23.272621,120.247641,0.8436323
C0X240,關子嶺,2023-04-12,23.331169,120.508025,0.43103853
C0X250,新營,2023-04-12,23.310689,120.316681,0.852384
C0X260,後壁,2023-04-12,23.366358,120.362326,0.8919265
C0X280,將軍,2023-04-12,23.214999,120.13577,0.7644306
C0X290,北門,2023-04-12,23.267772,120.125481,0.7561946
C0X300,鹿寮,2023-04-12,23.386047,120.477331,0.64740676
C0X310,七股,2023-04-12,23.147289,120.086253,0.79472524
C0X320,柳營,2023-04-12,23.253328,120.375253,0.9065347
C0Z020,明里,2023-04-12,23.208717,121.262342,0.8254258
C0Z061,玉里,2023-04-12,23.3215,121.339656,0.90643615
C0Z070,舞鶴,2023-04-12,23.46811,121.37407,0.5884203
C0Z080,富源,2023-04-12,23.587642,121.378225,0.3602392
C0Z100,東華,2023-04-12,23.89525,121.549833,0.35737753
C0Z150,吉安光華,2023-04-12,23.930925,121.595153,0.5841135
C0Z160,鳳林,2023-04-12,23.746114,121.453411,0.35990652
C0Z170,卓溪,2023-04-12,23.3443,121.3029,0.88534224
C0Z180,新城,2023-04-12,24.03946,121.60454,0.634385
C0Z190,富世,2023-04-12,24.14743,121.6297,0.6625257
C0Z200,萬榮,2023-04-12,23.709219,121.420106,0.53797126
C0Z210,瑞穗,2023-04-12,23.5239,121.39021,0.60060835
C0Z230,和平,2023-04-12,24.30717,121.77007,0.59065956
C0Z270,蕃薯寮,2023-04-12,23.73835,121.540108,0.8297457
C0Z280,德武,2023-04-12,23.47426,121.41071,0.6543882
C0Z300,東里,2023-04-12,23.26853,121.30547,0.9045182
C0Z310,清水斷崖,2023-04-12,24.218294,121.689142,0.6838019
C0Z330,安通山,2023-04-12,23.290728,121.348528,0.86512405
CAA010,國一N013K,2023-04-12,25.06944,121.6281,0.51828337
CAA020,國一S026K,2023-04-12,25.07639,121.4964,0.36625966
CAA030,國三S010K,2023-04-12,25.08,121.6475,0.31869546
CAA040,國三S016K,2023-04-12,25.03306,121.6158,0.3519757
CAA050,國三S037K,2023-04-12,24.9828,121.471,0.36207026
CAA060,國三S042K,2023-04-12,24.96,121.4306,0.3556556
CAA070,國三N046K,2023-04-12,24.95083,121.3958,0.29455987
CAA080,國三S054K,2023-04-12,24.93917,121.3239,0.32687575
CAA090,國三A005K,2023-04-12,25.00194,121.5975,0.53819215
CAAH60,大安森林,2023-04-12,25.02955,121.53628,0.40556306
CAB010,國一S001K,2023-04-12,25.11583,121.7286,0.7639848
CAB020,國一S006K,2023-04-12,25.08694,121.6869,0.69438916
CAB030,國三S004K,2023-04-12,25.11444,121.6886,0.2712354
CAB040,國三S007K,2023-04-12,25.09694,121.6678,0.51481026
CAB050,國三K002K,2023-04-12,25.14583,121.7217,0.6152887
CAC010,國一S072K,2023-04-12,24.89583,121.1342,0.11806687
CAC020,國二E009K,2023-04-12,25.02111,121.2736,0.3067754
CAC030,國三N063K,2023-04-12,24.889,121.26,0.29158357
CAC050,西濱S023K,2023-04-12,25.11649,121.27551,0.21948491
CAC060,西濱S032K,2023-04-12,25.091966,121.192505,0.16927294
CAD010,國一S105K,2023-04-12,24.726316,120.940643,0.44015667
CAD020,國一N077K,2023-04-12,24.885,121.0889,0.21589106
CAD030,國一S082K,2023-04-12,24.87667,121.0467,0.4831837
CAD040,國一S088K,2023-04-12,24.84444,121.0214,0.4958851
CAD050,國一N094K,2023-04-12,24.79778,121.0089,0.43110865
CAD060,國一S098K,2023-04-12,24.76056,120.9911,0.44782943
CAD070,國三N076K,2023-04-12,24.800303,121.195739,0.34091923
CAD080,國三N085K,2023-04-12,24.78333,121.1211,0.45105147
CAD090,國三S103K,2023-04-12,24.75861,120.9608,0.2981392
CAD100,西濱N066K,2023-04-12,24.8956,120.9649,0.44173482
CAD110,西濱S082K,2023-04-12,24.751724,120.905028,0.43917266
CAE010,國一N142K,2023-04-12,24.453119,120.783221,0.46076795
CAE020,國一S114K,2023-04-12,24.668835,120.885811,0.38545072
CAE030,國一S123K,2023-04-12,24.59594,120.86071,0.71683687
CAE040,國一S132K,2023-04-12,24.524506,120.820831,0.7032769
CAE050,國一S152K,2023-04-12,24.375492,120.749184,0.6388427
CAE060,國三N119K,2023-04-12,24.675432,120.847389,0.6439789
CAE070,國三N151K,2023-04-12,24.440218,120.681656,0.87629694
CAE080,國三S140K,2023-04-12,24.522345,120.725006,0.8330563
CAE090,國三S156K,2023-04-12,24.39798,120.669487,0.79268956
CAE100,西濱N107K,2023-04-12,24.5958,120.7394,0.78678817
CAE110,西濱S129K,2023-04-12,24.4472,120.6428,0.87378734
CAF010,國一N174K,2023-04-12,24.2049,120.6552,0.80709183
CAF020,國一S162K,2023-04-12,24.295534,120.695976,0.5266851
CAF030,國一S169K,2023-04-12,24.237116,120.688271,0.5173298
CAF040,國一S188K,2023-04-12,24.118546,120.585747,0.71500254
CAF050,國三N208K,2023-04-12,24.066147,120.660919,0.79869634
CAF060,國三S168K,2023-04-12,24.308519,120.614471,0.8826951
CAF070,國三S173K,2023-04-12,24.27397,120.593079,0.831958
CAF080,國三S178K,2023-04-12,24.226721,120.589058,0.84865427
CAF090,國四E5K,2023-04-12,24.296465,120.643135,0.85939056
CAF100,西濱N151K,2023-04-12,24.275964,120.547681,0.87422085
CAG010,國一N198K,2023-04-12,24.063889,120.523056,0.70036554
CAG030,國一S207K,2023-04-12,23.988304,120.508092,0.74995404
CAG040,國三N191K,2023-04-12,24.139256,120.5215,0.8539381
CAG050,國三N196K,2023-04-12,24.107155,120.554482,0.7124112
CAG060,國三S202K,2023-04-12,24.092468,120.603256,0.7353723
CAG070,西濱S173K,2023-04-12,24.1081,120.434576,0.59283674
CAG080,西濱S189K,2023-04-12,23.987857,120.369607,0.7409057
CAG090,西濱N210K,2023-04-12,23.843536,120.293236,0.83344483
CAG100,王功漁港,2023-04-12,23.96824,120.32586,0.7546743
CAH010,國三N223K,2023-04-12,23.955116,120.662376,0.68921894
CAH020,國三S217K,2023-04-12,24.00683,120.653214,0.8737904
CAH030,茶改場竹圍站,2023-04-12,23.860083,120.637528,0.53531444
CAHA00,消防署訓練中心,2023-04-12,23.82137,120.72293,0.6755094
CAJ010,國三N252K,2023-04-12,23.77412,120.64061,0.6895603
CAJ020,國一N234K,2023-04-12,23.74633,120.467926,0.6678813
CAJ030,西濱N222K,2023-04-12,23.737734,120.256132,0.8612664
CAJ040,西濱S241K,2023-04-12,23.623426,120.172646,0.8310054
CAJ050,海口故事園區,2023-04-12,23.57543,120.14121,0.7947962
CAL010,國一N250K,2023-04-12,23.610292,120.436867,0.89727706
CAL020,國一S262K,2023-04-12,23.512333,120.403038,0.90886
CAL030,國一N268K,2023-04-12,23.460833,120.375833,0.91753453
CAL040,國一N273K,2023-04-12,23.416666,120.355,0.9087135
CAL050,國三N279K,2023-04-12,23.596111,120.523333,0.6545655
CAL060,國三S286K,2023-04-12,23.533917,120.484583,0.6584821
CAL070,國三N295K,2023-04-12,23.468598,120.499369,0.66670513
CAL080,國三N303K,2023-04-12,23.428611,120.452416,0.9102829
CAL090,西濱S257K,2023-04-12,23.502278,120.171861,0.8582395
CAL100,西濱S267K,2023-04-12,23.41613,120.162872,0.8702607
CAL110,布袋國中,2023-04-12,23.35893,120.18026,0.83668876
CAN010,國一N288K,2023-04-12,23.30609,120.290033,0.8478809
CAN020,國一S306K,2023-04-12,23.1565,120.239513,0.80959815
CAN030,國一N316K,2023-04-12,23.07309,120.253014,0.6976817
CAN040,國一N323K,2023-04-12,23.00421,120.245922,0.6700893
CAN050,國一N335K,2023-04-12,22.897584,120.269895,0.6139786
CAN060,國三S311K,2023-04-12,23.346388,120.438888,0.9142916
CAN070,國三S329K,2023-04-12,23.212777,120.355833,0.85271734
CAN080,國三N336K,2023-04-12,23.154722,120.345,0.8580692
CAN090,國三S342K,2023-04-12,23.106694,120.327528,0.71154374
CAN100,國三S366K,2023-04-12,22.9077,120.3513,0.7545718
CAN110,西濱S280K,2023-04-12,23.3052,120.14891,0.74508435
CAN120,西濱N304K,2023-04-12,23.103439,120.086694,0.75242794
CAN130,水試所海水繁養殖中心,2023-04-12,23.120802,120.07968,0.7445479
CAN140,六官養殖協會,2023-04-12,23.22881,120.29962,0.82594925
CAP010,國一S342K,2023-04-12,22.845555,120.295,0.5243817
CAP020,國一S346K,2023-04-12,22.812222,120.314166,0.52894443
CAP030,國一N351K,2023-04-12,22.765833,120.328888,0.5269588
CAP040,國一N361K,2023-04-12,22.680555,120.328611,0.4373303
CAP050,國三N372K,2023-04-12,22.858611,120.373611,0.73071235
CAP060,國三S385K,2023-04-12,22.767777,120.444444,0.3304301
CAP070,高雄燈塔,2023-04-12,22.6146,120.2647,0.50929344
CAQ010,國三N425K,2023-04-12,22.480277,120.531666,0.68702334
CAQ020,國三S415K,2023-04-12,22.568,120.528,0.40242627
CAQ030,崎峰國小,2023-04-12,22.42565,120.49521,0.6901618
E2K600,四湖植物園,2023-04-12,23.676986,120.163433,0.8348474
E2P980,林試六龜中心,2023-04-12,22.991703,120.645722,0.4342481
E2S390,太麻里分所,2023-04-12,22.5988,120.9811,0.104399055
E2S960,林試太麻里2,2023-04-12,22.598014,120.989761,0.09270986
E2S980,林試太麻里1,2023-04-12,22.598922,120.980044,0.104399055
G2AI50,關渡,2023-04-12,25.11575,121.492,0.379445
G2F820,農試所(霧峰),2023-04-12,24.031261,120.688133,0.8847628
G2L020,嘉義分所,2023-04-12,23.485028,120.473806,0.66028535
G2M350,溪口農場,2023-04-12,23.58565,120.408111,0.89352995
G2P820,鳳山園試所,2023-04-12,22.646611,120.356083,0.52285594
K2E360,苗栗農改場,2023-04-12,24.495722,120.829111,0.74571747
K2E710,大湖分場,2023-04-12,24.422861,120.871833,0.46450514
K2F750,種苗改良場,2023-04-12,24.225972,120.800917,0.21239252
U2HA50,臺大竹山,2023-04-12,23.756972,120.681556,0.6853076
V2C250,八德合作社,2023-04-12,24.93775,121.266389,0.3688835
V2C260,八德蔬果,2023-04-12,24.978508,121.281819,0.2513623
V2K610,大庄合作社,2023-04-12,23.8068,120.367939,0.855399
V2K620,麥寮合作社,2023-04-12,23.753836,120.294783,0.8555389
