站號,站名,日期,lat,lon,BlastGRU-TW
466881,新北,2023-08-07,24.9593,121.52,0.027012536
466900,淡水,2023-08-07,25.164889,121.448906,0.031948227
466920,臺北,2023-08-07,25.037658,121.514853,0.026531419
467441,高雄,2023-08-07,22.7304,120.3125,0.008703503
467480,嘉義,2023-08-07,23.495925,120.432906,0.03170369
467490,臺中,2023-08-07,24.145736,120.684075,0.9988473
C0A530,坪林,2023-08-07,24.938183,121.70975,0.9519629
C0A540,四堵,2023-08-07,24.8926,121.745736,0.18876536
C0A550,泰平,2023-08-07,24.971197,121.823711,0.9869215
C0A890,雙溪,2023-08-07,25.036003,121.864242,0.041276734
C0A920,富貴角,2023-08-07,25.263783,121.565258,0.05076175
C0A931,三和,2023-08-07,25.233153,121.595236,0.35449767
C0AC70,信義,2023-08-07,25.037822,121.564597,0.026531419
C0AC80,文山,2023-08-07,25.00235,121.575728,0.027767926
C0ACA0,新莊,2023-08-07,25.051478,121.446756,0.034329575
C0AH50,林口,2023-08-07,25.072181,121.38084,0.073323876
C0AH70,松山,2023-08-07,25.04871,121.55042,0.026531419
C0AH80,深坑,2023-08-07,25.002703,121.628328,0.027767926
C0AJ60,六塊厝,2023-08-07,25.24,121.4481,0.03167907
C0AJ70,田寮,2023-08-07,25.2698,121.4886,0.044897065
