站號,站名,日期,lat,lon,BlastGRU-TW
466881,新北,2023-01-25,24.9593,121.52,0.0022905467
466900,淡水,2023-01-25,25.164889,121.448906,0.001419414
466920,臺北,2023-01-25,25.037658,121.514853,0.0025136136
466940,基隆,2023-01-25,25.133314,121.740475,0.0024637815
466990,花蓮,2023-01-25,23.975128,121.613275,0.79632306
467050,新屋,2023-01-25,25.006744,121.047486,0.0018283442
467080,宜蘭,2023-01-25,24.763975,121.756528,0.0070812986
467270,田中,2023-01-25,23.873803,120.581286,0.007477105
467300,東吉島,2023-01-25,23.25695,119.667467,0.0009716105
467350,澎湖,2023-01-25,23.565503,119.563094,0.00077123736
467410,臺南,2023-01-25,22.993239,120.204772,0.18091223
467420,永康,2023-01-25,23.038386,120.2367,0.19900271
467441,高雄,2023-01-25,22.7304,120.3125,0.43762794
467480,嘉義,2023-01-25,23.495925,120.432906,0.0021044773
467490,臺中,2023-01-25,24.145736,120.684075,0.0010697392
467540,大武,2023-01-25,22.355675,120.903789,0.027137196
467571,新竹,2023-01-25,24.827853,121.014219,0.0012503541
467590,恆春,2023-01-25,22.003897,120.746339,2.4417157e-05
467610,成功,2023-01-25,23.097486,121.373428,0.44632158
467620,蘭嶼,2023-01-25,22.036969,121.558339,1.0800067e-05
467660,臺東,2023-01-25,22.752211,121.154586,0.47144067
467790,墾丁雷達站,2023-01-25,21.948235,120.808028,1.8833776e-05
C0A520,山佳,2023-01-25,24.974944,121.402008,0.0016008844
C0A530,坪林,2023-01-25,24.938183,121.70975,0.0027510095
C0A540,四堵,2023-01-25,24.8926,121.745736,0.0014274089
C0A550,泰平,2023-01-25,24.971197,121.823711,0.0028938763
C0A560,福山,2023-01-25,24.776203,121.502811,0.007488147
C0A570,桶後,2023-01-25,24.848222,121.597992,0.0022411146
C0A640,石碇,2023-01-25,24.993969,121.662917,0.0019271567
C0A650,火燒寮,2023-01-25,25.002719,121.742892,0.0016112024
C0A660,瑞芳,2023-01-25,25.113169,121.801147,0.0027992602
C0A770,科教館,2023-01-25,25.096356,121.516507,0.0018182998
C0A860,大坪,2023-01-25,25.165914,121.632969,0.0008969979
C0A880,福隆,2023-01-25,25.017842,121.942083,0.004842546
C0A890,雙溪,2023-01-25,25.036003,121.864242,0.0019267999
C0A920,富貴角,2023-01-25,25.263783,121.565258,0.0009189914
C0A931,三和,2023-01-25,25.233153,121.595236,0.0015123796
C0A940,金山,2023-01-25,25.223628,121.643967,0.0010936613
C0A950,鼻頭角,2023-01-25,25.129036,121.923372,0.005160554
C0A970,三貂角,2023-01-25,25.007606,122.002058,0.0030386946
C0A980,社子,2023-01-25,25.109508,121.469681,0.0019002978
C0A9C0,天母,2023-01-25,25.117494,121.537169,0.0016688013
C0A9F0,內湖,2023-01-25,25.079422,121.57545,0.0025136136
C0AC60,三峽,2023-01-25,24.939025,121.369728,0.002122963
C0AC70,信義,2023-01-25,25.037822,121.564597,0.0025136136
C0AC80,文山,2023-01-25,25.00235,121.575728,0.0019497472
C0ACA0,新莊,2023-01-25,25.051478,121.446756,0.0015981467
C0AD00,三芝,2023-01-25,25.258131,121.501917,0.00094730133
C0AD10,八里,2023-01-25,25.150211,121.403947,0.001419414
C0AD30,蘆洲,2023-01-25,25.086594,121.472331,0.0018182998
C0AD40,土城,2023-01-25,24.973208,121.445169,0.0017406738
C0AD50,鶯歌,2023-01-25,24.951533,121.346294,0.0012167211
C0AG80,中和,2023-01-25,24.991622,121.491792,0.0025136136
C0AH00,汐止,2023-01-25,25.066881,121.658778,0.0023491774
C0AH10,永和,2023-01-25,25.01125,121.508111,0.0026289432
C0AH40,平等,2023-01-25,25.129142,121.577086,0.0011538804
C0AH50,林口,2023-01-25,25.072181,121.38084,0.0015007027
C0AH70,松山,2023-01-25,25.04871,121.55042,0.0025136136
C0AH80,深坑,2023-01-25,25.002703,121.628328,0.0019497472
C0AI00,五股,2023-01-25,25.07445,121.42728,0.00076220237
C0AI10,屈尺,2023-01-25,24.92184,121.54475,0.0019497472
C0AI20,白沙灣,2023-01-25,25.283128,121.519058,0.0011876628
C0AI30,三重,2023-01-25,25.057328,121.500629,0.0018182998
C0AI40,石牌,2023-01-25,25.115597,121.513139,0.0017406738
C0AJ20,野柳,2023-01-25,25.20703,121.690021,0.0023491774
C0AJ30,淡水觀海,2023-01-25,25.184591,121.408616,0.0014808273
C0AJ40,石門,2023-01-25,25.273672,121.601198,0.0006910408
C0AJ50,水湳洞,2023-01-25,25.123695,121.862238,0.0023491774
C0AJ60,六塊厝,2023-01-25,25.24,121.4481,0.0014808273
C0AJ70,田寮,2023-01-25,25.2698,121.4886,0.0012402892
C0AJ80,板橋,2023-01-25,25.0107,121.4489,0.0017406738
C0AJ90,澳底,2023-01-25,25.0552,121.9253,0.004842546
C0B010,七堵,2023-01-25,25.094819,121.71713,0.002123624
C0B020,基隆嶼,2023-01-25,25.19141,121.78391,0.0023491774
C0B040,大武崙,2023-01-25,25.166676,121.706993,0.002123624
C0B050,八斗子,2023-01-25,25.144754,121.79167,0.002608553
C0B060,暖暖,2023-01-25,25.0957,121.7403,0.0016366271
C0C460,復興,2023-01-25,24.820208,121.352281,0.0019589814
C0C480,桃園,2023-01-25,24.992425,121.323172,0.0009592866
C0C490,八德,2023-01-25,24.928708,121.283289,0.0019456123
C0C590,觀音,2023-01-25,25.027072,121.153317,0.001051687
C0C620,蘆竹,2023-01-25,25.084275,121.265767,0.0013098508
C0C630,大溪,2023-01-25,24.882853,121.265547,0.0015244002
C0C650,平鎮,2023-01-25,24.897503,121.214636,0.00082988176
C0C660,楊梅,2023-01-25,24.912375,121.143047,0.0007245627
C0C670,龍潭,2023-01-25,24.870056,121.221389,0.0007203498
C0C680,龜山,2023-01-25,25.02846,121.38656,0.0021513954
C0C700,中壢,2023-01-25,24.977661,121.256375,0.0008764559
C0C710,大溪永福,2023-01-25,24.892936,121.324975,0.00074978365
C0C720,竹圍,2023-01-25,25.112692,121.239824,0.001419414
C0C730,中大臨海站,2023-01-25,24.966126,121.008581,0.0020808093
C0C740,觀音工業區,2023-01-25,25.064764,121.114856,0.0007902331
C0C750,新興坑尾,2023-01-25,25.0061,121.0971,0.0006633363
C0D430,峨眉,2023-01-25,24.6905,121.017189,0.0015036295
C0D480,打鐵坑,2023-01-25,24.849664,121.150789,0.0010382195
C0D540,橫山,2023-01-25,24.71116,121.11693,0.00088208594
C0D560,竹東,2023-01-25,24.767147,121.057881,0.0012911224
C0D580,寶山,2023-01-25,24.735006,121.025192,0.001229981
C0D590,新豐,2023-01-25,24.87068,120.97721,0.0015820656
C0D650,湖口,2023-01-25,24.904794,121.043628,0.0013972571
C0D660,新竹市東區,2023-01-25,24.798681,120.986942,0.0011654177
C0D670,海天一線,2023-01-25,24.831986,120.914438,0.0013337295
C0D680,香山濕地,2023-01-25,24.783581,120.914988,0.001288801
C0D690,外湖,2023-01-25,24.917735,120.968711,0.0020808093
C0D700,關西,2023-01-25,24.7977,121.1732,0.0010197485
C0E420,竹南,2023-01-25,24.708978,120.888897,0.0011618038
C0E430,南庄,2023-01-25,24.601775,121.000214,0.0011890156
C0E520,大湖,2023-01-25,24.41494,120.87087,0.0007267558
C0E540,後龍,2023-01-25,24.606489,120.783933,0.0008214309
C0E550,明德,2023-01-25,24.583486,120.885411,0.0009728026
C0E590,通霄,2023-01-25,24.471892,120.704622,0.0008511393
C0E730,頭份,2023-01-25,24.688247,120.912206,0.0011618038
C0E740,造橋,2023-01-25,24.637056,120.864778,0.0011576451
C0E750,苗栗,2023-01-25,24.564569,120.824575,0.0007544711
C0E780,銅鑼,2023-01-25,24.489681,120.790853,0.0012217626
C0E791,卓蘭,2023-01-25,24.3126,120.8244,0.001622492
C0E810,西湖,2023-01-25,24.562947,120.7485,0.0007773472
C0E820,獅潭,2023-01-25,24.539133,120.920042,0.0011809084
C0E830,苑裡,2023-01-25,24.439714,120.653053,0.00094550464
C0E850,大河,2023-01-25,24.618069,120.948578,0.00092027156
C0E870,高鐵苗栗,2023-01-25,24.60725,120.826094,0.00080210314
C0E910,海埔,2023-01-25,24.648767,120.772435,0.0013179134
C0E920,通霄漁港,2023-01-25,24.498589,120.673876,0.00093297503
C0E930,龍鳳,2023-01-25,24.700034,120.859125,0.0012867238
C0F0B0,石岡,2023-01-25,24.276061,120.777644,0.0024850767
C0F850,東勢,2023-01-25,24.246428,120.833047,0.0016186084
C0F930,大甲,2023-01-25,24.347667,120.640403,0.0009017848
C0F970,大坑,2023-01-25,24.173142,120.722289,0.00091857073
C0F9A0,中竹林,2023-01-25,24.103556,120.751061,0.0018346477
C0F9I0,神岡,2023-01-25,24.272481,120.658314,0.0010038485
C0F9K0,大安,2023-01-25,24.345061,120.588025,0.0010814427
C0F9L0,后里,2023-01-25,24.310436,120.729725,0.0008457208
C0F9M0,豐原,2023-01-25,24.254322,120.720692,0.0009170876
C0F9N0,大里,2023-01-25,24.092464,120.701378,0.0012175657
C0F9O0,潭子,2023-01-25,24.213106,120.703933,0.0011456482
C0F9P0,清水,2023-01-25,24.312297,120.562242,0.0011326203
C0F9Q0,外埔,2023-01-25,24.347817,120.705686,0.0011437313
C0F9R0,龍井,2023-01-25,24.184536,120.528972,0.0010760546
C0F9S0,烏日,2023-01-25,24.107058,120.624103,0.0042694486
C0F9T0,西屯,2023-01-25,24.179494,120.641275,0.00097057276
C0F9U0,南屯,2023-01-25,24.137006,120.637969,0.0012175657
C0F9X0,大雅(中科園區),2023-01-25,24.21528,120.62445,0.00084738893
C0FA10,松柏,2023-01-25,24.429115,120.617482,0.0010043035
C0FA20,溫寮,2023-01-25,24.372177,120.583125,0.0010043024
C0FA30,梧棲,2023-01-25,24.256003,120.523381,0.0010760546
C0FA40,臺中電廠,2023-01-25,24.2146,120.4907,0.0010760546
C0FA50,霧峰,2023-01-25,24.0419,120.6995,0.0012190684
C0G620,芬園,2023-01-25,24.015678,120.6213,0.0028712691
C0G640,鹿港,2023-01-25,24.0753,120.430481,0.0032219375
C0G650,員林,2023-01-25,23.946503,120.585597,0.0038605772
C0G660,溪湖,2023-01-25,23.94835,120.479122,0.0042065955
C0G720,溪州,2023-01-25,23.851589,120.499093,0.007852991
C0G730,二林,2023-01-25,23.903325,120.376081,0.0035495327
C0G740,大城,2023-01-25,23.852487,120.320935,0.0016788042
C0G770,福興,2023-01-25,24.041289,120.437669,0.0032219375
C0G780,秀水,2023-01-25,24.03405,120.503869,0.0041233846
C0G800,埔鹽,2023-01-25,24.000394,120.431683,0.0032219375
C0G810,埔心,2023-01-25,23.947633,120.525456,0.003991848
C0G820,田尾,2023-01-25,23.901669,120.509389,0.0037764485
C0G830,埤頭,2023-01-25,23.866003,120.452806,0.008909603
C0G840,北斗,2023-01-25,23.877586,120.514222,0.0037764485
C0G860,社頭,2023-01-25,23.897647,120.5862,0.0036754431
C0G870,芳苑,2023-01-25,23.922303,120.320025,0.0017378588
C0G880,二水,2023-01-25,23.810742,120.6173,0.005365268
C0G890,伸港,2023-01-25,24.148933,120.484403,0.0012069932
C0G900,線西,2023-01-25,24.143358,120.443536,0.0011471459
C0G910,花壇,2023-01-25,24.032076,120.549461,0.0036967585
C0G920,永靖,2023-01-25,23.924703,120.547533,0.0037764485
C0G940,竹塘,2023-01-25,23.848253,120.386764,0.012004516
C0G950,防潮門,2023-01-25,24.1835,120.4871,0.0011025103
C0G960,福寶,2023-01-25,24.0443,120.3814,0.0033852712
C0G970,三豐,2023-01-25,23.882,120.2895,0.0017378588
C0H890,埔里,2023-01-25,23.972169,120.952425,0.005176755
C0H950,中寮,2023-01-25,23.884447,120.766406,0.0027088223
C0H960,草屯,2023-01-25,23.973672,120.68085,0.005999005
C0I110,竹山,2023-01-25,23.761225,120.688156,0.003341222
C0I360,水里,2023-01-25,23.812553,120.849792,0.0031835323
C0I380,集集,2023-01-25,23.828206,120.801467,0.0034607796
C0I410,名間,2023-01-25,23.837053,120.701447,0.0064141667
C0I420,國姓,2023-01-25,24.037803,120.855072,0.0033062857
C0I460,南投,2023-01-25,23.911469,120.687331,0.0048180358
C0K250,崙背,2023-01-25,23.75555,120.318925,0.0018882165
C0K280,四湖,2023-01-25,23.630414,120.227125,0.002113659
C0K291,宜梧,2023-01-25,23.536281,120.169329,0.010605356
C0K330,虎尾,2023-01-25,23.719183,120.442036,0.017997626
C0K390,土庫,2023-01-25,23.679029,120.395574,0.019266615
C0K400,斗六,2023-01-25,23.720583,120.541127,0.010549663
C0K410,北港,2023-01-25,23.573957,120.292802,0.010356074
C0K420,西螺,2023-01-25,23.800407,120.467394,0.008271199
C0K430,褒忠,2023-01-25,23.690938,120.303634,0.0024554878
C0K440,二崙,2023-01-25,23.772797,120.408944,0.011253434
C0K450,大埤,2023-01-25,23.646074,120.431537,0.01829868
C0K460,斗南,2023-01-25,23.678734,120.478359,0.012079053
C0K470,林內,2023-01-25,23.748675,120.609642,0.009651394
C0K480,莿桐,2023-01-25,23.761192,120.502372,0.0077698384
C0K500,元長,2023-01-25,23.64981,120.315024,0.00291361
C0K510,水林,2023-01-25,23.572924,120.24597,0.0060485913
C0K530,臺西,2023-01-25,23.701547,120.197559,0.0018410508
C0K550,蔦松,2023-01-25,23.514319,120.229736,0.009827294
C0K560,棋山,2023-01-25,23.68645,120.603417,0.018522233
C0K580,高鐵雲林,2023-01-25,23.737456,120.417944,0.019266615
C0K590,雲林東勢,2023-01-25,23.674192,120.255721,0.0024554878
C0K600,箔子寮,2023-01-25,23.6197,120.14,0.006492402
C0M410,馬頭山,2023-01-25,23.324361,120.582017,0.007907269
C0M520,東後寮,2023-01-25,23.369908,120.248065,0.03328333
C0M640,中埔,2023-01-25,23.42538,120.5229,0.015534422
C0M650,朴子,2023-01-25,23.43463,120.23902,0.017222025
C0M660,溪口,2023-01-25,23.604131,120.403569,0.0026871343
C0M670,大林,2023-01-25,23.600616,120.45841,0.002538037
C0M680,太保,2023-01-25,23.455062,120.331455,0.013407839
C0M690,水上,2023-01-25,23.419734,120.388909,0.002324989
C0M700,竹崎,2023-01-25,23.526178,120.555508,0.0072497046
C0M710,東石,2023-01-25,23.458927,120.15385,0.009827294
C0M720,番路,2023-01-25,23.464657,120.554156,0.009014902
C0M730,嘉義市東區,2023-01-25,23.457673,120.460531,0.0022705714
C0M740,六腳,2023-01-25,23.492871,120.290625,0.014547776
C0M750,布袋,2023-01-25,23.380878,120.167789,0.017222025
C0M760,民雄,2023-01-25,23.551754,120.428457,0.0024676016
C0M770,嘉義梅山,2023-01-25,23.585398,120.555587,0.01281252
C0M780,鹿草,2023-01-25,23.41134,120.30835,0.013785487
C0M790,新港,2023-01-25,23.553269,120.345728,0.00959767
C0M800,茶山,2023-01-25,23.299075,120.664767,0.01814269
C0M880,好美里,2023-01-25,23.3364,120.138,0.05881965
C0N010,鯤鯓國小,2023-01-25,23.1879,120.0889,0.030692793
C0N020,城西,2023-01-25,23.0568,120.0956,0.112093545
C0N030,四草,2023-01-25,23.0235,120.1116,0.21197881
C0N040,蘆竹溝,2023-01-25,23.2344,120.0961,0.030692793
C0N050,蚵寮,2023-01-25,23.301,120.1104,0.030692793
C0O810,曾文,2023-01-25,23.219681,120.497328,0.0044318275
C0O830,北寮,2023-01-25,23.079561,120.495008,0.025585506
C0O840,王爺宮,2023-01-25,23.222064,120.40085,0.0044318275
C0O860,大內,2023-01-25,23.11885,120.36083,0.037257794
C0O900,善化,2023-01-25,23.112883,120.297219,0.098287925
C0O930,玉井,2023-01-25,23.126042,120.46055,0.00974165
C0O950,安南,2023-01-25,23.076694,120.144861,0.14498901
C0O960,崎頂,2023-01-25,22.959547,120.369317,0.019266592
C0O970,虎頭埤,2023-01-25,23.021375,120.347878,0.062393963
C0O980,新市,2023-01-25,23.061614,120.298197,0.098287925
C0O990,媽廟,2023-01-25,22.99175,120.293525,0.14164765
C0R150,三地門,2023-01-25,22.709889,120.639944,0.58288896
C0R160,鹽埔,2023-01-25,22.739558,120.530778,0.34124362
C0R170,屏東,2023-01-25,22.660269,120.494072,0.46603185
C0R190,赤山,2023-01-25,22.592333,120.614306,0.45257315
C0R220,潮州,2023-01-25,22.534361,120.54,0.18381391
C0R240,來義,2023-01-25,22.527306,120.625111,0.090207495
C0R260,春日,2023-01-25,22.370361,120.628306,0.086200215
C0R270,琉球嶼,2023-01-25,22.332244,120.362236,0.08740248
C0R280,檳榔,2023-01-25,22.076078,120.836777,8.392988e-06
C0R320,車城,2023-01-25,22.0744,120.716247,3.3514872e-05
C0R341,牡丹,2023-01-25,22.130036,120.792639,0.039658166
C0R350,貓鼻頭,2023-01-25,21.921774,120.7358,2.2397877e-05
C0R470,高樹,2023-01-25,22.826389,120.600806,0.5358622
C0R480,長治,2023-01-25,22.693128,120.542622,0.30859247
C0R490,九如,2023-01-25,22.7405,120.490503,0.44558126
C0R520,崁頂,2023-01-25,22.514781,120.506914,0.66907454
C0R540,佳冬,2023-01-25,22.419456,120.552375,0.69630635
C0R550,新埤,2023-01-25,22.467947,120.582894,0.46569687
C0R560,新園,2023-01-25,22.5434,120.461558,0.66907454
C0R570,麟洛,2023-01-25,22.65078,120.52719,0.44558126
C0R580,南州,2023-01-25,22.48591,120.50274,0.69630635
C0R590,里港,2023-01-25,22.77919,120.49459,0.21954247
C0R620,墾雷,2023-01-25,21.900836,120.855269,2.2397877e-05
C0R640,東港,2023-01-25,22.46247,120.44074,0.47766328
C0R650,竹田,2023-01-25,22.58486,120.54344,0.47161293
C0R660,枋寮,2023-01-25,22.367722,120.590647,0.17072725
C0R670,楓港,2023-01-25,22.190131,120.692156,0.05684365
C0R680,佳樂水,2023-01-25,21.993578,120.861633,2.7135546e-05
C0R690,墾丁,2023-01-25,21.966756,120.810269,8.067435e-06
C0R700,枋山,2023-01-25,22.246844,120.661086,0.05684365
C0R710,龍磐,2023-01-25,21.931672,120.838942,1.1577814e-05
C0R720,旭海,2023-01-25,22.205403,120.887614,0.0009033534
C0R730,大坪頂,2023-01-25,22.024633,120.69355,1.1412305e-05
C0R740,獅子,2023-01-25,22.201569,120.70525,0.054891743
C0R760,南仁湖,2023-01-25,22.084681,120.863353,9.419289e-06
C0R770,保力,2023-01-25,22.071122,120.764111,1.49347925e-05
C0R780,滿州,2023-01-25,22.024403,120.839892,2.0362271e-05
C0R790,九棚,2023-01-25,22.14195,120.889281,0.0010585343
C0R800,丹路,2023-01-25,22.204481,120.750989,0.046489757
C0R810,內獅,2023-01-25,22.305064,120.642986,0.07829997
C0R830,高士,2023-01-25,22.121825,120.836781,1.0178925e-05
C0R850,林邊,2023-01-25,22.4634,120.5339,0.66907454
C0R860,鼻頭,2023-01-25,22.1043,120.8979,1.9677393e-05
C0R870,興海,2023-01-25,21.9752,120.8439,2.7135546e-05
C0R880,後壁湖,2023-01-25,21.9457,120.7457,3.7180962e-05
C0R890,山海,2023-01-25,21.9878,120.7091,3.3514872e-05
C0R900,竹坑,2023-01-25,22.1385,120.7022,0.07352317
C0R910,下寮,2023-01-25,22.3929,120.5548,0.69630635
C0R920,塭仔,2023-01-25,22.4169,120.5197,0.7205879
C0R930,萬丹,2023-01-25,22.5885,120.4851,0.47161293
C0R940,加祿堂,2023-01-25,22.3363,120.6217,0.07829997
C0S710,鹿野,2023-01-25,22.917711,121.122994,0.027783196
C0S730,綠島,2023-01-25,22.6672,121.47533,0.29417503
C0S740,池上,2023-01-25,23.119628,121.209469,0.065938786
C0S770,大溪山,2023-01-25,22.478475,120.943325,0.04173935
C0S790,金崙,2023-01-25,22.538122,120.966875,0.2563596
C0S810,東河,2023-01-25,22.972672,121.303986,0.28767687
C0S830,長濱,2023-01-25,23.286817,121.411975,0.027034521
C0S840,南田,2023-01-25,22.279725,120.889208,0.009361483
C0S890,關山,2023-01-25,23.0395,121.175017,0.09318948
C0S900,蘭嶼高中,2023-01-25,22.04909,121.51214,0.0015343826
C0S910,蘭嶼燈塔,2023-01-25,22.081197,121.503117,0.00016235329
C0S920,金峰嘉蘭,2023-01-25,22.594789,120.960825,0.46903905
C0S930,延平,2023-01-25,22.902581,121.084058,0.036799725
C0S940,石寧山,2023-01-25,23.223772,121.406639,0.09520998
C0S950,七塊厝,2023-01-25,22.954453,121.229922,0.021424796
C0S960,香蘭,2023-01-25,22.587569,120.993375,0.36641094
C0S970,加津林,2023-01-25,22.416211,120.926942,0.024834834
C0S990,山豬窟,2023-01-25,22.318619,120.857372,0.0050819097
C0SA00,歷坵,2023-01-25,22.520969,120.89185,0.02159724
C0SA10,檳榔四格山,2023-01-25,22.810031,121.109308,0.011438353
C0SA30,都歷,2023-01-25,23.020333,121.323642,0.34968677
C0SA40,瑞和,2023-01-25,22.974361,121.156697,0.1238887
C0SA60,知本（水試所）,2023-01-25,22.702394,121.082761,0.45324975
C0SA80,土坂,2023-01-25,22.453108,120.887572,0.42654437
C0SA90,達仁林場,2023-01-25,22.264347,120.823972,0.0064948536
C0T870,鯉魚潭,2023-01-25,23.935639,121.508944,0.8401402
C0T900,西林,2023-01-25,23.8119,121.441458,0.81588435
C0T960,光復,2023-01-25,23.660694,121.424964,0.8267981
C0T9A0,月眉山,2023-01-25,23.809928,121.539828,0.3947661
C0T9D0,和中,2023-01-25,24.26676,121.74103,0.9258747
C0T9E0,大坑,2023-01-25,23.880628,121.581981,0.5849842
C0T9F0,水璉,2023-01-25,23.797131,121.542514,0.7173783
C0T9I0,豐濱,2023-01-25,23.583897,121.514806,0.8269512
C0T9M0,靜浦,2023-01-25,23.455167,121.495028,0.8509573
C0T9N0,富里,2023-01-25,23.171639,121.249378,0.014389409
C0U600,礁溪,2023-01-25,24.817539,121.765608,0.006678769
C0U650,玉蘭,2023-01-25,24.675286,121.587061,0.08644478
C0U750,龜山島,2023-01-25,24.841667,121.953133,0.008752365
C0U760,東澳,2023-01-25,24.52196,121.83318,0.067300536
C0U770,南澳,2023-01-25,24.44935,121.81022,0.2210383
C0U780,五結,2023-01-25,24.68637,121.79794,0.01120527
C0U860,頭城,2023-01-25,24.85323,121.8308,0.0070812986
C0U870,大礁溪,2023-01-25,24.791042,121.675047,0.004734872
C0U880,北關,2023-01-25,24.9072,121.8734,0.003955674
C0U890,三星,2023-01-25,24.66812,121.65302,0.0040111067
C0U900,內城,2023-01-25,24.71813,121.68766,0.0056456607
C0U910,冬山,2023-01-25,24.63373,121.7937,0.01120527
C0U940,羅東,2023-01-25,24.68184,121.74934,0.010319179
C0U970,大福,2023-01-25,24.80064,121.81389,0.0075256918
C0U990,員山,2023-01-25,24.74435,121.72247,0.010319188
C0UA00,土場,2023-01-25,24.576533,121.495333,0.008433576
C0UA80,大溪漁港,2023-01-25,24.941801,121.902955,0.006678769
C0UA90,石城,2023-01-25,24.980444,121.951214,0.004712034
C0UB00,淡江大學蘭陽校園,2023-01-25,24.823239,121.730383,0.0053388122
C0UB10,蘇澳,2023-01-25,24.5969,121.8571,0.25899953
C0UB20,壯圍,2023-01-25,24.7359,121.8163,0.012219627
C0V250,甲仙,2023-01-25,23.080106,120.591758,0.007540805
C0V260,月眉,2023-01-25,22.971003,120.539853,0.034903616
C0V310,美濃,2023-01-25,22.898742,120.519153,0.13396156
C0V350,溪埔,2023-01-25,22.738578,120.446797,0.3652813
C0V360,內門,2023-01-25,22.975481,120.466769,0.05227765
C0V370,古亭坑,2023-01-25,22.893178,120.401947,0.07546855
C0V400,阿公店,2023-01-25,22.804194,120.355528,0.24247706
C0V440,鳳山,2023-01-25,22.646653,120.356122,0.3531284
C0V450,鳳森,2023-01-25,22.545064,120.392592,0.21002032
C0V490,新興,2023-01-25,22.627422,120.298803,0.44008386
C0V530,阿蓮,2023-01-25,22.883208,120.327508,0.280413
C0V610,梓官,2023-01-25,22.760558,120.267211,0.31939903
C0V620,永安,2023-01-25,22.82315,120.236856,0.2391254
C0V630,茄萣,2023-01-25,22.906642,120.182608,0.26452163
C0V640,湖內,2023-01-25,22.887139,120.2445,0.24419065
C0V650,彌陀,2023-01-25,22.783806,120.246361,0.2391254
C0V660,岡山,2023-01-25,22.797078,120.294958,0.31939903
C0V680,仁武,2023-01-25,22.701083,120.347722,0.39989808
C0V690,鼓山,2023-01-25,22.623325,120.275575,0.44008386
C0V700,三民,2023-01-25,22.645017,120.311233,0.44008386
C0V710,苓雅,2023-01-25,22.622742,120.330669,0.4400834
C0V720,林園,2023-01-25,22.507747,120.394511,0.44008386
C0V730,大寮,2023-01-25,22.605614,120.395717,0.20981914
C0V740,旗山,2023-01-25,22.888614,120.483597,0.122736216
C0V750,路竹,2023-01-25,22.854997,120.259439,0.29293388
C0V760,橋頭,2023-01-25,22.757806,120.30575,0.29526132
C0V770,大社,2023-01-25,22.730306,120.346639,0.39989808
C0V790,萬山,2023-01-25,22.905944,120.688056,0.02116037
C0V800,六龜,2023-01-25,22.997889,120.633583,0.056817785
C0V810,左營,2023-01-25,22.67491,120.28491,0.43762794
C0V820,小林,2023-01-25,23.148408,120.63325,0.016241133
C0V840,鳳鼻頭,2023-01-25,22.5083,120.3591,0.47766328
C0V850,蚵仔寮,2023-01-25,22.7256,120.2527,0.4740462
C0V860,南寮,2023-01-25,22.7616,120.2339,0.2597543
C0V870,文安,2023-01-25,22.8025,120.2164,0.2597543
C0V880,興達,2023-01-25,22.8778,120.2127,0.26452163
C0V890,前鎮,2023-01-25,22.5718,120.3117,0.47766328
C0V900,汕尾,2023-01-25,22.4782,120.4151,0.5886255
C0X050,東河,2023-01-25,23.296598,120.385608,0.008572038
C0X060,下營,2023-01-25,23.22695,120.256261,0.03864899
C0X080,佳里,2023-01-25,23.173039,120.145086,0.05881965
C0X100,臺南市北區,2023-01-25,23.010394,120.194228,0.2152059
C0X110,臺南市南區,2023-01-25,22.961189,120.188378,0.19900271
C0X120,麻豆,2023-01-25,23.183289,120.248611,0.05296754
C0X130,官田,2023-01-25,23.193217,120.315422,0.03195896
C0X140,西港,2023-01-25,23.125608,120.203108,0.081967965
C0X150,安定,2023-01-25,23.102614,120.227839,0.10879209
C0X160,仁德,2023-01-25,22.968258,120.257689,0.16065805
C0X170,關廟,2023-01-25,22.963017,120.327797,0.10649048
C0X180,山上,2023-01-25,23.0757,120.363253,0.017985309
C0X190,安平,2023-01-25,22.993161,120.152181,0.2152059
C0X200,左鎮,2023-01-25,23.056758,120.408522,0.019618914
C0X210,白河,2023-01-25,23.347466,120.414427,0.008027073
C0X220,學甲,2023-01-25,23.230367,120.182187,0.05296754
C0X230,鹽水,2023-01-25,23.272621,120.247641,0.03922557
C0X240,關子嶺,2023-01-25,23.331169,120.508025,0.004105306
C0X250,新營,2023-01-25,23.310689,120.316681,0.032735486
C0X260,後壁,2023-01-25,23.366358,120.362326,0.013368602
C0X280,將軍,2023-01-25,23.214999,120.13577,0.05881965
C0X290,北門,2023-01-25,23.267772,120.125481,0.05881965
C0X300,鹿寮,2023-01-25,23.386047,120.477331,0.014746887
C0X310,七股,2023-01-25,23.147289,120.086253,0.066602714
C0X320,柳營,2023-01-25,23.253328,120.375253,0.008572038
C0Z020,明里,2023-01-25,23.208717,121.262342,0.036318827
C0Z061,玉里,2023-01-25,23.3215,121.339656,0.1326691
C0Z070,舞鶴,2023-01-25,23.46811,121.37407,0.79928464
C0Z080,富源,2023-01-25,23.587642,121.378225,0.78446424
C0Z100,東華,2023-01-25,23.89525,121.549833,0.8732536
C0Z150,吉安光華,2023-01-25,23.930925,121.595153,0.87610793
C0Z160,鳳林,2023-01-25,23.746114,121.453411,0.8350797
C0Z170,卓溪,2023-01-25,23.3443,121.3029,0.09567128
C0Z180,新城,2023-01-25,24.03946,121.60454,0.7844395
C0Z190,富世,2023-01-25,24.14743,121.6297,0.7258932
C0Z200,萬榮,2023-01-25,23.709219,121.420106,0.8401402
C0Z210,瑞穗,2023-01-25,23.5239,121.39021,0.8380096
C0Z230,和平,2023-01-25,24.30717,121.77007,0.9258747
C0Z270,蕃薯寮,2023-01-25,23.73835,121.540108,0.82491666
C0Z280,德武,2023-01-25,23.47426,121.41071,0.8292344
C0Z300,東里,2023-01-25,23.26853,121.30547,0.1127746
C0Z310,清水斷崖,2023-01-25,24.218294,121.689142,0.8841592
C0Z330,安通山,2023-01-25,23.290728,121.348528,0.018716376
