站號,站名,日期,lat,lon,BLBTSLS
C0R710,龍磐,2023-04-05,21.931672,120.838942,0.011448386
C1F9D1,白毛台,2023-04-05,24.158325,120.886933,1.0259361e-09
C0G940,竹塘,2023-04-05,23.848253,120.386764,1.3103845e-08
467590,恆春,2023-04-05,22.003897,120.746339,0.56263083
C1O850,環湖,2023-04-05,23.148617,120.418633,2.5801376e-07
C0U710,太平山,2023-04-05,24.505486,121.525656,2.9180704e-08
C0E820,獅潭,2023-04-05,24.539133,120.920042,3.2015805e-08
C0V880,興達,2023-04-05,22.8778,120.2127,3.4417506e-06
C0S890,關山,2023-04-05,23.0395,121.175017,5.62391e-09
K2F750,種苗繁殖,2023-04-05,24.225972,120.800917,4.0915014e-09
C1Z130,銅門,2023-04-05,23.965694,121.492842,3.0404774e-08
C0AD40,土城,2023-04-05,24.973208,121.445169,1.9915877e-08
CAN140,六官養殖協會,2023-04-05,23.22881,120.29962,3.0010208e-09
C0X180,山上,2023-04-05,23.0757,120.363253,7.725929e-08
C0F9Z0,雪山東峰,2023-04-05,24.388792,121.268675,2.579219e-08
C1M480,獨立山,2023-04-05,23.537022,120.607797,5.5619925e-10
C0X220,學甲,2023-04-05,23.230367,120.182187,8.994288e-09
C0R170,屏東,2023-04-05,22.660269,120.494072,0.9984824
467650,日月潭,2023-04-05,23.881325,120.90805,2.468855e-09
C0K600,箔子寮,2023-04-05,23.6197,120.14,9.799572e-05
C0G830,埤頭,2023-04-05,23.866003,120.452806,3.521562e-09
C0S950,七塊厝,2023-04-05,22.954453,121.229922,2.6322964e-09
467110,金門,2023-04-05,24.407306,118.289281,0.00014387783
C0AH80,深坑,2023-04-05,25.002703,121.628328,1.8504709e-08
467990,馬祖,2023-04-05,26.169269,119.923419,1.3727334e-05
C0A970,三貂角,2023-04-05,25.007606,122.002058,2.9406863e-07
C0K430,褒忠,2023-04-05,23.690938,120.303634,6.0333787e-09
467480,嘉義,2023-04-05,23.495925,120.432906,1.0222853e-09
C2E540,後龍,2023-04-05,24.606489,120.783933,3.2622465e-05
C0V400,阿公店,2023-04-05,22.804194,120.355528,0.21337695
C0R440,大漢山,2023-04-05,22.405264,120.753181,3.0091025e-09
C0K280,四湖,2023-04-05,23.630414,120.227125,1.5194389e-05
C1F9B1,桐林,2023-04-05,24.066172,120.735194,1.2395491e-09
C0K390,土庫,2023-04-05,23.679029,120.395574,2.9271385e-09
C1I450,望鄉山,2023-04-05,23.594153,120.944286,1.3733865e-08
C0E910,海埔,2023-04-05,24.648767,120.772435,4.384687e-05
B2E890,畜試北區分所,2023-04-05,24.527806,120.770972,1.7358707e-07
C0R750,四林格山,2023-04-05,22.076989,120.802439,0.8689619
C0F0C0,中坑,2023-04-05,24.248517,120.903319,2.8394456e-09
C1I121,大鞍,2023-04-05,23.678381,120.760017,9.204157e-09
72U480,花改蘭陽分場,2023-04-05,24.686306,121.716583,9.232272e-09
C0A770,科教館,2023-04-05,25.096356,121.516507,3.5431572e-08
C0AJ60,六塊厝,2023-04-05,25.24,121.4481,0.0026330336
C0R620,墾雷,2023-04-05,21.900836,120.855269,0.0018593027
467420,永康,2023-04-05,23.038386,120.2367,8.069169e-08
467300,東吉島,2023-04-05,23.25695,119.667467,0.6458953
C0I410,名間,2023-04-05,23.837053,120.701447,1.2221159e-09
A2C560,農工中心,2023-04-05,24.985917,121.239833,5.1098677e-06
C0V740,旗山,2023-04-05,22.888614,120.483597,0.9746247
C0Z061,玉里,2023-04-05,23.3215,121.339656,2.4087873e-08
C0S840,南田,2023-04-05,22.279725,120.889208,0.84001803
C1I470,杉林溪,2023-04-05,23.639517,120.786444,1.0405614e-08
C1X040,東原,2023-04-05,23.291597,120.463822,1.0414013e-08
C0R660,枋寮,2023-04-05,22.367722,120.590647,0.008589631
C1R120,上德文,2023-04-05,22.763272,120.704442,4.4757806e-10
C0K450,大埤,2023-04-05,23.646074,120.431537,8.738917e-10
C0UA00,土場,2023-04-05,24.576533,121.495333,8.528677e-08
467080,宜蘭,2023-04-05,24.763975,121.756528,4.9990905e-09
C0N030,四草,2023-04-05,23.0235,120.1116,1.9047174e-06
C0V650,彌陀,2023-04-05,22.783806,120.246361,0.0014725351
C0D660,新竹市東區,2023-04-05,24.798681,120.986942,3.629531e-07
82S580,茶改東部分場,2023-04-05,22.907694,121.130139,6.601783e-09
C0C710,大溪永福,2023-04-05,24.892936,121.324975,2.1081956e-07
C0FA20,溫寮,2023-04-05,24.372177,120.583125,0.00417658
C0V640,湖內,2023-04-05,22.887139,120.2445,2.4203807e-06
C0R910,下寮,2023-04-05,22.3929,120.5548,0.008590192
C0Z020,明里,2023-04-05,23.208717,121.262342,4.3470497e-08
C0M770,嘉義梅山,2023-04-05,23.585398,120.555587,8.9553903e-10
G2F820,農業試驗所,2023-04-05,24.031261,120.688133,1.8639024e-09
C0C660,楊梅,2023-04-05,24.912375,121.143047,1.4168778e-06
C1E511,新開,2023-04-05,24.347703,120.827019,4.9804276e-09
G2F820,農試所(霧峰),2023-04-05,24.031261,120.688133,1.8639024e-09
C1I070,和社,2023-04-05,23.591131,120.888861,1.3337215e-08
C2F000,大肚,2023-04-05,24.15295,120.572117,1.7319582e-09
C1S850,豐南,2023-04-05,23.122139,121.262389,4.0754413e-09
C2A920,富貴角,2023-04-05,25.263783,121.565258,6.8947743e-06
CAH030,茶改場竹圍站,2023-04-05,23.860083,120.637528,9.357232e-10
C0T960,光復,2023-04-05,23.660694,121.424964,9.6885415e-09
C0F9M0,豐原,2023-04-05,24.254322,120.720692,7.761417e-09
C0R720,旭海,2023-04-05,22.205403,120.887614,0.96695775
C0V710,苓雅,2023-04-05,22.622742,120.330669,0.99777216
C0C740,觀音工業區,2023-04-05,25.064764,121.114856,0.9996838
CAC040,拉拉山,2023-04-05,24.699317,121.427133,2.9589904e-08
C0V790,萬山,2023-04-05,22.905944,120.688056,0.00042568898
U2HA30,臺大和社,2023-04-05,23.590856,120.888864,1.3337215e-08
C0AJ90,澳底,2023-04-05,25.0552,121.9253,5.0795325e-07
C0Z100,東華,2023-04-05,23.89525,121.549833,2.3862066e-08
C0G970,三豐,2023-04-05,23.882,120.2895,0.007970757
V2K610,大庄合作社,2023-04-05,23.8068,120.367939,8.241164e-09
C0V900,汕尾,2023-04-05,22.4782,120.4151,4.6535718e-09
C1R630,龍泉,2023-04-05,22.66701,120.59091,0.99894935
C1AC50,關渡,2023-04-05,25.133486,121.469331,7.923382e-08
C0F9I0,神岡,2023-04-05,24.272481,120.658314,3.2997775e-08
C0K460,斗南,2023-04-05,23.678734,120.478359,8.6490903e-10
467410,臺南,2023-04-05,22.993239,120.204772,7.668487e-07
C2O810,曾文,2023-04-05,23.219681,120.497328,6.4037614e-08
467280,後龍,2023-04-05,24.648563,120.831834,1.9533689e-05
C1F9J1,清水林,2023-04-05,24.071242,120.820419,9.654723e-10
C2A650,火燒寮,2023-04-05,25.002719,121.742892,6.880331e-08
466930,竹子湖,2023-04-05,25.162078,121.544547,3.0458523e-08
C1I220,樟湖,2023-04-05,23.905333,120.846983,1.4465423e-09
C0I390,仁愛,2023-04-05,24.022122,121.132206,3.7940078e-09
C0Z300,東里,2023-04-05,23.26853,121.30547,5.514032e-08
C0V310,美濃,2023-04-05,22.898742,120.519153,0.9797965
C1V590,新發,2023-04-05,23.057019,120.646064,2.495062e-09
C0K510,水林,2023-04-05,23.572924,120.24597,1.3798088e-08
72S590,東改賓朗果園,2023-04-05,22.813889,121.071278,3.1248384e-09
82A750,茶改北部分場,2023-04-05,24.955778,121.631222,3.081274e-08
C1A750,石碇服務區,2023-04-05,25.00872,121.646242,2.836048e-08
C0X300,鹿寮,2023-04-05,23.386047,120.477331,2.3293247e-09
G2AI50,關渡,2023-04-05,25.11575,121.492,1.37092275e-05
C0K590,雲林東勢,2023-04-05,23.674192,120.255721,6.523899e-09
C0A570,桶後,2023-04-05,24.848222,121.597992,1.39507e-08
C1S800,華源,2023-04-05,22.657883,121.02325,0.00013033324
C0G720,溪州,2023-04-05,23.851589,120.499093,3.469684e-09
C1V160,達卡努瓦,2023-04-05,23.279811,120.705319,1.4540581e-09
C2M410,馬頭山,2023-04-05,23.324361,120.582017,3.84402e-09
C0V850,蚵仔寮,2023-04-05,22.7256,120.2527,0.70326215
C0S740,池上,2023-04-05,23.119628,121.209469,6.671966e-08
C1V390,尖山,2023-04-05,22.813153,120.367789,0.04806004
C0AH70,松山,2023-04-05,25.04871,121.55042,3.4905884e-08
C0N010,鯤鯓國小,2023-04-05,23.1879,120.0889,4.536065e-08
C0R550,新埤,2023-04-05,22.467947,120.582894,2.8005367e-09
C0SA60,知本（水試所）,2023-04-05,22.702394,121.082761,0.04998097
C0T9I0,豐濱,2023-04-05,23.583897,121.514806,7.366184e-09
C0UB00,淡江大學蘭陽校園,2023-04-05,24.823239,121.730383,1.3255629e-08
C0T9N0,富里,2023-04-05,23.171639,121.249378,7.9970796e-08
U2HA50,臺大竹山,2023-04-05,23.756972,120.681556,9.294973e-10
C0V840,鳳鼻頭,2023-04-05,22.5083,120.3591,0.008775761
C0X140,西港,2023-04-05,23.125608,120.203108,4.7451856e-08
72D080,桃改五峰分場,2023-04-05,24.612194,121.157167,1.4724172e-08
C0V530,阿蓮,2023-04-05,22.883208,120.327508,0.00069121807
C1O880,關山,2023-04-05,23.173397,120.594092,6.082802e-07
C0E791,卓蘭,2023-04-05,24.3126,120.8244,5.7322724e-09
C1I030,武界,2023-04-05,23.913225,121.052483,1.1426211e-09
C0R520,崁頂,2023-04-05,22.514781,120.506914,0.9983216
C0R341,牡丹,2023-04-05,22.130036,120.792639,0.9532656
C0R930,萬丹,2023-04-05,22.5885,120.4851,0.9973355
C0S760,紅石,2023-04-05,23.069131,121.126219,1.4155345e-08
C1M610,石磐龍,2023-04-05,23.496606,120.663506,2.123315e-09
C0UA10,鴛鴦湖,2023-04-05,24.590269,121.412228,1.2255782e-08
V2C260,八德蔬果,2023-04-05,24.978508,121.281819,1.1814308e-07
C0R800,丹路,2023-04-05,22.204481,120.750989,0.79275346
C0G920,永靖,2023-04-05,23.924703,120.547533,6.43708e-09
C1A630,下盆,2023-04-05,24.771003,121.538622,1.2232312e-08
B2N890,畜產試驗所,2023-04-05,23.058972,120.336406,5.609426e-09
C0UA30,白嶺,2023-04-05,24.527819,121.519031,4.182527e-08
C1V580,溪南(特生中心),2023-04-05,23.084972,120.788475,1.9444426e-09
C1T970,大農,2023-04-05,23.615233,121.413331,6.882822e-09
E2S960,林試太麻里2,2023-04-05,22.598014,120.989761,0.38028443
C0R650,竹田,2023-04-05,22.58486,120.54344,0.99897295
C1H900,清流,2023-04-05,24.080775,120.962997,2.0175435e-09
C1C510,水尾,2023-04-05,24.940081,121.087161,0.029467318
C0F9X0,大雅(中科園區),2023-04-05,24.21528,120.62445,7.681902e-09
C0O970,虎頭埤,2023-04-05,23.021375,120.347878,1.5670782e-08
C0C730,中大臨海站,2023-04-05,24.966126,121.008581,0.9989964
C0X250,新營,2023-04-05,23.310689,120.316681,1.8751025e-09
C0V700,三民,2023-04-05,22.645017,120.311233,0.0019548638
C0U870,大礁溪,2023-04-05,24.791042,121.675047,1.2363785e-08
C0E870,高鐵苗栗,2023-04-05,24.60725,120.826094,2.3744586e-05
A2K570,古坑花卉中心,2023-04-05,23.63353,120.55239,1.7279261e-09
C0M860,新美,2023-04-05,23.338017,120.683169,8.0803736e-10
C1E701,八卦,2023-04-05,24.491756,120.927619,7.0411126e-09
C0I420,國姓,2023-04-05,24.037803,120.855072,1.1797601e-09
C0S960,香蘭,2023-04-05,22.587569,120.993375,0.38028443
C0R260,春日,2023-04-05,22.370361,120.628306,0.000115807205
72G600,臺中農改場,2023-04-05,24.003028,120.534389,2.9859417e-09
C0Z210,瑞穗,2023-04-05,23.5239,121.39021,7.6572535e-09
C0M820,達邦,2023-04-05,23.453994,120.749517,1.0352712e-09
C0V860,南寮,2023-04-05,22.7616,120.2339,0.70326215
C0G740,大城,2023-04-05,23.852487,120.320935,0.007480223
C0R920,塭仔,2023-04-05,22.4169,120.5197,0.018422456
C0R470,高樹,2023-04-05,22.826389,120.600806,0.9984952
C0R680,佳樂水,2023-04-05,21.993578,120.861633,0.45311978
C1O870,大棟山,2023-04-05,23.31157,120.52226,8.596494e-10
C0D360,梅花,2023-04-05,24.678347,121.208558,9.356005e-09
C0Z190,富世,2023-04-05,24.14743,121.6297,1.889769e-07
C0AI10,屈尺,2023-04-05,24.92184,121.54475,1.5240695e-07
B2U990,畜試東區分所,2023-04-05,24.669039,121.832561,2.4428777e-08
C0R240,來義,2023-04-05,22.527306,120.625111,0.95752716
C1R610,西大武山,2023-04-05,22.617719,120.7322,1.6584478e-08
C0G900,線西,2023-04-05,24.143358,120.443536,2.0126157e-07
C0M700,竹崎,2023-04-05,23.526178,120.555508,5.080157e-10
C2E880,三義,2023-04-05,24.405478,120.749819,6.1837526e-09
C0C720,竹圍,2023-04-05,25.112692,121.239824,1.37092275e-05
C0F9P0,清水,2023-04-05,24.312297,120.562242,2.3386638e-05
C0Z150,吉安光華,2023-04-05,23.930925,121.595153,5.756116e-08
C1D640,外坪(五指山),2023-04-05,24.644447,121.090961,1.5083412e-08
C0F9O0,潭子,2023-04-05,24.213106,120.703933,5.6827187e-09
72T250,花蓮農改場,2023-04-05,23.975222,121.563889,1.60498e-07
C0E780,銅鑼,2023-04-05,24.489681,120.790853,7.844422e-08
C1T950,太安,2023-04-05,23.666719,121.370128,8.659217e-08
C0E830,苑裡,2023-04-05,24.439714,120.653053,0.009400566
467270,田中,2023-04-05,23.873803,120.581286,1.2311491e-09
C0SA10,檳榔四格山,2023-04-05,22.810031,121.109308,2.403357e-09
C1T830,布洛灣,2023-04-05,24.17184,121.57127,8.908692e-06
C0F970,大坑,2023-04-05,24.173142,120.722289,2.4207798e-09
C1U920,思源,2023-04-05,24.393125,121.347214,8.109374e-09
C0A931,三和,2023-04-05,25.233153,121.595236,3.4234733e-07
C0I010,廬山,2023-04-05,24.033311,121.181808,5.1294067e-09
C0R860,鼻頭,2023-04-05,22.1043,120.8979,0.9706331
C0UB20,壯圍,2023-04-05,24.7359,121.8163,9.622922e-09
C0R790,九棚,2023-04-05,22.14195,120.889281,0.95600444
C0W110,東莒,2023-04-05,25.9652,119.98069,0.00121512
C1U930,粉鳥林,2023-04-05,24.497088,121.842479,9.056885e-08
C1I211,蘆竹湳,2023-04-05,23.934019,120.811994,8.493199e-10
C0S830,長濱,2023-04-05,23.286817,121.411975,1.8668135e-08
C1F9F1,伯公龍,2023-04-05,24.272392,120.849047,3.8512193e-09
C0E810,西湖,2023-04-05,24.562947,120.7485,0.9939799
C1I440,新高口,2023-04-05,23.478744,120.878939,7.972055e-09
C0O840,王爺宮,2023-04-05,23.222064,120.40085,1.5228403e-09
C0T9G0,鳳林山,2023-04-05,23.735269,121.420131,1.842413e-08
C0X080,佳里,2023-04-05,23.173039,120.145086,4.536065e-08
C0Z310,清水斷崖,2023-04-05,24.218294,121.689142,8.615429e-08
C0M680,太保,2023-04-05,23.455062,120.331455,1.9256676e-09
C1S820,金峰,2023-04-05,22.590969,120.933236,0.00016602136
C0AD10,八里,2023-04-05,25.150211,121.403947,1.37092275e-05
C2K240,草嶺,2023-04-05,23.59555,120.693461,1.7834396e-09
C1SA70,都蘭,2023-04-05,22.87794,121.226881,2.1897772e-08
C0K440,二崙,2023-04-05,23.772797,120.408944,2.1633402e-09
C1A760,坪林交控,2023-04-05,24.94284,121.713442,4.7494503e-08
C0F9N0,大里,2023-04-05,24.092464,120.701378,1.4154177e-09
C0SA90,達仁林場,2023-04-05,22.264347,120.823972,0.68637156
C1R290,石門山,2023-04-05,22.112611,120.756597,0.97273195
42HA10,萬大發電廠,2023-04-05,23.978875,121.139639,1.9067428e-09
C0R890,山海,2023-04-05,21.9878,120.7091,0.06841442
C0T9A0,月眉山,2023-04-05,23.809928,121.539828,1.2278056e-08
C0AC70,信義,2023-04-05,25.037822,121.564597,3.4905884e-08
C0K560,棋山,2023-04-05,23.68645,120.603417,1.6315707e-09
C1Z240,中平林道,2023-04-05,23.42115,121.26763,7.6564824e-08
U2H480,溪頭,2023-04-05,23.670306,120.798194,2.2907594e-09
C0M880,好美里,2023-04-05,23.3364,120.138,6.1084933e-09
C0T9E0,大坑,2023-04-05,23.880628,121.581981,1.2017289e-08
C0K530,臺西,2023-04-05,23.701547,120.197559,2.57626e-06
C1E900,國一N128K,2023-04-05,24.560997,120.844186,7.7394964e-07
C0AJ50,水湳洞,2023-04-05,25.123695,121.862238,1.4844037e-06
C0AI20,白沙灣,2023-04-05,25.283128,121.519058,0.0015526733
C0A860,大坪,2023-04-05,25.165914,121.632969,3.8203474e-08
C1U850,觀音海岸,2023-04-05,24.38319,121.77856,2.4471962e-08
C0U950,鶯子嶺,2023-04-05,24.89754,121.79244,2.2420528e-08
C0O900,善化,2023-04-05,23.112883,120.297219,7.044498e-09
C0K550,蔦松,2023-04-05,23.514319,120.229736,3.167741e-08
E2P980,林試六龜中心,2023-04-05,22.991703,120.645722,1.04804705e-07
C0E590,通霄,2023-04-05,24.471892,120.704622,0.9584763
C1I310,西巒,2023-04-05,23.754486,120.883956,4.8731543e-09
C0A550,泰平,2023-04-05,24.971197,121.823711,4.557103e-08
C0I360,水里,2023-04-05,23.812553,120.849792,1.0037792e-09
C0R830,高士,2023-04-05,22.121825,120.836781,0.9853685
C1I101,溪頭,2023-04-05,23.661789,120.807647,8.651108e-09
C0AJ20,野柳,2023-04-05,25.20703,121.690021,2.3302582e-06
C0B060,暖暖,2023-04-05,25.0957,121.7403,9.044921e-08
C1H920,長豐,2023-04-05,24.102039,120.879897,1.9176187e-09
C0V360,內門,2023-04-05,22.975481,120.466769,0.001094288
C0R850,林邊,2023-04-05,22.4634,120.5339,4.0836423e-09
C0E930,龍鳳,2023-04-05,24.700034,120.859125,0.051494602
C0U910,冬山,2023-04-05,24.63373,121.7937,2.4428777e-08
C1E721,泰安,2023-04-05,24.489017,120.968036,6.62186e-09
82H320,茶改中部分場,2023-04-05,23.875611,120.913583,2.254935e-09
C0M750,布袋,2023-04-05,23.380878,120.167789,5.6744223e-09
C1S860,利嘉,2023-04-05,22.809417,121.050528,7.093688e-08
72C440,桃園農改,2023-04-05,24.950944,121.030583,0.700115
E2S980,林試太麻里1,2023-04-05,22.598922,120.980044,0.017291563
C0X170,關廟,2023-04-05,22.963017,120.327797,5.655473e-07
C0V720,林園,2023-04-05,22.507747,120.394511,0.005300077
C1I510,線浸林道,2023-04-05,23.761508,120.832956,3.144491e-09
C0D690,外湖,2023-04-05,24.917735,120.968711,0.9759863
C0C750,新興坑尾,2023-04-05,25.0061,121.0971,0.9886916
B2Q810,畜試南區分所,2023-04-05,21.945583,120.802167,0.4278788
C0S790,金崙,2023-04-05,22.538122,120.966875,0.0005908334
C0AH90,福山植物園,2023-04-05,24.760717,121.58135,2.8067733e-08
C0I540,奇萊稜線,2023-04-05,24.109231,121.326456,1.6906707e-08
C0M850,表湖,2023-04-05,23.24186,120.64166,8.0912466e-10
C0S770,大溪山,2023-04-05,22.478475,120.943325,2.1432435e-05
C0AG80,中和,2023-04-05,24.991622,121.491792,1.9915877e-08
C0T790,大禹嶺,2023-04-05,24.186117,121.316086,1.2068398e-08
C0T9B0,水源,2023-04-05,23.991861,121.537169,2.6816974e-08
C0R840,牡丹池山,2023-04-05,22.168389,120.841225,0.7762631
C1I131,桶頭,2023-04-05,23.641944,120.654117,1.0982466e-09
CAL110,布袋國中,2023-04-05,23.35893,120.18026,5.6339484e-09
467571,新竹,2023-04-05,24.827853,121.014219,4.095874e-05
C0Z290,赤柯山,2023-04-05,23.36893,121.38293,4.9284747e-08
C0X280,將軍,2023-04-05,23.214999,120.13577,9.363307e-09
C0S690,太麻里,2023-04-05,22.60902,120.98533,3.524649e-07
C0U880,北關,2023-04-05,24.9072,121.8734,2.0119172e-07
C1H860,瑞岩,2023-04-05,24.123772,121.18345,1.177562e-08
C0G810,埔心,2023-04-05,23.947633,120.525456,6.441686e-09
C0U970,大福,2023-04-05,24.80064,121.81389,5.149836e-09
C1E670,南礦,2023-04-05,24.538278,121.002836,9.909619e-09
C0M520,東後寮,2023-04-05,23.369908,120.248065,5.0452806e-09
C1E461,松安,2023-04-05,24.397972,120.986022,6.1261116e-09
72G600,臺中農改,2023-04-05,24.003028,120.534389,2.9859417e-09
C2N160,西拉雅風管處,2023-04-05,23.189481,120.335297,3.6604695e-09
C0A640,石碇,2023-04-05,24.993969,121.662917,2.063263e-08
E2S960,林試太麻里2,2023-04-05,22.598,120.99775,0.44154873
C0F9Y0,桃山,2023-04-05,24.432739,121.303808,2.4105567e-08
C1I020,萬大,2023-04-05,23.979817,121.132261,3.829304e-09
C0U940,羅東,2023-04-05,24.68184,121.74934,9.335933e-09
C0M650,朴子,2023-04-05,23.43463,120.23902,5.805742e-09
C1I500,大尖山,2023-04-05,23.858572,120.994889,5.3573315e-09
C0G820,田尾,2023-04-05,23.901669,120.509389,6.43708e-09
E2K600,四湖植物園,2023-04-05,23.676986,120.163433,1.5194389e-05
C0S730,綠島,2023-04-05,22.6672,121.47533,0.8653902
12Q970,東港工作站,2023-04-05,22.479997,120.466058,4.6584208e-09
C0E430,南庄,2023-04-05,24.601775,121.000214,3.1267778e-08
C1TA00,太魯閣,2023-04-05,24.15773,121.6236,1.4373468e-07
466920,臺北,2023-04-05,25.037658,121.514853,3.4905884e-08
C0R600,舊泰武,2023-04-05,22.588194,120.664944,5.101879e-10
C1I260,北坑,2023-04-05,23.9246,121.006903,8.6328233e-10
466910,鞍部,2023-04-05,25.182586,121.529731,7.015364e-08
C1I230,九份二山,2023-04-05,23.961944,120.845,1.0757379e-09
C2A660,瑞芳,2023-04-05,25.113169,121.801147,4.1571207e-07
C0R270,琉球嶼,2023-04-05,22.332244,120.362236,6.8011943e-09
C1T990,高寮,2023-04-05,23.394239,121.356808,1.0034696e-08
C0G620,芬園,2023-04-05,24.015678,120.6213,1.686679e-09
C1Z140,荖溪,2023-04-05,23.890575,121.45964,1.01765984e-07
C1I201,中心崙,2023-04-05,23.728722,120.712097,7.033217e-10
C1I400,凌霄,2023-04-05,24.018778,121.004456,4.617639e-09
C1M640,十字,2023-04-05,23.492153,120.753683,6.2894285e-09
G2P820,農試鳳山分所,2023-04-05,22.646611,120.356083,0.0005392887
C0Z270,蕃薯寮,2023-04-05,23.73835,121.540108,2.3420313e-08
C0F9Q0,外埔,2023-04-05,24.347817,120.705686,5.338759e-08
C0K580,高鐵雲林,2023-04-05,23.737456,120.417944,2.8782419e-09
C2I090,鳳凰,2023-04-05,23.728081,120.787347,1.428869e-09
C0U990,員山,2023-04-05,24.74435,121.72247,9.504864e-09
C0V770,大社,2023-04-05,22.730306,120.346639,0.48983103
C0X120,麻豆,2023-04-05,23.183289,120.248611,6.3470322e-09
C0C670,龍潭,2023-04-05,24.870056,121.221389,1.310845e-07
C0D680,香山濕地,2023-04-05,24.783581,120.914988,7.9171934e-07
C0S980,勝林山,2023-04-05,22.430439,120.8938,1.1393246e-08
C0V730,大寮,2023-04-05,22.605614,120.395717,0.9964833
C0R570,麟洛,2023-04-05,22.65078,120.52719,0.9984824
CAG100,王功漁港,2023-04-05,23.96824,120.32586,0.32973263
C0X290,北門,2023-04-05,23.267772,120.125481,9.379608e-09
C2F930,大甲,2023-04-05,24.347667,120.640403,6.0657996e-05
C0D650,湖口,2023-04-05,24.904794,121.043628,0.04294341
C0E420,竹南,2023-04-05,24.708978,120.888897,0.0020029207
C0U780,五結,2023-04-05,24.68637,121.79794,9.622922e-09
C1I250,鯉潭,2023-04-05,23.961922,120.991131,1.0834453e-09
C0R130,阿禮,2023-04-05,22.742908,120.743678,4.9306986e-10
C0X100,臺南市北區,2023-04-05,23.010394,120.194228,1.2623649e-06
C0S920,金峰嘉蘭,2023-04-05,22.594789,120.960825,0.009780375
C0V490,新興,2023-04-05,22.627422,120.298803,0.99777216
C0F9K0,大安,2023-04-05,24.345061,120.588025,0.0013575695
72N100,臺南農改,2023-04-05,23.0605,120.342194,5.609426e-09
467290,古坑,2023-04-05,23.633639,120.551889,1.7279261e-09
C0V440,鳳山,2023-04-05,22.646653,120.356122,0.00053928915
C1T940,大觀,2023-04-05,23.714206,121.373133,1.9421272e-08
72T250,花蓮農改,2023-04-05,23.975222,121.563889,1.60498e-07
C0E740,造橋,2023-04-05,24.637056,120.864778,2.3809458e-05
C0R100,尾寮山,2023-04-05,22.833111,120.683889,5.4268523e-10
A2K630,臺大雲林校區,2023-04-05,23.730628,120.423903,2.8782419e-09
C0D580,寶山,2023-04-05,24.735006,121.025192,2.0644755e-08
E2P990,林試扇平站,2023-04-05,22.9677,120.6857,1.2812746e-09
C0AI30,三重,2023-04-05,25.057328,121.500629,3.5431707e-08
C0AH00,汐止,2023-04-05,25.066881,121.658778,3.4905884e-08
C1Z040,立山,2023-04-05,23.443356,121.327375,9.011583e-08
C0R740,獅子,2023-04-05,22.201569,120.70525,0.6103196
C0W130,花嶼,2023-04-05,23.40007,119.32276,0.87151957
C0A950,鼻頭角,2023-04-05,25.129036,121.923372,0.010906709
C0K470,林內,2023-04-05,23.748675,120.609642,1.0799338e-09
82C160,茶改場,2023-04-05,24.908472,121.185333,7.806813e-07
C0Z320,清水林道,2023-04-05,23.27125,121.188272,8.414408e-08
C0R760,南仁湖,2023-04-05,22.084681,120.863353,0.9728367
C0M670,大林,2023-04-05,23.600616,120.45841,7.207603e-10
C0M800,茶山,2023-04-05,23.299075,120.664767,1.1988941e-09
C0A9C0,天母,2023-04-05,25.117494,121.537169,1.2416976e-07
72K220,南改斗南分場,2023-04-05,23.634556,120.477333,8.639808e-10
72AI40,桃改樹林分場,2023-04-05,24.944503,121.386972,9.893812e-07
C0S910,蘭嶼燈塔,2023-04-05,22.081197,121.503117,0.9741508
C0B050,八斗子,2023-04-05,25.144754,121.79167,2.6937425e-06
C0U900,內城,2023-04-05,24.71813,121.68766,8.996759e-09
C0X320,柳營,2023-04-05,23.253328,120.375253,2.787507e-09
C0M790,新港,2023-04-05,23.553269,120.345728,3.2097474e-09
C0F9T0,西屯,2023-04-05,24.179494,120.641275,1.8808444e-09
C0SA30,都歷,2023-04-05,23.020333,121.323642,1.8827942e-08
C0C620,蘆竹,2023-04-05,25.084275,121.265767,0.0009394067
C0R730,大坪頂,2023-04-05,22.024633,120.69355,0.9882073
C0AJ40,石門,2023-04-05,25.273672,121.601198,1.9637482e-05
C0E750,苗栗,2023-04-05,24.564569,120.824575,8.620694e-07
C0T870,鯉魚潭,2023-04-05,23.935639,121.508944,3.332427e-08
C1V170,排雲,2023-04-05,23.463619,120.954147,1.546445e-08
C2H950,中寮,2023-04-05,23.884447,120.766406,1.1964749e-09
C0R350,貓鼻頭,2023-04-05,21.921774,120.7358,0.038148895
C0V660,岡山,2023-04-05,22.797078,120.294958,0.0014725351
C1H941,雙冬,2023-04-05,23.967378,120.802189,8.6865865e-10
C0AJ70,田寮,2023-04-05,25.2698,121.4886,0.0019166798
C0AI00,五股,2023-04-05,25.07445,121.42728,8.4254566e-08
C0Z280,德武,2023-04-05,23.47426,121.41071,7.3616895e-09
C0R700,枋山,2023-04-05,22.246844,120.661086,0.12672874
C0C460,復興,2023-04-05,24.820208,121.352281,8.364307e-08
E2H360,蓮華池,2023-04-05,23.918333,120.885278,9.1189833e-10
C0M640,中埔,2023-04-05,23.42538,120.5229,8.405962e-10
C0W140,金沙,2023-04-05,24.488292,118.408778,0.104671486
C2A540,四堵,2023-04-05,24.8926,121.745736,3.1234755e-08
C0ACA0,新莊,2023-04-05,25.051478,121.446756,1.7034953e-08
C0R220,潮州,2023-04-05,22.534361,120.54,0.9980162
U2HA40,臺大內茅埔,2023-04-05,23.689722,120.851117,1.6729788e-09
467490,臺中,2023-04-05,24.145736,120.684075,3.2648924e-09
C0U960,翠峰湖,2023-04-05,24.510856,121.608044,4.0720863e-08
E2HA20,林試畢祿溪站,2023-04-05,24.226944,121.308522,1.6483531e-08
C0V890,前鎮,2023-04-05,22.5718,120.3117,0.9981845
467620,蘭嶼,2023-04-05,22.036969,121.558339,0.99906635
C1F941,雪嶺,2023-04-05,24.280586,121.026642,2.4835208e-08
C0AC80,文山,2023-04-05,25.00235,121.575728,1.8463531e-08
C0F9R0,龍井,2023-04-05,24.184536,120.528972,8.881579e-07
C0M760,民雄,2023-04-05,23.551754,120.428457,7.722209e-10
C0UA40,西德山,2023-04-05,24.560647,121.752608,3.4896697e-08
C1T920,中興,2023-04-05,23.769503,121.498653,2.2961322e-08
C0D550,雪霸,2023-04-05,24.526972,121.11605,7.638699e-09
C2F860,梨山,2023-04-05,24.247522,121.243669,1.6850432e-08
C0R320,車城,2023-04-05,22.0744,120.716247,0.8437586
C1S870,南美山,2023-04-05,23.15025,121.382333,8.522839e-08
C0B020,基隆嶼,2023-04-05,25.19141,121.78391,0.00439119
C1U501,牛鬥,2023-04-05,24.637836,121.573656,3.227651e-08
C0M730,嘉義市東區,2023-04-05,23.457673,120.460531,1.7642124e-09
C0S700,知本,2023-04-05,22.684866,121.005642,1.7510676e-07
C1N001,沙崙,2023-04-05,22.935472,120.309406,1.0535533e-06
C0V760,橋頭,2023-04-05,22.757806,120.30575,0.5830153
C0G960,福寶,2023-04-05,24.0443,120.3814,4.5482807e-08
C0X210,白河,2023-04-05,23.347466,120.414427,2.8024123e-09
C0S810,東河,2023-04-05,22.972672,121.303986,0.9651721
C0R670,楓港,2023-04-05,22.190131,120.692156,0.9439953
C0FA50,霧峰,2023-04-05,24.0419,120.6995,1.8125235e-09
C0UB10,蘇澳,2023-04-05,24.5969,121.8571,8.660869e-08
C0G950,防潮門,2023-04-05,24.1835,120.4871,8.881579e-07
C0M740,六腳,2023-04-05,23.492871,120.290625,4.736909e-09
C1R250,力里,2023-04-05,22.428117,120.629228,2.5706488e-08
C0K330,虎尾,2023-04-05,23.719183,120.442036,2.748885e-09
C2FA00,烏石坑,2023-04-05,24.273503,120.947617,3.8826395e-09
C0V620,永安,2023-04-05,22.82315,120.236856,0.0014725351
C1I330,楓樹林,2023-04-05,23.986803,121.076117,4.05259e-09
C0W200,湖西,2023-04-05,23.596314,119.67275,0.5674385
72Q010,高雄農改場,2023-04-05,22.709333,120.525889,0.99872154
C0SA40,瑞和,2023-04-05,22.974361,121.156697,1.030455e-08
C0C680,龜山,2023-04-05,25.02846,121.38656,6.1879206e-08
C2V260,月眉,2023-04-05,22.971003,120.539853,0.008028755
C0V450,鳳森,2023-04-05,22.545064,120.392592,0.0002134984
C0U720,南山,2023-04-05,24.43742,121.38167,2.3409417e-08
A2N290,臺南蘭花園區,2023-04-05,23.340258,120.379661,2.0981454e-09
C0R560,新園,2023-04-05,22.5434,120.461558,0.005300077
C0U890,三星,2023-04-05,24.66812,121.65302,4.4659274e-08
C1V300,御油山,2023-04-05,23.001983,120.715364,1.3815014e-09
C0U600,礁溪,2023-04-05,24.817539,121.765608,1.6945673e-08
C1T980,龍澗,2023-04-05,24.023289,121.411328,9.210992e-08
C0D670,海天一線,2023-04-05,24.831986,120.914438,0.99884814
C0SA00,歷坵,2023-04-05,22.520969,120.89185,1.0671064e-06
C0M710,東石,2023-04-05,23.458927,120.15385,2.6184352e-07
C0M780,鹿草,2023-04-05,23.41134,120.30835,5.3734803e-09
C0U520,雙連埤,2023-04-05,24.753033,121.641303,1.2411537e-08
C0B010,七堵,2023-04-05,25.094819,121.71713,1.1922229e-07
C0R480,長治,2023-04-05,22.693128,120.542622,0.79780424
C1V830,國三S383K,2023-04-05,22.781967,120.426475,0.90850633
12Q980,恆春工作站,2023-04-05,22.079678,120.714425,0.8437586
C1O940,東山服務區,2023-04-05,23.286016,120.398472,3.6729322e-09
C1U840,東澳嶺,2023-04-05,24.5378,121.8485,2.8190382e-08
C1D630,飛鳳山,2023-04-05,24.766464,121.119178,1.26560185e-08
C0S940,石寧山,2023-04-05,23.223772,121.406639,6.495667e-08
C0K410,北港,2023-04-05,23.573957,120.292802,1.2616636e-08
C2M620,瑞里,2023-04-05,23.545133,120.675197,2.398686e-09
C2O950,安南,2023-04-05,23.076694,120.144861,2.1077244e-06
C0F0E0,南湖圈谷,2023-04-05,24.363714,121.444667,2.7993472e-08
467610,成功,2023-04-05,23.097486,121.373428,1.1285289e-05
C0G890,伸港,2023-04-05,24.148933,120.484403,2.0073023e-07
C2E540,龍溪,2023-04-05,24.606489,120.783933,3.2622465e-05
C1V200,梅山,2023-04-05,23.268447,120.823556,1.5618612e-09
C0T9H0,加路蘭山,2023-04-05,23.682947,121.5274,2.7506067e-08
C2O930,玉井,2023-04-05,23.126042,120.46055,7.714782e-08
C1F911,新伯公,2023-04-05,24.221361,120.841069,4.567648e-09
C0R490,九如,2023-04-05,22.7405,120.490503,0.9987656
C0X200,左鎮,2023-04-05,23.056758,120.408522,1.8882895e-08
C1F891,稍來,2023-04-05,24.265689,121.001142,1.3596455e-08
72N240,七股研究中心,2023-04-05,23.081672,120.062894,2.5458137e-06
C0C700,中壢,2023-04-05,24.977661,121.256375,1.0626952e-07
C0M690,水上,2023-04-05,23.419734,120.388909,1.8885586e-09
C0V690,鼓山,2023-04-05,22.623325,120.275575,0.99777216
C0O860,大內,2023-04-05,23.11885,120.36083,6.0939005e-09
C0Z200,萬榮,2023-04-05,23.709219,121.420106,3.5530448e-08
C0T9D0,和中,2023-04-05,24.26676,121.74103,7.88123e-07
C1O921,楠西,2023-04-05,23.183511,120.484083,1.3402094e-07
C0AJ30,淡水觀海,2023-04-05,25.184591,121.408616,6.182716e-06
C0V810,左營,2023-04-05,22.67491,120.28491,0.0019548638
C0UA70,桃源谷,2023-04-05,24.962606,121.888875,3.98238e-08
C0X130,官田,2023-04-05,23.193217,120.315422,3.798077e-09
C1H000,翠峰,2023-04-05,24.109397,121.205211,7.838496e-09
C0UA90,石城,2023-04-05,24.980444,121.951214,8.472761e-07
C1E681,南勢山,2023-04-05,24.421669,120.923831,4.624708e-09
C0A9F0,內湖,2023-04-05,25.079422,121.57545,3.4905884e-08
C0K291,宜梧,2023-04-05,23.536281,120.169329,3.167741e-08
C1K540,口湖,2023-04-05,23.585344,120.180517,9.8558296e-05
C0R780,滿州,2023-04-05,22.024403,120.839892,0.57582283
C0V870,文安,2023-04-05,22.8025,120.2164,0.0021089362
C0U650,玉蘭,2023-04-05,24.675286,121.587061,2.3703391e-08
C0R640,東港,2023-04-05,22.46247,120.44074,4.6584208e-09
K2E360,苗栗農改,2023-04-05,24.495722,120.829111,1.2460976e-07
C0AJ80,板橋,2023-04-05,25.0107,121.4489,2.0466677e-08
C0S660,下馬,2023-04-05,23.150427,121.070312,3.9360813e-08
C1H9B1,阿眉,2023-04-05,24.1263,120.994672,1.5201191e-08
C0UA20,多加屯,2023-04-05,24.368614,121.373189,1.421373e-08
C0E730,頭份,2023-04-05,24.688247,120.912206,0.003165988
72V140,高改旗南分場,2023-04-05,22.857861,120.516667,0.9797965
C0K480,莿桐,2023-04-05,23.761192,120.502372,6.832187e-10
C0U980,坪林石牌,2023-04-05,24.86478,121.77396,1.3224921e-08
C0T900,西林,2023-04-05,23.8119,121.441458,1.6577646e-08
C1I150,青雲,2023-04-05,23.793361,120.949378,1.2771805e-09
467350,澎湖,2023-04-05,23.565503,119.563094,0.71620816
C0G800,埔鹽,2023-04-05,24.000394,120.431683,3.414786e-08
C0H960,草屯,2023-04-05,23.973672,120.68085,1.6944081e-09
C1V780,多納林道,2023-04-05,22.888028,120.737917,6.1080946e-10
C0E920,通霄漁港,2023-04-05,24.498589,120.673876,0.987172
C0Z330,安通山,2023-04-05,23.290728,121.348528,1.4044035e-08
C0AH10,永和,2023-04-05,25.01125,121.508111,2.0466677e-08
C2G640,鹿港,2023-04-05,24.0753,120.430481,4.5482807e-08
C1E890,國三N149K,2023-04-05,24.463414,120.680019,0.00069037575
C1R110,口社,2023-04-05,22.770111,120.645222,0.9944362
C1M870,國三N285K,2023-04-05,23.550319,120.505833,9.73802e-10
467050,新屋,2023-04-05,25.006744,121.047486,0.99818903
C1E480,鳳美,2023-04-05,24.554803,121.034747,1.2110387e-08
C0M530,奮起湖,2023-04-05,23.493903,120.699253,2.7140783e-09
C0C590,觀音,2023-04-05,25.027072,121.153317,0.9978775
C0T9M0,靜浦,2023-04-05,23.455167,121.495028,9.214996e-09
C0AI40,石牌,2023-04-05,25.115597,121.513139,1.304602e-07
C1F871,上谷關,2023-04-05,24.203483,121.018644,2.8733547e-09
C0G880,二水,2023-04-05,23.810742,120.6173,1.2156088e-09
C0R940,加祿堂,2023-04-05,22.3363,120.6217,0.7581358
C0W220,北竿,2023-04-05,26.220358,119.974881,0.00064708205
C0O960,崎頂,2023-04-05,22.959547,120.369317,8.283038e-08
C0S750,向陽,2023-04-05,23.248397,120.986133,4.697958e-09
C0T9F0,水璉,2023-04-05,23.797131,121.542514,1.4496946e-08
C1M600,頭凍,2023-04-05,23.406364,120.603339,2.3591478e-09
467660,臺東,2023-04-05,22.752211,121.154586,7.1755508e-06
C1D380,新埔,2023-04-05,24.84745,121.03834,4.0778723e-06
C0V750,路竹,2023-04-05,22.854997,120.259439,1.9721203e-06
C0N050,蚵寮,2023-04-05,23.301,120.1104,6.1084933e-09
72M700,南改鹿草分場,2023-04-05,23.416869,120.283061,5.8027196e-09
C1SA50,利嘉林道,2023-04-05,22.82325,121.009389,9.852533e-09
467550,玉山,2023-04-05,23.487614,120.959522,2.29467e-08
C0A940,金山,2023-04-05,25.223628,121.643967,1.8602789e-06
C1V340,大津,2023-04-05,22.888322,120.645986,0.97472095
C0W180,七美,2023-04-05,23.219333,119.444892,0.7510489
C1F9C1,白冷,2023-04-05,24.182844,120.929889,3.4689562e-09
K2E710,苗改生物防治研究中心,2023-04-05,24.422861,120.871833,7.2371553e-09
C0N040,蘆竹溝,2023-04-05,23.2344,120.0961,9.379608e-09
C2W230,畜試所澎湖,2023-04-05,23.628342,119.513206,0.89783996
C0R880,後壁湖,2023-04-05,21.9457,120.7457,0.06695054
C1I280,埔中,2023-04-05,23.820778,120.642594,9.43719e-10
467790,墾丁雷達站,2023-04-05,21.948235,120.808028,0.55313283
C0W190,望安,2023-04-05,23.380564,119.494075,0.8564524
466881,新北,2023-04-05,24.9593,121.52,1.9877852e-08
C0Z170,卓溪,2023-04-05,23.3443,121.3029,8.988817e-09
C0F850,東勢,2023-04-05,24.246428,120.833047,3.208664e-09
466900,淡水,2023-04-05,25.164889,121.448906,1.0546447e-05
C0I370,魚池,2023-04-05,23.895703,120.94135,8.2655593e-10
C0C630,大溪,2023-04-05,24.882853,121.265547,1.7678504e-07
C0A520,山佳,2023-04-05,24.974944,121.402008,2.5040356e-08
C0I110,竹山,2023-04-05,23.761225,120.688156,1.0678002e-09
82H840,茶改南部分場,2023-04-05,23.762528,120.7405,9.40978e-10
C0G660,溪湖,2023-04-05,23.94835,120.479122,6.6054104e-09
C1T800,洛韶,2023-04-05,24.204558,121.453956,8.82068e-08
C1T810,慈恩,2023-04-05,24.192044,121.388386,3.6131895e-09
C1E451,象鼻,2023-04-05,24.368617,120.940228,3.8265955e-09
C0AC60,三峽,2023-04-05,24.939025,121.369728,8.25734e-07
C0I490,萬大林道,2023-04-05,23.928228,121.091411,3.5889165e-09
C1I290,豐丘,2023-04-05,23.668178,120.887417,2.4226228e-09
C1I320,奧萬大,2023-04-05,23.952956,121.178556,2.3207747e-09
C0U770,南澳,2023-04-05,24.44935,121.81022,4.0616456e-08
C0A980,社子,2023-04-05,25.109508,121.469681,1.7328537e-05
C0V800,六龜,2023-04-05,22.997889,120.633583,1.6018117e-07
C1G9D0,國一S218K,2023-04-05,23.890641,120.493253,3.521562e-09
C2F9A0,中竹林,2023-04-05,24.103556,120.751061,1.488773e-09
C0FA40,臺中電廠,2023-04-05,24.2146,120.4907,8.865323e-07
C0H9C0,合歡山,2023-04-05,24.143442,121.272547,2.0296602e-08
C0X060,下營,2023-04-05,23.22695,120.256261,3.0010208e-09
G2M350,農試溪口農場,2023-04-05,23.58565,120.408111,7.843696e-10
C0U860,頭城,2023-04-05,24.85323,121.8308,1.7422202e-08
C0R580,南州,2023-04-05,22.48591,120.50274,4.6584208e-09
C0D430,峨眉,2023-04-05,24.6905,121.017189,6.515595e-08
C0G780,秀水,2023-04-05,24.03405,120.503869,2.9879015e-09
72N100,臺南農改場,2023-04-05,23.0605,120.342194,5.609415e-09
C0S900,蘭嶼高中,2023-04-05,22.04909,121.51214,0.2689475
467540,大武,2023-04-05,22.355675,120.903789,0.9585727
C1F9W0,德基,2023-04-05,24.254783,121.190261,1.156139e-08
C1Z120,壽豐,2023-04-05,23.870853,121.508081,2.3862066e-08
C0W160,烏坵,2023-04-05,24.9944,119.44956,0.9261727
C1I240,外大坪,2023-04-05,23.958697,120.917931,1.076557e-09
C1I550,國六W023K,2023-04-05,23.979067,120.867742,8.6478535e-10
C0R870,興海,2023-04-05,21.9752,120.8439,0.4278788
C0R140,瑪家,2023-04-05,22.682903,120.686639,5.2791427e-10
C0A530,坪林,2023-04-05,24.938183,121.70975,3.6884984e-08
C0X260,後壁,2023-04-05,23.366358,120.362326,2.0981454e-09
C0Z230,和平,2023-04-05,24.30717,121.77007,9.020324e-07
C0G770,福興,2023-04-05,24.041289,120.437669,3.414786e-08
C0H9A0,神木村,2023-04-05,23.532742,120.843667,6.4000467e-09
C0I460,南投,2023-04-05,23.911469,120.687331,1.3860912e-09
C0I480,梅峰,2023-04-05,24.085272,121.173572,8.078036e-09
C1V570,吉東,2023-04-05,22.85422,120.5454,0.967213
C2A560,福山,2023-04-05,24.776203,121.502811,3.2684706e-08
C0AH30,五分山,2023-04-05,25.07125,121.780794,3.995809e-08
C0FA10,松柏,2023-04-05,24.429115,120.617482,0.041603718
72S200,東改班鳩分場,2023-04-05,22.829528,121.077694,3.971114e-09
72HA00,中改埔里分場,2023-04-05,23.903208,120.963364,8.850483e-10
C0C650,平鎮,2023-04-05,24.897503,121.214636,2.0796938e-07
C0S930,延平,2023-04-05,22.902581,121.084058,4.7387347e-09
C0UA60,樟樹山,2023-04-05,24.41393,121.78325,1.190547e-07
C1S670,摩天,2023-04-05,23.199503,121.027,3.2770973e-08
C0V630,茄萣,2023-04-05,22.906642,120.182608,3.4417506e-06
466940,基隆,2023-04-05,25.133314,121.740475,2.1620972e-06
C0X050,東河,2023-04-05,23.296598,120.385608,4.0184913e-09
C0R770,保力,2023-04-05,22.071122,120.764111,0.9785216
G2L020,農試嘉義分所,2023-04-05,23.485028,120.473806,6.3335576e-10
C0X240,關子嶺,2023-04-05,23.331169,120.508025,1.3216642e-09
C0I380,集集,2023-04-05,23.828206,120.801467,1.0062942e-09
466990,花蓮,2023-04-05,23.975128,121.613275,2.0007698e-07
C1V220,小關山,2023-04-05,23.154217,120.813603,2.693522e-09
C1F9G1,慶福山,2023-04-05,24.180853,120.848378,1.0872067e-09
C0Z250,瑞穗林道,2023-04-05,23.49284,121.30688,1.0032287e-07
C0D590,新豐,2023-04-05,24.87068,120.97721,0.9683739
C0A870,五指山,2023-04-05,25.132153,121.608692,2.9549804e-08
C0UA50,西帽山,2023-04-05,24.555361,121.802628,3.6465693e-08
C0X160,仁德,2023-04-05,22.968258,120.257689,8.136175e-05
C1H971,六分寮,2023-04-05,23.92507,120.6378,1.3435072e-09
C0W120,西嶼,2023-04-05,23.5626,119.468436,0.8276952
C0G650,員林,2023-04-05,23.946503,120.585597,2.2500157e-09
C0AD50,鶯歌,2023-04-05,24.951533,121.346294,6.29431e-07
C0S990,山豬窟,2023-04-05,22.318619,120.857372,0.4153674
72Q010,高雄農改,2023-04-05,22.709333,120.525889,0.99872154
C0X190,安平,2023-04-05,22.993161,120.152181,1.2662642e-06
C0K400,斗六,2023-04-05,23.720583,120.541127,7.6369894e-10
12J990,口湖工作站,2023-04-05,23.589978,120.180394,9.799572e-05
C0O830,北寮,2023-04-05,23.079561,120.495008,0.00012005861
C1D410,白蘭,2023-04-05,24.579364,121.079947,1.0316369e-08
C0S970,加津林,2023-04-05,22.416211,120.926942,0.9494309
C0D700,關西,2023-04-05,24.7977,121.1732,4.2066084e-08
C0M810,里佳,2023-04-05,23.389125,120.716647,3.2239391e-09
C0U750,龜山島,2023-04-05,24.841667,121.953133,0.1125466
C0R810,內獅,2023-04-05,22.305064,120.642986,0.7445084
C1M390,龍美,2023-04-05,23.406728,120.654417,2.612295e-09
C1H840,國三N238K,2023-04-05,23.841008,120.707711,9.740175e-10
CAQ030,崎峰國小,2023-04-05,22.42565,120.49521,4.6584208e-09
C2E520,大湖,2023-04-05,24.414939,120.870872,6.989997e-09
467530,阿里山,2023-04-05,23.508208,120.813242,1.4314612e-08
C1E691,南湖,2023-04-05,24.40135,120.837533,4.2601966e-09
C0FA30,梧棲,2023-04-05,24.256003,120.523381,2.3386681e-05
C1V231,高中,2023-04-05,23.134911,120.716711,8.395563e-10
C0F9V0,新社,2023-04-05,24.200172,120.815806,3.8693986e-09
C0H890,埔里,2023-04-05,23.972169,120.952425,8.6372537e-10
C0R690,墾丁,2023-04-05,21.966756,120.810269,0.754756
C0F0D0,審馬陣,2023-04-05,24.381675,121.4203,1.9637838e-08
C0R820,白鷺,2023-04-05,22.454275,120.666219,5.6335375e-10
U2H480,臺大溪頭,2023-04-05,23.670306,120.798194,2.2907594e-09
C1V190,南天池,2023-04-05,23.27403,120.91176,4.847235e-09
K2E360,苗栗農改場,2023-04-05,24.495722,120.829111,1.2460976e-07
CAJ050,海口故事園區,2023-04-05,23.57543,120.14121,9.799572e-05
C0O990,媽廟,2023-04-05,22.99175,120.293525,6.0403366e-08
C0D480,打鐵坑,2023-04-05,24.849664,121.150789,1.291511e-07
C0Z220,和平林道,2023-04-05,24.343922,121.656317,2.874244e-08
72C440,桃園農改場,2023-04-05,24.950944,121.030583,0.700115
C1E711,馬拉邦山,2023-04-05,24.367306,120.901656,3.8706016e-09
C0D560,竹東,2023-04-05,24.767147,121.057881,4.598981e-08
C0F9U0,南屯,2023-04-05,24.137006,120.637969,2.3055577e-09
C0M720,番路,2023-04-05,23.464657,120.554156,6.1035527e-10
C0F0A0,雪山圈谷,2023-04-05,24.388594,121.236339,2.7330405e-08
C1A9N0,四十份,2023-04-05,24.934158,121.593283,3.2358553e-08
C0U760,東澳,2023-04-05,24.52196,121.83318,7.657592e-08
C0X230,鹽水,2023-04-05,23.272621,120.247641,5.466519e-09
C0V370,古亭坑,2023-04-05,22.893178,120.401947,0.06974125
C1I340,新興橋,2023-04-05,23.563333,120.868728,1.4684227e-09
C0SA80,土坂,2023-04-05,22.453108,120.887572,0.39249748
C0R160,鹽埔,2023-04-05,22.739558,120.530778,0.99872047
C0AC40,大屯山,2023-04-05,25.175675,121.522408,6.093868e-08
466850,五分山雷達站,2023-04-05,25.071182,121.781205,3.9765126e-08
C1AI50,國三N016K,2023-04-05,25.034164,121.619664,3.0497528e-08
C1V600,藤枝,2023-04-05,23.071961,120.757042,1.6423298e-09
C1E601,南勢,2023-04-05,24.572486,120.734842,0.99304867
C0Z180,新城,2023-04-05,24.03946,121.60454,1.8133497e-07
C0O980,新市,2023-04-05,23.061614,120.298197,7.044498e-09
C0K420,西螺,2023-04-05,23.800407,120.467394,2.0670592e-09
C0Z050,佳心,2023-04-05,23.34567,121.21316,5.3185843e-08
C0AD30,蘆洲,2023-04-05,25.086594,121.472331,3.54236e-08
C0V610,梓官,2023-04-05,22.760558,120.267211,0.583015
K2F750,種苗改良場,2023-04-05,24.225972,120.800917,4.0915014e-09
C0UA80,大溪漁港,2023-04-05,24.941801,121.902955,1.7925312e-07
C1AI60,國一39K邊坡,2023-04-05,25.064361,121.383836,7.0774696e-08
C0W150,金寧,2023-04-05,24.457703,118.328989,0.00019075426
V2C250,八德合作社,2023-04-05,24.93775,121.266389,3.037768e-07
C0AH40,平等,2023-04-05,25.129142,121.577086,3.5909864e-08
C0R540,佳冬,2023-04-05,22.419456,120.552375,0.008589631
466950,彭佳嶼,2023-04-05,25.627975,122.079744,0.96909845
C0A890,雙溪,2023-04-05,25.036003,121.864242,2.678695e-07
C0C480,桃園,2023-04-05,24.992425,121.323172,1.2743298e-07
C0AH50,林口,2023-04-05,25.072181,121.38084,5.8132134e-08
A2K360,水試臺西試驗場,2023-04-05,23.717231,120.190522,3.4896811e-06
B2N890,畜試所,2023-04-05,23.058972,120.336406,5.609426e-09
C0F9S0,烏日,2023-04-05,24.107058,120.624103,1.5798862e-09
C0C490,八德,2023-04-05,24.928708,121.283289,3.0085994e-07
C0R190,赤山,2023-04-05,22.592333,120.614306,0.9989141
C0T820,天祥,2023-04-05,24.179597,121.495639,1.3050663e-06
C1F9E1,龍安,2023-04-05,24.1605,120.831961,2.3404538e-09
C0V820,小林,2023-04-05,23.148408,120.63325,1.2675828e-08
C2G870,芳苑,2023-04-05,23.922303,120.320025,0.28282928
C0E850,大河,2023-04-05,24.618069,120.948578,8.507799e-08
C1U670,寒溪,2023-04-05,24.634,121.71691,1.9058675e-08
C0N020,城西,2023-04-05,23.0568,120.0956,1.2623649e-06
C1Z110,三棧,2023-04-05,24.11557,121.60501,4.0118846e-07
C0R280,檳榔,2023-04-05,22.076078,120.836777,0.9536978
C0F9L0,后里,2023-04-05,24.310436,120.729725,7.2003927e-09
C0D540,橫山,2023-04-05,24.71116,121.11693,1.6445469e-08
C1D420,太閣南,2023-04-05,24.632808,121.160575,1.27509265e-08
C1E770,公館,2023-04-05,24.526914,120.830806,1.7358707e-07
CAN130,水試所海水繁養殖中心,2023-04-05,23.120802,120.07968,2.5458137e-06
C1I430,翠華,2023-04-05,24.191961,121.224339,8.256015e-09
C1M400,菜瓜坪,2023-04-05,23.251928,120.576103,1.980911e-09
C0G730,二林,2023-04-05,23.903325,120.376081,2.6550286e-08
72M360,南改義竹分場,2023-04-05,23.360694,120.279361,5.0452806e-09
V2K620,麥寮合作社,2023-04-05,23.753836,120.294783,6.0333787e-09
C0Z070,舞鶴,2023-04-05,23.46811,121.37407,7.026677e-09
C0B040,大武崙,2023-04-05,25.166676,121.706993,1.0634369e-06
C1Z030,紅葉,2023-04-05,23.493119,121.338806,6.870676e-09
C1I050,丹大,2023-04-05,23.753747,121.141147,7.2891466e-09
C0I080,信義,2023-04-05,23.689694,120.851036,1.6729788e-09
C2A880,福隆,2023-04-05,25.017842,121.942083,1.0149195e-06
C0Z160,鳳林,2023-04-05,23.746114,121.453411,4.0376854e-08
C0V210,復興,2023-04-05,23.222403,120.806089,1.9289172e-09
C0H990,昆陽,2023-04-05,24.121322,121.273642,1.1648134e-08
C0S710,鹿野,2023-04-05,22.917711,121.122994,2.9553002e-09
C0I530,小奇萊,2023-04-05,24.131764,121.295717,1.2335755e-08
C0Z080,富源,2023-04-05,23.587642,121.378225,7.79776e-08
467441,高雄,2023-04-05,22.7304,120.3125,0.48837933
C1I140,卡奈托灣,2023-04-05,23.754364,121.087872,2.955678e-09
C0I520,玉山風口,2023-04-05,23.470489,120.955994,2.4234604e-08
C1G691,下水埔,2023-04-05,23.816114,120.5676,6.706446e-10
C0X110,臺南市南區,2023-04-05,22.961189,120.188378,8.0994985e-05
C0V680,仁武,2023-04-05,22.701083,120.347722,0.0019548638
C2G840,北斗,2023-04-05,23.877586,120.514222,3.469684e-09
C0R900,竹坑,2023-04-05,22.1385,120.7022,0.86129314
C0K250,崙背,2023-04-05,23.75555,120.318925,6.0333787e-09
C0G860,社頭,2023-04-05,23.897647,120.5862,1.2730459e-09
C0X150,安定,2023-04-05,23.102614,120.227839,4.7458553e-08
C0R590,里港,2023-04-05,22.77919,120.49459,0.99054176
C0E610,馬都安,2023-04-05,24.451272,120.930192,4.332686e-09
C0E550,明德,2023-04-05,24.583486,120.885411,6.7757475e-07
C0R150,三地門,2023-04-05,22.709889,120.639944,0.99525005
C0G910,花壇,2023-04-05,24.032076,120.549461,2.7554676e-09
C1D400,鳥嘴山,2023-04-05,24.71909,121.28387,1.2398759e-08
C0K500,元長,2023-04-05,23.64981,120.315024,7.0298136e-09
C0F0B0,石岡,2023-04-05,24.276061,120.777644,6.174784e-09
C2V250,甲仙,2023-04-05,23.080106,120.591758,5.348376e-07
C0SA20,金崙山,2023-04-05,22.567419,120.959667,6.536993e-08
C0V350,溪埔,2023-04-05,22.738578,120.446797,0.96143895
C0M660,溪口,2023-04-05,23.604131,120.403569,7.843696e-10
C1S880,壽卡,2023-04-05,22.238911,120.858903,0.7715957
72D680,桃改新埔分場,2023-04-05,24.834444,121.066111,5.18314e-06
