站號,站名,日期,lat,lon,BLBTSLS
C0R710,龍磐,2023-12-03,21.931672,120.838942,0.93301207
C1F9D1,白毛台,2023-12-03,24.158325,120.886933,3.4997913e-10
C0G940,竹塘,2023-12-03,23.848253,120.386764,2.4666164e-07
467590,恆春,2023-12-03,22.003897,120.746339,0.36746007
C1O850,環湖,2023-12-03,23.148617,120.418633,0.34702173
C0U710,太平山,2023-12-03,24.505486,121.525656,1.711295e-08
C0E820,獅潭,2023-12-03,24.539133,120.920042,3.436529e-09
C0V880,興達,2023-12-03,22.8778,120.2127,5.111189e-06
C0S890,關山,2023-12-03,23.0395,121.175017,2.6653983e-09
K2F750,種苗繁殖,2023-12-03,24.225972,120.800917,1.3257956e-08
C1Z130,銅門,2023-12-03,23.965694,121.492842,2.1999198e-09
C0AD40,土城,2023-12-03,24.973208,121.445169,0.9989816
CAN140,六官養殖協會,2023-12-03,23.22881,120.29962,0.00047824462
C0X180,山上,2023-12-03,23.0757,120.363253,0.0011923289
C0F9Z0,雪山東峰,2023-12-03,24.388792,121.268675,9.931436e-09
C1M480,獨立山,2023-12-03,23.537022,120.607797,6.42969e-10
C0X220,學甲,2023-12-03,23.230367,120.182187,1.4169927e-06
C0R170,屏東,2023-12-03,22.660269,120.494072,2.2124304e-06
467650,日月潭,2023-12-03,23.881325,120.90805,9.525076e-10
C0K600,箔子寮,2023-12-03,23.6197,120.14,0.06391063
C0G830,埤頭,2023-12-03,23.866003,120.452806,1.1403048e-05
C0S950,七塊厝,2023-12-03,22.954453,121.229922,5.7387926e-09
467110,金門,2023-12-03,24.407306,118.289281,0.9992292
C0AH80,深坑,2023-12-03,25.002703,121.628328,0.9987752
467990,馬祖,2023-12-03,26.169269,119.923419,4.32657e-05
C0A970,三貂角,2023-12-03,25.007606,122.002058,8.196862e-09
C0K430,褒忠,2023-12-03,23.690938,120.303634,3.3030935e-07
467480,嘉義,2023-12-03,23.495925,120.432906,0.22008553
C2E540,後龍,2023-12-03,24.606489,120.783933,0.9998637
C0V400,阿公店,2023-12-03,22.804194,120.355528,2.7123873e-08
C0R440,大漢山,2023-12-03,22.405264,120.753181,1.8292472e-08
C0K280,四湖,2023-12-03,23.630414,120.227125,0.041033566
C1F9B1,桐林,2023-12-03,24.066172,120.735194,0.03626459
C0K390,土庫,2023-12-03,23.679029,120.395574,3.4893417e-06
C1I450,望鄉山,2023-12-03,23.594153,120.944286,7.0256854e-09
C0E910,海埔,2023-12-03,24.648767,120.772435,0.99985635
B2E890,畜試北區分所,2023-12-03,24.527806,120.770972,2.7349106e-06
C0R750,四林格山,2023-12-03,22.076989,120.802439,0.9810762
C0F0C0,中坑,2023-12-03,24.248517,120.903319,8.2017526e-10
C1I121,大鞍,2023-12-03,23.678381,120.760017,2.6005378e-09
72U480,花改蘭陽分場,2023-12-03,24.686306,121.716583,9.133483e-10
C0A770,科教館,2023-12-03,25.096356,121.516507,0.9108223
C0AJ60,六塊厝,2023-12-03,25.24,121.4481,0.99936455
C0R620,墾雷,2023-12-03,21.900836,120.855269,0.9812515
467420,永康,2023-12-03,23.038386,120.2367,5.004497e-06
467300,東吉島,2023-12-03,23.25695,119.667467,0.96252745
C0I410,名間,2023-12-03,23.837053,120.701447,0.028153015
A2C560,農工中心,2023-12-03,24.985917,121.239833,0.99940026
C0V740,旗山,2023-12-03,22.888614,120.483597,8.583159e-06
C0Z061,玉里,2023-12-03,23.3215,121.339656,6.4109296e-10
C0S840,南田,2023-12-03,22.279725,120.889208,0.21322235
C1I470,杉林溪,2023-12-03,23.639517,120.786444,3.3530185e-09
C1X040,東原,2023-12-03,23.291597,120.463822,2.6899409e-07
C0R660,枋寮,2023-12-03,22.367722,120.590647,0.5502697
C1R120,上德文,2023-12-03,22.763272,120.704442,7.2735644e-09
C0K450,大埤,2023-12-03,23.646074,120.431537,0.13796201
C0UA00,土場,2023-12-03,24.576533,121.495333,1.9737838e-08
467080,宜蘭,2023-12-03,24.763975,121.756528,8.922791e-10
C0N030,四草,2023-12-03,23.0235,120.1116,2.4474446e-07
C0V650,彌陀,2023-12-03,22.783806,120.246361,1.1595538e-05
C0D660,新竹市東區,2023-12-03,24.798681,120.986942,0.7785995
82S580,茶改東部分場,2023-12-03,22.907694,121.130139,0.45025304
C0C710,大溪永福,2023-12-03,24.892936,121.324975,0.9570179
C0FA20,溫寮,2023-12-03,24.372177,120.583125,0.14558588
C0V640,湖內,2023-12-03,22.887139,120.2445,3.5675744e-06
C0R910,下寮,2023-12-03,22.3929,120.5548,0.5502697
C0Z020,明里,2023-12-03,23.208717,121.262342,7.446389e-10
C0M770,嘉義梅山,2023-12-03,23.585398,120.555587,0.015386125
G2F820,農業試驗所,2023-12-03,24.031261,120.688133,0.08766941
C0C660,楊梅,2023-12-03,24.912375,121.143047,0.995974
C1E511,新開,2023-12-03,24.347703,120.827019,4.3156895e-08
G2F820,農試所(霧峰),2023-12-03,24.031261,120.688133,0.08766941
C1I070,和社,2023-12-03,23.591131,120.888861,1.980416e-09
C2F000,大肚,2023-12-03,24.15295,120.572117,0.0015110042
C1S850,豐南,2023-12-03,23.122139,121.262389,6.275214e-10
C2A920,富貴角,2023-12-03,25.263783,121.565258,0.9976799
CAH030,茶改場竹圍站,2023-12-03,23.860083,120.637528,9.0277204e-08
C0T960,光復,2023-12-03,23.660694,121.424964,7.443847e-10
C0F9M0,豐原,2023-12-03,24.254322,120.720692,3.647019e-05
C0R720,旭海,2023-12-03,22.205403,120.887614,0.18433665
C0V710,苓雅,2023-12-03,22.622742,120.330669,8.797976e-09
C0C740,觀音工業區,2023-12-03,25.064764,121.114856,0.95813924
CAC040,拉拉山,2023-12-03,24.699317,121.427133,3.515202e-08
C0V790,萬山,2023-12-03,22.905944,120.688056,1.7712265e-08
U2HA30,臺大和社,2023-12-03,23.590856,120.888864,1.980416e-09
C0AJ90,澳底,2023-12-03,25.0552,121.9253,5.8264834e-07
C0Z100,東華,2023-12-03,23.89525,121.549833,4.253985e-09
C0G970,三豐,2023-12-03,23.882,120.2895,3.5906436e-05
V2K610,大庄合作社,2023-12-03,23.8068,120.367939,9.014007e-08
C0V900,汕尾,2023-12-03,22.4782,120.4151,0.0005688751
C1R630,龍泉,2023-12-03,22.66701,120.59091,0.3174667
C1AC50,關渡,2023-12-03,25.133486,121.469331,3.817154e-06
C0F9I0,神岡,2023-12-03,24.272481,120.658314,1.0892083e-05
C0K460,斗南,2023-12-03,23.678734,120.478359,0.11192653
467410,臺南,2023-12-03,22.993239,120.204772,1.5733306e-07
C2O810,曾文,2023-12-03,23.219681,120.497328,3.0451776e-05
467280,後龍,2023-12-03,24.648563,120.831834,0.9998703
C1F9J1,清水林,2023-12-03,24.071242,120.820419,3.565206e-10
C2A650,火燒寮,2023-12-03,25.002719,121.742892,5.5641385e-09
466930,竹子湖,2023-12-03,25.162078,121.544547,1.1072007e-08
C1I220,樟湖,2023-12-03,23.905333,120.846983,7.6317763e-10
C0I390,仁愛,2023-12-03,24.022122,121.132206,7.804761e-10
C0Z300,東里,2023-12-03,23.26853,121.30547,8.1470736e-10
C0V310,美濃,2023-12-03,22.898742,120.519153,1.5503127e-05
C1V590,新發,2023-12-03,23.057019,120.646064,1.4762633e-09
C0K510,水林,2023-12-03,23.572924,120.24597,0.00017792081
72S590,東改賓朗果園,2023-12-03,22.813889,121.071278,0.9930761
82A750,茶改北部分場,2023-12-03,24.955778,121.631222,3.5376613e-07
C1A750,石碇服務區,2023-12-03,25.00872,121.646242,0.9766984
C0X300,鹿寮,2023-12-03,23.386047,120.477331,0.031894315
G2AI50,關渡,2023-12-03,25.11575,121.492,0.999005
C0K590,雲林東勢,2023-12-03,23.674192,120.255721,3.3214221e-06
C0A570,桶後,2023-12-03,24.848222,121.597992,9.607572e-09
C1S800,華源,2023-12-03,22.657883,121.02325,8.15762e-09
C0G720,溪州,2023-12-03,23.851589,120.499093,8.335524e-06
C1V160,達卡努瓦,2023-12-03,23.279811,120.705319,1.263298e-09
C2M410,馬頭山,2023-12-03,23.324361,120.582017,4.1883787e-08
C0V850,蚵仔寮,2023-12-03,22.7256,120.2527,2.8056707e-08
C0S740,池上,2023-12-03,23.119628,121.209469,3.3700047e-08
C1V390,尖山,2023-12-03,22.813153,120.367789,1.718422e-08
C0AH70,松山,2023-12-03,25.04871,121.55042,0.85452735
C0N010,鯤鯓國小,2023-12-03,23.1879,120.0889,1.7163575e-07
C0R550,新埤,2023-12-03,22.467947,120.582894,0.00017301641
C0SA60,知本（水試所）,2023-12-03,22.702394,121.082761,5.9382458e-08
C0T9I0,豐濱,2023-12-03,23.583897,121.514806,1.5737088e-09
C0UB00,淡江大學蘭陽校園,2023-12-03,24.823239,121.730383,9.273481e-09
C0T9N0,富里,2023-12-03,23.171639,121.249378,8.685294e-10
U2HA50,臺大竹山,2023-12-03,23.756972,120.681556,0.060341023
C0V840,鳳鼻頭,2023-12-03,22.5083,120.3591,9.960024e-09
C0X140,西港,2023-12-03,23.125608,120.203108,1.1322504e-06
72D080,桃改五峰分場,2023-12-03,24.612194,121.157167,1.5234155e-09
C0V530,阿蓮,2023-12-03,22.883208,120.327508,2.2069841e-07
C1O880,關山,2023-12-03,23.173397,120.594092,1.1661971e-06
C0E791,卓蘭,2023-12-03,24.3126,120.8244,1.6824167e-06
C1I030,武界,2023-12-03,23.913225,121.052483,5.3781124e-10
C0R520,崁頂,2023-12-03,22.514781,120.506914,2.5480922e-06
C0R341,牡丹,2023-12-03,22.130036,120.792639,0.28705072
C0R930,萬丹,2023-12-03,22.5885,120.4851,5.9571683e-08
C0S760,紅石,2023-12-03,23.069131,121.126219,9.7608615e-09
C1M610,石磐龍,2023-12-03,23.496606,120.663506,1.9012736e-09
C0UA10,鴛鴦湖,2023-12-03,24.590269,121.412228,1.3179493e-08
V2C260,八德蔬果,2023-12-03,24.978508,121.281819,0.9990837
C0R800,丹路,2023-12-03,22.204481,120.750989,0.17557146
C0G920,永靖,2023-12-03,23.924703,120.547533,0.00015303164
C1A630,下盆,2023-12-03,24.771003,121.538622,7.2664506e-09
B2N890,畜產試驗所,2023-12-03,23.058972,120.336406,7.2530534e-06
C0UA30,白嶺,2023-12-03,24.527819,121.519031,1.2232778e-08
C1V580,溪南(特生中心),2023-12-03,23.084972,120.788475,3.276027e-09
C1T970,大農,2023-12-03,23.615233,121.413331,1.1577471e-09
E2S960,林試太麻里2,2023-12-03,22.598014,120.989761,5.337163e-06
C0R650,竹田,2023-12-03,22.58486,120.54344,0.0010321297
C1H900,清流,2023-12-03,24.080775,120.962997,4.6674725e-10
C1C510,水尾,2023-12-03,24.940081,121.087161,0.9711087
C0F9X0,大雅(中科園區),2023-12-03,24.21528,120.62445,0.00024193672
C0O970,虎頭埤,2023-12-03,23.021375,120.347878,2.9198216e-06
C0C730,中大臨海站,2023-12-03,24.966126,121.008581,0.9723122
C0X250,新營,2023-12-03,23.310689,120.316681,0.007891395
C0V700,三民,2023-12-03,22.645017,120.311233,2.2143904e-07
C0U870,大礁溪,2023-12-03,24.791042,121.675047,6.965163e-09
C0E870,高鐵苗栗,2023-12-03,24.60725,120.826094,0.9998646
A2K570,古坑花卉中心,2023-12-03,23.63353,120.55239,0.21295986
C0M860,新美,2023-12-03,23.338017,120.683169,1.0304722e-09
C1E701,八卦,2023-12-03,24.491756,120.927619,9.672454e-10
C0I420,國姓,2023-12-03,24.037803,120.855072,2.3189964e-06
C0S960,香蘭,2023-12-03,22.587569,120.993375,5.337163e-06
C0R260,春日,2023-12-03,22.370361,120.628306,0.18912722
72G600,臺中農改場,2023-12-03,24.003028,120.534389,7.3010204e-05
C0Z210,瑞穗,2023-12-03,23.5239,121.39021,1.5681417e-09
C0M820,達邦,2023-12-03,23.453994,120.749517,1.2774679e-09
C0V860,南寮,2023-12-03,22.7616,120.2339,2.8056707e-08
C0G740,大城,2023-12-03,23.852487,120.320935,2.7879294e-05
C0R920,塭仔,2023-12-03,22.4169,120.5197,0.52896875
C0R470,高樹,2023-12-03,22.826389,120.600806,3.7639926e-05
C0R680,佳樂水,2023-12-03,21.993578,120.861633,0.9872109
C1O870,大棟山,2023-12-03,23.31157,120.52226,1.3466346e-09
C0D360,梅花,2023-12-03,24.678347,121.208558,4.4329465e-09
C0Z190,富世,2023-12-03,24.14743,121.6297,1.165609e-08
C0AI10,屈尺,2023-12-03,24.92184,121.54475,0.97184175
B2U990,畜試東區分所,2023-12-03,24.669039,121.832561,7.1964484e-10
C0R240,來義,2023-12-03,22.527306,120.625111,2.9027697e-07
C1R610,西大武山,2023-12-03,22.617719,120.7322,1.728138e-08
C0G900,線西,2023-12-03,24.143358,120.443536,1.968676e-05
C0M700,竹崎,2023-12-03,23.526178,120.555508,0.106907226
C2E880,三義,2023-12-03,24.405478,120.749819,3.7258355e-10
C0C720,竹圍,2023-12-03,25.112692,121.239824,0.999005
C0F9P0,清水,2023-12-03,24.312297,120.562242,0.897942
C0Z150,吉安光華,2023-12-03,23.930925,121.595153,7.8803195e-09
C1D640,外坪(五指山),2023-12-03,24.644447,121.090961,1.0911184e-09
C0F9O0,潭子,2023-12-03,24.213106,120.703933,0.04041395
72T250,花蓮農改場,2023-12-03,23.975222,121.563889,1.2174121e-05
C0E780,銅鑼,2023-12-03,24.489681,120.790853,3.8728267e-08
C1T950,太安,2023-12-03,23.666719,121.370128,1.0658614e-08
C0E830,苑裡,2023-12-03,24.439714,120.653053,0.9984928
467270,田中,2023-12-03,23.873803,120.581286,0.14200686
C0SA10,檳榔四格山,2023-12-03,22.810031,121.109308,0.9764113
C1T830,布洛灣,2023-12-03,24.17184,121.57127,1.2822844e-07
C0F970,大坑,2023-12-03,24.173142,120.722289,0.6236498
C1U920,思源,2023-12-03,24.393125,121.347214,1.4040474e-08
C0A931,三和,2023-12-03,25.233153,121.595236,9.97513e-07
C0I010,廬山,2023-12-03,24.033311,121.181808,1.37741e-09
C0R860,鼻頭,2023-12-03,22.1043,120.8979,0.16772258
C0UB20,壯圍,2023-12-03,24.7359,121.8163,8.936195e-10
C0R790,九棚,2023-12-03,22.14195,120.889281,0.21513893
C0W110,東莒,2023-12-03,25.9652,119.98069,0.99573183
C1U930,粉鳥林,2023-12-03,24.497088,121.842479,1.3892806e-09
C1I211,蘆竹湳,2023-12-03,23.934019,120.811994,5.1219834e-10
C0S830,長濱,2023-12-03,23.286817,121.411975,5.825128e-10
C1F9F1,伯公龍,2023-12-03,24.272392,120.849047,5.9917016e-10
C0E810,西湖,2023-12-03,24.562947,120.7485,0.9998236
C1I440,新高口,2023-12-03,23.478744,120.878939,3.436103e-09
C0O840,王爺宮,2023-12-03,23.222064,120.40085,0.00083570083
C0T9G0,鳳林山,2023-12-03,23.735269,121.420131,1.1879137e-09
C0X080,佳里,2023-12-03,23.173039,120.145086,1.706693e-07
C0Z310,清水斷崖,2023-12-03,24.218294,121.689142,1.8673434e-09
C0M680,太保,2023-12-03,23.455062,120.331455,0.04113674
C1S820,金峰,2023-12-03,22.590969,120.933236,1.17504015e-08
C0AD10,八里,2023-12-03,25.150211,121.403947,0.999005
C2K240,草嶺,2023-12-03,23.59555,120.693461,1.1966187e-09
C1SA70,都蘭,2023-12-03,22.87794,121.226881,0.96292293
C0K440,二崙,2023-12-03,23.772797,120.408944,4.4005068e-07
C1A760,坪林交控,2023-12-03,24.94284,121.713442,1.0772147e-08
C0F9N0,大里,2023-12-03,24.092464,120.701378,0.2702195
C0SA90,達仁林場,2023-12-03,22.264347,120.823972,0.9926685
C1R290,石門山,2023-12-03,22.112611,120.756597,0.72325104
42HA10,萬大發電廠,2023-12-03,23.978875,121.139639,6.6619266e-10
C0R890,山海,2023-12-03,21.9878,120.7091,0.9985177
C0T9A0,月眉山,2023-12-03,23.809928,121.539828,1.1043867e-09
C0AC70,信義,2023-12-03,25.037822,121.564597,0.85452735
C0K560,棋山,2023-12-03,23.68645,120.603417,0.13181314
C1Z240,中平林道,2023-12-03,23.42115,121.26763,1.21494175e-08
U2H480,溪頭,2023-12-03,23.670306,120.798194,1.4131976e-09
C0M880,好美里,2023-12-03,23.3364,120.138,1.8907649e-05
C0T9E0,大坑,2023-12-03,23.880628,121.581981,1.232493e-09
C0K530,臺西,2023-12-03,23.701547,120.197559,0.05354329
C1E900,國一N128K,2023-12-03,24.560997,120.844186,0.98635846
C0AJ50,水湳洞,2023-12-03,25.123695,121.862238,2.9386098e-05
C0AI20,白沙灣,2023-12-03,25.283128,121.519058,0.9993263
C0A860,大坪,2023-12-03,25.165914,121.632969,2.2959483e-08
C1U850,觀音海岸,2023-12-03,24.38319,121.77856,2.0449227e-09
C0U950,鶯子嶺,2023-12-03,24.89754,121.79244,2.3133113e-08
C0O900,善化,2023-12-03,23.112883,120.297219,1.731306e-05
C0K550,蔦松,2023-12-03,23.514319,120.229736,0.0032820655
E2P980,林試六龜中心,2023-12-03,22.991703,120.645722,2.432777e-07
C0E590,通霄,2023-12-03,24.471892,120.704622,0.04495732
C1I310,西巒,2023-12-03,23.754486,120.883956,1.0067818e-09
C0A550,泰平,2023-12-03,24.971197,121.823711,3.2133265e-08
C0I360,水里,2023-12-03,23.812553,120.849792,6.70028e-05
C0R830,高士,2023-12-03,22.121825,120.836781,0.9164375
C1I101,溪頭,2023-12-03,23.661789,120.807647,2.800494e-09
C0AJ20,野柳,2023-12-03,25.20703,121.690021,0.0011038881
C0B060,暖暖,2023-12-03,25.0957,121.7403,0.02377735
C1H920,長豐,2023-12-03,24.102039,120.879897,3.615904e-10
C0V360,內門,2023-12-03,22.975481,120.466769,2.3858895e-05
C0R850,林邊,2023-12-03,22.4634,120.5339,0.00043284864
C0E930,龍鳳,2023-12-03,24.700034,120.859125,0.9442185
C0U910,冬山,2023-12-03,24.63373,121.7937,7.1964484e-10
C1E721,泰安,2023-12-03,24.489017,120.968036,1.8373411e-09
82H320,茶改中部分場,2023-12-03,23.875611,120.913583,7.865674e-10
C0M750,布袋,2023-12-03,23.380878,120.167789,0.0018090344
C1S860,利嘉,2023-12-03,22.809417,121.050528,2.4082119e-09
72C440,桃園農改,2023-12-03,24.950944,121.030583,0.93421495
E2S980,林試太麻里1,2023-12-03,22.598922,120.980044,1.9076245e-07
C0X170,關廟,2023-12-03,22.963017,120.327797,1.01737264e-07
C0V720,林園,2023-12-03,22.507747,120.394511,8.094245e-09
C1I510,線浸林道,2023-12-03,23.761508,120.832956,1.6388502e-09
C0D690,外湖,2023-12-03,24.917735,120.968711,0.8811549
C0C750,新興坑尾,2023-12-03,25.0061,121.0971,0.98785836
B2Q810,畜試南區分所,2023-12-03,21.945583,120.802167,0.98831385
C0S790,金崙,2023-12-03,22.538122,120.966875,7.0534276e-07
C0AH90,福山植物園,2023-12-03,24.760717,121.58135,2.4747305e-08
C0I540,奇萊稜線,2023-12-03,24.109231,121.326456,2.154418e-08
C0M850,表湖,2023-12-03,23.24186,120.64166,1.0905359e-09
C0S770,大溪山,2023-12-03,22.478475,120.943325,1.0506783e-05
C0AG80,中和,2023-12-03,24.991622,121.491792,0.99898267
C0T790,大禹嶺,2023-12-03,24.186117,121.316086,8.117932e-09
C0T9B0,水源,2023-12-03,23.991861,121.537169,2.5526867e-09
C0R840,牡丹池山,2023-12-03,22.168389,120.841225,0.9723807
C1I131,桶頭,2023-12-03,23.641944,120.654117,2.5217603e-05
CAL110,布袋國中,2023-12-03,23.35893,120.18026,0.0018090344
467571,新竹,2023-12-03,24.827853,121.014219,0.77928215
C0Z290,赤柯山,2023-12-03,23.36893,121.38293,5.500783e-09
C0X280,將軍,2023-12-03,23.214999,120.13577,1.6808275e-06
C0S690,太麻里,2023-12-03,22.60902,120.98533,1.9988706e-09
C0U880,北關,2023-12-03,24.9072,121.8734,2.4781219e-08
C1H860,瑞岩,2023-12-03,24.123772,121.18345,2.662563e-09
C0G810,埔心,2023-12-03,23.947633,120.525456,0.00015303164
C0U970,大福,2023-12-03,24.80064,121.81389,8.9270297e-10
C1E670,南礦,2023-12-03,24.538278,121.002836,1.7253343e-09
C0M520,東後寮,2023-12-03,23.369908,120.248065,0.0014753367
C1E461,松安,2023-12-03,24.397972,120.986022,1.6097106e-09
72G600,臺中農改,2023-12-03,24.003028,120.534389,7.3010204e-05
C2N160,西拉雅風管處,2023-12-03,23.189481,120.335297,0.0044801976
C0A640,石碇,2023-12-03,24.993969,121.662917,0.06867346
E2S960,林試太麻里2,2023-12-03,22.598,120.99775,6.705143e-06
C0F9Y0,桃山,2023-12-03,24.432739,121.303808,1.1650201e-08
C1I020,萬大,2023-12-03,23.979817,121.132261,7.830751e-10
C0U940,羅東,2023-12-03,24.68184,121.74934,9.0451197e-10
C0M650,朴子,2023-12-03,23.43463,120.23902,0.0031559318
C1I500,大尖山,2023-12-03,23.858572,120.994889,3.482952e-09
C0G820,田尾,2023-12-03,23.901669,120.509389,0.00015303164
E2K600,四湖植物園,2023-12-03,23.676986,120.163433,0.041413035
C0S730,綠島,2023-12-03,22.6672,121.47533,0.9714976
12Q970,東港工作站,2023-12-03,22.479997,120.466058,0.00057189784
C0E430,南庄,2023-12-03,24.601775,121.000214,3.1465428e-09
C1TA00,太魯閣,2023-12-03,24.15773,121.6236,8.006982e-09
466920,臺北,2023-12-03,25.037658,121.514853,0.85452735
C0R600,舊泰武,2023-12-03,22.588194,120.664944,2.944267e-09
C1I260,北坑,2023-12-03,23.9246,121.006903,5.117755e-10
466910,鞍部,2023-12-03,25.182586,121.529731,2.3102249e-08
C1I230,九份二山,2023-12-03,23.961944,120.845,4.7159743e-10
C2A660,瑞芳,2023-12-03,25.113169,121.801147,2.430125e-06
C0R270,琉球嶼,2023-12-03,22.332244,120.362236,8.4210524e-07
C1T990,高寮,2023-12-03,23.394239,121.356808,7.259299e-10
C0G620,芬園,2023-12-03,24.015678,120.6213,0.02803314
C1Z140,荖溪,2023-12-03,23.890575,121.45964,8.54608e-09
C1I201,中心崙,2023-12-03,23.728722,120.712097,2.4885507e-09
C1I400,凌霄,2023-12-03,24.018778,121.004456,1.114797e-09
C1M640,十字,2023-12-03,23.492153,120.753683,3.2364955e-09
G2P820,農試鳳山分所,2023-12-03,22.646611,120.356083,1.4138286e-07
C0Z270,蕃薯寮,2023-12-03,23.73835,121.540108,9.54612e-10
C0F9Q0,外埔,2023-12-03,24.347817,120.705686,1.3054668e-07
C0K580,高鐵雲林,2023-12-03,23.737456,120.417944,3.4830174e-07
C2I090,鳳凰,2023-12-03,23.728081,120.787347,7.5863793e-10
C0U990,員山,2023-12-03,24.74435,121.72247,9.007193e-10
C0V770,大社,2023-12-03,22.730306,120.346639,2.0949114e-08
C0X120,麻豆,2023-12-03,23.183289,120.248611,1.2447175e-05
C0C670,龍潭,2023-12-03,24.870056,121.221389,0.9859647
C0D680,香山濕地,2023-12-03,24.783581,120.914988,0.73298854
C0S980,勝林山,2023-12-03,22.430439,120.8938,2.417342e-07
C0V730,大寮,2023-12-03,22.605614,120.395717,7.9778655e-09
C0R570,麟洛,2023-12-03,22.65078,120.52719,2.2124304e-06
CAG100,王功漁港,2023-12-03,23.96824,120.32586,0.035832718
C0X290,北門,2023-12-03,23.267772,120.125481,1.6808275e-06
C2F930,大甲,2023-12-03,24.347667,120.640403,1.4084943e-05
C0D650,湖口,2023-12-03,24.904794,121.043628,0.9668429
C0E420,竹南,2023-12-03,24.708978,120.888897,0.9710749
C0U780,五結,2023-12-03,24.68637,121.79794,8.936195e-10
C1I250,鯉潭,2023-12-03,23.961922,120.991131,4.2686288e-10
C0R130,阿禮,2023-12-03,22.742908,120.743678,4.3404778e-09
C0X100,臺南市北區,2023-12-03,23.010394,120.194228,2.0454566e-07
C0S920,金峰嘉蘭,2023-12-03,22.594789,120.960825,1.14931595e-07
C0V490,新興,2023-12-03,22.627422,120.298803,8.681671e-09
C0F9K0,大安,2023-12-03,24.345061,120.588025,0.032907397
72N100,臺南農改,2023-12-03,23.0605,120.342194,7.2530534e-06
467290,古坑,2023-12-03,23.633639,120.551889,0.21295986
C0V440,鳳山,2023-12-03,22.646653,120.356122,1.4138286e-07
C1T940,大觀,2023-12-03,23.714206,121.373133,1.0831416e-09
72T250,花蓮農改,2023-12-03,23.975222,121.563889,1.2174121e-05
C0E740,造橋,2023-12-03,24.637056,120.864778,0.9998646
C0R100,尾寮山,2023-12-03,22.833111,120.683889,5.05445e-09
A2K630,臺大雲林校區,2023-12-03,23.730628,120.423903,3.4830174e-07
C0D580,寶山,2023-12-03,24.735006,121.025192,0.015267896
E2P990,林試扇平站,2023-12-03,22.9677,120.6857,1.0034729e-09
C0AI30,三重,2023-12-03,25.057328,121.500629,0.9108223
C0AH00,汐止,2023-12-03,25.066881,121.658778,0.85452735
C1Z040,立山,2023-12-03,23.443356,121.327375,5.22527e-09
C0R740,獅子,2023-12-03,22.201569,120.70525,0.16602673
C0W130,花嶼,2023-12-03,23.40007,119.32276,0.9863819
C0A950,鼻頭角,2023-12-03,25.129036,121.923372,0.9941086
C0K470,林內,2023-12-03,23.748675,120.609642,0.81533843
82C160,茶改場,2023-12-03,24.908472,121.185333,0.99374944
C0Z320,清水林道,2023-12-03,23.27125,121.188272,3.9671924e-09
C0R760,南仁湖,2023-12-03,22.084681,120.863353,0.72325104
C0M670,大林,2023-12-03,23.600616,120.45841,0.22322257
C0M800,茶山,2023-12-03,23.299075,120.664767,1.3444402e-09
C0A9C0,天母,2023-12-03,25.117494,121.537169,0.0007600906
72K220,南改斗南分場,2023-12-03,23.634556,120.477333,0.11272125
72AI40,桃改樹林分場,2023-12-03,24.944503,121.386972,0.9986001
C0S910,蘭嶼燈塔,2023-12-03,22.081197,121.503117,0.9978101
C0B050,八斗子,2023-12-03,25.144754,121.79167,8.381706e-05
C0U900,內城,2023-12-03,24.71813,121.68766,9.2612434e-10
C0X320,柳營,2023-12-03,23.253328,120.375253,0.10283798
C0M790,新港,2023-12-03,23.553269,120.345728,7.821725e-05
C0F9T0,西屯,2023-12-03,24.179494,120.641275,0.00021615067
C0SA30,都歷,2023-12-03,23.020333,121.323642,1.10162944e-07
C0C620,蘆竹,2023-12-03,25.084275,121.265767,0.9995117
C0R730,大坪頂,2023-12-03,22.024633,120.69355,0.37219355
C0AJ40,石門,2023-12-03,25.273672,121.601198,0.99851775
C0E750,苗栗,2023-12-03,24.564569,120.824575,0.98887414
C0T870,鯉魚潭,2023-12-03,23.935639,121.508944,2.6953928e-09
C1V170,排雲,2023-12-03,23.463619,120.954147,1.2509311e-08
C2H950,中寮,2023-12-03,23.884447,120.766406,0.013417255
C0R350,貓鼻頭,2023-12-03,21.921774,120.7358,0.99496174
C0V660,岡山,2023-12-03,22.797078,120.294958,1.1805668e-05
C1H941,雙冬,2023-12-03,23.967378,120.802189,5.1234983e-10
C0AJ70,田寮,2023-12-03,25.2698,121.4886,0.9993637
C0AI00,五股,2023-12-03,25.07445,121.42728,0.9916324
C0Z280,德武,2023-12-03,23.47426,121.41071,7.990806e-10
C0R700,枋山,2023-12-03,22.246844,120.661086,0.9558382
C0C460,復興,2023-12-03,24.820208,121.352281,2.2550666e-06
E2H360,蓮華池,2023-12-03,23.918333,120.885278,5.253729e-10
C0M640,中埔,2023-12-03,23.42538,120.5229,0.007357508
C0W140,金沙,2023-12-03,24.488292,118.408778,0.9802425
C2A540,四堵,2023-12-03,24.8926,121.745736,8.244497e-09
C0ACA0,新莊,2023-12-03,25.051478,121.446756,0.99806863
C0R220,潮州,2023-12-03,22.534361,120.54,1.9806246e-06
U2HA40,臺大內茅埔,2023-12-03,23.689722,120.851117,6.6175637e-10
467490,臺中,2023-12-03,24.145736,120.684075,0.9371552
C0U960,翠峰湖,2023-12-03,24.510856,121.608044,1.7331256e-08
E2HA20,林試畢祿溪站,2023-12-03,24.226944,121.308522,4.657106e-09
C0V890,前鎮,2023-12-03,22.5718,120.3117,1.2352377e-08
467620,蘭嶼,2023-12-03,22.036969,121.558339,0.99191016
C1F941,雪嶺,2023-12-03,24.280586,121.026642,8.081981e-09
C0AC80,文山,2023-12-03,25.00235,121.575728,0.9987752
C0F9R0,龍井,2023-12-03,24.184536,120.528972,0.053124115
C0M760,民雄,2023-12-03,23.551754,120.428457,0.2624726
C0UA40,西德山,2023-12-03,24.560647,121.752608,1.13574465e-08
C1T920,中興,2023-12-03,23.769503,121.498653,1.6406829e-09
C0D550,雪霸,2023-12-03,24.526972,121.11605,2.6576212e-09
C2F860,梨山,2023-12-03,24.247522,121.243669,4.857805e-09
C0R320,車城,2023-12-03,22.0744,120.716247,0.980104
C1S870,南美山,2023-12-03,23.15025,121.382333,9.059848e-10
C0B020,基隆嶼,2023-12-03,25.19141,121.78391,0.99979943
C1U501,牛鬥,2023-12-03,24.637836,121.573656,3.3221186e-09
C0M730,嘉義市東區,2023-12-03,23.457673,120.460531,0.51497287
C0S700,知本,2023-12-03,22.684866,121.005642,2.07705e-09
C1N001,沙崙,2023-12-03,22.935472,120.309406,1.2730143e-07
C0V760,橋頭,2023-12-03,22.757806,120.30575,2.1795476e-08
C0G960,福寶,2023-12-03,24.0443,120.3814,7.509182e-06
C0X210,白河,2023-12-03,23.347466,120.414427,0.105973616
C0S810,東河,2023-12-03,22.972672,121.303986,0.99914646
C0R670,楓港,2023-12-03,22.190131,120.692156,0.8227548
C0FA50,霧峰,2023-12-03,24.0419,120.6995,0.061267927
C0UB10,蘇澳,2023-12-03,24.5969,121.8571,2.7414289e-09
C0G950,防潮門,2023-12-03,24.1835,120.4871,0.052497383
C0M740,六腳,2023-12-03,23.492871,120.290625,0.00088402245
C1R250,力里,2023-12-03,22.428117,120.629228,7.871325e-08
C0K330,虎尾,2023-12-03,23.719183,120.442036,2.970836e-07
C2FA00,烏石坑,2023-12-03,24.273503,120.947617,9.697503e-10
C0V620,永安,2023-12-03,22.82315,120.236856,1.1595538e-05
C1I330,楓樹林,2023-12-03,23.986803,121.076117,9.032e-10
C0W200,湖西,2023-12-03,23.596314,119.67275,0.97269917
72Q010,高雄農改場,2023-12-03,22.709333,120.525889,4.580242e-05
C0SA40,瑞和,2023-12-03,22.974361,121.156697,1.8896802e-06
C0C680,龜山,2023-12-03,25.02846,121.38656,0.9423057
C2V260,月眉,2023-12-03,22.971003,120.539853,0.00011175353
C0V450,鳳森,2023-12-03,22.545064,120.392592,4.0921804e-09
C0U720,南山,2023-12-03,24.43742,121.38167,8.897372e-09
A2N290,臺南蘭花園區,2023-12-03,23.340258,120.379661,0.01642539
C0R560,新園,2023-12-03,22.5434,120.461558,8.094245e-09
C0U890,三星,2023-12-03,24.66812,121.65302,3.169885e-09
C1V300,御油山,2023-12-03,23.001983,120.715364,3.6129553e-09
C0U600,礁溪,2023-12-03,24.817539,121.765608,5.589188e-09
C1T980,龍澗,2023-12-03,24.023289,121.411328,2.404876e-08
C0D670,海天一線,2023-12-03,24.831986,120.914438,0.6965058
C0SA00,歷坵,2023-12-03,22.520969,120.89185,6.051623e-09
C0M710,東石,2023-12-03,23.458927,120.15385,0.05003619
C0M780,鹿草,2023-12-03,23.41134,120.30835,0.0024587766
C0U520,雙連埤,2023-12-03,24.753033,121.641303,6.9999633e-09
C0B010,七堵,2023-12-03,25.094819,121.71713,0.1704305
C0R480,長治,2023-12-03,22.693128,120.542622,7.906728e-09
C1V830,國三S383K,2023-12-03,22.781967,120.426475,3.4557768e-08
12Q980,恆春工作站,2023-12-03,22.079678,120.714425,0.980104
C1O940,東山服務區,2023-12-03,23.286016,120.398472,0.033463053
C1U840,東澳嶺,2023-12-03,24.5378,121.8485,5.4134772e-09
C1D630,飛鳳山,2023-12-03,24.766464,121.119178,0.00016888385
C0S940,石寧山,2023-12-03,23.223772,121.406639,8.997234e-10
C0K410,北港,2023-12-03,23.573957,120.292802,0.00013101731
C2M620,瑞里,2023-12-03,23.545133,120.675197,2.3063362e-09
C2O950,安南,2023-12-03,23.076694,120.144861,6.632177e-08
C0F0E0,南湖圈谷,2023-12-03,24.363714,121.444667,3.4929528e-08
467610,成功,2023-12-03,23.097486,121.373428,0.15948252
C0G890,伸港,2023-12-03,24.148933,120.484403,1.968676e-05
C2E540,龍溪,2023-12-03,24.606489,120.783933,0.9998637
C1V200,梅山,2023-12-03,23.268447,120.823556,1.1475112e-09
C0T9H0,加路蘭山,2023-12-03,23.682947,121.5274,1.7253869e-09
C2O930,玉井,2023-12-03,23.126042,120.46055,0.0011923289
C1F911,新伯公,2023-12-03,24.221361,120.841069,3.229412e-08
C0R490,九如,2023-12-03,22.7405,120.490503,6.329665e-05
C0X200,左鎮,2023-12-03,23.056758,120.408522,4.6211712e-06
C1F891,稍來,2023-12-03,24.265689,121.001142,5.44982e-09
72N240,七股研究中心,2023-12-03,23.081672,120.062894,8.724253e-08
C0C700,中壢,2023-12-03,24.977661,121.256375,0.9989116
C0M690,水上,2023-12-03,23.419734,120.388909,0.03184297
C0V690,鼓山,2023-12-03,22.623325,120.275575,8.681671e-09
C0O860,大內,2023-12-03,23.11885,120.36083,9.417672e-06
C0Z200,萬榮,2023-12-03,23.709219,121.420106,1.0548387e-09
C0T9D0,和中,2023-12-03,24.26676,121.74103,1.5420494e-09
C1O921,楠西,2023-12-03,23.183511,120.484083,0.1375804
C0AJ30,淡水觀海,2023-12-03,25.184591,121.408616,0.7184291
C0V810,左營,2023-12-03,22.67491,120.28491,2.2143904e-07
C0UA70,桃源谷,2023-12-03,24.962606,121.888875,2.5774337e-08
C0X130,官田,2023-12-03,23.193217,120.315422,0.00707463
C1H000,翠峰,2023-12-03,24.109397,121.205211,1.1025666e-08
C0UA90,石城,2023-12-03,24.980444,121.951214,1.0570284e-08
C1E681,南勢山,2023-12-03,24.421669,120.923831,8.9915386e-10
C0A9F0,內湖,2023-12-03,25.079422,121.57545,0.85452735
C0K291,宜梧,2023-12-03,23.536281,120.169329,0.0032820655
C1K540,口湖,2023-12-03,23.585344,120.180517,0.06391063
C0R780,滿州,2023-12-03,22.024403,120.839892,0.30564427
C0V870,文安,2023-12-03,22.8025,120.2164,2.0318648e-05
C0U650,玉蘭,2023-12-03,24.675286,121.587061,7.773611e-09
C0R640,東港,2023-12-03,22.46247,120.44074,0.00057189784
K2E360,苗栗農改,2023-12-03,24.495722,120.829111,2.7048017e-07
C0AJ80,板橋,2023-12-03,25.0107,121.4489,0.99901766
C0S660,下馬,2023-12-03,23.150427,121.070312,2.5884928e-09
C1H9B1,阿眉,2023-12-03,24.1263,120.994672,2.8334566e-09
C0UA20,多加屯,2023-12-03,24.368614,121.373189,5.6149814e-09
C0E730,頭份,2023-12-03,24.688247,120.912206,0.96526855
72V140,高改旗南分場,2023-12-03,22.857861,120.516667,1.5503127e-05
C0K480,莿桐,2023-12-03,23.761192,120.502372,0.002159658
C0U980,坪林石牌,2023-12-03,24.86478,121.77396,9.139657e-09
C0T900,西林,2023-12-03,23.8119,121.441458,1.1371184e-09
C1I150,青雲,2023-12-03,23.793361,120.949378,9.906647e-10
467350,澎湖,2023-12-03,23.565503,119.563094,0.99194837
C0G800,埔鹽,2023-12-03,24.000394,120.431683,2.2730545e-05
C0H960,草屯,2023-12-03,23.973672,120.68085,0.03085807
C1V780,多納林道,2023-12-03,22.888028,120.737917,3.531874e-09
C0E920,通霄漁港,2023-12-03,24.498589,120.673876,0.111355424
C0Z330,安通山,2023-12-03,23.290728,121.348528,6.268109e-10
C0AH10,永和,2023-12-03,25.01125,121.508111,0.9990169
C2G640,鹿港,2023-12-03,24.0753,120.430481,7.509182e-06
C1E890,國三N149K,2023-12-03,24.463414,120.680019,0.9955034
C1R110,口社,2023-12-03,22.770111,120.645222,0.010129093
C1M870,國三N285K,2023-12-03,23.550319,120.505833,0.1864882
467050,新屋,2023-12-03,25.006744,121.047486,0.97906584
C1E480,鳳美,2023-12-03,24.554803,121.034747,7.7863976e-10
C0M530,奮起湖,2023-12-03,23.493903,120.699253,2.7105602e-09
C0C590,觀音,2023-12-03,25.027072,121.153317,0.97607064
C0T9M0,靜浦,2023-12-03,23.455167,121.495028,1.6212716e-09
C0AI40,石牌,2023-12-03,25.115597,121.513139,0.0017431796
C1F871,上谷關,2023-12-03,24.203483,121.018644,8.6265195e-10
C0G880,二水,2023-12-03,23.810742,120.6173,0.59318966
C0R940,加祿堂,2023-12-03,22.3363,120.6217,0.9555881
C0W220,北竿,2023-12-03,26.220358,119.974881,0.53324974
C0O960,崎頂,2023-12-03,22.959547,120.369317,3.6425234e-08
C0S750,向陽,2023-12-03,23.248397,120.986133,7.329996e-09
C0T9F0,水璉,2023-12-03,23.797131,121.542514,1.0423685e-09
C1M600,頭凍,2023-12-03,23.406364,120.603339,1.2883028e-09
467660,臺東,2023-12-03,22.752211,121.154586,0.9996533
C1D380,新埔,2023-12-03,24.84745,121.03834,0.84477884
C0V750,路竹,2023-12-03,22.854997,120.259439,1.7987558e-06
C0N050,蚵寮,2023-12-03,23.301,120.1104,1.8907667e-05
72M700,南改鹿草分場,2023-12-03,23.416869,120.283061,0.0031645515
C1SA50,利嘉林道,2023-12-03,22.82325,121.009389,1.4300694e-08
467550,玉山,2023-12-03,23.487614,120.959522,1.5174308e-08
C0A940,金山,2023-12-03,25.223628,121.643967,0.00034200397
C1V340,大津,2023-12-03,22.888322,120.645986,6.844448e-06
C0W180,七美,2023-12-03,23.219333,119.444892,0.99757344
C1F9C1,白冷,2023-12-03,24.182844,120.929889,1.4199957e-09
K2E710,苗改生物防治研究中心,2023-12-03,24.422861,120.871833,2.0503708e-09
C0N040,蘆竹溝,2023-12-03,23.2344,120.0961,1.6808275e-06
C2W230,畜試所澎湖,2023-12-03,23.628342,119.513206,0.9812646
C0R880,後壁湖,2023-12-03,21.9457,120.7457,0.9985487
C1I280,埔中,2023-12-03,23.820778,120.642594,2.3841562e-06
467790,墾丁雷達站,2023-12-03,21.948235,120.808028,0.9839131
C0W190,望安,2023-12-03,23.380564,119.494075,0.99302393
466881,新北,2023-12-03,24.9593,121.52,0.99890256
C0Z170,卓溪,2023-12-03,23.3443,121.3029,5.979714e-10
C0F850,東勢,2023-12-03,24.246428,120.833047,9.839051e-06
466900,淡水,2023-12-03,25.164889,121.448906,0.99896675
C0I370,魚池,2023-12-03,23.895703,120.94135,4.7768917e-10
C0C630,大溪,2023-12-03,24.882853,121.265547,0.9952446
C0A520,山佳,2023-12-03,24.974944,121.402008,0.99934965
C0I110,竹山,2023-12-03,23.761225,120.688156,0.035812296
82H840,茶改南部分場,2023-12-03,23.762528,120.7405,4.432177e-06
C0G660,溪湖,2023-12-03,23.94835,120.479122,0.00022398928
C1T800,洛韶,2023-12-03,24.204558,121.453956,1.8329457e-08
C1T810,慈恩,2023-12-03,24.192044,121.388386,9.149704e-09
C1E451,象鼻,2023-12-03,24.368617,120.940228,6.742911e-10
C0AC60,三峽,2023-12-03,24.939025,121.369728,0.998543
C0I490,萬大林道,2023-12-03,23.928228,121.091411,1.4320285e-09
C1I290,豐丘,2023-12-03,23.668178,120.887417,1.5377847e-09
C1I320,奧萬大,2023-12-03,23.952956,121.178556,7.657366e-10
C0U770,南澳,2023-12-03,24.44935,121.81022,1.6562846e-09
C0A980,社子,2023-12-03,25.109508,121.469681,0.9989255
C0V800,六龜,2023-12-03,22.997889,120.633583,3.977245e-07
C1G9D0,國一S218K,2023-12-03,23.890641,120.493253,1.1461016e-05
C2F9A0,中竹林,2023-12-03,24.103556,120.751061,1.1505755e-06
C0FA40,臺中電廠,2023-12-03,24.2146,120.4907,0.053648245
C0H9C0,合歡山,2023-12-03,24.143442,121.272547,1.4784282e-08
C0X060,下營,2023-12-03,23.22695,120.256261,0.00047289275
G2M350,農試溪口農場,2023-12-03,23.58565,120.408111,0.34851572
C0U860,頭城,2023-12-03,24.85323,121.8308,5.7738605e-09
C0R580,南州,2023-12-03,22.48591,120.50274,0.00057189784
C0D430,峨眉,2023-12-03,24.6905,121.017189,0.99971867
C0G780,秀水,2023-12-03,24.03405,120.503869,7.3010204e-05
72N100,臺南農改場,2023-12-03,23.0605,120.342194,7.2530534e-06
C0S900,蘭嶼高中,2023-12-03,22.04909,121.51214,0.9973614
467540,大武,2023-12-03,22.355675,120.903789,0.40687838
C1F9W0,德基,2023-12-03,24.254783,121.190261,3.9758965e-09
C1Z120,壽豐,2023-12-03,23.870853,121.508081,4.253985e-09
C0W160,烏坵,2023-12-03,24.9944,119.44956,0.52086335
C1I240,外大坪,2023-12-03,23.958697,120.917931,4.315249e-10
C1I550,國六W023K,2023-12-03,23.979067,120.867742,2.0655142e-09
C0R870,興海,2023-12-03,21.9752,120.8439,0.98831385
C0R140,瑪家,2023-12-03,22.682903,120.686639,6.6898793e-09
C0A530,坪林,2023-12-03,24.938183,121.70975,9.070417e-09
C0X260,後壁,2023-12-03,23.366358,120.362326,0.01642539
C0Z230,和平,2023-12-03,24.30717,121.77007,1.5642314e-09
C0G770,福興,2023-12-03,24.041289,120.437669,2.2730545e-05
C0H9A0,神木村,2023-12-03,23.532742,120.843667,3.3408765e-09
C0I460,南投,2023-12-03,23.911469,120.687331,0.0031214964
C0I480,梅峰,2023-12-03,24.085272,121.173572,3.9512886e-09
C1V570,吉東,2023-12-03,22.85422,120.5454,5.4583343e-06
C2A560,福山,2023-12-03,24.776203,121.502811,2.9522425e-08
C0AH30,五分山,2023-12-03,25.07125,121.780794,2.0195543e-08
C0FA10,松柏,2023-12-03,24.429115,120.617482,0.998773
72S200,東改班鳩分場,2023-12-03,22.829528,121.077694,0.99633294
72HA00,中改埔里分場,2023-12-03,23.903208,120.963364,5.1581006e-10
C0C650,平鎮,2023-12-03,24.897503,121.214636,0.9794271
C0S930,延平,2023-12-03,22.902581,121.084058,0.101554655
C0UA60,樟樹山,2023-12-03,24.41393,121.78325,1.3747598e-08
C1S670,摩天,2023-12-03,23.199503,121.027,1.0877029e-08
C0V630,茄萣,2023-12-03,22.906642,120.182608,5.1215816e-06
466940,基隆,2023-12-03,25.133314,121.740475,5.2859352e-05
C0X050,東河,2023-12-03,23.296598,120.385608,0.06256158
C0R770,保力,2023-12-03,22.071122,120.764111,0.44504505
G2L020,農試嘉義分所,2023-12-03,23.485028,120.473806,0.8084301
C0X240,關子嶺,2023-12-03,23.331169,120.508025,7.982249e-09
C0I380,集集,2023-12-03,23.828206,120.801467,8.742219e-05
466990,花蓮,2023-12-03,23.975128,121.613275,2.8308004e-05
C1V220,小關山,2023-12-03,23.154217,120.813603,4.1444785e-09
C1F9G1,慶福山,2023-12-03,24.180853,120.848378,3.8319614e-10
C0Z250,瑞穗林道,2023-12-03,23.49284,121.30688,1.022083e-08
C0D590,新豐,2023-12-03,24.87068,120.97721,0.8602644
C0A870,五指山,2023-12-03,25.132153,121.608692,1.0262478e-08
C0UA50,西帽山,2023-12-03,24.555361,121.802628,9.000792e-09
C0X160,仁德,2023-12-03,22.968258,120.257689,9.4086084e-07
C1H971,六分寮,2023-12-03,23.92507,120.6378,1.3771565e-07
C0W120,西嶼,2023-12-03,23.5626,119.468436,0.9885954
C0G650,員林,2023-12-03,23.946503,120.585597,0.32975897
C0AD50,鶯歌,2023-12-03,24.951533,121.346294,0.9983101
C0S990,山豬窟,2023-12-03,22.318619,120.857372,0.8934172
72Q010,高雄農改,2023-12-03,22.709333,120.525889,4.580242e-05
C0X190,安平,2023-12-03,22.993161,120.152181,2.0454566e-07
C0K400,斗六,2023-12-03,23.720583,120.541127,0.004169516
12J990,口湖工作站,2023-12-03,23.589978,120.180394,0.06391063
C0O830,北寮,2023-12-03,23.079561,120.495008,0.002028202
C1D410,白蘭,2023-12-03,24.579364,121.079947,2.0024233e-09
C0S970,加津林,2023-12-03,22.416211,120.926942,0.50996107
C0D700,關西,2023-12-03,24.7977,121.1732,0.9946015
C0M810,里佳,2023-12-03,23.389125,120.716647,2.2805973e-09
C0U750,龜山島,2023-12-03,24.841667,121.953133,0.8850851
C0R810,內獅,2023-12-03,22.305064,120.642986,0.94926894
C1M390,龍美,2023-12-03,23.406728,120.654417,1.6611124e-09
C1H840,國三N238K,2023-12-03,23.841008,120.707711,2.7277918e-07
CAQ030,崎峰國小,2023-12-03,22.42565,120.49521,0.00057189784
C2E520,大湖,2023-12-03,24.414939,120.870872,1.1935961e-09
467530,阿里山,2023-12-03,23.508208,120.813242,6.2835053e-09
C1E691,南湖,2023-12-03,24.40135,120.837533,6.950694e-10
C0FA30,梧棲,2023-12-03,24.256003,120.523381,0.897942
C1V231,高中,2023-12-03,23.134911,120.716711,1.0759842e-09
C0F9V0,新社,2023-12-03,24.200172,120.815806,5.885494e-09
C0H890,埔里,2023-12-03,23.972169,120.952425,1.0892055e-09
C0R690,墾丁,2023-12-03,21.966756,120.810269,0.8913108
C0F0D0,審馬陣,2023-12-03,24.381675,121.4203,9.179997e-09
C0R820,白鷺,2023-12-03,22.454275,120.666219,4.0923155e-07
U2H480,臺大溪頭,2023-12-03,23.670306,120.798194,1.4131976e-09
C1V190,南天池,2023-12-03,23.27403,120.91176,6.0618817e-09
K2E360,苗栗農改場,2023-12-03,24.495722,120.829111,2.7048017e-07
CAJ050,海口故事園區,2023-12-03,23.57543,120.14121,0.06391063
C0O990,媽廟,2023-12-03,22.99175,120.293525,3.0011797e-06
C0D480,打鐵坑,2023-12-03,24.849664,121.150789,0.98261833
C0Z220,和平林道,2023-12-03,24.343922,121.656317,1.7749964e-09
72C440,桃園農改場,2023-12-03,24.950944,121.030583,0.93421495
C1E711,馬拉邦山,2023-12-03,24.367306,120.901656,7.0146217e-10
C0D560,竹東,2023-12-03,24.767147,121.057881,0.9932075
C0F9U0,南屯,2023-12-03,24.137006,120.637969,0.000820095
C0M720,番路,2023-12-03,23.464657,120.554156,0.00046489434
C0F0A0,雪山圈谷,2023-12-03,24.388594,121.236339,1.483442e-08
C1A9N0,四十份,2023-12-03,24.934158,121.593283,8.470576e-06
C0U760,東澳,2023-12-03,24.52196,121.83318,1.3750161e-09
C0X230,鹽水,2023-12-03,23.272621,120.247641,1.1731337e-05
C0V370,古亭坑,2023-12-03,22.893178,120.401947,2.8857356e-08
C1I340,新興橋,2023-12-03,23.563333,120.868728,8.6276053e-10
C0SA80,土坂,2023-12-03,22.453108,120.887572,0.4439096
C0R160,鹽埔,2023-12-03,22.739558,120.530778,4.6126825e-05
C0AC40,大屯山,2023-12-03,25.175675,121.522408,1.9072603e-08
466850,五分山雷達站,2023-12-03,25.071182,121.781205,2.0131624e-08
C1AI50,國三N016K,2023-12-03,25.034164,121.619664,0.5413859
C1V600,藤枝,2023-12-03,23.071961,120.757042,2.7860665e-09
C1E601,南勢,2023-12-03,24.572486,120.734842,0.9996645
C0Z180,新城,2023-12-03,24.03946,121.60454,2.191795e-05
C0O980,新市,2023-12-03,23.061614,120.298197,1.731306e-05
C0K420,西螺,2023-12-03,23.800407,120.467394,3.8473598e-07
C0Z050,佳心,2023-12-03,23.34567,121.21316,5.0747455e-09
C0AD30,蘆洲,2023-12-03,25.086594,121.472331,0.9108586
C0V610,梓官,2023-12-03,22.760558,120.267211,2.1795476e-08
K2F750,種苗改良場,2023-12-03,24.225972,120.800917,1.3257956e-08
C0UA80,大溪漁港,2023-12-03,24.941801,121.902955,2.2832271e-08
C1AI60,國一39K邊坡,2023-12-03,25.064361,121.383836,0.97879505
C0W150,金寧,2023-12-03,24.457703,118.328989,0.99919915
V2C250,八德合作社,2023-12-03,24.93775,121.266389,0.99421936
C0AH40,平等,2023-12-03,25.129142,121.577086,1.8301197e-08
C0R540,佳冬,2023-12-03,22.419456,120.552375,0.5502697
466950,彭佳嶼,2023-12-03,25.627975,122.079744,0.9989122
C0A890,雙溪,2023-12-03,25.036003,121.864242,3.0036168e-07
C0C480,桃園,2023-12-03,24.992425,121.323172,0.99912447
C0AH50,林口,2023-12-03,25.072181,121.38084,0.84690315
A2K360,水試臺西試驗場,2023-12-03,23.717231,120.190522,0.10514165
B2N890,畜試所,2023-12-03,23.058972,120.336406,7.2530534e-06
C0F9S0,烏日,2023-12-03,24.107058,120.624103,0.5592025
C0C490,八德,2023-12-03,24.928708,121.283289,0.9937324
C0R190,赤山,2023-12-03,22.592333,120.614306,0.00045302397
C0T820,天祥,2023-12-03,24.179597,121.495639,6.347229e-08
C1F9E1,龍安,2023-12-03,24.1605,120.831961,3.3795317e-07
C0V820,小林,2023-12-03,23.148408,120.63325,2.4297318e-08
C2G870,芳苑,2023-12-03,23.922303,120.320025,0.021259418
C0E850,大河,2023-12-03,24.618069,120.948578,0.0016181507
C1U670,寒溪,2023-12-03,24.634,121.71691,7.76873e-10
C0N020,城西,2023-12-03,23.0568,120.0956,2.0454566e-07
C1Z110,三棧,2023-12-03,24.11557,121.60501,4.1030457e-08
C0R280,檳榔,2023-12-03,22.076078,120.836777,0.29418737
C0F9L0,后里,2023-12-03,24.310436,120.729725,1.8272307e-05
C0D540,橫山,2023-12-03,24.71116,121.11693,6.584227e-06
C1D420,太閣南,2023-12-03,24.632808,121.160575,8.763877e-09
C1E770,公館,2023-12-03,24.526914,120.830806,2.7349106e-06
CAN130,水試所海水繁養殖中心,2023-12-03,23.120802,120.07968,8.724253e-08
C1I430,翠華,2023-12-03,24.191961,121.224339,5.1747864e-09
C1M400,菜瓜坪,2023-12-03,23.251928,120.576103,2.0404771e-09
C0G730,二林,2023-12-03,23.903325,120.376081,7.474442e-07
72M360,南改義竹分場,2023-12-03,23.360694,120.279361,0.0014753367
V2K620,麥寮合作社,2023-12-03,23.753836,120.294783,3.3030935e-07
C0Z070,舞鶴,2023-12-03,23.46811,121.37407,6.741908e-10
C0B040,大武崙,2023-12-03,25.166676,121.706993,1.6509794e-05
C1Z030,紅葉,2023-12-03,23.493119,121.338806,9.11994e-10
C1I050,丹大,2023-12-03,23.753747,121.141147,8.7735765e-09
C0I080,信義,2023-12-03,23.689694,120.851036,6.6175637e-10
C2A880,福隆,2023-12-03,25.017842,121.942083,1.0739446e-08
C0Z160,鳳林,2023-12-03,23.746114,121.453411,1.1256168e-09
C0V210,復興,2023-12-03,23.222403,120.806089,9.86778e-10
C0H990,昆陽,2023-12-03,24.121322,121.273642,1.8775763e-08
C0S710,鹿野,2023-12-03,22.917711,121.122994,1.0707335e-08
C0I530,小奇萊,2023-12-03,24.131764,121.295717,1.9578671e-08
C0Z080,富源,2023-12-03,23.587642,121.378225,2.2385949e-09
467441,高雄,2023-12-03,22.7304,120.3125,2.0949114e-08
C1I140,卡奈托灣,2023-12-03,23.754364,121.087872,1.5066756e-09
C0I520,玉山風口,2023-12-03,23.470489,120.955994,1.6669913e-08
C1G691,下水埔,2023-12-03,23.816114,120.5676,0.0011538792
C0X110,臺南市南區,2023-12-03,22.961189,120.188378,9.3071924e-07
C0V680,仁武,2023-12-03,22.701083,120.347722,2.2196974e-07
C2G840,北斗,2023-12-03,23.877586,120.514222,8.285103e-06
C0R900,竹坑,2023-12-03,22.1385,120.7022,0.9779632
C0K250,崙背,2023-12-03,23.75555,120.318925,3.3030935e-07
C0G860,社頭,2023-12-03,23.897647,120.5862,0.16237931
C0X150,安定,2023-12-03,23.102614,120.227839,1.1243138e-06
C0R590,里港,2023-12-03,22.77919,120.49459,1.7687762e-07
C0E610,馬都安,2023-12-03,24.451272,120.930192,7.28357e-10
C0E550,明德,2023-12-03,24.583486,120.885411,0.9689589
C0R150,三地門,2023-12-03,22.709889,120.639944,0.013771098
C0G910,花壇,2023-12-03,24.032076,120.549461,4.188022e-05
C1D400,鳥嘴山,2023-12-03,24.71909,121.28387,9.17046e-09
C0K500,元長,2023-12-03,23.64981,120.315024,4.0389286e-06
C0F0B0,石岡,2023-12-03,24.276061,120.777644,4.558022e-06
C2V250,甲仙,2023-12-03,23.080106,120.591758,9.527921e-06
C0SA20,金崙山,2023-12-03,22.567419,120.959667,2.3062703e-09
C0V350,溪埔,2023-12-03,22.738578,120.446797,5.057278e-08
C0M660,溪口,2023-12-03,23.604131,120.403569,0.34965336
C1S880,壽卡,2023-12-03,22.238911,120.858903,0.9913824
72D680,桃改新埔分場,2023-12-03,24.834444,121.066111,0.9051879
