站號,站名,日期,lat,lon,BlastGRU-TW
12J990,口湖工作站,2023-10-26,23.589978,120.180394,0.43647492
12Q970,東港工作站,2023-10-26,22.479997,120.466058,0.98636454
12Q980,恆春工作站,2023-10-26,22.079678,120.714425,0.99993795
466881,新北,2023-10-26,24.9593,121.52,0.5494236
466900,淡水,2023-10-26,25.164889,121.448906,0.10413123
466920,臺北,2023-10-26,25.037658,121.514853,0.18197198
466940,基隆,2023-10-26,25.133314,121.740475,0.065435
466990,花蓮,2023-10-26,23.975128,121.613275,0.9996294
467050,新屋,2023-10-26,25.006744,121.047486,0.106988765
467080,宜蘭,2023-10-26,24.763975,121.756528,0.990064
467270,田中,2023-10-26,23.873803,120.581286,0.9922233
467300,東吉島,2023-10-26,23.25695,119.667467,0.94756943
467350,澎湖,2023-10-26,23.565503,119.563094,0.9550898
467410,臺南,2023-10-26,22.993239,120.204772,0.3683364
467420,永康,2023-10-26,23.038386,120.2367,0.43414256
467441,高雄,2023-10-26,22.7304,120.3125,0.9105712
467480,嘉義,2023-10-26,23.495925,120.432906,0.8039641
467490,臺中,2023-10-26,24.145736,120.684075,0.9496657
467540,大武,2023-10-26,22.355675,120.903789,0.99957144
467571,新竹,2023-10-26,24.827853,121.014219,0.25512385
467590,恆春,2023-10-26,22.003897,120.746339,0.9999384
467610,成功,2023-10-26,23.097486,121.373428,0.9991064
467620,蘭嶼,2023-10-26,22.036969,121.558339,0.99986744
467660,臺東,2023-10-26,22.752211,121.154586,0.9997376
467790,墾丁雷達站,2023-10-26,21.948235,120.808028,0.9999386
72AI40,桃改樹林分場,2023-10-26,24.944503,121.386972,0.5882795
72C440,桃園農改,2023-10-26,24.950944,121.030583,0.17026393
72C440,桃園農改場,2023-10-26,24.950944,121.030583,0.17026393
72D680,桃改新埔分場,2023-10-26,24.834444,121.066111,0.2775723
72G600,臺中農改,2023-10-26,24.003028,120.534389,0.9559552
72G600,臺中農改場,2023-10-26,24.003028,120.534389,0.9559552
72K220,南改斗南分場,2023-10-26,23.634556,120.477333,0.99140257
72M360,南改義竹分場,2023-10-26,23.360694,120.279361,0.48516732
72M700,南改鹿草分場,2023-10-26,23.416869,120.283061,0.46838444
72N100,臺南農改,2023-10-26,23.0605,120.342194,0.6022661
72N100,臺南農改場,2023-10-26,23.0605,120.342194,0.6022661
72N240,七股研究中心,2023-10-26,23.081672,120.062894,0.4389708
72Q010,高雄農改,2023-10-26,22.709333,120.525889,0.99508804
72Q010,高雄農改場,2023-10-26,22.709333,120.525889,0.99508804
72S200,東改班鳩分場,2023-10-26,22.829528,121.077694,0.9995363
72S590,東改賓朗果園,2023-10-26,22.813889,121.071278,0.99960566
72T250,花蓮農改,2023-10-26,23.975222,121.563889,0.9992058
72T250,花蓮農改場,2023-10-26,23.975222,121.563889,0.9992058
72U480,花改蘭陽分場,2023-10-26,24.686306,121.716583,0.98992854
72V140,高改旗南分場,2023-10-26,22.857861,120.516667,0.9947208
82A750,茶改北部分場,2023-10-26,24.955778,121.631222,0.9914892
82C160,茶改場,2023-10-26,24.908472,121.185333,0.5627395
82H840,茶改南部分場,2023-10-26,23.762528,120.7405,0.92567104
82S580,茶改東部分場,2023-10-26,22.907694,121.130139,0.9982941
A2C560,農工中心,2023-10-26,24.985917,121.239833,0.2436097
A2K360,水試臺西試驗場,2023-10-26,23.717231,120.190522,0.5705178
A2K570,古坑花卉中心,2023-10-26,23.63353,120.55239,0.99017584
A2K630,臺大雲林校區,2023-10-26,23.730628,120.423903,0.99102813
A2N290,臺南蘭花園區,2023-10-26,23.340258,120.379661,0.6467887
B2E890,畜試北區分所,2023-10-26,24.527806,120.770972,0.6789006
B2N890,畜產試驗所,2023-10-26,23.058972,120.336406,0.6040251
B2N890,畜試所,2023-10-26,23.058972,120.336406,0.6040251
B2Q810,畜試南區分所,2023-10-26,21.945583,120.802167,0.9999383
B2U990,畜試東區分所,2023-10-26,24.669039,121.832561,0.9969962
C0A520,山佳,2023-10-26,24.974944,121.402008,0.5750463
C0A530,坪林,2023-10-26,24.938183,121.70975,0.9770196
C0A540,四堵,2023-10-26,24.8926,121.745736,0.96991867
C0A550,泰平,2023-10-26,24.971197,121.823711,0.9930477
C0A560,福山,2023-10-26,24.776203,121.502811,0.9332644
C0A570,桶後,2023-10-26,24.848222,121.597992,0.9784039
C0A640,石碇,2023-10-26,24.993969,121.662917,0.98379964
C0A650,火燒寮,2023-10-26,25.002719,121.742892,0.9850094
C0A660,瑞芳,2023-10-26,25.113169,121.801147,0.98672724
C0A770,科教館,2023-10-26,25.096356,121.516507,0.21164209
C0A860,大坪,2023-10-26,25.165914,121.632969,0.97727454
C0A880,福隆,2023-10-26,25.017842,121.942083,0.98266417
C0A890,雙溪,2023-10-26,25.036003,121.864242,0.5484474
C0A920,富貴角,2023-10-26,25.263783,121.565258,0.3502259
C0A931,三和,2023-10-26,25.233153,121.595236,0.9807253
C0A940,金山,2023-10-26,25.223628,121.643967,0.45744216
C0A950,鼻頭角,2023-10-26,25.129036,121.923372,0.9567338
C0A970,三貂角,2023-10-26,25.007606,122.002058,0.9740336
C0A980,社子,2023-10-26,25.109508,121.469681,0.20167536
C0A9C0,天母,2023-10-26,25.117494,121.537169,0.5124835
C0A9F0,內湖,2023-10-26,25.079422,121.57545,0.56771594
C0AC60,三峽,2023-10-26,24.939025,121.369728,0.68355036
C0AC70,信義,2023-10-26,25.037822,121.564597,0.3988105
C0AC80,文山,2023-10-26,25.00235,121.575728,0.3025792
C0ACA0,新莊,2023-10-26,25.051478,121.446756,0.1921402
C0AD00,三芝,2023-10-26,25.258131,121.501917,0.26414564
C0AD10,八里,2023-10-26,25.150211,121.403947,0.07964978
C0AD30,蘆洲,2023-10-26,25.086594,121.472331,0.21082403
C0AD40,土城,2023-10-26,24.973208,121.445169,0.48404998
C0AD50,鶯歌,2023-10-26,24.951533,121.346294,0.5168924
C0AG80,中和,2023-10-26,24.991622,121.491792,0.220613
C0AH00,汐止,2023-10-26,25.066881,121.658778,0.28001595
C0AH10,永和,2023-10-26,25.01125,121.508111,0.20921652
C0AH40,平等,2023-10-26,25.129142,121.577086,0.9694618
C0AH50,林口,2023-10-26,25.072181,121.38084,0.9786687
C0AH70,松山,2023-10-26,25.04871,121.55042,0.3988105
C0AH80,深坑,2023-10-26,25.002703,121.628328,0.3969019
C0AI00,五股,2023-10-26,25.07445,121.42728,0.16732287
C0AI10,屈尺,2023-10-26,24.92184,121.54475,0.79790527
C0AI20,白沙灣,2023-10-26,25.283128,121.519058,0.06209643
C0AI30,三重,2023-10-26,25.057328,121.500629,0.14046986
C0AI40,石牌,2023-10-26,25.115597,121.513139,0.22231987
C0AJ20,野柳,2023-10-26,25.20703,121.690021,0.060306765
C0AJ30,淡水觀海,2023-10-26,25.184591,121.408616,0.12762384
C0AJ40,石門,2023-10-26,25.273672,121.601198,0.13586168
C0AJ50,水湳洞,2023-10-26,25.123695,121.862238,0.2347369
C0AJ60,六塊厝,2023-10-26,25.24,121.4481,0.088591
C0AJ70,田寮,2023-10-26,25.2698,121.4886,0.19181238
C0AJ80,板橋,2023-10-26,25.0107,121.4489,0.28255644
C0AJ90,澳底,2023-10-26,25.0552,121.9253,0.9736137
C0B010,七堵,2023-10-26,25.094819,121.71713,0.43053645
C0B020,基隆嶼,2023-10-26,25.19141,121.78391,0.038195197
C0B040,大武崙,2023-10-26,25.166676,121.706993,0.29173046
C0B050,八斗子,2023-10-26,25.144754,121.79167,0.04058617
C0B060,暖暖,2023-10-26,25.0957,121.7403,0.43682253
C0C460,復興,2023-10-26,24.820208,121.352281,0.97081006
C0C480,桃園,2023-10-26,24.992425,121.323172,0.21632795
C0C490,八德,2023-10-26,24.928708,121.283289,0.3174709
C0C590,觀音,2023-10-26,25.027072,121.153317,0.49781957
C0C620,蘆竹,2023-10-26,25.084275,121.265767,0.29449672
C0C630,大溪,2023-10-26,24.882853,121.265547,0.50621533
C0C650,平鎮,2023-10-26,24.897503,121.214636,0.5627395
C0C660,楊梅,2023-10-26,24.912375,121.143047,0.39338225
C0C670,龍潭,2023-10-26,24.870056,121.221389,0.75386363
C0C680,龜山,2023-10-26,25.02846,121.38656,0.97656184
C0C700,中壢,2023-10-26,24.977661,121.256375,0.293286
C0C710,大溪永福,2023-10-26,24.892936,121.324975,0.25961083
C0C720,竹圍,2023-10-26,25.112692,121.239824,0.27261102
C0C730,中大臨海站,2023-10-26,24.966126,121.008581,0.14289527
C0C740,觀音工業區,2023-10-26,25.064764,121.114856,0.19266497
C0C750,新興坑尾,2023-10-26,25.0061,121.0971,0.31550446
C0D430,峨眉,2023-10-26,24.6905,121.017189,0.14379424
C0D480,打鐵坑,2023-10-26,24.849664,121.150789,0.7152595
C0D540,橫山,2023-10-26,24.71116,121.11693,0.24483259
C0D560,竹東,2023-10-26,24.767147,121.057881,0.2734143
C0D580,寶山,2023-10-26,24.735006,121.025192,0.24817039
C0D590,新豐,2023-10-26,24.87068,120.97721,0.27656978
C0D650,湖口,2023-10-26,24.904794,121.043628,0.13014707
C0D660,新竹市東區,2023-10-26,24.798681,120.986942,0.26493847
C0D670,海天一線,2023-10-26,24.831986,120.914438,0.35148922
C0D680,香山濕地,2023-10-26,24.783581,120.914988,0.28211886
C0D690,外湖,2023-10-26,24.917735,120.968711,0.26843426
C0D700,關西,2023-10-26,24.7977,121.1732,0.35203755
C0E420,竹南,2023-10-26,24.708978,120.888897,0.22949152
C0E430,南庄,2023-10-26,24.601775,121.000214,0.06327405
C0E520,大湖,2023-10-26,24.41494,120.87087,0.3551374
C0E540,後龍,2023-10-26,24.606489,120.783933,0.8557693
C0E550,明德,2023-10-26,24.583486,120.885411,0.75195634
C0E590,通霄,2023-10-26,24.471892,120.704622,0.7928704
C0E730,頭份,2023-10-26,24.688247,120.912206,0.18622516
C0E740,造橋,2023-10-26,24.637056,120.864778,0.7535409
C0E750,苗栗,2023-10-26,24.564569,120.824575,0.8744473
C0E780,銅鑼,2023-10-26,24.489681,120.790853,0.7038725
C0E791,卓蘭,2023-10-26,24.3126,120.8244,0.918332
C0E810,西湖,2023-10-26,24.562947,120.7485,0.7670366
C0E820,獅潭,2023-10-26,24.539133,120.920042,0.4643633
C0E830,苑裡,2023-10-26,24.439714,120.653053,0.8475131
C0E850,大河,2023-10-26,24.618069,120.948578,0.7103357
C0E870,高鐵苗栗,2023-10-26,24.60725,120.826094,0.8527152
C0E910,海埔,2023-10-26,24.648767,120.772435,0.9022996
C0E920,通霄漁港,2023-10-26,24.498589,120.673876,0.76050395
C0E930,龍鳳,2023-10-26,24.700034,120.859125,0.82125473
C0F0B0,石岡,2023-10-26,24.276061,120.777644,0.9514606
C0F850,東勢,2023-10-26,24.246428,120.833047,0.90441793
C0F930,大甲,2023-10-26,24.347667,120.640403,0.887706
C0F970,大坑,2023-10-26,24.173142,120.722289,0.9237179
C0F9A0,中竹林,2023-10-26,24.103556,120.751061,0.97420025
C0F9I0,神岡,2023-10-26,24.272481,120.658314,0.9220067
C0F9K0,大安,2023-10-26,24.345061,120.588025,0.87021554
C0F9L0,后里,2023-10-26,24.310436,120.729725,0.9074891
C0F9M0,豐原,2023-10-26,24.254322,120.720692,0.88207513
C0F9N0,大里,2023-10-26,24.092464,120.701378,0.8886968
C0F9O0,潭子,2023-10-26,24.213106,120.703933,0.92754275
C0F9P0,清水,2023-10-26,24.312297,120.562242,0.845405
C0F9Q0,外埔,2023-10-26,24.347817,120.705686,0.860262
C0F9R0,龍井,2023-10-26,24.184536,120.528972,0.88462865
C0F9S0,烏日,2023-10-26,24.107058,120.624103,0.9573921
C0F9T0,西屯,2023-10-26,24.179494,120.641275,0.9044639
C0F9U0,南屯,2023-10-26,24.137006,120.637969,0.8875376
C0F9X0,大雅(中科園區),2023-10-26,24.21528,120.62445,0.93241227
C0FA10,松柏,2023-10-26,24.429115,120.617482,0.8146234
C0FA20,溫寮,2023-10-26,24.372177,120.583125,0.8671494
C0FA30,梧棲,2023-10-26,24.256003,120.523381,0.89670175
C0FA40,臺中電廠,2023-10-26,24.2146,120.4907,0.8883236
C0FA50,霧峰,2023-10-26,24.0419,120.6995,0.9263589
C0G620,芬園,2023-10-26,24.015678,120.6213,0.97337866
C0G640,鹿港,2023-10-26,24.0753,120.430481,0.9652434
C0G650,員林,2023-10-26,23.946503,120.585597,0.97490704
C0G660,溪湖,2023-10-26,23.94835,120.479122,0.9726406
C0G720,溪州,2023-10-26,23.851589,120.499093,0.99265665
C0G730,二林,2023-10-26,23.903325,120.376081,0.9658259
C0G740,大城,2023-10-26,23.852487,120.320935,0.50767326
C0G770,福興,2023-10-26,24.041289,120.437669,0.9611531
C0G780,秀水,2023-10-26,24.03405,120.503869,0.9569952
C0G800,埔鹽,2023-10-26,24.000394,120.431683,0.96057075
C0G810,埔心,2023-10-26,23.947633,120.525456,0.97344136
C0G820,田尾,2023-10-26,23.901669,120.509389,0.97518
C0G830,埤頭,2023-10-26,23.866003,120.452806,0.99243146
C0G840,北斗,2023-10-26,23.877586,120.514222,0.97518
C0G860,社頭,2023-10-26,23.897647,120.5862,0.9772274
C0G870,芳苑,2023-10-26,23.922303,120.320025,0.5526903
C0G880,二水,2023-10-26,23.810742,120.6173,0.99143344
C0G890,伸港,2023-10-26,24.148933,120.484403,0.8473182
C0G900,線西,2023-10-26,24.143358,120.443536,0.91454196
C0G910,花壇,2023-10-26,24.032076,120.549461,0.9401081
C0G920,永靖,2023-10-26,23.924703,120.547533,0.9734292
C0G940,竹塘,2023-10-26,23.848253,120.386764,0.99177974
C0G950,防潮門,2023-10-26,24.1835,120.4871,0.8793946
C0G960,福寶,2023-10-26,24.0443,120.3814,0.9697448
C0G970,三豐,2023-10-26,23.882,120.2895,0.5618366
C0H890,埔里,2023-10-26,23.972169,120.952425,0.8587577
C0H950,中寮,2023-10-26,23.884447,120.766406,0.98904693
C0H960,草屯,2023-10-26,23.973672,120.68085,0.99216336
C0I110,竹山,2023-10-26,23.761225,120.688156,0.98770225
C0I360,水里,2023-10-26,23.812553,120.849792,0.95720094
C0I380,集集,2023-10-26,23.828206,120.801467,0.9623494
C0I410,名間,2023-10-26,23.837053,120.701447,0.9895567
C0I420,國姓,2023-10-26,24.037803,120.855072,0.9289884
C0I460,南投,2023-10-26,23.911469,120.687331,0.99053574
C0K250,崙背,2023-10-26,23.75555,120.318925,0.5516621
C0K280,四湖,2023-10-26,23.630414,120.227125,0.49794966
C0K291,宜梧,2023-10-26,23.536281,120.169329,0.39029607
C0K330,虎尾,2023-10-26,23.719183,120.442036,0.9912242
C0K390,土庫,2023-10-26,23.679029,120.395574,0.99101114
C0K400,斗六,2023-10-26,23.720583,120.541127,0.99063396
C0K410,北港,2023-10-26,23.573957,120.292802,0.45801145
C0K420,西螺,2023-10-26,23.800407,120.467394,0.99168247
C0K430,褒忠,2023-10-26,23.690938,120.303634,0.5391559
C0K440,二崙,2023-10-26,23.772797,120.408944,0.9920454
C0K450,大埤,2023-10-26,23.646074,120.431537,0.9914612
C0K460,斗南,2023-10-26,23.678734,120.478359,0.99115646
C0K470,林內,2023-10-26,23.748675,120.609642,0.9903988
C0K480,莿桐,2023-10-26,23.761192,120.502372,0.99195105
C0K500,元長,2023-10-26,23.64981,120.315024,0.58841586
C0K510,水林,2023-10-26,23.572924,120.24597,0.40490842
C0K530,臺西,2023-10-26,23.701547,120.197559,0.58336335
C0K550,蔦松,2023-10-26,23.514319,120.229736,0.36083275
C0K560,棋山,2023-10-26,23.68645,120.603417,0.98728913
C0K580,高鐵雲林,2023-10-26,23.737456,120.417944,0.99102813
C0K590,雲林東勢,2023-10-26,23.674192,120.255721,0.5509308
C0K600,箔子寮,2023-10-26,23.6197,120.14,0.5488265
C0M410,馬頭山,2023-10-26,23.324361,120.582017,0.96596307
C0M520,東後寮,2023-10-26,23.369908,120.248065,0.4017959
C0M640,中埔,2023-10-26,23.42538,120.5229,0.99076736
C0M650,朴子,2023-10-26,23.43463,120.23902,0.38709193
C0M660,溪口,2023-10-26,23.604131,120.403569,0.67796475
C0M670,大林,2023-10-26,23.600616,120.45841,0.73682016
C0M680,太保,2023-10-26,23.455062,120.331455,0.4575502
C0M690,水上,2023-10-26,23.419734,120.388909,0.8145016
C0M700,竹崎,2023-10-26,23.526178,120.555508,0.9836542
C0M710,東石,2023-10-26,23.458927,120.15385,0.5158698
C0M720,番路,2023-10-26,23.464657,120.554156,0.9852831
C0M730,嘉義市東區,2023-10-26,23.457673,120.460531,0.83590674
C0M740,六腳,2023-10-26,23.492871,120.290625,0.4555813
C0M750,布袋,2023-10-26,23.380878,120.167789,0.34154183
C0M760,民雄,2023-10-26,23.551754,120.428457,0.69241345
C0M770,嘉義梅山,2023-10-26,23.585398,120.555587,0.9846423
C0M780,鹿草,2023-10-26,23.41134,120.30835,0.47948337
C0M790,新港,2023-10-26,23.553269,120.345728,0.5108127
C0M800,茶山,2023-10-26,23.299075,120.664767,0.7813722
C0M880,好美里,2023-10-26,23.3364,120.138,0.44740012
C0N010,鯤鯓國小,2023-10-26,23.1879,120.0889,0.51325744
C0N020,城西,2023-10-26,23.0568,120.0956,0.28834674
C0N030,四草,2023-10-26,23.0235,120.1116,0.26019323
C0N040,蘆竹溝,2023-10-26,23.2344,120.0961,0.31556323
C0N050,蚵寮,2023-10-26,23.301,120.1104,0.33734182
C0O810,曾文,2023-10-26,23.219681,120.497328,0.5495054
C0O830,北寮,2023-10-26,23.079561,120.495008,0.973482
C0O840,王爺宮,2023-10-26,23.222064,120.40085,0.7248744
C0O860,大內,2023-10-26,23.11885,120.36083,0.74282044
C0O900,善化,2023-10-26,23.112883,120.297219,0.5584846
C0O930,玉井,2023-10-26,23.126042,120.46055,0.6305273
C0O950,安南,2023-10-26,23.076694,120.144861,0.43810475
C0O960,崎頂,2023-10-26,22.959547,120.369317,0.9788278
C0O970,虎頭埤,2023-10-26,23.021375,120.347878,0.5468221
C0O980,新市,2023-10-26,23.061614,120.298197,0.57422334
C0O990,媽廟,2023-10-26,22.99175,120.293525,0.60233647
C0R150,三地門,2023-10-26,22.709889,120.639944,0.99420506
C0R160,鹽埔,2023-10-26,22.739558,120.530778,0.9946029
C0R170,屏東,2023-10-26,22.660269,120.494072,0.96473545
C0R190,赤山,2023-10-26,22.592333,120.614306,0.9963701
C0R220,潮州,2023-10-26,22.534361,120.54,0.9967635
C0R240,來義,2023-10-26,22.527306,120.625111,0.99732774
C0R260,春日,2023-10-26,22.370361,120.628306,0.99681044
C0R270,琉球嶼,2023-10-26,22.332244,120.362236,0.9963438
C0R280,檳榔,2023-10-26,22.076078,120.836777,0.9998511
C0R320,車城,2023-10-26,22.0744,120.716247,0.99993795
C0R341,牡丹,2023-10-26,22.130036,120.792639,0.9932018
C0R350,貓鼻頭,2023-10-26,21.921774,120.7358,0.99993855
C0R470,高樹,2023-10-26,22.826389,120.600806,0.9934763
C0R480,長治,2023-10-26,22.693128,120.542622,0.99499863
C0R490,九如,2023-10-26,22.7405,120.490503,0.9609495
C0R520,崁頂,2023-10-26,22.514781,120.506914,0.98719156
C0R540,佳冬,2023-10-26,22.419456,120.552375,0.97389615
C0R550,新埤,2023-10-26,22.467947,120.582894,0.9968262
C0R560,新園,2023-10-26,22.5434,120.461558,0.98360753
C0R570,麟洛,2023-10-26,22.65078,120.52719,0.96574074
C0R580,南州,2023-10-26,22.48591,120.50274,0.9869778
C0R590,里港,2023-10-26,22.77919,120.49459,0.99448967
C0R620,墾雷,2023-10-26,21.900836,120.855269,0.9999384
C0R640,東港,2023-10-26,22.46247,120.44074,0.9717324
C0R650,竹田,2023-10-26,22.58486,120.54344,0.9960561
C0R660,枋寮,2023-10-26,22.367722,120.590647,0.99700314
C0R670,楓港,2023-10-26,22.190131,120.692156,0.998628
C0R680,佳樂水,2023-10-26,21.993578,120.861633,0.9999383
C0R690,墾丁,2023-10-26,21.966756,120.810269,0.9998694
C0R700,枋山,2023-10-26,22.246844,120.661086,0.9932847
C0R710,龍磐,2023-10-26,21.931672,120.838942,0.9999371
C0R720,旭海,2023-10-26,22.205403,120.887614,0.99982756
C0R730,大坪頂,2023-10-26,22.024633,120.69355,0.9999308
C0R740,獅子,2023-10-26,22.201569,120.70525,0.9985501
C0R760,南仁湖,2023-10-26,22.084681,120.863353,0.999809
C0R770,保力,2023-10-26,22.071122,120.764111,0.9999384
C0R780,滿州,2023-10-26,22.024403,120.839892,0.9999386
C0R790,九棚,2023-10-26,22.14195,120.889281,0.9998564
C0R800,丹路,2023-10-26,22.204481,120.750989,0.99393266
C0R810,內獅,2023-10-26,22.305064,120.642986,0.9934869
C0R830,高士,2023-10-26,22.121825,120.836781,0.99977463
C0R850,林邊,2023-10-26,22.4634,120.5339,0.9869149
C0R860,鼻頭,2023-10-26,22.1043,120.8979,0.99997514
C0R870,興海,2023-10-26,21.9752,120.8439,0.9999383
C0R880,後壁湖,2023-10-26,21.9457,120.7457,0.9999377
C0R890,山海,2023-10-26,21.9878,120.7091,0.99993795
C0R900,竹坑,2023-10-26,22.1385,120.7022,0.99754333
C0R910,下寮,2023-10-26,22.3929,120.5548,0.9739276
C0R920,塭仔,2023-10-26,22.4169,120.5197,0.9694745
C0R930,萬丹,2023-10-26,22.5885,120.4851,0.99581695
C0R940,加祿堂,2023-10-26,22.3363,120.6217,0.996652
C0S710,鹿野,2023-10-26,22.917711,121.122994,0.99748397
C0S730,綠島,2023-10-26,22.6672,121.47533,0.9997406
C0S740,池上,2023-10-26,23.119628,121.209469,0.99741644
C0S770,大溪山,2023-10-26,22.478475,120.943325,0.99970466
C0S790,金崙,2023-10-26,22.538122,120.966875,0.99964494
C0S810,東河,2023-10-26,22.972672,121.303986,0.99941486
C0S830,長濱,2023-10-26,23.286817,121.411975,0.99845433
C0S840,南田,2023-10-26,22.279725,120.889208,0.9999156
C0S890,關山,2023-10-26,23.0395,121.175017,0.9979917
C0S900,蘭嶼高中,2023-10-26,22.04909,121.51214,0.99983704
C0S910,蘭嶼燈塔,2023-10-26,22.081197,121.503117,0.9998893
C0S920,金峰嘉蘭,2023-10-26,22.594789,120.960825,0.99956757
C0S930,延平,2023-10-26,22.902581,121.084058,0.9981248
C0S940,石寧山,2023-10-26,23.223772,121.406639,0.99897605
C0S950,七塊厝,2023-10-26,22.954453,121.229922,0.99764997
C0S960,香蘭,2023-10-26,22.587569,120.993375,0.99971896
C0S970,加津林,2023-10-26,22.416211,120.926942,0.99983585
C0S990,山豬窟,2023-10-26,22.318619,120.857372,0.999562
C0SA00,歷坵,2023-10-26,22.520969,120.89185,0.9995715
C0SA10,檳榔四格山,2023-10-26,22.810031,121.109308,0.99969375
C0SA30,都歷,2023-10-26,23.020333,121.323642,0.99917364
C0SA40,瑞和,2023-10-26,22.974361,121.156697,0.9982772
C0SA60,知本（水試所）,2023-10-26,22.702394,121.082761,0.99968374
C0SA80,土坂,2023-10-26,22.453108,120.887572,0.99961185
C0SA90,達仁林場,2023-10-26,22.264347,120.823972,0.9994221
C0T870,鯉魚潭,2023-10-26,23.935639,121.508944,0.9990063
C0T900,西林,2023-10-26,23.8119,121.441458,0.9989214
C0T960,光復,2023-10-26,23.660694,121.424964,0.99857074
C0T9A0,月眉山,2023-10-26,23.809928,121.539828,0.9990765
C0T9D0,和中,2023-10-26,24.26676,121.74103,0.9989534
C0T9E0,大坑,2023-10-26,23.880628,121.581981,0.9992334
C0T9F0,水璉,2023-10-26,23.797131,121.542514,0.99921787
C0T9I0,豐濱,2023-10-26,23.583897,121.514806,0.9989327
C0T9M0,靜浦,2023-10-26,23.455167,121.495028,0.9996717
C0T9N0,富里,2023-10-26,23.171639,121.249378,0.9967692
C0U600,礁溪,2023-10-26,24.817539,121.765608,0.98484397
C0U650,玉蘭,2023-10-26,24.675286,121.587061,0.97360224
C0U750,龜山島,2023-10-26,24.841667,121.953133,0.99235314
C0U760,東澳,2023-10-26,24.52196,121.83318,0.99373424
C0U770,南澳,2023-10-26,24.44935,121.81022,0.9968945
C0U780,五結,2023-10-26,24.68637,121.79794,0.9955545
C0U860,頭城,2023-10-26,24.85323,121.8308,0.98427033
C0U870,大礁溪,2023-10-26,24.791042,121.675047,0.98597735
C0U880,北關,2023-10-26,24.9072,121.8734,0.50029737
C0U890,三星,2023-10-26,24.66812,121.65302,0.97999775
C0U900,內城,2023-10-26,24.71813,121.68766,0.9892626
C0U910,冬山,2023-10-26,24.63373,121.7937,0.9969962
C0U940,羅東,2023-10-26,24.68184,121.74934,0.9931283
C0U970,大福,2023-10-26,24.80064,121.81389,0.9888588
C0U990,員山,2023-10-26,24.74435,121.72247,0.9910671
C0UA00,土場,2023-10-26,24.576533,121.495333,0.87458694
C0UA80,大溪漁港,2023-10-26,24.941801,121.902955,0.9846958
C0UA90,石城,2023-10-26,24.980444,121.951214,0.98254013
C0UB00,淡江大學蘭陽校園,2023-10-26,24.823239,121.730383,0.9936354
C0UB10,蘇澳,2023-10-26,24.5969,121.8571,0.9991725
C0UB20,壯圍,2023-10-26,24.7359,121.8163,0.9939304
C0V250,甲仙,2023-10-26,23.080106,120.591758,0.82443434
C0V260,月眉,2023-10-26,22.971003,120.539853,0.97649777
C0V310,美濃,2023-10-26,22.898742,120.519153,0.77349997
C0V350,溪埔,2023-10-26,22.738578,120.446797,0.94302136
C0V360,內門,2023-10-26,22.975481,120.466769,0.76768774
C0V370,古亭坑,2023-10-26,22.893178,120.401947,0.72069603
C0V400,阿公店,2023-10-26,22.804194,120.355528,0.9530034
C0V440,鳳山,2023-10-26,22.646653,120.356122,0.9552462
C0V450,鳳森,2023-10-26,22.545064,120.392592,0.99682504
C0V490,新興,2023-10-26,22.627422,120.298803,0.95425785
C0V530,阿蓮,2023-10-26,22.883208,120.327508,0.6274081
C0V610,梓官,2023-10-26,22.760558,120.267211,0.9147032
C0V620,永安,2023-10-26,22.82315,120.236856,0.89368856
C0V630,茄萣,2023-10-26,22.906642,120.182608,0.40929356
C0V640,湖內,2023-10-26,22.887139,120.2445,0.51800764
C0V650,彌陀,2023-10-26,22.783806,120.246361,0.89400154
C0V660,岡山,2023-10-26,22.797078,120.294958,0.91985285
C0V680,仁武,2023-10-26,22.701083,120.347722,0.9204534
C0V690,鼓山,2023-10-26,22.623325,120.275575,0.9751988
C0V700,三民,2023-10-26,22.645017,120.311233,0.95416415
C0V710,苓雅,2023-10-26,22.622742,120.330669,0.96838325
C0V720,林園,2023-10-26,22.507747,120.394511,0.98218834
C0V730,大寮,2023-10-26,22.605614,120.395717,0.99592966
C0V740,旗山,2023-10-26,22.888614,120.483597,0.77993685
C0V750,路竹,2023-10-26,22.854997,120.259439,0.8984058
C0V760,橋頭,2023-10-26,22.757806,120.30575,0.91248655
C0V770,大社,2023-10-26,22.730306,120.346639,0.9171171
C0V790,萬山,2023-10-26,22.905944,120.688056,0.8656852
C0V800,六龜,2023-10-26,22.997889,120.633583,0.96100265
C0V810,左營,2023-10-26,22.67491,120.28491,0.92632
C0V820,小林,2023-10-26,23.148408,120.63325,0.46000102
C0V840,鳳鼻頭,2023-10-26,22.5083,120.3591,0.98186356
C0V850,蚵仔寮,2023-10-26,22.7256,120.2527,0.91673
C0V860,南寮,2023-10-26,22.7616,120.2339,0.8921989
C0V870,文安,2023-10-26,22.8025,120.2164,0.8662094
C0V880,興達,2023-10-26,22.8778,120.2127,0.40364373
C0V890,前鎮,2023-10-26,22.5718,120.3117,0.9818252
C0V900,汕尾,2023-10-26,22.4782,120.4151,0.9863143
C0X050,東河,2023-10-26,23.296598,120.385608,0.65458566
C0X060,下營,2023-10-26,23.22695,120.256261,0.43937597
C0X080,佳里,2023-10-26,23.173039,120.145086,0.3511343
C0X100,臺南市北區,2023-10-26,23.010394,120.194228,0.35075635
C0X110,臺南市南區,2023-10-26,22.961189,120.188378,0.43221828
C0X120,麻豆,2023-10-26,23.183289,120.248611,0.3443168
C0X130,官田,2023-10-26,23.193217,120.315422,0.47616008
C0X140,西港,2023-10-26,23.125608,120.203108,0.3242474
C0X150,安定,2023-10-26,23.102614,120.227839,0.4452373
C0X160,仁德,2023-10-26,22.968258,120.257689,0.59007996
C0X170,關廟,2023-10-26,22.963017,120.327797,0.6755195
C0X180,山上,2023-10-26,23.0757,120.363253,0.6712074
C0X190,安平,2023-10-26,22.993161,120.152181,0.39289975
C0X200,左鎮,2023-10-26,23.056758,120.408522,0.71160716
C0X210,白河,2023-10-26,23.347466,120.414427,0.57896435
C0X220,學甲,2023-10-26,23.230367,120.182187,0.32251823
C0X230,鹽水,2023-10-26,23.272621,120.247641,0.38951162
C0X240,關子嶺,2023-10-26,23.331169,120.508025,0.74464047
C0X250,新營,2023-10-26,23.310689,120.316681,0.47729045
C0X260,後壁,2023-10-26,23.366358,120.362326,0.7002457
C0X280,將軍,2023-10-26,23.214999,120.13577,0.38084644
C0X290,北門,2023-10-26,23.267772,120.125481,0.38836622
C0X300,鹿寮,2023-10-26,23.386047,120.477331,0.9899794
C0X310,七股,2023-10-26,23.147289,120.086253,0.4062346
C0X320,柳營,2023-10-26,23.253328,120.375253,0.6588771
C0Z020,明里,2023-10-26,23.208717,121.262342,0.99722636
C0Z061,玉里,2023-10-26,23.3215,121.339656,0.99779356
C0Z070,舞鶴,2023-10-26,23.46811,121.37407,0.99922365
C0Z080,富源,2023-10-26,23.587642,121.378225,0.99833286
C0Z100,東華,2023-10-26,23.89525,121.549833,0.99947923
C0Z150,吉安光華,2023-10-26,23.930925,121.595153,0.9996714
C0Z160,鳳林,2023-10-26,23.746114,121.453411,0.9991925
C0Z170,卓溪,2023-10-26,23.3443,121.3029,0.99791825
C0Z180,新城,2023-10-26,24.03946,121.60454,0.9996261
C0Z190,富世,2023-10-26,24.14743,121.6297,0.99709606
C0Z200,萬榮,2023-10-26,23.709219,121.420106,0.9987445
C0Z210,瑞穗,2023-10-26,23.5239,121.39021,0.9993126
C0Z230,和平,2023-10-26,24.30717,121.77007,0.99754655
C0Z270,蕃薯寮,2023-10-26,23.73835,121.540108,0.99940974
C0Z280,德武,2023-10-26,23.47426,121.41071,0.99916387
C0Z300,東里,2023-10-26,23.26853,121.30547,0.99769956
C0Z310,清水斷崖,2023-10-26,24.218294,121.689142,0.99862826
C0Z330,安通山,2023-10-26,23.290728,121.348528,0.99682486
CAG100,王功漁港,2023-10-26,23.96824,120.32586,0.7106946
CAH030,茶改場竹圍站,2023-10-26,23.860083,120.637528,0.98400563
CAJ050,海口故事園區,2023-10-26,23.57543,120.14121,0.544548
CAL110,布袋國中,2023-10-26,23.35893,120.18026,0.3664099
CAN130,水試所海水繁養殖中心,2023-10-26,23.120802,120.07968,0.4389708
CAN140,六官養殖協會,2023-10-26,23.22881,120.29962,0.46072912
CAQ030,崎峰國小,2023-10-26,22.42565,120.49521,0.9834129
E2K600,四湖植物園,2023-10-26,23.676986,120.163433,0.5861065
E2P980,林試六龜中心,2023-10-26,22.991703,120.645722,0.96127003
E2S960,林試太麻里2,2023-10-26,22.598014,120.989761,0.9997187
E2S980,林試太麻里1,2023-10-26,22.598922,120.980044,0.99972737
G2AI50,關渡,2023-10-26,25.11575,121.492,0.20069103
G2F820,農業試驗所,2023-10-26,24.031261,120.688133,0.9486277
G2F820,農試所(霧峰),2023-10-26,24.031261,120.688133,0.9486277
G2L020,農試嘉義分所,2023-10-26,23.485028,120.473806,0.9906875
G2M350,農試溪口農場,2023-10-26,23.58565,120.408111,0.67621815
G2P820,農試鳳山分所,2023-10-26,22.646611,120.356083,0.9552462
K2E360,苗栗農改,2023-10-26,24.495722,120.829111,0.6084331
K2E360,苗栗農改場,2023-10-26,24.495722,120.829111,0.6084331
K2E710,苗改生物防治研究中心,2023-10-26,24.422861,120.871833,0.82409126
K2F750,種苗改良場,2023-10-26,24.225972,120.800917,0.93572724
K2F750,種苗繁殖,2023-10-26,24.225972,120.800917,0.93572724
U2HA50,臺大竹山,2023-10-26,23.756972,120.681556,0.98791397
V2C250,八德合作社,2023-10-26,24.93775,121.266389,0.3961198
V2C260,八德蔬果,2023-10-26,24.978508,121.281819,0.23484296
V2K610,大庄合作社,2023-10-26,23.8068,120.367939,0.6646058
V2K620,麥寮合作社,2023-10-26,23.753836,120.294783,0.52885365
