站號,站名,日期,lat,lon,BlastGRU-TW
466881,新北,2023-06-27,24.9593,121.52,0.11071249
466900,淡水,2023-06-27,25.164889,121.448906,0.26855034
466920,臺北,2023-06-27,25.037658,121.514853,0.09759224
466940,基隆,2023-06-27,25.133314,121.740475,0.08068144
466990,花蓮,2023-06-27,23.975128,121.613275,0.6264446
467050,新屋,2023-06-27,25.006744,121.047486,0.2840885
467080,宜蘭,2023-06-27,24.763975,121.756528,0.07405064
467270,田中,2023-06-27,23.873803,120.581286,0.17673062
467300,東吉島,2023-06-27,23.25695,119.667467,0.6656131
467350,澎湖,2023-06-27,23.565503,119.563094,0.66285753
467410,臺南,2023-06-27,22.993239,120.204772,0.097735226
467420,永康,2023-06-27,23.038386,120.2367,0.09537569
467441,高雄,2023-06-27,22.7304,120.3125,0.1708677
467480,嘉義,2023-06-27,23.495925,120.432906,0.16586517
467490,臺中,2023-06-27,24.145736,120.684075,0.49864626
467540,大武,2023-06-27,22.355675,120.903789,0.096544534
467571,新竹,2023-06-27,24.827853,121.014219,0.719066
467590,恆春,2023-06-27,22.003897,120.746339,0.43119964
467610,成功,2023-06-27,23.097486,121.373428,0.119668916
467620,蘭嶼,2023-06-27,22.036969,121.558339,0.99260634
467660,臺東,2023-06-27,22.752211,121.154586,0.21310477
467790,墾丁雷達站,2023-06-27,21.948235,120.808028,0.4670387
C0A520,山佳,2023-06-27,24.974944,121.402008,0.19595075
C0A530,坪林,2023-06-27,24.938183,121.70975,0.76772314
C0A540,四堵,2023-06-27,24.8926,121.745736,0.6675007
C0A550,泰平,2023-06-27,24.971197,121.823711,0.6589937
C0A560,福山,2023-06-27,24.776203,121.502811,0.51767063
C0A570,桶後,2023-06-27,24.848222,121.597992,0.8478718
C0A640,石碇,2023-06-27,24.993969,121.662917,0.15335739
C0A650,火燒寮,2023-06-27,25.002719,121.742892,0.2670132
C0A660,瑞芳,2023-06-27,25.113169,121.801147,0.08595381
C0A770,科教館,2023-06-27,25.096356,121.516507,0.14278993
C0A860,大坪,2023-06-27,25.165914,121.632969,0.9055258
C0A880,福隆,2023-06-27,25.017842,121.942083,0.060736187
C0A890,雙溪,2023-06-27,25.036003,121.864242,0.103566244
C0A920,富貴角,2023-06-27,25.263783,121.565258,0.5155789
C0A931,三和,2023-06-27,25.233153,121.595236,0.29855826
C0A940,金山,2023-06-27,25.223628,121.643967,0.30641216
C0A950,鼻頭角,2023-06-27,25.129036,121.923372,0.059414707
C0A970,三貂角,2023-06-27,25.007606,122.002058,0.09887542
C0A980,社子,2023-06-27,25.109508,121.469681,0.13007416
C0A9C0,天母,2023-06-27,25.117494,121.537169,0.17530495
C0A9F0,內湖,2023-06-27,25.079422,121.57545,0.09759224
C0AC60,三峽,2023-06-27,24.939025,121.369728,0.11911351
C0AC70,信義,2023-06-27,25.037822,121.564597,0.09759224
C0AC80,文山,2023-06-27,25.00235,121.575728,0.14048441
C0ACA0,新莊,2023-06-27,25.051478,121.446756,0.13341403
C0AD00,三芝,2023-06-27,25.258131,121.501917,0.4528429
C0AD10,八里,2023-06-27,25.150211,121.403947,0.26855025
C0AD30,蘆洲,2023-06-27,25.086594,121.472331,0.14278993
C0AD40,土城,2023-06-27,24.973208,121.445169,0.15773095
C0AD50,鶯歌,2023-06-27,24.951533,121.346294,0.49350733
C0AG80,中和,2023-06-27,24.991622,121.491792,0.09759224
C0AH00,汐止,2023-06-27,25.066881,121.658778,0.08387106
C0AH10,永和,2023-06-27,25.01125,121.508111,0.09246484
C0AH40,平等,2023-06-27,25.129142,121.577086,0.7612819
C0AH50,林口,2023-06-27,25.072181,121.38084,0.6469156
C0AH70,松山,2023-06-27,25.04871,121.55042,0.09759224
C0AH80,深坑,2023-06-27,25.002703,121.628328,0.14048441
C0AI00,五股,2023-06-27,25.07445,121.42728,0.83902425
C0AI10,屈尺,2023-06-27,24.92184,121.54475,0.14048441
C0AI20,白沙灣,2023-06-27,25.283128,121.519058,0.24720472
C0AI30,三重,2023-06-27,25.057328,121.500629,0.14278993
C0AI40,石牌,2023-06-27,25.115597,121.513139,0.15773095
C0AJ20,野柳,2023-06-27,25.20703,121.690021,0.08387106
C0AJ30,淡水觀海,2023-06-27,25.184591,121.408616,0.23900437
C0AJ40,石門,2023-06-27,25.273672,121.601198,0.76455957
C0AJ50,水湳洞,2023-06-27,25.123695,121.862238,0.08387106
C0AJ60,六塊厝,2023-06-27,25.24,121.4481,0.23900437
C0AJ70,田寮,2023-06-27,25.2698,121.4886,0.22194344
C0AJ80,板橋,2023-06-27,25.0107,121.4489,0.15773095
C0AJ90,澳底,2023-06-27,25.0552,121.9253,0.060736187
C0B010,七堵,2023-06-27,25.094819,121.71713,0.09226954
C0B020,基隆嶼,2023-06-27,25.19141,121.78391,0.08387106
C0B040,大武崙,2023-06-27,25.166676,121.706993,0.09226954
C0B050,八斗子,2023-06-27,25.144754,121.79167,0.07750721
C0B060,暖暖,2023-06-27,25.0957,121.7403,0.12940976
C0C460,復興,2023-06-27,24.820208,121.352281,0.8811142
C0C480,桃園,2023-06-27,24.992425,121.323172,0.7962053
C0C490,八德,2023-06-27,24.928708,121.283289,0.6693559
C0C590,觀音,2023-06-27,25.027072,121.153317,0.72920984
C0C620,蘆竹,2023-06-27,25.084275,121.265767,0.33488506
C0C630,大溪,2023-06-27,24.882853,121.265547,0.7912457
C0C650,平鎮,2023-06-27,24.897503,121.214636,0.9157845
C0C660,楊梅,2023-06-27,24.912375,121.143047,0.91767496
C0C670,龍潭,2023-06-27,24.870056,121.221389,0.93170184
C0C680,龜山,2023-06-27,25.02846,121.38656,0.58497965
C0C700,中壢,2023-06-27,24.977661,121.256375,0.8366805
C0C710,大溪永福,2023-06-27,24.892936,121.324975,0.8947285
C0C720,竹圍,2023-06-27,25.112692,121.239824,0.26855025
C0C730,中大臨海站,2023-06-27,24.966126,121.008581,0.22172496
C0C740,觀音工業區,2023-06-27,25.064764,121.114856,0.82370174
C0C750,新興坑尾,2023-06-27,25.0061,121.0971,0.88927245
C0D430,峨眉,2023-06-27,24.6905,121.017189,0.79452795
C0D480,打鐵坑,2023-06-27,24.849664,121.150789,0.9265973
C0D540,橫山,2023-06-27,24.71116,121.11693,0.90680003
C0D560,竹東,2023-06-27,24.767147,121.057881,0.836956
C0D580,寶山,2023-06-27,24.735006,121.025192,0.8372381
C0D590,新豐,2023-06-27,24.87068,120.97721,0.71421814
C0D650,湖口,2023-06-27,24.904794,121.043628,0.49355176
C0D660,新竹市東區,2023-06-27,24.798681,120.986942,0.75149685
C0D670,海天一線,2023-06-27,24.831986,120.914438,0.7840298
C0D680,香山濕地,2023-06-27,24.783581,120.914988,0.7942536
C0D690,外湖,2023-06-27,24.917735,120.968711,0.22172496
C0D700,關西,2023-06-27,24.7977,121.1732,0.8627252
C0E420,竹南,2023-06-27,24.708978,120.888897,0.82745284
C0E430,南庄,2023-06-27,24.601775,121.000214,0.8655438
C0E520,大湖,2023-06-27,24.41494,120.87087,0.94960874
C0E540,後龍,2023-06-27,24.606489,120.783933,0.456297
C0E550,明德,2023-06-27,24.583486,120.885411,0.7117609
C0E590,通霄,2023-06-27,24.471892,120.704622,0.40209365
C0E730,頭份,2023-06-27,24.688247,120.912206,0.82745284
C0E740,造橋,2023-06-27,24.637056,120.864778,0.6426094
C0E750,苗栗,2023-06-27,24.564569,120.824575,0.5145009
C0E780,銅鑼,2023-06-27,24.489681,120.790853,0.6624935
C0E791,卓蘭,2023-06-27,24.3126,120.8244,0.81475747
C0E810,西湖,2023-06-27,24.562947,120.7485,0.490658
C0E820,獅潭,2023-06-27,24.539133,120.920042,0.6688612
C0E830,苑裡,2023-06-27,24.439714,120.653053,0.30246037
C0E850,大河,2023-06-27,24.618069,120.948578,0.7325109
C0E870,高鐵苗栗,2023-06-27,24.60725,120.826094,0.46738458
C0E910,海埔,2023-06-27,24.648767,120.772435,0.6120563
C0E920,通霄漁港,2023-06-27,24.498589,120.673876,0.34910822
C0E930,龍鳳,2023-06-27,24.700034,120.859125,0.60898846
C0F0B0,石岡,2023-06-27,24.276061,120.777644,0.48032197
C0F850,東勢,2023-06-27,24.246428,120.833047,0.8681411
C0F930,大甲,2023-06-27,24.347667,120.640403,0.35023475
C0F970,大坑,2023-06-27,24.173142,120.722289,0.49857092
C0F9A0,中竹林,2023-06-27,24.103556,120.751061,0.7276235
C0F9I0,神岡,2023-06-27,24.272481,120.658314,0.77481294
C0F9K0,大安,2023-06-27,24.345061,120.588025,0.26050755
C0F9L0,后里,2023-06-27,24.310436,120.729725,0.84467643
C0F9M0,豐原,2023-06-27,24.254322,120.720692,0.8119761
C0F9N0,大里,2023-06-27,24.092464,120.701378,0.33780953
C0F9O0,潭子,2023-06-27,24.213106,120.703933,0.75627
C0F9P0,清水,2023-06-27,24.312297,120.562242,0.24412362
C0F9Q0,外埔,2023-06-27,24.347817,120.705686,0.7255663
C0F9R0,龍井,2023-06-27,24.184536,120.528972,0.2587198
C0F9S0,烏日,2023-06-27,24.107058,120.624103,0.14486168
C0F9T0,西屯,2023-06-27,24.179494,120.641275,0.37604994
C0F9U0,南屯,2023-06-27,24.137006,120.637969,0.33780953
C0F9X0,大雅(中科園區),2023-06-27,24.21528,120.62445,0.46986678
C0FA10,松柏,2023-06-27,24.429115,120.617482,0.27541712
C0FA20,溫寮,2023-06-27,24.372177,120.583125,0.27541712
C0FA30,梧棲,2023-06-27,24.256003,120.523381,0.2587198
C0FA40,臺中電廠,2023-06-27,24.2146,120.4907,0.2587198
C0FA50,霧峰,2023-06-27,24.0419,120.6995,0.45677966
C0G620,芬園,2023-06-27,24.015678,120.6213,0.24747008
C0G640,鹿港,2023-06-27,24.0753,120.430481,0.13917416
C0G650,員林,2023-06-27,23.946503,120.585597,0.19721773
C0G660,溪湖,2023-06-27,23.94835,120.479122,0.16852398
C0G720,溪州,2023-06-27,23.851589,120.499093,0.13268973
C0G730,二林,2023-06-27,23.903325,120.376081,0.13227962
C0G740,大城,2023-06-27,23.852487,120.320935,0.06956145
C0G770,福興,2023-06-27,24.041289,120.437669,0.13917416
C0G780,秀水,2023-06-27,24.03405,120.503869,0.1474387
C0G800,埔鹽,2023-06-27,24.000394,120.431683,0.13917416
C0G810,埔心,2023-06-27,23.947633,120.525456,0.17325643
C0G820,田尾,2023-06-27,23.901669,120.509389,0.1786766
C0G830,埤頭,2023-06-27,23.866003,120.452806,0.11920656
C0G840,北斗,2023-06-27,23.877586,120.514222,0.1786766
C0G860,社頭,2023-06-27,23.897647,120.5862,0.20407644
C0G870,芳苑,2023-06-27,23.922303,120.320025,0.06771057
C0G880,二水,2023-06-27,23.810742,120.6173,0.21769068
C0G890,伸港,2023-06-27,24.148933,120.484403,0.25256127
C0G900,線西,2023-06-27,24.143358,120.443536,0.2739963
C0G910,花壇,2023-06-27,24.032076,120.549461,0.15488796
C0G920,永靖,2023-06-27,23.924703,120.547533,0.1786766
C0G940,竹塘,2023-06-27,23.848253,120.386764,0.05324569
C0G950,防潮門,2023-06-27,24.1835,120.4871,0.25055623
C0G960,福寶,2023-06-27,24.0443,120.3814,0.13596368
C0G970,三豐,2023-06-27,23.882,120.2895,0.06771057
C0H890,埔里,2023-06-27,23.972169,120.952425,0.76650685
C0H950,中寮,2023-06-27,23.884447,120.766406,0.5372228
C0H960,草屯,2023-06-27,23.973672,120.68085,0.29557
C0I110,竹山,2023-06-27,23.761225,120.688156,0.45126837
C0I360,水里,2023-06-27,23.812553,120.849792,0.49191573
C0I380,集集,2023-06-27,23.828206,120.801467,0.45919308
C0I410,名間,2023-06-27,23.837053,120.701447,0.30956328
C0I420,國姓,2023-06-27,24.037803,120.855072,0.54515445
C0I460,南投,2023-06-27,23.911469,120.687331,0.3305455
C0K250,崙背,2023-06-27,23.75555,120.318925,0.06922899
C0K280,四湖,2023-06-27,23.630414,120.227125,0.07916945
C0K291,宜梧,2023-06-27,23.536281,120.169329,0.056266002
C0K330,虎尾,2023-06-27,23.719183,120.442036,0.046918243
C0K390,土庫,2023-06-27,23.679029,120.395574,0.045882724
C0K400,斗六,2023-06-27,23.720583,120.541127,0.08531602
C0K410,北港,2023-06-27,23.573957,120.292802,0.047405414
C0K420,西螺,2023-06-27,23.800407,120.467394,0.10355928
C0K430,褒忠,2023-06-27,23.690938,120.303634,0.054810315
C0K440,二崙,2023-06-27,23.772797,120.408944,0.054535232
C0K450,大埤,2023-06-27,23.646074,120.431537,0.046126842
C0K460,斗南,2023-06-27,23.678734,120.478359,0.076923214
C0K470,林內,2023-06-27,23.748675,120.609642,0.1135644
C0K480,莿桐,2023-06-27,23.761192,120.502372,0.10923277
C0K500,元長,2023-06-27,23.64981,120.315024,0.06363325
C0K510,水林,2023-06-27,23.572924,120.24597,0.059207797
C0K530,臺西,2023-06-27,23.701547,120.197559,0.07083458
C0K550,蔦松,2023-06-27,23.514319,120.229736,0.058135394
C0K560,棋山,2023-06-27,23.68645,120.603417,0.12022558
C0K580,高鐵雲林,2023-06-27,23.737456,120.417944,0.045882724
C0K590,雲林東勢,2023-06-27,23.674192,120.255721,0.054810315
C0K600,箔子寮,2023-06-27,23.6197,120.14,0.057448246
C0M410,馬頭山,2023-06-27,23.324361,120.582017,0.43494144
C0M520,東後寮,2023-06-27,23.369908,120.248065,0.06565128
C0M640,中埔,2023-06-27,23.42538,120.5229,0.22889178
C0M650,朴子,2023-06-27,23.43463,120.23902,0.057931792
C0M660,溪口,2023-06-27,23.604131,120.403569,0.08982064
C0M670,大林,2023-06-27,23.600616,120.45841,0.19359718
C0M680,太保,2023-06-27,23.455062,120.331455,0.045519527
C0M690,水上,2023-06-27,23.419734,120.388909,0.1904003
C0M700,竹崎,2023-06-27,23.526178,120.555508,0.28051978
C0M710,東石,2023-06-27,23.458927,120.15385,0.058135394
C0M720,番路,2023-06-27,23.464657,120.554156,0.35519558
C0M730,嘉義市東區,2023-06-27,23.457673,120.460531,0.30041757
C0M740,六腳,2023-06-27,23.492871,120.290625,0.044183064
C0M750,布袋,2023-06-27,23.380878,120.167789,0.057931792
C0M760,民雄,2023-06-27,23.551754,120.428457,0.09860414
C0M770,嘉義梅山,2023-06-27,23.585398,120.555587,0.16325377
C0M780,鹿草,2023-06-27,23.41134,120.30835,0.060537405
C0M790,新港,2023-06-27,23.553269,120.345728,0.04895445
C0M800,茶山,2023-06-27,23.299075,120.664767,0.53011125
C0M880,好美里,2023-06-27,23.3364,120.138,0.08370944
C0N010,鯤鯓國小,2023-06-27,23.1879,120.0889,0.077248454
C0N020,城西,2023-06-27,23.0568,120.0956,0.0943524
C0N030,四草,2023-06-27,23.0235,120.1116,0.07711631
C0N040,蘆竹溝,2023-06-27,23.2344,120.0961,0.077248454
C0N050,蚵寮,2023-06-27,23.301,120.1104,0.077248454
C0O810,曾文,2023-06-27,23.219681,120.497328,0.44728246
C0O830,北寮,2023-06-27,23.079561,120.495008,0.4877263
C0O840,王爺宮,2023-06-27,23.222064,120.40085,0.44728205
C0O860,大內,2023-06-27,23.11885,120.36083,0.15416983
C0O900,善化,2023-06-27,23.112883,120.297219,0.08595662
C0O930,玉井,2023-06-27,23.126042,120.46055,0.28266454
C0O950,安南,2023-06-27,23.076694,120.144861,0.106775224
C0O960,崎頂,2023-06-27,22.959547,120.369317,0.42862928
C0O970,虎頭埤,2023-06-27,23.021375,120.347878,0.08464119
C0O980,新市,2023-06-27,23.061614,120.298197,0.08595662
C0O990,媽廟,2023-06-27,22.99175,120.293525,0.088620536
C0R150,三地門,2023-06-27,22.709889,120.639944,0.4538
C0R160,鹽埔,2023-06-27,22.739558,120.530778,0.50336164
C0R170,屏東,2023-06-27,22.660269,120.494072,0.21241616
C0R190,赤山,2023-06-27,22.592333,120.614306,0.49351358
C0R220,潮州,2023-06-27,22.534361,120.54,0.4744768
C0R240,來義,2023-06-27,22.527306,120.625111,0.40947986
C0R260,春日,2023-06-27,22.370361,120.628306,0.343283
C0R270,琉球嶼,2023-06-27,22.332244,120.362236,0.35906738
C0R280,檳榔,2023-06-27,22.076078,120.836777,0.6410647
C0R320,車城,2023-06-27,22.0744,120.716247,0.39941218
C0R341,牡丹,2023-06-27,22.130036,120.792639,0.5790819
C0R350,貓鼻頭,2023-06-27,21.921774,120.7358,0.44383886
C0R470,高樹,2023-06-27,22.826389,120.600806,0.3895548
C0R480,長治,2023-06-27,22.693128,120.542622,0.5158661
C0R490,九如,2023-06-27,22.7405,120.490503,0.2195274
C0R520,崁頂,2023-06-27,22.514781,120.506914,0.21860859
C0R540,佳冬,2023-06-27,22.419456,120.552375,0.21191324
C0R550,新埤,2023-06-27,22.467947,120.582894,0.47898427
C0R560,新園,2023-06-27,22.5434,120.461558,0.21996444
C0R570,麟洛,2023-06-27,22.65078,120.52719,0.2195274
C0R580,南州,2023-06-27,22.48591,120.50274,0.21191324
C0R590,里港,2023-06-27,22.77919,120.49459,0.5254497
C0R620,墾雷,2023-06-27,21.900836,120.855269,0.44383886
C0R640,東港,2023-06-27,22.46247,120.44074,0.18849398
C0R650,竹田,2023-06-27,22.58486,120.54344,0.463072
C0R660,枋寮,2023-06-27,22.367722,120.590647,0.43973908
C0R670,楓港,2023-06-27,22.190131,120.692156,0.25278798
C0R680,佳樂水,2023-06-27,21.993578,120.861633,0.42127237
C0R690,墾丁,2023-06-27,21.966756,120.810269,0.6678278
C0R700,枋山,2023-06-27,22.246844,120.661086,0.25278798
C0R710,龍磐,2023-06-27,21.931672,120.838942,0.55289274
C0R720,旭海,2023-06-27,22.205403,120.887614,0.53513
C0R730,大坪頂,2023-06-27,22.024633,120.69355,0.5202845
C0R740,獅子,2023-06-27,22.201569,120.70525,0.32921645
C0R760,南仁湖,2023-06-27,22.084681,120.863353,0.7443601
C0R770,保力,2023-06-27,22.071122,120.764111,0.5014852
C0R780,滿州,2023-06-27,22.024403,120.839892,0.4540549
C0R790,九棚,2023-06-27,22.14195,120.889281,0.47391823
C0R800,丹路,2023-06-27,22.204481,120.750989,0.4808097
C0R810,內獅,2023-06-27,22.305064,120.642986,0.251246
C0R830,高士,2023-06-27,22.121825,120.836781,0.83764607
C0R850,林邊,2023-06-27,22.4634,120.5339,0.21996444
C0R860,鼻頭,2023-06-27,22.1043,120.8979,0.51642305
C0R870,興海,2023-06-27,21.9752,120.8439,0.42127237
C0R880,後壁湖,2023-06-27,21.9457,120.7457,0.3875824
C0R890,山海,2023-06-27,21.9878,120.7091,0.39941218
C0R900,竹坑,2023-06-27,22.1385,120.7022,0.31625828
C0R910,下寮,2023-06-27,22.3929,120.5548,0.21191324
C0R920,塭仔,2023-06-27,22.4169,120.5197,0.20547281
C0R930,萬丹,2023-06-27,22.5885,120.4851,0.463072
C0R940,加祿堂,2023-06-27,22.3363,120.6217,0.25124645
C0S710,鹿野,2023-06-27,22.917711,121.122994,0.74012125
C0S730,綠島,2023-06-27,22.6672,121.47533,0.15305124
C0S740,池上,2023-06-27,23.119628,121.209469,0.47059968
C0S770,大溪山,2023-06-27,22.478475,120.943325,0.6791556
C0S790,金崙,2023-06-27,22.538122,120.966875,0.38923028
C0S810,東河,2023-06-27,22.972672,121.303986,0.16143341
C0S830,長濱,2023-06-27,23.286817,121.411975,0.6308999
C0S840,南田,2023-06-27,22.279725,120.889208,0.21910271
C0S890,關山,2023-06-27,23.0395,121.175017,0.25180915
C0S900,蘭嶼高中,2023-06-27,22.04909,121.51214,0.91753715
C0S910,蘭嶼燈塔,2023-06-27,22.081197,121.503117,0.97867393
C0S920,金峰嘉蘭,2023-06-27,22.594789,120.960825,0.21557955
C0S930,延平,2023-06-27,22.902581,121.084058,0.46516314
C0S940,石寧山,2023-06-27,23.223772,121.406639,0.30417985
C0S950,七塊厝,2023-06-27,22.954453,121.229922,0.810098
C0S960,香蘭,2023-06-27,22.587569,120.993375,0.13440593
C0S970,加津林,2023-06-27,22.416211,120.926942,0.11021913
C0S990,山豬窟,2023-06-27,22.318619,120.857372,0.73741776
C0SA00,歷坵,2023-06-27,22.520969,120.89185,0.77466446
C0SA10,檳榔四格山,2023-06-27,22.810031,121.109308,0.7869068
C0SA30,都歷,2023-06-27,23.020333,121.323642,0.14022979
C0SA40,瑞和,2023-06-27,22.974361,121.156697,0.22016293
C0SA60,知本（水試所）,2023-06-27,22.702394,121.082761,0.2003289
C0SA80,土坂,2023-06-27,22.453108,120.887572,0.27068618
C0SA90,達仁林場,2023-06-27,22.264347,120.823972,0.62717724
C0T870,鯉魚潭,2023-06-27,23.935639,121.508944,0.6142213
C0T900,西林,2023-06-27,23.8119,121.441458,0.6401338
C0T960,光復,2023-06-27,23.660694,121.424964,0.6112981
C0T9A0,月眉山,2023-06-27,23.809928,121.539828,0.7429502
C0T9D0,和中,2023-06-27,24.26676,121.74103,0.18665408
C0T9E0,大坑,2023-06-27,23.880628,121.581981,0.71171737
C0T9F0,水璉,2023-06-27,23.797131,121.542514,0.6857992
C0T9I0,豐濱,2023-06-27,23.583897,121.514806,0.6135379
C0T9M0,靜浦,2023-06-27,23.455167,121.495028,0.55488235
C0T9N0,富里,2023-06-27,23.171639,121.249378,0.83005816
C0U600,礁溪,2023-06-27,24.817539,121.765608,0.077395506
C0U650,玉蘭,2023-06-27,24.675286,121.587061,0.9415137
C0U750,龜山島,2023-06-27,24.841667,121.953133,0.29930136
C0U760,東澳,2023-06-27,24.52196,121.83318,0.0963991
C0U770,南澳,2023-06-27,24.44935,121.81022,0.08727506
C0U780,五結,2023-06-27,24.68637,121.79794,0.06550451
C0U860,頭城,2023-06-27,24.85323,121.8308,0.07405064
C0U870,大礁溪,2023-06-27,24.791042,121.675047,0.75477636
C0U880,北關,2023-06-27,24.9072,121.8734,0.14183998
C0U890,三星,2023-06-27,24.66812,121.65302,0.15509309
C0U900,內城,2023-06-27,24.71813,121.68766,0.0915754
C0U910,冬山,2023-06-27,24.63373,121.7937,0.06550451
C0U940,羅東,2023-06-27,24.68184,121.74934,0.067198135
C0U970,大福,2023-06-27,24.80064,121.81389,0.07059921
C0U990,員山,2023-06-27,24.74435,121.72247,0.067198135
C0UA00,土場,2023-06-27,24.576533,121.495333,0.8467758
C0UA80,大溪漁港,2023-06-27,24.941801,121.902955,0.077395506
C0UA90,石城,2023-06-27,24.980444,121.951214,0.06875576
C0UB00,淡江大學蘭陽校園,2023-06-27,24.823239,121.730383,0.8588878
C0UB10,蘇澳,2023-06-27,24.5969,121.8571,0.11739512
C0UB20,壯圍,2023-06-27,24.7359,121.8163,0.06455109
C0V250,甲仙,2023-06-27,23.080106,120.591758,0.7400338
C0V260,月眉,2023-06-27,22.971003,120.539853,0.46179578
C0V310,美濃,2023-06-27,22.898742,120.519153,0.19144347
C0V350,溪埔,2023-06-27,22.738578,120.446797,0.1881242
C0V360,內門,2023-06-27,22.975481,120.466769,0.27823317
C0V370,古亭坑,2023-06-27,22.893178,120.401947,0.13788067
C0V400,阿公店,2023-06-27,22.804194,120.355528,0.2064976
C0V440,鳳山,2023-06-27,22.646653,120.356122,0.20821838
C0V450,鳳森,2023-06-27,22.545064,120.392592,0.5005815
C0V490,新興,2023-06-27,22.627422,120.298803,0.19428672
C0V530,阿蓮,2023-06-27,22.883208,120.327508,0.08471231
C0V610,梓官,2023-06-27,22.760558,120.267211,0.15459974
C0V620,永安,2023-06-27,22.82315,120.236856,0.1471637
C0V630,茄萣,2023-06-27,22.906642,120.182608,0.090033375
C0V640,湖內,2023-06-27,22.887139,120.2445,0.0918699
C0V650,彌陀,2023-06-27,22.783806,120.246361,0.1471637
C0V660,岡山,2023-06-27,22.797078,120.294958,0.15459974
C0V680,仁武,2023-06-27,22.701083,120.347722,0.17557703
C0V690,鼓山,2023-06-27,22.623325,120.275575,0.19428672
C0V700,三民,2023-06-27,22.645017,120.311233,0.19428672
C0V710,苓雅,2023-06-27,22.622742,120.330669,0.19428672
C0V720,林園,2023-06-27,22.507747,120.394511,0.19428672
C0V730,大寮,2023-06-27,22.605614,120.395717,0.41118786
C0V740,旗山,2023-06-27,22.888614,120.483597,0.20277128
C0V750,路竹,2023-06-27,22.854997,120.259439,0.13829379
C0V760,橋頭,2023-06-27,22.757806,120.30575,0.15923527
C0V770,大社,2023-06-27,22.730306,120.346639,0.17557703
C0V790,萬山,2023-06-27,22.905944,120.688056,0.5719313
C0V800,六龜,2023-06-27,22.997889,120.633583,0.4465522
C0V810,左營,2023-06-27,22.67491,120.28491,0.1708677
C0V820,小林,2023-06-27,23.148408,120.63325,0.64283603
C0V840,鳳鼻頭,2023-06-27,22.5083,120.3591,0.18849398
C0V850,蚵仔寮,2023-06-27,22.7256,120.2527,0.16659664
C0V860,南寮,2023-06-27,22.7616,120.2339,0.14356491
C0V870,文安,2023-06-27,22.8025,120.2164,0.14356491
C0V880,興達,2023-06-27,22.8778,120.2127,0.090033375
C0V890,前鎮,2023-06-27,22.5718,120.3117,0.18849398
C0V900,汕尾,2023-06-27,22.4782,120.4151,0.19235115
C0X050,東河,2023-06-27,23.296598,120.385608,0.18668976
C0X060,下營,2023-06-27,23.22695,120.256261,0.074389815
C0X080,佳里,2023-06-27,23.173039,120.145086,0.08370944
C0X100,臺南市北區,2023-06-27,23.010394,120.194228,0.09337507
C0X110,臺南市南區,2023-06-27,22.961189,120.188378,0.09537569
C0X120,麻豆,2023-06-27,23.183289,120.248611,0.085680716
C0X130,官田,2023-06-27,23.193217,120.315422,0.078440815
C0X140,西港,2023-06-27,23.125608,120.203108,0.08459581
C0X150,安定,2023-06-27,23.102614,120.227839,0.0985752
C0X160,仁德,2023-06-27,22.968258,120.257689,0.08661922
C0X170,關廟,2023-06-27,22.963017,120.327797,0.09575758
C0X180,山上,2023-06-27,23.0757,120.363253,0.19034393
C0X190,安平,2023-06-27,22.993161,120.152181,0.09337507
C0X200,左鎮,2023-06-27,23.056758,120.408522,0.17969045
C0X210,白河,2023-06-27,23.347466,120.414427,0.19810839
C0X220,學甲,2023-06-27,23.230367,120.182187,0.085680716
C0X230,鹽水,2023-06-27,23.272621,120.247641,0.07660649
C0X240,關子嶺,2023-06-27,23.331169,120.508025,0.7842892
C0X250,新營,2023-06-27,23.310689,120.316681,0.06469986
C0X260,後壁,2023-06-27,23.366358,120.362326,0.116897054
C0X280,將軍,2023-06-27,23.214999,120.13577,0.08370944
C0X290,北門,2023-06-27,23.267772,120.125481,0.08370944
C0X300,鹿寮,2023-06-27,23.386047,120.477331,0.09924599
C0X310,七股,2023-06-27,23.147289,120.086253,0.08243917
C0X320,柳營,2023-06-27,23.253328,120.375253,0.18668976
C0Z020,明里,2023-06-27,23.208717,121.262342,0.53537256
C0Z061,玉里,2023-06-27,23.3215,121.339656,0.2786569
C0Z070,舞鶴,2023-06-27,23.46811,121.37407,0.662281
C0Z080,富源,2023-06-27,23.587642,121.378225,0.6683253
C0Z100,東華,2023-06-27,23.89525,121.549833,0.5186119
C0Z150,吉安光華,2023-06-27,23.930925,121.595153,0.4941068
C0Z160,鳳林,2023-06-27,23.746114,121.453411,0.5986211
C0Z170,卓溪,2023-06-27,23.3443,121.3029,0.33515468
C0Z180,新城,2023-06-27,24.03946,121.60454,0.63731086
C0Z190,富世,2023-06-27,24.14743,121.6297,0.72888756
C0Z200,萬榮,2023-06-27,23.709219,121.420106,0.6142213
C0Z210,瑞穗,2023-06-27,23.5239,121.39021,0.59298927
C0Z230,和平,2023-06-27,24.30717,121.77007,0.18665408
C0Z270,蕃薯寮,2023-06-27,23.73835,121.540108,0.61993355
C0Z280,德武,2023-06-27,23.47426,121.41071,0.6258699
C0Z300,東里,2023-06-27,23.26853,121.30547,0.30542144
C0Z310,清水斷崖,2023-06-27,24.218294,121.689142,0.26845044
C0Z330,安通山,2023-06-27,23.290728,121.348528,0.81529945
