站號,站名,日期,lat,lon,BLBTSLS
C0R710,龍磐,2023-04-18,21.931672,120.838942,0.9541944
C1F9D1,白毛台,2023-04-18,24.158325,120.886933,8.727457e-10
C0G940,竹塘,2023-04-18,23.848253,120.386764,5.387342e-07
467590,恆春,2023-04-18,22.003897,120.746339,0.3007978
C1O850,環湖,2023-04-18,23.148617,120.418633,0.96481335
C0U710,太平山,2023-04-18,24.505486,121.525656,1.0682875e-08
C0E820,獅潭,2023-04-18,24.539133,120.920042,4.2787693e-10
C0V880,興達,2023-04-18,22.8778,120.2127,4.4293902e-08
C0S890,關山,2023-04-18,23.0395,121.175017,7.4206835e-10
K2F750,種苗繁殖,2023-04-18,24.225972,120.800917,8.055168e-10
C1Z130,銅門,2023-04-18,23.965694,121.492842,1.043791e-09
C0AD40,土城,2023-04-18,24.973208,121.445169,5.716946e-06
CAN140,六官養殖協會,2023-04-18,23.22881,120.29962,0.9595366
C0X180,山上,2023-04-18,23.0757,120.363253,0.33424205
C0F9Z0,雪山東峰,2023-04-18,24.388792,121.268675,1.006406e-08
C1M480,獨立山,2023-04-18,23.537022,120.607797,2.8249886e-10
C0X220,學甲,2023-04-18,23.230367,120.182187,2.1951275e-06
C0R170,屏東,2023-04-18,22.660269,120.494072,0.016357612
467650,日月潭,2023-04-18,23.881325,120.90805,1.639019e-09
C0K600,箔子寮,2023-04-18,23.6197,120.14,6.183054e-07
C0G830,埤頭,2023-04-18,23.866003,120.452806,5.3258525e-08
C0S950,七塊厝,2023-04-18,22.954453,121.229922,1.1516861e-09
467110,金門,2023-04-18,24.407306,118.289281,8.607151e-08
C0AH80,深坑,2023-04-18,25.002703,121.628328,3.885545e-06
467990,馬祖,2023-04-18,26.169269,119.923419,1.7146535e-08
C0A970,三貂角,2023-04-18,25.007606,122.002058,0.34065425
C0K430,褒忠,2023-04-18,23.690938,120.303634,0.0043704333
467480,嘉義,2023-04-18,23.495925,120.432906,0.99287224
C2E540,後龍,2023-04-18,24.606489,120.783933,4.4354582e-09
C0V400,阿公店,2023-04-18,22.804194,120.355528,0.14416027
C0R440,大漢山,2023-04-18,22.405264,120.753181,5.574889e-09
C0K280,四湖,2023-04-18,23.630414,120.227125,1.6249508e-06
C1F9B1,桐林,2023-04-18,24.066172,120.735194,1.9636068e-09
C0K390,土庫,2023-04-18,23.679029,120.395574,0.023361357
C1I450,望鄉山,2023-04-18,23.594153,120.944286,4.842975e-09
C0E910,海埔,2023-04-18,24.648767,120.772435,4.8863895e-09
B2E890,畜試北區分所,2023-04-18,24.527806,120.770972,6.4733247e-10
C0R750,四林格山,2023-04-18,22.076989,120.802439,0.9303595
C0F0C0,中坑,2023-04-18,24.248517,120.903319,1.6624023e-09
C1I121,大鞍,2023-04-18,23.678381,120.760017,3.890683e-09
72U480,花改蘭陽分場,2023-04-18,24.686306,121.716583,1.9091091e-08
C0A770,科教館,2023-04-18,25.096356,121.516507,0.000117848715
C0AJ60,六塊厝,2023-04-18,25.24,121.4481,0.99155796
C0R620,墾雷,2023-04-18,21.900836,120.855269,0.974303
467420,永康,2023-04-18,23.038386,120.2367,0.0005216306
467300,東吉島,2023-04-18,23.25695,119.667467,0.9922047
C0I410,名間,2023-04-18,23.837053,120.701447,3.1669645e-10
A2C560,農工中心,2023-04-18,24.985917,121.239833,3.3440916e-08
C0V740,旗山,2023-04-18,22.888614,120.483597,0.99540716
C0Z061,玉里,2023-04-18,23.3215,121.339656,1.2548377e-09
C0S840,南田,2023-04-18,22.279725,120.889208,0.69680387
C1I470,杉林溪,2023-04-18,23.639517,120.786444,4.706936e-09
C1X040,東原,2023-04-18,23.291597,120.463822,1.4587683e-06
C0R660,枋寮,2023-04-18,22.367722,120.590647,0.45324925
C1R120,上德文,2023-04-18,22.763272,120.704442,2.5595256e-10
C0K450,大埤,2023-04-18,23.646074,120.431537,0.0019298852
C0UA00,土場,2023-04-18,24.576533,121.495333,2.4283733e-09
467080,宜蘭,2023-04-18,24.763975,121.756528,7.985115e-08
C0N030,四草,2023-04-18,23.0235,120.1116,4.423476e-07
C0V650,彌陀,2023-04-18,22.783806,120.246361,0.006655479
C0D660,新竹市東區,2023-04-18,24.798681,120.986942,5.223775e-09
82S580,茶改東部分場,2023-04-18,22.907694,121.130139,3.5225994e-06
C0C710,大溪永福,2023-04-18,24.892936,121.324975,1.1463566e-08
C0FA20,溫寮,2023-04-18,24.372177,120.583125,1.4043366e-08
C0V640,湖內,2023-04-18,22.887139,120.2445,3.5424343e-08
C0R910,下寮,2023-04-18,22.3929,120.5548,0.45324925
C0Z020,明里,2023-04-18,23.208717,121.262342,2.455218e-09
C0M770,嘉義梅山,2023-04-18,23.585398,120.555587,1.2547616e-08
G2F820,農業試驗所,2023-04-18,24.031261,120.688133,1.711196e-09
C0C660,楊梅,2023-04-18,24.912375,121.143047,3.8646193e-09
C1E511,新開,2023-04-18,24.347703,120.827019,3.959072e-10
G2F820,農試所(霧峰),2023-04-18,24.031261,120.688133,1.711196e-09
C1I070,和社,2023-04-18,23.591131,120.888861,5.646772e-09
C2F000,大肚,2023-04-18,24.15295,120.572117,6.016564e-10
C1S850,豐南,2023-04-18,23.122139,121.262389,5.7753446e-10
C2A920,富貴角,2023-04-18,25.263783,121.565258,0.07254125
CAH030,茶改場竹圍站,2023-04-18,23.860083,120.637528,2.615679e-10
C0T960,光復,2023-04-18,23.660694,121.424964,8.1672996e-10
C0F9M0,豐原,2023-04-18,24.254322,120.720692,5.5094534e-10
C0R720,旭海,2023-04-18,22.205403,120.887614,0.9849751
C0V710,苓雅,2023-04-18,22.622742,120.330669,2.5321733e-05
C0C740,觀音工業區,2023-04-18,25.064764,121.114856,5.1361385e-05
CAC040,拉拉山,2023-04-18,24.699317,121.427133,1.4736591e-08
C0V790,萬山,2023-04-18,22.905944,120.688056,3.607481e-09
U2HA30,臺大和社,2023-04-18,23.590856,120.888864,5.646772e-09
C0AJ90,澳底,2023-04-18,25.0552,121.9253,0.9948712
C0Z100,東華,2023-04-18,23.89525,121.549833,7.105001e-10
C0G970,三豐,2023-04-18,23.882,120.2895,1.2237409e-06
V2K610,大庄合作社,2023-04-18,23.8068,120.367939,6.7360463e-07
C0V900,汕尾,2023-04-18,22.4782,120.4151,3.6783575e-07
C1R630,龍泉,2023-04-18,22.66701,120.59091,0.90566087
C1AC50,關渡,2023-04-18,25.133486,121.469331,0.00028133983
C0F9I0,神岡,2023-04-18,24.272481,120.658314,6.020249e-10
C0K460,斗南,2023-04-18,23.678734,120.478359,0.0013806105
467410,臺南,2023-04-18,22.993239,120.204772,2.3554738e-07
C2O810,曾文,2023-04-18,23.219681,120.497328,0.053296894
467280,後龍,2023-04-18,24.648563,120.831834,3.988786e-09
C1F9J1,清水林,2023-04-18,24.071242,120.820419,5.625066e-10
C2A650,火燒寮,2023-04-18,25.002719,121.742892,0.00014699493
466930,竹子湖,2023-04-18,25.162078,121.544547,2.3048464e-08
C1I220,樟湖,2023-04-18,23.905333,120.846983,1.2782406e-09
C0I390,仁愛,2023-04-18,24.022122,121.132206,1.0695593e-09
C0Z300,東里,2023-04-18,23.26853,121.30547,2.5123776e-09
C0V310,美濃,2023-04-18,22.898742,120.519153,0.99569124
C1V590,新發,2023-04-18,23.057019,120.646064,4.0637257e-10
C0K510,水林,2023-04-18,23.572924,120.24597,0.5001875
72S590,東改賓朗果園,2023-04-18,22.813889,121.071278,0.16163129
82A750,茶改北部分場,2023-04-18,24.955778,121.631222,7.2066335e-08
C1A750,石碇服務區,2023-04-18,25.00872,121.646242,8.719227e-07
C0X300,鹿寮,2023-04-18,23.386047,120.477331,0.91665566
G2AI50,關渡,2023-04-18,25.11575,121.492,0.00861721
C0K590,雲林東勢,2023-04-18,23.674192,120.255721,0.00041593146
C0A570,桶後,2023-04-18,24.848222,121.597992,1.0881619e-07
C1S800,華源,2023-04-18,22.657883,121.02325,2.1570068e-07
C0G720,溪州,2023-04-18,23.851589,120.499093,4.2643528e-08
C1V160,達卡努瓦,2023-04-18,23.279811,120.705319,1.2397051e-09
C2M410,馬頭山,2023-04-18,23.324361,120.582017,2.7519852e-07
C0V850,蚵仔寮,2023-04-18,22.7256,120.2527,0.0014022293
C0S740,池上,2023-04-18,23.119628,121.209469,4.0290056e-09
C1V390,尖山,2023-04-18,22.813153,120.367789,0.041275617
C0AH70,松山,2023-04-18,25.04871,121.55042,0.00042752098
C0N010,鯤鯓國小,2023-04-18,23.1879,120.0889,2.5601392e-07
C0R550,新埤,2023-04-18,22.467947,120.582894,2.784924e-07
C0SA60,知本（水試所）,2023-04-18,22.702394,121.082761,1.6738355e-06
C0T9I0,豐濱,2023-04-18,23.583897,121.514806,8.715297e-10
C0UB00,淡江大學蘭陽校園,2023-04-18,24.823239,121.730383,6.583402e-08
C0T9N0,富里,2023-04-18,23.171639,121.249378,3.9427066e-09
U2HA50,臺大竹山,2023-04-18,23.756972,120.681556,5.097864e-09
C0V840,鳳鼻頭,2023-04-18,22.5083,120.3591,1.416159e-07
C0X140,西港,2023-04-18,23.125608,120.203108,0.00015857861
72D080,桃改五峰分場,2023-04-18,24.612194,121.157167,2.8487002e-09
C0V530,阿蓮,2023-04-18,22.883208,120.327508,0.0025813573
C1O880,關山,2023-04-18,23.173397,120.594092,7.897777e-06
C0E791,卓蘭,2023-04-18,24.3126,120.8244,4.3612633e-10
C1I030,武界,2023-04-18,23.913225,121.052483,1.0309086e-09
C0R520,崁頂,2023-04-18,22.514781,120.506914,0.0060394728
C0R341,牡丹,2023-04-18,22.130036,120.792639,0.966591
C0R930,萬丹,2023-04-18,22.5885,120.4851,0.0006040193
C0S760,紅石,2023-04-18,23.069131,121.126219,1.0630576e-08
C1M610,石磐龍,2023-04-18,23.496606,120.663506,1.6484685e-09
C0UA10,鴛鴦湖,2023-04-18,24.590269,121.412228,1.1105636e-08
V2C260,八德蔬果,2023-04-18,24.978508,121.281819,2.6064964e-07
C0R800,丹路,2023-04-18,22.204481,120.750989,0.829203
C0G920,永靖,2023-04-18,23.924703,120.547533,6.1778347e-09
C1A630,下盆,2023-04-18,24.771003,121.538622,8.684703e-09
B2N890,畜產試驗所,2023-04-18,23.058972,120.336406,0.0014554524
C0UA30,白嶺,2023-04-18,24.527819,121.519031,6.5352075e-09
C1V580,溪南(特生中心),2023-04-18,23.084972,120.788475,1.03431e-09
C1T970,大農,2023-04-18,23.615233,121.413331,8.647243e-10
E2S960,林試太麻里2,2023-04-18,22.598014,120.989761,2.1238645e-06
C0R650,竹田,2023-04-18,22.58486,120.54344,0.3458966
C1H900,清流,2023-04-18,24.080775,120.962997,9.845258e-10
C1C510,水尾,2023-04-18,24.940081,121.087161,2.0491209e-08
C0F9X0,大雅(中科園區),2023-04-18,24.21528,120.62445,1.4098485e-09
C0O970,虎頭埤,2023-04-18,23.021375,120.347878,0.010135511
C0C730,中大臨海站,2023-04-18,24.966126,121.008581,7.754575e-07
C0X250,新營,2023-04-18,23.310689,120.316681,0.99198294
C0V700,三民,2023-04-18,22.645017,120.311233,4.6973655e-06
C0U870,大礁溪,2023-04-18,24.791042,121.675047,9.170547e-09
C0E870,高鐵苗栗,2023-04-18,24.60725,120.826094,4.364886e-09
A2K570,古坑花卉中心,2023-04-18,23.63353,120.55239,1.7788713e-08
C0M860,新美,2023-04-18,23.338017,120.683169,3.5653758e-10
C1E701,八卦,2023-04-18,24.491756,120.927619,1.5713992e-09
C0I420,國姓,2023-04-18,24.037803,120.855072,6.756996e-10
C0S960,香蘭,2023-04-18,22.587569,120.993375,2.1238645e-06
C0R260,春日,2023-04-18,22.370361,120.628306,0.30665284
72G600,臺中農改場,2023-04-18,24.003028,120.534389,6.7641173e-09
C0Z210,瑞穗,2023-04-18,23.5239,121.39021,8.2919294e-10
C0M820,達邦,2023-04-18,23.453994,120.749517,6.2692807e-10
C0V860,南寮,2023-04-18,22.7616,120.2339,0.0014022293
C0G740,大城,2023-04-18,23.852487,120.320935,9.74742e-07
C0R920,塭仔,2023-04-18,22.4169,120.5197,0.5209212
C0R470,高樹,2023-04-18,22.826389,120.600806,7.228174e-06
C0R680,佳樂水,2023-04-18,21.993578,120.861633,0.98806816
C1O870,大棟山,2023-04-18,23.31157,120.52226,4.3133647e-10
C0D360,梅花,2023-04-18,24.678347,121.208558,1.1279121e-09
C0Z190,富世,2023-04-18,24.14743,121.6297,5.1458617e-08
C0AI10,屈尺,2023-04-18,24.92184,121.54475,6.6351504e-08
B2U990,畜試東區分所,2023-04-18,24.669039,121.832561,6.395486e-08
C0R240,來義,2023-04-18,22.527306,120.625111,0.0004398987
C1R610,西大武山,2023-04-18,22.617719,120.7322,2.0193038e-08
C0G900,線西,2023-04-18,24.143358,120.443536,7.757854e-08
C0M700,竹崎,2023-04-18,23.526178,120.555508,6.3355724e-06
C2E880,三義,2023-04-18,24.405478,120.749819,4.0204978e-10
C0C720,竹圍,2023-04-18,25.112692,121.239824,0.00861721
C0F9P0,清水,2023-04-18,24.312297,120.562242,4.469063e-08
C0Z150,吉安光華,2023-04-18,23.930925,121.595153,1.3235689e-09
C1D640,外坪(五指山),2023-04-18,24.644447,121.090961,1.7364601e-09
C0F9O0,潭子,2023-04-18,24.213106,120.703933,1.3577816e-09
72T250,花蓮農改場,2023-04-18,23.975222,121.563889,6.706168e-09
C0E780,銅鑼,2023-04-18,24.489681,120.790853,5.1341414e-10
C1T950,太安,2023-04-18,23.666719,121.370128,1.0722601e-08
C0E830,苑裡,2023-04-18,24.439714,120.653053,9.596785e-09
467270,田中,2023-04-18,23.873803,120.581286,5.6660974e-07
C0SA10,檳榔四格山,2023-04-18,22.810031,121.109308,0.005384833
C1T830,布洛灣,2023-04-18,24.17184,121.57127,1.870223e-07
C0F970,大坑,2023-04-18,24.173142,120.722289,1.9866244e-09
C1U920,思源,2023-04-18,24.393125,121.347214,7.589669e-09
C0A931,三和,2023-04-18,25.233153,121.595236,0.00059457344
C0I010,廬山,2023-04-18,24.033311,121.181808,1.8474793e-09
C0R860,鼻頭,2023-04-18,22.1043,120.8979,0.5260926
C0UB20,壯圍,2023-04-18,24.7359,121.8163,2.372664e-08
C0R790,九棚,2023-04-18,22.14195,120.889281,0.730181
C0W110,東莒,2023-04-18,25.9652,119.98069,2.6815439e-08
C1U930,粉鳥林,2023-04-18,24.497088,121.842479,4.4591243e-06
C1I211,蘆竹湳,2023-04-18,23.934019,120.811994,4.4094922e-10
C0S830,長濱,2023-04-18,23.286817,121.411975,1.3352913e-09
C1F9F1,伯公龍,2023-04-18,24.272392,120.849047,8.21481e-10
C0E810,西湖,2023-04-18,24.562947,120.7485,3.044522e-08
C1I440,新高口,2023-04-18,23.478744,120.878939,1.8462569e-09
C0O840,王爺宮,2023-04-18,23.222064,120.40085,0.05443255
C0T9G0,鳳林山,2023-04-18,23.735269,121.420131,2.181593e-09
C0X080,佳里,2023-04-18,23.173039,120.145086,2.5601392e-07
C0Z310,清水斷崖,2023-04-18,24.218294,121.689142,1.4147895e-08
C0M680,太保,2023-04-18,23.455062,120.331455,0.99635696
C1S820,金峰,2023-04-18,22.590969,120.933236,1.3015361e-07
C0AD10,八里,2023-04-18,25.150211,121.403947,0.00861721
C2K240,草嶺,2023-04-18,23.59555,120.693461,2.1123117e-09
C1SA70,都蘭,2023-04-18,22.87794,121.226881,0.010925083
C0K440,二崙,2023-04-18,23.772797,120.408944,1.10914996e-07
C1A760,坪林交控,2023-04-18,24.94284,121.713442,2.2017443e-06
C0F9N0,大里,2023-04-18,24.092464,120.701378,5.874884e-09
C0SA90,達仁林場,2023-04-18,22.264347,120.823972,0.9193906
C1R290,石門山,2023-04-18,22.112611,120.756597,0.9896139
42HA10,萬大發電廠,2023-04-18,23.978875,121.139639,1.959095e-09
C0R890,山海,2023-04-18,21.9878,120.7091,0.95562494
C0T9A0,月眉山,2023-04-18,23.809928,121.539828,1.7088835e-09
C0AC70,信義,2023-04-18,25.037822,121.564597,0.00042752098
C0K560,棋山,2023-04-18,23.68645,120.603417,1.3959723e-08
C1Z240,中平林道,2023-04-18,23.42115,121.26763,1.5574445e-08
U2H480,溪頭,2023-04-18,23.670306,120.798194,2.2503546e-09
C0M880,好美里,2023-04-18,23.3364,120.138,0.0003752486
C0T9E0,大坑,2023-04-18,23.880628,121.581981,8.6023005e-10
C0K530,臺西,2023-04-18,23.701547,120.197559,2.5611482e-06
C1E900,國一N128K,2023-04-18,24.560997,120.844186,9.545428e-10
C0AJ50,水湳洞,2023-04-18,25.123695,121.862238,0.9971559
C0AI20,白沙灣,2023-04-18,25.283128,121.519058,0.9871061
C0A860,大坪,2023-04-18,25.165914,121.632969,1.9295958e-07
C1U850,觀音海岸,2023-04-18,24.38319,121.77856,1.1070128e-08
C0U950,鶯子嶺,2023-04-18,24.89754,121.79244,3.5589792e-08
C0O900,善化,2023-04-18,23.112883,120.297219,0.006446001
C0K550,蔦松,2023-04-18,23.514319,120.229736,0.019056352
E2P980,林試六龜中心,2023-04-18,22.991703,120.645722,3.467977e-09
C0E590,通霄,2023-04-18,24.471892,120.704622,9.5501305e-09
C1I310,西巒,2023-04-18,23.754486,120.883956,1.6007244e-09
C0A550,泰平,2023-04-18,24.971197,121.823711,5.5530563e-07
C0I360,水里,2023-04-18,23.812553,120.849792,2.839087e-10
C0R830,高士,2023-04-18,22.121825,120.836781,0.9872929
C1I101,溪頭,2023-04-18,23.661789,120.807647,3.2173784e-09
C0AJ20,野柳,2023-04-18,25.20703,121.690021,0.7723847
C0B060,暖暖,2023-04-18,25.0957,121.7403,0.44838583
C1H920,長豐,2023-04-18,24.102039,120.879897,8.8384045e-10
C0V360,內門,2023-04-18,22.975481,120.466769,0.98137134
C0R850,林邊,2023-04-18,22.4634,120.5339,3.5646968e-07
C0E930,龍鳳,2023-04-18,24.700034,120.859125,1.5701058e-08
C0U910,冬山,2023-04-18,24.63373,121.7937,6.395486e-08
C1E721,泰安,2023-04-18,24.489017,120.968036,3.6280092e-09
82H320,茶改中部分場,2023-04-18,23.875611,120.913583,1.4983675e-09
C0M750,布袋,2023-04-18,23.380878,120.167789,0.518903
C1S860,利嘉,2023-04-18,22.809417,121.050528,8.191236e-09
72C440,桃園農改,2023-04-18,24.950944,121.030583,3.3587874e-08
E2S980,林試太麻里1,2023-04-18,22.598922,120.980044,5.097512e-07
C0X170,關廟,2023-04-18,22.963017,120.327797,0.0025172352
C0V720,林園,2023-04-18,22.507747,120.394511,1.2426109e-07
C1I510,線浸林道,2023-04-18,23.761508,120.832956,1.6368447e-09
C0D690,外湖,2023-04-18,24.917735,120.968711,4.7704134e-08
C0C750,新興坑尾,2023-04-18,25.0061,121.0971,4.6526466e-07
B2Q810,畜試南區分所,2023-04-18,21.945583,120.802167,0.9883991
C0S790,金崙,2023-04-18,22.538122,120.966875,6.7731435e-07
C0AH90,福山植物園,2023-04-18,24.760717,121.58135,1.2799611e-08
C0I540,奇萊稜線,2023-04-18,24.109231,121.326456,9.064244e-09
C0M850,表湖,2023-04-18,23.24186,120.64166,4.874593e-10
C0S770,大溪山,2023-04-18,22.478475,120.943325,1.716652e-07
C0AG80,中和,2023-04-18,24.991622,121.491792,5.716946e-06
C0T790,大禹嶺,2023-04-18,24.186117,121.316086,4.0665427e-09
C0T9B0,水源,2023-04-18,23.991861,121.537169,2.86135e-09
C0R840,牡丹池山,2023-04-18,22.168389,120.841225,0.9364288
C1I131,桶頭,2023-04-18,23.641944,120.654117,9.591143e-10
CAL110,布袋國中,2023-04-18,23.35893,120.18026,0.518903
467571,新竹,2023-04-18,24.827853,121.014219,7.929487e-09
C0Z290,赤柯山,2023-04-18,23.36893,121.38293,5.516491e-09
C0X280,將軍,2023-04-18,23.214999,120.13577,3.1704903e-06
C0S690,太麻里,2023-04-18,22.60902,120.98533,1.7070308e-08
C0U880,北關,2023-04-18,24.9072,121.8734,0.0042013265
C1H860,瑞岩,2023-04-18,24.123772,121.18345,4.247013e-09
C0G810,埔心,2023-04-18,23.947633,120.525456,6.1728174e-09
C0U970,大福,2023-04-18,24.80064,121.81389,9.050806e-08
C1E670,南礦,2023-04-18,24.538278,121.002836,4.473948e-09
C0M520,東後寮,2023-04-18,23.369908,120.248065,0.4577063
C1E461,松安,2023-04-18,24.397972,120.986022,3.4742667e-09
72G600,臺中農改,2023-04-18,24.003028,120.534389,6.7641173e-09
C2N160,西拉雅風管處,2023-04-18,23.189481,120.335297,0.4940395
C0A640,石碇,2023-04-18,24.993969,121.662917,3.6072632e-07
E2S960,林試太麻里2,2023-04-18,22.598,120.99775,2.8576949e-06
C0F9Y0,桃山,2023-04-18,24.432739,121.303808,9.316331e-09
C1I020,萬大,2023-04-18,23.979817,121.132261,1.0767458e-09
C0U940,羅東,2023-04-18,24.68184,121.74934,1.9794578e-08
C0M650,朴子,2023-04-18,23.43463,120.23902,0.99536926
C1I500,大尖山,2023-04-18,23.858572,120.994889,3.955157e-09
C0G820,田尾,2023-04-18,23.901669,120.509389,6.1728174e-09
E2K600,四湖植物園,2023-04-18,23.676986,120.163433,1.6249508e-06
C0S730,綠島,2023-04-18,22.6672,121.47533,0.6582497
12Q970,東港工作站,2023-04-18,22.479997,120.466058,3.701149e-07
C0E430,南庄,2023-04-18,24.601775,121.000214,4.252717e-10
C1TA00,太魯閣,2023-04-18,24.15773,121.6236,4.078795e-08
466920,臺北,2023-04-18,25.037658,121.514853,0.00042752098
C0R600,舊泰武,2023-04-18,22.588194,120.664944,3.2641997e-10
C1I260,北坑,2023-04-18,23.9246,121.006903,4.3856377e-10
466910,鞍部,2023-04-18,25.182586,121.529731,1.0310747e-07
C1I230,九份二山,2023-04-18,23.961944,120.845,9.817654e-10
C2A660,瑞芳,2023-04-18,25.113169,121.801147,0.97956944
C0R270,琉球嶼,2023-04-18,22.332244,120.362236,7.0078583e-09
C1T990,高寮,2023-04-18,23.394239,121.356808,6.539045e-10
C0G620,芬園,2023-04-18,24.015678,120.6213,1.1712558e-09
C1Z140,荖溪,2023-04-18,23.890575,121.45964,1.05269065e-08
C1I201,中心崙,2023-04-18,23.728722,120.712097,2.4650001e-10
C1I400,凌霄,2023-04-18,24.018778,121.004456,1.5050183e-09
C1M640,十字,2023-04-18,23.492153,120.753683,3.496617e-09
G2P820,農試鳳山分所,2023-04-18,22.646611,120.356083,2.5132786e-06
C0Z270,蕃薯寮,2023-04-18,23.73835,121.540108,1.5175747e-09
C0F9Q0,外埔,2023-04-18,24.347817,120.705686,7.791687e-10
C0K580,高鐵雲林,2023-04-18,23.737456,120.417944,2.2102598e-05
C2I090,鳳凰,2023-04-18,23.728081,120.787347,7.6253165e-10
C0U990,員山,2023-04-18,24.74435,121.72247,2.2778291e-08
C0V770,大社,2023-04-18,22.730306,120.346639,0.00050701835
C0X120,麻豆,2023-04-18,23.183289,120.248611,0.06902928
C0C670,龍潭,2023-04-18,24.870056,121.221389,3.6486405e-09
C0D680,香山濕地,2023-04-18,24.783581,120.914988,7.399797e-09
C0S980,勝林山,2023-04-18,22.430439,120.8938,3.1663518e-08
C0V730,大寮,2023-04-18,22.605614,120.395717,1.9788233e-05
C0R570,麟洛,2023-04-18,22.65078,120.52719,0.016467966
CAG100,王功漁港,2023-04-18,23.96824,120.32586,6.4106234e-07
C0X290,北門,2023-04-18,23.267772,120.125481,3.1704903e-06
C2F930,大甲,2023-04-18,24.347667,120.640403,5.7767244e-09
C0D650,湖口,2023-04-18,24.904794,121.043628,2.3048422e-08
C0E420,竹南,2023-04-18,24.708978,120.888897,1.1912132e-08
C0U780,五結,2023-04-18,24.68637,121.79794,2.372664e-08
C1I250,鯉潭,2023-04-18,23.961922,120.991131,9.610628e-10
C0R130,阿禮,2023-04-18,22.742908,120.743678,3.0411704e-10
C0X100,臺南市北區,2023-04-18,23.010394,120.194228,3.784336e-07
C0S920,金峰嘉蘭,2023-04-18,22.594789,120.960825,4.5982048e-07
C0V490,新興,2023-04-18,22.627422,120.298803,2.5052928e-05
C0F9K0,大安,2023-04-18,24.345061,120.588025,1.1474548e-08
72N100,臺南農改,2023-04-18,23.0605,120.342194,0.0014554524
467290,古坑,2023-04-18,23.633639,120.551889,1.7788713e-08
C0V440,鳳山,2023-04-18,22.646653,120.356122,2.5132786e-06
C1T940,大觀,2023-04-18,23.714206,121.373133,1.9160467e-09
72T250,花蓮農改,2023-04-18,23.975222,121.563889,6.706168e-09
C0E740,造橋,2023-04-18,24.637056,120.864778,4.3671258e-09
C0R100,尾寮山,2023-04-18,22.833111,120.683889,3.6071626e-10
A2K630,臺大雲林校區,2023-04-18,23.730628,120.423903,2.2236065e-05
C0D580,寶山,2023-04-18,24.735006,121.025192,5.174014e-10
E2P990,林試扇平站,2023-04-18,22.9677,120.6857,3.266037e-10
C0AI30,三重,2023-04-18,25.057328,121.500629,0.000117848715
C0AH00,汐止,2023-04-18,25.066881,121.658778,0.00042752098
C1Z040,立山,2023-04-18,23.443356,121.327375,4.082155e-09
C0R740,獅子,2023-04-18,22.201569,120.70525,0.5586229
C0W130,花嶼,2023-04-18,23.40007,119.32276,0.9947958
C0A950,鼻頭角,2023-04-18,25.129036,121.923372,0.99633163
C0K470,林內,2023-04-18,23.748675,120.609642,1.6748952e-08
82C160,茶改場,2023-04-18,24.908472,121.185333,3.273285e-09
C0Z320,清水林道,2023-04-18,23.27125,121.188272,5.301081e-09
C0R760,南仁湖,2023-04-18,22.084681,120.863353,0.9896139
C0M670,大林,2023-04-18,23.600616,120.45841,0.037042093
C0M800,茶山,2023-04-18,23.299075,120.664767,4.659716e-10
C0A9C0,天母,2023-04-18,25.117494,121.537169,0.0070797233
72K220,南改斗南分場,2023-04-18,23.634556,120.477333,0.0013955868
72AI40,桃改樹林分場,2023-04-18,24.944503,121.386972,8.757226e-09
C0S910,蘭嶼燈塔,2023-04-18,22.081197,121.503117,0.9865035
C0B050,八斗子,2023-04-18,25.144754,121.79167,0.9979256
C0U900,內城,2023-04-18,24.71813,121.68766,1.6278973e-08
C0X320,柳營,2023-04-18,23.253328,120.375253,0.8732368
C0M790,新港,2023-04-18,23.553269,120.345728,0.95403916
C0F9T0,西屯,2023-04-18,24.179494,120.641275,6.819874e-09
C0SA30,都歷,2023-04-18,23.020333,121.323642,2.0529458e-09
C0C620,蘆竹,2023-04-18,25.084275,121.265767,6.2414433e-06
C0R730,大坪頂,2023-04-18,22.024633,120.69355,0.18421288
C0AJ40,石門,2023-04-18,25.273672,121.601198,0.4387456
C0E750,苗栗,2023-04-18,24.564569,120.824575,9.737909e-10
C0T870,鯉魚潭,2023-04-18,23.935639,121.508944,1.111837e-09
C1V170,排雲,2023-04-18,23.463619,120.954147,7.229209e-09
C2H950,中寮,2023-04-18,23.884447,120.766406,2.9501457e-10
C0R350,貓鼻頭,2023-04-18,21.921774,120.7358,0.9932587
C0V660,岡山,2023-04-18,22.797078,120.294958,0.0064486586
C1H941,雙冬,2023-04-18,23.967378,120.802189,4.384308e-10
C0AJ70,田寮,2023-04-18,25.2698,121.4886,0.98932844
C0AI00,五股,2023-04-18,25.07445,121.42728,0.00021044677
C0Z280,德武,2023-04-18,23.47426,121.41071,5.86372e-10
C0R700,枋山,2023-04-18,22.246844,120.661086,0.22145274
C0C460,復興,2023-04-18,24.820208,121.352281,2.508212e-09
E2H360,蓮華池,2023-04-18,23.918333,120.885278,4.438553e-10
C0M640,中埔,2023-04-18,23.42538,120.5229,0.004069883
C0W140,金沙,2023-04-18,24.488292,118.408778,1.2957886e-06
C2A540,四堵,2023-04-18,24.8926,121.745736,2.5231583e-07
C0ACA0,新莊,2023-04-18,25.051478,121.446756,0.20540036
C0R220,潮州,2023-04-18,22.534361,120.54,0.004334002
U2HA40,臺大內茅埔,2023-04-18,23.689722,120.851117,1.8031583e-09
467490,臺中,2023-04-18,24.145736,120.684075,6.217684e-09
C0U960,翠峰湖,2023-04-18,24.510856,121.608044,1.1031366e-08
E2HA20,林試畢祿溪站,2023-04-18,24.226944,121.308522,5.9924012e-09
C0V890,前鎮,2023-04-18,22.5718,120.3117,4.2965756e-05
467620,蘭嶼,2023-04-18,22.036969,121.558339,0.9315891
C1F941,雪嶺,2023-04-18,24.280586,121.026642,9.822624e-09
C0AC80,文山,2023-04-18,25.00235,121.575728,3.885545e-06
C0F9R0,龍井,2023-04-18,24.184536,120.528972,6.159412e-08
C0M760,民雄,2023-04-18,23.551754,120.428457,0.04611589
C0UA40,西德山,2023-04-18,24.560647,121.752608,5.499272e-09
C1T920,中興,2023-04-18,23.769503,121.498653,1.3103839e-09
C0D550,雪霸,2023-04-18,24.526972,121.11605,3.915361e-09
C2F860,梨山,2023-04-18,24.247522,121.243669,6.1985728e-09
C0R320,車城,2023-04-18,22.0744,120.716247,0.10214804
C1S870,南美山,2023-04-18,23.15025,121.382333,4.010834e-09
C0B020,基隆嶼,2023-04-18,25.19141,121.78391,0.7769306
C1U501,牛鬥,2023-04-18,24.637836,121.573656,4.3721182e-09
C0M730,嘉義市東區,2023-04-18,23.457673,120.460531,0.3235541
C0S700,知本,2023-04-18,22.684866,121.005642,2.0471754e-08
C1N001,沙崙,2023-04-18,22.935472,120.309406,0.0036176904
C0V760,橋頭,2023-04-18,22.757806,120.30575,0.0010713572
C0G960,福寶,2023-04-18,24.0443,120.3814,1.2974267e-07
C0X210,白河,2023-04-18,23.347466,120.414427,0.9684412
C0S810,東河,2023-04-18,22.972672,121.303986,0.8052988
C0R670,楓港,2023-04-18,22.190131,120.692156,0.1274723
C0FA50,霧峰,2023-04-18,24.0419,120.6995,1.5057563e-09
C0UB10,蘇澳,2023-04-18,24.5969,121.8571,5.9221925e-09
C0G950,防潮門,2023-04-18,24.1835,120.4871,6.152133e-08
C0M740,六腳,2023-04-18,23.492871,120.290625,0.99756646
C1R250,力里,2023-04-18,22.428117,120.629228,9.3054706e-07
C0K330,虎尾,2023-04-18,23.719183,120.442036,1.7711234e-05
C2FA00,烏石坑,2023-04-18,24.273503,120.947617,2.7058493e-09
C0V620,永安,2023-04-18,22.82315,120.236856,0.006655479
C1I330,楓樹林,2023-04-18,23.986803,121.076117,1.2391188e-09
C0W200,湖西,2023-04-18,23.596314,119.67275,0.9960917
72Q010,高雄農改場,2023-04-18,22.709333,120.525889,0.01921921
C0SA40,瑞和,2023-04-18,22.974361,121.156697,1.3728469e-08
C0C680,龜山,2023-04-18,25.02846,121.38656,2.0380981e-05
C2V260,月眉,2023-04-18,22.971003,120.539853,5.8717727e-05
C0V450,鳳森,2023-04-18,22.545064,120.392592,4.6695426e-08
C0U720,南山,2023-04-18,24.43742,121.38167,4.184911e-09
A2N290,臺南蘭花園區,2023-04-18,23.340258,120.379661,0.99631494
C0R560,新園,2023-04-18,22.5434,120.461558,1.2426109e-07
C0U890,三星,2023-04-18,24.66812,121.65302,6.7936745e-09
C1V300,御油山,2023-04-18,23.001983,120.715364,1.0508866e-09
C0U600,礁溪,2023-04-18,24.817539,121.765608,6.8717204e-06
C1T980,龍澗,2023-04-18,24.023289,121.411328,1.6735957e-08
C0D670,海天一線,2023-04-18,24.831986,120.914438,1.2101769e-07
C0SA00,歷坵,2023-04-18,22.520969,120.89185,4.4620787e-08
C0M710,東石,2023-04-18,23.458927,120.15385,2.6714753e-07
C0M780,鹿草,2023-04-18,23.41134,120.30835,0.9942352
C0U520,雙連埤,2023-04-18,24.753033,121.641303,8.965547e-09
C0B010,七堵,2023-04-18,25.094819,121.71713,0.795128
C0R480,長治,2023-04-18,22.693128,120.542622,0.0024234569
C1V830,國三S383K,2023-04-18,22.781967,120.426475,0.96087325
12Q980,恆春工作站,2023-04-18,22.079678,120.714425,0.10214804
C1O940,東山服務區,2023-04-18,23.286016,120.398472,0.98998827
C1U840,東澳嶺,2023-04-18,24.5378,121.8485,5.768346e-09
C1D630,飛鳳山,2023-04-18,24.766464,121.119178,2.3700624e-09
C0S940,石寧山,2023-04-18,23.223772,121.406639,2.5490328e-09
C0K410,北港,2023-04-18,23.573957,120.292802,0.38038585
C2M620,瑞里,2023-04-18,23.545133,120.675197,1.934584e-09
C2O950,安南,2023-04-18,23.076694,120.144861,3.5313883e-07
C0F0E0,南湖圈谷,2023-04-18,24.363714,121.444667,2.4724091e-08
467610,成功,2023-04-18,23.097486,121.373428,3.375595e-08
C0G890,伸港,2023-04-18,24.148933,120.484403,7.76613e-08
C2E540,龍溪,2023-04-18,24.606489,120.783933,4.4354582e-09
C1V200,梅山,2023-04-18,23.268447,120.823556,6.5596817e-10
C0T9H0,加路蘭山,2023-04-18,23.682947,121.5274,2.8897384e-09
C2O930,玉井,2023-04-18,23.126042,120.46055,0.33424205
C1F911,新伯公,2023-04-18,24.221361,120.841069,8.368592e-10
C0R490,九如,2023-04-18,22.7405,120.490503,0.032810245
C0X200,左鎮,2023-04-18,23.056758,120.408522,0.012179593
C1F891,稍來,2023-04-18,24.265689,121.001142,8.723267e-09
72N240,七股研究中心,2023-04-18,23.081672,120.062894,4.2213048e-07
C0C700,中壢,2023-04-18,24.977661,121.256375,1.7532717e-07
C0M690,水上,2023-04-18,23.419734,120.388909,0.99549407
C0V690,鼓山,2023-04-18,22.623325,120.275575,2.5052928e-05
C0O860,大內,2023-04-18,23.11885,120.36083,0.002684502
C0Z200,萬榮,2023-04-18,23.709219,121.420106,1.3684281e-09
C0T9D0,和中,2023-04-18,24.26676,121.74103,0.00033289552
C1O921,楠西,2023-04-18,23.183511,120.484083,0.92106545
C0AJ30,淡水觀海,2023-04-18,25.184591,121.408616,0.9311992
C0V810,左營,2023-04-18,22.67491,120.28491,4.691845e-06
C0UA70,桃源谷,2023-04-18,24.962606,121.888875,1.8575243e-07
C0X130,官田,2023-04-18,23.193217,120.315422,0.6124433
C1H000,翠峰,2023-04-18,24.109397,121.205211,3.1578218e-09
C0UA90,石城,2023-04-18,24.980444,121.951214,0.8131186
C1E681,南勢山,2023-04-18,24.421669,120.923831,1.6372474e-09
C0A9F0,內湖,2023-04-18,25.079422,121.57545,0.00042752098
C0K291,宜梧,2023-04-18,23.536281,120.169329,0.019056352
C1K540,口湖,2023-04-18,23.585344,120.180517,6.183054e-07
C0R780,滿州,2023-04-18,22.024403,120.839892,0.28213522
C0V870,文安,2023-04-18,22.8025,120.2164,0.014703274
C0U650,玉蘭,2023-04-18,24.675286,121.587061,8.508947e-09
C0R640,東港,2023-04-18,22.46247,120.44074,3.701149e-07
K2E360,苗栗農改,2023-04-18,24.495722,120.829111,5.673175e-10
C0AJ80,板橋,2023-04-18,25.0107,121.4489,6.9979496e-06
C0S660,下馬,2023-04-18,23.150427,121.070312,3.5584276e-09
C1H9B1,阿眉,2023-04-18,24.1263,120.994672,6.501155e-09
C0UA20,多加屯,2023-04-18,24.368614,121.373189,2.8207257e-09
C0E730,頭份,2023-04-18,24.688247,120.912206,1.3113697e-08
72V140,高改旗南分場,2023-04-18,22.857861,120.516667,0.99569124
C0K480,莿桐,2023-04-18,23.761192,120.502372,1.4528053e-06
C0U980,坪林石牌,2023-04-18,24.86478,121.77396,2.8800335e-08
C0T900,西林,2023-04-18,23.8119,121.441458,1.3241194e-09
C1I150,青雲,2023-04-18,23.793361,120.949378,3.4163722e-10
467350,澎湖,2023-04-18,23.565503,119.563094,0.99727684
C0G800,埔鹽,2023-04-18,24.000394,120.431683,4.217824e-08
C0H960,草屯,2023-04-18,23.973672,120.68085,1.1986792e-09
C1V780,多納林道,2023-04-18,22.888028,120.737917,4.6467752e-10
C0E920,通霄漁港,2023-04-18,24.498589,120.673876,1.678381e-08
C0Z330,安通山,2023-04-18,23.290728,121.348528,1.6703579e-09
C0AH10,永和,2023-04-18,25.01125,121.508111,6.9979496e-06
C2G640,鹿港,2023-04-18,24.0753,120.430481,1.2996819e-07
C1E890,國三N149K,2023-04-18,24.463414,120.680019,6.0731766e-09
C1R110,口社,2023-04-18,22.770111,120.645222,0.38338935
C1M870,國三N285K,2023-04-18,23.550319,120.505833,2.2444617e-08
467050,新屋,2023-04-18,25.006744,121.047486,8.648626e-07
C1E480,鳳美,2023-04-18,24.554803,121.034747,1.4808319e-09
C0M530,奮起湖,2023-04-18,23.493903,120.699253,2.1676068e-09
C0C590,觀音,2023-04-18,25.027072,121.153317,1.32221185e-05
C0T9M0,靜浦,2023-04-18,23.455167,121.495028,5.959867e-10
C0AI40,石牌,2023-04-18,25.115597,121.513139,0.009881941
C1F871,上谷關,2023-04-18,24.203483,121.018644,1.6924733e-09
C0G880,二水,2023-04-18,23.810742,120.6173,1.389702e-09
C0R940,加祿堂,2023-04-18,22.3363,120.6217,0.4289329
C0W220,北竿,2023-04-18,26.220358,119.974881,1.7165776e-08
C0O960,崎頂,2023-04-18,22.959547,120.369317,0.000121642406
C0S750,向陽,2023-04-18,23.248397,120.986133,1.5271073e-09
C0T9F0,水璉,2023-04-18,23.797131,121.542514,1.338974e-09
C1M600,頭凍,2023-04-18,23.406364,120.603339,1.3830569e-09
467660,臺東,2023-04-18,22.752211,121.154586,0.99869615
C1D380,新埔,2023-04-18,24.84745,121.03834,5.1527738e-09
C0V750,路竹,2023-04-18,22.854997,120.259439,2.9873505e-08
C0N050,蚵寮,2023-04-18,23.301,120.1104,0.0003752486
72M700,南改鹿草分場,2023-04-18,23.416869,120.283061,0.99556327
C1SA50,利嘉林道,2023-04-18,22.82325,121.009389,1.6384073e-08
467550,玉山,2023-04-18,23.487614,120.959522,1.079333e-08
C0A940,金山,2023-04-18,25.223628,121.643967,0.74329716
C1V340,大津,2023-04-18,22.888322,120.645986,2.610518e-08
C0W180,七美,2023-04-18,23.219333,119.444892,0.9953817
C1F9C1,白冷,2023-04-18,24.182844,120.929889,7.671122e-10
K2E710,苗改生物防治研究中心,2023-04-18,24.422861,120.871833,3.4377598e-10
C0N040,蘆竹溝,2023-04-18,23.2344,120.0961,2.456431e-06
C2W230,畜試所澎湖,2023-04-18,23.628342,119.513206,0.9971983
C0R880,後壁湖,2023-04-18,21.9457,120.7457,0.96052104
C1I280,埔中,2023-04-18,23.820778,120.642594,2.4297017e-10
467790,墾丁雷達站,2023-04-18,21.948235,120.808028,0.9834343
C0W190,望安,2023-04-18,23.380564,119.494075,0.9970756
466881,新北,2023-04-18,24.9593,121.52,5.7331617e-06
C0Z170,卓溪,2023-04-18,23.3443,121.3029,6.4275074e-10
C0F850,東勢,2023-04-18,24.246428,120.833047,5.7714356e-10
466900,淡水,2023-04-18,25.164889,121.448906,0.007272614
C0I370,魚池,2023-04-18,23.895703,120.94135,3.5783201e-10
C0C630,大溪,2023-04-18,24.882853,121.265547,3.871643e-09
C0A520,山佳,2023-04-18,24.974944,121.402008,0.00017018385
C0I110,竹山,2023-04-18,23.761225,120.688156,5.8416505e-10
82H840,茶改南部分場,2023-04-18,23.762528,120.7405,2.475493e-10
C0G660,溪湖,2023-04-18,23.94835,120.479122,6.5002252e-09
C1T800,洛韶,2023-04-18,24.204558,121.453956,1.8678607e-08
C1T810,慈恩,2023-04-18,24.192044,121.388386,2.0432032e-09
C1E451,象鼻,2023-04-18,24.368617,120.940228,1.322562e-09
C0AC60,三峽,2023-04-18,24.939025,121.369728,8.099945e-09
C0I490,萬大林道,2023-04-18,23.928228,121.091411,2.441009e-09
C1I290,豐丘,2023-04-18,23.668178,120.887417,2.3806868e-09
C1I320,奧萬大,2023-04-18,23.952956,121.178556,1.5339267e-09
C0U770,南澳,2023-04-18,24.44935,121.81022,1.6787077e-08
C0A980,社子,2023-04-18,25.109508,121.469681,0.015674805
C0V800,六龜,2023-04-18,22.997889,120.633583,3.8707717e-09
C1G9D0,國一S218K,2023-04-18,23.890641,120.493253,5.3258525e-08
C2F9A0,中竹林,2023-04-18,24.103556,120.751061,6.3321565e-10
C0FA40,臺中電廠,2023-04-18,24.2146,120.4907,6.159412e-08
C0H9C0,合歡山,2023-04-18,24.143442,121.272547,1.01151345e-08
C0X060,下營,2023-04-18,23.22695,120.256261,0.9595366
G2M350,農試溪口農場,2023-04-18,23.58565,120.408111,0.08959968
C0U860,頭城,2023-04-18,24.85323,121.8308,7.876505e-06
C0R580,南州,2023-04-18,22.48591,120.50274,3.701149e-07
C0D430,峨眉,2023-04-18,24.6905,121.017189,1.4599385e-09
C0G780,秀水,2023-04-18,24.03405,120.503869,6.7641173e-09
72N100,臺南農改場,2023-04-18,23.0605,120.342194,0.0014554524
C0S900,蘭嶼高中,2023-04-18,22.04909,121.51214,0.9951632
467540,大武,2023-04-18,22.355675,120.903789,0.9872724
C1F9W0,德基,2023-04-18,24.254783,121.190261,7.125198e-09
C1Z120,壽豐,2023-04-18,23.870853,121.508081,7.105001e-10
C0W160,烏坵,2023-04-18,24.9944,119.44956,0.011722924
C1I240,外大坪,2023-04-18,23.958697,120.917931,9.607073e-10
C1I550,國六W023K,2023-04-18,23.979067,120.867742,3.8037948e-10
C0R870,興海,2023-04-18,21.9752,120.8439,0.9883991
C0R140,瑪家,2023-04-18,22.682903,120.686639,2.5608246e-10
C0A530,坪林,2023-04-18,24.938183,121.70975,5.631324e-07
C0X260,後壁,2023-04-18,23.366358,120.362326,0.99631494
C0Z230,和平,2023-04-18,24.30717,121.77007,0.000591329
C0G770,福興,2023-04-18,24.041289,120.437669,4.2140528e-08
C0H9A0,神木村,2023-04-18,23.532742,120.843667,3.5922174e-09
C0I460,南投,2023-04-18,23.911469,120.687331,5.3778254e-10
C0I480,梅峰,2023-04-18,24.085272,121.173572,2.1199806e-09
C1V570,吉東,2023-04-18,22.85422,120.5454,0.9944521
C2A560,福山,2023-04-18,24.776203,121.502811,1.3991124e-08
C0AH30,五分山,2023-04-18,25.07125,121.780794,1.1804555e-07
C0FA10,松柏,2023-04-18,24.429115,120.617482,1.1641093e-08
72S200,東改班鳩分場,2023-04-18,22.829528,121.077694,0.6648111
72HA00,中改埔里分場,2023-04-18,23.903208,120.963364,4.395025e-10
C0C650,平鎮,2023-04-18,24.897503,121.214636,3.9611665e-09
C0S930,延平,2023-04-18,22.902581,121.084058,4.0663394e-07
C0UA60,樟樹山,2023-04-18,24.41393,121.78325,9.368434e-09
C1S670,摩天,2023-04-18,23.199503,121.027,7.770186e-09
C0V630,茄萣,2023-04-18,22.906642,120.182608,4.4293902e-08
466940,基隆,2023-04-18,25.133314,121.740475,0.99779385
C0X050,東河,2023-04-18,23.296598,120.385608,0.99220204
C0R770,保力,2023-04-18,22.071122,120.764111,0.17871712
G2L020,農試嘉義分所,2023-04-18,23.485028,120.473806,4.7787304e-05
C0X240,關子嶺,2023-04-18,23.331169,120.508025,4.1050264e-08
C0I380,集集,2023-04-18,23.828206,120.801467,2.8943983e-10
466990,花蓮,2023-04-18,23.975128,121.613275,8.495844e-09
C1V220,小關山,2023-04-18,23.154217,120.813603,1.0356801e-09
C1F9G1,慶福山,2023-04-18,24.180853,120.848378,9.0443436e-10
C0Z250,瑞穗林道,2023-04-18,23.49284,121.30688,1.3169568e-08
C0D590,新豐,2023-04-18,24.87068,120.97721,2.9215734e-08
C0A870,五指山,2023-04-18,25.132153,121.608692,2.0892372e-08
C0UA50,西帽山,2023-04-18,24.555361,121.802628,3.498872e-09
C0X160,仁德,2023-04-18,22.968258,120.257689,0.001101066
C1H971,六分寮,2023-04-18,23.92507,120.6378,3.166288e-10
C0W120,西嶼,2023-04-18,23.5626,119.468436,0.99692154
C0G650,員林,2023-04-18,23.946503,120.585597,1.860276e-09
C0AD50,鶯歌,2023-04-18,24.951533,121.346294,6.8295978e-09
C0S990,山豬窟,2023-04-18,22.318619,120.857372,0.17908603
72Q010,高雄農改,2023-04-18,22.709333,120.525889,0.01921921
C0X190,安平,2023-04-18,22.993161,120.152181,3.784336e-07
C0K400,斗六,2023-04-18,23.720583,120.541127,0.0030904647
12J990,口湖工作站,2023-04-18,23.589978,120.180394,6.183054e-07
C0O830,北寮,2023-04-18,23.079561,120.495008,0.9575564
C1D410,白蘭,2023-04-18,24.579364,121.079947,4.8706545e-09
C0S970,加津林,2023-04-18,22.416211,120.926942,0.98370445
C0D700,關西,2023-04-18,24.7977,121.1732,8.9855723e-10
C0M810,里佳,2023-04-18,23.389125,120.716647,2.1793762e-09
C0U750,龜山島,2023-04-18,24.841667,121.953133,0.009794892
C0R810,內獅,2023-04-18,22.305064,120.642986,0.40955645
C1M390,龍美,2023-04-18,23.406728,120.654417,1.6481038e-09
C1H840,國三N238K,2023-04-18,23.841008,120.707711,2.7614064e-10
CAQ030,崎峰國小,2023-04-18,22.42565,120.49521,3.701149e-07
C2E520,大湖,2023-04-18,24.414939,120.870872,3.4636652e-10
467530,阿里山,2023-04-18,23.508208,120.813242,6.769977e-09
C1E691,南湖,2023-04-18,24.40135,120.837533,1.2938756e-09
C0FA30,梧棲,2023-04-18,24.256003,120.523381,4.469063e-08
C1V231,高中,2023-04-18,23.134911,120.716711,3.9650042e-10
C0F9V0,新社,2023-04-18,24.200172,120.815806,7.504749e-10
C0H890,埔里,2023-04-18,23.972169,120.952425,3.5720465e-10
C0R690,墾丁,2023-04-18,21.966756,120.810269,0.6323094
C0F0D0,審馬陣,2023-04-18,24.381675,121.4203,5.349714e-09
C0R820,白鷺,2023-04-18,22.454275,120.666219,8.47695e-10
U2H480,臺大溪頭,2023-04-18,23.670306,120.798194,2.2503546e-09
C1V190,南天池,2023-04-18,23.27403,120.91176,1.7732807e-09
K2E360,苗栗農改場,2023-04-18,24.495722,120.829111,5.673175e-10
CAJ050,海口故事園區,2023-04-18,23.57543,120.14121,6.183054e-07
C0O990,媽廟,2023-04-18,22.99175,120.293525,0.00020668599
C0D480,打鐵坑,2023-04-18,24.849664,121.150789,3.6517873e-09
C0Z220,和平林道,2023-04-18,24.343922,121.656317,1.286447e-08
72C440,桃園農改場,2023-04-18,24.950944,121.030583,3.3587874e-08
C1E711,馬拉邦山,2023-04-18,24.367306,120.901656,1.3751157e-09
C0D560,竹東,2023-04-18,24.767147,121.057881,9.367929e-10
C0F9U0,南屯,2023-04-18,24.137006,120.637969,1.2925639e-08
C0M720,番路,2023-04-18,23.464657,120.554156,0.00014192183
C0F0A0,雪山圈谷,2023-04-18,24.388594,121.236339,9.786176e-09
C1A9N0,四十份,2023-04-18,24.934158,121.593283,3.5594002e-08
C0U760,東澳,2023-04-18,24.52196,121.83318,1.7966059e-06
C0X230,鹽水,2023-04-18,23.272621,120.247641,0.00023784132
C0V370,古亭坑,2023-04-18,22.893178,120.401947,0.94651043
C1I340,新興橋,2023-04-18,23.563333,120.868728,1.7815085e-09
C0SA80,土坂,2023-04-18,22.453108,120.887572,0.0014538034
C0R160,鹽埔,2023-04-18,22.739558,120.530778,0.01959471
C0AC40,大屯山,2023-04-18,25.175675,121.522408,5.5059292e-08
466850,五分山雷達站,2023-04-18,25.071182,121.781205,1.1336728e-07
C1AI50,國三N016K,2023-04-18,25.034164,121.619664,0.00017795847
C1V600,藤枝,2023-04-18,23.071961,120.757042,8.424806e-10
C1E601,南勢,2023-04-18,24.572486,120.734842,1.43645265e-08
C0Z180,新城,2023-04-18,24.03946,121.60454,7.638159e-09
C0O980,新市,2023-04-18,23.061614,120.298197,0.006446001
C0K420,西螺,2023-04-18,23.800407,120.467394,9.683907e-08
C0Z050,佳心,2023-04-18,23.34567,121.21316,5.027567e-09
C0AD30,蘆洲,2023-04-18,25.086594,121.472331,0.00011921146
C0V610,梓官,2023-04-18,22.760558,120.267211,0.0010713572
K2F750,種苗改良場,2023-04-18,24.225972,120.800917,8.055168e-10
C0UA80,大溪漁港,2023-04-18,24.941801,121.902955,0.0025172269
C1AI60,國一39K邊坡,2023-04-18,25.064361,121.383836,6.0116006e-05
C0W150,金寧,2023-04-18,24.457703,118.328989,9.9214425e-08
V2C250,八德合作社,2023-04-18,24.93775,121.266389,4.5553543e-09
C0AH40,平等,2023-04-18,25.129142,121.577086,9.543141e-08
C0R540,佳冬,2023-04-18,22.419456,120.552375,0.45324925
466950,彭佳嶼,2023-04-18,25.627975,122.079744,0.99964416
C0A890,雙溪,2023-04-18,25.036003,121.864242,0.9878105
C0C480,桃園,2023-04-18,24.992425,121.323172,2.6754321e-07
C0AH50,林口,2023-04-18,25.072181,121.38084,1.011771e-05
A2K360,水試臺西試驗場,2023-04-18,23.717231,120.190522,3.6466984e-06
B2N890,畜試所,2023-04-18,23.058972,120.336406,0.0014554524
C0F9S0,烏日,2023-04-18,24.107058,120.624103,9.241045e-09
C0C490,八德,2023-04-18,24.928708,121.283289,4.621763e-09
C0R190,赤山,2023-04-18,22.592333,120.614306,0.20743643
C0T820,天祥,2023-04-18,24.179597,121.495639,6.478741e-08
C1F9E1,龍安,2023-04-18,24.1605,120.831961,6.267403e-10
C0V820,小林,2023-04-18,23.148408,120.63325,2.6959503e-07
C2G870,芳苑,2023-04-18,23.922303,120.320025,5.9150267e-07
C0E850,大河,2023-04-18,24.618069,120.948578,8.683091e-10
C1U670,寒溪,2023-04-18,24.634,121.71691,1.6702344e-08
C0N020,城西,2023-04-18,23.0568,120.0956,3.784336e-07
C1Z110,三棧,2023-04-18,24.11557,121.60501,3.598851e-08
C0R280,檳榔,2023-04-18,22.076078,120.836777,0.9723834
C0F9L0,后里,2023-04-18,24.310436,120.729725,5.1167404e-10
C0D540,橫山,2023-04-18,24.71116,121.11693,4.7112453e-10
C1D420,太閣南,2023-04-18,24.632808,121.160575,5.250516e-09
C1E770,公館,2023-04-18,24.526914,120.830806,6.4733247e-10
CAN130,水試所海水繁養殖中心,2023-04-18,23.120802,120.07968,4.2213048e-07
C1I430,翠華,2023-04-18,24.191961,121.224339,2.2738649e-09
C1M400,菜瓜坪,2023-04-18,23.251928,120.576103,2.2394404e-09
C0G730,二林,2023-04-18,23.903325,120.376081,4.0679797e-08
72M360,南改義竹分場,2023-04-18,23.360694,120.279361,0.4607159
V2K620,麥寮合作社,2023-04-18,23.753836,120.294783,0.0043293126
C0Z070,舞鶴,2023-04-18,23.46811,121.37407,5.9921584e-10
C0B040,大武崙,2023-04-18,25.166676,121.706993,0.9960151
C1Z030,紅葉,2023-04-18,23.493119,121.338806,8.4825785e-10
C1I050,丹大,2023-04-18,23.753747,121.141147,2.2065638e-09
C0I080,信義,2023-04-18,23.689694,120.851036,1.8031583e-09
C2A880,福隆,2023-04-18,25.017842,121.942083,0.84902585
C0Z160,鳳林,2023-04-18,23.746114,121.453411,1.3441095e-09
C0V210,復興,2023-04-18,23.222403,120.806089,6.69322e-10
C0H990,昆陽,2023-04-18,24.121322,121.273642,7.0954975e-09
C0S710,鹿野,2023-04-18,22.917711,121.122994,1.3144867e-09
C0I530,小奇萊,2023-04-18,24.131764,121.295717,7.559229e-09
C0Z080,富源,2023-04-18,23.587642,121.378225,2.9522973e-09
467441,高雄,2023-04-18,22.7304,120.3125,0.00050420064
C1I140,卡奈托灣,2023-04-18,23.754364,121.087872,6.7440686e-10
C0I520,玉山風口,2023-04-18,23.470489,120.955994,1.2200669e-08
C1G691,下水埔,2023-04-18,23.816114,120.5676,7.7748797e-07
C0X110,臺南市南區,2023-04-18,22.961189,120.188378,0.001101066
C0V680,仁武,2023-04-18,22.701083,120.347722,4.691845e-06
C2G840,北斗,2023-04-18,23.877586,120.514222,4.257997e-08
C0R900,竹坑,2023-04-18,22.1385,120.7022,0.09661233
C0K250,崙背,2023-04-18,23.75555,120.318925,0.0043704333
C0G860,社頭,2023-04-18,23.897647,120.5862,6.894472e-07
C0X150,安定,2023-04-18,23.102614,120.227839,0.00015857861
C0R590,里港,2023-04-18,22.77919,120.49459,0.9917389
C0E610,馬都安,2023-04-18,24.451272,120.930192,1.3747591e-09
C0E550,明德,2023-04-18,24.583486,120.885411,9.1407854e-10
C0R150,三地門,2023-04-18,22.709889,120.639944,0.4522987
C0G910,花壇,2023-04-18,24.032076,120.549461,5.5354943e-09
C1D400,鳥嘴山,2023-04-18,24.71909,121.28387,4.1862123e-09
C0K500,元長,2023-04-18,23.64981,120.315024,0.0006628828
C0F0B0,石岡,2023-04-18,24.276061,120.777644,4.6346843e-10
C2V250,甲仙,2023-04-18,23.080106,120.591758,0.0056579765
C0SA20,金崙山,2023-04-18,22.567419,120.959667,1.16268914e-08
C0V350,溪埔,2023-04-18,22.738578,120.446797,0.9685887
C0M660,溪口,2023-04-18,23.604131,120.403569,0.08959968
C1S880,壽卡,2023-04-18,22.238911,120.858903,0.9217231
72D680,桃改新埔分場,2023-04-18,24.834444,121.066111,5.2591056e-09
