站號,站名,日期,lat,lon,BlastGRU-TW
466881,新北,2023-07-11,24.9593,121.52,0.23373117
466900,淡水,2023-07-11,25.164889,121.448906,0.36245096
466920,臺北,2023-07-11,25.037658,121.514853,0.2912578
466940,基隆,2023-07-11,25.133314,121.740475,0.24410602
466990,花蓮,2023-07-11,23.975128,121.613275,0.4879922
467050,新屋,2023-07-11,25.006744,121.047486,0.38980612
467080,宜蘭,2023-07-11,24.763975,121.756528,0.0849316
467270,田中,2023-07-11,23.873803,120.581286,0.21763454
467300,東吉島,2023-07-11,23.25695,119.667467,0.35682452
467350,澎湖,2023-07-11,23.565503,119.563094,0.30717126
467410,臺南,2023-07-11,22.993239,120.204772,0.055319007
467420,永康,2023-07-11,23.038386,120.2367,0.05020628
467441,高雄,2023-07-11,22.7304,120.3125,0.0479587
467480,嘉義,2023-07-11,23.495925,120.432906,0.21217638
467490,臺中,2023-07-11,24.145736,120.684075,0.4917927
467540,大武,2023-07-11,22.355675,120.903789,0.28979072
467571,新竹,2023-07-11,24.827853,121.014219,0.5998259
467590,恆春,2023-07-11,22.003897,120.746339,0.44664893
467610,成功,2023-07-11,23.097486,121.373428,0.08331478
467620,蘭嶼,2023-07-11,22.036969,121.558339,0.9935328
467660,臺東,2023-07-11,22.752211,121.154586,0.068402484
467790,墾丁雷達站,2023-07-11,21.948235,120.808028,0.5338596
C0A520,山佳,2023-07-11,24.974944,121.402008,0.29781207
C0A530,坪林,2023-07-11,24.938183,121.70975,0.21211943
C0A540,四堵,2023-07-11,24.8926,121.745736,0.75870264
C0A550,泰平,2023-07-11,24.971197,121.823711,0.6570377
C0A560,福山,2023-07-11,24.776203,121.502811,0.94623417
C0A570,桶後,2023-07-11,24.848222,121.597992,0.9398794
C0A640,石碇,2023-07-11,24.993969,121.662917,0.07673538
C0A650,火燒寮,2023-07-11,25.002719,121.742892,0.0879781
C0A660,瑞芳,2023-07-11,25.113169,121.801147,0.07677039
C0A770,科教館,2023-07-11,25.096356,121.516507,0.34431344
C0A860,大坪,2023-07-11,25.165914,121.632969,0.92402446
C0A880,福隆,2023-07-11,25.017842,121.942083,0.060810115
C0A890,雙溪,2023-07-11,25.036003,121.864242,0.19342573
C0A920,富貴角,2023-07-11,25.263783,121.565258,0.44808343
C0A931,三和,2023-07-11,25.233153,121.595236,0.16441363
C0A940,金山,2023-07-11,25.223628,121.643967,0.38254067
C0A950,鼻頭角,2023-07-11,25.129036,121.923372,0.06654237
C0A970,三貂角,2023-07-11,25.007606,122.002058,0.08792081
C0A980,社子,2023-07-11,25.109508,121.469681,0.3352079
C0A9C0,天母,2023-07-11,25.117494,121.537169,0.34494486
C0A9F0,內湖,2023-07-11,25.079422,121.57545,0.28121394
C0AC60,三峽,2023-07-11,24.939025,121.369728,0.25697085
C0AC70,信義,2023-07-11,25.037822,121.564597,0.25500283
C0AC80,文山,2023-07-11,25.00235,121.575728,0.26141146
C0ACA0,新莊,2023-07-11,25.051478,121.446756,0.30374253
C0AD00,三芝,2023-07-11,25.258131,121.501917,0.38381648
C0AD10,八里,2023-07-11,25.150211,121.403947,0.43149522
C0AD30,蘆洲,2023-07-11,25.086594,121.472331,0.34431344
C0AD40,土城,2023-07-11,24.973208,121.445169,0.2836502
C0AD50,鶯歌,2023-07-11,24.951533,121.346294,0.38504198
C0AG80,中和,2023-07-11,24.991622,121.491792,0.24644339
C0AH00,汐止,2023-07-11,25.066881,121.658778,0.18820414
C0AH10,永和,2023-07-11,25.01125,121.508111,0.24018419
C0AH40,平等,2023-07-11,25.129142,121.577086,0.90570885
C0AH50,林口,2023-07-11,25.072181,121.38084,0.763146
C0AH70,松山,2023-07-11,25.04871,121.55042,0.25500283
C0AH80,深坑,2023-07-11,25.002703,121.628328,0.24784778
C0AI00,五股,2023-07-11,25.07445,121.42728,0.66507566
C0AI10,屈尺,2023-07-11,24.92184,121.54475,0.23512974
C0AI20,白沙灣,2023-07-11,25.283128,121.519058,0.4184454
C0AI30,三重,2023-07-11,25.057328,121.500629,0.33561411
C0AI40,石牌,2023-07-11,25.115597,121.513139,0.3541971
C0AJ20,野柳,2023-07-11,25.20703,121.690021,0.29116136
C0AJ30,淡水觀海,2023-07-11,25.184591,121.408616,0.3707138
C0AJ40,石門,2023-07-11,25.273672,121.601198,0.6514913
C0AJ50,水湳洞,2023-07-11,25.123695,121.862238,0.18191518
C0AJ60,六塊厝,2023-07-11,25.24,121.4481,0.45685935
C0AJ70,田寮,2023-07-11,25.2698,121.4886,0.31635743
C0AJ80,板橋,2023-07-11,25.0107,121.4489,0.32452425
C0AJ90,澳底,2023-07-11,25.0552,121.9253,0.060957313
C0B010,七堵,2023-07-11,25.094819,121.71713,0.23562555
C0B020,基隆嶼,2023-07-11,25.19141,121.78391,0.25156674
C0B040,大武崙,2023-07-11,25.166676,121.706993,0.29448295
C0B050,八斗子,2023-07-11,25.144754,121.79167,0.23204528
C0B060,暖暖,2023-07-11,25.0957,121.7403,0.25080836
C0C460,復興,2023-07-11,24.820208,121.352281,0.93698376
C0C480,桃園,2023-07-11,24.992425,121.323172,0.63229674
C0C490,八德,2023-07-11,24.928708,121.283289,0.59925914
C0C590,觀音,2023-07-11,25.027072,121.153317,0.611058
C0C620,蘆竹,2023-07-11,25.084275,121.265767,0.43139789
C0C630,大溪,2023-07-11,24.882853,121.265547,0.6893899
C0C650,平鎮,2023-07-11,24.897503,121.214636,0.7942946
C0C660,楊梅,2023-07-11,24.912375,121.143047,0.7559743
C0C670,龍潭,2023-07-11,24.870056,121.221389,0.8527121
C0C680,龜山,2023-07-11,25.02846,121.38656,0.8056853
C0C700,中壢,2023-07-11,24.977661,121.256375,0.6936147
C0C710,大溪永福,2023-07-11,24.892936,121.324975,0.6935439
C0C720,竹圍,2023-07-11,25.112692,121.239824,0.40860763
C0C730,中大臨海站,2023-07-11,24.966126,121.008581,0.37364656
C0C740,觀音工業區,2023-07-11,25.064764,121.114856,0.68432564
C0C750,新興坑尾,2023-07-11,25.0061,121.0971,0.74417675
C0D430,峨眉,2023-07-11,24.6905,121.017189,0.75972605
C0D480,打鐵坑,2023-07-11,24.849664,121.150789,0.9056142
C0D540,橫山,2023-07-11,24.71116,121.11693,0.86450756
C0D560,竹東,2023-07-11,24.767147,121.057881,0.72895443
C0D580,寶山,2023-07-11,24.735006,121.025192,0.8243814
C0D590,新豐,2023-07-11,24.87068,120.97721,0.5992684
C0D650,湖口,2023-07-11,24.904794,121.043628,0.4312627
C0D660,新竹市東區,2023-07-11,24.798681,120.986942,0.63318473
C0D670,海天一線,2023-07-11,24.831986,120.914438,0.7272966
C0D680,香山濕地,2023-07-11,24.783581,120.914988,0.7200399
C0D690,外湖,2023-07-11,24.917735,120.968711,0.37419683
C0D700,關西,2023-07-11,24.7977,121.1732,0.6872577
C0E420,竹南,2023-07-11,24.708978,120.888897,0.7284623
C0E430,南庄,2023-07-11,24.601775,121.000214,0.8196952
C0E520,大湖,2023-07-11,24.41494,120.87087,0.8704265
C0E540,後龍,2023-07-11,24.606489,120.783933,0.766015
C0E550,明德,2023-07-11,24.583486,120.885411,0.80758816
C0E590,通霄,2023-07-11,24.471892,120.704622,0.4344488
C0E730,頭份,2023-07-11,24.688247,120.912206,0.74006784
C0E740,造橋,2023-07-11,24.637056,120.864778,0.7327037
C0E750,苗栗,2023-07-11,24.564569,120.824575,0.77408147
C0E780,銅鑼,2023-07-11,24.489681,120.790853,0.7182295
C0E791,卓蘭,2023-07-11,24.3126,120.8244,0.92380595
C0E810,西湖,2023-07-11,24.562947,120.7485,0.7258959
C0E820,獅潭,2023-07-11,24.539133,120.920042,0.7927777
C0E830,苑裡,2023-07-11,24.439714,120.653053,0.43160146
C0E850,大河,2023-07-11,24.618069,120.948578,0.85493505
C0E870,高鐵苗栗,2023-07-11,24.60725,120.826094,0.77617717
C0E910,海埔,2023-07-11,24.648767,120.772435,0.78724396
C0E920,通霄漁港,2023-07-11,24.498589,120.673876,0.46472338
C0E930,龍鳳,2023-07-11,24.700034,120.859125,0.74382275
C0F0B0,石岡,2023-07-11,24.276061,120.777644,0.7173433
C0F850,東勢,2023-07-11,24.246428,120.833047,0.9371151
C0F930,大甲,2023-07-11,24.347667,120.640403,0.36182597
C0F970,大坑,2023-07-11,24.173142,120.722289,0.55648816
C0F9A0,中竹林,2023-07-11,24.103556,120.751061,0.81710494
C0F9I0,神岡,2023-07-11,24.272481,120.658314,0.65016884
C0F9K0,大安,2023-07-11,24.345061,120.588025,0.3445351
C0F9L0,后里,2023-07-11,24.310436,120.729725,0.79906845
C0F9M0,豐原,2023-07-11,24.254322,120.720692,0.75101894
C0F9N0,大里,2023-07-11,24.092464,120.701378,0.3169783
C0F9O0,潭子,2023-07-11,24.213106,120.703933,0.62105167
C0F9P0,清水,2023-07-11,24.312297,120.562242,0.27395394
C0F9Q0,外埔,2023-07-11,24.347817,120.705686,0.5979743
C0F9R0,龍井,2023-07-11,24.184536,120.528972,0.25367516
C0F9S0,烏日,2023-07-11,24.107058,120.624103,0.22972712
C0F9T0,西屯,2023-07-11,24.179494,120.641275,0.32134193
C0F9U0,南屯,2023-07-11,24.137006,120.637969,0.29661524
C0F9X0,大雅(中科園區),2023-07-11,24.21528,120.62445,0.40363252
C0FA10,松柏,2023-07-11,24.429115,120.617482,0.39591286
C0FA20,溫寮,2023-07-11,24.372177,120.583125,0.33717602
C0FA30,梧棲,2023-07-11,24.256003,120.523381,0.3020355
C0FA40,臺中電廠,2023-07-11,24.2146,120.4907,0.25367516
C0FA50,霧峰,2023-07-11,24.0419,120.6995,0.3926993
C0G620,芬園,2023-07-11,24.015678,120.6213,0.38954866
C0G640,鹿港,2023-07-11,24.0753,120.430481,0.19182305
C0G650,員林,2023-07-11,23.946503,120.585597,0.32940766
C0G660,溪湖,2023-07-11,23.94835,120.479122,0.25720626
C0G720,溪州,2023-07-11,23.851589,120.499093,0.18421823
C0G730,二林,2023-07-11,23.903325,120.376081,0.19433184
C0G740,大城,2023-07-11,23.852487,120.320935,0.13189746
C0G770,福興,2023-07-11,24.041289,120.437669,0.18780035
C0G780,秀水,2023-07-11,24.03405,120.503869,0.2067966
C0G800,埔鹽,2023-07-11,24.000394,120.431683,0.1875461
C0G810,埔心,2023-07-11,23.947633,120.525456,0.26377606
C0G820,田尾,2023-07-11,23.901669,120.509389,0.2789896
C0G830,埤頭,2023-07-11,23.866003,120.452806,0.18984854
C0G840,北斗,2023-07-11,23.877586,120.514222,0.2789896
C0G860,社頭,2023-07-11,23.897647,120.5862,0.35140646
C0G870,芳苑,2023-07-11,23.922303,120.320025,0.1283326
C0G880,二水,2023-07-11,23.810742,120.6173,0.29574373
C0G890,伸港,2023-07-11,24.148933,120.484403,0.20774812
C0G900,線西,2023-07-11,24.143358,120.443536,0.29399
C0G910,花壇,2023-07-11,24.032076,120.549461,0.2498679
C0G920,永靖,2023-07-11,23.924703,120.547533,0.30503476
C0G940,竹塘,2023-07-11,23.848253,120.386764,0.12271155
C0G950,防潮門,2023-07-11,24.1835,120.4871,0.24686666
C0G960,福寶,2023-07-11,24.0443,120.3814,0.20036952
C0G970,三豐,2023-07-11,23.882,120.2895,0.1283326
C0H890,埔里,2023-07-11,23.972169,120.952425,0.9369438
C0H950,中寮,2023-07-11,23.884447,120.766406,0.5622988
C0H960,草屯,2023-07-11,23.973672,120.68085,0.28636792
C0I110,竹山,2023-07-11,23.761225,120.688156,0.5997475
C0I360,水里,2023-07-11,23.812553,120.849792,0.81380785
C0I380,集集,2023-07-11,23.828206,120.801467,0.7932463
C0I410,名間,2023-07-11,23.837053,120.701447,0.4354463
C0I420,國姓,2023-07-11,24.037803,120.855072,0.8049939
C0I460,南投,2023-07-11,23.911469,120.687331,0.3517107
C0K250,崙背,2023-07-11,23.75555,120.318925,0.131187
C0K280,四湖,2023-07-11,23.630414,120.227125,0.1338409
C0K291,宜梧,2023-07-11,23.536281,120.169329,0.09546128
C0K330,虎尾,2023-07-11,23.719183,120.442036,0.1145362
C0K390,土庫,2023-07-11,23.679029,120.395574,0.10911012
C0K400,斗六,2023-07-11,23.720583,120.541127,0.18983495
C0K410,北港,2023-07-11,23.573957,120.292802,0.09159484
C0K420,西螺,2023-07-11,23.800407,120.467394,0.18872863
C0K430,褒忠,2023-07-11,23.690938,120.303634,0.12079763
C0K440,二崙,2023-07-11,23.772797,120.408944,0.118061386
C0K450,大埤,2023-07-11,23.646074,120.431537,0.11067299
C0K460,斗南,2023-07-11,23.678734,120.478359,0.15462367
C0K470,林內,2023-07-11,23.748675,120.609642,0.23401292
C0K480,莿桐,2023-07-11,23.761192,120.502372,0.17641918
C0K500,元長,2023-07-11,23.64981,120.315024,0.13227005
C0K510,水林,2023-07-11,23.572924,120.24597,0.09446836
C0K530,臺西,2023-07-11,23.701547,120.197559,0.13772243
C0K550,蔦松,2023-07-11,23.514319,120.229736,0.09167008
C0K560,棋山,2023-07-11,23.68645,120.603417,0.29713568
C0K580,高鐵雲林,2023-07-11,23.737456,120.417944,0.110789366
C0K590,雲林東勢,2023-07-11,23.674192,120.255721,0.11671836
C0K600,箔子寮,2023-07-11,23.6197,120.14,0.14887258
C0M410,馬頭山,2023-07-11,23.324361,120.582017,0.7505523
C0M520,東後寮,2023-07-11,23.369908,120.248065,0.07992708
C0M640,中埔,2023-07-11,23.42538,120.5229,0.32029095
C0M650,朴子,2023-07-11,23.43463,120.23902,0.09303888
C0M660,溪口,2023-07-11,23.604131,120.403569,0.15559343
C0M670,大林,2023-07-11,23.600616,120.45841,0.22238617
C0M680,太保,2023-07-11,23.455062,120.331455,0.09223166
C0M690,水上,2023-07-11,23.419734,120.388909,0.2216716
C0M700,竹崎,2023-07-11,23.526178,120.555508,0.38128608
C0M710,東石,2023-07-11,23.458927,120.15385,0.1352998
C0M720,番路,2023-07-11,23.464657,120.554156,0.47670192
C0M730,嘉義市東區,2023-07-11,23.457673,120.460531,0.27281475
C0M740,六腳,2023-07-11,23.492871,120.290625,0.089251705
C0M750,布袋,2023-07-11,23.380878,120.167789,0.09509673
C0M760,民雄,2023-07-11,23.551754,120.428457,0.16882701
C0M770,嘉義梅山,2023-07-11,23.585398,120.555587,0.32992133
C0M780,鹿草,2023-07-11,23.41134,120.30835,0.102376044
C0M790,新港,2023-07-11,23.553269,120.345728,0.09569522
C0M800,茶山,2023-07-11,23.299075,120.664767,0.29062626
C0M880,好美里,2023-07-11,23.3364,120.138,0.09952308
C0N010,鯤鯓國小,2023-07-11,23.1879,120.0889,0.15252578
C0N020,城西,2023-07-11,23.0568,120.0956,0.09924736
C0N030,四草,2023-07-11,23.0235,120.1116,0.09654844
C0N040,蘆竹溝,2023-07-11,23.2344,120.0961,0.110415764
C0N050,蚵寮,2023-07-11,23.301,120.1104,0.11394357
C0O810,曾文,2023-07-11,23.219681,120.497328,0.32979658
C0O830,北寮,2023-07-11,23.079561,120.495008,0.119172156
C0O840,王爺宮,2023-07-11,23.222064,120.40085,0.2579429
C0O860,大內,2023-07-11,23.11885,120.36083,0.08101203
C0O900,善化,2023-07-11,23.112883,120.297219,0.052183565
C0O930,玉井,2023-07-11,23.126042,120.46055,0.19449857
C0O950,安南,2023-07-11,23.076694,120.144861,0.061053626
C0O960,崎頂,2023-07-11,22.959547,120.369317,0.0742811
C0O970,虎頭埤,2023-07-11,23.021375,120.347878,0.08724095
C0O980,新市,2023-07-11,23.061614,120.298197,0.05419295
C0O990,媽廟,2023-07-11,22.99175,120.293525,0.053839188
C0R150,三地門,2023-07-11,22.709889,120.639944,0.05940854
C0R160,鹽埔,2023-07-11,22.739558,120.530778,0.04652777
C0R170,屏東,2023-07-11,22.660269,120.494072,0.06474599
C0R190,赤山,2023-07-11,22.592333,120.614306,0.06788592
C0R220,潮州,2023-07-11,22.534361,120.54,0.055074994
C0R240,來義,2023-07-11,22.527306,120.625111,0.05946283
C0R260,春日,2023-07-11,22.370361,120.628306,0.059307765
C0R270,琉球嶼,2023-07-11,22.332244,120.362236,0.095188245
C0R280,檳榔,2023-07-11,22.076078,120.836777,0.6929518
C0R320,車城,2023-07-11,22.0744,120.716247,0.3717511
C0R341,牡丹,2023-07-11,22.130036,120.792639,0.5227643
C0R350,貓鼻頭,2023-07-11,21.921774,120.7358,0.47507775
C0R470,高樹,2023-07-11,22.826389,120.600806,0.057798065
C0R480,長治,2023-07-11,22.693128,120.542622,0.056250162
C0R490,九如,2023-07-11,22.7405,120.490503,0.06596926
C0R520,崁頂,2023-07-11,22.514781,120.506914,0.074717626
C0R540,佳冬,2023-07-11,22.419456,120.552375,0.105145
C0R550,新埤,2023-07-11,22.467947,120.582894,0.05708658
C0R560,新園,2023-07-11,22.5434,120.461558,0.069417216
C0R570,麟洛,2023-07-11,22.65078,120.52719,0.06599847
C0R580,南州,2023-07-11,22.48591,120.50274,0.07353391
C0R590,里港,2023-07-11,22.77919,120.49459,0.046617024
C0R620,墾雷,2023-07-11,21.900836,120.855269,0.48275286
C0R640,東港,2023-07-11,22.46247,120.44074,0.08926406
C0R650,竹田,2023-07-11,22.58486,120.54344,0.052920766
C0R660,枋寮,2023-07-11,22.367722,120.590647,0.070202984
C0R670,楓港,2023-07-11,22.190131,120.692156,0.6402215
C0R680,佳樂水,2023-07-11,21.993578,120.861633,0.4180762
C0R690,墾丁,2023-07-11,21.966756,120.810269,0.775575
C0R700,枋山,2023-07-11,22.246844,120.661086,0.10942342
C0R710,龍磐,2023-07-11,21.931672,120.838942,0.73278123
C0R720,旭海,2023-07-11,22.205403,120.887614,0.8402886
C0R730,大坪頂,2023-07-11,22.024633,120.69355,0.7772322
C0R740,獅子,2023-07-11,22.201569,120.70525,0.7467299
C0R760,南仁湖,2023-07-11,22.084681,120.863353,0.9001916
C0R770,保力,2023-07-11,22.071122,120.764111,0.6214813
C0R780,滿州,2023-07-11,22.024403,120.839892,0.504845
C0R790,九棚,2023-07-11,22.14195,120.889281,0.80306244
C0R800,丹路,2023-07-11,22.204481,120.750989,0.28680563
C0R810,內獅,2023-07-11,22.305064,120.642986,0.08825835
C0R830,高士,2023-07-11,22.121825,120.836781,0.9426606
C0R850,林邊,2023-07-11,22.4634,120.5339,0.085289076
C0R860,鼻頭,2023-07-11,22.1043,120.8979,0.6090927
C0R870,興海,2023-07-11,21.9752,120.8439,0.41807568
C0R880,後壁湖,2023-07-11,21.9457,120.7457,0.34879
C0R890,山海,2023-07-11,21.9878,120.7091,0.36462754
C0R900,竹坑,2023-07-11,22.1385,120.7022,0.3902908
C0R910,下寮,2023-07-11,22.3929,120.5548,0.105145
C0R920,塭仔,2023-07-11,22.4169,120.5197,0.1259061
C0R930,萬丹,2023-07-11,22.5885,120.4851,0.04765417
C0R940,加祿堂,2023-07-11,22.3363,120.6217,0.05234655
C0S710,鹿野,2023-07-11,22.917711,121.122994,0.2432063
C0S730,綠島,2023-07-11,22.6672,121.47533,0.11171325
C0S740,池上,2023-07-11,23.119628,121.209469,0.20419958
C0S770,大溪山,2023-07-11,22.478475,120.943325,0.9363841
C0S790,金崙,2023-07-11,22.538122,120.966875,0.85487974
C0S810,東河,2023-07-11,22.972672,121.303986,0.1096081
C0S830,長濱,2023-07-11,23.286817,121.411975,0.26265085
C0S840,南田,2023-07-11,22.279725,120.889208,0.49602315
C0S890,關山,2023-07-11,23.0395,121.175017,0.11526897
C0S900,蘭嶼高中,2023-07-11,22.04909,121.51214,0.97025496
C0S910,蘭嶼燈塔,2023-07-11,22.081197,121.503117,0.98766994
C0S920,金峰嘉蘭,2023-07-11,22.594789,120.960825,0.7893962
C0S930,延平,2023-07-11,22.902581,121.084058,0.3021274
C0S940,石寧山,2023-07-11,23.223772,121.406639,0.14983238
C0S950,七塊厝,2023-07-11,22.954453,121.229922,0.34212533
C0S960,香蘭,2023-07-11,22.587569,120.993375,0.07959351
C0S970,加津林,2023-07-11,22.416211,120.926942,0.113057286
C0S990,山豬窟,2023-07-11,22.318619,120.857372,0.9307173
C0SA00,歷坵,2023-07-11,22.520969,120.89185,0.9621845
C0SA10,檳榔四格山,2023-07-11,22.810031,121.109308,0.1612346
C0SA30,都歷,2023-07-11,23.020333,121.323642,0.09089441
C0SA40,瑞和,2023-07-11,22.974361,121.156697,0.08633752
C0SA60,知本（水試所）,2023-07-11,22.702394,121.082761,0.06604303
C0SA80,土坂,2023-07-11,22.453108,120.887572,0.7080908
C0SA90,達仁林場,2023-07-11,22.264347,120.823972,0.9774276
C0T870,鯉魚潭,2023-07-11,23.935639,121.508944,0.9458806
C0T900,西林,2023-07-11,23.8119,121.441458,0.95402217
C0T960,光復,2023-07-11,23.660694,121.424964,0.4927274
C0T9A0,月眉山,2023-07-11,23.809928,121.539828,0.9874372
C0T9D0,和中,2023-07-11,24.26676,121.74103,0.070088185
C0T9E0,大坑,2023-07-11,23.880628,121.581981,0.94881856
C0T9F0,水璉,2023-07-11,23.797131,121.542514,0.9255584
C0T9I0,豐濱,2023-07-11,23.583897,121.514806,0.4990606
C0T9M0,靜浦,2023-07-11,23.455167,121.495028,0.5364637
C0T9N0,富里,2023-07-11,23.171639,121.249378,0.33347774
C0U600,礁溪,2023-07-11,24.817539,121.765608,0.09006046
C0U650,玉蘭,2023-07-11,24.675286,121.587061,0.9833689
C0U750,龜山島,2023-07-11,24.841667,121.953133,0.08671417
C0U760,東澳,2023-07-11,24.52196,121.83318,0.05446977
C0U770,南澳,2023-07-11,24.44935,121.81022,0.05094542
C0U780,五結,2023-07-11,24.68637,121.79794,0.07236129
C0U860,頭城,2023-07-11,24.85323,121.8308,0.10183011
C0U870,大礁溪,2023-07-11,24.791042,121.675047,0.49456173
C0U880,北關,2023-07-11,24.9072,121.8734,0.3488188
C0U890,三星,2023-07-11,24.66812,121.65302,0.099153146
C0U900,內城,2023-07-11,24.71813,121.68766,0.08931086
C0U910,冬山,2023-07-11,24.63373,121.7937,0.073612966
C0U940,羅東,2023-07-11,24.68184,121.74934,0.07196422
C0U970,大福,2023-07-11,24.80064,121.81389,0.10072052
C0U990,員山,2023-07-11,24.74435,121.72247,0.07612352
C0UA00,土場,2023-07-11,24.576533,121.495333,0.96923393
C0UA80,大溪漁港,2023-07-11,24.941801,121.902955,0.08661965
C0UA90,石城,2023-07-11,24.980444,121.951214,0.07072634
C0UB00,淡江大學蘭陽校園,2023-07-11,24.823239,121.730383,0.16974315
C0UB10,蘇澳,2023-07-11,24.5969,121.8571,0.04629644
C0UB20,壯圍,2023-07-11,24.7359,121.8163,0.07459065
C0V250,甲仙,2023-07-11,23.080106,120.591758,0.54586107
C0V260,月眉,2023-07-11,22.971003,120.539853,0.12365544
C0V310,美濃,2023-07-11,22.898742,120.519153,0.16243786
C0V350,溪埔,2023-07-11,22.738578,120.446797,0.054448508
C0V360,內門,2023-07-11,22.975481,120.466769,0.1795788
C0V370,古亭坑,2023-07-11,22.893178,120.401947,0.118480615
C0V400,阿公店,2023-07-11,22.804194,120.355528,0.052430805
C0V440,鳳山,2023-07-11,22.646653,120.356122,0.0579162
C0V450,鳳森,2023-07-11,22.545064,120.392592,0.047453422
C0V490,新興,2023-07-11,22.627422,120.298803,0.056824032
C0V530,阿蓮,2023-07-11,22.883208,120.327508,0.049788922
C0V610,梓官,2023-07-11,22.760558,120.267211,0.051678676
C0V620,永安,2023-07-11,22.82315,120.236856,0.04139959
C0V630,茄萣,2023-07-11,22.906642,120.182608,0.051951095
C0V640,湖內,2023-07-11,22.887139,120.2445,0.047538225
C0V650,彌陀,2023-07-11,22.783806,120.246361,0.04139959
C0V660,岡山,2023-07-11,22.797078,120.294958,0.042530376
C0V680,仁武,2023-07-11,22.701083,120.347722,0.04932548
C0V690,鼓山,2023-07-11,22.623325,120.275575,0.13287888
C0V700,三民,2023-07-11,22.645017,120.311233,0.056824032
C0V710,苓雅,2023-07-11,22.622742,120.330669,0.06626669
C0V720,林園,2023-07-11,22.507747,120.394511,0.086123064
C0V730,大寮,2023-07-11,22.605614,120.395717,0.040020477
C0V740,旗山,2023-07-11,22.888614,120.483597,0.166866
C0V750,路竹,2023-07-11,22.854997,120.259439,0.038524143
C0V760,橋頭,2023-07-11,22.757806,120.30575,0.043800928
C0V770,大社,2023-07-11,22.730306,120.346639,0.04968022
C0V790,萬山,2023-07-11,22.905944,120.688056,0.7239912
C0V800,六龜,2023-07-11,22.997889,120.633583,0.40187603
C0V810,左營,2023-07-11,22.67491,120.28491,0.0484849
C0V820,小林,2023-07-11,23.148408,120.63325,0.7222381
C0V840,鳳鼻頭,2023-07-11,22.5083,120.3591,0.08397429
C0V850,蚵仔寮,2023-07-11,22.7256,120.2527,0.05676504
C0V860,南寮,2023-07-11,22.7616,120.2339,0.045860153
C0V870,文安,2023-07-11,22.8025,120.2164,0.055649165
C0V880,興達,2023-07-11,22.8778,120.2127,0.05195112
C0V890,前鎮,2023-07-11,22.5718,120.3117,0.08535106
C0V900,汕尾,2023-07-11,22.4782,120.4151,0.07068787
C0X050,東河,2023-07-11,23.296598,120.385608,0.15081295
C0X060,下營,2023-07-11,23.22695,120.256261,0.08183356
C0X080,佳里,2023-07-11,23.173039,120.145086,0.088458665
C0X100,臺南市北區,2023-07-11,23.010394,120.194228,0.053565763
C0X110,臺南市南區,2023-07-11,22.961189,120.188378,0.053323418
C0X120,麻豆,2023-07-11,23.183289,120.248611,0.08918664
C0X130,官田,2023-07-11,23.193217,120.315422,0.08885521
C0X140,西港,2023-07-11,23.125608,120.203108,0.08072086
C0X150,安定,2023-07-11,23.102614,120.227839,0.054235518
C0X160,仁德,2023-07-11,22.968258,120.257689,0.050545067
C0X170,關廟,2023-07-11,22.963017,120.327797,0.057408433
C0X180,山上,2023-07-11,23.0757,120.363253,0.1377563
C0X190,安平,2023-07-11,22.993161,120.152181,0.06643551
C0X200,左鎮,2023-07-11,23.056758,120.408522,0.13523127
C0X210,白河,2023-07-11,23.347466,120.414427,0.174729
C0X220,學甲,2023-07-11,23.230367,120.182187,0.0856126
C0X230,鹽水,2023-07-11,23.272621,120.247641,0.08705177
C0X240,關子嶺,2023-07-11,23.331169,120.508025,0.78274107
C0X250,新營,2023-07-11,23.310689,120.316681,0.08320229
C0X260,後壁,2023-07-11,23.366358,120.362326,0.12675892
C0X280,將軍,2023-07-11,23.214999,120.13577,0.0870871
C0X290,北門,2023-07-11,23.267772,120.125481,0.090891376
C0X300,鹿寮,2023-07-11,23.386047,120.477331,0.21027747
C0X310,七股,2023-07-11,23.147289,120.086253,0.15195116
C0X320,柳營,2023-07-11,23.253328,120.375253,0.15098749
C0Z020,明里,2023-07-11,23.208717,121.262342,0.20601319
C0Z061,玉里,2023-07-11,23.3215,121.339656,0.09818041
C0Z070,舞鶴,2023-07-11,23.46811,121.37407,0.7908373
C0Z080,富源,2023-07-11,23.587642,121.378225,0.93198735
C0Z100,東華,2023-07-11,23.89525,121.549833,0.4301939
C0Z150,吉安光華,2023-07-11,23.930925,121.595153,0.4399628
C0Z160,鳳林,2023-07-11,23.746114,121.453411,0.76379967
C0Z170,卓溪,2023-07-11,23.3443,121.3029,0.12435836
C0Z180,新城,2023-07-11,24.03946,121.60454,0.6633146
C0Z190,富世,2023-07-11,24.14743,121.6297,0.8445476
C0Z200,萬榮,2023-07-11,23.709219,121.420106,0.5110098
C0Z210,瑞穗,2023-07-11,23.5239,121.39021,0.62965786
C0Z230,和平,2023-07-11,24.30717,121.77007,0.15073648
C0Z270,蕃薯寮,2023-07-11,23.73835,121.540108,0.6716213
C0Z280,德武,2023-07-11,23.47426,121.41071,0.77955276
C0Z300,東里,2023-07-11,23.26853,121.30547,0.0984206
C0Z310,清水斷崖,2023-07-11,24.218294,121.689142,0.12850387
C0Z330,安通山,2023-07-11,23.290728,121.348528,0.2887604
