站號,站名,日期,lat,lon,BLBTSLS
C0R710,龍磐,2023-03-02,21.931672,120.838942,0.41636407
C1F9D1,白毛台,2023-03-02,24.158325,120.886933,4.1418924e-10
C0G940,竹塘,2023-03-02,23.848253,120.386764,1.0522139e-06
467590,恆春,2023-03-02,22.003897,120.746339,0.8161401
C1O850,環湖,2023-03-02,23.148617,120.418633,5.654936e-05
C0U710,太平山,2023-03-02,24.505486,121.525656,4.013966e-08
C0E820,獅潭,2023-03-02,24.539133,120.920042,2.6294375e-08
C0V880,興達,2023-03-02,22.8778,120.2127,3.0318372e-08
C0S890,關山,2023-03-02,23.0395,121.175017,2.5055344e-09
K2F750,種苗繁殖,2023-03-02,24.225972,120.800917,5.304173e-10
C1Z130,銅門,2023-03-02,23.965694,121.492842,9.273374e-09
C0AD40,土城,2023-03-02,24.973208,121.445169,1.7041557e-07
CAN140,六官養殖協會,2023-03-02,23.22881,120.29962,1.0393077e-06
C0X180,山上,2023-03-02,23.0757,120.363253,0.0006158715
C0F9Z0,雪山東峰,2023-03-02,24.388792,121.268675,9.567214e-09
C1M480,獨立山,2023-03-02,23.537022,120.607797,6.4371264e-10
C0X220,學甲,2023-03-02,23.230367,120.182187,1.10900615e-07
C0R170,屏東,2023-03-02,22.660269,120.494072,1.16056e-08
467650,日月潭,2023-03-02,23.881325,120.90805,2.1278599e-09
C0K600,箔子寮,2023-03-02,23.6197,120.14,0.015741616
C0G830,埤頭,2023-03-02,23.866003,120.452806,6.224593e-08
C0S950,七塊厝,2023-03-02,22.954453,121.229922,2.5299487e-09
467110,金門,2023-03-02,24.407306,118.289281,2.327926e-06
C0AH80,深坑,2023-03-02,25.002703,121.628328,1.4912298e-07
467990,馬祖,2023-03-02,26.169269,119.923419,3.0485048e-06
C0A970,三貂角,2023-03-02,25.007606,122.002058,6.1752814e-08
C0K430,褒忠,2023-03-02,23.690938,120.303634,1.7912359e-07
467480,嘉義,2023-03-02,23.495925,120.432906,2.2993957e-07
C2E540,後龍,2023-03-02,24.606489,120.783933,0.98929673
C0V400,阿公店,2023-03-02,22.804194,120.355528,6.717898e-08
C0R440,大漢山,2023-03-02,22.405264,120.753181,2.4287774e-08
C0K280,四湖,2023-03-02,23.630414,120.227125,0.045737248
C1F9B1,桐林,2023-03-02,24.066172,120.735194,1.1768586e-09
C0K390,土庫,2023-03-02,23.679029,120.395574,3.6375525e-08
C1I450,望鄉山,2023-03-02,23.594153,120.944286,9.168431e-09
C0E910,海埔,2023-03-02,24.648767,120.772435,0.99114525
B2E890,畜試北區分所,2023-03-02,24.527806,120.770972,4.9266566e-07
C0R750,四林格山,2023-03-02,22.076989,120.802439,0.9841878
C0F0C0,中坑,2023-03-02,24.248517,120.903319,9.569435e-10
C1I121,大鞍,2023-03-02,23.678381,120.760017,5.867661e-09
72U480,花改蘭陽分場,2023-03-02,24.686306,121.716583,4.6696296e-09
C0A770,科教館,2023-03-02,25.096356,121.516507,8.626495e-08
C0AJ60,六塊厝,2023-03-02,25.24,121.4481,0.00024208854
C0R620,墾雷,2023-03-02,21.900836,120.855269,0.9341044
467420,永康,2023-03-02,23.038386,120.2367,2.61561e-07
467300,東吉島,2023-03-02,23.25695,119.667467,0.97836894
C0I410,名間,2023-03-02,23.837053,120.701447,1.5668112e-09
A2C560,農工中心,2023-03-02,24.985917,121.239833,1.06210255e-05
C0V740,旗山,2023-03-02,22.888614,120.483597,3.9784e-09
C0Z061,玉里,2023-03-02,23.3215,121.339656,1.7458451e-09
C0S840,南田,2023-03-02,22.279725,120.889208,0.98771757
C1I470,杉林溪,2023-03-02,23.639517,120.786444,7.0193096e-09
C1X040,東原,2023-03-02,23.291597,120.463822,2.4889304e-09
C0R660,枋寮,2023-03-02,22.367722,120.590647,0.94772285
C1R120,上德文,2023-03-02,22.763272,120.704442,1.4251185e-09
C0K450,大埤,2023-03-02,23.646074,120.431537,7.809295e-08
C0UA00,土場,2023-03-02,24.576533,121.495333,3.524991e-08
467080,宜蘭,2023-03-02,24.763975,121.756528,8.119836e-09
C0N030,四草,2023-03-02,23.0235,120.1116,7.9022676e-08
C0V650,彌陀,2023-03-02,22.783806,120.246361,4.538618e-08
C0D660,新竹市東區,2023-03-02,24.798681,120.986942,0.9984376
82S580,茶改東部分場,2023-03-02,22.907694,121.130139,7.034517e-06
C0C710,大溪永福,2023-03-02,24.892936,121.324975,2.5596732e-06
C0FA20,溫寮,2023-03-02,24.372177,120.583125,0.6313106
C0V640,湖內,2023-03-02,22.887139,120.2445,2.7439413e-08
C0R910,下寮,2023-03-02,22.3929,120.5548,0.94772285
C0Z020,明里,2023-03-02,23.208717,121.262342,2.3333266e-09
C0M770,嘉義梅山,2023-03-02,23.585398,120.555587,2.0050614e-08
G2F820,農業試驗所,2023-03-02,24.031261,120.688133,2.9287357e-09
C0C660,楊梅,2023-03-02,24.912375,121.143047,2.3116912e-05
C1E511,新開,2023-03-02,24.347703,120.827019,2.3906153e-09
G2F820,農試所(霧峰),2023-03-02,24.031261,120.688133,2.9287357e-09
C1I070,和社,2023-03-02,23.591131,120.888861,1.869478e-09
C2F000,大肚,2023-03-02,24.15295,120.572117,1.0919721e-09
C1S850,豐南,2023-03-02,23.122139,121.262389,1.688939e-09
C2A920,富貴角,2023-03-02,25.263783,121.565258,9.1319025e-06
CAH030,茶改場竹圍站,2023-03-02,23.860083,120.637528,4.4611892e-10
C0T960,光復,2023-03-02,23.660694,121.424964,2.2342348e-07
C0F9M0,豐原,2023-03-02,24.254322,120.720692,2.2412736e-09
C0R720,旭海,2023-03-02,22.205403,120.887614,0.99943435
C0V710,苓雅,2023-03-02,22.622742,120.330669,7.4391e-08
C0C740,觀音工業區,2023-03-02,25.064764,121.114856,0.99851143
CAC040,拉拉山,2023-03-02,24.699317,121.427133,9.1589264e-08
C0V790,萬山,2023-03-02,22.905944,120.688056,3.575216e-10
U2HA30,臺大和社,2023-03-02,23.590856,120.888864,1.869478e-09
C0AJ90,澳底,2023-03-02,25.0552,121.9253,1.499966e-07
C0Z100,東華,2023-03-02,23.89525,121.549833,1.0874042e-08
C0G970,三豐,2023-03-02,23.882,120.2895,0.4759072
V2K610,大庄合作社,2023-03-02,23.8068,120.367939,2.1890972e-07
C0V900,汕尾,2023-03-02,22.4782,120.4151,4.947184e-10
C1R630,龍泉,2023-03-02,22.66701,120.59091,2.351228e-09
C1AC50,關渡,2023-03-02,25.133486,121.469331,1.4344587e-07
C0F9I0,神岡,2023-03-02,24.272481,120.658314,2.7016375e-08
C0K460,斗南,2023-03-02,23.678734,120.478359,7.769434e-08
467410,臺南,2023-03-02,22.993239,120.204772,6.2783926e-08
C2O810,曾文,2023-03-02,23.219681,120.497328,5.26739e-08
467280,後龍,2023-03-02,24.648563,120.831834,0.98435956
C1F9J1,清水林,2023-03-02,24.071242,120.820419,5.3127797e-10
C2A650,火燒寮,2023-03-02,25.002719,121.742892,4.66826e-08
466930,竹子湖,2023-03-02,25.162078,121.544547,6.016718e-08
C1I220,樟湖,2023-03-02,23.905333,120.846983,1.6864217e-09
C0I390,仁愛,2023-03-02,24.022122,121.132206,7.910479e-10
C0Z300,東里,2023-03-02,23.26853,121.30547,2.1777224e-09
C0V310,美濃,2023-03-02,22.898742,120.519153,4.403007e-09
C1V590,新發,2023-03-02,23.057019,120.646064,8.8069363e-10
C0K510,水林,2023-03-02,23.572924,120.24597,9.54222e-07
72S590,東改賓朗果園,2023-03-02,22.813889,121.071278,0.022112945
82A750,茶改北部分場,2023-03-02,24.955778,121.631222,1.12575414e-07
C1A750,石碇服務區,2023-03-02,25.00872,121.646242,1.85276e-07
C0X300,鹿寮,2023-03-02,23.386047,120.477331,4.8688366e-07
G2AI50,關渡,2023-03-02,25.11575,121.492,3.7361583e-06
C0K590,雲林東勢,2023-03-02,23.674192,120.255721,4.0110544e-07
C0A570,桶後,2023-03-02,24.848222,121.597992,2.075198e-08
C1S800,華源,2023-03-02,22.657883,121.02325,5.6484954e-09
C0G720,溪州,2023-03-02,23.851589,120.499093,5.990907e-08
C1V160,達卡努瓦,2023-03-02,23.279811,120.705319,2.1814763e-09
C2M410,馬頭山,2023-03-02,23.324361,120.582017,1.546267e-09
C0V850,蚵仔寮,2023-03-02,22.7256,120.2527,3.2001946e-08
C0S740,池上,2023-03-02,23.119628,121.209469,2.067632e-08
C1V390,尖山,2023-03-02,22.813153,120.367789,4.0871274e-08
C0AH70,松山,2023-03-02,25.04871,121.55042,8.468167e-08
C0N010,鯤鯓國小,2023-03-02,23.1879,120.0889,4.2131287e-08
C0R550,新埤,2023-03-02,22.467947,120.582894,4.840138e-10
C0SA60,知本（水試所）,2023-03-02,22.702394,121.082761,7.2081154e-09
C0T9I0,豐濱,2023-03-02,23.583897,121.514806,6.327354e-09
C0UB00,淡江大學蘭陽校園,2023-03-02,24.823239,121.730383,2.0693442e-08
C0T9N0,富里,2023-03-02,23.171639,121.249378,1.9973891e-08
U2HA50,臺大竹山,2023-03-02,23.756972,120.681556,2.1542208e-08
C0V840,鳳鼻頭,2023-03-02,22.5083,120.3591,9.1690905e-10
C0X140,西港,2023-03-02,23.125608,120.203108,1.4175575e-07
72D080,桃改五峰分場,2023-03-02,24.612194,121.157167,8.785265e-09
C0V530,阿蓮,2023-03-02,22.883208,120.327508,1.0797514e-07
C1O880,關山,2023-03-02,23.173397,120.594092,1.285252e-09
C0E791,卓蘭,2023-03-02,24.3126,120.8244,2.005244e-09
C1I030,武界,2023-03-02,23.913225,121.052483,1.1061301e-09
C0R520,崁頂,2023-03-02,22.514781,120.506914,1.1685224e-09
C0R341,牡丹,2023-03-02,22.130036,120.792639,0.9997663
C0R930,萬丹,2023-03-02,22.5885,120.4851,6.188614e-09
C0S760,紅石,2023-03-02,23.069131,121.126219,1.375628e-08
C1M610,石磐龍,2023-03-02,23.496606,120.663506,1.6304943e-09
C0UA10,鴛鴦湖,2023-03-02,24.590269,121.412228,1.9053404e-08
V2C260,八德蔬果,2023-03-02,24.978508,121.281819,5.5271727e-07
C0R800,丹路,2023-03-02,22.204481,120.750989,0.99858147
C0G920,永靖,2023-03-02,23.924703,120.547533,5.1387314e-08
C1A630,下盆,2023-03-02,24.771003,121.538622,1.6102641e-08
B2N890,畜產試驗所,2023-03-02,23.058972,120.336406,3.340541e-07
C0UA30,白嶺,2023-03-02,24.527819,121.519031,2.9216347e-08
C1V580,溪南(特生中心),2023-03-02,23.084972,120.788475,3.6655416e-09
C1T970,大農,2023-03-02,23.615233,121.413331,5.351265e-09
E2S960,林試太麻里2,2023-03-02,22.598014,120.989761,1.995257e-08
C0R650,竹田,2023-03-02,22.58486,120.54344,1.6146859e-09
C1H900,清流,2023-03-02,24.080775,120.962997,6.410575e-10
C1C510,水尾,2023-03-02,24.940081,121.087161,0.3804397
C0F9X0,大雅(中科園區),2023-03-02,24.21528,120.62445,1.5789531e-08
C0O970,虎頭埤,2023-03-02,23.021375,120.347878,5.716112e-06
C0C730,中大臨海站,2023-03-02,24.966126,121.008581,0.93321246
C0X250,新營,2023-03-02,23.310689,120.316681,6.863592e-07
C0V700,三民,2023-03-02,22.645017,120.311233,7.3217103e-09
C0U870,大礁溪,2023-03-02,24.791042,121.675047,1.5606174e-08
C0E870,高鐵苗栗,2023-03-02,24.60725,120.826094,0.9883364
A2K570,古坑花卉中心,2023-03-02,23.63353,120.55239,3.5801467e-08
C0M860,新美,2023-03-02,23.338017,120.683169,6.7959005e-10
C1E701,八卦,2023-03-02,24.491756,120.927619,6.1260184e-09
C0I420,國姓,2023-03-02,24.037803,120.855072,8.068823e-10
C0S960,香蘭,2023-03-02,22.587569,120.993375,1.995257e-08
C0R260,春日,2023-03-02,22.370361,120.628306,0.83283484
72G600,臺中農改場,2023-03-02,24.003028,120.534389,6.09223e-08
C0Z210,瑞穗,2023-03-02,23.5239,121.39021,3.2674963e-09
C0M820,達邦,2023-03-02,23.453994,120.749517,1.508749e-09
C0V860,南寮,2023-03-02,22.7616,120.2339,3.2001946e-08
C0G740,大城,2023-03-02,23.852487,120.320935,0.45405516
C0R920,塭仔,2023-03-02,22.4169,120.5197,0.95074683
C0R470,高樹,2023-03-02,22.826389,120.600806,6.5720074e-09
C0R680,佳樂水,2023-03-02,21.993578,120.861633,0.89833
C1O870,大棟山,2023-03-02,23.31157,120.52226,1.5760999e-09
C0D360,梅花,2023-03-02,24.678347,121.208558,3.4047964e-08
C0Z190,富世,2023-03-02,24.14743,121.6297,1.8475073e-07
C0AI10,屈尺,2023-03-02,24.92184,121.54475,1.5957252e-06
B2U990,畜試東區分所,2023-03-02,24.669039,121.832561,7.825664e-09
C0R240,來義,2023-03-02,22.527306,120.625111,9.736015e-10
C1R610,西大武山,2023-03-02,22.617719,120.7322,2.333617e-08
C0G900,線西,2023-03-02,24.143358,120.443536,0.0005261889
C0M700,竹崎,2023-03-02,23.526178,120.555508,8.4805485e-08
C2E880,三義,2023-03-02,24.405478,120.749819,3.6250902e-09
C0C720,竹圍,2023-03-02,25.112692,121.239824,3.7361583e-06
C0F9P0,清水,2023-03-02,24.312297,120.562242,0.015020186
C0Z150,吉安光華,2023-03-02,23.930925,121.595153,2.5634218e-08
C1D640,外坪(五指山),2023-03-02,24.644447,121.090961,6.719881e-09
C0F9O0,潭子,2023-03-02,24.213106,120.703933,1.88723e-09
72T250,花蓮農改場,2023-03-02,23.975222,121.563889,2.6464673e-07
C0E780,銅鑼,2023-03-02,24.489681,120.790853,2.2052778e-07
C1T950,太安,2023-03-02,23.666719,121.370128,2.2272415e-08
C0E830,苑裡,2023-03-02,24.439714,120.653053,0.9284996
467270,田中,2023-03-02,23.873803,120.581286,1.5133185e-07
C0SA10,檳榔四格山,2023-03-02,22.810031,121.109308,0.000565533
C1T830,布洛灣,2023-03-02,24.17184,121.57127,1.06687645e-08
C0F970,大坑,2023-03-02,24.173142,120.722289,1.4029464e-09
C1U920,思源,2023-03-02,24.393125,121.347214,1.9901865e-08
C0A931,三和,2023-03-02,25.233153,121.595236,4.511814e-07
C0I010,廬山,2023-03-02,24.033311,121.181808,1.488472e-09
C0R860,鼻頭,2023-03-02,22.1043,120.8979,0.98353434
C0UB20,壯圍,2023-03-02,24.7359,121.8163,4.567996e-09
C0R790,九棚,2023-03-02,22.14195,120.889281,0.9993258
C0W110,東莒,2023-03-02,25.9652,119.98069,6.3251464e-06
C1U930,粉鳥林,2023-03-02,24.497088,121.842479,9.534223e-09
C1I211,蘆竹湳,2023-03-02,23.934019,120.811994,5.2683596e-10
C0S830,長濱,2023-03-02,23.286817,121.411975,2.0118487e-09
C1F9F1,伯公龍,2023-03-02,24.272392,120.849047,6.45488e-10
C0E810,西湖,2023-03-02,24.562947,120.7485,0.99756134
C1I440,新高口,2023-03-02,23.478744,120.878939,3.3243308e-09
C0O840,王爺宮,2023-03-02,23.222064,120.40085,1.1079744e-07
C0T9G0,鳳林山,2023-03-02,23.735269,121.420131,3.3194583e-09
C0X080,佳里,2023-03-02,23.173039,120.145086,4.2131287e-08
C0Z310,清水斷崖,2023-03-02,24.218294,121.689142,1.851403e-08
C0M680,太保,2023-03-02,23.455062,120.331455,3.383595e-07
C1S820,金峰,2023-03-02,22.590969,120.933236,1.0530361e-08
C0AD10,八里,2023-03-02,25.150211,121.403947,3.7361583e-06
C2K240,草嶺,2023-03-02,23.59555,120.693461,2.0379605e-09
C1SA70,都蘭,2023-03-02,22.87794,121.226881,0.019103449
C0K440,二崙,2023-03-02,23.772797,120.408944,3.164957e-08
C1A760,坪林交控,2023-03-02,24.94284,121.713442,3.5175294e-08
C0F9N0,大里,2023-03-02,24.092464,120.701378,1.4748787e-09
C0SA90,達仁林場,2023-03-02,22.264347,120.823972,0.99917686
C1R290,石門山,2023-03-02,22.112611,120.756597,0.9998842
42HA10,萬大發電廠,2023-03-02,23.978875,121.139639,1.0963128e-09
C0R890,山海,2023-03-02,21.9878,120.7091,0.81495965
C0T9A0,月眉山,2023-03-02,23.809928,121.539828,4.274106e-09
C0AC70,信義,2023-03-02,25.037822,121.564597,8.468151e-08
C0K560,棋山,2023-03-02,23.68645,120.603417,2.7629422e-08
C1Z240,中平林道,2023-03-02,23.42115,121.26763,2.6987637e-08
U2H480,溪頭,2023-03-02,23.670306,120.798194,2.7358764e-09
C0M880,好美里,2023-03-02,23.3364,120.138,4.6291453e-07
C0T9E0,大坑,2023-03-02,23.880628,121.581981,5.2639226e-09
C0K530,臺西,2023-03-02,23.701547,120.197559,0.13262841
C1E900,國一N128K,2023-03-02,24.560997,120.844186,1.4044932e-05
C0AJ50,水湳洞,2023-03-02,25.123695,121.862238,1.3332926e-06
C0AI20,白沙灣,2023-03-02,25.283128,121.519058,0.00016543195
C0A860,大坪,2023-03-02,25.165914,121.632969,7.477394e-08
C1U850,觀音海岸,2023-03-02,24.38319,121.77856,3.788736e-09
C0U950,鶯子嶺,2023-03-02,24.89754,121.79244,4.5400206e-08
C0O900,善化,2023-03-02,23.112883,120.297219,5.14758e-07
C0K550,蔦松,2023-03-02,23.514319,120.229736,5.3608123e-06
E2P980,林試六龜中心,2023-03-02,22.991703,120.645722,3.6416445e-10
C0E590,通霄,2023-03-02,24.471892,120.704622,0.9960973
C1I310,西巒,2023-03-02,23.754486,120.883956,2.548391e-09
C0A550,泰平,2023-03-02,24.971197,121.823711,1.0188582e-07
C0I360,水里,2023-03-02,23.812553,120.849792,5.70239e-10
C0R830,高士,2023-03-02,22.121825,120.836781,0.99984676
C1I101,溪頭,2023-03-02,23.661789,120.807647,4.974228e-09
C0AJ20,野柳,2023-03-02,25.20703,121.690021,1.3579994e-06
C0B060,暖暖,2023-03-02,25.0957,121.7403,2.24076e-07
C1H920,長豐,2023-03-02,24.102039,120.879897,4.921247e-10
C0V360,內門,2023-03-02,22.975481,120.466769,3.2151814e-07
C0R850,林邊,2023-03-02,22.4634,120.5339,4.9299553e-10
C0E930,龍鳳,2023-03-02,24.700034,120.859125,0.9990024
C0U910,冬山,2023-03-02,24.63373,121.7937,7.825664e-09
C1E721,泰安,2023-03-02,24.489017,120.968036,4.8157007e-09
82H320,茶改中部分場,2023-03-02,23.875611,120.913583,1.7168387e-09
C0M750,布袋,2023-03-02,23.380878,120.167789,5.6496833e-07
C1S860,利嘉,2023-03-02,22.809417,121.050528,3.812869e-09
72C440,桃園農改,2023-03-02,24.950944,121.030583,0.9027108
E2S980,林試太麻里1,2023-03-02,22.598922,120.980044,1.4650663e-08
C0X170,關廟,2023-03-02,22.963017,120.327797,4.0795967e-07
C0V720,林園,2023-03-02,22.507747,120.394511,8.911107e-10
C1I510,線浸林道,2023-03-02,23.761508,120.832956,3.7552312e-09
C0D690,外湖,2023-03-02,24.917735,120.968711,0.98132277
C0C750,新興坑尾,2023-03-02,25.0061,121.0971,0.5169586
B2Q810,畜試南區分所,2023-03-02,21.945583,120.802167,0.90100574
C0S790,金崙,2023-03-02,22.538122,120.966875,6.9964024e-08
C0AH90,福山植物園,2023-03-02,24.760717,121.58135,6.6562045e-08
C0I540,奇萊稜線,2023-03-02,24.109231,121.326456,2.114703e-08
C0M850,表湖,2023-03-02,23.24186,120.64166,1.0002549e-09
C0S770,大溪山,2023-03-02,22.478475,120.943325,6.713318e-07
C0AG80,中和,2023-03-02,24.991622,121.491792,1.7041557e-07
C0T790,大禹嶺,2023-03-02,24.186117,121.316086,7.438642e-09
C0T9B0,水源,2023-03-02,23.991861,121.537169,7.612401e-09
C0R840,牡丹池山,2023-03-02,22.168389,120.841225,0.998184
C1I131,桶頭,2023-03-02,23.641944,120.654117,4.1791597e-09
CAL110,布袋國中,2023-03-02,23.35893,120.18026,5.6496833e-07
467571,新竹,2023-03-02,24.827853,121.014219,0.9980871
C0Z290,赤柯山,2023-03-02,23.36893,121.38293,1.1801364e-08
C0X280,將軍,2023-03-02,23.214999,120.13577,1.2496118e-07
C0S690,太麻里,2023-03-02,22.60902,120.98533,7.955786e-09
C0U880,北關,2023-03-02,24.9072,121.8734,4.777926e-08
C1H860,瑞岩,2023-03-02,24.123772,121.18345,2.987172e-09
C0G810,埔心,2023-03-02,23.947633,120.525456,5.1387314e-08
C0U970,大福,2023-03-02,24.80064,121.81389,8.109127e-09
C1E670,南礦,2023-03-02,24.538278,121.002836,6.68891e-09
C0M520,東後寮,2023-03-02,23.369908,120.248065,4.6645667e-07
C1E461,松安,2023-03-02,24.397972,120.986022,3.518232e-09
72G600,臺中農改,2023-03-02,24.003028,120.534389,6.09223e-08
C2N160,西拉雅風管處,2023-03-02,23.189481,120.335297,2.179626e-06
C0A640,石碇,2023-03-02,24.993969,121.662917,1.1663868e-07
E2S960,林試太麻里2,2023-03-02,22.598,120.99775,2.0713582e-08
C0F9Y0,桃山,2023-03-02,24.432739,121.303808,1.1804471e-08
C1I020,萬大,2023-03-02,23.979817,121.132261,8.006733e-10
C0U940,羅東,2023-03-02,24.68184,121.74934,4.6317616e-09
C0M650,朴子,2023-03-02,23.43463,120.23902,2.7787584e-07
C1I500,大尖山,2023-03-02,23.858572,120.994889,3.6658354e-09
C0G820,田尾,2023-03-02,23.901669,120.509389,5.1387314e-08
E2K600,四湖植物園,2023-03-02,23.676986,120.163433,0.045737945
C0S730,綠島,2023-03-02,22.6672,121.47533,0.92003554
12Q970,東港工作站,2023-03-02,22.479997,120.466058,4.947184e-10
C0E430,南庄,2023-03-02,24.601775,121.000214,2.5519626e-08
C1TA00,太魯閣,2023-03-02,24.15773,121.6236,1.2890143e-07
466920,臺北,2023-03-02,25.037658,121.514853,8.468151e-08
C0R600,舊泰武,2023-03-02,22.588194,120.664944,4.969427e-10
C1I260,北坑,2023-03-02,23.9246,121.006903,5.494929e-10
466910,鞍部,2023-03-02,25.182586,121.529731,1.1907877e-07
C1I230,九份二山,2023-03-02,23.961944,120.845,9.266244e-10
C2A660,瑞芳,2023-03-02,25.113169,121.801147,6.6170963e-07
C0R270,琉球嶼,2023-03-02,22.332244,120.362236,4.0638675e-09
C1T990,高寮,2023-03-02,23.394239,121.356808,1.2774046e-09
C0G620,芬園,2023-03-02,24.015678,120.6213,2.3098492e-09
C1Z140,荖溪,2023-03-02,23.890575,121.45964,1.2569582e-08
C1I201,中心崙,2023-03-02,23.728722,120.712097,7.9045215e-10
C1I400,凌霄,2023-03-02,24.018778,121.004456,1.1882308e-09
C1M640,十字,2023-03-02,23.492153,120.753683,3.7699723e-09
G2P820,農試鳳山分所,2023-03-02,22.646611,120.356083,6.119572e-09
C0Z270,蕃薯寮,2023-03-02,23.73835,121.540108,2.3158266e-09
C0F9Q0,外埔,2023-03-02,24.347817,120.705686,5.7638395e-08
C0K580,高鐵雲林,2023-03-02,23.737456,120.417944,3.538511e-08
C2I090,鳳凰,2023-03-02,23.728081,120.787347,1.4996598e-09
C0U990,員山,2023-03-02,24.74435,121.72247,4.600979e-09
C0V770,大社,2023-03-02,22.730306,120.346639,2.5596062e-08
C0X120,麻豆,2023-03-02,23.183289,120.248611,3.1949105e-07
C0C670,龍潭,2023-03-02,24.870056,121.221389,5.0636377e-06
C0D680,香山濕地,2023-03-02,24.783581,120.914988,0.99914247
C0S980,勝林山,2023-03-02,22.430439,120.8938,6.004623e-08
C0V730,大寮,2023-03-02,22.605614,120.395717,6.853442e-08
C0R570,麟洛,2023-03-02,22.65078,120.52719,1.1728167e-08
CAG100,王功漁港,2023-03-02,23.96824,120.32586,0.78961325
C0X290,北門,2023-03-02,23.267772,120.125481,1.2496118e-07
C2F930,大甲,2023-03-02,24.347667,120.640403,0.2367851
C0D650,湖口,2023-03-02,24.904794,121.043628,0.45378405
C0E420,竹南,2023-03-02,24.708978,120.888897,0.9989946
C0U780,五結,2023-03-02,24.68637,121.79794,4.566341e-09
C1I250,鯉潭,2023-03-02,23.961922,120.991131,7.848635e-10
C0R130,阿禮,2023-03-02,22.742908,120.743678,1.8692283e-09
C0X100,臺南市北區,2023-03-02,23.010394,120.194228,7.198721e-08
C0S920,金峰嘉蘭,2023-03-02,22.594789,120.960825,1.4084999e-08
C0V490,新興,2023-03-02,22.627422,120.298803,7.4391e-08
C0F9K0,大安,2023-03-02,24.345061,120.588025,0.55088466
72N100,臺南農改,2023-03-02,23.0605,120.342194,3.340541e-07
467290,古坑,2023-03-02,23.633639,120.551889,3.5801467e-08
C0V440,鳳山,2023-03-02,22.646653,120.356122,6.119572e-09
C1T940,大觀,2023-03-02,23.714206,121.373133,2.8821037e-09
72T250,花蓮農改,2023-03-02,23.975222,121.563889,2.6464596e-07
C0E740,造橋,2023-03-02,24.637056,120.864778,0.9883364
C0R100,尾寮山,2023-03-02,22.833111,120.683889,1.5009648e-09
A2K630,臺大雲林校區,2023-03-02,23.730628,120.423903,3.538511e-08
C0D580,寶山,2023-03-02,24.735006,121.025192,1.9585119e-07
E2P990,林試扇平站,2023-03-02,22.9677,120.6857,8.6401536e-10
C0AI30,三重,2023-03-02,25.057328,121.500629,8.626495e-08
C0AH00,汐止,2023-03-02,25.066881,121.658778,8.468151e-08
C1Z040,立山,2023-03-02,23.443356,121.327375,8.326341e-09
C0R740,獅子,2023-03-02,22.201569,120.70525,0.9950077
C0W130,花嶼,2023-03-02,23.40007,119.32276,0.97139007
C0A950,鼻頭角,2023-03-02,25.129036,121.923372,0.5542536
C0K470,林內,2023-03-02,23.748675,120.609642,5.8263783e-08
82C160,茶改場,2023-03-02,24.908472,121.185333,1.2173773e-05
C0Z320,清水林道,2023-03-02,23.27125,121.188272,9.878557e-09
C0R760,南仁湖,2023-03-02,22.084681,120.863353,0.9998842
C0M670,大林,2023-03-02,23.600616,120.45841,1.0375295e-07
C0M800,茶山,2023-03-02,23.299075,120.664767,6.3868616e-10
C0A9C0,天母,2023-03-02,25.117494,121.537169,1.9841397e-07
72K220,南改斗南分場,2023-03-02,23.634556,120.477333,7.8355995e-08
72AI40,桃改樹林分場,2023-03-02,24.944503,121.386972,2.134931e-05
C0S910,蘭嶼燈塔,2023-03-02,22.081197,121.503117,0.95885676
C0B050,八斗子,2023-03-02,25.144754,121.79167,1.6856479e-06
C0U900,內城,2023-03-02,24.71813,121.68766,4.7369815e-09
C0X320,柳營,2023-03-02,23.253328,120.375253,6.935477e-07
C0M790,新港,2023-03-02,23.553269,120.345728,6.863868e-08
C0F9T0,西屯,2023-03-02,24.179494,120.641275,2.7833272e-08
C0SA30,都歷,2023-03-02,23.020333,121.323642,3.3849998e-09
C0C620,蘆竹,2023-03-02,25.084275,121.265767,0.00024878312
C0R730,大坪頂,2023-03-02,22.024633,120.69355,0.9022433
C0AJ40,石門,2023-03-02,25.273672,121.601198,1.6649245e-05
C0E750,苗栗,2023-03-02,24.564569,120.824575,1.7056618e-05
C0T870,鯉魚潭,2023-03-02,23.935639,121.508944,1.0464827e-08
C1V170,排雲,2023-03-02,23.463619,120.954147,1.31130715e-08
C2H950,中寮,2023-03-02,23.884447,120.766406,1.3916914e-09
C0R350,貓鼻頭,2023-03-02,21.921774,120.7358,0.18931782
C0V660,岡山,2023-03-02,22.797078,120.294958,5.1247248e-08
C1H941,雙冬,2023-03-02,23.967378,120.802189,5.599343e-10
C0AJ70,田寮,2023-03-02,25.2698,121.4886,0.00021190214
C0AI00,五股,2023-03-02,25.07445,121.42728,2.5668328e-07
C0Z280,德武,2023-03-02,23.47426,121.41071,1.6127468e-09
C0R700,枋山,2023-03-02,22.246844,120.661086,0.5894434
C0C460,復興,2023-03-02,24.820208,121.352281,2.2242225e-06
E2H360,蓮華池,2023-03-02,23.918333,120.885278,6.141084e-10
C0M640,中埔,2023-03-02,23.42538,120.5229,2.695994e-07
C0W140,金沙,2023-03-02,24.488292,118.408778,4.3276512e-05
C2A540,四堵,2023-03-02,24.8926,121.745736,3.132616e-08
C0ACA0,新莊,2023-03-02,25.051478,121.446756,1.0763689e-07
C0R220,潮州,2023-03-02,22.534361,120.54,1.1215664e-09
U2HA40,臺大內茅埔,2023-03-02,23.689722,120.851117,1.1418717e-09
467490,臺中,2023-03-02,24.145736,120.684075,1.6740448e-09
C0U960,翠峰湖,2023-03-02,24.510856,121.608044,3.689188e-08
E2HA20,林試畢祿溪站,2023-03-02,24.226944,121.308522,4.8660302e-09
C0V890,前鎮,2023-03-02,22.5718,120.3117,9.12214e-08
467620,蘭嶼,2023-03-02,22.036969,121.558339,0.90160286
C1F941,雪嶺,2023-03-02,24.280586,121.026642,8.113768e-09
C0AC80,文山,2023-03-02,25.00235,121.575728,1.4912298e-07
C0F9R0,龍井,2023-03-02,24.184536,120.528972,0.004580643
C0M760,民雄,2023-03-02,23.551754,120.428457,1.1993389e-07
C0UA40,西德山,2023-03-02,24.560647,121.752608,3.6068222e-08
C1T920,中興,2023-03-02,23.769503,121.498653,5.0641e-09
C0D550,雪霸,2023-03-02,24.526972,121.11605,5.3009392e-09
C2F860,梨山,2023-03-02,24.247522,121.243669,5.0783475e-09
C0R320,車城,2023-03-02,22.0744,120.716247,0.062196057
C1S870,南美山,2023-03-02,23.15025,121.382333,2.1191124e-08
C0B020,基隆嶼,2023-03-02,25.19141,121.78391,0.9638925
C1U501,牛鬥,2023-03-02,24.637836,121.573656,1.4074337e-08
C0M730,嘉義市東區,2023-03-02,23.457673,120.460531,2.237669e-06
C0S700,知本,2023-03-02,22.684866,121.005642,5.107528e-09
C1N001,沙崙,2023-03-02,22.935472,120.309406,4.7365276e-07
C0V760,橋頭,2023-03-02,22.757806,120.30575,3.0030893e-08
C0G960,福寶,2023-03-02,24.0443,120.3814,0.00017733258
C0X210,白河,2023-03-02,23.347466,120.414427,7.3517293e-07
C0S810,東河,2023-03-02,22.972672,121.303986,0.9998791
C0R670,楓港,2023-03-02,22.190131,120.692156,0.9950928
C0FA50,霧峰,2023-03-02,24.0419,120.6995,2.732033e-09
C0UB10,蘇澳,2023-03-02,24.5969,121.8571,1.7258158e-08
C0G950,防潮門,2023-03-02,24.1835,120.4871,0.0045782714
C0M740,六腳,2023-03-02,23.492871,120.290625,1.4091844e-07
C1R250,力里,2023-03-02,22.428117,120.629228,2.2457397e-10
C0K330,虎尾,2023-03-02,23.719183,120.442036,3.1671007e-08
C2FA00,烏石坑,2023-03-02,24.273503,120.947617,1.4317909e-09
C0V620,永安,2023-03-02,22.82315,120.236856,4.5386265e-08
C1I330,楓樹林,2023-03-02,23.986803,121.076117,9.3096997e-10
C0W200,湖西,2023-03-02,23.596314,119.67275,0.95605487
72Q010,高雄農改場,2023-03-02,22.709333,120.525889,2.7836352e-08
C0SA40,瑞和,2023-03-02,22.974361,121.156697,5.1171916e-09
C0C680,龜山,2023-03-02,25.02846,121.38656,1.8881495e-07
C2V260,月眉,2023-03-02,22.971003,120.539853,7.863964e-10
C0V450,鳳森,2023-03-02,22.545064,120.392592,8.0560747e-10
C0U720,南山,2023-03-02,24.43742,121.38167,1.6805016e-08
A2N290,臺南蘭花園區,2023-03-02,23.340258,120.379661,5.3167645e-07
C0R560,新園,2023-03-02,22.5434,120.461558,8.911107e-10
C0U890,三星,2023-03-02,24.66812,121.65302,1.33062406e-08
C1V300,御油山,2023-03-02,23.001983,120.715364,4.5956554e-09
C0U600,礁溪,2023-03-02,24.817539,121.765608,2.135578e-08
C1T980,龍澗,2023-03-02,24.023289,121.411328,1.9968635e-08
C0D670,海天一線,2023-03-02,24.831986,120.914438,0.9984293
C0SA00,歷坵,2023-03-02,22.520969,120.89185,2.1919503e-08
C0M710,東石,2023-03-02,23.458927,120.15385,1.47532555e-05
C0M780,鹿草,2023-03-02,23.41134,120.30835,2.3361874e-07
C0U520,雙連埤,2023-03-02,24.753033,121.641303,1.5613885e-08
C0B010,七堵,2023-03-02,25.094819,121.71713,2.7668614e-07
C0R480,長治,2023-03-02,22.693128,120.542622,5.600617e-09
C1V830,國三S383K,2023-03-02,22.781967,120.426475,4.0519637e-09
12Q980,恆春工作站,2023-03-02,22.079678,120.714425,0.062196057
C1O940,東山服務區,2023-03-02,23.286016,120.398472,2.7076014e-06
C1U840,東澳嶺,2023-03-02,24.5378,121.8485,2.2775337e-08
C1D630,飛鳳山,2023-03-02,24.766464,121.119178,2.1121117e-07
C0S940,石寧山,2023-03-02,23.223772,121.406639,2.0847342e-09
C0K410,北港,2023-03-02,23.573957,120.292802,7.6627117e-07
C2M620,瑞里,2023-03-02,23.545133,120.675197,2.0563002e-09
C2O950,安南,2023-03-02,23.076694,120.144861,1.3069979e-07
C0F0E0,南湖圈谷,2023-03-02,24.363714,121.444667,4.5040025e-08
467610,成功,2023-03-02,23.097486,121.373428,2.7809372e-06
C0G890,伸港,2023-03-02,24.148933,120.484403,0.0005261889
C2E540,龍溪,2023-03-02,24.606489,120.783933,0.98929673
C1V200,梅山,2023-03-02,23.268447,120.823556,1.3555225e-09
C0T9H0,加路蘭山,2023-03-02,23.682947,121.5274,5.0242117e-09
C2O930,玉井,2023-03-02,23.126042,120.46055,0.0006145677
C1F911,新伯公,2023-03-02,24.221361,120.841069,5.1140864e-10
C0R490,九如,2023-03-02,22.7405,120.490503,2.9269e-08
C0X200,左鎮,2023-03-02,23.056758,120.408522,7.73201e-06
C1F891,稍來,2023-03-02,24.265689,121.001142,6.711235e-09
72N240,七股研究中心,2023-03-02,23.081672,120.062894,1.4606363e-07
C0C700,中壢,2023-03-02,24.977661,121.256375,4.760093e-07
C0M690,水上,2023-03-02,23.419734,120.388909,3.0492794e-07
C0V690,鼓山,2023-03-02,22.623325,120.275575,7.4391e-08
C0O860,大內,2023-03-02,23.11885,120.36083,4.0685973e-07
C0Z200,萬榮,2023-03-02,23.709219,121.420106,1.9125488e-09
C0T9D0,和中,2023-03-02,24.26676,121.74103,9.230423e-09
C1O921,楠西,2023-03-02,23.183511,120.484083,2.1988042e-05
C0AJ30,淡水觀海,2023-03-02,25.184591,121.408616,2.3213418e-06
C0V810,左營,2023-03-02,22.67491,120.28491,7.3217103e-09
C0UA70,桃源谷,2023-03-02,24.962606,121.888875,9.030544e-08
C0X130,官田,2023-03-02,23.193217,120.315422,2.8443555e-06
C1H000,翠峰,2023-03-02,24.109397,121.205211,9.093942e-09
C0UA90,石城,2023-03-02,24.980444,121.951214,7.050725e-08
C1E681,南勢山,2023-03-02,24.421669,120.923831,4.0327883e-09
C0A9F0,內湖,2023-03-02,25.079422,121.57545,8.468151e-08
C0K291,宜梧,2023-03-02,23.536281,120.169329,5.3608123e-06
C1K540,口湖,2023-03-02,23.585344,120.180517,0.015694853
C0R780,滿州,2023-03-02,22.024403,120.839892,0.78293467
C0V870,文安,2023-03-02,22.8025,120.2164,5.3014276e-08
C0U650,玉蘭,2023-03-02,24.675286,121.587061,1.8151123e-08
C0R640,東港,2023-03-02,22.46247,120.44074,4.947184e-10
K2E360,苗栗農改,2023-03-02,24.495722,120.829111,3.5819605e-07
C0AJ80,板橋,2023-03-02,25.0107,121.4489,1.7608961e-07
C0S660,下馬,2023-03-02,23.150427,121.070312,4.8530446e-09
C1H9B1,阿眉,2023-03-02,24.1263,120.994672,3.7333208e-09
C0UA20,多加屯,2023-03-02,24.368614,121.373189,5.1963283e-09
C0E730,頭份,2023-03-02,24.688247,120.912206,0.99901295
72V140,高改旗南分場,2023-03-02,22.857861,120.516667,4.403007e-09
C0K480,莿桐,2023-03-02,23.761192,120.502372,1.1247529e-07
C0U980,坪林石牌,2023-03-02,24.86478,121.77396,2.1568685e-08
C0T900,西林,2023-03-02,23.8119,121.441458,4.295969e-09
C1I150,青雲,2023-03-02,23.793361,120.949378,4.1759862e-10
467350,澎湖,2023-03-02,23.565503,119.563094,0.9631933
C0G800,埔鹽,2023-03-02,24.000394,120.431683,1.9684245e-05
C0H960,草屯,2023-03-02,23.973672,120.68085,2.368065e-09
C1V780,多納林道,2023-03-02,22.888028,120.737917,1.3768007e-09
C0E920,通霄漁港,2023-03-02,24.498589,120.673876,0.99766135
C0Z330,安通山,2023-03-02,23.290728,121.348528,2.8050058e-09
C0AH10,永和,2023-03-02,25.01125,121.508111,1.7627544e-07
C2G640,鹿港,2023-03-02,24.0753,120.430481,0.00017733258
C1E890,國三N149K,2023-03-02,24.463414,120.680019,0.86698437
C1R110,口社,2023-03-02,22.770111,120.645222,1.2246967e-09
C1M870,國三N285K,2023-03-02,23.550319,120.505833,4.218194e-08
467050,新屋,2023-03-02,25.006744,121.047486,0.8752231
C1E480,鳳美,2023-03-02,24.554803,121.034747,8.53056e-09
C0M530,奮起湖,2023-03-02,23.493903,120.699253,2.4450957e-09
C0C590,觀音,2023-03-02,25.027072,121.153317,0.9948118
C0T9M0,靜浦,2023-03-02,23.455167,121.495028,1.5302417e-09
C0AI40,石牌,2023-03-02,25.115597,121.513139,2.0603947e-07
C1F871,上谷關,2023-03-02,24.203483,121.018644,1.0016066e-09
C0G880,二水,2023-03-02,23.810742,120.6173,1.724095e-08
C0R940,加祿堂,2023-03-02,22.3363,120.6217,0.9269361
C0W220,北竿,2023-03-02,26.220358,119.974881,5.6428785e-06
C0O960,崎頂,2023-03-02,22.959547,120.369317,9.202318e-08
C0S750,向陽,2023-03-02,23.248397,120.986133,5.4951728e-09
C0T9F0,水璉,2023-03-02,23.797131,121.542514,4.0019086e-09
C1M600,頭凍,2023-03-02,23.406364,120.603339,1.6585227e-09
467660,臺東,2023-03-02,22.752211,121.154586,0.99986184
C1D380,新埔,2023-03-02,24.84745,121.03834,0.97657794
C0V750,路竹,2023-03-02,22.854997,120.259439,2.4768413e-08
C0N050,蚵寮,2023-03-02,23.301,120.1104,4.6291453e-07
72M700,南改鹿草分場,2023-03-02,23.416869,120.283061,2.7787584e-07
C1SA50,利嘉林道,2023-03-02,22.82325,121.009389,2.271079e-08
467550,玉山,2023-03-02,23.487614,120.959522,1.4880952e-08
C0A940,金山,2023-03-02,25.223628,121.643967,1.1780639e-06
C1V340,大津,2023-03-02,22.888322,120.645986,4.1605705e-10
C0W180,七美,2023-03-02,23.219333,119.444892,0.9743891
C1F9C1,白冷,2023-03-02,24.182844,120.929889,6.5992367e-10
K2E710,苗改生物防治研究中心,2023-03-02,24.422861,120.871833,3.3348793e-09
C0N040,蘆竹溝,2023-03-02,23.2344,120.0961,1.2496118e-07
C2W230,畜試所澎湖,2023-03-02,23.628342,119.513206,0.961131
C0R880,後壁湖,2023-03-02,21.9457,120.7457,0.86449593
C1I280,埔中,2023-03-02,23.820778,120.642594,5.6297994e-10
467790,墾丁雷達站,2023-03-02,21.948235,120.808028,0.86969846
C0W190,望安,2023-03-02,23.380564,119.494075,0.97001725
466881,新北,2023-03-02,24.9593,121.52,1.6792303e-07
C0Z170,卓溪,2023-03-02,23.3443,121.3029,1.3896596e-09
C0F850,東勢,2023-03-02,24.246428,120.833047,1.4988363e-09
466900,淡水,2023-03-02,25.164889,121.448906,3.3133988e-06
C0I370,魚池,2023-03-02,23.895703,120.94135,5.625624e-10
C0C630,大溪,2023-03-02,24.882853,121.265547,7.699002e-06
C0A520,山佳,2023-03-02,24.974944,121.402008,2.6742586e-07
C0I110,竹山,2023-03-02,23.761225,120.688156,8.844599e-09
82H840,茶改南部分場,2023-03-02,23.762528,120.7405,5.597912e-10
C0G660,溪湖,2023-03-02,23.94835,120.479122,5.5227154e-08
C1T800,洛韶,2023-03-02,24.204558,121.453956,1.4624308e-08
C1T810,慈恩,2023-03-02,24.192044,121.388386,9.394541e-09
C1E451,象鼻,2023-03-02,24.368617,120.940228,2.1772988e-09
C0AC60,三峽,2023-03-02,24.939025,121.369728,1.7455153e-05
C0I490,萬大林道,2023-03-02,23.928228,121.091411,1.8344347e-09
C1I290,豐丘,2023-03-02,23.668178,120.887417,2.932162e-09
C1I320,奧萬大,2023-03-02,23.952956,121.178556,9.484793e-10
C0U770,南澳,2023-03-02,24.44935,121.81022,7.3368502e-09
C0A980,社子,2023-03-02,25.109508,121.469681,4.1477297e-06
C0V800,六龜,2023-03-02,22.997889,120.633583,3.6819084e-10
C1G9D0,國一S218K,2023-03-02,23.890641,120.493253,6.224593e-08
C2F9A0,中竹林,2023-03-02,24.103556,120.751061,6.0866956e-10
C0FA40,臺中電廠,2023-03-02,24.2146,120.4907,0.004580643
C0H9C0,合歡山,2023-03-02,24.143442,121.272547,1.3974082e-08
C0X060,下營,2023-03-02,23.22695,120.256261,1.0371334e-06
G2M350,農試溪口農場,2023-03-02,23.58565,120.408111,1.2489112e-07
C0U860,頭城,2023-03-02,24.85323,121.8308,2.1488532e-08
C0R580,南州,2023-03-02,22.48591,120.50274,4.947184e-10
C0D430,峨眉,2023-03-02,24.6905,121.017189,8.992206e-06
C0G780,秀水,2023-03-02,24.03405,120.503869,6.088048e-08
72N100,臺南農改場,2023-03-02,23.0605,120.342194,3.340541e-07
C0S900,蘭嶼高中,2023-03-02,22.04909,121.51214,0.9774197
467540,大武,2023-03-02,22.355675,120.903789,0.9996774
C1F9W0,德基,2023-03-02,24.254783,121.190261,5.113923e-09
C1Z120,壽豐,2023-03-02,23.870853,121.508081,1.0874042e-08
C0W160,烏坵,2023-03-02,24.9944,119.44956,0.8606549
C1I240,外大坪,2023-03-02,23.958697,120.917931,8.046323e-10
C1I550,國六W023K,2023-03-02,23.979067,120.867742,5.2633375e-10
C0R870,興海,2023-03-02,21.9752,120.8439,0.90100574
C0R140,瑪家,2023-03-02,22.682903,120.686639,7.7908546e-10
C0A530,坪林,2023-03-02,24.938183,121.70975,3.2489847e-08
C0X260,後壁,2023-03-02,23.366358,120.362326,5.2690285e-07
C0Z230,和平,2023-03-02,24.30717,121.77007,9.838917e-09
C0G770,福興,2023-03-02,24.041289,120.437669,1.9684245e-05
C0H9A0,神木村,2023-03-02,23.532742,120.843667,3.898542e-09
C0I460,南投,2023-03-02,23.911469,120.687331,8.6847807e-10
C0I480,梅峰,2023-03-02,24.085272,121.173572,3.0465361e-09
C1V570,吉東,2023-03-02,22.85422,120.5454,3.873977e-09
C2A560,福山,2023-03-02,24.776203,121.502811,7.559492e-08
C0AH30,五分山,2023-03-02,25.07125,121.780794,1.246529e-07
C0FA10,松柏,2023-03-02,24.429115,120.617482,0.9442741
72S200,東改班鳩分場,2023-03-02,22.829528,121.077694,0.17684247
72HA00,中改埔里分場,2023-03-02,23.903208,120.963364,5.8199195e-10
C0C650,平鎮,2023-03-02,24.897503,121.214636,3.1062489e-06
C0S930,延平,2023-03-02,22.902581,121.084058,5.027852e-07
C0UA60,樟樹山,2023-03-02,24.41393,121.78325,8.296728e-09
C1S670,摩天,2023-03-02,23.199503,121.027,1.6140403e-08
C0V630,茄萣,2023-03-02,22.906642,120.182608,3.0318372e-08
466940,基隆,2023-03-02,25.133314,121.740475,1.5207171e-06
C0X050,東河,2023-03-02,23.296598,120.385608,4.1909666e-06
C0R770,保力,2023-03-02,22.071122,120.764111,0.23230124
G2L020,農試嘉義分所,2023-03-02,23.485028,120.473806,3.0278878e-07
C0X240,關子嶺,2023-03-02,23.331169,120.508025,1.0373051e-09
C0I380,集集,2023-03-02,23.828206,120.801467,5.766132e-10
466990,花蓮,2023-03-02,23.975128,121.613275,4.1048193e-07
C1V220,小關山,2023-03-02,23.154217,120.813603,3.6076873e-09
C1F9G1,慶福山,2023-03-02,24.180853,120.848378,5.024209e-10
C0Z250,瑞穗林道,2023-03-02,23.49284,121.30688,2.8389705e-08
C0D590,新豐,2023-03-02,24.87068,120.97721,0.9989511
C0A870,五指山,2023-03-02,25.132153,121.608692,5.7501357e-08
C0UA50,西帽山,2023-03-02,24.555361,121.802628,3.253518e-08
C0X160,仁德,2023-03-02,22.968258,120.257689,4.609137e-07
C1H971,六分寮,2023-03-02,23.92507,120.6378,6.0009425e-10
C0W120,西嶼,2023-03-02,23.5626,119.468436,0.9650062
C0G650,員林,2023-03-02,23.946503,120.585597,2.800912e-08
C0AD50,鶯歌,2023-03-02,24.951533,121.346294,1.2673452e-05
C0S990,山豬窟,2023-03-02,22.318619,120.857372,0.99955827
72Q010,高雄農改,2023-03-02,22.709333,120.525889,2.7836352e-08
C0X190,安平,2023-03-02,22.993161,120.152181,7.208421e-08
C0K400,斗六,2023-03-02,23.720583,120.541127,9.141456e-08
12J990,口湖工作站,2023-03-02,23.589978,120.180394,0.015741616
C0O830,北寮,2023-03-02,23.079561,120.495008,1.9263371e-08
C1D410,白蘭,2023-03-02,24.579364,121.079947,7.2543336e-09
C0S970,加津林,2023-03-02,22.416211,120.926942,0.9997689
C0D700,關西,2023-03-02,24.7977,121.1732,3.8228695e-06
C0M810,里佳,2023-03-02,23.389125,120.716647,3.028495e-09
C0U750,龜山島,2023-03-02,24.841667,121.953133,0.17937873
C0R810,內獅,2023-03-02,22.305064,120.642986,0.91545874
C1M390,龍美,2023-03-02,23.406728,120.654417,2.1407278e-09
C1H840,國三N238K,2023-03-02,23.841008,120.707711,4.5645884e-10
CAQ030,崎峰國小,2023-03-02,22.42565,120.49521,4.947184e-10
C2E520,大湖,2023-03-02,24.414939,120.870872,3.3451169e-09
467530,阿里山,2023-03-02,23.508208,120.813242,6.829715e-09
C1E691,南湖,2023-03-02,24.40135,120.837533,3.2472112e-09
C0FA30,梧棲,2023-03-02,24.256003,120.523381,0.015020186
C1V231,高中,2023-03-02,23.134911,120.716711,7.1756423e-10
C0F9V0,新社,2023-03-02,24.200172,120.815806,5.5993754e-10
C0H890,埔里,2023-03-02,23.972169,120.952425,5.3149896e-10
C0R690,墾丁,2023-03-02,21.966756,120.810269,0.17382297
C0F0D0,審馬陣,2023-03-02,24.381675,121.4203,8.745358e-09
C0R820,白鷺,2023-03-02,22.454275,120.666219,1.1303997e-09
U2H480,臺大溪頭,2023-03-02,23.670306,120.798194,2.7358764e-09
C1V190,南天池,2023-03-02,23.27403,120.91176,5.2492544e-09
K2E360,苗栗農改場,2023-03-02,24.495722,120.829111,3.5819605e-07
CAJ050,海口故事園區,2023-03-02,23.57543,120.14121,0.015741616
C0O990,媽廟,2023-03-02,22.99175,120.293525,2.0744051e-07
C0D480,打鐵坑,2023-03-02,24.849664,121.150789,4.681891e-06
C0Z220,和平林道,2023-03-02,24.343922,121.656317,3.3417304e-09
72C440,桃園農改場,2023-03-02,24.950944,121.030583,0.9027108
C1E711,馬拉邦山,2023-03-02,24.367306,120.901656,2.2590245e-09
C0D560,竹東,2023-03-02,24.767147,121.057881,5.187194e-06
C0F9U0,南屯,2023-03-02,24.137006,120.637969,4.0688256e-08
C0M720,番路,2023-03-02,23.464657,120.554156,6.4105684e-08
C0F0A0,雪山圈谷,2023-03-02,24.388594,121.236339,1.4782985e-08
C1A9N0,四十份,2023-03-02,24.934158,121.593283,1.7469544e-07
C0U760,東澳,2023-03-02,24.52196,121.83318,9.435106e-09
C0X230,鹽水,2023-03-02,23.272621,120.247641,4.0984315e-07
C0V370,古亭坑,2023-03-02,22.893178,120.401947,1.386718e-07
C1I340,新興橋,2023-03-02,23.563333,120.868728,1.432512e-09
C0SA80,土坂,2023-03-02,22.453108,120.887572,0.05730821
C0R160,鹽埔,2023-03-02,22.739558,120.530778,2.7836403e-08
C0AC40,大屯山,2023-03-02,25.175675,121.522408,1.0336857e-07
466850,五分山雷達站,2023-03-02,25.071182,121.781205,1.2392724e-07
C1AI50,國三N016K,2023-03-02,25.034164,121.619664,7.375227e-08
C1V600,藤枝,2023-03-02,23.071961,120.757042,3.115293e-09
C1E601,南勢,2023-03-02,24.572486,120.734842,0.99712026
C0Z180,新城,2023-03-02,24.03946,121.60454,3.1295198e-07
C0O980,新市,2023-03-02,23.061614,120.298197,5.14758e-07
C0K420,西螺,2023-03-02,23.800407,120.467394,2.9912847e-08
C0Z050,佳心,2023-03-02,23.34567,121.21316,1.1029578e-08
C0AD30,蘆洲,2023-03-02,25.086594,121.472331,8.626495e-08
C0V610,梓官,2023-03-02,22.760558,120.267211,2.9981447e-08
K2F750,種苗改良場,2023-03-02,24.225972,120.800917,5.304173e-10
C0UA80,大溪漁港,2023-03-02,24.941801,121.902955,4.715475e-08
C1AI60,國一39K邊坡,2023-03-02,25.064361,121.383836,2.1836675e-07
C0W150,金寧,2023-03-02,24.457703,118.328989,3.3002075e-06
V2C250,八德合作社,2023-03-02,24.93775,121.266389,5.1792163e-06
C0AH40,平等,2023-03-02,25.129142,121.577086,7.051168e-08
C0R540,佳冬,2023-03-02,22.419456,120.552375,0.9484328
466950,彭佳嶼,2023-03-02,25.627975,122.079744,0.99963206
C0A890,雙溪,2023-03-02,25.036003,121.864242,1.2468892e-07
C0C480,桃園,2023-03-02,24.992425,121.323172,5.7820625e-07
C0AH50,林口,2023-03-02,25.072181,121.38084,1.6899605e-07
A2K360,水試臺西試驗場,2023-03-02,23.717231,120.190522,0.14831619
B2N890,畜試所,2023-03-02,23.058972,120.336406,3.340541e-07
C0F9S0,烏日,2023-03-02,24.107058,120.624103,1.679863e-09
C0C490,八德,2023-03-02,24.928708,121.283289,5.014434e-06
C0R190,赤山,2023-03-02,22.592333,120.614306,1.4778693e-09
C0T820,天祥,2023-03-02,24.179597,121.495639,1.0581036e-08
C1F9E1,龍安,2023-03-02,24.1605,120.831961,5.5843685e-10
C0V820,小林,2023-03-02,23.148408,120.63325,8.300601e-10
C2G870,芳苑,2023-03-02,23.922303,120.320025,0.77851945
C0E850,大河,2023-03-02,24.618069,120.948578,1.0808868e-07
C1U670,寒溪,2023-03-02,24.634,121.71691,8.146022e-09
C0N020,城西,2023-03-02,23.0568,120.0956,7.198721e-08
C1Z110,三棧,2023-03-02,24.11557,121.60501,1.1035512e-08
C0R280,檳榔,2023-03-02,22.076078,120.836777,0.9997929
C0F9L0,后里,2023-03-02,24.310436,120.729725,2.138928e-09
C0D540,橫山,2023-03-02,24.71116,121.11693,8.687954e-08
C1D420,太閣南,2023-03-02,24.632808,121.160575,1.685773e-08
C1E770,公館,2023-03-02,24.526914,120.830806,4.9266566e-07
CAN130,水試所海水繁養殖中心,2023-03-02,23.120802,120.07968,1.4606363e-07
C1I430,翠華,2023-03-02,24.191961,121.224339,4.536063e-09
C1M400,菜瓜坪,2023-03-02,23.251928,120.576103,6.105043e-10
C0G730,二林,2023-03-02,23.903325,120.376081,4.8731704e-06
72M360,南改義竹分場,2023-03-02,23.360694,120.279361,4.7231848e-07
V2K620,麥寮合作社,2023-03-02,23.753836,120.294783,1.7912359e-07
C0Z070,舞鶴,2023-03-02,23.46811,121.37407,1.6864217e-09
C0B040,大武崙,2023-03-02,25.166676,121.706993,1.1354597e-06
C1Z030,紅葉,2023-03-02,23.493119,121.338806,3.0986465e-09
C1I050,丹大,2023-03-02,23.753747,121.141147,7.463413e-09
C0I080,信義,2023-03-02,23.689694,120.851036,1.1418717e-09
C2A880,福隆,2023-03-02,25.017842,121.942083,7.170601e-08
C0Z160,鳳林,2023-03-02,23.746114,121.453411,1.8364407e-09
C0V210,復興,2023-03-02,23.222403,120.806089,1.126966e-09
C0H990,昆陽,2023-03-02,24.121322,121.273642,1.8720195e-08
C0S710,鹿野,2023-03-02,22.917711,121.122994,2.735245e-09
C0I530,小奇萊,2023-03-02,24.131764,121.295717,1.957434e-08
C0Z080,富源,2023-03-02,23.587642,121.378225,5.6013967e-09
467441,高雄,2023-03-02,22.7304,120.3125,2.5596062e-08
C1I140,卡奈托灣,2023-03-02,23.754364,121.087872,1.5517121e-09
C0I520,玉山風口,2023-03-02,23.470489,120.955994,1.5755388e-08
C1G691,下水埔,2023-03-02,23.816114,120.5676,9.463676e-08
C0X110,臺南市南區,2023-03-02,22.961189,120.188378,4.609137e-07
C0V680,仁武,2023-03-02,22.701083,120.347722,7.3217103e-09
C2G840,北斗,2023-03-02,23.877586,120.514222,5.9471095e-08
C0R900,竹坑,2023-03-02,22.1385,120.7022,0.075066775
C0K250,崙背,2023-03-02,23.75555,120.318925,1.7961042e-07
C0G860,社頭,2023-03-02,23.897647,120.5862,1.6320843e-07
C0X150,安定,2023-03-02,23.102614,120.227839,1.4175575e-07
C0R590,里港,2023-03-02,22.77919,120.49459,7.0928183e-09
C0E610,馬都安,2023-03-02,24.451272,120.930192,3.462914e-09
C0E550,明德,2023-03-02,24.583486,120.885411,1.2395776e-05
C0R150,三地門,2023-03-02,22.709889,120.639944,1.2659779e-09
C0G910,花壇,2023-03-02,24.032076,120.549461,5.1466962e-08
C1D400,鳥嘴山,2023-03-02,24.71909,121.28387,6.399427e-08
C0K500,元長,2023-03-02,23.64981,120.315024,4.623498e-07
C0F0B0,石岡,2023-03-02,24.276061,120.777644,2.0478657e-09
C2V250,甲仙,2023-03-02,23.080106,120.591758,3.9694634e-09
C0SA20,金崙山,2023-03-02,22.567419,120.959667,8.658487e-09
C0V350,溪埔,2023-03-02,22.738578,120.446797,1.1256624e-08
C0M660,溪口,2023-03-02,23.604131,120.403569,1.2489112e-07
C1S880,壽卡,2023-03-02,22.238911,120.858903,0.9994273
72D680,桃改新埔分場,2023-03-02,24.834444,121.066111,0.9832041
