站號,站名,日期,lat,lon,BLBTSLS
C0R710,龍磐,2023-10-26,21.931672,120.838942,0.9793645
C1F9D1,白毛台,2023-10-26,24.158325,120.886933,1.3569175e-08
C0G940,竹塘,2023-10-26,23.848253,120.386764,0.97585964
467590,恆春,2023-10-26,22.003897,120.746339,0.15829946
C1O850,環湖,2023-10-26,23.148617,120.418633,0.0028278034
C0U710,太平山,2023-10-26,24.505486,121.525656,3.196431e-08
C0E820,獅潭,2023-10-26,24.539133,120.920042,0.8875892
C0V880,興達,2023-10-26,22.8778,120.2127,0.056067705
C0S890,關山,2023-10-26,23.0395,121.175017,1.5027051e-06
K2F750,種苗繁殖,2023-10-26,24.225972,120.800917,0.00073382107
C1Z130,銅門,2023-10-26,23.965694,121.492842,0.0042667855
C0AD40,土城,2023-10-26,24.973208,121.445169,0.007099473
CAN140,六官養殖協會,2023-10-26,23.22881,120.29962,0.026858544
C0X180,山上,2023-10-26,23.0757,120.363253,0.00044950482
C0F9Z0,雪山東峰,2023-10-26,24.388792,121.268675,1.4928684e-08
C1M480,獨立山,2023-10-26,23.537022,120.607797,1.3037034e-08
C0X220,學甲,2023-10-26,23.230367,120.182187,0.011141948
C0R170,屏東,2023-10-26,22.660269,120.494072,0.17075828
467650,日月潭,2023-10-26,23.881325,120.90805,2.3772348e-08
C0K600,箔子寮,2023-10-26,23.6197,120.14,0.24157646
C0G830,埤頭,2023-10-26,23.866003,120.452806,0.99132234
C0S950,七塊厝,2023-10-26,22.954453,121.229922,3.2894093e-08
467110,金門,2023-10-26,24.407306,118.289281,0.9477178
C0AH80,深坑,2023-10-26,25.002703,121.628328,0.0123448875
467990,馬祖,2023-10-26,26.169269,119.923419,0.05212813
C0A970,三貂角,2023-10-26,25.007606,122.002058,0.76921856
C0K430,褒忠,2023-10-26,23.690938,120.303634,0.9965959
467480,嘉義,2023-10-26,23.495925,120.432906,0.9718966
C2E540,後龍,2023-10-26,24.606489,120.783933,0.28078473
C0V400,阿公店,2023-10-26,22.804194,120.355528,0.79703563
C0R440,大漢山,2023-10-26,22.405264,120.753181,2.8943717e-07
C0K280,四湖,2023-10-26,23.630414,120.227125,0.24393027
C1F9B1,桐林,2023-10-26,24.066172,120.735194,0.99845666
C0K390,土庫,2023-10-26,23.679029,120.395574,0.99253047
C1I450,望鄉山,2023-10-26,23.594153,120.944286,1.0573208e-08
C0E910,海埔,2023-10-26,24.648767,120.772435,0.27726838
B2E890,畜試北區分所,2023-10-26,24.527806,120.770972,0.99450326
C0R750,四林格山,2023-10-26,22.076989,120.802439,0.9862759
C0F0C0,中坑,2023-10-26,24.248517,120.903319,4.032673e-09
C1I121,大鞍,2023-10-26,23.678381,120.760017,5.765959e-09
72U480,花改蘭陽分場,2023-10-26,24.686306,121.716583,2.346431e-05
C0A770,科教館,2023-10-26,25.096356,121.516507,0.6761734
C0AJ60,六塊厝,2023-10-26,25.24,121.4481,0.1297325
C0R620,墾雷,2023-10-26,21.900836,120.855269,0.9944661
467420,永康,2023-10-26,23.038386,120.2367,0.00075017597
467300,東吉島,2023-10-26,23.25695,119.667467,0.9752019
C0I410,名間,2023-10-26,23.837053,120.701447,0.78450286
A2C560,農工中心,2023-10-26,24.985917,121.239833,0.097774334
C0V740,旗山,2023-10-26,22.888614,120.483597,0.8297083
C0Z061,玉里,2023-10-26,23.3215,121.339656,9.9774056e-08
C0S840,南田,2023-10-26,22.279725,120.889208,0.07958424
C1I470,杉林溪,2023-10-26,23.639517,120.786444,5.8047345e-09
C1X040,東原,2023-10-26,23.291597,120.463822,8.95538e-05
C0R660,枋寮,2023-10-26,22.367722,120.590647,0.21041526
C1R120,上德文,2023-10-26,22.763272,120.704442,1.01725234e-07
C0K450,大埤,2023-10-26,23.646074,120.431537,0.8756597
C0UA00,土場,2023-10-26,24.576533,121.495333,1.2690674e-05
467080,宜蘭,2023-10-26,24.763975,121.756528,0.000267029
C0N030,四草,2023-10-26,23.0235,120.1116,0.20781167
C0V650,彌陀,2023-10-26,22.783806,120.246361,0.00068153767
C0D660,新竹市東區,2023-10-26,24.798681,120.986942,0.8262553
82S580,茶改東部分場,2023-10-26,22.907694,121.130139,0.08311873
C0C710,大溪永福,2023-10-26,24.892936,121.324975,0.16317517
C0FA20,溫寮,2023-10-26,24.372177,120.583125,0.28227174
C0V640,湖內,2023-10-26,22.887139,120.2445,0.035764888
C0R910,下寮,2023-10-26,22.3929,120.5548,0.21041526
C0Z020,明里,2023-10-26,23.208717,121.262342,5.5946566e-07
C0M770,嘉義梅山,2023-10-26,23.585398,120.555587,0.15946282
G2F820,農業試驗所,2023-10-26,24.031261,120.688133,0.99581575
C0C660,楊梅,2023-10-26,24.912375,121.143047,0.08239116
C1E511,新開,2023-10-26,24.347703,120.827019,0.1984172
G2F820,農試所(霧峰),2023-10-26,24.031261,120.688133,0.99581575
C1I070,和社,2023-10-26,23.591131,120.888861,9.2678397e-07
C2F000,大肚,2023-10-26,24.15295,120.572117,0.99526507
C1S850,豐南,2023-10-26,23.122139,121.262389,1.0569962e-08
C2A920,富貴角,2023-10-26,25.263783,121.565258,0.73534226
CAH030,茶改場竹圍站,2023-10-26,23.860083,120.637528,1.2739376e-06
C0T960,光復,2023-10-26,23.660694,121.424964,1.8643566e-05
C0F9M0,豐原,2023-10-26,24.254322,120.720692,0.9972292
C0R720,旭海,2023-10-26,22.205403,120.887614,0.40787166
C0V710,苓雅,2023-10-26,22.622742,120.330669,0.009541474
C0C740,觀音工業區,2023-10-26,25.064764,121.114856,0.8655632
CAC040,拉拉山,2023-10-26,24.699317,121.427133,5.0805685e-08
C0V790,萬山,2023-10-26,22.905944,120.688056,1.0863648e-05
U2HA30,臺大和社,2023-10-26,23.590856,120.888864,9.2678397e-07
C0AJ90,澳底,2023-10-26,25.0552,121.9253,0.49723077
C0Z100,東華,2023-10-26,23.89525,121.549833,0.0135981105
C0G970,三豐,2023-10-26,23.882,120.2895,0.017467657
V2K610,大庄合作社,2023-10-26,23.8068,120.367939,0.9961029
C0V900,汕尾,2023-10-26,22.4782,120.4151,0.1995245
C1R630,龍泉,2023-10-26,22.66701,120.59091,0.53742754
C1AC50,關渡,2023-10-26,25.133486,121.469331,0.9442928
C0F9I0,神岡,2023-10-26,24.272481,120.658314,0.9994381
C0K460,斗南,2023-10-26,23.678734,120.478359,0.8701983
467410,臺南,2023-10-26,22.993239,120.204772,0.18319209
C2O810,曾文,2023-10-26,23.219681,120.497328,0.005123226
467280,後龍,2023-10-26,24.648563,120.831834,0.2867664
C1F9J1,清水林,2023-10-26,24.071242,120.820419,5.434053e-09
C2A650,火燒寮,2023-10-26,25.002719,121.742892,0.00039338524
466930,竹子湖,2023-10-26,25.162078,121.544547,7.9517086e-08
C1I220,樟湖,2023-10-26,23.905333,120.846983,5.965056e-09
C0I390,仁愛,2023-10-26,24.022122,121.132206,3.0895464e-09
C0Z300,東里,2023-10-26,23.26853,121.30547,3.3011424e-06
C0V310,美濃,2023-10-26,22.898742,120.519153,0.8466003
C1V590,新發,2023-10-26,23.057019,120.646064,4.2531187e-08
C0K510,水林,2023-10-26,23.572924,120.24597,0.998643
72S590,東改賓朗果園,2023-10-26,22.813889,121.071278,0.13996051
82A750,茶改北部分場,2023-10-26,24.955778,121.631222,0.060886525
C1A750,石碇服務區,2023-10-26,25.00872,121.646242,0.9366484
C0X300,鹿寮,2023-10-26,23.386047,120.477331,0.49565446
G2AI50,關渡,2023-10-26,25.11575,121.492,0.17719965
C0K590,雲林東勢,2023-10-26,23.674192,120.255721,0.99780464
C0A570,桶後,2023-10-26,24.848222,121.597992,3.3846635e-07
C1S800,華源,2023-10-26,22.657883,121.02325,0.99589103
C0G720,溪州,2023-10-26,23.851589,120.499093,0.99052286
C1V160,達卡努瓦,2023-10-26,23.279811,120.705319,1.8636047e-08
C2M410,馬頭山,2023-10-26,23.324361,120.582017,1.1705282e-06
C0V850,蚵仔寮,2023-10-26,22.7256,120.2527,0.25353828
C0S740,池上,2023-10-26,23.119628,121.209469,0.4290166
C1V390,尖山,2023-10-26,22.813153,120.367789,0.26463634
C0AH70,松山,2023-10-26,25.04871,121.55042,0.71489227
C0N010,鯤鯓國小,2023-10-26,23.1879,120.0889,0.02935374
C0R550,新埤,2023-10-26,22.467947,120.582894,0.16990027
C0SA60,知本（水試所）,2023-10-26,22.702394,121.082761,0.99548984
C0T9I0,豐濱,2023-10-26,23.583897,121.514806,1.4058313e-07
C0UB00,淡江大學蘭陽校園,2023-10-26,24.823239,121.730383,1.5204662e-07
C0T9N0,富里,2023-10-26,23.171639,121.249378,0.00061959826
U2HA50,臺大竹山,2023-10-26,23.756972,120.681556,0.026636306
C0V840,鳳鼻頭,2023-10-26,22.5083,120.3591,0.022734309
C0X140,西港,2023-10-26,23.125608,120.203108,0.0015044344
72D080,桃改五峰分場,2023-10-26,24.612194,121.157167,4.792829e-09
C0V530,阿蓮,2023-10-26,22.883208,120.327508,1.4447101e-05
C1O880,關山,2023-10-26,23.173397,120.594092,1.2935168e-06
C0E791,卓蘭,2023-10-26,24.3126,120.8244,0.98438007
C1I030,武界,2023-10-26,23.913225,121.052483,1.1863292e-08
C0R520,崁頂,2023-10-26,22.514781,120.506914,0.73579
C0R341,牡丹,2023-10-26,22.130036,120.792639,0.9159455
C0R930,萬丹,2023-10-26,22.5885,120.4851,0.014441356
C0S760,紅石,2023-10-26,23.069131,121.126219,4.094142e-08
C1M610,石磐龍,2023-10-26,23.496606,120.663506,8.014285e-09
C0UA10,鴛鴦湖,2023-10-26,24.590269,121.412228,2.9189165e-08
V2C260,八德蔬果,2023-10-26,24.978508,121.281819,0.035724442
C0R800,丹路,2023-10-26,22.204481,120.750989,0.3368952
C0G920,永靖,2023-10-26,23.924703,120.547533,0.96747625
C1A630,下盆,2023-10-26,24.771003,121.538622,2.8068376e-08
B2N890,畜產試驗所,2023-10-26,23.058972,120.336406,5.212012e-06
C0UA30,白嶺,2023-10-26,24.527819,121.519031,2.8834084e-08
C1V580,溪南(特生中心),2023-10-26,23.084972,120.788475,1.2468624e-08
C1T970,大農,2023-10-26,23.615233,121.413331,3.6425025e-08
E2S960,林試太麻里2,2023-10-26,22.598014,120.989761,0.99627984
C0R650,竹田,2023-10-26,22.58486,120.54344,0.7776048
C1H900,清流,2023-10-26,24.080775,120.962997,3.753384e-09
C1C510,水尾,2023-10-26,24.940081,121.087161,0.61889094
C0F9X0,大雅(中科園區),2023-10-26,24.21528,120.62445,0.99955076
C0O970,虎頭埤,2023-10-26,23.021375,120.347878,0.00011332436
C0C730,中大臨海站,2023-10-26,24.966126,121.008581,0.80862236
C0X250,新營,2023-10-26,23.310689,120.316681,0.25729385
C0V700,三民,2023-10-26,22.645017,120.311233,0.014794399
C0U870,大礁溪,2023-10-26,24.791042,121.675047,3.8636188e-08
C0E870,高鐵苗栗,2023-10-26,24.60725,120.826094,0.2823546
A2K570,古坑花卉中心,2023-10-26,23.63353,120.55239,0.3781692
C0M860,新美,2023-10-26,23.338017,120.683169,9.637785e-08
C1E701,八卦,2023-10-26,24.491756,120.927619,4.4244928e-08
C0I420,國姓,2023-10-26,24.037803,120.855072,1.18175185e-05
C0S960,香蘭,2023-10-26,22.587569,120.993375,0.99627984
C0R260,春日,2023-10-26,22.370361,120.628306,0.4536862
72G600,臺中農改場,2023-10-26,24.003028,120.534389,0.99358374
C0Z210,瑞穗,2023-10-26,23.5239,121.39021,1.1916835e-06
C0M820,達邦,2023-10-26,23.453994,120.749517,1.4443292e-08
C0V860,南寮,2023-10-26,22.7616,120.2339,0.25353828
C0G740,大城,2023-10-26,23.852487,120.320935,0.0175621
C0R920,塭仔,2023-10-26,22.4169,120.5197,0.19380957
C0R470,高樹,2023-10-26,22.826389,120.600806,0.4477309
C0R680,佳樂水,2023-10-26,21.993578,120.861633,0.8309655
C1O870,大棟山,2023-10-26,23.31157,120.52226,6.2640004e-09
C0D360,梅花,2023-10-26,24.678347,121.208558,1.5646652e-05
C0Z190,富世,2023-10-26,24.14743,121.6297,0.03433932
C0AI10,屈尺,2023-10-26,24.92184,121.54475,0.5079391
B2U990,畜試東區分所,2023-10-26,24.669039,121.832561,1.2192055e-07
C0R240,來義,2023-10-26,22.527306,120.625111,0.22122532
C1R610,西大武山,2023-10-26,22.617719,120.7322,4.9039354e-08
C0G900,線西,2023-10-26,24.143358,120.443536,0.76014394
C0M700,竹崎,2023-10-26,23.526178,120.555508,0.0006995745
C2E880,三義,2023-10-26,24.405478,120.749819,1.3123311e-07
C0C720,竹圍,2023-10-26,25.112692,121.239824,0.17718908
C0F9P0,清水,2023-10-26,24.312297,120.562242,0.3824974
C0Z150,吉安光華,2023-10-26,23.930925,121.595153,0.87833077
C1D640,外坪(五指山),2023-10-26,24.644447,121.090961,3.912832e-08
C0F9O0,潭子,2023-10-26,24.213106,120.703933,0.9833733
72T250,花蓮農改場,2023-10-26,23.975222,121.563889,0.8846575
C0E780,銅鑼,2023-10-26,24.489681,120.790853,0.9977508
C1T950,太安,2023-10-26,23.666719,121.370128,3.14524e-07
C0E830,苑裡,2023-10-26,24.439714,120.653053,0.272672
467270,田中,2023-10-26,23.873803,120.581286,0.9879086
C0SA10,檳榔四格山,2023-10-26,22.810031,121.109308,0.0017493989
C1T830,布洛灣,2023-10-26,24.17184,121.57127,0.67481893
C0F970,大坑,2023-10-26,24.173142,120.722289,0.9979733
C1U920,思源,2023-10-26,24.393125,121.347214,2.0814493e-08
C0A931,三和,2023-10-26,25.233153,121.595236,0.9157334
C0I010,廬山,2023-10-26,24.033311,121.181808,2.3395612e-09
C0R860,鼻頭,2023-10-26,22.1043,120.8979,0.7871254
C0UB20,壯圍,2023-10-26,24.7359,121.8163,0.000100017554
C0R790,九棚,2023-10-26,22.14195,120.889281,0.9016049
C0W110,東莒,2023-10-26,25.9652,119.98069,0.32696378
C1U930,粉鳥林,2023-10-26,24.497088,121.842479,1.6634532e-08
C1I211,蘆竹湳,2023-10-26,23.934019,120.811994,1.3900659e-08
C0S830,長濱,2023-10-26,23.286817,121.411975,3.117827e-08
C1F9F1,伯公龍,2023-10-26,24.272392,120.849047,0.0005500766
C0E810,西湖,2023-10-26,24.562947,120.7485,0.46598
C1I440,新高口,2023-10-26,23.478744,120.878939,6.7626336e-09
C0O840,王爺宮,2023-10-26,23.222064,120.40085,7.954923e-06
C0T9G0,鳳林山,2023-10-26,23.735269,121.420131,1.3425396e-08
C0X080,佳里,2023-10-26,23.173039,120.145086,0.029296424
C0Z310,清水斷崖,2023-10-26,24.218294,121.689142,2.7470554e-07
C0M680,太保,2023-10-26,23.455062,120.331455,0.99451447
C1S820,金峰,2023-10-26,22.590969,120.933236,0.99923944
C0AD10,八里,2023-10-26,25.150211,121.403947,0.17718908
C2K240,草嶺,2023-10-26,23.59555,120.693461,1.2047813e-08
C1SA70,都蘭,2023-10-26,22.87794,121.226881,0.783847
C0K440,二崙,2023-10-26,23.772797,120.408944,0.99665654
C1A760,坪林交控,2023-10-26,24.94284,121.713442,0.00049397803
C0F9N0,大里,2023-10-26,24.092464,120.701378,0.9987948
C0SA90,達仁林場,2023-10-26,22.264347,120.823972,0.99837136
C1R290,石門山,2023-10-26,22.112611,120.756597,0.92128384
42HA10,萬大發電廠,2023-10-26,23.978875,121.139639,4.3619313e-09
C0R890,山海,2023-10-26,21.9878,120.7091,0.9672777
C0T9A0,月眉山,2023-10-26,23.809928,121.539828,1.943728e-08
C0AC70,信義,2023-10-26,25.037822,121.564597,0.7119942
C0K560,棋山,2023-10-26,23.68645,120.603417,0.281413
C1Z240,中平林道,2023-10-26,23.42115,121.26763,4.8419156e-07
U2H480,溪頭,2023-10-26,23.670306,120.798194,7.3677153e-09
C0M880,好美里,2023-10-26,23.3364,120.138,0.15059088
C0T9E0,大坑,2023-10-26,23.880628,121.581981,3.05055e-08
C0K530,臺西,2023-10-26,23.701547,120.197559,0.23885383
C1E900,國一N128K,2023-10-26,24.560997,120.844186,0.8968591
C0AJ50,水湳洞,2023-10-26,25.123695,121.862238,0.57043123
C0AI20,白沙灣,2023-10-26,25.283128,121.519058,0.14738177
C0A860,大坪,2023-10-26,25.165914,121.632969,1.8525248e-05
C1U850,觀音海岸,2023-10-26,24.38319,121.77856,1.3314974e-08
C0U950,鶯子嶺,2023-10-26,24.89754,121.79244,9.6426575e-08
C0O900,善化,2023-10-26,23.112883,120.297219,1.9481899e-05
C0K550,蔦松,2023-10-26,23.514319,120.229736,0.9972653
E2P980,林試六龜中心,2023-10-26,22.991703,120.645722,1.4789917e-06
C0E590,通霄,2023-10-26,24.471892,120.704622,0.15327287
C1I310,西巒,2023-10-26,23.754486,120.883956,6.0678045e-09
C0A550,泰平,2023-10-26,24.971197,121.823711,2.1126763e-05
C0I360,水里,2023-10-26,23.812553,120.849792,0.00070183486
C0R830,高士,2023-10-26,22.121825,120.836781,0.93234867
C1I101,溪頭,2023-10-26,23.661789,120.807647,5.538103e-09
C0AJ20,野柳,2023-10-26,25.20703,121.690021,0.7572081
C0B060,暖暖,2023-10-26,25.0957,121.7403,0.87974286
C1H920,長豐,2023-10-26,24.102039,120.879897,8.270421e-09
C0V360,內門,2023-10-26,22.975481,120.466769,0.00088748144
C0R850,林邊,2023-10-26,22.4634,120.5339,0.19756824
C0E930,龍鳳,2023-10-26,24.700034,120.859125,0.7453937
C0U910,冬山,2023-10-26,24.63373,121.7937,1.2192055e-07
C1E721,泰安,2023-10-26,24.489017,120.968036,6.3033476e-09
82H320,茶改中部分場,2023-10-26,23.875611,120.913583,7.361173e-08
C0M750,布袋,2023-10-26,23.380878,120.167789,0.8972826
C1S860,利嘉,2023-10-26,22.809417,121.050528,2.8991622e-07
72C440,桃園農改,2023-10-26,24.950944,121.030583,0.7006884
E2S980,林試太麻里1,2023-10-26,22.598922,120.980044,0.99858975
C0X170,關廟,2023-10-26,22.963017,120.327797,5.075442e-05
C0V720,林園,2023-10-26,22.507747,120.394511,0.018569553
C1I510,線浸林道,2023-10-26,23.761508,120.832956,5.133165e-09
C0D690,外湖,2023-10-26,24.917735,120.968711,0.7561984
C0C750,新興坑尾,2023-10-26,25.0061,121.0971,0.75039595
B2Q810,畜試南區分所,2023-10-26,21.945583,120.802167,0.8381505
C0S790,金崙,2023-10-26,22.538122,120.966875,0.9990932
C0AH90,福山植物園,2023-10-26,24.760717,121.58135,3.862116e-07
C0I540,奇萊稜線,2023-10-26,24.109231,121.326456,1.9197495e-08
C0M850,表湖,2023-10-26,23.24186,120.64166,8.5098925e-08
C0S770,大溪山,2023-10-26,22.478475,120.943325,0.9993287
C0AG80,中和,2023-10-26,24.991622,121.491792,0.007099473
C0T790,大禹嶺,2023-10-26,24.186117,121.316086,7.258998e-09
C0T9B0,水源,2023-10-26,23.991861,121.537169,2.116895e-07
C0R840,牡丹池山,2023-10-26,22.168389,120.841225,0.9988359
C1I131,桶頭,2023-10-26,23.641944,120.654117,1.6465106e-05
CAL110,布袋國中,2023-10-26,23.35893,120.18026,0.8972825
467571,新竹,2023-10-26,24.827853,121.014219,0.8222526
C0Z290,赤柯山,2023-10-26,23.36893,121.38293,5.1449884e-08
C0X280,將軍,2023-10-26,23.214999,120.13577,0.015005407
C0S690,太麻里,2023-10-26,22.60902,120.98533,6.064221e-05
C0U880,北關,2023-10-26,24.9072,121.8734,0.78222895
C1H860,瑞岩,2023-10-26,24.123772,121.18345,5.270885e-09
C0G810,埔心,2023-10-26,23.947633,120.525456,0.9670502
C0U970,大福,2023-10-26,24.80064,121.81389,0.00029322493
C1E670,南礦,2023-10-26,24.538278,121.002836,3.777026e-09
C0M520,東後寮,2023-10-26,23.369908,120.248065,0.8519818
C1E461,松安,2023-10-26,24.397972,120.986022,5.7186327e-09
72G600,臺中農改,2023-10-26,24.003028,120.534389,0.99358374
C2N160,西拉雅風管處,2023-10-26,23.189481,120.335297,4.7651283e-05
C0A640,石碇,2023-10-26,24.993969,121.662917,0.9600752
E2S960,林試太麻里2,2023-10-26,22.598,120.99775,0.99541676
C0F9Y0,桃山,2023-10-26,24.432739,121.303808,1.5427092e-08
C1I020,萬大,2023-10-26,23.979817,121.132261,3.0533307e-09
C0U940,羅東,2023-10-26,24.68184,121.74934,4.256442e-05
C0M650,朴子,2023-10-26,23.43463,120.23902,0.9960096
C1I500,大尖山,2023-10-26,23.858572,120.994889,6.636388e-09
C0G820,田尾,2023-10-26,23.901669,120.509389,0.9670502
E2K600,四湖植物園,2023-10-26,23.676986,120.163433,0.24393027
C0S730,綠島,2023-10-26,22.6672,121.47533,0.90257937
12Q970,東港工作站,2023-10-26,22.479997,120.466058,0.1995245
C0E430,南庄,2023-10-26,24.601775,121.000214,0.8218834
C1TA00,太魯閣,2023-10-26,24.15773,121.6236,0.0038088867
466920,臺北,2023-10-26,25.037658,121.514853,0.71489227
C0R600,舊泰武,2023-10-26,22.588194,120.664944,5.704808e-09
C1I260,北坑,2023-10-26,23.9246,121.006903,9.806748e-09
466910,鞍部,2023-10-26,25.182586,121.529731,3.0767023e-07
C1I230,九份二山,2023-10-26,23.961944,120.845,2.2460547e-08
C2A660,瑞芳,2023-10-26,25.113169,121.801147,0.8688043
C0R270,琉球嶼,2023-10-26,22.332244,120.362236,1.6088761e-05
C1T990,高寮,2023-10-26,23.394239,121.356808,2.6341695e-07
C0G620,芬園,2023-10-26,24.015678,120.6213,0.9911798
C1Z140,荖溪,2023-10-26,23.890575,121.45964,1.4749884e-07
C1I201,中心崙,2023-10-26,23.728722,120.712097,2.1088667e-08
C1I400,凌霄,2023-10-26,24.018778,121.004456,2.2146254e-09
C1M640,十字,2023-10-26,23.492153,120.753683,7.2474324e-09
G2P820,農試鳳山分所,2023-10-26,22.646611,120.356083,0.0106937075
C0Z270,蕃薯寮,2023-10-26,23.73835,121.540108,6.218778e-08
C0F9Q0,外埔,2023-10-26,24.347817,120.705686,0.9994905
C0K580,高鐵雲林,2023-10-26,23.737456,120.417944,0.98609996
C2I090,鳳凰,2023-10-26,23.728081,120.787347,5.388979e-09
C0U990,員山,2023-10-26,24.74435,121.72247,5.834338e-05
C0V770,大社,2023-10-26,22.730306,120.346639,0.24780878
C0X120,麻豆,2023-10-26,23.183289,120.248611,0.00016174649
C0C670,龍潭,2023-10-26,24.870056,121.221389,0.11889566
C0D680,香山濕地,2023-10-26,24.783581,120.914988,0.85287666
C0S980,勝林山,2023-10-26,22.430439,120.8938,0.22095032
C0V730,大寮,2023-10-26,22.605614,120.395717,0.0060359053
C0R570,麟洛,2023-10-26,22.65078,120.52719,0.17075828
CAG100,王功漁港,2023-10-26,23.96824,120.32586,0.014438892
C0X290,北門,2023-10-26,23.267772,120.125481,0.015005407
C2F930,大甲,2023-10-26,24.347667,120.640403,0.4688211
C0D650,湖口,2023-10-26,24.904794,121.043628,0.6433139
C0E420,竹南,2023-10-26,24.708978,120.888897,0.704583
C0U780,五結,2023-10-26,24.68637,121.79794,0.000100017554
C1I250,鯉潭,2023-10-26,23.961922,120.991131,7.037974e-08
C0R130,阿禮,2023-10-26,22.742908,120.743678,1.5697974e-08
C0X100,臺南市北區,2023-10-26,23.010394,120.194228,0.28340474
C0S920,金峰嘉蘭,2023-10-26,22.594789,120.960825,0.99868983
C0V490,新興,2023-10-26,22.627422,120.298803,0.009541474
C0F9K0,大安,2023-10-26,24.345061,120.588025,0.308614
72N100,臺南農改,2023-10-26,23.0605,120.342194,5.212012e-06
467290,古坑,2023-10-26,23.633639,120.551889,0.3781692
C0V440,鳳山,2023-10-26,22.646653,120.356122,0.0106937075
C1T940,大觀,2023-10-26,23.714206,121.373133,1.9652676e-08
72T250,花蓮農改,2023-10-26,23.975222,121.563889,0.8846575
C0E740,造橋,2023-10-26,24.637056,120.864778,0.2823546
C0R100,尾寮山,2023-10-26,22.833111,120.683889,3.8362437e-08
A2K630,臺大雲林校區,2023-10-26,23.730628,120.423903,0.98609996
C0D580,寶山,2023-10-26,24.735006,121.025192,0.48676538
E2P990,林試扇平站,2023-10-26,22.9677,120.6857,6.867894e-07
C0AI30,三重,2023-10-26,25.057328,121.500629,0.6761734
C0AH00,汐止,2023-10-26,25.066881,121.658778,0.7148925
C1Z040,立山,2023-10-26,23.443356,121.327375,7.056314e-07
C0R740,獅子,2023-10-26,22.201569,120.70525,0.22289298
C0W130,花嶼,2023-10-26,23.40007,119.32276,0.9801132
C0A950,鼻頭角,2023-10-26,25.129036,121.923372,0.2309072
C0K470,林內,2023-10-26,23.748675,120.609642,0.370668
82C160,茶改場,2023-10-26,24.908472,121.185333,0.13040541
C0Z320,清水林道,2023-10-26,23.27125,121.188272,1.12467994e-07
C0R760,南仁湖,2023-10-26,22.084681,120.863353,0.92128384
C0M670,大林,2023-10-26,23.600616,120.45841,0.46885186
C0M800,茶山,2023-10-26,23.299075,120.664767,1.143101e-06
C0A9C0,天母,2023-10-26,25.117494,121.537169,0.9055781
72K220,南改斗南分場,2023-10-26,23.634556,120.477333,0.8744392
72AI40,桃改樹林分場,2023-10-26,24.944503,121.386972,0.036607422
C0S910,蘭嶼燈塔,2023-10-26,22.081197,121.503117,0.9964962
C0B050,八斗子,2023-10-26,25.144754,121.79167,0.38474694
C0U900,內城,2023-10-26,24.71813,121.68766,9.903017e-06
C0X320,柳營,2023-10-26,23.253328,120.375253,0.00811027
C0M790,新港,2023-10-26,23.553269,120.345728,0.9975118
C0F9T0,西屯,2023-10-26,24.179494,120.641275,0.9983188
C0SA30,都歷,2023-10-26,23.020333,121.323642,0.006817437
C0C620,蘆竹,2023-10-26,25.084275,121.265767,0.22690561
C0R730,大坪頂,2023-10-26,22.024633,120.69355,0.61452264
C0AJ40,石門,2023-10-26,25.273672,121.601198,0.5744064
C0E750,苗栗,2023-10-26,24.564569,120.824575,0.9002874
C0T870,鯉魚潭,2023-10-26,23.935639,121.508944,0.020774664
C1V170,排雲,2023-10-26,23.463619,120.954147,1.9557211e-08
C2H950,中寮,2023-10-26,23.884447,120.766406,0.5764311
C0R350,貓鼻頭,2023-10-26,21.921774,120.7358,0.9938524
C0V660,岡山,2023-10-26,22.797078,120.294958,0.00068153767
C1H941,雙冬,2023-10-26,23.967378,120.802189,8.583163e-09
C0AJ70,田寮,2023-10-26,25.2698,121.4886,0.1303144
C0AI00,五股,2023-10-26,25.07445,121.42728,0.36641228
C0Z280,德武,2023-10-26,23.47426,121.41071,1.7887027e-07
C0R700,枋山,2023-10-26,22.246844,120.661086,0.05100877
C0C460,復興,2023-10-26,24.820208,121.352281,0.5903243
E2H360,蓮華池,2023-10-26,23.918333,120.885278,5.041279e-09
C0M640,中埔,2023-10-26,23.42538,120.5229,0.0014393178
C0W140,金沙,2023-10-26,24.488292,118.408778,0.28389022
C2A540,四堵,2023-10-26,24.8926,121.745736,4.299063e-06
C0ACA0,新莊,2023-10-26,25.051478,121.446756,0.3717878
C0R220,潮州,2023-10-26,22.534361,120.54,0.6974814
U2HA40,臺大內茅埔,2023-10-26,23.689722,120.851117,3.6285899e-06
467490,臺中,2023-10-26,24.145736,120.684075,0.99825174
C0U960,翠峰湖,2023-10-26,24.510856,121.608044,2.7323471e-08
E2HA20,林試畢祿溪站,2023-10-26,24.226944,121.308522,6.5727597e-09
C0V890,前鎮,2023-10-26,22.5718,120.3117,0.020671496
467620,蘭嶼,2023-10-26,22.036969,121.558339,0.99112815
C1F941,雪嶺,2023-10-26,24.280586,121.026642,1.3283672e-08
C0AC80,文山,2023-10-26,25.00235,121.575728,0.0123448875
C0F9R0,龍井,2023-10-26,24.184536,120.528972,0.42445284
C0M760,民雄,2023-10-26,23.551754,120.428457,0.658446
C0UA40,西德山,2023-10-26,24.560647,121.752608,1.9715225e-08
C1T920,中興,2023-10-26,23.769503,121.498653,4.5234694e-05
C0D550,雪霸,2023-10-26,24.526972,121.11605,7.0481265e-09
C2F860,梨山,2023-10-26,24.247522,121.243669,6.749245e-09
C0R320,車城,2023-10-26,22.0744,120.716247,0.08241158
C1S870,南美山,2023-10-26,23.15025,121.382333,0.0010352619
C0B020,基隆嶼,2023-10-26,25.19141,121.78391,0.15206295
C1U501,牛鬥,2023-10-26,24.637836,121.573656,1.4576777e-07
C0M730,嘉義市東區,2023-10-26,23.457673,120.460531,0.8145682
C0S700,知本,2023-10-26,22.684866,121.005642,4.919281e-07
C1N001,沙崙,2023-10-26,22.935472,120.309406,0.00010495771
C0V760,橋頭,2023-10-26,22.757806,120.30575,0.24667154
C0G960,福寶,2023-10-26,24.0443,120.3814,0.7440609
C0X210,白河,2023-10-26,23.347466,120.414427,0.9003885
C0S810,東河,2023-10-26,22.972672,121.303986,0.10813107
C0R670,楓港,2023-10-26,22.190131,120.692156,0.21310575
C0FA50,霧峰,2023-10-26,24.0419,120.6995,0.9949546
C0UB10,蘇澳,2023-10-26,24.5969,121.8571,7.193958e-08
C0G950,防潮門,2023-10-26,24.1835,120.4871,0.4243283
C0M740,六腳,2023-10-26,23.492871,120.290625,0.9985891
C1R250,力里,2023-10-26,22.428117,120.629228,0.8653225
C0K330,虎尾,2023-10-26,23.719183,120.442036,0.98533034
C2FA00,烏石坑,2023-10-26,24.273503,120.947617,6.6756543e-09
C0V620,永安,2023-10-26,22.82315,120.236856,0.00068153767
C1I330,楓樹林,2023-10-26,23.986803,121.076117,2.537304e-09
C0W200,湖西,2023-10-26,23.596314,119.67275,0.99075603
72Q010,高雄農改場,2023-10-26,22.709333,120.525889,0.23921008
C0SA40,瑞和,2023-10-26,22.974361,121.156697,0.0001021248
C0C680,龜山,2023-10-26,25.02846,121.38656,0.729408
C2V260,月眉,2023-10-26,22.971003,120.539853,0.04363492
C0V450,鳳森,2023-10-26,22.545064,120.392592,0.0015503451
C0U720,南山,2023-10-26,24.43742,121.38167,7.830714e-08
A2N290,臺南蘭花園區,2023-10-26,23.340258,120.379661,0.4515157
C0R560,新園,2023-10-26,22.5434,120.461558,0.018569553
C0U890,三星,2023-10-26,24.66812,121.65302,5.3563867e-06
C1V300,御油山,2023-10-26,23.001983,120.715364,1.1669237e-08
C0U600,礁溪,2023-10-26,24.817539,121.765608,0.1056446
C1T980,龍澗,2023-10-26,24.023289,121.411328,1.1637147e-07
C0D670,海天一線,2023-10-26,24.831986,120.914438,0.58214456
C0SA00,歷坵,2023-10-26,22.520969,120.89185,0.9964195
C0M710,東石,2023-10-26,23.458927,120.15385,0.9032714
C0M780,鹿草,2023-10-26,23.41134,120.30835,0.9945615
C0U520,雙連埤,2023-10-26,24.753033,121.641303,3.6018793e-08
C0B010,七堵,2023-10-26,25.094819,121.71713,0.8294132
C0R480,長治,2023-10-26,22.693128,120.542622,0.057981603
C1V830,國三S383K,2023-10-26,22.781967,120.426475,0.47507292
12Q980,恆春工作站,2023-10-26,22.079678,120.714425,0.08241158
C1O940,東山服務區,2023-10-26,23.286016,120.398472,0.6120567
C1U840,東澳嶺,2023-10-26,24.5378,121.8485,6.5651045e-09
C1D630,飛鳳山,2023-10-26,24.766464,121.119178,0.59439075
C0S940,石寧山,2023-10-26,23.223772,121.406639,2.4036595e-05
C0K410,北港,2023-10-26,23.573957,120.292802,0.9985862
C2M620,瑞里,2023-10-26,23.545133,120.675197,6.98123e-09
C2O950,安南,2023-10-26,23.076694,120.144861,0.18561253
C0F0E0,南湖圈谷,2023-10-26,24.363714,121.444667,3.750373e-08
467610,成功,2023-10-26,23.097486,121.373428,0.9576418
C0G890,伸港,2023-10-26,24.148933,120.484403,0.76014394
C2E540,龍溪,2023-10-26,24.606489,120.783933,0.28078473
C1V200,梅山,2023-10-26,23.268447,120.823556,1.5342412e-07
C0T9H0,加路蘭山,2023-10-26,23.682947,121.5274,1.2604634e-08
C2O930,玉井,2023-10-26,23.126042,120.46055,0.00044950482
C1F911,新伯公,2023-10-26,24.221361,120.841069,0.027536374
C0R490,九如,2023-10-26,22.7405,120.490503,0.26437795
C0X200,左鎮,2023-10-26,23.056758,120.408522,0.00015393697
C1F891,稍來,2023-10-26,24.265689,121.001142,8.897559e-09
72N240,七股研究中心,2023-10-26,23.081672,120.062894,0.19355851
C0C700,中壢,2023-10-26,24.977661,121.256375,0.04767972
C0M690,水上,2023-10-26,23.419734,120.388909,0.99411196
C0V690,鼓山,2023-10-26,22.623325,120.275575,0.012876143
C0O860,大內,2023-10-26,23.11885,120.36083,8.419909e-06
C0Z200,萬榮,2023-10-26,23.709219,121.420106,1.1557156e-06
C0T9D0,和中,2023-10-26,24.26676,121.74103,0.5135048
C1O921,楠西,2023-10-26,23.183511,120.484083,0.0011107177
C0AJ30,淡水觀海,2023-10-26,25.184591,121.408616,0.69672984
C0V810,左營,2023-10-26,22.67491,120.28491,0.014794399
C0UA70,桃源谷,2023-10-26,24.962606,121.888875,1.3702528e-06
C0X130,官田,2023-10-26,23.193217,120.315422,6.565726e-05
C1H000,翠峰,2023-10-26,24.109397,121.205211,1.0633152e-08
C0UA90,石城,2023-10-26,24.980444,121.951214,0.83806425
C1E681,南勢山,2023-10-26,24.421669,120.923831,1.2654883e-08
C0A9F0,內湖,2023-10-26,25.079422,121.57545,0.71489227
C0K291,宜梧,2023-10-26,23.536281,120.169329,0.9972606
C1K540,口湖,2023-10-26,23.585344,120.180517,0.2415658
C0R780,滿州,2023-10-26,22.024403,120.839892,0.14553858
C0V870,文安,2023-10-26,22.8025,120.2164,0.00088172714
C0U650,玉蘭,2023-10-26,24.675286,121.587061,2.5701715e-07
C0R640,東港,2023-10-26,22.46247,120.44074,0.1995245
K2E360,苗栗農改,2023-10-26,24.495722,120.829111,0.99623215
C0AJ80,板橋,2023-10-26,25.0107,121.4489,0.006808921
C0S660,下馬,2023-10-26,23.150427,121.070312,1.4828443e-07
C1H9B1,阿眉,2023-10-26,24.1263,120.994672,7.0809234e-09
C0UA20,多加屯,2023-10-26,24.368614,121.373189,7.028406e-09
C0E730,頭份,2023-10-26,24.688247,120.912206,0.7135773
72V140,高改旗南分場,2023-10-26,22.857861,120.516667,0.8466003
C0K480,莿桐,2023-10-26,23.761192,120.502372,0.99536204
C0U980,坪林石牌,2023-10-26,24.86478,121.77396,4.7510994e-08
C0T900,西林,2023-10-26,23.8119,121.441458,5.947036e-07
C1I150,青雲,2023-10-26,23.793361,120.949378,2.0743734e-07
467350,澎湖,2023-10-26,23.565503,119.563094,0.9915854
C0G800,埔鹽,2023-10-26,24.000394,120.431683,0.82371116
C0H960,草屯,2023-10-26,23.973672,120.68085,0.9925703
C1V780,多納林道,2023-10-26,22.888028,120.737917,2.6855362e-08
C0E920,通霄漁港,2023-10-26,24.498589,120.673876,0.15143251
C0Z330,安通山,2023-10-26,23.290728,121.348528,8.960693e-09
C0AH10,永和,2023-10-26,25.01125,121.508111,0.006836101
C2G640,鹿港,2023-10-26,24.0753,120.430481,0.7440609
C1E890,國三N149K,2023-10-26,24.463414,120.680019,0.32239166
C1R110,口社,2023-10-26,22.770111,120.645222,0.22823825
C1M870,國三N285K,2023-10-26,23.550319,120.505833,0.36872876
467050,新屋,2023-10-26,25.006744,121.047486,0.7944037
C1E480,鳳美,2023-10-26,24.554803,121.034747,1.3275927e-07
C0M530,奮起湖,2023-10-26,23.493903,120.699253,6.657484e-09
C0C590,觀音,2023-10-26,25.027072,121.153317,0.81791204
C0T9M0,靜浦,2023-10-26,23.455167,121.495028,1.068076e-05
C0AI40,石牌,2023-10-26,25.115597,121.513139,0.8961674
C1F871,上谷關,2023-10-26,24.203483,121.018644,3.786388e-09
C0G880,二水,2023-10-26,23.810742,120.6173,0.82287663
C0R940,加祿堂,2023-10-26,22.3363,120.6217,0.33714804
C0W220,北竿,2023-10-26,26.220358,119.974881,0.06273233
C0O960,崎頂,2023-10-26,22.959547,120.369317,1.0693853e-06
C0S750,向陽,2023-10-26,23.248397,120.986133,1.4772838e-08
C0T9F0,水璉,2023-10-26,23.797131,121.542514,1.2537443e-07
C1M600,頭凍,2023-10-26,23.406364,120.603339,1.9596866e-08
467660,臺東,2023-10-26,22.752211,121.154586,0.23042162
C1D380,新埔,2023-10-26,24.84745,121.03834,0.76629364
C0V750,路竹,2023-10-26,22.854997,120.259439,0.03197126
C0N050,蚵寮,2023-10-26,23.301,120.1104,0.15059088
72M700,南改鹿草分場,2023-10-26,23.416869,120.283061,0.9960096
C1SA50,利嘉林道,2023-10-26,22.82325,121.009389,1.1537471e-07
467550,玉山,2023-10-26,23.487614,120.959522,1.9448777e-08
C0A940,金山,2023-10-26,25.223628,121.643967,0.79537165
C1V340,大津,2023-10-26,22.888322,120.645986,0.57328206
C0W180,七美,2023-10-26,23.219333,119.444892,0.9889746
C1F9C1,白冷,2023-10-26,24.182844,120.929889,9.940782e-08
K2E710,苗改生物防治研究中心,2023-10-26,24.422861,120.871833,0.07740901
C0N040,蘆竹溝,2023-10-26,23.2344,120.0961,0.015005407
C2W230,畜試所澎湖,2023-10-26,23.628342,119.513206,0.99065244
C0R880,後壁湖,2023-10-26,21.9457,120.7457,0.9690995
C1I280,埔中,2023-10-26,23.820778,120.642594,1.5519163e-07
467790,墾丁雷達站,2023-10-26,21.948235,120.808028,0.79211915
C0W190,望安,2023-10-26,23.380564,119.494075,0.97740126
466881,新北,2023-10-26,24.9593,121.52,0.008047106
C0Z170,卓溪,2023-10-26,23.3443,121.3029,6.7298636e-08
C0F850,東勢,2023-10-26,24.246428,120.833047,0.8901706
466900,淡水,2023-10-26,25.164889,121.448906,0.16940503
C0I370,魚池,2023-10-26,23.895703,120.94135,9.022226e-09
C0C630,大溪,2023-10-26,24.882853,121.265547,0.08409649
C0A520,山佳,2023-10-26,24.974944,121.402008,0.031621855
C0I110,竹山,2023-10-26,23.761225,120.688156,0.45125014
82H840,茶改南部分場,2023-10-26,23.762528,120.7405,6.686661e-07
C0G660,溪湖,2023-10-26,23.94835,120.479122,0.97443295
C1T800,洛韶,2023-10-26,24.204558,121.453956,8.125572e-08
C1T810,慈恩,2023-10-26,24.192044,121.388386,7.036239e-09
C1E451,象鼻,2023-10-26,24.368617,120.940228,6.3534156e-09
C0AC60,三峽,2023-10-26,24.939025,121.369728,0.03810979
C0I490,萬大林道,2023-10-26,23.928228,121.091411,3.5842032e-09
C1I290,豐丘,2023-10-26,23.668178,120.887417,7.0140365e-09
C1I320,奧萬大,2023-10-26,23.952956,121.178556,3.633577e-09
C0U770,南澳,2023-10-26,24.44935,121.81022,8.1723535e-09
C0A980,社子,2023-10-26,25.109508,121.469681,0.18224266
C0V800,六龜,2023-10-26,22.997889,120.633583,6.7790193e-06
C1G9D0,國一S218K,2023-10-26,23.890641,120.493253,0.991333
C2F9A0,中竹林,2023-10-26,24.103556,120.751061,0.0010956546
C0FA40,臺中電廠,2023-10-26,24.2146,120.4907,0.42467156
C0H9C0,合歡山,2023-10-26,24.143442,121.272547,1.3509907e-08
C0X060,下營,2023-10-26,23.22695,120.256261,0.02693957
G2M350,農試溪口農場,2023-10-26,23.58565,120.408111,0.83146423
C0U860,頭城,2023-10-26,24.85323,121.8308,0.14409165
C0R580,南州,2023-10-26,22.48591,120.50274,0.1995245
C0D430,峨眉,2023-10-26,24.6905,121.017189,0.3536076
C0G780,秀水,2023-10-26,24.03405,120.503869,0.99358374
72N100,臺南農改場,2023-10-26,23.0605,120.342194,5.212012e-06
C0S900,蘭嶼高中,2023-10-26,22.04909,121.51214,0.998499
467540,大武,2023-10-26,22.355675,120.903789,0.58865917
C1F9W0,德基,2023-10-26,24.254783,121.190261,7.736543e-09
C1Z120,壽豐,2023-10-26,23.870853,121.508081,0.013598117
C0W160,烏坵,2023-10-26,24.9944,119.44956,0.9222771
C1I240,外大坪,2023-10-26,23.958697,120.917931,5.693897e-08
C1I550,國六W023K,2023-10-26,23.979067,120.867742,4.9529723e-07
C0R870,興海,2023-10-26,21.9752,120.8439,0.8381505
C0R140,瑪家,2023-10-26,22.682903,120.686639,3.730618e-08
C0A530,坪林,2023-10-26,24.938183,121.70975,2.942901e-05
C0X260,後壁,2023-10-26,23.366358,120.362326,0.4461396
C0Z230,和平,2023-10-26,24.30717,121.77007,0.6008906
C0G770,福興,2023-10-26,24.041289,120.437669,0.8235062
C0H9A0,神木村,2023-10-26,23.532742,120.843667,7.1938313e-09
C0I460,南投,2023-10-26,23.911469,120.687331,0.989624
C0I480,梅峰,2023-10-26,24.085272,121.173572,3.9607357e-09
C1V570,吉東,2023-10-26,22.85422,120.5454,0.7963632
C2A560,福山,2023-10-26,24.776203,121.502811,1.339365e-05
C0AH30,五分山,2023-10-26,25.07125,121.780794,5.5205453e-07
C0FA10,松柏,2023-10-26,24.429115,120.617482,0.25324988
72S200,東改班鳩分場,2023-10-26,22.829528,121.077694,0.55858284
72HA00,中改埔里分場,2023-10-26,23.903208,120.963364,6.599668e-09
C0C650,平鎮,2023-10-26,24.897503,121.214636,0.24878164
C0S930,延平,2023-10-26,22.902581,121.084058,0.0037573192
C0UA60,樟樹山,2023-10-26,24.41393,121.78325,1.057767e-07
C1S670,摩天,2023-10-26,23.199503,121.027,7.376507e-08
C0V630,茄萣,2023-10-26,22.906642,120.182608,0.056067705
466940,基隆,2023-10-26,25.133314,121.740475,0.43712562
C0X050,東河,2023-10-26,23.296598,120.385608,0.75166494
C0R770,保力,2023-10-26,22.071122,120.764111,0.30157363
G2L020,農試嘉義分所,2023-10-26,23.485028,120.473806,0.056034833
C0X240,關子嶺,2023-10-26,23.331169,120.508025,9.1487124e-08
C0I380,集集,2023-10-26,23.828206,120.801467,0.0012019939
466990,花蓮,2023-10-26,23.975128,121.613275,0.8873242
C1V220,小關山,2023-10-26,23.154217,120.813603,1.2307177e-08
C1F9G1,慶福山,2023-10-26,24.180853,120.848378,5.609287e-09
C0Z250,瑞穗林道,2023-10-26,23.49284,121.30688,5.701303e-07
C0D590,新豐,2023-10-26,24.87068,120.97721,0.37471718
C0A870,五指山,2023-10-26,25.132153,121.608692,4.616162e-08
C0UA50,西帽山,2023-10-26,24.555361,121.802628,3.0779315e-08
C0X160,仁德,2023-10-26,22.968258,120.257689,0.08214272
C1H971,六分寮,2023-10-26,23.92507,120.6378,2.1760526e-07
C0W120,西嶼,2023-10-26,23.5626,119.468436,0.98842627
C0G650,員林,2023-10-26,23.946503,120.585597,0.99581563
C0AD50,鶯歌,2023-10-26,24.951533,121.346294,0.041904874
C0S990,山豬窟,2023-10-26,22.318619,120.857372,0.996935
72Q010,高雄農改,2023-10-26,22.709333,120.525889,0.23921008
C0X190,安平,2023-10-26,22.993161,120.152181,0.28374374
C0K400,斗六,2023-10-26,23.720583,120.541127,0.83712685
12J990,口湖工作站,2023-10-26,23.589978,120.180394,0.24157646
C0O830,北寮,2023-10-26,23.079561,120.495008,0.0032394642
C1D410,白蘭,2023-10-26,24.579364,121.079947,3.825391e-09
C0S970,加津林,2023-10-26,22.416211,120.926942,0.6490635
C0D700,關西,2023-10-26,24.7977,121.1732,0.24709035
C0M810,里佳,2023-10-26,23.389125,120.716647,8.985543e-09
C0U750,龜山島,2023-10-26,24.841667,121.953133,0.15497744
C0R810,內獅,2023-10-26,22.305064,120.642986,0.3257018
C1M390,龍美,2023-10-26,23.406728,120.654417,1.170957e-08
C1H840,國三N238K,2023-10-26,23.841008,120.707711,2.7067703e-05
CAQ030,崎峰國小,2023-10-26,22.42565,120.49521,0.1995245
C2E520,大湖,2023-10-26,24.414939,120.870872,0.0064416328
467530,阿里山,2023-10-26,23.508208,120.813242,1.1559031e-08
C1E691,南湖,2023-10-26,24.40135,120.837533,5.648143e-08
C0FA30,梧棲,2023-10-26,24.256003,120.523381,0.3824974
C1V231,高中,2023-10-26,23.134911,120.716711,2.1049928e-08
C0F9V0,新社,2023-10-26,24.200172,120.815806,1.4211069e-05
C0H890,埔里,2023-10-26,23.972169,120.952425,4.8899064e-08
C0R690,墾丁,2023-10-26,21.966756,120.810269,0.22160184
C0F0D0,審馬陣,2023-10-26,24.381675,121.4203,1.0805607e-08
C0R820,白鷺,2023-10-26,22.454275,120.666219,0.002089477
U2H480,臺大溪頭,2023-10-26,23.670306,120.798194,7.3677153e-09
C1V190,南天池,2023-10-26,23.27403,120.91176,1.3528834e-08
K2E360,苗栗農改場,2023-10-26,24.495722,120.829111,0.99623215
CAJ050,海口故事園區,2023-10-26,23.57543,120.14121,0.2415658
C0O990,媽廟,2023-10-26,22.99175,120.293525,0.00026721213
C0D480,打鐵坑,2023-10-26,24.849664,121.150789,0.13388935
C0Z220,和平林道,2023-10-26,24.343922,121.656317,2.0775623e-08
72C440,桃園農改場,2023-10-26,24.950944,121.030583,0.7006884
C1E711,馬拉邦山,2023-10-26,24.367306,120.901656,5.6245857e-09
C0D560,竹東,2023-10-26,24.767147,121.057881,0.2467434
C0F9U0,南屯,2023-10-26,24.137006,120.637969,0.9981853
C0M720,番路,2023-10-26,23.464657,120.554156,9.968729e-06
C0F0A0,雪山圈谷,2023-10-26,24.388594,121.236339,1.658334e-08
C1A9N0,四十份,2023-10-26,24.934158,121.593283,0.776922
C0U760,東澳,2023-10-26,24.52196,121.83318,1.4444559e-08
C0X230,鹽水,2023-10-26,23.272621,120.247641,0.111186884
C0V370,古亭坑,2023-10-26,22.893178,120.401947,0.0024798836
C1I340,新興橋,2023-10-26,23.563333,120.868728,3.0349906e-08
C0SA80,土坂,2023-10-26,22.453108,120.887572,0.96335685
C0R160,鹽埔,2023-10-26,22.739558,120.530778,0.23921008
C0AC40,大屯山,2023-10-26,25.175675,121.522408,5.9672885e-08
466850,五分山雷達站,2023-10-26,25.071182,121.781205,5.1553377e-07
C1AI50,國三N016K,2023-10-26,25.034164,121.619664,0.7747457
C1V600,藤枝,2023-10-26,23.071961,120.757042,1.3201986e-08
C1E601,南勢,2023-10-26,24.572486,120.734842,0.3147448
C0Z180,新城,2023-10-26,24.03946,121.60454,0.8858674
C0O980,新市,2023-10-26,23.061614,120.298197,1.945249e-05
C0K420,西螺,2023-10-26,23.800407,120.467394,0.99648386
C0Z050,佳心,2023-10-26,23.34567,121.21316,6.7343706e-08
C0AD30,蘆洲,2023-10-26,25.086594,121.472331,0.67650336
C0V610,梓官,2023-10-26,22.760558,120.267211,0.24667154
K2F750,種苗改良場,2023-10-26,24.225972,120.800917,0.00073382107
C0UA80,大溪漁港,2023-10-26,24.941801,121.902955,0.7590586
C1AI60,國一39K邊坡,2023-10-26,25.064361,121.383836,0.5586998
C0W150,金寧,2023-10-26,24.457703,118.328989,0.95572823
V2C250,八德合作社,2023-10-26,24.93775,121.266389,0.15694219
C0AH40,平等,2023-10-26,25.129142,121.577086,3.3251301e-06
C0R540,佳冬,2023-10-26,22.419456,120.552375,0.21041526
466950,彭佳嶼,2023-10-26,25.627975,122.079744,0.68959725
C0A890,雙溪,2023-10-26,25.036003,121.864242,0.78572357
C0C480,桃園,2023-10-26,24.992425,121.323172,0.03246836
C0AH50,林口,2023-10-26,25.072181,121.38084,0.793918
A2K360,水試臺西試驗場,2023-10-26,23.717231,120.190522,0.23135565
B2N890,畜試所,2023-10-26,23.058972,120.336406,5.212012e-06
C0F9S0,烏日,2023-10-26,24.107058,120.624103,0.9988963
C0C490,八德,2023-10-26,24.928708,121.283289,0.1808779
C0R190,赤山,2023-10-26,22.592333,120.614306,0.7818886
C0T820,天祥,2023-10-26,24.179597,121.495639,0.0011656537
C1F9E1,龍安,2023-10-26,24.1605,120.831961,3.8952774e-07
C0V820,小林,2023-10-26,23.148408,120.63325,4.388437e-08
C2G870,芳苑,2023-10-26,23.922303,120.320025,0.014766797
C0E850,大河,2023-10-26,24.618069,120.948578,0.70264596
C1U670,寒溪,2023-10-26,24.634,121.71691,3.0384253e-08
C0N020,城西,2023-10-26,23.0568,120.0956,0.28356797
C1Z110,三棧,2023-10-26,24.11557,121.60501,7.980295e-06
C0R280,檳榔,2023-10-26,22.076078,120.836777,0.9178929
C0F9L0,后里,2023-10-26,24.310436,120.729725,0.99672014
C0D540,橫山,2023-10-26,24.71116,121.11693,0.73124236
C1D420,太閣南,2023-10-26,24.632808,121.160575,2.8505822e-08
C1E770,公館,2023-10-26,24.526914,120.830806,0.99450326
CAN130,水試所海水繁養殖中心,2023-10-26,23.120802,120.07968,0.19355851
C1I430,翠華,2023-10-26,24.191961,121.224339,4.6428354e-09
C1M400,菜瓜坪,2023-10-26,23.251928,120.576103,3.3853865e-07
C0G730,二林,2023-10-26,23.903325,120.376081,0.88976043
72M360,南改義竹分場,2023-10-26,23.360694,120.279361,0.8372915
V2K620,麥寮合作社,2023-10-26,23.753836,120.294783,0.9965959
C0Z070,舞鶴,2023-10-26,23.46811,121.37407,7.63059e-08
C0B040,大武崙,2023-10-26,25.166676,121.706993,0.6758589
C1Z030,紅葉,2023-10-26,23.493119,121.338806,9.281146e-08
C1I050,丹大,2023-10-26,23.753747,121.141147,9.603688e-09
C0I080,信義,2023-10-26,23.689694,120.851036,3.6285899e-06
C2A880,福隆,2023-10-26,25.017842,121.942083,0.8416321
C0Z160,鳳林,2023-10-26,23.746114,121.453411,3.148606e-06
C0V210,復興,2023-10-26,23.222403,120.806089,1.3528689e-06
C0H990,昆陽,2023-10-26,24.121322,121.273642,1.7012386e-08
C0S710,鹿野,2023-10-26,22.917711,121.122994,6.905086e-08
C0I530,小奇萊,2023-10-26,24.131764,121.295717,1.7766773e-08
C0Z080,富源,2023-10-26,23.587642,121.378225,5.77692e-07
467441,高雄,2023-10-26,22.7304,120.3125,0.24780878
C1I140,卡奈托灣,2023-10-26,23.754364,121.087872,3.2142502e-09
C0I520,玉山風口,2023-10-26,23.470489,120.955994,2.1380682e-08
C1G691,下水埔,2023-10-26,23.816114,120.5676,0.993995
C0X110,臺南市南區,2023-10-26,22.961189,120.188378,0.08194863
C0V680,仁武,2023-10-26,22.701083,120.347722,0.01481596
C2G840,北斗,2023-10-26,23.877586,120.514222,0.99052286
C0R900,竹坑,2023-10-26,22.1385,120.7022,0.081701264
C0K250,崙背,2023-10-26,23.75555,120.318925,0.9965946
C0G860,社頭,2023-10-26,23.897647,120.5862,0.99087334
C0X150,安定,2023-10-26,23.102614,120.227839,0.0014851438
C0R590,里港,2023-10-26,22.77919,120.49459,0.7726101
C0E610,馬都安,2023-10-26,24.451272,120.930192,3.1312418e-08
C0E550,明德,2023-10-26,24.583486,120.885411,0.91083384
C0R150,三地門,2023-10-26,22.709889,120.639944,0.26647016
C0G910,花壇,2023-10-26,24.032076,120.549461,0.9926386
C1D400,鳥嘴山,2023-10-26,24.71909,121.28387,7.55039e-07
C0K500,元長,2023-10-26,23.64981,120.315024,0.9977636
C0F0B0,石岡,2023-10-26,24.276061,120.777644,0.99330103
C2V250,甲仙,2023-10-26,23.080106,120.591758,1.2780433e-06
C0SA20,金崙山,2023-10-26,22.567419,120.959667,1.0122317e-07
C0V350,溪埔,2023-10-26,22.738578,120.446797,0.75493455
C0M660,溪口,2023-10-26,23.604131,120.403569,0.83146423
C1S880,壽卡,2023-10-26,22.238911,120.858903,0.997981
72D680,桃改新埔分場,2023-10-26,24.834444,121.066111,0.7776409
