站號,站名,日期,lat,lon,BlastGRU-TW
12J990,口湖工作站,2023-12-28,23.589978,120.180394,0.20087546
12Q970,東港工作站,2023-12-28,22.479997,120.466058,0.6599519
12Q980,恆春工作站,2023-12-28,22.079678,120.714425,0.0014720696
466881,新北,2023-12-28,24.9593,121.52,0.05874617
466900,淡水,2023-12-28,25.164889,121.448906,0.012384058
466920,臺北,2023-12-28,25.037658,121.514853,0.054013226
466940,基隆,2023-12-28,25.133314,121.740475,0.009853865
466990,花蓮,2023-12-28,23.975128,121.613275,0.02225082
467050,新屋,2023-12-28,25.006744,121.047486,0.005004827
467080,宜蘭,2023-12-28,24.763975,121.756528,0.023371538
467270,田中,2023-12-28,23.873803,120.581286,0.19626121
467300,東吉島,2023-12-28,23.25695,119.667467,0.0011416696
467350,澎湖,2023-12-28,23.565503,119.563094,0.00058326015
467410,臺南,2023-12-28,22.993239,120.204772,0.52359796
467420,永康,2023-12-28,23.038386,120.2367,0.4721325
467441,高雄,2023-12-28,22.7304,120.3125,0.62360877
467480,嘉義,2023-12-28,23.495925,120.432906,0.4947747
467490,臺中,2023-12-28,24.145736,120.684075,0.024228795
467540,大武,2023-12-28,22.355675,120.903789,0.5587162
467571,新竹,2023-12-28,24.827853,121.014219,0.01611303
467590,恆春,2023-12-28,22.003897,120.746339,0.02240526
467610,成功,2023-12-28,23.097486,121.373428,0.056303155
467620,蘭嶼,2023-12-28,22.036969,121.558339,0.0022722064
467660,臺東,2023-12-28,22.752211,121.154586,0.15179783
467790,墾丁雷達站,2023-12-28,21.948235,120.808028,0.0037096576
72AI40,桃改樹林分場,2023-12-28,24.944503,121.386972,0.051062126
72C440,桃園農改,2023-12-28,24.950944,121.030583,0.005983531
72C440,桃園農改場,2023-12-28,24.950944,121.030583,0.005983531
72D680,桃改新埔分場,2023-12-28,24.834444,121.066111,0.01468278
72G600,臺中農改,2023-12-28,24.003028,120.534389,0.25025487
72G600,臺中農改場,2023-12-28,24.003028,120.534389,0.2502548
72K220,南改斗南分場,2023-12-28,23.634556,120.477333,0.44572374
72M360,南改義竹分場,2023-12-28,23.360694,120.279361,0.47560683
72M700,南改鹿草分場,2023-12-28,23.416869,120.283061,0.527115
72N100,臺南農改,2023-12-28,23.0605,120.342194,0.48968527
72N100,臺南農改場,2023-12-28,23.0605,120.342194,0.48968527
72N240,七股研究中心,2023-12-28,23.081672,120.062894,0.14564401
72Q010,高雄農改,2023-12-28,22.709333,120.525889,0.70946264
72Q010,高雄農改場,2023-12-28,22.709333,120.525889,0.7094628
72S200,東改班鳩分場,2023-12-28,22.829528,121.077694,0.018779464
72S590,東改賓朗果園,2023-12-28,22.813889,121.071278,0.012936253
72T250,花蓮農改,2023-12-28,23.975222,121.563889,0.14342538
72T250,花蓮農改場,2023-12-28,23.975222,121.563889,0.14342538
72U480,花改蘭陽分場,2023-12-28,24.686306,121.716583,0.017724382
72V140,高改旗南分場,2023-12-28,22.857861,120.516667,0.7512044
82A750,茶改北部分場,2023-12-28,24.955778,121.631222,0.0028077024
82C160,茶改場,2023-12-28,24.908472,121.185333,0.009436875
82H840,茶改南部分場,2023-12-28,23.762528,120.7405,0.029033571
82S580,茶改東部分場,2023-12-28,22.907694,121.130139,0.038493957
A2C560,農工中心,2023-12-28,24.985917,121.239833,0.012933372
A2K360,水試臺西試驗場,2023-12-28,23.717231,120.190522,0.055305406
A2K570,古坑花卉中心,2023-12-28,23.63353,120.55239,0.26284957
A2K630,臺大雲林校區,2023-12-28,23.730628,120.423903,0.39825073
A2N290,臺南蘭花園區,2023-12-28,23.340258,120.379661,0.4662006
B2E890,畜試北區分所,2023-12-28,24.527806,120.770972,0.011454139
B2N890,畜產試驗所,2023-12-28,23.058972,120.336406,0.48968527
B2N890,畜試所,2023-12-28,23.058972,120.336406,0.48968527
B2Q810,畜試南區分所,2023-12-28,21.945583,120.802167,0.0037706767
B2U990,畜試東區分所,2023-12-28,24.669039,121.832561,0.054264653
C0A520,山佳,2023-12-28,24.974944,121.402008,0.030933164
C0A530,坪林,2023-12-28,24.938183,121.70975,0.0036007876
C0A540,四堵,2023-12-28,24.8926,121.745736,0.0011673304
C0A550,泰平,2023-12-28,24.971197,121.823711,0.00088011596
C0A560,福山,2023-12-28,24.776203,121.502811,0.00040658202
C0A570,桶後,2023-12-28,24.848222,121.597992,0.002233439
C0A640,石碇,2023-12-28,24.993969,121.662917,0.0014829428
C0A650,火燒寮,2023-12-28,25.002719,121.742892,0.0020162438
C0A660,瑞芳,2023-12-28,25.113169,121.801147,0.0020190515
C0A770,科教館,2023-12-28,25.096356,121.516507,0.031562515
C0A860,大坪,2023-12-28,25.165914,121.632969,0.0012888991
C0A880,福隆,2023-12-28,25.017842,121.942083,0.018475432
C0A890,雙溪,2023-12-28,25.036003,121.864242,0.012423973
C0A920,富貴角,2023-12-28,25.263783,121.565258,0.0012660585
C0A931,三和,2023-12-28,25.233153,121.595236,0.0036292092
C0A940,金山,2023-12-28,25.223628,121.643967,0.0043392205
C0A950,鼻頭角,2023-12-28,25.129036,121.923372,0.03613882
C0A970,三貂角,2023-12-28,25.007606,122.002058,0.017436683
C0A980,社子,2023-12-28,25.109508,121.469681,0.01605071
C0A9C0,天母,2023-12-28,25.117494,121.537169,0.034445215
C0A9F0,內湖,2023-12-28,25.079422,121.57545,0.01702498
C0AC60,三峽,2023-12-28,24.939025,121.369728,0.04492751
C0AC70,信義,2023-12-28,25.037822,121.564597,0.038246475
C0AC80,文山,2023-12-28,25.00235,121.575728,0.0106299
C0ACA0,新莊,2023-12-28,25.051478,121.446756,0.034457795
C0AD00,三芝,2023-12-28,25.258131,121.501917,0.004122672
C0AD10,八里,2023-12-28,25.150211,121.403947,0.0053155194
C0AD30,蘆洲,2023-12-28,25.086594,121.472331,0.03156249
C0AD40,土城,2023-12-28,24.973208,121.445169,0.04945915
C0AD50,鶯歌,2023-12-28,24.951533,121.346294,0.03708712
C0AG80,中和,2023-12-28,24.991622,121.491792,0.027929984
C0AH00,汐止,2023-12-28,25.066881,121.658778,0.01700348
C0AH10,永和,2023-12-28,25.01125,121.508111,0.030044636
C0AH40,平等,2023-12-28,25.129142,121.577086,0.0011550159
C0AH50,林口,2023-12-28,25.072181,121.38084,0.0043579354
C0AH70,松山,2023-12-28,25.04871,121.55042,0.038246498
C0AH80,深坑,2023-12-28,25.002703,121.628328,0.0062556667
C0AI00,五股,2023-12-28,25.07445,121.42728,0.009101283
C0AI10,屈尺,2023-12-28,24.92184,121.54475,0.00988601
C0AI20,白沙灣,2023-12-28,25.283128,121.519058,0.00439369
C0AI30,三重,2023-12-28,25.057328,121.500629,0.057516035
C0AI40,石牌,2023-12-28,25.115597,121.513139,0.06754568
C0AJ20,野柳,2023-12-28,25.20703,121.690021,0.016554255
C0AJ30,淡水觀海,2023-12-28,25.184591,121.408616,0.024234006
C0AJ40,石門,2023-12-28,25.273672,121.601198,0.0021546348
C0AJ50,水湳洞,2023-12-28,25.123695,121.862238,0.002828278
C0AJ60,六塊厝,2023-12-28,25.24,121.4481,0.0066058794
C0AJ70,田寮,2023-12-28,25.2698,121.4886,0.0066865142
C0AJ80,板橋,2023-12-28,25.0107,121.4489,0.019809492
C0AJ90,澳底,2023-12-28,25.0552,121.9253,0.021329705
C0B010,七堵,2023-12-28,25.094819,121.71713,0.010248641
C0B020,基隆嶼,2023-12-28,25.19141,121.78391,0.007238991
C0B040,大武崙,2023-12-28,25.166676,121.706993,0.0044519794
C0B050,八斗子,2023-12-28,25.144754,121.79167,0.009019351
C0B060,暖暖,2023-12-28,25.0957,121.7403,0.005944382
C0C460,復興,2023-12-28,24.820208,121.352281,0.0008858855
C0C480,桃園,2023-12-28,24.992425,121.323172,0.0120163085
C0C490,八德,2023-12-28,24.928708,121.283289,0.013124692
C0C590,觀音,2023-12-28,25.027072,121.153317,0.0019419056
C0C620,蘆竹,2023-12-28,25.084275,121.265767,0.0061283084
C0C630,大溪,2023-12-28,24.882853,121.265547,0.007835293
C0C650,平鎮,2023-12-28,24.897503,121.214636,0.0044995993
C0C660,楊梅,2023-12-28,24.912375,121.143047,0.010739391
C0C670,龍潭,2023-12-28,24.870056,121.221389,0.005156851
C0C680,龜山,2023-12-28,25.02846,121.38656,0.005020173
C0C700,中壢,2023-12-28,24.977661,121.256375,0.008558403
C0C710,大溪永福,2023-12-28,24.892936,121.324975,0.0088920025
C0C720,竹圍,2023-12-28,25.112692,121.239824,0.0043212706
C0C730,中大臨海站,2023-12-28,24.966126,121.008581,0.0036214448
C0C740,觀音工業區,2023-12-28,25.064764,121.114856,0.0034188938
C0C750,新興坑尾,2023-12-28,25.0061,121.0971,0.0057573137
C0D430,峨眉,2023-12-28,24.6905,121.017189,0.0028530834
C0D480,打鐵坑,2023-12-28,24.849664,121.150789,0.0037263916
C0D540,橫山,2023-12-28,24.71116,121.11693,0.0019707475
C0D560,竹東,2023-12-28,24.767147,121.057881,0.008634732
C0D580,寶山,2023-12-28,24.735006,121.025192,0.004667116
C0D590,新豐,2023-12-28,24.87068,120.97721,0.0047631413
C0D650,湖口,2023-12-28,24.904794,121.043628,0.008397736
C0D660,新竹市東區,2023-12-28,24.798681,120.986942,0.006557095
C0D670,海天一線,2023-12-28,24.831986,120.914438,0.00830426
C0D680,香山濕地,2023-12-28,24.783581,120.914988,0.004890123
C0D690,外湖,2023-12-28,24.917735,120.968711,0.0034709
C0D700,關西,2023-12-28,24.7977,121.1732,0.0076734414
C0E420,竹南,2023-12-28,24.708978,120.888897,0.0019878007
C0E430,南庄,2023-12-28,24.601775,121.000214,0.0024389625
C0E520,大湖,2023-12-28,24.41494,120.87087,0.0027323465
C0E540,後龍,2023-12-28,24.606489,120.783933,0.0043080417
C0E550,明德,2023-12-28,24.583486,120.885411,0.0064966264
C0E590,通霄,2023-12-28,24.471892,120.704622,0.03951846
C0E730,頭份,2023-12-28,24.688247,120.912206,0.0054499153
C0E740,造橋,2023-12-28,24.637056,120.864778,0.004452607
C0E750,苗栗,2023-12-28,24.564569,120.824575,0.0057151746
C0E780,銅鑼,2023-12-28,24.489681,120.790853,0.0035351503
C0E791,卓蘭,2023-12-28,24.3126,120.8244,0.002701324
C0E810,西湖,2023-12-28,24.562947,120.7485,0.0052602957
C0E820,獅潭,2023-12-28,24.539133,120.920042,0.0027745217
C0E830,苑裡,2023-12-28,24.439714,120.653053,0.0008876391
C0E850,大河,2023-12-28,24.618069,120.948578,0.0038561567
C0E870,高鐵苗栗,2023-12-28,24.60725,120.826094,0.004036996
C0E910,海埔,2023-12-28,24.648767,120.772435,0.00052321836
C0E920,通霄漁港,2023-12-28,24.498589,120.673876,0.034883212
C0E930,龍鳳,2023-12-28,24.700034,120.859125,0.002691851
C0F0B0,石岡,2023-12-28,24.276061,120.777644,0.003112781
C0F850,東勢,2023-12-28,24.246428,120.833047,0.0021587014
C0F930,大甲,2023-12-28,24.347667,120.640403,0.004095874
C0F970,大坑,2023-12-28,24.173142,120.722289,0.02357789
C0F9A0,中竹林,2023-12-28,24.103556,120.751061,0.008835579
C0F9I0,神岡,2023-12-28,24.272481,120.658314,0.0075268527
C0F9K0,大安,2023-12-28,24.345061,120.588025,0.0017517146
C0F9L0,后里,2023-12-28,24.310436,120.729725,0.004621858
C0F9M0,豐原,2023-12-28,24.254322,120.720692,0.006932595
C0F9N0,大里,2023-12-28,24.092464,120.701378,0.075191356
C0F9O0,潭子,2023-12-28,24.213106,120.703933,0.005149554
C0F9P0,清水,2023-12-28,24.312297,120.562242,0.0056867967
C0F9Q0,外埔,2023-12-28,24.347817,120.705686,0.0070160204
C0F9R0,龍井,2023-12-28,24.184536,120.528972,0.0032102775
C0F9S0,烏日,2023-12-28,24.107058,120.624103,0.04178857
C0F9T0,西屯,2023-12-28,24.179494,120.641275,0.011016199
C0F9U0,南屯,2023-12-28,24.137006,120.637969,0.028511113
C0F9X0,大雅(中科園區),2023-12-28,24.21528,120.62445,0.006750205
C0FA10,松柏,2023-12-28,24.429115,120.617482,0.0009999265
C0FA20,溫寮,2023-12-28,24.372177,120.583125,0.002016691
C0FA30,梧棲,2023-12-28,24.256003,120.523381,0.0016899399
C0FA40,臺中電廠,2023-12-28,24.2146,120.4907,0.0032102775
C0FA50,霧峰,2023-12-28,24.0419,120.6995,0.20259246
C0G620,芬園,2023-12-28,24.015678,120.6213,0.09261635
C0G640,鹿港,2023-12-28,24.0753,120.430481,0.005326536
C0G650,員林,2023-12-28,23.946503,120.585597,0.16355607
C0G660,溪湖,2023-12-28,23.94835,120.479122,0.24838035
C0G720,溪州,2023-12-28,23.851589,120.499093,0.33125514
C0G730,二林,2023-12-28,23.903325,120.376081,0.04620994
C0G740,大城,2023-12-28,23.852487,120.320935,0.038601696
C0G770,福興,2023-12-28,24.041289,120.437669,0.013929796
C0G780,秀水,2023-12-28,24.03405,120.503869,0.1351613
C0G800,埔鹽,2023-12-28,24.000394,120.431683,0.031337302
C0G810,埔心,2023-12-28,23.947633,120.525456,0.23982747
C0G820,田尾,2023-12-28,23.901669,120.509389,0.2884204
C0G830,埤頭,2023-12-28,23.866003,120.452806,0.2190791
C0G840,北斗,2023-12-28,23.877586,120.514222,0.30498388
C0G860,社頭,2023-12-28,23.897647,120.5862,0.16916467
C0G870,芳苑,2023-12-28,23.922303,120.320025,0.011136334
C0G880,二水,2023-12-28,23.810742,120.6173,0.12458496
C0G890,伸港,2023-12-28,24.148933,120.484403,0.009537046
C0G900,線西,2023-12-28,24.143358,120.443536,0.0012972481
C0G910,花壇,2023-12-28,24.032076,120.549461,0.27138016
C0G920,永靖,2023-12-28,23.924703,120.547533,0.33914798
C0G940,竹塘,2023-12-28,23.848253,120.386764,0.06253087
C0G950,防潮門,2023-12-28,24.1835,120.4871,0.0032102775
C0G960,福寶,2023-12-28,24.0443,120.3814,0.0019864815
C0G970,三豐,2023-12-28,23.882,120.2895,0.024399951
C0H890,埔里,2023-12-28,23.972169,120.952425,0.035382867
C0H950,中寮,2023-12-28,23.884447,120.766406,0.15023266
C0H960,草屯,2023-12-28,23.973672,120.68085,0.22213538
C0I110,竹山,2023-12-28,23.761225,120.688156,0.10821995
C0I360,水里,2023-12-28,23.812553,120.849792,0.11498687
C0I380,集集,2023-12-28,23.828206,120.801467,0.16422614
C0I410,名間,2023-12-28,23.837053,120.701447,0.06329491
C0I420,國姓,2023-12-28,24.037803,120.855072,0.06632696
C0I460,南投,2023-12-28,23.911469,120.687331,0.118057124
C0K250,崙背,2023-12-28,23.75555,120.318925,0.25935185
C0K280,四湖,2023-12-28,23.630414,120.227125,0.22311729
C0K291,宜梧,2023-12-28,23.536281,120.169329,0.2735296
C0K330,虎尾,2023-12-28,23.719183,120.442036,0.44295904
C0K390,土庫,2023-12-28,23.679029,120.395574,0.41634473
C0K400,斗六,2023-12-28,23.720583,120.541127,0.43904132
C0K410,北港,2023-12-28,23.573957,120.292802,0.44573393
C0K420,西螺,2023-12-28,23.800407,120.467394,0.27056664
C0K430,褒忠,2023-12-28,23.690938,120.303634,0.3126356
C0K440,二崙,2023-12-28,23.772797,120.408944,0.3559991
C0K450,大埤,2023-12-28,23.646074,120.431537,0.37446558
C0K460,斗南,2023-12-28,23.678734,120.478359,0.43569598
C0K470,林內,2023-12-28,23.748675,120.609642,0.253663
C0K480,莿桐,2023-12-28,23.761192,120.502372,0.21613938
C0K500,元長,2023-12-28,23.64981,120.315024,0.36066467
C0K510,水林,2023-12-28,23.572924,120.24597,0.39614454
C0K530,臺西,2023-12-28,23.701547,120.197559,0.05040938
C0K550,蔦松,2023-12-28,23.514319,120.229736,0.37103155
C0K560,棋山,2023-12-28,23.68645,120.603417,0.31429002
C0K580,高鐵雲林,2023-12-28,23.737456,120.417944,0.39825073
C0K590,雲林東勢,2023-12-28,23.674192,120.255721,0.29892045
C0K600,箔子寮,2023-12-28,23.6197,120.14,0.05327342
C0M410,馬頭山,2023-12-28,23.324361,120.582017,0.2524652
C0M520,東後寮,2023-12-28,23.369908,120.248065,0.47560683
C0M640,中埔,2023-12-28,23.42538,120.5229,0.17775917
C0M650,朴子,2023-12-28,23.43463,120.23902,0.4746146
C0M660,溪口,2023-12-28,23.604131,120.403569,0.30901426
C0M670,大林,2023-12-28,23.600616,120.45841,0.34197938
C0M680,太保,2023-12-28,23.455062,120.331455,0.42615134
C0M690,水上,2023-12-28,23.419734,120.388909,0.48388496
C0M700,竹崎,2023-12-28,23.526178,120.555508,0.1004969
C0M710,東石,2023-12-28,23.458927,120.15385,0.05948004
C0M720,番路,2023-12-28,23.464657,120.554156,0.18439361
C0M730,嘉義市東區,2023-12-28,23.457673,120.460531,0.25258005
C0M740,六腳,2023-12-28,23.492871,120.290625,0.4891981
C0M750,布袋,2023-12-28,23.380878,120.167789,0.387351
C0M760,民雄,2023-12-28,23.551754,120.428457,0.3736216
C0M770,嘉義梅山,2023-12-28,23.585398,120.555587,0.10488
C0M780,鹿草,2023-12-28,23.41134,120.30835,0.52206933
C0M790,新港,2023-12-28,23.553269,120.345728,0.49620497
C0M800,茶山,2023-12-28,23.299075,120.664767,0.30224028
C0M880,好美里,2023-12-28,23.3364,120.138,0.16873784
C0N010,鯤鯓國小,2023-12-28,23.1879,120.0889,0.14996548
C0N020,城西,2023-12-28,23.0568,120.0956,0.42675647
C0N030,四草,2023-12-28,23.0235,120.1116,0.3935077
C0N040,蘆竹溝,2023-12-28,23.2344,120.0961,0.29595298
C0N050,蚵寮,2023-12-28,23.301,120.1104,0.22812319
C0O810,曾文,2023-12-28,23.219681,120.497328,0.6351274
C0O830,北寮,2023-12-28,23.079561,120.495008,0.66219026
C0O840,王爺宮,2023-12-28,23.222064,120.40085,0.16434067
C0O860,大內,2023-12-28,23.11885,120.36083,0.56709117
C0O900,善化,2023-12-28,23.112883,120.297219,0.48694536
C0O930,玉井,2023-12-28,23.126042,120.46055,0.5867873
C0O950,安南,2023-12-28,23.076694,120.144861,0.3370862
C0O960,崎頂,2023-12-28,22.959547,120.369317,0.4858733
C0O970,虎頭埤,2023-12-28,23.021375,120.347878,0.47943297
C0O980,新市,2023-12-28,23.061614,120.298197,0.5120121
C0O990,媽廟,2023-12-28,22.99175,120.293525,0.53763175
C0R150,三地門,2023-12-28,22.709889,120.639944,0.56448245
C0R160,鹽埔,2023-12-28,22.739558,120.530778,0.70079637
C0R170,屏東,2023-12-28,22.660269,120.494072,0.7071081
C0R190,赤山,2023-12-28,22.592333,120.614306,0.58793217
C0R220,潮州,2023-12-28,22.534361,120.54,0.64492565
C0R240,來義,2023-12-28,22.527306,120.625111,0.5374758
C0R260,春日,2023-12-28,22.370361,120.628306,0.07647292
C0R270,琉球嶼,2023-12-28,22.332244,120.362236,0.79207873
C0R280,檳榔,2023-12-28,22.076078,120.836777,0.0031512822
C0R320,車城,2023-12-28,22.0744,120.716247,0.0014720696
C0R341,牡丹,2023-12-28,22.130036,120.792639,0.0032509894
C0R350,貓鼻頭,2023-12-28,21.921774,120.7358,0.0006383784
C0R470,高樹,2023-12-28,22.826389,120.600806,0.78504246
C0R480,長治,2023-12-28,22.693128,120.542622,0.7843263
C0R490,九如,2023-12-28,22.7405,120.490503,0.7042388
C0R520,崁頂,2023-12-28,22.514781,120.506914,0.6611655
C0R540,佳冬,2023-12-28,22.419456,120.552375,0.5322056
C0R550,新埤,2023-12-28,22.467947,120.582894,0.6391163
C0R560,新園,2023-12-28,22.5434,120.461558,0.65039355
C0R570,麟洛,2023-12-28,22.65078,120.52719,0.7071084
C0R580,南州,2023-12-28,22.48591,120.50274,0.71599483
C0R590,里港,2023-12-28,22.77919,120.49459,0.7557926
C0R620,墾雷,2023-12-28,21.900836,120.855269,0.0017971522
C0R640,東港,2023-12-28,22.46247,120.44074,0.670804
C0R650,竹田,2023-12-28,22.58486,120.54344,0.6607515
C0R660,枋寮,2023-12-28,22.367722,120.590647,0.5322056
C0R670,楓港,2023-12-28,22.190131,120.692156,0.0073930034
C0R680,佳樂水,2023-12-28,21.993578,120.861633,0.0037607478
C0R690,墾丁,2023-12-28,21.966756,120.810269,0.037081003
C0R700,枋山,2023-12-28,22.246844,120.661086,0.0033111493
C0R710,龍磐,2023-12-28,21.931672,120.838942,0.0010061536
C0R720,旭海,2023-12-28,22.205403,120.887614,0.29665574
C0R730,大坪頂,2023-12-28,22.024633,120.69355,0.0026427212
C0R740,獅子,2023-12-28,22.201569,120.70525,0.3130843
C0R760,南仁湖,2023-12-28,22.084681,120.863353,0.33496967
C0R770,保力,2023-12-28,22.071122,120.764111,0.002487011
C0R780,滿州,2023-12-28,22.024403,120.839892,0.023754807
C0R790,九棚,2023-12-28,22.14195,120.889281,0.35503566
C0R800,丹路,2023-12-28,22.204481,120.750989,0.007966923
C0R810,內獅,2023-12-28,22.305064,120.642986,0.0029011706
C0R830,高士,2023-12-28,22.121825,120.836781,0.3508409
C0R850,林邊,2023-12-28,22.4634,120.5339,0.6450784
C0R860,鼻頭,2023-12-28,22.1043,120.8979,0.006142428
C0R870,興海,2023-12-28,21.9752,120.8439,0.0037706767
C0R880,後壁湖,2023-12-28,21.9457,120.7457,0.0011475764
C0R890,山海,2023-12-28,21.9878,120.7091,0.0011369869
C0R900,竹坑,2023-12-28,22.1385,120.7022,0.0014747595
C0R910,下寮,2023-12-28,22.3929,120.5548,0.5322056
C0R920,塭仔,2023-12-28,22.4169,120.5197,0.61771876
C0R930,萬丹,2023-12-28,22.5885,120.4851,0.6640654
C0R940,加祿堂,2023-12-28,22.3363,120.6217,0.029774768
C0S710,鹿野,2023-12-28,22.917711,121.122994,0.0067828777
C0S730,綠島,2023-12-28,22.6672,121.47533,0.022302365
C0S740,池上,2023-12-28,23.119628,121.209469,0.02520208
C0S770,大溪山,2023-12-28,22.478475,120.943325,0.029414663
C0S790,金崙,2023-12-28,22.538122,120.966875,0.06614339
C0S810,東河,2023-12-28,22.972672,121.303986,0.016445221
C0S830,長濱,2023-12-28,23.286817,121.411975,0.012416451
C0S840,南田,2023-12-28,22.279725,120.889208,0.419109
C0S890,關山,2023-12-28,23.0395,121.175017,0.045810875
C0S900,蘭嶼高中,2023-12-28,22.04909,121.51214,0.029279133
C0S910,蘭嶼燈塔,2023-12-28,22.081197,121.503117,0.03225304
C0S920,金峰嘉蘭,2023-12-28,22.594789,120.960825,0.13537169
C0S930,延平,2023-12-28,22.902581,121.084058,0.00747384
C0S940,石寧山,2023-12-28,23.223772,121.406639,0.029346235
C0S950,七塊厝,2023-12-28,22.954453,121.229922,0.0070207985
C0S960,香蘭,2023-12-28,22.587569,120.993375,0.13666767
C0S970,加津林,2023-12-28,22.416211,120.926942,0.11216319
C0S990,山豬窟,2023-12-28,22.318619,120.857372,0.58152175
C0SA00,歷坵,2023-12-28,22.520969,120.89185,0.054737598
C0SA10,檳榔四格山,2023-12-28,22.810031,121.109308,0.0072936197
C0SA30,都歷,2023-12-28,23.020333,121.323642,0.04963057
C0SA40,瑞和,2023-12-28,22.974361,121.156697,0.09213977
C0SA60,知本（水試所）,2023-12-28,22.702394,121.082761,0.427111
C0SA80,土坂,2023-12-28,22.453108,120.887572,0.40633827
C0SA90,達仁林場,2023-12-28,22.264347,120.823972,0.12050253
C0T870,鯉魚潭,2023-12-28,23.935639,121.508944,0.14140762
C0T900,西林,2023-12-28,23.8119,121.441458,0.0898086
C0T960,光復,2023-12-28,23.660694,121.424964,0.095696345
C0T9A0,月眉山,2023-12-28,23.809928,121.539828,0.001170989
C0T9D0,和中,2023-12-28,24.26676,121.74103,0.027043194
C0T9E0,大坑,2023-12-28,23.880628,121.581981,0.0057251956
C0T9F0,水璉,2023-12-28,23.797131,121.542514,0.0029146262
C0T9I0,豐濱,2023-12-28,23.583897,121.514806,0.053706255
C0T9M0,靜浦,2023-12-28,23.455167,121.495028,0.032237563
C0T9N0,富里,2023-12-28,23.171639,121.249378,0.09226651
C0U600,礁溪,2023-12-28,24.817539,121.765608,0.0227278
C0U650,玉蘭,2023-12-28,24.675286,121.587061,0.000474094
C0U750,龜山島,2023-12-28,24.841667,121.953133,0.0038468596
C0U760,東澳,2023-12-28,24.52196,121.83318,0.15249723
C0U770,南澳,2023-12-28,24.44935,121.81022,0.0032132524
C0U780,五結,2023-12-28,24.68637,121.79794,0.008903044
C0U860,頭城,2023-12-28,24.85323,121.8308,0.009083552
C0U870,大礁溪,2023-12-28,24.791042,121.675047,0.0006606684
C0U880,北關,2023-12-28,24.9072,121.8734,0.015135639
C0U890,三星,2023-12-28,24.66812,121.65302,0.025476186
C0U900,內城,2023-12-28,24.71813,121.68766,0.015019454
C0U910,冬山,2023-12-28,24.63373,121.7937,0.054264653
C0U940,羅東,2023-12-28,24.68184,121.74934,0.016867973
C0U970,大福,2023-12-28,24.80064,121.81389,0.0040004565
C0U990,員山,2023-12-28,24.74435,121.72247,0.0077685188
C0UA00,土場,2023-12-28,24.576533,121.495333,0.0016706118
C0UA80,大溪漁港,2023-12-28,24.941801,121.902955,0.015202685
C0UA90,石城,2023-12-28,24.980444,121.951214,0.017806234
C0UB00,淡江大學蘭陽校園,2023-12-28,24.823239,121.730383,0.0033805578
C0UB10,蘇澳,2023-12-28,24.5969,121.8571,0.22308633
C0UB20,壯圍,2023-12-28,24.7359,121.8163,0.0050680754
C0V250,甲仙,2023-12-28,23.080106,120.591758,0.55795115
C0V260,月眉,2023-12-28,22.971003,120.539853,0.7059118
C0V310,美濃,2023-12-28,22.898742,120.519153,0.70201164
C0V350,溪埔,2023-12-28,22.738578,120.446797,0.7183713
C0V360,內門,2023-12-28,22.975481,120.466769,0.5499728
C0V370,古亭坑,2023-12-28,22.893178,120.401947,0.6121428
C0V400,阿公店,2023-12-28,22.804194,120.355528,0.6383924
C0V440,鳳山,2023-12-28,22.646653,120.356122,0.7503823
C0V450,鳳森,2023-12-28,22.545064,120.392592,0.5676639
C0V490,新興,2023-12-28,22.627422,120.298803,0.62750906
C0V530,阿蓮,2023-12-28,22.883208,120.327508,0.56909186
C0V610,梓官,2023-12-28,22.760558,120.267211,0.5007166
C0V620,永安,2023-12-28,22.82315,120.236856,0.5574132
C0V630,茄萣,2023-12-28,22.906642,120.182608,0.41323397
C0V640,湖內,2023-12-28,22.887139,120.2445,0.5643664
C0V650,彌陀,2023-12-28,22.783806,120.246361,0.55741364
C0V660,岡山,2023-12-28,22.797078,120.294958,0.6749377
C0V680,仁武,2023-12-28,22.701083,120.347722,0.7502303
C0V690,鼓山,2023-12-28,22.623325,120.275575,0.53063136
C0V700,三民,2023-12-28,22.645017,120.311233,0.68457586
C0V710,苓雅,2023-12-28,22.622742,120.330669,0.60527825
C0V720,林園,2023-12-28,22.507747,120.394511,0.5773664
C0V730,大寮,2023-12-28,22.605614,120.395717,0.6932535
C0V740,旗山,2023-12-28,22.888614,120.483597,0.6978215
C0V750,路竹,2023-12-28,22.854997,120.259439,0.5529361
C0V760,橋頭,2023-12-28,22.757806,120.30575,0.62990475
C0V770,大社,2023-12-28,22.730306,120.346639,0.6704823
C0V790,萬山,2023-12-28,22.905944,120.688056,0.29864478
C0V800,六龜,2023-12-28,22.997889,120.633583,0.5641023
C0V810,左營,2023-12-28,22.67491,120.28491,0.68457586
C0V820,小林,2023-12-28,23.148408,120.63325,0.30133623
C0V840,鳳鼻頭,2023-12-28,22.5083,120.3591,0.5801861
C0V850,蚵仔寮,2023-12-28,22.7256,120.2527,0.5056792
C0V860,南寮,2023-12-28,22.7616,120.2339,0.5056792
C0V870,文安,2023-12-28,22.8025,120.2164,0.34206396
C0V880,興達,2023-12-28,22.8778,120.2127,0.41323397
C0V890,前鎮,2023-12-28,22.5718,120.3117,0.5796412
C0V900,汕尾,2023-12-28,22.4782,120.4151,0.6599519
C0X050,東河,2023-12-28,23.296598,120.385608,0.28485164
C0X060,下營,2023-12-28,23.22695,120.256261,0.46922472
C0X080,佳里,2023-12-28,23.173039,120.145086,0.42792964
C0X100,臺南市北區,2023-12-28,23.010394,120.194228,0.538694
C0X110,臺南市南區,2023-12-28,22.961189,120.188378,0.4042393
C0X120,麻豆,2023-12-28,23.183289,120.248611,0.520147
C0X130,官田,2023-12-28,23.193217,120.315422,0.350055
C0X140,西港,2023-12-28,23.125608,120.203108,0.52035254
C0X150,安定,2023-12-28,23.102614,120.227839,0.56572175
C0X160,仁德,2023-12-28,22.968258,120.257689,0.5009471
C0X170,關廟,2023-12-28,22.963017,120.327797,0.4863372
C0X180,山上,2023-12-28,23.0757,120.363253,0.50206774
C0X190,安平,2023-12-28,22.993161,120.152181,0.3860315
C0X200,左鎮,2023-12-28,23.056758,120.408522,0.5626311
C0X210,白河,2023-12-28,23.347466,120.414427,0.3026739
C0X220,學甲,2023-12-28,23.230367,120.182187,0.43692836
C0X230,鹽水,2023-12-28,23.272621,120.247641,0.4734814
C0X240,關子嶺,2023-12-28,23.331169,120.508025,0.047109783
C0X250,新營,2023-12-28,23.310689,120.316681,0.45460597
C0X260,後壁,2023-12-28,23.366358,120.362326,0.4662006
C0X280,將軍,2023-12-28,23.214999,120.13577,0.360226
C0X290,北門,2023-12-28,23.267772,120.125481,0.29595298
C0X300,鹿寮,2023-12-28,23.386047,120.477331,0.3800639
C0X310,七股,2023-12-28,23.147289,120.086253,0.19494312
C0X320,柳營,2023-12-28,23.253328,120.375253,0.31836176
C0Z020,明里,2023-12-28,23.208717,121.262342,0.043851223
C0Z061,玉里,2023-12-28,23.3215,121.339656,0.11517589
C0Z070,舞鶴,2023-12-28,23.46811,121.37407,0.05715592
C0Z080,富源,2023-12-28,23.587642,121.378225,0.13480848
C0Z100,東華,2023-12-28,23.89525,121.549833,0.09164077
C0Z150,吉安光華,2023-12-28,23.930925,121.595153,0.017503832
C0Z160,鳳林,2023-12-28,23.746114,121.453411,0.21177953
C0Z170,卓溪,2023-12-28,23.3443,121.3029,0.07044701
C0Z180,新城,2023-12-28,24.03946,121.60454,0.047277566
C0Z190,富世,2023-12-28,24.14743,121.6297,0.011035256
C0Z200,萬榮,2023-12-28,23.709219,121.420106,0.18177745
C0Z210,瑞穗,2023-12-28,23.5239,121.39021,0.1918763
C0Z230,和平,2023-12-28,24.30717,121.77007,0.069400646
C0Z270,蕃薯寮,2023-12-28,23.73835,121.540108,0.003501079
C0Z280,德武,2023-12-28,23.47426,121.41071,0.058915496
C0Z300,東里,2023-12-28,23.26853,121.30547,0.11111749
C0Z310,清水斷崖,2023-12-28,24.218294,121.689142,0.0025137593
C0Z330,安通山,2023-12-28,23.290728,121.348528,0.0055591934
CAG100,王功漁港,2023-12-28,23.96824,120.32586,0.0035705431
CAH030,茶改場竹圍站,2023-12-28,23.860083,120.637528,0.025580786
CAJ050,海口故事園區,2023-12-28,23.57543,120.14121,0.05327342
CAL110,布袋國中,2023-12-28,23.35893,120.18026,0.40713903
CAN130,水試所海水繁養殖中心,2023-12-28,23.120802,120.07968,0.14564401
CAN140,六官養殖協會,2023-12-28,23.22881,120.29962,0.49383062
CAQ030,崎峰國小,2023-12-28,22.42565,120.49521,0.69492644
E2K600,四湖植物園,2023-12-28,23.676986,120.163433,0.071659565
E2P980,林試六龜中心,2023-12-28,22.991703,120.645722,0.53181344
E2S960,林試太麻里2,2023-12-28,22.598014,120.989761,0.1366675
E2S980,林試太麻里1,2023-12-28,22.598922,120.980044,0.09262323
G2AI50,關渡,2023-12-28,25.11575,121.492,0.01493235
G2F820,農業試驗所,2023-12-28,24.031261,120.688133,0.21156932
G2F820,農試所(霧峰),2023-12-28,24.031261,120.688133,0.21156932
G2L020,農試嘉義分所,2023-12-28,23.485028,120.473806,0.243963
G2M350,農試溪口農場,2023-12-28,23.58565,120.408111,0.36538726
G2P820,農試鳳山分所,2023-12-28,22.646611,120.356083,0.7503831
K2E360,苗栗農改,2023-12-28,24.495722,120.829111,0.005375293
K2E360,苗栗農改場,2023-12-28,24.495722,120.829111,0.005375293
K2E710,苗改生物防治研究中心,2023-12-28,24.422861,120.871833,0.0032698216
K2F750,種苗改良場,2023-12-28,24.225972,120.800917,0.0040861266
K2F750,種苗繁殖,2023-12-28,24.225972,120.800917,0.0040861266
U2HA50,臺大竹山,2023-12-28,23.756972,120.681556,0.14964518
V2C250,八德合作社,2023-12-28,24.93775,121.266389,0.0099885715
V2C260,八德蔬果,2023-12-28,24.978508,121.281819,0.011304556
V2K610,大庄合作社,2023-12-28,23.8068,120.367939,0.17853937
V2K620,麥寮合作社,2023-12-28,23.753836,120.294783,0.25935185
