站號,站名,日期,lat,lon,BlastGRU-TW
12J990,口湖工作站,2023-03-20,23.589978,120.180394,0.0025826022
12Q970,東港工作站,2023-03-20,22.479997,120.466058,1.0783776e-05
12Q980,恆春工作站,2023-03-20,22.079678,120.714425,1.7175791e-05
466881,新北,2023-03-20,24.9593,121.52,5.7288275e-06
466900,淡水,2023-03-20,25.164889,121.448906,3.529126e-06
466920,臺北,2023-03-20,25.037658,121.514853,4.950968e-06
466940,基隆,2023-03-20,25.133314,121.740475,5.2507717e-06
466990,花蓮,2023-03-20,23.975128,121.613275,0.02706593
467050,新屋,2023-03-20,25.006744,121.047486,3.5352195e-06
467060,蘇澳,2023-03-20,24.596736,121.857372,1.6795644e-05
467080,宜蘭,2023-03-20,24.763975,121.756528,8.380135e-06
467270,田中,2023-03-20,23.873803,120.581286,1.8418916e-05
467300,東吉島,2023-03-20,23.25695,119.667467,0.005970319
467350,澎湖,2023-03-20,23.565503,119.563094,0.0061040185
467410,臺南,2023-03-20,22.993239,120.204772,0.0005665878
467420,永康,2023-03-20,23.038386,120.2367,2.4805138e-05
467441,高雄,2023-03-20,22.7304,120.3125,3.621038e-05
467480,嘉義,2023-03-20,23.495925,120.432906,3.4013024e-06
467490,臺中,2023-03-20,24.145736,120.684075,1.4034126e-05
467540,大武,2023-03-20,22.355675,120.903789,0.0002765684
467571,新竹,2023-03-20,24.827853,121.014219,0.00010484027
467590,恆春,2023-03-20,22.003897,120.746339,1.7892955e-05
467610,成功,2023-03-20,23.097486,121.373428,8.675543e-06
467620,蘭嶼,2023-03-20,22.036969,121.558339,9.3777904e-05
467660,臺東,2023-03-20,22.752211,121.154586,8.208173e-06
467790,墾丁雷達站,2023-03-20,21.948235,120.808028,1.8294033e-05
72AI40,桃改臺北分場,2023-03-20,24.944503,121.386972,3.944288e-06
72C440,桃園農改,2023-03-20,24.950944,121.030583,0.00020820007
72C440,桃園農改場,2023-03-20,24.950944,121.030583,0.00020820007
72D680,新埔,2023-03-20,24.834444,121.066111,1.4383356e-06
72D680,桃園農改場新埔工作站,2023-03-20,24.834444,121.066111,1.4383356e-06
72G600,臺中農改,2023-03-20,24.003028,120.534389,4.2077345e-06
72G600,臺中農改場,2023-03-20,24.003028,120.534389,4.2077345e-06
72K220,雲林分場,2023-03-20,23.634556,120.477333,1.7430451e-05
72L140,朴子分場,2023-03-20,23.4982,120.2414,3.1670907e-06
72M360,義竹分場,2023-03-20,23.360694,120.279361,1.6476102e-05
72M360,義竹工作站,2023-03-20,23.360694,120.279361,1.6476102e-05
72M700,嘉義分場,2023-03-20,23.416869,120.283061,4.18411e-06
72N100,臺南農改,2023-03-20,23.0605,120.342194,2.3871164e-05
72N100,臺南農改場,2023-03-20,23.0605,120.342194,2.3871164e-05
72N240,七股研究中心,2023-03-20,23.081672,120.062894,0.008149555
72Q010,高雄農改,2023-03-20,22.709333,120.525889,1.6787108e-05
72Q010,高雄農改場,2023-03-20,22.709333,120.525889,1.6787108e-05
72S200,斑鳩分場,2023-03-20,22.829528,121.077694,5.3390672e-06
72S590,賓朗果園,2023-03-20,22.813889,121.071278,7.713207e-06
72S590,賓朗農改,2023-03-20,22.813889,121.071278,7.713207e-06
72T250,花蓮農改,2023-03-20,23.975222,121.563889,8.2226525e-06
72T250,花蓮農改場,2023-03-20,23.975222,121.563889,8.2226525e-06
72U480,蘭陽分場,2023-03-20,24.686306,121.716583,0.0029721868
72V140,旗南,2023-03-20,22.857861,120.516667,3.194051e-05
72V140,旗南農改,2023-03-20,22.857861,120.516667,3.194051e-05
82A750,文山分場,2023-03-20,24.955778,121.631222,8.223907e-06
82A750,文山茶改,2023-03-20,24.955778,121.631222,8.223907e-06
82C160,茶改場(楊梅),2023-03-20,24.908472,121.185333,3.8117587e-06
82C160,茶改場,2023-03-20,24.908472,121.185333,3.8117587e-06
82H840,凍頂工作站,2023-03-20,23.762528,120.7405,1.5349906e-05
82H840,凍頂茶改,2023-03-20,23.762528,120.7405,1.5349906e-05
82S580,臺東茶改,2023-03-20,22.907694,121.130139,9.449646e-06
82S580,龍田,2023-03-20,22.907694,121.130139,9.449646e-06
A0K420,麥寮,2023-03-20,23.7988,120.2177,0.0028739308
A0W080,吉貝,2023-03-20,23.74,119.6042,0.0041624913
A2C560,農工中心,2023-03-20,24.985917,121.239833,3.484254e-06
A2K360,臺西分所,2023-03-20,23.717231,120.190522,0.0020183118
A2K360,臺西水試所,2023-03-20,23.717231,120.190522,0.0020183118
A2K570,古坑(花卉中心),2023-03-20,23.633531,120.552392,1.90244e-05
A2K570,古坑花卉中心,2023-03-20,23.63353,120.55239,1.90244e-05
A2K630,臺大雲林校區,2023-03-20,23.730628,120.423903,1.9138643e-05
A2N290,臺南蘭花園區,2023-03-20,23.340258,120.379661,1.6883534e-05
B2E890,新竹畜試,2023-03-20,24.527806,120.770972,1.0041167e-05
B2N890,畜產試驗所,2023-03-20,23.058972,120.336406,2.3871164e-05
B2N890,畜試所,2023-03-20,23.058972,120.336406,2.3871164e-05
B2Q810,恆春分所,2023-03-20,21.945583,120.802167,1.778174e-05
B2Q810,恆春畜試,2023-03-20,21.945583,120.802167,1.778174e-05
B2U990,宜蘭畜試,2023-03-20,24.669039,121.832561,7.915784e-06
C0A520,山佳,2023-03-20,24.974944,121.402008,3.946071e-06
C0A530,坪林,2023-03-20,24.938183,121.70975,7.114654e-06
C0A540,四堵,2023-03-20,24.8926,121.745736,0.0032448915
C0A550,泰平,2023-03-20,24.971197,121.823711,6.917543e-06
C0A560,福山,2023-03-20,24.776203,121.502811,4.811338e-06
C0A570,桶後,2023-03-20,24.848222,121.597992,7.3820693e-06
C0A640,石碇,2023-03-20,24.993969,121.662917,0.008169973
C0A650,火燒寮,2023-03-20,25.002719,121.742892,0.00027322263
C0A660,瑞芳,2023-03-20,25.113169,121.801147,0.00014247111
C0A770,科教館,2023-03-20,25.096356,121.516507,3.863855e-06
C0A860,大坪,2023-03-20,25.165914,121.632969,5.034396e-06
C0A880,福隆,2023-03-20,25.017842,121.942083,5.853691e-06
C0A890,雙溪,2023-03-20,25.036003,121.864242,5.8102037e-06
C0A920,富貴角,2023-03-20,25.263783,121.565258,3.871597e-06
C0A931,三和,2023-03-20,25.233153,121.595236,4.955451e-06
C0A940,金山,2023-03-20,25.223628,121.643967,0.0023858184
C0A950,鼻頭角,2023-03-20,25.129036,121.923372,7.1649247e-06
C0A970,三貂角,2023-03-20,25.007606,122.002058,7.1323852e-06
C0A980,社子,2023-03-20,25.109508,121.469681,3.87214e-06
C0A9C0,天母,2023-03-20,25.117494,121.537169,3.8573603e-06
C0A9F0,內湖,2023-03-20,25.079422,121.57545,3.994345e-06
C0AC60,三峽,2023-03-20,24.939025,121.369728,4.141615e-06
C0AC70,信義,2023-03-20,25.037822,121.564597,5.4654547e-06
C0AC80,文山,2023-03-20,25.00235,121.575728,4.277997e-06
C0ACA0,新莊,2023-03-20,25.051478,121.446756,4.0861682e-06
C0AD00,三芝,2023-03-20,25.258131,121.501917,3.2746284e-06
C0AD10,八里,2023-03-20,25.150211,121.403947,2.5866711e-06
C0AD30,蘆洲,2023-03-20,25.086594,121.472331,3.863855e-06
C0AD40,土城,2023-03-20,24.973208,121.445169,5.131854e-06
C0AD50,鶯歌,2023-03-20,24.951533,121.346294,3.5476958e-06
C0AG80,中和,2023-03-20,24.991622,121.491792,4.2612573e-06
C0AH00,汐止,2023-03-20,25.066881,121.658778,5.5846417e-06
C0AH10,永和,2023-03-20,25.01125,121.508111,4.2698653e-06
C0AH40,平等,2023-03-20,25.129142,121.577086,4.575272e-06
C0AH50,林口,2023-03-20,25.072181,121.38084,3.799738e-06
C0AH70,松山,2023-03-20,25.04871,121.55042,5.4654547e-06
C0AH80,深坑,2023-03-20,25.002703,121.628328,0.0050219106
C0AI00,五股,2023-03-20,25.07445,121.42728,3.8739017e-06
C0AI10,屈尺,2023-03-20,24.92184,121.54475,4.3791874e-06
C0AI20,白沙灣,2023-03-20,25.283128,121.519058,3.2518637e-06
C0AI30,三重,2023-03-20,25.057328,121.500629,4.7202225e-06
C0AI40,石牌,2023-03-20,25.115597,121.513139,3.8567496e-06
C0AJ10,澳底,2023-03-20,25.057107,121.927272,7.4938152e-06
C0AJ20,野柳,2023-03-20,25.20703,121.690021,0.0012791583
C0AJ30,淡水觀海,2023-03-20,25.184591,121.408616,3.4567074e-06
C0AJ40,石門,2023-03-20,25.273672,121.601198,4.144622e-06
C0AJ50,水湳洞,2023-03-20,25.123695,121.862238,2.691126e-06
C0AJ60,六塊厝,2023-03-20,25.24,121.4481,3.061639e-06
C0AJ70,田寮,2023-03-20,25.2698,121.4886,3.3215615e-06
C0AJ80,板橋,2023-03-20,25.0107,121.4489,4.0952264e-06
C0B010,七堵,2023-03-20,25.094819,121.71713,0.0010288273
C0B020,基隆嶼,2023-03-20,25.19141,121.78391,3.1179185e-05
C0B040,大武崙,2023-03-20,25.166676,121.706993,4.8593456e-06
C0B050,八斗子,2023-03-20,25.144754,121.79167,5.216448e-06
C0B060,暖暖,2023-03-20,25.0957,121.7403,4.2219828e-05
C0C460,復興,2023-03-20,24.820208,121.352281,4.7973176e-06
C0C480,桃園,2023-03-20,24.992425,121.323172,3.6289603e-06
C0C490,八德,2023-03-20,24.928708,121.283289,3.4036516e-06
C0C590,觀音,2023-03-20,25.027072,121.153317,1.3711573e-06
C0C620,蘆竹,2023-03-20,25.084275,121.265767,3.4370041e-06
C0C630,大溪,2023-03-20,24.882853,121.265547,3.9093925e-06
C0C650,平鎮,2023-03-20,24.897503,121.214636,3.8117587e-06
C0C660,楊梅,2023-03-20,24.912375,121.143047,3.656233e-06
C0C670,龍潭,2023-03-20,24.870056,121.221389,2.3475895e-06
C0C680,龜山,2023-03-20,25.02846,121.38656,3.6701124e-06
C0C700,中壢,2023-03-20,24.977661,121.256375,3.5223306e-06
C0C710,大溪永福,2023-03-20,24.892936,121.324975,3.8857897e-06
C0C720,竹圍,2023-03-20,25.112692,121.239824,3.4598768e-06
C0C730,中大臨海站,2023-03-20,24.966126,121.008581,0.00018183113
C0C740,觀音工業區,2023-03-20,25.064764,121.114856,1.324179e-06
C0C750,新興坑尾,2023-03-20,25.0061,121.0971,3.4218385e-06
C0D390,關西,2023-03-20,24.7977,121.1732,4.1103062e-06
C0D430,峨眉,2023-03-20,24.6905,121.017189,4.0965233e-06
C0D480,打鐵坑,2023-03-20,24.849664,121.150789,1.832509e-06
C0D540,橫山,2023-03-20,24.71116,121.11693,4.184928e-06
C0D560,竹東,2023-03-20,24.767147,121.057881,1.6857364e-06
C0D580,寶山,2023-03-20,24.735006,121.025192,0.00036630992
C0D590,新豐,2023-03-20,24.87068,120.97721,0.00046703388
C0D650,湖口,2023-03-20,24.904794,121.043628,3.7131233e-06
C0D660,新竹市東區,2023-03-20,24.798681,120.986942,3.825375e-06
C0D670,海天一線,2023-03-20,24.831986,120.914438,0.0003091608
C0D680,香山濕地,2023-03-20,24.783581,120.914988,3.6507035e-06
C0D690,外湖,2023-03-20,24.917735,120.968711,3.5290686e-06
C0E420,竹南,2023-03-20,24.708978,120.888897,3.7511534e-06
C0E430,南庄,2023-03-20,24.601775,121.000214,4.1088756e-06
C0E520,大湖,2023-03-20,24.41494,120.87087,4.6225377e-06
C0E540,後龍,2023-03-20,24.606489,120.783933,3.931429e-06
C0E550,明德,2023-03-20,24.583486,120.885411,4.30454e-06
C0E590,通霄,2023-03-20,24.471892,120.704622,1.2187434e-05
C0E730,頭份,2023-03-20,24.688247,120.912206,3.9678566e-06
C0E740,造橋,2023-03-20,24.637056,120.864778,0.0034217103
C0E750,苗栗,2023-03-20,24.564569,120.824575,0.0047096577
C0E780,銅鑼,2023-03-20,24.489681,120.790853,4.2542692e-06
C0E791,卓蘭,2023-03-20,24.3126,120.8244,5.58754e-06
C0E810,西湖,2023-03-20,24.562947,120.7485,9.970935e-06
C0E820,獅潭,2023-03-20,24.539133,120.920042,0.010912523
C0E830,苑裡,2023-03-20,24.439714,120.653053,1.0874003e-05
C0E850,大河,2023-03-20,24.618069,120.948578,4.415091e-06
C0E870,高鐵苗栗,2023-03-20,24.60725,120.826094,3.930106e-06
C0E910,海埔,2023-03-20,24.648767,120.772435,8.9277e-06
C0E920,通霄漁港,2023-03-20,24.498589,120.673876,3.3279473e-06
C0E930,龍鳳,2023-03-20,24.700034,120.859125,3.967796e-06
C0F000,大肚,2023-03-20,24.15295,120.572117,1.5981015e-05
C0F0B0,石岡,2023-03-20,24.276061,120.777644,6.191738e-06
C0F850,東勢,2023-03-20,24.246428,120.833047,0.0019069732
C0F930,大甲,2023-03-20,24.347667,120.640403,1.1791086e-05
C0F970,大坑,2023-03-20,24.173142,120.722289,1.2289218e-05
C0F9A0,中竹林,2023-03-20,24.103556,120.751061,7.234843e-06
C0F9I0,神岡,2023-03-20,24.272481,120.658314,1.3205245e-05
C0F9K0,大安,2023-03-20,24.345061,120.588025,1.34524835e-05
C0F9L0,后里,2023-03-20,24.310436,120.729725,4.8425104e-06
C0F9M0,豐原,2023-03-20,24.254322,120.720692,1.147077e-05
C0F9N0,大里,2023-03-20,24.092464,120.701378,4.805496e-06
C0F9O0,潭子,2023-03-20,24.213106,120.703933,4.4178496e-06
C0F9P0,清水,2023-03-20,24.312297,120.562242,2.9593828e-06
C0F9Q0,外埔,2023-03-20,24.347817,120.705686,1.3223757e-05
C0F9R0,龍井,2023-03-20,24.184536,120.528972,2.815554e-06
C0F9S0,烏日,2023-03-20,24.107058,120.624103,5.298883e-06
C0F9T0,西屯,2023-03-20,24.179494,120.641275,4.067141e-06
C0F9U0,南屯,2023-03-20,24.137006,120.637969,1.2408408e-05
C0F9X0,大雅(中科園區),2023-03-20,24.21528,120.62445,3.994025e-06
C0FA10,松柏,2023-03-20,24.429115,120.617482,1.0916686e-05
C0FA20,溫寮,2023-03-20,24.372177,120.583125,1.3069847e-05
C0FA30,梧棲,2023-03-20,24.256003,120.523381,1.1762255e-05
C0FA40,臺中電廠,2023-03-20,24.2146,120.4907,2.815554e-06
C0FA50,霧峰,2023-03-20,24.0419,120.6995,1.4040995e-05
C0G620,芬園,2023-03-20,24.015678,120.6213,5.2629844e-06
C0G640,鹿港,2023-03-20,24.0753,120.430481,2.4060864e-06
C0G650,員林,2023-03-20,23.946503,120.585597,1.5286974e-05
C0G660,溪湖,2023-03-20,23.94835,120.479122,1.36269655e-05
C0G720,溪州,2023-03-20,23.851589,120.499093,1.5683445e-05
C0G730,二林,2023-03-20,23.903325,120.376081,2.6350565e-06
C0G740,大城,2023-03-20,23.852487,120.320935,1.3676073e-05
C0G770,福興,2023-03-20,24.041289,120.437669,1.4507504e-05
C0G780,秀水,2023-03-20,24.03405,120.503869,1.3396678e-05
C0G800,埔鹽,2023-03-20,24.000394,120.431683,2.5706006e-06
C0G810,埔心,2023-03-20,23.947633,120.525456,1.3591858e-05
C0G820,田尾,2023-03-20,23.901669,120.509389,4.0682976e-06
C0G830,埤頭,2023-03-20,23.866003,120.452806,1.7013956e-05
C0G840,北斗,2023-03-20,23.877586,120.514222,4.0682976e-06
C0G860,社頭,2023-03-20,23.897647,120.5862,4.1471244e-06
C0G870,芳苑,2023-03-20,23.922303,120.320025,1.9839329e-06
C0G880,二水,2023-03-20,23.810742,120.6173,7.156143e-06
C0G890,伸港,2023-03-20,24.148933,120.484403,1.1979485e-05
C0G900,線西,2023-03-20,24.143358,120.443536,1.3156737e-05
C0G910,花壇,2023-03-20,24.032076,120.549461,1.5474898e-05
C0G920,永靖,2023-03-20,23.924703,120.547533,4.3846653e-06
C0G940,竹塘,2023-03-20,23.848253,120.386764,1.5182902e-05
C0G950,防潮門,2023-03-20,24.1835,120.4871,2.8255924e-06
C0G960,福寶,2023-03-20,24.0443,120.3814,1.23835225e-05
C0G970,三豐,2023-03-20,23.882,120.2895,1.9839329e-06
C0H890,埔里,2023-03-20,23.972169,120.952425,0.02317617
C0H950,中寮,2023-03-20,23.884447,120.766406,7.5978564e-06
C0H960,草屯,2023-03-20,23.973672,120.68085,1.8500177e-05
C0I110,竹山,2023-03-20,23.761225,120.688156,1.7730128e-05
C0I360,水里,2023-03-20,23.812553,120.849792,8.395622e-06
C0I380,集集,2023-03-20,23.828206,120.801467,0.0014474583
C0I410,名間,2023-03-20,23.837053,120.701447,1.7619486e-05
C0I420,國姓,2023-03-20,24.037803,120.855072,0.0033462925
C0I460,南投,2023-03-20,23.911469,120.687331,7.2218627e-06
C0K250,崙背,2023-03-20,23.75555,120.318925,1.418376e-05
C0K280,四湖,2023-03-20,23.630414,120.227125,1.2170313e-05
C0K291,宜梧,2023-03-20,23.536281,120.169329,1.4631803e-05
C0K330,虎尾,2023-03-20,23.719183,120.442036,4.747852e-06
C0K390,土庫,2023-03-20,23.679029,120.395574,4.418039e-06
C0K400,斗六,2023-03-20,23.720583,120.541127,6.3051693e-06
C0K410,北港,2023-03-20,23.573957,120.292802,1.6736707e-05
C0K420,西螺,2023-03-20,23.800407,120.467394,3.6716212e-06
C0K430,褒忠,2023-03-20,23.690938,120.303634,2.4816397e-06
C0K440,二崙,2023-03-20,23.772797,120.408944,1.7993983e-05
C0K450,大埤,2023-03-20,23.646074,120.431537,1.9472907e-05
C0K460,斗南,2023-03-20,23.678734,120.478359,5.863871e-06
C0K470,林內,2023-03-20,23.748675,120.609642,1.6893375e-05
C0K480,莿桐,2023-03-20,23.761192,120.502372,1.5984278e-05
C0K500,元長,2023-03-20,23.64981,120.315024,1.5044363e-05
C0K510,水林,2023-03-20,23.572924,120.24597,1.3408463e-05
C0K530,臺西,2023-03-20,23.701547,120.197559,0.002065203
C0K550,蔦松,2023-03-20,23.514319,120.229736,3.1670907e-06
C0K560,棋山,2023-03-20,23.68645,120.603417,8.053683e-06
C0K580,高鐵雲林,2023-03-20,23.737456,120.417944,1.9138643e-05
C0K590,雲林東勢,2023-03-20,23.674192,120.255721,1.2782525e-05
C0K600,箔子寮,2023-03-20,23.6197,120.14,0.0038596203
C0M410,馬頭山,2023-03-20,23.324361,120.582017,7.6032056e-06
C0M520,東後寮,2023-03-20,23.369908,120.248065,1.5954945e-05
C0M640,中埔,2023-03-20,23.42538,120.5229,1.8087594e-05
C0M650,朴子,2023-03-20,23.43463,120.23902,1.4894881e-05
C0M660,溪口,2023-03-20,23.604131,120.403569,2.8669924e-06
C0M670,大林,2023-03-20,23.600616,120.45841,2.8837278e-06
C0M680,太保,2023-03-20,23.455062,120.331455,1.8276665e-05
C0M690,水上,2023-03-20,23.419734,120.388909,3.48344e-06
C0M700,竹崎,2023-03-20,23.526178,120.555508,1.8743882e-05
C0M710,東石,2023-03-20,23.458927,120.15385,1.191744e-05
C0M720,番路,2023-03-20,23.464657,120.554156,1.9071813e-05
C0M730,嘉義市東區,2023-03-20,23.457673,120.460531,1.6740314e-05
C0M740,六腳,2023-03-20,23.492871,120.290625,4.371668e-06
C0M750,布袋,2023-03-20,23.380878,120.167789,0.0014765981
C0M760,民雄,2023-03-20,23.551754,120.428457,1.610663e-05
C0M770,嘉義梅山,2023-03-20,23.585398,120.555587,6.2302806e-06
C0M780,鹿草,2023-03-20,23.41134,120.30835,4.1212056e-06
C0M790,新港,2023-03-20,23.553269,120.345728,1.571664e-05
C0M800,茶山,2023-03-20,23.299075,120.664767,9.209048e-06
C0M880,好美里,2023-03-20,23.3364,120.138,1.3466912e-05
C0N010,鯤鯓國小,2023-03-20,23.1879,120.0889,0.00845311
C0N020,城西,2023-03-20,23.0568,120.0956,1.6010288e-05
C0N030,四草,2023-03-20,23.0235,120.1116,0.0011243563
C0N040,蘆竹溝,2023-03-20,23.2344,120.0961,1.292092e-05
C0N050,蚵寮,2023-03-20,23.301,120.1104,0.0013964608
C0O810,曾文,2023-03-20,23.219681,120.497328,6.8396325e-06
C0O830,北寮,2023-03-20,23.079561,120.495008,1.0914969e-05
C0O840,王爺宮,2023-03-20,23.222064,120.40085,4.581201e-06
C0O860,大內,2023-03-20,23.11885,120.36083,7.966379e-06
C0O900,善化,2023-03-20,23.112883,120.297219,7.754829e-06
C0O930,玉井,2023-03-20,23.126042,120.46055,2.1501366e-05
C0O950,安南,2023-03-20,23.076694,120.144861,0.0010369591
C0O960,崎頂,2023-03-20,22.959547,120.369317,2.6007061e-05
C0O970,虎頭埤,2023-03-20,23.021375,120.347878,1.1300539e-05
C0O980,新市,2023-03-20,23.061614,120.298197,2.4705254e-05
C0O990,媽廟,2023-03-20,22.99175,120.293525,1.2409946e-05
C0R150,三地門,2023-03-20,22.709889,120.639944,2.3692086e-05
C0R160,鹽埔,2023-03-20,22.739558,120.530778,4.0822346e-05
C0R170,屏東,2023-03-20,22.660269,120.494072,3.9990176e-05
C0R190,赤山,2023-03-20,22.592333,120.614306,2.3108272e-05
C0R220,潮州,2023-03-20,22.534361,120.54,5.3454973e-05
C0R240,來義,2023-03-20,22.527306,120.625111,5.874523e-05
C0R260,春日,2023-03-20,22.370361,120.628306,0.012517318
C0R270,琉球嶼,2023-03-20,22.332244,120.362236,0.011748569
C0R280,檳榔,2023-03-20,22.076078,120.836777,2.656188e-05
C0R320,車城,2023-03-20,22.0744,120.716247,1.7175791e-05
C0R341,牡丹,2023-03-20,22.130036,120.792639,0.03664284
C0R350,貓鼻頭,2023-03-20,21.921774,120.7358,1.8019176e-05
C0R470,高樹,2023-03-20,22.826389,120.600806,4.1106654e-05
C0R480,長治,2023-03-20,22.693128,120.542622,1.75718e-05
C0R490,九如,2023-03-20,22.7405,120.490503,3.7913214e-05
C0R520,崁頂,2023-03-20,22.514781,120.506914,1.4709341e-05
C0R540,佳冬,2023-03-20,22.419456,120.552375,1.6770195e-05
C0R550,新埤,2023-03-20,22.467947,120.582894,5.619108e-05
C0R560,新園,2023-03-20,22.5434,120.461558,4.0131872e-05
C0R570,麟洛,2023-03-20,22.65078,120.52719,3.9315393e-05
C0R580,南州,2023-03-20,22.48591,120.50274,1.51744625e-05
C0R590,里港,2023-03-20,22.77919,120.49459,1.5802909e-05
C0R620,墾雷,2023-03-20,21.900836,120.855269,1.760004e-05
C0R640,東港,2023-03-20,22.46247,120.44074,4.3202952e-05
C0R650,竹田,2023-03-20,22.58486,120.54344,2.0321846e-05
C0R660,枋寮,2023-03-20,22.367722,120.590647,0.0073415893
C0R670,楓港,2023-03-20,22.190131,120.692156,0.051056247
C0R680,佳樂水,2023-03-20,21.993578,120.861633,1.778174e-05
C0R690,墾丁,2023-03-20,21.966756,120.810269,2.1007645e-05
C0R700,枋山,2023-03-20,22.246844,120.661086,0.13146979
C0R710,龍磐,2023-03-20,21.931672,120.838942,1.9294468e-05
C0R720,旭海,2023-03-20,22.205403,120.887614,0.00013122123
C0R730,大坪頂,2023-03-20,22.024633,120.69355,2.0344356e-05
C0R740,獅子,2023-03-20,22.201569,120.70525,0.039046817
C0R760,南仁湖,2023-03-20,22.084681,120.863353,2.7208438e-05
C0R770,保力,2023-03-20,22.071122,120.764111,1.8879813e-05
C0R780,滿州,2023-03-20,22.024403,120.839892,1.8149989e-05
C0R790,九棚,2023-03-20,22.14195,120.889281,0.00014209597
C0R800,丹路,2023-03-20,22.204481,120.750989,0.06116433
C0R810,內獅,2023-03-20,22.305064,120.642986,0.06825209
C0R830,高士,2023-03-20,22.121825,120.836781,3.142228e-05
C0R850,林邊,2023-03-20,22.4634,120.5339,4.4590965e-05
C0R860,鼻頭,2023-03-20,22.1043,120.8979,2.7613318e-05
C0R870,興海,2023-03-20,21.9752,120.8439,1.778174e-05
C0R880,後壁湖,2023-03-20,21.9457,120.7457,1.7170436e-05
C0R890,山海,2023-03-20,21.9878,120.7091,1.7583094e-05
C0R900,竹坑,2023-03-20,22.1385,120.7022,0.097517125
C0R910,下寮,2023-03-20,22.3929,120.5548,1.6879687e-05
C0R920,塭仔,2023-03-20,22.4169,120.5197,1.6345204e-05
C0R930,萬丹,2023-03-20,22.5885,120.4851,1.924322e-05
C0R940,加祿堂,2023-03-20,22.3363,120.6217,0.018278066
C0S710,鹿野,2023-03-20,22.917711,121.122994,9.5059295e-06
C0S730,綠島,2023-03-20,22.6672,121.47533,2.725903e-05
C0S740,池上,2023-03-20,23.119628,121.209469,8.31022e-06
C0S770,大溪山,2023-03-20,22.478475,120.943325,1.0253789e-05
C0S790,金崙,2023-03-20,22.538122,120.966875,9.047655e-05
C0S810,東河,2023-03-20,22.972672,121.303986,1.2005571e-05
C0S830,長濱,2023-03-20,23.286817,121.411975,6.7245974e-06
C0S840,南田,2023-03-20,22.279725,120.889208,0.0002544345
C0S890,關山,2023-03-20,23.0395,121.175017,5.353741e-06
C0S900,蘭嶼高中,2023-03-20,22.04909,121.51214,4.1251325e-05
C0S910,蘭嶼燈塔,2023-03-20,22.081197,121.503117,4.6698482e-05
C0S920,金峰嘉蘭,2023-03-20,22.594789,120.960825,1.0289583e-05
C0S930,延平,2023-03-20,22.902581,121.084058,8.22241e-06
C0S940,石寧山,2023-03-20,23.223772,121.406639,7.268904e-06
C0S950,七塊厝,2023-03-20,22.954453,121.229922,9.243502e-06
C0S960,香蘭,2023-03-20,22.587569,120.993375,1.2681988e-05
C0S970,加津林,2023-03-20,22.416211,120.926942,1.5579024e-05
C0S990,山豬窟,2023-03-20,22.318619,120.857372,0.00015982808
C0SA00,歷坵,2023-03-20,22.520969,120.89185,9.040391e-06
C0SA10,檳榔四格山,2023-03-20,22.810031,121.109308,8.134757e-06
C0SA30,都歷,2023-03-20,23.020333,121.323642,9.111877e-06
C0SA40,瑞和,2023-03-20,22.974361,121.156697,5.639608e-06
C0SA60,知本（水試所）,2023-03-20,22.702394,121.082761,1.1160495e-05
C0SA80,土坂,2023-03-20,22.453108,120.887572,0.007552962
C0SA90,達仁林場,2023-03-20,22.264347,120.823972,0.00108663
C0T870,鯉魚潭,2023-03-20,23.935639,121.508944,1.1075408e-05
C0T900,西林,2023-03-20,23.8119,121.441458,8.8131455e-06
C0T960,光復,2023-03-20,23.660694,121.424964,6.395043e-06
C0T9A0,月眉山,2023-03-20,23.809928,121.539828,7.2203134e-06
C0T9D0,和中,2023-03-20,24.26676,121.74103,5.915562e-06
C0T9E0,大坑,2023-03-20,23.880628,121.581981,6.9721505e-06
C0T9F0,水璉,2023-03-20,23.797131,121.542514,8.463107e-06
C0T9I0,豐濱,2023-03-20,23.583897,121.514806,6.0999023e-06
C0T9M0,靜浦,2023-03-20,23.455167,121.495028,9.629426e-06
C0T9N0,富里,2023-03-20,23.171639,121.249378,4.8424504e-06
C0U600,礁溪,2023-03-20,24.817539,121.765608,0.00055592303
C0U650,玉蘭,2023-03-20,24.675286,121.587061,4.414931e-06
C0U750,龜山島,2023-03-20,24.841667,121.953133,9.155456e-06
C0U760,東澳,2023-03-20,24.52196,121.83318,0.055707205
C0U770,南澳,2023-03-20,24.44935,121.81022,6.647096e-06
C0U780,五結,2023-03-20,24.68637,121.79794,0.00011170868
C0U860,頭城,2023-03-20,24.85323,121.8308,7.70368e-06
C0U870,大礁溪,2023-03-20,24.791042,121.675047,0.008680609
C0U880,北關,2023-03-20,24.9072,121.8734,4.797679e-06
C0U890,三星,2023-03-20,24.66812,121.65302,5.813967e-06
C0U900,內城,2023-03-20,24.71813,121.68766,0.012008573
C0U910,冬山,2023-03-20,24.63373,121.7937,7.915784e-06
C0U940,羅東,2023-03-20,24.68184,121.74934,0.0001421239
C0U970,大福,2023-03-20,24.80064,121.81389,0.00010896194
C0U990,員山,2023-03-20,24.74435,121.72247,9.661934e-06
C0UA00,土場,2023-03-20,24.576533,121.495333,4.5060706e-06
C0UA80,大溪漁港,2023-03-20,24.941801,121.902955,8.03928e-06
C0UA90,石城,2023-03-20,24.980444,121.951214,5.644924e-06
C0UB00,淡江大學蘭陽校園,2023-03-20,24.823239,121.730383,0.0062138853
C0UB20,壯圍,2023-03-20,24.7359,121.8163,1.0196003e-05
C0V250,甲仙,2023-03-20,23.080106,120.591758,8.895194e-06
C0V260,月眉,2023-03-20,22.971003,120.539853,3.169607e-05
C0V310,美濃,2023-03-20,22.898742,120.519153,1.5490521e-05
C0V350,溪埔,2023-03-20,22.738578,120.446797,4.428926e-05
C0V360,內門,2023-03-20,22.975481,120.466769,1.0931762e-05
C0V370,古亭坑,2023-03-20,22.893178,120.401947,1.4308929e-05
C0V400,阿公店,2023-03-20,22.804194,120.355528,1.6103313e-05
C0V440,鳳山,2023-03-20,22.646653,120.356122,3.2250566e-05
C0V450,鳳森,2023-03-20,22.545064,120.392592,4.1942087e-05
C0V490,新興,2023-03-20,22.627422,120.298803,3.3992972e-05
C0V530,阿蓮,2023-03-20,22.883208,120.327508,2.0840369e-05
C0V610,梓官,2023-03-20,22.760558,120.267211,3.4572775e-05
C0V620,永安,2023-03-20,22.82315,120.236856,9.667216e-06
C0V630,茄萣,2023-03-20,22.906642,120.182608,0.0007590444
C0V640,湖內,2023-03-20,22.887139,120.2445,9.766097e-06
C0V650,彌陀,2023-03-20,22.783806,120.246361,9.667216e-06
C0V660,岡山,2023-03-20,22.797078,120.294958,1.2622153e-05
C0V680,仁武,2023-03-20,22.701083,120.347722,9.952762e-06
C0V690,鼓山,2023-03-20,22.623325,120.275575,6.1702344e-06
C0V700,三民,2023-03-20,22.645017,120.311233,3.3992972e-05
C0V710,苓雅,2023-03-20,22.622742,120.330669,6.690177e-06
C0V720,林園,2023-03-20,22.507747,120.394511,8.755735e-06
C0V730,大寮,2023-03-20,22.605614,120.395717,1.0313101e-05
C0V740,旗山,2023-03-20,22.888614,120.483597,1.5089579e-05
C0V750,路竹,2023-03-20,22.854997,120.259439,3.875952e-05
C0V760,橋頭,2023-03-20,22.757806,120.30575,4.0206036e-05
C0V770,大社,2023-03-20,22.730306,120.346639,3.437818e-05
C0V790,萬山,2023-03-20,22.905944,120.688056,1.3494127e-05
C0V800,六龜,2023-03-20,22.997889,120.633583,1.4541495e-05
C0V810,左營,2023-03-20,22.67491,120.28491,3.7095964e-05
C0V820,小林,2023-03-20,23.148408,120.63325,2.0225329e-05
C0V840,鳳鼻頭,2023-03-20,22.5083,120.3591,8.968654e-06
C0V850,蚵仔寮,2023-03-20,22.7256,120.2527,3.084138e-05
C0V860,南寮,2023-03-20,22.7616,120.2339,3.084891e-05
C0V870,文安,2023-03-20,22.8025,120.2164,0.0010587792
C0V880,興達,2023-03-20,22.8778,120.2127,0.0007590444
C0V890,前鎮,2023-03-20,22.5718,120.3117,3.6368918e-05
C0V900,汕尾,2023-03-20,22.4782,120.4151,1.7040717e-05
C0X050,東河,2023-03-20,23.296598,120.385608,5.044666e-06
C0X060,下營,2023-03-20,23.22695,120.256261,1.6835735e-05
C0X080,佳里,2023-03-20,23.173039,120.145086,1.4153438e-05
C0X100,臺南市北區,2023-03-20,23.010394,120.194228,0.000575189
C0X110,臺南市南區,2023-03-20,22.961189,120.188378,2.6310152e-05
C0X120,麻豆,2023-03-20,23.183289,120.248611,4.312203e-06
C0X130,官田,2023-03-20,23.193217,120.315422,4.990732e-06
C0X140,西港,2023-03-20,23.125608,120.203108,1.9311901e-05
C0X150,安定,2023-03-20,23.102614,120.227839,5.96118e-06
C0X160,仁德,2023-03-20,22.968258,120.257689,2.7272526e-05
C0X170,關廟,2023-03-20,22.963017,120.327797,3.0069872e-05
C0X180,山上,2023-03-20,23.0757,120.363253,7.212461e-06
C0X190,安平,2023-03-20,22.993161,120.152181,0.001072221
C0X200,左鎮,2023-03-20,23.056758,120.408522,2.3506665e-05
C0X210,白河,2023-03-20,23.347466,120.414427,1.9266721e-05
C0X220,學甲,2023-03-20,23.230367,120.182187,1.6690834e-05
C0X230,鹽水,2023-03-20,23.272621,120.247641,1.5860569e-05
C0X240,關子嶺,2023-03-20,23.331169,120.508025,1.6887721e-05
C0X250,新營,2023-03-20,23.310689,120.316681,4.5480915e-06
C0X260,後壁,2023-03-20,23.366358,120.362326,1.7164019e-05
C0X280,將軍,2023-03-20,23.214999,120.13577,0.0014532891
C0X290,北門,2023-03-20,23.267772,120.125481,1.3739134e-05
C0X300,鹿寮,2023-03-20,23.386047,120.477331,8.04435e-06
C0X310,七股,2023-03-20,23.147289,120.086253,1.4669555e-05
C0X320,柳營,2023-03-20,23.253328,120.375253,1.7289432e-05
C0Z020,明里,2023-03-20,23.208717,121.262342,5.8661312e-06
C0Z061,玉里,2023-03-20,23.3215,121.339656,6.0228253e-06
C0Z070,舞鶴,2023-03-20,23.46811,121.37407,6.077814e-06
C0Z080,富源,2023-03-20,23.587642,121.378225,4.7786284e-06
C0Z100,東華,2023-03-20,23.89525,121.549833,9.538968e-06
C0Z150,吉安光華,2023-03-20,23.930925,121.595153,1.612572e-05
C0Z160,鳳林,2023-03-20,23.746114,121.453411,7.255544e-06
C0Z170,卓溪,2023-03-20,23.3443,121.3029,5.0779227e-06
C0Z180,新城,2023-03-20,24.03946,121.60454,9.044668e-06
C0Z190,富世,2023-03-20,24.14743,121.6297,7.1120353e-06
C0Z200,萬榮,2023-03-20,23.709219,121.420106,8.4473995e-06
C0Z210,瑞穗,2023-03-20,23.5239,121.39021,5.9769427e-06
C0Z230,和平,2023-03-20,24.30717,121.77007,0.03554466
C0Z270,蕃薯寮,2023-03-20,23.73835,121.540108,7.842708e-06
C0Z280,德武,2023-03-20,23.47426,121.41071,6.84655e-06
C0Z300,東里,2023-03-20,23.26853,121.30547,5.360935e-06
C0Z310,清水斷崖,2023-03-20,24.218294,121.689142,0.0049075056
C0Z330,安通山,2023-03-20,23.290728,121.348528,5.604334e-06
CAA010,國一N013K,2023-03-20,25.06944,121.6281,5.7705224e-06
CAA020,國一S026K,2023-03-20,25.07639,121.4964,3.863855e-06
CAA030,國三S010K,2023-03-20,25.08,121.6475,0.0053647337
CAA040,國三S016K,2023-03-20,25.03306,121.6158,5.6612917e-06
CAA050,國三S037K,2023-03-20,24.9828,121.471,4.2523507e-06
CAA060,國三S042K,2023-03-20,24.96,121.4306,5.0961007e-06
CAA070,國三N046K,2023-03-20,24.95083,121.3958,3.944288e-06
CAA080,國三S054K,2023-03-20,24.93917,121.3239,3.1842746e-06
CAA090,國三A005K,2023-03-20,25.00194,121.5975,0.005207014
CAAH60,大安森林,2023-03-20,25.02955,121.53628,5.476521e-06
CAB010,國一S001K,2023-03-20,25.11583,121.7286,3.9363113e-05
CAB020,國一S006K,2023-03-20,25.08694,121.6869,0.0009875374
CAB030,國三S004K,2023-03-20,25.11444,121.6886,0.0077014575
CAB040,國三S007K,2023-03-20,25.09694,121.6678,0.0012201087
CAB050,國三K002K,2023-03-20,25.14583,121.7217,5.137897e-06
CAC010,國一S072K,2023-03-20,24.89583,121.1342,3.647989e-06
CAC020,國二E009K,2023-03-20,25.02111,121.2736,3.5426378e-06
CAC030,國三N063K,2023-03-20,24.889,121.26,3.9128727e-06
CAC050,西濱S023K,2023-03-20,25.11649,121.27551,3.448259e-06
CAC060,西濱S032K,2023-03-20,25.091966,121.192505,3.4705179e-06
CAD010,國一S105K,2023-03-20,24.726316,120.940643,0.0002384169
CAD020,國一N077K,2023-03-20,24.885,121.0889,3.688161e-06
CAD030,國一S082K,2023-03-20,24.87667,121.0467,3.6944555e-06
CAD040,國一S088K,2023-03-20,24.84444,121.0214,0.00010484027
CAD050,國一N094K,2023-03-20,24.79778,121.0089,3.8167495e-06
CAD060,國一S098K,2023-03-20,24.76056,120.9911,8.962146e-05
CAD070,國三N076K,2023-03-20,24.800303,121.195739,4.2584584e-06
CAD080,國三N085K,2023-03-20,24.78333,121.1211,4.027689e-06
CAD090,國三S103K,2023-03-20,24.75861,120.9608,0.00020358298
CAD100,西濱N066K,2023-03-20,24.8956,120.9649,3.5157366e-06
CAD110,西濱S082K,2023-03-20,24.751724,120.905028,0.001361577
CAE010,國一N142K,2023-03-20,24.453119,120.783221,0.0032513447
CAE020,國一S114K,2023-03-20,24.668835,120.885811,0.001502973
CAE030,國一S123K,2023-03-20,24.59594,120.86071,4.337987e-06
CAE040,國一S132K,2023-03-20,24.524506,120.820831,4.211436e-06
CAE050,國一S152K,2023-03-20,24.375492,120.749184,4.2737233e-06
CAE060,國三N119K,2023-03-20,24.675432,120.847389,3.9663396e-06
CAE070,國三N151K,2023-03-20,24.440218,120.681656,1.2586392e-05
CAE080,國三S140K,2023-03-20,24.522345,120.725006,4.1426065e-06
CAE090,國三S156K,2023-03-20,24.39798,120.669487,3.6950544e-06
CAE100,西濱N107K,2023-03-20,24.5958,120.7394,3.722189e-06
CAE110,西濱S129K,2023-03-20,24.4472,120.6428,1.090208e-05
CAF010,國一N174K,2023-03-20,24.2049,120.6552,4.020118e-06
CAF020,國一S162K,2023-03-20,24.295534,120.695976,4.0776004e-06
CAF030,國一S169K,2023-03-20,24.237116,120.688271,1.3383194e-05
CAF040,國一S188K,2023-03-20,24.118546,120.585747,3.941028e-06
CAF050,國三N208K,2023-03-20,24.066147,120.660919,1.5786612e-05
CAF060,國三S168K,2023-03-20,24.308519,120.614471,3.941911e-06
CAF070,國三S173K,2023-03-20,24.27397,120.593079,1.3272248e-05
CAF080,國三S178K,2023-03-20,24.226721,120.589058,1.3026619e-05
CAF090,國四E5K,2023-03-20,24.296465,120.643135,3.8906956e-06
CAF100,西濱N151K,2023-03-20,24.275964,120.547681,2.8241377e-06
CAG010,國一N198K,2023-03-20,24.063889,120.523056,1.35434275e-05
CAG030,國一S207K,2023-03-20,23.988304,120.508092,3.916535e-06
CAG040,國三N191K,2023-03-20,24.139256,120.5215,1.193951e-05
CAG050,國三N196K,2023-03-20,24.107155,120.554482,3.98567e-06
CAG060,國三S202K,2023-03-20,24.092468,120.603256,5.321859e-06
CAG070,西濱S173K,2023-03-20,24.1081,120.434576,2.422355e-06
CAG080,西濱S189K,2023-03-20,23.987857,120.369607,2.0753325e-06
CAG090,西濱N210K,2023-03-20,23.843536,120.293236,1.3789105e-05
CAG100,王功漁港,2023-03-20,23.96824,120.32586,1.2880677e-05
CAH010,國三N223K,2023-03-20,23.955116,120.662376,1.8771609e-05
CAH020,國三S217K,2023-03-20,24.00683,120.653214,4.647388e-06
CAH030,茶改場竹圍站,2023-03-20,23.860083,120.637528,1.5863066e-05
CAHA00,消防署訓練中心,2023-03-20,23.82137,120.72293,8.270855e-06
CAJ010,國三N252K,2023-03-20,23.77412,120.64061,1.6308288e-05
CAJ020,國一N234K,2023-03-20,23.74633,120.467926,1.853965e-05
CAJ030,西濱N222K,2023-03-20,23.737734,120.256132,1.24109165e-05
CAJ040,西濱S241K,2023-03-20,23.623426,120.172646,0.002582589
CAJ050,海口故事園區,2023-03-20,23.57543,120.14121,0.0038596203
CAL010,國一N250K,2023-03-20,23.610292,120.436867,3.09287e-06
CAL020,國一S262K,2023-03-20,23.512333,120.403038,3.0797603e-06
CAL030,國一N268K,2023-03-20,23.460833,120.375833,1.4627478e-05
CAL040,國一N273K,2023-03-20,23.416666,120.355,4.55135e-06
CAL050,國三N279K,2023-03-20,23.596111,120.523333,5.8144274e-06
CAL060,國三S286K,2023-03-20,23.533917,120.484583,1.7200708e-05
CAL070,國三N295K,2023-03-20,23.468598,120.499369,1.7821245e-05
CAL080,國三N303K,2023-03-20,23.428611,120.452416,1.7289598e-05
CAL090,西濱S257K,2023-03-20,23.502278,120.171861,0.0019768376
CAL100,西濱S267K,2023-03-20,23.41613,120.162872,0.0014765981
CAL110,布袋國中,2023-03-20,23.35893,120.18026,1.6378597e-05
CAN010,國一N288K,2023-03-20,23.30609,120.290033,4.6110067e-06
CAN020,國一S306K,2023-03-20,23.1565,120.239513,1.6806747e-05
CAN030,國一N316K,2023-03-20,23.07309,120.253014,2.1142525e-05
CAN040,國一N323K,2023-03-20,23.00421,120.245922,9.301921e-06
CAN050,國一N335K,2023-03-20,22.897584,120.269895,2.0460453e-05
CAN060,國三S311K,2023-03-20,23.346388,120.438888,1.9112125e-05
CAN070,國三S329K,2023-03-20,23.212777,120.355833,5.9397744e-06
CAN080,國三N336K,2023-03-20,23.154722,120.345,1.9126455e-05
CAN090,國三S342K,2023-03-20,23.106694,120.327528,7.4474e-06
CAN100,國三S366K,2023-03-20,22.9077,120.3513,1.5762393e-05
CAN110,西濱S280K,2023-03-20,23.3052,120.14891,0.0019863606
CAN120,西濱N304K,2023-03-20,23.103439,120.086694,0.008292292
CAN130,水試所海水繁養殖中心,2023-03-20,23.120802,120.07968,0.008149555
CAN140,六官養殖協會,2023-03-20,23.22881,120.29962,1.9596979e-05
CAP010,國一S342K,2023-03-20,22.845555,120.295,3.9387487e-05
CAP020,國一S346K,2023-03-20,22.812222,120.314166,1.2622153e-05
CAP030,國一N351K,2023-03-20,22.765833,120.328888,4.0206036e-05
CAP040,國一N361K,2023-03-20,22.680555,120.328611,8.196221e-06
CAP050,國三N372K,2023-03-20,22.858611,120.373611,3.4230376e-05
CAP060,國三S385K,2023-03-20,22.767777,120.444444,4.0955965e-05
CAP070,高雄燈塔,2023-03-20,22.6146,120.2647,6.1702344e-06
CAQ010,國三N425K,2023-03-20,22.480277,120.531666,1.560899e-05
CAQ020,國三S415K,2023-03-20,22.568,120.528,5.038406e-05
CAQ030,崎峰國小,2023-03-20,22.42565,120.49521,4.1329997e-05
E2K600,四湖植物園,2023-03-20,23.676986,120.163433,0.002065203
E2P980,林試六龜中心,2023-03-20,22.991703,120.645722,1.4393893e-05
E2S390,太麻里分所,2023-03-20,22.5988,120.9811,1.1720903e-05
E2S960,林試太麻里2,2023-03-20,22.598014,120.989761,1.2681988e-05
E2S980,林試太麻里1,2023-03-20,22.598922,120.980044,1.1720903e-05
G2AI50,關渡,2023-03-20,25.11575,121.492,3.87214e-06
G2F820,農業試驗所,2023-03-20,24.031261,120.688133,1.4116586e-05
G2F820,農試所(霧峰),2023-03-20,24.031261,120.688133,1.4116586e-05
G2L020,嘉義分所,2023-03-20,23.485028,120.473806,6.5445306e-06
G2L020,嘉義農試,2023-03-20,23.485028,120.473806,6.5445306e-06
G2M350,溪口農場,2023-03-20,23.58565,120.408111,3.1325824e-06
G2P820,鳳山園試所,2023-03-20,22.646611,120.356083,3.2250566e-05
G2P820,鳳山農試,2023-03-20,22.646611,120.356083,3.2250566e-05
K2E360,苗栗農改,2023-03-20,24.495722,120.829111,4.2879715e-06
K2E360,苗栗農改場,2023-03-20,24.495722,120.829111,4.2879715e-06
K2E710,大湖分場,2023-03-20,24.422861,120.871833,4.7938233e-06
K2F750,種苗改良場,2023-03-20,24.225972,120.800917,0.0012978961
K2F750,種苗繁殖,2023-03-20,24.225972,120.800917,0.0012978961
U2HA50,臺大竹山,2023-03-20,23.756972,120.681556,1.7637662e-05
V2C250,八德合作社,2023-03-20,24.93775,121.266389,1.9973165e-06
V2C260,八德蔬果,2023-03-20,24.978508,121.281819,3.625273e-06
V2K610,大庄合作社,2023-03-20,23.8068,120.367939,2.474616e-06
V2K620,麥寮合作社,2023-03-20,23.753836,120.294783,1.4227736e-05
