站號,站名,日期,lat,lon,BlastGRU-TW
12J990,口湖工作站,2023-09-27,23.589978,120.180394,0.9904171
12Q970,東港工作站,2023-09-27,22.479997,120.466058,0.9990421
12Q980,恆春工作站,2023-09-27,22.079678,120.714425,0.86209404
466881,新北,2023-09-27,24.9593,121.52,0.030950299
466900,淡水,2023-09-27,25.164889,121.448906,0.044846494
466920,臺北,2023-09-27,25.037658,121.514853,0.03644956
466940,基隆,2023-09-27,25.133314,121.740475,0.042291507
466990,花蓮,2023-09-27,23.975128,121.613275,0.990646
467050,新屋,2023-09-27,25.006744,121.047486,0.19248734
467080,宜蘭,2023-09-27,24.763975,121.756528,0.7320776
467270,田中,2023-09-27,23.873803,120.581286,0.9971661
467300,東吉島,2023-09-27,23.25695,119.667467,0.99861854
467350,澎湖,2023-09-27,23.565503,119.563094,0.74725294
467410,臺南,2023-09-27,22.993239,120.204772,0.9981698
467420,永康,2023-09-27,23.038386,120.2367,0.9980567
467441,高雄,2023-09-27,22.7304,120.3125,0.998646
467480,嘉義,2023-09-27,23.495925,120.432906,0.99682677
467490,臺中,2023-09-27,24.145736,120.684075,0.996366
467540,大武,2023-09-27,22.355675,120.903789,0.7635373
467571,新竹,2023-09-27,24.827853,121.014219,0.19392586
467590,恆春,2023-09-27,22.003897,120.746339,0.8840067
467610,成功,2023-09-27,23.097486,121.373428,0.99635285
467620,蘭嶼,2023-09-27,22.036969,121.558339,0.9810454
467660,臺東,2023-09-27,22.752211,121.154586,0.9290933
467790,墾丁雷達站,2023-09-27,21.948235,120.808028,0.9050145
72AI40,桃改樹林分場,2023-09-27,24.944503,121.386972,0.039919887
72C440,桃園農改,2023-09-27,24.950944,121.030583,0.21708743
72C440,桃園農改場,2023-09-27,24.950944,121.030583,0.21708743
72D680,桃改新埔分場,2023-09-27,24.834444,121.066111,0.22270788
72G600,臺中農改,2023-09-27,24.003028,120.534389,0.9767783
72G600,臺中農改場,2023-09-27,24.003028,120.534389,0.9767783
72K220,南改斗南分場,2023-09-27,23.634556,120.477333,0.9967138
72M360,南改義竹分場,2023-09-27,23.360694,120.279361,0.9958281
72M700,南改鹿草分場,2023-09-27,23.416869,120.283061,0.9953041
72N100,臺南農改,2023-09-27,23.0605,120.342194,0.9987353
72N100,臺南農改場,2023-09-27,23.0605,120.342194,0.9987353
72N240,七股研究中心,2023-09-27,23.081672,120.062894,0.9878269
72Q010,高雄農改,2023-09-27,22.709333,120.525889,0.9967821
72Q010,高雄農改場,2023-09-27,22.709333,120.525889,0.9967821
72S200,東改班鳩分場,2023-09-27,22.829528,121.077694,0.9942804
72S590,東改賓朗果園,2023-09-27,22.813889,121.071278,0.99615836
72T250,花蓮農改,2023-09-27,23.975222,121.563889,0.99499786
72T250,花蓮農改場,2023-09-27,23.975222,121.563889,0.99499786
72U480,花改蘭陽分場,2023-09-27,24.686306,121.716583,0.4003299
72V140,高改旗南分場,2023-09-27,22.857861,120.516667,0.9982839
82A750,茶改北部分場,2023-09-27,24.955778,121.631222,0.99502504
82C160,茶改場,2023-09-27,24.908472,121.185333,0.6197622
82H840,茶改南部分場,2023-09-27,23.762528,120.7405,0.9969356
82S580,茶改東部分場,2023-09-27,22.907694,121.130139,0.99713683
A0K420,麥寮,2023-09-27,23.7988,120.2177,0.99453276
A0W080,吉貝,2023-09-27,23.74,119.6042,0.5499266
A2C560,農工中心,2023-09-27,24.985917,121.239833,0.3679812
A2K360,水試臺西試驗場,2023-09-27,23.717231,120.190522,0.9930551
A2K570,古坑(花卉中心),2023-09-27,23.633531,120.552392,0.9983916
A2K570,古坑花卉中心,2023-09-27,23.63353,120.55239,0.9983916
A2K630,臺大雲林校區,2023-09-27,23.730628,120.423903,0.9932919
A2N290,臺南蘭花園區,2023-09-27,23.340258,120.379661,0.99769545
B2E890,畜試北區分所,2023-09-27,24.527806,120.770972,0.99389154
B2N890,畜產試驗所,2023-09-27,23.058972,120.336406,0.9987353
B2N890,畜試所,2023-09-27,23.058972,120.336406,0.9987353
B2Q810,畜試南區分所,2023-09-27,21.945583,120.802167,0.876688
B2U990,畜試東區分所,2023-09-27,24.669039,121.832561,0.56057686
C0A520,山佳,2023-09-27,24.974944,121.402008,0.039919887
C0A530,坪林,2023-09-27,24.938183,121.70975,0.28121677
C0A540,四堵,2023-09-27,24.8926,121.745736,0.93958217
C0A550,泰平,2023-09-27,24.971197,121.823711,0.999718
C0A560,福山,2023-09-27,24.776203,121.502811,0.99536455
C0A570,桶後,2023-09-27,24.848222,121.597992,0.53643745
C0A640,石碇,2023-09-27,24.993969,121.662917,0.11166533
C0A650,火燒寮,2023-09-27,25.002719,121.742892,0.23935787
C0A660,瑞芳,2023-09-27,25.113169,121.801147,0.20834792
C0A770,科教館,2023-09-27,25.096356,121.516507,0.037137896
C0A860,大坪,2023-09-27,25.165914,121.632969,0.24064045
C0A880,福隆,2023-09-27,25.017842,121.942083,0.3661604
C0A890,雙溪,2023-09-27,25.036003,121.864242,0.21166278
C0A920,富貴角,2023-09-27,25.263783,121.565258,0.05523584
C0A931,三和,2023-09-27,25.233153,121.595236,0.19369122
C0A940,金山,2023-09-27,25.223628,121.643967,0.059362497
C0A950,鼻頭角,2023-09-27,25.129036,121.923372,0.115677774
C0A970,三貂角,2023-09-27,25.007606,122.002058,0.22689845
C0A980,社子,2023-09-27,25.109508,121.469681,0.036541052
C0A9C0,天母,2023-09-27,25.117494,121.537169,0.034505013
C0A9F0,內湖,2023-09-27,25.079422,121.57545,0.03115512
C0AC60,三峽,2023-09-27,24.939025,121.369728,0.037112165
C0AC70,信義,2023-09-27,25.037822,121.564597,0.03228983
C0AC80,文山,2023-09-27,25.00235,121.575728,0.034220845
C0ACA0,新莊,2023-09-27,25.051478,121.446756,0.03865479
C0AD00,三芝,2023-09-27,25.258131,121.501917,0.053074643
C0AD10,八里,2023-09-27,25.150211,121.403947,0.044959716
C0AD30,蘆洲,2023-09-27,25.086594,121.472331,0.037137896
C0AD40,土城,2023-09-27,24.973208,121.445169,0.03490824
C0AD50,鶯歌,2023-09-27,24.951533,121.346294,0.047157016
C0AG80,中和,2023-09-27,24.991622,121.491792,0.034600176
C0AH00,汐止,2023-09-27,25.066881,121.658778,0.03536752
C0AH10,永和,2023-09-27,25.01125,121.508111,0.03407258
C0AH40,平等,2023-09-27,25.129142,121.577086,0.20045547
C0AH50,林口,2023-09-27,25.072181,121.38084,0.15543894
C0AH70,松山,2023-09-27,25.04871,121.55042,0.03228983
C0AH80,深坑,2023-09-27,25.002703,121.628328,0.030256951
C0AI00,五股,2023-09-27,25.07445,121.42728,0.30427083
C0AI10,屈尺,2023-09-27,24.92184,121.54475,0.029465858
C0AI20,白沙灣,2023-09-27,25.283128,121.519058,0.056058194
C0AI30,三重,2023-09-27,25.057328,121.500629,0.039204482
C0AI40,石牌,2023-09-27,25.115597,121.513139,0.03770356
C0AJ20,野柳,2023-09-27,25.20703,121.690021,0.04523875
C0AJ30,淡水觀海,2023-09-27,25.184591,121.408616,0.043189727
C0AJ40,石門,2023-09-27,25.273672,121.601198,0.07703046
C0AJ50,水湳洞,2023-09-27,25.123695,121.862238,0.075302064
C0AJ60,六塊厝,2023-09-27,25.24,121.4481,0.04598162
C0AJ70,田寮,2023-09-27,25.2698,121.4886,0.047374208
C0AJ80,板橋,2023-09-27,25.0107,121.4489,0.03958151
C0AJ90,澳底,2023-09-27,25.0552,121.9253,0.20403905
C0B010,七堵,2023-09-27,25.094819,121.71713,0.038569313
C0B020,基隆嶼,2023-09-27,25.19141,121.78391,0.046290122
C0B040,大武崙,2023-09-27,25.166676,121.706993,0.04076151
C0B050,八斗子,2023-09-27,25.144754,121.79167,0.045826674
C0B060,暖暖,2023-09-27,25.0957,121.7403,0.044385895
C0C460,復興,2023-09-27,24.820208,121.352281,0.51290727
C0C480,桃園,2023-09-27,24.992425,121.323172,0.2932279
C0C490,八德,2023-09-27,24.928708,121.283289,0.34221566
C0C590,觀音,2023-09-27,25.027072,121.153317,0.061344683
C0C620,蘆竹,2023-09-27,25.084275,121.265767,0.046561614
C0C630,大溪,2023-09-27,24.882853,121.265547,0.45072353
C0C650,平鎮,2023-09-27,24.897503,121.214636,0.6197622
C0C660,楊梅,2023-09-27,24.912375,121.143047,0.5601338
C0C670,龍潭,2023-09-27,24.870056,121.221389,0.99927115
C0C680,龜山,2023-09-27,25.02846,121.38656,0.20353985
C0C700,中壢,2023-09-27,24.977661,121.256375,0.32324466
C0C710,大溪永福,2023-09-27,24.892936,121.324975,0.4444758
C0C720,竹圍,2023-09-27,25.112692,121.239824,0.045180824
C0C730,中大臨海站,2023-09-27,24.966126,121.008581,0.1899159
C0C740,觀音工業區,2023-09-27,25.064764,121.114856,0.37852123
C0C750,新興坑尾,2023-09-27,25.0061,121.0971,0.44288674
C0D430,峨眉,2023-09-27,24.6905,121.017189,0.2163462
C0D480,打鐵坑,2023-09-27,24.849664,121.150789,0.99919647
C0D540,橫山,2023-09-27,24.71116,121.11693,0.99882907
C0D560,竹東,2023-09-27,24.767147,121.057881,0.23978983
C0D580,寶山,2023-09-27,24.735006,121.025192,0.99849784
C0D590,新豐,2023-09-27,24.87068,120.97721,0.998562
C0D650,湖口,2023-09-27,24.904794,121.043628,0.21266924
C0D660,新竹市東區,2023-09-27,24.798681,120.986942,0.19055872
C0D670,海天一線,2023-09-27,24.831986,120.914438,0.23628685
C0D680,香山濕地,2023-09-27,24.783581,120.914988,0.20718409
C0D690,外湖,2023-09-27,24.917735,120.968711,0.20158418
C0D700,關西,2023-09-27,24.7977,121.1732,0.50285196
C0E420,竹南,2023-09-27,24.708978,120.888897,0.24769054
C0E430,南庄,2023-09-27,24.601775,121.000214,0.9986387
C0E520,大湖,2023-09-27,24.41494,120.87087,0.99897325
C0E540,後龍,2023-09-27,24.606489,120.783933,0.9942018
C0E550,明德,2023-09-27,24.583486,120.885411,0.9995191
C0E590,通霄,2023-09-27,24.471892,120.704622,0.99279404
C0E730,頭份,2023-09-27,24.688247,120.912206,0.22769012
C0E740,造橋,2023-09-27,24.637056,120.864778,0.9994735
C0E750,苗栗,2023-09-27,24.564569,120.824575,0.9950683
C0E780,銅鑼,2023-09-27,24.489681,120.790853,0.99945384
C0E791,卓蘭,2023-09-27,24.3126,120.8244,0.996668
C0E810,西湖,2023-09-27,24.562947,120.7485,0.99471563
C0E820,獅潭,2023-09-27,24.539133,120.920042,0.99935067
C0E830,苑裡,2023-09-27,24.439714,120.653053,0.99157906
C0E850,大河,2023-09-27,24.618069,120.948578,0.99949574
C0E870,高鐵苗栗,2023-09-27,24.60725,120.826094,0.99441946
C0E910,海埔,2023-09-27,24.648767,120.772435,0.99951285
C0E920,通霄漁港,2023-09-27,24.498589,120.673876,0.99126863
C0E930,龍鳳,2023-09-27,24.700034,120.859125,0.9994643
C0F0B0,石岡,2023-09-27,24.276061,120.777644,0.99551004
C0F850,東勢,2023-09-27,24.246428,120.833047,0.99719626
C0F930,大甲,2023-09-27,24.347667,120.640403,0.9925725
C0F970,大坑,2023-09-27,24.173142,120.722289,0.9959827
C0F9A0,中竹林,2023-09-27,24.103556,120.751061,0.9969618
C0F9I0,神岡,2023-09-27,24.272481,120.658314,0.9995347
C0F9K0,大安,2023-09-27,24.345061,120.588025,0.9892335
C0F9L0,后里,2023-09-27,24.310436,120.729725,0.9994646
C0F9M0,豐原,2023-09-27,24.254322,120.720692,0.99946177
C0F9N0,大里,2023-09-27,24.092464,120.701378,0.9937011
C0F9O0,潭子,2023-09-27,24.213106,120.703933,0.9995644
C0F9P0,清水,2023-09-27,24.312297,120.562242,0.9866234
C0F9Q0,外埔,2023-09-27,24.347817,120.705686,0.99952734
C0F9R0,龍井,2023-09-27,24.184536,120.528972,0.989257
C0F9S0,烏日,2023-09-27,24.107058,120.624103,0.9704159
C0F9T0,西屯,2023-09-27,24.179494,120.641275,0.9932292
C0F9U0,南屯,2023-09-27,24.137006,120.637969,0.99370134
C0F9X0,大雅(中科園區),2023-09-27,24.21528,120.62445,0.9951436
C0FA10,松柏,2023-09-27,24.429115,120.617482,0.98994386
C0FA20,溫寮,2023-09-27,24.372177,120.583125,0.9891573
C0FA30,梧棲,2023-09-27,24.256003,120.523381,0.9901547
C0FA40,臺中電廠,2023-09-27,24.2146,120.4907,0.989257
C0FA50,霧峰,2023-09-27,24.0419,120.6995,0.9959799
C0G620,芬園,2023-09-27,24.015678,120.6213,0.9937405
C0G640,鹿港,2023-09-27,24.0753,120.430481,0.974512
C0G650,員林,2023-09-27,23.946503,120.585597,0.99221396
C0G660,溪湖,2023-09-27,23.94835,120.479122,0.9879734
C0G720,溪州,2023-09-27,23.851589,120.499093,0.9964281
C0G730,二林,2023-09-27,23.903325,120.376081,0.9742582
C0G740,大城,2023-09-27,23.852487,120.320935,0.9931359
C0G770,福興,2023-09-27,24.041289,120.437669,0.97257876
C0G780,秀水,2023-09-27,24.03405,120.503869,0.9733237
C0G800,埔鹽,2023-09-27,24.000394,120.431683,0.9722589
C0G810,埔心,2023-09-27,23.947633,120.525456,0.9888688
C0G820,田尾,2023-09-27,23.901669,120.509389,0.98936
C0G830,埤頭,2023-09-27,23.866003,120.452806,0.9961651
C0G840,北斗,2023-09-27,23.877586,120.514222,0.98936
C0G860,社頭,2023-09-27,23.897647,120.5862,0.99283457
C0G870,芳苑,2023-09-27,23.922303,120.320025,0.9928075
C0G880,二水,2023-09-27,23.810742,120.6173,0.99788684
C0G890,伸港,2023-09-27,24.148933,120.484403,0.9901805
C0G900,線西,2023-09-27,24.143358,120.443536,0.99412423
C0G910,花壇,2023-09-27,24.032076,120.549461,0.98013425
C0G920,永靖,2023-09-27,23.924703,120.547533,0.990005
C0G940,竹塘,2023-09-27,23.848253,120.386764,0.99303746
C0G950,防潮門,2023-09-27,24.1835,120.4871,0.9885668
C0G960,福寶,2023-09-27,24.0443,120.3814,0.9730972
C0G970,三豐,2023-09-27,23.882,120.2895,0.9928075
C0H890,埔里,2023-09-27,23.972169,120.952425,0.99677336
C0H950,中寮,2023-09-27,23.884447,120.766406,0.9983028
C0H960,草屯,2023-09-27,23.973672,120.68085,0.99769485
C0I110,竹山,2023-09-27,23.761225,120.688156,0.9985409
C0I360,水里,2023-09-27,23.812553,120.849792,0.9962637
C0I380,集集,2023-09-27,23.828206,120.801467,0.9961659
C0I410,名間,2023-09-27,23.837053,120.701447,0.99819034
C0I420,國姓,2023-09-27,24.037803,120.855072,0.99696475
C0I460,南投,2023-09-27,23.911469,120.687331,0.99788994
C0K250,崙背,2023-09-27,23.75555,120.318925,0.99403685
C0K280,四湖,2023-09-27,23.630414,120.227125,0.9944678
C0K291,宜梧,2023-09-27,23.536281,120.169329,0.99189276
C0K330,虎尾,2023-09-27,23.719183,120.442036,0.99369097
C0K390,土庫,2023-09-27,23.679029,120.395574,0.9932761
C0K400,斗六,2023-09-27,23.720583,120.541127,0.99710935
C0K410,北港,2023-09-27,23.573957,120.292802,0.9918077
C0K420,西螺,2023-09-27,23.800407,120.467394,0.9968075
C0K430,褒忠,2023-09-27,23.690938,120.303634,0.9935182
C0K440,二崙,2023-09-27,23.772797,120.408944,0.9931357
C0K450,大埤,2023-09-27,23.646074,120.431537,0.99361426
C0K460,斗南,2023-09-27,23.678734,120.478359,0.99629474
C0K470,林內,2023-09-27,23.748675,120.609642,0.9976
C0K480,莿桐,2023-09-27,23.761192,120.502372,0.9968513
C0K500,元長,2023-09-27,23.64981,120.315024,0.99458534
C0K510,水林,2023-09-27,23.572924,120.24597,0.9912811
C0K530,臺西,2023-09-27,23.701547,120.197559,0.99338996
C0K550,蔦松,2023-09-27,23.514319,120.229736,0.99249935
C0K560,棋山,2023-09-27,23.68645,120.603417,0.9981825
C0K580,高鐵雲林,2023-09-27,23.737456,120.417944,0.9932919
C0K590,雲林東勢,2023-09-27,23.674192,120.255721,0.9934854
C0K600,箔子寮,2023-09-27,23.6197,120.14,0.9916302
C0M410,馬頭山,2023-09-27,23.324361,120.582017,0.99596363
C0M520,東後寮,2023-09-27,23.369908,120.248065,0.99333364
C0M640,中埔,2023-09-27,23.42538,120.5229,0.9978506
C0M650,朴子,2023-09-27,23.43463,120.23902,0.99274474
C0M660,溪口,2023-09-27,23.604131,120.403569,0.9958582
C0M670,大林,2023-09-27,23.600616,120.45841,0.99691504
C0M680,太保,2023-09-27,23.455062,120.331455,0.9935817
C0M690,水上,2023-09-27,23.419734,120.388909,0.9970129
C0M700,竹崎,2023-09-27,23.526178,120.555508,0.99827164
C0M710,東石,2023-09-27,23.458927,120.15385,0.99378014
C0M720,番路,2023-09-27,23.464657,120.554156,0.9983187
C0M730,嘉義市東區,2023-09-27,23.457673,120.460531,0.99750227
C0M740,六腳,2023-09-27,23.492871,120.290625,0.9930387
C0M750,布袋,2023-09-27,23.380878,120.167789,0.9928847
C0M760,民雄,2023-09-27,23.551754,120.428457,0.9960897
C0M770,嘉義梅山,2023-09-27,23.585398,120.555587,0.99830025
C0M780,鹿草,2023-09-27,23.41134,120.30835,0.9955562
C0M790,新港,2023-09-27,23.553269,120.345728,0.9922853
C0M800,茶山,2023-09-27,23.299075,120.664767,0.9981275
C0M880,好美里,2023-09-27,23.3364,120.138,0.99322706
C0N010,鯤鯓國小,2023-09-27,23.1879,120.0889,0.9933081
C0N020,城西,2023-09-27,23.0568,120.0956,0.9866906
C0N030,四草,2023-09-27,23.0235,120.1116,0.9888121
C0N040,蘆竹溝,2023-09-27,23.2344,120.0961,0.99162143
C0N050,蚵寮,2023-09-27,23.301,120.1104,0.991991
C0O810,曾文,2023-09-27,23.219681,120.497328,0.998457
C0O830,北寮,2023-09-27,23.079561,120.495008,0.99948364
C0O840,王爺宮,2023-09-27,23.222064,120.40085,0.9983814
C0O860,大內,2023-09-27,23.11885,120.36083,0.9992435
C0O900,善化,2023-09-27,23.112883,120.297219,0.99862057
C0O930,玉井,2023-09-27,23.126042,120.46055,0.998077
C0O950,安南,2023-09-27,23.076694,120.144861,0.99803257
C0O960,崎頂,2023-09-27,22.959547,120.369317,0.9993853
C0O970,虎頭埤,2023-09-27,23.021375,120.347878,0.99621826
C0O980,新市,2023-09-27,23.061614,120.298197,0.9986356
C0O990,媽廟,2023-09-27,22.99175,120.293525,0.9985615
C0R150,三地門,2023-09-27,22.709889,120.639944,0.9969518
C0R160,鹽埔,2023-09-27,22.739558,120.530778,0.99678373
C0R170,屏東,2023-09-27,22.660269,120.494072,0.99908775
C0R190,赤山,2023-09-27,22.592333,120.614306,0.99680847
C0R220,潮州,2023-09-27,22.534361,120.54,0.9959543
C0R240,來義,2023-09-27,22.527306,120.625111,0.99554104
C0R260,春日,2023-09-27,22.370361,120.628306,0.995537
C0R270,琉球嶼,2023-09-27,22.332244,120.362236,0.9967229
C0R280,檳榔,2023-09-27,22.076078,120.836777,0.98117965
C0R320,車城,2023-09-27,22.0744,120.716247,0.86209404
C0R341,牡丹,2023-09-27,22.130036,120.792639,0.9982076
C0R350,貓鼻頭,2023-09-27,21.921774,120.7358,0.8908879
C0R470,高樹,2023-09-27,22.826389,120.600806,0.99615633
C0R480,長治,2023-09-27,22.693128,120.542622,0.9972188
C0R490,九如,2023-09-27,22.7405,120.490503,0.999109
C0R520,崁頂,2023-09-27,22.514781,120.506914,0.9990106
C0R540,佳冬,2023-09-27,22.419456,120.552375,0.9990907
C0R550,新埤,2023-09-27,22.467947,120.582894,0.9965998
C0R560,新園,2023-09-27,22.5434,120.461558,0.99900424
C0R570,麟洛,2023-09-27,22.65078,120.52719,0.99911255
C0R580,南州,2023-09-27,22.48591,120.50274,0.9989893
C0R590,里港,2023-09-27,22.77919,120.49459,0.9971237
C0R620,墾雷,2023-09-27,21.900836,120.855269,0.8914337
C0R640,東港,2023-09-27,22.46247,120.44074,0.9991183
C0R650,竹田,2023-09-27,22.58486,120.54344,0.996542
C0R660,枋寮,2023-09-27,22.367722,120.590647,0.99643415
C0R670,楓港,2023-09-27,22.190131,120.692156,0.99569434
C0R680,佳樂水,2023-09-27,21.993578,120.861633,0.876688
C0R690,墾丁,2023-09-27,21.966756,120.810269,0.97541916
C0R700,枋山,2023-09-27,22.246844,120.661086,0.99507755
C0R710,龍磐,2023-09-27,21.931672,120.838942,0.9425306
C0R720,旭海,2023-09-27,22.205403,120.887614,0.98924553
C0R730,大坪頂,2023-09-27,22.024633,120.69355,0.9485682
C0R740,獅子,2023-09-27,22.201569,120.70525,0.9966917
C0R760,南仁湖,2023-09-27,22.084681,120.863353,0.9894584
C0R770,保力,2023-09-27,22.071122,120.764111,0.9225755
C0R780,滿州,2023-09-27,22.024403,120.839892,0.89872104
C0R790,九棚,2023-09-27,22.14195,120.889281,0.9823877
C0R800,丹路,2023-09-27,22.204481,120.750989,0.9976572
C0R810,內獅,2023-09-27,22.305064,120.642986,0.99503684
C0R830,高士,2023-09-27,22.121825,120.836781,0.99517965
C0R850,林邊,2023-09-27,22.4634,120.5339,0.9989817
C0R860,鼻頭,2023-09-27,22.1043,120.8979,0.8233391
C0R870,興海,2023-09-27,21.9752,120.8439,0.876688
C0R880,後壁湖,2023-09-27,21.9457,120.7457,0.85416055
C0R890,山海,2023-09-27,21.9878,120.7091,0.8614322
C0R900,竹坑,2023-09-27,22.1385,120.7022,0.9961655
C0R910,下寮,2023-09-27,22.3929,120.5548,0.9990907
C0R920,塭仔,2023-09-27,22.4169,120.5197,0.9991224
C0R930,萬丹,2023-09-27,22.5885,120.4851,0.99640465
C0R940,加祿堂,2023-09-27,22.3363,120.6217,0.9936512
C0S710,鹿野,2023-09-27,22.917711,121.122994,0.99782556
C0S730,綠島,2023-09-27,22.6672,121.47533,0.99908006
C0S740,池上,2023-09-27,23.119628,121.209469,0.9974414
C0S770,大溪山,2023-09-27,22.478475,120.943325,0.9966504
C0S790,金崙,2023-09-27,22.538122,120.966875,0.96901405
C0S810,東河,2023-09-27,22.972672,121.303986,0.997238
C0S830,長濱,2023-09-27,23.286817,121.411975,0.9983629
C0S840,南田,2023-09-27,22.279725,120.889208,0.86861235
C0S890,關山,2023-09-27,23.0395,121.175017,0.99602205
C0S900,蘭嶼高中,2023-09-27,22.04909,121.51214,0.695833
C0S910,蘭嶼燈塔,2023-09-27,22.081197,121.503117,0.8223725
C0S920,金峰嘉蘭,2023-09-27,22.594789,120.960825,0.8365743
C0S930,延平,2023-09-27,22.902581,121.084058,0.99779844
C0S940,石寧山,2023-09-27,23.223772,121.406639,0.99804926
C0S950,七塊厝,2023-09-27,22.954453,121.229922,0.997961
C0S960,香蘭,2023-09-27,22.587569,120.993375,0.8765054
C0S970,加津林,2023-09-27,22.416211,120.926942,0.9099106
C0S990,山豬窟,2023-09-27,22.318619,120.857372,0.9965437
C0SA00,歷坵,2023-09-27,22.520969,120.89185,0.99803174
C0SA10,檳榔四格山,2023-09-27,22.810031,121.109308,0.9979765
C0SA30,都歷,2023-09-27,23.020333,121.323642,0.9967023
C0SA40,瑞和,2023-09-27,22.974361,121.156697,0.9959746
C0SA60,知本（水試所）,2023-09-27,22.702394,121.082761,0.9084351
C0SA80,土坂,2023-09-27,22.453108,120.887572,0.92626005
C0SA90,達仁林場,2023-09-27,22.264347,120.823972,0.9987774
C0T870,鯉魚潭,2023-09-27,23.935639,121.508944,0.9935507
C0T900,西林,2023-09-27,23.8119,121.441458,0.99492854
C0T960,光復,2023-09-27,23.660694,121.424964,0.9823985
C0T9A0,月眉山,2023-09-27,23.809928,121.539828,0.9978584
C0T9D0,和中,2023-09-27,24.26676,121.74103,0.99944264
C0T9E0,大坑,2023-09-27,23.880628,121.581981,0.99770516
C0T9F0,水璉,2023-09-27,23.797131,121.542514,0.9953907
C0T9I0,豐濱,2023-09-27,23.583897,121.514806,0.99027026
C0T9M0,靜浦,2023-09-27,23.455167,121.495028,0.98277044
C0T9N0,富里,2023-09-27,23.171639,121.249378,0.99792504
C0U600,礁溪,2023-09-27,24.817539,121.765608,0.9730466
C0U650,玉蘭,2023-09-27,24.675286,121.587061,0.99977714
C0U750,龜山島,2023-09-27,24.841667,121.953133,0.993545
C0U760,東澳,2023-09-27,24.52196,121.83318,0.8923916
C0U770,南澳,2023-09-27,24.44935,121.81022,0.8599912
C0U780,五結,2023-09-27,24.68637,121.79794,0.6769039
C0U860,頭城,2023-09-27,24.85323,121.8308,0.7184469
C0U870,大礁溪,2023-09-27,24.791042,121.675047,0.9997694
C0U880,北關,2023-09-27,24.9072,121.8734,0.22056453
C0U890,三星,2023-09-27,24.66812,121.65302,0.14502807
C0U900,內城,2023-09-27,24.71813,121.68766,0.44073895
C0U910,冬山,2023-09-27,24.63373,121.7937,0.56057686
C0U940,羅東,2023-09-27,24.68184,121.74934,0.44940853
C0U970,大福,2023-09-27,24.80064,121.81389,0.27096558
C0U990,員山,2023-09-27,24.74435,121.72247,0.6946399
C0UA00,土場,2023-09-27,24.576533,121.495333,0.9975267
C0UA80,大溪漁港,2023-09-27,24.941801,121.902955,0.95161915
C0UA90,石城,2023-09-27,24.980444,121.951214,0.40544754
C0UB00,淡江大學蘭陽校園,2023-09-27,24.823239,121.730383,0.99974686
C0UB10,蘇澳,2023-09-27,24.5969,121.8571,0.99602073
C0UB20,壯圍,2023-09-27,24.7359,121.8163,0.4751157
C0V250,甲仙,2023-09-27,23.080106,120.591758,0.9994892
C0V260,月眉,2023-09-27,22.971003,120.539853,0.999411
C0V310,美濃,2023-09-27,22.898742,120.519153,0.9985748
C0V350,溪埔,2023-09-27,22.738578,120.446797,0.9989912
C0V360,內門,2023-09-27,22.975481,120.466769,0.9987752
C0V370,古亭坑,2023-09-27,22.893178,120.401947,0.9981031
C0V400,阿公店,2023-09-27,22.804194,120.355528,0.99906355
C0V440,鳳山,2023-09-27,22.646653,120.356122,0.9990304
C0V450,鳳森,2023-09-27,22.545064,120.392592,0.9968827
C0V490,新興,2023-09-27,22.627422,120.298803,0.9990038
C0V530,阿蓮,2023-09-27,22.883208,120.327508,0.9983687
C0V610,梓官,2023-09-27,22.760558,120.267211,0.99872303
C0V620,永安,2023-09-27,22.82315,120.236856,0.99834
C0V630,茄萣,2023-09-27,22.906642,120.182608,0.9981188
C0V640,湖內,2023-09-27,22.887139,120.2445,0.99807614
C0V650,彌陀,2023-09-27,22.783806,120.246361,0.99834
C0V660,岡山,2023-09-27,22.797078,120.294958,0.99859077
C0V680,仁武,2023-09-27,22.701083,120.347722,0.9986831
C0V690,鼓山,2023-09-27,22.623325,120.275575,0.99919444
C0V700,三民,2023-09-27,22.645017,120.311233,0.9990038
C0V710,苓雅,2023-09-27,22.622742,120.330669,0.99905115
C0V720,林園,2023-09-27,22.507747,120.394511,0.9991031
C0V730,大寮,2023-09-27,22.605614,120.395717,0.99548215
C0V740,旗山,2023-09-27,22.888614,120.483597,0.9986037
C0V750,路竹,2023-09-27,22.854997,120.259439,0.99853957
C0V760,橋頭,2023-09-27,22.757806,120.30575,0.9986428
C0V770,大社,2023-09-27,22.730306,120.346639,0.9986803
C0V790,萬山,2023-09-27,22.905944,120.688056,0.9968423
C0V800,六龜,2023-09-27,22.997889,120.633583,0.99946934
C0V810,左營,2023-09-27,22.67491,120.28491,0.99868727
C0V820,小林,2023-09-27,23.148408,120.63325,0.9980406
C0V840,鳳鼻頭,2023-09-27,22.5083,120.3591,0.99908
C0V850,蚵仔寮,2023-09-27,22.7256,120.2527,0.9987243
C0V860,南寮,2023-09-27,22.7616,120.2339,0.9983788
C0V870,文安,2023-09-27,22.8025,120.2164,0.99851364
C0V880,興達,2023-09-27,22.8778,120.2127,0.9981188
C0V890,前鎮,2023-09-27,22.5718,120.3117,0.999108
C0V900,汕尾,2023-09-27,22.4782,120.4151,0.9990818
C0X050,東河,2023-09-27,23.296598,120.385608,0.9977162
C0X060,下營,2023-09-27,23.22695,120.256261,0.9962655
C0X080,佳里,2023-09-27,23.173039,120.145086,0.992254
C0X100,臺南市北區,2023-09-27,23.010394,120.194228,0.99808127
C0X110,臺南市南區,2023-09-27,22.961189,120.188378,0.9981201
C0X120,麻豆,2023-09-27,23.183289,120.248611,0.99261016
C0X130,官田,2023-09-27,23.193217,120.315422,0.99687356
C0X140,西港,2023-09-27,23.125608,120.203108,0.9900818
C0X150,安定,2023-09-27,23.102614,120.227839,0.9982898
C0X160,仁德,2023-09-27,22.968258,120.257689,0.99852246
C0X170,關廟,2023-09-27,22.963017,120.327797,0.9986707
C0X180,山上,2023-09-27,23.0757,120.363253,0.9986941
C0X190,安平,2023-09-27,22.993161,120.152181,0.9982005
C0X200,左鎮,2023-09-27,23.056758,120.408522,0.9987191
C0X210,白河,2023-09-27,23.347466,120.414427,0.99773407
C0X220,學甲,2023-09-27,23.230367,120.182187,0.99262637
C0X230,鹽水,2023-09-27,23.272621,120.247641,0.99341726
C0X240,關子嶺,2023-09-27,23.331169,120.508025,0.9980789
C0X250,新營,2023-09-27,23.310689,120.316681,0.9960197
C0X260,後壁,2023-09-27,23.366358,120.362326,0.9982734
C0X280,將軍,2023-09-27,23.214999,120.13577,0.99231106
C0X290,北門,2023-09-27,23.267772,120.125481,0.9923691
C0X300,鹿寮,2023-09-27,23.386047,120.477331,0.99769914
C0X310,七股,2023-09-27,23.147289,120.086253,0.9854382
C0X320,柳營,2023-09-27,23.253328,120.375253,0.99774915
C0Z020,明里,2023-09-27,23.208717,121.262342,0.9980346
C0Z061,玉里,2023-09-27,23.3215,121.339656,0.9968254
C0Z070,舞鶴,2023-09-27,23.46811,121.37407,0.99555343
C0Z080,富源,2023-09-27,23.587642,121.378225,0.99772877
C0Z100,東華,2023-09-27,23.89525,121.549833,0.927029
C0Z150,吉安光華,2023-09-27,23.930925,121.595153,0.9316298
C0Z160,鳳林,2023-09-27,23.746114,121.453411,0.9871742
C0Z170,卓溪,2023-09-27,23.3443,121.3029,0.9971921
C0Z180,新城,2023-09-27,24.03946,121.60454,0.9943803
C0Z190,富世,2023-09-27,24.14743,121.6297,0.99966747
C0Z200,萬榮,2023-09-27,23.709219,121.420106,0.9833356
C0Z210,瑞穗,2023-09-27,23.5239,121.39021,0.9890545
C0Z230,和平,2023-09-27,24.30717,121.77007,0.9993654
C0Z270,蕃薯寮,2023-09-27,23.73835,121.540108,0.9901522
C0Z280,德武,2023-09-27,23.47426,121.41071,0.9923276
C0Z300,東里,2023-09-27,23.26853,121.30547,0.996848
C0Z310,清水斷崖,2023-09-27,24.218294,121.689142,0.99959254
C0Z330,安通山,2023-09-27,23.290728,121.348528,0.99814075
CAA010,國一N013K,2023-09-27,25.06944,121.6281,0.030416818
CAA020,國一S026K,2023-09-27,25.07639,121.4964,0.037137896
CAA030,國三S010K,2023-09-27,25.08,121.6475,0.029784039
CAA040,國三S016K,2023-09-27,25.03306,121.6158,0.033392996
CAA050,國三S037K,2023-09-27,24.9828,121.471,0.03515831
CAA060,國三S042K,2023-09-27,24.96,121.4306,0.036780134
CAA070,國三N046K,2023-09-27,24.95083,121.3958,0.039919887
CAA080,國三S054K,2023-09-27,24.93917,121.3239,0.27283284
CAA090,國三A005K,2023-09-27,25.00194,121.5975,0.028785912
CAAH60,大安森林,2023-09-27,25.02955,121.53628,0.03182492
CAB010,國一S001K,2023-09-27,25.11583,121.7286,0.041684825
CAB020,國一S006K,2023-09-27,25.08694,121.6869,0.038066365
CAB030,國三S004K,2023-09-27,25.11444,121.6886,0.108752936
CAB040,國三S007K,2023-09-27,25.09694,121.6678,0.04153546
CAB050,國三K002K,2023-09-27,25.14583,121.7217,0.048027765
CAC010,國一S072K,2023-09-27,24.89583,121.1342,0.6592723
CAC020,國二E009K,2023-09-27,25.02111,121.2736,0.25559264
CAC030,國三N063K,2023-09-27,24.889,121.26,0.4287549
CAC050,西濱S023K,2023-09-27,25.11649,121.27551,0.045180824
CAC060,西濱S032K,2023-09-27,25.091966,121.192505,0.04842584
CAD010,國一S105K,2023-09-27,24.726316,120.940643,0.21231689
CAD020,國一N077K,2023-09-27,24.885,121.0889,0.52767813
CAD030,國一S082K,2023-09-27,24.87667,121.0467,0.2393511
CAD040,國一S088K,2023-09-27,24.84444,121.0214,0.19392586
CAD050,國一N094K,2023-09-27,24.79778,121.0089,0.19820024
CAD060,國一S098K,2023-09-27,24.76056,120.9911,0.1955361
CAD070,國三N076K,2023-09-27,24.800303,121.195739,0.99923635
CAD080,國三N085K,2023-09-27,24.78333,121.1211,0.99892306
CAD090,國三S103K,2023-09-27,24.75861,120.9608,0.22955605
CAD100,西濱N066K,2023-09-27,24.8956,120.9649,0.21260169
CAD110,西濱S082K,2023-09-27,24.751724,120.905028,0.2517074
CAE010,國一N142K,2023-09-27,24.453119,120.783221,0.99945086
CAE020,國一S114K,2023-09-27,24.668835,120.885811,0.20971806
CAE030,國一S123K,2023-09-27,24.59594,120.86071,0.9958181
CAE040,國一S132K,2023-09-27,24.524506,120.820831,0.9953839
CAE050,國一S152K,2023-09-27,24.375492,120.749184,0.9990694
CAE060,國三N119K,2023-09-27,24.675432,120.847389,0.9994739
CAE070,國三N151K,2023-09-27,24.440218,120.681656,0.99123925
CAE080,國三S140K,2023-09-27,24.522345,120.725006,0.9932298
CAE090,國三S156K,2023-09-27,24.39798,120.669487,0.99177647
CAE100,西濱N107K,2023-09-27,24.5958,120.7394,0.99501467
CAE110,西濱S129K,2023-09-27,24.4472,120.6428,0.990546
CAF010,國一N174K,2023-09-27,24.2049,120.6552,0.9958355
CAF020,國一S162K,2023-09-27,24.295534,120.695976,0.9995358
CAF030,國一S169K,2023-09-27,24.237116,120.688271,0.9995459
CAF040,國一S188K,2023-09-27,24.118546,120.585747,0.97164625
CAF050,國三N208K,2023-09-27,24.066147,120.660919,0.97496814
CAF060,國三S168K,2023-09-27,24.308519,120.614471,0.9905336
CAF070,國三S173K,2023-09-27,24.27397,120.593079,0.9947415
CAF080,國三S178K,2023-09-27,24.226721,120.589058,0.9956194
CAF090,國四E5K,2023-09-27,24.296465,120.643135,0.9932702
CAF100,西濱N151K,2023-09-27,24.275964,120.547681,0.9894163
CAG010,國一N198K,2023-09-27,24.063889,120.523056,0.9560783
CAG030,國一S207K,2023-09-27,23.988304,120.508092,0.9733229
CAG040,國三N191K,2023-09-27,24.139256,120.5215,0.991258
CAG050,國三N196K,2023-09-27,24.107155,120.554482,0.96677595
CAG060,國三S202K,2023-09-27,24.092468,120.603256,0.9683633
CAG070,西濱S173K,2023-09-27,24.1081,120.434576,0.9724438
CAG080,西濱S189K,2023-09-27,23.987857,120.369607,0.9961214
CAG090,西濱N210K,2023-09-27,23.843536,120.293236,0.9939241
CAG100,王功漁港,2023-09-27,23.96824,120.32586,0.99627256
CAH010,國三N223K,2023-09-27,23.955116,120.662376,0.99760234
CAH020,國三S217K,2023-09-27,24.00683,120.653214,0.996663
CAH030,茶改場竹圍站,2023-09-27,23.860083,120.637528,0.99622476
CAHA00,消防署訓練中心,2023-09-27,23.82137,120.72293,0.99855614
CAJ010,國三N252K,2023-09-27,23.77412,120.64061,0.99807835
CAJ020,國一N234K,2023-09-27,23.74633,120.467926,0.99614507
CAJ030,西濱N222K,2023-09-27,23.737734,120.256132,0.9931258
CAJ040,西濱S241K,2023-09-27,23.623426,120.172646,0.9904171
CAJ050,海口故事園區,2023-09-27,23.57543,120.14121,0.9916302
CAL010,國一N250K,2023-09-27,23.610292,120.436867,0.99612
CAL020,國一S262K,2023-09-27,23.512333,120.403038,0.9967036
CAL030,國一N268K,2023-09-27,23.460833,120.375833,0.9967072
CAL040,國一N273K,2023-09-27,23.416666,120.355,0.99746495
CAL050,國三N279K,2023-09-27,23.596111,120.523333,0.99736965
CAL060,國三S286K,2023-09-27,23.533917,120.484583,0.9976766
CAL070,國三N295K,2023-09-27,23.468598,120.499369,0.99769735
CAL080,國三N303K,2023-09-27,23.428611,120.452416,0.99705476
CAL090,西濱S257K,2023-09-27,23.502278,120.171861,0.99242866
CAL100,西濱S267K,2023-09-27,23.41613,120.162872,0.9928847
CAL110,布袋國中,2023-09-27,23.35893,120.18026,0.9936009
CAN010,國一N288K,2023-09-27,23.30609,120.290033,0.99570644
CAN020,國一S306K,2023-09-27,23.1565,120.239513,0.99260926
CAN030,國一N316K,2023-09-27,23.07309,120.253014,0.9986308
CAN040,國一N323K,2023-09-27,23.00421,120.245922,0.9981171
CAN050,國一N335K,2023-09-27,22.897584,120.269895,0.99823725
CAN060,國三S311K,2023-09-27,23.346388,120.438888,0.9977798
CAN070,國三S329K,2023-09-27,23.212777,120.355833,0.99863863
CAN080,國三N336K,2023-09-27,23.154722,120.345,0.9971209
CAN090,國三S342K,2023-09-27,23.106694,120.327528,0.9986875
CAN100,國三S366K,2023-09-27,22.9077,120.3513,0.9989837
CAN110,西濱S280K,2023-09-27,23.3052,120.14891,0.9926975
CAN120,西濱N304K,2023-09-27,23.103439,120.086694,0.98855054
CAN130,水試所海水繁養殖中心,2023-09-27,23.120802,120.07968,0.9878269
CAN140,六官養殖協會,2023-09-27,23.22881,120.29962,0.99663323
CAP010,國一S342K,2023-09-27,22.845555,120.295,0.99856263
CAP020,國一S346K,2023-09-27,22.812222,120.314166,0.99859077
CAP030,國一N351K,2023-09-27,22.765833,120.328888,0.9986428
CAP040,國一N361K,2023-09-27,22.680555,120.328611,0.99864334
CAP050,國三N372K,2023-09-27,22.858611,120.373611,0.9992038
CAP060,國三S385K,2023-09-27,22.767777,120.444444,0.997158
CAP070,高雄燈塔,2023-09-27,22.6146,120.2647,0.99919444
CAQ010,國三N425K,2023-09-27,22.480277,120.531666,0.9989667
CAQ020,國三S415K,2023-09-27,22.568,120.528,0.9963812
CAQ030,崎峰國小,2023-09-27,22.42565,120.49521,0.9989975
E2K600,四湖植物園,2023-09-27,23.676986,120.163433,0.99338996
E2P980,林試六龜中心,2023-09-27,22.991703,120.645722,0.9994794
E2S960,林試太麻里2,2023-09-27,22.598014,120.989761,0.8765054
E2S980,林試太麻里1,2023-09-27,22.598922,120.980044,0.9320548
G2AI50,關渡,2023-09-27,25.11575,121.492,0.036541052
G2F820,農業試驗所,2023-09-27,24.031261,120.688133,0.9967559
G2F820,農試所(霧峰),2023-09-27,24.031261,120.688133,0.9967559
G2L020,農試嘉義分所,2023-09-27,23.485028,120.473806,0.9976534
G2M350,農試溪口農場,2023-09-27,23.58565,120.408111,0.9958879
G2P820,農試鳳山分所,2023-09-27,22.646611,120.356083,0.9990304
K2E360,苗栗農改,2023-09-27,24.495722,120.829111,0.99938875
K2E360,苗栗農改場,2023-09-27,24.495722,120.829111,0.99938875
K2E710,苗改生物防治研究中心,2023-09-27,24.422861,120.871833,0.99929637
K2F750,種苗改良場,2023-09-27,24.225972,120.800917,0.99717623
K2F750,種苗繁殖,2023-09-27,24.225972,120.800917,0.99717623
U2HA50,臺大竹山,2023-09-27,23.756972,120.681556,0.99855703
V2C250,八德合作社,2023-09-27,24.93775,121.266389,0.46745932
V2C260,八德蔬果,2023-09-27,24.978508,121.281819,0.30393875
V2K610,大庄合作社,2023-09-27,23.8068,120.367939,0.99610853
V2K620,麥寮合作社,2023-09-27,23.753836,120.294783,0.993744
