站號,站名,日期,lat,lon,BlastGRU-TW
466881,新北,2023-06-06,24.9593,121.52,0.08679607
466900,淡水,2023-06-06,25.164889,121.448906,0.106535144
466920,臺北,2023-06-06,25.037658,121.514853,0.081331246
467441,高雄,2023-06-06,22.7304,120.3125,0.24029095
467480,嘉義,2023-06-06,23.495925,120.432906,0.9941201
467490,臺中,2023-06-06,24.145736,120.684075,0.9959611
C0A540,四堵,2023-06-06,24.8926,121.745736,0.3108903
C0A550,泰平,2023-06-06,24.971197,121.823711,0.4610598
C0A560,福山,2023-06-06,24.776203,121.502811,0.17943545
C0A931,三和,2023-06-06,25.233153,121.595236,0.15700613
C0A940,金山,2023-06-06,25.223628,121.643967,0.13086905
C0A950,鼻頭角,2023-06-06,25.129036,121.923372,0.068114884
C0AD10,八里,2023-06-06,25.150211,121.403947,0.106535144
C0AD30,蘆洲,2023-06-06,25.086594,121.472331,0.0944033
C0AD40,土城,2023-06-06,24.973208,121.445169,0.09713578
C0AI10,屈尺,2023-06-06,24.92184,121.54475,0.09690898
C0AI20,白沙灣,2023-06-06,25.283128,121.519058,0.12109149
C0AI30,三重,2023-06-06,25.057328,121.500629,0.0944033
C0B010,七堵,2023-06-06,25.094819,121.71713,0.088633284
C0B020,基隆嶼,2023-06-06,25.19141,121.78391,0.08288024
