站號,站名,日期,lat,lon,BlastGRU-TW
12J990,口湖工作站,2023-02-02,23.589978,120.180394,0.0016957565
12Q970,東港工作站,2023-02-02,22.479997,120.466058,0.1666829
12Q980,恆春工作站,2023-02-02,22.079678,120.714425,0.019843075
466881,新北,2023-02-02,24.9593,121.52,0.0011576165
466900,淡水,2023-02-02,25.164889,121.448906,0.00092743355
466920,臺北,2023-02-02,25.037658,121.514853,0.001221993
466940,基隆,2023-02-02,25.133314,121.740475,0.0021581643
466990,花蓮,2023-02-02,23.975128,121.613275,0.16027023
467050,新屋,2023-02-02,25.006744,121.047486,0.0012529191
467060,蘇澳,2023-02-02,24.596736,121.857372,0.17563485
467080,宜蘭,2023-02-02,24.763975,121.756528,0.004930847
467270,田中,2023-02-02,23.873803,120.581286,0.0026162248
467300,東吉島,2023-02-02,23.25695,119.667467,0.00058356015
467350,澎湖,2023-02-02,23.565503,119.563094,0.00043879595
467410,臺南,2023-02-02,22.993239,120.204772,0.022407396
467420,永康,2023-02-02,23.038386,120.2367,0.024307346
467441,高雄,2023-02-02,22.7304,120.3125,0.05942832
467480,嘉義,2023-02-02,23.495925,120.432906,0.0008656956
467490,臺中,2023-02-02,24.145736,120.684075,0.0006743172
467540,大武,2023-02-02,22.355675,120.903789,0.25484097
467571,新竹,2023-02-02,24.827853,121.014219,0.0007617126
467590,恆春,2023-02-02,22.003897,120.746339,0.021094361
467610,成功,2023-02-02,23.097486,121.373428,0.26402804
467620,蘭嶼,2023-02-02,22.036969,121.558339,0.021667756
467660,臺東,2023-02-02,22.752211,121.154586,0.03838668
467790,墾丁雷達站,2023-02-02,21.948235,120.808028,0.022215063
72AI40,桃改臺北分場,2023-02-02,24.944503,121.386972,0.00096283935
72C440,桃園農改,2023-02-02,24.950944,121.030583,0.0011307537
72D680,桃園農改場新埔工作站,2023-02-02,24.834444,121.066111,0.0008859155
72G600,臺中農改,2023-02-02,24.003028,120.534389,0.0012781833
72K220,雲林分場,2023-02-02,23.634556,120.477333,0.004099688
72M360,義竹分場,2023-02-02,23.360694,120.279361,0.0034542193
72M700,嘉義分場,2023-02-02,23.416869,120.283061,0.002563314
72N100,臺南農改,2023-02-02,23.0605,120.342194,0.0088608
72N240,七股研究中心,2023-02-02,23.081672,120.062894,0.015974786
72Q010,高雄農改,2023-02-02,22.709333,120.525889,0.098369405
72S200,斑鳩分場,2023-02-02,22.829528,121.077694,0.003278542
72S590,賓朗農改,2023-02-02,22.813889,121.071278,0.0022771258
72T250,花蓮農改,2023-02-02,23.975222,121.563889,0.13225545
72U480,蘭陽分場,2023-02-02,24.686306,121.716583,0.01229789
72V140,旗南農改,2023-02-02,22.857861,120.516667,0.04282589
82A750,文山茶改,2023-02-02,24.955778,121.631222,0.0028691252
82C160,茶改場,2023-02-02,24.908472,121.185333,0.0004931117
82H840,凍頂茶改,2023-02-02,23.762528,120.7405,0.0012180036
82S580,臺東茶改,2023-02-02,22.907694,121.130139,0.020818736
A2C560,農工中心,2023-02-02,24.985917,121.239833,0.0005146901
A2K360,臺西水試所,2023-02-02,23.717231,120.190522,0.0009558658
A2K570,古坑花卉中心,2023-02-02,23.63353,120.55239,0.0028697634
A2K630,臺大雲林校區,2023-02-02,23.730628,120.423903,0.0035083294
A2N290,臺南蘭花園區,2023-02-02,23.340258,120.379661,0.0018457702
B2E890,新竹畜試,2023-02-02,24.527806,120.770972,0.0006541877
B2N890,畜試所,2023-02-02,23.058972,120.336406,0.0088608
B2Q810,恆春畜試,2023-02-02,21.945583,120.802167,0.020937726
B2U990,宜蘭畜試,2023-02-02,24.669039,121.832561,0.016446201
C0A520,山佳,2023-02-02,24.974944,121.402008,0.00096283935
C0A530,坪林,2023-02-02,24.938183,121.70975,0.0015730179
C0A540,四堵,2023-02-02,24.8926,121.745736,0.0010341159
C0A550,泰平,2023-02-02,24.971197,121.823711,0.0024218974
C0A560,福山,2023-02-02,24.776203,121.502811,0.0026472367
C0A570,桶後,2023-02-02,24.848222,121.597992,0.0012239035
C0A640,石碇,2023-02-02,24.993969,121.662917,0.0020507942
C0A650,火燒寮,2023-02-02,25.002719,121.742892,0.0015248889
C0A660,瑞芳,2023-02-02,25.113169,121.801147,0.003989475
C0A770,科教館,2023-02-02,25.096356,121.516507,0.0011219393
C0A860,大坪,2023-02-02,25.165914,121.632969,0.00035193382
C0A880,福隆,2023-02-02,25.017842,121.942083,0.007996327
C0A890,雙溪,2023-02-02,25.036003,121.864242,0.0016023307
C0A920,富貴角,2023-02-02,25.263783,121.565258,0.0006470439
C0A931,三和,2023-02-02,25.233153,121.595236,0.0016696166
C0A940,金山,2023-02-02,25.223628,121.643967,0.00066000014
C0A950,鼻頭角,2023-02-02,25.129036,121.923372,0.008908685
C0A970,三貂角,2023-02-02,25.007606,122.002058,0.005797248
C0A980,社子,2023-02-02,25.109508,121.469681,0.0011603195
C0A9C0,天母,2023-02-02,25.117494,121.537169,0.001025633
C0A9F0,內湖,2023-02-02,25.079422,121.57545,0.0011762937
C0AC60,三峽,2023-02-02,24.939025,121.369728,0.0010551704
C0AC70,信義,2023-02-02,25.037822,121.564597,0.0012056454
C0AC80,文山,2023-02-02,25.00235,121.575728,0.0010215875
C0ACA0,新莊,2023-02-02,25.051478,121.446756,0.00092618354
C0AD00,三芝,2023-02-02,25.258131,121.501917,0.00059348246
C0AD10,八里,2023-02-02,25.150211,121.403947,0.0009126285
C0AD30,蘆洲,2023-02-02,25.086594,121.472331,0.0011219393
C0AD40,土城,2023-02-02,24.973208,121.445169,0.0010699067
C0AD50,鶯歌,2023-02-02,24.951533,121.346294,0.00076136104
C0AG80,中和,2023-02-02,24.991622,121.491792,0.0012288059
C0AH00,汐止,2023-02-02,25.066881,121.658778,0.0018240087
C0AH10,永和,2023-02-02,25.01125,121.508111,0.0012753257
C0AH40,平等,2023-02-02,25.129142,121.577086,0.0006937535
C0AH50,林口,2023-02-02,25.072181,121.38084,0.0004807081
C0AH70,松山,2023-02-02,25.04871,121.55042,0.0012056454
C0AH80,深坑,2023-02-02,25.002703,121.628328,0.001015138
C0AI00,五股,2023-02-02,25.07445,121.42728,0.0005365515
C0AI10,屈尺,2023-02-02,24.92184,121.54475,0.0010506896
C0AI20,白沙灣,2023-02-02,25.283128,121.519058,0.00074238906
C0AI30,三重,2023-02-02,25.057328,121.500629,0.0011367867
C0AI40,石牌,2023-02-02,25.115597,121.513139,0.0010842114
C0AJ10,澳底,2023-02-02,25.057107,121.927272,0.009294922
C0AJ20,野柳,2023-02-02,25.20703,121.690021,0.0021010411
C0AJ30,淡水觀海,2023-02-02,25.184591,121.408616,0.0009023534
C0AJ40,石門,2023-02-02,25.273672,121.601198,0.00055117084
C0AJ50,水湳洞,2023-02-02,25.123695,121.862238,0.001975367
C0AJ60,六塊厝,2023-02-02,25.24,121.4481,0.00091077737
C0AJ70,田寮,2023-02-02,25.2698,121.4886,0.00069820473
C0AJ80,板橋,2023-02-02,25.0107,121.4489,0.0010828396
C0B010,七堵,2023-02-02,25.094819,121.71713,0.0016648719
C0B020,基隆嶼,2023-02-02,25.19141,121.78391,0.002107341
C0B040,大武崙,2023-02-02,25.166676,121.706993,0.0017431465
C0B050,八斗子,2023-02-02,25.144754,121.79167,0.002311711
C0B060,暖暖,2023-02-02,25.0957,121.7403,0.0013942544
C0C460,復興,2023-02-02,24.820208,121.352281,0.00092143053
C0C480,桃園,2023-02-02,24.992425,121.323172,0.0005964703
C0C490,八德,2023-02-02,24.928708,121.283289,0.0008703222
C0C590,觀音,2023-02-02,25.027072,121.153317,0.00065988564
C0C620,蘆竹,2023-02-02,25.084275,121.265767,0.00081309077
C0C630,大溪,2023-02-02,24.882853,121.265547,0.0007304421
C0C650,平鎮,2023-02-02,24.897503,121.214636,0.0004954767
C0C660,楊梅,2023-02-02,24.912375,121.143047,0.0004655649
C0C670,龍潭,2023-02-02,24.870056,121.221389,0.0005214034
C0C680,龜山,2023-02-02,25.02846,121.38656,0.00087595335
C0C700,中壢,2023-02-02,24.977661,121.256375,0.0005552859
C0C710,大溪永福,2023-02-02,24.892936,121.324975,0.00051426474
C0C720,竹圍,2023-02-02,25.112692,121.239824,0.00086027617
C0C730,中大臨海站,2023-02-02,24.966126,121.008581,0.0014243306
C0C740,觀音工業區,2023-02-02,25.064764,121.114856,0.0005200997
C0C750,新興坑尾,2023-02-02,25.0061,121.0971,0.00044345044
C0D390,關西,2023-02-02,24.798228,121.173947,0.0005961108
C0D430,峨眉,2023-02-02,24.6905,121.017189,0.0009400626
C0D480,打鐵坑,2023-02-02,24.849664,121.150789,0.00056254363
C0D540,橫山,2023-02-02,24.71116,121.11693,0.00070612825
C0D560,竹東,2023-02-02,24.767147,121.057881,0.0007598049
C0D580,寶山,2023-02-02,24.735006,121.025192,0.0008268637
C0D590,新豐,2023-02-02,24.87068,120.97721,0.00092627853
C0D650,湖口,2023-02-02,24.904794,121.043628,0.0009246648
C0D660,新竹市東區,2023-02-02,24.798681,120.986942,0.00073106436
C0D670,海天一線,2023-02-02,24.831986,120.914438,0.00081327284
C0D680,香山濕地,2023-02-02,24.783581,120.914988,0.00079599
C0D690,外湖,2023-02-02,24.917735,120.968711,0.0014238321
C0E420,竹南,2023-02-02,24.708978,120.888897,0.0007405949
C0E430,南庄,2023-02-02,24.601775,121.000214,0.00080244674
C0E520,大湖,2023-02-02,24.41494,120.87087,0.00048971263
C0E540,後龍,2023-02-02,24.606489,120.783933,0.0006765189
C0E550,明德,2023-02-02,24.583486,120.885411,0.000708472
C0E590,通霄,2023-02-02,24.471892,120.704622,0.00065126293
C0E730,頭份,2023-02-02,24.688247,120.912206,0.00075235096
C0E740,造橋,2023-02-02,24.637056,120.864778,0.0007906635
C0E750,苗栗,2023-02-02,24.564569,120.824575,0.0006384706
C0E780,銅鑼,2023-02-02,24.489681,120.790853,0.000743665
C0E791,卓蘭,2023-02-02,24.3126,120.8244,0.0006837171
C0E810,西湖,2023-02-02,24.562947,120.7485,0.0006685899
C0E820,獅潭,2023-02-02,24.539133,120.920042,0.00081896735
C0E830,苑裡,2023-02-02,24.439714,120.653053,0.000630579
C0E850,大河,2023-02-02,24.618069,120.948578,0.0006888046
C0E870,高鐵苗栗,2023-02-02,24.60725,120.826094,0.0006613923
C0E910,海埔,2023-02-02,24.648767,120.772435,0.00079982897
C0E920,通霄漁港,2023-02-02,24.498589,120.673876,0.00070017506
C0E930,龍鳳,2023-02-02,24.700034,120.859125,0.0008279043
C0F000,大肚,2023-02-02,24.15295,120.572117,0.00070323993
C0F0B0,石岡,2023-02-02,24.276061,120.777644,0.0009560366
C0F850,東勢,2023-02-02,24.246428,120.833047,0.00073662226
C0F930,大甲,2023-02-02,24.347667,120.640403,0.00062008505
C0F970,大坑,2023-02-02,24.173142,120.722289,0.00061962253
C0F9A0,中竹林,2023-02-02,24.103556,120.751061,0.00096985634
C0F9I0,神岡,2023-02-02,24.272481,120.658314,0.00056508527
C0F9K0,大安,2023-02-02,24.345061,120.588025,0.0006720287
C0F9L0,后里,2023-02-02,24.310436,120.729725,0.0005143713
C0F9M0,豐原,2023-02-02,24.254322,120.720692,0.0005446328
C0F9N0,大里,2023-02-02,24.092464,120.701378,0.00077380956
C0F9O0,潭子,2023-02-02,24.213106,120.703933,0.00064747356
C0F9P0,清水,2023-02-02,24.312297,120.562242,0.0007045114
C0F9Q0,外埔,2023-02-02,24.347817,120.705686,0.0006133997
C0F9R0,龍井,2023-02-02,24.184536,120.528972,0.00068066525
C0F9S0,烏日,2023-02-02,24.107058,120.624103,0.0013743758
C0F9T0,西屯,2023-02-02,24.179494,120.641275,0.0006559292
C0F9U0,南屯,2023-02-02,24.137006,120.637969,0.000754775
C0F9X0,大雅(中科園區),2023-02-02,24.21528,120.62445,0.000596264
C0FA10,松柏,2023-02-02,24.429115,120.617482,0.0006572796
C0FA20,溫寮,2023-02-02,24.372177,120.583125,0.0006650254
C0FA30,梧棲,2023-02-02,24.256003,120.523381,0.00066452206
C0FA40,臺中電廠,2023-02-02,24.2146,120.4907,0.00068066525
C0G620,芬園,2023-02-02,24.015678,120.6213,0.0010274553
C0G640,鹿港,2023-02-02,24.0753,120.430481,0.0011029079
C0G650,員林,2023-02-02,23.946503,120.585597,0.0013339899
C0G660,溪湖,2023-02-02,23.94835,120.479122,0.0011753658
C0G720,溪州,2023-02-02,23.851589,120.499093,0.001962329
C0G730,二林,2023-02-02,23.903325,120.376081,0.001216727
C0G740,大城,2023-02-02,23.852487,120.320935,0.0008725633
C0G770,福興,2023-02-02,24.041289,120.437669,0.0011323575
C0G780,秀水,2023-02-02,24.03405,120.503869,0.0013154498
C0G800,埔鹽,2023-02-02,24.000394,120.431683,0.0011484551
C0G810,埔心,2023-02-02,23.947633,120.525456,0.0011440187
C0G820,田尾,2023-02-02,23.901669,120.509389,0.0011123117
C0G830,埤頭,2023-02-02,23.866003,120.452806,0.0021197996
C0G840,北斗,2023-02-02,23.877586,120.514222,0.0011123117
C0G860,社頭,2023-02-02,23.897647,120.5862,0.0012869346
C0G870,芳苑,2023-02-02,23.922303,120.320025,0.0008732949
C0G880,二水,2023-02-02,23.810742,120.6173,0.0021531333
C0G890,伸港,2023-02-02,24.148933,120.484403,0.0007375066
C0G900,線西,2023-02-02,24.143358,120.443536,0.00067408517
C0G910,花壇,2023-02-02,24.032076,120.549461,0.0012901814
C0G920,永靖,2023-02-02,23.924703,120.547533,0.0011167369
C0G940,竹塘,2023-02-02,23.848253,120.386764,0.002800513
C0G950,防潮門,2023-02-02,24.1835,120.4871,0.00069128553
C0G960,福寶,2023-02-02,24.0443,120.3814,0.0010975673
C0G970,三豐,2023-02-02,23.882,120.2895,0.0008732949
C0H890,埔里,2023-02-02,23.972169,120.952425,0.0017292061
C0H950,中寮,2023-02-02,23.884447,120.766406,0.0015281143
C0H960,草屯,2023-02-02,23.973672,120.68085,0.0022017006
C0I110,竹山,2023-02-02,23.761225,120.688156,0.0018738181
C0I360,水里,2023-02-02,23.812553,120.849792,0.0015683285
C0I380,集集,2023-02-02,23.828206,120.801467,0.0016682111
C0I410,名間,2023-02-02,23.837053,120.701447,0.0022492283
C0I420,國姓,2023-02-02,24.037803,120.855072,0.0016193158
C0I460,南投,2023-02-02,23.911469,120.687331,0.0023407182
C0K250,崙背,2023-02-02,23.75555,120.318925,0.0009076972
C0K280,四湖,2023-02-02,23.630414,120.227125,0.0009992166
C0K291,宜梧,2023-02-02,23.536281,120.169329,0.00235577
C0K330,虎尾,2023-02-02,23.719183,120.442036,0.003307326
C0K390,土庫,2023-02-02,23.679029,120.395574,0.0034720167
C0K400,斗六,2023-02-02,23.720583,120.541127,0.0038699335
C0K410,北港,2023-02-02,23.573957,120.292802,0.0019314821
C0K420,西螺,2023-02-02,23.800407,120.467394,0.0024674863
C0K430,褒忠,2023-02-02,23.690938,120.303634,0.0010344062
C0K440,二崙,2023-02-02,23.772797,120.408944,0.002660489
C0K450,大埤,2023-02-02,23.646074,120.431537,0.0039768848
C0K460,斗南,2023-02-02,23.678734,120.478359,0.004190609
C0K470,林內,2023-02-02,23.748675,120.609642,0.0032058433
C0K480,莿桐,2023-02-02,23.761192,120.502372,0.0023207823
C0K500,元長,2023-02-02,23.64981,120.315024,0.0010885395
C0K510,水林,2023-02-02,23.572924,120.24597,0.0016353049
C0K530,臺西,2023-02-02,23.701547,120.197559,0.00093502586
C0K550,蔦松,2023-02-02,23.514319,120.229736,0.002254195
C0K560,棋山,2023-02-02,23.68645,120.603417,0.0049313195
C0K580,高鐵雲林,2023-02-02,23.737456,120.417944,0.0035083294
C0K590,雲林東勢,2023-02-02,23.674192,120.255721,0.0010234325
C0K600,箔子寮,2023-02-02,23.6197,120.14,0.0016495663
C0M410,馬頭山,2023-02-02,23.324361,120.582017,0.0029937595
C0M520,東後寮,2023-02-02,23.369908,120.248065,0.0040836264
C0M640,中埔,2023-02-02,23.42538,120.5229,0.003357877
C0M650,朴子,2023-02-02,23.43463,120.23902,0.0029731677
C0M660,溪口,2023-02-02,23.604131,120.403569,0.0010690851
C0M670,大林,2023-02-02,23.600616,120.45841,0.0010582096
C0M680,太保,2023-02-02,23.455062,120.331455,0.0023852251
C0M690,水上,2023-02-02,23.419734,120.388909,0.00090263924
C0M700,竹崎,2023-02-02,23.526178,120.555508,0.0023568517
C0M710,東石,2023-02-02,23.458927,120.15385,0.0022166534
C0M720,番路,2023-02-02,23.464657,120.554156,0.0022864596
C0M730,嘉義市東區,2023-02-02,23.457673,120.460531,0.000993126
C0M740,六腳,2023-02-02,23.492871,120.290625,0.0025043732
C0M750,布袋,2023-02-02,23.380878,120.167789,0.002984046
C0M760,民雄,2023-02-02,23.551754,120.428457,0.0010271432
C0M770,嘉義梅山,2023-02-02,23.585398,120.555587,0.0036802327
C0M780,鹿草,2023-02-02,23.41134,120.30835,0.0024269843
C0M790,新港,2023-02-02,23.553269,120.345728,0.0018507033
C0M800,茶山,2023-02-02,23.299075,120.664767,0.0060922187
C0M880,好美里,2023-02-02,23.3364,120.138,0.007846005
C0N010,鯤鯓國小,2023-02-02,23.1879,120.0889,0.005336848
C0N020,城西,2023-02-02,23.0568,120.0956,0.01489746
C0N030,四草,2023-02-02,23.0235,120.1116,0.020565843
C0N040,蘆竹溝,2023-02-02,23.2344,120.0961,0.0053994968
C0N050,蚵寮,2023-02-02,23.301,120.1104,0.005391731
C0O810,曾文,2023-02-02,23.219681,120.497328,0.0013018083
C0O830,北寮,2023-02-02,23.079561,120.495008,0.011539348
C0O840,王爺宮,2023-02-02,23.222064,120.40085,0.0012531428
C0O860,大內,2023-02-02,23.11885,120.36083,0.0050526843
C0O900,善化,2023-02-02,23.112883,120.297219,0.011398209
C0O930,玉井,2023-02-02,23.126042,120.46055,0.00227315
C0O950,安南,2023-02-02,23.076694,120.144861,0.021721957
C0O960,崎頂,2023-02-02,22.959547,120.369317,0.0071261306
C0O970,虎頭埤,2023-02-02,23.021375,120.347878,0.006593094
C0O980,新市,2023-02-02,23.061614,120.298197,0.011427445
C0O990,媽廟,2023-02-02,22.99175,120.293525,0.014577597
C0R150,三地門,2023-02-02,22.709889,120.639944,0.2419269
C0R160,鹽埔,2023-02-02,22.739558,120.530778,0.098221526
C0R170,屏東,2023-02-02,22.660269,120.494072,0.098509416
C0R190,赤山,2023-02-02,22.592333,120.614306,0.11169277
C0R220,潮州,2023-02-02,22.534361,120.54,0.16783041
C0R240,來義,2023-02-02,22.527306,120.625111,0.23238376
C0R260,春日,2023-02-02,22.370361,120.628306,0.2943358
C0R270,琉球嶼,2023-02-02,22.332244,120.362236,0.2753489
C0R280,檳榔,2023-02-02,22.076078,120.836777,0.0067298673
C0R320,車城,2023-02-02,22.0744,120.716247,0.019843075
C0R341,牡丹,2023-02-02,22.130036,120.792639,0.27890098
C0R350,貓鼻頭,2023-02-02,21.921774,120.7358,0.021762928
C0R470,高樹,2023-02-02,22.826389,120.600806,0.21022642
C0R480,長治,2023-02-02,22.693128,120.542622,0.090849385
C0R490,九如,2023-02-02,22.7405,120.490503,0.08868181
C0R510,萬丹,2023-02-02,22.587775,120.490394,0.13593182
C0R520,崁頂,2023-02-02,22.514781,120.506914,0.15095417
C0R540,佳冬,2023-02-02,22.419456,120.552375,0.16061693
C0R550,新埤,2023-02-02,22.467947,120.582894,0.12625282
C0R560,新園,2023-02-02,22.5434,120.461558,0.15177654
C0R570,麟洛,2023-02-02,22.65078,120.52719,0.08911578
C0R580,南州,2023-02-02,22.48591,120.50274,0.16474026
C0R590,里港,2023-02-02,22.77919,120.49459,0.071174406
C0R620,墾雷,2023-02-02,21.900836,120.855269,0.02179565
C0R640,東港,2023-02-02,22.46247,120.44074,0.07395077
C0R650,竹田,2023-02-02,22.58486,120.54344,0.13679342
C0R660,枋寮,2023-02-02,22.367722,120.590647,0.18373254
C0R670,楓港,2023-02-02,22.190131,120.692156,0.43565452
C0R680,佳樂水,2023-02-02,21.993578,120.861633,0.020937726
C0R690,墾丁,2023-02-02,21.966756,120.810269,0.0036290677
C0R700,枋山,2023-02-02,22.246844,120.661086,0.35862333
C0R710,龍磐,2023-02-02,21.931672,120.838942,0.019306343
C0R720,旭海,2023-02-02,22.205403,120.887614,0.033250444
C0R730,大坪頂,2023-02-02,22.024633,120.69355,0.017136233
C0R740,獅子,2023-02-02,22.201569,120.70525,0.48277906
C0R760,南仁湖,2023-02-02,22.084681,120.863353,0.0011053756
C0R770,保力,2023-02-02,22.071122,120.764111,0.021327972
C0R780,滿州,2023-02-02,22.024403,120.839892,0.021716183
C0R790,九棚,2023-02-02,22.14195,120.889281,0.054879516
C0R800,丹路,2023-02-02,22.204481,120.750989,0.40480572
C0R810,內獅,2023-02-02,22.305064,120.642986,0.451211
C0R830,高士,2023-02-02,22.121825,120.836781,0.0007616546
C0R850,林邊,2023-02-02,22.4634,120.5339,0.15065005
C0R860,鼻頭,2023-02-02,22.1043,120.8979,0.051740382
C0R870,興海,2023-02-02,21.9752,120.8439,0.020937726
C0R880,後壁湖,2023-02-02,21.9457,120.7457,0.018981015
C0R890,山海,2023-02-02,21.9878,120.7091,0.019822335
C0R900,竹坑,2023-02-02,22.1385,120.7022,0.2509114
C0R910,下寮,2023-02-02,22.3929,120.5548,0.16061693
C0R920,塭仔,2023-02-02,22.4169,120.5197,0.17935154
C0R940,加祿堂,2023-02-02,22.3363,120.6217,0.41908333
C0S710,鹿野,2023-02-02,22.917711,121.122994,0.005486615
C0S730,綠島,2023-02-02,22.6672,121.47533,0.1594475
C0S740,池上,2023-02-02,23.119628,121.209469,0.013935784
C0S770,大溪山,2023-02-02,22.478475,120.943325,0.0038014883
C0S790,金崙,2023-02-02,22.538122,120.966875,0.026603116
C0S810,東河,2023-02-02,22.972672,121.303986,0.09774508
C0S830,長濱,2023-02-02,23.286817,121.411975,0.006630492
C0S840,南田,2023-02-02,22.279725,120.889208,0.19464555
C0S890,關山,2023-02-02,23.0395,121.175017,0.056514733
C0S900,蘭嶼高中,2023-02-02,22.04909,121.51214,0.7175437
C0S910,蘭嶼燈塔,2023-02-02,22.081197,121.503117,0.3916823
C0S920,金峰嘉蘭,2023-02-02,22.594789,120.960825,0.11734994
C0S930,延平,2023-02-02,22.902581,121.084058,0.014002401
C0S940,石寧山,2023-02-02,23.223772,121.406639,0.024871122
C0S950,七塊厝,2023-02-02,22.954453,121.229922,0.004171431
C0S960,香蘭,2023-02-02,22.587569,120.993375,0.21424429
C0S970,加津林,2023-02-02,22.416211,120.926942,0.23490195
C0S990,山豬窟,2023-02-02,22.318619,120.857372,0.0036256246
C0SA00,歷坵,2023-02-02,22.520969,120.89185,0.0023151017
C0SA10,檳榔四格山,2023-02-02,22.810031,121.109308,0.0014599088
C0SA30,都歷,2023-02-02,23.020333,121.323642,0.20865305
C0SA40,瑞和,2023-02-02,22.974361,121.156697,0.075821176
C0SA60,知本（水試所）,2023-02-02,22.702394,121.082761,0.049530815
C0SA80,土坂,2023-02-02,22.453108,120.887572,0.07918421
C0SA90,達仁林場,2023-02-02,22.264347,120.823972,0.020581413
C0T870,鯉魚潭,2023-02-02,23.935639,121.508944,0.24946174
C0T900,西林,2023-02-02,23.8119,121.441458,0.18621016
C0T960,光復,2023-02-02,23.660694,121.424964,0.29692888
C0T9A0,月眉山,2023-02-02,23.809928,121.539828,0.016574763
C0T9D0,和中,2023-02-02,24.26676,121.74103,0.046066716
C0T9E0,大坑,2023-02-02,23.880628,121.581981,0.03832335
C0T9F0,水璉,2023-02-02,23.797131,121.542514,0.0728927
C0T9I0,豐濱,2023-02-02,23.583897,121.514806,0.3198249
C0T9M0,靜浦,2023-02-02,23.455167,121.495028,0.36436316
C0T9N0,富里,2023-02-02,23.171639,121.249378,0.0046254965
C0U600,礁溪,2023-02-02,24.817539,121.765608,0.004513275
C0U650,玉蘭,2023-02-02,24.675286,121.587061,0.0019868133
C0U750,龜山島,2023-02-02,24.841667,121.953133,0.008379867
C0U760,東澳,2023-02-02,24.52196,121.83318,0.027386285
C0U770,南澳,2023-02-02,24.44935,121.81022,0.17615192
C0U780,五結,2023-02-02,24.68637,121.79794,0.016599078
C0U860,頭城,2023-02-02,24.85323,121.8308,0.004894508
C0U870,大礁溪,2023-02-02,24.791042,121.675047,0.0021592376
C0U880,北關,2023-02-02,24.9072,121.8734,0.0019355217
C0U890,三星,2023-02-02,24.66812,121.65302,0.0027426735
C0U900,內城,2023-02-02,24.71813,121.68766,0.004010263
C0U910,冬山,2023-02-02,24.63373,121.7937,0.016446201
C0U940,羅東,2023-02-02,24.68184,121.74934,0.013694791
C0U970,大福,2023-02-02,24.80064,121.81389,0.0053149797
C0U990,員山,2023-02-02,24.74435,121.72247,0.0135048125
C0UA00,土場,2023-02-02,24.576533,121.495333,0.0022131486
C0UA80,大溪漁港,2023-02-02,24.941801,121.902955,0.0045078066
C0UA90,石城,2023-02-02,24.980444,121.951214,0.009452344
C0UB00,淡江大學蘭陽校園,2023-02-02,24.823239,121.730383,0.0022973772
C0UB20,壯圍,2023-02-02,24.7359,121.8163,0.018603733
C0V250,甲仙,2023-02-02,23.080106,120.591758,0.0032745372
C0V260,月眉,2023-02-02,22.971003,120.539853,0.017067023
C0V310,美濃,2023-02-02,22.898742,120.519153,0.016411567
C0V350,溪埔,2023-02-02,22.738578,120.446797,0.05659695
C0V360,內門,2023-02-02,22.975481,120.466769,0.006803361
C0V370,古亭坑,2023-02-02,22.893178,120.401947,0.009483711
C0V400,阿公店,2023-02-02,22.804194,120.355528,0.037929967
C0V440,鳳山,2023-02-02,22.646653,120.356122,0.052976307
C0V450,鳳森,2023-02-02,22.545064,120.392592,0.06075087
C0V490,新興,2023-02-02,22.627422,120.298803,0.06537027
C0V530,阿蓮,2023-02-02,22.883208,120.327508,0.029110068
C0V610,梓官,2023-02-02,22.760558,120.267211,0.050069675
C0V620,永安,2023-02-02,22.82315,120.236856,0.033982355
C0V630,茄萣,2023-02-02,22.906642,120.182608,0.031646505
C0V640,湖內,2023-02-02,22.887139,120.2445,0.028340297
C0V650,彌陀,2023-02-02,22.783806,120.246361,0.033982355
C0V660,岡山,2023-02-02,22.797078,120.294958,0.049467202
C0V680,仁武,2023-02-02,22.701083,120.347722,0.053845987
C0V690,鼓山,2023-02-02,22.623325,120.275575,0.06485493
C0V700,三民,2023-02-02,22.645017,120.311233,0.06537027
C0V710,苓雅,2023-02-02,22.622742,120.330669,0.06612323
C0V720,林園,2023-02-02,22.507747,120.394511,0.06691076
C0V730,大寮,2023-02-02,22.605614,120.395717,0.08973118
C0V740,旗山,2023-02-02,22.888614,120.483597,0.015000461
C0V750,路竹,2023-02-02,22.854997,120.259439,0.03645277
C0V760,橋頭,2023-02-02,22.757806,120.30575,0.04539229
C0V770,大社,2023-02-02,22.730306,120.346639,0.05358302
C0V790,萬山,2023-02-02,22.905944,120.688056,0.008176038
C0V800,六龜,2023-02-02,22.997889,120.633583,0.0268575
C0V810,左營,2023-02-02,22.67491,120.28491,0.060239833
C0V820,小林,2023-02-02,23.148408,120.63325,0.0063099028
C0V840,鳳鼻頭,2023-02-02,22.5083,120.3591,0.07382551
C0V850,蚵仔寮,2023-02-02,22.7256,120.2527,0.06609495
C0V860,南寮,2023-02-02,22.7616,120.2339,0.03790323
C0V870,文安,2023-02-02,22.8025,120.2164,0.03732826
C0V880,興達,2023-02-02,22.8778,120.2127,0.031646505
C0V890,前鎮,2023-02-02,22.5722,120.3112,0.07284069
C0V900,汕尾,2023-02-02,22.4782,120.4151,0.15389872
C0X050,東河,2023-02-02,23.296598,120.385608,0.0018603393
C0X060,下營,2023-02-02,23.22695,120.256261,0.005054384
C0X080,佳里,2023-02-02,23.173039,120.145086,0.008034609
C0X100,臺南市北區,2023-02-02,23.010394,120.194228,0.027263558
C0X110,臺南市南區,2023-02-02,22.961189,120.188378,0.024823839
C0X120,麻豆,2023-02-02,23.183289,120.248611,0.0073639816
C0X130,官田,2023-02-02,23.193217,120.315422,0.0044516902
C0X140,西港,2023-02-02,23.125608,120.203108,0.010855072
C0X150,安定,2023-02-02,23.102614,120.227839,0.015766304
C0X160,仁德,2023-02-02,22.968258,120.257689,0.015945656
C0X170,關廟,2023-02-02,22.963017,120.327797,0.011177473
C0X180,山上,2023-02-02,23.0757,120.363253,0.0029278453
C0X190,安平,2023-02-02,22.993161,120.152181,0.026826134
C0X200,左鎮,2023-02-02,23.056758,120.408522,0.003102206
C0X210,白河,2023-02-02,23.347466,120.414427,0.0018197969
C0X220,學甲,2023-02-02,23.230367,120.182187,0.0073315497
C0X230,鹽水,2023-02-02,23.272621,120.247641,0.005485285
C0X240,關子嶺,2023-02-02,23.331169,120.508025,0.0015895285
C0X250,新營,2023-02-02,23.310689,120.316681,0.0040838146
C0X260,後壁,2023-02-02,23.366358,120.362326,0.0019068498
C0X280,將軍,2023-02-02,23.214999,120.13577,0.008013335
C0X290,北門,2023-02-02,23.267772,120.125481,0.007958106
C0X300,鹿寮,2023-02-02,23.386047,120.477331,0.0035825607
C0X310,七股,2023-02-02,23.147289,120.086253,0.010169072
C0X320,柳營,2023-02-02,23.253328,120.375253,0.0018056358
C0Z020,明里,2023-02-02,23.208717,121.262342,0.009297509
C0Z061,玉里,2023-02-02,23.3215,121.339656,0.04413822
C0Z070,舞鶴,2023-02-02,23.46811,121.37407,0.21185075
C0Z080,富源,2023-02-02,23.587642,121.378225,0.22186683
C0Z100,東華,2023-02-02,23.89525,121.549833,0.4124725
C0Z150,吉安光華,2023-02-02,23.930925,121.595153,0.42052186
C0Z160,鳳林,2023-02-02,23.746114,121.453411,0.31854632
C0Z170,卓溪,2023-02-02,23.3443,121.3029,0.030308895
C0Z180,新城,2023-02-02,24.03946,121.60454,0.1403979
C0Z190,富世,2023-02-02,24.14743,121.6297,0.0030229422
C0Z200,萬榮,2023-02-02,23.709219,121.420106,0.25225544
C0Z210,瑞穗,2023-02-02,23.5239,121.39021,0.34545696
C0Z230,和平,2023-02-02,24.30717,121.77007,0.04579773
C0Z270,蕃薯寮,2023-02-02,23.73835,121.540108,0.3272986
C0Z280,德武,2023-02-02,23.47426,121.41071,0.27299336
C0Z300,東里,2023-02-02,23.26853,121.30547,0.03536003
C0Z310,清水斷崖,2023-02-02,24.218294,121.689142,0.035300873
C0Z330,安通山,2023-02-02,23.290728,121.348528,0.0036125942
C1A750,石碇服務區,2023-02-02,25.00872,121.646242,0.0009544862
C1A760,坪林交控,2023-02-02,24.94284,121.713442,0.0015533839
C1A9N0,四十份,2023-02-02,24.934158,121.593283,0.0010524673
C1AC50,關渡,2023-02-02,25.133486,121.469331,0.000808903
C1AI50,國三N016K,2023-02-02,25.034164,121.619664,0.0010445233
C1AI60,國一N039K,2023-02-02,25.064361,121.383836,0.0012659203
C1C510,水尾,2023-02-02,24.940081,121.087161,0.00056383957
C1D380,新埔,2023-02-02,24.84745,121.03834,0.00062574615
C1D630,飛鳳山,2023-02-02,24.766464,121.119178,0.0004791696
C1E511,新開,2023-02-02,24.347703,120.827019,0.0008694668
C1E601,南勢,2023-02-02,24.572486,120.734842,0.00068077847
C1E770,公館,2023-02-02,24.526914,120.830806,0.00063888356
C1E890,國三N149K,2023-02-02,24.463414,120.680019,0.0006387241
C1E900,國一N128K,2023-02-02,24.560997,120.844186,0.0006656509
C1F911,新伯公,2023-02-02,24.221361,120.841069,0.00067608606
C1F9B1,桐林,2023-02-02,24.066172,120.735194,0.0015888468
C1G691,下水埔,2023-02-02,23.816114,120.5676,0.002596806
C1G9D0,國一S218K,2023-02-02,23.890641,120.493253,0.0011417919
C1H840,國三N238K,2023-02-02,23.841008,120.707711,0.0015101382
C1H971,六分寮,2023-02-02,23.92507,120.6378,0.00082828867
C1I131,桶頭,2023-02-02,23.641944,120.654117,0.0017338647
C1I150,青雲,2023-02-02,23.793361,120.949378,0.0010225835
C1I280,埔中,2023-02-02,23.820778,120.642594,0.0014940114
C1I550,國六W023K,2023-02-02,23.979067,120.867742,0.0012242654
C1K540,口湖,2023-02-02,23.585344,120.180517,0.0016957565
C1M400,菜瓜坪,2023-02-02,23.251928,120.576103,0.0066993274
C1M870,國三N285K,2023-02-02,23.550319,120.505833,0.002515716
C1N001,沙崙,2023-02-02,22.935472,120.309406,0.028885037
C1O850,環湖,2023-02-02,23.148617,120.418633,0.00227315
C1O880,關山,2023-02-02,23.173397,120.594092,0.0026052957
C1O921,楠西,2023-02-02,23.183511,120.484083,0.0017401751
C1O940,東山服務區,2023-02-02,23.286016,120.398472,0.0017177337
C1R110,口社,2023-02-02,22.770111,120.645222,0.17434835
C1R250,力里,2023-02-02,22.428117,120.629228,0.23706284
C1R290,石門山,2023-02-02,22.112611,120.756597,0.0011797982
C1R630,龍泉,2023-02-02,22.66701,120.59091,0.33063397
C1S800,華源,2023-02-02,22.657883,121.02325,0.010557729
C1S820,金峰,2023-02-02,22.590969,120.933236,0.039551936
C1S850,豐南,2023-02-02,23.122139,121.262389,0.0012335272
C1S870,南美山,2023-02-02,23.15025,121.382333,0.03943536
C1S880,壽卡,2023-02-02,22.238911,120.858903,0.0026765729
C1SA70,都蘭,2023-02-02,22.87794,121.226881,0.08354982
C1T920,中興,2023-02-02,23.769503,121.498653,0.36921033
C1T970,大農,2023-02-02,23.615233,121.413331,0.19822836
C1T990,高寮,2023-02-02,23.394239,121.356808,0.3326808
C1TA00,太魯閣,2023-02-02,24.15773,121.6236,0.037927255
C1U501,牛鬥,2023-02-02,24.637836,121.573656,0.0011324245
C1U670,寒溪,2023-02-02,24.634,121.71691,0.0067840847
C1U930,粉鳥林,2023-02-02,24.497088,121.842479,0.031682245
C1V340,大津,2023-02-02,22.888322,120.645986,0.08638608
C1V390,尖山,2023-02-02,22.813153,120.367789,0.028366223
C1V570,吉東,2023-02-02,22.85422,120.5454,0.036574785
C1V830,國三S383K,2023-02-02,22.781967,120.426475,0.030480212
C1X040,東原,2023-02-02,23.291597,120.463822,0.0039105155
C1Z030,紅葉,2023-02-02,23.493119,121.338806,0.26263577
C1Z040,立山,2023-02-02,23.443356,121.327375,0.058846936
C1Z120,壽豐,2023-02-02,23.870853,121.508081,0.4166163
C1Z130,銅門,2023-02-02,23.965694,121.492842,0.032456324
CAG100,王功漁港,2023-02-02,23.96824,120.32586,0.00079528114
CAJ050,海口故事園區,2023-02-02,23.57543,120.14121,0.0016495663
CAL110,布袋國中,2023-02-02,23.35893,120.18026,0.004130726
CAN130,水試所海水繁養殖中心,2023-02-02,23.120802,120.07968,0.015974786
CAN140,六官養殖協會,2023-02-02,23.22881,120.29962,0.0047099637
CAQ030,崎峰國小,2023-02-02,22.42565,120.49521,0.16569519
E2K600,四湖植物園,2023-02-02,23.676986,120.163433,0.00093502586
E2P980,林試六龜中心,2023-02-02,22.991703,120.645722,0.024996724
E2S960,林試太麻里2,2023-02-02,22.598014,120.989761,0.21424429
E2S980,林試太麻里1,2023-02-02,22.598922,120.980044,0.12422629
G2F820,農業試驗所,2023-02-02,24.031261,120.688133,0.00075623643
G2L020,嘉義農試,2023-02-02,23.485028,120.473806,0.0031427196
G2M350,溪口農場,2023-02-02,23.58565,120.408111,0.0010753906
G2P820,鳳山農試,2023-02-02,22.646611,120.356083,0.052976307
K2E360,苗栗農改,2023-02-02,24.495722,120.829111,0.0008376952
K2E710,大湖分場,2023-02-02,24.422861,120.871833,0.00054901745
K2F750,種苗繁殖,2023-02-02,24.225972,120.800917,0.0006025233
U2HA50,臺大竹山,2023-02-02,23.756972,120.681556,0.001799019
V2K620,麥寮合作社,2023-02-02,23.753836,120.294783,0.0009250349
