站號,站名,日期,lat,lon,BlastGRU-TW
12J990,口湖工作站,2023-03-24,23.589978,120.180394,0.0031695582
12Q970,東港工作站,2023-03-24,22.479997,120.466058,0.066318296
12Q980,恆春工作站,2023-03-24,22.079678,120.714425,0.00013264596
466881,新北,2023-03-24,24.9593,121.52,0.0019771333
466900,淡水,2023-03-24,25.164889,121.448906,0.00095347816
466920,臺北,2023-03-24,25.037658,121.514853,0.0016292314
466940,基隆,2023-03-24,25.133314,121.740475,0.0010272607
466990,花蓮,2023-03-24,23.975128,121.613275,0.019245183
467050,新屋,2023-03-24,25.006744,121.047486,0.00066827517
467060,蘇澳,2023-03-24,24.596736,121.857372,0.013538024
467080,宜蘭,2023-03-24,24.763975,121.756528,0.0019788202
467270,田中,2023-03-24,23.873803,120.581286,0.0032137996
467300,東吉島,2023-03-24,23.25695,119.667467,0.0015761018
467350,澎湖,2023-03-24,23.565503,119.563094,0.0016893632
467410,臺南,2023-03-24,22.993239,120.204772,0.031834833
467420,永康,2023-03-24,23.038386,120.2367,0.037970282
467441,高雄,2023-03-24,22.7304,120.3125,0.027918756
467480,嘉義,2023-03-24,23.495925,120.432906,0.008986159
467490,臺中,2023-03-24,24.145736,120.684075,0.004080068
467540,大武,2023-03-24,22.355675,120.903789,0.012093001
467571,新竹,2023-03-24,24.827853,121.014219,0.0007004668
467590,恆春,2023-03-24,22.003897,120.746339,0.00012995003
467610,成功,2023-03-24,23.097486,121.373428,0.0050773215
467620,蘭嶼,2023-03-24,22.036969,121.558339,0.0008098196
467660,臺東,2023-03-24,22.752211,121.154586,0.013587447
467790,墾丁雷達站,2023-03-24,21.948235,120.808028,0.00012748342
72AI40,桃改臺北分場,2023-03-24,24.944503,121.386972,0.0018531309
72C440,桃園農改,2023-03-24,24.950944,121.030583,0.0007175855
72D680,桃園農改場新埔工作站,2023-03-24,24.834444,121.066111,0.0007844806
72G600,臺中農改,2023-03-24,24.003028,120.534389,0.0051129116
72K220,雲林分場,2023-03-24,23.634556,120.477333,0.0049442356
72M360,義竹分場,2023-03-24,23.360694,120.279361,0.011559953
72M700,嘉義分場,2023-03-24,23.416869,120.283061,0.014292478
72N100,臺南農改,2023-03-24,23.0605,120.342194,0.026361227
72N240,七股研究中心,2023-03-24,23.081672,120.062894,0.004995774
72Q010,高雄農改,2023-03-24,22.709333,120.525889,0.09040524
72S200,斑鳩分場,2023-03-24,22.829528,121.077694,0.0016297464
72S590,賓朗農改,2023-03-24,22.813889,121.071278,0.002228339
72T250,花蓮農改,2023-03-24,23.975222,121.563889,0.010014303
72U480,蘭陽分場,2023-03-24,24.686306,121.716583,0.0015905625
72V140,旗南農改,2023-03-24,22.857861,120.516667,0.06187976
82A750,文山茶改,2023-03-24,24.955778,121.631222,0.007962778
82C160,茶改場,2023-03-24,24.908472,121.185333,0.00065632875
82H840,凍頂茶改,2023-03-24,23.762528,120.7405,0.0009656887
82S580,臺東茶改,2023-03-24,22.907694,121.130139,0.0064710546
A2C560,農工中心,2023-03-24,24.985917,121.239833,0.0018630711
A2K360,臺西水試所,2023-03-24,23.717231,120.190522,0.0019826812
A2K570,古坑花卉中心,2023-03-24,23.63353,120.55239,0.0044199894
A2K630,臺大雲林校區,2023-03-24,23.730628,120.423903,0.0046474016
A2N290,臺南蘭花園區,2023-03-24,23.340258,120.379661,0.019225892
B2E890,新竹畜試,2023-03-24,24.527806,120.770972,0.0018391644
B2N890,畜試所,2023-03-24,23.058972,120.336406,0.02632219
B2Q810,恆春畜試,2023-03-24,21.945583,120.802167,0.00013122961
B2U990,宜蘭畜試,2023-03-24,24.669039,121.832561,0.0045434884
C0A520,山佳,2023-03-24,24.974944,121.402008,0.0017220596
C0A530,坪林,2023-03-24,24.938183,121.70975,0.0035391892
C0A540,四堵,2023-03-24,24.8926,121.745736,0.0012585788
C0A550,泰平,2023-03-24,24.971197,121.823711,0.0018012193
C0A560,福山,2023-03-24,24.776203,121.502811,0.0010089716
C0A570,桶後,2023-03-24,24.848222,121.597992,0.00087036734
C0A640,石碇,2023-03-24,24.993969,121.662917,0.0016628244
C0A650,火燒寮,2023-03-24,25.002719,121.742892,0.0011547843
C0A660,瑞芳,2023-03-24,25.113169,121.801147,0.0018643563
C0A770,科教館,2023-03-24,25.096356,121.516507,0.0012051144
C0A860,大坪,2023-03-24,25.165914,121.632969,0.00065030286
C0A880,福隆,2023-03-24,25.017842,121.942083,0.0019018531
C0A890,雙溪,2023-03-24,25.036003,121.864242,0.0015453921
C0A920,富貴角,2023-03-24,25.263783,121.565258,0.0017726809
C0A931,三和,2023-03-24,25.233153,121.595236,0.0020889333
C0A940,金山,2023-03-24,25.223628,121.643967,0.00091736426
C0A950,鼻頭角,2023-03-24,25.129036,121.923372,0.0015463518
C0A970,三貂角,2023-03-24,25.007606,122.002058,0.0015514356
C0A980,社子,2023-03-24,25.109508,121.469681,0.0011945127
C0A9C0,天母,2023-03-24,25.117494,121.537169,0.0015234462
C0A9F0,內湖,2023-03-24,25.079422,121.57545,0.0018716861
C0AC60,三峽,2023-03-24,24.939025,121.369728,0.0022914947
C0AC70,信義,2023-03-24,25.037822,121.564597,0.0019372341
C0AC80,文山,2023-03-24,25.00235,121.575728,0.0019652701
C0ACA0,新莊,2023-03-24,25.051478,121.446756,0.0013081315
C0AD00,三芝,2023-03-24,25.258131,121.501917,0.0012062065
C0AD10,八里,2023-03-24,25.150211,121.403947,0.0011269281
C0AD30,蘆洲,2023-03-24,25.086594,121.472331,0.0011947005
C0AD40,土城,2023-03-24,24.973208,121.445169,0.0015770114
C0AD50,鶯歌,2023-03-24,24.951533,121.346294,0.001231284
C0AG80,中和,2023-03-24,24.991622,121.491792,0.001724235
C0AH00,汐止,2023-03-24,25.066881,121.658778,0.0012030591
C0AH10,永和,2023-03-24,25.01125,121.508111,0.0017057282
C0AH40,平等,2023-03-24,25.129142,121.577086,0.0007007091
C0AH50,林口,2023-03-24,25.072181,121.38084,0.002041114
C0AH70,松山,2023-03-24,25.04871,121.55042,0.0019372341
C0AH80,深坑,2023-03-24,25.002703,121.628328,0.002132148
C0AI00,五股,2023-03-24,25.07445,121.42728,0.0022404927
C0AI10,屈尺,2023-03-24,24.92184,121.54475,0.0019604904
C0AI20,白沙灣,2023-03-24,25.283128,121.519058,0.0008543692
C0AI30,三重,2023-03-24,25.057328,121.500629,0.0013669573
C0AI40,石牌,2023-03-24,25.115597,121.513139,0.0012131962
C0AJ10,澳底,2023-03-24,25.057107,121.927272,0.0016753752
C0AJ20,野柳,2023-03-24,25.20703,121.690021,0.0010344023
C0AJ30,淡水觀海,2023-03-24,25.184591,121.408616,0.0009171117
C0AJ40,石門,2023-03-24,25.273672,121.601198,0.0015199143
C0AJ50,水湳洞,2023-03-24,25.123695,121.862238,0.0013658714
C0AJ60,六塊厝,2023-03-24,25.24,121.4481,0.0008200142
C0AJ70,田寮,2023-03-24,25.2698,121.4886,0.0010775302
C0AJ80,板橋,2023-03-24,25.0107,121.4489,0.0015970181
C0B010,七堵,2023-03-24,25.094819,121.71713,0.00086154573
C0B020,基隆嶼,2023-03-24,25.19141,121.78391,0.0005638502
C0B040,大武崙,2023-03-24,25.166676,121.706993,0.0008951853
C0B050,八斗子,2023-03-24,25.144754,121.79167,0.0007727308
C0B060,暖暖,2023-03-24,25.0957,121.7403,0.0011674061
C0C460,復興,2023-03-24,24.820208,121.352281,0.00074023014
C0C480,桃園,2023-03-24,24.992425,121.323172,0.0017906621
C0C490,八德,2023-03-24,24.928708,121.283289,0.0018623787
C0C590,觀音,2023-03-24,25.027072,121.153317,0.00078612426
C0C620,蘆竹,2023-03-24,25.084275,121.265767,0.0013296138
C0C630,大溪,2023-03-24,24.882853,121.265547,0.0009605982
C0C650,平鎮,2023-03-24,24.897503,121.214636,0.00065632875
C0C660,楊梅,2023-03-24,24.912375,121.143047,0.0007932309
C0C670,龍潭,2023-03-24,24.870056,121.221389,0.0010899918
C0C680,龜山,2023-03-24,25.02846,121.38656,0.0017017395
C0C700,中壢,2023-03-24,24.977661,121.256375,0.0019381358
C0C710,大溪永福,2023-03-24,24.892936,121.324975,0.0009870948
C0C720,竹圍,2023-03-24,25.112692,121.239824,0.0013031779
C0C730,中大臨海站,2023-03-24,24.966126,121.008581,0.0007052594
C0C740,觀音工業區,2023-03-24,25.064764,121.114856,0.0009941653
C0C750,新興坑尾,2023-03-24,25.0061,121.0971,0.0010239235
C0D390,關西,2023-03-24,24.798228,121.173947,0.0005595446
C0D430,峨眉,2023-03-24,24.6905,121.017189,0.0006488428
C0D480,打鐵坑,2023-03-24,24.849664,121.150789,0.0013102377
C0D540,橫山,2023-03-24,24.71116,121.11693,0.0005811163
C0D560,竹東,2023-03-24,24.767147,121.057881,0.00086102705
C0D580,寶山,2023-03-24,24.735006,121.025192,0.0013080457
C0D590,新豐,2023-03-24,24.87068,120.97721,0.00071673904
C0D650,湖口,2023-03-24,24.904794,121.043628,0.00064198795
C0D660,新竹市東區,2023-03-24,24.798681,120.986942,0.00088264665
C0D670,海天一線,2023-03-24,24.831986,120.914438,0.0004903339
C0D680,香山濕地,2023-03-24,24.783581,120.914988,0.00044439247
C0D690,外湖,2023-03-24,24.917735,120.968711,0.00046897764
C0E420,竹南,2023-03-24,24.708978,120.888897,0.00034775253
C0E430,南庄,2023-03-24,24.601775,121.000214,0.0004590921
C0E520,大湖,2023-03-24,24.41494,120.87087,0.00050217943
C0E540,後龍,2023-03-24,24.606489,120.783933,0.001441268
C0E550,明德,2023-03-24,24.583486,120.885411,0.0008035689
C0E590,通霄,2023-03-24,24.471892,120.704622,0.0017403663
C0E730,頭份,2023-03-24,24.688247,120.912206,0.0004979577
C0E740,造橋,2023-03-24,24.637056,120.864778,0.0008225102
C0E750,苗栗,2023-03-24,24.564569,120.824575,0.0010275265
C0E780,銅鑼,2023-03-24,24.489681,120.790853,0.0009330382
C0E791,卓蘭,2023-03-24,24.3126,120.8244,0.0009126524
C0E810,西湖,2023-03-24,24.562947,120.7485,0.0018409551
C0E820,獅潭,2023-03-24,24.539133,120.920042,0.0006791403
C0E830,苑裡,2023-03-24,24.439714,120.653053,0.002135767
C0E850,大河,2023-03-24,24.618069,120.948578,0.00078919454
C0E870,高鐵苗栗,2023-03-24,24.60725,120.826094,0.0010142414
C0E910,海埔,2023-03-24,24.648767,120.772435,0.0006299915
C0E920,通霄漁港,2023-03-24,24.498589,120.673876,0.0018093109
C0E930,龍鳳,2023-03-24,24.700034,120.859125,0.00080436753
C0F000,大肚,2023-03-24,24.15295,120.572117,0.0009880047
C0F0B0,石岡,2023-03-24,24.276061,120.777644,0.0009975353
C0F850,東勢,2023-03-24,24.246428,120.833047,0.0014109684
C0F930,大甲,2023-03-24,24.347667,120.640403,0.0031742442
C0F970,大坑,2023-03-24,24.173142,120.722289,0.0049589598
C0F9A0,中竹林,2023-03-24,24.103556,120.751061,0.0016786635
C0F9I0,神岡,2023-03-24,24.272481,120.658314,0.0014471848
C0F9K0,大安,2023-03-24,24.345061,120.588025,0.0025958885
C0F9L0,后里,2023-03-24,24.310436,120.729725,0.0016003037
C0F9M0,豐原,2023-03-24,24.254322,120.720692,0.0019031788
C0F9N0,大里,2023-03-24,24.092464,120.701378,0.0046807164
C0F9O0,潭子,2023-03-24,24.213106,120.703933,0.0020644295
C0F9P0,清水,2023-03-24,24.312297,120.562242,0.0026248968
C0F9Q0,外埔,2023-03-24,24.347817,120.705686,0.0013836616
C0F9R0,龍井,2023-03-24,24.184536,120.528972,0.0019442923
C0F9S0,烏日,2023-03-24,24.107058,120.624103,0.0041988194
C0F9T0,西屯,2023-03-24,24.179494,120.641275,0.0021142655
C0F9U0,南屯,2023-03-24,24.137006,120.637969,0.002634489
C0F9X0,大雅(中科園區),2023-03-24,24.21528,120.62445,0.002317771
C0FA10,松柏,2023-03-24,24.429115,120.617482,0.0022061886
C0FA20,溫寮,2023-03-24,24.372177,120.583125,0.0021101828
C0FA30,梧棲,2023-03-24,24.256003,120.523381,0.0019557518
C0FA40,臺中電廠,2023-03-24,24.2146,120.4907,0.0020255724
C0G620,芬園,2023-03-24,24.015678,120.6213,0.0030673456
C0G640,鹿港,2023-03-24,24.0753,120.430481,0.0014128583
C0G650,員林,2023-03-24,23.946503,120.585597,0.003232027
C0G660,溪湖,2023-03-24,23.94835,120.479122,0.0034710567
C0G720,溪州,2023-03-24,23.851589,120.499093,0.0030666033
C0G730,二林,2023-03-24,23.903325,120.376081,0.002551581
C0G740,大城,2023-03-24,23.852487,120.320935,0.0032525917
C0G770,福興,2023-03-24,24.041289,120.437669,0.0019063889
C0G780,秀水,2023-03-24,24.03405,120.503869,0.002543354
C0G800,埔鹽,2023-03-24,24.000394,120.431683,0.0025053849
C0G810,埔心,2023-03-24,23.947633,120.525456,0.0034673477
C0G820,田尾,2023-03-24,23.901669,120.509389,0.0038824806
C0G830,埤頭,2023-03-24,23.866003,120.452806,0.002237998
C0G840,北斗,2023-03-24,23.877586,120.514222,0.0038824806
C0G860,社頭,2023-03-24,23.897647,120.5862,0.0031504836
C0G870,芳苑,2023-03-24,23.922303,120.320025,0.0022178844
C0G880,二水,2023-03-24,23.810742,120.6173,0.005181765
C0G890,伸港,2023-03-24,24.148933,120.484403,0.0018872962
C0G900,線西,2023-03-24,24.143358,120.443536,0.0013659449
C0G910,花壇,2023-03-24,24.032076,120.549461,0.0042281128
C0G920,永靖,2023-03-24,23.924703,120.547533,0.0039813
C0G940,竹塘,2023-03-24,23.848253,120.386764,0.0023071363
C0G950,防潮門,2023-03-24,24.1835,120.4871,0.001959346
C0G960,福寶,2023-03-24,24.0443,120.3814,0.0011802326
C0G970,三豐,2023-03-24,23.882,120.2895,0.002237718
C0H890,埔里,2023-03-24,23.972169,120.952425,0.00090608344
C0H950,中寮,2023-03-24,23.884447,120.766406,0.00327745
C0H960,草屯,2023-03-24,23.973672,120.68085,0.003212712
C0I110,竹山,2023-03-24,23.761225,120.688156,0.002947243
C0I360,水里,2023-03-24,23.812553,120.849792,0.0008344186
C0I380,集集,2023-03-24,23.828206,120.801467,0.0011558475
C0I410,名間,2023-03-24,23.837053,120.701447,0.003474933
C0I420,國姓,2023-03-24,24.037803,120.855072,0.001017914
C0I460,南投,2023-03-24,23.911469,120.687331,0.0028690638
C0K250,崙背,2023-03-24,23.75555,120.318925,0.004072609
C0K280,四湖,2023-03-24,23.630414,120.227125,0.00395654
C0K291,宜梧,2023-03-24,23.536281,120.169329,0.0044607758
C0K330,虎尾,2023-03-24,23.719183,120.442036,0.0052789752
C0K390,土庫,2023-03-24,23.679029,120.395574,0.0038681047
C0K400,斗六,2023-03-24,23.720583,120.541127,0.004258114
C0K410,北港,2023-03-24,23.573957,120.292802,0.00777299
C0K420,西螺,2023-03-24,23.800407,120.467394,0.0026215257
C0K430,褒忠,2023-03-24,23.690938,120.303634,0.0078659635
C0K440,二崙,2023-03-24,23.772797,120.408944,0.004158036
C0K450,大埤,2023-03-24,23.646074,120.431537,0.004871482
C0K460,斗南,2023-03-24,23.678734,120.478359,0.0053357068
C0K470,林內,2023-03-24,23.748675,120.609642,0.005178052
C0K480,莿桐,2023-03-24,23.761192,120.502372,0.0038302524
C0K500,元長,2023-03-24,23.64981,120.315024,0.0067542507
C0K510,水林,2023-03-24,23.572924,120.24597,0.005021026
C0K530,臺西,2023-03-24,23.701547,120.197559,0.0019734015
C0K550,蔦松,2023-03-24,23.514319,120.229736,0.0069818427
C0K560,棋山,2023-03-24,23.68645,120.603417,0.004475082
C0K580,高鐵雲林,2023-03-24,23.737456,120.417944,0.0046474016
C0K590,雲林東勢,2023-03-24,23.674192,120.255721,0.0065171504
C0K600,箔子寮,2023-03-24,23.6197,120.14,0.0015918004
C0M410,馬頭山,2023-03-24,23.324361,120.582017,0.0056776716
C0M520,東後寮,2023-03-24,23.369908,120.248065,0.0089977635
C0M640,中埔,2023-03-24,23.42538,120.5229,0.005351445
C0M650,朴子,2023-03-24,23.43463,120.23902,0.008169367
C0M660,溪口,2023-03-24,23.604131,120.403569,0.0061706062
C0M670,大林,2023-03-24,23.600616,120.45841,0.0043100812
C0M680,太保,2023-03-24,23.455062,120.331455,0.013560166
C0M690,水上,2023-03-24,23.419734,120.388909,0.011050956
C0M700,竹崎,2023-03-24,23.526178,120.555508,0.001987917
C0M710,東石,2023-03-24,23.458927,120.15385,0.0027070325
C0M720,番路,2023-03-24,23.464657,120.554156,0.0034154202
C0M730,嘉義市東區,2023-03-24,23.457673,120.460531,0.005107564
C0M740,六腳,2023-03-24,23.492871,120.290625,0.012693095
C0M750,布袋,2023-03-24,23.380878,120.167789,0.0065062544
C0M760,民雄,2023-03-24,23.551754,120.428457,0.006667479
C0M770,嘉義梅山,2023-03-24,23.585398,120.555587,0.0027519409
C0M780,鹿草,2023-03-24,23.41134,120.30835,0.0141562335
C0M790,新港,2023-03-24,23.553269,120.345728,0.011005617
C0M800,茶山,2023-03-24,23.299075,120.664767,0.0015197536
C0M880,好美里,2023-03-24,23.3364,120.138,0.0032976624
C0N010,鯤鯓國小,2023-03-24,23.1879,120.0889,0.0034710434
C0N020,城西,2023-03-24,23.0568,120.0956,0.010837315
C0N030,四草,2023-03-24,23.0235,120.1116,0.021065304
C0N040,蘆竹溝,2023-03-24,23.2344,120.0961,0.0053836787
C0N050,蚵寮,2023-03-24,23.301,120.1104,0.0043232227
C0O810,曾文,2023-03-24,23.219681,120.497328,0.026146414
C0O830,北寮,2023-03-24,23.079561,120.495008,0.020186977
C0O840,王爺宮,2023-03-24,23.222064,120.40085,0.015284464
C0O860,大內,2023-03-24,23.11885,120.36083,0.030859044
C0O900,善化,2023-03-24,23.112883,120.297219,0.026344197
C0O930,玉井,2023-03-24,23.126042,120.46055,0.036583498
C0O950,安南,2023-03-24,23.076694,120.144861,0.009822896
C0O960,崎頂,2023-03-24,22.959547,120.369317,0.019796569
C0O970,虎頭埤,2023-03-24,23.021375,120.347878,0.056038428
C0O980,新市,2023-03-24,23.061614,120.298197,0.030107625
C0O990,媽廟,2023-03-24,22.99175,120.293525,0.06528755
C0R150,三地門,2023-03-24,22.709889,120.639944,0.07320649
C0R160,鹽埔,2023-03-24,22.739558,120.530778,0.08121315
C0R170,屏東,2023-03-24,22.660269,120.494072,0.15621363
C0R190,赤山,2023-03-24,22.592333,120.614306,0.038845275
C0R220,潮州,2023-03-24,22.534361,120.54,0.074682675
C0R240,來義,2023-03-24,22.527306,120.625111,0.08002782
C0R260,春日,2023-03-24,22.370361,120.628306,0.22009711
C0R270,琉球嶼,2023-03-24,22.332244,120.362236,0.20914403
C0R280,檳榔,2023-03-24,22.076078,120.836777,0.00011744498
C0R320,車城,2023-03-24,22.0744,120.716247,0.00013264596
C0R341,牡丹,2023-03-24,22.130036,120.792639,0.1280392
C0R350,貓鼻頭,2023-03-24,21.921774,120.7358,0.0001289797
C0R470,高樹,2023-03-24,22.826389,120.600806,0.07834027
C0R480,長治,2023-03-24,22.693128,120.542622,0.073842205
C0R490,九如,2023-03-24,22.7405,120.490503,0.16922352
C0R510,萬丹,2023-03-24,22.587775,120.490394,0.06576467
C0R520,崁頂,2023-03-24,22.514781,120.506914,0.0820064
C0R540,佳冬,2023-03-24,22.419456,120.552375,0.05459806
C0R550,新埤,2023-03-24,22.467947,120.582894,0.057949796
C0R560,新園,2023-03-24,22.5434,120.461558,0.07522971
C0R570,麟洛,2023-03-24,22.65078,120.52719,0.15314366
C0R580,南州,2023-03-24,22.48591,120.50274,0.087841585
C0R590,里港,2023-03-24,22.77919,120.49459,0.068858095
C0R620,墾雷,2023-03-24,21.900836,120.855269,0.00012756503
C0R640,東港,2023-03-24,22.46247,120.44074,0.029851712
C0R650,竹田,2023-03-24,22.58486,120.54344,0.068827726
C0R660,枋寮,2023-03-24,22.367722,120.590647,0.18392485
C0R670,楓港,2023-03-24,22.190131,120.692156,0.3180157
C0R680,佳樂水,2023-03-24,21.993578,120.861633,0.00013122961
C0R690,墾丁,2023-03-24,21.966756,120.810269,0.00022843175
C0R700,枋山,2023-03-24,22.246844,120.661086,0.29960322
C0R710,龍磐,2023-03-24,21.931672,120.838942,0.00012567645
C0R720,旭海,2023-03-24,22.205403,120.887614,0.0035349824
C0R730,大坪頂,2023-03-24,22.024633,120.69355,0.00011990347
C0R740,獅子,2023-03-24,22.201569,120.70525,0.23647381
C0R760,南仁湖,2023-03-24,22.084681,120.863353,0.00019265525
C0R770,保力,2023-03-24,22.071122,120.764111,0.00012643829
C0R780,滿州,2023-03-24,22.024403,120.839892,0.00012813373
C0R790,九棚,2023-03-24,22.14195,120.889281,0.004238805
C0R800,丹路,2023-03-24,22.204481,120.750989,0.17227393
C0R810,內獅,2023-03-24,22.305064,120.642986,0.21339129
C0R830,高士,2023-03-24,22.121825,120.836781,0.00018939843
C0R850,林邊,2023-03-24,22.4634,120.5339,0.0748629
C0R860,鼻頭,2023-03-24,22.1043,120.8979,9.208464e-05
C0R870,興海,2023-03-24,21.9752,120.8439,0.00013122961
C0R880,後壁湖,2023-03-24,21.9457,120.7457,0.00013459586
C0R890,山海,2023-03-24,21.9878,120.7091,0.00013438465
C0R900,竹坑,2023-03-24,22.1385,120.7022,0.29422596
C0R910,下寮,2023-03-24,22.3929,120.5548,0.05573174
C0R920,塭仔,2023-03-24,22.4169,120.5197,0.05006006
C0R940,加祿堂,2023-03-24,22.3363,120.6217,0.2849355
C0S710,鹿野,2023-03-24,22.917711,121.122994,0.007028392
C0S730,綠島,2023-03-24,22.6672,121.47533,0.017253278
C0S740,池上,2023-03-24,23.119628,121.209469,0.007911123
C0S770,大溪山,2023-03-24,22.478475,120.943325,0.0025040433
C0S790,金崙,2023-03-24,22.538122,120.966875,0.0036358712
C0S810,東河,2023-03-24,22.972672,121.303986,0.010458861
C0S830,長濱,2023-03-24,23.286817,121.411975,0.00377503
C0S840,南田,2023-03-24,22.279725,120.889208,0.0110328775
C0S890,關山,2023-03-24,23.0395,121.175017,0.0028936218
C0S900,蘭嶼高中,2023-03-24,22.04909,121.51214,0.0005616005
C0S910,蘭嶼燈塔,2023-03-24,22.081197,121.503117,0.00075374095
C0S920,金峰嘉蘭,2023-03-24,22.594789,120.960825,0.004286804
C0S930,延平,2023-03-24,22.902581,121.084058,0.005798594
C0S940,石寧山,2023-03-24,23.223772,121.406639,0.005718395
C0S950,七塊厝,2023-03-24,22.954453,121.229922,0.008539311
C0S960,香蘭,2023-03-24,22.587569,120.993375,0.0063364324
C0S970,加津林,2023-03-24,22.416211,120.926942,0.0056108083
C0S990,山豬窟,2023-03-24,22.318619,120.857372,0.0018306682
C0SA00,歷坵,2023-03-24,22.520969,120.89185,0.0027943645
C0SA10,檳榔四格山,2023-03-24,22.810031,121.109308,0.0040078126
C0SA30,都歷,2023-03-24,23.020333,121.323642,0.0070598964
C0SA40,瑞和,2023-03-24,22.974361,121.156697,0.0035242708
C0SA60,知本（水試所）,2023-03-24,22.702394,121.082761,0.0057472973
C0SA80,土坂,2023-03-24,22.453108,120.887572,0.0048601846
C0SA90,達仁林場,2023-03-24,22.264347,120.823972,0.0043359236
C0T870,鯉魚潭,2023-03-24,23.935639,121.508944,0.014600811
C0T900,西林,2023-03-24,23.8119,121.441458,0.012656772
C0T960,光復,2023-03-24,23.660694,121.424964,0.012670365
C0T9A0,月眉山,2023-03-24,23.809928,121.539828,0.0064841956
C0T9D0,和中,2023-03-24,24.26676,121.74103,0.0011717706
C0T9E0,大坑,2023-03-24,23.880628,121.581981,0.009889123
C0T9F0,水璉,2023-03-24,23.797131,121.542514,0.00907026
C0T9I0,豐濱,2023-03-24,23.583897,121.514806,0.008439093
C0T9M0,靜浦,2023-03-24,23.455167,121.495028,0.01574577
C0T9N0,富里,2023-03-24,23.171639,121.249378,0.0024043876
C0U600,礁溪,2023-03-24,24.817539,121.765608,0.0017447692
C0U650,玉蘭,2023-03-24,24.675286,121.587061,0.00065702124
C0U750,龜山島,2023-03-24,24.841667,121.953133,0.0022727004
C0U760,東澳,2023-03-24,24.52196,121.83318,0.0007639145
C0U770,南澳,2023-03-24,24.44935,121.81022,0.0028383809
C0U780,五結,2023-03-24,24.68637,121.79794,0.003614459
C0U860,頭城,2023-03-24,24.85323,121.8308,0.0014623976
C0U870,大礁溪,2023-03-24,24.791042,121.675047,0.0018252193
C0U880,北關,2023-03-24,24.9072,121.8734,0.0015026161
C0U890,三星,2023-03-24,24.66812,121.65302,0.0011246685
C0U900,內城,2023-03-24,24.71813,121.68766,0.0012692732
C0U910,冬山,2023-03-24,24.63373,121.7937,0.0045434884
C0U940,羅東,2023-03-24,24.68184,121.74934,0.0028722917
C0U970,大福,2023-03-24,24.80064,121.81389,0.0017256752
C0U990,員山,2023-03-24,24.74435,121.72247,0.0025009913
C0UA00,土場,2023-03-24,24.576533,121.495333,0.0009783268
C0UA80,大溪漁港,2023-03-24,24.941801,121.902955,0.0029775484
C0UA90,石城,2023-03-24,24.980444,121.951214,0.0016448982
C0UB00,淡江大學蘭陽校園,2023-03-24,24.823239,121.730383,0.0052443063
C0UB20,壯圍,2023-03-24,24.7359,121.8163,0.0034300978
C0V250,甲仙,2023-03-24,23.080106,120.591758,0.016084315
C0V260,月眉,2023-03-24,22.971003,120.539853,0.045242332
C0V310,美濃,2023-03-24,22.898742,120.519153,0.18756521
C0V350,溪埔,2023-03-24,22.738578,120.446797,0.08683688
C0V360,內門,2023-03-24,22.975481,120.466769,0.07572201
C0V370,古亭坑,2023-03-24,22.893178,120.401947,0.14737013
C0V400,阿公店,2023-03-24,22.804194,120.355528,0.11586399
C0V440,鳳山,2023-03-24,22.646653,120.356122,0.03491249
C0V450,鳳森,2023-03-24,22.545064,120.392592,0.02178277
C0V490,新興,2023-03-24,22.627422,120.298803,0.019119373
C0V530,阿蓮,2023-03-24,22.883208,120.327508,0.16532443
C0V610,梓官,2023-03-24,22.760558,120.267211,0.0298863
C0V620,永安,2023-03-24,22.82315,120.236856,0.031478506
C0V630,茄萣,2023-03-24,22.906642,120.182608,0.028804317
C0V640,湖內,2023-03-24,22.887139,120.2445,0.04594485
C0V650,彌陀,2023-03-24,22.783806,120.246361,0.029372184
C0V660,岡山,2023-03-24,22.797078,120.294958,0.054530583
C0V680,仁武,2023-03-24,22.701083,120.347722,0.038454305
C0V690,鼓山,2023-03-24,22.623325,120.275575,0.00836768
C0V700,三民,2023-03-24,22.645017,120.311233,0.019028375
C0V710,苓雅,2023-03-24,22.622742,120.330669,0.019231057
C0V720,林園,2023-03-24,22.507747,120.394511,0.021713665
C0V730,大寮,2023-03-24,22.605614,120.395717,0.028099887
C0V740,旗山,2023-03-24,22.888614,120.483597,0.17466621
C0V750,路竹,2023-03-24,22.854997,120.259439,0.13766815
C0V760,橋頭,2023-03-24,22.757806,120.30575,0.05423882
C0V770,大社,2023-03-24,22.730306,120.346639,0.03370041
C0V790,萬山,2023-03-24,22.905944,120.688056,0.004038833
C0V800,六龜,2023-03-24,22.997889,120.633583,0.023324832
C0V810,左營,2023-03-24,22.67491,120.28491,0.022392485
C0V820,小林,2023-03-24,23.148408,120.63325,0.0045259907
C0V840,鳳鼻頭,2023-03-24,22.5083,120.3591,0.023936361
C0V850,蚵仔寮,2023-03-24,22.7256,120.2527,0.013868883
C0V860,南寮,2023-03-24,22.7616,120.2339,0.021952927
C0V870,文安,2023-03-24,22.8025,120.2164,0.012248197
C0V880,興達,2023-03-24,22.8778,120.2127,0.027739966
C0V890,前鎮,2023-03-24,22.5722,120.3112,0.013702432
C0V900,汕尾,2023-03-24,22.4782,120.4151,0.11441681
C0X050,東河,2023-03-24,23.296598,120.385608,0.017166464
C0X060,下營,2023-03-24,23.22695,120.256261,0.0139377825
C0X080,佳里,2023-03-24,23.173039,120.145086,0.0080798
C0X100,臺南市北區,2023-03-24,23.010394,120.194228,0.03351031
C0X110,臺南市南區,2023-03-24,22.961189,120.188378,0.035898723
C0X120,麻豆,2023-03-24,23.183289,120.248611,0.012192623
C0X130,官田,2023-03-24,23.193217,120.315422,0.015866121
C0X140,西港,2023-03-24,23.125608,120.203108,0.01716228
C0X150,安定,2023-03-24,23.102614,120.227839,0.018658346
C0X160,仁德,2023-03-24,22.968258,120.257689,0.07935474
C0X170,關廟,2023-03-24,22.963017,120.327797,0.06792748
C0X180,山上,2023-03-24,23.0757,120.363253,0.031179214
C0X190,安平,2023-03-24,22.993161,120.152181,0.018958962
C0X200,左鎮,2023-03-24,23.056758,120.408522,0.038746912
C0X210,白河,2023-03-24,23.347466,120.414427,0.014498586
C0X220,學甲,2023-03-24,23.230367,120.182187,0.0077634854
C0X230,鹽水,2023-03-24,23.272621,120.247641,0.009097383
C0X240,關子嶺,2023-03-24,23.331169,120.508025,0.005027254
C0X250,新營,2023-03-24,23.310689,120.316681,0.012021807
C0X260,後壁,2023-03-24,23.366358,120.362326,0.0116221495
C0X280,將軍,2023-03-24,23.214999,120.13577,0.0069744545
C0X290,北門,2023-03-24,23.267772,120.125481,0.005126953
C0X300,鹿寮,2023-03-24,23.386047,120.477331,0.008633209
C0X310,七股,2023-03-24,23.147289,120.086253,0.0042808256
C0X320,柳營,2023-03-24,23.253328,120.375253,0.01740772
C0Z020,明里,2023-03-24,23.208717,121.262342,0.0025800809
C0Z061,玉里,2023-03-24,23.3215,121.339656,0.003098589
C0Z070,舞鶴,2023-03-24,23.46811,121.37407,0.005488837
C0Z080,富源,2023-03-24,23.587642,121.378225,0.0053538443
C0Z100,東華,2023-03-24,23.89525,121.549833,0.028445488
C0Z150,吉安光華,2023-03-24,23.930925,121.595153,0.03179889
C0Z160,鳳林,2023-03-24,23.746114,121.453411,0.009875528
C0Z170,卓溪,2023-03-24,23.3443,121.3029,0.0020100246
C0Z180,新城,2023-03-24,24.03946,121.60454,0.019039877
C0Z190,富世,2023-03-24,24.14743,121.6297,0.001886437
C0Z200,萬榮,2023-03-24,23.709219,121.420106,0.020895904
C0Z210,瑞穗,2023-03-24,23.5239,121.39021,0.0117302425
C0Z230,和平,2023-03-24,24.30717,121.77007,0.00073237147
C0Z270,蕃薯寮,2023-03-24,23.73835,121.540108,0.0073815873
C0Z280,德武,2023-03-24,23.47426,121.41071,0.008841478
C0Z300,東里,2023-03-24,23.26853,121.30547,0.002601163
C0Z310,清水斷崖,2023-03-24,24.218294,121.689142,0.0009786396
C0Z330,安通山,2023-03-24,23.290728,121.348528,0.0022018517
CAG100,王功漁港,2023-03-24,23.96824,120.32586,0.0013103537
CAJ050,海口故事園區,2023-03-24,23.57543,120.14121,0.001585365
CAL110,布袋國中,2023-03-24,23.35893,120.18026,0.0064547323
CAN130,水試所海水繁養殖中心,2023-03-24,23.120802,120.07968,0.004995774
CAN140,六官養殖協會,2023-03-24,23.22881,120.29962,0.016292011
CAQ030,崎峰國小,2023-03-24,22.42565,120.49521,0.0777283
E2K600,四湖植物園,2023-03-24,23.676986,120.163433,0.0019281135
E2P980,林試六龜中心,2023-03-24,22.991703,120.645722,0.022810908
E2S960,林試太麻里2,2023-03-24,22.598014,120.989761,0.006262429
E2S980,林試太麻里1,2023-03-24,22.598922,120.980044,0.00487335
G2F820,農業試驗所,2023-03-24,24.031261,120.688133,0.0032582053
G2L020,嘉義農試,2023-03-24,23.485028,120.473806,0.004332055
G2M350,溪口農場,2023-03-24,23.58565,120.408111,0.005815743
G2P820,鳳山農試,2023-03-24,22.646611,120.356083,0.03491249
K2E360,苗栗農改,2023-03-24,24.495722,120.829111,0.00084057974
K2E710,大湖分場,2023-03-24,24.422861,120.871833,0.0007220381
K2F750,種苗繁殖,2023-03-24,24.225972,120.800917,0.0015369745
U2HA50,臺大竹山,2023-03-24,23.756972,120.681556,0.0032979648
V2K620,麥寮合作社,2023-03-24,23.753836,120.294783,0.004426369
