站號,站名,日期,lat,lon,BlastGRU-TW
466920,臺北,2023-07-03,25.037658,121.514853,0.07943089
466940,基隆,2023-07-03,25.133314,121.740475,0.11915001
466990,花蓮,2023-07-03,23.975128,121.613275,0.99808234
467050,新屋,2023-07-03,25.006744,121.047486,0.17856887
467080,宜蘭,2023-07-03,24.763975,121.756528,0.09034275
467270,田中,2023-07-03,23.873803,120.581286,0.99716705
467300,東吉島,2023-07-03,23.25695,119.667467,0.8848778
467350,澎湖,2023-07-03,23.565503,119.563094,0.37215826
467410,臺南,2023-07-03,22.993239,120.204772,0.98585
467420,永康,2023-07-03,23.038386,120.2367,0.98557633
467441,高雄,2023-07-03,22.7304,120.3125,0.9070193
467480,嘉義,2023-07-03,23.495925,120.432906,0.9980394
467490,臺中,2023-07-03,24.145736,120.684075,0.99251693
467540,大武,2023-07-03,22.355675,120.903789,0.55125195
467571,新竹,2023-07-03,24.827853,121.014219,0.22042917
467590,恆春,2023-07-03,22.003897,120.746339,0.998432
467610,成功,2023-07-03,23.097486,121.373428,0.99173564
467620,蘭嶼,2023-07-03,22.036969,121.558339,0.99995446
467660,臺東,2023-07-03,22.752211,121.154586,0.92162746
467790,墾丁雷達站,2023-07-03,21.948235,120.808028,0.9986809
C0A520,山佳,2023-07-03,24.974944,121.402008,0.104194395
C0A530,坪林,2023-07-03,24.938183,121.70975,0.2967442
C0A540,四堵,2023-07-03,24.8926,121.745736,0.87960756
C0A550,泰平,2023-07-03,24.971197,121.823711,0.9537994
C0A560,福山,2023-07-03,24.776203,121.502811,0.86683136
C0A570,桶後,2023-07-03,24.848222,121.597992,0.90909266
C0A640,石碇,2023-07-03,24.993969,121.662917,0.19009939
C0A650,火燒寮,2023-07-03,25.002719,121.742892,0.23272957
C0A660,瑞芳,2023-07-03,25.113169,121.801147,0.16410121
C0A770,科教館,2023-07-03,25.096356,121.516507,0.09560235
C0A860,大坪,2023-07-03,25.165914,121.632969,0.97093564
C0A880,福隆,2023-07-03,25.017842,121.942083,0.13214065
C0A890,雙溪,2023-07-03,25.036003,121.864242,0.1397149
C0A920,富貴角,2023-07-03,25.263783,121.565258,0.22012016
C0A931,三和,2023-07-03,25.233153,121.595236,0.23419374
C0A940,金山,2023-07-03,25.223628,121.643967,0.16876708
C0A950,鼻頭角,2023-07-03,25.129036,121.923372,0.13006426
C0A970,三貂角,2023-07-03,25.007606,122.002058,0.15659109
C0A980,社子,2023-07-03,25.109508,121.469681,0.0932957
C0A9C0,天母,2023-07-03,25.117494,121.537169,0.10101747
C0A9F0,內湖,2023-07-03,25.079422,121.57545,0.07943089
C0AC60,三峽,2023-07-03,24.939025,121.369728,0.08537546
C0AC70,信義,2023-07-03,25.037822,121.564597,0.07943089
C0AC80,文山,2023-07-03,25.00235,121.575728,0.090108804
C0ACA0,新莊,2023-07-03,25.051478,121.446756,0.108863026
C0AD00,三芝,2023-07-03,25.258131,121.501917,0.1944322
C0AD10,八里,2023-07-03,25.150211,121.403947,0.119494125
C0AD30,蘆洲,2023-07-03,25.086594,121.472331,0.09560235
C0AD40,土城,2023-07-03,24.973208,121.445169,0.098365344
C0AD50,鶯歌,2023-07-03,24.951533,121.346294,0.13222791
C0AG80,中和,2023-07-03,24.991622,121.491792,0.07943089
C0AH00,汐止,2023-07-03,25.066881,121.658778,0.12233708
C0AH10,永和,2023-07-03,25.01125,121.508111,0.077726334
C0AH40,平等,2023-07-03,25.129142,121.577086,0.91781646
C0AH50,林口,2023-07-03,25.072181,121.38084,0.9287932
C0AH70,松山,2023-07-03,25.04871,121.55042,0.07943089
C0AH80,深坑,2023-07-03,25.002703,121.628328,0.090108804
C0AI00,五股,2023-07-03,25.07445,121.42728,0.3612402
C0AI10,屈尺,2023-07-03,24.92184,121.54475,0.090108804
C0AI20,白沙灣,2023-07-03,25.283128,121.519058,0.1582591
C0AI30,三重,2023-07-03,25.057328,121.500629,0.09560235
C0AI40,石牌,2023-07-03,25.115597,121.513139,0.098365344
C0AJ20,野柳,2023-07-03,25.20703,121.690021,0.12233708
C0AJ30,淡水觀海,2023-07-03,25.184591,121.408616,0.11658899
C0AJ40,石門,2023-07-03,25.273672,121.601198,0.30165666
C0AJ50,水湳洞,2023-07-03,25.123695,121.862238,0.12233708
C0AJ60,六塊厝,2023-07-03,25.24,121.4481,0.11658899
C0AJ70,田寮,2023-07-03,25.2698,121.4886,0.15403612
C0AJ80,板橋,2023-07-03,25.0107,121.4489,0.098365344
C0AJ90,澳底,2023-07-03,25.0552,121.9253,0.13214065
C0B010,七堵,2023-07-03,25.094819,121.71713,0.13120869
C0B020,基隆嶼,2023-07-03,25.19141,121.78391,0.12233708
C0B040,大武崙,2023-07-03,25.166676,121.706993,0.13120903
C0B050,八斗子,2023-07-03,25.144754,121.79167,0.11603037
C0B060,暖暖,2023-07-03,25.0957,121.7403,0.15510476
C0C460,復興,2023-07-03,24.820208,121.352281,0.93724734
C0C480,桃園,2023-07-03,24.992425,121.323172,0.2560874
C0C490,八德,2023-07-03,24.928708,121.283289,0.18741442
C0C590,觀音,2023-07-03,25.027072,121.153317,0.19211605
C0C620,蘆竹,2023-07-03,25.084275,121.265767,0.12585035
C0C630,大溪,2023-07-03,24.882853,121.265547,0.25663492
C0C650,平鎮,2023-07-03,24.897503,121.214636,0.45588267
C0C660,楊梅,2023-07-03,24.912375,121.143047,0.49211574
C0C670,龍潭,2023-07-03,24.870056,121.221389,0.6523918
C0C680,龜山,2023-07-03,25.02846,121.38656,0.89521104
C0C700,中壢,2023-07-03,24.977661,121.256375,0.29888
C0C710,大溪永福,2023-07-03,24.892936,121.324975,0.44056347
C0C720,竹圍,2023-07-03,25.112692,121.239824,0.119494125
C0C730,中大臨海站,2023-07-03,24.966126,121.008581,0.16735016
C0C740,觀音工業區,2023-07-03,25.064764,121.114856,0.33254737
C0C750,新興坑尾,2023-07-03,25.0061,121.0971,0.4462918
C0D430,峨眉,2023-07-03,24.6905,121.017189,0.24307862
C0D480,打鐵坑,2023-07-03,24.849664,121.150789,0.6752779
C0D540,橫山,2023-07-03,24.71116,121.11693,0.6388238
C0D560,竹東,2023-07-03,24.767147,121.057881,0.251793
C0D580,寶山,2023-07-03,24.735006,121.025192,0.38903967
C0D590,新豐,2023-07-03,24.87068,120.97721,0.27426034
C0D650,湖口,2023-07-03,24.904794,121.043628,0.21422221
C0D660,新竹市東區,2023-07-03,24.798681,120.986942,0.23853022
C0D670,海天一線,2023-07-03,24.831986,120.914438,0.24838586
C0D680,香山濕地,2023-07-03,24.783581,120.914988,0.2576334
C0D690,外湖,2023-07-03,24.917735,120.968711,0.16735016
C0D700,關西,2023-07-03,24.7977,121.1732,0.32013556
C0E420,竹南,2023-07-03,24.708978,120.888897,0.2989119
C0E430,南庄,2023-07-03,24.601775,121.000214,0.5622468
C0E520,大湖,2023-07-03,24.41494,120.87087,0.93792766
C0E540,後龍,2023-07-03,24.606489,120.783933,0.98241585
C0E550,明德,2023-07-03,24.583486,120.885411,0.92983335
C0E590,通霄,2023-07-03,24.471892,120.704622,0.97390735
C0E730,頭份,2023-07-03,24.688247,120.912206,0.2989119
C0E740,造橋,2023-07-03,24.637056,120.864778,0.87816346
C0E750,苗栗,2023-07-03,24.564569,120.824575,0.9875702
C0E780,銅鑼,2023-07-03,24.489681,120.790853,0.9054651
C0E791,卓蘭,2023-07-03,24.3126,120.8244,0.9960964
C0E810,西湖,2023-07-03,24.562947,120.7485,0.9856211
C0E820,獅潭,2023-07-03,24.539133,120.920042,0.9388083
C0E830,苑裡,2023-07-03,24.439714,120.653053,0.95598614
C0E850,大河,2023-07-03,24.618069,120.948578,0.94441146
C0E870,高鐵苗栗,2023-07-03,24.60725,120.826094,0.9835024
C0E910,海埔,2023-07-03,24.648767,120.772435,0.84984374
C0E920,通霄漁港,2023-07-03,24.498589,120.673876,0.9650004
C0E930,龍鳳,2023-07-03,24.700034,120.859125,0.84835535
C0F0B0,石岡,2023-07-03,24.276061,120.777644,0.99170566
C0F850,東勢,2023-07-03,24.246428,120.833047,0.99730176
C0F930,大甲,2023-07-03,24.347667,120.640403,0.9692139
C0F970,大坑,2023-07-03,24.173142,120.722289,0.991741
C0F9A0,中竹林,2023-07-03,24.103556,120.751061,0.9975028
C0F9I0,神岡,2023-07-03,24.272481,120.658314,0.978971
C0F9K0,大安,2023-07-03,24.345061,120.588025,0.9509204
C0F9L0,后里,2023-07-03,24.310436,120.729725,0.9916823
C0F9M0,豐原,2023-07-03,24.254322,120.720692,0.98722965
C0F9N0,大里,2023-07-03,24.092464,120.701378,0.9738603
C0F9O0,潭子,2023-07-03,24.213106,120.703933,0.9791628
C0F9P0,清水,2023-07-03,24.312297,120.562242,0.94703555
C0F9Q0,外埔,2023-07-03,24.347817,120.705686,0.95986044
C0F9R0,龍井,2023-07-03,24.184536,120.528972,0.94932836
C0F9S0,烏日,2023-07-03,24.107058,120.624103,0.96680963
C0F9T0,西屯,2023-07-03,24.179494,120.641275,0.97478443
C0F9U0,南屯,2023-07-03,24.137006,120.637969,0.9738603
C0F9X0,大雅(中科園區),2023-07-03,24.21528,120.62445,0.9856024
C0FA10,松柏,2023-07-03,24.429115,120.617482,0.9503145
C0FA20,溫寮,2023-07-03,24.372177,120.583125,0.9503145
C0FA30,梧棲,2023-07-03,24.256003,120.523381,0.94932836
C0FA40,臺中電廠,2023-07-03,24.2146,120.4907,0.94932836
C0FA50,霧峰,2023-07-03,24.0419,120.6995,0.989995
C0G620,芬園,2023-07-03,24.015678,120.6213,0.991652
C0G640,鹿港,2023-07-03,24.0753,120.430481,0.9586318
C0G650,員林,2023-07-03,23.946503,120.585597,0.9902286
C0G660,溪湖,2023-07-03,23.94835,120.479122,0.9831471
C0G720,溪州,2023-07-03,23.851589,120.499093,0.9965924
C0G730,二林,2023-07-03,23.903325,120.376081,0.96053225
C0G740,大城,2023-07-03,23.852487,120.320935,0.99578196
C0G770,福興,2023-07-03,24.041289,120.437669,0.9586318
C0G780,秀水,2023-07-03,24.03405,120.503869,0.9675495
C0G800,埔鹽,2023-07-03,24.000394,120.431683,0.9586318
C0G810,埔心,2023-07-03,23.947633,120.525456,0.9843186
C0G820,田尾,2023-07-03,23.901669,120.509389,0.98550624
C0G830,埤頭,2023-07-03,23.866003,120.452806,0.99640775
C0G840,北斗,2023-07-03,23.877586,120.514222,0.98550624
C0G860,社頭,2023-07-03,23.897647,120.5862,0.9908778
C0G870,芳苑,2023-07-03,23.922303,120.320025,0.99572283
C0G880,二水,2023-07-03,23.810742,120.6173,0.9977729
C0G890,伸港,2023-07-03,24.148933,120.484403,0.9502673
C0G900,線西,2023-07-03,24.143358,120.443536,0.96027994
C0G910,花壇,2023-07-03,24.032076,120.549461,0.9713546
C0G920,永靖,2023-07-03,23.924703,120.547533,0.98550624
C0G940,竹塘,2023-07-03,23.848253,120.386764,0.9940778
C0G950,防潮門,2023-07-03,24.1835,120.4871,0.9476638
C0G960,福寶,2023-07-03,24.0443,120.3814,0.95604646
C0G970,三豐,2023-07-03,23.882,120.2895,0.99572283
C0H890,埔里,2023-07-03,23.972169,120.952425,0.9960316
C0H950,中寮,2023-07-03,23.884447,120.766406,0.9989564
C0H960,草屯,2023-07-03,23.973672,120.68085,0.99788123
C0I110,竹山,2023-07-03,23.761225,120.688156,0.99877536
C0I360,水里,2023-07-03,23.812553,120.849792,0.99940497
C0I380,集集,2023-07-03,23.828206,120.801467,0.99939185
C0I410,名間,2023-07-03,23.837053,120.701447,0.9984115
C0I420,國姓,2023-07-03,24.037803,120.855072,0.99567926
C0I460,南投,2023-07-03,23.911469,120.687331,0.99830675
C0K250,崙背,2023-07-03,23.75555,120.318925,0.9959714
C0K280,四湖,2023-07-03,23.630414,120.227125,0.9959803
C0K291,宜梧,2023-07-03,23.536281,120.169329,0.997924
C0K330,虎尾,2023-07-03,23.719183,120.442036,0.9940642
C0K390,土庫,2023-07-03,23.679029,120.395574,0.9939012
C0K400,斗六,2023-07-03,23.720583,120.541127,0.9964566
C0K410,北港,2023-07-03,23.573957,120.292802,0.9979982
C0K420,西螺,2023-07-03,23.800407,120.467394,0.9966068
C0K430,褒忠,2023-07-03,23.690938,120.303634,0.9955802
C0K440,二崙,2023-07-03,23.772797,120.408944,0.9942179
C0K450,大埤,2023-07-03,23.646074,120.431537,0.9942605
C0K460,斗南,2023-07-03,23.678734,120.478359,0.99624926
C0K470,林內,2023-07-03,23.748675,120.609642,0.9968364
C0K480,莿桐,2023-07-03,23.761192,120.502372,0.9967003
C0K500,元長,2023-07-03,23.64981,120.315024,0.9960606
C0K510,水林,2023-07-03,23.572924,120.24597,0.99800164
C0K530,臺西,2023-07-03,23.701547,120.197559,0.9957831
C0K550,蔦松,2023-07-03,23.514319,120.229736,0.9979425
C0K560,棋山,2023-07-03,23.68645,120.603417,0.996718
C0K580,高鐵雲林,2023-07-03,23.737456,120.417944,0.9939012
C0K590,雲林東勢,2023-07-03,23.674192,120.255721,0.9955802
C0K600,箔子寮,2023-07-03,23.6197,120.14,0.99799216
C0M410,馬頭山,2023-07-03,23.324361,120.582017,0.99935466
C0M520,東後寮,2023-07-03,23.369908,120.248065,0.99580914
C0M640,中埔,2023-07-03,23.42538,120.5229,0.9983978
C0M650,朴子,2023-07-03,23.43463,120.23902,0.99793273
C0M660,溪口,2023-07-03,23.604131,120.403569,0.9970015
C0M670,大林,2023-07-03,23.600616,120.45841,0.9981053
C0M680,太保,2023-07-03,23.455062,120.331455,0.99787664
C0M690,水上,2023-07-03,23.419734,120.388909,0.99839234
C0M700,竹崎,2023-07-03,23.526178,120.555508,0.9984598
C0M710,東石,2023-07-03,23.458927,120.15385,0.9979425
C0M720,番路,2023-07-03,23.464657,120.554156,0.99887943
C0M730,嘉義市東區,2023-07-03,23.457673,120.460531,0.9988245
C0M740,六腳,2023-07-03,23.492871,120.290625,0.9978623
C0M750,布袋,2023-07-03,23.380878,120.167789,0.99793273
C0M760,民雄,2023-07-03,23.551754,120.428457,0.9971529
C0M770,嘉義梅山,2023-07-03,23.585398,120.555587,0.99723077
C0M780,鹿草,2023-07-03,23.41134,120.30835,0.9980883
C0M790,新港,2023-07-03,23.553269,120.345728,0.99801534
C0M800,茶山,2023-07-03,23.299075,120.664767,0.9988364
C0M880,好美里,2023-07-03,23.3364,120.138,0.99614096
C0N010,鯤鯓國小,2023-07-03,23.1879,120.0889,0.99809927
C0N020,城西,2023-07-03,23.0568,120.0956,0.9956045
C0N030,四草,2023-07-03,23.0235,120.1116,0.9946668
C0N040,蘆竹溝,2023-07-03,23.2344,120.0961,0.99809927
C0N050,蚵寮,2023-07-03,23.301,120.1104,0.99809927
C0O810,曾文,2023-07-03,23.219681,120.497328,0.99938
C0O830,北寮,2023-07-03,23.079561,120.495008,0.98769546
C0O840,王爺宮,2023-07-03,23.222064,120.40085,0.99938
C0O860,大內,2023-07-03,23.11885,120.36083,0.99371904
C0O900,善化,2023-07-03,23.112883,120.297219,0.9867707
C0O930,玉井,2023-07-03,23.126042,120.46055,0.9991623
C0O950,安南,2023-07-03,23.076694,120.144861,0.9866726
C0O960,崎頂,2023-07-03,22.959547,120.369317,0.9714076
C0O970,虎頭埤,2023-07-03,23.021375,120.347878,0.9964227
C0O980,新市,2023-07-03,23.061614,120.298197,0.9867707
C0O990,媽廟,2023-07-03,22.99175,120.293525,0.98624325
C0R150,三地門,2023-07-03,22.709889,120.639944,0.7688863
C0R160,鹽埔,2023-07-03,22.739558,120.530778,0.75555724
C0R170,屏東,2023-07-03,22.660269,120.494072,0.94621074
C0R190,赤山,2023-07-03,22.592333,120.614306,0.773737
C0R220,潮州,2023-07-03,22.534361,120.54,0.7869582
C0R240,來義,2023-07-03,22.527306,120.625111,0.74792445
C0R260,春日,2023-07-03,22.370361,120.628306,0.7100325
C0R270,琉球嶼,2023-07-03,22.332244,120.362236,0.71972233
C0R280,檳榔,2023-07-03,22.076078,120.836777,0.9994041
C0R320,車城,2023-07-03,22.0744,120.716247,0.99808586
C0R341,牡丹,2023-07-03,22.130036,120.792639,0.8951249
C0R350,貓鼻頭,2023-07-03,21.921774,120.7358,0.99851894
C0R470,高樹,2023-07-03,22.826389,120.600806,0.73484385
C0R480,長治,2023-07-03,22.693128,120.542622,0.7689934
C0R490,九如,2023-07-03,22.7405,120.490503,0.9486081
C0R520,崁頂,2023-07-03,22.514781,120.506914,0.95583296
C0R540,佳冬,2023-07-03,22.419456,120.552375,0.95364517
C0R550,新埤,2023-07-03,22.467947,120.582894,0.7627005
C0R560,新園,2023-07-03,22.5434,120.461558,0.95583296
C0R570,麟洛,2023-07-03,22.65078,120.52719,0.9486081
C0R580,南州,2023-07-03,22.48591,120.50274,0.95364517
C0R590,里港,2023-07-03,22.77919,120.49459,0.78638625
C0R620,墾雷,2023-07-03,21.900836,120.855269,0.99851894
C0R640,東港,2023-07-03,22.46247,120.44074,0.93240803
C0R650,竹田,2023-07-03,22.58486,120.54344,0.74749154
C0R660,枋寮,2023-07-03,22.367722,120.590647,0.76398396
C0R670,楓港,2023-07-03,22.190131,120.692156,0.63970876
C0R680,佳樂水,2023-07-03,21.993578,120.861633,0.9983227
C0R690,墾丁,2023-07-03,21.966756,120.810269,0.9994569
C0R700,枋山,2023-07-03,22.246844,120.661086,0.63970876
C0R710,龍磐,2023-07-03,21.931672,120.838942,0.99906343
C0R720,旭海,2023-07-03,22.205403,120.887614,0.9862583
C0R730,大坪頂,2023-07-03,22.024633,120.69355,0.99912435
C0R740,獅子,2023-07-03,22.201569,120.70525,0.6947995
C0R760,南仁湖,2023-07-03,22.084681,120.863353,0.99960446
C0R770,保力,2023-07-03,22.071122,120.764111,0.9988758
C0R780,滿州,2023-07-03,22.024403,120.839892,0.99860907
C0R790,九棚,2023-07-03,22.14195,120.889281,0.9800009
C0R800,丹路,2023-07-03,22.204481,120.750989,0.8175891
C0R810,內獅,2023-07-03,22.305064,120.642986,0.65638953
C0R830,高士,2023-07-03,22.121825,120.836781,0.99969625
C0R850,林邊,2023-07-03,22.4634,120.5339,0.95583296
C0R860,鼻頭,2023-07-03,22.1043,120.8979,0.9995905
C0R870,興海,2023-07-03,21.9752,120.8439,0.9983227
C0R880,後壁湖,2023-07-03,21.9457,120.7457,0.99795955
C0R890,山海,2023-07-03,21.9878,120.7091,0.99808586
C0R900,竹坑,2023-07-03,22.1385,120.7022,0.64920896
C0R910,下寮,2023-07-03,22.3929,120.5548,0.95364517
C0R920,塭仔,2023-07-03,22.4169,120.5197,0.95191
C0R930,萬丹,2023-07-03,22.5885,120.4851,0.74749154
C0R940,加祿堂,2023-07-03,22.3363,120.6217,0.65638953
C0S710,鹿野,2023-07-03,22.917711,121.122994,0.998254
C0S730,綠島,2023-07-03,22.6672,121.47533,0.99214596
C0S740,池上,2023-07-03,23.119628,121.209469,0.99718046
C0S770,大溪山,2023-07-03,22.478475,120.943325,0.99316806
C0S790,金崙,2023-07-03,22.538122,120.966875,0.9628334
C0S810,東河,2023-07-03,22.972672,121.303986,0.9920503
C0S830,長濱,2023-07-03,23.286817,121.411975,0.99816924
C0S840,南田,2023-07-03,22.279725,120.889208,0.82934725
C0S890,關山,2023-07-03,23.0395,121.175017,0.99381435
C0S900,蘭嶼高中,2023-07-03,22.04909,121.51214,0.9998663
C0S910,蘭嶼燈塔,2023-07-03,22.081197,121.503117,0.9999296
C0S920,金峰嘉蘭,2023-07-03,22.594789,120.960825,0.8500132
C0S930,延平,2023-07-03,22.902581,121.084058,0.99666935
C0S940,石寧山,2023-07-03,23.223772,121.406639,0.9965118
C0S950,七塊厝,2023-07-03,22.954453,121.229922,0.99840707
C0S960,香蘭,2023-07-03,22.587569,120.993375,0.7037837
C0S970,加津林,2023-07-03,22.416211,120.926942,0.5939846
C0S990,山豬窟,2023-07-03,22.318619,120.857372,0.9967215
C0SA00,歷坵,2023-07-03,22.520969,120.89185,0.99638665
C0SA10,檳榔四格山,2023-07-03,22.810031,121.109308,0.99608904
C0SA30,都歷,2023-07-03,23.020333,121.323642,0.99194044
C0SA40,瑞和,2023-07-03,22.974361,121.156697,0.99329454
C0SA60,知本（水試所）,2023-07-03,22.702394,121.082761,0.88066655
C0SA80,土坂,2023-07-03,22.453108,120.887572,0.9044026
C0SA90,達仁林場,2023-07-03,22.264347,120.823972,0.9951844
C0T870,鯉魚潭,2023-07-03,23.935639,121.508944,0.9981159
C0T900,西林,2023-07-03,23.8119,121.441458,0.9984744
C0T960,光復,2023-07-03,23.660694,121.424964,0.9983494
C0T9A0,月眉山,2023-07-03,23.809928,121.539828,0.9985768
C0T9D0,和中,2023-07-03,24.26676,121.74103,0.9846302
C0T9E0,大坑,2023-07-03,23.880628,121.581981,0.9986749
C0T9F0,水璉,2023-07-03,23.797131,121.542514,0.99867827
C0T9I0,豐濱,2023-07-03,23.583897,121.514806,0.9987075
C0T9M0,靜浦,2023-07-03,23.455167,121.495028,0.99822927
C0T9N0,富里,2023-07-03,23.171639,121.249378,0.99838257
C0U600,礁溪,2023-07-03,24.817539,121.765608,0.091996945
C0U650,玉蘭,2023-07-03,24.675286,121.587061,0.9986182
C0U750,龜山島,2023-07-03,24.841667,121.953133,0.8211019
C0U760,東澳,2023-07-03,24.52196,121.83318,0.72312427
C0U770,南澳,2023-07-03,24.44935,121.81022,0.75673336
C0U780,五結,2023-07-03,24.68637,121.79794,0.1281118
C0U860,頭城,2023-07-03,24.85323,121.8308,0.090342835
C0U870,大礁溪,2023-07-03,24.791042,121.675047,0.9342736
C0U880,北關,2023-07-03,24.9072,121.8734,0.08398977
C0U890,三星,2023-07-03,24.66812,121.65302,0.119639024
C0U900,內城,2023-07-03,24.71813,121.68766,0.09849788
C0U910,冬山,2023-07-03,24.63373,121.7937,0.1281118
C0U940,羅東,2023-07-03,24.68184,121.74934,0.13008821
C0U970,大福,2023-07-03,24.80064,121.81389,0.08848522
C0U990,員山,2023-07-03,24.74435,121.72247,0.13008821
C0UA00,土場,2023-07-03,24.576533,121.495333,0.9777839
C0UA80,大溪漁港,2023-07-03,24.941801,121.902955,0.091996945
C0UA90,石城,2023-07-03,24.980444,121.951214,0.12658079
C0UB00,淡江大學蘭陽校園,2023-07-03,24.823239,121.730383,0.9740535
C0UB10,蘇澳,2023-07-03,24.5969,121.8571,0.7693407
C0UB20,壯圍,2023-07-03,24.7359,121.8163,0.12711513
C0V250,甲仙,2023-07-03,23.080106,120.591758,0.99749744
C0V260,月眉,2023-07-03,22.971003,120.539853,0.9835783
C0V310,美濃,2023-07-03,22.898742,120.519153,0.9983529
C0V350,溪埔,2023-07-03,22.738578,120.446797,0.92700523
C0V360,內門,2023-07-03,22.975481,120.466769,0.9989275
C0V370,古亭坑,2023-07-03,22.893178,120.401947,0.99757713
C0V400,阿公店,2023-07-03,22.804194,120.355528,0.9305384
C0V440,鳳山,2023-07-03,22.646653,120.356122,0.94045776
C0V450,鳳森,2023-07-03,22.545064,120.392592,0.75350314
C0V490,新興,2023-07-03,22.627422,120.298803,0.93458843
C0V530,阿蓮,2023-07-03,22.883208,120.327508,0.98436695
C0V610,梓官,2023-07-03,22.760558,120.267211,0.8909624
C0V620,永安,2023-07-03,22.82315,120.236856,0.87472826
C0V630,茄萣,2023-07-03,22.906642,120.182608,0.98306274
C0V640,湖內,2023-07-03,22.887139,120.2445,0.9833139
C0V650,彌陀,2023-07-03,22.783806,120.246361,0.87472826
C0V660,岡山,2023-07-03,22.797078,120.294958,0.8909624
C0V680,仁武,2023-07-03,22.701083,120.347722,0.90953416
C0V690,鼓山,2023-07-03,22.623325,120.275575,0.93458843
C0V700,三民,2023-07-03,22.645017,120.311233,0.93458843
C0V710,苓雅,2023-07-03,22.622742,120.330669,0.93458843
C0V720,林園,2023-07-03,22.507747,120.394511,0.93458843
C0V730,大寮,2023-07-03,22.605614,120.395717,0.6914949
C0V740,旗山,2023-07-03,22.888614,120.483597,0.998439
C0V750,路竹,2023-07-03,22.854997,120.259439,0.88031363
C0V760,橋頭,2023-07-03,22.757806,120.30575,0.8935463
C0V770,大社,2023-07-03,22.730306,120.346639,0.909534
C0V790,萬山,2023-07-03,22.905944,120.688056,0.99875426
C0V800,六龜,2023-07-03,22.997889,120.633583,0.9895541
C0V810,左營,2023-07-03,22.67491,120.28491,0.9070193
C0V820,小林,2023-07-03,23.148408,120.63325,0.9990549
C0V840,鳳鼻頭,2023-07-03,22.5083,120.3591,0.93240803
C0V850,蚵仔寮,2023-07-03,22.7256,120.2527,0.904929
C0V860,南寮,2023-07-03,22.7616,120.2339,0.8716041
C0V870,文安,2023-07-03,22.8025,120.2164,0.8716041
C0V880,興達,2023-07-03,22.8778,120.2127,0.98306274
C0V890,前鎮,2023-07-03,22.5718,120.3117,0.93240803
C0V900,汕尾,2023-07-03,22.4782,120.4151,0.9441156
C0X050,東河,2023-07-03,23.296598,120.385608,0.9989658
C0X060,下營,2023-07-03,23.22695,120.256261,0.99665534
C0X080,佳里,2023-07-03,23.173039,120.145086,0.99614096
C0X100,臺南市北區,2023-07-03,23.010394,120.194228,0.9853399
C0X110,臺南市南區,2023-07-03,22.961189,120.188378,0.98557633
C0X120,麻豆,2023-07-03,23.183289,120.248611,0.9962385
C0X130,官田,2023-07-03,23.193217,120.315422,0.9968348
C0X140,西港,2023-07-03,23.125608,120.203108,0.9957749
C0X150,安定,2023-07-03,23.102614,120.227839,0.9867043
C0X160,仁德,2023-07-03,22.968258,120.257689,0.9860284
C0X170,關廟,2023-07-03,22.963017,120.327797,0.986949
C0X180,山上,2023-07-03,23.0757,120.363253,0.9986816
C0X190,安平,2023-07-03,22.993161,120.152181,0.9853399
C0X200,左鎮,2023-07-03,23.056758,120.408522,0.9986113
C0X210,白河,2023-07-03,23.347466,120.414427,0.99900496
C0X220,學甲,2023-07-03,23.230367,120.182187,0.9962385
C0X230,鹽水,2023-07-03,23.272621,120.247641,0.99616003
C0X240,關子嶺,2023-07-03,23.331169,120.508025,0.99914217
C0X250,新營,2023-07-03,23.310689,120.316681,0.9965506
C0X260,後壁,2023-07-03,23.366358,120.362326,0.99828917
C0X280,將軍,2023-07-03,23.214999,120.13577,0.99614096
C0X290,北門,2023-07-03,23.267772,120.125481,0.99614096
C0X300,鹿寮,2023-07-03,23.386047,120.477331,0.99677694
C0X310,七股,2023-07-03,23.147289,120.086253,0.9980507
C0X320,柳營,2023-07-03,23.253328,120.375253,0.9989658
C0Z020,明里,2023-07-03,23.208717,121.262342,0.99791515
C0Z061,玉里,2023-07-03,23.3215,121.339656,0.9961486
C0Z070,舞鶴,2023-07-03,23.46811,121.37407,0.9988409
C0Z080,富源,2023-07-03,23.587642,121.378225,0.9988183
C0Z100,東華,2023-07-03,23.89525,121.549833,0.9959436
C0Z150,吉安光華,2023-07-03,23.930925,121.595153,0.9954574
C0Z160,鳳林,2023-07-03,23.746114,121.453411,0.9981716
C0Z170,卓溪,2023-07-03,23.3443,121.3029,0.9967782
C0Z180,新城,2023-07-03,24.03946,121.60454,0.99826056
C0Z190,富世,2023-07-03,24.14743,121.6297,0.9948937
C0Z200,萬榮,2023-07-03,23.709219,121.420106,0.9981159
C0Z210,瑞穗,2023-07-03,23.5239,121.39021,0.99858886
C0Z230,和平,2023-07-03,24.30717,121.77007,0.9846302
C0Z270,蕃薯寮,2023-07-03,23.73835,121.540108,0.9986553
C0Z280,德武,2023-07-03,23.47426,121.41071,0.9988387
C0Z300,東里,2023-07-03,23.26853,121.30547,0.9964762
C0Z310,清水斷崖,2023-07-03,24.218294,121.689142,0.9876319
C0Z330,安通山,2023-07-03,23.290728,121.348528,0.9984358
