站號,站名,日期,lat,lon,BlastGRU-TW
466881,新北,2023-03-20,24.9593,121.52,0.0053773914
466900,淡水,2023-03-20,25.164889,121.448906,0.00060640165
466920,臺北,2023-03-20,25.037658,121.514853,0.0053368453
467350,澎湖,2023-03-20,23.565503,119.563094,0.005898015
467410,臺南,2023-03-20,22.993239,120.204772,0.015862122
467420,永康,2023-03-20,23.038386,120.2367,0.016393764
467790,墾丁雷達站,2023-03-20,21.948235,120.808028,1.7506363e-05
C0A520,山佳,2023-03-20,24.974944,121.402008,0.003943732
C0A530,坪林,2023-03-20,24.938183,121.70975,0.011921727
C0A880,福隆,2023-03-20,25.017842,121.942083,0.0030238966
C0A890,雙溪,2023-03-20,25.036003,121.864242,0.00025272035
C0A920,富貴角,2023-03-20,25.263783,121.565258,0.0012856285
C0AC80,文山,2023-03-20,25.00235,121.575728,0.005208004
C0ACA0,新莊,2023-03-20,25.051478,121.446756,0.0011059964
C0AD00,三芝,2023-03-20,25.258131,121.501917,0.0008972484
C0AH70,松山,2023-03-20,25.04871,121.55042,0.0053368504
C0AH80,深坑,2023-03-20,25.002703,121.628328,0.005208004
C0AI00,五股,2023-03-20,25.07445,121.42728,0.0022415784
C0AJ70,田寮,2023-03-20,25.2698,121.4886,0.0004900484
