站號,站名,日期,lat,lon,BlastGRU-TW
12J990,口湖工作站,2023-09-23,23.589978,120.180394,0.9237894
12Q970,東港工作站,2023-09-23,22.479997,120.466058,0.9920407
12Q980,恆春工作站,2023-09-23,22.079678,120.714425,0.96112794
466881,新北,2023-09-23,24.9593,121.52,0.04613776
466900,淡水,2023-09-23,25.164889,121.448906,0.029692423
466920,臺北,2023-09-23,25.037658,121.514853,0.021842306
466940,基隆,2023-09-23,25.133314,121.740475,0.01848094
466990,花蓮,2023-09-23,23.975128,121.613275,0.9987472
467050,新屋,2023-09-23,25.006744,121.047486,0.025198054
467080,宜蘭,2023-09-23,24.763975,121.756528,0.3377191
467270,田中,2023-09-23,23.873803,120.581286,0.849554
467300,東吉島,2023-09-23,23.25695,119.667467,0.9941353
467350,澎湖,2023-09-23,23.565503,119.563094,0.94603133
467410,臺南,2023-09-23,22.993239,120.204772,0.9943893
467420,永康,2023-09-23,23.038386,120.2367,0.99459
467441,高雄,2023-09-23,22.7304,120.3125,0.98084676
467480,嘉義,2023-09-23,23.495925,120.432906,0.118454516
467490,臺中,2023-09-23,24.145736,120.684075,0.19394138
467540,大武,2023-09-23,22.355675,120.903789,0.99851376
467571,新竹,2023-09-23,24.827853,121.014219,0.026149837
467590,恆春,2023-09-23,22.003897,120.746339,0.96675444
467610,成功,2023-09-23,23.097486,121.373428,0.9996382
467620,蘭嶼,2023-09-23,22.036969,121.558339,0.99847245
467660,臺東,2023-09-23,22.752211,121.154586,0.9937614
467790,墾丁雷達站,2023-09-23,21.948235,120.808028,0.97320414
72AI40,桃改樹林分場,2023-09-23,24.944503,121.386972,0.039317794
72C440,桃園農改,2023-09-23,24.950944,121.030583,0.020823816
72D680,桃改新埔分場,2023-09-23,24.834444,121.066111,0.045200564
72G600,臺中農改,2023-09-23,24.003028,120.534389,0.22252458
72K220,南改斗南分場,2023-09-23,23.634556,120.477333,0.83875775
72M360,南改義竹分場,2023-09-23,23.360694,120.279361,0.9878692
72M700,南改鹿草分場,2023-09-23,23.416869,120.283061,0.9275706
72N100,臺南農改,2023-09-23,23.0605,120.342194,0.9952091
72N240,七股研究中心,2023-09-23,23.081672,120.062894,0.9938796
72Q010,高雄農改,2023-09-23,22.709333,120.525889,0.9776697
72S200,東改班鳩分場,2023-09-23,22.829528,121.077694,0.99918056
72S590,東改賓朗果園,2023-09-23,22.813889,121.071278,0.9989423
72T250,花蓮農改,2023-09-23,23.975222,121.563889,0.99939793
72U480,花改蘭陽分場,2023-09-23,24.686306,121.716583,0.8294749
72V140,高改旗南分場,2023-09-23,22.857861,120.516667,0.9683257
82A750,茶改北部分場,2023-09-23,24.955778,121.631222,0.9979202
82C160,茶改場,2023-09-23,24.908472,121.185333,0.14223488
82H840,茶改南部分場,2023-09-23,23.762528,120.7405,0.99296904
82S580,茶改東部分場,2023-09-23,22.907694,121.130139,0.9997146
A2C560,農工中心,2023-09-23,24.985917,121.239833,0.038452215
A2K360,水試臺西試驗場,2023-09-23,23.717231,120.190522,0.26349562
A2K570,古坑花卉中心,2023-09-23,23.63353,120.55239,0.91614497
A2K630,臺大雲林校區,2023-09-23,23.730628,120.423903,0.88626504
A2N290,臺南蘭花園區,2023-09-23,23.340258,120.379661,0.80776256
B2E890,畜試北區分所,2023-09-23,24.527806,120.770972,0.21702763
B2N890,畜試所,2023-09-23,23.058972,120.336406,0.99517244
B2Q810,畜試南區分所,2023-09-23,21.945583,120.802167,0.96435124
B2U990,畜試東區分所,2023-09-23,24.669039,121.832561,0.6728205
C0A520,山佳,2023-09-23,24.974944,121.402008,0.037789445
C0A530,坪林,2023-09-23,24.938183,121.70975,0.8746303
C0A540,四堵,2023-09-23,24.8926,121.745736,0.9327042
C0A550,泰平,2023-09-23,24.971197,121.823711,0.99928516
C0A560,福山,2023-09-23,24.776203,121.502811,0.9991176
C0A570,桶後,2023-09-23,24.848222,121.597992,0.8542578
C0A640,石碇,2023-09-23,24.993969,121.662917,0.8240291
C0A650,火燒寮,2023-09-23,25.002719,121.742892,0.92583984
C0A660,瑞芳,2023-09-23,25.113169,121.801147,0.71109
C0A770,科教館,2023-09-23,25.096356,121.516507,0.020912556
C0A860,大坪,2023-09-23,25.165914,121.632969,0.67101955
C0A880,福隆,2023-09-23,25.017842,121.942083,0.5084036
C0A890,雙溪,2023-09-23,25.036003,121.864242,0.027372908
C0A920,富貴角,2023-09-23,25.263783,121.565258,0.025943523
C0A931,三和,2023-09-23,25.233153,121.595236,0.48332778
C0A940,金山,2023-09-23,25.223628,121.643967,0.040606886
C0A950,鼻頭角,2023-09-23,25.129036,121.923372,0.26471037
C0A970,三貂角,2023-09-23,25.007606,122.002058,0.4732569
C0A980,社子,2023-09-23,25.109508,121.469681,0.020902278
C0A9C0,天母,2023-09-23,25.117494,121.537169,0.02458508
C0A9F0,內湖,2023-09-23,25.079422,121.57545,0.023168035
C0AC60,三峽,2023-09-23,24.939025,121.369728,0.03769351
C0AC70,信義,2023-09-23,25.037822,121.564597,0.021898016
C0AC80,文山,2023-09-23,25.00235,121.575728,0.024754534
C0ACA0,新莊,2023-09-23,25.051478,121.446756,0.02766248
C0AD00,三芝,2023-09-23,25.258131,121.501917,0.025710065
C0AD10,八里,2023-09-23,25.150211,121.403947,0.03370181
C0AD30,蘆洲,2023-09-23,25.086594,121.472331,0.020886412
C0AD40,土城,2023-09-23,24.973208,121.445169,0.042278763
C0AD50,鶯歌,2023-09-23,24.951533,121.346294,0.04477817
C0AG80,中和,2023-09-23,24.991622,121.491792,0.026002191
C0AH00,汐止,2023-09-23,25.066881,121.658778,0.024778645
C0AH10,永和,2023-09-23,25.01125,121.508111,0.025887553
C0AH40,平等,2023-09-23,25.129142,121.577086,0.5659429
C0AH50,林口,2023-09-23,25.072181,121.38084,0.18544765
C0AH70,松山,2023-09-23,25.04871,121.55042,0.021898016
C0AH80,深坑,2023-09-23,25.002703,121.628328,0.027544223
C0AI00,五股,2023-09-23,25.07445,121.42728,0.028128589
C0AI10,屈尺,2023-09-23,24.92184,121.54475,0.061522923
C0AI20,白沙灣,2023-09-23,25.283128,121.519058,0.019608837
C0AI30,三重,2023-09-23,25.057328,121.500629,0.02331684
C0AI40,石牌,2023-09-23,25.115597,121.513139,0.02091072
C0AJ20,野柳,2023-09-23,25.20703,121.690021,0.021640154
C0AJ30,淡水觀海,2023-09-23,25.184591,121.408616,0.032352168
C0AJ40,石門,2023-09-23,25.273672,121.601198,0.023223983
C0AJ50,水湳洞,2023-09-23,25.123695,121.862238,0.024759991
C0AJ60,六塊厝,2023-09-23,25.24,121.4481,0.024112698
C0AJ70,田寮,2023-09-23,25.2698,121.4886,0.025721446
C0AJ80,板橋,2023-09-23,25.0107,121.4489,0.029433804
C0AJ90,澳底,2023-09-23,25.0552,121.9253,0.45028877
C0B010,七堵,2023-09-23,25.094819,121.71713,0.026618065
C0B020,基隆嶼,2023-09-23,25.19141,121.78391,0.015221329
C0B040,大武崙,2023-09-23,25.166676,121.706993,0.026166923
C0B050,八斗子,2023-09-23,25.144754,121.79167,0.017357389
C0B060,暖暖,2023-09-23,25.0957,121.7403,0.020500196
C0C460,復興,2023-09-23,24.820208,121.352281,0.93248785
C0C480,桃園,2023-09-23,24.992425,121.323172,0.03039244
C0C490,八德,2023-09-23,24.928708,121.283289,0.037405387
C0C590,觀音,2023-09-23,25.027072,121.153317,0.031047164
C0C620,蘆竹,2023-09-23,25.084275,121.265767,0.02652888
C0C630,大溪,2023-09-23,24.882853,121.265547,0.094470896
C0C650,平鎮,2023-09-23,24.897503,121.214636,0.14223488
C0C660,楊梅,2023-09-23,24.912375,121.143047,0.06896058
C0C670,龍潭,2023-09-23,24.870056,121.221389,0.96503776
C0C680,龜山,2023-09-23,25.02846,121.38656,0.178627
C0C700,中壢,2023-09-23,24.977661,121.256375,0.03800434
C0C710,大溪永福,2023-09-23,24.892936,121.324975,0.087784104
C0C720,竹圍,2023-09-23,25.112692,121.239824,0.02654179
C0C730,中大臨海站,2023-09-23,24.966126,121.008581,0.020842997
C0C740,觀音工業區,2023-09-23,25.064764,121.114856,0.02399983
C0C750,新興坑尾,2023-09-23,25.0061,121.0971,0.03666745
C0D430,峨眉,2023-09-23,24.6905,121.017189,0.08130874
C0D480,打鐵坑,2023-09-23,24.849664,121.150789,0.9558158
C0D540,橫山,2023-09-23,24.71116,121.11693,0.97847605
C0D560,竹東,2023-09-23,24.767147,121.057881,0.08749624
C0D580,寶山,2023-09-23,24.735006,121.025192,0.9426671
C0D590,新豐,2023-09-23,24.87068,120.97721,0.8908945
C0D650,湖口,2023-09-23,24.904794,121.043628,0.026874399
C0D660,新竹市東區,2023-09-23,24.798681,120.986942,0.036540054
C0D670,海天一線,2023-09-23,24.831986,120.914438,0.021970462
C0D680,香山濕地,2023-09-23,24.783581,120.914988,0.027250446
C0D690,外湖,2023-09-23,24.917735,120.968711,0.016432177
C0D700,關西,2023-09-23,24.7977,121.1732,0.27600768
C0E420,竹南,2023-09-23,24.708978,120.888897,0.038095593
C0E430,南庄,2023-09-23,24.601775,121.000214,0.97292036
C0E520,大湖,2023-09-23,24.41494,120.87087,0.9637554
C0E540,後龍,2023-09-23,24.606489,120.783933,0.1891547
C0E550,明德,2023-09-23,24.583486,120.885411,0.9580079
C0E590,通霄,2023-09-23,24.471892,120.704622,0.12978101
C0E730,頭份,2023-09-23,24.688247,120.912206,0.0503342
C0E740,造橋,2023-09-23,24.637056,120.864778,0.9493255
C0E750,苗栗,2023-09-23,24.564569,120.824575,0.26884517
C0E780,銅鑼,2023-09-23,24.489681,120.790853,0.949096
C0E791,卓蘭,2023-09-23,24.3126,120.8244,0.98306984
C0E810,西湖,2023-09-23,24.562947,120.7485,0.23832557
C0E820,獅潭,2023-09-23,24.539133,120.920042,0.9772953
C0E830,苑裡,2023-09-23,24.439714,120.653053,0.063450634
C0E850,大河,2023-09-23,24.618069,120.948578,0.9716895
C0E870,高鐵苗栗,2023-09-23,24.60725,120.826094,0.21058601
C0E910,海埔,2023-09-23,24.648767,120.772435,0.8665743
C0E920,通霄漁港,2023-09-23,24.498589,120.673876,0.10129063
C0E930,龍鳳,2023-09-23,24.700034,120.859125,0.9316206
C0F0B0,石岡,2023-09-23,24.276061,120.777644,0.9894056
C0F850,東勢,2023-09-23,24.246428,120.833047,0.986286
C0F930,大甲,2023-09-23,24.347667,120.640403,0.15991004
C0F970,大坑,2023-09-23,24.173142,120.722289,0.48431033
C0F9A0,中竹林,2023-09-23,24.103556,120.751061,0.9840852
C0F9I0,神岡,2023-09-23,24.272481,120.658314,0.92902154
C0F9K0,大安,2023-09-23,24.345061,120.588025,0.07365901
C0F9L0,后里,2023-09-23,24.310436,120.729725,0.958392
C0F9M0,豐原,2023-09-23,24.254322,120.720692,0.96308553
C0F9N0,大里,2023-09-23,24.092464,120.701378,0.26169717
C0F9O0,潭子,2023-09-23,24.213106,120.703933,0.92528546
C0F9P0,清水,2023-09-23,24.312297,120.562242,0.06535326
C0F9Q0,外埔,2023-09-23,24.347817,120.705686,0.9038646
C0F9R0,龍井,2023-09-23,24.184536,120.528972,0.071249574
C0F9S0,烏日,2023-09-23,24.107058,120.624103,0.52470255
C0F9T0,西屯,2023-09-23,24.179494,120.641275,0.35918367
C0F9U0,南屯,2023-09-23,24.137006,120.637969,0.32740715
C0F9X0,大雅(中科園區),2023-09-23,24.21528,120.62445,0.4512884
C0FA10,松柏,2023-09-23,24.429115,120.617482,0.06463267
C0FA20,溫寮,2023-09-23,24.372177,120.583125,0.076326914
C0FA30,梧棲,2023-09-23,24.256003,120.523381,0.050566338
C0FA40,臺中電廠,2023-09-23,24.2146,120.4907,0.06089391
C0FA50,霧峰,2023-09-23,24.0419,120.6995,0.17721204
C0G620,芬園,2023-09-23,24.015678,120.6213,0.27930152
C0G640,鹿港,2023-09-23,24.0753,120.430481,0.32233295
C0G650,員林,2023-09-23,23.946503,120.585597,0.2051394
C0G660,溪湖,2023-09-23,23.94835,120.479122,0.16877438
C0G720,溪州,2023-09-23,23.851589,120.499093,0.8399854
C0G730,二林,2023-09-23,23.903325,120.376081,0.16134727
C0G740,大城,2023-09-23,23.852487,120.320935,0.55133814
C0G770,福興,2023-09-23,24.041289,120.437669,0.16496342
C0G780,秀水,2023-09-23,24.03405,120.503869,0.19500129
C0G800,埔鹽,2023-09-23,24.000394,120.431683,0.17591399
C0G810,埔心,2023-09-23,23.947633,120.525456,0.17138252
C0G820,田尾,2023-09-23,23.901669,120.509389,0.15299913
C0G830,埤頭,2023-09-23,23.866003,120.452806,0.83812016
C0G840,北斗,2023-09-23,23.877586,120.514222,0.15299948
C0G860,社頭,2023-09-23,23.897647,120.5862,0.18782566
C0G870,芳苑,2023-09-23,23.922303,120.320025,0.3916787
C0G880,二水,2023-09-23,23.810742,120.6173,0.92923915
C0G890,伸港,2023-09-23,24.148933,120.484403,0.11718776
C0G900,線西,2023-09-23,24.143358,120.443536,0.16331252
C0G910,花壇,2023-09-23,24.032076,120.549461,0.45507583
C0G920,永靖,2023-09-23,23.924703,120.547533,0.1994996
C0G940,竹塘,2023-09-23,23.848253,120.386764,0.830114
C0G950,防潮門,2023-09-23,24.1835,120.4871,0.070624344
C0G960,福寶,2023-09-23,24.0443,120.3814,0.21294251
C0G970,三豐,2023-09-23,23.882,120.2895,0.41143698
C0H890,埔里,2023-09-23,23.972169,120.952425,0.9861781
C0H950,中寮,2023-09-23,23.884447,120.766406,0.96727043
C0H960,草屯,2023-09-23,23.973672,120.68085,0.9284105
C0I110,竹山,2023-09-23,23.761225,120.688156,0.9740645
C0I360,水里,2023-09-23,23.812553,120.849792,0.99759674
C0I380,集集,2023-09-23,23.828206,120.801467,0.9972158
C0I410,名間,2023-09-23,23.837053,120.701447,0.95561826
C0I420,國姓,2023-09-23,24.037803,120.855072,0.9935414
C0I460,南投,2023-09-23,23.911469,120.687331,0.9579934
C0K250,崙背,2023-09-23,23.75555,120.318925,0.6858328
C0K280,四湖,2023-09-23,23.630414,120.227125,0.33128965
C0K291,宜梧,2023-09-23,23.536281,120.169329,0.94398266
C0K330,虎尾,2023-09-23,23.719183,120.442036,0.89125985
C0K390,土庫,2023-09-23,23.679029,120.395574,0.8917168
C0K400,斗六,2023-09-23,23.720583,120.541127,0.81470865
C0K410,北港,2023-09-23,23.573957,120.292802,0.7550174
C0K420,西螺,2023-09-23,23.800407,120.467394,0.8893398
C0K430,褒忠,2023-09-23,23.690938,120.303634,0.65280473
C0K440,二崙,2023-09-23,23.772797,120.408944,0.89219433
C0K450,大埤,2023-09-23,23.646074,120.431537,0.8020063
C0K460,斗南,2023-09-23,23.678734,120.478359,0.83508974
C0K470,林內,2023-09-23,23.748675,120.609642,0.9257637
C0K480,莿桐,2023-09-23,23.761192,120.502372,0.893363
C0K500,元長,2023-09-23,23.64981,120.315024,0.38416138
C0K510,水林,2023-09-23,23.572924,120.24597,0.8418432
C0K530,臺西,2023-09-23,23.701547,120.197559,0.26898876
C0K550,蔦松,2023-09-23,23.514319,120.229736,0.9053198
C0K560,棋山,2023-09-23,23.68645,120.603417,0.95420945
C0K580,高鐵雲林,2023-09-23,23.737456,120.417944,0.88626504
C0K590,雲林東勢,2023-09-23,23.674192,120.255721,0.31244656
C0K600,箔子寮,2023-09-23,23.6197,120.14,0.9435055
C0M410,馬頭山,2023-09-23,23.324361,120.582017,0.9978356
C0M520,東後寮,2023-09-23,23.369908,120.248065,0.98794115
C0M640,中埔,2023-09-23,23.42538,120.5229,0.8986883
C0M650,朴子,2023-09-23,23.43463,120.23902,0.95452285
C0M660,溪口,2023-09-23,23.604131,120.403569,0.24464774
C0M670,大林,2023-09-23,23.600616,120.45841,0.2003323
C0M680,太保,2023-09-23,23.455062,120.331455,0.8818235
C0M690,水上,2023-09-23,23.419734,120.388909,0.16891651
C0M700,竹崎,2023-09-23,23.526178,120.555508,0.979158
C0M710,東石,2023-09-23,23.458927,120.15385,0.93012744
C0M720,番路,2023-09-23,23.464657,120.554156,0.9655356
C0M730,嘉義市東區,2023-09-23,23.457673,120.460531,0.12318451
C0M740,六腳,2023-09-23,23.492871,120.290625,0.7730998
C0M750,布袋,2023-09-23,23.380878,120.167789,0.8675652
C0M760,民雄,2023-09-23,23.551754,120.428457,0.1513558
C0M770,嘉義梅山,2023-09-23,23.585398,120.555587,0.9762106
C0M780,鹿草,2023-09-23,23.41134,120.30835,0.9300884
C0M790,新港,2023-09-23,23.553269,120.345728,0.72170275
C0M800,茶山,2023-09-23,23.299075,120.664767,0.99836946
C0M880,好美里,2023-09-23,23.3364,120.138,0.98526937
C0N010,鯤鯓國小,2023-09-23,23.1879,120.0889,0.9768473
C0N020,城西,2023-09-23,23.0568,120.0956,0.99386364
C0N030,四草,2023-09-23,23.0235,120.1116,0.9945078
C0N040,蘆竹溝,2023-09-23,23.2344,120.0961,0.7613505
C0N050,蚵寮,2023-09-23,23.301,120.1104,0.76160485
C0O810,曾文,2023-09-23,23.219681,120.497328,0.9190706
C0O830,北寮,2023-09-23,23.079561,120.495008,0.99529433
C0O840,王爺宮,2023-09-23,23.222064,120.40085,0.93305105
C0O860,大內,2023-09-23,23.11885,120.36083,0.99427015
C0O900,善化,2023-09-23,23.112883,120.297219,0.9947366
C0O930,玉井,2023-09-23,23.126042,120.46055,0.8510341
C0O950,安南,2023-09-23,23.076694,120.144861,0.9935748
C0O960,崎頂,2023-09-23,22.959547,120.369317,0.9982445
C0O970,虎頭埤,2023-09-23,23.021375,120.347878,0.9866242
C0O980,新市,2023-09-23,23.061614,120.298197,0.9952202
C0O990,媽廟,2023-09-23,22.99175,120.293525,0.99465585
C0R150,三地門,2023-09-23,22.709889,120.639944,0.82217675
C0R160,鹽埔,2023-09-23,22.739558,120.530778,0.9701613
C0R170,屏東,2023-09-23,22.660269,120.494072,0.98699373
C0R190,赤山,2023-09-23,22.592333,120.614306,0.123369366
C0R220,潮州,2023-09-23,22.534361,120.54,0.9890811
C0R240,來義,2023-09-23,22.527306,120.625111,0.9692369
C0R260,春日,2023-09-23,22.370361,120.628306,0.9965525
C0R270,琉球嶼,2023-09-23,22.332244,120.362236,0.9959866
C0R280,檳榔,2023-09-23,22.076078,120.836777,0.9900676
C0R320,車城,2023-09-23,22.0744,120.716247,0.96112794
C0R341,牡丹,2023-09-23,22.130036,120.792639,0.9958214
C0R350,貓鼻頭,2023-09-23,21.921774,120.7358,0.9690875
C0R470,高樹,2023-09-23,22.826389,120.600806,0.8571199
C0R480,長治,2023-09-23,22.693128,120.542622,0.86388856
C0R490,九如,2023-09-23,22.7405,120.490503,0.9754741
C0R520,崁頂,2023-09-23,22.514781,120.506914,0.98961776
C0R540,佳冬,2023-09-23,22.419456,120.552375,0.9917098
C0R550,新埤,2023-09-23,22.467947,120.582894,0.99406004
C0R560,新園,2023-09-23,22.5434,120.461558,0.9911085
C0R570,麟洛,2023-09-23,22.65078,120.52719,0.9870822
C0R580,南州,2023-09-23,22.48591,120.50274,0.98952144
C0R590,里港,2023-09-23,22.77919,120.49459,0.96601665
C0R620,墾雷,2023-09-23,21.900836,120.855269,0.97075665
C0R640,東港,2023-09-23,22.46247,120.44074,0.9918643
C0R650,竹田,2023-09-23,22.58486,120.54344,0.94671357
C0R660,枋寮,2023-09-23,22.367722,120.590647,0.99426687
C0R670,楓港,2023-09-23,22.190131,120.692156,0.99302346
C0R680,佳樂水,2023-09-23,21.993578,120.861633,0.96435124
C0R690,墾丁,2023-09-23,21.966756,120.810269,0.9937648
C0R700,枋山,2023-09-23,22.246844,120.661086,0.9861404
C0R710,龍磐,2023-09-23,21.931672,120.838942,0.9844304
C0R720,旭海,2023-09-23,22.205403,120.887614,0.9982108
C0R730,大坪頂,2023-09-23,22.024633,120.69355,0.9882341
C0R740,獅子,2023-09-23,22.201569,120.70525,0.99381775
C0R760,南仁湖,2023-09-23,22.084681,120.863353,0.99591947
C0R770,保力,2023-09-23,22.071122,120.764111,0.9783157
C0R780,滿州,2023-09-23,22.024403,120.839892,0.9711799
C0R790,九棚,2023-09-23,22.14195,120.889281,0.99816966
C0R800,丹路,2023-09-23,22.204481,120.750989,0.99248666
C0R810,內獅,2023-09-23,22.305064,120.642986,0.9868429
C0R830,高士,2023-09-23,22.121825,120.836781,0.9967896
C0R850,林邊,2023-09-23,22.4634,120.5339,0.9901885
C0R860,鼻頭,2023-09-23,22.1043,120.8979,0.97816503
C0R870,興海,2023-09-23,21.9752,120.8439,0.96435124
C0R880,後壁湖,2023-09-23,21.9457,120.7457,0.9583781
C0R890,山海,2023-09-23,21.9878,120.7091,0.95894
C0R900,竹坑,2023-09-23,22.1385,120.7022,0.9902538
C0R910,下寮,2023-09-23,22.3929,120.5548,0.9915873
C0R920,塭仔,2023-09-23,22.4169,120.5197,0.99092716
C0R930,萬丹,2023-09-23,22.5885,120.4851,0.99043846
C0R940,加祿堂,2023-09-23,22.3363,120.6217,0.99607545
C0S710,鹿野,2023-09-23,22.917711,121.122994,0.9997689
C0S730,綠島,2023-09-23,22.6672,121.47533,0.9996679
C0S740,池上,2023-09-23,23.119628,121.209469,0.99978304
C0S770,大溪山,2023-09-23,22.478475,120.943325,0.99887913
C0S790,金崙,2023-09-23,22.538122,120.966875,0.99889493
C0S810,東河,2023-09-23,22.972672,121.303986,0.99962246
C0S830,長濱,2023-09-23,23.286817,121.411975,0.999693
C0S840,南田,2023-09-23,22.279725,120.889208,0.9977056
C0S890,關山,2023-09-23,23.0395,121.175017,0.99986625
C0S900,蘭嶼高中,2023-09-23,22.04909,121.51214,0.99545085
C0S910,蘭嶼燈塔,2023-09-23,22.081197,121.503117,0.99724495
C0S920,金峰嘉蘭,2023-09-23,22.594789,120.960825,0.99891084
C0S930,延平,2023-09-23,22.902581,121.084058,0.9998848
C0S940,石寧山,2023-09-23,23.223772,121.406639,0.9997574
C0S950,七塊厝,2023-09-23,22.954453,121.229922,0.99988645
C0S960,香蘭,2023-09-23,22.587569,120.993375,0.9963413
C0S970,加津林,2023-09-23,22.416211,120.926942,0.99716467
C0S990,山豬窟,2023-09-23,22.318619,120.857372,0.9980392
C0SA00,歷坵,2023-09-23,22.520969,120.89185,0.9992036
C0SA10,檳榔四格山,2023-09-23,22.810031,121.109308,0.99707794
C0SA30,都歷,2023-09-23,23.020333,121.323642,0.99973404
C0SA40,瑞和,2023-09-23,22.974361,121.156697,0.99974966
C0SA60,知本（水試所）,2023-09-23,22.702394,121.082761,0.99444073
C0SA80,土坂,2023-09-23,22.453108,120.887572,0.99892336
C0SA90,達仁林場,2023-09-23,22.264347,120.823972,0.9991678
C0T870,鯉魚潭,2023-09-23,23.935639,121.508944,0.99970376
C0T900,西林,2023-09-23,23.8119,121.441458,0.99960476
C0T960,光復,2023-09-23,23.660694,121.424964,0.99917907
C0T9A0,月眉山,2023-09-23,23.809928,121.539828,0.99942565
C0T9D0,和中,2023-09-23,24.26676,121.74103,0.9997279
C0T9E0,大坑,2023-09-23,23.880628,121.581981,0.9993864
C0T9F0,水璉,2023-09-23,23.797131,121.542514,0.9992889
C0T9I0,豐濱,2023-09-23,23.583897,121.514806,0.9993525
C0T9M0,靜浦,2023-09-23,23.455167,121.495028,0.9990856
C0T9N0,富里,2023-09-23,23.171639,121.249378,0.9997481
C0U600,礁溪,2023-09-23,24.817539,121.765608,0.423592
C0U650,玉蘭,2023-09-23,24.675286,121.587061,0.99989665
C0U750,龜山島,2023-09-23,24.841667,121.953133,0.99379474
C0U760,東澳,2023-09-23,24.52196,121.83318,0.9991654
C0U770,南澳,2023-09-23,24.44935,121.81022,0.9986426
C0U780,五結,2023-09-23,24.68637,121.79794,0.51960164
C0U860,頭城,2023-09-23,24.85323,121.8308,0.38000157
C0U870,大礁溪,2023-09-23,24.791042,121.675047,0.9994253
C0U880,北關,2023-09-23,24.9072,121.8734,0.012495601
C0U890,三星,2023-09-23,24.66812,121.65302,0.97608566
C0U900,內城,2023-09-23,24.71813,121.68766,0.8529762
C0U910,冬山,2023-09-23,24.63373,121.7937,0.6728205
C0U940,羅東,2023-09-23,24.68184,121.74934,0.61822456
C0U970,大福,2023-09-23,24.80064,121.81389,0.22988799
C0U990,員山,2023-09-23,24.74435,121.72247,0.35123584
C0UA00,土場,2023-09-23,24.576533,121.495333,0.9993049
C0UA80,大溪漁港,2023-09-23,24.941801,121.902955,0.79444575
C0UA90,石城,2023-09-23,24.980444,121.951214,0.51246876
C0UB00,淡江大學蘭陽校園,2023-09-23,24.823239,121.730383,0.998462
C0UB10,蘇澳,2023-09-23,24.5969,121.8571,0.99755114
C0UB20,壯圍,2023-09-23,24.7359,121.8163,0.2979421
C0V250,甲仙,2023-09-23,23.080106,120.591758,0.9987683
C0V260,月眉,2023-09-23,22.971003,120.539853,0.995942
C0V310,美濃,2023-09-23,22.898742,120.519153,0.9343015
C0V350,溪埔,2023-09-23,22.738578,120.446797,0.97974294
C0V360,內門,2023-09-23,22.975481,120.466769,0.9761753
C0V370,古亭坑,2023-09-23,22.893178,120.401947,0.98389465
C0V400,阿公店,2023-09-23,22.804194,120.355528,0.98391354
C0V440,鳳山,2023-09-23,22.646653,120.356122,0.9861881
C0V450,鳳森,2023-09-23,22.545064,120.392592,0.99592936
C0V490,新興,2023-09-23,22.627422,120.298803,0.99216616
C0V530,阿蓮,2023-09-23,22.883208,120.327508,0.99281627
C0V610,梓官,2023-09-23,22.760558,120.267211,0.99153394
C0V620,永安,2023-09-23,22.82315,120.236856,0.9888308
C0V630,茄萣,2023-09-23,22.906642,120.182608,0.99420947
C0V640,湖內,2023-09-23,22.887139,120.2445,0.9922461
C0V650,彌陀,2023-09-23,22.783806,120.246361,0.9886063
C0V660,岡山,2023-09-23,22.797078,120.294958,0.98259294
C0V680,仁武,2023-09-23,22.701083,120.347722,0.9820192
C0V690,鼓山,2023-09-23,22.623325,120.275575,0.99429816
C0V700,三民,2023-09-23,22.645017,120.311233,0.9922144
C0V710,苓雅,2023-09-23,22.622742,120.330669,0.9941827
C0V720,林園,2023-09-23,22.507747,120.394511,0.99361587
C0V730,大寮,2023-09-23,22.605614,120.395717,0.9947953
C0V740,旗山,2023-09-23,22.888614,120.483597,0.9354779
C0V750,路竹,2023-09-23,22.854997,120.259439,0.9870119
C0V760,橋頭,2023-09-23,22.757806,120.30575,0.98196185
C0V770,大社,2023-09-23,22.730306,120.346639,0.98036474
C0V790,萬山,2023-09-23,22.905944,120.688056,0.99579024
C0V800,六龜,2023-09-23,22.997889,120.633583,0.9960869
C0V810,左營,2023-09-23,22.67491,120.28491,0.9921301
C0V820,小林,2023-09-23,23.148408,120.63325,0.9986212
C0V840,鳳鼻頭,2023-09-23,22.5083,120.3591,0.99310577
C0V850,蚵仔寮,2023-09-23,22.7256,120.2527,0.9919216
C0V860,南寮,2023-09-23,22.7616,120.2339,0.9913188
C0V870,文安,2023-09-23,22.8025,120.2164,0.99387324
C0V880,興達,2023-09-23,22.8778,120.2127,0.9936078
C0V890,前鎮,2023-09-23,22.5718,120.3117,0.9940975
C0V900,汕尾,2023-09-23,22.4782,120.4151,0.9915601
C0X050,東河,2023-09-23,23.296598,120.385608,0.9290263
C0X060,下營,2023-09-23,23.22695,120.256261,0.9717547
C0X080,佳里,2023-09-23,23.173039,120.145086,0.9903782
C0X100,臺南市北區,2023-09-23,23.010394,120.194228,0.99428916
C0X110,臺南市南區,2023-09-23,22.961189,120.188378,0.9940406
C0X120,麻豆,2023-09-23,23.183289,120.248611,0.9735584
C0X130,官田,2023-09-23,23.193217,120.315422,0.98661554
C0X140,西港,2023-09-23,23.125608,120.203108,0.9779013
C0X150,安定,2023-09-23,23.102614,120.227839,0.9950796
C0X160,仁德,2023-09-23,22.968258,120.257689,0.9936445
C0X170,關廟,2023-09-23,22.963017,120.327797,0.99393624
C0X180,山上,2023-09-23,23.0757,120.363253,0.9846806
C0X190,安平,2023-09-23,22.993161,120.152181,0.995211
C0X200,左鎮,2023-09-23,23.056758,120.408522,0.98215884
C0X210,白河,2023-09-23,23.347466,120.414427,0.56114954
C0X220,學甲,2023-09-23,23.230367,120.182187,0.96525025
C0X230,鹽水,2023-09-23,23.272621,120.247641,0.97230095
C0X240,關子嶺,2023-09-23,23.331169,120.508025,0.9983426
C0X250,新營,2023-09-23,23.310689,120.316681,0.9888625
C0X260,後壁,2023-09-23,23.366358,120.362326,0.9760046
C0X280,將軍,2023-09-23,23.214999,120.13577,0.98539674
C0X290,北門,2023-09-23,23.267772,120.125481,0.9798024
C0X300,鹿寮,2023-09-23,23.386047,120.477331,0.9112456
C0X310,七股,2023-09-23,23.147289,120.086253,0.98077095
C0X320,柳營,2023-09-23,23.253328,120.375253,0.93741894
C0Z020,明里,2023-09-23,23.208717,121.262342,0.99973077
C0Z061,玉里,2023-09-23,23.3215,121.339656,0.99974984
C0Z070,舞鶴,2023-09-23,23.46811,121.37407,0.9994108
C0Z080,富源,2023-09-23,23.587642,121.378225,0.99963844
C0Z100,東華,2023-09-23,23.89525,121.549833,0.9989397
C0Z150,吉安光華,2023-09-23,23.930925,121.595153,0.9986392
C0Z160,鳳林,2023-09-23,23.746114,121.453411,0.99937606
C0Z170,卓溪,2023-09-23,23.3443,121.3029,0.9997191
C0Z180,新城,2023-09-23,24.03946,121.60454,0.998661
C0Z190,富世,2023-09-23,24.14743,121.6297,0.99978864
C0Z200,萬榮,2023-09-23,23.709219,121.420106,0.99908113
C0Z210,瑞穗,2023-09-23,23.5239,121.39021,0.9992711
C0Z230,和平,2023-09-23,24.30717,121.77007,0.9997997
C0Z270,蕃薯寮,2023-09-23,23.73835,121.540108,0.9992705
C0Z280,德武,2023-09-23,23.47426,121.41071,0.99943113
C0Z300,東里,2023-09-23,23.26853,121.30547,0.9997164
C0Z310,清水斷崖,2023-09-23,24.218294,121.689142,0.9997275
C0Z330,安通山,2023-09-23,23.290728,121.348528,0.9997801
CAG100,王功漁港,2023-09-23,23.96824,120.32586,0.28152573
CAJ050,海口故事園區,2023-09-23,23.57543,120.14121,0.944032
CAL110,布袋國中,2023-09-23,23.35893,120.18026,0.9828109
CAN130,水試所海水繁養殖中心,2023-09-23,23.120802,120.07968,0.9938796
CAN140,六官養殖協會,2023-09-23,23.22881,120.29962,0.98607963
CAQ030,崎峰國小,2023-09-23,22.42565,120.49521,0.99076337
E2K600,四湖植物園,2023-09-23,23.676986,120.163433,0.23659745
E2P980,林試六龜中心,2023-09-23,22.991703,120.645722,0.99611956
E2S960,林試太麻里2,2023-09-23,22.598014,120.989761,0.99636847
E2S980,林試太麻里1,2023-09-23,22.598922,120.980044,0.9967002
G2F820,農業試驗所,2023-09-23,24.031261,120.688133,0.18825364
G2L020,農試嘉義分所,2023-09-23,23.485028,120.473806,0.8687933
G2M350,農試溪口農場,2023-09-23,23.58565,120.408111,0.16044542
G2P820,農試鳳山分所,2023-09-23,22.646611,120.356083,0.9861881
K2E360,苗栗農改,2023-09-23,24.495722,120.829111,0.952782
K2E710,苗改生物防治研究中心,2023-09-23,24.422861,120.871833,0.9706009
K2F750,種苗繁殖,2023-09-23,24.225972,120.800917,0.98489183
U2HA50,臺大竹山,2023-09-23,23.756972,120.681556,0.9841578
V2K620,麥寮合作社,2023-09-23,23.753836,120.294783,0.7083237
