站號,站名,日期,lat,lon,BLBTSLS
C0R710,龍磐,2023-06-03,21.931672,120.838942,0.0013924364
C1F9D1,白毛台,2023-06-03,24.158325,120.886933,2.259452e-08
C0G940,竹塘,2023-06-03,23.848253,120.386764,0.033252906
467590,恆春,2023-06-03,22.003897,120.746339,0.5723341
C1O850,環湖,2023-06-03,23.148617,120.418633,0.01964263
C0U710,太平山,2023-06-03,24.505486,121.525656,2.5628537e-09
C0E820,獅潭,2023-06-03,24.539133,120.920042,2.605895e-06
C0V880,興達,2023-06-03,22.8778,120.2127,0.0013097884
C0S890,關山,2023-06-03,23.0395,121.175017,6.509515e-07
K2F750,種苗繁殖,2023-06-03,24.225972,120.800917,1.2114077e-07
C1Z130,銅門,2023-06-03,23.965694,121.492842,1.5419553e-07
C0AD40,土城,2023-06-03,24.973208,121.445169,0.88185084
CAN140,六官養殖協會,2023-06-03,23.22881,120.29962,0.11938165
C0X180,山上,2023-06-03,23.0757,120.363253,0.0053124675
C0F9Z0,雪山東峰,2023-06-03,24.388792,121.268675,5.6781575e-09
C1M480,獨立山,2023-06-03,23.537022,120.607797,3.0858598e-09
C0X220,學甲,2023-06-03,23.230367,120.182187,0.0032840925
C0R170,屏東,2023-06-03,22.660269,120.494072,0.02126973
467650,日月潭,2023-06-03,23.881325,120.90805,1.0409663e-08
C0K600,箔子寮,2023-06-03,23.6197,120.14,0.01038094
C0G830,埤頭,2023-06-03,23.866003,120.452806,0.005626982
C0S950,七塊厝,2023-06-03,22.954453,121.229922,1.4578495e-08
467110,金門,2023-06-03,24.407306,118.289281,0.9996801
C0AH80,深坑,2023-06-03,25.002703,121.628328,0.8881861
467990,馬祖,2023-06-03,26.169269,119.923419,0.9895897
C0A970,三貂角,2023-06-03,25.007606,122.002058,0.99814373
C0K430,褒忠,2023-06-03,23.690938,120.303634,0.0014543765
467480,嘉義,2023-06-03,23.495925,120.432906,0.83708376
C2E540,後龍,2023-06-03,24.606489,120.783933,0.037706006
C0V400,阿公店,2023-06-03,22.804194,120.355528,0.17567706
C0R440,大漢山,2023-06-03,22.405264,120.753181,8.131243e-09
C0K280,四湖,2023-06-03,23.630414,120.227125,0.029504815
C1F9B1,桐林,2023-06-03,24.066172,120.735194,0.0029274502
C0K390,土庫,2023-06-03,23.679029,120.395574,0.0018666845
C1I450,望鄉山,2023-06-03,23.594153,120.944286,4.544879e-09
C0E910,海埔,2023-06-03,24.648767,120.772435,0.042793512
B2E890,畜試北區分所,2023-06-03,24.527806,120.770972,0.006220933
C0R750,四林格山,2023-06-03,22.076989,120.802439,0.024452709
C0F0C0,中坑,2023-06-03,24.248517,120.903319,2.4891393e-09
C1I121,大鞍,2023-06-03,23.678381,120.760017,4.214927e-09
72U480,花改蘭陽分場,2023-06-03,24.686306,121.716583,0.0409276
C0A770,科教館,2023-06-03,25.096356,121.516507,0.96355003
C0AJ60,六塊厝,2023-06-03,25.24,121.4481,0.99963707
C0R620,墾雷,2023-06-03,21.900836,120.855269,0.02633793
467420,永康,2023-06-03,23.038386,120.2367,0.057328712
467300,東吉島,2023-06-03,23.25695,119.667467,0.0017643394
C0I410,名間,2023-06-03,23.837053,120.701447,0.00011363548
A2C560,農工中心,2023-06-03,24.985917,121.239833,0.8728679
C0V740,旗山,2023-06-03,22.888614,120.483597,0.7850989
C0Z061,玉里,2023-06-03,23.3215,121.339656,0.058061976
C0S840,南田,2023-06-03,22.279725,120.889208,0.47182366
C1I470,杉林溪,2023-06-03,23.639517,120.786444,4.2059165e-09
C1X040,東原,2023-06-03,23.291597,120.463822,0.05667186
C0R660,枋寮,2023-06-03,22.367722,120.590647,0.052711334
C1R120,上德文,2023-06-03,22.763272,120.704442,3.2555771e-09
C0K450,大埤,2023-06-03,23.646074,120.431537,0.0024663578
C0UA00,土場,2023-06-03,24.576533,121.495333,2.3168262e-08
467080,宜蘭,2023-06-03,24.763975,121.756528,0.5565922
C0N030,四草,2023-06-03,23.0235,120.1116,0.019363308
C0V650,彌陀,2023-06-03,22.783806,120.246361,0.004278176
C0D660,新竹市東區,2023-06-03,24.798681,120.986942,0.004986309
82S580,茶改東部分場,2023-06-03,22.907694,121.130139,0.00010082864
C0C710,大溪永福,2023-06-03,24.892936,121.324975,0.00091185805
C0FA20,溫寮,2023-06-03,24.372177,120.583125,0.30521232
C0V640,湖內,2023-06-03,22.887139,120.2445,0.001215
C0R910,下寮,2023-06-03,22.3929,120.5548,0.052711334
C0Z020,明里,2023-06-03,23.208717,121.262342,0.87136155
C0M770,嘉義梅山,2023-06-03,23.585398,120.555587,0.0005154988
G2F820,農業試驗所,2023-06-03,24.031261,120.688133,0.27293056
C0C660,楊梅,2023-06-03,24.912375,121.143047,0.88478446
C1E511,新開,2023-06-03,24.347703,120.827019,8.983215e-06
G2F820,農試所(霧峰),2023-06-03,24.031261,120.688133,0.27293056
C1I070,和社,2023-06-03,23.591131,120.888861,2.2984091e-07
C2F000,大肚,2023-06-03,24.15295,120.572117,1.1289425e-06
C1S850,豐南,2023-06-03,23.122139,121.262389,4.3755488e-08
C2A920,富貴角,2023-06-03,25.263783,121.565258,0.99944186
CAH030,茶改場竹圍站,2023-06-03,23.860083,120.637528,6.84093e-08
C0T960,光復,2023-06-03,23.660694,121.424964,0.00016655048
C0F9M0,豐原,2023-06-03,24.254322,120.720692,6.1563194e-05
C0R720,旭海,2023-06-03,22.205403,120.887614,0.728327
C0V710,苓雅,2023-06-03,22.622742,120.330669,2.3677607e-05
C0C740,觀音工業區,2023-06-03,25.064764,121.114856,0.9933691
CAC040,拉拉山,2023-06-03,24.699317,121.427133,1.3502488e-08
C0V790,萬山,2023-06-03,22.905944,120.688056,0.00013173211
U2HA30,臺大和社,2023-06-03,23.590856,120.888864,2.2984091e-07
C0AJ90,澳底,2023-06-03,25.0552,121.9253,0.9993645
C0Z100,東華,2023-06-03,23.89525,121.549833,4.915384e-07
C0G970,三豐,2023-06-03,23.882,120.2895,0.035804942
V2K610,大庄合作社,2023-06-03,23.8068,120.367939,0.03557206
C0V900,汕尾,2023-06-03,22.4782,120.4151,0.0011469285
C1R630,龍泉,2023-06-03,22.66701,120.59091,0.00050932594
C1AC50,關渡,2023-06-03,25.133486,121.469331,0.9525544
C0F9I0,神岡,2023-06-03,24.272481,120.658314,0.000883598
C0K460,斗南,2023-06-03,23.678734,120.478359,0.0017012575
467410,臺南,2023-06-03,22.993239,120.204772,0.014216671
C2O810,曾文,2023-06-03,23.219681,120.497328,0.01600781
467280,後龍,2023-06-03,24.648563,120.831834,0.031056277
C1F9J1,清水林,2023-06-03,24.071242,120.820419,2.821522e-09
C2A650,火燒寮,2023-06-03,25.002719,121.742892,0.9969497
466930,竹子湖,2023-06-03,25.162078,121.544547,0.6845078
C1I220,樟湖,2023-06-03,23.905333,120.846983,2.5132356e-09
C0I390,仁愛,2023-06-03,24.022122,121.132206,2.2830084e-09
C0Z300,東里,2023-06-03,23.26853,121.30547,0.9635949
C0V310,美濃,2023-06-03,22.898742,120.519153,0.770295
C1V590,新發,2023-06-03,23.057019,120.646064,7.458962e-08
C0K510,水林,2023-06-03,23.572924,120.24597,0.01482655
72S590,東改賓朗果園,2023-06-03,22.813889,121.071278,9.226383e-06
82A750,茶改北部分場,2023-06-03,24.955778,121.631222,0.9793056
C1A750,石碇服務區,2023-06-03,25.00872,121.646242,0.99630326
C0X300,鹿寮,2023-06-03,23.386047,120.477331,0.3325974
G2AI50,關渡,2023-06-03,25.11575,121.492,0.9971217
C0K590,雲林東勢,2023-06-03,23.674192,120.255721,0.00038565145
C0A570,桶後,2023-06-03,24.848222,121.597992,0.79703623
C1S800,華源,2023-06-03,22.657883,121.02325,0.8964264
C0G720,溪州,2023-06-03,23.851589,120.499093,0.004435538
C1V160,達卡努瓦,2023-06-03,23.279811,120.705319,3.8731645e-09
C2M410,馬頭山,2023-06-03,23.324361,120.582017,0.00074176985
C0V850,蚵仔寮,2023-06-03,22.7256,120.2527,0.0366241
C0S740,池上,2023-06-03,23.119628,121.209469,0.8856565
C1V390,尖山,2023-06-03,22.813153,120.367789,0.10760616
C0AH70,松山,2023-06-03,25.04871,121.55042,0.9584234
C0N010,鯤鯓國小,2023-06-03,23.1879,120.0889,0.01708174
C0R550,新埤,2023-06-03,22.467947,120.582894,0.0011231867
C0SA60,知本（水試所）,2023-06-03,22.702394,121.082761,0.9561496
C0T9I0,豐濱,2023-06-03,23.583897,121.514806,2.862535e-05
C0UB00,淡江大學蘭陽校園,2023-06-03,24.823239,121.730383,0.75375384
C0T9N0,富里,2023-06-03,23.171639,121.249378,0.8594723
U2HA50,臺大竹山,2023-06-03,23.756972,120.681556,0.0004195647
C0V840,鳳鼻頭,2023-06-03,22.5083,120.3591,0.00010911926
C0X140,西港,2023-06-03,23.125608,120.203108,0.045834307
72D080,桃改五峰分場,2023-06-03,24.612194,121.157167,6.921457e-10
C0V530,阿蓮,2023-06-03,22.883208,120.327508,0.0056984974
C1O880,關山,2023-06-03,23.173397,120.594092,4.0612544e-05
C0E791,卓蘭,2023-06-03,24.3126,120.8244,4.261369e-07
C1I030,武界,2023-06-03,23.913225,121.052483,4.1482195e-09
C0R520,崁頂,2023-06-03,22.514781,120.506914,0.00037095658
C0R341,牡丹,2023-06-03,22.130036,120.792639,0.74380124
C0R930,萬丹,2023-06-03,22.5885,120.4851,7.427508e-05
C0S760,紅石,2023-06-03,23.069131,121.126219,3.8796117e-09
C1M610,石磐龍,2023-06-03,23.496606,120.663506,3.845824e-09
C0UA10,鴛鴦湖,2023-06-03,24.590269,121.412228,1.6829353e-09
V2C260,八德蔬果,2023-06-03,24.978508,121.281819,0.8061327
C0R800,丹路,2023-06-03,22.204481,120.750989,0.6784475
C0G920,永靖,2023-06-03,23.924703,120.547533,0.02546506
C1A630,下盆,2023-06-03,24.771003,121.538622,1.6216985e-05
B2N890,畜產試驗所,2023-06-03,23.058972,120.336406,0.19587873
C0UA30,白嶺,2023-06-03,24.527819,121.519031,2.1037516e-09
C1V580,溪南(特生中心),2023-06-03,23.084972,120.788475,3.482839e-09
C1T970,大農,2023-06-03,23.615233,121.413331,4.8964907e-06
E2S960,林試太麻里2,2023-06-03,22.598014,120.989761,0.974188
C0R650,竹田,2023-06-03,22.58486,120.54344,2.5811765e-05
C1H900,清流,2023-06-03,24.080775,120.962997,2.169679e-09
C1C510,水尾,2023-06-03,24.940081,121.087161,0.14470308
C0F9X0,大雅(中科園區),2023-06-03,24.21528,120.62445,0.0046573402
C0O970,虎頭埤,2023-06-03,23.021375,120.347878,0.005852743
C0C730,中大臨海站,2023-06-03,24.966126,121.008581,0.55419874
C0X250,新營,2023-06-03,23.310689,120.316681,0.13206747
C0V700,三民,2023-06-03,22.645017,120.311233,0.0001622799
C0U870,大礁溪,2023-06-03,24.791042,121.675047,0.00024217305
C0E870,高鐵苗栗,2023-06-03,24.60725,120.826094,0.039764397
A2K570,古坑花卉中心,2023-06-03,23.63353,120.55239,0.0061629787
C0M860,新美,2023-06-03,23.338017,120.683169,9.3312714e-08
C1E701,八卦,2023-06-03,24.491756,120.927619,2.4605857e-09
C0I420,國姓,2023-06-03,24.037803,120.855072,4.474014e-07
C0S960,香蘭,2023-06-03,22.587569,120.993375,0.974188
C0R260,春日,2023-06-03,22.370361,120.628306,0.05626689
72G600,臺中農改場,2023-06-03,24.003028,120.534389,0.12451614
C0Z210,瑞穗,2023-06-03,23.5239,121.39021,0.00017243734
C0M820,達邦,2023-06-03,23.453994,120.749517,4.0375756e-09
C0V860,南寮,2023-06-03,22.7616,120.2339,0.0366241
C0G740,大城,2023-06-03,23.852487,120.320935,0.037961822
C0R920,塭仔,2023-06-03,22.4169,120.5197,0.048383616
C0R470,高樹,2023-06-03,22.826389,120.600806,0.014048427
C0R680,佳樂水,2023-06-03,21.993578,120.861633,0.321293
C1O870,大棟山,2023-06-03,23.31157,120.52226,2.7222542e-09
C0D360,梅花,2023-06-03,24.678347,121.208558,4.7368913e-09
C0Z190,富世,2023-06-03,24.14743,121.6297,1.0926477e-05
C0AI10,屈尺,2023-06-03,24.92184,121.54475,0.63573074
B2U990,畜試東區分所,2023-06-03,24.669039,121.832561,0.79359907
C0R240,來義,2023-06-03,22.527306,120.625111,1.1632964e-05
C1R610,西大武山,2023-06-03,22.617719,120.7322,6.403209e-09
C0G900,線西,2023-06-03,24.143358,120.443536,0.016955862
C0M700,竹崎,2023-06-03,23.526178,120.555508,0.0038508994
C2E880,三義,2023-06-03,24.405478,120.749819,4.3589225e-08
C0C720,竹圍,2023-06-03,25.112692,121.239824,0.9971257
C0F9P0,清水,2023-06-03,24.312297,120.562242,0.124786586
C0Z150,吉安光華,2023-06-03,23.930925,121.595153,0.00013183226
C1D640,外坪(五指山),2023-06-03,24.644447,121.090961,1.2468572e-09
C0F9O0,潭子,2023-06-03,24.213106,120.703933,0.019219423
72T250,花蓮農改場,2023-06-03,23.975222,121.563889,0.708605
C0E780,銅鑼,2023-06-03,24.489681,120.790853,7.92622e-05
C1T950,太安,2023-06-03,23.666719,121.370128,1.0035155e-08
C0E830,苑裡,2023-06-03,24.439714,120.653053,0.20869617
467270,田中,2023-06-03,23.873803,120.581286,0.07886987
C0SA10,檳榔四格山,2023-06-03,22.810031,121.109308,1.1189483e-06
C1T830,布洛灣,2023-06-03,24.17184,121.57127,0.005052675
C0F970,大坑,2023-06-03,24.173142,120.722289,0.0063108145
C1U920,思源,2023-06-03,24.393125,121.347214,1.8008107e-09
C0A931,三和,2023-06-03,25.233153,121.595236,0.9775224
C0I010,廬山,2023-06-03,24.033311,121.181808,2.241154e-09
C0R860,鼻頭,2023-06-03,22.1043,120.8979,0.80469185
C0UB20,壯圍,2023-06-03,24.7359,121.8163,0.05579029
C0R790,九棚,2023-06-03,22.14195,120.889281,0.7517728
C0W110,東莒,2023-06-03,25.9652,119.98069,0.9560639
C1U930,粉鳥林,2023-06-03,24.497088,121.842479,0.8464308
C1I211,蘆竹湳,2023-06-03,23.934019,120.811994,2.4417504e-08
C0S830,長濱,2023-06-03,23.286817,121.411975,0.00014909288
C1F9F1,伯公龍,2023-06-03,24.272392,120.849047,4.8218885e-07
C0E810,西湖,2023-06-03,24.562947,120.7485,0.067347586
C1I440,新高口,2023-06-03,23.478744,120.878939,2.3568405e-09
C0O840,王爺宮,2023-06-03,23.222064,120.40085,0.05622784
C0T9G0,鳳林山,2023-06-03,23.735269,121.420131,3.6127417e-09
C0X080,佳里,2023-06-03,23.173039,120.145086,0.01708174
C0Z310,清水斷崖,2023-06-03,24.218294,121.689142,8.07884e-08
C0M680,太保,2023-06-03,23.455062,120.331455,0.8514516
C1S820,金峰,2023-06-03,22.590969,120.933236,0.99460125
C0AD10,八里,2023-06-03,25.150211,121.403947,0.9971257
C2K240,草嶺,2023-06-03,23.59555,120.693461,4.3995985e-09
C1SA70,都蘭,2023-06-03,22.87794,121.226881,0.0063324524
C0K440,二崙,2023-06-03,23.772797,120.408944,0.0012177026
C1A760,坪林交控,2023-06-03,24.94284,121.713442,0.96763235
C0F9N0,大里,2023-06-03,24.092464,120.701378,0.057202604
C0SA90,達仁林場,2023-06-03,22.264347,120.823972,0.085618265
C1R290,石門山,2023-06-03,22.112611,120.756597,0.77041477
42HA10,萬大發電廠,2023-06-03,23.978875,121.139639,2.325902e-09
C0R890,山海,2023-06-03,21.9878,120.7091,0.016383328
C0T9A0,月眉山,2023-06-03,23.809928,121.539828,4.5583617e-09
C0AC70,信義,2023-06-03,25.037822,121.564597,0.9584234
C0K560,棋山,2023-06-03,23.68645,120.603417,0.0031694905
C1Z240,中平林道,2023-06-03,23.42115,121.26763,9.6978034e-09
U2H480,溪頭,2023-06-03,23.670306,120.798194,2.7903475e-09
C0M880,好美里,2023-06-03,23.3364,120.138,0.005810504
C0T9E0,大坑,2023-06-03,23.880628,121.581981,5.570361e-09
C0K530,臺西,2023-06-03,23.701547,120.197559,0.03414492
C1E900,國一N128K,2023-06-03,24.560997,120.844186,0.035703532
C0AJ50,水湳洞,2023-06-03,25.123695,121.862238,0.9991877
C0AI20,白沙灣,2023-06-03,25.283128,121.519058,0.99966675
C0A860,大坪,2023-06-03,25.165914,121.632969,0.6833694
C1U850,觀音海岸,2023-06-03,24.38319,121.77856,5.086015e-09
C0U950,鶯子嶺,2023-06-03,24.89754,121.79244,0.0010416395
C0O900,善化,2023-06-03,23.112883,120.297219,0.29056886
C0K550,蔦松,2023-06-03,23.514319,120.229736,0.04543826
E2P980,林試六龜中心,2023-06-03,22.991703,120.645722,0.18028091
C0E590,通霄,2023-06-03,24.471892,120.704622,0.08928432
C1I310,西巒,2023-06-03,23.754486,120.883956,4.767655e-09
C0A550,泰平,2023-06-03,24.971197,121.823711,0.975514
C0I360,水里,2023-06-03,23.812553,120.849792,9.719284e-07
C0R830,高士,2023-06-03,22.121825,120.836781,0.72549534
C1I101,溪頭,2023-06-03,23.661789,120.807647,3.122503e-09
C0AJ20,野柳,2023-06-03,25.20703,121.690021,0.9919435
C0B060,暖暖,2023-06-03,25.0957,121.7403,0.9820351
C1H920,長豐,2023-06-03,24.102039,120.879897,3.7551313e-09
C0V360,內門,2023-06-03,22.975481,120.466769,0.037388027
C0R850,林邊,2023-06-03,22.4634,120.5339,0.0011446729
C0E930,龍鳳,2023-06-03,24.700034,120.859125,0.012901907
C0U910,冬山,2023-06-03,24.63373,121.7937,0.79359907
C1E721,泰安,2023-06-03,24.489017,120.968036,1.6174848e-09
82H320,茶改中部分場,2023-06-03,23.875611,120.913583,2.4955057e-08
C0M750,布袋,2023-06-03,23.380878,120.167789,0.02203123
C1S860,利嘉,2023-06-03,22.809417,121.050528,7.3835174e-08
72C440,桃園農改,2023-06-03,24.950944,121.030583,0.2862373
E2S980,林試太麻里1,2023-06-03,22.598922,120.980044,0.99140424
C0X170,關廟,2023-06-03,22.963017,120.327797,0.018694859
C0V720,林園,2023-06-03,22.507747,120.394511,7.193987e-05
C1I510,線浸林道,2023-06-03,23.761508,120.832956,3.5776395e-09
C0D690,外湖,2023-06-03,24.917735,120.968711,0.49631476
C0C750,新興坑尾,2023-06-03,25.0061,121.0971,0.42605314
B2Q810,畜試南區分所,2023-06-03,21.945583,120.802167,0.30573818
C0S790,金崙,2023-06-03,22.538122,120.966875,0.99273556
C0AH90,福山植物園,2023-06-03,24.760717,121.58135,1.1148411e-06
C0I540,奇萊稜線,2023-06-03,24.109231,121.326456,1.0045879e-08
C0M850,表湖,2023-06-03,23.24186,120.64166,3.0947735e-08
C0S770,大溪山,2023-06-03,22.478475,120.943325,0.9828253
C0AG80,中和,2023-06-03,24.991622,121.491792,0.88195914
C0T790,大禹嶺,2023-06-03,24.186117,121.316086,3.2072567e-09
C0T9B0,水源,2023-06-03,23.991861,121.537169,6.936291e-08
C0R840,牡丹池山,2023-06-03,22.168389,120.841225,0.0042136614
C1I131,桶頭,2023-06-03,23.641944,120.654117,1.7130542e-07
CAL110,布袋國中,2023-06-03,23.35893,120.18026,0.02203123
467571,新竹,2023-06-03,24.827853,121.014219,0.02243449
C0Z290,赤柯山,2023-06-03,23.36893,121.38293,4.415925e-09
C0X280,將軍,2023-06-03,23.214999,120.13577,0.0040769004
C0S690,太麻里,2023-06-03,22.60902,120.98533,1.3723462e-07
C0U880,北關,2023-06-03,24.9072,121.8734,0.9898851
C1H860,瑞岩,2023-06-03,24.123772,121.18345,1.8217602e-09
C0G810,埔心,2023-06-03,23.947633,120.525456,0.02540284
C0U970,大福,2023-06-03,24.80064,121.81389,0.56536597
C1E670,南礦,2023-06-03,24.538278,121.002836,8.6028584e-10
C0M520,東後寮,2023-06-03,23.369908,120.248065,0.02112966
C1E461,松安,2023-06-03,24.397972,120.986022,1.28461e-09
72G600,臺中農改,2023-06-03,24.003028,120.534389,0.12451614
C2N160,西拉雅風管處,2023-06-03,23.189481,120.335297,0.13994534
C0A640,石碇,2023-06-03,24.993969,121.662917,0.99733573
E2S960,林試太麻里2,2023-06-03,22.598,120.99775,0.9683828
C0F9Y0,桃山,2023-06-03,24.432739,121.303808,6.813763e-09
C1I020,萬大,2023-06-03,23.979817,121.132261,2.2652116e-09
C0U940,羅東,2023-06-03,24.68184,121.74934,0.045964044
C0M650,朴子,2023-06-03,23.43463,120.23902,0.015900057
C1I500,大尖山,2023-06-03,23.858572,120.994889,2.9257041e-09
C0G820,田尾,2023-06-03,23.901669,120.509389,0.02546086
E2K600,四湖植物園,2023-06-03,23.676986,120.163433,0.029504815
C0S730,綠島,2023-06-03,22.6672,121.47533,0.8433315
12Q970,東港工作站,2023-06-03,22.479997,120.466058,0.0011481647
C0E430,南庄,2023-06-03,24.601775,121.000214,1.6883637e-06
C1TA00,太魯閣,2023-06-03,24.15773,121.6236,3.438919e-06
466920,臺北,2023-06-03,25.037658,121.514853,0.9584234
C0R600,舊泰武,2023-06-03,22.588194,120.664944,2.5881373e-09
C1I260,北坑,2023-06-03,23.9246,121.006903,1.4781011e-08
466910,鞍部,2023-06-03,25.182586,121.529731,0.86967385
C1I230,九份二山,2023-06-03,23.961944,120.845,7.412228e-09
C2A660,瑞芳,2023-06-03,25.113169,121.801147,0.99927104
C0R270,琉球嶼,2023-06-03,22.332244,120.362236,8.901139e-05
C1T990,高寮,2023-06-03,23.394239,121.356808,0.0005508237
C0G620,芬園,2023-06-03,24.015678,120.6213,0.039231736
C1Z140,荖溪,2023-06-03,23.890575,121.45964,6.5760952e-09
C1I201,中心崙,2023-06-03,23.728722,120.712097,1.0724519e-09
C1I400,凌霄,2023-06-03,24.018778,121.004456,2.0755968e-09
C1M640,十字,2023-06-03,23.492153,120.753683,4.815774e-09
G2P820,農試鳳山分所,2023-06-03,22.646611,120.356083,0.000104243445
C0Z270,蕃薯寮,2023-06-03,23.73835,121.540108,8.255669e-09
C0F9Q0,外埔,2023-06-03,24.347817,120.705686,0.01923636
C0K580,高鐵雲林,2023-06-03,23.737456,120.417944,0.0020744058
C2I090,鳳凰,2023-06-03,23.728081,120.787347,2.9479197e-09
C0U990,員山,2023-06-03,24.74435,121.72247,0.048844256
C0V770,大社,2023-06-03,22.730306,120.346639,0.031790104
C0X120,麻豆,2023-06-03,23.183289,120.248611,0.31980717
C0C670,龍潭,2023-06-03,24.870056,121.221389,4.1289888e-07
C0D680,香山濕地,2023-06-03,24.783581,120.914988,0.016848791
C0S980,勝林山,2023-06-03,22.430439,120.8938,1.2606662e-06
C0V730,大寮,2023-06-03,22.605614,120.395717,1.652614e-05
C0R570,麟洛,2023-06-03,22.65078,120.52719,0.02126973
CAG100,王功漁港,2023-06-03,23.96824,120.32586,0.025353584
C0X290,北門,2023-06-03,23.267772,120.125481,0.0040757046
C2F930,大甲,2023-06-03,24.347667,120.640403,0.10130607
C0D650,湖口,2023-06-03,24.904794,121.043628,0.16075891
C0E420,竹南,2023-06-03,24.708978,120.888897,0.0080897035
C0U780,五結,2023-06-03,24.68637,121.79794,0.05579029
C1I250,鯉潭,2023-06-03,23.961922,120.991131,1.8234472e-08
C0R130,阿禮,2023-06-03,22.742908,120.743678,2.0295816e-09
C0X100,臺南市北區,2023-06-03,23.010394,120.194228,0.018200865
C0S920,金峰嘉蘭,2023-06-03,22.594789,120.960825,0.99210805
C0V490,新興,2023-06-03,22.627422,120.298803,2.3677607e-05
C0F9K0,大安,2023-06-03,24.345061,120.588025,0.33465543
72N100,臺南農改,2023-06-03,23.0605,120.342194,0.19587873
467290,古坑,2023-06-03,23.633639,120.551889,0.0061629787
C0V440,鳳山,2023-06-03,22.646653,120.356122,0.000104243445
C1T940,大觀,2023-06-03,23.714206,121.373133,4.4229385e-09
72T250,花蓮農改,2023-06-03,23.975222,121.563889,0.708605
C0E740,造橋,2023-06-03,24.637056,120.864778,0.039813295
C0R100,尾寮山,2023-06-03,22.833111,120.683889,2.6360696e-09
A2K630,臺大雲林校區,2023-06-03,23.730628,120.423903,0.0020736707
C0D580,寶山,2023-06-03,24.735006,121.025192,2.0547826e-07
E2P990,林試扇平站,2023-06-03,22.9677,120.6857,9.660549e-09
C0AI30,三重,2023-06-03,25.057328,121.500629,0.96355003
C0AH00,汐止,2023-06-03,25.066881,121.658778,0.9584234
C1Z040,立山,2023-06-03,23.443356,121.327375,1.5895928e-08
C0R740,獅子,2023-06-03,22.201569,120.70525,0.652818
C0W130,花嶼,2023-06-03,23.40007,119.32276,0.037758425
C0A950,鼻頭角,2023-06-03,25.129036,121.923372,0.9995916
C0K470,林內,2023-06-03,23.748675,120.609642,0.0069184965
82C160,茶改場,2023-06-03,24.908472,121.185333,0.5134494
C0Z320,清水林道,2023-06-03,23.27125,121.188272,8.928482e-09
C0R760,南仁湖,2023-06-03,22.084681,120.863353,0.77041477
C0M670,大林,2023-06-03,23.600616,120.45841,0.002007673
C0M800,茶山,2023-06-03,23.299075,120.664767,1.0418947e-05
C0A9C0,天母,2023-06-03,25.117494,121.537169,0.9714808
72K220,南改斗南分場,2023-06-03,23.634556,120.477333,0.0016994155
72AI40,桃改樹林分場,2023-06-03,24.944503,121.386972,0.9720159
C0S910,蘭嶼燈塔,2023-06-03,22.081197,121.503117,0.28996253
C0B050,八斗子,2023-06-03,25.144754,121.79167,0.9990819
C0U900,內城,2023-06-03,24.71813,121.68766,0.035179585
C0X320,柳營,2023-06-03,23.253328,120.375253,0.4460179
C0M790,新港,2023-06-03,23.553269,120.345728,0.035882406
C0F9T0,西屯,2023-06-03,24.179494,120.641275,0.019903528
C0SA30,都歷,2023-06-03,23.020333,121.323642,0.0002983755
C0C620,蘆竹,2023-06-03,25.084275,121.265767,0.9799647
C0R730,大坪頂,2023-06-03,22.024633,120.69355,0.6715239
C0AJ40,石門,2023-06-03,25.273672,121.601198,0.9995565
C0E750,苗栗,2023-06-03,24.564569,120.824575,0.044004817
C0T870,鯉魚潭,2023-06-03,23.935639,121.508944,4.1557254e-07
C1V170,排雲,2023-06-03,23.463619,120.954147,8.997239e-09
C2H950,中寮,2023-06-03,23.884447,120.766406,3.415596e-05
C0R350,貓鼻頭,2023-06-03,21.921774,120.7358,0.0003608731
C0V660,岡山,2023-06-03,22.797078,120.294958,0.004278176
C1H941,雙冬,2023-06-03,23.967378,120.802189,1.2422691e-08
C0AJ70,田寮,2023-06-03,25.2698,121.4886,0.9996508
C0AI00,五股,2023-06-03,25.07445,121.42728,0.97411925
C0Z280,德武,2023-06-03,23.47426,121.41071,5.7782152e-05
C0R700,枋山,2023-06-03,22.246844,120.661086,0.025865572
C0C460,復興,2023-06-03,24.820208,121.352281,4.729256e-08
E2H360,蓮華池,2023-06-03,23.918333,120.885278,6.549371e-09
C0M640,中埔,2023-06-03,23.42538,120.5229,0.09535418
C0W140,金沙,2023-06-03,24.488292,118.408778,0.99974245
C2A540,四堵,2023-06-03,24.8926,121.745736,0.9349068
C0ACA0,新莊,2023-06-03,25.051478,121.446756,0.8583243
C0R220,潮州,2023-06-03,22.534361,120.54,0.00020616558
U2HA40,臺大內茅埔,2023-06-03,23.689722,120.851117,3.4752375e-06
467490,臺中,2023-06-03,24.145736,120.684075,0.046956193
C0U960,翠峰湖,2023-06-03,24.510856,121.608044,3.3728385e-09
E2HA20,林試畢祿溪站,2023-06-03,24.226944,121.308522,1.8997621e-09
C0V890,前鎮,2023-06-03,22.5718,120.3117,3.3841145e-05
467620,蘭嶼,2023-06-03,22.036969,121.558339,0.06419103
C1F941,雪嶺,2023-06-03,24.280586,121.026642,3.5849073e-09
C0AC80,文山,2023-06-03,25.00235,121.575728,0.8881861
C0F9R0,龍井,2023-06-03,24.184536,120.528972,0.05801775
C0M760,民雄,2023-06-03,23.551754,120.428457,0.002536852
C0UA40,西德山,2023-06-03,24.560647,121.752608,3.9384975e-09
C1T920,中興,2023-06-03,23.769503,121.498653,1.1767036e-07
C0D550,雪霸,2023-06-03,24.526972,121.11605,1.2117938e-09
C2F860,梨山,2023-06-03,24.247522,121.243669,1.9619333e-09
C0R320,車城,2023-06-03,22.0744,120.716247,0.008934327
C1S870,南美山,2023-06-03,23.15025,121.382333,0.8499684
C0B020,基隆嶼,2023-06-03,25.19141,121.78391,0.99982363
C1U501,牛鬥,2023-06-03,24.637836,121.573656,0.00011607818
C0M730,嘉義市東區,2023-06-03,23.457673,120.460531,0.19699474
C0S700,知本,2023-06-03,22.684866,121.005642,2.4814895e-08
C1N001,沙崙,2023-06-03,22.935472,120.309406,0.027727455
C0V760,橋頭,2023-06-03,22.757806,120.30575,0.036197726
C0G960,福寶,2023-06-03,24.0443,120.3814,0.0023088777
C0X210,白河,2023-06-03,23.347466,120.414427,0.3057157
C0S810,東河,2023-06-03,22.972672,121.303986,0.24669781
C0R670,楓港,2023-06-03,22.190131,120.692156,0.24278712
C0FA50,霧峰,2023-06-03,24.0419,120.6995,0.18821615
C0UB10,蘇澳,2023-06-03,24.5969,121.8571,0.40339255
C0G950,防潮門,2023-06-03,24.1835,120.4871,0.05801775
C0M740,六腳,2023-06-03,23.492871,120.290625,0.07547196
C1R250,力里,2023-06-03,22.428117,120.629228,0.003149073
C0K330,虎尾,2023-06-03,23.719183,120.442036,0.0018543273
C2FA00,烏石坑,2023-06-03,24.273503,120.947617,2.2269346e-09
C0V620,永安,2023-06-03,22.82315,120.236856,0.004278176
C1I330,楓樹林,2023-06-03,23.986803,121.076117,2.1066626e-09
C0W200,湖西,2023-06-03,23.596314,119.67275,0.0018282692
72Q010,高雄農改場,2023-06-03,22.709333,120.525889,0.00925383
C0SA40,瑞和,2023-06-03,22.974361,121.156697,2.8547313e-06
C0C680,龜山,2023-06-03,25.02846,121.38656,0.9723806
C2V260,月眉,2023-06-03,22.971003,120.539853,0.30109233
C0V450,鳳森,2023-06-03,22.545064,120.392592,1.0196625e-05
C0U720,南山,2023-06-03,24.43742,121.38167,3.9603276e-09
A2N290,臺南蘭花園區,2023-06-03,23.340258,120.379661,0.23240785
C0R560,新園,2023-06-03,22.5434,120.461558,7.193987e-05
C0U890,三星,2023-06-03,24.66812,121.65302,0.016447026
C1V300,御油山,2023-06-03,23.001983,120.715364,2.203191e-09
C0U600,礁溪,2023-06-03,24.817539,121.765608,0.8936367
C1T980,龍澗,2023-06-03,24.023289,121.411328,7.750249e-09
C0D670,海天一線,2023-06-03,24.831986,120.914438,0.015091972
C0SA00,歷坵,2023-06-03,22.520969,120.89185,0.023117729
C0M710,東石,2023-06-03,23.458927,120.15385,0.0036875552
C0M780,鹿草,2023-06-03,23.41134,120.30835,0.011427127
C0U520,雙連埤,2023-06-03,24.753033,121.641303,0.00015995494
C0B010,七堵,2023-06-03,25.094819,121.71713,0.98807514
C0R480,長治,2023-06-03,22.693128,120.542622,0.0028834876
C1V830,國三S383K,2023-06-03,22.781967,120.426475,0.57705563
12Q980,恆春工作站,2023-06-03,22.079678,120.714425,0.008934327
C1O940,東山服務區,2023-06-03,23.286016,120.398472,0.44713327
C1U840,東澳嶺,2023-06-03,24.5378,121.8485,1.04328794e-08
C1D630,飛鳳山,2023-06-03,24.766464,121.119178,8.1592075e-09
C0S940,石寧山,2023-06-03,23.223772,121.406639,0.9589749
C0K410,北港,2023-06-03,23.573957,120.292802,0.014365001
C2M620,瑞里,2023-06-03,23.545133,120.675197,3.3536134e-09
C2O950,安南,2023-06-03,23.076694,120.144861,0.020540673
C0F0E0,南湖圈谷,2023-06-03,24.363714,121.444667,1.0762309e-08
467610,成功,2023-06-03,23.097486,121.373428,0.45183793
C0G890,伸港,2023-06-03,24.148933,120.484403,0.016955862
C2E540,龍溪,2023-06-03,24.606489,120.783933,0.037706025
C1V200,梅山,2023-06-03,23.268447,120.823556,2.3134879e-08
C0T9H0,加路蘭山,2023-06-03,23.682947,121.5274,2.8922031e-09
C2O930,玉井,2023-06-03,23.126042,120.46055,0.0053194542
C1F911,新伯公,2023-06-03,24.221361,120.841069,3.698908e-07
C0R490,九如,2023-06-03,22.7405,120.490503,0.013450168
C0X200,左鎮,2023-06-03,23.056758,120.408522,0.009217028
C1F891,稍來,2023-06-03,24.265689,121.001142,2.8767326e-09
72N240,七股研究中心,2023-06-03,23.081672,120.062894,0.020782521
C0C700,中壢,2023-06-03,24.977661,121.256375,0.72122484
C0M690,水上,2023-06-03,23.419734,120.388909,0.8294021
C0V690,鼓山,2023-06-03,22.623325,120.275575,2.3677607e-05
C0O860,大內,2023-06-03,23.11885,120.36083,0.23455876
C0Z200,萬榮,2023-06-03,23.709219,121.420106,4.00686e-08
C0T9D0,和中,2023-06-03,24.26676,121.74103,0.00024033264
C1O921,楠西,2023-06-03,23.183511,120.484083,0.019227518
C0AJ30,淡水觀海,2023-06-03,25.184591,121.408616,0.9922746
C0V810,左營,2023-06-03,22.67491,120.28491,0.0001622799
C0UA70,桃源谷,2023-06-03,24.962606,121.888875,0.96540636
C0X130,官田,2023-06-03,23.193217,120.315422,0.17549951
C1H000,翠峰,2023-06-03,24.109397,121.205211,3.725873e-09
C0UA90,石城,2023-06-03,24.980444,121.951214,0.9980692
C1E681,南勢山,2023-06-03,24.421669,120.923831,1.6399572e-09
C0A9F0,內湖,2023-06-03,25.079422,121.57545,0.9584234
C0K291,宜梧,2023-06-03,23.536281,120.169329,0.04513953
C1K540,口湖,2023-06-03,23.585344,120.180517,0.01038094
C0R780,滿州,2023-06-03,22.024403,120.839892,0.57918584
C0V870,文安,2023-06-03,22.8025,120.2164,0.004582176
C0U650,玉蘭,2023-06-03,24.675286,121.587061,1.6621485e-05
C0R640,東港,2023-06-03,22.46247,120.44074,0.0011450943
K2E360,苗栗農改,2023-06-03,24.495722,120.829111,0.001103612
C0AJ80,板橋,2023-06-03,25.0107,121.4489,0.8780885
C0S660,下馬,2023-06-03,23.150427,121.070312,8.564454e-09
C1H9B1,阿眉,2023-06-03,24.1263,120.994672,2.5055824e-09
C0UA20,多加屯,2023-06-03,24.368614,121.373189,2.21365e-09
C0E730,頭份,2023-06-03,24.688247,120.912206,0.00999078
72V140,高改旗南分場,2023-06-03,22.857861,120.516667,0.770295
C0K480,莿桐,2023-06-03,23.761192,120.502372,0.012375366
C0U980,坪林石牌,2023-06-03,24.86478,121.77396,0.15384911
C0T900,西林,2023-06-03,23.8119,121.441458,2.0982824e-08
C1I150,青雲,2023-06-03,23.793361,120.949378,3.850179e-07
467350,澎湖,2023-06-03,23.565503,119.563094,0.0056899604
C0G800,埔鹽,2023-06-03,24.000394,120.431683,0.00066728465
C0H960,草屯,2023-06-03,23.973672,120.68085,0.067525685
C1V780,多納林道,2023-06-03,22.888028,120.737917,3.219699e-09
C0E920,通霄漁港,2023-06-03,24.498589,120.673876,0.095940955
C0Z330,安通山,2023-06-03,23.290728,121.348528,1.6789373e-07
C0AH10,永和,2023-06-03,25.01125,121.508111,0.87797785
C2G640,鹿港,2023-06-03,24.0753,120.430481,0.0023088777
C1E890,國三N149K,2023-06-03,24.463414,120.680019,0.1258933
C1R110,口社,2023-06-03,22.770111,120.645222,0.00063312426
C1M870,國三N285K,2023-06-03,23.550319,120.505833,0.004002893
467050,新屋,2023-06-03,25.006744,121.047486,0.5171465
C1E480,鳳美,2023-06-03,24.554803,121.034747,4.464026e-09
C0M530,奮起湖,2023-06-03,23.493903,120.699253,3.2605174e-09
C0C590,觀音,2023-06-03,25.027072,121.153317,0.99208117
C0T9M0,靜浦,2023-06-03,23.455167,121.495028,0.008501651
C0AI40,石牌,2023-06-03,25.115597,121.513139,0.97372824
C1F871,上谷關,2023-06-03,24.203483,121.018644,2.373686e-09
C0G880,二水,2023-06-03,23.810742,120.6173,0.0055224965
C0R940,加祿堂,2023-06-03,22.3363,120.6217,0.0260863
C0W220,北竿,2023-06-03,26.220358,119.974881,0.9574748
C0O960,崎頂,2023-06-03,22.959547,120.369317,0.0011575845
C0S750,向陽,2023-06-03,23.248397,120.986133,2.591521e-09
C0T9F0,水璉,2023-06-03,23.797131,121.542514,1.0707294e-08
C1M600,頭凍,2023-06-03,23.406364,120.603339,5.6352274e-09
467660,臺東,2023-06-03,22.752211,121.154586,0.010931665
C1D380,新埔,2023-06-03,24.84745,121.03834,0.00222306
C0V750,路竹,2023-06-03,22.854997,120.259439,0.0008980052
C0N050,蚵寮,2023-06-03,23.301,120.1104,0.005810504
72M700,南改鹿草分場,2023-06-03,23.416869,120.283061,0.013374011
C1SA50,利嘉林道,2023-06-03,22.82325,121.009389,3.6333554e-09
467550,玉山,2023-06-03,23.487614,120.959522,1.1660182e-08
C0A940,金山,2023-06-03,25.223628,121.643967,0.99092627
C1V340,大津,2023-06-03,22.888322,120.645986,0.3131039
C0W180,七美,2023-06-03,23.219333,119.444892,0.006617722
C1F9C1,白冷,2023-06-03,24.182844,120.929889,6.712336e-09
K2E710,苗改生物防治研究中心,2023-06-03,24.422861,120.871833,9.5145166e-05
C0N040,蘆竹溝,2023-06-03,23.2344,120.0961,0.0040757046
C2W230,畜試所澎湖,2023-06-03,23.628342,119.513206,0.027322281
C0R880,後壁湖,2023-06-03,21.9457,120.7457,0.015908848
C1I280,埔中,2023-06-03,23.820778,120.642594,8.096562e-09
467790,墾丁雷達站,2023-06-03,21.948235,120.808028,0.3945481
C0W190,望安,2023-06-03,23.380564,119.494075,0.012478754
466881,新北,2023-06-03,24.9593,121.52,0.8764791
C0Z170,卓溪,2023-06-03,23.3443,121.3029,1.0253124e-05
C0F850,東勢,2023-06-03,24.246428,120.833047,3.5468364e-07
466900,淡水,2023-06-03,25.164889,121.448906,0.99719673
C0I370,魚池,2023-06-03,23.895703,120.94135,4.584939e-09
C0C630,大溪,2023-06-03,24.882853,121.265547,1.0366083e-06
C0A520,山佳,2023-06-03,24.974944,121.402008,0.88912815
C0I110,竹山,2023-06-03,23.761225,120.688156,0.00030394638
82H840,茶改南部分場,2023-06-03,23.762528,120.7405,1.6448888e-08
C0G660,溪湖,2023-06-03,23.94835,120.479122,0.037545614
C1T800,洛韶,2023-06-03,24.204558,121.453956,5.498706e-09
C1T810,慈恩,2023-06-03,24.192044,121.388386,1.6143102e-09
C1E451,象鼻,2023-06-03,24.368617,120.940228,2.694812e-09
C0AC60,三峽,2023-06-03,24.939025,121.369728,0.95642376
C0I490,萬大林道,2023-06-03,23.928228,121.091411,1.9246358e-09
C1I290,豐丘,2023-06-03,23.668178,120.887417,2.716015e-09
C1I320,奧萬大,2023-06-03,23.952956,121.178556,1.7372684e-09
C0U770,南澳,2023-06-03,24.44935,121.81022,5.6810796e-07
C0A980,社子,2023-06-03,25.109508,121.469681,0.9971819
C0V800,六龜,2023-06-03,22.997889,120.633583,0.20719224
C1G9D0,國一S218K,2023-06-03,23.890641,120.493253,0.005626982
C2F9A0,中竹林,2023-06-03,24.103556,120.751061,4.4493394e-08
C0FA40,臺中電廠,2023-06-03,24.2146,120.4907,0.05801775
C0H9C0,合歡山,2023-06-03,24.143442,121.272547,8.269254e-09
C0X060,下營,2023-06-03,23.22695,120.256261,0.11938165
G2M350,農試溪口農場,2023-06-03,23.58565,120.408111,0.003365216
C0U860,頭城,2023-06-03,24.85323,121.8308,0.8946164
C0R580,南州,2023-06-03,22.48591,120.50274,0.0011450943
C0D430,峨眉,2023-06-03,24.6905,121.017189,0.00017912393
C0G780,秀水,2023-06-03,24.03405,120.503869,0.12451614
72N100,臺南農改場,2023-06-03,23.0605,120.342194,0.19587873
C0S900,蘭嶼高中,2023-06-03,22.04909,121.51214,0.66076463
467540,大武,2023-06-03,22.355675,120.903789,0.6230327
C1F9W0,德基,2023-06-03,24.254783,121.190261,2.1392583e-09
C1Z120,壽豐,2023-06-03,23.870853,121.508081,4.915384e-07
C0W160,烏坵,2023-06-03,24.9944,119.44956,0.32101795
C1I240,外大坪,2023-06-03,23.958697,120.917931,1.5168636e-08
C1I550,國六W023K,2023-06-03,23.979067,120.867742,1.06436055e-07
C0R870,興海,2023-06-03,21.9752,120.8439,0.30573818
C0R140,瑪家,2023-06-03,22.682903,120.686639,6.2779706e-09
C0A530,坪林,2023-06-03,24.938183,121.70975,0.94868934
C0X260,後壁,2023-06-03,23.366358,120.362326,0.23240785
C0Z230,和平,2023-06-03,24.30717,121.77007,0.0003713074
C0G770,福興,2023-06-03,24.041289,120.437669,0.00066728465
C0H9A0,神木村,2023-06-03,23.532742,120.843667,4.8128905e-09
C0I460,南投,2023-06-03,23.911469,120.687331,0.01287641
C0I480,梅峰,2023-06-03,24.085272,121.173572,1.9555e-09
C1V570,吉東,2023-06-03,22.85422,120.5454,0.77253026
C2A560,福山,2023-06-03,24.776203,121.502811,0.0024633317
C0AH30,五分山,2023-06-03,25.07125,121.780794,0.9570647
C0FA10,松柏,2023-06-03,24.429115,120.617482,0.18695286
72S200,東改班鳩分場,2023-06-03,22.829528,121.077694,4.869039e-05
72HA00,中改埔里分場,2023-06-03,23.903208,120.963364,8.979169e-09
C0C650,平鎮,2023-06-03,24.897503,121.214636,0.07421342
C0S930,延平,2023-06-03,22.902581,121.084058,8.901193e-06
C0UA60,樟樹山,2023-06-03,24.41393,121.78325,2.3179533e-08
C1S670,摩天,2023-06-03,23.199503,121.027,3.0218248e-09
C0V630,茄萣,2023-06-03,22.906642,120.182608,0.0013097884
466940,基隆,2023-06-03,25.133314,121.740475,0.9991256
C0X050,東河,2023-06-03,23.296598,120.385608,0.467742
C0R770,保力,2023-06-03,22.071122,120.764111,0.7852657
G2L020,農試嘉義分所,2023-06-03,23.485028,120.473806,0.05053008
C0X240,關子嶺,2023-06-03,23.331169,120.508025,1.2392811e-06
C0I380,集集,2023-06-03,23.828206,120.801467,1.0136049e-06
466990,花蓮,2023-06-03,23.975128,121.613275,0.9019525
C1V220,小關山,2023-06-03,23.154217,120.813603,3.0833358e-09
C1F9G1,慶福山,2023-06-03,24.180853,120.848378,7.2366584e-09
C0Z250,瑞穗林道,2023-06-03,23.49284,121.30688,9.712891e-09
C0D590,新豐,2023-06-03,24.87068,120.97721,0.00012882064
C0A870,五指山,2023-06-03,25.132153,121.608692,0.6537342
C0UA50,西帽山,2023-06-03,24.555361,121.802628,4.115074e-09
C0X160,仁德,2023-06-03,22.968258,120.257689,0.0016141438
C1H971,六分寮,2023-06-03,23.92507,120.6378,7.922427e-09
C0W120,西嶼,2023-06-03,23.5626,119.468436,0.01225881
C0G650,員林,2023-06-03,23.946503,120.585597,0.89913094
C0AD50,鶯歌,2023-06-03,24.951533,121.346294,0.91999406
C0S990,山豬窟,2023-06-03,22.318619,120.857372,0.9322562
72Q010,高雄農改,2023-06-03,22.709333,120.525889,0.00925383
C0X190,安平,2023-06-03,22.993161,120.152181,0.018200865
C0K400,斗六,2023-06-03,23.720583,120.541127,0.016172338
12J990,口湖工作站,2023-06-03,23.589978,120.180394,0.01038094
C0O830,北寮,2023-06-03,23.079561,120.495008,0.0052114436
C1D410,白蘭,2023-06-03,24.579364,121.079947,8.920562e-10
C0S970,加津林,2023-06-03,22.416211,120.926942,0.6795026
C0D700,關西,2023-06-03,24.7977,121.1732,1.096535e-06
C0M810,里佳,2023-06-03,23.389125,120.716647,3.397503e-09
C0U750,龜山島,2023-06-03,24.841667,121.953133,0.9976308
C0R810,內獅,2023-06-03,22.305064,120.642986,0.023252819
C1M390,龍美,2023-06-03,23.406728,120.654417,3.8435144e-09
C1H840,國三N238K,2023-06-03,23.841008,120.707711,4.0912343e-07
CAQ030,崎峰國小,2023-06-03,22.42565,120.49521,0.0011450943
C2E520,大湖,2023-06-03,24.414939,120.870872,1.8514864e-05
467530,阿里山,2023-06-03,23.508208,120.813242,4.814461e-09
C1E691,南湖,2023-06-03,24.40135,120.837533,2.6301485e-09
C0FA30,梧棲,2023-06-03,24.256003,120.523381,0.124786586
C1V231,高中,2023-06-03,23.134911,120.716711,3.269518e-08
C0F9V0,新社,2023-06-03,24.200172,120.815806,2.7494107e-08
C0H890,埔里,2023-06-03,23.972169,120.952425,1.688138e-08
C0R690,墾丁,2023-06-03,21.966756,120.810269,0.3698549
C0F0D0,審馬陣,2023-06-03,24.381675,121.4203,4.11065e-09
C0R820,白鷺,2023-06-03,22.454275,120.666219,7.5270044e-08
U2H480,臺大溪頭,2023-06-03,23.670306,120.798194,2.7903475e-09
C1V190,南天池,2023-06-03,23.27403,120.91176,2.7421716e-09
K2E360,苗栗農改場,2023-06-03,24.495722,120.829111,0.001103612
CAJ050,海口故事園區,2023-06-03,23.57543,120.14121,0.01038094
C0O990,媽廟,2023-06-03,22.99175,120.293525,0.043905087
C0D480,打鐵坑,2023-06-03,24.849664,121.150789,3.8497566e-07
C0Z220,和平林道,2023-06-03,24.343922,121.656317,7.90032e-09
72C440,桃園農改場,2023-06-03,24.950944,121.030583,0.286237
C1E711,馬拉邦山,2023-06-03,24.367306,120.901656,2.532976e-09
C0D560,竹東,2023-06-03,24.767147,121.057881,2.0183084e-06
C0F9U0,南屯,2023-06-03,24.137006,120.637969,0.08852594
C0M720,番路,2023-06-03,23.464657,120.554156,0.0091004055
C0F0A0,雪山圈谷,2023-06-03,24.388594,121.236339,7.791468e-09
C1A9N0,四十份,2023-06-03,24.934158,121.593283,0.98728234
C0U760,東澳,2023-06-03,24.52196,121.83318,0.8073833
C0X230,鹽水,2023-06-03,23.272621,120.247641,0.0053374358
C0V370,古亭坑,2023-06-03,22.893178,120.401947,0.1007978
C1I340,新興橋,2023-06-03,23.563333,120.868728,9.222011e-09
C0SA80,土坂,2023-06-03,22.453108,120.887572,0.9194466
C0R160,鹽埔,2023-06-03,22.739558,120.530778,0.00925383
C0AC40,大屯山,2023-06-03,25.175675,121.522408,0.047472157
466850,五分山雷達站,2023-06-03,25.071182,121.781205,0.95463043
C1AI50,國三N016K,2023-06-03,25.034164,121.619664,0.94793373
C1V600,藤枝,2023-06-03,23.071961,120.757042,3.3944263e-09
C1E601,南勢,2023-06-03,24.572486,120.734842,0.0045336834
C0Z180,新城,2023-06-03,24.03946,121.60454,0.8960485
C0O980,新市,2023-06-03,23.061614,120.298197,0.29065925
C0K420,西螺,2023-06-03,23.800407,120.467394,0.00063206255
C0Z050,佳心,2023-06-03,23.34567,121.21316,4.765846e-09
C0AD30,蘆洲,2023-06-03,25.086594,121.472331,0.96355003
C0V610,梓官,2023-06-03,22.760558,120.267211,0.036197726
K2F750,種苗改良場,2023-06-03,24.225972,120.800917,1.2114077e-07
C0UA80,大溪漁港,2023-06-03,24.941801,121.902955,0.9898028
C1AI60,國一39K邊坡,2023-06-03,25.064361,121.383836,0.97332525
C0W150,金寧,2023-06-03,24.457703,118.328989,0.9996075
V2C250,八德合作社,2023-06-03,24.93775,121.266389,0.33238176
C0AH40,平等,2023-06-03,25.129142,121.577086,0.68095267
C0R540,佳冬,2023-06-03,22.419456,120.552375,0.052711334
466950,彭佳嶼,2023-06-03,25.627975,122.079744,0.99975383
C0A890,雙溪,2023-06-03,25.036003,121.864242,0.99938107
C0C480,桃園,2023-06-03,24.992425,121.323172,0.8435102
C0AH50,林口,2023-06-03,25.072181,121.38084,0.9712907
A2K360,水試臺西試驗場,2023-06-03,23.717231,120.190522,0.034200463
B2N890,畜試所,2023-06-03,23.058972,120.336406,0.19587873
C0F9S0,烏日,2023-06-03,24.107058,120.624103,0.11797632
C0C490,八德,2023-06-03,24.928708,121.283289,0.30159825
C0R190,赤山,2023-06-03,22.592333,120.614306,1.5529586e-05
C0T820,天祥,2023-06-03,24.179597,121.495639,1.1855058e-06
C1F9E1,龍安,2023-06-03,24.1605,120.831961,9.149721e-09
C0V820,小林,2023-06-03,23.148408,120.63325,8.7732296e-08
C2G870,芳苑,2023-06-03,23.922303,120.320025,0.027620727
C0E850,大河,2023-06-03,24.618069,120.948578,0.0021122212
C1U670,寒溪,2023-06-03,24.634,121.71691,0.44875836
C0N020,城西,2023-06-03,23.0568,120.0956,0.018200865
C1Z110,三棧,2023-06-03,24.11557,121.60501,5.3439038e-08
C0R280,檳榔,2023-06-03,22.076078,120.836777,0.7428748
C0F9L0,后里,2023-06-03,24.310436,120.729725,1.4376278e-05
C0D540,橫山,2023-06-03,24.71116,121.11693,3.5652366e-08
C1D420,太閣南,2023-06-03,24.632808,121.160575,2.1075548e-09
C1E770,公館,2023-06-03,24.526914,120.830806,0.006220933
CAN130,水試所海水繁養殖中心,2023-06-03,23.120802,120.07968,0.020782521
C1I430,翠華,2023-06-03,24.191961,121.224339,1.8479621e-09
C1M400,菜瓜坪,2023-06-03,23.251928,120.576103,6.775308e-07
C0G730,二林,2023-06-03,23.903325,120.376081,0.007325226
72M360,南改義竹分場,2023-06-03,23.360694,120.279361,0.021132328
V2K620,麥寮合作社,2023-06-03,23.753836,120.294783,0.0014543765
C0Z070,舞鶴,2023-06-03,23.46811,121.37407,6.956834e-06
C0B040,大武崙,2023-06-03,25.166676,121.706993,0.999239
C1Z030,紅葉,2023-06-03,23.493119,121.338806,9.065515e-06
C1I050,丹大,2023-06-03,23.753747,121.141147,3.007014e-09
C0I080,信義,2023-06-03,23.689694,120.851036,3.4752375e-06
C2A880,福隆,2023-06-03,25.017842,121.942083,0.99807703
C0Z160,鳳林,2023-06-03,23.746114,121.453411,7.452264e-08
C0V210,復興,2023-06-03,23.222403,120.806089,1.4708979e-07
C0H990,昆陽,2023-06-03,24.121322,121.273642,6.485216e-09
C0S710,鹿野,2023-06-03,22.917711,121.122994,2.8152554e-08
C0I530,小奇萊,2023-06-03,24.131764,121.295717,6.9478476e-09
C0Z080,富源,2023-06-03,23.587642,121.378225,2.243058e-08
467441,高雄,2023-06-03,22.7304,120.3125,0.031951077
C1I140,卡奈托灣,2023-06-03,23.754364,121.087872,1.1187291e-09
C0I520,玉山風口,2023-06-03,23.470489,120.955994,1.3202364e-08
C1G691,下水埔,2023-06-03,23.816114,120.5676,0.006284448
C0X110,臺南市南區,2023-06-03,22.961189,120.188378,0.0016141438
C0V680,仁武,2023-06-03,22.701083,120.347722,0.0001622799
C2G840,北斗,2023-06-03,23.877586,120.514222,0.0044355313
C0R900,竹坑,2023-06-03,22.1385,120.7022,0.009012917
C0K250,崙背,2023-06-03,23.75555,120.318925,0.0014543765
C0G860,社頭,2023-06-03,23.897647,120.5862,0.09112534
C0X150,安定,2023-06-03,23.102614,120.227839,0.045834307
C0R590,里港,2023-06-03,22.77919,120.49459,0.68008506
C0E610,馬都安,2023-06-03,24.451272,120.930192,2.2273041e-09
C0E550,明德,2023-06-03,24.583486,120.885411,0.025672086
C0R150,三地門,2023-06-03,22.709889,120.639944,0.0006809654
C0G910,花壇,2023-06-03,24.032076,120.549461,0.060900595
C1D400,鳥嘴山,2023-06-03,24.71909,121.28387,5.309652e-09
C0K500,元長,2023-06-03,23.64981,120.315024,0.00052666385
C0F0B0,石岡,2023-06-03,24.276061,120.777644,1.4690869e-06
C2V250,甲仙,2023-06-03,23.080106,120.591758,1.758437e-06
C0SA20,金崙山,2023-06-03,22.567419,120.959667,9.763039e-09
C0V350,溪埔,2023-06-03,22.738578,120.446797,0.21392365
C0M660,溪口,2023-06-03,23.604131,120.403569,0.003365216
C1S880,壽卡,2023-06-03,22.238911,120.858903,0.12859537
72D680,桃改新埔分場,2023-06-03,24.834444,121.066111,0.0037769775
