站號,站名,日期,lat,lon,BlastGRU-TW
466881,新北,2023-09-27,24.9593,121.52,0.11939672
466900,淡水,2023-09-27,25.164889,121.448906,0.080485076
466920,臺北,2023-09-27,25.037658,121.514853,0.053245746
467350,澎湖,2023-09-27,23.565503,119.563094,0.94383025
467410,臺南,2023-09-27,22.993239,120.204772,0.9987073
467420,永康,2023-09-27,23.038386,120.2367,0.99873924
467790,墾丁雷達站,2023-09-27,21.948235,120.808028,0.9599863
C0A520,山佳,2023-09-27,24.974944,121.402008,0.09778048
C0A530,坪林,2023-09-27,24.938183,121.70975,0.22689806
C0A880,福隆,2023-09-27,25.017842,121.942083,0.15161848
C0A890,雙溪,2023-09-27,25.036003,121.864242,0.062214285
C0A920,富貴角,2023-09-27,25.263783,121.565258,0.056681037
C0AC80,文山,2023-09-27,25.00235,121.575728,0.06350105
C0ACA0,新莊,2023-09-27,25.051478,121.446756,0.08285402
C0AD00,三芝,2023-09-27,25.258131,121.501917,0.08752693
C0AH70,松山,2023-09-27,25.04871,121.55042,0.052544624
C0AH80,深坑,2023-09-27,25.002703,121.628328,0.06888052
C0AI00,五股,2023-09-27,25.07445,121.42728,0.2990159
C0AJ70,田寮,2023-09-27,25.2698,121.4886,0.0860792
