站號,站名,日期,lat,lon,BlastGRU-TW
466881,新北,2023-08-20,24.9593,121.52,0.18669716
466900,淡水,2023-08-20,25.164889,121.448906,0.6141726
466920,臺北,2023-08-20,25.037658,121.514853,0.23424904
466940,基隆,2023-08-20,25.133314,121.740475,0.7857072
466990,花蓮,2023-08-20,23.975128,121.613275,0.08235443
467050,新屋,2023-08-20,25.006744,121.047486,0.6061773
467080,宜蘭,2023-08-20,24.763975,121.756528,0.12970492
467270,田中,2023-08-20,23.873803,120.581286,0.9641962
467300,東吉島,2023-08-20,23.25695,119.667467,0.15294948
467350,澎湖,2023-08-20,23.565503,119.563094,0.6071001
467410,臺南,2023-08-20,22.993239,120.204772,0.008054166
467420,永康,2023-08-20,23.038386,120.2367,0.0107281525
467441,高雄,2023-08-20,22.7304,120.3125,0.011513733
467480,嘉義,2023-08-20,23.495925,120.432906,0.07544307
467490,臺中,2023-08-20,24.145736,120.684075,0.7989809
467540,大武,2023-08-20,22.355675,120.903789,0.83686227
467571,新竹,2023-08-20,24.827853,121.014219,0.6263942
467590,恆春,2023-08-20,22.003897,120.746339,0.96855927
467610,成功,2023-08-20,23.097486,121.373428,0.17669052
467620,蘭嶼,2023-08-20,22.036969,121.558339,0.9861776
467660,臺東,2023-08-20,22.752211,121.154586,0.4601046
467790,墾丁雷達站,2023-08-20,21.948235,120.808028,0.9783996
C0A520,山佳,2023-08-20,24.974944,121.402008,0.27680805
C0A530,坪林,2023-08-20,24.938183,121.70975,0.45553914
C0A540,四堵,2023-08-20,24.8926,121.745736,0.47106642
C0A550,泰平,2023-08-20,24.971197,121.823711,0.6625832
C0A560,福山,2023-08-20,24.776203,121.502811,0.9627472
C0A570,桶後,2023-08-20,24.848222,121.597992,0.3944718
C0A640,石碇,2023-08-20,24.993969,121.662917,0.24899372
C0A650,火燒寮,2023-08-20,25.002719,121.742892,0.58955383
C0A660,瑞芳,2023-08-20,25.113169,121.801147,0.27512372
C0A770,科教館,2023-08-20,25.096356,121.516507,0.47535935
C0A860,大坪,2023-08-20,25.165914,121.632969,0.9300587
C0A880,福隆,2023-08-20,25.017842,121.942083,0.13516934
C0A890,雙溪,2023-08-20,25.036003,121.864242,0.6245209
C0A920,富貴角,2023-08-20,25.263783,121.565258,0.9904569
C0A931,三和,2023-08-20,25.233153,121.595236,0.792642
C0A940,金山,2023-08-20,25.223628,121.643967,0.9683411
C0A950,鼻頭角,2023-08-20,25.129036,121.923372,0.19281282
C0A970,三貂角,2023-08-20,25.007606,122.002058,0.21249054
C0A980,社子,2023-08-20,25.109508,121.469681,0.46134293
C0A9C0,天母,2023-08-20,25.117494,121.537169,0.7573933
C0A9F0,內湖,2023-08-20,25.079422,121.57545,0.54479903
C0AC60,三峽,2023-08-20,24.939025,121.369728,0.18289661
C0AC70,信義,2023-08-20,25.037822,121.564597,0.1735701
C0AC80,文山,2023-08-20,25.00235,121.575728,0.21282926
C0ACA0,新莊,2023-08-20,25.051478,121.446756,0.56870395
C0AD00,三芝,2023-08-20,25.258131,121.501917,0.99763244
C0AD10,八里,2023-08-20,25.150211,121.403947,0.98467815
C0AD30,蘆洲,2023-08-20,25.086594,121.472331,0.47535935
C0AD40,土城,2023-08-20,24.973208,121.445169,0.2189974
C0AD50,鶯歌,2023-08-20,24.951533,121.346294,0.32693365
C0AG80,中和,2023-08-20,24.991622,121.491792,0.1746548
C0AH00,汐止,2023-08-20,25.066881,121.658778,0.4417097
C0AH10,永和,2023-08-20,25.01125,121.508111,0.17042047
C0AH40,平等,2023-08-20,25.129142,121.577086,0.8568048
C0AH50,林口,2023-08-20,25.072181,121.38084,0.54974216
C0AH70,松山,2023-08-20,25.04871,121.55042,0.1735701
C0AH80,深坑,2023-08-20,25.002703,121.628328,0.27643478
C0AI00,五股,2023-08-20,25.07445,121.42728,0.4711868
C0AI10,屈尺,2023-08-20,24.92184,121.54475,0.06421665
C0AI20,白沙灣,2023-08-20,25.283128,121.519058,0.9971639
C0AI30,三重,2023-08-20,25.057328,121.500629,0.3538059
C0AI40,石牌,2023-08-20,25.115597,121.513139,0.48712182
C0AJ20,野柳,2023-08-20,25.20703,121.690021,0.8988089
C0AJ30,淡水觀海,2023-08-20,25.184591,121.408616,0.9042498
C0AJ40,石門,2023-08-20,25.273672,121.601198,0.99491274
C0AJ50,水湳洞,2023-08-20,25.123695,121.862238,0.86572343
C0AJ60,六塊厝,2023-08-20,25.24,121.4481,0.9951643
C0AJ70,田寮,2023-08-20,25.2698,121.4886,0.9969769
C0AJ80,板橋,2023-08-20,25.0107,121.4489,0.26463705
C0AJ90,澳底,2023-08-20,25.0552,121.9253,0.15296562
C0B010,七堵,2023-08-20,25.094819,121.71713,0.42659453
C0B020,基隆嶼,2023-08-20,25.19141,121.78391,0.81629574
C0B040,大武崙,2023-08-20,25.166676,121.706993,0.70224833
C0B050,八斗子,2023-08-20,25.144754,121.79167,0.86100745
C0B060,暖暖,2023-08-20,25.0957,121.7403,0.81899637
C0C460,復興,2023-08-20,24.820208,121.352281,0.9945816
C0C480,桃園,2023-08-20,24.992425,121.323172,0.40335423
C0C490,八德,2023-08-20,24.928708,121.283289,0.25223216
C0C590,觀音,2023-08-20,25.027072,121.153317,0.99277246
C0C620,蘆竹,2023-08-20,25.084275,121.265767,0.96226287
C0C630,大溪,2023-08-20,24.882853,121.265547,0.6215202
C0C650,平鎮,2023-08-20,24.897503,121.214636,0.93880767
C0C660,楊梅,2023-08-20,24.912375,121.143047,0.93307704
C0C670,龍潭,2023-08-20,24.870056,121.221389,0.6472318
C0C680,龜山,2023-08-20,25.02846,121.38656,0.48412874
C0C700,中壢,2023-08-20,24.977661,121.256375,0.5431644
C0C710,大溪永福,2023-08-20,24.892936,121.324975,0.6663725
C0C720,竹圍,2023-08-20,25.112692,121.239824,0.95553035
C0C730,中大臨海站,2023-08-20,24.966126,121.008581,0.85589206
C0C740,觀音工業區,2023-08-20,25.064764,121.114856,0.96152467
C0C750,新興坑尾,2023-08-20,25.0061,121.0971,0.78875023
C0D430,峨眉,2023-08-20,24.6905,121.017189,0.94562733
C0D480,打鐵坑,2023-08-20,24.849664,121.150789,0.5084031
C0D540,橫山,2023-08-20,24.71116,121.11693,0.9575739
C0D560,竹東,2023-08-20,24.767147,121.057881,0.80557984
C0D580,寶山,2023-08-20,24.735006,121.025192,0.26610982
C0D590,新豐,2023-08-20,24.87068,120.97721,0.21166143
C0D650,湖口,2023-08-20,24.904794,121.043628,0.41355896
C0D660,新竹市東區,2023-08-20,24.798681,120.986942,0.55083954
C0D670,海天一線,2023-08-20,24.831986,120.914438,0.99144053
C0D680,香山濕地,2023-08-20,24.783581,120.914988,0.9842831
C0D690,外湖,2023-08-20,24.917735,120.968711,0.95943093
C0D700,關西,2023-08-20,24.7977,121.1732,0.62420785
C0E420,竹南,2023-08-20,24.708978,120.888897,0.9568324
C0E430,南庄,2023-08-20,24.601775,121.000214,0.9936588
C0E520,大湖,2023-08-20,24.41494,120.87087,0.9719373
C0E540,後龍,2023-08-20,24.606489,120.783933,0.98676986
C0E550,明德,2023-08-20,24.583486,120.885411,0.8733328
C0E590,通霄,2023-08-20,24.471892,120.704622,0.954744
C0E730,頭份,2023-08-20,24.688247,120.912206,0.78890854
C0E740,造橋,2023-08-20,24.637056,120.864778,0.7814705
C0E750,苗栗,2023-08-20,24.564569,120.824575,0.98593384
C0E780,銅鑼,2023-08-20,24.489681,120.790853,0.86839324
C0E791,卓蘭,2023-08-20,24.3126,120.8244,0.99822557
C0E810,西湖,2023-08-20,24.562947,120.7485,0.9824637
C0E820,獅潭,2023-08-20,24.539133,120.920042,0.98066604
C0E830,苑裡,2023-08-20,24.439714,120.653053,0.9891339
C0E850,大河,2023-08-20,24.618069,120.948578,0.9361923
C0E870,高鐵苗栗,2023-08-20,24.60725,120.826094,0.98740244
C0E910,海埔,2023-08-20,24.648767,120.772435,0.98643893
C0E920,通霄漁港,2023-08-20,24.498589,120.673876,0.9764606
C0E930,龍鳳,2023-08-20,24.700034,120.859125,0.9093053
C0F0B0,石岡,2023-08-20,24.276061,120.777644,0.9957019
C0F850,東勢,2023-08-20,24.246428,120.833047,0.9981039
C0F930,大甲,2023-08-20,24.347667,120.640403,0.9457895
C0F970,大坑,2023-08-20,24.173142,120.722289,0.72780454
C0F9A0,中竹林,2023-08-20,24.103556,120.751061,0.98973686
C0F9I0,神岡,2023-08-20,24.272481,120.658314,0.7176836
C0F9K0,大安,2023-08-20,24.345061,120.588025,0.9865163
C0F9L0,后里,2023-08-20,24.310436,120.729725,0.9592397
C0F9M0,豐原,2023-08-20,24.254322,120.720692,0.9045763
C0F9N0,大里,2023-08-20,24.092464,120.701378,0.8339726
C0F9O0,潭子,2023-08-20,24.213106,120.703933,0.48355895
C0F9P0,清水,2023-08-20,24.312297,120.562242,0.96059203
C0F9Q0,外埔,2023-08-20,24.347817,120.705686,0.76777184
C0F9R0,龍井,2023-08-20,24.184536,120.528972,0.9718756
C0F9S0,烏日,2023-08-20,24.107058,120.624103,0.90119094
C0F9T0,西屯,2023-08-20,24.179494,120.641275,0.79672575
C0F9U0,南屯,2023-08-20,24.137006,120.637969,0.7652767
C0F9X0,大雅(中科園區),2023-08-20,24.21528,120.62445,0.8703671
C0FA10,松柏,2023-08-20,24.429115,120.617482,0.98759216
C0FA20,溫寮,2023-08-20,24.372177,120.583125,0.98544115
C0FA30,梧棲,2023-08-20,24.256003,120.523381,0.9914085
C0FA40,臺中電廠,2023-08-20,24.2146,120.4907,0.9718756
C0FA50,霧峰,2023-08-20,24.0419,120.6995,0.9061986
C0G620,芬園,2023-08-20,24.015678,120.6213,0.95930016
C0G640,鹿港,2023-08-20,24.0753,120.430481,0.97663265
C0G650,員林,2023-08-20,23.946503,120.585597,0.9270164
C0G660,溪湖,2023-08-20,23.94835,120.479122,0.90434337
C0G720,溪州,2023-08-20,23.851589,120.499093,0.95496446
C0G730,二林,2023-08-20,23.903325,120.376081,0.94935924
C0G740,大城,2023-08-20,23.852487,120.320935,0.16183876
C0G770,福興,2023-08-20,24.041289,120.437669,0.9491964
C0G780,秀水,2023-08-20,24.03405,120.503869,0.89748657
C0G800,埔鹽,2023-08-20,24.000394,120.431683,0.91861135
C0G810,埔心,2023-08-20,23.947633,120.525456,0.90898025
C0G820,田尾,2023-08-20,23.901669,120.509389,0.90183365
C0G830,埤頭,2023-08-20,23.866003,120.452806,0.9772004
C0G840,北斗,2023-08-20,23.877586,120.514222,0.90183365
C0G860,社頭,2023-08-20,23.897647,120.5862,0.9203792
C0G870,芳苑,2023-08-20,23.922303,120.320025,0.22003834
C0G880,二水,2023-08-20,23.810742,120.6173,0.9808662
C0G890,伸港,2023-08-20,24.148933,120.484403,0.9188696
C0G900,線西,2023-08-20,24.143358,120.443536,0.99329805
C0G910,花壇,2023-08-20,24.032076,120.549461,0.9134743
C0G920,永靖,2023-08-20,23.924703,120.547533,0.9043169
C0G940,竹塘,2023-08-20,23.848253,120.386764,0.9774335
C0G950,防潮門,2023-08-20,24.1835,120.4871,0.97020817
C0G960,福寶,2023-08-20,24.0443,120.3814,0.99385756
C0G970,三豐,2023-08-20,23.882,120.2895,0.22003834
C0H890,埔里,2023-08-20,23.972169,120.952425,0.8602167
C0H950,中寮,2023-08-20,23.884447,120.766406,0.9611125
C0H960,草屯,2023-08-20,23.973672,120.68085,0.98173213
C0I110,竹山,2023-08-20,23.761225,120.688156,0.99225605
C0I360,水里,2023-08-20,23.812553,120.849792,0.5434589
C0I380,集集,2023-08-20,23.828206,120.801467,0.9653694
C0I410,名間,2023-08-20,23.837053,120.701447,0.9865622
C0I420,國姓,2023-08-20,24.037803,120.855072,0.9236383
C0I460,南投,2023-08-20,23.911469,120.687331,0.9807203
C0K250,崙背,2023-08-20,23.75555,120.318925,0.075495616
C0K280,四湖,2023-08-20,23.630414,120.227125,0.064038016
C0K291,宜梧,2023-08-20,23.536281,120.169329,0.03921039
C0K330,虎尾,2023-08-20,23.719183,120.442036,0.91043717
C0K390,土庫,2023-08-20,23.679029,120.395574,0.927568
C0K400,斗六,2023-08-20,23.720583,120.541127,0.95992
C0K410,北港,2023-08-20,23.573957,120.292802,0.051427606
C0K420,西螺,2023-08-20,23.800407,120.467394,0.9552039
C0K430,褒忠,2023-08-20,23.690938,120.303634,0.06544626
C0K440,二崙,2023-08-20,23.772797,120.408944,0.889628
C0K450,大埤,2023-08-20,23.646074,120.431537,0.9167039
C0K460,斗南,2023-08-20,23.678734,120.478359,0.933811
C0K470,林內,2023-08-20,23.748675,120.609642,0.96965563
C0K480,莿桐,2023-08-20,23.761192,120.502372,0.94183874
C0K500,元長,2023-08-20,23.64981,120.315024,0.06275685
C0K510,水林,2023-08-20,23.572924,120.24597,0.037547387
C0K530,臺西,2023-08-20,23.701547,120.197559,0.08649645
C0K550,蔦松,2023-08-20,23.514319,120.229736,0.03865113
C0K560,棋山,2023-08-20,23.68645,120.603417,0.97904265
C0K580,高鐵雲林,2023-08-20,23.737456,120.417944,0.88049227
C0K590,雲林東勢,2023-08-20,23.674192,120.255721,0.06207878
C0K600,箔子寮,2023-08-20,23.6197,120.14,0.04008511
C0M410,馬頭山,2023-08-20,23.324361,120.582017,0.9986262
C0M520,東後寮,2023-08-20,23.369908,120.248065,0.056644898
C0M640,中埔,2023-08-20,23.42538,120.5229,0.9671401
C0M650,朴子,2023-08-20,23.43463,120.23902,0.038597524
C0M660,溪口,2023-08-20,23.604131,120.403569,0.06934099
C0M670,大林,2023-08-20,23.600616,120.45841,0.09285922
C0M680,太保,2023-08-20,23.455062,120.331455,0.059609488
C0M690,水上,2023-08-20,23.419734,120.388909,0.06532407
C0M700,竹崎,2023-08-20,23.526178,120.555508,0.9914765
C0M710,東石,2023-08-20,23.458927,120.15385,0.038506016
C0M720,番路,2023-08-20,23.464657,120.554156,0.99288714
C0M730,嘉義市東區,2023-08-20,23.457673,120.460531,0.087343946
C0M740,六腳,2023-08-20,23.492871,120.290625,0.0555065
C0M750,布袋,2023-08-20,23.380878,120.167789,0.0272519
C0M760,民雄,2023-08-20,23.551754,120.428457,0.064649016
C0M770,嘉義梅山,2023-08-20,23.585398,120.555587,0.9908123
C0M780,鹿草,2023-08-20,23.41134,120.30835,0.07048238
C0M790,新港,2023-08-20,23.553269,120.345728,0.07535879
C0M800,茶山,2023-08-20,23.299075,120.664767,0.9633082
C0M880,好美里,2023-08-20,23.3364,120.138,0.023614153
C0N010,鯤鯓國小,2023-08-20,23.1879,120.0889,0.013576331
C0N020,城西,2023-08-20,23.0568,120.0956,0.0072810426
C0N030,四草,2023-08-20,23.0235,120.1116,0.007046492
C0N040,蘆竹溝,2023-08-20,23.2344,120.0961,0.013979095
C0N050,蚵寮,2023-08-20,23.301,120.1104,0.016765287
C0O810,曾文,2023-08-20,23.219681,120.497328,0.087784275
C0O830,北寮,2023-08-20,23.079561,120.495008,0.94096255
C0O840,王爺宮,2023-08-20,23.222064,120.40085,0.14244407
C0O860,大內,2023-08-20,23.11885,120.36083,0.038686022
C0O900,善化,2023-08-20,23.112883,120.297219,0.027513586
C0O930,玉井,2023-08-20,23.126042,120.46055,0.06356636
C0O950,安南,2023-08-20,23.076694,120.144861,0.008826343
C0O960,崎頂,2023-08-20,22.959547,120.369317,0.60074043
C0O970,虎頭埤,2023-08-20,23.021375,120.347878,0.029838985
C0O980,新市,2023-08-20,23.061614,120.298197,0.020671308
C0O990,媽廟,2023-08-20,22.99175,120.293525,0.012669477
C0R150,三地門,2023-08-20,22.709889,120.639944,0.053127125
C0R160,鹽埔,2023-08-20,22.739558,120.530778,0.10059429
C0R170,屏東,2023-08-20,22.660269,120.494072,0.013325192
C0R190,赤山,2023-08-20,22.592333,120.614306,0.024111593
C0R220,潮州,2023-08-20,22.534361,120.54,0.06636758
C0R240,來義,2023-08-20,22.527306,120.625111,0.01839844
C0R260,春日,2023-08-20,22.370361,120.628306,0.008276122
C0R270,琉球嶼,2023-08-20,22.332244,120.362236,0.03856324
C0R280,檳榔,2023-08-20,22.076078,120.836777,0.9935536
C0R320,車城,2023-08-20,22.0744,120.716247,0.9546358
C0R341,牡丹,2023-08-20,22.130036,120.792639,0.8931955
C0R350,貓鼻頭,2023-08-20,21.921774,120.7358,0.9723052
C0R470,高樹,2023-08-20,22.826389,120.600806,0.0541274
C0R480,長治,2023-08-20,22.693128,120.542622,0.10573655
C0R490,九如,2023-08-20,22.7405,120.490503,0.015229852
C0R520,崁頂,2023-08-20,22.514781,120.506914,0.009506004
C0R540,佳冬,2023-08-20,22.419456,120.552375,0.008942218
C0R550,新埤,2023-08-20,22.467947,120.582894,0.013270411
C0R560,新園,2023-08-20,22.5434,120.461558,0.009442707
C0R570,麟洛,2023-08-20,22.65078,120.52719,0.013295377
C0R580,南州,2023-08-20,22.48591,120.50274,0.009549847
C0R590,里港,2023-08-20,22.77919,120.49459,0.123394616
C0R620,墾雷,2023-08-20,21.900836,120.855269,0.97459817
C0R640,東港,2023-08-20,22.46247,120.44074,0.010663291
C0R650,竹田,2023-08-20,22.58486,120.54344,0.08667423
C0R660,枋寮,2023-08-20,22.367722,120.590647,0.013974561
C0R670,楓港,2023-08-20,22.190131,120.692156,0.69586146
C0R680,佳樂水,2023-08-20,21.993578,120.861633,0.9631051
C0R690,墾丁,2023-08-20,21.966756,120.810269,0.9937854
C0R700,枋山,2023-08-20,22.246844,120.661086,0.3333094
C0R710,龍磐,2023-08-20,21.931672,120.838942,0.9882031
C0R720,旭海,2023-08-20,22.205403,120.887614,0.97162896
C0R730,大坪頂,2023-08-20,22.024633,120.69355,0.9890999
C0R740,獅子,2023-08-20,22.201569,120.70525,0.7770056
C0R760,南仁湖,2023-08-20,22.084681,120.863353,0.99300927
C0R770,保力,2023-08-20,22.071122,120.764111,0.98411995
C0R780,滿州,2023-08-20,22.024403,120.839892,0.9759118
C0R790,九棚,2023-08-20,22.14195,120.889281,0.9696162
C0R800,丹路,2023-08-20,22.204481,120.750989,0.70431894
C0R810,內獅,2023-08-20,22.305064,120.642986,0.31879056
C0R830,高士,2023-08-20,22.121825,120.836781,0.9924958
C0R850,林邊,2023-08-20,22.4634,120.5339,0.008978336
C0R860,鼻頭,2023-08-20,22.1043,120.8979,0.99162704
C0R870,興海,2023-08-20,21.9752,120.8439,0.9631051
C0R880,後壁湖,2023-08-20,21.9457,120.7457,0.946024
C0R890,山海,2023-08-20,21.9878,120.7091,0.9491119
C0R900,竹坑,2023-08-20,22.1385,120.7022,0.21027857
C0R910,下寮,2023-08-20,22.3929,120.5548,0.008942218
C0R920,塭仔,2023-08-20,22.4169,120.5197,0.010490314
C0R930,萬丹,2023-08-20,22.5885,120.4851,0.04815053
C0R940,加祿堂,2023-08-20,22.3363,120.6217,0.008399174
C0S710,鹿野,2023-08-20,22.917711,121.122994,0.2460101
C0S730,綠島,2023-08-20,22.6672,121.47533,0.17460316
C0S740,池上,2023-08-20,23.119628,121.209469,0.09009425
C0S770,大溪山,2023-08-20,22.478475,120.943325,0.96854806
C0S790,金崙,2023-08-20,22.538122,120.966875,0.9463535
C0S810,東河,2023-08-20,22.972672,121.303986,0.21661751
C0S830,長濱,2023-08-20,23.286817,121.411975,0.5453693
C0S840,南田,2023-08-20,22.279725,120.889208,0.89923155
C0S890,關山,2023-08-20,23.0395,121.175017,0.09299679
C0S900,蘭嶼高中,2023-08-20,22.04909,121.51214,0.9937043
C0S910,蘭嶼燈塔,2023-08-20,22.081197,121.503117,0.9956747
C0S920,金峰嘉蘭,2023-08-20,22.594789,120.960825,0.92378634
C0S930,延平,2023-08-20,22.902581,121.084058,0.49951118
C0S940,石寧山,2023-08-20,23.223772,121.406639,0.3035581
C0S950,七塊厝,2023-08-20,22.954453,121.229922,0.46378314
C0S960,香蘭,2023-08-20,22.587569,120.993375,0.8041401
C0S970,加津林,2023-08-20,22.416211,120.926942,0.7173269
C0S990,山豬窟,2023-08-20,22.318619,120.857372,0.97956556
C0SA00,歷坵,2023-08-20,22.520969,120.89185,0.97102463
C0SA10,檳榔四格山,2023-08-20,22.810031,121.109308,0.852009
C0SA30,都歷,2023-08-20,23.020333,121.323642,0.17015119
C0SA40,瑞和,2023-08-20,22.974361,121.156697,0.12380459
C0SA60,知本（水試所）,2023-08-20,22.702394,121.082761,0.500566
C0SA80,土坂,2023-08-20,22.453108,120.887572,0.93366045
C0SA90,達仁林場,2023-08-20,22.264347,120.823972,0.9613282
C0T870,鯉魚潭,2023-08-20,23.935639,121.508944,0.11404095
C0T900,西林,2023-08-20,23.8119,121.441458,0.04219144
C0T960,光復,2023-08-20,23.660694,121.424964,0.07736386
C0T9A0,月眉山,2023-08-20,23.809928,121.539828,0.44018495
C0T9D0,和中,2023-08-20,24.26676,121.74103,0.10721022
C0T9E0,大坑,2023-08-20,23.880628,121.581981,0.19095446
C0T9F0,水璉,2023-08-20,23.797131,121.542514,0.2087347
C0T9I0,豐濱,2023-08-20,23.583897,121.514806,0.17638537
C0T9M0,靜浦,2023-08-20,23.455167,121.495028,0.17876962
C0T9N0,富里,2023-08-20,23.171639,121.249378,0.19707702
C0U600,礁溪,2023-08-20,24.817539,121.765608,0.13204622
C0U650,玉蘭,2023-08-20,24.675286,121.587061,0.07946327
C0U750,龜山島,2023-08-20,24.841667,121.953133,0.1674501
C0U760,東澳,2023-08-20,24.52196,121.83318,0.6899813
C0U770,南澳,2023-08-20,24.44935,121.81022,0.38120818
C0U780,五結,2023-08-20,24.68637,121.79794,0.3078024
C0U860,頭城,2023-08-20,24.85323,121.8308,0.16103908
C0U870,大礁溪,2023-08-20,24.791042,121.675047,0.14597362
C0U880,北關,2023-08-20,24.9072,121.8734,0.83616096
C0U890,三星,2023-08-20,24.66812,121.65302,0.20893851
C0U900,內城,2023-08-20,24.71813,121.68766,0.14489324
C0U910,冬山,2023-08-20,24.63373,121.7937,0.5736296
C0U940,羅東,2023-08-20,24.68184,121.74934,0.14847162
C0U970,大福,2023-08-20,24.80064,121.81389,0.1413821
C0U990,員山,2023-08-20,24.74435,121.72247,0.14728792
C0UA00,土場,2023-08-20,24.576533,121.495333,0.9766883
C0UA80,大溪漁港,2023-08-20,24.941801,121.902955,0.17377317
C0UA90,石城,2023-08-20,24.980444,121.951214,0.14278835
C0UB00,淡江大學蘭陽校園,2023-08-20,24.823239,121.730383,0.15222195
C0UB10,蘇澳,2023-08-20,24.5969,121.8571,0.47343445
C0UB20,壯圍,2023-08-20,24.7359,121.8163,0.13467173
C0V250,甲仙,2023-08-20,23.080106,120.591758,0.95533925
C0V260,月眉,2023-08-20,22.971003,120.539853,0.7807454
C0V310,美濃,2023-08-20,22.898742,120.519153,0.030173097
C0V350,溪埔,2023-08-20,22.738578,120.446797,0.014123916
C0V360,內門,2023-08-20,22.975481,120.466769,0.04470756
C0V370,古亭坑,2023-08-20,22.893178,120.401947,0.017346421
C0V400,阿公店,2023-08-20,22.804194,120.355528,0.011465835
C0V440,鳳山,2023-08-20,22.646653,120.356122,0.009814399
C0V450,鳳森,2023-08-20,22.545064,120.392592,0.008463171
C0V490,新興,2023-08-20,22.627422,120.298803,0.008669587
C0V530,阿蓮,2023-08-20,22.883208,120.327508,0.008660158
C0V610,梓官,2023-08-20,22.760558,120.267211,0.010915565
C0V620,永安,2023-08-20,22.82315,120.236856,0.010818963
C0V630,茄萣,2023-08-20,22.906642,120.182608,0.0076270043
C0V640,湖內,2023-08-20,22.887139,120.2445,0.007920256
C0V650,彌陀,2023-08-20,22.783806,120.246361,0.010818963
C0V660,岡山,2023-08-20,22.797078,120.294958,0.010858779
C0V680,仁武,2023-08-20,22.701083,120.347722,0.012009342
C0V690,鼓山,2023-08-20,22.623325,120.275575,0.012091014
C0V700,三民,2023-08-20,22.645017,120.311233,0.008669587
C0V710,苓雅,2023-08-20,22.622742,120.330669,0.00882201
C0V720,林園,2023-08-20,22.507747,120.394511,0.010825401
C0V730,大寮,2023-08-20,22.605614,120.395717,0.00912355
C0V740,旗山,2023-08-20,22.888614,120.483597,0.030640645
C0V750,路竹,2023-08-20,22.854997,120.259439,0.009728425
C0V760,橋頭,2023-08-20,22.757806,120.30575,0.010918609
C0V770,大社,2023-08-20,22.730306,120.346639,0.013068122
C0V790,萬山,2023-08-20,22.905944,120.688056,0.97467697
C0V800,六龜,2023-08-20,22.997889,120.633583,0.91536856
C0V810,左營,2023-08-20,22.67491,120.28491,0.009304685
C0V820,小林,2023-08-20,23.148408,120.63325,0.98519295
C0V840,鳳鼻頭,2023-08-20,22.5083,120.3591,0.010867782
C0V850,蚵仔寮,2023-08-20,22.7256,120.2527,0.011465219
C0V860,南寮,2023-08-20,22.7616,120.2339,0.011438255
C0V870,文安,2023-08-20,22.8025,120.2164,0.011996986
C0V880,興達,2023-08-20,22.8778,120.2127,0.0076270043
C0V890,前鎮,2023-08-20,22.5718,120.3117,0.011668387
C0V900,汕尾,2023-08-20,22.4782,120.4151,0.0080835
C0X050,東河,2023-08-20,23.296598,120.385608,0.07560603
C0X060,下營,2023-08-20,23.22695,120.256261,0.052302323
C0X080,佳里,2023-08-20,23.173039,120.145086,0.008327478
C0X100,臺南市北區,2023-08-20,23.010394,120.194228,0.0081199715
C0X110,臺南市南區,2023-08-20,22.961189,120.188378,0.0076128044
C0X120,麻豆,2023-08-20,23.183289,120.248611,0.039781168
C0X130,官田,2023-08-20,23.193217,120.315422,0.06790926
C0X140,西港,2023-08-20,23.125608,120.203108,0.012084762
C0X150,安定,2023-08-20,23.102614,120.227839,0.015191923
C0X160,仁德,2023-08-20,22.968258,120.257689,0.00772374
C0X170,關廟,2023-08-20,22.963017,120.327797,0.009460134
C0X180,山上,2023-08-20,23.0757,120.363253,0.06275312
C0X190,安平,2023-08-20,22.993161,120.152181,0.008144599
C0X200,左鎮,2023-08-20,23.056758,120.408522,0.061071336
C0X210,白河,2023-08-20,23.347466,120.414427,0.10468552
C0X220,學甲,2023-08-20,23.230367,120.182187,0.027036427
C0X230,鹽水,2023-08-20,23.272621,120.247641,0.050959636
C0X240,關子嶺,2023-08-20,23.331169,120.508025,0.99506634
C0X250,新營,2023-08-20,23.310689,120.316681,0.071903355
C0X260,後壁,2023-08-20,23.366358,120.362326,0.091875724
C0X280,將軍,2023-08-20,23.214999,120.13577,0.0097683715
C0X290,北門,2023-08-20,23.267772,120.125481,0.012569085
C0X300,鹿寮,2023-08-20,23.386047,120.477331,0.969133
C0X310,七股,2023-08-20,23.147289,120.086253,0.012279463
C0X320,柳營,2023-08-20,23.253328,120.375253,0.07347301
C0Z020,明里,2023-08-20,23.208717,121.262342,0.13349926
C0Z061,玉里,2023-08-20,23.3215,121.339656,0.10702142
C0Z070,舞鶴,2023-08-20,23.46811,121.37407,0.13117108
C0Z080,富源,2023-08-20,23.587642,121.378225,0.042645216
C0Z100,東華,2023-08-20,23.89525,121.549833,0.058312763
C0Z150,吉安光華,2023-08-20,23.930925,121.595153,0.08908358
C0Z160,鳳林,2023-08-20,23.746114,121.453411,0.041124523
C0Z170,卓溪,2023-08-20,23.3443,121.3029,0.134862
C0Z180,新城,2023-08-20,24.03946,121.60454,0.09329753
C0Z190,富世,2023-08-20,24.14743,121.6297,0.6581694
C0Z200,萬榮,2023-08-20,23.709219,121.420106,0.059816424
C0Z210,瑞穗,2023-08-20,23.5239,121.39021,0.07390208
C0Z230,和平,2023-08-20,24.30717,121.77007,0.28757384
C0Z270,蕃薯寮,2023-08-20,23.73835,121.540108,0.19155036
C0Z280,德武,2023-08-20,23.47426,121.41071,0.23953089
C0Z300,東里,2023-08-20,23.26853,121.30547,0.13875367
C0Z310,清水斷崖,2023-08-20,24.218294,121.689142,0.21797639
C0Z330,安通山,2023-08-20,23.290728,121.348528,0.4934323
