站號,站名,日期,lat,lon,BlastGRU-TW
12J990,口湖工作站,2023-12-08,23.589978,120.180394,0.0033738185
12Q970,東港工作站,2023-12-08,22.479997,120.466058,0.058367472
12Q980,恆春工作站,2023-12-08,22.079678,120.714425,0.013318874
466881,新北,2023-12-08,24.9593,121.52,0.0076749194
466900,淡水,2023-12-08,25.164889,121.448906,0.0111208595
466920,臺北,2023-12-08,25.037658,121.514853,0.14438325
466940,基隆,2023-12-08,25.133314,121.740475,0.00082180556
466990,花蓮,2023-12-08,23.975128,121.613275,0.008658127
467050,新屋,2023-12-08,25.006744,121.047486,0.008694116
467080,宜蘭,2023-12-08,24.763975,121.756528,0.006981618
467270,田中,2023-12-08,23.873803,120.581286,0.011804446
467300,東吉島,2023-12-08,23.25695,119.667467,0.0021983343
467350,澎湖,2023-12-08,23.565503,119.563094,0.001521607
467410,臺南,2023-12-08,22.993239,120.204772,0.41750044
467420,永康,2023-12-08,23.038386,120.2367,0.6249791
467441,高雄,2023-12-08,22.7304,120.3125,0.13441259
467480,嘉義,2023-12-08,23.495925,120.432906,0.09933362
467490,臺中,2023-12-08,24.145736,120.684075,0.027549254
467540,大武,2023-12-08,22.355675,120.903789,0.082208365
467571,新竹,2023-12-08,24.827853,121.014219,0.0044550877
467590,恆春,2023-12-08,22.003897,120.746339,0.09173408
467610,成功,2023-12-08,23.097486,121.373428,0.025609363
467620,蘭嶼,2023-12-08,22.036969,121.558339,0.00096752
467660,臺東,2023-12-08,22.752211,121.154586,0.01461039
467790,墾丁雷達站,2023-12-08,21.948235,120.808028,0.004377315
72AI40,桃改樹林分場,2023-12-08,24.944503,121.386972,0.0064726854
72C440,桃園農改,2023-12-08,24.950944,121.030583,0.005196785
72C440,桃園農改場,2023-12-08,24.950944,121.030583,0.005196785
72D680,桃改新埔分場,2023-12-08,24.834444,121.066111,0.0032030072
72G600,臺中農改,2023-12-08,24.003028,120.534389,0.09216041
72G600,臺中農改場,2023-12-08,24.003028,120.534389,0.09216042
72K220,南改斗南分場,2023-12-08,23.634556,120.477333,0.025856355
72M360,南改義竹分場,2023-12-08,23.360694,120.279361,0.113080435
72M700,南改鹿草分場,2023-12-08,23.416869,120.283061,0.34286487
72N100,臺南農改,2023-12-08,23.0605,120.342194,0.63662916
72N100,臺南農改場,2023-12-08,23.0605,120.342194,0.63662916
72N240,七股研究中心,2023-12-08,23.081672,120.062894,0.03676256
72Q010,高雄農改,2023-12-08,22.709333,120.525889,0.03497634
72Q010,高雄農改場,2023-12-08,22.709333,120.525889,0.034976296
72S200,東改班鳩分場,2023-12-08,22.829528,121.077694,0.0058546546
72S590,東改賓朗果園,2023-12-08,22.813889,121.071278,0.0028925915
72T250,花蓮農改,2023-12-08,23.975222,121.563889,0.05313706
72T250,花蓮農改場,2023-12-08,23.975222,121.563889,0.05313706
72U480,花改蘭陽分場,2023-12-08,24.686306,121.716583,0.054578014
72V140,高改旗南分場,2023-12-08,22.857861,120.516667,0.09514924
82A750,茶改北部分場,2023-12-08,24.955778,121.631222,0.0056999368
82C160,茶改場,2023-12-08,24.908472,121.185333,0.0016010521
82H840,茶改南部分場,2023-12-08,23.762528,120.7405,0.0026207755
82S580,茶改東部分場,2023-12-08,22.907694,121.130139,0.0064195506
A2C560,農工中心,2023-12-08,24.985917,121.239833,0.014284155
A2K360,水試臺西試驗場,2023-12-08,23.717231,120.190522,0.002610746
A2K570,古坑花卉中心,2023-12-08,23.63353,120.55239,0.02596868
A2K630,臺大雲林校區,2023-12-08,23.730628,120.423903,0.047437478
A2N290,臺南蘭花園區,2023-12-08,23.340258,120.379661,0.5018206
B2E890,畜試北區分所,2023-12-08,24.527806,120.770972,0.015824316
B2N890,畜產試驗所,2023-12-08,23.058972,120.336406,0.63662916
B2N890,畜試所,2023-12-08,23.058972,120.336406,0.63662916
B2Q810,畜試南區分所,2023-12-08,21.945583,120.802167,0.0084760655
B2U990,畜試東區分所,2023-12-08,24.669039,121.832561,0.21702288
C0A520,山佳,2023-12-08,24.974944,121.402008,0.01104094
C0A530,坪林,2023-12-08,24.938183,121.70975,0.0021000959
C0A540,四堵,2023-12-08,24.8926,121.745736,0.0017400824
C0A550,泰平,2023-12-08,24.971197,121.823711,0.0045881784
C0A560,福山,2023-12-08,24.776203,121.502811,0.05353633
C0A570,桶後,2023-12-08,24.848222,121.597992,0.024666904
C0A640,石碇,2023-12-08,24.993969,121.662917,0.00045238808
C0A650,火燒寮,2023-12-08,25.002719,121.742892,0.0029160897
C0A660,瑞芳,2023-12-08,25.113169,121.801147,0.00082409446
C0A770,科教館,2023-12-08,25.096356,121.516507,0.11491187
C0A860,大坪,2023-12-08,25.165914,121.632969,0.00046671592
C0A880,福隆,2023-12-08,25.017842,121.942083,0.01775536
C0A890,雙溪,2023-12-08,25.036003,121.864242,0.0052252836
C0A920,富貴角,2023-12-08,25.263783,121.565258,0.00031563875
C0A931,三和,2023-12-08,25.233153,121.595236,0.00045248496
C0A940,金山,2023-12-08,25.223628,121.643967,0.002042068
C0A950,鼻頭角,2023-12-08,25.129036,121.923372,0.0006807068
C0A970,三貂角,2023-12-08,25.007606,122.002058,0.0035206021
C0A980,社子,2023-12-08,25.109508,121.469681,0.013836164
C0A9C0,天母,2023-12-08,25.117494,121.537169,0.077566534
C0A9F0,內湖,2023-12-08,25.079422,121.57545,0.08004335
C0AC60,三峽,2023-12-08,24.939025,121.369728,0.005888963
C0AC70,信義,2023-12-08,25.037822,121.564597,0.11505042
C0AC80,文山,2023-12-08,25.00235,121.575728,0.015551632
C0ACA0,新莊,2023-12-08,25.051478,121.446756,0.082782514
C0AD00,三芝,2023-12-08,25.258131,121.501917,0.0010637328
C0AD10,八里,2023-12-08,25.150211,121.403947,0.005939642
C0AD30,蘆洲,2023-12-08,25.086594,121.472331,0.11491182
C0AD40,土城,2023-12-08,24.973208,121.445169,0.008250682
C0AD50,鶯歌,2023-12-08,24.951533,121.346294,0.005153902
C0AG80,中和,2023-12-08,24.991622,121.491792,0.02008186
C0AH00,汐止,2023-12-08,25.066881,121.658778,0.0072070067
C0AH10,永和,2023-12-08,25.01125,121.508111,0.020839566
C0AH40,平等,2023-12-08,25.129142,121.577086,0.00093335164
C0AH50,林口,2023-12-08,25.072181,121.38084,0.009848122
C0AH70,松山,2023-12-08,25.04871,121.55042,0.115050524
C0AH80,深坑,2023-12-08,25.002703,121.628328,0.011332074
C0AI00,五股,2023-12-08,25.07445,121.42728,0.018177409
C0AI10,屈尺,2023-12-08,24.92184,121.54475,0.0078155445
C0AI20,白沙灣,2023-12-08,25.283128,121.519058,0.0012536717
C0AI30,三重,2023-12-08,25.057328,121.500629,0.15013963
C0AI40,石牌,2023-12-08,25.115597,121.513139,0.13931507
C0AJ20,野柳,2023-12-08,25.20703,121.690021,0.001321176
C0AJ30,淡水觀海,2023-12-08,25.184591,121.408616,0.012096226
C0AJ40,石門,2023-12-08,25.273672,121.601198,0.00019476227
C0AJ50,水湳洞,2023-12-08,25.123695,121.862238,0.0012799632
C0AJ60,六塊厝,2023-12-08,25.24,121.4481,0.0021260644
C0AJ70,田寮,2023-12-08,25.2698,121.4886,0.0014021571
C0AJ80,板橋,2023-12-08,25.0107,121.4489,0.017516928
C0AJ90,澳底,2023-12-08,25.0552,121.9253,0.0039039706
C0B010,七堵,2023-12-08,25.094819,121.71713,0.0026472195
C0B020,基隆嶼,2023-12-08,25.19141,121.78391,0.00022205466
C0B040,大武崙,2023-12-08,25.166676,121.706993,0.0009668657
C0B050,八斗子,2023-12-08,25.144754,121.79167,0.0007053185
C0B060,暖暖,2023-12-08,25.0957,121.7403,0.0008815944
C0C460,復興,2023-12-08,24.820208,121.352281,0.0024927836
C0C480,桃園,2023-12-08,24.992425,121.323172,0.015650846
C0C490,八德,2023-12-08,24.928708,121.283289,0.0037458707
C0C590,觀音,2023-12-08,25.027072,121.153317,0.002786446
C0C620,蘆竹,2023-12-08,25.084275,121.265767,0.0077020368
C0C630,大溪,2023-12-08,24.882853,121.265547,0.0018036291
C0C650,平鎮,2023-12-08,24.897503,121.214636,0.0013984279
C0C660,楊梅,2023-12-08,24.912375,121.143047,0.002443094
C0C670,龍潭,2023-12-08,24.870056,121.221389,0.0013391281
C0C680,龜山,2023-12-08,25.02846,121.38656,0.010676227
C0C700,中壢,2023-12-08,24.977661,121.256375,0.013277766
C0C710,大溪永福,2023-12-08,24.892936,121.324975,0.0016836909
C0C720,竹圍,2023-12-08,25.112692,121.239824,0.0054193074
C0C730,中大臨海站,2023-12-08,24.966126,121.008581,0.0056721643
C0C740,觀音工業區,2023-12-08,25.064764,121.114856,0.0031169725
C0C750,新興坑尾,2023-12-08,25.0061,121.0971,0.00843504
C0D430,峨眉,2023-12-08,24.6905,121.017189,0.012285191
C0D480,打鐵坑,2023-12-08,24.849664,121.150789,0.0031215395
C0D540,橫山,2023-12-08,24.71116,121.11693,0.013827956
C0D560,竹東,2023-12-08,24.767147,121.057881,0.0120407315
C0D580,寶山,2023-12-08,24.735006,121.025192,0.028144505
C0D590,新豐,2023-12-08,24.87068,120.97721,0.0021543219
C0D650,湖口,2023-12-08,24.904794,121.043628,0.0041685835
C0D660,新竹市東區,2023-12-08,24.798681,120.986942,0.0038339715
C0D670,海天一線,2023-12-08,24.831986,120.914438,0.0028424112
C0D680,香山濕地,2023-12-08,24.783581,120.914988,0.0031910948
C0D690,外湖,2023-12-08,24.917735,120.968711,0.0034765718
C0D700,關西,2023-12-08,24.7977,121.1732,0.0019511129
C0E420,竹南,2023-12-08,24.708978,120.888897,0.0040603788
C0E430,南庄,2023-12-08,24.601775,121.000214,0.015935093
C0E520,大湖,2023-12-08,24.41494,120.87087,0.015489287
C0E540,後龍,2023-12-08,24.606489,120.783933,0.009229803
C0E550,明德,2023-12-08,24.583486,120.885411,0.012728573
C0E590,通霄,2023-12-08,24.471892,120.704622,0.034071736
C0E730,頭份,2023-12-08,24.688247,120.912206,0.008212485
C0E740,造橋,2023-12-08,24.637056,120.864778,0.008196965
C0E750,苗栗,2023-12-08,24.564569,120.824575,0.013455413
C0E780,銅鑼,2023-12-08,24.489681,120.790853,0.01483514
C0E791,卓蘭,2023-12-08,24.3126,120.8244,0.017414011
C0E810,西湖,2023-12-08,24.562947,120.7485,0.010082474
C0E820,獅潭,2023-12-08,24.539133,120.920042,0.020077687
C0E830,苑裡,2023-12-08,24.439714,120.653053,0.0024813772
C0E850,大河,2023-12-08,24.618069,120.948578,0.019148815
C0E870,高鐵苗栗,2023-12-08,24.60725,120.826094,0.009036005
C0E910,海埔,2023-12-08,24.648767,120.772435,0.001011955
C0E920,通霄漁港,2023-12-08,24.498589,120.673876,0.031216508
C0E930,龍鳳,2023-12-08,24.700034,120.859125,0.004549838
C0F0B0,石岡,2023-12-08,24.276061,120.777644,0.028084928
C0F850,東勢,2023-12-08,24.246428,120.833047,0.008947921
C0F930,大甲,2023-12-08,24.347667,120.640403,0.00955646
C0F970,大坑,2023-12-08,24.173142,120.722289,0.017609835
C0F9A0,中竹林,2023-12-08,24.103556,120.751061,0.004571173
C0F9I0,神岡,2023-12-08,24.272481,120.658314,0.018595254
C0F9K0,大安,2023-12-08,24.345061,120.588025,0.0037091589
C0F9L0,后里,2023-12-08,24.310436,120.729725,0.033952348
C0F9M0,豐原,2023-12-08,24.254322,120.720692,0.025729485
C0F9N0,大里,2023-12-08,24.092464,120.701378,0.03891474
C0F9O0,潭子,2023-12-08,24.213106,120.703933,0.023496654
C0F9P0,清水,2023-12-08,24.312297,120.562242,0.0072763534
C0F9Q0,外埔,2023-12-08,24.347817,120.705686,0.022235485
C0F9R0,龍井,2023-12-08,24.184536,120.528972,0.0053096963
C0F9S0,烏日,2023-12-08,24.107058,120.624103,0.05016215
C0F9T0,西屯,2023-12-08,24.179494,120.641275,0.022024725
C0F9U0,南屯,2023-12-08,24.137006,120.637969,0.033563994
C0F9X0,大雅(中科園區),2023-12-08,24.21528,120.62445,0.016411774
C0FA10,松柏,2023-12-08,24.429115,120.617482,0.00260797
C0FA20,溫寮,2023-12-08,24.372177,120.583125,0.003927113
C0FA30,梧棲,2023-12-08,24.256003,120.523381,0.0026239695
C0FA40,臺中電廠,2023-12-08,24.2146,120.4907,0.0053096963
C0FA50,霧峰,2023-12-08,24.0419,120.6995,0.04687792
C0G620,芬園,2023-12-08,24.015678,120.6213,0.022239244
C0G640,鹿港,2023-12-08,24.0753,120.430481,0.0051450925
C0G650,員林,2023-12-08,23.946503,120.585597,0.047443714
C0G660,溪湖,2023-12-08,23.94835,120.479122,0.12194028
C0G720,溪州,2023-12-08,23.851589,120.499093,0.04975159
C0G730,二林,2023-12-08,23.903325,120.376081,0.0071435063
C0G740,大城,2023-12-08,23.852487,120.320935,0.045758124
C0G770,福興,2023-12-08,24.041289,120.437669,0.011428113
C0G780,秀水,2023-12-08,24.03405,120.503869,0.12804525
C0G800,埔鹽,2023-12-08,24.000394,120.431683,0.013586349
C0G810,埔心,2023-12-08,23.947633,120.525456,0.11351103
C0G820,田尾,2023-12-08,23.901669,120.509389,0.064409986
C0G830,埤頭,2023-12-08,23.866003,120.452806,0.045310136
C0G840,北斗,2023-12-08,23.877586,120.514222,0.0978694
C0G860,社頭,2023-12-08,23.897647,120.5862,0.021361904
C0G870,芳苑,2023-12-08,23.922303,120.320025,0.011851127
C0G880,二水,2023-12-08,23.810742,120.6173,0.005647834
C0G890,伸港,2023-12-08,24.148933,120.484403,0.00915779
C0G900,線西,2023-12-08,24.143358,120.443536,0.0018273166
C0G910,花壇,2023-12-08,24.032076,120.549461,0.1728047
C0G920,永靖,2023-12-08,23.924703,120.547533,0.04509305
C0G940,竹塘,2023-12-08,23.848253,120.386764,0.009546013
C0G950,防潮門,2023-12-08,24.1835,120.4871,0.0053096963
C0G960,福寶,2023-12-08,24.0443,120.3814,0.002000362
C0G970,三豐,2023-12-08,23.882,120.2895,0.047957286
C0H890,埔里,2023-12-08,23.972169,120.952425,0.0015280378
C0H950,中寮,2023-12-08,23.884447,120.766406,0.0035547682
C0H960,草屯,2023-12-08,23.973672,120.68085,0.013645214
C0I110,竹山,2023-12-08,23.761225,120.688156,0.0041273264
C0I360,水里,2023-12-08,23.812553,120.849792,0.00821715
C0I380,集集,2023-12-08,23.828206,120.801467,0.006178764
C0I410,名間,2023-12-08,23.837053,120.701447,0.0033382664
C0I420,國姓,2023-12-08,24.037803,120.855072,0.0023603938
C0I460,南投,2023-12-08,23.911469,120.687331,0.008039524
C0K250,崙背,2023-12-08,23.75555,120.318925,0.044309787
C0K280,四湖,2023-12-08,23.630414,120.227125,0.010407661
C0K291,宜梧,2023-12-08,23.536281,120.169329,0.020339489
C0K330,虎尾,2023-12-08,23.719183,120.442036,0.051923238
C0K390,土庫,2023-12-08,23.679029,120.395574,0.05611713
C0K400,斗六,2023-12-08,23.720583,120.541127,0.028614843
C0K410,北港,2023-12-08,23.573957,120.292802,0.11086055
C0K420,西螺,2023-12-08,23.800407,120.467394,0.045333054
C0K430,褒忠,2023-12-08,23.690938,120.303634,0.044969644
C0K440,二崙,2023-12-08,23.772797,120.408944,0.0572344
C0K450,大埤,2023-12-08,23.646074,120.431537,0.024041276
C0K460,斗南,2023-12-08,23.678734,120.478359,0.021927215
C0K470,林內,2023-12-08,23.748675,120.609642,0.016873762
C0K480,莿桐,2023-12-08,23.761192,120.502372,0.020988354
C0K500,元長,2023-12-08,23.64981,120.315024,0.06897193
C0K510,水林,2023-12-08,23.572924,120.24597,0.08652196
C0K530,臺西,2023-12-08,23.701547,120.197559,0.0023935463
C0K550,蔦松,2023-12-08,23.514319,120.229736,0.06328451
C0K560,棋山,2023-12-08,23.68645,120.603417,0.028585803
C0K580,高鐵雲林,2023-12-08,23.737456,120.417944,0.047437478
C0K590,雲林東勢,2023-12-08,23.674192,120.255721,0.04737987
C0K600,箔子寮,2023-12-08,23.6197,120.14,0.0007195806
C0M410,馬頭山,2023-12-08,23.324361,120.582017,0.22668678
C0M520,東後寮,2023-12-08,23.369908,120.248065,0.113080435
C0M640,中埔,2023-12-08,23.42538,120.5229,0.037554193
C0M650,朴子,2023-12-08,23.43463,120.23902,0.18309064
C0M660,溪口,2023-12-08,23.604131,120.403569,0.030984191
C0M670,大林,2023-12-08,23.600616,120.45841,0.03148678
C0M680,太保,2023-12-08,23.455062,120.331455,0.2340265
C0M690,水上,2023-12-08,23.419734,120.388909,0.4223299
C0M700,竹崎,2023-12-08,23.526178,120.555508,0.014226036
C0M710,東石,2023-12-08,23.458927,120.15385,0.0032902886
C0M720,番路,2023-12-08,23.464657,120.554156,0.050252993
C0M730,嘉義市東區,2023-12-08,23.457673,120.460531,0.04569153
C0M740,六腳,2023-12-08,23.492871,120.290625,0.20311819
C0M750,布袋,2023-12-08,23.380878,120.167789,0.049993888
C0M760,民雄,2023-12-08,23.551754,120.428457,0.039616928
C0M770,嘉義梅山,2023-12-08,23.585398,120.555587,0.011841816
C0M780,鹿草,2023-12-08,23.41134,120.30835,0.32716715
C0M790,新港,2023-12-08,23.553269,120.345728,0.119486175
C0M800,茶山,2023-12-08,23.299075,120.664767,0.6867991
C0M880,好美里,2023-12-08,23.3364,120.138,0.012158081
C0N010,鯤鯓國小,2023-12-08,23.1879,120.0889,0.025384575
C0N020,城西,2023-12-08,23.0568,120.0956,0.41450688
C0N030,四草,2023-12-08,23.0235,120.1116,0.31873405
C0N040,蘆竹溝,2023-12-08,23.2344,120.0961,0.08258107
C0N050,蚵寮,2023-12-08,23.301,120.1104,0.029770782
C0O810,曾文,2023-12-08,23.219681,120.497328,0.324483
C0O830,北寮,2023-12-08,23.079561,120.495008,0.30732906
C0O840,王爺宮,2023-12-08,23.222064,120.40085,0.33606455
C0O860,大內,2023-12-08,23.11885,120.36083,0.65720165
C0O900,善化,2023-12-08,23.112883,120.297219,0.65990543
C0O930,玉井,2023-12-08,23.126042,120.46055,0.297284
C0O950,安南,2023-12-08,23.076694,120.144861,0.13336273
C0O960,崎頂,2023-12-08,22.959547,120.369317,0.3833061
C0O970,虎頭埤,2023-12-08,23.021375,120.347878,0.38351375
C0O980,新市,2023-12-08,23.061614,120.298197,0.6503637
C0O990,媽廟,2023-12-08,22.99175,120.293525,0.59468013
C0R150,三地門,2023-12-08,22.709889,120.639944,0.028782759
C0R160,鹽埔,2023-12-08,22.739558,120.530778,0.03167794
C0R170,屏東,2023-12-08,22.660269,120.494072,0.0528035
C0R190,赤山,2023-12-08,22.592333,120.614306,0.02998656
C0R220,潮州,2023-12-08,22.534361,120.54,0.052603617
C0R240,來義,2023-12-08,22.527306,120.625111,0.06310779
C0R260,春日,2023-12-08,22.370361,120.628306,0.11870181
C0R270,琉球嶼,2023-12-08,22.332244,120.362236,0.05788855
C0R280,檳榔,2023-12-08,22.076078,120.836777,0.0048704874
C0R320,車城,2023-12-08,22.0744,120.716247,0.013318874
C0R341,牡丹,2023-12-08,22.130036,120.792639,0.0052387724
C0R350,貓鼻頭,2023-12-08,21.921774,120.7358,0.002559849
C0R470,高樹,2023-12-08,22.826389,120.600806,0.023065437
C0R480,長治,2023-12-08,22.693128,120.542622,0.31925377
C0R490,九如,2023-12-08,22.7405,120.490503,0.03166234
C0R520,崁頂,2023-12-08,22.514781,120.506914,0.049519576
C0R540,佳冬,2023-12-08,22.419456,120.552375,0.05278314
C0R550,新埤,2023-12-08,22.467947,120.582894,0.107092895
C0R560,新園,2023-12-08,22.5434,120.461558,0.101263516
C0R570,麟洛,2023-12-08,22.65078,120.52719,0.05280348
C0R580,南州,2023-12-08,22.48591,120.50274,0.0822517
C0R590,里港,2023-12-08,22.77919,120.49459,0.1614292
C0R620,墾雷,2023-12-08,21.900836,120.855269,0.00015489844
C0R640,東港,2023-12-08,22.46247,120.44074,0.060668524
C0R650,竹田,2023-12-08,22.58486,120.54344,0.036764164
C0R660,枋寮,2023-12-08,22.367722,120.590647,0.05278314
C0R670,楓港,2023-12-08,22.190131,120.692156,0.010246552
C0R680,佳樂水,2023-12-08,21.993578,120.861633,0.0077224537
C0R690,墾丁,2023-12-08,21.966756,120.810269,0.0006827719
C0R700,枋山,2023-12-08,22.246844,120.661086,0.07154059
C0R710,龍磐,2023-12-08,21.931672,120.838942,0.0006107329
C0R720,旭海,2023-12-08,22.205403,120.887614,0.0051647336
C0R730,大坪頂,2023-12-08,22.024633,120.69355,0.0030826163
C0R740,獅子,2023-12-08,22.201569,120.70525,0.049409546
C0R760,南仁湖,2023-12-08,22.084681,120.863353,0.0024340544
C0R770,保力,2023-12-08,22.071122,120.764111,0.01217251
C0R780,滿州,2023-12-08,22.024403,120.839892,0.07256491
C0R790,九棚,2023-12-08,22.14195,120.889281,0.009773127
C0R800,丹路,2023-12-08,22.204481,120.750989,0.008354527
C0R810,內獅,2023-12-08,22.305064,120.642986,0.08557928
C0R830,高士,2023-12-08,22.121825,120.836781,0.0016277808
C0R850,林邊,2023-12-08,22.4634,120.5339,0.107356094
C0R860,鼻頭,2023-12-08,22.1043,120.8979,0.113220796
C0R870,興海,2023-12-08,21.9752,120.8439,0.0084760655
C0R880,後壁湖,2023-12-08,21.9457,120.7457,0.0066533578
C0R890,山海,2023-12-08,21.9878,120.7091,0.006128416
C0R900,竹坑,2023-12-08,22.1385,120.7022,0.01254511
C0R910,下寮,2023-12-08,22.3929,120.5548,0.05278314
C0R920,塭仔,2023-12-08,22.4169,120.5197,0.04121722
C0R930,萬丹,2023-12-08,22.5885,120.4851,0.111828096
C0R940,加祿堂,2023-12-08,22.3363,120.6217,0.015822392
C0S710,鹿野,2023-12-08,22.917711,121.122994,0.0068199104
C0S730,綠島,2023-12-08,22.6672,121.47533,0.0024906278
C0S740,池上,2023-12-08,23.119628,121.209469,0.02349731
C0S770,大溪山,2023-12-08,22.478475,120.943325,0.0032953245
C0S790,金崙,2023-12-08,22.538122,120.966875,0.0052578906
C0S810,東河,2023-12-08,22.972672,121.303986,0.0026186076
C0S830,長濱,2023-12-08,23.286817,121.411975,0.025698546
C0S840,南田,2023-12-08,22.279725,120.889208,0.022472277
C0S890,關山,2023-12-08,23.0395,121.175017,0.059505418
C0S900,蘭嶼高中,2023-12-08,22.04909,121.51214,0.031244295
C0S910,蘭嶼燈塔,2023-12-08,22.081197,121.503117,0.0032804909
C0S920,金峰嘉蘭,2023-12-08,22.594789,120.960825,0.031700477
C0S930,延平,2023-12-08,22.902581,121.084058,0.010264784
C0S940,石寧山,2023-12-08,23.223772,121.406639,0.013439168
C0S950,七塊厝,2023-12-08,22.954453,121.229922,0.0062428126
C0S960,香蘭,2023-12-08,22.587569,120.993375,0.020548863
C0S970,加津林,2023-12-08,22.416211,120.926942,0.030092264
C0S990,山豬窟,2023-12-08,22.318619,120.857372,0.0027938026
C0SA00,歷坵,2023-12-08,22.520969,120.89185,0.010410672
C0SA10,檳榔四格山,2023-12-08,22.810031,121.109308,0.0025260134
C0SA30,都歷,2023-12-08,23.020333,121.323642,0.020081967
C0SA40,瑞和,2023-12-08,22.974361,121.156697,0.01781047
C0SA60,知本（水試所）,2023-12-08,22.702394,121.082761,0.08643991
C0SA80,土坂,2023-12-08,22.453108,120.887572,0.039668046
C0SA90,達仁林場,2023-12-08,22.264347,120.823972,0.0005769009
C0T870,鯉魚潭,2023-12-08,23.935639,121.508944,0.10118683
C0T900,西林,2023-12-08,23.8119,121.441458,0.1045298
C0T960,光復,2023-12-08,23.660694,121.424964,0.08270879
C0T9A0,月眉山,2023-12-08,23.809928,121.539828,0.003188425
C0T9D0,和中,2023-12-08,24.26676,121.74103,0.0021551966
C0T9E0,大坑,2023-12-08,23.880628,121.581981,0.010666089
C0T9F0,水璉,2023-12-08,23.797131,121.542514,0.007856078
C0T9I0,豐濱,2023-12-08,23.583897,121.514806,0.02956526
C0T9M0,靜浦,2023-12-08,23.455167,121.495028,0.008026013
C0T9N0,富里,2023-12-08,23.171639,121.249378,0.04506181
C0U600,礁溪,2023-12-08,24.817539,121.765608,0.016410157
C0U650,玉蘭,2023-12-08,24.675286,121.587061,0.008855383
C0U750,龜山島,2023-12-08,24.841667,121.953133,0.00010062972
C0U760,東澳,2023-12-08,24.52196,121.83318,0.19541107
C0U770,南澳,2023-12-08,24.44935,121.81022,0.0059807524
C0U780,五結,2023-12-08,24.68637,121.79794,0.039362557
C0U860,頭城,2023-12-08,24.85323,121.8308,0.010411738
C0U870,大礁溪,2023-12-08,24.791042,121.675047,0.005381736
C0U880,北關,2023-12-08,24.9072,121.8734,0.012733014
C0U890,三星,2023-12-08,24.66812,121.65302,0.23737316
C0U900,內城,2023-12-08,24.71813,121.68766,0.048944395
C0U910,冬山,2023-12-08,24.63373,121.7937,0.21702288
C0U940,羅東,2023-12-08,24.68184,121.74934,0.054058563
C0U970,大福,2023-12-08,24.80064,121.81389,0.0024451832
C0U990,員山,2023-12-08,24.74435,121.72247,0.026975371
C0UA00,土場,2023-12-08,24.576533,121.495333,0.017554805
C0UA80,大溪漁港,2023-12-08,24.941801,121.902955,0.024695087
C0UA90,石城,2023-12-08,24.980444,121.951214,0.016420538
C0UB00,淡江大學蘭陽校園,2023-12-08,24.823239,121.730383,0.00935536
C0UB10,蘇澳,2023-12-08,24.5969,121.8571,0.6145633
C0UB20,壯圍,2023-12-08,24.7359,121.8163,0.015161571
C0V250,甲仙,2023-12-08,23.080106,120.591758,0.14377049
C0V260,月眉,2023-12-08,22.971003,120.539853,0.06663813
C0V310,美濃,2023-12-08,22.898742,120.519153,0.108130075
C0V350,溪埔,2023-12-08,22.738578,120.446797,0.28006604
C0V360,內門,2023-12-08,22.975481,120.466769,0.42286545
C0V370,古亭坑,2023-12-08,22.893178,120.401947,0.25708732
C0V400,阿公店,2023-12-08,22.804194,120.355528,0.3578398
C0V440,鳳山,2023-12-08,22.646653,120.356122,0.093956135
C0V450,鳳森,2023-12-08,22.545064,120.392592,0.0930912
C0V490,新興,2023-12-08,22.627422,120.298803,0.24611849
C0V530,阿蓮,2023-12-08,22.883208,120.327508,0.274495
C0V610,梓官,2023-12-08,22.760558,120.267211,0.08902804
C0V620,永安,2023-12-08,22.82315,120.236856,0.06101714
C0V630,茄萣,2023-12-08,22.906642,120.182608,0.089132346
C0V640,湖內,2023-12-08,22.887139,120.2445,0.1295412
C0V650,彌陀,2023-12-08,22.783806,120.246361,0.061017066
C0V660,岡山,2023-12-08,22.797078,120.294958,0.09754216
C0V680,仁武,2023-12-08,22.701083,120.347722,0.106479846
C0V690,鼓山,2023-12-08,22.623325,120.275575,0.11530159
C0V700,三民,2023-12-08,22.645017,120.311233,0.088243075
C0V710,苓雅,2023-12-08,22.622742,120.330669,0.17454407
C0V720,林園,2023-12-08,22.507747,120.394511,0.06698148
C0V730,大寮,2023-12-08,22.605614,120.395717,0.2301803
C0V740,旗山,2023-12-08,22.888614,120.483597,0.10882514
C0V750,路竹,2023-12-08,22.854997,120.259439,0.094579756
C0V760,橋頭,2023-12-08,22.757806,120.30575,0.1346464
C0V770,大社,2023-12-08,22.730306,120.346639,0.15253042
C0V790,萬山,2023-12-08,22.905944,120.688056,0.09747917
C0V800,六龜,2023-12-08,22.997889,120.633583,0.07575081
C0V810,左營,2023-12-08,22.67491,120.28491,0.088243075
C0V820,小林,2023-12-08,23.148408,120.63325,0.12619725
C0V840,鳳鼻頭,2023-12-08,22.5083,120.3591,0.06652196
C0V850,蚵仔寮,2023-12-08,22.7256,120.2527,0.08934889
C0V860,南寮,2023-12-08,22.7616,120.2339,0.08934889
C0V870,文安,2023-12-08,22.8025,120.2164,0.042997457
C0V880,興達,2023-12-08,22.8778,120.2127,0.089132346
C0V890,前鎮,2023-12-08,22.5718,120.3117,0.13976835
C0V900,汕尾,2023-12-08,22.4782,120.4151,0.058367472
C0X050,東河,2023-12-08,23.296598,120.385608,0.31750372
C0X060,下營,2023-12-08,23.22695,120.256261,0.5030312
C0X080,佳里,2023-12-08,23.173039,120.145086,0.2173676
C0X100,臺南市北區,2023-12-08,23.010394,120.194228,0.43619
C0X110,臺南市南區,2023-12-08,22.961189,120.188378,0.20729214
C0X120,麻豆,2023-12-08,23.183289,120.248611,0.63340706
C0X130,官田,2023-12-08,23.193217,120.315422,0.4897988
C0X140,西港,2023-12-08,23.125608,120.203108,0.67865074
C0X150,安定,2023-12-08,23.102614,120.227839,0.6869528
C0X160,仁德,2023-12-08,22.968258,120.257689,0.28740668
C0X170,關廟,2023-12-08,22.963017,120.327797,0.4381194
C0X180,山上,2023-12-08,23.0757,120.363253,0.25423756
C0X190,安平,2023-12-08,22.993161,120.152181,0.30873957
C0X200,左鎮,2023-12-08,23.056758,120.408522,0.48172313
C0X210,白河,2023-12-08,23.347466,120.414427,0.21973348
C0X220,學甲,2023-12-08,23.230367,120.182187,0.18965012
C0X230,鹽水,2023-12-08,23.272621,120.247641,0.1903552
C0X240,關子嶺,2023-12-08,23.331169,120.508025,0.14886737
C0X250,新營,2023-12-08,23.310689,120.316681,0.38613465
C0X260,後壁,2023-12-08,23.366358,120.362326,0.5018206
C0X280,將軍,2023-12-08,23.214999,120.13577,0.1361202
C0X290,北門,2023-12-08,23.267772,120.125481,0.08258107
C0X300,鹿寮,2023-12-08,23.386047,120.477331,0.2552875
C0X310,七股,2023-12-08,23.147289,120.086253,0.044756554
C0X320,柳營,2023-12-08,23.253328,120.375253,0.46813557
C0Z020,明里,2023-12-08,23.208717,121.262342,0.07304188
C0Z061,玉里,2023-12-08,23.3215,121.339656,0.18284182
C0Z070,舞鶴,2023-12-08,23.46811,121.37407,0.06888079
C0Z080,富源,2023-12-08,23.587642,121.378225,0.115137674
C0Z100,東華,2023-12-08,23.89525,121.549833,0.0904203
C0Z150,吉安光華,2023-12-08,23.930925,121.595153,0.019363292
C0Z160,鳳林,2023-12-08,23.746114,121.453411,0.3403509
C0Z170,卓溪,2023-12-08,23.3443,121.3029,0.070884116
C0Z180,新城,2023-12-08,24.03946,121.60454,0.010151563
C0Z190,富世,2023-12-08,24.14743,121.6297,0.0037303555
C0Z200,萬榮,2023-12-08,23.709219,121.420106,0.24344862
C0Z210,瑞穗,2023-12-08,23.5239,121.39021,0.14175823
C0Z230,和平,2023-12-08,24.30717,121.77007,0.004901206
C0Z270,蕃薯寮,2023-12-08,23.73835,121.540108,0.0055068997
C0Z280,德武,2023-12-08,23.47426,121.41071,0.10497035
C0Z300,東里,2023-12-08,23.26853,121.30547,0.22952141
C0Z310,清水斷崖,2023-12-08,24.218294,121.689142,0.0003593548
C0Z330,安通山,2023-12-08,23.290728,121.348528,0.023042701
CAG100,王功漁港,2023-12-08,23.96824,120.32586,0.006997689
CAH030,茶改場竹圍站,2023-12-08,23.860083,120.637528,0.001877379
CAJ050,海口故事園區,2023-12-08,23.57543,120.14121,0.0007195806
CAL110,布袋國中,2023-12-08,23.35893,120.18026,0.06903864
CAN130,水試所海水繁養殖中心,2023-12-08,23.120802,120.07968,0.03676256
CAN140,六官養殖協會,2023-12-08,23.22881,120.29962,0.51234597
CAQ030,崎峰國小,2023-12-08,22.42565,120.49521,0.08618878
E2K600,四湖植物園,2023-12-08,23.676986,120.163433,0.0027978376
E2P980,林試六龜中心,2023-12-08,22.991703,120.645722,0.073479354
E2S960,林試太麻里2,2023-12-08,22.598014,120.989761,0.020548888
E2S980,林試太麻里1,2023-12-08,22.598922,120.980044,0.012505807
G2AI50,關渡,2023-12-08,25.11575,121.492,0.013512183
G2F820,農業試驗所,2023-12-08,24.031261,120.688133,0.050119027
G2F820,農試所(霧峰),2023-12-08,24.031261,120.688133,0.050119027
G2L020,農試嘉義分所,2023-12-08,23.485028,120.473806,0.029028876
G2M350,農試溪口農場,2023-12-08,23.58565,120.408111,0.036483373
G2P820,農試鳳山分所,2023-12-08,22.646611,120.356083,0.09395612
K2E360,苗栗農改,2023-12-08,24.495722,120.829111,0.017521154
K2E360,苗栗農改場,2023-12-08,24.495722,120.829111,0.017521154
K2E710,苗改生物防治研究中心,2023-12-08,24.422861,120.871833,0.017820857
K2F750,種苗改良場,2023-12-08,24.225972,120.800917,0.013046105
K2F750,種苗繁殖,2023-12-08,24.225972,120.800917,0.013046105
U2HA50,臺大竹山,2023-12-08,23.756972,120.681556,0.00956786
V2C250,八德合作社,2023-12-08,24.93775,121.266389,0.0031929535
V2C260,八德蔬果,2023-12-08,24.978508,121.281819,0.015071191
V2K610,大庄合作社,2023-12-08,23.8068,120.367939,0.02830979
V2K620,麥寮合作社,2023-12-08,23.753836,120.294783,0.044309787
