站號,站名,日期,lat,lon,BLBTSLS
C0R710,龍磐,2023-06-27,21.931672,120.838942,0.06223233
C1F9D1,白毛台,2023-06-27,24.158325,120.886933,6.351441e-06
C0G940,竹塘,2023-06-27,23.848253,120.386764,0.000879217
467590,恆春,2023-06-27,22.003897,120.746339,0.00058958406
C1O850,環湖,2023-06-27,23.148617,120.418633,0.5721765
C0U710,太平山,2023-06-27,24.505486,121.525656,3.2309013e-09
C0E820,獅潭,2023-06-27,24.539133,120.920042,0.043775924
C0V880,興達,2023-06-27,22.8778,120.2127,0.0013509272
C0S890,關山,2023-06-27,23.0395,121.175017,1.8510216e-06
K2F750,種苗繁殖,2023-06-27,24.225972,120.800917,0.16122848
C1Z130,銅門,2023-06-27,23.965694,121.492842,0.0042415066
C0AD40,土城,2023-06-27,24.973208,121.445169,0.00022701436
CAN140,六官養殖協會,2023-06-27,23.22881,120.29962,0.002949703
C0X180,山上,2023-06-27,23.0757,120.363253,0.8049356
C0F9Z0,雪山東峰,2023-06-27,24.388792,121.268675,6.417221e-09
C1M480,獨立山,2023-06-27,23.537022,120.607797,2.7116226e-07
C0X220,學甲,2023-06-27,23.230367,120.182187,0.00025854498
C0R170,屏東,2023-06-27,22.660269,120.494072,0.46706516
467650,日月潭,2023-06-27,23.881325,120.90805,2.6876782e-08
C0K600,箔子寮,2023-06-27,23.6197,120.14,0.0017708426
C0G830,埤頭,2023-06-27,23.866003,120.452806,0.0032480084
C0S950,七塊厝,2023-06-27,22.954453,121.229922,7.688135e-08
467110,金門,2023-06-27,24.407306,118.289281,6.0999373e-06
C0AH80,深坑,2023-06-27,25.002703,121.628328,0.00014596079
467990,馬祖,2023-06-27,26.169269,119.923419,0.022940597
C0A970,三貂角,2023-06-27,25.007606,122.002058,0.39931256
C0K430,褒忠,2023-06-27,23.690938,120.303634,0.0049810624
467480,嘉義,2023-06-27,23.495925,120.432906,0.0058357823
C2E540,後龍,2023-06-27,24.606489,120.783933,1.4760827e-05
C0V400,阿公店,2023-06-27,22.804194,120.355528,0.7228871
C0R440,大漢山,2023-06-27,22.405264,120.753181,1.97335e-09
C0K280,四湖,2023-06-27,23.630414,120.227125,0.00042077433
C1F9B1,桐林,2023-06-27,24.066172,120.735194,0.22004654
C0K390,土庫,2023-06-27,23.679029,120.395574,0.0080207065
C1I450,望鄉山,2023-06-27,23.594153,120.944286,3.347025e-09
C0E910,海埔,2023-06-27,24.648767,120.772435,1.5694577e-05
B2E890,畜試北區分所,2023-06-27,24.527806,120.770972,0.6395393
C0R750,四林格山,2023-06-27,22.076989,120.802439,7.532215e-09
C0F0C0,中坑,2023-06-27,24.248517,120.903319,8.256646e-09
C1I121,大鞍,2023-06-27,23.678381,120.760017,2.013027e-09
72U480,花改蘭陽分場,2023-06-27,24.686306,121.716583,0.012183793
C0A770,科教館,2023-06-27,25.096356,121.516507,0.00059191685
C0AJ60,六塊厝,2023-06-27,25.24,121.4481,2.131804e-05
C0R620,墾雷,2023-06-27,21.900836,120.855269,0.0058221784
467420,永康,2023-06-27,23.038386,120.2367,0.0023477504
467300,東吉島,2023-06-27,23.25695,119.667467,0.000796736
C0I410,名間,2023-06-27,23.837053,120.701447,0.013036548
A2C560,農工中心,2023-06-27,24.985917,121.239833,6.279411e-08
C0V740,旗山,2023-06-27,22.888614,120.483597,0.95832115
C0Z061,玉里,2023-06-27,23.3215,121.339656,0.93320376
C0S840,南田,2023-06-27,22.279725,120.889208,3.2236908e-06
C1I470,杉林溪,2023-06-27,23.639517,120.786444,1.8220591e-09
C1X040,東原,2023-06-27,23.291597,120.463822,0.011737988
C0R660,枋寮,2023-06-27,22.367722,120.590647,0.013623809
C1R120,上德文,2023-06-27,22.763272,120.704442,3.1766838e-08
C0K450,大埤,2023-06-27,23.646074,120.431537,0.030088592
C0UA00,土場,2023-06-27,24.576533,121.495333,0.28920627
467080,宜蘭,2023-06-27,24.763975,121.756528,0.18082044
C0N030,四草,2023-06-27,23.0235,120.1116,0.00042480076
C0V650,彌陀,2023-06-27,22.783806,120.246361,0.001266111
C0D660,新竹市東區,2023-06-27,24.798681,120.986942,5.5199475e-06
82S580,茶改東部分場,2023-06-27,22.907694,121.130139,0.00031022224
C0C710,大溪永福,2023-06-27,24.892936,121.324975,3.2369342e-05
C0FA20,溫寮,2023-06-27,24.372177,120.583125,0.0022967928
C0V640,湖內,2023-06-27,22.887139,120.2445,0.0010746783
C0R910,下寮,2023-06-27,22.3929,120.5548,0.013623809
C0Z020,明里,2023-06-27,23.208717,121.262342,0.00450299
C0M770,嘉義梅山,2023-06-27,23.585398,120.555587,0.016615797
G2F820,農業試驗所,2023-06-27,24.031261,120.688133,0.076731406
C0C660,楊梅,2023-06-27,24.912375,121.143047,3.791738e-08
C1E511,新開,2023-06-27,24.347703,120.827019,0.00042713602
G2F820,農試所(霧峰),2023-06-27,24.031261,120.688133,0.076731406
C1I070,和社,2023-06-27,23.591131,120.888861,0.037150774
C2F000,大肚,2023-06-27,24.15295,120.572117,0.055571135
C1S850,豐南,2023-06-27,23.122139,121.262389,3.557622e-08
C2A920,富貴角,2023-06-27,25.263783,121.565258,7.5753815e-07
CAH030,茶改場竹圍站,2023-06-27,23.860083,120.637528,0.0012360906
C0T960,光復,2023-06-27,23.660694,121.424964,0.9473755
C0F9M0,豐原,2023-06-27,24.254322,120.720692,0.25913146
C0R720,旭海,2023-06-27,22.205403,120.887614,2.1617907e-07
C0V710,苓雅,2023-06-27,22.622742,120.330669,0.01946244
C0C740,觀音工業區,2023-06-27,25.064764,121.114856,1.06986214e-07
CAC040,拉拉山,2023-06-27,24.699317,121.427133,3.7366195e-09
C0V790,萬山,2023-06-27,22.905944,120.688056,0.15476018
U2HA30,臺大和社,2023-06-27,23.590856,120.888864,0.037150774
C0AJ90,澳底,2023-06-27,25.0552,121.9253,0.990123
C0Z100,東華,2023-06-27,23.89525,121.549833,0.04642223
C0G970,三豐,2023-06-27,23.882,120.2895,0.00049795245
V2K610,大庄合作社,2023-06-27,23.8068,120.367939,0.0049809013
C0V900,汕尾,2023-06-27,22.4782,120.4151,0.0024929128
C1R630,龍泉,2023-06-27,22.66701,120.59091,0.61530274
C1AC50,關渡,2023-06-27,25.133486,121.469331,0.00012420274
C0F9I0,神岡,2023-06-27,24.272481,120.658314,0.017744966
C0K460,斗南,2023-06-27,23.678734,120.478359,0.02830878
467410,臺南,2023-06-27,22.993239,120.204772,0.00028434602
C2O810,曾文,2023-06-27,23.219681,120.497328,0.14725374
467280,後龍,2023-06-27,24.648563,120.831834,1.19471515e-05
C1F9J1,清水林,2023-06-27,24.071242,120.820419,6.402736e-08
C2A650,火燒寮,2023-06-27,25.002719,121.742892,0.48760855
466930,竹子湖,2023-06-27,25.162078,121.544547,2.2920181e-09
C1I220,樟湖,2023-06-27,23.905333,120.846983,4.763919e-09
C0I390,仁愛,2023-06-27,24.022122,121.132206,4.184472e-09
C0Z300,東里,2023-06-27,23.26853,121.30547,0.029860027
C0V310,美濃,2023-06-27,22.898742,120.519153,0.96690565
C1V590,新發,2023-06-27,23.057019,120.646064,0.12069121
C0K510,水林,2023-06-27,23.572924,120.24597,0.00023184354
72S590,東改賓朗果園,2023-06-27,22.813889,121.071278,0.00041459152
82A750,茶改北部分場,2023-06-27,24.955778,121.631222,2.9049437e-07
C1A750,石碇服務區,2023-06-27,25.00872,121.646242,0.00051468814
C0X300,鹿寮,2023-06-27,23.386047,120.477331,0.025831698
G2AI50,關渡,2023-06-27,25.11575,121.492,1.140021e-05
C0K590,雲林東勢,2023-06-27,23.674192,120.255721,0.0010713557
C0A570,桶後,2023-06-27,24.848222,121.597992,0.8578798
C1S800,華源,2023-06-27,22.657883,121.02325,0.003084852
C0G720,溪州,2023-06-27,23.851589,120.499093,0.0030172493
C1V160,達卡努瓦,2023-06-27,23.279811,120.705319,1.0097901e-08
C2M410,馬頭山,2023-06-27,23.324361,120.582017,0.018890485
C0V850,蚵仔寮,2023-06-27,22.7256,120.2527,0.014922554
C0S740,池上,2023-06-27,23.119628,121.209469,0.006119875
C1V390,尖山,2023-06-27,22.813153,120.367789,0.5222849
C0AH70,松山,2023-06-27,25.04871,121.55042,0.0005298405
C0N010,鯤鯓國小,2023-06-27,23.1879,120.0889,0.0006114583
C0R550,新埤,2023-06-27,22.467947,120.582894,0.001414886
C0SA60,知本（水試所）,2023-06-27,22.702394,121.082761,0.05836709
C0T9I0,豐濱,2023-06-27,23.583897,121.514806,0.021673929
C0UB00,淡江大學蘭陽校園,2023-06-27,24.823239,121.730383,0.7786845
C0T9N0,富里,2023-06-27,23.171639,121.249378,0.020609986
U2HA50,臺大竹山,2023-06-27,23.756972,120.681556,0.00050415355
C0V840,鳳鼻頭,2023-06-27,22.5083,120.3591,0.001521321
C0X140,西港,2023-06-27,23.125608,120.203108,0.00037953816
72D080,桃改五峰分場,2023-06-27,24.612194,121.157167,8.4566665e-10
C0V530,阿蓮,2023-06-27,22.883208,120.327508,0.0012961612
C1O880,關山,2023-06-27,23.173397,120.594092,0.02038537
C0E791,卓蘭,2023-06-27,24.3126,120.8244,0.011159515
C1I030,武界,2023-06-27,23.913225,121.052483,6.110198e-07
C0R520,崁頂,2023-06-27,22.514781,120.506914,0.7540193
C0R341,牡丹,2023-06-27,22.130036,120.792639,4.69172e-06
C0R930,萬丹,2023-06-27,22.5885,120.4851,0.0499732
C0S760,紅石,2023-06-27,23.069131,121.126219,7.539685e-10
C1M610,石磐龍,2023-06-27,23.496606,120.663506,2.654997e-09
C0UA10,鴛鴦湖,2023-06-27,24.590269,121.412228,3.821825e-09
V2C260,八德蔬果,2023-06-27,24.978508,121.281819,5.3715513e-07
C0R800,丹路,2023-06-27,22.204481,120.750989,1.6867141e-06
C0G920,永靖,2023-06-27,23.924703,120.547533,0.0032421676
C1A630,下盆,2023-06-27,24.771003,121.538622,9.7605145e-05
B2N890,畜產試驗所,2023-06-27,23.058972,120.336406,0.012529779
C0UA30,白嶺,2023-06-27,24.527819,121.519031,4.2405697e-09
C1V580,溪南(特生中心),2023-06-27,23.084972,120.788475,2.120029e-09
C1T970,大農,2023-06-27,23.615233,121.413331,0.006482865
E2S960,林試太麻里2,2023-06-27,22.598014,120.989761,0.014421709
C0R650,竹田,2023-06-27,22.58486,120.54344,0.7366488
C1H900,清流,2023-06-27,24.080775,120.962997,5.149777e-09
C1C510,水尾,2023-06-27,24.940081,121.087161,3.662406e-08
C0F9X0,大雅(中科園區),2023-06-27,24.21528,120.62445,0.00362018
C0O970,虎頭埤,2023-06-27,23.021375,120.347878,0.13110355
C0C730,中大臨海站,2023-06-27,24.966126,121.008581,5.6868313e-08
C0X250,新營,2023-06-27,23.310689,120.316681,0.0035242254
C0V700,三民,2023-06-27,22.645017,120.311233,0.018928898
C0U870,大礁溪,2023-06-27,24.791042,121.675047,0.024429364
C0E870,高鐵苗栗,2023-06-27,24.60725,120.826094,1.0527837e-05
A2K570,古坑花卉中心,2023-06-27,23.63353,120.55239,0.012022266
C0M860,新美,2023-06-27,23.338017,120.683169,0.000104869374
C1E701,八卦,2023-06-27,24.491756,120.927619,4.8595866e-06
C0I420,國姓,2023-06-27,24.037803,120.855072,0.21344726
C0S960,香蘭,2023-06-27,22.587569,120.993375,0.014421709
C0R260,春日,2023-06-27,22.370361,120.628306,0.016388198
72G600,臺中農改場,2023-06-27,24.003028,120.534389,0.0070121144
C0Z210,瑞穗,2023-06-27,23.5239,121.39021,0.13954706
C0M820,達邦,2023-06-27,23.453994,120.749517,8.947149e-09
C0V860,南寮,2023-06-27,22.7616,120.2339,0.014922554
C0G740,大城,2023-06-27,23.852487,120.320935,0.00043042228
C0R920,塭仔,2023-06-27,22.4169,120.5197,0.013187064
C0R470,高樹,2023-06-27,22.826389,120.600806,0.9301034
C0R680,佳樂水,2023-06-27,21.993578,120.861633,0.018568793
C1O870,大棟山,2023-06-27,23.31157,120.52226,1.9800308e-09
C0D360,梅花,2023-06-27,24.678347,121.208558,1.03384705e-08
C0Z190,富世,2023-06-27,24.14743,121.6297,2.8654077e-07
C0AI10,屈尺,2023-06-27,24.92184,121.54475,0.0012089786
B2U990,畜試東區分所,2023-06-27,24.669039,121.832561,0.07579438
C0R240,來義,2023-06-27,22.527306,120.625111,0.8478419
C1R610,西大武山,2023-06-27,22.617719,120.7322,7.180681e-10
C0G900,線西,2023-06-27,24.143358,120.443536,0.0007113002
C0M700,竹崎,2023-06-27,23.526178,120.555508,0.0131130805
C2E880,三義,2023-06-27,24.405478,120.749819,0.0001254291
C0C720,竹圍,2023-06-27,25.112692,121.239824,1.140021e-05
C0F9P0,清水,2023-06-27,24.312297,120.562242,0.0007596377
C0Z150,吉安光華,2023-06-27,23.930925,121.595153,0.02164158
C1D640,外坪(五指山),2023-06-27,24.644447,121.090961,8.122501e-09
C0F9O0,潭子,2023-06-27,24.213106,120.703933,0.7403034
72T250,花蓮農改場,2023-06-27,23.975222,121.563889,0.04719785
C0E780,銅鑼,2023-06-27,24.489681,120.790853,0.3081126
C1T950,太安,2023-06-27,23.666719,121.370128,1.832044e-08
C0E830,苑裡,2023-06-27,24.439714,120.653053,0.0023046832
467270,田中,2023-06-27,23.873803,120.581286,0.011579983
C0SA10,檳榔四格山,2023-06-27,22.810031,121.109308,5.2240663e-05
C1T830,布洛灣,2023-06-27,24.17184,121.57127,0.014874181
C0F970,大坑,2023-06-27,24.173142,120.722289,0.29339144
C1U920,思源,2023-06-27,24.393125,121.347214,1.1791909e-09
C0A931,三和,2023-06-27,25.233153,121.595236,2.6450896e-06
C0I010,廬山,2023-06-27,24.033311,121.181808,1.1875263e-09
C0R860,鼻頭,2023-06-27,22.1043,120.8979,0.0024333715
C0UB20,壯圍,2023-06-27,24.7359,121.8163,0.013753848
C0R790,九棚,2023-06-27,22.14195,120.889281,3.9707524e-05
C0W110,東莒,2023-06-27,25.9652,119.98069,1.9778554e-05
C1U930,粉鳥林,2023-06-27,24.497088,121.842479,0.9516724
C1I211,蘆竹湳,2023-06-27,23.934019,120.811994,1.9985703e-06
C0S830,長濱,2023-06-27,23.286817,121.411975,0.26483122
C1F9F1,伯公龍,2023-06-27,24.272392,120.849047,0.007710887
C0E810,西湖,2023-06-27,24.562947,120.7485,0.3353815
C1I440,新高口,2023-06-27,23.478744,120.878939,1.4123677e-09
C0O840,王爺宮,2023-06-27,23.222064,120.40085,0.058824226
C0T9G0,鳳林山,2023-06-27,23.735269,121.420131,7.3248e-08
C0X080,佳里,2023-06-27,23.173039,120.145086,0.0006097959
C0Z310,清水斷崖,2023-06-27,24.218294,121.689142,2.0095413e-07
C0M680,太保,2023-06-27,23.455062,120.331455,0.00882827
C1S820,金峰,2023-06-27,22.590969,120.933236,0.0012798224
C0AD10,八里,2023-06-27,25.150211,121.403947,1.1001268e-05
C2K240,草嶺,2023-06-27,23.59555,120.693461,2.653124e-09
C1SA70,都蘭,2023-06-27,22.87794,121.226881,0.0014417239
C0K440,二崙,2023-06-27,23.772797,120.408944,0.0024607936
C1A760,坪林交控,2023-06-27,24.94284,121.713442,0.9408359
C0F9N0,大里,2023-06-27,24.092464,120.701378,0.28687164
C0SA90,達仁林場,2023-06-27,22.264347,120.823972,1.6478406e-08
C1R290,石門山,2023-06-27,22.112611,120.756597,2.023613e-07
42HA10,萬大發電廠,2023-06-27,23.978875,121.139639,7.990886e-09
C0R890,山海,2023-06-27,21.9878,120.7091,0.024222534
C0T9A0,月眉山,2023-06-27,23.809928,121.539828,4.2151377e-08
C0AC70,信義,2023-06-27,25.037822,121.564597,0.0005298405
C0K560,棋山,2023-06-27,23.68645,120.603417,0.010650275
C1Z240,中平林道,2023-06-27,23.42115,121.26763,6.171534e-09
U2H480,溪頭,2023-06-27,23.670306,120.798194,1.9451178e-09
C0M880,好美里,2023-06-27,23.3364,120.138,9.3917515e-05
C0T9E0,大坑,2023-06-27,23.880628,121.581981,3.2290092e-07
C0K530,臺西,2023-06-27,23.701547,120.197559,0.00079497584
C1E900,國一N128K,2023-06-27,24.560997,120.844186,0.025945185
C0AJ50,水湳洞,2023-06-27,25.123695,121.862238,0.0034517008
C0AI20,白沙灣,2023-06-27,25.283128,121.519058,1.6977845e-05
C0A860,大坪,2023-06-27,25.165914,121.632969,1.1013815e-07
C1U850,觀音海岸,2023-06-27,24.38319,121.77856,4.158742e-08
C0U950,鶯子嶺,2023-06-27,24.89754,121.79244,1.8840687e-09
C0O900,善化,2023-06-27,23.112883,120.297219,0.025146503
C0K550,蔦松,2023-06-27,23.514319,120.229736,0.00043658612
E2P980,林試六龜中心,2023-06-27,22.991703,120.645722,0.12341929
C0E590,通霄,2023-06-27,24.471892,120.704622,0.08321686
C1I310,西巒,2023-06-27,23.754486,120.883956,9.263775e-09
C0A550,泰平,2023-06-27,24.971197,121.823711,4.5328996e-08
C0I360,水里,2023-06-27,23.812553,120.849792,0.003127192
C0R830,高士,2023-06-27,22.121825,120.836781,5.3289213e-08
C1I101,溪頭,2023-06-27,23.661789,120.807647,2.2002724e-09
C0AJ20,野柳,2023-06-27,25.20703,121.690021,0.00037727578
C0B060,暖暖,2023-06-27,25.0957,121.7403,0.000718308
C1H920,長豐,2023-06-27,24.102039,120.879897,1.9510439e-07
C0V360,內門,2023-06-27,22.975481,120.466769,0.8542304
C0R850,林邊,2023-06-27,22.4634,120.5339,0.0019969742
C0E930,龍鳳,2023-06-27,24.700034,120.859125,1.123795e-06
C0U910,冬山,2023-06-27,24.63373,121.7937,0.07579438
C1E721,泰安,2023-06-27,24.489017,120.968036,5.794488e-10
82H320,茶改中部分場,2023-06-27,23.875611,120.913583,2.868316e-06
C0M750,布袋,2023-06-27,23.380878,120.167789,9.3794006e-05
C1S860,利嘉,2023-06-27,22.809417,121.050528,8.309397e-05
72C440,桃園農改,2023-06-27,24.950944,121.030583,9.589761e-08
E2S980,林試太麻里1,2023-06-27,22.598922,120.980044,0.004013113
C0X170,關廟,2023-06-27,22.963017,120.327797,0.11410986
C0V720,林園,2023-06-27,22.507747,120.394511,0.0013751261
C1I510,線浸林道,2023-06-27,23.761508,120.832956,1.5753906e-09
C0D690,外湖,2023-06-27,24.917735,120.968711,2.5130745e-07
C0C750,新興坑尾,2023-06-27,25.0061,121.0971,2.4058258e-08
B2Q810,畜試南區分所,2023-06-27,21.945583,120.802167,0.02416213
C0S790,金崙,2023-06-27,22.538122,120.966875,0.0010052123
C0AH90,福山植物園,2023-06-27,24.760717,121.58135,1.9730043e-05
C0I540,奇萊稜線,2023-06-27,24.109231,121.326456,3.6571197e-09
C0M850,表湖,2023-06-27,23.24186,120.64166,0.0005755932
C0S770,大溪山,2023-06-27,22.478475,120.943325,5.881502e-08
C0AG80,中和,2023-06-27,24.991622,121.491792,0.00022701436
C0T790,大禹嶺,2023-06-27,24.186117,121.316086,1.8361429e-09
C0T9B0,水源,2023-06-27,23.991861,121.537169,1.0912554e-05
C0R840,牡丹池山,2023-06-27,22.168389,120.841225,5.5934564e-08
C1I131,桶頭,2023-06-27,23.641944,120.654117,0.00020531735
CAL110,布袋國中,2023-06-27,23.35893,120.18026,9.3794006e-05
467571,新竹,2023-06-27,24.827853,121.014219,4.982525e-07
C0Z290,赤柯山,2023-06-27,23.36893,121.38293,4.9479034e-09
C0X280,將軍,2023-06-27,23.214999,120.13577,0.0002717908
C0S690,太麻里,2023-06-27,22.60902,120.98533,2.1047403e-07
C0U880,北關,2023-06-27,24.9072,121.8734,0.4300153
C1H860,瑞岩,2023-06-27,24.123772,121.18345,1.2951965e-09
C0G810,埔心,2023-06-27,23.947633,120.525456,0.0032421676
C0U970,大福,2023-06-27,24.80064,121.81389,0.15849444
C1E670,南礦,2023-06-27,24.538278,121.002836,5.3212784e-10
C0M520,東後寮,2023-06-27,23.369908,120.248065,8.2457285e-05
C1E461,松安,2023-06-27,24.397972,120.986022,7.588854e-10
72G600,臺中農改,2023-06-27,24.003028,120.534389,0.0070121144
C2N160,西拉雅風管處,2023-06-27,23.189481,120.335297,0.1673606
C0A640,石碇,2023-06-27,24.993969,121.662917,2.548171e-05
E2S960,林試太麻里2,2023-06-27,22.598,120.99775,0.017173136
C0F9Y0,桃山,2023-06-27,24.432739,121.303808,5.4263576e-09
C1I020,萬大,2023-06-27,23.979817,121.132261,4.2547397e-09
C0U940,羅東,2023-06-27,24.68184,121.74934,0.012182537
C0M650,朴子,2023-06-27,23.43463,120.23902,0.0020328206
C1I500,大尖山,2023-06-27,23.858572,120.994889,2.3045992e-09
C0G820,田尾,2023-06-27,23.901669,120.509389,0.0032421676
E2K600,四湖植物園,2023-06-27,23.676986,120.163433,0.000422905
C0S730,綠島,2023-06-27,22.6672,121.47533,1.8748207e-05
12Q970,東港工作站,2023-06-27,22.479997,120.466058,0.0024777446
C0E430,南庄,2023-06-27,24.601775,121.000214,0.025192743
C1TA00,太魯閣,2023-06-27,24.15773,121.6236,1.646393e-07
466920,臺北,2023-06-27,25.037658,121.514853,0.0005298405
C0R600,舊泰武,2023-06-27,22.588194,120.664944,0.0004646564
C1I260,北坑,2023-06-27,23.9246,121.006903,3.3911607e-07
466910,鞍部,2023-06-27,25.182586,121.529731,1.3395488e-09
C1I230,九份二山,2023-06-27,23.961944,120.845,8.077176e-05
C2A660,瑞芳,2023-06-27,25.113169,121.801147,0.0021494308
C0R270,琉球嶼,2023-06-27,22.332244,120.362236,0.02495755
C1T990,高寮,2023-06-27,23.394239,121.356808,0.93224883
C0G620,芬園,2023-06-27,24.015678,120.6213,0.043536827
C1Z140,荖溪,2023-06-27,23.890575,121.45964,4.505384e-09
C1I201,中心崙,2023-06-27,23.728722,120.712097,1.4346783e-08
C1I400,凌霄,2023-06-27,24.018778,121.004456,1.3511395e-09
C1M640,十字,2023-06-27,23.492153,120.753683,1.3630204e-09
G2P820,農試鳳山分所,2023-06-27,22.646611,120.356083,0.014289615
C0Z270,蕃薯寮,2023-06-27,23.73835,121.540108,0.21261334
C0F9Q0,外埔,2023-06-27,24.347817,120.705686,0.020163702
C0K580,高鐵雲林,2023-06-27,23.737456,120.417944,0.01273251
C2I090,鳳凰,2023-06-27,23.728081,120.787347,3.2600076e-09
C0U990,員山,2023-06-27,24.74435,121.72247,0.01360408
C0V770,大社,2023-06-27,22.730306,120.346639,0.011841676
C0X120,麻豆,2023-06-27,23.183289,120.248611,0.0026949919
C0C670,龍潭,2023-06-27,24.870056,121.221389,2.7934172e-07
C0D680,香山濕地,2023-06-27,24.783581,120.914988,1.6284415e-05
C0S980,勝林山,2023-06-27,22.430439,120.8938,3.3446128e-09
C0V730,大寮,2023-06-27,22.605614,120.395717,0.016761009
C0R570,麟洛,2023-06-27,22.65078,120.52719,0.46890014
CAG100,王功漁港,2023-06-27,23.96824,120.32586,0.00025794766
C0X290,北門,2023-06-27,23.267772,120.125481,0.0002717908
C2F930,大甲,2023-06-27,24.347667,120.640403,0.00031926538
C0D650,湖口,2023-06-27,24.904794,121.043628,4.580143e-08
C0E420,竹南,2023-06-27,24.708978,120.888897,5.313439e-07
C0U780,五結,2023-06-27,24.68637,121.79794,0.013753848
C1I250,鯉潭,2023-06-27,23.961922,120.991131,0.027777055
C0R130,阿禮,2023-06-27,22.742908,120.743678,4.54046e-09
C0X100,臺南市北區,2023-06-27,23.010394,120.194228,0.0003706031
C0S920,金峰嘉蘭,2023-06-27,22.594789,120.960825,0.0034779513
C0V490,新興,2023-06-27,22.627422,120.298803,0.019433793
C0F9K0,大安,2023-06-27,24.345061,120.588025,0.0016982195
72N100,臺南農改,2023-06-27,23.0605,120.342194,0.012585465
467290,古坑,2023-06-27,23.633639,120.551889,0.012022266
C0V440,鳳山,2023-06-27,22.646653,120.356122,0.014289615
C1T940,大觀,2023-06-27,23.714206,121.373133,1.9399447e-06
72T250,花蓮農改,2023-06-27,23.975222,121.563889,0.04719785
C0E740,造橋,2023-06-27,24.637056,120.864778,1.0527837e-05
C0R100,尾寮山,2023-06-27,22.833111,120.683889,8.754654e-09
A2K630,臺大雲林校區,2023-06-27,23.730628,120.423903,0.01273251
C0D580,寶山,2023-06-27,24.735006,121.025192,1.4736831e-05
E2P990,林試扇平站,2023-06-27,22.9677,120.6857,0.8333528
C0AI30,三重,2023-06-27,25.057328,121.500629,0.00059191685
C0AH00,汐止,2023-06-27,25.066881,121.658778,0.0005298405
C1Z040,立山,2023-06-27,23.443356,121.327375,9.1275615e-05
C0R740,獅子,2023-06-27,22.201569,120.70525,1.1685702e-05
C0W130,花嶼,2023-06-27,23.40007,119.32276,0.0013964481
C0A950,鼻頭角,2023-06-27,25.129036,121.923372,0.9995687
C0K470,林內,2023-06-27,23.748675,120.609642,0.004657919
82C160,茶改場,2023-06-27,24.908472,121.185333,1.8446423e-08
C0Z320,清水林道,2023-06-27,23.27125,121.188272,0.04942977
C0R760,南仁湖,2023-06-27,22.084681,120.863353,2.023613e-07
C0M670,大林,2023-06-27,23.600616,120.45841,0.0051801135
C0M800,茶山,2023-06-27,23.299075,120.664767,0.041229106
C0A9C0,天母,2023-06-27,25.117494,121.537169,0.00040684297
72K220,南改斗南分場,2023-06-27,23.634556,120.477333,0.02830878
72AI40,桃改樹林分場,2023-06-27,24.944503,121.386972,1.3767714e-05
C0S910,蘭嶼燈塔,2023-06-27,22.081197,121.503117,1.632285e-07
C0B050,八斗子,2023-06-27,25.144754,121.79167,0.003202701
C0U900,內城,2023-06-27,24.71813,121.68766,0.012371403
C0X320,柳營,2023-06-27,23.253328,120.375253,0.78983057
C0M790,新港,2023-06-27,23.553269,120.345728,0.010035887
C0F9T0,西屯,2023-06-27,24.179494,120.641275,0.004406225
C0SA30,都歷,2023-06-27,23.020333,121.323642,0.00032392098
C0C620,蘆竹,2023-06-27,25.084275,121.265767,1.341706e-06
C0R730,大坪頂,2023-06-27,22.024633,120.69355,0.00081717677
C0AJ40,石門,2023-06-27,25.273672,121.601198,1.9624042e-06
C0E750,苗栗,2023-06-27,24.564569,120.824575,0.028377363
C0T870,鯉魚潭,2023-06-27,23.935639,121.508944,0.007322848
C1V170,排雲,2023-06-27,23.463619,120.954147,4.526133e-09
C2H950,中寮,2023-06-27,23.884447,120.766406,0.009142231
C0R350,貓鼻頭,2023-06-27,21.921774,120.7358,0.24963745
C0V660,岡山,2023-06-27,22.797078,120.294958,0.001266111
C1H941,雙冬,2023-06-27,23.967378,120.802189,1.8410084e-07
C0AJ70,田寮,2023-06-27,25.2698,121.4886,2.0052996e-05
C0AI00,五股,2023-06-27,25.07445,121.42728,5.1455925e-07
C0Z280,德武,2023-06-27,23.47426,121.41071,0.12899154
C0R700,枋山,2023-06-27,22.246844,120.661086,0.014788611
C0C460,復興,2023-06-27,24.820208,121.352281,3.2199097e-08
E2H360,蓮華池,2023-06-27,23.918333,120.885278,2.4748672e-08
C0M640,中埔,2023-06-27,23.42538,120.5229,0.013054026
C0W140,金沙,2023-06-27,24.488292,118.408778,3.3859156e-05
C2A540,四堵,2023-06-27,24.8926,121.745736,0.5770784
C0ACA0,新莊,2023-06-27,25.051478,121.446756,0.00017032167
C0R220,潮州,2023-06-27,22.534361,120.54,0.7633117
U2HA40,臺大內茅埔,2023-06-27,23.689722,120.851117,0.5415015
467490,臺中,2023-06-27,24.145736,120.684075,0.17528695
C0U960,翠峰湖,2023-06-27,24.510856,121.608044,3.4275804e-09
E2HA20,林試畢祿溪站,2023-06-27,24.226944,121.308522,1.6282939e-09
C0V890,前鎮,2023-06-27,22.5718,120.3117,0.022823896
467620,蘭嶼,2023-06-27,22.036969,121.558339,7.330447e-08
C1F941,雪嶺,2023-06-27,24.280586,121.026642,4.98652e-09
C0AC80,文山,2023-06-27,25.00235,121.575728,0.00014543385
C0F9R0,龍井,2023-06-27,24.184536,120.528972,0.0013147504
C0M760,民雄,2023-06-27,23.551754,120.428457,0.00514918
C0UA40,西德山,2023-06-27,24.560647,121.752608,2.1784825e-09
C1T920,中興,2023-06-27,23.769503,121.498653,0.19847521
C0D550,雪霸,2023-06-27,24.526972,121.11605,7.4878626e-10
C2F860,梨山,2023-06-27,24.247522,121.243669,1.7029811e-09
C0R320,車城,2023-06-27,22.0744,120.716247,0.028760126
C1S870,南美山,2023-06-27,23.15025,121.382333,0.020535158
C0B020,基隆嶼,2023-06-27,25.19141,121.78391,0.25010014
C1U501,牛鬥,2023-06-27,24.637836,121.573656,0.30402133
C0M730,嘉義市東區,2023-06-27,23.457673,120.460531,0.061208688
C0S700,知本,2023-06-27,22.684866,121.005642,3.5246086e-07
C1N001,沙崙,2023-06-27,22.935472,120.309406,0.16587773
C0V760,橋頭,2023-06-27,22.757806,120.30575,0.012425101
C0G960,福寶,2023-06-27,24.0443,120.3814,0.00055668683
C0X210,白河,2023-06-27,23.347466,120.414427,0.045478575
C0S810,東河,2023-06-27,22.972672,121.303986,6.3620255e-06
C0R670,楓港,2023-06-27,22.190131,120.692156,0.01241012
C0FA50,霧峰,2023-06-27,24.0419,120.6995,0.069220655
C0UB10,蘇澳,2023-06-27,24.5969,121.8571,0.030222056
C0G950,防潮門,2023-06-27,24.1835,120.4871,0.0013147504
C0M740,六腳,2023-06-27,23.492871,120.290625,0.0032016921
C1R250,力里,2023-06-27,22.428117,120.629228,0.013997393
C0K330,虎尾,2023-06-27,23.719183,120.442036,0.010405457
C2FA00,烏石坑,2023-06-27,24.273503,120.947617,4.7126516e-08
C0V620,永安,2023-06-27,22.82315,120.236856,0.001266111
C1I330,楓樹林,2023-06-27,23.986803,121.076117,2.196775e-09
C0W200,湖西,2023-06-27,23.596314,119.67275,0.00084231474
72Q010,高雄農改場,2023-06-27,22.709333,120.525889,0.5851716
C0SA40,瑞和,2023-06-27,22.974361,121.156697,4.1078714e-05
C0C680,龜山,2023-06-27,25.02846,121.38656,1.048843e-07
C2V260,月眉,2023-06-27,22.971003,120.539853,0.052063197
C0V450,鳳森,2023-06-27,22.545064,120.392592,0.0005025314
C0U720,南山,2023-06-27,24.43742,121.38167,3.5905686e-08
A2N290,臺南蘭花園區,2023-06-27,23.340258,120.379661,0.003083361
C0R560,新園,2023-06-27,22.5434,120.461558,0.0013751254
C0U890,三星,2023-06-27,24.66812,121.65302,0.26408085
C1V300,御油山,2023-06-27,23.001983,120.715364,1.5454797e-09
C0U600,礁溪,2023-06-27,24.817539,121.765608,0.5706443
C1T980,龍澗,2023-06-27,24.023289,121.411328,2.190428e-09
C0D670,海天一線,2023-06-27,24.831986,120.914438,1.07948786e-07
C0SA00,歷坵,2023-06-27,22.520969,120.89185,3.0804154e-06
C0M710,東石,2023-06-27,23.458927,120.15385,0.00041801314
C0M780,鹿草,2023-06-27,23.41134,120.30835,0.001820399
C0U520,雙連埤,2023-06-27,24.753033,121.641303,0.013198778
C0B010,七堵,2023-06-27,25.094819,121.71713,0.0015156413
C0R480,長治,2023-06-27,22.693128,120.542622,0.17642137
C1V830,國三S383K,2023-06-27,22.781967,120.426475,0.985936
12Q980,恆春工作站,2023-06-27,22.079678,120.714425,0.028760117
C1O940,東山服務區,2023-06-27,23.286016,120.398472,0.48857552
C1U840,東澳嶺,2023-06-27,24.5378,121.8485,4.507423e-08
C1D630,飛鳳山,2023-06-27,24.766464,121.119178,7.3709763e-09
C0S940,石寧山,2023-06-27,23.223772,121.406639,0.09321147
C0K410,北港,2023-06-27,23.573957,120.292802,0.00019791473
C2M620,瑞里,2023-06-27,23.545133,120.675197,1.8196001e-09
C2O950,安南,2023-06-27,23.076694,120.144861,0.00024089012
C0F0E0,南湖圈谷,2023-06-27,24.363714,121.444667,7.828784e-09
467610,成功,2023-06-27,23.097486,121.373428,0.017658876
C0G890,伸港,2023-06-27,24.148933,120.484403,0.0007113002
C2E540,龍溪,2023-06-27,24.606489,120.783933,1.4760827e-05
C1V200,梅山,2023-06-27,23.268447,120.823556,0.00083034486
C0T9H0,加路蘭山,2023-06-27,23.682947,121.5274,9.071637e-07
C2O930,玉井,2023-06-27,23.126042,120.46055,0.8049356
C1F911,新伯公,2023-06-27,24.221361,120.841069,0.29692176
C0R490,九如,2023-06-27,22.7405,120.490503,0.60253364
C0X200,左鎮,2023-06-27,23.056758,120.408522,0.17366654
C1F891,稍來,2023-06-27,24.265689,121.001142,3.5506513e-09
72N240,七股研究中心,2023-06-27,23.081672,120.062894,0.00024549398
C0C700,中壢,2023-06-27,24.977661,121.256375,2.886656e-07
C0M690,水上,2023-06-27,23.419734,120.388909,0.006071983
C0V690,鼓山,2023-06-27,22.623325,120.275575,0.019433826
C0O860,大內,2023-06-27,23.11885,120.36083,0.015250334
C0Z200,萬榮,2023-06-27,23.709219,121.420106,0.4533138
C0T9D0,和中,2023-06-27,24.26676,121.74103,0.42480126
C1O921,楠西,2023-06-27,23.183511,120.484083,0.4664396
C0AJ30,淡水觀海,2023-06-27,25.184591,121.408616,0.0002972922
C0V810,左營,2023-06-27,22.67491,120.28491,0.018928898
C0UA70,桃源谷,2023-06-27,24.962606,121.888875,8.966488e-09
C0X130,官田,2023-06-27,23.193217,120.315422,0.2145066
C1H000,翠峰,2023-06-27,24.109397,121.205211,8.6293994e-10
C0UA90,石城,2023-06-27,24.980444,121.951214,0.23312071
C1E681,南勢山,2023-06-27,24.421669,120.923831,1.3665153e-06
C0A9F0,內湖,2023-06-27,25.079422,121.57545,0.0005298405
C0K291,宜梧,2023-06-27,23.536281,120.169329,0.00043658612
C1K540,口湖,2023-06-27,23.585344,120.180517,0.0017708426
C0R780,滿州,2023-06-27,22.024403,120.839892,0.0003877076
C0V870,文安,2023-06-27,22.8025,120.2164,0.001363661
C0U650,玉蘭,2023-06-27,24.675286,121.587061,0.12646863
C0R640,東港,2023-06-27,22.46247,120.44074,0.0024777446
K2E360,苗栗農改,2023-06-27,24.495722,120.829111,0.59447753
C0AJ80,板橋,2023-06-27,25.0107,121.4489,0.00024795427
C0S660,下馬,2023-06-27,23.150427,121.070312,4.918511e-08
C1H9B1,阿眉,2023-06-27,24.1263,120.994672,2.138932e-09
C0UA20,多加屯,2023-06-27,24.368614,121.373189,1.9301316e-09
C0E730,頭份,2023-06-27,24.688247,120.912206,7.0750195e-07
72V140,高改旗南分場,2023-06-27,22.857861,120.516667,0.96690565
C0K480,莿桐,2023-06-27,23.761192,120.502372,0.0059488695
C0U980,坪林石牌,2023-06-27,24.86478,121.77396,1.7161989e-05
C0T900,西林,2023-06-27,23.8119,121.441458,0.0049860817
C1I150,青雲,2023-06-27,23.793361,120.949378,0.002116094
467350,澎湖,2023-06-27,23.565503,119.563094,0.0014213577
C0G800,埔鹽,2023-06-27,24.000394,120.431683,0.00096695655
C0H960,草屯,2023-06-27,23.973672,120.68085,0.043628253
C1V780,多納林道,2023-06-27,22.888028,120.737917,4.807872e-09
C0E920,通霄漁港,2023-06-27,24.498589,120.673876,0.17393109
C0Z330,安通山,2023-06-27,23.290728,121.348528,0.00017504083
C0AH10,永和,2023-06-27,25.01125,121.508111,0.00024795427
C2G640,鹿港,2023-06-27,24.0753,120.430481,0.00055668683
C1E890,國三N149K,2023-06-27,24.463414,120.680019,0.0010086179
C1R110,口社,2023-06-27,22.770111,120.645222,0.5765434
C1M870,國三N285K,2023-06-27,23.550319,120.505833,0.019362802
467050,新屋,2023-06-27,25.006744,121.047486,4.4115914e-08
C1E480,鳳美,2023-06-27,24.554803,121.034747,8.46115e-07
C0M530,奮起湖,2023-06-27,23.493903,120.699253,1.5877314e-09
C0C590,觀音,2023-06-27,25.027072,121.153317,4.320145e-08
C0T9M0,靜浦,2023-06-27,23.455167,121.495028,0.7060525
C0AI40,石牌,2023-06-27,25.115597,121.513139,0.0004100095
C1F871,上谷關,2023-06-27,24.203483,121.018644,6.1924514e-09
C0G880,二水,2023-06-27,23.810742,120.6173,0.013336845
C0R940,加祿堂,2023-06-27,22.3363,120.6217,0.011369601
C0W220,北竿,2023-06-27,26.220358,119.974881,0.0010197549
C0O960,崎頂,2023-06-27,22.959547,120.369317,0.0134160435
C0S750,向陽,2023-06-27,23.248397,120.986133,1.3423904e-09
C0T9F0,水璉,2023-06-27,23.797131,121.542514,2.9415203e-05
C1M600,頭凍,2023-06-27,23.406364,120.603339,7.03976e-08
467660,臺東,2023-06-27,22.752211,121.154586,0.0010168212
C1D380,新埔,2023-06-27,24.84745,121.03834,1.05381e-07
C0V750,路竹,2023-06-27,22.854997,120.259439,0.0010392867
C0N050,蚵寮,2023-06-27,23.301,120.1104,9.3917515e-05
72M700,南改鹿草分場,2023-06-27,23.416869,120.283061,0.0020343047
C1SA50,利嘉林道,2023-06-27,22.82325,121.009389,3.9977563e-10
467550,玉山,2023-06-27,23.487614,120.959522,7.525135e-09
C0A940,金山,2023-06-27,25.223628,121.643967,0.00030160646
C1V340,大津,2023-06-27,22.888322,120.645986,0.017801339
C0W180,七美,2023-06-27,23.219333,119.444892,0.00077627564
C1F9C1,白冷,2023-06-27,24.182844,120.929889,0.0011675712
K2E710,苗改生物防治研究中心,2023-06-27,24.422861,120.871833,0.3831569
C0N040,蘆竹溝,2023-06-27,23.2344,120.0961,0.0002717908
C2W230,畜試所澎湖,2023-06-27,23.628342,119.513206,0.002472628
C0R880,後壁湖,2023-06-27,21.9457,120.7457,0.026131693
C1I280,埔中,2023-06-27,23.820778,120.642594,2.3736231e-05
467790,墾丁雷達站,2023-06-27,21.948235,120.808028,0.008798221
C0W190,望安,2023-06-27,23.380564,119.494075,0.0019332976
466881,新北,2023-06-27,24.9593,121.52,0.00019627358
C0Z170,卓溪,2023-06-27,23.3443,121.3029,0.62461704
C0F850,東勢,2023-06-27,24.246428,120.833047,0.16794255
466900,淡水,2023-06-27,25.164889,121.448906,9.656849e-06
C0I370,魚池,2023-06-27,23.895703,120.94135,6.626209e-08
C0C630,大溪,2023-06-27,24.882853,121.265547,7.671252e-07
C0A520,山佳,2023-06-27,24.974944,121.402008,0.00010149686
C0I110,竹山,2023-06-27,23.761225,120.688156,0.0029453211
82H840,茶改南部分場,2023-06-27,23.762528,120.7405,6.635834e-05
C0G660,溪湖,2023-06-27,23.94835,120.479122,0.004181853
C1T800,洛韶,2023-06-27,24.204558,121.453956,2.8928597e-09
C1T810,慈恩,2023-06-27,24.192044,121.388386,4.3554776e-10
C1E451,象鼻,2023-06-27,24.368617,120.940228,1.9818137e-07
C0AC60,三峽,2023-06-27,24.939025,121.369728,9.788569e-06
C0I490,萬大林道,2023-06-27,23.928228,121.091411,1.4148779e-09
C1I290,豐丘,2023-06-27,23.668178,120.887417,1.7327876e-09
C1I320,奧萬大,2023-06-27,23.952956,121.178556,2.4449742e-09
C0U770,南澳,2023-06-27,24.44935,121.81022,0.9982892
C0A980,社子,2023-06-27,25.109508,121.469681,1.3316939e-05
C0V800,六龜,2023-06-27,22.997889,120.633583,0.11710802
C1G9D0,國一S218K,2023-06-27,23.890641,120.493253,0.0032577177
C2F9A0,中竹林,2023-06-27,24.103556,120.751061,0.024726566
C0FA40,臺中電廠,2023-06-27,24.2146,120.4907,0.0013147504
C0H9C0,合歡山,2023-06-27,24.143442,121.272547,5.4576113e-09
C0X060,下營,2023-06-27,23.22695,120.256261,0.002949703
G2M350,農試溪口農場,2023-06-27,23.58565,120.408111,0.0076794634
C0U860,頭城,2023-06-27,24.85323,121.8308,0.554351
C0R580,南州,2023-06-27,22.48591,120.50274,0.0024777446
C0D430,峨眉,2023-06-27,24.6905,121.017189,1.4152479e-06
C0G780,秀水,2023-06-27,24.03405,120.503869,0.0070121144
72N100,臺南農改場,2023-06-27,23.0605,120.342194,0.01258547
C0S900,蘭嶼高中,2023-06-27,22.04909,121.51214,9.036322e-07
467540,大武,2023-06-27,22.355675,120.903789,0.00013947906
C1F9W0,德基,2023-06-27,24.254783,121.190261,2.8860645e-09
C1Z120,壽豐,2023-06-27,23.870853,121.508081,0.04642223
C0W160,烏坵,2023-06-27,24.9944,119.44956,4.607871e-07
C1I240,外大坪,2023-06-27,23.958697,120.917931,0.010348122
C1I550,國六W023K,2023-06-27,23.979067,120.867742,0.00029415003
C0R870,興海,2023-06-27,21.9752,120.8439,0.02416213
C0R140,瑪家,2023-06-27,22.682903,120.686639,0.0008162335
C0A530,坪林,2023-06-27,24.938183,121.70975,0.9000642
C0X260,後壁,2023-06-27,23.366358,120.362326,0.003083361
C0Z230,和平,2023-06-27,24.30717,121.77007,0.45451885
C0G770,福興,2023-06-27,24.041289,120.437669,0.00096695655
C0H9A0,神木村,2023-06-27,23.532742,120.843667,1.3304763e-09
C0I460,南投,2023-06-27,23.911469,120.687331,0.42752996
C0I480,梅峰,2023-06-27,24.085272,121.173572,1.0811643e-09
C1V570,吉東,2023-06-27,22.85422,120.5454,0.95274395
C2A560,福山,2023-06-27,24.776203,121.502811,0.9538205
C0AH30,五分山,2023-06-27,25.07125,121.780794,1.3297963e-09
C0FA10,松柏,2023-06-27,24.429115,120.617482,0.0029937653
72S200,東改班鳩分場,2023-06-27,22.829528,121.077694,0.0009495278
72HA00,中改埔里分場,2023-06-27,23.903208,120.963364,7.028289e-08
C0C650,平鎮,2023-06-27,24.897503,121.214636,1.391941e-07
C0S930,延平,2023-06-27,22.902581,121.084058,8.479665e-05
C0UA60,樟樹山,2023-06-27,24.41393,121.78325,0.6855004
C1S670,摩天,2023-06-27,23.199503,121.027,1.3769057e-09
C0V630,茄萣,2023-06-27,22.906642,120.182608,0.0013509272
466940,基隆,2023-06-27,25.133314,121.740475,0.003246525
C0X050,東河,2023-06-27,23.296598,120.385608,0.57943827
C0R770,保力,2023-06-27,22.071122,120.764111,0.0068040476
G2L020,農試嘉義分所,2023-06-27,23.485028,120.473806,0.031043723
C0X240,關子嶺,2023-06-27,23.331169,120.508025,0.014870766
C0I380,集集,2023-06-27,23.828206,120.801467,0.0022228549
466990,花蓮,2023-06-27,23.975128,121.613275,0.047156863
C1V220,小關山,2023-06-27,23.154217,120.813603,2.0279294e-09
C1F9G1,慶福山,2023-06-27,24.180853,120.848378,1.6898348e-07
C0Z250,瑞穗林道,2023-06-27,23.49284,121.30688,7.5309075e-09
C0D590,新豐,2023-06-27,24.87068,120.97721,1.0140227e-08
C0A870,五指山,2023-06-27,25.132153,121.608692,1.5969065e-09
C0UA50,西帽山,2023-06-27,24.555361,121.802628,5.5543012e-08
C0X160,仁德,2023-06-27,22.968258,120.257689,0.0009167744
C1H971,六分寮,2023-06-27,23.92507,120.6378,0.00088338455
C0W120,西嶼,2023-06-27,23.5626,119.468436,0.0044724187
C0G650,員林,2023-06-27,23.946503,120.585597,0.065182
C0AD50,鶯歌,2023-06-27,24.951533,121.346294,4.8605275e-06
C0S990,山豬窟,2023-06-27,22.318619,120.857372,3.640954e-08
72Q010,高雄農改,2023-06-27,22.709333,120.525889,0.5851716
C0X190,安平,2023-06-27,22.993161,120.152181,0.0003706031
C0K400,斗六,2023-06-27,23.720583,120.541127,0.33482015
12J990,口湖工作站,2023-06-27,23.589978,120.180394,0.0017708426
C0O830,北寮,2023-06-27,23.079561,120.495008,0.023774233
C1D410,白蘭,2023-06-27,24.579364,121.079947,4.877829e-10
C0S970,加津林,2023-06-27,22.416211,120.926942,7.800846e-05
C0D700,關西,2023-06-27,24.7977,121.1732,1.1524522e-06
C0M810,里佳,2023-06-27,23.389125,120.716647,2.8718532e-09
C0U750,龜山島,2023-06-27,24.841667,121.953133,0.78366894
C0R810,內獅,2023-06-27,22.305064,120.642986,0.011635999
C1M390,龍美,2023-06-27,23.406728,120.654417,9.124887e-09
C1H840,國三N238K,2023-06-27,23.841008,120.707711,0.005234475
CAQ030,崎峰國小,2023-06-27,22.42565,120.49521,0.0024777446
C2E520,大湖,2023-06-27,24.414939,120.870872,0.24518378
467530,阿里山,2023-06-27,23.508208,120.813242,2.4845004e-09
C1E691,南湖,2023-06-27,24.40135,120.837533,4.5850924e-05
C0FA30,梧棲,2023-06-27,24.256003,120.523381,0.0007596377
C1V231,高中,2023-06-27,23.134911,120.716711,2.3131543e-06
C0F9V0,新社,2023-06-27,24.200172,120.815806,0.025801362
C0H890,埔里,2023-06-27,23.972169,120.952425,1.269186e-05
C0R690,墾丁,2023-06-27,21.966756,120.810269,3.212606e-05
C0F0D0,審馬陣,2023-06-27,24.381675,121.4203,3.6926213e-09
C0R820,白鷺,2023-06-27,22.454275,120.666219,1.9422569e-06
U2H480,臺大溪頭,2023-06-27,23.670306,120.798194,1.9451178e-09
C1V190,南天池,2023-06-27,23.27403,120.91176,1.2295323e-09
K2E360,苗栗農改場,2023-06-27,24.495722,120.829111,0.59447753
CAJ050,海口故事園區,2023-06-27,23.57543,120.14121,0.0017708426
C0O990,媽廟,2023-06-27,22.99175,120.293525,0.0018221152
C0D480,打鐵坑,2023-06-27,24.849664,121.150789,2.7119717e-07
C0Z220,和平林道,2023-06-27,24.343922,121.656317,3.919525e-07
72C440,桃園農改場,2023-06-27,24.950944,121.030583,9.589761e-08
C1E711,馬拉邦山,2023-06-27,24.367306,120.901656,1.4010158e-07
C0D560,竹東,2023-06-27,24.767147,121.057881,1.8050176e-06
C0F9U0,南屯,2023-06-27,24.137006,120.637969,0.0069849775
C0M720,番路,2023-06-27,23.464657,120.554156,0.010415792
C0F0A0,雪山圈谷,2023-06-27,24.388594,121.236339,7.10304e-09
C1A9N0,四十份,2023-06-27,24.934158,121.593283,3.2526376e-07
C0U760,東澳,2023-06-27,24.52196,121.83318,0.9625738
C0X230,鹽水,2023-06-27,23.272621,120.247641,8.2268474e-05
C0V370,古亭坑,2023-06-27,22.893178,120.401947,0.9663333
C1I340,新興橋,2023-06-27,23.563333,120.868728,1.4705143e-08
C0SA80,土坂,2023-06-27,22.453108,120.887572,1.0335077e-05
C0R160,鹽埔,2023-06-27,22.739558,120.530778,0.5851716
C0AC40,大屯山,2023-06-27,25.175675,121.522408,9.469717e-10
466850,五分山雷達站,2023-06-27,25.071182,121.781205,1.2896427e-09
C1AI50,國三N016K,2023-06-27,25.034164,121.619664,0.00029311507
C1V600,藤枝,2023-06-27,23.071961,120.757042,2.1093927e-09
C1E601,南勢,2023-06-27,24.572486,120.734842,0.04434059
C0Z180,新城,2023-06-27,24.03946,121.60454,0.04725536
C0O980,新市,2023-06-27,23.061614,120.298197,0.025146503
C0K420,西螺,2023-06-27,23.800407,120.467394,0.0015378894
C0Z050,佳心,2023-06-27,23.34567,121.21316,1.6194953e-08
C0AD30,蘆洲,2023-06-27,25.086594,121.472331,0.0005919608
C0V610,梓官,2023-06-27,22.760558,120.267211,0.012425101
K2F750,種苗改良場,2023-06-27,24.225972,120.800917,0.16122848
C0UA80,大溪漁港,2023-06-27,24.941801,121.902955,0.45321554
C1AI60,國一39K邊坡,2023-06-27,25.064361,121.383836,2.2688475e-07
C0W150,金寧,2023-06-27,24.457703,118.328989,8.544495e-06
V2C250,八德合作社,2023-06-27,24.93775,121.266389,6.0151467e-07
C0AH40,平等,2023-06-27,25.129142,121.577086,2.3139291e-08
C0R540,佳冬,2023-06-27,22.419456,120.552375,0.013623809
466950,彭佳嶼,2023-06-27,25.627975,122.079744,1.7545932e-07
C0A890,雙溪,2023-06-27,25.036003,121.864242,0.99462765
C0C480,桃園,2023-06-27,24.992425,121.323172,5.9906847e-07
C0AH50,林口,2023-06-27,25.072181,121.38084,6.509931e-08
A2K360,水試臺西試驗場,2023-06-27,23.717231,120.190522,0.00088476733
B2N890,畜試所,2023-06-27,23.058972,120.336406,0.012529779
C0F9S0,烏日,2023-06-27,24.107058,120.624103,0.28725952
C0C490,八德,2023-06-27,24.928708,121.283289,5.341138e-07
C0R190,赤山,2023-06-27,22.592333,120.614306,0.7666052
C0T820,天祥,2023-06-27,24.179597,121.495639,4.2903685e-06
C1F9E1,龍安,2023-06-27,24.1605,120.831961,0.0063701533
C0V820,小林,2023-06-27,23.148408,120.63325,0.002494393
C2G870,芳苑,2023-06-27,23.922303,120.320025,0.00022626606
C0E850,大河,2023-06-27,24.618069,120.948578,4.4164303e-06
C1U670,寒溪,2023-06-27,24.634,121.71691,0.25367624
C0N020,城西,2023-06-27,23.0568,120.0956,0.0003706031
C1Z110,三棧,2023-06-27,24.11557,121.60501,2.5705997e-08
C0R280,檳榔,2023-06-27,22.076078,120.836777,3.2602104e-06
C0F9L0,后里,2023-06-27,24.310436,120.729725,0.13379751
C0D540,橫山,2023-06-27,24.71116,121.11693,2.5033178e-06
C1D420,太閣南,2023-06-27,24.632808,121.160575,5.393215e-09
C1E770,公館,2023-06-27,24.526914,120.830806,0.6395393
CAN130,水試所海水繁養殖中心,2023-06-27,23.120802,120.07968,0.00024553612
C1I430,翠華,2023-06-27,24.191961,121.224339,9.34284e-10
C1M400,菜瓜坪,2023-06-27,23.251928,120.576103,0.034658022
C0G730,二林,2023-06-27,23.903325,120.376081,0.00095774507
72M360,南改義竹分場,2023-06-27,23.360694,120.279361,8.2457285e-05
V2K620,麥寮合作社,2023-06-27,23.753836,120.294783,0.00498106
C0Z070,舞鶴,2023-06-27,23.46811,121.37407,0.052428156
C0B040,大武崙,2023-06-27,25.166676,121.706993,0.0037145887
C1Z030,紅葉,2023-06-27,23.493119,121.338806,0.020331511
C1I050,丹大,2023-06-27,23.753747,121.141147,1.9842197e-09
C0I080,信義,2023-06-27,23.689694,120.851036,0.5415015
C2A880,福隆,2023-06-27,25.017842,121.942083,0.22342907
C0Z160,鳳林,2023-06-27,23.746114,121.453411,0.3089391
C0V210,復興,2023-06-27,23.222403,120.806089,0.28194588
C0H990,昆陽,2023-06-27,24.121322,121.273642,2.3355797e-09
C0S710,鹿野,2023-06-27,22.917711,121.122994,1.2614656e-07
C0I530,小奇萊,2023-06-27,24.131764,121.295717,2.5834077e-09
C0Z080,富源,2023-06-27,23.587642,121.378225,0.60588366
467441,高雄,2023-06-27,22.7304,120.3125,0.011841676
C1I140,卡奈托灣,2023-06-27,23.754364,121.087872,1.3748063e-09
C0I520,玉山風口,2023-06-27,23.470489,120.955994,9.392678e-09
C1G691,下水埔,2023-06-27,23.816114,120.5676,0.0033899075
C0X110,臺南市南區,2023-06-27,22.961189,120.188378,0.0009677034
C0V680,仁武,2023-06-27,22.701083,120.347722,0.018928898
C2G840,北斗,2023-06-27,23.877586,120.514222,0.0030172493
C0R900,竹坑,2023-06-27,22.1385,120.7022,0.027018994
C0K250,崙背,2023-06-27,23.75555,120.318925,0.0049902378
C0G860,社頭,2023-06-27,23.897647,120.5862,0.012269264
C0X150,安定,2023-06-27,23.102614,120.227839,0.00037937678
C0R590,里港,2023-06-27,22.77919,120.49459,0.992013
C0E610,馬都安,2023-06-27,24.451272,120.930192,2.5074967e-05
C0E550,明德,2023-06-27,24.583486,120.885411,0.014810928
C0R150,三地門,2023-06-27,22.709889,120.639944,0.5615288
C0G910,花壇,2023-06-27,24.032076,120.549461,0.005368801
C1D400,鳥嘴山,2023-06-27,24.71909,121.28387,5.929302e-09
C0K500,元長,2023-06-27,23.64981,120.315024,0.0011591575
C0F0B0,石岡,2023-06-27,24.276061,120.777644,0.03486212
C2V250,甲仙,2023-06-27,23.080106,120.591758,0.0060523106
C0SA20,金崙山,2023-06-27,22.567419,120.959667,2.710369e-09
C0V350,溪埔,2023-06-27,22.738578,120.446797,0.9799028
C0M660,溪口,2023-06-27,23.604131,120.403569,0.007697544
C1S880,壽卡,2023-06-27,22.238911,120.858903,2.0206024e-08
72D680,桃改新埔分場,2023-06-27,24.834444,121.066111,1.16120034e-07
