站號,站名,日期,lat,lon,BLBTSLS
C0R710,龍磐,2023-12-19,21.931672,120.838942,0.13171965
C1F9D1,白毛台,2023-12-19,24.158325,120.886933,6.3490635e-10
C0G940,竹塘,2023-12-19,23.848253,120.386764,5.573648e-08
467590,恆春,2023-12-19,22.003897,120.746339,0.46387768
C1O850,環湖,2023-12-19,23.148617,120.418633,0.9983331
C0U710,太平山,2023-12-19,24.505486,121.525656,6.7664656e-09
C0E820,獅潭,2023-12-19,24.539133,120.920042,5.902019e-09
C0V880,興達,2023-12-19,22.8778,120.2127,4.6418592e-07
C0S890,關山,2023-12-19,23.0395,121.175017,3.4500713e-09
K2F750,種苗繁殖,2023-12-19,24.225972,120.800917,1.3335199e-09
C1Z130,銅門,2023-12-19,23.965694,121.492842,1.6239898e-08
C0AD40,土城,2023-12-19,24.973208,121.445169,6.101905e-08
CAN140,六官養殖協會,2023-12-19,23.22881,120.29962,0.6134567
C0X180,山上,2023-12-19,23.0757,120.363253,0.23097892
C0F9Z0,雪山東峰,2023-12-19,24.388792,121.268675,1.045539e-08
C1M480,獨立山,2023-12-19,23.537022,120.607797,6.3946143e-10
C0X220,學甲,2023-12-19,23.230367,120.182187,1.1439228e-07
C0R170,屏東,2023-12-19,22.660269,120.494072,0.04541687
467650,日月潭,2023-12-19,23.881325,120.90805,1.2146261e-09
C0K600,箔子寮,2023-12-19,23.6197,120.14,0.74355257
C0G830,埤頭,2023-12-19,23.866003,120.452806,1.5774662e-08
C0S950,七塊厝,2023-12-19,22.954453,121.229922,3.4407923e-09
467110,金門,2023-12-19,24.407306,118.289281,8.330623e-07
C0AH80,深坑,2023-12-19,25.002703,121.628328,3.068588e-08
467990,馬祖,2023-12-19,26.169269,119.923419,2.4222773e-08
C0A970,三貂角,2023-12-19,25.007606,122.002058,1.5093074e-06
C0K430,褒忠,2023-12-19,23.690938,120.303634,4.251059e-05
467480,嘉義,2023-12-19,23.495925,120.432906,0.7576019
C2E540,後龍,2023-12-19,24.606489,120.783933,2.8351892e-07
C0V400,阿公店,2023-12-19,22.804194,120.355528,2.8154009e-06
C0R440,大漢山,2023-12-19,22.405264,120.753181,5.405834e-08
C0K280,四湖,2023-12-19,23.630414,120.227125,0.97382957
C1F9B1,桐林,2023-12-19,24.066172,120.735194,2.9258936e-07
C0K390,土庫,2023-12-19,23.679029,120.395574,1.2377194e-05
C1I450,望鄉山,2023-12-19,23.594153,120.944286,4.8870326e-09
C0E910,海埔,2023-12-19,24.648767,120.772435,4.2828032e-07
B2E890,畜試北區分所,2023-12-19,24.527806,120.770972,1.17236265e-08
C0R750,四林格山,2023-12-19,22.076989,120.802439,0.5711352
C0F0C0,中坑,2023-12-19,24.248517,120.903319,9.16986e-10
C1I121,大鞍,2023-12-19,23.678381,120.760017,1.3245058e-09
72U480,花改蘭陽分場,2023-12-19,24.686306,121.716583,6.581717e-09
C0A770,科教館,2023-12-19,25.096356,121.516507,2.5687945e-07
C0AJ60,六塊厝,2023-12-19,25.24,121.4481,0.0057331407
C0R620,墾雷,2023-12-19,21.900836,120.855269,0.7996287
467420,永康,2023-12-19,23.038386,120.2367,0.63572913
467300,東吉島,2023-12-19,23.25695,119.667467,0.56145316
C0I410,名間,2023-12-19,23.837053,120.701447,1.5176095e-06
A2C560,農工中心,2023-12-19,24.985917,121.239833,4.22934e-07
C0V740,旗山,2023-12-19,22.888614,120.483597,0.16049063
C0Z061,玉里,2023-12-19,23.3215,121.339656,1.7181925e-08
C0S840,南田,2023-12-19,22.279725,120.889208,0.47811013
C1I470,杉林溪,2023-12-19,23.639517,120.786444,1.6994475e-09
C1X040,東原,2023-12-19,23.291597,120.463822,6.758207e-07
C0R660,枋寮,2023-12-19,22.367722,120.590647,0.41860703
C1R120,上德文,2023-12-19,22.763272,120.704442,1.4353947e-09
C0K450,大埤,2023-12-19,23.646074,120.431537,0.74105334
C0UA00,土場,2023-12-19,24.576533,121.495333,2.0606703e-09
467080,宜蘭,2023-12-19,24.763975,121.756528,1.5926762e-08
C0N030,四草,2023-12-19,23.0235,120.1116,0.00084560557
C0V650,彌陀,2023-12-19,22.783806,120.246361,1.0773589e-07
C0D660,新竹市東區,2023-12-19,24.798681,120.986942,5.35184e-08
82S580,茶改東部分場,2023-12-19,22.907694,121.130139,3.4448407e-05
C0C710,大溪永福,2023-12-19,24.892936,121.324975,1.8192531e-09
C0FA20,溫寮,2023-12-19,24.372177,120.583125,0.0007892743
C0V640,湖內,2023-12-19,22.887139,120.2445,3.6015535e-07
C0R910,下寮,2023-12-19,22.3929,120.5548,0.41860703
C0Z020,明里,2023-12-19,23.208717,121.262342,2.1723759e-08
C0M770,嘉義梅山,2023-12-19,23.585398,120.555587,0.26790175
G2F820,農業試驗所,2023-12-19,24.031261,120.688133,2.2346626e-08
C0C660,楊梅,2023-12-19,24.912375,121.143047,1.5829357e-07
C1E511,新開,2023-12-19,24.347703,120.827019,4.3118864e-09
G2F820,農試所(霧峰),2023-12-19,24.031261,120.688133,2.2346626e-08
C1I070,和社,2023-12-19,23.591131,120.888861,9.161504e-10
C2F000,大肚,2023-12-19,24.15295,120.572117,1.1471916e-07
C1S850,豐南,2023-12-19,23.122139,121.262389,2.9591245e-09
C2A920,富貴角,2023-12-19,25.263783,121.565258,1.7782845e-06
CAH030,茶改場竹圍站,2023-12-19,23.860083,120.637528,3.0436438e-09
C0T960,光復,2023-12-19,23.660694,121.424964,8.543701e-09
C0F9M0,豐原,2023-12-19,24.254322,120.720692,3.562511e-08
C0R720,旭海,2023-12-19,22.205403,120.887614,0.9412939
C0V710,苓雅,2023-12-19,22.622742,120.330669,5.2144802e-08
C0C740,觀音工業區,2023-12-19,25.064764,121.114856,0.0010453456
CAC040,拉拉山,2023-12-19,24.699317,121.427133,1.1088788e-08
C0V790,萬山,2023-12-19,22.905944,120.688056,1.3574905e-06
U2HA30,臺大和社,2023-12-19,23.590856,120.888864,9.161504e-10
C0AJ90,澳底,2023-12-19,25.0552,121.9253,0.014287626
C0Z100,東華,2023-12-19,23.89525,121.549833,1.8928402e-08
C0G970,三豐,2023-12-19,23.882,120.2895,0.9597613
V2K610,大庄合作社,2023-12-19,23.8068,120.367939,2.9881713e-07
C0V900,汕尾,2023-12-19,22.4782,120.4151,0.000109674016
C1R630,龍泉,2023-12-19,22.66701,120.59091,0.8826665
C1AC50,關渡,2023-12-19,25.133486,121.469331,1.8369799e-07
C0F9I0,神岡,2023-12-19,24.272481,120.658314,1.1963066e-08
C0K460,斗南,2023-12-19,23.678734,120.478359,0.6595923
467410,臺南,2023-12-19,22.993239,120.204772,0.00015830077
C2O810,曾文,2023-12-19,23.219681,120.497328,0.030852392
467280,後龍,2023-12-19,24.648563,120.831834,1.568746e-07
C1F9J1,清水林,2023-12-19,24.071242,120.820419,5.833011e-10
C2A650,火燒寮,2023-12-19,25.002719,121.742892,2.1845175e-07
466930,竹子湖,2023-12-19,25.162078,121.544547,4.440207e-09
C1I220,樟湖,2023-12-19,23.905333,120.846983,1.5581508e-09
C0I390,仁愛,2023-12-19,24.022122,121.132206,1.0142176e-09
C0Z300,東里,2023-12-19,23.26853,121.30547,3.4865096e-08
C0V310,美濃,2023-12-19,22.898742,120.519153,0.21404178
C1V590,新發,2023-12-19,23.057019,120.646064,3.248636e-09
C0K510,水林,2023-12-19,23.572924,120.24597,0.24942453
72S590,東改賓朗果園,2023-12-19,22.813889,121.071278,1.003018e-05
82A750,茶改北部分場,2023-12-19,24.955778,121.631222,9.888796e-08
C1A750,石碇服務區,2023-12-19,25.00872,121.646242,8.056341e-07
C0X300,鹿寮,2023-12-19,23.386047,120.477331,0.15467992
G2AI50,關渡,2023-12-19,25.11575,121.492,0.0024451704
C0K590,雲林東勢,2023-12-19,23.674192,120.255721,0.032305352
C0A570,桶後,2023-12-19,24.848222,121.597992,4.4347413e-08
C1S800,華源,2023-12-19,22.657883,121.02325,7.376369e-06
C0G720,溪州,2023-12-19,23.851589,120.499093,1.4804006e-08
C1V160,達卡努瓦,2023-12-19,23.279811,120.705319,1.2842449e-09
C2M410,馬頭山,2023-12-19,23.324361,120.582017,2.9551607e-08
C0V850,蚵仔寮,2023-12-19,22.7256,120.2527,1.4996685e-07
C0S740,池上,2023-12-19,23.119628,121.209469,4.471463e-07
C1V390,尖山,2023-12-19,22.813153,120.367789,6.3925893e-07
C0AH70,松山,2023-12-19,25.04871,121.55042,1.9026953e-07
C0N010,鯤鯓國小,2023-12-19,23.1879,120.0889,5.478802e-07
C0R550,新埤,2023-12-19,22.467947,120.582894,2.304975e-05
C0SA60,知本（水試所）,2023-12-19,22.702394,121.082761,0.0028954973
C0T9I0,豐濱,2023-12-19,23.583897,121.514806,1.0238645e-08
C0UB00,淡江大學蘭陽校園,2023-12-19,24.823239,121.730383,3.254238e-08
C0T9N0,富里,2023-12-19,23.171639,121.249378,6.973953e-08
U2HA50,臺大竹山,2023-12-19,23.756972,120.681556,0.20198332
C0V840,鳳鼻頭,2023-12-19,22.5083,120.3591,4.273293e-07
C0X140,西港,2023-12-19,23.125608,120.203108,0.0002627436
72D080,桃改五峰分場,2023-12-19,24.612194,121.157167,1.5116237e-09
C0V530,阿蓮,2023-12-19,22.883208,120.327508,2.0458228e-06
C1O880,關山,2023-12-19,23.173397,120.594092,6.046722e-08
C0E791,卓蘭,2023-12-19,24.3126,120.8244,3.400083e-09
C1I030,武界,2023-12-19,23.913225,121.052483,1.4443946e-09
C0R520,崁頂,2023-12-19,22.514781,120.506914,0.4228202
C0R341,牡丹,2023-12-19,22.130036,120.792639,0.9764162
C0R930,萬丹,2023-12-19,22.5885,120.4851,8.467198e-05
C0S760,紅石,2023-12-19,23.069131,121.126219,8.141408e-09
C1M610,石磐龍,2023-12-19,23.496606,120.663506,8.860989e-10
C0UA10,鴛鴦湖,2023-12-19,24.590269,121.412228,5.3628115e-09
V2C260,八德蔬果,2023-12-19,24.978508,121.281819,2.1850003e-08
C0R800,丹路,2023-12-19,22.204481,120.750989,0.8781453
C0G920,永靖,2023-12-19,23.924703,120.547533,7.707733e-09
C1A630,下盆,2023-12-19,24.771003,121.538622,1.0829479e-08
B2N890,畜產試驗所,2023-12-19,23.058972,120.336406,0.65994275
C0UA30,白嶺,2023-12-19,24.527819,121.519031,4.291301e-09
C1V580,溪南(特生中心),2023-12-19,23.084972,120.788475,1.521946e-09
C1T970,大農,2023-12-19,23.615233,121.413331,6.856315e-09
E2S960,林試太麻里2,2023-12-19,22.598014,120.989761,0.033723183
C0R650,竹田,2023-12-19,22.58486,120.54344,0.99528116
C1H900,清流,2023-12-19,24.080775,120.962997,9.837731e-10
C1C510,水尾,2023-12-19,24.940081,121.087161,0.00013483275
C0F9X0,大雅(中科園區),2023-12-19,24.21528,120.62445,2.969743e-09
C0O970,虎頭埤,2023-12-19,23.021375,120.347878,0.00048479362
C0C730,中大臨海站,2023-12-19,24.966126,121.008581,0.002440397
C0X250,新營,2023-12-19,23.310689,120.316681,0.91816163
C0V700,三民,2023-12-19,22.645017,120.311233,3.9871072e-08
C0U870,大礁溪,2023-12-19,24.791042,121.675047,1.1337189e-08
C0E870,高鐵苗栗,2023-12-19,24.60725,120.826094,2.1823413e-07
A2K570,古坑花卉中心,2023-12-19,23.63353,120.55239,0.9580803
C0M860,新美,2023-12-19,23.338017,120.683169,7.090502e-10
C1E701,八卦,2023-12-19,24.491756,120.927619,1.1933139e-09
C0I420,國姓,2023-12-19,24.037803,120.855072,1.4294197e-09
C0S960,香蘭,2023-12-19,22.587569,120.993375,0.03372317
C0R260,春日,2023-12-19,22.370361,120.628306,0.116044916
72G600,臺中農改場,2023-12-19,24.003028,120.534389,2.6082174e-09
C0Z210,瑞穗,2023-12-19,23.5239,121.39021,1.0907132e-08
C0M820,達邦,2023-12-19,23.453994,120.749517,8.779431e-10
C0V860,南寮,2023-12-19,22.7616,120.2339,1.4996685e-07
C0G740,大城,2023-12-19,23.852487,120.320935,0.9521137
C0R920,塭仔,2023-12-19,22.4169,120.5197,0.48814648
C0R470,高樹,2023-12-19,22.826389,120.600806,0.3587261
C0R680,佳樂水,2023-12-19,21.993578,120.861633,0.11563534
C1O870,大棟山,2023-12-19,23.31157,120.52226,7.8633194e-10
C0D360,梅花,2023-12-19,24.678347,121.208558,8.3938817e-10
C0Z190,富世,2023-12-19,24.14743,121.6297,4.4472777e-08
C0AI10,屈尺,2023-12-19,24.92184,121.54475,4.7020547e-09
B2U990,畜試東區分所,2023-12-19,24.669039,121.832561,5.1236766e-09
C0R240,來義,2023-12-19,22.527306,120.625111,0.0007727636
C1R610,西大武山,2023-12-19,22.617719,120.7322,2.5078545e-08
C0G900,線西,2023-12-19,24.143358,120.443536,1.4431121e-08
C0M700,竹崎,2023-12-19,23.526178,120.555508,0.058537222
C2E880,三義,2023-12-19,24.405478,120.749819,1.7982366e-09
C0C720,竹圍,2023-12-19,25.112692,121.239824,0.0024425988
C0F9P0,清水,2023-12-19,24.312297,120.562242,7.5128766e-05
C0Z150,吉安光華,2023-12-19,23.930925,121.595153,1.7785734e-07
C1D640,外坪(五指山),2023-12-19,24.644447,121.090961,1.3244932e-09
C0F9O0,潭子,2023-12-19,24.213106,120.703933,0.0027325726
72T250,花蓮農改場,2023-12-19,23.975222,121.563889,2.09243e-07
C0E780,銅鑼,2023-12-19,24.489681,120.790853,5.638259e-09
C1T950,太安,2023-12-19,23.666719,121.370128,3.5393661e-09
C0E830,苑裡,2023-12-19,24.439714,120.653053,0.000846206
467270,田中,2023-12-19,23.873803,120.581286,0.0009266369
C0SA10,檳榔四格山,2023-12-19,22.810031,121.109308,4.0385754e-07
C1T830,布洛灣,2023-12-19,24.17184,121.57127,2.900176e-08
C0F970,大坑,2023-12-19,24.173142,120.722289,0.00036783985
C1U920,思源,2023-12-19,24.393125,121.347214,6.175031e-09
C0A931,三和,2023-12-19,25.233153,121.595236,1.9513951e-08
C0I010,廬山,2023-12-19,24.033311,121.181808,1.3522662e-09
C0R860,鼻頭,2023-12-19,22.1043,120.8979,0.9868799
C0UB20,壯圍,2023-12-19,24.7359,121.8163,7.0179174e-09
C0R790,九棚,2023-12-19,22.14195,120.889281,0.9887375
C0W110,東莒,2023-12-19,25.9652,119.98069,6.8835334e-08
C1U930,粉鳥林,2023-12-19,24.497088,121.842479,2.8574465e-08
C1I211,蘆竹湳,2023-12-19,23.934019,120.811994,1.2022007e-09
C0S830,長濱,2023-12-19,23.286817,121.411975,9.7109645e-09
C1F9F1,伯公龍,2023-12-19,24.272392,120.849047,1.449152e-09
C0E810,西湖,2023-12-19,24.562947,120.7485,0.0024027855
C1I440,新高口,2023-12-19,23.478744,120.878939,3.319066e-09
C0O840,王爺宮,2023-12-19,23.222064,120.40085,0.9840887
C0T9G0,鳳林山,2023-12-19,23.735269,121.420131,3.532797e-09
C0X080,佳里,2023-12-19,23.173039,120.145086,5.478802e-07
C0Z310,清水斷崖,2023-12-19,24.218294,121.689142,5.612487e-09
C0M680,太保,2023-12-19,23.455062,120.331455,0.009891907
C1S820,金峰,2023-12-19,22.590969,120.933236,1.9485484e-05
C0AD10,八里,2023-12-19,25.150211,121.403947,0.0024372218
C2K240,草嶺,2023-12-19,23.59555,120.693461,4.4988208e-10
C1SA70,都蘭,2023-12-19,22.87794,121.226881,0.0020600127
C0K440,二崙,2023-12-19,23.772797,120.408944,2.5918089e-08
C1A760,坪林交控,2023-12-19,24.94284,121.713442,3.5860552e-07
C0F9N0,大里,2023-12-19,24.092464,120.701378,2.9230757e-06
C0SA90,達仁林場,2023-12-19,22.264347,120.823972,0.3606221
C1R290,石門山,2023-12-19,22.112611,120.756597,0.8948376
42HA10,萬大發電廠,2023-12-19,23.978875,121.139639,1.1755372e-09
C0R890,山海,2023-12-19,21.9878,120.7091,0.11436067
C0T9A0,月眉山,2023-12-19,23.809928,121.539828,2.965458e-09
C0AC70,信義,2023-12-19,25.037822,121.564597,1.9026953e-07
C0K560,棋山,2023-12-19,23.68645,120.603417,0.8848605
C1Z240,中平林道,2023-12-19,23.42115,121.26763,6.8687496e-09
U2H480,溪頭,2023-12-19,23.670306,120.798194,7.887172e-10
C0M880,好美里,2023-12-19,23.3364,120.138,1.102881e-06
C0T9E0,大坑,2023-12-19,23.880628,121.581981,2.4994107e-09
C0K530,臺西,2023-12-19,23.701547,120.197559,0.9753869
C1E900,國一N128K,2023-12-19,24.560997,120.844186,1.1234125e-08
C0AJ50,水湳洞,2023-12-19,25.123695,121.862238,5.727319e-07
C0AI20,白沙灣,2023-12-19,25.283128,121.519058,0.0029211657
C0A860,大坪,2023-12-19,25.165914,121.632969,5.6530656e-09
C1U850,觀音海岸,2023-12-19,24.38319,121.77856,2.7587912e-09
C0U950,鶯子嶺,2023-12-19,24.89754,121.79244,3.7448977e-08
C0O900,善化,2023-12-19,23.112883,120.297219,0.8864247
C0K550,蔦松,2023-12-19,23.514319,120.229736,0.00049074885
E2P980,林試六龜中心,2023-12-19,22.991703,120.645722,0.0002545194
C0E590,通霄,2023-12-19,24.471892,120.704622,0.0120032
C1I310,西巒,2023-12-19,23.754486,120.883956,1.9514388e-09
C0A550,泰平,2023-12-19,24.971197,121.823711,1.01447185e-07
C0I360,水里,2023-12-19,23.812553,120.849792,3.6056227e-07
C0R830,高士,2023-12-19,22.121825,120.836781,0.8183122
C1I101,溪頭,2023-12-19,23.661789,120.807647,2.5079825e-09
C0AJ20,野柳,2023-12-19,25.20703,121.690021,1.6629035e-07
C0B060,暖暖,2023-12-19,25.0957,121.7403,1.316622e-07
C1H920,長豐,2023-12-19,24.102039,120.879897,8.163889e-10
C0V360,內門,2023-12-19,22.975481,120.466769,3.1660459e-06
C0R850,林邊,2023-12-19,22.4634,120.5339,6.682381e-05
C0E930,龍鳳,2023-12-19,24.700034,120.859125,8.313645e-06
C0U910,冬山,2023-12-19,24.63373,121.7937,5.1236766e-09
C1E721,泰安,2023-12-19,24.489017,120.968036,1.9580828e-09
82H320,茶改中部分場,2023-12-19,23.875611,120.913583,1.2570583e-09
C0M750,布袋,2023-12-19,23.380878,120.167789,6.0312555e-05
C1S860,利嘉,2023-12-19,22.809417,121.050528,1.6990466e-08
72C440,桃園農改,2023-12-19,24.950944,121.030583,0.000584867
E2S980,林試太麻里1,2023-12-19,22.598922,120.980044,0.0024588527
C0X170,關廟,2023-12-19,22.963017,120.327797,1.0289406e-05
C0V720,林園,2023-12-19,22.507747,120.394511,2.9415332e-07
C1I510,線浸林道,2023-12-19,23.761508,120.832956,1.1741502e-09
C0D690,外湖,2023-12-19,24.917735,120.968711,0.0015035807
C0C750,新興坑尾,2023-12-19,25.0061,121.0971,0.00038824635
B2Q810,畜試南區分所,2023-12-19,21.945583,120.802167,0.11493827
C0S790,金崙,2023-12-19,22.538122,120.966875,0.0068141343
C0AH90,福山植物園,2023-12-19,24.760717,121.58135,8.912115e-09
C0I540,奇萊稜線,2023-12-19,24.109231,121.326456,1.0156312e-08
C0M850,表湖,2023-12-19,23.24186,120.64166,1.2147859e-09
C0S770,大溪山,2023-12-19,22.478475,120.943325,0.09664202
C0AG80,中和,2023-12-19,24.991622,121.491792,6.101905e-08
C0T790,大禹嶺,2023-12-19,24.186117,121.316086,4.866383e-09
C0T9B0,水源,2023-12-19,23.991861,121.537169,4.752638e-09
C0R840,牡丹池山,2023-12-19,22.168389,120.841225,0.8645947
C1I131,桶頭,2023-12-19,23.641944,120.654117,0.00046629083
CAL110,布袋國中,2023-12-19,23.35893,120.18026,6.0312555e-05
467571,新竹,2023-12-19,24.827853,121.014219,1.0598462e-05
C0Z290,赤柯山,2023-12-19,23.36893,121.38293,9.757697e-09
C0X280,將軍,2023-12-19,23.214999,120.13577,1.3481971e-07
C0S690,太麻里,2023-12-19,22.60902,120.98533,4.1509363e-08
C0U880,北關,2023-12-19,24.9072,121.8734,9.080762e-06
C1H860,瑞岩,2023-12-19,24.123772,121.18345,2.38682e-09
C0G810,埔心,2023-12-19,23.947633,120.525456,8.069504e-09
C0U970,大福,2023-12-19,24.80064,121.81389,1.6818548e-08
C1E670,南礦,2023-12-19,24.538278,121.002836,1.3103539e-09
C0M520,東後寮,2023-12-19,23.369908,120.248065,2.9695448e-05
C1E461,松安,2023-12-19,24.397972,120.986022,1.6040986e-09
72G600,臺中農改,2023-12-19,24.003028,120.534389,2.6082174e-09
C2N160,西拉雅風管處,2023-12-19,23.189481,120.335297,0.9956835
C0A640,石碇,2023-12-19,24.993969,121.662917,2.7301228e-08
E2S960,林試太麻里2,2023-12-19,22.598,120.99775,0.04378282
C0F9Y0,桃山,2023-12-19,24.432739,121.303808,1.0048964e-08
C1I020,萬大,2023-12-19,23.979817,121.132261,1.0599918e-09
C0U940,羅東,2023-12-19,24.68184,121.74934,6.6980124e-09
C0M650,朴子,2023-12-19,23.43463,120.23902,4.2893455e-05
C1I500,大尖山,2023-12-19,23.858572,120.994889,3.1778333e-09
C0G820,田尾,2023-12-19,23.901669,120.509389,8.069504e-09
E2K600,四湖植物園,2023-12-19,23.676986,120.163433,0.97382957
C0S730,綠島,2023-12-19,22.6672,121.47533,0.13100399
12Q970,東港工作站,2023-12-19,22.479997,120.466058,0.000109674016
C0E430,南庄,2023-12-19,24.601775,121.000214,5.6332174e-09
C1TA00,太魯閣,2023-12-19,24.15773,121.6236,3.2829846e-08
466920,臺北,2023-12-19,25.037658,121.514853,1.9026953e-07
C0R600,舊泰武,2023-12-19,22.588194,120.664944,1.1757547e-09
C1I260,北坑,2023-12-19,23.9246,121.006903,1.0830549e-09
466910,鞍部,2023-12-19,25.182586,121.529731,8.606277e-09
C1I230,九份二山,2023-12-19,23.961944,120.845,1.5661121e-09
C2A660,瑞芳,2023-12-19,25.113169,121.801147,1.429811e-07
C0R270,琉球嶼,2023-12-19,22.332244,120.362236,4.695537e-07
C1T990,高寮,2023-12-19,23.394239,121.356808,1.4611148e-08
C0G620,芬園,2023-12-19,24.015678,120.6213,9.864849e-09
C1Z140,荖溪,2023-12-19,23.890575,121.45964,6.901686e-09
C1I201,中心崙,2023-12-19,23.728722,120.712097,9.646127e-10
C1I400,凌霄,2023-12-19,24.018778,121.004456,1.1506014e-09
C1M640,十字,2023-12-19,23.492153,120.753683,1.1670991e-09
G2P820,農試鳳山分所,2023-12-19,22.646611,120.356083,2.2495017e-08
C0Z270,蕃薯寮,2023-12-19,23.73835,121.540108,4.7076996e-09
C0F9Q0,外埔,2023-12-19,24.347817,120.705686,2.4433485e-08
C0K580,高鐵雲林,2023-12-19,23.737456,120.417944,1.3100777e-07
C2I090,鳳凰,2023-12-19,23.728081,120.787347,4.7899934e-10
C0U990,員山,2023-12-19,24.74435,121.72247,6.8721047e-09
C0V770,大社,2023-12-19,22.730306,120.346639,8.3826265e-08
C0X120,麻豆,2023-12-19,23.183289,120.248611,0.00902833
C0C670,龍潭,2023-12-19,24.870056,121.221389,6.7041857e-09
C0D680,香山濕地,2023-12-19,24.783581,120.914988,1.5434692e-07
C0S980,勝林山,2023-12-19,22.430439,120.8938,1.3830024e-05
C0V730,大寮,2023-12-19,22.605614,120.395717,3.853029e-08
C0R570,麟洛,2023-12-19,22.65078,120.52719,0.04573332
CAG100,王功漁港,2023-12-19,23.96824,120.32586,0.9390079
C0X290,北門,2023-12-19,23.267772,120.125481,1.3481971e-07
C2F930,大甲,2023-12-19,24.347667,120.640403,5.011648e-05
C0D650,湖口,2023-12-19,24.904794,121.043628,0.00017570352
C0E420,竹南,2023-12-19,24.708978,120.888897,1.5787641e-06
C0U780,五結,2023-12-19,24.68637,121.79794,7.0118693e-09
C1I250,鯉潭,2023-12-19,23.961922,120.991131,1.9829975e-09
C0R130,阿禮,2023-12-19,22.742908,120.743678,1.3088752e-09
C0X100,臺南市北區,2023-12-19,23.010394,120.194228,0.0005838756
C0S920,金峰嘉蘭,2023-12-19,22.594789,120.960825,0.0019692257
C0V490,新興,2023-12-19,22.627422,120.298803,5.2144802e-08
C0F9K0,大安,2023-12-19,24.345061,120.588025,0.00076523144
72N100,臺南農改,2023-12-19,23.0605,120.342194,0.65994275
467290,古坑,2023-12-19,23.633639,120.551889,0.9580803
C0V440,鳳山,2023-12-19,22.646653,120.356122,2.2495017e-08
C1T940,大觀,2023-12-19,23.714206,121.373133,3.783082e-09
72T250,花蓮農改,2023-12-19,23.975222,121.563889,2.09243e-07
C0E740,造橋,2023-12-19,24.637056,120.864778,2.1823413e-07
C0R100,尾寮山,2023-12-19,22.833111,120.683889,9.267287e-10
A2K630,臺大雲林校區,2023-12-19,23.730628,120.423903,1.3106151e-07
C0D580,寶山,2023-12-19,24.735006,121.025192,7.4393087e-09
E2P990,林試扇平站,2023-12-19,22.9677,120.6857,4.4343924e-09
C0AI30,三重,2023-12-19,25.057328,121.500629,2.5687945e-07
C0AH00,汐止,2023-12-19,25.066881,121.658778,1.9026953e-07
C1Z040,立山,2023-12-19,23.443356,121.327375,1.9518158e-08
C0R740,獅子,2023-12-19,22.201569,120.70525,0.8571338
C0W130,花嶼,2023-12-19,23.40007,119.32276,0.65922755
C0A950,鼻頭角,2023-12-19,25.129036,121.923372,0.98980045
C0K470,林內,2023-12-19,23.748675,120.609642,0.92760205
82C160,茶改場,2023-12-19,24.908472,121.185333,8.0543e-08
C0Z320,清水林道,2023-12-19,23.27125,121.188272,6.072227e-09
C0R760,南仁湖,2023-12-19,22.084681,120.863353,0.8950806
C0M670,大林,2023-12-19,23.600616,120.45841,0.85475266
C0M800,茶山,2023-12-19,23.299075,120.664767,1.2493139e-09
C0A9C0,天母,2023-12-19,25.117494,121.537169,1.9332351e-06
72K220,南改斗南分場,2023-12-19,23.634556,120.477333,0.6595923
72AI40,桃改樹林分場,2023-12-19,24.944503,121.386972,7.1886085e-08
C0S910,蘭嶼燈塔,2023-12-19,22.081197,121.503117,0.10202194
C0B050,八斗子,2023-12-19,25.144754,121.79167,9.614016e-07
C0U900,內城,2023-12-19,24.71813,121.68766,6.3077135e-09
C0X320,柳營,2023-12-19,23.253328,120.375253,0.9995851
C0M790,新港,2023-12-19,23.553269,120.345728,0.14529228
C0F9T0,西屯,2023-12-19,24.179494,120.641275,1.0635682e-09
C0SA30,都歷,2023-12-19,23.020333,121.323642,4.819792e-08
C0C620,蘆竹,2023-12-19,25.084275,121.265767,3.636413e-05
C0R730,大坪頂,2023-12-19,22.024633,120.69355,0.9663577
C0AJ40,石門,2023-12-19,25.273672,121.601198,6.3434622e-06
C0E750,苗栗,2023-12-19,24.564569,120.824575,1.2287381e-08
C0T870,鯉魚潭,2023-12-19,23.935639,121.508944,2.2996561e-08
C1V170,排雲,2023-12-19,23.463619,120.954147,1.0148102e-08
C2H950,中寮,2023-12-19,23.884447,120.766406,4.86925e-07
C0R350,貓鼻頭,2023-12-19,21.921774,120.7358,0.27466178
C0V660,岡山,2023-12-19,22.797078,120.294958,1.0786522e-07
C1H941,雙冬,2023-12-19,23.967378,120.802189,1.0532284e-09
C0AJ70,田寮,2023-12-19,25.2698,121.4886,0.0040021064
C0AI00,五股,2023-12-19,25.07445,121.42728,1.13897855e-07
C0Z280,德武,2023-12-19,23.47426,121.41071,5.8394143e-09
C0R700,枋山,2023-12-19,22.246844,120.661086,0.12129259
C0C460,復興,2023-12-19,24.820208,121.352281,2.2683029e-09
E2H360,蓮華池,2023-12-19,23.918333,120.885278,9.680539e-10
C0M640,中埔,2023-12-19,23.42538,120.5229,0.000714188
C0W140,金沙,2023-12-19,24.488292,118.408778,4.394059e-06
C2A540,四堵,2023-12-19,24.8926,121.745736,1.251847e-07
C0ACA0,新莊,2023-12-19,25.051478,121.446756,2.6265086e-06
C0R220,潮州,2023-12-19,22.534361,120.54,0.24727823
U2HA40,臺大內茅埔,2023-12-19,23.689722,120.851117,1.2932859e-09
467490,臺中,2023-12-19,24.145736,120.684075,0.0024002998
C0U960,翠峰湖,2023-12-19,24.510856,121.608044,7.833593e-09
E2HA20,林試畢祿溪站,2023-12-19,24.226944,121.308522,3.839338e-09
C0V890,前鎮,2023-12-19,22.5718,120.3117,6.9460356e-08
467620,蘭嶼,2023-12-19,22.036969,121.558339,0.98053104
C1F941,雪嶺,2023-12-19,24.280586,121.026642,8.181274e-09
C0AC80,文山,2023-12-19,25.00235,121.575728,3.068588e-08
C0F9R0,龍井,2023-12-19,24.184536,120.528972,3.4391118e-07
C0M760,民雄,2023-12-19,23.551754,120.428457,0.88081104
C0UA40,西德山,2023-12-19,24.560647,121.752608,7.264469e-09
C1T920,中興,2023-12-19,23.769503,121.498653,1.179016e-08
C0D550,雪霸,2023-12-19,24.526972,121.11605,2.036216e-09
C2F860,梨山,2023-12-19,24.247522,121.243669,4.014125e-09
C0R320,車城,2023-12-19,22.0744,120.716247,0.12861218
C1S870,南美山,2023-12-19,23.15025,121.382333,7.485214e-08
C0B020,基隆嶼,2023-12-19,25.19141,121.78391,0.7077815
C1U501,牛鬥,2023-12-19,24.637836,121.573656,5.580059e-09
C0M730,嘉義市東區,2023-12-19,23.457673,120.460531,0.4949232
C0S700,知本,2023-12-19,22.684866,121.005642,2.4748248e-08
C1N001,沙崙,2023-12-19,22.935472,120.309406,3.0335808e-05
C0V760,橋頭,2023-12-19,22.757806,120.30575,1.0817674e-07
C0G960,福寶,2023-12-19,24.0443,120.3814,7.57473e-09
C0X210,白河,2023-12-19,23.347466,120.414427,0.6581399
C0S810,東河,2023-12-19,22.972672,121.303986,0.7149438
C0R670,楓港,2023-12-19,22.190131,120.692156,0.6303463
C0FA50,霧峰,2023-12-19,24.0419,120.6995,1.7182712e-08
C0UB10,蘇澳,2023-12-19,24.5969,121.8571,2.4277723e-08
C0G950,防潮門,2023-12-19,24.1835,120.4871,3.4290804e-07
C0M740,六腳,2023-12-19,23.492871,120.290625,0.002984456
C1R250,力里,2023-12-19,22.428117,120.629228,1.6247915e-05
C0K330,虎尾,2023-12-19,23.719183,120.442036,1.0478632e-07
C2FA00,烏石坑,2023-12-19,24.273503,120.947617,1.0398982e-09
C0V620,永安,2023-12-19,22.82315,120.236856,1.0773589e-07
C1I330,楓樹林,2023-12-19,23.986803,121.076117,1.0338504e-09
C0W200,湖西,2023-12-19,23.596314,119.67275,0.53403246
72Q010,高雄農改場,2023-12-19,22.709333,120.525889,0.16400024
C0SA40,瑞和,2023-12-19,22.974361,121.156697,1.3252968e-07
C0C680,龜山,2023-12-19,25.02846,121.38656,4.909832e-08
C2V260,月眉,2023-12-19,22.971003,120.539853,0.05183951
C0V450,鳳森,2023-12-19,22.545064,120.392592,5.209112e-08
C0U720,南山,2023-12-19,24.43742,121.38167,3.207844e-09
A2N290,臺南蘭花園區,2023-12-19,23.340258,120.379661,0.7569521
C0R560,新園,2023-12-19,22.5434,120.461558,2.9415332e-07
C0U890,三星,2023-12-19,24.66812,121.65302,7.0848682e-09
C1V300,御油山,2023-12-19,23.001983,120.715364,1.9720405e-09
C0U600,礁溪,2023-12-19,24.817539,121.765608,2.5245689e-07
C1T980,龍澗,2023-12-19,24.023289,121.411328,1.0503361e-08
C0D670,海天一線,2023-12-19,24.831986,120.914438,0.0325689
C0SA00,歷坵,2023-12-19,22.520969,120.89185,8.8507676e-07
C0M710,東石,2023-12-19,23.458927,120.15385,1.2072334e-05
C0M780,鹿草,2023-12-19,23.41134,120.30835,2.3263428e-05
C0U520,雙連埤,2023-12-19,24.753033,121.641303,1.1245036e-08
C0B010,七堵,2023-12-19,25.094819,121.71713,4.522351e-07
C0R480,長治,2023-12-19,22.693128,120.542622,1.199941e-06
C1V830,國三S383K,2023-12-19,22.781967,120.426475,0.00022140604
12Q980,恆春工作站,2023-12-19,22.079678,120.714425,0.12861216
C1O940,東山服務區,2023-12-19,23.286016,120.398472,0.9974066
C1U840,東澳嶺,2023-12-19,24.5378,121.8485,8.5277625e-09
C1D630,飛鳳山,2023-12-19,24.766464,121.119178,1.2168963e-09
C0S940,石寧山,2023-12-19,23.223772,121.406639,5.1760527e-08
C0K410,北港,2023-12-19,23.573957,120.292802,0.13886155
C2M620,瑞里,2023-12-19,23.545133,120.675197,1.0494344e-09
C2O950,安南,2023-12-19,23.076694,120.144861,3.7201997e-05
C0F0E0,南湖圈谷,2023-12-19,24.363714,121.444667,2.192958e-08
467610,成功,2023-12-19,23.097486,121.373428,0.0012531483
C0G890,伸港,2023-12-19,24.148933,120.484403,1.4431121e-08
C2E540,龍溪,2023-12-19,24.606489,120.783933,2.8351892e-07
C1V200,梅山,2023-12-19,23.268447,120.823556,1.2700532e-09
C0T9H0,加路蘭山,2023-12-19,23.682947,121.5274,4.4969446e-09
C2O930,玉井,2023-12-19,23.126042,120.46055,0.23097892
C1F911,新伯公,2023-12-19,24.221361,120.841069,2.0850044e-09
C0R490,九如,2023-12-19,22.7405,120.490503,0.2416759
C0X200,左鎮,2023-12-19,23.056758,120.408522,0.00069008756
C1F891,稍來,2023-12-19,24.265689,121.001142,5.0314037e-09
72N240,七股研究中心,2023-12-19,23.081672,120.062894,5.5623867e-05
C0C700,中壢,2023-12-19,24.977661,121.256375,1.7567087e-08
C0M690,水上,2023-12-19,23.419734,120.388909,0.0051022265
C0V690,鼓山,2023-12-19,22.623325,120.275575,5.2144802e-08
C0O860,大內,2023-12-19,23.11885,120.36083,0.7582003
C0Z200,萬榮,2023-12-19,23.709219,121.420106,8.577664e-09
C0T9D0,和中,2023-12-19,24.26676,121.74103,5.62711e-08
C1O921,楠西,2023-12-19,23.183511,120.484083,0.9972936
C0AJ30,淡水觀海,2023-12-19,25.184591,121.408616,7.3949495e-06
C0V810,左營,2023-12-19,22.67491,120.28491,3.9886057e-08
C0UA70,桃源谷,2023-12-19,24.962606,121.888875,6.0303094e-08
C0X130,官田,2023-12-19,23.193217,120.315422,0.99656796
C1H000,翠峰,2023-12-19,24.109397,121.205211,3.5389138e-09
C0UA90,石城,2023-12-19,24.980444,121.951214,5.2736054e-06
C1E681,南勢山,2023-12-19,24.421669,120.923831,1.2481658e-09
C0A9F0,內湖,2023-12-19,25.079422,121.57545,1.9026953e-07
C0K291,宜梧,2023-12-19,23.536281,120.169329,0.0004907493
C1K540,口湖,2023-12-19,23.585344,120.180517,0.74355257
C0R780,滿州,2023-12-19,22.024403,120.839892,0.4920042
C0V870,文安,2023-12-19,22.8025,120.2164,1.4703859e-07
C0U650,玉蘭,2023-12-19,24.675286,121.587061,8.303868e-09
C0R640,東港,2023-12-19,22.46247,120.44074,0.000109674016
K2E360,苗栗農改,2023-12-19,24.495722,120.829111,7.452147e-09
C0AJ80,板橋,2023-12-19,25.0107,121.4489,8.4240106e-08
C0S660,下馬,2023-12-19,23.150427,121.070312,3.9795607e-09
C1H9B1,阿眉,2023-12-19,24.1263,120.994672,2.8671792e-09
C0UA20,多加屯,2023-12-19,24.368614,121.373189,3.919164e-09
C0E730,頭份,2023-12-19,24.688247,120.912206,2.40388e-06
72V140,高改旗南分場,2023-12-19,22.857861,120.516667,0.21404181
C0K480,莿桐,2023-12-19,23.761192,120.502372,0.025401065
C0U980,坪林石牌,2023-12-19,24.86478,121.77396,2.006607e-08
C0T900,西林,2023-12-19,23.8119,121.441458,5.4793583e-09
C1I150,青雲,2023-12-19,23.793361,120.949378,3.3275025e-09
467350,澎湖,2023-12-19,23.565503,119.563094,0.5347682
C0G800,埔鹽,2023-12-19,24.000394,120.431683,6.9423535e-08
C0H960,草屯,2023-12-19,23.973672,120.68085,1.1312931e-08
C1V780,多納林道,2023-12-19,22.888028,120.737917,7.249613e-10
C0E920,通霄漁港,2023-12-19,24.498589,120.673876,0.015576268
C0Z330,安通山,2023-12-19,23.290728,121.348528,4.8468007e-09
C0AH10,永和,2023-12-19,25.01125,121.508111,8.4240106e-08
C2G640,鹿港,2023-12-19,24.0753,120.430481,7.571133e-09
C1E890,國三N149K,2023-12-19,24.463414,120.680019,0.00017565225
C1R110,口社,2023-12-19,22.770111,120.645222,0.72548515
C1M870,國三N285K,2023-12-19,23.550319,120.505833,0.82511073
467050,新屋,2023-12-19,25.006744,121.047486,0.0016930776
C1E480,鳳美,2023-12-19,24.554803,121.034747,5.6630023e-10
C0M530,奮起湖,2023-12-19,23.493903,120.699253,1.2294572e-09
C0C590,觀音,2023-12-19,25.027072,121.153317,6.131337e-05
C0T9M0,靜浦,2023-12-19,23.455167,121.495028,1.3544197e-08
C0AI40,石牌,2023-12-19,25.115597,121.513139,2.3287764e-06
C1F871,上谷關,2023-12-19,24.203483,121.018644,9.390452e-10
C0G880,二水,2023-12-19,23.810742,120.6173,0.62973034
C0R940,加祿堂,2023-12-19,22.3363,120.6217,0.9956435
C0W220,北竿,2023-12-19,26.220358,119.974881,4.3861775e-08
C0O960,崎頂,2023-12-19,22.959547,120.369317,5.2891113e-07
C0S750,向陽,2023-12-19,23.248397,120.986133,3.5597718e-09
C0T9F0,水璉,2023-12-19,23.797131,121.542514,4.0192045e-09
C1M600,頭凍,2023-12-19,23.406364,120.603339,9.954131e-10
467660,臺東,2023-12-19,22.752211,121.154586,0.88334715
C1D380,新埔,2023-12-19,24.84745,121.03834,1.0504742e-06
C0V750,路竹,2023-12-19,22.854997,120.259439,2.5160602e-07
C0N050,蚵寮,2023-12-19,23.301,120.1104,1.102881e-06
72M700,南改鹿草分場,2023-12-19,23.416869,120.283061,4.332367e-05
C1SA50,利嘉林道,2023-12-19,22.82325,121.009389,1.7579053e-08
467550,玉山,2023-12-19,23.487614,120.959522,1.1819702e-08
C0A940,金山,2023-12-19,25.223628,121.643967,1.2915295e-07
C1V340,大津,2023-12-19,22.888322,120.645986,0.23539183
C0W180,七美,2023-12-19,23.219333,119.444892,0.6110495
C1F9C1,白冷,2023-12-19,24.182844,120.929889,6.544086e-10
K2E710,苗改生物防治研究中心,2023-12-19,24.422861,120.871833,4.5478967e-09
C0N040,蘆竹溝,2023-12-19,23.2344,120.0961,1.3483385e-07
C2W230,畜試所澎湖,2023-12-19,23.628342,119.513206,0.69077635
C0R880,後壁湖,2023-12-19,21.9457,120.7457,0.11434524
C1I280,埔中,2023-12-19,23.820778,120.642594,8.3286915e-09
467790,墾丁雷達站,2023-12-19,21.948235,120.808028,0.1213115
C0W190,望安,2023-12-19,23.380564,119.494075,0.7008094
466881,新北,2023-12-19,24.9593,121.52,5.557735e-08
C0Z170,卓溪,2023-12-19,23.3443,121.3029,8.3631875e-09
C0F850,東勢,2023-12-19,24.246428,120.833047,2.1057342e-07
466900,淡水,2023-12-19,25.164889,121.448906,0.0015740861
C0I370,魚池,2023-12-19,23.895703,120.94135,6.7915984e-10
C0C630,大溪,2023-12-19,24.882853,121.265547,1.2504826e-08
C0A520,山佳,2023-12-19,24.974944,121.402008,4.055213e-08
C0I110,竹山,2023-12-19,23.761225,120.688156,0.043585114
82H840,茶改南部分場,2023-12-19,23.762528,120.7405,1.2406211e-08
C0G660,溪湖,2023-12-19,23.94835,120.479122,9.7763255e-09
C1T800,洛韶,2023-12-19,24.204558,121.453956,1.15917285e-08
C1T810,慈恩,2023-12-19,24.192044,121.388386,2.2812368e-09
C1E451,象鼻,2023-12-19,24.368617,120.940228,8.7047974e-10
C0AC60,三峽,2023-12-19,24.939025,121.369728,5.132325e-08
C0I490,萬大林道,2023-12-19,23.928228,121.091411,1.2429606e-09
C1I290,豐丘,2023-12-19,23.668178,120.887417,8.4608937e-10
C1I320,奧萬大,2023-12-19,23.952956,121.178556,7.7568996e-10
C0U770,南澳,2023-12-19,24.44935,121.81022,8.22648e-09
C0A980,社子,2023-12-19,25.109508,121.469681,0.0029003243
C0V800,六龜,2023-12-19,22.997889,120.633583,0.0005648693
C1G9D0,國一S218K,2023-12-19,23.890641,120.493253,1.5774662e-08
C2F9A0,中竹林,2023-12-19,24.103556,120.751061,3.1733451e-09
C0FA40,臺中電廠,2023-12-19,24.2146,120.4907,3.4391118e-07
C0H9C0,合歡山,2023-12-19,24.143442,121.272547,9.642158e-09
C0X060,下營,2023-12-19,23.22695,120.256261,0.6134567
G2M350,農試溪口農場,2023-12-19,23.58565,120.408111,0.9335463
C0U860,頭城,2023-12-19,24.85323,121.8308,2.793377e-07
C0R580,南州,2023-12-19,22.48591,120.50274,0.000109674016
C0D430,峨眉,2023-12-19,24.6905,121.017189,7.590306e-09
C0G780,秀水,2023-12-19,24.03405,120.503869,2.6082174e-09
72N100,臺南農改場,2023-12-19,23.0605,120.342194,0.65994275
C0S900,蘭嶼高中,2023-12-19,22.04909,121.51214,0.11188539
467540,大武,2023-12-19,22.355675,120.903789,0.9112589
C1F9W0,德基,2023-12-19,24.254783,121.190261,3.7270174e-09
C1Z120,壽豐,2023-12-19,23.870853,121.508081,1.8928402e-08
C0W160,烏坵,2023-12-19,24.9944,119.44956,0.000291804
C1I240,外大坪,2023-12-19,23.958697,120.917931,1.8960262e-09
C1I550,國六W023K,2023-12-19,23.979067,120.867742,8.4781465e-10
C0R870,興海,2023-12-19,21.9752,120.8439,0.11493827
C0R140,瑪家,2023-12-19,22.682903,120.686639,3.1759912e-09
C0A530,坪林,2023-12-19,24.938183,121.70975,1.8503391e-07
C0X260,後壁,2023-12-19,23.366358,120.362326,0.75628644
C0Z230,和平,2023-12-19,24.30717,121.77007,6.0062725e-08
C0G770,福興,2023-12-19,24.041289,120.437669,6.9423535e-08
C0H9A0,神木村,2023-12-19,23.532742,120.843667,1.2148323e-09
C0I460,南投,2023-12-19,23.911469,120.687331,2.1465863e-07
C0I480,梅峰,2023-12-19,24.085272,121.173572,1.8002613e-09
C1V570,吉東,2023-12-19,22.85422,120.5454,0.08122356
C2A560,福山,2023-12-19,24.776203,121.502811,1.0649166e-08
C0AH30,五分山,2023-12-19,25.07125,121.780794,1.34957165e-08
C0FA10,松柏,2023-12-19,24.429115,120.617482,0.0013369801
72S200,東改班鳩分場,2023-12-19,22.829528,121.077694,8.694084e-05
72HA00,中改埔里分場,2023-12-19,23.903208,120.963364,1.0054788e-09
C0C650,平鎮,2023-12-19,24.897503,121.214636,6.7068204e-09
C0S930,延平,2023-12-19,22.902581,121.084058,3.1527347e-06
C0UA60,樟樹山,2023-12-19,24.41393,121.78325,1.29011815e-08
C1S670,摩天,2023-12-19,23.199503,121.027,6.577726e-09
C0V630,茄萣,2023-12-19,22.906642,120.182608,4.6418637e-07
466940,基隆,2023-12-19,25.133314,121.740475,8.3857344e-07
C0X050,東河,2023-12-19,23.296598,120.385608,0.998611
C0R770,保力,2023-12-19,22.071122,120.764111,0.79633516
G2L020,農試嘉義分所,2023-12-19,23.485028,120.473806,0.82371265
C0X240,關子嶺,2023-12-19,23.331169,120.508025,2.9411744e-09
C0I380,集集,2023-12-19,23.828206,120.801467,4.8049594e-07
466990,花蓮,2023-12-19,23.975128,121.613275,3.961195e-07
C1V220,小關山,2023-12-19,23.154217,120.813603,1.6527375e-09
C1F9G1,慶福山,2023-12-19,24.180853,120.848378,6.301854e-10
C0Z250,瑞穗林道,2023-12-19,23.49284,121.30688,4.1407886e-09
C0D590,新豐,2023-12-19,24.87068,120.97721,0.0070650494
C0A870,五指山,2023-12-19,25.132153,121.608692,4.427606e-09
C0UA50,西帽山,2023-12-19,24.555361,121.802628,6.3692736e-09
C0X160,仁德,2023-12-19,22.968258,120.257689,0.00012941532
C1H971,六分寮,2023-12-19,23.92507,120.6378,1.1238963e-09
C0W120,西嶼,2023-12-19,23.5626,119.468436,0.60916865
C0G650,員林,2023-12-19,23.946503,120.585597,7.022874e-07
C0AD50,鶯歌,2023-12-19,24.951533,121.346294,3.115134e-08
C0S990,山豬窟,2023-12-19,22.318619,120.857372,0.2217115
72Q010,高雄農改,2023-12-19,22.709333,120.525889,0.16400024
C0X190,安平,2023-12-19,22.993161,120.152181,0.0005838756
C0K400,斗六,2023-12-19,23.720583,120.541127,0.11614739
12J990,口湖工作站,2023-12-19,23.589978,120.180394,0.74355257
C0O830,北寮,2023-12-19,23.079561,120.495008,1.2501529e-05
C1D410,白蘭,2023-12-19,24.579364,121.079947,1.4456321e-09
C0S970,加津林,2023-12-19,22.416211,120.926942,0.93046016
C0D700,關西,2023-12-19,24.7977,121.1732,3.0153995e-09
C0M810,里佳,2023-12-19,23.389125,120.716647,1.3820997e-09
C0U750,龜山島,2023-12-19,24.841667,121.953133,1.517896e-07
C0R810,內獅,2023-12-19,22.305064,120.642986,0.99584574
C1M390,龍美,2023-12-19,23.406728,120.654417,1.1008304e-09
C1H840,國三N238K,2023-12-19,23.841008,120.707711,9.4993e-09
CAQ030,崎峰國小,2023-12-19,22.42565,120.49521,0.000109674016
C2E520,大湖,2023-12-19,24.414939,120.870872,3.677138e-09
467530,阿里山,2023-12-19,23.508208,120.813242,4.415302e-09
C1E691,南湖,2023-12-19,24.40135,120.837533,1.1509702e-09
C0FA30,梧棲,2023-12-19,24.256003,120.523381,7.548639e-05
C1V231,高中,2023-12-19,23.134911,120.716711,1.4589252e-09
C0F9V0,新社,2023-12-19,24.200172,120.815806,9.341629e-10
C0H890,埔里,2023-12-19,23.972169,120.952425,6.975543e-10
C0R690,墾丁,2023-12-19,21.966756,120.810269,0.3672927
C0F0D0,審馬陣,2023-12-19,24.381675,121.4203,6.8250663e-09
C0R820,白鷺,2023-12-19,22.454275,120.666219,1.19959465e-08
U2H480,臺大溪頭,2023-12-19,23.670306,120.798194,7.887172e-10
C1V190,南天池,2023-12-19,23.27403,120.91176,2.5813094e-09
K2E360,苗栗農改場,2023-12-19,24.495722,120.829111,7.452147e-09
CAJ050,海口故事園區,2023-12-19,23.57543,120.14121,0.74355257
C0O990,媽廟,2023-12-19,22.99175,120.293525,0.3605953
C0D480,打鐵坑,2023-12-19,24.849664,121.150789,6.658259e-09
C0Z220,和平林道,2023-12-19,24.343922,121.656317,2.8364848e-09
72C440,桃園農改場,2023-12-19,24.950944,121.030583,0.000584867
C1E711,馬拉邦山,2023-12-19,24.367306,120.901656,9.005063e-10
C0D560,竹東,2023-12-19,24.767147,121.057881,3.5877188e-09
C0F9U0,南屯,2023-12-19,24.137006,120.637969,1.3413001e-09
C0M720,番路,2023-12-19,23.464657,120.554156,4.4659423e-06
C0F0A0,雪山圈谷,2023-12-19,24.388594,121.236339,1.17411485e-08
C1A9N0,四十份,2023-12-19,24.934158,121.593283,8.642927e-09
C0U760,東澳,2023-12-19,24.52196,121.83318,2.3285128e-08
C0X230,鹽水,2023-12-19,23.272621,120.247641,8.8798515e-07
C0V370,古亭坑,2023-12-19,22.893178,120.401947,1.4239354e-06
C1I340,新興橋,2023-12-19,23.563333,120.868728,3.9946693e-10
C0SA80,土坂,2023-12-19,22.453108,120.887572,0.38167557
C0R160,鹽埔,2023-12-19,22.739558,120.530778,0.16400024
C0AC40,大屯山,2023-12-19,25.175675,121.522408,9.185111e-09
466850,五分山雷達站,2023-12-19,25.071182,121.781205,1.35745335e-08
C1AI50,國三N016K,2023-12-19,25.034164,121.619664,9.1530936e-08
C1V600,藤枝,2023-12-19,23.071961,120.757042,1.2776971e-09
C1E601,南勢,2023-12-19,24.572486,120.734842,8.208095e-05
C0Z180,新城,2023-12-19,24.03946,121.60454,3.1759086e-07
C0O980,新市,2023-12-19,23.061614,120.298197,0.8864247
C0K420,西螺,2023-12-19,23.800407,120.467394,2.3280865e-08
C0Z050,佳心,2023-12-19,23.34567,121.21316,9.798373e-09
C0AD30,蘆洲,2023-12-19,25.086594,121.472331,2.5687945e-07
C0V610,梓官,2023-12-19,22.760558,120.267211,1.0817674e-07
K2F750,種苗改良場,2023-12-19,24.225972,120.800917,1.3335199e-09
C0UA80,大溪漁港,2023-12-19,24.941801,121.902955,8.106699e-06
C1AI60,國一39K邊坡,2023-12-19,25.064361,121.383836,7.271806e-08
C0W150,金寧,2023-12-19,24.457703,118.328989,1.4539794e-06
V2C250,八德合作社,2023-12-19,24.93775,121.266389,1.0600125e-08
C0AH40,平等,2023-12-19,25.129142,121.577086,5.1773434e-09
C0R540,佳冬,2023-12-19,22.419456,120.552375,0.4199264
466950,彭佳嶼,2023-12-19,25.627975,122.079744,0.9983321
C0A890,雙溪,2023-12-19,25.036003,121.864242,0.0014786138
C0C480,桃園,2023-12-19,24.992425,121.323172,2.4768553e-08
C0AH50,林口,2023-12-19,25.072181,121.38084,3.781677e-08
A2K360,水試臺西試驗場,2023-12-19,23.717231,120.190522,0.98304695
B2N890,畜試所,2023-12-19,23.058972,120.336406,0.65994275
C0F9S0,烏日,2023-12-19,24.107058,120.624103,1.972839e-05
C0C490,八德,2023-12-19,24.928708,121.283289,1.0214263e-08
C0R190,赤山,2023-12-19,22.592333,120.614306,0.9925767
C0T820,天祥,2023-12-19,24.179597,121.495639,1.4752846e-08
C1F9E1,龍安,2023-12-19,24.1605,120.831961,1.3734591e-09
C0V820,小林,2023-12-19,23.148408,120.63325,2.0915207e-09
C2G870,芳苑,2023-12-19,23.922303,120.320025,0.929356
C0E850,大河,2023-12-19,24.618069,120.948578,2.970328e-08
C1U670,寒溪,2023-12-19,24.634,121.71691,4.3449093e-09
C0N020,城西,2023-12-19,23.0568,120.0956,0.0005838756
C1Z110,三棧,2023-12-19,24.11557,121.60501,1.0771571e-08
C0R280,檳榔,2023-12-19,22.076078,120.836777,0.9732797
C0F9L0,后里,2023-12-19,24.310436,120.729725,1.5511004e-08
C0D540,橫山,2023-12-19,24.71116,121.11693,2.2501787e-09
C1D420,太閣南,2023-12-19,24.632808,121.160575,2.7520588e-09
C1E770,公館,2023-12-19,24.526914,120.830806,1.17236265e-08
CAN130,水試所海水繁養殖中心,2023-12-19,23.120802,120.07968,5.5623812e-05
C1I430,翠華,2023-12-19,24.191961,121.224339,2.7031102e-09
C1M400,菜瓜坪,2023-12-19,23.251928,120.576103,1.2797433e-09
C0G730,二林,2023-12-19,23.903325,120.376081,8.297459e-08
72M360,南改義竹分場,2023-12-19,23.360694,120.279361,2.9695448e-05
V2K620,麥寮合作社,2023-12-19,23.753836,120.294783,4.243303e-05
C0Z070,舞鶴,2023-12-19,23.46811,121.37407,4.707574e-09
C0B040,大武崙,2023-12-19,25.166676,121.706993,4.0757544e-07
C1Z030,紅葉,2023-12-19,23.493119,121.338806,6.6885524e-09
C1I050,丹大,2023-12-19,23.753747,121.141147,2.9529392e-09
C0I080,信義,2023-12-19,23.689694,120.851036,1.2932859e-09
C2A880,福隆,2023-12-19,25.017842,121.942083,5.8551873e-06
C0Z160,鳳林,2023-12-19,23.746114,121.453411,1.018042e-08
C0V210,復興,2023-12-19,23.222403,120.806089,1.5320495e-09
C0H990,昆陽,2023-12-19,24.121322,121.273642,8.5686045e-09
C0S710,鹿野,2023-12-19,22.917711,121.122994,4.267394e-09
C0I530,小奇萊,2023-12-19,24.131764,121.295717,9.159325e-09
C0Z080,富源,2023-12-19,23.587642,121.378225,3.152714e-08
467441,高雄,2023-12-19,22.7304,120.3125,8.382642e-08
C1I140,卡奈托灣,2023-12-19,23.754364,121.087872,8.2321105e-10
C0I520,玉山風口,2023-12-19,23.470489,120.955994,1.6401081e-08
C1G691,下水埔,2023-12-19,23.816114,120.5676,0.007881455
C0X110,臺南市南區,2023-12-19,22.961189,120.188378,0.00012941532
C0V680,仁武,2023-12-19,22.701083,120.347722,3.9980733e-08
C2G840,北斗,2023-12-19,23.877586,120.514222,1.4804006e-08
C0R900,竹坑,2023-12-19,22.1385,120.7022,0.13012564
C0K250,崙背,2023-12-19,23.75555,120.318925,4.251059e-05
C0G860,社頭,2023-12-19,23.897647,120.5862,0.0014604387
C0X150,安定,2023-12-19,23.102614,120.227839,0.0002627436
C0R590,里港,2023-12-19,22.77919,120.49459,0.10374545
C0E610,馬都安,2023-12-19,24.451272,120.930192,1.1611041e-09
C0E550,明德,2023-12-19,24.583486,120.885411,1.0085063e-08
C0R150,三地門,2023-12-19,22.709889,120.639944,0.7458465
C0G910,花壇,2023-12-19,24.032076,120.549461,2.2663524e-09
C1D400,鳥嘴山,2023-12-19,24.71909,121.28387,2.7272797e-09
C0K500,元長,2023-12-19,23.64981,120.315024,0.040961068
C0F0B0,石岡,2023-12-19,24.276061,120.777644,5.50558e-09
C2V250,甲仙,2023-12-19,23.080106,120.591758,2.4686535e-08
C0SA20,金崙山,2023-12-19,22.567419,120.959667,1.26596635e-08
C0V350,溪埔,2023-12-19,22.738578,120.446797,0.0017268248
C0M660,溪口,2023-12-19,23.604131,120.403569,0.9335463
C1S880,壽卡,2023-12-19,22.238911,120.858903,0.3834178
72D680,桃改新埔分場,2023-12-19,24.834444,121.066111,1.4098661e-06
