站號,站名,日期,lat,lon,BlastGRU-TW
466881,新北,2023-08-24,24.9593,121.52,0.9964978
466900,淡水,2023-08-24,25.164889,121.448906,0.99633664
466920,臺北,2023-08-24,25.037658,121.514853,0.9940698
466940,基隆,2023-08-24,25.133314,121.740475,0.98194367
466990,花蓮,2023-08-24,23.975128,121.613275,0.008485504
467050,新屋,2023-08-24,25.006744,121.047486,0.94818366
467080,宜蘭,2023-08-24,24.763975,121.756528,0.26579648
467270,田中,2023-08-24,23.873803,120.581286,0.9955741
467300,東吉島,2023-08-24,23.25695,119.667467,0.25156182
467350,澎湖,2023-08-24,23.565503,119.563094,0.72966015
467410,臺南,2023-08-24,22.993239,120.204772,0.030004714
467420,永康,2023-08-24,23.038386,120.2367,0.028943926
467441,高雄,2023-08-24,22.7304,120.3125,0.018123385
467480,嘉義,2023-08-24,23.495925,120.432906,0.4009695
467490,臺中,2023-08-24,24.145736,120.684075,0.99853224
467540,大武,2023-08-24,22.355675,120.903789,0.6351398
467571,新竹,2023-08-24,24.827853,121.014219,0.97436786
467590,恆春,2023-08-24,22.003897,120.746339,0.940944
467610,成功,2023-08-24,23.097486,121.373428,0.057764422
467620,蘭嶼,2023-08-24,22.036969,121.558339,0.9987411
467660,臺東,2023-08-24,22.752211,121.154586,0.71725905
467790,墾丁雷達站,2023-08-24,21.948235,120.808028,0.9602803
C0A520,山佳,2023-08-24,24.974944,121.402008,0.997843
C0A530,坪林,2023-08-24,24.938183,121.70975,0.8468797
C0A540,四堵,2023-08-24,24.8926,121.745736,0.8510954
C0A550,泰平,2023-08-24,24.971197,121.823711,0.09536134
C0A560,福山,2023-08-24,24.776203,121.502811,0.038075164
C0A570,桶後,2023-08-24,24.848222,121.597992,0.9185741
C0A640,石碇,2023-08-24,24.993969,121.662917,0.87384975
C0A650,火燒寮,2023-08-24,25.002719,121.742892,0.3948585
C0A660,瑞芳,2023-08-24,25.113169,121.801147,0.2787022
C0A770,科教館,2023-08-24,25.096356,121.516507,0.9960961
C0A860,大坪,2023-08-24,25.165914,121.632969,0.90799844
C0A880,福隆,2023-08-24,25.017842,121.942083,0.23427649
C0A890,雙溪,2023-08-24,25.036003,121.864242,0.98153234
C0A920,富貴角,2023-08-24,25.263783,121.565258,0.9925161
C0A931,三和,2023-08-24,25.233153,121.595236,0.44062084
C0A940,金山,2023-08-24,25.223628,121.643967,0.9926448
C0A950,鼻頭角,2023-08-24,25.129036,121.923372,0.237375
C0A970,三貂角,2023-08-24,25.007606,122.002058,0.3629982
C0A980,社子,2023-08-24,25.109508,121.469681,0.99594694
C0A9C0,天母,2023-08-24,25.117494,121.537169,0.9950922
C0A9F0,內湖,2023-08-24,25.079422,121.57545,0.99278927
C0AC60,三峽,2023-08-24,24.939025,121.369728,0.99708897
C0AC70,信義,2023-08-24,25.037822,121.564597,0.9968541
C0AC80,文山,2023-08-24,25.00235,121.575728,0.9998426
C0ACA0,新莊,2023-08-24,25.051478,121.446756,0.99946904
C0AD00,三芝,2023-08-24,25.258131,121.501917,0.989572
C0AD10,八里,2023-08-24,25.150211,121.403947,0.98781705
C0AD30,蘆洲,2023-08-24,25.086594,121.472331,0.9960961
C0AD40,土城,2023-08-24,24.973208,121.445169,0.9979683
C0AD50,鶯歌,2023-08-24,24.951533,121.346294,0.9984173
C0AG80,中和,2023-08-24,24.991622,121.491792,0.99502826
C0AH00,汐止,2023-08-24,25.066881,121.658778,0.9960321
C0AH10,永和,2023-08-24,25.01125,121.508111,0.99487317
C0AH40,平等,2023-08-24,25.129142,121.577086,0.8758698
C0AH50,林口,2023-08-24,25.072181,121.38084,0.97124124
C0AH70,松山,2023-08-24,25.04871,121.55042,0.9968541
C0AH80,深坑,2023-08-24,25.002703,121.628328,0.99972945
C0AI00,五股,2023-08-24,25.07445,121.42728,0.9993905
C0AI10,屈尺,2023-08-24,24.92184,121.54475,0.99986494
C0AI20,白沙灣,2023-08-24,25.283128,121.519058,0.98572004
C0AI30,三重,2023-08-24,25.057328,121.500629,0.9956645
C0AI40,石牌,2023-08-24,25.115597,121.513139,0.99621296
C0AJ20,野柳,2023-08-24,25.20703,121.690021,0.98703724
C0AJ30,淡水觀海,2023-08-24,25.184591,121.408616,0.98864084
C0AJ40,石門,2023-08-24,25.273672,121.601198,0.9955055
C0AJ50,水湳洞,2023-08-24,25.123695,121.862238,0.9768521
C0AJ60,六塊厝,2023-08-24,25.24,121.4481,0.9826316
C0AJ70,田寮,2023-08-24,25.2698,121.4886,0.9853265
C0AJ80,板橋,2023-08-24,25.0107,121.4489,0.9987248
C0AJ90,澳底,2023-08-24,25.0552,121.9253,0.23526919
C0B010,七堵,2023-08-24,25.094819,121.71713,0.99086624
C0B020,基隆嶼,2023-08-24,25.19141,121.78391,0.9808101
C0B040,大武崙,2023-08-24,25.166676,121.706993,0.98856944
C0B050,八斗子,2023-08-24,25.144754,121.79167,0.97750837
C0B060,暖暖,2023-08-24,25.0957,121.7403,0.9861199
C0C460,復興,2023-08-24,24.820208,121.352281,0.9594296
C0C480,桃園,2023-08-24,24.992425,121.323172,0.9906616
C0C490,八德,2023-08-24,24.928708,121.283289,0.9918394
C0C590,觀音,2023-08-24,25.027072,121.153317,0.99044406
C0C620,蘆竹,2023-08-24,25.084275,121.265767,0.9834992
C0C630,大溪,2023-08-24,24.882853,121.265547,0.9841504
C0C650,平鎮,2023-08-24,24.897503,121.214636,0.9927779
C0C660,楊梅,2023-08-24,24.912375,121.143047,0.9927969
C0C670,龍潭,2023-08-24,24.870056,121.221389,0.9876373
C0C680,龜山,2023-08-24,25.02846,121.38656,0.9683463
C0C700,中壢,2023-08-24,24.977661,121.256375,0.98172826
C0C710,大溪永福,2023-08-24,24.892936,121.324975,0.99414396
C0C720,竹圍,2023-08-24,25.112692,121.239824,0.9820377
C0C730,中大臨海站,2023-08-24,24.966126,121.008581,0.9429302
C0C740,觀音工業區,2023-08-24,25.064764,121.114856,0.98117757
C0C750,新興坑尾,2023-08-24,25.0061,121.0971,0.987641
C0D430,峨眉,2023-08-24,24.6905,121.017189,0.98264486
C0D480,打鐵坑,2023-08-24,24.849664,121.150789,0.9807805
C0D540,橫山,2023-08-24,24.71116,121.11693,0.9971851
C0D560,竹東,2023-08-24,24.767147,121.057881,0.9823757
C0D580,寶山,2023-08-24,24.735006,121.025192,0.9548988
C0D590,新豐,2023-08-24,24.87068,120.97721,0.9153409
C0D650,湖口,2023-08-24,24.904794,121.043628,0.9584715
C0D660,新竹市東區,2023-08-24,24.798681,120.986942,0.9774301
C0D670,海天一線,2023-08-24,24.831986,120.914438,0.98163354
C0D680,香山濕地,2023-08-24,24.783581,120.914988,0.98281825
C0D690,外湖,2023-08-24,24.917735,120.968711,0.9416911
C0D700,關西,2023-08-24,24.7977,121.1732,0.99076796
C0E420,竹南,2023-08-24,24.708978,120.888897,0.9857785
C0E430,南庄,2023-08-24,24.601775,121.000214,0.9948992
C0E520,大湖,2023-08-24,24.41494,120.87087,0.99252594
C0E540,後龍,2023-08-24,24.606489,120.783933,0.9986677
C0E550,明德,2023-08-24,24.583486,120.885411,0.9489294
C0E590,通霄,2023-08-24,24.471892,120.704622,0.99809724
C0E730,頭份,2023-08-24,24.688247,120.912206,0.986264
C0E740,造橋,2023-08-24,24.637056,120.864778,0.8873598
C0E750,苗栗,2023-08-24,24.564569,120.824575,0.9988777
C0E780,銅鑼,2023-08-24,24.489681,120.790853,0.9390478
C0E791,卓蘭,2023-08-24,24.3126,120.8244,0.99967366
C0E810,西湖,2023-08-24,24.562947,120.7485,0.9988562
C0E820,獅潭,2023-08-24,24.539133,120.920042,0.982702
C0E830,苑裡,2023-08-24,24.439714,120.653053,0.99738204
C0E850,大河,2023-08-24,24.618069,120.948578,0.97146994
C0E870,高鐵苗栗,2023-08-24,24.60725,120.826094,0.9987054
C0E910,海埔,2023-08-24,24.648767,120.772435,0.91532826
C0E920,通霄漁港,2023-08-24,24.498589,120.673876,0.99778044
C0E930,龍鳳,2023-08-24,24.700034,120.859125,0.8689559
C0F0B0,石岡,2023-08-24,24.276061,120.777644,0.99904114
C0F850,東勢,2023-08-24,24.246428,120.833047,0.9996809
C0F930,大甲,2023-08-24,24.347667,120.640403,0.99781513
C0F970,大坑,2023-08-24,24.173142,120.722289,0.99881047
C0F9A0,中竹林,2023-08-24,24.103556,120.751061,0.9992829
C0F9I0,神岡,2023-08-24,24.272481,120.658314,0.9817817
C0F9K0,大安,2023-08-24,24.345061,120.588025,0.9971788
C0F9L0,后里,2023-08-24,24.310436,120.729725,0.99390596
C0F9M0,豐原,2023-08-24,24.254322,120.720692,0.9915302
C0F9N0,大里,2023-08-24,24.092464,120.701378,0.9979989
C0F9O0,潭子,2023-08-24,24.213106,120.703933,0.97726077
C0F9P0,清水,2023-08-24,24.312297,120.562242,0.9970262
C0F9Q0,外埔,2023-08-24,24.347817,120.705686,0.9664029
C0F9R0,龍井,2023-08-24,24.184536,120.528972,0.9971004
C0F9S0,烏日,2023-08-24,24.107058,120.624103,0.995491
C0F9T0,西屯,2023-08-24,24.179494,120.641275,0.99800533
C0F9U0,南屯,2023-08-24,24.137006,120.637969,0.9979318
C0F9X0,大雅(中科園區),2023-08-24,24.21528,120.62445,0.9984421
C0FA10,松柏,2023-08-24,24.429115,120.617482,0.99715203
C0FA20,溫寮,2023-08-24,24.372177,120.583125,0.99720776
C0FA30,梧棲,2023-08-24,24.256003,120.523381,0.99705094
C0FA40,臺中電廠,2023-08-24,24.2146,120.4907,0.9971004
C0FA50,霧峰,2023-08-24,24.0419,120.6995,0.9983507
C0G620,芬園,2023-08-24,24.015678,120.6213,0.9967393
C0G640,鹿港,2023-08-24,24.0753,120.430481,0.9945554
C0G650,員林,2023-08-24,23.946503,120.585597,0.9965909
C0G660,溪湖,2023-08-24,23.94835,120.479122,0.99613005
C0G720,溪州,2023-08-24,23.851589,120.499093,0.99487406
C0G730,二林,2023-08-24,23.903325,120.376081,0.9949698
C0G740,大城,2023-08-24,23.852487,120.320935,0.2468955
C0G770,福興,2023-08-24,24.041289,120.437669,0.9946393
C0G780,秀水,2023-08-24,24.03405,120.503869,0.99502414
C0G800,埔鹽,2023-08-24,24.000394,120.431683,0.9946973
C0G810,埔心,2023-08-24,23.947633,120.525456,0.99622697
C0G820,田尾,2023-08-24,23.901669,120.509389,0.996325
C0G830,埤頭,2023-08-24,23.866003,120.452806,0.9945476
C0G840,北斗,2023-08-24,23.877586,120.514222,0.996325
C0G860,社頭,2023-08-24,23.897647,120.5862,0.99671143
C0G870,芳苑,2023-08-24,23.922303,120.320025,0.2358437
C0G880,二水,2023-08-24,23.810742,120.6173,0.99685925
C0G890,伸港,2023-08-24,24.148933,120.484403,0.99714607
C0G900,線西,2023-08-24,24.143358,120.443536,0.9971918
C0G910,花壇,2023-08-24,24.032076,120.549461,0.99547344
C0G920,永靖,2023-08-24,23.924703,120.547533,0.99641705
C0G940,竹塘,2023-08-24,23.848253,120.386764,0.99244684
C0G950,防潮門,2023-08-24,24.1835,120.4871,0.9970081
C0G960,福寶,2023-08-24,24.0443,120.3814,0.9942029
C0G970,三豐,2023-08-24,23.882,120.2895,0.2358437
C0H890,埔里,2023-08-24,23.972169,120.952425,0.9997092
C0H950,中寮,2023-08-24,23.884447,120.766406,0.9991121
C0H960,草屯,2023-08-24,23.973672,120.68085,0.99688876
C0I110,竹山,2023-08-24,23.761225,120.688156,0.99919975
C0I360,水里,2023-08-24,23.812553,120.849792,0.9998989
C0I380,集集,2023-08-24,23.828206,120.801467,0.99988276
C0I410,名間,2023-08-24,23.837053,120.701447,0.99763525
C0I420,國姓,2023-08-24,24.037803,120.855072,0.9990661
C0I460,南投,2023-08-24,23.911469,120.687331,0.9973979
C0K250,崙背,2023-08-24,23.75555,120.318925,0.2709886
C0K280,四湖,2023-08-24,23.630414,120.227125,0.27115345
C0K291,宜梧,2023-08-24,23.536281,120.169329,0.15620708
C0K330,虎尾,2023-08-24,23.719183,120.442036,0.9927601
C0K390,土庫,2023-08-24,23.679029,120.395574,0.9924259
C0K400,斗六,2023-08-24,23.720583,120.541127,0.99719185
C0K410,北港,2023-08-24,23.573957,120.292802,0.14865315
C0K420,西螺,2023-08-24,23.800407,120.467394,0.99477446
C0K430,褒忠,2023-08-24,23.690938,120.303634,0.23063867
C0K440,二崙,2023-08-24,23.772797,120.408944,0.99277323
C0K450,大埤,2023-08-24,23.646074,120.431537,0.99186826
C0K460,斗南,2023-08-24,23.678734,120.478359,0.99462
C0K470,林內,2023-08-24,23.748675,120.609642,0.9974377
C0K480,莿桐,2023-08-24,23.761192,120.502372,0.9950261
C0K500,元長,2023-08-24,23.64981,120.315024,0.25716034
C0K510,水林,2023-08-24,23.572924,120.24597,0.16659825
C0K530,臺西,2023-08-24,23.701547,120.197559,0.25548357
C0K550,蔦松,2023-08-24,23.514319,120.229736,0.16171457
C0K560,棋山,2023-08-24,23.68645,120.603417,0.99808013
C0K580,高鐵雲林,2023-08-24,23.737456,120.417944,0.9923486
C0K590,雲林東勢,2023-08-24,23.674192,120.255721,0.22919731
C0K600,箔子寮,2023-08-24,23.6197,120.14,0.17513461
C0M410,馬頭山,2023-08-24,23.324361,120.582017,0.99991536
C0M520,東後寮,2023-08-24,23.369908,120.248065,0.11546879
C0M640,中埔,2023-08-24,23.42538,120.5229,0.9978938
C0M650,朴子,2023-08-24,23.43463,120.23902,0.16370922
C0M660,溪口,2023-08-24,23.604131,120.403569,0.29638118
C0M670,大林,2023-08-24,23.600616,120.45841,0.40267238
C0M680,太保,2023-08-24,23.455062,120.331455,0.14599033
C0M690,水上,2023-08-24,23.419734,120.388909,0.4559333
C0M700,竹崎,2023-08-24,23.526178,120.555508,0.99903107
C0M710,東石,2023-08-24,23.458927,120.15385,0.18980265
C0M720,番路,2023-08-24,23.464657,120.554156,0.9994733
C0M730,嘉義市東區,2023-08-24,23.457673,120.460531,0.501114
C0M740,六腳,2023-08-24,23.492871,120.290625,0.13997997
C0M750,布袋,2023-08-24,23.380878,120.167789,0.16878487
C0M760,民雄,2023-08-24,23.551754,120.428457,0.31287086
C0M770,嘉義梅山,2023-08-24,23.585398,120.555587,0.9987866
C0M780,鹿草,2023-08-24,23.41134,120.30835,0.18472244
C0M790,新港,2023-08-24,23.553269,120.345728,0.15092003
C0M800,茶山,2023-08-24,23.299075,120.664767,0.99967355
C0M880,好美里,2023-08-24,23.3364,120.138,0.14808291
C0N010,鯤鯓國小,2023-08-24,23.1879,120.0889,0.20730132
C0N020,城西,2023-08-24,23.0568,120.0956,0.11357911
C0N030,四草,2023-08-24,23.0235,120.1116,0.10123657
C0N040,蘆竹溝,2023-08-24,23.2344,120.0961,0.18853715
C0N050,蚵寮,2023-08-24,23.301,120.1104,0.19732916
C0O810,曾文,2023-08-24,23.219681,120.497328,0.49056622
C0O830,北寮,2023-08-24,23.079561,120.495008,0.99907976
C0O840,王爺宮,2023-08-24,23.222064,120.40085,0.616314
C0O860,大內,2023-08-24,23.11885,120.36083,0.045892693
C0O900,善化,2023-08-24,23.112883,120.297219,0.03161822
C0O930,玉井,2023-08-24,23.126042,120.46055,0.42307547
C0O950,安南,2023-08-24,23.076694,120.144861,0.030103024
C0O960,崎頂,2023-08-24,22.959547,120.369317,0.9990853
C0O970,虎頭埤,2023-08-24,23.021375,120.347878,0.15013458
C0O980,新市,2023-08-24,23.061614,120.298197,0.031483762
C0O990,媽廟,2023-08-24,22.99175,120.293525,0.03069854
C0R150,三地門,2023-08-24,22.709889,120.639944,0.9598679
C0R160,鹽埔,2023-08-24,22.739558,120.530778,0.95320845
C0R170,屏東,2023-08-24,22.660269,120.494072,0.016580367
C0R190,赤山,2023-08-24,22.592333,120.614306,0.94954085
C0R220,潮州,2023-08-24,22.534361,120.54,0.96042067
C0R240,來義,2023-08-24,22.527306,120.625111,0.9596473
C0R260,春日,2023-08-24,22.370361,120.628306,0.9565753
C0R270,琉球嶼,2023-08-24,22.332244,120.362236,0.95554495
C0R280,檳榔,2023-08-24,22.076078,120.836777,0.9971726
C0R320,車城,2023-08-24,22.0744,120.716247,0.92065984
C0R341,牡丹,2023-08-24,22.130036,120.792639,0.9710103
C0R350,貓鼻頭,2023-08-24,21.921774,120.7358,0.94795036
C0R470,高樹,2023-08-24,22.826389,120.600806,0.98011494
C0R480,長治,2023-08-24,22.693128,120.542622,0.9548403
C0R490,九如,2023-08-24,22.7405,120.490503,0.016451756
C0R520,崁頂,2023-08-24,22.514781,120.506914,0.018898679
C0R540,佳冬,2023-08-24,22.419456,120.552375,0.019621313
C0R550,新埤,2023-08-24,22.467947,120.582894,0.9528785
C0R560,新園,2023-08-24,22.5434,120.461558,0.018579384
C0R570,麟洛,2023-08-24,22.65078,120.52719,0.016664617
C0R580,南州,2023-08-24,22.48591,120.50274,0.018785365
C0R590,里港,2023-08-24,22.77919,120.49459,0.95263135
C0R620,墾雷,2023-08-24,21.900836,120.855269,0.9486403
C0R640,東港,2023-08-24,22.46247,120.44074,0.019525291
C0R650,竹田,2023-08-24,22.58486,120.54344,0.9512343
C0R660,枋寮,2023-08-24,22.367722,120.590647,0.9617064
C0R670,楓港,2023-08-24,22.190131,120.692156,0.94793594
C0R680,佳樂水,2023-08-24,21.993578,120.861633,0.9342796
C0R690,墾丁,2023-08-24,21.966756,120.810269,0.9959905
C0R700,枋山,2023-08-24,22.246844,120.661086,0.9431587
C0R710,龍磐,2023-08-24,21.931672,120.838942,0.9884456
C0R720,旭海,2023-08-24,22.205403,120.887614,0.9743464
C0R730,大坪頂,2023-08-24,22.024633,120.69355,0.99207675
C0R740,獅子,2023-08-24,22.201569,120.70525,0.9560071
C0R760,南仁湖,2023-08-24,22.084681,120.863353,0.99760854
C0R770,保力,2023-08-24,22.071122,120.764111,0.9760895
C0R780,滿州,2023-08-24,22.024403,120.839892,0.95403105
C0R790,九棚,2023-08-24,22.14195,120.889281,0.9589713
C0R800,丹路,2023-08-24,22.204481,120.750989,0.96152145
C0R810,內獅,2023-08-24,22.305064,120.642986,0.9416441
C0R830,高士,2023-08-24,22.121825,120.836781,0.998522
C0R850,林邊,2023-08-24,22.4634,120.5339,0.019226216
C0R860,鼻頭,2023-08-24,22.1043,120.8979,0.9984212
C0R870,興海,2023-08-24,21.9752,120.8439,0.9342796
C0R880,後壁湖,2023-08-24,21.9457,120.7457,0.9139053
C0R890,山海,2023-08-24,21.9878,120.7091,0.92007154
C0R900,竹坑,2023-08-24,22.1385,120.7022,0.958151
C0R910,下寮,2023-08-24,22.3929,120.5548,0.019621316
C0R920,塭仔,2023-08-24,22.4169,120.5197,0.020404233
C0R930,萬丹,2023-08-24,22.5885,120.4851,0.95119494
C0R940,加祿堂,2023-08-24,22.3363,120.6217,0.9456388
C0S710,鹿野,2023-08-24,22.917711,121.122994,0.19930492
C0S730,綠島,2023-08-24,22.6672,121.47533,0.088470474
C0S740,池上,2023-08-24,23.119628,121.209469,0.40420985
C0S770,大溪山,2023-08-24,22.478475,120.943325,0.99145544
C0S790,金崙,2023-08-24,22.538122,120.966875,0.9356026
C0S810,東河,2023-08-24,22.972672,121.303986,0.05628915
C0S830,長濱,2023-08-24,23.286817,121.411975,0.138997
C0S840,南田,2023-08-24,22.279725,120.889208,0.7829676
C0S890,關山,2023-08-24,23.0395,121.175017,0.19038102
C0S900,蘭嶼高中,2023-08-24,22.04909,121.51214,0.99951994
C0S910,蘭嶼燈塔,2023-08-24,22.081197,121.503117,0.99944437
C0S920,金峰嘉蘭,2023-08-24,22.594789,120.960825,0.773699
C0S930,延平,2023-08-24,22.902581,121.084058,0.12211251
C0S940,石寧山,2023-08-24,23.223772,121.406639,0.067398116
C0S950,七塊厝,2023-08-24,22.954453,121.229922,0.120834984
C0S960,香蘭,2023-08-24,22.587569,120.993375,0.7177345
C0S970,加津林,2023-08-24,22.416211,120.926942,0.6880419
C0S990,山豬窟,2023-08-24,22.318619,120.857372,0.992742
C0SA00,歷坵,2023-08-24,22.520969,120.89185,0.99658126
C0SA10,檳榔四格山,2023-08-24,22.810031,121.109308,0.9807009
C0SA30,都歷,2023-08-24,23.020333,121.323642,0.05253411
C0SA40,瑞和,2023-08-24,22.974361,121.156697,0.06911212
C0SA60,知本（水試所）,2023-08-24,22.702394,121.082761,0.72824806
C0SA80,土坂,2023-08-24,22.453108,120.887572,0.85395867
C0SA90,達仁林場,2023-08-24,22.264347,120.823972,0.99573404
C0T870,鯉魚潭,2023-08-24,23.935639,121.508944,0.0066745467
C0T900,西林,2023-08-24,23.8119,121.441458,0.0064508617
C0T960,光復,2023-08-24,23.660694,121.424964,0.0068280664
C0T9A0,月眉山,2023-08-24,23.809928,121.539828,0.007963351
C0T9D0,和中,2023-08-24,24.26676,121.74103,0.012241379
C0T9E0,大坑,2023-08-24,23.880628,121.581981,0.008553421
C0T9F0,水璉,2023-08-24,23.797131,121.542514,0.0073454124
C0T9I0,豐濱,2023-08-24,23.583897,121.514806,0.0069287554
C0T9M0,靜浦,2023-08-24,23.455167,121.495028,0.007548441
C0T9N0,富里,2023-08-24,23.171639,121.249378,0.28220075
C0U600,礁溪,2023-08-24,24.817539,121.765608,0.24584395
C0U650,玉蘭,2023-08-24,24.675286,121.587061,0.018470488
C0U750,龜山島,2023-08-24,24.841667,121.953133,0.09064562
C0U760,東澳,2023-08-24,24.52196,121.83318,0.019246569
C0U770,南澳,2023-08-24,24.44935,121.81022,0.016178308
C0U780,五結,2023-08-24,24.68637,121.79794,0.24400906
C0U860,頭城,2023-08-24,24.85323,121.8308,0.22966759
C0U870,大礁溪,2023-08-24,24.791042,121.675047,0.107903235
C0U880,北關,2023-08-24,24.9072,121.8734,0.9799682
C0U890,三星,2023-08-24,24.66812,121.65302,0.28304362
C0U900,內城,2023-08-24,24.71813,121.68766,0.27527177
C0U910,冬山,2023-08-24,24.63373,121.7937,0.23734716
C0U940,羅東,2023-08-24,24.68184,121.74934,0.25275546
C0U970,大福,2023-08-24,24.80064,121.81389,0.25724083
C0U990,員山,2023-08-24,24.74435,121.72247,0.25960162
C0UA00,土場,2023-08-24,24.576533,121.495333,0.057495784
C0UA80,大溪漁港,2023-08-24,24.941801,121.902955,0.19987528
C0UA90,石城,2023-08-24,24.980444,121.951214,0.26024246
C0UB00,淡江大學蘭陽校園,2023-08-24,24.823239,121.730383,0.14580098
C0UB10,蘇澳,2023-08-24,24.5969,121.8571,0.028022239
C0UB20,壯圍,2023-08-24,24.7359,121.8163,0.2444319
C0V250,甲仙,2023-08-24,23.080106,120.591758,0.9993341
C0V260,月眉,2023-08-24,22.971003,120.539853,0.9990608
C0V310,美濃,2023-08-24,22.898742,120.519153,0.21285564
C0V350,溪埔,2023-08-24,22.738578,120.446797,0.017684411
C0V360,內門,2023-08-24,22.975481,120.466769,0.3330587
C0V370,古亭坑,2023-08-24,22.893178,120.401947,0.20887615
C0V400,阿公店,2023-08-24,22.804194,120.355528,0.018097557
C0V440,鳳山,2023-08-24,22.646653,120.356122,0.018371934
C0V450,鳳森,2023-08-24,22.545064,120.392592,0.9645581
C0V490,新興,2023-08-24,22.627422,120.298803,0.018130267
C0V530,阿蓮,2023-08-24,22.883208,120.327508,0.02802611
C0V610,梓官,2023-08-24,22.760558,120.267211,0.018547308
C0V620,永安,2023-08-24,22.82315,120.236856,0.017789729
C0V630,茄萣,2023-08-24,22.906642,120.182608,0.027140189
C0V640,湖內,2023-08-24,22.887139,120.2445,0.026376339
C0V650,彌陀,2023-08-24,22.783806,120.246361,0.017789729
C0V660,岡山,2023-08-24,22.797078,120.294958,0.018175254
C0V680,仁武,2023-08-24,22.701083,120.347722,0.01809228
C0V690,鼓山,2023-08-24,22.623325,120.275575,0.01933993
C0V700,三民,2023-08-24,22.645017,120.311233,0.018130267
C0V710,苓雅,2023-08-24,22.622742,120.330669,0.018241681
C0V720,林園,2023-08-24,22.507747,120.394511,0.019359212
C0V730,大寮,2023-08-24,22.605614,120.395717,0.9535898
C0V740,旗山,2023-08-24,22.888614,120.483597,0.22230548
C0V750,路竹,2023-08-24,22.854997,120.259439,0.017368747
C0V760,橋頭,2023-08-24,22.757806,120.30575,0.01826439
C0V770,大社,2023-08-24,22.730306,120.346639,0.018239276
C0V790,萬山,2023-08-24,22.905944,120.688056,0.9999319
C0V800,六龜,2023-08-24,22.997889,120.633583,0.9997311
C0V810,左營,2023-08-24,22.67491,120.28491,0.018030312
C0V820,小林,2023-08-24,23.148408,120.63325,0.9997899
C0V840,鳳鼻頭,2023-08-24,22.5083,120.3591,0.019222472
C0V850,蚵仔寮,2023-08-24,22.7256,120.2527,0.018416168
C0V860,南寮,2023-08-24,22.7616,120.2339,0.01787638
C0V870,文安,2023-08-24,22.8025,120.2164,0.01829397
C0V880,興達,2023-08-24,22.8778,120.2127,0.027140189
C0V890,前鎮,2023-08-24,22.5718,120.3117,0.018964346
C0V900,汕尾,2023-08-24,22.4782,120.4151,0.016986625
C0X050,東河,2023-08-24,23.296598,120.385608,0.3290358
C0X060,下營,2023-08-24,23.22695,120.256261,0.1519816
C0X080,佳里,2023-08-24,23.173039,120.145086,0.123640664
C0X100,臺南市北區,2023-08-24,23.010394,120.194228,0.02909931
C0X110,臺南市南區,2023-08-24,22.961189,120.188378,0.029374931
C0X120,麻豆,2023-08-24,23.183289,120.248611,0.13352866
C0X130,官田,2023-08-24,23.193217,120.315422,0.16693716
C0X140,西港,2023-08-24,23.125608,120.203108,0.12001265
C0X150,安定,2023-08-24,23.102614,120.227839,0.031233652
C0X160,仁德,2023-08-24,22.968258,120.257689,0.029241668
C0X170,關廟,2023-08-24,22.963017,120.327797,0.03225184
C0X180,山上,2023-08-24,23.0757,120.363253,0.3229963
C0X190,安平,2023-08-24,22.993161,120.152181,0.030905822
C0X200,左鎮,2023-08-24,23.056758,120.408522,0.31534004
C0X210,白河,2023-08-24,23.347466,120.414427,0.35093594
C0X220,學甲,2023-08-24,23.230367,120.182187,0.13015373
C0X230,鹽水,2023-08-24,23.272621,120.247641,0.12867697
C0X240,關子嶺,2023-08-24,23.331169,120.508025,0.99974054
C0X250,新營,2023-08-24,23.310689,120.316681,0.1363482
C0X260,後壁,2023-08-24,23.366358,120.362326,0.21948172
C0X280,將軍,2023-08-24,23.214999,120.13577,0.12665905
C0X290,北門,2023-08-24,23.267772,120.125481,0.13230506
C0X300,鹿寮,2023-08-24,23.386047,120.477331,0.9975161
C0X310,七股,2023-08-24,23.147289,120.086253,0.16936825
C0X320,柳營,2023-08-24,23.253328,120.375253,0.3264137
C0Z020,明里,2023-08-24,23.208717,121.262342,0.09669048
C0Z061,玉里,2023-08-24,23.3215,121.339656,0.9987809
C0Z070,舞鶴,2023-08-24,23.46811,121.37407,0.0061421054
C0Z080,富源,2023-08-24,23.587642,121.378225,0.005687325
C0Z100,東華,2023-08-24,23.89525,121.549833,0.0077906735
C0Z150,吉安光華,2023-08-24,23.930925,121.595153,0.008320991
C0Z160,鳳林,2023-08-24,23.746114,121.453411,0.0067961444
C0Z170,卓溪,2023-08-24,23.3443,121.3029,0.99825126
C0Z180,新城,2023-08-24,24.03946,121.60454,0.008392884
C0Z190,富世,2023-08-24,24.14743,121.6297,0.015698764
C0Z200,萬榮,2023-08-24,23.709219,121.420106,0.006998455
C0Z210,瑞穗,2023-08-24,23.5239,121.39021,0.0064010005
C0Z230,和平,2023-08-24,24.30717,121.77007,0.011689874
C0Z270,蕃薯寮,2023-08-24,23.73835,121.540108,0.0066668564
C0Z280,德武,2023-08-24,23.47426,121.41071,0.0064204326
C0Z300,東里,2023-08-24,23.26853,121.30547,0.05680753
C0Z310,清水斷崖,2023-08-24,24.218294,121.689142,0.013328232
C0Z330,安通山,2023-08-24,23.290728,121.348528,0.28568578
