站號,站名,日期,lat,lon,BlastGRU-TW
466881,新北,2023-09-19,24.9593,121.52,0.013703333
466900,淡水,2023-09-19,25.164889,121.448906,0.016967317
466920,臺北,2023-09-19,25.037658,121.514853,0.015463437
467441,高雄,2023-09-19,22.7304,120.3125,0.026484558
467480,嘉義,2023-09-19,23.495925,120.432906,0.003273135
467490,臺中,2023-09-19,24.145736,120.684075,0.95477
C0A530,坪林,2023-09-19,24.938183,121.70975,0.7575082
C0A540,四堵,2023-09-19,24.8926,121.745736,0.229787
C0A550,泰平,2023-09-19,24.971197,121.823711,0.95686054
C0A890,雙溪,2023-09-19,25.036003,121.864242,0.010446022
C0A920,富貴角,2023-09-19,25.263783,121.565258,0.013683349
C0A931,三和,2023-09-19,25.233153,121.595236,0.5166481
C0AC70,信義,2023-09-19,25.037822,121.564597,0.013804359
C0AC80,文山,2023-09-19,25.00235,121.575728,0.013944002
C0ACA0,新莊,2023-09-19,25.051478,121.446756,0.017068757
C0AH50,林口,2023-09-19,25.072181,121.38084,0.16908883
C0AH70,松山,2023-09-19,25.04871,121.55042,0.013804359
C0AH80,深坑,2023-09-19,25.002703,121.628328,0.012154405
C0AJ60,六塊厝,2023-09-19,25.24,121.4481,0.018299168
C0AJ70,田寮,2023-09-19,25.2698,121.4886,0.014518533
