站號,站名,日期,lat,lon,BlastGRU-TW
466881,新北,2023-07-23,24.9593,121.52,0.43730596
466900,淡水,2023-07-23,25.164889,121.448906,0.55969757
466920,臺北,2023-07-23,25.037658,121.514853,0.3659148
466940,基隆,2023-07-23,25.133314,121.740475,0.28387576
466990,花蓮,2023-07-23,23.975128,121.613275,0.3089703
467050,新屋,2023-07-23,25.006744,121.047486,0.83478767
467080,宜蘭,2023-07-23,24.763975,121.756528,0.048657153
467270,田中,2023-07-23,23.873803,120.581286,0.39330083
467300,東吉島,2023-07-23,23.25695,119.667467,0.8895689
467350,澎湖,2023-07-23,23.565503,119.563094,0.9055992
467410,臺南,2023-07-23,22.993239,120.204772,0.2905847
467420,永康,2023-07-23,23.038386,120.2367,0.2670979
467441,高雄,2023-07-23,22.7304,120.3125,0.18113326
467480,嘉義,2023-07-23,23.495925,120.432906,0.44363016
467490,臺中,2023-07-23,24.145736,120.684075,0.8280071
467540,大武,2023-07-23,22.355675,120.903789,0.9997781
467571,新竹,2023-07-23,24.827853,121.014219,0.928327
467590,恆春,2023-07-23,22.003897,120.746339,0.5360489
467610,成功,2023-07-23,23.097486,121.373428,0.16659573
467620,蘭嶼,2023-07-23,22.036969,121.558339,0.9799852
467660,臺東,2023-07-23,22.752211,121.154586,0.07756785
467790,墾丁雷達站,2023-07-23,21.948235,120.808028,0.559627
C0A520,山佳,2023-07-23,24.974944,121.402008,0.4685205
C0A530,坪林,2023-07-23,24.938183,121.70975,0.061762534
C0A540,四堵,2023-07-23,24.8926,121.745736,0.14145434
C0A550,泰平,2023-07-23,24.971197,121.823711,0.11358785
C0A560,福山,2023-07-23,24.776203,121.502811,0.61042017
C0A570,桶後,2023-07-23,24.848222,121.597992,0.29417977
C0A640,石碇,2023-07-23,24.993969,121.662917,0.0856673
C0A650,火燒寮,2023-07-23,25.002719,121.742892,0.08456552
C0A660,瑞芳,2023-07-23,25.113169,121.801147,0.057968363
C0A770,科教館,2023-07-23,25.096356,121.516507,0.4227994
C0A860,大坪,2023-07-23,25.165914,121.632969,0.4959022
C0A880,福隆,2023-07-23,25.017842,121.942083,0.05960693
C0A890,雙溪,2023-07-23,25.036003,121.864242,0.24035645
C0A920,富貴角,2023-07-23,25.263783,121.565258,0.5249576
C0A931,三和,2023-07-23,25.233153,121.595236,0.120384514
C0A940,金山,2023-07-23,25.223628,121.643967,0.6857373
C0A950,鼻頭角,2023-07-23,25.129036,121.923372,0.05215732
C0A970,三貂角,2023-07-23,25.007606,122.002058,0.062349394
C0A980,社子,2023-07-23,25.109508,121.469681,0.41997156
C0A9C0,天母,2023-07-23,25.117494,121.537169,0.48646832
C0A9F0,內湖,2023-07-23,25.079422,121.57545,0.39305708
C0AC60,三峽,2023-07-23,24.939025,121.369728,0.48611373
C0AC70,信義,2023-07-23,25.037822,121.564597,0.3406659
C0AC80,文山,2023-07-23,25.00235,121.575728,0.32223418
C0ACA0,新莊,2023-07-23,25.051478,121.446756,0.47705424
C0AD00,三芝,2023-07-23,25.258131,121.501917,0.604824
C0AD10,八里,2023-07-23,25.150211,121.403947,0.6029506
C0AD30,蘆洲,2023-07-23,25.086594,121.472331,0.42268804
C0AD40,土城,2023-07-23,24.973208,121.445169,0.49364102
C0AD50,鶯歌,2023-07-23,24.951533,121.346294,0.6754167
C0AG80,中和,2023-07-23,24.991622,121.491792,0.38732296
C0AH00,汐止,2023-07-23,25.066881,121.658778,0.2923159
C0AH10,永和,2023-07-23,25.01125,121.508111,0.38532707
C0AH40,平等,2023-07-23,25.129142,121.577086,0.3058278
C0AH50,林口,2023-07-23,25.072181,121.38084,0.22797827
C0AH70,松山,2023-07-23,25.04871,121.55042,0.3406659
C0AH80,深坑,2023-07-23,25.002703,121.628328,0.2845363
C0AI00,五股,2023-07-23,25.07445,121.42728,0.6175546
C0AI10,屈尺,2023-07-23,24.92184,121.54475,0.48061192
C0AI20,白沙灣,2023-07-23,25.283128,121.519058,0.5720476
C0AI30,三重,2023-07-23,25.057328,121.500629,0.43749547
C0AI40,石牌,2023-07-23,25.115597,121.513139,0.42596546
C0AJ20,野柳,2023-07-23,25.20703,121.690021,0.38828924
C0AJ30,淡水觀海,2023-07-23,25.184591,121.408616,0.5596156
C0AJ40,石門,2023-07-23,25.273672,121.601198,0.56990546
C0AJ50,水湳洞,2023-07-23,25.123695,121.862238,0.23427519
C0AJ60,六塊厝,2023-07-23,25.24,121.4481,0.64550024
C0AJ70,田寮,2023-07-23,25.2698,121.4886,0.5786606
C0AJ80,板橋,2023-07-23,25.0107,121.4489,0.46549416
C0AJ90,澳底,2023-07-23,25.0552,121.9253,0.057135697
C0B010,七堵,2023-07-23,25.094819,121.71713,0.34603417
C0B020,基隆嶼,2023-07-23,25.19141,121.78391,0.25088713
C0B040,大武崙,2023-07-23,25.166676,121.706993,0.40656134
C0B050,八斗子,2023-07-23,25.144754,121.79167,0.23693334
C0B060,暖暖,2023-07-23,25.0957,121.7403,0.3138485
C0C460,復興,2023-07-23,24.820208,121.352281,0.85931826
C0C480,桃園,2023-07-23,24.992425,121.323172,0.81031114
C0C490,八德,2023-07-23,24.928708,121.283289,0.8006866
C0C590,觀音,2023-07-23,25.027072,121.153317,0.8679328
C0C620,蘆竹,2023-07-23,25.084275,121.265767,0.75968343
C0C630,大溪,2023-07-23,24.882853,121.265547,0.81599826
C0C650,平鎮,2023-07-23,24.897503,121.214636,0.9304514
C0C660,楊梅,2023-07-23,24.912375,121.143047,0.94327503
C0C670,龍潭,2023-07-23,24.870056,121.221389,0.88870394
C0C680,龜山,2023-07-23,25.02846,121.38656,0.40239537
C0C700,中壢,2023-07-23,24.977661,121.256375,0.8457124
C0C710,大溪永福,2023-07-23,24.892936,121.324975,0.8173999
C0C720,竹圍,2023-07-23,25.112692,121.239824,0.75317204
C0C730,中大臨海站,2023-07-23,24.966126,121.008581,0.84062165
C0C740,觀音工業區,2023-07-23,25.064764,121.114856,0.88650763
C0C750,新興坑尾,2023-07-23,25.0061,121.0971,0.90660906
C0D430,峨眉,2023-07-23,24.6905,121.017189,0.95453876
C0D480,打鐵坑,2023-07-23,24.849664,121.150789,0.94311607
C0D540,橫山,2023-07-23,24.71116,121.11693,0.9224787
C0D560,竹東,2023-07-23,24.767147,121.057881,0.94572884
C0D580,寶山,2023-07-23,24.735006,121.025192,0.95116264
C0D590,新豐,2023-07-23,24.87068,120.97721,0.92997265
C0D650,湖口,2023-07-23,24.904794,121.043628,0.9110348
C0D660,新竹市東區,2023-07-23,24.798681,120.986942,0.92598563
C0D670,海天一線,2023-07-23,24.831986,120.914438,0.91812617
C0D680,香山濕地,2023-07-23,24.783581,120.914988,0.9513532
C0D690,外湖,2023-07-23,24.917735,120.968711,0.9249474
C0D700,關西,2023-07-23,24.7977,121.1732,0.8965552
C0E420,竹南,2023-07-23,24.708978,120.888897,0.95830345
C0E430,南庄,2023-07-23,24.601775,121.000214,0.9525361
C0E520,大湖,2023-07-23,24.41494,120.87087,0.9842685
C0E540,後龍,2023-07-23,24.606489,120.783933,0.92106277
C0E550,明德,2023-07-23,24.583486,120.885411,0.952823
C0E590,通霄,2023-07-23,24.471892,120.704622,0.8933306
C0E730,頭份,2023-07-23,24.688247,120.912206,0.95431787
C0E740,造橋,2023-07-23,24.637056,120.864778,0.9419634
C0E750,苗栗,2023-07-23,24.564569,120.824575,0.93776333
C0E780,銅鑼,2023-07-23,24.489681,120.790853,0.9461656
C0E791,卓蘭,2023-07-23,24.3126,120.8244,0.97858953
C0E810,西湖,2023-07-23,24.562947,120.7485,0.93775564
C0E820,獅潭,2023-07-23,24.539133,120.920042,0.9339249
C0E830,苑裡,2023-07-23,24.439714,120.653053,0.8908518
C0E850,大河,2023-07-23,24.618069,120.948578,0.95046014
C0E870,高鐵苗栗,2023-07-23,24.60725,120.826094,0.9271933
C0E910,海埔,2023-07-23,24.648767,120.772435,0.94923604
C0E920,通霄漁港,2023-07-23,24.498589,120.673876,0.9001041
C0E930,龍鳳,2023-07-23,24.700034,120.859125,0.9319473
C0F0B0,石岡,2023-07-23,24.276061,120.777644,0.79419875
C0F850,東勢,2023-07-23,24.246428,120.833047,0.9747994
C0F930,大甲,2023-07-23,24.347667,120.640403,0.8189374
C0F970,大坑,2023-07-23,24.173142,120.722289,0.8693821
C0F9A0,中竹林,2023-07-23,24.103556,120.751061,0.5852199
C0F9I0,神岡,2023-07-23,24.272481,120.658314,0.9701167
C0F9K0,大安,2023-07-23,24.345061,120.588025,0.8198578
C0F9L0,后里,2023-07-23,24.310436,120.729725,0.9565373
C0F9M0,豐原,2023-07-23,24.254322,120.720692,0.95952845
C0F9N0,大里,2023-07-23,24.092464,120.701378,0.78336364
C0F9O0,潭子,2023-07-23,24.213106,120.703933,0.93243027
C0F9P0,清水,2023-07-23,24.312297,120.562242,0.7342332
C0F9Q0,外埔,2023-07-23,24.347817,120.705686,0.9658984
C0F9R0,龍井,2023-07-23,24.184536,120.528972,0.75174046
C0F9S0,烏日,2023-07-23,24.107058,120.624103,0.52022195
C0F9T0,西屯,2023-07-23,24.179494,120.641275,0.8184281
C0F9U0,南屯,2023-07-23,24.137006,120.637969,0.78500104
C0F9X0,大雅(中科園區),2023-07-23,24.21528,120.62445,0.9445394
C0FA10,松柏,2023-07-23,24.429115,120.617482,0.8389579
C0FA20,溫寮,2023-07-23,24.372177,120.583125,0.82393664
C0FA30,梧棲,2023-07-23,24.256003,120.523381,0.7185851
C0FA40,臺中電廠,2023-07-23,24.2146,120.4907,0.6813097
C0FA50,霧峰,2023-07-23,24.0419,120.6995,0.81723636
C0G620,芬園,2023-07-23,24.015678,120.6213,0.63339883
C0G640,鹿港,2023-07-23,24.0753,120.430481,0.39796665
C0G650,員林,2023-07-23,23.946503,120.585597,0.530473
C0G660,溪湖,2023-07-23,23.94835,120.479122,0.39769247
C0G720,溪州,2023-07-23,23.851589,120.499093,0.4260621
C0G730,二林,2023-07-23,23.903325,120.376081,0.36161098
C0G740,大城,2023-07-23,23.852487,120.320935,0.55894774
C0G770,福興,2023-07-23,24.041289,120.437669,0.3720996
C0G780,秀水,2023-07-23,24.03405,120.503869,0.3713203
C0G800,埔鹽,2023-07-23,24.000394,120.431683,0.3598739
C0G810,埔心,2023-07-23,23.947633,120.525456,0.40034327
C0G820,田尾,2023-07-23,23.901669,120.509389,0.5011994
C0G830,埤頭,2023-07-23,23.866003,120.452806,0.45093596
C0G840,北斗,2023-07-23,23.877586,120.514222,0.5011994
C0G860,社頭,2023-07-23,23.897647,120.5862,0.5499603
C0G870,芳苑,2023-07-23,23.922303,120.320025,0.5533264
C0G880,二水,2023-07-23,23.810742,120.6173,0.3079969
C0G890,伸港,2023-07-23,24.148933,120.484403,0.7112669
C0G900,線西,2023-07-23,24.143358,120.443536,0.7424533
C0G910,花壇,2023-07-23,24.032076,120.549461,0.4479444
C0G920,永靖,2023-07-23,23.924703,120.547533,0.5495556
C0G940,竹塘,2023-07-23,23.848253,120.386764,0.31847435
C0G950,防潮門,2023-07-23,24.1835,120.4871,0.7489444
C0G960,福寶,2023-07-23,24.0443,120.3814,0.45257932
C0G970,三豐,2023-07-23,23.882,120.2895,0.51907736
C0H890,埔里,2023-07-23,23.972169,120.952425,0.40796018
C0H950,中寮,2023-07-23,23.884447,120.766406,0.49616945
C0H960,草屯,2023-07-23,23.973672,120.68085,0.49232563
C0I110,竹山,2023-07-23,23.761225,120.688156,0.3262758
C0I360,水里,2023-07-23,23.812553,120.849792,0.32264298
C0I380,集集,2023-07-23,23.828206,120.801467,0.4822126
C0I410,名間,2023-07-23,23.837053,120.701447,0.4040235
C0I420,國姓,2023-07-23,24.037803,120.855072,0.5339001
C0I460,南投,2023-07-23,23.911469,120.687331,0.457936
C0K250,崙背,2023-07-23,23.75555,120.318925,0.50812936
C0K280,四湖,2023-07-23,23.630414,120.227125,0.47587496
C0K291,宜梧,2023-07-23,23.536281,120.169329,0.44022563
C0K330,虎尾,2023-07-23,23.719183,120.442036,0.15206832
C0K390,土庫,2023-07-23,23.679029,120.395574,0.19508216
C0K400,斗六,2023-07-23,23.720583,120.541127,0.10309268
C0K410,北港,2023-07-23,23.573957,120.292802,0.2917226
C0K420,西螺,2023-07-23,23.800407,120.467394,0.4316047
C0K430,褒忠,2023-07-23,23.690938,120.303634,0.32530096
C0K440,二崙,2023-07-23,23.772797,120.408944,0.24396677
C0K450,大埤,2023-07-23,23.646074,120.431537,0.13498916
C0K460,斗南,2023-07-23,23.678734,120.478359,0.07440139
C0K470,林內,2023-07-23,23.748675,120.609642,0.09603389
C0K480,莿桐,2023-07-23,23.761192,120.502372,0.21508001
C0K500,元長,2023-07-23,23.64981,120.315024,0.42150024
C0K510,水林,2023-07-23,23.572924,120.24597,0.3895575
C0K530,臺西,2023-07-23,23.701547,120.197559,0.48407328
C0K550,蔦松,2023-07-23,23.514319,120.229736,0.3842098
C0K560,棋山,2023-07-23,23.68645,120.603417,0.07811334
C0K580,高鐵雲林,2023-07-23,23.737456,120.417944,0.23380545
C0K590,雲林東勢,2023-07-23,23.674192,120.255721,0.43797448
C0K600,箔子寮,2023-07-23,23.6197,120.14,0.51318896
C0M410,馬頭山,2023-07-23,23.324361,120.582017,0.9873306
C0M520,東後寮,2023-07-23,23.369908,120.248065,0.3163355
C0M640,中埔,2023-07-23,23.42538,120.5229,0.13998266
C0M650,朴子,2023-07-23,23.43463,120.23902,0.42045817
C0M660,溪口,2023-07-23,23.604131,120.403569,0.3833361
C0M670,大林,2023-07-23,23.600616,120.45841,0.32444522
C0M680,太保,2023-07-23,23.455062,120.331455,0.4484577
C0M690,水上,2023-07-23,23.419734,120.388909,0.45326117
C0M700,竹崎,2023-07-23,23.526178,120.555508,0.2613451
C0M710,東石,2023-07-23,23.458927,120.15385,0.5881273
C0M720,番路,2023-07-23,23.464657,120.554156,0.3883224
C0M730,嘉義市東區,2023-07-23,23.457673,120.460531,0.50991464
C0M740,六腳,2023-07-23,23.492871,120.290625,0.24749611
C0M750,布袋,2023-07-23,23.380878,120.167789,0.49096024
C0M760,民雄,2023-07-23,23.551754,120.428457,0.4504225
C0M770,嘉義梅山,2023-07-23,23.585398,120.555587,0.10517914
C0M780,鹿草,2023-07-23,23.41134,120.30835,0.3265135
C0M790,新港,2023-07-23,23.553269,120.345728,0.32268205
C0M800,茶山,2023-07-23,23.299075,120.664767,0.9902523
C0M880,好美里,2023-07-23,23.3364,120.138,0.44259107
C0N010,鯤鯓國小,2023-07-23,23.1879,120.0889,0.5244656
C0N020,城西,2023-07-23,23.0568,120.0956,0.41312718
C0N030,四草,2023-07-23,23.0235,120.1116,0.38631573
C0N040,蘆竹溝,2023-07-23,23.2344,120.0961,0.4556019
C0N050,蚵寮,2023-07-23,23.301,120.1104,0.47586936
C0O810,曾文,2023-07-23,23.219681,120.497328,0.5020132
C0O830,北寮,2023-07-23,23.079561,120.495008,0.15557033
C0O840,王爺宮,2023-07-23,23.222064,120.40085,0.42029685
C0O860,大內,2023-07-23,23.11885,120.36083,0.38897488
C0O900,善化,2023-07-23,23.112883,120.297219,0.25990492
C0O930,玉井,2023-07-23,23.126042,120.46055,0.40069082
C0O950,安南,2023-07-23,23.076694,120.144861,0.31480184
C0O960,崎頂,2023-07-23,22.959547,120.369317,0.23383693
C0O970,虎頭埤,2023-07-23,23.021375,120.347878,0.37233153
C0O980,新市,2023-07-23,23.061614,120.298197,0.22979435
C0O990,媽廟,2023-07-23,22.99175,120.293525,0.22206756
C0R150,三地門,2023-07-23,22.709889,120.639944,0.13466553
C0R160,鹽埔,2023-07-23,22.739558,120.530778,0.14180002
C0R170,屏東,2023-07-23,22.660269,120.494072,0.19540416
C0R190,赤山,2023-07-23,22.592333,120.614306,0.14028634
C0R220,潮州,2023-07-23,22.534361,120.54,0.15380554
C0R240,來義,2023-07-23,22.527306,120.625111,0.21559909
C0R260,春日,2023-07-23,22.370361,120.628306,0.19292851
C0R270,琉球嶼,2023-07-23,22.332244,120.362236,0.14829865
C0R280,檳榔,2023-07-23,22.076078,120.836777,0.85553604
C0R320,車城,2023-07-23,22.0744,120.716247,0.51803696
C0R341,牡丹,2023-07-23,22.130036,120.792639,0.35435143
C0R350,貓鼻頭,2023-07-23,21.921774,120.7358,0.5438491
C0R470,高樹,2023-07-23,22.826389,120.600806,0.07685063
C0R480,長治,2023-07-23,22.693128,120.542622,0.17901874
C0R490,九如,2023-07-23,22.7405,120.490503,0.17454228
C0R520,崁頂,2023-07-23,22.514781,120.506914,0.21345133
C0R540,佳冬,2023-07-23,22.419456,120.552375,0.18995076
C0R550,新埤,2023-07-23,22.467947,120.582894,0.16849904
C0R560,新園,2023-07-23,22.5434,120.461558,0.18195625
C0R570,麟洛,2023-07-23,22.65078,120.52719,0.19620584
C0R580,南州,2023-07-23,22.48591,120.50274,0.21304068
C0R590,里港,2023-07-23,22.77919,120.49459,0.097437106
C0R620,墾雷,2023-07-23,21.900836,120.855269,0.54907507
C0R640,東港,2023-07-23,22.46247,120.44074,0.17541209
C0R650,竹田,2023-07-23,22.58486,120.54344,0.10435448
C0R660,枋寮,2023-07-23,22.367722,120.590647,0.16179925
C0R670,楓港,2023-07-23,22.190131,120.692156,0.17189223
C0R680,佳樂水,2023-07-23,21.993578,120.861633,0.5283076
C0R690,墾丁,2023-07-23,21.966756,120.810269,0.69513285
C0R700,枋山,2023-07-23,22.246844,120.661086,0.21131161
C0R710,龍磐,2023-07-23,21.931672,120.838942,0.62197435
C0R720,旭海,2023-07-23,22.205403,120.887614,0.63185894
C0R730,大坪頂,2023-07-23,22.024633,120.69355,0.64411825
C0R740,獅子,2023-07-23,22.201569,120.70525,0.18642431
C0R760,南仁湖,2023-07-23,22.084681,120.863353,0.76939046
C0R770,保力,2023-07-23,22.071122,120.764111,0.58371925
C0R780,滿州,2023-07-23,22.024403,120.839892,0.55171525
C0R790,九棚,2023-07-23,22.14195,120.889281,0.5906939
C0R800,丹路,2023-07-23,22.204481,120.750989,0.27020475
C0R810,內獅,2023-07-23,22.305064,120.642986,0.2214273
C0R830,高士,2023-07-23,22.121825,120.836781,0.83074486
C0R850,林邊,2023-07-23,22.4634,120.5339,0.21105511
C0R860,鼻頭,2023-07-23,22.1043,120.8979,0.706991
C0R870,興海,2023-07-23,21.9752,120.8439,0.5283076
C0R880,後壁湖,2023-07-23,21.9457,120.7457,0.51033366
C0R890,山海,2023-07-23,21.9878,120.7091,0.51301825
C0R900,竹坑,2023-07-23,22.1385,120.7022,0.17115457
C0R910,下寮,2023-07-23,22.3929,120.5548,0.19037566
C0R920,塭仔,2023-07-23,22.4169,120.5197,0.16923407
C0R930,萬丹,2023-07-23,22.5885,120.4851,0.11642564
C0R940,加祿堂,2023-07-23,22.3363,120.6217,0.1884214
C0S710,鹿野,2023-07-23,22.917711,121.122994,0.15334544
C0S730,綠島,2023-07-23,22.6672,121.47533,0.10218198
C0S740,池上,2023-07-23,23.119628,121.209469,0.17282407
C0S770,大溪山,2023-07-23,22.478475,120.943325,0.9997103
C0S790,金崙,2023-07-23,22.538122,120.966875,0.9996428
C0S810,東河,2023-07-23,22.972672,121.303986,0.05243545
C0S830,長濱,2023-07-23,23.286817,121.411975,0.18425898
C0S840,南田,2023-07-23,22.279725,120.889208,0.40564907
C0S890,關山,2023-07-23,23.0395,121.175017,0.18835957
C0S900,蘭嶼高中,2023-07-23,22.04909,121.51214,0.8648375
C0S910,蘭嶼燈塔,2023-07-23,22.081197,121.503117,0.9167746
C0S920,金峰嘉蘭,2023-07-23,22.594789,120.960825,0.98829114
C0S930,延平,2023-07-23,22.902581,121.084058,0.2724003
C0S940,石寧山,2023-07-23,23.223772,121.406639,0.171865
C0S950,七塊厝,2023-07-23,22.954453,121.229922,0.15440196
C0S960,香蘭,2023-07-23,22.587569,120.993375,0.29910395
C0S970,加津林,2023-07-23,22.416211,120.926942,0.99873275
C0S990,山豬窟,2023-07-23,22.318619,120.857372,0.61137444
C0SA00,歷坵,2023-07-23,22.520969,120.89185,0.99911535
C0SA10,檳榔四格山,2023-07-23,22.810031,121.109308,0.21619616
C0SA30,都歷,2023-07-23,23.020333,121.323642,0.14097881
C0SA40,瑞和,2023-07-23,22.974361,121.156697,0.15464875
C0SA60,知本（水試所）,2023-07-23,22.702394,121.082761,0.056895044
C0SA80,土坂,2023-07-23,22.453108,120.887572,0.999701
C0SA90,達仁林場,2023-07-23,22.264347,120.823972,0.48053423
C0T870,鯉魚潭,2023-07-23,23.935639,121.508944,0.3742912
C0T900,西林,2023-07-23,23.8119,121.441458,0.23075664
C0T960,光復,2023-07-23,23.660694,121.424964,0.2440879
C0T9A0,月眉山,2023-07-23,23.809928,121.539828,0.33171672
C0T9D0,和中,2023-07-23,24.26676,121.74103,0.1199607
C0T9E0,大坑,2023-07-23,23.880628,121.581981,0.29137865
C0T9F0,水璉,2023-07-23,23.797131,121.542514,0.28168893
C0T9I0,豐濱,2023-07-23,23.583897,121.514806,0.29293364
C0T9M0,靜浦,2023-07-23,23.455167,121.495028,0.24310797
C0T9N0,富里,2023-07-23,23.171639,121.249378,0.35427395
C0U600,礁溪,2023-07-23,24.817539,121.765608,0.05570174
C0U650,玉蘭,2023-07-23,24.675286,121.587061,0.8025595
C0U750,龜山島,2023-07-23,24.841667,121.953133,0.105198145
C0U760,東澳,2023-07-23,24.52196,121.83318,0.10623778
C0U770,南澳,2023-07-23,24.44935,121.81022,0.103831924
C0U780,五結,2023-07-23,24.68637,121.79794,0.07411593
C0U860,頭城,2023-07-23,24.85323,121.8308,0.063731454
C0U870,大礁溪,2023-07-23,24.791042,121.675047,0.17741369
C0U880,北關,2023-07-23,24.9072,121.8734,0.3251732
C0U890,三星,2023-07-23,24.66812,121.65302,0.15609977
C0U900,內城,2023-07-23,24.71813,121.68766,0.061985616
C0U910,冬山,2023-07-23,24.63373,121.7937,0.081079856
C0U940,羅東,2023-07-23,24.68184,121.74934,0.07336148
C0U970,大福,2023-07-23,24.80064,121.81389,0.056227956
C0U990,員山,2023-07-23,24.74435,121.72247,0.06861096
C0UA00,土場,2023-07-23,24.576533,121.495333,0.8641702
C0UA80,大溪漁港,2023-07-23,24.941801,121.902955,0.059575386
C0UA90,石城,2023-07-23,24.980444,121.951214,0.06206565
C0UB00,淡江大學蘭陽校園,2023-07-23,24.823239,121.730383,0.07748186
C0UB10,蘇澳,2023-07-23,24.5969,121.8571,0.085386224
C0UB20,壯圍,2023-07-23,24.7359,121.8163,0.071462296
C0V250,甲仙,2023-07-23,23.080106,120.591758,0.36457974
C0V260,月眉,2023-07-23,22.971003,120.539853,0.06983716
C0V310,美濃,2023-07-23,22.898742,120.519153,0.15878059
C0V350,溪埔,2023-07-23,22.738578,120.446797,0.13714746
C0V360,內門,2023-07-23,22.975481,120.466769,0.40939283
C0V370,古亭坑,2023-07-23,22.893178,120.401947,0.48694366
C0V400,阿公店,2023-07-23,22.804194,120.355528,0.19454238
C0V440,鳳山,2023-07-23,22.646653,120.356122,0.14926304
C0V450,鳳森,2023-07-23,22.545064,120.392592,0.14601777
C0V490,新興,2023-07-23,22.627422,120.298803,0.028595217
C0V530,阿蓮,2023-07-23,22.883208,120.327508,0.3898291
C0V610,梓官,2023-07-23,22.760558,120.267211,0.2652151
C0V620,永安,2023-07-23,22.82315,120.236856,0.32438418
C0V630,茄萣,2023-07-23,22.906642,120.182608,0.26380494
C0V640,湖內,2023-07-23,22.887139,120.2445,0.2742735
C0V650,彌陀,2023-07-23,22.783806,120.246361,0.2717616
C0V660,岡山,2023-07-23,22.797078,120.294958,0.245134
C0V680,仁武,2023-07-23,22.701083,120.347722,0.24502768
C0V690,鼓山,2023-07-23,22.623325,120.275575,0.13827306
C0V700,三民,2023-07-23,22.645017,120.311233,0.027945984
C0V710,苓雅,2023-07-23,22.622742,120.330669,0.14361128
C0V720,林園,2023-07-23,22.507747,120.394511,0.16923389
C0V730,大寮,2023-07-23,22.605614,120.395717,0.15013863
C0V740,旗山,2023-07-23,22.888614,120.483597,0.15854283
C0V750,路竹,2023-07-23,22.854997,120.259439,0.29049063
C0V760,橋頭,2023-07-23,22.757806,120.30575,0.18548003
C0V770,大社,2023-07-23,22.730306,120.346639,0.12685822
C0V790,萬山,2023-07-23,22.905944,120.688056,0.70106345
C0V800,六龜,2023-07-23,22.997889,120.633583,0.08631736
C0V810,左營,2023-07-23,22.67491,120.28491,0.028995045
C0V820,小林,2023-07-23,23.148408,120.63325,0.8628382
C0V840,鳳鼻頭,2023-07-23,22.5083,120.3591,0.17206801
C0V850,蚵仔寮,2023-07-23,22.7256,120.2527,0.26560405
C0V860,南寮,2023-07-23,22.7616,120.2339,0.25112763
C0V870,文安,2023-07-23,22.8025,120.2164,0.29947466
C0V880,興達,2023-07-23,22.8778,120.2127,0.29959476
C0V890,前鎮,2023-07-23,22.5718,120.3117,0.20578966
C0V900,汕尾,2023-07-23,22.4782,120.4151,0.19387214
C0X050,東河,2023-07-23,23.296598,120.385608,0.3625229
C0X060,下營,2023-07-23,23.22695,120.256261,0.2457852
C0X080,佳里,2023-07-23,23.173039,120.145086,0.3734325
C0X100,臺南市北區,2023-07-23,23.010394,120.194228,0.28912532
C0X110,臺南市南區,2023-07-23,22.961189,120.188378,0.28782338
C0X120,麻豆,2023-07-23,23.183289,120.248611,0.3039267
C0X130,官田,2023-07-23,23.193217,120.315422,0.30308774
C0X140,西港,2023-07-23,23.125608,120.203108,0.375719
C0X150,安定,2023-07-23,23.102614,120.227839,0.29880622
C0X160,仁德,2023-07-23,22.968258,120.257689,0.26080385
C0X170,關廟,2023-07-23,22.963017,120.327797,0.36493456
C0X180,山上,2023-07-23,23.0757,120.363253,0.49558684
C0X190,安平,2023-07-23,22.993161,120.152181,0.31312466
C0X200,左鎮,2023-07-23,23.056758,120.408522,0.3812394
C0X210,白河,2023-07-23,23.347466,120.414427,0.30027193
C0X220,學甲,2023-07-23,23.230367,120.182187,0.30848688
C0X230,鹽水,2023-07-23,23.272621,120.247641,0.25777477
C0X240,關子嶺,2023-07-23,23.331169,120.508025,0.6403276
C0X250,新營,2023-07-23,23.310689,120.316681,0.28486234
C0X260,後壁,2023-07-23,23.366358,120.362326,0.29449648
C0X280,將軍,2023-07-23,23.214999,120.13577,0.36047554
C0X290,北門,2023-07-23,23.267772,120.125481,0.36471456
C0X300,鹿寮,2023-07-23,23.386047,120.477331,0.13092665
C0X310,七股,2023-07-23,23.147289,120.086253,0.5302516
C0X320,柳營,2023-07-23,23.253328,120.375253,0.33035326
C0Z020,明里,2023-07-23,23.208717,121.262342,0.21637826
C0Z061,玉里,2023-07-23,23.3215,121.339656,0.15416336
C0Z070,舞鶴,2023-07-23,23.46811,121.37407,0.2955691
C0Z080,富源,2023-07-23,23.587642,121.378225,0.34516972
C0Z100,東華,2023-07-23,23.89525,121.549833,0.25026003
C0Z150,吉安光華,2023-07-23,23.930925,121.595153,0.21727408
C0Z160,鳳林,2023-07-23,23.746114,121.453411,0.24293579
C0Z170,卓溪,2023-07-23,23.3443,121.3029,0.20393103
C0Z180,新城,2023-07-23,24.03946,121.60454,0.31144425
C0Z190,富世,2023-07-23,24.14743,121.6297,0.35516915
C0Z200,萬榮,2023-07-23,23.709219,121.420106,0.21221794
C0Z210,瑞穗,2023-07-23,23.5239,121.39021,0.3329529
C0Z230,和平,2023-07-23,24.30717,121.77007,0.12663072
C0Z270,蕃薯寮,2023-07-23,23.73835,121.540108,0.27888277
C0Z280,德武,2023-07-23,23.47426,121.41071,0.33441737
C0Z300,東里,2023-07-23,23.26853,121.30547,0.12980758
C0Z310,清水斷崖,2023-07-23,24.218294,121.689142,0.16839853
C0Z330,安通山,2023-07-23,23.290728,121.348528,0.21484812
