站號,站名,日期,lat,lon,BlastGRU-TW
466881,新北,2023-08-13,24.9593,121.52,0.13952778
466900,淡水,2023-08-13,25.164889,121.448906,0.15343168
466920,臺北,2023-08-13,25.037658,121.514853,0.12677886
467441,高雄,2023-08-13,22.7304,120.3125,0.06842997
467480,嘉義,2023-08-13,23.495925,120.432906,0.12317244
467490,臺中,2023-08-13,24.145736,120.684075,0.01253892
C0A540,四堵,2023-08-13,24.8926,121.745736,0.73100585
C0A550,泰平,2023-08-13,24.971197,121.823711,0.9987711
C0A560,福山,2023-08-13,24.776203,121.502811,0.9982796
C0A931,三和,2023-08-13,25.233153,121.595236,0.88191974
C0A940,金山,2023-08-13,25.223628,121.643967,0.20638774
C0A950,鼻頭角,2023-08-13,25.129036,121.923372,0.18713328
C0AD10,八里,2023-08-13,25.150211,121.403947,0.15343148
C0AD30,蘆洲,2023-08-13,25.086594,121.472331,0.15321435
C0AD40,土城,2023-08-13,24.973208,121.445169,0.15888444
C0AI10,屈尺,2023-08-13,24.92184,121.54475,0.16199337
C0AI20,白沙灣,2023-08-13,25.283128,121.519058,0.19350363
C0AI30,三重,2023-08-13,25.057328,121.500629,0.15321435
C0B010,七堵,2023-08-13,25.094819,121.71713,0.13898046
C0B020,基隆嶼,2023-08-13,25.19141,121.78391,0.12794718
