站號,站名,日期,lat,lon,BLBTSLS
C0R710,龍磐,2023-10-14,21.931672,120.838942,0.9326343
C1F9D1,白毛台,2023-10-14,24.158325,120.886933,8.507032e-05
C0G940,竹塘,2023-10-14,23.848253,120.386764,0.84877694
467590,恆春,2023-10-14,22.003897,120.746339,0.032033417
C1O850,環湖,2023-10-14,23.148617,120.418633,0.9901994
C0U710,太平山,2023-10-14,24.505486,121.525656,5.827534e-08
C0E820,獅潭,2023-10-14,24.539133,120.920042,0.7117182
C0V880,興達,2023-10-14,22.8778,120.2127,0.8293363
C0S890,關山,2023-10-14,23.0395,121.175017,5.1249356e-07
K2F750,種苗繁殖,2023-10-14,24.225972,120.800917,0.9923774
C1Z130,銅門,2023-10-14,23.965694,121.492842,0.46105438
C0AD40,土城,2023-10-14,24.973208,121.445169,0.109947704
CAN140,六官養殖協會,2023-10-14,23.22881,120.29962,0.9640481
C0X180,山上,2023-10-14,23.0757,120.363253,0.97222394
C0F9Z0,雪山東峰,2023-10-14,24.388792,121.268675,2.2712783e-08
C1M480,獨立山,2023-10-14,23.537022,120.607797,1.1971966e-06
C0X220,學甲,2023-10-14,23.230367,120.182187,0.6181609
C0R170,屏東,2023-10-14,22.660269,120.494072,0.95922214
467650,日月潭,2023-10-14,23.881325,120.90805,1.1691097e-07
C0K600,箔子寮,2023-10-14,23.6197,120.14,0.9719889
C0G830,埤頭,2023-10-14,23.866003,120.452806,0.8626861
C0S950,七塊厝,2023-10-14,22.954453,121.229922,4.2085585e-08
467110,金門,2023-10-14,24.407306,118.289281,0.92680883
C0AH80,深坑,2023-10-14,25.002703,121.628328,0.10702943
467990,馬祖,2023-10-14,26.169269,119.923419,0.9868238
C0A970,三貂角,2023-10-14,25.007606,122.002058,0.99882525
C0K430,褒忠,2023-10-14,23.690938,120.303634,0.8479887
467480,嘉義,2023-10-14,23.495925,120.432906,0.9344403
C2E540,後龍,2023-10-14,24.606489,120.783933,0.7838414
C0V400,阿公店,2023-10-14,22.804194,120.355528,0.9142194
C0R440,大漢山,2023-10-14,22.405264,120.753181,3.6833035e-07
C0K280,四湖,2023-10-14,23.630414,120.227125,0.93013257
C1F9B1,桐林,2023-10-14,24.066172,120.735194,0.67347914
C0K390,土庫,2023-10-14,23.679029,120.395574,0.93226177
C1I450,望鄉山,2023-10-14,23.594153,120.944286,1.8731766e-08
C0E910,海埔,2023-10-14,24.648767,120.772435,0.79178023
B2E890,畜試北區分所,2023-10-14,24.527806,120.770972,0.3557284
C0R750,四林格山,2023-10-14,22.076989,120.802439,0.13420139
C0F0C0,中坑,2023-10-14,24.248517,120.903319,2.4504314e-07
C1I121,大鞍,2023-10-14,23.678381,120.760017,3.7093745e-08
72U480,花改蘭陽分場,2023-10-14,24.686306,121.716583,0.93077165
C0A770,科教館,2023-10-14,25.096356,121.516507,0.2340317
C0AJ60,六塊厝,2023-10-14,25.24,121.4481,0.12278722
C0R620,墾雷,2023-10-14,21.900836,120.855269,0.26178598
467420,永康,2023-10-14,23.038386,120.2367,0.9453148
467300,東吉島,2023-10-14,23.25695,119.667467,0.83461565
C0I410,名間,2023-10-14,23.837053,120.701447,0.9935509
A2C560,農工中心,2023-10-14,24.985917,121.239833,0.19582136
C0V740,旗山,2023-10-14,22.888614,120.483597,0.9973616
C0Z061,玉里,2023-10-14,23.3215,121.339656,0.03805697
C0S840,南田,2023-10-14,22.279725,120.889208,0.29936045
C1I470,杉林溪,2023-10-14,23.639517,120.786444,2.2713346e-08
C1X040,東原,2023-10-14,23.291597,120.463822,0.9889875
C0R660,枋寮,2023-10-14,22.367722,120.590647,0.93750215
C1R120,上德文,2023-10-14,22.763272,120.704442,0.0010867547
C0K450,大埤,2023-10-14,23.646074,120.431537,0.8850163
C0UA00,土場,2023-10-14,24.576533,121.495333,0.99862
467080,宜蘭,2023-10-14,24.763975,121.756528,0.88974726
C0N030,四草,2023-10-14,23.0235,120.1116,0.63686746
C0V650,彌陀,2023-10-14,22.783806,120.246361,0.05216176
C0D660,新竹市東區,2023-10-14,24.798681,120.986942,0.71968544
82S580,茶改東部分場,2023-10-14,22.907694,121.130139,0.6922788
C0C710,大溪永福,2023-10-14,24.892936,121.324975,0.29450464
C0FA20,溫寮,2023-10-14,24.372177,120.583125,0.7945284
C0V640,湖內,2023-10-14,22.887139,120.2445,0.8359246
C0R910,下寮,2023-10-14,22.3929,120.5548,0.93755287
C0Z020,明里,2023-10-14,23.208717,121.262342,0.0001733128
C0M770,嘉義梅山,2023-10-14,23.585398,120.555587,0.98024744
G2F820,農業試驗所,2023-10-14,24.031261,120.688133,0.36654618
C0C660,楊梅,2023-10-14,24.912375,121.143047,0.14239661
C1E511,新開,2023-10-14,24.347703,120.827019,0.9967602
G2F820,農試所(霧峰),2023-10-14,24.031261,120.688133,0.36654618
C1I070,和社,2023-10-14,23.591131,120.888861,0.50459206
C2F000,大肚,2023-10-14,24.15295,120.572117,0.9714569
C1S850,豐南,2023-10-14,23.122139,121.262389,2.5274419e-08
C2A920,富貴角,2023-10-14,25.263783,121.565258,0.107404836
CAH030,茶改場竹圍站,2023-10-14,23.860083,120.637528,0.31775877
C0T960,光復,2023-10-14,23.660694,121.424964,0.92300797
C0F9M0,豐原,2023-10-14,24.254322,120.720692,0.98952603
C0R720,旭海,2023-10-14,22.205403,120.887614,0.15377612
C0V710,苓雅,2023-10-14,22.622742,120.330669,0.7754928
C0C740,觀音工業區,2023-10-14,25.064764,121.114856,0.83537424
CAC040,拉拉山,2023-10-14,24.699317,121.427133,5.86936e-07
C0V790,萬山,2023-10-14,22.905944,120.688056,0.986318
U2HA30,臺大和社,2023-10-14,23.590856,120.888864,0.50459206
C0AJ90,澳底,2023-10-14,25.0552,121.9253,0.98428303
C0Z100,東華,2023-10-14,23.89525,121.549833,0.61971545
C0G970,三豐,2023-10-14,23.882,120.2895,0.62667364
V2K610,大庄合作社,2023-10-14,23.8068,120.367939,0.7277337
C0V900,汕尾,2023-10-14,22.4782,120.4151,0.100054786
C1R630,龍泉,2023-10-14,22.66701,120.59091,0.24399191
C1AC50,關渡,2023-10-14,25.133486,121.469331,0.4838196
C0F9I0,神岡,2023-10-14,24.272481,120.658314,0.98962843
C0K460,斗南,2023-10-14,23.678734,120.478359,0.8942031
467410,臺南,2023-10-14,22.993239,120.204772,0.6937591
C2O810,曾文,2023-10-14,23.219681,120.497328,0.9976139
467280,後龍,2023-10-14,24.648563,120.831834,0.7723251
C1F9J1,清水林,2023-10-14,24.071242,120.820419,2.3315823e-07
C2A650,火燒寮,2023-10-14,25.002719,121.742892,0.99942476
466930,竹子湖,2023-10-14,25.162078,121.544547,0.9795833
C1I220,樟湖,2023-10-14,23.905333,120.846983,1.4022167e-08
C0I390,仁愛,2023-10-14,24.022122,121.132206,1.4791559e-08
C0Z300,東里,2023-10-14,23.26853,121.30547,0.13950942
C0V310,美濃,2023-10-14,22.898742,120.519153,0.9972967
C1V590,新發,2023-10-14,23.057019,120.646064,1.0809011e-05
C0K510,水林,2023-10-14,23.572924,120.24597,0.6638942
72S590,東改賓朗果園,2023-10-14,22.813889,121.071278,0.08091211
82A750,茶改北部分場,2023-10-14,24.955778,121.631222,0.9995229
C1A750,石碇服務區,2023-10-14,25.00872,121.646242,0.19023868
C0X300,鹿寮,2023-10-14,23.386047,120.477331,0.9729473
G2AI50,關渡,2023-10-14,25.11575,121.492,0.41911367
C0K590,雲林東勢,2023-10-14,23.674192,120.255721,0.85438377
C0A570,桶後,2023-10-14,24.848222,121.597992,0.99872947
C1S800,華源,2023-10-14,22.657883,121.02325,0.89712024
C0G720,溪州,2023-10-14,23.851589,120.499093,0.8680208
C1V160,達卡努瓦,2023-10-14,23.279811,120.705319,4.3542858e-08
C2M410,馬頭山,2023-10-14,23.324361,120.582017,0.99259216
C0V850,蚵仔寮,2023-10-14,22.7256,120.2527,0.19555646
C0S740,池上,2023-10-14,23.119628,121.209469,0.00039451208
C1V390,尖山,2023-10-14,22.813153,120.367789,0.95574415
C0AH70,松山,2023-10-14,25.04871,121.55042,0.24517702
C0N010,鯤鯓國小,2023-10-14,23.1879,120.0889,0.85967207
C0R550,新埤,2023-10-14,22.467947,120.582894,0.09151855
C0SA60,知本（水試所）,2023-10-14,22.702394,121.082761,0.68240446
C0T9I0,豐濱,2023-10-14,23.583897,121.514806,0.9582543
C0UB00,淡江大學蘭陽校園,2023-10-14,24.823239,121.730383,0.9979311
C0T9N0,富里,2023-10-14,23.171639,121.249378,0.1995069
U2HA50,臺大竹山,2023-10-14,23.756972,120.681556,0.88946944
C0V840,鳳鼻頭,2023-10-14,22.5083,120.3591,0.54729724
C0X140,西港,2023-10-14,23.125608,120.203108,0.9789941
72D080,桃改五峰分場,2023-10-14,24.612194,121.157167,2.5385018e-06
C0V530,阿蓮,2023-10-14,22.883208,120.327508,0.62570417
C1O880,關山,2023-10-14,23.173397,120.594092,0.9992605
C0E791,卓蘭,2023-10-14,24.3126,120.8244,0.997373
C1I030,武界,2023-10-14,23.913225,121.052483,8.4867786e-08
C0R520,崁頂,2023-10-14,22.514781,120.506914,0.5065399
C0R341,牡丹,2023-10-14,22.130036,120.792639,0.34846738
C0R930,萬丹,2023-10-14,22.5885,120.4851,0.96659225
C0S760,紅石,2023-10-14,23.069131,121.126219,1.3940566e-08
C1M610,石磐龍,2023-10-14,23.496606,120.663506,1.6101282e-07
C0UA10,鴛鴦湖,2023-10-14,24.590269,121.412228,9.99247e-08
V2C260,八德蔬果,2023-10-14,24.978508,121.281819,0.13754243
C0R800,丹路,2023-10-14,22.204481,120.750989,0.18266067
C0G920,永靖,2023-10-14,23.924703,120.547533,0.91252583
C1A630,下盆,2023-10-14,24.771003,121.538622,0.39393643
B2N890,畜產試驗所,2023-10-14,23.058972,120.336406,0.98212326
C0UA30,白嶺,2023-10-14,24.527819,121.519031,1.6044935e-07
C1V580,溪南(特生中心),2023-10-14,23.084972,120.788475,4.047393e-08
C1T970,大農,2023-10-14,23.615233,121.413331,0.9511842
E2S960,林試太麻里2,2023-10-14,22.598014,120.989761,0.838237
C0R650,竹田,2023-10-14,22.58486,120.54344,0.48355904
C1H900,清流,2023-10-14,24.080775,120.962997,1.1926073e-07
C1C510,水尾,2023-10-14,24.940081,121.087161,0.60320204
C0F9X0,大雅(中科園區),2023-10-14,24.21528,120.62445,0.9886279
C0O970,虎頭埤,2023-10-14,23.021375,120.347878,0.9550467
C0C730,中大臨海站,2023-10-14,24.966126,121.008581,0.78488714
C0X250,新營,2023-10-14,23.310689,120.316681,0.8939671
C0V700,三民,2023-10-14,22.645017,120.311233,0.21184903
C0U870,大礁溪,2023-10-14,24.791042,121.675047,0.79675347
C0E870,高鐵苗栗,2023-10-14,24.60725,120.826094,0.7810801
A2K570,古坑花卉中心,2023-10-14,23.63353,120.55239,0.74845296
C0M860,新美,2023-10-14,23.338017,120.683169,0.94690955
C1E701,八卦,2023-10-14,24.491756,120.927619,0.99152476
C0I420,國姓,2023-10-14,24.037803,120.855072,0.92450774
C0S960,香蘭,2023-10-14,22.587569,120.993375,0.838237
C0R260,春日,2023-10-14,22.370361,120.628306,0.99008733
72G600,臺中農改場,2023-10-14,24.003028,120.534389,0.93425286
C0Z210,瑞穗,2023-10-14,23.5239,121.39021,0.9809456
C0M820,達邦,2023-10-14,23.453994,120.749517,1.2152077e-07
C0V860,南寮,2023-10-14,22.7616,120.2339,0.19555646
C0G740,大城,2023-10-14,23.852487,120.320935,0.60503775
C0R920,塭仔,2023-10-14,22.4169,120.5197,0.91788405
C0R470,高樹,2023-10-14,22.826389,120.600806,0.9955983
C0R680,佳樂水,2023-10-14,21.993578,120.861633,0.1519865
C1O870,大棟山,2023-10-14,23.31157,120.52226,1.8195525e-08
C0D360,梅花,2023-10-14,24.678347,121.208558,0.99046135
C0Z190,富世,2023-10-14,24.14743,121.6297,0.9446144
C0AI10,屈尺,2023-10-14,24.92184,121.54475,0.5502607
B2U990,畜試東區分所,2023-10-14,24.669039,121.832561,0.99720335
C0R240,來義,2023-10-14,22.527306,120.625111,0.89602023
C1R610,西大武山,2023-10-14,22.617719,120.7322,7.750119e-08
C0G900,線西,2023-10-14,24.143358,120.443536,0.9444556
C0M700,竹崎,2023-10-14,23.526178,120.555508,0.9835221
C2E880,三義,2023-10-14,24.405478,120.749819,0.9972387
C0C720,竹圍,2023-10-14,25.112692,121.239824,0.41911367
C0F9P0,清水,2023-10-14,24.312297,120.562242,0.92949265
C0Z150,吉安光華,2023-10-14,23.930925,121.595153,0.6434147
C1D640,外坪(五指山),2023-10-14,24.644447,121.090961,0.9452722
C0F9O0,潭子,2023-10-14,24.213106,120.703933,0.9100113
72T250,花蓮農改場,2023-10-14,23.975222,121.563889,0.57309
C0E780,銅鑼,2023-10-14,24.489681,120.790853,0.4871147
C1T950,太安,2023-10-14,23.666719,121.370128,1.8690082e-08
C0E830,苑裡,2023-10-14,24.439714,120.653053,0.75093853
467270,田中,2023-10-14,23.873803,120.581286,0.760498
C0SA10,檳榔四格山,2023-10-14,22.810031,121.109308,0.017781682
C1T830,布洛灣,2023-10-14,24.17184,121.57127,7.581065e-05
C0F970,大坑,2023-10-14,24.173142,120.722289,0.3744397
C1U920,思源,2023-10-14,24.393125,121.347214,1.7683133e-08
C0A931,三和,2023-10-14,25.233153,121.595236,0.9324204
C0I010,廬山,2023-10-14,24.033311,121.181808,7.714764e-09
C0R860,鼻頭,2023-10-14,22.1043,120.8979,0.5481681
C0UB20,壯圍,2023-10-14,24.7359,121.8163,0.9237266
C0R790,九棚,2023-10-14,22.14195,120.889281,0.37497562
C0W110,東莒,2023-10-14,25.9652,119.98069,0.9940057
C1U930,粉鳥林,2023-10-14,24.497088,121.842479,0.99919546
C1I211,蘆竹湳,2023-10-14,23.934019,120.811994,0.029546794
C0S830,長濱,2023-10-14,23.286817,121.411975,8.9433715e-06
C1F9F1,伯公龍,2023-10-14,24.272392,120.849047,0.995542
C0E810,西湖,2023-10-14,24.562947,120.7485,0.90047455
C1I440,新高口,2023-10-14,23.478744,120.878939,1.6990725e-08
C0O840,王爺宮,2023-10-14,23.222064,120.40085,0.99601233
C0T9G0,鳳林山,2023-10-14,23.735269,121.420131,2.8109777e-09
C0X080,佳里,2023-10-14,23.173039,120.145086,0.85967207
C0Z310,清水斷崖,2023-10-14,24.218294,121.689142,4.3973984e-07
C0M680,太保,2023-10-14,23.455062,120.331455,0.8454749
C1S820,金峰,2023-10-14,22.590969,120.933236,0.8995135
C0AD10,八里,2023-10-14,25.150211,121.403947,0.41911367
C2K240,草嶺,2023-10-14,23.59555,120.693461,9.084913e-08
C1SA70,都蘭,2023-10-14,22.87794,121.226881,0.87682503
C0K440,二崙,2023-10-14,23.772797,120.408944,0.8937733
C1A760,坪林交控,2023-10-14,24.94284,121.713442,0.9986434
C0F9N0,大里,2023-10-14,24.092464,120.701378,0.58291847
C0SA90,達仁林場,2023-10-14,22.264347,120.823972,0.48550886
C1R290,石門山,2023-10-14,22.112611,120.756597,0.29800487
42HA10,萬大發電廠,2023-10-14,23.978875,121.139639,5.9761818e-09
C0R890,山海,2023-10-14,21.9878,120.7091,0.8873063
C0T9A0,月眉山,2023-10-14,23.809928,121.539828,4.418436e-09
C0AC70,信義,2023-10-14,25.037822,121.564597,0.24517702
C0K560,棋山,2023-10-14,23.68645,120.603417,0.8355172
C1Z240,中平林道,2023-10-14,23.42115,121.26763,9.255792e-09
U2H480,溪頭,2023-10-14,23.670306,120.798194,8.8948646e-08
C0M880,好美里,2023-10-14,23.3364,120.138,0.8166214
C0T9E0,大坑,2023-10-14,23.880628,121.581981,2.6080328e-05
C0K530,臺西,2023-10-14,23.701547,120.197559,0.93196964
C1E900,國一N128K,2023-10-14,24.560997,120.844186,0.46509856
C0AJ50,水湳洞,2023-10-14,25.123695,121.862238,0.19371778
C0AI20,白沙灣,2023-10-14,25.283128,121.519058,0.11285898
C0A860,大坪,2023-10-14,25.165914,121.632969,0.99857813
C1U850,觀音海岸,2023-10-14,24.38319,121.77856,5.631761e-06
C0U950,鶯子嶺,2023-10-14,24.89754,121.79244,0.027010825
C0O900,善化,2023-10-14,23.112883,120.297219,0.9717387
C0K550,蔦松,2023-10-14,23.514319,120.229736,0.52660006
E2P980,林試六龜中心,2023-10-14,22.991703,120.645722,0.9992887
C0E590,通霄,2023-10-14,24.471892,120.704622,0.47274053
C1I310,西巒,2023-10-14,23.754486,120.883956,8.070629e-07
C0A550,泰平,2023-10-14,24.971197,121.823711,0.99941266
C0I360,水里,2023-10-14,23.812553,120.849792,0.98857945
C0R830,高士,2023-10-14,22.121825,120.836781,0.24790873
C1I101,溪頭,2023-10-14,23.661789,120.807647,1.6649324e-08
C0AJ20,野柳,2023-10-14,25.20703,121.690021,0.14557773
C0B060,暖暖,2023-10-14,25.0957,121.7403,0.7540155
C1H920,長豐,2023-10-14,24.102039,120.879897,1.3260924e-05
C0V360,內門,2023-10-14,22.975481,120.466769,0.9644118
C0R850,林邊,2023-10-14,22.4634,120.5339,0.098821305
C0E930,龍鳳,2023-10-14,24.700034,120.859125,0.9469677
C0U910,冬山,2023-10-14,24.63373,121.7937,0.99720335
C1E721,泰安,2023-10-14,24.489017,120.968036,9.417202e-08
82H320,茶改中部分場,2023-10-14,23.875611,120.913583,1.3791282e-06
C0M750,布袋,2023-10-14,23.380878,120.167789,0.7247564
C1S860,利嘉,2023-10-14,22.809417,121.050528,0.0008920693
72C440,桃園農改,2023-10-14,24.950944,121.030583,0.65514886
E2S980,林試太麻里1,2023-10-14,22.598922,120.980044,0.94543564
C0X170,關廟,2023-10-14,22.963017,120.327797,0.93126065
C0V720,林園,2023-10-14,22.507747,120.394511,0.60589147
C1I510,線浸林道,2023-10-14,23.761508,120.832956,1.6877452e-08
C0D690,外湖,2023-10-14,24.917735,120.968711,0.69260174
C0C750,新興坑尾,2023-10-14,25.0061,121.0971,0.7452783
B2Q810,畜試南區分所,2023-10-14,21.945583,120.802167,0.16703102
C0S790,金崙,2023-10-14,22.538122,120.966875,0.8757046
C0AH90,福山植物園,2023-10-14,24.760717,121.58135,0.9813135
C0I540,奇萊稜線,2023-10-14,24.109231,121.326456,4.6900816e-08
C0M850,表湖,2023-10-14,23.24186,120.64166,0.00035118524
C0S770,大溪山,2023-10-14,22.478475,120.943325,0.75037867
C0AG80,中和,2023-10-14,24.991622,121.491792,0.109947704
C0T790,大禹嶺,2023-10-14,24.186117,121.316086,3.0346087e-08
C0T9B0,水源,2023-10-14,23.991861,121.537169,2.2150729e-05
C0R840,牡丹池山,2023-10-14,22.168389,120.841225,0.44802225
C1I131,桶頭,2023-10-14,23.641944,120.654117,0.99281967
CAL110,布袋國中,2023-10-14,23.35893,120.18026,0.7247564
467571,新竹,2023-10-14,24.827853,121.014219,0.6459023
C0Z290,赤柯山,2023-10-14,23.36893,121.38293,3.7120336e-09
C0X280,將軍,2023-10-14,23.214999,120.13577,0.61758375
C0S690,太麻里,2023-10-14,22.60902,120.98533,1.1743667e-06
C0U880,北關,2023-10-14,24.9072,121.8734,0.99283665
C1H860,瑞岩,2023-10-14,24.123772,121.18345,1.2510981e-08
C0G810,埔心,2023-10-14,23.947633,120.525456,0.9125152
C0U970,大福,2023-10-14,24.80064,121.81389,0.85737264
C1E670,南礦,2023-10-14,24.538278,121.002836,1.7212405e-07
C0M520,東後寮,2023-10-14,23.369908,120.248065,0.7303678
C1E461,松安,2023-10-14,24.397972,120.986022,2.3090911e-07
72G600,臺中農改,2023-10-14,24.003028,120.534389,0.93425286
C2N160,西拉雅風管處,2023-10-14,23.189481,120.335297,0.9748669
C0A640,石碇,2023-10-14,24.993969,121.662917,0.9501719
E2S960,林試太麻里2,2023-10-14,22.598,120.99775,0.8257395
C0F9Y0,桃山,2023-10-14,24.432739,121.303808,2.8155776e-08
C1I020,萬大,2023-10-14,23.979817,121.132261,1.4319281e-08
C0U940,羅東,2023-10-14,24.68184,121.74934,0.92908156
C0M650,朴子,2023-10-14,23.43463,120.23902,0.7034345
C1I500,大尖山,2023-10-14,23.858572,120.994889,8.676673e-09
C0G820,田尾,2023-10-14,23.901669,120.509389,0.9125152
E2K600,四湖植物園,2023-10-14,23.676986,120.163433,0.93013257
C0S730,綠島,2023-10-14,22.6672,121.47533,0.30538893
12Q970,東港工作站,2023-10-14,22.479997,120.466058,0.09887687
C0E430,南庄,2023-10-14,24.601775,121.000214,0.7209474
C1TA00,太魯閣,2023-10-14,24.15773,121.6236,0.57752323
466920,臺北,2023-10-14,25.037658,121.514853,0.24517702
C0R600,舊泰武,2023-10-14,22.588194,120.664944,4.0961262e-07
C1I260,北坑,2023-10-14,23.9246,121.006903,0.0072994595
466910,鞍部,2023-10-14,25.182586,121.529731,0.99573535
C1I230,九份二山,2023-10-14,23.961944,120.845,5.4577174e-07
C2A660,瑞芳,2023-10-14,25.113169,121.801147,0.72486496
C0R270,琉球嶼,2023-10-14,22.332244,120.362236,0.7205698
C1T990,高寮,2023-10-14,23.394239,121.356808,0.6649387
C0G620,芬園,2023-10-14,24.015678,120.6213,0.57775676
C1Z140,荖溪,2023-10-14,23.890575,121.45964,6.2290795e-09
C1I201,中心崙,2023-10-14,23.728722,120.712097,3.777975e-06
C1I400,凌霄,2023-10-14,24.018778,121.004456,8.529698e-09
C1M640,十字,2023-10-14,23.492153,120.753683,3.052826e-08
G2P820,農試鳳山分所,2023-10-14,22.646611,120.356083,0.31461942
C0Z270,蕃薯寮,2023-10-14,23.73835,121.540108,1.8341279e-08
C0F9Q0,外埔,2023-10-14,24.347817,120.705686,0.9729009
C0K580,高鐵雲林,2023-10-14,23.737456,120.417944,0.9023705
C2I090,鳳凰,2023-10-14,23.728081,120.787347,8.4969474e-07
C0U990,員山,2023-10-14,24.74435,121.72247,0.92680496
C0V770,大社,2023-10-14,22.730306,120.346639,0.28814793
C0X120,麻豆,2023-10-14,23.183289,120.248611,0.965134
C0C670,龍潭,2023-10-14,24.870056,121.221389,0.33613527
C0D680,香山濕地,2023-10-14,24.783581,120.914988,0.7590622
C0S980,勝林山,2023-10-14,22.430439,120.8938,0.90638226
C0V730,大寮,2023-10-14,22.605614,120.395717,0.8093242
C0R570,麟洛,2023-10-14,22.65078,120.52719,0.95922214
CAG100,王功漁港,2023-10-14,23.96824,120.32586,0.5989268
C0X290,北門,2023-10-14,23.267772,120.125481,0.61758375
C2F930,大甲,2023-10-14,24.347667,120.640403,0.6821044
C0D650,湖口,2023-10-14,24.904794,121.043628,0.6095917
C0E420,竹南,2023-10-14,24.708978,120.888897,0.9370027
C0U780,五結,2023-10-14,24.68637,121.79794,0.9237266
C1I250,鯉潭,2023-10-14,23.961922,120.991131,2.3583501e-05
C0R130,阿禮,2023-10-14,22.742908,120.743678,5.4512464e-07
C0X100,臺南市北區,2023-10-14,23.010394,120.194228,0.637867
C0S920,金峰嘉蘭,2023-10-14,22.594789,120.960825,0.9523767
C0V490,新興,2023-10-14,22.627422,120.298803,0.7754928
C0F9K0,大安,2023-10-14,24.345061,120.588025,0.77757
72N100,臺南農改,2023-10-14,23.0605,120.342194,0.98212326
467290,古坑,2023-10-14,23.633639,120.551889,0.74845296
C0V440,鳳山,2023-10-14,22.646653,120.356122,0.3146194
C1T940,大觀,2023-10-14,23.714206,121.373133,4.1181205e-09
72T250,花蓮農改,2023-10-14,23.975222,121.563889,0.57309
C0E740,造橋,2023-10-14,24.637056,120.864778,0.7810801
C0R100,尾寮山,2023-10-14,22.833111,120.683889,0.00015895479
A2K630,臺大雲林校區,2023-10-14,23.730628,120.423903,0.9025707
C0D580,寶山,2023-10-14,24.735006,121.025192,0.22291343
E2P990,林試扇平站,2023-10-14,22.9677,120.6857,0.6486627
C0AI30,三重,2023-10-14,25.057328,121.500629,0.2340317
C0AH00,汐止,2023-10-14,25.066881,121.658778,0.24517702
C1Z040,立山,2023-10-14,23.443356,121.327375,1.8552278e-08
C0R740,獅子,2023-10-14,22.201569,120.70525,0.3373714
C0W130,花嶼,2023-10-14,23.40007,119.32276,0.8861037
C0A950,鼻頭角,2023-10-14,25.129036,121.923372,0.17125098
C0K470,林內,2023-10-14,23.748675,120.609642,0.49743238
82C160,茶改場,2023-10-14,24.908472,121.185333,0.1467499
C0Z320,清水林道,2023-10-14,23.27125,121.188272,1.0657131e-08
C0R760,南仁湖,2023-10-14,22.084681,120.863353,0.29800487
C0M670,大林,2023-10-14,23.600616,120.45841,0.934477
C0M800,茶山,2023-10-14,23.299075,120.664767,0.9919642
C0A9C0,天母,2023-10-14,25.117494,121.537169,0.23910166
72K220,南改斗南分場,2023-10-14,23.634556,120.477333,0.8918559
72AI40,桃改樹林分場,2023-10-14,24.944503,121.386972,0.13567176
C0S910,蘭嶼燈塔,2023-10-14,22.081197,121.503117,0.9964504
C0B050,八斗子,2023-10-14,25.144754,121.79167,0.13378341
C0U900,內城,2023-10-14,24.71813,121.68766,0.93227357
C0X320,柳營,2023-10-14,23.253328,120.375253,0.9716138
C0M790,新港,2023-10-14,23.553269,120.345728,0.9150723
C0F9T0,西屯,2023-10-14,24.179494,120.641275,0.98929435
C0SA30,都歷,2023-10-14,23.020333,121.323642,0.00091539224
C0C620,蘆竹,2023-10-14,25.084275,121.265767,0.6123644
C0R730,大坪頂,2023-10-14,22.024633,120.69355,0.4942857
C0AJ40,石門,2023-10-14,25.273672,121.601198,0.09018773
C0E750,苗栗,2023-10-14,24.564569,120.824575,0.47227377
C0T870,鯉魚潭,2023-10-14,23.935639,121.508944,0.57565445
C1V170,排雲,2023-10-14,23.463619,120.954147,4.6721617e-08
C2H950,中寮,2023-10-14,23.884447,120.766406,0.99334574
C0R350,貓鼻頭,2023-10-14,21.921774,120.7358,0.8356987
C0V660,岡山,2023-10-14,22.797078,120.294958,0.0521276
C1H941,雙冬,2023-10-14,23.967378,120.802189,0.0033515685
C0AJ70,田寮,2023-10-14,25.2698,121.4886,0.11459721
C0AI00,五股,2023-10-14,25.07445,121.42728,0.16199438
C0Z280,德武,2023-10-14,23.47426,121.41071,0.9424608
C0R700,枋山,2023-10-14,22.246844,120.661086,0.37421724
C0C460,復興,2023-10-14,24.820208,121.352281,0.99877906
E2H360,蓮華池,2023-10-14,23.918333,120.885278,2.262805e-05
C0M640,中埔,2023-10-14,23.42538,120.5229,0.9909031
C0W140,金沙,2023-10-14,24.488292,118.408778,0.922958
C2A540,四堵,2023-10-14,24.8926,121.745736,0.99890673
C0ACA0,新莊,2023-10-14,25.051478,121.446756,0.12538679
C0R220,潮州,2023-10-14,22.534361,120.54,0.5666652
U2HA40,臺大內茅埔,2023-10-14,23.689722,120.851117,0.969184
467490,臺中,2023-10-14,24.145736,120.684075,0.26757118
C0U960,翠峰湖,2023-10-14,24.510856,121.608044,6.412354e-08
E2HA20,林試畢祿溪站,2023-10-14,24.226944,121.308522,2.2577117e-08
C0V890,前鎮,2023-10-14,22.5718,120.3117,0.7432845
467620,蘭嶼,2023-10-14,22.036969,121.558339,0.999112
C1F941,雪嶺,2023-10-14,24.280586,121.026642,1.589529e-08
C0AC80,文山,2023-10-14,25.00235,121.575728,0.10707107
C0F9R0,龍井,2023-10-14,24.184536,120.528972,0.9733265
C0M760,民雄,2023-10-14,23.551754,120.428457,0.9247006
C0UA40,西德山,2023-10-14,24.560647,121.752608,7.28384e-07
C1T920,中興,2023-10-14,23.769503,121.498653,0.00021358248
C0D550,雪霸,2023-10-14,24.526972,121.11605,6.956364e-08
C2F860,梨山,2023-10-14,24.247522,121.243669,2.1439813e-08
C0R320,車城,2023-10-14,22.0744,120.716247,0.9666808
C1S870,南美山,2023-10-14,23.15025,121.382333,0.3932894
C0B020,基隆嶼,2023-10-14,25.19141,121.78391,0.3812098
C1U501,牛鬥,2023-10-14,24.637836,121.573656,0.99117726
C0M730,嘉義市東區,2023-10-14,23.457673,120.460531,0.9502759
C0S700,知本,2023-10-14,22.684866,121.005642,5.762048e-06
C1N001,沙崙,2023-10-14,22.935472,120.309406,0.91776985
C0V760,橋頭,2023-10-14,22.757806,120.30575,0.25465897
C0G960,福寶,2023-10-14,24.0443,120.3814,0.84815687
C0X210,白河,2023-10-14,23.347466,120.414427,0.95070535
C0S810,東河,2023-10-14,22.972672,121.303986,0.9580202
C0R670,楓港,2023-10-14,22.190131,120.692156,0.9600052
C0FA50,霧峰,2023-10-14,24.0419,120.6995,0.41594276
C0UB10,蘇澳,2023-10-14,24.5969,121.8571,0.9986659
C0G950,防潮門,2023-10-14,24.1835,120.4871,0.9733265
C0M740,六腳,2023-10-14,23.492871,120.290625,0.7969747
C1R250,力里,2023-10-14,22.428117,120.629228,0.80428797
C0K330,虎尾,2023-10-14,23.719183,120.442036,0.9079713
C2FA00,烏石坑,2023-10-14,24.273503,120.947617,1.3840586e-06
C0V620,永安,2023-10-14,22.82315,120.236856,0.05216176
C1I330,楓樹林,2023-10-14,23.986803,121.076117,1.0605382e-08
C0W200,湖西,2023-10-14,23.596314,119.67275,0.90258163
72Q010,高雄農改場,2023-10-14,22.709333,120.525889,0.9916169
C0SA40,瑞和,2023-10-14,22.974361,121.156697,1.0042297e-05
C0C680,龜山,2023-10-14,25.02846,121.38656,0.18752934
C2V260,月眉,2023-10-14,22.971003,120.539853,0.9982483
C0V450,鳳森,2023-10-14,22.545064,120.392592,0.8291739
C0U720,南山,2023-10-14,24.43742,121.38167,2.4484696e-06
A2N290,臺南蘭花園區,2023-10-14,23.340258,120.379661,0.8065483
C0R560,新園,2023-10-14,22.5434,120.461558,0.60589147
C0U890,三星,2023-10-14,24.66812,121.65302,0.99385685
C1V300,御油山,2023-10-14,23.001983,120.715364,1.7228821e-08
C0U600,礁溪,2023-10-14,24.817539,121.765608,0.9717649
C1T980,龍澗,2023-10-14,24.023289,121.411328,1.1298548e-08
C0D670,海天一線,2023-10-14,24.831986,120.914438,0.7775911
C0SA00,歷坵,2023-10-14,22.520969,120.89185,0.009135439
C0M710,東石,2023-10-14,23.458927,120.15385,0.41390643
C0M780,鹿草,2023-10-14,23.41134,120.30835,0.70475423
C0U520,雙連埤,2023-10-14,24.753033,121.641303,0.74144244
C0B010,七堵,2023-10-14,25.094819,121.71713,0.47983932
C0R480,長治,2023-10-14,22.693128,120.542622,0.9412091
C1V830,國三S383K,2023-10-14,22.781967,120.426475,0.9979525
12Q980,恆春工作站,2023-10-14,22.079678,120.714425,0.9666808
C1O940,東山服務區,2023-10-14,23.286016,120.398472,0.96842337
C1U840,東澳嶺,2023-10-14,24.5378,121.8485,6.4940014e-07
C1D630,飛鳳山,2023-10-14,24.766464,121.119178,0.9415832
C0S940,石寧山,2023-10-14,23.223772,121.406639,0.73594636
C0K410,北港,2023-10-14,23.573957,120.292802,0.66907555
C2M620,瑞里,2023-10-14,23.545133,120.675197,5.951501e-08
C2O950,安南,2023-10-14,23.076694,120.144861,0.38012654
C0F0E0,南湖圈谷,2023-10-14,24.363714,121.444667,3.6757935e-08
467610,成功,2023-10-14,23.097486,121.373428,0.9752675
C0G890,伸港,2023-10-14,24.148933,120.484403,0.9444556
C2E540,龍溪,2023-10-14,24.606489,120.783933,0.7838414
C1V200,梅山,2023-10-14,23.268447,120.823556,3.5660607e-05
C0T9H0,加路蘭山,2023-10-14,23.682947,121.5274,2.2000122e-09
C2O930,玉井,2023-10-14,23.126042,120.46055,0.97222394
C1F911,新伯公,2023-10-14,24.221361,120.841069,0.996167
C0R490,九如,2023-10-14,22.7405,120.490503,0.99088424
C0X200,左鎮,2023-10-14,23.056758,120.408522,0.948757
C1F891,稍來,2023-10-14,24.265689,121.001142,7.995018e-09
72N240,七股研究中心,2023-10-14,23.081672,120.062894,0.39631027
C0C700,中壢,2023-10-14,24.977661,121.256375,0.14028111
C0M690,水上,2023-10-14,23.419734,120.388909,0.8675316
C0V690,鼓山,2023-10-14,22.623325,120.275575,0.7754928
C0O860,大內,2023-10-14,23.11885,120.36083,0.9791581
C0Z200,萬榮,2023-10-14,23.709219,121.420106,1.4564913e-06
C0T9D0,和中,2023-10-14,24.26676,121.74103,0.93288803
C1O921,楠西,2023-10-14,23.183511,120.484083,0.9927283
C0AJ30,淡水觀海,2023-10-14,25.184591,121.408616,0.18559794
C0V810,左營,2023-10-14,22.67491,120.28491,0.21184903
C0UA70,桃源谷,2023-10-14,24.962606,121.888875,0.9991241
C0X130,官田,2023-10-14,23.193217,120.315422,0.9708348
C1H000,翠峰,2023-10-14,24.109397,121.205211,5.585546e-08
C0UA90,石城,2023-10-14,24.980444,121.951214,0.99807274
C1E681,南勢山,2023-10-14,24.421669,120.923831,8.155813e-05
C0A9F0,內湖,2023-10-14,25.079422,121.57545,0.24517702
C0K291,宜梧,2023-10-14,23.536281,120.169329,0.52660006
C1K540,口湖,2023-10-14,23.585344,120.180517,0.9718448
C0R780,滿州,2023-10-14,22.024403,120.839892,0.030029207
C0V870,文安,2023-10-14,22.8025,120.2164,0.045367476
C0U650,玉蘭,2023-10-14,24.675286,121.587061,0.98339844
C0R640,東港,2023-10-14,22.46247,120.44074,0.09887687
K2E360,苗栗農改,2023-10-14,24.495722,120.829111,0.39779633
C0AJ80,板橋,2023-10-14,25.0107,121.4489,0.11131823
C0S660,下馬,2023-10-14,23.150427,121.070312,9.659351e-09
C1H9B1,阿眉,2023-10-14,24.1263,120.994672,4.243871e-09
C0UA20,多加屯,2023-10-14,24.368614,121.373189,1.8045561e-08
C0E730,頭份,2023-10-14,24.688247,120.912206,0.9383564
72V140,高改旗南分場,2023-10-14,22.857861,120.516667,0.9972967
C0K480,莿桐,2023-10-14,23.761192,120.502372,0.7494757
C0U980,坪林石牌,2023-10-14,24.86478,121.77396,0.95467454
C0T900,西林,2023-10-14,23.8119,121.441458,1.732786e-07
C1I150,青雲,2023-10-14,23.793361,120.949378,0.07119672
467350,澎湖,2023-10-14,23.565503,119.563094,0.8783094
C0G800,埔鹽,2023-10-14,24.000394,120.431683,0.9144834
C0H960,草屯,2023-10-14,23.973672,120.68085,0.5557901
C1V780,多納林道,2023-10-14,22.888028,120.737917,0.109320015
C0E920,通霄漁港,2023-10-14,24.498589,120.673876,0.55713236
C0Z330,安通山,2023-10-14,23.290728,121.348528,4.519665e-08
C0AH10,永和,2023-10-14,25.01125,121.508111,0.11131825
C2G640,鹿港,2023-10-14,24.0753,120.430481,0.84815687
C1E890,國三N149K,2023-10-14,24.463414,120.680019,0.6887283
C1R110,口社,2023-10-14,22.770111,120.645222,0.34293276
C1M870,國三N285K,2023-10-14,23.550319,120.505833,0.95717245
467050,新屋,2023-10-14,25.006744,121.047486,0.7732436
C1E480,鳳美,2023-10-14,24.554803,121.034747,0.991049
C0M530,奮起湖,2023-10-14,23.493903,120.699253,3.5756017e-08
C0C590,觀音,2023-10-14,25.027072,121.153317,0.7940299
C0T9M0,靜浦,2023-10-14,23.455167,121.495028,0.9052655
C0AI40,石牌,2023-10-14,25.115597,121.513139,0.22172803
C1F871,上谷關,2023-10-14,24.203483,121.018644,1.6409068e-07
C0G880,二水,2023-10-14,23.810742,120.6173,0.68273085
C0R940,加祿堂,2023-10-14,22.3363,120.6217,0.8640173
C0W220,北竿,2023-10-14,26.220358,119.974881,0.9913906
C0O960,崎頂,2023-10-14,22.959547,120.369317,0.9707069
C0S750,向陽,2023-10-14,23.248397,120.986133,4.6579697e-08
C0T9F0,水璉,2023-10-14,23.797131,121.542514,3.1432275e-08
C1M600,頭凍,2023-10-14,23.406364,120.603339,4.3065748e-07
467660,臺東,2023-10-14,22.752211,121.154586,0.11633701
C1D380,新埔,2023-10-14,24.84745,121.03834,0.549
C0V750,路竹,2023-10-14,22.854997,120.259439,0.8368894
C0N050,蚵寮,2023-10-14,23.301,120.1104,0.8166214
72M700,南改鹿草分場,2023-10-14,23.416869,120.283061,0.7034345
C1SA50,利嘉林道,2023-10-14,22.82325,121.009389,2.341958e-05
467550,玉山,2023-10-14,23.487614,120.959522,2.8229607e-08
C0A940,金山,2023-10-14,25.223628,121.643967,0.17918473
C1V340,大津,2023-10-14,22.888322,120.645986,0.9765042
C0W180,七美,2023-10-14,23.219333,119.444892,0.8402793
C1F9C1,白冷,2023-10-14,24.182844,120.929889,0.000360243
K2E710,苗改生物防治研究中心,2023-10-14,24.422861,120.871833,0.9863072
C0N040,蘆竹溝,2023-10-14,23.2344,120.0961,0.61758375
C2W230,畜試所澎湖,2023-10-14,23.628342,119.513206,0.8496567
C0R880,後壁湖,2023-10-14,21.9457,120.7457,0.8882401
C1I280,埔中,2023-10-14,23.820778,120.642594,0.114433095
467790,墾丁雷達站,2023-10-14,21.948235,120.808028,0.11035196
C0W190,望安,2023-10-14,23.380564,119.494075,0.8146481
466881,新北,2023-10-14,24.9593,121.52,0.10903444
C0Z170,卓溪,2023-10-14,23.3443,121.3029,0.008443396
C0F850,東勢,2023-10-14,24.246428,120.833047,0.97171384
466900,淡水,2023-10-14,25.164889,121.448906,0.41001076
C0I370,魚池,2023-10-14,23.895703,120.94135,6.1849285e-05
C0C630,大溪,2023-10-14,24.882853,121.265547,0.21963091
C0A520,山佳,2023-10-14,24.974944,121.402008,0.11151545
C0I110,竹山,2023-10-14,23.761225,120.688156,0.9421995
82H840,茶改南部分場,2023-10-14,23.762528,120.7405,0.3593041
C0G660,溪湖,2023-10-14,23.94835,120.479122,0.91190153
C1T800,洛韶,2023-10-14,24.204558,121.453956,1.4149541e-08
C1T810,慈恩,2023-10-14,24.192044,121.388386,3.9247013e-08
C1E451,象鼻,2023-10-14,24.368617,120.940228,2.140706e-06
C0AC60,三峽,2023-10-14,24.939025,121.369728,0.13445888
C0I490,萬大林道,2023-10-14,23.928228,121.091411,7.96359e-09
C1I290,豐丘,2023-10-14,23.668178,120.887417,5.9053438e-08
C1I320,奧萬大,2023-10-14,23.952956,121.178556,1.5053608e-08
C0U770,南澳,2023-10-14,24.44935,121.81022,0.99822634
C0A980,社子,2023-10-14,25.109508,121.469681,0.43418604
C0V800,六龜,2023-10-14,22.997889,120.633583,0.99929726
C1G9D0,國一S218K,2023-10-14,23.890641,120.493253,0.8626725
C2F9A0,中竹林,2023-10-14,24.103556,120.751061,0.7464891
C0FA40,臺中電廠,2023-10-14,24.2146,120.4907,0.97344905
C0H9C0,合歡山,2023-10-14,24.143442,121.272547,2.7677366e-08
C0X060,下營,2023-10-14,23.22695,120.256261,0.96403533
G2M350,農試溪口農場,2023-10-14,23.58565,120.408111,0.9114631
C0U860,頭城,2023-10-14,24.85323,121.8308,0.9669665
C0R580,南州,2023-10-14,22.48591,120.50274,0.098876774
C0D430,峨眉,2023-10-14,24.6905,121.017189,0.64765126
C0G780,秀水,2023-10-14,24.03405,120.503869,0.93425286
72N100,臺南農改場,2023-10-14,23.0605,120.342194,0.98212326
C0S900,蘭嶼高中,2023-10-14,22.04909,121.51214,0.9884203
467540,大武,2023-10-14,22.355675,120.903789,0.45520902
C1F9W0,德基,2023-10-14,24.254783,121.190261,8.0799465e-09
C1Z120,壽豐,2023-10-14,23.870853,121.508081,0.61971545
C0W160,烏坵,2023-10-14,24.9944,119.44956,0.9861166
C1I240,外大坪,2023-10-14,23.958697,120.917931,1.127991e-05
C1I550,國六W023K,2023-10-14,23.979067,120.867742,0.8935768
C0R870,興海,2023-10-14,21.9752,120.8439,0.16703102
C0R140,瑪家,2023-10-14,22.682903,120.686639,0.81180966
C0A530,坪林,2023-10-14,24.938183,121.70975,0.99888057
C0X260,後壁,2023-10-14,23.366358,120.362326,0.8065483
C0Z230,和平,2023-10-14,24.30717,121.77007,0.92712283
C0G770,福興,2023-10-14,24.041289,120.437669,0.9144834
C0H9A0,神木村,2023-10-14,23.532742,120.843667,2.8093764e-08
C0I460,南投,2023-10-14,23.911469,120.687331,0.9869117
C0I480,梅峰,2023-10-14,24.085272,121.173572,2.101679e-08
C1V570,吉東,2023-10-14,22.85422,120.5454,0.99752814
C2A560,福山,2023-10-14,24.776203,121.502811,0.99910086
C0AH30,五分山,2023-10-14,25.07125,121.780794,0.9971092
C0FA10,松柏,2023-10-14,24.429115,120.617482,0.77110535
72S200,東改班鳩分場,2023-10-14,22.829528,121.077694,0.15919656
72HA00,中改埔里分場,2023-10-14,23.903208,120.963364,0.00039975788
C0C650,平鎮,2023-10-14,24.897503,121.214636,0.23909576
C0S930,延平,2023-10-14,22.902581,121.084058,0.31770763
C0UA60,樟樹山,2023-10-14,24.41393,121.78325,0.9399209
C1S670,摩天,2023-10-14,23.199503,121.027,1.3074236e-08
C0V630,茄萣,2023-10-14,22.906642,120.182608,0.8293363
466940,基隆,2023-10-14,25.133314,121.740475,0.14966403
C0X050,東河,2023-10-14,23.296598,120.385608,0.95511955
C0R770,保力,2023-10-14,22.071122,120.764111,0.6110649
G2L020,農試嘉義分所,2023-10-14,23.485028,120.473806,0.9475245
C0X240,關子嶺,2023-10-14,23.331169,120.508025,0.99308777
C0I380,集集,2023-10-14,23.828206,120.801467,0.98986727
466990,花蓮,2023-10-14,23.975128,121.613275,0.5259627
C1V220,小關山,2023-10-14,23.154217,120.813603,4.5532715e-08
C1F9G1,慶福山,2023-10-14,24.180853,120.848378,3.916308e-07
C0Z250,瑞穗林道,2023-10-14,23.49284,121.30688,2.0974902e-08
C0D590,新豐,2023-10-14,24.87068,120.97721,0.6161793
C0A870,五指山,2023-10-14,25.132153,121.608692,0.8098829
C0UA50,西帽山,2023-10-14,24.555361,121.802628,7.405584e-05
C0X160,仁德,2023-10-14,22.968258,120.257689,0.9004408
C1H971,六分寮,2023-10-14,23.92507,120.6378,0.0033110925
C0W120,西嶼,2023-10-14,23.5626,119.468436,0.8488144
C0G650,員林,2023-10-14,23.946503,120.585597,0.5945716
C0AD50,鶯歌,2023-10-14,24.951533,121.346294,0.13448259
C0S990,山豬窟,2023-10-14,22.318619,120.857372,0.91090024
72Q010,高雄農改,2023-10-14,22.709333,120.525889,0.9916169
C0X190,安平,2023-10-14,22.993161,120.152181,0.637867
C0K400,斗六,2023-10-14,23.720583,120.541127,0.8502724
12J990,口湖工作站,2023-10-14,23.589978,120.180394,0.9719889
C0O830,北寮,2023-10-14,23.079561,120.495008,0.99878997
C1D410,白蘭,2023-10-14,24.579364,121.079947,1.0289352e-07
C0S970,加津林,2023-10-14,22.416211,120.926942,0.5270262
C0D700,關西,2023-10-14,24.7977,121.1732,0.16253953
C0M810,里佳,2023-10-14,23.389125,120.716647,2.2119837e-08
C0U750,龜山島,2023-10-14,24.841667,121.953133,0.9912443
C0R810,內獅,2023-10-14,22.305064,120.642986,0.850567
C1M390,龍美,2023-10-14,23.406728,120.654417,6.910159e-08
C1H840,國三N238K,2023-10-14,23.841008,120.707711,0.8059412
CAQ030,崎峰國小,2023-10-14,22.42565,120.49521,0.09887687
C2E520,大湖,2023-10-14,24.414939,120.870872,0.98845273
467530,阿里山,2023-10-14,23.508208,120.813242,1.1779236e-08
C1E691,南湖,2023-10-14,24.40135,120.837533,0.993797
C0FA30,梧棲,2023-10-14,24.256003,120.523381,0.9294926
C1V231,高中,2023-10-14,23.134911,120.716711,2.130875e-05
C0F9V0,新社,2023-10-14,24.200172,120.815806,0.64970744
C0H890,埔里,2023-10-14,23.972169,120.952425,0.5024355
C0R690,墾丁,2023-10-14,21.966756,120.810269,0.100854106
C0F0D0,審馬陣,2023-10-14,24.381675,121.4203,2.2236504e-08
C0R820,白鷺,2023-10-14,22.454275,120.666219,0.98888785
U2H480,臺大溪頭,2023-10-14,23.670306,120.798194,8.8948646e-08
C1V190,南天池,2023-10-14,23.27403,120.91176,6.1122954e-08
K2E360,苗栗農改場,2023-10-14,24.495722,120.829111,0.39779633
CAJ050,海口故事園區,2023-10-14,23.57543,120.14121,0.9718448
C0O990,媽廟,2023-10-14,22.99175,120.293525,0.9597169
C0D480,打鐵坑,2023-10-14,24.849664,121.150789,0.35727394
C0Z220,和平林道,2023-10-14,24.343922,121.656317,0.00020174666
72C440,桃園農改場,2023-10-14,24.950944,121.030583,0.65514886
C1E711,馬拉邦山,2023-10-14,24.367306,120.901656,1.2789859e-06
C0D560,竹東,2023-10-14,24.767147,121.057881,0.16525714
C0F9U0,南屯,2023-10-14,24.137006,120.637969,0.9889536
C0M720,番路,2023-10-14,23.464657,120.554156,0.9947564
C0F0A0,雪山圈谷,2023-10-14,24.388594,121.236339,2.9808334e-08
C1A9N0,四十份,2023-10-14,24.934158,121.593283,0.9995247
C0U760,東澳,2023-10-14,24.52196,121.83318,0.99925053
C0X230,鹽水,2023-10-14,23.272621,120.247641,0.8165352
C0V370,古亭坑,2023-10-14,22.893178,120.401947,0.9885127
C1I340,新興橋,2023-10-14,23.563333,120.868728,3.3879326e-06
C0SA80,土坂,2023-10-14,22.453108,120.887572,0.7781664
C0R160,鹽埔,2023-10-14,22.739558,120.530778,0.9916291
C0AC40,大屯山,2023-10-14,25.175675,121.522408,0.04851569
466850,五分山雷達站,2023-10-14,25.071182,121.781205,0.9968979
C1AI50,國三N016K,2023-10-14,25.034164,121.619664,0.32513073
C1V600,藤枝,2023-10-14,23.071961,120.757042,5.683177e-08
C1E601,南勢,2023-10-14,24.572486,120.734842,0.85645765
C0Z180,新城,2023-10-14,24.03946,121.60454,0.5399939
C0O980,新市,2023-10-14,23.061614,120.298197,0.9717173
C0K420,西螺,2023-10-14,23.800407,120.467394,0.90005755
C0Z050,佳心,2023-10-14,23.34567,121.21316,3.77108e-09
C0AD30,蘆洲,2023-10-14,25.086594,121.472331,0.23411398
C0V610,梓官,2023-10-14,22.760558,120.267211,0.25465897
K2F750,種苗改良場,2023-10-14,24.225972,120.800917,0.9923774
C0UA80,大溪漁港,2023-10-14,24.941801,121.902955,0.9935017
C1AI60,國一39K邊坡,2023-10-14,25.064361,121.383836,0.16687274
C0W150,金寧,2023-10-14,24.457703,118.328989,0.9311058
V2C250,八德合作社,2023-10-14,24.93775,121.266389,0.16846818
C0AH40,平等,2023-10-14,25.129142,121.577086,0.9983004
C0R540,佳冬,2023-10-14,22.419456,120.552375,0.93750215
466950,彭佳嶼,2023-10-14,25.627975,122.079744,0.32177004
C0A890,雙溪,2023-10-14,25.036003,121.864242,0.99480015
C0C480,桃園,2023-10-14,24.992425,121.323172,0.13773628
C0AH50,林口,2023-10-14,25.072181,121.38084,0.21719645
A2K360,水試臺西試驗場,2023-10-14,23.717231,120.190522,0.9386117
B2N890,畜試所,2023-10-14,23.058972,120.336406,0.98212326
C0F9S0,烏日,2023-10-14,24.107058,120.624103,0.6300381
C0C490,八德,2023-10-14,24.928708,121.283289,0.17124626
C0R190,赤山,2023-10-14,22.592333,120.614306,0.5735265
C0T820,天祥,2023-10-14,24.179597,121.495639,4.749174e-07
C1F9E1,龍安,2023-10-14,24.1605,120.831961,0.007377857
C0V820,小林,2023-10-14,23.148408,120.63325,0.9987099
C2G870,芳苑,2023-10-14,23.922303,120.320025,0.5761047
C0E850,大河,2023-10-14,24.618069,120.948578,0.28278017
C1U670,寒溪,2023-10-14,24.634,121.71691,0.9965036
C0N020,城西,2023-10-14,23.0568,120.0956,0.637867
C1Z110,三棧,2023-10-14,24.11557,121.60501,6.82015e-08
C0R280,檳榔,2023-10-14,22.076078,120.836777,0.34497795
C0F9L0,后里,2023-10-14,24.310436,120.729725,0.992424
C0D540,橫山,2023-10-14,24.71116,121.11693,0.38529482
C1D420,太閣南,2023-10-14,24.632808,121.160575,9.306536e-07
C1E770,公館,2023-10-14,24.526914,120.830806,0.3557284
CAN130,水試所海水繁養殖中心,2023-10-14,23.120802,120.07968,0.39722067
C1I430,翠華,2023-10-14,24.191961,121.224339,3.4261117e-08
C1M400,菜瓜坪,2023-10-14,23.251928,120.576103,0.99698913
C0G730,二林,2023-10-14,23.903325,120.376081,0.64328647
72M360,南改義竹分場,2023-10-14,23.360694,120.279361,0.7303678
V2K620,麥寮合作社,2023-10-14,23.753836,120.294783,0.8475029
C0Z070,舞鶴,2023-10-14,23.46811,121.37407,0.86374223
C0B040,大武崙,2023-10-14,25.166676,121.706993,0.2751826
C1Z030,紅葉,2023-10-14,23.493119,121.338806,0.9748341
C1I050,丹大,2023-10-14,23.753747,121.141147,7.402483e-08
C0I080,信義,2023-10-14,23.689694,120.851036,0.969184
C2A880,福隆,2023-10-14,25.017842,121.942083,0.9979673
C0Z160,鳳林,2023-10-14,23.746114,121.453411,1.667098e-05
C0V210,復興,2023-10-14,23.222403,120.806089,0.49509752
C0H990,昆陽,2023-10-14,24.121322,121.273642,4.2469175e-08
C0S710,鹿野,2023-10-14,22.917711,121.122994,5.79843e-08
C0I530,小奇萊,2023-10-14,24.131764,121.295717,4.296225e-08
C0Z080,富源,2023-10-14,23.587642,121.378225,6.634189e-08
467441,高雄,2023-10-14,22.7304,120.3125,0.28814793
C1I140,卡奈托灣,2023-10-14,23.754364,121.087872,2.3592568e-08
C0I520,玉山風口,2023-10-14,23.470489,120.955994,2.849071e-08
C1G691,下水埔,2023-10-14,23.816114,120.5676,0.77541506
C0X110,臺南市南區,2023-10-14,22.961189,120.188378,0.9004408
C0V680,仁武,2023-10-14,22.701083,120.347722,0.21184903
C2G840,北斗,2023-10-14,23.877586,120.514222,0.8682325
C0R900,竹坑,2023-10-14,22.1385,120.7022,0.97077656
C0K250,崙背,2023-10-14,23.75555,120.318925,0.8479887
C0G860,社頭,2023-10-14,23.897647,120.5862,0.7409346
C0X150,安定,2023-10-14,23.102614,120.227839,0.97902644
C0R590,里港,2023-10-14,22.77919,120.49459,0.99750346
C0E610,馬都安,2023-10-14,24.451272,120.930192,0.78085464
C0E550,明德,2023-10-14,24.583486,120.885411,0.44868386
C0R150,三地門,2023-10-14,22.709889,120.639944,0.3147222
C0G910,花壇,2023-10-14,24.032076,120.549461,0.93849444
C1D400,鳥嘴山,2023-10-14,24.71909,121.28387,0.13939345
C0K500,元長,2023-10-14,23.64981,120.315024,0.8614008
C0F0B0,石岡,2023-10-14,24.276061,120.777644,0.99628603
C2V250,甲仙,2023-10-14,23.080106,120.591758,0.9992967
C0SA20,金崙山,2023-10-14,22.567419,120.959667,4.5300993e-08
C0V350,溪埔,2023-10-14,22.738578,120.446797,0.9827061
C0M660,溪口,2023-10-14,23.604131,120.403569,0.9114631
C1S880,壽卡,2023-10-14,22.238911,120.858903,0.5092999
72D680,桃改新埔分場,2023-10-14,24.834444,121.066111,0.5583526
