站號,站名,日期,lat,lon,BLBTSLS
C0R710,龍磐,2023-10-11,21.931672,120.838942,0.016900575
C1F9D1,白毛台,2023-10-11,24.158325,120.886933,1.9984554e-05
C0G940,竹塘,2023-10-11,23.848253,120.386764,0.9995383
467590,恆春,2023-10-11,22.003897,120.746339,0.9427175
C1O850,環湖,2023-10-11,23.148617,120.418633,0.059836537
C0U710,太平山,2023-10-11,24.505486,121.525656,1.3518181e-08
C0E820,獅潭,2023-10-11,24.539133,120.920042,0.0014774766
C0V880,興達,2023-10-11,22.8778,120.2127,0.011288031
C0S890,關山,2023-10-11,23.0395,121.175017,0.00019280663
K2F750,種苗繁殖,2023-10-11,24.225972,120.800917,0.012504028
C1Z130,銅門,2023-10-11,23.965694,121.492842,0.87392116
C0AD40,土城,2023-10-11,24.973208,121.445169,0.9918004
CAN140,六官養殖協會,2023-10-11,23.22881,120.29962,0.99105436
C0X180,山上,2023-10-11,23.0757,120.363253,0.12495849
C0F9Z0,雪山東峰,2023-10-11,24.388792,121.268675,1.345888e-08
C1M480,獨立山,2023-10-11,23.537022,120.607797,9.110664e-08
C0X220,學甲,2023-10-11,23.230367,120.182187,0.99473906
C0R170,屏東,2023-10-11,22.660269,120.494072,0.0028162329
467650,日月潭,2023-10-11,23.881325,120.90805,1.492934e-08
C0K600,箔子寮,2023-10-11,23.6197,120.14,0.99964416
C0G830,埤頭,2023-10-11,23.866003,120.452806,0.99769247
C0S950,七塊厝,2023-10-11,22.954453,121.229922,1.6131158e-06
467110,金門,2023-10-11,24.407306,118.289281,0.99954134
C0AH80,深坑,2023-10-11,25.002703,121.628328,0.99079955
467990,馬祖,2023-10-11,26.169269,119.923419,0.9750316
C0A970,三貂角,2023-10-11,25.007606,122.002058,0.9205282
C0K430,褒忠,2023-10-11,23.690938,120.303634,0.99914235
467480,嘉義,2023-10-11,23.495925,120.432906,0.9906967
C2E540,後龍,2023-10-11,24.606489,120.783933,0.66126305
C0V400,阿公店,2023-10-11,22.804194,120.355528,0.004931032
C0R440,大漢山,2023-10-11,22.405264,120.753181,1.617355e-06
C0K280,四湖,2023-10-11,23.630414,120.227125,0.999627
C1F9B1,桐林,2023-10-11,24.066172,120.735194,0.9926369
C0K390,土庫,2023-10-11,23.679029,120.395574,0.9974419
C1I450,望鄉山,2023-10-11,23.594153,120.944286,1.3199166e-08
C0E910,海埔,2023-10-11,24.648767,120.772435,0.70055455
B2E890,畜試北區分所,2023-10-11,24.527806,120.770972,0.008230215
C0R750,四林格山,2023-10-11,22.076989,120.802439,0.0013148378
C0F0C0,中坑,2023-10-11,24.248517,120.903319,2.3337016e-08
C1I121,大鞍,2023-10-11,23.678381,120.760017,2.6964843e-08
72U480,花改蘭陽分場,2023-10-11,24.686306,121.716583,0.5955528
C0A770,科教館,2023-10-11,25.096356,121.516507,0.30563167
C0AJ60,六塊厝,2023-10-11,25.24,121.4481,0.9220696
C0R620,墾雷,2023-10-11,21.900836,120.855269,0.14660466
467420,永康,2023-10-11,23.038386,120.2367,0.95457435
467300,東吉島,2023-10-11,23.25695,119.667467,0.16426127
C0I410,名間,2023-10-11,23.837053,120.701447,0.5159072
A2C560,農工中心,2023-10-11,24.985917,121.239833,0.96082395
C0V740,旗山,2023-10-11,22.888614,120.483597,0.044137966
C0Z061,玉里,2023-10-11,23.3215,121.339656,0.12559521
C0S840,南田,2023-10-11,22.279725,120.889208,0.1409793
C1I470,杉林溪,2023-10-11,23.639517,120.786444,1.418789e-08
C1X040,東原,2023-10-11,23.291597,120.463822,0.14659286
C0R660,枋寮,2023-10-11,22.367722,120.590647,0.8976417
C1R120,上德文,2023-10-11,22.763272,120.704442,0.46936175
C0K450,大埤,2023-10-11,23.646074,120.431537,0.7927319
C0UA00,土場,2023-10-11,24.576533,121.495333,0.99748725
467080,宜蘭,2023-10-11,24.763975,121.756528,0.8120448
C0N030,四草,2023-10-11,23.0235,120.1116,0.044630684
C0V650,彌陀,2023-10-11,22.783806,120.246361,0.0020616208
C0D660,新竹市東區,2023-10-11,24.798681,120.986942,0.93022513
82S580,茶改東部分場,2023-10-11,22.907694,121.130139,0.018798238
C0C710,大溪永福,2023-10-11,24.892936,121.324975,0.9009198
C0FA20,溫寮,2023-10-11,24.372177,120.583125,0.09245893
C0V640,湖內,2023-10-11,22.887139,120.2445,0.011040498
C0R910,下寮,2023-10-11,22.3929,120.5548,0.8976418
C0Z020,明里,2023-10-11,23.208717,121.262342,0.09442108
C0M770,嘉義梅山,2023-10-11,23.585398,120.555587,0.0658852
G2F820,農業試驗所,2023-10-11,24.031261,120.688133,0.9957053
C0C660,楊梅,2023-10-11,24.912375,121.143047,0.9287721
C1E511,新開,2023-10-11,24.347703,120.827019,0.03517939
G2F820,農試所(霧峰),2023-10-11,24.031261,120.688133,0.9957053
C1I070,和社,2023-10-11,23.591131,120.888861,0.9573983
C2F000,大肚,2023-10-11,24.15295,120.572117,0.28800774
C1S850,豐南,2023-10-11,23.122139,121.262389,7.091049e-07
C2A920,富貴角,2023-10-11,25.263783,121.565258,0.776951
CAH030,茶改場竹圍站,2023-10-11,23.860083,120.637528,0.9906811
C0T960,光復,2023-10-11,23.660694,121.424964,0.77044046
C0F9M0,豐原,2023-10-11,24.254322,120.720692,0.021049697
C0R720,旭海,2023-10-11,22.205403,120.887614,0.9903857
C0V710,苓雅,2023-10-11,22.622742,120.330669,0.037483703
C0C740,觀音工業區,2023-10-11,25.064764,121.114856,0.99418724
CAC040,拉拉山,2023-10-11,24.699317,121.427133,5.194082e-07
C0V790,萬山,2023-10-11,22.905944,120.688056,0.00017385186
U2HA30,臺大和社,2023-10-11,23.590856,120.888864,0.9573983
C0AJ90,澳底,2023-10-11,25.0552,121.9253,0.32945445
C0Z100,東華,2023-10-11,23.89525,121.549833,0.74717355
C0G970,三豐,2023-10-11,23.882,120.2895,0.5133948
V2K610,大庄合作社,2023-10-11,23.8068,120.367939,0.99936897
C0V900,汕尾,2023-10-11,22.4782,120.4151,0.0052125417
C1R630,龍泉,2023-10-11,22.66701,120.59091,0.0012375236
C1AC50,關渡,2023-10-11,25.133486,121.469331,0.21699877
C0F9I0,神岡,2023-10-11,24.272481,120.658314,0.4981541
C0K460,斗南,2023-10-11,23.678734,120.478359,0.8073428
467410,臺南,2023-10-11,22.993239,120.204772,0.06606932
C2O810,曾文,2023-10-11,23.219681,120.497328,0.03469155
467280,後龍,2023-10-11,24.648563,120.831834,0.59749275
C1F9J1,清水林,2023-10-11,24.071242,120.820419,3.8558227e-08
C2A650,火燒寮,2023-10-11,25.002719,121.742892,0.9831161
466930,竹子湖,2023-10-11,25.162078,121.544547,0.9310136
C1I220,樟湖,2023-10-11,23.905333,120.846983,2.9000473e-09
C0I390,仁愛,2023-10-11,24.022122,121.132206,4.0026669e-07
C0Z300,東里,2023-10-11,23.26853,121.30547,0.22483942
C0V310,美濃,2023-10-11,22.898742,120.519153,0.041787665
C1V590,新發,2023-10-11,23.057019,120.646064,7.930917e-07
C0K510,水林,2023-10-11,23.572924,120.24597,0.99864566
72S590,東改賓朗果園,2023-10-11,22.813889,121.071278,0.011210069
82A750,茶改北部分場,2023-10-11,24.955778,121.631222,0.9975957
C1A750,石碇服務區,2023-10-11,25.00872,121.646242,0.9696719
C0X300,鹿寮,2023-10-11,23.386047,120.477331,0.4464493
G2AI50,關渡,2023-10-11,25.11575,121.492,0.9905843
C0K590,雲林東勢,2023-10-11,23.674192,120.255721,0.99900115
C0A570,桶後,2023-10-11,24.848222,121.597992,0.8814434
C1S800,華源,2023-10-11,22.657883,121.02325,0.023514472
C0G720,溪州,2023-10-11,23.851589,120.499093,0.9978112
C1V160,達卡努瓦,2023-10-11,23.279811,120.705319,2.8028039e-08
C2M410,馬頭山,2023-10-11,23.324361,120.582017,0.33298364
C0V850,蚵仔寮,2023-10-11,22.7256,120.2527,0.0030829916
C0S740,池上,2023-10-11,23.119628,121.209469,0.55960506
C1V390,尖山,2023-10-11,22.813153,120.367789,0.0056766598
C0AH70,松山,2023-10-11,25.04871,121.55042,0.28379655
C0N010,鯤鯓國小,2023-10-11,23.1879,120.0889,0.9865203
C0R550,新埤,2023-10-11,22.467947,120.582894,0.0048919865
C0SA60,知本（水試所）,2023-10-11,22.702394,121.082761,0.04225558
C0T9I0,豐濱,2023-10-11,23.583897,121.514806,0.8379912
C0UB00,淡江大學蘭陽校園,2023-10-11,24.823239,121.730383,0.8526699
C0T9N0,富里,2023-10-11,23.171639,121.249378,0.76339626
U2HA50,臺大竹山,2023-10-11,23.756972,120.681556,0.078288846
C0V840,鳳鼻頭,2023-10-11,22.5083,120.3591,0.023454115
C0X140,西港,2023-10-11,23.125608,120.203108,0.9951968
72D080,桃改五峰分場,2023-10-11,24.612194,121.157167,7.835178e-09
C0V530,阿蓮,2023-10-11,22.883208,120.327508,0.0019234117
C1O880,關山,2023-10-11,23.173397,120.594092,0.23894161
C0E791,卓蘭,2023-10-11,24.3126,120.8244,0.039155487
C1I030,武界,2023-10-11,23.913225,121.052483,1.7731903e-08
C0R520,崁頂,2023-10-11,22.514781,120.506914,0.0031349969
C0R341,牡丹,2023-10-11,22.130036,120.792639,0.9892117
C0R930,萬丹,2023-10-11,22.5885,120.4851,0.0049212896
C0S760,紅石,2023-10-11,23.069131,121.126219,3.1283882e-08
C1M610,石磐龍,2023-10-11,23.496606,120.663506,2.8660773e-07
C0UA10,鴛鴦湖,2023-10-11,24.590269,121.412228,3.896388e-08
V2C260,八德蔬果,2023-10-11,24.978508,121.281819,0.95928633
C0R800,丹路,2023-10-11,22.204481,120.750989,0.98615617
C0G920,永靖,2023-10-11,23.924703,120.547533,0.99830484
C1A630,下盆,2023-10-11,24.771003,121.538622,0.27855945
B2N890,畜產試驗所,2023-10-11,23.058972,120.336406,0.9816629
C0UA30,白嶺,2023-10-11,24.527819,121.519031,3.345042e-08
C1V580,溪南(特生中心),2023-10-11,23.084972,120.788475,2.8840848e-08
C1T970,大農,2023-10-11,23.615233,121.413331,0.89782
E2S960,林試太麻里2,2023-10-11,22.598014,120.989761,0.08219736
C0R650,竹田,2023-10-11,22.58486,120.54344,0.00093638146
C1H900,清流,2023-10-11,24.080775,120.962997,8.611272e-08
C1C510,水尾,2023-10-11,24.940081,121.087161,0.9728409
C0F9X0,大雅(中科園區),2023-10-11,24.21528,120.62445,0.9902882
C0O970,虎頭埤,2023-10-11,23.021375,120.347878,0.22182924
C0C730,中大臨海站,2023-10-11,24.966126,121.008581,0.98997337
C0X250,新營,2023-10-11,23.310689,120.316681,0.9794068
C0V700,三民,2023-10-11,22.645017,120.311233,0.0036774762
C0U870,大礁溪,2023-10-11,24.791042,121.675047,0.38100055
C0E870,高鐵苗栗,2023-10-11,24.60725,120.826094,0.64126384
A2K570,古坑花卉中心,2023-10-11,23.63353,120.55239,0.039452992
C0M860,新美,2023-10-11,23.338017,120.683169,2.2177962e-06
C1E701,八卦,2023-10-11,24.491756,120.927619,6.423545e-05
C0I420,國姓,2023-10-11,24.037803,120.855072,0.25813687
C0S960,香蘭,2023-10-11,22.587569,120.993375,0.08219732
C0R260,春日,2023-10-11,22.370361,120.628306,0.96915305
72G600,臺中農改場,2023-10-11,24.003028,120.534389,0.99863696
C0Z210,瑞穗,2023-10-11,23.5239,121.39021,0.7102315
C0M820,達邦,2023-10-11,23.453994,120.749517,9.241489e-08
C0V860,南寮,2023-10-11,22.7616,120.2339,0.0030829902
C0G740,大城,2023-10-11,23.852487,120.320935,0.50528586
C0R920,塭仔,2023-10-11,22.4169,120.5197,0.871129
C0R470,高樹,2023-10-11,22.826389,120.600806,0.03757197
C0R680,佳樂水,2023-10-11,21.993578,120.861633,0.11471862
C1O870,大棟山,2023-10-11,23.31157,120.52226,4.054708e-09
C0D360,梅花,2023-10-11,24.678347,121.208558,0.02106797
C0Z190,富世,2023-10-11,24.14743,121.6297,0.34978285
C0AI10,屈尺,2023-10-11,24.92184,121.54475,0.9666595
B2U990,畜試東區分所,2023-10-11,24.669039,121.832561,0.9138438
C0R240,來義,2023-10-11,22.527306,120.625111,0.00258106
C1R610,西大武山,2023-10-11,22.617719,120.7322,3.7378297e-07
C0G900,線西,2023-10-11,24.143358,120.443536,0.9987207
C0M700,竹崎,2023-10-11,23.526178,120.555508,0.27863947
C2E880,三義,2023-10-11,24.405478,120.749819,0.0064233635
C0C720,竹圍,2023-10-11,25.112692,121.239824,0.99058604
C0F9P0,清水,2023-10-11,24.312297,120.562242,0.5229144
C0Z150,吉安光華,2023-10-11,23.930925,121.595153,0.5241576
C1D640,外坪(五指山),2023-10-11,24.644447,121.090961,0.00019583036
C0F9O0,潭子,2023-10-11,24.213106,120.703933,0.048735533
72T250,花蓮農改場,2023-10-11,23.975222,121.563889,0.6668069
C0E780,銅鑼,2023-10-11,24.489681,120.790853,0.0075704604
C1T950,太安,2023-10-11,23.666719,121.370128,1.9952227e-08
C0E830,苑裡,2023-10-11,24.439714,120.653053,0.09749505
467270,田中,2023-10-11,23.873803,120.581286,0.8522757
C0SA10,檳榔四格山,2023-10-11,22.810031,121.109308,0.014036604
C1T830,布洛灣,2023-10-11,24.17184,121.57127,0.019644003
C0F970,大坑,2023-10-11,24.173142,120.722289,0.41195092
C1U920,思源,2023-10-11,24.393125,121.347214,1.6632374e-08
C0A931,三和,2023-10-11,25.233153,121.595236,0.7983019
C0I010,廬山,2023-10-11,24.033311,121.181808,4.509261e-09
C0R860,鼻頭,2023-10-11,22.1043,120.8979,0.97769374
C0UB20,壯圍,2023-10-11,24.7359,121.8163,0.6027012
C0R790,九棚,2023-10-11,22.14195,120.889281,0.98945975
C0W110,東莒,2023-10-11,25.9652,119.98069,0.9849973
C1U930,粉鳥林,2023-10-11,24.497088,121.842479,0.93049175
C1I211,蘆竹湳,2023-10-11,23.934019,120.811994,1.1910188e-06
C0S830,長濱,2023-10-11,23.286817,121.411975,0.027555417
C1F9F1,伯公龍,2023-10-11,24.272392,120.849047,0.1297614
C0E810,西湖,2023-10-11,24.562947,120.7485,0.52961344
C1I440,新高口,2023-10-11,23.478744,120.878939,2.1473207e-08
C0O840,王爺宮,2023-10-11,23.222064,120.40085,0.9880313
C0T9G0,鳳林山,2023-10-11,23.735269,121.420131,8.623332e-09
C0X080,佳里,2023-10-11,23.173039,120.145086,0.9865203
C0Z310,清水斷崖,2023-10-11,24.218294,121.689142,1.1088327e-07
C0M680,太保,2023-10-11,23.455062,120.331455,0.9869114
C1S820,金峰,2023-10-11,22.590969,120.933236,0.18575144
C0AD10,八里,2023-10-11,25.150211,121.403947,0.99058604
C2K240,草嶺,2023-10-11,23.59555,120.693461,2.8452843e-07
C1SA70,都蘭,2023-10-11,22.87794,121.226881,0.004436488
C0K440,二崙,2023-10-11,23.772797,120.408944,0.9976148
C1A760,坪林交控,2023-10-11,24.94284,121.713442,0.96958107
C0F9N0,大里,2023-10-11,24.092464,120.701378,0.9920622
C0SA90,達仁林場,2023-10-11,22.264347,120.823972,0.7878308
C1R290,石門山,2023-10-11,22.112611,120.756597,0.95991284
42HA10,萬大發電廠,2023-10-11,23.978875,121.139639,4.4192534e-09
C0R890,山海,2023-10-11,21.9878,120.7091,0.013916276
C0T9A0,月眉山,2023-10-11,23.809928,121.539828,6.184841e-08
C0AC70,信義,2023-10-11,25.037822,121.564597,0.2837964
C0K560,棋山,2023-10-11,23.68645,120.603417,0.031445906
C1Z240,中平林道,2023-10-11,23.42115,121.26763,1.4477078e-08
U2H480,溪頭,2023-10-11,23.670306,120.798194,8.281995e-08
C0M880,好美里,2023-10-11,23.3364,120.138,0.9966735
C0T9E0,大坑,2023-10-11,23.880628,121.581981,0.08394382
C0K530,臺西,2023-10-11,23.701547,120.197559,0.9996698
C1E900,國一N128K,2023-10-11,24.560997,120.844186,0.019354668
C0AJ50,水湳洞,2023-10-11,25.123695,121.862238,0.25883353
C0AI20,白沙灣,2023-10-11,25.283128,121.519058,0.9173684
C0A860,大坪,2023-10-11,25.165914,121.632969,0.9807381
C1U850,觀音海岸,2023-10-11,24.38319,121.77856,1.8732146e-07
C0U950,鶯子嶺,2023-10-11,24.89754,121.79244,0.32114208
C0O900,善化,2023-10-11,23.112883,120.297219,0.9707334
C0K550,蔦松,2023-10-11,23.514319,120.229736,0.99867696
E2P980,林試六龜中心,2023-10-11,22.991703,120.645722,0.42765453
C0E590,通霄,2023-10-11,24.471892,120.704622,0.028093617
C1I310,西巒,2023-10-11,23.754486,120.883956,6.619053e-07
C0A550,泰平,2023-10-11,24.971197,121.823711,0.99404925
C0I360,水里,2023-10-11,23.812553,120.849792,0.98258007
C0R830,高士,2023-10-11,22.121825,120.836781,0.7539931
C1I101,溪頭,2023-10-11,23.661789,120.807647,1.0901184e-08
C0AJ20,野柳,2023-10-11,25.20703,121.690021,0.20094426
C0B060,暖暖,2023-10-11,25.0957,121.7403,0.5410629
C1H920,長豐,2023-10-11,24.102039,120.879897,6.3806056e-06
C0V360,內門,2023-10-11,22.975481,120.466769,0.046834536
C0R850,林邊,2023-10-11,22.4634,120.5339,0.005047368
C0E930,龍鳳,2023-10-11,24.700034,120.859125,0.98460925
C0U910,冬山,2023-10-11,24.63373,121.7937,0.9138438
C1E721,泰安,2023-10-11,24.489017,120.968036,6.093168e-09
82H320,茶改中部分場,2023-10-11,23.875611,120.913583,8.990912e-08
C0M750,布袋,2023-10-11,23.380878,120.167789,0.9906673
C1S860,利嘉,2023-10-11,22.809417,121.050528,0.019830922
72C440,桃園農改,2023-10-11,24.950944,121.030583,0.9756634
E2S980,林試太麻里1,2023-10-11,22.598922,120.980044,0.078467995
C0X170,關廟,2023-10-11,22.963017,120.327797,0.0073735034
C0V720,林園,2023-10-11,22.507747,120.394511,0.025633
C1I510,線浸林道,2023-10-11,23.761508,120.832956,7.0008044e-09
C0D690,外湖,2023-10-11,24.917735,120.968711,0.977528
C0C750,新興坑尾,2023-10-11,25.0061,121.0971,0.9890925
B2Q810,畜試南區分所,2023-10-11,21.945583,120.802167,0.11713143
C0S790,金崙,2023-10-11,22.538122,120.966875,0.5238466
C0AH90,福山植物園,2023-10-11,24.760717,121.58135,0.7949565
C0I540,奇萊稜線,2023-10-11,24.109231,121.326456,5.1467257e-08
C0M850,表湖,2023-10-11,23.24186,120.64166,1.2038833e-05
C0S770,大溪山,2023-10-11,22.478475,120.943325,0.93285096
C0AG80,中和,2023-10-11,24.991622,121.491792,0.9918004
C0T790,大禹嶺,2023-10-11,24.186117,121.316086,2.556469e-08
C0T9B0,水源,2023-10-11,23.991861,121.537169,0.0009818939
C0R840,牡丹池山,2023-10-11,22.168389,120.841225,0.0500267
C1I131,桶頭,2023-10-11,23.641944,120.654117,0.06969888
CAL110,布袋國中,2023-10-11,23.35893,120.18026,0.9906673
467571,新竹,2023-10-11,24.827853,121.014219,0.94373184
C0Z290,赤柯山,2023-10-11,23.36893,121.38293,5.9898646e-09
C0X280,將軍,2023-10-11,23.214999,120.13577,0.994426
C0S690,太麻里,2023-10-11,22.60902,120.98533,0.052921306
C0U880,北關,2023-10-11,24.9072,121.8734,0.8439087
C1H860,瑞岩,2023-10-11,24.123772,121.18345,4.6741744e-09
C0G810,埔心,2023-10-11,23.947633,120.525456,0.9983025
C0U970,大福,2023-10-11,24.80064,121.81389,0.807021
C1E670,南礦,2023-10-11,24.538278,121.002836,6.30882e-09
C0M520,東後寮,2023-10-11,23.369908,120.248065,0.9912222
C1E461,松安,2023-10-11,24.397972,120.986022,6.24494e-08
72G600,臺中農改,2023-10-11,24.003028,120.534389,0.99863696
C2N160,西拉雅風管處,2023-10-11,23.189481,120.335297,0.96615046
C0A640,石碇,2023-10-11,24.993969,121.662917,0.93027335
E2S960,林試太麻里2,2023-10-11,22.598,120.99775,0.08490384
C0F9Y0,桃山,2023-10-11,24.432739,121.303808,1.7051955e-08
C1I020,萬大,2023-10-11,23.979817,121.132261,3.2950265e-07
C0U940,羅東,2023-10-11,24.68184,121.74934,0.6017713
C0M650,朴子,2023-10-11,23.43463,120.23902,0.9896192
C1I500,大尖山,2023-10-11,23.858572,120.994889,7.2717747e-09
C0G820,田尾,2023-10-11,23.901669,120.509389,0.9983005
E2K600,四湖植物園,2023-10-11,23.676986,120.163433,0.9996271
C0S730,綠島,2023-10-11,22.6672,121.47533,0.39040172
12Q970,東港工作站,2023-10-11,22.479997,120.466058,0.0051936605
C0E430,南庄,2023-10-11,24.601775,121.000214,0.0013819949
C1TA00,太魯閣,2023-10-11,24.15773,121.6236,0.32275596
466920,臺北,2023-10-11,25.037658,121.514853,0.2837964
C0R600,舊泰武,2023-10-11,22.588194,120.664944,1.9524414e-06
C1I260,北坑,2023-10-11,23.9246,121.006903,4.671164e-07
466910,鞍部,2023-10-11,25.182586,121.529731,0.9401576
C1I230,九份二山,2023-10-11,23.961944,120.845,2.698057e-07
C2A660,瑞芳,2023-10-11,25.113169,121.801147,0.25444472
C0R270,琉球嶼,2023-10-11,22.332244,120.362236,0.009814032
C1T990,高寮,2023-10-11,23.394239,121.356808,0.48918796
C0G620,芬園,2023-10-11,24.015678,120.6213,0.9969282
C1Z140,荖溪,2023-10-11,23.890575,121.45964,8.433573e-09
C1I201,中心崙,2023-10-11,23.728722,120.712097,2.5121688e-05
C1I400,凌霄,2023-10-11,24.018778,121.004456,7.842863e-09
C1M640,十字,2023-10-11,23.492153,120.753683,4.7630035e-08
G2P820,農試鳳山分所,2023-10-11,22.646611,120.356083,0.0033289474
C0Z270,蕃薯寮,2023-10-11,23.73835,121.540108,4.7756805e-07
C0F9Q0,外埔,2023-10-11,24.347817,120.705686,0.048997313
C0K580,高鐵雲林,2023-10-11,23.737456,120.417944,0.99698186
C2I090,鳳凰,2023-10-11,23.728081,120.787347,6.2393144e-07
C0U990,員山,2023-10-11,24.74435,121.72247,0.60362566
C0V770,大社,2023-10-11,22.730306,120.346639,0.003156187
C0X120,麻豆,2023-10-11,23.183289,120.248611,0.996002
C0C670,龍潭,2023-10-11,24.870056,121.221389,0.17586191
C0D680,香山濕地,2023-10-11,24.783581,120.914988,0.94512206
C0S980,勝林山,2023-10-11,22.430439,120.8938,0.6111837
C0V730,大寮,2023-10-11,22.605614,120.395717,0.048929326
C0R570,麟洛,2023-10-11,22.65078,120.52719,0.0028162329
CAG100,王功漁港,2023-10-11,23.96824,120.32586,0.17870118
C0X290,北門,2023-10-11,23.267772,120.125481,0.994426
C2F930,大甲,2023-10-11,24.347667,120.640403,0.061980266
C0D650,湖口,2023-10-11,24.904794,121.043628,0.9730372
C0E420,竹南,2023-10-11,24.708978,120.888897,0.9828267
C0U780,五結,2023-10-11,24.68637,121.79794,0.6027012
C1I250,鯉潭,2023-10-11,23.961922,120.991131,1.3737955e-05
C0R130,阿禮,2023-10-11,22.742908,120.743678,0.0035196217
C0X100,臺南市北區,2023-10-11,23.010394,120.194228,0.050029535
C0S920,金峰嘉蘭,2023-10-11,22.594789,120.960825,0.083488755
C0V490,新興,2023-10-11,22.627422,120.298803,0.037516247
C0F9K0,大安,2023-10-11,24.345061,120.588025,0.0853631
72N100,臺南農改,2023-10-11,23.0605,120.342194,0.9816629
467290,古坑,2023-10-11,23.633639,120.551889,0.039452955
C0V440,鳳山,2023-10-11,22.646653,120.356122,0.0033289474
C1T940,大觀,2023-10-11,23.714206,121.373133,1.821122e-08
72T250,花蓮農改,2023-10-11,23.975222,121.563889,0.6668069
C0E740,造橋,2023-10-11,24.637056,120.864778,0.64126384
C0R100,尾寮山,2023-10-11,22.833111,120.683889,0.23445562
A2K630,臺大雲林校區,2023-10-11,23.730628,120.423903,0.99698186
C0D580,寶山,2023-10-11,24.735006,121.025192,0.0054567154
E2P990,林試扇平站,2023-10-11,22.9677,120.6857,0.0023397917
C0AI30,三重,2023-10-11,25.057328,121.500629,0.30563167
C0AH00,汐止,2023-10-11,25.066881,121.658778,0.2837964
C1Z040,立山,2023-10-11,23.443356,121.327375,1.2692661e-07
C0R740,獅子,2023-10-11,22.201569,120.70525,0.9681068
C0W130,花嶼,2023-10-11,23.40007,119.32276,0.81681114
C0A950,鼻頭角,2023-10-11,25.129036,121.923372,0.98987037
C0K470,林內,2023-10-11,23.748675,120.609642,0.08764394
82C160,茶改場,2023-10-11,24.908472,121.185333,0.922705
C0Z320,清水林道,2023-10-11,23.27125,121.188272,4.8275293e-08
C0R760,南仁湖,2023-10-11,22.084681,120.863353,0.95991284
C0M670,大林,2023-10-11,23.600616,120.45841,0.9768324
C0M800,茶山,2023-10-11,23.299075,120.664767,0.005004967
C0A9C0,天母,2023-10-11,25.117494,121.537169,0.17945671
72K220,南改斗南分場,2023-10-11,23.634556,120.477333,0.8071601
72AI40,桃改樹林分場,2023-10-11,24.944503,121.386972,0.910475
C0S910,蘭嶼燈塔,2023-10-11,22.081197,121.503117,0.869739
C0B050,八斗子,2023-10-11,25.144754,121.79167,0.31024882
C0U900,內城,2023-10-11,24.71813,121.68766,0.5795336
C0X320,柳營,2023-10-11,23.253328,120.375253,0.8449815
C0M790,新港,2023-10-11,23.553269,120.345728,0.99838585
C0F9T0,西屯,2023-10-11,24.179494,120.641275,0.99975693
C0SA30,都歷,2023-10-11,23.020333,121.323642,0.0042653233
C0C620,蘆竹,2023-10-11,25.084275,121.265767,0.99166256
C0R730,大坪頂,2023-10-11,22.024633,120.69355,0.71929413
C0AJ40,石門,2023-10-11,25.273672,121.601198,0.8479438
C0E750,苗栗,2023-10-11,24.564569,120.824575,0.020868476
C0T870,鯉魚潭,2023-10-11,23.935639,121.508944,0.81866086
C1V170,排雲,2023-10-11,23.463619,120.954147,5.6796228e-08
C2H950,中寮,2023-10-11,23.884447,120.766406,0.6407732
C0R350,貓鼻頭,2023-10-11,21.921774,120.7358,0.0051524295
C0V660,岡山,2023-10-11,22.797078,120.294958,0.0020616208
C1H941,雙冬,2023-10-11,23.967378,120.802189,3.2398424e-07
C0AJ70,田寮,2023-10-11,25.2698,121.4886,0.919736
C0AI00,五股,2023-10-11,25.07445,121.42728,0.9673122
C0Z280,德武,2023-10-11,23.47426,121.41071,0.8524135
C0R700,枋山,2023-10-11,22.246844,120.661086,0.25078118
C0C460,復興,2023-10-11,24.820208,121.352281,0.9914161
E2H360,蓮華池,2023-10-11,23.918333,120.885278,6.015502e-08
C0M640,中埔,2023-10-11,23.42538,120.5229,0.85053563
C0W140,金沙,2023-10-11,24.488292,118.408778,0.9992478
C2A540,四堵,2023-10-11,24.8926,121.745736,0.99023163
C0ACA0,新莊,2023-10-11,25.051478,121.446756,0.9265526
C0R220,潮州,2023-10-11,22.534361,120.54,0.0030973284
U2HA40,臺大內茅埔,2023-10-11,23.689722,120.851117,0.9894021
467490,臺中,2023-10-11,24.145736,120.684075,0.46109658
C0U960,翠峰湖,2023-10-11,24.510856,121.608044,2.0342334e-08
E2HA20,林試畢祿溪站,2023-10-11,24.226944,121.308522,1.3246101e-08
C0V890,前鎮,2023-10-11,22.5718,120.3117,0.03657945
467620,蘭嶼,2023-10-11,22.036969,121.558339,0.9147744
C1F941,雪嶺,2023-10-11,24.280586,121.026642,1.0475231e-08
C0AC80,文山,2023-10-11,25.00235,121.575728,0.990808
C0F9R0,龍井,2023-10-11,24.184536,120.528972,0.9838882
C0M760,民雄,2023-10-11,23.551754,120.428457,0.9738293
C0UA40,西德山,2023-10-11,24.560647,121.752608,1.2445666e-07
C1T920,中興,2023-10-11,23.769503,121.498653,0.36715874
C0D550,雪霸,2023-10-11,24.526972,121.11605,5.325352e-09
C2F860,梨山,2023-10-11,24.247522,121.243669,1.2293569e-08
C0R320,車城,2023-10-11,22.0744,120.716247,0.24111277
C1S870,南美山,2023-10-11,23.15025,121.382333,0.7570972
C0B020,基隆嶼,2023-10-11,25.19141,121.78391,0.9863452
C1U501,牛鬥,2023-10-11,24.637836,121.573656,0.94371104
C0M730,嘉義市東區,2023-10-11,23.457673,120.460531,0.3492935
C0S700,知本,2023-10-11,22.684866,121.005642,0.08857893
C1N001,沙崙,2023-10-11,22.935472,120.309406,0.0070667057
C0V760,橋頭,2023-10-11,22.757806,120.30575,0.00310936
C0G960,福寶,2023-10-11,24.0443,120.3814,0.99920666
C0X210,白河,2023-10-11,23.347466,120.414427,0.2698442
C0S810,東河,2023-10-11,22.972672,121.303986,0.23511443
C0R670,楓港,2023-10-11,22.190131,120.692156,0.9129891
C0FA50,霧峰,2023-10-11,24.0419,120.6995,0.995865
C0UB10,蘇澳,2023-10-11,24.5969,121.8571,0.9873542
C0G950,防潮門,2023-10-11,24.1835,120.4871,0.9838882
C0M740,六腳,2023-10-11,23.492871,120.290625,0.99584955
C1R250,力里,2023-10-11,22.428117,120.629228,0.079179965
C0K330,虎尾,2023-10-11,23.719183,120.442036,0.9971096
C2FA00,烏石坑,2023-10-11,24.273503,120.947617,0.00011526209
C0V620,永安,2023-10-11,22.82315,120.236856,0.0020616208
C1I330,楓樹林,2023-10-11,23.986803,121.076117,3.2657038e-08
C0W200,湖西,2023-10-11,23.596314,119.67275,0.87913316
72Q010,高雄農改場,2023-10-11,22.709333,120.525889,0.013954536
C0SA40,瑞和,2023-10-11,22.974361,121.156697,0.00038611112
C0C680,龜山,2023-10-11,25.02846,121.38656,0.95047396
C2V260,月眉,2023-10-11,22.971003,120.539853,0.081255764
C0V450,鳳森,2023-10-11,22.545064,120.392592,0.04430531
C0U720,南山,2023-10-11,24.43742,121.38167,4.6649004e-07
A2N290,臺南蘭花園區,2023-10-11,23.340258,120.379661,0.9895058
C0R560,新園,2023-10-11,22.5434,120.461558,0.025633
C0U890,三星,2023-10-11,24.66812,121.65302,0.80889744
C1V300,御油山,2023-10-11,23.001983,120.715364,9.827645e-09
C0U600,礁溪,2023-10-11,24.817539,121.765608,0.8005518
C1T980,龍澗,2023-10-11,24.023289,121.411328,1.8421987e-08
C0D670,海天一線,2023-10-11,24.831986,120.914438,0.9578046
C0SA00,歷坵,2023-10-11,22.520969,120.89185,0.3506079
C0M710,東石,2023-10-11,23.458927,120.15385,0.99777085
C0M780,鹿草,2023-10-11,23.41134,120.30835,0.99022144
C0U520,雙連埤,2023-10-11,24.753033,121.641303,0.36560047
C0B010,七堵,2023-10-11,25.094819,121.71713,0.5351049
C0R480,長治,2023-10-11,22.693128,120.542622,0.014848569
C1V830,國三S383K,2023-10-11,22.781967,120.426475,0.09819752
12Q980,恆春工作站,2023-10-11,22.079678,120.714425,0.24111277
C1O940,東山服務區,2023-10-11,23.286016,120.398472,0.40018463
C1U840,東澳嶺,2023-10-11,24.5378,121.8485,7.2031156e-08
C1D630,飛鳳山,2023-10-11,24.766464,121.119178,0.8397344
C0S940,石寧山,2023-10-11,23.223772,121.406639,0.38378224
C0K410,北港,2023-10-11,23.573957,120.292802,0.9986295
C2M620,瑞里,2023-10-11,23.545133,120.675197,5.5669226e-08
C2O950,安南,2023-10-11,23.076694,120.144861,0.111272916
C0F0E0,南湖圈谷,2023-10-11,24.363714,121.444667,3.3806337e-08
467610,成功,2023-10-11,23.097486,121.373428,0.13899562
C0G890,伸港,2023-10-11,24.148933,120.484403,0.9987207
C2E540,龍溪,2023-10-11,24.606489,120.783933,0.66126305
C1V200,梅山,2023-10-11,23.268447,120.823556,0.0026930098
C0T9H0,加路蘭山,2023-10-11,23.682947,121.5274,3.4739023e-09
C2O930,玉井,2023-10-11,23.126042,120.46055,0.12495849
C1F911,新伯公,2023-10-11,24.221361,120.841069,0.02960469
C0R490,九如,2023-10-11,22.7405,120.490503,0.013306091
C0X200,左鎮,2023-10-11,23.056758,120.408522,0.19252603
C1F891,稍來,2023-10-11,24.265689,121.001142,2.8119054e-09
72N240,七股研究中心,2023-10-11,23.081672,120.062894,0.108401716
C0C700,中壢,2023-10-11,24.977661,121.256375,0.95499295
C0M690,水上,2023-10-11,23.419734,120.388909,0.9875805
C0V690,鼓山,2023-10-11,22.623325,120.275575,0.03758583
C0O860,大內,2023-10-11,23.11885,120.36083,0.97752964
C0Z200,萬榮,2023-10-11,23.709219,121.420106,0.0014509764
C0T9D0,和中,2023-10-11,24.26676,121.74103,0.4891172
C1O921,楠西,2023-10-11,23.183511,120.484083,0.07566347
C0AJ30,淡水觀海,2023-10-11,25.184591,121.408616,0.19069292
C0V810,左營,2023-10-11,22.67491,120.28491,0.0036774762
C0UA70,桃源谷,2023-10-11,24.962606,121.888875,0.980345
C0X130,官田,2023-10-11,23.193217,120.315422,0.9624936
C1H000,翠峰,2023-10-11,24.109397,121.205211,7.9973546e-08
C0UA90,石城,2023-10-11,24.980444,121.951214,0.8858919
C1E681,南勢山,2023-10-11,24.421669,120.923831,1.9388095e-07
C0A9F0,內湖,2023-10-11,25.079422,121.57545,0.2837964
C0K291,宜梧,2023-10-11,23.536281,120.169329,0.99867696
C1K540,口湖,2023-10-11,23.585344,120.180517,0.99964416
C0R780,滿州,2023-10-11,22.024403,120.839892,0.94752836
C0V870,文安,2023-10-11,22.8025,120.2164,0.0020831027
C0U650,玉蘭,2023-10-11,24.675286,121.587061,0.65971303
C0R640,東港,2023-10-11,22.46247,120.44074,0.0051936605
K2E360,苗栗農改,2023-10-11,24.495722,120.829111,0.008231701
C0AJ80,板橋,2023-10-11,25.0107,121.4489,0.99198174
C0S660,下馬,2023-10-11,23.150427,121.070312,2.5356263e-08
C1H9B1,阿眉,2023-10-11,24.1263,120.994672,2.721548e-09
C0UA20,多加屯,2023-10-11,24.368614,121.373189,1.2400935e-08
C0E730,頭份,2023-10-11,24.688247,120.912206,0.9832996
72V140,高改旗南分場,2023-10-11,22.857861,120.516667,0.041787665
C0K480,莿桐,2023-10-11,23.761192,120.502372,0.9578524
C0U980,坪林石牌,2023-10-11,24.86478,121.77396,0.6371337
C0T900,西林,2023-10-11,23.8119,121.441458,0.019084577
C1I150,青雲,2023-10-11,23.793361,120.949378,0.13867243
467350,澎湖,2023-10-11,23.565503,119.563094,0.91494256
C0G800,埔鹽,2023-10-11,24.000394,120.431683,0.9991038
C0H960,草屯,2023-10-11,23.973672,120.68085,0.996846
C1V780,多納林道,2023-10-11,22.888028,120.737917,0.23237163
C0E920,通霄漁港,2023-10-11,24.498589,120.673876,0.032950334
C0Z330,安通山,2023-10-11,23.290728,121.348528,1.211852e-05
C0AH10,永和,2023-10-11,25.01125,121.508111,0.99198174
C2G640,鹿港,2023-10-11,24.0753,120.430481,0.99920666
C1E890,國三N149K,2023-10-11,24.463414,120.680019,0.07664968
C1R110,口社,2023-10-11,22.770111,120.645222,0.002959374
C1M870,國三N285K,2023-10-11,23.550319,120.505833,0.06242275
467050,新屋,2023-10-11,25.006744,121.047486,0.989694
C1E480,鳳美,2023-10-11,24.554803,121.034747,0.13669519
C0M530,奮起湖,2023-10-11,23.493903,120.699253,2.7640702e-08
C0C590,觀音,2023-10-11,25.027072,121.153317,0.9936355
C0T9M0,靜浦,2023-10-11,23.455167,121.495028,0.83838266
C0AI40,石牌,2023-10-11,25.115597,121.513139,0.17337859
C1F871,上谷關,2023-10-11,24.203483,121.018644,1.6621211e-08
C0G880,二水,2023-10-11,23.810742,120.6173,0.07225371
C0R940,加祿堂,2023-10-11,22.3363,120.6217,0.49604595
C0W220,北竿,2023-10-11,26.220358,119.974881,0.98527783
C0O960,崎頂,2023-10-11,22.959547,120.369317,0.013259394
C0S750,向陽,2023-10-11,23.248397,120.986133,7.1180295e-08
C0T9F0,水璉,2023-10-11,23.797131,121.542514,0.0008014557
C1M600,頭凍,2023-10-11,23.406364,120.603339,7.8855305e-07
467660,臺東,2023-10-11,22.752211,121.154586,0.0004817147
C1D380,新埔,2023-10-11,24.84745,121.03834,0.9307097
C0V750,路竹,2023-10-11,22.854997,120.259439,0.011144917
C0N050,蚵寮,2023-10-11,23.301,120.1104,0.9966735
72M700,南改鹿草分場,2023-10-11,23.416869,120.283061,0.98961914
C1SA50,利嘉林道,2023-10-11,22.82325,121.009389,0.013643045
467550,玉山,2023-10-11,23.487614,120.959522,2.5249653e-08
C0A940,金山,2023-10-11,25.223628,121.643967,0.21125998
C1V340,大津,2023-10-11,22.888322,120.645986,0.17820224
C0W180,七美,2023-10-11,23.219333,119.444892,0.2891402
C1F9C1,白冷,2023-10-11,24.182844,120.929889,4.2353466e-05
K2E710,苗改生物防治研究中心,2023-10-11,24.422861,120.871833,0.016797006
C0N040,蘆竹溝,2023-10-11,23.2344,120.0961,0.994426
C2W230,畜試所澎湖,2023-10-11,23.628342,119.513206,0.93256223
C0R880,後壁湖,2023-10-11,21.9457,120.7457,0.01481852
C1I280,埔中,2023-10-11,23.820778,120.642594,0.86177015
467790,墾丁雷達站,2023-10-11,21.948235,120.808028,0.100619785
C0W190,望安,2023-10-11,23.380564,119.494075,0.5585753
466881,新北,2023-10-11,24.9593,121.52,0.9915055
C0Z170,卓溪,2023-10-11,23.3443,121.3029,0.18809287
C0F850,東勢,2023-10-11,24.246428,120.833047,0.049843002
466900,淡水,2023-10-11,25.164889,121.448906,0.99030864
C0I370,魚池,2023-10-11,23.895703,120.94135,3.4724872e-07
C0C630,大溪,2023-10-11,24.882853,121.265547,0.15544866
C0A520,山佳,2023-10-11,24.974944,121.402008,0.9799134
C0I110,竹山,2023-10-11,23.761225,120.688156,0.06128318
82H840,茶改南部分場,2023-10-11,23.762528,120.7405,0.9510214
C0G660,溪湖,2023-10-11,23.94835,120.479122,0.9981426
C1T800,洛韶,2023-10-11,24.204558,121.453956,9.8728306e-09
C1T810,慈恩,2023-10-11,24.192044,121.388386,5.1699054e-08
C1E451,象鼻,2023-10-11,24.368617,120.940228,3.9923503e-08
C0AC60,三峽,2023-10-11,24.939025,121.369728,0.9048333
C0I490,萬大林道,2023-10-11,23.928228,121.091411,4.061659e-09
C1I290,豐丘,2023-10-11,23.668178,120.887417,5.1474522e-08
C1I320,奧萬大,2023-10-11,23.952956,121.178556,2.2150616e-08
C0U770,南澳,2023-10-11,24.44935,121.81022,0.000111103254
C0A980,社子,2023-10-11,25.109508,121.469681,0.99071467
C0V800,六龜,2023-10-11,22.997889,120.633583,0.40624642
C1G9D0,國一S218K,2023-10-11,23.890641,120.493253,0.9976959
C2F9A0,中竹林,2023-10-11,24.103556,120.751061,0.010847599
C0FA40,臺中電廠,2023-10-11,24.2146,120.4907,0.9838882
C0H9C0,合歡山,2023-10-11,24.143442,121.272547,2.6248525e-08
C0X060,下營,2023-10-11,23.22695,120.256261,0.9910431
G2M350,農試溪口農場,2023-10-11,23.58565,120.408111,0.97214836
C0U860,頭城,2023-10-11,24.85323,121.8308,0.8041113
C0R580,南州,2023-10-11,22.48591,120.50274,0.0051936605
C0D430,峨眉,2023-10-11,24.6905,121.017189,0.6721078
C0G780,秀水,2023-10-11,24.03405,120.503869,0.99863696
72N100,臺南農改場,2023-10-11,23.0605,120.342194,0.9816629
C0S900,蘭嶼高中,2023-10-11,22.04909,121.51214,0.7967024
467540,大武,2023-10-11,22.355675,120.903789,0.38911584
C1F9W0,德基,2023-10-11,24.254783,121.190261,2.5966123e-09
C1Z120,壽豐,2023-10-11,23.870853,121.508081,0.74717355
C0W160,烏坵,2023-10-11,24.9944,119.44956,0.988385
C1I240,外大坪,2023-10-11,23.958697,120.917931,7.0449496e-06
C1I550,國六W023K,2023-10-11,23.979067,120.867742,0.0004365736
C0R870,興海,2023-10-11,21.9752,120.8439,0.116901554
C0R140,瑪家,2023-10-11,22.682903,120.686639,0.09491064
C0A530,坪林,2023-10-11,24.938183,121.70975,0.98567474
C0X260,後壁,2023-10-11,23.366358,120.362326,0.98952276
C0Z230,和平,2023-10-11,24.30717,121.77007,0.46169332
C0G770,福興,2023-10-11,24.041289,120.437669,0.9991038
C0H9A0,神木村,2023-10-11,23.532742,120.843667,4.0952507e-08
C0I460,南投,2023-10-11,23.911469,120.687331,0.6152121
C0I480,梅峰,2023-10-11,24.085272,121.173572,2.7139036e-08
C1V570,吉東,2023-10-11,22.85422,120.5454,0.05474225
C2A560,福山,2023-10-11,24.776203,121.502811,0.9664963
C0AH30,五分山,2023-10-11,25.07125,121.780794,0.9854397
C0FA10,松柏,2023-10-11,24.429115,120.617482,0.106145814
72S200,東改班鳩分場,2023-10-11,22.829528,121.077694,0.00607076
72HA00,中改埔里分場,2023-10-11,23.903208,120.963364,1.5920922e-07
C0C650,平鎮,2023-10-11,24.897503,121.214636,0.85469085
C0S930,延平,2023-10-11,22.902581,121.084058,0.044473093
C0UA60,樟樹山,2023-10-11,24.41393,121.78325,0.0017581767
C1S670,摩天,2023-10-11,23.199503,121.027,1.6723416e-08
C0V630,茄萣,2023-10-11,22.906642,120.182608,0.011288031
466940,基隆,2023-10-11,25.133314,121.740475,0.2841148
C0X050,東河,2023-10-11,23.296598,120.385608,0.36493003
C0R770,保力,2023-10-11,22.071122,120.764111,0.88188523
G2L020,農試嘉義分所,2023-10-11,23.485028,120.473806,0.16087042
C0X240,關子嶺,2023-10-11,23.331169,120.508025,0.12348833
C0I380,集集,2023-10-11,23.828206,120.801467,0.98063046
466990,花蓮,2023-10-11,23.975128,121.613275,0.6457404
C1V220,小關山,2023-10-11,23.154217,120.813603,2.2231118e-08
C1F9G1,慶福山,2023-10-11,24.180853,120.848378,1.5203604e-07
C0Z250,瑞穗林道,2023-10-11,23.49284,121.30688,3.2967453e-08
C0D590,新豐,2023-10-11,24.87068,120.97721,0.92902297
C0A870,五指山,2023-10-11,25.132153,121.608692,0.88012165
C0UA50,西帽山,2023-10-11,24.555361,121.802628,1.2828705e-06
C0X160,仁德,2023-10-11,22.968258,120.257689,0.015722685
C1H971,六分寮,2023-10-11,23.92507,120.6378,0.35819173
C0W120,西嶼,2023-10-11,23.5626,119.468436,0.9518
C0G650,員林,2023-10-11,23.946503,120.585597,0.9514708
C0AD50,鶯歌,2023-10-11,24.951533,121.346294,0.8953932
C0S990,山豬窟,2023-10-11,22.318619,120.857372,0.99150175
72Q010,高雄農改,2023-10-11,22.709333,120.525889,0.013954536
C0X190,安平,2023-10-11,22.993161,120.152181,0.050029535
C0K400,斗六,2023-10-11,23.720583,120.541127,0.6227319
12J990,口湖工作站,2023-10-11,23.589978,120.180394,0.99964416
C0O830,北寮,2023-10-11,23.079561,120.495008,0.030388374
C1D410,白蘭,2023-10-11,24.579364,121.079947,4.8492788e-09
C0S970,加津林,2023-10-11,22.416211,120.926942,0.44945502
C0D700,關西,2023-10-11,24.7977,121.1732,0.054115683
C0M810,里佳,2023-10-11,23.389125,120.716647,1.6951946e-08
C0U750,龜山島,2023-10-11,24.841667,121.953133,0.9316452
C0R810,內獅,2023-10-11,22.305064,120.642986,0.4497159
C1M390,龍美,2023-10-11,23.406728,120.654417,7.31161e-08
C1H840,國三N238K,2023-10-11,23.841008,120.707711,0.99452436
CAQ030,崎峰國小,2023-10-11,22.42565,120.49521,0.0051936605
C2E520,大湖,2023-10-11,24.414939,120.870872,0.020500105
467530,阿里山,2023-10-11,23.508208,120.813242,6.1126544e-09
C1E691,南湖,2023-10-11,24.40135,120.837533,0.0017545635
C0FA30,梧棲,2023-10-11,24.256003,120.523381,0.5229144
C1V231,高中,2023-10-11,23.134911,120.716711,1.711978e-05
C0F9V0,新社,2023-10-11,24.200172,120.815806,0.0026230845
C0H890,埔里,2023-10-11,23.972169,120.952425,2.0466972e-05
C0R690,墾丁,2023-10-11,21.966756,120.810269,0.016225202
C0F0D0,審馬陣,2023-10-11,24.381675,121.4203,1.6605368e-08
C0R820,白鷺,2023-10-11,22.454275,120.666219,0.77933276
U2H480,臺大溪頭,2023-10-11,23.670306,120.798194,8.281995e-08
C1V190,南天池,2023-10-11,23.27403,120.91176,1.0249844e-07
K2E360,苗栗農改場,2023-10-11,24.495722,120.829111,0.008231701
CAJ050,海口故事園區,2023-10-11,23.57543,120.14121,0.99964416
C0O990,媽廟,2023-10-11,22.99175,120.293525,0.9605769
C0D480,打鐵坑,2023-10-11,24.849664,121.150789,0.17780823
C0Z220,和平林道,2023-10-11,24.343922,121.656317,2.6214761e-06
72C440,桃園農改場,2023-10-11,24.950944,121.030583,0.9756634
C1E711,馬拉邦山,2023-10-11,24.367306,120.901656,2.6923267e-08
C0D560,竹東,2023-10-11,24.767147,121.057881,0.06251413
C0F9U0,南屯,2023-10-11,24.137006,120.637969,0.99973506
C0M720,番路,2023-10-11,23.464657,120.554156,0.9674752
C0F0A0,雪山圈谷,2023-10-11,24.388594,121.236339,2.311653e-08
C1A9N0,四十份,2023-10-11,24.934158,121.593283,0.9990155
C0U760,東澳,2023-10-11,24.52196,121.83318,0.8901183
C0X230,鹽水,2023-10-11,23.272621,120.247641,0.99680793
C0V370,古亭坑,2023-10-11,22.893178,120.401947,0.017725827
C1I340,新興橋,2023-10-11,23.563333,120.868728,0.0004385043
C0SA80,土坂,2023-10-11,22.453108,120.887572,0.4948446
C0R160,鹽埔,2023-10-11,22.739558,120.530778,0.01397177
C0AC40,大屯山,2023-10-11,25.175675,121.522408,0.670228
466850,五分山雷達站,2023-10-11,25.071182,121.781205,0.9850971
C1AI50,國三N016K,2023-10-11,25.034164,121.619664,0.25366095
C1V600,藤枝,2023-10-11,23.071961,120.757042,4.582528e-08
C1E601,南勢,2023-10-11,24.572486,120.734842,0.30352
C0Z180,新城,2023-10-11,24.03946,121.60454,0.6522125
C0O980,新市,2023-10-11,23.061614,120.298197,0.9706853
C0K420,西螺,2023-10-11,23.800407,120.467394,0.99767864
C0Z050,佳心,2023-10-11,23.34567,121.21316,6.5604855e-09
C0AD30,蘆洲,2023-10-11,25.086594,121.472331,0.30563167
C0V610,梓官,2023-10-11,22.760558,120.267211,0.00310936
K2F750,種苗改良場,2023-10-11,24.225972,120.800917,0.012504028
C0UA80,大溪漁港,2023-10-11,24.941801,121.902955,0.848484
C1AI60,國一39K邊坡,2023-10-11,25.064361,121.383836,0.96050346
C0W150,金寧,2023-10-11,24.457703,118.328989,0.99954396
V2C250,八德合作社,2023-10-11,24.93775,121.266389,0.86567456
C0AH40,平等,2023-10-11,25.129142,121.577086,0.9756817
C0R540,佳冬,2023-10-11,22.419456,120.552375,0.8976418
466950,彭佳嶼,2023-10-11,25.627975,122.079744,0.9704925
C0A890,雙溪,2023-10-11,25.036003,121.864242,0.3954805
C0C480,桃園,2023-10-11,24.992425,121.323172,0.9606674
C0AH50,林口,2023-10-11,25.072181,121.38084,0.94004065
A2K360,水試臺西試驗場,2023-10-11,23.717231,120.190522,0.99966305
B2N890,畜試所,2023-10-11,23.058972,120.336406,0.9816629
C0F9S0,烏日,2023-10-11,24.107058,120.624103,0.99235886
C0C490,八德,2023-10-11,24.928708,121.283289,0.86636317
C0R190,赤山,2023-10-11,22.592333,120.614306,0.0009244164
C0T820,天祥,2023-10-11,24.179597,121.495639,3.3852164e-06
C1F9E1,龍安,2023-10-11,24.1605,120.831961,0.0019623393
C0V820,小林,2023-10-11,23.148408,120.63325,0.0007673828
C2G870,芳苑,2023-10-11,23.922303,120.320025,0.17661142
C0E850,大河,2023-10-11,24.618069,120.948578,0.016206268
C1U670,寒溪,2023-10-11,24.634,121.71691,0.9024074
C0N020,城西,2023-10-11,23.0568,120.0956,0.050029535
C1Z110,三棧,2023-10-11,24.11557,121.60501,1.0710606e-07
C0R280,檳榔,2023-10-11,22.076078,120.836777,0.9890626
C0F9L0,后里,2023-10-11,24.310436,120.729725,0.024615338
C0D540,橫山,2023-10-11,24.71116,121.11693,0.0033778097
C1D420,太閣南,2023-10-11,24.632808,121.160575,4.266045e-08
C1E770,公館,2023-10-11,24.526914,120.830806,0.008230215
CAN130,水試所海水繁養殖中心,2023-10-11,23.120802,120.07968,0.108401716
C1I430,翠華,2023-10-11,24.191961,121.224339,3.028982e-08
C1M400,菜瓜坪,2023-10-11,23.251928,120.576103,0.015752634
C0G730,二林,2023-10-11,23.903325,120.376081,0.99936146
72M360,南改義竹分場,2023-10-11,23.360694,120.279361,0.9912222
V2K620,麥寮合作社,2023-10-11,23.753836,120.294783,0.99914235
C0Z070,舞鶴,2023-10-11,23.46811,121.37407,0.7317747
C0B040,大武崙,2023-10-11,25.166676,121.706993,0.24623209
C1Z030,紅葉,2023-10-11,23.493119,121.338806,0.7820055
C1I050,丹大,2023-10-11,23.753747,121.141147,1.02354264e-07
C0I080,信義,2023-10-11,23.689694,120.851036,0.9894021
C2A880,福隆,2023-10-11,25.017842,121.942083,0.8830907
C0Z160,鳳林,2023-10-11,23.746114,121.453411,0.009641913
C0V210,復興,2023-10-11,23.222403,120.806089,0.36970615
C0H990,昆陽,2023-10-11,24.121322,121.273642,4.587224e-08
C0S710,鹿野,2023-10-11,22.917711,121.122994,3.3447377e-06
C0I530,小奇萊,2023-10-11,24.131764,121.295717,4.601631e-08
C0Z080,富源,2023-10-11,23.587642,121.378225,1.6110037e-07
467441,高雄,2023-10-11,22.7304,120.3125,0.003156187
C1I140,卡奈托灣,2023-10-11,23.754364,121.087872,1.9196984e-08
C0I520,玉山風口,2023-10-11,23.470489,120.955994,3.0095002e-08
C1G691,下水埔,2023-10-11,23.816114,120.5676,0.96152633
C0X110,臺南市南區,2023-10-11,22.961189,120.188378,0.015724855
C0V680,仁武,2023-10-11,22.701083,120.347722,0.0036726573
C2G840,北斗,2023-10-11,23.877586,120.514222,0.9978102
C0R900,竹坑,2023-10-11,22.1385,120.7022,0.29017138
C0K250,崙背,2023-10-11,23.75555,120.318925,0.99914235
C0G860,社頭,2023-10-11,23.897647,120.5862,0.858282
C0X150,安定,2023-10-11,23.102614,120.227839,0.9951685
C0R590,里港,2023-10-11,22.77919,120.49459,0.03622728
C0E610,馬都安,2023-10-11,24.451272,120.930192,4.5260836e-05
C0E550,明德,2023-10-11,24.583486,120.885411,0.018815706
C0R150,三地門,2023-10-11,22.709889,120.639944,0.0026561855
C0G910,花壇,2023-10-11,24.032076,120.549461,0.99878305
C1D400,鳥嘴山,2023-10-11,24.71909,121.28387,1.0243126e-06
C0K500,元長,2023-10-11,23.64981,120.315024,0.99895567
C0F0B0,石岡,2023-10-11,24.276061,120.777644,0.032386545
C2V250,甲仙,2023-10-11,23.080106,120.591758,0.052224945
C0SA20,金崙山,2023-10-11,22.567419,120.959667,1.3769119e-05
C0V350,溪埔,2023-10-11,22.738578,120.446797,0.0074559525
C0M660,溪口,2023-10-11,23.604131,120.403569,0.97214836
C1S880,壽卡,2023-10-11,22.238911,120.858903,0.8346006
72D680,桃改新埔分場,2023-10-11,24.834444,121.066111,0.93357575
