站號,站名,日期,lat,lon,BLBTSLS
C0R710,龍磐,2023-02-25,21.931672,120.838942,0.6416182
C1F9D1,白毛台,2023-02-25,24.158325,120.886933,5.6173677e-10
C0G940,竹塘,2023-02-25,23.848253,120.386764,1.7537994e-08
467590,恆春,2023-02-25,22.003897,120.746339,0.98955286
C1O850,環湖,2023-02-25,23.148617,120.418633,9.949239e-09
C0U710,太平山,2023-02-25,24.505486,121.525656,2.5513103e-08
C0E820,獅潭,2023-02-25,24.539133,120.920042,3.144017e-09
C0V880,興達,2023-02-25,22.8778,120.2127,3.209988e-08
C0S890,關山,2023-02-25,23.0395,121.175017,2.0846307e-09
K2F750,種苗繁殖,2023-02-25,24.225972,120.800917,5.3404753e-10
C1Z130,銅門,2023-02-25,23.965694,121.492842,5.113045e-09
C0AD40,土城,2023-02-25,24.973208,121.445169,1.9611488e-08
CAN140,六官養殖協會,2023-02-25,23.22881,120.29962,2.6986143e-08
C0X180,山上,2023-02-25,23.0757,120.363253,2.210963e-08
C0F9Z0,雪山東峰,2023-02-25,24.388792,121.268675,1.2708534e-08
C1M480,獨立山,2023-02-25,23.537022,120.607797,7.0046746e-10
C0X220,學甲,2023-02-25,23.230367,120.182187,9.9413855e-09
C0R170,屏東,2023-02-25,22.660269,120.494072,2.7666916e-08
467650,日月潭,2023-02-25,23.881325,120.90805,1.97405e-09
C0K600,箔子寮,2023-02-25,23.6197,120.14,1.6806047e-06
C0G830,埤頭,2023-02-25,23.866003,120.452806,4.231472e-09
C0S950,七塊厝,2023-02-25,22.954453,121.229922,1.8781772e-09
467110,金門,2023-02-25,24.407306,118.289281,2.5588432e-07
C0AH80,深坑,2023-02-25,25.002703,121.628328,1.9839595e-08
467990,馬祖,2023-02-25,26.169269,119.923419,4.1927507e-07
C0A970,三貂角,2023-02-25,25.007606,122.002058,1.1799654e-08
C0K430,褒忠,2023-02-25,23.690938,120.303634,6.206795e-09
467480,嘉義,2023-02-25,23.495925,120.432906,5.0421733e-09
C2E540,後龍,2023-02-25,24.606489,120.783933,4.069516e-06
C0V400,阿公店,2023-02-25,22.804194,120.355528,2.7037593e-06
C0R440,大漢山,2023-02-25,22.405264,120.753181,5.236447e-08
C0K280,四湖,2023-02-25,23.630414,120.227125,1.0650841e-06
C1F9B1,桐林,2023-02-25,24.066172,120.735194,3.514099e-10
C0K390,土庫,2023-02-25,23.679029,120.395574,2.4407902e-09
C1I450,望鄉山,2023-02-25,23.594153,120.944286,1.1242892e-08
C0E910,海埔,2023-02-25,24.648767,120.772435,5.4687916e-06
B2E890,畜試北區分所,2023-02-25,24.527806,120.770972,6.050746e-09
C0R750,四林格山,2023-02-25,22.076989,120.802439,0.010135496
C0F0C0,中坑,2023-02-25,24.248517,120.903319,1.3507943e-09
C1I121,大鞍,2023-02-25,23.678381,120.760017,1.0153059e-08
72U480,花改蘭陽分場,2023-02-25,24.686306,121.716583,2.592604e-09
C0A770,科教館,2023-02-25,25.096356,121.516507,2.4804722e-08
C0AJ60,六塊厝,2023-02-25,25.24,121.4481,9.478929e-07
C0R620,墾雷,2023-02-25,21.900836,120.855269,0.9771689
467420,永康,2023-02-25,23.038386,120.2367,2.935118e-08
467300,東吉島,2023-02-25,23.25695,119.667467,0.99052715
C0I410,名間,2023-02-25,23.837053,120.701447,5.6860233e-10
A2C560,農工中心,2023-02-25,24.985917,121.239833,1.0400781e-06
C0V740,旗山,2023-02-25,22.888614,120.483597,9.364131e-08
C0Z061,玉里,2023-02-25,23.3215,121.339656,2.6628222e-09
C0S840,南田,2023-02-25,22.279725,120.889208,0.9953451
C1I470,杉林溪,2023-02-25,23.639517,120.786444,1.1845791e-08
C1X040,東原,2023-02-25,23.291597,120.463822,4.1420264e-10
C0R660,枋寮,2023-02-25,22.367722,120.590647,0.9524803
C1R120,上德文,2023-02-25,22.763272,120.704442,2.1096864e-09
C0K450,大埤,2023-02-25,23.646074,120.431537,1.3032055e-09
C0UA00,土場,2023-02-25,24.576533,121.495333,8.938331e-09
467080,宜蘭,2023-02-25,24.763975,121.756528,6.075784e-09
C0N030,四草,2023-02-25,23.0235,120.1116,2.2242656e-08
C0V650,彌陀,2023-02-25,22.783806,120.246361,6.216679e-08
C0D660,新竹市東區,2023-02-25,24.798681,120.986942,1.4826749e-06
82S580,茶改東部分場,2023-02-25,22.907694,121.130139,2.0750148e-09
C0C710,大溪永福,2023-02-25,24.892936,121.324975,5.3443728e-08
C0FA20,溫寮,2023-02-25,24.372177,120.583125,1.6138237e-06
C0V640,湖內,2023-02-25,22.887139,120.2445,2.8738384e-08
C0R910,下寮,2023-02-25,22.3929,120.5548,0.9524803
C0Z020,明里,2023-02-25,23.208717,121.262342,4.526193e-09
C0M770,嘉義梅山,2023-02-25,23.585398,120.555587,1.424507e-09
G2F820,農業試驗所,2023-02-25,24.031261,120.688133,3.4606146e-10
C0C660,楊梅,2023-02-25,24.912375,121.143047,3.8304495e-07
C1E511,新開,2023-02-25,24.347703,120.827019,7.749077e-10
G2F820,農試所(霧峰),2023-02-25,24.031261,120.688133,3.4606146e-10
C1I070,和社,2023-02-25,23.591131,120.888861,4.6070827e-09
C2F000,大肚,2023-02-25,24.15295,120.572117,5.3830795e-10
C1S850,豐南,2023-02-25,23.122139,121.262389,3.7043737e-09
C2A920,富貴角,2023-02-25,25.263783,121.565258,2.8480886e-07
CAH030,茶改場竹圍站,2023-02-25,23.860083,120.637528,4.2130277e-10
C0T960,光復,2023-02-25,23.660694,121.424964,2.5116207e-09
C0F9M0,豐原,2023-02-25,24.254322,120.720692,5.4642435e-10
C0R720,旭海,2023-02-25,22.205403,120.887614,0.9992811
C0V710,苓雅,2023-02-25,22.622742,120.330669,1.1244011e-07
C0C740,觀音工業區,2023-02-25,25.064764,121.114856,0.08076186
CAC040,拉拉山,2023-02-25,24.699317,121.427133,3.9482096e-08
C0V790,萬山,2023-02-25,22.905944,120.688056,8.5839436e-10
U2HA30,臺大和社,2023-02-25,23.590856,120.888864,4.6070827e-09
C0AJ90,澳底,2023-02-25,25.0552,121.9253,6.106877e-08
C0Z100,東華,2023-02-25,23.89525,121.549833,2.734155e-09
C0G970,三豐,2023-02-25,23.882,120.2895,1.3569969e-05
V2K610,大庄合作社,2023-02-25,23.8068,120.367939,7.600519e-09
C0V900,汕尾,2023-02-25,22.4782,120.4151,6.1242517e-10
C1R630,龍泉,2023-02-25,22.66701,120.59091,1.1459058e-09
C1AC50,關渡,2023-02-25,25.133486,121.469331,3.206818e-08
C0F9I0,神岡,2023-02-25,24.272481,120.658314,1.2226894e-09
C0K460,斗南,2023-02-25,23.678734,120.478359,1.255223e-09
467410,臺南,2023-02-25,22.993239,120.204772,1.8277824e-08
C2O810,曾文,2023-02-25,23.219681,120.497328,1.0874576e-09
467280,後龍,2023-02-25,24.648563,120.831834,3.0385381e-06
C1F9J1,清水林,2023-02-25,24.071242,120.820419,6.410343e-10
C2A650,火燒寮,2023-02-25,25.002719,121.742892,1.2694773e-08
466930,竹子湖,2023-02-25,25.162078,121.544547,1.9689821e-08
C1I220,樟湖,2023-02-25,23.905333,120.846983,2.3613311e-09
C0I390,仁愛,2023-02-25,24.022122,121.132206,1.2029324e-09
C0Z300,東里,2023-02-25,23.26853,121.30547,4.2473367e-09
C0V310,美濃,2023-02-25,22.898742,120.519153,1.09512875e-07
C1V590,新發,2023-02-25,23.057019,120.646064,1.5689884e-09
C0K510,水林,2023-02-25,23.572924,120.24597,3.997446e-09
72S590,東改賓朗果園,2023-02-25,22.813889,121.071278,4.3253787e-09
82A750,茶改北部分場,2023-02-25,24.955778,121.631222,3.2886e-08
C1A750,石碇服務區,2023-02-25,25.00872,121.646242,1.5343225e-08
C0X300,鹿寮,2023-02-25,23.386047,120.477331,1.1750911e-09
G2AI50,關渡,2023-02-25,25.11575,121.492,4.778505e-07
C0K590,雲林東勢,2023-02-25,23.674192,120.255721,4.2624317e-09
C0A570,桶後,2023-02-25,24.848222,121.597992,1.0507248e-08
C1S800,華源,2023-02-25,22.657883,121.02325,1.5254983e-08
C0G720,溪州,2023-02-25,23.851589,120.499093,3.9072146e-09
C1V160,達卡努瓦,2023-02-25,23.279811,120.705319,2.3662274e-09
C2M410,馬頭山,2023-02-25,23.324361,120.582017,4.2680265e-10
C0V850,蚵仔寮,2023-02-25,22.7256,120.2527,1.6695566e-06
C0S740,池上,2023-02-25,23.119628,121.209469,1.2668069e-08
C1V390,尖山,2023-02-25,22.813153,120.367789,1.2677058e-06
C0AH70,松山,2023-02-25,25.04871,121.55042,2.477602e-08
C0N010,鯤鯓國小,2023-02-25,23.1879,120.0889,9.156495e-09
C0R550,新埤,2023-02-25,22.467947,120.582894,5.932636e-10
C0SA60,知本（水試所）,2023-02-25,22.702394,121.082761,2.0148834e-08
C0T9I0,豐濱,2023-02-25,23.583897,121.514806,2.3578748e-09
C0UB00,淡江大學蘭陽校園,2023-02-25,24.823239,121.730383,1.1174288e-08
C0T9N0,富里,2023-02-25,23.171639,121.249378,9.839143e-09
U2HA50,臺大竹山,2023-02-25,23.756972,120.681556,2.83813e-09
C0V840,鳳鼻頭,2023-02-25,22.5083,120.3591,1.4658315e-09
C0X140,西港,2023-02-25,23.125608,120.203108,1.2811775e-08
72D080,桃改五峰分場,2023-02-25,24.612194,121.157167,5.391734e-09
C0V530,阿蓮,2023-02-25,22.883208,120.327508,9.196738e-08
C1O880,關山,2023-02-25,23.173397,120.594092,7.221763e-10
C0E791,卓蘭,2023-02-25,24.3126,120.8244,6.284845e-10
C1I030,武界,2023-02-25,23.913225,121.052483,1.5065923e-09
C0R520,崁頂,2023-02-25,22.514781,120.506914,1.7205068e-09
C0R341,牡丹,2023-02-25,22.130036,120.792639,0.99965805
C0R930,萬丹,2023-02-25,22.5885,120.4851,3.1780655e-08
C0S760,紅石,2023-02-25,23.069131,121.126219,1.7071415e-08
C1M610,石磐龍,2023-02-25,23.496606,120.663506,1.9166022e-09
C0UA10,鴛鴦湖,2023-02-25,24.590269,121.412228,1.789738e-08
V2C260,八德蔬果,2023-02-25,24.978508,121.281819,1.5341548e-07
C0R800,丹路,2023-02-25,22.204481,120.750989,0.99916905
C0G920,永靖,2023-02-25,23.924703,120.547533,3.2853504e-09
C1A630,下盆,2023-02-25,24.771003,121.538622,9.262662e-09
B2N890,畜產試驗所,2023-02-25,23.058972,120.336406,8.843536e-09
C0UA30,白嶺,2023-02-25,24.527819,121.519031,1.8313662e-08
C1V580,溪南(特生中心),2023-02-25,23.084972,120.788475,4.122852e-09
C1T970,大農,2023-02-25,23.615233,121.413331,2.5087288e-09
E2S960,林試太麻里2,2023-02-25,22.598014,120.989761,3.000244e-08
C0R650,竹田,2023-02-25,22.58486,120.54344,3.2707013e-09
C1H900,清流,2023-02-25,24.080775,120.962997,7.5948925e-10
C1C510,水尾,2023-02-25,24.940081,121.087161,0.000101696154
C0F9X0,大雅(中科園區),2023-02-25,24.21528,120.62445,1.5151193e-09
C0O970,虎頭埤,2023-02-25,23.021375,120.347878,2.1463544e-08
C0C730,中大臨海站,2023-02-25,24.966126,121.008581,0.007356656
C0X250,新營,2023-02-25,23.310689,120.316681,6.5169594e-09
C0V700,三民,2023-02-25,22.645017,120.311233,4.3425665e-08
C0U870,大礁溪,2023-02-25,24.791042,121.675047,8.764228e-09
C0E870,高鐵苗栗,2023-02-25,24.60725,120.826094,4.260079e-06
A2K570,古坑花卉中心,2023-02-25,23.63353,120.55239,1.8532285e-09
C0M860,新美,2023-02-25,23.338017,120.683169,5.47359e-10
C1E701,八卦,2023-02-25,24.491756,120.927619,3.907982e-09
C0I420,國姓,2023-02-25,24.037803,120.855072,4.805431e-10
C0S960,香蘭,2023-02-25,22.587569,120.993375,3.000244e-08
C0R260,春日,2023-02-25,22.370361,120.628306,0.844909
72G600,臺中農改場,2023-02-25,24.003028,120.534389,2.5466225e-09
C0Z210,瑞穗,2023-02-25,23.5239,121.39021,1.8315643e-09
C0M820,達邦,2023-02-25,23.453994,120.749517,1.0205047e-09
C0V860,南寮,2023-02-25,22.7616,120.2339,1.6695566e-06
C0G740,大城,2023-02-25,23.852487,120.320935,1.1676366e-05
C0R920,塭仔,2023-02-25,22.4169,120.5197,0.9579761
C0R470,高樹,2023-02-25,22.826389,120.600806,2.508394e-09
C0R680,佳樂水,2023-02-25,21.993578,120.861633,0.15613453
C1O870,大棟山,2023-02-25,23.31157,120.52226,1.5622307e-09
C0D360,梅花,2023-02-25,24.678347,121.208558,5.8751755e-09
C0Z190,富世,2023-02-25,24.14743,121.6297,1.2495956e-08
C0AI10,屈尺,2023-02-25,24.92184,121.54475,2.310833e-08
B2U990,畜試東區分所,2023-02-25,24.669039,121.832561,2.5935436e-09
C0R240,來義,2023-02-25,22.527306,120.625111,1.3365143e-09
C1R610,西大武山,2023-02-25,22.617719,120.7322,4.331878e-08
C0G900,線西,2023-02-25,24.143358,120.443536,1.0655068e-06
C0M700,竹崎,2023-02-25,23.526178,120.555508,1.6669109e-09
C2E880,三義,2023-02-25,24.405478,120.749819,1.2774144e-09
C0C720,竹圍,2023-02-25,25.112692,121.239824,4.766221e-07
C0F9P0,清水,2023-02-25,24.312297,120.562242,5.188235e-07
C0Z150,吉安光華,2023-02-25,23.930925,121.595153,4.6259347e-09
C1D640,外坪(五指山),2023-02-25,24.644447,121.090961,2.6904055e-09
C0F9O0,潭子,2023-02-25,24.213106,120.703933,4.9295135e-10
72T250,花蓮農改場,2023-02-25,23.975222,121.563889,9.8857e-09
C0E780,銅鑼,2023-02-25,24.489681,120.790853,5.5026717e-09
C1T950,太安,2023-02-25,23.666719,121.370128,2.575478e-08
C0E830,苑裡,2023-02-25,24.439714,120.653053,3.0706806e-06
467270,田中,2023-02-25,23.873803,120.581286,7.9550083e-10
C0SA10,檳榔四格山,2023-02-25,22.810031,121.109308,4.6381e-09
C1T830,布洛灣,2023-02-25,24.17184,121.57127,2.12711e-08
C0F970,大坑,2023-02-25,24.173142,120.722289,4.7535964e-10
C1U920,思源,2023-02-25,24.393125,121.347214,1.7661392e-08
C0A931,三和,2023-02-25,25.233153,121.595236,3.351633e-08
C0I010,廬山,2023-02-25,24.033311,121.181808,2.409186e-09
C0R860,鼻頭,2023-02-25,22.1043,120.8979,0.9993994
C0UB20,壯圍,2023-02-25,24.7359,121.8163,2.4837992e-09
C0R790,九棚,2023-02-25,22.14195,120.889281,0.99974614
C0W110,東莒,2023-02-25,25.9652,119.98069,5.1806313e-07
C1U930,粉鳥林,2023-02-25,24.497088,121.842479,6.7966166e-09
C1I211,蘆竹湳,2023-02-25,23.934019,120.811994,5.209743e-10
C0S830,長濱,2023-02-25,23.286817,121.411975,3.0393046e-09
C1F9F1,伯公龍,2023-02-25,24.272392,120.849047,6.683588e-10
C0E810,西湖,2023-02-25,24.562947,120.7485,0.6692723
C1I440,新高口,2023-02-25,23.478744,120.878939,5.366485e-09
C0O840,王爺宮,2023-02-25,23.222064,120.40085,1.2188661e-09
C0T9G0,鳳林山,2023-02-25,23.735269,121.420131,5.188326e-09
C0X080,佳里,2023-02-25,23.173039,120.145086,9.156495e-09
C0Z310,清水斷崖,2023-02-25,24.218294,121.689142,1.880996e-08
C0M680,太保,2023-02-25,23.455062,120.331455,2.4270674e-09
C1S820,金峰,2023-02-25,22.590969,120.933236,1.7768807e-08
C0AD10,八里,2023-02-25,25.150211,121.403947,4.766221e-07
C2K240,草嶺,2023-02-25,23.59555,120.693461,2.4139328e-09
C1SA70,都蘭,2023-02-25,22.87794,121.226881,2.1501068e-09
C0K440,二崙,2023-02-25,23.772797,120.408944,1.8248274e-09
C1A760,坪林交控,2023-02-25,24.94284,121.713442,1.12709975e-08
C0F9N0,大里,2023-02-25,24.092464,120.701378,3.3277991e-10
C0SA90,達仁林場,2023-02-25,22.264347,120.823972,0.76898986
C1R290,石門山,2023-02-25,22.112611,120.756597,0.99776953
42HA10,萬大發電廠,2023-02-25,23.978875,121.139639,1.4270061e-09
C0R890,山海,2023-02-25,21.9878,120.7091,0.13673574
C0T9A0,月眉山,2023-02-25,23.809928,121.539828,3.956553e-09
C0AC70,信義,2023-02-25,25.037822,121.564597,2.477602e-08
C0K560,棋山,2023-02-25,23.68645,120.603417,1.8181847e-09
C1Z240,中平林道,2023-02-25,23.42115,121.26763,2.466545e-08
U2H480,溪頭,2023-02-25,23.670306,120.798194,2.6944726e-09
C0M880,好美里,2023-02-25,23.3364,120.138,7.5021624e-09
C0T9E0,大坑,2023-02-25,23.880628,121.581981,4.769365e-09
C0K530,臺西,2023-02-25,23.701547,120.197559,1.4849743e-06
C1E900,國一N128K,2023-02-25,24.560997,120.844186,3.0381297e-08
C0AJ50,水湳洞,2023-02-25,25.123695,121.862238,6.981459e-08
C0AI20,白沙灣,2023-02-25,25.283128,121.519058,8.3093823e-07
C0A860,大坪,2023-02-25,25.165914,121.632969,1.7862014e-08
C1U850,觀音海岸,2023-02-25,24.38319,121.77856,9.207247e-09
C0U950,鶯子嶺,2023-02-25,24.89754,121.79244,2.790567e-08
C0O900,善化,2023-02-25,23.112883,120.297219,1.1392334e-08
C0K550,蔦松,2023-02-25,23.514319,120.229736,5.0929656e-09
E2P980,林試六龜中心,2023-02-25,22.991703,120.645722,9.453494e-10
C0E590,通霄,2023-02-25,24.471892,120.704622,0.00012032759
C1I310,西巒,2023-02-25,23.754486,120.883956,4.0838994e-09
C0A550,泰平,2023-02-25,24.971197,121.823711,2.610767e-08
C0I360,水里,2023-02-25,23.812553,120.849792,6.643718e-10
C0R830,高士,2023-02-25,22.121825,120.836781,0.9634518
C1I101,溪頭,2023-02-25,23.661789,120.807647,9.670116e-09
C0AJ20,野柳,2023-02-25,25.20703,121.690021,3.8900094e-08
C0B060,暖暖,2023-02-25,25.0957,121.7403,1.741878e-08
C1H920,長豐,2023-02-25,24.102039,120.879897,5.5924376e-10
C0V360,內門,2023-02-25,22.975481,120.466769,1.7857247e-06
C0R850,林邊,2023-02-25,22.4634,120.5339,6.0519206e-10
C0E930,龍鳳,2023-02-25,24.700034,120.859125,0.062394105
C0U910,冬山,2023-02-25,24.63373,121.7937,2.5935436e-09
C1E721,泰安,2023-02-25,24.489017,120.968036,5.970588e-09
82H320,茶改中部分場,2023-02-25,23.875611,120.913583,1.507929e-09
C0M750,布袋,2023-02-25,23.380878,120.167789,2.8333917e-09
C1S860,利嘉,2023-02-25,22.809417,121.050528,7.44449e-09
72C440,桃園農改,2023-02-25,24.950944,121.030583,0.00031408953
E2S980,林試太麻里1,2023-02-25,22.598922,120.980044,2.3558169e-08
C0X170,關廟,2023-02-25,22.963017,120.327797,5.459915e-08
C0V720,林園,2023-02-25,22.507747,120.394511,1.4209575e-09
C1I510,線浸林道,2023-02-25,23.761508,120.832956,3.3650056e-09
C0D690,外湖,2023-02-25,24.917735,120.968711,0.00085064716
C0C750,新興坑尾,2023-02-25,25.0061,121.0971,0.0014523559
B2Q810,畜試南區分所,2023-02-25,21.945583,120.802167,0.15266944
C0S790,金崙,2023-02-25,22.538122,120.966875,5.8063982e-08
C0AH90,福山植物園,2023-02-25,24.760717,121.58135,2.1361931e-08
C0I540,奇萊稜線,2023-02-25,24.109231,121.326456,2.6850087e-08
C0M850,表湖,2023-02-25,23.24186,120.64166,1.1369601e-09
C0S770,大溪山,2023-02-25,22.478475,120.943325,1.8911915e-07
C0AG80,中和,2023-02-25,24.991622,121.491792,1.9611488e-08
C0T790,大禹嶺,2023-02-25,24.186117,121.316086,1.0215705e-08
C0T9B0,水源,2023-02-25,23.991861,121.537169,9.426814e-09
C0R840,牡丹池山,2023-02-25,22.168389,120.841225,0.992788
C1I131,桶頭,2023-02-25,23.641944,120.654117,1.734732e-09
CAL110,布袋國中,2023-02-25,23.35893,120.18026,2.8333917e-09
467571,新竹,2023-02-25,24.827853,121.014219,9.062429e-05
C0Z290,赤柯山,2023-02-25,23.36893,121.38293,1.3803405e-08
C0X280,將軍,2023-02-25,23.214999,120.13577,1.0537734e-08
C0S690,太麻里,2023-02-25,22.60902,120.98533,1.2467222e-08
C0U880,北關,2023-02-25,24.9072,121.8734,1.060421e-08
C1H860,瑞岩,2023-02-25,24.123772,121.18345,6.9449326e-09
C0G810,埔心,2023-02-25,23.947633,120.525456,3.2853504e-09
C0U970,大福,2023-02-25,24.80064,121.81389,6.044206e-09
C1E670,南礦,2023-02-25,24.538278,121.002836,6.388753e-09
C0M520,東後寮,2023-02-25,23.369908,120.248065,2.6489877e-09
C1E461,松安,2023-02-25,24.397972,120.986022,5.35149e-09
72G600,臺中農改,2023-02-25,24.003028,120.534389,2.5466225e-09
C2N160,西拉雅風管處,2023-02-25,23.189481,120.335297,1.0627758e-08
C0A640,石碇,2023-02-25,24.993969,121.662917,1.4590958e-08
E2S960,林試太麻里2,2023-02-25,22.598,120.99775,3.130955e-08
C0F9Y0,桃山,2023-02-25,24.432739,121.303808,1.1842493e-08
C1I020,萬大,2023-02-25,23.979817,121.132261,1.2180899e-09
C0U940,羅東,2023-02-25,24.68184,121.74934,2.5427493e-09
C0M650,朴子,2023-02-25,23.43463,120.23902,1.5109693e-09
C1I500,大尖山,2023-02-25,23.858572,120.994889,6.090484e-09
C0G820,田尾,2023-02-25,23.901669,120.509389,3.2853504e-09
E2K600,四湖植物園,2023-02-25,23.676986,120.163433,1.0650841e-06
C0S730,綠島,2023-02-25,22.6672,121.47533,0.9702966
12Q970,東港工作站,2023-02-25,22.479997,120.466058,6.1242517e-10
C0E430,南庄,2023-02-25,24.601775,121.000214,3.162849e-09
C1TA00,太魯閣,2023-02-25,24.15773,121.6236,1.2763823e-08
466920,臺北,2023-02-25,25.037658,121.514853,2.477602e-08
C0R600,舊泰武,2023-02-25,22.588194,120.664944,9.2043456e-10
C1I260,北坑,2023-02-25,23.9246,121.006903,5.5340454e-10
466910,鞍部,2023-02-25,25.182586,121.529731,3.3072507e-08
C1I230,九份二山,2023-02-25,23.961944,120.845,1.2930121e-09
C2A660,瑞芳,2023-02-25,25.113169,121.801147,5.205497e-08
C0R270,琉球嶼,2023-02-25,22.332244,120.362236,7.3566747e-10
C1T990,高寮,2023-02-25,23.394239,121.356808,1.4637332e-09
C0G620,芬園,2023-02-25,24.015678,120.6213,3.6070455e-10
C1Z140,荖溪,2023-02-25,23.890575,121.45964,1.9047919e-08
C1I201,中心崙,2023-02-25,23.728722,120.712097,6.918751e-10
C1I400,凌霄,2023-02-25,24.018778,121.004456,1.9404376e-09
C1M640,十字,2023-02-25,23.492153,120.753683,7.165416e-09
G2P820,農試鳳山分所,2023-02-25,22.646611,120.356083,3.379267e-08
C0Z270,蕃薯寮,2023-02-25,23.73835,121.540108,3.546793e-09
C0F9Q0,外埔,2023-02-25,24.347817,120.705686,1.5941706e-09
C0K580,高鐵雲林,2023-02-25,23.737456,120.417944,1.9672168e-09
C2I090,鳳凰,2023-02-25,23.728081,120.787347,1.3482563e-09
C0U990,員山,2023-02-25,24.74435,121.72247,2.529418e-09
C0V770,大社,2023-02-25,22.730306,120.346639,8.494865e-07
C0X120,麻豆,2023-02-25,23.183289,120.248611,1.5358392e-08
C0C670,龍潭,2023-02-25,24.870056,121.221389,5.242923e-08
C0D680,香山濕地,2023-02-25,24.783581,120.914988,3.3378642e-06
C0S980,勝林山,2023-02-25,22.430439,120.8938,2.2013778e-07
C0V730,大寮,2023-02-25,22.605614,120.395717,8.781047e-08
C0R570,麟洛,2023-02-25,22.65078,120.52719,2.8217332e-08
CAG100,王功漁港,2023-02-25,23.96824,120.32586,0.0021780957
C0X290,北門,2023-02-25,23.267772,120.125481,1.0537734e-08
C2F930,大甲,2023-02-25,24.347667,120.640403,5.7624374e-07
C0D650,湖口,2023-02-25,24.904794,121.043628,0.0001166225
C0E420,竹南,2023-02-25,24.708978,120.888897,0.010752987
C0U780,五結,2023-02-25,24.68637,121.79794,2.482918e-09
C1I250,鯉潭,2023-02-25,23.961922,120.991131,1.0584604e-09
C0R130,阿禮,2023-02-25,22.742908,120.743678,2.7087514e-09
C0X100,臺南市北區,2023-02-25,23.010394,120.194228,2.0946917e-08
C0S920,金峰嘉蘭,2023-02-25,22.594789,120.960825,2.3097094e-08
C0V490,新興,2023-02-25,22.627422,120.298803,1.12004955e-07
C0F9K0,大安,2023-02-25,24.345061,120.588025,1.3174601e-06
72N100,臺南農改,2023-02-25,23.0605,120.342194,8.843536e-09
467290,古坑,2023-02-25,23.633639,120.551889,1.8532285e-09
C0V440,鳳山,2023-02-25,22.646653,120.356122,3.379267e-08
C1T940,大觀,2023-02-25,23.714206,121.373133,4.558735e-09
72T250,花蓮農改,2023-02-25,23.975222,121.563889,9.8857e-09
C0E740,造橋,2023-02-25,24.637056,120.864778,3.7743305e-06
C0R100,尾寮山,2023-02-25,22.833111,120.683889,2.3722828e-09
A2K630,臺大雲林校區,2023-02-25,23.730628,120.423903,1.9672168e-09
C0D580,寶山,2023-02-25,24.735006,121.025192,2.807179e-09
E2P990,林試扇平站,2023-02-25,22.9677,120.6857,1.2805711e-09
C0AI30,三重,2023-02-25,25.057328,121.500629,2.4804674e-08
C0AH00,汐止,2023-02-25,25.066881,121.658778,2.477602e-08
C1Z040,立山,2023-02-25,23.443356,121.327375,9.88472e-09
C0R740,獅子,2023-02-25,22.201569,120.70525,0.9988428
C0W130,花嶼,2023-02-25,23.40007,119.32276,0.99327505
C0A950,鼻頭角,2023-02-25,25.129036,121.923372,0.00012984574
C0K470,林內,2023-02-25,23.748675,120.609642,3.09776e-09
82C160,茶改場,2023-02-25,24.908472,121.185333,2.8100715e-07
C0Z320,清水林道,2023-02-25,23.27125,121.188272,1.2527696e-08
C0R760,南仁湖,2023-02-25,22.084681,120.863353,0.99774235
C0M670,大林,2023-02-25,23.600616,120.45841,3.1974228e-09
C0M800,茶山,2023-02-25,23.299075,120.664767,4.5234808e-10
C0A9C0,天母,2023-02-25,25.117494,121.537169,3.57685e-08
72K220,南改斗南分場,2023-02-25,23.634556,120.477333,1.255223e-09
72AI40,桃改樹林分場,2023-02-25,24.944503,121.386972,2.831868e-07
C0S910,蘭嶼燈塔,2023-02-25,22.081197,121.503117,0.98484
C0B050,八斗子,2023-02-25,25.144754,121.79167,7.4419376e-08
C0U900,內城,2023-02-25,24.71813,121.68766,2.6516669e-09
C0X320,柳營,2023-02-25,23.253328,120.375253,2.7069746e-09
C0M790,新港,2023-02-25,23.553269,120.345728,3.6541912e-09
C0F9T0,西屯,2023-02-25,24.179494,120.641275,4.404569e-09
C0SA30,都歷,2023-02-25,23.020333,121.323642,1.8382454e-09
C0C620,蘆竹,2023-02-25,25.084275,121.265767,1.5841975e-05
C0R730,大坪頂,2023-02-25,22.024633,120.69355,0.99963105
C0AJ40,石門,2023-02-25,25.273672,121.601198,3.6715582e-07
C0E750,苗栗,2023-02-25,24.564569,120.824575,3.2915054e-08
C0T870,鯉魚潭,2023-02-25,23.935639,121.508944,4.988518e-09
C1V170,排雲,2023-02-25,23.463619,120.954147,1.5736617e-08
C2H950,中寮,2023-02-25,23.884447,120.766406,5.7944993e-10
C0R350,貓鼻頭,2023-02-25,21.921774,120.7358,0.87615216
C0V660,岡山,2023-02-25,22.797078,120.294958,6.783242e-08
C1H941,雙冬,2023-02-25,23.967378,120.802189,5.6742033e-10
C0AJ70,田寮,2023-02-25,25.2698,121.4886,8.856948e-07
C0AI00,五股,2023-02-25,25.07445,121.42728,1.5383641e-07
C0Z280,德武,2023-02-25,23.47426,121.41071,1.6015246e-09
C0R700,枋山,2023-02-25,22.246844,120.661086,0.9948283
C0C460,復興,2023-02-25,24.820208,121.352281,5.0751737e-08
E2H360,蓮華池,2023-02-25,23.918333,120.885278,6.358213e-10
C0M640,中埔,2023-02-25,23.42538,120.5229,1.959454e-09
C0W140,金沙,2023-02-25,24.488292,118.408778,3.1363368e-06
C2A540,四堵,2023-02-25,24.8926,121.745736,1.2391029e-08
C0ACA0,新莊,2023-02-25,25.051478,121.446756,8.3896005e-08
C0R220,潮州,2023-02-25,22.534361,120.54,1.6328003e-09
U2HA40,臺大內茅埔,2023-02-25,23.689722,120.851117,9.572849e-10
467490,臺中,2023-02-25,24.145736,120.684075,4.7038645e-10
C0U960,翠峰湖,2023-02-25,24.510856,121.608044,2.643311e-08
E2HA20,林試畢祿溪站,2023-02-25,24.226944,121.308522,9.533405e-09
C0V890,前鎮,2023-02-25,22.5718,120.3117,1.4685571e-07
467620,蘭嶼,2023-02-25,22.036969,121.558339,0.9908622
C1F941,雪嶺,2023-02-25,24.280586,121.026642,1.2793705e-08
C0AC80,文山,2023-02-25,25.00235,121.575728,1.9839595e-08
C0F9R0,龍井,2023-02-25,24.184536,120.528972,1.1848128e-06
C0M760,民雄,2023-02-25,23.551754,120.428457,3.4236145e-09
C0UA40,西德山,2023-02-25,24.560647,121.752608,1.611988e-08
C1T920,中興,2023-02-25,23.769503,121.498653,2.0177051e-09
C0D550,雪霸,2023-02-25,24.526972,121.11605,6.4047483e-09
C2F860,梨山,2023-02-25,24.247522,121.243669,9.83087e-09
C0R320,車城,2023-02-25,22.0744,120.716247,0.99996287
C1S870,南美山,2023-02-25,23.15025,121.382333,9.842334e-09
C0B020,基隆嶼,2023-02-25,25.19141,121.78391,8.8825946e-05
C1U501,牛鬥,2023-02-25,24.637836,121.573656,6.1104743e-09
C0M730,嘉義市東區,2023-02-25,23.457673,120.460531,2.27828e-09
C0S700,知本,2023-02-25,22.684866,121.005642,1.1659959e-08
C1N001,沙崙,2023-02-25,22.935472,120.309406,6.8266445e-08
C0V760,橋頭,2023-02-25,22.757806,120.30575,1.4597076e-06
C0G960,福寶,2023-02-25,24.0443,120.3814,6.752409e-07
C0X210,白河,2023-02-25,23.347466,120.414427,1.249371e-09
C0S810,東河,2023-02-25,22.972672,121.303986,1.07186175e-07
C0R670,楓港,2023-02-25,22.190131,120.692156,0.9999459
C0FA50,霧峰,2023-02-25,24.0419,120.6995,3.519418e-10
C0UB10,蘇澳,2023-02-25,24.5969,121.8571,4.717335e-09
C0G950,防潮門,2023-02-25,24.1835,120.4871,1.1880239e-06
C0M740,六腳,2023-02-25,23.492871,120.290625,2.606462e-09
C1R250,力里,2023-02-25,22.428117,120.629228,3.6352668e-10
C0K330,虎尾,2023-02-25,23.719183,120.442036,1.8685404e-09
C2FA00,烏石坑,2023-02-25,24.273503,120.947617,1.9589943e-09
C0V620,永安,2023-02-25,22.82315,120.236856,6.216679e-08
C1I330,楓樹林,2023-02-25,23.986803,121.076117,1.4674931e-09
C0W200,湖西,2023-02-25,23.596314,119.67275,0.9821102
72Q010,高雄農改場,2023-02-25,22.709333,120.525889,2.1332289e-08
C0SA40,瑞和,2023-02-25,22.974361,121.156697,1.4855563e-09
C0C680,龜山,2023-02-25,25.02846,121.38656,1.17872304e-07
C2V260,月眉,2023-02-25,22.971003,120.539853,1.2476761e-08
C0V450,鳳森,2023-02-25,22.545064,120.392592,1.2281915e-09
C0U720,南山,2023-02-25,24.43742,121.38167,1.0934564e-08
A2N290,臺南蘭花園區,2023-02-25,23.340258,120.379661,2.0412168e-09
C0R560,新園,2023-02-25,22.5434,120.461558,1.4209575e-09
C0U890,三星,2023-02-25,24.66812,121.65302,5.0897415e-09
C1V300,御油山,2023-02-25,23.001983,120.715364,5.079888e-09
C0U600,礁溪,2023-02-25,24.817539,121.765608,8.803415e-09
C1T980,龍澗,2023-02-25,24.023289,121.411328,2.7542553e-08
C0D670,海天一線,2023-02-25,24.831986,120.914438,0.8684781
C0SA00,歷坵,2023-02-25,22.520969,120.89185,2.6433058e-08
C0M710,東石,2023-02-25,23.458927,120.15385,7.075442e-09
C0M780,鹿草,2023-02-25,23.41134,120.30835,1.414797e-09
C0U520,雙連埤,2023-02-25,24.753033,121.641303,8.743791e-09
C0B010,七堵,2023-02-25,25.094819,121.71713,1.7978465e-08
C0R480,長治,2023-02-25,22.693128,120.542622,2.5409179e-08
C1V830,國三S383K,2023-02-25,22.781967,120.426475,4.1519577e-08
12Q980,恆春工作站,2023-02-25,22.079678,120.714425,0.99996287
C1O940,東山服務區,2023-02-25,23.286016,120.398472,1.6753033e-09
C1U840,東澳嶺,2023-02-25,24.5378,121.8485,1.14045955e-08
C1D630,飛鳳山,2023-02-25,24.766464,121.119178,1.3658551e-08
C0S940,石寧山,2023-02-25,23.223772,121.406639,4.1460044e-09
C0K410,北港,2023-02-25,23.573957,120.292802,3.8270187e-09
C2M620,瑞里,2023-02-25,23.545133,120.675197,2.413095e-09
C2O950,安南,2023-02-25,23.076694,120.144861,2.5952717e-08
C0F0E0,南湖圈谷,2023-02-25,24.363714,121.444667,4.0842366e-08
467610,成功,2023-02-25,23.097486,121.373428,2.0584125e-08
C0G890,伸港,2023-02-25,24.148933,120.484403,1.0655068e-06
C2E540,龍溪,2023-02-25,24.606489,120.783933,4.069516e-06
C1V200,梅山,2023-02-25,23.268447,120.823556,1.7635026e-09
C0T9H0,加路蘭山,2023-02-25,23.682947,121.5274,6.738749e-09
C2O930,玉井,2023-02-25,23.126042,120.46055,2.2081098e-08
C1F911,新伯公,2023-02-25,24.221361,120.841069,4.9713994e-10
C0R490,九如,2023-02-25,22.7405,120.490503,2.2687063e-08
C0X200,左鎮,2023-02-25,23.056758,120.408522,2.4781928e-08
C1F891,稍來,2023-02-25,24.265689,121.001142,1.0582671e-08
72N240,七股研究中心,2023-02-25,23.081672,120.062894,2.7412735e-08
C0C700,中壢,2023-02-25,24.977661,121.256375,1.3949816e-07
C0M690,水上,2023-02-25,23.419734,120.388909,2.3575868e-09
C0V690,鼓山,2023-02-25,22.623325,120.275575,1.1175294e-07
C0O860,大內,2023-02-25,23.11885,120.36083,9.329276e-09
C0Z200,萬榮,2023-02-25,23.709219,121.420106,2.7616447e-09
C0T9D0,和中,2023-02-25,24.26676,121.74103,2.5745006e-08
C1O921,楠西,2023-02-25,23.183511,120.484083,8.27121e-09
C0AJ30,淡水觀海,2023-02-25,25.184591,121.408616,9.3328204e-08
C0V810,左營,2023-02-25,22.67491,120.28491,4.3425665e-08
C0UA70,桃源谷,2023-02-25,24.962606,121.888875,2.681462e-08
C0X130,官田,2023-02-25,23.193217,120.315422,1.23277575e-08
C1H000,翠峰,2023-02-25,24.109397,121.205211,1.4702955e-08
C0UA90,石城,2023-02-25,24.980444,121.951214,1.17405445e-08
C1E681,南勢山,2023-02-25,24.421669,120.923831,3.3721181e-09
C0A9F0,內湖,2023-02-25,25.079422,121.57545,2.477602e-08
C0K291,宜梧,2023-02-25,23.536281,120.169329,5.0929656e-09
C1K540,口湖,2023-02-25,23.585344,120.180517,1.6806047e-06
C0R780,滿州,2023-02-25,22.024403,120.839892,0.9917567
C0V870,文安,2023-02-25,22.8025,120.2164,6.852749e-08
C0U650,玉蘭,2023-02-25,24.675286,121.587061,9.7792725e-09
C0R640,東港,2023-02-25,22.46247,120.44074,6.1242633e-10
K2E360,苗栗農改,2023-02-25,24.495722,120.829111,5.901456e-09
C0AJ80,板橋,2023-02-25,25.0107,121.4489,1.9693013e-08
C0S660,下馬,2023-02-25,23.150427,121.070312,9.504646e-09
C1H9B1,阿眉,2023-02-25,24.1263,120.994672,8.467162e-09
C0UA20,多加屯,2023-02-25,24.368614,121.373189,5.2743343e-09
C0E730,頭份,2023-02-25,24.688247,120.912206,0.016289156
72V140,高改旗南分場,2023-02-25,22.857861,120.516667,1.09512875e-07
C0K480,莿桐,2023-02-25,23.761192,120.502372,9.382556e-10
C0U980,坪林石牌,2023-02-25,24.86478,121.77396,1.3315635e-08
C0T900,西林,2023-02-25,23.8119,121.441458,2.3597237e-09
C1I150,青雲,2023-02-25,23.793361,120.949378,5.4099447e-10
467350,澎湖,2023-02-25,23.565503,119.563094,0.98675764
C0G800,埔鹽,2023-02-25,24.000394,120.431683,1.601766e-07
C0H960,草屯,2023-02-25,23.973672,120.68085,3.6063372e-10
C1V780,多納林道,2023-02-25,22.888028,120.737917,2.2152085e-09
C0E920,通霄漁港,2023-02-25,24.498589,120.673876,0.000656804
C0Z330,安通山,2023-02-25,23.290728,121.348528,4.1420445e-09
C0AH10,永和,2023-02-25,25.01125,121.508111,1.9689221e-08
C2G640,鹿港,2023-02-25,24.0753,120.430481,6.752409e-07
C1E890,國三N149K,2023-02-25,24.463414,120.680019,1.7834748e-06
C1R110,口社,2023-02-25,22.770111,120.645222,5.484856e-10
C1M870,國三N285K,2023-02-25,23.550319,120.505833,1.4787884e-09
467050,新屋,2023-02-25,25.006744,121.047486,0.004499078
C1E480,鳳美,2023-02-25,24.554803,121.034747,2.90885e-09
C0M530,奮起湖,2023-02-25,23.493903,120.699253,2.8276692e-09
C0C590,觀音,2023-02-25,25.027072,121.153317,0.011836588
C0T9M0,靜浦,2023-02-25,23.455167,121.495028,1.3118644e-09
C0AI40,石牌,2023-02-25,25.115597,121.513139,3.5885762e-08
C1F871,上谷關,2023-02-25,24.203483,121.018644,1.3946463e-09
C0G880,二水,2023-02-25,23.810742,120.6173,1.795618e-09
C0R940,加祿堂,2023-02-25,22.3363,120.6217,0.99881184
C0W220,北竿,2023-02-25,26.220358,119.974881,3.8020474e-07
C0O960,崎頂,2023-02-25,22.959547,120.369317,2.1591282e-08
C0S750,向陽,2023-02-25,23.248397,120.986133,8.4776985e-09
C0T9F0,水璉,2023-02-25,23.797131,121.542514,2.701899e-09
C1M600,頭凍,2023-02-25,23.406364,120.603339,2.8913427e-09
467660,臺東,2023-02-25,22.752211,121.154586,5.6770824e-07
C1D380,新埔,2023-02-25,24.84745,121.03834,1.4457922e-05
C0V750,路竹,2023-02-25,22.854997,120.259439,2.6708145e-08
C0N050,蚵寮,2023-02-25,23.301,120.1104,7.5021624e-09
72M700,南改鹿草分場,2023-02-25,23.416869,120.283061,1.5104766e-09
C1SA50,利嘉林道,2023-02-25,22.82325,121.009389,2.422915e-08
467550,玉山,2023-02-25,23.487614,120.959522,1.9132028e-08
C0A940,金山,2023-02-25,25.223628,121.643967,3.8128565e-08
C1V340,大津,2023-02-25,22.888322,120.645986,9.591656e-10
C0W180,七美,2023-02-25,23.219333,119.444892,0.99040365
C1F9C1,白冷,2023-02-25,24.182844,120.929889,6.726764e-10
K2E710,苗改生物防治研究中心,2023-02-25,24.422861,120.871833,8.5152424e-10
C0N040,蘆竹溝,2023-02-25,23.2344,120.0961,1.0537734e-08
C2W230,畜試所澎湖,2023-02-25,23.628342,119.513206,0.98033905
C0R880,後壁湖,2023-02-25,21.9457,120.7457,0.124906905
C1I280,埔中,2023-02-25,23.820778,120.642594,7.370804e-10
467790,墾丁雷達站,2023-02-25,21.948235,120.808028,0.17851858
C0W190,望安,2023-02-25,23.380564,119.494075,0.9827509
466881,新北,2023-02-25,24.9593,121.52,1.929297e-08
C0Z170,卓溪,2023-02-25,23.3443,121.3029,1.6474563e-09
C0F850,東勢,2023-02-25,24.246428,120.833047,6.1783034e-10
466900,淡水,2023-02-25,25.164889,121.448906,4.3014276e-07
C0I370,魚池,2023-02-25,23.895703,120.94135,6.374728e-10
C0C630,大溪,2023-02-25,24.882853,121.265547,5.7142962e-08
C0A520,山佳,2023-02-25,24.974944,121.402008,7.546296e-08
C0I110,竹山,2023-02-25,23.761225,120.688156,1.8040217e-09
82H840,茶改南部分場,2023-02-25,23.762528,120.7405,7.1678863e-10
C0G660,溪湖,2023-02-25,23.94835,120.479122,3.6593106e-09
C1T800,洛韶,2023-02-25,24.204558,121.453956,2.5822413e-08
C1T810,慈恩,2023-02-25,24.192044,121.388386,1.4776699e-08
C1E451,象鼻,2023-02-25,24.368617,120.940228,2.0795594e-09
C0AC60,三峽,2023-02-25,24.939025,121.369728,2.5594483e-07
C0I490,萬大林道,2023-02-25,23.928228,121.091411,3.077337e-09
C1I290,豐丘,2023-02-25,23.668178,120.887417,2.9155043e-09
C1I320,奧萬大,2023-02-25,23.952956,121.178556,1.6141439e-09
C0U770,南澳,2023-02-25,24.44935,121.81022,8.3084775e-09
C0A980,社子,2023-02-25,25.109508,121.469681,4.8773273e-07
C0V800,六龜,2023-02-25,22.997889,120.633583,9.664082e-10
C1G9D0,國一S218K,2023-02-25,23.890641,120.493253,4.231472e-09
C2F9A0,中竹林,2023-02-25,24.103556,120.751061,6.427434e-10
C0FA40,臺中電廠,2023-02-25,24.2146,120.4907,1.1848128e-06
C0H9C0,合歡山,2023-02-25,24.143442,121.272547,1.9256209e-08
C0X060,下營,2023-02-25,23.22695,120.256261,2.6986143e-08
G2M350,農試溪口農場,2023-02-25,23.58565,120.408111,3.529591e-09
C0U860,頭城,2023-02-25,24.85323,121.8308,8.83878e-09
C0R580,南州,2023-02-25,22.48591,120.50274,6.1242517e-10
C0D430,峨眉,2023-02-25,24.6905,121.017189,1.6482398e-08
C0G780,秀水,2023-02-25,24.03405,120.503869,2.5483329e-09
72N100,臺南農改場,2023-02-25,23.0605,120.342194,8.843536e-09
C0S900,蘭嶼高中,2023-02-25,22.04909,121.51214,0.9917798
467540,大武,2023-02-25,22.355675,120.903789,0.9980233
C1F9W0,德基,2023-02-25,24.254783,121.190261,8.472526e-09
C1Z120,壽豐,2023-02-25,23.870853,121.508081,2.734155e-09
C0W160,烏坵,2023-02-25,24.9944,119.44956,0.31235427
C1I240,外大坪,2023-02-25,23.958697,120.917931,1.0903923e-09
C1I550,國六W023K,2023-02-25,23.979067,120.867742,3.8813933e-10
C0R870,興海,2023-02-25,21.9752,120.8439,0.15271609
C0R140,瑪家,2023-02-25,22.682903,120.686639,1.4441439e-09
C0A530,坪林,2023-02-25,24.938183,121.70975,1.1727049e-08
C0X260,後壁,2023-02-25,23.366358,120.362326,2.0412168e-09
C0Z230,和平,2023-02-25,24.30717,121.77007,2.7349856e-08
C0G770,福興,2023-02-25,24.041289,120.437669,1.601766e-07
C0H9A0,神木村,2023-02-25,23.532742,120.843667,7.320817e-09
C0I460,南投,2023-02-25,23.911469,120.687331,3.0156166e-10
C0I480,梅峰,2023-02-25,24.085272,121.173572,5.040779e-09
C1V570,吉東,2023-02-25,22.85422,120.5454,9.003526e-08
C2A560,福山,2023-02-25,24.776203,121.502811,1.9461801e-08
C0AH30,五分山,2023-02-25,25.07125,121.780794,2.8663823e-08
C0FA10,松柏,2023-02-25,24.429115,120.617482,3.9869933e-06
72S200,東改班鳩分場,2023-02-25,22.829528,121.077694,4.701194e-09
72HA00,中改埔里分場,2023-02-25,23.903208,120.963364,5.9653715e-10
C0C650,平鎮,2023-02-25,24.897503,121.214636,1.2158975e-07
C0S930,延平,2023-02-25,22.902581,121.084058,2.066925e-09
C0UA60,樟樹山,2023-02-25,24.41393,121.78325,7.619447e-09
C1S670,摩天,2023-02-25,23.199503,121.027,1.9565904e-08
C0V630,茄萣,2023-02-25,22.906642,120.182608,3.209988e-08
466940,基隆,2023-02-25,25.133314,121.740475,7.2888305e-08
C0X050,東河,2023-02-25,23.296598,120.385608,1.7579882e-09
C0R770,保力,2023-02-25,22.071122,120.764111,0.99908346
G2L020,農試嘉義分所,2023-02-25,23.485028,120.473806,1.7929349e-09
C0X240,關子嶺,2023-02-25,23.331169,120.508025,4.4432966e-10
C0I380,集集,2023-02-25,23.828206,120.801467,6.6094524e-10
466990,花蓮,2023-02-25,23.975128,121.613275,9.865677e-09
C1V220,小關山,2023-02-25,23.154217,120.813603,4.7830846e-09
C1F9G1,慶福山,2023-02-25,24.180853,120.848378,6.872992e-10
C0Z250,瑞穗林道,2023-02-25,23.49284,121.30688,2.6726694e-08
C0D590,新豐,2023-02-25,24.87068,120.97721,0.033751473
C0A870,五指山,2023-02-25,25.132153,121.608692,1.9775294e-08
C0UA50,西帽山,2023-02-25,24.555361,121.802628,1.1673222e-08
C0X160,仁德,2023-02-25,22.968258,120.257689,1.7050873e-07
C1H971,六分寮,2023-02-25,23.92507,120.6378,4.9566856e-10
C0W120,西嶼,2023-02-25,23.5626,119.468436,0.98749715
C0G650,員林,2023-02-25,23.946503,120.585597,4.4447715e-10
C0AD50,鶯歌,2023-02-25,24.951533,121.346294,2.2230891e-07
C0S990,山豬窟,2023-02-25,22.318619,120.857372,0.60941166
72Q010,高雄農改,2023-02-25,22.709333,120.525889,2.1332289e-08
C0X190,安平,2023-02-25,22.993161,120.152181,2.0946917e-08
C0K400,斗六,2023-02-25,23.720583,120.541127,9.41777e-10
12J990,口湖工作站,2023-02-25,23.589978,120.180394,1.6806047e-06
C0O830,北寮,2023-02-25,23.079561,120.495008,1.2277471e-08
C1D410,白蘭,2023-02-25,24.579364,121.079947,7.1515167e-09
C0S970,加津林,2023-02-25,22.416211,120.926942,0.99698186
C0D700,關西,2023-02-25,24.7977,121.1732,1.4574797e-08
C0M810,里佳,2023-02-25,23.389125,120.716647,4.6654987e-09
C0U750,龜山島,2023-02-25,24.841667,121.953133,5.1488696e-06
C0R810,內獅,2023-02-25,22.305064,120.642986,0.9987837
C1M390,龍美,2023-02-25,23.406728,120.654417,3.5822758e-09
C1H840,國三N238K,2023-02-25,23.841008,120.707711,3.9616854e-10
CAQ030,崎峰國小,2023-02-25,22.42565,120.49521,6.1242517e-10
C2E520,大湖,2023-02-25,24.414939,120.870872,8.964209e-10
467530,阿里山,2023-02-25,23.508208,120.813242,1.2241834e-08
C1E691,南湖,2023-02-25,24.40135,120.837533,2.5714764e-09
C0FA30,梧棲,2023-02-25,24.256003,120.523381,5.188235e-07
C1V231,高中,2023-02-25,23.134911,120.716711,1.1821973e-09
C0F9V0,新社,2023-02-25,24.200172,120.815806,5.7634053e-10
C0H890,埔里,2023-02-25,23.972169,120.952425,4.322828e-10
C0R690,墾丁,2023-02-25,21.966756,120.810269,0.99507564
C0F0D0,審馬陣,2023-02-25,24.381675,121.4203,8.8861105e-09
C0R820,白鷺,2023-02-25,22.454275,120.666219,3.3297183e-09
U2H480,臺大溪頭,2023-02-25,23.670306,120.798194,2.6944726e-09
C1V190,南天池,2023-02-25,23.27403,120.91176,7.941278e-09
K2E360,苗栗農改場,2023-02-25,24.495722,120.829111,5.901456e-09
CAJ050,海口故事園區,2023-02-25,23.57543,120.14121,1.6806047e-06
C0O990,媽廟,2023-02-25,22.99175,120.293525,2.3592344e-08
C0D480,打鐵坑,2023-02-25,24.849664,121.150789,5.1355176e-08
C0Z220,和平林道,2023-02-25,24.343922,121.656317,8.644115e-09
72C440,桃園農改場,2023-02-25,24.950944,121.030583,0.00031408953
C1E711,馬拉邦山,2023-02-25,24.367306,120.901656,2.1638065e-09
C0D560,竹東,2023-02-25,24.767147,121.057881,1.5590405e-08
C0F9U0,南屯,2023-02-25,24.137006,120.637969,5.2145475e-09
C0M720,番路,2023-02-25,23.464657,120.554156,1.9288584e-09
C0F0A0,雪山圈谷,2023-02-25,24.388594,121.236339,1.483541e-08
C1A9N0,四十份,2023-02-25,24.934158,121.593283,1.9921158e-08
C0U760,東澳,2023-02-25,24.52196,121.83318,6.7693833e-09
C0X230,鹽水,2023-02-25,23.272621,120.247641,7.158094e-09
C0V370,古亭坑,2023-02-25,22.893178,120.401947,1.7057724e-05
C1I340,新興橋,2023-02-25,23.563333,120.868728,1.7142635e-09
C0SA80,土坂,2023-02-25,22.453108,120.887572,5.49305e-06
C0R160,鹽埔,2023-02-25,22.739558,120.530778,2.1356513e-08
C0AC40,大屯山,2023-02-25,25.175675,121.522408,3.6179706e-08
466850,五分山雷達站,2023-02-25,25.071182,121.781205,2.8912782e-08
C1AI50,國三N016K,2023-02-25,25.034164,121.619664,2.1861425e-08
C1V600,藤枝,2023-02-25,23.071961,120.757042,3.5311734e-09
C1E601,南勢,2023-02-25,24.572486,120.734842,0.010462819
C0Z180,新城,2023-02-25,24.03946,121.60454,9.798466e-09
C0O980,新市,2023-02-25,23.061614,120.298197,1.1403334e-08
C0K420,西螺,2023-02-25,23.800407,120.467394,1.7997703e-09
C0Z050,佳心,2023-02-25,23.34567,121.21316,1.27720545e-08
C0AD30,蘆洲,2023-02-25,25.086594,121.472331,2.477947e-08
C0V610,梓官,2023-02-25,22.760558,120.267211,1.4597076e-06
K2F750,種苗改良場,2023-02-25,24.225972,120.800917,5.3404753e-10
C0UA80,大溪漁港,2023-02-25,24.941801,121.902955,1.0547607e-08
C1AI60,國一39K邊坡,2023-02-25,25.064361,121.383836,1.3352455e-07
C0W150,金寧,2023-02-25,24.457703,118.328989,2.8553092e-07
V2C250,八德合作社,2023-02-25,24.93775,121.266389,1.4767562e-07
C0AH40,平等,2023-02-25,25.129142,121.577086,1.7939485e-08
C0R540,佳冬,2023-02-25,22.419456,120.552375,0.9524803
466950,彭佳嶼,2023-02-25,25.627975,122.079744,0.0029098007
C0A890,雙溪,2023-02-25,25.036003,121.864242,5.784677e-08
C0C480,桃園,2023-02-25,24.992425,121.323172,1.6137099e-07
C0AH50,林口,2023-02-25,25.072181,121.38084,1.08097126e-07
A2K360,水試臺西試驗場,2023-02-25,23.717231,120.190522,1.7144349e-06
B2N890,畜試所,2023-02-25,23.058972,120.336406,8.843536e-09
C0F9S0,烏日,2023-02-25,24.107058,120.624103,3.2536016e-10
C0C490,八德,2023-02-25,24.928708,121.283289,1.4752473e-07
C0R190,赤山,2023-02-25,22.592333,120.614306,2.841098e-09
C0T820,天祥,2023-02-25,24.179597,121.495639,2.0820925e-08
C1F9E1,龍安,2023-02-25,24.1605,120.831961,6.1219974e-10
C0V820,小林,2023-02-25,23.148408,120.63325,7.255202e-10
C2G870,芳苑,2023-02-25,23.922303,120.320025,0.0019743042
C0E850,大河,2023-02-25,24.618069,120.948578,3.514456e-09
C1U670,寒溪,2023-02-25,24.634,121.71691,2.9317986e-09
C0N020,城西,2023-02-25,23.0568,120.0956,2.0946917e-08
C1Z110,三棧,2023-02-25,24.11557,121.60501,2.1434783e-08
C0R280,檳榔,2023-02-25,22.076078,120.836777,0.99962217
C0F9L0,后里,2023-02-25,24.310436,120.729725,5.588684e-10
C0D540,橫山,2023-02-25,24.71116,121.11693,2.773379e-09
C1D420,太閣南,2023-02-25,24.632808,121.160575,9.533624e-09
C1E770,公館,2023-02-25,24.526914,120.830806,6.050746e-09
CAN130,水試所海水繁養殖中心,2023-02-25,23.120802,120.07968,2.7412735e-08
C1I430,翠華,2023-02-25,24.191961,121.224339,6.703265e-09
C1M400,菜瓜坪,2023-02-25,23.251928,120.576103,3.6932182e-10
C0G730,二林,2023-02-25,23.903325,120.376081,5.0574997e-08
72M360,南改義竹分場,2023-02-25,23.360694,120.279361,2.6489877e-09
V2K620,麥寮合作社,2023-02-25,23.753836,120.294783,6.2068186e-09
C0Z070,舞鶴,2023-02-25,23.46811,121.37407,1.7334686e-09
C0B040,大武崙,2023-02-25,25.166676,121.706993,6.6869994e-08
C1Z030,紅葉,2023-02-25,23.493119,121.338806,2.051388e-09
C1I050,丹大,2023-02-25,23.753747,121.141147,1.0928935e-08
C0I080,信義,2023-02-25,23.689694,120.851036,9.572831e-10
C2A880,福隆,2023-02-25,25.017842,121.942083,1.1796144e-08
C0Z160,鳳林,2023-02-25,23.746114,121.453411,2.5912295e-09
C0V210,復興,2023-02-25,23.222403,120.806089,1.485664e-09
C0H990,昆陽,2023-02-25,24.121322,121.273642,2.6384452e-08
C0S710,鹿野,2023-02-25,22.917711,121.122994,1.7931162e-09
C0I530,小奇萊,2023-02-25,24.131764,121.295717,2.7386395e-08
C0Z080,富源,2023-02-25,23.587642,121.378225,6.4227677e-09
467441,高雄,2023-02-25,22.7304,120.3125,8.4488454e-07
C1I140,卡奈托灣,2023-02-25,23.754364,121.087872,2.621059e-09
C0I520,玉山風口,2023-02-25,23.470489,120.955994,2.158877e-08
C1G691,下水埔,2023-02-25,23.816114,120.5676,9.199799e-10
C0X110,臺南市南區,2023-02-25,22.961189,120.188378,1.7050873e-07
C0V680,仁武,2023-02-25,22.701083,120.347722,4.3626322e-08
C2G840,北斗,2023-02-25,23.877586,120.514222,3.9105172e-09
C0R900,竹坑,2023-02-25,22.1385,120.7022,0.99996626
C0K250,崙背,2023-02-25,23.75555,120.318925,6.206795e-09
C0G860,社頭,2023-02-25,23.897647,120.5862,7.964056e-10
C0X150,安定,2023-02-25,23.102614,120.227839,1.2811775e-08
C0R590,里港,2023-02-25,22.77919,120.49459,1.0952102e-07
C0E610,馬都安,2023-02-25,24.451272,120.930192,2.791391e-09
C0E550,明德,2023-02-25,24.583486,120.885411,3.0034677e-08
C0R150,三地門,2023-02-25,22.709889,120.639944,5.5194876e-10
C0G910,花壇,2023-02-25,24.032076,120.549461,2.2753963e-09
C1D400,鳥嘴山,2023-02-25,24.71909,121.28387,1.6589318e-08
C0K500,元長,2023-02-25,23.64981,120.315024,4.4937205e-09
C0F0B0,石岡,2023-02-25,24.276061,120.777644,5.979474e-10
C2V250,甲仙,2023-02-25,23.080106,120.591758,3.2368659e-09
C0SA20,金崙山,2023-02-25,22.567419,120.959667,1.348365e-08
C0V350,溪埔,2023-02-25,22.738578,120.446797,2.2395483e-08
C0M660,溪口,2023-02-25,23.604131,120.403569,3.5295844e-09
C1S880,壽卡,2023-02-25,22.238911,120.858903,0.8244125
72D680,桃改新埔分場,2023-02-25,24.834444,121.066111,1.620805e-05
