站號,站名,日期,lat,lon,BlastGRU-TW
466881,新北,2023-05-09,24.9593,121.52,0.87030935
466900,淡水,2023-05-09,25.164889,121.448906,0.674782
466920,臺北,2023-05-09,25.037658,121.514853,0.8776349
467350,澎湖,2023-05-09,23.565503,119.563094,0.9980407
467410,臺南,2023-05-09,22.993239,120.204772,0.99944377
467420,永康,2023-05-09,23.038386,120.2367,0.99945307
467790,墾丁雷達站,2023-05-09,21.948235,120.808028,0.044618476
C0A520,山佳,2023-05-09,24.974944,121.402008,0.80696744
C0A530,坪林,2023-05-09,24.938183,121.70975,0.58186895
C0A880,福隆,2023-05-09,25.017842,121.942083,0.6090736
C0A890,雙溪,2023-05-09,25.036003,121.864242,0.5568003
C0A920,富貴角,2023-05-09,25.263783,121.565258,0.5015753
C0AC80,文山,2023-05-09,25.00235,121.575728,0.85713327
C0ACA0,新莊,2023-05-09,25.051478,121.446756,0.71405137
C0AD00,三芝,2023-05-09,25.258131,121.501917,0.5014547
C0AH70,松山,2023-05-09,25.04871,121.55042,0.8776349
C0AH80,深坑,2023-05-09,25.002703,121.628328,0.85713327
C0AI00,五股,2023-05-09,25.07445,121.42728,0.4566712
C0AJ70,田寮,2023-05-09,25.2698,121.4886,0.53684324
