站號,站名,日期,lat,lon,BLBTSLS
C0R710,龍磐,2023-12-06,21.931672,120.838942,0.9834423
C1F9D1,白毛台,2023-12-06,24.158325,120.886933,7.6073897e-10
C0G940,竹塘,2023-12-06,23.848253,120.386764,0.97348034
467590,恆春,2023-12-06,22.003897,120.746339,0.8980428
C1O850,環湖,2023-12-06,23.148617,120.418633,3.222505e-05
C0U710,太平山,2023-12-06,24.505486,121.525656,3.0968227e-08
C0E820,獅潭,2023-12-06,24.539133,120.920042,2.76224e-09
C0V880,興達,2023-12-06,22.8778,120.2127,0.42419758
C0S890,關山,2023-12-06,23.0395,121.175017,4.2218784e-09
K2F750,種苗繁殖,2023-12-06,24.225972,120.800917,4.3936418e-10
C1Z130,銅門,2023-12-06,23.965694,121.492842,5.485988e-09
C0AD40,土城,2023-12-06,24.973208,121.445169,2.6792703e-05
CAN140,六官養殖協會,2023-12-06,23.22881,120.29962,0.5931372
C0X180,山上,2023-12-06,23.0757,120.363253,3.851791e-06
C0F9Z0,雪山東峰,2023-12-06,24.388792,121.268675,1.9601988e-08
C1M480,獨立山,2023-12-06,23.537022,120.607797,5.837073e-10
C0X220,學甲,2023-12-06,23.230367,120.182187,0.5696849
C0R170,屏東,2023-12-06,22.660269,120.494072,2.7714945e-05
467650,日月潭,2023-12-06,23.881325,120.90805,1.8211418e-09
C0K600,箔子寮,2023-12-06,23.6197,120.14,0.9998333
C0G830,埤頭,2023-12-06,23.866003,120.452806,0.00091164175
C0S950,七塊厝,2023-12-06,22.954453,121.229922,7.025886e-09
467110,金門,2023-12-06,24.407306,118.289281,0.99478906
C0AH80,深坑,2023-12-06,25.002703,121.628328,1.2180555e-05
467990,馬祖,2023-12-06,26.169269,119.923419,0.99552137
C0A970,三貂角,2023-12-06,25.007606,122.002058,1.4859587e-07
C0K430,褒忠,2023-12-06,23.690938,120.303634,0.039179265
467480,嘉義,2023-12-06,23.495925,120.432906,0.11923016
C2E540,後龍,2023-12-06,24.606489,120.783933,0.9995715
C0V400,阿公店,2023-12-06,22.804194,120.355528,1.9268227e-05
C0R440,大漢山,2023-12-06,22.405264,120.753181,3.679834e-08
C0K280,四湖,2023-12-06,23.630414,120.227125,0.9998276
C1F9B1,桐林,2023-12-06,24.066172,120.735194,0.0022779785
C0K390,土庫,2023-12-06,23.679029,120.395574,0.0014661562
C1I450,望鄉山,2023-12-06,23.594153,120.944286,1.350728e-08
C0E910,海埔,2023-12-06,24.648767,120.772435,0.99945045
B2E890,畜試北區分所,2023-12-06,24.527806,120.770972,1.9757617e-07
C0R750,四林格山,2023-12-06,22.076989,120.802439,0.9846464
C0F0C0,中坑,2023-12-06,24.248517,120.903319,1.2144107e-09
C1I121,大鞍,2023-12-06,23.678381,120.760017,1.0990057e-08
72U480,花改蘭陽分場,2023-12-06,24.686306,121.716583,6.224887e-09
C0A770,科教館,2023-12-06,25.096356,121.516507,2.6705226e-07
C0AJ60,六塊厝,2023-12-06,25.24,121.4481,0.999398
C0R620,墾雷,2023-12-06,21.900836,120.855269,0.9859215
467420,永康,2023-12-06,23.038386,120.2367,2.7231854e-05
467300,東吉島,2023-12-06,23.25695,119.667467,0.9989872
C0I410,名間,2023-12-06,23.837053,120.701447,4.071098e-09
A2C560,農工中心,2023-12-06,24.985917,121.239833,0.9511226
C0V740,旗山,2023-12-06,22.888614,120.483597,0.00010120625
C0Z061,玉里,2023-12-06,23.3215,121.339656,7.3824963e-10
C0S840,南田,2023-12-06,22.279725,120.889208,0.5776258
C1I470,杉林溪,2023-12-06,23.639517,120.786444,1.1833597e-08
C1X040,東原,2023-12-06,23.291597,120.463822,9.052127e-10
C0R660,枋寮,2023-12-06,22.367722,120.590647,0.9981525
C1R120,上德文,2023-12-06,22.763272,120.704442,3.8635433e-09
C0K450,大埤,2023-12-06,23.646074,120.431537,2.2090667e-07
C0UA00,土場,2023-12-06,24.576533,121.495333,3.969397e-08
467080,宜蘭,2023-12-06,24.763975,121.756528,1.0193263e-08
C0N030,四草,2023-12-06,23.0235,120.1116,0.10370184
C0V650,彌陀,2023-12-06,22.783806,120.246361,0.015530243
C0D660,新竹市東區,2023-12-06,24.798681,120.986942,0.030463422
82S580,茶改東部分場,2023-12-06,22.907694,121.130139,0.69960874
C0C710,大溪永福,2023-12-06,24.892936,121.324975,0.00024063278
C0FA20,溫寮,2023-12-06,24.372177,120.583125,0.999891
C0V640,湖內,2023-12-06,22.887139,120.2445,0.36213994
C0R910,下寮,2023-12-06,22.3929,120.5548,0.9981525
C0Z020,明里,2023-12-06,23.208717,121.262342,9.486258e-10
C0M770,嘉義梅山,2023-12-06,23.585398,120.555587,9.999555e-10
G2F820,農業試驗所,2023-12-06,24.031261,120.688133,3.3433567e-05
C0C660,楊梅,2023-12-06,24.912375,121.143047,0.58061373
C1E511,新開,2023-12-06,24.347703,120.827019,3.4072226e-10
G2F820,農試所(霧峰),2023-12-06,24.031261,120.688133,3.3433567e-05
C1I070,和社,2023-12-06,23.591131,120.888861,2.0497344e-08
C2F000,大肚,2023-12-06,24.15295,120.572117,6.895366e-07
C1S850,豐南,2023-12-06,23.122139,121.262389,6.171472e-10
C2A920,富貴角,2023-12-06,25.263783,121.565258,0.020769563
CAH030,茶改場竹圍站,2023-12-06,23.860083,120.637528,4.15246e-10
C0T960,光復,2023-12-06,23.660694,121.424964,2.4579636e-09
C0F9M0,豐原,2023-12-06,24.254322,120.720692,1.4247324e-09
C0R720,旭海,2023-12-06,22.205403,120.887614,0.06989144
C0V710,苓雅,2023-12-06,22.622742,120.330669,1.5184007e-08
C0C740,觀音工業區,2023-12-06,25.064764,121.114856,0.83720016
CAC040,拉拉山,2023-12-06,24.699317,121.427133,7.359264e-08
C0V790,萬山,2023-12-06,22.905944,120.688056,4.414089e-09
U2HA30,臺大和社,2023-12-06,23.590856,120.888864,2.0497344e-08
C0AJ90,澳底,2023-12-06,25.0552,121.9253,6.9033996e-07
C0Z100,東華,2023-12-06,23.89525,121.549833,5.5395186e-09
C0G970,三豐,2023-12-06,23.882,120.2895,0.99433595
V2K610,大庄合作社,2023-12-06,23.8068,120.367939,0.124133036
C0V900,汕尾,2023-12-06,22.4782,120.4151,1.6333048e-06
C1R630,龍泉,2023-12-06,22.66701,120.59091,0.009699971
C1AC50,關渡,2023-12-06,25.133486,121.469331,2.0306287e-07
C0F9I0,神岡,2023-12-06,24.272481,120.658314,1.9618595e-08
C0K460,斗南,2023-12-06,23.678734,120.478359,1.8870442e-07
467410,臺南,2023-12-06,22.993239,120.204772,0.029180238
C2O810,曾文,2023-12-06,23.219681,120.497328,7.861119e-09
467280,後龍,2023-12-06,24.648563,120.831834,0.99958223
C1F9J1,清水林,2023-12-06,24.071242,120.820419,4.5074872e-10
C2A650,火燒寮,2023-12-06,25.002719,121.742892,6.0157774e-08
466930,竹子湖,2023-12-06,25.162078,121.544547,1.7821485e-08
C1I220,樟湖,2023-12-06,23.905333,120.846983,1.1297767e-09
C0I390,仁愛,2023-12-06,24.022122,121.132206,1.5892706e-09
C0Z300,東里,2023-12-06,23.26853,121.30547,9.645115e-10
C0V310,美濃,2023-12-06,22.898742,120.519153,0.00018665793
C1V590,新發,2023-12-06,23.057019,120.646064,2.1967583e-09
C0K510,水林,2023-12-06,23.572924,120.24597,0.8767545
72S590,東改賓朗果園,2023-12-06,22.813889,121.071278,0.99524885
82A750,茶改北部分場,2023-12-06,24.955778,121.631222,2.1978653e-06
C1A750,石碇服務區,2023-12-06,25.00872,121.646242,0.0006778671
C0X300,鹿寮,2023-12-06,23.386047,120.477331,1.9804213e-07
G2AI50,關渡,2023-12-06,25.11575,121.492,0.99572855
C0K590,雲林東勢,2023-12-06,23.674192,120.255721,0.18869177
C0A570,桶後,2023-12-06,24.848222,121.597992,5.8055235e-08
C1S800,華源,2023-12-06,22.657883,121.02325,1.8817172e-08
C0G720,溪州,2023-12-06,23.851589,120.499093,0.0006507908
C1V160,達卡努瓦,2023-12-06,23.279811,120.705319,4.6346957e-09
C2M410,馬頭山,2023-12-06,23.324361,120.582017,6.100003e-10
C0V850,蚵仔寮,2023-12-06,22.7256,120.2527,3.27052e-05
C0S740,池上,2023-12-06,23.119628,121.209469,1.43853365e-08
C1V390,尖山,2023-12-06,22.813153,120.367789,3.5390415e-06
C0AH70,松山,2023-12-06,25.04871,121.55042,2.1722127e-07
C0N010,鯤鯓國小,2023-12-06,23.1879,120.0889,0.09807865
C0R550,新埤,2023-12-06,22.467947,120.582894,6.897589e-07
C0SA60,知本（水試所）,2023-12-06,22.702394,121.082761,2.361272e-07
C0T9I0,豐濱,2023-12-06,23.583897,121.514806,1.1518926e-09
C0UB00,淡江大學蘭陽校園,2023-12-06,24.823239,121.730383,4.7963884e-08
C0T9N0,富里,2023-12-06,23.171639,121.249378,3.688827e-09
U2HA50,臺大竹山,2023-12-06,23.756972,120.681556,2.5218116e-09
C0V840,鳳鼻頭,2023-12-06,22.5083,120.3591,8.326166e-09
C0X140,西港,2023-12-06,23.125608,120.203108,0.034325305
72D080,桃改五峰分場,2023-12-06,24.612194,121.157167,1.5458571e-09
C0V530,阿蓮,2023-12-06,22.883208,120.327508,0.00021922373
C1O880,關山,2023-12-06,23.173397,120.594092,1.9385216e-09
C0E791,卓蘭,2023-12-06,24.3126,120.8244,6.363855e-10
C1I030,武界,2023-12-06,23.913225,121.052483,8.576972e-10
C0R520,崁頂,2023-12-06,22.514781,120.506914,5.964798e-05
C0R341,牡丹,2023-12-06,22.130036,120.792639,0.08021688
C0R930,萬丹,2023-12-06,22.5885,120.4851,1.7276609e-05
C0S760,紅石,2023-12-06,23.069131,121.126219,1.1676986e-08
C1M610,石磐龍,2023-12-06,23.496606,120.663506,5.8851235e-09
C0UA10,鴛鴦湖,2023-12-06,24.590269,121.412228,2.9409234e-08
V2C260,八德蔬果,2023-12-06,24.978508,121.281819,2.2203717e-06
C0R800,丹路,2023-12-06,22.204481,120.750989,0.08631815
C0G920,永靖,2023-12-06,23.924703,120.547533,0.0011386513
C1A630,下盆,2023-12-06,24.771003,121.538622,2.9055743e-08
B2N890,畜產試驗所,2023-12-06,23.058972,120.336406,6.3626626e-06
C0UA30,白嶺,2023-12-06,24.527819,121.519031,1.7979872e-08
C1V580,溪南(特生中心),2023-12-06,23.084972,120.788475,4.926198e-09
C1T970,大農,2023-12-06,23.615233,121.413331,1.0083865e-09
E2S960,林試太麻里2,2023-12-06,22.598014,120.989761,1.5681217e-05
C0R650,竹田,2023-12-06,22.58486,120.54344,0.022894448
C1H900,清流,2023-12-06,24.080775,120.962997,1.2513696e-09
C1C510,水尾,2023-12-06,24.940081,121.087161,0.9983782
C0F9X0,大雅(中科園區),2023-12-06,24.21528,120.62445,2.6345213e-06
C0O970,虎頭埤,2023-12-06,23.021375,120.347878,1.4489267e-07
C0C730,中大臨海站,2023-12-06,24.966126,121.008581,0.9902424
C0X250,新營,2023-12-06,23.310689,120.316681,0.30637556
C0V700,三民,2023-12-06,22.645017,120.311233,6.67811e-06
C0U870,大礁溪,2023-12-06,24.791042,121.675047,3.02204e-08
C0E870,高鐵苗栗,2023-12-06,24.60725,120.826094,0.9995681
A2K570,古坑花卉中心,2023-12-06,23.63353,120.55239,8.702971e-10
C0M860,新美,2023-12-06,23.338017,120.683169,1.4259287e-09
C1E701,八卦,2023-12-06,24.491756,120.927619,3.8494936e-09
C0I420,國姓,2023-12-06,24.037803,120.855072,1.9363486e-09
C0S960,香蘭,2023-12-06,22.587569,120.993375,1.5681217e-05
C0R260,春日,2023-12-06,22.370361,120.628306,0.99530494
72G600,臺中農改場,2023-12-06,24.003028,120.534389,0.0056960494
C0Z210,瑞穗,2023-12-06,23.5239,121.39021,1.2251921e-09
C0M820,達邦,2023-12-06,23.453994,120.749517,3.7993666e-09
C0V860,南寮,2023-12-06,22.7616,120.2339,4.1887208e-05
C0G740,大城,2023-12-06,23.852487,120.320935,0.9928858
C0R920,塭仔,2023-12-06,22.4169,120.5197,0.99825186
C0R470,高樹,2023-12-06,22.826389,120.600806,2.0346839e-05
C0R680,佳樂水,2023-12-06,21.993578,120.861633,0.993673
C1O870,大棟山,2023-12-06,23.31157,120.52226,2.443748e-09
C0D360,梅花,2023-12-06,24.678347,121.208558,4.4111097e-09
C0Z190,富世,2023-12-06,24.14743,121.6297,6.964087e-09
C0AI10,屈尺,2023-12-06,24.92184,121.54475,0.0010377232
B2U990,畜試東區分所,2023-12-06,24.669039,121.832561,7.872388e-09
C0R240,來義,2023-12-06,22.527306,120.625111,1.4051626e-06
C1R610,西大武山,2023-12-06,22.617719,120.7322,1.7886254e-08
C0G900,線西,2023-12-06,24.143358,120.443536,0.99994504
C0M700,竹崎,2023-12-06,23.526178,120.555508,2.646846e-07
C2E880,三義,2023-12-06,24.405478,120.749819,2.9979413e-10
C0C720,竹圍,2023-12-06,25.112692,121.239824,0.99572855
C0F9P0,清水,2023-12-06,24.312297,120.562242,0.9999098
C0Z150,吉安光華,2023-12-06,23.930925,121.595153,1.1629309e-08
C1D640,外坪(五指山),2023-12-06,24.644447,121.090961,1.132413e-09
C0F9O0,潭子,2023-12-06,24.213106,120.703933,2.9733663e-08
72T250,花蓮農改場,2023-12-06,23.975222,121.563889,4.4056213e-07
C0E780,銅鑼,2023-12-06,24.489681,120.790853,3.773715e-08
C1T950,太安,2023-12-06,23.666719,121.370128,1.2566441e-08
C0E830,苑裡,2023-12-06,24.439714,120.653053,0.9998188
467270,田中,2023-12-06,23.873803,120.581286,1.0904182e-07
C0SA10,檳榔四格山,2023-12-06,22.810031,121.109308,0.98586965
C1T830,布洛灣,2023-12-06,24.17184,121.57127,6.079867e-08
C0F970,大坑,2023-12-06,24.173142,120.722289,0.0006831647
C1U920,思源,2023-12-06,24.393125,121.347214,2.6834268e-08
C0A931,三和,2023-12-06,25.233153,121.595236,1.6740832e-07
C0I010,廬山,2023-12-06,24.033311,121.181808,2.3812043e-09
C0R860,鼻頭,2023-12-06,22.1043,120.8979,0.10340314
C0UB20,壯圍,2023-12-06,24.7359,121.8163,6.380947e-09
C0R790,九棚,2023-12-06,22.14195,120.889281,0.086110316
C0W110,東莒,2023-12-06,25.9652,119.98069,0.99528265
C1U930,粉鳥林,2023-12-06,24.497088,121.842479,2.7582875e-08
C1I211,蘆竹湳,2023-12-06,23.934019,120.811994,5.656514e-10
C0S830,長濱,2023-12-06,23.286817,121.411975,7.7825374e-10
C1F9F1,伯公龍,2023-12-06,24.272392,120.849047,4.673503e-10
C0E810,西湖,2023-12-06,24.562947,120.7485,0.99831074
C1I440,新高口,2023-12-06,23.478744,120.878939,7.591161e-09
C0O840,王爺宮,2023-12-06,23.222064,120.40085,6.351958e-07
C0T9G0,鳳林山,2023-12-06,23.735269,121.420131,2.6070934e-09
C0X080,佳里,2023-12-06,23.173039,120.145086,0.09797416
C0Z310,清水斷崖,2023-12-06,24.218294,121.689142,4.005154e-09
C0M680,太保,2023-12-06,23.455062,120.331455,0.034730665
C1S820,金峰,2023-12-06,22.590969,120.933236,3.3007282e-08
C0AD10,八里,2023-12-06,25.150211,121.403947,0.99572855
C2K240,草嶺,2023-12-06,23.59555,120.693461,4.166044e-09
C1SA70,都蘭,2023-12-06,22.87794,121.226881,0.98196834
C0K440,二崙,2023-12-06,23.772797,120.408944,0.00011565624
C1A760,坪林交控,2023-12-06,24.94284,121.713442,8.331825e-08
C0F9N0,大里,2023-12-06,24.092464,120.701378,0.038650677
C0SA90,達仁林場,2023-12-06,22.264347,120.823972,0.9990818
C1R290,石門山,2023-12-06,22.112611,120.756597,0.09449009
42HA10,萬大發電廠,2023-12-06,23.978875,121.139639,1.098431e-09
C0R890,山海,2023-12-06,21.9878,120.7091,0.9998105
C0T9A0,月眉山,2023-12-06,23.809928,121.539828,2.4233484e-09
C0AC70,信義,2023-12-06,25.037822,121.564597,2.1722127e-07
C0K560,棋山,2023-12-06,23.68645,120.603417,7.693071e-10
C1Z240,中平林道,2023-12-06,23.42115,121.26763,2.6861766e-08
U2H480,溪頭,2023-12-06,23.670306,120.798194,4.391667e-09
C0M880,好美里,2023-12-06,23.3364,120.138,0.9482862
C0T9E0,大坑,2023-12-06,23.880628,121.581981,2.6005527e-09
C0K530,臺西,2023-12-06,23.701547,120.197559,0.999862
C1E900,國一N128K,2023-12-06,24.560997,120.844186,0.0005767219
C0AJ50,水湳洞,2023-12-06,25.123695,121.862238,4.78893e-06
C0AI20,白沙灣,2023-12-06,25.283128,121.519058,0.9990686
C0A860,大坪,2023-12-06,25.165914,121.632969,3.1061575e-08
C1U850,觀音海岸,2023-12-06,24.38319,121.77856,6.62138e-09
C0U950,鶯子嶺,2023-12-06,24.89754,121.79244,7.89942e-08
C0O900,善化,2023-12-06,23.112883,120.297219,2.0984799e-05
C0K550,蔦松,2023-12-06,23.514319,120.229736,0.98648906
E2P980,林試六龜中心,2023-12-06,22.991703,120.645722,2.648019e-08
C0E590,通霄,2023-12-06,24.471892,120.704622,0.9116324
C1I310,西巒,2023-12-06,23.754486,120.883956,6.064657e-09
C0A550,泰平,2023-12-06,24.971197,121.823711,3.1076303e-07
C0I360,水里,2023-12-06,23.812553,120.849792,4.660818e-10
C0R830,高士,2023-12-06,22.121825,120.836781,0.17295443
C1I101,溪頭,2023-12-06,23.661789,120.807647,7.1167636e-09
C0AJ20,野柳,2023-12-06,25.20703,121.690021,1.3019077e-06
C0B060,暖暖,2023-12-06,25.0957,121.7403,1.883568e-05
C1H920,長豐,2023-12-06,24.102039,120.879897,1.1661667e-09
C0V360,內門,2023-12-06,22.975481,120.466769,1.5013399e-07
C0R850,林邊,2023-12-06,22.4634,120.5339,1.3311886e-06
C0E930,龍鳳,2023-12-06,24.700034,120.859125,0.98022103
C0U910,冬山,2023-12-06,24.63373,121.7937,7.872388e-09
C1E721,泰安,2023-12-06,24.489017,120.968036,4.1569477e-09
82H320,茶改中部分場,2023-12-06,23.875611,120.913583,1.6797669e-09
C0M750,布袋,2023-12-06,23.380878,120.167789,0.97605014
C1S860,利嘉,2023-12-06,22.809417,121.050528,2.7543012e-09
72C440,桃園農改,2023-12-06,24.950944,121.030583,0.9973813
E2S980,林試太麻里1,2023-12-06,22.598922,120.980044,6.03482e-07
C0X170,關廟,2023-12-06,22.963017,120.327797,1.7963629e-07
C0V720,林園,2023-12-06,22.507747,120.394511,7.146553e-09
C1I510,線浸林道,2023-12-06,23.761508,120.832956,3.7703747e-09
C0D690,外湖,2023-12-06,24.917735,120.968711,0.9943869
C0C750,新興坑尾,2023-12-06,25.0061,121.0971,0.99492407
B2Q810,畜試南區分所,2023-12-06,21.945583,120.802167,0.9940576
C0S790,金崙,2023-12-06,22.538122,120.966875,1.2672392e-06
C0AH90,福山植物園,2023-12-06,24.760717,121.58135,6.905784e-08
C0I540,奇萊稜線,2023-12-06,24.109231,121.326456,3.485845e-08
C0M850,表湖,2023-12-06,23.24186,120.64166,3.8321315e-09
C0S770,大溪山,2023-12-06,22.478475,120.943325,0.00025048843
C0AG80,中和,2023-12-06,24.991622,121.491792,2.681287e-05
C0T790,大禹嶺,2023-12-06,24.186117,121.316086,1.7916438e-08
C0T9B0,水源,2023-12-06,23.991861,121.537169,6.5454118e-09
C0R840,牡丹池山,2023-12-06,22.168389,120.841225,0.17708105
C1I131,桶頭,2023-12-06,23.641944,120.654117,3.1986291e-10
CAL110,布袋國中,2023-12-06,23.35893,120.18026,0.97605014
467571,新竹,2023-12-06,24.827853,121.014219,0.98011065
C0Z290,赤柯山,2023-12-06,23.36893,121.38293,8.184708e-09
C0X280,將軍,2023-12-06,23.214999,120.13577,0.6542835
C0S690,太麻里,2023-12-06,22.60902,120.98533,2.8087963e-09
C0U880,北關,2023-12-06,24.9072,121.8734,3.7474132e-07
C1H860,瑞岩,2023-12-06,24.123772,121.18345,7.044726e-09
C0G810,埔心,2023-12-06,23.947633,120.525456,0.0011121772
C0U970,大福,2023-12-06,24.80064,121.81389,1.032763e-08
C1E670,南礦,2023-12-06,24.538278,121.002836,2.7596228e-09
C0M520,東後寮,2023-12-06,23.369908,120.248065,0.9714862
C1E461,松安,2023-12-06,24.397972,120.986022,4.6102997e-09
72G600,臺中農改,2023-12-06,24.003028,120.534389,0.0056960494
C2N160,西拉雅風管處,2023-12-06,23.189481,120.335297,0.00012168163
C0A640,石碇,2023-12-06,24.993969,121.662917,3.1295845e-06
E2S960,林試太麻里2,2023-12-06,22.598,120.99775,1.9377723e-05
C0F9Y0,桃山,2023-12-06,24.432739,121.303808,1.8249224e-08
C1I020,萬大,2023-12-06,23.979817,121.132261,1.5860788e-09
C0U940,羅東,2023-12-06,24.68184,121.74934,6.287066e-09
C0M650,朴子,2023-12-06,23.43463,120.23902,0.8553254
C1I500,大尖山,2023-12-06,23.858572,120.994889,4.624056e-09
C0G820,田尾,2023-12-06,23.901669,120.509389,0.0011333823
E2K600,四湖植物園,2023-12-06,23.676986,120.163433,0.9998277
C0S730,綠島,2023-12-06,22.6672,121.47533,0.86964583
12Q970,東港工作站,2023-12-06,22.479997,120.466058,1.6333048e-06
C0E430,南庄,2023-12-06,24.601775,121.000214,2.55002e-09
C1TA00,太魯閣,2023-12-06,24.15773,121.6236,5.9006457e-09
466920,臺北,2023-12-06,25.037658,121.514853,2.1722127e-07
C0R600,舊泰武,2023-12-06,22.588194,120.664944,1.4142493e-09
C1I260,北坑,2023-12-06,23.9246,121.006903,5.778948e-10
466910,鞍部,2023-12-06,25.182586,121.529731,4.169194e-08
C1I230,九份二山,2023-12-06,23.961944,120.845,7.840585e-10
C2A660,瑞芳,2023-12-06,25.113169,121.801147,1.2260409e-06
C0R270,琉球嶼,2023-12-06,22.332244,120.362236,1.1461861e-08
C1T990,高寮,2023-12-06,23.394239,121.356808,7.8125356e-10
C0G620,芬園,2023-12-06,24.015678,120.6213,8.306084e-06
C1Z140,荖溪,2023-12-06,23.890575,121.45964,1.2619668e-08
C1I201,中心崙,2023-12-06,23.728722,120.712097,3.0040376e-10
C1I400,凌霄,2023-12-06,24.018778,121.004456,1.9919515e-09
C1M640,十字,2023-12-06,23.492153,120.753683,9.538243e-09
G2P820,農試鳳山分所,2023-12-06,22.646611,120.356083,2.4239796e-06
C0Z270,蕃薯寮,2023-12-06,23.73835,121.540108,2.1273039e-09
C0F9Q0,外埔,2023-12-06,24.347817,120.705686,9.923691e-09
C0K580,高鐵雲林,2023-12-06,23.737456,120.417944,7.970378e-05
C2I090,鳳凰,2023-12-06,23.728081,120.787347,1.8553116e-09
C0U990,員山,2023-12-06,24.74435,121.72247,6.3216845e-09
C0V770,大社,2023-12-06,22.730306,120.346639,1.6539307e-05
C0X120,麻豆,2023-12-06,23.183289,120.248611,0.10310295
C0C670,龍潭,2023-12-06,24.870056,121.221389,0.00013543954
C0D680,香山濕地,2023-12-06,24.783581,120.914988,0.10953802
C0S980,勝林山,2023-12-06,22.430439,120.8938,2.0066068e-06
C0V730,大寮,2023-12-06,22.605614,120.395717,1.363021e-08
C0R570,麟洛,2023-12-06,22.65078,120.52719,2.7714945e-05
CAG100,王功漁港,2023-12-06,23.96824,120.32586,0.9975528
C0X290,北門,2023-12-06,23.267772,120.125481,0.6542835
C2F930,大甲,2023-12-06,24.347667,120.640403,0.9997734
C0D650,湖口,2023-12-06,24.904794,121.043628,0.99829024
C0E420,竹南,2023-12-06,24.708978,120.888897,0.9845468
C0U780,五結,2023-12-06,24.68637,121.79794,6.380947e-09
C1I250,鯉潭,2023-12-06,23.961922,120.991131,7.615636e-10
C0R130,阿禮,2023-12-06,22.742908,120.743678,2.2578959e-09
C0X100,臺南市北區,2023-12-06,23.010394,120.194228,0.06441561
C0S920,金峰嘉蘭,2023-12-06,22.594789,120.960825,3.511075e-07
C0V490,新興,2023-12-06,22.627422,120.298803,1.5133034e-08
C0F9K0,大安,2023-12-06,24.345061,120.588025,0.99989194
72N100,臺南農改,2023-12-06,23.0605,120.342194,6.3626626e-06
467290,古坑,2023-12-06,23.633639,120.551889,8.702971e-10
C0V440,鳳山,2023-12-06,22.646653,120.356122,2.4239796e-06
C1T940,大觀,2023-12-06,23.714206,121.373133,2.3587248e-09
72T250,花蓮農改,2023-12-06,23.975222,121.563889,4.4056213e-07
C0E740,造橋,2023-12-06,24.637056,120.864778,0.99956787
C0R100,尾寮山,2023-12-06,22.833111,120.683889,3.0562324e-09
A2K630,臺大雲林校區,2023-12-06,23.730628,120.423903,7.970378e-05
C0D580,寶山,2023-12-06,24.735006,121.025192,1.1091242e-08
E2P990,林試扇平站,2023-12-06,22.9677,120.6857,2.5602056e-09
C0AI30,三重,2023-12-06,25.057328,121.500629,2.6705226e-07
C0AH00,汐止,2023-12-06,25.066881,121.658778,2.1722127e-07
C1Z040,立山,2023-12-06,23.443356,121.327375,7.622775e-09
C0R740,獅子,2023-12-06,22.201569,120.70525,0.13985881
C0W130,花嶼,2023-12-06,23.40007,119.32276,0.99921966
C0A950,鼻頭角,2023-12-06,25.129036,121.923372,0.99986285
C0K470,林內,2023-12-06,23.748675,120.609642,1.1171368e-08
82C160,茶改場,2023-12-06,24.908472,121.185333,0.0314494
C0Z320,清水林道,2023-12-06,23.27125,121.188272,5.5301754e-09
C0R760,南仁湖,2023-12-06,22.084681,120.863353,0.09449009
C0M670,大林,2023-12-06,23.600616,120.45841,0.00052973366
C0M800,茶山,2023-12-06,23.299075,120.664767,1.5611732e-09
C0A9C0,天母,2023-12-06,25.117494,121.537169,7.0094853e-07
72K220,南改斗南分場,2023-12-06,23.634556,120.477333,1.8900249e-07
72AI40,桃改樹林分場,2023-12-06,24.944503,121.386972,0.30366674
C0S910,蘭嶼燈塔,2023-12-06,22.081197,121.503117,0.9862648
C0B050,八斗子,2023-12-06,25.144754,121.79167,1.0061038e-05
C0U900,內城,2023-12-06,24.71813,121.68766,6.1372107e-09
C0X320,柳營,2023-12-06,23.253328,120.375253,5.2567586e-05
C0M790,新港,2023-12-06,23.553269,120.345728,0.064793006
C0F9T0,西屯,2023-12-06,24.179494,120.641275,0.43739507
C0SA30,都歷,2023-12-06,23.020333,121.323642,4.814312e-07
C0C620,蘆竹,2023-12-06,25.084275,121.265767,0.9968515
C0R730,大坪頂,2023-12-06,22.024633,120.69355,0.2925955
C0AJ40,石門,2023-12-06,25.273672,121.601198,0.31644878
C0E750,苗栗,2023-12-06,24.564569,120.824575,0.00077635254
C0T870,鯉魚潭,2023-12-06,23.935639,121.508944,6.1030896e-09
C1V170,排雲,2023-12-06,23.463619,120.954147,1.8341348e-08
C2H950,中寮,2023-12-06,23.884447,120.766406,2.8151037e-09
C0R350,貓鼻頭,2023-12-06,21.921774,120.7358,0.9979446
C0V660,岡山,2023-12-06,22.797078,120.294958,0.015606283
C1H941,雙冬,2023-12-06,23.967378,120.802189,5.8241617e-10
C0AJ70,田寮,2023-12-06,25.2698,121.4886,0.99930227
C0AI00,五股,2023-12-06,25.07445,121.42728,1.8641024e-06
C0Z280,德武,2023-12-06,23.47426,121.41071,8.582372e-10
C0R700,枋山,2023-12-06,22.246844,120.661086,0.9961877
C0C460,復興,2023-12-06,24.820208,121.352281,7.809115e-06
E2H360,蓮華池,2023-12-06,23.918333,120.885278,6.089773e-10
C0M640,中埔,2023-12-06,23.42538,120.5229,1.8839711e-07
C0W140,金沙,2023-12-06,24.488292,118.408778,0.96821886
C2A540,四堵,2023-12-06,24.8926,121.745736,4.8258354e-08
C0ACA0,新莊,2023-12-06,25.051478,121.446756,1.2551655e-07
C0R220,潮州,2023-12-06,22.534361,120.54,4.359109e-05
U2HA40,臺大內茅埔,2023-12-06,23.689722,120.851117,6.550995e-09
467490,臺中,2023-12-06,24.145736,120.684075,0.012447725
C0U960,翠峰湖,2023-12-06,24.510856,121.608044,2.3407363e-08
E2HA20,林試畢祿溪站,2023-12-06,24.226944,121.308522,1.14507825e-08
C0V890,前鎮,2023-12-06,22.5718,120.3117,1.9151013e-08
467620,蘭嶼,2023-12-06,22.036969,121.558339,0.98116744
C1F941,雪嶺,2023-12-06,24.280586,121.026642,1.668878e-08
C0AC80,文山,2023-12-06,25.00235,121.575728,1.2180555e-05
C0F9R0,龍井,2023-12-06,24.184536,120.528972,0.99994963
C0M760,民雄,2023-12-06,23.551754,120.428457,0.0008548607
C0UA40,西德山,2023-12-06,24.560647,121.752608,2.6713442e-08
C1T920,中興,2023-12-06,23.769503,121.498653,2.8124203e-09
C0D550,雪霸,2023-12-06,24.526972,121.11605,6.8359576e-09
C2F860,梨山,2023-12-06,24.247522,121.243669,1.17664145e-08
C0R320,車城,2023-12-06,22.0744,120.716247,0.99935836
C1S870,南美山,2023-12-06,23.15025,121.382333,3.9986507e-09
C0B020,基隆嶼,2023-12-06,25.19141,121.78391,0.9997596
C1U501,牛鬥,2023-12-06,24.637836,121.573656,3.069431e-08
C0M730,嘉義市東區,2023-12-06,23.457673,120.460531,1.3337198e-05
C0S700,知本,2023-12-06,22.684866,121.005642,2.4449323e-09
C1N001,沙崙,2023-12-06,22.935472,120.309406,2.702476e-07
C0V760,橋頭,2023-12-06,22.757806,120.30575,2.3411383e-05
C0G960,福寶,2023-12-06,24.0443,120.3814,0.9998209
C0X210,白河,2023-12-06,23.347466,120.414427,4.569859e-07
C0S810,東河,2023-12-06,22.972672,121.303986,0.99946564
C0R670,楓港,2023-12-06,22.190131,120.692156,0.91694367
C0FA50,霧峰,2023-12-06,24.0419,120.6995,2.105333e-05
C0UB10,蘇澳,2023-12-06,24.5969,121.8571,2.2668983e-08
C0G950,防潮門,2023-12-06,24.1835,120.4871,0.99994963
C0M740,六腳,2023-12-06,23.492871,120.290625,0.50936383
C1R250,力里,2023-12-06,22.428117,120.629228,2.6203255e-08
C0K330,虎尾,2023-12-06,23.719183,120.442036,5.9880793e-05
C2FA00,烏石坑,2023-12-06,24.273503,120.947617,1.254115e-09
C0V620,永安,2023-12-06,22.82315,120.236856,0.015530243
C1I330,楓樹林,2023-12-06,23.986803,121.076117,1.6833495e-09
C0W200,湖西,2023-12-06,23.596314,119.67275,0.9983967
72Q010,高雄農改場,2023-12-06,22.709333,120.525889,3.3565416e-06
C0SA40,瑞和,2023-12-06,22.974361,121.156697,1.0406107e-05
C0C680,龜山,2023-12-06,25.02846,121.38656,3.0385038e-07
C2V260,月眉,2023-12-06,22.971003,120.539853,4.745322e-06
C0V450,鳳森,2023-12-06,22.545064,120.392592,3.4720409e-09
C0U720,南山,2023-12-06,24.43742,121.38167,1.58882e-08
A2N290,臺南蘭花園區,2023-12-06,23.340258,120.379661,0.026922442
C0R560,新園,2023-12-06,22.5434,120.461558,7.146553e-09
C0U890,三星,2023-12-06,24.66812,121.65302,4.765657e-08
C1V300,御油山,2023-12-06,23.001983,120.715364,5.02819e-09
C0U600,礁溪,2023-12-06,24.817539,121.765608,4.3298545e-08
C1T980,龍澗,2023-12-06,24.023289,121.411328,2.834377e-08
C0D670,海天一線,2023-12-06,24.831986,120.914438,0.46511582
C0SA00,歷坵,2023-12-06,22.520969,120.89185,1.0902431e-08
C0M710,東石,2023-12-06,23.458927,120.15385,0.99900526
C0M780,鹿草,2023-12-06,23.41134,120.30835,0.8076098
C0U520,雙連埤,2023-12-06,24.753033,121.641303,2.9836432e-08
C0B010,七堵,2023-12-06,25.094819,121.71713,9.4835465e-05
C0R480,長治,2023-12-06,22.693128,120.542622,1.6761248e-07
C1V830,國三S383K,2023-12-06,22.781967,120.426475,1.2772084e-07
12Q980,恆春工作站,2023-12-06,22.079678,120.714425,0.99935836
C1O940,東山服務區,2023-12-06,23.286016,120.398472,1.1260499e-06
C1U840,東澳嶺,2023-12-06,24.5378,121.8485,1.903655e-08
C1D630,飛鳳山,2023-12-06,24.766464,121.119178,6.7135815e-08
C0S940,石寧山,2023-12-06,23.223772,121.406639,1.0264998e-09
C0K410,北港,2023-12-06,23.573957,120.292802,0.807327
C2M620,瑞里,2023-12-06,23.545133,120.675197,6.3658607e-09
C2O950,安南,2023-12-06,23.076694,120.144861,0.2926328
C0F0E0,南湖圈谷,2023-12-06,24.363714,121.444667,4.8608378e-08
467610,成功,2023-12-06,23.097486,121.373428,0.9183371
C0G890,伸港,2023-12-06,24.148933,120.484403,0.99994504
C2E540,龍溪,2023-12-06,24.606489,120.783933,0.9995715
C1V200,梅山,2023-12-06,23.268447,120.823556,3.0818363e-09
C0T9H0,加路蘭山,2023-12-06,23.682947,121.5274,3.219042e-09
C2O930,玉井,2023-12-06,23.126042,120.46055,3.851791e-06
C1F911,新伯公,2023-12-06,24.221361,120.841069,4.939999e-10
C0R490,九如,2023-12-06,22.7405,120.490503,3.9470724e-06
C0X200,左鎮,2023-12-06,23.056758,120.408522,1.7047165e-07
C1F891,稍來,2023-12-06,24.265689,121.001142,1.0765964e-08
72N240,七股研究中心,2023-12-06,23.081672,120.062894,0.37178215
C0C700,中壢,2023-12-06,24.977661,121.256375,1.3299299e-06
C0M690,水上,2023-12-06,23.419734,120.388909,0.023824457
C0V690,鼓山,2023-12-06,22.623325,120.275575,1.5133034e-08
C0O860,大內,2023-12-06,23.11885,120.36083,1.0695081e-05
C0Z200,萬榮,2023-12-06,23.709219,121.420106,2.1797877e-09
C0T9D0,和中,2023-12-06,24.26676,121.74103,1.0680084e-08
C1O921,楠西,2023-12-06,23.183511,120.484083,9.429131e-06
C0AJ30,淡水觀海,2023-12-06,25.184591,121.408616,0.002219036
C0V810,左營,2023-12-06,22.67491,120.28491,6.67811e-06
C0UA70,桃源谷,2023-12-06,24.962606,121.888875,2.0246343e-07
C0X130,官田,2023-12-06,23.193217,120.315422,0.00018078953
C1H000,翠峰,2023-12-06,24.109397,121.205211,2.232937e-08
C0UA90,石城,2023-12-06,24.980444,121.951214,2.4875774e-07
C1E681,南勢山,2023-12-06,24.421669,120.923831,2.2641273e-09
C0A9F0,內湖,2023-12-06,25.079422,121.57545,2.1722127e-07
C0K291,宜梧,2023-12-06,23.536281,120.169329,0.98648906
C1K540,口湖,2023-12-06,23.585344,120.180517,0.9998333
C0R780,滿州,2023-12-06,22.024403,120.839892,0.8784967
C0V870,文安,2023-12-06,22.8025,120.2164,0.025686866
C0U650,玉蘭,2023-12-06,24.675286,121.587061,3.057645e-08
C0R640,東港,2023-12-06,22.46247,120.44074,1.6333048e-06
K2E360,苗栗農改,2023-12-06,24.495722,120.829111,1.0324719e-07
C0AJ80,板橋,2023-12-06,25.0107,121.4489,2.9375145e-05
C0S660,下馬,2023-12-06,23.150427,121.070312,2.7557252e-09
C1H9B1,阿眉,2023-12-06,24.1263,120.994672,7.323889e-09
C0UA20,多加屯,2023-12-06,24.368614,121.373189,1.3094226e-08
C0E730,頭份,2023-12-06,24.688247,120.912206,0.98385024
72V140,高改旗南分場,2023-12-06,22.857861,120.516667,0.00018665793
C0K480,莿桐,2023-12-06,23.761192,120.502372,3.413679e-08
C0U980,坪林石牌,2023-12-06,24.86478,121.77396,3.4652945e-08
C0T900,西林,2023-12-06,23.8119,121.441458,2.3598272e-09
C1I150,青雲,2023-12-06,23.793361,120.949378,1.0363065e-09
467350,澎湖,2023-12-06,23.565503,119.563094,0.9984568
C0G800,埔鹽,2023-12-06,24.000394,120.431683,0.9994836
C0H960,草屯,2023-12-06,23.973672,120.68085,9.617156e-06
C1V780,多納林道,2023-12-06,22.888028,120.737917,4.387163e-09
C0E920,通霄漁港,2023-12-06,24.498589,120.673876,0.8506117
C0Z330,安通山,2023-12-06,23.290728,121.348528,1.0209096e-09
C0AH10,永和,2023-12-06,25.01125,121.508111,2.9375145e-05
C2G640,鹿港,2023-12-06,24.0753,120.430481,0.9998209
C1E890,國三N149K,2023-12-06,24.463414,120.680019,0.9998455
C1R110,口社,2023-12-06,22.770111,120.645222,4.657902e-05
C1M870,國三N285K,2023-12-06,23.550319,120.505833,1.5055954e-09
467050,新屋,2023-12-06,25.006744,121.047486,0.99252284
C1E480,鳳美,2023-12-06,24.554803,121.034747,1.5192313e-09
C0M530,奮起湖,2023-12-06,23.493903,120.699253,6.684229e-09
C0C590,觀音,2023-12-06,25.027072,121.153317,0.9857606
C0T9M0,靜浦,2023-12-06,23.455167,121.495028,9.89492e-10
C0AI40,石牌,2023-12-06,25.115597,121.513139,8.277903e-07
C1F871,上谷關,2023-12-06,24.203483,121.018644,1.2599652e-09
C0G880,二水,2023-12-06,23.810742,120.6173,4.223113e-08
C0R940,加祿堂,2023-12-06,22.3363,120.6217,0.4120745
C0W220,北竿,2023-12-06,26.220358,119.974881,0.99738497
C0O960,崎頂,2023-12-06,22.959547,120.369317,2.9366747e-08
C0S750,向陽,2023-12-06,23.248397,120.986133,1.3730617e-08
C0T9F0,水璉,2023-12-06,23.797131,121.542514,2.2664692e-09
C1M600,頭凍,2023-12-06,23.406364,120.603339,5.3075864e-09
467660,臺東,2023-12-06,22.752211,121.154586,0.99896985
C1D380,新埔,2023-12-06,24.84745,121.03834,0.99094623
C0V750,路竹,2023-12-06,22.854997,120.259439,0.15935226
C0N050,蚵寮,2023-12-06,23.301,120.1104,0.9482862
72M700,南改鹿草分場,2023-12-06,23.416869,120.283061,0.8553254
C1SA50,利嘉林道,2023-12-06,22.82325,121.009389,1.8152335e-08
467550,玉山,2023-12-06,23.487614,120.959522,2.0967583e-08
C0A940,金山,2023-12-06,25.223628,121.643967,1.0589707e-06
C1V340,大津,2023-12-06,22.888322,120.645986,7.615818e-06
C0W180,七美,2023-12-06,23.219333,119.444892,0.99928916
C1F9C1,白冷,2023-12-06,24.182844,120.929889,3.8245282e-10
K2E710,苗改生物防治研究中心,2023-12-06,24.422861,120.871833,3.2251676e-10
C0N040,蘆竹溝,2023-12-06,23.2344,120.0961,0.65428334
C2W230,畜試所澎湖,2023-12-06,23.628342,119.513206,0.9990224
C0R880,後壁湖,2023-12-06,21.9457,120.7457,0.9998117
C1I280,埔中,2023-12-06,23.820778,120.642594,3.5379671e-10
467790,墾丁雷達站,2023-12-06,21.948235,120.808028,0.9923887
C0W190,望安,2023-12-06,23.380564,119.494075,0.99891585
466881,新北,2023-12-06,24.9593,121.52,1.9432093e-05
C0Z170,卓溪,2023-12-06,23.3443,121.3029,7.69178e-10
C0F850,東勢,2023-12-06,24.246428,120.833047,1.4690502e-09
466900,淡水,2023-12-06,25.164889,121.448906,0.99574065
C0I370,魚池,2023-12-06,23.895703,120.94135,6.979362e-10
C0C630,大溪,2023-12-06,24.882853,121.265547,0.0013875596
C0A520,山佳,2023-12-06,24.974944,121.402008,8.851088e-07
C0I110,竹山,2023-12-06,23.761225,120.688156,5.7768017e-09
82H840,茶改南部分場,2023-12-06,23.762528,120.7405,3.645863e-10
C0G660,溪湖,2023-12-06,23.94835,120.479122,0.001974679
C1T800,洛韶,2023-12-06,24.204558,121.453956,2.0458637e-08
C1T810,慈恩,2023-12-06,24.192044,121.388386,2.0455907e-08
C1E451,象鼻,2023-12-06,24.368617,120.940228,8.0075885e-10
C0AC60,三峽,2023-12-06,24.939025,121.369728,0.1082172
C0I490,萬大林道,2023-12-06,23.928228,121.091411,2.3692577e-09
C1I290,豐丘,2023-12-06,23.668178,120.887417,4.572346e-09
C1I320,奧萬大,2023-12-06,23.952956,121.178556,1.3723698e-09
C0U770,南澳,2023-12-06,24.44935,121.81022,8.406207e-09
C0A980,社子,2023-12-06,25.109508,121.469681,0.9963288
C0V800,六龜,2023-12-06,22.997889,120.633583,4.4225352e-08
C1G9D0,國一S218K,2023-12-06,23.890641,120.493253,0.00091274764
C2F9A0,中竹林,2023-12-06,24.103556,120.751061,1.2746374e-09
C0FA40,臺中電廠,2023-12-06,24.2146,120.4907,0.9999497
C0H9C0,合歡山,2023-12-06,24.143442,121.272547,2.571762e-08
C0X060,下營,2023-12-06,23.22695,120.256261,0.59153175
G2M350,農試溪口農場,2023-12-06,23.58565,120.408111,0.0010512968
C0U860,頭城,2023-12-06,24.85323,121.8308,4.6830017e-08
C0R580,南州,2023-12-06,22.48591,120.50274,1.6333048e-06
C0D430,峨眉,2023-12-06,24.6905,121.017189,4.5375407e-05
C0G780,秀水,2023-12-06,24.03405,120.503869,0.0056960545
72N100,臺南農改場,2023-12-06,23.0605,120.342194,6.3626626e-06
C0S900,蘭嶼高中,2023-12-06,22.04909,121.51214,0.98858654
467540,大武,2023-12-06,22.355675,120.903789,0.7356874
C1F9W0,德基,2023-12-06,24.254783,121.190261,8.878962e-09
C1Z120,壽豐,2023-12-06,23.870853,121.508081,5.5395186e-09
C0W160,烏坵,2023-12-06,24.9944,119.44956,0.06446154
C1I240,外大坪,2023-12-06,23.958697,120.917931,7.631034e-10
C1I550,國六W023K,2023-12-06,23.979067,120.867742,5.157304e-10
C0R870,興海,2023-12-06,21.9752,120.8439,0.9940576
C0R140,瑪家,2023-12-06,22.682903,120.686639,2.46942e-09
C0A530,坪林,2023-12-06,24.938183,121.70975,5.7820735e-08
C0X260,後壁,2023-12-06,23.366358,120.362326,0.026211165
C0Z230,和平,2023-12-06,24.30717,121.77007,1.0961e-08
C0G770,福興,2023-12-06,24.041289,120.437669,0.9994836
C0H9A0,神木村,2023-12-06,23.532742,120.843667,9.6632755e-09
C0I460,南投,2023-12-06,23.911469,120.687331,3.771137e-09
C0I480,梅峰,2023-12-06,24.085272,121.173572,9.1642e-09
C1V570,吉東,2023-12-06,22.85422,120.5454,0.00016484603
C2A560,福山,2023-12-06,24.776203,121.502811,1.0435709e-07
C0AH30,五分山,2023-12-06,25.07125,121.780794,9.030613e-08
C0FA10,松柏,2023-12-06,24.429115,120.617482,0.9998007
72S200,東改班鳩分場,2023-12-06,22.829528,121.077694,0.9971194
72HA00,中改埔里分場,2023-12-06,23.903208,120.963364,5.931991e-10
C0C650,平鎮,2023-12-06,24.897503,121.214636,2.967218e-05
C0S930,延平,2023-12-06,22.902581,121.084058,0.28343868
C0UA60,樟樹山,2023-12-06,24.41393,121.78325,2.9454986e-08
C1S670,摩天,2023-12-06,23.199503,121.027,1.5958783e-08
C0V630,茄萣,2023-12-06,22.906642,120.182608,0.42419758
466940,基隆,2023-12-06,25.133314,121.740475,7.090703e-06
C0X050,東河,2023-12-06,23.296598,120.385608,1.2421517e-06
C0R770,保力,2023-12-06,22.071122,120.764111,0.92325085
G2L020,農試嘉義分所,2023-12-06,23.485028,120.473806,3.8771573e-06
C0X240,關子嶺,2023-12-06,23.331169,120.508025,4.5623602e-10
C0I380,集集,2023-12-06,23.828206,120.801467,4.844414e-10
466990,花蓮,2023-12-06,23.975128,121.613275,7.049709e-07
C1V220,小關山,2023-12-06,23.154217,120.813603,6.055318e-09
C1F9G1,慶福山,2023-12-06,24.180853,120.848378,7.845282e-10
C0Z250,瑞穗林道,2023-12-06,23.49284,121.30688,2.7720054e-08
C0D590,新豐,2023-12-06,24.87068,120.97721,0.25627476
C0A870,五指山,2023-12-06,25.132153,121.608692,1.7014592e-08
C0UA50,西帽山,2023-12-06,24.555361,121.802628,2.5569078e-08
C0X160,仁德,2023-12-06,22.968258,120.257689,0.08348679
C1H971,六分寮,2023-12-06,23.92507,120.6378,4.802123e-10
C0W120,西嶼,2023-12-06,23.5626,119.468436,0.99910396
C0G650,員林,2023-12-06,23.946503,120.585597,3.8514898e-07
C0AD50,鶯歌,2023-12-06,24.951533,121.346294,0.019957615
C0S990,山豬窟,2023-12-06,22.318619,120.857372,0.99861
72Q010,高雄農改,2023-12-06,22.709333,120.525889,3.3565416e-06
C0X190,安平,2023-12-06,22.993161,120.152181,0.06441561
C0K400,斗六,2023-12-06,23.720583,120.541127,1.09970856e-07
12J990,口湖工作站,2023-12-06,23.589978,120.180394,0.9998333
C0O830,北寮,2023-12-06,23.079561,120.495008,6.6143984e-06
C1D410,白蘭,2023-12-06,24.579364,121.079947,3.1237894e-09
C0S970,加津林,2023-12-06,22.416211,120.926942,0.842197
C0D700,關西,2023-12-06,24.7977,121.1732,2.787831e-07
C0M810,里佳,2023-12-06,23.389125,120.716647,6.163147e-09
C0U750,龜山島,2023-12-06,24.841667,121.953133,0.9589902
C0R810,內獅,2023-12-06,22.305064,120.642986,0.4064587
C1M390,龍美,2023-12-06,23.406728,120.654417,5.5047713e-09
C1H840,國三N238K,2023-12-06,23.841008,120.707711,4.7273485e-10
CAQ030,崎峰國小,2023-12-06,22.42565,120.49521,1.6333048e-06
C2E520,大湖,2023-12-06,24.414939,120.870872,3.1183411e-10
467530,阿里山,2023-12-06,23.508208,120.813242,1.1761815e-08
C1E691,南湖,2023-12-06,24.40135,120.837533,2.0684237e-09
C0FA30,梧棲,2023-12-06,24.256003,120.523381,0.9999098
C1V231,高中,2023-12-06,23.134911,120.716711,3.0926948e-09
C0F9V0,新社,2023-12-06,24.200172,120.815806,4.1500295e-10
C0H890,埔里,2023-12-06,23.972169,120.952425,4.4944726e-10
C0R690,墾丁,2023-12-06,21.966756,120.810269,0.9640909
C0F0D0,審馬陣,2023-12-06,24.381675,121.4203,1.8039264e-08
C0R820,白鷺,2023-12-06,22.454275,120.666219,0.00014782818
U2H480,臺大溪頭,2023-12-06,23.670306,120.798194,4.391667e-09
C1V190,南天池,2023-12-06,23.27403,120.91176,1.1904091e-08
K2E360,苗栗農改場,2023-12-06,24.495722,120.829111,1.0324719e-07
CAJ050,海口故事園區,2023-12-06,23.57543,120.14121,0.9998333
C0O990,媽廟,2023-12-06,22.99175,120.293525,1.3917745e-05
C0D480,打鐵坑,2023-12-06,24.849664,121.150789,0.00012221107
C0Z220,和平林道,2023-12-06,24.343922,121.656317,6.2300063e-09
72C440,桃園農改場,2023-12-06,24.950944,121.030583,0.9973813
C1E711,馬拉邦山,2023-12-06,24.367306,120.901656,8.3369517e-10
C0D560,竹東,2023-12-06,24.767147,121.057881,3.7750507e-07
C0F9U0,南屯,2023-12-06,24.137006,120.637969,0.7801833
C0M720,番路,2023-12-06,23.464657,120.554156,2.2953747e-08
C0F0A0,雪山圈谷,2023-12-06,24.388594,121.236339,2.5059993e-08
C1A9N0,四十份,2023-12-06,24.934158,121.593283,1.3526328e-06
C0U760,東澳,2023-12-06,24.52196,121.83318,2.5248688e-08
C0X230,鹽水,2023-12-06,23.272621,120.247641,0.92317736
C0V370,古亭坑,2023-12-06,22.893178,120.401947,3.703175e-08
C1I340,新興橋,2023-12-06,23.563333,120.868728,3.748419e-09
C0SA80,土坂,2023-12-06,22.453108,120.887572,0.7487444
C0R160,鹽埔,2023-12-06,22.739558,120.530778,3.42914e-06
C0AC40,大屯山,2023-12-06,25.175675,121.522408,3.9494747e-08
466850,五分山雷達站,2023-12-06,25.071182,121.781205,9.030286e-08
C1AI50,國三N016K,2023-12-06,25.034164,121.619664,1.4325967e-07
C1V600,藤枝,2023-12-06,23.071961,120.757042,4.371418e-09
C1E601,南勢,2023-12-06,24.572486,120.734842,0.99871504
C0Z180,新城,2023-12-06,24.03946,121.60454,6.2177935e-07
C0O980,新市,2023-12-06,23.061614,120.298197,2.0984799e-05
C0K420,西螺,2023-12-06,23.800407,120.467394,7.723032e-05
C0Z050,佳心,2023-12-06,23.34567,121.21316,7.62951e-09
C0AD30,蘆洲,2023-12-06,25.086594,121.472331,2.66983e-07
C0V610,梓官,2023-12-06,22.760558,120.267211,2.3411383e-05
K2F750,種苗改良場,2023-12-06,24.225972,120.800917,4.3936418e-10
C0UA80,大溪漁港,2023-12-06,24.941801,121.902955,3.3963263e-07
C1AI60,國一39K邊坡,2023-12-06,25.064361,121.383836,8.4988034e-07
C0W150,金寧,2023-12-06,24.457703,118.328989,0.99415517
V2C250,八德合作社,2023-12-06,24.93775,121.266389,0.0002976728
C0AH40,平等,2023-12-06,25.129142,121.577086,2.5958608e-08
C0R540,佳冬,2023-12-06,22.419456,120.552375,0.9981525
466950,彭佳嶼,2023-12-06,25.627975,122.079744,0.999885
C0A890,雙溪,2023-12-06,25.036003,121.864242,3.9313474e-07
C0C480,桃園,2023-12-06,24.992425,121.323172,3.086629e-06
C0AH50,林口,2023-12-06,25.072181,121.38084,2.2460532e-07
A2K360,水試臺西試驗場,2023-12-06,23.717231,120.190522,0.99987096
B2N890,畜試所,2023-12-06,23.058972,120.336406,6.3626626e-06
C0F9S0,烏日,2023-12-06,24.107058,120.624103,0.18869598
C0C490,八德,2023-12-06,24.928708,121.283289,0.00027340295
C0R190,赤山,2023-12-06,22.592333,120.614306,0.013052916
C0T820,天祥,2023-12-06,24.179597,121.495639,3.853374e-08
C1F9E1,龍安,2023-12-06,24.1605,120.831961,5.7579e-10
C0V820,小林,2023-12-06,23.148408,120.63325,8.956159e-10
C2G870,芳苑,2023-12-06,23.922303,120.320025,0.99754024
C0E850,大河,2023-12-06,24.618069,120.948578,4.8344035e-08
C1U670,寒溪,2023-12-06,24.634,121.71691,7.1918005e-09
C0N020,城西,2023-12-06,23.0568,120.0956,0.06441563
C1Z110,三棧,2023-12-06,24.11557,121.60501,2.94103e-08
C0R280,檳榔,2023-12-06,22.076078,120.836777,0.07817175
C0F9L0,后里,2023-12-06,24.310436,120.729725,1.1581226e-09
C0D540,橫山,2023-12-06,24.71116,121.11693,5.465497e-09
C1D420,太閣南,2023-12-06,24.632808,121.160575,6.3987042e-09
C1E770,公館,2023-12-06,24.526914,120.830806,1.9757617e-07
CAN130,水試所海水繁養殖中心,2023-12-06,23.120802,120.07968,0.37178215
C1I430,翠華,2023-12-06,24.191961,121.224339,1.3614568e-08
C1M400,菜瓜坪,2023-12-06,23.251928,120.576103,1.3284375e-09
C0G730,二林,2023-12-06,23.903325,120.376081,0.9972167
72M360,南改義竹分場,2023-12-06,23.360694,120.279361,0.9714863
V2K620,麥寮合作社,2023-12-06,23.753836,120.294783,0.039179265
C0Z070,舞鶴,2023-12-06,23.46811,121.37407,8.439586e-10
C0B040,大武崙,2023-12-06,25.166676,121.706993,3.3364227e-06
C1Z030,紅葉,2023-12-06,23.493119,121.338806,1.0268856e-09
C1I050,丹大,2023-12-06,23.753747,121.141147,1.6371516e-08
C0I080,信義,2023-12-06,23.689694,120.851036,6.550995e-09
C2A880,福隆,2023-12-06,25.017842,121.942083,2.797648e-07
C0Z160,鳳林,2023-12-06,23.746114,121.453411,2.2198992e-09
C0V210,復興,2023-12-06,23.222403,120.806089,3.315864e-09
C0H990,昆陽,2023-12-06,24.121322,121.273642,3.2862047e-08
C0S710,鹿野,2023-12-06,22.917711,121.122994,2.039731e-08
C0I530,小奇萊,2023-12-06,24.131764,121.295717,3.381962e-08
C0Z080,富源,2023-12-06,23.587642,121.378225,4.177335e-09
467441,高雄,2023-12-06,22.7304,120.3125,1.6539307e-05
C1I140,卡奈托灣,2023-12-06,23.754364,121.087872,3.607309e-09
C0I520,玉山風口,2023-12-06,23.470489,120.955994,2.3364585e-08
C1G691,下水埔,2023-12-06,23.816114,120.5676,2.1906756e-08
C0X110,臺南市南區,2023-12-06,22.961189,120.188378,0.083415665
C0V680,仁武,2023-12-06,22.701083,120.347722,6.820053e-06
C2G840,北斗,2023-12-06,23.877586,120.514222,0.00064969074
C0R900,竹坑,2023-12-06,22.1385,120.7022,0.99931645
C0K250,崙背,2023-12-06,23.75555,120.318925,0.039179265
C0G860,社頭,2023-12-06,23.897647,120.5862,1.4601083e-07
C0X150,安定,2023-12-06,23.102614,120.227839,0.03422197
C0R590,里港,2023-12-06,22.77919,120.49459,1.4411902e-06
C0E610,馬都安,2023-12-06,24.451272,120.930192,2.0376418e-09
C0E550,明德,2023-12-06,24.583486,120.885411,0.00021799604
C0R150,三地門,2023-12-06,22.709889,120.639944,7.82968e-05
C0G910,花壇,2023-12-06,24.032076,120.549461,0.0026621758
C1D400,鳥嘴山,2023-12-06,24.71909,121.28387,4.85313e-08
C0K500,元長,2023-12-06,23.64981,120.315024,0.2901884
C0F0B0,石岡,2023-12-06,24.276061,120.777644,7.777077e-10
C2V250,甲仙,2023-12-06,23.080106,120.591758,1.0881158e-08
C0SA20,金崙山,2023-12-06,22.567419,120.959667,2.5826785e-09
C0V350,溪埔,2023-12-06,22.738578,120.446797,2.570571e-07
C0M660,溪口,2023-12-06,23.604131,120.403569,0.0010521158
C1S880,壽卡,2023-12-06,22.238911,120.858903,0.9988959
72D680,桃改新埔分場,2023-12-06,24.834444,121.066111,0.9907612
