站號,站名,日期,lat,lon,BlastGRU-TW
12J990,口湖工作站,2023-11-16,23.589978,120.180394,0.44219735
12Q970,東港工作站,2023-11-16,22.479997,120.466058,0.17781493
12Q980,恆春工作站,2023-11-16,22.079678,120.714425,0.10968196
466881,新北,2023-11-16,24.9593,121.52,0.024605813
466900,淡水,2023-11-16,25.164889,121.448906,0.0115572335
466920,臺北,2023-11-16,25.037658,121.514853,0.02384673
466940,基隆,2023-11-16,25.133314,121.740475,0.28433344
466990,花蓮,2023-11-16,23.975128,121.613275,0.4233567
467050,新屋,2023-11-16,25.006744,121.047486,0.03861234
467080,宜蘭,2023-11-16,24.763975,121.756528,0.8403547
467270,田中,2023-11-16,23.873803,120.581286,0.44465983
467300,東吉島,2023-11-16,23.25695,119.667467,0.53518474
467350,澎湖,2023-11-16,23.565503,119.563094,0.365223
467410,臺南,2023-11-16,22.993239,120.204772,0.60064113
467420,永康,2023-11-16,23.038386,120.2367,0.41037336
467441,高雄,2023-11-16,22.7304,120.3125,0.46460193
467480,嘉義,2023-11-16,23.495925,120.432906,0.5977113
467490,臺中,2023-11-16,24.145736,120.684075,0.88787884
467540,大武,2023-11-16,22.355675,120.903789,0.07777019
467571,新竹,2023-11-16,24.827853,121.014219,0.11114085
467590,恆春,2023-11-16,22.003897,120.746339,0.2950116
467610,成功,2023-11-16,23.097486,121.373428,0.22059384
467620,蘭嶼,2023-11-16,22.036969,121.558339,0.05587436
467660,臺東,2023-11-16,22.752211,121.154586,0.2686755
467790,墾丁雷達站,2023-11-16,21.948235,120.808028,0.08390096
72AI40,桃改樹林分場,2023-11-16,24.944503,121.386972,0.0783663
72C440,桃園農改,2023-11-16,24.950944,121.030583,0.1579043
72C440,桃園農改場,2023-11-16,24.950944,121.030583,0.1579043
72D680,桃改新埔分場,2023-11-16,24.834444,121.066111,0.10526909
72G600,臺中農改,2023-11-16,24.003028,120.534389,0.26846597
72G600,臺中農改場,2023-11-16,24.003028,120.534389,0.26846585
72K220,南改斗南分場,2023-11-16,23.634556,120.477333,0.3990823
72M360,南改義竹分場,2023-11-16,23.360694,120.279361,0.4886166
72M700,南改鹿草分場,2023-11-16,23.416869,120.283061,0.5830208
72N100,臺南農改,2023-11-16,23.0605,120.342194,0.41927183
72N100,臺南農改場,2023-11-16,23.0605,120.342194,0.41927183
72N240,七股研究中心,2023-11-16,23.081672,120.062894,0.53548604
72Q010,高雄農改,2023-11-16,22.709333,120.525889,0.53770155
72Q010,高雄農改場,2023-11-16,22.709333,120.525889,0.537701
72S200,東改班鳩分場,2023-11-16,22.829528,121.077694,0.023169978
72S590,東改賓朗果園,2023-11-16,22.813889,121.071278,0.03572858
72T250,花蓮農改,2023-11-16,23.975222,121.563889,0.08579136
72T250,花蓮農改場,2023-11-16,23.975222,121.563889,0.08579136
72U480,花改蘭陽分場,2023-11-16,24.686306,121.716583,0.87768114
72V140,高改旗南分場,2023-11-16,22.857861,120.516667,0.3786094
82A750,茶改北部分場,2023-11-16,24.955778,121.631222,0.023105942
82C160,茶改場,2023-11-16,24.908472,121.185333,0.08342566
82H840,茶改南部分場,2023-11-16,23.762528,120.7405,0.025582427
82S580,茶改東部分場,2023-11-16,22.907694,121.130139,0.04411296
A2C560,農工中心,2023-11-16,24.985917,121.239833,0.050155256
A2K360,水試臺西試驗場,2023-11-16,23.717231,120.190522,0.48217922
A2K570,古坑花卉中心,2023-11-16,23.63353,120.55239,0.13640794
A2K630,臺大雲林校區,2023-11-16,23.730628,120.423903,0.54381734
A2N290,臺南蘭花園區,2023-11-16,23.340258,120.379661,0.50053245
B2E890,畜試北區分所,2023-11-16,24.527806,120.770972,0.16676363
B2N890,畜產試驗所,2023-11-16,23.058972,120.336406,0.41927183
B2N890,畜試所,2023-11-16,23.058972,120.336406,0.41927183
B2Q810,畜試南區分所,2023-11-16,21.945583,120.802167,0.05971526
B2U990,畜試東區分所,2023-11-16,24.669039,121.832561,0.979931
C0A520,山佳,2023-11-16,24.974944,121.402008,0.025361154
C0A530,坪林,2023-11-16,24.938183,121.70975,0.31401005
C0A540,四堵,2023-11-16,24.8926,121.745736,0.31954592
C0A550,泰平,2023-11-16,24.971197,121.823711,0.66962504
C0A560,福山,2023-11-16,24.776203,121.502811,0.83983177
C0A570,桶後,2023-11-16,24.848222,121.597992,0.69824684
C0A640,石碇,2023-11-16,24.993969,121.662917,0.01154266
C0A650,火燒寮,2023-11-16,25.002719,121.742892,0.48525792
C0A660,瑞芳,2023-11-16,25.113169,121.801147,0.2839371
C0A770,科教館,2023-11-16,25.096356,121.516507,0.021168716
C0A860,大坪,2023-11-16,25.165914,121.632969,0.17780377
C0A880,福隆,2023-11-16,25.017842,121.942083,0.9261787
C0A890,雙溪,2023-11-16,25.036003,121.864242,0.7039801
C0A920,富貴角,2023-11-16,25.263783,121.565258,0.011630226
C0A931,三和,2023-11-16,25.233153,121.595236,0.141808
C0A940,金山,2023-11-16,25.223628,121.643967,0.3317289
C0A950,鼻頭角,2023-11-16,25.129036,121.923372,0.025282683
C0A970,三貂角,2023-11-16,25.007606,122.002058,0.91855246
C0A980,社子,2023-11-16,25.109508,121.469681,0.013634315
C0A9C0,天母,2023-11-16,25.117494,121.537169,0.018065862
C0A9F0,內湖,2023-11-16,25.079422,121.57545,0.014353029
C0AC60,三峽,2023-11-16,24.939025,121.369728,0.08358827
C0AC70,信義,2023-11-16,25.037822,121.564597,0.016777283
C0AC80,文山,2023-11-16,25.00235,121.575728,0.010797802
C0ACA0,新莊,2023-11-16,25.051478,121.446756,0.022706777
C0AD00,三芝,2023-11-16,25.258131,121.501917,0.008449686
C0AD10,八里,2023-11-16,25.150211,121.403947,0.021384854
C0AD30,蘆洲,2023-11-16,25.086594,121.472331,0.021168716
C0AD40,土城,2023-11-16,24.973208,121.445169,0.02850621
C0AD50,鶯歌,2023-11-16,24.951533,121.346294,0.09126737
C0AG80,中和,2023-11-16,24.991622,121.491792,0.0131902965
C0AH00,汐止,2023-11-16,25.066881,121.658778,0.05359236
C0AH10,永和,2023-11-16,25.01125,121.508111,0.013119135
C0AH40,平等,2023-11-16,25.129142,121.577086,0.42411393
C0AH50,林口,2023-11-16,25.072181,121.38084,0.015837295
C0AH70,松山,2023-11-16,25.04871,121.55042,0.016777283
C0AH80,深坑,2023-11-16,25.002703,121.628328,0.009089005
C0AI00,五股,2023-11-16,25.07445,121.42728,0.02966616
C0AI10,屈尺,2023-11-16,24.92184,121.54475,0.14119013
C0AI20,白沙灣,2023-11-16,25.283128,121.519058,0.025014075
C0AI30,三重,2023-11-16,25.057328,121.500629,0.023303267
C0AI40,石牌,2023-11-16,25.115597,121.513139,0.028075017
C0AJ20,野柳,2023-11-16,25.20703,121.690021,0.17738456
C0AJ30,淡水觀海,2023-11-16,25.184591,121.408616,0.028629528
C0AJ40,石門,2023-11-16,25.273672,121.601198,0.018081786
C0AJ50,水湳洞,2023-11-16,25.123695,121.862238,0.23512688
C0AJ60,六塊厝,2023-11-16,25.24,121.4481,0.01907596
C0AJ70,田寮,2023-11-16,25.2698,121.4886,0.008586562
C0AJ80,板橋,2023-11-16,25.0107,121.4489,0.015797982
C0AJ90,澳底,2023-11-16,25.0552,121.9253,0.64475924
C0B010,七堵,2023-11-16,25.094819,121.71713,0.14066967
C0B020,基隆嶼,2023-11-16,25.19141,121.78391,0.039880693
C0B040,大武崙,2023-11-16,25.166676,121.706993,0.2602563
C0B050,八斗子,2023-11-16,25.144754,121.79167,0.24348655
C0B060,暖暖,2023-11-16,25.0957,121.7403,0.24293034
C0C460,復興,2023-11-16,24.820208,121.352281,0.1707098
C0C480,桃園,2023-11-16,24.992425,121.323172,0.056174118
C0C490,八德,2023-11-16,24.928708,121.283289,0.054285448
C0C590,觀音,2023-11-16,25.027072,121.153317,0.026805114
C0C620,蘆竹,2023-11-16,25.084275,121.265767,0.04123221
C0C630,大溪,2023-11-16,24.882853,121.265547,0.033003278
C0C650,平鎮,2023-11-16,24.897503,121.214636,0.032334358
C0C660,楊梅,2023-11-16,24.912375,121.143047,0.09588371
C0C670,龍潭,2023-11-16,24.870056,121.221389,0.032823924
C0C680,龜山,2023-11-16,25.02846,121.38656,0.016041975
C0C700,中壢,2023-11-16,24.977661,121.256375,0.04866283
C0C710,大溪永福,2023-11-16,24.892936,121.324975,0.024661014
C0C720,竹圍,2023-11-16,25.112692,121.239824,0.021087145
C0C730,中大臨海站,2023-11-16,24.966126,121.008581,0.06658703
C0C740,觀音工業區,2023-11-16,25.064764,121.114856,0.029202644
C0C750,新興坑尾,2023-11-16,25.0061,121.0971,0.026307352
C0D430,峨眉,2023-11-16,24.6905,121.017189,0.036722023
C0D480,打鐵坑,2023-11-16,24.849664,121.150789,0.027637497
C0D540,橫山,2023-11-16,24.71116,121.11693,0.038413037
C0D560,竹東,2023-11-16,24.767147,121.057881,0.06840639
C0D580,寶山,2023-11-16,24.735006,121.025192,0.056497026
C0D590,新豐,2023-11-16,24.87068,120.97721,0.10976882
C0D650,湖口,2023-11-16,24.904794,121.043628,0.058403164
C0D660,新竹市東區,2023-11-16,24.798681,120.986942,0.0994279
C0D670,海天一線,2023-11-16,24.831986,120.914438,0.2565355
C0D680,香山濕地,2023-11-16,24.783581,120.914988,0.11194969
C0D690,外湖,2023-11-16,24.917735,120.968711,0.23531155
C0D700,關西,2023-11-16,24.7977,121.1732,0.07144515
C0E420,竹南,2023-11-16,24.708978,120.888897,0.045969747
C0E430,南庄,2023-11-16,24.601775,121.000214,0.041131716
C0E520,大湖,2023-11-16,24.41494,120.87087,0.05876999
C0E540,後龍,2023-11-16,24.606489,120.783933,0.02822348
C0E550,明德,2023-11-16,24.583486,120.885411,0.08417489
C0E590,通霄,2023-11-16,24.471892,120.704622,0.24205567
C0E730,頭份,2023-11-16,24.688247,120.912206,0.046332624
C0E740,造橋,2023-11-16,24.637056,120.864778,0.037198182
C0E750,苗栗,2023-11-16,24.564569,120.824575,0.062321927
C0E780,銅鑼,2023-11-16,24.489681,120.790853,0.12053316
C0E791,卓蘭,2023-11-16,24.3126,120.8244,0.032917567
C0E810,西湖,2023-11-16,24.562947,120.7485,0.07228011
C0E820,獅潭,2023-11-16,24.539133,120.920042,0.032234088
C0E830,苑裡,2023-11-16,24.439714,120.653053,0.09548584
C0E850,大河,2023-11-16,24.618069,120.948578,0.026387682
C0E870,高鐵苗栗,2023-11-16,24.60725,120.826094,0.028459394
C0E910,海埔,2023-11-16,24.648767,120.772435,0.048038512
C0E920,通霄漁港,2023-11-16,24.498589,120.673876,0.2667012
C0E930,龍鳳,2023-11-16,24.700034,120.859125,0.044494662
C0F0B0,石岡,2023-11-16,24.276061,120.777644,0.04496869
C0F850,東勢,2023-11-16,24.246428,120.833047,0.06388715
C0F930,大甲,2023-11-16,24.347667,120.640403,0.12526439
C0F970,大坑,2023-11-16,24.173142,120.722289,0.90352637
C0F9A0,中竹林,2023-11-16,24.103556,120.751061,0.067171186
C0F9I0,神岡,2023-11-16,24.272481,120.658314,0.5680083
C0F9K0,大安,2023-11-16,24.345061,120.588025,0.1339732
C0F9L0,后里,2023-11-16,24.310436,120.729725,0.048621003
C0F9M0,豐原,2023-11-16,24.254322,120.720692,0.052763656
C0F9N0,大里,2023-11-16,24.092464,120.701378,0.43455982
C0F9O0,潭子,2023-11-16,24.213106,120.703933,0.1851689
C0F9P0,清水,2023-11-16,24.312297,120.562242,0.10515787
C0F9Q0,外埔,2023-11-16,24.347817,120.705686,0.07557281
C0F9R0,龍井,2023-11-16,24.184536,120.528972,0.124565355
C0F9S0,烏日,2023-11-16,24.107058,120.624103,0.42015386
C0F9T0,西屯,2023-11-16,24.179494,120.641275,0.21671358
C0F9U0,南屯,2023-11-16,24.137006,120.637969,0.28278327
C0F9X0,大雅(中科園區),2023-11-16,24.21528,120.62445,0.24822237
C0FA10,松柏,2023-11-16,24.429115,120.617482,0.093103915
C0FA20,溫寮,2023-11-16,24.372177,120.583125,0.13084838
C0FA30,梧棲,2023-11-16,24.256003,120.523381,0.09730884
C0FA40,臺中電廠,2023-11-16,24.2146,120.4907,0.124565355
C0FA50,霧峰,2023-11-16,24.0419,120.6995,0.29407755
C0G620,芬園,2023-11-16,24.015678,120.6213,0.31504992
C0G640,鹿港,2023-11-16,24.0753,120.430481,0.15667906
C0G650,員林,2023-11-16,23.946503,120.585597,0.46198893
C0G660,溪湖,2023-11-16,23.94835,120.479122,0.3431513
C0G720,溪州,2023-11-16,23.851589,120.499093,0.43943033
C0G730,二林,2023-11-16,23.903325,120.376081,0.2439521
C0G740,大城,2023-11-16,23.852487,120.320935,0.6796318
C0G770,福興,2023-11-16,24.041289,120.437669,0.17494585
C0G780,秀水,2023-11-16,24.03405,120.503869,0.25156212
C0G800,埔鹽,2023-11-16,24.000394,120.431683,0.17086326
C0G810,埔心,2023-11-16,23.947633,120.525456,0.346079
C0G820,田尾,2023-11-16,23.901669,120.509389,0.3488003
C0G830,埤頭,2023-11-16,23.866003,120.452806,0.44093245
C0G840,北斗,2023-11-16,23.877586,120.514222,0.42575616
C0G860,社頭,2023-11-16,23.897647,120.5862,0.39577246
C0G870,芳苑,2023-11-16,23.922303,120.320025,0.6197711
C0G880,二水,2023-11-16,23.810742,120.6173,0.11523625
C0G890,伸港,2023-11-16,24.148933,120.484403,0.14891246
C0G900,線西,2023-11-16,24.143358,120.443536,0.13324264
C0G910,花壇,2023-11-16,24.032076,120.549461,0.20845045
C0G920,永靖,2023-11-16,23.924703,120.547533,0.34030637
C0G940,竹塘,2023-11-16,23.848253,120.386764,0.3934751
C0G950,防潮門,2023-11-16,24.1835,120.4871,0.124565355
C0G960,福寶,2023-11-16,24.0443,120.3814,0.15780121
C0G970,三豐,2023-11-16,23.882,120.2895,0.66300535
C0H890,埔里,2023-11-16,23.972169,120.952425,0.056545135
C0H950,中寮,2023-11-16,23.884447,120.766406,0.062004898
C0H960,草屯,2023-11-16,23.973672,120.68085,0.29727414
C0I110,竹山,2023-11-16,23.761225,120.688156,0.055007532
C0I360,水里,2023-11-16,23.812553,120.849792,0.028532123
C0I380,集集,2023-11-16,23.828206,120.801467,0.036183912
C0I410,名間,2023-11-16,23.837053,120.701447,0.07148226
C0I420,國姓,2023-11-16,24.037803,120.855072,0.038473837
C0I460,南投,2023-11-16,23.911469,120.687331,0.105922796
C0K250,崙背,2023-11-16,23.75555,120.318925,0.48125252
C0K280,四湖,2023-11-16,23.630414,120.227125,0.44928077
C0K291,宜梧,2023-11-16,23.536281,120.169329,0.47774354
C0K330,虎尾,2023-11-16,23.719183,120.442036,0.5602834
C0K390,土庫,2023-11-16,23.679029,120.395574,0.5789291
C0K400,斗六,2023-11-16,23.720583,120.541127,0.52244437
C0K410,北港,2023-11-16,23.573957,120.292802,0.537419
C0K420,西螺,2023-11-16,23.800407,120.467394,0.49321905
C0K430,褒忠,2023-11-16,23.690938,120.303634,0.47533485
C0K440,二崙,2023-11-16,23.772797,120.408944,0.4956748
C0K450,大埤,2023-11-16,23.646074,120.431537,0.38929722
C0K460,斗南,2023-11-16,23.678734,120.478359,0.37460193
C0K470,林內,2023-11-16,23.748675,120.609642,0.10755424
C0K480,莿桐,2023-11-16,23.761192,120.502372,0.61812127
C0K500,元長,2023-11-16,23.64981,120.315024,0.49777147
C0K510,水林,2023-11-16,23.572924,120.24597,0.5504179
C0K530,臺西,2023-11-16,23.701547,120.197559,0.4844268
C0K550,蔦松,2023-11-16,23.514319,120.229736,0.44631228
C0K560,棋山,2023-11-16,23.68645,120.603417,0.08768257
C0K580,高鐵雲林,2023-11-16,23.737456,120.417944,0.5438175
C0K590,雲林東勢,2023-11-16,23.674192,120.255721,0.51687545
C0K600,箔子寮,2023-11-16,23.6197,120.14,0.46920514
C0M410,馬頭山,2023-11-16,23.324361,120.582017,0.06838475
C0M520,東後寮,2023-11-16,23.369908,120.248065,0.4886166
C0M640,中埔,2023-11-16,23.42538,120.5229,0.15230109
C0M650,朴子,2023-11-16,23.43463,120.23902,0.56223154
C0M660,溪口,2023-11-16,23.604131,120.403569,0.62107563
C0M670,大林,2023-11-16,23.600616,120.45841,0.6162798
C0M680,太保,2023-11-16,23.455062,120.331455,0.48675084
C0M690,水上,2023-11-16,23.419734,120.388909,0.50472105
C0M700,竹崎,2023-11-16,23.526178,120.555508,0.13029118
C0M710,東石,2023-11-16,23.458927,120.15385,0.44593844
C0M720,番路,2023-11-16,23.464657,120.554156,0.06608201
C0M730,嘉義市東區,2023-11-16,23.457673,120.460531,0.19600935
C0M740,六腳,2023-11-16,23.492871,120.290625,0.61497235
C0M750,布袋,2023-11-16,23.380878,120.167789,0.5087084
C0M760,民雄,2023-11-16,23.551754,120.428457,0.6158505
C0M770,嘉義梅山,2023-11-16,23.585398,120.555587,0.07487894
C0M780,鹿草,2023-11-16,23.41134,120.30835,0.58595985
C0M790,新港,2023-11-16,23.553269,120.345728,0.6475154
C0M800,茶山,2023-11-16,23.299075,120.664767,0.14350744
C0M880,好美里,2023-11-16,23.3364,120.138,0.5640466
C0N010,鯤鯓國小,2023-11-16,23.1879,120.0889,0.5919745
C0N020,城西,2023-11-16,23.0568,120.0956,0.6104301
C0N030,四草,2023-11-16,23.0235,120.1116,0.64403933
C0N040,蘆竹溝,2023-11-16,23.2344,120.0961,0.5528123
C0N050,蚵寮,2023-11-16,23.301,120.1104,0.5675091
C0O810,曾文,2023-11-16,23.219681,120.497328,0.23295203
C0O830,北寮,2023-11-16,23.079561,120.495008,0.5125236
C0O840,王爺宮,2023-11-16,23.222064,120.40085,0.28295708
C0O860,大內,2023-11-16,23.11885,120.36083,0.40494147
C0O900,善化,2023-11-16,23.112883,120.297219,0.39370924
C0O930,玉井,2023-11-16,23.126042,120.46055,0.31367722
C0O950,安南,2023-11-16,23.076694,120.144861,0.43746907
C0O960,崎頂,2023-11-16,22.959547,120.369317,0.41898355
C0O970,虎頭埤,2023-11-16,23.021375,120.347878,0.345959
C0O980,新市,2023-11-16,23.061614,120.298197,0.4114424
C0O990,媽廟,2023-11-16,22.99175,120.293525,0.4784368
C0R150,三地門,2023-11-16,22.709889,120.639944,0.44815096
C0R160,鹽埔,2023-11-16,22.739558,120.530778,0.5172239
C0R170,屏東,2023-11-16,22.660269,120.494072,0.5244425
C0R190,赤山,2023-11-16,22.592333,120.614306,0.11206094
C0R220,潮州,2023-11-16,22.534361,120.54,0.18915245
C0R240,來義,2023-11-16,22.527306,120.625111,0.17001875
C0R260,春日,2023-11-16,22.370361,120.628306,0.58062464
C0R270,琉球嶼,2023-11-16,22.332244,120.362236,0.48388866
C0R280,檳榔,2023-11-16,22.076078,120.836777,0.21790338
C0R320,車城,2023-11-16,22.0744,120.716247,0.109681904
C0R341,牡丹,2023-11-16,22.130036,120.792639,0.21663877
C0R350,貓鼻頭,2023-11-16,21.921774,120.7358,0.015334286
C0R470,高樹,2023-11-16,22.826389,120.600806,0.27835912
C0R480,長治,2023-11-16,22.693128,120.542622,0.662261
C0R490,九如,2023-11-16,22.7405,120.490503,0.5090707
C0R520,崁頂,2023-11-16,22.514781,120.506914,0.17750967
C0R540,佳冬,2023-11-16,22.419456,120.552375,0.46934605
C0R550,新埤,2023-11-16,22.467947,120.582894,0.23093037
C0R560,新園,2023-11-16,22.5434,120.461558,0.46405604
C0R570,麟洛,2023-11-16,22.65078,120.52719,0.5244425
C0R580,南州,2023-11-16,22.48591,120.50274,0.18575169
C0R590,里港,2023-11-16,22.77919,120.49459,0.4529969
C0R620,墾雷,2023-11-16,21.900836,120.855269,0.014629219
C0R640,東港,2023-11-16,22.46247,120.44074,0.17082593
C0R650,竹田,2023-11-16,22.58486,120.54344,0.22452216
C0R660,枋寮,2023-11-16,22.367722,120.590647,0.46934578
C0R670,楓港,2023-11-16,22.190131,120.692156,0.16605161
C0R680,佳樂水,2023-11-16,21.993578,120.861633,0.06333156
C0R690,墾丁,2023-11-16,21.966756,120.810269,0.09172534
C0R700,枋山,2023-11-16,22.246844,120.661086,0.19064265
C0R710,龍磐,2023-11-16,21.931672,120.838942,0.025346097
C0R720,旭海,2023-11-16,22.205403,120.887614,0.55084115
C0R730,大坪頂,2023-11-16,22.024633,120.69355,0.31945172
C0R740,獅子,2023-11-16,22.201569,120.70525,0.7093434
C0R760,南仁湖,2023-11-16,22.084681,120.863353,0.31963602
C0R770,保力,2023-11-16,22.071122,120.764111,0.2015376
C0R780,滿州,2023-11-16,22.024403,120.839892,0.35079473
C0R790,九棚,2023-11-16,22.14195,120.889281,0.45562643
C0R800,丹路,2023-11-16,22.204481,120.750989,0.31904182
C0R810,內獅,2023-11-16,22.305064,120.642986,0.2928938
C0R830,高士,2023-11-16,22.121825,120.836781,0.2756813
C0R850,林邊,2023-11-16,22.4634,120.5339,0.22215454
C0R860,鼻頭,2023-11-16,22.1043,120.8979,0.24256945
C0R870,興海,2023-11-16,21.9752,120.8439,0.05971526
C0R880,後壁湖,2023-11-16,21.9457,120.7457,0.05011628
C0R890,山海,2023-11-16,21.9878,120.7091,0.051948633
C0R900,竹坑,2023-11-16,22.1385,120.7022,0.1144358
C0R910,下寮,2023-11-16,22.3929,120.5548,0.46934605
C0R920,塭仔,2023-11-16,22.4169,120.5197,0.33385321
C0R930,萬丹,2023-11-16,22.5885,120.4851,0.30601302
C0R940,加祿堂,2023-11-16,22.3363,120.6217,0.21854834
C0S710,鹿野,2023-11-16,22.917711,121.122994,0.046482496
C0S730,綠島,2023-11-16,22.6672,121.47533,0.8625018
C0S740,池上,2023-11-16,23.119628,121.209469,0.083922625
C0S770,大溪山,2023-11-16,22.478475,120.943325,0.15916376
C0S790,金崙,2023-11-16,22.538122,120.966875,0.15286988
C0S810,東河,2023-11-16,22.972672,121.303986,0.20798935
C0S830,長濱,2023-11-16,23.286817,121.411975,0.20098577
C0S840,南田,2023-11-16,22.279725,120.889208,0.8008943
C0S890,關山,2023-11-16,23.0395,121.175017,0.12834938
C0S900,蘭嶼高中,2023-11-16,22.04909,121.51214,0.05152198
C0S910,蘭嶼燈塔,2023-11-16,22.081197,121.503117,0.16704644
C0S920,金峰嘉蘭,2023-11-16,22.594789,120.960825,0.12666304
C0S930,延平,2023-11-16,22.902581,121.084058,0.020975934
C0S940,石寧山,2023-11-16,23.223772,121.406639,0.45754227
C0S950,七塊厝,2023-11-16,22.954453,121.229922,0.05434476
C0S960,香蘭,2023-11-16,22.587569,120.993375,0.6973651
C0S970,加津林,2023-11-16,22.416211,120.926942,0.5914502
C0S990,山豬窟,2023-11-16,22.318619,120.857372,0.28603786
C0SA00,歷坵,2023-11-16,22.520969,120.89185,0.08390076
C0SA10,檳榔四格山,2023-11-16,22.810031,121.109308,0.09523577
C0SA30,都歷,2023-11-16,23.020333,121.323642,0.3517323
C0SA40,瑞和,2023-11-16,22.974361,121.156697,0.07319441
C0SA60,知本（水試所）,2023-11-16,22.702394,121.082761,0.8063846
C0SA80,土坂,2023-11-16,22.453108,120.887572,0.041949272
C0SA90,達仁林場,2023-11-16,22.264347,120.823972,0.123599954
C0T870,鯉魚潭,2023-11-16,23.935639,121.508944,0.06564661
C0T900,西林,2023-11-16,23.8119,121.441458,0.11152932
C0T960,光復,2023-11-16,23.660694,121.424964,0.31243637
C0T9A0,月眉山,2023-11-16,23.809928,121.539828,0.039414465
C0T9D0,和中,2023-11-16,24.26676,121.74103,0.9463487
C0T9E0,大坑,2023-11-16,23.880628,121.581981,0.15144025
C0T9F0,水璉,2023-11-16,23.797131,121.542514,0.1437193
C0T9I0,豐濱,2023-11-16,23.583897,121.514806,0.5039075
C0T9M0,靜浦,2023-11-16,23.455167,121.495028,0.66794366
C0T9N0,富里,2023-11-16,23.171639,121.249378,0.2418857
C0U600,礁溪,2023-11-16,24.817539,121.765608,0.36868098
C0U650,玉蘭,2023-11-16,24.675286,121.587061,0.7672871
C0U750,龜山島,2023-11-16,24.841667,121.953133,0.986423
C0U760,東澳,2023-11-16,24.52196,121.83318,0.97705233
C0U770,南澳,2023-11-16,24.44935,121.81022,0.9569387
C0U780,五結,2023-11-16,24.68637,121.79794,0.9427132
C0U860,頭城,2023-11-16,24.85323,121.8308,0.39546672
C0U870,大礁溪,2023-11-16,24.791042,121.675047,0.47417083
C0U880,北關,2023-11-16,24.9072,121.8734,0.7940895
C0U890,三星,2023-11-16,24.66812,121.65302,0.91359293
C0U900,內城,2023-11-16,24.71813,121.68766,0.87252694
C0U910,冬山,2023-11-16,24.63373,121.7937,0.979931
C0U940,羅東,2023-11-16,24.68184,121.74934,0.9140908
C0U970,大福,2023-11-16,24.80064,121.81389,0.8033205
C0U990,員山,2023-11-16,24.74435,121.72247,0.8670727
C0UA00,土場,2023-11-16,24.576533,121.495333,0.77281547
C0UA80,大溪漁港,2023-11-16,24.941801,121.902955,0.8289242
C0UA90,石城,2023-11-16,24.980444,121.951214,0.92446524
C0UB00,淡江大學蘭陽校園,2023-11-16,24.823239,121.730383,0.42328075
C0UB10,蘇澳,2023-11-16,24.5969,121.8571,0.99006665
C0UB20,壯圍,2023-11-16,24.7359,121.8163,0.922497
C0V250,甲仙,2023-11-16,23.080106,120.591758,0.4212726
C0V260,月眉,2023-11-16,22.971003,120.539853,0.2726917
C0V310,美濃,2023-11-16,22.898742,120.519153,0.34501365
C0V350,溪埔,2023-11-16,22.738578,120.446797,0.52679276
C0V360,內門,2023-11-16,22.975481,120.466769,0.31449908
C0V370,古亭坑,2023-11-16,22.893178,120.401947,0.41450438
C0V400,阿公店,2023-11-16,22.804194,120.355528,0.4533854
C0V440,鳳山,2023-11-16,22.646653,120.356122,0.5203034
C0V450,鳳森,2023-11-16,22.545064,120.392592,0.44600752
C0V490,新興,2023-11-16,22.627422,120.298803,0.5046415
C0V530,阿蓮,2023-11-16,22.883208,120.327508,0.39596635
C0V610,梓官,2023-11-16,22.760558,120.267211,0.5000698
C0V620,永安,2023-11-16,22.82315,120.236856,0.3740287
C0V630,茄萣,2023-11-16,22.906642,120.182608,0.38572744
C0V640,湖內,2023-11-16,22.887139,120.2445,0.36882114
C0V650,彌陀,2023-11-16,22.783806,120.246361,0.3740287
C0V660,岡山,2023-11-16,22.797078,120.294958,0.35346127
C0V680,仁武,2023-11-16,22.701083,120.347722,0.5083003
C0V690,鼓山,2023-11-16,22.623325,120.275575,0.5805153
C0V700,三民,2023-11-16,22.645017,120.311233,0.46065736
C0V710,苓雅,2023-11-16,22.622742,120.330669,0.5217069
C0V720,林園,2023-11-16,22.507747,120.394511,0.43774754
C0V730,大寮,2023-11-16,22.605614,120.395717,0.5463263
C0V740,旗山,2023-11-16,22.888614,120.483597,0.34907806
C0V750,路竹,2023-11-16,22.854997,120.259439,0.39092234
C0V760,橋頭,2023-11-16,22.757806,120.30575,0.4587379
C0V770,大社,2023-11-16,22.730306,120.346639,0.5025328
C0V790,萬山,2023-11-16,22.905944,120.688056,0.054308888
C0V800,六龜,2023-11-16,22.997889,120.633583,0.62778264
C0V810,左營,2023-11-16,22.67491,120.28491,0.46065736
C0V820,小林,2023-11-16,23.148408,120.63325,0.3717037
C0V840,鳳鼻頭,2023-11-16,22.5083,120.3591,0.43236068
C0V850,蚵仔寮,2023-11-16,22.7256,120.2527,0.4981972
C0V860,南寮,2023-11-16,22.7616,120.2339,0.4981972
C0V870,文安,2023-11-16,22.8025,120.2164,0.43600518
C0V880,興達,2023-11-16,22.8778,120.2127,0.38572744
C0V890,前鎮,2023-11-16,22.5718,120.3117,0.55182606
C0V900,汕尾,2023-11-16,22.4782,120.4151,0.17781493
C0X050,東河,2023-11-16,23.296598,120.385608,0.3406565
C0X060,下營,2023-11-16,23.22695,120.256261,0.4988052
C0X080,佳里,2023-11-16,23.173039,120.145086,0.5081514
C0X100,臺南市北區,2023-11-16,23.010394,120.194228,0.59582347
C0X110,臺南市南區,2023-11-16,22.961189,120.188378,0.4381945
C0X120,麻豆,2023-11-16,23.183289,120.248611,0.56885463
C0X130,官田,2023-11-16,23.193217,120.315422,0.33463493
C0X140,西港,2023-11-16,23.125608,120.203108,0.58960915
C0X150,安定,2023-11-16,23.102614,120.227839,0.5903961
C0X160,仁德,2023-11-16,22.968258,120.257689,0.43387887
C0X170,關廟,2023-11-16,22.963017,120.327797,0.41729406
C0X180,山上,2023-11-16,23.0757,120.363253,0.32354772
C0X190,安平,2023-11-16,22.993161,120.152181,0.64302677
C0X200,左鎮,2023-11-16,23.056758,120.408522,0.32802874
C0X210,白河,2023-11-16,23.347466,120.414427,0.20982336
C0X220,學甲,2023-11-16,23.230367,120.182187,0.4804911
C0X230,鹽水,2023-11-16,23.272621,120.247641,0.4710738
C0X240,關子嶺,2023-11-16,23.331169,120.508025,0.10128071
C0X250,新營,2023-11-16,23.310689,120.316681,0.44318935
C0X260,後壁,2023-11-16,23.366358,120.362326,0.5005323
C0X280,將軍,2023-11-16,23.214999,120.13577,0.5204888
C0X290,北門,2023-11-16,23.267772,120.125481,0.5528123
C0X300,鹿寮,2023-11-16,23.386047,120.477331,0.123287015
C0X310,七股,2023-11-16,23.147289,120.086253,0.59598124
C0X320,柳營,2023-11-16,23.253328,120.375253,0.27462667
C0Z020,明里,2023-11-16,23.208717,121.262342,0.32379708
C0Z061,玉里,2023-11-16,23.3215,121.339656,0.15317532
C0Z070,舞鶴,2023-11-16,23.46811,121.37407,0.18105766
C0Z080,富源,2023-11-16,23.587642,121.378225,0.44849312
C0Z100,東華,2023-11-16,23.89525,121.549833,0.2750847
C0Z150,吉安光華,2023-11-16,23.930925,121.595153,0.5466032
C0Z160,鳳林,2023-11-16,23.746114,121.453411,0.13750817
C0Z170,卓溪,2023-11-16,23.3443,121.3029,0.14369522
C0Z180,新城,2023-11-16,24.03946,121.60454,0.44612667
C0Z190,富世,2023-11-16,24.14743,121.6297,0.07553999
C0Z200,萬榮,2023-11-16,23.709219,121.420106,0.17936823
C0Z210,瑞穗,2023-11-16,23.5239,121.39021,0.17281634
C0Z230,和平,2023-11-16,24.30717,121.77007,0.9004579
C0Z270,蕃薯寮,2023-11-16,23.73835,121.540108,0.1704045
C0Z280,德武,2023-11-16,23.47426,121.41071,0.33756906
C0Z300,東里,2023-11-16,23.26853,121.30547,0.27105752
C0Z310,清水斷崖,2023-11-16,24.218294,121.689142,0.5159506
C0Z330,安通山,2023-11-16,23.290728,121.348528,0.23112813
CAG100,王功漁港,2023-11-16,23.96824,120.32586,0.5722177
CAH030,茶改場竹圍站,2023-11-16,23.860083,120.637528,0.08958501
CAJ050,海口故事園區,2023-11-16,23.57543,120.14121,0.46920514
CAL110,布袋國中,2023-11-16,23.35893,120.18026,0.5018857
CAN130,水試所海水繁養殖中心,2023-11-16,23.120802,120.07968,0.53548604
CAN140,六官養殖協會,2023-11-16,23.22881,120.29962,0.50855154
CAQ030,崎峰國小,2023-11-16,22.42565,120.49521,0.18143225
E2K600,四湖植物園,2023-11-16,23.676986,120.163433,0.50782776
E2P980,林試六龜中心,2023-11-16,22.991703,120.645722,0.63440984
E2S960,林試太麻里2,2023-11-16,22.598014,120.989761,0.6973651
E2S980,林試太麻里1,2023-11-16,22.598922,120.980044,0.6910041
G2AI50,關渡,2023-11-16,25.11575,121.492,0.013665915
G2F820,農業試驗所,2023-11-16,24.031261,120.688133,0.29187053
G2F820,農試所(霧峰),2023-11-16,24.031261,120.688133,0.29187015
G2L020,農試嘉義分所,2023-11-16,23.485028,120.473806,0.2790131
G2M350,農試溪口農場,2023-11-16,23.58565,120.408111,0.6097155
G2P820,農試鳳山分所,2023-11-16,22.646611,120.356083,0.5203034
K2E360,苗栗農改,2023-11-16,24.495722,120.829111,0.10991145
K2E360,苗栗農改場,2023-11-16,24.495722,120.829111,0.10991145
K2E710,苗改生物防治研究中心,2023-11-16,24.422861,120.871833,0.053049125
K2F750,種苗改良場,2023-11-16,24.225972,120.800917,0.031122874
K2F750,種苗繁殖,2023-11-16,24.225972,120.800917,0.03112295
U2HA50,臺大竹山,2023-11-16,23.756972,120.681556,0.059982397
V2C250,八德合作社,2023-11-16,24.93775,121.266389,0.038905002
V2C260,八德蔬果,2023-11-16,24.978508,121.281819,0.057791874
V2K610,大庄合作社,2023-11-16,23.8068,120.367939,0.44432464
V2K620,麥寮合作社,2023-11-16,23.753836,120.294783,0.48125252
