站號,站名,日期,lat,lon,BlastGRU-TW
12J990,口湖工作站,2023-04-13,23.589978,120.180394,0.8718299
12Q970,東港工作站,2023-04-13,22.479997,120.466058,0.49242115
12Q980,恆春工作站,2023-04-13,22.079678,120.714425,0.014101609
466881,新北,2023-04-13,24.9593,121.52,0.549912
466900,淡水,2023-04-13,25.164889,121.448906,0.28300387
466920,臺北,2023-04-13,25.037658,121.514853,0.45253003
466940,基隆,2023-04-13,25.133314,121.740475,0.17081746
466990,花蓮,2023-04-13,23.975128,121.613275,0.55500096
467050,新屋,2023-04-13,25.006744,121.047486,0.41265446
467060,蘇澳,2023-04-13,24.596736,121.857372,0.7548653
467080,宜蘭,2023-04-13,24.763975,121.756528,0.44538596
467270,田中,2023-04-13,23.873803,120.581286,0.72108215
467300,東吉島,2023-04-13,23.25695,119.667467,0.55034834
467350,澎湖,2023-04-13,23.565503,119.563094,0.08016503
467410,臺南,2023-04-13,22.993239,120.204772,0.80664474
467420,永康,2023-04-13,23.038386,120.2367,0.80874145
467441,高雄,2023-04-13,22.7304,120.3125,0.40208933
467480,嘉義,2023-04-13,23.495925,120.432906,0.9086911
467490,臺中,2023-04-13,24.145736,120.684075,0.89958036
467540,大武,2023-04-13,22.355675,120.903789,0.029899836
467571,新竹,2023-04-13,24.827853,121.014219,0.457861
467590,恆春,2023-04-13,22.003897,120.746339,0.014005385
467610,成功,2023-04-13,23.097486,121.373428,0.9276035
467620,蘭嶼,2023-04-13,22.036969,121.558339,0.018908467
467660,臺東,2023-04-13,22.752211,121.154586,0.13334857
467790,墾丁雷達站,2023-04-13,21.948235,120.808028,0.013740602
72AI40,桃改臺北分場,2023-04-13,24.944503,121.386972,0.403832
72C440,桃園農改場,2023-04-13,24.950944,121.030583,0.32226852
72D680,新埔,2023-04-13,24.834444,121.066111,0.5259789
72G600,臺中農改場,2023-04-13,24.003028,120.534389,0.8189652
72K220,雲林分場,2023-04-13,23.634556,120.477333,0.73373854
72L140,朴子分場,2023-04-13,23.4982,120.2414,0.90585977
72M360,義竹工作站,2023-04-13,23.360694,120.279361,0.89597553
72M700,嘉義分場,2023-04-13,23.416869,120.283061,0.92158645
72N100,臺南農改場,2023-04-13,23.0605,120.342194,0.8232691
72N240,七股研究中心,2023-04-13,23.081672,120.062894,0.82578605
72Q010,高雄農改場,2023-04-13,22.709333,120.525889,0.44564083
72S200,斑鳩分場,2023-04-13,22.829528,121.077694,0.49236247
72S590,賓朗果園,2023-04-13,22.813889,121.071278,0.33524877
72T250,花蓮農改場,2023-04-13,23.975222,121.563889,0.43028963
72U480,蘭陽分場,2023-04-13,24.686306,121.716583,0.43500698
72V140,旗南,2023-04-13,22.857861,120.516667,0.60881805
82A750,文山分場,2023-04-13,24.955778,121.631222,0.39520693
82C160,茶改場(楊梅),2023-04-13,24.908472,121.185333,0.21283515
82H840,凍頂工作站,2023-04-13,23.762528,120.7405,0.6062688
82S580,龍田,2023-04-13,22.907694,121.130139,0.87905985
A0K420,麥寮,2023-04-13,23.7988,120.2177,0.81621116
A0W080,吉貝,2023-04-13,23.74,119.6042,0.05177779
A2C560,農工中心,2023-04-13,24.985917,121.239833,0.30343822
A2K360,臺西分所,2023-04-13,23.717231,120.190522,0.799165
A2K570,古坑(花卉中心),2023-04-13,23.633531,120.552392,0.8003888
A2K630,臺大雲林校區,2023-04-13,23.730628,120.423903,0.7307241
A2N290,臺南蘭花園區,2023-04-13,23.340258,120.379661,0.91946954
B2E890,新竹畜試,2023-04-13,24.527806,120.770972,0.72239286
B2N890,畜產試驗所,2023-04-13,23.058972,120.336406,0.8232691
B2Q810,恆春分所,2023-04-13,21.945583,120.802167,0.014091325
B2U990,宜蘭畜試,2023-04-13,24.669039,121.832561,0.26837996
C0A520,山佳,2023-04-13,24.974944,121.402008,0.403832
C0A530,坪林,2023-04-13,24.938183,121.70975,0.1868875
C0A540,四堵,2023-04-13,24.8926,121.745736,0.074450165
C0A550,泰平,2023-04-13,24.971197,121.823711,0.09047804
C0A560,福山,2023-04-13,24.776203,121.502811,0.14328252
C0A570,桶後,2023-04-13,24.848222,121.597992,0.102841854
C0A640,石碇,2023-04-13,24.993969,121.662917,0.23292142
C0A650,火燒寮,2023-04-13,25.002719,121.742892,0.13840494
C0A660,瑞芳,2023-04-13,25.113169,121.801147,0.25363612
C0A770,科教館,2023-04-13,25.096356,121.516507,0.38945282
C0A860,大坪,2023-04-13,25.165914,121.632969,0.012911093
C0A880,福隆,2023-04-13,25.017842,121.942083,0.2781378
C0A890,雙溪,2023-04-13,25.036003,121.864242,0.357842
C0A920,富貴角,2023-04-13,25.263783,121.565258,0.22044721
C0A931,三和,2023-04-13,25.233153,121.595236,0.13938639
C0A940,金山,2023-04-13,25.223628,121.643967,0.2391292
C0A950,鼻頭角,2023-04-13,25.129036,121.923372,0.24852072
C0A970,三貂角,2023-04-13,25.007606,122.002058,0.28575635
C0A980,社子,2023-04-13,25.109508,121.469681,0.39171517
C0A9C0,天母,2023-04-13,25.117494,121.537169,0.37418464
C0A9F0,內湖,2023-04-13,25.079422,121.57545,0.40976778
C0AC60,三峽,2023-04-13,24.939025,121.369728,0.42616934
C0AC70,信義,2023-04-13,25.037822,121.564597,0.45149747
C0AC80,文山,2023-04-13,25.00235,121.575728,0.46014047
C0ACA0,新莊,2023-04-13,25.051478,121.446756,0.29244187
C0AD00,三芝,2023-04-13,25.258131,121.501917,0.10462142
C0AD10,八里,2023-04-13,25.150211,121.403947,0.23292696
C0AD30,蘆洲,2023-04-13,25.086594,121.472331,0.38945282
C0AD40,土城,2023-04-13,24.973208,121.445169,0.46097288
C0AD50,鶯歌,2023-04-13,24.951533,121.346294,0.39137658
C0AG80,中和,2023-04-13,24.991622,121.491792,0.48693326
C0AH00,汐止,2023-04-13,25.066881,121.658778,0.21749413
C0AH10,永和,2023-04-13,25.01125,121.508111,0.49057305
C0AH40,平等,2023-04-13,25.129142,121.577086,0.029244525
C0AH50,林口,2023-04-13,25.072181,121.38084,0.119267054
C0AH70,松山,2023-04-13,25.04871,121.55042,0.45149747
C0AH80,深坑,2023-04-13,25.002703,121.628328,0.44234958
C0AI00,五股,2023-04-13,25.07445,121.42728,0.15266831
C0AI10,屈尺,2023-04-13,24.92184,121.54475,0.57188195
C0AI20,白沙灣,2023-04-13,25.283128,121.519058,0.07268233
C0AI30,三重,2023-04-13,25.057328,121.500629,0.41123345
C0AI40,石牌,2023-04-13,25.115597,121.513139,0.38462672
C0AJ10,澳底,2023-04-13,25.057107,121.927272,0.26224616
C0AJ20,野柳,2023-04-13,25.20703,121.690021,0.17197734
C0AJ30,淡水觀海,2023-04-13,25.184591,121.408616,0.2588405
C0AJ40,石門,2023-04-13,25.273672,121.601198,0.06538579
C0AJ50,水湳洞,2023-04-13,25.123695,121.862238,0.3065165
C0AJ60,六塊厝,2023-04-13,25.24,121.4481,0.20230742
C0AJ70,田寮,2023-04-13,25.2698,121.4886,0.11253301
C0AJ80,板橋,2023-04-13,25.0107,121.4489,0.39599812
C0B010,七堵,2023-04-13,25.094819,121.71713,0.31343588
C0B020,基隆嶼,2023-04-13,25.19141,121.78391,0.16833076
C0B040,大武崙,2023-04-13,25.166676,121.706993,0.3383736
C0B050,八斗子,2023-04-13,25.144754,121.79167,0.17050466
C0B060,暖暖,2023-04-13,25.0957,121.7403,0.28561226
C0C460,復興,2023-04-13,24.820208,121.352281,0.138608
C0C480,桃園,2023-04-13,24.992425,121.323172,0.3326731
C0C490,八德,2023-04-13,24.928708,121.283289,0.5486581
C0C590,觀音,2023-04-13,25.027072,121.153317,0.2880017
C0C620,蘆竹,2023-04-13,25.084275,121.265767,0.24250132
C0C630,大溪,2023-04-13,24.882853,121.265547,0.42018318
C0C650,平鎮,2023-04-13,24.897503,121.214636,0.21283515
C0C660,楊梅,2023-04-13,24.912375,121.143047,0.21830317
C0C670,龍潭,2023-04-13,24.870056,121.221389,0.29009628
C0C680,龜山,2023-04-13,25.02846,121.38656,0.35010833
C0C700,中壢,2023-04-13,24.977661,121.256375,0.31995133
C0C710,大溪永福,2023-04-13,24.892936,121.324975,0.29916307
C0C720,竹圍,2023-04-13,25.112692,121.239824,0.24699831
C0C730,中大臨海站,2023-04-13,24.966126,121.008581,0.32924712
C0C740,觀音工業區,2023-04-13,25.064764,121.114856,0.27298874
C0C750,新興坑尾,2023-04-13,25.0061,121.0971,0.25577614
C0D390,關西,2023-04-13,24.7977,121.1732,0.36950538
C0D430,峨眉,2023-04-13,24.6905,121.017189,0.6602872
C0D480,打鐵坑,2023-04-13,24.849664,121.150789,0.38004702
C0D540,橫山,2023-04-13,24.71116,121.11693,0.47276455
C0D560,竹東,2023-04-13,24.767147,121.057881,0.49407235
C0D580,寶山,2023-04-13,24.735006,121.025192,0.67448914
C0D590,新豐,2023-04-13,24.87068,120.97721,0.6241488
C0D650,湖口,2023-04-13,24.904794,121.043628,0.47225636
C0D660,新竹市東區,2023-04-13,24.798681,120.986942,0.47313017
C0D670,海天一線,2023-04-13,24.831986,120.914438,0.40274936
C0D680,香山濕地,2023-04-13,24.783581,120.914988,0.46634424
C0D690,外湖,2023-04-13,24.917735,120.968711,0.33248597
C0E420,竹南,2023-04-13,24.708978,120.888897,0.37911627
C0E430,南庄,2023-04-13,24.601775,121.000214,0.53418857
C0E520,大湖,2023-04-13,24.41494,120.87087,0.4629559
C0E540,後龍,2023-04-13,24.606489,120.783933,0.81433636
C0E550,明德,2023-04-13,24.583486,120.885411,0.5119188
C0E590,通霄,2023-04-13,24.471892,120.704622,0.7447787
C0E730,頭份,2023-04-13,24.688247,120.912206,0.45870745
C0E740,造橋,2023-04-13,24.637056,120.864778,0.4951649
C0E750,苗栗,2023-04-13,24.564569,120.824575,0.7629888
C0E780,銅鑼,2023-04-13,24.489681,120.790853,0.5644949
C0E791,卓蘭,2023-04-13,24.3126,120.8244,0.37560967
C0E810,西湖,2023-04-13,24.562947,120.7485,0.8270937
C0E820,獅潭,2023-04-13,24.539133,120.920042,0.60479444
C0E830,苑裡,2023-04-13,24.439714,120.653053,0.70704937
C0E850,大河,2023-04-13,24.618069,120.948578,0.47077048
C0E870,高鐵苗栗,2023-04-13,24.60725,120.826094,0.80530846
C0E910,海埔,2023-04-13,24.648767,120.772435,0.5035767
C0E920,通霄漁港,2023-04-13,24.498589,120.673876,0.80775946
C0E930,龍鳳,2023-04-13,24.700034,120.859125,0.5051299
C0F000,大肚,2023-04-13,24.15295,120.572117,0.08723127
C0F0B0,石岡,2023-04-13,24.276061,120.777644,0.48674288
C0F850,東勢,2023-04-13,24.246428,120.833047,0.37970138
C0F930,大甲,2023-04-13,24.347667,120.640403,0.67267764
C0F970,大坑,2023-04-13,24.173142,120.722289,0.8525645
C0F9A0,中竹林,2023-04-13,24.103556,120.751061,0.46063712
C0F9I0,神岡,2023-04-13,24.272481,120.658314,0.4132555
C0F9K0,大安,2023-04-13,24.345061,120.588025,0.79841876
C0F9L0,后里,2023-04-13,24.310436,120.729725,0.38984358
C0F9M0,豐原,2023-04-13,24.254322,120.720692,0.46554953
C0F9N0,大里,2023-04-13,24.092464,120.701378,0.92045444
C0F9O0,潭子,2023-04-13,24.213106,120.703933,0.45746958
C0F9P0,清水,2023-04-13,24.312297,120.562242,0.825222
C0F9Q0,外埔,2023-04-13,24.347817,120.705686,0.43134493
C0F9R0,龍井,2023-04-13,24.184536,120.528972,0.7847682
C0F9S0,烏日,2023-04-13,24.107058,120.624103,0.8011811
C0F9T0,西屯,2023-04-13,24.179494,120.641275,0.726778
C0F9U0,南屯,2023-04-13,24.137006,120.637969,0.87112474
C0F9X0,大雅(中科園區),2023-04-13,24.21528,120.62445,0.5939336
C0FA10,松柏,2023-04-13,24.429115,120.617482,0.7581355
C0FA20,溫寮,2023-04-13,24.372177,120.583125,0.7614765
C0FA30,梧棲,2023-04-13,24.256003,120.523381,0.78017074
C0FA40,臺中電廠,2023-04-13,24.2146,120.4907,0.7847682
C0FA50,霧峰,2023-04-13,24.0419,120.6995,0.9291489
C0G620,芬園,2023-04-13,24.015678,120.6213,0.7267305
C0G640,鹿港,2023-04-13,24.0753,120.430481,0.53378826
C0G650,員林,2023-04-13,23.946503,120.585597,0.8519724
C0G660,溪湖,2023-04-13,23.94835,120.479122,0.77437824
C0G720,溪州,2023-04-13,23.851589,120.499093,0.6570001
C0G730,二林,2023-04-13,23.903325,120.376081,0.67834276
C0G740,大城,2023-04-13,23.852487,120.320935,0.72466034
C0G770,福興,2023-04-13,24.041289,120.437669,0.6186441
C0G780,秀水,2023-04-13,24.03405,120.503869,0.76934546
C0G800,埔鹽,2023-04-13,24.000394,120.431683,0.6742176
C0G810,埔心,2023-04-13,23.947633,120.525456,0.7604933
C0G820,田尾,2023-04-13,23.901669,120.509389,0.75657463
C0G830,埤頭,2023-04-13,23.866003,120.452806,0.6659953
C0G840,北斗,2023-04-13,23.877586,120.514222,0.7565743
C0G860,社頭,2023-04-13,23.897647,120.5862,0.8488712
C0G870,芳苑,2023-04-13,23.922303,120.320025,0.7086369
C0G880,二水,2023-04-13,23.810742,120.6173,0.7597461
C0G890,伸港,2023-04-13,24.148933,120.484403,0.8457513
C0G900,線西,2023-04-13,24.143358,120.443536,0.7983597
C0G910,花壇,2023-04-13,24.032076,120.549461,0.81911397
C0G920,永靖,2023-04-13,23.924703,120.547533,0.78689003
C0G940,竹塘,2023-04-13,23.848253,120.386764,0.70794934
C0G950,防潮門,2023-04-13,24.1835,120.4871,0.7975028
C0G960,福寶,2023-04-13,24.0443,120.3814,0.48942676
C0G970,三豐,2023-04-13,23.882,120.2895,0.7086369
C0H890,埔里,2023-04-13,23.972169,120.952425,0.7318899
C0H950,中寮,2023-04-13,23.884447,120.766406,0.74838364
C0H960,草屯,2023-04-13,23.973672,120.68085,0.7356943
C0I110,竹山,2023-04-13,23.761225,120.688156,0.7938625
C0I360,水里,2023-04-13,23.812553,120.849792,0.79118943
C0I380,集集,2023-04-13,23.828206,120.801467,0.8104665
C0I410,名間,2023-04-13,23.837053,120.701447,0.8150897
C0I420,國姓,2023-04-13,24.037803,120.855072,0.7776405
C0I460,南投,2023-04-13,23.911469,120.687331,0.75369954
C0K250,崙背,2023-04-13,23.75555,120.318925,0.8231576
C0K280,四湖,2023-04-13,23.630414,120.227125,0.86893976
C0K291,宜梧,2023-04-13,23.536281,120.169329,0.9019384
C0K330,虎尾,2023-04-13,23.719183,120.442036,0.7255841
C0K390,土庫,2023-04-13,23.679029,120.395574,0.7426284
C0K400,斗六,2023-04-13,23.720583,120.541127,0.77549314
C0K410,北港,2023-04-13,23.573957,120.292802,0.9142702
C0K420,西螺,2023-04-13,23.800407,120.467394,0.7130596
C0K430,褒忠,2023-04-13,23.690938,120.303634,0.89041996
C0K440,二崙,2023-04-13,23.772797,120.408944,0.6791185
C0K450,大埤,2023-04-13,23.646074,120.431537,0.7115288
C0K460,斗南,2023-04-13,23.678734,120.478359,0.7553912
C0K470,林內,2023-04-13,23.748675,120.609642,0.7693821
C0K480,莿桐,2023-04-13,23.761192,120.502372,0.70509464
C0K500,元長,2023-04-13,23.64981,120.315024,0.9101321
C0K510,水林,2023-04-13,23.572924,120.24597,0.87754405
C0K530,臺西,2023-04-13,23.701547,120.197559,0.79054517
C0K550,蔦松,2023-04-13,23.514319,120.229736,0.90585977
C0K560,棋山,2023-04-13,23.68645,120.603417,0.85586727
C0K580,高鐵雲林,2023-04-13,23.737456,120.417944,0.7307241
C0K590,雲林東勢,2023-04-13,23.674192,120.255721,0.88650733
C0K600,箔子寮,2023-04-13,23.6197,120.14,0.8331899
C0M410,馬頭山,2023-04-13,23.324361,120.582017,0.6988274
C0M520,東後寮,2023-04-13,23.369908,120.248065,0.8937211
C0M640,中埔,2023-04-13,23.42538,120.5229,0.76892924
C0M650,朴子,2023-04-13,23.43463,120.23902,0.9167104
C0M660,溪口,2023-04-13,23.604131,120.403569,0.92244655
C0M670,大林,2023-04-13,23.600616,120.45841,0.9287469
C0M680,太保,2023-04-13,23.455062,120.331455,0.9264447
C0M690,水上,2023-04-13,23.419734,120.388909,0.91509956
C0M700,竹崎,2023-04-13,23.526178,120.555508,0.7986631
C0M710,東石,2023-04-13,23.458927,120.15385,0.88433766
C0M720,番路,2023-04-13,23.464657,120.554156,0.78816164
C0M730,嘉義市東區,2023-04-13,23.457673,120.460531,0.9217843
C0M740,六腳,2023-04-13,23.492871,120.290625,0.9267523
C0M750,布袋,2023-04-13,23.380878,120.167789,0.916088
C0M760,民雄,2023-04-13,23.551754,120.428457,0.92096543
C0M770,嘉義梅山,2023-04-13,23.585398,120.555587,0.85256296
C0M780,鹿草,2023-04-13,23.41134,120.30835,0.9203483
C0M790,新港,2023-04-13,23.553269,120.345728,0.9154557
C0M800,茶山,2023-04-13,23.299075,120.664767,0.8727819
C0M880,好美里,2023-04-13,23.3364,120.138,0.85517853
C0N010,鯤鯓國小,2023-04-13,23.1879,120.0889,0.88450545
C0N020,城西,2023-04-13,23.0568,120.0956,0.84244466
C0N030,四草,2023-04-13,23.0235,120.1116,0.71431875
C0N040,蘆竹溝,2023-04-13,23.2344,120.0961,0.8939239
C0N050,蚵寮,2023-04-13,23.301,120.1104,0.8915334
C0O810,曾文,2023-04-13,23.219681,120.497328,0.9023968
C0O830,北寮,2023-04-13,23.079561,120.495008,0.55445576
C0O840,王爺宮,2023-04-13,23.222064,120.40085,0.87750316
C0O860,大內,2023-04-13,23.11885,120.36083,0.86957866
C0O900,善化,2023-04-13,23.112883,120.297219,0.8162643
C0O930,玉井,2023-04-13,23.126042,120.46055,0.9235538
C0O950,安南,2023-04-13,23.076694,120.144861,0.8135716
C0O960,崎頂,2023-04-13,22.959547,120.369317,0.4536058
C0O970,虎頭埤,2023-04-13,23.021375,120.347878,0.8644149
C0O980,新市,2023-04-13,23.061614,120.298197,0.8197513
C0O990,媽廟,2023-04-13,22.99175,120.293525,0.80937934
C0R150,三地門,2023-04-13,22.709889,120.639944,0.33677262
C0R160,鹽埔,2023-04-13,22.739558,120.530778,0.4356388
C0R170,屏東,2023-04-13,22.660269,120.494072,0.7200998
C0R190,赤山,2023-04-13,22.592333,120.614306,0.26156244
C0R220,潮州,2023-04-13,22.534361,120.54,0.21906881
C0R240,來義,2023-04-13,22.527306,120.625111,0.19870932
C0R260,春日,2023-04-13,22.370361,120.628306,0.25146133
C0R270,琉球嶼,2023-04-13,22.332244,120.362236,0.24992448
C0R280,檳榔,2023-04-13,22.076078,120.836777,0.009775587
C0R320,車城,2023-04-13,22.0744,120.716247,0.014101609
C0R341,牡丹,2023-04-13,22.130036,120.792639,0.15527165
C0R350,貓鼻頭,2023-04-13,21.921774,120.7358,0.013890421
C0R470,高樹,2023-04-13,22.826389,120.600806,0.50625116
C0R480,長治,2023-04-13,22.693128,120.542622,0.43415794
C0R490,九如,2023-04-13,22.7405,120.490503,0.72184616
C0R520,崁頂,2023-04-13,22.514781,120.506914,0.48966485
C0R540,佳冬,2023-04-13,22.419456,120.552375,0.48593327
C0R550,新埤,2023-04-13,22.467947,120.582894,0.3482313
C0R560,新園,2023-04-13,22.5434,120.461558,0.5022391
C0R570,麟洛,2023-04-13,22.65078,120.52719,0.7311264
C0R580,南州,2023-04-13,22.48591,120.50274,0.47375485
C0R590,里港,2023-04-13,22.77919,120.49459,0.50287294
C0R620,墾雷,2023-04-13,21.900836,120.855269,0.013644586
C0R640,東港,2023-04-13,22.46247,120.44074,0.40321147
C0R650,竹田,2023-04-13,22.58486,120.54344,0.3224572
C0R660,枋寮,2023-04-13,22.367722,120.590647,0.32845253
C0R670,楓港,2023-04-13,22.190131,120.692156,0.1382333
C0R680,佳樂水,2023-04-13,21.993578,120.861633,0.014091325
C0R690,墾丁,2023-04-13,21.966756,120.810269,0.007307263
C0R700,枋山,2023-04-13,22.246844,120.661086,0.20385253
C0R710,龍磐,2023-04-13,21.931672,120.838942,0.013179259
C0R720,旭海,2023-04-13,22.205403,120.887614,0.012571903
C0R730,大坪頂,2023-04-13,22.024633,120.69355,0.011457597
C0R740,獅子,2023-04-13,22.201569,120.70525,0.12534188
C0R760,南仁湖,2023-04-13,22.084681,120.863353,0.006433191
C0R770,保力,2023-04-13,22.071122,120.764111,0.013617985
C0R780,滿州,2023-04-13,22.024403,120.839892,0.01383431
C0R790,九棚,2023-04-13,22.14195,120.889281,0.014135154
C0R800,丹路,2023-04-13,22.204481,120.750989,0.17078269
C0R810,內獅,2023-04-13,22.305064,120.642986,0.3102173
C0R830,高士,2023-04-13,22.121825,120.836781,0.0053789318
C0R850,林邊,2023-04-13,22.4634,120.5339,0.5314611
C0R860,鼻頭,2023-04-13,22.1043,120.8979,0.013506864
C0R870,興海,2023-04-13,21.9752,120.8439,0.014091325
C0R880,後壁湖,2023-04-13,21.9457,120.7457,0.014199321
C0R890,山海,2023-04-13,21.9878,120.7091,0.014350932
C0R900,竹坑,2023-04-13,22.1385,120.7022,0.3608163
C0R910,下寮,2023-04-13,22.3929,120.5548,0.48593327
C0R920,塭仔,2023-04-13,22.4169,120.5197,0.4972529
C0R930,萬丹,2023-04-13,22.5885,120.4851,0.31503373
C0R940,加祿堂,2023-04-13,22.3363,120.6217,0.26821318
C0S710,鹿野,2023-04-13,22.917711,121.122994,0.80933106
C0S730,綠島,2023-04-13,22.6672,121.47533,0.95026445
C0S740,池上,2023-04-13,23.119628,121.209469,0.84107405
C0S770,大溪山,2023-04-13,22.478475,120.943325,0.03375424
C0S790,金崙,2023-04-13,22.538122,120.966875,0.013197492
C0S810,東河,2023-04-13,22.972672,121.303986,0.9262876
C0S830,長濱,2023-04-13,23.286817,121.411975,0.84491044
C0S840,南田,2023-04-13,22.279725,120.889208,0.024997683
C0S890,關山,2023-04-13,23.0395,121.175017,0.89261574
C0S900,蘭嶼高中,2023-04-13,22.04909,121.51214,0.0677206
C0S910,蘭嶼燈塔,2023-04-13,22.081197,121.503117,0.047426853
C0S920,金峰嘉蘭,2023-04-13,22.594789,120.960825,0.011686757
C0S930,延平,2023-04-13,22.902581,121.084058,0.7978021
C0S940,石寧山,2023-04-13,23.223772,121.406639,0.9089495
C0S950,七塊厝,2023-04-13,22.954453,121.229922,0.8095768
C0S960,香蘭,2023-04-13,22.587569,120.993375,0.019091118
C0S970,加津林,2023-04-13,22.416211,120.926942,0.018704139
C0S990,山豬窟,2023-04-13,22.318619,120.857372,0.008354246
C0SA00,歷坵,2023-04-13,22.520969,120.89185,0.17745934
C0SA10,檳榔四格山,2023-04-13,22.810031,121.109308,0.22496301
C0SA30,都歷,2023-04-13,23.020333,121.323642,0.9343405
C0SA40,瑞和,2023-04-13,22.974361,121.156697,0.9046548
C0SA60,知本（水試所）,2023-04-13,22.702394,121.082761,0.034230698
C0SA80,土坂,2023-04-13,22.453108,120.887572,0.01199024
C0SA90,達仁林場,2023-04-13,22.264347,120.823972,0.01799757
C0T870,鯉魚潭,2023-04-13,23.935639,121.508944,0.3416433
C0T900,西林,2023-04-13,23.8119,121.441458,0.32045415
C0T960,光復,2023-04-13,23.660694,121.424964,0.31338108
C0T9A0,月眉山,2023-04-13,23.809928,121.539828,0.29190972
C0T9D0,和中,2023-04-13,24.26676,121.74103,0.8226854
C0T9E0,大坑,2023-04-13,23.880628,121.581981,0.39020205
C0T9F0,水璉,2023-04-13,23.797131,121.542514,0.34119427
C0T9I0,豐濱,2023-04-13,23.583897,121.514806,0.3991274
C0T9M0,靜浦,2023-04-13,23.455167,121.495028,0.528823
C0T9N0,富里,2023-04-13,23.171639,121.249378,0.7361925
C0U600,礁溪,2023-04-13,24.817539,121.765608,0.33343786
C0U650,玉蘭,2023-04-13,24.675286,121.587061,0.30880278
C0U750,龜山島,2023-04-13,24.841667,121.953133,0.45342082
C0U760,東澳,2023-04-13,24.52196,121.83318,0.73313713
C0U770,南澳,2023-04-13,24.44935,121.81022,0.7832496
C0U780,五結,2023-04-13,24.68637,121.79794,0.25268397
C0U860,頭城,2023-04-13,24.85323,121.8308,0.46511537
C0U870,大礁溪,2023-04-13,24.791042,121.675047,0.1208947
C0U880,北關,2023-04-13,24.9072,121.8734,0.5574528
C0U890,三星,2023-04-13,24.66812,121.65302,0.21393862
C0U900,內城,2023-04-13,24.71813,121.68766,0.3510433
C0U910,冬山,2023-04-13,24.63373,121.7937,0.26837996
C0U940,羅東,2023-04-13,24.68184,121.74934,0.2986223
C0U970,大福,2023-04-13,24.80064,121.81389,0.4622945
C0U990,員山,2023-04-13,24.74435,121.72247,0.27007943
C0UA00,土場,2023-04-13,24.576533,121.495333,0.121713445
C0UA80,大溪漁港,2023-04-13,24.941801,121.902955,0.43208274
C0UA90,石城,2023-04-13,24.980444,121.951214,0.32852295
C0UB00,淡江大學蘭陽校園,2023-04-13,24.823239,121.730383,0.1609987
C0UB10,蘇澳,2023-04-13,24.5969,121.8571,0.7548653
C0UB20,壯圍,2023-04-13,24.7359,121.8163,0.24430214
C0V250,甲仙,2023-04-13,23.080106,120.591758,0.5358686
C0V260,月眉,2023-04-13,22.971003,120.539853,0.5448587
C0V310,美濃,2023-04-13,22.898742,120.519153,0.82985777
C0V350,溪埔,2023-04-13,22.738578,120.446797,0.5454154
C0V360,內門,2023-04-13,22.975481,120.466769,0.8277946
C0V370,古亭坑,2023-04-13,22.893178,120.401947,0.8546472
C0V400,阿公店,2023-04-13,22.804194,120.355528,0.73508805
C0V440,鳳山,2023-04-13,22.646653,120.356122,0.43067136
C0V450,鳳森,2023-04-13,22.545064,120.392592,0.24696638
C0V490,新興,2023-04-13,22.627422,120.298803,0.36050883
C0V530,阿蓮,2023-04-13,22.883208,120.327508,0.77482384
C0V610,梓官,2023-04-13,22.760558,120.267211,0.5497975
C0V620,永安,2023-04-13,22.82315,120.236856,0.73760206
C0V630,茄萣,2023-04-13,22.906642,120.182608,0.70947534
C0V640,湖內,2023-04-13,22.887139,120.2445,0.73591
C0V650,彌陀,2023-04-13,22.783806,120.246361,0.73760206
C0V660,岡山,2023-04-13,22.797078,120.294958,0.6063296
C0V680,仁武,2023-04-13,22.701083,120.347722,0.4484469
C0V690,鼓山,2023-04-13,22.623325,120.275575,0.3151771
C0V700,三民,2023-04-13,22.645017,120.311233,0.36050907
C0V710,苓雅,2023-04-13,22.622742,120.330669,0.34173763
C0V720,林園,2023-04-13,22.507747,120.394511,0.40330225
C0V730,大寮,2023-04-13,22.605614,120.395717,0.22076792
C0V740,旗山,2023-04-13,22.888614,120.483597,0.8325938
C0V750,路竹,2023-04-13,22.854997,120.259439,0.77372074
C0V760,橋頭,2023-04-13,22.757806,120.30575,0.61562294
C0V770,大社,2023-04-13,22.730306,120.346639,0.4382138
C0V790,萬山,2023-04-13,22.905944,120.688056,0.7817789
C0V800,六龜,2023-04-13,22.997889,120.633583,0.49657962
C0V810,左營,2023-04-13,22.67491,120.28491,0.39773282
C0V820,小林,2023-04-13,23.148408,120.63325,0.7037187
C0V840,鳳鼻頭,2023-04-13,22.5083,120.3591,0.39051136
C0V850,蚵仔寮,2023-04-13,22.7256,120.2527,0.32439038
C0V860,南寮,2023-04-13,22.7616,120.2339,0.71757275
C0V870,文安,2023-04-13,22.8025,120.2164,0.6992397
C0V880,興達,2023-04-13,22.8778,120.2127,0.70947534
C0V890,前鎮,2023-04-13,22.5718,120.3117,0.35427764
C0V900,汕尾,2023-04-13,22.4782,120.4151,0.5153102
C0X050,東河,2023-04-13,23.296598,120.385608,0.9210611
C0X060,下營,2023-04-13,23.22695,120.256261,0.869252
C0X080,佳里,2023-04-13,23.173039,120.145086,0.8527661
C0X100,臺南市北區,2023-04-13,23.010394,120.194228,0.798202
C0X110,臺南市南區,2023-04-13,22.961189,120.188378,0.80379033
C0X120,麻豆,2023-04-13,23.183289,120.248611,0.8662755
C0X130,官田,2023-04-13,23.193217,120.315422,0.87204975
C0X140,西港,2023-04-13,23.125608,120.203108,0.8475958
C0X150,安定,2023-04-13,23.102614,120.227839,0.8177745
C0X160,仁德,2023-04-13,22.968258,120.257689,0.80337566
C0X170,關廟,2023-04-13,22.963017,120.327797,0.8185084
C0X180,山上,2023-04-13,23.0757,120.363253,0.88208115
C0X190,安平,2023-04-13,22.993161,120.152181,0.7950487
C0X200,左鎮,2023-04-13,23.056758,120.408522,0.8906845
C0X210,白河,2023-04-13,23.347466,120.414427,0.9214497
C0X220,學甲,2023-04-13,23.230367,120.182187,0.85993123
C0X230,鹽水,2023-04-13,23.272621,120.247641,0.88637894
C0X240,關子嶺,2023-04-13,23.331169,120.508025,0.605981
C0X250,新營,2023-04-13,23.310689,120.316681,0.8809263
C0X260,後壁,2023-04-13,23.366358,120.362326,0.8919754
C0X280,將軍,2023-04-13,23.214999,120.13577,0.8564306
C0X290,北門,2023-04-13,23.267772,120.125481,0.85711384
C0X300,鹿寮,2023-04-13,23.386047,120.477331,0.7249054
C0X310,七股,2023-04-13,23.147289,120.086253,0.87301415
C0X320,柳營,2023-04-13,23.253328,120.375253,0.9241893
C0Z020,明里,2023-04-13,23.208717,121.262342,0.77493626
C0Z061,玉里,2023-04-13,23.3215,121.339656,0.88752943
C0Z070,舞鶴,2023-04-13,23.46811,121.37407,0.3436736
C0Z080,富源,2023-04-13,23.587642,121.378225,0.35354742
C0Z100,東華,2023-04-13,23.89525,121.549833,0.43867654
C0Z150,吉安光華,2023-04-13,23.930925,121.595153,0.51802146
C0Z160,鳳林,2023-04-13,23.746114,121.453411,0.37907583
C0Z170,卓溪,2023-04-13,23.3443,121.3029,0.8790218
C0Z180,新城,2023-04-13,24.03946,121.60454,0.5767385
C0Z190,富世,2023-04-13,24.14743,121.6297,0.8621557
C0Z200,萬榮,2023-04-13,23.709219,121.420106,0.34415165
C0Z210,瑞穗,2023-04-13,23.5239,121.39021,0.37409297
C0Z230,和平,2023-04-13,24.30717,121.77007,0.8019658
C0Z270,蕃薯寮,2023-04-13,23.73835,121.540108,0.5147769
C0Z280,德武,2023-04-13,23.47426,121.41071,0.39541537
C0Z300,東里,2023-04-13,23.26853,121.30547,0.8611872
C0Z310,清水斷崖,2023-04-13,24.218294,121.689142,0.85860777
C0Z330,安通山,2023-04-13,23.290728,121.348528,0.70464647
CAA010,國一N013K,2023-04-13,25.06944,121.6281,0.4332005
CAA020,國一S026K,2023-04-13,25.07639,121.4964,0.38945282
CAA030,國三S010K,2023-04-13,25.08,121.6475,0.42188904
CAA040,國三S016K,2023-04-13,25.03306,121.6158,0.390187
CAA050,國三S037K,2023-04-13,24.9828,121.471,0.483278
CAA060,國三S042K,2023-04-13,24.96,121.4306,0.4473115
CAA070,國三N046K,2023-04-13,24.95083,121.3958,0.403832
CAA080,國三S054K,2023-04-13,24.93917,121.3239,0.38058063
CAA090,國三A005K,2023-04-13,25.00194,121.5975,0.4627631
CAAH60,大安森林,2023-04-13,25.02955,121.53628,0.4564206
CAB010,國一S001K,2023-04-13,25.11583,121.7286,0.27717155
CAB020,國一S006K,2023-04-13,25.08694,121.6869,0.3117896
CAB030,國三S004K,2023-04-13,25.11444,121.6886,0.288018
CAB040,國三S007K,2023-04-13,25.09694,121.6678,0.31733662
CAB050,國三K002K,2023-04-13,25.14583,121.7217,0.18774451
CAC010,國一S072K,2023-04-13,24.89583,121.1342,0.141592
CAC020,國二E009K,2023-04-13,25.02111,121.2736,0.38147515
CAC030,國三N063K,2023-04-13,24.889,121.26,0.43974516
CAC050,西濱S023K,2023-04-13,25.11649,121.27551,0.24699831
CAC060,西濱S032K,2023-04-13,25.091966,121.192505,0.21773075
CAD010,國一S105K,2023-04-13,24.726316,120.940643,0.47931564
CAD020,國一N077K,2023-04-13,24.885,121.0889,0.22629793
CAD030,國一S082K,2023-04-13,24.87667,121.0467,0.45396066
CAD040,國一S088K,2023-04-13,24.84444,121.0214,0.457861
CAD050,國一N094K,2023-04-13,24.79778,121.0089,0.46209332
CAD060,國一S098K,2023-04-13,24.76056,120.9911,0.5360675
CAD070,國三N076K,2023-04-13,24.800303,121.195739,0.36226165
CAD080,國三N085K,2023-04-13,24.78333,121.1211,0.51580226
CAD090,國三S103K,2023-04-13,24.75861,120.9608,0.42133495
CAD100,西濱N066K,2023-04-13,24.8956,120.9649,0.3284541
CAD110,西濱S082K,2023-04-13,24.751724,120.905028,0.41839737
CAE010,國一N142K,2023-04-13,24.453119,120.783221,0.46171477
CAE020,國一S114K,2023-04-13,24.668835,120.885811,0.4778888
CAE030,國一S123K,2023-04-13,24.59594,120.86071,0.7016895
CAE040,國一S132K,2023-04-13,24.524506,120.820831,0.7233423
CAE050,國一S152K,2023-04-13,24.375492,120.749184,0.43159398
CAE060,國三N119K,2023-04-13,24.675432,120.847389,0.49242264
CAE070,國三N151K,2023-04-13,24.440218,120.681656,0.70572025
CAE080,國三S140K,2023-04-13,24.522345,120.725006,0.7563269
CAE090,國三S156K,2023-04-13,24.39798,120.669487,0.8406178
CAE100,西濱N107K,2023-04-13,24.5958,120.7394,0.78474957
CAE110,西濱S129K,2023-04-13,24.4472,120.6428,0.74249685
CAF010,國一N174K,2023-04-13,24.2049,120.6552,0.70845455
CAF020,國一S162K,2023-04-13,24.295534,120.695976,0.38451573
CAF030,國一S169K,2023-04-13,24.237116,120.688271,0.43827957
CAF040,國一S188K,2023-04-13,24.118546,120.585747,0.77921885
CAF050,國三N208K,2023-04-13,24.066147,120.660919,0.84146214
CAF060,國三S168K,2023-04-13,24.308519,120.614471,0.729141
CAF070,國三S173K,2023-04-13,24.27397,120.593079,0.5410084
CAF080,國三S178K,2023-04-13,24.226721,120.589058,0.5527023
CAF090,國四E5K,2023-04-13,24.296465,120.643135,0.62760365
CAF100,西濱N151K,2023-04-13,24.275964,120.547681,0.79890054
CAG010,國一N198K,2023-04-13,24.063889,120.523056,0.7121631
CAG030,國一S207K,2023-04-13,23.988304,120.508092,0.7993327
CAG040,國三N191K,2023-04-13,24.139256,120.5215,0.8259539
CAG050,國三N196K,2023-04-13,24.107155,120.554482,0.80435437
CAG060,國三S202K,2023-04-13,24.092468,120.603256,0.81242126
CAG070,西濱S173K,2023-04-13,24.1081,120.434576,0.55456156
CAG080,西濱S189K,2023-04-13,23.987857,120.369607,0.66149795
CAG090,西濱N210K,2023-04-13,23.843536,120.293236,0.79743844
CAG100,王功漁港,2023-04-13,23.96824,120.32586,0.6474297
CAH010,國三N223K,2023-04-13,23.955116,120.662376,0.73729956
CAH020,國三S217K,2023-04-13,24.00683,120.653214,0.92467254
CAH030,茶改場竹圍站,2023-04-13,23.860083,120.637528,0.6200888
CAHA00,消防署訓練中心,2023-04-13,23.82137,120.72293,0.8578457
CAJ010,國三N252K,2023-04-13,23.77412,120.64061,0.7590125
CAJ020,國一N234K,2023-04-13,23.74633,120.467926,0.7676836
CAJ030,西濱N222K,2023-04-13,23.737734,120.256132,0.865063
CAJ040,西濱S241K,2023-04-13,23.623426,120.172646,0.8718299
CAJ050,海口故事園區,2023-04-13,23.57543,120.14121,0.8331899
CAL010,國一N250K,2023-04-13,23.610292,120.436867,0.9209349
CAL020,國一S262K,2023-04-13,23.512333,120.403038,0.90376985
CAL030,國一N268K,2023-04-13,23.460833,120.375833,0.9073108
CAL040,國一N273K,2023-04-13,23.416666,120.355,0.9166708
CAL050,國三N279K,2023-04-13,23.596111,120.523333,0.73871857
CAL060,國三S286K,2023-04-13,23.533917,120.484583,0.7499232
CAL070,國三N295K,2023-04-13,23.468598,120.499369,0.7496724
CAL080,國三N303K,2023-04-13,23.428611,120.452416,0.91541475
CAL090,西濱S257K,2023-04-13,23.502278,120.171861,0.9025974
CAL100,西濱S267K,2023-04-13,23.41613,120.162872,0.916088
CAL110,布袋國中,2023-04-13,23.35893,120.18026,0.8971161
CAN010,國一N288K,2023-04-13,23.30609,120.290033,0.8812215
CAN020,國一S306K,2023-04-13,23.1565,120.239513,0.86598605
CAN030,國一N316K,2023-04-13,23.07309,120.253014,0.819284
CAN040,國一N323K,2023-04-13,23.00421,120.245922,0.81000614
CAN050,國一N335K,2023-04-13,22.897584,120.269895,0.7514384
CAN060,國三S311K,2023-04-13,23.346388,120.438888,0.91982967
CAN070,國三S329K,2023-04-13,23.212777,120.355833,0.87973815
CAN080,國三N336K,2023-04-13,23.154722,120.345,0.87748516
CAN090,國三S342K,2023-04-13,23.106694,120.327528,0.81920904
CAN100,國三S366K,2023-04-13,22.9077,120.3513,0.81973773
CAN110,西濱S280K,2023-04-13,23.3052,120.14891,0.8561654
CAN120,西濱N304K,2023-04-13,23.103439,120.086694,0.8284808
CAN130,水試所海水繁養殖中心,2023-04-13,23.120802,120.07968,0.82578605
CAN140,六官養殖協會,2023-04-13,23.22881,120.29962,0.86975926
CAP010,國一S342K,2023-04-13,22.845555,120.295,0.6070452
CAP020,國一S346K,2023-04-13,22.812222,120.314166,0.6063296
CAP030,國一N351K,2023-04-13,22.765833,120.328888,0.6101686
CAP040,國一N361K,2023-04-13,22.680555,120.328611,0.39901096
CAP050,國三N372K,2023-04-13,22.858611,120.373611,0.84490794
CAP060,國三S385K,2023-04-13,22.767777,120.444444,0.41972232
CAP070,高雄燈塔,2023-04-13,22.6146,120.2647,0.3151771
CAQ010,國三N425K,2023-04-13,22.480277,120.531666,0.4950413
CAQ020,國三S415K,2023-04-13,22.568,120.528,0.29186714
CAQ030,崎峰國小,2023-04-13,22.42565,120.49521,0.4601158
E2K600,四湖植物園,2023-04-13,23.676986,120.163433,0.79054517
E2P980,林試六龜中心,2023-04-13,22.991703,120.645722,0.4970105
E2S390,太麻里分所,2023-04-13,22.5988,120.9811,0.017251143
E2S960,林試太麻里2,2023-04-13,22.598014,120.989761,0.019091118
E2S980,林試太麻里1,2023-04-13,22.598922,120.980044,0.017251143
G2AI50,關渡,2023-04-13,25.11575,121.492,0.39171517
G2F820,農試所(霧峰),2023-04-13,24.031261,120.688133,0.93627787
G2L020,嘉義分所,2023-04-13,23.485028,120.473806,0.7553503
G2M350,溪口農場,2023-04-13,23.58565,120.408111,0.92711383
G2P820,鳳山園試所,2023-04-13,22.646611,120.356083,0.43067136
K2E360,苗栗農改場,2023-04-13,24.495722,120.829111,0.5973703
K2E710,大湖分場,2023-04-13,24.422861,120.871833,0.5382434
K2F750,種苗改良場,2023-04-13,24.225972,120.800917,0.27660105
U2HA50,臺大竹山,2023-04-13,23.756972,120.681556,0.78834724
V2C250,八德合作社,2023-04-13,24.93775,121.266389,0.45108935
V2C260,八德蔬果,2023-04-13,24.978508,121.281819,0.32387108
V2K610,大庄合作社,2023-04-13,23.8068,120.367939,0.8181123
V2K620,麥寮合作社,2023-04-13,23.753836,120.294783,0.83152926
