站號,站名,日期,lat,lon,BlastGRU-TW
466881,新北,2023-06-10,24.9593,121.52,0.058219235
466900,淡水,2023-06-10,25.164889,121.448906,0.06734804
466920,臺北,2023-06-10,25.037658,121.514853,0.05479332
467350,澎湖,2023-06-10,23.565503,119.563094,0.8744378
467410,臺南,2023-06-10,22.993239,120.204772,0.15952243
467420,永康,2023-06-10,23.038386,120.2367,0.1523791
467790,墾丁雷達站,2023-06-10,21.948235,120.808028,0.088695556
C0A520,山佳,2023-06-10,24.974944,121.402008,0.062676154
C0A530,坪林,2023-06-10,24.938183,121.70975,0.98547536
C0A880,福隆,2023-06-10,25.017842,121.942083,0.110046804
C0A890,雙溪,2023-06-10,25.036003,121.864242,0.07939682
C0A920,富貴角,2023-06-10,25.263783,121.565258,0.10625883
C0AC80,文山,2023-06-10,25.00235,121.575728,0.06444162
C0ACA0,新莊,2023-06-10,25.051478,121.446756,0.061586104
C0AD00,三芝,2023-06-10,25.258131,121.501917,0.10065472
C0AH70,松山,2023-06-10,25.04871,121.55042,0.05479332
C0AH80,深坑,2023-06-10,25.002703,121.628328,0.06444162
C0AI00,五股,2023-06-10,25.07445,121.42728,0.30705246
C0AJ70,田寮,2023-06-10,25.2698,121.4886,0.08039449
