站號,站名,日期,lat,lon,BlastGRU-TW
466881,新北,2023-06-04,24.9593,121.52,0.24747047
466900,淡水,2023-06-04,25.164889,121.448906,0.25498992
466920,臺北,2023-06-04,25.037658,121.514853,0.21606646
467350,澎湖,2023-06-04,23.565503,119.563094,0.97635114
467410,臺南,2023-06-04,22.993239,120.204772,0.32578313
467420,永康,2023-06-04,23.038386,120.2367,0.29929298
467790,墾丁雷達站,2023-06-04,21.948235,120.808028,0.32606548
C0A520,山佳,2023-06-04,24.974944,121.402008,0.2874038
C0A530,坪林,2023-06-04,24.938183,121.70975,0.9000424
C0A880,福隆,2023-06-04,25.017842,121.942083,0.9514054
C0A890,雙溪,2023-06-04,25.036003,121.864242,0.35426605
C0A920,富貴角,2023-06-04,25.263783,121.565258,0.5900292
C0AC80,文山,2023-06-04,25.00235,121.575728,0.3070104
C0ACA0,新莊,2023-06-04,25.051478,121.446756,0.2132808
C0AD00,三芝,2023-06-04,25.258131,121.501917,0.5141358
C0AH70,松山,2023-06-04,25.04871,121.55042,0.21606646
C0AH80,深坑,2023-06-04,25.002703,121.628328,0.3070104
C0AI00,五股,2023-06-04,25.07445,121.42728,0.95522934
C0AJ70,田寮,2023-06-04,25.2698,121.4886,0.3511273
