站號,站名,日期,lat,lon,BlastGRU-TW
466881,新北,2023-07-21,24.9593,121.52,0.3178656
466900,淡水,2023-07-21,25.164889,121.448906,0.4477513
466920,臺北,2023-07-21,25.037658,121.514853,0.3154477
466940,基隆,2023-07-21,25.133314,121.740475,0.28377482
466990,花蓮,2023-07-21,23.975128,121.613275,0.9651326
467050,新屋,2023-07-21,25.006744,121.047486,0.6348701
467080,宜蘭,2023-07-21,24.763975,121.756528,0.07360048
467270,田中,2023-07-21,23.873803,120.581286,0.47304007
467300,東吉島,2023-07-21,23.25695,119.667467,0.95872384
467350,澎湖,2023-07-21,23.565503,119.563094,0.9494617
467410,臺南,2023-07-21,22.993239,120.204772,0.44214827
467420,永康,2023-07-21,23.038386,120.2367,0.43270674
467441,高雄,2023-07-21,22.7304,120.3125,0.31983948
467480,嘉義,2023-07-21,23.495925,120.432906,0.75595325
467490,臺中,2023-07-21,24.145736,120.684075,0.85364836
467540,大武,2023-07-21,22.355675,120.903789,0.99952996
467571,新竹,2023-07-21,24.827853,121.014219,0.7526713
467590,恆春,2023-07-21,22.003897,120.746339,0.8286593
467610,成功,2023-07-21,23.097486,121.373428,0.9993312
467620,蘭嶼,2023-07-21,22.036969,121.558339,0.9997566
467660,臺東,2023-07-21,22.752211,121.154586,0.96370983
467790,墾丁雷達站,2023-07-21,21.948235,120.808028,0.84936297
C0A520,山佳,2023-07-21,24.974944,121.402008,0.3807963
C0A530,坪林,2023-07-21,24.938183,121.70975,0.3638515
C0A540,四堵,2023-07-21,24.8926,121.745736,0.9936663
C0A550,泰平,2023-07-21,24.971197,121.823711,0.67866707
C0A560,福山,2023-07-21,24.776203,121.502811,0.9343841
C0A570,桶後,2023-07-21,24.848222,121.597992,0.9598082
C0A640,石碇,2023-07-21,24.993969,121.662917,0.12857205
C0A650,火燒寮,2023-07-21,25.002719,121.742892,0.1686688
C0A660,瑞芳,2023-07-21,25.113169,121.801147,0.096540414
C0A770,科教館,2023-07-21,25.096356,121.516507,0.3586979
C0A860,大坪,2023-07-21,25.165914,121.632969,0.7939097
C0A880,福隆,2023-07-21,25.017842,121.942083,0.08276327
C0A890,雙溪,2023-07-21,25.036003,121.864242,0.26743796
C0A920,富貴角,2023-07-21,25.263783,121.565258,0.462228
C0A931,三和,2023-07-21,25.233153,121.595236,0.16788577
C0A940,金山,2023-07-21,25.223628,121.643967,0.6045615
C0A950,鼻頭角,2023-07-21,25.129036,121.923372,0.075000964
C0A970,三貂角,2023-07-21,25.007606,122.002058,0.08705409
C0A980,社子,2023-07-21,25.109508,121.469681,0.3559224
C0A9C0,天母,2023-07-21,25.117494,121.537169,0.38033023
C0A9F0,內湖,2023-07-21,25.079422,121.57545,0.3382932
C0AC60,三峽,2023-07-21,24.939025,121.369728,0.3359357
C0AC70,信義,2023-07-21,25.037822,121.564597,0.25038242
C0AC80,文山,2023-07-21,25.00235,121.575728,0.20990945
C0ACA0,新莊,2023-07-21,25.051478,121.446756,0.44446364
C0AD00,三芝,2023-07-21,25.258131,121.501917,0.5027166
C0AD10,八里,2023-07-21,25.150211,121.403947,0.496487
C0AD30,蘆洲,2023-07-21,25.086594,121.472331,0.35883597
C0AD40,土城,2023-07-21,24.973208,121.445169,0.39188296
C0AD50,鶯歌,2023-07-21,24.951533,121.346294,0.4098041
C0AG80,中和,2023-07-21,24.991622,121.491792,0.3012406
C0AH00,汐止,2023-07-21,25.066881,121.658778,0.27254903
C0AH10,永和,2023-07-21,25.01125,121.508111,0.29951486
C0AH40,平等,2023-07-21,25.129142,121.577086,0.72266173
C0AH50,林口,2023-07-21,25.072181,121.38084,0.49761993
C0AH70,松山,2023-07-21,25.04871,121.55042,0.25038242
C0AH80,深坑,2023-07-21,25.002703,121.628328,0.15950677
C0AI00,五股,2023-07-21,25.07445,121.42728,0.52459997
C0AI10,屈尺,2023-07-21,24.92184,121.54475,0.20448034
C0AI20,白沙灣,2023-07-21,25.283128,121.519058,0.52665603
C0AI30,三重,2023-07-21,25.057328,121.500629,0.3353394
C0AI40,石牌,2023-07-21,25.115597,121.513139,0.36128968
C0AJ20,野柳,2023-07-21,25.20703,121.690021,0.4052703
C0AJ30,淡水觀海,2023-07-21,25.184591,121.408616,0.4755471
C0AJ40,石門,2023-07-21,25.273672,121.601198,0.519898
C0AJ50,水湳洞,2023-07-21,25.123695,121.862238,0.26157913
C0AJ60,六塊厝,2023-07-21,25.24,121.4481,0.54767656
C0AJ70,田寮,2023-07-21,25.2698,121.4886,0.47470734
C0AJ80,板橋,2023-07-21,25.0107,121.4489,0.40922844
C0AJ90,澳底,2023-07-21,25.0552,121.9253,0.08075835
C0B010,七堵,2023-07-21,25.094819,121.71713,0.3305373
C0B020,基隆嶼,2023-07-21,25.19141,121.78391,0.25634205
C0B040,大武崙,2023-07-21,25.166676,121.706993,0.41141075
C0B050,八斗子,2023-07-21,25.144754,121.79167,0.22843637
C0B060,暖暖,2023-07-21,25.0957,121.7403,0.31133908
C0C460,復興,2023-07-21,24.820208,121.352281,0.97886586
C0C480,桃園,2023-07-21,24.992425,121.323172,0.4970918
C0C490,八德,2023-07-21,24.928708,121.283289,0.46827358
C0C590,觀音,2023-07-21,25.027072,121.153317,0.6050113
C0C620,蘆竹,2023-07-21,25.084275,121.265767,0.42953038
C0C630,大溪,2023-07-21,24.882853,121.265547,0.55283684
C0C650,平鎮,2023-07-21,24.897503,121.214636,0.8089689
C0C660,楊梅,2023-07-21,24.912375,121.143047,0.8425637
C0C670,龍潭,2023-07-21,24.870056,121.221389,0.74348927
C0C680,龜山,2023-07-21,25.02846,121.38656,0.61573035
C0C700,中壢,2023-07-21,24.977661,121.256375,0.5347466
C0C710,大溪永福,2023-07-21,24.892936,121.324975,0.52681196
C0C720,竹圍,2023-07-21,25.112692,121.239824,0.42164844
C0C730,中大臨海站,2023-07-21,24.966126,121.008581,0.71225625
C0C740,觀音工業區,2023-07-21,25.064764,121.114856,0.71536326
C0C750,新興坑尾,2023-07-21,25.0061,121.0971,0.6837344
C0D430,峨眉,2023-07-21,24.6905,121.017189,0.8759453
C0D480,打鐵坑,2023-07-21,24.849664,121.150789,0.8478221
C0D540,橫山,2023-07-21,24.71116,121.11693,0.8106107
C0D560,竹東,2023-07-21,24.767147,121.057881,0.8494655
C0D580,寶山,2023-07-21,24.735006,121.025192,0.882034
C0D590,新豐,2023-07-21,24.87068,120.97721,0.7943576
C0D650,湖口,2023-07-21,24.904794,121.043628,0.7141858
C0D660,新竹市東區,2023-07-21,24.798681,120.986942,0.8308542
C0D670,海天一線,2023-07-21,24.831986,120.914438,0.83463246
C0D680,香山濕地,2023-07-21,24.783581,120.914988,0.8816856
C0D690,外湖,2023-07-21,24.917735,120.968711,0.74031895
C0D700,關西,2023-07-21,24.7977,121.1732,0.70629674
C0E420,竹南,2023-07-21,24.708978,120.888897,0.8711248
C0E430,南庄,2023-07-21,24.601775,121.000214,0.7538014
C0E520,大湖,2023-07-21,24.41494,120.87087,0.94211274
C0E540,後龍,2023-07-21,24.606489,120.783933,0.889076
C0E550,明德,2023-07-21,24.583486,120.885411,0.88601345
C0E590,通霄,2023-07-21,24.471892,120.704622,0.8262291
C0E730,頭份,2023-07-21,24.688247,120.912206,0.864586
C0E740,造橋,2023-07-21,24.637056,120.864778,0.85333467
C0E750,苗栗,2023-07-21,24.564569,120.824575,0.89631855
C0E780,銅鑼,2023-07-21,24.489681,120.790853,0.8705756
C0E791,卓蘭,2023-07-21,24.3126,120.8244,0.899037
C0E810,西湖,2023-07-21,24.562947,120.7485,0.90505326
C0E820,獅潭,2023-07-21,24.539133,120.920042,0.9061944
C0E830,苑裡,2023-07-21,24.439714,120.653053,0.84975237
C0E850,大河,2023-07-21,24.618069,120.948578,0.8995701
C0E870,高鐵苗栗,2023-07-21,24.60725,120.826094,0.8805939
C0E910,海埔,2023-07-21,24.648767,120.772435,0.8980856
C0E920,通霄漁港,2023-07-21,24.498589,120.673876,0.86166114
C0E930,龍鳳,2023-07-21,24.700034,120.859125,0.8899669
C0F0B0,石岡,2023-07-21,24.276061,120.777644,0.68102515
C0F850,東勢,2023-07-21,24.246428,120.833047,0.8875914
C0F930,大甲,2023-07-21,24.347667,120.640403,0.82266194
C0F970,大坑,2023-07-21,24.173142,120.722289,0.8883852
C0F9A0,中竹林,2023-07-21,24.103556,120.751061,0.71175027
C0F9I0,神岡,2023-07-21,24.272481,120.658314,0.87844193
C0F9K0,大安,2023-07-21,24.345061,120.588025,0.82397515
C0F9L0,后里,2023-07-21,24.310436,120.729725,0.92211676
C0F9M0,豐原,2023-07-21,24.254322,120.720692,0.93086416
C0F9N0,大里,2023-07-21,24.092464,120.701378,0.8062584
C0F9O0,潭子,2023-07-21,24.213106,120.703933,0.8633213
C0F9P0,清水,2023-07-21,24.312297,120.562242,0.8111772
C0F9Q0,外埔,2023-07-21,24.347817,120.705686,0.8415766
C0F9R0,龍井,2023-07-21,24.184536,120.528972,0.8127426
C0F9S0,烏日,2023-07-21,24.107058,120.624103,0.5521577
C0F9T0,西屯,2023-07-21,24.179494,120.641275,0.85596156
C0F9U0,南屯,2023-07-21,24.137006,120.637969,0.8332506
C0F9X0,大雅(中科園區),2023-07-21,24.21528,120.62445,0.85405797
C0FA10,松柏,2023-07-21,24.429115,120.617482,0.83522
C0FA20,溫寮,2023-07-21,24.372177,120.583125,0.8273718
C0FA30,梧棲,2023-07-21,24.256003,120.523381,0.8380694
C0FA40,臺中電廠,2023-07-21,24.2146,120.4907,0.81999457
C0FA50,霧峰,2023-07-21,24.0419,120.6995,0.8341816
C0G620,芬園,2023-07-21,24.015678,120.6213,0.6906078
C0G640,鹿港,2023-07-21,24.0753,120.430481,0.5328961
C0G650,員林,2023-07-21,23.946503,120.585597,0.5390446
C0G660,溪湖,2023-07-21,23.94835,120.479122,0.47773275
C0G720,溪州,2023-07-21,23.851589,120.499093,0.5002802
C0G730,二林,2023-07-21,23.903325,120.376081,0.42455158
C0G740,大城,2023-07-21,23.852487,120.320935,0.64988285
C0G770,福興,2023-07-21,24.041289,120.437669,0.48772424
C0G780,秀水,2023-07-21,24.03405,120.503869,0.4585915
C0G800,埔鹽,2023-07-21,24.000394,120.431683,0.47005862
C0G810,埔心,2023-07-21,23.947633,120.525456,0.47862652
C0G820,田尾,2023-07-21,23.901669,120.509389,0.56626433
C0G830,埤頭,2023-07-21,23.866003,120.452806,0.5413071
C0G840,北斗,2023-07-21,23.877586,120.514222,0.56626433
C0G860,社頭,2023-07-21,23.897647,120.5862,0.6109778
C0G870,芳苑,2023-07-21,23.922303,120.320025,0.6693819
C0G880,二水,2023-07-21,23.810742,120.6173,0.54959625
C0G890,伸港,2023-07-21,24.148933,120.484403,0.7752847
C0G900,線西,2023-07-21,24.143358,120.443536,0.8258174
C0G910,花壇,2023-07-21,24.032076,120.549461,0.51901454
C0G920,永靖,2023-07-21,23.924703,120.547533,0.61830366
C0G940,竹塘,2023-07-21,23.848253,120.386764,0.37781015
C0G950,防潮門,2023-07-21,24.1835,120.4871,0.81024784
C0G960,福寶,2023-07-21,24.0443,120.3814,0.59488034
C0G970,三豐,2023-07-21,23.882,120.2895,0.7028769
C0H890,埔里,2023-07-21,23.972169,120.952425,0.69819766
C0H950,中寮,2023-07-21,23.884447,120.766406,0.57617575
C0H960,草屯,2023-07-21,23.973672,120.68085,0.55962366
C0I110,竹山,2023-07-21,23.761225,120.688156,0.42226112
C0I360,水里,2023-07-21,23.812553,120.849792,0.64532155
C0I380,集集,2023-07-21,23.828206,120.801467,0.73473454
C0I410,名間,2023-07-21,23.837053,120.701447,0.51436913
C0I420,國姓,2023-07-21,24.037803,120.855072,0.7064793
C0I460,南投,2023-07-21,23.911469,120.687331,0.51683986
C0K250,崙背,2023-07-21,23.75555,120.318925,0.6570473
C0K280,四湖,2023-07-21,23.630414,120.227125,0.65359455
C0K291,宜梧,2023-07-21,23.536281,120.169329,0.5946969
C0K330,虎尾,2023-07-21,23.719183,120.442036,0.4491363
C0K390,土庫,2023-07-21,23.679029,120.395574,0.45349827
C0K400,斗六,2023-07-21,23.720583,120.541127,0.535016
C0K410,北港,2023-07-21,23.573957,120.292802,0.5119012
C0K420,西螺,2023-07-21,23.800407,120.467394,0.55089235
C0K430,褒忠,2023-07-21,23.690938,120.303634,0.6121543
C0K440,二崙,2023-07-21,23.772797,120.408944,0.38926136
C0K450,大埤,2023-07-21,23.646074,120.431537,0.43943352
C0K460,斗南,2023-07-21,23.678734,120.478359,0.5792314
C0K470,林內,2023-07-21,23.748675,120.609642,0.48523998
C0K480,莿桐,2023-07-21,23.761192,120.502372,0.50429124
C0K500,元長,2023-07-21,23.64981,120.315024,0.69320685
C0K510,水林,2023-07-21,23.572924,120.24597,0.5526645
C0K530,臺西,2023-07-21,23.701547,120.197559,0.7101475
C0K550,蔦松,2023-07-21,23.514319,120.229736,0.5684499
C0K560,棋山,2023-07-21,23.68645,120.603417,0.5840851
C0K580,高鐵雲林,2023-07-21,23.737456,120.417944,0.37465844
C0K590,雲林東勢,2023-07-21,23.674192,120.255721,0.62598914
C0K600,箔子寮,2023-07-21,23.6197,120.14,0.70503
C0M410,馬頭山,2023-07-21,23.324361,120.582017,0.96038866
C0M520,東後寮,2023-07-21,23.369908,120.248065,0.4177032
C0M640,中埔,2023-07-21,23.42538,120.5229,0.2903258
C0M650,朴子,2023-07-21,23.43463,120.23902,0.54092515
C0M660,溪口,2023-07-21,23.604131,120.403569,0.6996914
C0M670,大林,2023-07-21,23.600616,120.45841,0.8174746
C0M680,太保,2023-07-21,23.455062,120.331455,0.6087818
C0M690,水上,2023-07-21,23.419734,120.388909,0.6781829
C0M700,竹崎,2023-07-21,23.526178,120.555508,0.44418666
C0M710,東石,2023-07-21,23.458927,120.15385,0.7165957
C0M720,番路,2023-07-21,23.464657,120.554156,0.4100116
C0M730,嘉義市東區,2023-07-21,23.457673,120.460531,0.6802728
C0M740,六腳,2023-07-21,23.492871,120.290625,0.5049009
C0M750,布袋,2023-07-21,23.380878,120.167789,0.5960193
C0M760,民雄,2023-07-21,23.551754,120.428457,0.7672731
C0M770,嘉義梅山,2023-07-21,23.585398,120.555587,0.6937688
C0M780,鹿草,2023-07-21,23.41134,120.30835,0.48385397
C0M790,新港,2023-07-21,23.553269,120.345728,0.63499635
C0M800,茶山,2023-07-21,23.299075,120.664767,0.9777871
C0M880,好美里,2023-07-21,23.3364,120.138,0.6137719
C0N010,鯤鯓國小,2023-07-21,23.1879,120.0889,0.7419359
C0N020,城西,2023-07-21,23.0568,120.0956,0.5531125
C0N030,四草,2023-07-21,23.0235,120.1116,0.59703976
C0N040,蘆竹溝,2023-07-21,23.2344,120.0961,0.6644762
C0N050,蚵寮,2023-07-21,23.301,120.1104,0.68197596
C0O810,曾文,2023-07-21,23.219681,120.497328,0.59370863
C0O830,北寮,2023-07-21,23.079561,120.495008,0.21896297
C0O840,王爺宮,2023-07-21,23.222064,120.40085,0.57422733
C0O860,大內,2023-07-21,23.11885,120.36083,0.39262152
C0O900,善化,2023-07-21,23.112883,120.297219,0.41673866
C0O930,玉井,2023-07-21,23.126042,120.46055,0.45477685
C0O950,安南,2023-07-21,23.076694,120.144861,0.45421833
C0O960,崎頂,2023-07-21,22.959547,120.369317,0.27127862
C0O970,虎頭埤,2023-07-21,23.021375,120.347878,0.41873458
C0O980,新市,2023-07-21,23.061614,120.298197,0.43493682
C0O990,媽廟,2023-07-21,22.99175,120.293525,0.4164125
C0R150,三地門,2023-07-21,22.709889,120.639944,0.20589262
C0R160,鹽埔,2023-07-21,22.739558,120.530778,0.27824166
C0R170,屏東,2023-07-21,22.660269,120.494072,0.30163342
C0R190,赤山,2023-07-21,22.592333,120.614306,0.24991284
C0R220,潮州,2023-07-21,22.534361,120.54,0.20711996
C0R240,來義,2023-07-21,22.527306,120.625111,0.20585522
C0R260,春日,2023-07-21,22.370361,120.628306,0.39986914
C0R270,琉球嶼,2023-07-21,22.332244,120.362236,0.38313085
C0R280,檳榔,2023-07-21,22.076078,120.836777,0.9603588
C0R320,車城,2023-07-21,22.0744,120.716247,0.81219363
C0R341,牡丹,2023-07-21,22.130036,120.792639,0.6413293
C0R350,貓鼻頭,2023-07-21,21.921774,120.7358,0.83589154
C0R470,高樹,2023-07-21,22.826389,120.600806,0.12840371
C0R480,長治,2023-07-21,22.693128,120.542622,0.23375928
C0R490,九如,2023-07-21,22.7405,120.490503,0.32494208
C0R520,崁頂,2023-07-21,22.514781,120.506914,0.26941085
C0R540,佳冬,2023-07-21,22.419456,120.552375,0.33506572
C0R550,新埤,2023-07-21,22.467947,120.582894,0.22880493
C0R560,新園,2023-07-21,22.5434,120.461558,0.3009213
C0R570,麟洛,2023-07-21,22.65078,120.52719,0.3034239
C0R580,南州,2023-07-21,22.48591,120.50274,0.26887873
C0R590,里港,2023-07-21,22.77919,120.49459,0.18762201
C0R620,墾雷,2023-07-21,21.900836,120.855269,0.8402717
C0R640,東港,2023-07-21,22.46247,120.44074,0.346847
C0R650,竹田,2023-07-21,22.58486,120.54344,0.21986641
C0R660,枋寮,2023-07-21,22.367722,120.590647,0.29368192
C0R670,楓港,2023-07-21,22.190131,120.692156,0.5937996
C0R680,佳樂水,2023-07-21,21.993578,120.861633,0.82195956
C0R690,墾丁,2023-07-21,21.966756,120.810269,0.94006103
C0R700,枋山,2023-07-21,22.246844,120.661086,0.34825003
C0R710,龍磐,2023-07-21,21.931672,120.838942,0.8961343
C0R720,旭海,2023-07-21,22.205403,120.887614,0.96199775
C0R730,大坪頂,2023-07-21,22.024633,120.69355,0.91806316
C0R740,獅子,2023-07-21,22.201569,120.70525,0.65484154
C0R760,南仁湖,2023-07-21,22.084681,120.863353,0.9652239
C0R770,保力,2023-07-21,22.071122,120.764111,0.8683096
C0R780,滿州,2023-07-21,22.024403,120.839892,0.84237325
C0R790,九棚,2023-07-21,22.14195,120.889281,0.9498591
C0R800,丹路,2023-07-21,22.204481,120.750989,0.48520902
C0R810,內獅,2023-07-21,22.305064,120.642986,0.3613606
C0R830,高士,2023-07-21,22.121825,120.836781,0.9785227
C0R850,林邊,2023-07-21,22.4634,120.5339,0.2433174
C0R860,鼻頭,2023-07-21,22.1043,120.8979,0.8953289
C0R870,興海,2023-07-21,21.9752,120.8439,0.82195956
C0R880,後壁湖,2023-07-21,21.9457,120.7457,0.80516607
C0R890,山海,2023-07-21,21.9878,120.7091,0.80761397
C0R900,竹坑,2023-07-21,22.1385,120.7022,0.38536617
C0R910,下寮,2023-07-21,22.3929,120.5548,0.33630484
C0R920,塭仔,2023-07-21,22.4169,120.5197,0.32934308
C0R930,萬丹,2023-07-21,22.5885,120.4851,0.2654245
C0R940,加祿堂,2023-07-21,22.3363,120.6217,0.3882414
C0S710,鹿野,2023-07-21,22.917711,121.122994,0.97284377
C0S730,綠島,2023-07-21,22.6672,121.47533,0.9996539
C0S740,池上,2023-07-21,23.119628,121.209469,0.8796996
C0S770,大溪山,2023-07-21,22.478475,120.943325,0.99911964
C0S790,金崙,2023-07-21,22.538122,120.966875,0.9990889
C0S810,東河,2023-07-21,22.972672,121.303986,0.9981338
C0S830,長濱,2023-07-21,23.286817,121.411975,0.9959254
C0S840,南田,2023-07-21,22.279725,120.889208,0.8270391
C0S890,關山,2023-07-21,23.0395,121.175017,0.98134416
C0S900,蘭嶼高中,2023-07-21,22.04909,121.51214,0.9995337
C0S910,蘭嶼燈塔,2023-07-21,22.081197,121.503117,0.99984443
C0S920,金峰嘉蘭,2023-07-21,22.594789,120.960825,0.9991813
C0S930,延平,2023-07-21,22.902581,121.084058,0.9957319
C0S940,石寧山,2023-07-21,23.223772,121.406639,0.99918395
C0S950,七塊厝,2023-07-21,22.954453,121.229922,0.9986837
C0S960,香蘭,2023-07-21,22.587569,120.993375,0.99940443
C0S970,加津林,2023-07-21,22.416211,120.926942,0.9578928
C0S990,山豬窟,2023-07-21,22.318619,120.857372,0.9745112
C0SA00,歷坵,2023-07-21,22.520969,120.89185,0.9988078
C0SA10,檳榔四格山,2023-07-21,22.810031,121.109308,0.904525
C0SA30,都歷,2023-07-21,23.020333,121.323642,0.99801743
C0SA40,瑞和,2023-07-21,22.974361,121.156697,0.9952969
C0SA60,知本（水試所）,2023-07-21,22.702394,121.082761,0.99848515
C0SA80,土坂,2023-07-21,22.453108,120.887572,0.9992176
C0SA90,達仁林場,2023-07-21,22.264347,120.823972,0.9059841
C0T870,鯉魚潭,2023-07-21,23.935639,121.508944,0.9125666
C0T900,西林,2023-07-21,23.8119,121.441458,0.95677775
C0T960,光復,2023-07-21,23.660694,121.424964,0.95916903
C0T9A0,月眉山,2023-07-21,23.809928,121.539828,0.99911886
C0T9D0,和中,2023-07-21,24.26676,121.74103,0.9997634
C0T9E0,大坑,2023-07-21,23.880628,121.581981,0.99859273
C0T9F0,水璉,2023-07-21,23.797131,121.542514,0.9975658
C0T9I0,豐濱,2023-07-21,23.583897,121.514806,0.9972024
C0T9M0,靜浦,2023-07-21,23.455167,121.495028,0.9997979
C0T9N0,富里,2023-07-21,23.171639,121.249378,0.99054354
C0U600,礁溪,2023-07-21,24.817539,121.765608,0.10699545
C0U650,玉蘭,2023-07-21,24.675286,121.587061,0.927731
C0U750,龜山島,2023-07-21,24.841667,121.953133,0.29322147
C0U760,東澳,2023-07-21,24.52196,121.83318,0.9573484
C0U770,南澳,2023-07-21,24.44935,121.81022,0.5945925
C0U780,五結,2023-07-21,24.68637,121.79794,0.09625378
C0U860,頭城,2023-07-21,24.85323,121.8308,0.11199888
C0U870,大礁溪,2023-07-21,24.791042,121.675047,0.95739806
C0U880,北關,2023-07-21,24.9072,121.8734,0.2908757
C0U890,三星,2023-07-21,24.66812,121.65302,0.1782756
C0U900,內城,2023-07-21,24.71813,121.68766,0.089370355
C0U910,冬山,2023-07-21,24.63373,121.7937,0.12143122
C0U940,羅東,2023-07-21,24.68184,121.74934,0.10031611
C0U970,大福,2023-07-21,24.80064,121.81389,0.07307425
C0U990,員山,2023-07-21,24.74435,121.72247,0.100913204
C0UA00,土場,2023-07-21,24.576533,121.495333,0.9222085
C0UA80,大溪漁港,2023-07-21,24.941801,121.902955,0.105353266
C0UA90,石城,2023-07-21,24.980444,121.951214,0.09030806
C0UB00,淡江大學蘭陽校園,2023-07-21,24.823239,121.730383,0.28372848
C0UB10,蘇澳,2023-07-21,24.5969,121.8571,0.1899747
C0UB20,壯圍,2023-07-21,24.7359,121.8163,0.09183251
C0V250,甲仙,2023-07-21,23.080106,120.591758,0.23966755
C0V260,月眉,2023-07-21,22.971003,120.539853,0.1124118
C0V310,美濃,2023-07-21,22.898742,120.519153,0.18504167
C0V350,溪埔,2023-07-21,22.738578,120.446797,0.2886722
C0V360,內門,2023-07-21,22.975481,120.466769,0.350888
C0V370,古亭坑,2023-07-21,22.893178,120.401947,0.41959435
C0V400,阿公店,2023-07-21,22.804194,120.355528,0.29544175
C0V440,鳳山,2023-07-21,22.646653,120.356122,0.3753852
C0V450,鳳森,2023-07-21,22.545064,120.392592,0.32493156
C0V490,新興,2023-07-21,22.627422,120.298803,0.3879917
C0V530,阿蓮,2023-07-21,22.883208,120.327508,0.36995432
C0V610,梓官,2023-07-21,22.760558,120.267211,0.43159306
C0V620,永安,2023-07-21,22.82315,120.236856,0.43128678
C0V630,茄萣,2023-07-21,22.906642,120.182608,0.45987165
C0V640,湖內,2023-07-21,22.887139,120.2445,0.3876137
C0V650,彌陀,2023-07-21,22.783806,120.246361,0.39773074
C0V660,岡山,2023-07-21,22.797078,120.294958,0.33225387
C0V680,仁武,2023-07-21,22.701083,120.347722,0.32228687
C0V690,鼓山,2023-07-21,22.623325,120.275575,0.52522784
C0V700,三民,2023-07-21,22.645017,120.311233,0.38637894
C0V710,苓雅,2023-07-21,22.622742,120.330669,0.43797573
C0V720,林園,2023-07-21,22.507747,120.394511,0.4263286
C0V730,大寮,2023-07-21,22.605614,120.395717,0.31066626
C0V740,旗山,2023-07-21,22.888614,120.483597,0.18590222
C0V750,路竹,2023-07-21,22.854997,120.259439,0.4046781
C0V760,橋頭,2023-07-21,22.757806,120.30575,0.32876137
C0V770,大社,2023-07-21,22.730306,120.346639,0.288951
C0V790,萬山,2023-07-21,22.905944,120.688056,0.61151034
C0V800,六龜,2023-07-21,22.997889,120.633583,0.15154028
C0V810,左營,2023-07-21,22.67491,120.28491,0.37196514
C0V820,小林,2023-07-21,23.148408,120.63325,0.7368871
C0V840,鳳鼻頭,2023-07-21,22.5083,120.3591,0.4041057
C0V850,蚵仔寮,2023-07-21,22.7256,120.2527,0.42943376
C0V860,南寮,2023-07-21,22.7616,120.2339,0.4154534
C0V870,文安,2023-07-21,22.8025,120.2164,0.51879597
C0V880,興達,2023-07-21,22.8778,120.2127,0.4532224
C0V890,前鎮,2023-07-21,22.5718,120.3117,0.44525263
C0V900,汕尾,2023-07-21,22.4782,120.4151,0.30200684
C0X050,東河,2023-07-21,23.296598,120.385608,0.52918667
C0X060,下營,2023-07-21,23.22695,120.256261,0.45022237
C0X080,佳里,2023-07-21,23.173039,120.145086,0.5409041
C0X100,臺南市北區,2023-07-21,23.010394,120.194228,0.44023204
C0X110,臺南市南區,2023-07-21,22.961189,120.188378,0.45672372
C0X120,麻豆,2023-07-21,23.183289,120.248611,0.44138733
C0X130,官田,2023-07-21,23.193217,120.315422,0.46245667
C0X140,西港,2023-07-21,23.125608,120.203108,0.49379298
C0X150,安定,2023-07-21,23.102614,120.227839,0.41649112
C0X160,仁德,2023-07-21,22.968258,120.257689,0.4218842
C0X170,關廟,2023-07-21,22.963017,120.327797,0.4008172
C0X180,山上,2023-07-21,23.0757,120.363253,0.4737679
C0X190,安平,2023-07-21,22.993161,120.152181,0.5244085
C0X200,左鎮,2023-07-21,23.056758,120.408522,0.43192104
C0X210,白河,2023-07-21,23.347466,120.414427,0.48383313
C0X220,學甲,2023-07-21,23.230367,120.182187,0.5259428
C0X230,鹽水,2023-07-21,23.272621,120.247641,0.4506888
C0X240,關子嶺,2023-07-21,23.331169,120.508025,0.4871727
C0X250,新營,2023-07-21,23.310689,120.316681,0.4495351
C0X260,後壁,2023-07-21,23.366358,120.362326,0.45853704
C0X280,將軍,2023-07-21,23.214999,120.13577,0.54662573
C0X290,北門,2023-07-21,23.267772,120.125481,0.58459103
C0X300,鹿寮,2023-07-21,23.386047,120.477331,0.2642746
C0X310,七股,2023-07-21,23.147289,120.086253,0.7142228
C0X320,柳營,2023-07-21,23.253328,120.375253,0.4936379
C0Z020,明里,2023-07-21,23.208717,121.262342,0.99057025
C0Z061,玉里,2023-07-21,23.3215,121.339656,0.7177837
C0Z070,舞鶴,2023-07-21,23.46811,121.37407,0.98086077
C0Z080,富源,2023-07-21,23.587642,121.378225,0.982937
C0Z100,東華,2023-07-21,23.89525,121.549833,0.93290263
C0Z150,吉安光華,2023-07-21,23.930925,121.595153,0.97625357
C0Z160,鳳林,2023-07-21,23.746114,121.453411,0.9528111
C0Z170,卓溪,2023-07-21,23.3443,121.3029,0.5547576
C0Z180,新城,2023-07-21,24.03946,121.60454,0.96142894
C0Z190,富世,2023-07-21,24.14743,121.6297,0.8915939
C0Z200,萬榮,2023-07-21,23.709219,121.420106,0.9433549
C0Z210,瑞穗,2023-07-21,23.5239,121.39021,0.9885698
C0Z230,和平,2023-07-21,24.30717,121.77007,0.99976367
C0Z270,蕃薯寮,2023-07-21,23.73835,121.540108,0.9991645
C0Z280,德武,2023-07-21,23.47426,121.41071,0.9995563
C0Z300,東里,2023-07-21,23.26853,121.30547,0.8723725
C0Z310,清水斷崖,2023-07-21,24.218294,121.689142,0.9989448
C0Z330,安通山,2023-07-21,23.290728,121.348528,0.75383234
