站號,站名,日期,lat,lon,BLBTSLS
C0R710,龍磐,2023-03-20,21.931672,120.838942,0.07198603
C1F9D1,白毛台,2023-03-20,24.158325,120.886933,4.0755166e-10
C0G940,竹塘,2023-03-20,23.848253,120.386764,1.1160416e-09
467590,恆春,2023-03-20,22.003897,120.746339,0.7438552
C1O850,環湖,2023-03-20,23.148617,120.418633,0.32951468
C0U710,太平山,2023-03-20,24.505486,121.525656,1.3061824e-08
C0E820,獅潭,2023-03-20,24.539133,120.920042,4.582646e-10
C0V880,興達,2023-03-20,22.8778,120.2127,2.600854e-10
C0S890,關山,2023-03-20,23.0395,121.175017,5.856779e-10
K2F750,種苗繁殖,2023-03-20,24.225972,120.800917,7.554257e-09
C1Z130,銅門,2023-03-20,23.965694,121.492842,1.880299e-09
C0AD40,土城,2023-03-20,24.973208,121.445169,1.342795e-09
CAN140,六官養殖協會,2023-03-20,23.22881,120.29962,1.5933498e-06
C0X180,山上,2023-03-20,23.0757,120.363253,0.06344816
C0F9Z0,雪山東峰,2023-03-20,24.388792,121.268675,1.6251951e-08
C1M480,獨立山,2023-03-20,23.537022,120.607797,9.682832e-09
C0X220,學甲,2023-03-20,23.230367,120.182187,4.773986e-10
C0R170,屏東,2023-03-20,22.660269,120.494072,0.03427131
467650,日月潭,2023-03-20,23.881325,120.90805,8.401778e-10
C0K600,箔子寮,2023-03-20,23.6197,120.14,4.991066e-10
C0G830,埤頭,2023-03-20,23.866003,120.452806,3.4326725e-08
C0S950,七塊厝,2023-03-20,22.954453,121.229922,1.1270712e-09
467110,金門,2023-03-20,24.407306,118.289281,9.554376e-09
C0AH80,深坑,2023-03-20,25.002703,121.628328,1.3005584e-09
467990,馬祖,2023-03-20,26.169269,119.923419,6.714093e-08
C0A970,三貂角,2023-03-20,25.007606,122.002058,2.3895304e-09
C0K430,褒忠,2023-03-20,23.690938,120.303634,5.1287317e-09
467480,嘉義,2023-03-20,23.495925,120.432906,0.002755469
C2E540,後龍,2023-03-20,24.606489,120.783933,4.264259e-10
C0V400,阿公店,2023-03-20,22.804194,120.355528,1.382982e-06
C0R440,大漢山,2023-03-20,22.405264,120.753181,3.8376835e-09
C0K280,四湖,2023-03-20,23.630414,120.227125,7.328553e-10
C1F9B1,桐林,2023-03-20,24.066172,120.735194,0.00016640729
C0K390,土庫,2023-03-20,23.679029,120.395574,1.0274159e-06
C1I450,望鄉山,2023-03-20,23.594153,120.944286,1.0363445e-08
C0E910,海埔,2023-03-20,24.648767,120.772435,4.3560258e-10
B2E890,畜試北區分所,2023-03-20,24.527806,120.770972,2.9080277e-10
C0R750,四林格山,2023-03-20,22.076989,120.802439,2.4616344e-07
C0F0C0,中坑,2023-03-20,24.248517,120.903319,6.953041e-10
C1I121,大鞍,2023-03-20,23.678381,120.760017,3.7356074e-09
72U480,花改蘭陽分場,2023-03-20,24.686306,121.716583,9.791922e-10
C0A770,科教館,2023-03-20,25.096356,121.516507,8.623821e-10
C0AJ60,六塊厝,2023-03-20,25.24,121.4481,1.5684259e-07
C0R620,墾雷,2023-03-20,21.900836,120.855269,0.7796003
467420,永康,2023-03-20,23.038386,120.2367,3.5890181e-07
467300,東吉島,2023-03-20,23.25695,119.667467,0.0025607639
C0I410,名間,2023-03-20,23.837053,120.701447,0.14187896
A2C560,農工中心,2023-03-20,24.985917,121.239833,1.3095145e-09
C0V740,旗山,2023-03-20,22.888614,120.483597,0.026481062
C0Z061,玉里,2023-03-20,23.3215,121.339656,5.507289e-10
C0S840,南田,2023-03-20,22.279725,120.889208,0.99470705
C1I470,杉林溪,2023-03-20,23.639517,120.786444,4.8954383e-09
C1X040,東原,2023-03-20,23.291597,120.463822,6.2410504e-06
C0R660,枋寮,2023-03-20,22.367722,120.590647,7.8198104e-10
C1R120,上德文,2023-03-20,22.763272,120.704442,4.6362225e-10
C0K450,大埤,2023-03-20,23.646074,120.431537,0.18088359
C0UA00,土場,2023-03-20,24.576533,121.495333,2.1548938e-09
467080,宜蘭,2023-03-20,24.763975,121.756528,1.1893442e-09
C0N030,四草,2023-03-20,23.0235,120.1116,4.853116e-10
C0V650,彌陀,2023-03-20,22.783806,120.246361,2.2531222e-07
C0D660,新竹市東區,2023-03-20,24.798681,120.986942,3.2946046e-10
82S580,茶改東部分場,2023-03-20,22.907694,121.130139,3.0124692e-08
C0C710,大溪永福,2023-03-20,24.892936,121.324975,8.529856e-10
C0FA20,溫寮,2023-03-20,24.372177,120.583125,3.2102296e-10
C0V640,湖內,2023-03-20,22.887139,120.2445,2.526673e-10
C0R910,下寮,2023-03-20,22.3929,120.5548,7.814249e-10
C0Z020,明里,2023-03-20,23.208717,121.262342,7.762168e-10
C0M770,嘉義梅山,2023-03-20,23.585398,120.555587,0.9916563
G2F820,農業試驗所,2023-03-20,24.031261,120.688133,0.000121441335
C0C660,楊梅,2023-03-20,24.912375,121.143047,7.2655876e-10
C1E511,新開,2023-03-20,24.347703,120.827019,4.7304605e-10
G2F820,農試所(霧峰),2023-03-20,24.031261,120.688133,0.000121441335
C1I070,和社,2023-03-20,23.591131,120.888861,1.0125341e-09
C2F000,大肚,2023-03-20,24.15295,120.572117,2.2842153e-06
C1S850,豐南,2023-03-20,23.122139,121.262389,5.578769e-10
C2A920,富貴角,2023-03-20,25.263783,121.565258,4.6705313e-08
CAH030,茶改場竹圍站,2023-03-20,23.860083,120.637528,7.353848e-08
C0T960,光復,2023-03-20,23.660694,121.424964,5.372586e-10
C0F9M0,豐原,2023-03-20,24.254322,120.720692,3.2963303e-08
C0R720,旭海,2023-03-20,22.205403,120.887614,0.91742396
C0V710,苓雅,2023-03-20,22.622742,120.330669,1.8754638e-09
C0C740,觀音工業區,2023-03-20,25.064764,121.114856,1.1337405e-08
CAC040,拉拉山,2023-03-20,24.699317,121.427133,1.5153137e-08
C0V790,萬山,2023-03-20,22.905944,120.688056,0.00020293664
U2HA30,臺大和社,2023-03-20,23.590856,120.888864,1.0125341e-09
C0AJ90,澳底,2023-03-20,25.0552,121.9253,6.6534853e-09
C0Z100,東華,2023-03-20,23.89525,121.549833,1.4022428e-09
C0G970,三豐,2023-03-20,23.882,120.2895,1.1091765e-09
V2K610,大庄合作社,2023-03-20,23.8068,120.367939,1.7713775e-09
C0V900,汕尾,2023-03-20,22.4782,120.4151,5.2389393e-10
C1R630,龍泉,2023-03-20,22.66701,120.59091,0.00017058887
C1AC50,關渡,2023-03-20,25.133486,121.469331,1.6427528e-09
C0F9I0,神岡,2023-03-20,24.272481,120.658314,1.7117715e-08
C0K460,斗南,2023-03-20,23.678734,120.478359,0.14717428
467410,臺南,2023-03-20,22.993239,120.204772,4.4710963e-10
C2O810,曾文,2023-03-20,23.219681,120.497328,0.0031380292
467280,後龍,2023-03-20,24.648563,120.831834,4.088753e-10
C1F9J1,清水林,2023-03-20,24.071242,120.820419,1.6780473e-09
C2A650,火燒寮,2023-03-20,25.002719,121.742892,2.6870617e-09
466930,竹子湖,2023-03-20,25.162078,121.544547,2.1660405e-09
C1I220,樟湖,2023-03-20,23.905333,120.846983,1.6176607e-09
C0I390,仁愛,2023-03-20,24.022122,121.132206,1.0948918e-09
C0Z300,東里,2023-03-20,23.26853,121.30547,7.1991946e-10
C0V310,美濃,2023-03-20,22.898742,120.519153,0.03349794
C1V590,新發,2023-03-20,23.057019,120.646064,1.5004639e-09
C0K510,水林,2023-03-20,23.572924,120.24597,5.7460103e-09
72S590,東改賓朗果園,2023-03-20,22.813889,121.071278,2.7873707e-06
82A750,茶改北部分場,2023-03-20,24.955778,121.631222,5.1579265e-09
C1A750,石碇服務區,2023-03-20,25.00872,121.646242,1.4712487e-09
C0X300,鹿寮,2023-03-20,23.386047,120.477331,0.3791339
G2AI50,關渡,2023-03-20,25.11575,121.492,9.631038e-09
C0K590,雲林東勢,2023-03-20,23.674192,120.255721,9.531933e-09
C0A570,桶後,2023-03-20,24.848222,121.597992,2.7689973e-09
C1S800,華源,2023-03-20,22.657883,121.02325,1.1206645e-08
C0G720,溪州,2023-03-20,23.851589,120.499093,2.9803957e-08
C1V160,達卡努瓦,2023-03-20,23.279811,120.705319,1.3075677e-09
C2M410,馬頭山,2023-03-20,23.324361,120.582017,1.3793176e-06
C0V850,蚵仔寮,2023-03-20,22.7256,120.2527,1.6631319e-07
C0S740,池上,2023-03-20,23.119628,121.209469,6.7917666e-10
C1V390,尖山,2023-03-20,22.813153,120.367789,6.676771e-07
C0AH70,松山,2023-03-20,25.04871,121.55042,8.6526875e-10
C0N010,鯤鯓國小,2023-03-20,23.1879,120.0889,3.2060074e-10
C0R550,新埤,2023-03-20,22.467947,120.582894,4.876034e-10
C0SA60,知本（水試所）,2023-03-20,22.702394,121.082761,2.2343087e-08
C0T9I0,豐濱,2023-03-20,23.583897,121.514806,3.9407497e-10
C0UB00,淡江大學蘭陽校園,2023-03-20,24.823239,121.730383,3.0375833e-09
C0T9N0,富里,2023-03-20,23.171639,121.249378,5.885918e-10
U2HA50,臺大竹山,2023-03-20,23.756972,120.681556,0.9830594
C0V840,鳳鼻頭,2023-03-20,22.5083,120.3591,1.6009198e-09
C0X140,西港,2023-03-20,23.125608,120.203108,6.8742283e-09
72D080,桃改五峰分場,2023-03-20,24.612194,121.157167,3.1334269e-09
C0V530,阿蓮,2023-03-20,22.883208,120.327508,3.0232213e-06
C1O880,關山,2023-03-20,23.173397,120.594092,1.1241551e-06
C0E791,卓蘭,2023-03-20,24.3126,120.8244,1.2637276e-08
C1I030,武界,2023-03-20,23.913225,121.052483,1.3451944e-09
C0R520,崁頂,2023-03-20,22.514781,120.506914,9.5346326e-07
C0R341,牡丹,2023-03-20,22.130036,120.792639,0.84541434
C0R930,萬丹,2023-03-20,22.5885,120.4851,1.5557525e-05
C0S760,紅石,2023-03-20,23.069131,121.126219,1.3321985e-08
C1M610,石磐龍,2023-03-20,23.496606,120.663506,1.0463285e-09
C0UA10,鴛鴦湖,2023-03-20,24.590269,121.412228,9.464413e-09
V2C260,八德蔬果,2023-03-20,24.978508,121.281819,9.764971e-10
C0R800,丹路,2023-03-20,22.204481,120.750989,0.9793769
C0G920,永靖,2023-03-20,23.924703,120.547533,2.3739045e-08
C1A630,下盆,2023-03-20,24.771003,121.538622,3.3980994e-09
B2N890,畜產試驗所,2023-03-20,23.058972,120.336406,5.6051413e-06
C0UA30,白嶺,2023-03-20,24.527819,121.519031,7.9117966e-09
C1V580,溪南(特生中心),2023-03-20,23.084972,120.788475,2.256402e-09
C1T970,大農,2023-03-20,23.615233,121.413331,4.1148207e-10
E2S960,林試太麻里2,2023-03-20,22.598014,120.989761,4.301333e-08
C0R650,竹田,2023-03-20,22.58486,120.54344,0.0003759332
C1H900,清流,2023-03-20,24.080775,120.962997,6.4697203e-10
C1C510,水尾,2023-03-20,24.940081,121.087161,1.4388732e-09
C0F9X0,大雅(中科園區),2023-03-20,24.21528,120.62445,6.933752e-08
C0O970,虎頭埤,2023-03-20,23.021375,120.347878,0.00064301846
C0C730,中大臨海站,2023-03-20,24.966126,121.008581,3.6825563e-09
C0X250,新營,2023-03-20,23.310689,120.316681,2.5583067e-06
C0V700,三民,2023-03-20,22.645017,120.311233,5.2574105e-09
C0U870,大礁溪,2023-03-20,24.791042,121.675047,3.0918337e-09
C0E870,高鐵苗栗,2023-03-20,24.60725,120.826094,4.1720055e-10
A2K570,古坑花卉中心,2023-03-20,23.63353,120.55239,0.9966762
C0M860,新美,2023-03-20,23.338017,120.683169,7.269303e-10
C1E701,八卦,2023-03-20,24.491756,120.927619,1.1185606e-09
C0I420,國姓,2023-03-20,24.037803,120.855072,2.2288452e-06
C0S960,香蘭,2023-03-20,22.587569,120.993375,4.301333e-08
C0R260,春日,2023-03-20,22.370361,120.628306,6.1435557e-10
72G600,臺中農改場,2023-03-20,24.003028,120.534389,2.646676e-08
C0Z210,瑞穗,2023-03-20,23.5239,121.39021,5.343797e-10
C0M820,達邦,2023-03-20,23.453994,120.749517,7.1050416e-10
C0V860,南寮,2023-03-20,22.7616,120.2339,1.6631319e-07
C0G740,大城,2023-03-20,23.852487,120.320935,1.0801707e-09
C0R920,塭仔,2023-03-20,22.4169,120.5197,8.227809e-10
C0R470,高樹,2023-03-20,22.826389,120.600806,0.09656052
C0R680,佳樂水,2023-03-20,21.993578,120.861633,0.2736731
C1O870,大棟山,2023-03-20,23.31157,120.52226,8.669472e-10
C0D360,梅花,2023-03-20,24.678347,121.208558,5.1613286e-10
C0Z190,富世,2023-03-20,24.14743,121.6297,7.268322e-09
C0AI10,屈尺,2023-03-20,24.92184,121.54475,1.8646065e-09
B2U990,畜試東區分所,2023-03-20,24.669039,121.832561,1.0095181e-09
C0R240,來義,2023-03-20,22.527306,120.625111,2.1436894e-07
C1R610,西大武山,2023-03-20,22.617719,120.7322,1.4453433e-08
C0G900,線西,2023-03-20,24.143358,120.443536,1.3532698e-09
C0M700,竹崎,2023-03-20,23.526178,120.555508,0.9911933
C2E880,三義,2023-03-20,24.405478,120.749819,5.714225e-10
C0C720,竹圍,2023-03-20,25.112692,121.239824,9.631038e-09
C0F9P0,清水,2023-03-20,24.312297,120.562242,5.6731e-10
C0Z150,吉安光華,2023-03-20,23.930925,121.595153,2.3338653e-09
C1D640,外坪(五指山),2023-03-20,24.644447,121.090961,1.7524442e-09
C0F9O0,潭子,2023-03-20,24.213106,120.703933,5.6799105e-05
72T250,花蓮農改場,2023-03-20,23.975222,121.563889,1.5308723e-09
C0E780,銅鑼,2023-03-20,24.489681,120.790853,2.9651176e-10
C1T950,太安,2023-03-20,23.666719,121.370128,1.286187e-08
C0E830,苑裡,2023-03-20,24.439714,120.653053,4.5729368e-10
467270,田中,2023-03-20,23.873803,120.581286,0.39662927
C0SA10,檳榔四格山,2023-03-20,22.810031,121.109308,6.7284833e-07
C1T830,布洛灣,2023-03-20,24.17184,121.57127,6.983467e-09
C0F970,大坑,2023-03-20,24.173142,120.722289,0.0001315846
C1U920,思源,2023-03-20,24.393125,121.347214,1.0078275e-08
C0A931,三和,2023-03-20,25.233153,121.595236,3.590231e-09
C0I010,廬山,2023-03-20,24.033311,121.181808,2.2921232e-09
C0R860,鼻頭,2023-03-20,22.1043,120.8979,0.8906291
C0UB20,壯圍,2023-03-20,24.7359,121.8163,9.330713e-10
C0R790,九棚,2023-03-20,22.14195,120.889281,0.9071059
C0W110,東莒,2023-03-20,25.9652,119.98069,7.292877e-08
C1U930,粉鳥林,2023-03-20,24.497088,121.842479,1.7091019e-09
C1I211,蘆竹湳,2023-03-20,23.934019,120.811994,7.209652e-10
C0S830,長濱,2023-03-20,23.286817,121.411975,6.593751e-10
C1F9F1,伯公龍,2023-03-20,24.272392,120.849047,5.9958516e-10
C0E810,西湖,2023-03-20,24.562947,120.7485,1.0356583e-09
C1I440,新高口,2023-03-20,23.478744,120.878939,4.839872e-09
C0O840,王爺宮,2023-03-20,23.222064,120.40085,4.922899e-06
C0T9G0,鳳林山,2023-03-20,23.735269,121.420131,1.646156e-09
C0X080,佳里,2023-03-20,23.173039,120.145086,3.2060074e-10
C0Z310,清水斷崖,2023-03-20,24.218294,121.689142,3.0060219e-09
C0M680,太保,2023-03-20,23.455062,120.331455,0.000108759
C1S820,金峰,2023-03-20,22.590969,120.933236,1.506461e-08
C0AD10,八里,2023-03-20,25.150211,121.403947,9.631038e-09
C2K240,草嶺,2023-03-20,23.59555,120.693461,9.978177e-10
C1SA70,都蘭,2023-03-20,22.87794,121.226881,6.107046e-07
C0K440,二崙,2023-03-20,23.772797,120.408944,1.8076324e-08
C1A760,坪林交控,2023-03-20,24.94284,121.713442,2.7512979e-09
C0F9N0,大里,2023-03-20,24.092464,120.701378,0.0007924662
C0SA90,達仁林場,2023-03-20,22.264347,120.823972,1.0671831e-05
C1R290,石門山,2023-03-20,22.112611,120.756597,0.051906243
42HA10,萬大發電廠,2023-03-20,23.978875,121.139639,1.3105139e-09
C0R890,山海,2023-03-20,21.9878,120.7091,0.28007346
C0T9A0,月眉山,2023-03-20,23.809928,121.539828,2.0889812e-09
C0AC70,信義,2023-03-20,25.037822,121.564597,8.6526875e-10
C0K560,棋山,2023-03-20,23.68645,120.603417,0.9957306
C1Z240,中平林道,2023-03-20,23.42115,121.26763,1.5141378e-08
U2H480,溪頭,2023-03-20,23.670306,120.798194,1.2120527e-09
C0M880,好美里,2023-03-20,23.3364,120.138,7.619036e-10
C0T9E0,大坑,2023-03-20,23.880628,121.581981,1.4398368e-09
C0K530,臺西,2023-03-20,23.701547,120.197559,1.0244949e-09
C1E900,國一N128K,2023-03-20,24.560997,120.844186,4.6549453e-10
C0AJ50,水湳洞,2023-03-20,25.123695,121.862238,4.4745794e-09
C0AI20,白沙灣,2023-03-20,25.283128,121.519058,1.3639227e-07
C0A860,大坪,2023-03-20,25.165914,121.632969,1.4673112e-09
C1U850,觀音海岸,2023-03-20,24.38319,121.77856,2.696884e-09
C0U950,鶯子嶺,2023-03-20,24.89754,121.79244,8.55882e-09
C0O900,善化,2023-03-20,23.112883,120.297219,9.223128e-06
C0K550,蔦松,2023-03-20,23.514319,120.229736,1.1294987e-09
E2P980,林試六龜中心,2023-03-20,22.991703,120.645722,0.00012444839
C0E590,通霄,2023-03-20,24.471892,120.704622,6.1442235e-10
C1I310,西巒,2023-03-20,23.754486,120.883956,1.7154704e-09
C0A550,泰平,2023-03-20,24.971197,121.823711,4.5646433e-09
C0I360,水里,2023-03-20,23.812553,120.849792,1.5967229e-05
C0R830,高士,2023-03-20,22.121825,120.836781,0.0004491692
C1I101,溪頭,2023-03-20,23.661789,120.807647,4.924019e-09
C0AJ20,野柳,2023-03-20,25.20703,121.690021,3.59463e-09
C0B060,暖暖,2023-03-20,25.0957,121.7403,1.0589652e-09
C1H920,長豐,2023-03-20,24.102039,120.879897,5.705056e-10
C0V360,內門,2023-03-20,22.975481,120.466769,0.00017079835
C0R850,林邊,2023-03-20,22.4634,120.5339,5.1690036e-10
C0E930,龍鳳,2023-03-20,24.700034,120.859125,3.7733366e-10
C0U910,冬山,2023-03-20,24.63373,121.7937,1.0095181e-09
C1E721,泰安,2023-03-20,24.489017,120.968036,4.163526e-09
82H320,茶改中部分場,2023-03-20,23.875611,120.913583,6.696591e-10
C0M750,布袋,2023-03-20,23.380878,120.167789,1.9919022e-09
C1S860,利嘉,2023-03-20,22.809417,121.050528,5.1453783e-09
72C440,桃園農改,2023-03-20,24.950944,121.030583,1.7034132e-09
E2S980,林試太麻里1,2023-03-20,22.598922,120.980044,2.5694233e-08
C0X170,關廟,2023-03-20,22.963017,120.327797,1.4012982e-05
C0V720,林園,2023-03-20,22.507747,120.394511,1.5144229e-09
C1I510,線浸林道,2023-03-20,23.761508,120.832956,2.054066e-09
C0D690,外湖,2023-03-20,24.917735,120.968711,2.036321e-09
C0C750,新興坑尾,2023-03-20,25.0061,121.0971,3.1333551e-09
B2Q810,畜試南區分所,2023-03-20,21.945583,120.802167,0.29106665
C0S790,金崙,2023-03-20,22.538122,120.966875,6.010158e-08
C0AH90,福山植物園,2023-03-20,24.760717,121.58135,5.881376e-09
C0I540,奇萊稜線,2023-03-20,24.109231,121.326456,1.6323996e-08
C0M850,表湖,2023-03-20,23.24186,120.64166,6.9783507e-10
C0S770,大溪山,2023-03-20,22.478475,120.943325,5.310546e-08
C0AG80,中和,2023-03-20,24.991622,121.491792,1.342795e-09
C0T790,大禹嶺,2023-03-20,24.186117,121.316086,8.525453e-09
C0T9B0,水源,2023-03-20,23.991861,121.537169,2.279336e-09
C0R840,牡丹池山,2023-03-20,22.168389,120.841225,0.029045982
C1I131,桶頭,2023-03-20,23.641944,120.654117,0.8713
CAL110,布袋國中,2023-03-20,23.35893,120.18026,1.998821e-09
467571,新竹,2023-03-20,24.827853,121.014219,6.172343e-10
C0Z290,赤柯山,2023-03-20,23.36893,121.38293,5.545978e-09
C0X280,將軍,2023-03-20,23.214999,120.13577,4.9078985e-10
C0S690,太麻里,2023-03-20,22.60902,120.98533,8.652874e-09
C0U880,北關,2023-03-20,24.9072,121.8734,2.4467843e-09
C1H860,瑞岩,2023-03-20,24.123772,121.18345,5.298483e-09
C0G810,埔心,2023-03-20,23.947633,120.525456,2.3659261e-08
C0U970,大福,2023-03-20,24.80064,121.81389,1.1674597e-09
C1E670,南礦,2023-03-20,24.538278,121.002836,4.200681e-09
C0M520,東後寮,2023-03-20,23.369908,120.248065,1.9027646e-09
C1E461,松安,2023-03-20,24.397972,120.986022,3.146975e-09
72G600,臺中農改,2023-03-20,24.003028,120.534389,2.646676e-08
C2N160,西拉雅風管處,2023-03-20,23.189481,120.335297,0.001573533
C0A640,石碇,2023-03-20,24.993969,121.662917,1.6110006e-09
E2S960,林試太麻里2,2023-03-20,22.598,120.99775,4.6635435e-08
C0F9Y0,桃山,2023-03-20,24.432739,121.303808,1.761527e-08
C1I020,萬大,2023-03-20,23.979817,121.132261,1.1101481e-09
C0U940,羅東,2023-03-20,24.68184,121.74934,9.618641e-10
C0M650,朴子,2023-03-20,23.43463,120.23902,9.562835e-09
C1I500,大尖山,2023-03-20,23.858572,120.994889,5.3331486e-09
C0G820,田尾,2023-03-20,23.901669,120.509389,2.3659261e-08
E2K600,四湖植物園,2023-03-20,23.676986,120.163433,7.3264983e-10
C0S730,綠島,2023-03-20,22.6672,121.47533,0.97670376
12Q970,東港工作站,2023-03-20,22.479997,120.466058,5.241218e-10
C0E430,南庄,2023-03-20,24.601775,121.000214,4.5758858e-10
C1TA00,太魯閣,2023-03-20,24.15773,121.6236,6.8860255e-09
466920,臺北,2023-03-20,25.037658,121.514853,8.6526875e-10
C0R600,舊泰武,2023-03-20,22.588194,120.664944,4.9160587e-10
C1I260,北坑,2023-03-20,23.9246,121.006903,7.0212475e-10
466910,鞍部,2023-03-20,25.182586,121.529731,6.6196373e-09
C1I230,九份二山,2023-03-20,23.961944,120.845,1.3015858e-09
C2A660,瑞芳,2023-03-20,25.113169,121.801147,4.2328283e-09
C0R270,琉球嶼,2023-03-20,22.332244,120.362236,2.0093023e-09
C1T990,高寮,2023-03-20,23.394239,121.356808,5.094916e-10
C0G620,芬園,2023-03-20,24.015678,120.6213,5.301928e-05
C1Z140,荖溪,2023-03-20,23.890575,121.45964,7.789032e-09
C1I201,中心崙,2023-03-20,23.728722,120.712097,9.74953e-09
C1I400,凌霄,2023-03-20,24.018778,121.004456,1.8069282e-09
C1M640,十字,2023-03-20,23.492153,120.753683,3.3000969e-09
G2P820,農試鳳山分所,2023-03-20,22.646611,120.356083,4.7034003e-09
C0Z270,蕃薯寮,2023-03-20,23.73835,121.540108,9.760726e-10
C0F9Q0,外埔,2023-03-20,24.347817,120.705686,1.0215057e-09
C0K580,高鐵雲林,2023-03-20,23.737456,120.417944,8.0318564e-08
C2I090,鳳凰,2023-03-20,23.728081,120.787347,6.694535e-10
C0U990,員山,2023-03-20,24.74435,121.72247,9.505186e-10
C0V770,大社,2023-03-20,22.730306,120.346639,1.0580434e-07
C0X120,麻豆,2023-03-20,23.183289,120.248611,6.748695e-08
C0C670,龍潭,2023-03-20,24.870056,121.221389,4.2263318e-10
C0D680,香山濕地,2023-03-20,24.783581,120.914988,4.1427456e-10
C0S980,勝林山,2023-03-20,22.430439,120.8938,3.25795e-09
C0V730,大寮,2023-03-20,22.605614,120.395717,1.7628535e-09
C0R570,麟洛,2023-03-20,22.65078,120.52719,0.03435001
CAG100,王功漁港,2023-03-20,23.96824,120.32586,8.237466e-10
C0X290,北門,2023-03-20,23.267772,120.125481,4.9078985e-10
C2F930,大甲,2023-03-20,24.347667,120.640403,3.0319672e-10
C0D650,湖口,2023-03-20,24.904794,121.043628,1.4634038e-09
C0E420,竹南,2023-03-20,24.708978,120.888897,3.4899192e-10
C0U780,五結,2023-03-20,24.68637,121.79794,9.330713e-10
C1I250,鯉潭,2023-03-20,23.961922,120.991131,1.3228446e-09
C0R130,阿禮,2023-03-20,22.742908,120.743678,6.362156e-10
C0X100,臺南市北區,2023-03-20,23.010394,120.194228,4.6836046e-10
C0S920,金峰嘉蘭,2023-03-20,22.594789,120.960825,2.4402233e-08
C0V490,新興,2023-03-20,22.627422,120.298803,1.8745518e-09
C0F9K0,大安,2023-03-20,24.345061,120.588025,3.160544e-10
72N100,臺南農改,2023-03-20,23.0605,120.342194,5.605131e-06
467290,古坑,2023-03-20,23.633639,120.551889,0.9966762
C0V440,鳳山,2023-03-20,22.646653,120.356122,4.7034003e-09
C1T940,大觀,2023-03-20,23.714206,121.373133,1.3380295e-09
72T250,花蓮農改,2023-03-20,23.975222,121.563889,1.5308723e-09
C0E740,造橋,2023-03-20,24.637056,120.864778,4.1720055e-10
C0R100,尾寮山,2023-03-20,22.833111,120.683889,6.935584e-10
A2K630,臺大雲林校區,2023-03-20,23.730628,120.423903,8.0318564e-08
C0D580,寶山,2023-03-20,24.735006,121.025192,4.096262e-10
E2P990,林試扇平站,2023-03-20,22.9677,120.6857,5.260186e-10
C0AI30,三重,2023-03-20,25.057328,121.500629,8.623821e-10
C0AH00,汐止,2023-03-20,25.066881,121.658778,8.6526875e-10
C1Z040,立山,2023-03-20,23.443356,121.327375,2.9823957e-09
C0R740,獅子,2023-03-20,22.201569,120.70525,0.95708233
C0W130,花嶼,2023-03-20,23.40007,119.32276,0.033625446
C0A950,鼻頭角,2023-03-20,25.129036,121.923372,4.8697904e-05
C0K470,林內,2023-03-20,23.748675,120.609642,0.99594605
82C160,茶改場,2023-03-20,24.908472,121.185333,7.35645e-10
C0Z320,清水林道,2023-03-20,23.27125,121.188272,4.5988826e-09
C0R760,南仁湖,2023-03-20,22.084681,120.863353,0.051906243
C0M670,大林,2023-03-20,23.600616,120.45841,0.015011441
C0M800,茶山,2023-03-20,23.299075,120.664767,8.857407e-10
C0A9C0,天母,2023-03-20,25.117494,121.537169,1.5755078e-09
72K220,南改斗南分場,2023-03-20,23.634556,120.477333,0.14717436
72AI40,桃改樹林分場,2023-03-20,24.944503,121.386972,5.666665e-10
C0S910,蘭嶼燈塔,2023-03-20,22.081197,121.503117,0.97093004
C0B050,八斗子,2023-03-20,25.144754,121.79167,4.6805084e-09
C0U900,內城,2023-03-20,24.71813,121.68766,1.0082423e-09
C0X320,柳營,2023-03-20,23.253328,120.375253,6.141244e-05
C0M790,新港,2023-03-20,23.553269,120.345728,1.9448946e-06
C0F9T0,西屯,2023-03-20,24.179494,120.641275,5.4417313e-08
C0SA30,都歷,2023-03-20,23.020333,121.323642,7.672278e-10
C0C620,蘆竹,2023-03-20,25.084275,121.265767,3.4382468e-09
C0R730,大坪頂,2023-03-20,22.024633,120.69355,0.91836387
C0AJ40,石門,2023-03-20,25.273672,121.601198,6.4773566e-08
C0E750,苗栗,2023-03-20,24.564569,120.824575,4.83903e-10
C0T870,鯉魚潭,2023-03-20,23.935639,121.508944,1.9040245e-09
C1V170,排雲,2023-03-20,23.463619,120.954147,1.647118e-08
C2H950,中寮,2023-03-20,23.884447,120.766406,0.06712202
C0R350,貓鼻頭,2023-03-20,21.921774,120.7358,0.034542806
C0V660,岡山,2023-03-20,22.797078,120.294958,2.2531222e-07
C1H941,雙冬,2023-03-20,23.967378,120.802189,6.950296e-10
C0AJ70,田寮,2023-03-20,25.2698,121.4886,1.469549e-07
C0AI00,五股,2023-03-20,25.07445,121.42728,2.824365e-09
C0Z280,德武,2023-03-20,23.47426,121.41071,6.788749e-10
C0R700,枋山,2023-03-20,22.246844,120.661086,0.96876645
C0C460,復興,2023-03-20,24.820208,121.352281,1.1910672e-09
E2H360,蓮華池,2023-03-20,23.918333,120.885278,6.7335804e-10
C0M640,中埔,2023-03-20,23.42538,120.5229,0.827619
C0W140,金沙,2023-03-20,24.488292,118.408778,3.930792e-08
C2A540,四堵,2023-03-20,24.8926,121.745736,3.1835057e-09
C0ACA0,新莊,2023-03-20,25.051478,121.446756,1.8099015e-09
C0R220,潮州,2023-03-20,22.534361,120.54,8.551886e-07
U2HA40,臺大內茅埔,2023-03-20,23.689722,120.851117,4.2373655e-10
467490,臺中,2023-03-20,24.145736,120.684075,0.00054083474
C0U960,翠峰湖,2023-03-20,24.510856,121.608044,1.30079725e-08
E2HA20,林試畢祿溪站,2023-03-20,24.226944,121.308522,7.950644e-09
C0V890,前鎮,2023-03-20,22.5718,120.3117,1.916635e-09
467620,蘭嶼,2023-03-20,22.036969,121.558339,0.9931913
C1F941,雪嶺,2023-03-20,24.280586,121.026642,1.4484563e-08
C0AC80,文山,2023-03-20,25.00235,121.575728,1.3009877e-09
C0F9R0,龍井,2023-03-20,24.184536,120.528972,1.6049128e-09
C0M760,民雄,2023-03-20,23.551754,120.428457,0.019299127
C0UA40,西德山,2023-03-20,24.560647,121.752608,6.4182e-09
C1T920,中興,2023-03-20,23.769503,121.498653,1.6538412e-09
C0D550,雪霸,2023-03-20,24.526972,121.11605,7.590465e-09
C2F860,梨山,2023-03-20,24.247522,121.243669,8.212151e-09
C0R320,車城,2023-03-20,22.0744,120.716247,0.57896763
C1S870,南美山,2023-03-20,23.15025,121.382333,5.845752e-10
C0B020,基隆嶼,2023-03-20,25.19141,121.78391,5.4751087e-07
C1U501,牛鬥,2023-03-20,24.637836,121.573656,2.3183813e-09
C0M730,嘉義市東區,2023-03-20,23.457673,120.460531,0.9892118
C0S700,知本,2023-03-20,22.684866,121.005642,6.6431634e-09
C1N001,沙崙,2023-03-20,22.935472,120.309406,1.8690047e-05
C0V760,橋頭,2023-03-20,22.757806,120.30575,1.2422863e-07
C0G960,福寶,2023-03-20,24.0443,120.3814,3.8533137e-09
C0X210,白河,2023-03-20,23.347466,120.414427,0.64090925
C0S810,東河,2023-03-20,22.972672,121.303986,0.0014068767
C0R670,楓港,2023-03-20,22.190131,120.692156,0.3651873
C0FA50,霧峰,2023-03-20,24.0419,120.6995,0.000104739454
C0UB10,蘇澳,2023-03-20,24.5969,121.8571,1.2761188e-09
C0G950,防潮門,2023-03-20,24.1835,120.4871,1.6027745e-09
C0M740,六腳,2023-03-20,23.492871,120.290625,1.8416335e-07
C1R250,力里,2023-03-20,22.428117,120.629228,3.1446695e-10
C0K330,虎尾,2023-03-20,23.719183,120.442036,7.268533e-08
C2FA00,烏石坑,2023-03-20,24.273503,120.947617,1.298838e-09
C0V620,永安,2023-03-20,22.82315,120.236856,2.2531222e-07
C1I330,楓樹林,2023-03-20,23.986803,121.076117,1.3441633e-09
C0W200,湖西,2023-03-20,23.596314,119.67275,0.006311693
72Q010,高雄農改場,2023-03-20,22.709333,120.525889,0.16657652
C0SA40,瑞和,2023-03-20,22.974361,121.156697,2.3934532e-09
C0C680,龜山,2023-03-20,25.02846,121.38656,3.0814367e-09
C2V260,月眉,2023-03-20,22.971003,120.539853,0.106937736
C0V450,鳳森,2023-03-20,22.545064,120.392592,1.09212e-09
C0U720,南山,2023-03-20,24.43742,121.38167,6.863197e-09
A2N290,臺南蘭花園區,2023-03-20,23.340258,120.379661,5.0813574e-06
C0R560,新園,2023-03-20,22.5434,120.461558,1.5144229e-09
C0U890,三星,2023-03-20,24.66812,121.65302,1.8803996e-09
C1V300,御油山,2023-03-20,23.001983,120.715364,2.4508666e-09
C0U600,礁溪,2023-03-20,24.817539,121.765608,2.019226e-09
C1T980,龍澗,2023-03-20,24.023289,121.411328,1.3182259e-08
C0D670,海天一線,2023-03-20,24.831986,120.914438,9.785056e-09
C0SA00,歷坵,2023-03-20,22.520969,120.89185,1.5711963e-08
C0M710,東石,2023-03-20,23.458927,120.15385,3.028118e-10
C0M780,鹿草,2023-03-20,23.41134,120.30835,9.2794075e-09
C0U520,雙連埤,2023-03-20,24.753033,121.641303,3.1270384e-09
C0B010,七堵,2023-03-20,25.094819,121.71713,1.0567417e-09
C0R480,長治,2023-03-20,22.693128,120.542622,1.1551053e-08
C1V830,國三S383K,2023-03-20,22.781967,120.426475,4.3256787e-05
12Q980,恆春工作站,2023-03-20,22.079678,120.714425,0.57896763
C1O940,東山服務區,2023-03-20,23.286016,120.398472,0.03742013
C1U840,東澳嶺,2023-03-20,24.5378,121.8485,3.8651424e-09
C1D630,飛鳳山,2023-03-20,24.766464,121.119178,4.5034826e-10
C0S940,石寧山,2023-03-20,23.223772,121.406639,6.834051e-10
C0K410,北港,2023-03-20,23.573957,120.292802,5.322154e-09
C2M620,瑞里,2023-03-20,23.545133,120.675197,1.3445428e-09
C2O950,安南,2023-03-20,23.076694,120.144861,2.1670393e-10
C0F0E0,南湖圈谷,2023-03-20,24.363714,121.444667,3.034481e-08
467610,成功,2023-03-20,23.097486,121.373428,7.062158e-10
C0G890,伸港,2023-03-20,24.148933,120.484403,1.3532698e-09
C2E540,龍溪,2023-03-20,24.606489,120.783933,4.264259e-10
C1V200,梅山,2023-03-20,23.268447,120.823556,8.504108e-10
C0T9H0,加路蘭山,2023-03-20,23.682947,121.5274,2.586943e-09
C2O930,玉井,2023-03-20,23.126042,120.46055,0.06344816
C1F911,新伯公,2023-03-20,24.221361,120.841069,1.0404899e-08
C0R490,九如,2023-03-20,22.7405,120.490503,0.20492142
C0X200,左鎮,2023-03-20,23.056758,120.408522,0.0008192847
C1F891,稍來,2023-03-20,24.265689,121.001142,9.611385e-09
72N240,七股研究中心,2023-03-20,23.081672,120.062894,2.1814377e-10
C0C700,中壢,2023-03-20,24.977661,121.256375,9.986746e-10
C0M690,水上,2023-03-20,23.419734,120.388909,8.3942155e-05
C0V690,鼓山,2023-03-20,22.623325,120.275575,1.8745518e-09
C0O860,大內,2023-03-20,23.11885,120.36083,6.6829903e-06
C0Z200,萬榮,2023-03-20,23.709219,121.420106,7.093004e-10
C0T9D0,和中,2023-03-20,24.26676,121.74103,1.4773168e-09
C1O921,楠西,2023-03-20,23.183511,120.484083,0.23136887
C0AJ30,淡水觀海,2023-03-20,25.184591,121.408616,6.8732713e-09
C0V810,左營,2023-03-20,22.67491,120.28491,5.2574105e-09
C0UA70,桃源谷,2023-03-20,24.962606,121.888875,5.245131e-09
C0X130,官田,2023-03-20,23.193217,120.315422,0.001877328
C1H000,翠峰,2023-03-20,24.109397,121.205211,7.2306015e-09
C0UA90,石城,2023-03-20,24.980444,121.951214,2.3317563e-09
C1E681,南勢山,2023-03-20,24.421669,120.923831,1.1150586e-09
C0A9F0,內湖,2023-03-20,25.079422,121.57545,8.6526875e-10
C0K291,宜梧,2023-03-20,23.536281,120.169329,1.1292877e-09
C1K540,口湖,2023-03-20,23.585344,120.180517,4.991066e-10
C0R780,滿州,2023-03-20,22.024403,120.839892,0.83757997
C0V870,文安,2023-03-20,22.8025,120.2164,3.3485313e-07
C0U650,玉蘭,2023-03-20,24.675286,121.587061,3.320269e-09
C0R640,東港,2023-03-20,22.46247,120.44074,5.241218e-10
K2E360,苗栗農改,2023-03-20,24.495722,120.829111,2.8580108e-10
C0AJ80,板橋,2023-03-20,25.0107,121.4489,1.3687153e-09
C0S660,下馬,2023-03-20,23.150427,121.070312,3.947191e-09
C1H9B1,阿眉,2023-03-20,24.1263,120.994672,5.1656746e-09
C0UA20,多加屯,2023-03-20,24.368614,121.373189,8.035163e-09
C0E730,頭份,2023-03-20,24.688247,120.912206,3.510642e-10
72V140,高改旗南分場,2023-03-20,22.857861,120.516667,0.03349794
C0K480,莿桐,2023-03-20,23.761192,120.502372,0.032724805
C0U980,坪林石牌,2023-03-20,24.86478,121.77396,3.859021e-09
C0T900,西林,2023-03-20,23.8119,121.441458,1.5760098e-09
C1I150,青雲,2023-03-20,23.793361,120.949378,1.7486645e-09
467350,澎湖,2023-03-20,23.565503,119.563094,0.10961189
C0G800,埔鹽,2023-03-20,24.000394,120.431683,1.6027011e-09
C0H960,草屯,2023-03-20,23.973672,120.68085,5.5479566e-05
C1V780,多納林道,2023-03-20,22.888028,120.737917,7.7957896e-10
C0E920,通霄漁港,2023-03-20,24.498589,120.673876,7.165071e-10
C0Z330,安通山,2023-03-20,23.290728,121.348528,9.699797e-10
C0AH10,永和,2023-03-20,25.01125,121.508111,1.3687153e-09
C2G640,鹿港,2023-03-20,24.0753,120.430481,3.866138e-09
C1E890,國三N149K,2023-03-20,24.463414,120.680019,4.0732162e-10
C1R110,口社,2023-03-20,22.770111,120.645222,1.813569e-06
C1M870,國三N285K,2023-03-20,23.550319,120.505833,0.9950221
467050,新屋,2023-03-20,25.006744,121.047486,3.5051173e-09
C1E480,鳳美,2023-03-20,24.554803,121.034747,8.583616e-10
C0M530,奮起湖,2023-03-20,23.493903,120.699253,1.6378315e-09
C0C590,觀音,2023-03-20,25.027072,121.153317,1.0060145e-08
C0T9M0,靜浦,2023-03-20,23.455167,121.495028,6.238089e-10
C0AI40,石牌,2023-03-20,25.115597,121.513139,1.5772457e-09
C1F871,上谷關,2023-03-20,24.203483,121.018644,7.379469e-10
C0G880,二水,2023-03-20,23.810742,120.6173,0.99526405
C0R940,加祿堂,2023-03-20,22.3363,120.6217,0.98390967
C0W220,北竿,2023-03-20,26.220358,119.974881,6.6373275e-08
C0O960,崎頂,2023-03-20,22.959547,120.369317,4.8228776e-06
C0S750,向陽,2023-03-20,23.248397,120.986133,4.207088e-09
C0T9F0,水璉,2023-03-20,23.797131,121.542514,1.6671813e-09
C1M600,頭凍,2023-03-20,23.406364,120.603339,1.4105128e-09
467660,臺東,2023-03-20,22.752211,121.154586,0.97101617
C1D380,新埔,2023-03-20,24.84745,121.03834,4.602741e-10
C0V750,路竹,2023-03-20,22.854997,120.259439,2.5106997e-10
C0N050,蚵寮,2023-03-20,23.301,120.1104,7.619036e-10
72M700,南改鹿草分場,2023-03-20,23.416869,120.283061,9.562835e-09
C1SA50,利嘉林道,2023-03-20,22.82325,121.009389,1.16677015e-08
467550,玉山,2023-03-20,23.487614,120.959522,2.0886516e-08
C0A940,金山,2023-03-20,25.223628,121.643967,3.5575725e-09
C1V340,大津,2023-03-20,22.888322,120.645986,0.09749231
C0W180,七美,2023-03-20,23.219333,119.444892,0.18458067
C1F9C1,白冷,2023-03-20,24.182844,120.929889,5.219642e-09
K2E710,苗改生物防治研究中心,2023-03-20,24.422861,120.871833,4.696352e-10
C0N040,蘆竹溝,2023-03-20,23.2344,120.0961,4.9078985e-10
C2W230,畜試所澎湖,2023-03-20,23.628342,119.513206,0.099754974
C0R880,後壁湖,2023-03-20,21.9457,120.7457,0.28248888
C1I280,埔中,2023-03-20,23.820778,120.642594,7.042485e-07
467790,墾丁雷達站,2023-03-20,21.948235,120.808028,0.24115579
C0W190,望安,2023-03-20,23.380564,119.494075,0.02479865
466881,新北,2023-03-20,24.9593,121.52,1.3431741e-09
C0Z170,卓溪,2023-03-20,23.3443,121.3029,5.5688926e-10
C0F850,東勢,2023-03-20,24.246428,120.833047,1.7443458e-07
466900,淡水,2023-03-20,25.164889,121.448906,9.482465e-09
C0I370,魚池,2023-03-20,23.895703,120.94135,6.197601e-10
C0C630,大溪,2023-03-20,24.882853,121.265547,4.0856735e-10
C0A520,山佳,2023-03-20,24.974944,121.402008,1.1760127e-09
C0I110,竹山,2023-03-20,23.761225,120.688156,0.97290945
82H840,茶改南部分場,2023-03-20,23.762528,120.7405,1.5462022e-06
C0G660,溪湖,2023-03-20,23.94835,120.479122,2.7276505e-08
C1T800,洛韶,2023-03-20,24.204558,121.453956,1.07413305e-08
C1T810,慈恩,2023-03-20,24.192044,121.388386,4.8634416e-09
C1E451,象鼻,2023-03-20,24.368617,120.940228,9.49848e-10
C0AC60,三峽,2023-03-20,24.939025,121.369728,5.654238e-10
C0I490,萬大林道,2023-03-20,23.928228,121.091411,2.4136244e-09
C1I290,豐丘,2023-03-20,23.668178,120.887417,1.3350264e-09
C1I320,奧萬大,2023-03-20,23.952956,121.178556,1.2608523e-09
C0U770,南澳,2023-03-20,24.44935,121.81022,3.4299152e-09
C0A980,社子,2023-03-20,25.109508,121.469681,9.76317e-09
C0V800,六龜,2023-03-20,22.997889,120.633583,0.00019472548
C1G9D0,國一S218K,2023-03-20,23.890641,120.493253,3.4326725e-08
C2F9A0,中竹林,2023-03-20,24.103556,120.751061,7.023665e-08
C0FA40,臺中電廠,2023-03-20,24.2146,120.4907,1.6092194e-09
C0H9C0,合歡山,2023-03-20,24.143442,121.272547,1.681874e-08
C0X060,下營,2023-03-20,23.22695,120.256261,1.571323e-06
G2M350,農試溪口農場,2023-03-20,23.58565,120.408111,0.02445651
C0U860,頭城,2023-03-20,24.85323,121.8308,2.0059057e-09
C0R580,南州,2023-03-20,22.48591,120.50274,5.241218e-10
C0D430,峨眉,2023-03-20,24.6905,121.017189,4.6103235e-10
C0G780,秀水,2023-03-20,24.03405,120.503869,2.6397085e-08
72N100,臺南農改場,2023-03-20,23.0605,120.342194,5.605131e-06
C0S900,蘭嶼高中,2023-03-20,22.04909,121.51214,0.9707538
467540,大武,2023-03-20,22.355675,120.903789,0.9317236
C1F9W0,德基,2023-03-20,24.254783,121.190261,7.497613e-09
C1Z120,壽豐,2023-03-20,23.870853,121.508081,1.4022428e-09
C0W160,烏坵,2023-03-20,24.9944,119.44956,2.6979612e-06
C1I240,外大坪,2023-03-20,23.958697,120.917931,1.3158288e-09
C1I550,國六W023K,2023-03-20,23.979067,120.867742,1.2945945e-08
C0R870,興海,2023-03-20,21.9752,120.8439,0.29106665
C0R140,瑪家,2023-03-20,22.682903,120.686639,3.5685735e-10
C0A530,坪林,2023-03-20,24.938183,121.70975,2.975952e-09
C0X260,後壁,2023-03-20,23.366358,120.362326,5.0813574e-06
C0Z230,和平,2023-03-20,24.30717,121.77007,1.4939614e-09
C0G770,福興,2023-03-20,24.041289,120.437669,1.6004222e-09
C0H9A0,神木村,2023-03-20,23.532742,120.843667,3.41919e-09
C0I460,南投,2023-03-20,23.911469,120.687331,0.01037595
C0I480,梅峰,2023-03-20,24.085272,121.173572,4.6513002e-09
C1V570,吉東,2023-03-20,22.85422,120.5454,0.01927217
C2A560,福山,2023-03-20,24.776203,121.502811,4.578193e-09
C0AH30,五分山,2023-03-20,25.07125,121.780794,5.093296e-09
C0FA10,松柏,2023-03-20,24.429115,120.617482,5.018654e-10
72S200,東改班鳩分場,2023-03-20,22.829528,121.077694,1.5350402e-05
72HA00,中改埔里分場,2023-03-20,23.903208,120.963364,6.8562067e-10
C0C650,平鎮,2023-03-20,24.897503,121.214636,5.87329e-10
C0S930,延平,2023-03-20,22.902581,121.084058,1.4911155e-08
C0UA60,樟樹山,2023-03-20,24.41393,121.78325,5.522207e-09
C1S670,摩天,2023-03-20,23.199503,121.027,1.5673441e-08
C0V630,茄萣,2023-03-20,22.906642,120.182608,2.600601e-10
466940,基隆,2023-03-20,25.133314,121.740475,4.541387e-09
C0X050,東河,2023-03-20,23.296598,120.385608,0.055661995
C0R770,保力,2023-03-20,22.071122,120.764111,0.7264403
G2L020,農試嘉義分所,2023-03-20,23.485028,120.473806,0.9971856
C0X240,關子嶺,2023-03-20,23.331169,120.508025,1.606346e-07
C0I380,集集,2023-03-20,23.828206,120.801467,1.9432891e-05
466990,花蓮,2023-03-20,23.975128,121.613275,1.4463272e-09
C1V220,小關山,2023-03-20,23.154217,120.813603,2.5330873e-09
C1F9G1,慶福山,2023-03-20,24.180853,120.848378,4.430484e-10
C0Z250,瑞穗林道,2023-03-20,23.49284,121.30688,1.3772977e-08
C0D590,新豐,2023-03-20,24.87068,120.97721,1.8706943e-09
C0A870,五指山,2023-03-20,25.132153,121.608692,2.407569e-09
C0UA50,西帽山,2023-03-20,24.555361,121.802628,4.151528e-09
C0X160,仁德,2023-03-20,22.968258,120.257689,1.9719286e-08
C1H971,六分寮,2023-03-20,23.92507,120.6378,9.618816e-06
C0W120,西嶼,2023-03-20,23.5626,119.468436,0.30627683
C0G650,員林,2023-03-20,23.946503,120.585597,0.0046765907
C0AD50,鶯歌,2023-03-20,24.951533,121.346294,5.634161e-10
C0S990,山豬窟,2023-03-20,22.318619,120.857372,1.6054439e-06
72Q010,高雄農改,2023-03-20,22.709333,120.525889,0.16657652
C0X190,安平,2023-03-20,22.993161,120.152181,4.6836135e-10
C0K400,斗六,2023-03-20,23.720583,120.541127,0.18710177
12J990,口湖工作站,2023-03-20,23.589978,120.180394,4.991066e-10
C0O830,北寮,2023-03-20,23.079561,120.495008,0.0005666286
C1D410,白蘭,2023-03-20,24.579364,121.079947,4.6631143e-09
C0S970,加津林,2023-03-20,22.416211,120.926942,0.89136285
C0D700,關西,2023-03-20,24.7977,121.1732,4.094075e-10
C0M810,里佳,2023-03-20,23.389125,120.716647,2.8604714e-09
C0U750,龜山島,2023-03-20,24.841667,121.953133,2.2636405e-08
C0R810,內獅,2023-03-20,22.305064,120.642986,0.9868365
C1M390,龍美,2023-03-20,23.406728,120.654417,1.945986e-09
C1H840,國三N238K,2023-03-20,23.841008,120.707711,2.0045667e-07
CAQ030,崎峰國小,2023-03-20,22.42565,120.49521,5.241218e-10
C2E520,大湖,2023-03-20,24.414939,120.870872,4.7248694e-10
467530,阿里山,2023-03-20,23.508208,120.813242,8.750564e-09
C1E691,南湖,2023-03-20,24.40135,120.837533,7.847856e-10
C0FA30,梧棲,2023-03-20,24.256003,120.523381,5.6692273e-10
C1V231,高中,2023-03-20,23.134911,120.716711,1.4228125e-09
C0F9V0,新社,2023-03-20,24.200172,120.815806,6.3349743e-09
C0H890,埔里,2023-03-20,23.972169,120.952425,7.92069e-09
C0R690,墾丁,2023-03-20,21.966756,120.810269,0.9432839
C0F0D0,審馬陣,2023-03-20,24.381675,121.4203,1.2813534e-08
C0R820,白鷺,2023-03-20,22.454275,120.666219,3.5676886e-10
U2H480,臺大溪頭,2023-03-20,23.670306,120.798194,1.2120527e-09
C1V190,南天池,2023-03-20,23.27403,120.91176,4.6288298e-09
K2E360,苗栗農改場,2023-03-20,24.495722,120.829111,2.8580108e-10
CAJ050,海口故事園區,2023-03-20,23.57543,120.14121,4.991066e-10
C0O990,媽廟,2023-03-20,22.99175,120.293525,2.714756e-07
C0D480,打鐵坑,2023-03-20,24.849664,121.150789,4.234651e-10
C0Z220,和平林道,2023-03-20,24.343922,121.656317,2.3285696e-09
72C440,桃園農改場,2023-03-20,24.950944,121.030583,1.7034132e-09
C1E711,馬拉邦山,2023-03-20,24.367306,120.901656,9.875161e-10
C0D560,竹東,2023-03-20,24.767147,121.057881,4.097184e-10
C0F9U0,南屯,2023-03-20,24.137006,120.637969,1.1902132e-07
C0M720,番路,2023-03-20,23.464657,120.554156,0.35357207
C0F0A0,雪山圈谷,2023-03-20,24.388594,121.236339,2.0399566e-08
C1A9N0,四十份,2023-03-20,24.934158,121.593283,4.185398e-09
C0U760,東澳,2023-03-20,24.52196,121.83318,1.7499291e-09
C0X230,鹽水,2023-03-20,23.272621,120.247641,7.537542e-10
C0V370,古亭坑,2023-03-20,22.893178,120.401947,1.3169981e-05
C1I340,新興橋,2023-03-20,23.563333,120.868728,6.50666e-10
C0SA80,土坂,2023-03-20,22.453108,120.887572,9.6044976e-05
C0R160,鹽埔,2023-03-20,22.739558,120.530778,0.16714093
C0AC40,大屯山,2023-03-20,25.175675,121.522408,8.756124e-09
466850,五分山雷達站,2023-03-20,25.071182,121.781205,5.1452314e-09
C1AI50,國三N016K,2023-03-20,25.034164,121.619664,8.80828e-10
C1V600,藤枝,2023-03-20,23.071961,120.757042,1.8626051e-09
C1E601,南勢,2023-03-20,24.572486,120.734842,7.6042417e-10
C0Z180,新城,2023-03-20,24.03946,121.60454,1.4671433e-09
C0O980,新市,2023-03-20,23.061614,120.298197,9.223128e-06
C0K420,西螺,2023-03-20,23.800407,120.467394,1.6018706e-08
C0Z050,佳心,2023-03-20,23.34567,121.21316,4.880298e-09
C0AD30,蘆洲,2023-03-20,25.086594,121.472331,8.623821e-10
C0V610,梓官,2023-03-20,22.760558,120.267211,1.237966e-07
K2F750,種苗改良場,2023-03-20,24.225972,120.800917,7.554257e-09
C0UA80,大溪漁港,2023-03-20,24.941801,121.902955,2.4806697e-09
C1AI60,國一39K邊坡,2023-03-20,25.064361,121.383836,3.072891e-09
C0W150,金寧,2023-03-20,24.457703,118.328989,9.586046e-09
V2C250,八德合作社,2023-03-20,24.93775,121.266389,5.741987e-10
C0AH40,平等,2023-03-20,25.129142,121.577086,1.6012466e-09
C0R540,佳冬,2023-03-20,22.419456,120.552375,8.028295e-10
466950,彭佳嶼,2023-03-20,25.627975,122.079744,0.021622147
C0A890,雙溪,2023-03-20,25.036003,121.864242,6.180015e-09
C0C480,桃園,2023-03-20,24.992425,121.323172,9.909009e-10
C0AH50,林口,2023-03-20,25.072181,121.38084,3.0745326e-09
A2K360,水試臺西試驗場,2023-03-20,23.717231,120.190522,1.0949628e-09
B2N890,畜試所,2023-03-20,23.058972,120.336406,5.605131e-06
C0F9S0,烏日,2023-03-20,24.107058,120.624103,0.002259699
C0C490,八德,2023-03-20,24.928708,121.283289,5.740969e-10
C0R190,赤山,2023-03-20,22.592333,120.614306,0.00024325769
C0T820,天祥,2023-03-20,24.179597,121.495639,7.1247768e-09
C1F9E1,龍安,2023-03-20,24.1605,120.831961,6.3653145e-09
C0V820,小林,2023-03-20,23.148408,120.63325,9.807668e-08
C2G870,芳苑,2023-03-20,23.922303,120.320025,8.071455e-10
C0E850,大河,2023-03-20,24.618069,120.948578,7.695595e-10
C1U670,寒溪,2023-03-20,24.634,121.71691,1.150314e-09
C0N020,城西,2023-03-20,23.0568,120.0956,4.6836046e-10
C1Z110,三棧,2023-03-20,24.11557,121.60501,7.768601e-09
C0R280,檳榔,2023-03-20,22.076078,120.836777,0.8228968
C0F9L0,后里,2023-03-20,24.310436,120.729725,2.7090577e-08
C0D540,橫山,2023-03-20,24.71116,121.11693,4.0563458e-10
C1D420,太閣南,2023-03-20,24.632808,121.160575,5.2535616e-09
C1E770,公館,2023-03-20,24.526914,120.830806,2.9080277e-10
CAN130,水試所海水繁養殖中心,2023-03-20,23.120802,120.07968,2.1814377e-10
C1I430,翠華,2023-03-20,24.191961,121.224339,5.3702016e-09
C1M400,菜瓜坪,2023-03-20,23.251928,120.576103,2.468949e-09
C0G730,二林,2023-03-20,23.903325,120.376081,7.7445406e-10
72M360,南改義竹分場,2023-03-20,23.360694,120.279361,1.9094177e-09
V2K620,麥寮合作社,2023-03-20,23.753836,120.294783,5.1287317e-09
C0Z070,舞鶴,2023-03-20,23.46811,121.37407,7.190892e-10
C0B040,大武崙,2023-03-20,25.166676,121.706993,4.3423243e-09
C1Z030,紅葉,2023-03-20,23.493119,121.338806,5.71935e-10
C1I050,丹大,2023-03-20,23.753747,121.141147,5.6912883e-09
C0I080,信義,2023-03-20,23.689694,120.851036,4.2373655e-10
C2A880,福隆,2023-03-20,25.017842,121.942083,2.3003832e-09
C0Z160,鳳林,2023-03-20,23.746114,121.453411,6.7103745e-10
C0V210,復興,2023-03-20,23.222403,120.806089,7.126051e-10
C0H990,昆陽,2023-03-20,24.121322,121.273642,1.3754154e-08
C0S710,鹿野,2023-03-20,22.917711,121.122994,1.1810884e-09
C0I530,小奇萊,2023-03-20,24.131764,121.295717,1.4537316e-08
C0Z080,富源,2023-03-20,23.587642,121.378225,1.9210966e-09
467441,高雄,2023-03-20,22.7304,120.3125,1.0580434e-07
C1I140,卡奈托灣,2023-03-20,23.754364,121.087872,2.1184041e-09
C0I520,玉山風口,2023-03-20,23.470489,120.955994,2.1025532e-08
C1G691,下水埔,2023-03-20,23.816114,120.5676,0.019328892
C0X110,臺南市南區,2023-03-20,22.961189,120.188378,1.9719286e-08
C0V680,仁武,2023-03-20,22.701083,120.347722,5.2574105e-09
C2G840,北斗,2023-03-20,23.877586,120.514222,2.9803957e-08
C0R900,竹坑,2023-03-20,22.1385,120.7022,0.6136113
C0K250,崙背,2023-03-20,23.75555,120.318925,5.145987e-09
C0G860,社頭,2023-03-20,23.897647,120.5862,0.49314713
C0X150,安定,2023-03-20,23.102614,120.227839,6.8742283e-09
C0R590,里港,2023-03-20,22.77919,120.49459,0.00028504196
C0E610,馬都安,2023-03-20,24.451272,120.930192,8.6415053e-10
C0E550,明德,2023-03-20,24.583486,120.885411,4.6326956e-10
C0R150,三地門,2023-03-20,22.709889,120.639944,2.0358013e-06
C0G910,花壇,2023-03-20,24.032076,120.549461,2.0981384e-08
C1D400,鳥嘴山,2023-03-20,24.71909,121.28387,2.7157923e-09
C0K500,元長,2023-03-20,23.64981,120.315024,1.0711644e-08
C0F0B0,石岡,2023-03-20,24.276061,120.777644,1.5752413e-08
C2V250,甲仙,2023-03-20,23.080106,120.591758,1.3774149e-05
C0SA20,金崙山,2023-03-20,22.567419,120.959667,8.72608e-09
C0V350,溪埔,2023-03-20,22.738578,120.446797,5.8263257e-05
C0M660,溪口,2023-03-20,23.604131,120.403569,0.02445651
C1S880,壽卡,2023-03-20,22.238911,120.858903,1.7708446e-05
72D680,桃改新埔分場,2023-03-20,24.834444,121.066111,4.7341975e-10
