站號,站名,日期,lat,lon,BlastGRU-TW
466881,新北,2023-09-19,24.9593,121.52,0.013703333
466900,淡水,2023-09-19,25.164889,121.448906,0.016967317
466920,臺北,2023-09-19,25.037658,121.514853,0.015463437
467350,澎湖,2023-09-19,23.565503,119.563094,0.3935248
467410,臺南,2023-09-19,22.993239,120.204772,0.023206057
467420,永康,2023-09-19,23.038386,120.2367,0.020699622
467790,墾丁雷達站,2023-09-19,21.948235,120.808028,0.92442954
C0A520,山佳,2023-09-19,24.974944,121.402008,0.016091427
C0A530,坪林,2023-09-19,24.938183,121.70975,0.7575082
C0A880,福隆,2023-09-19,25.017842,121.942083,0.26964647
C0A890,雙溪,2023-09-19,25.036003,121.864242,0.010446028
C0A920,富貴角,2023-09-19,25.263783,121.565258,0.013683342
C0AC80,文山,2023-09-19,25.00235,121.575728,0.013944002
C0ACA0,新莊,2023-09-19,25.051478,121.446756,0.017068757
C0AD00,三芝,2023-09-19,25.258131,121.501917,0.014792418
C0AH70,松山,2023-09-19,25.04871,121.55042,0.013804359
C0AH80,深坑,2023-09-19,25.002703,121.628328,0.012154405
C0AI00,五股,2023-09-19,25.07445,121.42728,0.034677733
C0AJ70,田寮,2023-09-19,25.2698,121.4886,0.014518533
