站號,站名,日期,lat,lon,BlastGRU-TW
466881,新北,2023-08-24,24.9593,121.52,0.99669147
466900,淡水,2023-08-24,25.164889,121.448906,0.9960979
466920,臺北,2023-08-24,25.037658,121.514853,0.99405426
466940,基隆,2023-08-24,25.133314,121.740475,0.98297065
466990,花蓮,2023-08-24,23.975128,121.613275,0.014617202
467050,新屋,2023-08-24,25.006744,121.047486,0.9168209
467080,宜蘭,2023-08-24,24.763975,121.756528,0.24583752
467270,田中,2023-08-24,23.873803,120.581286,0.9944125
467300,東吉島,2023-08-24,23.25695,119.667467,0.10739061
467350,澎湖,2023-08-24,23.565503,119.563094,0.50424325
467410,臺南,2023-08-24,22.993239,120.204772,0.07731945
467420,永康,2023-08-24,23.038386,120.2367,0.119812645
467441,高雄,2023-08-24,22.7304,120.3125,0.036127288
467480,嘉義,2023-08-24,23.495925,120.432906,0.55844545
467490,臺中,2023-08-24,24.145736,120.684075,0.9959783
467540,大武,2023-08-24,22.355675,120.903789,0.83613557
467571,新竹,2023-08-24,24.827853,121.014219,0.94047505
467590,恆春,2023-08-24,22.003897,120.746339,0.92115957
467610,成功,2023-08-24,23.097486,121.373428,0.33631888
467620,蘭嶼,2023-08-24,22.036969,121.558339,0.9991397
467660,臺東,2023-08-24,22.752211,121.154586,0.89027274
467790,墾丁雷達站,2023-08-24,21.948235,120.808028,0.9400184
C0A520,山佳,2023-08-24,24.974944,121.402008,0.9969508
C0A530,坪林,2023-08-24,24.938183,121.70975,0.7837159
C0A540,四堵,2023-08-24,24.8926,121.745736,0.9459882
C0A550,泰平,2023-08-24,24.971197,121.823711,0.2046808
C0A560,福山,2023-08-24,24.776203,121.502811,0.056856167
C0A570,桶後,2023-08-24,24.848222,121.597992,0.96417314
C0A640,石碇,2023-08-24,24.993969,121.662917,0.8052119
C0A650,火燒寮,2023-08-24,25.002719,121.742892,0.46560895
C0A660,瑞芳,2023-08-24,25.113169,121.801147,0.3066312
C0A770,科教館,2023-08-24,25.096356,121.516507,0.995681
C0A860,大坪,2023-08-24,25.165914,121.632969,0.84135234
C0A880,福隆,2023-08-24,25.017842,121.942083,0.2021749
C0A890,雙溪,2023-08-24,25.036003,121.864242,0.9858038
C0A920,富貴角,2023-08-24,25.263783,121.565258,0.9915596
C0A931,三和,2023-08-24,25.233153,121.595236,0.38602594
C0A940,金山,2023-08-24,25.223628,121.643967,0.99269783
C0A950,鼻頭角,2023-08-24,25.129036,121.923372,0.290419
C0A970,三貂角,2023-08-24,25.007606,122.002058,0.26897177
C0A980,社子,2023-08-24,25.109508,121.469681,0.9955316
C0A9C0,天母,2023-08-24,25.117494,121.537169,0.99465644
C0A9F0,內湖,2023-08-24,25.079422,121.57545,0.9919523
C0AC60,三峽,2023-08-24,24.939025,121.369728,0.99583155
C0AC70,信義,2023-08-24,25.037822,121.564597,0.9957412
C0AC80,文山,2023-08-24,25.00235,121.575728,0.9997748
C0ACA0,新莊,2023-08-24,25.051478,121.446756,0.99908006
C0AD00,三芝,2023-08-24,25.258131,121.501917,0.99284977
C0AD10,八里,2023-08-24,25.150211,121.403947,0.9886761
C0AD30,蘆洲,2023-08-24,25.086594,121.472331,0.995681
C0AD40,土城,2023-08-24,24.973208,121.445169,0.99757826
C0AD50,鶯歌,2023-08-24,24.951533,121.346294,0.99769855
C0AG80,中和,2023-08-24,24.991622,121.491792,0.99504495
C0AH00,汐止,2023-08-24,25.066881,121.658778,0.99474376
C0AH10,永和,2023-08-24,25.01125,121.508111,0.9948955
C0AH40,平等,2023-08-24,25.129142,121.577086,0.68802065
C0AH50,林口,2023-08-24,25.072181,121.38084,0.957602
C0AH70,松山,2023-08-24,25.04871,121.55042,0.9957412
C0AH80,深坑,2023-08-24,25.002703,121.628328,0.99974984
C0AI00,五股,2023-08-24,25.07445,121.42728,0.9984433
C0AI10,屈尺,2023-08-24,24.92184,121.54475,0.9998595
C0AI20,白沙灣,2023-08-24,25.283128,121.519058,0.9858703
C0AI30,三重,2023-08-24,25.057328,121.500629,0.99563044
C0AI40,石牌,2023-08-24,25.115597,121.513139,0.99580175
C0AJ20,野柳,2023-08-24,25.20703,121.690021,0.98900807
C0AJ30,淡水觀海,2023-08-24,25.184591,121.408616,0.99143064
C0AJ40,石門,2023-08-24,25.273672,121.601198,0.9944119
C0AJ50,水湳洞,2023-08-24,25.123695,121.862238,0.9871229
C0AJ60,六塊厝,2023-08-24,25.24,121.4481,0.9877563
C0AJ70,田寮,2023-08-24,25.2698,121.4886,0.99104214
C0AJ80,板橋,2023-08-24,25.0107,121.4489,0.9977594
C0AJ90,澳底,2023-08-24,25.0552,121.9253,0.25141123
C0B010,七堵,2023-08-24,25.094819,121.71713,0.98911184
C0B020,基隆嶼,2023-08-24,25.19141,121.78391,0.98741513
C0B040,大武崙,2023-08-24,25.166676,121.706993,0.98799783
C0B050,八斗子,2023-08-24,25.144754,121.79167,0.98673975
C0B060,暖暖,2023-08-24,25.0957,121.7403,0.98497677
C0C460,復興,2023-08-24,24.820208,121.352281,0.9703758
C0C480,桃園,2023-08-24,24.992425,121.323172,0.9844185
C0C490,八德,2023-08-24,24.928708,121.283289,0.98740613
C0C590,觀音,2023-08-24,25.027072,121.153317,0.98872095
C0C620,蘆竹,2023-08-24,25.084275,121.265767,0.98341453
C0C630,大溪,2023-08-24,24.882853,121.265547,0.98321867
C0C650,平鎮,2023-08-24,24.897503,121.214636,0.9869298
C0C660,楊梅,2023-08-24,24.912375,121.143047,0.98246247
C0C670,龍潭,2023-08-24,24.870056,121.221389,0.9822007
C0C680,龜山,2023-08-24,25.02846,121.38656,0.95516795
C0C700,中壢,2023-08-24,24.977661,121.256375,0.96916527
C0C710,大溪永福,2023-08-24,24.892936,121.324975,0.9913951
C0C720,竹圍,2023-08-24,25.112692,121.239824,0.98216975
C0C730,中大臨海站,2023-08-24,24.966126,121.008581,0.9122435
C0C740,觀音工業區,2023-08-24,25.064764,121.114856,0.96357185
C0C750,新興坑尾,2023-08-24,25.0061,121.0971,0.9701963
C0D430,峨眉,2023-08-24,24.6905,121.017189,0.9683903
C0D480,打鐵坑,2023-08-24,24.849664,121.150789,0.96164715
C0D540,橫山,2023-08-24,24.71116,121.11693,0.99528366
C0D560,竹東,2023-08-24,24.767147,121.057881,0.9665442
C0D580,寶山,2023-08-24,24.735006,121.025192,0.91015196
C0D590,新豐,2023-08-24,24.87068,120.97721,0.8424312
C0D650,湖口,2023-08-24,24.904794,121.043628,0.9307089
C0D660,新竹市東區,2023-08-24,24.798681,120.986942,0.9522174
C0D670,海天一線,2023-08-24,24.831986,120.914438,0.9704479
C0D680,香山濕地,2023-08-24,24.783581,120.914988,0.9696383
C0D690,外湖,2023-08-24,24.917735,120.968711,0.9340586
C0D700,關西,2023-08-24,24.7977,121.1732,0.98790616
C0E420,竹南,2023-08-24,24.708978,120.888897,0.9729261
C0E430,南庄,2023-08-24,24.601775,121.000214,0.9966625
C0E520,大湖,2023-08-24,24.41494,120.87087,0.9968651
C0E540,後龍,2023-08-24,24.606489,120.783933,0.9940468
C0E550,明德,2023-08-24,24.583486,120.885411,0.9178029
C0E590,通霄,2023-08-24,24.471892,120.704622,0.98722565
C0E730,頭份,2023-08-24,24.688247,120.912206,0.9722856
C0E740,造橋,2023-08-24,24.637056,120.864778,0.8578928
C0E750,苗栗,2023-08-24,24.564569,120.824575,0.99454576
C0E780,銅鑼,2023-08-24,24.489681,120.790853,0.9052787
C0E791,卓蘭,2023-08-24,24.3126,120.8244,0.9997027
C0E810,西湖,2023-08-24,24.562947,120.7485,0.9933467
C0E820,獅潭,2023-08-24,24.539133,120.920042,0.9958497
C0E830,苑裡,2023-08-24,24.439714,120.653053,0.9872632
C0E850,大河,2023-08-24,24.618069,120.948578,0.9657742
C0E870,高鐵苗栗,2023-08-24,24.60725,120.826094,0.994221
C0E910,海埔,2023-08-24,24.648767,120.772435,0.9099804
C0E920,通霄漁港,2023-08-24,24.498589,120.673876,0.9861074
C0E930,龍鳳,2023-08-24,24.700034,120.859125,0.8340544
C0F0B0,石岡,2023-08-24,24.276061,120.777644,0.99866223
C0F850,東勢,2023-08-24,24.246428,120.833047,0.99969894
C0F930,大甲,2023-08-24,24.347667,120.640403,0.9882717
C0F970,大坑,2023-08-24,24.173142,120.722289,0.9979736
C0F9A0,中竹林,2023-08-24,24.103556,120.751061,0.99929416
C0F9I0,神岡,2023-08-24,24.272481,120.658314,0.91863966
C0F9K0,大安,2023-08-24,24.345061,120.588025,0.9865057
C0F9L0,后里,2023-08-24,24.310436,120.729725,0.97024745
C0F9M0,豐原,2023-08-24,24.254322,120.720692,0.97412384
C0F9N0,大里,2023-08-24,24.092464,120.701378,0.99387074
C0F9O0,潭子,2023-08-24,24.213106,120.703933,0.91382396
C0F9P0,清水,2023-08-24,24.312297,120.562242,0.9848542
C0F9Q0,外埔,2023-08-24,24.347817,120.705686,0.889168
C0F9R0,龍井,2023-08-24,24.184536,120.528972,0.9904292
C0F9S0,烏日,2023-08-24,24.107058,120.624103,0.9862943
C0F9T0,西屯,2023-08-24,24.179494,120.641275,0.9933434
C0F9U0,南屯,2023-08-24,24.137006,120.637969,0.99430776
C0F9X0,大雅(中科園區),2023-08-24,24.21528,120.62445,0.99471253
C0FA10,松柏,2023-08-24,24.429115,120.617482,0.98559266
C0FA20,溫寮,2023-08-24,24.372177,120.583125,0.9855336
C0FA30,梧棲,2023-08-24,24.256003,120.523381,0.9908302
C0FA40,臺中電廠,2023-08-24,24.2146,120.4907,0.9904292
C0FA50,霧峰,2023-08-24,24.0419,120.6995,0.99438566
C0G620,芬園,2023-08-24,24.015678,120.6213,0.9913298
C0G640,鹿港,2023-08-24,24.0753,120.430481,0.9870833
C0G650,員林,2023-08-24,23.946503,120.585597,0.9913874
C0G660,溪湖,2023-08-24,23.94835,120.479122,0.9892799
C0G720,溪州,2023-08-24,23.851589,120.499093,0.99431974
C0G730,二林,2023-08-24,23.903325,120.376081,0.9857864
C0G740,大城,2023-08-24,23.852487,120.320935,0.3299905
C0G770,福興,2023-08-24,24.041289,120.437669,0.9835323
C0G780,秀水,2023-08-24,24.03405,120.503869,0.9827646
C0G800,埔鹽,2023-08-24,24.000394,120.431683,0.9828493
C0G810,埔心,2023-08-24,23.947633,120.525456,0.98965275
C0G820,田尾,2023-08-24,23.901669,120.509389,0.9914506
C0G830,埤頭,2023-08-24,23.866003,120.452806,0.99448276
C0G840,北斗,2023-08-24,23.877586,120.514222,0.9914506
C0G860,社頭,2023-08-24,23.897647,120.5862,0.9928749
C0G870,芳苑,2023-08-24,23.922303,120.320025,0.38603905
C0G880,二水,2023-08-24,23.810742,120.6173,0.99532086
C0G890,伸港,2023-08-24,24.148933,120.484403,0.9889507
C0G900,線西,2023-08-24,24.143358,120.443536,0.9953917
C0G910,花壇,2023-08-24,24.032076,120.549461,0.98566467
C0G920,永靖,2023-08-24,23.924703,120.547533,0.99137735
C0G940,竹塘,2023-08-24,23.848253,120.386764,0.98916346
C0G950,防潮門,2023-08-24,24.1835,120.4871,0.99012643
C0G960,福寶,2023-08-24,24.0443,120.3814,0.9910245
C0G970,三豐,2023-08-24,23.882,120.2895,0.38603905
C0H890,埔里,2023-08-24,23.972169,120.952425,0.9997962
C0H950,中寮,2023-08-24,23.884447,120.766406,0.9984895
C0H960,草屯,2023-08-24,23.973672,120.68085,0.99355066
C0I110,竹山,2023-08-24,23.761225,120.688156,0.9987782
C0I360,水里,2023-08-24,23.812553,120.849792,0.9999277
C0I380,集集,2023-08-24,23.828206,120.801467,0.9999125
C0I410,名間,2023-08-24,23.837053,120.701447,0.9964101
C0I420,國姓,2023-08-24,24.037803,120.855072,0.9995926
C0I460,南投,2023-08-24,23.911469,120.687331,0.99604094
C0K250,崙背,2023-08-24,23.75555,120.318925,0.30696565
C0K280,四湖,2023-08-24,23.630414,120.227125,0.3265272
C0K291,宜梧,2023-08-24,23.536281,120.169329,0.3735254
C0K330,虎尾,2023-08-24,23.719183,120.442036,0.9923562
C0K390,土庫,2023-08-24,23.679029,120.395574,0.99047476
C0K400,斗六,2023-08-24,23.720583,120.541127,0.99592716
C0K410,北港,2023-08-24,23.573957,120.292802,0.3810603
C0K420,西螺,2023-08-24,23.800407,120.467394,0.99600303
C0K430,褒忠,2023-08-24,23.690938,120.303634,0.29371718
C0K440,二崙,2023-08-24,23.772797,120.408944,0.9929836
C0K450,大埤,2023-08-24,23.646074,120.431537,0.9920144
C0K460,斗南,2023-08-24,23.678734,120.478359,0.99473506
C0K470,林內,2023-08-24,23.748675,120.609642,0.99584913
C0K480,莿桐,2023-08-24,23.761192,120.502372,0.9953207
C0K500,元長,2023-08-24,23.64981,120.315024,0.31311443
C0K510,水林,2023-08-24,23.572924,120.24597,0.36064819
C0K530,臺西,2023-08-24,23.701547,120.197559,0.49342945
C0K550,蔦松,2023-08-24,23.514319,120.229736,0.36493558
C0K560,棋山,2023-08-24,23.68645,120.603417,0.9969787
C0K580,高鐵雲林,2023-08-24,23.737456,120.417944,0.99268985
C0K590,雲林東勢,2023-08-24,23.674192,120.255721,0.31623608
C0K600,箔子寮,2023-08-24,23.6197,120.14,0.55267316
C0M410,馬頭山,2023-08-24,23.324361,120.582017,0.99986756
C0M520,東後寮,2023-08-24,23.369908,120.248065,0.63077754
C0M640,中埔,2023-08-24,23.42538,120.5229,0.99842197
C0M650,朴子,2023-08-24,23.43463,120.23902,0.38969594
C0M660,溪口,2023-08-24,23.604131,120.403569,0.3797722
C0M670,大林,2023-08-24,23.600616,120.45841,0.5125355
C0M680,太保,2023-08-24,23.455062,120.331455,0.4300422
C0M690,水上,2023-08-24,23.419734,120.388909,0.6338859
C0M700,竹崎,2023-08-24,23.526178,120.555508,0.99903995
C0M710,東石,2023-08-24,23.458927,120.15385,0.47626966
C0M720,番路,2023-08-24,23.464657,120.554156,0.9994132
C0M730,嘉義市東區,2023-08-24,23.457673,120.460531,0.70326424
C0M740,六腳,2023-08-24,23.492871,120.290625,0.3889409
C0M750,布袋,2023-08-24,23.380878,120.167789,0.34110084
C0M760,民雄,2023-08-24,23.551754,120.428457,0.4389326
C0M770,嘉義梅山,2023-08-24,23.585398,120.555587,0.99867463
C0M780,鹿草,2023-08-24,23.41134,120.30835,0.5038623
C0M790,新港,2023-08-24,23.553269,120.345728,0.4143957
C0M800,茶山,2023-08-24,23.299075,120.664767,0.99972385
C0M880,好美里,2023-08-24,23.3364,120.138,0.5399627
C0N010,鯤鯓國小,2023-08-24,23.1879,120.0889,0.28611815
C0N020,城西,2023-08-24,23.0568,120.0956,0.16887935
C0N030,四草,2023-08-24,23.0235,120.1116,0.0875717
C0N040,蘆竹溝,2023-08-24,23.2344,120.0961,0.33495218
C0N050,蚵寮,2023-08-24,23.301,120.1104,0.3658889
C0O810,曾文,2023-08-24,23.219681,120.497328,0.8485017
C0O830,北寮,2023-08-24,23.079561,120.495008,0.9990547
C0O840,王爺宮,2023-08-24,23.222064,120.40085,0.78197056
C0O860,大內,2023-08-24,23.11885,120.36083,0.3684476
C0O900,善化,2023-08-24,23.112883,120.297219,0.21690199
C0O930,玉井,2023-08-24,23.126042,120.46055,0.6720794
C0O950,安南,2023-08-24,23.076694,120.144861,0.06537763
C0O960,崎頂,2023-08-24,22.959547,120.369317,0.9988332
C0O970,虎頭埤,2023-08-24,23.021375,120.347878,0.61001027
C0O980,新市,2023-08-24,23.061614,120.298197,0.17092082
C0O990,媽廟,2023-08-24,22.99175,120.293525,0.14884223
C0R150,三地門,2023-08-24,22.709889,120.639944,0.9552307
C0R160,鹽埔,2023-08-24,22.739558,120.530778,0.9755642
C0R170,屏東,2023-08-24,22.660269,120.494072,0.05399673
C0R190,赤山,2023-08-24,22.592333,120.614306,0.94644296
C0R220,潮州,2023-08-24,22.534361,120.54,0.97152096
C0R240,來義,2023-08-24,22.527306,120.625111,0.9474312
C0R260,春日,2023-08-24,22.370361,120.628306,0.95304495
C0R270,琉球嶼,2023-08-24,22.332244,120.362236,0.85873127
C0R280,檳榔,2023-08-24,22.076078,120.836777,0.9980192
C0R320,車城,2023-08-24,22.0744,120.716247,0.9055109
C0R341,牡丹,2023-08-24,22.130036,120.792639,0.98088497
C0R350,貓鼻頭,2023-08-24,21.921774,120.7358,0.92736584
C0R470,高樹,2023-08-24,22.826389,120.600806,0.984168
C0R480,長治,2023-08-24,22.693128,120.542622,0.9779509
C0R490,九如,2023-08-24,22.7405,120.490503,0.063900955
C0R520,崁頂,2023-08-24,22.514781,120.506914,0.04604945
C0R540,佳冬,2023-08-24,22.419456,120.552375,0.05042786
C0R550,新埤,2023-08-24,22.467947,120.582894,0.9753454
C0R560,新園,2023-08-24,22.5434,120.461558,0.042334076
C0R570,麟洛,2023-08-24,22.65078,120.52719,0.054887883
C0R580,南州,2023-08-24,22.48591,120.50274,0.04551771
C0R590,里港,2023-08-24,22.77919,120.49459,0.9788978
C0R620,墾雷,2023-08-24,21.900836,120.855269,0.92934024
C0R640,東港,2023-08-24,22.46247,120.44074,0.0502584
C0R650,竹田,2023-08-24,22.58486,120.54344,0.9725647
C0R660,枋寮,2023-08-24,22.367722,120.590647,0.98256797
C0R670,楓港,2023-08-24,22.190131,120.692156,0.9840666
C0R680,佳樂水,2023-08-24,21.993578,120.861633,0.91538167
C0R690,墾丁,2023-08-24,21.966756,120.810269,0.9985518
C0R700,枋山,2023-08-24,22.246844,120.661086,0.9508106
C0R710,龍磐,2023-08-24,21.931672,120.838942,0.9799685
C0R720,旭海,2023-08-24,22.205403,120.887614,0.98660666
C0R730,大坪頂,2023-08-24,22.024633,120.69355,0.990468
C0R740,獅子,2023-08-24,22.201569,120.70525,0.9870673
C0R760,南仁湖,2023-08-24,22.084681,120.863353,0.9988454
C0R770,保力,2023-08-24,22.071122,120.764111,0.95822585
C0R780,滿州,2023-08-24,22.024403,120.839892,0.93347764
C0R790,九棚,2023-08-24,22.14195,120.889281,0.98345673
C0R800,丹路,2023-08-24,22.204481,120.750989,0.9637018
C0R810,內獅,2023-08-24,22.305064,120.642986,0.95120627
C0R830,高士,2023-08-24,22.121825,120.836781,0.99892426
C0R850,林邊,2023-08-24,22.4634,120.5339,0.048513398
C0R860,鼻頭,2023-08-24,22.1043,120.8979,0.99442756
C0R870,興海,2023-08-24,21.9752,120.8439,0.9153818
C0R880,後壁湖,2023-08-24,21.9457,120.7457,0.9004854
C0R890,山海,2023-08-24,21.9878,120.7091,0.9046581
C0R900,竹坑,2023-08-24,22.1385,120.7022,0.9553665
C0R910,下寮,2023-08-24,22.3929,120.5548,0.05042786
C0R920,塭仔,2023-08-24,22.4169,120.5197,0.061919697
C0R930,萬丹,2023-08-24,22.5885,120.4851,0.96865416
C0R940,加祿堂,2023-08-24,22.3363,120.6217,0.9412198
C0S710,鹿野,2023-08-24,22.917711,121.122994,0.9175051
C0S730,綠島,2023-08-24,22.6672,121.47533,0.12152096
C0S740,池上,2023-08-24,23.119628,121.209469,0.9900329
C0S770,大溪山,2023-08-24,22.478475,120.943325,0.9913398
C0S790,金崙,2023-08-24,22.538122,120.966875,0.9786652
C0S810,東河,2023-08-24,22.972672,121.303986,0.121417455
C0S830,長濱,2023-08-24,23.286817,121.411975,0.5437371
C0S840,南田,2023-08-24,22.279725,120.889208,0.9370174
C0S890,關山,2023-08-24,23.0395,121.175017,0.9111929
C0S900,蘭嶼高中,2023-08-24,22.04909,121.51214,0.99958473
C0S910,蘭嶼燈塔,2023-08-24,22.081197,121.503117,0.99955726
C0S920,金峰嘉蘭,2023-08-24,22.594789,120.960825,0.94620496
C0S930,延平,2023-08-24,22.902581,121.084058,0.22803271
C0S940,石寧山,2023-08-24,23.223772,121.406639,0.35428894
C0S950,七塊厝,2023-08-24,22.954453,121.229922,0.51596767
C0S960,香蘭,2023-08-24,22.587569,120.993375,0.9296575
C0S970,加津林,2023-08-24,22.416211,120.926942,0.898958
C0S990,山豬窟,2023-08-24,22.318619,120.857372,0.99258375
C0SA00,歷坵,2023-08-24,22.520969,120.89185,0.9959136
C0SA10,檳榔四格山,2023-08-24,22.810031,121.109308,0.98280805
C0SA30,都歷,2023-08-24,23.020333,121.323642,0.22519487
C0SA40,瑞和,2023-08-24,22.974361,121.156697,0.48793188
C0SA60,知本（水試所）,2023-08-24,22.702394,121.082761,0.8930462
C0SA80,土坂,2023-08-24,22.453108,120.887572,0.9659955
C0SA90,達仁林場,2023-08-24,22.264347,120.823972,0.9967207
C0T870,鯉魚潭,2023-08-24,23.935639,121.508944,0.00805256
C0T900,西林,2023-08-24,23.8119,121.441458,0.006947308
C0T960,光復,2023-08-24,23.660694,121.424964,0.007799897
C0T9A0,月眉山,2023-08-24,23.809928,121.539828,0.009837926
C0T9D0,和中,2023-08-24,24.26676,121.74103,0.021044118
C0T9E0,大坑,2023-08-24,23.880628,121.581981,0.012746431
C0T9F0,水璉,2023-08-24,23.797131,121.542514,0.0093028825
C0T9I0,豐濱,2023-08-24,23.583897,121.514806,0.0078990925
C0T9M0,靜浦,2023-08-24,23.455167,121.495028,0.0090565095
C0T9N0,富里,2023-08-24,23.171639,121.249378,0.8131039
C0U600,礁溪,2023-08-24,24.817539,121.765608,0.19915491
C0U650,玉蘭,2023-08-24,24.675286,121.587061,0.026425127
C0U750,龜山島,2023-08-24,24.841667,121.953133,0.23926331
C0U760,東澳,2023-08-24,24.52196,121.83318,0.040044364
C0U770,南澳,2023-08-24,24.44935,121.81022,0.033527393
C0U780,五結,2023-08-24,24.68637,121.79794,0.29067707
C0U860,頭城,2023-08-24,24.85323,121.8308,0.20419526
C0U870,大礁溪,2023-08-24,24.791042,121.675047,0.0996342
C0U880,北關,2023-08-24,24.9072,121.8734,0.98717844
C0U890,三星,2023-08-24,24.66812,121.65302,0.22540848
C0U900,內城,2023-08-24,24.71813,121.68766,0.24982655
C0U910,冬山,2023-08-24,24.63373,121.7937,0.28094494
C0U940,羅東,2023-08-24,24.68184,121.74934,0.2621724
C0U970,大福,2023-08-24,24.80064,121.81389,0.29249275
C0U990,員山,2023-08-24,24.74435,121.72247,0.23421617
C0UA00,土場,2023-08-24,24.576533,121.495333,0.15106657
C0UA80,大溪漁港,2023-08-24,24.941801,121.902955,0.18307006
C0UA90,石城,2023-08-24,24.980444,121.951214,0.22061288
C0UB00,淡江大學蘭陽校園,2023-08-24,24.823239,121.730383,0.13040549
C0UB10,蘇澳,2023-08-24,24.5969,121.8571,0.083948515
C0UB20,壯圍,2023-08-24,24.7359,121.8163,0.27663133
C0V250,甲仙,2023-08-24,23.080106,120.591758,0.99919224
C0V260,月眉,2023-08-24,22.971003,120.539853,0.99895847
C0V310,美濃,2023-08-24,22.898742,120.519153,0.77030915
C0V350,溪埔,2023-08-24,22.738578,120.446797,0.04539632
C0V360,內門,2023-08-24,22.975481,120.466769,0.8022798
C0V370,古亭坑,2023-08-24,22.893178,120.401947,0.6388105
C0V400,阿公店,2023-08-24,22.804194,120.355528,0.04561536
C0V440,鳳山,2023-08-24,22.646653,120.356122,0.03936138
C0V450,鳳森,2023-08-24,22.545064,120.392592,0.9792146
C0V490,新興,2023-08-24,22.627422,120.298803,0.032806966
C0V530,阿蓮,2023-08-24,22.883208,120.327508,0.11678969
C0V610,梓官,2023-08-24,22.760558,120.267211,0.032838766
C0V620,永安,2023-08-24,22.82315,120.236856,0.03266776
C0V630,茄萣,2023-08-24,22.906642,120.182608,0.055273354
C0V640,湖內,2023-08-24,22.887139,120.2445,0.08482778
C0V650,彌陀,2023-08-24,22.783806,120.246361,0.03266776
C0V660,岡山,2023-08-24,22.797078,120.294958,0.038824975
C0V680,仁武,2023-08-24,22.701083,120.347722,0.037664488
C0V690,鼓山,2023-08-24,22.623325,120.275575,0.021458082
C0V700,三民,2023-08-24,22.645017,120.311233,0.032806948
C0V710,苓雅,2023-08-24,22.622742,120.330669,0.030166289
C0V720,林園,2023-08-24,22.507747,120.394511,0.03864254
C0V730,大寮,2023-08-24,22.605614,120.395717,0.96879
C0V740,旗山,2023-08-24,22.888614,120.483597,0.7793559
C0V750,路竹,2023-08-24,22.854997,120.259439,0.033699058
C0V760,橋頭,2023-08-24,22.757806,120.30575,0.037347443
C0V770,大社,2023-08-24,22.730306,120.346639,0.03956933
C0V790,萬山,2023-08-24,22.905944,120.688056,0.99989814
C0V800,六龜,2023-08-24,22.997889,120.633583,0.9992776
C0V810,左營,2023-08-24,22.67491,120.28491,0.03214543
C0V820,小林,2023-08-24,23.148408,120.63325,0.99967086
C0V840,鳳鼻頭,2023-08-24,22.5083,120.3591,0.038259882
C0V850,蚵仔寮,2023-08-24,22.7256,120.2527,0.03192731
C0V860,南寮,2023-08-24,22.7616,120.2339,0.03130754
C0V870,文安,2023-08-24,22.8025,120.2164,0.022376208
C0V880,興達,2023-08-24,22.8778,120.2127,0.055273354
C0V890,前鎮,2023-08-24,22.5718,120.3117,0.028496517
C0V900,汕尾,2023-08-24,22.4782,120.4151,0.039455324
C0X050,東河,2023-08-24,23.296598,120.385608,0.67135847
C0X060,下營,2023-08-24,23.22695,120.256261,0.66018695
C0X080,佳里,2023-08-24,23.173039,120.145086,0.34703866
C0X100,臺南市北區,2023-08-24,23.010394,120.194228,0.074876696
C0X110,臺南市南區,2023-08-24,22.961189,120.188378,0.06891458
C0X120,麻豆,2023-08-24,23.183289,120.248611,0.5963362
C0X130,官田,2023-08-24,23.193217,120.315422,0.71523887
C0X140,西港,2023-08-24,23.125608,120.203108,0.43873873
C0X150,安定,2023-08-24,23.102614,120.227839,0.16102229
C0X160,仁德,2023-08-24,22.968258,120.257689,0.10397287
C0X170,關廟,2023-08-24,22.963017,120.327797,0.14692944
C0X180,山上,2023-08-24,23.0757,120.363253,0.82681596
C0X190,安平,2023-08-24,22.993161,120.152181,0.035211284
C0X200,左鎮,2023-08-24,23.056758,120.408522,0.8107111
C0X210,白河,2023-08-24,23.347466,120.414427,0.7880485
C0X220,學甲,2023-08-24,23.230367,120.182187,0.5089808
C0X230,鹽水,2023-08-24,23.272621,120.247641,0.6163219
C0X240,關子嶺,2023-08-24,23.331169,120.508025,0.9996292
C0X250,新營,2023-08-24,23.310689,120.316681,0.7191083
C0X260,後壁,2023-08-24,23.366358,120.362326,0.86053324
C0X280,將軍,2023-08-24,23.214999,120.13577,0.41495982
C0X290,北門,2023-08-24,23.267772,120.125481,0.4646529
C0X300,鹿寮,2023-08-24,23.386047,120.477331,0.9980734
C0X310,七股,2023-08-24,23.147289,120.086253,0.18195924
C0X320,柳營,2023-08-24,23.253328,120.375253,0.6072474
C0Z020,明里,2023-08-24,23.208717,121.262342,0.44769403
C0Z061,玉里,2023-08-24,23.3215,121.339656,0.9837395
C0Z070,舞鶴,2023-08-24,23.46811,121.37407,0.008087106
C0Z080,富源,2023-08-24,23.587642,121.378225,0.0069709215
C0Z100,東華,2023-08-24,23.89525,121.549833,0.010452201
C0Z150,吉安光華,2023-08-24,23.930925,121.595153,0.013545726
C0Z160,鳳林,2023-08-24,23.746114,121.453411,0.007236288
C0Z170,卓溪,2023-08-24,23.3443,121.3029,0.9807516
C0Z180,新城,2023-08-24,24.03946,121.60454,0.014276223
C0Z190,富世,2023-08-24,24.14743,121.6297,0.019026209
C0Z200,萬榮,2023-08-24,23.709219,121.420106,0.007971552
C0Z210,瑞穗,2023-08-24,23.5239,121.39021,0.008468999
C0Z230,和平,2023-08-24,24.30717,121.77007,0.019379605
C0Z270,蕃薯寮,2023-08-24,23.73835,121.540108,0.007775531
C0Z280,德武,2023-08-24,23.47426,121.41071,0.0077778976
C0Z300,東里,2023-08-24,23.26853,121.30547,0.41815352
C0Z310,清水斷崖,2023-08-24,24.218294,121.689142,0.018915346
C0Z330,安通山,2023-08-24,23.290728,121.348528,0.9274961
