站號,站名,日期,lat,lon,BLBTSLS
C0R710,龍磐,2023-08-21,21.931672,120.838942,0.00036376968
C1F9D1,白毛台,2023-08-21,24.158325,120.886933,0.09914304
C0G940,竹塘,2023-08-21,23.848253,120.386764,0.023947079
467590,恆春,2023-08-21,22.003897,120.746339,0.35624158
C1O850,環湖,2023-08-21,23.148617,120.418633,0.7992857
C0U710,太平山,2023-08-21,24.505486,121.525656,5.076672e-09
C0E820,獅潭,2023-08-21,24.539133,120.920042,0.99639875
C0V880,興達,2023-08-21,22.8778,120.2127,0.008315058
C0S890,關山,2023-08-21,23.0395,121.175017,0.78437
K2F750,種苗繁殖,2023-08-21,24.225972,120.800917,0.9881662
C1Z130,銅門,2023-08-21,23.965694,121.492842,0.84646076
C0AD40,土城,2023-08-21,24.973208,121.445169,0.15445173
CAN140,六官養殖協會,2023-08-21,23.22881,120.29962,0.5941885
C0X180,山上,2023-08-21,23.0757,120.363253,0.824726
C0F9Z0,雪山東峰,2023-08-21,24.388792,121.268675,2.054647e-08
C1M480,獨立山,2023-08-21,23.537022,120.607797,0.028709712
C0X220,學甲,2023-08-21,23.230367,120.182187,0.4746948
C0R170,屏東,2023-08-21,22.660269,120.494072,0.09158986
467650,日月潭,2023-08-21,23.881325,120.90805,4.2175748e-07
C0K600,箔子寮,2023-08-21,23.6197,120.14,0.29843628
C0G830,埤頭,2023-08-21,23.866003,120.452806,0.01208246
C0S950,七塊厝,2023-08-21,22.954453,121.229922,0.000900291
467110,金門,2023-08-21,24.407306,118.289281,0.00091270945
C0AH80,深坑,2023-08-21,25.002703,121.628328,0.16226539
467990,馬祖,2023-08-21,26.169269,119.923419,0.005580026
C0A970,三貂角,2023-08-21,25.007606,122.002058,0.028835306
C0K430,褒忠,2023-08-21,23.690938,120.303634,0.014307877
467480,嘉義,2023-08-21,23.495925,120.432906,0.007186453
C2E540,後龍,2023-08-21,24.606489,120.783933,0.9943333
C0V400,阿公店,2023-08-21,22.804194,120.355528,0.88854057
C0R440,大漢山,2023-08-21,22.405264,120.753181,2.5705986e-09
C0K280,四湖,2023-08-21,23.630414,120.227125,0.06052989
C1F9B1,桐林,2023-08-21,24.066172,120.735194,0.9500782
C0K390,土庫,2023-08-21,23.679029,120.395574,0.020355565
C1I450,望鄉山,2023-08-21,23.594153,120.944286,1.0697005e-08
C0E910,海埔,2023-08-21,24.648767,120.772435,0.99406624
B2E890,畜試北區分所,2023-08-21,24.527806,120.770972,0.41719425
C0R750,四林格山,2023-08-21,22.076989,120.802439,6.250514e-09
C0F0C0,中坑,2023-08-21,24.248517,120.903319,4.7417885e-07
C1I121,大鞍,2023-08-21,23.678381,120.760017,5.7527436e-09
72U480,花改蘭陽分場,2023-08-21,24.686306,121.716583,0.18829852
C0A770,科教館,2023-08-21,25.096356,121.516507,0.12405813
C0AJ60,六塊厝,2023-08-21,25.24,121.4481,0.0044988818
C0R620,墾雷,2023-08-21,21.900836,120.855269,0.00023636648
467420,永康,2023-08-21,23.038386,120.2367,0.80026174
467300,東吉島,2023-08-21,23.25695,119.667467,0.00057488977
C0I410,名間,2023-08-21,23.837053,120.701447,0.066490166
A2C560,農工中心,2023-08-21,24.985917,121.239833,1.288295e-05
C0V740,旗山,2023-08-21,22.888614,120.483597,0.30701232
C0Z061,玉里,2023-08-21,23.3215,121.339656,0.66855544
C0S840,南田,2023-08-21,22.279725,120.889208,0.99916476
C1I470,杉林溪,2023-08-21,23.639517,120.786444,4.776721e-09
C1X040,東原,2023-08-21,23.291597,120.463822,0.5118471
C0R660,枋寮,2023-08-21,22.367722,120.590647,0.06599161
C1R120,上德文,2023-08-21,22.763272,120.704442,7.835913e-08
C0K450,大埤,2023-08-21,23.646074,120.431537,0.007338483
C0UA00,土場,2023-08-21,24.576533,121.495333,0.9809278
467080,宜蘭,2023-08-21,24.763975,121.756528,0.41464508
C0N030,四草,2023-08-21,23.0235,120.1116,0.46265757
C0V650,彌陀,2023-08-21,22.783806,120.246361,0.059486207
C0D660,新竹市東區,2023-08-21,24.798681,120.986942,0.99485326
82S580,茶改東部分場,2023-08-21,22.907694,121.130139,0.09161208
C0C710,大溪永福,2023-08-21,24.892936,121.324975,0.9708499
C0FA20,溫寮,2023-08-21,24.372177,120.583125,0.9848287
C0V640,湖內,2023-08-21,22.887139,120.2445,0.009208126
C0R910,下寮,2023-08-21,22.3929,120.5548,0.06599161
C0Z020,明里,2023-08-21,23.208717,121.262342,0.6296961
C0M770,嘉義梅山,2023-08-21,23.585398,120.555587,0.03115716
G2F820,農業試驗所,2023-08-21,24.031261,120.688133,0.5650921
C0C660,楊梅,2023-08-21,24.912375,121.143047,0.00019030187
C1E511,新開,2023-08-21,24.347703,120.827019,0.95083857
G2F820,農試所(霧峰),2023-08-21,24.031261,120.688133,0.5650921
C1I070,和社,2023-08-21,23.591131,120.888861,0.6157393
C2F000,大肚,2023-08-21,24.15295,120.572117,0.992005
C1S850,豐南,2023-08-21,23.122139,121.262389,0.55579245
C2A920,富貴角,2023-08-21,25.263783,121.565258,1.13761e-05
CAH030,茶改場竹圍站,2023-08-21,23.860083,120.637528,0.12297307
C0T960,光復,2023-08-21,23.660694,121.424964,0.6481312
C0F9M0,豐原,2023-08-21,24.254322,120.720692,0.9855162
C0R720,旭海,2023-08-21,22.205403,120.887614,4.1465964e-07
C0V710,苓雅,2023-08-21,22.622742,120.330669,0.0892095
C0C740,觀音工業區,2023-08-21,25.064764,121.114856,2.4412418e-06
CAC040,拉拉山,2023-08-21,24.699317,121.427133,4.5392565e-09
C0V790,萬山,2023-08-21,22.905944,120.688056,0.02255026
U2HA30,臺大和社,2023-08-21,23.590856,120.888864,0.6157393
C0AJ90,澳底,2023-08-21,25.0552,121.9253,0.004868092
C0Z100,東華,2023-08-21,23.89525,121.549833,0.9344449
C0G970,三豐,2023-08-21,23.882,120.2895,0.012877119
V2K610,大庄合作社,2023-08-21,23.8068,120.367939,0.008056095
C0V900,汕尾,2023-08-21,22.4782,120.4151,0.007702412
C1R630,龍泉,2023-08-21,22.66701,120.59091,0.08717875
C1AC50,關渡,2023-08-21,25.133486,121.469331,0.07006047
C0F9I0,神岡,2023-08-21,24.272481,120.658314,0.9877741
C0K460,斗南,2023-08-21,23.678734,120.478359,0.008209231
467410,臺南,2023-08-21,22.993239,120.204772,0.5384569
C2O810,曾文,2023-08-21,23.219681,120.497328,0.76252
467280,後龍,2023-08-21,24.648563,120.831834,0.9948341
C1F9J1,清水林,2023-08-21,24.071242,120.820419,2.4385949e-05
C2A650,火燒寮,2023-08-21,25.002719,121.742892,0.22107735
466930,竹子湖,2023-08-21,25.162078,121.544547,3.4075967e-08
C1I220,樟湖,2023-08-21,23.905333,120.846983,2.486208e-08
C0I390,仁愛,2023-08-21,24.022122,121.132206,3.2182308e-07
C0Z300,東里,2023-08-21,23.26853,121.30547,0.68012434
C0V310,美濃,2023-08-21,22.898742,120.519153,0.28809527
C1V590,新發,2023-08-21,23.057019,120.646064,0.00017608122
C0K510,水林,2023-08-21,23.572924,120.24597,0.06838102
72S590,東改賓朗果園,2023-08-21,22.813889,121.071278,0.61327386
82A750,茶改北部分場,2023-08-21,24.955778,121.631222,8.941222e-06
C1A750,石碇服務區,2023-08-21,25.00872,121.646242,0.04484616
C0X300,鹿寮,2023-08-21,23.386047,120.477331,0.02319626
G2AI50,關渡,2023-08-21,25.11575,121.492,0.003896947
C0K590,雲林東勢,2023-08-21,23.674192,120.255721,0.021804877
C0A570,桶後,2023-08-21,24.848222,121.597992,0.59337056
C1S800,華源,2023-08-21,22.657883,121.02325,0.109124295
C0G720,溪州,2023-08-21,23.851589,120.499093,0.013626706
C1V160,達卡努瓦,2023-08-21,23.279811,120.705319,8.1650334e-08
C2M410,馬頭山,2023-08-21,23.324361,120.582017,0.92745835
C0V850,蚵仔寮,2023-08-21,22.7256,120.2527,0.052038785
C0S740,池上,2023-08-21,23.119628,121.209469,0.3707953
C1V390,尖山,2023-08-21,22.813153,120.367789,0.891816
C0AH70,松山,2023-08-21,25.04871,121.55042,0.12621784
C0N010,鯤鯓國小,2023-08-21,23.1879,120.0889,0.46324906
C0R550,新埤,2023-08-21,22.467947,120.582894,0.008152943
C0SA60,知本（水試所）,2023-08-21,22.702394,121.082761,0.44760042
C0T9I0,豐濱,2023-08-21,23.583897,121.514806,0.97077703
C0UB00,淡江大學蘭陽校園,2023-08-21,24.823239,121.730383,0.703566
C0T9N0,富里,2023-08-21,23.171639,121.249378,0.1598665
U2HA50,臺大竹山,2023-08-21,23.756972,120.681556,0.0037191352
C0V840,鳳鼻頭,2023-08-21,22.5083,120.3591,0.027586522
C0X140,西港,2023-08-21,23.125608,120.203108,0.8263207
72D080,桃改五峰分場,2023-08-21,24.612194,121.157167,2.2005116e-09
C0V530,阿蓮,2023-08-21,22.883208,120.327508,0.74706745
C1O880,關山,2023-08-21,23.173397,120.594092,0.4008267
C0E791,卓蘭,2023-08-21,24.3126,120.8244,0.9892874
C1I030,武界,2023-08-21,23.913225,121.052483,3.034571e-07
C0R520,崁頂,2023-08-21,22.514781,120.506914,0.025655335
C0R341,牡丹,2023-08-21,22.130036,120.792639,1.102778e-06
C0R930,萬丹,2023-08-21,22.5885,120.4851,0.056470573
C0S760,紅石,2023-08-21,23.069131,121.126219,1.1884757e-09
C1M610,石磐龍,2023-08-21,23.496606,120.663506,3.3598962e-08
C0UA10,鴛鴦湖,2023-08-21,24.590269,121.412228,6.376068e-09
V2C260,八德蔬果,2023-08-21,24.978508,121.281819,0.93954
C0R800,丹路,2023-08-21,22.204481,120.750989,8.965113e-06
C0G920,永靖,2023-08-21,23.924703,120.547533,0.07443087
C1A630,下盆,2023-08-21,24.771003,121.538622,0.4931383
B2N890,畜產試驗所,2023-08-21,23.058972,120.336406,0.8554011
C0UA30,白嶺,2023-08-21,24.527819,121.519031,1.1500929e-08
C1V580,溪南(特生中心),2023-08-21,23.084972,120.788475,9.228469e-09
C1T970,大農,2023-08-21,23.615233,121.413331,0.9796654
E2S960,林試太麻里2,2023-08-21,22.598014,120.989761,0.47045615
C0R650,竹田,2023-08-21,22.58486,120.54344,0.7081611
C1H900,清流,2023-08-21,24.080775,120.962997,5.0740702e-08
C1C510,水尾,2023-08-21,24.940081,121.087161,8.399677e-07
C0F9X0,大雅(中科園區),2023-08-21,24.21528,120.62445,0.9834767
C0O970,虎頭埤,2023-08-21,23.021375,120.347878,0.88427544
C0C730,中大臨海站,2023-08-21,24.966126,121.008581,1.5615441e-06
C0X250,新營,2023-08-21,23.310689,120.316681,0.12553366
C0V700,三民,2023-08-21,22.645017,120.311233,0.024374109
C0U870,大礁溪,2023-08-21,24.791042,121.675047,0.7581537
C0E870,高鐵苗栗,2023-08-21,24.60725,120.826094,0.994636
A2K570,古坑花卉中心,2023-08-21,23.63353,120.55239,0.013863524
C0M860,新美,2023-08-21,23.338017,120.683169,0.25461996
C1E701,八卦,2023-08-21,24.491756,120.927619,5.5181183e-05
C0I420,國姓,2023-08-21,24.037803,120.855072,0.9658934
C0S960,香蘭,2023-08-21,22.587569,120.993375,0.47045615
C0R260,春日,2023-08-21,22.370361,120.628306,0.10655258
72G600,臺中農改場,2023-08-21,24.003028,120.534389,0.23774284
C0Z210,瑞穗,2023-08-21,23.5239,121.39021,0.9908935
C0M820,達邦,2023-08-21,23.453994,120.749517,7.7519076e-08
C0V860,南寮,2023-08-21,22.7616,120.2339,0.052038785
C0G740,大城,2023-08-21,23.852487,120.320935,0.013074359
C0R920,塭仔,2023-08-21,22.4169,120.5197,0.060525313
C0R470,高樹,2023-08-21,22.826389,120.600806,0.16449249
C0R680,佳樂水,2023-08-21,21.993578,120.861633,0.007657989
C1O870,大棟山,2023-08-21,23.31157,120.52226,1.2067154e-08
C0D360,梅花,2023-08-21,24.678347,121.208558,0.006532432
C0Z190,富世,2023-08-21,24.14743,121.6297,0.7175511
C0AI10,屈尺,2023-08-21,24.92184,121.54475,0.211038
B2U990,畜試東區分所,2023-08-21,24.669039,121.832561,0.71551406
C0R240,來義,2023-08-21,22.527306,120.625111,0.02450567
C1R610,西大武山,2023-08-21,22.617719,120.7322,1.2288781e-09
C0G900,線西,2023-08-21,24.143358,120.443536,0.7651035
C0M700,竹崎,2023-08-21,23.526178,120.555508,0.030058226
C2E880,三義,2023-08-21,24.405478,120.749819,0.728735
C0C720,竹圍,2023-08-21,25.112692,121.239824,0.003896947
C0F9P0,清水,2023-08-21,24.312297,120.562242,0.9888661
C0Z150,吉安光華,2023-08-21,23.930925,121.595153,0.7723113
C1D640,外坪(五指山),2023-08-21,24.644447,121.090961,1.6281947e-05
C0F9O0,潭子,2023-08-21,24.213106,120.703933,0.9919115
72T250,花蓮農改場,2023-08-21,23.975222,121.563889,0.6657784
C0E780,銅鑼,2023-08-21,24.489681,120.790853,0.5295861
C1T950,太安,2023-08-21,23.666719,121.370128,1.2399155e-07
C0E830,苑裡,2023-08-21,24.439714,120.653053,0.65218955
467270,田中,2023-08-21,23.873803,120.581286,0.0027207965
C0SA10,檳榔四格山,2023-08-21,22.810031,121.109308,0.87258756
C1T830,布洛灣,2023-08-21,24.17184,121.57127,0.8971468
C0F970,大坑,2023-08-21,24.173142,120.722289,0.98093784
C1U920,思源,2023-08-21,24.393125,121.347214,2.083752e-09
C0A931,三和,2023-08-21,25.233153,121.595236,0.13144295
C0I010,廬山,2023-08-21,24.033311,121.181808,1.7153077e-08
C0R860,鼻頭,2023-08-21,22.1043,120.8979,0.0010832605
C0UB20,壯圍,2023-08-21,24.7359,121.8163,0.2086402
C0R790,九棚,2023-08-21,22.14195,120.889281,8.732443e-06
C0W110,東莒,2023-08-21,25.9652,119.98069,9.389835e-05
C1U930,粉鳥林,2023-08-21,24.497088,121.842479,0.49742046
C1I211,蘆竹湳,2023-08-21,23.934019,120.811994,0.0005315125
C0S830,長濱,2023-08-21,23.286817,121.411975,0.6109927
C1F9F1,伯公龍,2023-08-21,24.272392,120.849047,0.9750737
C0E810,西湖,2023-08-21,24.562947,120.7485,0.6497385
C1I440,新高口,2023-08-21,23.478744,120.878939,9.08387e-09
C0O840,王爺宮,2023-08-21,23.222064,120.40085,0.77640426
C0T9G0,鳳林山,2023-08-21,23.735269,121.420131,0.005514172
C0X080,佳里,2023-08-21,23.173039,120.145086,0.46324906
C0Z310,清水斷崖,2023-08-21,24.218294,121.689142,9.3228315e-05
C0M680,太保,2023-08-21,23.455062,120.331455,0.008285648
C1S820,金峰,2023-08-21,22.590969,120.933236,0.1275525
C0AD10,八里,2023-08-21,25.150211,121.403947,0.003896947
C2K240,草嶺,2023-08-21,23.59555,120.693461,1.008314e-08
C1SA70,都蘭,2023-08-21,22.87794,121.226881,0.021249976
C0K440,二崙,2023-08-21,23.772797,120.408944,0.011208541
C1A760,坪林交控,2023-08-21,24.94284,121.713442,0.1801645
C0F9N0,大里,2023-08-21,24.092464,120.701378,0.89670384
C0SA90,達仁林場,2023-08-21,22.264347,120.823972,1.8051413e-08
C1R290,石門山,2023-08-21,22.112611,120.756597,6.2933076e-08
42HA10,萬大發電廠,2023-08-21,23.978875,121.139639,9.989687e-08
C0R890,山海,2023-08-21,21.9878,120.7091,0.07228588
C0T9A0,月眉山,2023-08-21,23.809928,121.539828,0.767725
C0AC70,信義,2023-08-21,25.037822,121.564597,0.12621784
C0K560,棋山,2023-08-21,23.68645,120.603417,0.013744686
C1Z240,中平林道,2023-08-21,23.42115,121.26763,4.8037083e-07
U2H480,溪頭,2023-08-21,23.670306,120.798194,3.4174752e-09
C0M880,好美里,2023-08-21,23.3364,120.138,0.2948723
C0T9E0,大坑,2023-08-21,23.880628,121.581981,0.9882285
C0K530,臺西,2023-08-21,23.701547,120.197559,0.0059232954
C1E900,國一N128K,2023-08-21,24.560997,120.844186,0.95337456
C0AJ50,水湳洞,2023-08-21,25.123695,121.862238,0.007998997
C0AI20,白沙灣,2023-08-21,25.283128,121.519058,0.0029236737
C0A860,大坪,2023-08-21,25.165914,121.632969,0.00036996152
C1U850,觀音海岸,2023-08-21,24.38319,121.77856,0.0016137534
C0U950,鶯子嶺,2023-08-21,24.89754,121.79244,2.8045457e-09
C0O900,善化,2023-08-21,23.112883,120.297219,0.80299646
C0K550,蔦松,2023-08-21,23.514319,120.229736,0.5639628
E2P980,林試六龜中心,2023-08-21,22.991703,120.645722,0.0046883686
C0E590,通霄,2023-08-21,24.471892,120.704622,0.5664735
C1I310,西巒,2023-08-21,23.754486,120.883956,1.2618241e-07
C0A550,泰平,2023-08-21,24.971197,121.823711,2.4785246e-07
C0I360,水里,2023-08-21,23.812553,120.849792,0.0019159786
C0R830,高士,2023-08-21,22.121825,120.836781,2.3508122e-08
C1I101,溪頭,2023-08-21,23.661789,120.807647,1.3543603e-08
C0AJ20,野柳,2023-08-21,25.20703,121.690021,0.32605967
C0B060,暖暖,2023-08-21,25.0957,121.7403,0.066563465
C1H920,長豐,2023-08-21,24.102039,120.879897,1.5886735e-06
C0V360,內門,2023-08-21,22.975481,120.466769,0.8992473
C0R850,林邊,2023-08-21,22.4634,120.5339,0.007921845
C0E930,龍鳳,2023-08-21,24.700034,120.859125,0.9975125
C0U910,冬山,2023-08-21,24.63373,121.7937,0.71551406
C1E721,泰安,2023-08-21,24.489017,120.968036,1.3609136e-09
82H320,茶改中部分場,2023-08-21,23.875611,120.913583,1.7910097e-05
C0M750,布袋,2023-08-21,23.380878,120.167789,0.25796083
C1S860,利嘉,2023-08-21,22.809417,121.050528,0.0009737178
72C440,桃園農改,2023-08-21,24.950944,121.030583,2.7056835e-06
E2S980,林試太麻里1,2023-08-21,22.598922,120.980044,0.33141568
C0X170,關廟,2023-08-21,22.963017,120.327797,0.82816887
C0V720,林園,2023-08-21,22.507747,120.394511,0.025527958
C1I510,線浸林道,2023-08-21,23.761508,120.832956,2.9870655e-08
C0D690,外湖,2023-08-21,24.917735,120.968711,7.3974606e-06
C0C750,新興坑尾,2023-08-21,25.0061,121.0971,5.9857615e-07
B2Q810,畜試南區分所,2023-08-21,21.945583,120.802167,0.009572067
C0S790,金崙,2023-08-21,22.538122,120.966875,0.01715843
C0AH90,福山植物園,2023-08-21,24.760717,121.58135,0.8921339
C0I540,奇萊稜線,2023-08-21,24.109231,121.326456,1.0138622e-08
C0M850,表湖,2023-08-21,23.24186,120.64166,0.11413785
C0S770,大溪山,2023-08-21,22.478475,120.943325,0.99172187
C0AG80,中和,2023-08-21,24.991622,121.491792,0.15445173
C0T790,大禹嶺,2023-08-21,24.186117,121.316086,7.1684645e-09
C0T9B0,水源,2023-08-21,23.991861,121.537169,0.84614885
C0R840,牡丹池山,2023-08-21,22.168389,120.841225,5.4273336e-08
C1I131,桶頭,2023-08-21,23.641944,120.654117,0.14736432
CAL110,布袋國中,2023-08-21,23.35893,120.18026,0.25796083
467571,新竹,2023-08-21,24.827853,121.014219,0.045508284
C0Z290,赤柯山,2023-08-21,23.36893,121.38293,7.4156254e-08
C0X280,將軍,2023-08-21,23.214999,120.13577,0.46621934
C0S690,太麻里,2023-08-21,22.60902,120.98533,0.24104293
C0U880,北關,2023-08-21,24.9072,121.8734,0.031948283
C1H860,瑞岩,2023-08-21,24.123772,121.18345,1.5270237e-08
C0G810,埔心,2023-08-21,23.947633,120.525456,0.074404605
C0U970,大福,2023-08-21,24.80064,121.81389,0.40718722
C1E670,南礦,2023-08-21,24.538278,121.002836,2.111031e-09
C0M520,東後寮,2023-08-21,23.369908,120.248065,0.28449482
C1E461,松安,2023-08-21,24.397972,120.986022,9.788081e-09
72G600,臺中農改,2023-08-21,24.003028,120.534389,0.23774284
C2N160,西拉雅風管處,2023-08-21,23.189481,120.335297,0.76135993
C0A640,石碇,2023-08-21,24.993969,121.662917,0.040473104
E2S960,林試太麻里2,2023-08-21,22.598,120.99775,0.4908159
C0F9Y0,桃山,2023-08-21,24.432739,121.303808,1.5550787e-08
C1I020,萬大,2023-08-21,23.979817,121.132261,2.767809e-07
C0U940,羅東,2023-08-21,24.68184,121.74934,0.20588845
C0M650,朴子,2023-08-21,23.43463,120.23902,0.26310813
C1I500,大尖山,2023-08-21,23.858572,120.994889,9.637507e-09
C0G820,田尾,2023-08-21,23.901669,120.509389,0.074404605
E2K600,四湖植物園,2023-08-21,23.676986,120.163433,0.06081653
C0S730,綠島,2023-08-21,22.6672,121.47533,0.0016759775
12Q970,東港工作站,2023-08-21,22.479997,120.466058,0.007702412
C0E430,南庄,2023-08-21,24.601775,121.000214,0.99649364
C1TA00,太魯閣,2023-08-21,24.15773,121.6236,0.6446928
466920,臺北,2023-08-21,25.037658,121.514853,0.12621784
C0R600,舊泰武,2023-08-21,22.588194,120.664944,4.831067e-07
C1I260,北坑,2023-08-21,23.9246,121.006903,5.4653923e-05
466910,鞍部,2023-08-21,25.182586,121.529731,3.3941026e-09
C1I230,九份二山,2023-08-21,23.961944,120.845,4.228556e-06
C2A660,瑞芳,2023-08-21,25.113169,121.801147,0.0077954815
C0R270,琉球嶼,2023-08-21,22.332244,120.362236,0.0009801508
C1T990,高寮,2023-08-21,23.394239,121.356808,0.97071487
C0G620,芬園,2023-08-21,24.015678,120.6213,0.652877
C1Z140,荖溪,2023-08-21,23.890575,121.45964,7.311226e-07
C1I201,中心崙,2023-08-21,23.728722,120.712097,1.0020564e-07
C1I400,凌霄,2023-08-21,24.018778,121.004456,2.88812e-08
C1M640,十字,2023-08-21,23.492153,120.753683,2.3590049e-08
G2P820,農試鳳山分所,2023-08-21,22.646611,120.356083,0.035626918
C0Z270,蕃薯寮,2023-08-21,23.73835,121.540108,0.79735625
C0F9Q0,外埔,2023-08-21,24.347817,120.705686,0.9557734
C0K580,高鐵雲林,2023-08-21,23.737456,120.417944,0.010077088
C2I090,鳳凰,2023-08-21,23.728081,120.787347,2.0385409e-08
C0U990,員山,2023-08-21,24.74435,121.72247,0.19389237
C0V770,大社,2023-08-21,22.730306,120.346639,0.07627168
C0X120,麻豆,2023-08-21,23.183289,120.248611,0.8630498
C0C670,龍潭,2023-08-21,24.870056,121.221389,0.9594678
C0D680,香山濕地,2023-08-21,24.783581,120.914988,0.994678
C0S980,勝林山,2023-08-21,22.430439,120.8938,8.904468e-09
C0V730,大寮,2023-08-21,22.605614,120.395717,0.10183916
C0R570,麟洛,2023-08-21,22.65078,120.52719,0.09158986
CAG100,王功漁港,2023-08-21,23.96824,120.32586,0.007755922
C0X290,北門,2023-08-21,23.267772,120.125481,0.46621934
C2F930,大甲,2023-08-21,24.347667,120.640403,0.99214184
C0D650,湖口,2023-08-21,24.904794,121.043628,9.774005e-07
C0E420,竹南,2023-08-21,24.708978,120.888897,0.99730134
C0U780,五結,2023-08-21,24.68637,121.79794,0.20936653
C1I250,鯉潭,2023-08-21,23.961922,120.991131,0.00074902805
C0R130,阿禮,2023-08-21,22.742908,120.743678,1.1663029e-08
C0X100,臺南市北區,2023-08-21,23.010394,120.194228,0.4796742
C0S920,金峰嘉蘭,2023-08-21,22.594789,120.960825,0.32089433
C0V490,新興,2023-08-21,22.627422,120.298803,0.089391604
C0F9K0,大安,2023-08-21,24.345061,120.588025,0.98637146
72N100,臺南農改,2023-08-21,23.0605,120.342194,0.8554011
467290,古坑,2023-08-21,23.633639,120.551889,0.013863524
C0V440,鳳山,2023-08-21,22.646653,120.356122,0.035626918
C1T940,大觀,2023-08-21,23.714206,121.373133,0.5587128
72T250,花蓮農改,2023-08-21,23.975222,121.563889,0.6657784
C0E740,造橋,2023-08-21,24.637056,120.864778,0.99463403
C0R100,尾寮山,2023-08-21,22.833111,120.683889,1.0918392e-08
A2K630,臺大雲林校區,2023-08-21,23.730628,120.423903,0.010077088
C0D580,寶山,2023-08-21,24.735006,121.025192,0.88605076
E2P990,林試扇平站,2023-08-21,22.9677,120.6857,0.5680616
C0AI30,三重,2023-08-21,25.057328,121.500629,0.12405813
C0AH00,汐止,2023-08-21,25.066881,121.658778,0.12621784
C1Z040,立山,2023-08-21,23.443356,121.327375,0.7926241
C0R740,獅子,2023-08-21,22.201569,120.70525,0.00065055385
C0W130,花嶼,2023-08-21,23.40007,119.32276,2.8394115e-05
C0A950,鼻頭角,2023-08-21,25.129036,121.923372,0.013037923
C0K470,林內,2023-08-21,23.748675,120.609642,0.0031920795
82C160,茶改場,2023-08-21,24.908472,121.185333,3.060453e-05
C0Z320,清水林道,2023-08-21,23.27125,121.188272,0.21882798
C0R760,南仁湖,2023-08-21,22.084681,120.863353,6.260754e-08
C0M670,大林,2023-08-21,23.600616,120.45841,0.0115290675
C0M800,茶山,2023-08-21,23.299075,120.664767,0.5118389
C0A9C0,天母,2023-08-21,25.117494,121.537169,0.06812181
72K220,南改斗南分場,2023-08-21,23.634556,120.477333,0.008209231
72AI40,桃改樹林分場,2023-08-21,24.944503,121.386972,0.92296255
C0S910,蘭嶼燈塔,2023-08-21,22.081197,121.503117,2.4842066e-09
C0B050,八斗子,2023-08-21,25.144754,121.79167,0.008639733
C0U900,內城,2023-08-21,24.71813,121.68766,0.17917061
C0X320,柳營,2023-08-21,23.253328,120.375253,0.3465123
C0M790,新港,2023-08-21,23.553269,120.345728,0.024137056
C0F9T0,西屯,2023-08-21,24.179494,120.641275,0.87721354
C0SA30,都歷,2023-08-21,23.020333,121.323642,0.7182446
C0C620,蘆竹,2023-08-21,25.084275,121.265767,0.00014466622
C0R730,大坪頂,2023-08-21,22.024633,120.69355,0.0015574227
C0AJ40,石門,2023-08-21,25.273672,121.601198,3.732502e-05
C0E750,苗栗,2023-08-21,24.564569,120.824575,0.9490736
C0T870,鯉魚潭,2023-08-21,23.935639,121.508944,0.8032243
C1V170,排雲,2023-08-21,23.463619,120.954147,1.220863e-08
C2H950,中寮,2023-08-21,23.884447,120.766406,0.10782847
C0R350,貓鼻頭,2023-08-21,21.921774,120.7358,0.099235855
C0V660,岡山,2023-08-21,22.797078,120.294958,0.059486177
C1H941,雙冬,2023-08-21,23.967378,120.802189,2.6229785e-05
C0AJ70,田寮,2023-08-21,25.2698,121.4886,0.003958948
C0AI00,五股,2023-08-21,25.07445,121.42728,0.0071976166
C0Z280,德武,2023-08-21,23.47426,121.41071,0.9887408
C0R700,枋山,2023-08-21,22.246844,120.661086,0.06447694
C0C460,復興,2023-08-21,24.820208,121.352281,0.011643656
E2H360,蓮華池,2023-08-21,23.918333,120.885278,1.7675076e-06
C0M640,中埔,2023-08-21,23.42538,120.5229,0.024871483
C0W140,金沙,2023-08-21,24.488292,118.408778,0.0015783771
C2A540,四堵,2023-08-21,24.8926,121.745736,0.7989657
C0ACA0,新莊,2023-08-21,25.051478,121.446756,0.42197248
C0R220,潮州,2023-08-21,22.534361,120.54,0.0261491
U2HA40,臺大內茅埔,2023-08-21,23.689722,120.851117,0.11072123
467490,臺中,2023-08-21,24.145736,120.684075,0.8992864
C0U960,翠峰湖,2023-08-21,24.510856,121.608044,5.222839e-09
E2HA20,林試畢祿溪站,2023-08-21,24.226944,121.308522,1.3220834e-08
C0V890,前鎮,2023-08-21,22.5718,120.3117,0.07288735
467620,蘭嶼,2023-08-21,22.036969,121.558339,2.0792223e-09
C1F941,雪嶺,2023-08-21,24.280586,121.026642,2.3378762e-08
C0AC80,文山,2023-08-21,25.00235,121.575728,0.16233791
C0F9R0,龍井,2023-08-21,24.184536,120.528972,0.9547365
C0M760,民雄,2023-08-21,23.551754,120.428457,0.010644289
C0UA40,西德山,2023-08-21,24.560647,121.752608,1.4715469e-08
C1T920,中興,2023-08-21,23.769503,121.498653,0.46646756
C0D550,雪霸,2023-08-21,24.526972,121.11605,2.5087432e-09
C2F860,梨山,2023-08-21,24.247522,121.243669,1.331213e-08
C0R320,車城,2023-08-21,22.0744,120.716247,0.021852694
C1S870,南美山,2023-08-21,23.15025,121.382333,0.17334634
C0B020,基隆嶼,2023-08-21,25.19141,121.78391,0.003906749
C1U501,牛鬥,2023-08-21,24.637836,121.573656,0.20720395
C0M730,嘉義市東區,2023-08-21,23.457673,120.460531,0.01474352
C0S700,知本,2023-08-21,22.684866,121.005642,0.0140599655
C1N001,沙崙,2023-08-21,22.935472,120.309406,0.8009922
C0V760,橋頭,2023-08-21,22.757806,120.30575,0.06417486
C0G960,福寶,2023-08-21,24.0443,120.3814,0.22308156
C0X210,白河,2023-08-21,23.347466,120.414427,0.020167343
C0S810,東河,2023-08-21,22.972672,121.303986,0.022787834
C0R670,楓港,2023-08-21,22.190131,120.692156,0.014631624
C0FA50,霧峰,2023-08-21,24.0419,120.6995,0.5922373
C0UB10,蘇澳,2023-08-21,24.5969,121.8571,0.6772317
C0G950,防潮門,2023-08-21,24.1835,120.4871,0.9547989
C0M740,六腳,2023-08-21,23.492871,120.290625,0.032355737
C1R250,力里,2023-08-21,22.428117,120.629228,0.020410784
C0K330,虎尾,2023-08-21,23.719183,120.442036,0.01068995
C2FA00,烏石坑,2023-08-21,24.273503,120.947617,3.41636e-07
C0V620,永安,2023-08-21,22.82315,120.236856,0.059486207
C1I330,楓樹林,2023-08-21,23.986803,121.076117,8.440834e-08
C0W200,湖西,2023-08-21,23.596314,119.67275,0.014986721
72Q010,高雄農改場,2023-08-21,22.709333,120.525889,0.20957373
C0SA40,瑞和,2023-08-21,22.974361,121.156697,0.200587
C0C680,龜山,2023-08-21,25.02846,121.38656,0.00041247226
C2V260,月眉,2023-08-21,22.971003,120.539853,0.040287867
C0V450,鳳森,2023-08-21,22.545064,120.392592,0.017472133
C0U720,南山,2023-08-21,24.43742,121.38167,1.0599037e-07
A2N290,臺南蘭花園區,2023-08-21,23.340258,120.379661,0.019990075
C0R560,新園,2023-08-21,22.5434,120.461558,0.025527958
C0U890,三星,2023-08-21,24.66812,121.65302,0.4516096
C1V300,御油山,2023-08-21,23.001983,120.715364,6.2149454e-09
C0U600,礁溪,2023-08-21,24.817539,121.765608,0.19089659
C1T980,龍澗,2023-08-21,24.023289,121.411328,7.042147e-09
C0D670,海天一線,2023-08-21,24.831986,120.914438,1.1315369e-06
C0SA00,歷坵,2023-08-21,22.520969,120.89185,0.004841482
C0M710,東石,2023-08-21,23.458927,120.15385,0.9437919
C0M780,鹿草,2023-08-21,23.41134,120.30835,0.28339323
C0U520,雙連埤,2023-08-21,24.753033,121.641303,0.74888825
C0B010,七堵,2023-08-21,25.094819,121.71713,0.070820875
C0R480,長治,2023-08-21,22.693128,120.542622,0.10594449
C1V830,國三S383K,2023-08-21,22.781967,120.426475,0.33460268
12Q980,恆春工作站,2023-08-21,22.079678,120.714425,0.02316484
C1O940,東山服務區,2023-08-21,23.286016,120.398472,0.080990285
C1U840,東澳嶺,2023-08-21,24.5378,121.8485,0.00013336493
C1D630,飛鳳山,2023-08-21,24.766464,121.119178,0.004201984
C0S940,石寧山,2023-08-21,23.223772,121.406639,0.70194185
C0K410,北港,2023-08-21,23.573957,120.292802,0.07558663
C2M620,瑞里,2023-08-21,23.545133,120.675197,1.1311011e-08
C2O950,安南,2023-08-21,23.076694,120.144861,0.40316206
C0F0E0,南湖圈谷,2023-08-21,24.363714,121.444667,1.2884509e-08
467610,成功,2023-08-21,23.097486,121.373428,0.74927056
C0G890,伸港,2023-08-21,24.148933,120.484403,0.7651035
C2E540,龍溪,2023-08-21,24.606489,120.783933,0.9943333
C1V200,梅山,2023-08-21,23.268447,120.823556,0.02381731
C0T9H0,加路蘭山,2023-08-21,23.682947,121.5274,0.014872805
C2O930,玉井,2023-08-21,23.126042,120.46055,0.824726
C1F911,新伯公,2023-08-21,24.221361,120.841069,0.9859271
C0R490,九如,2023-08-21,22.7405,120.490503,0.21578354
C0X200,左鎮,2023-08-21,23.056758,120.408522,0.8717794
C1F891,稍來,2023-08-21,24.265689,121.001142,1.8206565e-08
72N240,七股研究中心,2023-08-21,23.081672,120.062894,0.38231605
C0C700,中壢,2023-08-21,24.977661,121.256375,0.9340334
C0M690,水上,2023-08-21,23.419734,120.388909,0.008532854
C0V690,鼓山,2023-08-21,22.623325,120.275575,0.08977007
C0O860,大內,2023-08-21,23.11885,120.36083,0.83924276
C0Z200,萬榮,2023-08-21,23.709219,121.420106,0.12652534
C0T9D0,和中,2023-08-21,24.26676,121.74103,0.060618244
C1O921,楠西,2023-08-21,23.183511,120.484083,0.836247
C0AJ30,淡水觀海,2023-08-21,25.184591,121.408616,0.056197528
C0V810,左營,2023-08-21,22.67491,120.28491,0.024374109
C0UA70,桃源谷,2023-08-21,24.962606,121.888875,1.4324471e-08
C0X130,官田,2023-08-21,23.193217,120.315422,0.73804873
C1H000,翠峰,2023-08-21,24.109397,121.205211,4.278739e-09
C0UA90,石城,2023-08-21,24.980444,121.951214,0.012253013
C1E681,南勢山,2023-08-21,24.421669,120.923831,5.2370942e-06
C0A9F0,內湖,2023-08-21,25.079422,121.57545,0.12621784
C0K291,宜梧,2023-08-21,23.536281,120.169329,0.56482005
C1K540,口湖,2023-08-21,23.585344,120.180517,0.29843628
C0R780,滿州,2023-08-21,22.024403,120.839892,0.19697644
C0V870,文安,2023-08-21,22.8025,120.2164,0.04928139
C0U650,玉蘭,2023-08-21,24.675286,121.587061,0.4544694
C0R640,東港,2023-08-21,22.46247,120.44074,0.007702412
K2E360,苗栗農改,2023-08-21,24.495722,120.829111,0.44393805
C0AJ80,板橋,2023-08-21,25.0107,121.4489,0.15021233
C0S660,下馬,2023-08-21,23.150427,121.070312,0.021620749
C1H9B1,阿眉,2023-08-21,24.1263,120.994672,2.1479517e-08
C0UA20,多加屯,2023-08-21,24.368614,121.373189,7.529816e-09
C0E730,頭份,2023-08-21,24.688247,120.912206,0.99739736
72V140,高改旗南分場,2023-08-21,22.857861,120.516667,0.28809527
C0K480,莿桐,2023-08-21,23.761192,120.502372,0.0012594968
C0U980,坪林石牌,2023-08-21,24.86478,121.77396,0.27668375
C0T900,西林,2023-08-21,23.8119,121.441458,0.92872125
C1I150,青雲,2023-08-21,23.793361,120.949378,0.03433971
467350,澎湖,2023-08-21,23.565503,119.563094,0.046288818
C0G800,埔鹽,2023-08-21,24.000394,120.431683,0.07693238
C0H960,草屯,2023-08-21,23.973672,120.68085,0.63794035
C1V780,多納林道,2023-08-21,22.888028,120.737917,1.1445761e-08
C0E920,通霄漁港,2023-08-21,24.498589,120.673876,0.48321128
C0Z330,安通山,2023-08-21,23.290728,121.348528,0.027983963
C0AH10,永和,2023-08-21,25.01125,121.508111,0.15021233
C2G640,鹿港,2023-08-21,24.0753,120.430481,0.20979497
C1E890,國三N149K,2023-08-21,24.463414,120.680019,0.75557256
C1R110,口社,2023-08-21,22.770111,120.645222,0.048926346
C1M870,國三N285K,2023-08-21,23.550319,120.505833,0.024014777
467050,新屋,2023-08-21,25.006744,121.047486,1.1724543e-06
C1E480,鳳美,2023-08-21,24.554803,121.034747,0.97659063
C0M530,奮起湖,2023-08-21,23.493903,120.699253,7.683983e-09
C0C590,觀音,2023-08-21,25.027072,121.153317,6.799465e-07
C0T9M0,靜浦,2023-08-21,23.455167,121.495028,0.9781981
C0AI40,石牌,2023-08-21,25.115597,121.513139,0.06596899
C1F871,上谷關,2023-08-21,24.203483,121.018644,2.4461306e-07
C0G880,二水,2023-08-21,23.810742,120.6173,0.0008224781
C0R940,加祿堂,2023-08-21,22.3363,120.6217,0.10661383
C0W220,北竿,2023-08-21,26.220358,119.974881,0.00079217367
C0O960,崎頂,2023-08-21,22.959547,120.369317,0.9249171
C0S750,向陽,2023-08-21,23.248397,120.986133,5.163212e-09
C0T9F0,水璉,2023-08-21,23.797131,121.542514,0.98544544
C1M600,頭凍,2023-08-21,23.406364,120.603339,5.7729824e-07
467660,臺東,2023-08-21,22.752211,121.154586,0.0043984377
C1D380,新埔,2023-08-21,24.84745,121.03834,0.0009748047
C0V750,路竹,2023-08-21,22.854997,120.259439,0.010967917
C0N050,蚵寮,2023-08-21,23.301,120.1104,0.2948723
72M700,南改鹿草分場,2023-08-21,23.416869,120.283061,0.26277077
C1SA50,利嘉林道,2023-08-21,22.82325,121.009389,1.5566537e-09
467550,玉山,2023-08-21,23.487614,120.959522,2.0761005e-08
C0A940,金山,2023-08-21,25.223628,121.643967,0.35333675
C1V340,大津,2023-08-21,22.888322,120.645986,0.03766178
C0W180,七美,2023-08-21,23.219333,119.444892,0.00095563364
C1F9C1,白冷,2023-08-21,24.182844,120.929889,0.96649766
K2E710,苗改生物防治研究中心,2023-08-21,24.422861,120.871833,0.8623139
C0N040,蘆竹溝,2023-08-21,23.2344,120.0961,0.46621934
C2W230,畜試所澎湖,2023-08-21,23.628342,119.513206,0.00063756574
C0R880,後壁湖,2023-08-21,21.9457,120.7457,0.085579745
C1I280,埔中,2023-08-21,23.820778,120.642594,0.00015642175
467790,墾丁雷達站,2023-08-21,21.948235,120.808028,0.0014935106
C0W190,望安,2023-08-21,23.380564,119.494075,0.04697196
466881,新北,2023-08-21,24.9593,121.52,0.14957054
C0Z170,卓溪,2023-08-21,23.3443,121.3029,0.99011457
C0F850,東勢,2023-08-21,24.246428,120.833047,0.9952932
466900,淡水,2023-08-21,25.164889,121.448906,0.0034017782
C0I370,魚池,2023-08-21,23.895703,120.94135,2.5579146e-05
C0C630,大溪,2023-08-21,24.882853,121.265547,0.9551582
C0A520,山佳,2023-08-21,24.974944,121.402008,0.7109764
C0I110,竹山,2023-08-21,23.761225,120.688156,0.0014641337
82H840,茶改南部分場,2023-08-21,23.762528,120.7405,0.0004270835
C0G660,溪湖,2023-08-21,23.94835,120.479122,0.060196806
C1T800,洛韶,2023-08-21,24.204558,121.453956,1.2966456e-08
C1T810,慈恩,2023-08-21,24.192044,121.388386,1.6299688e-09
C1E451,象鼻,2023-08-21,24.368617,120.940228,0.00020303865
C0AC60,三峽,2023-08-21,24.939025,121.369728,0.92554545
C0I490,萬大林道,2023-08-21,23.928228,121.091411,1.151412e-08
C1I290,豐丘,2023-08-21,23.668178,120.887417,3.0176721e-09
C1I320,奧萬大,2023-08-21,23.952956,121.178556,5.5425332e-08
C0U770,南澳,2023-08-21,24.44935,121.81022,0.7627505
C0A980,社子,2023-08-21,25.109508,121.469681,0.0041541723
C0V800,六龜,2023-08-21,22.997889,120.633583,0.005822617
C1G9D0,國一S218K,2023-08-21,23.890641,120.493253,0.01208246
C2F9A0,中竹林,2023-08-21,24.103556,120.751061,0.9907872
C0FA40,臺中電廠,2023-08-21,24.2146,120.4907,0.9547365
C0H9C0,合歡山,2023-08-21,24.143442,121.272547,1.46971235e-08
C0X060,下營,2023-08-21,23.22695,120.256261,0.61078095
G2M350,農試溪口農場,2023-08-21,23.58565,120.408111,0.010055957
C0U860,頭城,2023-08-21,24.85323,121.8308,0.2047804
C0R580,南州,2023-08-21,22.48591,120.50274,0.007702412
C0D430,峨眉,2023-08-21,24.6905,121.017189,0.9954794
C0G780,秀水,2023-08-21,24.03405,120.503869,0.23774284
72N100,臺南農改場,2023-08-21,23.0605,120.342194,0.8554011
C0S900,蘭嶼高中,2023-08-21,22.04909,121.51214,1.07400195e-08
467540,大武,2023-08-21,22.355675,120.903789,0.7449028
C1F9W0,德基,2023-08-21,24.254783,121.190261,1.9695905e-08
C1Z120,壽豐,2023-08-21,23.870853,121.508081,0.9344449
C0W160,烏坵,2023-08-21,24.9944,119.44956,2.8849496e-05
C1I240,外大坪,2023-08-21,23.958697,120.917931,0.0002698841
C1I550,國六W023K,2023-08-21,23.979067,120.867742,0.35840076
C0R870,興海,2023-08-21,21.9752,120.8439,0.009572067
C0R140,瑪家,2023-08-21,22.682903,120.686639,0.0157439
C0A530,坪林,2023-08-21,24.938183,121.70975,0.5779548
C0X260,後壁,2023-08-21,23.366358,120.362326,0.020035727
C0Z230,和平,2023-08-21,24.30717,121.77007,0.059754558
C0G770,福興,2023-08-21,24.041289,120.437669,0.08169851
C0H9A0,神木村,2023-08-21,23.532742,120.843667,2.2278194e-08
C0I460,南投,2023-08-21,23.911469,120.687331,0.7224051
C0I480,梅峰,2023-08-21,24.085272,121.173572,6.9511086e-09
C1V570,吉東,2023-08-21,22.85422,120.5454,0.31396142
C2A560,福山,2023-08-21,24.776203,121.502811,0.50675774
C0AH30,五分山,2023-08-21,25.07125,121.780794,2.3250901e-09
C0FA10,松柏,2023-08-21,24.429115,120.617482,0.5812373
72S200,東改班鳩分場,2023-08-21,22.829528,121.077694,0.23984274
72HA00,中改埔里分場,2023-08-21,23.903208,120.963364,6.463913e-06
C0C650,平鎮,2023-08-21,24.897503,121.214636,0.9319204
C0S930,延平,2023-08-21,22.902581,121.084058,0.16436487
C0UA60,樟樹山,2023-08-21,24.41393,121.78325,0.87284297
C1S670,摩天,2023-08-21,23.199503,121.027,6.522605e-09
C0V630,茄萣,2023-08-21,22.906642,120.182608,0.008315058
466940,基隆,2023-08-21,25.133314,121.740475,0.008378246
C0X050,東河,2023-08-21,23.296598,120.385608,0.06852786
C0R770,保力,2023-08-21,22.071122,120.764111,0.01374914
G2L020,農試嘉義分所,2023-08-21,23.485028,120.473806,0.017033506
C0X240,關子嶺,2023-08-21,23.331169,120.508025,0.98223644
C0I380,集集,2023-08-21,23.828206,120.801467,0.0019000401
466990,花蓮,2023-08-21,23.975128,121.613275,0.64731777
C1V220,小關山,2023-08-21,23.154217,120.813603,8.471491e-09
C1F9G1,慶福山,2023-08-21,24.180853,120.848378,0.0001380012
C0Z250,瑞穗林道,2023-08-21,23.49284,121.30688,3.6856613e-07
C0D590,新豐,2023-08-21,24.87068,120.97721,9.0330076e-08
C0A870,五指山,2023-08-21,25.132153,121.608692,1.0794071e-08
C0UA50,西帽山,2023-08-21,24.555361,121.802628,0.0024499437
C0X160,仁德,2023-08-21,22.968258,120.257689,0.12856428
C1H971,六分寮,2023-08-21,23.92507,120.6378,0.81878364
C0W120,西嶼,2023-08-21,23.5626,119.468436,0.004924816
C0G650,員林,2023-08-21,23.946503,120.585597,0.20136173
C0AD50,鶯歌,2023-08-21,24.951533,121.346294,0.9346924
C0S990,山豬窟,2023-08-21,22.318619,120.857372,6.102934e-06
72Q010,高雄農改,2023-08-21,22.709333,120.525889,0.20957373
C0X190,安平,2023-08-21,22.993161,120.152181,0.4863455
C0K400,斗六,2023-08-21,23.720583,120.541127,0.003944547
12J990,口湖工作站,2023-08-21,23.589978,120.180394,0.29843628
C0O830,北寮,2023-08-21,23.079561,120.495008,0.09166842
C1D410,白蘭,2023-08-21,24.579364,121.079947,1.4922868e-09
C0S970,加津林,2023-08-21,22.416211,120.926942,0.7964562
C0D700,關西,2023-08-21,24.7977,121.1732,0.9407344
C0M810,里佳,2023-08-21,23.389125,120.716647,1.2803347e-08
C0U750,龜山島,2023-08-21,24.841667,121.953133,8.952085e-05
C0R810,內獅,2023-08-21,22.305064,120.642986,0.1155397
C1M390,龍美,2023-08-21,23.406728,120.654417,5.120953e-08
C1H840,國三N238K,2023-08-21,23.841008,120.707711,0.095366225
CAQ030,崎峰國小,2023-08-21,22.42565,120.49521,0.007702412
C2E520,大湖,2023-08-21,24.414939,120.870872,0.8967674
467530,阿里山,2023-08-21,23.508208,120.813242,1.4608585e-08
C1E691,南湖,2023-08-21,24.40135,120.837533,0.004274712
C0FA30,梧棲,2023-08-21,24.256003,120.523381,0.9888661
C1V231,高中,2023-08-21,23.134911,120.716711,0.001986507
C0F9V0,新社,2023-08-21,24.200172,120.815806,0.98764586
C0H890,埔里,2023-08-21,23.972169,120.952425,0.047442928
C0R690,墾丁,2023-08-21,21.966756,120.810269,1.5173301e-06
C0F0D0,審馬陣,2023-08-21,24.381675,121.4203,1.1224615e-08
C0R820,白鷺,2023-08-21,22.454275,120.666219,2.2100728e-06
U2H480,臺大溪頭,2023-08-21,23.670306,120.798194,3.4174752e-09
C1V190,南天池,2023-08-21,23.27403,120.91176,5.2035487e-09
K2E360,苗栗農改場,2023-08-21,24.495722,120.829111,0.44393805
CAJ050,海口故事園區,2023-08-21,23.57543,120.14121,0.29843628
C0O990,媽廟,2023-08-21,22.99175,120.293525,0.81901014
C0D480,打鐵坑,2023-08-21,24.849664,121.150789,0.95961624
C0Z220,和平林道,2023-08-21,24.343922,121.656317,0.2980829
72C440,桃園農改場,2023-08-21,24.950944,121.030583,2.7056835e-06
C1E711,馬拉邦山,2023-08-21,24.367306,120.901656,8.234319e-05
C0D560,竹東,2023-08-21,24.767147,121.057881,0.93559873
C0F9U0,南屯,2023-08-21,24.137006,120.637969,0.77218103
C0M720,番路,2023-08-21,23.464657,120.554156,0.15872976
C0F0A0,雪山圈谷,2023-08-21,24.388594,121.236339,1.692639e-08
C1A9N0,四十份,2023-08-21,24.934158,121.593283,0.124093525
C0U760,東澳,2023-08-21,24.52196,121.83318,0.44444123
C0X230,鹽水,2023-08-21,23.272621,120.247641,0.31016037
C0V370,古亭坑,2023-08-21,22.893178,120.401947,0.94281214
C1I340,新興橋,2023-08-21,23.563333,120.868728,1.1626907e-07
C0SA80,土坂,2023-08-21,22.453108,120.887572,0.6546508
C0R160,鹽埔,2023-08-21,22.739558,120.530778,0.20957373
C0AC40,大屯山,2023-08-21,25.175675,121.522408,1.3396075e-09
466850,五分山雷達站,2023-08-21,25.071182,121.781205,2.1872384e-09
C1AI50,國三N016K,2023-08-21,25.034164,121.619664,0.12765
C1V600,藤枝,2023-08-21,23.071961,120.757042,1.0651644e-08
C1E601,南勢,2023-08-21,24.572486,120.734842,0.73704875
C0Z180,新城,2023-08-21,24.03946,121.60454,0.65566266
C0O980,新市,2023-08-21,23.061614,120.298197,0.80299646
C0K420,西螺,2023-08-21,23.800407,120.467394,0.013185885
C0Z050,佳心,2023-08-21,23.34567,121.21316,4.0230992e-07
C0AD30,蘆洲,2023-08-21,25.086594,121.472331,0.12405813
C0V610,梓官,2023-08-21,22.760558,120.267211,0.06417486
K2F750,種苗改良場,2023-08-21,24.225972,120.800917,0.9881662
C0UA80,大溪漁港,2023-08-21,24.941801,121.902955,0.031689253
C1AI60,國一39K邊坡,2023-08-21,25.064361,121.383836,0.0016573328
C0W150,金寧,2023-08-21,24.457703,118.328989,0.0011788454
V2C250,八德合作社,2023-08-21,24.93775,121.266389,0.94135207
C0AH40,平等,2023-08-21,25.129142,121.577086,6.0838862e-05
C0R540,佳冬,2023-08-21,22.419456,120.552375,0.06599161
466950,彭佳嶼,2023-08-21,25.627975,122.079744,2.7367005e-07
C0A890,雙溪,2023-08-21,25.036003,121.864242,0.008290426
C0C480,桃園,2023-08-21,24.992425,121.323172,0.9394387
C0AH50,林口,2023-08-21,25.072181,121.38084,0.000120018885
A2K360,水試臺西試驗場,2023-08-21,23.717231,120.190522,0.0056072255
B2N890,畜試所,2023-08-21,23.058972,120.336406,0.8554011
C0F9S0,烏日,2023-08-21,24.107058,120.624103,0.7632432
C0C490,八德,2023-08-21,24.928708,121.283289,0.9418768
C0R190,赤山,2023-08-21,22.592333,120.614306,0.6974944
C0T820,天祥,2023-08-21,24.179597,121.495639,0.73923135
C1F9E1,龍安,2023-08-21,24.1605,120.831961,0.99574953
C0V820,小林,2023-08-21,23.148408,120.63325,0.060095042
C2G870,芳苑,2023-08-21,23.922303,120.320025,0.0076491237
C0E850,大河,2023-08-21,24.618069,120.948578,0.99849695
C1U670,寒溪,2023-08-21,24.634,121.71691,0.8043897
C0N020,城西,2023-08-21,23.0568,120.0956,0.4796742
C1Z110,三棧,2023-08-21,24.11557,121.60501,0.002434191
C0R280,檳榔,2023-08-21,22.076078,120.836777,7.706015e-07
C0F9L0,后里,2023-08-21,24.310436,120.729725,0.9871108
C0D540,橫山,2023-08-21,24.71116,121.11693,0.872251
C1D420,太閣南,2023-08-21,24.632808,121.160575,4.80602e-09
C1E770,公館,2023-08-21,24.526914,120.830806,0.41719425
CAN130,水試所海水繁養殖中心,2023-08-21,23.120802,120.07968,0.3830235
C1I430,翠華,2023-08-21,24.191961,121.224339,4.8352495e-09
C1M400,菜瓜坪,2023-08-21,23.251928,120.576103,0.61937743
C0G730,二林,2023-08-21,23.903325,120.376081,0.027500752
72M360,南改義竹分場,2023-08-21,23.360694,120.279361,0.28449482
V2K620,麥寮合作社,2023-08-21,23.753836,120.294783,0.014289086
C0Z070,舞鶴,2023-08-21,23.46811,121.37407,0.9941182
C0B040,大武崙,2023-08-21,25.166676,121.706993,0.007951976
C1Z030,紅葉,2023-08-21,23.493119,121.338806,0.99344116
C1I050,丹大,2023-08-21,23.753747,121.141147,4.537058e-09
C0I080,信義,2023-08-21,23.689694,120.851036,0.11072123
C2A880,福隆,2023-08-21,25.017842,121.942083,0.011625091
C0Z160,鳳林,2023-08-21,23.746114,121.453411,0.112966545
C0V210,復興,2023-08-21,23.222403,120.806089,0.7972756
C0H990,昆陽,2023-08-21,24.121322,121.273642,6.9522885e-09
C0S710,鹿野,2023-08-21,22.917711,121.122994,0.004554423
C0I530,小奇萊,2023-08-21,24.131764,121.295717,7.4022255e-09
C0Z080,富源,2023-08-21,23.587642,121.378225,0.5489365
467441,高雄,2023-08-21,22.7304,120.3125,0.07627168
C1I140,卡奈托灣,2023-08-21,23.754364,121.087872,5.611395e-09
C0I520,玉山風口,2023-08-21,23.470489,120.955994,2.4166887e-08
C1G691,下水埔,2023-08-21,23.816114,120.5676,0.0014357633
C0X110,臺南市南區,2023-08-21,22.961189,120.188378,0.12856428
C0V680,仁武,2023-08-21,22.701083,120.347722,0.024374109
C2G840,北斗,2023-08-21,23.877586,120.514222,0.013596916
C0R900,竹坑,2023-08-21,22.1385,120.7022,0.02078985
C0K250,崙背,2023-08-21,23.75555,120.318925,0.014307877
C0G860,社頭,2023-08-21,23.897647,120.5862,0.002720019
C0X150,安定,2023-08-21,23.102614,120.227839,0.8269819
C0R590,里港,2023-08-21,22.77919,120.49459,0.4420912
C0E610,馬都安,2023-08-21,24.451272,120.930192,0.0005351722
C0E550,明德,2023-08-21,24.583486,120.885411,0.95602083
C0R150,三地門,2023-08-21,22.709889,120.639944,0.048633173
C0G910,花壇,2023-08-21,24.032076,120.549461,0.33655813
C1D400,鳥嘴山,2023-08-21,24.71909,121.28387,3.6149284e-08
C0K500,元長,2023-08-21,23.64981,120.315024,0.021399494
C0F0B0,石岡,2023-08-21,24.276061,120.777644,0.9883148
C2V250,甲仙,2023-08-21,23.080106,120.591758,0.33752328
C0SA20,金崙山,2023-08-21,22.567419,120.959667,4.4566775e-08
C0V350,溪埔,2023-08-21,22.738578,120.446797,0.14502609
C0M660,溪口,2023-08-21,23.604131,120.403569,0.010055952
C1S880,壽卡,2023-08-21,22.238911,120.858903,2.2032424e-08
72D680,桃改新埔分場,2023-08-21,24.834444,121.066111,0.0015116603
