站號,站名,日期,lat,lon,BlastGRU-TW
12J990,口湖工作站,2023-11-23,23.589978,120.180394,0.11282365
12Q970,東港工作站,2023-11-23,22.479997,120.466058,0.012615181
12Q980,恆春工作站,2023-11-23,22.079678,120.714425,0.0074688643
466881,新北,2023-11-23,24.9593,121.52,0.38935715
466900,淡水,2023-11-23,25.164889,121.448906,0.06423061
466920,臺北,2023-11-23,25.037658,121.514853,0.004152421
466940,基隆,2023-11-23,25.133314,121.740475,0.52500105
466990,花蓮,2023-11-23,23.975128,121.613275,0.74875987
467050,新屋,2023-11-23,25.006744,121.047486,0.07420766
467080,宜蘭,2023-11-23,24.763975,121.756528,0.75340563
467270,田中,2023-11-23,23.873803,120.581286,0.058551297
467300,東吉島,2023-11-23,23.25695,119.667467,0.54369813
467350,澎湖,2023-11-23,23.565503,119.563094,0.41075125
467410,臺南,2023-11-23,22.993239,120.204772,0.027686182
467420,永康,2023-11-23,23.038386,120.2367,0.010227738
467441,高雄,2023-11-23,22.7304,120.3125,0.015206163
467480,嘉義,2023-11-23,23.495925,120.432906,0.008818979
467490,臺中,2023-11-23,24.145736,120.684075,0.09475913
467540,大武,2023-11-23,22.355675,120.903789,0.12987447
467571,新竹,2023-11-23,24.827853,121.014219,0.60007477
467590,恆春,2023-11-23,22.003897,120.746339,0.07281191
467610,成功,2023-11-23,23.097486,121.373428,0.7736852
467620,蘭嶼,2023-11-23,22.036969,121.558339,0.07583788
467660,臺東,2023-11-23,22.752211,121.154586,0.0104230745
467790,墾丁雷達站,2023-11-23,21.948235,120.808028,0.015267356
72AI40,桃改樹林分場,2023-11-23,24.944503,121.386972,0.64977753
72C440,桃園農改,2023-11-23,24.950944,121.030583,0.11746186
72C440,桃園農改場,2023-11-23,24.950944,121.030583,0.11746186
72D680,桃改新埔分場,2023-11-23,24.834444,121.066111,0.75263596
72G600,臺中農改,2023-11-23,24.003028,120.534389,0.09261768
72G600,臺中農改場,2023-11-23,24.003028,120.534389,0.09261784
72K220,南改斗南分場,2023-11-23,23.634556,120.477333,0.010268098
72M360,南改義竹分場,2023-11-23,23.360694,120.279361,0.012619067
72M700,南改鹿草分場,2023-11-23,23.416869,120.283061,0.01111623
72N100,臺南農改,2023-11-23,23.0605,120.342194,0.008663748
72N100,臺南農改場,2023-11-23,23.0605,120.342194,0.008663748
72N240,七股研究中心,2023-11-23,23.081672,120.062894,0.03037941
72Q010,高雄農改,2023-11-23,22.709333,120.525889,0.0067031966
72Q010,高雄農改場,2023-11-23,22.709333,120.525889,0.0067031966
72S200,東改班鳩分場,2023-11-23,22.829528,121.077694,0.6776534
72S590,東改賓朗果園,2023-11-23,22.813889,121.071278,0.46834645
72T250,花蓮農改,2023-11-23,23.975222,121.563889,0.5472476
72T250,花蓮農改場,2023-11-23,23.975222,121.563889,0.5472476
72U480,花改蘭陽分場,2023-11-23,24.686306,121.716583,0.3897209
72V140,高改旗南分場,2023-11-23,22.857861,120.516667,0.01710891
82A750,茶改北部分場,2023-11-23,24.955778,121.631222,0.29397613
82C160,茶改場,2023-11-23,24.908472,121.185333,0.53808653
82H840,茶改南部分場,2023-11-23,23.762528,120.7405,0.53895384
82S580,茶改東部分場,2023-11-23,22.907694,121.130139,0.4217556
A2C560,農工中心,2023-11-23,24.985917,121.239833,0.7765661
A2K360,水試臺西試驗場,2023-11-23,23.717231,120.190522,0.13513821
A2K570,古坑花卉中心,2023-11-23,23.63353,120.55239,0.007978822
A2K630,臺大雲林校區,2023-11-23,23.730628,120.423903,0.040809974
A2N290,臺南蘭花園區,2023-11-23,23.340258,120.379661,0.008447787
B2E890,畜試北區分所,2023-11-23,24.527806,120.770972,0.73356074
B2N890,畜產試驗所,2023-11-23,23.058972,120.336406,0.008663748
B2N890,畜試所,2023-11-23,23.058972,120.336406,0.008663748
B2Q810,畜試南區分所,2023-11-23,21.945583,120.802167,0.014248736
B2U990,畜試東區分所,2023-11-23,24.669039,121.832561,0.0350564
C0A520,山佳,2023-11-23,24.974944,121.402008,0.1812556
C0A530,坪林,2023-11-23,24.938183,121.70975,0.34797361
C0A540,四堵,2023-11-23,24.8926,121.745736,0.19019355
C0A550,泰平,2023-11-23,24.971197,121.823711,0.06911488
C0A560,福山,2023-11-23,24.776203,121.502811,0.025750568
C0A570,桶後,2023-11-23,24.848222,121.597992,0.32569712
C0A640,石碇,2023-11-23,24.993969,121.662917,0.5450718
C0A650,火燒寮,2023-11-23,25.002719,121.742892,0.11273284
C0A660,瑞芳,2023-11-23,25.113169,121.801147,0.20861061
C0A770,科教館,2023-11-23,25.096356,121.516507,0.004773924
C0A860,大坪,2023-11-23,25.165914,121.632969,0.17171796
C0A880,福隆,2023-11-23,25.017842,121.942083,0.48847085
C0A890,雙溪,2023-11-23,25.036003,121.864242,0.45578822
C0A920,富貴角,2023-11-23,25.263783,121.565258,0.5182078
C0A931,三和,2023-11-23,25.233153,121.595236,0.4206809
C0A940,金山,2023-11-23,25.223628,121.643967,0.3847892
C0A950,鼻頭角,2023-11-23,25.129036,121.923372,0.9802752
C0A970,三貂角,2023-11-23,25.007606,122.002058,0.6060349
C0A980,社子,2023-11-23,25.109508,121.469681,0.02512377
C0A9C0,天母,2023-11-23,25.117494,121.537169,0.42213145
C0A9F0,內湖,2023-11-23,25.079422,121.57545,0.017992793
C0AC60,三峽,2023-11-23,24.939025,121.369728,0.63347536
C0AC70,信義,2023-11-23,25.037822,121.564597,0.0053433217
C0AC80,文山,2023-11-23,25.00235,121.575728,0.007156542
C0ACA0,新莊,2023-11-23,25.051478,121.446756,0.008061428
C0AD00,三芝,2023-11-23,25.258131,121.501917,0.7403021
C0AD10,八里,2023-11-23,25.150211,121.403947,0.01924021
C0AD30,蘆洲,2023-11-23,25.086594,121.472331,0.004773924
C0AD40,土城,2023-11-23,24.973208,121.445169,0.12485866
C0AD50,鶯歌,2023-11-23,24.951533,121.346294,0.6099329
C0AG80,中和,2023-11-23,24.991622,121.491792,0.0057257544
C0AH00,汐止,2023-11-23,25.066881,121.658778,0.089912735
C0AH10,永和,2023-11-23,25.01125,121.508111,0.0057139797
C0AH40,平等,2023-11-23,25.129142,121.577086,0.10096392
C0AH50,林口,2023-11-23,25.072181,121.38084,0.61528605
C0AH70,松山,2023-11-23,25.04871,121.55042,0.0053433217
C0AH80,深坑,2023-11-23,25.002703,121.628328,0.040229537
C0AI00,五股,2023-11-23,25.07445,121.42728,0.2189779
C0AI10,屈尺,2023-11-23,24.92184,121.54475,0.71118027
C0AI20,白沙灣,2023-11-23,25.283128,121.519058,0.9075044
C0AI30,三重,2023-11-23,25.057328,121.500629,0.0040701283
C0AI40,石牌,2023-11-23,25.115597,121.513139,0.1465021
C0AJ20,野柳,2023-11-23,25.20703,121.690021,0.57711744
C0AJ30,淡水觀海,2023-11-23,25.184591,121.408616,0.7268776
C0AJ40,石門,2023-11-23,25.273672,121.601198,0.6998204
C0AJ50,水湳洞,2023-11-23,25.123695,121.862238,0.3001367
C0AJ60,六塊厝,2023-11-23,25.24,121.4481,0.906953
C0AJ70,田寮,2023-11-23,25.2698,121.4886,0.8299403
C0AJ80,板橋,2023-11-23,25.0107,121.4489,0.006393623
C0AJ90,澳底,2023-11-23,25.0552,121.9253,0.64004755
C0B010,七堵,2023-11-23,25.094819,121.71713,0.37370238
C0B020,基隆嶼,2023-11-23,25.19141,121.78391,0.94695985
C0B040,大武崙,2023-11-23,25.166676,121.706993,0.38733226
C0B050,八斗子,2023-11-23,25.144754,121.79167,0.54690474
C0B060,暖暖,2023-11-23,25.0957,121.7403,0.44451547
C0C460,復興,2023-11-23,24.820208,121.352281,0.34250137
C0C480,桃園,2023-11-23,24.992425,121.323172,0.62940866
C0C490,八德,2023-11-23,24.928708,121.283289,0.53711635
C0C590,觀音,2023-11-23,25.027072,121.153317,0.071255654
C0C620,蘆竹,2023-11-23,25.084275,121.265767,0.042786665
C0C630,大溪,2023-11-23,24.882853,121.265547,0.5979077
C0C650,平鎮,2023-11-23,24.897503,121.214636,0.41149968
C0C660,楊梅,2023-11-23,24.912375,121.143047,0.53296316
C0C670,龍潭,2023-11-23,24.870056,121.221389,0.52749294
C0C680,龜山,2023-11-23,25.02846,121.38656,0.63397056
C0C700,中壢,2023-11-23,24.977661,121.256375,0.72745484
C0C710,大溪永福,2023-11-23,24.892936,121.324975,0.4798987
C0C720,竹圍,2023-11-23,25.112692,121.239824,0.02420088
C0C730,中大臨海站,2023-11-23,24.966126,121.008581,0.03725521
C0C740,觀音工業區,2023-11-23,25.064764,121.114856,0.059049636
C0C750,新興坑尾,2023-11-23,25.0061,121.0971,0.46040085
C0D430,峨眉,2023-11-23,24.6905,121.017189,0.7773477
C0D480,打鐵坑,2023-11-23,24.849664,121.150789,0.5878336
C0D540,橫山,2023-11-23,24.71116,121.11693,0.6698984
C0D560,竹東,2023-11-23,24.767147,121.057881,0.81066775
C0D580,寶山,2023-11-23,24.735006,121.025192,0.7295115
C0D590,新豐,2023-11-23,24.87068,120.97721,0.68665546
C0D650,湖口,2023-11-23,24.904794,121.043628,0.67078346
C0D660,新竹市東區,2023-11-23,24.798681,120.986942,0.7267673
C0D670,海天一線,2023-11-23,24.831986,120.914438,0.58497375
C0D680,香山濕地,2023-11-23,24.783581,120.914988,0.27292997
C0D690,外湖,2023-11-23,24.917735,120.968711,0.06992099
C0D700,關西,2023-11-23,24.7977,121.1732,0.71710867
C0E420,竹南,2023-11-23,24.708978,120.888897,0.29433018
C0E430,南庄,2023-11-23,24.601775,121.000214,0.52542067
C0E520,大湖,2023-11-23,24.41494,120.87087,0.36502734
C0E540,後龍,2023-11-23,24.606489,120.783933,0.49273276
C0E550,明德,2023-11-23,24.583486,120.885411,0.7977222
C0E590,通霄,2023-11-23,24.471892,120.704622,0.6588716
C0E730,頭份,2023-11-23,24.688247,120.912206,0.5967258
C0E740,造橋,2023-11-23,24.637056,120.864778,0.39194
C0E750,苗栗,2023-11-23,24.564569,120.824575,0.7774368
C0E780,銅鑼,2023-11-23,24.489681,120.790853,0.71203375
C0E791,卓蘭,2023-11-23,24.3126,120.8244,0.6118361
C0E810,西湖,2023-11-23,24.562947,120.7485,0.62079906
C0E820,獅潭,2023-11-23,24.539133,120.920042,0.54588085
C0E830,苑裡,2023-11-23,24.439714,120.653053,0.22726004
C0E850,大河,2023-11-23,24.618069,120.948578,0.8283966
C0E870,高鐵苗栗,2023-11-23,24.60725,120.826094,0.49624422
C0E910,海埔,2023-11-23,24.648767,120.772435,0.07726752
C0E920,通霄漁港,2023-11-23,24.498589,120.673876,0.5207304
C0E930,龍鳳,2023-11-23,24.700034,120.859125,0.2735569
C0F0B0,石岡,2023-11-23,24.276061,120.777644,0.57721555
C0F850,東勢,2023-11-23,24.246428,120.833047,0.60147333
C0F930,大甲,2023-11-23,24.347667,120.640403,0.6684902
C0F970,大坑,2023-11-23,24.173142,120.722289,0.050846603
C0F9A0,中竹林,2023-11-23,24.103556,120.751061,0.09208055
C0F9I0,神岡,2023-11-23,24.272481,120.658314,0.6237705
C0F9K0,大安,2023-11-23,24.345061,120.588025,0.31026947
C0F9L0,后里,2023-11-23,24.310436,120.729725,0.5853909
C0F9M0,豐原,2023-11-23,24.254322,120.720692,0.53333604
C0F9N0,大里,2023-11-23,24.092464,120.701378,0.055679508
C0F9O0,潭子,2023-11-23,24.213106,120.703933,0.3723433
C0F9P0,清水,2023-11-23,24.312297,120.562242,0.3918649
C0F9Q0,外埔,2023-11-23,24.347817,120.705686,0.6475717
C0F9R0,龍井,2023-11-23,24.184536,120.528972,0.31170332
C0F9S0,烏日,2023-11-23,24.107058,120.624103,0.11842821
C0F9T0,西屯,2023-11-23,24.179494,120.641275,0.7460659
C0F9U0,南屯,2023-11-23,24.137006,120.637969,0.6683687
C0F9X0,大雅(中科園區),2023-11-23,24.21528,120.62445,0.6795218
C0FA10,松柏,2023-11-23,24.429115,120.617482,0.22277655
C0FA20,溫寮,2023-11-23,24.372177,120.583125,0.3020603
C0FA30,梧棲,2023-11-23,24.256003,120.523381,0.24647112
C0FA40,臺中電廠,2023-11-23,24.2146,120.4907,0.31170332
C0FA50,霧峰,2023-11-23,24.0419,120.6995,0.060170524
C0G620,芬園,2023-11-23,24.015678,120.6213,0.22147611
C0G640,鹿港,2023-11-23,24.0753,120.430481,0.16625261
C0G650,員林,2023-11-23,23.946503,120.585597,0.55022824
C0G660,溪湖,2023-11-23,23.94835,120.479122,0.40860453
C0G720,溪州,2023-11-23,23.851589,120.499093,0.17218079
C0G730,二林,2023-11-23,23.903325,120.376081,0.11706866
C0G740,大城,2023-11-23,23.852487,120.320935,0.61919534
C0G770,福興,2023-11-23,24.041289,120.437669,0.13358375
C0G780,秀水,2023-11-23,24.03405,120.503869,0.22268897
C0G800,埔鹽,2023-11-23,24.000394,120.431683,0.16521232
C0G810,埔心,2023-11-23,23.947633,120.525456,0.43010768
C0G820,田尾,2023-11-23,23.901669,120.509389,0.3696676
C0G830,埤頭,2023-11-23,23.866003,120.452806,0.13093953
C0G840,北斗,2023-11-23,23.877586,120.514222,0.2744455
C0G860,社頭,2023-11-23,23.897647,120.5862,0.08807291
C0G870,芳苑,2023-11-23,23.922303,120.320025,0.56453675
C0G880,二水,2023-11-23,23.810742,120.6173,0.010146783
C0G890,伸港,2023-11-23,24.148933,120.484403,0.34113282
C0G900,線西,2023-11-23,24.143358,120.443536,0.21052402
C0G910,花壇,2023-11-23,24.032076,120.549461,0.0874161
C0G920,永靖,2023-11-23,23.924703,120.547533,0.18756604
C0G940,竹塘,2023-11-23,23.848253,120.386764,0.06665636
C0G950,防潮門,2023-11-23,24.1835,120.4871,0.31170332
C0G960,福寶,2023-11-23,24.0443,120.3814,0.13139074
C0G970,三豐,2023-11-23,23.882,120.2895,0.59196
C0H890,埔里,2023-11-23,23.972169,120.952425,0.68310696
C0H950,中寮,2023-11-23,23.884447,120.766406,0.019578176
C0H960,草屯,2023-11-23,23.973672,120.68085,0.09417928
C0I110,竹山,2023-11-23,23.761225,120.688156,0.016786467
C0I360,水里,2023-11-23,23.812553,120.849792,0.3258998
C0I380,集集,2023-11-23,23.828206,120.801467,0.12226322
C0I410,名間,2023-11-23,23.837053,120.701447,0.028836373
C0I420,國姓,2023-11-23,24.037803,120.855072,0.48606035
C0I460,南投,2023-11-23,23.911469,120.687331,0.023429193
C0K250,崙背,2023-11-23,23.75555,120.318925,0.034577165
C0K280,四湖,2023-11-23,23.630414,120.227125,0.11075369
C0K291,宜梧,2023-11-23,23.536281,120.169329,0.01699682
C0K330,虎尾,2023-11-23,23.719183,120.442036,0.039964993
C0K390,土庫,2023-11-23,23.679029,120.395574,0.025949758
C0K400,斗六,2023-11-23,23.720583,120.541127,0.013248898
C0K410,北港,2023-11-23,23.573957,120.292802,0.018253794
C0K420,西螺,2023-11-23,23.800407,120.467394,0.053270496
C0K430,褒忠,2023-11-23,23.690938,120.303634,0.033954278
C0K440,二崙,2023-11-23,23.772797,120.408944,0.06511698
C0K450,大埤,2023-11-23,23.646074,120.431537,0.010451041
C0K460,斗南,2023-11-23,23.678734,120.478359,0.011188214
C0K470,林內,2023-11-23,23.748675,120.609642,0.008943008
C0K480,莿桐,2023-11-23,23.761192,120.502372,0.026952494
C0K500,元長,2023-11-23,23.64981,120.315024,0.02141977
C0K510,水林,2023-11-23,23.572924,120.24597,0.016796386
C0K530,臺西,2023-11-23,23.701547,120.197559,0.14123355
C0K550,蔦松,2023-11-23,23.514319,120.229736,0.016637877
C0K560,棋山,2023-11-23,23.68645,120.603417,0.008528264
C0K580,高鐵雲林,2023-11-23,23.737456,120.417944,0.040809985
C0K590,雲林東勢,2023-11-23,23.674192,120.255721,0.022707203
C0K600,箔子寮,2023-11-23,23.6197,120.14,0.12915406
C0M410,馬頭山,2023-11-23,23.324361,120.582017,0.10485113
C0M520,東後寮,2023-11-23,23.369908,120.248065,0.012619067
C0M640,中埔,2023-11-23,23.42538,120.5229,0.0077410787
C0M650,朴子,2023-11-23,23.43463,120.23902,0.011340309
C0M660,溪口,2023-11-23,23.604131,120.403569,0.007915455
C0M670,大林,2023-11-23,23.600616,120.45841,0.0083760405
C0M680,太保,2023-11-23,23.455062,120.331455,0.00722053
C0M690,水上,2023-11-23,23.419734,120.388909,0.0073585915
C0M700,竹崎,2023-11-23,23.526178,120.555508,0.007871682
C0M710,東石,2023-11-23,23.458927,120.15385,0.02854568
C0M720,番路,2023-11-23,23.464657,120.554156,0.011741025
C0M730,嘉義市東區,2023-11-23,23.457673,120.460531,0.006249217
C0M740,六腳,2023-11-23,23.492871,120.290625,0.0134912245
C0M750,布袋,2023-11-23,23.380878,120.167789,0.012378117
C0M760,民雄,2023-11-23,23.551754,120.428457,0.008274363
C0M770,嘉義梅山,2023-11-23,23.585398,120.555587,0.008933281
C0M780,鹿草,2023-11-23,23.41134,120.30835,0.011518318
C0M790,新港,2023-11-23,23.553269,120.345728,0.017057426
C0M800,茶山,2023-11-23,23.299075,120.664767,0.8322224
C0M880,好美里,2023-11-23,23.3364,120.138,0.019357389
C0N010,鯤鯓國小,2023-11-23,23.1879,120.0889,0.030161811
C0N020,城西,2023-11-23,23.0568,120.0956,0.030754501
C0N030,四草,2023-11-23,23.0235,120.1116,0.026393343
C0N040,蘆竹溝,2023-11-23,23.2344,120.0961,0.018750515
C0N050,蚵寮,2023-11-23,23.301,120.1104,0.01758286
C0O810,曾文,2023-11-23,23.219681,120.497328,0.009754626
C0O830,北寮,2023-11-23,23.079561,120.495008,0.013103692
C0O840,王爺宮,2023-11-23,23.222064,120.40085,0.0105824545
C0O860,大內,2023-11-23,23.11885,120.36083,0.008409681
C0O900,善化,2023-11-23,23.112883,120.297219,0.008115081
C0O930,玉井,2023-11-23,23.126042,120.46055,0.007170687
C0O950,安南,2023-11-23,23.076694,120.144861,0.028511846
C0O960,崎頂,2023-11-23,22.959547,120.369317,0.009746735
C0O970,虎頭埤,2023-11-23,23.021375,120.347878,0.00878338
C0O980,新市,2023-11-23,23.061614,120.298197,0.007847779
C0O990,媽廟,2023-11-23,22.99175,120.293525,0.009693373
C0R150,三地門,2023-11-23,22.709889,120.639944,0.033128385
C0R160,鹽埔,2023-11-23,22.739558,120.530778,0.0070177107
C0R170,屏東,2023-11-23,22.660269,120.494072,0.00586354
C0R190,赤山,2023-11-23,22.592333,120.614306,0.010689687
C0R220,潮州,2023-11-23,22.534361,120.54,0.009754879
C0R240,來義,2023-11-23,22.527306,120.625111,0.011264852
C0R260,春日,2023-11-23,22.370361,120.628306,0.019188892
C0R270,琉球嶼,2023-11-23,22.332244,120.362236,0.19311513
C0R280,檳榔,2023-11-23,22.076078,120.836777,0.019787742
C0R320,車城,2023-11-23,22.0744,120.716247,0.0074688643
C0R341,牡丹,2023-11-23,22.130036,120.792639,0.01924867
C0R350,貓鼻頭,2023-11-23,21.921774,120.7358,0.0039738966
C0R470,高樹,2023-11-23,22.826389,120.600806,0.012449982
C0R480,長治,2023-11-23,22.693128,120.542622,0.013866132
C0R490,九如,2023-11-23,22.7405,120.490503,0.0069490317
C0R520,崁頂,2023-11-23,22.514781,120.506914,0.009284104
C0R540,佳冬,2023-11-23,22.419456,120.552375,0.015729962
C0R550,新埤,2023-11-23,22.467947,120.582894,0.015279434
C0R560,新園,2023-11-23,22.5434,120.461558,0.0071434155
C0R570,麟洛,2023-11-23,22.65078,120.52719,0.00586354
C0R580,南州,2023-11-23,22.48591,120.50274,0.011836055
C0R590,里港,2023-11-23,22.77919,120.49459,0.03062884
C0R620,墾雷,2023-11-23,21.900836,120.855269,0.022472493
C0R640,東港,2023-11-23,22.46247,120.44074,0.017852468
C0R650,竹田,2023-11-23,22.58486,120.54344,0.010599649
C0R660,枋寮,2023-11-23,22.367722,120.590647,0.015729949
C0R670,楓港,2023-11-23,22.190131,120.692156,0.0044860225
C0R680,佳樂水,2023-11-23,21.993578,120.861633,0.014601454
C0R690,墾丁,2023-11-23,21.966756,120.810269,0.02347869
C0R700,枋山,2023-11-23,22.246844,120.661086,0.031364862
C0R710,龍磐,2023-11-23,21.931672,120.838942,0.0081866365
C0R720,旭海,2023-11-23,22.205403,120.887614,0.07340752
C0R730,大坪頂,2023-11-23,22.024633,120.69355,0.007978151
C0R740,獅子,2023-11-23,22.201569,120.70525,0.041075215
C0R760,南仁湖,2023-11-23,22.084681,120.863353,0.019844158
C0R770,保力,2023-11-23,22.071122,120.764111,0.008598605
C0R780,滿州,2023-11-23,22.024403,120.839892,0.07611621
C0R790,九棚,2023-11-23,22.14195,120.889281,0.011568272
C0R800,丹路,2023-11-23,22.204481,120.750989,0.04774155
C0R810,內獅,2023-11-23,22.305064,120.642986,0.01605999
C0R830,高士,2023-11-23,22.121825,120.836781,0.02656569
C0R850,林邊,2023-11-23,22.4634,120.5339,0.015439165
C0R860,鼻頭,2023-11-23,22.1043,120.8979,0.017792204
C0R870,興海,2023-11-23,21.9752,120.8439,0.014248736
C0R880,後壁湖,2023-11-23,21.9457,120.7457,0.0062929103
C0R890,山海,2023-11-23,21.9878,120.7091,0.0062608183
C0R900,竹坑,2023-11-23,22.1385,120.7022,0.007395586
C0R910,下寮,2023-11-23,22.3929,120.5548,0.015729962
C0R920,塭仔,2023-11-23,22.4169,120.5197,0.017500954
C0R930,萬丹,2023-11-23,22.5885,120.4851,0.0061894287
C0R940,加祿堂,2023-11-23,22.3363,120.6217,0.006086461
C0S710,鹿野,2023-11-23,22.917711,121.122994,0.505383
C0S730,綠島,2023-11-23,22.6672,121.47533,0.2104976
C0S740,池上,2023-11-23,23.119628,121.209469,0.80917346
C0S770,大溪山,2023-11-23,22.478475,120.943325,0.08850817
C0S790,金崙,2023-11-23,22.538122,120.966875,0.052810993
C0S810,東河,2023-11-23,22.972672,121.303986,0.006653805
C0S830,長濱,2023-11-23,23.286817,121.411975,0.645464
C0S840,南田,2023-11-23,22.279725,120.889208,0.10655446
C0S890,關山,2023-11-23,23.0395,121.175017,0.82995015
C0S900,蘭嶼高中,2023-11-23,22.04909,121.51214,0.18260448
C0S910,蘭嶼燈塔,2023-11-23,22.081197,121.503117,0.21728058
C0S920,金峰嘉蘭,2023-11-23,22.594789,120.960825,0.49017772
C0S930,延平,2023-11-23,22.902581,121.084058,0.63748723
C0S940,石寧山,2023-11-23,23.223772,121.406639,0.7114994
C0S950,七塊厝,2023-11-23,22.954453,121.229922,0.5983283
C0S960,香蘭,2023-11-23,22.587569,120.993375,0.023823904
C0S970,加津林,2023-11-23,22.416211,120.926942,0.045595687
C0S990,山豬窟,2023-11-23,22.318619,120.857372,0.053905882
C0SA00,歷坵,2023-11-23,22.520969,120.89185,0.76296157
C0SA10,檳榔四格山,2023-11-23,22.810031,121.109308,0.019809615
C0SA30,都歷,2023-11-23,23.020333,121.323642,0.0154039925
C0SA40,瑞和,2023-11-23,22.974361,121.156697,0.36403847
C0SA60,知本（水試所）,2023-11-23,22.702394,121.082761,0.023529548
C0SA80,土坂,2023-11-23,22.453108,120.887572,0.6270374
C0SA90,達仁林場,2023-11-23,22.264347,120.823972,0.007456495
C0T870,鯉魚潭,2023-11-23,23.935639,121.508944,0.55363953
C0T900,西林,2023-11-23,23.8119,121.441458,0.70199275
C0T960,光復,2023-11-23,23.660694,121.424964,0.8502867
C0T9A0,月眉山,2023-11-23,23.809928,121.539828,0.095550805
C0T9D0,和中,2023-11-23,24.26676,121.74103,0.63037986
C0T9E0,大坑,2023-11-23,23.880628,121.581981,0.2210728
C0T9F0,水璉,2023-11-23,23.797131,121.542514,0.4022728
C0T9I0,豐濱,2023-11-23,23.583897,121.514806,0.784712
C0T9M0,靜浦,2023-11-23,23.455167,121.495028,0.7126334
C0T9N0,富里,2023-11-23,23.171639,121.249378,0.5138966
C0U600,礁溪,2023-11-23,24.817539,121.765608,0.76814467
C0U650,玉蘭,2023-11-23,24.675286,121.587061,0.18371342
C0U750,龜山島,2023-11-23,24.841667,121.953133,0.98195887
C0U760,東澳,2023-11-23,24.52196,121.83318,0.09486185
C0U770,南澳,2023-11-23,24.44935,121.81022,0.5288648
C0U780,五結,2023-11-23,24.68637,121.79794,0.40895647
C0U860,頭城,2023-11-23,24.85323,121.8308,0.8148626
C0U870,大礁溪,2023-11-23,24.791042,121.675047,0.1474118
C0U880,北關,2023-11-23,24.9072,121.8734,0.78852123
C0U890,三星,2023-11-23,24.66812,121.65302,0.08278706
C0U900,內城,2023-11-23,24.71813,121.68766,0.3908239
C0U910,冬山,2023-11-23,24.63373,121.7937,0.035056446
C0U940,羅東,2023-11-23,24.68184,121.74934,0.39332864
C0U970,大福,2023-11-23,24.80064,121.81389,0.8001844
C0U990,員山,2023-11-23,24.74435,121.72247,0.3906737
C0UA00,土場,2023-11-23,24.576533,121.495333,0.27486244
C0UA80,大溪漁港,2023-11-23,24.941801,121.902955,0.6296862
C0UA90,石城,2023-11-23,24.980444,121.951214,0.49161822
C0UB00,淡江大學蘭陽校園,2023-11-23,24.823239,121.730383,0.37500256
C0UB10,蘇澳,2023-11-23,24.5969,121.8571,0.059365682
C0UB20,壯圍,2023-11-23,24.7359,121.8163,0.48893648
C0V250,甲仙,2023-11-23,23.080106,120.591758,0.03157171
C0V260,月眉,2023-11-23,22.971003,120.539853,0.027947914
C0V310,美濃,2023-11-23,22.898742,120.519153,0.016375199
C0V350,溪埔,2023-11-23,22.738578,120.446797,0.014079491
C0V360,內門,2023-11-23,22.975481,120.466769,0.029135821
C0V370,古亭坑,2023-11-23,22.893178,120.401947,0.014764043
C0V400,阿公店,2023-11-23,22.804194,120.355528,0.012927877
C0V440,鳳山,2023-11-23,22.646653,120.356122,0.011659585
C0V450,鳳森,2023-11-23,22.545064,120.392592,0.007400285
C0V490,新興,2023-11-23,22.627422,120.298803,0.018507587
C0V530,阿蓮,2023-11-23,22.883208,120.327508,0.0066329734
C0V610,梓官,2023-11-23,22.760558,120.267211,0.016376168
C0V620,永安,2023-11-23,22.82315,120.236856,0.0080466885
C0V630,茄萣,2023-11-23,22.906642,120.182608,0.022212913
C0V640,湖內,2023-11-23,22.887139,120.2445,0.021475265
C0V650,彌陀,2023-11-23,22.783806,120.246361,0.0080466885
C0V660,岡山,2023-11-23,22.797078,120.294958,0.0075433566
C0V680,仁武,2023-11-23,22.701083,120.347722,0.011260806
C0V690,鼓山,2023-11-23,22.623325,120.275575,0.025034485
C0V700,三民,2023-11-23,22.645017,120.311233,0.011672765
C0V710,苓雅,2023-11-23,22.622742,120.330669,0.017596474
C0V720,林園,2023-11-23,22.507747,120.394511,0.008791392
C0V730,大寮,2023-11-23,22.605614,120.395717,0.017273655
C0V740,旗山,2023-11-23,22.888614,120.483597,0.017109888
C0V750,路竹,2023-11-23,22.854997,120.259439,0.020189593
C0V760,橋頭,2023-11-23,22.757806,120.30575,0.014659246
C0V770,大社,2023-11-23,22.730306,120.346639,0.013959012
C0V790,萬山,2023-11-23,22.905944,120.688056,0.7782802
C0V800,六龜,2023-11-23,22.997889,120.633583,0.26983994
C0V810,左營,2023-11-23,22.67491,120.28491,0.011672765
C0V820,小林,2023-11-23,23.148408,120.63325,0.4765163
C0V840,鳳鼻頭,2023-11-23,22.5083,120.3591,0.008766449
C0V850,蚵仔寮,2023-11-23,22.7256,120.2527,0.015899623
C0V860,南寮,2023-11-23,22.7616,120.2339,0.015899623
C0V870,文安,2023-11-23,22.8025,120.2164,0.010749975
C0V880,興達,2023-11-23,22.8778,120.2127,0.022212913
C0V890,前鎮,2023-11-23,22.5718,120.3117,0.019842664
C0V900,汕尾,2023-11-23,22.4782,120.4151,0.012615181
C0X050,東河,2023-11-23,23.296598,120.385608,0.006422556
C0X060,下營,2023-11-23,23.22695,120.256261,0.012246702
C0X080,佳里,2023-11-23,23.173039,120.145086,0.02093473
C0X100,臺南市北區,2023-11-23,23.010394,120.194228,0.02509632
C0X110,臺南市南區,2023-11-23,22.961189,120.188378,0.011606171
C0X120,麻豆,2023-11-23,23.183289,120.248611,0.014354062
C0X130,官田,2023-11-23,23.193217,120.315422,0.007028405
C0X140,西港,2023-11-23,23.125608,120.203108,0.030593863
C0X150,安定,2023-11-23,23.102614,120.227839,0.030973477
C0X160,仁德,2023-11-23,22.968258,120.257689,0.012074312
C0X170,關廟,2023-11-23,22.963017,120.327797,0.008056221
C0X180,山上,2023-11-23,23.0757,120.363253,0.007783781
C0X190,安平,2023-11-23,22.993161,120.152181,0.027689585
C0X200,左鎮,2023-11-23,23.056758,120.408522,0.008123292
C0X210,白河,2023-11-23,23.347466,120.414427,0.006006351
C0X220,學甲,2023-11-23,23.230367,120.182187,0.020908339
C0X230,鹽水,2023-11-23,23.272621,120.247641,0.015805516
C0X240,關子嶺,2023-11-23,23.331169,120.508025,0.18215278
C0X250,新營,2023-11-23,23.310689,120.316681,0.01532811
C0X260,後壁,2023-11-23,23.366358,120.362326,0.008447795
C0X280,將軍,2023-11-23,23.214999,120.13577,0.018634565
C0X290,北門,2023-11-23,23.267772,120.125481,0.018750515
C0X300,鹿寮,2023-11-23,23.386047,120.477331,0.0064238706
C0X310,七股,2023-11-23,23.147289,120.086253,0.026550224
C0X320,柳營,2023-11-23,23.253328,120.375253,0.007116572
C0Z020,明里,2023-11-23,23.208717,121.262342,0.37453237
C0Z061,玉里,2023-11-23,23.3215,121.339656,0.86202323
C0Z070,舞鶴,2023-11-23,23.46811,121.37407,0.8515541
C0Z080,富源,2023-11-23,23.587642,121.378225,0.39949417
C0Z100,東華,2023-11-23,23.89525,121.549833,0.73363024
C0Z150,吉安光華,2023-11-23,23.930925,121.595153,0.78615445
C0Z160,鳳林,2023-11-23,23.746114,121.453411,0.8115749
C0Z170,卓溪,2023-11-23,23.3443,121.3029,0.8519371
C0Z180,新城,2023-11-23,24.03946,121.60454,0.6590351
C0Z190,富世,2023-11-23,24.14743,121.6297,0.65103257
C0Z200,萬榮,2023-11-23,23.709219,121.420106,0.8207801
C0Z210,瑞穗,2023-11-23,23.5239,121.39021,0.8716761
C0Z230,和平,2023-11-23,24.30717,121.77007,0.7115828
C0Z270,蕃薯寮,2023-11-23,23.73835,121.540108,0.40463465
C0Z280,德武,2023-11-23,23.47426,121.41071,0.8342664
C0Z300,東里,2023-11-23,23.26853,121.30547,0.78257674
C0Z310,清水斷崖,2023-11-23,24.218294,121.689142,0.1156818
C0Z330,安通山,2023-11-23,23.290728,121.348528,0.28590798
CAG100,王功漁港,2023-11-23,23.96824,120.32586,0.48593432
CAH030,茶改場竹圍站,2023-11-23,23.860083,120.637528,0.06103393
CAJ050,海口故事園區,2023-11-23,23.57543,120.14121,0.12915406
CAL110,布袋國中,2023-11-23,23.35893,120.18026,0.012548967
CAN130,水試所海水繁養殖中心,2023-11-23,23.120802,120.07968,0.03037941
CAN140,六官養殖協會,2023-11-23,23.22881,120.29962,0.012684021
CAQ030,崎峰國小,2023-11-23,22.42565,120.49521,0.013919583
E2K600,四湖植物園,2023-11-23,23.676986,120.163433,0.11516062
E2P980,林試六龜中心,2023-11-23,22.991703,120.645722,0.3018928
E2S960,林試太麻里2,2023-11-23,22.598014,120.989761,0.023823904
E2S980,林試太麻里1,2023-11-23,22.598922,120.980044,0.033691563
G2AI50,關渡,2023-11-23,25.11575,121.492,0.025872245
G2F820,農業試驗所,2023-11-23,24.031261,120.688133,0.054816023
G2F820,農試所(霧峰),2023-11-23,24.031261,120.688133,0.05481597
G2L020,農試嘉義分所,2023-11-23,23.485028,120.473806,0.006508881
G2M350,農試溪口農場,2023-11-23,23.58565,120.408111,0.007902037
G2P820,農試鳳山分所,2023-11-23,22.646611,120.356083,0.011659585
K2E360,苗栗農改,2023-11-23,24.495722,120.829111,0.7634505
K2E360,苗栗農改場,2023-11-23,24.495722,120.829111,0.7634505
K2E710,苗改生物防治研究中心,2023-11-23,24.422861,120.871833,0.41892472
K2F750,種苗改良場,2023-11-23,24.225972,120.800917,0.5604826
K2F750,種苗繁殖,2023-11-23,24.225972,120.800917,0.56048244
U2HA50,臺大竹山,2023-11-23,23.756972,120.681556,0.014191227
V2C250,八德合作社,2023-11-23,24.93775,121.266389,0.49694046
V2C260,八德蔬果,2023-11-23,24.978508,121.281819,0.6350226
V2K610,大庄合作社,2023-11-23,23.8068,120.367939,0.05684666
V2K620,麥寮合作社,2023-11-23,23.753836,120.294783,0.034577165
