站號,站名,日期,lat,lon,BlastGRU-TW
466881,新北,2023-03-09,24.9593,121.52,0.00036416698
466900,淡水,2023-03-09,25.164889,121.448906,0.00029268643
466920,臺北,2023-03-09,25.037658,121.514853,0.00036699692
467441,高雄,2023-03-09,22.7304,120.3125,0.0071995966
467480,嘉義,2023-03-09,23.495925,120.432906,0.00060211966
467490,臺中,2023-03-09,24.145736,120.684075,0.0005019148
C0A540,四堵,2023-03-09,24.8926,121.745736,0.00032646692
C0A550,泰平,2023-03-09,24.971197,121.823711,0.00046082883
C0A560,福山,2023-03-09,24.776203,121.502811,0.00054807425
C0A931,三和,2023-03-09,25.233153,121.595236,0.00073552795
C0A940,金山,2023-03-09,25.223628,121.643967,0.0003165374
C0A950,鼻頭角,2023-03-09,25.129036,121.923372,0.0022812136
C0AD10,八里,2023-03-09,25.150211,121.403947,0.00029242146
C0AD30,蘆洲,2023-03-09,25.086594,121.472331,0.0003124427
C0AD40,土城,2023-03-09,24.973208,121.445169,0.00031199533
C0AI10,屈尺,2023-03-09,24.92184,121.54475,0.0003595412
C0AI20,白沙灣,2023-03-09,25.283128,121.519058,0.00032241835
C0AI30,三重,2023-03-09,25.057328,121.500629,0.0003124427
C0B010,七堵,2023-03-09,25.094819,121.71713,0.0005629736
C0B020,基隆嶼,2023-03-09,25.19141,121.78391,0.0006566497
