站號,站名,日期,lat,lon,BlastGRU-TW
466881,新北,2023-06-27,24.9593,121.52,0.11071249
466900,淡水,2023-06-27,25.164889,121.448906,0.26855025
466920,臺北,2023-06-27,25.037658,121.514853,0.09759224
467350,澎湖,2023-06-27,23.565503,119.563094,0.66285753
467410,臺南,2023-06-27,22.993239,120.204772,0.097735226
467420,永康,2023-06-27,23.038386,120.2367,0.09537569
467790,墾丁雷達站,2023-06-27,21.948235,120.808028,0.4670387
C0A520,山佳,2023-06-27,24.974944,121.402008,0.19595075
C0A530,坪林,2023-06-27,24.938183,121.70975,0.76772314
C0A880,福隆,2023-06-27,25.017842,121.942083,0.060736187
C0A890,雙溪,2023-06-27,25.036003,121.864242,0.103566244
C0A920,富貴角,2023-06-27,25.263783,121.565258,0.5155793
C0AC80,文山,2023-06-27,25.00235,121.575728,0.14048441
C0ACA0,新莊,2023-06-27,25.051478,121.446756,0.13341403
C0AD00,三芝,2023-06-27,25.258131,121.501917,0.45284322
C0AH70,松山,2023-06-27,25.04871,121.55042,0.09759224
C0AH80,深坑,2023-06-27,25.002703,121.628328,0.14048441
C0AI00,五股,2023-06-27,25.07445,121.42728,0.83902425
C0AJ70,田寮,2023-06-27,25.2698,121.4886,0.22194344
