站號,站名,日期,lat,lon,BLBTSLS
C0R710,龍磐,2024-12-12,21.931672,120.838942,0.63489723
C1F9D1,白毛台,2024-12-12,24.158325,120.886933,4.242962e-10
C0G940,竹塘,2024-12-12,23.848253,120.386764,2.4833682e-09
467590,恆春,2024-12-12,22.003897,120.746339,0.12731564
C1O850,環湖,2024-12-12,23.148617,120.418633,2.0073678e-09
C0U710,太平山,2024-12-12,24.505486,121.525656,1.8839078e-08
C0E820,獅潭,2024-12-12,24.539133,120.920042,4.3557793e-09
C0V880,興達,2024-12-12,22.8778,120.2127,2.0198161e-08
C0S890,關山,2024-12-12,23.0395,121.175017,1.0116422e-09
K2F750,種苗繁殖,2024-12-12,24.225972,120.800917,1.5621919e-09
C1Z130,銅門,2024-12-12,23.965694,121.492842,1.2682309e-08
C0AD40,土城,2024-12-12,24.973208,121.445169,0.00032157448
CAN140,六官養殖協會,2024-12-12,23.22881,120.29962,5.3098037e-09
C0X180,山上,2024-12-12,23.0757,120.363253,1.4362957e-09
C0F9Z0,雪山東峰,2024-12-12,24.388792,121.268675,1.1174672e-08
C1M480,獨立山,2024-12-12,23.537022,120.607797,1.0731537e-09
C0X220,學甲,2024-12-12,23.230367,120.182187,8.888937e-10
C0R170,屏東,2024-12-12,22.660269,120.494072,1.3158782e-05
467650,日月潭,2024-12-12,23.881325,120.90805,1.0935894e-09
C0K600,箔子寮,2024-12-12,23.6197,120.14,0.18151094
C0G830,埤頭,2024-12-12,23.866003,120.452806,2.9657976e-09
C0S950,七塊厝,2024-12-12,22.954453,121.229922,1.4228831e-09
467110,金門,2024-12-12,24.407306,118.289281,0.5531735
C0AH80,深坑,2024-12-12,25.002703,121.628328,6.482125e-05
467990,馬祖,2024-12-12,26.169269,119.923419,0.41328505
C0A970,三貂角,2024-12-12,25.007606,122.002058,5.9551347e-08
C0K430,褒忠,2024-12-12,23.690938,120.303634,2.1039723e-09
467480,嘉義,2024-12-12,23.495925,120.432906,3.041353e-08
C2E540,後龍,2024-12-12,24.606489,120.783933,0.015206078
C0V400,阿公店,2024-12-12,22.804194,120.355528,1.0099847e-08
C0R440,大漢山,2024-12-12,22.405264,120.753181,1.1045051e-08
C0K280,四湖,2024-12-12,23.630414,120.227125,0.021052008
C1F9B1,桐林,2024-12-12,24.066172,120.735194,1.9567682e-07
C0K390,土庫,2024-12-12,23.679029,120.395574,6.093087e-09
C1I450,望鄉山,2024-12-12,23.594153,120.944286,7.027414e-09
C0E910,海埔,2024-12-12,24.648767,120.772435,0.018982068
B2E890,畜試北區分所,2024-12-12,24.527806,120.770972,1.2129343e-08
C0R750,四林格山,2024-12-12,22.076989,120.802439,0.95270085
C0F0C0,中坑,2024-12-12,24.248517,120.903319,5.5029215e-10
C1I121,大鞍,2024-12-12,23.678381,120.760017,1.6244722e-09
72U480,花改蘭陽分場,2024-12-12,24.686306,121.716583,5.067134e-09
C0A770,科教館,2024-12-12,25.096356,121.516507,1.2239272e-07
C0AJ60,六塊厝,2024-12-12,25.24,121.4481,0.9526105
C0R620,墾雷,2024-12-12,21.900836,120.855269,0.96603274
467420,永康,2024-12-12,23.038386,120.2367,5.3660035e-05
467300,東吉島,2024-12-12,23.25695,119.667467,0.9978678
C0I410,名間,2024-12-12,23.837053,120.701447,7.405583e-10
A2C560,農工中心,2024-12-12,24.985917,121.239833,0.36105973
C0V740,旗山,2024-12-12,22.888614,120.483597,3.3212586e-08
C0Z061,玉里,2024-12-12,23.3215,121.339656,2.3677895e-09
C0S840,南田,2024-12-12,22.279725,120.889208,0.18645671
C1I470,杉林溪,2024-12-12,23.639517,120.786444,2.0220585e-09
C1X040,東原,2024-12-12,23.291597,120.463822,1.3140882e-09
C0R660,枋寮,2024-12-12,22.367722,120.590647,2.5317026e-05
C1R120,上德文,2024-12-12,22.763272,120.704442,5.430165e-10
C0K450,大埤,2024-12-12,23.646074,120.431537,2.4046559e-08
C0UA00,土場,2024-12-12,24.576533,121.495333,5.4758193e-08
467080,宜蘭,2024-12-12,24.763975,121.756528,5.4233777e-09
C0N030,四草,2024-12-12,23.0235,120.1116,4.046233e-09
C0V650,彌陀,2024-12-12,22.783806,120.246361,1.5257522e-05
C0D660,新竹市東區,2024-12-12,24.798681,120.986942,0.013393214
82S580,茶改東部分場,2024-12-12,22.907694,121.130139,8.104821e-05
C0C710,大溪永福,2024-12-12,24.892936,121.324975,0.0036438121
C0FA20,溫寮,2024-12-12,24.372177,120.583125,0.18081996
C0V640,湖內,2024-12-12,22.887139,120.2445,1.7320815e-08
C0R910,下寮,2024-12-12,22.3929,120.5548,2.5317026e-05
C0Z020,明里,2024-12-12,23.208717,121.262342,1.7406648e-09
C0M770,嘉義梅山,2024-12-12,23.585398,120.555587,8.073531e-06
G2F820,農業試驗所,2024-12-12,24.031261,120.688133,1.5201733e-09
C0C660,楊梅,2024-12-12,24.912375,121.143047,0.19030665
C1E511,新開,2024-12-12,24.347703,120.827019,6.167589e-10
G2F820,農試所(霧峰),2024-12-12,24.031261,120.688133,1.5201733e-09
C1I070,和社,2024-12-12,23.591131,120.888861,4.066954e-09
C2F000,大肚,2024-12-12,24.15295,120.572117,8.299016e-07
C1S850,豐南,2024-12-12,23.122139,121.262389,7.415449e-10
C2A920,富貴角,2024-12-12,25.263783,121.565258,0.123835795
CAH030,茶改場竹圍站,2024-12-12,23.860083,120.637528,4.494061e-10
C0T960,光復,2024-12-12,23.660694,121.424964,2.6658205e-09
C0F9M0,豐原,2024-12-12,24.254322,120.720692,9.361248e-10
C0R720,旭海,2024-12-12,22.205403,120.887614,0.7253583
C0V710,苓雅,2024-12-12,22.622742,120.330669,0.020604683
C0C740,觀音工業區,2024-12-12,25.064764,121.114856,0.97504395
CAC040,拉拉山,2024-12-12,24.699317,121.427133,5.0080256e-08
C0V790,萬山,2024-12-12,22.905944,120.688056,5.4474118e-08
U2HA30,臺大和社,2024-12-12,23.590856,120.888864,4.066954e-09
C0AJ90,澳底,2024-12-12,25.0552,121.9253,7.604017e-08
C0Z100,東華,2024-12-12,23.89525,121.549833,8.915294e-09
C0G970,三豐,2024-12-12,23.882,120.2895,0.19808568
V2K610,大庄合作社,2024-12-12,23.8068,120.367939,1.9413298e-09
C0V900,汕尾,2024-12-12,22.4782,120.4151,2.3869486e-08
C1R630,龍泉,2024-12-12,22.66701,120.59091,0.10860932
C1AC50,關渡,2024-12-12,25.133486,121.469331,5.721614e-08
C0F9I0,神岡,2024-12-12,24.272481,120.658314,1.2953745e-09
C0K460,斗南,2024-12-12,23.678734,120.478359,2.0694152e-08
467410,臺南,2024-12-12,22.993239,120.204772,2.60025e-09
C2O810,曾文,2024-12-12,23.219681,120.497328,2.2108397e-09
467280,後龍,2024-12-12,24.648563,120.831834,0.011685507
C1F9J1,清水林,2024-12-12,24.071242,120.820419,4.6451804e-10
C2A650,火燒寮,2024-12-12,25.002719,121.742892,3.4301788e-08
466930,竹子湖,2024-12-12,25.162078,121.544547,8.8594225e-09
C1I220,樟湖,2024-12-12,23.905333,120.846983,7.390033e-10
C0I390,仁愛,2024-12-12,24.022122,121.132206,8.4292906e-10
C0Z300,東里,2024-12-12,23.26853,121.30547,1.9809525e-09
C0V310,美濃,2024-12-12,22.898742,120.519153,4.3226507e-08
C1V590,新發,2024-12-12,23.057019,120.646064,2.065916e-09
C0K510,水林,2024-12-12,23.572924,120.24597,2.375911e-08
72S590,東改賓朗果園,2024-12-12,22.813889,121.071278,0.0015073789
82A750,茶改北部分場,2024-12-12,24.955778,121.631222,3.340812e-07
C1A750,石碇服務區,2024-12-12,25.00872,121.646242,2.5442384e-06
C0X300,鹿寮,2024-12-12,23.386047,120.477331,6.0367515e-09
G2AI50,關渡,2024-12-12,25.11575,121.492,0.9374622
C0K590,雲林東勢,2024-12-12,23.674192,120.255721,3.8926795e-09
C0A570,桶後,2024-12-12,24.848222,121.597992,3.5219333e-08
C1S800,華源,2024-12-12,22.657883,121.02325,1.4736506e-08
C0G720,溪州,2024-12-12,23.851589,120.499093,2.5919709e-09
C1V160,達卡努瓦,2024-12-12,23.279811,120.705319,8.438685e-10
C2M410,馬頭山,2024-12-12,23.324361,120.582017,9.499476e-10
C0V850,蚵仔寮,2024-12-12,22.7256,120.2527,0.0043012337
C0S740,池上,2024-12-12,23.119628,121.209469,1.3139903e-07
C1V390,尖山,2024-12-12,22.813153,120.367789,5.8214544e-09
C0AH70,松山,2024-12-12,25.04871,121.55042,1.1333237e-07
C0N010,鯤鯓國小,2024-12-12,23.1879,120.0889,1.412734e-09
C0R550,新埤,2024-12-12,22.467947,120.582894,1.3488614e-08
C0SA60,知本（水試所）,2024-12-12,22.702394,121.082761,2.430451e-07
C0T9I0,豐濱,2024-12-12,23.583897,121.514806,3.820899e-09
C0UB00,淡江大學蘭陽校園,2024-12-12,24.823239,121.730383,3.012607e-08
C0T9N0,富里,2024-12-12,23.171639,121.249378,6.8912285e-09
U2HA50,臺大竹山,2024-12-12,23.756972,120.681556,1.8547837e-06
C0V840,鳳鼻頭,2024-12-12,22.5083,120.3591,2.220366e-08
C0X140,西港,2024-12-12,23.125608,120.203108,2.2192566e-08
72D080,桃改五峰分場,2024-12-12,24.612194,121.157167,1.2395113e-09
C0V530,阿蓮,2024-12-12,22.883208,120.327508,3.8269383e-09
C1O880,關山,2024-12-12,23.173397,120.594092,5.2117505e-10
C0E791,卓蘭,2024-12-12,24.3126,120.8244,6.0816824e-10
C1I030,武界,2024-12-12,23.913225,121.052483,6.3464967e-10
C0R520,崁頂,2024-12-12,22.514781,120.506914,6.8839405e-08
C0R341,牡丹,2024-12-12,22.130036,120.792639,0.7932379
C0R930,萬丹,2024-12-12,22.5885,120.4851,3.0568194e-06
C0S760,紅石,2024-12-12,23.069131,121.126219,6.540969e-09
C1M610,石磐龍,2024-12-12,23.496606,120.663506,6.1035527e-10
C0UA10,鴛鴦湖,2024-12-12,24.590269,121.412228,5.9605294e-09
V2C260,八德蔬果,2024-12-12,24.978508,121.281819,0.0024562364
C0R800,丹路,2024-12-12,22.204481,120.750989,0.3006536
C0G920,永靖,2024-12-12,23.924703,120.547533,1.900447e-09
C1A630,下盆,2024-12-12,24.771003,121.538622,1.934574e-08
B2N890,畜產試驗所,2024-12-12,23.058972,120.336406,1.3761292e-08
C0UA30,白嶺,2024-12-12,24.527819,121.519031,1.830804e-08
C1V580,溪南(特生中心),2024-12-12,23.084972,120.788475,1.2371941e-09
C1T970,大農,2024-12-12,23.615233,121.413331,2.567438e-09
E2S960,林試太麻里2,2024-12-12,22.598014,120.989761,8.851495e-06
C0R650,竹田,2024-12-12,22.58486,120.54344,0.00035577457
C1H900,清流,2024-12-12,24.080775,120.962997,4.4016524e-10
C1C510,水尾,2024-12-12,24.940081,121.087161,0.1582578
C0F9X0,大雅(中科園區),2024-12-12,24.21528,120.62445,2.4867107e-08
C0O970,虎頭埤,2024-12-12,23.021375,120.347878,2.2553048e-09
C0C730,中大臨海站,2024-12-12,24.966126,121.008581,0.8504606
C0X250,新營,2024-12-12,23.310689,120.316681,6.9686843e-09
C0V700,三民,2024-12-12,22.645017,120.311233,0.0006377003
C0U870,大礁溪,2024-12-12,24.791042,121.675047,1.9860343e-08
C0E870,高鐵苗栗,2024-12-12,24.60725,120.826094,0.014654116
A2K570,古坑花卉中心,2024-12-12,23.63353,120.55239,0.0002770424
C0M860,新美,2024-12-12,23.338017,120.683169,8.351865e-10
C1E701,八卦,2024-12-12,24.491756,120.927619,1.6563919e-09
C0I420,國姓,2024-12-12,24.037803,120.855072,4.6332346e-10
C0S960,香蘭,2024-12-12,22.587569,120.993375,8.851495e-06
C0R260,春日,2024-12-12,22.370361,120.628306,1.0259472e-06
72G600,臺中農改場,2024-12-12,24.003028,120.534389,2.5399476e-09
C0Z210,瑞穗,2024-12-12,23.5239,121.39021,1.905366e-08
C0M820,達邦,2024-12-12,23.453994,120.749517,5.892534e-10
C0V860,南寮,2024-12-12,22.7616,120.2339,0.0043012337
C0G740,大城,2024-12-12,23.852487,120.320935,0.12977567
C0R920,塭仔,2024-12-12,22.4169,120.5197,5.0130096e-05
C0R470,高樹,2024-12-12,22.826389,120.600806,9.839042e-06
C0R680,佳樂水,2024-12-12,21.993578,120.861633,0.356589
C1O870,大棟山,2024-12-12,23.31157,120.52226,1.3956123e-09
C0D360,梅花,2024-12-12,24.678347,121.208558,4.1101718e-09
C0Z190,富世,2024-12-12,24.14743,121.6297,1.9747125e-07
C0AI10,屈尺,2024-12-12,24.92184,121.54475,0.000106879095
B2U990,畜試東區分所,2024-12-12,24.669039,121.832561,5.811359e-09
C0R240,來義,2024-12-12,22.527306,120.625111,1.2047951e-08
C1R610,西大武山,2024-12-12,22.617719,120.7322,1.1801455e-08
C0G900,線西,2024-12-12,24.143358,120.443536,0.00035640498
C0M700,竹崎,2024-12-12,23.526178,120.555508,1.1461905e-08
C2E880,三義,2024-12-12,24.405478,120.749819,8.1148466e-10
C0C720,竹圍,2024-12-12,25.112692,121.239824,0.93779385
C0F9P0,清水,2024-12-12,24.312297,120.562242,0.06380725
C0Z150,吉安光華,2024-12-12,23.930925,121.595153,5.7940298e-08
C1D640,外坪(五指山),2024-12-12,24.644447,121.090961,8.1250223e-10
C0F9O0,潭子,2024-12-12,24.213106,120.703933,4.3997495e-09
72T250,花蓮農改場,2024-12-12,23.975222,121.563889,1.436589e-05
C0E780,銅鑼,2024-12-12,24.489681,120.790853,5.340284e-09
C1T950,太安,2024-12-12,23.666719,121.370128,1.0334449e-08
C0E830,苑裡,2024-12-12,24.439714,120.653053,0.10041837
467270,田中,2024-12-12,23.873803,120.581286,2.8940244e-09
C0SA10,檳榔四格山,2024-12-12,22.810031,121.109308,5.024353e-05
C1T830,布洛灣,2024-12-12,24.17184,121.57127,2.9957953e-08
C0F970,大坑,2024-12-12,24.173142,120.722289,0.0002105417
C1U920,思源,2024-12-12,24.393125,121.347214,9.534424e-09
C0A931,三和,2024-12-12,25.233153,121.595236,1.09330045e-07
C0I010,廬山,2024-12-12,24.033311,121.181808,1.3135469e-09
C0R860,鼻頭,2024-12-12,22.1043,120.8979,0.21016894
C0UB20,壯圍,2024-12-12,24.7359,121.8163,5.205276e-09
C0R790,九棚,2024-12-12,22.14195,120.889281,0.33151573
C0W110,東莒,2024-12-12,25.9652,119.98069,0.9836719
C1U930,粉鳥林,2024-12-12,24.497088,121.842479,1.1025498e-08
C1I211,蘆竹湳,2024-12-12,23.934019,120.811994,5.876103e-10
C0S830,長濱,2024-12-12,23.286817,121.411975,1.7322985e-09
C1F9F1,伯公龍,2024-12-12,24.272392,120.849047,1.2247948e-09
C0E810,西湖,2024-12-12,24.562947,120.7485,0.5707644
C1I440,新高口,2024-12-12,23.478744,120.878939,3.9125316e-09
C0O840,王爺宮,2024-12-12,23.222064,120.40085,3.792228e-09
C0T9G0,鳳林山,2024-12-12,23.735269,121.420131,1.910547e-09
C0X080,佳里,2024-12-12,23.173039,120.145086,1.412734e-09
C0Z310,清水斷崖,2024-12-12,24.218294,121.689142,1.2092107e-08
C0M680,太保,2024-12-12,23.455062,120.331455,1.42690615e-08
C1S820,金峰,2024-12-12,22.590969,120.933236,3.1978697e-08
C0AD10,八里,2024-12-12,25.150211,121.403947,0.93779385
C2K240,草嶺,2024-12-12,23.59555,120.693461,6.2123234e-10
C1SA70,都蘭,2024-12-12,22.87794,121.226881,0.020901794
C0K440,二崙,2024-12-12,23.772797,120.408944,1.5767464e-09
C1A760,坪林交控,2024-12-12,24.94284,121.713442,8.906137e-08
C0F9N0,大里,2024-12-12,24.092464,120.701378,1.17069e-06
C0SA90,達仁林場,2024-12-12,22.264347,120.823972,0.8897961
C1R290,石門山,2024-12-12,22.112611,120.756597,0.96438915
42HA10,萬大發電廠,2024-12-12,23.978875,121.139639,7.306222e-10
C0R890,山海,2024-12-12,21.9878,120.7091,0.8742788
C0T9A0,月眉山,2024-12-12,23.809928,121.539828,2.1576534e-09
C0AC70,信義,2024-12-12,25.037822,121.564597,1.1333237e-07
C0K560,棋山,2024-12-12,23.68645,120.603417,0.00014982269
C1Z240,中平林道,2024-12-12,23.42115,121.26763,9.018183e-09
U2H480,溪頭,2024-12-12,23.670306,120.798194,6.5768824e-10
C0M880,好美里,2024-12-12,23.3364,120.138,1.0888129e-09
C0T9E0,大坑,2024-12-12,23.880628,121.581981,3.4556957e-09
C0K530,臺西,2024-12-12,23.701547,120.197559,0.011060027
C1E900,國一N128K,2024-12-12,24.560997,120.844186,9.7018e-07
C0AJ50,水湳洞,2024-12-12,25.123695,121.862238,3.3007285e-07
C0AI20,白沙灣,2024-12-12,25.283128,121.519058,0.9425998
C0A860,大坪,2024-12-12,25.165914,121.632969,1.0424784e-08
C1U850,觀音海岸,2024-12-12,24.38319,121.77856,7.575164e-09
C0U950,鶯子嶺,2024-12-12,24.89754,121.79244,4.3252488e-08
C0O900,善化,2024-12-12,23.112883,120.297219,2.267547e-08
C0K550,蔦松,2024-12-12,23.514319,120.229736,1.9518515e-07
E2P980,林試六龜中心,2024-12-12,22.991703,120.645722,8.551881e-10
C0E590,通霄,2024-12-12,24.471892,120.704622,0.046912376
C1I310,西巒,2024-12-12,23.754486,120.883956,1.0420584e-09
C0A550,泰平,2024-12-12,24.971197,121.823711,1.0631148e-07
C0I360,水里,2024-12-12,23.812553,120.849792,1.3777989e-09
C0R830,高士,2024-12-12,22.121825,120.836781,0.96020764
C1I101,溪頭,2024-12-12,23.661789,120.807647,4.823082e-09
C0AJ20,野柳,2024-12-12,25.20703,121.690021,9.561678e-07
C0B060,暖暖,2024-12-12,25.0957,121.7403,1.0578578e-07
C1H920,長豐,2024-12-12,24.102039,120.879897,3.8443407e-10
C0V360,內門,2024-12-12,22.975481,120.466769,1.3530479e-09
C0R850,林邊,2024-12-12,22.4634,120.5339,1.9011296e-08
C0E930,龍鳳,2024-12-12,24.700034,120.859125,0.26667383
C0U910,冬山,2024-12-12,24.63373,121.7937,5.811359e-09
C1E721,泰安,2024-12-12,24.489017,120.968036,1.5473025e-09
82H320,茶改中部分場,2024-12-12,23.875611,120.913583,1.0796537e-09
C0M750,布袋,2024-12-12,23.380878,120.167789,3.6366417e-09
C1S860,利嘉,2024-12-12,22.809417,121.050528,2.088515e-09
72C440,桃園農改,2024-12-12,24.950944,121.030583,0.14146863
E2S980,林試太麻里1,2024-12-12,22.598922,120.980044,1.0543444e-06
C0X170,關廟,2024-12-12,22.963017,120.327797,3.7624366e-09
C0V720,林園,2024-12-12,22.507747,120.394511,2.0207333e-08
C1I510,線浸林道,2024-12-12,23.761508,120.832956,1.142266e-09
C0D690,外湖,2024-12-12,24.917735,120.968711,0.13794863
C0C750,新興坑尾,2024-12-12,25.0061,121.0971,0.8782122
B2Q810,畜試南區分所,2024-12-12,21.945583,120.802167,0.38415805
C0S790,金崙,2024-12-12,22.538122,120.966875,1.475656e-08
C0AH90,福山植物園,2024-12-12,24.760717,121.58135,7.4145646e-08
C0I540,奇萊稜線,2024-12-12,24.109231,121.326456,1.2404437e-08
C0M850,表湖,2024-12-12,23.24186,120.64166,6.080824e-10
C0S770,大溪山,2024-12-12,22.478475,120.943325,1.1228341e-08
C0AG80,中和,2024-12-12,24.991622,121.491792,0.00032157448
C0T790,大禹嶺,2024-12-12,24.186117,121.316086,5.445757e-09
C0T9B0,水源,2024-12-12,23.991861,121.537169,1.4570461e-08
C0R840,牡丹池山,2024-12-12,22.168389,120.841225,0.9947549
C1I131,桶頭,2024-12-12,23.641944,120.654117,3.928963e-08
CAL110,布袋國中,2024-12-12,23.35893,120.18026,3.6366417e-09
467571,新竹,2024-12-12,24.827853,121.014219,0.08873027
C0Z290,赤柯山,2024-12-12,23.36893,121.38293,5.0603344e-09
C0X280,將軍,2024-12-12,23.214999,120.13577,9.40246e-10
C0S690,太麻里,2024-12-12,22.60902,120.98533,3.5251035e-09
C0U880,北關,2024-12-12,24.9072,121.8734,2.878991e-07
C1H860,瑞岩,2024-12-12,24.123772,121.18345,2.2378306e-09
C0G810,埔心,2024-12-12,23.947633,120.525456,1.8983204e-09
C0U970,大福,2024-12-12,24.80064,121.81389,5.6318856e-09
C1E670,南礦,2024-12-12,24.538278,121.002836,1.6826112e-09
C0M520,東後寮,2024-12-12,23.369908,120.248065,3.307318e-09
C1E461,松安,2024-12-12,24.397972,120.986022,1.0763578e-09
72G600,臺中農改,2024-12-12,24.003028,120.534389,2.5399476e-09
C2N160,西拉雅風管處,2024-12-12,23.189481,120.335297,8.072907e-09
C0A640,石碇,2024-12-12,24.993969,121.662917,2.0450958e-07
E2S960,林試太麻里2,2024-12-12,22.598,120.99775,1.1928038e-05
C0F9Y0,桃山,2024-12-12,24.432739,121.303808,1.0239699e-08
C1I020,萬大,2024-12-12,23.979817,121.132261,8.5003454e-10
C0U940,羅東,2024-12-12,24.68184,121.74934,5.101502e-09
C0M650,朴子,2024-12-12,23.43463,120.23902,2.1619263e-08
C1I500,大尖山,2024-12-12,23.858572,120.994889,2.5232405e-09
C0G820,田尾,2024-12-12,23.901669,120.509389,1.900447e-09
E2K600,四湖植物園,2024-12-12,23.676986,120.163433,0.02109217
C0S730,綠島,2024-12-12,22.6672,121.47533,0.9748421
12Q970,東港工作站,2024-12-12,22.479997,120.466058,2.3869486e-08
C0E430,南庄,2024-12-12,24.601775,121.000214,4.3023403e-09
C1TA00,太魯閣,2024-12-12,24.15773,121.6236,9.766693e-08
466920,臺北,2024-12-12,25.037658,121.514853,1.1333237e-07
C0R600,舊泰武,2024-12-12,22.588194,120.664944,7.0842837e-10
C1I260,北坑,2024-12-12,23.9246,121.006903,5.85507e-10
466910,鞍部,2024-12-12,25.182586,121.529731,2.4712778e-08
C1I230,九份二山,2024-12-12,23.961944,120.845,6.2866434e-10
C2A660,瑞芳,2024-12-12,25.113169,121.801147,1.3004865e-07
C0R270,琉球嶼,2024-12-12,22.332244,120.362236,1.2278495e-07
C1T990,高寮,2024-12-12,23.394239,121.356808,5.0849382e-09
C0G620,芬園,2024-12-12,24.015678,120.6213,1.3543595e-09
C1Z140,荖溪,2024-12-12,23.890575,121.45964,9.46983e-09
C1I201,中心崙,2024-12-12,23.728722,120.712097,1.1891423e-09
C1I400,凌霄,2024-12-12,24.018778,121.004456,1.1130251e-09
C1M640,十字,2024-12-12,23.492153,120.753683,1.27768e-09
G2P820,農試鳳山分所,2024-12-12,22.646611,120.356083,0.00024863705
C0Z270,蕃薯寮,2024-12-12,23.73835,121.540108,1.3728829e-09
C0F9Q0,外埔,2024-12-12,24.347817,120.705686,1.8593928e-09
C0K580,高鐵雲林,2024-12-12,23.737456,120.417944,1.9671267e-09
C2I090,鳳凰,2024-12-12,23.728081,120.787347,5.6869454e-10
C0U990,員山,2024-12-12,24.74435,121.72247,5.159993e-09
C0V770,大社,2024-12-12,22.730306,120.346639,0.0018919675
C0X120,麻豆,2024-12-12,23.183289,120.248611,4.611883e-09
C0C670,龍潭,2024-12-12,24.870056,121.221389,0.07842927
C0D680,香山濕地,2024-12-12,24.783581,120.914988,0.031478185
C0S980,勝林山,2024-12-12,22.430439,120.8938,1.6684227e-08
C0V730,大寮,2024-12-12,22.605614,120.395717,0.010803753
C0R570,麟洛,2024-12-12,22.65078,120.52719,1.3260545e-05
CAG100,王功漁港,2024-12-12,23.96824,120.32586,0.67992306
C0X290,北門,2024-12-12,23.267772,120.125481,9.40246e-10
C2F930,大甲,2024-12-12,24.347667,120.640403,0.0045916075
C0D650,湖口,2024-12-12,24.904794,121.043628,0.15652053
C0E420,竹南,2024-12-12,24.708978,120.888897,0.15170315
C0U780,五結,2024-12-12,24.68637,121.79794,5.2011573e-09
C1I250,鯉潭,2024-12-12,23.961922,120.991131,7.0332973e-10
C0R130,阿禮,2024-12-12,22.742908,120.743678,5.910014e-10
C0X100,臺南市北區,2024-12-12,23.010394,120.194228,3.4544765e-09
C0S920,金峰嘉蘭,2024-12-12,22.594789,120.960825,7.114208e-07
C0V490,新興,2024-12-12,22.627422,120.298803,0.020539334
C0F9K0,大安,2024-12-12,24.345061,120.588025,0.11031987
72N100,臺南農改,2024-12-12,23.0605,120.342194,1.3761292e-08
467290,古坑,2024-12-12,23.633639,120.551889,0.0002770424
C0V440,鳳山,2024-12-12,22.646653,120.356122,0.00024863682
C1T940,大觀,2024-12-12,23.714206,121.373133,1.6430692e-09
72T250,花蓮農改,2024-12-12,23.975222,121.563889,1.436589e-05
C0E740,造橋,2024-12-12,24.637056,120.864778,0.014636892
C0R100,尾寮山,2024-12-12,22.833111,120.683889,4.5312354e-10
A2K630,臺大雲林校區,2024-12-12,23.730628,120.423903,1.9671267e-09
C0D580,寶山,2024-12-12,24.735006,121.025192,9.988221e-08
E2P990,林試扇平站,2024-12-12,22.9677,120.6857,6.2673227e-09
C0AI30,三重,2024-12-12,25.057328,121.500629,1.2239272e-07
C0AH00,汐止,2024-12-12,25.066881,121.658778,1.1333237e-07
C1Z040,立山,2024-12-12,23.443356,121.327375,6.563652e-09
C0R740,獅子,2024-12-12,22.201569,120.70525,0.19552816
C0W130,花嶼,2024-12-12,23.40007,119.32276,0.9976227
C0A950,鼻頭角,2024-12-12,25.129036,121.923372,0.9986387
C0K470,林內,2024-12-12,23.748675,120.609642,1.4575164e-05
82C160,茶改場,2024-12-12,24.908472,121.185333,0.13881393
C0Z320,清水林道,2024-12-12,23.27125,121.188272,3.901361e-09
C0R760,南仁湖,2024-12-12,22.084681,120.863353,0.96438915
C0M670,大林,2024-12-12,23.600616,120.45841,6.0103615e-09
C0M800,茶山,2024-12-12,23.299075,120.664767,8.9653884e-10
C0A9C0,天母,2024-12-12,25.117494,121.537169,2.0163083e-07
72K220,南改斗南分場,2024-12-12,23.634556,120.477333,2.0694152e-08
72AI40,桃改樹林分場,2024-12-12,24.944503,121.386972,0.35252678
C0S910,蘭嶼燈塔,2024-12-12,22.081197,121.503117,0.98136085
C0B050,八斗子,2024-12-12,25.144754,121.79167,5.3700194e-07
C0U900,內城,2024-12-12,24.71813,121.68766,4.9835536e-09
C0X320,柳營,2024-12-12,23.253328,120.375253,2.5598698e-08
C0M790,新港,2024-12-12,23.553269,120.345728,2.1726825e-08
C0F9T0,西屯,2024-12-12,24.179494,120.641275,7.9212117e-07
C0SA30,都歷,2024-12-12,23.020333,121.323642,3.251841e-09
C0C620,蘆竹,2024-12-12,25.084275,121.265767,0.95523036
C0R730,大坪頂,2024-12-12,22.024633,120.69355,0.05584056
C0AJ40,石門,2024-12-12,25.273672,121.601198,0.5272768
C0E750,苗栗,2024-12-12,24.564569,120.824575,1.1676683e-06
C0T870,鯉魚潭,2024-12-12,23.935639,121.508944,1.5548533e-08
C1V170,排雲,2024-12-12,23.463619,120.954147,1.4198095e-08
C2H950,中寮,2024-12-12,23.884447,120.766406,7.168215e-10
C0R350,貓鼻頭,2024-12-12,21.921774,120.7358,0.74704343
C0V660,岡山,2024-12-12,22.797078,120.294958,1.5257522e-05
C1H941,雙冬,2024-12-12,23.967378,120.802189,5.862524e-10
C0AJ70,田寮,2024-12-12,25.2698,121.4886,0.9491055
C0AI00,五股,2024-12-12,25.07445,121.42728,4.025564e-05
C0Z280,德武,2024-12-12,23.47426,121.41071,8.895455e-09
C0R700,枋山,2024-12-12,22.246844,120.661086,0.99974006
C0C460,復興,2024-12-12,24.820208,121.352281,2.0684365e-06
E2H360,蓮華池,2024-12-12,23.918333,120.885278,5.976419e-10
C0M640,中埔,2024-12-12,23.42538,120.5229,1.9834288e-09
C0W140,金沙,2024-12-12,24.488292,118.408778,0.5764769
C2A540,四堵,2024-12-12,24.8926,121.745736,5.6058564e-08
C0ACA0,新莊,2024-12-12,25.051478,121.446756,4.6225596e-06
C0R220,潮州,2024-12-12,22.534361,120.54,5.113311e-08
U2HA40,臺大內茅埔,2024-12-12,23.689722,120.851117,6.3573524e-10
467490,臺中,2024-12-12,24.145736,120.684075,0.0029240712
C0U960,翠峰湖,2024-12-12,24.510856,121.608044,2.3272653e-08
E2HA20,林試畢祿溪站,2024-12-12,24.226944,121.308522,3.873918e-09
C0V890,前鎮,2024-12-12,22.5718,120.3117,0.028970134
467620,蘭嶼,2024-12-12,22.036969,121.558339,0.9579603
C1F941,雪嶺,2024-12-12,24.280586,121.026642,8.041433e-09
C0AC80,文山,2024-12-12,25.00235,121.575728,6.482125e-05
C0F9R0,龍井,2024-12-12,24.184536,120.528972,0.11621419
C0M760,民雄,2024-12-12,23.551754,120.428457,6.8761428e-09
C0UA40,西德山,2024-12-12,24.560647,121.752608,2.7611035e-08
C1T920,中興,2024-12-12,23.769503,121.498653,2.5797393e-09
C0D550,雪霸,2024-12-12,24.526972,121.11605,2.4769677e-09
C2F860,梨山,2024-12-12,24.247522,121.243669,4.0486188e-09
C0R320,車城,2024-12-12,22.0744,120.716247,0.5592448
C1S870,南美山,2024-12-12,23.15025,121.382333,7.364484e-09
C0B020,基隆嶼,2024-12-12,25.19141,121.78391,0.9912481
C1U501,牛鬥,2024-12-12,24.637836,121.573656,2.1291111e-08
C0M730,嘉義市東區,2024-12-12,23.457673,120.460531,8.2200335e-09
C0S700,知本,2024-12-12,22.684866,121.005642,3.129473e-09
C1N001,沙崙,2024-12-12,22.935472,120.309406,4.4023936e-09
C0V760,橋頭,2024-12-12,22.757806,120.30575,0.0033362978
C0G960,福寶,2024-12-12,24.0443,120.3814,3.8253256e-05
C0X210,白河,2024-12-12,23.347466,120.414427,9.736131e-09
C0S810,東河,2024-12-12,22.972672,121.303986,0.99678767
C0R670,楓港,2024-12-12,22.190131,120.692156,0.6899566
C0FA50,霧峰,2024-12-12,24.0419,120.6995,1.4229944e-09
C0UB10,蘇澳,2024-12-12,24.5969,121.8571,2.0825851e-08
C0G950,防潮門,2024-12-12,24.1835,120.4871,0.11621419
C0M740,六腳,2024-12-12,23.492871,120.290625,1.8817566e-08
C1R250,力里,2024-12-12,22.428117,120.629228,3.0793938e-08
C0K330,虎尾,2024-12-12,23.719183,120.442036,1.951703e-09
C2FA00,烏石坑,2024-12-12,24.273503,120.947617,4.783958e-10
C0V620,永安,2024-12-12,22.82315,120.236856,1.5257522e-05
C1I330,楓樹林,2024-12-12,23.986803,121.076117,9.337122e-10
C0W200,湖西,2024-12-12,23.596314,119.67275,0.993444
72Q010,高雄農改場,2024-12-12,22.709333,120.525889,2.927662e-06
C0SA40,瑞和,2024-12-12,22.974361,121.156697,4.440624e-08
C0C680,龜山,2024-12-12,25.02846,121.38656,1.5888083e-06
C2V260,月眉,2024-12-12,22.971003,120.539853,4.013941e-09
C0V450,鳳森,2024-12-12,22.545064,120.392592,9.456943e-09
C0U720,南山,2024-12-12,24.43742,121.38167,9.016342e-09
A2N290,臺南蘭花園區,2024-12-12,23.340258,120.379661,1.09371925e-08
C0R560,新園,2024-12-12,22.5434,120.461558,2.0207333e-08
C0U890,三星,2024-12-12,24.66812,121.65302,2.8872883e-08
C1V300,御油山,2024-12-12,23.001983,120.715364,1.3897126e-09
C0U600,礁溪,2024-12-12,24.817539,121.765608,3.5944332e-08
C1T980,龍澗,2024-12-12,24.023289,121.411328,1.8556241e-08
C0D670,海天一線,2024-12-12,24.831986,120.914438,0.82192445
C0SA00,歷坵,2024-12-12,22.520969,120.89185,3.395702e-09
C0M710,東石,2024-12-12,23.458927,120.15385,3.4963468e-06
C0M780,鹿草,2024-12-12,23.41134,120.30835,1.9011223e-08
C0U520,雙連埤,2024-12-12,24.753033,121.641303,1.9794992e-08
C0B010,七堵,2024-12-12,25.094819,121.71713,2.037622e-07
C0R480,長治,2024-12-12,22.693128,120.542622,0.0026612317
C1V830,國三S383K,2024-12-12,22.781967,120.426475,4.0962664e-08
12Q980,恆春工作站,2024-12-12,22.079678,120.714425,0.5592448
C1O940,東山服務區,2024-12-12,23.286016,120.398472,2.2791546e-08
C1U840,東澳嶺,2024-12-12,24.5378,121.8485,1.6087599e-08
C1D630,飛鳳山,2024-12-12,24.766464,121.119178,3.2633253e-08
C0S940,石寧山,2024-12-12,23.223772,121.406639,2.2907507e-09
C0K410,北港,2024-12-12,23.573957,120.292802,1.9851102e-08
C2M620,瑞里,2024-12-12,23.545133,120.675197,7.469519e-10
C2O950,安南,2024-12-12,23.076694,120.144861,1.6159584e-09
C0F0E0,南湖圈谷,2024-12-12,24.363714,121.444667,2.8613787e-08
467610,成功,2024-12-12,23.097486,121.373428,0.012704663
C0G890,伸港,2024-12-12,24.148933,120.484403,0.00035640498
C2E540,龍溪,2024-12-12,24.606489,120.783933,0.01520609
C1V200,梅山,2024-12-12,23.268447,120.823556,7.636844e-10
C0T9H0,加路蘭山,2024-12-12,23.682947,121.5274,2.3302624e-09
C2O930,玉井,2024-12-12,23.126042,120.46055,1.4362957e-09
C1F911,新伯公,2024-12-12,24.221361,120.841069,2.6413693e-09
C0R490,九如,2024-12-12,22.7405,120.490503,4.3983187e-06
C0X200,左鎮,2024-12-12,23.056758,120.408522,2.4569466e-09
C1F891,稍來,2024-12-12,24.265689,121.001142,3.5828498e-09
72N240,七股研究中心,2024-12-12,23.081672,120.062894,1.7638423e-09
C0C700,中壢,2024-12-12,24.977661,121.256375,0.0007765098
C0M690,水上,2024-12-12,23.419734,120.388909,1.2825344e-08
C0V690,鼓山,2024-12-12,22.623325,120.275575,0.020539334
C0O860,大內,2024-12-12,23.11885,120.36083,1.7042264e-08
C0Z200,萬榮,2024-12-12,23.709219,121.420106,1.4750897e-09
C0T9D0,和中,2024-12-12,24.26676,121.74103,1.6748507e-05
C1O921,楠西,2024-12-12,23.183511,120.484083,1.6146429e-09
C0AJ30,淡水觀海,2024-12-12,25.184591,121.408616,0.0012173222
C0V810,左營,2024-12-12,22.67491,120.28491,0.0006377003
C0UA70,桃源谷,2024-12-12,24.962606,121.888875,7.747961e-08
C0X130,官田,2024-12-12,23.193217,120.315422,9.855108e-09
C1H000,翠峰,2024-12-12,24.109397,121.205211,4.720467e-09
C0UA90,石城,2024-12-12,24.980444,121.951214,7.9155576e-08
C1E681,南勢山,2024-12-12,24.421669,120.923831,9.94085e-10
C0A9F0,內湖,2024-12-12,25.079422,121.57545,1.1333237e-07
C0K291,宜梧,2024-12-12,23.536281,120.169329,1.9518515e-07
C1K540,口湖,2024-12-12,23.585344,120.180517,0.17911924
C0R780,滿州,2024-12-12,22.024403,120.839892,0.12604287
C0V870,文安,2024-12-12,22.8025,120.2164,2.6552636e-05
C0U650,玉蘭,2024-12-12,24.675286,121.587061,2.7961882e-08
C0R640,東港,2024-12-12,22.46247,120.44074,2.3869486e-08
K2E360,苗栗農改,2024-12-12,24.495722,120.829111,8.759164e-09
C0AJ80,板橋,2024-12-12,25.0107,121.4489,0.00044211652
C0S660,下馬,2024-12-12,23.150427,121.070312,2.3197746e-09
C1H9B1,阿眉,2024-12-12,24.1263,120.994672,1.7715734e-09
C0UA20,多加屯,2024-12-12,24.368614,121.373189,5.1809885e-09
C0E730,頭份,2024-12-12,24.688247,120.912206,0.1899403
72V140,高改旗南分場,2024-12-12,22.857861,120.516667,4.3226507e-08
C0K480,莿桐,2024-12-12,23.761192,120.502372,2.7472078e-09
C0U980,坪林石牌,2024-12-12,24.86478,121.77396,2.4372975e-08
C0T900,西林,2024-12-12,23.8119,121.441458,2.006434e-09
C1I150,青雲,2024-12-12,23.793361,120.949378,4.89299e-10
467350,澎湖,2024-12-12,23.565503,119.563094,0.9949849
C0G800,埔鹽,2024-12-12,24.000394,120.431683,5.225392e-08
C0H960,草屯,2024-12-12,23.973672,120.68085,1.3996562e-09
C1V780,多納林道,2024-12-12,22.888028,120.737917,4.706189e-10
C0E920,通霄漁港,2024-12-12,24.498589,120.673876,0.0881003
C0Z330,安通山,2024-12-12,23.290728,121.348528,1.5345558e-09
C0AH10,永和,2024-12-12,25.01125,121.508111,0.00044211652
C2G640,鹿港,2024-12-12,24.0753,120.430481,3.8253256e-05
C1E890,國三N149K,2024-12-12,24.463414,120.680019,0.031383142
C1R110,口社,2024-12-12,22.770111,120.645222,0.10686794
C1M870,國三N285K,2024-12-12,23.550319,120.505833,3.588357e-05
467050,新屋,2024-12-12,25.006744,121.047486,0.86186993
C1E480,鳳美,2024-12-12,24.554803,121.034747,1.4951302e-09
C0M530,奮起湖,2024-12-12,23.493903,120.699253,8.865638e-10
C0C590,觀音,2024-12-12,25.027072,121.153317,0.99009603
C0T9M0,靜浦,2024-12-12,23.455167,121.495028,9.730639e-08
C0AI40,石牌,2024-12-12,25.115597,121.513139,2.1631601e-07
C1F871,上谷關,2024-12-12,24.203483,121.018644,5.711251e-10
C0G880,二水,2024-12-12,23.810742,120.6173,5.5586406e-07
C0R940,加祿堂,2024-12-12,22.3363,120.6217,0.99194384
C0W220,北竿,2024-12-12,26.220358,119.974881,0.9770867
C0O960,崎頂,2024-12-12,22.959547,120.369317,1.9983866e-09
C0S750,向陽,2024-12-12,23.248397,120.986133,2.5578821e-09
C0T9F0,水璉,2024-12-12,23.797131,121.542514,1.920961e-09
C1M600,頭凍,2024-12-12,23.406364,120.603339,6.782187e-10
467660,臺東,2024-12-12,22.752211,121.154586,0.99944186
C1D380,新埔,2024-12-12,24.84745,121.03834,0.05261347
C0V750,路竹,2024-12-12,22.854997,120.259439,1.0771366e-08
C0N050,蚵寮,2024-12-12,23.301,120.1104,1.0888129e-09
72M700,南改鹿草分場,2024-12-12,23.416869,120.283061,2.1619263e-08
C1SA50,利嘉林道,2024-12-12,22.82325,121.009389,9.23472e-09
467550,玉山,2024-12-12,23.487614,120.959522,1.9841222e-08
C0A940,金山,2024-12-12,25.223628,121.643967,7.511063e-07
C1V340,大津,2024-12-12,22.888322,120.645986,6.162686e-05
C0W180,七美,2024-12-12,23.219333,119.444892,0.99537015
C1F9C1,白冷,2024-12-12,24.182844,120.929889,8.0459855e-10
K2E710,苗改生物防治研究中心,2024-12-12,24.422861,120.871833,9.435606e-10
C0N040,蘆竹溝,2024-12-12,23.2344,120.0961,9.40246e-10
C2W230,畜試所澎湖,2024-12-12,23.628342,119.513206,0.9945217
C0R880,後壁湖,2024-12-12,21.9457,120.7457,0.9027379
C1I280,埔中,2024-12-12,23.820778,120.642594,8.285005e-10
467790,墾丁雷達站,2024-12-12,21.948235,120.808028,0.24975598
C0W190,望安,2024-12-12,23.380564,119.494075,0.9949488
466881,新北,2024-12-12,24.9593,121.52,0.00019249805
C0Z170,卓溪,2024-12-12,23.3443,121.3029,3.1343295e-09
C0F850,東勢,2024-12-12,24.246428,120.833047,7.2423434e-10
466900,淡水,2024-12-12,25.164889,121.448906,0.9212461
C0I370,魚池,2024-12-12,23.895703,120.94135,6.3021544e-10
C0C630,大溪,2024-12-12,24.882853,121.265547,0.12890857
C0A520,山佳,2024-12-12,24.974944,121.402008,0.016170722
C0I110,竹山,2024-12-12,23.761225,120.688156,2.3375685e-08
82H840,茶改南部分場,2024-12-12,23.762528,120.7405,8.8810226e-10
C0G660,溪湖,2024-12-12,23.94835,120.479122,2.0631556e-09
C1T800,洛韶,2024-12-12,24.204558,121.453956,1.6711427e-08
C1T810,慈恩,2024-12-12,24.192044,121.388386,3.6018775e-09
C1E451,象鼻,2024-12-12,24.368617,120.940228,7.8782414e-10
C0AC60,三峽,2024-12-12,24.939025,121.369728,0.33026162
C0I490,萬大林道,2024-12-12,23.928228,121.091411,1.1428805e-09
C1I290,豐丘,2024-12-12,23.668178,120.887417,7.0479617e-10
C1I320,奧萬大,2024-12-12,23.952956,121.178556,6.483964e-10
C0U770,南澳,2024-12-12,24.44935,121.81022,7.7663636e-09
C0A980,社子,2024-12-12,25.109508,121.469681,0.93969274
C0V800,六龜,2024-12-12,22.997889,120.633583,9.129686e-10
C1G9D0,國一S218K,2024-12-12,23.890641,120.493253,2.9657976e-09
C2F9A0,中竹林,2024-12-12,24.103556,120.751061,9.612534e-10
C0FA40,臺中電廠,2024-12-12,24.2146,120.4907,0.11621414
C0H9C0,合歡山,2024-12-12,24.143442,121.272547,1.0838344e-08
C0X060,下營,2024-12-12,23.22695,120.256261,5.3098037e-09
G2M350,農試溪口農場,2024-12-12,23.58565,120.408111,7.971447e-09
C0U860,頭城,2024-12-12,24.85323,121.8308,3.7401506e-08
C0R580,南州,2024-12-12,22.48591,120.50274,2.3869486e-08
C0D430,峨眉,2024-12-12,24.6905,121.017189,0.00012388988
C0G780,秀水,2024-12-12,24.03405,120.503869,2.5399476e-09
72N100,臺南農改場,2024-12-12,23.0605,120.342194,1.3761292e-08
C0S900,蘭嶼高中,2024-12-12,22.04909,121.51214,0.983337
467540,大武,2024-12-12,22.355675,120.903789,0.24398422
C1F9W0,德基,2024-12-12,24.254783,121.190261,2.538514e-09
C1Z120,壽豐,2024-12-12,23.870853,121.508081,8.915294e-09
C0W160,烏坵,2024-12-12,24.9944,119.44956,0.9895872
C1I240,外大坪,2024-12-12,23.958697,120.917931,6.8961825e-10
C1I550,國六W023K,2024-12-12,23.979067,120.867742,4.3891776e-10
C0R870,興海,2024-12-12,21.9752,120.8439,0.38415805
C0R140,瑪家,2024-12-12,22.682903,120.686639,5.771964e-10
C0A530,坪林,2024-12-12,24.938183,121.70975,6.539201e-08
C0X260,後壁,2024-12-12,23.366358,120.362326,1.09371925e-08
C0Z230,和平,2024-12-12,24.30717,121.77007,1.9899848e-05
C0G770,福興,2024-12-12,24.041289,120.437669,5.225392e-08
C0H9A0,神木村,2024-12-12,23.532742,120.843667,1.3033646e-09
C0I460,南投,2024-12-12,23.911469,120.687331,6.79778e-10
C0I480,梅峰,2024-12-12,24.085272,121.173572,2.1979905e-09
C1V570,吉東,2024-12-12,22.85422,120.5454,2.8341445e-08
C2A560,福山,2024-12-12,24.776203,121.502811,1.2522709e-07
C0AH30,五分山,2024-12-12,25.07125,121.780794,2.6954096e-08
C0FA10,松柏,2024-12-12,24.429115,120.617482,0.15388912
72S200,東改班鳩分場,2024-12-12,22.829528,121.077694,0.008674621
72HA00,中改埔里分場,2024-12-12,23.903208,120.963364,5.8972227e-10
C0C650,平鎮,2024-12-12,24.897503,121.214636,0.05905745
C0S930,延平,2024-12-12,22.902581,121.084058,3.1429122e-06
C0UA60,樟樹山,2024-12-12,24.41393,121.78325,2.4741075e-08
C1S670,摩天,2024-12-12,23.199503,121.027,1.1140536e-08
C0V630,茄萣,2024-12-12,22.906642,120.182608,2.0198161e-08
466940,基隆,2024-12-12,25.133314,121.740475,4.3100013e-07
C0X050,東河,2024-12-12,23.296598,120.385608,3.523667e-08
C0R770,保力,2024-12-12,22.071122,120.764111,0.04945842
G2L020,農試嘉義分所,2024-12-12,23.485028,120.473806,2.2832909e-07
C0X240,關子嶺,2024-12-12,23.331169,120.508025,7.244126e-10
C0I380,集集,2024-12-12,23.828206,120.801467,1.4389336e-09
466990,花蓮,2024-12-12,23.975128,121.613275,3.529511e-05
C1V220,小關山,2024-12-12,23.154217,120.813603,1.6692845e-09
C1F9G1,慶福山,2024-12-12,24.180853,120.848378,4.483308e-10
C0Z250,瑞穗林道,2024-12-12,23.49284,121.30688,1.1194233e-08
C0D590,新豐,2024-12-12,24.87068,120.97721,0.341778
C0A870,五指山,2024-12-12,25.132153,121.608692,8.896388e-09
C0UA50,西帽山,2024-12-12,24.555361,121.802628,2.7984663e-08
C0X160,仁德,2024-12-12,22.968258,120.257689,2.743738e-06
C1H971,六分寮,2024-12-12,23.92507,120.6378,4.5226958e-10
C0W120,西嶼,2024-12-12,23.5626,119.468436,0.9966493
C0G650,員林,2024-12-12,23.946503,120.585597,1.363361e-09
C0AD50,鶯歌,2024-12-12,24.951533,121.346294,0.29480222
C0S990,山豬窟,2024-12-12,22.318619,120.857372,0.104388535
72Q010,高雄農改,2024-12-12,22.709333,120.525889,2.927662e-06
C0X190,安平,2024-12-12,22.993161,120.152181,3.4544765e-09
C0K400,斗六,2024-12-12,23.720583,120.541127,3.801193e-09
12J990,口湖工作站,2024-12-12,23.589978,120.180394,0.18151094
C0O830,北寮,2024-12-12,23.079561,120.495008,7.146454e-10
C1D410,白蘭,2024-12-12,24.579364,121.079947,1.9087478e-09
C0S970,加津林,2024-12-12,22.416211,120.926942,0.15865651
C0D700,關西,2024-12-12,24.7977,121.1732,0.00025102738
C0M810,里佳,2024-12-12,23.389125,120.716647,1.0789208e-09
C0U750,龜山島,2024-12-12,24.841667,121.953133,0.0019788907
C0R810,內獅,2024-12-12,22.305064,120.642986,0.99216276
C1M390,龍美,2024-12-12,23.406728,120.654417,7.8486645e-10
C1H840,國三N238K,2024-12-12,23.841008,120.707711,4.6210025e-10
CAQ030,崎峰國小,2024-12-12,22.42565,120.49521,2.3869486e-08
C2E520,大湖,2024-12-12,24.414939,120.870872,8.987183e-10
467530,阿里山,2024-12-12,23.508208,120.813242,6.8791732e-09
C1E691,南湖,2024-12-12,24.40135,120.837533,8.2850526e-10
C0FA30,梧棲,2024-12-12,24.256003,120.523381,0.06368423
C1V231,高中,2024-12-12,23.134911,120.716711,6.417989e-10
C0F9V0,新社,2024-12-12,24.200172,120.815806,1.1975092e-09
C0H890,埔里,2024-12-12,23.972169,120.952425,4.1989326e-10
C0R690,墾丁,2024-12-12,21.966756,120.810269,0.08701469
C0F0D0,審馬陣,2024-12-12,24.381675,121.4203,8.668137e-09
C0R820,白鷺,2024-12-12,22.454275,120.666219,1.1172194e-09
U2H480,臺大溪頭,2024-12-12,23.670306,120.798194,6.5768824e-10
C1V190,南天池,2024-12-12,23.27403,120.91176,2.8030485e-09
K2E360,苗栗農改場,2024-12-12,24.495722,120.829111,8.759164e-09
CAJ050,海口故事園區,2024-12-12,23.57543,120.14121,0.17911924
C0O990,媽廟,2024-12-12,22.99175,120.293525,2.0728025e-05
C0D480,打鐵坑,2024-12-12,24.849664,121.150789,0.06424427
C0Z220,和平林道,2024-12-12,24.343922,121.656317,7.848999e-09
72C440,桃園農改場,2024-12-12,24.950944,121.030583,0.14146863
C1E711,馬拉邦山,2024-12-12,24.367306,120.901656,7.9024565e-10
C0D560,竹東,2024-12-12,24.767147,121.057881,0.0005921702
C0F9U0,南屯,2024-12-12,24.137006,120.637969,3.2908983e-06
C0M720,番路,2024-12-12,23.464657,120.554156,1.1874673e-09
C0F0A0,雪山圈谷,2024-12-12,24.388594,121.236339,1.4432277e-08
C1A9N0,四十份,2024-12-12,24.934158,121.593283,2.2319709e-07
C0U760,東澳,2024-12-12,24.52196,121.83318,1.06339835e-08
C0X230,鹽水,2024-12-12,23.272621,120.247641,1.0188651e-09
C0V370,古亭坑,2024-12-12,22.893178,120.401947,3.3430119e-09
C1I340,新興橋,2024-12-12,23.563333,120.868728,5.4035093e-10
C0SA80,土坂,2024-12-12,22.453108,120.887572,3.301059e-07
C0R160,鹽埔,2024-12-12,22.739558,120.530778,2.927662e-06
C0AC40,大屯山,2024-12-12,25.175675,121.522408,2.4136623e-08
466850,五分山雷達站,2024-12-12,25.071182,121.781205,2.6632653e-08
C1AI50,國三N016K,2024-12-12,25.034164,121.619664,7.330307e-08
C1V600,藤枝,2024-12-12,23.071961,120.757042,1.0354845e-09
C1E601,南勢,2024-12-12,24.572486,120.734842,0.175555
C0Z180,新城,2024-12-12,24.03946,121.60454,2.9072211e-05
C0O980,新市,2024-12-12,23.061614,120.298197,2.267547e-08
C0K420,西螺,2024-12-12,23.800407,120.467394,1.5108915e-09
C0Z050,佳心,2024-12-12,23.34567,121.21316,4.6786073e-09
C0AD30,蘆洲,2024-12-12,25.086594,121.472331,1.2239272e-07
C0V610,梓官,2024-12-12,22.760558,120.267211,0.0033362978
K2F750,種苗改良場,2024-12-12,24.225972,120.800917,1.5621919e-09
C0UA80,大溪漁港,2024-12-12,24.941801,121.902955,2.77422e-07
C1AI60,國一39K邊坡,2024-12-12,25.064361,121.383836,6.7132555e-06
C0W150,金寧,2024-12-12,24.457703,118.328989,0.636691
V2C250,八德合作社,2024-12-12,24.93775,121.266389,0.13918827
C0AH40,平等,2024-12-12,25.129142,121.577086,9.751948e-09
C0R540,佳冬,2024-12-12,22.419456,120.552375,2.5794714e-05
466950,彭佳嶼,2024-12-12,25.627975,122.079744,0.82867867
C0A890,雙溪,2024-12-12,25.036003,121.864242,5.973712e-08
C0C480,桃園,2024-12-12,24.992425,121.323172,0.005728695
C0AH50,林口,2024-12-12,25.072181,121.38084,8.41398e-07
A2K360,水試臺西試驗場,2024-12-12,23.717231,120.190522,0.022573574
B2N890,畜試所,2024-12-12,23.058972,120.336406,1.3761292e-08
C0F9S0,烏日,2024-12-12,24.107058,120.624103,3.3089116e-06
C0C490,八德,2024-12-12,24.928708,121.283289,0.128714
C0R190,赤山,2024-12-12,22.592333,120.614306,0.00019117157
C0T820,天祥,2024-12-12,24.179597,121.495639,2.0345787e-08
C1F9E1,龍安,2024-12-12,24.1605,120.831961,1.0980686e-09
C0V820,小林,2024-12-12,23.148408,120.63325,4.553076e-10
C2G870,芳苑,2024-12-12,23.922303,120.320025,0.5967734
C0E850,大河,2024-12-12,24.618069,120.948578,1.9769676e-08
C1U670,寒溪,2024-12-12,24.634,121.71691,5.5835403e-09
C0N020,城西,2024-12-12,23.0568,120.0956,3.4544765e-09
C1Z110,三棧,2024-12-12,24.11557,121.60501,1.6967084e-08
C0R280,檳榔,2024-12-12,22.076078,120.836777,0.84103554
C0F9L0,后里,2024-12-12,24.310436,120.729725,8.4825136e-10
C0D540,橫山,2024-12-12,24.71116,121.11693,1.2456526e-08
C1D420,太閣南,2024-12-12,24.632808,121.160575,1.8645707e-09
C1E770,公館,2024-12-12,24.526914,120.830806,1.2129343e-08
CAN130,水試所海水繁養殖中心,2024-12-12,23.120802,120.07968,1.7638423e-09
C1I430,翠華,2024-12-12,24.191961,121.224339,3.1888658e-09
C1M400,菜瓜坪,2024-12-12,23.251928,120.576103,9.0354635e-10
C0G730,二林,2024-12-12,23.903325,120.376081,3.737952e-09
72M360,南改義竹分場,2024-12-12,23.360694,120.279361,3.3041214e-09
V2K620,麥寮合作社,2024-12-12,23.753836,120.294783,2.1039723e-09
C0Z070,舞鶴,2024-12-12,23.46811,121.37407,5.5909255e-09
C0B040,大武崙,2024-12-12,25.166676,121.706993,2.6210287e-07
C1Z030,紅葉,2024-12-12,23.493119,121.338806,6.699124e-09
C1I050,丹大,2024-12-12,23.753747,121.141147,3.79285e-09
C0I080,信義,2024-12-12,23.689694,120.851036,6.3573524e-10
C2A880,福隆,2024-12-12,25.017842,121.942083,8.2041076e-08
C0Z160,鳳林,2024-12-12,23.746114,121.453411,1.5308869e-09
C0V210,復興,2024-12-12,23.222403,120.806089,8.42381e-10
C0H990,昆陽,2024-12-12,24.121322,121.273642,1.0038141e-08
C0S710,鹿野,2024-12-12,22.917711,121.122994,1.6795907e-09
C0I530,小奇萊,2024-12-12,24.131764,121.295717,1.0698169e-08
C0Z080,富源,2024-12-12,23.587642,121.378225,2.79439e-09
467441,高雄,2024-12-12,22.7304,120.3125,0.0018744424
C1I140,卡奈托灣,2024-12-12,23.754364,121.087872,1.1018682e-09
C0I520,玉山風口,2024-12-12,23.470489,120.955994,2.0059412e-08
C1G691,下水埔,2024-12-12,23.816114,120.5676,2.4398779e-09
C0X110,臺南市南區,2024-12-12,22.961189,120.188378,2.743738e-06
C0V680,仁武,2024-12-12,22.701083,120.347722,0.0006377003
C2G840,北斗,2024-12-12,23.877586,120.514222,2.5919709e-09
C0R900,竹坑,2024-12-12,22.1385,120.7022,0.5601981
C0K250,崙背,2024-12-12,23.75555,120.318925,2.1039723e-09
C0G860,社頭,2024-12-12,23.897647,120.5862,3.089576e-09
C0X150,安定,2024-12-12,23.102614,120.227839,2.2118446e-08
C0R590,里港,2024-12-12,22.77919,120.49459,2.6909902e-07
C0E610,馬都安,2024-12-12,24.451272,120.930192,8.5992985e-10
C0E550,明德,2024-12-12,24.583486,120.885411,5.375979e-07
C0R150,三地門,2024-12-12,22.709889,120.639944,0.13236615
C0G910,花壇,2024-12-12,24.032076,120.549461,2.220746e-09
C1D400,鳥嘴山,2024-12-12,24.71909,121.28387,6.316056e-09
C0K500,元長,2024-12-12,23.64981,120.315024,4.3381188e-09
C0F0B0,石岡,2024-12-12,24.276061,120.777644,6.727752e-10
C2V250,甲仙,2024-12-12,23.080106,120.591758,4.67353e-10
C0SA20,金崙山,2024-12-12,22.567419,120.959667,3.1359917e-09
C0V350,溪埔,2024-12-12,22.738578,120.446797,0.00025558792
C0M660,溪口,2024-12-12,23.604131,120.403569,7.971462e-09
C1S880,壽卡,2024-12-12,22.238911,120.858903,0.9085372
72D680,桃改新埔分場,2024-12-12,24.834444,121.066111,0.056992296
