站號,站名,日期,lat,lon,BlastGRU-TW
12J990,口湖工作站,2024-05-25,23.589978,120.180394,0.59546375
12Q970,東港工作站,2024-05-25,22.479997,120.466058,0.66813076
12Q980,恆春工作站,2024-05-25,22.079678,120.714425,0.093264095
466881,新北,2024-05-25,24.9593,121.52,0.8477655
466900,淡水,2024-05-25,25.164889,121.448906,0.9726912
466920,臺北,2024-05-25,25.037658,121.514853,0.94376796
466940,基隆,2024-05-25,25.133314,121.740475,0.892374
466990,花蓮,2024-05-25,23.975128,121.613275,0.862745
467050,新屋,2024-05-25,25.006744,121.047486,0.723253
467080,宜蘭,2024-05-25,24.763975,121.756528,0.61793214
467270,田中,2024-05-25,23.873803,120.581286,0.92376596
467300,東吉島,2024-05-25,23.25695,119.667467,0.90143347
467350,澎湖,2024-05-25,23.565503,119.563094,0.8890503
467410,臺南,2024-05-25,22.993239,120.204772,0.6925408
467420,永康,2024-05-25,23.038386,120.2367,0.57740754
467441,高雄,2024-05-25,22.7304,120.3125,0.7099465
467480,嘉義,2024-05-25,23.495925,120.432906,0.7641212
467490,臺中,2024-05-25,24.145736,120.684075,0.98041767
467540,大武,2024-05-25,22.355675,120.903789,0.15204436
467571,新竹,2024-05-25,24.827853,121.014219,0.8979446
467590,恆春,2024-05-25,22.003897,120.746339,0.081686735
467610,成功,2024-05-25,23.097486,121.373428,0.85576195
467620,蘭嶼,2024-05-25,22.036969,121.558339,0.7263186
467660,臺東,2024-05-25,22.752211,121.154586,0.6025181
467790,墾丁雷達站,2024-05-25,21.948235,120.808028,0.07791674
72AI40,桃改樹林分場,2024-05-25,24.944503,121.386972,0.8866059
72C440,桃園農改,2024-05-25,24.950944,121.030583,0.7958602
72C440,桃園農改場,2024-05-25,24.950944,121.030583,0.7958602
72D680,桃改新埔分場,2024-05-25,24.834444,121.066111,0.8778507
72G600,臺中農改,2024-05-25,24.003028,120.534389,0.7101803
72G600,臺中農改場,2024-05-25,24.003028,120.534389,0.7101803
72K220,南改斗南分場,2024-05-25,23.634556,120.477333,0.9263795
72M360,南改義竹分場,2024-05-25,23.360694,120.279361,0.73240525
72M700,南改鹿草分場,2024-05-25,23.416869,120.283061,0.75559396
72N100,臺南農改,2024-05-25,23.0605,120.342194,0.5682672
72N100,臺南農改場,2024-05-25,23.0605,120.342194,0.5682672
72N240,七股研究中心,2024-05-25,23.081672,120.062894,0.82911384
72Q010,高雄農改,2024-05-25,22.709333,120.525889,0.4800849
72Q010,高雄農改場,2024-05-25,22.709333,120.525889,0.4800849
72S200,東改班鳩分場,2024-05-25,22.829528,121.077694,0.11306326
72S590,東改賓朗果園,2024-05-25,22.813889,121.071278,0.23049226
72T250,花蓮農改,2024-05-25,23.975222,121.563889,0.37627438
72T250,花蓮農改場,2024-05-25,23.975222,121.563889,0.37627438
72U480,花改蘭陽分場,2024-05-25,24.686306,121.716583,0.76765364
72V140,高改旗南分場,2024-05-25,22.857861,120.516667,0.40864152
82A750,茶改北部分場,2024-05-25,24.955778,121.631222,0.9444916
82C160,茶改場,2024-05-25,24.908472,121.185333,0.9630046
82H840,茶改南部分場,2024-05-25,23.762528,120.7405,0.72695833
82S580,茶改東部分場,2024-05-25,22.907694,121.130139,0.21518153
A2C560,農工中心,2024-05-25,24.985917,121.239833,0.9267776
A2K360,水試臺西試驗場,2024-05-25,23.717231,120.190522,0.7004486
A2K570,古坑花卉中心,2024-05-25,23.63353,120.55239,0.73589724
A2K630,臺大雲林校區,2024-05-25,23.730628,120.423903,0.90829116
A2N290,臺南蘭花園區,2024-05-25,23.340258,120.379661,0.77558243
B2E890,畜試北區分所,2024-05-25,24.527806,120.770972,0.97916365
B2N890,畜產試驗所,2024-05-25,23.058972,120.336406,0.5685235
B2N890,畜試所,2024-05-25,23.058972,120.336406,0.5685235
B2Q810,畜試南區分所,2024-05-25,21.945583,120.802167,0.070949435
B2U990,畜試東區分所,2024-05-25,24.669039,121.832561,0.8967047
C0A520,山佳,2024-05-25,24.974944,121.402008,0.89610696
C0A530,坪林,2024-05-25,24.938183,121.70975,0.9421495
C0A540,四堵,2024-05-25,24.8926,121.745736,0.8287191
C0A550,泰平,2024-05-25,24.971197,121.823711,0.94970053
C0A560,福山,2024-05-25,24.776203,121.502811,0.7762659
C0A570,桶後,2024-05-25,24.848222,121.597992,0.39695477
C0A640,石碇,2024-05-25,24.993969,121.662917,0.79649806
C0A650,火燒寮,2024-05-25,25.002719,121.742892,0.4736312
C0A660,瑞芳,2024-05-25,25.113169,121.801147,0.6401379
C0A770,科教館,2024-05-25,25.096356,121.516507,0.9509878
C0A860,大坪,2024-05-25,25.165914,121.632969,0.6612697
C0A880,福隆,2024-05-25,25.017842,121.942083,0.97543365
C0A890,雙溪,2024-05-25,25.036003,121.864242,0.90787345
C0A920,富貴角,2024-05-25,25.263783,121.565258,0.71808213
C0A931,三和,2024-05-25,25.233153,121.595236,0.8321937
C0A940,金山,2024-05-25,25.223628,121.643967,0.43749177
C0A950,鼻頭角,2024-05-25,25.129036,121.923372,0.9050833
C0A970,三貂角,2024-05-25,25.007606,122.002058,0.8415939
C0A980,社子,2024-05-25,25.109508,121.469681,0.9588568
C0A9C0,天母,2024-05-25,25.117494,121.537169,0.9818704
C0A9F0,內湖,2024-05-25,25.079422,121.57545,0.9656541
C0AC60,三峽,2024-05-25,24.939025,121.369728,0.888072
C0AC70,信義,2024-05-25,25.037822,121.564597,0.94658303
C0AC80,文山,2024-05-25,25.00235,121.575728,0.7743329
C0ACA0,新莊,2024-05-25,25.051478,121.446756,0.96872205
C0AD00,三芝,2024-05-25,25.258131,121.501917,0.77120936
C0AD10,八里,2024-05-25,25.150211,121.403947,0.9673808
C0AD30,蘆洲,2024-05-25,25.086594,121.472331,0.9512966
C0AD40,土城,2024-05-25,24.973208,121.445169,0.8630349
C0AD50,鶯歌,2024-05-25,24.951533,121.346294,0.8899642
C0AG80,中和,2024-05-25,24.991622,121.491792,0.80780786
C0AH00,汐止,2024-05-25,25.066881,121.658778,0.97421205
C0AH10,永和,2024-05-25,25.01125,121.508111,0.8064631
C0AH40,平等,2024-05-25,25.129142,121.577086,0.80619055
C0AH50,林口,2024-05-25,25.072181,121.38084,0.95705134
C0AH70,松山,2024-05-25,25.04871,121.55042,0.94658303
C0AH80,深坑,2024-05-25,25.002703,121.628328,0.83195513
C0AI00,五股,2024-05-25,25.07445,121.42728,0.9634596
C0AI10,屈尺,2024-05-25,24.92184,121.54475,0.9094783
C0AI20,白沙灣,2024-05-25,25.283128,121.519058,0.7330599
C0AI30,三重,2024-05-25,25.057328,121.500629,0.94336915
C0AI40,石牌,2024-05-25,25.115597,121.513139,0.9838905
C0AJ20,野柳,2024-05-25,25.20703,121.690021,0.8947502
C0AJ30,淡水觀海,2024-05-25,25.184591,121.408616,0.973416
C0AJ40,石門,2024-05-25,25.273672,121.601198,0.90440404
C0AJ50,水湳洞,2024-05-25,25.123695,121.862238,0.54499835
C0AJ60,六塊厝,2024-05-25,25.24,121.4481,0.7432319
C0AJ70,田寮,2024-05-25,25.2698,121.4886,0.7931738
C0AJ80,板橋,2024-05-25,25.0107,121.4489,0.8379107
C0AJ90,澳底,2024-05-25,25.0552,121.9253,0.881657
C0B010,七堵,2024-05-25,25.094819,121.71713,0.8511589
C0B020,基隆嶼,2024-05-25,25.19141,121.78391,0.8798967
C0B040,大武崙,2024-05-25,25.166676,121.706993,0.8652216
C0B050,八斗子,2024-05-25,25.144754,121.79167,0.93482935
C0B060,暖暖,2024-05-25,25.0957,121.7403,0.86492676
C0C460,復興,2024-05-25,24.820208,121.352281,0.61646646
C0C480,桃園,2024-05-25,24.992425,121.323172,0.92792284
C0C490,八德,2024-05-25,24.928708,121.283289,0.8728399
C0C590,觀音,2024-05-25,25.027072,121.153317,0.666434
C0C620,蘆竹,2024-05-25,25.084275,121.265767,0.7317242
C0C630,大溪,2024-05-25,24.882853,121.265547,0.97751063
C0C650,平鎮,2024-05-25,24.897503,121.214636,0.84583265
C0C660,楊梅,2024-05-25,24.912375,121.143047,0.9605103
C0C670,龍潭,2024-05-25,24.870056,121.221389,0.9708385
C0C680,龜山,2024-05-25,25.02846,121.38656,0.96132606
C0C700,中壢,2024-05-25,24.977661,121.256375,0.9458754
C0C710,大溪永福,2024-05-25,24.892936,121.324975,0.94051826
C0C720,竹圍,2024-05-25,25.112692,121.239824,0.9623973
C0C730,中大臨海站,2024-05-25,24.966126,121.008581,0.7086544
C0C740,觀音工業區,2024-05-25,25.064764,121.114856,0.6856746
C0C750,新興坑尾,2024-05-25,25.0061,121.0971,0.7506796
C0D430,峨眉,2024-05-25,24.6905,121.017189,0.9596069
C0D480,打鐵坑,2024-05-25,24.849664,121.150789,0.9742841
C0D540,橫山,2024-05-25,24.71116,121.11693,0.9469691
C0D560,竹東,2024-05-25,24.767147,121.057881,0.97063863
C0D580,寶山,2024-05-25,24.735006,121.025192,0.9738404
C0D590,新豐,2024-05-25,24.87068,120.97721,0.8983959
C0D650,湖口,2024-05-25,24.904794,121.043628,0.77647305
C0D660,新竹市東區,2024-05-25,24.798681,120.986942,0.9710285
C0D670,海天一線,2024-05-25,24.831986,120.914438,0.90241295
C0D680,香山濕地,2024-05-25,24.783581,120.914988,0.9688405
C0D690,外湖,2024-05-25,24.917735,120.968711,0.796352
C0D700,關西,2024-05-25,24.7977,121.1732,0.9612426
C0E420,竹南,2024-05-25,24.708978,120.888897,0.80579394
C0E430,南庄,2024-05-25,24.601775,121.000214,0.9550362
C0E550,明德,2024-05-25,24.583486,120.885411,0.96584374
C0E590,通霄,2024-05-25,24.471892,120.704622,0.7749482
C0E730,頭份,2024-05-25,24.688247,120.912206,0.8252196
C0E740,造橋,2024-05-25,24.637056,120.864778,0.867545
C0E750,苗栗,2024-05-25,24.564569,120.824575,0.9691563
C0E780,銅鑼,2024-05-25,24.489681,120.790853,0.9729287
C0E791,卓蘭,2024-05-25,24.3126,120.8244,0.970847
C0E810,西湖,2024-05-25,24.562947,120.7485,0.8240666
C0E820,獅潭,2024-05-25,24.539133,120.920042,0.94534624
C0E830,苑裡,2024-05-25,24.439714,120.653053,0.8786479
C0E850,大河,2024-05-25,24.618069,120.948578,0.97745043
C0E870,高鐵苗栗,2024-05-25,24.60725,120.826094,0.8660081
C0E910,海埔,2024-05-25,24.648767,120.772435,0.85650843
C0E920,通霄漁港,2024-05-25,24.498589,120.673876,0.79089135
C0E930,龍鳳,2024-05-25,24.700034,120.859125,0.80874723
C0F0B0,石岡,2024-05-25,24.276061,120.777644,0.97710514
C0F850,東勢,2024-05-25,24.246428,120.833047,0.9710914
C0F970,大坑,2024-05-25,24.173142,120.722289,0.9799164
C0F9I0,神岡,2024-05-25,24.272481,120.658314,0.9790672
C0F9K0,大安,2024-05-25,24.345061,120.588025,0.91957146
C0F9L0,后里,2024-05-25,24.310436,120.729725,0.98114043
C0F9M0,豐原,2024-05-25,24.254322,120.720692,0.98375535
C0F9N0,大里,2024-05-25,24.092464,120.701378,0.97071743
C0F9O0,潭子,2024-05-25,24.213106,120.703933,0.9890796
C0F9P0,清水,2024-05-25,24.312297,120.562242,0.898331
C0F9Q0,外埔,2024-05-25,24.347817,120.705686,0.9806662
C0F9R0,龍井,2024-05-25,24.184536,120.528972,0.8592865
C0F9S0,烏日,2024-05-25,24.107058,120.624103,0.96765304
C0F9T0,西屯,2024-05-25,24.179494,120.641275,0.9438611
C0F9U0,南屯,2024-05-25,24.137006,120.637969,0.93533736
C0F9X0,大雅(中科園區),2024-05-25,24.21528,120.62445,0.96057945
C0FA10,松柏,2024-05-25,24.429115,120.617482,0.8803361
C0FA20,溫寮,2024-05-25,24.372177,120.583125,0.91989374
C0FA30,梧棲,2024-05-25,24.256003,120.523381,0.881552
C0FA40,臺中電廠,2024-05-25,24.2146,120.4907,0.8011043
C0FA50,霧峰,2024-05-25,24.0419,120.6995,0.9739884
C0G620,芬園,2024-05-25,24.015678,120.6213,0.9797545
C0G650,員林,2024-05-25,23.946503,120.585597,0.8859989
C0G660,溪湖,2024-05-25,23.94835,120.479122,0.8065057
C0G720,溪州,2024-05-25,23.851589,120.499093,0.9636242
C0G730,二林,2024-05-25,23.903325,120.376081,0.9216782
C0G740,大城,2024-05-25,23.852487,120.320935,0.8786447
C0G770,福興,2024-05-25,24.041289,120.437669,0.8660826
C0G780,秀水,2024-05-25,24.03405,120.503869,0.7372772
C0G800,埔鹽,2024-05-25,24.000394,120.431683,0.86042964
C0G810,埔心,2024-05-25,23.947633,120.525456,0.806426
C0G820,田尾,2024-05-25,23.901669,120.509389,0.9471285
C0G830,埤頭,2024-05-25,23.866003,120.452806,0.9645137
C0G860,社頭,2024-05-25,23.897647,120.5862,0.92378
C0G880,二水,2024-05-25,23.810742,120.6173,0.5948943
C0G890,伸港,2024-05-25,24.148933,120.484403,0.91670567
C0G900,線西,2024-05-25,24.143358,120.443536,0.9258511
C0G910,花壇,2024-05-25,24.032076,120.549461,0.6812869
C0G920,永靖,2024-05-25,23.924703,120.547533,0.948647
C0G940,竹塘,2024-05-25,23.848253,120.386764,0.9154477
C0G950,防潮門,2024-05-25,24.1835,120.4871,0.8592865
C0G960,福寶,2024-05-25,24.0443,120.3814,0.8900071
C0G970,三豐,2024-05-25,23.882,120.2895,0.82742935
C0H890,埔里,2024-05-25,23.972169,120.952425,0.758049
C0H960,草屯,2024-05-25,23.973672,120.68085,0.97850925
C0I110,竹山,2024-05-25,23.761225,120.688156,0.9080661
C0I360,水里,2024-05-25,23.812553,120.849792,0.7862451
C0I380,集集,2024-05-25,23.828206,120.801467,0.6727076
C0I410,名間,2024-05-25,23.837053,120.701447,0.9443682
C0I420,國姓,2024-05-25,24.037803,120.855072,0.9360223
C0I460,南投,2024-05-25,23.911469,120.687331,0.94989663
C0K250,崙背,2024-05-25,23.75555,120.318925,0.90551805
C0K280,四湖,2024-05-25,23.630414,120.227125,0.67681473
C0K291,宜梧,2024-05-25,23.536281,120.169329,0.7164129
C0K330,虎尾,2024-05-25,23.719183,120.442036,0.8936473
C0K390,土庫,2024-05-25,23.679029,120.395574,0.8697459
C0K400,斗六,2024-05-25,23.720583,120.541127,0.86555207
C0K410,北港,2024-05-25,23.573957,120.292802,0.8954567
C0K420,西螺,2024-05-25,23.800407,120.467394,0.92228127
C0K430,褒忠,2024-05-25,23.690938,120.303634,0.8749232
C0K440,二崙,2024-05-25,23.772797,120.408944,0.92416346
C0K450,大埤,2024-05-25,23.646074,120.431537,0.93545675
C0K460,斗南,2024-05-25,23.678734,120.478359,0.92443013
C0K470,林內,2024-05-25,23.748675,120.609642,0.8512646
C0K480,莿桐,2024-05-25,23.761192,120.502372,0.9114106
C0K500,元長,2024-05-25,23.64981,120.315024,0.85356385
C0K510,水林,2024-05-25,23.572924,120.24597,0.8993578
C0K530,臺西,2024-05-25,23.701547,120.197559,0.7039663
C0K550,蔦松,2024-05-25,23.514319,120.229736,0.67281705
C0K560,棋山,2024-05-25,23.68645,120.603417,0.71741295
C0K580,高鐵雲林,2024-05-25,23.737456,120.417944,0.90829116
C0K590,雲林東勢,2024-05-25,23.674192,120.255721,0.8690075
C0K600,箔子寮,2024-05-25,23.6197,120.14,0.7440125
C0M520,東後寮,2024-05-25,23.369908,120.248065,0.73280734
C0M640,中埔,2024-05-25,23.42538,120.5229,0.8267849
C0M650,朴子,2024-05-25,23.43463,120.23902,0.79205567
C0M660,溪口,2024-05-25,23.604131,120.403569,0.87936276
C0M670,大林,2024-05-25,23.600616,120.45841,0.8609923
C0M680,太保,2024-05-25,23.455062,120.331455,0.63312083
C0M690,水上,2024-05-25,23.419734,120.388909,0.60283524
C0M700,竹崎,2024-05-25,23.526178,120.555508,0.95247495
C0M710,東石,2024-05-25,23.458927,120.15385,0.84293735
C0M720,番路,2024-05-25,23.464657,120.554156,0.776594
C0M730,嘉義市東區,2024-05-25,23.457673,120.460531,0.7219264
C0M740,六腳,2024-05-25,23.492871,120.290625,0.90894294
C0M750,布袋,2024-05-25,23.380878,120.167789,0.81421214
C0M760,民雄,2024-05-25,23.551754,120.428457,0.86789894
C0M770,嘉義梅山,2024-05-25,23.585398,120.555587,0.8052967
C0M780,鹿草,2024-05-25,23.41134,120.30835,0.7593694
C0M790,新港,2024-05-25,23.553269,120.345728,0.8875508
C0M800,茶山,2024-05-25,23.299075,120.664767,0.4086371
C0M880,好美里,2024-05-25,23.3364,120.138,0.83523506
C0N010,鯤鯓國小,2024-05-25,23.1879,120.0889,0.8303079
C0N020,城西,2024-05-25,23.0568,120.0956,0.7589653
C0N030,四草,2024-05-25,23.0235,120.1116,0.7960976
C0N040,蘆竹溝,2024-05-25,23.2344,120.0961,0.7353847
C0N050,蚵寮,2024-05-25,23.301,120.1104,0.80717534
C0O830,北寮,2024-05-25,23.079561,120.495008,0.54774475
C0O840,王爺宮,2024-05-25,23.222064,120.40085,0.77315354
C0O860,大內,2024-05-25,23.11885,120.36083,0.50455815
C0O900,善化,2024-05-25,23.112883,120.297219,0.54705703
C0O960,崎頂,2024-05-25,22.959547,120.369317,0.6128326
C0O970,虎頭埤,2024-05-25,23.021375,120.347878,0.5896303
C0O980,新市,2024-05-25,23.061614,120.298197,0.53557366
C0O990,媽廟,2024-05-25,22.99175,120.293525,0.5496561
C0R150,三地門,2024-05-25,22.709889,120.639944,0.655492
C0R160,鹽埔,2024-05-25,22.739558,120.530778,0.48442572
C0R170,屏東,2024-05-25,22.660269,120.494072,0.46185863
C0R190,赤山,2024-05-25,22.592333,120.614306,0.7917389
C0R220,潮州,2024-05-25,22.534361,120.54,0.5354095
C0R240,來義,2024-05-25,22.527306,120.625111,0.9112113
C0R260,春日,2024-05-25,22.370361,120.628306,0.37232944
C0R270,琉球嶼,2024-05-25,22.332244,120.362236,0.6214961
C0R280,檳榔,2024-05-25,22.076078,120.836777,0.10604008
C0R320,車城,2024-05-25,22.0744,120.716247,0.093264095
C0R341,牡丹,2024-05-25,22.130036,120.792639,0.10465656
C0R350,貓鼻頭,2024-05-25,21.921774,120.7358,0.049780246
C0R470,高樹,2024-05-25,22.826389,120.600806,0.53678787
C0R480,長治,2024-05-25,22.693128,120.542622,0.5065605
C0R490,九如,2024-05-25,22.7405,120.490503,0.4772886
C0R520,崁頂,2024-05-25,22.514781,120.506914,0.5528584
C0R540,佳冬,2024-05-25,22.419456,120.552375,0.4155174
C0R550,新埤,2024-05-25,22.467947,120.582894,0.5873347
C0R560,新園,2024-05-25,22.5434,120.461558,0.62959087
C0R570,麟洛,2024-05-25,22.65078,120.52719,0.46185863
C0R580,南州,2024-05-25,22.48591,120.50274,0.58539176
C0R590,里港,2024-05-25,22.77919,120.49459,0.37263194
C0R620,墾雷,2024-05-25,21.900836,120.855269,0.048802357
C0R640,東港,2024-05-25,22.46247,120.44074,0.7174294
C0R650,竹田,2024-05-25,22.58486,120.54344,0.49827597
C0R660,枋寮,2024-05-25,22.367722,120.590647,0.29793158
C0R670,楓港,2024-05-25,22.190131,120.692156,0.11062829
C0R680,佳樂水,2024-05-25,21.993578,120.861633,0.07181361
C0R690,墾丁,2024-05-25,21.966756,120.810269,0.08470329
C0R700,枋山,2024-05-25,22.246844,120.661086,0.19869076
C0R710,龍磐,2024-05-25,21.931672,120.838942,0.054662555
C0R720,旭海,2024-05-25,22.205403,120.887614,0.09094695
C0R730,大坪頂,2024-05-25,22.024633,120.69355,0.12221259
C0R740,獅子,2024-05-25,22.201569,120.70525,0.1001815
C0R760,南仁湖,2024-05-25,22.084681,120.863353,0.12944834
C0R770,保力,2024-05-25,22.071122,120.764111,0.10228518
C0R780,滿州,2024-05-25,22.024403,120.839892,0.08687072
C0R790,九棚,2024-05-25,22.14195,120.889281,0.08926848
C0R800,丹路,2024-05-25,22.204481,120.750989,0.10188693
C0R810,內獅,2024-05-25,22.305064,120.642986,0.1727868
C0R830,高士,2024-05-25,22.121825,120.836781,0.12865338
C0R850,林邊,2024-05-25,22.4634,120.5339,0.5779003
C0R860,鼻頭,2024-05-25,22.1043,120.8979,0.08314281
C0R870,興海,2024-05-25,21.9752,120.8439,0.070949435
C0R880,後壁湖,2024-05-25,21.9457,120.7457,0.08471154
C0R890,山海,2024-05-25,21.9878,120.7091,0.08572178
C0R900,竹坑,2024-05-25,22.1385,120.7022,0.0942894
C0R910,下寮,2024-05-25,22.3929,120.5548,0.41626978
C0R920,塭仔,2024-05-25,22.4169,120.5197,0.45885444
C0R930,萬丹,2024-05-25,22.5885,120.4851,0.44866398
C0R940,加祿堂,2024-05-25,22.3363,120.6217,0.14238292
C0S710,鹿野,2024-05-25,22.917711,121.122994,0.43317324
C0S730,綠島,2024-05-25,22.6672,121.47533,0.20939355
C0S740,池上,2024-05-25,23.119628,121.209469,0.4902294
C0S770,大溪山,2024-05-25,22.478475,120.943325,0.8135356
C0S790,金崙,2024-05-25,22.538122,120.966875,0.7320921
C0S810,東河,2024-05-25,22.972672,121.303986,0.5844516
C0S830,長濱,2024-05-25,23.286817,121.411975,0.95881164
C0S840,南田,2024-05-25,22.279725,120.889208,0.13007472
C0S890,關山,2024-05-25,23.0395,121.175017,0.85399425
C0S900,蘭嶼高中,2024-05-25,22.04909,121.51214,0.48533964
C0S910,蘭嶼燈塔,2024-05-25,22.081197,121.503117,0.58310634
C0S920,金峰嘉蘭,2024-05-25,22.594789,120.960825,0.73707855
C0S930,延平,2024-05-25,22.902581,121.084058,0.10251354
C0S940,石寧山,2024-05-25,23.223772,121.406639,0.88871026
C0S950,七塊厝,2024-05-25,22.954453,121.229922,0.57151324
C0S960,香蘭,2024-05-25,22.587569,120.993375,0.7956514
C0S970,加津林,2024-05-25,22.416211,120.926942,0.2841331
C0S990,山豬窟,2024-05-25,22.318619,120.857372,0.078626335
C0SA00,歷坵,2024-05-25,22.520969,120.89185,0.92196053
C0SA10,檳榔四格山,2024-05-25,22.810031,121.109308,0.491688
C0SA30,都歷,2024-05-25,23.020333,121.323642,0.8809047
C0SA40,瑞和,2024-05-25,22.974361,121.156697,0.4968453
C0SA60,知本（水試所）,2024-05-25,22.702394,121.082761,0.48430502
C0SA80,土坂,2024-05-25,22.453108,120.887572,0.9440519
C0SA90,達仁林場,2024-05-25,22.264347,120.823972,0.08235231
C0T870,鯉魚潭,2024-05-25,23.935639,121.508944,0.19900675
C0T900,西林,2024-05-25,23.8119,121.441458,0.28806323
C0T960,光復,2024-05-25,23.660694,121.424964,0.51047426
C0T9A0,月眉山,2024-05-25,23.809928,121.539828,0.80594575
C0T9D0,和中,2024-05-25,24.26676,121.74103,0.93292624
C0T9E0,大坑,2024-05-25,23.880628,121.581981,0.8160256
C0T9F0,水璉,2024-05-25,23.797131,121.542514,0.7533745
C0T9I0,豐濱,2024-05-25,23.583897,121.514806,0.73675746
C0T9M0,靜浦,2024-05-25,23.455167,121.495028,0.9455175
C0T9N0,富里,2024-05-25,23.171639,121.249378,0.43201783
C0U600,礁溪,2024-05-25,24.817539,121.765608,0.89683205
C0U650,玉蘭,2024-05-25,24.675286,121.587061,0.9046382
C0U750,龜山島,2024-05-25,24.841667,121.953133,0.47187254
C0U760,東澳,2024-05-25,24.52196,121.83318,0.9059073
C0U770,南澳,2024-05-25,24.44935,121.81022,0.98310983
C0U780,五結,2024-05-25,24.68637,121.79794,0.93834054
C0U860,頭城,2024-05-25,24.85323,121.8308,0.94406587
C0U870,大礁溪,2024-05-25,24.791042,121.675047,0.85831565
C0U880,北關,2024-05-25,24.9072,121.8734,0.9772218
C0U890,三星,2024-05-25,24.66812,121.65302,0.93254924
C0U900,內城,2024-05-25,24.71813,121.68766,0.76541257
C0U910,冬山,2024-05-25,24.63373,121.7937,0.8967047
C0U940,羅東,2024-05-25,24.68184,121.74934,0.86845195
C0U970,大福,2024-05-25,24.80064,121.81389,0.5441213
C0U990,員山,2024-05-25,24.74435,121.72247,0.790783
C0UA00,土場,2024-05-25,24.576533,121.495333,0.9072542
C0UA80,大溪漁港,2024-05-25,24.941801,121.902955,0.9810108
C0UA90,石城,2024-05-25,24.980444,121.951214,0.97515327
C0UB00,淡江大學蘭陽校園,2024-05-25,24.823239,121.730383,0.8658633
C0UB10,蘇澳,2024-05-25,24.5969,121.8571,0.9393027
C0UB20,壯圍,2024-05-25,24.7359,121.8163,0.9521796
C0V310,美濃,2024-05-25,22.898742,120.519153,0.43491548
C0V350,溪埔,2024-05-25,22.738578,120.446797,0.46500784
C0V360,內門,2024-05-25,22.975481,120.466769,0.531094
C0V370,古亭坑,2024-05-25,22.893178,120.401947,0.4783661
C0V400,阿公店,2024-05-25,22.804194,120.355528,0.50113225
C0V440,鳳山,2024-05-25,22.646653,120.356122,0.7845795
C0V450,鳳森,2024-05-25,22.545064,120.392592,0.73631305
C0V490,新興,2024-05-25,22.627422,120.298803,0.78521377
C0V530,阿蓮,2024-05-25,22.883208,120.327508,0.5612217
C0V610,梓官,2024-05-25,22.760558,120.267211,0.7955994
C0V620,永安,2024-05-25,22.82315,120.236856,0.75875074
C0V630,茄萣,2024-05-25,22.906642,120.182608,0.789899
C0V640,湖內,2024-05-25,22.887139,120.2445,0.68405426
C0V650,彌陀,2024-05-25,22.783806,120.246361,0.7634879
C0V660,岡山,2024-05-25,22.797078,120.294958,0.6886686
C0V680,仁武,2024-05-25,22.701083,120.347722,0.7387558
C0V690,鼓山,2024-05-25,22.623325,120.275575,0.8328415
C0V700,三民,2024-05-25,22.645017,120.311233,0.79849476
C0V710,苓雅,2024-05-25,22.622742,120.330669,0.83209294
C0V720,林園,2024-05-25,22.507747,120.394511,0.73745954
C0V730,大寮,2024-05-25,22.605614,120.395717,0.7602995
C0V740,旗山,2024-05-25,22.888614,120.483597,0.44468117
C0V750,路竹,2024-05-25,22.854997,120.259439,0.720669
C0V760,橋頭,2024-05-25,22.757806,120.30575,0.68342215
C0V770,大社,2024-05-25,22.730306,120.346639,0.64553857
C0V790,萬山,2024-05-25,22.905944,120.688056,0.23785098
C0V800,六龜,2024-05-25,22.997889,120.633583,0.30876088
C0V810,左營,2024-05-25,22.67491,120.28491,0.79849476
C0V820,小林,2024-05-25,23.148408,120.63325,0.29518485
C0V840,鳳鼻頭,2024-05-25,22.5083,120.3591,0.74451154
C0V850,蚵仔寮,2024-05-25,22.7256,120.2527,0.7897001
C0V860,南寮,2024-05-25,22.7616,120.2339,0.7897001
C0V870,文安,2024-05-25,22.8025,120.2164,0.86847067
C0V880,興達,2024-05-25,22.8778,120.2127,0.76998174
C0V890,前鎮,2024-05-25,22.5718,120.3117,0.78051585
C0V900,汕尾,2024-05-25,22.4782,120.4151,0.66813076
C0W200,湖西,2024-05-25,23.596314,119.67275,0.9068021
C0X050,東河,2024-05-25,23.296598,120.385608,0.7982746
C0X060,下營,2024-05-25,23.22695,120.256261,0.6802914
C0X080,佳里,2024-05-25,23.173039,120.145086,0.66010135
C0X100,臺南市北區,2024-05-25,23.010394,120.194228,0.67861545
C0X110,臺南市南區,2024-05-25,22.961189,120.188378,0.6749946
C0X120,麻豆,2024-05-25,23.183289,120.248611,0.6187901
C0X130,官田,2024-05-25,23.193217,120.315422,0.6229826
C0X140,西港,2024-05-25,23.125608,120.203108,0.6189685
C0X150,安定,2024-05-25,23.102614,120.227839,0.59131247
C0X160,仁德,2024-05-25,22.968258,120.257689,0.60782385
C0X170,關廟,2024-05-25,22.963017,120.327797,0.52866584
C0X180,山上,2024-05-25,23.0757,120.363253,0.5603079
C0X190,安平,2024-05-25,22.993161,120.152181,0.7994043
C0X200,左鎮,2024-05-25,23.056758,120.408522,0.5742949
C0X210,白河,2024-05-25,23.347466,120.414427,0.7008071
C0X220,學甲,2024-05-25,23.230367,120.182187,0.67051876
C0X230,鹽水,2024-05-25,23.272621,120.247641,0.67151976
C0X240,關子嶺,2024-05-25,23.331169,120.508025,0.3231244
C0X250,新營,2024-05-25,23.310689,120.316681,0.7318608
C0X260,後壁,2024-05-25,23.366358,120.362326,0.77558243
C0X280,將軍,2024-05-25,23.214999,120.13577,0.70110977
C0X290,北門,2024-05-25,23.267772,120.125481,0.7353847
C0X300,鹿寮,2024-05-25,23.386047,120.477331,0.74019146
C0X310,七股,2024-05-25,23.147289,120.086253,0.82330436
C0X320,柳營,2024-05-25,23.253328,120.375253,0.6932747
C0Z020,明里,2024-05-25,23.208717,121.262342,0.33192095
C0Z061,玉里,2024-05-25,23.3215,121.339656,0.95918065
C0Z070,舞鶴,2024-05-25,23.46811,121.37407,0.8918154
C0Z080,富源,2024-05-25,23.587642,121.378225,0.96389043
C0Z100,東華,2024-05-25,23.89525,121.549833,0.7460381
C0Z150,吉安光華,2024-05-25,23.930925,121.595153,0.8870111
C0Z160,鳳林,2024-05-25,23.746114,121.453411,0.6618965
C0Z170,卓溪,2024-05-25,23.3443,121.3029,0.9716142
C0Z180,新城,2024-05-25,24.03946,121.60454,0.73521626
C0Z190,富世,2024-05-25,24.14743,121.6297,0.45020938
C0Z200,萬榮,2024-05-25,23.709219,121.420106,0.77093905
C0Z210,瑞穗,2024-05-25,23.5239,121.39021,0.62446463
C0Z230,和平,2024-05-25,24.30717,121.77007,0.9617069
C0Z270,蕃薯寮,2024-05-25,23.73835,121.540108,0.9164174
C0Z280,德武,2024-05-25,23.47426,121.41071,0.88887733
C0Z300,東里,2024-05-25,23.26853,121.30547,0.46136743
C0Z310,清水斷崖,2024-05-25,24.218294,121.689142,0.72483593
C0Z330,安通山,2024-05-25,23.290728,121.348528,0.9407629
C2E520,大湖,2024-05-25,24.414939,120.870872,0.86937547
C2E540,後龍,2024-05-25,24.606489,120.783933,0.8684877
C2F000,大肚,2024-05-25,24.15295,120.572117,0.9680002
C2F930,大甲,2024-05-25,24.347667,120.640403,0.9206991
C2F9A0,中竹林,2024-05-25,24.103556,120.751061,0.7928816
C2G640,鹿港,2024-05-25,24.0753,120.430481,0.8752221
C2G840,北斗,2024-05-25,23.877586,120.514222,0.9594401
C2G870,芳苑,2024-05-25,23.922303,120.320025,0.922837
C2H950,中寮,2024-05-25,23.884447,120.766406,0.9442133
C2M410,馬頭山,2024-05-25,23.324361,120.582017,0.21132061
C2N160,西拉雅風管處,2024-05-25,23.189481,120.335297,0.6293014
C2O810,曾文,2024-05-25,23.219681,120.497328,0.43012908
C2O930,玉井,2024-05-25,23.126042,120.46055,0.54663104
C2O950,安南,2024-05-25,23.076694,120.144861,0.6873673
C2V250,甲仙,2024-05-25,23.080106,120.591758,0.44385615
C2V260,月眉,2024-05-25,22.971003,120.539853,0.47022521
C2W230,畜試所澎湖,2024-05-25,23.628342,119.513206,0.91377735
CAG100,王功漁港,2024-05-25,23.96824,120.32586,0.9008226
CAH030,茶改場竹圍站,2024-05-25,23.860083,120.637528,0.89280254
CAJ050,海口故事園區,2024-05-25,23.57543,120.14121,0.74427617
CAL110,布袋國中,2024-05-25,23.35893,120.18026,0.80308723
CAN130,水試所海水繁養殖中心,2024-05-25,23.120802,120.07968,0.82911384
CAN140,六官養殖協會,2024-05-25,23.22881,120.29962,0.66617334
CAQ030,崎峰國小,2024-05-25,22.42565,120.49521,0.62617034
E2K600,四湖植物園,2024-05-25,23.676986,120.163433,0.7684637
E2P980,林試六龜中心,2024-05-25,22.991703,120.645722,0.31515935
E2S960,林試太麻里2,2024-05-25,22.598014,120.989761,0.79548913
E2S960,林試太麻里2,2024-05-25,22.598,120.99775,0.794123
E2S980,林試太麻里1,2024-05-25,22.598922,120.980044,0.8045156
G2AI50,關渡,2024-05-25,25.11575,121.492,0.95882374
G2F820,農業試驗所,2024-05-25,24.031261,120.688133,0.9739643
G2F820,農試所(霧峰),2024-05-25,24.031261,120.688133,0.9739643
G2L020,農試嘉義分所,2024-05-25,23.485028,120.473806,0.9145408
G2M350,農試溪口農場,2024-05-25,23.58565,120.408111,0.87541294
G2P820,農試鳳山分所,2024-05-25,22.646611,120.356083,0.7845795
K2E360,苗栗農改,2024-05-25,24.495722,120.829111,0.9743929
K2E360,苗栗農改場,2024-05-25,24.495722,120.829111,0.9743929
K2E710,苗改生物防治研究中心,2024-05-25,24.422861,120.871833,0.8826309
K2F750,種苗改良場,2024-05-25,24.225972,120.800917,0.93595964
K2F750,種苗繁殖,2024-05-25,24.225972,120.800917,0.93595964
U2HA50,臺大竹山,2024-05-25,23.756972,120.681556,0.9681906
V2C250,八德合作社,2024-05-25,24.93775,121.266389,0.8694821
V2C260,八德蔬果,2024-05-25,24.978508,121.281819,0.928184
V2K610,大庄合作社,2024-05-25,23.8068,120.367939,0.91916054
V2K620,麥寮合作社,2024-05-25,23.753836,120.294783,0.87909836
