站號,站名,日期,lat,lon,BlastGRU-TW
12J990,口湖工作站,2024-08-28,23.589978,120.180394,0.14734255
12Q970,東港工作站,2024-08-28,22.479997,120.466058,0.018467387
12Q980,恆春工作站,2024-08-28,22.079678,120.714425,0.12675354
466881,新北,2024-08-28,24.9593,121.52,0.031852663
466900,淡水,2024-08-28,25.164889,121.448906,0.02754369
466920,臺北,2024-08-28,25.037658,121.514853,0.015876824
466940,基隆,2024-08-28,25.133314,121.740475,0.031778783
466990,花蓮,2024-08-28,23.975128,121.613275,0.028587807
467050,新屋,2024-08-28,25.006744,121.047486,0.5747066
467080,宜蘭,2024-08-28,24.763975,121.756528,0.08787008
467270,田中,2024-08-28,23.873803,120.581286,0.12198752
467280,後龍,2024-08-28,24.648563,120.831834,0.6606951
467300,東吉島,2024-08-28,23.25695,119.667467,0.97465146
467350,澎湖,2024-08-28,23.565503,119.563094,0.94610703
467410,臺南,2024-08-28,22.993239,120.204772,0.0498717
467420,永康,2024-08-28,23.038386,120.2367,0.031947095
467441,高雄,2024-08-28,22.7304,120.3125,0.027878502
467480,嘉義,2024-08-28,23.495925,120.432906,0.2520453
467490,臺中,2024-08-28,24.145736,120.684075,0.1197262
467540,大武,2024-08-28,22.355675,120.903789,0.057435695
467571,新竹,2024-08-28,24.827853,121.014219,0.07382218
467590,恆春,2024-08-28,22.003897,120.746339,0.62628895
467610,成功,2024-08-28,23.097486,121.373428,0.015307037
467620,蘭嶼,2024-08-28,22.036969,121.558339,0.9932648
467660,臺東,2024-08-28,22.752211,121.154586,0.06012769
467790,墾丁雷達站,2024-08-28,21.948235,120.808028,0.847862
72AI40,桃改樹林分場,2024-08-28,24.944503,121.386972,0.029492967
72C440,桃園農改,2024-08-28,24.950944,121.030583,0.6488357
72C440,桃園農改場,2024-08-28,24.950944,121.030583,0.6488357
72D680,桃改新埔分場,2024-08-28,24.834444,121.066111,0.056899983
72G600,臺中農改,2024-08-28,24.003028,120.534389,0.1666032
72G600,臺中農改場,2024-08-28,24.003028,120.534389,0.1666032
72K220,南改斗南分場,2024-08-28,23.634556,120.477333,0.41421926
72M360,南改義竹分場,2024-08-28,23.360694,120.279361,0.10707971
72M700,南改鹿草分場,2024-08-28,23.416869,120.283061,0.1354539
72N100,臺南農改,2024-08-28,23.0605,120.342194,0.0646597
72N100,臺南農改場,2024-08-28,23.0605,120.342194,0.0646597
72N240,七股研究中心,2024-08-28,23.081672,120.062894,0.07232131
72Q010,高雄農改,2024-08-28,22.709333,120.525889,0.020919101
72Q010,高雄農改場,2024-08-28,22.709333,120.525889,0.020919101
72S200,東改班鳩分場,2024-08-28,22.829528,121.077694,0.07160966
72S590,東改賓朗果園,2024-08-28,22.813889,121.071278,0.09529028
72T250,花蓮農改,2024-08-28,23.975222,121.563889,0.029236458
72T250,花蓮農改場,2024-08-28,23.975222,121.563889,0.029236458
72U480,花改蘭陽分場,2024-08-28,24.686306,121.716583,0.04266721
72V140,高改旗南分場,2024-08-28,22.857861,120.516667,0.053030852
82A750,茶改北部分場,2024-08-28,24.955778,121.631222,0.017165355
82C160,茶改場,2024-08-28,24.908472,121.185333,0.035553638
82H840,茶改南部分場,2024-08-28,23.762528,120.7405,0.6277801
82S580,茶改東部分場,2024-08-28,22.907694,121.130139,0.06692638
A2C560,農工中心,2024-08-28,24.985917,121.239833,0.035712197
A2K360,水試臺西試驗場,2024-08-28,23.717231,120.190522,0.2604535
A2K570,古坑花卉中心,2024-08-28,23.63353,120.55239,0.31751275
A2K630,臺大雲林校區,2024-08-28,23.730628,120.423903,0.2763579
A2N290,臺南蘭花園區,2024-08-28,23.340258,120.379661,0.11764142
B2E890,畜試北區分所,2024-08-28,24.527806,120.770972,0.5582111
B2N890,畜產試驗所,2024-08-28,23.058972,120.336406,0.06203238
B2N890,畜試所,2024-08-28,23.058972,120.336406,0.06203238
B2Q810,畜試南區分所,2024-08-28,21.945583,120.802167,0.730511
B2U990,畜試東區分所,2024-08-28,24.669039,121.832561,0.02444109
C0A520,山佳,2024-08-28,24.974944,121.402008,0.040691454
C0A530,坪林,2024-08-28,24.938183,121.70975,0.02287004
C0A550,泰平,2024-08-28,24.971197,121.823711,0.027388193
C0A570,桶後,2024-08-28,24.848222,121.597992,0.02440992
C0A640,石碇,2024-08-28,24.993969,121.662917,0.04508917
C0A770,科教館,2024-08-28,25.096356,121.516507,0.015897997
C0A860,大坪,2024-08-28,25.165914,121.632969,0.015106617
C0A890,雙溪,2024-08-28,25.036003,121.864242,0.05132412
C0A931,三和,2024-08-28,25.233153,121.595236,0.02781202
C0A940,金山,2024-08-28,25.223628,121.643967,0.024110125
C0A950,鼻頭角,2024-08-28,25.129036,121.923372,0.07373221
C0A970,三貂角,2024-08-28,25.007606,122.002058,0.0323924
C0A980,社子,2024-08-28,25.109508,121.469681,0.027208267
C0A9C0,天母,2024-08-28,25.117494,121.537169,0.0129385665
C0A9F0,內湖,2024-08-28,25.079422,121.57545,0.015876824
C0AC60,三峽,2024-08-28,24.939025,121.369728,0.029903542
C0AC70,信義,2024-08-28,25.037822,121.564597,0.015876824
C0AC80,文山,2024-08-28,25.00235,121.575728,0.03254499
C0ACA0,新莊,2024-08-28,25.051478,121.446756,0.018453343
C0AD10,八里,2024-08-28,25.150211,121.403947,0.0301322
C0AD30,蘆洲,2024-08-28,25.086594,121.472331,0.015862323
C0AD40,土城,2024-08-28,24.973208,121.445169,0.03163288
C0AD50,鶯歌,2024-08-28,24.951533,121.346294,0.030549256
C0AG80,中和,2024-08-28,24.991622,121.491792,0.03163288
C0AH00,汐止,2024-08-28,25.066881,121.658778,0.015876824
C0AH10,永和,2024-08-28,25.01125,121.508111,0.031408146
C0AH40,平等,2024-08-28,25.129142,121.577086,0.016832141
C0AH50,林口,2024-08-28,25.072181,121.38084,0.0681992
C0AH70,松山,2024-08-28,25.04871,121.55042,0.015876824
C0AH80,深坑,2024-08-28,25.002703,121.628328,0.032561503
C0AI00,五股,2024-08-28,25.07445,121.42728,0.073743954
C0AI10,屈尺,2024-08-28,24.92184,121.54475,0.023165531
C0AI20,白沙灣,2024-08-28,25.283128,121.519058,0.05727254
C0AI30,三重,2024-08-28,25.057328,121.500629,0.015885916
C0AI40,石牌,2024-08-28,25.115597,121.513139,0.012969685
C0AJ20,野柳,2024-08-28,25.20703,121.690021,0.024029205
C0AJ30,淡水觀海,2024-08-28,25.184591,121.408616,0.024503225
C0AJ40,石門,2024-08-28,25.273672,121.601198,0.07645375
C0AJ50,水湳洞,2024-08-28,25.123695,121.862238,0.03537017
C0AJ60,六塊厝,2024-08-28,25.24,121.4481,0.05485528
C0AJ70,田寮,2024-08-28,25.2698,121.4886,0.056181274
C0AJ80,板橋,2024-08-28,25.0107,121.4489,0.031408146
C0AJ90,澳底,2024-08-28,25.0552,121.9253,0.047739897
C0B010,七堵,2024-08-28,25.094819,121.71713,0.025277536
C0B020,基隆嶼,2024-08-28,25.19141,121.78391,0.031059233
C0B040,大武崙,2024-08-28,25.166676,121.706993,0.03360699
C0B050,八斗子,2024-08-28,25.144754,121.79167,0.031322394
C0B060,暖暖,2024-08-28,25.0957,121.7403,0.02639278
C0C460,復興,2024-08-28,24.820208,121.352281,0.054179363
C0C480,桃園,2024-08-28,24.992425,121.323172,0.033338606
C0C490,八德,2024-08-28,24.928708,121.283289,0.033858735
C0C590,觀音,2024-08-28,25.027072,121.153317,0.43181667
C0C620,蘆竹,2024-08-28,25.084275,121.265767,0.07960822
C0C630,大溪,2024-08-28,24.882853,121.265547,0.025620034
C0C650,平鎮,2024-08-28,24.897503,121.214636,0.033869073
C0C660,楊梅,2024-08-28,24.912375,121.143047,0.03175537
C0C670,龍潭,2024-08-28,24.870056,121.221389,0.030851316
C0C680,龜山,2024-08-28,25.02846,121.38656,0.07250062
C0C700,中壢,2024-08-28,24.977661,121.256375,0.039658237
C0C710,大溪永福,2024-08-28,24.892936,121.324975,0.041626096
C0C720,竹圍,2024-08-28,25.112692,121.239824,0.06473527
C0C730,中大臨海站,2024-08-28,24.966126,121.008581,0.50135016
C0C740,觀音工業區,2024-08-28,25.064764,121.114856,0.60201174
C0C750,新興坑尾,2024-08-28,25.0061,121.0971,0.3086952
C0D430,峨眉,2024-08-28,24.6905,121.017189,0.5305322
C0D480,打鐵坑,2024-08-28,24.849664,121.150789,0.031095143
C0D540,橫山,2024-08-28,24.71116,121.11693,0.114277616
C0D560,竹東,2024-08-28,24.767147,121.057881,0.3916111
C0D580,寶山,2024-08-28,24.735006,121.025192,0.3080946
C0D590,新豐,2024-08-28,24.87068,120.97721,0.97440684
C0D650,湖口,2024-08-28,24.904794,121.043628,0.4237044
C0D660,新竹市東區,2024-08-28,24.798681,120.986942,0.23012814
C0D670,海天一線,2024-08-28,24.831986,120.914438,0.95723796
C0D680,香山濕地,2024-08-28,24.783581,120.914988,0.17841049
C0D690,外湖,2024-08-28,24.917735,120.968711,0.17168121
C0D700,關西,2024-08-28,24.7977,121.1732,0.05311336
C0E420,竹南,2024-08-28,24.708978,120.888897,0.75473785
C0E430,南庄,2024-08-28,24.601775,121.000214,0.39759952
C0E550,明德,2024-08-28,24.583486,120.885411,0.6463331
C0E590,通霄,2024-08-28,24.471892,120.704622,0.46897095
C0E730,頭份,2024-08-28,24.688247,120.912206,0.7256861
C0E740,造橋,2024-08-28,24.637056,120.864778,0.6235379
C0E750,苗栗,2024-08-28,24.564569,120.824575,0.6088453
C0E780,銅鑼,2024-08-28,24.489681,120.790853,0.7191698
C0E791,卓蘭,2024-08-28,24.3126,120.8244,0.79291654
C0E810,西湖,2024-08-28,24.562947,120.7485,0.9199059
C0E820,獅潭,2024-08-28,24.539133,120.920042,0.6464816
C0E830,苑裡,2024-08-28,24.439714,120.653053,0.7907266
C0E850,大河,2024-08-28,24.618069,120.948578,0.35461003
C0E870,高鐵苗栗,2024-08-28,24.60725,120.826094,0.63316923
C0E910,海埔,2024-08-28,24.648767,120.772435,0.7418007
C0E920,通霄漁港,2024-08-28,24.498589,120.673876,0.7529232
C0E930,龍鳳,2024-08-28,24.700034,120.859125,0.64729524
C0F0B0,石岡,2024-08-28,24.276061,120.777644,0.7705936
C0F850,東勢,2024-08-28,24.246428,120.833047,0.756202
C0F970,大坑,2024-08-28,24.173142,120.722289,0.11129862
C0F9I0,神岡,2024-08-28,24.272481,120.658314,0.3652038
C0F9K0,大安,2024-08-28,24.345061,120.588025,0.5112542
C0F9L0,后里,2024-08-28,24.310436,120.729725,0.61223525
C0F9M0,豐原,2024-08-28,24.254322,120.720692,0.5107297
C0F9N0,大里,2024-08-28,24.092464,120.701378,0.07569161
C0F9O0,潭子,2024-08-28,24.213106,120.703933,0.28028774
C0F9P0,清水,2024-08-28,24.312297,120.562242,0.31246924
C0F9Q0,外埔,2024-08-28,24.347817,120.705686,0.33711305
C0F9R0,龍井,2024-08-28,24.184536,120.528972,0.11798543
C0F9S0,烏日,2024-08-28,24.107058,120.624103,0.06795248
C0F9T0,西屯,2024-08-28,24.179494,120.641275,0.13369326
C0F9U0,南屯,2024-08-28,24.137006,120.637969,0.112359926
C0F9X0,大雅(中科園區),2024-08-28,24.21528,120.62445,0.22561672
C0FA10,松柏,2024-08-28,24.429115,120.617482,0.70728195
C0FA20,溫寮,2024-08-28,24.372177,120.583125,0.47434568
C0FA30,梧棲,2024-08-28,24.256003,120.523381,0.31246924
C0FA40,臺中電廠,2024-08-28,24.2146,120.4907,0.2438907
C0FA50,霧峰,2024-08-28,24.0419,120.6995,0.048494343
C0G620,芬園,2024-08-28,24.015678,120.6213,0.03807441
C0G650,員林,2024-08-28,23.946503,120.585597,0.105321355
C0G660,溪湖,2024-08-28,23.94835,120.479122,0.18218142
C0G720,溪州,2024-08-28,23.851589,120.499093,0.108102754
C0G730,二林,2024-08-28,23.903325,120.376081,0.23361526
C0G740,大城,2024-08-28,23.852487,120.320935,0.3174971
C0G770,福興,2024-08-28,24.041289,120.437669,0.15120244
C0G780,秀水,2024-08-28,24.03405,120.503869,0.16406901
C0G800,埔鹽,2024-08-28,24.000394,120.431683,0.15268792
C0G810,埔心,2024-08-28,23.947633,120.525456,0.19004005
C0G820,田尾,2024-08-28,23.901669,120.509389,0.106808156
C0G830,埤頭,2024-08-28,23.866003,120.452806,0.09512193
C0G860,社頭,2024-08-28,23.897647,120.5862,0.11382265
C0G880,二水,2024-08-28,23.810742,120.6173,0.23645991
C0G890,伸港,2024-08-28,24.148933,120.484403,0.09801057
C0G900,線西,2024-08-28,24.143358,120.443536,0.09506717
C0G910,花壇,2024-08-28,24.032076,120.549461,0.18060017
C0G920,永靖,2024-08-28,23.924703,120.547533,0.106808156
C0G940,竹塘,2024-08-28,23.848253,120.386764,0.34031436
C0G950,防潮門,2024-08-28,24.1835,120.4871,0.11798543
C0G960,福寶,2024-08-28,24.0443,120.3814,0.09824811
C0G970,三豐,2024-08-28,23.882,120.2895,0.2805823
C0H890,埔里,2024-08-28,23.972169,120.952425,0.08817185
C0H960,草屯,2024-08-28,23.973672,120.68085,0.03804502
C0I110,竹山,2024-08-28,23.761225,120.688156,0.36481836
C0I360,水里,2024-08-28,23.812553,120.849792,0.10443378
C0I380,集集,2024-08-28,23.828206,120.801467,0.09785086
C0I410,名間,2024-08-28,23.837053,120.701447,0.19305123
C0I420,國姓,2024-08-28,24.037803,120.855072,0.097897924
C0I460,南投,2024-08-28,23.911469,120.687331,0.11073718
C0K250,崙背,2024-08-28,23.75555,120.318925,0.3104152
C0K280,四湖,2024-08-28,23.630414,120.227125,0.18492262
C0K291,宜梧,2024-08-28,23.536281,120.169329,0.07891884
C0K330,虎尾,2024-08-28,23.719183,120.442036,0.27201352
C0K390,土庫,2024-08-28,23.679029,120.395574,0.16120927
C0K400,斗六,2024-08-28,23.720583,120.541127,0.41897807
C0K410,北港,2024-08-28,23.573957,120.292802,0.20074196
C0K420,西螺,2024-08-28,23.800407,120.467394,0.18874317
C0K430,褒忠,2024-08-28,23.690938,120.303634,0.2704534
C0K440,二崙,2024-08-28,23.772797,120.408944,0.19416597
C0K450,大埤,2024-08-28,23.646074,120.431537,0.38832512
C0K460,斗南,2024-08-28,23.678734,120.478359,0.41421926
C0K470,林內,2024-08-28,23.748675,120.609642,0.306595
C0K480,莿桐,2024-08-28,23.761192,120.502372,0.28573015
C0K500,元長,2024-08-28,23.64981,120.315024,0.20666994
C0K510,水林,2024-08-28,23.572924,120.24597,0.19317035
C0K530,臺西,2024-08-28,23.701547,120.197559,0.276559
C0K550,蔦松,2024-08-28,23.514319,120.229736,0.07891884
C0K560,棋山,2024-08-28,23.68645,120.603417,0.38163728
C0K580,高鐵雲林,2024-08-28,23.737456,120.417944,0.2763579
C0K590,雲林東勢,2024-08-28,23.674192,120.255721,0.20126085
C0K600,箔子寮,2024-08-28,23.6197,120.14,0.14734255
C0M520,東後寮,2024-08-28,23.369908,120.248065,0.10163247
C0M640,中埔,2024-08-28,23.42538,120.5229,0.25504383
C0M650,朴子,2024-08-28,23.43463,120.23902,0.12918983
C0M660,溪口,2024-08-28,23.604131,120.403569,0.2268613
C0M670,大林,2024-08-28,23.600616,120.45841,0.23313011
C0M680,太保,2024-08-28,23.455062,120.331455,0.15763526
C0M690,水上,2024-08-28,23.419734,120.388909,0.14100158
C0M700,竹崎,2024-08-28,23.526178,120.555508,0.27636853
C0M710,東石,2024-08-28,23.458927,120.15385,0.15807205
C0M720,番路,2024-08-28,23.464657,120.554156,0.32213622
C0M730,嘉義市東區,2024-08-28,23.457673,120.460531,0.16991125
C0M740,六腳,2024-08-28,23.492871,120.290625,0.1754913
C0M750,布袋,2024-08-28,23.380878,120.167789,0.11193115
C0M760,民雄,2024-08-28,23.551754,120.428457,0.2619232
C0M770,嘉義梅山,2024-08-28,23.585398,120.555587,0.54355675
C0M780,鹿草,2024-08-28,23.41134,120.30835,0.14761877
C0M790,新港,2024-08-28,23.553269,120.345728,0.25285104
C0M800,茶山,2024-08-28,23.299075,120.664767,0.7916859
C0M880,好美里,2024-08-28,23.3364,120.138,0.0700896
C0N010,鯤鯓國小,2024-08-28,23.1879,120.0889,0.03646746
C0N020,城西,2024-08-28,23.0568,120.0956,0.041040245
C0N030,四草,2024-08-28,23.0235,120.1116,0.0401979
C0N040,蘆竹溝,2024-08-28,23.2344,120.0961,0.046842903
C0N050,蚵寮,2024-08-28,23.301,120.1104,0.059091788
C0O830,北寮,2024-08-28,23.079561,120.495008,0.07292862
C0O840,王爺宮,2024-08-28,23.222064,120.40085,0.15051371
C0O860,大內,2024-08-28,23.11885,120.36083,0.05672036
C0O900,善化,2024-08-28,23.112883,120.297219,0.063745245
C0O960,崎頂,2024-08-28,22.959547,120.369317,0.08649074
C0O970,虎頭埤,2024-08-28,23.021375,120.347878,0.07751341
C0O980,新市,2024-08-28,23.061614,120.298197,0.082873076
C0O990,媽廟,2024-08-28,22.99175,120.293525,0.033029757
C0R150,三地門,2024-08-28,22.709889,120.639944,0.036078084
C0R160,鹽埔,2024-08-28,22.739558,120.530778,0.020919101
C0R170,屏東,2024-08-28,22.660269,120.494072,0.030511241
C0R190,赤山,2024-08-28,22.592333,120.614306,0.020703498
C0R220,潮州,2024-08-28,22.534361,120.54,0.017274635
C0R240,來義,2024-08-28,22.527306,120.625111,0.024615029
C0R260,春日,2024-08-28,22.370361,120.628306,0.027332174
C0R270,琉球嶼,2024-08-28,22.332244,120.362236,0.06344885
C0R280,檳榔,2024-08-28,22.076078,120.836777,0.26749086
C0R320,車城,2024-08-28,22.0744,120.716247,0.12675354
C0R341,牡丹,2024-08-28,22.130036,120.792639,0.2446116
C0R350,貓鼻頭,2024-08-28,21.921774,120.7358,0.85704076
C0R470,高樹,2024-08-28,22.826389,120.600806,0.0601907
C0R480,長治,2024-08-28,22.693128,120.542622,0.029348107
C0R490,九如,2024-08-28,22.7405,120.490503,0.020224959
C0R520,崁頂,2024-08-28,22.514781,120.506914,0.016672129
C0R540,佳冬,2024-08-28,22.419456,120.552375,0.024525695
C0R550,新埤,2024-08-28,22.467947,120.582894,0.01928256
C0R560,新園,2024-08-28,22.5434,120.461558,0.02408538
C0R570,麟洛,2024-08-28,22.65078,120.52719,0.030511241
C0R580,南州,2024-08-28,22.48591,120.50274,0.018467387
C0R590,里港,2024-08-28,22.77919,120.49459,0.035622425
C0R620,墾雷,2024-08-28,21.900836,120.855269,0.9794696
C0R640,東港,2024-08-28,22.46247,120.44074,0.018467387
C0R650,竹田,2024-08-28,22.58486,120.54344,0.016645651
C0R660,枋寮,2024-08-28,22.367722,120.590647,0.024549857
C0R670,楓港,2024-08-28,22.190131,120.692156,0.07279833
C0R680,佳樂水,2024-08-28,21.993578,120.861633,0.74519473
C0R690,墾丁,2024-08-28,21.966756,120.810269,0.942684
C0R700,枋山,2024-08-28,22.246844,120.661086,0.057065196
C0R710,龍磐,2024-08-28,21.931672,120.838942,0.9872375
C0R720,旭海,2024-08-28,22.205403,120.887614,0.9157642
C0R730,大坪頂,2024-08-28,22.024633,120.69355,0.46314424
C0R740,獅子,2024-08-28,22.201569,120.70525,0.23138575
C0R760,南仁湖,2024-08-28,22.084681,120.863353,0.42510667
C0R770,保力,2024-08-28,22.071122,120.764111,0.1939864
C0R780,滿州,2024-08-28,22.024403,120.839892,0.6932932
C0R790,九棚,2024-08-28,22.14195,120.889281,0.19202012
C0R800,丹路,2024-08-28,22.204481,120.750989,0.58369297
C0R810,內獅,2024-08-28,22.305064,120.642986,0.031776957
C0R830,高士,2024-08-28,22.121825,120.836781,0.66660446
C0R850,林邊,2024-08-28,22.4634,120.5339,0.018830456
C0R860,鼻頭,2024-08-28,22.1043,120.8979,0.069336705
C0R870,興海,2024-08-28,21.9752,120.8439,0.730511
C0R880,後壁湖,2024-08-28,21.9457,120.7457,0.27588752
C0R890,山海,2024-08-28,21.9878,120.7091,0.2879114
C0R900,竹坑,2024-08-28,22.1385,120.7022,0.13292293
C0R910,下寮,2024-08-28,22.3929,120.5548,0.024549857
C0R920,塭仔,2024-08-28,22.4169,120.5197,0.024326168
C0R930,萬丹,2024-08-28,22.5885,120.4851,0.041980952
C0R940,加祿堂,2024-08-28,22.3363,120.6217,0.025005033
C0S710,鹿野,2024-08-28,22.917711,121.122994,0.22884877
C0S730,綠島,2024-08-28,22.6672,121.47533,0.10861841
C0S740,池上,2024-08-28,23.119628,121.209469,0.036144152
C0S770,大溪山,2024-08-28,22.478475,120.943325,0.40768465
C0S790,金崙,2024-08-28,22.538122,120.966875,0.3713504
C0S810,東河,2024-08-28,22.972672,121.303986,0.022010816
C0S830,長濱,2024-08-28,23.286817,121.411975,0.029343655
C0S840,南田,2024-08-28,22.279725,120.889208,0.18486552
C0S890,關山,2024-08-28,23.0395,121.175017,0.024075733
C0S900,蘭嶼高中,2024-08-28,22.04909,121.51214,0.99372315
C0S910,蘭嶼燈塔,2024-08-28,22.081197,121.503117,0.99320245
C0S920,金峰嘉蘭,2024-08-28,22.594789,120.960825,0.09462759
C0S930,延平,2024-08-28,22.902581,121.084058,0.09910274
C0S940,石寧山,2024-08-28,23.223772,121.406639,0.019177416
C0S950,七塊厝,2024-08-28,22.954453,121.229922,0.17661147
C0S960,香蘭,2024-08-28,22.587569,120.993375,0.07147314
C0S970,加津林,2024-08-28,22.416211,120.926942,0.060432293
C0S990,山豬窟,2024-08-28,22.318619,120.857372,0.94745725
C0SA00,歷坵,2024-08-28,22.520969,120.89185,0.8689336
C0SA10,檳榔四格山,2024-08-28,22.810031,121.109308,0.5878454
C0SA30,都歷,2024-08-28,23.020333,121.323642,0.01589469
C0SA40,瑞和,2024-08-28,22.974361,121.156697,0.027439306
C0SA60,知本（水試所）,2024-08-28,22.702394,121.082761,0.040743217
C0SA80,土坂,2024-08-28,22.453108,120.887572,0.10586771
C0SA90,達仁林場,2024-08-28,22.264347,120.823972,0.93104833
C0T870,鯉魚潭,2024-08-28,23.935639,121.508944,0.031329457
C0T900,西林,2024-08-28,23.8119,121.441458,0.028902428
C0T960,光復,2024-08-28,23.660694,121.424964,0.039937034
C0T9A0,月眉山,2024-08-28,23.809928,121.539828,0.098896176
C0T9D0,和中,2024-08-28,24.26676,121.74103,0.08206921
C0T9E0,大坑,2024-08-28,23.880628,121.581981,0.18509632
C0T9F0,水璉,2024-08-28,23.797131,121.542514,0.04502244
C0T9I0,豐濱,2024-08-28,23.583897,121.514806,0.035372507
C0T9M0,靜浦,2024-08-28,23.455167,121.495028,0.042351127
C0T9N0,富里,2024-08-28,23.171639,121.249378,0.028698605
C0U600,礁溪,2024-08-28,24.817539,121.765608,0.059755705
C0U650,玉蘭,2024-08-28,24.675286,121.587061,0.016806696
C0U750,龜山島,2024-08-28,24.841667,121.953133,0.24475518
C0U760,東澳,2024-08-28,24.52196,121.83318,0.03427113
C0U770,南澳,2024-08-28,24.44935,121.81022,0.110515974
C0U780,五結,2024-08-28,24.68637,121.79794,0.04032018
C0U860,頭城,2024-08-28,24.85323,121.8308,0.05949621
C0U870,大礁溪,2024-08-28,24.791042,121.675047,0.03572926
C0U880,北關,2024-08-28,24.9072,121.8734,0.024379302
C0U890,三星,2024-08-28,24.66812,121.65302,0.016139934
C0U900,內城,2024-08-28,24.71813,121.68766,0.04491551
C0U910,冬山,2024-08-28,24.63373,121.7937,0.02444109
C0U940,羅東,2024-08-28,24.68184,121.74934,0.04169222
C0U970,大福,2024-08-28,24.80064,121.81389,0.086940356
C0U990,員山,2024-08-28,24.74435,121.72247,0.041259415
C0UA00,土場,2024-08-28,24.576533,121.495333,0.007736974
C0UA80,大溪漁港,2024-08-28,24.941801,121.902955,0.027410226
C0UA90,石城,2024-08-28,24.980444,121.951214,0.030893417
C0UB00,淡江大學蘭陽校園,2024-08-28,24.823239,121.730383,0.024574472
C0UB10,蘇澳,2024-08-28,24.5969,121.8571,0.012226795
C0UB20,壯圍,2024-08-28,24.7359,121.8163,0.039869312
C0V310,美濃,2024-08-28,22.898742,120.519153,0.053030852
C0V350,溪埔,2024-08-28,22.738578,120.446797,0.026637327
C0V360,內門,2024-08-28,22.975481,120.466769,0.042731863
C0V370,古亭坑,2024-08-28,22.893178,120.401947,0.057431363
C0V400,阿公店,2024-08-28,22.804194,120.355528,0.043885358
C0V440,鳳山,2024-08-28,22.646653,120.356122,0.03466725
C0V450,鳳森,2024-08-28,22.545064,120.392592,0.032142222
C0V490,新興,2024-08-28,22.627422,120.298803,0.026113946
C0V530,阿蓮,2024-08-28,22.883208,120.327508,0.043416053
C0V610,梓官,2024-08-28,22.760558,120.267211,0.028948233
C0V620,永安,2024-08-28,22.82315,120.236856,0.0390657
C0V630,茄萣,2024-08-28,22.906642,120.182608,0.06100275
C0V640,湖內,2024-08-28,22.887139,120.2445,0.055812348
C0V650,彌陀,2024-08-28,22.783806,120.246361,0.03297954
C0V660,岡山,2024-08-28,22.797078,120.294958,0.03297954
C0V680,仁武,2024-08-28,22.701083,120.347722,0.032344308
C0V690,鼓山,2024-08-28,22.623325,120.275575,0.026113946
C0V700,三民,2024-08-28,22.645017,120.311233,0.03335436
C0V710,苓雅,2024-08-28,22.622742,120.330669,0.024112502
C0V720,林園,2024-08-28,22.507747,120.394511,0.022772675
C0V730,大寮,2024-08-28,22.605614,120.395717,0.025418676
C0V740,旗山,2024-08-28,22.888614,120.483597,0.05506615
C0V750,路竹,2024-08-28,22.854997,120.259439,0.059521507
C0V760,橋頭,2024-08-28,22.757806,120.30575,0.028948233
C0V770,大社,2024-08-28,22.730306,120.346639,0.027878502
C0V790,萬山,2024-08-28,22.905944,120.688056,0.4683961
C0V800,六龜,2024-08-28,22.997889,120.633583,0.118736476
C0V810,左營,2024-08-28,22.67491,120.28491,0.03335436
C0V820,小林,2024-08-28,23.148408,120.63325,0.8825621
C0V840,鳳鼻頭,2024-08-28,22.5083,120.3591,0.022912722
C0V850,蚵仔寮,2024-08-28,22.7256,120.2527,0.027555438
C0V860,南寮,2024-08-28,22.7616,120.2339,0.027555438
C0V870,文安,2024-08-28,22.8025,120.2164,0.031828508
C0V880,興達,2024-08-28,22.8778,120.2127,0.051790982
C0V890,前鎮,2024-08-28,22.5718,120.3117,0.025767233
C0V900,汕尾,2024-08-28,22.4782,120.4151,0.018467387
C0W200,湖西,2024-08-28,23.596314,119.67275,0.9362139
C0X050,東河,2024-08-28,23.296598,120.385608,0.058429718
C0X060,下營,2024-08-28,23.22695,120.256261,0.06585529
C0X080,佳里,2024-08-28,23.173039,120.145086,0.03646746
C0X100,臺南市北區,2024-08-28,23.010394,120.194228,0.04302715
C0X110,臺南市南區,2024-08-28,22.961189,120.188378,0.050227042
C0X120,麻豆,2024-08-28,23.183289,120.248611,0.042790573
C0X130,官田,2024-08-28,23.193217,120.315422,0.06531088
C0X140,西港,2024-08-28,23.125608,120.203108,0.03133787
C0X150,安定,2024-08-28,23.102614,120.227839,0.03133787
C0X160,仁德,2024-08-28,22.968258,120.257689,0.050414313
C0X170,關廟,2024-08-28,22.963017,120.327797,0.051789302
C0X180,山上,2024-08-28,23.0757,120.363253,0.053295285
C0X190,安平,2024-08-28,22.993161,120.152181,0.04302715
C0X200,左鎮,2024-08-28,23.056758,120.408522,0.072180815
C0X210,白河,2024-08-28,23.347466,120.414427,0.13064998
C0X220,學甲,2024-08-28,23.230367,120.182187,0.04812053
C0X230,鹽水,2024-08-28,23.272621,120.247641,0.045198157
C0X240,關子嶺,2024-08-28,23.331169,120.508025,0.82085323
C0X250,新營,2024-08-28,23.310689,120.316681,0.0660467
C0X260,後壁,2024-08-28,23.366358,120.362326,0.11764142
C0X280,將軍,2024-08-28,23.214999,120.13577,0.046842903
C0X290,北門,2024-08-28,23.267772,120.125481,0.046842903
C0X300,鹿寮,2024-08-28,23.386047,120.477331,0.12206897
C0X320,柳營,2024-08-28,23.253328,120.375253,0.062331136
C0Z020,明里,2024-08-28,23.208717,121.262342,0.023007326
C0Z061,玉里,2024-08-28,23.3215,121.339656,0.02120298
C0Z070,舞鶴,2024-08-28,23.46811,121.37407,0.034748282
C0Z080,富源,2024-08-28,23.587642,121.378225,0.0261578
C0Z100,東華,2024-08-28,23.89525,121.549833,0.033345137
C0Z150,吉安光華,2024-08-28,23.930925,121.595153,0.028482158
C0Z160,鳳林,2024-08-28,23.746114,121.453411,0.025000142
C0Z170,卓溪,2024-08-28,23.3443,121.3029,0.041111525
C0Z180,新城,2024-08-28,24.03946,121.60454,0.028781947
C0Z190,富世,2024-08-28,24.14743,121.6297,0.075942144
C0Z200,萬榮,2024-08-28,23.709219,121.420106,0.028238157
C0Z210,瑞穗,2024-08-28,23.5239,121.39021,0.033045918
C0Z230,和平,2024-08-28,24.30717,121.77007,0.079166465
C0Z270,蕃薯寮,2024-08-28,23.73835,121.540108,0.10977878
C0Z280,德武,2024-08-28,23.47426,121.41071,0.042014487
C0Z300,東里,2024-08-28,23.26853,121.30547,0.019622033
C0Z310,清水斷崖,2024-08-28,24.218294,121.689142,0.9358379
C0Z330,安通山,2024-08-28,23.290728,121.348528,0.14368616
C2A540,四堵,2024-08-28,24.8926,121.745736,0.022498487
C2A560,福山,2024-08-28,24.776203,121.502811,0.016827889
C2A650,火燒寮,2024-08-28,25.002719,121.742892,0.024702553
C2A660,瑞芳,2024-08-28,25.113169,121.801147,0.040154792
C2A880,福隆,2024-08-28,25.017842,121.942083,0.030711368
C2A920,富貴角,2024-08-28,25.263783,121.565258,0.08368691
C2E520,大湖,2024-08-28,24.414939,120.870872,0.84567994
C2E540,後龍,2024-08-28,24.606489,120.783933,0.7533664
C2E540,龍溪,2024-08-28,24.606489,120.783933,0.7533664
C2F000,大肚,2024-08-28,24.15295,120.572117,0.3500684
C2F930,大甲,2024-08-28,24.347667,120.640403,0.64641845
C2F9A0,中竹林,2024-08-28,24.103556,120.751061,0.12156336
C2G640,鹿港,2024-08-28,24.0753,120.430481,0.09824811
C2G840,北斗,2024-08-28,23.877586,120.514222,0.10294532
C2G870,芳苑,2024-08-28,23.922303,120.320025,0.4371228
C2H950,中寮,2024-08-28,23.884447,120.766406,0.14371884
C2M410,馬頭山,2024-08-28,23.324361,120.582017,0.5455841
C2N160,西拉雅風管處,2024-08-28,23.189481,120.335297,0.06698982
C2O810,曾文,2024-08-28,23.219681,120.497328,0.07094
C2O930,玉井,2024-08-28,23.126042,120.46055,0.053295285
C2O950,安南,2024-08-28,23.076694,120.144861,0.076850295
C2V250,甲仙,2024-08-28,23.080106,120.591758,0.4245476
C2V260,月眉,2024-08-28,22.971003,120.539853,0.090535685
C2W230,畜試所澎湖,2024-08-28,23.628342,119.513206,0.88358116
CAG100,王功漁港,2024-08-28,23.96824,120.32586,0.438716
CAH030,茶改場竹圍站,2024-08-28,23.860083,120.637528,0.08902738
CAJ050,海口故事園區,2024-08-28,23.57543,120.14121,0.14468598
CAL110,布袋國中,2024-08-28,23.35893,120.18026,0.11193115
CAN130,水試所海水繁養殖中心,2024-08-28,23.120802,120.07968,0.07232131
CAN140,六官養殖協會,2024-08-28,23.22881,120.29962,0.06585529
CAQ030,崎峰國小,2024-08-28,22.42565,120.49521,0.018467387
E2K600,四湖植物園,2024-08-28,23.676986,120.163433,0.18492262
E2P980,林試六龜中心,2024-08-28,22.991703,120.645722,0.13419488
E2S960,林試太麻里2,2024-08-28,22.598014,120.989761,0.07266389
E2S960,林試太麻里2,2024-08-28,22.598,120.99775,0.069574736
E2S980,林試太麻里1,2024-08-28,22.598922,120.980044,0.09322293
G2AI50,關渡,2024-08-28,25.11575,121.492,0.027355306
G2F820,農業試驗所,2024-08-28,24.031261,120.688133,0.04779735
G2F820,農試所(霧峰),2024-08-28,24.031261,120.688133,0.04779735
G2L020,農試嘉義分所,2024-08-28,23.485028,120.473806,0.18500808
G2M350,農試溪口農場,2024-08-28,23.58565,120.408111,0.2268613
G2P820,農試鳳山分所,2024-08-28,22.646611,120.356083,0.03466725
K2E360,苗栗農改,2024-08-28,24.495722,120.829111,0.5996978
K2E360,苗栗農改場,2024-08-28,24.495722,120.829111,0.5996978
K2E710,苗改生物防治研究中心,2024-08-28,24.422861,120.871833,0.79205614
K2F750,種苗改良場,2024-08-28,24.225972,120.800917,0.9751692
K2F750,種苗繁殖,2024-08-28,24.225972,120.800917,0.9751692
U2HA50,臺大竹山,2024-08-28,23.756972,120.681556,0.53690976
V2C250,八德合作社,2024-08-28,24.93775,121.266389,0.03689406
V2C260,八德蔬果,2024-08-28,24.978508,121.281819,0.039018102
V2K610,大庄合作社,2024-08-28,23.8068,120.367939,0.34866363
V2K620,麥寮合作社,2024-08-28,23.753836,120.294783,0.26944017
