站號,站名,日期,lat,lon,BLBTSLS
K2F750,種苗繁殖,2024-12-28,24.225972,120.800917,2.7569291e-09
467990,馬祖,2024-12-28,26.169269,119.923419,1.4908373e-07
C2E540,後龍,2024-12-28,24.606489,120.783933,0.00014650056
467300,東吉島,2024-12-28,23.25695,119.667467,0.9983969
G2F820,農業試驗所,2024-12-28,24.031261,120.688133,8.369821e-10
467410,臺南,2024-12-28,22.993239,120.204772,8.479149e-10
E2S960,林試太麻里2,2024-12-28,22.598014,120.989761,2.6820746e-09
72C440,桃園農改,2024-12-28,24.950944,121.030583,0.014808144
C1H860,瑞岩,2024-12-28,24.123772,121.18345,1.5895322e-08
72G600,臺中農改,2024-12-28,24.003028,120.534389,7.0134176e-10
72N100,臺南農改,2024-12-28,23.0605,120.342194,6.986768e-10
72T250,花蓮農改,2024-12-28,23.975222,121.563889,5.485894e-09
467620,蘭嶼,2024-12-28,22.036969,121.558339,0.4040924
K2E360,苗栗農改,2024-12-28,24.495722,120.829111,5.286541e-09
467050,新屋,2024-12-28,25.006744,121.047486,0.8414622
467550,玉山,2024-12-28,23.487614,120.959522,2.6863457e-08
466881,新北,2024-12-28,24.9593,121.52,3.7963186e-08
467540,大武,2024-12-28,22.355675,120.903789,1.7741426e-05
72Q010,高雄農改,2024-12-28,22.709333,120.525889,5.3174837e-10
U2H480,臺大溪頭,2024-12-28,23.670306,120.798194,4.1930606e-09
B2N890,畜試所,2024-12-28,23.058972,120.336406,6.986768e-10
467441,高雄,2024-12-28,22.7304,120.3125,1.2719198e-09
