站號,站名,日期,lat,lon,BLBTSLS
C0R710,龍磐,2024-02-03,21.931672,120.838942,0.99950665
C1F9D1,白毛台,2024-02-03,24.158325,120.886933,4.018959e-09
C0G940,竹塘,2024-02-03,23.848253,120.386764,1.1836616e-09
467590,恆春,2024-02-03,22.003897,120.746339,0.9999069
C1O850,環湖,2024-02-03,23.148617,120.418633,3.8678322e-10
C0U710,太平山,2024-02-03,24.505486,121.525656,4.079456e-08
C0E820,獅潭,2024-02-03,24.539133,120.920042,8.325197e-09
C0V880,興達,2024-02-03,22.8778,120.2127,1.5665125e-09
C0S890,關山,2024-02-03,23.0395,121.175017,3.586152e-09
K2F750,種苗繁殖,2024-02-03,24.225972,120.800917,4.2318273e-09
C1Z130,銅門,2024-02-03,23.965694,121.492842,9.555615e-09
C0AD40,土城,2024-02-03,24.973208,121.445169,1.1979781e-08
CAN140,六官養殖協會,2024-02-03,23.22881,120.29962,9.2566166e-10
C0X180,山上,2024-02-03,23.0757,120.363253,4.0900008e-10
C0F9Z0,雪山東峰,2024-02-03,24.388792,121.268675,3.4831466e-08
C1M480,獨立山,2024-02-03,23.537022,120.607797,2.8435971e-09
C0X220,學甲,2024-02-03,23.230367,120.182187,1.7160071e-09
C0R170,屏東,2024-02-03,22.660269,120.494072,3.956611e-10
467650,日月潭,2024-02-03,23.881325,120.90805,6.4311894e-09
C0K600,箔子寮,2024-02-03,23.6197,120.14,2.0375223e-08
C0G830,埤頭,2024-02-03,23.866003,120.452806,6.801658e-10
C0S950,七塊厝,2024-02-03,22.954453,121.229922,4.4694275e-09
467110,金門,2024-02-03,24.407306,118.289281,2.4392927e-08
C0AH80,深坑,2024-02-03,25.002703,121.628328,1.2345429e-08
467990,馬祖,2024-02-03,26.169269,119.923419,9.093338e-08
C0A970,三貂角,2024-02-03,25.007606,122.002058,1.9949601e-08
C0K430,褒忠,2024-02-03,23.690938,120.303634,1.0838008e-09
467480,嘉義,2024-02-03,23.495925,120.432906,4.972907e-10
C2E540,後龍,2024-02-03,24.606489,120.783933,7.189894e-09
C0V400,阿公店,2024-02-03,22.804194,120.355528,4.154908e-10
C0R440,大漢山,2024-02-03,22.405264,120.753181,3.5439953e-08
C0K280,四湖,2024-02-03,23.630414,120.227125,6.951281e-09
C1F9B1,桐林,2024-02-03,24.066172,120.735194,1.0352633e-09
C0K390,土庫,2024-02-03,23.679029,120.395574,5.618836e-10
C1I450,望鄉山,2024-02-03,23.594153,120.944286,1.9793521e-08
C0E910,海埔,2024-02-03,24.648767,120.772435,7.269944e-09
B2E890,畜試北區分所,2024-02-03,24.527806,120.770972,5.582039e-09
C0R750,四林格山,2024-02-03,22.076989,120.802439,6.7273413e-07
C0F0C0,中坑,2024-02-03,24.248517,120.903319,6.6242474e-09
C1I121,大鞍,2024-02-03,23.678381,120.760017,7.879177e-09
72U480,花改蘭陽分場,2024-02-03,24.686306,121.716583,5.6699e-09
C0A770,科教館,2024-02-03,25.096356,121.516507,1.2858092e-08
C0AJ60,六塊厝,2024-02-03,25.24,121.4481,5.399033e-08
C0R620,墾雷,2024-02-03,21.900836,120.855269,0.5967384
467420,永康,2024-02-03,23.038386,120.2367,5.4163146e-10
467300,東吉島,2024-02-03,23.25695,119.667467,0.9779788
C0I410,名間,2024-02-03,23.837053,120.701447,1.7652896e-09
A2C560,農工中心,2024-02-03,24.985917,121.239833,2.8263063e-08
C0V740,旗山,2024-02-03,22.888614,120.483597,2.8234426e-10
C0Z061,玉里,2024-02-03,23.3215,121.339656,9.70913e-09
C0S840,南田,2024-02-03,22.279725,120.889208,0.9997746
C1I470,杉林溪,2024-02-03,23.639517,120.786444,9.3807e-09
C1X040,東原,2024-02-03,23.291597,120.463822,8.333915e-10
C0R660,枋寮,2024-02-03,22.367722,120.590647,7.9431517e-10
C1R120,上德文,2024-02-03,22.763272,120.704442,2.3752076e-09
C0K450,大埤,2024-02-03,23.646074,120.431537,5.282265e-10
C0UA00,土場,2024-02-03,24.576533,121.495333,3.227251e-08
467080,宜蘭,2024-02-03,24.763975,121.756528,7.3201742e-09
C0N030,四草,2024-02-03,23.0235,120.1116,8.6002827e-10
C0V650,彌陀,2024-02-03,22.783806,120.246361,1.5104075e-09
C0D660,新竹市東區,2024-02-03,24.798681,120.986942,7.3734654e-09
82S580,茶改東部分場,2024-02-03,22.907694,121.130139,6.1300858e-09
C0C710,大溪永福,2024-02-03,24.892936,121.324975,1.9891923e-08
C0FA20,溫寮,2024-02-03,24.372177,120.583125,7.409373e-09
C0V640,湖內,2024-02-03,22.887139,120.2445,1.5456448e-09
C0R910,下寮,2024-02-03,22.3929,120.5548,7.945334e-10
C0Z020,明里,2024-02-03,23.208717,121.262342,1.0237844e-08
C0M770,嘉義梅山,2024-02-03,23.585398,120.555587,1.1239907e-09
G2F820,農業試驗所,2024-02-03,24.031261,120.688133,9.07171e-10
C0C660,楊梅,2024-02-03,24.912375,121.143047,2.1523398e-08
C1E511,新開,2024-02-03,24.347703,120.827019,5.663728e-09
G2F820,農試所(霧峰),2024-02-03,24.031261,120.688133,9.07171e-10
C1I070,和社,2024-02-03,23.591131,120.888861,2.942364e-09
C2F000,大肚,2024-02-03,24.15295,120.572117,1.7430801e-09
C1S850,豐南,2024-02-03,23.122139,121.262389,5.649282e-09
C2A920,富貴角,2024-02-03,25.263783,121.565258,4.836866e-08
CAH030,茶改場竹圍站,2024-02-03,23.860083,120.637528,2.362097e-09
C0T960,光復,2024-02-03,23.660694,121.424964,4.2552024e-09
C0F9M0,豐原,2024-02-03,24.254322,120.720692,3.9008774e-09
C0R720,旭海,2024-02-03,22.205403,120.887614,0.0005942106
C0V710,苓雅,2024-02-03,22.622742,120.330669,3.059767e-09
C0C740,觀音工業區,2024-02-03,25.064764,121.114856,5.5944645e-07
CAC040,拉拉山,2024-02-03,24.699317,121.427133,5.98989e-08
C0V790,萬山,2024-02-03,22.905944,120.688056,6.1975886e-10
U2HA30,臺大和社,2024-02-03,23.590856,120.888864,2.942364e-09
C0AJ90,澳底,2024-02-03,25.0552,121.9253,2.9503791e-08
C0Z100,東華,2024-02-03,23.89525,121.549833,7.4280226e-09
C0G970,三豐,2024-02-03,23.882,120.2895,0.0061604376
V2K610,大庄合作社,2024-02-03,23.8068,120.367939,1.0628037e-09
C0V900,汕尾,2024-02-03,22.4782,120.4151,7.597824e-09
C1R630,龍泉,2024-02-03,22.66701,120.59091,3.9671222e-10
C1AC50,關渡,2024-02-03,25.133486,121.469331,2.016102e-08
C0F9I0,神岡,2024-02-03,24.272481,120.658314,3.1901006e-09
C0K460,斗南,2024-02-03,23.678734,120.478359,5.3378985e-10
467410,臺南,2024-02-03,22.993239,120.204772,8.6992535e-10
C2O810,曾文,2024-02-03,23.219681,120.497328,6.0033123e-10
467280,後龍,2024-02-03,24.648563,120.831834,7.309989e-09
C1F9J1,清水林,2024-02-03,24.071242,120.820419,4.0006496e-09
C2A650,火燒寮,2024-02-03,25.002719,121.742892,2.1509527e-08
466930,竹子湖,2024-02-03,25.162078,121.544547,2.5092133e-08
C1I220,樟湖,2024-02-03,23.905333,120.846983,5.4108655e-09
C0I390,仁愛,2024-02-03,24.022122,121.132206,3.6412573e-09
C0Z300,東里,2024-02-03,23.26853,121.30547,1.01005595e-08
C0V310,美濃,2024-02-03,22.898742,120.519153,2.7945807e-10
C1V590,新發,2024-02-03,23.057019,120.646064,3.7122319e-09
C0K510,水林,2024-02-03,23.572924,120.24597,7.7685075e-10
72S590,東改賓朗果園,2024-02-03,22.813889,121.071278,7.23837e-09
82A750,茶改北部分場,2024-02-03,24.955778,121.631222,4.130016e-08
C1A750,石碇服務區,2024-02-03,25.00872,121.646242,1.8595108e-08
C0X300,鹿寮,2024-02-03,23.386047,120.477331,5.2366217e-10
G2AI50,關渡,2024-02-03,25.11575,121.492,2.6641494e-08
C0K590,雲林東勢,2024-02-03,23.674192,120.255721,8.109385e-10
C0A570,桶後,2024-02-03,24.848222,121.597992,2.2366752e-08
C1S800,華源,2024-02-03,22.657883,121.02325,1.652272e-08
C0G720,溪州,2024-02-03,23.851589,120.499093,6.8425154e-10
C1V160,達卡努瓦,2024-02-03,23.279811,120.705319,5.426244e-09
C2M410,馬頭山,2024-02-03,23.324361,120.582017,9.5062e-10
C0V850,蚵仔寮,2024-02-03,22.7256,120.2527,1.0144924e-09
C0S740,池上,2024-02-03,23.119628,121.209469,5.442881e-09
C1V390,尖山,2024-02-03,22.813153,120.367789,4.316245e-10
C0AH70,松山,2024-02-03,25.04871,121.55042,1.2834472e-08
C0N010,鯤鯓國小,2024-02-03,23.1879,120.0889,1.7841812e-09
C0R550,新埤,2024-02-03,22.467947,120.582894,6.9295445e-09
C0SA60,知本（水試所）,2024-02-03,22.702394,121.082761,1.8226162e-08
C0T9I0,豐濱,2024-02-03,23.583897,121.514806,3.7012309e-09
C0UB00,淡江大學蘭陽校園,2024-02-03,24.823239,121.730383,2.3237833e-08
C0T9N0,富里,2024-02-03,23.171639,121.249378,6.3561667e-09
U2HA50,臺大竹山,2024-02-03,23.756972,120.681556,1.092272e-09
C0V840,鳳鼻頭,2024-02-03,22.5083,120.3591,5.639483e-10
C0X140,西港,2024-02-03,23.125608,120.203108,8.009681e-10
72D080,桃改五峰分場,2024-02-03,24.612194,121.157167,1.7210363e-08
C0V530,阿蓮,2024-02-03,22.883208,120.327508,5.0402765e-10
C1O880,關山,2024-02-03,23.173397,120.594092,6.390639e-10
C0E791,卓蘭,2024-02-03,24.3126,120.8244,4.650413e-09
C1I030,武界,2024-02-03,23.913225,121.052483,3.953475e-09
C0R520,崁頂,2024-02-03,22.514781,120.506914,8.848846e-10
C0R341,牡丹,2024-02-03,22.130036,120.792639,0.0001352364
C0R930,萬丹,2024-02-03,22.5885,120.4851,4.4797005e-10
C0S760,紅石,2024-02-03,23.069131,121.126219,3.7762135e-08
C1M610,石磐龍,2024-02-03,23.496606,120.663506,6.3499144e-09
C0UA10,鴛鴦湖,2024-02-03,24.590269,121.412228,2.595059e-08
V2C260,八德蔬果,2024-02-03,24.978508,121.281819,1.826918e-08
C0R800,丹路,2024-02-03,22.204481,120.750989,0.028310066
C0G920,永靖,2024-02-03,23.924703,120.547533,7.02402e-10
C1A630,下盆,2024-02-03,24.771003,121.538622,1.8670736e-08
B2N890,畜產試驗所,2024-02-03,23.058972,120.336406,6.136634e-10
C0UA30,白嶺,2024-02-03,24.527819,121.519031,4.622356e-08
C1V580,溪南(特生中心),2024-02-03,23.084972,120.788475,8.44716e-09
C1T970,大農,2024-02-03,23.615233,121.413331,4.0029167e-09
E2S960,林試太麻里2,2024-02-03,22.598014,120.989761,2.6175831e-08
C0R650,竹田,2024-02-03,22.58486,120.54344,3.857231e-10
C1H900,清流,2024-02-03,24.080775,120.962997,4.299477e-09
C1C510,水尾,2024-02-03,24.940081,121.087161,4.6159506e-08
C0F9X0,大雅(中科園區),2024-02-03,24.21528,120.62445,1.7753958e-09
C0O970,虎頭埤,2024-02-03,23.021375,120.347878,4.3910534e-10
C0C730,中大臨海站,2024-02-03,24.966126,121.008581,1.4114359e-07
C0X250,新營,2024-02-03,23.310689,120.316681,6.7943706e-10
C0V700,三民,2024-02-03,22.645017,120.311233,3.726477e-09
C0U870,大礁溪,2024-02-03,24.791042,121.675047,1.787309e-08
C0E870,高鐵苗栗,2024-02-03,24.60725,120.826094,7.1473436e-09
A2K570,古坑花卉中心,2024-02-03,23.63353,120.55239,9.709719e-10
C0M860,新美,2024-02-03,23.338017,120.683169,1.5768666e-09
C1E701,八卦,2024-02-03,24.491756,120.927619,1.6100369e-08
C0I420,國姓,2024-02-03,24.037803,120.855072,2.3066133e-09
C0S960,香蘭,2024-02-03,22.587569,120.993375,2.6175831e-08
C0R260,春日,2024-02-03,22.370361,120.628306,7.838193e-10
72G600,臺中農改場,2024-02-03,24.003028,120.534389,7.393234e-10
C0Z210,瑞穗,2024-02-03,23.5239,121.39021,3.931967e-09
C0M820,達邦,2024-02-03,23.453994,120.749517,4.5147086e-09
C0V860,南寮,2024-02-03,22.7616,120.2339,1.0140222e-09
C0G740,大城,2024-02-03,23.852487,120.320935,0.0052968753
C0R920,塭仔,2024-02-03,22.4169,120.5197,7.9421364e-10
C0R470,高樹,2024-02-03,22.826389,120.600806,3.4813627e-10
C0R680,佳樂水,2024-02-03,21.993578,120.861633,0.99998564
C1O870,大棟山,2024-02-03,23.31157,120.52226,4.3166506e-09
C0D360,梅花,2024-02-03,24.678347,121.208558,1.0049693e-08
C0Z190,富世,2024-02-03,24.14743,121.6297,1.5549245e-08
C0AI10,屈尺,2024-02-03,24.92184,121.54475,1.8841487e-08
B2U990,畜試東區分所,2024-02-03,24.669039,121.832561,5.795552e-09
C0R240,來義,2024-02-03,22.527306,120.625111,8.1967166e-10
C1R610,西大武山,2024-02-03,22.617719,120.7322,3.7564224e-08
C0G900,線西,2024-02-03,24.143358,120.443536,2.00908e-09
C0M700,竹崎,2024-02-03,23.526178,120.555508,6.92814e-10
C2E880,三義,2024-02-03,24.405478,120.749819,7.71391e-09
C0C720,竹圍,2024-02-03,25.112692,121.239824,2.6606557e-08
C0F9P0,清水,2024-02-03,24.312297,120.562242,3.871547e-09
C0Z150,吉安光華,2024-02-03,23.930925,121.595153,8.840601e-09
C1D640,外坪(五指山),2024-02-03,24.644447,121.090961,1.2446812e-08
C0F9O0,潭子,2024-02-03,24.213106,120.703933,2.3422446e-09
72T250,花蓮農改場,2024-02-03,23.975222,121.563889,8.47377e-09
C0E780,銅鑼,2024-02-03,24.489681,120.790853,6.321118e-09
C1T950,太安,2024-02-03,23.666719,121.370128,6.233326e-08
C0E830,苑裡,2024-02-03,24.439714,120.653053,1.6984957e-08
467270,田中,2024-02-03,23.873803,120.581286,6.668957e-10
C0SA10,檳榔四格山,2024-02-03,22.810031,121.109308,7.1716233e-09
C1T830,布洛灣,2024-02-03,24.17184,121.57127,9.3946866e-08
C0F970,大坑,2024-02-03,24.173142,120.722289,1.3320455e-09
C1U920,思源,2024-02-03,24.393125,121.347214,2.1618273e-08
C0A931,三和,2024-02-03,25.233153,121.595236,2.4490173e-08
C0I010,廬山,2024-02-03,24.033311,121.181808,6.499345e-09
C0R860,鼻頭,2024-02-03,22.1043,120.8979,0.6083105
C0UB20,壯圍,2024-02-03,24.7359,121.8163,5.535959e-09
C0R790,九棚,2024-02-03,22.14195,120.889281,0.0018749019
C0W110,東莒,2024-02-03,25.9652,119.98069,2.2895992e-07
C1U930,粉鳥林,2024-02-03,24.497088,121.842479,7.876097e-09
C1I211,蘆竹湳,2024-02-03,23.934019,120.811994,2.6295064e-09
C0S830,長濱,2024-02-03,23.286817,121.411975,1.0249958e-08
C1F9F1,伯公龍,2024-02-03,24.272392,120.849047,4.4730264e-09
C0E810,西湖,2024-02-03,24.562947,120.7485,1.8318593e-07
C1I440,新高口,2024-02-03,23.478744,120.878939,1.4049072e-08
C0O840,王爺宮,2024-02-03,23.222064,120.40085,5.2329674e-10
C0T9G0,鳳林山,2024-02-03,23.735269,121.420131,1.470576e-08
C0X080,佳里,2024-02-03,23.173039,120.145086,1.7841812e-09
C0Z310,清水斷崖,2024-02-03,24.218294,121.689142,1.1457839e-08
C0M680,太保,2024-02-03,23.455062,120.331455,5.733965e-10
C1S820,金峰,2024-02-03,22.590969,120.933236,2.133408e-08
C0AD10,八里,2024-02-03,25.150211,121.403947,2.6571817e-08
C2K240,草嶺,2024-02-03,23.59555,120.693461,6.4971886e-09
C1SA70,都蘭,2024-02-03,22.87794,121.226881,6.3268715e-09
C0K440,二崙,2024-02-03,23.772797,120.408944,6.6520356e-10
C1A760,坪林交控,2024-02-03,24.94284,121.713442,2.1802212e-08
C0F9N0,大里,2024-02-03,24.092464,120.701378,9.260149e-10
C0SA90,達仁林場,2024-02-03,22.264347,120.823972,1.432351e-06
C1R290,石門山,2024-02-03,22.112611,120.756597,1.0784012e-05
42HA10,萬大發電廠,2024-02-03,23.978875,121.139639,4.1978057e-09
C0R890,山海,2024-02-03,21.9878,120.7091,0.9998048
C0T9A0,月眉山,2024-02-03,23.809928,121.539828,1.1363363e-08
C0AC70,信義,2024-02-03,25.037822,121.564597,1.2834472e-08
C0K560,棋山,2024-02-03,23.68645,120.603417,9.999364e-10
C1Z240,中平林道,2024-02-03,23.42115,121.26763,7.555859e-08
U2H480,溪頭,2024-02-03,23.670306,120.798194,7.633062e-09
C0M880,好美里,2024-02-03,23.3364,120.138,1.4465505e-09
C0T9E0,大坑,2024-02-03,23.880628,121.581981,1.0529136e-08
C0K530,臺西,2024-02-03,23.701547,120.197559,1.5507927e-08
C1E900,國一N128K,2024-02-03,24.560997,120.844186,4.6526933e-09
C0AJ50,水湳洞,2024-02-03,25.123695,121.862238,1.645121e-08
C0AI20,白沙灣,2024-02-03,25.283128,121.519058,5.2906895e-08
C0A860,大坪,2024-02-03,25.165914,121.632969,2.1949877e-08
C1U850,觀音海岸,2024-02-03,24.38319,121.77856,1.2807499e-08
C0U950,鶯子嶺,2024-02-03,24.89754,121.79244,4.256641e-08
C0O900,善化,2024-02-03,23.112883,120.297219,5.926597e-10
C0K550,蔦松,2024-02-03,23.514319,120.229736,8.432185e-10
E2P980,林試六龜中心,2024-02-03,22.991703,120.645722,5.1299326e-10
C0E590,通霄,2024-02-03,24.471892,120.704622,8.617258e-07
C1I310,西巒,2024-02-03,23.754486,120.883956,5.358742e-09
C0A550,泰平,2024-02-03,24.971197,121.823711,3.4954056e-08
C0I360,水里,2024-02-03,23.812553,120.849792,2.032902e-09
C0R830,高士,2024-02-03,22.121825,120.836781,3.746327e-06
C1I101,溪頭,2024-02-03,23.661789,120.807647,1.0753466e-08
C0AJ20,野柳,2024-02-03,25.20703,121.690021,2.3375641e-08
C0B060,暖暖,2024-02-03,25.0957,121.7403,1.6161103e-08
C1H920,長豐,2024-02-03,24.102039,120.879897,3.3560001e-09
C0V360,內門,2024-02-03,22.975481,120.466769,3.3841008e-10
C0R850,林邊,2024-02-03,22.4634,120.5339,7.330206e-09
C0E930,龍鳳,2024-02-03,24.700034,120.859125,6.579084e-08
C0U910,冬山,2024-02-03,24.63373,121.7937,5.795552e-09
C1E721,泰安,2024-02-03,24.489017,120.968036,1.7785693e-08
82H320,茶改中部分場,2024-02-03,23.875611,120.913583,5.47823e-09
C0M750,布袋,2024-02-03,23.380878,120.167789,1.127555e-09
C1S860,利嘉,2024-02-03,22.809417,121.050528,1.7623334e-08
72C440,桃園農改,2024-02-03,24.950944,121.030583,5.3500333e-08
E2S980,林試太麻里1,2024-02-03,22.598922,120.980044,2.3701357e-08
C0X170,關廟,2024-02-03,22.963017,120.327797,3.9946008e-10
C0V720,林園,2024-02-03,22.507747,120.394511,5.592651e-10
C1I510,線浸林道,2024-02-03,23.761508,120.832956,7.710336e-09
C0D690,外湖,2024-02-03,24.917735,120.968711,5.8487917e-08
C0C750,新興坑尾,2024-02-03,25.0061,121.0971,1.0997987e-07
B2Q810,畜試南區分所,2024-02-03,21.945583,120.802167,0.99998444
C0S790,金崙,2024-02-03,22.538122,120.966875,3.293019e-08
C0AH90,福山植物園,2024-02-03,24.760717,121.58135,3.8773795e-08
C0I540,奇萊稜線,2024-02-03,24.109231,121.326456,3.1699653e-08
C0M850,表湖,2024-02-03,23.24186,120.64166,3.1174625e-09
C0S770,大溪山,2024-02-03,22.478475,120.943325,3.743348e-08
C0AG80,中和,2024-02-03,24.991622,121.491792,1.1979781e-08
C0T790,大禹嶺,2024-02-03,24.186117,121.316086,2.5408015e-08
C0T9B0,水源,2024-02-03,23.991861,121.537169,1.2652615e-08
C0R840,牡丹池山,2024-02-03,22.168389,120.841225,4.3180466e-06
C1I131,桶頭,2024-02-03,23.641944,120.654117,1.4318701e-09
CAL110,布袋國中,2024-02-03,23.35893,120.18026,1.127555e-09
467571,新竹,2024-02-03,24.827853,121.014219,1.9111495e-08
C0Z290,赤柯山,2024-02-03,23.36893,121.38293,3.9408437e-08
C0X280,將軍,2024-02-03,23.214999,120.13577,1.7256042e-09
C0S690,太麻里,2024-02-03,22.60902,120.98533,1.798138e-08
C0U880,北關,2024-02-03,24.9072,121.8734,2.0833836e-08
C1H860,瑞岩,2024-02-03,24.123772,121.18345,1.9747967e-08
C0G810,埔心,2024-02-03,23.947633,120.525456,7.028805e-10
C0U970,大福,2024-02-03,24.80064,121.81389,7.243425e-09
C1E670,南礦,2024-02-03,24.538278,121.002836,2.4346724e-08
C0M520,東後寮,2024-02-03,23.369908,120.248065,1.1386637e-09
C1E461,松安,2024-02-03,24.397972,120.986022,1.3513103e-08
72G600,臺中農改,2024-02-03,24.003028,120.534389,7.393234e-10
C2N160,西拉雅風管處,2024-02-03,23.189481,120.335297,5.525861e-10
C0A640,石碇,2024-02-03,24.993969,121.662917,2.0469528e-08
E2S960,林試太麻里2,2024-02-03,22.598,120.99775,2.65227e-08
C0F9Y0,桃山,2024-02-03,24.432739,121.303808,2.7577878e-08
C1I020,萬大,2024-02-03,23.979817,121.132261,3.6924734e-09
C0U940,羅東,2024-02-03,24.68184,121.74934,5.6350444e-09
C0M650,朴子,2024-02-03,23.43463,120.23902,8.6331364e-10
C1I500,大尖山,2024-02-03,23.858572,120.994889,1.2315419e-08
C0G820,田尾,2024-02-03,23.901669,120.509389,7.026352e-10
E2K600,四湖植物園,2024-02-03,23.676986,120.163433,6.951281e-09
C0S730,綠島,2024-02-03,22.6672,121.47533,0.9979981
12Q970,東港工作站,2024-02-03,22.479997,120.466058,7.616861e-09
C0E430,南庄,2024-02-03,24.601775,121.000214,8.355773e-09
C1TA00,太魯閣,2024-02-03,24.15773,121.6236,1.5693843e-08
466920,臺北,2024-02-03,25.037658,121.514853,1.2834497e-08
C0R600,舊泰武,2024-02-03,22.588194,120.664944,1.6432448e-09
C1I260,北坑,2024-02-03,23.9246,121.006903,2.7720832e-09
466910,鞍部,2024-02-03,25.182586,121.529731,3.1262946e-08
C1I230,九份二山,2024-02-03,23.961944,120.845,3.4210426e-09
C2A660,瑞芳,2024-02-03,25.113169,121.801147,1.6821948e-08
C0R270,琉球嶼,2024-02-03,22.332244,120.362236,3.293513e-09
C1T990,高寮,2024-02-03,23.394239,121.356808,7.54399e-09
C0G620,芬園,2024-02-03,24.015678,120.6213,9.700648e-10
C1Z140,荖溪,2024-02-03,23.890575,121.45964,4.9711385e-08
C1I201,中心崙,2024-02-03,23.728722,120.712097,3.4077572e-09
C1I400,凌霄,2024-02-03,24.018778,121.004456,5.4926366e-09
C1M640,十字,2024-02-03,23.492153,120.753683,8.532383e-09
G2P820,農試鳳山分所,2024-02-03,22.646611,120.356083,3.7414045e-09
C0Z270,蕃薯寮,2024-02-03,23.73835,121.540108,1.2060068e-08
C0F9Q0,外埔,2024-02-03,24.347817,120.705686,4.53891e-09
C0K580,高鐵雲林,2024-02-03,23.737456,120.417944,6.575979e-10
C2I090,鳳凰,2024-02-03,23.728081,120.787347,6.024352e-09
C0U990,員山,2024-02-03,24.74435,121.72247,5.570053e-09
C0V770,大社,2024-02-03,22.730306,120.346639,1.0082096e-09
C0X120,麻豆,2024-02-03,23.183289,120.248611,9.398802e-10
C0C670,龍潭,2024-02-03,24.870056,121.221389,1.2280375e-08
C0D680,香山濕地,2024-02-03,24.783581,120.914988,6.9682855e-09
C0S980,勝林山,2024-02-03,22.430439,120.8938,5.7560722e-08
C0V730,大寮,2024-02-03,22.605614,120.395717,3.072604e-09
C0R570,麟洛,2024-02-03,22.65078,120.52719,3.956611e-10
CAG100,王功漁港,2024-02-03,23.96824,120.32586,0.08503037
C0X290,北門,2024-02-03,23.267772,120.125481,1.7256042e-09
C2F930,大甲,2024-02-03,24.347667,120.640403,8.091683e-09
C0D650,湖口,2024-02-03,24.904794,121.043628,4.6398632e-08
C0E420,竹南,2024-02-03,24.708978,120.888897,5.6119543e-08
C0U780,五結,2024-02-03,24.68637,121.79794,5.535959e-09
C1I250,鯉潭,2024-02-03,23.961922,120.991131,2.8657796e-09
C0R130,阿禮,2024-02-03,22.742908,120.743678,3.300657e-09
C0X100,臺南市北區,2024-02-03,23.010394,120.194228,8.6505586e-10
C0S920,金峰嘉蘭,2024-02-03,22.594789,120.960825,2.3456748e-08
C0V490,新興,2024-02-03,22.627422,120.298803,3.175973e-09
C0F9K0,大安,2024-02-03,24.345061,120.588025,7.7616695e-09
72N100,臺南農改,2024-02-03,23.0605,120.342194,6.136646e-10
467290,古坑,2024-02-03,23.633639,120.551889,9.709719e-10
C0V440,鳳山,2024-02-03,22.646653,120.356122,3.7414045e-09
C1T940,大觀,2024-02-03,23.714206,121.373133,1.3584324e-08
72T250,花蓮農改,2024-02-03,23.975222,121.563889,8.47377e-09
C0E740,造橋,2024-02-03,24.637056,120.864778,7.152717e-09
C0R100,尾寮山,2024-02-03,22.833111,120.683889,2.9512388e-09
A2K630,臺大雲林校區,2024-02-03,23.730628,120.423903,6.5751643e-10
C0D580,寶山,2024-02-03,24.735006,121.025192,4.5366515e-09
E2P990,林試扇平站,2024-02-03,22.9677,120.6857,2.1733404e-09
C0AI30,三重,2024-02-03,25.057328,121.500629,1.2858092e-08
C0AH00,汐止,2024-02-03,25.066881,121.658778,1.2834472e-08
C1Z040,立山,2024-02-03,23.443356,121.327375,2.8999823e-08
C0R740,獅子,2024-02-03,22.201569,120.70525,0.77357143
C0W130,花嶼,2024-02-03,23.40007,119.32276,0.98659146
C0A950,鼻頭角,2024-02-03,25.129036,121.923372,1.3339434e-07
C0K470,林內,2024-02-03,23.748675,120.609642,9.536256e-10
82C160,茶改場,2024-02-03,24.908472,121.185333,2.15487e-08
C0Z320,清水林道,2024-02-03,23.27125,121.188272,3.129546e-08
C0R760,南仁湖,2024-02-03,22.084681,120.863353,1.0784012e-05
C0M670,大林,2024-02-03,23.600616,120.45841,4.4148024e-10
C0M800,茶山,2024-02-03,23.299075,120.664767,1.2654829e-09
C0A9C0,天母,2024-02-03,25.117494,121.537169,1.9686517e-08
72K220,南改斗南分場,2024-02-03,23.634556,120.477333,5.336891e-10
72AI40,桃改樹林分場,2024-02-03,24.944503,121.386972,1.839439e-08
C0S910,蘭嶼燈塔,2024-02-03,22.081197,121.503117,0.99804145
C0B050,八斗子,2024-02-03,25.144754,121.79167,1.625992e-08
C0U900,內城,2024-02-03,24.71813,121.68766,5.774433e-09
C0X320,柳營,2024-02-03,23.253328,120.375253,4.3182377e-10
C0M790,新港,2024-02-03,23.553269,120.345728,6.906384e-10
C0F9T0,西屯,2024-02-03,24.179494,120.641275,1.107515e-09
C0SA30,都歷,2024-02-03,23.020333,121.323642,2.8430007e-09
C0C620,蘆竹,2024-02-03,25.084275,121.265767,3.2765037e-08
C0R730,大坪頂,2024-02-03,22.024633,120.69355,0.40370634
C0AJ40,石門,2024-02-03,25.273672,121.601198,4.882404e-08
C0E750,苗栗,2024-02-03,24.564569,120.824575,4.565479e-09
C0T870,鯉魚潭,2024-02-03,23.935639,121.508944,9.357755e-09
C1V170,排雲,2024-02-03,23.463619,120.954147,2.644839e-08
C2H950,中寮,2024-02-03,23.884447,120.766406,1.8298045e-09
C0R350,貓鼻頭,2024-02-03,21.921774,120.7358,0.9997431
C0V660,岡山,2024-02-03,22.797078,120.294958,1.5104075e-09
C1H941,雙冬,2024-02-03,23.967378,120.802189,2.8330513e-09
C0AJ70,田寮,2024-02-03,25.2698,121.4886,5.354198e-08
C0AI00,五股,2024-02-03,25.07445,121.42728,1.8926416e-08
C0Z280,德武,2024-02-03,23.47426,121.41071,5.640464e-09
C0R700,枋山,2024-02-03,22.246844,120.661086,2.3854413e-06
C0C460,復興,2024-02-03,24.820208,121.352281,2.8931979e-08
E2H360,蓮華池,2024-02-03,23.918333,120.885278,3.141206e-09
C0M640,中埔,2024-02-03,23.42538,120.5229,5.6679295e-10
C0W140,金沙,2024-02-03,24.488292,118.408778,2.03319e-08
C2A540,四堵,2024-02-03,24.8926,121.745736,2.2749461e-08
C0ACA0,新莊,2024-02-03,25.051478,121.446756,1.4464768e-08
C0R220,潮州,2024-02-03,22.534361,120.54,8.828195e-10
U2HA40,臺大內茅埔,2024-02-03,23.689722,120.851117,3.6053622e-09
467490,臺中,2024-02-03,24.145736,120.684075,1.2321593e-09
C0U960,翠峰湖,2024-02-03,24.510856,121.608044,5.5427023e-08
E2HA20,林試畢祿溪站,2024-02-03,24.226944,121.308522,3.1762053e-08
C0V890,前鎮,2024-02-03,22.5718,120.3117,3.3011922e-09
467620,蘭嶼,2024-02-03,22.036969,121.558339,0.99988633
C1F941,雪嶺,2024-02-03,24.280586,121.026642,3.8768544e-08
C0AC80,文山,2024-02-03,25.00235,121.575728,1.2343592e-08
C0F9R0,龍井,2024-02-03,24.184536,120.528972,3.1138314e-09
C0M760,民雄,2024-02-03,23.551754,120.428457,4.351799e-10
C0UA40,西德山,2024-02-03,24.560647,121.752608,3.2997146e-08
C1T920,中興,2024-02-03,23.769503,121.498653,7.984137e-09
C0D550,雪霸,2024-02-03,24.526972,121.11605,1.4635693e-08
C2F860,梨山,2024-02-03,24.247522,121.243669,3.231322e-08
C0R320,車城,2024-02-03,22.0744,120.716247,0.9845709
C1S870,南美山,2024-02-03,23.15025,121.382333,6.3054038e-09
C0B020,基隆嶼,2024-02-03,25.19141,121.78391,1.4384301e-07
C1U501,牛鬥,2024-02-03,24.637836,121.573656,1.2307575e-08
C0M730,嘉義市東區,2024-02-03,23.457673,120.460531,4.700797e-10
C0S700,知本,2024-02-03,22.684866,121.005642,1.5702707e-08
C1N001,沙崙,2024-02-03,22.935472,120.309406,3.9397727e-10
C0V760,橋頭,2024-02-03,22.757806,120.30575,1.0180881e-09
C0G960,福寶,2024-02-03,24.0443,120.3814,1.3043644e-09
C0X210,白河,2024-02-03,23.347466,120.414427,4.952414e-10
C0S810,東河,2024-02-03,22.972672,121.303986,1.8343552e-08
C0R670,楓港,2024-02-03,22.190131,120.692156,0.9656496
C0FA50,霧峰,2024-02-03,24.0419,120.6995,9.2148145e-10
C0UB10,蘇澳,2024-02-03,24.5969,121.8571,1.060061e-08
C0G950,防潮門,2024-02-03,24.1835,120.4871,3.1169927e-09
C0M740,六腳,2024-02-03,23.492871,120.290625,7.785299e-10
C1R250,力里,2024-02-03,22.428117,120.629228,4.843536e-10
C0K330,虎尾,2024-02-03,23.719183,120.442036,6.634056e-10
C2FA00,烏石坑,2024-02-03,24.273503,120.947617,7.279574e-09
C0V620,永安,2024-02-03,22.82315,120.236856,1.5104075e-09
C1I330,楓樹林,2024-02-03,23.986803,121.076117,4.3758055e-09
C0W200,湖西,2024-02-03,23.596314,119.67275,0.9752468
72Q010,高雄農改場,2024-02-03,22.709333,120.525889,4.509078e-10
C0SA40,瑞和,2024-02-03,22.974361,121.156697,3.6640249e-09
C0C680,龜山,2024-02-03,25.02846,121.38656,1.8964721e-08
C2V260,月眉,2024-02-03,22.971003,120.539853,2.8319047e-10
C0V450,鳳森,2024-02-03,22.545064,120.392592,5.667281e-10
C0U720,南山,2024-02-03,24.43742,121.38167,2.8091835e-08
A2N290,臺南蘭花園區,2024-02-03,23.340258,120.379661,5.8535404e-10
C0R560,新園,2024-02-03,22.5434,120.461558,5.592651e-10
C0U890,三星,2024-02-03,24.66812,121.65302,1.0956757e-08
C1V300,御油山,2024-02-03,23.001983,120.715364,8.854658e-09
C0U600,礁溪,2024-02-03,24.817539,121.765608,1.3835193e-08
C1T980,龍澗,2024-02-03,24.023289,121.411328,7.7999466e-08
C0D670,海天一線,2024-02-03,24.831986,120.914438,0.4595423
C0SA00,歷坵,2024-02-03,22.520969,120.89185,2.4916437e-08
C0M710,東石,2024-02-03,23.458927,120.15385,1.5864056e-09
C0M780,鹿草,2024-02-03,23.41134,120.30835,8.7320023e-10
C0U520,雙連埤,2024-02-03,24.753033,121.641303,1.7884991e-08
C0B010,七堵,2024-02-03,25.094819,121.71713,1.5729924e-08
C0R480,長治,2024-02-03,22.693128,120.542622,5.618311e-10
C1V830,國三S383K,2024-02-03,22.781967,120.426475,3.493782e-10
12Q980,恆春工作站,2024-02-03,22.079678,120.714425,0.9845709
C1O940,東山服務區,2024-02-03,23.286016,120.398472,4.3928375e-10
C1U840,東澳嶺,2024-02-03,24.5378,121.8485,1.897934e-08
C1D630,飛鳳山,2024-02-03,24.766464,121.119178,9.399792e-09
C0S940,石寧山,2024-02-03,23.223772,121.406639,9.871983e-09
C0K410,北港,2024-02-03,23.573957,120.292802,7.8221823e-10
C2M620,瑞里,2024-02-03,23.545133,120.675197,7.39912e-09
C2O950,安南,2024-02-03,23.076694,120.144861,5.224911e-09
C0F0E0,南湖圈谷,2024-02-03,24.363714,121.444667,4.9243308e-08
467610,成功,2024-02-03,23.097486,121.373428,4.690428e-09
C0G890,伸港,2024-02-03,24.148933,120.484403,2.0084823e-09
C2E540,龍溪,2024-02-03,24.606489,120.783933,7.189894e-09
C1V200,梅山,2024-02-03,23.268447,120.823556,3.0391827e-09
C0T9H0,加路蘭山,2024-02-03,23.682947,121.5274,1.8965011e-08
C2O930,玉井,2024-02-03,23.126042,120.46055,4.0904768e-10
C1F911,新伯公,2024-02-03,24.221361,120.841069,3.9101145e-09
C0R490,九如,2024-02-03,22.7405,120.490503,4.4565457e-10
C0X200,左鎮,2024-02-03,23.056758,120.408522,4.355245e-10
C1F891,稍來,2024-02-03,24.265689,121.001142,2.3089164e-08
72N240,七股研究中心,2024-02-03,23.081672,120.062894,5.4278586e-09
C0C700,中壢,2024-02-03,24.977661,121.256375,1.8302488e-08
C0M690,水上,2024-02-03,23.419734,120.388909,5.750141e-10
C0V690,鼓山,2024-02-03,22.623325,120.275575,3.1735934e-09
C0O860,大內,2024-02-03,23.11885,120.36083,6.064076e-10
C0Z200,萬榮,2024-02-03,23.709219,121.420106,1.0597537e-08
C0T9D0,和中,2024-02-03,24.26676,121.74103,8.183474e-09
C1O921,楠西,2024-02-03,23.183511,120.484083,4.053113e-10
C0AJ30,淡水觀海,2024-02-03,25.184591,121.408616,3.0928675e-08
C0V810,左營,2024-02-03,22.67491,120.28491,3.726477e-09
C0UA70,桃源谷,2024-02-03,24.962606,121.888875,3.5996816e-08
C0X130,官田,2024-02-03,23.193217,120.315422,5.469947e-10
C1H000,翠峰,2024-02-03,24.109397,121.205211,1.8228665e-08
C0UA90,石城,2024-02-03,24.980444,121.951214,2.0183412e-08
C1E681,南勢山,2024-02-03,24.421669,120.923831,1.09094e-08
C0A9F0,內湖,2024-02-03,25.079422,121.57545,1.2834472e-08
C0K291,宜梧,2024-02-03,23.536281,120.169329,8.432201e-10
C1K540,口湖,2024-02-03,23.585344,120.180517,2.0375223e-08
C0R780,滿州,2024-02-03,22.024403,120.839892,0.99988645
C0V870,文安,2024-02-03,22.8025,120.2164,1.5302505e-09
C0U650,玉蘭,2024-02-03,24.675286,121.587061,1.6886082e-08
C0R640,東港,2024-02-03,22.46247,120.44074,7.616861e-09
K2E360,苗栗農改,2024-02-03,24.495722,120.829111,5.838791e-09
C0AJ80,板橋,2024-02-03,25.0107,121.4489,1.17460095e-08
C0S660,下馬,2024-02-03,23.150427,121.070312,2.247516e-08
C1H9B1,阿眉,2024-02-03,24.1263,120.994672,1.7311368e-08
C0UA20,多加屯,2024-02-03,24.368614,121.373189,2.1796556e-08
C0E730,頭份,2024-02-03,24.688247,120.912206,5.6189805e-08
72V140,高改旗南分場,2024-02-03,22.857861,120.516667,2.7945807e-10
C0K480,莿桐,2024-02-03,23.761192,120.502372,6.064458e-10
C0U980,坪林石牌,2024-02-03,24.86478,121.77396,2.564625e-08
C0T900,西林,2024-02-03,23.8119,121.441458,8.88789e-09
C1I150,青雲,2024-02-03,23.793361,120.949378,2.5702895e-09
467350,澎湖,2024-02-03,23.565503,119.563094,0.9803043
C0G800,埔鹽,2024-02-03,24.000394,120.431683,1.0387683e-09
C0H960,草屯,2024-02-03,23.973672,120.68085,9.630997e-10
C1V780,多納林道,2024-02-03,22.888028,120.737917,3.482394e-09
C0E920,通霄漁港,2024-02-03,24.498589,120.673876,1.4955139e-06
C0Z330,安通山,2024-02-03,23.290728,121.348528,1.22774e-08
C0AH10,永和,2024-02-03,25.01125,121.508111,1.17460095e-08
C2G640,鹿港,2024-02-03,24.0753,120.430481,1.3043644e-09
C1E890,國三N149K,2024-02-03,24.463414,120.680019,1.6937628e-08
C1R110,口社,2024-02-03,22.770111,120.645222,3.705135e-10
C1M870,國三N285K,2024-02-03,23.550319,120.505833,1.0416232e-09
467050,新屋,2024-02-03,25.006744,121.047486,1.3155503e-07
C1E480,鳳美,2024-02-03,24.554803,121.034747,1.8637113e-08
C0M530,奮起湖,2024-02-03,23.493903,120.699253,8.264035e-09
C0C590,觀音,2024-02-03,25.027072,121.153317,3.3203378e-07
C0T9M0,靜浦,2024-02-03,23.455167,121.495028,4.9427533e-09
C0AI40,石牌,2024-02-03,25.115597,121.513139,1.9796353e-08
C1F871,上谷關,2024-02-03,24.203483,121.018644,6.7891666e-09
C0G880,二水,2024-02-03,23.810742,120.6173,1.1191347e-09
C0R940,加祿堂,2024-02-03,22.3363,120.6217,1.4276567e-07
C0W220,北竿,2024-02-03,26.220358,119.974881,1.9522332e-07
C0O960,崎頂,2024-02-03,22.959547,120.369317,4.4235685e-10
C0S750,向陽,2024-02-03,23.248397,120.986133,1.4806237e-08
C0T9F0,水璉,2024-02-03,23.797131,121.542514,9.34354e-09
C1M600,頭凍,2024-02-03,23.406364,120.603339,4.6328483e-09
467660,臺東,2024-02-03,22.752211,121.154586,2.7584663e-08
C1D380,新埔,2024-02-03,24.84745,121.03834,2.0560424e-08
C0V750,路竹,2024-02-03,22.854997,120.259439,1.5481203e-09
C0N050,蚵寮,2024-02-03,23.301,120.1104,1.4465505e-09
72M700,南改鹿草分場,2024-02-03,23.416869,120.283061,8.6331364e-10
C1SA50,利嘉林道,2024-02-03,22.82325,121.009389,3.329447e-08
467550,玉山,2024-02-03,23.487614,120.959522,3.1429035e-08
C0A940,金山,2024-02-03,25.223628,121.643967,2.3418036e-08
C1V340,大津,2024-02-03,22.888322,120.645986,3.8002632e-10
C0W180,七美,2024-02-03,23.219333,119.444892,0.97713953
C1F9C1,白冷,2024-02-03,24.182844,120.929889,5.268573e-09
K2E710,苗改生物防治研究中心,2024-02-03,24.422861,120.871833,5.647461e-09
C0N040,蘆竹溝,2024-02-03,23.2344,120.0961,1.7256042e-09
C2W230,畜試所澎湖,2024-02-03,23.628342,119.513206,0.9866294
C0R880,後壁湖,2024-02-03,21.9457,120.7457,0.9998054
C1I280,埔中,2024-02-03,23.820778,120.642594,2.6178664e-09
467790,墾丁雷達站,2024-02-03,21.948235,120.808028,0.9999897
C0W190,望安,2024-02-03,23.380564,119.494075,0.9857409
466881,新北,2024-02-03,24.9593,121.52,1.2024741e-08
C0Z170,卓溪,2024-02-03,23.3443,121.3029,8.084849e-09
C0F850,東勢,2024-02-03,24.246428,120.833047,3.2995744e-09
466900,淡水,2024-02-03,25.164889,121.448906,2.6310477e-08
C0I370,魚池,2024-02-03,23.895703,120.94135,3.074093e-09
C0C630,大溪,2024-02-03,24.882853,121.265547,1.1570898e-08
C0A520,山佳,2024-02-03,24.974944,121.402008,1.0489247e-08
C0I110,竹山,2024-02-03,23.761225,120.688156,1.2680876e-09
82H840,茶改南部分場,2024-02-03,23.762528,120.7405,2.5091165e-09
C0G660,溪湖,2024-02-03,23.94835,120.479122,6.8847616e-10
C1T800,洛韶,2024-02-03,24.204558,121.453956,5.483177e-08
C1T810,慈恩,2024-02-03,24.192044,121.388386,1.4353243e-08
C1E451,象鼻,2024-02-03,24.368617,120.940228,8.093643e-09
C0AC60,三峽,2024-02-03,24.939025,121.369728,1.8443082e-08
C0I490,萬大林道,2024-02-03,23.928228,121.091411,7.68136e-09
C1I290,豐丘,2024-02-03,23.668178,120.887417,8.0486915e-09
C1I320,奧萬大,2024-02-03,23.952956,121.178556,4.88515e-09
C0U770,南澳,2024-02-03,24.44935,121.81022,1.0397302e-08
C0A980,社子,2024-02-03,25.109508,121.469681,2.6808893e-08
C0V800,六龜,2024-02-03,22.997889,120.633583,4.9791615e-10
C1G9D0,國一S218K,2024-02-03,23.890641,120.493253,6.801658e-10
C2F9A0,中竹林,2024-02-03,24.103556,120.751061,2.666273e-09
C0FA40,臺中電廠,2024-02-03,24.2146,120.4907,3.1138314e-09
C0H9C0,合歡山,2024-02-03,24.143442,121.272547,3.317865e-08
C0X060,下營,2024-02-03,23.22695,120.256261,9.2566166e-10
G2M350,農試溪口農場,2024-02-03,23.58565,120.408111,4.299975e-10
C0U860,頭城,2024-02-03,24.85323,121.8308,1.3737951e-08
C0R580,南州,2024-02-03,22.48591,120.50274,7.616861e-09
C0D430,峨眉,2024-02-03,24.6905,121.017189,4.6174278e-09
C0G780,秀水,2024-02-03,24.03405,120.503869,7.393234e-10
72N100,臺南農改場,2024-02-03,23.0605,120.342194,6.136646e-10
C0S900,蘭嶼高中,2024-02-03,22.04909,121.51214,0.9542217
467540,大武,2024-02-03,22.355675,120.903789,3.4704683e-06
C1F9W0,德基,2024-02-03,24.254783,121.190261,1.9905814e-08
C1Z120,壽豐,2024-02-03,23.870853,121.508081,7.4280226e-09
C0W160,烏坵,2024-02-03,24.9944,119.44956,6.874438e-05
C1I240,外大坪,2024-02-03,23.958697,120.917931,2.944447e-09
C1I550,國六W023K,2024-02-03,23.979067,120.867742,2.56171e-09
C0R870,興海,2024-02-03,21.9752,120.8439,0.99998444
C0R140,瑪家,2024-02-03,22.682903,120.686639,1.9008095e-09
C0A530,坪林,2024-02-03,24.938183,121.70975,2.2402403e-08
C0X260,後壁,2024-02-03,23.366358,120.362326,5.8545674e-10
C0Z230,和平,2024-02-03,24.30717,121.77007,8.12041e-09
C0G770,福興,2024-02-03,24.041289,120.437669,1.0387683e-09
C0H9A0,神木村,2024-02-03,23.532742,120.843667,8.729942e-09
C0I460,南投,2024-02-03,23.911469,120.687331,1.7614419e-09
C0I480,梅峰,2024-02-03,24.085272,121.173572,1.0731214e-08
C1V570,吉東,2024-02-03,22.85422,120.5454,2.8587793e-10
C2A560,福山,2024-02-03,24.776203,121.502811,3.5869064e-08
C0AH30,五分山,2024-02-03,25.07125,121.780794,3.030866e-08
C0FA10,松柏,2024-02-03,24.429115,120.617482,1.7315793e-08
72S200,東改班鳩分場,2024-02-03,22.829528,121.077694,7.2779356e-09
72HA00,中改埔里分場,2024-02-03,23.903208,120.963364,2.9629932e-09
C0C650,平鎮,2024-02-03,24.897503,121.214636,1.926587e-08
C0S930,延平,2024-02-03,22.902581,121.084058,6.0440444e-09
C0UA60,樟樹山,2024-02-03,24.41393,121.78325,2.664673e-08
C1S670,摩天,2024-02-03,23.199503,121.027,5.246054e-08
C0V630,茄萣,2024-02-03,22.906642,120.182608,1.5689944e-09
466940,基隆,2024-02-03,25.133314,121.740475,1.6361525e-08
C0X050,東河,2024-02-03,23.296598,120.385608,4.2734027e-10
C0R770,保力,2024-02-03,22.071122,120.764111,0.9711389
G2L020,農試嘉義分所,2024-02-03,23.485028,120.473806,6.173321e-10
C0X240,關子嶺,2024-02-03,23.331169,120.508025,1.1271981e-09
C0I380,集集,2024-02-03,23.828206,120.801467,2.0201658e-09
466990,花蓮,2024-02-03,23.975128,121.613275,8.343256e-09
C1V220,小關山,2024-02-03,23.154217,120.813603,8.0016695e-09
C1F9G1,慶福山,2024-02-03,24.180853,120.848378,4.6816244e-09
C0Z250,瑞穗林道,2024-02-03,23.49284,121.30688,7.279049e-08
C0D590,新豐,2024-02-03,24.87068,120.97721,0.0036257796
C0A870,五指山,2024-02-03,25.132153,121.608692,2.5927237e-08
C0UA50,西帽山,2024-02-03,24.555361,121.802628,2.8003885e-08
C0X160,仁德,2024-02-03,22.968258,120.257689,6.666108e-10
C1H971,六分寮,2024-02-03,23.92507,120.6378,2.9292329e-09
C0W120,西嶼,2024-02-03,23.5626,119.468436,0.991877
C0G650,員林,2024-02-03,23.946503,120.585597,8.2330054e-10
C0AD50,鶯歌,2024-02-03,24.951533,121.346294,1.8725837e-08
C0S990,山豬窟,2024-02-03,22.318619,120.857372,1.2600892e-06
72Q010,高雄農改,2024-02-03,22.709333,120.525889,4.509078e-10
C0X190,安平,2024-02-03,22.993161,120.152181,8.650575e-10
C0K400,斗六,2024-02-03,23.720583,120.541127,5.5530247e-10
12J990,口湖工作站,2024-02-03,23.589978,120.180394,2.0375223e-08
C0O830,北寮,2024-02-03,23.079561,120.495008,3.6892683e-10
C1D410,白蘭,2024-02-03,24.579364,121.079947,2.5266562e-08
C0S970,加津林,2024-02-03,22.416211,120.926942,2.6643079e-06
C0D700,關西,2024-02-03,24.7977,121.1732,5.3107962e-09
C0M810,里佳,2024-02-03,23.389125,120.716647,7.295225e-09
C0U750,龜山島,2024-02-03,24.841667,121.953133,6.773778e-06
C0R810,內獅,2024-02-03,22.305064,120.642986,1.6809527e-07
C1M390,龍美,2024-02-03,23.406728,120.654417,5.7170517e-09
C1H840,國三N238K,2024-02-03,23.841008,120.707711,2.174908e-09
CAQ030,崎峰國小,2024-02-03,22.42565,120.49521,7.616861e-09
C2E520,大湖,2024-02-03,24.414939,120.870872,5.9015686e-09
467530,阿里山,2024-02-03,23.508208,120.813242,1.8904553e-08
C1E691,南湖,2024-02-03,24.40135,120.837533,8.976875e-09
C0FA30,梧棲,2024-02-03,24.256003,120.523381,3.871547e-09
C1V231,高中,2024-02-03,23.134911,120.716711,2.7684268e-09
C0F9V0,新社,2024-02-03,24.200172,120.815806,4.5633635e-09
C0H890,埔里,2024-02-03,23.972169,120.952425,2.8451814e-09
C0R690,墾丁,2024-02-03,21.966756,120.810269,0.9999753
C0F0D0,審馬陣,2024-02-03,24.381675,121.4203,2.8527959e-08
C0R820,白鷺,2024-02-03,22.454275,120.666219,1.9545567e-09
U2H480,臺大溪頭,2024-02-03,23.670306,120.798194,7.633062e-09
C1V190,南天池,2024-02-03,23.27403,120.91176,1.502968e-08
K2E360,苗栗農改場,2024-02-03,24.495722,120.829111,5.838791e-09
CAJ050,海口故事園區,2024-02-03,23.57543,120.14121,2.0375223e-08
C0O990,媽廟,2024-02-03,22.99175,120.293525,5.5266197e-10
C0D480,打鐵坑,2024-02-03,24.849664,121.150789,1.2322797e-08
C0Z220,和平林道,2024-02-03,24.343922,121.656317,1.2034217e-08
72C440,桃園農改場,2024-02-03,24.950944,121.030583,5.3500333e-08
C1E711,馬拉邦山,2024-02-03,24.367306,120.901656,8.322657e-09
C0D560,竹東,2024-02-03,24.767147,121.057881,5.2307048e-09
C0F9U0,南屯,2024-02-03,24.137006,120.637969,1.0516626e-09
C0M720,番路,2024-02-03,23.464657,120.554156,6.45972e-10
C0F0A0,雪山圈谷,2024-02-03,24.388594,121.236339,3.752706e-08
C1A9N0,四十份,2024-02-03,24.934158,121.593283,2.7967001e-08
C0U760,東澳,2024-02-03,24.52196,121.83318,8.099774e-09
C0X230,鹽水,2024-02-03,23.272621,120.247641,1.433198e-09
C0V370,古亭坑,2024-02-03,22.893178,120.401947,3.592147e-10
C1I340,新興橋,2024-02-03,23.563333,120.868728,5.0405577e-09
C0SA80,土坂,2024-02-03,22.453108,120.887572,7.3505944e-08
C0R160,鹽埔,2024-02-03,22.739558,120.530778,4.511005e-10
C0AC40,大屯山,2024-02-03,25.175675,121.522408,3.5990087e-08
466850,五分山雷達站,2024-02-03,25.071182,121.781205,3.046602e-08
C1AI50,國三N016K,2024-02-03,25.034164,121.619664,1.3206872e-08
C1V600,藤枝,2024-02-03,23.071961,120.757042,7.507817e-09
C1E601,南勢,2024-02-03,24.572486,120.734842,1.1063715e-07
C0Z180,新城,2024-02-03,24.03946,121.60454,8.399652e-09
C0O980,新市,2024-02-03,23.061614,120.298197,5.926597e-10
C0K420,西螺,2024-02-03,23.800407,120.467394,6.743258e-10
C0Z050,佳心,2024-02-03,23.34567,121.21316,3.8616e-08
C0AD30,蘆洲,2024-02-03,25.086594,121.472331,1.2792533e-08
C0V610,梓官,2024-02-03,22.760558,120.267211,1.0171836e-09
K2F750,種苗改良場,2024-02-03,24.225972,120.800917,4.2318273e-09
C0UA80,大溪漁港,2024-02-03,24.941801,121.902955,2.0809452e-08
C1AI60,國一39K邊坡,2024-02-03,25.064361,121.383836,1.8919451e-08
C0W150,金寧,2024-02-03,24.457703,118.328989,2.433043e-08
V2C250,八德合作社,2024-02-03,24.93775,121.266389,1.9107048e-08
C0AH40,平等,2024-02-03,25.129142,121.577086,2.2519702e-08
C0R540,佳冬,2024-02-03,22.419456,120.552375,7.9431517e-10
466950,彭佳嶼,2024-02-03,25.627975,122.079744,1.5576052e-05
C0A890,雙溪,2024-02-03,25.036003,121.864242,2.8528937e-08
C0C480,桃園,2024-02-03,24.992425,121.323172,1.8219836e-08
C0AH50,林口,2024-02-03,25.072181,121.38084,2.0381638e-08
A2K360,水試臺西試驗場,2024-02-03,23.717231,120.190522,1.6248512e-08
B2N890,畜試所,2024-02-03,23.058972,120.336406,6.136646e-10
C0F9S0,烏日,2024-02-03,24.107058,120.624103,8.710644e-10
C0C490,八德,2024-02-03,24.928708,121.283289,1.8861117e-08
C0R190,赤山,2024-02-03,22.592333,120.614306,4.0204443e-10
C0T820,天祥,2024-02-03,24.179597,121.495639,8.314252e-08
C1F9E1,龍安,2024-02-03,24.1605,120.831961,4.0789563e-09
C0V820,小林,2024-02-03,23.148408,120.63325,8.2221613e-10
C2G870,芳苑,2024-02-03,23.922303,120.320025,0.07624007
C0E850,大河,2024-02-03,24.618069,120.948578,5.22862e-09
C1U670,寒溪,2024-02-03,24.634,121.71691,6.354324e-09
C0N020,城西,2024-02-03,23.0568,120.0956,8.6505586e-10
C1Z110,三棧,2024-02-03,24.11557,121.60501,7.669388e-08
C0R280,檳榔,2024-02-03,22.076078,120.836777,0.00010947403
C0F9L0,后里,2024-02-03,24.310436,120.729725,4.0545847e-09
C0D540,橫山,2024-02-03,24.71116,121.11693,5.1644333e-09
C1D420,太閣南,2024-02-03,24.632808,121.160575,1.8571608e-08
C1E770,公館,2024-02-03,24.526914,120.830806,5.582039e-09
CAN130,水試所海水繁養殖中心,2024-02-03,23.120802,120.07968,5.4278586e-09
C1I430,翠華,2024-02-03,24.191961,121.224339,1.9656238e-08
C1M400,菜瓜坪,2024-02-03,23.251928,120.576103,1.4082843e-09
C0G730,二林,2024-02-03,23.903325,120.376081,1.2475113e-09
72M360,南改義竹分場,2024-02-03,23.360694,120.279361,1.1386637e-09
V2K620,麥寮合作社,2024-02-03,23.753836,120.294783,1.0838567e-09
C0Z070,舞鶴,2024-02-03,23.46811,121.37407,5.881376e-09
C0B040,大武崙,2024-02-03,25.166676,121.706993,1.6555527e-08
C1Z030,紅葉,2024-02-03,23.493119,121.338806,4.3440886e-09
C1I050,丹大,2024-02-03,23.753747,121.141147,1.5102037e-08
C0I080,信義,2024-02-03,23.689694,120.851036,3.6053691e-09
C2A880,福隆,2024-02-03,25.017842,121.942083,2.0083224e-08
C0Z160,鳳林,2024-02-03,23.746114,121.453411,1.0357675e-08
C0V210,復興,2024-02-03,23.222403,120.806089,2.5230866e-09
C0H990,昆陽,2024-02-03,24.121322,121.273642,3.0202706e-08
C0S710,鹿野,2024-02-03,22.917711,121.122994,4.3353894e-09
C0I530,小奇萊,2024-02-03,24.131764,121.295717,3.128275e-08
C0Z080,富源,2024-02-03,23.587642,121.378225,1.7592571e-08
467441,高雄,2024-02-03,22.7304,120.3125,1.0082096e-09
C1I140,卡奈托灣,2024-02-03,23.754364,121.087872,5.071591e-09
C0I520,玉山風口,2024-02-03,23.470489,120.955994,3.5374246e-08
C1G691,下水埔,2024-02-03,23.816114,120.5676,6.239743e-10
C0X110,臺南市南區,2024-02-03,22.961189,120.188378,6.704323e-10
C0V680,仁武,2024-02-03,22.701083,120.347722,3.726477e-09
C2G840,北斗,2024-02-03,23.877586,120.514222,6.846171e-10
C0R900,竹坑,2024-02-03,22.1385,120.7022,0.9794284
C0K250,崙背,2024-02-03,23.75555,120.318925,1.0834784e-09
C0G860,社頭,2024-02-03,23.897647,120.5862,6.52101e-10
C0X150,安定,2024-02-03,23.102614,120.227839,8.010216e-10
C0R590,里港,2024-02-03,22.77919,120.49459,3.1329295e-10
C0E610,馬都安,2024-02-03,24.451272,120.930192,9.486136e-09
C0E550,明德,2024-02-03,24.583486,120.885411,4.692504e-09
C0R150,三地門,2024-02-03,22.709889,120.639944,3.6546216e-10
C0G910,花壇,2024-02-03,24.032076,120.549461,7.628662e-10
C1D400,鳥嘴山,2024-02-03,24.71909,121.28387,1.6355973e-08
C0K500,元長,2024-02-03,23.64981,120.315024,8.025249e-10
C0F0B0,石岡,2024-02-03,24.276061,120.777644,4.3781516e-09
C2V250,甲仙,2024-02-03,23.080106,120.591758,4.8969956e-10
C0SA20,金崙山,2024-02-03,22.567419,120.959667,1.9956222e-08
C0V350,溪埔,2024-02-03,22.738578,120.446797,3.4189795e-10
C0M660,溪口,2024-02-03,23.604131,120.403569,4.299975e-10
C1S880,壽卡,2024-02-03,22.238911,120.858903,1.6913887e-06
72D680,桃改新埔分場,2024-02-03,24.834444,121.066111,2.054494e-08
