站號,站名,日期,lat,lon,BlastGRU-TW
12J990,口湖工作站,2024-03-04,23.589978,120.180394,0.007552922
12Q970,東港工作站,2024-03-04,22.479997,120.466058,0.36476812
12Q980,恆春工作站,2024-03-04,22.079678,120.714425,0.00798154
466881,新北,2024-03-04,24.9593,121.52,0.015041922
466900,淡水,2024-03-04,25.164889,121.448906,0.0024387874
466920,臺北,2024-03-04,25.037658,121.514853,0.010013722
466940,基隆,2024-03-04,25.133314,121.740475,0.0011906793
466990,花蓮,2024-03-04,23.975128,121.613275,0.06842931
467050,新屋,2024-03-04,25.006744,121.047486,0.00085760525
467080,宜蘭,2024-03-04,24.763975,121.756528,0.0020098125
467270,田中,2024-03-04,23.873803,120.581286,0.024873313
467300,東吉島,2024-03-04,23.25695,119.667467,0.0012709675
467350,澎湖,2024-03-04,23.565503,119.563094,0.00066423713
467410,臺南,2024-03-04,22.993239,120.204772,0.17469765
467420,永康,2024-03-04,23.038386,120.2367,0.37725025
467441,高雄,2024-03-04,22.7304,120.3125,0.53664446
467480,嘉義,2024-03-04,23.495925,120.432906,0.086879954
467490,臺中,2024-03-04,24.145736,120.684075,0.005455732
467540,大武,2024-03-04,22.355675,120.903789,0.093309134
467571,新竹,2024-03-04,24.827853,121.014219,0.0010115249
467590,恆春,2024-03-04,22.003897,120.746339,0.007672432
467610,成功,2024-03-04,23.097486,121.373428,0.11294423
467620,蘭嶼,2024-03-04,22.036969,121.558339,0.00012299833
467660,臺東,2024-03-04,22.752211,121.154586,0.08286255
467790,墾丁雷達站,2024-03-04,21.948235,120.808028,0.0022646238
72AI40,桃改樹林分場,2024-03-04,24.944503,121.386972,0.007434665
72C440,桃園農改,2024-03-04,24.950944,121.030583,0.00064251985
72C440,桃園農改場,2024-03-04,24.950944,121.030583,0.00064251985
72D680,桃改新埔分場,2024-03-04,24.834444,121.066111,0.0011589233
72G600,臺中農改,2024-03-04,24.003028,120.534389,0.02241791
72G600,臺中農改場,2024-03-04,24.003028,120.534389,0.02241791
72K220,南改斗南分場,2024-03-04,23.634556,120.477333,0.036114067
72M360,南改義竹分場,2024-03-04,23.360694,120.279361,0.015341689
72M700,南改鹿草分場,2024-03-04,23.416869,120.283061,0.05208408
72N100,臺南農改,2024-03-04,23.0605,120.342194,0.3608087
72N100,臺南農改場,2024-03-04,23.0605,120.342194,0.3608087
72N240,七股研究中心,2024-03-04,23.081672,120.062894,0.02279298
72Q010,高雄農改,2024-03-04,22.709333,120.525889,0.08800357
72Q010,高雄農改場,2024-03-04,22.709333,120.525889,0.08800357
72S200,東改班鳩分場,2024-03-04,22.829528,121.077694,0.006042036
72S590,東改賓朗果園,2024-03-04,22.813889,121.071278,0.0166037
72T250,花蓮農改,2024-03-04,23.975222,121.563889,0.016082551
72T250,花蓮農改場,2024-03-04,23.975222,121.563889,0.016082551
72U480,花改蘭陽分場,2024-03-04,24.686306,121.716583,0.004440377
72V140,高改旗南分場,2024-03-04,22.857861,120.516667,0.5059585
82A750,茶改北部分場,2024-03-04,24.955778,121.631222,0.003706203
82C160,茶改場,2024-03-04,24.908472,121.185333,0.0025973557
82H840,茶改南部分場,2024-03-04,23.762528,120.7405,0.009527512
82S580,茶改東部分場,2024-03-04,22.907694,121.130139,0.011712174
A2C560,農工中心,2024-03-04,24.985917,121.239833,0.0030911285
A2K360,水試臺西試驗場,2024-03-04,23.717231,120.190522,0.0027206724
A2K570,古坑花卉中心,2024-03-04,23.63353,120.55239,0.08014842
A2K630,臺大雲林校區,2024-03-04,23.730628,120.423903,0.039888754
A2N290,臺南蘭花園區,2024-03-04,23.340258,120.379661,0.09231758
B2E890,畜試北區分所,2024-03-04,24.527806,120.770972,0.0020957603
B2N890,畜產試驗所,2024-03-04,23.058972,120.336406,0.36098573
B2N890,畜試所,2024-03-04,23.058972,120.336406,0.36098573
B2Q810,畜試南區分所,2024-03-04,21.945583,120.802167,0.0039670663
B2U990,畜試東區分所,2024-03-04,24.669039,121.832561,0.004327613
C0A520,山佳,2024-03-04,24.974944,121.402008,0.006611887
C0A530,坪林,2024-03-04,24.938183,121.70975,0.0019851925
C0A540,四堵,2024-03-04,24.8926,121.745736,0.0014262898
C0A550,泰平,2024-03-04,24.971197,121.823711,0.0015045188
C0A560,福山,2024-03-04,24.776203,121.502811,0.0018748385
C0A570,桶後,2024-03-04,24.848222,121.597992,0.0037340168
C0A640,石碇,2024-03-04,24.993969,121.662917,0.0017648957
C0A650,火燒寮,2024-03-04,25.002719,121.742892,0.002059562
C0A660,瑞芳,2024-03-04,25.113169,121.801147,0.0011643842
C0A770,科教館,2024-03-04,25.096356,121.516507,0.00593349
C0A860,大坪,2024-03-04,25.165914,121.632969,0.0011875068
C0A880,福隆,2024-03-04,25.017842,121.942083,0.014346434
C0A890,雙溪,2024-03-04,25.036003,121.864242,0.0068532215
C0A920,富貴角,2024-03-04,25.263783,121.565258,0.0007395237
C0A931,三和,2024-03-04,25.233153,121.595236,0.00092956604
C0A940,金山,2024-03-04,25.223628,121.643967,0.0019256036
C0A950,鼻頭角,2024-03-04,25.129036,121.923372,0.0028377483
C0A970,三貂角,2024-03-04,25.007606,122.002058,0.009033712
C0A980,社子,2024-03-04,25.109508,121.469681,0.0028135106
C0A9C0,天母,2024-03-04,25.117494,121.537169,0.0039051725
C0A9F0,內湖,2024-03-04,25.079422,121.57545,0.0031085047
C0AC60,三峽,2024-03-04,24.939025,121.369728,0.006967622
C0AC70,信義,2024-03-04,25.037822,121.564597,0.006170059
C0AC80,文山,2024-03-04,25.00235,121.575728,0.0045904326
C0ACA0,新莊,2024-03-04,25.051478,121.446756,0.010513931
C0AD00,三芝,2024-03-04,25.258131,121.501917,0.0009671505
C0AD10,八里,2024-03-04,25.150211,121.403947,0.0012519296
C0AD30,蘆洲,2024-03-04,25.086594,121.472331,0.0059334817
C0AD40,土城,2024-03-04,24.973208,121.445169,0.011785322
C0AD50,鶯歌,2024-03-04,24.951533,121.346294,0.006344171
C0AG80,中和,2024-03-04,24.991622,121.491792,0.009300157
C0AH00,汐止,2024-03-04,25.066881,121.658778,0.0044698417
C0AH10,永和,2024-03-04,25.01125,121.508111,0.009693864
C0AH40,平等,2024-03-04,25.129142,121.577086,0.0010854268
C0AH50,林口,2024-03-04,25.072181,121.38084,0.0022325974
C0AH70,松山,2024-03-04,25.04871,121.55042,0.006170059
C0AH80,深坑,2024-03-04,25.002703,121.628328,0.0030537741
C0AI00,五股,2024-03-04,25.07445,121.42728,0.0034569206
C0AI10,屈尺,2024-03-04,24.92184,121.54475,0.00927464
C0AI20,白沙灣,2024-03-04,25.283128,121.519058,0.00062149146
C0AI30,三重,2024-03-04,25.057328,121.500629,0.0103818895
C0AI40,石牌,2024-03-04,25.115597,121.513139,0.007290123
C0AJ20,野柳,2024-03-04,25.20703,121.690021,0.001860713
C0AJ30,淡水觀海,2024-03-04,25.184591,121.408616,0.0018750652
C0AJ40,石門,2024-03-04,25.273672,121.601198,0.0006703994
C0AJ50,水湳洞,2024-03-04,25.123695,121.862238,0.0014673567
C0AJ60,六塊厝,2024-03-04,25.24,121.4481,0.00073806726
C0AJ70,田寮,2024-03-04,25.2698,121.4886,0.0011940361
C0AJ80,板橋,2024-03-04,25.0107,121.4489,0.008442633
C0AJ90,澳底,2024-03-04,25.0552,121.9253,0.0063156425
C0B010,七堵,2024-03-04,25.094819,121.71713,0.0033763815
C0B020,基隆嶼,2024-03-04,25.19141,121.78391,0.0010143811
C0B040,大武崙,2024-03-04,25.166676,121.706993,0.0010744326
C0B050,八斗子,2024-03-04,25.144754,121.79167,0.0012181005
C0B060,暖暖,2024-03-04,25.0957,121.7403,0.0027954637
C0C460,復興,2024-03-04,24.820208,121.352281,0.0017804251
C0C480,桃園,2024-03-04,24.992425,121.323172,0.003882123
C0C490,八德,2024-03-04,24.928708,121.283289,0.003215046
C0C590,觀音,2024-03-04,25.027072,121.153317,0.0005775534
C0C620,蘆竹,2024-03-04,25.084275,121.265767,0.0008787949
C0C630,大溪,2024-03-04,24.882853,121.265547,0.0011809263
C0C650,平鎮,2024-03-04,24.897503,121.214636,0.001216553
C0C660,楊梅,2024-03-04,24.912375,121.143047,0.0025677204
C0C670,龍潭,2024-03-04,24.870056,121.221389,0.0010272396
C0C680,龜山,2024-03-04,25.02846,121.38656,0.0026538484
C0C700,中壢,2024-03-04,24.977661,121.256375,0.0025222246
C0C710,大溪永福,2024-03-04,24.892936,121.324975,0.0016715665
C0C720,竹圍,2024-03-04,25.112692,121.239824,0.00093998504
C0C730,中大臨海站,2024-03-04,24.966126,121.008581,0.0006900343
C0C740,觀音工業區,2024-03-04,25.064764,121.114856,0.00063216046
C0C750,新興坑尾,2024-03-04,25.0061,121.0971,0.0010423537
C0D430,峨眉,2024-03-04,24.6905,121.017189,0.001313174
C0D480,打鐵坑,2024-03-04,24.849664,121.150789,0.00081133435
C0D540,橫山,2024-03-04,24.71116,121.11693,0.0010404062
C0D560,竹東,2024-03-04,24.767147,121.057881,0.0015728059
C0D580,寶山,2024-03-04,24.735006,121.025192,0.0011503494
C0D590,新豐,2024-03-04,24.87068,120.97721,0.0010113765
C0D650,湖口,2024-03-04,24.904794,121.043628,0.00085415394
C0D660,新竹市東區,2024-03-04,24.798681,120.986942,0.0011645794
C0D670,海天一線,2024-03-04,24.831986,120.914438,0.0007888603
C0D680,香山濕地,2024-03-04,24.783581,120.914988,0.00080067315
C0D690,外湖,2024-03-04,24.917735,120.968711,0.00047559565
C0D700,關西,2024-03-04,24.7977,121.1732,0.0010439528
C0E420,竹南,2024-03-04,24.708978,120.888897,0.00073863374
C0E430,南庄,2024-03-04,24.601775,121.000214,0.0015662692
C0E550,明德,2024-03-04,24.583486,120.885411,0.0018295097
C0E590,通霄,2024-03-04,24.471892,120.704622,0.003955785
C0E730,頭份,2024-03-04,24.688247,120.912206,0.0013709259
C0E740,造橋,2024-03-04,24.637056,120.864778,0.0010830774
C0E750,苗栗,2024-03-04,24.564569,120.824575,0.001514928
C0E780,銅鑼,2024-03-04,24.489681,120.790853,0.0014220603
C0E791,卓蘭,2024-03-04,24.3126,120.8244,0.0018997524
C0E810,西湖,2024-03-04,24.562947,120.7485,0.0012899578
C0E820,獅潭,2024-03-04,24.539133,120.920042,0.001633096
C0E830,苑裡,2024-03-04,24.439714,120.653053,0.00038753747
C0E850,大河,2024-03-04,24.618069,120.948578,0.0014166482
C0E870,高鐵苗栗,2024-03-04,24.60725,120.826094,0.0009912027
C0E910,海埔,2024-03-04,24.648767,120.772435,0.00029597065
C0E920,通霄漁港,2024-03-04,24.498589,120.673876,0.0030397857
C0E930,龍鳳,2024-03-04,24.700034,120.859125,0.0007728173
C0F0B0,石岡,2024-03-04,24.276061,120.777644,0.0016920585
C0F850,東勢,2024-03-04,24.246428,120.833047,0.0021481437
C0F970,大坑,2024-03-04,24.173142,120.722289,0.014319474
C0F9I0,神岡,2024-03-04,24.272481,120.658314,0.0016136335
C0F9K0,大安,2024-03-04,24.345061,120.588025,0.00042182012
C0F9L0,后里,2024-03-04,24.310436,120.729725,0.001985301
C0F9M0,豐原,2024-03-04,24.254322,120.720692,0.002490436
C0F9N0,大里,2024-03-04,24.092464,120.701378,0.014257874
C0F9O0,潭子,2024-03-04,24.213106,120.703933,0.0019355079
C0F9P0,清水,2024-03-04,24.312297,120.562242,0.0005759521
C0F9Q0,外埔,2024-03-04,24.347817,120.705686,0.0017340132
C0F9R0,龍井,2024-03-04,24.184536,120.528972,0.00049557234
C0F9S0,烏日,2024-03-04,24.107058,120.624103,0.0065717166
C0F9T0,西屯,2024-03-04,24.179494,120.641275,0.0020296471
C0F9U0,南屯,2024-03-04,24.137006,120.637969,0.002999843
C0F9X0,大雅(中科園區),2024-03-04,24.21528,120.62445,0.0013182479
C0FA10,松柏,2024-03-04,24.429115,120.617482,0.00040024903
C0FA20,溫寮,2024-03-04,24.372177,120.583125,0.00043850305
C0FA30,梧棲,2024-03-04,24.256003,120.523381,0.0003397608
C0FA40,臺中電廠,2024-03-04,24.2146,120.4907,0.00047185982
C0FA50,霧峰,2024-03-04,24.0419,120.6995,0.07036424
C0G620,芬園,2024-03-04,24.015678,120.6213,0.029305916
C0G650,員林,2024-03-04,23.946503,120.585597,0.03457018
C0G660,溪湖,2024-03-04,23.94835,120.479122,0.0148180965
C0G720,溪州,2024-03-04,23.851589,120.499093,0.031814847
C0G730,二林,2024-03-04,23.903325,120.376081,0.0021974465
C0G740,大城,2024-03-04,23.852487,120.320935,0.007528645
C0G770,福興,2024-03-04,24.041289,120.437669,0.0009921783
C0G780,秀水,2024-03-04,24.03405,120.503869,0.009529513
C0G800,埔鹽,2024-03-04,24.000394,120.431683,0.0014202454
C0G810,埔心,2024-03-04,23.947633,120.525456,0.014202383
C0G820,田尾,2024-03-04,23.901669,120.509389,0.019503068
C0G830,埤頭,2024-03-04,23.866003,120.452806,0.017381886
C0G860,社頭,2024-03-04,23.897647,120.5862,0.022522034
C0G880,二水,2024-03-04,23.810742,120.6173,0.040151276
C0G890,伸港,2024-03-04,24.148933,120.484403,0.0008242048
C0G900,線西,2024-03-04,24.143358,120.443536,0.00034117338
C0G910,花壇,2024-03-04,24.032076,120.549461,0.020350313
C0G920,永靖,2024-03-04,23.924703,120.547533,0.028980095
C0G940,竹塘,2024-03-04,23.848253,120.386764,0.0035524536
C0G950,防潮門,2024-03-04,24.1835,120.4871,0.00049557234
C0G960,福寶,2024-03-04,24.0443,120.3814,0.00040649582
C0G970,三豐,2024-03-04,23.882,120.2895,0.0049589574
C0H890,埔里,2024-03-04,23.972169,120.952425,0.013192041
C0H960,草屯,2024-03-04,23.973672,120.68085,0.057019915
C0I110,竹山,2024-03-04,23.761225,120.688156,0.027040051
C0I360,水里,2024-03-04,23.812553,120.849792,0.031130675
C0I380,集集,2024-03-04,23.828206,120.801467,0.025195526
C0I410,名間,2024-03-04,23.837053,120.701447,0.019104598
C0I420,國姓,2024-03-04,24.037803,120.855072,0.03592163
C0I460,南投,2024-03-04,23.911469,120.687331,0.026746193
C0K250,崙背,2024-03-04,23.75555,120.318925,0.010308116
C0K280,四湖,2024-03-04,23.630414,120.227125,0.00766725
C0K291,宜梧,2024-03-04,23.536281,120.169329,0.010203582
C0K330,虎尾,2024-03-04,23.719183,120.442036,0.04990013
C0K390,土庫,2024-03-04,23.679029,120.395574,0.03289382
C0K400,斗六,2024-03-04,23.720583,120.541127,0.06849166
C0K410,北港,2024-03-04,23.573957,120.292802,0.019532051
C0K420,西螺,2024-03-04,23.800407,120.467394,0.026137957
C0K430,褒忠,2024-03-04,23.690938,120.303634,0.012673414
C0K440,二崙,2024-03-04,23.772797,120.408944,0.039145965
C0K450,大埤,2024-03-04,23.646074,120.431537,0.026294768
C0K460,斗南,2024-03-04,23.678734,120.478359,0.03306911
C0K470,林內,2024-03-04,23.748675,120.609642,0.08247527
C0K480,莿桐,2024-03-04,23.761192,120.502372,0.031180406
C0K500,元長,2024-03-04,23.64981,120.315024,0.01602842
C0K510,水林,2024-03-04,23.572924,120.24597,0.01697046
C0K530,臺西,2024-03-04,23.701547,120.197559,0.0025915685
C0K550,蔦松,2024-03-04,23.514319,120.229736,0.014726212
C0K560,棋山,2024-03-04,23.68645,120.603417,0.09711401
C0K580,高鐵雲林,2024-03-04,23.737456,120.417944,0.039888754
C0K590,雲林東勢,2024-03-04,23.674192,120.255721,0.011778609
C0K600,箔子寮,2024-03-04,23.6197,120.14,0.0028568099
C0M520,東後寮,2024-03-04,23.369908,120.248065,0.015350631
C0M640,中埔,2024-03-04,23.42538,120.5229,0.10385315
C0M650,朴子,2024-03-04,23.43463,120.23902,0.039911017
C0M660,溪口,2024-03-04,23.604131,120.403569,0.030964985
C0M670,大林,2024-03-04,23.600616,120.45841,0.0352876
C0M680,太保,2024-03-04,23.455062,120.331455,0.07560217
C0M690,水上,2024-03-04,23.419734,120.388909,0.0938933
C0M700,竹崎,2024-03-04,23.526178,120.555508,0.060451917
C0M710,東石,2024-03-04,23.458927,120.15385,0.0036159738
C0M720,番路,2024-03-04,23.464657,120.554156,0.09941437
C0M730,嘉義市東區,2024-03-04,23.457673,120.460531,0.15828717
C0M740,六腳,2024-03-04,23.492871,120.290625,0.060919333
C0M750,布袋,2024-03-04,23.380878,120.167789,0.012131737
C0M760,民雄,2024-03-04,23.551754,120.428457,0.037724044
C0M770,嘉義梅山,2024-03-04,23.585398,120.555587,0.042097293
C0M780,鹿草,2024-03-04,23.41134,120.30835,0.048673544
C0M790,新港,2024-03-04,23.553269,120.345728,0.04642544
C0M800,茶山,2024-03-04,23.299075,120.664767,0.056688875
C0M880,好美里,2024-03-04,23.3364,120.138,0.0067108204
C0N010,鯤鯓國小,2024-03-04,23.1879,120.0889,0.01918673
C0N020,城西,2024-03-04,23.0568,120.0956,0.16571613
C0N030,四草,2024-03-04,23.0235,120.1116,0.17945041
C0N040,蘆竹溝,2024-03-04,23.2344,120.0961,0.020443492
C0N050,蚵寮,2024-03-04,23.301,120.1104,0.009646664
C0O830,北寮,2024-03-04,23.079561,120.495008,0.39989495
C0O840,王爺宮,2024-03-04,23.222064,120.40085,0.07590437
C0O860,大內,2024-03-04,23.11885,120.36083,0.39446768
C0O900,善化,2024-03-04,23.112883,120.297219,0.34622514
C0O960,崎頂,2024-03-04,22.959547,120.369317,0.48515537
C0O970,虎頭埤,2024-03-04,23.021375,120.347878,0.3751934
C0O980,新市,2024-03-04,23.061614,120.298197,0.37337464
C0O990,媽廟,2024-03-04,22.99175,120.293525,0.405072
C0R150,三地門,2024-03-04,22.709889,120.639944,0.31624892
C0R160,鹽埔,2024-03-04,22.739558,120.530778,0.19469921
C0R170,屏東,2024-03-04,22.660269,120.494072,0.079427674
C0R190,赤山,2024-03-04,22.592333,120.614306,0.068127014
C0R220,潮州,2024-03-04,22.534361,120.54,0.06568906
C0R240,來義,2024-03-04,22.527306,120.625111,0.10829531
C0R260,春日,2024-03-04,22.370361,120.628306,0.013984395
C0R270,琉球嶼,2024-03-04,22.332244,120.362236,0.7746141
C0R280,檳榔,2024-03-04,22.076078,120.836777,0.001189527
C0R320,車城,2024-03-04,22.0744,120.716247,0.00798154
C0R341,牡丹,2024-03-04,22.130036,120.792639,0.0012951709
C0R350,貓鼻頭,2024-03-04,21.921774,120.7358,0.0009959048
C0R470,高樹,2024-03-04,22.826389,120.600806,0.20927146
C0R480,長治,2024-03-04,22.693128,120.542622,0.19452165
C0R490,九如,2024-03-04,22.7405,120.490503,0.19475597
C0R520,崁頂,2024-03-04,22.514781,120.506914,0.053531546
C0R540,佳冬,2024-03-04,22.419456,120.552375,0.019852439
C0R550,新埤,2024-03-04,22.467947,120.582894,0.0756007
C0R560,新園,2024-03-04,22.5434,120.461558,0.31848732
C0R570,麟洛,2024-03-04,22.65078,120.52719,0.079427674
C0R580,南州,2024-03-04,22.48591,120.50274,0.108987294
C0R590,里港,2024-03-04,22.77919,120.49459,0.49070072
C0R620,墾雷,2024-03-04,21.900836,120.855269,0.00043246514
C0R640,東港,2024-03-04,22.46247,120.44074,0.5620659
C0R650,竹田,2024-03-04,22.58486,120.54344,0.05271029
C0R660,枋寮,2024-03-04,22.367722,120.590647,0.019986235
C0R670,楓港,2024-03-04,22.190131,120.692156,0.0100464625
C0R680,佳樂水,2024-03-04,21.993578,120.861633,0.0037487387
C0R690,墾丁,2024-03-04,21.966756,120.810269,0.00027034487
C0R700,枋山,2024-03-04,22.246844,120.661086,0.016287344
C0R710,龍磐,2024-03-04,21.931672,120.838942,0.00021898809
C0R720,旭海,2024-03-04,22.205403,120.887614,0.004112335
C0R730,大坪頂,2024-03-04,22.024633,120.69355,0.0013773522
C0R740,獅子,2024-03-04,22.201569,120.70525,0.017338343
C0R760,南仁湖,2024-03-04,22.084681,120.863353,0.0013588242
C0R770,保力,2024-03-04,22.071122,120.764111,0.004738818
C0R780,滿州,2024-03-04,22.024403,120.839892,0.005948807
C0R790,九棚,2024-03-04,22.14195,120.889281,0.0039241244
C0R800,丹路,2024-03-04,22.204481,120.750989,0.0028864436
C0R810,內獅,2024-03-04,22.305064,120.642986,0.011939951
C0R830,高士,2024-03-04,22.121825,120.836781,0.0011548712
C0R850,林邊,2024-03-04,22.4634,120.5339,0.07868249
C0R860,鼻頭,2024-03-04,22.1043,120.8979,0.010911074
C0R870,興海,2024-03-04,21.9752,120.8439,0.0039670663
C0R880,後壁湖,2024-03-04,21.9457,120.7457,0.0052988827
C0R890,山海,2024-03-04,21.9878,120.7091,0.0051913084
C0R900,竹坑,2024-03-04,22.1385,120.7022,0.007874087
C0R910,下寮,2024-03-04,22.3929,120.5548,0.019986235
C0R920,塭仔,2024-03-04,22.4169,120.5197,0.04875594
C0R930,萬丹,2024-03-04,22.5885,120.4851,0.07603753
C0R940,加祿堂,2024-03-04,22.3363,120.6217,0.0038115818
C0S710,鹿野,2024-03-04,22.917711,121.122994,0.0059721298
C0S730,綠島,2024-03-04,22.6672,121.47533,0.011086559
C0S740,池上,2024-03-04,23.119628,121.209469,0.008106116
C0S770,大溪山,2024-03-04,22.478475,120.943325,0.005392437
C0S790,金崙,2024-03-04,22.538122,120.966875,0.021002552
C0S810,東河,2024-03-04,22.972672,121.303986,0.20589688
C0S830,長濱,2024-03-04,23.286817,121.411975,0.022302998
C0S840,南田,2024-03-04,22.279725,120.889208,0.02042377
C0S890,關山,2024-03-04,23.0395,121.175017,0.010338135
C0S900,蘭嶼高中,2024-03-04,22.04909,121.51214,0.0074765603
C0S910,蘭嶼燈塔,2024-03-04,22.081197,121.503117,0.0032398677
C0S920,金峰嘉蘭,2024-03-04,22.594789,120.960825,0.022453023
C0S930,延平,2024-03-04,22.902581,121.084058,0.00372588
C0S940,石寧山,2024-03-04,23.223772,121.406639,0.36334342
C0S950,七塊厝,2024-03-04,22.954453,121.229922,0.01334375
C0S960,香蘭,2024-03-04,22.587569,120.993375,0.05986038
C0S970,加津林,2024-03-04,22.416211,120.926942,0.004226034
C0S990,山豬窟,2024-03-04,22.318619,120.857372,0.004897482
C0SA00,歷坵,2024-03-04,22.520969,120.89185,0.0043283813
C0SA10,檳榔四格山,2024-03-04,22.810031,121.109308,0.009553912
C0SA30,都歷,2024-03-04,23.020333,121.323642,0.031147601
C0SA40,瑞和,2024-03-04,22.974361,121.156697,0.027528076
C0SA60,知本（水試所）,2024-03-04,22.702394,121.082761,0.13579367
C0SA80,土坂,2024-03-04,22.453108,120.887572,0.025359146
C0SA90,達仁林場,2024-03-04,22.264347,120.823972,0.0011024987
C0T870,鯉魚潭,2024-03-04,23.935639,121.508944,0.005504281
C0T900,西林,2024-03-04,23.8119,121.441458,0.0038497786
C0T960,光復,2024-03-04,23.660694,121.424964,0.0072503365
C0T9A0,月眉山,2024-03-04,23.809928,121.539828,0.0019029957
C0T9D0,和中,2024-03-04,24.26676,121.74103,0.063179664
C0T9E0,大坑,2024-03-04,23.880628,121.581981,0.003563696
C0T9F0,水璉,2024-03-04,23.797131,121.542514,0.0029362806
C0T9I0,豐濱,2024-03-04,23.583897,121.514806,0.010623589
C0T9M0,靜浦,2024-03-04,23.455167,121.495028,0.067534044
C0T9N0,富里,2024-03-04,23.171639,121.249378,0.032634687
C0U600,礁溪,2024-03-04,24.817539,121.765608,0.0037431759
C0U650,玉蘭,2024-03-04,24.675286,121.587061,0.0027851001
C0U750,龜山島,2024-03-04,24.841667,121.953133,0.08839317
C0U760,東澳,2024-03-04,24.52196,121.83318,0.026970163
C0U770,南澳,2024-03-04,24.44935,121.81022,0.0019696476
C0U780,五結,2024-03-04,24.68637,121.79794,0.001782333
C0U860,頭城,2024-03-04,24.85323,121.8308,0.0020598697
C0U870,大礁溪,2024-03-04,24.791042,121.675047,0.0015131775
C0U880,北關,2024-03-04,24.9072,121.8734,0.0056565953
C0U890,三星,2024-03-04,24.66812,121.65302,0.009505352
C0U900,內城,2024-03-04,24.71813,121.68766,0.004263315
C0U910,冬山,2024-03-04,24.63373,121.7937,0.004327613
C0U940,羅東,2024-03-04,24.68184,121.74934,0.0032339569
C0U970,大福,2024-03-04,24.80064,121.81389,0.0010488789
C0U990,員山,2024-03-04,24.74435,121.72247,0.0025350426
C0UA00,土場,2024-03-04,24.576533,121.495333,0.0017724506
C0UA80,大溪漁港,2024-03-04,24.941801,121.902955,0.006247799
C0UA90,石城,2024-03-04,24.980444,121.951214,0.013312534
C0UB00,淡江大學蘭陽校園,2024-03-04,24.823239,121.730383,0.003384753
C0UB10,蘇澳,2024-03-04,24.5969,121.8571,0.05822933
C0UB20,壯圍,2024-03-04,24.7359,121.8163,0.001388007
C0V310,美濃,2024-03-04,22.898742,120.519153,0.5695965
C0V350,溪埔,2024-03-04,22.738578,120.446797,0.6213541
C0V360,內門,2024-03-04,22.975481,120.466769,0.24034499
C0V370,古亭坑,2024-03-04,22.893178,120.401947,0.624855
C0V400,阿公店,2024-03-04,22.804194,120.355528,0.65787315
C0V440,鳳山,2024-03-04,22.646653,120.356122,0.7029901
C0V450,鳳森,2024-03-04,22.545064,120.392592,0.73152786
C0V490,新興,2024-03-04,22.627422,120.298803,0.57784283
C0V530,阿蓮,2024-03-04,22.883208,120.327508,0.42899504
C0V610,梓官,2024-03-04,22.760558,120.267211,0.37397727
C0V620,永安,2024-03-04,22.82315,120.236856,0.31810206
C0V630,茄萣,2024-03-04,22.906642,120.182608,0.15969756
C0V640,湖內,2024-03-04,22.887139,120.2445,0.1538194
C0V650,彌陀,2024-03-04,22.783806,120.246361,0.32865348
C0V660,岡山,2024-03-04,22.797078,120.294958,0.40981466
C0V680,仁武,2024-03-04,22.701083,120.347722,0.70242614
C0V690,鼓山,2024-03-04,22.623325,120.275575,0.6694906
C0V700,三民,2024-03-04,22.645017,120.311233,0.570181
C0V710,苓雅,2024-03-04,22.622742,120.330669,0.66574144
C0V720,林園,2024-03-04,22.507747,120.394511,0.85791165
C0V730,大寮,2024-03-04,22.605614,120.395717,0.7100584
C0V740,旗山,2024-03-04,22.888614,120.483597,0.5621487
C0V750,路竹,2024-03-04,22.854997,120.259439,0.1767029
C0V760,橋頭,2024-03-04,22.757806,120.30575,0.52879685
C0V770,大社,2024-03-04,22.730306,120.346639,0.65194345
C0V790,萬山,2024-03-04,22.905944,120.688056,0.03804002
C0V800,六龜,2024-03-04,22.997889,120.633583,0.13196653
C0V810,左營,2024-03-04,22.67491,120.28491,0.570181
C0V820,小林,2024-03-04,23.148408,120.63325,0.0682681
C0V840,鳳鼻頭,2024-03-04,22.5083,120.3591,0.85644394
C0V850,蚵仔寮,2024-03-04,22.7256,120.2527,0.3840667
C0V860,南寮,2024-03-04,22.7616,120.2339,0.3840667
C0V870,文安,2024-03-04,22.8025,120.2164,0.27188048
C0V880,興達,2024-03-04,22.8778,120.2127,0.16934036
C0V890,前鎮,2024-03-04,22.5718,120.3117,0.80038154
C0V900,汕尾,2024-03-04,22.4782,120.4151,0.36476812
C0W200,湖西,2024-03-04,23.596314,119.67275,0.0007807101
C0X050,東河,2024-03-04,23.296598,120.385608,0.106510945
C0X060,下營,2024-03-04,23.22695,120.256261,0.105660595
C0X080,佳里,2024-03-04,23.173039,120.145086,0.04884659
C0X100,臺南市北區,2024-03-04,23.010394,120.194228,0.19691247
C0X110,臺南市南區,2024-03-04,22.961189,120.188378,0.21186736
C0X120,麻豆,2024-03-04,23.183289,120.248611,0.19627444
C0X130,官田,2024-03-04,23.193217,120.315422,0.22720987
C0X140,西港,2024-03-04,23.125608,120.203108,0.21330436
C0X150,安定,2024-03-04,23.102614,120.227839,0.25573912
C0X160,仁德,2024-03-04,22.968258,120.257689,0.2065972
C0X170,關廟,2024-03-04,22.963017,120.327797,0.41847956
C0X180,山上,2024-03-04,23.0757,120.363253,0.22617006
C0X190,安平,2024-03-04,22.993161,120.152181,0.17107116
C0X200,左鎮,2024-03-04,23.056758,120.408522,0.45541897
C0X210,白河,2024-03-04,23.347466,120.414427,0.18558075
C0X220,學甲,2024-03-04,23.230367,120.182187,0.02977966
C0X230,鹽水,2024-03-04,23.272621,120.247641,0.021873247
C0X240,關子嶺,2024-03-04,23.331169,120.508025,0.019678093
C0X250,新營,2024-03-04,23.310689,120.316681,0.060418893
C0X260,後壁,2024-03-04,23.366358,120.362326,0.09231758
C0X280,將軍,2024-03-04,23.214999,120.13577,0.027187165
C0X290,北門,2024-03-04,23.267772,120.125481,0.020443492
C0X300,鹿寮,2024-03-04,23.386047,120.477331,0.16497189
C0X310,七股,2024-03-04,23.147289,120.086253,0.026064705
C0X320,柳營,2024-03-04,23.253328,120.375253,0.17126864
C0Z020,明里,2024-03-04,23.208717,121.262342,0.015471891
C0Z061,玉里,2024-03-04,23.3215,121.339656,0.018789977
C0Z070,舞鶴,2024-03-04,23.46811,121.37407,0.0066777947
C0Z080,富源,2024-03-04,23.587642,121.378225,0.004416061
C0Z100,東華,2024-03-04,23.89525,121.549833,0.02208958
C0Z150,吉安光華,2024-03-04,23.930925,121.595153,0.06188451
C0Z160,鳳林,2024-03-04,23.746114,121.453411,0.0063865716
C0Z170,卓溪,2024-03-04,23.3443,121.3029,0.009497467
C0Z180,新城,2024-03-04,24.03946,121.60454,0.07016574
C0Z190,富世,2024-03-04,24.14743,121.6297,0.005630471
C0Z200,萬榮,2024-03-04,23.709219,121.420106,0.007602494
C0Z210,瑞穗,2024-03-04,23.5239,121.39021,0.015190455
C0Z230,和平,2024-03-04,24.30717,121.77007,0.042286243
C0Z270,蕃薯寮,2024-03-04,23.73835,121.540108,0.003935777
C0Z280,德武,2024-03-04,23.47426,121.41071,0.007893914
C0Z300,東里,2024-03-04,23.26853,121.30547,0.024680799
C0Z310,清水斷崖,2024-03-04,24.218294,121.689142,0.0018485632
C0Z330,安通山,2024-03-04,23.290728,121.348528,0.0041251043
C2E520,大湖,2024-03-04,24.414939,120.870872,0.0018565977
C2E540,後龍,2024-03-04,24.606489,120.783933,0.00094247854
C2F000,大肚,2024-03-04,24.15295,120.572117,0.0010739333
C2F930,大甲,2024-03-04,24.347667,120.640403,0.00073854503
C2F9A0,中竹林,2024-03-04,24.103556,120.751061,0.010020814
C2G640,鹿港,2024-03-04,24.0753,120.430481,0.0006327303
C2G840,北斗,2024-03-04,23.877586,120.514222,0.028617661
C2G870,芳苑,2024-03-04,23.922303,120.320025,0.003251187
C2H950,中寮,2024-03-04,23.884447,120.766406,0.027596036
C2M410,馬頭山,2024-03-04,23.324361,120.582017,0.24973607
C2O810,曾文,2024-03-04,23.219681,120.497328,0.5232723
C2O930,玉井,2024-03-04,23.126042,120.46055,0.29694182
C2O950,安南,2024-03-04,23.076694,120.144861,0.034055684
C2V250,甲仙,2024-03-04,23.080106,120.591758,0.3330723
C2V260,月眉,2024-03-04,22.971003,120.539853,0.39268577
C2W230,畜試所澎湖,2024-03-04,23.628342,119.513206,0.0005804883
CAG100,王功漁港,2024-03-04,23.96824,120.32586,0.0015452942
CAH030,茶改場竹圍站,2024-03-04,23.860083,120.637528,0.0056442097
CAJ050,海口故事園區,2024-03-04,23.57543,120.14121,0.0028578248
CAL110,布袋國中,2024-03-04,23.35893,120.18026,0.012841673
CAN130,水試所海水繁養殖中心,2024-03-04,23.120802,120.07968,0.02279298
CAN140,六官養殖協會,2024-03-04,23.22881,120.29962,0.111279935
CAQ030,崎峰國小,2024-03-04,22.42565,120.49521,0.1698906
E2K600,四湖植物園,2024-03-04,23.676986,120.163433,0.0031730237
E2P980,林試六龜中心,2024-03-04,22.991703,120.645722,0.1252311
E2S960,林試太麻里2,2024-03-04,22.598014,120.989761,0.059774358
E2S960,林試太麻里2,2024-03-04,22.598,120.99775,0.06264269
E2S980,林試太麻里1,2024-03-04,22.598922,120.980044,0.04177657
G2AI50,關渡,2024-03-04,25.11575,121.492,0.0027452086
G2F820,農業試驗所,2024-03-04,24.031261,120.688133,0.07266216
G2F820,農試所(霧峰),2024-03-04,24.031261,120.688133,0.07266216
G2L020,農試嘉義分所,2024-03-04,23.485028,120.473806,0.10447459
G2M350,農試溪口農場,2024-03-04,23.58565,120.408111,0.037601363
G2P820,農試鳳山分所,2024-03-04,22.646611,120.356083,0.7029901
K2E360,苗栗農改,2024-03-04,24.495722,120.829111,0.0015862349
K2E360,苗栗農改場,2024-03-04,24.495722,120.829111,0.0015862349
K2E710,苗改生物防治研究中心,2024-03-04,24.422861,120.871833,0.0019508955
K2F750,種苗改良場,2024-03-04,24.225972,120.800917,0.0026739177
K2F750,種苗繁殖,2024-03-04,24.225972,120.800917,0.0026739177
U2HA50,臺大竹山,2024-03-04,23.756972,120.681556,0.04294775
V2C250,八德合作社,2024-03-04,24.93775,121.266389,0.0019950392
V2C260,八德蔬果,2024-03-04,24.978508,121.281819,0.0033637052
V2K610,大庄合作社,2024-03-04,23.8068,120.367939,0.008555915
V2K620,麥寮合作社,2024-03-04,23.753836,120.294783,0.009816091
