站號,站名,日期,lat,lon,BLBTSLS
C0R710,龍磐,2024-01-08,21.931672,120.838942,0.0039655287
C1F9D1,白毛台,2024-01-08,24.158325,120.886933,1.241809e-09
C0G940,竹塘,2024-01-08,23.848253,120.386764,5.991981e-08
467590,恆春,2024-01-08,22.003897,120.746339,0.9122921
C1O850,環湖,2024-01-08,23.148617,120.418633,2.4063707e-09
C0U710,太平山,2024-01-08,24.505486,121.525656,1.5626785e-08
C0E820,獅潭,2024-01-08,24.539133,120.920042,3.0773606e-09
C0V880,興達,2024-01-08,22.8778,120.2127,5.2675105e-08
C0S890,關山,2024-01-08,23.0395,121.175017,5.978414e-10
K2F750,種苗繁殖,2024-01-08,24.225972,120.800917,1.1375436e-09
C1Z130,銅門,2024-01-08,23.965694,121.492842,6.4464425e-09
C0AD40,土城,2024-01-08,24.973208,121.445169,6.9484574e-09
CAN140,六官養殖協會,2024-01-08,23.22881,120.29962,2.3588385e-08
C0X180,山上,2024-01-08,23.0757,120.363253,4.185789e-09
C0F9Z0,雪山東峰,2024-01-08,24.388792,121.268675,2.1567368e-08
C1M480,獨立山,2024-01-08,23.537022,120.607797,1.6217478e-09
C0X220,學甲,2024-01-08,23.230367,120.182187,6.728426e-08
C0R170,屏東,2024-01-08,22.660269,120.494072,1.2276318e-09
467650,日月潭,2024-01-08,23.881325,120.90805,2.565294e-09
C0K600,箔子寮,2024-01-08,23.6197,120.14,0.000878483
C0G830,埤頭,2024-01-08,23.866003,120.452806,4.915508e-09
C0S950,七塊厝,2024-01-08,22.954453,121.229922,5.9201005e-10
467110,金門,2024-01-08,24.407306,118.289281,4.1390438e-09
C0AH80,深坑,2024-01-08,25.002703,121.628328,6.697016e-09
467990,馬祖,2024-01-08,26.169269,119.923419,5.9711596e-08
C0A970,三貂角,2024-01-08,25.007606,122.002058,1.8341453e-08
C0K430,褒忠,2024-01-08,23.690938,120.303634,1.7452402e-08
467480,嘉義,2024-01-08,23.495925,120.432906,2.5843094e-09
C2E540,後龍,2024-01-08,24.606489,120.783933,5.676728e-09
C0V400,阿公店,2024-01-08,22.804194,120.355528,8.371263e-09
C0R440,大漢山,2024-01-08,22.405264,120.753181,1.7094647e-08
C0K280,四湖,2024-01-08,23.630414,120.227125,0.00054877915
C1F9B1,桐林,2024-01-08,24.066172,120.735194,1.2540481e-09
C0K390,土庫,2024-01-08,23.679029,120.395574,6.268028e-09
C1I450,望鄉山,2024-01-08,23.594153,120.944286,1.47356065e-08
C0E910,海埔,2024-01-08,24.648767,120.772435,6.116433e-09
B2E890,畜試北區分所,2024-01-08,24.527806,120.770972,6.056958e-09
C0R750,四林格山,2024-01-08,22.076989,120.802439,1.4637043e-06
C0F0C0,中坑,2024-01-08,24.248517,120.903319,1.5138107e-09
C1I121,大鞍,2024-01-08,23.678381,120.760017,6.8930297e-09
72U480,花改蘭陽分場,2024-01-08,24.686306,121.716583,2.0966573e-09
C0A770,科教館,2024-01-08,25.096356,121.516507,5.5458296e-09
C0AJ60,六塊厝,2024-01-08,25.24,121.4481,4.460749e-06
C0R620,墾雷,2024-01-08,21.900836,120.855269,0.029000636
467420,永康,2024-01-08,23.038386,120.2367,1.4574185e-08
467300,東吉島,2024-01-08,23.25695,119.667467,0.9705702
C0I410,名間,2024-01-08,23.837053,120.701447,1.2188452e-09
A2C560,農工中心,2024-01-08,24.985917,121.239833,4.4837655e-08
C0V740,旗山,2024-01-08,22.888614,120.483597,2.9276244e-09
C0Z061,玉里,2024-01-08,23.3215,121.339656,2.660969e-09
C0S840,南田,2024-01-08,22.279725,120.889208,0.9877817
C1I470,杉林溪,2024-01-08,23.639517,120.786444,8.214438e-09
C1X040,東原,2024-01-08,23.291597,120.463822,1.3422009e-09
C0R660,枋寮,2024-01-08,22.367722,120.590647,0.0021324048
C1R120,上德文,2024-01-08,22.763272,120.704442,1.0200688e-09
C0K450,大埤,2024-01-08,23.646074,120.431537,2.2171232e-09
C0UA00,土場,2024-01-08,24.576533,121.495333,1.0599559e-08
467080,宜蘭,2024-01-08,24.763975,121.756528,2.6536098e-09
C0N030,四草,2024-01-08,23.0235,120.1116,1.09916755e-07
C0V650,彌陀,2024-01-08,22.783806,120.246361,1.2643568e-08
C0D660,新竹市東區,2024-01-08,24.798681,120.986942,6.0590266e-09
82S580,茶改東部分場,2024-01-08,22.907694,121.130139,1.4035245e-09
C0C710,大溪永福,2024-01-08,24.892936,121.324975,3.922434e-08
C0FA20,溫寮,2024-01-08,24.372177,120.583125,2.4914e-07
C0V640,湖內,2024-01-08,22.887139,120.2445,4.7473492e-08
C0R910,下寮,2024-01-08,22.3929,120.5548,0.0021324048
C0Z020,明里,2024-01-08,23.208717,121.262342,3.1976668e-09
C0M770,嘉義梅山,2024-01-08,23.585398,120.555587,1.2127719e-09
G2F820,農業試驗所,2024-01-08,24.031261,120.688133,1.2811232e-09
C0C660,楊梅,2024-01-08,24.912375,121.143047,5.757785e-08
C1E511,新開,2024-01-08,24.347703,120.827019,2.1865085e-09
G2F820,農試所(霧峰),2024-01-08,24.031261,120.688133,1.2811232e-09
C1I070,和社,2024-01-08,23.591131,120.888861,3.859632e-09
C2F000,大肚,2024-01-08,24.15295,120.572117,1.2289532e-09
C1S850,豐南,2024-01-08,23.122139,121.262389,1.4286319e-09
C2A920,富貴角,2024-01-08,25.263783,121.565258,3.1928028e-07
CAH030,茶改場竹圍站,2024-01-08,23.860083,120.637528,1.0382275e-09
C0T960,光復,2024-01-08,23.660694,121.424964,1.0434447e-09
C0F9M0,豐原,2024-01-08,24.254322,120.720692,2.327655e-09
C0R720,旭海,2024-01-08,22.205403,120.887614,0.9993339
C0V710,苓雅,2024-01-08,22.622742,120.330669,3.1183247e-09
C0C740,觀音工業區,2024-01-08,25.064764,121.114856,0.0007763227
CAC040,拉拉山,2024-01-08,24.699317,121.427133,2.9960923e-08
C0V790,萬山,2024-01-08,22.905944,120.688056,1.0798061e-09
U2HA30,臺大和社,2024-01-08,23.590856,120.888864,3.859632e-09
C0AJ90,澳底,2024-01-08,25.0552,121.9253,1.810151e-08
C0Z100,東華,2024-01-08,23.89525,121.549833,2.9573526e-09
C0G970,三豐,2024-01-08,23.882,120.2895,0.34496993
V2K610,大庄合作社,2024-01-08,23.8068,120.367939,2.6523661e-08
C0V900,汕尾,2024-01-08,22.4782,120.4151,2.5903153e-09
C1R630,龍泉,2024-01-08,22.66701,120.59091,1.1485359e-09
C1AC50,關渡,2024-01-08,25.133486,121.469331,1.4384843e-08
C0F9I0,神岡,2024-01-08,24.272481,120.658314,5.6054685e-09
C0K460,斗南,2024-01-08,23.678734,120.478359,2.1876974e-09
467410,臺南,2024-01-08,22.993239,120.204772,7.9970036e-08
C2O810,曾文,2024-01-08,23.219681,120.497328,1.2360502e-09
467280,後龍,2024-01-08,24.648563,120.831834,5.089858e-09
C1F9J1,清水林,2024-01-08,24.071242,120.820419,1.5046165e-09
C2A650,火燒寮,2024-01-08,25.002719,121.742892,1.0563432e-08
466930,竹子湖,2024-01-08,25.162078,121.544547,1.5657367e-08
C1I220,樟湖,2024-01-08,23.905333,120.846983,2.5067008e-09
C0I390,仁愛,2024-01-08,24.022122,121.132206,1.2546988e-09
C0Z300,東里,2024-01-08,23.26853,121.30547,3.1365721e-09
C0V310,美濃,2024-01-08,22.898742,120.519153,3.122491e-09
C1V590,新發,2024-01-08,23.057019,120.646064,2.1679956e-09
C0K510,水林,2024-01-08,23.572924,120.24597,3.468753e-08
72S590,東改賓朗果園,2024-01-08,22.813889,121.071278,3.1112015e-09
82A750,茶改北部分場,2024-01-08,24.955778,121.631222,1.8241847e-08
C1A750,石碇服務區,2024-01-08,25.00872,121.646242,1.5513816e-08
C0X300,鹿寮,2024-01-08,23.386047,120.477331,1.3512014e-09
G2AI50,關渡,2024-01-08,25.11575,121.492,2.9563373e-07
C0K590,雲林東勢,2024-01-08,23.674192,120.255721,2.0227077e-08
C0A570,桶後,2024-01-08,24.848222,121.597992,9.210462e-09
C1S800,華源,2024-01-08,22.657883,121.02325,3.0247673e-08
C0G720,溪州,2024-01-08,23.851589,120.499093,4.8246642e-09
C1V160,達卡努瓦,2024-01-08,23.279811,120.705319,2.6763154e-09
C2M410,馬頭山,2024-01-08,23.324361,120.582017,1.283148e-09
C0V850,蚵仔寮,2024-01-08,22.7256,120.2527,6.9487887e-09
C0S740,池上,2024-01-08,23.119628,121.209469,1.3005709e-09
C1V390,尖山,2024-01-08,22.813153,120.367789,6.727871e-09
C0AH70,松山,2024-01-08,25.04871,121.55042,5.541537e-09
C0N010,鯤鯓國小,2024-01-08,23.1879,120.0889,2.0891639e-07
C0R550,新埤,2024-01-08,22.467947,120.582894,2.0225985e-09
C0SA60,知本（水試所）,2024-01-08,22.702394,121.082761,6.379489e-08
C0T9I0,豐濱,2024-01-08,23.583897,121.514806,1.0281379e-09
C0UB00,淡江大學蘭陽校園,2024-01-08,24.823239,121.730383,9.447009e-09
C0T9N0,富里,2024-01-08,23.171639,121.249378,2.0799482e-09
U2HA50,臺大竹山,2024-01-08,23.756972,120.681556,1.1161417e-09
C0V840,鳳鼻頭,2024-01-08,22.5083,120.3591,1.629459e-09
C0X140,西港,2024-01-08,23.125608,120.203108,2.846719e-08
72D080,桃改五峰分場,2024-01-08,24.612194,121.157167,3.634589e-09
C0V530,阿蓮,2024-01-08,22.883208,120.327508,1.117885e-08
C1O880,關山,2024-01-08,23.173397,120.594092,7.086446e-10
C0E791,卓蘭,2024-01-08,24.3126,120.8244,2.241932e-09
C1I030,武界,2024-01-08,23.913225,121.052483,1.80957e-09
C0R520,崁頂,2024-01-08,22.514781,120.506914,5.630242e-09
C0R341,牡丹,2024-01-08,22.130036,120.792639,0.9995131
C0R930,萬丹,2024-01-08,22.5885,120.4851,2.2991375e-09
C0S760,紅石,2024-01-08,23.069131,121.126219,1.4488266e-08
C1M610,石磐龍,2024-01-08,23.496606,120.663506,3.137601e-09
C0UA10,鴛鴦湖,2024-01-08,24.590269,121.412228,1.1910746e-08
V2C260,八德蔬果,2024-01-08,24.978508,121.281819,1.6141664e-08
C0R800,丹路,2024-01-08,22.204481,120.750989,0.99930733
C0G920,永靖,2024-01-08,23.924703,120.547533,3.4878913e-09
C1A630,下盆,2024-01-08,24.771003,121.538622,1.05027995e-08
B2N890,畜產試驗所,2024-01-08,23.058972,120.336406,8.068796e-09
C0UA30,白嶺,2024-01-08,24.527819,121.519031,1.1034166e-08
C1V580,溪南(特生中心),2024-01-08,23.084972,120.788475,2.905218e-09
C1T970,大農,2024-01-08,23.615233,121.413331,1.0678226e-09
E2S960,林試太麻里2,2024-01-08,22.598014,120.989761,1.303413e-07
C0R650,竹田,2024-01-08,22.58486,120.54344,1.8214231e-09
C1H900,清流,2024-01-08,24.080775,120.962997,2.1498114e-09
C1C510,水尾,2024-01-08,24.940081,121.087161,2.5675893e-06
C0F9X0,大雅(中科園區),2024-01-08,24.21528,120.62445,3.999177e-09
C0O970,虎頭埤,2024-01-08,23.021375,120.347878,4.70279e-09
C0C730,中大臨海站,2024-01-08,24.966126,121.008581,1.3151744e-05
C0X250,新營,2024-01-08,23.310689,120.316681,1.581096e-08
C0V700,三民,2024-01-08,22.645017,120.311233,5.889346e-09
C0U870,大礁溪,2024-01-08,24.791042,121.675047,1.017877e-08
C0E870,高鐵苗栗,2024-01-08,24.60725,120.826094,5.4634333e-09
A2K570,古坑花卉中心,2024-01-08,23.63353,120.55239,1.6450951e-09
C0M860,新美,2024-01-08,23.338017,120.683169,2.0975173e-09
C1E701,八卦,2024-01-08,24.491756,120.927619,2.8447038e-09
C0I420,國姓,2024-01-08,24.037803,120.855072,1.3280068e-09
C0S960,香蘭,2024-01-08,22.587569,120.993375,1.303413e-07
C0R260,春日,2024-01-08,22.370361,120.628306,2.923466e-05
72G600,臺中農改場,2024-01-08,24.003028,120.534389,1.8687007e-09
C0Z210,瑞穗,2024-01-08,23.5239,121.39021,9.591052e-10
C0M820,達邦,2024-01-08,23.453994,120.749517,2.6931266e-09
C0V860,南寮,2024-01-08,22.7616,120.2339,6.955087e-09
C0G740,大城,2024-01-08,23.852487,120.320935,0.32311636
C0R920,塭仔,2024-01-08,22.4169,120.5197,0.0019053167
C0R470,高樹,2024-01-08,22.826389,120.600806,1.1159884e-09
C0R680,佳樂水,2024-01-08,21.993578,120.861633,0.01647403
C1O870,大棟山,2024-01-08,23.31157,120.52226,4.199079e-09
C0D360,梅花,2024-01-08,24.678347,121.208558,2.8645446e-09
C0Z190,富世,2024-01-08,24.14743,121.6297,6.7537393e-09
C0AI10,屈尺,2024-01-08,24.92184,121.54475,2.5982137e-08
B2U990,畜試東區分所,2024-01-08,24.669039,121.832561,1.8135679e-09
C0R240,來義,2024-01-08,22.527306,120.625111,2.449628e-09
C1R610,西大武山,2024-01-08,22.617719,120.7322,2.6174982e-08
C0G900,線西,2024-01-08,24.143358,120.443536,1.5764435e-08
C0M700,竹崎,2024-01-08,23.526178,120.555508,7.5731654e-10
C2E880,三義,2024-01-08,24.405478,120.749819,2.8072324e-09
C0C720,竹圍,2024-01-08,25.112692,121.239824,2.9563373e-07
C0F9P0,清水,2024-01-08,24.312297,120.562242,6.987108e-08
C0Z150,吉安光華,2024-01-08,23.930925,121.595153,7.830158e-09
C1D640,外坪(五指山),2024-01-08,24.644447,121.090961,2.1793887e-09
C0F9O0,潭子,2024-01-08,24.213106,120.703933,1.7015427e-09
72T250,花蓮農改場,2024-01-08,23.975222,121.563889,1.8641236e-08
C0E780,銅鑼,2024-01-08,24.489681,120.790853,4.789438e-09
C1T950,太安,2024-01-08,23.666719,121.370128,1.6497715e-08
C0E830,苑裡,2024-01-08,24.439714,120.653053,6.7846577e-07
467270,田中,2024-01-08,23.873803,120.581286,1.0843798e-09
C0SA10,檳榔四格山,2024-01-08,22.810031,121.109308,2.7555411e-09
C1T830,布洛灣,2024-01-08,24.17184,121.57127,1.3356843e-08
C0F970,大坑,2024-01-08,24.173142,120.722289,1.2265388e-09
C1U920,思源,2024-01-08,24.393125,121.347214,8.839017e-09
C0A931,三和,2024-01-08,25.233153,121.595236,4.8786063e-08
C0I010,廬山,2024-01-08,24.033311,121.181808,2.5792177e-09
C0R860,鼻頭,2024-01-08,22.1043,120.8979,0.99813247
C0UB20,壯圍,2024-01-08,24.7359,121.8163,2.0413335e-09
C0R790,九棚,2024-01-08,22.14195,120.889281,0.9996222
C0W110,東莒,2024-01-08,25.9652,119.98069,2.7879054e-07
C1U930,粉鳥林,2024-01-08,24.497088,121.842479,3.0170217e-09
C1I211,蘆竹湳,2024-01-08,23.934019,120.811994,1.5831592e-09
C0S830,長濱,2024-01-08,23.286817,121.411975,2.7682474e-09
C1F9F1,伯公龍,2024-01-08,24.272392,120.849047,9.2277597e-10
C0E810,西湖,2024-01-08,24.562947,120.7485,0.0017971909
C1I440,新高口,2024-01-08,23.478744,120.878939,9.729597e-09
C0O840,王爺宮,2024-01-08,23.222064,120.40085,6.591164e-09
C0T9G0,鳳林山,2024-01-08,23.735269,121.420131,4.4044683e-09
C0X080,佳里,2024-01-08,23.173039,120.145086,2.0911732e-07
C0Z310,清水斷崖,2024-01-08,24.218294,121.689142,5.7088028e-09
C0M680,太保,2024-01-08,23.455062,120.331455,3.3111367e-09
C1S820,金峰,2024-01-08,22.590969,120.933236,3.7838053e-08
C0AD10,八里,2024-01-08,25.150211,121.403947,2.9563373e-07
C2K240,草嶺,2024-01-08,23.59555,120.693461,2.8096268e-09
C1SA70,都蘭,2024-01-08,22.87794,121.226881,2.577177e-09
C0K440,二崙,2024-01-08,23.772797,120.408944,3.8099612e-09
C1A760,坪林交控,2024-01-08,24.94284,121.713442,1.2608745e-08
C0F9N0,大里,2024-01-08,24.092464,120.701378,1.2362152e-09
C0SA90,達仁林場,2024-01-08,22.264347,120.823972,1.806428e-06
C1R290,石門山,2024-01-08,22.112611,120.756597,0.19710292
42HA10,萬大發電廠,2024-01-08,23.978875,121.139639,1.8339275e-09
C0R890,山海,2024-01-08,21.9878,120.7091,0.008699316
C0T9A0,月眉山,2024-01-08,23.809928,121.539828,3.1781546e-09
C0AC70,信義,2024-01-08,25.037822,121.564597,5.541537e-09
C0K560,棋山,2024-01-08,23.68645,120.603417,1.6137284e-09
C1Z240,中平林道,2024-01-08,23.42115,121.26763,1.8262456e-08
U2H480,溪頭,2024-01-08,23.670306,120.798194,3.8766603e-09
C0M880,好美里,2024-01-08,23.3364,120.138,7.271778e-08
C0T9E0,大坑,2024-01-08,23.880628,121.581981,3.382586e-09
C0K530,臺西,2024-01-08,23.701547,120.197559,0.0010468868
C1E900,國一N128K,2024-01-08,24.560997,120.844186,4.507378e-09
C0AJ50,水湳洞,2024-01-08,25.123695,121.862238,1.0208812e-07
C0AI20,白沙灣,2024-01-08,25.283128,121.519058,3.40446e-06
C0A860,大坪,2024-01-08,25.165914,121.632969,1.6416104e-08
C1U850,觀音海岸,2024-01-08,24.38319,121.77856,5.3072116e-09
C0U950,鶯子嶺,2024-01-08,24.89754,121.79244,1.838748e-08
C0O900,善化,2024-01-08,23.112883,120.297219,9.225178e-09
C0K550,蔦松,2024-01-08,23.514319,120.229736,1.6916762e-07
E2P980,林試六龜中心,2024-01-08,22.991703,120.645722,1.0488082e-09
C0E590,通霄,2024-01-08,24.471892,120.704622,0.0015063165
C1I310,西巒,2024-01-08,23.754486,120.883956,2.8655118e-09
C0A550,泰平,2024-01-08,24.971197,121.823711,1.4808497e-08
C0I360,水里,2024-01-08,23.812553,120.849792,7.804478e-10
C0R830,高士,2024-01-08,22.121825,120.836781,0.00031526134
C1I101,溪頭,2024-01-08,23.661789,120.807647,7.090627e-09
C0AJ20,野柳,2024-01-08,25.20703,121.690021,2.0379873e-07
C0B060,暖暖,2024-01-08,25.0957,121.7403,1.8507391e-08
C1H920,長豐,2024-01-08,24.102039,120.879897,1.6368321e-09
C0V360,內門,2024-01-08,22.975481,120.466769,3.2878267e-09
C0R850,林邊,2024-01-08,22.4634,120.5339,2.3467657e-09
C0E930,龍鳳,2024-01-08,24.700034,120.859125,7.3364056e-08
C0U910,冬山,2024-01-08,24.63373,121.7937,1.8135679e-09
C1E721,泰安,2024-01-08,24.489017,120.968036,4.0828634e-09
82H320,茶改中部分場,2024-01-08,23.875611,120.913583,2.141671e-09
C0M750,布袋,2024-01-08,23.380878,120.167789,3.3568917e-08
C1S860,利嘉,2024-01-08,22.809417,121.050528,1.3330983e-08
72C440,桃園農改,2024-01-08,24.950944,121.030583,9.499586e-06
E2S980,林試太麻里1,2024-01-08,22.598922,120.980044,7.232591e-08
C0X170,關廟,2024-01-08,22.963017,120.327797,7.20927e-09
C0V720,林園,2024-01-08,22.507747,120.394511,1.5533497e-09
C1I510,線浸林道,2024-01-08,23.761508,120.832956,2.9102984e-09
C0D690,外湖,2024-01-08,24.917735,120.968711,2.0286932e-05
C0C750,新興坑尾,2024-01-08,25.0061,121.0971,3.3418999e-06
B2Q810,畜試南區分所,2024-01-08,21.945583,120.802167,0.015194607
C0S790,金崙,2024-01-08,22.538122,120.966875,5.7251295e-08
C0AH90,福山植物園,2024-01-08,24.760717,121.58135,2.4507228e-08
C0I540,奇萊稜線,2024-01-08,24.109231,121.326456,1.9116124e-08
C0M850,表湖,2024-01-08,23.24186,120.64166,1.9620157e-09
C0S770,大溪山,2024-01-08,22.478475,120.943325,1.1069372e-07
C0AG80,中和,2024-01-08,24.991622,121.491792,6.9484574e-09
C0T790,大禹嶺,2024-01-08,24.186117,121.316086,1.3609428e-08
C0T9B0,水源,2024-01-08,23.991861,121.537169,6.591491e-09
C0R840,牡丹池山,2024-01-08,22.168389,120.841225,8.269285e-06
C1I131,桶頭,2024-01-08,23.641944,120.654117,1.5757242e-09
CAL110,布袋國中,2024-01-08,23.35893,120.18026,3.3568917e-08
467571,新竹,2024-01-08,24.827853,121.014219,8.8769133e-07
C0Z290,赤柯山,2024-01-08,23.36893,121.38293,1.4067198e-08
C0X280,將軍,2024-01-08,23.214999,120.13577,8.119174e-08
C0S690,太麻里,2024-01-08,22.60902,120.98533,1.2779779e-08
C0U880,北關,2024-01-08,24.9072,121.8734,2.6918748e-08
C1H860,瑞岩,2024-01-08,24.123772,121.18345,8.372508e-09
C0G810,埔心,2024-01-08,23.947633,120.525456,3.5440206e-09
C0U970,大福,2024-01-08,24.80064,121.81389,2.6380462e-09
C1E670,南礦,2024-01-08,24.538278,121.002836,3.955127e-09
C0M520,東後寮,2024-01-08,23.369908,120.248065,2.992597e-08
C1E461,松安,2024-01-08,24.397972,120.986022,3.1629517e-09
72G600,臺中農改,2024-01-08,24.003028,120.534389,1.8687007e-09
C2N160,西拉雅風管處,2024-01-08,23.189481,120.335297,1.13019745e-08
C0A640,石碇,2024-01-08,24.993969,121.662917,1.2092153e-08
E2S960,林試太麻里2,2024-01-08,22.598,120.99775,1.4200363e-07
C0F9Y0,桃山,2024-01-08,24.432739,121.303808,1.9627128e-08
C1I020,萬大,2024-01-08,23.979817,121.132261,1.2702615e-09
C0U940,羅東,2024-01-08,24.68184,121.74934,2.0710924e-09
C0M650,朴子,2024-01-08,23.43463,120.23902,1.3644672e-08
C1I500,大尖山,2024-01-08,23.858572,120.994889,6.21836e-09
C0G820,田尾,2024-01-08,23.901669,120.509389,3.5419594e-09
E2K600,四湖植物園,2024-01-08,23.676986,120.163433,0.00054877915
C0S730,綠島,2024-01-08,22.6672,121.47533,0.6888694
12Q970,東港工作站,2024-01-08,22.479997,120.466058,2.5903153e-09
C0E430,南庄,2024-01-08,24.601775,121.000214,3.0843532e-09
C1TA00,太魯閣,2024-01-08,24.15773,121.6236,7.4341173e-09
466920,臺北,2024-01-08,25.037658,121.514853,5.541537e-09
C0R600,舊泰武,2024-01-08,22.588194,120.664944,1.1379255e-09
C1I260,北坑,2024-01-08,23.9246,121.006903,1.6725001e-09
466910,鞍部,2024-01-08,25.182586,121.529731,2.4986015e-08
C1I230,九份二山,2024-01-08,23.961944,120.845,1.5555318e-09
C2A660,瑞芳,2024-01-08,25.113169,121.801147,4.8662738e-08
C0R270,琉球嶼,2024-01-08,22.332244,120.362236,1.7418649e-06
C1T990,高寮,2024-01-08,23.394239,121.356808,1.8056052e-09
C0G620,芬園,2024-01-08,24.015678,120.6213,1.296237e-09
C1Z140,荖溪,2024-01-08,23.890575,121.45964,1.3930678e-08
C1I201,中心崙,2024-01-08,23.728722,120.712097,1.4040198e-09
C1I400,凌霄,2024-01-08,24.018778,121.004456,2.0227338e-09
C1M640,十字,2024-01-08,23.492153,120.753683,6.757154e-09
G2P820,農試鳳山分所,2024-01-08,22.646611,120.356083,5.1283893e-09
C0Z270,蕃薯寮,2024-01-08,23.73835,121.540108,3.3221124e-09
C0F9Q0,外埔,2024-01-08,24.347817,120.705686,8.786639e-09
C0K580,高鐵雲林,2024-01-08,23.737456,120.417944,5.490835e-09
C2I090,鳳凰,2024-01-08,23.728081,120.787347,2.391646e-09
C0U990,員山,2024-01-08,24.74435,121.72247,2.0657624e-09
C0V770,大社,2024-01-08,22.730306,120.346639,6.8853954e-09
C0X120,麻豆,2024-01-08,23.183289,120.248611,2.1640304e-08
C0C670,龍潭,2024-01-08,24.870056,121.221389,1.7875443e-08
C0D680,香山濕地,2024-01-08,24.783581,120.914988,7.1829995e-09
C0S980,勝林山,2024-01-08,22.430439,120.8938,3.746348e-08
C0V730,大寮,2024-01-08,22.605614,120.395717,2.8130533e-09
C0R570,麟洛,2024-01-08,22.65078,120.52719,1.2276318e-09
CAG100,王功漁港,2024-01-08,23.96824,120.32586,0.39013556
C0X290,北門,2024-01-08,23.267772,120.125481,8.119174e-08
C2F930,大甲,2024-01-08,24.347667,120.640403,6.548037e-08
C0D650,湖口,2024-01-08,24.904794,121.043628,3.0389351e-06
C0E420,竹南,2024-01-08,24.708978,120.888897,4.245735e-08
C0U780,五結,2024-01-08,24.68637,121.79794,2.0413335e-09
C1I250,鯉潭,2024-01-08,23.961922,120.991131,1.344884e-09
C0R130,阿禮,2024-01-08,22.742908,120.743678,1.2365123e-09
C0X100,臺南市北區,2024-01-08,23.010394,120.194228,1.04836694e-07
C0S920,金峰嘉蘭,2024-01-08,22.594789,120.960825,6.8068424e-08
C0V490,新興,2024-01-08,22.627422,120.298803,3.1183247e-09
C0F9K0,大安,2024-01-08,24.345061,120.588025,1.8109354e-07
72N100,臺南農改,2024-01-08,23.0605,120.342194,8.068796e-09
467290,古坑,2024-01-08,23.633639,120.551889,1.6450951e-09
C0V440,鳳山,2024-01-08,22.646653,120.356122,5.1283893e-09
C1T940,大觀,2024-01-08,23.714206,121.373133,3.954176e-09
72T250,花蓮農改,2024-01-08,23.975222,121.563889,1.8641236e-08
C0E740,造橋,2024-01-08,24.637056,120.864778,5.5663993e-09
C0R100,尾寮山,2024-01-08,22.833111,120.683889,1.284534e-09
A2K630,臺大雲林校區,2024-01-08,23.730628,120.423903,5.470597e-09
C0D580,寶山,2024-01-08,24.735006,121.025192,2.0159971e-09
E2P990,林試扇平站,2024-01-08,22.9677,120.6857,1.0488141e-09
C0AI30,三重,2024-01-08,25.057328,121.500629,5.5458296e-09
C0AH00,汐止,2024-01-08,25.066881,121.658778,5.541537e-09
C1Z040,立山,2024-01-08,23.443356,121.327375,1.0456726e-08
C0R740,獅子,2024-01-08,22.201569,120.70525,0.99664044
C0W130,花嶼,2024-01-08,23.40007,119.32276,0.9090674
C0A950,鼻頭角,2024-01-08,25.129036,121.923372,1.5424113e-06
C0K470,林內,2024-01-08,23.748675,120.609642,1.1562841e-09
82C160,茶改場,2024-01-08,24.908472,121.185333,4.823498e-08
C0Z320,清水林道,2024-01-08,23.27125,121.188272,1.155773e-08
C0R760,南仁湖,2024-01-08,22.084681,120.863353,0.19710292
C0M670,大林,2024-01-08,23.600616,120.45841,2.5043592e-09
C0M800,茶山,2024-01-08,23.299075,120.664767,1.9937418e-09
C0A9C0,天母,2024-01-08,25.117494,121.537169,1.7095006e-08
72K220,南改斗南分場,2024-01-08,23.634556,120.477333,2.1876974e-09
72AI40,桃改樹林分場,2024-01-08,24.944503,121.386972,1.0824857e-07
C0S910,蘭嶼燈塔,2024-01-08,22.081197,121.503117,0.030619556
C0B050,八斗子,2024-01-08,25.144754,121.79167,1.3142386e-07
C0U900,內城,2024-01-08,24.71813,121.68766,2.12816e-09
C0X320,柳營,2024-01-08,23.253328,120.375253,1.5241488e-08
C0M790,新港,2024-01-08,23.553269,120.345728,9.60008e-09
C0F9T0,西屯,2024-01-08,24.179494,120.641275,2.1137585e-09
C0SA30,都歷,2024-01-08,23.020333,121.323642,6.272462e-10
C0C620,蘆竹,2024-01-08,25.084275,121.265767,2.5897023e-07
C0R730,大坪頂,2024-01-08,22.024633,120.69355,0.9833617
C0AJ40,石門,2024-01-08,25.273672,121.601198,5.4174666e-07
C0E750,苗栗,2024-01-08,24.564569,120.824575,4.703759e-09
C0T870,鯉魚潭,2024-01-08,23.935639,121.508944,5.6516747e-09
C1V170,排雲,2024-01-08,23.463619,120.954147,1.9939861e-08
C2H950,中寮,2024-01-08,23.884447,120.766406,1.231539e-09
C0R350,貓鼻頭,2024-01-08,21.921774,120.7358,0.0020459858
C0V660,岡山,2024-01-08,22.797078,120.294958,1.2643568e-08
C1H941,雙冬,2024-01-08,23.967378,120.802189,1.7103672e-09
C0AJ70,田寮,2024-01-08,25.2698,121.4886,3.8708295e-06
C0AI00,五股,2024-01-08,25.07445,121.42728,8.57858e-09
C0Z280,德武,2024-01-08,23.47426,121.41071,1.2583753e-09
C0R700,枋山,2024-01-08,22.246844,120.661086,0.8106457
C0C460,復興,2024-01-08,24.820208,121.352281,2.2963688e-08
E2H360,蓮華池,2024-01-08,23.918333,120.885278,1.8898234e-09
C0M640,中埔,2024-01-08,23.42538,120.5229,8.108952e-10
C0W140,金沙,2024-01-08,24.488292,118.408778,1.1988764e-08
C2A540,四堵,2024-01-08,24.8926,121.745736,1.07050475e-08
C0ACA0,新莊,2024-01-08,25.051478,121.446756,6.6002723e-09
C0R220,潮州,2024-01-08,22.534361,120.54,4.9584377e-09
U2HA40,臺大內茅埔,2024-01-08,23.689722,120.851117,2.1955393e-09
467490,臺中,2024-01-08,24.145736,120.684075,1.2713885e-09
C0U960,翠峰湖,2024-01-08,24.510856,121.608044,1.6695083e-08
E2HA20,林試畢祿溪站,2024-01-08,24.226944,121.308522,1.4528834e-08
C0V890,前鎮,2024-01-08,22.5718,120.3117,3.4214342e-09
467620,蘭嶼,2024-01-08,22.036969,121.558339,0.090017065
C1F941,雪嶺,2024-01-08,24.280586,121.026642,2.2463503e-08
C0AC80,文山,2024-01-08,25.00235,121.575728,6.697016e-09
C0F9R0,龍井,2024-01-08,24.184536,120.528972,3.7517538e-08
C0M760,民雄,2024-01-08,23.551754,120.428457,2.6528506e-09
C0UA40,西德山,2024-01-08,24.560647,121.752608,1.42503485e-08
C1T920,中興,2024-01-08,23.769503,121.498653,2.21216e-09
C0D550,雪霸,2024-01-08,24.526972,121.11605,6.0456355e-09
C2F860,梨山,2024-01-08,24.247522,121.243669,1.4909931e-08
C0R320,車城,2024-01-08,22.0744,120.716247,0.08912366
C1S870,南美山,2024-01-08,23.15025,121.382333,2.0550535e-09
C0B020,基隆嶼,2024-01-08,25.19141,121.78391,3.639614e-06
C1U501,牛鬥,2024-01-08,24.637836,121.573656,4.90485e-09
C0M730,嘉義市東區,2024-01-08,23.457673,120.460531,9.914114e-10
C0S700,知本,2024-01-08,22.684866,121.005642,1.2012683e-08
C1N001,沙崙,2024-01-08,22.935472,120.309406,7.8097235e-09
C0V760,橋頭,2024-01-08,22.757806,120.30575,7.0743895e-09
C0G960,福寶,2024-01-08,24.0443,120.3814,1.3370633e-08
C0X210,白河,2024-01-08,23.347466,120.414427,1.4734672e-09
C0S810,東河,2024-01-08,22.972672,121.303986,2.7002981e-08
C0R670,楓港,2024-01-08,22.190131,120.692156,0.99662983
C0FA50,霧峰,2024-01-08,24.0419,120.6995,1.2944236e-09
C0UB10,蘇澳,2024-01-08,24.5969,121.8571,4.9988333e-09
C0G950,防潮門,2024-01-08,24.1835,120.4871,3.7533e-08
C0M740,六腳,2024-01-08,23.492871,120.290625,1.1384405e-08
C1R250,力里,2024-01-08,22.428117,120.629228,7.276155e-10
C0K330,虎尾,2024-01-08,23.719183,120.442036,5.284676e-09
C2FA00,烏石坑,2024-01-08,24.273503,120.947617,1.6845378e-09
C0V620,永安,2024-01-08,22.82315,120.236856,1.2643568e-08
C1I330,楓樹林,2024-01-08,23.986803,121.076117,1.549095e-09
C0W200,湖西,2024-01-08,23.596314,119.67275,0.8802259
72Q010,高雄農改場,2024-01-08,22.709333,120.525889,1.1917148e-09
C0SA40,瑞和,2024-01-08,22.974361,121.156697,5.480328e-10
C0C680,龜山,2024-01-08,25.02846,121.38656,8.350755e-09
C2V260,月眉,2024-01-08,22.971003,120.539853,1.005567e-09
C0V450,鳳森,2024-01-08,22.545064,120.392592,1.2040916e-09
C0U720,南山,2024-01-08,24.43742,121.38167,6.785542e-09
A2N290,臺南蘭花園區,2024-01-08,23.340258,120.379661,4.9726343e-09
C0R560,新園,2024-01-08,22.5434,120.461558,1.5533497e-09
C0U890,三星,2024-01-08,24.66812,121.65302,4.610863e-09
C1V300,御油山,2024-01-08,23.001983,120.715364,3.197502e-09
C0U600,礁溪,2024-01-08,24.817539,121.765608,5.1501505e-09
C1T980,龍澗,2024-01-08,24.023289,121.411328,1.7290118e-08
C0D670,海天一線,2024-01-08,24.831986,120.914438,0.99932843
C0SA00,歷坵,2024-01-08,22.520969,120.89185,2.0070203e-08
C0M710,東石,2024-01-08,23.458927,120.15385,2.9156645e-06
C0M780,鹿草,2024-01-08,23.41134,120.30835,1.2805936e-08
C0U520,雙連埤,2024-01-08,24.753033,121.641303,1.0218998e-08
C0B010,七堵,2024-01-08,25.094819,121.71713,2.138578e-08
C0R480,長治,2024-01-08,22.693128,120.542622,4.3637955e-09
C1V830,國三S383K,2024-01-08,22.781967,120.426475,2.730012e-09
12Q980,恆春工作站,2024-01-08,22.079678,120.714425,0.08912366
C1O940,東山服務區,2024-01-08,23.286016,120.398472,6.6819856e-09
C1U840,東澳嶺,2024-01-08,24.5378,121.8485,8.075479e-09
C1D630,飛鳳山,2024-01-08,24.766464,121.119178,4.000764e-09
C0S940,石寧山,2024-01-08,23.223772,121.406639,3.0913208e-09
C0K410,北港,2024-01-08,23.573957,120.292802,3.2759786e-08
C2M620,瑞里,2024-01-08,23.545133,120.675197,3.6296426e-09
C2O950,安南,2024-01-08,23.076694,120.144861,2.3910693e-06
C0F0E0,南湖圈谷,2024-01-08,24.363714,121.444667,2.863803e-08
467610,成功,2024-01-08,23.097486,121.373428,2.569677e-09
C0G890,伸港,2024-01-08,24.148933,120.484403,1.5752173e-08
C2E540,龍溪,2024-01-08,24.606489,120.783933,5.676728e-09
C1V200,梅山,2024-01-08,23.268447,120.823556,1.8019205e-09
C0T9H0,加路蘭山,2024-01-08,23.682947,121.5274,7.3125133e-09
C2O930,玉井,2024-01-08,23.126042,120.46055,4.1869628e-09
C1F911,新伯公,2024-01-08,24.221361,120.841069,1.0899225e-09
C0R490,九如,2024-01-08,22.7405,120.490503,1.2226521e-09
C0X200,左鎮,2024-01-08,23.056758,120.408522,5.0133564e-09
C1F891,稍來,2024-01-08,24.265689,121.001142,1.0705455e-08
72N240,七股研究中心,2024-01-08,23.081672,120.062894,3.2428454e-06
C0C700,中壢,2024-01-08,24.977661,121.256375,1.558119e-08
C0M690,水上,2024-01-08,23.419734,120.388909,3.1958254e-09
C0V690,鼓山,2024-01-08,22.623325,120.275575,3.1183247e-09
C0O860,大內,2024-01-08,23.11885,120.36083,8.357191e-09
C0Z200,萬榮,2024-01-08,23.709219,121.420106,2.9635527e-09
C0T9D0,和中,2024-01-08,24.26676,121.74103,8.318484e-09
C1O921,楠西,2024-01-08,23.183511,120.484083,1.9735156e-09
C0AJ30,淡水觀海,2024-01-08,25.184591,121.408616,9.0899016e-07
C0V810,左營,2024-01-08,22.67491,120.28491,5.9032237e-09
C0UA70,桃源谷,2024-01-08,24.962606,121.888875,1.4740189e-08
C0X130,官田,2024-01-08,23.193217,120.315422,1.2479212e-08
C1H000,翠峰,2024-01-08,24.109397,121.205211,8.582917e-09
C0UA90,石城,2024-01-08,24.980444,121.951214,2.6389031e-08
C1E681,南勢山,2024-01-08,24.421669,120.923831,2.2018383e-09
C0A9F0,內湖,2024-01-08,25.079422,121.57545,5.541537e-09
C0K291,宜梧,2024-01-08,23.536281,120.169329,1.6916762e-07
C1K540,口湖,2024-01-08,23.585344,120.180517,0.0008798523
C0R780,滿州,2024-01-08,22.024403,120.839892,0.9173331
C0V870,文安,2024-01-08,22.8025,120.2164,1.3908748e-08
C0U650,玉蘭,2024-01-08,24.675286,121.587061,8.56617e-09
C0R640,東港,2024-01-08,22.46247,120.44074,2.5903153e-09
K2E360,苗栗農改,2024-01-08,24.495722,120.829111,5.4664455e-09
C0AJ80,板橋,2024-01-08,25.0107,121.4489,6.963091e-09
C0S660,下馬,2024-01-08,23.150427,121.070312,7.870962e-09
C1H9B1,阿眉,2024-01-08,24.1263,120.994672,8.502215e-09
C0UA20,多加屯,2024-01-08,24.368614,121.373189,1.2700633e-08
C0E730,頭份,2024-01-08,24.688247,120.912206,4.781062e-08
72V140,高改旗南分場,2024-01-08,22.857861,120.516667,3.122491e-09
C0K480,莿桐,2024-01-08,23.761192,120.502372,1.0555935e-09
C0U980,坪林石牌,2024-01-08,24.86478,121.77396,1.0741269e-08
C0T900,西林,2024-01-08,23.8119,121.441458,2.4000726e-09
C1I150,青雲,2024-01-08,23.793361,120.949378,1.1573078e-09
467350,澎湖,2024-01-08,23.565503,119.563094,0.88036835
C0G800,埔鹽,2024-01-08,24.000394,120.431683,1.9686667e-08
C0H960,草屯,2024-01-08,23.973672,120.68085,1.2894829e-09
C1V780,多納林道,2024-01-08,22.888028,120.737917,1.2513075e-09
C0E920,通霄漁港,2024-01-08,24.498589,120.673876,0.004448015
C0Z330,安通山,2024-01-08,23.290728,121.348528,3.4377878e-09
C0AH10,永和,2024-01-08,25.01125,121.508111,7.0165656e-09
C2G640,鹿港,2024-01-08,24.0753,120.430481,1.3344899e-08
C1E890,國三N149K,2024-01-08,24.463414,120.680019,2.2801227e-07
C1R110,口社,2024-01-08,22.770111,120.645222,1.1995895e-09
C1M870,國三N285K,2024-01-08,23.550319,120.505833,1.2839265e-09
467050,新屋,2024-01-08,25.006744,121.047486,8.640303e-06
C1E480,鳳美,2024-01-08,24.554803,121.034747,3.6370162e-09
C0M530,奮起湖,2024-01-08,23.493903,120.699253,4.140125e-09
C0C590,觀音,2024-01-08,25.027072,121.153317,0.000115879455
C0T9M0,靜浦,2024-01-08,23.455167,121.495028,1.1391416e-09
C0AI40,石牌,2024-01-08,25.115597,121.513139,1.7914866e-08
C1F871,上谷關,2024-01-08,24.203483,121.018644,1.5766862e-09
C0G880,二水,2024-01-08,23.810742,120.6173,8.8563934e-10
C0R940,加祿堂,2024-01-08,22.3363,120.6217,0.953132
C0W220,北竿,2024-01-08,26.220358,119.974881,9.406377e-08
C0O960,崎頂,2024-01-08,22.959547,120.369317,4.740217e-09
C0S750,向陽,2024-01-08,23.248397,120.986133,7.971218e-09
C0T9F0,水璉,2024-01-08,23.797131,121.542514,2.4918516e-09
C1M600,頭凍,2024-01-08,23.406364,120.603339,2.7640477e-09
467660,臺東,2024-01-08,22.752211,121.154586,0.00066352374
C1D380,新埔,2024-01-08,24.84745,121.03834,2.7395782e-07
C0V750,路竹,2024-01-08,22.854997,120.259439,4.2129518e-08
C0N050,蚵寮,2024-01-08,23.301,120.1104,7.271778e-08
72M700,南改鹿草分場,2024-01-08,23.416869,120.283061,1.3644672e-08
C1SA50,利嘉林道,2024-01-08,22.82325,121.009389,1.9137758e-08
467550,玉山,2024-01-08,23.487614,120.959522,2.6216952e-08
C0A940,金山,2024-01-08,25.223628,121.643967,1.7338853e-07
C1V340,大津,2024-01-08,22.888322,120.645986,1.2222371e-09
C0W180,七美,2024-01-08,23.219333,119.444892,0.97180736
C1F9C1,白冷,2024-01-08,24.182844,120.929889,1.3336369e-09
K2E710,苗改生物防治研究中心,2024-01-08,24.422861,120.871833,2.2859887e-09
C0N040,蘆竹溝,2024-01-08,23.2344,120.0961,8.119174e-08
C2W230,畜試所澎湖,2024-01-08,23.628342,119.513206,0.95908237
C0R880,後壁湖,2024-01-08,21.9457,120.7457,0.008903213
C1I280,埔中,2024-01-08,23.820778,120.642594,9.028263e-10
467790,墾丁雷達站,2024-01-08,21.948235,120.808028,0.032811712
C0W190,望安,2024-01-08,23.380564,119.494075,0.938987
466881,新北,2024-01-08,24.9593,121.52,6.836779e-09
C0Z170,卓溪,2024-01-08,23.3443,121.3029,1.9110793e-09
C0F850,東勢,2024-01-08,24.246428,120.833047,1.7144891e-09
466900,淡水,2024-01-08,25.164889,121.448906,2.1882414e-07
C0I370,魚池,2024-01-08,23.895703,120.94135,1.6792351e-09
C0C630,大溪,2024-01-08,24.882853,121.265547,2.0307327e-08
C0A520,山佳,2024-01-08,24.974944,121.402008,8.278091e-09
C0I110,竹山,2024-01-08,23.761225,120.688156,8.992842e-10
82H840,茶改南部分場,2024-01-08,23.762528,120.7405,8.8361457e-10
C0G660,溪湖,2024-01-08,23.94835,120.479122,3.6640737e-09
C1T800,洛韶,2024-01-08,24.204558,121.453956,2.0296756e-08
C1T810,慈恩,2024-01-08,24.192044,121.388386,5.576931e-09
C1E451,象鼻,2024-01-08,24.368617,120.940228,1.7494118e-09
C0AC60,三峽,2024-01-08,24.939025,121.369728,9.828998e-08
C0I490,萬大林道,2024-01-08,23.928228,121.091411,2.8685523e-09
C1I290,豐丘,2024-01-08,23.668178,120.887417,4.070516e-09
C1I320,奧萬大,2024-01-08,23.952956,121.178556,1.5919434e-09
C0U770,南澳,2024-01-08,24.44935,121.81022,3.0859304e-09
C0A980,社子,2024-01-08,25.109508,121.469681,3.5610714e-07
C0V800,六龜,2024-01-08,22.997889,120.633583,1.0523348e-09
C1G9D0,國一S218K,2024-01-08,23.890641,120.493253,4.915508e-09
C2F9A0,中竹林,2024-01-08,24.103556,120.751061,1.0563266e-09
C0FA40,臺中電廠,2024-01-08,24.2146,120.4907,3.7517538e-08
C0H9C0,合歡山,2024-01-08,24.143442,121.272547,2.1182233e-08
C0X060,下營,2024-01-08,23.22695,120.256261,2.3588385e-08
G2M350,農試溪口農場,2024-01-08,23.58565,120.408111,2.692043e-09
C0U860,頭城,2024-01-08,24.85323,121.8308,5.2125984e-09
C0R580,南州,2024-01-08,22.48591,120.50274,2.5903153e-09
C0D430,峨眉,2024-01-08,24.6905,121.017189,2.044482e-09
C0G780,秀水,2024-01-08,24.03405,120.503869,1.8687007e-09
72N100,臺南農改場,2024-01-08,23.0605,120.342194,8.068796e-09
C0S900,蘭嶼高中,2024-01-08,22.04909,121.51214,0.06363626
467540,大武,2024-01-08,22.355675,120.903789,0.9988724
C1F9W0,德基,2024-01-08,24.254783,121.190261,8.445775e-09
C1Z120,壽豐,2024-01-08,23.870853,121.508081,2.9573526e-09
C0W160,烏坵,2024-01-08,24.9944,119.44956,0.18668835
C1I240,外大坪,2024-01-08,23.958697,120.917931,1.3733988e-09
C1I550,國六W023K,2024-01-08,23.979067,120.867742,1.1078255e-09
C0R870,興海,2024-01-08,21.9752,120.8439,0.015194607
C0R140,瑪家,2024-01-08,22.682903,120.686639,1.0817913e-09
C0A530,坪林,2024-01-08,24.938183,121.70975,1.1347097e-08
C0X260,後壁,2024-01-08,23.366358,120.362326,4.9726343e-09
C0Z230,和平,2024-01-08,24.30717,121.77007,8.671841e-09
C0G770,福興,2024-01-08,24.041289,120.437669,1.9686667e-08
C0H9A0,神木村,2024-01-08,23.532742,120.843667,6.899817e-09
C0I460,南投,2024-01-08,23.911469,120.687331,1.250463e-09
C0I480,梅峰,2024-01-08,24.085272,121.173572,5.3960965e-09
C1V570,吉東,2024-01-08,22.85422,120.5454,2.659741e-09
C2A560,福山,2024-01-08,24.776203,121.502811,2.5519723e-08
C0AH30,五分山,2024-01-08,25.07125,121.780794,1.7455731e-08
C0FA10,松柏,2024-01-08,24.429115,120.617482,1.1313654e-06
72S200,東改班鳩分場,2024-01-08,22.829528,121.077694,3.9467394e-09
72HA00,中改埔里分場,2024-01-08,23.903208,120.963364,1.7831266e-09
C0C650,平鎮,2024-01-08,24.897503,121.214636,4.895291e-08
C0S930,延平,2024-01-08,22.902581,121.084058,1.2003815e-09
C0UA60,樟樹山,2024-01-08,24.41393,121.78325,1.050821e-08
C1S670,摩天,2024-01-08,23.199503,121.027,1.7558847e-08
C0V630,茄萣,2024-01-08,22.906642,120.182608,5.2675105e-08
466940,基隆,2024-01-08,25.133314,121.740475,1.2293563e-07
C0X050,東河,2024-01-08,23.296598,120.385608,7.44493e-09
C0R770,保力,2024-01-08,22.071122,120.764111,0.9277575
G2L020,農試嘉義分所,2024-01-08,23.485028,120.473806,8.550902e-10
C0X240,關子嶺,2024-01-08,23.331169,120.508025,1.2935326e-09
C0I380,集集,2024-01-08,23.828206,120.801467,7.7683e-10
466990,花蓮,2024-01-08,23.975128,121.613275,2.1990273e-08
C1V220,小關山,2024-01-08,23.154217,120.813603,3.873556e-09
C1F9G1,慶福山,2024-01-08,24.180853,120.848378,1.4821827e-09
C0Z250,瑞穗林道,2024-01-08,23.49284,121.30688,1.6188313e-08
C0D590,新豐,2024-01-08,24.87068,120.97721,0.99388766
C0A870,五指山,2024-01-08,25.132153,121.608692,1.599465e-08
C0UA50,西帽山,2024-01-08,24.555361,121.802628,1.1364078e-08
C0X160,仁德,2024-01-08,22.968258,120.257689,3.2264445e-08
C1H971,六分寮,2024-01-08,23.92507,120.6378,1.7085673e-09
C0W120,西嶼,2024-01-08,23.5626,119.468436,0.9340167
C0G650,員林,2024-01-08,23.946503,120.585597,1.2834613e-09
C0AD50,鶯歌,2024-01-08,24.951533,121.346294,8.9140734e-08
C0S990,山豬窟,2024-01-08,22.318619,120.857372,9.001015e-06
72Q010,高雄農改,2024-01-08,22.709333,120.525889,1.1917148e-09
C0X190,安平,2024-01-08,22.993161,120.152181,1.04836694e-07
C0K400,斗六,2024-01-08,23.720583,120.541127,1.1904245e-09
12J990,口湖工作站,2024-01-08,23.589978,120.180394,0.000878483
C0O830,北寮,2024-01-08,23.079561,120.495008,5.9721567e-10
C1D410,白蘭,2024-01-08,24.579364,121.079947,4.3654684e-09
C0S970,加津林,2024-01-08,22.416211,120.926942,0.9967602
C0D700,關西,2024-01-08,24.7977,121.1732,3.3733918e-09
C0M810,里佳,2024-01-08,23.389125,120.716647,4.264904e-09
C0U750,龜山島,2024-01-08,24.841667,121.953133,5.2300526e-05
C0R810,內獅,2024-01-08,22.305064,120.642986,0.9587357
C1M390,龍美,2024-01-08,23.406728,120.654417,3.323944e-09
C1H840,國三N238K,2024-01-08,23.841008,120.707711,9.813742e-10
CAQ030,崎峰國小,2024-01-08,22.42565,120.49521,2.5903153e-09
C2E520,大湖,2024-01-08,24.414939,120.870872,2.3342215e-09
467530,阿里山,2024-01-08,23.508208,120.813242,1.493179e-08
C1E691,南湖,2024-01-08,24.40135,120.837533,1.6570207e-09
C0FA30,梧棲,2024-01-08,24.256003,120.523381,6.987108e-08
C1V231,高中,2024-01-08,23.134911,120.716711,2.415061e-09
C0F9V0,新社,2024-01-08,24.200172,120.815806,1.2027053e-09
C0H890,埔里,2024-01-08,23.972169,120.952425,1.2175905e-09
C0R690,墾丁,2024-01-08,21.966756,120.810269,0.9443814
C0F0D0,審馬陣,2024-01-08,24.381675,121.4203,1.811125e-08
C0R820,白鷺,2024-01-08,22.454275,120.666219,2.428262e-09
U2H480,臺大溪頭,2024-01-08,23.670306,120.798194,3.8766603e-09
C1V190,南天池,2024-01-08,23.27403,120.91176,9.059473e-09
K2E360,苗栗農改場,2024-01-08,24.495722,120.829111,5.4664455e-09
CAJ050,海口故事園區,2024-01-08,23.57543,120.14121,0.0008798523
C0O990,媽廟,2024-01-08,22.99175,120.293525,1.3018273e-08
C0D480,打鐵坑,2024-01-08,24.849664,121.150789,1.799514e-08
C0Z220,和平林道,2024-01-08,24.343922,121.656317,4.8949436e-09
72C440,桃園農改場,2024-01-08,24.950944,121.030583,9.499586e-06
C1E711,馬拉邦山,2024-01-08,24.367306,120.901656,1.8380492e-09
C0D560,竹東,2024-01-08,24.767147,121.057881,3.396136e-09
C0F9U0,南屯,2024-01-08,24.137006,120.637969,2.471135e-09
C0M720,番路,2024-01-08,23.464657,120.554156,7.6572343e-10
C0F0A0,雪山圈谷,2024-01-08,24.388594,121.236339,2.5694135e-08
C1A9N0,四十份,2024-01-08,24.934158,121.593283,1.9147032e-08
C0U760,東澳,2024-01-08,24.52196,121.83318,2.9505691e-09
C0X230,鹽水,2024-01-08,23.272621,120.247641,6.141675e-08
C0V370,古亭坑,2024-01-08,22.893178,120.401947,4.9231454e-09
C1I340,新興橋,2024-01-08,23.563333,120.868728,2.3260749e-09
C0SA80,土坂,2024-01-08,22.453108,120.887572,2.631109e-06
C0R160,鹽埔,2024-01-08,22.739558,120.530778,1.1917148e-09
C0AC40,大屯山,2024-01-08,25.175675,121.522408,2.6008168e-08
466850,五分山雷達站,2024-01-08,25.071182,121.781205,1.7408318e-08
C1AI50,國三N016K,2024-01-08,25.034164,121.619664,5.418022e-09
C1V600,藤枝,2024-01-08,23.071961,120.757042,2.4128142e-09
C1E601,南勢,2024-01-08,24.572486,120.734842,0.00015707593
C0Z180,新城,2024-01-08,24.03946,121.60454,2.077602e-08
C0O980,新市,2024-01-08,23.061614,120.298197,9.220727e-09
C0K420,西螺,2024-01-08,23.800407,120.467394,3.6306744e-09
C0Z050,佳心,2024-01-08,23.34567,121.21316,1.3534538e-08
C0AD30,蘆洲,2024-01-08,25.086594,121.472331,5.5458296e-09
C0V610,梓官,2024-01-08,22.760558,120.267211,7.0743895e-09
K2F750,種苗改良場,2024-01-08,24.225972,120.800917,1.1375436e-09
C0UA80,大溪漁港,2024-01-08,24.941801,121.902955,2.4688466e-08
C1AI60,國一39K邊坡,2024-01-08,25.064361,121.383836,8.4430045e-09
C0W150,金寧,2024-01-08,24.457703,118.328989,4.2290758e-09
V2C250,八德合作社,2024-01-08,24.93775,121.266389,6.13341e-08
C0AH40,平等,2024-01-08,25.129142,121.577086,1.5347089e-08
C0R540,佳冬,2024-01-08,22.419456,120.552375,0.0021317555
466950,彭佳嶼,2024-01-08,25.627975,122.079744,0.010866423
C0A890,雙溪,2024-01-08,25.036003,121.864242,1.3828862e-08
C0C480,桃園,2024-01-08,24.992425,121.323172,1.6345993e-08
C0AH50,林口,2024-01-08,25.072181,121.38084,8.343097e-09
A2K360,水試臺西試驗場,2024-01-08,23.717231,120.190522,0.001165282
B2N890,畜試所,2024-01-08,23.058972,120.336406,8.068796e-09
C0F9S0,烏日,2024-01-08,24.107058,120.624103,1.2414443e-09
C0C490,八德,2024-01-08,24.928708,121.283289,5.9034857e-08
C0R190,赤山,2024-01-08,22.592333,120.614306,1.6441853e-09
C0T820,天祥,2024-01-08,24.179597,121.495639,1.2672226e-08
C1F9E1,龍安,2024-01-08,24.1605,120.831961,1.1270369e-09
C0V820,小林,2024-01-08,23.148408,120.63325,7.223251e-10
C2G870,芳苑,2024-01-08,23.922303,120.320025,0.3794166
C0E850,大河,2024-01-08,24.618069,120.948578,2.590419e-09
C1U670,寒溪,2024-01-08,24.634,121.71691,1.9671118e-09
C0N020,城西,2024-01-08,23.0568,120.0956,1.04836694e-07
C1Z110,三棧,2024-01-08,24.11557,121.60501,1.2672709e-08
C0R280,檳榔,2024-01-08,22.076078,120.836777,0.9994447
C0F9L0,后里,2024-01-08,24.310436,120.729725,2.2491704e-09
C0D540,橫山,2024-01-08,24.71116,121.11693,2.053494e-09
C1D420,太閣南,2024-01-08,24.632808,121.160575,5.869575e-09
C1E770,公館,2024-01-08,24.526914,120.830806,6.056981e-09
CAN130,水試所海水繁養殖中心,2024-01-08,23.120802,120.07968,3.2428454e-06
C1I430,翠華,2024-01-08,24.191961,121.224339,9.470589e-09
C1M400,菜瓜坪,2024-01-08,23.251928,120.576103,1.3689084e-09
C0G730,二林,2024-01-08,23.903325,120.376081,4.638111e-08
72M360,南改義竹分場,2024-01-08,23.360694,120.279361,2.992597e-08
V2K620,麥寮合作社,2024-01-08,23.753836,120.294783,1.7690116e-08
C0Z070,舞鶴,2024-01-08,23.46811,121.37407,1.3264019e-09
C0B040,大武崙,2024-01-08,25.166676,121.706993,8.6008654e-08
C1Z030,紅葉,2024-01-08,23.493119,121.338806,1.0372814e-09
C1I050,丹大,2024-01-08,23.753747,121.141147,8.8081675e-09
C0I080,信義,2024-01-08,23.689694,120.851036,2.1955393e-09
C2A880,福隆,2024-01-08,25.017842,121.942083,2.7042978e-08
C0Z160,鳳林,2024-01-08,23.746114,121.453411,2.8853324e-09
C0V210,復興,2024-01-08,23.222403,120.806089,1.6920537e-09
C0H990,昆陽,2024-01-08,24.121322,121.273642,1.5976354e-08
C0S710,鹿野,2024-01-08,22.917711,121.122994,5.736809e-10
C0I530,小奇萊,2024-01-08,24.131764,121.295717,1.6826858e-08
C0Z080,富源,2024-01-08,23.587642,121.378225,6.583952e-09
467441,高雄,2024-01-08,22.7304,120.3125,6.8849357e-09
C1I140,卡奈托灣,2024-01-08,23.754364,121.087872,2.316918e-09
C0I520,玉山風口,2024-01-08,23.470489,120.955994,2.8667651e-08
C1G691,下水埔,2024-01-08,23.816114,120.5676,1.0453352e-09
C0X110,臺南市南區,2024-01-08,22.961189,120.188378,3.2278788e-08
C0V680,仁武,2024-01-08,22.701083,120.347722,5.903212e-09
C2G840,北斗,2024-01-08,23.877586,120.514222,4.8246642e-09
C0R900,竹坑,2024-01-08,22.1385,120.7022,0.09719746
C0K250,崙背,2024-01-08,23.75555,120.318925,1.7452402e-08
C0G860,社頭,2024-01-08,23.897647,120.5862,1.0786245e-09
C0X150,安定,2024-01-08,23.102614,120.227839,2.8467136e-08
C0R590,里港,2024-01-08,22.77919,120.49459,5.1201985e-09
C0E610,馬都安,2024-01-08,24.451272,120.930192,1.7870012e-09
C0E550,明德,2024-01-08,24.583486,120.885411,4.477465e-09
C0R150,三地門,2024-01-08,22.709889,120.639944,1.2569384e-09
C0G910,花壇,2024-01-08,24.032076,120.549461,1.7608272e-09
C1D400,鳥嘴山,2024-01-08,24.71909,121.28387,7.085301e-09
C0K500,元長,2024-01-08,23.64981,120.315024,2.2762439e-08
C0F0B0,石岡,2024-01-08,24.276061,120.777644,2.2747022e-09
C2V250,甲仙,2024-01-08,23.080106,120.591758,4.851904e-10
C0SA20,金崙山,2024-01-08,22.567419,120.959667,1.0806019e-08
C0V350,溪埔,2024-01-08,22.738578,120.446797,4.710412e-09
C0M660,溪口,2024-01-08,23.604131,120.403569,2.692043e-09
C1S880,壽卡,2024-01-08,22.238911,120.858903,2.895271e-06
72D680,桃改新埔分場,2024-01-08,24.834444,121.066111,3.221111e-07
