站號,站名,日期,lat,lon,BlastGRU-TW
12J990,口湖工作站,2024-12-02,23.589978,120.180394,0.9016861
12Q970,東港工作站,2024-12-02,22.479997,120.466058,0.25841674
12Q980,恆春工作站,2024-12-02,22.079678,120.714425,0.3065592
466881,新北,2024-12-02,24.9593,121.52,0.1429789
466900,淡水,2024-12-02,25.164889,121.448906,0.5047235
466920,臺北,2024-12-02,25.037658,121.514853,0.13248867
466940,基隆,2024-12-02,25.133314,121.740475,0.7037079
466990,花蓮,2024-12-02,23.975128,121.613275,0.29725733
467050,新屋,2024-12-02,25.006744,121.047486,0.5347158
467080,宜蘭,2024-12-02,24.763975,121.756528,0.9190028
467270,田中,2024-12-02,23.873803,120.581286,0.56128937
467280,後龍,2024-12-02,24.648563,120.831834,0.9071312
467290,古坑,2024-12-02,23.633639,120.551889,0.38528454
467300,東吉島,2024-12-02,23.25695,119.667467,0.033187762
467350,澎湖,2024-12-02,23.565503,119.563094,0.0007984469
467410,臺南,2024-12-02,22.993239,120.204772,0.8444151
467420,永康,2024-12-02,23.038386,120.2367,0.79162407
467441,高雄,2024-12-02,22.7304,120.3125,0.3728266
467480,嘉義,2024-12-02,23.495925,120.432906,0.6297007
467490,臺中,2024-12-02,24.145736,120.684075,0.77928865
467540,大武,2024-12-02,22.355675,120.903789,0.8311334
467571,新竹,2024-12-02,24.827853,121.014219,0.6022425
467590,恆春,2024-12-02,22.003897,120.746339,0.8108459
467610,成功,2024-12-02,23.097486,121.373428,0.73108923
467620,蘭嶼,2024-12-02,22.036969,121.558339,0.50935656
467660,臺東,2024-12-02,22.752211,121.154586,0.6280167
467790,墾丁雷達站,2024-12-02,21.948235,120.808028,0.6911922
72AI40,桃改樹林分場,2024-12-02,24.944503,121.386972,0.60448617
72C440,桃園農改,2024-12-02,24.950944,121.030583,0.47285578
72C440,桃園農改場,2024-12-02,24.950944,121.030583,0.47285578
72D680,桃改新埔分場,2024-12-02,24.834444,121.066111,0.4721946
72G600,臺中農改,2024-12-02,24.003028,120.534389,0.6568044
72G600,臺中農改場,2024-12-02,24.003028,120.534389,0.6568044
72K220,南改斗南分場,2024-12-02,23.634556,120.477333,0.5895451
72M360,南改義竹分場,2024-12-02,23.360694,120.279361,0.8475238
72M700,南改鹿草分場,2024-12-02,23.416869,120.283061,0.86711323
72N100,臺南農改,2024-12-02,23.0605,120.342194,0.8587125
72N100,臺南農改場,2024-12-02,23.0605,120.342194,0.8587125
72N240,七股研究中心,2024-12-02,23.081672,120.062894,0.8648575
72Q010,高雄農改,2024-12-02,22.709333,120.525889,0.74937755
72Q010,高雄農改場,2024-12-02,22.709333,120.525889,0.74937755
72S200,東改班鳩分場,2024-12-02,22.829528,121.077694,0.6296631
72S590,東改賓朗果園,2024-12-02,22.813889,121.071278,0.5913819
72T250,花蓮農改,2024-12-02,23.975222,121.563889,0.41876537
72T250,花蓮農改場,2024-12-02,23.975222,121.563889,0.41876537
72U480,花改蘭陽分場,2024-12-02,24.686306,121.716583,0.6421608
72V140,高改旗南分場,2024-12-02,22.857861,120.516667,0.7363889
82A750,茶改北部分場,2024-12-02,24.955778,121.631222,0.3090649
82C160,茶改場,2024-12-02,24.908472,121.185333,0.6947192
82H840,茶改南部分場,2024-12-02,23.762528,120.7405,0.7354138
82S580,茶改東部分場,2024-12-02,22.907694,121.130139,0.7117102
A2C560,農工中心,2024-12-02,24.985917,121.239833,0.58486533
A2K360,水試臺西試驗場,2024-12-02,23.717231,120.190522,0.8624022
A2K570,古坑花卉中心,2024-12-02,23.63353,120.55239,0.38528454
A2K630,臺大雲林校區,2024-12-02,23.730628,120.423903,0.80029595
A2N290,臺南蘭花園區,2024-12-02,23.340258,120.379661,0.83144873
B2E890,畜試北區分所,2024-12-02,24.527806,120.770972,0.8580161
B2N890,畜產試驗所,2024-12-02,23.058972,120.336406,0.8587126
B2N890,畜試所,2024-12-02,23.058972,120.336406,0.8587125
B2Q810,畜試南區分所,2024-12-02,21.945583,120.802167,0.6870862
B2U990,畜試東區分所,2024-12-02,24.669039,121.832561,0.02272706
C0A520,山佳,2024-12-02,24.974944,121.402008,0.47416893
C0A530,坪林,2024-12-02,24.938183,121.70975,0.68456644
C0A550,泰平,2024-12-02,24.971197,121.823711,0.3656402
C0A570,桶後,2024-12-02,24.848222,121.597992,0.7464484
C0A640,石碇,2024-12-02,24.993969,121.662917,0.44474748
C0A770,科教館,2024-12-02,25.096356,121.516507,0.11802047
C0A860,大坪,2024-12-02,25.165914,121.632969,0.5709711
C0A890,雙溪,2024-12-02,25.036003,121.864242,0.9044413
C0A931,三和,2024-12-02,25.233153,121.595236,0.38239425
C0A940,金山,2024-12-02,25.223628,121.643967,0.3021265
C0A950,鼻頭角,2024-12-02,25.129036,121.923372,0.9704286
C0AC70,信義,2024-12-02,25.037822,121.564597,0.13248867
C0AC80,文山,2024-12-02,25.00235,121.575728,0.21289572
C0ACA0,新莊,2024-12-02,25.051478,121.446756,0.16110167
C0AD10,八里,2024-12-02,25.150211,121.403947,0.49370185
C0AD30,蘆洲,2024-12-02,25.086594,121.472331,0.11802047
C0AD40,土城,2024-12-02,24.973208,121.445169,0.12177979
C0AD50,鶯歌,2024-12-02,24.951533,121.346294,0.6181457
C0AG80,中和,2024-12-02,24.991622,121.491792,0.12177979
C0AH00,汐止,2024-12-02,25.066881,121.658778,0.13248867
C0AH10,永和,2024-12-02,25.01125,121.508111,0.105199814
C0AH40,平等,2024-12-02,25.129142,121.577086,0.47076115
C0AH50,林口,2024-12-02,25.072181,121.38084,0.41200444
C0AH70,松山,2024-12-02,25.04871,121.55042,0.13248867
C0AH80,深坑,2024-12-02,25.002703,121.628328,0.21289562
C0AI00,五股,2024-12-02,25.07445,121.42728,0.49762836
C0AI10,屈尺,2024-12-02,24.92184,121.54475,0.45669362
C0AI20,白沙灣,2024-12-02,25.283128,121.519058,0.8414108
C0AI30,三重,2024-12-02,25.057328,121.500629,0.118020505
C0AI40,石牌,2024-12-02,25.115597,121.513139,0.32398233
C0AJ20,野柳,2024-12-02,25.20703,121.690021,0.29622203
C0AJ30,淡水觀海,2024-12-02,25.184591,121.408616,0.7735749
C0AJ40,石門,2024-12-02,25.273672,121.601198,0.83598983
C0AJ50,水湳洞,2024-12-02,25.123695,121.862238,0.706834
C0AJ60,六塊厝,2024-12-02,25.24,121.4481,0.8443801
C0AJ70,田寮,2024-12-02,25.2698,121.4886,0.84327364
C0AJ80,板橋,2024-12-02,25.0107,121.4489,0.105199814
C0AJ90,澳底,2024-12-02,25.0552,121.9253,0.89952016
C0B010,七堵,2024-12-02,25.094819,121.71713,0.5455359
C0B020,基隆嶼,2024-12-02,25.19141,121.78391,0.9415817
C0B040,大武崙,2024-12-02,25.166676,121.706993,0.71046
C0B050,八斗子,2024-12-02,25.144754,121.79167,0.70123416
C0B060,暖暖,2024-12-02,25.0957,121.7403,0.5833152
C0C460,復興,2024-12-02,24.820208,121.352281,0.3471533
C0C480,桃園,2024-12-02,24.992425,121.323172,0.74325997
C0C490,八德,2024-12-02,24.928708,121.283289,0.6141312
C0C590,觀音,2024-12-02,25.027072,121.153317,0.7528767
C0C620,蘆竹,2024-12-02,25.084275,121.265767,0.5440889
C0C630,大溪,2024-12-02,24.882853,121.265547,0.37714723
C0C650,平鎮,2024-12-02,24.897503,121.214636,0.5934091
C0C660,楊梅,2024-12-02,24.912375,121.143047,0.72345096
C0C670,龍潭,2024-12-02,24.870056,121.221389,0.39674526
C0C680,龜山,2024-12-02,25.02846,121.38656,0.44336462
C0C700,中壢,2024-12-02,24.977661,121.256375,0.7254966
C0C710,大溪永福,2024-12-02,24.892936,121.324975,0.48327577
C0C720,竹圍,2024-12-02,25.112692,121.239824,0.49370185
C0C730,中大臨海站,2024-12-02,24.966126,121.008581,0.5375573
C0C740,觀音工業區,2024-12-02,25.064764,121.114856,0.705696
C0C750,新興坑尾,2024-12-02,25.0061,121.0971,0.5501984
C0D430,峨眉,2024-12-02,24.6905,121.017189,0.8929031
C0D480,打鐵坑,2024-12-02,24.849664,121.150789,0.39858025
C0D540,橫山,2024-12-02,24.71116,121.11693,0.50805944
C0D560,竹東,2024-12-02,24.767147,121.057881,0.4670431
C0D580,寶山,2024-12-02,24.735006,121.025192,0.47811434
C0D590,新豐,2024-12-02,24.87068,120.97721,0.1848227
C0D650,湖口,2024-12-02,24.904794,121.043628,0.49884
C0D660,新竹市東區,2024-12-02,24.798681,120.986942,0.4434994
C0D670,海天一線,2024-12-02,24.831986,120.914438,0.5322887
C0D680,香山濕地,2024-12-02,24.783581,120.914988,0.43291137
C0D690,外湖,2024-12-02,24.917735,120.968711,0.4755652
C0D700,關西,2024-12-02,24.7977,121.1732,0.45409584
C0E420,竹南,2024-12-02,24.708978,120.888897,0.82275045
C0E430,南庄,2024-12-02,24.601775,121.000214,0.73410106
C0E550,明德,2024-12-02,24.583486,120.885411,0.8778512
C0E590,通霄,2024-12-02,24.471892,120.704622,0.4219214
C0E730,頭份,2024-12-02,24.688247,120.912206,0.8249513
C0E740,造橋,2024-12-02,24.637056,120.864778,0.9086208
C0E750,苗栗,2024-12-02,24.564569,120.824575,0.8807172
C0E780,銅鑼,2024-12-02,24.489681,120.790853,0.8324103
C0E791,卓蘭,2024-12-02,24.3126,120.8244,0.60146815
C0E810,西湖,2024-12-02,24.562947,120.7485,0.8415784
C0E820,獅潭,2024-12-02,24.539133,120.920042,0.73520756
C0E830,苑裡,2024-12-02,24.439714,120.653053,0.5646911
C0E850,大河,2024-12-02,24.618069,120.948578,0.8648834
C0E870,高鐵苗栗,2024-12-02,24.60725,120.826094,0.9086208
C0E910,海埔,2024-12-02,24.648767,120.772435,0.91143084
C0E920,通霄漁港,2024-12-02,24.498589,120.673876,0.46332362
C0E930,龍鳳,2024-12-02,24.700034,120.859125,0.82916987
C0F0B0,石岡,2024-12-02,24.276061,120.777644,0.6464207
C0F850,東勢,2024-12-02,24.246428,120.833047,0.4830212
C0F970,大坑,2024-12-02,24.173142,120.722289,0.74084884
C0F9I0,神岡,2024-12-02,24.272481,120.658314,0.62636834
C0F9K0,大安,2024-12-02,24.345061,120.588025,0.7427946
C0F9L0,后里,2024-12-02,24.310436,120.729725,0.7115428
C0F9M0,豐原,2024-12-02,24.254322,120.720692,0.7435163
C0F9N0,大里,2024-12-02,24.092464,120.701378,0.72753006
C0F9O0,潭子,2024-12-02,24.213106,120.703933,0.7838151
C0F9P0,清水,2024-12-02,24.312297,120.562242,0.8133214
C0F9Q0,外埔,2024-12-02,24.347817,120.705686,0.6004451
C0F9R0,龍井,2024-12-02,24.184536,120.528972,0.8204983
C0F9S0,烏日,2024-12-02,24.107058,120.624103,0.7339203
C0F9T0,西屯,2024-12-02,24.179494,120.641275,0.8461738
C0F9U0,南屯,2024-12-02,24.137006,120.637969,0.84132904
C0F9X0,大雅(中科園區),2024-12-02,24.21528,120.62445,0.6822744
C0FA10,松柏,2024-12-02,24.429115,120.617482,0.58761156
C0FA20,溫寮,2024-12-02,24.372177,120.583125,0.74952275
C0FA30,梧棲,2024-12-02,24.256003,120.523381,0.8133214
C0FA40,臺中電廠,2024-12-02,24.2146,120.4907,0.8204983
C0FA50,霧峰,2024-12-02,24.0419,120.6995,0.41179207
C0G620,芬園,2024-12-02,24.015678,120.6213,0.39671254
C0G650,員林,2024-12-02,23.946503,120.585597,0.5867843
C0G660,溪湖,2024-12-02,23.94835,120.479122,0.73167473
C0G720,溪州,2024-12-02,23.851589,120.499093,0.809426
C0G730,二林,2024-12-02,23.903325,120.376081,0.75344163
C0G740,大城,2024-12-02,23.852487,120.320935,0.6146883
C0G770,福興,2024-12-02,24.041289,120.437669,0.73742217
C0G780,秀水,2024-12-02,24.03405,120.503869,0.65680426
C0G800,埔鹽,2024-12-02,24.000394,120.431683,0.73742217
C0G810,埔心,2024-12-02,23.947633,120.525456,0.7199942
C0G820,田尾,2024-12-02,23.901669,120.509389,0.7199942
C0G830,埤頭,2024-12-02,23.866003,120.452806,0.8093459
C0G860,社頭,2024-12-02,23.897647,120.5862,0.5591359
C0G880,二水,2024-12-02,23.810742,120.6173,0.6184764
C0G890,伸港,2024-12-02,24.148933,120.484403,0.77086115
C0G900,線西,2024-12-02,24.143358,120.443536,0.7708608
C0G910,花壇,2024-12-02,24.032076,120.549461,0.6388581
C0G920,永靖,2024-12-02,23.924703,120.547533,0.7199942
C0G940,竹塘,2024-12-02,23.848253,120.386764,0.7421148
C0G950,防潮門,2024-12-02,24.1835,120.4871,0.8204983
C0G960,福寶,2024-12-02,24.0443,120.3814,0.7149181
C0G970,三豐,2024-12-02,23.882,120.2895,0.6261561
C0H890,埔里,2024-12-02,23.972169,120.952425,0.649037
C0H960,草屯,2024-12-02,23.973672,120.68085,0.39930326
C0I110,竹山,2024-12-02,23.761225,120.688156,0.7897596
C0I360,水里,2024-12-02,23.812553,120.849792,0.43312535
C0I380,集集,2024-12-02,23.828206,120.801467,0.39750218
C0I410,名間,2024-12-02,23.837053,120.701447,0.8026698
C0I420,國姓,2024-12-02,24.037803,120.855072,0.72679627
C0I460,南投,2024-12-02,23.911469,120.687331,0.66813445
C0K250,崙背,2024-12-02,23.75555,120.318925,0.6757973
C0K280,四湖,2024-12-02,23.630414,120.227125,0.8847284
C0K291,宜梧,2024-12-02,23.536281,120.169329,0.819242
C0K330,虎尾,2024-12-02,23.719183,120.442036,0.8043912
C0K390,土庫,2024-12-02,23.679029,120.395574,0.7650152
C0K400,斗六,2024-12-02,23.720583,120.541127,0.46740857
C0K410,北港,2024-12-02,23.573957,120.292802,0.72018945
C0K420,西螺,2024-12-02,23.800407,120.467394,0.7893721
C0K430,褒忠,2024-12-02,23.690938,120.303634,0.6757973
C0K440,二崙,2024-12-02,23.772797,120.408944,0.7821152
C0K450,大埤,2024-12-02,23.646074,120.431537,0.58685726
C0K460,斗南,2024-12-02,23.678734,120.478359,0.5895453
C0K470,林內,2024-12-02,23.748675,120.609642,0.4169765
C0K480,莿桐,2024-12-02,23.761192,120.502372,0.49500445
C0K500,元長,2024-12-02,23.64981,120.315024,0.6790697
C0K510,水林,2024-12-02,23.572924,120.24597,0.70703095
C0K530,臺西,2024-12-02,23.701547,120.197559,0.8585615
C0K550,蔦松,2024-12-02,23.514319,120.229736,0.8192419
C0K560,棋山,2024-12-02,23.68645,120.603417,0.44120213
C0K580,高鐵雲林,2024-12-02,23.737456,120.417944,0.80029595
C0K590,雲林東勢,2024-12-02,23.674192,120.255721,0.69295794
C0K600,箔子寮,2024-12-02,23.6197,120.14,0.9016861
C0M520,東後寮,2024-12-02,23.369908,120.248065,0.8475238
C0M640,中埔,2024-12-02,23.42538,120.5229,0.7393219
C0M650,朴子,2024-12-02,23.43463,120.23902,0.86711323
C0M660,溪口,2024-12-02,23.604131,120.403569,0.6280178
C0M670,大林,2024-12-02,23.600616,120.45841,0.6310775
C0M680,太保,2024-12-02,23.455062,120.331455,0.7729864
C0M690,水上,2024-12-02,23.419734,120.388909,0.76316714
C0M700,竹崎,2024-12-02,23.526178,120.555508,0.76802
C0M710,東石,2024-12-02,23.458927,120.15385,0.81900287
C0M720,番路,2024-12-02,23.464657,120.554156,0.6180547
C0M730,嘉義市東區,2024-12-02,23.457673,120.460531,0.67375094
C0M740,六腳,2024-12-02,23.492871,120.290625,0.7535313
C0M750,布袋,2024-12-02,23.380878,120.167789,0.84144515
C0M760,民雄,2024-12-02,23.551754,120.428457,0.62969583
C0M770,嘉義梅山,2024-12-02,23.585398,120.555587,0.75770295
C0M780,鹿草,2024-12-02,23.41134,120.30835,0.86868984
C0M790,新港,2024-12-02,23.553269,120.345728,0.7494089
C0M800,茶山,2024-12-02,23.299075,120.664767,0.40287098
C0M880,好美里,2024-12-02,23.3364,120.138,0.8095146
C0N010,鯤鯓國小,2024-12-02,23.1879,120.0889,0.8617824
C0N020,城西,2024-12-02,23.0568,120.0956,0.8588057
C0N030,四草,2024-12-02,23.0235,120.1116,0.86547303
C0N040,蘆竹溝,2024-12-02,23.2344,120.0961,0.80426836
C0N050,蚵寮,2024-12-02,23.301,120.1104,0.8095146
C0O830,北寮,2024-12-02,23.079561,120.495008,0.4653127
C0O840,王爺宮,2024-12-02,23.222064,120.40085,0.7387304
C0O860,大內,2024-12-02,23.11885,120.36083,0.86785465
C0O900,善化,2024-12-02,23.112883,120.297219,0.88552773
C0O960,崎頂,2024-12-02,22.959547,120.369317,0.8046566
C0O970,虎頭埤,2024-12-02,23.021375,120.347878,0.80778056
C0O980,新市,2024-12-02,23.061614,120.298197,0.88552773
C0O990,媽廟,2024-12-02,22.99175,120.293525,0.7753596
C0R150,三地門,2024-12-02,22.709889,120.639944,0.8513567
C0R160,鹽埔,2024-12-02,22.739558,120.530778,0.74937755
C0R170,屏東,2024-12-02,22.660269,120.494072,0.49299666
C0R190,赤山,2024-12-02,22.592333,120.614306,0.53870654
C0R220,潮州,2024-12-02,22.534361,120.54,0.2576079
C0R240,來義,2024-12-02,22.527306,120.625111,0.26470354
C0R260,春日,2024-12-02,22.370361,120.628306,0.758342
C0R270,琉球嶼,2024-12-02,22.332244,120.362236,0.9673933
C0R280,檳榔,2024-12-02,22.076078,120.836777,0.75801426
C0R320,車城,2024-12-02,22.0744,120.716247,0.3065592
C0R341,牡丹,2024-12-02,22.130036,120.792639,0.75539154
C0R350,貓鼻頭,2024-12-02,21.921774,120.7358,0.70926595
C0R470,高樹,2024-12-02,22.826389,120.600806,0.9094254
C0R480,長治,2024-12-02,22.693128,120.542622,0.564017
C0R490,九如,2024-12-02,22.7405,120.490503,0.7454741
C0R520,崁頂,2024-12-02,22.514781,120.506914,0.2584159
C0R540,佳冬,2024-12-02,22.419456,120.552375,0.7616069
C0R550,新埤,2024-12-02,22.467947,120.582894,0.2600766
C0R560,新園,2024-12-02,22.5434,120.461558,0.6641682
C0R570,麟洛,2024-12-02,22.65078,120.52719,0.49299678
C0R580,南州,2024-12-02,22.48591,120.50274,0.25841674
C0R590,里港,2024-12-02,22.77919,120.49459,0.61805385
C0R620,墾雷,2024-12-02,21.900836,120.855269,0.81126404
C0R640,東港,2024-12-02,22.46247,120.44074,0.25841674
C0R650,竹田,2024-12-02,22.58486,120.54344,0.53377265
C0R660,枋寮,2024-12-02,22.367722,120.590647,0.7616069
C0R670,楓港,2024-12-02,22.190131,120.692156,0.25011858
C0R680,佳樂水,2024-12-02,21.993578,120.861633,0.6888761
C0R690,墾丁,2024-12-02,21.966756,120.810269,0.6709317
C0R700,枋山,2024-12-02,22.246844,120.661086,0.85326743
C0R710,龍磐,2024-12-02,21.931672,120.838942,0.7154042
C0R720,旭海,2024-12-02,22.205403,120.887614,0.8959558
C0R730,大坪頂,2024-12-02,22.024633,120.69355,0.5599675
C0R740,獅子,2024-12-02,22.201569,120.70525,0.86930615
C0R760,南仁湖,2024-12-02,22.084681,120.863353,0.79817957
C0R770,保力,2024-12-02,22.071122,120.764111,0.50841606
C0R780,滿州,2024-12-02,22.024403,120.839892,0.810697
C0R790,九棚,2024-12-02,22.14195,120.889281,0.73793435
C0R800,丹路,2024-12-02,22.204481,120.750989,0.8812378
C0R810,內獅,2024-12-02,22.305064,120.642986,0.7160509
C0R830,高士,2024-12-02,22.121825,120.836781,0.82915604
C0R850,林邊,2024-12-02,22.4634,120.5339,0.26020786
C0R860,鼻頭,2024-12-02,22.1043,120.8979,0.71796274
C0R870,興海,2024-12-02,21.9752,120.8439,0.6870862
C0R880,後壁湖,2024-12-02,21.9457,120.7457,0.40039438
C0R890,山海,2024-12-02,21.9878,120.7091,0.40669116
C0R900,竹坑,2024-12-02,22.1385,120.7022,0.3137541
C0R910,下寮,2024-12-02,22.3929,120.5548,0.7616069
C0R920,塭仔,2024-12-02,22.4169,120.5197,0.759857
C0R930,萬丹,2024-12-02,22.5885,120.4851,0.2780783
C0R940,加祿堂,2024-12-02,22.3363,120.6217,0.7223678
C0S710,鹿野,2024-12-02,22.917711,121.122994,0.5069878
C0S730,綠島,2024-12-02,22.6672,121.47533,0.46913293
C0S740,池上,2024-12-02,23.119628,121.209469,0.5990739
C0S770,大溪山,2024-12-02,22.478475,120.943325,0.85770595
C0S790,金崙,2024-12-02,22.538122,120.966875,0.9034702
C0S810,東河,2024-12-02,22.972672,121.303986,0.47794688
C0S830,長濱,2024-12-02,23.286817,121.411975,0.4744384
C0S840,南田,2024-12-02,22.279725,120.889208,0.9147706
C0S890,關山,2024-12-02,23.0395,121.175017,0.5850378
C0S900,蘭嶼高中,2024-12-02,22.04909,121.51214,0.950204
C0S910,蘭嶼燈塔,2024-12-02,22.081197,121.503117,0.9182039
C0S920,金峰嘉蘭,2024-12-02,22.594789,120.960825,0.9347516
C0S930,延平,2024-12-02,22.902581,121.084058,0.6738236
C0S940,石寧山,2024-12-02,23.223772,121.406639,0.5286897
C0S950,七塊厝,2024-12-02,22.954453,121.229922,0.49549773
C0S960,香蘭,2024-12-02,22.587569,120.993375,0.9415655
C0S970,加津林,2024-12-02,22.416211,120.926942,0.8344015
C0S990,山豬窟,2024-12-02,22.318619,120.857372,0.8851587
C0SA00,歷坵,2024-12-02,22.520969,120.89185,0.7337011
C0SA10,檳榔四格山,2024-12-02,22.810031,121.109308,0.55527484
C0SA30,都歷,2024-12-02,23.020333,121.323642,0.75444025
C0SA40,瑞和,2024-12-02,22.974361,121.156697,0.69623476
C0SA60,知本（水試所）,2024-12-02,22.702394,121.082761,0.92248595
C0SA80,土坂,2024-12-02,22.453108,120.887572,0.87879837
C0SA90,達仁林場,2024-12-02,22.264347,120.823972,0.8373622
C0T870,鯉魚潭,2024-12-02,23.935639,121.508944,0.7552232
C0T900,西林,2024-12-02,23.8119,121.441458,0.6952373
C0T960,光復,2024-12-02,23.660694,121.424964,0.7519297
C0T9A0,月眉山,2024-12-02,23.809928,121.539828,0.6028838
C0T9D0,和中,2024-12-02,24.26676,121.74103,0.8937211
C0T9E0,大坑,2024-12-02,23.880628,121.581981,0.74735653
C0T9F0,水璉,2024-12-02,23.797131,121.542514,0.69214255
C0T9I0,豐濱,2024-12-02,23.583897,121.514806,0.73432165
C0T9M0,靜浦,2024-12-02,23.455167,121.495028,0.64384204
C0T9N0,富里,2024-12-02,23.171639,121.249378,0.5114843
C0U600,礁溪,2024-12-02,24.817539,121.765608,0.8511329
C0U650,玉蘭,2024-12-02,24.675286,121.587061,0.62604934
C0U750,龜山島,2024-12-02,24.841667,121.953133,0.9895881
C0U760,東澳,2024-12-02,24.52196,121.83318,0.29424295
C0U770,南澳,2024-12-02,24.44935,121.81022,0.83071566
C0U780,五結,2024-12-02,24.68637,121.79794,0.63539255
C0U860,頭城,2024-12-02,24.85323,121.8308,0.8522638
C0U870,大礁溪,2024-12-02,24.791042,121.675047,0.5566503
C0U880,北關,2024-12-02,24.9072,121.8734,0.80518883
C0U890,三星,2024-12-02,24.66812,121.65302,0.17450283
C0U900,內城,2024-12-02,24.71813,121.68766,0.6463712
C0U910,冬山,2024-12-02,24.63373,121.7937,0.02272706
C0U940,羅東,2024-12-02,24.68184,121.74934,0.6406353
C0U970,大福,2024-12-02,24.80064,121.81389,0.9202786
C0U990,員山,2024-12-02,24.74435,121.72247,0.63722694
C0UA00,土場,2024-12-02,24.576533,121.495333,0.17593911
C0UA80,大溪漁港,2024-12-02,24.941801,121.902955,0.8025493
C0UA90,石城,2024-12-02,24.980444,121.951214,0.67738825
C0UB00,淡江大學蘭陽校園,2024-12-02,24.823239,121.730383,0.7221845
C0UB10,蘇澳,2024-12-02,24.5969,121.8571,0.04087542
C0UB20,壯圍,2024-12-02,24.7359,121.8163,0.635393
C0V310,美濃,2024-12-02,22.898742,120.519153,0.73638856
C0V350,溪埔,2024-12-02,22.738578,120.446797,0.5137866
C0V360,內門,2024-12-02,22.975481,120.466769,0.6440777
C0V370,古亭坑,2024-12-02,22.893178,120.401947,0.75539356
C0V400,阿公店,2024-12-02,22.804194,120.355528,0.65444314
C0V440,鳳山,2024-12-02,22.646653,120.356122,0.47547752
C0V450,鳳森,2024-12-02,22.545064,120.392592,0.68921244
C0V490,新興,2024-12-02,22.627422,120.298803,0.5298601
C0V530,阿蓮,2024-12-02,22.883208,120.327508,0.90231735
C0V610,梓官,2024-12-02,22.760558,120.267211,0.36275586
C0V620,永安,2024-12-02,22.82315,120.236856,0.8026589
C0V630,茄萣,2024-12-02,22.906642,120.182608,0.9236903
C0V640,湖內,2024-12-02,22.887139,120.2445,0.9233519
C0V650,彌陀,2024-12-02,22.783806,120.246361,0.8026589
C0V660,岡山,2024-12-02,22.797078,120.294958,0.8026589
C0V680,仁武,2024-12-02,22.701083,120.347722,0.4609861
C0V690,鼓山,2024-12-02,22.623325,120.275575,0.52985966
C0V700,三民,2024-12-02,22.645017,120.311233,0.4609861
C0V710,苓雅,2024-12-02,22.622742,120.330669,0.5298601
C0V720,林園,2024-12-02,22.507747,120.394511,0.6641682
C0V730,大寮,2024-12-02,22.605614,120.395717,0.5340318
C0V740,旗山,2024-12-02,22.888614,120.483597,0.744901
C0V750,路竹,2024-12-02,22.854997,120.259439,0.9220486
C0V760,橋頭,2024-12-02,22.757806,120.30575,0.36275586
C0V770,大社,2024-12-02,22.730306,120.346639,0.3728266
C0V790,萬山,2024-12-02,22.905944,120.688056,0.8576337
C0V800,六龜,2024-12-02,22.997889,120.633583,0.5778458
C0V810,左營,2024-12-02,22.67491,120.28491,0.4609861
C0V820,小林,2024-12-02,23.148408,120.63325,0.47310272
C0V840,鳳鼻頭,2024-12-02,22.5083,120.3591,0.6622447
C0V850,蚵仔寮,2024-12-02,22.7256,120.2527,0.35526448
C0V860,南寮,2024-12-02,22.7616,120.2339,0.35526448
C0V870,文安,2024-12-02,22.8025,120.2164,0.7950057
C0V880,興達,2024-12-02,22.8778,120.2127,0.9236903
C0V890,前鎮,2024-12-02,22.5718,120.3117,0.522722
C0V900,汕尾,2024-12-02,22.4782,120.4151,0.25841674
C0W200,湖西,2024-12-02,23.596314,119.67275,0.0012070846
C0X050,東河,2024-12-02,23.296598,120.385608,0.81493276
C0X060,下營,2024-12-02,23.22695,120.256261,0.73792136
C0X080,佳里,2024-12-02,23.173039,120.145086,0.8617825
C0X100,臺南市北區,2024-12-02,23.010394,120.194228,0.85880566
C0X110,臺南市南區,2024-12-02,22.961189,120.188378,0.8360771
C0X120,麻豆,2024-12-02,23.183289,120.248611,0.8212545
C0X130,官田,2024-12-02,23.193217,120.315422,0.8440573
C0X140,西港,2024-12-02,23.125608,120.203108,0.9022709
C0X150,安定,2024-12-02,23.102614,120.227839,0.9022709
C0X160,仁德,2024-12-02,22.968258,120.257689,0.8360771
C0X170,關廟,2024-12-02,22.963017,120.327797,0.8282553
C0X180,山上,2024-12-02,23.0757,120.363253,0.7609413
C0X190,安平,2024-12-02,22.993161,120.152181,0.8588057
C0X200,左鎮,2024-12-02,23.056758,120.408522,0.80813825
C0X210,白河,2024-12-02,23.347466,120.414427,0.70919234
C0X220,學甲,2024-12-02,23.230367,120.182187,0.81235343
C0X230,鹽水,2024-12-02,23.272621,120.247641,0.81978655
C0X240,關子嶺,2024-12-02,23.331169,120.508025,0.52119964
C0X250,新營,2024-12-02,23.310689,120.316681,0.732626
C0X260,後壁,2024-12-02,23.366358,120.362326,0.8314488
C0X280,將軍,2024-12-02,23.214999,120.13577,0.80426836
C0X290,北門,2024-12-02,23.267772,120.125481,0.80426836
C0X300,鹿寮,2024-12-02,23.386047,120.477331,0.73509604
C0X320,柳營,2024-12-02,23.253328,120.375253,0.7748377
C0Z020,明里,2024-12-02,23.208717,121.262342,0.50036436
C0Z061,玉里,2024-12-02,23.3215,121.339656,0.5089161
C0Z070,舞鶴,2024-12-02,23.46811,121.37407,0.61209387
C0Z080,富源,2024-12-02,23.587642,121.378225,0.40221408
C0Z100,東華,2024-12-02,23.89525,121.549833,0.80778384
C0Z150,吉安光華,2024-12-02,23.930925,121.595153,0.751126
C0Z160,鳳林,2024-12-02,23.746114,121.453411,0.6484393
C0Z170,卓溪,2024-12-02,23.3443,121.3029,0.55396706
C0Z180,新城,2024-12-02,24.03946,121.60454,0.33572748
C0Z190,富世,2024-12-02,24.14743,121.6297,0.728435
C0Z200,萬榮,2024-12-02,23.709219,121.420106,0.6340486
C0Z210,瑞穗,2024-12-02,23.5239,121.39021,0.6965574
C0Z230,和平,2024-12-02,24.30717,121.77007,0.89701974
C0Z270,蕃薯寮,2024-12-02,23.73835,121.540108,0.61260396
C0Z280,德武,2024-12-02,23.47426,121.41071,0.61214393
C0Z300,東里,2024-12-02,23.26853,121.30547,0.51586246
C0Z310,清水斷崖,2024-12-02,24.218294,121.689142,0.81196785
C0Z330,安通山,2024-12-02,23.290728,121.348528,0.5007472
C2A540,四堵,2024-12-02,24.8926,121.745736,0.6806988
C2A560,福山,2024-12-02,24.776203,121.502811,0.27385044
C2A650,火燒寮,2024-12-02,25.002719,121.742892,0.6664789
C2A660,瑞芳,2024-12-02,25.113169,121.801147,0.7108159
C2A880,福隆,2024-12-02,25.017842,121.942083,0.67244667
C2A920,富貴角,2024-12-02,25.263783,121.565258,0.84145486
C2E520,大湖,2024-12-02,24.414939,120.870872,0.592326
C2E540,後龍,2024-12-02,24.606489,120.783933,0.909964
C2E540,龍溪,2024-12-02,24.606489,120.783933,0.909964
C2F000,大肚,2024-12-02,24.15295,120.572117,0.4468038
C2F930,大甲,2024-12-02,24.347667,120.640403,0.66796297
C2F9A0,中竹林,2024-12-02,24.103556,120.751061,0.48188445
C2G640,鹿港,2024-12-02,24.0753,120.430481,0.7149181
C2G840,北斗,2024-12-02,23.877586,120.514222,0.809426
C2G870,芳苑,2024-12-02,23.922303,120.320025,0.46833897
C2H950,中寮,2024-12-02,23.884447,120.766406,0.79080224
C2M410,馬頭山,2024-12-02,23.324361,120.582017,0.7454992
C2N160,西拉雅風管處,2024-12-02,23.189481,120.335297,0.8449672
C2O810,曾文,2024-12-02,23.219681,120.497328,0.72686934
C2O930,玉井,2024-12-02,23.126042,120.46055,0.7609414
C2O950,安南,2024-12-02,23.076694,120.144861,0.86324465
C2V250,甲仙,2024-12-02,23.080106,120.591758,0.4910057
C2V260,月眉,2024-12-02,22.971003,120.539853,0.73188215
C2W230,畜試所澎湖,2024-12-02,23.628342,119.513206,0.00077787257
CAG100,王功漁港,2024-12-02,23.96824,120.32586,0.4860993
CAH030,茶改場竹圍站,2024-12-02,23.860083,120.637528,0.6576677
CAJ050,海口故事園區,2024-12-02,23.57543,120.14121,0.9016861
CAL110,布袋國中,2024-12-02,23.35893,120.18026,0.84144515
CAN130,水試所海水繁養殖中心,2024-12-02,23.120802,120.07968,0.8648575
CAN140,六官養殖協會,2024-12-02,23.22881,120.29962,0.73792136
CAQ030,崎峰國小,2024-12-02,22.42565,120.49521,0.25841674
E2K600,四湖植物園,2024-12-02,23.676986,120.163433,0.88472843
E2P980,林試六龜中心,2024-12-02,22.991703,120.645722,0.5715347
E2S960,林試太麻里2,2024-12-02,22.598014,120.989761,0.9415656
E2S960,林試太麻里2,2024-12-02,22.598,120.99775,0.9418494
E2S980,林試太麻里1,2024-12-02,22.598922,120.980044,0.9359089
G2AI50,關渡,2024-12-02,25.11575,121.492,0.49370185
G2F820,農業試驗所,2024-12-02,24.031261,120.688133,0.41902068
G2F820,農試所(霧峰),2024-12-02,24.031261,120.688133,0.41902068
G2L020,農試嘉義分所,2024-12-02,23.485028,120.473806,0.66375774
G2M350,農試溪口農場,2024-12-02,23.58565,120.408111,0.6280179
G2P820,農試鳳山分所,2024-12-02,22.646611,120.356083,0.4754772
K2E360,苗栗農改,2024-12-02,24.495722,120.829111,0.8508586
K2E360,苗栗農改場,2024-12-02,24.495722,120.829111,0.8508586
K2E710,苗改生物防治研究中心,2024-12-02,24.422861,120.871833,0.61014366
K2F750,種苗改良場,2024-12-02,24.225972,120.800917,0.8689917
K2F750,種苗繁殖,2024-12-02,24.225972,120.800917,0.8689917
U2HA50,臺大竹山,2024-12-02,23.756972,120.681556,0.6747375
V2C250,八德合作社,2024-12-02,24.93775,121.266389,0.61578476
V2C260,八德蔬果,2024-12-02,24.978508,121.281819,0.73947936
V2K610,大庄合作社,2024-12-02,23.8068,120.367939,0.7048909
V2K620,麥寮合作社,2024-12-02,23.753836,120.294783,0.6757973
