站號,站名,日期,lat,lon,BlastGRU-TW
12J990,口湖工作站,2024-07-07,23.589978,120.180394,0.30660963
12Q970,東港工作站,2024-07-07,22.479997,120.466058,0.1356421
12Q980,恆春工作站,2024-07-07,22.079678,120.714425,0.1396868
466881,新北,2024-07-07,24.9593,121.52,0.04408215
466900,淡水,2024-07-07,25.164889,121.448906,0.11945201
466920,臺北,2024-07-07,25.037658,121.514853,0.037967153
466940,基隆,2024-07-07,25.133314,121.740475,0.034604996
466990,花蓮,2024-07-07,23.975128,121.613275,0.045112178
467050,新屋,2024-07-07,25.006744,121.047486,0.6489949
467080,宜蘭,2024-07-07,24.763975,121.756528,0.04176099
467270,田中,2024-07-07,23.873803,120.581286,0.12975165
467280,後龍,2024-07-07,24.648563,120.831834,0.7792671
467300,東吉島,2024-07-07,23.25695,119.667467,0.5544944
467350,澎湖,2024-07-07,23.565503,119.563094,0.62082976
467410,臺南,2024-07-07,22.993239,120.204772,0.14338793
467420,永康,2024-07-07,23.038386,120.2367,0.09363965
467441,高雄,2024-07-07,22.7304,120.3125,0.09386302
467480,嘉義,2024-07-07,23.495925,120.432906,0.27358672
467490,臺中,2024-07-07,24.145736,120.684075,0.13905324
467540,大武,2024-07-07,22.355675,120.903789,0.24486105
467571,新竹,2024-07-07,24.827853,121.014219,0.60941416
467590,恆春,2024-07-07,22.003897,120.746339,0.17992371
467610,成功,2024-07-07,23.097486,121.373428,0.11698312
467620,蘭嶼,2024-07-07,22.036969,121.558339,0.9107637
467660,臺東,2024-07-07,22.752211,121.154586,0.27796018
467790,墾丁雷達站,2024-07-07,21.948235,120.808028,0.20140323
72AI40,桃改樹林分場,2024-07-07,24.944503,121.386972,0.10669023
72C440,桃園農改,2024-07-07,24.950944,121.030583,0.6771933
72C440,桃園農改場,2024-07-07,24.950944,121.030583,0.6771933
72D680,桃改新埔分場,2024-07-07,24.834444,121.066111,0.66443753
72G600,臺中農改,2024-07-07,24.003028,120.534389,0.15615563
72G600,臺中農改場,2024-07-07,24.003028,120.534389,0.15615563
72K220,南改斗南分場,2024-07-07,23.634556,120.477333,0.28744262
72M360,南改義竹分場,2024-07-07,23.360694,120.279361,0.18967827
72M700,南改鹿草分場,2024-07-07,23.416869,120.283061,0.21986315
72N100,臺南農改,2024-07-07,23.0605,120.342194,0.09198675
72N100,臺南農改場,2024-07-07,23.0605,120.342194,0.09198675
72N240,七股研究中心,2024-07-07,23.081672,120.062894,0.2213459
72Q010,高雄農改,2024-07-07,22.709333,120.525889,0.09469089
72Q010,高雄農改場,2024-07-07,22.709333,120.525889,0.09469089
72S200,東改班鳩分場,2024-07-07,22.829528,121.077694,0.43814242
72S590,東改賓朗果園,2024-07-07,22.813889,121.071278,0.48732436
72T250,花蓮農改,2024-07-07,23.975222,121.563889,0.036797874
72T250,花蓮農改場,2024-07-07,23.975222,121.563889,0.036797874
72U480,花改蘭陽分場,2024-07-07,24.686306,121.716583,0.046185043
72V140,高改旗南分場,2024-07-07,22.857861,120.516667,0.090922266
82A750,茶改北部分場,2024-07-07,24.955778,121.631222,0.026803711
82C160,茶改場,2024-07-07,24.908472,121.185333,0.29528585
82H840,茶改南部分場,2024-07-07,23.762528,120.7405,0.29231486
82S580,茶改東部分場,2024-07-07,22.907694,121.130139,0.14401808
A2C560,農工中心,2024-07-07,24.985917,121.239833,0.21766226
A2K360,水試臺西試驗場,2024-07-07,23.717231,120.190522,0.29534876
A2K570,古坑花卉中心,2024-07-07,23.63353,120.55239,0.25002527
A2K630,臺大雲林校區,2024-07-07,23.730628,120.423903,0.26433435
A2N290,臺南蘭花園區,2024-07-07,23.340258,120.379661,0.2221015
B2E890,畜試北區分所,2024-07-07,24.527806,120.770972,0.5365505
B2N890,畜產試驗所,2024-07-07,23.058972,120.336406,0.09198675
B2N890,畜試所,2024-07-07,23.058972,120.336406,0.09198675
B2Q810,畜試南區分所,2024-07-07,21.945583,120.802167,0.18323538
B2U990,畜試東區分所,2024-07-07,24.669039,121.832561,0.03077559
C0A520,山佳,2024-07-07,24.974944,121.402008,0.06827259
C0A530,坪林,2024-07-07,24.938183,121.70975,0.022815617
C0A550,泰平,2024-07-07,24.971197,121.823711,0.023091227
C0A570,桶後,2024-07-07,24.848222,121.597992,0.035113208
C0A640,石碇,2024-07-07,24.993969,121.662917,0.040770434
C0A770,科教館,2024-07-07,25.096356,121.516507,0.039966498
C0A860,大坪,2024-07-07,25.165914,121.632969,0.0803919
C0A890,雙溪,2024-07-07,25.036003,121.864242,0.038809594
C0A931,三和,2024-07-07,25.233153,121.595236,0.12023905
C0A940,金山,2024-07-07,25.223628,121.643967,0.049783114
C0A950,鼻頭角,2024-07-07,25.129036,121.923372,0.069548935
C0A970,三貂角,2024-07-07,25.007606,122.002058,0.037925575
C0A980,社子,2024-07-07,25.109508,121.469681,0.12326434
C0A9C0,天母,2024-07-07,25.117494,121.537169,0.034975816
C0A9F0,內湖,2024-07-07,25.079422,121.57545,0.03170313
C0AC60,三峽,2024-07-07,24.939025,121.369728,0.109558664
C0AC70,信義,2024-07-07,25.037822,121.564597,0.03203136
C0AC80,文山,2024-07-07,25.00235,121.575728,0.042760175
C0ACA0,新莊,2024-07-07,25.051478,121.446756,0.050550934
C0AD10,八里,2024-07-07,25.150211,121.403947,0.12103636
C0AD30,蘆洲,2024-07-07,25.086594,121.472331,0.039966498
C0AD40,土城,2024-07-07,24.973208,121.445169,0.0506745
C0AD50,鶯歌,2024-07-07,24.951533,121.346294,0.11390278
C0AG80,中和,2024-07-07,24.991622,121.491792,0.04266184
C0AH00,汐止,2024-07-07,25.066881,121.658778,0.02413617
C0AH10,永和,2024-07-07,25.01125,121.508111,0.042246904
C0AH40,平等,2024-07-07,25.129142,121.577086,0.11578518
C0AH50,林口,2024-07-07,25.072181,121.38084,0.12064088
C0AH70,松山,2024-07-07,25.04871,121.55042,0.03203136
C0AH80,深坑,2024-07-07,25.002703,121.628328,0.034363158
C0AI00,五股,2024-07-07,25.07445,121.42728,0.11341329
C0AI10,屈尺,2024-07-07,24.92184,121.54475,0.03692927
C0AI20,白沙灣,2024-07-07,25.283128,121.519058,0.20859137
C0AI30,三重,2024-07-07,25.057328,121.500629,0.037611254
C0AI40,石牌,2024-07-07,25.115597,121.513139,0.045108944
C0AJ20,野柳,2024-07-07,25.20703,121.690021,0.06412251
C0AJ30,淡水觀海,2024-07-07,25.184591,121.408616,0.07021684
C0AJ40,石門,2024-07-07,25.273672,121.601198,0.17739514
C0AJ50,水湳洞,2024-07-07,25.123695,121.862238,0.029382117
C0AJ60,六塊厝,2024-07-07,25.24,121.4481,0.16841564
C0AJ70,田寮,2024-07-07,25.2698,121.4886,0.1284733
C0AJ80,板橋,2024-07-07,25.0107,121.4489,0.044425912
C0AJ90,澳底,2024-07-07,25.0552,121.9253,0.04471023
C0B010,七堵,2024-07-07,25.094819,121.71713,0.033835657
C0B020,基隆嶼,2024-07-07,25.19141,121.78391,0.049890988
C0B040,大武崙,2024-07-07,25.166676,121.706993,0.03362309
C0B050,八斗子,2024-07-07,25.144754,121.79167,0.035149835
C0B060,暖暖,2024-07-07,25.0957,121.7403,0.03266374
C0C460,復興,2024-07-07,24.820208,121.352281,0.4464725
C0C480,桃園,2024-07-07,24.992425,121.323172,0.09144153
C0C490,八德,2024-07-07,24.928708,121.283289,0.12402493
C0C590,觀音,2024-07-07,25.027072,121.153317,0.79803884
C0C620,蘆竹,2024-07-07,25.084275,121.265767,0.24293058
C0C630,大溪,2024-07-07,24.882853,121.265547,0.09989428
C0C650,平鎮,2024-07-07,24.897503,121.214636,0.17983282
C0C660,楊梅,2024-07-07,24.912375,121.143047,0.271217
C0C670,龍潭,2024-07-07,24.870056,121.221389,0.10300744
C0C680,龜山,2024-07-07,25.02846,121.38656,0.113555185
C0C700,中壢,2024-07-07,24.977661,121.256375,0.117596574
C0C710,大溪永福,2024-07-07,24.892936,121.324975,0.118000954
C0C720,竹圍,2024-07-07,25.112692,121.239824,0.13802545
C0C730,中大臨海站,2024-07-07,24.966126,121.008581,0.65200996
C0C740,觀音工業區,2024-07-07,25.064764,121.114856,0.73586816
C0C750,新興坑尾,2024-07-07,25.0061,121.0971,0.6637807
C0D430,峨眉,2024-07-07,24.6905,121.017189,0.6102031
C0D480,打鐵坑,2024-07-07,24.849664,121.150789,0.14209756
C0D540,橫山,2024-07-07,24.71116,121.11693,0.27885023
C0D560,竹東,2024-07-07,24.767147,121.057881,0.21669011
C0D580,寶山,2024-07-07,24.735006,121.025192,0.22741938
C0D590,新豐,2024-07-07,24.87068,120.97721,0.9772873
C0D650,湖口,2024-07-07,24.904794,121.043628,0.6756021
C0D660,新竹市東區,2024-07-07,24.798681,120.986942,0.48950604
C0D670,海天一線,2024-07-07,24.831986,120.914438,0.9648147
C0D680,香山濕地,2024-07-07,24.783581,120.914988,0.48657307
C0D690,外湖,2024-07-07,24.917735,120.968711,0.67093366
C0D700,關西,2024-07-07,24.7977,121.1732,0.21893296
C0E420,竹南,2024-07-07,24.708978,120.888897,0.8717313
C0E430,南庄,2024-07-07,24.601775,121.000214,0.7942432
C0E550,明德,2024-07-07,24.583486,120.885411,0.7445754
C0E590,通霄,2024-07-07,24.471892,120.704622,0.64037305
C0E730,頭份,2024-07-07,24.688247,120.912206,0.8679193
C0E740,造橋,2024-07-07,24.637056,120.864778,0.77904475
C0E750,苗栗,2024-07-07,24.564569,120.824575,0.69876665
C0E780,銅鑼,2024-07-07,24.489681,120.790853,0.6294187
C0E791,卓蘭,2024-07-07,24.3126,120.8244,0.5124303
C0E810,西湖,2024-07-07,24.562947,120.7485,0.78679687
C0E820,獅潭,2024-07-07,24.539133,120.920042,0.77284396
C0E830,苑裡,2024-07-07,24.439714,120.653053,0.5424116
C0E850,大河,2024-07-07,24.618069,120.948578,0.5971145
C0E870,高鐵苗栗,2024-07-07,24.60725,120.826094,0.7604169
C0E910,海埔,2024-07-07,24.648767,120.772435,0.7779431
C0E920,通霄漁港,2024-07-07,24.498589,120.673876,0.6262885
C0E930,龍鳳,2024-07-07,24.700034,120.859125,0.85244983
C0F0B0,石岡,2024-07-07,24.276061,120.777644,0.44386643
C0F850,東勢,2024-07-07,24.246428,120.833047,0.47977325
C0F970,大坑,2024-07-07,24.173142,120.722289,0.15180126
C0F9I0,神岡,2024-07-07,24.272481,120.658314,0.27393347
C0F9K0,大安,2024-07-07,24.345061,120.588025,0.41208625
C0F9L0,后里,2024-07-07,24.310436,120.729725,0.38600463
C0F9M0,豐原,2024-07-07,24.254322,120.720692,0.35697085
C0F9N0,大里,2024-07-07,24.092464,120.701378,0.0905628
C0F9O0,潭子,2024-07-07,24.213106,120.703933,0.25341618
C0F9P0,清水,2024-07-07,24.312297,120.562242,0.31092972
C0F9Q0,外埔,2024-07-07,24.347817,120.705686,0.33258253
C0F9R0,龍井,2024-07-07,24.184536,120.528972,0.30504924
C0F9S0,烏日,2024-07-07,24.107058,120.624103,0.0826842
C0F9T0,西屯,2024-07-07,24.179494,120.641275,0.15847802
C0F9U0,南屯,2024-07-07,24.137006,120.637969,0.15840231
C0F9X0,大雅(中科園區),2024-07-07,24.21528,120.62445,0.19523521
C0FA10,松柏,2024-07-07,24.429115,120.617482,0.52719724
C0FA20,溫寮,2024-07-07,24.372177,120.583125,0.39874327
C0FA30,梧棲,2024-07-07,24.256003,120.523381,0.3218912
C0FA40,臺中電廠,2024-07-07,24.2146,120.4907,0.30504924
C0FA50,霧峰,2024-07-07,24.0419,120.6995,0.0945118
C0G620,芬園,2024-07-07,24.015678,120.6213,0.09825589
C0G650,員林,2024-07-07,23.946503,120.585597,0.10317442
C0G660,溪湖,2024-07-07,23.94835,120.479122,0.14751303
C0G720,溪州,2024-07-07,23.851589,120.499093,0.16510276
C0G730,二林,2024-07-07,23.903325,120.376081,0.27907822
C0G740,大城,2024-07-07,23.852487,120.320935,0.50653523
C0G770,福興,2024-07-07,24.041289,120.437669,0.31987378
C0G780,秀水,2024-07-07,24.03405,120.503869,0.14833128
C0G800,埔鹽,2024-07-07,24.000394,120.431683,0.31695387
C0G810,埔心,2024-07-07,23.947633,120.525456,0.14951317
C0G820,田尾,2024-07-07,23.901669,120.509389,0.15542774
C0G830,埤頭,2024-07-07,23.866003,120.452806,0.16222705
C0G860,社頭,2024-07-07,23.897647,120.5862,0.12247388
C0G880,二水,2024-07-07,23.810742,120.6173,0.11372502
C0G890,伸港,2024-07-07,24.148933,120.484403,0.3089613
C0G900,線西,2024-07-07,24.143358,120.443536,0.3262956
C0G910,花壇,2024-07-07,24.032076,120.549461,0.15834405
C0G920,永靖,2024-07-07,23.924703,120.547533,0.16005535
C0G940,竹塘,2024-07-07,23.848253,120.386764,0.27908334
C0G950,防潮門,2024-07-07,24.1835,120.4871,0.30504924
C0G960,福寶,2024-07-07,24.0443,120.3814,0.32428402
C0G970,三豐,2024-07-07,23.882,120.2895,0.49528396
C0H890,埔里,2024-07-07,23.972169,120.952425,0.24771717
C0H960,草屯,2024-07-07,23.973672,120.68085,0.10081958
C0I110,竹山,2024-07-07,23.761225,120.688156,0.13557278
C0I360,水里,2024-07-07,23.812553,120.849792,0.09866099
C0I380,集集,2024-07-07,23.828206,120.801467,0.1007604
C0I410,名間,2024-07-07,23.837053,120.701447,0.13198322
C0I420,國姓,2024-07-07,24.037803,120.855072,0.14112018
C0I460,南投,2024-07-07,23.911469,120.687331,0.084220245
C0K250,崙背,2024-07-07,23.75555,120.318925,0.25509948
C0K280,四湖,2024-07-07,23.630414,120.227125,0.29850736
C0K291,宜梧,2024-07-07,23.536281,120.169329,0.204981
C0K330,虎尾,2024-07-07,23.719183,120.442036,0.26996925
C0K390,土庫,2024-07-07,23.679029,120.395574,0.29260164
C0K400,斗六,2024-07-07,23.720583,120.541127,0.24470378
C0K410,北港,2024-07-07,23.573957,120.292802,0.24553995
C0K420,西螺,2024-07-07,23.800407,120.467394,0.19013405
C0K430,褒忠,2024-07-07,23.690938,120.303634,0.25373337
C0K440,二崙,2024-07-07,23.772797,120.408944,0.18493323
C0K450,大埤,2024-07-07,23.646074,120.431537,0.27862978
C0K460,斗南,2024-07-07,23.678734,120.478359,0.28738746
C0K470,林內,2024-07-07,23.748675,120.609642,0.15648621
C0K480,莿桐,2024-07-07,23.761192,120.502372,0.13980722
C0K500,元長,2024-07-07,23.64981,120.315024,0.2561371
C0K510,水林,2024-07-07,23.572924,120.24597,0.22577284
C0K530,臺西,2024-07-07,23.701547,120.197559,0.29900917
C0K550,蔦松,2024-07-07,23.514319,120.229736,0.22543865
C0K560,棋山,2024-07-07,23.68645,120.603417,0.2595309
C0K580,高鐵雲林,2024-07-07,23.737456,120.417944,0.26433435
C0K590,雲林東勢,2024-07-07,23.674192,120.255721,0.23872966
C0K600,箔子寮,2024-07-07,23.6197,120.14,0.3062817
C0M520,東後寮,2024-07-07,23.369908,120.248065,0.18967827
C0M640,中埔,2024-07-07,23.42538,120.5229,0.3354611
C0M650,朴子,2024-07-07,23.43463,120.23902,0.2048544
C0M660,溪口,2024-07-07,23.604131,120.403569,0.27882248
C0M670,大林,2024-07-07,23.600616,120.45841,0.31810564
C0M680,太保,2024-07-07,23.455062,120.331455,0.2215971
C0M690,水上,2024-07-07,23.419734,120.388909,0.23853351
C0M700,竹崎,2024-07-07,23.526178,120.555508,0.29243428
C0M710,東石,2024-07-07,23.458927,120.15385,0.24596466
C0M720,番路,2024-07-07,23.464657,120.554156,0.32601944
C0M730,嘉義市東區,2024-07-07,23.457673,120.460531,0.2511491
C0M740,六腳,2024-07-07,23.492871,120.290625,0.23287053
C0M750,布袋,2024-07-07,23.380878,120.167789,0.18403818
C0M760,民雄,2024-07-07,23.551754,120.428457,0.31627107
C0M770,嘉義梅山,2024-07-07,23.585398,120.555587,0.274641
C0M780,鹿草,2024-07-07,23.41134,120.30835,0.22293389
C0M790,新港,2024-07-07,23.553269,120.345728,0.25782147
C0M800,茶山,2024-07-07,23.299075,120.664767,0.29161516
C0M880,好美里,2024-07-07,23.3364,120.138,0.15762733
C0N010,鯤鯓國小,2024-07-07,23.1879,120.0889,0.16468711
C0N020,城西,2024-07-07,23.0568,120.0956,0.15439859
C0N030,四草,2024-07-07,23.0235,120.1116,0.17031907
C0N040,蘆竹溝,2024-07-07,23.2344,120.0961,0.13792612
C0N050,蚵寮,2024-07-07,23.301,120.1104,0.15252952
C0O830,北寮,2024-07-07,23.079561,120.495008,0.10756386
C0O840,王爺宮,2024-07-07,23.222064,120.40085,0.18336987
C0O860,大內,2024-07-07,23.11885,120.36083,0.09972968
C0O900,善化,2024-07-07,23.112883,120.297219,0.09015589
C0O960,崎頂,2024-07-07,22.959547,120.369317,0.11248062
C0O970,虎頭埤,2024-07-07,23.021375,120.347878,0.09722857
C0O980,新市,2024-07-07,23.061614,120.298197,0.08841333
C0O990,媽廟,2024-07-07,22.99175,120.293525,0.10931927
C0R150,三地門,2024-07-07,22.709889,120.639944,0.11200753
C0R160,鹽埔,2024-07-07,22.739558,120.530778,0.10626847
C0R170,屏東,2024-07-07,22.660269,120.494072,0.0890905
C0R190,赤山,2024-07-07,22.592333,120.614306,0.11492355
C0R220,潮州,2024-07-07,22.534361,120.54,0.11678969
C0R240,來義,2024-07-07,22.527306,120.625111,0.1196818
C0R260,春日,2024-07-07,22.370361,120.628306,0.078356
C0R270,琉球嶼,2024-07-07,22.332244,120.362236,0.27457
C0R280,檳榔,2024-07-07,22.076078,120.836777,0.17772081
C0R320,車城,2024-07-07,22.0744,120.716247,0.1396868
C0R341,牡丹,2024-07-07,22.130036,120.792639,0.17056338
C0R350,貓鼻頭,2024-07-07,21.921774,120.7358,0.42084995
C0R470,高樹,2024-07-07,22.826389,120.600806,0.33631906
C0R480,長治,2024-07-07,22.693128,120.542622,0.10639013
C0R490,九如,2024-07-07,22.7405,120.490503,0.10474081
C0R520,崁頂,2024-07-07,22.514781,120.506914,0.10717304
C0R540,佳冬,2024-07-07,22.419456,120.552375,0.064552836
C0R550,新埤,2024-07-07,22.467947,120.582894,0.13836224
C0R560,新園,2024-07-07,22.5434,120.461558,0.11112399
C0R570,麟洛,2024-07-07,22.65078,120.52719,0.0890905
C0R580,南州,2024-07-07,22.48591,120.50274,0.124738425
C0R590,里港,2024-07-07,22.77919,120.49459,0.09548074
C0R620,墾雷,2024-07-07,21.900836,120.855269,0.537569
C0R640,東港,2024-07-07,22.46247,120.44074,0.15489642
C0R650,竹田,2024-07-07,22.58486,120.54344,0.124874555
C0R660,枋寮,2024-07-07,22.367722,120.590647,0.073681414
C0R670,楓港,2024-07-07,22.190131,120.692156,0.12034458
C0R680,佳樂水,2024-07-07,21.993578,120.861633,0.18602659
C0R690,墾丁,2024-07-07,21.966756,120.810269,0.33731303
C0R700,枋山,2024-07-07,22.246844,120.661086,0.13281214
C0R710,龍磐,2024-07-07,21.931672,120.838942,0.46839127
C0R720,旭海,2024-07-07,22.205403,120.887614,0.32937324
C0R730,大坪頂,2024-07-07,22.024633,120.69355,0.21249439
C0R740,獅子,2024-07-07,22.201569,120.70525,0.15941982
C0R760,南仁湖,2024-07-07,22.084681,120.863353,0.25025693
C0R770,保力,2024-07-07,22.071122,120.764111,0.16627254
C0R780,滿州,2024-07-07,22.024403,120.839892,0.18817285
C0R790,九棚,2024-07-07,22.14195,120.889281,0.16649355
C0R800,丹路,2024-07-07,22.204481,120.750989,0.17382728
C0R810,內獅,2024-07-07,22.305064,120.642986,0.083876334
C0R830,高士,2024-07-07,22.121825,120.836781,0.38526005
C0R850,林邊,2024-07-07,22.4634,120.5339,0.13474214
C0R860,鼻頭,2024-07-07,22.1043,120.8979,0.08917599
C0R870,興海,2024-07-07,21.9752,120.8439,0.18323538
C0R880,後壁湖,2024-07-07,21.9457,120.7457,0.18341197
C0R890,山海,2024-07-07,21.9878,120.7091,0.18626556
C0R900,竹坑,2024-07-07,22.1385,120.7022,0.14215305
C0R910,下寮,2024-07-07,22.3929,120.5548,0.064552836
C0R920,塭仔,2024-07-07,22.4169,120.5197,0.070338
C0R930,萬丹,2024-07-07,22.5885,120.4851,0.097493514
C0R940,加祿堂,2024-07-07,22.3363,120.6217,0.06280212
C0S710,鹿野,2024-07-07,22.917711,121.122994,0.23795931
C0S730,綠島,2024-07-07,22.6672,121.47533,0.79864967
C0S740,池上,2024-07-07,23.119628,121.209469,0.23043212
C0S770,大溪山,2024-07-07,22.478475,120.943325,0.69266367
C0S790,金崙,2024-07-07,22.538122,120.966875,0.3650043
C0S810,東河,2024-07-07,22.972672,121.303986,0.22097231
C0S830,長濱,2024-07-07,23.286817,121.411975,0.10800431
C0S840,南田,2024-07-07,22.279725,120.889208,0.2739995
C0S890,關山,2024-07-07,23.0395,121.175017,0.13548267
C0S900,蘭嶼高中,2024-07-07,22.04909,121.51214,0.7985648
C0S910,蘭嶼燈塔,2024-07-07,22.081197,121.503117,0.86934876
C0S920,金峰嘉蘭,2024-07-07,22.594789,120.960825,0.2582562
C0S930,延平,2024-07-07,22.902581,121.084058,0.39099944
C0S940,石寧山,2024-07-07,23.223772,121.406639,0.07551817
C0S950,七塊厝,2024-07-07,22.954453,121.229922,0.36067474
C0S960,香蘭,2024-07-07,22.587569,120.993375,0.2264262
C0S970,加津林,2024-07-07,22.416211,120.926942,0.27790532
C0S990,山豬窟,2024-07-07,22.318619,120.857372,0.7735688
C0SA00,歷坵,2024-07-07,22.520969,120.89185,0.7555943
C0SA10,檳榔四格山,2024-07-07,22.810031,121.109308,0.44109356
C0SA30,都歷,2024-07-07,23.020333,121.323642,0.09431323
C0SA40,瑞和,2024-07-07,22.974361,121.156697,0.11284378
C0SA60,知本（水試所）,2024-07-07,22.702394,121.082761,0.13669083
C0SA80,土坂,2024-07-07,22.453108,120.887572,0.2446935
C0SA90,達仁林場,2024-07-07,22.264347,120.823972,0.83063066
C0T870,鯉魚潭,2024-07-07,23.935639,121.508944,0.03442251
C0T900,西林,2024-07-07,23.8119,121.441458,0.05020288
C0T960,光復,2024-07-07,23.660694,121.424964,0.06568341
C0T9A0,月眉山,2024-07-07,23.809928,121.539828,0.295938
C0T9D0,和中,2024-07-07,24.26676,121.74103,0.059768528
C0T9E0,大坑,2024-07-07,23.880628,121.581981,0.26103213
C0T9F0,水璉,2024-07-07,23.797131,121.542514,0.11941415
C0T9I0,豐濱,2024-07-07,23.583897,121.514806,0.08713636
C0T9M0,靜浦,2024-07-07,23.455167,121.495028,0.07082814
C0T9N0,富里,2024-07-07,23.171639,121.249378,0.17248398
C0U600,礁溪,2024-07-07,24.817539,121.765608,0.030768063
C0U650,玉蘭,2024-07-07,24.675286,121.587061,0.07885752
C0U750,龜山島,2024-07-07,24.841667,121.953133,0.27931306
C0U760,東澳,2024-07-07,24.52196,121.83318,0.03564679
C0U770,南澳,2024-07-07,24.44935,121.81022,0.15996522
C0U780,五結,2024-07-07,24.68637,121.79794,0.035991207
C0U860,頭城,2024-07-07,24.85323,121.8308,0.027630514
C0U870,大礁溪,2024-07-07,24.791042,121.675047,0.122482955
C0U880,北關,2024-07-07,24.9072,121.8734,0.02443886
C0U890,三星,2024-07-07,24.66812,121.65302,0.022167802
C0U900,內城,2024-07-07,24.71813,121.68766,0.047367048
C0U910,冬山,2024-07-07,24.63373,121.7937,0.03077559
C0U940,羅東,2024-07-07,24.68184,121.74934,0.040730562
C0U970,大福,2024-07-07,24.80064,121.81389,0.0383421
C0U990,員山,2024-07-07,24.74435,121.72247,0.04088288
C0UA00,土場,2024-07-07,24.576533,121.495333,0.035448283
C0UA80,大溪漁港,2024-07-07,24.941801,121.902955,0.02086633
C0UA90,石城,2024-07-07,24.980444,121.951214,0.03240171
C0UB00,淡江大學蘭陽校園,2024-07-07,24.823239,121.730383,0.06535022
C0UB10,蘇澳,2024-07-07,24.5969,121.8571,0.027886346
C0UB20,壯圍,2024-07-07,24.7359,121.8163,0.036529493
C0V310,美濃,2024-07-07,22.898742,120.519153,0.087988295
C0V350,溪埔,2024-07-07,22.738578,120.446797,0.08308655
C0V360,內門,2024-07-07,22.975481,120.466769,0.09775992
C0V370,古亭坑,2024-07-07,22.893178,120.401947,0.085203186
C0V400,阿公店,2024-07-07,22.804194,120.355528,0.08794761
C0V440,鳳山,2024-07-07,22.646653,120.356122,0.114314355
C0V450,鳳森,2024-07-07,22.545064,120.392592,0.12830566
C0V490,新興,2024-07-07,22.627422,120.298803,0.10123304
C0V530,阿蓮,2024-07-07,22.883208,120.327508,0.10741194
C0V610,梓官,2024-07-07,22.760558,120.267211,0.10307963
C0V620,永安,2024-07-07,22.82315,120.236856,0.1307885
C0V630,茄萣,2024-07-07,22.906642,120.182608,0.1561043
C0V640,湖內,2024-07-07,22.887139,120.2445,0.14330925
C0V650,彌陀,2024-07-07,22.783806,120.246361,0.1307885
C0V660,岡山,2024-07-07,22.797078,120.294958,0.12526955
C0V680,仁武,2024-07-07,22.701083,120.347722,0.11452249
C0V690,鼓山,2024-07-07,22.623325,120.275575,0.14405482
C0V700,三民,2024-07-07,22.645017,120.311233,0.11454836
C0V710,苓雅,2024-07-07,22.622742,120.330669,0.11765137
C0V720,林園,2024-07-07,22.507747,120.394511,0.14798407
C0V730,大寮,2024-07-07,22.605614,120.395717,0.10317335
C0V740,旗山,2024-07-07,22.888614,120.483597,0.08905465
C0V750,路竹,2024-07-07,22.854997,120.259439,0.14559242
C0V760,橋頭,2024-07-07,22.757806,120.30575,0.09272999
C0V770,大社,2024-07-07,22.730306,120.346639,0.09838759
C0V790,萬山,2024-07-07,22.905944,120.688056,0.585565
C0V800,六龜,2024-07-07,22.997889,120.633583,0.25875804
C0V810,左營,2024-07-07,22.67491,120.28491,0.11454836
C0V820,小林,2024-07-07,23.148408,120.63325,0.13118759
C0V840,鳳鼻頭,2024-07-07,22.5083,120.3591,0.14553978
C0V850,蚵仔寮,2024-07-07,22.7256,120.2527,0.10170799
C0V860,南寮,2024-07-07,22.7616,120.2339,0.10170799
C0V870,文安,2024-07-07,22.8025,120.2164,0.15948883
C0V880,興達,2024-07-07,22.8778,120.2127,0.1561043
C0V890,前鎮,2024-07-07,22.5718,120.3117,0.14234185
C0V900,汕尾,2024-07-07,22.4782,120.4151,0.1356421
C0W200,湖西,2024-07-07,23.596314,119.67275,0.6893515
C0X050,東河,2024-07-07,23.296598,120.385608,0.20369557
C0X060,下營,2024-07-07,23.22695,120.256261,0.115458935
C0X080,佳里,2024-07-07,23.173039,120.145086,0.13862537
C0X100,臺南市北區,2024-07-07,23.010394,120.194228,0.14008327
C0X110,臺南市南區,2024-07-07,22.961189,120.188378,0.1317699
C0X120,麻豆,2024-07-07,23.183289,120.248611,0.10838126
C0X130,官田,2024-07-07,23.193217,120.315422,0.11113105
C0X140,西港,2024-07-07,23.125608,120.203108,0.096311785
C0X150,安定,2024-07-07,23.102614,120.227839,0.09745654
C0X160,仁德,2024-07-07,22.968258,120.257689,0.12810044
C0X170,關廟,2024-07-07,22.963017,120.327797,0.091801874
C0X180,山上,2024-07-07,23.0757,120.363253,0.092299476
C0X190,安平,2024-07-07,22.993161,120.152181,0.17243885
C0X200,左鎮,2024-07-07,23.056758,120.408522,0.111600965
C0X210,白河,2024-07-07,23.347466,120.414427,0.26265377
C0X220,學甲,2024-07-07,23.230367,120.182187,0.13915001
C0X230,鹽水,2024-07-07,23.272621,120.247641,0.15360008
C0X240,關子嶺,2024-07-07,23.331169,120.508025,0.21964128
C0X250,新營,2024-07-07,23.310689,120.316681,0.1546886
C0X260,後壁,2024-07-07,23.366358,120.362326,0.2221015
C0X280,將軍,2024-07-07,23.214999,120.13577,0.12922773
C0X290,北門,2024-07-07,23.267772,120.125481,0.13792612
C0X300,鹿寮,2024-07-07,23.386047,120.477331,0.27138737
C0X320,柳營,2024-07-07,23.253328,120.375253,0.15323772
C0Z020,明里,2024-07-07,23.208717,121.262342,0.08362594
C0Z061,玉里,2024-07-07,23.3215,121.339656,0.07779691
C0Z070,舞鶴,2024-07-07,23.46811,121.37407,0.10759037
C0Z080,富源,2024-07-07,23.587642,121.378225,0.075823724
C0Z100,東華,2024-07-07,23.89525,121.549833,0.07519224
C0Z150,吉安光華,2024-07-07,23.930925,121.595153,0.04716645
C0Z160,鳳林,2024-07-07,23.746114,121.453411,0.03267769
C0Z170,卓溪,2024-07-07,23.3443,121.3029,0.074980706
C0Z180,新城,2024-07-07,24.03946,121.60454,0.043004557
C0Z190,富世,2024-07-07,24.14743,121.6297,0.18402676
C0Z200,萬榮,2024-07-07,23.709219,121.420106,0.038463734
C0Z210,瑞穗,2024-07-07,23.5239,121.39021,0.08432053
C0Z230,和平,2024-07-07,24.30717,121.77007,0.050364375
C0Z270,蕃薯寮,2024-07-07,23.73835,121.540108,0.085497424
C0Z280,德武,2024-07-07,23.47426,121.41071,0.09401954
C0Z300,東里,2024-07-07,23.26853,121.30547,0.070856154
C0Z310,清水斷崖,2024-07-07,24.218294,121.689142,0.30068094
C0Z330,安通山,2024-07-07,23.290728,121.348528,0.21133131
C2E520,大湖,2024-07-07,24.414939,120.870872,0.65517104
C2E540,後龍,2024-07-07,24.606489,120.783933,0.75247073
C2E540,龍溪,2024-07-07,24.606489,120.783933,0.75247073
C2F000,大肚,2024-07-07,24.15295,120.572117,0.19889385
C2F930,大甲,2024-07-07,24.347667,120.640403,0.44238055
C2F9A0,中竹林,2024-07-07,24.103556,120.751061,0.2258478
C2G640,鹿港,2024-07-07,24.0753,120.430481,0.31515202
C2G840,北斗,2024-07-07,23.877586,120.514222,0.15783407
C2G870,芳苑,2024-07-07,23.922303,120.320025,0.5536398
C2H950,中寮,2024-07-07,23.884447,120.766406,0.14285536
C2M410,馬頭山,2024-07-07,23.324361,120.582017,0.1688274
C2N160,西拉雅風管處,2024-07-07,23.189481,120.335297,0.112266
C2O810,曾文,2024-07-07,23.219681,120.497328,0.13005786
C2O930,玉井,2024-07-07,23.126042,120.46055,0.098663025
C2O950,安南,2024-07-07,23.076694,120.144861,0.17906566
C2V250,甲仙,2024-07-07,23.080106,120.591758,0.14828803
C2V260,月眉,2024-07-07,22.971003,120.539853,0.115885295
C2W230,畜試所澎湖,2024-07-07,23.628342,119.513206,0.616153
CAG100,王功漁港,2024-07-07,23.96824,120.32586,0.55780363
CAH030,茶改場竹圍站,2024-07-07,23.860083,120.637528,0.10889869
CAJ050,海口故事園區,2024-07-07,23.57543,120.14121,0.3062817
CAL110,布袋國中,2024-07-07,23.35893,120.18026,0.17996787
CAN130,水試所海水繁養殖中心,2024-07-07,23.120802,120.07968,0.2213459
CAN140,六官養殖協會,2024-07-07,23.22881,120.29962,0.12231468
CAQ030,崎峰國小,2024-07-07,22.42565,120.49521,0.13962092
E2K600,四湖植物園,2024-07-07,23.676986,120.163433,0.277477
E2P980,林試六龜中心,2024-07-07,22.991703,120.645722,0.26728317
E2S960,林試太麻里2,2024-07-07,22.598014,120.989761,0.2264262
E2S960,林試太麻里2,2024-07-07,22.598,120.99775,0.21996552
E2S980,林試太麻里1,2024-07-07,22.598922,120.980044,0.29222777
G2AI50,關渡,2024-07-07,25.11575,121.492,0.1251203
G2F820,農業試驗所,2024-07-07,24.031261,120.688133,0.093217224
G2F820,農試所(霧峰),2024-07-07,24.031261,120.688133,0.093217224
G2L020,農試嘉義分所,2024-07-07,23.485028,120.473806,0.2839043
G2M350,農試溪口農場,2024-07-07,23.58565,120.408111,0.30951974
G2P820,農試鳳山分所,2024-07-07,22.646611,120.356083,0.114314355
K2E360,苗栗農改,2024-07-07,24.495722,120.829111,0.5671226
K2E360,苗栗農改場,2024-07-07,24.495722,120.829111,0.5671226
K2E710,苗改生物防治研究中心,2024-07-07,24.422861,120.871833,0.61605483
K2F750,種苗改良場,2024-07-07,24.225972,120.800917,0.4677668
K2F750,種苗繁殖,2024-07-07,24.225972,120.800917,0.4677668
U2HA50,臺大竹山,2024-07-07,23.756972,120.681556,0.18293658
V2C250,八德合作社,2024-07-07,24.93775,121.266389,0.1282173
V2C260,八德蔬果,2024-07-07,24.978508,121.281819,0.09291172
V2K610,大庄合作社,2024-07-07,23.8068,120.367939,0.266754
V2K620,麥寮合作社,2024-07-07,23.753836,120.294783,0.25509948
