站號,站名,日期,lat,lon,BLBTSLS
C0R710,龍磐,2024-04-23,21.931672,120.838942,1.1189648e-07
C1F9D1,白毛台,2024-04-23,24.158325,120.886933,1.8970038e-08
C0G940,竹塘,2024-04-23,23.848253,120.386764,0.00051609165
467590,恆春,2024-04-23,22.003897,120.746339,1.1087868e-05
C1O850,環湖,2024-04-23,23.148617,120.418633,0.9924586
C0U710,太平山,2024-04-23,24.505486,121.525656,2.1636786e-09
C0E820,獅潭,2024-04-23,24.539133,120.920042,4.9995982e-08
C0V880,興達,2024-04-23,22.8778,120.2127,0.00034697
C0S890,關山,2024-04-23,23.0395,121.175017,0.0034398853
K2F750,種苗繁殖,2024-04-23,24.225972,120.800917,0.9845065
C1Z130,銅門,2024-04-23,23.965694,121.492842,7.2097523e-06
C0AD40,土城,2024-04-23,24.973208,121.445169,1.7840112e-07
CAN140,六官養殖協會,2024-04-23,23.22881,120.29962,0.94456345
C0X180,山上,2024-04-23,23.0757,120.363253,0.9951783
C0F9Z0,雪山東峰,2024-04-23,24.388792,121.268675,8.038504e-09
C1M480,獨立山,2024-04-23,23.537022,120.607797,0.997326
C0X220,學甲,2024-04-23,23.230367,120.182187,0.00012422608
C0R170,屏東,2024-04-23,22.660269,120.494072,0.9991863
467650,日月潭,2024-04-23,23.881325,120.90805,2.99784e-09
C0K600,箔子寮,2024-04-23,23.6197,120.14,1.9667112e-05
C0G830,埤頭,2024-04-23,23.866003,120.452806,0.92864376
C0S950,七塊厝,2024-04-23,22.954453,121.229922,2.534955e-07
467110,金門,2024-04-23,24.407306,118.289281,4.442259e-07
C0AH80,深坑,2024-04-23,25.002703,121.628328,9.725203e-08
467990,馬祖,2024-04-23,26.169269,119.923419,3.0800283e-08
C0A970,三貂角,2024-04-23,25.007606,122.002058,7.1480895e-07
C0K430,褒忠,2024-04-23,23.690938,120.303634,0.9752763
467480,嘉義,2024-04-23,23.495925,120.432906,0.99622756
C2E540,後龍,2024-04-23,24.606489,120.783933,1.5631526e-08
C0V400,阿公店,2024-04-23,22.804194,120.355528,0.9921308
C0R440,大漢山,2024-04-23,22.405264,120.753181,7.022493e-10
C0K280,四湖,2024-04-23,23.630414,120.227125,0.00024125398
C1F9B1,桐林,2024-04-23,24.066172,120.735194,6.628252e-06
C0K390,土庫,2024-04-23,23.679029,120.395574,0.99653363
C1I450,望鄉山,2024-04-23,23.594153,120.944286,3.1012481e-09
C0E910,海埔,2024-04-23,24.648767,120.772435,1.6663874e-08
B2E890,畜試北區分所,2024-04-23,24.527806,120.770972,2.1070575e-08
C0R750,四林格山,2024-04-23,22.076989,120.802439,1.7508839e-09
C0F0C0,中坑,2024-04-23,24.248517,120.903319,6.734557e-10
C1I121,大鞍,2024-04-23,23.678381,120.760017,8.1892315e-10
72U480,花改蘭陽分場,2024-04-23,24.686306,121.716583,0.008140864
C0A770,科教館,2024-04-23,25.096356,121.516507,1.4293407e-06
C0AJ60,六塊厝,2024-04-23,25.24,121.4481,9.836628e-09
C0R620,墾雷,2024-04-23,21.900836,120.855269,9.2520885e-08
467420,永康,2024-04-23,23.038386,120.2367,0.9962568
467300,東吉島,2024-04-23,23.25695,119.667467,3.4873922e-06
C0I410,名間,2024-04-23,23.837053,120.701447,0.9974835
A2C560,農工中心,2024-04-23,24.985917,121.239833,1.97189e-09
C0V740,旗山,2024-04-23,22.888614,120.483597,0.9987643
C0Z061,玉里,2024-04-23,23.3215,121.339656,2.2285083e-05
C0S840,南田,2024-04-23,22.279725,120.889208,2.8857312e-07
C1I470,杉林溪,2024-04-23,23.639517,120.786444,1.0432775e-09
C1X040,東原,2024-04-23,23.291597,120.463822,0.9990288
C0R660,枋寮,2024-04-23,22.367722,120.590647,0.002216127
C1R120,上德文,2024-04-23,22.763272,120.704442,3.815061e-08
C0K450,大埤,2024-04-23,23.646074,120.431537,0.99805164
C0UA00,土場,2024-04-23,24.576533,121.495333,5.2065675e-06
467080,宜蘭,2024-04-23,24.763975,121.756528,0.030505076
C0N030,四草,2024-04-23,23.0235,120.1116,0.0014276012
C0V650,彌陀,2024-04-23,22.783806,120.246361,0.026099043
C0D660,新竹市東區,2024-04-23,24.798681,120.986942,1.6075413e-09
82S580,茶改東部分場,2024-04-23,22.907694,121.130139,0.27983806
C0C710,大溪永福,2024-04-23,24.892936,121.324975,1.8034171e-08
C0FA20,溫寮,2024-04-23,24.372177,120.583125,5.092356e-08
C0V640,湖內,2024-04-23,22.887139,120.2445,0.00030854155
C0R910,下寮,2024-04-23,22.3929,120.5548,0.002216126
C0Z020,明里,2024-04-23,23.208717,121.262342,3.6014987e-07
C0M770,嘉義梅山,2024-04-23,23.585398,120.555587,0.99645066
G2F820,農業試驗所,2024-04-23,24.031261,120.688133,0.00046990256
C0C660,楊梅,2024-04-23,24.912375,121.143047,1.3254131e-09
C1E511,新開,2024-04-23,24.347703,120.827019,4.7931053e-08
G2F820,農試所(霧峰),2024-04-23,24.031261,120.688133,0.00046990256
C1I070,和社,2024-04-23,23.591131,120.888861,1.6224046e-08
C2F000,大肚,2024-04-23,24.15295,120.572117,7.907696e-08
C1S850,豐南,2024-04-23,23.122139,121.262389,9.7071675e-09
C2A920,富貴角,2024-04-23,25.263783,121.565258,3.3593688e-09
CAH030,茶改場竹圍站,2024-04-23,23.860083,120.637528,0.9909858
C0T960,光復,2024-04-23,23.660694,121.424964,0.004794266
C0F9M0,豐原,2024-04-23,24.254322,120.720692,3.0644307e-05
C0R720,旭海,2024-04-23,22.205403,120.887614,1.64911e-07
C0V710,苓雅,2024-04-23,22.622742,120.330669,0.0023004494
C0C740,觀音工業區,2024-04-23,25.064764,121.114856,4.2957478e-09
CAC040,拉拉山,2024-04-23,24.699317,121.427133,3.1908431e-09
C0V790,萬山,2024-04-23,22.905944,120.688056,0.9992694
U2HA30,臺大和社,2024-04-23,23.590856,120.888864,1.6224046e-08
C0AJ90,澳底,2024-04-23,25.0552,121.9253,1.3429619e-06
C0Z100,東華,2024-04-23,23.89525,121.549833,0.43467084
C0G970,三豐,2024-04-23,23.882,120.2895,8.92855e-09
V2K610,大庄合作社,2024-04-23,23.8068,120.367939,0.11894651
C0V900,汕尾,2024-04-23,22.4782,120.4151,0.90795666
C1R630,龍泉,2024-04-23,22.66701,120.59091,0.9970764
C1AC50,關渡,2024-04-23,25.133486,121.469331,7.888561e-09
C0F9I0,神岡,2024-04-23,24.272481,120.658314,3.7677385e-08
C0K460,斗南,2024-04-23,23.678734,120.478359,0.9980939
467410,臺南,2024-04-23,22.993239,120.204772,0.00075658143
C2O810,曾文,2024-04-23,23.219681,120.497328,0.9974939
467280,後龍,2024-04-23,24.648563,120.831834,1.2024054e-08
C1F9J1,清水林,2024-04-23,24.071242,120.820419,2.7130689e-09
C2A650,火燒寮,2024-04-23,25.002719,121.742892,1.2060114e-08
466930,竹子湖,2024-04-23,25.162078,121.544547,1.0678409e-09
C1I220,樟湖,2024-04-23,23.905333,120.846983,1.1960734e-09
C0I390,仁愛,2024-04-23,24.022122,121.132206,1.1329532e-09
C0Z300,東里,2024-04-23,23.26853,121.30547,3.2789656e-06
C0V310,美濃,2024-04-23,22.898742,120.519153,0.99875104
C1V590,新發,2024-04-23,23.057019,120.646064,7.215924e-07
C0K510,水林,2024-04-23,23.572924,120.24597,0.041289475
72S590,東改賓朗果園,2024-04-23,22.813889,121.071278,0.59325784
82A750,茶改北部分場,2024-04-23,24.955778,121.631222,2.0467292e-09
C1A750,石碇服務區,2024-04-23,25.00872,121.646242,5.2244086e-06
C0X300,鹿寮,2024-04-23,23.386047,120.477331,0.99442935
G2AI50,關渡,2024-04-23,25.11575,121.492,1.1762959e-08
C0K590,雲林東勢,2024-04-23,23.674192,120.255721,0.9543173
C0A570,桶後,2024-04-23,24.848222,121.597992,1.5627263e-08
C1S800,華源,2024-04-23,22.657883,121.02325,2.5867801e-05
C0G720,溪州,2024-04-23,23.851589,120.499093,0.9013058
C1V160,達卡努瓦,2024-04-23,23.279811,120.705319,5.4479155e-10
C2M410,馬頭山,2024-04-23,23.324361,120.582017,0.9993507
C0V850,蚵仔寮,2024-04-23,22.7256,120.2527,0.6724584
C0S740,池上,2024-04-23,23.119628,121.209469,1.6285185e-08
C1V390,尖山,2024-04-23,22.813153,120.367789,0.9914177
C0AH70,松山,2024-04-23,25.04871,121.55042,1.1559647e-06
C0N010,鯤鯓國小,2024-04-23,23.1879,120.0889,0.0021883901
C0R550,新埤,2024-04-23,22.467947,120.582894,0.89314115
C0SA60,知本（水試所）,2024-04-23,22.702394,121.082761,0.0009914974
C0T9I0,豐濱,2024-04-23,23.583897,121.514806,2.5740178e-06
C0UB00,淡江大學蘭陽校園,2024-04-23,24.823239,121.730383,7.0224564e-09
C0T9N0,富里,2024-04-23,23.171639,121.249378,2.9338025e-08
U2HA50,臺大竹山,2024-04-23,23.756972,120.681556,0.9969817
C0V840,鳳鼻頭,2024-04-23,22.5083,120.3591,0.028297314
C0X140,西港,2024-04-23,23.125608,120.203108,0.93461597
72D080,桃改五峰分場,2024-04-23,24.612194,121.157167,3.6004263e-10
C0V530,阿蓮,2024-04-23,22.883208,120.327508,0.9830812
C1O880,關山,2024-04-23,23.173397,120.594092,0.9984293
C0E791,卓蘭,2024-04-23,24.3126,120.8244,4.655141e-07
C1I030,武界,2024-04-23,23.913225,121.052483,3.0150487e-09
C0R520,崁頂,2024-04-23,22.514781,120.506914,0.99777275
C0R341,牡丹,2024-04-23,22.130036,120.792639,1.1007701e-06
C0R930,萬丹,2024-04-23,22.5885,120.4851,0.9990678
C0S760,紅石,2024-04-23,23.069131,121.126219,1.0070085e-09
C1M610,石磐龍,2024-04-23,23.496606,120.663506,3.0498779e-10
C0UA10,鴛鴦湖,2024-04-23,24.590269,121.412228,1.0719242e-09
V2C260,八德蔬果,2024-04-23,24.978508,121.281819,6.3297683e-09
C0R800,丹路,2024-04-23,22.204481,120.750989,1.782378e-06
C0G920,永靖,2024-04-23,23.924703,120.547533,0.0045917733
C1A630,下盆,2024-04-23,24.771003,121.538622,5.0782893e-09
B2N890,畜產試驗所,2024-04-23,23.058972,120.336406,0.9976289
C0UA30,白嶺,2024-04-23,24.527819,121.519031,1.7422858e-09
C1V580,溪南(特生中心),2024-04-23,23.084972,120.788475,8.294492e-10
C1T970,大農,2024-04-23,23.615233,121.413331,3.8619282e-07
E2S960,林試太麻里2,2024-04-23,22.598014,120.989761,0.15145116
C0R650,竹田,2024-04-23,22.58486,120.54344,0.9975283
C1H900,清流,2024-04-23,24.080775,120.962997,7.138934e-10
C1C510,水尾,2024-04-23,24.940081,121.087161,1.06555e-09
C0F9X0,大雅(中科園區),2024-04-23,24.21528,120.62445,3.2440063e-08
C0O970,虎頭埤,2024-04-23,23.021375,120.347878,0.9969583
C0C730,中大臨海站,2024-04-23,24.966126,121.008581,3.032541e-09
C0X250,新營,2024-04-23,23.310689,120.316681,0.9676252
C0V700,三民,2024-04-23,22.645017,120.311233,0.0006255071
C0U870,大礁溪,2024-04-23,24.791042,121.675047,6.299934e-09
C0E870,高鐵苗栗,2024-04-23,24.60725,120.826094,1.3782753e-08
A2K570,古坑花卉中心,2024-04-23,23.63353,120.55239,0.99561846
C0M860,新美,2024-04-23,23.338017,120.683169,0.002574742
C1E701,八卦,2024-04-23,24.491756,120.927619,3.6615517e-09
C0I420,國姓,2024-04-23,24.037803,120.855072,9.315427e-08
C0S960,香蘭,2024-04-23,22.587569,120.993375,0.15145116
C0R260,春日,2024-04-23,22.370361,120.628306,0.0003348671
72G600,臺中農改場,2024-04-23,24.003028,120.534389,9.715932e-05
C0Z210,瑞穗,2024-04-23,23.5239,121.39021,1.5219839e-05
C0M820,達邦,2024-04-23,23.453994,120.749517,9.907176e-10
C0V860,南寮,2024-04-23,22.7616,120.2339,0.6724584
C0G740,大城,2024-04-23,23.852487,120.320935,8.171714e-09
C0R920,塭仔,2024-04-23,22.4169,120.5197,0.0030302962
C0R470,高樹,2024-04-23,22.826389,120.600806,0.999224
C0R680,佳樂水,2024-04-23,21.993578,120.861633,9.576987e-06
C1O870,大棟山,2024-04-23,23.31157,120.52226,1.3008239e-09
C0D360,梅花,2024-04-23,24.678347,121.208558,9.900527e-10
C0Z190,富世,2024-04-23,24.14743,121.6297,2.1663077e-06
C0AI10,屈尺,2024-04-23,24.92184,121.54475,4.1765354e-05
B2U990,畜試東區分所,2024-04-23,24.669039,121.832561,0.09104508
C0R240,來義,2024-04-23,22.527306,120.625111,0.9985008
C1R610,西大武山,2024-04-23,22.617719,120.7322,1.1226022e-09
C0G900,線西,2024-04-23,24.143358,120.443536,3.8878433e-08
C0M700,竹崎,2024-04-23,23.526178,120.555508,0.99584293
C2E880,三義,2024-04-23,24.405478,120.749819,3.2701897e-09
C0C720,竹圍,2024-04-23,25.112692,121.239824,1.17693775e-08
C0F9P0,清水,2024-04-23,24.312297,120.562242,1.0411652e-07
C0Z150,吉安光華,2024-04-23,23.930925,121.595153,0.009397649
C1D640,外坪(五指山),2024-04-23,24.644447,121.090961,5.4295335e-10
C0F9O0,潭子,2024-04-23,24.213106,120.703933,0.000201613
72T250,花蓮農改場,2024-04-23,23.975222,121.563889,0.04806995
C0E780,銅鑼,2024-04-23,24.489681,120.790853,7.767771e-09
C1T950,太安,2024-04-23,23.666719,121.370128,4.8189346e-09
C0E830,苑裡,2024-04-23,24.439714,120.653053,2.0510837e-08
467270,田中,2024-04-23,23.873803,120.581286,0.99876815
C0SA10,檳榔四格山,2024-04-23,22.810031,121.109308,0.081250586
C1T830,布洛灣,2024-04-23,24.17184,121.57127,0.00096890464
C0F970,大坑,2024-04-23,24.173142,120.722289,1.3837782e-05
C1U920,思源,2024-04-23,24.393125,121.347214,8.812347e-10
C0A931,三和,2024-04-23,25.233153,121.595236,7.114728e-09
C0I010,廬山,2024-04-23,24.033311,121.181808,5.253809e-10
C0R860,鼻頭,2024-04-23,22.1043,120.8979,0.000677921
C0UB20,壯圍,2024-04-23,24.7359,121.8163,0.040416718
C0R790,九棚,2024-04-23,22.14195,120.889281,6.3672273e-06
C0W110,東莒,2024-04-23,25.9652,119.98069,1.6317552e-08
C1U930,粉鳥林,2024-04-23,24.497088,121.842479,0.22484331
C1I211,蘆竹湳,2024-04-23,23.934019,120.811994,5.6881763e-08
C0S830,長濱,2024-04-23,23.286817,121.411975,2.6959478e-07
C1F9F1,伯公龍,2024-04-23,24.272392,120.849047,0.093503274
C0E810,西湖,2024-04-23,24.562947,120.7485,2.7052198e-09
C1I440,新高口,2024-04-23,23.478744,120.878939,9.833923e-10
C0O840,王爺宮,2024-04-23,23.222064,120.40085,0.9972282
C0T9G0,鳳林山,2024-04-23,23.735269,121.420131,4.8370667e-09
C0X080,佳里,2024-04-23,23.173039,120.145086,0.0021883901
C0Z310,清水斷崖,2024-04-23,24.218294,121.689142,2.8361995e-08
C0M680,太保,2024-04-23,23.455062,120.331455,0.99526113
C1S820,金峰,2024-04-23,22.590969,120.933236,0.00066103565
C0AD10,八里,2024-04-23,25.150211,121.403947,1.17693775e-08
C2K240,草嶺,2024-04-23,23.59555,120.693461,2.860252e-10
C1SA70,都蘭,2024-04-23,22.87794,121.226881,0.9968917
C0K440,二崙,2024-04-23,23.772797,120.408944,0.9875817
C1A760,坪林交控,2024-04-23,24.94284,121.713442,3.9647134e-08
C0F9N0,大里,2024-04-23,24.092464,120.701378,0.00016190173
C0SA90,達仁林場,2024-04-23,22.264347,120.823972,3.5161207e-08
C1R290,石門山,2024-04-23,22.112611,120.756597,5.474921e-08
42HA10,萬大發電廠,2024-04-23,23.978875,121.139639,1.3262096e-09
C0R890,山海,2024-04-23,21.9878,120.7091,1.3335162e-05
C0T9A0,月眉山,2024-04-23,23.809928,121.539828,8.58444e-09
C0AC70,信義,2024-04-23,25.037822,121.564597,1.1559647e-06
C0K560,棋山,2024-04-23,23.68645,120.603417,0.9960345
C1Z240,中平林道,2024-04-23,23.42115,121.26763,1.9741517e-09
U2H480,溪頭,2024-04-23,23.670306,120.798194,2.926473e-10
C0M880,好美里,2024-04-23,23.3364,120.138,8.419886e-05
C0T9E0,大坑,2024-04-23,23.880628,121.581981,3.686494e-08
C0K530,臺西,2024-04-23,23.701547,120.197559,0.00013866021
C1E900,國一N128K,2024-04-23,24.560997,120.844186,1.2649188e-08
C0AJ50,水湳洞,2024-04-23,25.123695,121.862238,2.444388e-08
C0AI20,白沙灣,2024-04-23,25.283128,121.519058,8.641477e-09
C0A860,大坪,2024-04-23,25.165914,121.632969,1.6306093e-09
C1U850,觀音海岸,2024-04-23,24.38319,121.77856,8.1800104e-09
C0U950,鶯子嶺,2024-04-23,24.89754,121.79244,1.2946804e-09
C0O900,善化,2024-04-23,23.112883,120.297219,0.9975849
C0K550,蔦松,2024-04-23,23.514319,120.229736,0.00030005313
E2P980,林試六龜中心,2024-04-23,22.991703,120.645722,0.9991088
C0E590,通霄,2024-04-23,24.471892,120.704622,9.044072e-09
C1I310,西巒,2024-04-23,23.754486,120.883956,9.595627e-10
C0A550,泰平,2024-04-23,24.971197,121.823711,1.7865411e-09
C0I360,水里,2024-04-23,23.812553,120.849792,0.9993722
C0R830,高士,2024-04-23,22.121825,120.836781,1.0694823e-08
C1I101,溪頭,2024-04-23,23.661789,120.807647,1.4184284e-09
C0AJ20,野柳,2024-04-23,25.20703,121.690021,2.3709818e-07
C0B060,暖暖,2024-04-23,25.0957,121.7403,7.6290185e-08
C1H920,長豐,2024-04-23,24.102039,120.879897,1.1059444e-09
C0V360,內門,2024-04-23,22.975481,120.466769,0.9971048
C0R850,林邊,2024-04-23,22.4634,120.5339,0.9060459
C0E930,龍鳳,2024-04-23,24.700034,120.859125,3.5889576e-09
C0U910,冬山,2024-04-23,24.63373,121.7937,0.09104508
C1E721,泰安,2024-04-23,24.489017,120.968036,8.066269e-10
82H320,茶改中部分場,2024-04-23,23.875611,120.913583,9.490661e-09
C0M750,布袋,2024-04-23,23.380878,120.167789,0.001590006
C1S860,利嘉,2024-04-23,22.809417,121.050528,1.7887448e-08
72C440,桃園農改,2024-04-23,24.950944,121.030583,1.4145811e-09
E2S980,林試太麻里1,2024-04-23,22.598922,120.980044,0.06707901
C0X170,關廟,2024-04-23,22.963017,120.327797,0.99684745
C0V720,林園,2024-04-23,22.507747,120.394511,0.021921959
C1I510,線浸林道,2024-04-23,23.761508,120.832956,7.797247e-10
C0D690,外湖,2024-04-23,24.917735,120.968711,1.8489317e-09
C0C750,新興坑尾,2024-04-23,25.0061,121.0971,1.978581e-09
B2Q810,畜試南區分所,2024-04-23,21.945583,120.802167,1.1500717e-05
C0S790,金崙,2024-04-23,22.538122,120.966875,9.236384e-06
C0AH90,福山植物園,2024-04-23,24.760717,121.58135,8.567036e-09
C0I540,奇萊稜線,2024-04-23,24.109231,121.326456,4.415007e-09
C0M850,表湖,2024-04-23,23.24186,120.64166,4.2717527e-08
C0S770,大溪山,2024-04-23,22.478475,120.943325,6.353479e-08
C0AG80,中和,2024-04-23,24.991622,121.491792,1.7837901e-07
C0T790,大禹嶺,2024-04-23,24.186117,121.316086,4.206253e-09
C0T9B0,水源,2024-04-23,23.991861,121.537169,4.464452e-09
C0R840,牡丹池山,2024-04-23,22.168389,120.841225,1.4686272e-09
C1I131,桶頭,2024-04-23,23.641944,120.654117,0.99785817
CAL110,布袋國中,2024-04-23,23.35893,120.18026,0.001590006
467571,新竹,2024-04-23,24.827853,121.014219,1.3798502e-09
C0Z290,赤柯山,2024-04-23,23.36893,121.38293,1.7274351e-09
C0X280,將軍,2024-04-23,23.214999,120.13577,0.00015675918
C0S690,太麻里,2024-04-23,22.60902,120.98533,1.23003e-08
C0U880,北關,2024-04-23,24.9072,121.8734,0.00011119525
C1H860,瑞岩,2024-04-23,24.123772,121.18345,1.7873353e-09
C0G810,埔心,2024-04-23,23.947633,120.525456,0.0045917733
C0U970,大福,2024-04-23,24.80064,121.81389,0.049961828
C1E670,南礦,2024-04-23,24.538278,121.002836,3.9271533e-10
C0M520,東後寮,2024-04-23,23.369908,120.248065,0.001201761
C1E461,松安,2024-04-23,24.397972,120.986022,6.6707e-10
72G600,臺中農改,2024-04-23,24.003028,120.534389,9.715932e-05
C2N160,西拉雅風管處,2024-04-23,23.189481,120.335297,0.99770075
C0A640,石碇,2024-04-23,24.993969,121.662917,2.9067328e-08
E2S960,林試太麻里2,2024-04-23,22.598,120.99775,0.15235874
C0F9Y0,桃山,2024-04-23,24.432739,121.303808,7.0861654e-09
C1I020,萬大,2024-04-23,23.979817,121.132261,1.1108259e-09
C0U940,羅東,2024-04-23,24.68184,121.74934,0.015800823
C0M650,朴子,2024-04-23,23.43463,120.23902,0.1436756
C1I500,大尖山,2024-04-23,23.858572,120.994889,1.412761e-09
C0G820,田尾,2024-04-23,23.901669,120.509389,0.0045917733
E2K600,四湖植物園,2024-04-23,23.676986,120.163433,0.00024125398
C0S730,綠島,2024-04-23,22.6672,121.47533,1.19167125e-05
12Q970,東港工作站,2024-04-23,22.479997,120.466058,0.90795666
C0E430,南庄,2024-04-23,24.601775,121.000214,4.587583e-08
C1TA00,太魯閣,2024-04-23,24.15773,121.6236,4.6895494e-07
466920,臺北,2024-04-23,25.037658,121.514853,1.1559647e-06
C0R600,舊泰武,2024-04-23,22.588194,120.664944,1.0911648e-05
C1I260,北坑,2024-04-23,23.9246,121.006903,2.2254198e-08
466910,鞍部,2024-04-23,25.182586,121.529731,1.4747774e-09
C1I230,九份二山,2024-04-23,23.961944,120.845,8.594204e-09
C2A660,瑞芳,2024-04-23,25.113169,121.801147,8.044901e-09
C0R270,琉球嶼,2024-04-23,22.332244,120.362236,1.3361065e-07
C1T990,高寮,2024-04-23,23.394239,121.356808,0.57460266
C0G620,芬園,2024-04-23,24.015678,120.6213,8.15334e-05
C1Z140,荖溪,2024-04-23,23.890575,121.45964,4.7753725e-09
C1I201,中心崙,2024-04-23,23.728722,120.712097,0.70533746
C1I400,凌霄,2024-04-23,24.018778,121.004456,5.3745236e-10
C1M640,十字,2024-04-23,23.492153,120.753683,5.9165445e-10
G2P820,農試鳳山分所,2024-04-23,22.646611,120.356083,0.0004976744
C0Z270,蕃薯寮,2024-04-23,23.73835,121.540108,2.5394596e-05
C0F9Q0,外埔,2024-04-23,24.347817,120.705686,4.3780034e-08
C0K580,高鐵雲林,2024-04-23,23.737456,120.417944,0.9966197
C2I090,鳳凰,2024-04-23,23.728081,120.787347,4.0705678e-10
C0U990,員山,2024-04-23,24.74435,121.72247,0.020579984
C0V770,大社,2024-04-23,22.730306,120.346639,0.57886565
C0X120,麻豆,2024-04-23,23.183289,120.248611,0.9749832
C0C670,龍潭,2024-04-23,24.870056,121.221389,2.974499e-09
C0D680,香山濕地,2024-04-23,24.783581,120.914988,2.8002805e-09
C0S980,勝林山,2024-04-23,22.430439,120.8938,9.654667e-10
C0V730,大寮,2024-04-23,22.605614,120.395717,0.0018097475
C0R570,麟洛,2024-04-23,22.65078,120.52719,0.9991863
CAG100,王功漁港,2024-04-23,23.96824,120.32586,1.1180961e-08
C0X290,北門,2024-04-23,23.267772,120.125481,0.00015675918
C2F930,大甲,2024-04-23,24.347667,120.640403,1.3657795e-08
C0D650,湖口,2024-04-23,24.904794,121.043628,1.1060457e-09
C0E420,竹南,2024-04-23,24.708978,120.888897,1.9808126e-09
C0U780,五結,2024-04-23,24.68637,121.79794,0.040416718
C1I250,鯉潭,2024-04-23,23.961922,120.991131,1.036252e-07
C0R130,阿禮,2024-04-23,22.742908,120.743678,2.3693887e-09
C0X100,臺南市北區,2024-04-23,23.010394,120.194228,0.0011393506
C0S920,金峰嘉蘭,2024-04-23,22.594789,120.960825,0.0521552
C0V490,新興,2024-04-23,22.627422,120.298803,0.0022907583
C0F9K0,大安,2024-04-23,24.345061,120.588025,3.732034e-08
72N100,臺南農改,2024-04-23,23.0605,120.342194,0.9976289
467290,古坑,2024-04-23,23.633639,120.551889,0.99561846
C0V440,鳳山,2024-04-23,22.646653,120.356122,0.00049767486
C1T940,大觀,2024-04-23,23.714206,121.373133,2.6439615e-08
72T250,花蓮農改,2024-04-23,23.975222,121.563889,0.04806995
C0E740,造橋,2024-04-23,24.637056,120.864778,1.3782753e-08
C0R100,尾寮山,2024-04-23,22.833111,120.683889,6.328127e-09
A2K630,臺大雲林校區,2024-04-23,23.730628,120.423903,0.99662906
C0D580,寶山,2024-04-23,24.735006,121.025192,1.869486e-08
E2P990,林試扇平站,2024-04-23,22.9677,120.6857,0.000120685996
C0AI30,三重,2024-04-23,25.057328,121.500629,1.4293395e-06
C0AH00,汐止,2024-04-23,25.066881,121.658778,1.1559647e-06
C1Z040,立山,2024-04-23,23.443356,121.327375,4.651165e-07
C0R740,獅子,2024-04-23,22.201569,120.70525,2.1386662e-05
C0W130,花嶼,2024-04-23,23.40007,119.32276,4.7569299e-07
C0A950,鼻頭角,2024-04-23,25.129036,121.923372,1.762178e-07
C0K470,林內,2024-04-23,23.748675,120.609642,0.99545324
82C160,茶改場,2024-04-23,24.908472,121.185333,1.0437472e-09
C0Z320,清水林道,2024-04-23,23.27125,121.188272,3.4794128e-09
C0R760,南仁湖,2024-04-23,22.084681,120.863353,5.474921e-08
C0M670,大林,2024-04-23,23.600616,120.45841,0.9970452
C0M800,茶山,2024-04-23,23.299075,120.664767,0.9366614
C0A9C0,天母,2024-04-23,25.117494,121.537169,2.2845994e-08
72K220,南改斗南分場,2024-04-23,23.634556,120.477333,0.9980939
72AI40,桃改樹林分場,2024-04-23,24.944503,121.386972,8.417952e-09
C0S910,蘭嶼燈塔,2024-04-23,22.081197,121.503117,2.1587582e-07
C0B050,八斗子,2024-04-23,25.144754,121.79167,3.773715e-08
C0U900,內城,2024-04-23,24.71813,121.68766,0.0027961938
C0X320,柳營,2024-04-23,23.253328,120.375253,0.9968268
C0M790,新港,2024-04-23,23.553269,120.345728,0.9859637
C0F9T0,西屯,2024-04-23,24.179494,120.641275,6.421913e-08
C0SA30,都歷,2024-04-23,23.020333,121.323642,0.987034
C0C620,蘆竹,2024-04-23,25.084275,121.265767,7.607931e-09
C0R730,大坪頂,2024-04-23,22.024633,120.69355,9.629821e-06
C0AJ40,石門,2024-04-23,25.273672,121.601198,4.082996e-09
C0E750,苗栗,2024-04-23,24.564569,120.824575,1.4350423e-08
C0T870,鯉魚潭,2024-04-23,23.935639,121.508944,3.8597485e-05
C1V170,排雲,2024-04-23,23.463619,120.954147,5.3876015e-09
C2H950,中寮,2024-04-23,23.884447,120.766406,0.99747694
C0R350,貓鼻頭,2024-04-23,21.921774,120.7358,2.6600196e-06
C0V660,岡山,2024-04-23,22.797078,120.294958,0.026099043
C1H941,雙冬,2024-04-23,23.967378,120.802189,1.6581756e-08
C0AJ70,田寮,2024-04-23,25.2698,121.4886,9.008882e-09
C0AI00,五股,2024-04-23,25.07445,121.42728,3.869406e-09
C0Z280,德武,2024-04-23,23.47426,121.41071,5.4632346e-06
C0R700,枋山,2024-04-23,22.246844,120.661086,0.00025276205
C0C460,復興,2024-04-23,24.820208,121.352281,1.6735532e-09
E2H360,蓮華池,2024-04-23,23.918333,120.885278,5.7798544e-09
C0M640,中埔,2024-04-23,23.42538,120.5229,0.99481475
C0W140,金沙,2024-04-23,24.488292,118.408778,9.707169e-07
C2A540,四堵,2024-04-23,24.8926,121.745736,9.116814e-09
C0ACA0,新莊,2024-04-23,25.051478,121.446756,3.3413951e-07
C0R220,潮州,2024-04-23,22.534361,120.54,0.9979239
U2HA40,臺大內茅埔,2024-04-23,23.689722,120.851117,1.24489254e-08
467490,臺中,2024-04-23,24.145736,120.684075,0.00020889583
C0U960,翠峰湖,2024-04-23,24.510856,121.608044,3.0336693e-09
E2HA20,林試畢祿溪站,2024-04-23,24.226944,121.308522,3.9009445e-09
C0V890,前鎮,2024-04-23,22.5718,120.3117,0.0025811938
467620,蘭嶼,2024-04-23,22.036969,121.558339,4.0440362e-08
C1F941,雪嶺,2024-04-23,24.280586,121.026642,6.7539583e-09
C0AC80,文山,2024-04-23,25.00235,121.575728,9.725203e-08
C0F9R0,龍井,2024-04-23,24.184536,120.528972,6.0306085e-08
C0M760,民雄,2024-04-23,23.551754,120.428457,0.9970537
C0UA40,西德山,2024-04-23,24.560647,121.752608,3.733207e-09
C1T920,中興,2024-04-23,23.769503,121.498653,0.8762518
C0D550,雪霸,2024-04-23,24.526972,121.11605,8.594724e-10
C2F860,梨山,2024-04-23,24.247522,121.243669,4.06676e-09
C0R320,車城,2024-04-23,22.0744,120.716247,7.705664e-06
C1S870,南美山,2024-04-23,23.15025,121.382333,3.077198e-08
C0B020,基隆嶼,2024-04-23,25.19141,121.78391,9.390654e-09
C1U501,牛鬥,2024-04-23,24.637836,121.573656,1.9435468e-07
C0M730,嘉義市東區,2024-04-23,23.457673,120.460531,0.9870853
C0S700,知本,2024-04-23,22.684866,121.005642,5.0795292e-09
C1N001,沙崙,2024-04-23,22.935472,120.309406,0.9967836
C0V760,橋頭,2024-04-23,22.757806,120.30575,0.6365868
C0G960,福寶,2024-04-23,24.0443,120.3814,4.8096535e-08
C0X210,白河,2024-04-23,23.347466,120.414427,0.9928773
C0S810,東河,2024-04-23,22.972672,121.303986,3.9652048e-05
C0R670,楓港,2024-04-23,22.190131,120.692156,0.00027224026
C0FA50,霧峰,2024-04-23,24.0419,120.6995,0.0003070901
C0UB10,蘇澳,2024-04-23,24.5969,121.8571,0.8581338
C0G950,防潮門,2024-04-23,24.1835,120.4871,6.026734e-08
C0M740,六腳,2024-04-23,23.492871,120.290625,0.8824273
C1R250,力里,2024-04-23,22.428117,120.629228,0.9948269
C0K330,虎尾,2024-04-23,23.719183,120.442036,0.9959496
C2FA00,烏石坑,2024-04-23,24.273503,120.947617,7.3229633e-10
C0V620,永安,2024-04-23,22.82315,120.236856,0.026099043
C1I330,楓樹林,2024-04-23,23.986803,121.076117,6.8739625e-10
C0W200,湖西,2024-04-23,23.596314,119.67275,4.808659e-07
72Q010,高雄農改場,2024-04-23,22.709333,120.525889,0.9985728
C0SA40,瑞和,2024-04-23,22.974361,121.156697,0.02515895
C0C680,龜山,2024-04-23,25.02846,121.38656,2.2066522e-09
C2V260,月眉,2024-04-23,22.971003,120.539853,0.9991854
C0V450,鳳森,2024-04-23,22.545064,120.392592,0.0043992233
C0U720,南山,2024-04-23,24.43742,121.38167,8.874622e-10
A2N290,臺南蘭花園區,2024-04-23,23.340258,120.379661,0.99153256
C0R560,新園,2024-04-23,22.5434,120.461558,0.021921959
C0U890,三星,2024-04-23,24.66812,121.65302,0.000723466
C1V300,御油山,2024-04-23,23.001983,120.715364,9.405132e-10
C0U600,礁溪,2024-04-23,24.817539,121.765608,0.01807404
C1T980,龍澗,2024-04-23,24.023289,121.411328,4.9690696e-09
C0D670,海天一線,2024-04-23,24.831986,120.914438,4.6882906e-09
C0SA00,歷坵,2024-04-23,22.520969,120.89185,2.62648e-08
C0M710,東石,2024-04-23,23.458927,120.15385,4.546192e-06
C0M780,鹿草,2024-04-23,23.41134,120.30835,0.1302932
C0U520,雙連埤,2024-04-23,24.753033,121.641303,6.222798e-09
C0B010,七堵,2024-04-23,25.094819,121.71713,4.0385987e-07
C0R480,長治,2024-04-23,22.693128,120.542622,0.95448875
C1V830,國三S383K,2024-04-23,22.781967,120.426475,0.998603
12Q980,恆春工作站,2024-04-23,22.079678,120.714425,7.705664e-06
C1O940,東山服務區,2024-04-23,23.286016,120.398472,0.9949542
C1U840,東澳嶺,2024-04-23,24.5378,121.8485,7.300208e-09
C1D630,飛鳳山,2024-04-23,24.766464,121.119178,2.003921e-09
C0S940,石寧山,2024-04-23,23.223772,121.406639,2.6826885e-05
C0K410,北港,2024-04-23,23.573957,120.292802,0.033374622
C2M620,瑞里,2024-04-23,23.545133,120.675197,2.9171549e-10
C2O950,安南,2024-04-23,23.076694,120.144861,0.0014376726
C0F0E0,南湖圈谷,2024-04-23,24.363714,121.444667,8.301904e-09
467610,成功,2024-04-23,23.097486,121.373428,1.6985641e-06
C0G890,伸港,2024-04-23,24.148933,120.484403,3.8878433e-08
C2E540,龍溪,2024-04-23,24.606489,120.783933,1.5631526e-08
C1V200,梅山,2024-04-23,23.268447,120.823556,9.244516e-06
C0T9H0,加路蘭山,2024-04-23,23.682947,121.5274,3.514979e-09
C2O930,玉井,2024-04-23,23.126042,120.46055,0.9952568
C1F911,新伯公,2024-04-23,24.221361,120.841069,0.9972902
C0R490,九如,2024-04-23,22.7405,120.490503,0.99850184
C0X200,左鎮,2024-04-23,23.056758,120.408522,0.9967798
C1F891,稍來,2024-04-23,24.265689,121.001142,2.6292557e-09
72N240,七股研究中心,2024-04-23,23.081672,120.062894,0.0018567003
C0C700,中壢,2024-04-23,24.977661,121.256375,4.2635375e-09
C0M690,水上,2024-04-23,23.419734,120.388909,0.995231
C0V690,鼓山,2024-04-23,22.623325,120.275575,0.0022907583
C0O860,大內,2024-04-23,23.11885,120.36083,0.99763286
C0Z200,萬榮,2024-04-23,23.709219,121.420106,0.73254025
C0T9D0,和中,2024-04-23,24.26676,121.74103,0.99387956
C1O921,楠西,2024-04-23,23.183511,120.484083,0.99377215
C0AJ30,淡水觀海,2024-04-23,25.184591,121.408616,2.4721404e-08
C0V810,左營,2024-04-23,22.67491,120.28491,0.0006255071
C0UA70,桃源谷,2024-04-23,24.962606,121.888875,1.1780444e-09
C0X130,官田,2024-04-23,23.193217,120.315422,0.99761415
C1H000,翠峰,2024-04-23,24.109397,121.205211,1.1430462e-09
C0UA90,石城,2024-04-23,24.980444,121.951214,1.3410727e-05
C1E681,南勢山,2024-04-23,24.421669,120.923831,1.1872907e-09
C0A9F0,內湖,2024-04-23,25.079422,121.57545,1.1559647e-06
C0K291,宜梧,2024-04-23,23.536281,120.169329,0.00030005313
C1K540,口湖,2024-04-23,23.585344,120.180517,1.9703026e-05
C0R780,滿州,2024-04-23,22.024403,120.839892,6.8202935e-06
C0V870,文安,2024-04-23,22.8025,120.2164,0.030714508
C0U650,玉蘭,2024-04-23,24.675286,121.587061,1.703362e-08
C0R640,東港,2024-04-23,22.46247,120.44074,0.90795666
K2E360,苗栗農改,2024-04-23,24.495722,120.829111,1.3971603e-08
C0AJ80,板橋,2024-04-23,25.0107,121.4489,2.3190441e-07
C0S660,下馬,2024-04-23,23.150427,121.070312,1.4854515e-09
C1H9B1,阿眉,2024-04-23,24.1263,120.994672,2.4366549e-09
C0UA20,多加屯,2024-04-23,24.368614,121.373189,3.755948e-09
C0E730,頭份,2024-04-23,24.688247,120.912206,2.48735e-09
72V140,高改旗南分場,2024-04-23,22.857861,120.516667,0.99875104
C0K480,莿桐,2024-04-23,23.761192,120.502372,0.9991088
C0U980,坪林石牌,2024-04-23,24.86478,121.77396,2.6891178e-09
C0T900,西林,2024-04-23,23.8119,121.441458,0.009275176
C1I150,青雲,2024-04-23,23.793361,120.949378,4.325309e-06
467350,澎湖,2024-04-23,23.565503,119.563094,7.0737104e-07
C0G800,埔鹽,2024-04-23,24.000394,120.431683,2.9473037e-07
C0H960,草屯,2024-04-23,23.973672,120.68085,0.000104724975
C1V780,多納林道,2024-04-23,22.888028,120.737917,2.9205747e-09
C0E920,通霄漁港,2024-04-23,24.498589,120.673876,1.3096324e-08
C0Z330,安通山,2024-04-23,23.290728,121.348528,2.9600276e-09
C0AH10,永和,2024-04-23,25.01125,121.508111,2.3190441e-07
C2G640,鹿港,2024-04-23,24.0753,120.430481,4.8096535e-08
C1E890,國三N149K,2024-04-23,24.463414,120.680019,1.1925567e-08
C1R110,口社,2024-04-23,22.770111,120.645222,0.99790174
C1M870,國三N285K,2024-04-23,23.550319,120.505833,0.9955101
467050,新屋,2024-04-23,25.006744,121.047486,2.6611569e-09
C1E480,鳳美,2024-04-23,24.554803,121.034747,4.5416813e-09
C0M530,奮起湖,2024-04-23,23.493903,120.699253,3.0294525e-10
C0C590,觀音,2024-04-23,25.027072,121.153317,2.6281275e-09
C0T9M0,靜浦,2024-04-23,23.455167,121.495028,0.18401322
C0AI40,石牌,2024-04-23,25.115597,121.513139,2.6167294e-08
C1F871,上谷關,2024-04-23,24.203483,121.018644,5.870983e-10
C0G880,二水,2024-04-23,23.810742,120.6173,0.9925117
C0R940,加祿堂,2024-04-23,22.3363,120.6217,0.0031083317
C0W220,北竿,2024-04-23,26.220358,119.974881,2.5815272e-08
C0O960,崎頂,2024-04-23,22.959547,120.369317,0.99692607
C0S750,向陽,2024-04-23,23.248397,120.986133,1.043182e-09
C0T9F0,水璉,2024-04-23,23.797131,121.542514,1.1097739e-05
C1M600,頭凍,2024-04-23,23.406364,120.603339,2.1850326e-09
467660,臺東,2024-04-23,22.752211,121.154586,0.9992921
C1D380,新埔,2024-04-23,24.84745,121.03834,9.2951685e-10
C0V750,路竹,2024-04-23,22.854997,120.259439,0.000214822
C0N050,蚵寮,2024-04-23,23.301,120.1104,8.407209e-05
72M700,南改鹿草分場,2024-04-23,23.416869,120.283061,0.1436756
C1SA50,利嘉林道,2024-04-23,22.82325,121.009389,4.854218e-10
467550,玉山,2024-04-23,23.487614,120.959522,9.625859e-09
C0A940,金山,2024-04-23,25.223628,121.643967,1.47525e-07
C1V340,大津,2024-04-23,22.888322,120.645986,0.9992481
C0W180,七美,2024-04-23,23.219333,119.444892,4.9587084e-06
C1F9C1,白冷,2024-04-23,24.182844,120.929889,0.058211237
K2E710,苗改生物防治研究中心,2024-04-23,24.422861,120.871833,4.236578e-08
C0N040,蘆竹溝,2024-04-23,23.2344,120.0961,0.00015675918
C2W230,畜試所澎湖,2024-04-23,23.628342,119.513206,3.4194306e-07
C0R880,後壁湖,2024-04-23,21.9457,120.7457,1.5529407e-05
C1I280,埔中,2024-04-23,23.820778,120.642594,0.99624276
467790,墾丁雷達站,2024-04-23,21.948235,120.808028,3.855746e-06
C0W190,望安,2024-04-23,23.380564,119.494075,8.9180674e-07
466881,新北,2024-04-23,24.9593,121.52,1.6722163e-07
C0Z170,卓溪,2024-04-23,23.3443,121.3029,0.00038212957
C0F850,東勢,2024-04-23,24.246428,120.833047,1.7802552e-07
466900,淡水,2024-04-23,25.164889,121.448906,1.0904511e-08
C0I370,魚池,2024-04-23,23.895703,120.94135,6.653422e-09
C0C630,大溪,2024-04-23,24.882853,121.265547,4.629492e-09
C0A520,山佳,2024-04-23,24.974944,121.402008,2.1698399e-07
C0I110,竹山,2024-04-23,23.761225,120.688156,0.9961852
82H840,茶改南部分場,2024-04-23,23.762528,120.7405,0.998041
C0G660,溪湖,2024-04-23,23.94835,120.479122,0.0060559204
C1T800,洛韶,2024-04-23,24.204558,121.453956,5.090149e-09
C1T810,慈恩,2024-04-23,24.192044,121.388386,6.882044e-10
C1E451,象鼻,2024-04-23,24.368617,120.940228,1.9725108e-09
C0AC60,三峽,2024-04-23,24.939025,121.369728,6.5000023e-09
C0I490,萬大林道,2024-04-23,23.928228,121.091411,5.6257954e-10
C1I290,豐丘,2024-04-23,23.668178,120.887417,2.9739078e-10
C1I320,奧萬大,2024-04-23,23.952956,121.178556,6.3535943e-10
C0U770,南澳,2024-04-23,24.44935,121.81022,5.6325666e-06
C0A980,社子,2024-04-23,25.109508,121.469681,1.4367951e-08
C0V800,六龜,2024-04-23,22.997889,120.633583,0.99921644
C1G9D0,國一S218K,2024-04-23,23.890641,120.493253,0.92864376
C2F9A0,中竹林,2024-04-23,24.103556,120.751061,9.075439e-08
C0FA40,臺中電廠,2024-04-23,24.2146,120.4907,6.0306085e-08
C0H9C0,合歡山,2024-04-23,24.143442,121.272547,7.875632e-09
C0X060,下營,2024-04-23,23.22695,120.256261,0.94456345
G2M350,農試溪口農場,2024-04-23,23.58565,120.408111,0.9970224
C0U860,頭城,2024-04-23,24.85323,121.8308,0.03317428
C0R580,南州,2024-04-23,22.48591,120.50274,0.90795684
C0D430,峨眉,2024-04-23,24.6905,121.017189,4.8457376e-09
C0G780,秀水,2024-04-23,24.03405,120.503869,9.688379e-05
72N100,臺南農改場,2024-04-23,23.0605,120.342194,0.9976289
C0S900,蘭嶼高中,2024-04-23,22.04909,121.51214,3.0719352e-07
467540,大武,2024-04-23,22.355675,120.903789,0.02250052
C1F9W0,德基,2024-04-23,24.254783,121.190261,1.8679953e-09
C1Z120,壽豐,2024-04-23,23.870853,121.508081,0.43467084
C0W160,烏坵,2024-04-23,24.9944,119.44956,2.6364983e-08
C1I240,外大坪,2024-04-23,23.958697,120.917931,5.3683404e-08
C1I550,國六W023K,2024-04-23,23.979067,120.867742,2.8650223e-07
C0R870,興海,2024-04-23,21.9752,120.8439,1.1500717e-05
C0R140,瑪家,2024-04-23,22.682903,120.686639,7.1799856e-05
C0A530,坪林,2024-04-23,24.938183,121.70975,1.5232189e-08
C0X260,後壁,2024-04-23,23.366358,120.362326,0.9915285
C0Z230,和平,2024-04-23,24.30717,121.77007,0.9955538
C0G770,福興,2024-04-23,24.041289,120.437669,2.9473037e-07
C0H9A0,神木村,2024-04-23,23.532742,120.843667,5.968251e-10
C0I460,南投,2024-04-23,23.911469,120.687331,0.14860971
C0I480,梅峰,2024-04-23,24.085272,121.173572,9.914644e-10
C1V570,吉東,2024-04-23,22.85422,120.5454,0.99879956
C2A560,福山,2024-04-23,24.776203,121.502811,7.339765e-08
C0AH30,五分山,2024-04-23,25.07125,121.780794,6.739774e-10
C0FA10,松柏,2024-04-23,24.429115,120.617482,2.6528925e-08
72S200,東改班鳩分場,2024-04-23,22.829528,121.077694,0.8965889
72HA00,中改埔里分場,2024-04-23,23.903208,120.963364,9.952427e-09
C0C650,平鎮,2024-04-23,24.897503,121.214636,1.544304e-09
C0S930,延平,2024-04-23,22.902581,121.084058,0.0071660043
C0UA60,樟樹山,2024-04-23,24.41393,121.78325,2.3522284e-06
C1S670,摩天,2024-04-23,23.199503,121.027,1.2278215e-09
C0V630,茄萣,2024-04-23,22.906642,120.182608,0.00034697
466940,基隆,2024-04-23,25.133314,121.740475,3.364218e-08
C0X050,東河,2024-04-23,23.296598,120.385608,0.9944386
C0R770,保力,2024-04-23,22.071122,120.764111,0.0003062069
G2L020,農試嘉義分所,2024-04-23,23.485028,120.473806,0.9938165
C0X240,關子嶺,2024-04-23,23.331169,120.508025,0.9994537
C0I380,集集,2024-04-23,23.828206,120.801467,0.999371
466990,花蓮,2024-04-23,23.975128,121.613275,0.058852546
C1V220,小關山,2024-04-23,23.154217,120.813603,8.7999347e-10
C1F9G1,慶福山,2024-04-23,24.180853,120.848378,4.904794e-09
C0Z250,瑞穗林道,2024-04-23,23.49284,121.30688,2.7815161e-09
C0D590,新豐,2024-04-23,24.87068,120.97721,2.6910008e-09
C0A870,五指山,2024-04-23,25.132153,121.608692,1.0432218e-09
C0UA50,西帽山,2024-04-23,24.555361,121.802628,8.972305e-09
C0X160,仁德,2024-04-23,22.968258,120.257689,0.04681957
C1H971,六分寮,2024-04-23,23.92507,120.6378,5.878945e-08
C0W120,西嶼,2024-04-23,23.5626,119.468436,6.144944e-07
C0G650,員林,2024-04-23,23.946503,120.585597,0.94732696
C0AD50,鶯歌,2024-04-23,24.951533,121.346294,4.86915e-09
C0S990,山豬窟,2024-04-23,22.318619,120.857372,5.5513674e-08
72Q010,高雄農改,2024-04-23,22.709333,120.525889,0.9985728
C0X190,安平,2024-04-23,22.993161,120.152181,0.0011416115
C0K400,斗六,2024-04-23,23.720583,120.541127,0.99884796
12J990,口湖工作站,2024-04-23,23.589978,120.180394,1.9667112e-05
C0O830,北寮,2024-04-23,23.079561,120.495008,0.9976358
C1D410,白蘭,2024-04-23,24.579364,121.079947,4.086336e-10
C0S970,加津林,2024-04-23,22.416211,120.926942,0.011165547
C0D700,關西,2024-04-23,24.7977,121.1732,3.7539283e-09
C0M810,里佳,2024-04-23,23.389125,120.716647,5.7516986e-10
C0U750,龜山島,2024-04-23,24.841667,121.953133,3.404957e-09
C0R810,內獅,2024-04-23,22.305064,120.642986,0.0038626331
C1M390,龍美,2024-04-23,23.406728,120.654417,8.4024837e-10
C1H840,國三N238K,2024-04-23,23.841008,120.707711,0.99570554
CAQ030,崎峰國小,2024-04-23,22.42565,120.49521,0.90795666
C2E520,大湖,2024-04-23,24.414939,120.870872,2.6655623e-08
467530,阿里山,2024-04-23,23.508208,120.813242,2.4975093e-09
C1E691,南湖,2024-04-23,24.40135,120.837533,5.891795e-09
C0FA30,梧棲,2024-04-23,24.256003,120.523381,1.0411652e-07
C1V231,高中,2024-04-23,23.134911,120.716711,5.7236616e-06
C0F9V0,新社,2024-04-23,24.200172,120.815806,0.870966
C0H890,埔里,2024-04-23,23.972169,120.952425,4.0439822e-08
C0R690,墾丁,2024-04-23,21.966756,120.810269,5.1213046e-08
C0F0D0,審馬陣,2024-04-23,24.381675,121.4203,6.6488295e-09
C0R820,白鷺,2024-04-23,22.454275,120.666219,9.295452e-10
U2H480,臺大溪頭,2024-04-23,23.670306,120.798194,2.926473e-10
C1V190,南天池,2024-04-23,23.27403,120.91176,8.3528046e-10
K2E360,苗栗農改場,2024-04-23,24.495722,120.829111,1.3971603e-08
CAJ050,海口故事園區,2024-04-23,23.57543,120.14121,1.9667112e-05
C0O990,媽廟,2024-04-23,22.99175,120.293525,0.99583125
C0D480,打鐵坑,2024-04-23,24.849664,121.150789,2.9337228e-09
C0Z220,和平林道,2024-04-23,24.343922,121.656317,1.9219442e-08
72C440,桃園農改場,2024-04-23,24.950944,121.030583,1.4145811e-09
C1E711,馬拉邦山,2024-04-23,24.367306,120.901656,1.4481959e-09
C0D560,竹東,2024-04-23,24.767147,121.057881,4.6184145e-09
C0F9U0,南屯,2024-04-23,24.137006,120.637969,1.4823043e-07
C0M720,番路,2024-04-23,23.464657,120.554156,0.99668604
C0F0A0,雪山圈谷,2024-04-23,24.388594,121.236339,1.1487556e-08
C1A9N0,四十份,2024-04-23,24.934158,121.593283,1.5840381e-09
C0U760,東澳,2024-04-23,24.52196,121.83318,0.11263161
C0X230,鹽水,2024-04-23,23.272621,120.247641,6.765034e-05
C0V370,古亭坑,2024-04-23,22.893178,120.401947,0.9964196
C1I340,新興橋,2024-04-23,23.563333,120.868728,3.669821e-10
C0SA80,土坂,2024-04-23,22.453108,120.887572,0.00013738411
C0R160,鹽埔,2024-04-23,22.739558,120.530778,0.9985728
C0AC40,大屯山,2024-04-23,25.175675,121.522408,1.7272606e-09
466850,五分山雷達站,2024-04-23,25.071182,121.781205,6.7104255e-10
C1AI50,國三N016K,2024-04-23,25.034164,121.619664,3.8197757e-07
C1V600,藤枝,2024-04-23,23.071961,120.757042,8.4683366e-10
C1E601,南勢,2024-04-23,24.572486,120.734842,1.4539167e-09
C0Z180,新城,2024-04-23,24.03946,121.60454,0.048841406
C0O980,新市,2024-04-23,23.061614,120.298197,0.9975849
C0K420,西螺,2024-04-23,23.800407,120.467394,0.98480964
C0Z050,佳心,2024-04-23,23.34567,121.21316,2.0495536e-09
C0AD30,蘆洲,2024-04-23,25.086594,121.472331,1.4293407e-06
C0V610,梓官,2024-04-23,22.760558,120.267211,0.6365866
K2F750,種苗改良場,2024-04-23,24.225972,120.800917,0.9845065
C0UA80,大溪漁港,2024-04-23,24.941801,121.902955,7.972081e-05
C1AI60,國一39K邊坡,2024-04-23,25.064361,121.383836,2.8484175e-09
C0W150,金寧,2024-04-23,24.457703,118.328989,5.5162934e-07
V2C250,八德合作社,2024-04-23,24.93775,121.266389,2.2822118e-09
C0AH40,平等,2024-04-23,25.129142,121.577086,1.4054721e-09
C0R540,佳冬,2024-04-23,22.419456,120.552375,0.002216127
466950,彭佳嶼,2024-04-23,25.627975,122.079744,1.2176584e-08
C0A890,雙溪,2024-04-23,25.036003,121.864242,3.4944296e-07
C0C480,桃園,2024-04-23,24.992425,121.323172,6.924114e-09
C0AH50,林口,2024-04-23,25.072181,121.38084,1.8775683e-09
A2K360,水試臺西試驗場,2024-04-23,23.717231,120.190522,0.00018189824
B2N890,畜試所,2024-04-23,23.058972,120.336406,0.9976289
C0F9S0,烏日,2024-04-23,24.107058,120.624103,0.0010570283
C0C490,八德,2024-04-23,24.928708,121.283289,2.2231108e-09
C0R190,赤山,2024-04-23,22.592333,120.614306,0.99780506
C0T820,天祥,2024-04-23,24.179597,121.495639,2.1646397e-07
C1F9E1,龍安,2024-04-23,24.1605,120.831961,2.9000355e-05
C0V820,小林,2024-04-23,23.148408,120.63325,0.9915558
C2G870,芳苑,2024-04-23,23.922303,120.320025,1.0270604e-08
C0E850,大河,2024-04-23,24.618069,120.948578,4.16406e-08
C1U670,寒溪,2024-04-23,24.634,121.71691,0.00078142126
C0N020,城西,2024-04-23,23.0568,120.0956,0.0012119637
C1Z110,三棧,2024-04-23,24.11557,121.60501,1.4398183e-08
C0R280,檳榔,2024-04-23,22.076078,120.836777,8.611902e-07
C0F9L0,后里,2024-04-23,24.310436,120.729725,1.0275854e-05
C0D540,橫山,2024-04-23,24.71116,121.11693,3.8619814e-09
C1D420,太閣南,2024-04-23,24.632808,121.160575,4.6904797e-10
C1E770,公館,2024-04-23,24.526914,120.830806,2.1070575e-08
CAN130,水試所海水繁養殖中心,2024-04-23,23.120802,120.07968,0.0018567003
C1I430,翠華,2024-04-23,24.191961,121.224339,2.314661e-09
C1M400,菜瓜坪,2024-04-23,23.251928,120.576103,0.83196497
C0G730,二林,2024-04-23,23.903325,120.376081,3.8706334e-05
72M360,南改義竹分場,2024-04-23,23.360694,120.279361,0.001201761
V2K620,麥寮合作社,2024-04-23,23.753836,120.294783,0.9752763
C0Z070,舞鶴,2024-04-23,23.46811,121.37407,5.471935e-07
C0B040,大武崙,2024-04-23,25.166676,121.706993,1.8577452e-08
C1Z030,紅葉,2024-04-23,23.493119,121.338806,3.514834e-07
C1I050,丹大,2024-04-23,23.753747,121.141147,1.035368e-09
C0I080,信義,2024-04-23,23.689694,120.851036,1.24489254e-08
C2A880,福隆,2024-04-23,25.017842,121.942083,1.7987104e-05
C0Z160,鳳林,2024-04-23,23.746114,121.453411,0.8854145
C0V210,復興,2024-04-23,23.222403,120.806089,0.0014907498
C0H990,昆陽,2024-04-23,24.121322,121.273642,3.2191219e-09
C0S710,鹿野,2024-04-23,22.917711,121.122994,6.0722994e-07
C0I530,小奇萊,2024-04-23,24.131764,121.295717,3.4963703e-09
C0Z080,富源,2024-04-23,23.587642,121.378225,0.015599801
467441,高雄,2024-04-23,22.7304,120.3125,0.57352364
C1I140,卡奈托灣,2024-04-23,23.754364,121.087872,5.335456e-10
C0I520,玉山風口,2024-04-23,23.470489,120.955994,9.316739e-09
C1G691,下水埔,2024-04-23,23.816114,120.5676,0.99911517
C0X110,臺南市南區,2024-04-23,22.961189,120.188378,0.04681957
C0V680,仁武,2024-04-23,22.701083,120.347722,0.000629842
C2G840,北斗,2024-04-23,23.877586,120.514222,0.9013058
C0R900,竹坑,2024-04-23,22.1385,120.7022,4.9491277e-06
C0K250,崙背,2024-04-23,23.75555,120.318925,0.97527635
C0G860,社頭,2024-04-23,23.897647,120.5862,0.99882215
C0X150,安定,2024-04-23,23.102614,120.227839,0.9376781
C0R590,里港,2024-04-23,22.77919,120.49459,0.9987319
C0E610,馬都安,2024-04-23,24.451272,120.930192,3.941105e-09
C0E550,明德,2024-04-23,24.583486,120.885411,1.1672153e-08
C0R150,三地門,2024-04-23,22.709889,120.639944,0.997822
C0G910,花壇,2024-04-23,24.032076,120.549461,5.7732086e-05
C1D400,鳥嘴山,2024-04-23,24.71909,121.28387,1.0153944e-09
C0K500,元長,2024-04-23,23.64981,120.315024,0.96081513
C0F0B0,石岡,2024-04-23,24.276061,120.777644,1.310263e-06
C2V250,甲仙,2024-04-23,23.080106,120.591758,0.9967161
C0SA20,金崙山,2024-04-23,22.567419,120.959667,2.0934883e-09
C0V350,溪埔,2024-04-23,22.738578,120.446797,0.997528
C0M660,溪口,2024-04-23,23.604131,120.403569,0.99699134
C1S880,壽卡,2024-04-23,22.238911,120.858903,5.2045635e-08
72D680,桃改新埔分場,2024-04-23,24.834444,121.066111,9.71446e-10
