站號,站名,日期,lat,lon,BlastGRU-TW
12J990,口湖工作站,2024-02-27,23.589978,120.180394,0.0058613247
12Q970,東港工作站,2024-02-27,22.479997,120.466058,0.72515875
12Q980,恆春工作站,2024-02-27,22.079678,120.714425,0.035422124
466881,新北,2024-02-27,24.9593,121.52,0.0020905929
466900,淡水,2024-02-27,25.164889,121.448906,0.0074157827
466920,臺北,2024-02-27,25.037658,121.514853,0.0048456118
466940,基隆,2024-02-27,25.133314,121.740475,0.006201563
466990,花蓮,2024-02-27,23.975128,121.613275,0.12291727
467050,新屋,2024-02-27,25.006744,121.047486,0.008431315
467080,宜蘭,2024-02-27,24.763975,121.756528,0.006309959
467270,田中,2024-02-27,23.873803,120.581286,0.1219313
467300,東吉島,2024-02-27,23.25695,119.667467,0.0013557766
467350,澎湖,2024-02-27,23.565503,119.563094,0.0018245288
467410,臺南,2024-02-27,22.993239,120.204772,0.12076522
467420,永康,2024-02-27,23.038386,120.2367,0.5225061
467441,高雄,2024-02-27,22.7304,120.3125,0.41186363
467480,嘉義,2024-02-27,23.495925,120.432906,0.11000151
467490,臺中,2024-02-27,24.145736,120.684075,0.073444545
467540,大武,2024-02-27,22.355675,120.903789,0.1914635
467571,新竹,2024-02-27,24.827853,121.014219,0.008576833
467590,恆春,2024-02-27,22.003897,120.746339,0.21265933
467610,成功,2024-02-27,23.097486,121.373428,0.04169378
467620,蘭嶼,2024-02-27,22.036969,121.558339,3.1168216e-05
467660,臺東,2024-02-27,22.752211,121.154586,0.17061268
467790,墾丁雷達站,2024-02-27,21.948235,120.808028,0.01153166
72AI40,桃改樹林分場,2024-02-27,24.944503,121.386972,0.008105629
72C440,桃園農改,2024-02-27,24.950944,121.030583,0.0064467033
72C440,桃園農改場,2024-02-27,24.950944,121.030583,0.0064467033
72D680,桃改新埔分場,2024-02-27,24.834444,121.066111,0.007970896
72G600,臺中農改,2024-02-27,24.003028,120.534389,0.071786135
72G600,臺中農改場,2024-02-27,24.003028,120.534389,0.07178615
72K220,南改斗南分場,2024-02-27,23.634556,120.477333,0.1360639
72M360,南改義竹分場,2024-02-27,23.360694,120.279361,0.017146396
72M700,南改鹿草分場,2024-02-27,23.416869,120.283061,0.04726884
72N100,臺南農改,2024-02-27,23.0605,120.342194,0.4009482
72N100,臺南農改場,2024-02-27,23.0605,120.342194,0.4009482
72N240,七股研究中心,2024-02-27,23.081672,120.062894,0.009004522
72Q010,高雄農改,2024-02-27,22.709333,120.525889,0.7375121
72Q010,高雄農改場,2024-02-27,22.709333,120.525889,0.7375122
72S200,東改班鳩分場,2024-02-27,22.829528,121.077694,0.009753167
72S590,東改賓朗果園,2024-02-27,22.813889,121.071278,0.014162762
72T250,花蓮農改,2024-02-27,23.975222,121.563889,0.02218742
72T250,花蓮農改場,2024-02-27,23.975222,121.563889,0.02218742
72U480,花改蘭陽分場,2024-02-27,24.686306,121.716583,0.027494166
72V140,高改旗南分場,2024-02-27,22.857861,120.516667,0.39973766
82A750,茶改北部分場,2024-02-27,24.955778,121.631222,0.011091307
82C160,茶改場,2024-02-27,24.908472,121.185333,0.015894992
82H840,茶改南部分場,2024-02-27,23.762528,120.7405,0.026880812
82S580,茶改東部分場,2024-02-27,22.907694,121.130139,0.015892068
A2C560,農工中心,2024-02-27,24.985917,121.239833,0.0420451
A2K360,水試臺西試驗場,2024-02-27,23.717231,120.190522,0.007961162
A2K570,古坑花卉中心,2024-02-27,23.63353,120.55239,0.06491821
A2K630,臺大雲林校區,2024-02-27,23.730628,120.423903,0.07564054
A2N290,臺南蘭花園區,2024-02-27,23.340258,120.379661,0.13047932
B2E890,畜試北區分所,2024-02-27,24.527806,120.770972,0.032341085
B2N890,畜產試驗所,2024-02-27,23.058972,120.336406,0.4009482
B2N890,畜試所,2024-02-27,23.058972,120.336406,0.4009482
B2Q810,畜試南區分所,2024-02-27,21.945583,120.802167,0.015069315
B2U990,畜試東區分所,2024-02-27,24.669039,121.832561,0.1253162
C0A520,山佳,2024-02-27,24.974944,121.402008,0.004460106
C0A530,坪林,2024-02-27,24.938183,121.70975,0.020875242
C0A540,四堵,2024-02-27,24.8926,121.745736,0.01648306
C0A550,泰平,2024-02-27,24.971197,121.823711,0.024902694
C0A560,福山,2024-02-27,24.776203,121.502811,0.007978361
C0A570,桶後,2024-02-27,24.848222,121.597992,0.012919798
C0A640,石碇,2024-02-27,24.993969,121.662917,0.0063487594
C0A650,火燒寮,2024-02-27,25.002719,121.742892,0.023340112
C0A660,瑞芳,2024-02-27,25.113169,121.801147,0.010349757
C0A770,科教館,2024-02-27,25.096356,121.516507,0.005941511
C0A860,大坪,2024-02-27,25.165914,121.632969,0.005970061
C0A880,福隆,2024-02-27,25.017842,121.942083,0.06631118
C0A890,雙溪,2024-02-27,25.036003,121.864242,0.017314149
C0A920,富貴角,2024-02-27,25.263783,121.565258,0.003266445
C0A931,三和,2024-02-27,25.233153,121.595236,0.013024389
C0A940,金山,2024-02-27,25.223628,121.643967,0.021286007
C0A950,鼻頭角,2024-02-27,25.129036,121.923372,0.0033999213
C0A970,三貂角,2024-02-27,25.007606,122.002058,0.050040595
C0A980,社子,2024-02-27,25.109508,121.469681,0.0035720277
C0A9C0,天母,2024-02-27,25.117494,121.537169,0.021200731
C0A9F0,內湖,2024-02-27,25.079422,121.57545,0.008969609
C0AC60,三峽,2024-02-27,24.939025,121.369728,0.007839049
C0AC70,信義,2024-02-27,25.037822,121.564597,0.0058147614
C0AC80,文山,2024-02-27,25.00235,121.575728,0.002091978
C0ACA0,新莊,2024-02-27,25.051478,121.446756,0.0069504073
C0AD00,三芝,2024-02-27,25.258131,121.501917,0.0039882874
C0AD10,八里,2024-02-27,25.150211,121.403947,0.006936286
C0AD30,蘆洲,2024-02-27,25.086594,121.472331,0.0059415167
C0AD40,土城,2024-02-27,24.973208,121.445169,0.0017378185
C0AD50,鶯歌,2024-02-27,24.951533,121.346294,0.0074520395
C0AG80,中和,2024-02-27,24.991622,121.491792,0.0017602183
C0AH00,汐止,2024-02-27,25.066881,121.658778,0.0125665525
C0AH10,永和,2024-02-27,25.01125,121.508111,0.0017546386
C0AH40,平等,2024-02-27,25.129142,121.577086,0.005347645
C0AH50,林口,2024-02-27,25.072181,121.38084,0.011660581
C0AH70,松山,2024-02-27,25.04871,121.55042,0.0058147614
C0AH80,深坑,2024-02-27,25.002703,121.628328,0.0046184678
C0AI00,五股,2024-02-27,25.07445,121.42728,0.014473887
C0AI10,屈尺,2024-02-27,24.92184,121.54475,0.0063245874
C0AI20,白沙灣,2024-02-27,25.283128,121.519058,0.0025335625
C0AI30,三重,2024-02-27,25.057328,121.500629,0.0048562535
C0AI40,石牌,2024-02-27,25.115597,121.513139,0.02095257
C0AJ20,野柳,2024-02-27,25.20703,121.690021,0.021138744
C0AJ30,淡水觀海,2024-02-27,25.184591,121.408616,0.0143208
C0AJ40,石門,2024-02-27,25.273672,121.601198,0.0031154216
C0AJ50,水湳洞,2024-02-27,25.123695,121.862238,0.014397053
C0AJ60,六塊厝,2024-02-27,25.24,121.4481,0.0024554937
C0AJ70,田寮,2024-02-27,25.2698,121.4886,0.0045712097
C0AJ80,板橋,2024-02-27,25.0107,121.4489,0.0016199172
C0AJ90,澳底,2024-02-27,25.0552,121.9253,0.01668867
C0B010,七堵,2024-02-27,25.094819,121.71713,0.012058994
C0B020,基隆嶼,2024-02-27,25.19141,121.78391,0.004307532
C0B040,大武崙,2024-02-27,25.166676,121.706993,0.004197438
C0B050,八斗子,2024-02-27,25.144754,121.79167,0.009798388
C0B060,暖暖,2024-02-27,25.0957,121.7403,0.014353611
C0C460,復興,2024-02-27,24.820208,121.352281,0.002033612
C0C480,桃園,2024-02-27,24.992425,121.323172,0.031990763
C0C490,八德,2024-02-27,24.928708,121.283289,0.0066045285
C0C590,觀音,2024-02-27,25.027072,121.153317,0.003101197
C0C620,蘆竹,2024-02-27,25.084275,121.265767,0.012973323
C0C630,大溪,2024-02-27,24.882853,121.265547,0.005283493
C0C650,平鎮,2024-02-27,24.897503,121.214636,0.0050931354
C0C660,楊梅,2024-02-27,24.912375,121.143047,0.019771557
C0C670,龍潭,2024-02-27,24.870056,121.221389,0.004375711
C0C680,龜山,2024-02-27,25.02846,121.38656,0.012510937
C0C700,中壢,2024-02-27,24.977661,121.256375,0.02976369
C0C710,大溪永福,2024-02-27,24.892936,121.324975,0.004300623
C0C720,竹圍,2024-02-27,25.112692,121.239824,0.006192269
C0C730,中大臨海站,2024-02-27,24.966126,121.008581,0.0074818693
C0C740,觀音工業區,2024-02-27,25.064764,121.114856,0.0035365128
C0C750,新興坑尾,2024-02-27,25.0061,121.0971,0.008683142
C0D430,峨眉,2024-02-27,24.6905,121.017189,0.016763452
C0D480,打鐵坑,2024-02-27,24.849664,121.150789,0.004671351
C0D540,橫山,2024-02-27,24.71116,121.11693,0.012048109
C0D560,竹東,2024-02-27,24.767147,121.057881,0.012793699
C0D580,寶山,2024-02-27,24.735006,121.025192,0.020246278
C0D590,新豐,2024-02-27,24.87068,120.97721,0.0029205228
C0D650,湖口,2024-02-27,24.904794,121.043628,0.007770743
C0D660,新竹市東區,2024-02-27,24.798681,120.986942,0.012103938
C0D670,海天一線,2024-02-27,24.831986,120.914438,0.0028533945
C0D680,香山濕地,2024-02-27,24.783581,120.914988,0.01040607
C0D690,外湖,2024-02-27,24.917735,120.968711,0.004961713
C0D700,關西,2024-02-27,24.7977,121.1732,0.00948363
C0E420,竹南,2024-02-27,24.708978,120.888897,0.0062194117
C0E430,南庄,2024-02-27,24.601775,121.000214,0.0426443
C0E550,明德,2024-02-27,24.583486,120.885411,0.016406827
C0E590,通霄,2024-02-27,24.471892,120.704622,0.0056201774
C0E730,頭份,2024-02-27,24.688247,120.912206,0.007859614
C0E740,造橋,2024-02-27,24.637056,120.864778,0.0070081013
C0E750,苗栗,2024-02-27,24.564569,120.824575,0.018786553
C0E780,銅鑼,2024-02-27,24.489681,120.790853,0.021448543
C0E791,卓蘭,2024-02-27,24.3126,120.8244,0.11803116
C0E810,西湖,2024-02-27,24.562947,120.7485,0.0041978764
C0E820,獅潭,2024-02-27,24.539133,120.920042,0.08766457
C0E830,苑裡,2024-02-27,24.439714,120.653053,0.0034235222
C0E850,大河,2024-02-27,24.618069,120.948578,0.019243449
C0E870,高鐵苗栗,2024-02-27,24.60725,120.826094,0.008451711
C0E910,海埔,2024-02-27,24.648767,120.772435,0.0048612547
C0E920,通霄漁港,2024-02-27,24.498589,120.673876,0.0058802743
C0E930,龍鳳,2024-02-27,24.700034,120.859125,0.0067977956
C0F0B0,石岡,2024-02-27,24.276061,120.777644,0.1587017
C0F850,東勢,2024-02-27,24.246428,120.833047,0.027766336
C0F970,大坑,2024-02-27,24.173142,120.722289,0.06942488
C0F9I0,神岡,2024-02-27,24.272481,120.658314,0.06707081
C0F9K0,大安,2024-02-27,24.345061,120.588025,0.00865269
C0F9L0,后里,2024-02-27,24.310436,120.729725,0.19909723
C0F9M0,豐原,2024-02-27,24.254322,120.720692,0.23272283
C0F9N0,大里,2024-02-27,24.092464,120.701378,0.116805896
C0F9O0,潭子,2024-02-27,24.213106,120.703933,0.052786123
C0F9P0,清水,2024-02-27,24.312297,120.562242,0.017400237
C0F9Q0,外埔,2024-02-27,24.347817,120.705686,0.10702969
C0F9R0,龍井,2024-02-27,24.184536,120.528972,0.0062948633
C0F9S0,烏日,2024-02-27,24.107058,120.624103,0.102580026
C0F9T0,西屯,2024-02-27,24.179494,120.641275,0.020593962
C0F9U0,南屯,2024-02-27,24.137006,120.637969,0.025542133
C0F9X0,大雅(中科園區),2024-02-27,24.21528,120.62445,0.03362085
C0FA10,松柏,2024-02-27,24.429115,120.617482,0.0035503898
C0FA20,溫寮,2024-02-27,24.372177,120.583125,0.009140102
C0FA30,梧棲,2024-02-27,24.256003,120.523381,0.014349441
C0FA40,臺中電廠,2024-02-27,24.2146,120.4907,0.0062948633
C0FA50,霧峰,2024-02-27,24.0419,120.6995,0.30478635
C0G620,芬園,2024-02-27,24.015678,120.6213,0.22961292
C0G650,員林,2024-02-27,23.946503,120.585597,0.19285473
C0G660,溪湖,2024-02-27,23.94835,120.479122,0.0586438
C0G720,溪州,2024-02-27,23.851589,120.499093,0.062063776
C0G730,二林,2024-02-27,23.903325,120.376081,0.007646884
C0G740,大城,2024-02-27,23.852487,120.320935,0.0053081424
C0G770,福興,2024-02-27,24.041289,120.437669,0.0054000216
C0G780,秀水,2024-02-27,24.03405,120.503869,0.065656625
C0G800,埔鹽,2024-02-27,24.000394,120.431683,0.0052196532
C0G810,埔心,2024-02-27,23.947633,120.525456,0.05653183
C0G820,田尾,2024-02-27,23.901669,120.509389,0.057579137
C0G830,埤頭,2024-02-27,23.866003,120.452806,0.053212512
C0G860,社頭,2024-02-27,23.897647,120.5862,0.12401187
C0G880,二水,2024-02-27,23.810742,120.6173,0.040259477
C0G890,伸港,2024-02-27,24.148933,120.484403,0.0046481183
C0G900,線西,2024-02-27,24.143358,120.443536,0.0040946486
C0G910,花壇,2024-02-27,24.032076,120.549461,0.06929876
C0G920,永靖,2024-02-27,23.924703,120.547533,0.06339137
C0G940,竹塘,2024-02-27,23.848253,120.386764,0.011128024
C0G950,防潮門,2024-02-27,24.1835,120.4871,0.0062948633
C0G960,福寶,2024-02-27,24.0443,120.3814,0.0036180154
C0G970,三豐,2024-02-27,23.882,120.2895,0.004792831
C0H890,埔里,2024-02-27,23.972169,120.952425,0.035112493
C0H960,草屯,2024-02-27,23.973672,120.68085,0.27164957
C0I110,竹山,2024-02-27,23.761225,120.688156,0.029777572
C0I360,水里,2024-02-27,23.812553,120.849792,0.055975374
C0I380,集集,2024-02-27,23.828206,120.801467,0.044675194
C0I410,名間,2024-02-27,23.837053,120.701447,0.13151583
C0I420,國姓,2024-02-27,24.037803,120.855072,0.068849355
C0I460,南投,2024-02-27,23.911469,120.687331,0.2170619
C0K250,崙背,2024-02-27,23.75555,120.318925,0.02364115
C0K280,四湖,2024-02-27,23.630414,120.227125,0.0073782094
C0K291,宜梧,2024-02-27,23.536281,120.169329,0.013272657
C0K330,虎尾,2024-02-27,23.719183,120.442036,0.0802576
C0K390,土庫,2024-02-27,23.679029,120.395574,0.040864784
C0K400,斗六,2024-02-27,23.720583,120.541127,0.16375555
C0K410,北港,2024-02-27,23.573957,120.292802,0.037112307
C0K420,西螺,2024-02-27,23.800407,120.467394,0.08696891
C0K430,褒忠,2024-02-27,23.690938,120.303634,0.025988048
C0K440,二崙,2024-02-27,23.772797,120.408944,0.104525715
C0K450,大埤,2024-02-27,23.646074,120.431537,0.12148187
C0K460,斗南,2024-02-27,23.678734,120.478359,0.1325331
C0K470,林內,2024-02-27,23.748675,120.609642,0.04570735
C0K480,莿桐,2024-02-27,23.761192,120.502372,0.12239422
C0K500,元長,2024-02-27,23.64981,120.315024,0.021553963
C0K510,水林,2024-02-27,23.572924,120.24597,0.036037426
C0K530,臺西,2024-02-27,23.701547,120.197559,0.0077280714
C0K550,蔦松,2024-02-27,23.514319,120.229736,0.015446496
C0K560,棋山,2024-02-27,23.68645,120.603417,0.05613227
C0K580,高鐵雲林,2024-02-27,23.737456,120.417944,0.07564054
C0K590,雲林東勢,2024-02-27,23.674192,120.255721,0.019285545
C0K600,箔子寮,2024-02-27,23.6197,120.14,0.004118565
C0M520,東後寮,2024-02-27,23.369908,120.248065,0.017146396
C0M640,中埔,2024-02-27,23.42538,120.5229,0.07941519
C0M650,朴子,2024-02-27,23.43463,120.23902,0.041183885
C0M660,溪口,2024-02-27,23.604131,120.403569,0.08295556
C0M670,大林,2024-02-27,23.600616,120.45841,0.08575527
C0M680,太保,2024-02-27,23.455062,120.331455,0.1265627
C0M690,水上,2024-02-27,23.419734,120.388909,0.14427333
C0M700,竹崎,2024-02-27,23.526178,120.555508,0.045576576
C0M710,東石,2024-02-27,23.458927,120.15385,0.004773392
C0M720,番路,2024-02-27,23.464657,120.554156,0.06826806
C0M730,嘉義市東區,2024-02-27,23.457673,120.460531,0.10695451
C0M740,六腳,2024-02-27,23.492871,120.290625,0.04845386
C0M750,布袋,2024-02-27,23.380878,120.167789,0.014406155
C0M760,民雄,2024-02-27,23.551754,120.428457,0.09084787
C0M770,嘉義梅山,2024-02-27,23.585398,120.555587,0.061416753
C0M780,鹿草,2024-02-27,23.41134,120.30835,0.045837272
C0M790,新港,2024-02-27,23.553269,120.345728,0.041076116
C0M800,茶山,2024-02-27,23.299075,120.664767,0.17323667
C0M880,好美里,2024-02-27,23.3364,120.138,0.009268889
C0N010,鯤鯓國小,2024-02-27,23.1879,120.0889,0.010631034
C0N020,城西,2024-02-27,23.0568,120.0956,0.111053646
C0N030,四草,2024-02-27,23.0235,120.1116,0.124262445
C0N040,蘆竹溝,2024-02-27,23.2344,120.0961,0.017075324
C0N050,蚵寮,2024-02-27,23.301,120.1104,0.011053833
C0O830,北寮,2024-02-27,23.079561,120.495008,0.34516045
C0O840,王爺宮,2024-02-27,23.222064,120.40085,0.09444997
C0O860,大內,2024-02-27,23.11885,120.36083,0.37009102
C0O900,善化,2024-02-27,23.112883,120.297219,0.40525976
C0O960,崎頂,2024-02-27,22.959547,120.369317,0.4172934
C0O970,虎頭埤,2024-02-27,23.021375,120.347878,0.5020195
C0O980,新市,2024-02-27,23.061614,120.298197,0.46243498
C0O990,媽廟,2024-02-27,22.99175,120.293525,0.51545626
C0R150,三地門,2024-02-27,22.709889,120.639944,0.09968326
C0R160,鹽埔,2024-02-27,22.739558,120.530778,0.66776407
C0R170,屏東,2024-02-27,22.660269,120.494072,0.96492726
C0R190,赤山,2024-02-27,22.592333,120.614306,0.27572158
C0R220,潮州,2024-02-27,22.534361,120.54,0.516662
C0R240,來義,2024-02-27,22.527306,120.625111,0.29853562
C0R260,春日,2024-02-27,22.370361,120.628306,0.30839092
C0R270,琉球嶼,2024-02-27,22.332244,120.362236,0.64798975
C0R280,檳榔,2024-02-27,22.076078,120.836777,0.033852022
C0R320,車城,2024-02-27,22.0744,120.716247,0.035422124
C0R341,牡丹,2024-02-27,22.130036,120.792639,0.0355203
C0R350,貓鼻頭,2024-02-27,21.921774,120.7358,0.0009872438
C0R470,高樹,2024-02-27,22.826389,120.600806,0.16440208
C0R480,長治,2024-02-27,22.693128,120.542622,0.37820572
C0R490,九如,2024-02-27,22.7405,120.490503,0.6677029
C0R520,崁頂,2024-02-27,22.514781,120.506914,0.62836045
C0R540,佳冬,2024-02-27,22.419456,120.552375,0.4568084
C0R550,新埤,2024-02-27,22.467947,120.582894,0.6894836
C0R560,新園,2024-02-27,22.5434,120.461558,0.8148236
C0R570,麟洛,2024-02-27,22.65078,120.52719,0.96492726
C0R580,南州,2024-02-27,22.48591,120.50274,0.700275
C0R590,里港,2024-02-27,22.77919,120.49459,0.5206039
C0R620,墾雷,2024-02-27,21.900836,120.855269,0.00020545266
C0R640,東港,2024-02-27,22.46247,120.44074,0.7774601
C0R650,竹田,2024-02-27,22.58486,120.54344,0.5047771
C0R660,枋寮,2024-02-27,22.367722,120.590647,0.4568084
C0R670,楓港,2024-02-27,22.190131,120.692156,0.01601028
C0R680,佳樂水,2024-02-27,21.993578,120.861633,0.014582511
C0R690,墾丁,2024-02-27,21.966756,120.810269,0.0030108732
C0R700,枋山,2024-02-27,22.246844,120.661086,0.10866576
C0R710,龍磐,2024-02-27,21.931672,120.838942,0.00062215317
C0R720,旭海,2024-02-27,22.205403,120.887614,0.020885283
C0R730,大坪頂,2024-02-27,22.024633,120.69355,0.025520856
C0R740,獅子,2024-02-27,22.201569,120.70525,0.07771063
C0R760,南仁湖,2024-02-27,22.084681,120.863353,0.012981458
C0R770,保力,2024-02-27,22.071122,120.764111,0.06525968
C0R780,滿州,2024-02-27,22.024403,120.839892,0.17435043
C0R790,九棚,2024-02-27,22.14195,120.889281,0.017050175
C0R800,丹路,2024-02-27,22.204481,120.750989,0.09388795
C0R810,內獅,2024-02-27,22.305064,120.642986,0.22261408
C0R830,高士,2024-02-27,22.121825,120.836781,0.008246676
C0R850,林邊,2024-02-27,22.4634,120.5339,0.69323653
C0R860,鼻頭,2024-02-27,22.1043,120.8979,0.26509035
C0R870,興海,2024-02-27,21.9752,120.8439,0.015069315
C0R880,後壁湖,2024-02-27,21.9457,120.7457,0.010344615
C0R890,山海,2024-02-27,21.9878,120.7091,0.009904692
C0R900,竹坑,2024-02-27,22.1385,120.7022,0.033981193
C0R910,下寮,2024-02-27,22.3929,120.5548,0.4568084
C0R920,塭仔,2024-02-27,22.4169,120.5197,0.49218562
C0R930,萬丹,2024-02-27,22.5885,120.4851,0.84590733
C0R940,加祿堂,2024-02-27,22.3363,120.6217,0.09451444
C0S710,鹿野,2024-02-27,22.917711,121.122994,0.022128103
C0S730,綠島,2024-02-27,22.6672,121.47533,0.0009541579
C0S740,池上,2024-02-27,23.119628,121.209469,0.0143410545
C0S770,大溪山,2024-02-27,22.478475,120.943325,0.027765319
C0S790,金崙,2024-02-27,22.538122,120.966875,0.050907325
C0S810,東河,2024-02-27,22.972672,121.303986,0.023347056
C0S830,長濱,2024-02-27,23.286817,121.411975,0.09298178
C0S840,南田,2024-02-27,22.279725,120.889208,0.10285222
C0S890,關山,2024-02-27,23.0395,121.175017,0.039430298
C0S900,蘭嶼高中,2024-02-27,22.04909,121.51214,0.001209588
C0S910,蘭嶼燈塔,2024-02-27,22.081197,121.503117,0.00019357498
C0S920,金峰嘉蘭,2024-02-27,22.594789,120.960825,0.26627102
C0S930,延平,2024-02-27,22.902581,121.084058,0.02603157
C0S940,石寧山,2024-02-27,23.223772,121.406639,0.49487525
C0S950,七塊厝,2024-02-27,22.954453,121.229922,0.023423243
C0S960,香蘭,2024-02-27,22.587569,120.993375,0.85791117
C0S970,加津林,2024-02-27,22.416211,120.926942,0.6754543
C0S990,山豬窟,2024-02-27,22.318619,120.857372,0.027912056
C0SA00,歷坵,2024-02-27,22.520969,120.89185,0.021295384
C0SA10,檳榔四格山,2024-02-27,22.810031,121.109308,0.027527744
C0SA30,都歷,2024-02-27,23.020333,121.323642,0.12389322
C0SA40,瑞和,2024-02-27,22.974361,121.156697,0.036953993
C0SA60,知本（水試所）,2024-02-27,22.702394,121.082761,0.9484762
C0SA80,土坂,2024-02-27,22.453108,120.887572,0.035548583
C0SA90,達仁林場,2024-02-27,22.264347,120.823972,0.0027231807
C0T870,鯉魚潭,2024-02-27,23.935639,121.508944,0.020174952
C0T900,西林,2024-02-27,23.8119,121.441458,0.015837794
C0T960,光復,2024-02-27,23.660694,121.424964,0.028524814
C0T9A0,月眉山,2024-02-27,23.809928,121.539828,0.010738521
C0T9D0,和中,2024-02-27,24.26676,121.74103,0.27932623
C0T9E0,大坑,2024-02-27,23.880628,121.581981,0.017902106
C0T9F0,水璉,2024-02-27,23.797131,121.542514,0.014531687
C0T9I0,豐濱,2024-02-27,23.583897,121.514806,0.04495748
C0T9M0,靜浦,2024-02-27,23.455167,121.495028,0.19785026
C0T9N0,富里,2024-02-27,23.171639,121.249378,0.13241784
C0U600,礁溪,2024-02-27,24.817539,121.765608,0.013498568
C0U650,玉蘭,2024-02-27,24.675286,121.587061,0.006590777
C0U750,龜山島,2024-02-27,24.841667,121.953133,0.0007642673
C0U760,東澳,2024-02-27,24.52196,121.83318,0.124391526
C0U770,南澳,2024-02-27,24.44935,121.81022,0.024054635
C0U780,五結,2024-02-27,24.68637,121.79794,0.039923746
C0U860,頭城,2024-02-27,24.85323,121.8308,0.0166703
C0U870,大礁溪,2024-02-27,24.791042,121.675047,0.006880946
C0U880,北關,2024-02-27,24.9072,121.8734,0.05945424
C0U890,三星,2024-02-27,24.66812,121.65302,0.053630657
C0U900,內城,2024-02-27,24.71813,121.68766,0.026382891
C0U910,冬山,2024-02-27,24.63373,121.7937,0.1253162
C0U940,羅東,2024-02-27,24.68184,121.74934,0.03807807
C0U970,大福,2024-02-27,24.80064,121.81389,0.006845726
C0U990,員山,2024-02-27,24.74435,121.72247,0.034007303
C0UA00,土場,2024-02-27,24.576533,121.495333,0.008817246
C0UA80,大溪漁港,2024-02-27,24.941801,121.902955,0.073199995
C0UA90,石城,2024-02-27,24.980444,121.951214,0.06498667
C0UB00,淡江大學蘭陽校園,2024-02-27,24.823239,121.730383,0.020941094
C0UB10,蘇澳,2024-02-27,24.5969,121.8571,0.64784664
C0UB20,壯圍,2024-02-27,24.7359,121.8163,0.036873776
C0V310,美濃,2024-02-27,22.898742,120.519153,0.37294018
C0V350,溪埔,2024-02-27,22.738578,120.446797,0.64498633
C0V360,內門,2024-02-27,22.975481,120.466769,0.268975
C0V370,古亭坑,2024-02-27,22.893178,120.401947,0.55905044
C0V400,阿公店,2024-02-27,22.804194,120.355528,0.65427256
C0V440,鳳山,2024-02-27,22.646653,120.356122,0.3366757
C0V450,鳳森,2024-02-27,22.545064,120.392592,0.8214718
C0V490,新興,2024-02-27,22.627422,120.298803,0.6281193
C0V530,阿蓮,2024-02-27,22.883208,120.327508,0.47479466
C0V610,梓官,2024-02-27,22.760558,120.267211,0.56892836
C0V620,永安,2024-02-27,22.82315,120.236856,0.19233349
C0V630,茄萣,2024-02-27,22.906642,120.182608,0.0842589
C0V640,湖內,2024-02-27,22.887139,120.2445,0.078119494
C0V650,彌陀,2024-02-27,22.783806,120.246361,0.19233349
C0V660,岡山,2024-02-27,22.797078,120.294958,0.16341496
C0V680,仁武,2024-02-27,22.701083,120.347722,0.35659978
C0V690,鼓山,2024-02-27,22.623325,120.275575,0.80530673
C0V700,三民,2024-02-27,22.645017,120.311233,0.33903778
C0V710,苓雅,2024-02-27,22.622742,120.330669,0.6953858
C0V720,林園,2024-02-27,22.507747,120.394511,0.8823384
C0V730,大寮,2024-02-27,22.605614,120.395717,0.6506846
C0V740,旗山,2024-02-27,22.888614,120.483597,0.36898026
C0V750,路竹,2024-02-27,22.854997,120.259439,0.08386142
C0V760,橋頭,2024-02-27,22.757806,120.30575,0.4411163
C0V770,大社,2024-02-27,22.730306,120.346639,0.43205887
C0V790,萬山,2024-02-27,22.905944,120.688056,0.048738368
C0V800,六龜,2024-02-27,22.997889,120.633583,0.8135625
C0V810,左營,2024-02-27,22.67491,120.28491,0.3390377
C0V820,小林,2024-02-27,23.148408,120.63325,0.0453043
C0V840,鳳鼻頭,2024-02-27,22.5083,120.3591,0.8816978
C0V850,蚵仔寮,2024-02-27,22.7256,120.2527,0.5899168
C0V860,南寮,2024-02-27,22.7616,120.2339,0.5899168
C0V870,文安,2024-02-27,22.8025,120.2164,0.30313003
C0V880,興達,2024-02-27,22.8778,120.2127,0.08425895
C0V890,前鎮,2024-02-27,22.5718,120.3117,0.8220416
C0V900,汕尾,2024-02-27,22.4782,120.4151,0.7251586
C0W200,湖西,2024-02-27,23.596314,119.67275,0.001358544
C0X050,東河,2024-02-27,23.296598,120.385608,0.13734
C0X060,下營,2024-02-27,23.22695,120.256261,0.08026266
C0X080,佳里,2024-02-27,23.173039,120.145086,0.023756627
C0X100,臺南市北區,2024-02-27,23.010394,120.194228,0.13093226
C0X110,臺南市南區,2024-02-27,22.961189,120.188378,0.25085536
C0X120,麻豆,2024-02-27,23.183289,120.248611,0.105497345
C0X130,官田,2024-02-27,23.193217,120.315422,0.23297061
C0X140,西港,2024-02-27,23.125608,120.203108,0.115603104
C0X150,安定,2024-02-27,23.102614,120.227839,0.12586993
C0X160,仁德,2024-02-27,22.968258,120.257689,0.21289603
C0X170,關廟,2024-02-27,22.963017,120.327797,0.60477364
C0X180,山上,2024-02-27,23.0757,120.363253,0.2318914
C0X190,安平,2024-02-27,22.993161,120.152181,0.116364814
C0X200,左鎮,2024-02-27,23.056758,120.408522,0.48666418
C0X210,白河,2024-02-27,23.347466,120.414427,0.21574871
C0X220,學甲,2024-02-27,23.230367,120.182187,0.024287514
C0X230,鹽水,2024-02-27,23.272621,120.247641,0.019499067
C0X240,關子嶺,2024-02-27,23.331169,120.508025,0.04679717
C0X250,新營,2024-02-27,23.310689,120.316681,0.054865107
C0X260,後壁,2024-02-27,23.366358,120.362326,0.13047932
C0X280,將軍,2024-02-27,23.214999,120.13577,0.019978028
C0X290,北門,2024-02-27,23.267772,120.125481,0.017075324
C0X300,鹿寮,2024-02-27,23.386047,120.477331,0.12882775
C0X310,七股,2024-02-27,23.147289,120.086253,0.0124745825
C0X320,柳營,2024-02-27,23.253328,120.375253,0.16390516
C0Z020,明里,2024-02-27,23.208717,121.262342,0.073367365
C0Z061,玉里,2024-02-27,23.3215,121.339656,0.07250701
C0Z070,舞鶴,2024-02-27,23.46811,121.37407,0.030825745
C0Z080,富源,2024-02-27,23.587642,121.378225,0.105512984
C0Z100,東華,2024-02-27,23.89525,121.549833,0.03773689
C0Z150,吉安光華,2024-02-27,23.930925,121.595153,0.1604171
C0Z160,鳳林,2024-02-27,23.746114,121.453411,0.029220782
C0Z170,卓溪,2024-02-27,23.3443,121.3029,0.043625034
C0Z180,新城,2024-02-27,24.03946,121.60454,0.1198318
C0Z190,富世,2024-02-27,24.14743,121.6297,0.003701073
C0Z200,萬榮,2024-02-27,23.709219,121.420106,0.025994208
C0Z210,瑞穗,2024-02-27,23.5239,121.39021,0.04193537
C0Z230,和平,2024-02-27,24.30717,121.77007,0.23510061
C0Z270,蕃薯寮,2024-02-27,23.73835,121.540108,0.02226516
C0Z280,德武,2024-02-27,23.47426,121.41071,0.035632756
C0Z300,東里,2024-02-27,23.26853,121.30547,0.075206734
C0Z310,清水斷崖,2024-02-27,24.218294,121.689142,0.009904295
C0Z330,安通山,2024-02-27,23.290728,121.348528,0.032776564
C2E520,大湖,2024-02-27,24.414939,120.870872,0.31123158
C2E540,後龍,2024-02-27,24.606489,120.783933,0.008625739
C2F000,大肚,2024-02-27,24.15295,120.572117,0.020369668
C2F930,大甲,2024-02-27,24.347667,120.640403,0.0092517
C2F9A0,中竹林,2024-02-27,24.103556,120.751061,0.03587715
C2G640,鹿港,2024-02-27,24.0753,120.430481,0.0041905656
C2G840,北斗,2024-02-27,23.877586,120.514222,0.06110789
C2G870,芳苑,2024-02-27,23.922303,120.320025,0.0033141752
C2H950,中寮,2024-02-27,23.884447,120.766406,0.10928822
C2M410,馬頭山,2024-02-27,23.324361,120.582017,0.067998596
C2O810,曾文,2024-02-27,23.219681,120.497328,0.15755092
C2O930,玉井,2024-02-27,23.126042,120.46055,0.23135822
C2O950,安南,2024-02-27,23.076694,120.144861,0.014548345
C2V250,甲仙,2024-02-27,23.080106,120.591758,0.12032386
C2V260,月眉,2024-02-27,22.971003,120.539853,0.5161058
C2W230,畜試所澎湖,2024-02-27,23.628342,119.513206,0.0015390782
CAG100,王功漁港,2024-02-27,23.96824,120.32586,0.0025811535
CAH030,茶改場竹圍站,2024-02-27,23.860083,120.637528,0.036834102
CAJ050,海口故事園區,2024-02-27,23.57543,120.14121,0.004118565
CAL110,布袋國中,2024-02-27,23.35893,120.18026,0.015299221
CAN130,水試所海水繁養殖中心,2024-02-27,23.120802,120.07968,0.009004522
CAN140,六官養殖協會,2024-02-27,23.22881,120.29962,0.08206504
CAQ030,崎峰國小,2024-02-27,22.42565,120.49521,0.74492526
E2K600,四湖植物園,2024-02-27,23.676986,120.163433,0.0054555996
E2P980,林試六龜中心,2024-02-27,22.991703,120.645722,0.81008226
E2S960,林試太麻里2,2024-02-27,22.598014,120.989761,0.85791117
E2S960,林試太麻里2,2024-02-27,22.598,120.99775,0.86191785
E2S980,林試太麻里1,2024-02-27,22.598922,120.980044,0.79482615
G2AI50,關渡,2024-02-27,25.11575,121.492,0.003573598
G2F820,農業試驗所,2024-02-27,24.031261,120.688133,0.3100378
G2F820,農試所(霧峰),2024-02-27,24.031261,120.688133,0.3100378
G2L020,農試嘉義分所,2024-02-27,23.485028,120.473806,0.06256284
G2M350,農試溪口農場,2024-02-27,23.58565,120.408111,0.08941991
G2P820,農試鳳山分所,2024-02-27,22.646611,120.356083,0.3366757
K2E360,苗栗農改,2024-02-27,24.495722,120.829111,0.025897466
K2E360,苗栗農改場,2024-02-27,24.495722,120.829111,0.02589744
K2E710,苗改生物防治研究中心,2024-02-27,24.422861,120.871833,0.3440654
K2F750,種苗改良場,2024-02-27,24.225972,120.800917,0.03249831
K2F750,種苗繁殖,2024-02-27,24.225972,120.800917,0.03249831
U2HA50,臺大竹山,2024-02-27,23.756972,120.681556,0.03218546
V2C250,八德合作社,2024-02-27,24.93775,121.266389,0.007027863
V2C260,八德蔬果,2024-02-27,24.978508,121.281819,0.031234607
V2K610,大庄合作社,2024-02-27,23.8068,120.367939,0.014475969
V2K620,麥寮合作社,2024-02-27,23.753836,120.294783,0.023641145
