站號,站名,日期,lat,lon,BlastGRU-TW
C0R710,龍磐,2024-12-21,21.931672,120.838942,0.00049517734
C1F9D1,白毛台,2024-12-21,24.158325,120.886933,0.002637115
C0G940,竹塘,2024-12-21,23.848253,120.386764,0.0009257429
467590,恆春,2024-12-21,22.003897,120.746339,0.002129136
C1O850,環湖,2024-12-21,23.148617,120.418633,0.02758165
C0U710,太平山,2024-12-21,24.505486,121.525656,0.00021049495
C0E820,獅潭,2024-12-21,24.539133,120.920042,0.00052747317
C0V880,興達,2024-12-21,22.8778,120.2127,0.027735608
C0S890,關山,2024-12-21,23.0395,121.175017,0.010195451
C0SB30,新蘭,2024-12-21,22.869214,121.223228,0.013351192
C2R970,屏科大,2024-12-21,22.648275,120.619247,0.15687786
K2F750,種苗繁殖,2024-12-21,24.225972,120.800917,0.0011698289
C1Z130,銅門,2024-12-21,23.965694,121.492842,0.009758164
C0AD40,土城,2024-12-21,24.973208,121.445169,0.00403055
CAN140,六官養殖協會,2024-12-21,23.22881,120.29962,0.059475612
C0X180,山上,2024-12-21,23.0757,120.363253,0.031914055
C0F9Z0,雪山東峰,2024-12-21,24.388792,121.268675,0.00034143205
C1M480,獨立山,2024-12-21,23.537022,120.607797,0.0008213033
C0X220,學甲,2024-12-21,23.230367,120.182187,0.0049014785
467650,日月潭,2024-12-21,23.881325,120.90805,0.0038694004
C0K600,箔子寮,2024-12-21,23.6197,120.14,0.0006352585
C0G830,埤頭,2024-12-21,23.866003,120.452806,0.013310768
C0S950,七塊厝,2024-12-21,22.954453,121.229922,0.0040513547
467110,金門,2024-12-21,24.407306,118.289281,0.0005683587
C0AH80,深坑,2024-12-21,25.002703,121.628328,0.0028396498
467990,馬祖,2024-12-21,26.169269,119.923419,0.00029441406
C0A970,三貂角,2024-12-21,25.007606,122.002058,0.005791218
C2D730,寶山農場,2024-12-21,24.732444,120.976153,0.00045902014
C0K430,褒忠,2024-12-21,23.690938,120.303634,0.003658765
467480,嘉義,2024-12-21,23.495925,120.432906,0.020532409
C2E540,後龍,2024-12-21,24.606489,120.783933,0.00054418633
C0V400,阿公店,2024-12-21,22.804194,120.355528,0.5148053
C0R440,大漢山,2024-12-21,22.405264,120.753181,0.00049032335
C0K280,四湖,2024-12-21,23.630414,120.227125,0.00086442655
C1F9B1,桐林,2024-12-21,24.066172,120.735194,0.005960116
C2H9U0,鳳鵬,2024-12-21,23.763919,120.788061,0.002611994
C0K390,土庫,2024-12-21,23.679029,120.395574,0.011458216
C1I450,望鄉山,2024-12-21,23.594153,120.944286,0.0003437952
C0E910,海埔,2024-12-21,24.648767,120.772435,0.0005755235
B2E890,畜試北區分所,2024-12-21,24.527806,120.770972,0.00048933865
C0R750,四林格山,2024-12-21,22.076989,120.802439,0.002895386
C0F0C0,中坑,2024-12-21,24.248517,120.903319,0.0015297288
C1I121,大鞍,2024-12-21,23.678381,120.760017,0.0006656725
72U480,花改蘭陽分場,2024-12-21,24.686306,121.716583,0.035724472
C0A770,科教館,2024-12-21,25.096356,121.516507,0.0047420477
C0AJ60,六塊厝,2024-12-21,25.24,121.4481,0.0016601408
C0R620,墾雷,2024-12-21,21.900836,120.855269,0.0010403383
467420,永康,2024-12-21,23.038386,120.2367,0.15752427
467300,東吉島,2024-12-21,23.25695,119.667467,0.00029719414
C0I410,名間,2024-12-21,23.837053,120.701447,0.0028070216
A2C560,農工中心,2024-12-21,24.985917,121.239833,0.0006845777
C0V740,旗山,2024-12-21,22.888614,120.483597,0.2673254
C0Z061,玉里,2024-12-21,23.3215,121.339656,0.015114593
C0S840,南田,2024-12-21,22.279725,120.889208,0.0005791131
C1I470,杉林溪,2024-12-21,23.639517,120.786444,0.0005466257
C1X040,東原,2024-12-21,23.291597,120.463822,0.009067904
C0R660,枋寮,2024-12-21,22.367722,120.590647,0.0064111133
C1R120,上德文,2024-12-21,22.763272,120.704442,0.013274119
C0K450,大埤,2024-12-21,23.646074,120.431537,0.010860495
C0UA00,土場,2024-12-21,24.576533,121.495333,0.0072255633
467080,宜蘭,2024-12-21,24.763975,121.756528,0.012851275
C0N030,四草,2024-12-21,23.0235,120.1116,0.019690726
C0V650,彌陀,2024-12-21,22.783806,120.246361,0.12238471
C0D660,新竹市東區,2024-12-21,24.798681,120.986942,0.0004517854
82S580,茶改東部分場,2024-12-21,22.907694,121.130139,0.0135779735
C0SB40,興隆,2024-12-21,22.913661,121.257469,0.01410576
C0C710,大溪永福,2024-12-21,24.892936,121.324975,0.0009464542
C0FA20,溫寮,2024-12-21,24.372177,120.583125,0.0004091369
C0V640,湖內,2024-12-21,22.887139,120.2445,0.023443516
C0R910,下寮,2024-12-21,22.3929,120.5548,0.0064111133
C0Z020,明里,2024-12-21,23.208717,121.262342,0.007912377
C0M770,嘉義梅山,2024-12-21,23.585398,120.555587,0.0029707656
G2F820,農業試驗所,2024-12-21,24.031261,120.688133,0.024644941
C0C660,楊梅,2024-12-21,24.912375,121.143047,0.000663055
C1E511,新開,2024-12-21,24.347703,120.827019,0.00046997788
G2F820,農試所(霧峰),2024-12-21,24.031261,120.688133,0.024644941
C1I070,和社,2024-12-21,23.591131,120.888861,0.02491642
C2F000,大肚,2024-12-21,24.15295,120.572117,0.0007809843
C1S850,豐南,2024-12-21,23.122139,121.262389,0.0019770965
C2A920,富貴角,2024-12-21,25.263783,121.565258,0.00041014614
CAH030,茶改場竹圍站,2024-12-21,23.860083,120.637528,0.0040134275
C0T960,光復,2024-12-21,23.660694,121.424964,0.0065552597
C0F9M0,豐原,2024-12-21,24.254322,120.720692,0.00074394426
C0R720,旭海,2024-12-21,22.205403,120.887614,0.0012952288
C0V710,苓雅,2024-12-21,22.622742,120.330669,0.10378934
C0C740,觀音工業區,2024-12-21,25.064764,121.114856,0.00040090433
CAC040,拉拉山,2024-12-21,24.699317,121.427133,0.00018868427
C0V790,萬山,2024-12-21,22.905944,120.688056,0.010390756
U2HA30,臺大和社,2024-12-21,23.590856,120.888864,0.02491642
C0AJ90,澳底,2024-12-21,25.0552,121.9253,0.014099707
C0Z100,東華,2024-12-21,23.89525,121.549833,0.04480789
C0G970,三豐,2024-12-21,23.882,120.2895,0.00082494854
V2K610,大庄合作社,2024-12-21,23.8068,120.367939,0.0018319688
C0V900,汕尾,2024-12-21,22.4782,120.4151,0.06952939
C1R630,龍泉,2024-12-21,22.66701,120.59091,0.11716663
C1AC50,關渡,2024-12-21,25.133486,121.469331,0.0009269141
C0F9I0,神岡,2024-12-21,24.272481,120.658314,0.00090323895
C0K460,斗南,2024-12-21,23.678734,120.478359,0.009870125
467410,臺南,2024-12-21,22.993239,120.204772,0.012917555
C2O810,曾文,2024-12-21,23.219681,120.497328,0.014135233
467280,後龍,2024-12-21,24.648563,120.831834,0.00049697945
C1F9J1,清水林,2024-12-21,24.071242,120.820419,0.0012561975
C2A650,火燒寮,2024-12-21,25.002719,121.742892,0.00096727256
466930,竹子湖,2024-12-21,25.162078,121.544547,0.00029912943
C1I220,樟湖,2024-12-21,23.905333,120.846983,0.00077322434
C0I390,仁愛,2024-12-21,24.022122,121.132206,0.0011929612
C0Z300,東里,2024-12-21,23.26853,121.30547,0.012496511
C1V590,新發,2024-12-21,23.057019,120.646064,0.0068097077
C0K510,水林,2024-12-21,23.572924,120.24597,0.004269722
72S590,東改賓朗果園,2024-12-21,22.813889,121.071278,0.009808766
82A750,茶改北部分場,2024-12-21,24.955778,121.631222,0.0007955461
C1A750,石碇服務區,2024-12-21,25.00872,121.646242,0.0017104425
C0X300,鹿寮,2024-12-21,23.386047,120.477331,0.0078727435
G2AI50,關渡,2024-12-21,25.11575,121.492,0.00047288553
C0K590,雲林東勢,2024-12-21,23.674192,120.255721,0.004267705
C0A570,桶後,2024-12-21,24.848222,121.597992,0.002270274
C1S800,華源,2024-12-21,22.657883,121.02325,0.026456503
C0G720,溪州,2024-12-21,23.851589,120.499093,0.0121121155
C1V160,達卡努瓦,2024-12-21,23.279811,120.705319,0.0012425535
C2M410,馬頭山,2024-12-21,23.324361,120.582017,0.004752456
C0V850,蚵仔寮,2024-12-21,22.7256,120.2527,0.3953911
C0S740,池上,2024-12-21,23.119628,121.209469,0.0011731271
C1V390,尖山,2024-12-21,22.813153,120.367789,0.3901129
C0AH70,松山,2024-12-21,25.04871,121.55042,0.0043920255
C0N010,鯤鯓國小,2024-12-21,23.1879,120.0889,0.0052954005
C0R550,新埤,2024-12-21,22.467947,120.582894,0.079235785
C0SA60,知本（水試所）,2024-12-21,22.702394,121.082761,0.098500185
C0T9I0,豐濱,2024-12-21,23.583897,121.514806,0.008258098
C0UB00,淡江大學蘭陽校園,2024-12-21,24.823239,121.730383,0.001431599
C0W240,九宮,2024-12-21,24.423753,118.240186,0.00057857437
C0T9N0,富里,2024-12-21,23.171639,121.249378,0.0017100623
U2HA50,臺大竹山,2024-12-21,23.756972,120.681556,0.003260461
C0V840,鳳鼻頭,2024-12-21,22.5083,120.3591,0.28700724
C0X140,西港,2024-12-21,23.125608,120.203108,0.07060799
72D080,桃改五峰分場,2024-12-21,24.612194,121.157167,0.00024435789
C2H9P0,伊拿谷,2024-12-21,23.963211,121.088264,0.0012517459
C2H9F0,柑林,2024-12-21,24.018658,120.847072,0.0025060487
C0TA20,加灣,2024-12-21,24.082025,121.608944,0.004352031
C0V530,阿蓮,2024-12-21,22.883208,120.327508,0.14170507
C1O880,關山,2024-12-21,23.173397,120.594092,0.019438047
C0E791,卓蘭,2024-12-21,24.3126,120.8244,0.0005123676
C1I030,武界,2024-12-21,23.913225,121.052483,0.0011570823
C0R520,崁頂,2024-12-21,22.514781,120.506914,0.12681216
C0R341,牡丹,2024-12-21,22.130036,120.792639,0.0001410417
C0R930,萬丹,2024-12-21,22.5885,120.4851,0.5453223
C0S760,紅石,2024-12-21,23.069131,121.126219,0.00074538373
C1M610,石磐龍,2024-12-21,23.496606,120.663506,0.0017438161
C0UA10,鴛鴦湖,2024-12-21,24.590269,121.412228,0.0005687271
V2C260,八德蔬果,2024-12-21,24.978508,121.281819,0.00072403497
C0R800,丹路,2024-12-21,22.204481,120.750989,0.000604571
C0G920,永靖,2024-12-21,23.924703,120.547533,0.009472349
C2M950,太和,2024-12-21,23.538372,120.702961,0.0011034014
C1A630,下盆,2024-12-21,24.771003,121.538622,0.0008447035
B2N890,畜產試驗所,2024-12-21,23.058972,120.336406,0.12835109
C0UA30,白嶺,2024-12-21,24.527819,121.519031,0.000338311
C1V580,溪南(特生中心),2024-12-21,23.084972,120.788475,0.0010355677
C1T970,大農,2024-12-21,23.615233,121.413331,0.0056061484
E2S960,林試太麻里2,2024-12-21,22.598014,120.989761,0.20969906
C0R650,竹田,2024-12-21,22.58486,120.54344,0.13946511
C1H900,清流,2024-12-21,24.080775,120.962997,0.0017287147
C1C510,水尾,2024-12-21,24.940081,121.087161,0.00038709625
C0F9X0,大雅(中科園區),2024-12-21,24.21528,120.62445,0.0010409248
C0SB60,白守蓮,2024-12-21,23.126769,121.401914,0.0076645724
C0O970,虎頭埤,2024-12-21,23.021375,120.347878,0.039920874
C0C730,中大臨海站,2024-12-21,24.966126,121.008581,0.00046375353
C0X250,新營,2024-12-21,23.310689,120.316681,0.030194703
C0V700,三民,2024-12-21,22.645017,120.311233,0.112183236
C0U870,大礁溪,2024-12-21,24.791042,121.675047,0.001047926
C0E870,高鐵苗栗,2024-12-21,24.60725,120.826094,0.0005210256
A2K570,古坑花卉中心,2024-12-21,23.63353,120.55239,0.009887601
C0M860,新美,2024-12-21,23.338017,120.683169,0.022798143
C1E701,八卦,2024-12-21,24.491756,120.927619,0.00039152504
C0I420,國姓,2024-12-21,24.037803,120.855072,0.0021305091
C2D720,關西工作站,2024-12-21,24.757275,121.184792,0.00051080756
C0S960,香蘭,2024-12-21,22.587569,120.993375,0.20969929
C0R260,春日,2024-12-21,22.370361,120.628306,0.0059448043
72G600,臺中農改場,2024-12-21,24.003028,120.534389,0.012762354
C0Z210,瑞穗,2024-12-21,23.5239,121.39021,0.0114908805
C0M820,達邦,2024-12-21,23.453994,120.749517,0.0016791942
C0V860,南寮,2024-12-21,22.7616,120.2339,0.3953911
C0G740,大城,2024-12-21,23.852487,120.320935,0.0007923609
C0R920,塭仔,2024-12-21,22.4169,120.5197,0.0065182275
C0R470,高樹,2024-12-21,22.826389,120.600806,0.14638156
C0R680,佳樂水,2024-12-21,21.993578,120.861633,0.0003489719
C1O870,大棟山,2024-12-21,23.31157,120.52226,0.0014393281
C0D360,梅花,2024-12-21,24.678347,121.208558,0.00037108499
C0Z190,富世,2024-12-21,24.14743,121.6297,0.0011888196
C0AI10,屈尺,2024-12-21,24.92184,121.54475,0.0033198297
B2U990,畜試東區分所,2024-12-21,24.669039,121.832561,0.032189623
C0SB80,長濱漁港,2024-12-21,23.313644,121.459994,0.05294554
C0R240,來義,2024-12-21,22.527306,120.625111,0.13525772
C0V910,大樹,2024-12-21,22.684645,120.432803,0.6082455
C1R610,西大武山,2024-12-21,22.617719,120.7322,0.0006847565
C0G900,線西,2024-12-21,24.143358,120.443536,0.0007444836
C0M700,竹崎,2024-12-21,23.526178,120.555508,0.0025051117
C2E880,三義,2024-12-21,24.405478,120.749819,0.0003224331
C0C720,竹圍,2024-12-21,25.112692,121.239824,0.00047288553
C0F9P0,清水,2024-12-21,24.312297,120.562242,0.00049199944
C0Z150,吉安光華,2024-12-21,23.930925,121.595153,0.05912999
C1D640,外坪(五指山),2024-12-21,24.644447,121.090961,0.0003909073
C0F9O0,潭子,2024-12-21,24.213106,120.703933,0.0009696203
C2H9R0,卓社,2024-12-21,23.887894,121.000086,0.0008662616
72T250,花蓮農改場,2024-12-21,23.975222,121.563889,0.04960179
C0E780,銅鑼,2024-12-21,24.489681,120.790853,0.0004040277
C1T950,太安,2024-12-21,23.666719,121.370128,0.0012186535
C0E830,苑裡,2024-12-21,24.439714,120.653053,0.00031735384
467270,田中,2024-12-21,23.873803,120.581286,0.023100045
C0SA10,檳榔四格山,2024-12-21,22.810031,121.109308,0.0073910407
C1T830,布洛灣,2024-12-21,24.17184,121.57127,0.06654676
C0F970,大坑,2024-12-21,24.173142,120.722289,0.0017690471
C1U920,思源,2024-12-21,24.393125,121.347214,0.0003538486
C0A931,三和,2024-12-21,25.233153,121.595236,0.00039538502
C0I010,廬山,2024-12-21,24.033311,121.181808,0.00065653643
C2M940,日野賀,2024-12-21,23.434056,120.727169,0.001172489
C0R860,鼻頭,2024-12-21,22.1043,120.8979,0.00013935064
C0UB20,壯圍,2024-12-21,24.7359,121.8163,0.045052815
C0R790,九棚,2024-12-21,22.14195,120.889281,0.00010115781
C0W110,東莒,2024-12-21,25.9652,119.98069,0.00026236163
C1U930,粉鳥林,2024-12-21,24.497088,121.842479,0.028253678
C1I211,蘆竹湳,2024-12-21,23.934019,120.811994,0.010605296
C0S830,長濱,2024-12-21,23.286817,121.411975,0.006639716
C1F9F1,伯公龍,2024-12-21,24.272392,120.849047,0.0015535296
C0E810,西湖,2024-12-21,24.562947,120.7485,0.0002807549
C1I440,新高口,2024-12-21,23.478744,120.878939,0.00044607418
C0O840,王爺宮,2024-12-21,23.222064,120.40085,0.013493033
C0T9G0,鳳林山,2024-12-21,23.735269,121.420131,0.0020488854
C0X080,佳里,2024-12-21,23.173039,120.145086,0.0052954005
C0FB70,大甲溪埔,2024-12-21,24.370625,120.620067,0.00038825005
C0Z310,清水斷崖,2024-12-21,24.218294,121.689142,0.00061439903
C0M680,太保,2024-12-21,23.455062,120.331455,0.038025253
C1S820,金峰,2024-12-21,22.590969,120.933236,0.028722206
C0AD10,八里,2024-12-21,25.150211,121.403947,0.00047288553
C2K240,草嶺,2024-12-21,23.59555,120.693461,0.0018948826
C1SA70,都蘭,2024-12-21,22.87794,121.226881,0.01410576
C0K440,二崙,2024-12-21,23.772797,120.408944,0.016349068
C1A760,坪林交控,2024-12-21,24.94284,121.713442,0.0020047515
C0F9N0,大里,2024-12-21,24.092464,120.701378,0.01116362
C0SA90,達仁林場,2024-12-21,22.264347,120.823972,0.0014515651
C1R290,石門山,2024-12-21,22.112611,120.756597,0.00047737767
42HA10,萬大發電廠,2024-12-21,23.978875,121.139639,0.00090106257
C0R890,山海,2024-12-21,21.9878,120.7091,3.4984532e-05
C0T9A0,月眉山,2024-12-21,23.809928,121.539828,0.0023236158
C0AC70,信義,2024-12-21,25.037822,121.564597,0.0043920255
C0K560,棋山,2024-12-21,23.68645,120.603417,0.007974418
C2FB50,出雲,2024-12-21,24.206469,120.902794,0.0012124158
C1Z240,中平林道,2024-12-21,23.42115,121.26763,0.002372508
U2H480,溪頭,2024-12-21,23.670306,120.798194,0.0010273702
C0M880,好美里,2024-12-21,23.3364,120.138,0.0050584
C0T9E0,大坑,2024-12-21,23.880628,121.581981,0.002514576
C0K530,臺西,2024-12-21,23.701547,120.197559,0.00084458484
C1E900,國一N128K,2024-12-21,24.560997,120.844186,0.00042968374
C0AJ50,水湳洞,2024-12-21,25.123695,121.862238,0.00200964
C0AI20,白沙灣,2024-12-21,25.283128,121.519058,0.0014151772
C0A860,大坪,2024-12-21,25.165914,121.632969,0.00052832504
C1U850,觀音海岸,2024-12-21,24.38319,121.77856,0.0002617904
C2K610,草嶺石壁,2024-12-21,23.602469,120.707731,0.0017833954
C0U950,鶯子嶺,2024-12-21,24.89754,121.79244,0.0002184988
C0O900,善化,2024-12-21,23.112883,120.297219,0.16548008
C0K550,蔦松,2024-12-21,23.514319,120.229736,0.0025068747
E2P980,林試六龜中心,2024-12-21,22.991703,120.645722,0.049319692
C0E590,通霄,2024-12-21,24.471892,120.704622,0.00045102855
C1I310,西巒,2024-12-21,23.754486,120.883956,0.0010427376
C0A550,泰平,2024-12-21,24.971197,121.823711,0.0006100615
C0I360,水里,2024-12-21,23.812553,120.849792,0.004469034
C0R830,高士,2024-12-21,22.121825,120.836781,0.0012033478
C1I101,溪頭,2024-12-21,23.661789,120.807647,0.00069521257
C0AJ20,野柳,2024-12-21,25.20703,121.690021,0.0019720036
C0B060,暖暖,2024-12-21,25.0957,121.7403,0.0017884236
C1H920,長豐,2024-12-21,24.102039,120.879897,0.0028406805
C0V360,內門,2024-12-21,22.975481,120.466769,0.101252556
C0R850,林邊,2024-12-21,22.4634,120.5339,0.072839424
C0E930,龍鳳,2024-12-21,24.700034,120.859125,0.0008168187
C0U910,冬山,2024-12-21,24.63373,121.7937,0.032189623
C1E721,泰安,2024-12-21,24.489017,120.968036,0.0005446847
82H320,茶改中部分場,2024-12-21,23.875611,120.913583,0.007300121
C0M750,布袋,2024-12-21,23.380878,120.167789,0.007104123
C1S860,利嘉,2024-12-21,22.809417,121.050528,0.0044350536
72C440,桃園農改,2024-12-21,24.950944,121.030583,0.000435745
E2S980,林試太麻里1,2024-12-21,22.598922,120.980044,0.094862916
C0X170,關廟,2024-12-21,22.963017,120.327797,0.07179384
C0V720,林園,2024-12-21,22.507747,120.394511,0.3065913
C1I510,線浸林道,2024-12-21,23.761508,120.832956,0.0007573001
C0D690,外湖,2024-12-21,24.917735,120.968711,0.00049584964
C0C750,新興坑尾,2024-12-21,25.0061,121.0971,0.0003895177
B2Q810,畜試南區分所,2024-12-21,21.945583,120.802167,0.0003413079
C0S790,金崙,2024-12-21,22.538122,120.966875,0.03820867
C0AH90,福山植物園,2024-12-21,24.760717,121.58135,0.0006026576
C0I540,奇萊稜線,2024-12-21,24.109231,121.326456,0.00026047585
C0M850,表湖,2024-12-21,23.24186,120.64166,0.0033709463
C0S770,大溪山,2024-12-21,22.478475,120.943325,0.0058036265
C0AG80,中和,2024-12-21,24.991622,121.491792,0.00403055
C0T790,大禹嶺,2024-12-21,24.186117,121.316086,0.00032170815
C0T9B0,水源,2024-12-21,23.991861,121.537169,0.0011514983
C0R840,牡丹池山,2024-12-21,22.168389,120.841225,0.0001369555
C1I131,桶頭,2024-12-21,23.641944,120.654117,0.0013668181
CAL110,布袋國中,2024-12-21,23.35893,120.18026,0.007104123
467571,新竹,2024-12-21,24.827853,121.014219,0.0004232595
C0Z290,赤柯山,2024-12-21,23.36893,121.38293,0.00085289165
C0X280,將軍,2024-12-21,23.214999,120.13577,0.0053854305
C0S690,太麻里,2024-12-21,22.60902,120.98533,0.0024504238
C0U880,北關,2024-12-21,24.9072,121.8734,0.020800386
C1H860,瑞岩,2024-12-21,24.123772,121.18345,0.00059867307
C0G810,埔心,2024-12-21,23.947633,120.525456,0.009472349
C0U970,大福,2024-12-21,24.80064,121.81389,0.014080894
C2H9N0,仁愛東眼,2024-12-21,24.026875,121.1205,0.0007448661
C1E670,南礦,2024-12-21,24.538278,121.002836,0.00033513474
C0M520,東後寮,2024-12-21,23.369908,120.248065,0.006481419
C1E461,松安,2024-12-21,24.397972,120.986022,0.00082296727
72G600,臺中農改,2024-12-21,24.003028,120.534389,0.012762354
C2N160,西拉雅風管處,2024-12-21,23.189481,120.335297,0.089910015
C2M970,碧湖,2024-12-21,23.568632,120.624165,0.002545587
C0A640,石碇,2024-12-21,24.993969,121.662917,0.00075259944
E2S960,林試太麻里2,2024-12-21,22.598,120.99775,0.2288929
C0F9Y0,桃山,2024-12-21,24.432739,121.303808,0.00033252058
C1I020,萬大,2024-12-21,23.979817,121.132261,0.0011732142
C0U940,羅東,2024-12-21,24.68184,121.74934,0.038562186
C0M650,朴子,2024-12-21,23.43463,120.23902,0.0174023
C1I500,大尖山,2024-12-21,23.858572,120.994889,0.00040812447
C0G820,田尾,2024-12-21,23.901669,120.509389,0.009472349
E2K600,四湖植物園,2024-12-21,23.676986,120.163433,0.00086442655
C0S730,綠島,2024-12-21,22.6672,121.47533,0.00043113518
12Q970,東港工作站,2024-12-21,22.479997,120.466058,0.06952939
C0E430,南庄,2024-12-21,24.601775,121.000214,0.0005129222
C1TA00,太魯閣,2024-12-21,24.15773,121.6236,0.0009988211
466920,臺北,2024-12-21,25.037658,121.514853,0.0043920255
C0R600,舊泰武,2024-12-21,22.588194,120.664944,0.0057261023
C1I260,北坑,2024-12-21,23.9246,121.006903,0.008446622
466910,鞍部,2024-12-21,25.182586,121.529731,0.00012879238
C1I230,九份二山,2024-12-21,23.961944,120.845,0.0015254407
C2A660,瑞芳,2024-12-21,25.113169,121.801147,0.0008243023
C0R270,琉球嶼,2024-12-21,22.332244,120.362236,0.25333002
C1T990,高寮,2024-12-21,23.394239,121.356808,0.019236049
C0G620,芬園,2024-12-21,24.015678,120.6213,0.016820988
C1Z140,荖溪,2024-12-21,23.890575,121.45964,0.0010518739
C1I201,中心崙,2024-12-21,23.728722,120.712097,0.001099421
C1I400,凌霄,2024-12-21,24.018778,121.004456,0.0007689225
C1M640,十字,2024-12-21,23.492153,120.753683,0.0013135658
G2P820,農試鳳山分所,2024-12-21,22.646611,120.356083,0.11495487
C0Z270,蕃薯寮,2024-12-21,23.73835,121.540108,0.0074429144
C0F9Q0,外埔,2024-12-21,24.347817,120.705686,0.00073461066
C0K580,高鐵雲林,2024-12-21,23.737456,120.417944,0.018427642
C2I090,鳳凰,2024-12-21,23.728081,120.787347,0.001126178
C0U990,員山,2024-12-21,24.74435,121.72247,0.041753765
C0V770,大社,2024-12-21,22.730306,120.346639,0.38069227
C0X120,麻豆,2024-12-21,23.183289,120.248611,0.07402428
C0C670,龍潭,2024-12-21,24.870056,121.221389,0.00051335944
C0D680,香山濕地,2024-12-21,24.783581,120.914988,0.00053218566
C0S980,勝林山,2024-12-21,22.430439,120.8938,0.00983597
C0V730,大寮,2024-12-21,22.605614,120.395717,0.112359874
C0R570,麟洛,2024-12-21,22.65078,120.52719,0.4796536
C2M930,石卓,2024-12-21,23.478744,120.702264,0.0011956379
C0G9B0,和美,2024-12-21,24.105169,120.492131,0.00082239305
CAG100,王功漁港,2024-12-21,23.96824,120.32586,0.0004989756
C0X290,北門,2024-12-21,23.267772,120.125481,0.0053854305
C2F930,大甲,2024-12-21,24.347667,120.640403,0.00034126788
C0D650,湖口,2024-12-21,24.904794,121.043628,0.0003935004
C0E420,竹南,2024-12-21,24.708978,120.888897,0.0005975654
C0U780,五結,2024-12-21,24.68637,121.79794,0.045052815
C1I250,鯉潭,2024-12-21,23.961922,120.991131,0.0021944991
C0R130,阿禮,2024-12-21,22.742908,120.743678,0.003977076
C0X100,臺南市北區,2024-12-21,23.010394,120.194228,0.016992675
C0S920,金峰嘉蘭,2024-12-21,22.594789,120.960825,0.08559471
C0V490,新興,2024-12-21,22.627422,120.298803,0.10378934
C0F9K0,大安,2024-12-21,24.345061,120.588025,0.00039535464
72N100,臺南農改,2024-12-21,23.0605,120.342194,0.12835109
467290,古坑,2024-12-21,23.633639,120.551889,0.00988762
C2E970,八甲,2024-12-21,24.535811,120.795983,0.0003486501
C0V440,鳳山,2024-12-21,22.646653,120.356122,0.11495487
C1T940,大觀,2024-12-21,23.714206,121.373133,0.0029910696
72T250,花蓮農改,2024-12-21,23.975222,121.563889,0.04960179
C0E740,造橋,2024-12-21,24.637056,120.864778,0.0005210256
C0R100,尾寮山,2024-12-21,22.833111,120.683889,0.005551923
A2K630,臺大雲林校區,2024-12-21,23.730628,120.423903,0.018427642
C0D580,寶山,2024-12-21,24.735006,121.025192,0.00071557437
E2P990,林試扇平站,2024-12-21,22.9677,120.6857,0.06287645
C0AI30,三重,2024-12-21,25.057328,121.500629,0.0047420477
C0AH00,汐止,2024-12-21,25.066881,121.658778,0.0043920255
C1Z040,立山,2024-12-21,23.443356,121.327375,0.0048976005
C0W130,花嶼,2024-12-21,23.40007,119.32276,0.00027699274
C0A950,鼻頭角,2024-12-21,25.129036,121.923372,0.0031092318
C0K470,林內,2024-12-21,23.748675,120.609642,0.006761839
C2F990,摩天嶺,2024-12-21,24.322458,120.936819,0.0020334423
82C160,茶改場,2024-12-21,24.908472,121.185333,0.00057235453
C0Z320,清水林道,2024-12-21,23.27125,121.188272,0.0023755333
C0R760,南仁湖,2024-12-21,22.084681,120.863353,0.00047737767
C0M670,大林,2024-12-21,23.600616,120.45841,0.0069989692
C0M800,茶山,2024-12-21,23.299075,120.664767,0.067388125
C0A9C0,天母,2024-12-21,25.117494,121.537169,0.001479549
72K220,南改斗南分場,2024-12-21,23.634556,120.477333,0.009870125
72AI40,桃改樹林分場,2024-12-21,24.944503,121.386972,0.0014102947
C0S910,蘭嶼燈塔,2024-12-21,22.081197,121.503117,0.00048437054
C0B050,八斗子,2024-12-21,25.144754,121.79167,0.0027400074
C0U900,內城,2024-12-21,24.71813,121.68766,0.030559326
C0X320,柳營,2024-12-21,23.253328,120.375253,0.055607647
C0M790,新港,2024-12-21,23.553269,120.345728,0.013193544
C0F9T0,西屯,2024-12-21,24.179494,120.641275,0.0031540694
C0SA30,都歷,2024-12-21,23.020333,121.323642,0.0285241
C0C620,蘆竹,2024-12-21,25.084275,121.265767,0.0006098136
C0R730,大坪頂,2024-12-21,22.024633,120.69355,2.7828004e-05
C0AJ40,石門,2024-12-21,25.273672,121.601198,0.0005361192
C0E750,苗栗,2024-12-21,24.564569,120.824575,0.00043766285
C0T870,鯉魚潭,2024-12-21,23.935639,121.508944,0.013059379
C1V170,排雲,2024-12-21,23.463619,120.954147,0.00028762006
C2H950,中寮,2024-12-21,23.884447,120.766406,0.002403171
C0R350,貓鼻頭,2024-12-21,21.921774,120.7358,6.2002e-05
C0V660,岡山,2024-12-21,22.797078,120.294958,0.12238471
C1H941,雙冬,2024-12-21,23.967378,120.802189,0.0077578304
C0AJ70,田寮,2024-12-21,25.2698,121.4886,0.0015367601
C0AI00,五股,2024-12-21,25.07445,121.42728,0.0004668209
C0Z280,德武,2024-12-21,23.47426,121.41071,0.00778553
C0R700,枋山,2024-12-21,22.246844,120.661086,0.0019422227
C0C460,復興,2024-12-21,24.820208,121.352281,0.0003344507
E2H360,蓮華池,2024-12-21,23.918333,120.885278,0.005487507
C0M640,中埔,2024-12-21,23.42538,120.5229,0.0031779562
C0W140,金沙,2024-12-21,24.488292,118.408778,0.00036953643
C2A540,四堵,2024-12-21,24.8926,121.745736,0.0007243548
C0ACA0,新莊,2024-12-21,25.051478,121.446756,0.002823867
C0R220,潮州,2024-12-21,22.534361,120.54,0.13207033
U2HA40,臺大內茅埔,2024-12-21,23.689722,120.851117,0.020393664
467490,臺中,2024-12-21,24.145736,120.684075,0.0025338684
C0U960,翠峰湖,2024-12-21,24.510856,121.608044,0.00025010304
E2HA20,林試畢祿溪站,2024-12-21,24.226944,121.308522,0.000402515
C0V890,前鎮,2024-12-21,22.5718,120.3117,0.0955262
467620,蘭嶼,2024-12-21,22.036969,121.558339,0.00036425897
C1F941,雪嶺,2024-12-21,24.280586,121.026642,0.00038678784
C2H9E0,國姓南港,2024-12-21,23.911108,120.846556,0.00073434744
C0AC80,文山,2024-12-21,25.00235,121.575728,0.0028396498
C0F9R0,龍井,2024-12-21,24.184536,120.528972,0.00053518766
C0M760,民雄,2024-12-21,23.551754,120.428457,0.0076545333
C0UA40,西德山,2024-12-21,24.560647,121.752608,0.001107425
C1T920,中興,2024-12-21,23.769503,121.498653,0.045776594
C0D550,雪霸,2024-12-21,24.526972,121.11605,0.0005631081
C2F860,梨山,2024-12-21,24.247522,121.243669,0.0003932844
C0R320,車城,2024-12-21,22.0744,120.716247,7.330369e-05
C1S870,南美山,2024-12-21,23.15025,121.382333,0.0017876006
C0B020,基隆嶼,2024-12-21,25.19141,121.78391,0.00061696774
C1U501,牛鬥,2024-12-21,24.637836,121.573656,0.013234966
C0M730,嘉義市東區,2024-12-21,23.457673,120.460531,0.008242008
C0S700,知本,2024-12-21,22.684866,121.005642,0.0019972895
C1N001,沙崙,2024-12-21,22.935472,120.309406,0.08443368
C0V760,橋頭,2024-12-21,22.757806,120.30575,0.38929868
C0G960,福寶,2024-12-21,24.0443,120.3814,0.0008576792
C0X210,白河,2024-12-21,23.347466,120.414427,0.01112366
C0S810,東河,2024-12-21,22.972672,121.303986,0.003660295
C2R170,屏東,2024-12-21,22.66027,120.49403,0.47965392
C0R670,楓港,2024-12-21,22.190131,120.692156,8.187372e-05
C0FA50,霧峰,2024-12-21,24.0419,120.6995,0.022641126
C0UB10,蘇澳,2024-12-21,24.5969,121.8571,0.07404064
C0G950,防潮門,2024-12-21,24.1835,120.4871,0.00053518766
C0M740,六腳,2024-12-21,23.492871,120.290625,0.017742965
C1R250,力里,2024-12-21,22.428117,120.629228,0.034832146
C0K330,虎尾,2024-12-21,23.719183,120.442036,0.01673825
C2FA00,烏石坑,2024-12-21,24.273503,120.947617,0.0021402908
C0V620,永安,2024-12-21,22.82315,120.236856,0.12238471
C1I330,楓樹林,2024-12-21,23.986803,121.076117,0.0009687846
C0W200,湖西,2024-12-21,23.596314,119.67275,0.00028497213
72Q010,高雄農改場,2024-12-21,22.709333,120.525889,0.24506667
C0SA40,瑞和,2024-12-21,22.974361,121.156697,0.014473596
C0C680,龜山,2024-12-21,25.02846,121.38656,0.00040312903
C2V260,月眉,2024-12-21,22.971003,120.539853,0.20880884
C0V450,鳳森,2024-12-21,22.545064,120.392592,0.38509873
C0U720,南山,2024-12-21,24.43742,121.38167,0.00094852195
A2N290,臺南蘭花園區,2024-12-21,23.340258,120.379661,0.037621386
C0R560,新園,2024-12-21,22.5434,120.461558,0.3065913
C0U890,三星,2024-12-21,24.66812,121.65302,0.040453646
C1V300,御油山,2024-12-21,23.001983,120.715364,0.0010683389
C0U600,礁溪,2024-12-21,24.817539,121.765608,0.015106624
C1T980,龍澗,2024-12-21,24.023289,121.411328,0.00092549954
C0D670,海天一線,2024-12-21,24.831986,120.914438,0.00043422717
C0SA00,歷坵,2024-12-21,22.520969,120.89185,0.0044687195
C0M710,東石,2024-12-21,23.458927,120.15385,0.001151069
C0M780,鹿草,2024-12-21,23.41134,120.30835,0.015620332
C0U520,雙連埤,2024-12-21,24.753033,121.641303,0.0010210556
C0B010,七堵,2024-12-21,25.094819,121.71713,0.002499311
C0R480,長治,2024-12-21,22.693128,120.542622,0.6041971
C1V830,國三S383K,2024-12-21,22.781967,120.426475,0.3504362
12Q980,恆春工作站,2024-12-21,22.079678,120.714425,7.330369e-05
C1O940,東山服務區,2024-12-21,23.286016,120.398472,0.011854461
C1U840,東澳嶺,2024-12-21,24.5378,121.8485,0.0012662768
C1D630,飛鳳山,2024-12-21,24.766464,121.119178,0.00032950434
C0S940,石寧山,2024-12-21,23.223772,121.406639,0.01824152
C0K410,北港,2024-12-21,23.573957,120.292802,0.003957901
C2M620,瑞里,2024-12-21,23.545133,120.675197,0.0013096967
C0SB70,小港漁港,2024-12-21,23.158558,121.400431,0.00912879
C2O950,安南,2024-12-21,23.076694,120.144861,0.002648191
C0F0E0,南湖圈谷,2024-12-21,24.363714,121.444667,0.00022816294
467610,成功,2024-12-21,23.097486,121.373428,0.005799875
C0G890,伸港,2024-12-21,24.148933,120.484403,0.0007444836
C2E540,龍溪,2024-12-21,24.606489,120.783933,0.00054418633
C1V200,梅山,2024-12-21,23.268447,120.823556,0.0040092347
C0T9H0,加路蘭山,2024-12-21,23.682947,121.5274,0.0013988741
C2O930,玉井,2024-12-21,23.126042,120.46055,0.031914055
C1F911,新伯公,2024-12-21,24.221361,120.841069,0.0014685729
C0R490,九如,2024-12-21,22.7405,120.490503,0.26281765
C0X200,左鎮,2024-12-21,23.056758,120.408522,0.044097356
C0SB50,叭嗡嗡,2024-12-21,23.047062,121.343223,0.041521024
C1F891,稍來,2024-12-21,24.265689,121.001142,0.00054462114
72N240,七股研究中心,2024-12-21,23.081672,120.062894,0.002951594
C0C700,中壢,2024-12-21,24.977661,121.256375,0.00067037327
C0M690,水上,2024-12-21,23.419734,120.388909,0.034868304
C0V690,鼓山,2024-12-21,22.623325,120.275575,0.10378934
C0O860,大內,2024-12-21,23.11885,120.36083,0.13997859
C0Z200,萬榮,2024-12-21,23.709219,121.420106,0.0326566
C0T9D0,和中,2024-12-21,24.26676,121.74103,0.009555098
C1O921,楠西,2024-12-21,23.183511,120.484083,0.02008763
C0AJ30,淡水觀海,2024-12-21,25.184591,121.408616,0.0020762617
C0V810,左營,2024-12-21,22.67491,120.28491,0.112183236
C0UA70,桃源谷,2024-12-21,24.962606,121.888875,0.00040821065
C0X130,官田,2024-12-21,23.193217,120.315422,0.09886926
C1H000,翠峰,2024-12-21,24.109397,121.205211,0.0004009775
C0UA90,石城,2024-12-21,24.980444,121.951214,0.012636915
C1E681,南勢山,2024-12-21,24.421669,120.923831,0.00041403933
C0A9F0,內湖,2024-12-21,25.079422,121.57545,0.0043920255
C0K291,宜梧,2024-12-21,23.536281,120.169329,0.0025068747
C1K540,口湖,2024-12-21,23.585344,120.180517,0.0006352585
C0R780,滿州,2024-12-21,22.024403,120.839892,0.0022246493
C0V870,文安,2024-12-21,22.8025,120.2164,0.13446318
C0U650,玉蘭,2024-12-21,24.675286,121.587061,0.0018745824
C0R640,東港,2024-12-21,22.46247,120.44074,0.06952939
K2E360,苗栗農改,2024-12-21,24.495722,120.829111,0.0004533529
C0AJ80,板橋,2024-12-21,25.0107,121.4489,0.0044970857
C0S660,下馬,2024-12-21,23.150427,121.070312,0.0011682466
C1H9B1,阿眉,2024-12-21,24.1263,120.994672,0.00058527244
C0UA20,多加屯,2024-12-21,24.368614,121.373189,0.00037133181
C0E730,頭份,2024-12-21,24.688247,120.912206,0.0006375682
72V140,高改旗南分場,2024-12-21,22.857861,120.516667,0.29270613
C0K480,莿桐,2024-12-21,23.761192,120.502372,0.01324256
C0U980,坪林石牌,2024-12-21,24.86478,121.77396,0.0006375834
C0T900,西林,2024-12-21,23.8119,121.441458,0.0140399765
C1I150,青雲,2024-12-21,23.793361,120.949378,0.0050185807
467350,澎湖,2024-12-21,23.565503,119.563094,0.00026517315
C0G800,埔鹽,2024-12-21,24.000394,120.431683,0.0008221799
C0H960,草屯,2024-12-21,23.973672,120.68085,0.017521998
C1V780,多納林道,2024-12-21,22.888028,120.737917,0.005700783
C0E920,通霄漁港,2024-12-21,24.498589,120.673876,0.0005145915
C0Z330,安通山,2024-12-21,23.290728,121.348528,0.0021021932
C0AH10,永和,2024-12-21,25.01125,121.508111,0.0044970857
C0AK10,太平里,2024-12-21,25.134937,121.364899,0.00045801222
C2G640,鹿港,2024-12-21,24.0753,120.430481,0.0008576792
C1E890,國三N149K,2024-12-21,24.463414,120.680019,0.0003014656
C1R110,口社,2024-12-21,22.770111,120.645222,0.11147185
C1M870,國三N285K,2024-12-21,23.550319,120.505833,0.00431655
467050,新屋,2024-12-21,25.006744,121.047486,0.0004380604
C1E480,鳳美,2024-12-21,24.554803,121.034747,0.00041292602
C0M530,奮起湖,2024-12-21,23.493903,120.699253,0.0010875699
C0C590,觀音,2024-12-21,25.027072,121.153317,0.00034841636
C0T9M0,靜浦,2024-12-21,23.455167,121.495028,0.023897633
C2H9M0,發祥,2024-12-21,24.154094,121.164517,0.0010611295
C0AI40,石牌,2024-12-21,25.115597,121.513139,0.0015490022
C1F871,上谷關,2024-12-21,24.203483,121.018644,0.0014382463
C2H9G0,百勝,2024-12-21,24.051142,120.909361,0.0025638724
C0G880,二水,2024-12-21,23.810742,120.6173,0.0045133154
C0R940,加祿堂,2024-12-21,22.3363,120.6217,0.0012987569
C0W220,北竿,2024-12-21,26.220358,119.974881,0.00027677842
C0O960,崎頂,2024-12-21,22.959547,120.369317,0.030254826
C0S750,向陽,2024-12-21,23.248397,120.986133,0.00080675294
C0T9F0,水璉,2024-12-21,23.797131,121.542514,0.007174806
C1M600,頭凍,2024-12-21,23.406364,120.603339,0.0020842012
467660,臺東,2024-12-21,22.752211,121.154586,0.0051045576
C1D380,新埔,2024-12-21,24.84745,121.03834,0.00036391223
C2G980,田頭村,2024-12-21,23.8263,120.444175,0.016349068
C0V750,路竹,2024-12-21,22.854997,120.259439,0.02018028
C0N050,蚵寮,2024-12-21,23.301,120.1104,0.0050584
72M700,南改鹿草分場,2024-12-21,23.416869,120.283061,0.0174023
C1SA50,利嘉林道,2024-12-21,22.82325,121.009389,0.0016763541
467550,玉山,2024-12-21,23.487614,120.959522,0.00029398518
C0A940,金山,2024-12-21,25.223628,121.643967,0.0016769182
C1V340,大津,2024-12-21,22.888322,120.645986,0.15013504
C0W180,七美,2024-12-21,23.219333,119.444892,0.00029386132
C1F9C1,白冷,2024-12-21,24.182844,120.929889,0.00071644783
K2E710,苗改生物防治研究中心,2024-12-21,24.422861,120.871833,0.0004943579
C0N040,蘆竹溝,2024-12-21,23.2344,120.0961,0.0053854305
C2W230,畜試所澎湖,2024-12-21,23.628342,119.513206,0.0002613632
C0R880,後壁湖,2024-12-21,21.9457,120.7457,3.6568155e-05
C1I280,埔中,2024-12-21,23.820778,120.642594,0.0018276698
467790,墾丁雷達站,2024-12-21,21.948235,120.808028,0.00039027486
C0W190,望安,2024-12-21,23.380564,119.494075,0.00027229244
466881,新北,2024-12-21,24.9593,121.52,0.003732224
C0Z170,卓溪,2024-12-21,23.3443,121.3029,0.009347524
C0F850,東勢,2024-12-21,24.246428,120.833047,0.00047683896
466900,淡水,2024-12-21,25.164889,121.448906,0.00045801222
C0I370,魚池,2024-12-21,23.895703,120.94135,0.0037033136
C0C630,大溪,2024-12-21,24.882853,121.265547,0.0005891007
C0A520,山佳,2024-12-21,24.974944,121.402008,0.001330194
C0I110,竹山,2024-12-21,23.761225,120.688156,0.0025647825
82H840,茶改南部分場,2024-12-21,23.762528,120.7405,0.0020846794
C0G660,溪湖,2024-12-21,23.94835,120.479122,0.010413797
C1T800,洛韶,2024-12-21,24.204558,121.453956,0.00035405607
C1T810,慈恩,2024-12-21,24.192044,121.388386,0.0004958532
C1E451,象鼻,2024-12-21,24.368617,120.940228,0.00048529112
C0AC60,三峽,2024-12-21,24.939025,121.369728,0.0012856593
C0I490,萬大林道,2024-12-21,23.928228,121.091411,0.00054937025
C1I290,豐丘,2024-12-21,23.668178,120.887417,0.0009400442
C1I320,奧萬大,2024-12-21,23.952956,121.178556,0.0008224863
C2M910,嘉義大學,2024-12-21,23.471325,120.485903,0.0059155594
C0U770,南澳,2024-12-21,24.44935,121.81022,0.000605927
C0A980,社子,2024-12-21,25.109508,121.469681,0.00048704958
C0V800,六龜,2024-12-21,22.997889,120.633583,0.060734015
C1G9D0,國一S218K,2024-12-21,23.890641,120.493253,0.013310768
C0E570,白沙屯,2024-12-21,24.549447,120.696803,0.00031221373
C2F9A0,中竹林,2024-12-21,24.103556,120.751061,0.0007410718
C0FA40,臺中電廠,2024-12-21,24.2146,120.4907,0.00053518766
C2G9A0,畜試所彰化,2024-12-21,23.86045,120.557964,0.023100045
C0H9C0,合歡山,2024-12-21,24.143442,121.272547,0.00029904675
C0X060,下營,2024-12-21,23.22695,120.256261,0.059475612
G2M350,農試溪口農場,2024-12-21,23.58565,120.408111,0.008272924
C0U860,頭城,2024-12-21,24.85323,121.8308,0.016579645
C0R580,南州,2024-12-21,22.48591,120.50274,0.06952939
C0D430,峨眉,2024-12-21,24.6905,121.017189,0.00045902014
C0G780,秀水,2024-12-21,24.03405,120.503869,0.012762354
72N100,臺南農改場,2024-12-21,23.0605,120.342194,0.12835109
C0S900,蘭嶼高中,2024-12-21,22.04909,121.51214,0.0011870419
467540,大武,2024-12-21,22.355675,120.903789,0.031206245
C1F9W0,德基,2024-12-21,24.254783,121.190261,0.0006841309
C1Z120,壽豐,2024-12-21,23.870853,121.508081,0.04480789
C0W160,烏坵,2024-12-21,24.9944,119.44956,0.00023628603
C1I240,外大坪,2024-12-21,23.958697,120.917931,0.0020607335
C1I550,國六W023K,2024-12-21,23.979067,120.867742,0.006542525
C0R870,興海,2024-12-21,21.9752,120.8439,0.0003413079
C0R140,瑪家,2024-12-21,22.682903,120.686639,0.030601835
C0A530,坪林,2024-12-21,24.938183,121.70975,0.0010763673
C0X260,後壁,2024-12-21,23.366358,120.362326,0.037621386
C0Z230,和平,2024-12-21,24.30717,121.77007,0.010418418
C0G770,福興,2024-12-21,24.041289,120.437669,0.0008221799
C0H9A0,神木村,2024-12-21,23.532742,120.843667,0.0012550689
C0I460,南投,2024-12-21,23.911469,120.687331,0.015019418
C0I480,梅峰,2024-12-21,24.085272,121.173572,0.00053997966
C1V570,吉東,2024-12-21,22.85422,120.5454,0.24196476
C2D740,屯原,2024-12-21,24.067969,121.209389,0.00061510684
C2A560,福山,2024-12-21,24.776203,121.502811,0.0017818053
C0AH30,五分山,2024-12-21,25.07125,121.780794,0.00019461487
C0FA10,松柏,2024-12-21,24.429115,120.617482,0.0003247456
72S200,東改班鳩分場,2024-12-21,22.829528,121.077694,0.01173764
72HA00,中改埔里分場,2024-12-21,23.903208,120.963364,0.0066039404
C2H9W0,大坪頂農水,2024-12-21,24.043122,120.932781,0.0027635128
C0C650,平鎮,2024-12-21,24.897503,121.214636,0.00060637237
C0S930,延平,2024-12-21,22.902581,121.084058,0.011633367
C0UA60,樟樹山,2024-12-21,24.41393,121.78325,0.0038469215
C1S670,摩天,2024-12-21,23.199503,121.027,0.0002851181
C0V630,茄萣,2024-12-21,22.906642,120.182608,0.027735626
466940,基隆,2024-12-21,25.133314,121.740475,0.0024475383
C0X050,東河,2024-12-21,23.296598,120.385608,0.014288891
C0R770,保力,2024-12-21,22.071122,120.764111,3.3288623e-05
G2L020,農試嘉義分所,2024-12-21,23.485028,120.473806,0.0043063425
C0X240,關子嶺,2024-12-21,23.331169,120.508025,0.0024295317
C0I380,集集,2024-12-21,23.828206,120.801467,0.0047285687
466990,花蓮,2024-12-21,23.975128,121.613275,0.06597283
C1V220,小關山,2024-12-21,23.154217,120.813603,0.0010586057
C1F9G1,慶福山,2024-12-21,24.180853,120.848378,0.0016688703
C0Z250,瑞穗林道,2024-12-21,23.49284,121.30688,0.0030507878
C0D590,新豐,2024-12-21,24.87068,120.97721,0.00031411048
C0A870,五指山,2024-12-21,25.132153,121.608692,0.00027253423
C0UA50,西帽山,2024-12-21,24.555361,121.802628,0.0021932516
C0X160,仁德,2024-12-21,22.968258,120.257689,0.04393987
C1H971,六分寮,2024-12-21,23.92507,120.6378,0.0017302231
C0W120,西嶼,2024-12-21,23.5626,119.468436,0.00026372893
C0G650,員林,2024-12-21,23.946503,120.585597,0.018226082
C0AD50,鶯歌,2024-12-21,24.951533,121.346294,0.0010929509
C2H9Q0,北東眼山,2024-12-21,24.120939,121.189303,0.0004894849
C2H9T0,名間竹圍,2024-12-21,23.859914,120.637572,0.0040134275
C0S990,山豬窟,2024-12-21,22.318619,120.857372,0.009951817
72Q010,高雄農改,2024-12-21,22.709333,120.525889,0.24506667
C0X190,安平,2024-12-21,22.993161,120.152181,0.016992675
C0K400,斗六,2024-12-21,23.720583,120.541127,0.00926024
12J990,口湖工作站,2024-12-21,23.589978,120.180394,0.0006352585
C0O830,北寮,2024-12-21,23.079561,120.495008,0.10204737
C1D410,白蘭,2024-12-21,24.579364,121.079947,0.0003075536
C0S970,加津林,2024-12-21,22.416211,120.926942,0.035187993
C0D700,關西,2024-12-21,24.7977,121.1732,0.0005303781
C0M810,里佳,2024-12-21,23.389125,120.716647,0.0010093469
C0U750,龜山島,2024-12-21,24.841667,121.953133,0.0004158157
C0R810,內獅,2024-12-21,22.305064,120.642986,0.0013902785
C1M390,龍美,2024-12-21,23.406728,120.654417,0.0014390519
C2FB60,頭櫃山,2024-12-21,24.129842,120.858925,0.0020006648
C1H840,國三N238K,2024-12-21,23.841008,120.707711,0.005789346
CAQ030,崎峰國小,2024-12-21,22.42565,120.49521,0.06952939
C2E520,大湖,2024-12-21,24.414939,120.870872,0.00046030877
467530,阿里山,2024-12-21,23.508208,120.813242,0.0004910549
C1E691,南湖,2024-12-21,24.40135,120.837533,0.0004904648
C0FA30,梧棲,2024-12-21,24.256003,120.523381,0.00049199944
C1V231,高中,2024-12-21,23.134911,120.716711,0.0032022686
C0F9V0,新社,2024-12-21,24.200172,120.815806,0.0009553691
C0H890,埔里,2024-12-21,23.972169,120.952425,0.004229721
C0R690,墾丁,2024-12-21,21.966756,120.810269,0.0013718812
C0F0D0,審馬陣,2024-12-21,24.381675,121.4203,0.0003064557
C0R820,白鷺,2024-12-21,22.454275,120.666219,0.05043645
U2H480,臺大溪頭,2024-12-21,23.670306,120.798194,0.0010273702
C1V190,南天池,2024-12-21,23.27403,120.91176,0.00043967002
K2E360,苗栗農改場,2024-12-21,24.495722,120.829111,0.0004533529
CAJ050,海口故事園區,2024-12-21,23.57543,120.14121,0.0006352585
C2H9D0,三隻寮,2024-12-21,24.093078,120.861578,0.0026239469
C0O990,媽廟,2024-12-21,22.99175,120.293525,0.12941521
C0D480,打鐵坑,2024-12-21,24.849664,121.150789,0.0005075727
C0Z220,和平林道,2024-12-21,24.343922,121.656317,0.0003276365
C0TA10,花蓮漁港,2024-12-21,23.995322,121.638331,0.07942652
72C440,桃園農改場,2024-12-21,24.950944,121.030583,0.000435745
C1E711,馬拉邦山,2024-12-21,24.367306,120.901656,0.00047330474
C0SB20,富岡,2024-12-21,22.792467,121.192669,0.012640788
C0D560,竹東,2024-12-21,24.767147,121.057881,0.0005519055
C0F9U0,南屯,2024-12-21,24.137006,120.637969,0.0042048185
C0M720,番路,2024-12-21,23.464657,120.554156,0.0020099184
C0F0A0,雪山圈谷,2024-12-21,24.388594,121.236339,0.0002792658
C1A9N0,四十份,2024-12-21,24.934158,121.593283,0.00030188353
C0U760,東澳,2024-12-21,24.52196,121.83318,0.020374373
C0X230,鹽水,2024-12-21,23.272621,120.247641,0.004593774
C2H9H0,苗改南投蜂場,2024-12-21,23.852589,120.693481,0.0030933325
C0R950,萬隆國小,2024-12-21,22.507667,120.587817,0.14372277
C0V370,古亭坑,2024-12-21,22.893178,120.401947,0.24440359
C1I340,新興橋,2024-12-21,23.563333,120.868728,0.0040541086
C0SA80,土坂,2024-12-21,22.453108,120.887572,0.06818941
C0R160,鹽埔,2024-12-21,22.739558,120.530778,0.24506667
C0AC40,大屯山,2024-12-21,25.175675,121.522408,0.00012611077
466850,五分山雷達站,2024-12-21,25.071182,121.781205,0.00019263099
C2H9L0,馬烈霸,2024-12-21,24.1512,121.201772,0.0004964094
C1AI50,國三N016K,2024-12-21,25.034164,121.619664,0.003293529
C1V600,藤枝,2024-12-21,23.071961,120.757042,0.0012758689
C1E601,南勢,2024-12-21,24.572486,120.734842,0.0002468466
C0Z180,新城,2024-12-21,24.03946,121.60454,0.0598992
C0O980,新市,2024-12-21,23.061614,120.298197,0.16548008
C0K420,西螺,2024-12-21,23.800407,120.467394,0.015069195
C0Z050,佳心,2024-12-21,23.34567,121.21316,0.0011078638
C0AD30,蘆洲,2024-12-21,25.086594,121.472331,0.0047420477
C0V610,梓官,2024-12-21,22.760558,120.267211,0.38929868
K2F750,種苗改良場,2024-12-21,24.225972,120.800917,0.0011698289
C0UA80,大溪漁港,2024-12-21,24.941801,121.902955,0.018866686
C1AI60,國一39K邊坡,2024-12-21,25.064361,121.383836,0.00043255935
C0W150,金寧,2024-12-21,24.457703,118.328989,0.00058055966
C0R960,內埔,2024-12-21,22.608483,120.570714,0.1452469
V2C250,八德合作社,2024-12-21,24.93775,121.266389,0.0007594336
C2H9S0,龍南,2024-12-21,23.953536,120.833183,0.001814373
C0AH40,平等,2024-12-21,25.129142,121.577086,0.00045571255
C0R540,佳冬,2024-12-21,22.419456,120.552375,0.0064111133
466950,彭佳嶼,2024-12-21,25.627975,122.079744,0.0003374191
C0A890,雙溪,2024-12-21,25.036003,121.864242,0.008090254
C0C480,桃園,2024-12-21,24.992425,121.323172,0.0007448533
C0AH50,林口,2024-12-21,25.072181,121.38084,0.00038472278
A2K360,水試臺西試驗場,2024-12-21,23.717231,120.190522,0.0008771327
B2N890,畜試所,2024-12-21,23.058972,120.336406,0.12835109
C2M960,外寮,2024-12-21,23.562643,120.665688,0.0022345826
C0F9S0,烏日,2024-12-21,24.107058,120.624103,0.016878968
C0C490,八德,2024-12-21,24.928708,121.283289,0.0007300016
C0R190,赤山,2024-12-21,22.592333,120.614306,0.15103805
C0T820,天祥,2024-12-21,24.179597,121.495639,0.013591026
C1F9E1,龍安,2024-12-21,24.1605,120.831961,0.0005304688
C0V820,小林,2024-12-21,23.148408,120.63325,0.006252994
C2G870,芳苑,2024-12-21,23.922303,120.320025,0.00048510128
C0E850,大河,2024-12-21,24.618069,120.948578,0.0005713914
C1U670,寒溪,2024-12-21,24.634,121.71691,0.017225986
C0N020,城西,2024-12-21,23.0568,120.0956,0.016992675
C1Z110,三棧,2024-12-21,24.11557,121.60501,0.0035391892
C0R280,檳榔,2024-12-21,22.076078,120.836777,0.00015158227
C2H9J0,中台,2024-12-21,23.9996,120.938739,0.0038537376
C0F9L0,后里,2024-12-21,24.310436,120.729725,0.0006818011
C0D540,橫山,2024-12-21,24.71116,121.11693,0.0005584797
C1D420,太閣南,2024-12-21,24.632808,121.160575,0.00030138632
C1E770,公館,2024-12-21,24.526914,120.830806,0.00048933865
CAN130,水試所海水繁養殖中心,2024-12-21,23.120802,120.07968,0.002951594
C1I430,翠華,2024-12-21,24.191961,121.224339,0.00041066317
C1M400,菜瓜坪,2024-12-21,23.251928,120.576103,0.03668539
C0G730,二林,2024-12-21,23.903325,120.376081,0.0007433033
72M360,南改義竹分場,2024-12-21,23.360694,120.279361,0.006481419
V2K620,麥寮合作社,2024-12-21,23.753836,120.294783,0.003658765
C0Z070,舞鶴,2024-12-21,23.46811,121.37407,0.0055072447
C0B040,大武崙,2024-12-21,25.166676,121.706993,0.0015880074
C1Z030,紅葉,2024-12-21,23.493119,121.338806,0.0058462406
C1I050,丹大,2024-12-21,23.753747,121.141147,0.0004145508
C0I080,信義,2024-12-21,23.689694,120.851036,0.020393664
C2M920,朴子農改,2024-12-21,23.469889,120.259383,0.0174023
C2A880,福隆,2024-12-21,25.017842,121.942083,0.013838071
C0Z160,鳳林,2024-12-21,23.746114,121.453411,0.049812656
C0V210,復興,2024-12-21,23.222403,120.806089,0.009047655
C0H990,昆陽,2024-12-21,24.121322,121.273642,0.00030954127
C0R741,獅子,2024-12-21,22.202308,120.705236,0.00041734485
C0S710,鹿野,2024-12-21,22.917711,121.122994,0.004849698
C0I530,小奇萊,2024-12-21,24.131764,121.295717,0.0003042496
C2K630,荷苞,2024-12-21,23.657717,120.595144,0.004567575
C0Z080,富源,2024-12-21,23.587642,121.378225,0.0073907888
467441,高雄,2024-12-21,22.7304,120.3125,0.38069227
C0SB10,美和,2024-12-21,22.682078,121.060236,0.098500185
C2K620,馬光農場,2024-12-21,23.721453,120.378864,0.020193746
C1I140,卡奈托灣,2024-12-21,23.754364,121.087872,0.0008324061
C0I520,玉山風口,2024-12-21,23.470489,120.955994,0.0002654871
C1G691,下水埔,2024-12-21,23.816114,120.5676,0.011234529
C0X110,臺南市南區,2024-12-21,22.961189,120.188378,0.0439398
C0V680,仁武,2024-12-21,22.701083,120.347722,0.112183236
C2G840,北斗,2024-12-21,23.877586,120.514222,0.012173766
C0R900,竹坑,2024-12-21,22.1385,120.7022,6.711522e-05
C0K250,崙背,2024-12-21,23.75555,120.318925,0.003658765
C0G860,社頭,2024-12-21,23.897647,120.5862,0.025322001
C0X150,安定,2024-12-21,23.102614,120.227839,0.07060799
C0R590,里港,2024-12-21,22.77919,120.49459,0.57490855
C0E610,馬都安,2024-12-21,24.451272,120.930192,0.00046582858
C0E550,明德,2024-12-21,24.583486,120.885411,0.00042187746
C0R150,三地門,2024-12-21,22.709889,120.639944,0.10450978
C0G910,花壇,2024-12-21,24.032076,120.549461,0.010658061
C1D400,鳥嘴山,2024-12-21,24.71909,121.28387,0.00030403884
C0K500,元長,2024-12-21,23.64981,120.315024,0.004576242
C0F0B0,石岡,2024-12-21,24.276061,120.777644,0.0005716913
C2V250,甲仙,2024-12-21,23.080106,120.591758,0.015011603
C0SA20,金崙山,2024-12-21,22.567419,120.959667,0.0009575549
C0V350,溪埔,2024-12-21,22.738578,120.446797,0.65661955
C0M660,溪口,2024-12-21,23.604131,120.403569,0.008272933
C1S880,壽卡,2024-12-21,22.238911,120.858903,0.0011781888
72D680,桃改新埔分場,2024-12-21,24.834444,121.066111,0.00037014624
