站號,站名,日期,lat,lon,BlastGRU-TW
12J990,口湖工作站,2024-05-27,23.589978,120.180394,0.39746547
12Q970,東港工作站,2024-05-27,22.479997,120.466058,0.20396292
12Q980,恆春工作站,2024-05-27,22.079678,120.714425,0.036572374
466881,新北,2024-05-27,24.9593,121.52,0.7335432
466900,淡水,2024-05-27,25.164889,121.448906,0.9698391
466920,臺北,2024-05-27,25.037658,121.514853,0.9204175
466940,基隆,2024-05-27,25.133314,121.740475,0.95953614
466990,花蓮,2024-05-27,23.975128,121.613275,0.9863094
467050,新屋,2024-05-27,25.006744,121.047486,0.9622346
467080,宜蘭,2024-05-27,24.763975,121.756528,0.97499996
467270,田中,2024-05-27,23.873803,120.581286,0.8795439
467300,東吉島,2024-05-27,23.25695,119.667467,0.81153435
467350,澎湖,2024-05-27,23.565503,119.563094,0.8850987
467410,臺南,2024-05-27,22.993239,120.204772,0.16717452
467420,永康,2024-05-27,23.038386,120.2367,0.07330278
467441,高雄,2024-05-27,22.7304,120.3125,0.089928314
467480,嘉義,2024-05-27,23.495925,120.432906,0.8291832
467490,臺中,2024-05-27,24.145736,120.684075,0.9235075
467540,大武,2024-05-27,22.355675,120.903789,0.091505945
467571,新竹,2024-05-27,24.827853,121.014219,0.9473213
467590,恆春,2024-05-27,22.003897,120.746339,0.07725704
467610,成功,2024-05-27,23.097486,121.373428,0.76241505
467620,蘭嶼,2024-05-27,22.036969,121.558339,0.5186525
467660,臺東,2024-05-27,22.752211,121.154586,0.77028614
467790,墾丁雷達站,2024-05-27,21.948235,120.808028,0.0541407
72AI40,桃改樹林分場,2024-05-27,24.944503,121.386972,0.92782885
72C440,桃園農改,2024-05-27,24.950944,121.030583,0.9604448
72C440,桃園農改場,2024-05-27,24.950944,121.030583,0.9604448
72D680,桃改新埔分場,2024-05-27,24.834444,121.066111,0.9552187
72G600,臺中農改,2024-05-27,24.003028,120.534389,0.79336596
72G600,臺中農改場,2024-05-27,24.003028,120.534389,0.79336613
72K220,南改斗南分場,2024-05-27,23.634556,120.477333,0.79850966
72M360,南改義竹分場,2024-05-27,23.360694,120.279361,0.345483
72M700,南改鹿草分場,2024-05-27,23.416869,120.283061,0.23346885
72N100,臺南農改,2024-05-27,23.0605,120.342194,0.115113735
72N100,臺南農改場,2024-05-27,23.0605,120.342194,0.115113735
72N240,七股研究中心,2024-05-27,23.081672,120.062894,0.4558433
72Q010,高雄農改,2024-05-27,22.709333,120.525889,0.10250648
72Q010,高雄農改場,2024-05-27,22.709333,120.525889,0.10250657
72S200,東改班鳩分場,2024-05-27,22.829528,121.077694,0.9374446
72S590,東改賓朗果園,2024-05-27,22.813889,121.071278,0.94126916
72T250,花蓮農改,2024-05-27,23.975222,121.563889,0.98939633
72T250,花蓮農改場,2024-05-27,23.975222,121.563889,0.98939633
72U480,花改蘭陽分場,2024-05-27,24.686306,121.716583,0.9867085
72V140,高改旗南分場,2024-05-27,22.857861,120.516667,0.043027326
82A750,茶改北部分場,2024-05-27,24.955778,121.631222,0.9680035
82C160,茶改場,2024-05-27,24.908472,121.185333,0.9761064
82H840,茶改南部分場,2024-05-27,23.762528,120.7405,0.9703249
82S580,茶改東部分場,2024-05-27,22.907694,121.130139,0.9154954
A2C560,農工中心,2024-05-27,24.985917,121.239833,0.9374345
A2K360,水試臺西試驗場,2024-05-27,23.717231,120.190522,0.5558338
A2K570,古坑花卉中心,2024-05-27,23.63353,120.55239,0.9145733
A2K630,臺大雲林校區,2024-05-27,23.730628,120.423903,0.9015066
A2N290,臺南蘭花園區,2024-05-27,23.340258,120.379661,0.36885306
B2E890,畜試北區分所,2024-05-27,24.527806,120.770972,0.99117494
B2N890,畜產試驗所,2024-05-27,23.058972,120.336406,0.115113735
B2N890,畜試所,2024-05-27,23.058972,120.336406,0.115113735
B2Q810,畜試南區分所,2024-05-27,21.945583,120.802167,0.043306977
B2U990,畜試東區分所,2024-05-27,24.669039,121.832561,0.9828871
C0A520,山佳,2024-05-27,24.974944,121.402008,0.9024353
C0A530,坪林,2024-05-27,24.938183,121.70975,0.97427034
C0A550,泰平,2024-05-27,24.971197,121.823711,0.9060135
C0A570,桶後,2024-05-27,24.848222,121.597992,0.8292283
C0A640,石碇,2024-05-27,24.993969,121.662917,0.8792401
C0A770,科教館,2024-05-27,25.096356,121.516507,0.9566878
C0A860,大坪,2024-05-27,25.165914,121.632969,0.9513687
C0A890,雙溪,2024-05-27,25.036003,121.864242,0.9610732
C0A931,三和,2024-05-27,25.233153,121.595236,0.9396033
C0A940,金山,2024-05-27,25.223628,121.643967,0.9721991
C0A950,鼻頭角,2024-05-27,25.129036,121.923372,0.96932584
C0A970,三貂角,2024-05-27,25.007606,122.002058,0.9564196
C0A980,社子,2024-05-27,25.109508,121.469681,0.96023494
C0A9C0,天母,2024-05-27,25.117494,121.537169,0.9678498
C0A9F0,內湖,2024-05-27,25.079422,121.57545,0.9404715
C0AC60,三峽,2024-05-27,24.939025,121.369728,0.9307508
C0AC70,信義,2024-05-27,25.037822,121.564597,0.8591987
C0AC80,文山,2024-05-27,25.00235,121.575728,0.7726811
C0ACA0,新莊,2024-05-27,25.051478,121.446756,0.9811064
C0AD00,三芝,2024-05-27,25.258131,121.501917,0.9652795
C0AD10,八里,2024-05-27,25.150211,121.403947,0.9668301
C0AD30,蘆洲,2024-05-27,25.086594,121.472331,0.9566878
C0AD40,土城,2024-05-27,24.973208,121.445169,0.77031
C0AD50,鶯歌,2024-05-27,24.951533,121.346294,0.9350279
C0AG80,中和,2024-05-27,24.991622,121.491792,0.8129579
C0AH00,汐止,2024-05-27,25.066881,121.658778,0.81567657
C0AH10,永和,2024-05-27,25.01125,121.508111,0.8098736
C0AH40,平等,2024-05-27,25.129142,121.577086,0.94372517
C0AH50,林口,2024-05-27,25.072181,121.38084,0.98155385
C0AH70,松山,2024-05-27,25.04871,121.55042,0.8591987
C0AH80,深坑,2024-05-27,25.002703,121.628328,0.75613946
C0AI00,五股,2024-05-27,25.07445,121.42728,0.9852448
C0AI10,屈尺,2024-05-27,24.92184,121.54475,0.86677754
C0AI20,白沙灣,2024-05-27,25.283128,121.519058,0.983368
C0AI30,三重,2024-05-27,25.057328,121.500629,0.9209515
C0AI40,石牌,2024-05-27,25.115597,121.513139,0.97735256
C0AJ20,野柳,2024-05-27,25.20703,121.690021,0.9774116
C0AJ30,淡水觀海,2024-05-27,25.184591,121.408616,0.96379226
C0AJ40,石門,2024-05-27,25.273672,121.601198,0.96490365
C0AJ50,水湳洞,2024-05-27,25.123695,121.862238,0.9409971
C0AJ60,六塊厝,2024-05-27,25.24,121.4481,0.98058754
C0AJ70,田寮,2024-05-27,25.2698,121.4886,0.9754061
C0AJ80,板橋,2024-05-27,25.0107,121.4489,0.8759517
C0AJ90,澳底,2024-05-27,25.0552,121.9253,0.9429003
C0B010,七堵,2024-05-27,25.094819,121.71713,0.9273042
C0B020,基隆嶼,2024-05-27,25.19141,121.78391,0.9475525
C0B040,大武崙,2024-05-27,25.166676,121.706993,0.9678194
C0B050,八斗子,2024-05-27,25.144754,121.79167,0.9534699
C0B060,暖暖,2024-05-27,25.0957,121.7403,0.9200805
C0C460,復興,2024-05-27,24.820208,121.352281,0.9644605
C0C480,桃園,2024-05-27,24.992425,121.323172,0.9726838
C0C490,八德,2024-05-27,24.928708,121.283289,0.95926845
C0C590,觀音,2024-05-27,25.027072,121.153317,0.93433803
C0C620,蘆竹,2024-05-27,25.084275,121.265767,0.95648015
C0C630,大溪,2024-05-27,24.882853,121.265547,0.99159276
C0C650,平鎮,2024-05-27,24.897503,121.214636,0.96201736
C0C660,楊梅,2024-05-27,24.912375,121.143047,0.97246826
C0C670,龍潭,2024-05-27,24.870056,121.221389,0.989006
C0C680,龜山,2024-05-27,25.02846,121.38656,0.9821051
C0C700,中壢,2024-05-27,24.977661,121.256375,0.97039187
C0C710,大溪永福,2024-05-27,24.892936,121.324975,0.97607553
C0C720,竹圍,2024-05-27,25.112692,121.239824,0.9668507
C0C730,中大臨海站,2024-05-27,24.966126,121.008581,0.963055
C0C740,觀音工業區,2024-05-27,25.064764,121.114856,0.9535837
C0C750,新興坑尾,2024-05-27,25.0061,121.0971,0.9420305
C0D430,峨眉,2024-05-27,24.6905,121.017189,0.9874646
C0D480,打鐵坑,2024-05-27,24.849664,121.150789,0.990041
C0D540,橫山,2024-05-27,24.71116,121.11693,0.9794567
C0D560,竹東,2024-05-27,24.767147,121.057881,0.9872435
C0D580,寶山,2024-05-27,24.735006,121.025192,0.99050933
C0D590,新豐,2024-05-27,24.87068,120.97721,0.9462801
C0D650,湖口,2024-05-27,24.904794,121.043628,0.9274186
C0D660,新竹市東區,2024-05-27,24.798681,120.986942,0.9888378
C0D670,海天一線,2024-05-27,24.831986,120.914438,0.9549913
C0D680,香山濕地,2024-05-27,24.783581,120.914988,0.98805296
C0D690,外湖,2024-05-27,24.917735,120.968711,0.9679534
C0D700,關西,2024-05-27,24.7977,121.1732,0.9844753
C0E420,竹南,2024-05-27,24.708978,120.888897,0.9574428
C0E430,南庄,2024-05-27,24.601775,121.000214,0.9814871
C0E550,明德,2024-05-27,24.583486,120.885411,0.98671234
C0E590,通霄,2024-05-27,24.471892,120.704622,0.9150215
C0E730,頭份,2024-05-27,24.688247,120.912206,0.9587262
C0E740,造橋,2024-05-27,24.637056,120.864778,0.96852344
C0E750,苗栗,2024-05-27,24.564569,120.824575,0.985331
C0E780,銅鑼,2024-05-27,24.489681,120.790853,0.9881274
C0E791,卓蘭,2024-05-27,24.3126,120.8244,0.9862901
C0E810,西湖,2024-05-27,24.562947,120.7485,0.9507796
C0E820,獅潭,2024-05-27,24.539133,120.920042,0.98663497
C0E830,苑裡,2024-05-27,24.439714,120.653053,0.9569459
C0E850,大河,2024-05-27,24.618069,120.948578,0.99197024
C0E870,高鐵苗栗,2024-05-27,24.60725,120.826094,0.9665854
C0E910,海埔,2024-05-27,24.648767,120.772435,0.97033787
C0E920,通霄漁港,2024-05-27,24.498589,120.673876,0.93238133
C0E930,龍鳳,2024-05-27,24.700034,120.859125,0.9591647
C0F0B0,石岡,2024-05-27,24.276061,120.777644,0.9880602
C0F850,東勢,2024-05-27,24.246428,120.833047,0.98720497
C0F970,大坑,2024-05-27,24.173142,120.722289,0.96264297
C0F9I0,神岡,2024-05-27,24.272481,120.658314,0.9875829
C0F9K0,大安,2024-05-27,24.345061,120.588025,0.9503653
C0F9L0,后里,2024-05-27,24.310436,120.729725,0.9887153
C0F9M0,豐原,2024-05-27,24.254322,120.720692,0.9883941
C0F9N0,大里,2024-05-27,24.092464,120.701378,0.9015614
C0F9O0,潭子,2024-05-27,24.213106,120.703933,0.9828052
C0F9P0,清水,2024-05-27,24.312297,120.562242,0.93592495
C0F9Q0,外埔,2024-05-27,24.347817,120.705686,0.98538697
C0F9R0,龍井,2024-05-27,24.184536,120.528972,0.9146958
C0F9S0,烏日,2024-05-27,24.107058,120.624103,0.86984736
C0F9T0,西屯,2024-05-27,24.179494,120.641275,0.9242182
C0F9U0,南屯,2024-05-27,24.137006,120.637969,0.89202666
C0F9X0,大雅(中科園區),2024-05-27,24.21528,120.62445,0.9622921
C0FA10,松柏,2024-05-27,24.429115,120.617482,0.9554169
C0FA20,溫寮,2024-05-27,24.372177,120.583125,0.94723874
C0FA30,梧棲,2024-05-27,24.256003,120.523381,0.9322802
C0FA40,臺中電廠,2024-05-27,24.2146,120.4907,0.9146958
C0FA50,霧峰,2024-05-27,24.0419,120.6995,0.9313099
C0G620,芬園,2024-05-27,24.015678,120.6213,0.9378356
C0G650,員林,2024-05-27,23.946503,120.585597,0.91684437
C0G660,溪湖,2024-05-27,23.94835,120.479122,0.8699302
C0G720,溪州,2024-05-27,23.851589,120.499093,0.88855433
C0G730,二林,2024-05-27,23.903325,120.376081,0.8505226
C0G740,大城,2024-05-27,23.852487,120.320935,0.8198076
C0G770,福興,2024-05-27,24.041289,120.437669,0.8590243
C0G780,秀水,2024-05-27,24.03405,120.503869,0.798789
C0G800,埔鹽,2024-05-27,24.000394,120.431683,0.84536844
C0G810,埔心,2024-05-27,23.947633,120.525456,0.8756726
C0G820,田尾,2024-05-27,23.901669,120.509389,0.8741423
C0G830,埤頭,2024-05-27,23.866003,120.452806,0.8904248
C0G860,社頭,2024-05-27,23.897647,120.5862,0.8853212
C0G880,二水,2024-05-27,23.810742,120.6173,0.9028313
C0G890,伸港,2024-05-27,24.148933,120.484403,0.91503465
C0G900,線西,2024-05-27,24.143358,120.443536,0.93487734
C0G910,花壇,2024-05-27,24.032076,120.549461,0.810642
C0G920,永靖,2024-05-27,23.924703,120.547533,0.8778679
C0G940,竹塘,2024-05-27,23.848253,120.386764,0.8425146
C0G950,防潮門,2024-05-27,24.1835,120.4871,0.9146958
C0G960,福寶,2024-05-27,24.0443,120.3814,0.9030305
C0G970,三豐,2024-05-27,23.882,120.2895,0.82360095
C0H890,埔里,2024-05-27,23.972169,120.952425,0.9739729
C0H960,草屯,2024-05-27,23.973672,120.68085,0.9402481
C0I110,竹山,2024-05-27,23.761225,120.688156,0.95773154
C0I360,水里,2024-05-27,23.812553,120.849792,0.9745983
C0I380,集集,2024-05-27,23.828206,120.801467,0.972701
C0I410,名間,2024-05-27,23.837053,120.701447,0.974366
C0I420,國姓,2024-05-27,24.037803,120.855072,0.9418097
C0I460,南投,2024-05-27,23.911469,120.687331,0.9438667
C0K250,崙背,2024-05-27,23.75555,120.318925,0.82740515
C0K280,四湖,2024-05-27,23.630414,120.227125,0.45258895
C0K291,宜梧,2024-05-27,23.536281,120.169329,0.17304361
C0K330,虎尾,2024-05-27,23.719183,120.442036,0.90547377
C0K390,土庫,2024-05-27,23.679029,120.395574,0.7597227
C0K400,斗六,2024-05-27,23.720583,120.541127,0.89623195
C0K410,北港,2024-05-27,23.573957,120.292802,0.22211492
C0K420,西螺,2024-05-27,23.800407,120.467394,0.9263699
C0K430,褒忠,2024-05-27,23.690938,120.303634,0.8144709
C0K440,二崙,2024-05-27,23.772797,120.408944,0.9174687
C0K450,大埤,2024-05-27,23.646074,120.431537,0.7565998
C0K460,斗南,2024-05-27,23.678734,120.478359,0.7984327
C0K470,林內,2024-05-27,23.748675,120.609642,0.9146266
C0K480,莿桐,2024-05-27,23.761192,120.502372,0.9217682
C0K500,元長,2024-05-27,23.64981,120.315024,0.5470082
C0K510,水林,2024-05-27,23.572924,120.24597,0.20892832
C0K530,臺西,2024-05-27,23.701547,120.197559,0.5823026
C0K550,蔦松,2024-05-27,23.514319,120.229736,0.17682174
C0K560,棋山,2024-05-27,23.68645,120.603417,0.9356181
C0K580,高鐵雲林,2024-05-27,23.737456,120.417944,0.9015066
C0K590,雲林東勢,2024-05-27,23.674192,120.255721,0.6009481
C0K600,箔子寮,2024-05-27,23.6197,120.14,0.49381393
C0M520,東後寮,2024-05-27,23.369908,120.248065,0.345483
C0M640,中埔,2024-05-27,23.42538,120.5229,0.8832168
C0M650,朴子,2024-05-27,23.43463,120.23902,0.30753636
C0M660,溪口,2024-05-27,23.604131,120.403569,0.72913086
C0M670,大林,2024-05-27,23.600616,120.45841,0.8108549
C0M680,太保,2024-05-27,23.455062,120.331455,0.31583235
C0M690,水上,2024-05-27,23.419734,120.388909,0.48232
C0M700,竹崎,2024-05-27,23.526178,120.555508,0.8610984
C0M710,東石,2024-05-27,23.458927,120.15385,0.52458125
C0M720,番路,2024-05-27,23.464657,120.554156,0.95841223
C0M730,嘉義市東區,2024-05-27,23.457673,120.460531,0.48770568
C0M740,六腳,2024-05-27,23.492871,120.290625,0.18283467
C0M750,布袋,2024-05-27,23.380878,120.167789,0.44457453
C0M760,民雄,2024-05-27,23.551754,120.428457,0.7935033
C0M770,嘉義梅山,2024-05-27,23.585398,120.555587,0.9308589
C0M780,鹿草,2024-05-27,23.41134,120.30835,0.24827352
C0M790,新港,2024-05-27,23.553269,120.345728,0.42767632
C0M800,茶山,2024-05-27,23.299075,120.664767,0.8025266
C0M880,好美里,2024-05-27,23.3364,120.138,0.6832764
C0N010,鯤鯓國小,2024-05-27,23.1879,120.0889,0.61381835
C0N020,城西,2024-05-27,23.0568,120.0956,0.18303396
C0N030,四草,2024-05-27,23.0235,120.1116,0.17331643
C0N040,蘆竹溝,2024-05-27,23.2344,120.0961,0.556284
C0N050,蚵寮,2024-05-27,23.301,120.1104,0.6034407
C0O830,北寮,2024-05-27,23.079561,120.495008,0.48659402
C0O840,王爺宮,2024-05-27,23.222064,120.40085,0.19614656
C0O860,大內,2024-05-27,23.11885,120.36083,0.11148669
C0O900,善化,2024-05-27,23.112883,120.297219,0.09582631
C0O960,崎頂,2024-05-27,22.959547,120.369317,0.12171873
C0O970,虎頭埤,2024-05-27,23.021375,120.347878,0.07699368
C0O980,新市,2024-05-27,23.061614,120.298197,0.09643885
C0O990,媽廟,2024-05-27,22.99175,120.293525,0.08220315
C0R150,三地門,2024-05-27,22.709889,120.639944,0.16368411
C0R160,鹽埔,2024-05-27,22.739558,120.530778,0.13455191
C0R170,屏東,2024-05-27,22.660269,120.494072,0.05573204
C0R190,赤山,2024-05-27,22.592333,120.614306,0.23360093
C0R220,潮州,2024-05-27,22.534361,120.54,0.10360623
C0R240,來義,2024-05-27,22.527306,120.625111,0.15042616
C0R260,春日,2024-05-27,22.370361,120.628306,0.0851089
C0R270,琉球嶼,2024-05-27,22.332244,120.362236,0.5530276
C0R280,檳榔,2024-05-27,22.076078,120.836777,0.20162706
C0R320,車城,2024-05-27,22.0744,120.716247,0.036572374
C0R341,牡丹,2024-05-27,22.130036,120.792639,0.17930098
C0R350,貓鼻頭,2024-05-27,21.921774,120.7358,0.021698382
C0R470,高樹,2024-05-27,22.826389,120.600806,0.18497568
C0R480,長治,2024-05-27,22.693128,120.542622,0.056687515
C0R490,九如,2024-05-27,22.7405,120.490503,0.12500674
C0R520,崁頂,2024-05-27,22.514781,120.506914,0.09807824
C0R540,佳冬,2024-05-27,22.419456,120.552375,0.06899597
C0R550,新埤,2024-05-27,22.467947,120.582894,0.22681652
C0R560,新園,2024-05-27,22.5434,120.461558,0.110347115
C0R570,麟洛,2024-05-27,22.65078,120.52719,0.055731967
C0R580,南州,2024-05-27,22.48591,120.50274,0.20228039
C0R590,里港,2024-05-27,22.77919,120.49459,0.05334728
C0R620,墾雷,2024-05-27,21.900836,120.855269,0.02145885
C0R640,東港,2024-05-27,22.46247,120.44074,0.24309075
C0R650,竹田,2024-05-27,22.58486,120.54344,0.10464278
C0R660,枋寮,2024-05-27,22.367722,120.590647,0.06898305
C0R670,楓港,2024-05-27,22.190131,120.692156,0.042950194
C0R680,佳樂水,2024-05-27,21.993578,120.861633,0.044700045
C0R690,墾丁,2024-05-27,21.966756,120.810269,0.13883604
C0R700,枋山,2024-05-27,22.246844,120.661086,0.10222607
C0R710,龍磐,2024-05-27,21.931672,120.838942,0.032585755
C0R720,旭海,2024-05-27,22.205403,120.887614,0.3984595
C0R730,大坪頂,2024-05-27,22.024633,120.69355,0.10133682
C0R740,獅子,2024-05-27,22.201569,120.70525,0.05039755
C0R760,南仁湖,2024-05-27,22.084681,120.863353,0.42261672
C0R770,保力,2024-05-27,22.071122,120.764111,0.05427004
C0R780,滿州,2024-05-27,22.024403,120.839892,0.09191584
C0R790,九棚,2024-05-27,22.14195,120.889281,0.15371743
C0R800,丹路,2024-05-27,22.204481,120.750989,0.062142782
C0R810,內獅,2024-05-27,22.305064,120.642986,0.069275655
C0R830,高士,2024-05-27,22.121825,120.836781,0.6244475
C0R850,林邊,2024-05-27,22.4634,120.5339,0.21391156
C0R860,鼻頭,2024-05-27,22.1043,120.8979,0.042908225
C0R870,興海,2024-05-27,21.9752,120.8439,0.043306947
C0R880,後壁湖,2024-05-27,21.9457,120.7457,0.03879716
C0R890,山海,2024-05-27,21.9878,120.7091,0.039434195
C0R900,竹坑,2024-05-27,22.1385,120.7022,0.037425764
C0R910,下寮,2024-05-27,22.3929,120.5548,0.06899597
C0R920,塭仔,2024-05-27,22.4169,120.5197,0.07556574
C0R930,萬丹,2024-05-27,22.5885,120.4851,0.06849635
C0R940,加祿堂,2024-05-27,22.3363,120.6217,0.054184567
C0S710,鹿野,2024-05-27,22.917711,121.122994,0.9511374
C0S730,綠島,2024-05-27,22.6672,121.47533,0.7281796
C0S740,池上,2024-05-27,23.119628,121.209469,0.9767235
C0S770,大溪山,2024-05-27,22.478475,120.943325,0.9513661
C0S790,金崙,2024-05-27,22.538122,120.966875,0.95134985
C0S810,東河,2024-05-27,22.972672,121.303986,0.49000347
C0S830,長濱,2024-05-27,23.286817,121.411975,0.9924304
C0S840,南田,2024-05-27,22.279725,120.889208,0.105001986
C0S890,關山,2024-05-27,23.0395,121.175017,0.9746776
C0S900,蘭嶼高中,2024-05-27,22.04909,121.51214,0.11006602
C0S910,蘭嶼燈塔,2024-05-27,22.081197,121.503117,0.23132873
C0S920,金峰嘉蘭,2024-05-27,22.594789,120.960825,0.94316435
C0S930,延平,2024-05-27,22.902581,121.084058,0.88119453
C0S940,石寧山,2024-05-27,23.223772,121.406639,0.97385365
C0S950,七塊厝,2024-05-27,22.954453,121.229922,0.8762199
C0S960,香蘭,2024-05-27,22.587569,120.993375,0.8973342
C0S970,加津林,2024-05-27,22.416211,120.926942,0.23893797
C0S990,山豬窟,2024-05-27,22.318619,120.857372,0.90461564
C0SA00,歷坵,2024-05-27,22.520969,120.89185,0.96963805
C0SA10,檳榔四格山,2024-05-27,22.810031,121.109308,0.8850953
C0SA30,都歷,2024-05-27,23.020333,121.323642,0.8684978
C0SA40,瑞和,2024-05-27,22.974361,121.156697,0.8694344
C0SA60,知本（水試所）,2024-05-27,22.702394,121.082761,0.83628124
C0SA80,土坂,2024-05-27,22.453108,120.887572,0.8056865
C0SA90,達仁林場,2024-05-27,22.264347,120.823972,0.57650954
C0T870,鯉魚潭,2024-05-27,23.935639,121.508944,0.9868577
C0T900,西林,2024-05-27,23.8119,121.441458,0.98251253
C0T960,光復,2024-05-27,23.660694,121.424964,0.9844444
C0T9A0,月眉山,2024-05-27,23.809928,121.539828,0.9621604
C0T9D0,和中,2024-05-27,24.26676,121.74103,0.98381037
C0T9E0,大坑,2024-05-27,23.880628,121.581981,0.9832893
C0T9F0,水璉,2024-05-27,23.797131,121.542514,0.98368543
C0T9I0,豐濱,2024-05-27,23.583897,121.514806,0.97805786
C0T9M0,靜浦,2024-05-27,23.455167,121.495028,0.9860178
C0T9N0,富里,2024-05-27,23.171639,121.249378,0.97285885
C0U600,礁溪,2024-05-27,24.817539,121.765608,0.94748074
C0U650,玉蘭,2024-05-27,24.675286,121.587061,0.8513881
C0U750,龜山島,2024-05-27,24.841667,121.953133,0.95068765
C0U760,東澳,2024-05-27,24.52196,121.83318,0.9955153
C0U770,南澳,2024-05-27,24.44935,121.81022,0.98997307
C0U780,五結,2024-05-27,24.68637,121.79794,0.9878708
C0U860,頭城,2024-05-27,24.85323,121.8308,0.93962204
C0U870,大礁溪,2024-05-27,24.791042,121.675047,0.74036235
C0U880,北關,2024-05-27,24.9072,121.8734,0.9122348
C0U890,三星,2024-05-27,24.66812,121.65302,0.9300373
C0U900,內城,2024-05-27,24.71813,121.68766,0.98687553
C0U910,冬山,2024-05-27,24.63373,121.7937,0.9828871
C0U940,羅東,2024-05-27,24.68184,121.74934,0.9855275
C0U970,大福,2024-05-27,24.80064,121.81389,0.9557375
C0U990,員山,2024-05-27,24.74435,121.72247,0.9772875
C0UA00,土場,2024-05-27,24.576533,121.495333,0.9309773
C0UA80,大溪漁港,2024-05-27,24.941801,121.902955,0.9545888
C0UA90,石城,2024-05-27,24.980444,121.951214,0.92336273
C0UB00,淡江大學蘭陽校園,2024-05-27,24.823239,121.730383,0.96489966
C0UB10,蘇澳,2024-05-27,24.5969,121.8571,0.99434537
C0UB20,壯圍,2024-05-27,24.7359,121.8163,0.9641537
C0V310,美濃,2024-05-27,22.898742,120.519153,0.04470138
C0V350,溪埔,2024-05-27,22.738578,120.446797,0.050826967
C0V360,內門,2024-05-27,22.975481,120.466769,0.09611529
C0V370,古亭坑,2024-05-27,22.893178,120.401947,0.08268146
C0V400,阿公店,2024-05-27,22.804194,120.355528,0.063597135
C0V440,鳳山,2024-05-27,22.646653,120.356122,0.16424337
C0V450,鳳森,2024-05-27,22.545064,120.392592,0.14042906
C0V490,新興,2024-05-27,22.627422,120.298803,0.11114375
C0V530,阿蓮,2024-05-27,22.883208,120.327508,0.112836786
C0V610,梓官,2024-05-27,22.760558,120.267211,0.093861096
C0V620,永安,2024-05-27,22.82315,120.236856,0.1487098
C0V630,茄萣,2024-05-27,22.906642,120.182608,0.23978058
C0V640,湖內,2024-05-27,22.887139,120.2445,0.21608461
C0V650,彌陀,2024-05-27,22.783806,120.246361,0.1487098
C0V660,岡山,2024-05-27,22.797078,120.294958,0.14525872
C0V680,仁武,2024-05-27,22.701083,120.347722,0.15413189
C0V690,鼓山,2024-05-27,22.623325,120.275575,0.14515363
C0V700,三民,2024-05-27,22.645017,120.311233,0.15646085
C0V710,苓雅,2024-05-27,22.622742,120.330669,0.115052566
C0V720,林園,2024-05-27,22.507747,120.394511,0.13203417
C0V730,大寮,2024-05-27,22.605614,120.395717,0.11195068
C0V740,旗山,2024-05-27,22.888614,120.483597,0.046779167
C0V750,路竹,2024-05-27,22.854997,120.259439,0.2247396
C0V760,橋頭,2024-05-27,22.757806,120.30575,0.08716986
C0V770,大社,2024-05-27,22.730306,120.346639,0.08791685
C0V790,萬山,2024-05-27,22.905944,120.688056,0.685104
C0V800,六龜,2024-05-27,22.997889,120.633583,0.92410415
C0V810,左營,2024-05-27,22.67491,120.28491,0.15646085
C0V820,小林,2024-05-27,23.148408,120.63325,0.9387218
C0V840,鳳鼻頭,2024-05-27,22.5083,120.3591,0.1279118
C0V850,蚵仔寮,2024-05-27,22.7256,120.2527,0.09148926
C0V860,南寮,2024-05-27,22.7616,120.2339,0.09148926
C0V870,文安,2024-05-27,22.8025,120.2164,0.18277304
C0V880,興達,2024-05-27,22.8778,120.2127,0.23978058
C0V890,前鎮,2024-05-27,22.5718,120.3117,0.123664774
C0V900,汕尾,2024-05-27,22.4782,120.4151,0.20396292
C0W200,湖西,2024-05-27,23.596314,119.67275,0.85553503
C0X050,東河,2024-05-27,23.296598,120.385608,0.13504581
C0X060,下營,2024-05-27,23.22695,120.256261,0.12442561
C0X080,佳里,2024-05-27,23.173039,120.145086,0.44095844
C0X100,臺南市北區,2024-05-27,23.010394,120.194228,0.14879651
C0X110,臺南市南區,2024-05-27,22.961189,120.188378,0.09064332
C0X120,麻豆,2024-05-27,23.183289,120.248611,0.15793134
C0X130,官田,2024-05-27,23.193217,120.315422,0.06851337
C0X140,西港,2024-05-27,23.125608,120.203108,0.20881215
C0X150,安定,2024-05-27,23.102614,120.227839,0.18974142
C0X160,仁德,2024-05-27,22.968258,120.257689,0.088693164
C0X170,關廟,2024-05-27,22.963017,120.327797,0.080354795
C0X180,山上,2024-05-27,23.0757,120.363253,0.1286141
C0X190,安平,2024-05-27,22.993161,120.152181,0.18238491
C0X200,左鎮,2024-05-27,23.056758,120.408522,0.07090027
C0X210,白河,2024-05-27,23.347466,120.414427,0.68412954
C0X220,學甲,2024-05-27,23.230367,120.182187,0.4662986
C0X230,鹽水,2024-05-27,23.272621,120.247641,0.39546943
C0X240,關子嶺,2024-05-27,23.331169,120.508025,0.96507657
C0X250,新營,2024-05-27,23.310689,120.316681,0.13726184
C0X260,後壁,2024-05-27,23.366358,120.362326,0.36885306
C0X280,將軍,2024-05-27,23.214999,120.13577,0.5119787
C0X290,北門,2024-05-27,23.267772,120.125481,0.556284
C0X300,鹿寮,2024-05-27,23.386047,120.477331,0.81567883
C0X320,柳營,2024-05-27,23.253328,120.375253,0.049782548
C0Z020,明里,2024-05-27,23.208717,121.262342,0.98131907
C0Z061,玉里,2024-05-27,23.3215,121.339656,0.99458665
C0Z070,舞鶴,2024-05-27,23.46811,121.37407,0.9887241
C0Z080,富源,2024-05-27,23.587642,121.378225,0.99486566
C0Z100,東華,2024-05-27,23.89525,121.549833,0.9911716
C0Z150,吉安光華,2024-05-27,23.930925,121.595153,0.9841818
C0Z160,鳳林,2024-05-27,23.746114,121.453411,0.9899355
C0Z170,卓溪,2024-05-27,23.3443,121.3029,0.99535745
C0Z180,新城,2024-05-27,24.03946,121.60454,0.98859984
C0Z190,富世,2024-05-27,24.14743,121.6297,0.94271564
C0Z200,萬榮,2024-05-27,23.709219,121.420106,0.9899395
C0Z210,瑞穗,2024-05-27,23.5239,121.39021,0.9902369
C0Z230,和平,2024-05-27,24.30717,121.77007,0.9846867
C0Z270,蕃薯寮,2024-05-27,23.73835,121.540108,0.98864114
C0Z280,德武,2024-05-27,23.47426,121.41071,0.9859546
C0Z300,東里,2024-05-27,23.26853,121.30547,0.97735673
C0Z310,清水斷崖,2024-05-27,24.218294,121.689142,0.9075772
C0Z330,安通山,2024-05-27,23.290728,121.348528,0.98330015
C2E520,大湖,2024-05-27,24.414939,120.870872,0.9721387
C2E540,後龍,2024-05-27,24.606489,120.783933,0.9666373
C2F000,大肚,2024-05-27,24.15295,120.572117,0.9758311
C2F930,大甲,2024-05-27,24.347667,120.640403,0.95806706
C2F9A0,中竹林,2024-05-27,24.103556,120.751061,0.9643214
C2G640,鹿港,2024-05-27,24.0753,120.430481,0.8994593
C2G840,北斗,2024-05-27,23.877586,120.514222,0.89535135
C2G870,芳苑,2024-05-27,23.922303,120.320025,0.8587502
C2H950,中寮,2024-05-27,23.884447,120.766406,0.97483385
C2M410,馬頭山,2024-05-27,23.324361,120.582017,0.9552301
C2N160,西拉雅風管處,2024-05-27,23.189481,120.335297,0.072009064
C2O810,曾文,2024-05-27,23.219681,120.497328,0.5144872
C2O930,玉井,2024-05-27,23.126042,120.46055,0.122982174
C2O950,安南,2024-05-27,23.076694,120.144861,0.34136954
C2V250,甲仙,2024-05-27,23.080106,120.591758,0.9682342
C2V260,月眉,2024-05-27,22.971003,120.539853,0.19295274
C2W230,畜試所澎湖,2024-05-27,23.628342,119.513206,0.9236709
CAG100,王功漁港,2024-05-27,23.96824,120.32586,0.86195546
CAH030,茶改場竹圍站,2024-05-27,23.860083,120.637528,0.97603834
CAJ050,海口故事園區,2024-05-27,23.57543,120.14121,0.49381393
CAL110,布袋國中,2024-05-27,23.35893,120.18026,0.40253434
CAN130,水試所海水繁養殖中心,2024-05-27,23.120802,120.07968,0.4558433
CAN140,六官養殖協會,2024-05-27,23.22881,120.29962,0.11747575
CAQ030,崎峰國小,2024-05-27,22.42565,120.49521,0.2216316
E2K600,四湖植物園,2024-05-27,23.676986,120.163433,0.52153116
E2P980,林試六龜中心,2024-05-27,22.991703,120.645722,0.93240243
E2S960,林試太麻里2,2024-05-27,22.598014,120.989761,0.8973342
E2S960,林試太麻里2,2024-05-27,22.598,120.99775,0.88235456
E2S980,林試太麻里1,2024-05-27,22.598922,120.980044,0.9583588
G2AI50,關渡,2024-05-27,25.11575,121.492,0.9604089
G2F820,農業試驗所,2024-05-27,24.031261,120.688133,0.92710537
G2F820,農試所(霧峰),2024-05-27,24.031261,120.688133,0.92710537
G2L020,農試嘉義分所,2024-05-27,23.485028,120.473806,0.6923155
G2M350,農試溪口農場,2024-05-27,23.58565,120.408111,0.7813295
G2P820,農試鳳山分所,2024-05-27,22.646611,120.356083,0.16424337
K2E360,苗栗農改,2024-05-27,24.495722,120.829111,0.9892483
K2E360,苗栗農改場,2024-05-27,24.495722,120.829111,0.9892483
K2E710,苗改生物防治研究中心,2024-05-27,24.422861,120.871833,0.9750063
K2F750,種苗改良場,2024-05-27,24.225972,120.800917,0.9833019
K2F750,種苗繁殖,2024-05-27,24.225972,120.800917,0.9833019
U2HA50,臺大竹山,2024-05-27,23.756972,120.681556,0.9726203
V2C250,八德合作社,2024-05-27,24.93775,121.266389,0.9602937
V2C260,八德蔬果,2024-05-27,24.978508,121.281819,0.97336704
V2K610,大庄合作社,2024-05-27,23.8068,120.367939,0.86354345
V2K620,麥寮合作社,2024-05-27,23.753836,120.294783,0.82740515
