站號,站名,日期,lat,lon,BLBTSLS
C0R710,龍磐,2024-10-24,21.931672,120.838942,0.9695848
C1F9D1,白毛台,2024-10-24,24.158325,120.886933,6.8393115e-07
C0G940,竹塘,2024-10-24,23.848253,120.386764,0.9979759
467590,恆春,2024-10-24,22.003897,120.746339,0.19397934
C1O850,環湖,2024-10-24,23.148617,120.418633,0.14522755
C0U710,太平山,2024-10-24,24.505486,121.525656,3.286065e-09
C0E820,獅潭,2024-10-24,24.539133,120.920042,0.99787635
C0V880,興達,2024-10-24,22.8778,120.2127,0.28483593
C0S890,關山,2024-10-24,23.0395,121.175017,0.99193734
K2F750,種苗繁殖,2024-10-24,24.225972,120.800917,0.034870528
C1Z130,銅門,2024-10-24,23.965694,121.492842,0.9816131
C0AD40,土城,2024-10-24,24.973208,121.445169,0.105796546
CAN140,六官養殖協會,2024-10-24,23.22881,120.29962,0.99851525
C0X180,山上,2024-10-24,23.0757,120.363253,0.81410646
C0F9Z0,雪山東峰,2024-10-24,24.388792,121.268675,8.953192e-09
C1M480,獨立山,2024-10-24,23.537022,120.607797,2.5891146e-07
C0X220,學甲,2024-10-24,23.230367,120.182187,0.2411999
C0R170,屏東,2024-10-24,22.660269,120.494072,0.99967486
467650,日月潭,2024-10-24,23.881325,120.90805,2.1484434e-08
C0K600,箔子寮,2024-10-24,23.6197,120.14,0.92516106
C0G830,埤頭,2024-10-24,23.866003,120.452806,0.99948555
C0S950,七塊厝,2024-10-24,22.954453,121.229922,0.0009848756
467110,金門,2024-10-24,24.407306,118.289281,0.8602349
C0AH80,深坑,2024-10-24,25.002703,121.628328,0.10641073
467990,馬祖,2024-10-24,26.169269,119.923419,0.038476855
C0A970,三貂角,2024-10-24,25.007606,122.002058,0.99345034
C0K430,褒忠,2024-10-24,23.690938,120.303634,0.9994071
467480,嘉義,2024-10-24,23.495925,120.432906,0.99960506
C2E540,後龍,2024-10-24,24.606489,120.783933,0.44507527
C0V400,阿公店,2024-10-24,22.804194,120.355528,0.9748804
C0R440,大漢山,2024-10-24,22.405264,120.753181,2.252649e-08
C0K280,四湖,2024-10-24,23.630414,120.227125,0.99525064
C1F9B1,桐林,2024-10-24,24.066172,120.735194,0.9994745
C0K390,土庫,2024-10-24,23.679029,120.395574,0.99938303
C1I450,望鄉山,2024-10-24,23.594153,120.944286,5.127851e-09
C0E910,海埔,2024-10-24,24.648767,120.772435,0.42452443
B2E890,畜試北區分所,2024-10-24,24.527806,120.770972,0.9775957
C0R750,四林格山,2024-10-24,22.076989,120.802439,0.9371955
C0F0C0,中坑,2024-10-24,24.248517,120.903319,1.3254845e-08
C1I121,大鞍,2024-10-24,23.678381,120.760017,4.802895e-09
72U480,花改蘭陽分場,2024-10-24,24.686306,121.716583,0.5935373
C0A770,科教館,2024-10-24,25.096356,121.516507,0.11886887
C0AJ60,六塊厝,2024-10-24,25.24,121.4481,0.16509643
C0R620,墾雷,2024-10-24,21.900836,120.855269,0.9828905
467420,永康,2024-10-24,23.038386,120.2367,0.9941325
467300,東吉島,2024-10-24,23.25695,119.667467,0.020018132
C0I410,名間,2024-10-24,23.837053,120.701447,0.9669987
A2C560,農工中心,2024-10-24,24.985917,121.239833,0.25776047
C0V740,旗山,2024-10-24,22.888614,120.483597,0.99529964
C0Z061,玉里,2024-10-24,23.3215,121.339656,0.9989815
C0S840,南田,2024-10-24,22.279725,120.889208,0.22775015
C1I470,杉林溪,2024-10-24,23.639517,120.786444,4.275378e-09
C1X040,東原,2024-10-24,23.291597,120.463822,0.7944477
C0R660,枋寮,2024-10-24,22.367722,120.590647,0.5276449
C1R120,上德文,2024-10-24,22.763272,120.704442,3.761958e-08
C0K450,大埤,2024-10-24,23.646074,120.431537,0.9981113
C0UA00,土場,2024-10-24,24.576533,121.495333,0.97962034
467080,宜蘭,2024-10-24,24.763975,121.756528,0.7230498
C0N030,四草,2024-10-24,23.0235,120.1116,0.9942737
C0V650,彌陀,2024-10-24,22.783806,120.246361,0.062406
C0D660,新竹市東區,2024-10-24,24.798681,120.986942,0.34270823
82S580,茶改東部分場,2024-10-24,22.907694,121.130139,0.99081635
C0C710,大溪永福,2024-10-24,24.892936,121.324975,0.43421674
C0FA20,溫寮,2024-10-24,24.372177,120.583125,0.9709416
C0V640,湖內,2024-10-24,22.887139,120.2445,0.24560505
C0R910,下寮,2024-10-24,22.3929,120.5548,0.5276449
C0Z020,明里,2024-10-24,23.208717,121.262342,0.9942868
C0M770,嘉義梅山,2024-10-24,23.585398,120.555587,0.8784851
G2F820,農業試驗所,2024-10-24,24.031261,120.688133,0.9987682
C0C660,楊梅,2024-10-24,24.912375,121.143047,0.94284195
C1E511,新開,2024-10-24,24.347703,120.827019,0.9981869
G2F820,農試所(霧峰),2024-10-24,24.031261,120.688133,0.9987682
C1I070,和社,2024-10-24,23.591131,120.888861,1.8685806e-06
C2F000,大肚,2024-10-24,24.15295,120.572117,0.98771536
C1S850,豐南,2024-10-24,23.122139,121.262389,4.5884232e-07
C2A920,富貴角,2024-10-24,25.263783,121.565258,0.91960835
CAH030,茶改場竹圍站,2024-10-24,23.860083,120.637528,0.19300377
C0T960,光復,2024-10-24,23.660694,121.424964,0.99847466
C0F9M0,豐原,2024-10-24,24.254322,120.720692,0.9990382
C0R720,旭海,2024-10-24,22.205403,120.887614,0.105004914
C0V710,苓雅,2024-10-24,22.622742,120.330669,0.9392416
C0C740,觀音工業區,2024-10-24,25.064764,121.114856,0.5136119
CAC040,拉拉山,2024-10-24,24.699317,121.427133,1.9886233e-08
C0V790,萬山,2024-10-24,22.905944,120.688056,0.8542663
U2HA30,臺大和社,2024-10-24,23.590856,120.888864,1.8685806e-06
C0AJ90,澳底,2024-10-24,25.0552,121.9253,0.8195582
C0Z100,東華,2024-10-24,23.89525,121.549833,0.99231327
C0G970,三豐,2024-10-24,23.882,120.2895,0.023568483
V2K610,大庄合作社,2024-10-24,23.8068,120.367939,0.9991493
C0V900,汕尾,2024-10-24,22.4782,120.4151,0.36915365
C1R630,龍泉,2024-10-24,22.66701,120.59091,0.09550248
C1AC50,關渡,2024-10-24,25.133486,121.469331,0.5564866
C0F9I0,神岡,2024-10-24,24.272481,120.658314,0.9992072
C0K460,斗南,2024-10-24,23.678734,120.478359,0.9983115
467410,臺南,2024-10-24,22.993239,120.204772,0.99517983
C2O810,曾文,2024-10-24,23.219681,120.497328,0.39994875
467280,後龍,2024-10-24,24.648563,120.831834,0.49352825
C1F9J1,清水林,2024-10-24,24.071242,120.820419,1.1533925e-08
C2A650,火燒寮,2024-10-24,25.002719,121.742892,0.9919859
466930,竹子湖,2024-10-24,25.162078,121.544547,0.49411598
C1I220,樟湖,2024-10-24,23.905333,120.846983,2.7670755e-09
C0I390,仁愛,2024-10-24,24.022122,121.132206,1.4269408e-09
C0Z300,東里,2024-10-24,23.26853,121.30547,0.9977524
C0V310,美濃,2024-10-24,22.898742,120.519153,0.99502516
C1V590,新發,2024-10-24,23.057019,120.646064,1.2351643e-05
C0K510,水林,2024-10-24,23.572924,120.24597,0.99921185
72S590,東改賓朗果園,2024-10-24,22.813889,121.071278,0.9175167
82A750,茶改北部分場,2024-10-24,24.955778,121.631222,0.9959079
C1A750,石碇服務區,2024-10-24,25.00872,121.646242,0.1311208
C0X300,鹿寮,2024-10-24,23.386047,120.477331,0.99747086
G2AI50,關渡,2024-10-24,25.11575,121.492,0.23393348
C0K590,雲林東勢,2024-10-24,23.674192,120.255721,0.9993553
C0A570,桶後,2024-10-24,24.848222,121.597992,0.8648743
C1S800,華源,2024-10-24,22.657883,121.02325,0.8125699
C0G720,溪州,2024-10-24,23.851589,120.499093,0.9994864
C1V160,達卡努瓦,2024-10-24,23.279811,120.705319,5.2290687e-09
C2M410,馬頭山,2024-10-24,23.324361,120.582017,0.6187106
C0V850,蚵仔寮,2024-10-24,22.7256,120.2527,0.75695986
C0S740,池上,2024-10-24,23.119628,121.209469,0.9049523
C1V390,尖山,2024-10-24,22.813153,120.367789,0.9799857
C0AH70,松山,2024-10-24,25.04871,121.55042,0.12055841
C0N010,鯤鯓國小,2024-10-24,23.1879,120.0889,0.981437
C0R550,新埤,2024-10-24,22.467947,120.582894,0.52490735
C0SA60,知本（水試所）,2024-10-24,22.702394,121.082761,0.47962874
C0T9I0,豐濱,2024-10-24,23.583897,121.514806,0.98893285
C0UB00,淡江大學蘭陽校園,2024-10-24,24.823239,121.730383,0.80217177
C0T9N0,富里,2024-10-24,23.171639,121.249378,0.37142548
U2HA50,臺大竹山,2024-10-24,23.756972,120.681556,0.98655593
C0V840,鳳鼻頭,2024-10-24,22.5083,120.3591,0.9920921
C0X140,西港,2024-10-24,23.125608,120.203108,0.9977893
72D080,桃改五峰分場,2024-10-24,24.612194,121.157167,7.5405694e-08
C0V530,阿蓮,2024-10-24,22.883208,120.327508,0.808241
C1O880,關山,2024-10-24,23.173397,120.594092,0.6414451
C0E791,卓蘭,2024-10-24,24.3126,120.8244,0.99762464
C1I030,武界,2024-10-24,23.913225,121.052483,6.7659753e-09
C0R520,崁頂,2024-10-24,22.514781,120.506914,0.9421348
C0R341,牡丹,2024-10-24,22.130036,120.792639,0.35837454
C0R930,萬丹,2024-10-24,22.5885,120.4851,0.9995088
C0S760,紅石,2024-10-24,23.069131,121.126219,1.0504658e-09
C1M610,石磐龍,2024-10-24,23.496606,120.663506,1.7107531e-08
C0UA10,鴛鴦湖,2024-10-24,24.590269,121.412228,5.773574e-09
V2C260,八德蔬果,2024-10-24,24.978508,121.281819,0.33989567
C0R800,丹路,2024-10-24,22.204481,120.750989,0.095138274
C0G920,永靖,2024-10-24,23.924703,120.547533,0.99931425
C1A630,下盆,2024-10-24,24.771003,121.538622,2.5430416e-05
B2N890,畜產試驗所,2024-10-24,23.058972,120.336406,0.9978824
C0UA30,白嶺,2024-10-24,24.527819,121.519031,4.3541677e-09
C1V580,溪南(特生中心),2024-10-24,23.084972,120.788475,2.0415827e-09
C1T970,大農,2024-10-24,23.615233,121.413331,0.9693606
E2S960,林試太麻里2,2024-10-24,22.598014,120.989761,0.21843436
C0R650,竹田,2024-10-24,22.58486,120.54344,0.6308808
C1H900,清流,2024-10-24,24.080775,120.962997,2.4861215e-09
C1C510,水尾,2024-10-24,24.940081,121.087161,0.7260322
C0F9X0,大雅(中科園區),2024-10-24,24.21528,120.62445,0.99950314
C0O970,虎頭埤,2024-10-24,23.021375,120.347878,0.9003776
C0C730,中大臨海站,2024-10-24,24.966126,121.008581,0.10626907
C0X250,新營,2024-10-24,23.310689,120.316681,0.9983159
C0V700,三民,2024-10-24,22.645017,120.311233,0.06770561
C0U870,大礁溪,2024-10-24,24.791042,121.675047,0.0010035378
C0E870,高鐵苗栗,2024-10-24,24.60725,120.826094,0.46577904
A2K570,古坑花卉中心,2024-10-24,23.63353,120.55239,0.43572223
C0M860,新美,2024-10-24,23.338017,120.683169,3.5252644e-06
C1E701,八卦,2024-10-24,24.491756,120.927619,1.227632e-05
C0I420,國姓,2024-10-24,24.037803,120.855072,0.07878925
C0S960,香蘭,2024-10-24,22.587569,120.993375,0.21843436
C0R260,春日,2024-10-24,22.370361,120.628306,0.90711266
72G600,臺中農改場,2024-10-24,24.003028,120.534389,0.99931514
C0Z210,瑞穗,2024-10-24,23.5239,121.39021,0.9885606
C0M820,達邦,2024-10-24,23.453994,120.749517,2.0329495e-08
C0V860,南寮,2024-10-24,22.7616,120.2339,0.7569599
C0G740,大城,2024-10-24,23.852487,120.320935,0.02418367
C0R920,塭仔,2024-10-24,22.4169,120.5197,0.49640435
C0R470,高樹,2024-10-24,22.826389,120.600806,0.99774396
C0R680,佳樂水,2024-10-24,21.993578,120.861633,0.9000249
C1O870,大棟山,2024-10-24,23.31157,120.52226,2.7607387e-09
C0D360,梅花,2024-10-24,24.678347,121.208558,0.67465
C0Z190,富世,2024-10-24,24.14743,121.6297,4.874946e-06
C0AI10,屈尺,2024-10-24,24.92184,121.54475,0.13135299
B2U990,畜試東區分所,2024-10-24,24.669039,121.832561,0.1954859
C0R240,來義,2024-10-24,22.527306,120.625111,0.98911744
C1R610,西大武山,2024-10-24,22.617719,120.7322,6.1210192e-09
C0G900,線西,2024-10-24,24.143358,120.443536,0.9541291
C0M700,竹崎,2024-10-24,23.526178,120.555508,0.7107962
C2E880,三義,2024-10-24,24.405478,120.749819,0.001574185
C0C720,竹圍,2024-10-24,25.112692,121.239824,0.23393348
C0F9P0,清水,2024-10-24,24.312297,120.562242,0.984353
C0Z150,吉安光華,2024-10-24,23.930925,121.595153,0.90963054
C1D640,外坪(五指山),2024-10-24,24.644447,121.090961,0.00798685
C0F9O0,潭子,2024-10-24,24.213106,120.703933,0.9985271
72T250,花蓮農改場,2024-10-24,23.975222,121.563889,0.37302732
C0E780,銅鑼,2024-10-24,24.489681,120.790853,0.7505603
C1T950,太安,2024-10-24,23.666719,121.370128,8.972676e-10
C0E830,苑裡,2024-10-24,24.439714,120.653053,0.16093527
467270,田中,2024-10-24,23.873803,120.581286,0.9991122
C0SA10,檳榔四格山,2024-10-24,22.810031,121.109308,0.84038985
C1T830,布洛灣,2024-10-24,24.17184,121.57127,0.026238099
C0F970,大坑,2024-10-24,24.173142,120.722289,0.99912757
C1U920,思源,2024-10-24,24.393125,121.347214,3.1275396e-09
C0A931,三和,2024-10-24,25.233153,121.595236,0.98342377
C0I010,廬山,2024-10-24,24.033311,121.181808,1.4642498e-09
C0R860,鼻頭,2024-10-24,22.1043,120.8979,0.111459315
C0UB20,壯圍,2024-10-24,24.7359,121.8163,0.57189727
C0R790,九棚,2024-10-24,22.14195,120.889281,0.18867108
C0W110,東莒,2024-10-24,25.9652,119.98069,0.035304494
C1U930,粉鳥林,2024-10-24,24.497088,121.842479,0.4573488
C1I211,蘆竹湳,2024-10-24,23.934019,120.811994,6.731129e-05
C0S830,長濱,2024-10-24,23.286817,121.411975,0.9937126
C1F9F1,伯公龍,2024-10-24,24.272392,120.849047,0.43064082
C0E810,西湖,2024-10-24,24.562947,120.7485,0.0094851665
C1I440,新高口,2024-10-24,23.478744,120.878939,2.507112e-09
C0O840,王爺宮,2024-10-24,23.222064,120.40085,0.99902534
C0T9G0,鳳林山,2024-10-24,23.735269,121.420131,3.952512e-08
C0X080,佳里,2024-10-24,23.173039,120.145086,0.981437
C0Z310,清水斷崖,2024-10-24,24.218294,121.689142,0.00010711918
C0M680,太保,2024-10-24,23.455062,120.331455,0.99952614
C1S820,金峰,2024-10-24,22.590969,120.933236,0.5932159
C0AD10,八里,2024-10-24,25.150211,121.403947,0.23393348
C2K240,草嶺,2024-10-24,23.59555,120.693461,8.406399e-09
C1SA70,都蘭,2024-10-24,22.87794,121.226881,0.946986
C0K440,二崙,2024-10-24,23.772797,120.408944,0.9995164
C1A760,坪林交控,2024-10-24,24.94284,121.713442,0.9143276
C0F9N0,大里,2024-10-24,24.092464,120.701378,0.9993392
C0SA90,達仁林場,2024-10-24,22.264347,120.823972,0.8496835
C1R290,石門山,2024-10-24,22.112611,120.756597,0.7579812
42HA10,萬大發電廠,2024-10-24,23.978875,121.139639,1.286103e-09
C0R890,山海,2024-10-24,21.9878,120.7091,0.93896985
C0T9A0,月眉山,2024-10-24,23.809928,121.539828,4.3315078e-05
C0AC70,信義,2024-10-24,25.037822,121.564597,0.1205837
C0K560,棋山,2024-10-24,23.68645,120.603417,0.45214745
C1Z240,中平林道,2024-10-24,23.42115,121.26763,8.526375e-10
U2H480,溪頭,2024-10-24,23.670306,120.798194,7.383753e-09
C0M880,好美里,2024-10-24,23.3364,120.138,0.3098374
C0T9E0,大坑,2024-10-24,23.880628,121.581981,0.52593446
C0K530,臺西,2024-10-24,23.701547,120.197559,0.99373144
C1E900,國一N128K,2024-10-24,24.560997,120.844186,0.9852779
C0AJ50,水湳洞,2024-10-24,25.123695,121.862238,0.57191294
C0AI20,白沙灣,2024-10-24,25.283128,121.519058,0.18081173
C0A860,大坪,2024-10-24,25.165914,121.632969,0.845719
C1U850,觀音海岸,2024-10-24,24.38319,121.77856,2.1309964e-08
C0U950,鶯子嶺,2024-10-24,24.89754,121.79244,0.328869
C0O900,善化,2024-10-24,23.112883,120.297219,0.9978164
C0K550,蔦松,2024-10-24,23.514319,120.229736,0.99825
E2P980,林試六龜中心,2024-10-24,22.991703,120.645722,0.9831419
C0E590,通霄,2024-10-24,24.471892,120.704622,0.0074505447
C1I310,西巒,2024-10-24,23.754486,120.883956,4.040937e-08
C0A550,泰平,2024-10-24,24.971197,121.823711,0.9864444
C0I360,水里,2024-10-24,23.812553,120.849792,0.68924963
C0R830,高士,2024-10-24,22.121825,120.836781,0.8733169
C1I101,溪頭,2024-10-24,23.661789,120.807647,2.3232372e-09
C0AJ20,野柳,2024-10-24,25.20703,121.690021,0.9191895
C0B060,暖暖,2024-10-24,25.0957,121.7403,0.49353603
C1H920,長豐,2024-10-24,24.102039,120.879897,7.272413e-09
C0V360,內門,2024-10-24,22.975481,120.466769,0.9543284
C0R850,林邊,2024-10-24,22.4634,120.5339,0.4340778
C0E930,龍鳳,2024-10-24,24.700034,120.859125,0.028105082
C0U910,冬山,2024-10-24,24.63373,121.7937,0.1954859
C1E721,泰安,2024-10-24,24.489017,120.968036,1.1498647e-08
82H320,茶改中部分場,2024-10-24,23.875611,120.913583,1.02903925e-07
C0M750,布袋,2024-10-24,23.380878,120.167789,0.99413544
C1S860,利嘉,2024-10-24,22.809417,121.050528,7.840328e-07
72C440,桃園農改,2024-10-24,24.950944,121.030583,0.56228405
E2S980,林試太麻里1,2024-10-24,22.598922,120.980044,0.2631589
C0X170,關廟,2024-10-24,22.963017,120.327797,0.93734664
C0V720,林園,2024-10-24,22.507747,120.394511,0.9919854
C1I510,線浸林道,2024-10-24,23.761508,120.832956,6.8341977e-09
C0D690,外湖,2024-10-24,24.917735,120.968711,0.4098582
C0C750,新興坑尾,2024-10-24,25.0061,121.0971,0.11234466
B2Q810,畜試南區分所,2024-10-24,21.945583,120.802167,0.90251356
C0S790,金崙,2024-10-24,22.538122,120.966875,0.33055043
C0AH90,福山植物園,2024-10-24,24.760717,121.58135,0.03325036
C0I540,奇萊稜線,2024-10-24,24.109231,121.326456,1.2252814e-08
C0M850,表湖,2024-10-24,23.24186,120.64166,1.9180065e-05
C0S770,大溪山,2024-10-24,22.478475,120.943325,0.48582253
C0AG80,中和,2024-10-24,24.991622,121.491792,0.105796546
C0T790,大禹嶺,2024-10-24,24.186117,121.316086,3.936988e-09
C0T9B0,水源,2024-10-24,23.991861,121.537169,0.000113397655
C0R840,牡丹池山,2024-10-24,22.168389,120.841225,0.42486042
C1I131,桶頭,2024-10-24,23.641944,120.654117,0.6466503
CAL110,布袋國中,2024-10-24,23.35893,120.18026,0.99413544
467571,新竹,2024-10-24,24.827853,121.014219,0.48839167
C0Z290,赤柯山,2024-10-24,23.36893,121.38293,1.3672384e-09
C0X280,將軍,2024-10-24,23.214999,120.13577,0.2629415
C0S690,太麻里,2024-10-24,22.60902,120.98533,0.0046731294
C0U880,北關,2024-10-24,24.9072,121.8734,0.9783742
C1H860,瑞岩,2024-10-24,24.123772,121.18345,1.6928026e-09
C0G810,埔心,2024-10-24,23.947633,120.525456,0.9993127
C0U970,大福,2024-10-24,24.80064,121.81389,0.72245896
C1E670,南礦,2024-10-24,24.538278,121.002836,1.5014066e-08
C0M520,東後寮,2024-10-24,23.369908,120.248065,0.9930854
C1E461,松安,2024-10-24,24.397972,120.986022,7.1061566e-09
72G600,臺中農改,2024-10-24,24.003028,120.534389,0.99931514
C2N160,西拉雅風管處,2024-10-24,23.189481,120.335297,0.99852663
C0A640,石碇,2024-10-24,24.993969,121.662917,0.58692616
E2S960,林試太麻里2,2024-10-24,22.598,120.99775,0.22656417
C0F9Y0,桃山,2024-10-24,24.432739,121.303808,1.0134678e-08
C1I020,萬大,2024-10-24,23.979817,121.132261,1.4162954e-09
C0U940,羅東,2024-10-24,24.68184,121.74934,0.58977383
C0M650,朴子,2024-10-24,23.43463,120.23902,0.9992306
C1I500,大尖山,2024-10-24,23.858572,120.994889,2.2958508e-09
C0G820,田尾,2024-10-24,23.901669,120.509389,0.9993127
E2K600,四湖植物園,2024-10-24,23.676986,120.163433,0.99525064
C0S730,綠島,2024-10-24,22.6672,121.47533,0.88243467
12Q970,東港工作站,2024-10-24,22.479997,120.466058,0.37004736
C0E430,南庄,2024-10-24,24.601775,121.000214,0.99783975
C1TA00,太魯閣,2024-10-24,24.15773,121.6236,1.3249395e-06
466920,臺北,2024-10-24,25.037658,121.514853,0.12055841
C0R600,舊泰武,2024-10-24,22.588194,120.664944,6.373089e-09
C1I260,北坑,2024-10-24,23.9246,121.006903,1.2740112e-05
466910,鞍部,2024-10-24,25.182586,121.529731,0.82469076
C1I230,九份二山,2024-10-24,23.961944,120.845,1.8476072e-08
C2A660,瑞芳,2024-10-24,25.113169,121.801147,0.89039296
C0R270,琉球嶼,2024-10-24,22.332244,120.362236,0.00088000984
C1T990,高寮,2024-10-24,23.394239,121.356808,0.9994869
C0G620,芬園,2024-10-24,24.015678,120.6213,0.9988592
C1Z140,荖溪,2024-10-24,23.890575,121.45964,6.4833083e-10
C1I201,中心崙,2024-10-24,23.728722,120.712097,7.5594858e-06
C1I400,凌霄,2024-10-24,24.018778,121.004456,1.3508922e-09
C1M640,十字,2024-10-24,23.492153,120.753683,5.0204756e-09
G2P820,農試鳳山分所,2024-10-24,22.646611,120.356083,0.0802052
C0Z270,蕃薯寮,2024-10-24,23.73835,121.540108,0.40606186
C0F9Q0,外埔,2024-10-24,24.347817,120.705686,0.9991246
C0K580,高鐵雲林,2024-10-24,23.737456,120.417944,0.9993817
C2I090,鳳凰,2024-10-24,23.728081,120.787347,3.0536352e-08
C0U990,員山,2024-10-24,24.74435,121.72247,0.58261997
C0V770,大社,2024-10-24,22.730306,120.346639,0.73948294
C0X120,麻豆,2024-10-24,23.183289,120.248611,0.99879605
C0C670,龍潭,2024-10-24,24.870056,121.221389,0.80917156
C0D680,香山濕地,2024-10-24,24.783581,120.914988,0.30755383
C0S980,勝林山,2024-10-24,22.430439,120.8938,0.037620544
C0V730,大寮,2024-10-24,22.605614,120.395717,0.94497764
C0R570,麟洛,2024-10-24,22.65078,120.52719,0.99967486
CAG100,王功漁港,2024-10-24,23.96824,120.32586,0.01946425
C0X290,北門,2024-10-24,23.267772,120.125481,0.2629415
C2F930,大甲,2024-10-24,24.347667,120.640403,0.7771361
C0D650,湖口,2024-10-24,24.904794,121.043628,0.702203
C0E420,竹南,2024-10-24,24.708978,120.888897,0.017162113
C0U780,五結,2024-10-24,24.68637,121.79794,0.5718973
C1I250,鯉潭,2024-10-24,23.961922,120.991131,1.18271366e-07
C0R130,阿禮,2024-10-24,22.742908,120.743678,3.834625e-09
C0X100,臺南市北區,2024-10-24,23.010394,120.194228,0.99464226
C0S920,金峰嘉蘭,2024-10-24,22.594789,120.960825,0.27505562
C0V490,新興,2024-10-24,22.627422,120.298803,0.9392416
C0F9K0,大安,2024-10-24,24.345061,120.588025,0.96510863
72N100,臺南農改,2024-10-24,23.0605,120.342194,0.9978824
467290,古坑,2024-10-24,23.633639,120.551889,0.43572223
C0V440,鳳山,2024-10-24,22.646653,120.356122,0.0802052
C1T940,大觀,2024-10-24,23.714206,121.373133,1.7399424e-06
72T250,花蓮農改,2024-10-24,23.975222,121.563889,0.37302732
C0E740,造橋,2024-10-24,24.637056,120.864778,0.46577904
C0R100,尾寮山,2024-10-24,22.833111,120.683889,9.584821e-09
A2K630,臺大雲林校區,2024-10-24,23.730628,120.423903,0.9993817
C0D580,寶山,2024-10-24,24.735006,121.025192,0.8275094
E2P990,林試扇平站,2024-10-24,22.9677,120.6857,1.5328007e-07
C0AI30,三重,2024-10-24,25.057328,121.500629,0.11886884
C0AH00,汐止,2024-10-24,25.066881,121.658778,0.12055841
C1Z040,立山,2024-10-24,23.443356,121.327375,0.00067841087
C0R740,獅子,2024-10-24,22.201569,120.70525,0.10108069
C0W130,花嶼,2024-10-24,23.40007,119.32276,0.07393671
C0A950,鼻頭角,2024-10-24,25.129036,121.923372,0.9451132
C0K470,林內,2024-10-24,23.748675,120.609642,0.953992
82C160,茶改場,2024-10-24,24.908472,121.185333,0.9657688
C0Z320,清水林道,2024-10-24,23.27125,121.188272,3.5630954e-08
C0R760,南仁湖,2024-10-24,22.084681,120.863353,0.7579812
C0M670,大林,2024-10-24,23.600616,120.45841,0.99916327
C0M800,茶山,2024-10-24,23.299075,120.664767,0.005716064
C0A9C0,天母,2024-10-24,25.117494,121.537169,0.19950186
72K220,南改斗南分場,2024-10-24,23.634556,120.477333,0.9983115
72AI40,桃改樹林分場,2024-10-24,24.944503,121.386972,0.53323597
C0S910,蘭嶼燈塔,2024-10-24,22.081197,121.503117,0.96729994
C0B050,八斗子,2024-10-24,25.144754,121.79167,0.45355934
C0U900,內城,2024-10-24,24.71813,121.68766,0.60955846
C0X320,柳營,2024-10-24,23.253328,120.375253,0.9970661
C0M790,新港,2024-10-24,23.553269,120.345728,0.99938244
C0F9T0,西屯,2024-10-24,24.179494,120.641275,0.99953276
C0SA30,都歷,2024-10-24,23.020333,121.323642,0.99930453
C0C620,蘆竹,2024-10-24,25.084275,121.265767,0.13879554
C0R730,大坪頂,2024-10-24,22.024633,120.69355,0.104143396
C0AJ40,石門,2024-10-24,25.273672,121.601198,0.8020527
C0E750,苗栗,2024-10-24,24.564569,120.824575,0.9861572
C0T870,鯉魚潭,2024-10-24,23.935639,121.508944,0.98320687
C1V170,排雲,2024-10-24,23.463619,120.954147,1.0428582e-08
C2H950,中寮,2024-10-24,23.884447,120.766406,0.9702396
C0R350,貓鼻頭,2024-10-24,21.921774,120.7358,0.9883439
C0V660,岡山,2024-10-24,22.797078,120.294958,0.062406
C1H941,雙冬,2024-10-24,23.967378,120.802189,6.556543e-06
C0AJ70,田寮,2024-10-24,25.2698,121.4886,0.1714456
C0AI00,五股,2024-10-24,25.07445,121.42728,0.11559928
C0Z280,德武,2024-10-24,23.47426,121.41071,0.999085
C0R700,枋山,2024-10-24,22.246844,120.661086,0.073815025
C0C460,復興,2024-10-24,24.820208,121.352281,0.9755806
E2H360,蓮華池,2024-10-24,23.918333,120.885278,4.344953e-07
C0M640,中埔,2024-10-24,23.42538,120.5229,0.96689457
C0W140,金沙,2024-10-24,24.488292,118.408778,0.6883509
C2A540,四堵,2024-10-24,24.8926,121.745736,0.89504224
C0ACA0,新莊,2024-10-24,25.051478,121.446756,0.11049473
C0R220,潮州,2024-10-24,22.534361,120.54,0.95691407
U2HA40,臺大內茅埔,2024-10-24,23.689722,120.851117,0.7863262
467490,臺中,2024-10-24,24.145736,120.684075,0.99907756
C0U960,翠峰湖,2024-10-24,24.510856,121.608044,3.7358783e-09
E2HA20,林試畢祿溪站,2024-10-24,24.226944,121.308522,2.1439108e-09
C0V890,前鎮,2024-10-24,22.5718,120.3117,0.92932695
467620,蘭嶼,2024-10-24,22.036969,121.558339,0.94620967
C1F941,雪嶺,2024-10-24,24.280586,121.026642,5.569617e-09
C0AC80,文山,2024-10-24,25.00235,121.575728,0.106471986
C0F9R0,龍井,2024-10-24,24.184536,120.528972,0.97370493
C0M760,民雄,2024-10-24,23.551754,120.428457,0.99914235
C0UA40,西德山,2024-10-24,24.560647,121.752608,2.821615e-08
C1T920,中興,2024-10-24,23.769503,121.498653,0.99940497
C0D550,雪霸,2024-10-24,24.526972,121.11605,5.200592e-09
C2F860,梨山,2024-10-24,24.247522,121.243669,2.2509556e-09
C0R320,車城,2024-10-24,22.0744,120.716247,0.66519934
C1S870,南美山,2024-10-24,23.15025,121.382333,0.37156895
C0B020,基隆嶼,2024-10-24,25.19141,121.78391,0.16915411
C1U501,牛鬥,2024-10-24,24.637836,121.573656,0.1434887
C0M730,嘉義市東區,2024-10-24,23.457673,120.460531,0.9889785
C0S700,知本,2024-10-24,22.684866,121.005642,0.00013224572
C1N001,沙崙,2024-10-24,22.935472,120.309406,0.9517126
C0V760,橋頭,2024-10-24,22.757806,120.30575,0.7574659
C0G960,福寶,2024-10-24,24.0443,120.3814,0.97942257
C0X210,白河,2024-10-24,23.347466,120.414427,0.99586743
C0S810,東河,2024-10-24,22.972672,121.303986,0.09302139
C0R670,楓港,2024-10-24,22.190131,120.692156,0.117530085
C0FA50,霧峰,2024-10-24,24.0419,120.6995,0.9988183
C0UB10,蘇澳,2024-10-24,24.5969,121.8571,0.8791827
C0G950,防潮門,2024-10-24,24.1835,120.4871,0.97370493
C0M740,六腳,2024-10-24,23.492871,120.290625,0.999446
C1R250,力里,2024-10-24,22.428117,120.629228,0.3872403
C0K330,虎尾,2024-10-24,23.719183,120.442036,0.9993831
C2FA00,烏石坑,2024-10-24,24.273503,120.947617,3.4746396e-08
C0V620,永安,2024-10-24,22.82315,120.236856,0.062406
C1I330,楓樹林,2024-10-24,23.986803,121.076117,1.323521e-09
C0W200,湖西,2024-10-24,23.596314,119.67275,0.021530781
72Q010,高雄農改場,2024-10-24,22.709333,120.525889,0.99530935
C0SA40,瑞和,2024-10-24,22.974361,121.156697,0.9988227
C0C680,龜山,2024-10-24,25.02846,121.38656,0.12686995
C2V260,月眉,2024-10-24,22.971003,120.539853,0.99539036
C0V450,鳳森,2024-10-24,22.545064,120.392592,0.98709506
C0U720,南山,2024-10-24,24.43742,121.38167,7.493782e-09
A2N290,臺南蘭花園區,2024-10-24,23.340258,120.379661,0.99927956
C0R560,新園,2024-10-24,22.5434,120.461558,0.9919854
C0U890,三星,2024-10-24,24.66812,121.65302,0.78717303
C1V300,御油山,2024-10-24,23.001983,120.715364,2.6822127e-09
C0U600,礁溪,2024-10-24,24.817539,121.765608,0.8408158
C1T980,龍澗,2024-10-24,24.023289,121.411328,1.1721051e-09
C0D670,海天一線,2024-10-24,24.831986,120.914438,0.08950124
C0SA00,歷坵,2024-10-24,22.520969,120.89185,0.8159512
C0M710,東石,2024-10-24,23.458927,120.15385,0.016251607
C0M780,鹿草,2024-10-24,23.41134,120.30835,0.99922025
C0U520,雙連埤,2024-10-24,24.753033,121.641303,0.00066659774
C0B010,七堵,2024-10-24,25.094819,121.71713,0.26177356
C0R480,長治,2024-10-24,22.693128,120.542622,0.99765056
C1V830,國三S383K,2024-10-24,22.781967,120.426475,0.99819857
12Q980,恆春工作站,2024-10-24,22.079678,120.714425,0.66519934
C1O940,東山服務區,2024-10-24,23.286016,120.398472,0.99620205
C1U840,東澳嶺,2024-10-24,24.5378,121.8485,2.5299508e-07
C1D630,飛鳳山,2024-10-24,24.766464,121.119178,0.9405936
C0S940,石寧山,2024-10-24,23.223772,121.406639,0.998333
C0K410,北港,2024-10-24,23.573957,120.292802,0.99921584
C2M620,瑞里,2024-10-24,23.545133,120.675197,9.868368e-09
C2O950,安南,2024-10-24,23.076694,120.144861,0.7299592
C0F0E0,南湖圈谷,2024-10-24,24.363714,121.444667,1.4913033e-08
467610,成功,2024-10-24,23.097486,121.373428,0.318837
C0G890,伸港,2024-10-24,24.148933,120.484403,0.95418876
C2E540,龍溪,2024-10-24,24.606489,120.783933,0.44507527
C1V200,梅山,2024-10-24,23.268447,120.823556,1.4088142e-08
C0T9H0,加路蘭山,2024-10-24,23.682947,121.5274,1.4579468e-08
C2O930,玉井,2024-10-24,23.126042,120.46055,0.8216835
C1F911,新伯公,2024-10-24,24.221361,120.841069,0.31994578
C0R490,九如,2024-10-24,22.7405,120.490503,0.9951026
C0X200,左鎮,2024-10-24,23.056758,120.408522,0.91372406
C1F891,稍來,2024-10-24,24.265689,121.001142,5.8220984e-09
72N240,七股研究中心,2024-10-24,23.081672,120.062894,0.7655717
C0C700,中壢,2024-10-24,24.977661,121.256375,0.36492068
C0M690,水上,2024-10-24,23.419734,120.388909,0.9995387
C0V690,鼓山,2024-10-24,22.623325,120.275575,0.9392416
C0O860,大內,2024-10-24,23.11885,120.36083,0.9978697
C0Z200,萬榮,2024-10-24,23.709219,121.420106,0.9990739
C0T9D0,和中,2024-10-24,24.26676,121.74103,0.99841577
C1O921,楠西,2024-10-24,23.183511,120.484083,0.103095196
C0AJ30,淡水觀海,2024-10-24,25.184591,121.408616,0.22508857
C0V810,左營,2024-10-24,22.67491,120.28491,0.06770561
C0UA70,桃源谷,2024-10-24,24.962606,121.888875,0.98140794
C0X130,官田,2024-10-24,23.193217,120.315422,0.99841666
C1H000,翠峰,2024-10-24,24.109397,121.205211,4.8734887e-09
C0UA90,石城,2024-10-24,24.980444,121.951214,0.9895027
C1E681,南勢山,2024-10-24,24.421669,120.923831,3.083243e-08
C0A9F0,內湖,2024-10-24,25.079422,121.57545,0.12055841
C0K291,宜梧,2024-10-24,23.536281,120.169329,0.9982444
C1K540,口湖,2024-10-24,23.585344,120.180517,0.92516106
C0R780,滿州,2024-10-24,22.024403,120.839892,0.17399226
C0V870,文安,2024-10-24,22.8025,120.2164,0.067291245
C0U650,玉蘭,2024-10-24,24.675286,121.587061,0.07393055
C0R640,東港,2024-10-24,22.46247,120.44074,0.37004736
K2E360,苗栗農改,2024-10-24,24.495722,120.829111,0.9447495
C0AJ80,板橋,2024-10-24,25.0107,121.4489,0.10589805
C0S660,下馬,2024-10-24,23.150427,121.070312,4.908631e-09
C1H9B1,阿眉,2024-10-24,24.1263,120.994672,2.2242137e-09
C0UA20,多加屯,2024-10-24,24.368614,121.373189,3.001845e-09
C0E730,頭份,2024-10-24,24.688247,120.912206,0.020657437
72V140,高改旗南分場,2024-10-24,22.857861,120.516667,0.99502516
C0K480,莿桐,2024-10-24,23.761192,120.502372,0.99956125
C0U980,坪林石牌,2024-10-24,24.86478,121.77396,0.73795336
C0T900,西林,2024-10-24,23.8119,121.441458,0.998696
C1I150,青雲,2024-10-24,23.793361,120.949378,0.8825522
467350,澎湖,2024-10-24,23.565503,119.563094,0.036569618
C0G800,埔鹽,2024-10-24,24.000394,120.431683,0.9946477
C0H960,草屯,2024-10-24,23.973672,120.68085,0.99884313
C1V780,多納林道,2024-10-24,22.888028,120.737917,7.0913577e-09
C0E920,通霄漁港,2024-10-24,24.498589,120.673876,0.00844177
C0Z330,安通山,2024-10-24,23.290728,121.348528,3.859815e-06
C0AH10,永和,2024-10-24,25.01125,121.508111,0.10589805
C2G640,鹿港,2024-10-24,24.0753,120.430481,0.97942257
C1E890,國三N149K,2024-10-24,24.463414,120.680019,0.08558853
C1R110,口社,2024-10-24,22.770111,120.645222,0.5272685
C1M870,國三N285K,2024-10-24,23.550319,120.505833,0.85423106
467050,新屋,2024-10-24,25.006744,121.047486,0.10772033
C1E480,鳳美,2024-10-24,24.554803,121.034747,0.85091496
C0M530,奮起湖,2024-10-24,23.493903,120.699253,7.458731e-09
C0C590,觀音,2024-10-24,25.027072,121.153317,0.2432343
C0T9M0,靜浦,2024-10-24,23.455167,121.495028,0.99889284
C0AI40,石牌,2024-10-24,25.115597,121.513139,0.18401538
C1F871,上谷關,2024-10-24,24.203483,121.018644,1.1342943e-08
C0G880,二水,2024-10-24,23.810742,120.6173,0.9134175
C0R940,加祿堂,2024-10-24,22.3363,120.6217,0.15591782
C0W220,北竿,2024-10-24,26.220358,119.974881,0.034209933
C0O960,崎頂,2024-10-24,22.959547,120.369317,0.79223496
C0S750,向陽,2024-10-24,23.248397,120.986133,3.1299443e-09
C0T9F0,水璉,2024-10-24,23.797131,121.542514,0.95521617
C1M600,頭凍,2024-10-24,23.406364,120.603339,1.3820739e-08
467660,臺東,2024-10-24,22.752211,121.154586,0.120800994
C1D380,新埔,2024-10-24,24.84745,121.03834,0.5812759
C0V750,路竹,2024-10-24,22.854997,120.259439,0.20503029
C0N050,蚵寮,2024-10-24,23.301,120.1104,0.3098374
72M700,南改鹿草分場,2024-10-24,23.416869,120.283061,0.9992306
C1SA50,利嘉林道,2024-10-24,22.82325,121.009389,7.632567e-09
467550,玉山,2024-10-24,23.487614,120.959522,1.1499744e-08
C0A940,金山,2024-10-24,25.223628,121.643967,0.92553544
C1V340,大津,2024-10-24,22.888322,120.645986,0.9893044
C0W180,七美,2024-10-24,23.219333,119.444892,0.03258275
C1F9C1,白冷,2024-10-24,24.182844,120.929889,4.9685437e-05
K2E710,苗改生物防治研究中心,2024-10-24,24.422861,120.871833,0.9993244
C0N040,蘆竹溝,2024-10-24,23.2344,120.0961,0.2629415
C2W230,畜試所澎湖,2024-10-24,23.628342,119.513206,0.054948002
C0R880,後壁湖,2024-10-24,21.9457,120.7457,0.94167066
C1I280,埔中,2024-10-24,23.820778,120.642594,0.02949467
467790,墾丁雷達站,2024-10-24,21.948235,120.808028,0.88275796
C0W190,望安,2024-10-24,23.380564,119.494075,0.035153862
466881,新北,2024-10-24,24.9593,121.52,0.105898745
C0Z170,卓溪,2024-10-24,23.3443,121.3029,0.99942523
C0F850,東勢,2024-10-24,24.246428,120.833047,0.8681589
466900,淡水,2024-10-24,25.164889,121.448906,0.21607682
C0I370,魚池,2024-10-24,23.895703,120.94135,2.2879326e-06
C0C630,大溪,2024-10-24,24.882853,121.265547,0.6624965
C0A520,山佳,2024-10-24,24.974944,121.402008,0.122915976
C0I110,竹山,2024-10-24,23.761225,120.688156,0.976055
82H840,茶改南部分場,2024-10-24,23.762528,120.7405,0.11032114
C0G660,溪湖,2024-10-24,23.94835,120.479122,0.99929225
C1T800,洛韶,2024-10-24,24.204558,121.453956,2.130853e-09
C1T810,慈恩,2024-10-24,24.192044,121.388386,3.3576264e-09
C1E451,象鼻,2024-10-24,24.368617,120.940228,3.5247357e-08
C0AC60,三峽,2024-10-24,24.939025,121.369728,0.61210734
C0I490,萬大林道,2024-10-24,23.928228,121.091411,1.1667963e-09
C1I290,豐丘,2024-10-24,23.668178,120.887417,5.692385e-09
C1I320,奧萬大,2024-10-24,23.952956,121.178556,9.599087e-10
C0U770,南澳,2024-10-24,24.44935,121.81022,0.014097606
C0A980,社子,2024-10-24,25.109508,121.469681,0.26807806
C0V800,六龜,2024-10-24,22.997889,120.633583,0.9849347
C1G9D0,國一S218K,2024-10-24,23.890641,120.493253,0.99948555
C2F9A0,中竹林,2024-10-24,24.103556,120.751061,0.00083234074
C0FA40,臺中電廠,2024-10-24,24.2146,120.4907,0.97370493
C0H9C0,合歡山,2024-10-24,24.143442,121.272547,8.698827e-09
C0X060,下營,2024-10-24,23.22695,120.256261,0.99854
G2M350,農試溪口農場,2024-10-24,23.58565,120.408111,0.99909425
C0U860,頭城,2024-10-24,24.85323,121.8308,0.8441998
C0R580,南州,2024-10-24,22.48591,120.50274,0.37004736
C0D430,峨眉,2024-10-24,24.6905,121.017189,0.1220644
C0G780,秀水,2024-10-24,24.03405,120.503869,0.99931514
72N100,臺南農改場,2024-10-24,23.0605,120.342194,0.9978824
C0S900,蘭嶼高中,2024-10-24,22.04909,121.51214,0.9782633
467540,大武,2024-10-24,22.355675,120.903789,0.11223636
C1F9W0,德基,2024-10-24,24.254783,121.190261,4.8457838e-09
C1Z120,壽豐,2024-10-24,23.870853,121.508081,0.99231327
C0W160,烏坵,2024-10-24,24.9944,119.44956,0.12932004
C1I240,外大坪,2024-10-24,23.958697,120.917931,7.7928384e-08
C1I550,國六W023K,2024-10-24,23.979067,120.867742,0.00025974726
C0R870,興海,2024-10-24,21.9752,120.8439,0.90251356
C0R140,瑪家,2024-10-24,22.682903,120.686639,3.0859178e-07
C0A530,坪林,2024-10-24,24.938183,121.70975,0.8992628
C0X260,後壁,2024-10-24,23.366358,120.362326,0.99927956
C0Z230,和平,2024-10-24,24.30717,121.77007,0.9984344
C0G770,福興,2024-10-24,24.041289,120.437669,0.9946477
C0H9A0,神木村,2024-10-24,23.532742,120.843667,4.943555e-09
C0I460,南投,2024-10-24,23.911469,120.687331,0.89056927
C0I480,梅峰,2024-10-24,24.085272,121.173572,1.7390387e-09
C1V570,吉東,2024-10-24,22.85422,120.5454,0.99537396
C2A560,福山,2024-10-24,24.776203,121.502811,0.4286351
C0AH30,五分山,2024-10-24,25.07125,121.780794,0.90620416
C0FA10,松柏,2024-10-24,24.429115,120.617482,0.17670476
72S200,東改班鳩分場,2024-10-24,22.829528,121.077694,0.9192116
72HA00,中改埔里分場,2024-10-24,23.903208,120.963364,1.9787744e-06
C0C650,平鎮,2024-10-24,24.897503,121.214636,0.9668033
C0S930,延平,2024-10-24,22.902581,121.084058,0.99322927
C0UA60,樟樹山,2024-10-24,24.41393,121.78325,1.5491289e-05
C1S670,摩天,2024-10-24,23.199503,121.027,6.8841705e-10
C0V630,茄萣,2024-10-24,22.906642,120.182608,0.28483593
466940,基隆,2024-10-24,25.133314,121.740475,0.48426718
C0X050,東河,2024-10-24,23.296598,120.385608,0.9955368
C0R770,保力,2024-10-24,22.071122,120.764111,0.11168328
G2L020,農試嘉義分所,2024-10-24,23.485028,120.473806,0.6246056
C0X240,關子嶺,2024-10-24,23.331169,120.508025,0.14233439
C0I380,集集,2024-10-24,23.828206,120.801467,0.7414201
466990,花蓮,2024-10-24,23.975128,121.613275,0.29440722
C1V220,小關山,2024-10-24,23.154217,120.813603,1.9038284e-09
C1F9G1,慶福山,2024-10-24,24.180853,120.848378,2.8027184e-08
C0Z250,瑞穗林道,2024-10-24,23.49284,121.30688,1.6173614e-09
C0D590,新豐,2024-10-24,24.87068,120.97721,0.24406475
C0A870,五指山,2024-10-24,25.132153,121.608692,0.4211526
C0UA50,西帽山,2024-10-24,24.555361,121.802628,1.3778485e-05
C0X160,仁德,2024-10-24,22.968258,120.257689,0.9212104
C1H971,六分寮,2024-10-24,23.92507,120.6378,0.00025534898
C0W120,西嶼,2024-10-24,23.5626,119.468436,0.06008497
C0G650,員林,2024-10-24,23.946503,120.585597,0.99824077
C0AD50,鶯歌,2024-10-24,24.951533,121.346294,0.71148103
C0S990,山豬窟,2024-10-24,22.318619,120.857372,0.6601222
72Q010,高雄農改,2024-10-24,22.709333,120.525889,0.99530935
C0X190,安平,2024-10-24,22.993161,120.152181,0.99464226
C0K400,斗六,2024-10-24,23.720583,120.541127,0.9988671
12J990,口湖工作站,2024-10-24,23.589978,120.180394,0.92516106
C0O830,北寮,2024-10-24,23.079561,120.495008,0.3168932
C1D410,白蘭,2024-10-24,24.579364,121.079947,1.02718385e-08
C0S970,加津林,2024-10-24,22.416211,120.926942,0.11896321
C0D700,關西,2024-10-24,24.7977,121.1732,0.7422685
C0M810,里佳,2024-10-24,23.389125,120.716647,4.4097637e-09
C0U750,龜山島,2024-10-24,24.841667,121.953133,0.79444134
C0R810,內獅,2024-10-24,22.305064,120.642986,0.14973707
C1M390,龍美,2024-10-24,23.406728,120.654417,6.4382095e-09
C1H840,國三N238K,2024-10-24,23.841008,120.707711,0.4720194
CAQ030,崎峰國小,2024-10-24,22.42565,120.49521,0.37004736
C2E520,大湖,2024-10-24,24.414939,120.870872,0.99856985
467530,阿里山,2024-10-24,23.508208,120.813242,3.678646e-09
C1E691,南湖,2024-10-24,24.40135,120.837533,6.5418766e-07
C0FA30,梧棲,2024-10-24,24.256003,120.523381,0.984353
C1V231,高中,2024-10-24,23.134911,120.716711,3.1282325e-05
C0F9V0,新社,2024-10-24,24.200172,120.815806,0.003189283
C0H890,埔里,2024-10-24,23.972169,120.952425,1.148902e-05
C0R690,墾丁,2024-10-24,21.966756,120.810269,0.4750354
C0F0D0,審馬陣,2024-10-24,24.381675,121.4203,5.437205e-09
C0R820,白鷺,2024-10-24,22.454275,120.666219,0.029892562
U2H480,臺大溪頭,2024-10-24,23.670306,120.798194,7.383753e-09
C1V190,南天池,2024-10-24,23.27403,120.91176,4.1134185e-09
K2E360,苗栗農改場,2024-10-24,24.495722,120.829111,0.9447495
CAJ050,海口故事園區,2024-10-24,23.57543,120.14121,0.92516106
C0O990,媽廟,2024-10-24,22.99175,120.293525,0.99349374
C0D480,打鐵坑,2024-10-24,24.849664,121.150789,0.8135553
C0Z220,和平林道,2024-10-24,24.343922,121.656317,1.6271173e-07
72C440,桃園農改場,2024-10-24,24.950944,121.030583,0.56228405
C1E711,馬拉邦山,2024-10-24,24.367306,120.901656,2.576495e-08
C0D560,竹東,2024-10-24,24.767147,121.057881,0.666699
C0F9U0,南屯,2024-10-24,24.137006,120.637969,0.9995318
C0M720,番路,2024-10-24,23.464657,120.554156,0.86992615
C0F0A0,雪山圈谷,2024-10-24,24.388594,121.236339,9.837829e-09
C1A9N0,四十份,2024-10-24,24.934158,121.593283,0.9571276
C0U760,東澳,2024-10-24,24.52196,121.83318,0.45645878
C0X230,鹽水,2024-10-24,23.272621,120.247641,0.33894435
C0V370,古亭坑,2024-10-24,22.893178,120.401947,0.9875875
C1I340,新興橋,2024-10-24,23.563333,120.868728,4.6177913e-08
C0SA80,土坂,2024-10-24,22.453108,120.887572,0.18084909
C0R160,鹽埔,2024-10-24,22.739558,120.530778,0.99530935
C0AC40,大屯山,2024-10-24,25.175675,121.522408,0.03732586
466850,五分山雷達站,2024-10-24,25.071182,121.781205,0.89745545
C1AI50,國三N016K,2024-10-24,25.034164,121.619664,0.13258591
C1V600,藤枝,2024-10-24,23.071961,120.757042,1.877948e-09
C1E601,南勢,2024-10-24,24.572486,120.734842,0.003306652
C0Z180,新城,2024-10-24,24.03946,121.60454,0.31035578
C0O980,新市,2024-10-24,23.061614,120.298197,0.997793
C0K420,西螺,2024-10-24,23.800407,120.467394,0.9995193
C0Z050,佳心,2024-10-24,23.34567,121.21316,2.4870797e-09
C0AD30,蘆洲,2024-10-24,25.086594,121.472331,0.118240625
C0V610,梓官,2024-10-24,22.760558,120.267211,0.7574659
K2F750,種苗改良場,2024-10-24,24.225972,120.800917,0.03487052
C0UA80,大溪漁港,2024-10-24,24.941801,121.902955,0.9778499
C1AI60,國一39K邊坡,2024-10-24,25.064361,121.383836,0.11975591
C0W150,金寧,2024-10-24,24.457703,118.328989,0.8712742
V2C250,八德合作社,2024-10-24,24.93775,121.266389,0.91935974
C0AH40,平等,2024-10-24,25.129142,121.577086,0.7302268
C0R540,佳冬,2024-10-24,22.419456,120.552375,0.5283164
466950,彭佳嶼,2024-10-24,25.627975,122.079744,0.11448582
C0A890,雙溪,2024-10-24,25.036003,121.864242,0.9642053
C0C480,桃園,2024-10-24,24.992425,121.323172,0.31557232
C0AH50,林口,2024-10-24,25.072181,121.38084,0.13411121
A2K360,水試臺西試驗場,2024-10-24,23.717231,120.190522,0.9927055
B2N890,畜試所,2024-10-24,23.058972,120.336406,0.9978824
C0F9S0,烏日,2024-10-24,24.107058,120.624103,0.9989877
C0C490,八德,2024-10-24,24.928708,121.283289,0.92906517
C0R190,赤山,2024-10-24,22.592333,120.614306,0.6793773
C0T820,天祥,2024-10-24,24.179597,121.495639,9.424186e-06
C1F9E1,龍安,2024-10-24,24.1605,120.831961,7.830235e-06
C0V820,小林,2024-10-24,23.148408,120.63325,0.035540268
C2G870,芳苑,2024-10-24,23.922303,120.320025,0.020562451
C0E850,大河,2024-10-24,24.618069,120.948578,0.6045344
C1U670,寒溪,2024-10-24,24.634,121.71691,0.09779001
C0N020,城西,2024-10-24,23.0568,120.0956,0.99464226
C1Z110,三棧,2024-10-24,24.11557,121.60501,4.4172076e-08
C0R280,檳榔,2024-10-24,22.076078,120.836777,0.39129624
C0F9L0,后里,2024-10-24,24.310436,120.729725,0.99908817
C0D540,橫山,2024-10-24,24.71116,121.11693,0.93909305
C1D420,太閣南,2024-10-24,24.632808,121.160575,1.1234686e-07
C1E770,公館,2024-10-24,24.526914,120.830806,0.9775957
CAN130,水試所海水繁養殖中心,2024-10-24,23.120802,120.07968,0.7655717
C1I430,翠華,2024-10-24,24.191961,121.224339,2.3189826e-09
C1M400,菜瓜坪,2024-10-24,23.251928,120.576103,0.0061372896
C0G730,二林,2024-10-24,23.903325,120.376081,0.98524207
72M360,南改義竹分場,2024-10-24,23.360694,120.279361,0.9930854
V2K620,麥寮合作社,2024-10-24,23.753836,120.294783,0.9994071
C0Z070,舞鶴,2024-10-24,23.46811,121.37407,0.9984752
C0B040,大武崙,2024-10-24,25.166676,121.706993,0.65538675
C1Z030,紅葉,2024-10-24,23.493119,121.338806,0.9563231
C1I050,丹大,2024-10-24,23.753747,121.141147,4.444257e-09
C0I080,信義,2024-10-24,23.689694,120.851036,0.7863262
C2A880,福隆,2024-10-24,25.017842,121.942083,0.98957175
C0Z160,鳳林,2024-10-24,23.746114,121.453411,0.9992287
C0V210,復興,2024-10-24,23.222403,120.806089,1.1519671e-07
C0H990,昆陽,2024-10-24,24.121322,121.273642,1.0203028e-08
C0S710,鹿野,2024-10-24,22.917711,121.122994,0.0144583
C0I530,小奇萊,2024-10-24,24.131764,121.295717,1.0868609e-08
C0Z080,富源,2024-10-24,23.587642,121.378225,0.99340665
467441,高雄,2024-10-24,22.7304,120.3125,0.73948294
C1I140,卡奈托灣,2024-10-24,23.754364,121.087872,1.4919084e-09
C0I520,玉山風口,2024-10-24,23.470489,120.955994,1.4067494e-08
C1G691,下水埔,2024-10-24,23.816114,120.5676,0.999612
C0X110,臺南市南區,2024-10-24,22.961189,120.188378,0.9212104
C0V680,仁武,2024-10-24,22.701083,120.347722,0.06770561
C2G840,北斗,2024-10-24,23.877586,120.514222,0.9994857
C0R900,竹坑,2024-10-24,22.1385,120.7022,0.6394408
C0K250,崙背,2024-10-24,23.75555,120.318925,0.9994071
C0G860,社頭,2024-10-24,23.897647,120.5862,0.9990013
C0X150,安定,2024-10-24,23.102614,120.227839,0.9977868
C0R590,里港,2024-10-24,22.77919,120.49459,0.99684834
C0E610,馬都安,2024-10-24,24.451272,120.930192,2.087057e-07
C0E550,明德,2024-10-24,24.583486,120.885411,0.9826637
C0R150,三地門,2024-10-24,22.709889,120.639944,0.45075864
C0G910,花壇,2024-10-24,24.032076,120.549461,0.9993444
C1D400,鳥嘴山,2024-10-24,24.71909,121.28387,2.546281e-05
C0K500,元長,2024-10-24,23.64981,120.315024,0.9993143
C0F0B0,石岡,2024-10-24,24.276061,120.777644,0.99882305
C2V250,甲仙,2024-10-24,23.080106,120.591758,0.4149233
C0SA20,金崙山,2024-10-24,22.567419,120.959667,1.113856e-08
C0V350,溪埔,2024-10-24,22.738578,120.446797,0.9957327
C0M660,溪口,2024-10-24,23.604131,120.403569,0.99909425
C1S880,壽卡,2024-10-24,22.238911,120.858903,0.82658917
72D680,桃改新埔分場,2024-10-24,24.834444,121.066111,0.57091725
