站號,站名,日期,lat,lon,BlastGRU-TW
12J990,口湖工作站,2024-08-28,23.589978,120.180394,0.1281858
12Q970,東港工作站,2024-08-28,22.479997,120.466058,0.020414727
12Q980,恆春工作站,2024-08-28,22.079678,120.714425,0.08874906
466881,新北,2024-08-28,24.9593,121.52,0.028940884
466900,淡水,2024-08-28,25.164889,121.448906,0.035736542
466920,臺北,2024-08-28,25.037658,121.514853,0.020572968
466940,基隆,2024-08-28,25.133314,121.740475,0.033419255
466990,花蓮,2024-08-28,23.975128,121.613275,0.026352625
467050,新屋,2024-08-28,25.006744,121.047486,0.5617717
467080,宜蘭,2024-08-28,24.763975,121.756528,0.068713985
467270,田中,2024-08-28,23.873803,120.581286,0.06884475
467280,後龍,2024-08-28,24.648563,120.831834,0.50894535
467300,東吉島,2024-08-28,23.25695,119.667467,0.88184285
467350,澎湖,2024-08-28,23.565503,119.563094,0.70592016
467410,臺南,2024-08-28,22.993239,120.204772,0.030273305
467420,永康,2024-08-28,23.038386,120.2367,0.03412579
467441,高雄,2024-08-28,22.7304,120.3125,0.020560805
467480,嘉義,2024-08-28,23.495925,120.432906,0.21244748
467490,臺中,2024-08-28,24.145736,120.684075,0.13951385
467540,大武,2024-08-28,22.355675,120.903789,0.09887203
467571,新竹,2024-08-28,24.827853,121.014219,0.17219792
467590,恆春,2024-08-28,22.003897,120.746339,0.19830464
467610,成功,2024-08-28,23.097486,121.373428,0.018728485
467620,蘭嶼,2024-08-28,22.036969,121.558339,0.99282604
467660,臺東,2024-08-28,22.752211,121.154586,0.055475485
467790,墾丁雷達站,2024-08-28,21.948235,120.808028,0.40012527
72AI40,桃改樹林分場,2024-08-28,24.944503,121.386972,0.03132093
72C440,桃園農改,2024-08-28,24.950944,121.030583,0.66113824
72C440,桃園農改場,2024-08-28,24.950944,121.030583,0.66113824
72D680,桃改新埔分場,2024-08-28,24.834444,121.066111,0.11700124
72G600,臺中農改,2024-08-28,24.003028,120.534389,0.2555809
72G600,臺中農改場,2024-08-28,24.003028,120.534389,0.2555809
72K220,南改斗南分場,2024-08-28,23.634556,120.477333,0.18410389
72M360,南改義竹分場,2024-08-28,23.360694,120.279361,0.063954316
72M700,南改鹿草分場,2024-08-28,23.416869,120.283061,0.07068865
72N100,臺南農改,2024-08-28,23.0605,120.342194,0.043995228
72N100,臺南農改場,2024-08-28,23.0605,120.342194,0.043995228
72N240,七股研究中心,2024-08-28,23.081672,120.062894,0.059479725
72Q010,高雄農改,2024-08-28,22.709333,120.525889,0.018139964
72Q010,高雄農改場,2024-08-28,22.709333,120.525889,0.018139964
72S200,東改班鳩分場,2024-08-28,22.829528,121.077694,0.042933907
72S590,東改賓朗果園,2024-08-28,22.813889,121.071278,0.05330686
72T250,花蓮農改,2024-08-28,23.975222,121.563889,0.026907066
72T250,花蓮農改場,2024-08-28,23.975222,121.563889,0.026907066
72U480,花改蘭陽分場,2024-08-28,24.686306,121.716583,0.05347208
72V140,高改旗南分場,2024-08-28,22.857861,120.516667,0.03401087
82A750,茶改北部分場,2024-08-28,24.955778,121.631222,0.029288696
82C160,茶改場,2024-08-28,24.908472,121.185333,0.032731194
82H840,茶改南部分場,2024-08-28,23.762528,120.7405,0.5331482
82S580,茶改東部分場,2024-08-28,22.907694,121.130139,0.0796083
A2C560,農工中心,2024-08-28,24.985917,121.239833,0.07309913
A2K360,水試臺西試驗場,2024-08-28,23.717231,120.190522,0.11916506
A2K570,古坑花卉中心,2024-08-28,23.63353,120.55239,0.15305044
A2K630,臺大雲林校區,2024-08-28,23.730628,120.423903,0.24523614
A2N290,臺南蘭花園區,2024-08-28,23.340258,120.379661,0.12837172
B2E890,畜試北區分所,2024-08-28,24.527806,120.770972,0.46148092
B2N890,畜產試驗所,2024-08-28,23.058972,120.336406,0.043995593
B2N890,畜試所,2024-08-28,23.058972,120.336406,0.043995593
B2Q810,畜試南區分所,2024-08-28,21.945583,120.802167,0.28036773
B2U990,畜試東區分所,2024-08-28,24.669039,121.832561,0.02878162
C0A520,山佳,2024-08-28,24.974944,121.402008,0.03517382
C0A530,坪林,2024-08-28,24.938183,121.70975,0.02510589
C0A550,泰平,2024-08-28,24.971197,121.823711,0.06971347
C0A570,桶後,2024-08-28,24.848222,121.597992,0.02253098
C0A640,石碇,2024-08-28,24.993969,121.662917,0.048502624
C0A770,科教館,2024-08-28,25.096356,121.516507,0.020642772
C0A860,大坪,2024-08-28,25.165914,121.632969,0.026720224
C0A890,雙溪,2024-08-28,25.036003,121.864242,0.04950788
C0A931,三和,2024-08-28,25.233153,121.595236,0.03195345
C0A940,金山,2024-08-28,25.223628,121.643967,0.026756743
C0A950,鼻頭角,2024-08-28,25.129036,121.923372,0.05946386
C0A970,三貂角,2024-08-28,25.007606,122.002058,0.04493018
C0A980,社子,2024-08-28,25.109508,121.469681,0.03463699
C0A9C0,天母,2024-08-28,25.117494,121.537169,0.018374166
C0A9F0,內湖,2024-08-28,25.079422,121.57545,0.020572968
C0AC60,三峽,2024-08-28,24.939025,121.369728,0.031840675
C0AC70,信義,2024-08-28,25.037822,121.564597,0.020572968
C0AC80,文山,2024-08-28,25.00235,121.575728,0.029986965
C0ACA0,新莊,2024-08-28,25.051478,121.446756,0.02435305
C0AD10,八里,2024-08-28,25.150211,121.403947,0.03535656
C0AD30,蘆洲,2024-08-28,25.086594,121.472331,0.020740928
C0AD40,土城,2024-08-28,24.973208,121.445169,0.028387431
C0AD50,鶯歌,2024-08-28,24.951533,121.346294,0.032904048
C0AG80,中和,2024-08-28,24.991622,121.491792,0.028387431
C0AH00,汐止,2024-08-28,25.066881,121.658778,0.020572968
C0AH10,永和,2024-08-28,25.01125,121.508111,0.02810051
C0AH40,平等,2024-08-28,25.129142,121.577086,0.039697677
C0AH50,林口,2024-08-28,25.072181,121.38084,0.09651017
C0AH70,松山,2024-08-28,25.04871,121.55042,0.020572968
C0AH80,深坑,2024-08-28,25.002703,121.628328,0.02972735
C0AI00,五股,2024-08-28,25.07445,121.42728,0.07869762
C0AI10,屈尺,2024-08-28,24.92184,121.54475,0.028830752
C0AI20,白沙灣,2024-08-28,25.283128,121.519058,0.048310183
C0AI30,三重,2024-08-28,25.057328,121.500629,0.020461429
C0AI40,石牌,2024-08-28,25.115597,121.513139,0.018321918
C0AJ20,野柳,2024-08-28,25.20703,121.690021,0.025088267
C0AJ30,淡水觀海,2024-08-28,25.184591,121.408616,0.026171006
C0AJ40,石門,2024-08-28,25.273672,121.601198,0.056864686
C0AJ50,水湳洞,2024-08-28,25.123695,121.862238,0.057195466
C0AJ60,六塊厝,2024-08-28,25.24,121.4481,0.045868017
C0AJ70,田寮,2024-08-28,25.2698,121.4886,0.047373693
C0AJ80,板橋,2024-08-28,25.0107,121.4489,0.02810051
C0AJ90,澳底,2024-08-28,25.0552,121.9253,0.04638777
C0B010,七堵,2024-08-28,25.094819,121.71713,0.030346315
C0B020,基隆嶼,2024-08-28,25.19141,121.78391,0.023485037
C0B040,大武崙,2024-08-28,25.166676,121.706993,0.03530889
C0B050,八斗子,2024-08-28,25.144754,121.79167,0.03300725
C0B060,暖暖,2024-08-28,25.0957,121.7403,0.032614645
C0C460,復興,2024-08-28,24.820208,121.352281,0.23936734
C0C480,桃園,2024-08-28,24.992425,121.323172,0.036850695
C0C490,八德,2024-08-28,24.928708,121.283289,0.04042109
C0C590,觀音,2024-08-28,25.027072,121.153317,0.522669
C0C620,蘆竹,2024-08-28,25.084275,121.265767,0.14979555
C0C630,大溪,2024-08-28,24.882853,121.265547,0.032026883
C0C650,平鎮,2024-08-28,24.897503,121.214636,0.04114023
C0C660,楊梅,2024-08-28,24.912375,121.143047,0.032464307
C0C670,龍潭,2024-08-28,24.870056,121.221389,0.034119476
C0C680,龜山,2024-08-28,25.02846,121.38656,0.07548523
C0C700,中壢,2024-08-28,24.977661,121.256375,0.06942881
C0C710,大溪永福,2024-08-28,24.892936,121.324975,0.038033873
C0C720,竹圍,2024-08-28,25.112692,121.239824,0.09824451
C0C730,中大臨海站,2024-08-28,24.966126,121.008581,0.51046914
C0C740,觀音工業區,2024-08-28,25.064764,121.114856,0.6245392
C0C750,新興坑尾,2024-08-28,25.0061,121.0971,0.41423678
C0D430,峨眉,2024-08-28,24.6905,121.017189,0.5039778
C0D480,打鐵坑,2024-08-28,24.849664,121.150789,0.03423629
C0D540,橫山,2024-08-28,24.71116,121.11693,0.23215705
C0D560,竹東,2024-08-28,24.767147,121.057881,0.2980805
C0D580,寶山,2024-08-28,24.735006,121.025192,0.45115113
C0D590,新豐,2024-08-28,24.87068,120.97721,0.89484394
C0D650,湖口,2024-08-28,24.904794,121.043628,0.28313735
C0D660,新竹市東區,2024-08-28,24.798681,120.986942,0.42402378
C0D670,海天一線,2024-08-28,24.831986,120.914438,0.9028628
C0D680,香山濕地,2024-08-28,24.783581,120.914988,0.31904247
C0D690,外湖,2024-08-28,24.917735,120.968711,0.18992193
C0D700,關西,2024-08-28,24.7977,121.1732,0.09643224
C0E420,竹南,2024-08-28,24.708978,120.888897,0.56376314
C0E430,南庄,2024-08-28,24.601775,121.000214,0.40892982
C0E550,明德,2024-08-28,24.583486,120.885411,0.62035364
C0E590,通霄,2024-08-28,24.471892,120.704622,0.39392966
C0E730,頭份,2024-08-28,24.688247,120.912206,0.5427111
C0E740,造橋,2024-08-28,24.637056,120.864778,0.4620295
C0E750,苗栗,2024-08-28,24.564569,120.824575,0.55896217
C0E780,銅鑼,2024-08-28,24.489681,120.790853,0.75392425
C0E791,卓蘭,2024-08-28,24.3126,120.8244,0.87290806
C0E810,西湖,2024-08-28,24.562947,120.7485,0.83577514
C0E820,獅潭,2024-08-28,24.539133,120.920042,0.900237
C0E830,苑裡,2024-08-28,24.439714,120.653053,0.64597416
C0E850,大河,2024-08-28,24.618069,120.948578,0.5579872
C0E870,高鐵苗栗,2024-08-28,24.60725,120.826094,0.47771856
C0E910,海埔,2024-08-28,24.648767,120.772435,0.7291464
C0E920,通霄漁港,2024-08-28,24.498589,120.673876,0.5905758
C0E930,龍鳳,2024-08-28,24.700034,120.859125,0.4960286
C0F0B0,石岡,2024-08-28,24.276061,120.777644,0.7277366
C0F850,東勢,2024-08-28,24.246428,120.833047,0.92061937
C0F970,大坑,2024-08-28,24.173142,120.722289,0.13031109
C0F9I0,神岡,2024-08-28,24.272481,120.658314,0.44819775
C0F9K0,大安,2024-08-28,24.345061,120.588025,0.41353887
C0F9L0,后里,2024-08-28,24.310436,120.729725,0.48564172
C0F9M0,豐原,2024-08-28,24.254322,120.720692,0.33647445
C0F9N0,大里,2024-08-28,24.092464,120.701378,0.11123078
C0F9O0,潭子,2024-08-28,24.213106,120.703933,0.16405055
C0F9P0,清水,2024-08-28,24.312297,120.562242,0.13011728
C0F9Q0,外埔,2024-08-28,24.347817,120.705686,0.23716219
C0F9R0,龍井,2024-08-28,24.184536,120.528972,0.09038003
C0F9S0,烏日,2024-08-28,24.107058,120.624103,0.093561955
C0F9T0,西屯,2024-08-28,24.179494,120.641275,0.2693784
C0F9U0,南屯,2024-08-28,24.137006,120.637969,0.18538502
C0F9X0,大雅(中科園區),2024-08-28,24.21528,120.62445,0.39697593
C0FA10,松柏,2024-08-28,24.429115,120.617482,0.3568751
C0FA20,溫寮,2024-08-28,24.372177,120.583125,0.34853908
C0FA30,梧棲,2024-08-28,24.256003,120.523381,0.13011728
C0FA40,臺中電廠,2024-08-28,24.2146,120.4907,0.103116356
C0FA50,霧峰,2024-08-28,24.0419,120.6995,0.34089375
C0G620,芬園,2024-08-28,24.015678,120.6213,0.2034587
C0G650,員林,2024-08-28,23.946503,120.585597,0.14922711
C0G660,溪湖,2024-08-28,23.94835,120.479122,0.13914828
C0G720,溪州,2024-08-28,23.851589,120.499093,0.07129755
C0G730,二林,2024-08-28,23.903325,120.376081,0.13460292
C0G740,大城,2024-08-28,23.852487,120.320935,0.22064973
C0G770,福興,2024-08-28,24.041289,120.437669,0.11097132
C0G780,秀水,2024-08-28,24.03405,120.503869,0.24723475
C0G800,埔鹽,2024-08-28,24.000394,120.431683,0.11205175
C0G810,埔心,2024-08-28,23.947633,120.525456,0.15174681
C0G820,田尾,2024-08-28,23.901669,120.509389,0.095183164
C0G830,埤頭,2024-08-28,23.866003,120.452806,0.064312406
C0G860,社頭,2024-08-28,23.897647,120.5862,0.06449664
C0G880,二水,2024-08-28,23.810742,120.6173,0.11909043
C0G890,伸港,2024-08-28,24.148933,120.484403,0.09474026
C0G900,線西,2024-08-28,24.143358,120.443536,0.09397294
C0G910,花壇,2024-08-28,24.032076,120.549461,0.27209046
C0G920,永靖,2024-08-28,23.924703,120.547533,0.095183164
C0G940,竹塘,2024-08-28,23.848253,120.386764,0.115252465
C0G950,防潮門,2024-08-28,24.1835,120.4871,0.09038003
C0G960,福寶,2024-08-28,24.0443,120.3814,0.09806218
C0G970,三豐,2024-08-28,23.882,120.2895,0.14985183
C0H890,埔里,2024-08-28,23.972169,120.952425,0.2429619
C0H960,草屯,2024-08-28,23.973672,120.68085,0.19191836
C0I110,竹山,2024-08-28,23.761225,120.688156,0.15292227
C0I360,水里,2024-08-28,23.812553,120.849792,0.0741911
C0I380,集集,2024-08-28,23.828206,120.801467,0.06885606
C0I410,名間,2024-08-28,23.837053,120.701447,0.086624116
C0I420,國姓,2024-08-28,24.037803,120.855072,0.23078176
C0I460,南投,2024-08-28,23.911469,120.687331,0.10919848
C0K250,崙背,2024-08-28,23.75555,120.318925,0.097262695
C0K280,四湖,2024-08-28,23.630414,120.227125,0.13252777
C0K291,宜梧,2024-08-28,23.536281,120.169329,0.08120493
C0K330,虎尾,2024-08-28,23.719183,120.442036,0.2846423
C0K390,土庫,2024-08-28,23.679029,120.395574,0.11096148
C0K400,斗六,2024-08-28,23.720583,120.541127,0.334143
C0K410,北港,2024-08-28,23.573957,120.292802,0.07793506
C0K420,西螺,2024-08-28,23.800407,120.467394,0.29631385
C0K430,褒忠,2024-08-28,23.690938,120.303634,0.082209945
C0K440,二崙,2024-08-28,23.772797,120.408944,0.2614642
C0K450,大埤,2024-08-28,23.646074,120.431537,0.12694585
C0K460,斗南,2024-08-28,23.678734,120.478359,0.18410389
C0K470,林內,2024-08-28,23.748675,120.609642,0.14042726
C0K480,莿桐,2024-08-28,23.761192,120.502372,0.13668191
C0K500,元長,2024-08-28,23.64981,120.315024,0.082055844
C0K510,水林,2024-08-28,23.572924,120.24597,0.07684421
C0K530,臺西,2024-08-28,23.701547,120.197559,0.12351602
C0K550,蔦松,2024-08-28,23.514319,120.229736,0.08120493
C0K560,棋山,2024-08-28,23.68645,120.603417,0.17299402
C0K580,高鐵雲林,2024-08-28,23.737456,120.417944,0.24523614
C0K590,雲林東勢,2024-08-28,23.674192,120.255721,0.088791415
C0K600,箔子寮,2024-08-28,23.6197,120.14,0.1281858
C0M520,東後寮,2024-08-28,23.369908,120.248065,0.06358217
C0M640,中埔,2024-08-28,23.42538,120.5229,0.17136192
C0M650,朴子,2024-08-28,23.43463,120.23902,0.06983108
C0M660,溪口,2024-08-28,23.604131,120.403569,0.17849112
C0M670,大林,2024-08-28,23.600616,120.45841,0.29865476
C0M680,太保,2024-08-28,23.455062,120.331455,0.22887413
C0M690,水上,2024-08-28,23.419734,120.388909,0.11820861
C0M700,竹崎,2024-08-28,23.526178,120.555508,0.43642828
C0M710,東石,2024-08-28,23.458927,120.15385,0.114957415
C0M720,番路,2024-08-28,23.464657,120.554156,0.58402896
C0M730,嘉義市東區,2024-08-28,23.457673,120.460531,0.26335108
C0M740,六腳,2024-08-28,23.492871,120.290625,0.07213097
C0M750,布袋,2024-08-28,23.380878,120.167789,0.06673829
C0M760,民雄,2024-08-28,23.551754,120.428457,0.23799844
C0M770,嘉義梅山,2024-08-28,23.585398,120.555587,0.5409575
C0M780,鹿草,2024-08-28,23.41134,120.30835,0.07240266
C0M790,新港,2024-08-28,23.553269,120.345728,0.115008965
C0M800,茶山,2024-08-28,23.299075,120.664767,0.7141543
C0M880,好美里,2024-08-28,23.3364,120.138,0.06187569
C0N010,鯤鯓國小,2024-08-28,23.1879,120.0889,0.04164433
C0N020,城西,2024-08-28,23.0568,120.0956,0.029390017
C0N030,四草,2024-08-28,23.0235,120.1116,0.029227331
C0N040,蘆竹溝,2024-08-28,23.2344,120.0961,0.034632355
C0N050,蚵寮,2024-08-28,23.301,120.1104,0.04764281
C0O830,北寮,2024-08-28,23.079561,120.495008,0.07769394
C0O840,王爺宮,2024-08-28,23.222064,120.40085,0.08373658
C0O860,大內,2024-08-28,23.11885,120.36083,0.05710655
C0O900,善化,2024-08-28,23.112883,120.297219,0.045751438
C0O960,崎頂,2024-08-28,22.959547,120.369317,0.053522483
C0O970,虎頭埤,2024-08-28,23.021375,120.347878,0.0812678
C0O980,新市,2024-08-28,23.061614,120.298197,0.039582487
C0O990,媽廟,2024-08-28,22.99175,120.293525,0.034642287
C0R150,三地門,2024-08-28,22.709889,120.639944,0.03124836
C0R160,鹽埔,2024-08-28,22.739558,120.530778,0.018139964
C0R170,屏東,2024-08-28,22.660269,120.494072,0.023392018
C0R190,赤山,2024-08-28,22.592333,120.614306,0.017623374
C0R220,潮州,2024-08-28,22.534361,120.54,0.015039543
C0R240,來義,2024-08-28,22.527306,120.625111,0.017233165
C0R260,春日,2024-08-28,22.370361,120.628306,0.023461122
C0R270,琉球嶼,2024-08-28,22.332244,120.362236,0.028181784
C0R280,檳榔,2024-08-28,22.076078,120.836777,0.22469532
C0R320,車城,2024-08-28,22.0744,120.716247,0.08874906
C0R341,牡丹,2024-08-28,22.130036,120.792639,0.1905894
C0R350,貓鼻頭,2024-08-28,21.921774,120.7358,0.47508875
C0R470,高樹,2024-08-28,22.826389,120.600806,0.054844294
C0R480,長治,2024-08-28,22.693128,120.542622,0.031351157
C0R490,九如,2024-08-28,22.7405,120.490503,0.017882187
C0R520,崁頂,2024-08-28,22.514781,120.506914,0.014933725
C0R540,佳冬,2024-08-28,22.419456,120.552375,0.022317236
C0R550,新埤,2024-08-28,22.467947,120.582894,0.020799436
C0R560,新園,2024-08-28,22.5434,120.461558,0.020866074
C0R570,麟洛,2024-08-28,22.65078,120.52719,0.023392018
C0R580,南州,2024-08-28,22.48591,120.50274,0.020414727
C0R590,里港,2024-08-28,22.77919,120.49459,0.025911987
C0R620,墾雷,2024-08-28,21.900836,120.855269,0.82124645
C0R640,東港,2024-08-28,22.46247,120.44074,0.020414727
C0R650,竹田,2024-08-28,22.58486,120.54344,0.015657997
C0R660,枋寮,2024-08-28,22.367722,120.590647,0.022283558
C0R670,楓港,2024-08-28,22.190131,120.692156,0.13329747
C0R680,佳樂水,2024-08-28,21.993578,120.861633,0.28555658
C0R690,墾丁,2024-08-28,21.966756,120.810269,0.7093428
C0R700,枋山,2024-08-28,22.246844,120.661086,0.0491405
C0R710,龍磐,2024-08-28,21.931672,120.838942,0.9278914
C0R720,旭海,2024-08-28,22.205403,120.887614,0.6467206
C0R730,大坪頂,2024-08-28,22.024633,120.69355,0.55598205
C0R740,獅子,2024-08-28,22.201569,120.70525,0.36294463
C0R760,南仁湖,2024-08-28,22.084681,120.863353,0.8395574
C0R770,保力,2024-08-28,22.071122,120.764111,0.121525906
C0R780,滿州,2024-08-28,22.024403,120.839892,0.23198083
C0R790,九棚,2024-08-28,22.14195,120.889281,0.33975548
C0R800,丹路,2024-08-28,22.204481,120.750989,0.13624264
C0R810,內獅,2024-08-28,22.305064,120.642986,0.03499374
C0R830,高士,2024-08-28,22.121825,120.836781,0.9365918
C0R850,林邊,2024-08-28,22.4634,120.5339,0.020377323
C0R860,鼻頭,2024-08-28,22.1043,120.8979,0.07718472
C0R870,興海,2024-08-28,21.9752,120.8439,0.28036773
C0R880,後壁湖,2024-08-28,21.9457,120.7457,0.14799856
C0R890,山海,2024-08-28,21.9878,120.7091,0.1506974
C0R900,竹坑,2024-08-28,22.1385,120.7022,0.090363175
C0R910,下寮,2024-08-28,22.3929,120.5548,0.022283558
C0R920,塭仔,2024-08-28,22.4169,120.5197,0.022232916
C0R930,萬丹,2024-08-28,22.5885,120.4851,0.03788195
C0R940,加祿堂,2024-08-28,22.3363,120.6217,0.025307294
C0S710,鹿野,2024-08-28,22.917711,121.122994,0.06561989
C0S730,綠島,2024-08-28,22.6672,121.47533,0.08929677
C0S740,池上,2024-08-28,23.119628,121.209469,0.045278687
C0S770,大溪山,2024-08-28,22.478475,120.943325,0.458185
C0S790,金崙,2024-08-28,22.538122,120.966875,0.61919636
C0S810,東河,2024-08-28,22.972672,121.303986,0.021043425
C0S830,長濱,2024-08-28,23.286817,121.411975,0.03926279
C0S840,南田,2024-08-28,22.279725,120.889208,0.23468447
C0S890,關山,2024-08-28,23.0395,121.175017,0.018457863
C0S900,蘭嶼高中,2024-08-28,22.04909,121.51214,0.98493856
C0S910,蘭嶼燈塔,2024-08-28,22.081197,121.503117,0.9872112
C0S920,金峰嘉蘭,2024-08-28,22.594789,120.960825,0.235088
C0S930,延平,2024-08-28,22.902581,121.084058,0.098138794
C0S940,石寧山,2024-08-28,23.223772,121.406639,0.019794108
C0S950,七塊厝,2024-08-28,22.954453,121.229922,0.035127785
C0S960,香蘭,2024-08-28,22.587569,120.993375,0.1915735
C0S970,加津林,2024-08-28,22.416211,120.926942,0.10500872
C0S990,山豬窟,2024-08-28,22.318619,120.857372,0.7195546
C0SA00,歷坵,2024-08-28,22.520969,120.89185,0.8604289
C0SA10,檳榔四格山,2024-08-28,22.810031,121.109308,0.31708395
C0SA30,都歷,2024-08-28,23.020333,121.323642,0.017216552
C0SA40,瑞和,2024-08-28,22.974361,121.156697,0.021456322
C0SA60,知本（水試所）,2024-08-28,22.702394,121.082761,0.12310421
C0SA80,土坂,2024-08-28,22.453108,120.887572,0.16833052
C0SA90,達仁林場,2024-08-28,22.264347,120.823972,0.96243614
C0T870,鯉魚潭,2024-08-28,23.935639,121.508944,0.03301039
C0T900,西林,2024-08-28,23.8119,121.441458,0.028183332
C0T960,光復,2024-08-28,23.660694,121.424964,0.046381444
C0T9A0,月眉山,2024-08-28,23.809928,121.539828,0.07488788
C0T9D0,和中,2024-08-28,24.26676,121.74103,0.7012116
C0T9E0,大坑,2024-08-28,23.880628,121.581981,0.18787786
C0T9F0,水璉,2024-08-28,23.797131,121.542514,0.03399605
C0T9I0,豐濱,2024-08-28,23.583897,121.514806,0.042585433
C0T9M0,靜浦,2024-08-28,23.455167,121.495028,0.036427047
C0T9N0,富里,2024-08-28,23.171639,121.249378,0.030698257
C0U600,礁溪,2024-08-28,24.817539,121.765608,0.049611513
C0U650,玉蘭,2024-08-28,24.675286,121.587061,0.14244528
C0U750,龜山島,2024-08-28,24.841667,121.953133,0.1545516
C0U760,東澳,2024-08-28,24.52196,121.83318,0.043652102
C0U770,南澳,2024-08-28,24.44935,121.81022,0.06508116
C0U780,五結,2024-08-28,24.68637,121.79794,0.051923282
C0U860,頭城,2024-08-28,24.85323,121.8308,0.049017962
C0U870,大礁溪,2024-08-28,24.791042,121.675047,0.0747496
C0U880,北關,2024-08-28,24.9072,121.8734,0.027228449
C0U890,三星,2024-08-28,24.66812,121.65302,0.022870582
C0U900,內城,2024-08-28,24.71813,121.68766,0.05493983
C0U910,冬山,2024-08-28,24.63373,121.7937,0.02878162
C0U940,羅東,2024-08-28,24.68184,121.74934,0.05291598
C0U970,大福,2024-08-28,24.80064,121.81389,0.06788227
C0U990,員山,2024-08-28,24.74435,121.72247,0.05266612
C0UA00,土場,2024-08-28,24.576533,121.495333,0.011818126
C0UA80,大溪漁港,2024-08-28,24.941801,121.902955,0.039895818
C0UA90,石城,2024-08-28,24.980444,121.951214,0.040778294
C0UB00,淡江大學蘭陽校園,2024-08-28,24.823239,121.730383,0.033395085
C0UB10,蘇澳,2024-08-28,24.5969,121.8571,0.019494576
C0UB20,壯圍,2024-08-28,24.7359,121.8163,0.05166937
C0V310,美濃,2024-08-28,22.898742,120.519153,0.03401087
C0V350,溪埔,2024-08-28,22.738578,120.446797,0.024878882
C0V360,內門,2024-08-28,22.975481,120.466769,0.030043364
C0V370,古亭坑,2024-08-28,22.893178,120.401947,0.032527722
C0V400,阿公店,2024-08-28,22.804194,120.355528,0.02684653
C0V440,鳳山,2024-08-28,22.646653,120.356122,0.028398994
C0V450,鳳森,2024-08-28,22.545064,120.392592,0.022139842
C0V490,新興,2024-08-28,22.627422,120.298803,0.022175739
C0V530,阿蓮,2024-08-28,22.883208,120.327508,0.025624918
C0V610,梓官,2024-08-28,22.760558,120.267211,0.02112909
C0V620,永安,2024-08-28,22.82315,120.236856,0.023040202
C0V630,茄萣,2024-08-28,22.906642,120.182608,0.036007587
C0V640,湖內,2024-08-28,22.887139,120.2445,0.028785018
C0V650,彌陀,2024-08-28,22.783806,120.246361,0.020812813
C0V660,岡山,2024-08-28,22.797078,120.294958,0.020812813
C0V680,仁武,2024-08-28,22.701083,120.347722,0.029291289
C0V690,鼓山,2024-08-28,22.623325,120.275575,0.022175739
C0V700,三民,2024-08-28,22.645017,120.311233,0.02968041
C0V710,苓雅,2024-08-28,22.622742,120.330669,0.019992322
C0V720,林園,2024-08-28,22.507747,120.394511,0.020445388
C0V730,大寮,2024-08-28,22.605614,120.395717,0.020112043
C0V740,旗山,2024-08-28,22.888614,120.483597,0.03486133
C0V750,路竹,2024-08-28,22.854997,120.259439,0.02908832
C0V760,橋頭,2024-08-28,22.757806,120.30575,0.02112909
C0V770,大社,2024-08-28,22.730306,120.346639,0.020560805
C0V790,萬山,2024-08-28,22.905944,120.688056,0.8092884
C0V800,六龜,2024-08-28,22.997889,120.633583,0.1664719
C0V810,左營,2024-08-28,22.67491,120.28491,0.02968041
C0V820,小林,2024-08-28,23.148408,120.63325,0.791011
C0V840,鳳鼻頭,2024-08-28,22.5083,120.3591,0.020622745
C0V850,蚵仔寮,2024-08-28,22.7256,120.2527,0.02103973
C0V860,南寮,2024-08-28,22.7616,120.2339,0.02103973
C0V870,文安,2024-08-28,22.8025,120.2164,0.020639313
C0V880,興達,2024-08-28,22.8778,120.2127,0.028396664
C0V890,前鎮,2024-08-28,22.5718,120.3117,0.022139179
C0V900,汕尾,2024-08-28,22.4782,120.4151,0.020414727
C0W200,湖西,2024-08-28,23.596314,119.67275,0.72525793
C0X050,東河,2024-08-28,23.296598,120.385608,0.045965258
C0X060,下營,2024-08-28,23.22695,120.256261,0.03656353
C0X080,佳里,2024-08-28,23.173039,120.145086,0.04164433
C0X100,臺南市北區,2024-08-28,23.010394,120.194228,0.029532967
C0X110,臺南市南區,2024-08-28,22.961189,120.188378,0.034653757
C0X120,麻豆,2024-08-28,23.183289,120.248611,0.036677297
C0X130,官田,2024-08-28,23.193217,120.315422,0.047306664
C0X140,西港,2024-08-28,23.125608,120.203108,0.039977126
C0X150,安定,2024-08-28,23.102614,120.227839,0.039977126
C0X160,仁德,2024-08-28,22.968258,120.257689,0.03491859
C0X170,關廟,2024-08-28,22.963017,120.327797,0.045145106
C0X180,山上,2024-08-28,23.0757,120.363253,0.091138035
C0X190,安平,2024-08-28,22.993161,120.152181,0.029532967
C0X200,左鎮,2024-08-28,23.056758,120.408522,0.07956211
C0X210,白河,2024-08-28,23.347466,120.414427,0.18213502
C0X220,學甲,2024-08-28,23.230367,120.182187,0.034881614
C0X230,鹽水,2024-08-28,23.272621,120.247641,0.046842348
C0X240,關子嶺,2024-08-28,23.331169,120.508025,0.8681366
C0X250,新營,2024-08-28,23.310689,120.316681,0.042658467
C0X260,後壁,2024-08-28,23.366358,120.362326,0.12837172
C0X280,將軍,2024-08-28,23.214999,120.13577,0.034632355
C0X290,北門,2024-08-28,23.267772,120.125481,0.034632355
C0X300,鹿寮,2024-08-28,23.386047,120.477331,0.10983817
C0X320,柳營,2024-08-28,23.253328,120.375253,0.03879636
C0Z020,明里,2024-08-28,23.208717,121.262342,0.024643185
C0Z061,玉里,2024-08-28,23.3215,121.339656,0.027629888
C0Z070,舞鶴,2024-08-28,23.46811,121.37407,0.063037775
C0Z080,富源,2024-08-28,23.587642,121.378225,0.5981575
C0Z100,東華,2024-08-28,23.89525,121.549833,0.027286252
C0Z150,吉安光華,2024-08-28,23.930925,121.595153,0.024800068
C0Z160,鳳林,2024-08-28,23.746114,121.453411,0.034717448
C0Z170,卓溪,2024-08-28,23.3443,121.3029,0.05698918
C0Z180,新城,2024-08-28,24.03946,121.60454,0.026527975
C0Z190,富世,2024-08-28,24.14743,121.6297,0.037105355
C0Z200,萬榮,2024-08-28,23.709219,121.420106,0.03647426
C0Z210,瑞穗,2024-08-28,23.5239,121.39021,0.038643174
C0Z230,和平,2024-08-28,24.30717,121.77007,0.6897618
C0Z270,蕃薯寮,2024-08-28,23.73835,121.540108,0.065270595
C0Z280,德武,2024-08-28,23.47426,121.41071,0.03304929
C0Z300,東里,2024-08-28,23.26853,121.30547,0.020637477
C0Z310,清水斷崖,2024-08-28,24.218294,121.689142,0.99195206
C0Z330,安通山,2024-08-28,23.290728,121.348528,0.2792561
C2A540,四堵,2024-08-28,24.8926,121.745736,0.02660664
C2A560,福山,2024-08-28,24.776203,121.502811,0.021166148
C2A650,火燒寮,2024-08-28,25.002719,121.742892,0.038391966
C2A660,瑞芳,2024-08-28,25.113169,121.801147,0.06661948
C2A880,福隆,2024-08-28,25.017842,121.942083,0.040312618
C2A920,富貴角,2024-08-28,25.263783,121.565258,0.066689886
C2E520,大湖,2024-08-28,24.414939,120.870872,0.8229233
C2E540,後龍,2024-08-28,24.606489,120.783933,0.7461109
C2E540,龍溪,2024-08-28,24.606489,120.783933,0.7461109
C2F000,大肚,2024-08-28,24.15295,120.572117,0.7137101
C2F930,大甲,2024-08-28,24.347667,120.640403,0.65864843
C2F9A0,中竹林,2024-08-28,24.103556,120.751061,0.27625597
C2G640,鹿港,2024-08-28,24.0753,120.430481,0.09806218
C2G840,北斗,2024-08-28,23.877586,120.514222,0.06807477
C2G870,芳苑,2024-08-28,23.922303,120.320025,0.29704943
C2H950,中寮,2024-08-28,23.884447,120.766406,0.05298138
C2M410,馬頭山,2024-08-28,23.324361,120.582017,0.60553193
C2N160,西拉雅風管處,2024-08-28,23.189481,120.335297,0.04765207
C2O810,曾文,2024-08-28,23.219681,120.497328,0.061600402
C2O930,玉井,2024-08-28,23.126042,120.46055,0.091138035
C2O950,安南,2024-08-28,23.076694,120.144861,0.06036173
C2V250,甲仙,2024-08-28,23.080106,120.591758,0.31701067
C2V260,月眉,2024-08-28,22.971003,120.539853,0.10863889
C2W230,畜試所澎湖,2024-08-28,23.628342,119.513206,0.87287676
CAG100,王功漁港,2024-08-28,23.96824,120.32586,0.25935018
CAH030,茶改場竹圍站,2024-08-28,23.860083,120.637528,0.13461137
CAJ050,海口故事園區,2024-08-28,23.57543,120.14121,0.12697646
CAL110,布袋國中,2024-08-28,23.35893,120.18026,0.06673829
CAN130,水試所海水繁養殖中心,2024-08-28,23.120802,120.07968,0.059479725
CAN140,六官養殖協會,2024-08-28,23.22881,120.29962,0.03656353
CAQ030,崎峰國小,2024-08-28,22.42565,120.49521,0.020414727
E2K600,四湖植物園,2024-08-28,23.676986,120.163433,0.13252777
E2P980,林試六龜中心,2024-08-28,22.991703,120.645722,0.20789152
E2S960,林試太麻里2,2024-08-28,22.598014,120.989761,0.19386883
E2S960,林試太麻里2,2024-08-28,22.598,120.99775,0.18809108
E2S980,林試太麻里1,2024-08-28,22.598922,120.980044,0.23312053
G2AI50,關渡,2024-08-28,25.11575,121.492,0.035148922
G2F820,農業試驗所,2024-08-28,24.031261,120.688133,0.3163605
G2F820,農試所(霧峰),2024-08-28,24.031261,120.688133,0.3163605
G2L020,農試嘉義分所,2024-08-28,23.485028,120.473806,0.22451888
G2M350,農試溪口農場,2024-08-28,23.58565,120.408111,0.17849112
G2P820,農試鳳山分所,2024-08-28,22.646611,120.356083,0.028398994
K2E360,苗栗農改,2024-08-28,24.495722,120.829111,0.7930489
K2E360,苗栗農改場,2024-08-28,24.495722,120.829111,0.7930489
K2E710,苗改生物防治研究中心,2024-08-28,24.422861,120.871833,0.6855558
K2F750,種苗改良場,2024-08-28,24.225972,120.800917,0.9660241
K2F750,種苗繁殖,2024-08-28,24.225972,120.800917,0.9660241
U2HA50,臺大竹山,2024-08-28,23.756972,120.681556,0.36497194
V2C250,八德合作社,2024-08-28,24.93775,121.266389,0.06616711
V2C260,八德蔬果,2024-08-28,24.978508,121.281819,0.06672327
V2K610,大庄合作社,2024-08-28,23.8068,120.367939,0.14172672
V2K620,麥寮合作社,2024-08-28,23.753836,120.294783,0.08061694
