站號,站名,日期,lat,lon,BlastGRU-TW
12J990,口湖工作站,2024-06-26,23.589978,120.180394,0.084012866
12Q970,東港工作站,2024-06-26,22.479997,120.466058,0.05336469
12Q980,恆春工作站,2024-06-26,22.079678,120.714425,0.040544618
466881,新北,2024-06-26,24.9593,121.52,0.5295005
466900,淡水,2024-06-26,25.164889,121.448906,0.30422595
466920,臺北,2024-06-26,25.037658,121.514853,0.083163194
466940,基隆,2024-06-26,25.133314,121.740475,0.040553734
466990,花蓮,2024-06-26,23.975128,121.613275,0.04275825
467050,新屋,2024-06-26,25.006744,121.047486,0.9514243
467080,宜蘭,2024-06-26,24.763975,121.756528,0.063368455
467270,田中,2024-06-26,23.873803,120.581286,0.04122182
467280,後龍,2024-06-26,24.648563,120.831834,0.5706912
467300,東吉島,2024-06-26,23.25695,119.667467,0.3108223
467350,澎湖,2024-06-26,23.565503,119.563094,0.6045256
467410,臺南,2024-06-26,22.993239,120.204772,0.042110156
467420,永康,2024-06-26,23.038386,120.2367,0.025633207
467441,高雄,2024-06-26,22.7304,120.3125,0.039717577
467480,嘉義,2024-06-26,23.495925,120.432906,0.04624864
467490,臺中,2024-06-26,24.145736,120.684075,0.025414608
467540,大武,2024-06-26,22.355675,120.903789,0.14070883
467571,新竹,2024-06-26,24.827853,121.014219,0.80280447
467590,恆春,2024-06-26,22.003897,120.746339,0.090712905
467610,成功,2024-06-26,23.097486,121.373428,0.037728224
467620,蘭嶼,2024-06-26,22.036969,121.558339,0.99475175
467660,臺東,2024-06-26,22.752211,121.154586,0.09612139
467790,墾丁雷達站,2024-06-26,21.948235,120.808028,0.12422025
72AI40,桃改樹林分場,2024-06-26,24.944503,121.386972,0.33867538
72C440,桃園農改,2024-06-26,24.950944,121.030583,0.92873234
72C440,桃園農改場,2024-06-26,24.950944,121.030583,0.9287325
72D680,桃改新埔分場,2024-06-26,24.834444,121.066111,0.9002118
72G600,臺中農改,2024-06-26,24.003028,120.534389,0.036740385
72G600,臺中農改場,2024-06-26,24.003028,120.534389,0.036740385
72K220,南改斗南分場,2024-06-26,23.634556,120.477333,0.07415196
72M360,南改義竹分場,2024-06-26,23.360694,120.279361,0.049930662
72M700,南改鹿草分場,2024-06-26,23.416869,120.283061,0.055157166
72N100,臺南農改,2024-06-26,23.0605,120.342194,0.01963106
72N100,臺南農改場,2024-06-26,23.0605,120.342194,0.019631032
72N240,七股研究中心,2024-06-26,23.081672,120.062894,0.05985532
72Q010,高雄農改,2024-06-26,22.709333,120.525889,0.051196124
72Q010,高雄農改場,2024-06-26,22.709333,120.525889,0.051196124
72S200,東改班鳩分場,2024-06-26,22.829528,121.077694,0.1662241
72S590,東改賓朗果園,2024-06-26,22.813889,121.071278,0.21068458
72T250,花蓮農改,2024-06-26,23.975222,121.563889,0.050533924
72T250,花蓮農改場,2024-06-26,23.975222,121.563889,0.050533924
72U480,花改蘭陽分場,2024-06-26,24.686306,121.716583,0.10101873
72V140,高改旗南分場,2024-06-26,22.857861,120.516667,0.050269026
82A750,茶改北部分場,2024-06-26,24.955778,121.631222,0.109199114
82C160,茶改場,2024-06-26,24.908472,121.185333,0.69428545
82H840,茶改南部分場,2024-06-26,23.762528,120.7405,0.13954462
82S580,茶改東部分場,2024-06-26,22.907694,121.130139,0.10810624
A2C560,農工中心,2024-06-26,24.985917,121.239833,0.7198127
A2K360,水試臺西試驗場,2024-06-26,23.717231,120.190522,0.05360437
A2K570,古坑花卉中心,2024-06-26,23.63353,120.55239,0.07950995
A2K630,臺大雲林校區,2024-06-26,23.730628,120.423903,0.062687606
A2N290,臺南蘭花園區,2024-06-26,23.340258,120.379661,0.03778033
B2E890,畜試北區分所,2024-06-26,24.527806,120.770972,0.24401872
B2N890,畜產試驗所,2024-06-26,23.058972,120.336406,0.01963106
B2N890,畜試所,2024-06-26,23.058972,120.336406,0.01963106
B2Q810,畜試南區分所,2024-06-26,21.945583,120.802167,0.11213525
B2U990,畜試東區分所,2024-06-26,24.669039,121.832561,0.045428876
C0A520,山佳,2024-06-26,24.974944,121.402008,0.31612846
C0A530,坪林,2024-06-26,24.938183,121.70975,0.018262774
C0A550,泰平,2024-06-26,24.971197,121.823711,0.08109275
C0A570,桶後,2024-06-26,24.848222,121.597992,0.12896563
C0A640,石碇,2024-06-26,24.993969,121.662917,0.12892501
C0A770,科教館,2024-06-26,25.096356,121.516507,0.06340671
C0A860,大坪,2024-06-26,25.165914,121.632969,0.62146544
C0A890,雙溪,2024-06-26,25.036003,121.864242,0.030343315
C0A931,三和,2024-06-26,25.233153,121.595236,0.23924042
C0A940,金山,2024-06-26,25.223628,121.643967,0.13604255
C0A950,鼻頭角,2024-06-26,25.129036,121.923372,0.14870524
C0A970,三貂角,2024-06-26,25.007606,122.002058,0.017343234
C0A980,社子,2024-06-26,25.109508,121.469681,0.35478574
C0A9C0,天母,2024-06-26,25.117494,121.537169,0.19847614
C0A9F0,內湖,2024-06-26,25.079422,121.57545,0.1235747
C0AC60,三峽,2024-06-26,24.939025,121.369728,0.36108115
C0AC70,信義,2024-06-26,25.037822,121.564597,0.092917554
C0AC80,文山,2024-06-26,25.00235,121.575728,0.2346247
C0ACA0,新莊,2024-06-26,25.051478,121.446756,0.19435062
C0AD10,八里,2024-06-26,25.150211,121.403947,0.2606319
C0AD30,蘆洲,2024-06-26,25.086594,121.472331,0.06340671
C0AD40,土城,2024-06-26,24.973208,121.445169,0.3321243
C0AD50,鶯歌,2024-06-26,24.951533,121.346294,0.39752424
C0AG80,中和,2024-06-26,24.991622,121.491792,0.3331861
C0AH00,汐止,2024-06-26,25.066881,121.658778,0.05463462
C0AH10,永和,2024-06-26,25.01125,121.508111,0.32569104
C0AH40,平等,2024-06-26,25.129142,121.577086,0.85593706
C0AH50,林口,2024-06-26,25.072181,121.38084,0.907653
C0AH70,松山,2024-06-26,25.04871,121.55042,0.09291748
C0AH80,深坑,2024-06-26,25.002703,121.628328,0.16012216
C0AI00,五股,2024-06-26,25.07445,121.42728,0.75038683
C0AI10,屈尺,2024-06-26,24.92184,121.54475,0.16371436
C0AI20,白沙灣,2024-06-26,25.283128,121.519058,0.4312608
C0AI30,三重,2024-06-26,25.057328,121.500629,0.08109465
C0AI40,石牌,2024-06-26,25.115597,121.513139,0.1098648
C0AJ20,野柳,2024-06-26,25.20703,121.690021,0.12424634
C0AJ30,淡水觀海,2024-06-26,25.184591,121.408616,0.16927727
C0AJ40,石門,2024-06-26,25.273672,121.601198,0.7452821
C0AJ50,水湳洞,2024-06-26,25.123695,121.862238,0.037768338
C0AJ60,六塊厝,2024-06-26,25.24,121.4481,0.38027886
C0AJ70,田寮,2024-06-26,25.2698,121.4886,0.38031223
C0AJ80,板橋,2024-06-26,25.0107,121.4489,0.22306275
C0AJ90,澳底,2024-06-26,25.0552,121.9253,0.029600358
C0B010,七堵,2024-06-26,25.094819,121.71713,0.060215518
C0B020,基隆嶼,2024-06-26,25.19141,121.78391,0.11854634
C0B040,大武崙,2024-06-26,25.166676,121.706993,0.043991614
C0B050,八斗子,2024-06-26,25.144754,121.79167,0.03941758
C0B060,暖暖,2024-06-26,25.0957,121.7403,0.061546832
C0C460,復興,2024-06-26,24.820208,121.352281,0.54882777
C0C480,桃園,2024-06-26,24.992425,121.323172,0.52568334
C0C490,八德,2024-06-26,24.928708,121.283289,0.5302202
C0C590,觀音,2024-06-26,25.027072,121.153317,0.98925674
C0C620,蘆竹,2024-06-26,25.084275,121.265767,0.56538916
C0C630,大溪,2024-06-26,24.882853,121.265547,0.13103741
C0C650,平鎮,2024-06-26,24.897503,121.214636,0.6374571
C0C660,楊梅,2024-06-26,24.912375,121.143047,0.5411483
C0C670,龍潭,2024-06-26,24.870056,121.221389,0.17251094
C0C680,龜山,2024-06-26,25.02846,121.38656,0.867805
C0C700,中壢,2024-06-26,24.977661,121.256375,0.59829986
C0C710,大溪永福,2024-06-26,24.892936,121.324975,0.2021828
C0C720,竹圍,2024-06-26,25.112692,121.239824,0.24802731
C0C730,中大臨海站,2024-06-26,24.966126,121.008581,0.94582367
C0C740,觀音工業區,2024-06-26,25.064764,121.114856,0.9787106
C0C750,新興坑尾,2024-06-26,25.0061,121.0971,0.97067416
C0D430,峨眉,2024-06-26,24.6905,121.017189,0.70739967
C0D480,打鐵坑,2024-06-26,24.849664,121.150789,0.17409073
C0D540,橫山,2024-06-26,24.71116,121.11693,0.62948436
C0D560,竹東,2024-06-26,24.767147,121.057881,0.5717713
C0D580,寶山,2024-06-26,24.735006,121.025192,0.45227787
C0D590,新豐,2024-06-26,24.87068,120.97721,0.992633
C0D650,湖口,2024-06-26,24.904794,121.043628,0.9461011
C0D660,新竹市東區,2024-06-26,24.798681,120.986942,0.5544149
C0D670,海天一線,2024-06-26,24.831986,120.914438,0.98038805
C0D680,香山濕地,2024-06-26,24.783581,120.914988,0.4798994
C0D690,外湖,2024-06-26,24.917735,120.968711,0.8804287
C0D700,關西,2024-06-26,24.7977,121.1732,0.59519994
C0E420,竹南,2024-06-26,24.708978,120.888897,0.827998
C0E430,南庄,2024-06-26,24.601775,121.000214,0.75116295
C0E550,明德,2024-06-26,24.583486,120.885411,0.52831024
C0E590,通霄,2024-06-26,24.471892,120.704622,0.31849545
C0E730,頭份,2024-06-26,24.688247,120.912206,0.8149525
C0E740,造橋,2024-06-26,24.637056,120.864778,0.5516361
C0E750,苗栗,2024-06-26,24.564569,120.824575,0.45925012
C0E780,銅鑼,2024-06-26,24.489681,120.790853,0.4512645
C0E791,卓蘭,2024-06-26,24.3126,120.8244,0.8408147
C0E810,西湖,2024-06-26,24.562947,120.7485,0.5447742
C0E820,獅潭,2024-06-26,24.539133,120.920042,0.77216464
C0E830,苑裡,2024-06-26,24.439714,120.653053,0.14576387
C0E850,大河,2024-06-26,24.618069,120.948578,0.55213976
C0E870,高鐵苗栗,2024-06-26,24.60725,120.826094,0.5452096
C0E910,海埔,2024-06-26,24.648767,120.772435,0.50512075
C0E920,通霄漁港,2024-06-26,24.498589,120.673876,0.2570145
C0E930,龍鳳,2024-06-26,24.700034,120.859125,0.76399153
C0F0B0,石岡,2024-06-26,24.276061,120.777644,0.55256283
C0F850,東勢,2024-06-26,24.246428,120.833047,0.75611514
C0F970,大坑,2024-06-26,24.173142,120.722289,0.038726423
C0F9I0,神岡,2024-06-26,24.272481,120.658314,0.3453436
C0F9K0,大安,2024-06-26,24.345061,120.588025,0.078982346
C0F9L0,后里,2024-06-26,24.310436,120.729725,0.30057213
C0F9M0,豐原,2024-06-26,24.254322,120.720692,0.26963335
C0F9N0,大里,2024-06-26,24.092464,120.701378,0.022212477
C0F9O0,潭子,2024-06-26,24.213106,120.703933,0.1349254
C0F9P0,清水,2024-06-26,24.312297,120.562242,0.04863308
C0F9Q0,外埔,2024-06-26,24.347817,120.705686,0.086422466
C0F9R0,龍井,2024-06-26,24.184536,120.528972,0.04447981
C0F9S0,烏日,2024-06-26,24.107058,120.624103,0.02152072
C0F9T0,西屯,2024-06-26,24.179494,120.641275,0.039673988
C0F9U0,南屯,2024-06-26,24.137006,120.637969,0.03889804
C0F9X0,大雅(中科園區),2024-06-26,24.21528,120.62445,0.25672972
C0FA10,松柏,2024-06-26,24.429115,120.617482,0.13649592
C0FA20,溫寮,2024-06-26,24.372177,120.583125,0.07397546
C0FA30,梧棲,2024-06-26,24.256003,120.523381,0.04811094
C0FA40,臺中電廠,2024-06-26,24.2146,120.4907,0.04447981
C0FA50,霧峰,2024-06-26,24.0419,120.6995,0.031608373
C0G620,芬園,2024-06-26,24.015678,120.6213,0.031922583
C0G650,員林,2024-06-26,23.946503,120.585597,0.027849218
C0G660,溪湖,2024-06-26,23.94835,120.479122,0.033019647
C0G720,溪州,2024-06-26,23.851589,120.499093,0.046597805
C0G730,二林,2024-06-26,23.903325,120.376081,0.08392582
C0G740,大城,2024-06-26,23.852487,120.320935,0.15870056
C0G770,福興,2024-06-26,24.041289,120.437669,0.06237418
C0G780,秀水,2024-06-26,24.03405,120.503869,0.036179822
C0G800,埔鹽,2024-06-26,24.000394,120.431683,0.06407664
C0G810,埔心,2024-06-26,23.947633,120.525456,0.03339577
C0G820,田尾,2024-06-26,23.901669,120.509389,0.03377637
C0G830,埤頭,2024-06-26,23.866003,120.452806,0.044421725
C0G860,社頭,2024-06-26,23.897647,120.5862,0.040264644
C0G880,二水,2024-06-26,23.810742,120.6173,0.0866288
C0G890,伸港,2024-06-26,24.148933,120.484403,0.051837303
C0G900,線西,2024-06-26,24.143358,120.443536,0.049584184
C0G910,花壇,2024-06-26,24.032076,120.549461,0.037877265
C0G920,永靖,2024-06-26,23.924703,120.547533,0.03302379
C0G940,竹塘,2024-06-26,23.848253,120.386764,0.099376194
C0G950,防潮門,2024-06-26,24.1835,120.4871,0.044398192
C0G960,福寶,2024-06-26,24.0443,120.3814,0.051636882
C0G970,三豐,2024-06-26,23.882,120.2895,0.14750235
C0H890,埔里,2024-06-26,23.972169,120.952425,0.48819077
C0H960,草屯,2024-06-26,23.973672,120.68085,0.03236554
C0I110,竹山,2024-06-26,23.761225,120.688156,0.10261563
C0I360,水里,2024-06-26,23.812553,120.849792,0.07150215
C0I380,集集,2024-06-26,23.828206,120.801467,0.074319586
C0I410,名間,2024-06-26,23.837053,120.701447,0.056803092
C0I420,國姓,2024-06-26,24.037803,120.855072,0.17758834
C0I460,南投,2024-06-26,23.911469,120.687331,0.026106013
C0K250,崙背,2024-06-26,23.75555,120.318925,0.047905393
C0K280,四湖,2024-06-26,23.630414,120.227125,0.055601083
C0K291,宜梧,2024-06-26,23.536281,120.169329,0.056847997
C0K330,虎尾,2024-06-26,23.719183,120.442036,0.06334278
C0K390,土庫,2024-06-26,23.679029,120.395574,0.060566317
C0K400,斗六,2024-06-26,23.720583,120.541127,0.0914986
C0K410,北港,2024-06-26,23.573957,120.292802,0.051556416
C0K420,西螺,2024-06-26,23.800407,120.467394,0.050559025
C0K430,褒忠,2024-06-26,23.690938,120.303634,0.04802857
C0K440,二崙,2024-06-26,23.772797,120.408944,0.05036418
C0K450,大埤,2024-06-26,23.646074,120.431537,0.07345674
C0K460,斗南,2024-06-26,23.678734,120.478359,0.07457077
C0K470,林內,2024-06-26,23.748675,120.609642,0.10629584
C0K480,莿桐,2024-06-26,23.761192,120.502372,0.057786163
C0K500,元長,2024-06-26,23.64981,120.315024,0.038588732
C0K510,水林,2024-06-26,23.572924,120.24597,0.050264247
C0K530,臺西,2024-06-26,23.701547,120.197559,0.05481303
C0K550,蔦松,2024-06-26,23.514319,120.229736,0.058667187
C0K560,棋山,2024-06-26,23.68645,120.603417,0.08351177
C0K580,高鐵雲林,2024-06-26,23.737456,120.417944,0.062687606
C0K590,雲林東勢,2024-06-26,23.674192,120.255721,0.039028805
C0K600,箔子寮,2024-06-26,23.6197,120.14,0.07933421
C0M520,東後寮,2024-06-26,23.369908,120.248065,0.049930662
C0M640,中埔,2024-06-26,23.42538,120.5229,0.06061873
C0M650,朴子,2024-06-26,23.43463,120.23902,0.054342683
C0M660,溪口,2024-06-26,23.604131,120.403569,0.06934027
C0M670,大林,2024-06-26,23.600616,120.45841,0.072236486
C0M680,太保,2024-06-26,23.455062,120.331455,0.04149053
C0M690,水上,2024-06-26,23.419734,120.388909,0.04202808
C0M700,竹崎,2024-06-26,23.526178,120.555508,0.060709734
C0M710,東石,2024-06-26,23.458927,120.15385,0.056283347
C0M720,番路,2024-06-26,23.464657,120.554156,0.06792285
C0M730,嘉義市東區,2024-06-26,23.457673,120.460531,0.0521618
C0M740,六腳,2024-06-26,23.492871,120.290625,0.050278
C0M750,布袋,2024-06-26,23.380878,120.167789,0.04766525
C0M760,民雄,2024-06-26,23.551754,120.428457,0.07105704
C0M770,嘉義梅山,2024-06-26,23.585398,120.555587,0.0654922
C0M780,鹿草,2024-06-26,23.41134,120.30835,0.05586587
C0M790,新港,2024-06-26,23.553269,120.345728,0.048706315
C0M800,茶山,2024-06-26,23.299075,120.664767,0.101252444
C0M880,好美里,2024-06-26,23.3364,120.138,0.048289306
C0N010,鯤鯓國小,2024-06-26,23.1879,120.0889,0.05807834
C0N020,城西,2024-06-26,23.0568,120.0956,0.04125368
C0N030,四草,2024-06-26,23.0235,120.1116,0.039875355
C0N040,蘆竹溝,2024-06-26,23.2344,120.0961,0.047669515
C0N050,蚵寮,2024-06-26,23.301,120.1104,0.049594235
C0O830,北寮,2024-06-26,23.079561,120.495008,0.042416435
C0O840,王爺宮,2024-06-26,23.222064,120.40085,0.026751801
C0O860,大內,2024-06-26,23.11885,120.36083,0.019485667
C0O900,善化,2024-06-26,23.112883,120.297219,0.019033913
C0O960,崎頂,2024-06-26,22.959547,120.369317,0.039874986
C0O970,虎頭埤,2024-06-26,23.021375,120.347878,0.023478117
C0O980,新市,2024-06-26,23.061614,120.298197,0.019047838
C0O990,媽廟,2024-06-26,22.99175,120.293525,0.026153937
C0R150,三地門,2024-06-26,22.709889,120.639944,0.0893656
C0R160,鹽埔,2024-06-26,22.739558,120.530778,0.05035539
C0R170,屏東,2024-06-26,22.660269,120.494072,0.04331389
C0R190,赤山,2024-06-26,22.592333,120.614306,0.050136846
C0R220,潮州,2024-06-26,22.534361,120.54,0.056854438
C0R240,來義,2024-06-26,22.527306,120.625111,0.06736991
C0R260,春日,2024-06-26,22.370361,120.628306,0.12111328
C0R270,琉球嶼,2024-06-26,22.332244,120.362236,0.20662892
C0R280,檳榔,2024-06-26,22.076078,120.836777,0.056316435
C0R320,車城,2024-06-26,22.0744,120.716247,0.040544618
C0R341,牡丹,2024-06-26,22.130036,120.792639,0.05491499
C0R350,貓鼻頭,2024-06-26,21.921774,120.7358,0.33895466
C0R470,高樹,2024-06-26,22.826389,120.600806,0.05662984
C0R480,長治,2024-06-26,22.693128,120.542622,0.031765766
C0R490,九如,2024-06-26,22.7405,120.490503,0.0496284
C0R520,崁頂,2024-06-26,22.514781,120.506914,0.05635384
C0R540,佳冬,2024-06-26,22.419456,120.552375,0.09710438
C0R550,新埤,2024-06-26,22.467947,120.582894,0.057216886
C0R560,新園,2024-06-26,22.5434,120.461558,0.042715494
C0R570,麟洛,2024-06-26,22.65078,120.52719,0.04331379
C0R580,南州,2024-06-26,22.48591,120.50274,0.054091368
C0R590,里港,2024-06-26,22.77919,120.49459,0.04002407
C0R620,墾雷,2024-06-26,21.900836,120.855269,0.89467406
C0R640,東港,2024-06-26,22.46247,120.44074,0.05119747
C0R650,竹田,2024-06-26,22.58486,120.54344,0.050623257
C0R660,枋寮,2024-06-26,22.367722,120.590647,0.10031774
C0R670,楓港,2024-06-26,22.190131,120.692156,0.052148994
C0R680,佳樂水,2024-06-26,21.993578,120.861633,0.114640005
C0R690,墾丁,2024-06-26,21.966756,120.810269,0.37113497
C0R700,枋山,2024-06-26,22.246844,120.661086,0.077461705
C0R710,龍磐,2024-06-26,21.931672,120.838942,0.7216344
C0R720,旭海,2024-06-26,22.205403,120.887614,0.24522698
C0R730,大坪頂,2024-06-26,22.024633,120.69355,0.026501212
C0R740,獅子,2024-06-26,22.201569,120.70525,0.12936054
C0R760,南仁湖,2024-06-26,22.084681,120.863353,0.08534296
C0R770,保力,2024-06-26,22.071122,120.764111,0.02419961
C0R780,滿州,2024-06-26,22.024403,120.839892,0.09371232
C0R790,九棚,2024-06-26,22.14195,120.889281,0.046933524
C0R800,丹路,2024-06-26,22.204481,120.750989,0.17812254
C0R810,內獅,2024-06-26,22.305064,120.642986,0.061647378
C0R830,高士,2024-06-26,22.121825,120.836781,0.166508
C0R850,林邊,2024-06-26,22.4634,120.5339,0.055120047
C0R860,鼻頭,2024-06-26,22.1043,120.8979,0.04133336
C0R870,興海,2024-06-26,21.9752,120.8439,0.11213525
C0R880,後壁湖,2024-06-26,21.9457,120.7457,0.09636305
C0R890,山海,2024-06-26,21.9878,120.7091,0.098515004
C0R900,竹坑,2024-06-26,22.1385,120.7022,0.040908772
C0R910,下寮,2024-06-26,22.3929,120.5548,0.09710438
C0R920,塭仔,2024-06-26,22.4169,120.5197,0.09257758
C0R930,萬丹,2024-06-26,22.5885,120.4851,0.038220067
C0R940,加祿堂,2024-06-26,22.3363,120.6217,0.06367472
C0S710,鹿野,2024-06-26,22.917711,121.122994,0.18667415
C0S730,綠島,2024-06-26,22.6672,121.47533,0.37929755
C0S740,池上,2024-06-26,23.119628,121.209469,0.07868765
C0S770,大溪山,2024-06-26,22.478475,120.943325,0.65065384
C0S790,金崙,2024-06-26,22.538122,120.966875,0.0975966
C0S810,東河,2024-06-26,22.972672,121.303986,0.06824597
C0S830,長濱,2024-06-26,23.286817,121.411975,0.32285407
C0S840,南田,2024-06-26,22.279725,120.889208,0.31608424
C0S890,關山,2024-06-26,23.0395,121.175017,0.080477275
C0S900,蘭嶼高中,2024-06-26,22.04909,121.51214,0.9882221
C0S910,蘭嶼燈塔,2024-06-26,22.081197,121.503117,0.9945588
C0S920,金峰嘉蘭,2024-06-26,22.594789,120.960825,0.04194862
C0S930,延平,2024-06-26,22.902581,121.084058,0.12589765
C0S940,石寧山,2024-06-26,23.223772,121.406639,0.0554799
C0S950,七塊厝,2024-06-26,22.954453,121.229922,0.19838399
C0S960,香蘭,2024-06-26,22.587569,120.993375,0.04083162
C0S970,加津林,2024-06-26,22.416211,120.926942,0.13077588
C0S990,山豬窟,2024-06-26,22.318619,120.857372,0.8737291
C0SA00,歷坵,2024-06-26,22.520969,120.89185,0.6458434
C0SA10,檳榔四格山,2024-06-26,22.810031,121.109308,0.26424694
C0SA30,都歷,2024-06-26,23.020333,121.323642,0.048770092
C0SA40,瑞和,2024-06-26,22.974361,121.156697,0.082920894
C0SA60,知本（水試所）,2024-06-26,22.702394,121.082761,0.03606175
C0SA80,土坂,2024-06-26,22.453108,120.887572,0.14917761
C0SA90,達仁林場,2024-06-26,22.264347,120.823972,0.91481376
C0T870,鯉魚潭,2024-06-26,23.935639,121.508944,0.14012483
C0T900,西林,2024-06-26,23.8119,121.441458,0.5491315
C0T960,光復,2024-06-26,23.660694,121.424964,0.13591595
C0T9A0,月眉山,2024-06-26,23.809928,121.539828,0.98132765
C0T9D0,和中,2024-06-26,24.26676,121.74103,0.039737392
C0T9E0,大坑,2024-06-26,23.880628,121.581981,0.9760034
C0T9F0,水璉,2024-06-26,23.797131,121.542514,0.69906276
C0T9I0,豐濱,2024-06-26,23.583897,121.514806,0.19213796
C0T9M0,靜浦,2024-06-26,23.455167,121.495028,0.23849137
C0T9N0,富里,2024-06-26,23.171639,121.249378,0.071099736
C0U600,礁溪,2024-06-26,24.817539,121.765608,0.05928593
C0U650,玉蘭,2024-06-26,24.675286,121.587061,0.39014813
C0U750,龜山島,2024-06-26,24.841667,121.953133,0.9829731
C0U760,東澳,2024-06-26,24.52196,121.83318,0.12071438
C0U770,南澳,2024-06-26,24.44935,121.81022,0.2418707
C0U780,五結,2024-06-26,24.68637,121.79794,0.07441737
C0U860,頭城,2024-06-26,24.85323,121.8308,0.05230355
C0U870,大礁溪,2024-06-26,24.791042,121.675047,0.31417584
C0U880,北關,2024-06-26,24.9072,121.8734,0.019600106
C0U890,三星,2024-06-26,24.66812,121.65302,0.012240232
C0U900,內城,2024-06-26,24.71813,121.68766,0.106645994
C0U910,冬山,2024-06-26,24.63373,121.7937,0.045428876
C0U940,羅東,2024-06-26,24.68184,121.74934,0.09258043
C0U970,大福,2024-06-26,24.80064,121.81389,0.055059534
C0U990,員山,2024-06-26,24.74435,121.72247,0.087539904
C0UA00,土場,2024-06-26,24.576533,121.495333,0.017912429
C0UA80,大溪漁港,2024-06-26,24.941801,121.902955,0.019227523
C0UA90,石城,2024-06-26,24.980444,121.951214,0.017416948
C0UB00,淡江大學蘭陽校園,2024-06-26,24.823239,121.730383,0.06622436
C0UB10,蘇澳,2024-06-26,24.5969,121.8571,0.022083452
C0UB20,壯圍,2024-06-26,24.7359,121.8163,0.07327144
C0V310,美濃,2024-06-26,22.898742,120.519153,0.049915385
C0V350,溪埔,2024-06-26,22.738578,120.446797,0.037535317
C0V360,內門,2024-06-26,22.975481,120.466769,0.028447751
C0V370,古亭坑,2024-06-26,22.893178,120.401947,0.022274608
C0V400,阿公店,2024-06-26,22.804194,120.355528,0.0208451
C0V440,鳳山,2024-06-26,22.646653,120.356122,0.066879444
C0V450,鳳森,2024-06-26,22.545064,120.392592,0.046414237
C0V490,新興,2024-06-26,22.627422,120.298803,0.046743367
C0V530,阿蓮,2024-06-26,22.883208,120.327508,0.03861818
C0V610,梓官,2024-06-26,22.760558,120.267211,0.03860892
C0V620,永安,2024-06-26,22.82315,120.236856,0.04184179
C0V630,茄萣,2024-06-26,22.906642,120.182608,0.069183476
C0V640,湖內,2024-06-26,22.887139,120.2445,0.070714384
C0V650,彌陀,2024-06-26,22.783806,120.246361,0.04184179
C0V660,岡山,2024-06-26,22.797078,120.294958,0.04162344
C0V680,仁武,2024-06-26,22.701083,120.347722,0.063041985
C0V690,鼓山,2024-06-26,22.623325,120.275575,0.04411054
C0V700,三民,2024-06-26,22.645017,120.311233,0.064161
C0V710,苓雅,2024-06-26,22.622742,120.330669,0.04566573
C0V720,林園,2024-06-26,22.507747,120.394511,0.04023114
C0V730,大寮,2024-06-26,22.605614,120.395717,0.04784945
C0V740,旗山,2024-06-26,22.888614,120.483597,0.050311033
C0V750,路竹,2024-06-26,22.854997,120.259439,0.07161762
C0V760,橋頭,2024-06-26,22.757806,120.30575,0.03902975
C0V770,大社,2024-06-26,22.730306,120.346639,0.038984366
C0V790,萬山,2024-06-26,22.905944,120.688056,0.4639311
C0V800,六龜,2024-06-26,22.997889,120.633583,0.16863601
C0V810,左營,2024-06-26,22.67491,120.28491,0.064161
C0V820,小林,2024-06-26,23.148408,120.63325,0.13414727
C0V840,鳳鼻頭,2024-06-26,22.5083,120.3591,0.03946325
C0V850,蚵仔寮,2024-06-26,22.7256,120.2527,0.038132094
C0V860,南寮,2024-06-26,22.7616,120.2339,0.038132064
C0V870,文安,2024-06-26,22.8025,120.2164,0.042511243
C0V880,興達,2024-06-26,22.8778,120.2127,0.069183476
C0V890,前鎮,2024-06-26,22.5718,120.3117,0.04379446
C0V900,汕尾,2024-06-26,22.4782,120.4151,0.05336469
C0W200,湖西,2024-06-26,23.596314,119.67275,0.4995094
C0X050,東河,2024-06-26,23.296598,120.385608,0.036467846
C0X060,下營,2024-06-26,23.22695,120.256261,0.031382162
C0X080,佳里,2024-06-26,23.173039,120.145086,0.061548613
C0X100,臺南市北區,2024-06-26,23.010394,120.194228,0.04122592
C0X110,臺南市南區,2024-06-26,22.961189,120.188378,0.04562178
C0X120,麻豆,2024-06-26,23.183289,120.248611,0.02618569
C0X130,官田,2024-06-26,23.193217,120.315422,0.019702833
C0X140,西港,2024-06-26,23.125608,120.203108,0.03773489
C0X150,安定,2024-06-26,23.102614,120.227839,0.03743599
C0X160,仁德,2024-06-26,22.968258,120.257689,0.045556802
C0X170,關廟,2024-06-26,22.963017,120.327797,0.029145157
C0X180,山上,2024-06-26,23.0757,120.363253,0.02824928
C0X190,安平,2024-06-26,22.993161,120.152181,0.040379487
C0X200,左鎮,2024-06-26,23.056758,120.408522,0.023283646
C0X210,白河,2024-06-26,23.347466,120.414427,0.04359252
C0X220,學甲,2024-06-26,23.230367,120.182187,0.0490845
C0X230,鹽水,2024-06-26,23.272621,120.247641,0.052879803
C0X240,關子嶺,2024-06-26,23.331169,120.508025,0.06748591
C0X250,新營,2024-06-26,23.310689,120.316681,0.034606945
C0X260,後壁,2024-06-26,23.366358,120.362326,0.03778033
C0X280,將軍,2024-06-26,23.214999,120.13577,0.048922513
C0X290,北門,2024-06-26,23.267772,120.125481,0.047669515
C0X300,鹿寮,2024-06-26,23.386047,120.477331,0.044261895
C0X320,柳營,2024-06-26,23.253328,120.375253,0.022629855
C0Z020,明里,2024-06-26,23.208717,121.262342,0.07187377
C0Z061,玉里,2024-06-26,23.3215,121.339656,0.16716978
C0Z070,舞鶴,2024-06-26,23.46811,121.37407,0.6481966
C0Z080,富源,2024-06-26,23.587642,121.378225,0.042052533
C0Z100,東華,2024-06-26,23.89525,121.549833,0.27978554
C0Z150,吉安光華,2024-06-26,23.930925,121.595153,0.07287705
C0Z160,鳳林,2024-06-26,23.746114,121.453411,0.23915151
C0Z170,卓溪,2024-06-26,23.3443,121.3029,0.28523737
C0Z180,新城,2024-06-26,24.03946,121.60454,0.046054147
C0Z190,富世,2024-06-26,24.14743,121.6297,0.752838
C0Z200,萬榮,2024-06-26,23.709219,121.420106,0.27126107
C0Z210,瑞穗,2024-06-26,23.5239,121.39021,0.23697318
C0Z230,和平,2024-06-26,24.30717,121.77007,0.037656836
C0Z270,蕃薯寮,2024-06-26,23.73835,121.540108,0.8655842
C0Z280,德武,2024-06-26,23.47426,121.41071,0.47964615
C0Z300,東里,2024-06-26,23.26853,121.30547,0.062698506
C0Z310,清水斷崖,2024-06-26,24.218294,121.689142,0.9387579
C0Z330,安通山,2024-06-26,23.290728,121.348528,0.94393295
C2E520,大湖,2024-06-26,24.414939,120.870872,0.8919376
C2E540,後龍,2024-06-26,24.606489,120.783933,0.52230924
C2E540,龍溪,2024-06-26,24.606489,120.783933,0.52230924
C2F000,大肚,2024-06-26,24.15295,120.572117,0.19634134
C2F930,大甲,2024-06-26,24.347667,120.640403,0.11054465
C2F9A0,中竹林,2024-06-26,24.103556,120.751061,0.6588299
C2G640,鹿港,2024-06-26,24.0753,120.430481,0.054388687
C2G840,北斗,2024-06-26,23.877586,120.514222,0.046415873
C2G870,芳苑,2024-06-26,23.922303,120.320025,0.170479
C2H950,中寮,2024-06-26,23.884447,120.766406,0.064928085
C2M410,馬頭山,2024-06-26,23.324361,120.582017,0.042378433
C2N160,西拉雅風管處,2024-06-26,23.189481,120.335297,0.019769158
C2O810,曾文,2024-06-26,23.219681,120.497328,0.03912992
C2O930,玉井,2024-06-26,23.126042,120.46055,0.028154878
C2O950,安南,2024-06-26,23.076694,120.144861,0.064074054
C2V250,甲仙,2024-06-26,23.080106,120.591758,0.054379944
C2V260,月眉,2024-06-26,22.971003,120.539853,0.07118799
C2W230,畜試所澎湖,2024-06-26,23.628342,119.513206,0.37716562
CAG100,王功漁港,2024-06-26,23.96824,120.32586,0.15999125
CAH030,茶改場竹圍站,2024-06-26,23.860083,120.637528,0.077215865
CAJ050,海口故事園區,2024-06-26,23.57543,120.14121,0.07933421
CAL110,布袋國中,2024-06-26,23.35893,120.18026,0.04817044
CAN130,水試所海水繁養殖中心,2024-06-26,23.120802,120.07968,0.05985532
CAN140,六官養殖協會,2024-06-26,23.22881,120.29962,0.031397864
CAQ030,崎峰國小,2024-06-26,22.42565,120.49521,0.052639678
E2K600,四湖植物園,2024-06-26,23.676986,120.163433,0.053316485
E2P980,林試六龜中心,2024-06-26,22.991703,120.645722,0.18111971
E2S960,林試太麻里2,2024-06-26,22.598014,120.989761,0.040831618
E2S960,林試太麻里2,2024-06-26,22.598,120.99775,0.04059195
E2S980,林試太麻里1,2024-06-26,22.598922,120.980044,0.042895183
G2AI50,關渡,2024-06-26,25.11575,121.492,0.36303896
G2F820,農業試驗所,2024-06-26,24.031261,120.688133,0.031208124
G2F820,農試所(霧峰),2024-06-26,24.031261,120.688133,0.031208117
G2L020,農試嘉義分所,2024-06-26,23.485028,120.473806,0.06029564
G2M350,農試溪口農場,2024-06-26,23.58565,120.408111,0.06926139
G2P820,農試鳳山分所,2024-06-26,22.646611,120.356083,0.066879444
K2E360,苗栗農改,2024-06-26,24.495722,120.829111,0.2966612
K2E360,苗栗農改場,2024-06-26,24.495722,120.829111,0.2966612
K2E710,苗改生物防治研究中心,2024-06-26,24.422861,120.871833,0.8099656
K2F750,種苗改良場,2024-06-26,24.225972,120.800917,0.8109881
K2F750,種苗繁殖,2024-06-26,24.225972,120.800917,0.81098783
U2HA50,臺大竹山,2024-06-26,23.756972,120.681556,0.12071375
V2C250,八德合作社,2024-06-26,24.93775,121.266389,0.48726895
V2C260,八德蔬果,2024-06-26,24.978508,121.281819,0.54610914
V2K610,大庄合作社,2024-06-26,23.8068,120.367939,0.07886284
V2K620,麥寮合作社,2024-06-26,23.753836,120.294783,0.04790538
