站號,站名,日期,lat,lon,BLBTSLS
C0R710,龍磐,2024-03-12,21.931672,120.838942,0.99099016
C1F9D1,白毛台,2024-03-12,24.158325,120.886933,1.3596189e-09
C0G940,竹塘,2024-03-12,23.848253,120.386764,8.2295043e-10
467590,恆春,2024-03-12,22.003897,120.746339,9.575602e-07
C1O850,環湖,2024-03-12,23.148617,120.418633,2.9300531e-10
C0U710,太平山,2024-03-12,24.505486,121.525656,1.367719e-08
C0E820,獅潭,2024-03-12,24.539133,120.920042,4.1987747e-09
C0V880,興達,2024-03-12,22.8778,120.2127,1.0009286e-09
C0S890,關山,2024-03-12,23.0395,121.175017,5.4566196e-10
K2F750,種苗繁殖,2024-03-12,24.225972,120.800917,2.5168765e-09
C1Z130,銅門,2024-03-12,23.965694,121.492842,2.3372866e-09
C0AD40,土城,2024-03-12,24.973208,121.445169,2.658823e-09
CAN140,六官養殖協會,2024-03-12,23.22881,120.29962,6.28957e-10
C0X180,山上,2024-03-12,23.0757,120.363253,2.8780814e-10
C0F9Z0,雪山東峰,2024-03-12,24.388792,121.268675,2.6117432e-08
C1M480,獨立山,2024-03-12,23.537022,120.607797,1.1831831e-09
C0X220,學甲,2024-03-12,23.230367,120.182187,5.864033e-10
C0R170,屏東,2024-03-12,22.660269,120.494072,3.7214887e-10
467650,日月潭,2024-03-12,23.881325,120.90805,3.6421741e-09
C0K600,箔子寮,2024-03-12,23.6197,120.14,3.293716e-08
C0G830,埤頭,2024-03-12,23.866003,120.452806,3.477706e-10
C0S950,七塊厝,2024-03-12,22.954453,121.229922,5.097356e-10
467110,金門,2024-03-12,24.407306,118.289281,4.1128715e-08
C0AH80,深坑,2024-03-12,25.002703,121.628328,2.7670808e-09
467990,馬祖,2024-03-12,26.169269,119.923419,4.4641897e-08
C0A970,三貂角,2024-03-12,25.007606,122.002058,5.7231175e-09
C0K430,褒忠,2024-03-12,23.690938,120.303634,5.857561e-10
467480,嘉義,2024-03-12,23.495925,120.432906,5.6831284e-10
C2E540,後龍,2024-03-12,24.606489,120.783933,4.5418376e-09
C0V400,阿公店,2024-03-12,22.804194,120.355528,2.3362778e-10
C0R440,大漢山,2024-03-12,22.405264,120.753181,7.4861966e-09
C0K280,四湖,2024-03-12,23.630414,120.227125,1.916764e-08
C1F9B1,桐林,2024-03-12,24.066172,120.735194,4.4338994e-10
C0K390,土庫,2024-03-12,23.679029,120.395574,4.0641365e-10
C1I450,望鄉山,2024-03-12,23.594153,120.944286,1.3648498e-08
C0E910,海埔,2024-03-12,24.648767,120.772435,4.5820716e-09
B2E890,畜試北區分所,2024-03-12,24.527806,120.770972,3.93241e-09
C0R750,四林格山,2024-03-12,22.076989,120.802439,5.9096337e-09
C0F0C0,中坑,2024-03-12,24.248517,120.903319,2.001568e-09
C1I121,大鞍,2024-03-12,23.678381,120.760017,5.0755684e-09
72U480,花改蘭陽分場,2024-03-12,24.686306,121.716583,2.0876387e-09
C0A770,科教館,2024-03-12,25.096356,121.516507,2.042798e-09
C0AJ60,六塊厝,2024-03-12,25.24,121.4481,2.2850221e-08
C0R620,墾雷,2024-03-12,21.900836,120.855269,0.64868456
467420,永康,2024-03-12,23.038386,120.2367,2.9847275e-10
467300,東吉島,2024-03-12,23.25695,119.667467,0.9415425
C0I410,名間,2024-03-12,23.837053,120.701447,5.5055877e-10
A2C560,農工中心,2024-03-12,24.985917,121.239833,1.0702597e-08
C0V740,旗山,2024-03-12,22.888614,120.483597,2.6341182e-10
C0Z061,玉里,2024-03-12,23.3215,121.339656,2.2630264e-09
C0S840,南田,2024-03-12,22.279725,120.889208,7.8859614e-08
C1I470,杉林溪,2024-03-12,23.639517,120.786444,6.344914e-09
C1X040,東原,2024-03-12,23.291597,120.463822,3.8597256e-10
C0R660,枋寮,2024-03-12,22.367722,120.590647,8.1637175e-10
C1R120,上德文,2024-03-12,22.763272,120.704442,8.4042145e-10
C0K450,大埤,2024-03-12,23.646074,120.431537,2.9840216e-10
C0UA00,土場,2024-03-12,24.576533,121.495333,7.199061e-09
467080,宜蘭,2024-03-12,24.763975,121.756528,2.059189e-09
C0N030,四草,2024-03-12,23.0235,120.1116,5.401871e-10
C0V650,彌陀,2024-03-12,22.783806,120.246361,8.1256263e-10
C0D660,新竹市東區,2024-03-12,24.798681,120.986942,5.519743e-09
82S580,茶改東部分場,2024-03-12,22.907694,121.130139,4.941799e-10
C0C710,大溪永福,2024-03-12,24.892936,121.324975,6.9489876e-09
C0FA20,溫寮,2024-03-12,24.372177,120.583125,9.319032e-09
C0V640,湖內,2024-03-12,22.887139,120.2445,9.761228e-10
C0R910,下寮,2024-03-12,22.3929,120.5548,8.1637175e-10
C0Z020,明里,2024-03-12,23.208717,121.262342,2.818284e-09
C0M770,嘉義梅山,2024-03-12,23.585398,120.555587,3.7318665e-10
G2F820,農業試驗所,2024-03-12,24.031261,120.688133,3.936693e-10
C0C660,楊梅,2024-03-12,24.912375,121.143047,9.167627e-09
C1E511,新開,2024-03-12,24.347703,120.827019,2.2822246e-09
G2F820,農試所(霧峰),2024-03-12,24.031261,120.688133,3.936693e-10
C1I070,和社,2024-03-12,23.591131,120.888861,1.3188112e-09
C2F000,大肚,2024-03-12,24.15295,120.572117,7.569844e-10
C1S850,豐南,2024-03-12,23.122139,121.262389,1.5212263e-09
C2A920,富貴角,2024-03-12,25.263783,121.565258,2.0169212e-08
CAH030,茶改場竹圍站,2024-03-12,23.860083,120.637528,5.9172106e-10
C0T960,光復,2024-03-12,23.660694,121.424964,1.1961441e-09
C0F9M0,豐原,2024-03-12,24.254322,120.720692,1.7471044e-09
C0R720,旭海,2024-03-12,22.205403,120.887614,7.835476e-09
C0V710,苓雅,2024-03-12,22.622742,120.330669,4.0880122e-10
C0C740,觀音工業區,2024-03-12,25.064764,121.114856,3.1864598e-08
CAC040,拉拉山,2024-03-12,24.699317,121.427133,2.4095684e-08
C0V790,萬山,2024-03-12,22.905944,120.688056,5.383737e-10
U2HA30,臺大和社,2024-03-12,23.590856,120.888864,1.3188112e-09
C0AJ90,澳底,2024-03-12,25.0552,121.9253,4.936262e-09
C0Z100,東華,2024-03-12,23.89525,121.549833,2.584063e-09
C0G970,三豐,2024-03-12,23.882,120.2895,0.00011844616
V2K610,大庄合作社,2024-03-12,23.8068,120.367939,7.131884e-10
C0V900,汕尾,2024-03-12,22.4782,120.4151,1.1889064e-09
C1R630,龍泉,2024-03-12,22.66701,120.59091,6.350747e-10
C1AC50,關渡,2024-03-12,25.133486,121.469331,5.440307e-09
C0F9I0,神岡,2024-03-12,24.272481,120.658314,2.0654867e-09
C0K460,斗南,2024-03-12,23.678734,120.478359,2.993987e-10
467410,臺南,2024-03-12,22.993239,120.204772,5.036298e-10
C2O810,曾文,2024-03-12,23.219681,120.497328,3.3814038e-10
467280,後龍,2024-03-12,24.648563,120.831834,4.4960524e-09
C1F9J1,清水林,2024-03-12,24.071242,120.820419,1.3141158e-09
C2A650,火燒寮,2024-03-12,25.002719,121.742892,6.3378627e-09
466930,竹子湖,2024-03-12,25.162078,121.544547,7.37694e-09
C1I220,樟湖,2024-03-12,23.905333,120.846983,3.6998336e-09
C0I390,仁愛,2024-03-12,24.022122,121.132206,4.055219e-09
C0Z300,東里,2024-03-12,23.26853,121.30547,2.7054057e-09
C0V310,美濃,2024-03-12,22.898742,120.519153,2.6077884e-10
C1V590,新發,2024-03-12,23.057019,120.646064,1.0593834e-09
C0K510,水林,2024-03-12,23.572924,120.24597,1.1256598e-09
72S590,東改賓朗果園,2024-03-12,22.813889,121.071278,6.31633e-10
82A750,茶改北部分場,2024-03-12,24.955778,121.631222,1.1675293e-08
C1A750,石碇服務區,2024-03-12,25.00872,121.646242,3.9132777e-09
C0X300,鹿寮,2024-03-12,23.386047,120.477331,3.9925518e-10
G2AI50,關渡,2024-03-12,25.11575,121.492,7.022148e-09
C0K590,雲林東勢,2024-03-12,23.674192,120.255721,6.7842315e-10
C0A570,桶後,2024-03-12,24.848222,121.597992,7.740351e-09
C1S800,華源,2024-03-12,22.657883,121.02325,1.683177e-08
C0G720,溪州,2024-03-12,23.851589,120.499093,3.4859277e-10
C1V160,達卡努瓦,2024-03-12,23.279811,120.705319,1.6628527e-09
C2M410,馬頭山,2024-03-12,23.324361,120.582017,4.0920764e-10
C0V850,蚵仔寮,2024-03-12,22.7256,120.2527,3.7113662e-10
C0S740,池上,2024-03-12,23.119628,121.209469,1.4158524e-09
C1V390,尖山,2024-03-12,22.813153,120.367789,2.2460868e-10
C0AH70,松山,2024-03-12,25.04871,121.55042,2.057489e-09
C0N010,鯤鯓國小,2024-03-12,23.1879,120.0889,7.1109935e-10
C0R550,新埤,2024-03-12,22.467947,120.582894,9.568724e-10
C0SA60,知本（水試所）,2024-03-12,22.702394,121.082761,2.5612275e-08
C0T9I0,豐濱,2024-03-12,23.583897,121.514806,9.161434e-10
C0UB00,淡江大學蘭陽校園,2024-03-12,24.823239,121.730383,8.121789e-09
C0T9N0,富里,2024-03-12,23.171639,121.249378,1.7849097e-09
U2HA50,臺大竹山,2024-03-12,23.756972,120.681556,3.7723077e-10
C0V840,鳳鼻頭,2024-03-12,22.5083,120.3591,3.099189e-10
C0X140,西港,2024-03-12,23.125608,120.203108,4.4197312e-10
72D080,桃改五峰分場,2024-03-12,24.612194,121.157167,5.373952e-09
C0V530,阿蓮,2024-03-12,22.883208,120.327508,4.5136989e-10
C1O880,關山,2024-03-12,23.173397,120.594092,2.93791e-10
C0E791,卓蘭,2024-03-12,24.3126,120.8244,1.9541093e-09
C1I030,武界,2024-03-12,23.913225,121.052483,2.875542e-09
C0R520,崁頂,2024-03-12,22.514781,120.506914,8.982865e-10
C0R341,牡丹,2024-03-12,22.130036,120.792639,1.7005087e-08
C0R930,萬丹,2024-03-12,22.5885,120.4851,3.6352668e-10
C0S760,紅石,2024-03-12,23.069131,121.126219,1.4301485e-08
C1M610,石磐龍,2024-03-12,23.496606,120.663506,1.8704838e-09
C0UA10,鴛鴦湖,2024-03-12,24.590269,121.412228,1.0276189e-08
V2C260,八德蔬果,2024-03-12,24.978508,121.281819,5.3689932e-09
C0R800,丹路,2024-03-12,22.204481,120.750989,1.1586689e-08
C0G920,永靖,2024-03-12,23.924703,120.547533,3.244034e-10
C1A630,下盆,2024-03-12,24.771003,121.538622,6.82124e-09
B2N890,畜產試驗所,2024-03-12,23.058972,120.336406,3.6833342e-10
C0UA30,白嶺,2024-03-12,24.527819,121.519031,1.1115809e-08
C1V580,溪南(特生中心),2024-03-12,23.084972,120.788475,2.2528068e-09
C1T970,大農,2024-03-12,23.615233,121.413331,9.748576e-10
E2S960,林試太麻里2,2024-03-12,22.598014,120.989761,4.842811e-08
C0R650,竹田,2024-03-12,22.58486,120.54344,6.5133154e-10
C1H900,清流,2024-03-12,24.080775,120.962997,2.8954157e-09
C1C510,水尾,2024-03-12,24.940081,121.087161,1.415891e-08
C0F9X0,大雅(中科園區),2024-03-12,24.21528,120.62445,1.0326109e-09
C0O970,虎頭埤,2024-03-12,23.021375,120.347878,2.825479e-10
C0C730,中大臨海站,2024-03-12,24.966126,121.008581,2.502121e-08
C0X250,新營,2024-03-12,23.310689,120.316681,5.624315e-10
C0V700,三民,2024-03-12,22.645017,120.311233,6.8685496e-10
C0U870,大礁溪,2024-03-12,24.791042,121.675047,6.368545e-09
C0E870,高鐵苗栗,2024-03-12,24.60725,120.826094,4.522431e-09
A2K570,古坑花卉中心,2024-03-12,23.63353,120.55239,3.481522e-10
C0M860,新美,2024-03-12,23.338017,120.683169,6.5329614e-10
C1E701,八卦,2024-03-12,24.491756,120.927619,6.4942274e-09
C0I420,國姓,2024-03-12,24.037803,120.855072,6.885641e-10
C0S960,香蘭,2024-03-12,22.587569,120.993375,4.842811e-08
C0R260,春日,2024-03-12,22.370361,120.628306,6.549455e-10
72G600,臺中農改場,2024-03-12,24.003028,120.534389,3.328142e-10
C0Z210,瑞穗,2024-03-12,23.5239,121.39021,8.822505e-10
C0M820,達邦,2024-03-12,23.453994,120.749517,1.4751066e-09
C0V860,南寮,2024-03-12,22.7616,120.2339,3.7113662e-10
C0G740,大城,2024-03-12,23.852487,120.320935,9.148161e-05
C0R920,塭仔,2024-03-12,22.4169,120.5197,8.587939e-10
C0R470,高樹,2024-03-12,22.826389,120.600806,4.5141293e-10
C0R680,佳樂水,2024-03-12,21.993578,120.861633,0.016805215
C1O870,大棟山,2024-03-12,23.31157,120.52226,1.5607504e-09
C0D360,梅花,2024-03-12,24.678347,121.208558,3.471445e-09
C0Z190,富世,2024-03-12,24.14743,121.6297,4.5349644e-09
C0AI10,屈尺,2024-03-12,24.92184,121.54475,5.5695324e-09
B2U990,畜試東區分所,2024-03-12,24.669039,121.832561,2.4014555e-09
C0R240,來義,2024-03-12,22.527306,120.625111,5.618225e-10
C1R610,西大武山,2024-03-12,22.617719,120.7322,1.7871045e-08
C0G900,線西,2024-03-12,24.143358,120.443536,1.753367e-09
C0M700,竹崎,2024-03-12,23.526178,120.555508,3.7631165e-10
C2E880,三義,2024-03-12,24.405478,120.749819,3.980206e-09
C0C720,竹圍,2024-03-12,25.112692,121.239824,7.014692e-09
C0F9P0,清水,2024-03-12,24.312297,120.562242,5.488228e-09
C0Z150,吉安光華,2024-03-12,23.930925,121.595153,2.0937e-09
C1D640,外坪(五指山),2024-03-12,24.644447,121.090961,3.786605e-09
C0F9O0,潭子,2024-03-12,24.213106,120.703933,1.1562378e-09
72T250,花蓮農改場,2024-03-12,23.975222,121.563889,2.2609556e-09
C0E780,銅鑼,2024-03-12,24.489681,120.790853,4.034727e-09
C1T950,太安,2024-03-12,23.666719,121.370128,1.7478518e-08
C0E830,苑裡,2024-03-12,24.439714,120.653053,2.2449111e-08
467270,田中,2024-03-12,23.873803,120.581286,2.6159586e-10
C0SA10,檳榔四格山,2024-03-12,22.810031,121.109308,6.610789e-10
C1T830,布洛灣,2024-03-12,24.17184,121.57127,1.4147086e-08
C0F970,大坑,2024-03-12,24.173142,120.722289,6.223127e-10
C1U920,思源,2024-03-12,24.393125,121.347214,7.3808524e-09
C0A931,三和,2024-03-12,25.233153,121.595236,9.680229e-09
C0I010,廬山,2024-03-12,24.033311,121.181808,6.280438e-09
C0R860,鼻頭,2024-03-12,22.1043,120.8979,9.240026e-08
C0UB20,壯圍,2024-03-12,24.7359,121.8163,2.02762e-09
C0R790,九棚,2024-03-12,22.14195,120.889281,2.4266194e-08
C0W110,東莒,2024-03-12,25.9652,119.98069,6.625539e-08
C1U930,粉鳥林,2024-03-12,24.497088,121.842479,1.3277079e-09
C1I211,蘆竹湳,2024-03-12,23.934019,120.811994,8.3705237e-10
C0S830,長濱,2024-03-12,23.286817,121.411975,2.5124112e-09
C1F9F1,伯公龍,2024-03-12,24.272392,120.849047,2.5075808e-09
C0E810,西湖,2024-03-12,24.562947,120.7485,1.357595e-07
C1I440,新高口,2024-03-12,23.478744,120.878939,1.0106341e-08
C0O840,王爺宮,2024-03-12,23.222064,120.40085,3.2818354e-10
C0T9G0,鳳林山,2024-03-12,23.735269,121.420131,5.595993e-09
C0X080,佳里,2024-03-12,23.173039,120.145086,7.1109935e-10
C0Z310,清水斷崖,2024-03-12,24.218294,121.689142,2.4843536e-09
C0M680,太保,2024-03-12,23.455062,120.331455,6.4572686e-10
C1S820,金峰,2024-03-12,22.590969,120.933236,2.3409193e-08
C0AD10,八里,2024-03-12,25.150211,121.403947,7.014692e-09
C2K240,草嶺,2024-03-12,23.59555,120.693461,2.009333e-09
C1SA70,都蘭,2024-03-12,22.87794,121.226881,5.7382976e-10
C0K440,二崙,2024-03-12,23.772797,120.408944,3.4179104e-10
C1A760,坪林交控,2024-03-12,24.94284,121.713442,6.492444e-09
C0F9N0,大里,2024-03-12,24.092464,120.701378,4.114295e-10
C0SA90,達仁林場,2024-03-12,22.264347,120.823972,7.051434e-09
C1R290,石門山,2024-03-12,22.112611,120.756597,1.053677e-08
42HA10,萬大發電廠,2024-03-12,23.978875,121.139639,4.395597e-09
C0R890,山海,2024-03-12,21.9878,120.7091,0.07527857
C0T9A0,月眉山,2024-03-12,23.809928,121.539828,4.2253023e-09
C0AC70,信義,2024-03-12,25.037822,121.564597,2.057489e-09
C0K560,棋山,2024-03-12,23.68645,120.603417,3.5220102e-10
C1Z240,中平林道,2024-03-12,23.42115,121.26763,1.6428508e-08
U2H480,溪頭,2024-03-12,23.670306,120.798194,2.1169098e-09
C0M880,好美里,2024-03-12,23.3364,120.138,1.225164e-09
C0T9E0,大坑,2024-03-12,23.880628,121.581981,3.6207437e-09
C0K530,臺西,2024-03-12,23.701547,120.197559,2.7481262e-08
C1E900,國一N128K,2024-03-12,24.560997,120.844186,5.0038795e-09
C0AJ50,水湳洞,2024-03-12,25.123695,121.862238,8.300083e-09
C0AI20,白沙灣,2024-03-12,25.283128,121.519058,2.2657355e-08
C0A860,大坪,2024-03-12,25.165914,121.632969,5.8262977e-09
C1U850,觀音海岸,2024-03-12,24.38319,121.77856,2.4576872e-09
C0U950,鶯子嶺,2024-03-12,24.89754,121.79244,1.7014854e-08
C0O900,善化,2024-03-12,23.112883,120.297219,3.8261844e-10
C0K550,蔦松,2024-03-12,23.514319,120.229736,1.3745205e-09
E2P980,林試六龜中心,2024-03-12,22.991703,120.645722,3.5294007e-10
C0E590,通霄,2024-03-12,24.471892,120.704622,4.6105438e-07
C1I310,西巒,2024-03-12,23.754486,120.883956,3.0801028e-09
C0A550,泰平,2024-03-12,24.971197,121.823711,1.2201134e-08
C0I360,水里,2024-03-12,23.812553,120.849792,5.8494665e-10
C0R830,高士,2024-03-12,22.121825,120.836781,8.4848e-09
C1I101,溪頭,2024-03-12,23.661789,120.807647,7.941717e-09
C0AJ20,野柳,2024-03-12,25.20703,121.690021,9.2467225e-09
C0B060,暖暖,2024-03-12,25.0957,121.7403,4.186803e-09
C1H920,長豐,2024-03-12,24.102039,120.879897,2.3932705e-09
C0V360,內門,2024-03-12,22.975481,120.466769,2.6242342e-10
C0R850,林邊,2024-03-12,22.4634,120.5339,1.1440713e-09
C0E930,龍鳳,2024-03-12,24.700034,120.859125,8.061013e-09
C0U910,冬山,2024-03-12,24.63373,121.7937,2.4014555e-09
C1E721,泰安,2024-03-12,24.489017,120.968036,6.510971e-09
82H320,茶改中部分場,2024-03-12,23.875611,120.913583,3.138008e-09
C0M750,布袋,2024-03-12,23.380878,120.167789,1.0496446e-09
C1S860,利嘉,2024-03-12,22.809417,121.050528,5.816615e-09
72C440,桃園農改,2024-03-12,24.950944,121.030583,1.5217088e-08
E2S980,林試太麻里1,2024-03-12,22.598922,120.980044,3.429989e-08
C0X170,關廟,2024-03-12,22.963017,120.327797,3.3598413e-10
C0V720,林園,2024-03-12,22.507747,120.394511,3.0636432e-10
C1I510,線浸林道,2024-03-12,23.761508,120.832956,4.782537e-09
C0D690,外湖,2024-03-12,24.917735,120.968711,1.6454411e-08
C0C750,新興坑尾,2024-03-12,25.0061,121.0971,2.1141748e-08
B2Q810,畜試南區分所,2024-03-12,21.945583,120.802167,0.025789594
C0S790,金崙,2024-03-12,22.538122,120.966875,1.703869e-08
C0AH90,福山植物園,2024-03-12,24.760717,121.58135,1.5547318e-08
C0I540,奇萊稜線,2024-03-12,24.109231,121.326456,2.478084e-08
C0M850,表湖,2024-03-12,23.24186,120.64166,7.0639095e-10
C0S770,大溪山,2024-03-12,22.478475,120.943325,8.824075e-09
C0AG80,中和,2024-03-12,24.991622,121.491792,2.658823e-09
C0T790,大禹嶺,2024-03-12,24.186117,121.316086,2.2703599e-08
C0T9B0,水源,2024-03-12,23.991861,121.537169,3.2733474e-09
C0R840,牡丹池山,2024-03-12,22.168389,120.841225,1.5738358e-08
C1I131,桶頭,2024-03-12,23.641944,120.654117,4.2502032e-10
CAL110,布袋國中,2024-03-12,23.35893,120.18026,1.0522806e-09
467571,新竹,2024-03-12,24.827853,121.014219,9.027665e-09
C0Z290,赤柯山,2024-03-12,23.36893,121.38293,1.1721413e-08
C0X280,將軍,2024-03-12,23.214999,120.13577,6.081868e-10
C0S690,太麻里,2024-03-12,22.60902,120.98533,1.2351788e-08
C0U880,北關,2024-03-12,24.9072,121.8734,5.753084e-09
C1H860,瑞岩,2024-03-12,24.123772,121.18345,1.6370796e-08
C0G810,埔心,2024-03-12,23.947633,120.525456,3.2404843e-10
C0U970,大福,2024-03-12,24.80064,121.81389,2.041645e-09
C1E670,南礦,2024-03-12,24.538278,121.002836,6.9858785e-09
C0M520,東後寮,2024-03-12,23.369908,120.248065,9.918824e-10
C1E461,松安,2024-03-12,24.397972,120.986022,4.177964e-09
72G600,臺中農改,2024-03-12,24.003028,120.534389,3.328142e-10
C2N160,西拉雅風管處,2024-03-12,23.189481,120.335297,5.057794e-10
C0A640,石碇,2024-03-12,24.993969,121.662917,4.418132e-09
E2S960,林試太麻里2,2024-03-12,22.598,120.99775,5.2103047e-08
C0F9Y0,桃山,2024-03-12,24.432739,121.303808,1.8837174e-08
C1I020,萬大,2024-03-12,23.979817,121.132261,4.0762496e-09
C0U940,羅東,2024-03-12,24.68184,121.74934,2.071693e-09
C0M650,朴子,2024-03-12,23.43463,120.23902,1.1995551e-09
C1I500,大尖山,2024-03-12,23.858572,120.994889,8.427254e-09
C0G820,田尾,2024-03-12,23.901669,120.509389,3.2404843e-10
E2K600,四湖植物園,2024-03-12,23.676986,120.163433,1.916764e-08
C0S730,綠島,2024-03-12,22.6672,121.47533,0.35867426
12Q970,東港工作站,2024-03-12,22.479997,120.466058,1.1889064e-09
C0E430,南庄,2024-03-12,24.601775,121.000214,4.2070236e-09
C1TA00,太魯閣,2024-03-12,24.15773,121.6236,4.6191193e-09
466920,臺北,2024-03-12,25.037658,121.514853,2.057489e-09
C0R600,舊泰武,2024-03-12,22.588194,120.664944,7.5105194e-10
C1I260,北坑,2024-03-12,23.9246,121.006903,8.8541136e-10
466910,鞍部,2024-03-12,25.182586,121.529731,1.5098092e-08
C1I230,九份二山,2024-03-12,23.961944,120.845,2.5357847e-09
C2A660,瑞芳,2024-03-12,25.113169,121.801147,8.397746e-09
C0R270,琉球嶼,2024-03-12,22.332244,120.362236,6.45028e-09
C1T990,高寮,2024-03-12,23.394239,121.356808,1.6231652e-09
C0G620,芬園,2024-03-12,24.015678,120.6213,4.1234946e-10
C1Z140,荖溪,2024-03-12,23.890575,121.45964,1.7027741e-08
C1I201,中心崙,2024-03-12,23.728722,120.712097,7.8442647e-10
C1I400,凌霄,2024-03-12,24.018778,121.004456,5.47163e-09
C1M640,十字,2024-03-12,23.492153,120.753683,4.069716e-09
G2P820,農試鳳山分所,2024-03-12,22.646611,120.356083,6.3222366e-10
C0Z270,蕃薯寮,2024-03-12,23.73835,121.540108,4.3224344e-09
C0F9Q0,外埔,2024-03-12,24.347817,120.705686,2.4476199e-09
C0K580,高鐵雲林,2024-03-12,23.737456,120.417944,3.0871358e-10
C2I090,鳳凰,2024-03-12,23.728081,120.787347,1.3918162e-09
C0U990,員山,2024-03-12,24.74435,121.72247,2.0423538e-09
C0V770,大社,2024-03-12,22.730306,120.346639,3.5196734e-10
C0X120,麻豆,2024-03-12,23.183289,120.248611,4.794893e-10
C0C670,龍潭,2024-03-12,24.870056,121.221389,7.066379e-09
C0D680,香山濕地,2024-03-12,24.783581,120.914988,5.6009157e-09
C0S980,勝林山,2024-03-12,22.430439,120.8938,9.476082e-09
C0V730,大寮,2024-03-12,22.605614,120.395717,3.9817072e-10
C0R570,麟洛,2024-03-12,22.65078,120.52719,3.7214887e-10
CAG100,王功漁港,2024-03-12,23.96824,120.32586,0.00056188187
C0X290,北門,2024-03-12,23.267772,120.125481,6.081938e-10
C2F930,大甲,2024-03-12,24.347667,120.640403,7.71244e-09
C0D650,湖口,2024-03-12,24.904794,121.043628,1.4453709e-08
C0E420,竹南,2024-03-12,24.708978,120.888897,7.478589e-09
C0U780,五結,2024-03-12,24.68637,121.79794,2.02762e-09
C1I250,鯉潭,2024-03-12,23.961922,120.991131,2.2448459e-09
C0R130,阿禮,2024-03-12,22.742908,120.743678,1.0918679e-09
C0X100,臺南市北區,2024-03-12,23.010394,120.194228,5.248181e-10
C0S920,金峰嘉蘭,2024-03-12,22.594789,120.960825,3.3684174e-08
C0V490,新興,2024-03-12,22.627422,120.298803,4.0859308e-10
C0F9K0,大安,2024-03-12,24.345061,120.588025,8.913372e-09
72N100,臺南農改,2024-03-12,23.0605,120.342194,3.6833342e-10
467290,古坑,2024-03-12,23.633639,120.551889,3.4815287e-10
C0V440,鳳山,2024-03-12,22.646653,120.356122,6.3222366e-10
C1T940,大觀,2024-03-12,23.714206,121.373133,5.0985545e-09
72T250,花蓮農改,2024-03-12,23.975222,121.563889,2.2609556e-09
C0E740,造橋,2024-03-12,24.637056,120.864778,4.522431e-09
C0R100,尾寮山,2024-03-12,22.833111,120.683889,9.2065927e-10
A2K630,臺大雲林校區,2024-03-12,23.730628,120.423903,3.0871358e-10
C0D580,寶山,2024-03-12,24.735006,121.025192,3.5831162e-09
E2P990,林試扇平站,2024-03-12,22.9677,120.6857,5.2737686e-10
C0AI30,三重,2024-03-12,25.057328,121.500629,2.042798e-09
C0AH00,汐止,2024-03-12,25.066881,121.658778,2.057489e-09
C1Z040,立山,2024-03-12,23.443356,121.327375,7.974138e-09
C0R740,獅子,2024-03-12,22.201569,120.70525,1.978182e-08
C0W130,花嶼,2024-03-12,23.40007,119.32276,0.940527
C0A950,鼻頭角,2024-03-12,25.129036,121.923372,3.212242e-08
C0K470,林內,2024-03-12,23.748675,120.609642,3.4936287e-10
82C160,茶改場,2024-03-12,24.908472,121.185333,9.193858e-09
C0Z320,清水林道,2024-03-12,23.27125,121.188272,8.916161e-09
C0R760,南仁湖,2024-03-12,22.084681,120.863353,1.053677e-08
C0M670,大林,2024-03-12,23.600616,120.45841,3.4814956e-10
C0M800,茶山,2024-03-12,23.299075,120.664767,5.805407e-10
C0A9C0,天母,2024-03-12,25.117494,121.537169,5.137994e-09
72K220,南改斗南分場,2024-03-12,23.634556,120.477333,2.995198e-10
72AI40,桃改樹林分場,2024-03-12,24.944503,121.386972,7.806448e-09
C0S910,蘭嶼燈塔,2024-03-12,22.081197,121.503117,0.79911953
C0B050,八斗子,2024-03-12,25.144754,121.79167,8.251954e-09
C0U900,內城,2024-03-12,24.71813,121.68766,2.1350353e-09
C0X320,柳營,2024-03-12,23.253328,120.375253,3.675972e-10
C0M790,新港,2024-03-12,23.553269,120.345728,8.9819224e-10
C0F9T0,西屯,2024-03-12,24.179494,120.641275,6.3935407e-10
C0SA30,都歷,2024-03-12,23.020333,121.323642,5.1265675e-10
C0C620,蘆竹,2024-03-12,25.084275,121.265767,1.1772183e-08
C0R730,大坪頂,2024-03-12,22.024633,120.69355,3.112928e-07
C0AJ40,石門,2024-03-12,25.273672,121.601198,2.0536204e-08
C0E750,苗栗,2024-03-12,24.564569,120.824575,4.997718e-09
C0T870,鯉魚潭,2024-03-12,23.935639,121.508944,2.2811584e-09
C1V170,排雲,2024-03-12,23.463619,120.954147,1.5449707e-08
C2H950,中寮,2024-03-12,23.884447,120.766406,5.6577765e-10
C0R350,貓鼻頭,2024-03-12,21.921774,120.7358,0.99951416
C0V660,岡山,2024-03-12,22.797078,120.294958,8.1256263e-10
C1H941,雙冬,2024-03-12,23.967378,120.802189,9.0333957e-10
C0AJ70,田寮,2024-03-12,25.2698,121.4886,2.2691824e-08
C0AI00,五股,2024-03-12,25.07445,121.42728,4.9011746e-09
C0Z280,德武,2024-03-12,23.47426,121.41071,1.2769198e-09
C0R700,枋山,2024-03-12,22.246844,120.661086,1.7377633e-06
C0C460,復興,2024-03-12,24.820208,121.352281,1.0531646e-08
E2H360,蓮華池,2024-03-12,23.918333,120.885278,9.8608e-10
C0M640,中埔,2024-03-12,23.42538,120.5229,4.3788173e-10
C0W140,金沙,2024-03-12,24.488292,118.408778,1.21187e-07
C2A540,四堵,2024-03-12,24.8926,121.745736,7.2862276e-09
C0ACA0,新莊,2024-03-12,25.051478,121.446756,2.293575e-09
C0R220,潮州,2024-03-12,22.534361,120.54,8.4851026e-10
U2HA40,臺大內茅埔,2024-03-12,23.689722,120.851117,1.0223886e-09
467490,臺中,2024-03-12,24.145736,120.684075,5.9726013e-10
C0U960,翠峰湖,2024-03-12,24.510856,121.608044,1.7931e-08
E2HA20,林試畢祿溪站,2024-03-12,24.226944,121.308522,2.7409545e-08
C0V890,前鎮,2024-03-12,22.5718,120.3117,4.1583886e-10
467620,蘭嶼,2024-03-12,22.036969,121.558339,0.084786914
C1F941,雪嶺,2024-03-12,24.280586,121.026642,2.8268023e-08
C0AC80,文山,2024-03-12,25.00235,121.575728,2.7670808e-09
C0F9R0,龍井,2024-03-12,24.184536,120.528972,3.366418e-09
C0M760,民雄,2024-03-12,23.551754,120.428457,3.5131675e-10
C0UA40,西德山,2024-03-12,24.560647,121.752608,1.3001969e-08
C1T920,中興,2024-03-12,23.769503,121.498653,2.775411e-09
C0D550,雪霸,2024-03-12,24.526972,121.11605,6.236831e-09
C2F860,梨山,2024-03-12,24.247522,121.243669,2.792223e-08
C0R320,車城,2024-03-12,22.0744,120.716247,0.0255765
C1S870,南美山,2024-03-12,23.15025,121.382333,1.7705263e-09
C0B020,基隆嶼,2024-03-12,25.19141,121.78391,4.2565517e-08
C1U501,牛鬥,2024-03-12,24.637836,121.573656,5.0506435e-09
C0M730,嘉義市東區,2024-03-12,23.457673,120.460531,4.4711304e-10
C0S700,知本,2024-03-12,22.684866,121.005642,9.925035e-09
C1N001,沙崙,2024-03-12,22.935472,120.309406,3.4453546e-10
C0V760,橋頭,2024-03-12,22.757806,120.30575,3.6609424e-10
C0G960,福寶,2024-03-12,24.0443,120.3814,9.528783e-10
C0X210,白河,2024-03-12,23.347466,120.414427,4.0803155e-10
C0S810,東河,2024-03-12,22.972672,121.303986,5.3210982e-09
C0R670,楓港,2024-03-12,22.190131,120.692156,0.00026638008
C0FA50,霧峰,2024-03-12,24.0419,120.6995,3.9748402e-10
C0UB10,蘇澳,2024-03-12,24.5969,121.8571,3.3101832e-09
C0G950,防潮門,2024-03-12,24.1835,120.4871,3.366418e-09
C0M740,六腳,2024-03-12,23.492871,120.290625,9.936963e-10
C1R250,力里,2024-03-12,22.428117,120.629228,3.5773032e-10
C0K330,虎尾,2024-03-12,23.719183,120.442036,3.0941388e-10
C2FA00,烏石坑,2024-03-12,24.273503,120.947617,1.7995129e-09
C0V620,永安,2024-03-12,22.82315,120.236856,8.1256263e-10
C1I330,楓樹林,2024-03-12,23.986803,121.076117,4.5995314e-09
C0W200,湖西,2024-03-12,23.596314,119.67275,0.9143951
72Q010,高雄農改場,2024-03-12,22.709333,120.525889,4.284543e-10
C0SA40,瑞和,2024-03-12,22.974361,121.156697,4.3890855e-10
C0C680,龜山,2024-03-12,25.02846,121.38656,5.1153766e-09
C2V260,月眉,2024-03-12,22.971003,120.539853,2.8712716e-10
C0V450,鳳森,2024-03-12,22.545064,120.392592,2.8129662e-10
C0U720,南山,2024-03-12,24.43742,121.38167,5.603459e-09
A2N290,臺南蘭花園區,2024-03-12,23.340258,120.379661,5.251645e-10
C0R560,新園,2024-03-12,22.5434,120.461558,3.0636432e-10
C0U890,三星,2024-03-12,24.66812,121.65302,4.3994053e-09
C1V300,御油山,2024-03-12,23.001983,120.715364,2.697239e-09
C0U600,礁溪,2024-03-12,24.817539,121.765608,4.033658e-09
C1T980,龍澗,2024-03-12,24.023289,121.411328,2.1036122e-08
C0D670,海天一線,2024-03-12,24.831986,120.914438,2.2290653e-05
C0SA00,歷坵,2024-03-12,22.520969,120.89185,1.1387446e-08
C0M710,東石,2024-03-12,23.458927,120.15385,2.1425945e-09
C0M780,鹿草,2024-03-12,23.41134,120.30835,1.1691443e-09
C0U520,雙連埤,2024-03-12,24.753033,121.641303,6.429227e-09
C0B010,七堵,2024-03-12,25.094819,121.71713,4.0369983e-09
C0R480,長治,2024-03-12,22.693128,120.542622,3.4694705e-10
C1V830,國三S383K,2024-03-12,22.781967,120.426475,2.94576e-10
12Q980,恆春工作站,2024-03-12,22.079678,120.714425,0.0255765
C1O940,東山服務區,2024-03-12,23.286016,120.398472,4.2755224e-10
C1U840,東澳嶺,2024-03-12,24.5378,121.8485,7.206919e-09
C1D630,飛鳳山,2024-03-12,24.766464,121.119178,4.7359787e-09
C0S940,石寧山,2024-03-12,23.223772,121.406639,2.6294362e-09
C0K410,北港,2024-03-12,23.573957,120.292802,1.1067252e-09
C2M620,瑞里,2024-03-12,23.545133,120.675197,2.2453812e-09
C2O950,安南,2024-03-12,23.076694,120.144861,1.3554166e-09
C0F0E0,南湖圈谷,2024-03-12,24.363714,121.444667,2.8957539e-08
467610,成功,2024-03-12,23.097486,121.373428,1.4389747e-09
C0G890,伸港,2024-03-12,24.148933,120.484403,1.753367e-09
C2E540,龍溪,2024-03-12,24.606489,120.783933,4.5418376e-09
C1V200,梅山,2024-03-12,23.268447,120.823556,8.728406e-10
C0T9H0,加路蘭山,2024-03-12,23.682947,121.5274,5.625004e-09
C2O930,玉井,2024-03-12,23.126042,120.46055,2.8780814e-10
C1F911,新伯公,2024-03-12,24.221361,120.841069,2.401932e-09
C0R490,九如,2024-03-12,22.7405,120.490503,4.3171014e-10
C0X200,左鎮,2024-03-12,23.056758,120.408522,2.8494812e-10
C1F891,稍來,2024-03-12,24.265689,121.001142,1.38161536e-08
72N240,七股研究中心,2024-03-12,23.081672,120.062894,1.3466371e-09
C0C700,中壢,2024-03-12,24.977661,121.256375,5.478376e-09
C0M690,水上,2024-03-12,23.419734,120.388909,6.4857697e-10
C0V690,鼓山,2024-03-12,22.623325,120.275575,4.0859308e-10
C0O860,大內,2024-03-12,23.11885,120.36083,3.7065417e-10
C0Z200,萬榮,2024-03-12,23.709219,121.420106,3.799671e-09
C0T9D0,和中,2024-03-12,24.26676,121.74103,1.9607438e-09
C1O921,楠西,2024-03-12,23.183511,120.484083,2.89122e-10
C0AJ30,淡水觀海,2024-03-12,25.184591,121.408616,1.3716743e-08
C0V810,左營,2024-03-12,22.67491,120.28491,6.8685496e-10
C0UA70,桃源谷,2024-03-12,24.962606,121.888875,1.3105895e-08
C0X130,官田,2024-03-12,23.193217,120.315422,5.1519555e-10
C1H000,翠峰,2024-03-12,24.109397,121.205211,1.2946143e-08
C0UA90,石城,2024-03-12,24.980444,121.951214,5.5655924e-09
C1E681,南勢山,2024-03-12,24.421669,120.923831,5.6978267e-09
C0A9F0,內湖,2024-03-12,25.079422,121.57545,2.057489e-09
C0K291,宜梧,2024-03-12,23.536281,120.169329,1.3745205e-09
C1K540,口湖,2024-03-12,23.585344,120.180517,3.293716e-08
C0R780,滿州,2024-03-12,22.024403,120.839892,5.3140775e-07
C0V870,文安,2024-03-12,22.8025,120.2164,8.422412e-10
C0U650,玉蘭,2024-03-12,24.675286,121.587061,6.5970123e-09
C0R640,東港,2024-03-12,22.46247,120.44074,1.1889064e-09
K2E360,苗栗農改,2024-03-12,24.495722,120.829111,3.9519974e-09
C0AJ80,板橋,2024-03-12,25.0107,121.4489,2.6146727e-09
C0S660,下馬,2024-03-12,23.150427,121.070312,8.418418e-09
C1H9B1,阿眉,2024-03-12,24.1263,120.994672,1.3910287e-08
C0UA20,多加屯,2024-03-12,24.368614,121.373189,1.5212388e-08
C0E730,頭份,2024-03-12,24.688247,120.912206,7.636542e-09
72V140,高改旗南分場,2024-03-12,22.857861,120.516667,2.6077884e-10
C0K480,莿桐,2024-03-12,23.761192,120.502372,2.7286157e-10
C0U980,坪林石牌,2024-03-12,24.86478,121.77396,9.378893e-09
C0T900,西林,2024-03-12,23.8119,121.441458,3.0632414e-09
C1I150,青雲,2024-03-12,23.793361,120.949378,7.959941e-10
467350,澎湖,2024-03-12,23.565503,119.563094,0.9656629
C0G800,埔鹽,2024-03-12,24.000394,120.431683,6.6395245e-10
C0H960,草屯,2024-03-12,23.973672,120.68085,4.102126e-10
C1V780,多納林道,2024-03-12,22.888028,120.737917,8.9388713e-10
C0E920,通霄漁港,2024-03-12,24.498589,120.673876,6.460755e-07
C0Z330,安通山,2024-03-12,23.290728,121.348528,3.231573e-09
C0AH10,永和,2024-03-12,25.01125,121.508111,2.59205e-09
C2G640,鹿港,2024-03-12,24.0753,120.430481,9.528783e-10
C1E890,國三N149K,2024-03-12,24.463414,120.680019,1.9187977e-08
C1R110,口社,2024-03-12,22.770111,120.645222,5.781373e-10
C1M870,國三N285K,2024-03-12,23.550319,120.505833,3.603896e-10
467050,新屋,2024-03-12,25.006744,121.047486,2.3596934e-08
C1E480,鳳美,2024-03-12,24.554803,121.034747,5.0537174e-09
C0M530,奮起湖,2024-03-12,23.493903,120.699253,2.5766904e-09
C0C590,觀音,2024-03-12,25.027072,121.153317,2.553769e-08
C0T9M0,靜浦,2024-03-12,23.455167,121.495028,1.0998062e-09
C0AI40,石牌,2024-03-12,25.115597,121.513139,5.1290154e-09
C1F871,上谷關,2024-03-12,24.203483,121.018644,2.0580386e-09
C0G880,二水,2024-03-12,23.810742,120.6173,4.0163284e-10
C0R940,加祿堂,2024-03-12,22.3363,120.6217,7.672256e-08
C0W220,北竿,2024-03-12,26.220358,119.974881,4.5958682e-08
C0O960,崎頂,2024-03-12,22.959547,120.369317,3.0704642e-10
C0S750,向陽,2024-03-12,23.248397,120.986133,4.3727355e-09
C0T9F0,水璉,2024-03-12,23.797131,121.542514,3.3341352e-09
C1M600,頭凍,2024-03-12,23.406364,120.603339,1.5563983e-09
467660,臺東,2024-03-12,22.752211,121.154586,5.4150053e-09
C1D380,新埔,2024-03-12,24.84745,121.03834,8.487277e-09
C0V750,路竹,2024-03-12,22.854997,120.259439,9.122671e-10
C0N050,蚵寮,2024-03-12,23.301,120.1104,1.225164e-09
72M700,南改鹿草分場,2024-03-12,23.416869,120.283061,1.1995551e-09
C1SA50,利嘉林道,2024-03-12,22.82325,121.009389,8.664137e-09
467550,玉山,2024-03-12,23.487614,120.959522,2.6628184e-08
C0A940,金山,2024-03-12,25.223628,121.643967,9.278098e-09
C1V340,大津,2024-03-12,22.888322,120.645986,4.7777754e-10
C0W180,七美,2024-03-12,23.219333,119.444892,0.9682105
C1F9C1,白冷,2024-03-12,24.182844,120.929889,2.9107425e-09
K2E710,苗改生物防治研究中心,2024-03-12,24.422861,120.871833,3.1650096e-09
C0N040,蘆竹溝,2024-03-12,23.2344,120.0961,6.081938e-10
C2W230,畜試所澎湖,2024-03-12,23.628342,119.513206,0.9177691
C0R880,後壁湖,2024-03-12,21.9457,120.7457,0.07098206
C1I280,埔中,2024-03-12,23.820778,120.642594,6.829086e-10
467790,墾丁雷達站,2024-03-12,21.948235,120.808028,0.0029125288
C0W190,望安,2024-03-12,23.380564,119.494075,0.9456641
466881,新北,2024-03-12,24.9593,121.52,2.6691376e-09
C0Z170,卓溪,2024-03-12,23.3443,121.3029,1.7523774e-09
C0F850,東勢,2024-03-12,24.246428,120.833047,1.4441301e-09
466900,淡水,2024-03-12,25.164889,121.448906,7.026315e-09
C0I370,魚池,2024-03-12,23.895703,120.94135,8.6071256e-10
C0C630,大溪,2024-03-12,24.882853,121.265547,7.0536674e-09
C0A520,山佳,2024-03-12,24.974944,121.402008,2.7230331e-09
C0I110,竹山,2024-03-12,23.761225,120.688156,4.2906928e-10
82H840,茶改南部分場,2024-03-12,23.762528,120.7405,6.5973865e-10
C0G660,溪湖,2024-03-12,23.94835,120.479122,3.2313066e-10
C1T800,洛韶,2024-03-12,24.204558,121.453956,1.7203536e-08
C1T810,慈恩,2024-03-12,24.192044,121.388386,8.9946655e-09
C1E451,象鼻,2024-03-12,24.368617,120.940228,4.484593e-09
C0AC60,三峽,2024-03-12,24.939025,121.369728,7.795808e-09
C0I490,萬大林道,2024-03-12,23.928228,121.091411,6.096307e-09
C1I290,豐丘,2024-03-12,23.668178,120.887417,2.260921e-09
C1I320,奧萬大,2024-03-12,23.952956,121.178556,4.1044137e-09
C0U770,南澳,2024-03-12,24.44935,121.81022,1.3180542e-09
C0A980,社子,2024-03-12,25.109508,121.469681,7.0300015e-09
C0V800,六龜,2024-03-12,22.997889,120.633583,3.4946018e-10
C1G9D0,國一S218K,2024-03-12,23.890641,120.493253,3.477706e-10
C2F9A0,中竹林,2024-03-12,24.103556,120.751061,1.0679917e-09
C0FA40,臺中電廠,2024-03-12,24.2146,120.4907,3.3669252e-09
C0H9C0,合歡山,2024-03-12,24.143442,121.272547,3.1842667e-08
C0X060,下營,2024-03-12,23.22695,120.256261,6.28957e-10
G2M350,農試溪口農場,2024-03-12,23.58565,120.408111,3.5153058e-10
C0U860,頭城,2024-03-12,24.85323,121.8308,4.024735e-09
C0R580,南州,2024-03-12,22.48591,120.50274,1.1889064e-09
C0D430,峨眉,2024-03-12,24.6905,121.017189,3.690713e-09
C0G780,秀水,2024-03-12,24.03405,120.503869,3.3223133e-10
72N100,臺南農改場,2024-03-12,23.0605,120.342194,3.6833342e-10
C0S900,蘭嶼高中,2024-03-12,22.04909,121.51214,0.91823864
467540,大武,2024-03-12,22.355675,120.903789,3.249896e-08
C1F9W0,德基,2024-03-12,24.254783,121.190261,1.1280976e-08
C1Z120,壽豐,2024-03-12,23.870853,121.508081,2.584063e-09
C0W160,烏坵,2024-03-12,24.9944,119.44956,2.549875e-05
C1I240,外大坪,2024-03-12,23.958697,120.917931,2.2871445e-09
C1I550,國六W023K,2024-03-12,23.979067,120.867742,5.9801814e-10
C0R870,興海,2024-03-12,21.9752,120.8439,0.025789594
C0R140,瑪家,2024-03-12,22.682903,120.686639,8.1096013e-10
C0A530,坪林,2024-03-12,24.938183,121.70975,6.8930954e-09
C0X260,後壁,2024-03-12,23.366358,120.362326,5.251645e-10
C0Z230,和平,2024-03-12,24.30717,121.77007,1.9646633e-09
C0G770,福興,2024-03-12,24.041289,120.437669,6.6395245e-10
C0H9A0,神木村,2024-03-12,23.532742,120.843667,4.205644e-09
C0I460,南投,2024-03-12,23.911469,120.687331,6.3148486e-10
C0I480,梅峰,2024-03-12,24.085272,121.173572,1.1962701e-08
C1V570,吉東,2024-03-12,22.85422,120.5454,2.6285724e-10
C2A560,福山,2024-03-12,24.776203,121.502811,1.37894585e-08
C0AH30,五分山,2024-03-12,25.07125,121.780794,1.4389179e-08
C0FA10,松柏,2024-03-12,24.429115,120.617482,2.3995245e-08
72S200,東改班鳩分場,2024-03-12,22.829528,121.077694,6.2055966e-10
72HA00,中改埔里分場,2024-03-12,23.903208,120.963364,9.411125e-10
C0C650,平鎮,2024-03-12,24.897503,121.214636,7.946747e-09
C0S930,延平,2024-03-12,22.902581,121.084058,4.918788e-10
C0UA60,樟樹山,2024-03-12,24.41393,121.78325,4.8168673e-09
C1S670,摩天,2024-03-12,23.199503,121.027,1.6292145e-08
C0V630,茄萣,2024-03-12,22.906642,120.182608,1.0013754e-09
466940,基隆,2024-03-12,25.133314,121.740475,8.27028e-09
C0X050,東河,2024-03-12,23.296598,120.385608,4.3743847e-10
C0R770,保力,2024-03-12,22.071122,120.764111,4.8973266e-06
G2L020,農試嘉義分所,2024-03-12,23.485028,120.473806,3.647915e-10
C0X240,關子嶺,2024-03-12,23.331169,120.508025,4.496779e-10
C0I380,集集,2024-03-12,23.828206,120.801467,5.8083643e-10
466990,花蓮,2024-03-12,23.975128,121.613275,2.2726985e-09
C1V220,小關山,2024-03-12,23.154217,120.813603,2.093173e-09
C1F9G1,慶福山,2024-03-12,24.180853,120.848378,1.5712015e-09
C0Z250,瑞穗林道,2024-03-12,23.49284,121.30688,1.609429e-08
C0D590,新豐,2024-03-12,24.87068,120.97721,4.1886574e-06
C0A870,五指山,2024-03-12,25.132153,121.608692,7.850705e-09
C0UA50,西帽山,2024-03-12,24.555361,121.802628,9.484147e-09
C0X160,仁德,2024-03-12,22.968258,120.257689,3.4441786e-10
C1H971,六分寮,2024-03-12,23.92507,120.6378,9.603335e-10
C0W120,西嶼,2024-03-12,23.5626,119.468436,0.970108
C0G650,員林,2024-03-12,23.946503,120.585597,3.20739e-10
C0AD50,鶯歌,2024-03-12,24.951533,121.346294,7.785199e-09
C0S990,山豬窟,2024-03-12,22.318619,120.857372,7.701003e-09
72Q010,高雄農改,2024-03-12,22.709333,120.525889,4.284543e-10
C0X190,安平,2024-03-12,22.993161,120.152181,5.24768e-10
C0K400,斗六,2024-03-12,23.720583,120.541127,2.7960415e-10
12J990,口湖工作站,2024-03-12,23.589978,120.180394,3.293716e-08
C0O830,北寮,2024-03-12,23.079561,120.495008,2.2155199e-10
C1D410,白蘭,2024-03-12,24.579364,121.079947,7.578487e-09
C0S970,加津林,2024-03-12,22.416211,120.926942,2.8308598e-08
C0D700,關西,2024-03-12,24.7977,121.1732,3.960358e-09
C0M810,里佳,2024-03-12,23.389125,120.716647,2.8102807e-09
C0U750,龜山島,2024-03-12,24.841667,121.953133,1.8835094e-07
C0R810,內獅,2024-03-12,22.305064,120.642986,8.55809e-08
C1M390,龍美,2024-03-12,23.406728,120.654417,1.986935e-09
C1H840,國三N238K,2024-03-12,23.841008,120.707711,5.5603805e-10
CAQ030,崎峰國小,2024-03-12,22.42565,120.49521,1.1889064e-09
C2E520,大湖,2024-03-12,24.414939,120.870872,3.2794967e-09
467530,阿里山,2024-03-12,23.508208,120.813242,1.6634976e-08
C1E691,南湖,2024-03-12,24.40135,120.837533,4.825732e-09
C0FA30,梧棲,2024-03-12,24.256003,120.523381,5.488228e-09
C1V231,高中,2024-03-12,23.134911,120.716711,7.9400614e-10
C0F9V0,新社,2024-03-12,24.200172,120.815806,2.6427298e-09
C0H890,埔里,2024-03-12,23.972169,120.952425,6.6391825e-10
C0R690,墾丁,2024-03-12,21.966756,120.810269,1.9480487e-07
C0F0D0,審馬陣,2024-03-12,24.381675,121.4203,2.091817e-08
C0R820,白鷺,2024-03-12,22.454275,120.666219,8.1334106e-10
U2H480,臺大溪頭,2024-03-12,23.670306,120.798194,2.1169098e-09
C1V190,南天池,2024-03-12,23.27403,120.91176,6.059466e-09
K2E360,苗栗農改場,2024-03-12,24.495722,120.829111,3.9519974e-09
CAJ050,海口故事園區,2024-03-12,23.57543,120.14121,3.293716e-08
C0O990,媽廟,2024-03-12,22.99175,120.293525,2.927902e-10
C0D480,打鐵坑,2024-03-12,24.849664,121.150789,7.0708146e-09
C0Z220,和平林道,2024-03-12,24.343922,121.656317,2.1219224e-09
72C440,桃園農改場,2024-03-12,24.950944,121.030583,1.5217088e-08
C1E711,馬拉邦山,2024-03-12,24.367306,120.901656,4.6015325e-09
C0D560,竹東,2024-03-12,24.767147,121.057881,3.93076e-09
C0F9U0,南屯,2024-03-12,24.137006,120.637969,6.245518e-10
C0M720,番路,2024-03-12,23.464657,120.554156,4.4201529e-10
C0F0A0,雪山圈谷,2024-03-12,24.388594,121.236339,2.8753625e-08
C1A9N0,四十份,2024-03-12,24.934158,121.593283,8.03216e-09
C0U760,東澳,2024-03-12,24.52196,121.83318,1.3660446e-09
C0X230,鹽水,2024-03-12,23.272621,120.247641,1.1453858e-09
C0V370,古亭坑,2024-03-12,22.893178,120.401947,2.0032703e-10
C1I340,新興橋,2024-03-12,23.563333,120.868728,1.526688e-09
C0SA80,土坂,2024-03-12,22.453108,120.887572,1.6418358e-08
C0R160,鹽埔,2024-03-12,22.739558,120.530778,4.284543e-10
C0AC40,大屯山,2024-03-12,25.175675,121.522408,1.7911312e-08
466850,五分山雷達站,2024-03-12,25.071182,121.781205,1.4487188e-08
C1AI50,國三N016K,2024-03-12,25.034164,121.619664,2.1354873e-09
C1V600,藤枝,2024-03-12,23.071961,120.757042,1.8584496e-09
C1E601,南勢,2024-03-12,24.572486,120.734842,7.129334e-08
C0Z180,新城,2024-03-12,24.03946,121.60454,2.259339e-09
C0O980,新市,2024-03-12,23.061614,120.298197,3.826199e-10
C0K420,西螺,2024-03-12,23.800407,120.467394,3.4261996e-10
C0Z050,佳心,2024-03-12,23.34567,121.21316,1.0857628e-08
C0AD30,蘆洲,2024-03-12,25.086594,121.472331,2.042798e-09
C0V610,梓官,2024-03-12,22.760558,120.267211,3.6609424e-10
K2F750,種苗改良場,2024-03-12,24.225972,120.800917,2.5168765e-09
C0UA80,大溪漁港,2024-03-12,24.941801,121.902955,5.7717244e-09
C1AI60,國一39K邊坡,2024-03-12,25.064361,121.383836,4.9550435e-09
C0W150,金寧,2024-03-12,24.457703,118.328989,4.2673634e-08
V2C250,八德合作社,2024-03-12,24.93775,121.266389,7.84391e-09
C0AH40,平等,2024-03-12,25.129142,121.577086,6.1328107e-09
C0R540,佳冬,2024-03-12,22.419456,120.552375,8.1637175e-10
466950,彭佳嶼,2024-03-12,25.627975,122.079744,8.8142355e-07
C0A890,雙溪,2024-03-12,25.036003,121.864242,4.9511133e-09
C0C480,桃園,2024-03-12,24.992425,121.323172,5.3749973e-09
C0AH50,林口,2024-03-12,25.072181,121.38084,5.2653584e-09
A2K360,水試臺西試驗場,2024-03-12,23.717231,120.190522,2.952738e-08
B2N890,畜試所,2024-03-12,23.058972,120.336406,3.6833342e-10
C0F9S0,烏日,2024-03-12,24.107058,120.624103,3.9680606e-10
C0C490,八德,2024-03-12,24.928708,121.283289,7.85075e-09
C0R190,赤山,2024-03-12,22.592333,120.614306,6.150497e-10
C0T820,天祥,2024-03-12,24.179597,121.495639,1.3098223e-08
C1F9E1,龍安,2024-03-12,24.1605,120.831961,2.0407223e-09
C0V820,小林,2024-03-12,23.148408,120.63325,3.3630917e-10
C2G870,芳苑,2024-03-12,23.922303,120.320025,0.00045300063
C0E850,大河,2024-03-12,24.618069,120.948578,3.928804e-09
C1U670,寒溪,2024-03-12,24.634,121.71691,2.6979696e-09
C0N020,城西,2024-03-12,23.0568,120.0956,5.248181e-10
C1Z110,三棧,2024-03-12,24.11557,121.60501,1.2980461e-08
C0R280,檳榔,2024-03-12,22.076078,120.836777,1.6381323e-08
C0F9L0,后里,2024-03-12,24.310436,120.729725,1.7863061e-09
C0D540,橫山,2024-03-12,24.71116,121.11693,3.7299044e-09
C1D420,太閣南,2024-03-12,24.632808,121.160575,5.4688756e-09
C1E770,公館,2024-03-12,24.526914,120.830806,3.93241e-09
CAN130,水試所海水繁養殖中心,2024-03-12,23.120802,120.07968,1.4219796e-09
C1I430,翠華,2024-03-12,24.191961,121.224339,1.7306547e-08
C1M400,菜瓜坪,2024-03-12,23.251928,120.576103,4.4589774e-10
C0G730,二林,2024-03-12,23.903325,120.376081,7.7371287e-10
72M360,南改義竹分場,2024-03-12,23.360694,120.279361,9.926734e-10
V2K620,麥寮合作社,2024-03-12,23.753836,120.294783,5.857561e-10
C0Z070,舞鶴,2024-03-12,23.46811,121.37407,1.3542356e-09
C0B040,大武崙,2024-03-12,25.166676,121.706993,8.3302165e-09
C1Z030,紅葉,2024-03-12,23.493119,121.338806,9.756296e-10
C1I050,丹大,2024-03-12,23.753747,121.141147,7.3752657e-09
C0I080,信義,2024-03-12,23.689694,120.851036,1.0223886e-09
C2A880,福隆,2024-03-12,25.017842,121.942083,5.5249356e-09
C0Z160,鳳林,2024-03-12,23.746114,121.453411,3.7071304e-09
C0V210,復興,2024-03-12,23.222403,120.806089,7.818886e-10
C0H990,昆陽,2024-03-12,24.121322,121.273642,2.2797199e-08
C0S710,鹿野,2024-03-12,22.917711,121.122994,4.909134e-10
C0I530,小奇萊,2024-03-12,24.131764,121.295717,2.3704295e-08
C0Z080,富源,2024-03-12,23.587642,121.378225,4.373511e-09
467441,高雄,2024-03-12,22.7304,120.3125,3.5147224e-10
C1I140,卡奈托灣,2024-03-12,23.754364,121.087872,2.604032e-09
C0I520,玉山風口,2024-03-12,23.470489,120.955994,2.8526271e-08
C1G691,下水埔,2024-03-12,23.816114,120.5676,2.7422017e-10
C0X110,臺南市南區,2024-03-12,22.961189,120.188378,3.4437975e-10
C0V680,仁武,2024-03-12,22.701083,120.347722,6.8704364e-10
C2G840,北斗,2024-03-12,23.877586,120.514222,3.4859277e-10
C0R900,竹坑,2024-03-12,22.1385,120.7022,0.023045884
C0K250,崙背,2024-03-12,23.75555,120.318925,5.849924e-10
C0G860,社頭,2024-03-12,23.897647,120.5862,2.6036584e-10
C0X150,安定,2024-03-12,23.102614,120.227839,4.4197396e-10
C0R590,里港,2024-03-12,22.77919,120.49459,3.1139666e-10
C0E610,馬都安,2024-03-12,24.451272,120.930192,5.0641e-09
C0E550,明德,2024-03-12,24.583486,120.885411,4.9798383e-09
C0R150,三地門,2024-03-12,22.709889,120.639944,5.8783e-10
C0G910,花壇,2024-03-12,24.032076,120.549461,3.334636e-10
C1D400,鳥嘴山,2024-03-12,24.71909,121.28387,4.7552677e-09
C0K500,元長,2024-03-12,23.64981,120.315024,6.95714e-10
C0F0B0,石岡,2024-03-12,24.276061,120.777644,1.879833e-09
C2V250,甲仙,2024-03-12,23.080106,120.591758,2.4284183e-10
C0SA20,金崙山,2024-03-12,22.567419,120.959667,1.2220186e-08
C0V350,溪埔,2024-03-12,22.738578,120.446797,3.1642716e-10
C0M660,溪口,2024-03-12,23.604131,120.403569,3.5179684e-10
C1S880,壽卡,2024-03-12,22.238911,120.858903,7.3670128e-09
72D680,桃改新埔分場,2024-03-12,24.834444,121.066111,8.56501e-09
