站號,站名,日期,lat,lon,BlastGRU-TW
12J990,口湖工作站,2024-08-13,23.589978,120.180394,0.9997646
12Q970,東港工作站,2024-08-13,22.479997,120.466058,0.9999735
12Q980,恆春工作站,2024-08-13,22.079678,120.714425,0.99811107
466881,新北,2024-08-13,24.9593,121.52,0.9983601
466900,淡水,2024-08-13,25.164889,121.448906,0.98286766
466920,臺北,2024-08-13,25.037658,121.514853,0.98746985
466940,基隆,2024-08-13,25.133314,121.740475,0.99790233
466990,花蓮,2024-08-13,23.975128,121.613275,0.9991866
467050,新屋,2024-08-13,25.006744,121.047486,0.645416
467080,宜蘭,2024-08-13,24.763975,121.756528,0.99996626
467270,田中,2024-08-13,23.873803,120.581286,0.99715495
467280,後龍,2024-08-13,24.648563,120.831834,0.8919619
467300,東吉島,2024-08-13,23.25695,119.667467,0.99889374
467350,澎湖,2024-08-13,23.565503,119.563094,0.99893606
467410,臺南,2024-08-13,22.993239,120.204772,0.9999895
467420,永康,2024-08-13,23.038386,120.2367,0.99999434
467441,高雄,2024-08-13,22.7304,120.3125,0.9999874
467480,嘉義,2024-08-13,23.495925,120.432906,0.99981934
467490,臺中,2024-08-13,24.145736,120.684075,0.99885064
467540,大武,2024-08-13,22.355675,120.903789,0.9995547
467571,新竹,2024-08-13,24.827853,121.014219,0.41224164
467590,恆春,2024-08-13,22.003897,120.746339,0.99520606
467610,成功,2024-08-13,23.097486,121.373428,0.9759386
467620,蘭嶼,2024-08-13,22.036969,121.558339,0.999851
467660,臺東,2024-08-13,22.752211,121.154586,0.99852574
467790,墾丁雷達站,2024-08-13,21.948235,120.808028,0.9979337
72AI40,桃改樹林分場,2024-08-13,24.944503,121.386972,0.4102121
72C440,桃園農改,2024-08-13,24.950944,121.030583,0.7583871
72C440,桃園農改場,2024-08-13,24.950944,121.030583,0.7583871
72D680,桃改新埔分場,2024-08-13,24.834444,121.066111,0.47762752
72G600,臺中農改,2024-08-13,24.003028,120.534389,0.9938785
72G600,臺中農改場,2024-08-13,24.003028,120.534389,0.9938785
72K220,南改斗南分場,2024-08-13,23.634556,120.477333,0.99884444
72M360,南改義竹分場,2024-08-13,23.360694,120.279361,0.99974006
72M700,南改鹿草分場,2024-08-13,23.416869,120.283061,0.99974984
72N100,臺南農改,2024-08-13,23.0605,120.342194,0.9999922
72N100,臺南農改場,2024-08-13,23.0605,120.342194,0.9999922
72N240,七股研究中心,2024-08-13,23.081672,120.062894,0.99998534
72Q010,高雄農改,2024-08-13,22.709333,120.525889,0.99988514
72Q010,高雄農改場,2024-08-13,22.709333,120.525889,0.99988514
72S200,東改班鳩分場,2024-08-13,22.829528,121.077694,0.9988302
72S590,東改賓朗果園,2024-08-13,22.813889,121.071278,0.9986421
72T250,花蓮農改,2024-08-13,23.975222,121.563889,0.9988074
72T250,花蓮農改場,2024-08-13,23.975222,121.563889,0.9988074
72U480,花改蘭陽分場,2024-08-13,24.686306,121.716583,0.9998162
72V140,高改旗南分場,2024-08-13,22.857861,120.516667,0.9999024
82A750,茶改北部分場,2024-08-13,24.955778,121.631222,0.9998596
82C160,茶改場,2024-08-13,24.908472,121.185333,0.12748872
82H840,茶改南部分場,2024-08-13,23.762528,120.7405,0.99962574
82S580,茶改東部分場,2024-08-13,22.907694,121.130139,0.99673206
A2C560,農工中心,2024-08-13,24.985917,121.239833,0.20687479
A2K360,水試臺西試驗場,2024-08-13,23.717231,120.190522,0.9994791
A2K570,古坑花卉中心,2024-08-13,23.63353,120.55239,0.9996769
A2K630,臺大雲林校區,2024-08-13,23.730628,120.423903,0.9981406
A2N290,臺南蘭花園區,2024-08-13,23.340258,120.379661,0.99971044
B2E890,畜試北區分所,2024-08-13,24.527806,120.770972,0.9784764
B2N890,畜產試驗所,2024-08-13,23.058972,120.336406,0.9999922
B2N890,畜試所,2024-08-13,23.058972,120.336406,0.9999922
B2Q810,畜試南區分所,2024-08-13,21.945583,120.802167,0.99777764
B2U990,畜試東區分所,2024-08-13,24.669039,121.832561,0.99992067
C0A520,山佳,2024-08-13,24.974944,121.402008,0.99044573
C0A530,坪林,2024-08-13,24.938183,121.70975,0.9996177
C0A550,泰平,2024-08-13,24.971197,121.823711,0.99828225
C0A570,桶後,2024-08-13,24.848222,121.597992,0.99949104
C0A640,石碇,2024-08-13,24.993969,121.662917,0.9994859
C0A770,科教館,2024-08-13,25.096356,121.516507,0.9813569
C0A860,大坪,2024-08-13,25.165914,121.632969,0.9924328
C0A890,雙溪,2024-08-13,25.036003,121.864242,0.9982066
C0A931,三和,2024-08-13,25.233153,121.595236,0.9919687
C0A940,金山,2024-08-13,25.223628,121.643967,0.9732161
C0A950,鼻頭角,2024-08-13,25.129036,121.923372,0.9939962
C0A970,三貂角,2024-08-13,25.007606,122.002058,0.9995878
C0A980,社子,2024-08-13,25.109508,121.469681,0.9841602
C0A9C0,天母,2024-08-13,25.117494,121.537169,0.93924534
C0A9F0,內湖,2024-08-13,25.079422,121.57545,0.9825301
C0AC60,三峽,2024-08-13,24.939025,121.369728,0.43000072
C0AC70,信義,2024-08-13,25.037822,121.564597,0.9863958
C0AC80,文山,2024-08-13,25.00235,121.575728,0.9990303
C0ACA0,新莊,2024-08-13,25.051478,121.446756,0.90255654
C0AD10,八里,2024-08-13,25.150211,121.403947,0.9694364
C0AD30,蘆洲,2024-08-13,25.086594,121.472331,0.9813569
C0AD40,土城,2024-08-13,24.973208,121.445169,0.9974489
C0AD50,鶯歌,2024-08-13,24.951533,121.346294,0.46105704
C0AG80,中和,2024-08-13,24.991622,121.491792,0.99858356
C0AH00,汐止,2024-08-13,25.066881,121.658778,0.9902105
C0AH10,永和,2024-08-13,25.01125,121.508111,0.99854636
C0AH40,平等,2024-08-13,25.129142,121.577086,0.9938907
C0AH50,林口,2024-08-13,25.072181,121.38084,0.9789465
C0AH70,松山,2024-08-13,25.04871,121.55042,0.9863958
C0AH80,深坑,2024-08-13,25.002703,121.628328,0.99932873
C0AI00,五股,2024-08-13,25.07445,121.42728,0.98018533
C0AI10,屈尺,2024-08-13,24.92184,121.54475,0.9992965
C0AI20,白沙灣,2024-08-13,25.283128,121.519058,0.93565744
C0AI30,三重,2024-08-13,25.057328,121.500629,0.98692364
C0AI40,石牌,2024-08-13,25.115597,121.513139,0.933993
C0AJ20,野柳,2024-08-13,25.20703,121.690021,0.97950953
C0AJ30,淡水觀海,2024-08-13,25.184591,121.408616,0.99645454
C0AJ40,石門,2024-08-13,25.273672,121.601198,0.9345043
C0AJ50,水湳洞,2024-08-13,25.123695,121.862238,0.99533653
C0AJ60,六塊厝,2024-08-13,25.24,121.4481,0.91992867
C0AJ70,田寮,2024-08-13,25.2698,121.4886,0.9117522
C0AJ80,板橋,2024-08-13,25.0107,121.4489,0.99625194
C0AJ90,澳底,2024-08-13,25.0552,121.9253,0.99750865
C0B010,七堵,2024-08-13,25.094819,121.71713,0.9742028
C0B020,基隆嶼,2024-08-13,25.19141,121.78391,0.99949604
C0B040,大武崙,2024-08-13,25.166676,121.706993,0.9976304
C0B050,八斗子,2024-08-13,25.144754,121.79167,0.99724126
C0B060,暖暖,2024-08-13,25.0957,121.7403,0.9892351
C0C460,復興,2024-08-13,24.820208,121.352281,0.99774665
C0C480,桃園,2024-08-13,24.992425,121.323172,0.8006415
C0C490,八德,2024-08-13,24.928708,121.283289,0.473074
C0C590,觀音,2024-08-13,25.027072,121.153317,0.6697213
C0C620,蘆竹,2024-08-13,25.084275,121.265767,0.5329636
C0C630,大溪,2024-08-13,24.882853,121.265547,0.51845086
C0C650,平鎮,2024-08-13,24.897503,121.214636,0.43141553
C0C660,楊梅,2024-08-13,24.912375,121.143047,0.09602348
C0C670,龍潭,2024-08-13,24.870056,121.221389,0.74457943
C0C680,龜山,2024-08-13,25.02846,121.38656,0.97561723
C0C700,中壢,2024-08-13,24.977661,121.256375,0.81638443
C0C710,大溪永福,2024-08-13,24.892936,121.324975,0.9971428
C0C720,竹圍,2024-08-13,25.112692,121.239824,0.90164876
C0C730,中大臨海站,2024-08-13,24.966126,121.008581,0.69190305
C0C740,觀音工業區,2024-08-13,25.064764,121.114856,0.55813855
C0C750,新興坑尾,2024-08-13,25.0061,121.0971,0.6829156
C0D430,峨眉,2024-08-13,24.6905,121.017189,0.80414
C0D480,打鐵坑,2024-08-13,24.849664,121.150789,0.553851
C0D540,橫山,2024-08-13,24.71116,121.11693,0.9554257
C0D560,竹東,2024-08-13,24.767147,121.057881,0.46814796
C0D580,寶山,2024-08-13,24.735006,121.025192,0.63785213
C0D590,新豐,2024-08-13,24.87068,120.97721,0.9164374
C0D650,湖口,2024-08-13,24.904794,121.043628,0.67041785
C0D660,新竹市東區,2024-08-13,24.798681,120.986942,0.65631896
C0D670,海天一線,2024-08-13,24.831986,120.914438,0.8624393
C0D680,香山濕地,2024-08-13,24.783581,120.914988,0.6199689
C0D690,外湖,2024-08-13,24.917735,120.968711,0.794307
C0D700,關西,2024-08-13,24.7977,121.1732,0.6182518
C0E420,竹南,2024-08-13,24.708978,120.888897,0.7207773
C0E430,南庄,2024-08-13,24.601775,121.000214,0.9923165
C0E550,明德,2024-08-13,24.583486,120.885411,0.9547411
C0E590,通霄,2024-08-13,24.471892,120.704622,0.9743154
C0E730,頭份,2024-08-13,24.688247,120.912206,0.6819342
C0E740,造橋,2024-08-13,24.637056,120.864778,0.8748025
C0E750,苗栗,2024-08-13,24.564569,120.824575,0.9594757
C0E780,銅鑼,2024-08-13,24.489681,120.790853,0.97786623
C0E791,卓蘭,2024-08-13,24.3126,120.8244,0.99888164
C0E810,西湖,2024-08-13,24.562947,120.7485,0.9584323
C0E820,獅潭,2024-08-13,24.539133,120.920042,0.9916196
C0E830,苑裡,2024-08-13,24.439714,120.653053,0.9872621
C0E850,大河,2024-08-13,24.618069,120.948578,0.93672967
C0E870,高鐵苗栗,2024-08-13,24.60725,120.826094,0.90291446
C0E910,海埔,2024-08-13,24.648767,120.772435,0.8897443
C0E920,通霄漁港,2024-08-13,24.498589,120.673876,0.97149944
C0E930,龍鳳,2024-08-13,24.700034,120.859125,0.6751321
C0F0B0,石岡,2024-08-13,24.276061,120.777644,0.9978642
C0F850,東勢,2024-08-13,24.246428,120.833047,0.9991201
C0F970,大坑,2024-08-13,24.173142,120.722289,0.9994088
C0F9I0,神岡,2024-08-13,24.272481,120.658314,0.9928946
C0F9K0,大安,2024-08-13,24.345061,120.588025,0.9884938
C0F9L0,后里,2024-08-13,24.310436,120.729725,0.99742395
C0F9M0,豐原,2024-08-13,24.254322,120.720692,0.9980931
C0F9N0,大里,2024-08-13,24.092464,120.701378,0.9977154
C0F9O0,潭子,2024-08-13,24.213106,120.703933,0.9989697
C0F9P0,清水,2024-08-13,24.312297,120.562242,0.99015737
C0F9Q0,外埔,2024-08-13,24.347817,120.705686,0.98772275
C0F9R0,龍井,2024-08-13,24.184536,120.528972,0.99593604
C0F9S0,烏日,2024-08-13,24.107058,120.624103,0.9967006
C0F9T0,西屯,2024-08-13,24.179494,120.641275,0.99294436
C0F9U0,南屯,2024-08-13,24.137006,120.637969,0.9963575
C0F9X0,大雅(中科園區),2024-08-13,24.21528,120.62445,0.9953097
C0FA10,松柏,2024-08-13,24.429115,120.617482,0.98669463
C0FA20,溫寮,2024-08-13,24.372177,120.583125,0.98799425
C0FA30,梧棲,2024-08-13,24.256003,120.523381,0.9903801
C0FA40,臺中電廠,2024-08-13,24.2146,120.4907,0.99593604
C0FA50,霧峰,2024-08-13,24.0419,120.6995,0.99773127
C0G620,芬園,2024-08-13,24.015678,120.6213,0.9967751
C0G650,員林,2024-08-13,23.946503,120.585597,0.9970801
C0G660,溪湖,2024-08-13,23.94835,120.479122,0.99302346
C0G720,溪州,2024-08-13,23.851589,120.499093,0.9967586
C0G730,二林,2024-08-13,23.903325,120.376081,0.9981107
C0G740,大城,2024-08-13,23.852487,120.320935,0.99954957
C0G770,福興,2024-08-13,24.041289,120.437669,0.99725837
C0G780,秀水,2024-08-13,24.03405,120.503869,0.9921101
C0G800,埔鹽,2024-08-13,24.000394,120.431683,0.9974902
C0G810,埔心,2024-08-13,23.947633,120.525456,0.9931596
C0G820,田尾,2024-08-13,23.901669,120.509389,0.99277806
C0G830,埤頭,2024-08-13,23.866003,120.452806,0.996628
C0G860,社頭,2024-08-13,23.897647,120.5862,0.9970735
C0G880,二水,2024-08-13,23.810742,120.6173,0.9984347
C0G890,伸港,2024-08-13,24.148933,120.484403,0.99746436
C0G900,線西,2024-08-13,24.143358,120.443536,0.9965913
C0G910,花壇,2024-08-13,24.032076,120.549461,0.99275136
C0G920,永靖,2024-08-13,23.924703,120.547533,0.9932044
C0G940,竹塘,2024-08-13,23.848253,120.386764,0.99843025
C0G950,防潮門,2024-08-13,24.1835,120.4871,0.99593604
C0G960,福寶,2024-08-13,24.0443,120.3814,0.9947342
C0G970,三豐,2024-08-13,23.882,120.2895,0.9995352
C0H890,埔里,2024-08-13,23.972169,120.952425,0.9972561
C0H960,草屯,2024-08-13,23.973672,120.68085,0.995758
C0I110,竹山,2024-08-13,23.761225,120.688156,0.99806243
C0I360,水里,2024-08-13,23.812553,120.849792,0.9987903
C0I380,集集,2024-08-13,23.828206,120.801467,0.9986552
C0I410,名間,2024-08-13,23.837053,120.701447,0.9971249
C0I420,國姓,2024-08-13,24.037803,120.855072,0.99597496
C0I460,南投,2024-08-13,23.911469,120.687331,0.99344534
C0K250,崙背,2024-08-13,23.75555,120.318925,0.99841934
C0K280,四湖,2024-08-13,23.630414,120.227125,0.9994272
C0K291,宜梧,2024-08-13,23.536281,120.169329,0.9997943
C0K330,虎尾,2024-08-13,23.719183,120.442036,0.9980376
C0K390,土庫,2024-08-13,23.679029,120.395574,0.99824125
C0K400,斗六,2024-08-13,23.720583,120.541127,0.99849886
C0K410,北港,2024-08-13,23.573957,120.292802,0.9995254
C0K420,西螺,2024-08-13,23.800407,120.467394,0.9973014
C0K430,褒忠,2024-08-13,23.690938,120.303634,0.99844587
C0K440,二崙,2024-08-13,23.772797,120.408944,0.9974127
C0K450,大埤,2024-08-13,23.646074,120.431537,0.99887985
C0K460,斗南,2024-08-13,23.678734,120.478359,0.9989583
C0K470,林內,2024-08-13,23.748675,120.609642,0.9995428
C0K480,莿桐,2024-08-13,23.761192,120.502372,0.99788314
C0K500,元長,2024-08-13,23.64981,120.315024,0.9987778
C0K510,水林,2024-08-13,23.572924,120.24597,0.9995976
C0K530,臺西,2024-08-13,23.701547,120.197559,0.9994865
C0K550,蔦松,2024-08-13,23.514319,120.229736,0.99965143
C0K560,棋山,2024-08-13,23.68645,120.603417,0.9997574
C0K580,高鐵雲林,2024-08-13,23.737456,120.417944,0.9981406
C0K590,雲林東勢,2024-08-13,23.674192,120.255721,0.9988911
C0K600,箔子寮,2024-08-13,23.6197,120.14,0.99979436
C0M520,東後寮,2024-08-13,23.369908,120.248065,0.99974006
C0M640,中埔,2024-08-13,23.42538,120.5229,0.99996465
C0M650,朴子,2024-08-13,23.43463,120.23902,0.9997638
C0M660,溪口,2024-08-13,23.604131,120.403569,0.9993674
C0M670,大林,2024-08-13,23.600616,120.45841,0.9993314
C0M680,太保,2024-08-13,23.455062,120.331455,0.9998693
C0M690,水上,2024-08-13,23.419734,120.388909,0.9998576
C0M700,竹崎,2024-08-13,23.526178,120.555508,0.9999173
C0M710,東石,2024-08-13,23.458927,120.15385,0.9999024
C0M720,番路,2024-08-13,23.464657,120.554156,0.99996185
C0M730,嘉義市東區,2024-08-13,23.457673,120.460531,0.9999478
C0M740,六腳,2024-08-13,23.492871,120.290625,0.9997738
C0M750,布袋,2024-08-13,23.380878,120.167789,0.99980116
C0M760,民雄,2024-08-13,23.551754,120.428457,0.9993231
C0M770,嘉義梅山,2024-08-13,23.585398,120.555587,0.9998603
C0M780,鹿草,2024-08-13,23.41134,120.30835,0.9997528
C0M790,新港,2024-08-13,23.553269,120.345728,0.999311
C0M800,茶山,2024-08-13,23.299075,120.664767,0.99998325
C0M880,好美里,2024-08-13,23.3364,120.138,0.9999183
C0N010,鯤鯓國小,2024-08-13,23.1879,120.0889,0.9999825
C0N020,城西,2024-08-13,23.0568,120.0956,0.99998975
C0N030,四草,2024-08-13,23.0235,120.1116,0.9999881
C0N040,蘆竹溝,2024-08-13,23.2344,120.0961,0.9999457
C0N050,蚵寮,2024-08-13,23.301,120.1104,0.9999534
C0O830,北寮,2024-08-13,23.079561,120.495008,0.99998134
C0O840,王爺宮,2024-08-13,23.222064,120.40085,0.99993354
C0O860,大內,2024-08-13,23.11885,120.36083,0.9999779
C0O900,善化,2024-08-13,23.112883,120.297219,0.9999855
C0O960,崎頂,2024-08-13,22.959547,120.369317,0.999985
C0O970,虎頭埤,2024-08-13,23.021375,120.347878,0.99998754
C0O980,新市,2024-08-13,23.061614,120.298197,0.9999919
C0O990,媽廟,2024-08-13,22.99175,120.293525,0.9999915
C0R150,三地門,2024-08-13,22.709889,120.639944,0.99996865
C0R160,鹽埔,2024-08-13,22.739558,120.530778,0.99981475
C0R170,屏東,2024-08-13,22.660269,120.494072,0.9998639
C0R190,赤山,2024-08-13,22.592333,120.614306,0.99947447
C0R220,潮州,2024-08-13,22.534361,120.54,0.9999669
C0R240,來義,2024-08-13,22.527306,120.625111,0.99966073
C0R260,春日,2024-08-13,22.370361,120.628306,0.9996433
C0R270,琉球嶼,2024-08-13,22.332244,120.362236,0.9999044
C0R280,檳榔,2024-08-13,22.076078,120.836777,0.99632215
C0R320,車城,2024-08-13,22.0744,120.716247,0.99811107
C0R341,牡丹,2024-08-13,22.130036,120.792639,0.9962446
C0R350,貓鼻頭,2024-08-13,21.921774,120.7358,0.9992423
C0R470,高樹,2024-08-13,22.826389,120.600806,0.9998659
C0R480,長治,2024-08-13,22.693128,120.542622,0.9998041
C0R490,九如,2024-08-13,22.7405,120.490503,0.999811
C0R520,崁頂,2024-08-13,22.514781,120.506914,0.99998474
C0R540,佳冬,2024-08-13,22.419456,120.552375,0.99996907
C0R550,新埤,2024-08-13,22.467947,120.582894,0.99996895
C0R560,新園,2024-08-13,22.5434,120.461558,0.99996835
C0R570,麟洛,2024-08-13,22.65078,120.52719,0.9998639
C0R580,南州,2024-08-13,22.48591,120.50274,0.9999792
C0R590,里港,2024-08-13,22.77919,120.49459,0.9994056
C0R620,墾雷,2024-08-13,21.900836,120.855269,0.9989055
C0R640,東港,2024-08-13,22.46247,120.44074,0.99993205
C0R650,竹田,2024-08-13,22.58486,120.54344,0.99983174
C0R660,枋寮,2024-08-13,22.367722,120.590647,0.99970007
C0R670,楓港,2024-08-13,22.190131,120.692156,0.99664044
C0R680,佳樂水,2024-08-13,21.993578,120.861633,0.9978359
C0R690,墾丁,2024-08-13,21.966756,120.810269,0.99751705
C0R700,枋山,2024-08-13,22.246844,120.661086,0.9988782
C0R710,龍磐,2024-08-13,21.931672,120.838942,0.9993292
C0R720,旭海,2024-08-13,22.205403,120.887614,0.9970986
C0R730,大坪頂,2024-08-13,22.024633,120.69355,0.99564433
C0R740,獅子,2024-08-13,22.201569,120.70525,0.9962258
C0R760,南仁湖,2024-08-13,22.084681,120.863353,0.997157
C0R770,保力,2024-08-13,22.071122,120.764111,0.99515265
C0R780,滿州,2024-08-13,22.024403,120.839892,0.99522173
C0R790,九棚,2024-08-13,22.14195,120.889281,0.9966464
C0R800,丹路,2024-08-13,22.204481,120.750989,0.99622166
C0R810,內獅,2024-08-13,22.305064,120.642986,0.9994085
C0R830,高士,2024-08-13,22.121825,120.836781,0.9977383
C0R850,林邊,2024-08-13,22.4634,120.5339,0.9999684
C0R860,鼻頭,2024-08-13,22.1043,120.8979,0.99578345
C0R870,興海,2024-08-13,21.9752,120.8439,0.99777764
C0R880,後壁湖,2024-08-13,21.9457,120.7457,0.9974266
C0R890,山海,2024-08-13,21.9878,120.7091,0.99748087
C0R900,竹坑,2024-08-13,22.1385,120.7022,0.9981309
C0R910,下寮,2024-08-13,22.3929,120.5548,0.99996907
C0R920,塭仔,2024-08-13,22.4169,120.5197,0.99997115
C0R930,萬丹,2024-08-13,22.5885,120.4851,0.9999408
C0R940,加祿堂,2024-08-13,22.3363,120.6217,0.9997793
C0S710,鹿野,2024-08-13,22.917711,121.122994,0.99757344
C0S730,綠島,2024-08-13,22.6672,121.47533,0.99936366
C0S740,池上,2024-08-13,23.119628,121.209469,0.99159116
C0S770,大溪山,2024-08-13,22.478475,120.943325,0.99959373
C0S790,金崙,2024-08-13,22.538122,120.966875,0.9996691
C0S810,東河,2024-08-13,22.972672,121.303986,0.9961153
C0S830,長濱,2024-08-13,23.286817,121.411975,0.99707985
C0S840,南田,2024-08-13,22.279725,120.889208,0.9990744
C0S890,關山,2024-08-13,23.0395,121.175017,0.995975
C0S900,蘭嶼高中,2024-08-13,22.04909,121.51214,0.99961394
C0S910,蘭嶼燈塔,2024-08-13,22.081197,121.503117,0.9998301
C0S920,金峰嘉蘭,2024-08-13,22.594789,120.960825,0.9995882
C0S930,延平,2024-08-13,22.902581,121.084058,0.9988054
C0S940,石寧山,2024-08-13,23.223772,121.406639,0.99378043
C0S950,七塊厝,2024-08-13,22.954453,121.229922,0.9990334
C0S960,香蘭,2024-08-13,22.587569,120.993375,0.9996968
C0S970,加津林,2024-08-13,22.416211,120.926942,0.9995315
C0S990,山豬窟,2024-08-13,22.318619,120.857372,0.99967444
C0SA00,歷坵,2024-08-13,22.520969,120.89185,0.9997153
C0SA10,檳榔四格山,2024-08-13,22.810031,121.109308,0.99881214
C0SA30,都歷,2024-08-13,23.020333,121.323642,0.9961446
C0SA40,瑞和,2024-08-13,22.974361,121.156697,0.99522966
C0SA60,知本（水試所）,2024-08-13,22.702394,121.082761,0.9996888
C0SA80,土坂,2024-08-13,22.453108,120.887572,0.9992026
C0SA90,達仁林場,2024-08-13,22.264347,120.823972,0.9994577
C0T870,鯉魚潭,2024-08-13,23.935639,121.508944,0.9987029
C0T900,西林,2024-08-13,23.8119,121.441458,0.9999088
C0T960,光復,2024-08-13,23.660694,121.424964,0.99919385
C0T9A0,月眉山,2024-08-13,23.809928,121.539828,0.99958163
C0T9D0,和中,2024-08-13,24.26676,121.74103,0.9998883
C0T9E0,大坑,2024-08-13,23.880628,121.581981,0.99931437
C0T9F0,水璉,2024-08-13,23.797131,121.542514,0.99943584
C0T9I0,豐濱,2024-08-13,23.583897,121.514806,0.99710226
C0T9M0,靜浦,2024-08-13,23.455167,121.495028,0.99743587
C0T9N0,富里,2024-08-13,23.171639,121.249378,0.98047
C0U600,礁溪,2024-08-13,24.817539,121.765608,0.9998758
C0U650,玉蘭,2024-08-13,24.675286,121.587061,0.99888974
C0U750,龜山島,2024-08-13,24.841667,121.953133,0.9996468
C0U760,東澳,2024-08-13,24.52196,121.83318,0.9998771
C0U770,南澳,2024-08-13,24.44935,121.81022,0.99992037
C0U780,五結,2024-08-13,24.68637,121.79794,0.99974144
C0U860,頭城,2024-08-13,24.85323,121.8308,0.99939936
C0U870,大礁溪,2024-08-13,24.791042,121.675047,0.9998983
C0U880,北關,2024-08-13,24.9072,121.8734,0.9989062
C0U890,三星,2024-08-13,24.66812,121.65302,0.9999618
C0U900,內城,2024-08-13,24.71813,121.68766,0.9998187
C0U910,冬山,2024-08-13,24.63373,121.7937,0.99992067
C0U940,羅東,2024-08-13,24.68184,121.74934,0.99991006
C0U970,大福,2024-08-13,24.80064,121.81389,0.99994254
C0U990,員山,2024-08-13,24.74435,121.72247,0.9999538
C0UA00,土場,2024-08-13,24.576533,121.495333,0.9999262
C0UA80,大溪漁港,2024-08-13,24.941801,121.902955,0.9987454
C0UA90,石城,2024-08-13,24.980444,121.951214,0.9995694
C0UB00,淡江大學蘭陽校園,2024-08-13,24.823239,121.730383,0.9998969
C0UB10,蘇澳,2024-08-13,24.5969,121.8571,0.99996793
C0UB20,壯圍,2024-08-13,24.7359,121.8163,0.9998927
C0V310,美濃,2024-08-13,22.898742,120.519153,0.99989665
C0V350,溪埔,2024-08-13,22.738578,120.446797,0.9997961
C0V360,內門,2024-08-13,22.975481,120.466769,0.9999596
C0V370,古亭坑,2024-08-13,22.893178,120.401947,0.9999287
C0V400,阿公店,2024-08-13,22.804194,120.355528,0.9999023
C0V440,鳳山,2024-08-13,22.646653,120.356122,0.9999942
C0V450,鳳森,2024-08-13,22.545064,120.392592,0.9998501
C0V490,新興,2024-08-13,22.627422,120.298803,0.9999449
C0V530,阿蓮,2024-08-13,22.883208,120.327508,0.99997735
C0V610,梓官,2024-08-13,22.760558,120.267211,0.9999867
C0V620,永安,2024-08-13,22.82315,120.236856,0.99998677
C0V630,茄萣,2024-08-13,22.906642,120.182608,0.999988
C0V640,湖內,2024-08-13,22.887139,120.2445,0.9999897
C0V650,彌陀,2024-08-13,22.783806,120.246361,0.99998677
C0V660,岡山,2024-08-13,22.797078,120.294958,0.9999874
C0V680,仁武,2024-08-13,22.701083,120.347722,0.9999945
C0V690,鼓山,2024-08-13,22.623325,120.275575,0.9999133
C0V700,三民,2024-08-13,22.645017,120.311233,0.99998885
C0V710,苓雅,2024-08-13,22.622742,120.330669,0.9998866
C0V720,林園,2024-08-13,22.507747,120.394511,0.9998985
C0V730,大寮,2024-08-13,22.605614,120.395717,0.9999636
C0V740,旗山,2024-08-13,22.888614,120.483597,0.99989754
C0V750,路竹,2024-08-13,22.854997,120.259439,0.9999914
C0V760,橋頭,2024-08-13,22.757806,120.30575,0.9999875
C0V770,大社,2024-08-13,22.730306,120.346639,0.9999883
C0V790,萬山,2024-08-13,22.905944,120.688056,0.9999737
C0V800,六龜,2024-08-13,22.997889,120.633583,0.99999076
C0V810,左營,2024-08-13,22.67491,120.28491,0.99998885
C0V820,小林,2024-08-13,23.148408,120.63325,0.99996775
C0V840,鳳鼻頭,2024-08-13,22.5083,120.3591,0.99989784
C0V850,蚵仔寮,2024-08-13,22.7256,120.2527,0.9999867
C0V860,南寮,2024-08-13,22.7616,120.2339,0.9999867
C0V870,文安,2024-08-13,22.8025,120.2164,0.99998826
C0V880,興達,2024-08-13,22.8778,120.2127,0.999988
C0V890,前鎮,2024-08-13,22.5718,120.3117,0.9999599
C0V900,汕尾,2024-08-13,22.4782,120.4151,0.9999735
C0W200,湖西,2024-08-13,23.596314,119.67275,0.9990377
C0X050,東河,2024-08-13,23.296598,120.385608,0.99989307
C0X060,下營,2024-08-13,23.22695,120.256261,0.9998186
C0X080,佳里,2024-08-13,23.173039,120.145086,0.99997216
C0X100,臺南市北區,2024-08-13,23.010394,120.194228,0.9999897
C0X110,臺南市南區,2024-08-13,22.961189,120.188378,0.9999909
C0X120,麻豆,2024-08-13,23.183289,120.248611,0.99993324
C0X130,官田,2024-08-13,23.193217,120.315422,0.99991983
C0X140,西港,2024-08-13,23.125608,120.203108,0.9999497
C0X150,安定,2024-08-13,23.102614,120.227839,0.99996483
C0X160,仁德,2024-08-13,22.968258,120.257689,0.9999918
C0X170,關廟,2024-08-13,22.963017,120.327797,0.99999344
C0X180,山上,2024-08-13,23.0757,120.363253,0.9999922
C0X190,安平,2024-08-13,22.993161,120.152181,0.99998796
C0X200,左鎮,2024-08-13,23.056758,120.408522,0.99998283
C0X210,白河,2024-08-13,23.347466,120.414427,0.9999157
C0X220,學甲,2024-08-13,23.230367,120.182187,0.99981683
C0X230,鹽水,2024-08-13,23.272621,120.247641,0.999807
C0X240,關子嶺,2024-08-13,23.331169,120.508025,0.99992293
C0X250,新營,2024-08-13,23.310689,120.316681,0.99955326
C0X260,後壁,2024-08-13,23.366358,120.362326,0.99971044
C0X280,將軍,2024-08-13,23.214999,120.13577,0.99994916
C0X290,北門,2024-08-13,23.267772,120.125481,0.9999457
C0X300,鹿寮,2024-08-13,23.386047,120.477331,0.9999237
C0X320,柳營,2024-08-13,23.253328,120.375253,0.9998965
C0Z020,明里,2024-08-13,23.208717,121.262342,0.9954923
C0Z061,玉里,2024-08-13,23.3215,121.339656,0.99481523
C0Z070,舞鶴,2024-08-13,23.46811,121.37407,0.99847144
C0Z080,富源,2024-08-13,23.587642,121.378225,0.99864274
C0Z100,東華,2024-08-13,23.89525,121.549833,0.99900484
C0Z150,吉安光華,2024-08-13,23.930925,121.595153,0.9989535
C0Z160,鳳林,2024-08-13,23.746114,121.453411,0.99981195
C0Z170,卓溪,2024-08-13,23.3443,121.3029,0.99824154
C0Z180,新城,2024-08-13,24.03946,121.60454,0.99947566
C0Z190,富世,2024-08-13,24.14743,121.6297,0.99989593
C0Z200,萬榮,2024-08-13,23.709219,121.420106,0.9997076
C0Z210,瑞穗,2024-08-13,23.5239,121.39021,0.99777865
C0Z230,和平,2024-08-13,24.30717,121.77007,0.99982244
C0Z270,蕃薯寮,2024-08-13,23.73835,121.540108,0.9993658
C0Z280,德武,2024-08-13,23.47426,121.41071,0.99749154
C0Z300,東里,2024-08-13,23.26853,121.30547,0.9900987
C0Z310,清水斷崖,2024-08-13,24.218294,121.689142,0.99992853
C0Z330,安通山,2024-08-13,23.290728,121.348528,0.99773246
C2A540,四堵,2024-08-13,24.8926,121.745736,0.99866676
C2A560,福山,2024-08-13,24.776203,121.502811,0.9997348
C2A650,火燒寮,2024-08-13,25.002719,121.742892,0.9995263
C2A660,瑞芳,2024-08-13,25.113169,121.801147,0.9984449
C2A880,福隆,2024-08-13,25.017842,121.942083,0.9995672
C2A920,富貴角,2024-08-13,25.263783,121.565258,0.9592902
C2E520,大湖,2024-08-13,24.414939,120.870872,0.9948704
C2E540,後龍,2024-08-13,24.606489,120.783933,0.89961797
C2E540,龍溪,2024-08-13,24.606489,120.783933,0.89961797
C2F000,大肚,2024-08-13,24.15295,120.572117,0.9986876
C2F930,大甲,2024-08-13,24.347667,120.640403,0.98987246
C2F9A0,中竹林,2024-08-13,24.103556,120.751061,0.99948543
C2G640,鹿港,2024-08-13,24.0753,120.430481,0.9955382
C2G840,北斗,2024-08-13,23.877586,120.514222,0.99703413
C2G870,芳苑,2024-08-13,23.922303,120.320025,0.9993798
C2H950,中寮,2024-08-13,23.884447,120.766406,0.9988006
C2M410,馬頭山,2024-08-13,23.324361,120.582017,0.99989367
C2N160,西拉雅風管處,2024-08-13,23.189481,120.335297,0.99992144
C2O810,曾文,2024-08-13,23.219681,120.497328,0.9999573
C2O930,玉井,2024-08-13,23.126042,120.46055,0.9999795
C2O950,安南,2024-08-13,23.076694,120.144861,0.99998695
C2V250,甲仙,2024-08-13,23.080106,120.591758,0.9999626
C2V260,月眉,2024-08-13,22.971003,120.539853,0.99996144
C2W230,畜試所澎湖,2024-08-13,23.628342,119.513206,0.9990925
CAG100,王功漁港,2024-08-13,23.96824,120.32586,0.99932945
CAH030,茶改場竹圍站,2024-08-13,23.860083,120.637528,0.99846035
CAJ050,海口故事園區,2024-08-13,23.57543,120.14121,0.99979436
CAL110,布袋國中,2024-08-13,23.35893,120.18026,0.9998549
CAN130,水試所海水繁養殖中心,2024-08-13,23.120802,120.07968,0.99998534
CAN140,六官養殖協會,2024-08-13,23.22881,120.29962,0.99961007
CAQ030,崎峰國小,2024-08-13,22.42565,120.49521,0.9999749
E2K600,四湖植物園,2024-08-13,23.676986,120.163433,0.9994532
E2P980,林試六龜中心,2024-08-13,22.991703,120.645722,0.9999906
E2S960,林試太麻里2,2024-08-13,22.598014,120.989761,0.9996968
E2S960,林試太麻里2,2024-08-13,22.598,120.99775,0.99969196
E2S980,林試太麻里1,2024-08-13,22.598922,120.980044,0.999731
G2AI50,關渡,2024-08-13,25.11575,121.492,0.9847899
G2F820,農業試驗所,2024-08-13,24.031261,120.688133,0.9976835
G2F820,農試所(霧峰),2024-08-13,24.031261,120.688133,0.9976835
G2L020,農試嘉義分所,2024-08-13,23.485028,120.473806,0.99993855
G2M350,農試溪口農場,2024-08-13,23.58565,120.408111,0.99930596
G2P820,農試鳳山分所,2024-08-13,22.646611,120.356083,0.9999942
K2E360,苗栗農改,2024-08-13,24.495722,120.829111,0.9723916
K2E360,苗栗農改場,2024-08-13,24.495722,120.829111,0.9723916
K2E710,苗改生物防治研究中心,2024-08-13,24.422861,120.871833,0.9939794
K2F750,種苗改良場,2024-08-13,24.225972,120.800917,0.99847674
K2F750,種苗繁殖,2024-08-13,24.225972,120.800917,0.99847674
U2HA50,臺大竹山,2024-08-13,23.756972,120.681556,0.99953455
V2C250,八德合作社,2024-08-13,24.93775,121.266389,0.3933771
V2C260,八德蔬果,2024-08-13,24.978508,121.281819,0.8087883
V2K610,大庄合作社,2024-08-13,23.8068,120.367939,0.99856347
V2K620,麥寮合作社,2024-08-13,23.753836,120.294783,0.99841934
