站號,站名,日期,lat,lon,BLBTSLS
K2F750,種苗繁殖,2024-12-27,24.225972,120.800917,2.2771895e-09
467990,馬祖,2024-12-27,26.169269,119.923419,2.1925341e-07
C2E540,後龍,2024-12-27,24.606489,120.783933,0.027016878
467300,東吉島,2024-12-27,23.25695,119.667467,0.99841684
G2F820,農業試驗所,2024-12-27,24.031261,120.688133,8.317717e-10
467410,臺南,2024-12-27,22.993239,120.204772,0.00018596262
E2S960,林試太麻里2,2024-12-27,22.598014,120.989761,2.107579e-09
72C440,桃園農改,2024-12-27,24.950944,121.030583,0.00050468434
C1H860,瑞岩,2024-12-27,24.123772,121.18345,1.2641037e-08
72G600,臺中農改,2024-12-27,24.003028,120.534389,1.2988529e-09
72N100,臺南農改,2024-12-27,23.0605,120.342194,1.1770343e-08
72T250,花蓮農改,2024-12-27,23.975222,121.563889,7.0599393e-09
467620,蘭嶼,2024-12-27,22.036969,121.558339,0.3549029
K2E360,苗栗農改,2024-12-27,24.495722,120.829111,5.229697e-09
467050,新屋,2024-12-27,25.006744,121.047486,0.3229864
467550,玉山,2024-12-27,23.487614,120.959522,2.9363386e-08
466881,新北,2024-12-27,24.9593,121.52,3.143833e-08
467540,大武,2024-12-27,22.355675,120.903789,7.797575e-06
72Q010,高雄農改,2024-12-27,22.709333,120.525889,2.9862663e-09
U2H480,臺大溪頭,2024-12-27,23.670306,120.798194,4.371643e-09
B2N890,畜試所,2024-12-27,23.058972,120.336406,1.1770343e-08
467441,高雄,2024-12-27,22.7304,120.3125,0.065575
