站號,站名,日期,lat,lon,BlastGRU-TW
12J990,口湖工作站,2024-07-19,23.589978,120.180394,0.36482882
12Q970,東港工作站,2024-07-19,22.479997,120.466058,0.18661207
12Q980,恆春工作站,2024-07-19,22.079678,120.714425,0.059531976
466881,新北,2024-07-19,24.9593,121.52,0.056989297
466900,淡水,2024-07-19,25.164889,121.448906,0.205926
466920,臺北,2024-07-19,25.037658,121.514853,0.050935254
466940,基隆,2024-07-19,25.133314,121.740475,0.10149731
466990,花蓮,2024-07-19,23.975128,121.613275,0.11675829
467050,新屋,2024-07-19,25.006744,121.047486,0.68119067
467080,宜蘭,2024-07-19,24.763975,121.756528,0.0368148
467270,田中,2024-07-19,23.873803,120.581286,0.098315604
467280,後龍,2024-07-19,24.648563,120.831834,0.7997523
467300,東吉島,2024-07-19,23.25695,119.667467,0.71226
467350,澎湖,2024-07-19,23.565503,119.563094,0.75993216
467410,臺南,2024-07-19,22.993239,120.204772,0.17070566
467420,永康,2024-07-19,23.038386,120.2367,0.1383941
467441,高雄,2024-07-19,22.7304,120.3125,0.15802617
467480,嘉義,2024-07-19,23.495925,120.432906,0.13429691
467490,臺中,2024-07-19,24.145736,120.684075,0.17138363
467540,大武,2024-07-19,22.355675,120.903789,0.13979103
467571,新竹,2024-07-19,24.827853,121.014219,0.6036532
467590,恆春,2024-07-19,22.003897,120.746339,0.10183846
467610,成功,2024-07-19,23.097486,121.373428,0.17042443
467620,蘭嶼,2024-07-19,22.036969,121.558339,0.9888329
467660,臺東,2024-07-19,22.752211,121.154586,0.39433277
467790,墾丁雷達站,2024-07-19,21.948235,120.808028,0.13546109
72AI40,桃改樹林分場,2024-07-19,24.944503,121.386972,0.07016882
72C440,桃園農改,2024-07-19,24.950944,121.030583,0.6823966
72C440,桃園農改場,2024-07-19,24.950944,121.030583,0.6823966
72D680,桃改新埔分場,2024-07-19,24.834444,121.066111,0.62185806
72G600,臺中農改,2024-07-19,24.003028,120.534389,0.16574441
72G600,臺中農改場,2024-07-19,24.003028,120.534389,0.16574433
72K220,南改斗南分場,2024-07-19,23.634556,120.477333,0.15831585
72M360,南改義竹分場,2024-07-19,23.360694,120.279361,0.20141833
72M700,南改鹿草分場,2024-07-19,23.416869,120.283061,0.1658928
72N100,臺南農改,2024-07-19,23.0605,120.342194,0.11535994
72N100,臺南農改場,2024-07-19,23.0605,120.342194,0.11535994
72N240,七股研究中心,2024-07-19,23.081672,120.062894,0.18707252
72Q010,高雄農改,2024-07-19,22.709333,120.525889,0.12361728
72Q010,高雄農改場,2024-07-19,22.709333,120.525889,0.12361745
72S200,東改班鳩分場,2024-07-19,22.829528,121.077694,0.6602418
72S590,東改賓朗果園,2024-07-19,22.813889,121.071278,0.56305873
72T250,花蓮農改,2024-07-19,23.975222,121.563889,0.18121551
72T250,花蓮農改場,2024-07-19,23.975222,121.563889,0.18121551
72U480,花改蘭陽分場,2024-07-19,24.686306,121.716583,0.047081117
72V140,高改旗南分場,2024-07-19,22.857861,120.516667,0.102585934
82A750,茶改北部分場,2024-07-19,24.955778,121.631222,0.037313826
82C160,茶改場,2024-07-19,24.908472,121.185333,0.22399293
82H840,茶改南部分場,2024-07-19,23.762528,120.7405,0.29396006
82S580,茶改東部分場,2024-07-19,22.907694,121.130139,0.34552932
A2C560,農工中心,2024-07-19,24.985917,121.239833,0.15183787
A2K360,水試臺西試驗場,2024-07-19,23.717231,120.190522,0.37040782
A2K570,古坑花卉中心,2024-07-19,23.63353,120.55239,0.10575699
A2K630,臺大雲林校區,2024-07-19,23.730628,120.423903,0.200134
A2N290,臺南蘭花園區,2024-07-19,23.340258,120.379661,0.13730158
B2E890,畜試北區分所,2024-07-19,24.527806,120.770972,0.7147087
B2N890,畜產試驗所,2024-07-19,23.058972,120.336406,0.1153581
B2N890,畜試所,2024-07-19,23.058972,120.336406,0.1153581
B2Q810,畜試南區分所,2024-07-19,21.945583,120.802167,0.12582211
B2U990,畜試東區分所,2024-07-19,24.669039,121.832561,0.094842404
C0A520,山佳,2024-07-19,24.974944,121.402008,0.081916645
C0A530,坪林,2024-07-19,24.938183,121.70975,0.08531286
C0A550,泰平,2024-07-19,24.971197,121.823711,0.048179086
C0A570,桶後,2024-07-19,24.848222,121.597992,0.06367928
C0A640,石碇,2024-07-19,24.993969,121.662917,0.07790639
C0A770,科教館,2024-07-19,25.096356,121.516507,0.06564082
C0A860,大坪,2024-07-19,25.165914,121.632969,0.1735507
C0A890,雙溪,2024-07-19,25.036003,121.864242,0.12561607
C0A931,三和,2024-07-19,25.233153,121.595236,0.12123725
C0A940,金山,2024-07-19,25.223628,121.643967,0.16528118
C0A950,鼻頭角,2024-07-19,25.129036,121.923372,0.15739547
C0A970,三貂角,2024-07-19,25.007606,122.002058,0.08747423
C0A980,社子,2024-07-19,25.109508,121.469681,0.14799638
C0A9C0,天母,2024-07-19,25.117494,121.537169,0.097637214
C0A9F0,內湖,2024-07-19,25.079422,121.57545,0.076300085
C0AC60,三峽,2024-07-19,24.939025,121.369728,0.070480175
C0AC70,信義,2024-07-19,25.037822,121.564597,0.053616226
C0AC80,文山,2024-07-19,25.00235,121.575728,0.06482779
C0ACA0,新莊,2024-07-19,25.051478,121.446756,0.07113437
C0AD10,八里,2024-07-19,25.150211,121.403947,0.22968799
C0AD30,蘆洲,2024-07-19,25.086594,121.472331,0.06546259
C0AD40,土城,2024-07-19,24.973208,121.445169,0.06257501
C0AD50,鶯歌,2024-07-19,24.951533,121.346294,0.0707504
C0AG80,中和,2024-07-19,24.991622,121.491792,0.058474857
C0AH00,汐止,2024-07-19,25.066881,121.658778,0.058635913
C0AH10,永和,2024-07-19,25.01125,121.508111,0.05848279
C0AH40,平等,2024-07-19,25.129142,121.577086,0.27257845
C0AH50,林口,2024-07-19,25.072181,121.38084,0.1871505
C0AH70,松山,2024-07-19,25.04871,121.55042,0.053616226
C0AH80,深坑,2024-07-19,25.002703,121.628328,0.06963979
C0AI00,五股,2024-07-19,25.07445,121.42728,0.11372665
C0AI10,屈尺,2024-07-19,24.92184,121.54475,0.06421781
C0AI20,白沙灣,2024-07-19,25.283128,121.519058,0.2542051
C0AI30,三重,2024-07-19,25.057328,121.500629,0.050935913
C0AI40,石牌,2024-07-19,25.115597,121.513139,0.08115013
C0AJ20,野柳,2024-07-19,25.20703,121.690021,0.114658095
C0AJ30,淡水觀海,2024-07-19,25.184591,121.408616,0.13576964
C0AJ40,石門,2024-07-19,25.273672,121.601198,0.23651256
C0AJ50,水湳洞,2024-07-19,25.123695,121.862238,0.07780883
C0AJ60,六塊厝,2024-07-19,25.24,121.4481,0.24328548
C0AJ70,田寮,2024-07-19,25.2698,121.4886,0.25003177
C0AJ80,板橋,2024-07-19,25.0107,121.4489,0.06995255
C0AJ90,澳底,2024-07-19,25.0552,121.9253,0.12550972
C0B010,七堵,2024-07-19,25.094819,121.71713,0.0668538
C0B020,基隆嶼,2024-07-19,25.19141,121.78391,0.08433391
C0B040,大武崙,2024-07-19,25.166676,121.706993,0.11922061
C0B050,八斗子,2024-07-19,25.144754,121.79167,0.098618686
C0B060,暖暖,2024-07-19,25.0957,121.7403,0.06445485
C0C460,復興,2024-07-19,24.820208,121.352281,0.909254
C0C480,桃園,2024-07-19,24.992425,121.323172,0.09184765
C0C490,八德,2024-07-19,24.928708,121.283289,0.07763295
C0C590,觀音,2024-07-19,25.027072,121.153317,0.70728314
C0C620,蘆竹,2024-07-19,25.084275,121.265767,0.27734143
C0C630,大溪,2024-07-19,24.882853,121.265547,0.09982127
C0C650,平鎮,2024-07-19,24.897503,121.214636,0.13156839
C0C660,楊梅,2024-07-19,24.912375,121.143047,0.18661916
C0C670,龍潭,2024-07-19,24.870056,121.221389,0.11056071
C0C680,龜山,2024-07-19,25.02846,121.38656,0.17355031
C0C700,中壢,2024-07-19,24.977661,121.256375,0.09211397
C0C710,大溪永福,2024-07-19,24.892936,121.324975,0.10176669
C0C720,竹圍,2024-07-19,25.112692,121.239824,0.18375812
C0C730,中大臨海站,2024-07-19,24.966126,121.008581,0.6979833
C0C740,觀音工業區,2024-07-19,25.064764,121.114856,0.68999386
C0C750,新興坑尾,2024-07-19,25.0061,121.0971,0.6539065
C0D430,峨眉,2024-07-19,24.6905,121.017189,0.6493494
C0D480,打鐵坑,2024-07-19,24.849664,121.150789,0.13177454
C0D540,橫山,2024-07-19,24.71116,121.11693,0.2820306
C0D560,竹東,2024-07-19,24.767147,121.057881,0.20347317
C0D580,寶山,2024-07-19,24.735006,121.025192,0.29599845
C0D590,新豐,2024-07-19,24.87068,120.97721,0.88760704
C0D650,湖口,2024-07-19,24.904794,121.043628,0.66416484
C0D660,新竹市東區,2024-07-19,24.798681,120.986942,0.57177734
C0D670,海天一線,2024-07-19,24.831986,120.914438,0.8802062
C0D680,香山濕地,2024-07-19,24.783581,120.914988,0.60427165
C0D690,外湖,2024-07-19,24.917735,120.968711,0.6687362
C0D700,關西,2024-07-19,24.7977,121.1732,0.18295477
C0E420,竹南,2024-07-19,24.708978,120.888897,0.8631762
C0E430,南庄,2024-07-19,24.601775,121.000214,0.76387525
C0E550,明德,2024-07-19,24.583486,120.885411,0.70385325
C0E590,通霄,2024-07-19,24.471892,120.704622,0.5990787
C0E730,頭份,2024-07-19,24.688247,120.912206,0.85097176
C0E740,造橋,2024-07-19,24.637056,120.864778,0.78313905
C0E750,苗栗,2024-07-19,24.564569,120.824575,0.6837954
C0E780,銅鑼,2024-07-19,24.489681,120.790853,0.68524945
C0E791,卓蘭,2024-07-19,24.3126,120.8244,0.36736014
C0E810,西湖,2024-07-19,24.562947,120.7485,0.82878816
C0E820,獅潭,2024-07-19,24.539133,120.920042,0.77246106
C0E830,苑裡,2024-07-19,24.439714,120.653053,0.5425075
C0E850,大河,2024-07-19,24.618069,120.948578,0.62128526
C0E870,高鐵苗栗,2024-07-19,24.60725,120.826094,0.7784111
C0E910,海埔,2024-07-19,24.648767,120.772435,0.80810225
C0E920,通霄漁港,2024-07-19,24.498589,120.673876,0.6119069
C0E930,龍鳳,2024-07-19,24.700034,120.859125,0.85614616
C0F0B0,石岡,2024-07-19,24.276061,120.777644,0.4287893
C0F850,東勢,2024-07-19,24.246428,120.833047,0.30899534
C0F970,大坑,2024-07-19,24.173142,120.722289,0.1501755
C0F9I0,神岡,2024-07-19,24.272481,120.658314,0.37589207
C0F9K0,大安,2024-07-19,24.345061,120.588025,0.48095804
C0F9L0,后里,2024-07-19,24.310436,120.729725,0.40896398
C0F9M0,豐原,2024-07-19,24.254322,120.720692,0.3757293
C0F9N0,大里,2024-07-19,24.092464,120.701378,0.12565815
C0F9O0,潭子,2024-07-19,24.213106,120.703933,0.26536006
C0F9P0,清水,2024-07-19,24.312297,120.562242,0.40575546
C0F9Q0,外埔,2024-07-19,24.347817,120.705686,0.43190494
C0F9R0,龍井,2024-07-19,24.184536,120.528972,0.37277395
C0F9S0,烏日,2024-07-19,24.107058,120.624103,0.13760634
C0F9T0,西屯,2024-07-19,24.179494,120.641275,0.24007444
C0F9U0,南屯,2024-07-19,24.137006,120.637969,0.20890282
C0F9X0,大雅(中科園區),2024-07-19,24.21528,120.62445,0.2933935
C0FA10,松柏,2024-07-19,24.429115,120.617482,0.5451491
C0FA20,溫寮,2024-07-19,24.372177,120.583125,0.47658122
C0FA30,梧棲,2024-07-19,24.256003,120.523381,0.3986762
C0FA40,臺中電廠,2024-07-19,24.2146,120.4907,0.3749095
C0FA50,霧峰,2024-07-19,24.0419,120.6995,0.09440177
C0G620,芬園,2024-07-19,24.015678,120.6213,0.09773972
C0G650,員林,2024-07-19,23.946503,120.585597,0.1178129
C0G660,溪湖,2024-07-19,23.94835,120.479122,0.21977563
C0G720,溪州,2024-07-19,23.851589,120.499093,0.2205995
C0G730,二林,2024-07-19,23.903325,120.376081,0.4029058
C0G740,大城,2024-07-19,23.852487,120.320935,0.47953042
C0G770,福興,2024-07-19,24.041289,120.437669,0.3803478
C0G780,秀水,2024-07-19,24.03405,120.503869,0.20404972
C0G800,埔鹽,2024-07-19,24.000394,120.431683,0.36086202
C0G810,埔心,2024-07-19,23.947633,120.525456,0.22162488
C0G820,田尾,2024-07-19,23.901669,120.509389,0.22273028
C0G830,埤頭,2024-07-19,23.866003,120.452806,0.2833518
C0G860,社頭,2024-07-19,23.897647,120.5862,0.12625435
C0G880,二水,2024-07-19,23.810742,120.6173,0.07686731
C0G890,伸港,2024-07-19,24.148933,120.484403,0.3463406
C0G900,線西,2024-07-19,24.143358,120.443536,0.38938957
C0G910,花壇,2024-07-19,24.032076,120.549461,0.21781543
C0G920,永靖,2024-07-19,23.924703,120.547533,0.18528827
C0G940,竹塘,2024-07-19,23.848253,120.386764,0.39750883
C0G950,防潮門,2024-07-19,24.1835,120.4871,0.37277395
C0G960,福寶,2024-07-19,24.0443,120.3814,0.42154267
C0G970,三豐,2024-07-19,23.882,120.2895,0.51314
C0H890,埔里,2024-07-19,23.972169,120.952425,0.06751983
C0H960,草屯,2024-07-19,23.973672,120.68085,0.06287263
C0I110,竹山,2024-07-19,23.761225,120.688156,0.11648746
C0I360,水里,2024-07-19,23.812553,120.849792,0.07001733
C0I380,集集,2024-07-19,23.828206,120.801467,0.09601527
C0I410,名間,2024-07-19,23.837053,120.701447,0.067986436
C0I420,國姓,2024-07-19,24.037803,120.855072,0.15784794
C0I460,南投,2024-07-19,23.911469,120.687331,0.055647533
C0K250,崙背,2024-07-19,23.75555,120.318925,0.25034326
C0K280,四湖,2024-07-19,23.630414,120.227125,0.31855392
C0K291,宜梧,2024-07-19,23.536281,120.169329,0.26232135
C0K330,虎尾,2024-07-19,23.719183,120.442036,0.16449961
C0K390,土庫,2024-07-19,23.679029,120.395574,0.20082511
C0K400,斗六,2024-07-19,23.720583,120.541127,0.109964594
C0K410,北港,2024-07-19,23.573957,120.292802,0.21331054
C0K420,西螺,2024-07-19,23.800407,120.467394,0.29979438
C0K430,褒忠,2024-07-19,23.690938,120.303634,0.2341475
C0K440,二崙,2024-07-19,23.772797,120.408944,0.2153363
C0K450,大埤,2024-07-19,23.646074,120.431537,0.16922106
C0K460,斗南,2024-07-19,23.678734,120.478359,0.1541732
C0K470,林內,2024-07-19,23.748675,120.609642,0.0744676
C0K480,莿桐,2024-07-19,23.761192,120.502372,0.11442898
C0K500,元長,2024-07-19,23.64981,120.315024,0.20812967
C0K510,水林,2024-07-19,23.572924,120.24597,0.24451765
C0K530,臺西,2024-07-19,23.701547,120.197559,0.37264282
C0K550,蔦松,2024-07-19,23.514319,120.229736,0.25014952
C0K560,棋山,2024-07-19,23.68645,120.603417,0.12980388
C0K580,高鐵雲林,2024-07-19,23.737456,120.417944,0.20013377
C0K590,雲林東勢,2024-07-19,23.674192,120.255721,0.23324427
C0K600,箔子寮,2024-07-19,23.6197,120.14,0.40808117
C0M520,東後寮,2024-07-19,23.369908,120.248065,0.20131753
C0M640,中埔,2024-07-19,23.42538,120.5229,0.13071428
C0M650,朴子,2024-07-19,23.43463,120.23902,0.2134243
C0M660,溪口,2024-07-19,23.604131,120.403569,0.1808929
C0M670,大林,2024-07-19,23.600616,120.45841,0.15185475
C0M680,太保,2024-07-19,23.455062,120.331455,0.17026325
C0M690,水上,2024-07-19,23.419734,120.388909,0.14702985
C0M700,竹崎,2024-07-19,23.526178,120.555508,0.109479465
C0M710,東石,2024-07-19,23.458927,120.15385,0.33006188
C0M720,番路,2024-07-19,23.464657,120.554156,0.144851
C0M730,嘉義市東區,2024-07-19,23.457673,120.460531,0.13489905
C0M740,六腳,2024-07-19,23.492871,120.290625,0.1878914
C0M750,布袋,2024-07-19,23.380878,120.167789,0.23508082
C0M760,民雄,2024-07-19,23.551754,120.428457,0.14377666
C0M770,嘉義梅山,2024-07-19,23.585398,120.555587,0.15564847
C0M780,鹿草,2024-07-19,23.41134,120.30835,0.16695145
C0M790,新港,2024-07-19,23.553269,120.345728,0.17624855
C0M800,茶山,2024-07-19,23.299075,120.664767,0.30234307
C0M880,好美里,2024-07-19,23.3364,120.138,0.2446909
C0N010,鯤鯓國小,2024-07-19,23.1879,120.0889,0.19155131
C0N020,城西,2024-07-19,23.0568,120.0956,0.15316552
C0N030,四草,2024-07-19,23.0235,120.1116,0.15744582
C0N040,蘆竹溝,2024-07-19,23.2344,120.0961,0.17786728
C0N050,蚵寮,2024-07-19,23.301,120.1104,0.22343875
C0O830,北寮,2024-07-19,23.079561,120.495008,0.101483524
C0O840,王爺宮,2024-07-19,23.222064,120.40085,0.105469726
C0O860,大內,2024-07-19,23.11885,120.36083,0.12407917
C0O900,善化,2024-07-19,23.112883,120.297219,0.114003465
C0O960,崎頂,2024-07-19,22.959547,120.369317,0.109039
C0O970,虎頭埤,2024-07-19,23.021375,120.347878,0.10360231
C0O980,新市,2024-07-19,23.061614,120.298197,0.109432876
C0O990,媽廟,2024-07-19,22.99175,120.293525,0.12226457
C0R150,三地門,2024-07-19,22.709889,120.639944,0.1498203
C0R160,鹽埔,2024-07-19,22.739558,120.530778,0.12396524
C0R170,屏東,2024-07-19,22.660269,120.494072,0.16897881
C0R190,赤山,2024-07-19,22.592333,120.614306,0.1742822
C0R220,潮州,2024-07-19,22.534361,120.54,0.15606363
C0R240,來義,2024-07-19,22.527306,120.625111,0.18769632
C0R260,春日,2024-07-19,22.370361,120.628306,0.083876505
C0R270,琉球嶼,2024-07-19,22.332244,120.362236,0.27984187
C0R280,檳榔,2024-07-19,22.076078,120.836777,0.09422817
C0R320,車城,2024-07-19,22.0744,120.716247,0.059531976
C0R341,牡丹,2024-07-19,22.130036,120.792639,0.09287066
C0R350,貓鼻頭,2024-07-19,21.921774,120.7358,0.19850823
C0R470,高樹,2024-07-19,22.826389,120.600806,0.088973135
C0R480,長治,2024-07-19,22.693128,120.542622,0.10926139
C0R490,九如,2024-07-19,22.7405,120.490503,0.12333233
C0R520,崁頂,2024-07-19,22.514781,120.506914,0.1488139
C0R540,佳冬,2024-07-19,22.419456,120.552375,0.07352202
C0R550,新埤,2024-07-19,22.467947,120.582894,0.22820677
C0R560,新園,2024-07-19,22.5434,120.461558,0.12252533
C0R570,麟洛,2024-07-19,22.65078,120.52719,0.16897881
C0R580,南州,2024-07-19,22.48591,120.50274,0.18394794
C0R590,里港,2024-07-19,22.77919,120.49459,0.09302976
C0R620,墾雷,2024-07-19,21.900836,120.855269,0.29751095
C0R640,東港,2024-07-19,22.46247,120.44074,0.1824216
C0R650,竹田,2024-07-19,22.58486,120.54344,0.1843133
C0R660,枋寮,2024-07-19,22.367722,120.590647,0.07820706
C0R670,楓港,2024-07-19,22.190131,120.692156,0.06668156
C0R680,佳樂水,2024-07-19,21.993578,120.861633,0.12662898
C0R690,墾丁,2024-07-19,21.966756,120.810269,0.19106835
C0R700,枋山,2024-07-19,22.246844,120.661086,0.0827429
C0R710,龍磐,2024-07-19,21.931672,120.838942,0.2411411
C0R720,旭海,2024-07-19,22.205403,120.887614,0.16417764
C0R730,大坪頂,2024-07-19,22.024633,120.69355,0.08425631
C0R740,獅子,2024-07-19,22.201569,120.70525,0.10270687
C0R760,南仁湖,2024-07-19,22.084681,120.863353,0.09503636
C0R770,保力,2024-07-19,22.071122,120.764111,0.07235174
C0R780,滿州,2024-07-19,22.024403,120.839892,0.10656284
C0R790,九棚,2024-07-19,22.14195,120.889281,0.10205682
C0R800,丹路,2024-07-19,22.204481,120.750989,0.1077005
C0R810,內獅,2024-07-19,22.305064,120.642986,0.07139217
C0R830,高士,2024-07-19,22.121825,120.836781,0.114475474
C0R850,林邊,2024-07-19,22.4634,120.5339,0.17877822
C0R860,鼻頭,2024-07-19,22.1043,120.8979,0.057090133
C0R870,興海,2024-07-19,21.9752,120.8439,0.12582211
C0R880,後壁湖,2024-07-19,21.9457,120.7457,0.09947323
C0R890,山海,2024-07-19,21.9878,120.7091,0.100055814
C0R900,竹坑,2024-07-19,22.1385,120.7022,0.059753574
C0R910,下寮,2024-07-19,22.3929,120.5548,0.073687665
C0R920,塭仔,2024-07-19,22.4169,120.5197,0.07246472
C0R930,萬丹,2024-07-19,22.5885,120.4851,0.13763364
C0R940,加祿堂,2024-07-19,22.3363,120.6217,0.0665124
C0S710,鹿野,2024-07-19,22.917711,121.122994,0.3086372
C0S730,綠島,2024-07-19,22.6672,121.47533,0.94227004
C0S740,池上,2024-07-19,23.119628,121.209469,0.23675026
C0S770,大溪山,2024-07-19,22.478475,120.943325,0.3312823
C0S790,金崙,2024-07-19,22.538122,120.966875,0.39576295
C0S810,東河,2024-07-19,22.972672,121.303986,0.25973445
C0S830,長濱,2024-07-19,23.286817,121.411975,0.11897711
C0S840,南田,2024-07-19,22.279725,120.889208,0.19650191
C0S890,關山,2024-07-19,23.0395,121.175017,0.20723295
C0S900,蘭嶼高中,2024-07-19,22.04909,121.51214,0.9564046
C0S910,蘭嶼燈塔,2024-07-19,22.081197,121.503117,0.98833674
C0S920,金峰嘉蘭,2024-07-19,22.594789,120.960825,0.55196255
C0S930,延平,2024-07-19,22.902581,121.084058,0.6214616
C0S940,石寧山,2024-07-19,23.223772,121.406639,0.0910972
C0S950,七塊厝,2024-07-19,22.954453,121.229922,0.35446912
C0S960,香蘭,2024-07-19,22.587569,120.993375,0.20956881
C0S970,加津林,2024-07-19,22.416211,120.926942,0.21569917
C0S990,山豬窟,2024-07-19,22.318619,120.857372,0.26544863
C0SA00,歷坵,2024-07-19,22.520969,120.89185,0.68301755
C0SA10,檳榔四格山,2024-07-19,22.810031,121.109308,0.43837968
C0SA30,都歷,2024-07-19,23.020333,121.323642,0.13772178
C0SA40,瑞和,2024-07-19,22.974361,121.156697,0.25782
C0SA60,知本（水試所）,2024-07-19,22.702394,121.082761,0.18562198
C0SA80,土坂,2024-07-19,22.453108,120.887572,0.27441463
C0SA90,達仁林場,2024-07-19,22.264347,120.823972,0.18606248
C0T870,鯉魚潭,2024-07-19,23.935639,121.508944,0.1925168
C0T900,西林,2024-07-19,23.8119,121.441458,0.17227775
C0T960,光復,2024-07-19,23.660694,121.424964,0.15542074
C0T9A0,月眉山,2024-07-19,23.809928,121.539828,0.14740358
C0T9D0,和中,2024-07-19,24.26676,121.74103,0.18682322
C0T9E0,大坑,2024-07-19,23.880628,121.581981,0.14996694
C0T9F0,水璉,2024-07-19,23.797131,121.542514,0.14098729
C0T9I0,豐濱,2024-07-19,23.583897,121.514806,0.14640993
C0T9M0,靜浦,2024-07-19,23.455167,121.495028,0.0961995
C0T9N0,富里,2024-07-19,23.171639,121.249378,0.37164417
C0U600,礁溪,2024-07-19,24.817539,121.765608,0.031417426
C0U650,玉蘭,2024-07-19,24.675286,121.587061,0.8047809
C0U750,龜山島,2024-07-19,24.841667,121.953133,0.4027151
C0U760,東澳,2024-07-19,24.52196,121.83318,0.11590577
C0U770,南澳,2024-07-19,24.44935,121.81022,0.15434071
C0U780,五結,2024-07-19,24.68637,121.79794,0.057060055
C0U860,頭城,2024-07-19,24.85323,121.8308,0.05102407
C0U870,大礁溪,2024-07-19,24.791042,121.675047,0.03334846
C0U880,北關,2024-07-19,24.9072,121.8734,0.09098295
C0U890,三星,2024-07-19,24.66812,121.65302,0.20405175
C0U900,內城,2024-07-19,24.71813,121.68766,0.047023166
C0U910,冬山,2024-07-19,24.63373,121.7937,0.094842404
C0U940,羅東,2024-07-19,24.68184,121.74934,0.050550904
C0U970,大福,2024-07-19,24.80064,121.81389,0.048035465
C0U990,員山,2024-07-19,24.74435,121.72247,0.037966244
C0UA00,土場,2024-07-19,24.576533,121.495333,0.51083314
C0UA80,大溪漁港,2024-07-19,24.941801,121.902955,0.07488459
C0UA90,石城,2024-07-19,24.980444,121.951214,0.09424782
C0UB00,淡江大學蘭陽校園,2024-07-19,24.823239,121.730383,0.037359413
C0UB10,蘇澳,2024-07-19,24.5969,121.8571,0.06106101
C0UB20,壯圍,2024-07-19,24.7359,121.8163,0.052383356
C0V310,美濃,2024-07-19,22.898742,120.519153,0.0919307
C0V350,溪埔,2024-07-19,22.738578,120.446797,0.104265064
C0V360,內門,2024-07-19,22.975481,120.466769,0.07017446
C0V370,古亭坑,2024-07-19,22.893178,120.401947,0.100245304
C0V400,阿公店,2024-07-19,22.804194,120.355528,0.10791743
C0V440,鳳山,2024-07-19,22.646653,120.356122,0.19788451
C0V450,鳳森,2024-07-19,22.545064,120.392592,0.13082927
C0V490,新興,2024-07-19,22.627422,120.298803,0.15547653
C0V530,阿蓮,2024-07-19,22.883208,120.327508,0.121940546
C0V610,梓官,2024-07-19,22.760558,120.267211,0.1605312
C0V620,永安,2024-07-19,22.82315,120.236856,0.1543196
C0V630,茄萣,2024-07-19,22.906642,120.182608,0.17099807
C0V640,湖內,2024-07-19,22.887139,120.2445,0.16050334
C0V650,彌陀,2024-07-19,22.783806,120.246361,0.16004698
C0V660,岡山,2024-07-19,22.797078,120.294958,0.14352709
C0V680,仁武,2024-07-19,22.701083,120.347722,0.21163096
C0V690,鼓山,2024-07-19,22.623325,120.275575,0.15128355
C0V700,三民,2024-07-19,22.645017,120.311233,0.20884249
C0V710,苓雅,2024-07-19,22.622742,120.330669,0.15288274
C0V720,林園,2024-07-19,22.507747,120.394511,0.15629154
C0V730,大寮,2024-07-19,22.605614,120.395717,0.14324741
C0V740,旗山,2024-07-19,22.888614,120.483597,0.09239271
C0V750,路竹,2024-07-19,22.854997,120.259439,0.16380803
C0V760,橋頭,2024-07-19,22.757806,120.30575,0.14523374
C0V770,大社,2024-07-19,22.730306,120.346639,0.1545489
C0V790,萬山,2024-07-19,22.905944,120.688056,0.81533355
C0V800,六龜,2024-07-19,22.997889,120.633583,0.08286047
C0V810,左營,2024-07-19,22.67491,120.28491,0.20884249
C0V820,小林,2024-07-19,23.148408,120.63325,0.17622323
C0V840,鳳鼻頭,2024-07-19,22.5083,120.3591,0.12344303
C0V850,蚵仔寮,2024-07-19,22.7256,120.2527,0.15915309
C0V860,南寮,2024-07-19,22.7616,120.2339,0.15915309
C0V870,文安,2024-07-19,22.8025,120.2164,0.16764143
C0V880,興達,2024-07-19,22.8778,120.2127,0.1701705
C0V890,前鎮,2024-07-19,22.5718,120.3117,0.15709476
C0V900,汕尾,2024-07-19,22.4782,120.4151,0.18661207
C0W200,湖西,2024-07-19,23.596314,119.67275,0.800227
C0X050,東河,2024-07-19,23.296598,120.385608,0.13173105
C0X060,下營,2024-07-19,23.22695,120.256261,0.11017392
C0X080,佳里,2024-07-19,23.173039,120.145086,0.17744988
C0X100,臺南市北區,2024-07-19,23.010394,120.194228,0.16884047
C0X110,臺南市南區,2024-07-19,22.961189,120.188378,0.14716782
C0X120,麻豆,2024-07-19,23.183289,120.248611,0.10401438
C0X130,官田,2024-07-19,23.193217,120.315422,0.0979471
C0X140,西港,2024-07-19,23.125608,120.203108,0.12795614
C0X150,安定,2024-07-19,23.102614,120.227839,0.13610464
C0X160,仁德,2024-07-19,22.968258,120.257689,0.1397357
C0X170,關廟,2024-07-19,22.963017,120.327797,0.107726075
C0X180,山上,2024-07-19,23.0757,120.363253,0.13650939
C0X190,安平,2024-07-19,22.993161,120.152181,0.15844826
C0X200,左鎮,2024-07-19,23.056758,120.408522,0.0891362
C0X210,白河,2024-07-19,23.347466,120.414427,0.111052945
C0X220,學甲,2024-07-19,23.230367,120.182187,0.15101123
C0X230,鹽水,2024-07-19,23.272621,120.247641,0.16363159
C0X240,關子嶺,2024-07-19,23.331169,120.508025,0.13042562
C0X250,新營,2024-07-19,23.310689,120.316681,0.1315792
C0X260,後壁,2024-07-19,23.366358,120.362326,0.13730158
C0X280,將軍,2024-07-19,23.214999,120.13577,0.1683809
C0X290,北門,2024-07-19,23.267772,120.125481,0.17786735
C0X300,鹿寮,2024-07-19,23.386047,120.477331,0.118289284
C0X320,柳營,2024-07-19,23.253328,120.375253,0.10279631
C0Z020,明里,2024-07-19,23.208717,121.262342,0.18974802
C0Z061,玉里,2024-07-19,23.3215,121.339656,0.12226795
C0Z070,舞鶴,2024-07-19,23.46811,121.37407,0.15926684
C0Z080,富源,2024-07-19,23.587642,121.378225,0.22246605
C0Z100,東華,2024-07-19,23.89525,121.549833,0.14624797
C0Z150,吉安光華,2024-07-19,23.930925,121.595153,0.109442055
C0Z160,鳳林,2024-07-19,23.746114,121.453411,0.16876507
C0Z170,卓溪,2024-07-19,23.3443,121.3029,0.13893309
C0Z180,新城,2024-07-19,24.03946,121.60454,0.105181985
C0Z190,富世,2024-07-19,24.14743,121.6297,0.52202725
C0Z200,萬榮,2024-07-19,23.709219,121.420106,0.1290493
C0Z210,瑞穗,2024-07-19,23.5239,121.39021,0.18099585
C0Z230,和平,2024-07-19,24.30717,121.77007,0.13849524
C0Z270,蕃薯寮,2024-07-19,23.73835,121.540108,0.11307922
C0Z280,德武,2024-07-19,23.47426,121.41071,0.13761146
C0Z300,東里,2024-07-19,23.26853,121.30547,0.13834035
C0Z310,清水斷崖,2024-07-19,24.218294,121.689142,0.99373114
C0Z330,安通山,2024-07-19,23.290728,121.348528,0.18654126
C2E520,大湖,2024-07-19,24.414939,120.870872,0.8089294
C2E540,後龍,2024-07-19,24.606489,120.783933,0.79603404
C2E540,龍溪,2024-07-19,24.606489,120.783933,0.79603404
C2F000,大肚,2024-07-19,24.15295,120.572117,0.21923165
C2F930,大甲,2024-07-19,24.347667,120.640403,0.51469547
C2F9A0,中竹林,2024-07-19,24.103556,120.751061,0.08820593
C2G640,鹿港,2024-07-19,24.0753,120.430481,0.38269433
C2G840,北斗,2024-07-19,23.877586,120.514222,0.25045797
C2G870,芳苑,2024-07-19,23.922303,120.320025,0.5704684
C2H950,中寮,2024-07-19,23.884447,120.766406,0.0825855
C2M410,馬頭山,2024-07-19,23.324361,120.582017,0.3215271
C2N160,西拉雅風管處,2024-07-19,23.189481,120.335297,0.09843551
C2O810,曾文,2024-07-19,23.219681,120.497328,0.09106446
C2O930,玉井,2024-07-19,23.126042,120.46055,0.10159795
C2O950,安南,2024-07-19,23.076694,120.144861,0.18261936
C2V250,甲仙,2024-07-19,23.080106,120.591758,0.089130566
C2V260,月眉,2024-07-19,22.971003,120.539853,0.11500358
C2W230,畜試所澎湖,2024-07-19,23.628342,119.513206,0.76298904
CAG100,王功漁港,2024-07-19,23.96824,120.32586,0.5988262
CAH030,茶改場竹圍站,2024-07-19,23.860083,120.637528,0.0462909
CAJ050,海口故事園區,2024-07-19,23.57543,120.14121,0.40849897
CAL110,布袋國中,2024-07-19,23.35893,120.18026,0.22557706
CAN130,水試所海水繁養殖中心,2024-07-19,23.120802,120.07968,0.18707252
CAN140,六官養殖協會,2024-07-19,23.22881,120.29962,0.104373015
CAQ030,崎峰國小,2024-07-19,22.42565,120.49521,0.18380457
E2K600,四湖植物園,2024-07-19,23.676986,120.163433,0.37748948
E2P980,林試六龜中心,2024-07-19,22.991703,120.645722,0.082964666
E2S960,林試太麻里2,2024-07-19,22.598014,120.989761,0.20906664
E2S960,林試太麻里2,2024-07-19,22.598,120.99775,0.20832123
E2S980,林試太麻里1,2024-07-19,22.598922,120.980044,0.21936873
G2AI50,關渡,2024-07-19,25.11575,121.492,0.1485259
G2F820,農業試驗所,2024-07-19,24.031261,120.688133,0.09403225
G2F820,農試所(霧峰),2024-07-19,24.031261,120.688133,0.09403225
G2L020,農試嘉義分所,2024-07-19,23.485028,120.473806,0.13493341
G2M350,農試溪口農場,2024-07-19,23.58565,120.408111,0.15024309
G2P820,農試鳳山分所,2024-07-19,22.646611,120.356083,0.19788454
K2E360,苗栗農改,2024-07-19,24.495722,120.829111,0.6413152
K2E360,苗栗農改場,2024-07-19,24.495722,120.829111,0.6413152
K2E710,苗改生物防治研究中心,2024-07-19,24.422861,120.871833,0.7926851
K2F750,種苗改良場,2024-07-19,24.225972,120.800917,0.34026566
K2F750,種苗繁殖,2024-07-19,24.225972,120.800917,0.34026566
U2HA50,臺大竹山,2024-07-19,23.756972,120.681556,0.1362827
V2C250,八德合作社,2024-07-19,24.93775,121.266389,0.08671435
V2C260,八德蔬果,2024-07-19,24.978508,121.281819,0.09531978
V2K610,大庄合作社,2024-07-19,23.8068,120.367939,0.32678464
V2K620,麥寮合作社,2024-07-19,23.753836,120.294783,0.26321065
