站號,站名,日期,lat,lon,BlastGRU-TW
12J990,口湖工作站,2024-05-02,23.589978,120.180394,0.41444063
12Q970,東港工作站,2024-05-02,22.479997,120.466058,0.8766262
12Q980,恆春工作站,2024-05-02,22.079678,120.714425,0.22391395
466881,新北,2024-05-02,24.9593,121.52,0.53818256
466900,淡水,2024-05-02,25.164889,121.448906,0.820303
466920,臺北,2024-05-02,25.037658,121.514853,0.49929807
466940,基隆,2024-05-02,25.133314,121.740475,0.6763172
466990,花蓮,2024-05-02,23.975128,121.613275,0.35202533
467050,新屋,2024-05-02,25.006744,121.047486,0.94505525
467080,宜蘭,2024-05-02,24.763975,121.756528,0.60160893
467270,田中,2024-05-02,23.873803,120.581286,0.0740034
467300,東吉島,2024-05-02,23.25695,119.667467,0.99641734
467350,澎湖,2024-05-02,23.565503,119.563094,0.994952
467410,臺南,2024-05-02,22.993239,120.204772,0.123170555
467420,永康,2024-05-02,23.038386,120.2367,0.25832665
467441,高雄,2024-05-02,22.7304,120.3125,0.9964381
467480,嘉義,2024-05-02,23.495925,120.432906,0.22693768
467490,臺中,2024-05-02,24.145736,120.684075,0.27141672
467540,大武,2024-05-02,22.355675,120.903789,0.1697261
467571,新竹,2024-05-02,24.827853,121.014219,0.5474365
467590,恆春,2024-05-02,22.003897,120.746339,0.21509679
467610,成功,2024-05-02,23.097486,121.373428,0.08646194
467620,蘭嶼,2024-05-02,22.036969,121.558339,0.7639516
467660,臺東,2024-05-02,22.752211,121.154586,0.45966685
467790,墾丁雷達站,2024-05-02,21.948235,120.808028,0.3335859
72AI40,桃改樹林分場,2024-05-02,24.944503,121.386972,0.21881294
72C440,桃園農改,2024-05-02,24.950944,121.030583,0.9540819
72C440,桃園農改場,2024-05-02,24.950944,121.030583,0.9540819
72D680,桃改新埔分場,2024-05-02,24.834444,121.066111,0.7198652
72G600,臺中農改,2024-05-02,24.003028,120.534389,0.21368597
72G600,臺中農改場,2024-05-02,24.003028,120.534389,0.21368597
72K220,南改斗南分場,2024-05-02,23.634556,120.477333,0.14556716
72M360,南改義竹分場,2024-05-02,23.360694,120.279361,0.99675
72M700,南改鹿草分場,2024-05-02,23.416869,120.283061,0.99751836
72N100,臺南農改,2024-05-02,23.0605,120.342194,0.41205394
72N100,臺南農改場,2024-05-02,23.0605,120.342194,0.41205394
72N240,七股研究中心,2024-05-02,23.081672,120.062894,0.24515818
72Q010,高雄農改,2024-05-02,22.709333,120.525889,0.1885133
72Q010,高雄農改場,2024-05-02,22.709333,120.525889,0.1885133
72S200,東改班鳩分場,2024-05-02,22.829528,121.077694,0.9201636
72S590,東改賓朗果園,2024-05-02,22.813889,121.071278,0.8900518
72T250,花蓮農改,2024-05-02,23.975222,121.563889,0.6327041
72T250,花蓮農改場,2024-05-02,23.975222,121.563889,0.6327041
72U480,花改蘭陽分場,2024-05-02,24.686306,121.716583,0.66282594
72V140,高改旗南分場,2024-05-02,22.857861,120.516667,0.99709815
82A750,茶改北部分場,2024-05-02,24.955778,121.631222,0.9473212
82C160,茶改場,2024-05-02,24.908472,121.185333,0.7410168
82H840,茶改南部分場,2024-05-02,23.762528,120.7405,0.9815935
82S580,茶改東部分場,2024-05-02,22.907694,121.130139,0.72799337
A2C560,農工中心,2024-05-02,24.985917,121.239833,0.488459
A2K360,水試臺西試驗場,2024-05-02,23.717231,120.190522,0.32568678
A2K570,古坑花卉中心,2024-05-02,23.63353,120.55239,0.19598448
A2K630,臺大雲林校區,2024-05-02,23.730628,120.423903,0.253316
A2N290,臺南蘭花園區,2024-05-02,23.340258,120.379661,0.9974983
B2E890,畜試北區分所,2024-05-02,24.527806,120.770972,0.8443916
B2N890,畜產試驗所,2024-05-02,23.058972,120.336406,0.41205394
B2N890,畜試所,2024-05-02,23.058972,120.336406,0.41205394
B2Q810,畜試南區分所,2024-05-02,21.945583,120.802167,0.26082033
B2U990,畜試東區分所,2024-05-02,24.669039,121.832561,0.5338135
C0A520,山佳,2024-05-02,24.974944,121.402008,0.47999284
C0A530,坪林,2024-05-02,24.938183,121.70975,0.9734172
C0A540,四堵,2024-05-02,24.8926,121.745736,0.93479055
C0A550,泰平,2024-05-02,24.971197,121.823711,0.88989675
C0A560,福山,2024-05-02,24.776203,121.502811,0.7618848
C0A570,桶後,2024-05-02,24.848222,121.597992,0.85021377
C0A640,石碇,2024-05-02,24.993969,121.662917,0.95677286
C0A650,火燒寮,2024-05-02,25.002719,121.742892,0.9485357
C0A660,瑞芳,2024-05-02,25.113169,121.801147,0.8853091
C0A770,科教館,2024-05-02,25.096356,121.516507,0.5951403
C0A860,大坪,2024-05-02,25.165914,121.632969,0.951805
C0A880,福隆,2024-05-02,25.017842,121.942083,0.72334534
C0A890,雙溪,2024-05-02,25.036003,121.864242,0.8353393
C0A920,富貴角,2024-05-02,25.263783,121.565258,0.96293294
C0A931,三和,2024-05-02,25.233153,121.595236,0.9443066
C0A940,金山,2024-05-02,25.223628,121.643967,0.5521709
C0A950,鼻頭角,2024-05-02,25.129036,121.923372,0.7564536
C0A970,三貂角,2024-05-02,25.007606,122.002058,0.75597686
C0A980,社子,2024-05-02,25.109508,121.469681,0.8020495
C0A9C0,天母,2024-05-02,25.117494,121.537169,0.78358656
C0A9F0,內湖,2024-05-02,25.079422,121.57545,0.84231704
C0AC60,三峽,2024-05-02,24.939025,121.369728,0.23556106
C0AC70,信義,2024-05-02,25.037822,121.564597,0.71691036
C0AC80,文山,2024-05-02,25.00235,121.575728,0.6837891
C0ACA0,新莊,2024-05-02,25.051478,121.446756,0.4762795
C0AD00,三芝,2024-05-02,25.258131,121.501917,0.9414829
C0AD10,八里,2024-05-02,25.150211,121.403947,0.871181
C0AD30,蘆洲,2024-05-02,25.086594,121.472331,0.5951403
C0AD40,土城,2024-05-02,24.973208,121.445169,0.3550308
C0AD50,鶯歌,2024-05-02,24.951533,121.346294,0.26349998
C0AG80,中和,2024-05-02,24.991622,121.491792,0.39492396
C0AH00,汐止,2024-05-02,25.066881,121.658778,0.9518899
C0AH10,永和,2024-05-02,25.01125,121.508111,0.38052273
C0AH40,平等,2024-05-02,25.129142,121.577086,0.88841116
C0AH50,林口,2024-05-02,25.072181,121.38084,0.97193384
C0AH70,松山,2024-05-02,25.04871,121.55042,0.71691036
C0AH80,深坑,2024-05-02,25.002703,121.628328,0.83732057
C0AI00,五股,2024-05-02,25.07445,121.42728,0.9036245
C0AI10,屈尺,2024-05-02,24.92184,121.54475,0.6283163
C0AI20,白沙灣,2024-05-02,25.283128,121.519058,0.94620216
C0AI30,三重,2024-05-02,25.057328,121.500629,0.48329186
C0AI40,石牌,2024-05-02,25.115597,121.513139,0.5162782
C0AJ20,野柳,2024-05-02,25.20703,121.690021,0.4449278
C0AJ30,淡水觀海,2024-05-02,25.184591,121.408616,0.70515925
C0AJ40,石門,2024-05-02,25.273672,121.601198,0.96368116
C0AJ50,水湳洞,2024-05-02,25.123695,121.862238,0.76479924
C0AJ60,六塊厝,2024-05-02,25.24,121.4481,0.92308754
C0AJ70,田寮,2024-05-02,25.2698,121.4886,0.9017353
C0AJ80,板橋,2024-05-02,25.0107,121.4489,0.29189184
C0AJ90,澳底,2024-05-02,25.0552,121.9253,0.64354146
C0B010,七堵,2024-05-02,25.094819,121.71713,0.94364476
C0B020,基隆嶼,2024-05-02,25.19141,121.78391,0.83276755
C0B040,大武崙,2024-05-02,25.166676,121.706993,0.82552314
C0B050,八斗子,2024-05-02,25.144754,121.79167,0.6394118
C0B060,暖暖,2024-05-02,25.0957,121.7403,0.9314903
C0C460,復興,2024-05-02,24.820208,121.352281,0.93183696
C0C480,桃園,2024-05-02,24.992425,121.323172,0.7339128
C0C490,八德,2024-05-02,24.928708,121.283289,0.3958459
C0C590,觀音,2024-05-02,25.027072,121.153317,0.9778
C0C620,蘆竹,2024-05-02,25.084275,121.265767,0.6147707
C0C630,大溪,2024-05-02,24.882853,121.265547,0.06754238
C0C650,平鎮,2024-05-02,24.897503,121.214636,0.5342412
C0C660,楊梅,2024-05-02,24.912375,121.143047,0.67579263
C0C670,龍潭,2024-05-02,24.870056,121.221389,0.10517831
C0C680,龜山,2024-05-02,25.02846,121.38656,0.9705953
C0C700,中壢,2024-05-02,24.977661,121.256375,0.71690947
C0C710,大溪永福,2024-05-02,24.892936,121.324975,0.28541878
C0C720,竹圍,2024-05-02,25.112692,121.239824,0.63544834
C0C730,中大臨海站,2024-05-02,24.966126,121.008581,0.9378718
C0C740,觀音工業區,2024-05-02,25.064764,121.114856,0.97033334
C0C750,新興坑尾,2024-05-02,25.0061,121.0971,0.9322569
C0D430,峨眉,2024-05-02,24.6905,121.017189,0.8696872
C0D480,打鐵坑,2024-05-02,24.849664,121.150789,0.08342859
C0D540,橫山,2024-05-02,24.71116,121.11693,0.93367696
C0D560,竹東,2024-05-02,24.767147,121.057881,0.45519722
C0D580,寶山,2024-05-02,24.735006,121.025192,0.25261402
C0D590,新豐,2024-05-02,24.87068,120.97721,0.982326
C0D650,湖口,2024-05-02,24.904794,121.043628,0.9116297
C0D660,新竹市東區,2024-05-02,24.798681,120.986942,0.5846387
C0D670,海天一線,2024-05-02,24.831986,120.914438,0.9783227
C0D680,香山濕地,2024-05-02,24.783581,120.914988,0.56215465
C0D690,外湖,2024-05-02,24.917735,120.968711,0.9517273
C0D700,關西,2024-05-02,24.7977,121.1732,0.61739683
C0E420,竹南,2024-05-02,24.708978,120.888897,0.9687587
C0E430,南庄,2024-05-02,24.601775,121.000214,0.97802997
C0E550,明德,2024-05-02,24.583486,120.885411,0.9342975
C0E590,通霄,2024-05-02,24.471892,120.704622,0.8484048
C0E730,頭份,2024-05-02,24.688247,120.912206,0.94024754
C0E740,造橋,2024-05-02,24.637056,120.864778,0.93556696
C0E750,苗栗,2024-05-02,24.564569,120.824575,0.88399434
C0E780,銅鑼,2024-05-02,24.489681,120.790853,0.954883
C0E791,卓蘭,2024-05-02,24.3126,120.8244,0.7894336
C0E810,西湖,2024-05-02,24.562947,120.7485,0.9315306
C0E820,獅潭,2024-05-02,24.539133,120.920042,0.97019875
C0E830,苑裡,2024-05-02,24.439714,120.653053,0.82355845
C0E850,大河,2024-05-02,24.618069,120.948578,0.8754315
C0E870,高鐵苗栗,2024-05-02,24.60725,120.826094,0.8959217
C0E910,海埔,2024-05-02,24.648767,120.772435,0.9494062
C0E920,通霄漁港,2024-05-02,24.498589,120.673876,0.8686573
C0E930,龍鳳,2024-05-02,24.700034,120.859125,0.96048594
C0F0B0,石岡,2024-05-02,24.276061,120.777644,0.60946995
C0F850,東勢,2024-05-02,24.246428,120.833047,0.5250526
C0F970,大坑,2024-05-02,24.173142,120.722289,0.35558137
C0F9I0,神岡,2024-05-02,24.272481,120.658314,0.47394407
C0F9K0,大安,2024-05-02,24.345061,120.588025,0.5822327
C0F9L0,后里,2024-05-02,24.310436,120.729725,0.50553954
C0F9M0,豐原,2024-05-02,24.254322,120.720692,0.48863488
C0F9N0,大里,2024-05-02,24.092464,120.701378,0.19949186
C0F9O0,潭子,2024-05-02,24.213106,120.703933,0.14824148
C0F9P0,清水,2024-05-02,24.312297,120.562242,0.55592597
C0F9Q0,外埔,2024-05-02,24.347817,120.705686,0.60139126
C0F9R0,龍井,2024-05-02,24.184536,120.528972,0.50773513
C0F9S0,烏日,2024-05-02,24.107058,120.624103,0.16704074
C0F9T0,西屯,2024-05-02,24.179494,120.641275,0.43589434
C0F9U0,南屯,2024-05-02,24.137006,120.637969,0.35533395
C0F9X0,大雅(中科園區),2024-05-02,24.21528,120.62445,0.42828545
C0FA10,松柏,2024-05-02,24.429115,120.617482,0.8005728
C0FA20,溫寮,2024-05-02,24.372177,120.583125,0.55334055
C0FA30,梧棲,2024-05-02,24.256003,120.523381,0.5022646
C0FA40,臺中電廠,2024-05-02,24.2146,120.4907,0.50773513
C0FA50,霧峰,2024-05-02,24.0419,120.6995,0.1663177
C0G620,芬園,2024-05-02,24.015678,120.6213,0.15749434
C0G650,員林,2024-05-02,23.946503,120.585597,0.07541621
C0G660,溪湖,2024-05-02,23.94835,120.479122,0.15042554
C0G720,溪州,2024-05-02,23.851589,120.499093,0.22549044
C0G730,二林,2024-05-02,23.903325,120.376081,0.34335825
C0G740,大城,2024-05-02,23.852487,120.320935,0.6799511
C0G770,福興,2024-05-02,24.041289,120.437669,0.33813182
C0G780,秀水,2024-05-02,24.03405,120.503869,0.18454441
C0G800,埔鹽,2024-05-02,24.000394,120.431683,0.34375218
C0G810,埔心,2024-05-02,23.947633,120.525456,0.1540008
C0G820,田尾,2024-05-02,23.901669,120.509389,0.17733812
C0G830,埤頭,2024-05-02,23.866003,120.452806,0.20610692
C0G860,社頭,2024-05-02,23.897647,120.5862,0.06729546
C0G880,二水,2024-05-02,23.810742,120.6173,0.30969965
C0G890,伸港,2024-05-02,24.148933,120.484403,0.54489803
C0G900,線西,2024-05-02,24.143358,120.443536,0.5008743
C0G910,花壇,2024-05-02,24.032076,120.549461,0.23584966
C0G920,永靖,2024-05-02,23.924703,120.547533,0.20317766
C0G940,竹塘,2024-05-02,23.848253,120.386764,0.38127106
C0G950,防潮門,2024-05-02,24.1835,120.4871,0.50773513
C0G960,福寶,2024-05-02,24.0443,120.3814,0.4213673
C0G970,三豐,2024-05-02,23.882,120.2895,0.6422102
C0H890,埔里,2024-05-02,23.972169,120.952425,0.9839038
C0H960,草屯,2024-05-02,23.973672,120.68085,0.19760418
C0I110,竹山,2024-05-02,23.761225,120.688156,0.39203244
C0I360,水里,2024-05-02,23.812553,120.849792,0.9872633
C0I380,集集,2024-05-02,23.828206,120.801467,0.9723152
C0I410,名間,2024-05-02,23.837053,120.701447,0.42084086
C0I420,國姓,2024-05-02,24.037803,120.855072,0.9533747
C0I460,南投,2024-05-02,23.911469,120.687331,0.28788215
C0K250,崙背,2024-05-02,23.75555,120.318925,0.27914178
C0K280,四湖,2024-05-02,23.630414,120.227125,0.42255554
C0K291,宜梧,2024-05-02,23.536281,120.169329,0.35454038
C0K330,虎尾,2024-05-02,23.719183,120.442036,0.25580487
C0K390,土庫,2024-05-02,23.679029,120.395574,0.25687438
C0K400,斗六,2024-05-02,23.720583,120.541127,0.09744199
C0K410,北港,2024-05-02,23.573957,120.292802,0.26891223
C0K420,西螺,2024-05-02,23.800407,120.467394,0.2582309
C0K430,褒忠,2024-05-02,23.690938,120.303634,0.27761906
C0K440,二崙,2024-05-02,23.772797,120.408944,0.22631611
C0K450,大埤,2024-05-02,23.646074,120.431537,0.14509721
C0K460,斗南,2024-05-02,23.678734,120.478359,0.15014899
C0K470,林內,2024-05-02,23.748675,120.609642,0.20976841
C0K480,莿桐,2024-05-02,23.761192,120.502372,0.06004429
C0K500,元長,2024-05-02,23.64981,120.315024,0.26914096
C0K510,水林,2024-05-02,23.572924,120.24597,0.2624434
C0K530,臺西,2024-05-02,23.701547,120.197559,0.33360773
C0K550,蔦松,2024-05-02,23.514319,120.229736,0.589422
C0K560,棋山,2024-05-02,23.68645,120.603417,0.210365
C0K580,高鐵雲林,2024-05-02,23.737456,120.417944,0.253316
C0K590,雲林東勢,2024-05-02,23.674192,120.255721,0.25283417
C0K600,箔子寮,2024-05-02,23.6197,120.14,0.46684438
C0M520,東後寮,2024-05-02,23.369908,120.248065,0.99675
C0M640,中埔,2024-05-02,23.42538,120.5229,0.65983963
C0M650,朴子,2024-05-02,23.43463,120.23902,0.99744534
C0M660,溪口,2024-05-02,23.604131,120.403569,0.19065306
C0M670,大林,2024-05-02,23.600616,120.45841,0.20856233
C0M680,太保,2024-05-02,23.455062,120.331455,0.87345874
C0M690,水上,2024-05-02,23.419734,120.388909,0.9972513
C0M700,竹崎,2024-05-02,23.526178,120.555508,0.7515097
C0M710,東石,2024-05-02,23.458927,120.15385,0.9972912
C0M720,番路,2024-05-02,23.464657,120.554156,0.99726355
C0M730,嘉義市東區,2024-05-02,23.457673,120.460531,0.3726072
C0M740,六腳,2024-05-02,23.492871,120.290625,0.28275225
C0M750,布袋,2024-05-02,23.380878,120.167789,0.994812
C0M760,民雄,2024-05-02,23.551754,120.428457,0.20490012
C0M770,嘉義梅山,2024-05-02,23.585398,120.555587,0.4095633
C0M780,鹿草,2024-05-02,23.41134,120.30835,0.99748856
C0M790,新港,2024-05-02,23.553269,120.345728,0.27012062
C0M800,茶山,2024-05-02,23.299075,120.664767,0.9538028
C0M880,好美里,2024-05-02,23.3364,120.138,0.9975242
C0N010,鯤鯓國小,2024-05-02,23.1879,120.0889,0.2939709
C0N020,城西,2024-05-02,23.0568,120.0956,0.11214143
C0N030,四草,2024-05-02,23.0235,120.1116,0.09869136
C0N040,蘆竹溝,2024-05-02,23.2344,120.0961,0.37664407
C0N050,蚵寮,2024-05-02,23.301,120.1104,0.57831997
C0O830,北寮,2024-05-02,23.079561,120.495008,0.9803706
C0O840,王爺宮,2024-05-02,23.222064,120.40085,0.43026146
C0O860,大內,2024-05-02,23.11885,120.36083,0.48575103
C0O900,善化,2024-05-02,23.112883,120.297219,0.28167856
C0O960,崎頂,2024-05-02,22.959547,120.369317,0.9429155
C0O970,虎頭埤,2024-05-02,23.021375,120.347878,0.5877208
C0O980,新市,2024-05-02,23.061614,120.298197,0.37903485
C0O990,媽廟,2024-05-02,22.99175,120.293525,0.57456
C0R150,三地門,2024-05-02,22.709889,120.639944,0.99032676
C0R160,鹽埔,2024-05-02,22.739558,120.530778,0.9968951
C0R170,屏東,2024-05-02,22.660269,120.494072,0.06969511
C0R190,赤山,2024-05-02,22.592333,120.614306,0.9622728
C0R220,潮州,2024-05-02,22.534361,120.54,0.44095486
C0R240,來義,2024-05-02,22.527306,120.625111,0.88711977
C0R260,春日,2024-05-02,22.370361,120.628306,0.20583501
C0R270,琉球嶼,2024-05-02,22.332244,120.362236,0.5187518
C0R280,檳榔,2024-05-02,22.076078,120.836777,0.45787647
C0R320,車城,2024-05-02,22.0744,120.716247,0.22391395
C0R341,牡丹,2024-05-02,22.130036,120.792639,0.42130816
C0R350,貓鼻頭,2024-05-02,21.921774,120.7358,0.36921543
C0R470,高樹,2024-05-02,22.826389,120.600806,0.9968007
C0R480,長治,2024-05-02,22.693128,120.542622,0.14193545
C0R490,九如,2024-05-02,22.7405,120.490503,0.9969656
C0R520,崁頂,2024-05-02,22.514781,120.506914,0.8977306
C0R540,佳冬,2024-05-02,22.419456,120.552375,0.9833024
C0R550,新埤,2024-05-02,22.467947,120.582894,0.9960523
C0R560,新園,2024-05-02,22.5434,120.461558,0.40678415
C0R570,麟洛,2024-05-02,22.65078,120.52719,0.06969511
C0R580,南州,2024-05-02,22.48591,120.50274,0.96391374
C0R590,里港,2024-05-02,22.77919,120.49459,0.9969596
C0R620,墾雷,2024-05-02,21.900836,120.855269,0.7382831
C0R640,東港,2024-05-02,22.46247,120.44074,0.63645965
C0R650,竹田,2024-05-02,22.58486,120.54344,0.307795
C0R660,枋寮,2024-05-02,22.367722,120.590647,0.1574143
C0R670,楓港,2024-05-02,22.190131,120.692156,0.23358819
C0R680,佳樂水,2024-05-02,21.993578,120.861633,0.27165887
C0R690,墾丁,2024-05-02,21.966756,120.810269,0.72822547
C0R700,枋山,2024-05-02,22.246844,120.661086,0.2399997
C0R710,龍磐,2024-05-02,21.931672,120.838942,0.7182952
C0R720,旭海,2024-05-02,22.205403,120.887614,0.63981164
C0R730,大坪頂,2024-05-02,22.024633,120.69355,0.5354309
C0R740,獅子,2024-05-02,22.201569,120.70525,0.28904864
C0R760,南仁湖,2024-05-02,22.084681,120.863353,0.84815395
C0R770,保力,2024-05-02,22.071122,120.764111,0.2517535
C0R780,滿州,2024-05-02,22.024403,120.839892,0.24239402
C0R790,九棚,2024-05-02,22.14195,120.889281,0.60581475
C0R800,丹路,2024-05-02,22.204481,120.750989,0.17118992
C0R810,內獅,2024-05-02,22.305064,120.642986,0.14149095
C0R830,高士,2024-05-02,22.121825,120.836781,0.8784811
C0R850,林邊,2024-05-02,22.4634,120.5339,0.99577254
C0R860,鼻頭,2024-05-02,22.1043,120.8979,0.15455218
C0R870,興海,2024-05-02,21.9752,120.8439,0.26082033
C0R880,後壁湖,2024-05-02,21.9457,120.7457,0.19597214
C0R890,山海,2024-05-02,21.9878,120.7091,0.20395362
C0R900,竹坑,2024-05-02,22.1385,120.7022,0.23463766
C0R910,下寮,2024-05-02,22.3929,120.5548,0.9833024
C0R920,塭仔,2024-05-02,22.4169,120.5197,0.60022706
C0R930,萬丹,2024-05-02,22.5885,120.4851,0.1195704
C0R940,加祿堂,2024-05-02,22.3363,120.6217,0.16548903
C0S710,鹿野,2024-05-02,22.917711,121.122994,0.9008503
C0S730,綠島,2024-05-02,22.6672,121.47533,0.64187866
C0S740,池上,2024-05-02,23.119628,121.209469,0.7975894
C0S770,大溪山,2024-05-02,22.478475,120.943325,0.8464839
C0S790,金崙,2024-05-02,22.538122,120.966875,0.88902766
C0S810,東河,2024-05-02,22.972672,121.303986,0.24096888
C0S830,長濱,2024-05-02,23.286817,121.411975,0.74065125
C0S840,南田,2024-05-02,22.279725,120.889208,0.25859815
C0S890,關山,2024-05-02,23.0395,121.175017,0.8519833
C0S900,蘭嶼高中,2024-05-02,22.04909,121.51214,0.6685094
C0S910,蘭嶼燈塔,2024-05-02,22.081197,121.503117,0.62985474
C0S920,金峰嘉蘭,2024-05-02,22.594789,120.960825,0.9046594
C0S930,延平,2024-05-02,22.902581,121.084058,0.86869204
C0S940,石寧山,2024-05-02,23.223772,121.406639,0.2975187
C0S950,七塊厝,2024-05-02,22.954453,121.229922,0.891249
C0S960,香蘭,2024-05-02,22.587569,120.993375,0.20347954
C0S970,加津林,2024-05-02,22.416211,120.926942,0.14533955
C0S990,山豬窟,2024-05-02,22.318619,120.857372,0.86658597
C0SA00,歷坵,2024-05-02,22.520969,120.89185,0.9751571
C0SA10,檳榔四格山,2024-05-02,22.810031,121.109308,0.81059533
C0SA30,都歷,2024-05-02,23.020333,121.323642,0.39528814
C0SA40,瑞和,2024-05-02,22.974361,121.156697,0.70758027
C0SA60,知本（水試所）,2024-05-02,22.702394,121.082761,0.13309148
C0SA80,土坂,2024-05-02,22.453108,120.887572,0.9575554
C0SA90,達仁林場,2024-05-02,22.264347,120.823972,0.84316146
C0T870,鯉魚潭,2024-05-02,23.935639,121.508944,0.6630301
C0T900,西林,2024-05-02,23.8119,121.441458,0.86079234
C0T960,光復,2024-05-02,23.660694,121.424964,0.711189
C0T9A0,月眉山,2024-05-02,23.809928,121.539828,0.7597744
C0T9D0,和中,2024-05-02,24.26676,121.74103,0.65720963
C0T9E0,大坑,2024-05-02,23.880628,121.581981,0.78930134
C0T9F0,水璉,2024-05-02,23.797131,121.542514,0.8026312
C0T9I0,豐濱,2024-05-02,23.583897,121.514806,0.514613
C0T9M0,靜浦,2024-05-02,23.455167,121.495028,0.3847133
C0T9N0,富里,2024-05-02,23.171639,121.249378,0.82262087
C0U600,礁溪,2024-05-02,24.817539,121.765608,0.73358613
C0U650,玉蘭,2024-05-02,24.675286,121.587061,0.70816094
C0U750,龜山島,2024-05-02,24.841667,121.953133,0.81542766
C0U760,東澳,2024-05-02,24.52196,121.83318,0.7498507
C0U770,南澳,2024-05-02,24.44935,121.81022,0.9580984
C0U780,五結,2024-05-02,24.68637,121.79794,0.59442
C0U860,頭城,2024-05-02,24.85323,121.8308,0.7477481
C0U870,大礁溪,2024-05-02,24.791042,121.675047,0.756285
C0U880,北關,2024-05-02,24.9072,121.8734,0.71698296
C0U890,三星,2024-05-02,24.66812,121.65302,0.8099153
C0U900,內城,2024-05-02,24.71813,121.68766,0.68009126
C0U910,冬山,2024-05-02,24.63373,121.7937,0.5338135
C0U940,羅東,2024-05-02,24.68184,121.74934,0.60604644
C0U970,大福,2024-05-02,24.80064,121.81389,0.60543954
C0U990,員山,2024-05-02,24.74435,121.72247,0.59716755
C0UA00,土場,2024-05-02,24.576533,121.495333,0.2708549
C0UA80,大溪漁港,2024-05-02,24.941801,121.902955,0.791948
C0UA90,石城,2024-05-02,24.980444,121.951214,0.7407482
C0UB00,淡江大學蘭陽校園,2024-05-02,24.823239,121.730383,0.89107406
C0UB10,蘇澳,2024-05-02,24.5969,121.8571,0.71266204
C0UB20,壯圍,2024-05-02,24.7359,121.8163,0.6007705
C0V310,美濃,2024-05-02,22.898742,120.519153,0.9963547
C0V350,溪埔,2024-05-02,22.738578,120.446797,0.9969862
C0V360,內門,2024-05-02,22.975481,120.466769,0.90914595
C0V370,古亭坑,2024-05-02,22.893178,120.401947,0.99565274
C0V400,阿公店,2024-05-02,22.804194,120.355528,0.669884
C0V440,鳳山,2024-05-02,22.646653,120.356122,0.7040306
C0V450,鳳森,2024-05-02,22.545064,120.392592,0.23456338
C0V490,新興,2024-05-02,22.627422,120.298803,0.5709436
C0V530,阿蓮,2024-05-02,22.883208,120.327508,0.60940003
C0V610,梓官,2024-05-02,22.760558,120.267211,0.9584518
C0V620,永安,2024-05-02,22.82315,120.236856,0.4940536
C0V630,茄萣,2024-05-02,22.906642,120.182608,0.24750021
C0V640,湖內,2024-05-02,22.887139,120.2445,0.3731739
C0V650,彌陀,2024-05-02,22.783806,120.246361,0.4940536
C0V660,岡山,2024-05-02,22.797078,120.294958,0.7372695
C0V680,仁武,2024-05-02,22.701083,120.347722,0.9963444
C0V690,鼓山,2024-05-02,22.623325,120.275575,0.36105445
C0V700,三民,2024-05-02,22.645017,120.311233,0.8632781
C0V710,苓雅,2024-05-02,22.622742,120.330669,0.27658665
C0V720,林園,2024-05-02,22.507747,120.394511,0.31553802
C0V730,大寮,2024-05-02,22.605614,120.395717,0.2575212
C0V740,旗山,2024-05-02,22.888614,120.483597,0.9962736
C0V750,路竹,2024-05-02,22.854997,120.259439,0.45225263
C0V760,橋頭,2024-05-02,22.757806,120.30575,0.9963301
C0V770,大社,2024-05-02,22.730306,120.346639,0.9976859
C0V790,萬山,2024-05-02,22.905944,120.688056,0.9285627
C0V800,六龜,2024-05-02,22.997889,120.633583,0.95028603
C0V810,左營,2024-05-02,22.67491,120.28491,0.8632781
C0V820,小林,2024-05-02,23.148408,120.63325,0.92831874
C0V840,鳳鼻頭,2024-05-02,22.5083,120.3591,0.30351493
C0V850,蚵仔寮,2024-05-02,22.7256,120.2527,0.95488703
C0V860,南寮,2024-05-02,22.7616,120.2339,0.95488703
C0V870,文安,2024-05-02,22.8025,120.2164,0.22328119
C0V880,興達,2024-05-02,22.8778,120.2127,0.24750021
C0V890,前鎮,2024-05-02,22.5718,120.3117,0.21288681
C0V900,汕尾,2024-05-02,22.4782,120.4151,0.8766262
C0W200,湖西,2024-05-02,23.596314,119.67275,0.9958979
C0X050,東河,2024-05-02,23.296598,120.385608,0.9642169
C0X060,下營,2024-05-02,23.22695,120.256261,0.2587862
C0X080,佳里,2024-05-02,23.173039,120.145086,0.25430927
C0X100,臺南市北區,2024-05-02,23.010394,120.194228,0.11547924
C0X110,臺南市南區,2024-05-02,22.961189,120.188378,0.21952778
C0X120,麻豆,2024-05-02,23.183289,120.248611,0.18610245
C0X130,官田,2024-05-02,23.193217,120.315422,0.19587016
C0X140,西港,2024-05-02,23.125608,120.203108,0.16266444
C0X150,安定,2024-05-02,23.102614,120.227839,0.19925839
C0X160,仁德,2024-05-02,22.968258,120.257689,0.38995868
C0X170,關廟,2024-05-02,22.963017,120.327797,0.32600823
C0X180,山上,2024-05-02,23.0757,120.363253,0.47532934
C0X190,安平,2024-05-02,22.993161,120.152181,0.101919875
C0X200,左鎮,2024-05-02,23.056758,120.408522,0.511069
C0X210,白河,2024-05-02,23.347466,120.414427,0.99762976
C0X220,學甲,2024-05-02,23.230367,120.182187,0.47827002
C0X230,鹽水,2024-05-02,23.272621,120.247641,0.59293395
C0X240,關子嶺,2024-05-02,23.331169,120.508025,0.96200484
C0X250,新營,2024-05-02,23.310689,120.316681,0.94618624
C0X260,後壁,2024-05-02,23.366358,120.362326,0.9974983
C0X280,將軍,2024-05-02,23.214999,120.13577,0.3432245
C0X290,北門,2024-05-02,23.267772,120.125481,0.37664407
C0X300,鹿寮,2024-05-02,23.386047,120.477331,0.9980469
C0X310,七股,2024-05-02,23.147289,120.086253,0.28687447
C0X320,柳營,2024-05-02,23.253328,120.375253,0.26737368
C0Z020,明里,2024-05-02,23.208717,121.262342,0.8683611
C0Z061,玉里,2024-05-02,23.3215,121.339656,0.75860816
C0Z070,舞鶴,2024-05-02,23.46811,121.37407,0.84905535
C0Z080,富源,2024-05-02,23.587642,121.378225,0.8751543
C0Z100,東華,2024-05-02,23.89525,121.549833,0.5603894
C0Z150,吉安光華,2024-05-02,23.930925,121.595153,0.42068598
C0Z160,鳳林,2024-05-02,23.746114,121.453411,0.8414729
C0Z170,卓溪,2024-05-02,23.3443,121.3029,0.91060895
C0Z180,新城,2024-05-02,24.03946,121.60454,0.42954364
C0Z190,富世,2024-05-02,24.14743,121.6297,0.57542354
C0Z200,萬榮,2024-05-02,23.709219,121.420106,0.76244223
C0Z210,瑞穗,2024-05-02,23.5239,121.39021,0.7193478
C0Z230,和平,2024-05-02,24.30717,121.77007,0.84870625
C0Z270,蕃薯寮,2024-05-02,23.73835,121.540108,0.8148466
C0Z280,德武,2024-05-02,23.47426,121.41071,0.7879492
C0Z300,東里,2024-05-02,23.26853,121.30547,0.7568463
C0Z310,清水斷崖,2024-05-02,24.218294,121.689142,0.7744675
C0Z330,安通山,2024-05-02,23.290728,121.348528,0.93726254
C2E520,大湖,2024-05-02,24.414939,120.870872,0.947982
C2E540,後龍,2024-05-02,24.606489,120.783933,0.8851077
C2F000,大肚,2024-05-02,24.15295,120.572117,0.4707388
C2F930,大甲,2024-05-02,24.347667,120.640403,0.69003147
C2F9A0,中竹林,2024-05-02,24.103556,120.751061,0.8745791
C2G640,鹿港,2024-05-02,24.0753,120.430481,0.44666046
C2G840,北斗,2024-05-02,23.877586,120.514222,0.19796829
C2G870,芳苑,2024-05-02,23.922303,120.320025,0.7094393
C2H950,中寮,2024-05-02,23.884447,120.766406,0.4429403
C2M410,馬頭山,2024-05-02,23.324361,120.582017,0.97355276
C2N160,西拉雅風管處,2024-05-02,23.189481,120.335297,0.20021331
C2O810,曾文,2024-05-02,23.219681,120.497328,0.99658227
C2O930,玉井,2024-05-02,23.126042,120.46055,0.7915881
C2O950,安南,2024-05-02,23.076694,120.144861,0.22851473
C2V250,甲仙,2024-05-02,23.080106,120.591758,0.99464643
C2V260,月眉,2024-05-02,22.971003,120.539853,0.9913453
C2W230,畜試所澎湖,2024-05-02,23.628342,119.513206,0.9935925
CAG100,王功漁港,2024-05-02,23.96824,120.32586,0.6870542
CAH030,茶改場竹圍站,2024-05-02,23.860083,120.637528,0.8050299
CAJ050,海口故事園區,2024-05-02,23.57543,120.14121,0.46684438
CAL110,布袋國中,2024-05-02,23.35893,120.18026,0.99715227
CAN130,水試所海水繁養殖中心,2024-05-02,23.120802,120.07968,0.24515818
CAN140,六官養殖協會,2024-05-02,23.22881,120.29962,0.25600985
CAQ030,崎峰國小,2024-05-02,22.42565,120.49521,0.91766727
E2K600,四湖植物園,2024-05-02,23.676986,120.163433,0.36046427
E2P980,林試六龜中心,2024-05-02,22.991703,120.645722,0.9474196
E2S960,林試太麻里2,2024-05-02,22.598014,120.989761,0.20347954
E2S960,林試太麻里2,2024-05-02,22.598,120.99775,0.19390477
E2S980,林試太麻里1,2024-05-02,22.598922,120.980044,0.29985896
G2AI50,關渡,2024-05-02,25.11575,121.492,0.8134146
G2F820,農業試驗所,2024-05-02,24.031261,120.688133,0.16257493
G2F820,農試所(霧峰),2024-05-02,24.031261,120.688133,0.16257493
G2L020,農試嘉義分所,2024-05-02,23.485028,120.473806,0.25968876
G2M350,農試溪口農場,2024-05-02,23.58565,120.408111,0.19655086
G2P820,農試鳳山分所,2024-05-02,22.646611,120.356083,0.7040306
K2E360,苗栗農改,2024-05-02,24.495722,120.829111,0.92590725
K2E360,苗栗農改場,2024-05-02,24.495722,120.829111,0.92590725
K2E710,苗改生物防治研究中心,2024-05-02,24.422861,120.871833,0.932235
K2F750,種苗改良場,2024-05-02,24.225972,120.800917,0.9769326
K2F750,種苗繁殖,2024-05-02,24.225972,120.800917,0.9769326
U2HA50,臺大竹山,2024-05-02,23.756972,120.681556,0.2828365
V2C250,八德合作社,2024-05-02,24.93775,121.266389,0.3564957
V2C260,八德蔬果,2024-05-02,24.978508,121.281819,0.74775106
V2K610,大庄合作社,2024-05-02,23.8068,120.367939,0.3431706
V2K620,麥寮合作社,2024-05-02,23.753836,120.294783,0.27914178
