站號,站名,日期,lat,lon,BLBTSLS
C0R710,龍磐,2024-01-30,21.931672,120.838942,0.9984912
C1F9D1,白毛台,2024-01-30,24.158325,120.886933,3.6205297e-09
C0G940,竹塘,2024-01-30,23.848253,120.386764,8.5608285e-09
467590,恆春,2024-01-30,22.003897,120.746339,0.9981185
C1O850,環湖,2024-01-30,23.148617,120.418633,5.545182e-10
C0U710,太平山,2024-01-30,24.505486,121.525656,3.929353e-08
C0E820,獅潭,2024-01-30,24.539133,120.920042,8.678973e-09
C0V880,興達,2024-01-30,22.8778,120.2127,1.0870247e-08
C0S890,關山,2024-01-30,23.0395,121.175017,4.8511106e-09
K2F750,種苗繁殖,2024-01-30,24.225972,120.800917,2.8910836e-09
C1Z130,銅門,2024-01-30,23.965694,121.492842,7.858106e-09
C0AD40,土城,2024-01-30,24.973208,121.445169,9.414146e-09
CAN140,六官養殖協會,2024-01-30,23.22881,120.29962,5.1592743e-09
C0X180,山上,2024-01-30,23.0757,120.363253,7.4097223e-10
C0F9Z0,雪山東峰,2024-01-30,24.388792,121.268675,3.1378185e-08
C1M480,獨立山,2024-01-30,23.537022,120.607797,2.6563898e-09
C0X220,學甲,2024-01-30,23.230367,120.182187,1.6426785e-08
C0R170,屏東,2024-01-30,22.660269,120.494072,1.3149005e-09
467650,日月潭,2024-01-30,23.881325,120.90805,7.90721e-09
C0K600,箔子寮,2024-01-30,23.6197,120.14,3.927716e-07
C0G830,埤頭,2024-01-30,23.866003,120.452806,1.1108491e-09
C0S950,七塊厝,2024-01-30,22.954453,121.229922,6.454378e-09
467110,金門,2024-01-30,24.407306,118.289281,4.8920015e-07
C0AH80,深坑,2024-01-30,25.002703,121.628328,9.509216e-09
467990,馬祖,2024-01-30,26.169269,119.923419,8.512858e-06
C0A970,三貂角,2024-01-30,25.007606,122.002058,2.2456177e-08
C0K430,褒忠,2024-01-30,23.690938,120.303634,4.6463704e-09
467480,嘉義,2024-01-30,23.495925,120.432906,1.7301621e-09
C2E540,後龍,2024-01-30,24.606489,120.783933,1.4653311e-07
C0V400,阿公店,2024-01-30,22.804194,120.355528,1.6345141e-09
C0R440,大漢山,2024-01-30,22.405264,120.753181,2.4099453e-08
C0K280,四湖,2024-01-30,23.630414,120.227125,1.2114275e-07
C1F9B1,桐林,2024-01-30,24.066172,120.735194,9.700426e-10
C0K390,土庫,2024-01-30,23.679029,120.395574,1.3413589e-09
C1I450,望鄉山,2024-01-30,23.594153,120.944286,1.8683703e-08
C0E910,海埔,2024-01-30,24.648767,120.772435,1.460515e-07
B2E890,畜試北區分所,2024-01-30,24.527806,120.770972,1.2142028e-08
C0R750,四林格山,2024-01-30,22.076989,120.802439,1.7618149e-07
C0F0C0,中坑,2024-01-30,24.248517,120.903319,6.068742e-09
C1I121,大鞍,2024-01-30,23.678381,120.760017,1.1428375e-08
72U480,花改蘭陽分場,2024-01-30,24.686306,121.716583,4.3885353e-09
C0A770,科教館,2024-01-30,25.096356,121.516507,1.2036628e-08
C0AJ60,六塊厝,2024-01-30,25.24,121.4481,2.1107847e-07
C0R620,墾雷,2024-01-30,21.900836,120.855269,0.53390235
467420,永康,2024-01-30,23.038386,120.2367,1.5208607e-09
467300,東吉島,2024-01-30,23.25695,119.667467,0.9917488
C0I410,名間,2024-01-30,23.837053,120.701447,1.4094129e-09
A2C560,農工中心,2024-01-30,24.985917,121.239833,7.307567e-08
C0V740,旗山,2024-01-30,22.888614,120.483597,7.429946e-10
C0Z061,玉里,2024-01-30,23.3215,121.339656,8.0132e-09
C0S840,南田,2024-01-30,22.279725,120.889208,0.99860805
C1I470,杉林溪,2024-01-30,23.639517,120.786444,1.3029576e-08
C1X040,東原,2024-01-30,23.291597,120.463822,9.666258e-10
C0R660,枋寮,2024-01-30,22.367722,120.590647,7.312691e-10
C1R120,上德文,2024-01-30,22.763272,120.704442,3.1114389e-09
C0K450,大埤,2024-01-30,23.646074,120.431537,9.546757e-10
C0UA00,土場,2024-01-30,24.576533,121.495333,1.974906e-08
467080,宜蘭,2024-01-30,24.763975,121.756528,5.4450195e-09
C0N030,四草,2024-01-30,23.0235,120.1116,6.2126815e-09
C0V650,彌陀,2024-01-30,22.783806,120.246361,1.1846514e-08
C0D660,新竹市東區,2024-01-30,24.798681,120.986942,6.619097e-08
82S580,茶改東部分場,2024-01-30,22.907694,121.130139,1.00586295e-08
C0C710,大溪永福,2024-01-30,24.892936,121.324975,2.7300239e-08
C0FA20,溫寮,2024-01-30,24.372177,120.583125,4.6449634e-07
C0V640,湖內,2024-01-30,22.887139,120.2445,1.0135355e-08
C0R910,下寮,2024-01-30,22.3929,120.5548,7.312691e-10
C0Z020,明里,2024-01-30,23.208717,121.262342,9.219461e-09
C0M770,嘉義梅山,2024-01-30,23.585398,120.555587,1.2070303e-09
G2F820,農業試驗所,2024-01-30,24.031261,120.688133,8.3832097e-10
C0C660,楊梅,2024-01-30,24.912375,121.143047,4.9529195e-08
C1E511,新開,2024-01-30,24.347703,120.827019,4.226987e-09
G2F820,農試所(霧峰),2024-01-30,24.031261,120.688133,8.3832097e-10
C1I070,和社,2024-01-30,23.591131,120.888861,3.9582737e-09
C2F000,大肚,2024-01-30,24.15295,120.572117,1.7817804e-09
C1S850,豐南,2024-01-30,23.122139,121.262389,5.783229e-09
C2A920,富貴角,2024-01-30,25.263783,121.565258,1.3179914e-07
CAH030,茶改場竹圍站,2024-01-30,23.860083,120.637528,1.8799262e-09
C0T960,光復,2024-01-30,23.660694,121.424964,3.7446886e-09
C0F9M0,豐原,2024-01-30,24.254322,120.720692,2.8982223e-09
C0R720,旭海,2024-01-30,22.205403,120.887614,0.00015934967
C0V710,苓雅,2024-01-30,22.622742,120.330669,1.3449641e-08
C0C740,觀音工業區,2024-01-30,25.064764,121.114856,0.00021898789
CAC040,拉拉山,2024-01-30,24.699317,121.427133,4.8929852e-08
C0V790,萬山,2024-01-30,22.905944,120.688056,1.165324e-09
U2HA30,臺大和社,2024-01-30,23.590856,120.888864,3.9582737e-09
C0AJ90,澳底,2024-01-30,25.0552,121.9253,2.9169186e-08
C0Z100,東華,2024-01-30,23.89525,121.549833,5.601044e-09
C0G970,三豐,2024-01-30,23.882,120.2895,0.35830092
V2K610,大庄合作社,2024-01-30,23.8068,120.367939,5.9353438e-09
C0V900,汕尾,2024-01-30,22.4782,120.4151,8.244532e-08
C1R630,龍泉,2024-01-30,22.66701,120.59091,1.123399e-09
C1AC50,關渡,2024-01-30,25.133486,121.469331,3.1620367e-08
C0F9I0,神岡,2024-01-30,24.272481,120.658314,4.1123283e-09
C0K460,斗南,2024-01-30,23.678734,120.478359,9.61072e-10
467410,臺南,2024-01-30,22.993239,120.204772,5.638173e-09
C2O810,曾文,2024-01-30,23.219681,120.497328,7.8028406e-10
467280,後龍,2024-01-30,24.648563,120.831834,1.3181875e-07
C1F9J1,清水林,2024-01-30,24.071242,120.820419,3.1810778e-09
C2A650,火燒寮,2024-01-30,25.002719,121.742892,2.228325e-08
466930,竹子湖,2024-01-30,25.162078,121.544547,2.9332432e-08
C1I220,樟湖,2024-01-30,23.905333,120.846983,6.1954406e-09
C0I390,仁愛,2024-01-30,24.022122,121.132206,4.0352046e-09
C0Z300,東里,2024-01-30,23.26853,121.30547,9.014364e-09
C0V310,美濃,2024-01-30,22.898742,120.519153,7.3791034e-10
C1V590,新發,2024-01-30,23.057019,120.646064,4.601269e-09
C0K510,水林,2024-01-30,23.572924,120.24597,4.0915946e-09
72S590,東改賓朗果園,2024-01-30,22.813889,121.071278,1.4718669e-08
82A750,茶改北部分場,2024-01-30,24.955778,121.631222,2.7373966e-08
C1A750,石碇服務區,2024-01-30,25.00872,121.646242,1.8546828e-08
C0X300,鹿寮,2024-01-30,23.386047,120.477331,8.2462537e-10
G2AI50,關渡,2024-01-30,25.11575,121.492,2.0363049e-07
C0K590,雲林東勢,2024-01-30,23.674192,120.255721,3.849773e-09
C0A570,桶後,2024-01-30,24.848222,121.597992,1.3455184e-08
C1S800,華源,2024-01-30,22.657883,121.02325,1.6844938e-08
C0G720,溪州,2024-01-30,23.851589,120.499093,1.1107093e-09
C1V160,達卡努瓦,2024-01-30,23.279811,120.705319,6.208429e-09
C2M410,馬頭山,2024-01-30,23.324361,120.582017,1.062518e-09
C0V850,蚵仔寮,2024-01-30,22.7256,120.2527,5.9407124e-09
C0S740,池上,2024-01-30,23.119628,121.209469,7.737915e-09
C1V390,尖山,2024-01-30,22.813153,120.367789,1.6014391e-09
C0AH70,松山,2024-01-30,25.04871,121.55042,1.21099255e-08
C0N010,鯤鯓國小,2024-01-30,23.1879,120.0889,1.7785625e-08
C0R550,新埤,2024-01-30,22.467947,120.582894,6.310508e-08
C0SA60,知本（水試所）,2024-01-30,22.702394,121.082761,1.9740737e-08
C0T9I0,豐濱,2024-01-30,23.583897,121.514806,3.7894874e-09
C0UB00,淡江大學蘭陽校園,2024-01-30,24.823239,121.730383,1.4043821e-08
C0T9N0,富里,2024-01-30,23.171639,121.249378,8.07089e-09
U2HA50,臺大竹山,2024-01-30,23.756972,120.681556,1.2386935e-09
C0V840,鳳鼻頭,2024-01-30,22.5083,120.3591,1.3921427e-09
C0X140,西港,2024-01-30,23.125608,120.203108,3.2876573e-09
72D080,桃改五峰分場,2024-01-30,24.612194,121.157167,1.3670018e-08
C0V530,阿蓮,2024-01-30,22.883208,120.327508,2.298357e-09
C1O880,關山,2024-01-30,23.173397,120.594092,6.9935674e-10
C0E791,卓蘭,2024-01-30,24.3126,120.8244,3.3241214e-09
C1I030,武界,2024-01-30,23.913225,121.052483,4.9416036e-09
C0R520,崁頂,2024-01-30,22.514781,120.506914,8.272172e-09
C0R341,牡丹,2024-01-30,22.130036,120.792639,3.433492e-06
C0R930,萬丹,2024-01-30,22.5885,120.4851,1.6439784e-09
C0S760,紅石,2024-01-30,23.069131,121.126219,4.1317417e-08
C1M610,石磐龍,2024-01-30,23.496606,120.663506,7.629016e-09
C0UA10,鴛鴦湖,2024-01-30,24.590269,121.412228,2.7482258e-08
V2C260,八德蔬果,2024-01-30,24.978508,121.281819,2.3688656e-08
C0R800,丹路,2024-01-30,22.204481,120.750989,0.015730774
C0G920,永靖,2024-01-30,23.924703,120.547533,9.849521e-10
C1A630,下盆,2024-01-30,24.771003,121.538622,1.1633169e-08
B2N890,畜產試驗所,2024-01-30,23.058972,120.336406,1.4884209e-09
C0UA30,白嶺,2024-01-30,24.527819,121.519031,3.0056853e-08
C1V580,溪南(特生中心),2024-01-30,23.084972,120.788475,9.695196e-09
C1T970,大農,2024-01-30,23.615233,121.413331,4.097233e-09
E2S960,林試太麻里2,2024-01-30,22.598014,120.989761,2.5627228e-08
C0R650,竹田,2024-01-30,22.58486,120.54344,1.0688802e-09
C1H900,清流,2024-01-30,24.080775,120.962997,4.3586876e-09
C1C510,水尾,2024-01-30,24.940081,121.087161,3.8482221e-07
C0F9X0,大雅(中科園區),2024-01-30,24.21528,120.62445,2.5688291e-09
C0O970,虎頭埤,2024-01-30,23.021375,120.347878,9.958727e-10
C0C730,中大臨海站,2024-01-30,24.966126,121.008581,1.2772952e-06
C0X250,新營,2024-01-30,23.310689,120.316681,2.7477318e-09
C0V700,三民,2024-01-30,22.645017,120.311233,2.366698e-08
C0U870,大礁溪,2024-01-30,24.791042,121.675047,1.1084812e-08
C0E870,高鐵苗栗,2024-01-30,24.60725,120.826094,1.3217198e-07
A2K570,古坑花卉中心,2024-01-30,23.63353,120.55239,1.0617887e-09
C0M860,新美,2024-01-30,23.338017,120.683169,1.8329692e-09
C1E701,八卦,2024-01-30,24.491756,120.927619,1.2153056e-08
C0I420,國姓,2024-01-30,24.037803,120.855072,1.5884736e-09
C0S960,香蘭,2024-01-30,22.587569,120.993375,2.5627228e-08
C0R260,春日,2024-01-30,22.370361,120.628306,7.041015e-10
72G600,臺中農改場,2024-01-30,24.003028,120.534389,8.6852775e-10
C0Z210,瑞穗,2024-01-30,23.5239,121.39021,3.9665946e-09
C0M820,達邦,2024-01-30,23.453994,120.749517,5.5498086e-09
C0V860,南寮,2024-01-30,22.7616,120.2339,5.9407124e-09
C0G740,大城,2024-01-30,23.852487,120.320935,0.33412182
C0R920,塭仔,2024-01-30,22.4169,120.5197,7.3274903e-10
C0R470,高樹,2024-01-30,22.826389,120.600806,1.129111e-09
C0R680,佳樂水,2024-01-30,21.993578,120.861633,0.99995166
C1O870,大棟山,2024-01-30,23.31157,120.52226,4.359453e-09
C0D360,梅花,2024-01-30,24.678347,121.208558,9.149826e-09
C0Z190,富世,2024-01-30,24.14743,121.6297,1.2054802e-08
C0AI10,屈尺,2024-01-30,24.92184,121.54475,1.9264107e-08
B2U990,畜試東區分所,2024-01-30,24.669039,121.832561,5.2473825e-09
C0R240,來義,2024-01-30,22.527306,120.625111,5.2060107e-09
C1R610,西大武山,2024-01-30,22.617719,120.7322,3.5725954e-08
C0G900,線西,2024-01-30,24.143358,120.443536,4.8153446e-08
C0M700,竹崎,2024-01-30,23.526178,120.555508,8.9844754e-10
C2E880,三義,2024-01-30,24.405478,120.749819,6.543527e-09
C0C720,竹圍,2024-01-30,25.112692,121.239824,2.0342591e-07
C0F9P0,清水,2024-01-30,24.312297,120.562242,1.4181092e-07
C0Z150,吉安光華,2024-01-30,23.930925,121.595153,7.461691e-09
C1D640,外坪(五指山),2024-01-30,24.644447,121.090961,1.030284e-08
C0F9O0,潭子,2024-01-30,24.213106,120.703933,2.1494753e-09
72T250,花蓮農改場,2024-01-30,23.975222,121.563889,6.15672e-09
C0E780,銅鑼,2024-01-30,24.489681,120.790853,1.1865736e-08
C1T950,太安,2024-01-30,23.666719,121.370128,5.8008634e-08
C0E830,苑裡,2024-01-30,24.439714,120.653053,5.5006512e-06
467270,田中,2024-01-30,23.873803,120.581286,9.580758e-10
C0SA10,檳榔四格山,2024-01-30,22.810031,121.109308,1.3345917e-08
C1T830,布洛灣,2024-01-30,24.17184,121.57127,4.9769824e-08
C0F970,大坑,2024-01-30,24.173142,120.722289,1.4463354e-09
C1U920,思源,2024-01-30,24.393125,121.347214,2.4839283e-08
C0A931,三和,2024-01-30,25.233153,121.595236,4.9339206e-08
C0I010,廬山,2024-01-30,24.033311,121.181808,6.6713013e-09
C0R860,鼻頭,2024-01-30,22.1043,120.8979,0.0016871106
C0UB20,壯圍,2024-01-30,24.7359,121.8163,4.274228e-09
C0R790,九棚,2024-01-30,22.14195,120.889281,1.1506629e-05
C0W110,東莒,2024-01-30,25.9652,119.98069,0.00010708926
C1U930,粉鳥林,2024-01-30,24.497088,121.842479,6.1726406e-09
C1I211,蘆竹湳,2024-01-30,23.934019,120.811994,2.6304696e-09
C0S830,長濱,2024-01-30,23.286817,121.411975,8.457139e-09
C1F9F1,伯公龍,2024-01-30,24.272392,120.849047,3.310196e-09
C0E810,西湖,2024-01-30,24.562947,120.7485,0.99186784
C1I440,新高口,2024-01-30,23.478744,120.878939,1.3373718e-08
C0O840,王爺宮,2024-01-30,23.222064,120.40085,1.1741927e-09
C0T9G0,鳳林山,2024-01-30,23.735269,121.420131,1.1183584e-08
C0X080,佳里,2024-01-30,23.173039,120.145086,1.7785625e-08
C0Z310,清水斷崖,2024-01-30,24.218294,121.689142,8.315089e-09
C0M680,太保,2024-01-30,23.455062,120.331455,1.8642294e-09
C1S820,金峰,2024-01-30,22.590969,120.933236,1.9695944e-08
C0AD10,八里,2024-01-30,25.150211,121.403947,2.0322192e-07
C2K240,草嶺,2024-01-30,23.59555,120.693461,8.986846e-09
C1SA70,都蘭,2024-01-30,22.87794,121.226881,1.1898689e-08
C0K440,二崙,2024-01-30,23.772797,120.408944,1.0620803e-09
C1A760,坪林交控,2024-01-30,24.94284,121.713442,1.8749676e-08
C0F9N0,大里,2024-01-30,24.092464,120.701378,8.8763485e-10
C0SA90,達仁林場,2024-01-30,22.264347,120.823972,3.026545e-07
C1R290,石門山,2024-01-30,22.112611,120.756597,9.0439e-07
42HA10,萬大發電廠,2024-01-30,23.978875,121.139639,4.81458e-09
C0R890,山海,2024-01-30,21.9878,120.7091,0.9999841
C0T9A0,月眉山,2024-01-30,23.809928,121.539828,8.400245e-09
C0AC70,信義,2024-01-30,25.037822,121.564597,1.21099255e-08
C0K560,棋山,2024-01-30,23.68645,120.603417,1.0807231e-09
C1Z240,中平林道,2024-01-30,23.42115,121.26763,7.087196e-08
U2H480,溪頭,2024-01-30,23.670306,120.798194,9.390957e-09
C0M880,好美里,2024-01-30,23.3364,120.138,1.4490587e-08
C0T9E0,大坑,2024-01-30,23.880628,121.581981,7.460951e-09
C0K530,臺西,2024-01-30,23.701547,120.197559,4.7493825e-07
C1E900,國一N128K,2024-01-30,24.560997,120.844186,1.2114523e-08
C0AJ50,水湳洞,2024-01-30,25.123695,121.862238,3.864798e-08
C0AI20,白沙灣,2024-01-30,25.283128,121.519058,1.9896633e-07
C0A860,大坪,2024-01-30,25.165914,121.632969,2.7892154e-08
C1U850,觀音海岸,2024-01-30,24.38319,121.77856,8.555213e-09
C0U950,鶯子嶺,2024-01-30,24.89754,121.79244,2.9565081e-08
C0O900,善化,2024-01-30,23.112883,120.297219,1.5064485e-09
C0K550,蔦松,2024-01-30,23.514319,120.229736,5.2943916e-09
E2P980,林試六龜中心,2024-01-30,22.991703,120.645722,7.2334255e-10
C0E590,通霄,2024-01-30,24.471892,120.704622,0.309705
C1I310,西巒,2024-01-30,23.754486,120.883956,8.841209e-09
C0A550,泰平,2024-01-30,24.971197,121.823711,3.0545266e-08
C0I360,水里,2024-01-30,23.812553,120.849792,1.874062e-09
C0R830,高士,2024-01-30,22.121825,120.836781,4.7489115e-07
C1I101,溪頭,2024-01-30,23.661789,120.807647,1.1843555e-08
C0AJ20,野柳,2024-01-30,25.20703,121.690021,5.726527e-08
C0B060,暖暖,2024-01-30,25.0957,121.7403,2.2049534e-08
C1H920,長豐,2024-01-30,24.102039,120.879897,3.5130219e-09
C0V360,內門,2024-01-30,22.975481,120.466769,7.7822404e-10
C0R850,林邊,2024-01-30,22.4634,120.5339,7.6609375e-08
C0E930,龍鳳,2024-01-30,24.700034,120.859125,0.72126687
C0U910,冬山,2024-01-30,24.63373,121.7937,5.2473825e-09
C1E721,泰安,2024-01-30,24.489017,120.968036,1.4640328e-08
82H320,茶改中部分場,2024-01-30,23.875611,120.913583,7.0499144e-09
C0M750,布袋,2024-01-30,23.380878,120.167789,6.016727e-09
C1S860,利嘉,2024-01-30,22.809417,121.050528,1.4296685e-08
72C440,桃園農改,2024-01-30,24.950944,121.030583,5.466067e-07
E2S980,林試太麻里1,2024-01-30,22.598922,120.980044,2.2677416e-08
C0X170,關廟,2024-01-30,22.963017,120.327797,1.1671903e-09
C0V720,林園,2024-01-30,22.507747,120.394511,1.3585794e-09
C1I510,線浸林道,2024-01-30,23.761508,120.832956,1.0375312e-08
C0D690,外湖,2024-01-30,24.917735,120.968711,7.2583015e-07
C0C750,新興坑尾,2024-01-30,25.0061,121.0971,7.986392e-07
B2Q810,畜試南區分所,2024-01-30,21.945583,120.802167,0.99995285
C0S790,金崙,2024-01-30,22.538122,120.966875,2.6925013e-08
C0AH90,福山植物園,2024-01-30,24.760717,121.58135,2.4589026e-08
C0I540,奇萊稜線,2024-01-30,24.109231,121.326456,2.847224e-08
C0M850,表湖,2024-01-30,23.24186,120.64166,3.3711278e-09
C0S770,大溪山,2024-01-30,22.478475,120.943325,3.8165236e-08
C0AG80,中和,2024-01-30,24.991622,121.491792,9.414146e-09
C0T790,大禹嶺,2024-01-30,24.186117,121.316086,2.2792111e-08
C0T9B0,水源,2024-01-30,23.991861,121.537169,8.530967e-09
C0R840,牡丹池山,2024-01-30,22.168389,120.841225,7.0277315e-07
C1I131,桶頭,2024-01-30,23.641944,120.654117,1.3995174e-09
CAL110,布袋國中,2024-01-30,23.35893,120.18026,6.016727e-09
467571,新竹,2024-01-30,24.827853,121.014219,4.0801064e-07
C0Z290,赤柯山,2024-01-30,23.36893,121.38293,3.1871345e-08
C0X280,將軍,2024-01-30,23.214999,120.13577,1.7826515e-08
C0S690,太麻里,2024-01-30,22.60902,120.98533,1.5509821e-08
C0U880,北關,2024-01-30,24.9072,121.8734,1.8860327e-08
C1H860,瑞岩,2024-01-30,24.123772,121.18345,1.8743524e-08
C0G810,埔心,2024-01-30,23.947633,120.525456,9.890787e-10
C0U970,大福,2024-01-30,24.80064,121.81389,5.3772737e-09
C1E670,南礦,2024-01-30,24.538278,121.002836,1.6367457e-08
C0M520,東後寮,2024-01-30,23.369908,120.248065,5.953689e-09
C1E461,松安,2024-01-30,24.397972,120.986022,1.2771957e-08
72G600,臺中農改,2024-01-30,24.003028,120.534389,8.6852775e-10
C2N160,西拉雅風管處,2024-01-30,23.189481,120.335297,1.7152479e-09
C0A640,石碇,2024-01-30,24.993969,121.662917,1.950982e-08
E2S960,林試太麻里2,2024-01-30,22.598,120.99775,2.6070548e-08
C0F9Y0,桃山,2024-01-30,24.432739,121.303808,2.439623e-08
C1I020,萬大,2024-01-30,23.979817,121.132261,4.0965458e-09
C0U940,羅東,2024-01-30,24.68184,121.74934,4.352457e-09
C0M650,朴子,2024-01-30,23.43463,120.23902,3.6395837e-09
C1I500,大尖山,2024-01-30,23.858572,120.994889,1.284319e-08
C0G820,田尾,2024-01-30,23.901669,120.509389,9.849277e-10
E2K600,四湖植物園,2024-01-30,23.676986,120.163433,1.2114275e-07
C0S730,綠島,2024-01-30,22.6672,121.47533,0.99025774
12Q970,東港工作站,2024-01-30,22.479997,120.466058,8.513188e-08
C0E430,南庄,2024-01-30,24.601775,121.000214,8.703109e-09
C1TA00,太魯閣,2024-01-30,24.15773,121.6236,1.2225454e-08
466920,臺北,2024-01-30,25.037658,121.514853,1.21099255e-08
C0R600,舊泰武,2024-01-30,22.588194,120.664944,1.9287996e-09
C1I260,北坑,2024-01-30,23.9246,121.006903,2.7544587e-09
466910,鞍部,2024-01-30,25.182586,121.529731,4.4887884e-08
C1I230,九份二山,2024-01-30,23.961944,120.845,4.3862594e-09
C2A660,瑞芳,2024-01-30,25.113169,121.801147,3.5954137e-08
C0R270,琉球嶼,2024-01-30,22.332244,120.362236,2.7019762e-09
C1T990,高寮,2024-01-30,23.394239,121.356808,5.848733e-09
C0G620,芬園,2024-01-30,24.015678,120.6213,8.8132884e-10
C1Z140,荖溪,2024-01-30,23.890575,121.45964,4.0430645e-08
C1I201,中心崙,2024-01-30,23.728722,120.712097,3.2637528e-09
C1I400,凌霄,2024-01-30,24.018778,121.004456,5.745528e-09
C1M640,十字,2024-01-30,23.492153,120.753683,1.1394898e-08
G2P820,農試鳳山分所,2024-01-30,22.646611,120.356083,2.0647038e-08
C0Z270,蕃薯寮,2024-01-30,23.73835,121.540108,9.53426e-09
C0F9Q0,外埔,2024-01-30,24.347817,120.705686,5.8632645e-09
C0K580,高鐵雲林,2024-01-30,23.737456,120.417944,1.1006457e-09
C2I090,鳳凰,2024-01-30,23.728081,120.787347,6.9612054e-09
C0U990,員山,2024-01-30,24.74435,121.72247,4.304589e-09
C0V770,大社,2024-01-30,22.730306,120.346639,5.5983524e-09
C0X120,麻豆,2024-01-30,23.183289,120.248611,4.2645785e-09
C0C670,龍潭,2024-01-30,24.870056,121.221389,2.1270573e-08
C0D680,香山濕地,2024-01-30,24.783581,120.914988,7.853599e-08
C0S980,勝林山,2024-01-30,22.430439,120.8938,3.8829672e-08
C0V730,大寮,2024-01-30,22.605614,120.395717,1.3402932e-08
C0R570,麟洛,2024-01-30,22.65078,120.52719,1.3149005e-09
CAG100,王功漁港,2024-01-30,23.96824,120.32586,0.75577354
C0X290,北門,2024-01-30,23.267772,120.125481,1.7826515e-08
C2F930,大甲,2024-01-30,24.347667,120.640403,2.9814933e-07
C0D650,湖口,2024-01-30,24.904794,121.043628,4.0613943e-07
C0E420,竹南,2024-01-30,24.708978,120.888897,0.23988517
C0U780,五結,2024-01-30,24.68637,121.79794,4.274228e-09
C1I250,鯉潭,2024-01-30,23.961922,120.991131,3.870122e-09
C0R130,阿禮,2024-01-30,22.742908,120.743678,4.000245e-09
C0X100,臺南市北區,2024-01-30,23.010394,120.194228,6.02803e-09
C0S920,金峰嘉蘭,2024-01-30,22.594789,120.960825,2.2428141e-08
C0V490,新興,2024-01-30,22.627422,120.298803,1.5252713e-08
C0F9K0,大安,2024-01-30,24.345061,120.588025,4.6008017e-07
72N100,臺南農改,2024-01-30,23.0605,120.342194,1.4878929e-09
467290,古坑,2024-01-30,23.633639,120.551889,1.0617887e-09
C0V440,鳳山,2024-01-30,22.646653,120.356122,2.0647038e-08
C1T940,大觀,2024-01-30,23.714206,121.373133,1.0448852e-08
72T250,花蓮農改,2024-01-30,23.975222,121.563889,6.15672e-09
C0E740,造橋,2024-01-30,24.637056,120.864778,1.3217198e-07
C0R100,尾寮山,2024-01-30,22.833111,120.683889,4.2482524e-09
A2K630,臺大雲林校區,2024-01-30,23.730628,120.423903,1.1006457e-09
C0D580,寶山,2024-01-30,24.735006,121.025192,5.676977e-09
E2P990,林試扇平站,2024-01-30,22.9677,120.6857,3.5005208e-09
C0AI30,三重,2024-01-30,25.057328,121.500629,1.2036628e-08
C0AH00,汐止,2024-01-30,25.066881,121.658778,1.2109949e-08
C1Z040,立山,2024-01-30,23.443356,121.327375,3.025916e-08
C0R740,獅子,2024-01-30,22.201569,120.70525,0.9008408
C0W130,花嶼,2024-01-30,23.40007,119.32276,0.99094164
C0A950,鼻頭角,2024-01-30,25.129036,121.923372,1.3211148e-07
C0K470,林內,2024-01-30,23.748675,120.609642,1.1197303e-09
82C160,茶改場,2024-01-30,24.908472,121.185333,4.745747e-08
C0Z320,清水林道,2024-01-30,23.27125,121.188272,2.8887039e-08
C0R760,南仁湖,2024-01-30,22.084681,120.863353,8.9872486e-07
C0M670,大林,2024-01-30,23.600616,120.45841,1.2863459e-09
C0M800,茶山,2024-01-30,23.299075,120.664767,1.5155845e-09
C0A9C0,天母,2024-01-30,25.117494,121.537169,3.275935e-08
72K220,南改斗南分場,2024-01-30,23.634556,120.477333,9.612333e-10
72AI40,桃改樹林分場,2024-01-30,24.944503,121.386972,3.7276163e-08
C0S910,蘭嶼燈塔,2024-01-30,22.081197,121.503117,0.9940714
C0B050,八斗子,2024-01-30,25.144754,121.79167,3.959295e-08
C0U900,內城,2024-01-30,24.71813,121.68766,4.4751256e-09
C0X320,柳營,2024-01-30,23.253328,120.375253,1.1998252e-09
C0M790,新港,2024-01-30,23.553269,120.345728,2.2695104e-09
C0F9T0,西屯,2024-01-30,24.179494,120.641275,1.4602337e-09
C0SA30,都歷,2024-01-30,23.020333,121.323642,4.0482018e-09
C0C620,蘆竹,2024-01-30,25.084275,121.265767,2.6354257e-07
C0R730,大坪頂,2024-01-30,22.024633,120.69355,0.0005423882
C0AJ40,石門,2024-01-30,25.273672,121.601198,1.4657225e-07
C0E750,苗栗,2024-01-30,24.564569,120.824575,1.2265019e-08
C0T870,鯉魚潭,2024-01-30,23.935639,121.508944,7.765786e-09
C1V170,排雲,2024-01-30,23.463619,120.954147,2.3641038e-08
C2H950,中寮,2024-01-30,23.884447,120.766406,1.4519048e-09
C0R350,貓鼻頭,2024-01-30,21.921774,120.7358,0.99906635
C0V660,岡山,2024-01-30,22.797078,120.294958,1.184491e-08
C1H941,雙冬,2024-01-30,23.967378,120.802189,2.8015679e-09
C0AJ70,田寮,2024-01-30,25.2698,121.4886,2.0190676e-07
C0AI00,五股,2024-01-30,25.07445,121.42728,4.1159396e-08
C0Z280,德武,2024-01-30,23.47426,121.41071,4.8066617e-09
C0R700,枋山,2024-01-30,22.246844,120.661086,0.66908747
C0C460,復興,2024-01-30,24.820208,121.352281,4.0645595e-08
E2H360,蓮華池,2024-01-30,23.918333,120.885278,3.1118188e-09
C0M640,中埔,2024-01-30,23.42538,120.5229,7.7499046e-10
C0W140,金沙,2024-01-30,24.488292,118.408778,3.2007293e-07
C2A540,四堵,2024-01-30,24.8926,121.745736,1.9028455e-08
C0ACA0,新莊,2024-01-30,25.051478,121.446756,1.5500712e-08
C0R220,潮州,2024-01-30,22.534361,120.54,8.069535e-09
U2HA40,臺大內茅埔,2024-01-30,23.689722,120.851117,5.7503193e-09
467490,臺中,2024-01-30,24.145736,120.684075,1.3602544e-09
C0U960,翠峰湖,2024-01-30,24.510856,121.608044,3.8587874e-08
E2HA20,林試畢祿溪站,2024-01-30,24.226944,121.308522,2.547158e-08
C0V890,前鎮,2024-01-30,22.5718,120.3117,1.6894845e-08
467620,蘭嶼,2024-01-30,22.036969,121.558339,0.9988476
C1F941,雪嶺,2024-01-30,24.280586,121.026642,3.303159e-08
C0AC80,文山,2024-01-30,25.00235,121.575728,9.507003e-09
C0F9R0,龍井,2024-01-30,24.184536,120.528972,1.192588e-07
C0M760,民雄,2024-01-30,23.551754,120.428457,1.2990784e-09
C0UA40,西德山,2024-01-30,24.560647,121.752608,2.5322478e-08
C1T920,中興,2024-01-30,23.769503,121.498653,6.178707e-09
C0D550,雪霸,2024-01-30,24.526972,121.11605,1.3847469e-08
C2F860,梨山,2024-01-30,24.247522,121.243669,2.5942127e-08
C0R320,車城,2024-01-30,22.0744,120.716247,0.9991318
C1S870,南美山,2024-01-30,23.15025,121.382333,7.9827815e-09
C0B020,基隆嶼,2024-01-30,25.19141,121.78391,2.3949735e-07
C1U501,牛鬥,2024-01-30,24.637836,121.573656,9.9038e-09
C0M730,嘉義市東區,2024-01-30,23.457673,120.460531,6.978271e-10
C0S700,知本,2024-01-30,22.684866,121.005642,1.44701495e-08
C1N001,沙崙,2024-01-30,22.935472,120.309406,1.1807866e-09
C0V760,橋頭,2024-01-30,22.757806,120.30575,5.8182574e-09
C0G960,福寶,2024-01-30,24.0443,120.3814,1.8895541e-08
C0X210,白河,2024-01-30,23.347466,120.414427,8.080651e-10
C0S810,東河,2024-01-30,22.972672,121.303986,2.8272286e-06
C0R670,楓港,2024-01-30,22.190131,120.692156,0.46635503
C0FA50,霧峰,2024-01-30,24.0419,120.6995,8.4660917e-10
C0UB10,蘇澳,2024-01-30,24.5969,121.8571,8.720506e-09
C0G950,防潮門,2024-01-30,24.1835,120.4871,1.1929735e-07
C0M740,六腳,2024-01-30,23.492871,120.290625,3.100562e-09
C1R250,力里,2024-01-30,22.428117,120.629228,9.998696e-10
C0K330,虎尾,2024-01-30,23.719183,120.442036,1.1025745e-09
C2FA00,烏石坑,2024-01-30,24.273503,120.947617,7.352386e-09
C0V620,永安,2024-01-30,22.82315,120.236856,1.1846514e-08
C1I330,楓樹林,2024-01-30,23.986803,121.076117,4.6969455e-09
C0W200,湖西,2024-01-30,23.596314,119.67275,0.9931457
72Q010,高雄農改場,2024-01-30,22.709333,120.525889,1.1236455e-09
C0SA40,瑞和,2024-01-30,22.974361,121.156697,5.7267866e-09
C0C680,龜山,2024-01-30,25.02846,121.38656,3.889453e-08
C2V260,月眉,2024-01-30,22.971003,120.539853,5.4844584e-10
C0V450,鳳森,2024-01-30,22.545064,120.392592,1.2789674e-09
C0U720,南山,2024-01-30,24.43742,121.38167,2.2687843e-08
A2N290,臺南蘭花園區,2024-01-30,23.340258,120.379661,2.0101303e-09
C0R560,新園,2024-01-30,22.5434,120.461558,1.3585794e-09
C0U890,三星,2024-01-30,24.66812,121.65302,8.699292e-09
C1V300,御油山,2024-01-30,23.001983,120.715364,9.927383e-09
C0U600,礁溪,2024-01-30,24.817539,121.765608,1.3275238e-08
C1T980,龍澗,2024-01-30,24.023289,121.411328,5.0219814e-08
C0D670,海天一線,2024-01-30,24.831986,120.914438,0.9949561
C0SA00,歷坵,2024-01-30,22.520969,120.89185,2.0396065e-08
C0M710,東石,2024-01-30,23.458927,120.15385,3.2266662e-08
C0M780,鹿草,2024-01-30,23.41134,120.30835,3.5495678e-09
C0U520,雙連埤,2024-01-30,24.753033,121.641303,1.107148e-08
C0B010,七堵,2024-01-30,25.094819,121.71713,2.2123972e-08
C0R480,長治,2024-01-30,22.693128,120.542622,2.2098912e-09
C1V830,國三S383K,2024-01-30,22.781967,120.426475,9.823499e-10
12Q980,恆春工作站,2024-01-30,22.079678,120.714425,0.9991318
C1O940,東山服務區,2024-01-30,23.286016,120.398472,9.530964e-10
C1U840,東澳嶺,2024-01-30,24.5378,121.8485,1.52823e-08
C1D630,飛鳳山,2024-01-30,24.766464,121.119178,1.1195408e-08
C0S940,石寧山,2024-01-30,23.223772,121.406639,8.792775e-09
C0K410,北港,2024-01-30,23.573957,120.292802,4.0446593e-09
C2M620,瑞里,2024-01-30,23.545133,120.675197,8.633602e-09
C2O950,安南,2024-01-30,23.076694,120.144861,1.0347904e-07
C0F0E0,南湖圈谷,2024-01-30,24.363714,121.444667,5.166751e-08
467610,成功,2024-01-30,23.097486,121.373428,8.26744e-09
C0G890,伸港,2024-01-30,24.148933,120.484403,4.820031e-08
C2E540,龍溪,2024-01-30,24.606489,120.783933,1.4653311e-07
C1V200,梅山,2024-01-30,23.268447,120.823556,4.398793e-09
C0T9H0,加路蘭山,2024-01-30,23.682947,121.5274,1.621687e-08
C2O930,玉井,2024-01-30,23.126042,120.46055,7.407617e-10
C1F911,新伯公,2024-01-30,24.221361,120.841069,2.755147e-09
C0R490,九如,2024-01-30,22.7405,120.490503,1.1228378e-09
C0X200,左鎮,2024-01-30,23.056758,120.408522,9.880567e-10
C1F891,稍來,2024-01-30,24.265689,121.001142,2.2678497e-08
72N240,七股研究中心,2024-01-30,23.081672,120.062894,1.1668073e-07
C0C700,中壢,2024-01-30,24.977661,121.256375,2.378187e-08
C0M690,水上,2024-01-30,23.419734,120.388909,1.8385926e-09
C0V690,鼓山,2024-01-30,22.623325,120.275575,1.5258125e-08
C0O860,大內,2024-01-30,23.11885,120.36083,1.4938532e-09
C0Z200,萬榮,2024-01-30,23.709219,121.420106,8.693122e-09
C0T9D0,和中,2024-01-30,24.26676,121.74103,5.992413e-09
C1O921,楠西,2024-01-30,23.183511,120.484083,5.6801697e-10
C0AJ30,淡水觀海,2024-01-30,25.184591,121.408616,9.28977e-08
C0V810,左營,2024-01-30,22.67491,120.28491,2.366698e-08
C0UA70,桃源谷,2024-01-30,24.962606,121.888875,3.098589e-08
C0X130,官田,2024-01-30,23.193217,120.315422,1.7295649e-09
C1H000,翠峰,2024-01-30,24.109397,121.205211,1.6351636e-08
C0UA90,石城,2024-01-30,24.980444,121.951214,2.3092248e-08
C1E681,南勢山,2024-01-30,24.421669,120.923831,8.9148005e-09
C0A9F0,內湖,2024-01-30,25.079422,121.57545,1.21099255e-08
C0K291,宜梧,2024-01-30,23.536281,120.169329,5.301e-09
C1K540,口湖,2024-01-30,23.585344,120.180517,3.927716e-07
C0R780,滿州,2024-01-30,22.024403,120.839892,0.99749887
C0V870,文安,2024-01-30,22.8025,120.2164,1.2834423e-08
C0U650,玉蘭,2024-01-30,24.675286,121.587061,1.20089725e-08
C0R640,東港,2024-01-30,22.46247,120.44074,8.513188e-08
K2E360,苗栗農改,2024-01-30,24.495722,120.829111,1.1948062e-08
C0AJ80,板橋,2024-01-30,25.0107,121.4489,9.253532e-09
C0S660,下馬,2024-01-30,23.150427,121.070312,2.367339e-08
C1H9B1,阿眉,2024-01-30,24.1263,120.994672,1.8046697e-08
C0UA20,多加屯,2024-01-30,24.368614,121.373189,1.786866e-08
C0E730,頭份,2024-01-30,24.688247,120.912206,0.33816227
72V140,高改旗南分場,2024-01-30,22.857861,120.516667,7.3791034e-10
C0K480,莿桐,2024-01-30,23.761192,120.502372,8.8164154e-10
C0U980,坪林石牌,2024-01-30,24.86478,121.77396,1.5673502e-08
C0T900,西林,2024-01-30,23.8119,121.441458,6.7048633e-09
C1I150,青雲,2024-01-30,23.793361,120.949378,3.2649918e-09
467350,澎湖,2024-01-30,23.565503,119.563094,0.99195576
C0G800,埔鹽,2024-01-30,24.000394,120.431683,1.0375925e-08
C0H960,草屯,2024-01-30,23.973672,120.68085,8.771932e-10
C1V780,多納林道,2024-01-30,22.888028,120.737917,5.0109374e-09
C0E920,通霄漁港,2024-01-30,24.498589,120.673876,0.47033426
C0Z330,安通山,2024-01-30,23.290728,121.348528,9.77517e-09
C0AH10,永和,2024-01-30,25.01125,121.508111,9.253532e-09
C2G640,鹿港,2024-01-30,24.0753,120.430481,1.8895541e-08
C1E890,國三N149K,2024-01-30,24.463414,120.680019,2.7207586e-06
C1R110,口社,2024-01-30,22.770111,120.645222,9.706089e-10
C1M870,國三N285K,2024-01-30,23.550319,120.505833,1.1570341e-09
467050,新屋,2024-01-30,25.006744,121.047486,1.1050984e-06
C1E480,鳳美,2024-01-30,24.554803,121.034747,1.2235018e-08
C0M530,奮起湖,2024-01-30,23.493903,120.699253,9.379805e-09
C0C590,觀音,2024-01-30,25.027072,121.153317,2.6645575e-05
C0T9M0,靜浦,2024-01-30,23.455167,121.495028,4.3914157e-09
C0AI40,石牌,2024-01-30,25.115597,121.513139,3.3012757e-08
C1F871,上谷關,2024-01-30,24.203483,121.018644,6.212113e-09
C0G880,二水,2024-01-30,23.810742,120.6173,1.1355665e-09
C0R940,加祿堂,2024-01-30,22.3363,120.6217,3.8671132e-08
C0W220,北竿,2024-01-30,26.220358,119.974881,4.3374184e-05
C0O960,崎頂,2024-01-30,22.959547,120.369317,1.1918717e-09
C0S750,向陽,2024-01-30,23.248397,120.986133,1.2507807e-08
C0T9F0,水璉,2024-01-30,23.797131,121.542514,7.0840844e-09
C1M600,頭凍,2024-01-30,23.406364,120.603339,6.3811414e-09
467660,臺東,2024-01-30,22.752211,121.154586,4.031941e-07
C1D380,新埔,2024-01-30,24.84745,121.03834,3.1307047e-07
C0V750,路竹,2024-01-30,22.854997,120.259439,9.788752e-09
C0N050,蚵寮,2024-01-30,23.301,120.1104,1.4490587e-08
72M700,南改鹿草分場,2024-01-30,23.416869,120.283061,3.637592e-09
C1SA50,利嘉林道,2024-01-30,22.82325,121.009389,2.9172746e-08
467550,玉山,2024-01-30,23.487614,120.959522,3.0794116e-08
C0A940,金山,2024-01-30,25.223628,121.643967,5.631437e-08
C1V340,大津,2024-01-30,22.888322,120.645986,8.790758e-10
C0W180,七美,2024-01-30,23.219333,119.444892,0.99293053
C1F9C1,白冷,2024-01-30,24.182844,120.929889,3.415429e-09
K2E710,苗改生物防治研究中心,2024-01-30,24.422861,120.871833,4.9950875e-09
C0N040,蘆竹溝,2024-01-30,23.2344,120.0961,1.7826515e-08
C2W230,畜試所澎湖,2024-01-30,23.628342,119.513206,0.98806447
C0R880,後壁湖,2024-01-30,21.9457,120.7457,0.9999842
C1I280,埔中,2024-01-30,23.820778,120.642594,2.2954876e-09
467790,墾丁雷達站,2024-01-30,21.948235,120.808028,0.9999565
C0W190,望安,2024-01-30,23.380564,119.494075,0.99439454
466881,新北,2024-01-30,24.9593,121.52,9.3873584e-09
C0Z170,卓溪,2024-01-30,23.3443,121.3029,6.1752194e-09
C0F850,東勢,2024-01-30,24.246428,120.833047,2.7869433e-09
466900,淡水,2024-01-30,25.164889,121.448906,1.9307554e-07
C0I370,魚池,2024-01-30,23.895703,120.94135,3.242823e-09
C0C630,大溪,2024-01-30,24.882853,121.265547,2.091127e-08
C0A520,山佳,2024-01-30,24.974944,121.402008,1.2350256e-08
C0I110,竹山,2024-01-30,23.761225,120.688156,1.2427639e-09
82H840,茶改南部分場,2024-01-30,23.762528,120.7405,2.2058737e-09
C0G660,溪湖,2024-01-30,23.94835,120.479122,9.820315e-10
C1T800,洛韶,2024-01-30,24.204558,121.453956,3.3848337e-08
C1T810,慈恩,2024-01-30,24.192044,121.388386,1.5145828e-08
C1E451,象鼻,2024-01-30,24.368617,120.940228,6.0469962e-09
C0AC60,三峽,2024-01-30,24.939025,121.369728,3.6788304e-08
C0I490,萬大林道,2024-01-30,23.928228,121.091411,7.7093505e-09
C1I290,豐丘,2024-01-30,23.668178,120.887417,9.753417e-09
C1I320,奧萬大,2024-01-30,23.952956,121.178556,5.2580624e-09
C0U770,南澳,2024-01-30,24.44935,121.81022,7.750544e-09
C0A980,社子,2024-01-30,25.109508,121.469681,2.0922144e-07
C0V800,六龜,2024-01-30,22.997889,120.633583,7.056934e-10
C1G9D0,國一S218K,2024-01-30,23.890641,120.493253,1.1108491e-09
C2F9A0,中竹林,2024-01-30,24.103556,120.751061,1.9452773e-09
C0FA40,臺中電廠,2024-01-30,24.2146,120.4907,1.192588e-07
C0H9C0,合歡山,2024-01-30,24.143442,121.272547,3.127738e-08
C0X060,下營,2024-01-30,23.22695,120.256261,5.1594613e-09
G2M350,農試溪口農場,2024-01-30,23.58565,120.408111,1.3120646e-09
C0U860,頭城,2024-01-30,24.85323,121.8308,1.3264228e-08
C0R580,南州,2024-01-30,22.48591,120.50274,8.513188e-08
C0D430,峨眉,2024-01-30,24.6905,121.017189,8.232617e-09
C0G780,秀水,2024-01-30,24.03405,120.503869,8.6852775e-10
72N100,臺南農改場,2024-01-30,23.0605,120.342194,1.4878929e-09
C0S900,蘭嶼高中,2024-01-30,22.04909,121.51214,0.7910434
467540,大武,2024-01-30,22.355675,120.903789,9.985266e-07
C1F9W0,德基,2024-01-30,24.254783,121.190261,1.96619e-08
C1Z120,壽豐,2024-01-30,23.870853,121.508081,5.6010334e-09
C0W160,烏坵,2024-01-30,24.9944,119.44956,0.5128887
C1I240,外大坪,2024-01-30,23.958697,120.917931,3.9471457e-09
C1I550,國六W023K,2024-01-30,23.979067,120.867742,1.8575352e-09
C0R870,興海,2024-01-30,21.9752,120.8439,0.99995285
C0R140,瑪家,2024-01-30,22.682903,120.686639,2.26481e-09
C0A530,坪林,2024-01-30,24.938183,121.70975,1.8805654e-08
C0X260,後壁,2024-01-30,23.366358,120.362326,2.0101303e-09
C0Z230,和平,2024-01-30,24.30717,121.77007,5.9801954e-09
C0G770,福興,2024-01-30,24.041289,120.437669,1.0375925e-08
C0H9A0,神木村,2024-01-30,23.532742,120.843667,1.1608743e-08
C0I460,南投,2024-01-30,23.911469,120.687331,1.2892074e-09
C0I480,梅峰,2024-01-30,24.085272,121.173572,1.0849223e-08
C1V570,吉東,2024-01-30,22.85422,120.5454,7.446886e-10
C2A560,福山,2024-01-30,24.776203,121.502811,2.2489097e-08
C0AH30,五分山,2024-01-30,25.07125,121.780794,3.746405e-08
C0FA10,松柏,2024-01-30,24.429115,120.617482,7.328479e-06
72S200,東改班鳩分場,2024-01-30,22.829528,121.077694,1.5744632e-08
72HA00,中改埔里分場,2024-01-30,23.903208,120.963364,2.9318488e-09
C0C650,平鎮,2024-01-30,24.897503,121.214636,3.3307618e-08
C0S930,延平,2024-01-30,22.902581,121.084058,9.494427e-09
C0UA60,樟樹山,2024-01-30,24.41393,121.78325,1.3417997e-08
C1S670,摩天,2024-01-30,23.199503,121.027,5.093444e-08
C0V630,茄萣,2024-01-30,22.906642,120.182608,1.091504e-08
466940,基隆,2024-01-30,25.133314,121.740475,3.9314894e-08
C0X050,東河,2024-01-30,23.296598,120.385608,9.498643e-10
C0R770,保力,2024-01-30,22.071122,120.764111,0.033470955
G2L020,農試嘉義分所,2024-01-30,23.485028,120.473806,8.3192564e-10
C0X240,關子嶺,2024-01-30,23.331169,120.508025,1.2086498e-09
C0I380,集集,2024-01-30,23.828206,120.801467,1.8697597e-09
466990,花蓮,2024-01-30,23.975128,121.613275,6.1341794e-09
C1V220,小關山,2024-01-30,23.154217,120.813603,9.398556e-09
C1F9G1,慶福山,2024-01-30,24.180853,120.848378,4.1634545e-09
C0Z250,瑞穗林道,2024-01-30,23.49284,121.30688,7.977442e-08
C0D590,新豐,2024-01-30,24.87068,120.97721,0.9331024
C0A870,五指山,2024-01-30,25.132153,121.608692,2.9870883e-08
C0UA50,西帽山,2024-01-30,24.555361,121.802628,2.072698e-08
C0X160,仁德,2024-01-30,22.968258,120.257689,2.3287605e-09
C1H971,六分寮,2024-01-30,23.92507,120.6378,2.0072874e-09
C0W120,西嶼,2024-01-30,23.5626,119.468436,0.99263096
C0G650,員林,2024-01-30,23.946503,120.585597,9.137578e-10
C0AD50,鶯歌,2024-01-30,24.951533,121.346294,3.6169286e-08
C0S990,山豬窟,2024-01-30,22.318619,120.857372,2.707922e-07
72Q010,高雄農改,2024-01-30,22.709333,120.525889,1.1236455e-09
C0X190,安平,2024-01-30,22.993161,120.152181,6.02803e-09
C0K400,斗六,2024-01-30,23.720583,120.541127,8.844239e-10
12J990,口湖工作站,2024-01-30,23.589978,120.180394,3.927716e-07
C0O830,北寮,2024-01-30,23.079561,120.495008,4.6139392e-10
C1D410,白蘭,2024-01-30,24.579364,121.079947,1.715563e-08
C0S970,加津林,2024-01-30,22.416211,120.926942,8.1040406e-07
C0D700,關西,2024-01-30,24.7977,121.1732,8.811747e-09
C0M810,里佳,2024-01-30,23.389125,120.716647,9.0038315e-09
C0U750,龜山島,2024-01-30,24.841667,121.953133,9.839727e-06
C0R810,內獅,2024-01-30,22.305064,120.642986,4.4774925e-08
C1M390,龍美,2024-01-30,23.406728,120.654417,7.4032136e-09
C1H840,國三N238K,2024-01-30,23.841008,120.707711,1.7430136e-09
CAQ030,崎峰國小,2024-01-30,22.42565,120.49521,8.513188e-08
C2E520,大湖,2024-01-30,24.414939,120.870872,5.17844e-09
467530,阿里山,2024-01-30,23.508208,120.813242,2.2050669e-08
C1E691,南湖,2024-01-30,24.40135,120.837533,7.494339e-09
C0FA30,梧棲,2024-01-30,24.256003,120.523381,1.4181092e-07
C1V231,高中,2024-01-30,23.134911,120.716711,3.1109642e-09
C0F9V0,新社,2024-01-30,24.200172,120.815806,3.05839e-09
C0H890,埔里,2024-01-30,23.972169,120.952425,2.0632462e-09
C0R690,墾丁,2024-01-30,21.966756,120.810269,0.9996353
C0F0D0,審馬陣,2024-01-30,24.381675,121.4203,2.3835637e-08
C0R820,白鷺,2024-01-30,22.454275,120.666219,1.938821e-09
U2H480,臺大溪頭,2024-01-30,23.670306,120.798194,9.390957e-09
C1V190,南天池,2024-01-30,23.27403,120.91176,1.25114585e-08
K2E360,苗栗農改場,2024-01-30,24.495722,120.829111,1.1948062e-08
CAJ050,海口故事園區,2024-01-30,23.57543,120.14121,3.927716e-07
C0O990,媽廟,2024-01-30,22.99175,120.293525,1.5015146e-09
C0D480,打鐵坑,2024-01-30,24.849664,121.150789,2.1219961e-08
C0Z220,和平林道,2024-01-30,24.343922,121.656317,8.081319e-09
72C440,桃園農改場,2024-01-30,24.950944,121.030583,5.466067e-07
C1E711,馬拉邦山,2024-01-30,24.367306,120.901656,6.206203e-09
C0D560,竹東,2024-01-30,24.767147,121.057881,8.901887e-09
C0F9U0,南屯,2024-01-30,24.137006,120.637969,1.4366793e-09
C0M720,番路,2024-01-30,23.464657,120.554156,8.4099233e-10
C0F0A0,雪山圈谷,2024-01-30,24.388594,121.236339,3.2263276e-08
C1A9N0,四十份,2024-01-30,24.934158,121.593283,2.2842073e-08
C0U760,東澳,2024-01-30,24.52196,121.83318,6.313575e-09
C0X230,鹽水,2024-01-30,23.272621,120.247641,1.3243751e-08
C0V370,古亭坑,2024-01-30,22.893178,120.401947,1.0313511e-09
C1I340,新興橋,2024-01-30,23.563333,120.868728,7.509378e-09
C0SA80,土坂,2024-01-30,22.453108,120.887572,7.0991014e-08
C0R160,鹽埔,2024-01-30,22.739558,120.530778,1.1236455e-09
C0AC40,大屯山,2024-01-30,25.175675,121.522408,4.7406715e-08
466850,五分山雷達站,2024-01-30,25.071182,121.781205,3.7472486e-08
C1AI50,國三N016K,2024-01-30,25.034164,121.619664,1.2362677e-08
C1V600,藤枝,2024-01-30,23.071961,120.757042,8.896659e-09
C1E601,南勢,2024-01-30,24.572486,120.734842,0.95355105
C0Z180,新城,2024-01-30,24.03946,121.60454,6.1373746e-09
C0O980,新市,2024-01-30,23.061614,120.298197,1.5056673e-09
C0K420,西螺,2024-01-30,23.800407,120.467394,1.0630349e-09
C0Z050,佳心,2024-01-30,23.34567,121.21316,3.1627966e-08
C0AD30,蘆洲,2024-01-30,25.086594,121.472331,1.2039544e-08
C0V610,梓官,2024-01-30,22.760558,120.267211,5.8182574e-09
K2F750,種苗改良場,2024-01-30,24.225972,120.800917,2.8910836e-09
C0UA80,大溪漁港,2024-01-30,24.941801,121.902955,1.8809672e-08
C1AI60,國一39K邊坡,2024-01-30,25.064361,121.383836,3.9797296e-08
C0W150,金寧,2024-01-30,24.457703,118.328989,5.4246993e-07
V2C250,八德合作社,2024-01-30,24.93775,121.266389,3.4440113e-08
C0AH40,平等,2024-01-30,25.129142,121.577086,2.8190328e-08
C0R540,佳冬,2024-01-30,22.419456,120.552375,7.3140577e-10
466950,彭佳嶼,2024-01-30,25.627975,122.079744,2.8131732e-05
C0A890,雙溪,2024-01-30,25.036003,121.864242,2.7689564e-08
C0C480,桃園,2024-01-30,24.992425,121.323172,2.398193e-08
C0AH50,林口,2024-01-30,25.072181,121.38084,4.3329525e-08
A2K360,水試臺西試驗場,2024-01-30,23.717231,120.190522,5.2639206e-07
B2N890,畜試所,2024-01-30,23.058972,120.336406,1.4884209e-09
C0F9S0,烏日,2024-01-30,24.107058,120.624103,8.4814944e-10
C0C490,八德,2024-01-30,24.928708,121.283289,3.430277e-08
C0R190,赤山,2024-01-30,22.592333,120.614306,1.1161183e-09
C0T820,天祥,2024-01-30,24.179597,121.495639,4.507423e-08
C1F9E1,龍安,2024-01-30,24.1605,120.831961,2.7632412e-09
C0V820,小林,2024-01-30,23.148408,120.63325,8.6923707e-10
C2G870,芳苑,2024-01-30,23.922303,120.320025,0.74278724
C0E850,大河,2024-01-30,24.618069,120.948578,6.7459505e-09
C1U670,寒溪,2024-01-30,24.634,121.71691,5.693264e-09
C0N020,城西,2024-01-30,23.0568,120.0956,6.034783e-09
C1Z110,三棧,2024-01-30,24.11557,121.60501,4.2507427e-08
C0R280,檳榔,2024-01-30,22.076078,120.836777,3.1023233e-06
C0F9L0,后里,2024-01-30,24.310436,120.729725,2.9543252e-09
C0D540,橫山,2024-01-30,24.71116,121.11693,6.1167014e-09
C1D420,太閣南,2024-01-30,24.632808,121.160575,1.7930317e-08
C1E770,公館,2024-01-30,24.526914,120.830806,1.2142028e-08
CAN130,水試所海水繁養殖中心,2024-01-30,23.120802,120.07968,1.1668073e-07
C1I430,翠華,2024-01-30,24.191961,121.224339,1.7506846e-08
C1M400,菜瓜坪,2024-01-30,23.251928,120.576103,1.5165967e-09
C0G730,二林,2024-01-30,23.903325,120.376081,1.0323022e-08
72M360,南改義竹分場,2024-01-30,23.360694,120.279361,5.953689e-09
V2K620,麥寮合作社,2024-01-30,23.753836,120.294783,4.6416315e-09
C0Z070,舞鶴,2024-01-30,23.46811,121.37407,4.9398787e-09
C0B040,大武崙,2024-01-30,25.166676,121.706993,3.806121e-08
C1Z030,紅葉,2024-01-30,23.493119,121.338806,4.267736e-09
C1I050,丹大,2024-01-30,23.753747,121.141147,1.3048078e-08
C0I080,信義,2024-01-30,23.689694,120.851036,5.7503193e-09
C2A880,福隆,2024-01-30,25.017842,121.942083,2.3346278e-08
C0Z160,鳳林,2024-01-30,23.746114,121.453411,8.572708e-09
C0V210,復興,2024-01-30,23.222403,120.806089,3.860287e-09
C0H990,昆陽,2024-01-30,24.121322,121.273642,2.8334094e-08
C0S710,鹿野,2024-01-30,22.917711,121.122994,6.3470322e-09
C0I530,小奇萊,2024-01-30,24.131764,121.295717,2.930542e-08
C0Z080,富源,2024-01-30,23.587642,121.378225,1.8645682e-08
467441,高雄,2024-01-30,22.7304,120.3125,5.5983524e-09
C1I140,卡奈托灣,2024-01-30,23.754364,121.087872,5.1935043e-09
C0I520,玉山風口,2024-01-30,23.470489,120.955994,3.3623195e-08
C1G691,下水埔,2024-01-30,23.816114,120.5676,8.973652e-10
C0X110,臺南市南區,2024-01-30,22.961189,120.188378,2.2687225e-09
C0V680,仁武,2024-01-30,22.701083,120.347722,2.366698e-08
C2G840,北斗,2024-01-30,23.877586,120.514222,1.1117309e-09
C0R900,竹坑,2024-01-30,22.1385,120.7022,0.9986947
C0K250,崙背,2024-01-30,23.75555,120.318925,4.647168e-09
C0G860,社頭,2024-01-30,23.897647,120.5862,9.427295e-10
C0X150,安定,2024-01-30,23.102614,120.227839,3.2876573e-09
C0R590,里港,2024-01-30,22.77919,120.49459,9.2612085e-10
C0E610,馬都安,2024-01-30,24.451272,120.930192,7.863924e-09
C0E550,明德,2024-01-30,24.583486,120.885411,1.2213545e-08
C0R150,三地門,2024-01-30,22.709889,120.639944,9.747033e-10
C0G910,花壇,2024-01-30,24.032076,120.549461,8.8006397e-10
C1D400,鳥嘴山,2024-01-30,24.71909,121.28387,1.7229313e-08
C0K500,元長,2024-01-30,23.64981,120.315024,3.9206145e-09
C0F0B0,石岡,2024-01-30,24.276061,120.777644,3.1837486e-09
C2V250,甲仙,2024-01-30,23.080106,120.591758,5.6762167e-10
C0SA20,金崙山,2024-01-30,22.567419,120.959667,1.6670295e-08
C0V350,溪埔,2024-01-30,22.738578,120.446797,1.1689905e-09
C0M660,溪口,2024-01-30,23.604131,120.403569,1.3120646e-09
C1S880,壽卡,2024-01-30,22.238911,120.858903,3.333041e-07
72D680,桃改新埔分場,2024-01-30,24.834444,121.066111,3.2300534e-07
