站號,站名,日期,lat,lon,BLBTSLS
C0R710,龍磐,2024-03-15,21.931672,120.838942,0.9750497
C1F9D1,白毛台,2024-03-15,24.158325,120.886933,1.8524157e-09
C0G940,竹塘,2024-03-15,23.848253,120.386764,1.8765156e-09
467590,恆春,2024-03-15,22.003897,120.746339,0.02506293
C1O850,環湖,2024-03-15,23.148617,120.418633,3.3962164e-07
C0U710,太平山,2024-03-15,24.505486,121.525656,1.245206e-08
C0E820,獅潭,2024-03-15,24.539133,120.920042,2.401932e-09
C0V880,興達,2024-03-15,22.8778,120.2127,2.6514861e-08
C0S890,關山,2024-03-15,23.0395,121.175017,8.540617e-10
K2F750,種苗繁殖,2024-03-15,24.225972,120.800917,4.1073815e-09
C1Z130,銅門,2024-03-15,23.965694,121.492842,2.6619384e-09
C0AD40,土城,2024-03-15,24.973208,121.445169,1.627891e-08
CAN140,六官養殖協會,2024-03-15,23.22881,120.29962,0.00012764081
C0X180,山上,2024-03-15,23.0757,120.363253,2.222825e-06
C0F9Z0,雪山東峰,2024-03-15,24.388792,121.268675,2.3361912e-08
C1M480,獨立山,2024-03-15,23.537022,120.607797,1.9500026e-09
C0X220,學甲,2024-03-15,23.230367,120.182187,7.132231e-08
C0R170,屏東,2024-03-15,22.660269,120.494072,1.2970556e-09
467650,日月潭,2024-03-15,23.881325,120.90805,3.347255e-09
C0K600,箔子寮,2024-03-15,23.6197,120.14,4.212574e-08
C0G830,埤頭,2024-03-15,23.866003,120.452806,7.82744e-09
C0S950,七塊厝,2024-03-15,22.954453,121.229922,1.7011436e-09
467110,金門,2024-03-15,24.407306,118.289281,2.5261731e-06
C0AH80,深坑,2024-03-15,25.002703,121.628328,1.5154612e-08
467990,馬祖,2024-03-15,26.169269,119.923419,6.305166e-08
C0A970,三貂角,2024-03-15,25.007606,122.002058,5.918929e-09
C0K430,褒忠,2024-03-15,23.690938,120.303634,1.3756063e-09
467480,嘉義,2024-03-15,23.495925,120.432906,5.059684e-06
C2E540,後龍,2024-03-15,24.606489,120.783933,3.3072315e-08
C0V400,阿公店,2024-03-15,22.804194,120.355528,4.701678e-09
C0R440,大漢山,2024-03-15,22.405264,120.753181,1.6982042e-08
C0K280,四湖,2024-03-15,23.630414,120.227125,9.53086e-09
C1F9B1,桐林,2024-03-15,24.066172,120.735194,4.8825394e-10
C0K390,土庫,2024-03-15,23.679029,120.395574,5.1121408e-08
C1I450,望鄉山,2024-03-15,23.594153,120.944286,1.1774609e-08
C0E910,海埔,2024-03-15,24.648767,120.772435,3.60941e-08
B2E890,畜試北區分所,2024-03-15,24.527806,120.770972,1.8466337e-09
C0R750,四林格山,2024-03-15,22.076989,120.802439,7.192943e-08
C0F0C0,中坑,2024-03-15,24.248517,120.903319,3.0946183e-09
C1I121,大鞍,2024-03-15,23.678381,120.760017,6.0585528e-09
72U480,花改蘭陽分場,2024-03-15,24.686306,121.716583,2.1130049e-09
C0A770,科教館,2024-03-15,25.096356,121.516507,5.1152007e-09
C0AJ60,六塊厝,2024-03-15,25.24,121.4481,8.3231265e-07
C0R620,墾雷,2024-03-15,21.900836,120.855269,0.6994456
467420,永康,2024-03-15,23.038386,120.2367,2.5032286e-08
467300,東吉島,2024-03-15,23.25695,119.667467,8.003541e-05
C0I410,名間,2024-03-15,23.837053,120.701447,8.799364e-10
A2C560,農工中心,2024-03-15,24.985917,121.239833,2.609413e-08
C0V740,旗山,2024-03-15,22.888614,120.483597,1.2785185e-09
C0Z061,玉里,2024-03-15,23.3215,121.339656,1.944365e-09
C0S840,南田,2024-03-15,22.279725,120.889208,0.00011519309
C1I470,杉林溪,2024-03-15,23.639517,120.786444,7.2365203e-09
C1X040,東原,2024-03-15,23.291597,120.463822,2.5182931e-09
C0R660,枋寮,2024-03-15,22.367722,120.590647,0.024780126
C1R120,上德文,2024-03-15,22.763272,120.704442,3.1181522e-09
C0K450,大埤,2024-03-15,23.646074,120.431537,6.655494e-08
C0UA00,土場,2024-03-15,24.576533,121.495333,5.006686e-09
467080,宜蘭,2024-03-15,24.763975,121.756528,2.7683846e-09
C0N030,四草,2024-03-15,23.0235,120.1116,5.223038e-09
C0V650,彌陀,2024-03-15,22.783806,120.246361,3.021003e-07
C0D660,新竹市東區,2024-03-15,24.798681,120.986942,2.4093616e-08
82S580,茶改東部分場,2024-03-15,22.907694,121.130139,1.8029494e-08
C0C710,大溪永福,2024-03-15,24.892936,121.324975,2.3249626e-08
C0FA20,溫寮,2024-03-15,24.372177,120.583125,1.3417146e-09
C0V640,湖內,2024-03-15,22.887139,120.2445,2.5701242e-08
C0R910,下寮,2024-03-15,22.3929,120.5548,0.024611393
C0Z020,明里,2024-03-15,23.208717,121.262342,2.239137e-09
C0M770,嘉義梅山,2024-03-15,23.585398,120.555587,8.239776e-10
G2F820,農業試驗所,2024-03-15,24.031261,120.688133,4.184741e-10
C0C660,楊梅,2024-03-15,24.912375,121.143047,1.4202944e-08
C1E511,新開,2024-03-15,24.347703,120.827019,2.355007e-09
G2F820,農試所(霧峰),2024-03-15,24.031261,120.688133,4.184741e-10
C1I070,和社,2024-03-15,23.591131,120.888861,5.1716094e-09
C2F000,大肚,2024-03-15,24.15295,120.572117,8.535422e-10
C1S850,豐南,2024-03-15,23.122139,121.262389,1.5712525e-09
C2A920,富貴角,2024-03-15,25.263783,121.565258,2.0693192e-07
CAH030,茶改場竹圍站,2024-03-15,23.860083,120.637528,7.823988e-10
C0T960,光復,2024-03-15,23.660694,121.424964,1.6677029e-09
C0F9M0,豐原,2024-03-15,24.254322,120.720692,2.1303816e-09
C0R720,旭海,2024-03-15,22.205403,120.887614,1.0207211e-06
C0V710,苓雅,2024-03-15,22.622742,120.330669,8.216526e-08
C0C740,觀音工業區,2024-03-15,25.064764,121.114856,0.0009979678
CAC040,拉拉山,2024-03-15,24.699317,121.427133,2.137269e-08
C0V790,萬山,2024-03-15,22.905944,120.688056,1.7223948e-09
U2HA30,臺大和社,2024-03-15,23.590856,120.888864,5.1716094e-09
C0AJ90,澳底,2024-03-15,25.0552,121.9253,3.513399e-08
C0Z100,東華,2024-03-15,23.89525,121.549833,2.2235265e-09
C0G970,三豐,2024-03-15,23.882,120.2895,7.075226e-09
V2K610,大庄合作社,2024-03-15,23.8068,120.367939,1.0594461e-09
C0V900,汕尾,2024-03-15,22.4782,120.4151,9.122215e-06
C1R630,龍泉,2024-03-15,22.66701,120.59091,1.5306504e-09
C1AC50,關渡,2024-03-15,25.133486,121.469331,5.657186e-09
C0F9I0,神岡,2024-03-15,24.272481,120.658314,1.1582264e-09
C0K460,斗南,2024-03-15,23.678734,120.478359,5.3944525e-08
467410,臺南,2024-03-15,22.993239,120.204772,4.67257e-09
C2O810,曾文,2024-03-15,23.219681,120.497328,6.132787e-09
467280,後龍,2024-03-15,24.648563,120.831834,2.9787644e-08
C1F9J1,清水林,2024-03-15,24.071242,120.820419,1.6235956e-09
C2A650,火燒寮,2024-03-15,25.002719,121.742892,6.579332e-09
466930,竹子湖,2024-03-15,25.162078,121.544547,7.972937e-09
C1I220,樟湖,2024-03-15,23.905333,120.846983,3.5774688e-09
C0I390,仁愛,2024-03-15,24.022122,121.132206,3.8108117e-09
C0Z300,東里,2024-03-15,23.26853,121.30547,2.1071207e-09
C0V310,美濃,2024-03-15,22.898742,120.519153,1.3296442e-09
C1V590,新發,2024-03-15,23.057019,120.646064,3.7069465e-09
C0K510,水林,2024-03-15,23.572924,120.24597,3.0393178e-08
72S590,東改賓朗果園,2024-03-15,22.813889,121.071278,8.0554834e-08
82A750,茶改北部分場,2024-03-15,24.955778,121.631222,1.1295186e-08
C1A750,石碇服務區,2024-03-15,25.00872,121.646242,1.2448521e-08
C0X300,鹿寮,2024-03-15,23.386047,120.477331,1.182773e-08
G2AI50,關渡,2024-03-15,25.11575,121.492,3.0639058e-06
C0K590,雲林東勢,2024-03-15,23.674192,120.255721,3.6855778e-09
C0A570,桶後,2024-03-15,24.848222,121.597992,5.030809e-09
C1S800,華源,2024-03-15,22.657883,121.02325,4.43375e-09
C0G720,溪州,2024-03-15,23.851589,120.499093,7.280615e-09
C1V160,達卡努瓦,2024-03-15,23.279811,120.705319,3.175119e-09
C2M410,馬頭山,2024-03-15,23.324361,120.582017,1.8713902e-09
C0V850,蚵仔寮,2024-03-15,22.7256,120.2527,3.4368323e-08
C0S740,池上,2024-03-15,23.119628,121.209469,2.6029794e-09
C1V390,尖山,2024-03-15,22.813153,120.367789,3.4660066e-09
C0AH70,松山,2024-03-15,25.04871,121.55042,5.092694e-09
C0N010,鯤鯓國小,2024-03-15,23.1879,120.0889,9.150419e-09
C0R550,新埤,2024-03-15,22.467947,120.582894,4.2830834e-06
C0SA60,知本（水試所）,2024-03-15,22.702394,121.082761,4.636614e-09
C0T9I0,豐濱,2024-03-15,23.583897,121.514806,1.5074546e-09
C0UB00,淡江大學蘭陽校園,2024-03-15,24.823239,121.730383,5.36496e-09
C0T9N0,富里,2024-03-15,23.171639,121.249378,3.3495475e-09
U2HA50,臺大竹山,2024-03-15,23.756972,120.681556,5.039392e-10
C0V840,鳳鼻頭,2024-03-15,22.5083,120.3591,1.3168959e-09
C0X140,西港,2024-03-15,23.125608,120.203108,5.2281138e-08
72D080,桃改五峰分場,2024-03-15,24.612194,121.157167,4.416262e-09
C0V530,阿蓮,2024-03-15,22.883208,120.327508,7.8271e-08
C1O880,關山,2024-03-15,23.173397,120.594092,2.2701339e-09
C0E791,卓蘭,2024-03-15,24.3126,120.8244,2.301296e-09
C1I030,武界,2024-03-15,23.913225,121.052483,2.8944658e-09
C0R520,崁頂,2024-03-15,22.514781,120.506914,2.857791e-07
C0R341,牡丹,2024-03-15,22.130036,120.792639,6.997142e-06
C0R930,萬丹,2024-03-15,22.5885,120.4851,1.9694244e-09
C0S760,紅石,2024-03-15,23.069131,121.126219,1.5045197e-08
C1M610,石磐龍,2024-03-15,23.496606,120.663506,4.6283795e-09
C0UA10,鴛鴦湖,2024-03-15,24.590269,121.412228,1.181134e-08
V2C260,八德蔬果,2024-03-15,24.978508,121.281819,1.2607735e-08
C0R800,丹路,2024-03-15,22.204481,120.750989,4.442727e-06
C0G920,永靖,2024-03-15,23.924703,120.547533,2.7199756e-09
C1A630,下盆,2024-03-15,24.771003,121.538622,5.5035954e-09
B2N890,畜產試驗所,2024-03-15,23.058972,120.336406,5.1789693e-06
C0UA30,白嶺,2024-03-15,24.527819,121.519031,9.917977e-09
C1V580,溪南(特生中心),2024-03-15,23.084972,120.788475,4.2967967e-09
C1T970,大農,2024-03-15,23.615233,121.413331,1.5983326e-09
E2S960,林試太麻里2,2024-03-15,22.598014,120.989761,1.182385e-08
C0R650,竹田,2024-03-15,22.58486,120.54344,5.280938e-09
C1H900,清流,2024-03-15,24.080775,120.962997,2.9272447e-09
C1C510,水尾,2024-03-15,24.940081,121.087161,1.8448083e-07
C0F9X0,大雅(中科園區),2024-03-15,24.21528,120.62445,1.0574817e-09
C0O970,虎頭埤,2024-03-15,23.021375,120.347878,3.7701793e-07
C0C730,中大臨海站,2024-03-15,24.966126,121.008581,1.57049e-06
C0X250,新營,2024-03-15,23.310689,120.316681,0.00018574005
C0V700,三民,2024-03-15,22.645017,120.311233,2.3494496e-05
C0U870,大礁溪,2024-03-15,24.791042,121.675047,5.111524e-09
C0E870,高鐵苗栗,2024-03-15,24.60725,120.826094,3.2532014e-08
A2K570,古坑花卉中心,2024-03-15,23.63353,120.55239,6.3163064e-10
C0M860,新美,2024-03-15,23.338017,120.683169,8.208294e-10
C1E701,八卦,2024-03-15,24.491756,120.927619,7.607568e-09
C0I420,國姓,2024-03-15,24.037803,120.855072,8.916003e-10
C0S960,香蘭,2024-03-15,22.587569,120.993375,1.182385e-08
C0R260,春日,2024-03-15,22.370361,120.628306,0.010140382
72G600,臺中農改場,2024-03-15,24.003028,120.534389,2.2019013e-09
C0Z210,瑞穗,2024-03-15,23.5239,121.39021,1.6295243e-09
C0M820,達邦,2024-03-15,23.453994,120.749517,2.7767506e-09
C0V860,南寮,2024-03-15,22.7616,120.2339,3.4368323e-08
C0G740,大城,2024-03-15,23.852487,120.320935,6.5739885e-09
C0R920,塭仔,2024-03-15,22.4169,120.5197,0.033866208
C0R470,高樹,2024-03-15,22.826389,120.600806,9.139757e-10
C0R680,佳樂水,2024-03-15,21.993578,120.861633,0.9675796
C1O870,大棟山,2024-03-15,23.31157,120.52226,1.6375191e-09
C0D360,梅花,2024-03-15,24.678347,121.208558,2.1310116e-09
C0Z190,富世,2024-03-15,24.14743,121.6297,7.952099e-09
C0AI10,屈尺,2024-03-15,24.92184,121.54475,5.2523514e-08
B2U990,畜試東區分所,2024-03-15,24.669039,121.832561,2.1737716e-09
C0R240,來義,2024-03-15,22.527306,120.625111,4.889515e-08
C1R610,西大武山,2024-03-15,22.617719,120.7322,2.0878629e-08
C0G900,線西,2024-03-15,24.143358,120.443536,8.241285e-10
C0M700,竹崎,2024-03-15,23.526178,120.555508,1.2925855e-09
C2E880,三義,2024-03-15,24.405478,120.749819,3.1632412e-09
C0C720,竹圍,2024-03-15,25.112692,121.239824,3.0659344e-06
C0F9P0,清水,2024-03-15,24.312297,120.562242,1.0698755e-09
C0Z150,吉安光華,2024-03-15,23.930925,121.595153,2.4081064e-09
C1D640,外坪(五指山),2024-03-15,24.644447,121.090961,2.814062e-09
C0F9O0,潭子,2024-03-15,24.213106,120.703933,1.5603635e-09
72T250,花蓮農改場,2024-03-15,23.975222,121.563889,3.8527626e-09
C0E780,銅鑼,2024-03-15,24.489681,120.790853,2.0678912e-09
C1T950,太安,2024-03-15,23.666719,121.370128,1.35703395e-08
C0E830,苑裡,2024-03-15,24.439714,120.653053,2.2065512e-09
467270,田中,2024-03-15,23.873803,120.581286,5.5670235e-10
C0SA10,檳榔四格山,2024-03-15,22.810031,121.109308,5.1896947e-08
C1T830,布洛灣,2024-03-15,24.17184,121.57127,1.3420685e-08
C0F970,大坑,2024-03-15,24.173142,120.722289,7.4163964e-10
C1U920,思源,2024-03-15,24.393125,121.347214,1.1370213e-08
C0A931,三和,2024-03-15,25.233153,121.595236,1.5424385e-08
C0I010,廬山,2024-03-15,24.033311,121.181808,5.870773e-09
C0R860,鼻頭,2024-03-15,22.1043,120.8979,0.08478096
C0UB20,壯圍,2024-03-15,24.7359,121.8163,2.057434e-09
C0R790,九棚,2024-03-15,22.14195,120.889281,8.6688335e-05
C0W110,東莒,2024-03-15,25.9652,119.98069,4.0522362e-08
C1U930,粉鳥林,2024-03-15,24.497088,121.842479,1.4853977e-09
C1I211,蘆竹湳,2024-03-15,23.934019,120.811994,8.037197e-10
C0S830,長濱,2024-03-15,23.286817,121.411975,2.1708257e-09
C1F9F1,伯公龍,2024-03-15,24.272392,120.849047,3.6491694e-09
C0E810,西湖,2024-03-15,24.562947,120.7485,2.5122984e-07
C1I440,新高口,2024-03-15,23.478744,120.878939,9.033659e-09
C0O840,王爺宮,2024-03-15,23.222064,120.40085,3.1331655e-08
C0T9G0,鳳林山,2024-03-15,23.735269,121.420131,4.9250803e-09
C0X080,佳里,2024-03-15,23.173039,120.145086,9.150419e-09
C0Z310,清水斷崖,2024-03-15,24.218294,121.689142,5.0163407e-09
C0M680,太保,2024-03-15,23.455062,120.331455,8.604599e-06
C1S820,金峰,2024-03-15,22.590969,120.933236,9.547672e-09
C0AD10,八里,2024-03-15,25.150211,121.403947,3.0659344e-06
C2K240,草嶺,2024-03-15,23.59555,120.693461,4.489266e-09
C1SA70,都蘭,2024-03-15,22.87794,121.226881,4.4135607e-08
C0K440,二崙,2024-03-15,23.772797,120.408944,8.8995105e-09
C1A760,坪林交控,2024-03-15,24.94284,121.713442,4.8176942e-09
C0F9N0,大里,2024-03-15,24.092464,120.701378,4.73028e-10
C0SA90,達仁林場,2024-03-15,22.264347,120.823972,5.1561443e-07
C1R290,石門山,2024-03-15,22.112611,120.756597,8.1240125e-07
42HA10,萬大發電廠,2024-03-15,23.978875,121.139639,3.805938e-09
C0R890,山海,2024-03-15,21.9878,120.7091,0.99568284
C0T9A0,月眉山,2024-03-15,23.809928,121.539828,4.1366994e-09
C0AC70,信義,2024-03-15,25.037822,121.564597,5.092694e-09
C0K560,棋山,2024-03-15,23.68645,120.603417,6.196903e-10
C1Z240,中平林道,2024-03-15,23.42115,121.26763,1.3319877e-08
U2H480,溪頭,2024-03-15,23.670306,120.798194,3.2462513e-09
C0M880,好美里,2024-03-15,23.3364,120.138,3.6846877e-06
C0T9E0,大坑,2024-03-15,23.880628,121.581981,3.3392966e-09
C0K530,臺西,2024-03-15,23.701547,120.197559,1.5782267e-09
C1E900,國一N128K,2024-03-15,24.560997,120.844186,3.602166e-09
C0AJ50,水湳洞,2024-03-15,25.123695,121.862238,3.519865e-08
C0AI20,白沙灣,2024-03-15,25.283128,121.519058,7.084587e-07
C0A860,大坪,2024-03-15,25.165914,121.632969,6.4148957e-09
C1U850,觀音海岸,2024-03-15,24.38319,121.77856,3.7818917e-09
C0U950,鶯子嶺,2024-03-15,24.89754,121.79244,1.2177328e-08
C0O900,善化,2024-03-15,23.112883,120.297219,8.5009e-06
C0K550,蔦松,2024-03-15,23.514319,120.229736,2.8972622e-08
E2P980,林試六龜中心,2024-03-15,22.991703,120.645722,7.2615425e-10
C0E590,通霄,2024-03-15,24.471892,120.704622,2.0799373e-08
C1I310,西巒,2024-03-15,23.754486,120.883956,2.9888134e-09
C0A550,泰平,2024-03-15,24.971197,121.823711,8.032925e-09
C0I360,水里,2024-03-15,23.812553,120.849792,8.893855e-10
C0R830,高士,2024-03-15,22.121825,120.836781,3.1249627e-07
C1I101,溪頭,2024-03-15,23.661789,120.807647,7.396425e-09
C0AJ20,野柳,2024-03-15,25.20703,121.690021,1.700593e-08
C0B060,暖暖,2024-03-15,25.0957,121.7403,1.5776136e-08
C1H920,長豐,2024-03-15,24.102039,120.879897,2.4474658e-09
C0V360,內門,2024-03-15,22.975481,120.466769,4.4523236e-07
C0R850,林邊,2024-03-15,22.4634,120.5339,7.4171344e-06
C0E930,龍鳳,2024-03-15,24.700034,120.859125,9.344634e-06
C0U910,冬山,2024-03-15,24.63373,121.7937,2.1737716e-09
C1E721,泰安,2024-03-15,24.489017,120.968036,7.582825e-09
82H320,茶改中部分場,2024-03-15,23.875611,120.913583,2.946902e-09
C0M750,布袋,2024-03-15,23.380878,120.167789,1.5998622e-06
C1S860,利嘉,2024-03-15,22.809417,121.050528,4.5812154e-09
72C440,桃園農改,2024-03-15,24.950944,121.030583,4.4357904e-07
E2S980,林試太麻里1,2024-03-15,22.598922,120.980044,1.0595334e-08
C0X170,關廟,2024-03-15,22.963017,120.327797,6.3945585e-08
C0V720,林園,2024-03-15,22.507747,120.394511,1.2795114e-09
C1I510,線浸林道,2024-03-15,23.761508,120.832956,3.5667516e-09
C0D690,外湖,2024-03-15,24.917735,120.968711,9.577074e-07
C0C750,新興坑尾,2024-03-15,25.0061,121.0971,6.4868334e-07
B2Q810,畜試南區分所,2024-03-15,21.945583,120.802167,0.9750512
C0S790,金崙,2024-03-15,22.538122,120.966875,1.2682865e-08
C0AH90,福山植物園,2024-03-15,24.760717,121.58135,9.292514e-09
C0I540,奇萊稜線,2024-03-15,24.109231,121.326456,2.3098371e-08
C0M850,表湖,2024-03-15,23.24186,120.64166,1.9006137e-09
C0S770,大溪山,2024-03-15,22.478475,120.943325,1.2515421e-08
C0AG80,中和,2024-03-15,24.991622,121.491792,1.627891e-08
C0T790,大禹嶺,2024-03-15,24.186117,121.316086,1.5847945e-08
C0T9B0,水源,2024-03-15,23.991861,121.537169,5.74084e-09
C0R840,牡丹池山,2024-03-15,22.168389,120.841225,0.0035840403
C1I131,桶頭,2024-03-15,23.641944,120.654117,5.5772476e-10
CAL110,布袋國中,2024-03-15,23.35893,120.18026,1.6042471e-06
467571,新竹,2024-03-15,24.827853,121.014219,3.7965e-07
C0Z290,赤柯山,2024-03-15,23.36893,121.38293,9.3013455e-09
C0X280,將軍,2024-03-15,23.214999,120.13577,9.5669066e-08
C0S690,太麻里,2024-03-15,22.60902,120.98533,8.361831e-09
C0U880,北關,2024-03-15,24.9072,121.8734,3.8924344e-09
C1H860,瑞岩,2024-03-15,24.123772,121.18345,1.3317514e-08
C0G810,埔心,2024-03-15,23.947633,120.525456,2.7199756e-09
C0U970,大福,2024-03-15,24.80064,121.81389,2.7637526e-09
C1E670,南礦,2024-03-15,24.538278,121.002836,5.9801954e-09
C0M520,東後寮,2024-03-15,23.369908,120.248065,1.0956392e-06
C1E461,松安,2024-03-15,24.397972,120.986022,5.515996e-09
72G600,臺中農改,2024-03-15,24.003028,120.534389,2.2019013e-09
C2N160,西拉雅風管處,2024-03-15,23.189481,120.335297,5.3223535e-05
C0A640,石碇,2024-03-15,24.993969,121.662917,1.1250807e-08
E2S960,林試太麻里2,2024-03-15,22.598,120.99775,1.2114407e-08
C0F9Y0,桃山,2024-03-15,24.432739,121.303808,1.8694076e-08
C1I020,萬大,2024-03-15,23.979817,121.132261,3.8513885e-09
C0U940,羅東,2024-03-15,24.68184,121.74934,2.0957096e-09
C0M650,朴子,2024-03-15,23.43463,120.23902,1.8174806e-07
C1I500,大尖山,2024-03-15,23.858572,120.994889,7.796344e-09
C0G820,田尾,2024-03-15,23.901669,120.509389,2.7199756e-09
E2K600,四湖植物園,2024-03-15,23.676986,120.163433,9.571375e-09
C0S730,綠島,2024-03-15,22.6672,121.47533,0.0057152184
12Q970,東港工作站,2024-03-15,22.479997,120.466058,9.168124e-06
C0E430,南庄,2024-03-15,24.601775,121.000214,2.4022113e-09
C1TA00,太魯閣,2024-03-15,24.15773,121.6236,8.08636e-09
466920,臺北,2024-03-15,25.037658,121.514853,5.092694e-09
C0R600,舊泰武,2024-03-15,22.588194,120.664944,7.5895057e-10
C1I260,北坑,2024-03-15,23.9246,121.006903,8.4164864e-10
466910,鞍部,2024-03-15,25.182586,121.529731,1.9518195e-08
C1I230,九份二山,2024-03-15,23.961944,120.845,2.6168032e-09
C2A660,瑞芳,2024-03-15,25.113169,121.801147,2.759961e-08
C0R270,琉球嶼,2024-03-15,22.332244,120.362236,3.7402272e-09
C1T990,高寮,2024-03-15,23.394239,121.356808,1.69237e-09
C0G620,芬園,2024-03-15,24.015678,120.6213,4.289163e-10
C1Z140,荖溪,2024-03-15,23.890575,121.45964,1.1295208e-08
C1I201,中心崙,2024-03-15,23.728722,120.712097,9.871469e-10
C1I400,凌霄,2024-03-15,24.018778,121.004456,5.1297198e-09
C1M640,十字,2024-03-15,23.492153,120.753683,7.656947e-09
G2P820,農試鳳山分所,2024-03-15,22.646611,120.356083,6.6079233e-06
C0Z270,蕃薯寮,2024-03-15,23.73835,121.540108,3.6100896e-09
C0F9Q0,外埔,2024-03-15,24.347817,120.705686,1.4353317e-09
C0K580,高鐵雲林,2024-03-15,23.737456,120.417944,1.2223403e-08
C2I090,鳳凰,2024-03-15,23.728081,120.787347,1.6403732e-09
C0U990,員山,2024-03-15,24.74435,121.72247,2.0732505e-09
C0V770,大社,2024-03-15,22.730306,120.346639,2.2447741e-08
C0X120,麻豆,2024-03-15,23.183289,120.248611,3.6223698e-06
C0C670,龍潭,2024-03-15,24.870056,121.221389,7.0349646e-09
C0D680,香山濕地,2024-03-15,24.783581,120.914988,3.1164237e-08
C0S980,勝林山,2024-03-15,22.430439,120.8938,2.3453616e-08
C0V730,大寮,2024-03-15,22.605614,120.395717,5.7053768e-08
C0R570,麟洛,2024-03-15,22.65078,120.52719,1.2970556e-09
CAG100,王功漁港,2024-03-15,23.96824,120.32586,1.1782247e-08
C0X290,北門,2024-03-15,23.267772,120.125481,9.552885e-08
C2F930,大甲,2024-03-15,24.347667,120.640403,1.3281968e-09
C0D650,湖口,2024-03-15,24.904794,121.043628,2.1364157e-07
C0E420,竹南,2024-03-15,24.708978,120.888897,2.8886025e-06
C0U780,五結,2024-03-15,24.68637,121.79794,2.057434e-09
C1I250,鯉潭,2024-03-15,23.961922,120.991131,2.407546e-09
C0R130,阿禮,2024-03-15,22.742908,120.743678,3.620274e-09
C0X100,臺南市北區,2024-03-15,23.010394,120.194228,4.9590994e-09
C0S920,金峰嘉蘭,2024-03-15,22.594789,120.960825,1.0544771e-08
C0V490,新興,2024-03-15,22.627422,120.298803,8.173713e-08
C0F9K0,大安,2024-03-15,24.345061,120.588025,1.298521e-09
72N100,臺南農改,2024-03-15,23.0605,120.342194,5.1789693e-06
467290,古坑,2024-03-15,23.633639,120.551889,6.3163064e-10
C0V440,鳳山,2024-03-15,22.646653,120.356122,6.6079233e-06
C1T940,大觀,2024-03-15,23.714206,121.373133,4.418006e-09
72T250,花蓮農改,2024-03-15,23.975222,121.563889,3.8527626e-09
C0E740,造橋,2024-03-15,24.637056,120.864778,3.23086e-08
C0R100,尾寮山,2024-03-15,22.833111,120.683889,3.3065297e-09
A2K630,臺大雲林校區,2024-03-15,23.730628,120.423903,1.2272812e-08
C0D580,寶山,2024-03-15,24.735006,121.025192,3.5004073e-09
E2P990,林試扇平站,2024-03-15,22.9677,120.6857,1.501045e-09
C0AI30,三重,2024-03-15,25.057328,121.500629,5.1152007e-09
C0AH00,汐止,2024-03-15,25.066881,121.658778,5.092694e-09
C1Z040,立山,2024-03-15,23.443356,121.327375,5.9641683e-09
C0R740,獅子,2024-03-15,22.201569,120.70525,5.412514e-05
C0W130,花嶼,2024-03-15,23.40007,119.32276,0.028632697
C0A950,鼻頭角,2024-03-15,25.129036,121.923372,0.00011243689
C0K470,林內,2024-03-15,23.748675,120.609642,5.2264637e-10
82C160,茶改場,2024-03-15,24.908472,121.185333,1.3260156e-08
C0Z320,清水林道,2024-03-15,23.27125,121.188272,6.8154007e-09
C0R760,南仁湖,2024-03-15,22.084681,120.863353,8.1240125e-07
C0M670,大林,2024-03-15,23.600616,120.45841,3.0620888e-06
C0M800,茶山,2024-03-15,23.299075,120.664767,7.8544155e-10
C0A9C0,天母,2024-03-15,25.117494,121.537169,5.663685e-09
72K220,南改斗南分場,2024-03-15,23.634556,120.477333,5.4386287e-08
72AI40,桃改樹林分場,2024-03-15,24.944503,121.386972,1.470189e-08
C0S910,蘭嶼燈塔,2024-03-15,22.081197,121.503117,0.59750473
C0B050,八斗子,2024-03-15,25.144754,121.79167,3.8374875e-08
C0U900,內城,2024-03-15,24.71813,121.68766,2.1554776e-09
C0X320,柳營,2024-03-15,23.253328,120.375253,1.1590877e-06
C0M790,新港,2024-03-15,23.553269,120.345728,4.881599e-07
C0F9T0,西屯,2024-03-15,24.179494,120.641275,1.2185175e-09
C0SA30,都歷,2024-03-15,23.020333,121.323642,7.1117934e-10
C0C620,蘆竹,2024-03-15,25.084275,121.265767,1.3136571e-07
C0R730,大坪頂,2024-03-15,22.024633,120.69355,0.7660515
C0AJ40,石門,2024-03-15,25.273672,121.601198,2.6719337e-07
C0E750,苗栗,2024-03-15,24.564569,120.824575,3.662802e-09
C0T870,鯉魚潭,2024-03-15,23.935639,121.508944,2.5852858e-09
C1V170,排雲,2024-03-15,23.463619,120.954147,1.4326165e-08
C2H950,中寮,2024-03-15,23.884447,120.766406,8.9059754e-10
C0R350,貓鼻頭,2024-03-15,21.921774,120.7358,0.9997479
C0V660,岡山,2024-03-15,22.797078,120.294958,3.021003e-07
C1H941,雙冬,2024-03-15,23.967378,120.802189,8.572245e-10
C0AJ70,田寮,2024-03-15,25.2698,121.4886,7.1999216e-07
C0AI00,五股,2024-03-15,25.07445,121.42728,2.967491e-08
C0Z280,德武,2024-03-15,23.47426,121.41071,1.7360329e-09
C0R700,枋山,2024-03-15,22.246844,120.661086,0.9990095
C0C460,復興,2024-03-15,24.820208,121.352281,8.379458e-09
E2H360,蓮華池,2024-03-15,23.918333,120.885278,9.283333e-10
C0M640,中埔,2024-03-15,23.42538,120.5229,1.137722e-08
C0W140,金沙,2024-03-15,24.488292,118.408778,6.179016e-08
C2A540,四堵,2024-03-15,24.8926,121.745736,5.3707243e-09
C0ACA0,新莊,2024-03-15,25.051478,121.446756,1.2008033e-08
C0R220,潮州,2024-03-15,22.534361,120.54,2.6310036e-07
U2HA40,臺大內茅埔,2024-03-15,23.689722,120.851117,1.9423039e-09
467490,臺中,2024-03-15,24.145736,120.684075,7.2308737e-10
C0U960,翠峰湖,2024-03-15,24.510856,121.608044,1.5586302e-08
E2HA20,林試畢祿溪站,2024-03-15,24.226944,121.308522,1.7688901e-08
C0V890,前鎮,2024-03-15,22.5718,120.3117,9.899949e-08
467620,蘭嶼,2024-03-15,22.036969,121.558339,0.99508524
C1F941,雪嶺,2024-03-15,24.280586,121.026642,2.329037e-08
C0AC80,文山,2024-03-15,25.00235,121.575728,1.5196756e-08
C0F9R0,龍井,2024-03-15,24.184536,120.528972,1.0309755e-09
C0M760,民雄,2024-03-15,23.551754,120.428457,3.6038766e-06
C0UA40,西德山,2024-03-15,24.560647,121.752608,9.544285e-09
C1T920,中興,2024-03-15,23.769503,121.498653,2.4313718e-09
C0D550,雪霸,2024-03-15,24.526972,121.11605,6.3965566e-09
C2F860,梨山,2024-03-15,24.247522,121.243669,1.807622e-08
C0R320,車城,2024-03-15,22.0744,120.716247,0.9967305
C1S870,南美山,2024-03-15,23.15025,121.382333,3.2798344e-09
C0B020,基隆嶼,2024-03-15,25.19141,121.78391,0.00013741713
C1U501,牛鬥,2024-03-15,24.637836,121.573656,3.0572236e-09
C0M730,嘉義市東區,2024-03-15,23.457673,120.460531,4.4288495e-08
C0S700,知本,2024-03-15,22.684866,121.005642,4.994373e-09
C1N001,沙崙,2024-03-15,22.935472,120.309406,8.0962714e-08
C0V760,橋頭,2024-03-15,22.757806,120.30575,2.9583752e-08
C0G960,福寶,2024-03-15,24.0443,120.3814,1.0052736e-09
C0X210,白河,2024-03-15,23.347466,120.414427,1.9032303e-08
C0S810,東河,2024-03-15,22.972672,121.303986,0.00035646584
C0R670,楓港,2024-03-15,22.190131,120.692156,0.9767212
C0FA50,霧峰,2024-03-15,24.0419,120.6995,4.2079923e-10
C0UB10,蘇澳,2024-03-15,24.5969,121.8571,2.7837717e-09
C0G950,防潮門,2024-03-15,24.1835,120.4871,1.0309755e-09
C0M740,六腳,2024-03-15,23.492871,120.290625,4.882991e-07
C1R250,力里,2024-03-15,22.428117,120.629228,9.4783445e-08
C0K330,虎尾,2024-03-15,23.719183,120.442036,1.10884075e-08
C2FA00,烏石坑,2024-03-15,24.273503,120.947617,3.3337981e-09
C0V620,永安,2024-03-15,22.82315,120.236856,3.021003e-07
C1I330,楓樹林,2024-03-15,23.986803,121.076117,4.32509e-09
C0W200,湖西,2024-03-15,23.596314,119.67275,0.00074252137
72Q010,高雄農改場,2024-03-15,22.709333,120.525889,8.6835383e-10
C0SA40,瑞和,2024-03-15,22.974361,121.156697,1.4811822e-09
C0C680,龜山,2024-03-15,25.02846,121.38656,2.5556645e-08
C2V260,月眉,2024-03-15,22.971003,120.539853,1.141937e-09
C0V450,鳳森,2024-03-15,22.545064,120.392592,1.0543418e-09
C0U720,南山,2024-03-15,24.43742,121.38167,6.084992e-09
A2N290,臺南蘭花園區,2024-03-15,23.340258,120.379661,1.8298133e-05
C0R560,新園,2024-03-15,22.5434,120.461558,1.2795114e-09
C0U890,三星,2024-03-15,24.66812,121.65302,2.5504967e-09
C1V300,御油山,2024-03-15,23.001983,120.715364,5.340172e-09
C0U600,礁溪,2024-03-15,24.817539,121.765608,2.0563709e-09
C1T980,龍澗,2024-03-15,24.023289,121.411328,1.7028684e-08
C0D670,海天一線,2024-03-15,24.831986,120.914438,0.0066999905
C0SA00,歷坵,2024-03-15,22.520969,120.89185,1.0730457e-08
C0M710,東石,2024-03-15,23.458927,120.15385,5.043849e-08
C0M780,鹿草,2024-03-15,23.41134,120.30835,1.7578994e-07
C0U520,雙連埤,2024-03-15,24.753033,121.641303,5.154376e-09
C0B010,七堵,2024-03-15,25.094819,121.71713,1.7057843e-08
C0R480,長治,2024-03-15,22.693128,120.542622,2.602875e-09
C1V830,國三S383K,2024-03-15,22.781967,120.426475,6.88144e-10
12Q980,恆春工作站,2024-03-15,22.079678,120.714425,0.9967305
C1O940,東山服務區,2024-03-15,23.286016,120.398472,1.7245333e-07
C1U840,東澳嶺,2024-03-15,24.5378,121.8485,6.3493815e-09
C1D630,飛鳳山,2024-03-15,24.766464,121.119178,3.819799e-09
C0S940,石寧山,2024-03-15,23.223772,121.406639,2.0104638e-09
C0K410,北港,2024-03-15,23.573957,120.292802,2.5128436e-08
C2M620,瑞里,2024-03-15,23.545133,120.675197,5.2270246e-09
C2O950,安南,2024-03-15,23.076694,120.144861,5.040952e-09
C0F0E0,南湖圈谷,2024-03-15,24.363714,121.444667,3.1790353e-08
467610,成功,2024-03-15,23.097486,121.373428,2.636165e-09
C0G890,伸港,2024-03-15,24.148933,120.484403,8.241285e-10
C2E540,龍溪,2024-03-15,24.606489,120.783933,3.3072315e-08
C1V200,梅山,2024-03-15,23.268447,120.823556,3.0842415e-09
C0T9H0,加路蘭山,2024-03-15,23.682947,121.5274,5.589497e-09
C2O930,玉井,2024-03-15,23.126042,120.46055,2.2153547e-06
C1F911,新伯公,2024-03-15,24.221361,120.841069,4.0137422e-09
C0R490,九如,2024-03-15,22.7405,120.490503,8.768921e-10
C0X200,左鎮,2024-03-15,23.056758,120.408522,4.2249297e-07
C1F891,稍來,2024-03-15,24.265689,121.001142,1.4559155e-08
72N240,七股研究中心,2024-03-15,23.081672,120.062894,5.2100337e-09
C0C700,中壢,2024-03-15,24.977661,121.256375,1.22698625e-08
C0M690,水上,2024-03-15,23.419734,120.388909,6.7918254e-06
C0V690,鼓山,2024-03-15,22.623325,120.275575,8.173713e-08
C0O860,大內,2024-03-15,23.11885,120.36083,5.846204e-06
C0Z200,萬榮,2024-03-15,23.709219,121.420106,2.9904899e-09
C0T9D0,和中,2024-03-15,24.26676,121.74103,2.3607276e-09
C1O921,楠西,2024-03-15,23.183511,120.484083,1.7879934e-07
C0AJ30,淡水觀海,2024-03-15,25.184591,121.408616,4.8300254e-08
C0V810,左營,2024-03-15,22.67491,120.28491,2.3494496e-05
C0UA70,桃源谷,2024-03-15,24.962606,121.888875,8.592106e-09
C0X130,官田,2024-03-15,23.193217,120.315422,6.462554e-05
C1H000,翠峰,2024-03-15,24.109397,121.205211,1.2581383e-08
C0UA90,石城,2024-03-15,24.980444,121.951214,5.7991127e-09
C1E681,南勢山,2024-03-15,24.421669,120.923831,5.888234e-09
C0A9F0,內湖,2024-03-15,25.079422,121.57545,5.092694e-09
C0K291,宜梧,2024-03-15,23.536281,120.169329,2.8822756e-08
C1K540,口湖,2024-03-15,23.585344,120.180517,4.212574e-08
C0R780,滿州,2024-03-15,22.024403,120.839892,0.012302449
C0V870,文安,2024-03-15,22.8025,120.2164,3.4983842e-07
C0U650,玉蘭,2024-03-15,24.675286,121.587061,4.681249e-09
C0R640,東港,2024-03-15,22.46247,120.44074,9.168133e-06
K2E360,苗栗農改,2024-03-15,24.495722,120.829111,1.8980126e-09
C0AJ80,板橋,2024-03-15,25.0107,121.4489,1.650017e-08
C0S660,下馬,2024-03-15,23.150427,121.070312,6.531407e-09
C1H9B1,阿眉,2024-03-15,24.1263,120.994672,1.362878e-08
C0UA20,多加屯,2024-03-15,24.368614,121.373189,1.2754381e-08
C0E730,頭份,2024-03-15,24.688247,120.912206,3.2142023e-06
72V140,高改旗南分場,2024-03-15,22.857861,120.516667,1.3296442e-09
C0K480,莿桐,2024-03-15,23.761192,120.502372,3.3870406e-09
C0U980,坪林石牌,2024-03-15,24.86478,121.77396,6.461165e-09
C0T900,西林,2024-03-15,23.8119,121.441458,2.855184e-09
C1I150,青雲,2024-03-15,23.793361,120.949378,7.5855694e-10
467350,澎湖,2024-03-15,23.565503,119.563094,0.011491324
C0G800,埔鹽,2024-03-15,24.000394,120.431683,1.5346934e-09
C0H960,草屯,2024-03-15,23.973672,120.68085,4.279357e-10
C1V780,多納林道,2024-03-15,22.888028,120.737917,1.7022082e-09
C0E920,通霄漁港,2024-03-15,24.498589,120.673876,2.4980773e-08
C0Z330,安通山,2024-03-15,23.290728,121.348528,2.9055396e-09
C0AH10,永和,2024-03-15,25.01125,121.508111,1.6735989e-08
C2G640,鹿港,2024-03-15,24.0753,120.430481,1.0052736e-09
C1E890,國三N149K,2024-03-15,24.463414,120.680019,2.1786946e-09
C1R110,口社,2024-03-15,22.770111,120.645222,1.0036356e-09
C1M870,國三N285K,2024-03-15,23.550319,120.505833,8.785076e-10
467050,新屋,2024-03-15,25.006744,121.047486,9.1756476e-07
C1E480,鳳美,2024-03-15,24.554803,121.034747,5.6957297e-09
C0M530,奮起湖,2024-03-15,23.493903,120.699253,5.7151e-09
C0C590,觀音,2024-03-15,25.027072,121.153317,0.00014094879
C0T9M0,靜浦,2024-03-15,23.455167,121.495028,1.4504461e-09
C0AI40,石牌,2024-03-15,25.115597,121.513139,5.625841e-09
C1F871,上谷關,2024-03-15,24.203483,121.018644,3.1770577e-09
C0G880,二水,2024-03-15,23.810742,120.6173,6.8019174e-10
C0R940,加祿堂,2024-03-15,22.3363,120.6217,0.80694354
C0W220,北竿,2024-03-15,26.220358,119.974881,5.9596456e-08
C0O960,崎頂,2024-03-15,22.959547,120.369317,1.7091779e-08
C0S750,向陽,2024-03-15,23.248397,120.986133,5.063221e-09
C0T9F0,水璉,2024-03-15,23.797131,121.542514,3.1425182e-09
C1M600,頭凍,2024-03-15,23.406364,120.603339,3.429876e-09
467660,臺東,2024-03-15,22.752211,121.154586,0.1574152
C1D380,新埔,2024-03-15,24.84745,121.03834,1.4769576e-07
C0V750,路竹,2024-03-15,22.854997,120.259439,2.1178435e-08
C0N050,蚵寮,2024-03-15,23.301,120.1104,3.6846877e-06
72M700,南改鹿草分場,2024-03-15,23.416869,120.283061,1.817479e-07
C1SA50,利嘉林道,2024-03-15,22.82325,121.009389,1.2706982e-08
467550,玉山,2024-03-15,23.487614,120.959522,2.3081416e-08
C0A940,金山,2024-03-15,25.223628,121.643967,1.6840312e-08
C1V340,大津,2024-03-15,22.888322,120.645986,2.339896e-09
C0W180,七美,2024-03-15,23.219333,119.444892,0.0014242167
C1F9C1,白冷,2024-03-15,24.182844,120.929889,4.42704e-09
K2E710,苗改生物防治研究中心,2024-03-15,24.422861,120.871833,2.4143103e-09
C0N040,蘆竹溝,2024-03-15,23.2344,120.0961,9.552885e-08
C2W230,畜試所澎湖,2024-03-15,23.628342,119.513206,0.019834658
C0R880,後壁湖,2024-03-15,21.9457,120.7457,0.99536365
C1I280,埔中,2024-03-15,23.820778,120.642594,9.420842e-10
467790,墾丁雷達站,2024-03-15,21.948235,120.808028,0.95268446
C0W190,望安,2024-03-15,23.380564,119.494075,0.0020124922
466881,新北,2024-03-15,24.9593,121.52,1.593831e-08
C0Z170,卓溪,2024-03-15,23.3443,121.3029,1.8678599e-09
C0F850,東勢,2024-03-15,24.246428,120.833047,1.8440293e-09
466900,淡水,2024-03-15,25.164889,121.448906,4.359785e-06
C0I370,魚池,2024-03-15,23.895703,120.94135,7.5517453e-10
C0C630,大溪,2024-03-15,24.882853,121.265547,7.2665616e-09
C0A520,山佳,2024-03-15,24.974944,121.402008,4.5304706e-08
C0I110,竹山,2024-03-15,23.761225,120.688156,6.7268796e-10
82H840,茶改南部分場,2024-03-15,23.762528,120.7405,9.2590535e-10
C0G660,溪湖,2024-03-15,23.94835,120.479122,2.7473126e-09
C1T800,洛韶,2024-03-15,24.204558,121.453956,1.4576687e-08
C1T810,慈恩,2024-03-15,24.192044,121.388386,8.314058e-09
C1E451,象鼻,2024-03-15,24.368617,120.940228,4.755213e-09
C0AC60,三峽,2024-03-15,24.939025,121.369728,1.41463845e-08
C0I490,萬大林道,2024-03-15,23.928228,121.091411,5.5388107e-09
C1I290,豐丘,2024-03-15,23.668178,120.887417,3.3924588e-09
C1I320,奧萬大,2024-03-15,23.952956,121.178556,3.6926566e-09
C0U770,南澳,2024-03-15,24.44935,121.81022,2.313681e-09
C0A980,社子,2024-03-15,25.109508,121.469681,3.6759623e-06
C0V800,六龜,2024-03-15,22.997889,120.633583,7.3044804e-10
C1G9D0,國一S218K,2024-03-15,23.890641,120.493253,7.82744e-09
C2F9A0,中竹林,2024-03-15,24.103556,120.751061,1.4752247e-09
C0FA40,臺中電廠,2024-03-15,24.2146,120.4907,1.0313885e-09
C0H9C0,合歡山,2024-03-15,24.143442,121.272547,2.469473e-08
C0X060,下營,2024-03-15,23.22695,120.256261,0.0001276407
G2M350,農試溪口農場,2024-03-15,23.58565,120.408111,4.7003364e-06
C0U860,頭城,2024-03-15,24.85323,121.8308,2.0407807e-09
C0R580,南州,2024-03-15,22.48591,120.50274,9.168124e-06
C0D430,峨眉,2024-03-15,24.6905,121.017189,8.714471e-09
C0G780,秀水,2024-03-15,24.03405,120.503869,2.2019013e-09
72N100,臺南農改場,2024-03-15,23.0605,120.342194,5.1789693e-06
C0S900,蘭嶼高中,2024-03-15,22.04909,121.51214,0.9099804
467540,大武,2024-03-15,22.355675,120.903789,1.6099578e-07
C1F9W0,德基,2024-03-15,24.254783,121.190261,1.2258167e-08
C1Z120,壽豐,2024-03-15,23.870853,121.508081,2.2235265e-09
C0W160,烏坵,2024-03-15,24.9944,119.44956,2.8033529e-07
C1I240,外大坪,2024-03-15,23.958697,120.917931,2.434323e-09
C1I550,國六W023K,2024-03-15,23.979067,120.867742,7.7761275e-10
C0R870,興海,2024-03-15,21.9752,120.8439,0.9750513
C0R140,瑪家,2024-03-15,22.682903,120.686639,9.630886e-10
C0A530,坪林,2024-03-15,24.938183,121.70975,5.0404423e-09
C0X260,後壁,2024-03-15,23.366358,120.362326,1.8199647e-05
C0Z230,和平,2024-03-15,24.30717,121.77007,2.365898e-09
C0G770,福興,2024-03-15,24.041289,120.437669,1.5286314e-09
C0H9A0,神木村,2024-03-15,23.532742,120.843667,7.813747e-09
C0I460,南投,2024-03-15,23.911469,120.687331,1.0601454e-09
C0I480,梅峰,2024-03-15,24.085272,121.173572,9.670393e-09
C1V570,吉東,2024-03-15,22.85422,120.5454,1.2600325e-09
C2A560,福山,2024-03-15,24.776203,121.502811,7.918288e-09
C0AH30,五分山,2024-03-15,25.07125,121.780794,1.6151674e-08
C0FA10,松柏,2024-03-15,24.429115,120.617482,2.2326718e-09
72S200,東改班鳩分場,2024-03-15,22.829528,121.077694,1.2952965e-07
72HA00,中改埔里分場,2024-03-15,23.903208,120.963364,8.889768e-10
C0C650,平鎮,2024-03-15,24.897503,121.214636,1.1025246e-08
C0S930,延平,2024-03-15,22.902581,121.084058,1.43491645e-08
C0UA60,樟樹山,2024-03-15,24.41393,121.78325,5.1799907e-09
C1S670,摩天,2024-03-15,23.199503,121.027,1.3780361e-08
C0V630,茄萣,2024-03-15,22.906642,120.182608,2.6541931e-08
466940,基隆,2024-03-15,25.133314,121.740475,3.6884632e-08
C0X050,東河,2024-03-15,23.296598,120.385608,3.0025114e-07
C0R770,保力,2024-03-15,22.071122,120.764111,0.9180543
G2L020,農試嘉義分所,2024-03-15,23.485028,120.473806,1.6307742e-09
C0X240,關子嶺,2024-03-15,23.331169,120.508025,1.4338597e-09
C0I380,集集,2024-03-15,23.828206,120.801467,8.9164964e-10
466990,花蓮,2024-03-15,23.975128,121.613275,3.8495083e-09
C1V220,小關山,2024-03-15,23.154217,120.813603,3.697985e-09
C1F9G1,慶福山,2024-03-15,24.180853,120.848378,2.114432e-09
C0Z250,瑞穗林道,2024-03-15,23.49284,121.30688,1.3284584e-08
C0D590,新豐,2024-03-15,24.87068,120.97721,5.2030955e-05
C0A870,五指山,2024-03-15,25.132153,121.608692,8.469795e-09
C0UA50,西帽山,2024-03-15,24.555361,121.802628,6.6182233e-09
C0X160,仁德,2024-03-15,22.968258,120.257689,9.291079e-09
C1H971,六分寮,2024-03-15,23.92507,120.6378,1.3739936e-09
C0W120,西嶼,2024-03-15,23.5626,119.468436,0.039451998
C0G650,員林,2024-03-15,23.946503,120.585597,4.334808e-10
C0AD50,鶯歌,2024-03-15,24.951533,121.346294,1.318334e-08
C0S990,山豬窟,2024-03-15,22.318619,120.857372,5.6552143e-08
72Q010,高雄農改,2024-03-15,22.709333,120.525889,8.6835383e-10
C0X190,安平,2024-03-15,22.993161,120.152181,4.9590994e-09
C0K400,斗六,2024-03-15,23.720583,120.541127,9.946738e-08
12J990,口湖工作站,2024-03-15,23.589978,120.180394,4.212574e-08
C0O830,北寮,2024-03-15,23.079561,120.495008,1.020021e-07
C1D410,白蘭,2024-03-15,24.579364,121.079947,6.474735e-09
C0S970,加津林,2024-03-15,22.416211,120.926942,1.3120395e-07
C0D700,關西,2024-03-15,24.7977,121.1732,5.5305343e-09
C0M810,里佳,2024-03-15,23.389125,120.716647,5.0347544e-09
C0U750,龜山島,2024-03-15,24.841667,121.953133,7.240071e-07
C0R810,內獅,2024-03-15,22.305064,120.642986,0.84281385
C1M390,龍美,2024-03-15,23.406728,120.654417,3.9597237e-09
C1H840,國三N238K,2024-03-15,23.841008,120.707711,7.6380235e-10
CAQ030,崎峰國小,2024-03-15,22.42565,120.49521,9.168124e-06
C2E520,大湖,2024-03-15,24.414939,120.870872,2.5071598e-09
467530,阿里山,2024-03-15,23.508208,120.813242,1.6750871e-08
C1E691,南湖,2024-03-15,24.40135,120.837533,5.1179043e-09
C0FA30,梧棲,2024-03-15,24.256003,120.523381,1.0698755e-09
C1V231,高中,2024-03-15,23.134911,120.716711,1.7917146e-09
C0F9V0,新社,2024-03-15,24.200172,120.815806,4.1877612e-09
C0H890,埔里,2024-03-15,23.972169,120.952425,8.357888e-10
C0R690,墾丁,2024-03-15,21.966756,120.810269,0.7171391
C0F0D0,審馬陣,2024-03-15,24.381675,121.4203,1.8069981e-08
C0R820,白鷺,2024-03-15,22.454275,120.666219,2.0580582e-09
U2H480,臺大溪頭,2024-03-15,23.670306,120.798194,3.2462513e-09
C1V190,南天池,2024-03-15,23.27403,120.91176,6.3638335e-09
K2E360,苗栗農改場,2024-03-15,24.495722,120.829111,1.8980126e-09
CAJ050,海口故事園區,2024-03-15,23.57543,120.14121,4.212574e-08
C0O990,媽廟,2024-03-15,22.99175,120.293525,2.0640188e-08
C0D480,打鐵坑,2024-03-15,24.849664,121.150789,7.025578e-09
C0Z220,和平林道,2024-03-15,24.343922,121.656317,3.3443384e-09
72C440,桃園農改場,2024-03-15,24.950944,121.030583,4.4357904e-07
C1E711,馬拉邦山,2024-03-15,24.367306,120.901656,4.8803073e-09
C0D560,竹東,2024-03-15,24.767147,121.057881,4.7597863e-09
C0F9U0,南屯,2024-03-15,24.137006,120.637969,1.2438405e-09
C0M720,番路,2024-03-15,23.464657,120.554156,6.3051995e-09
C0F0A0,雪山圈谷,2024-03-15,24.388594,121.236339,2.5389703e-08
C1A9N0,四十份,2024-03-15,24.934158,121.593283,1.43932954e-08
C0U760,東澳,2024-03-15,24.52196,121.83318,1.4832913e-09
C0X230,鹽水,2024-03-15,23.272621,120.247641,2.418205e-06
C0V370,古亭坑,2024-03-15,22.893178,120.401947,6.4768475e-09
C1I340,新興橋,2024-03-15,23.563333,120.868728,3.888027e-09
C0SA80,土坂,2024-03-15,22.453108,120.887572,2.08085e-08
C0R160,鹽埔,2024-03-15,22.739558,120.530778,8.6835383e-10
C0AC40,大屯山,2024-03-15,25.175675,121.522408,2.1875481e-08
466850,五分山雷達站,2024-03-15,25.071182,121.781205,1.6274006e-08
C1AI50,國三N016K,2024-03-15,25.034164,121.619664,5.085792e-09
C1V600,藤枝,2024-03-15,23.071961,120.757042,3.7226975e-09
C1E601,南勢,2024-03-15,24.572486,120.734842,9.472832e-08
C0Z180,新城,2024-03-15,24.03946,121.60454,3.8469907e-09
C0O980,新市,2024-03-15,23.061614,120.298197,8.5009e-06
C0K420,西螺,2024-03-15,23.800407,120.467394,8.092316e-09
C0Z050,佳心,2024-03-15,23.34567,121.21316,8.552081e-09
C0AD30,蘆洲,2024-03-15,25.086594,121.472331,5.1152007e-09
C0V610,梓官,2024-03-15,22.760558,120.267211,2.9583752e-08
K2F750,種苗改良場,2024-03-15,24.225972,120.800917,4.1073815e-09
C0UA80,大溪漁港,2024-03-15,24.941801,121.902955,3.932372e-09
C1AI60,國一39K邊坡,2024-03-15,25.064361,121.383836,2.7131117e-08
C0W150,金寧,2024-03-15,24.457703,118.328989,3.4035834e-06
V2C250,八德合作社,2024-03-15,24.93775,121.266389,1.14961916e-08
C0AH40,平等,2024-03-15,25.129142,121.577086,6.670538e-09
C0R540,佳冬,2024-03-15,22.419456,120.552375,0.025029581
466950,彭佳嶼,2024-03-15,25.627975,122.079744,0.04180662
C0A890,雙溪,2024-03-15,25.036003,121.864242,2.6761075e-08
C0C480,桃園,2024-03-15,24.992425,121.323172,1.2746404e-08
C0AH50,林口,2024-03-15,25.072181,121.38084,2.4066473e-08
A2K360,水試臺西試驗場,2024-03-15,23.717231,120.190522,1.6144703e-09
B2N890,畜試所,2024-03-15,23.058972,120.336406,5.1789693e-06
C0F9S0,烏日,2024-03-15,24.107058,120.624103,4.707383e-10
C0C490,八德,2024-03-15,24.928708,121.283289,1.1508609e-08
C0R190,赤山,2024-03-15,22.592333,120.614306,4.578481e-09
C0T820,天祥,2024-03-15,24.179597,121.495639,1.2637999e-08
C1F9E1,龍安,2024-03-15,24.1605,120.831961,2.8437275e-09
C0V820,小林,2024-03-15,23.148408,120.63325,1.5031909e-09
C2G870,芳苑,2024-03-15,23.922303,120.320025,1.1563066e-08
C0E850,大河,2024-03-15,24.618069,120.948578,5.167744e-09
C1U670,寒溪,2024-03-15,24.634,121.71691,2.4257485e-09
C0N020,城西,2024-03-15,23.0568,120.0956,4.9590994e-09
C1Z110,三棧,2024-03-15,24.11557,121.60501,1.2669036e-08
C0R280,檳榔,2024-03-15,22.076078,120.836777,5.804571e-06
C0F9L0,后里,2024-03-15,24.310436,120.729725,2.1196005e-09
C0D540,橫山,2024-03-15,24.71116,121.11693,3.676121e-09
C1D420,太閣南,2024-03-15,24.632808,121.160575,6.288721e-09
C1E770,公館,2024-03-15,24.526914,120.830806,1.8466337e-09
CAN130,水試所海水繁養殖中心,2024-03-15,23.120802,120.07968,5.2100337e-09
C1I430,翠華,2024-03-15,24.191961,121.224339,1.1633547e-08
C1M400,菜瓜坪,2024-03-15,23.251928,120.576103,7.115172e-10
C0G730,二林,2024-03-15,23.903325,120.376081,1.7797119e-09
72M360,南改義竹分場,2024-03-15,23.360694,120.279361,1.0970329e-06
V2K620,麥寮合作社,2024-03-15,23.753836,120.294783,1.3756063e-09
C0Z070,舞鶴,2024-03-15,23.46811,121.37407,1.8434806e-09
C0B040,大武崙,2024-03-15,25.166676,121.706993,3.387766e-08
C1Z030,紅葉,2024-03-15,23.493119,121.338806,1.7743397e-09
C1I050,丹大,2024-03-15,23.753747,121.141147,7.841128e-09
C0I080,信義,2024-03-15,23.689694,120.851036,1.9423039e-09
C2A880,福隆,2024-03-15,25.017842,121.942083,5.8244978e-09
C0Z160,鳳林,2024-03-15,23.746114,121.453411,2.868667e-09
C0V210,復興,2024-03-15,23.222403,120.806089,2.954652e-09
C0H990,昆陽,2024-03-15,24.121322,121.273642,1.9623984e-08
C0S710,鹿野,2024-03-15,22.917711,121.122994,1.6903473e-09
C0I530,小奇萊,2024-03-15,24.131764,121.295717,2.0442997e-08
C0Z080,富源,2024-03-15,23.587642,121.378225,3.8897476e-09
467441,高雄,2024-03-15,22.7304,120.3125,2.2352507e-08
C1I140,卡奈托灣,2024-03-15,23.754364,121.087872,2.819951e-09
C0I520,玉山風口,2024-03-15,23.470489,120.955994,2.5860365e-08
C1G691,下水埔,2024-03-15,23.816114,120.5676,3.1489382e-09
C0X110,臺南市南區,2024-03-15,22.961189,120.188378,9.283799e-09
C0V680,仁武,2024-03-15,22.701083,120.347722,1.921813e-05
C2G840,北斗,2024-03-15,23.877586,120.514222,7.258915e-09
C0R900,竹坑,2024-03-15,22.1385,120.7022,0.99669737
C0K250,崙背,2024-03-15,23.75555,120.318925,1.3781379e-09
C0G860,社頭,2024-03-15,23.897647,120.5862,5.6499905e-10
C0X150,安定,2024-03-15,23.102614,120.227839,5.2281138e-08
C0R590,里港,2024-03-15,22.77919,120.49459,8.0638224e-10
C0E610,馬都安,2024-03-15,24.451272,120.930192,5.310928e-09
C0E550,明德,2024-03-15,24.583486,120.885411,3.6554042e-09
C0R150,三地門,2024-03-15,22.709889,120.639944,1.0242995e-09
C0G910,花壇,2024-03-15,24.032076,120.549461,2.1027124e-09
C1D400,鳥嘴山,2024-03-15,24.71909,121.28387,5.4917253e-09
C0K500,元長,2024-03-15,23.64981,120.315024,4.0206536e-09
C0F0B0,石岡,2024-03-15,24.276061,120.777644,2.2193911e-09
C2V250,甲仙,2024-03-15,23.080106,120.591758,7.636528e-09
C0SA20,金崙山,2024-03-15,22.567419,120.959667,1.0040132e-08
C0V350,溪埔,2024-03-15,22.738578,120.446797,1.4642163e-09
C0M660,溪口,2024-03-15,23.604131,120.403569,4.704619e-06
C1S880,壽卡,2024-03-15,22.238911,120.858903,6.398396e-07
72D680,桃改新埔分場,2024-03-15,24.834444,121.066111,1.6011641e-07
