站號,站名,日期,lat,lon,BlastGRU-TW
12J990,口湖工作站,2024-05-31,23.589978,120.180394,0.605999
12Q970,東港工作站,2024-05-31,22.479997,120.466058,0.9982011
12Q980,恆春工作站,2024-05-31,22.079678,120.714425,0.059273086
466881,新北,2024-05-31,24.9593,121.52,0.35613516
466900,淡水,2024-05-31,25.164889,121.448906,0.23662484
466920,臺北,2024-05-31,25.037658,121.514853,0.20541967
466940,基隆,2024-05-31,25.133314,121.740475,0.30517578
466990,花蓮,2024-05-31,23.975128,121.613275,0.99669355
467050,新屋,2024-05-31,25.006744,121.047486,0.22893672
467080,宜蘭,2024-05-31,24.763975,121.756528,0.27116308
467270,田中,2024-05-31,23.873803,120.581286,0.3202678
467300,東吉島,2024-05-31,23.25695,119.667467,0.8024787
467350,澎湖,2024-05-31,23.565503,119.563094,0.14232293
467410,臺南,2024-05-31,22.993239,120.204772,0.9935582
467420,永康,2024-05-31,23.038386,120.2367,0.9964801
467441,高雄,2024-05-31,22.7304,120.3125,0.99574906
467480,嘉義,2024-05-31,23.495925,120.432906,0.92719424
467490,臺中,2024-05-31,24.145736,120.684075,0.8802692
467540,大武,2024-05-31,22.355675,120.903789,0.016270889
467571,新竹,2024-05-31,24.827853,121.014219,0.31265667
467590,恆春,2024-05-31,22.003897,120.746339,0.04970438
467610,成功,2024-05-31,23.097486,121.373428,0.1550073
467620,蘭嶼,2024-05-31,22.036969,121.558339,0.71573067
467660,臺東,2024-05-31,22.752211,121.154586,0.6539488
467790,墾丁雷達站,2024-05-31,21.948235,120.808028,0.10908819
72AI40,桃改樹林分場,2024-05-31,24.944503,121.386972,0.3405193
72C440,桃園農改,2024-05-31,24.950944,121.030583,0.24014218
72C440,桃園農改場,2024-05-31,24.950944,121.030583,0.24014218
72D680,桃改新埔分場,2024-05-31,24.834444,121.066111,0.4333931
72G600,臺中農改,2024-05-31,24.003028,120.534389,0.6064112
72G600,臺中農改場,2024-05-31,24.003028,120.534389,0.6064112
72K220,南改斗南分場,2024-05-31,23.634556,120.477333,0.10113723
72M360,南改義竹分場,2024-05-31,23.360694,120.279361,0.99495
72M700,南改鹿草分場,2024-05-31,23.416869,120.283061,0.99465734
72N100,臺南農改,2024-05-31,23.0605,120.342194,0.99573296
72N100,臺南農改場,2024-05-31,23.0605,120.342194,0.99573296
72N240,七股研究中心,2024-05-31,23.081672,120.062894,0.9915752
72Q010,高雄農改,2024-05-31,22.709333,120.525889,0.50959045
72Q010,高雄農改場,2024-05-31,22.709333,120.525889,0.50959045
72S200,東改班鳩分場,2024-05-31,22.829528,121.077694,0.81482977
72S590,東改賓朗果園,2024-05-31,22.813889,121.071278,0.85714555
72T250,花蓮農改,2024-05-31,23.975222,121.563889,0.9972437
72T250,花蓮農改場,2024-05-31,23.975222,121.563889,0.9972437
72U480,花改蘭陽分場,2024-05-31,24.686306,121.716583,0.112866305
72V140,高改旗南分場,2024-05-31,22.857861,120.516667,0.13575219
82A750,茶改北部分場,2024-05-31,24.955778,121.631222,0.27536812
82C160,茶改場,2024-05-31,24.908472,121.185333,0.89848864
82H840,茶改南部分場,2024-05-31,23.762528,120.7405,0.82307875
82S580,茶改東部分場,2024-05-31,22.907694,121.130139,0.5809125
A2C560,農工中心,2024-05-31,24.985917,121.239833,0.36078405
A2K360,水試臺西試驗場,2024-05-31,23.717231,120.190522,0.35791776
A2K570,古坑花卉中心,2024-05-31,23.63353,120.55239,0.13015394
A2K630,臺大雲林校區,2024-05-31,23.730628,120.423903,0.51405203
A2N290,臺南蘭花園區,2024-05-31,23.340258,120.379661,0.98235875
B2E890,畜試北區分所,2024-05-31,24.527806,120.770972,0.8753049
B2N890,畜產試驗所,2024-05-31,23.058972,120.336406,0.99573296
B2N890,畜試所,2024-05-31,23.058972,120.336406,0.99573296
B2Q810,畜試南區分所,2024-05-31,21.945583,120.802167,0.09312052
B2U990,畜試東區分所,2024-05-31,24.669039,121.832561,0.14060003
C0A520,山佳,2024-05-31,24.974944,121.402008,0.5785749
C0A530,坪林,2024-05-31,24.938183,121.70975,0.87617356
C0A550,泰平,2024-05-31,24.971197,121.823711,0.86345303
C0A570,桶後,2024-05-31,24.848222,121.597992,0.97258174
C0A640,石碇,2024-05-31,24.993969,121.662917,0.91192687
C0A770,科教館,2024-05-31,25.096356,121.516507,0.19445719
C0A860,大坪,2024-05-31,25.165914,121.632969,0.9875272
C0A890,雙溪,2024-05-31,25.036003,121.864242,0.7378039
C0A931,三和,2024-05-31,25.233153,121.595236,0.95743966
C0A940,金山,2024-05-31,25.223628,121.643967,0.19799335
C0A950,鼻頭角,2024-05-31,25.129036,121.923372,0.96404105
C0A970,三貂角,2024-05-31,25.007606,122.002058,0.62867
C0A980,社子,2024-05-31,25.109508,121.469681,0.21833993
C0A9C0,天母,2024-05-31,25.117494,121.537169,0.1428677
C0A9F0,內湖,2024-05-31,25.079422,121.57545,0.2109618
C0AC60,三峽,2024-05-31,24.939025,121.369728,0.36818364
C0AC70,信義,2024-05-31,25.037822,121.564597,0.17594755
C0AC80,文山,2024-05-31,25.00235,121.575728,0.42355514
C0ACA0,新莊,2024-05-31,25.051478,121.446756,0.4607992
C0AD00,三芝,2024-05-31,25.258131,121.501917,0.42067444
C0AD10,八里,2024-05-31,25.150211,121.403947,0.29841843
C0AD30,蘆洲,2024-05-31,25.086594,121.472331,0.19445719
C0AD40,土城,2024-05-31,24.973208,121.445169,0.5159755
C0AD50,鶯歌,2024-05-31,24.951533,121.346294,0.41752973
C0AG80,中和,2024-05-31,24.991622,121.491792,0.4063369
C0AH00,汐止,2024-05-31,25.066881,121.658778,0.17202231
C0AH10,永和,2024-05-31,25.01125,121.508111,0.38057095
C0AH40,平等,2024-05-31,25.129142,121.577086,0.97907394
C0AH50,林口,2024-05-31,25.072181,121.38084,0.9816694
C0AH70,松山,2024-05-31,25.04871,121.55042,0.17594755
C0AH80,深坑,2024-05-31,25.002703,121.628328,0.4020411
C0AI00,五股,2024-05-31,25.07445,121.42728,0.8807852
C0AI10,屈尺,2024-05-31,24.92184,121.54475,0.1643453
C0AI20,白沙灣,2024-05-31,25.283128,121.519058,0.24645893
C0AI30,三重,2024-05-31,25.057328,121.500629,0.19197835
C0AI40,石牌,2024-05-31,25.115597,121.513139,0.12498818
C0AJ20,野柳,2024-05-31,25.20703,121.690021,0.20711069
C0AJ30,淡水觀海,2024-05-31,25.184591,121.408616,0.13715446
C0AJ40,石門,2024-05-31,25.273672,121.601198,0.44381446
C0AJ50,水湳洞,2024-05-31,25.123695,121.862238,0.2398237
C0AJ60,六塊厝,2024-05-31,25.24,121.4481,0.22128451
C0AJ70,田寮,2024-05-31,25.2698,121.4886,0.2901684
C0AJ80,板橋,2024-05-31,25.0107,121.4489,0.5369865
C0AJ90,澳底,2024-05-31,25.0552,121.9253,0.7694621
C0B010,七堵,2024-05-31,25.094819,121.71713,0.3705071
C0B020,基隆嶼,2024-05-31,25.19141,121.78391,0.9271545
C0B040,大武崙,2024-05-31,25.166676,121.706993,0.40477362
C0B050,八斗子,2024-05-31,25.144754,121.79167,0.2275498
C0B060,暖暖,2024-05-31,25.0957,121.7403,0.51029265
C0C460,復興,2024-05-31,24.820208,121.352281,0.98781157
C0C480,桃園,2024-05-31,24.992425,121.323172,0.50321144
C0C490,八德,2024-05-31,24.928708,121.283289,0.7660338
C0C590,觀音,2024-05-31,25.027072,121.153317,0.39214814
C0C620,蘆竹,2024-05-31,25.084275,121.265767,0.2154561
C0C630,大溪,2024-05-31,24.882853,121.265547,0.9671733
C0C650,平鎮,2024-05-31,24.897503,121.214636,0.9050843
C0C660,楊梅,2024-05-31,24.912375,121.143047,0.82404983
C0C670,龍潭,2024-05-31,24.870056,121.221389,0.9790694
C0C680,龜山,2024-05-31,25.02846,121.38656,0.97426176
C0C700,中壢,2024-05-31,24.977661,121.256375,0.6041579
C0C710,大溪永福,2024-05-31,24.892936,121.324975,0.73815626
C0C720,竹圍,2024-05-31,25.112692,121.239824,0.31509688
C0C730,中大臨海站,2024-05-31,24.966126,121.008581,0.20620438
C0C740,觀音工業區,2024-05-31,25.064764,121.114856,0.27649677
C0C750,新興坑尾,2024-05-31,25.0061,121.0971,0.2877604
C0D430,峨眉,2024-05-31,24.6905,121.017189,0.7957749
C0D480,打鐵坑,2024-05-31,24.849664,121.150789,0.9815717
C0D540,橫山,2024-05-31,24.71116,121.11693,0.8855585
C0D560,竹東,2024-05-31,24.767147,121.057881,0.72355896
C0D580,寶山,2024-05-31,24.735006,121.025192,0.6872386
C0D590,新豐,2024-05-31,24.87068,120.97721,0.86000013
C0D650,湖口,2024-05-31,24.904794,121.043628,0.3700939
C0D660,新竹市東區,2024-05-31,24.798681,120.986942,0.6308388
C0D670,海天一線,2024-05-31,24.831986,120.914438,0.41086772
C0D680,香山濕地,2024-05-31,24.783581,120.914988,0.5697962
C0D690,外湖,2024-05-31,24.917735,120.968711,0.20467734
C0D700,關西,2024-05-31,24.7977,121.1732,0.86345875
C0E420,竹南,2024-05-31,24.708978,120.888897,0.7923678
C0E430,南庄,2024-05-31,24.601775,121.000214,0.9888608
C0E550,明德,2024-05-31,24.583486,120.885411,0.76815647
C0E590,通霄,2024-05-31,24.471892,120.704622,0.9432254
C0E730,頭份,2024-05-31,24.688247,120.912206,0.69170207
C0E740,造橋,2024-05-31,24.637056,120.864778,0.7050752
C0E750,苗栗,2024-05-31,24.564569,120.824575,0.79255337
C0E780,銅鑼,2024-05-31,24.489681,120.790853,0.96125746
C0E791,卓蘭,2024-05-31,24.3126,120.8244,0.9820286
C0E810,西湖,2024-05-31,24.562947,120.7485,0.8495322
C0E820,獅潭,2024-05-31,24.539133,120.920042,0.9972969
C0E830,苑裡,2024-05-31,24.439714,120.653053,0.9086676
C0E850,大河,2024-05-31,24.618069,120.948578,0.8363721
C0E870,高鐵苗栗,2024-05-31,24.60725,120.826094,0.7943732
C0E910,海埔,2024-05-31,24.648767,120.772435,0.79647356
C0E920,通霄漁港,2024-05-31,24.498589,120.673876,0.8779942
C0E930,龍鳳,2024-05-31,24.700034,120.859125,0.7159023
C0F0B0,石岡,2024-05-31,24.276061,120.777644,0.9671775
C0F850,東勢,2024-05-31,24.246428,120.833047,0.9915462
C0F970,大坑,2024-05-31,24.173142,120.722289,0.9929901
C0F9I0,神岡,2024-05-31,24.272481,120.658314,0.9740761
C0F9K0,大安,2024-05-31,24.345061,120.588025,0.7163062
C0F9L0,后里,2024-05-31,24.310436,120.729725,0.94687885
C0F9M0,豐原,2024-05-31,24.254322,120.720692,0.9914342
C0F9N0,大里,2024-05-31,24.092464,120.701378,0.6617008
C0F9O0,潭子,2024-05-31,24.213106,120.703933,0.9467101
C0F9P0,清水,2024-05-31,24.312297,120.562242,0.61574656
C0F9Q0,外埔,2024-05-31,24.347817,120.705686,0.8677257
C0F9R0,龍井,2024-05-31,24.184536,120.528972,0.7981309
C0F9S0,烏日,2024-05-31,24.107058,120.624103,0.45003685
C0F9T0,西屯,2024-05-31,24.179494,120.641275,0.9766059
C0F9U0,南屯,2024-05-31,24.137006,120.637969,0.9677517
C0F9X0,大雅(中科園區),2024-05-31,24.21528,120.62445,0.9792756
C0FA10,松柏,2024-05-31,24.429115,120.617482,0.8932144
C0FA20,溫寮,2024-05-31,24.372177,120.583125,0.6695752
C0FA30,梧棲,2024-05-31,24.256003,120.523381,0.6936655
C0FA40,臺中電廠,2024-05-31,24.2146,120.4907,0.7981309
C0FA50,霧峰,2024-05-31,24.0419,120.6995,0.34221667
C0G620,芬園,2024-05-31,24.015678,120.6213,0.36064398
C0G650,員林,2024-05-31,23.946503,120.585597,0.27306566
C0G660,溪湖,2024-05-31,23.94835,120.479122,0.42807773
C0G720,溪州,2024-05-31,23.851589,120.499093,0.49894255
C0G730,二林,2024-05-31,23.903325,120.376081,0.46562147
C0G740,大城,2024-05-31,23.852487,120.320935,0.51939213
C0G770,福興,2024-05-31,24.041289,120.437669,0.5159745
C0G780,秀水,2024-05-31,24.03405,120.503869,0.4424199
C0G800,埔鹽,2024-05-31,24.000394,120.431683,0.46720743
C0G810,埔心,2024-05-31,23.947633,120.525456,0.4476425
C0G820,田尾,2024-05-31,23.901669,120.509389,0.41424733
C0G830,埤頭,2024-05-31,23.866003,120.452806,0.56026745
C0G860,社頭,2024-05-31,23.897647,120.5862,0.3670081
C0G880,二水,2024-05-31,23.810742,120.6173,0.36563995
C0G890,伸港,2024-05-31,24.148933,120.484403,0.74657166
C0G900,線西,2024-05-31,24.143358,120.443536,0.7966036
C0G910,花壇,2024-05-31,24.032076,120.549461,0.6622341
C0G920,永靖,2024-05-31,23.924703,120.547533,0.48316294
C0G940,竹塘,2024-05-31,23.848253,120.386764,0.61795455
C0G950,防潮門,2024-05-31,24.1835,120.4871,0.7981309
C0G960,福寶,2024-05-31,24.0443,120.3814,0.61391026
C0G970,三豐,2024-05-31,23.882,120.2895,0.5283291
C0H890,埔里,2024-05-31,23.972169,120.952425,0.99561316
C0H960,草屯,2024-05-31,23.973672,120.68085,0.16555843
C0I110,竹山,2024-05-31,23.761225,120.688156,0.32753628
C0I360,水里,2024-05-31,23.812553,120.849792,0.75103366
C0I380,集集,2024-05-31,23.828206,120.801467,0.6564986
C0I410,名間,2024-05-31,23.837053,120.701447,0.5047446
C0I420,國姓,2024-05-31,24.037803,120.855072,0.99738127
C0I460,南投,2024-05-31,23.911469,120.687331,0.2478666
C0K250,崙背,2024-05-31,23.75555,120.318925,0.4677389
C0K280,四湖,2024-05-31,23.630414,120.227125,0.2942572
C0K291,宜梧,2024-05-31,23.536281,120.169329,0.66384095
C0K330,虎尾,2024-05-31,23.719183,120.442036,0.5640336
C0K390,土庫,2024-05-31,23.679029,120.395574,0.2738079
C0K400,斗六,2024-05-31,23.720583,120.541127,0.112809055
C0K410,北港,2024-05-31,23.573957,120.292802,0.53781223
C0K420,西螺,2024-05-31,23.800407,120.467394,0.7267499
C0K430,褒忠,2024-05-31,23.690938,120.303634,0.54884195
C0K440,二崙,2024-05-31,23.772797,120.408944,0.63734066
C0K450,大埤,2024-05-31,23.646074,120.431537,0.2832381
C0K460,斗南,2024-05-31,23.678734,120.478359,0.084940545
C0K470,林內,2024-05-31,23.748675,120.609642,0.121024676
C0K480,莿桐,2024-05-31,23.761192,120.502372,0.22224592
C0K500,元長,2024-05-31,23.64981,120.315024,0.23722596
C0K510,水林,2024-05-31,23.572924,120.24597,0.3414464
C0K530,臺西,2024-05-31,23.701547,120.197559,0.3789196
C0K550,蔦松,2024-05-31,23.514319,120.229736,0.6078438
C0K560,棋山,2024-05-31,23.68645,120.603417,0.10340255
C0K580,高鐵雲林,2024-05-31,23.737456,120.417944,0.51405203
C0K590,雲林東勢,2024-05-31,23.674192,120.255721,0.20652387
C0K600,箔子寮,2024-05-31,23.6197,120.14,0.9746338
C0M520,東後寮,2024-05-31,23.369908,120.248065,0.99495
C0M640,中埔,2024-05-31,23.42538,120.5229,0.3300247
C0M650,朴子,2024-05-31,23.43463,120.23902,0.63994443
C0M660,溪口,2024-05-31,23.604131,120.403569,0.58742565
C0M670,大林,2024-05-31,23.600616,120.45841,0.52803475
C0M680,太保,2024-05-31,23.455062,120.331455,0.9680741
C0M690,水上,2024-05-31,23.419734,120.388909,0.9855799
C0M700,竹崎,2024-05-31,23.526178,120.555508,0.92295206
C0M710,東石,2024-05-31,23.458927,120.15385,0.9870648
C0M720,番路,2024-05-31,23.464657,120.554156,0.76520705
C0M730,嘉義市東區,2024-05-31,23.457673,120.460531,0.41245094
C0M740,六腳,2024-05-31,23.492871,120.290625,0.84067786
C0M750,布袋,2024-05-31,23.380878,120.167789,0.885319
C0M760,民雄,2024-05-31,23.551754,120.428457,0.8537551
C0M770,嘉義梅山,2024-05-31,23.585398,120.555587,0.6378796
C0M780,鹿草,2024-05-31,23.41134,120.30835,0.99456257
C0M790,新港,2024-05-31,23.553269,120.345728,0.89315736
C0M800,茶山,2024-05-31,23.299075,120.664767,0.9672359
C0M880,好美里,2024-05-31,23.3364,120.138,0.9930405
C0N010,鯤鯓國小,2024-05-31,23.1879,120.0889,0.99095064
C0N020,城西,2024-05-31,23.0568,120.0956,0.9939095
C0N030,四草,2024-05-31,23.0235,120.1116,0.99421036
C0N040,蘆竹溝,2024-05-31,23.2344,120.0961,0.99053514
C0N050,蚵寮,2024-05-31,23.301,120.1104,0.9931444
C0O830,北寮,2024-05-31,23.079561,120.495008,0.3776037
C0O840,王爺宮,2024-05-31,23.222064,120.40085,0.9943758
C0O860,大內,2024-05-31,23.11885,120.36083,0.98669314
C0O900,善化,2024-05-31,23.112883,120.297219,0.99662524
C0O960,崎頂,2024-05-31,22.959547,120.369317,0.99531895
C0O970,虎頭埤,2024-05-31,23.021375,120.347878,0.997411
C0O980,新市,2024-05-31,23.061614,120.298197,0.9961234
C0O990,媽廟,2024-05-31,22.99175,120.293525,0.99620354
C0R150,三地門,2024-05-31,22.709889,120.639944,0.98261446
C0R160,鹽埔,2024-05-31,22.739558,120.530778,0.188579
C0R170,屏東,2024-05-31,22.660269,120.494072,0.6470616
C0R190,赤山,2024-05-31,22.592333,120.614306,0.94231963
C0R220,潮州,2024-05-31,22.534361,120.54,0.94584686
C0R240,來義,2024-05-31,22.527306,120.625111,0.9884123
C0R260,春日,2024-05-31,22.370361,120.628306,0.1642125
C0R270,琉球嶼,2024-05-31,22.332244,120.362236,0.8754943
C0R280,檳榔,2024-05-31,22.076078,120.836777,0.062428433
C0R320,車城,2024-05-31,22.0744,120.716247,0.059273086
C0R341,牡丹,2024-05-31,22.130036,120.792639,0.059646234
C0R350,貓鼻頭,2024-05-31,21.921774,120.7358,0.11887101
C0R470,高樹,2024-05-31,22.826389,120.600806,0.036785387
C0R480,長治,2024-05-31,22.693128,120.542622,0.20626026
C0R490,九如,2024-05-31,22.7405,120.490503,0.18144329
C0R520,崁頂,2024-05-31,22.514781,120.506914,0.9970168
C0R540,佳冬,2024-05-31,22.419456,120.552375,0.9875059
C0R550,新埤,2024-05-31,22.467947,120.582894,0.9955066
C0R560,新園,2024-05-31,22.5434,120.461558,0.99723905
C0R570,麟洛,2024-05-31,22.65078,120.52719,0.6470616
C0R580,南州,2024-05-31,22.48591,120.50274,0.99655867
C0R590,里港,2024-05-31,22.77919,120.49459,0.20768766
C0R620,墾雷,2024-05-31,21.900836,120.855269,0.15130985
C0R640,東港,2024-05-31,22.46247,120.44074,0.9984328
C0R650,竹田,2024-05-31,22.58486,120.54344,0.6747179
C0R660,枋寮,2024-05-31,22.367722,120.590647,0.1474716
C0R670,楓港,2024-05-31,22.190131,120.692156,0.022250904
C0R680,佳樂水,2024-05-31,21.993578,120.861633,0.09598084
C0R690,墾丁,2024-05-31,21.966756,120.810269,0.07912778
C0R700,枋山,2024-05-31,22.246844,120.661086,0.16325635
C0R710,龍磐,2024-05-31,21.931672,120.838942,0.15993068
C0R720,旭海,2024-05-31,22.205403,120.887614,0.03306103
C0R730,大坪頂,2024-05-31,22.024633,120.69355,0.11539576
C0R740,獅子,2024-05-31,22.201569,120.70525,0.016518297
C0R760,南仁湖,2024-05-31,22.084681,120.863353,0.07126764
C0R770,保力,2024-05-31,22.071122,120.764111,0.09126279
C0R780,滿州,2024-05-31,22.024403,120.839892,0.052539416
C0R790,九棚,2024-05-31,22.14195,120.889281,0.024645751
C0R800,丹路,2024-05-31,22.204481,120.750989,0.03694488
C0R810,內獅,2024-05-31,22.305064,120.642986,0.13320711
C0R830,高士,2024-05-31,22.121825,120.836781,0.13115397
C0R850,林邊,2024-05-31,22.4634,120.5339,0.9956654
C0R860,鼻頭,2024-05-31,22.1043,120.8979,0.040431663
C0R870,興海,2024-05-31,21.9752,120.8439,0.09312052
C0R880,後壁湖,2024-05-31,21.9457,120.7457,0.1264692
C0R890,山海,2024-05-31,21.9878,120.7091,0.12946676
C0R900,竹坑,2024-05-31,22.1385,120.7022,0.06022468
C0R910,下寮,2024-05-31,22.3929,120.5548,0.9875059
C0R920,塭仔,2024-05-31,22.4169,120.5197,0.9972713
C0R930,萬丹,2024-05-31,22.5885,120.4851,0.91172326
C0R940,加祿堂,2024-05-31,22.3363,120.6217,0.21573712
C0S710,鹿野,2024-05-31,22.917711,121.122994,0.83497477
C0S730,綠島,2024-05-31,22.6672,121.47533,0.7188571
C0S740,池上,2024-05-31,23.119628,121.209469,0.5513876
C0S770,大溪山,2024-05-31,22.478475,120.943325,0.66774344
C0S790,金崙,2024-05-31,22.538122,120.966875,0.10915753
C0S810,東河,2024-05-31,22.972672,121.303986,0.4579872
C0S830,長濱,2024-05-31,23.286817,121.411975,0.85180795
C0S840,南田,2024-05-31,22.279725,120.889208,0.02716958
C0S890,關山,2024-05-31,23.0395,121.175017,0.64496315
C0S900,蘭嶼高中,2024-05-31,22.04909,121.51214,0.1290721
C0S910,蘭嶼燈塔,2024-05-31,22.081197,121.503117,0.19001585
C0S920,金峰嘉蘭,2024-05-31,22.594789,120.960825,0.047988974
C0S930,延平,2024-05-31,22.902581,121.084058,0.75153255
C0S940,石寧山,2024-05-31,23.223772,121.406639,0.3142754
C0S950,七塊厝,2024-05-31,22.954453,121.229922,0.8584954
C0S960,香蘭,2024-05-31,22.587569,120.993375,0.040652607
C0S970,加津林,2024-05-31,22.416211,120.926942,0.16246557
C0S990,山豬窟,2024-05-31,22.318619,120.857372,0.1005694
C0SA00,歷坵,2024-05-31,22.520969,120.89185,0.8952849
C0SA10,檳榔四格山,2024-05-31,22.810031,121.109308,0.90536565
C0SA30,都歷,2024-05-31,23.020333,121.323642,0.1831757
C0SA40,瑞和,2024-05-31,22.974361,121.156697,0.26539424
C0SA60,知本（水試所）,2024-05-31,22.702394,121.082761,0.0424362
C0SA80,土坂,2024-05-31,22.453108,120.887572,0.49952024
C0SA90,達仁林場,2024-05-31,22.264347,120.823972,0.19990374
C0T870,鯉魚潭,2024-05-31,23.935639,121.508944,0.2689406
C0T900,西林,2024-05-31,23.8119,121.441458,0.5703006
C0T960,光復,2024-05-31,23.660694,121.424964,0.8165578
C0T9A0,月眉山,2024-05-31,23.809928,121.539828,0.9688581
C0T9D0,和中,2024-05-31,24.26676,121.74103,0.9952654
C0T9E0,大坑,2024-05-31,23.880628,121.581981,0.9689621
C0T9F0,水璉,2024-05-31,23.797131,121.542514,0.8653312
C0T9I0,豐濱,2024-05-31,23.583897,121.514806,0.61089474
C0T9M0,靜浦,2024-05-31,23.455167,121.495028,0.36702105
C0T9N0,富里,2024-05-31,23.171639,121.249378,0.25546792
C0U600,礁溪,2024-05-31,24.817539,121.765608,0.14206526
C0U650,玉蘭,2024-05-31,24.675286,121.587061,0.94254714
C0U750,龜山島,2024-05-31,24.841667,121.953133,0.9969693
C0U760,東澳,2024-05-31,24.52196,121.83318,0.66350025
C0U770,南澳,2024-05-31,24.44935,121.81022,0.90490735
C0U780,五結,2024-05-31,24.68637,121.79794,0.10484806
C0U860,頭城,2024-05-31,24.85323,121.8308,0.18407618
C0U870,大礁溪,2024-05-31,24.791042,121.675047,0.93667215
C0U880,北關,2024-05-31,24.9072,121.8734,0.23011415
C0U890,三星,2024-05-31,24.66812,121.65302,0.019577328
C0U900,內城,2024-05-31,24.71813,121.68766,0.12190303
C0U910,冬山,2024-05-31,24.63373,121.7937,0.14060003
C0U940,羅東,2024-05-31,24.68184,121.74934,0.10851796
C0U970,大福,2024-05-31,24.80064,121.81389,0.24215026
C0U990,員山,2024-05-31,24.74435,121.72247,0.10868857
C0UA00,土場,2024-05-31,24.576533,121.495333,0.35503164
C0UA80,大溪漁港,2024-05-31,24.941801,121.902955,0.62090933
C0UA90,石城,2024-05-31,24.980444,121.951214,0.42414325
C0UB00,淡江大學蘭陽校園,2024-05-31,24.823239,121.730383,0.9766537
C0UB10,蘇澳,2024-05-31,24.5969,121.8571,0.07023321
C0UB20,壯圍,2024-05-31,24.7359,121.8163,0.09902622
C0V310,美濃,2024-05-31,22.898742,120.519153,0.1627698
C0V350,溪埔,2024-05-31,22.738578,120.446797,0.9792834
C0V360,內門,2024-05-31,22.975481,120.466769,0.9906996
C0V370,古亭坑,2024-05-31,22.893178,120.401947,0.99711746
C0V400,阿公店,2024-05-31,22.804194,120.355528,0.9970588
C0V440,鳳山,2024-05-31,22.646653,120.356122,0.99593866
C0V450,鳳森,2024-05-31,22.545064,120.392592,0.9970084
C0V490,新興,2024-05-31,22.627422,120.298803,0.9960703
C0V530,阿蓮,2024-05-31,22.883208,120.327508,0.9955013
C0V610,梓官,2024-05-31,22.760558,120.267211,0.9940414
C0V620,永安,2024-05-31,22.82315,120.236856,0.9954168
C0V630,茄萣,2024-05-31,22.906642,120.182608,0.9947645
C0V640,湖內,2024-05-31,22.887139,120.2445,0.99293566
C0V650,彌陀,2024-05-31,22.783806,120.246361,0.9954168
C0V660,岡山,2024-05-31,22.797078,120.294958,0.9965949
C0V680,仁武,2024-05-31,22.701083,120.347722,0.99616045
C0V690,鼓山,2024-05-31,22.623325,120.275575,0.99664503
C0V700,三民,2024-05-31,22.645017,120.311233,0.9919946
C0V710,苓雅,2024-05-31,22.622742,120.330669,0.99622434
C0V720,林園,2024-05-31,22.507747,120.394511,0.9975131
C0V730,大寮,2024-05-31,22.605614,120.395717,0.99592316
C0V740,旗山,2024-05-31,22.888614,120.483597,0.1704364
C0V750,路竹,2024-05-31,22.854997,120.259439,0.99191767
C0V760,橋頭,2024-05-31,22.757806,120.30575,0.99592876
C0V770,大社,2024-05-31,22.730306,120.346639,0.9970122
C0V790,萬山,2024-05-31,22.905944,120.688056,0.9489344
C0V800,六龜,2024-05-31,22.997889,120.633583,0.0688762
C0V810,左營,2024-05-31,22.67491,120.28491,0.9919946
C0V820,小林,2024-05-31,23.148408,120.63325,0.9858456
C0V840,鳳鼻頭,2024-05-31,22.5083,120.3591,0.99760956
C0V850,蚵仔寮,2024-05-31,22.7256,120.2527,0.9943818
C0V860,南寮,2024-05-31,22.7616,120.2339,0.9943818
C0V870,文安,2024-05-31,22.8025,120.2164,0.9970775
C0V880,興達,2024-05-31,22.8778,120.2127,0.9947645
C0V890,前鎮,2024-05-31,22.5718,120.3117,0.99660337
C0V900,汕尾,2024-05-31,22.4782,120.4151,0.9982011
C0W200,湖西,2024-05-31,23.596314,119.67275,0.16621305
C0X050,東河,2024-05-31,23.296598,120.385608,0.974976
C0X060,下營,2024-05-31,23.22695,120.256261,0.99726653
C0X080,佳里,2024-05-31,23.173039,120.145086,0.99033517
C0X100,臺南市北區,2024-05-31,23.010394,120.194228,0.9939179
C0X110,臺南市南區,2024-05-31,22.961189,120.188378,0.99615794
C0X120,麻豆,2024-05-31,23.183289,120.248611,0.9944345
C0X130,官田,2024-05-31,23.193217,120.315422,0.99652714
C0X140,西港,2024-05-31,23.125608,120.203108,0.99514997
C0X150,安定,2024-05-31,23.102614,120.227839,0.99407643
C0X160,仁德,2024-05-31,22.968258,120.257689,0.9956242
C0X170,關廟,2024-05-31,22.963017,120.327797,0.99538
C0X180,山上,2024-05-31,23.0757,120.363253,0.9969079
C0X190,安平,2024-05-31,22.993161,120.152181,0.9941303
C0X200,左鎮,2024-05-31,23.056758,120.408522,0.63148874
C0X210,白河,2024-05-31,23.347466,120.414427,0.15479219
C0X220,學甲,2024-05-31,23.230367,120.182187,0.9894221
C0X230,鹽水,2024-05-31,23.272621,120.247641,0.9891051
C0X240,關子嶺,2024-05-31,23.331169,120.508025,0.7425591
C0X250,新營,2024-05-31,23.310689,120.316681,0.9971961
C0X260,後壁,2024-05-31,23.366358,120.362326,0.98235875
C0X280,將軍,2024-05-31,23.214999,120.13577,0.9896675
C0X290,北門,2024-05-31,23.267772,120.125481,0.99053514
C0X300,鹿寮,2024-05-31,23.386047,120.477331,0.0693749
C0X320,柳營,2024-05-31,23.253328,120.375253,0.98759913
C0Z020,明里,2024-05-31,23.208717,121.262342,0.7474513
C0Z061,玉里,2024-05-31,23.3215,121.339656,0.54957503
C0Z070,舞鶴,2024-05-31,23.46811,121.37407,0.8307297
C0Z080,富源,2024-05-31,23.587642,121.378225,0.009999697
C0Z100,東華,2024-05-31,23.89525,121.549833,0.10399025
C0Z150,吉安光華,2024-05-31,23.930925,121.595153,0.3325678
C0Z160,鳳林,2024-05-31,23.746114,121.453411,0.017946541
C0Z170,卓溪,2024-05-31,23.3443,121.3029,0.7960253
C0Z180,新城,2024-05-31,24.03946,121.60454,0.9393929
C0Z190,富世,2024-05-31,24.14743,121.6297,0.9892717
C0Z200,萬榮,2024-05-31,23.709219,121.420106,0.02329437
C0Z210,瑞穗,2024-05-31,23.5239,121.39021,0.5904478
C0Z230,和平,2024-05-31,24.30717,121.77007,0.91338646
C0Z270,蕃薯寮,2024-05-31,23.73835,121.540108,0.11470095
C0Z280,德武,2024-05-31,23.47426,121.41071,0.7771468
C0Z300,東里,2024-05-31,23.26853,121.30547,0.4553902
C0Z310,清水斷崖,2024-05-31,24.218294,121.689142,0.9342467
C0Z330,安通山,2024-05-31,23.290728,121.348528,0.9813566
C2E520,大湖,2024-05-31,24.414939,120.870872,0.9943911
C2E540,後龍,2024-05-31,24.606489,120.783933,0.7806585
C2F000,大肚,2024-05-31,24.15295,120.572117,0.95466465
C2F930,大甲,2024-05-31,24.347667,120.640403,0.8409703
C2F9A0,中竹林,2024-05-31,24.103556,120.751061,0.99753195
C2G640,鹿港,2024-05-31,24.0753,120.430481,0.5696214
C2G840,北斗,2024-05-31,23.877586,120.514222,0.48219678
C2G870,芳苑,2024-05-31,23.922303,120.320025,0.5625695
C2H950,中寮,2024-05-31,23.884447,120.766406,0.51268774
C2M410,馬頭山,2024-05-31,23.324361,120.582017,0.8110225
C2N160,西拉雅風管處,2024-05-31,23.189481,120.335297,0.99648374
C2O810,曾文,2024-05-31,23.219681,120.497328,0.5157207
C2O930,玉井,2024-05-31,23.126042,120.46055,0.8669494
C2O950,安南,2024-05-31,23.076694,120.144861,0.990741
C2V250,甲仙,2024-05-31,23.080106,120.591758,0.8629001
C2V260,月眉,2024-05-31,22.971003,120.539853,0.095419675
C2W230,畜試所澎湖,2024-05-31,23.628342,119.513206,0.17083059
CAG100,王功漁港,2024-05-31,23.96824,120.32586,0.62070197
CAH030,茶改場竹圍站,2024-05-31,23.860083,120.637528,0.9369311
CAJ050,海口故事園區,2024-05-31,23.57543,120.14121,0.9746338
CAL110,布袋國中,2024-05-31,23.35893,120.18026,0.97848165
CAN130,水試所海水繁養殖中心,2024-05-31,23.120802,120.07968,0.9915752
CAN140,六官養殖協會,2024-05-31,23.22881,120.29962,0.99730265
CAQ030,崎峰國小,2024-05-31,22.42565,120.49521,0.9976038
E2K600,四湖植物園,2024-05-31,23.676986,120.163433,0.4405329
E2P980,林試六龜中心,2024-05-31,22.991703,120.645722,0.06845175
E2S960,林試太麻里2,2024-05-31,22.598014,120.989761,0.040652607
E2S960,林試太麻里2,2024-05-31,22.598,120.99775,0.040033694
E2S980,林試太麻里1,2024-05-31,22.598922,120.980044,0.04652594
G2AI50,關渡,2024-05-31,25.11575,121.492,0.23152906
G2F820,農業試驗所,2024-05-31,24.031261,120.688133,0.32278073
G2F820,農試所(霧峰),2024-05-31,24.031261,120.688133,0.32278073
G2L020,農試嘉義分所,2024-05-31,23.485028,120.473806,0.93942237
G2M350,農試溪口農場,2024-05-31,23.58565,120.408111,0.48821753
G2P820,農試鳳山分所,2024-05-31,22.646611,120.356083,0.99593866
K2E360,苗栗農改,2024-05-31,24.495722,120.829111,0.9296236
K2E360,苗栗農改場,2024-05-31,24.495722,120.829111,0.9296236
K2E710,苗改生物防治研究中心,2024-05-31,24.422861,120.871833,0.9934599
K2F750,種苗改良場,2024-05-31,24.225972,120.800917,0.9968675
K2F750,種苗繁殖,2024-05-31,24.225972,120.800917,0.9968675
U2HA50,臺大竹山,2024-05-31,23.756972,120.681556,0.12077768
V2C250,八德合作社,2024-05-31,24.93775,121.266389,0.8031786
V2C260,八德蔬果,2024-05-31,24.978508,121.281819,0.52974725
V2K610,大庄合作社,2024-05-31,23.8068,120.367939,0.5954335
V2K620,麥寮合作社,2024-05-31,23.753836,120.294783,0.4677389
