站號,站名,日期,lat,lon,BLBTSLS
C0R710,龍磐,2024-07-30,21.931672,120.838942,0.0037626545
C1F9D1,白毛台,2024-07-30,24.158325,120.886933,9.994415e-05
C0G940,竹塘,2024-07-30,23.848253,120.386764,8.135494e-09
467590,恆春,2024-07-30,22.003897,120.746339,1.5986528e-07
C1O850,環湖,2024-07-30,23.148617,120.418633,1.6995963e-06
C0U710,太平山,2024-07-30,24.505486,121.525656,2.1431882e-08
C0E820,獅潭,2024-07-30,24.539133,120.920042,0.022730192
C0V880,興達,2024-07-30,22.8778,120.2127,1.1809696e-08
C0S890,關山,2024-07-30,23.0395,121.175017,6.835055e-06
K2F750,種苗繁殖,2024-07-30,24.225972,120.800917,0.040929146
C1Z130,銅門,2024-07-30,23.965694,121.492842,0.43590194
C0AD40,土城,2024-07-30,24.973208,121.445169,0.9331217
CAN140,六官養殖協會,2024-07-30,23.22881,120.29962,3.364693e-08
C0X180,山上,2024-07-30,23.0757,120.363253,3.1323862e-07
C0F9Z0,雪山東峰,2024-07-30,24.388792,121.268675,6.544316e-08
C1M480,獨立山,2024-07-30,23.537022,120.607797,1.4994768e-07
C0X220,學甲,2024-07-30,23.230367,120.182187,1.3029775e-08
C0R170,屏東,2024-07-30,22.660269,120.494072,2.0850772e-08
467650,日月潭,2024-07-30,23.881325,120.90805,3.9599638e-07
C0K600,箔子寮,2024-07-30,23.6197,120.14,3.9073953e-08
C0G830,埤頭,2024-07-30,23.866003,120.452806,1.9868793e-08
C0S950,七塊厝,2024-07-30,22.954453,121.229922,2.94948e-07
467110,金門,2024-07-30,24.407306,118.289281,0.96192235
C0AH80,深坑,2024-07-30,25.002703,121.628328,0.92530745
467990,馬祖,2024-07-30,26.169269,119.923419,0.060451657
C0A970,三貂角,2024-07-30,25.007606,122.002058,0.9946662
C0K430,褒忠,2024-07-30,23.690938,120.303634,1.7239998e-08
467480,嘉義,2024-07-30,23.495925,120.432906,1.7940819e-08
C2E540,後龍,2024-07-30,24.606489,120.783933,0.048857346
C0V400,阿公店,2024-07-30,22.804194,120.355528,5.9637904e-07
C0R440,大漢山,2024-07-30,22.405264,120.753181,9.070262e-09
C0K280,四湖,2024-07-30,23.630414,120.227125,6.114928e-09
C1F9B1,桐林,2024-07-30,24.066172,120.735194,0.00015353327
C0K390,土庫,2024-07-30,23.679029,120.395574,4.5209387e-09
C1I450,望鄉山,2024-07-30,23.594153,120.944286,6.523504e-08
C0E910,海埔,2024-07-30,24.648767,120.772435,0.049800504
B2E890,畜試北區分所,2024-07-30,24.527806,120.770972,0.027399454
C0R750,四林格山,2024-07-30,22.076989,120.802439,1.5462739e-08
C0F0C0,中坑,2024-07-30,24.248517,120.903319,0.00011140114
C1I121,大鞍,2024-07-30,23.678381,120.760017,1.4888996e-06
72U480,花改蘭陽分場,2024-07-30,24.686306,121.716583,0.06768087
C0A770,科教館,2024-07-30,25.096356,121.516507,0.837308
C0AJ60,六塊厝,2024-07-30,25.24,121.4481,0.23930202
C0R620,墾雷,2024-07-30,21.900836,120.855269,0.21931557
467420,永康,2024-07-30,23.038386,120.2367,1.05998055e-07
467300,東吉島,2024-07-30,23.25695,119.667467,0.00033186024
C0I410,名間,2024-07-30,23.837053,120.701447,2.6236462e-08
A2C560,農工中心,2024-07-30,24.985917,121.239833,0.5022568
C0V740,旗山,2024-07-30,22.888614,120.483597,9.081524e-06
C0Z061,玉里,2024-07-30,23.3215,121.339656,0.048406154
C0S840,南田,2024-07-30,22.279725,120.889208,2.6815934e-07
C1I470,杉林溪,2024-07-30,23.639517,120.786444,5.871655e-07
C1X040,東原,2024-07-30,23.291597,120.463822,8.746596e-06
C0R660,枋寮,2024-07-30,22.367722,120.590647,1.5637132e-08
C1R120,上德文,2024-07-30,22.763272,120.704442,6.549355e-07
C0K450,大埤,2024-07-30,23.646074,120.431537,1.2948068e-08
C0UA00,土場,2024-07-30,24.576533,121.495333,0.07555125
467080,宜蘭,2024-07-30,24.763975,121.756528,0.4328008
C0N030,四草,2024-07-30,23.0235,120.1116,2.205475e-08
C0V650,彌陀,2024-07-30,22.783806,120.246361,2.5603239e-08
C0D660,新竹市東區,2024-07-30,24.798681,120.986942,0.011211299
82S580,茶改東部分場,2024-07-30,22.907694,121.130139,0.0008124886
C0C710,大溪永福,2024-07-30,24.892936,121.324975,0.22917412
C0FA20,溫寮,2024-07-30,24.372177,120.583125,0.004745332
C0V640,湖內,2024-07-30,22.887139,120.2445,1.1333514e-08
C0R910,下寮,2024-07-30,22.3929,120.5548,1.5637132e-08
C0Z020,明里,2024-07-30,23.208717,121.262342,0.06814219
C0M770,嘉義梅山,2024-07-30,23.585398,120.555587,3.1526304e-07
G2F820,農業試驗所,2024-07-30,24.031261,120.688133,4.1829408e-06
C0C660,楊梅,2024-07-30,24.912375,121.143047,0.10448974
C1E511,新開,2024-07-30,24.347703,120.827019,0.0026671411
G2F820,農試所(霧峰),2024-07-30,24.031261,120.688133,4.1829408e-06
C1I070,和社,2024-07-30,23.591131,120.888861,0.023258444
C2F000,大肚,2024-07-30,24.15295,120.572117,1.9496652e-05
C1S850,豐南,2024-07-30,23.122139,121.262389,2.5195819e-08
C2A920,富貴角,2024-07-30,25.263783,121.565258,0.3256519
CAH030,茶改場竹圍站,2024-07-30,23.860083,120.637528,8.0946005e-09
C0T960,光復,2024-07-30,23.660694,121.424964,0.39955875
C0F9M0,豐原,2024-07-30,24.254322,120.720692,0.3087623
C0R720,旭海,2024-07-30,22.205403,120.887614,1.0092205e-07
C0V710,苓雅,2024-07-30,22.622742,120.330669,4.1847134e-08
C0C740,觀音工業區,2024-07-30,25.064764,121.114856,0.81192327
CAC040,拉拉山,2024-07-30,24.699317,121.427133,1.9356614e-07
C0V790,萬山,2024-07-30,22.905944,120.688056,7.3036194e-06
U2HA30,臺大和社,2024-07-30,23.590856,120.888864,0.023258444
C0AJ90,澳底,2024-07-30,25.0552,121.9253,0.983075
C0Z100,東華,2024-07-30,23.89525,121.549833,0.19331259
C0G970,三豐,2024-07-30,23.882,120.2895,1.3238987e-05
V2K610,大庄合作社,2024-07-30,23.8068,120.367939,1.4941874e-08
C0V900,汕尾,2024-07-30,22.4782,120.4151,1.1868905e-08
C1R630,龍泉,2024-07-30,22.66701,120.59091,0.0001295389
C1AC50,關渡,2024-07-30,25.133486,121.469331,0.15554453
C0F9I0,神岡,2024-07-30,24.272481,120.658314,0.80100673
C0K460,斗南,2024-07-30,23.678734,120.478359,1.1757575e-08
467410,臺南,2024-07-30,22.993239,120.204772,1.9866974e-08
C2O810,曾文,2024-07-30,23.219681,120.497328,1.6024459e-06
467280,後龍,2024-07-30,24.648563,120.831834,0.044812165
C1F9J1,清水林,2024-07-30,24.071242,120.820419,4.7765408e-08
C2A650,火燒寮,2024-07-30,25.002719,121.742892,0.9950283
466930,竹子湖,2024-07-30,25.162078,121.544547,0.91749966
C1I220,樟湖,2024-07-30,23.905333,120.846983,8.500273e-08
C0I390,仁愛,2024-07-30,24.022122,121.132206,6.279321e-07
C0Z300,東里,2024-07-30,23.26853,121.30547,0.10772112
C0V310,美濃,2024-07-30,22.898742,120.519153,1.0524333e-05
C1V590,新發,2024-07-30,23.057019,120.646064,0.0002077755
C0K510,水林,2024-07-30,23.572924,120.24597,1.9446476e-08
72S590,東改賓朗果園,2024-07-30,22.813889,121.071278,0.0024273342
82A750,茶改北部分場,2024-07-30,24.955778,121.631222,0.97953355
C1A750,石碇服務區,2024-07-30,25.00872,121.646242,0.99205464
C0X300,鹿寮,2024-07-30,23.386047,120.477331,2.9192657e-07
G2AI50,關渡,2024-07-30,25.11575,121.492,0.7101639
C0K590,雲林東勢,2024-07-30,23.674192,120.255721,6.1648513e-09
C0A570,桶後,2024-07-30,24.848222,121.597992,0.97833484
C1S800,華源,2024-07-30,22.657883,121.02325,9.387412e-09
C0G720,溪州,2024-07-30,23.851589,120.499093,1.7420973e-08
C1V160,達卡努瓦,2024-07-30,23.279811,120.705319,6.9070217e-07
C2M410,馬頭山,2024-07-30,23.324361,120.582017,2.991276e-06
C0V850,蚵仔寮,2024-07-30,22.7256,120.2527,5.8809746e-08
C0S740,池上,2024-07-30,23.119628,121.209469,1.6294528e-07
C1V390,尖山,2024-07-30,22.813153,120.367789,4.2886313e-07
C0AH70,松山,2024-07-30,25.04871,121.55042,0.8339231
C0N010,鯤鯓國小,2024-07-30,23.1879,120.0889,8.867914e-08
C0R550,新埤,2024-07-30,22.467947,120.582894,9.642397e-09
C0SA60,知本（水試所）,2024-07-30,22.702394,121.082761,2.2009113e-08
C0T9I0,豐濱,2024-07-30,23.583897,121.514806,0.0018853527
C0UB00,淡江大學蘭陽校園,2024-07-30,24.823239,121.730383,0.9667174
C0T9N0,富里,2024-07-30,23.171639,121.249378,4.4319895e-05
U2HA50,臺大竹山,2024-07-30,23.756972,120.681556,4.5805532e-08
C0V840,鳳鼻頭,2024-07-30,22.5083,120.3591,6.0361067e-09
C0X140,西港,2024-07-30,23.125608,120.203108,3.099653e-08
72D080,桃改五峰分場,2024-07-30,24.612194,121.157167,2.066972e-07
C0V530,阿蓮,2024-07-30,22.883208,120.327508,7.3678315e-08
C1O880,關山,2024-07-30,23.173397,120.594092,1.2421397e-05
C0E791,卓蘭,2024-07-30,24.3126,120.8244,0.00013365496
C1I030,武界,2024-07-30,23.913225,121.052483,1.6310527e-07
C0R520,崁頂,2024-07-30,22.514781,120.506914,6.246474e-09
C0R341,牡丹,2024-07-30,22.130036,120.792639,5.4330712e-08
C0R930,萬丹,2024-07-30,22.5885,120.4851,1.9051516e-08
C0S760,紅石,2024-07-30,23.069131,121.126219,1.0621963e-08
C1M610,石磐龍,2024-07-30,23.496606,120.663506,8.77454e-07
C0UA10,鴛鴦湖,2024-07-30,24.590269,121.412228,1.9197738e-07
V2C260,八德蔬果,2024-07-30,24.978508,121.281819,0.4296163
C0R800,丹路,2024-07-30,22.204481,120.750989,2.4121718e-07
C0G920,永靖,2024-07-30,23.924703,120.547533,2.5421684e-08
C1A630,下盆,2024-07-30,24.771003,121.538622,0.1032316
B2N890,畜產試驗所,2024-07-30,23.058972,120.336406,1.5898573e-07
C0UA30,白嶺,2024-07-30,24.527819,121.519031,7.9234553e-07
C1V580,溪南(特生中心),2024-07-30,23.084972,120.788475,1.2886763e-07
C1T970,大農,2024-07-30,23.615233,121.413331,7.432545e-05
E2S960,林試太麻里2,2024-07-30,22.598014,120.989761,1.0500372e-05
C0R650,竹田,2024-07-30,22.58486,120.54344,5.2950913e-08
C1H900,清流,2024-07-30,24.080775,120.962997,7.4384324e-08
C1C510,水尾,2024-07-30,24.940081,121.087161,0.19698802
C0F9X0,大雅(中科園區),2024-07-30,24.21528,120.62445,0.00021496067
C0O970,虎頭埤,2024-07-30,23.021375,120.347878,1.3156936e-06
C0C730,中大臨海站,2024-07-30,24.966126,121.008581,0.6277443
C0X250,新營,2024-07-30,23.310689,120.316681,4.172965e-08
C0V700,三民,2024-07-30,22.645017,120.311233,2.7083138e-08
C0U870,大礁溪,2024-07-30,24.791042,121.675047,0.1399494
C0E870,高鐵苗栗,2024-07-30,24.60725,120.826094,0.045644786
A2K570,古坑花卉中心,2024-07-30,23.63353,120.55239,4.4957417e-07
C0M860,新美,2024-07-30,23.338017,120.683169,3.413446e-06
C1E701,八卦,2024-07-30,24.491756,120.927619,1.8824549e-06
C0I420,國姓,2024-07-30,24.037803,120.855072,7.2442155e-08
C0S960,香蘭,2024-07-30,22.587569,120.993375,1.0500382e-05
C0R260,春日,2024-07-30,22.370361,120.628306,1.3207048e-08
72G600,臺中農改場,2024-07-30,24.003028,120.534389,1.5286178e-08
C0Z210,瑞穗,2024-07-30,23.5239,121.39021,0.19506913
C0M820,達邦,2024-07-30,23.453994,120.749517,1.4814337e-07
C0V860,南寮,2024-07-30,22.7616,120.2339,5.899636e-08
C0G740,大城,2024-07-30,23.852487,120.320935,1.0317596e-05
C0R920,塭仔,2024-07-30,22.4169,120.5197,1.5901417e-08
C0R470,高樹,2024-07-30,22.826389,120.600806,3.854753e-07
C0R680,佳樂水,2024-07-30,21.993578,120.861633,1.5797929e-07
C1O870,大棟山,2024-07-30,23.31157,120.52226,4.1395747e-08
C0D360,梅花,2024-07-30,24.678347,121.208558,0.0019702823
C0Z190,富世,2024-07-30,24.14743,121.6297,0.0013372037
C0AI10,屈尺,2024-07-30,24.92184,121.54475,0.59076947
B2U990,畜試東區分所,2024-07-30,24.669039,121.832561,0.84773666
C0R240,來義,2024-07-30,22.527306,120.625111,4.491167e-09
C1R610,西大武山,2024-07-30,22.617719,120.7322,1.3259599e-08
C0G900,線西,2024-07-30,24.143358,120.443536,3.861037e-07
C0M700,竹崎,2024-07-30,23.526178,120.555508,1.9574513e-07
C2E880,三義,2024-07-30,24.405478,120.749819,2.946601e-07
C0C720,竹圍,2024-07-30,25.112692,121.239824,0.7101639
C0F9P0,清水,2024-07-30,24.312297,120.562242,0.0037213129
C0Z150,吉安光華,2024-07-30,23.930925,121.595153,0.27823582
C1D640,外坪(五指山),2024-07-30,24.644447,121.090961,0.042413577
C0F9O0,潭子,2024-07-30,24.213106,120.703933,0.11250667
72T250,花蓮農改場,2024-07-30,23.975222,121.563889,0.28488007
C0E780,銅鑼,2024-07-30,24.489681,120.790853,0.051839575
C1T950,太安,2024-07-30,23.666719,121.370128,1.0504162e-08
C0E830,苑裡,2024-07-30,24.439714,120.653053,0.0063093766
467270,田中,2024-07-30,23.873803,120.581286,3.3291694e-06
C0SA10,檳榔四格山,2024-07-30,22.810031,121.109308,0.0010741783
C1T830,布洛灣,2024-07-30,24.17184,121.57127,0.0033905825
C0F970,大坑,2024-07-30,24.173142,120.722289,0.027445152
C1U920,思源,2024-07-30,24.393125,121.347214,7.2198006e-08
C0A931,三和,2024-07-30,25.233153,121.595236,0.9448314
C0I010,廬山,2024-07-30,24.033311,121.181808,1.3987808e-07
C0R860,鼻頭,2024-07-30,22.1043,120.8979,3.90649e-07
C0UB20,壯圍,2024-07-30,24.7359,121.8163,0.07866186
C0R790,九棚,2024-07-30,22.14195,120.889281,8.582855e-08
C0W110,東莒,2024-07-30,25.9652,119.98069,0.02649106
C1U930,粉鳥林,2024-07-30,24.497088,121.842479,0.40034053
C1I211,蘆竹湳,2024-07-30,23.934019,120.811994,4.5121883e-08
C0S830,長濱,2024-07-30,23.286817,121.411975,0.0043106936
C1F9F1,伯公龍,2024-07-30,24.272392,120.849047,0.31178218
C0E810,西湖,2024-07-30,24.562947,120.7485,0.014208021
C1I440,新高口,2024-07-30,23.478744,120.878939,5.9760936e-08
C0O840,王爺宮,2024-07-30,23.222064,120.40085,1.249128e-07
C0T9G0,鳳林山,2024-07-30,23.735269,121.420131,1.22962165e-05
C0X080,佳里,2024-07-30,23.173039,120.145086,8.867914e-08
C0Z310,清水斷崖,2024-07-30,24.218294,121.689142,1.3494001e-06
C0M680,太保,2024-07-30,23.455062,120.331455,3.9916035e-06
C1S820,金峰,2024-07-30,22.590969,120.933236,1.0739476e-06
C0AD10,八里,2024-07-30,25.150211,121.403947,0.71028054
C2K240,草嶺,2024-07-30,23.59555,120.693461,5.902083e-06
C1SA70,都蘭,2024-07-30,22.87794,121.226881,0.0026656114
C0K440,二崙,2024-07-30,23.772797,120.408944,1.16047145e-08
C1A760,坪林交控,2024-07-30,24.94284,121.713442,0.9986832
C0F9N0,大里,2024-07-30,24.092464,120.701378,0.0022383663
C0SA90,達仁林場,2024-07-30,22.264347,120.823972,1.1303506e-08
C1R290,石門山,2024-07-30,22.112611,120.756597,3.1127346e-08
42HA10,萬大發電廠,2024-07-30,23.978875,121.139639,4.8589282e-08
C0R890,山海,2024-07-30,21.9878,120.7091,3.8302264e-08
C0T9A0,月眉山,2024-07-30,23.809928,121.539828,0.1412747
C0AC70,信義,2024-07-30,25.037822,121.564597,0.8339231
C0K560,棋山,2024-07-30,23.68645,120.603417,3.468228e-07
C1Z240,中平林道,2024-07-30,23.42115,121.26763,2.3195323e-08
U2H480,溪頭,2024-07-30,23.670306,120.798194,1.4015224e-06
C0M880,好美里,2024-07-30,23.3364,120.138,7.365594e-09
C0T9E0,大坑,2024-07-30,23.880628,121.581981,0.22761977
C0K530,臺西,2024-07-30,23.701547,120.197559,1.2232615e-08
C1E900,國一N128K,2024-07-30,24.560997,120.844186,0.0076572136
C0AJ50,水湳洞,2024-07-30,25.123695,121.862238,0.89569384
C0AI20,白沙灣,2024-07-30,25.283128,121.519058,0.229345
C0A860,大坪,2024-07-30,25.165914,121.632969,0.9593773
C1U850,觀音海岸,2024-07-30,24.38319,121.77856,1.586755e-06
C0U950,鶯子嶺,2024-07-30,24.89754,121.79244,0.9036775
C0O900,善化,2024-07-30,23.112883,120.297219,1.8453062e-07
C0K550,蔦松,2024-07-30,23.514319,120.229736,2.358429e-08
E2P980,林試六龜中心,2024-07-30,22.991703,120.645722,0.0010130415
C0E590,通霄,2024-07-30,24.471892,120.704622,0.0013275235
C1I310,西巒,2024-07-30,23.754486,120.883956,3.9440356e-06
C0A550,泰平,2024-07-30,24.971197,121.823711,0.9940883
C0I360,水里,2024-07-30,23.812553,120.849792,7.7182225e-09
C0R830,高士,2024-07-30,22.121825,120.836781,2.3300634e-08
C1I101,溪頭,2024-07-30,23.661789,120.807647,8.167952e-07
C0AJ20,野柳,2024-07-30,25.20703,121.690021,0.3114785
C0B060,暖暖,2024-07-30,25.0957,121.7403,0.9829064
C1H920,長豐,2024-07-30,24.102039,120.879897,1.3799792e-07
C0V360,內門,2024-07-30,22.975481,120.466769,3.9846896e-06
C0R850,林邊,2024-07-30,22.4634,120.5339,1.0899292e-08
C0E930,龍鳳,2024-07-30,24.700034,120.859125,0.12377436
C0U910,冬山,2024-07-30,24.63373,121.7937,0.84773666
C1E721,泰安,2024-07-30,24.489017,120.968036,1.6360924e-07
82H320,茶改中部分場,2024-07-30,23.875611,120.913583,8.926772e-07
C0M750,布袋,2024-07-30,23.380878,120.167789,1.7034791e-08
C1S860,利嘉,2024-07-30,22.809417,121.050528,9.927307e-09
72C440,桃園農改,2024-07-30,24.950944,121.030583,0.23395045
E2S980,林試太麻里1,2024-07-30,22.598922,120.980044,3.0500112e-06
C0X170,關廟,2024-07-30,22.963017,120.327797,2.372323e-07
C0V720,林園,2024-07-30,22.507747,120.394511,5.867885e-09
C1I510,線浸林道,2024-07-30,23.761508,120.832956,5.4876756e-07
C0D690,外湖,2024-07-30,24.917735,120.968711,0.26475915
C0C750,新興坑尾,2024-07-30,25.0061,121.0971,0.5671572
B2Q810,畜試南區分所,2024-07-30,21.945583,120.802167,1.6909584e-07
C0S790,金崙,2024-07-30,22.538122,120.966875,0.00021082597
C0AH90,福山植物園,2024-07-30,24.760717,121.58135,0.17139322
C0I540,奇萊稜線,2024-07-30,24.109231,121.326456,6.296585e-08
C0M850,表湖,2024-07-30,23.24186,120.64166,0.00093799137
C0S770,大溪山,2024-07-30,22.478475,120.943325,3.5880834e-08
C0AG80,中和,2024-07-30,24.991622,121.491792,0.9331217
C0T790,大禹嶺,2024-07-30,24.186117,121.316086,6.799836e-08
C0T9B0,水源,2024-07-30,23.991861,121.537169,9.7434415e-05
C0R840,牡丹池山,2024-07-30,22.168389,120.841225,1.12577405e-08
C1I131,桶頭,2024-07-30,23.641944,120.654117,2.5788156e-08
CAL110,布袋國中,2024-07-30,23.35893,120.18026,1.7034791e-08
467571,新竹,2024-07-30,24.827853,121.014219,0.02314657
C0Z290,赤柯山,2024-07-30,23.36893,121.38293,5.851648e-08
C0X280,將軍,2024-07-30,23.214999,120.13577,1.3276934e-08
C0S690,太麻里,2024-07-30,22.60902,120.98533,1.9166105e-08
C0U880,北關,2024-07-30,24.9072,121.8734,0.99494237
C1H860,瑞岩,2024-07-30,24.123772,121.18345,1.378598e-07
C0G810,埔心,2024-07-30,23.947633,120.525456,2.5421684e-08
C0U970,大福,2024-07-30,24.80064,121.81389,0.42986172
C1E670,南礦,2024-07-30,24.538278,121.002836,1.1642286e-07
C0M520,東後寮,2024-07-30,23.369908,120.248065,1.678509e-08
C1E461,松安,2024-07-30,24.397972,120.986022,4.3508243e-07
72G600,臺中農改,2024-07-30,24.003028,120.534389,1.5286178e-08
C2N160,西拉雅風管處,2024-07-30,23.189481,120.335297,2.9230486e-07
C0A640,石碇,2024-07-30,24.993969,121.662917,0.9934563
E2S960,林試太麻里2,2024-07-30,22.598,120.99775,1.2157507e-05
C0F9Y0,桃山,2024-07-30,24.432739,121.303808,7.6085726e-08
C1I020,萬大,2024-07-30,23.979817,121.132261,6.052936e-07
C0U940,羅東,2024-07-30,24.68184,121.74934,0.068833195
C0M650,朴子,2024-07-30,23.43463,120.23902,1.6842785e-08
C1I500,大尖山,2024-07-30,23.858572,120.994889,1.1380361e-07
C0G820,田尾,2024-07-30,23.901669,120.509389,2.5421684e-08
E2K600,四湖植物園,2024-07-30,23.676986,120.163433,6.114928e-09
C0S730,綠島,2024-07-30,22.6672,121.47533,0.019853452
12Q970,東港工作站,2024-07-30,22.479997,120.466058,1.1868905e-08
C0E430,南庄,2024-07-30,24.601775,121.000214,0.018721161
C1TA00,太魯閣,2024-07-30,24.15773,121.6236,0.0027625405
466920,臺北,2024-07-30,25.037658,121.514853,0.8339231
C0R600,舊泰武,2024-07-30,22.588194,120.664944,3.677498e-07
C1I260,北坑,2024-07-30,23.9246,121.006903,3.7330807e-08
466910,鞍部,2024-07-30,25.182586,121.529731,0.8613554
C1I230,九份二山,2024-07-30,23.961944,120.845,2.697892e-07
C2A660,瑞芳,2024-07-30,25.113169,121.801147,0.92452353
C0R270,琉球嶼,2024-07-30,22.332244,120.362236,1.3357676e-07
C1T990,高寮,2024-07-30,23.394239,121.356808,0.02804887
C0G620,芬園,2024-07-30,24.015678,120.6213,9.597435e-07
C1Z140,荖溪,2024-07-30,23.890575,121.45964,3.095488e-08
C1I201,中心崙,2024-07-30,23.728722,120.712097,1.8130985e-08
C1I400,凌霄,2024-07-30,24.018778,121.004456,1.9340301e-07
C1M640,十字,2024-07-30,23.492153,120.753683,1.4737652e-06
G2P820,農試鳳山分所,2024-07-30,22.646611,120.356083,2.5333204e-08
C0Z270,蕃薯寮,2024-07-30,23.73835,121.540108,0.05612534
C0F9Q0,外埔,2024-07-30,24.347817,120.705686,0.9084463
C0K580,高鐵雲林,2024-07-30,23.737456,120.417944,7.269168e-09
C2I090,鳳凰,2024-07-30,23.728081,120.787347,3.4698556e-07
C0U990,員山,2024-07-30,24.74435,121.72247,0.077411234
C0V770,大社,2024-07-30,22.730306,120.346639,5.373022e-08
C0X120,麻豆,2024-07-30,23.183289,120.248611,5.3826124e-08
C0C670,龍潭,2024-07-30,24.870056,121.221389,0.067308605
C0D680,香山濕地,2024-07-30,24.783581,120.914988,0.014073496
C0S980,勝林山,2024-07-30,22.430439,120.8938,3.9335447e-08
C0V730,大寮,2024-07-30,22.605614,120.395717,3.9672624e-08
C0R570,麟洛,2024-07-30,22.65078,120.52719,2.0903812e-08
CAG100,王功漁港,2024-07-30,23.96824,120.32586,0.00012239182
C0X290,北門,2024-07-30,23.267772,120.125481,1.3305759e-08
C2F930,大甲,2024-07-30,24.347667,120.640403,0.011994195
C0D650,湖口,2024-07-30,24.904794,121.043628,0.19498745
C0E420,竹南,2024-07-30,24.708978,120.888897,0.09832746
C0U780,五結,2024-07-30,24.68637,121.79794,0.07866186
C1I250,鯉潭,2024-07-30,23.961922,120.991131,4.861079e-07
C0R130,阿禮,2024-07-30,22.742908,120.743678,1.00007064e-07
C0X100,臺南市北區,2024-07-30,23.010394,120.194228,2.1249e-08
C0S920,金峰嘉蘭,2024-07-30,22.594789,120.960825,2.7396093e-06
C0V490,新興,2024-07-30,22.627422,120.298803,4.1899845e-08
C0F9K0,大安,2024-07-30,24.345061,120.588025,0.006536849
72N100,臺南農改,2024-07-30,23.0605,120.342194,1.5885766e-07
467290,古坑,2024-07-30,23.633639,120.551889,4.4957417e-07
C0V440,鳳山,2024-07-30,22.646653,120.356122,2.5333204e-08
C1T940,大觀,2024-07-30,23.714206,121.373133,0.0005599259
72T250,花蓮農改,2024-07-30,23.975222,121.563889,0.28488007
C0E740,造橋,2024-07-30,24.637056,120.864778,0.04558476
C0R100,尾寮山,2024-07-30,22.833111,120.683889,1.2605709e-07
A2K630,臺大雲林校區,2024-07-30,23.730628,120.423903,7.2680724e-09
C0D580,寶山,2024-07-30,24.735006,121.025192,0.0037561506
E2P990,林試扇平站,2024-07-30,22.9677,120.6857,0.10837577
C0AI30,三重,2024-07-30,25.057328,121.500629,0.837308
C0AH00,汐止,2024-07-30,25.066881,121.658778,0.8339231
C1Z040,立山,2024-07-30,23.443356,121.327375,0.00020895839
C0R740,獅子,2024-07-30,22.201569,120.70525,7.9317266e-07
C0W130,花嶼,2024-07-30,23.40007,119.32276,0.0021581128
C0A950,鼻頭角,2024-07-30,25.129036,121.923372,0.8972043
C0K470,林內,2024-07-30,23.748675,120.609642,1.3148365e-07
82C160,茶改場,2024-07-30,24.908472,121.185333,0.12613793
C0Z320,清水林道,2024-07-30,23.27125,121.188272,8.983752e-07
C0R760,南仁湖,2024-07-30,22.084681,120.863353,3.1127346e-08
C0M670,大林,2024-07-30,23.600616,120.45841,5.0711657e-09
C0M800,茶山,2024-07-30,23.299075,120.664767,8.8794775e-05
C0A9C0,天母,2024-07-30,25.117494,121.537169,0.1424824
72K220,南改斗南分場,2024-07-30,23.634556,120.477333,1.1757575e-08
72AI40,桃改樹林分場,2024-07-30,24.944503,121.386972,0.25308362
C0S910,蘭嶼燈塔,2024-07-30,22.081197,121.503117,0.095345736
C0B050,八斗子,2024-07-30,25.144754,121.79167,0.9007138
C0U900,內城,2024-07-30,24.71813,121.68766,0.05897704
C0X320,柳營,2024-07-30,23.253328,120.375253,2.5937584e-07
C0M790,新港,2024-07-30,23.553269,120.345728,5.6990657e-09
C0F9T0,西屯,2024-07-30,24.179494,120.641275,2.7042802e-06
C0SA30,都歷,2024-07-30,23.020333,121.323642,0.00023594272
C0C620,蘆竹,2024-07-30,25.084275,121.265767,0.8059764
C0R730,大坪頂,2024-07-30,22.024633,120.69355,2.8797533e-08
C0AJ40,石門,2024-07-30,25.273672,121.601198,0.26150298
C0E750,苗栗,2024-07-30,24.564569,120.824575,0.0063399104
C0T870,鯉魚潭,2024-07-30,23.935639,121.508944,0.40630156
C1V170,排雲,2024-07-30,23.463619,120.954147,7.5476486e-08
C2H950,中寮,2024-07-30,23.884447,120.766406,2.0530173e-08
C0R350,貓鼻頭,2024-07-30,21.921774,120.7358,0.0035285384
C0V660,岡山,2024-07-30,22.797078,120.294958,2.5603239e-08
C1H941,雙冬,2024-07-30,23.967378,120.802189,3.4585e-08
C0AJ70,田寮,2024-07-30,25.2698,121.4886,0.23278064
C0AI00,五股,2024-07-30,25.07445,121.42728,0.34780136
C0Z280,德武,2024-07-30,23.47426,121.41071,0.15699609
C0R700,枋山,2024-07-30,22.246844,120.661086,2.4618778e-08
C0C460,復興,2024-07-30,24.820208,121.352281,0.109536014
E2H360,蓮華池,2024-07-30,23.918333,120.885278,2.4677592e-08
C0M640,中埔,2024-07-30,23.42538,120.5229,5.8152314e-06
C0W140,金沙,2024-07-30,24.488292,118.408778,0.0009312628
C2A540,四堵,2024-07-30,24.8926,121.745736,0.9979436
C0ACA0,新莊,2024-07-30,25.051478,121.446756,0.6243085
C0R220,潮州,2024-07-30,22.534361,120.54,6.08469e-09
U2HA40,臺大內茅埔,2024-07-30,23.689722,120.851117,0.003158348
467490,臺中,2024-07-30,24.145736,120.684075,0.112723865
C0U960,翠峰湖,2024-07-30,24.510856,121.608044,4.1409645e-08
E2HA20,林試畢祿溪站,2024-07-30,24.226944,121.308522,8.037036e-08
C0V890,前鎮,2024-07-30,22.5718,120.3117,4.3523013e-08
467620,蘭嶼,2024-07-30,22.036969,121.558339,0.32427976
C1F941,雪嶺,2024-07-30,24.280586,121.026642,6.3492024e-08
C0AC80,文山,2024-07-30,25.00235,121.575728,0.92530745
C0F9R0,龍井,2024-07-30,24.184536,120.528972,5.6388293e-05
C0M760,民雄,2024-07-30,23.551754,120.428457,5.225649e-09
C0UA40,西德山,2024-07-30,24.560647,121.752608,6.176204e-06
C1T920,中興,2024-07-30,23.769503,121.498653,0.25517097
C0D550,雪霸,2024-07-30,24.526972,121.11605,9.8884755e-08
C2F860,梨山,2024-07-30,24.247522,121.243669,7.414013e-08
C0R320,車城,2024-07-30,22.0744,120.716247,5.7974567e-08
C1S870,南美山,2024-07-30,23.15025,121.382333,6.503964e-05
C0B020,基隆嶼,2024-07-30,25.19141,121.78391,0.8663992
C1U501,牛鬥,2024-07-30,24.637836,121.573656,0.030867146
C0M730,嘉義市東區,2024-07-30,23.457673,120.460531,1.8734178e-05
C0S700,知本,2024-07-30,22.684866,121.005642,2.9272447e-09
C1N001,沙崙,2024-07-30,22.935472,120.309406,2.5993373e-07
C0V760,橋頭,2024-07-30,22.757806,120.30575,5.568813e-08
C0G960,福寶,2024-07-30,24.0443,120.3814,4.2810676e-08
C0X210,白河,2024-07-30,23.347466,120.414427,3.8983396e-07
C0S810,東河,2024-07-30,22.972672,121.303986,4.038821e-06
C0R670,楓港,2024-07-30,22.190131,120.692156,5.794759e-08
C0FA50,霧峰,2024-07-30,24.0419,120.6995,3.097977e-06
C0UB10,蘇澳,2024-07-30,24.5969,121.8571,0.28474995
C0G950,防潮門,2024-07-30,24.1835,120.4871,5.6523964e-05
C0M740,六腳,2024-07-30,23.492871,120.290625,2.5773141e-07
C1R250,力里,2024-07-30,22.428117,120.629228,2.8319615e-08
C0K330,虎尾,2024-07-30,23.719183,120.442036,6.577977e-09
C2FA00,烏石坑,2024-07-30,24.273503,120.947617,0.004847716
C0V620,永安,2024-07-30,22.82315,120.236856,2.5603239e-08
C1I330,楓樹林,2024-07-30,23.986803,121.076117,3.45762e-07
C0W200,湖西,2024-07-30,23.596314,119.67275,0.002048199
72Q010,高雄農改場,2024-07-30,22.709333,120.525889,5.673094e-08
C0SA40,瑞和,2024-07-30,22.974361,121.156697,1.5091623e-05
C0C680,龜山,2024-07-30,25.02846,121.38656,0.472404
C2V260,月眉,2024-07-30,22.971003,120.539853,5.6642297e-05
C0V450,鳳森,2024-07-30,22.545064,120.392592,4.917552e-09
C0U720,南山,2024-07-30,24.43742,121.38167,0.0059215766
A2N290,臺南蘭花園區,2024-07-30,23.340258,120.379661,1.7008647e-07
C0R560,新園,2024-07-30,22.5434,120.461558,5.867885e-09
C0U890,三星,2024-07-30,24.66812,121.65302,0.005720317
C1V300,御油山,2024-07-30,23.001983,120.715364,1.2509973e-07
C0U600,礁溪,2024-07-30,24.817539,121.765608,0.8067229
C1T980,龍澗,2024-07-30,24.023289,121.411328,1.680335e-08
C0D670,海天一線,2024-07-30,24.831986,120.914438,0.0441635
C0SA00,歷坵,2024-07-30,22.520969,120.89185,7.23486e-07
C0M710,東石,2024-07-30,23.458927,120.15385,1.9507327e-08
C0M780,鹿草,2024-07-30,23.41134,120.30835,1.6643607e-08
C0U520,雙連埤,2024-07-30,24.753033,121.641303,0.13412847
C0B010,七堵,2024-07-30,25.094819,121.71713,0.9795272
C0R480,長治,2024-07-30,22.693128,120.542622,2.884393e-08
C1V830,國三S383K,2024-07-30,22.781967,120.426475,1.203925e-07
12Q980,恆春工作站,2024-07-30,22.079678,120.714425,5.7974678e-08
C1O940,東山服務區,2024-07-30,23.286016,120.398472,8.2135486e-08
C1U840,東澳嶺,2024-07-30,24.5378,121.8485,3.7681268e-05
C1D630,飛鳳山,2024-07-30,24.766464,121.119178,0.089033045
C0S940,石寧山,2024-07-30,23.223772,121.406639,0.07890012
C0K410,北港,2024-07-30,23.573957,120.292802,1.8177523e-08
C2M620,瑞里,2024-07-30,23.545133,120.675197,4.740269e-07
C2O950,安南,2024-07-30,23.076694,120.144861,2.4400185e-08
C0F0E0,南湖圈谷,2024-07-30,24.363714,121.444667,8.12751e-08
467610,成功,2024-07-30,23.097486,121.373428,0.0009055268
C0G890,伸港,2024-07-30,24.148933,120.484403,3.8596306e-07
C2E540,龍溪,2024-07-30,24.606489,120.783933,0.048857346
C1V200,梅山,2024-07-30,23.268447,120.823556,0.051067796
C0T9H0,加路蘭山,2024-07-30,23.682947,121.5274,3.8064915e-08
C2O930,玉井,2024-07-30,23.126042,120.46055,3.1323862e-07
C1F911,新伯公,2024-07-30,24.221361,120.841069,0.37550336
C0R490,九如,2024-07-30,22.7405,120.490503,5.841946e-08
C0X200,左鎮,2024-07-30,23.056758,120.408522,1.4862735e-06
C1F891,稍來,2024-07-30,24.265689,121.001142,6.518753e-08
72N240,七股研究中心,2024-07-30,23.081672,120.062894,2.6314392e-08
C0C700,中壢,2024-07-30,24.977661,121.256375,0.43831408
C0M690,水上,2024-07-30,23.419734,120.388909,3.42527e-06
C0V690,鼓山,2024-07-30,22.623325,120.275575,4.1899845e-08
C0O860,大內,2024-07-30,23.11885,120.36083,1.6792623e-07
C0Z200,萬榮,2024-07-30,23.709219,121.420106,0.07137235
C0T9D0,和中,2024-07-30,24.26676,121.74103,0.0010180033
C1O921,楠西,2024-07-30,23.183511,120.484083,1.290402e-06
C0AJ30,淡水觀海,2024-07-30,25.184591,121.408616,0.13041744
C0V810,左營,2024-07-30,22.67491,120.28491,2.7061862e-08
C0UA70,桃源谷,2024-07-30,24.962606,121.888875,0.9925607
C0X130,官田,2024-07-30,23.193217,120.315422,3.204761e-07
C1H000,翠峰,2024-07-30,24.109397,121.205211,5.351003e-08
C0UA90,石城,2024-07-30,24.980444,121.951214,0.99298495
C1E681,南勢山,2024-07-30,24.421669,120.923831,8.3798604e-08
C0A9F0,內湖,2024-07-30,25.079422,121.57545,0.8339231
C0K291,宜梧,2024-07-30,23.536281,120.169329,2.358429e-08
C1K540,口湖,2024-07-30,23.585344,120.180517,3.9073953e-08
C0R780,滿州,2024-07-30,22.024403,120.839892,1.329132e-07
C0V870,文安,2024-07-30,22.8025,120.2164,2.6340656e-08
C0U650,玉蘭,2024-07-30,24.675286,121.587061,0.00656179
C0R640,東港,2024-07-30,22.46247,120.44074,1.1868905e-08
K2E360,苗栗農改,2024-07-30,24.495722,120.829111,0.037954275
C0AJ80,板橋,2024-07-30,25.0107,121.4489,0.9358034
C0S660,下馬,2024-07-30,23.150427,121.070312,2.641804e-08
C1H9B1,阿眉,2024-07-30,24.1263,120.994672,1.4895981e-07
C0UA20,多加屯,2024-07-30,24.368614,121.373189,1.2026112e-07
C0E730,頭份,2024-07-30,24.688247,120.912206,0.10185228
72V140,高改旗南分場,2024-07-30,22.857861,120.516667,1.05243535e-05
C0K480,莿桐,2024-07-30,23.761192,120.502372,3.6295413e-07
C0U980,坪林石牌,2024-07-30,24.86478,121.77396,0.8991826
C0T900,西林,2024-07-30,23.8119,121.441458,0.32840076
C1I150,青雲,2024-07-30,23.793361,120.949378,2.3241076e-07
467350,澎湖,2024-07-30,23.565503,119.563094,0.0015417772
C0G800,埔鹽,2024-07-30,24.000394,120.431683,1.2635998e-08
C0H960,草屯,2024-07-30,23.973672,120.68085,1.0562746e-06
C1V780,多納林道,2024-07-30,22.888028,120.737917,2.8650086e-07
C0E920,通霄漁港,2024-07-30,24.498589,120.673876,0.00141133
C0Z330,安通山,2024-07-30,23.290728,121.348528,6.542569e-07
C0AH10,永和,2024-07-30,25.01125,121.508111,0.9358034
C2G640,鹿港,2024-07-30,24.0753,120.430481,4.2810676e-08
C1E890,國三N149K,2024-07-30,24.463414,120.680019,0.004962372
C1R110,口社,2024-07-30,22.770111,120.645222,1.9178822e-05
C1M870,國三N285K,2024-07-30,23.550319,120.505833,5.2810014e-07
467050,新屋,2024-07-30,25.006744,121.047486,0.6116421
C1E480,鳳美,2024-07-30,24.554803,121.034747,0.016156465
C0M530,奮起湖,2024-07-30,23.493903,120.699253,3.3773182e-07
C0C590,觀音,2024-07-30,25.027072,121.153317,0.77397436
C0T9M0,靜浦,2024-07-30,23.455167,121.495028,0.2722748
C0AI40,石牌,2024-07-30,25.115597,121.513139,0.14279689
C1F871,上谷關,2024-07-30,24.203483,121.018644,6.72733e-05
C0G880,二水,2024-07-30,23.810742,120.6173,5.0314594e-07
C0R940,加祿堂,2024-07-30,22.3363,120.6217,1.8719838e-08
C0W220,北竿,2024-07-30,26.220358,119.974881,0.053824928
C0O960,崎頂,2024-07-30,22.959547,120.369317,1.429886e-07
C0S750,向陽,2024-07-30,23.248397,120.986133,3.435607e-08
C0T9F0,水璉,2024-07-30,23.797131,121.542514,0.41688997
C1M600,頭凍,2024-07-30,23.406364,120.603339,3.806593e-06
467660,臺東,2024-07-30,22.752211,121.154586,0.007853648
C1D380,新埔,2024-07-30,24.84745,121.03834,0.017235855
C0V750,路竹,2024-07-30,22.854997,120.259439,1.1102332e-08
C0N050,蚵寮,2024-07-30,23.301,120.1104,7.3656077e-09
72M700,南改鹿草分場,2024-07-30,23.416869,120.283061,1.6842785e-08
C1SA50,利嘉林道,2024-07-30,22.82325,121.009389,5.790072e-09
467550,玉山,2024-07-30,23.487614,120.959522,9.6545094e-08
C0A940,金山,2024-07-30,25.223628,121.643967,0.34575433
C1V340,大津,2024-07-30,22.888322,120.645986,0.00012968684
C0W180,七美,2024-07-30,23.219333,119.444892,0.004247385
C1F9C1,白冷,2024-07-30,24.182844,120.929889,5.504162e-06
K2E710,苗改生物防治研究中心,2024-07-30,24.422861,120.871833,0.017031677
C0N040,蘆竹溝,2024-07-30,23.2344,120.0961,1.3305759e-08
C2W230,畜試所澎湖,2024-07-30,23.628342,119.513206,0.0013225229
C0R880,後壁湖,2024-07-30,21.9457,120.7457,4.0348063e-08
C1I280,埔中,2024-07-30,23.820778,120.642594,4.295903e-09
467790,墾丁雷達站,2024-07-30,21.948235,120.808028,1.17280706e-07
C0W190,望安,2024-07-30,23.380564,119.494075,0.0011308269
466881,新北,2024-07-30,24.9593,121.52,0.9318619
C0Z170,卓溪,2024-07-30,23.3443,121.3029,0.0054100654
C0F850,東勢,2024-07-30,24.246428,120.833047,1.6741484e-06
466900,淡水,2024-07-30,25.164889,121.448906,0.6891022
C0I370,魚池,2024-07-30,23.895703,120.94135,4.5923894e-08
C0C630,大溪,2024-07-30,24.882853,121.265547,0.07126413
C0A520,山佳,2024-07-30,24.974944,121.402008,0.50621706
C0I110,竹山,2024-07-30,23.761225,120.688156,1.1188389e-07
82H840,茶改南部分場,2024-07-30,23.762528,120.7405,4.64942e-09
C0G660,溪湖,2024-07-30,23.94835,120.479122,2.742968e-08
C1T800,洛韶,2024-07-30,24.204558,121.453956,4.6719837e-08
C1T810,慈恩,2024-07-30,24.192044,121.388386,2.7500821e-08
C1E451,象鼻,2024-07-30,24.368617,120.940228,1.0934277e-07
C0AC60,三峽,2024-07-30,24.939025,121.369728,0.23761955
C0I490,萬大林道,2024-07-30,23.928228,121.091411,9.954083e-08
C1I290,豐丘,2024-07-30,23.668178,120.887417,1.0369741e-06
C1I320,奧萬大,2024-07-30,23.952956,121.178556,2.3081135e-07
C0U770,南澳,2024-07-30,24.44935,121.81022,0.014210672
C0A980,社子,2024-07-30,25.109508,121.469681,0.7209363
C0V800,六龜,2024-07-30,22.997889,120.633583,0.0012460883
C1G9D0,國一S218K,2024-07-30,23.890641,120.493253,1.9868793e-08
C2F9A0,中竹林,2024-07-30,24.103556,120.751061,9.952659e-08
C0FA40,臺中電廠,2024-07-30,24.2146,120.4907,5.6388293e-05
C0H9C0,合歡山,2024-07-30,24.143442,121.272547,7.151424e-08
C0X060,下營,2024-07-30,23.22695,120.256261,3.3659383e-08
G2M350,農試溪口農場,2024-07-30,23.58565,120.408111,5.403955e-09
C0U860,頭城,2024-07-30,24.85323,121.8308,0.77629423
C0R580,南州,2024-07-30,22.48591,120.50274,1.1868905e-08
C0D430,峨眉,2024-07-30,24.6905,121.017189,0.0060851746
C0G780,秀水,2024-07-30,24.03405,120.503869,1.5288538e-08
72N100,臺南農改場,2024-07-30,23.0605,120.342194,1.5885766e-07
C0S900,蘭嶼高中,2024-07-30,22.04909,121.51214,0.20638837
467540,大武,2024-07-30,22.355675,120.903789,2.8839803e-08
C1F9W0,德基,2024-07-30,24.254783,121.190261,9.207971e-08
C1Z120,壽豐,2024-07-30,23.870853,121.508081,0.19331259
C0W160,烏坵,2024-07-30,24.9944,119.44956,0.00016841863
C1I240,外大坪,2024-07-30,23.958697,120.917931,4.394053e-07
C1I550,國六W023K,2024-07-30,23.979067,120.867742,3.8308475e-08
C0R870,興海,2024-07-30,21.9752,120.8439,1.6909584e-07
C0R140,瑪家,2024-07-30,22.682903,120.686639,4.1951457e-06
C0A530,坪林,2024-07-30,24.938183,121.70975,0.99833095
C0X260,後壁,2024-07-30,23.366358,120.362326,1.7013107e-07
C0Z230,和平,2024-07-30,24.30717,121.77007,0.0008472879
C0G770,福興,2024-07-30,24.041289,120.437669,1.2635998e-08
C0H9A0,神木村,2024-07-30,23.532742,120.843667,1.2915815e-06
C0I460,南投,2024-07-30,23.911469,120.687331,4.690269e-08
C0I480,梅峰,2024-07-30,24.085272,121.173572,5.895294e-08
C1V570,吉東,2024-07-30,22.85422,120.5454,8.075048e-06
C2A560,福山,2024-07-30,24.776203,121.502811,0.655699
C0AH30,五分山,2024-07-30,25.07125,121.780794,0.97590953
C0FA10,松柏,2024-07-30,24.429115,120.617482,0.007006061
72S200,東改班鳩分場,2024-07-30,22.829528,121.077694,0.0037799824
72HA00,中改埔里分場,2024-07-30,23.903208,120.963364,2.9202196e-08
C0C650,平鎮,2024-07-30,24.897503,121.214636,0.1435777
C0S930,延平,2024-07-30,22.902581,121.084058,0.00057217374
C0UA60,樟樹山,2024-07-30,24.41393,121.78325,0.021106102
C1S670,摩天,2024-07-30,23.199503,121.027,1.944618e-08
C0V630,茄萣,2024-07-30,22.906642,120.182608,1.1809696e-08
466940,基隆,2024-07-30,25.133314,121.740475,0.89860594
C0X050,東河,2024-07-30,23.296598,120.385608,8.8837595e-08
C0R770,保力,2024-07-30,22.071122,120.764111,4.6399958e-08
G2L020,農試嘉義分所,2024-07-30,23.485028,120.473806,3.3113096e-07
C0X240,關子嶺,2024-07-30,23.331169,120.508025,8.6689397e-07
C0I380,集集,2024-07-30,23.828206,120.801467,8.149098e-09
466990,花蓮,2024-07-30,23.975128,121.613275,0.26479402
C1V220,小關山,2024-07-30,23.154217,120.813603,1.02216326e-07
C1F9G1,慶福山,2024-07-30,24.180853,120.848378,3.0828635e-06
C0Z250,瑞穗林道,2024-07-30,23.49284,121.30688,3.2496914e-08
C0D590,新豐,2024-07-30,24.87068,120.97721,0.021789443
C0A870,五指山,2024-07-30,25.132153,121.608692,0.8708063
C0UA50,西帽山,2024-07-30,24.555361,121.802628,0.05427349
C0X160,仁德,2024-07-30,22.968258,120.257689,3.1452366e-08
C1H971,六分寮,2024-07-30,23.92507,120.6378,2.9119753e-09
C0W120,西嶼,2024-07-30,23.5626,119.468436,0.00087222876
C0G650,員林,2024-07-30,23.946503,120.585597,4.672791e-06
C0AD50,鶯歌,2024-07-30,24.951533,121.346294,0.21828206
C0S990,山豬窟,2024-07-30,22.318619,120.857372,1.0573813e-08
72Q010,高雄農改,2024-07-30,22.709333,120.525889,5.673094e-08
C0X190,安平,2024-07-30,22.993161,120.152181,2.1249e-08
C0K400,斗六,2024-07-30,23.720583,120.541127,2.943707e-08
12J990,口湖工作站,2024-07-30,23.589978,120.180394,3.9073953e-08
C0O830,北寮,2024-07-30,23.079561,120.495008,1.2180671e-05
C1D410,白蘭,2024-07-30,24.579364,121.079947,7.226882e-08
C0S970,加津林,2024-07-30,22.416211,120.926942,2.560959e-08
C0D700,關西,2024-07-30,24.7977,121.1732,0.0038403668
C0M810,里佳,2024-07-30,23.389125,120.716647,1.9568446e-07
C0U750,龜山島,2024-07-30,24.841667,121.953133,0.9984683
C0R810,內獅,2024-07-30,22.305064,120.642986,1.8934216e-08
C1M390,龍美,2024-07-30,23.406728,120.654417,7.134387e-07
C1H840,國三N238K,2024-07-30,23.841008,120.707711,1.0791498e-08
CAQ030,崎峰國小,2024-07-30,22.42565,120.49521,1.1868905e-08
C2E520,大湖,2024-07-30,24.414939,120.870872,0.0014869899
467530,阿里山,2024-07-30,23.508208,120.813242,1.261207e-07
C1E691,南湖,2024-07-30,24.40135,120.837533,7.798985e-07
C0FA30,梧棲,2024-07-30,24.256003,120.523381,0.0037213129
C1V231,高中,2024-07-30,23.134911,120.716711,5.6528647e-06
C0F9V0,新社,2024-07-30,24.200172,120.815806,0.0006295753
C0H890,埔里,2024-07-30,23.972169,120.952425,2.187494e-08
C0R690,墾丁,2024-07-30,21.966756,120.810269,3.0789828e-08
C0F0D0,審馬陣,2024-07-30,24.381675,121.4203,8.392945e-08
C0R820,白鷺,2024-07-30,22.454275,120.666219,5.3955024e-08
U2H480,臺大溪頭,2024-07-30,23.670306,120.798194,1.4015224e-06
C1V190,南天池,2024-07-30,23.27403,120.91176,3.8819675e-08
K2E360,苗栗農改場,2024-07-30,24.495722,120.829111,0.037954275
CAJ050,海口故事園區,2024-07-30,23.57543,120.14121,3.9073953e-08
C0O990,媽廟,2024-07-30,22.99175,120.293525,9.472832e-08
C0D480,打鐵坑,2024-07-30,24.849664,121.150789,0.06546211
C0Z220,和平林道,2024-07-30,24.343922,121.656317,1.0014448e-05
72C440,桃園農改場,2024-07-30,24.950944,121.030583,0.23395057
C1E711,馬拉邦山,2024-07-30,24.367306,120.901656,8.9973454e-08
C0D560,竹東,2024-07-30,24.767147,121.057881,0.003930427
C0F9U0,南屯,2024-07-30,24.137006,120.637969,4.1272037e-06
C0M720,番路,2024-07-30,23.464657,120.554156,2.5406355e-06
C0F0A0,雪山圈谷,2024-07-30,24.388594,121.236339,7.722113e-08
C1A9N0,四十份,2024-07-30,24.934158,121.593283,0.9688985
C0U760,東澳,2024-07-30,24.52196,121.83318,0.37760583
C0X230,鹽水,2024-07-30,23.272621,120.247641,7.284421e-09
C0V370,古亭坑,2024-07-30,22.893178,120.401947,1.7997898e-05
C1I340,新興橋,2024-07-30,23.563333,120.868728,7.089558e-05
C0SA80,土坂,2024-07-30,22.453108,120.887572,5.854277e-07
C0R160,鹽埔,2024-07-30,22.739558,120.530778,5.673094e-08
C0AC40,大屯山,2024-07-30,25.175675,121.522408,0.6061888
466850,五分山雷達站,2024-07-30,25.071182,121.781205,0.9754775
C1AI50,國三N016K,2024-07-30,25.034164,121.619664,0.8223675
C1V600,藤枝,2024-07-30,23.071961,120.757042,1.5246248e-07
C1E601,南勢,2024-07-30,24.572486,120.734842,0.00910761
C0Z180,新城,2024-07-30,24.03946,121.60454,0.2724522
C0O980,新市,2024-07-30,23.061614,120.298197,1.8453062e-07
C0K420,西螺,2024-07-30,23.800407,120.467394,1.1098056e-08
C0Z050,佳心,2024-07-30,23.34567,121.21316,1.3891707e-07
C0AD30,蘆洲,2024-07-30,25.086594,121.472331,0.83726394
C0V610,梓官,2024-07-30,22.760558,120.267211,5.568813e-08
K2F750,種苗改良場,2024-07-30,24.225972,120.800917,0.04092919
C0UA80,大溪漁港,2024-07-30,24.941801,121.902955,0.99548686
C1AI60,國一39K邊坡,2024-07-30,25.064361,121.383836,0.38855237
C0W150,金寧,2024-07-30,24.457703,118.328989,0.9594557
V2C250,八德合作社,2024-07-30,24.93775,121.266389,0.16155067
C0AH40,平等,2024-07-30,25.129142,121.577086,0.95902526
C0R540,佳冬,2024-07-30,22.419456,120.552375,1.5637132e-08
466950,彭佳嶼,2024-07-30,25.627975,122.079744,0.9783481
C0A890,雙溪,2024-07-30,25.036003,121.864242,0.9873477
C0C480,桃園,2024-07-30,24.992425,121.323172,0.4236704
C0AH50,林口,2024-07-30,25.072181,121.38084,0.5332965
A2K360,水試臺西試驗場,2024-07-30,23.717231,120.190522,1.2866163e-08
B2N890,畜試所,2024-07-30,23.058972,120.336406,1.5898573e-07
C0F9S0,烏日,2024-07-30,24.107058,120.624103,0.006856605
C0C490,八德,2024-07-30,24.928708,121.283289,0.1581556
C0R190,赤山,2024-07-30,22.592333,120.614306,4.494923e-08
C0T820,天祥,2024-07-30,24.179597,121.495639,0.0028114042
C1F9E1,龍安,2024-07-30,24.1605,120.831961,3.161841e-07
C0V820,小林,2024-07-30,23.148408,120.63325,1.4239612e-06
C2G870,芳苑,2024-07-30,23.922303,120.320025,0.00011893146
C0E850,大河,2024-07-30,24.618069,120.948578,0.0105870385
C1U670,寒溪,2024-07-30,24.634,121.71691,0.93739116
C0N020,城西,2024-07-30,23.0568,120.0956,2.1249e-08
C1Z110,三棧,2024-07-30,24.11557,121.60501,4.906804e-05
C0R280,檳榔,2024-07-30,22.076078,120.836777,5.1059235e-08
C0F9L0,后里,2024-07-30,24.310436,120.729725,0.101801634
C0D540,橫山,2024-07-30,24.71116,121.11693,0.0027876082
C1D420,太閣南,2024-07-30,24.632808,121.160575,4.521937e-07
C1E770,公館,2024-07-30,24.526914,120.830806,0.027399449
CAN130,水試所海水繁養殖中心,2024-07-30,23.120802,120.07968,2.6314392e-08
C1I430,翠華,2024-07-30,24.191961,121.224339,7.954682e-08
C1M400,菜瓜坪,2024-07-30,23.251928,120.576103,1.5704503e-05
C0G730,二林,2024-07-30,23.903325,120.376081,9.104998e-09
72M360,南改義竹分場,2024-07-30,23.360694,120.279361,1.6779842e-08
V2K620,麥寮合作社,2024-07-30,23.753836,120.294783,1.7239998e-08
C0Z070,舞鶴,2024-07-30,23.46811,121.37407,0.09011339
C0B040,大武崙,2024-07-30,25.166676,121.706993,0.89560866
C1Z030,紅葉,2024-07-30,23.493119,121.338806,0.020618515
C1I050,丹大,2024-07-30,23.753747,121.141147,3.4092544e-08
C0I080,信義,2024-07-30,23.689694,120.851036,0.003158348
C2A880,福隆,2024-07-30,25.017842,121.942083,0.9926406
C0Z160,鳳林,2024-07-30,23.746114,121.453411,0.080500305
C0V210,復興,2024-07-30,23.222403,120.806089,0.7095666
C0H990,昆陽,2024-07-30,24.121322,121.273642,5.4934464e-08
C0S710,鹿野,2024-07-30,22.917711,121.122994,4.6383545e-07
C0I530,小奇萊,2024-07-30,24.131764,121.295717,5.618627e-08
C0Z080,富源,2024-07-30,23.587642,121.378225,0.0004885261
467441,高雄,2024-07-30,22.7304,120.3125,5.373022e-08
C1I140,卡奈托灣,2024-07-30,23.754364,121.087872,8.18874e-08
C0I520,玉山風口,2024-07-30,23.470489,120.955994,9.468064e-08
C1G691,下水埔,2024-07-30,23.816114,120.5676,2.708901e-07
C0X110,臺南市南區,2024-07-30,22.961189,120.188378,3.1464005e-08
C0V680,仁武,2024-07-30,22.701083,120.347722,2.701988e-08
C2G840,北斗,2024-07-30,23.877586,120.514222,1.7420973e-08
C0R900,竹坑,2024-07-30,22.1385,120.7022,5.6180802e-08
C0K250,崙背,2024-07-30,23.75555,120.318925,1.7239998e-08
C0G860,社頭,2024-07-30,23.897647,120.5862,3.5617272e-06
C0X150,安定,2024-07-30,23.102614,120.227839,3.099653e-08
C0R590,里港,2024-07-30,22.77919,120.49459,1.8978729e-07
C0E610,馬都安,2024-07-30,24.451272,120.930192,3.3472955e-07
C0E550,明德,2024-07-30,24.583486,120.885411,0.007478602
C0R150,三地門,2024-07-30,22.709889,120.639944,2.4267056e-05
C0G910,花壇,2024-07-30,24.032076,120.549461,1.3140938e-08
C1D400,鳥嘴山,2024-07-30,24.71909,121.28387,0.00018350808
C0K500,元長,2024-07-30,23.64981,120.315024,6.389911e-09
C0F0B0,石岡,2024-07-30,24.276061,120.777644,0.0013595102
C2V250,甲仙,2024-07-30,23.080106,120.591758,1.2655688e-06
C0SA20,金崙山,2024-07-30,22.567419,120.959667,7.1249397e-09
C0V350,溪埔,2024-07-30,22.738578,120.446797,4.8946657e-08
C0M660,溪口,2024-07-30,23.604131,120.403569,5.403955e-09
C1S880,壽卡,2024-07-30,22.238911,120.858903,1.1542728e-08
72D680,桃改新埔分場,2024-07-30,24.834444,121.066111,0.018555745
