站號,站名,日期,lat,lon,BlastGRU-TW
12J990,口湖工作站,2024-11-23,23.589978,120.180394,0.8512459
12Q970,東港工作站,2024-11-23,22.479997,120.466058,0.98015904
12Q980,恆春工作站,2024-11-23,22.079678,120.714425,0.4796238
466881,新北,2024-11-23,24.9593,121.52,0.12230281
466900,淡水,2024-11-23,25.164889,121.448906,0.60067165
466920,臺北,2024-11-23,25.037658,121.514853,0.21640135
466940,基隆,2024-11-23,25.133314,121.740475,0.95027024
466990,花蓮,2024-11-23,23.975128,121.613275,0.920982
467050,新屋,2024-11-23,25.006744,121.047486,0.7636823
467080,宜蘭,2024-11-23,24.763975,121.756528,0.9408537
467270,田中,2024-11-23,23.873803,120.581286,0.96799815
467280,後龍,2024-11-23,24.648563,120.831834,0.91253304
467290,古坑,2024-11-23,23.633639,120.551889,0.9642213
467300,東吉島,2024-11-23,23.25695,119.667467,0.01417841
467350,澎湖,2024-11-23,23.565503,119.563094,0.0019178084
467410,臺南,2024-11-23,22.993239,120.204772,0.7953603
467420,永康,2024-11-23,23.038386,120.2367,0.83619475
467441,高雄,2024-11-23,22.7304,120.3125,0.9584272
467480,嘉義,2024-11-23,23.495925,120.432906,0.9453326
467490,臺中,2024-11-23,24.145736,120.684075,0.9793085
467540,大武,2024-11-23,22.355675,120.903789,0.9779589
467571,新竹,2024-11-23,24.827853,121.014219,0.8254977
467590,恆春,2024-11-23,22.003897,120.746339,0.7226825
467610,成功,2024-11-23,23.097486,121.373428,0.89816445
467620,蘭嶼,2024-11-23,22.036969,121.558339,0.9017582
467660,臺東,2024-11-23,22.752211,121.154586,0.9858145
467790,墾丁雷達站,2024-11-23,21.948235,120.808028,0.75132644
72AI40,桃改樹林分場,2024-11-23,24.944503,121.386972,0.43831763
72C440,桃園農改,2024-11-23,24.950944,121.030583,0.82002264
72C440,桃園農改場,2024-11-23,24.950944,121.030583,0.82002264
72D680,桃改新埔分場,2024-11-23,24.834444,121.066111,0.6655944
72G600,臺中農改,2024-11-23,24.003028,120.534389,0.9445129
72G600,臺中農改場,2024-11-23,24.003028,120.534389,0.9445129
72K220,南改斗南分場,2024-11-23,23.634556,120.477333,0.9528325
72M360,南改義竹分場,2024-11-23,23.360694,120.279361,0.80026156
72M700,南改鹿草分場,2024-11-23,23.416869,120.283061,0.8238624
72N100,臺南農改,2024-11-23,23.0605,120.342194,0.9072025
72N100,臺南農改場,2024-11-23,23.0605,120.342194,0.9072025
72N240,七股研究中心,2024-11-23,23.081672,120.062894,0.7680167
72Q010,高雄農改,2024-11-23,22.709333,120.525889,0.92458296
72Q010,高雄農改場,2024-11-23,22.709333,120.525889,0.92458296
72S200,東改班鳩分場,2024-11-23,22.829528,121.077694,0.8129783
72S590,東改賓朗果園,2024-11-23,22.813889,121.071278,0.7857565
72T250,花蓮農改,2024-11-23,23.975222,121.563889,0.92091113
72T250,花蓮農改場,2024-11-23,23.975222,121.563889,0.92091113
72U480,花改蘭陽分場,2024-11-23,24.686306,121.716583,0.8881609
72V140,高改旗南分場,2024-11-23,22.857861,120.516667,0.85067767
82A750,茶改北部分場,2024-11-23,24.955778,121.631222,0.8478685
82C160,茶改場,2024-11-23,24.908472,121.185333,0.6218948
82H840,茶改南部分場,2024-11-23,23.762528,120.7405,0.82912683
82S580,茶改東部分場,2024-11-23,22.907694,121.130139,0.8569587
A2C560,農工中心,2024-11-23,24.985917,121.239833,0.6545417
A2K360,水試臺西試驗場,2024-11-23,23.717231,120.190522,0.8694806
A2K570,古坑花卉中心,2024-11-23,23.63353,120.55239,0.9642213
A2K630,臺大雲林校區,2024-11-23,23.730628,120.423903,0.8861638
A2N290,臺南蘭花園區,2024-11-23,23.340258,120.379661,0.926851
B2E890,畜試北區分所,2024-11-23,24.527806,120.770972,0.98391104
B2N890,畜產試驗所,2024-11-23,23.058972,120.336406,0.9096424
B2N890,畜試所,2024-11-23,23.058972,120.336406,0.9096424
B2Q810,畜試南區分所,2024-11-23,21.945583,120.802167,0.52949893
B2U990,畜試東區分所,2024-11-23,24.669039,121.832561,0.47149697
C0A520,山佳,2024-11-23,24.974944,121.402008,0.1270409
C0A530,坪林,2024-11-23,24.938183,121.70975,0.9474137
C0A550,泰平,2024-11-23,24.971197,121.823711,0.9099029
C0A570,桶後,2024-11-23,24.848222,121.597992,0.9311537
C0A640,石碇,2024-11-23,24.993969,121.662917,0.7246693
C0A770,科教館,2024-11-23,25.096356,121.516507,0.25479144
C0A860,大坪,2024-11-23,25.165914,121.632969,0.66399395
C0A890,雙溪,2024-11-23,25.036003,121.864242,0.97468364
C0A931,三和,2024-11-23,25.233153,121.595236,0.8983959
C0A940,金山,2024-11-23,25.223628,121.643967,0.9728294
C0A950,鼻頭角,2024-11-23,25.129036,121.923372,0.9652554
C0A970,三貂角,2024-11-23,25.007606,122.002058,0.9756429
C0A980,社子,2024-11-23,25.109508,121.469681,0.5873574
C0A9C0,天母,2024-11-23,25.117494,121.537169,0.5449231
C0A9F0,內湖,2024-11-23,25.079422,121.57545,0.21640135
C0AC60,三峽,2024-11-23,24.939025,121.369728,0.4545407
C0AC70,信義,2024-11-23,25.037822,121.564597,0.21640135
C0AC80,文山,2024-11-23,25.00235,121.575728,0.11710507
C0ACA0,新莊,2024-11-23,25.051478,121.446756,0.20520823
C0AD10,八里,2024-11-23,25.150211,121.403947,0.556625
C0AD30,蘆洲,2024-11-23,25.086594,121.472331,0.24747674
C0AD40,土城,2024-11-23,24.973208,121.445169,0.1283294
C0AD50,鶯歌,2024-11-23,24.951533,121.346294,0.47469708
C0AG80,中和,2024-11-23,24.991622,121.491792,0.1283294
C0AH00,汐止,2024-11-23,25.066881,121.658778,0.21640135
C0AH10,永和,2024-11-23,25.01125,121.508111,0.12964259
C0AH40,平等,2024-11-23,25.129142,121.577086,0.48651108
C0AH50,林口,2024-11-23,25.072181,121.38084,0.59301084
C0AH70,松山,2024-11-23,25.04871,121.55042,0.21640135
C0AH80,深坑,2024-11-23,25.002703,121.628328,0.12180992
C0AI00,五股,2024-11-23,25.07445,121.42728,0.47522303
C0AI10,屈尺,2024-11-23,24.92184,121.54475,0.10908397
C0AI20,白沙灣,2024-11-23,25.283128,121.519058,0.9654254
C0AI30,三重,2024-11-23,25.057328,121.500629,0.2182499
C0AI40,石牌,2024-11-23,25.115597,121.513139,0.5422552
C0AJ20,野柳,2024-11-23,25.20703,121.690021,0.9736956
C0AJ30,淡水觀海,2024-11-23,25.184591,121.408616,0.7881199
C0AJ40,石門,2024-11-23,25.273672,121.601198,0.96244454
C0AJ50,水湳洞,2024-11-23,25.123695,121.862238,0.8893382
C0AJ60,六塊厝,2024-11-23,25.24,121.4481,0.956123
C0AJ70,田寮,2024-11-23,25.2698,121.4886,0.96157324
C0AJ80,板橋,2024-11-23,25.0107,121.4489,0.12964259
C0AJ90,澳底,2024-11-23,25.0552,121.9253,0.9540009
C0B010,七堵,2024-11-23,25.094819,121.71713,0.51130575
C0B020,基隆嶼,2024-11-23,25.19141,121.78391,0.9802947
C0B040,大武崙,2024-11-23,25.166676,121.706993,0.9635786
C0B050,八斗子,2024-11-23,25.144754,121.79167,0.94598025
C0B060,暖暖,2024-11-23,25.0957,121.7403,0.5406625
C0C460,復興,2024-11-23,24.820208,121.352281,0.30131078
C0C480,桃園,2024-11-23,24.992425,121.323172,0.54070675
C0C490,八德,2024-11-23,24.928708,121.283289,0.4266004
C0C590,觀音,2024-11-23,25.027072,121.153317,0.61222374
C0C620,蘆竹,2024-11-23,25.084275,121.265767,0.8601799
C0C630,大溪,2024-11-23,24.882853,121.265547,0.5082376
C0C650,平鎮,2024-11-23,24.897503,121.214636,0.3914772
C0C660,楊梅,2024-11-23,24.912375,121.143047,0.66084504
C0C670,龍潭,2024-11-23,24.870056,121.221389,0.502286
C0C680,龜山,2024-11-23,25.02846,121.38656,0.36907727
C0C700,中壢,2024-11-23,24.977661,121.256375,0.4839092
C0C710,大溪永福,2024-11-23,24.892936,121.324975,0.23728298
C0C720,竹圍,2024-11-23,25.112692,121.239824,0.8115128
C0C730,中大臨海站,2024-11-23,24.966126,121.008581,0.7715485
C0C740,觀音工業區,2024-11-23,25.064764,121.114856,0.7206857
C0C750,新興坑尾,2024-11-23,25.0061,121.0971,0.72705716
C0D430,峨眉,2024-11-23,24.6905,121.017189,0.86806667
C0D480,打鐵坑,2024-11-23,24.849664,121.150789,0.5051338
C0D540,橫山,2024-11-23,24.71116,121.11693,0.8722844
C0D560,竹東,2024-11-23,24.767147,121.057881,0.8550755
C0D580,寶山,2024-11-23,24.735006,121.025192,0.9066742
C0D590,新豐,2024-11-23,24.87068,120.97721,0.8554465
C0D650,湖口,2024-11-23,24.904794,121.043628,0.7281112
C0D660,新竹市東區,2024-11-23,24.798681,120.986942,0.8698282
C0D670,海天一線,2024-11-23,24.831986,120.914438,0.9352405
C0D680,香山濕地,2024-11-23,24.783581,120.914988,0.88649076
C0D690,外湖,2024-11-23,24.917735,120.968711,0.7323983
C0D700,關西,2024-11-23,24.7977,121.1732,0.75603104
C0E420,竹南,2024-11-23,24.708978,120.888897,0.9151219
C0E430,南庄,2024-11-23,24.601775,121.000214,0.9656693
C0E550,明德,2024-11-23,24.583486,120.885411,0.9749554
C0E590,通霄,2024-11-23,24.471892,120.704622,0.9800719
C0E730,頭份,2024-11-23,24.688247,120.912206,0.9136958
C0E740,造橋,2024-11-23,24.637056,120.864778,0.91224176
C0E750,苗栗,2024-11-23,24.564569,120.824575,0.9740022
C0E780,銅鑼,2024-11-23,24.489681,120.790853,0.9838139
C0E791,卓蘭,2024-11-23,24.3126,120.8244,0.9951192
C0E810,西湖,2024-11-23,24.562947,120.7485,0.9808363
C0E820,獅潭,2024-11-23,24.539133,120.920042,0.9710223
C0E830,苑裡,2024-11-23,24.439714,120.653053,0.9869983
C0E850,大河,2024-11-23,24.618069,120.948578,0.91332287
C0E870,高鐵苗栗,2024-11-23,24.60725,120.826094,0.90973026
C0E910,海埔,2024-11-23,24.648767,120.772435,0.9185689
C0E920,通霄漁港,2024-11-23,24.498589,120.673876,0.9825924
C0E930,龍鳳,2024-11-23,24.700034,120.859125,0.9079033
C0F0B0,石岡,2024-11-23,24.276061,120.777644,0.99543905
C0F850,東勢,2024-11-23,24.246428,120.833047,0.9940596
C0F970,大坑,2024-11-23,24.173142,120.722289,0.9841703
C0F9I0,神岡,2024-11-23,24.272481,120.658314,0.99230415
C0F9K0,大安,2024-11-23,24.345061,120.588025,0.9805242
C0F9L0,后里,2024-11-23,24.310436,120.729725,0.9948651
C0F9M0,豐原,2024-11-23,24.254322,120.720692,0.9946875
C0F9N0,大里,2024-11-23,24.092464,120.701378,0.9621307
C0F9O0,潭子,2024-11-23,24.213106,120.703933,0.9932258
C0F9P0,清水,2024-11-23,24.312297,120.562242,0.9774071
C0F9Q0,外埔,2024-11-23,24.347817,120.705686,0.9926234
C0F9R0,龍井,2024-11-23,24.184536,120.528972,0.9784498
C0F9S0,烏日,2024-11-23,24.107058,120.624103,0.960909
C0F9T0,西屯,2024-11-23,24.179494,120.641275,0.97994035
C0F9U0,南屯,2024-11-23,24.137006,120.637969,0.9796378
C0F9X0,大雅(中科園區),2024-11-23,24.21528,120.62445,0.9897092
C0FA10,松柏,2024-11-23,24.429115,120.617482,0.9845191
C0FA20,溫寮,2024-11-23,24.372177,120.583125,0.97963333
C0FA30,梧棲,2024-11-23,24.256003,120.523381,0.9774071
C0FA40,臺中電廠,2024-11-23,24.2146,120.4907,0.9732323
C0FA50,霧峰,2024-11-23,24.0419,120.6995,0.9684188
C0G620,芬園,2024-11-23,24.015678,120.6213,0.97371584
C0G650,員林,2024-11-23,23.946503,120.585597,0.9803469
C0G660,溪湖,2024-11-23,23.94835,120.479122,0.9377548
C0G720,溪州,2024-11-23,23.851589,120.499093,0.9567842
C0G730,二林,2024-11-23,23.903325,120.376081,0.90582424
C0G740,大城,2024-11-23,23.852487,120.320935,0.94446784
C0G770,福興,2024-11-23,24.041289,120.437669,0.91944736
C0G780,秀水,2024-11-23,24.03405,120.503869,0.94490546
C0G800,埔鹽,2024-11-23,24.000394,120.431683,0.9192233
C0G810,埔心,2024-11-23,23.947633,120.525456,0.9385961
C0G820,田尾,2024-11-23,23.901669,120.509389,0.9659947
C0G830,埤頭,2024-11-23,23.866003,120.452806,0.9574717
C0G860,社頭,2024-11-23,23.897647,120.5862,0.9682223
C0G880,二水,2024-11-23,23.810742,120.6173,0.94180286
C0G890,伸港,2024-11-23,24.148933,120.484403,0.96903825
C0G900,線西,2024-11-23,24.143358,120.443536,0.9695752
C0G910,花壇,2024-11-23,24.032076,120.549461,0.9458817
C0G920,永靖,2024-11-23,23.924703,120.547533,0.9659947
C0G940,竹塘,2024-11-23,23.848253,120.386764,0.87828094
C0G950,防潮門,2024-11-23,24.1835,120.4871,0.9784498
C0G960,福寶,2024-11-23,24.0443,120.3814,0.95521474
C0G970,三豐,2024-11-23,23.882,120.2895,0.9054671
C0H890,埔里,2024-11-23,23.972169,120.952425,0.93255603
C0H960,草屯,2024-11-23,23.973672,120.68085,0.9741983
C0I110,竹山,2024-11-23,23.761225,120.688156,0.9185611
C0I360,水里,2024-11-23,23.812553,120.849792,0.8197116
C0I380,集集,2024-11-23,23.828206,120.801467,0.82338303
C0I410,名間,2024-11-23,23.837053,120.701447,0.93755776
C0I420,國姓,2024-11-23,24.037803,120.855072,0.9645576
C0I460,南投,2024-11-23,23.911469,120.687331,0.94114673
C0K250,崙背,2024-11-23,23.75555,120.318925,0.8677161
C0K280,四湖,2024-11-23,23.630414,120.227125,0.90746516
C0K291,宜梧,2024-11-23,23.536281,120.169329,0.81769764
C0K330,虎尾,2024-11-23,23.719183,120.442036,0.9156511
C0K390,土庫,2024-11-23,23.679029,120.395574,0.86210805
C0K400,斗六,2024-11-23,23.720583,120.541127,0.9491628
C0K410,北港,2024-11-23,23.573957,120.292802,0.8180299
C0K420,西螺,2024-11-23,23.800407,120.467394,0.93312204
C0K430,褒忠,2024-11-23,23.690938,120.303634,0.7422085
C0K440,二崙,2024-11-23,23.772797,120.408944,0.90857905
C0K450,大埤,2024-11-23,23.646074,120.431537,0.91769445
C0K460,斗南,2024-11-23,23.678734,120.478359,0.9528325
C0K470,林內,2024-11-23,23.748675,120.609642,0.9534953
C0K480,莿桐,2024-11-23,23.761192,120.502372,0.966001
C0K500,元長,2024-11-23,23.64981,120.315024,0.85319203
C0K510,水林,2024-11-23,23.572924,120.24597,0.8156808
C0K530,臺西,2024-11-23,23.701547,120.197559,0.867402
C0K550,蔦松,2024-11-23,23.514319,120.229736,0.8176977
C0K560,棋山,2024-11-23,23.68645,120.603417,0.96236223
C0K580,高鐵雲林,2024-11-23,23.737456,120.417944,0.88616365
C0K590,雲林東勢,2024-11-23,23.674192,120.255721,0.8323421
C0K600,箔子寮,2024-11-23,23.6197,120.14,0.8512459
C0M520,東後寮,2024-11-23,23.369908,120.248065,0.8024811
C0M640,中埔,2024-11-23,23.42538,120.5229,0.9675003
C0M650,朴子,2024-11-23,23.43463,120.23902,0.8258444
C0M660,溪口,2024-11-23,23.604131,120.403569,0.921349
C0M670,大林,2024-11-23,23.600616,120.45841,0.95561403
C0M680,太保,2024-11-23,23.455062,120.331455,0.9434324
C0M690,水上,2024-11-23,23.419734,120.388909,0.93581885
C0M700,竹崎,2024-11-23,23.526178,120.555508,0.96580595
C0M710,東石,2024-11-23,23.458927,120.15385,0.81012493
C0M720,番路,2024-11-23,23.464657,120.554156,0.9806779
C0M730,嘉義市東區,2024-11-23,23.457673,120.460531,0.97740084
C0M740,六腳,2024-11-23,23.492871,120.290625,0.7907838
C0M750,布袋,2024-11-23,23.380878,120.167789,0.7653456
C0M760,民雄,2024-11-23,23.551754,120.428457,0.9406232
C0M770,嘉義梅山,2024-11-23,23.585398,120.555587,0.96247464
C0M780,鹿草,2024-11-23,23.41134,120.30835,0.8229906
C0M790,新港,2024-11-23,23.553269,120.345728,0.89984214
C0M800,茶山,2024-11-23,23.299075,120.664767,0.97656804
C0M880,好美里,2024-11-23,23.3364,120.138,0.78144497
C0N010,鯤鯓國小,2024-11-23,23.1879,120.0889,0.7782502
C0N020,城西,2024-11-23,23.0568,120.0956,0.8059681
C0N030,四草,2024-11-23,23.0235,120.1116,0.8039202
C0N040,蘆竹溝,2024-11-23,23.2344,120.0961,0.7987586
C0N050,蚵寮,2024-11-23,23.301,120.1104,0.7795063
C0O830,北寮,2024-11-23,23.079561,120.495008,0.91774833
C0O840,王爺宮,2024-11-23,23.222064,120.40085,0.9317547
C0O860,大內,2024-11-23,23.11885,120.36083,0.9528757
C0O900,善化,2024-11-23,23.112883,120.297219,0.89106214
C0O960,崎頂,2024-11-23,22.959547,120.369317,0.89327055
C0O970,虎頭埤,2024-11-23,23.021375,120.347878,0.92801964
C0O980,新市,2024-11-23,23.061614,120.298197,0.87844974
C0O990,媽廟,2024-11-23,22.99175,120.293525,0.83165807
C0R150,三地門,2024-11-23,22.709889,120.639944,0.98266155
C0R160,鹽埔,2024-11-23,22.739558,120.530778,0.92458296
C0R170,屏東,2024-11-23,22.660269,120.494072,0.9676538
C0R190,赤山,2024-11-23,22.592333,120.614306,0.9380393
C0R220,潮州,2024-11-23,22.534361,120.54,0.9761259
C0R240,來義,2024-11-23,22.527306,120.625111,0.9699517
C0R260,春日,2024-11-23,22.370361,120.628306,0.9743818
C0R270,琉球嶼,2024-11-23,22.332244,120.362236,0.9839151
C0R280,檳榔,2024-11-23,22.076078,120.836777,0.9108398
C0R320,車城,2024-11-23,22.0744,120.716247,0.4796238
C0R341,牡丹,2024-11-23,22.130036,120.792639,0.9092026
C0R350,貓鼻頭,2024-11-23,21.921774,120.7358,0.2536093
C0R470,高樹,2024-11-23,22.826389,120.600806,0.89624256
C0R480,長治,2024-11-23,22.693128,120.542622,0.88558084
C0R490,九如,2024-11-23,22.7405,120.490503,0.92441994
C0R520,崁頂,2024-11-23,22.514781,120.506914,0.9753564
C0R540,佳冬,2024-11-23,22.419456,120.552375,0.96541584
C0R550,新埤,2024-11-23,22.467947,120.582894,0.9781221
C0R560,新園,2024-11-23,22.5434,120.461558,0.96122366
C0R570,麟洛,2024-11-23,22.65078,120.52719,0.9676538
C0R580,南州,2024-11-23,22.48591,120.50274,0.98015904
C0R590,里港,2024-11-23,22.77919,120.49459,0.9288973
C0R620,墾雷,2024-11-23,21.900836,120.855269,0.26978117
C0R640,東港,2024-11-23,22.46247,120.44074,0.98015904
C0R650,竹田,2024-11-23,22.58486,120.54344,0.97586346
C0R660,枋寮,2024-11-23,22.367722,120.590647,0.9637311
C0R670,楓港,2024-11-23,22.190131,120.692156,0.8492712
C0R680,佳樂水,2024-11-23,21.993578,120.861633,0.5479148
C0R690,墾丁,2024-11-23,21.966756,120.810269,0.91741586
C0R700,枋山,2024-11-23,22.246844,120.661086,0.7249173
C0R710,龍磐,2024-11-23,21.931672,120.838942,0.79203516
C0R720,旭海,2024-11-23,22.205403,120.887614,0.8434975
C0R730,大坪頂,2024-11-23,22.024633,120.69355,0.92477137
C0R740,獅子,2024-11-23,22.201569,120.70525,0.9651841
C0R760,南仁湖,2024-11-23,22.084681,120.863353,0.7755843
C0R770,保力,2024-11-23,22.071122,120.764111,0.8556561
C0R780,滿州,2024-11-23,22.024403,120.839892,0.800392
C0R790,九棚,2024-11-23,22.14195,120.889281,0.8968522
C0R800,丹路,2024-11-23,22.204481,120.750989,0.87782556
C0R810,內獅,2024-11-23,22.305064,120.642986,0.74306357
C0R830,高士,2024-11-23,22.121825,120.836781,0.71152127
C0R850,林邊,2024-11-23,22.4634,120.5339,0.98083633
C0R860,鼻頭,2024-11-23,22.1043,120.8979,0.5655962
C0R870,興海,2024-11-23,21.9752,120.8439,0.52949864
C0R880,後壁湖,2024-11-23,21.9457,120.7457,0.33207732
C0R890,山海,2024-11-23,21.9878,120.7091,0.34586826
C0R900,竹坑,2024-11-23,22.1385,120.7022,0.49178255
C0R910,下寮,2024-11-23,22.3929,120.5548,0.9637311
C0R920,塭仔,2024-11-23,22.4169,120.5197,0.962659
C0R930,萬丹,2024-11-23,22.5885,120.4851,0.9664528
C0R940,加祿堂,2024-11-23,22.3363,120.6217,0.82579595
C0S710,鹿野,2024-11-23,22.917711,121.122994,0.85349536
C0S730,綠島,2024-11-23,22.6672,121.47533,0.84992945
C0S740,池上,2024-11-23,23.119628,121.209469,0.8762203
C0S770,大溪山,2024-11-23,22.478475,120.943325,0.94443893
C0S790,金崙,2024-11-23,22.538122,120.966875,0.95706975
C0S810,東河,2024-11-23,22.972672,121.303986,0.90149695
C0S830,長濱,2024-11-23,23.286817,121.411975,0.9196882
C0S840,南田,2024-11-23,22.279725,120.889208,0.9695614
C0S890,關山,2024-11-23,23.0395,121.175017,0.8228748
C0S900,蘭嶼高中,2024-11-23,22.04909,121.51214,0.12408144
C0S910,蘭嶼燈塔,2024-11-23,22.081197,121.503117,0.94164616
C0S920,金峰嘉蘭,2024-11-23,22.594789,120.960825,0.9829784
C0S930,延平,2024-11-23,22.902581,121.084058,0.7952347
C0S940,石寧山,2024-11-23,23.223772,121.406639,0.9399262
C0S950,七塊厝,2024-11-23,22.954453,121.229922,0.8027405
C0S960,香蘭,2024-11-23,22.587569,120.993375,0.99048483
C0S970,加津林,2024-11-23,22.416211,120.926942,0.98543507
C0S990,山豬窟,2024-11-23,22.318619,120.857372,0.8916157
C0SA00,歷坵,2024-11-23,22.520969,120.89185,0.8970799
C0SA10,檳榔四格山,2024-11-23,22.810031,121.109308,0.7977963
C0SA30,都歷,2024-11-23,23.020333,121.323642,0.8723402
C0SA40,瑞和,2024-11-23,22.974361,121.156697,0.8078649
C0SA60,知本（水試所）,2024-11-23,22.702394,121.082761,0.99222904
C0SA80,土坂,2024-11-23,22.453108,120.887572,0.9843197
C0SA90,達仁林場,2024-11-23,22.264347,120.823972,0.7535958
C0T870,鯉魚潭,2024-11-23,23.935639,121.508944,0.9437306
C0T900,西林,2024-11-23,23.8119,121.441458,0.73455447
C0T960,光復,2024-11-23,23.660694,121.424964,0.7783152
C0T9A0,月眉山,2024-11-23,23.809928,121.539828,0.18901135
C0T9D0,和中,2024-11-23,24.26676,121.74103,0.9777326
C0T9E0,大坑,2024-11-23,23.880628,121.581981,0.7176259
C0T9F0,水璉,2024-11-23,23.797131,121.542514,0.66607934
C0T9I0,豐濱,2024-11-23,23.583897,121.514806,0.865462
C0T9M0,靜浦,2024-11-23,23.455167,121.495028,0.9306604
C0T9N0,富里,2024-11-23,23.171639,121.249378,0.9136212
C0U600,礁溪,2024-11-23,24.817539,121.765608,0.9082649
C0U650,玉蘭,2024-11-23,24.675286,121.587061,0.8507856
C0U750,龜山島,2024-11-23,24.841667,121.953133,0.77893084
C0U760,東澳,2024-11-23,24.52196,121.83318,0.13785072
C0U770,南澳,2024-11-23,24.44935,121.81022,0.8865845
C0U780,五結,2024-11-23,24.68637,121.79794,0.85514545
C0U860,頭城,2024-11-23,24.85323,121.8308,0.8898869
C0U870,大礁溪,2024-11-23,24.791042,121.675047,0.81918395
C0U880,北關,2024-11-23,24.9072,121.8734,0.59651476
C0U890,三星,2024-11-23,24.66812,121.65302,0.78402674
C0U900,內城,2024-11-23,24.71813,121.68766,0.9070068
C0U910,冬山,2024-11-23,24.63373,121.7937,0.47149697
C0U940,羅東,2024-11-23,24.68184,121.74934,0.876708
C0U970,大福,2024-11-23,24.80064,121.81389,0.93224245
C0U990,員山,2024-11-23,24.74435,121.72247,0.8703742
C0UA00,土場,2024-11-23,24.576533,121.495333,0.90473616
C0UA80,大溪漁港,2024-11-23,24.941801,121.902955,0.97232515
C0UA90,石城,2024-11-23,24.980444,121.951214,0.9575843
C0UB00,淡江大學蘭陽校園,2024-11-23,24.823239,121.730383,0.74455464
C0UB10,蘇澳,2024-11-23,24.5969,121.8571,0.54545397
C0UB20,壯圍,2024-11-23,24.7359,121.8163,0.8470354
C0V310,美濃,2024-11-23,22.898742,120.519153,0.85067767
C0V350,溪埔,2024-11-23,22.738578,120.446797,0.8903788
C0V360,內門,2024-11-23,22.975481,120.466769,0.95028996
C0V370,古亭坑,2024-11-23,22.893178,120.401947,0.927808
C0V400,阿公店,2024-11-23,22.804194,120.355528,0.96975666
C0V440,鳳山,2024-11-23,22.646653,120.356122,0.97462654
C0V450,鳳森,2024-11-23,22.545064,120.392592,0.96846664
C0V490,新興,2024-11-23,22.627422,120.298803,0.90031713
C0V530,阿蓮,2024-11-23,22.883208,120.327508,0.8408504
C0V610,梓官,2024-11-23,22.760558,120.267211,0.9240039
C0V620,永安,2024-11-23,22.82315,120.236856,0.8290946
C0V630,茄萣,2024-11-23,22.906642,120.182608,0.80089045
C0V640,湖內,2024-11-23,22.887139,120.2445,0.8128106
C0V650,彌陀,2024-11-23,22.783806,120.246361,0.90506965
C0V660,岡山,2024-11-23,22.797078,120.294958,0.90506965
C0V680,仁武,2024-11-23,22.701083,120.347722,0.9467393
C0V690,鼓山,2024-11-23,22.623325,120.275575,0.90031713
C0V700,三民,2024-11-23,22.645017,120.311233,0.8998765
C0V710,苓雅,2024-11-23,22.622742,120.330669,0.9766545
C0V720,林園,2024-11-23,22.507747,120.394511,0.95848876
C0V730,大寮,2024-11-23,22.605614,120.395717,0.9768485
C0V740,旗山,2024-11-23,22.888614,120.483597,0.85257816
C0V750,路竹,2024-11-23,22.854997,120.259439,0.8096656
C0V760,橋頭,2024-11-23,22.757806,120.30575,0.9240039
C0V770,大社,2024-11-23,22.730306,120.346639,0.95842713
C0V790,萬山,2024-11-23,22.905944,120.688056,0.91262007
C0V800,六龜,2024-11-23,22.997889,120.633583,0.8619793
C0V810,左營,2024-11-23,22.67491,120.28491,0.8998765
C0V820,小林,2024-11-23,23.148408,120.63325,0.9355645
C0V840,鳳鼻頭,2024-11-23,22.5083,120.3591,0.9592488
C0V850,蚵仔寮,2024-11-23,22.7256,120.2527,0.9244968
C0V860,南寮,2024-11-23,22.7616,120.2339,0.9244968
C0V870,文安,2024-11-23,22.8025,120.2164,0.90634567
C0V880,興達,2024-11-23,22.8778,120.2127,0.81610405
C0V890,前鎮,2024-11-23,22.5718,120.3117,0.8996912
C0V900,汕尾,2024-11-23,22.4782,120.4151,0.98015904
C0W200,湖西,2024-11-23,23.596314,119.67275,0.0030735636
C0X050,東河,2024-11-23,23.296598,120.385608,0.95882374
C0X060,下營,2024-11-23,23.22695,120.256261,0.8643416
C0X080,佳里,2024-11-23,23.173039,120.145086,0.77825016
C0X100,臺南市北區,2024-11-23,23.010394,120.194228,0.8011413
C0X110,臺南市南區,2024-11-23,22.961189,120.188378,0.7814569
C0X120,麻豆,2024-11-23,23.183289,120.248611,0.8867573
C0X130,官田,2024-11-23,23.193217,120.315422,0.8971475
C0X140,西港,2024-11-23,23.125608,120.203108,0.83490974
C0X150,安定,2024-11-23,23.102614,120.227839,0.83490974
C0X160,仁德,2024-11-23,22.968258,120.257689,0.7782905
C0X170,關廟,2024-11-23,22.963017,120.327797,0.90376866
C0X180,山上,2024-11-23,23.0757,120.363253,0.970482
C0X190,安平,2024-11-23,22.993161,120.152181,0.80114144
C0X200,左鎮,2024-11-23,23.056758,120.408522,0.9293541
C0X210,白河,2024-11-23,23.347466,120.414427,0.9670137
C0X220,學甲,2024-11-23,23.230367,120.182187,0.8009976
C0X230,鹽水,2024-11-23,23.272621,120.247641,0.85121346
C0X240,關子嶺,2024-11-23,23.331169,120.508025,0.9804894
C0X250,新營,2024-11-23,23.310689,120.316681,0.8968009
C0X260,後壁,2024-11-23,23.366358,120.362326,0.9268509
C0X280,將軍,2024-11-23,23.214999,120.13577,0.7987586
C0X290,北門,2024-11-23,23.267772,120.125481,0.7987586
C0X300,鹿寮,2024-11-23,23.386047,120.477331,0.9690815
C0X320,柳營,2024-11-23,23.253328,120.375253,0.9286631
C0Z020,明里,2024-11-23,23.208717,121.262342,0.94098806
C0Z061,玉里,2024-11-23,23.3215,121.339656,0.89710045
C0Z070,舞鶴,2024-11-23,23.46811,121.37407,0.8044896
C0Z080,富源,2024-11-23,23.587642,121.378225,0.9119316
C0Z100,東華,2024-11-23,23.89525,121.549833,0.9553203
C0Z150,吉安光華,2024-11-23,23.930925,121.595153,0.95540905
C0Z160,鳳林,2024-11-23,23.746114,121.453411,0.9418802
C0Z170,卓溪,2024-11-23,23.3443,121.3029,0.79526734
C0Z180,新城,2024-11-23,24.03946,121.60454,0.92122155
C0Z190,富世,2024-11-23,24.14743,121.6297,0.97603214
C0Z200,萬榮,2024-11-23,23.709219,121.420106,0.86293715
C0Z210,瑞穗,2024-11-23,23.5239,121.39021,0.9014496
C0Z230,和平,2024-11-23,24.30717,121.77007,0.97781533
C0Z270,蕃薯寮,2024-11-23,23.73835,121.540108,0.6435578
C0Z280,德武,2024-11-23,23.47426,121.41071,0.86868656
C0Z300,東里,2024-11-23,23.26853,121.30547,0.94054574
C0Z310,清水斷崖,2024-11-23,24.218294,121.689142,0.8626464
C0Z330,安通山,2024-11-23,23.290728,121.348528,0.8114005
C2A540,四堵,2024-11-23,24.8926,121.745736,0.9320193
C2A560,福山,2024-11-23,24.776203,121.502811,0.8852382
C2A650,火燒寮,2024-11-23,25.002719,121.742892,0.92787707
C2A660,瑞芳,2024-11-23,25.113169,121.801147,0.9708334
C2A880,福隆,2024-11-23,25.017842,121.942083,0.95227236
C2A920,富貴角,2024-11-23,25.263783,121.565258,0.9469564
C2E520,大湖,2024-11-23,24.414939,120.870872,0.99418855
C2E540,後龍,2024-11-23,24.606489,120.783933,0.9220867
C2E540,龍溪,2024-11-23,24.606489,120.783933,0.9220867
C2F000,大肚,2024-11-23,24.15295,120.572117,0.98759305
C2F930,大甲,2024-11-23,24.347667,120.640403,0.9820896
C2F9A0,中竹林,2024-11-23,24.103556,120.751061,0.97918606
C2G640,鹿港,2024-11-23,24.0753,120.430481,0.95521474
C2G840,北斗,2024-11-23,23.877586,120.514222,0.9576605
C2G870,芳苑,2024-11-23,23.922303,120.320025,0.9504157
C2H950,中寮,2024-11-23,23.884447,120.766406,0.9592685
C2M410,馬頭山,2024-11-23,23.324361,120.582017,0.9815459
C2N160,西拉雅風管處,2024-11-23,23.189481,120.335297,0.89799815
C2O810,曾文,2024-11-23,23.219681,120.497328,0.9792254
C2O930,玉井,2024-11-23,23.126042,120.46055,0.970482
C2O950,安南,2024-11-23,23.076694,120.144861,0.7648238
C2V250,甲仙,2024-11-23,23.080106,120.591758,0.92280483
C2V260,月眉,2024-11-23,22.971003,120.539853,0.81479007
C2W230,畜試所澎湖,2024-11-23,23.628342,119.513206,0.0005108816
CAG100,王功漁港,2024-11-23,23.96824,120.32586,0.9545068
CAH030,茶改場竹圍站,2024-11-23,23.860083,120.637528,0.8453697
CAJ050,海口故事園區,2024-11-23,23.57543,120.14121,0.8507034
CAL110,布袋國中,2024-11-23,23.35893,120.18026,0.7653456
CAN130,水試所海水繁養殖中心,2024-11-23,23.120802,120.07968,0.7680167
CAN140,六官養殖協會,2024-11-23,23.22881,120.29962,0.8643416
CAQ030,崎峰國小,2024-11-23,22.42565,120.49521,0.98015904
E2K600,四湖植物園,2024-11-23,23.676986,120.163433,0.90746516
E2P980,林試六龜中心,2024-11-23,22.991703,120.645722,0.85356236
E2S960,林試太麻里2,2024-11-23,22.598014,120.989761,0.9901973
E2S960,林試太麻里2,2024-11-23,22.598,120.99775,0.9907102
E2S980,林試太麻里1,2024-11-23,22.598922,120.980044,0.9832283
G2AI50,關渡,2024-11-23,25.11575,121.492,0.59452355
G2F820,農業試驗所,2024-11-23,24.031261,120.688133,0.968823
G2F820,農試所(霧峰),2024-11-23,24.031261,120.688133,0.968823
G2L020,農試嘉義分所,2024-11-23,23.485028,120.473806,0.9711876
G2M350,農試溪口農場,2024-11-23,23.58565,120.408111,0.921349
G2P820,農試鳳山分所,2024-11-23,22.646611,120.356083,0.9746266
K2E360,苗栗農改,2024-11-23,24.495722,120.829111,0.9881942
K2E360,苗栗農改場,2024-11-23,24.495722,120.829111,0.9881942
K2E710,苗改生物防治研究中心,2024-11-23,24.422861,120.871833,0.9939274
K2F750,種苗改良場,2024-11-23,24.225972,120.800917,0.997367
K2F750,種苗繁殖,2024-11-23,24.225972,120.800917,0.997367
U2HA50,臺大竹山,2024-11-23,23.756972,120.681556,0.95234406
V2C250,八德合作社,2024-11-23,24.93775,121.266389,0.4347718
V2C260,八德蔬果,2024-11-23,24.978508,121.281819,0.49786618
V2K610,大庄合作社,2024-11-23,23.8068,120.367939,0.88219094
V2K620,麥寮合作社,2024-11-23,23.753836,120.294783,0.74195707
