站號,站名,日期,lat,lon,BLBTSLS
C0R710,龍磐,2024-05-16,21.931672,120.838942,0.38112512
C1F9D1,白毛台,2024-05-16,24.158325,120.886933,4.118859e-09
C0G940,竹塘,2024-05-16,23.848253,120.386764,0.25835273
467590,恆春,2024-05-16,22.003897,120.746339,0.5698599
C1O850,環湖,2024-05-16,23.148617,120.418633,0.99677396
C0U710,太平山,2024-05-16,24.505486,121.525656,9.2396e-09
C0E820,獅潭,2024-05-16,24.539133,120.920042,1.0039435e-06
C0V880,興達,2024-05-16,22.8778,120.2127,0.11768854
C0S890,關山,2024-05-16,23.0395,121.175017,0.9997359
K2F750,種苗繁殖,2024-05-16,24.225972,120.800917,0.007029414
C1Z130,銅門,2024-05-16,23.965694,121.492842,0.29229274
C0AD40,土城,2024-05-16,24.973208,121.445169,0.9968241
CAN140,六官養殖協會,2024-05-16,23.22881,120.29962,0.9751843
C0X180,山上,2024-05-16,23.0757,120.363253,0.9975459
C0F9Z0,雪山東峰,2024-05-16,24.388792,121.268675,8.595335e-09
C1M480,獨立山,2024-05-16,23.537022,120.607797,1.2317016e-08
C0X220,學甲,2024-05-16,23.230367,120.182187,0.04060278
C0R170,屏東,2024-05-16,22.660269,120.494072,0.99942565
467650,日月潭,2024-05-16,23.881325,120.90805,1.6215066e-09
C0K600,箔子寮,2024-05-16,23.6197,120.14,0.78086823
C0G830,埤頭,2024-05-16,23.866003,120.452806,0.1265701
C0S950,七塊厝,2024-05-16,22.954453,121.229922,0.99703366
467110,金門,2024-05-16,24.407306,118.289281,0.29419875
C0AH80,深坑,2024-05-16,25.002703,121.628328,0.99686044
467990,馬祖,2024-05-16,26.169269,119.923419,1.3024479e-06
C0A970,三貂角,2024-05-16,25.007606,122.002058,0.9943817
C0K430,褒忠,2024-05-16,23.690938,120.303634,0.997341
467480,嘉義,2024-05-16,23.495925,120.432906,0.9995623
C2E540,後龍,2024-05-16,24.606489,120.783933,3.5474451e-07
C0V400,阿公店,2024-05-16,22.804194,120.355528,0.9814478
C0R440,大漢山,2024-05-16,22.405264,120.753181,2.434258e-09
C0K280,四湖,2024-05-16,23.630414,120.227125,0.29391372
C1F9B1,桐林,2024-05-16,24.066172,120.735194,3.904229e-06
C0K390,土庫,2024-05-16,23.679029,120.395574,0.8159388
C1I450,望鄉山,2024-05-16,23.594153,120.944286,4.584126e-09
C0E910,海埔,2024-05-16,24.648767,120.772435,4.792827e-07
B2E890,畜試北區分所,2024-05-16,24.527806,120.770972,2.6682075e-08
C0R750,四林格山,2024-05-16,22.076989,120.802439,0.9991687
C0F0C0,中坑,2024-05-16,24.248517,120.903319,1.3247837e-09
C1I121,大鞍,2024-05-16,23.678381,120.760017,1.2894287e-09
72U480,花改蘭陽分場,2024-05-16,24.686306,121.716583,0.00022140646
C0A770,科教館,2024-05-16,25.096356,121.516507,0.998622
C0AJ60,六塊厝,2024-05-16,25.24,121.4481,0.9969675
C0R620,墾雷,2024-05-16,21.900836,120.855269,0.60899043
467420,永康,2024-05-16,23.038386,120.2367,0.99782455
467300,東吉島,2024-05-16,23.25695,119.667467,0.0018450991
C0I410,名間,2024-05-16,23.837053,120.701447,0.00077107246
A2C560,農工中心,2024-05-16,24.985917,121.239833,0.00042332686
C0V740,旗山,2024-05-16,22.888614,120.483597,0.99881405
C0Z061,玉里,2024-05-16,23.3215,121.339656,5.7519967e-05
C0S840,南田,2024-05-16,22.279725,120.889208,0.8042617
C1I470,杉林溪,2024-05-16,23.639517,120.786444,1.5905625e-09
C1X040,東原,2024-05-16,23.291597,120.463822,0.9955213
C0R660,枋寮,2024-05-16,22.367722,120.590647,0.5022066
C1R120,上德文,2024-05-16,22.763272,120.704442,4.6289443e-09
C0K450,大埤,2024-05-16,23.646074,120.431537,0.994166
C0UA00,土場,2024-05-16,24.576533,121.495333,2.0207796e-08
467080,宜蘭,2024-05-16,24.763975,121.756528,0.23218417
C0N030,四草,2024-05-16,23.0235,120.1116,0.11280159
C0V650,彌陀,2024-05-16,22.783806,120.246361,0.9781147
C0D660,新竹市東區,2024-05-16,24.798681,120.986942,6.2571905e-07
82S580,茶改東部分場,2024-05-16,22.907694,121.130139,0.99995774
C0C710,大溪永福,2024-05-16,24.892936,121.324975,0.04617528
C0FA20,溫寮,2024-05-16,24.372177,120.583125,3.5974128e-05
C0V640,湖內,2024-05-16,22.887139,120.2445,0.11394596
C0R910,下寮,2024-05-16,22.3929,120.5548,0.5022066
C0Z020,明里,2024-05-16,23.208717,121.262342,0.00021838964
C0M770,嘉義梅山,2024-05-16,23.585398,120.555587,0.99918723
G2F820,農業試驗所,2024-05-16,24.031261,120.688133,3.9228657e-05
C0C660,楊梅,2024-05-16,24.912375,121.143047,0.006008931
C1E511,新開,2024-05-16,24.347703,120.827019,1.25320885e-05
G2F820,農試所(霧峰),2024-05-16,24.031261,120.688133,3.9228657e-05
C1I070,和社,2024-05-16,23.591131,120.888861,1.8777724e-09
C2F000,大肚,2024-05-16,24.15295,120.572117,1.681557e-06
C1S850,豐南,2024-05-16,23.122139,121.262389,0.0016166961
C2A920,富貴角,2024-05-16,25.263783,121.565258,0.50197107
CAH030,茶改場竹圍站,2024-05-16,23.860083,120.637528,6.846556e-08
C0T960,光復,2024-05-16,23.660694,121.424964,1.7600432e-07
C0F9M0,豐原,2024-05-16,24.254322,120.720692,0.07607409
C0R720,旭海,2024-05-16,22.205403,120.887614,0.6691412
C0V710,苓雅,2024-05-16,22.622742,120.330669,0.85265845
C0C740,觀音工業區,2024-05-16,25.064764,121.114856,0.010334993
CAC040,拉拉山,2024-05-16,24.699317,121.427133,7.044726e-09
C0V790,萬山,2024-05-16,22.905944,120.688056,0.99548364
U2HA30,臺大和社,2024-05-16,23.590856,120.888864,1.8777724e-09
C0AJ90,澳底,2024-05-16,25.0552,121.9253,0.9979302
C0Z100,東華,2024-05-16,23.89525,121.549833,0.98626167
C0G970,三豐,2024-05-16,23.882,120.2895,0.024889939
V2K610,大庄合作社,2024-05-16,23.8068,120.367939,0.7935785
C0V900,汕尾,2024-05-16,22.4782,120.4151,0.9984385
C1R630,龍泉,2024-05-16,22.66701,120.59091,0.9985395
C1AC50,關渡,2024-05-16,25.133486,121.469331,0.9042749
C0F9I0,神岡,2024-05-16,24.272481,120.658314,8.453966e-08
C0K460,斗南,2024-05-16,23.678734,120.478359,0.9939642
467410,臺南,2024-05-16,22.993239,120.204772,0.057262912
C2O810,曾文,2024-05-16,23.219681,120.497328,0.9957154
467280,後龍,2024-05-16,24.648563,120.831834,2.2219022e-07
C1F9J1,清水林,2024-05-16,24.071242,120.820419,9.675148e-10
C2A650,火燒寮,2024-05-16,25.002719,121.742892,0.8673687
466930,竹子湖,2024-05-16,25.162078,121.544547,6.948712e-08
C1I220,樟湖,2024-05-16,23.905333,120.846983,7.941531e-10
C0I390,仁愛,2024-05-16,24.022122,121.132206,1.2388116e-09
C0Z300,東里,2024-05-16,23.26853,121.30547,0.05690838
C0V310,美濃,2024-05-16,22.898742,120.519153,0.9986903
C1V590,新發,2024-05-16,23.057019,120.646064,5.4765733e-06
C0K510,水林,2024-05-16,23.572924,120.24597,0.99500436
72S590,東改賓朗果園,2024-05-16,22.813889,121.071278,0.9999465
82A750,茶改北部分場,2024-05-16,24.955778,121.631222,5.9970283e-05
C1A750,石碇服務區,2024-05-16,25.00872,121.646242,0.9406086
C0X300,鹿寮,2024-05-16,23.386047,120.477331,0.99852246
G2AI50,關渡,2024-05-16,25.11575,121.492,0.8470205
C0K590,雲林東勢,2024-05-16,23.674192,120.255721,0.99817216
C0A570,桶後,2024-05-16,24.848222,121.597992,0.000111696645
C1S800,華源,2024-05-16,22.657883,121.02325,0.40157256
C0G720,溪州,2024-05-16,23.851589,120.499093,0.09830706
C1V160,達卡努瓦,2024-05-16,23.279811,120.705319,1.5160587e-09
C2M410,馬頭山,2024-05-16,23.324361,120.582017,0.9572534
C0V850,蚵仔寮,2024-05-16,22.7256,120.2527,0.9814328
C0S740,池上,2024-05-16,23.119628,121.209469,0.9967037
C1V390,尖山,2024-05-16,22.813153,120.367789,0.9734238
C0AH70,松山,2024-05-16,25.04871,121.55042,0.9985941
C0N010,鯤鯓國小,2024-05-16,23.1879,120.0889,0.9348681
C0R550,新埤,2024-05-16,22.467947,120.582894,0.9988447
C0SA60,知本（水試所）,2024-05-16,22.702394,121.082761,0.7844849
C0T9I0,豐濱,2024-05-16,23.583897,121.514806,2.919363e-07
C0UB00,淡江大學蘭陽校園,2024-05-16,24.823239,121.730383,1.1128919e-05
C0T9N0,富里,2024-05-16,23.171639,121.249378,2.8864627e-06
U2HA50,臺大竹山,2024-05-16,23.756972,120.681556,0.97769827
C0V840,鳳鼻頭,2024-05-16,22.5083,120.3591,0.9937903
C0X140,西港,2024-05-16,23.125608,120.203108,0.98032916
72D080,桃改五峰分場,2024-05-16,24.612194,121.157167,1.2359653e-09
C0V530,阿蓮,2024-05-16,22.883208,120.327508,0.985901
C1O880,關山,2024-05-16,23.173397,120.594092,0.00018304463
C0E791,卓蘭,2024-05-16,24.3126,120.8244,6.293726e-05
C1I030,武界,2024-05-16,23.913225,121.052483,1.1913786e-09
C0R520,崁頂,2024-05-16,22.514781,120.506914,0.9985332
C0R341,牡丹,2024-05-16,22.130036,120.792639,0.7194403
C0R930,萬丹,2024-05-16,22.5885,120.4851,0.9996799
C0S760,紅石,2024-05-16,23.069131,121.126219,8.7749825e-09
C1M610,石磐龍,2024-05-16,23.496606,120.663506,1.4337777e-09
C0UA10,鴛鴦湖,2024-05-16,24.590269,121.412228,6.135455e-09
V2C260,八德蔬果,2024-05-16,24.978508,121.281819,0.63047004
C0R800,丹路,2024-05-16,22.204481,120.750989,0.54627395
C0G920,永靖,2024-05-16,23.924703,120.547533,0.007228382
C1A630,下盆,2024-05-16,24.771003,121.538622,5.560054e-09
B2N890,畜產試驗所,2024-05-16,23.058972,120.336406,0.9985548
C0UA30,白嶺,2024-05-16,24.527819,121.519031,3.828362e-09
C1V580,溪南(特生中心),2024-05-16,23.084972,120.788475,7.29632e-10
C1T970,大農,2024-05-16,23.615233,121.413331,6.385028e-08
E2S960,林試太麻里2,2024-05-16,22.598014,120.989761,0.895487
C0R650,竹田,2024-05-16,22.58486,120.54344,0.99477714
C1H900,清流,2024-05-16,24.080775,120.962997,1.1260205e-09
C1C510,水尾,2024-05-16,24.940081,121.087161,2.2168271e-05
C0F9X0,大雅(中科園區),2024-05-16,24.21528,120.62445,4.544647e-08
C0O970,虎頭埤,2024-05-16,23.021375,120.347878,0.9977636
C0C730,中大臨海站,2024-05-16,24.966126,121.008581,8.431785e-05
C0X250,新營,2024-05-16,23.310689,120.316681,0.99778473
C0V700,三民,2024-05-16,22.645017,120.311233,0.9753145
C0U870,大礁溪,2024-05-16,24.791042,121.675047,9.13828e-09
C0E870,高鐵苗栗,2024-05-16,24.60725,120.826094,2.94885e-07
A2K570,古坑花卉中心,2024-05-16,23.63353,120.55239,0.99690676
C0M860,新美,2024-05-16,23.338017,120.683169,1.0845374e-08
C1E701,八卦,2024-05-16,24.491756,120.927619,2.8291256e-09
C0I420,國姓,2024-05-16,24.037803,120.855072,1.3128205e-07
C0S960,香蘭,2024-05-16,22.587569,120.993375,0.895487
C0R260,春日,2024-05-16,22.370361,120.628306,0.5324447
72G600,臺中農改場,2024-05-16,24.003028,120.534389,0.00010189368
C0Z210,瑞穗,2024-05-16,23.5239,121.39021,0.00028968268
C0M820,達邦,2024-05-16,23.453994,120.749517,1.1441783e-09
C0V860,南寮,2024-05-16,22.7616,120.2339,0.9814328
C0G740,大城,2024-05-16,23.852487,120.320935,0.030708337
C0R920,塭仔,2024-05-16,22.4169,120.5197,0.51560974
C0R470,高樹,2024-05-16,22.826389,120.600806,0.9954873
C0R680,佳樂水,2024-05-16,21.993578,120.861633,0.65652555
C1O870,大棟山,2024-05-16,23.31157,120.52226,6.3638184e-10
C0D360,梅花,2024-05-16,24.678347,121.208558,2.217203e-07
C0Z190,富世,2024-05-16,24.14743,121.6297,0.6543525
C0AI10,屈尺,2024-05-16,24.92184,121.54475,0.97257376
B2U990,畜試東區分所,2024-05-16,24.669039,121.832561,0.00014750643
C0R240,來義,2024-05-16,22.527306,120.625111,0.9992274
C1R610,西大武山,2024-05-16,22.617719,120.7322,8.431514e-09
C0G900,線西,2024-05-16,24.143358,120.443536,7.6316755e-06
C0M700,竹崎,2024-05-16,23.526178,120.555508,0.999013
C2E880,三義,2024-05-16,24.405478,120.749819,2.047648e-08
C0C720,竹圍,2024-05-16,25.112692,121.239824,0.8470205
C0F9P0,清水,2024-05-16,24.312297,120.562242,2.1402351e-05
C0Z150,吉安光華,2024-05-16,23.930925,121.595153,0.99734104
C1D640,外坪(五指山),2024-05-16,24.644447,121.090961,1.3105745e-08
C0F9O0,潭子,2024-05-16,24.213106,120.703933,0.17536047
72T250,花蓮農改場,2024-05-16,23.975222,121.563889,0.9922654
C0E780,銅鑼,2024-05-16,24.489681,120.790853,8.070136e-09
C1T950,太安,2024-05-16,23.666719,121.370128,2.6191362e-08
C0E830,苑裡,2024-05-16,24.439714,120.653053,2.6008995e-06
467270,田中,2024-05-16,23.873803,120.581286,0.9761165
C0SA10,檳榔四格山,2024-05-16,22.810031,121.109308,0.9999331
C1T830,布洛灣,2024-05-16,24.17184,121.57127,0.0002704124
C0F970,大坑,2024-05-16,24.173142,120.722289,0.0014668992
C1U920,思源,2024-05-16,24.393125,121.347214,4.924385e-09
C0A931,三和,2024-05-16,25.233153,121.595236,0.14618067
C0I010,廬山,2024-05-16,24.033311,121.181808,8.3696616e-10
C0R860,鼻頭,2024-05-16,22.1043,120.8979,0.33530128
C0UB20,壯圍,2024-05-16,24.7359,121.8163,0.0005073749
C0R790,九棚,2024-05-16,22.14195,120.889281,0.5851749
C0W110,東莒,2024-05-16,25.9652,119.98069,1.0130283e-06
C1U930,粉鳥林,2024-05-16,24.497088,121.842479,0.0018491511
C1I211,蘆竹湳,2024-05-16,23.934019,120.811994,3.9317123e-09
C0S830,長濱,2024-05-16,23.286817,121.411975,1.1526512e-06
C1F9F1,伯公龍,2024-05-16,24.272392,120.849047,0.00075036014
C0E810,西湖,2024-05-16,24.562947,120.7485,8.1829995e-07
C1I440,新高口,2024-05-16,23.478744,120.878939,1.6972997e-09
C0O840,王爺宮,2024-05-16,23.222064,120.40085,0.99883044
C0T9G0,鳳林山,2024-05-16,23.735269,121.420131,1.5883735e-09
C0X080,佳里,2024-05-16,23.173039,120.145086,0.9348681
C0Z310,清水斷崖,2024-05-16,24.218294,121.689142,2.585849e-08
C0M680,太保,2024-05-16,23.455062,120.331455,0.99966687
C1S820,金峰,2024-05-16,22.590969,120.933236,0.17858268
C0AD10,八里,2024-05-16,25.150211,121.403947,0.8470205
C2K240,草嶺,2024-05-16,23.59555,120.693461,2.2106204e-09
C1SA70,都蘭,2024-05-16,22.87794,121.226881,0.99989754
C0K440,二崙,2024-05-16,23.772797,120.408944,0.027058862
C1A760,坪林交控,2024-05-16,24.94284,121.713442,0.39520025
C0F9N0,大里,2024-05-16,24.092464,120.701378,4.0697025e-05
C0SA90,達仁林場,2024-05-16,22.264347,120.823972,0.82030106
C1R290,石門山,2024-05-16,22.112611,120.756597,0.9339344
42HA10,萬大發電廠,2024-05-16,23.978875,121.139639,1.4247407e-09
C0R890,山海,2024-05-16,21.9878,120.7091,0.6992506
C0T9A0,月眉山,2024-05-16,23.809928,121.539828,2.1002635e-09
C0AC70,信義,2024-05-16,25.037822,121.564597,0.99859595
C0K560,棋山,2024-05-16,23.68645,120.603417,0.9969659
C1Z240,中平林道,2024-05-16,23.42115,121.26763,1.9809724e-08
U2H480,溪頭,2024-05-16,23.670306,120.798194,2.312212e-09
C0M880,好美里,2024-05-16,23.3364,120.138,0.007086778
C0T9E0,大坑,2024-05-16,23.880628,121.581981,1.8464974e-08
C0K530,臺西,2024-05-16,23.701547,120.197559,0.96790946
C1E900,國一N128K,2024-05-16,24.560997,120.844186,3.802442e-08
C0AJ50,水湳洞,2024-05-16,25.123695,121.862238,0.99654806
C0AI20,白沙灣,2024-05-16,25.283128,121.519058,0.9966016
C0A860,大坪,2024-05-16,25.165914,121.632969,7.22097e-05
C1U850,觀音海岸,2024-05-16,24.38319,121.77856,2.1717699e-09
C0U950,鶯子嶺,2024-05-16,24.89754,121.79244,1.0138197e-08
C0O900,善化,2024-05-16,23.112883,120.297219,0.9982856
C0K550,蔦松,2024-05-16,23.514319,120.229736,0.01140295
E2P980,林試六龜中心,2024-05-16,22.991703,120.645722,0.048951577
C0E590,通霄,2024-05-16,24.471892,120.704622,5.356104e-07
C1I310,西巒,2024-05-16,23.754486,120.883956,1.1393633e-09
C0A550,泰平,2024-05-16,24.971197,121.823711,2.084499e-07
C0I360,水里,2024-05-16,23.812553,120.849792,1.925355e-07
C0R830,高士,2024-05-16,22.121825,120.836781,0.98055464
C1I101,溪頭,2024-05-16,23.661789,120.807647,2.8722367e-09
C0AJ20,野柳,2024-05-16,25.20703,121.690021,0.9955017
C0B060,暖暖,2024-05-16,25.0957,121.7403,0.99588704
C1H920,長豐,2024-05-16,24.102039,120.879897,1.8324798e-09
C0V360,內門,2024-05-16,22.975481,120.466769,0.99599254
C0R850,林邊,2024-05-16,22.4634,120.5339,0.9986058
C0E930,龍鳳,2024-05-16,24.700034,120.859125,1.9368078e-06
C0U910,冬山,2024-05-16,24.63373,121.7937,0.00014750643
C1E721,泰安,2024-05-16,24.489017,120.968036,8.673656e-10
82H320,茶改中部分場,2024-05-16,23.875611,120.913583,2.6896358e-09
C0M750,布袋,2024-05-16,23.380878,120.167789,0.53818244
C1S860,利嘉,2024-05-16,22.809417,121.050528,2.231988e-07
72C440,桃園農改,2024-05-16,24.950944,121.030583,0.00010086712
E2S980,林試太麻里1,2024-05-16,22.598922,120.980044,0.8148557
C0X170,關廟,2024-05-16,22.963017,120.327797,0.99733067
C0V720,林園,2024-05-16,22.507747,120.394511,0.9933292
C1I510,線浸林道,2024-05-16,23.761508,120.832956,9.647175e-10
C0D690,外湖,2024-05-16,24.917735,120.968711,0.00022947084
C0C750,新興坑尾,2024-05-16,25.0061,121.0971,9.610884e-06
B2Q810,畜試南區分所,2024-05-16,21.945583,120.802167,0.6560992
C0S790,金崙,2024-05-16,22.538122,120.966875,0.094422095
C0AH90,福山植物園,2024-05-16,24.760717,121.58135,2.2606892e-08
C0I540,奇萊稜線,2024-05-16,24.109231,121.326456,7.2875204e-09
C0M850,表湖,2024-05-16,23.24186,120.64166,1.25298705e-08
C0S770,大溪山,2024-05-16,22.478475,120.943325,0.37669322
C0AG80,中和,2024-05-16,24.991622,121.491792,0.9968241
C0T790,大禹嶺,2024-05-16,24.186117,121.316086,2.5013516e-09
C0T9B0,水源,2024-05-16,23.991861,121.537169,6.8004573e-07
C0R840,牡丹池山,2024-05-16,22.168389,120.841225,0.9395271
C1I131,桶頭,2024-05-16,23.641944,120.654117,0.38339776
CAL110,布袋國中,2024-05-16,23.35893,120.18026,0.53818244
467571,新竹,2024-05-16,24.827853,121.014219,7.753675e-06
C0Z290,赤柯山,2024-05-16,23.36893,121.38293,3.976844e-09
C0X280,將軍,2024-05-16,23.214999,120.13577,0.05191968
C0S690,太麻里,2024-05-16,22.60902,120.98533,1.4790649e-07
C0U880,北關,2024-05-16,24.9072,121.8734,0.9971008
C1H860,瑞岩,2024-05-16,24.123772,121.18345,1.5610243e-09
C0G810,埔心,2024-05-16,23.947633,120.525456,0.0072190575
C0U970,大福,2024-05-16,24.80064,121.81389,0.30630815
C1E670,南礦,2024-05-16,24.538278,121.002836,1.0222463e-09
C0M520,東後寮,2024-05-16,23.369908,120.248065,0.4484398
C1E461,松安,2024-05-16,24.397972,120.986022,8.4112384e-10
72G600,臺中農改,2024-05-16,24.003028,120.534389,0.000101893784
C2N160,西拉雅風管處,2024-05-16,23.189481,120.335297,0.9978186
C0A640,石碇,2024-05-16,24.993969,121.662917,0.5060737
E2S960,林試太麻里2,2024-05-16,22.598,120.99775,0.8901319
C0F9Y0,桃山,2024-05-16,24.432739,121.303808,9.097758e-09
C1I020,萬大,2024-05-16,23.979817,121.132261,1.2120734e-09
C0U940,羅東,2024-05-16,24.68184,121.74934,0.00028380356
C0M650,朴子,2024-05-16,23.43463,120.23902,0.9410352
C1I500,大尖山,2024-05-16,23.858572,120.994889,2.3290094e-09
C0G820,田尾,2024-05-16,23.901669,120.509389,0.0072190575
E2K600,四湖植物園,2024-05-16,23.676986,120.163433,0.29391372
C0S730,綠島,2024-05-16,22.6672,121.47533,0.97980917
12Q970,東港工作站,2024-05-16,22.479997,120.466058,0.9984385
C0E430,南庄,2024-05-16,24.601775,121.000214,7.776563e-07
C1TA00,太魯閣,2024-05-16,24.15773,121.6236,0.22897063
466920,臺北,2024-05-16,25.037658,121.514853,0.9985941
C0R600,舊泰武,2024-05-16,22.588194,120.664944,8.99985e-06
C1I260,北坑,2024-05-16,23.9246,121.006903,2.7517073e-09
466910,鞍部,2024-05-16,25.182586,121.529731,9.205439e-09
C1I230,九份二山,2024-05-16,23.961944,120.845,2.0620423e-09
C2A660,瑞芳,2024-05-16,25.113169,121.801147,0.995726
C0R270,琉球嶼,2024-05-16,22.332244,120.362236,6.9309285e-06
C1T990,高寮,2024-05-16,23.394239,121.356808,0.0057104058
C0G620,芬園,2024-05-16,24.015678,120.6213,5.748864e-06
C1Z140,荖溪,2024-05-16,23.890575,121.45964,1.3340243e-08
C1I201,中心崙,2024-05-16,23.728722,120.712097,1.1813137e-09
C1I400,凌霄,2024-05-16,24.018778,121.004456,8.1403323e-10
C1M640,十字,2024-05-16,23.492153,120.753683,1.2000426e-09
G2P820,農試鳳山分所,2024-05-16,22.646611,120.356083,0.95575637
C0Z270,蕃薯寮,2024-05-16,23.73835,121.540108,4.1804356e-09
C0F9Q0,外埔,2024-05-16,24.347817,120.705686,2.1735939e-06
C0K580,高鐵雲林,2024-05-16,23.737456,120.417944,0.021333333
C2I090,鳳凰,2024-05-16,23.728081,120.787347,1.0511212e-09
C0U990,員山,2024-05-16,24.74435,121.72247,0.00039430324
C0V770,大社,2024-05-16,22.730306,120.346639,0.97716105
C0X120,麻豆,2024-05-16,23.183289,120.248611,0.968202
C0C670,龍潭,2024-05-16,24.870056,121.221389,2.3997204e-06
C0D680,香山濕地,2024-05-16,24.783581,120.914988,2.1595317e-06
C0S980,勝林山,2024-05-16,22.430439,120.8938,2.1620333e-06
C0V730,大寮,2024-05-16,22.605614,120.395717,0.77125216
C0R570,麟洛,2024-05-16,22.65078,120.52719,0.99942696
CAG100,王功漁港,2024-05-16,23.96824,120.32586,0.027057381
C0X290,北門,2024-05-16,23.267772,120.125481,0.05161284
C2F930,大甲,2024-05-16,24.347667,120.640403,2.1111464e-06
C0D650,湖口,2024-05-16,24.904794,121.043628,2.8043447e-05
C0E420,竹南,2024-05-16,24.708978,120.888897,7.9147776e-07
C0U780,五結,2024-05-16,24.68637,121.79794,0.0005073749
C1I250,鯉潭,2024-05-16,23.961922,120.991131,6.2921766e-09
C0R130,阿禮,2024-05-16,22.742908,120.743678,8.029199e-10
C0X100,臺南市北區,2024-05-16,23.010394,120.194228,0.09549696
C0S920,金峰嘉蘭,2024-05-16,22.594789,120.960825,0.78209037
C0V490,新興,2024-05-16,22.627422,120.298803,0.85197115
C0F9K0,大安,2024-05-16,24.345061,120.588025,1.9839308e-05
72N100,臺南農改,2024-05-16,23.0605,120.342194,0.9985548
467290,古坑,2024-05-16,23.633639,120.551889,0.99690676
C0V440,鳳山,2024-05-16,22.646653,120.356122,0.95575637
C1T940,大觀,2024-05-16,23.714206,121.373133,1.8505052e-09
72T250,花蓮農改,2024-05-16,23.975222,121.563889,0.9922654
C0E740,造橋,2024-05-16,24.637056,120.864778,2.94885e-07
C0R100,尾寮山,2024-05-16,22.833111,120.683889,8.268997e-10
A2K630,臺大雲林校區,2024-05-16,23.730628,120.423903,0.021333333
C0D580,寶山,2024-05-16,24.735006,121.025192,0.005490842
E2P990,林試扇平站,2024-05-16,22.9677,120.6857,1.1085606e-06
C0AI30,三重,2024-05-16,25.057328,121.500629,0.998622
C0AH00,汐止,2024-05-16,25.066881,121.658778,0.9985941
C1Z040,立山,2024-05-16,23.443356,121.327375,7.378657e-09
C0R740,獅子,2024-05-16,22.201569,120.70525,0.45219567
C0W130,花嶼,2024-05-16,23.40007,119.32276,0.0075748144
C0A950,鼻頭角,2024-05-16,25.129036,121.923372,0.9999109
C0K470,林內,2024-05-16,23.748675,120.609642,0.97589004
82C160,茶改場,2024-05-16,24.908472,121.185333,0.0006667255
C0Z320,清水林道,2024-05-16,23.27125,121.188272,6.0411054e-09
C0R760,南仁湖,2024-05-16,22.084681,120.863353,0.93405336
C0M670,大林,2024-05-16,23.600616,120.45841,0.99939895
C0M800,茶山,2024-05-16,23.299075,120.664767,8.769214e-08
C0A9C0,天母,2024-05-16,25.117494,121.537169,0.974246
72K220,南改斗南分場,2024-05-16,23.634556,120.477333,0.99397427
72AI40,桃改樹林分場,2024-05-16,24.944503,121.386972,0.9571153
C0S910,蘭嶼燈塔,2024-05-16,22.081197,121.503117,0.8862933
C0B050,八斗子,2024-05-16,25.144754,121.79167,0.9963117
C0U900,內城,2024-05-16,24.71813,121.68766,0.0001241194
C0X320,柳營,2024-05-16,23.253328,120.375253,0.9981912
C0M790,新港,2024-05-16,23.553269,120.345728,0.9991432
C0F9T0,西屯,2024-05-16,24.179494,120.641275,7.8168654e-08
C0SA30,都歷,2024-05-16,23.020333,121.323642,0.99983597
C0C620,蘆竹,2024-05-16,25.084275,121.265767,0.0020459937
C0R730,大坪頂,2024-05-16,22.024633,120.69355,0.72528017
C0AJ40,石門,2024-05-16,25.273672,121.601198,0.8603738
C0E750,苗栗,2024-05-16,24.564569,120.824575,4.216738e-08
C0T870,鯉魚潭,2024-05-16,23.935639,121.508944,0.7920225
C1V170,排雲,2024-05-16,23.463619,120.954147,7.0168733e-09
C2H950,中寮,2024-05-16,23.884447,120.766406,0.00025330583
C0R350,貓鼻頭,2024-05-16,21.921774,120.7358,0.45556098
C0V660,岡山,2024-05-16,22.797078,120.294958,0.9781147
C1H941,雙冬,2024-05-16,23.967378,120.802189,2.3839946e-09
C0AJ70,田寮,2024-05-16,25.2698,121.4886,0.99676144
C0AI00,五股,2024-05-16,25.07445,121.42728,0.015262447
C0Z280,德武,2024-05-16,23.47426,121.41071,9.287879e-05
C0R700,枋山,2024-05-16,22.246844,120.661086,0.75358415
C0C460,復興,2024-05-16,24.820208,121.352281,4.0434966e-08
E2H360,蓮華池,2024-05-16,23.918333,120.885278,1.3802003e-09
C0M640,中埔,2024-05-16,23.42538,120.5229,0.99864686
C0W140,金沙,2024-05-16,24.488292,118.408778,0.98107594
C2A540,四堵,2024-05-16,24.8926,121.745736,0.00010673795
C0ACA0,新莊,2024-05-16,25.051478,121.446756,0.99545544
C0R220,潮州,2024-05-16,22.534361,120.54,0.9986045
U2HA40,臺大內茅埔,2024-05-16,23.689722,120.851117,1.1821791e-07
467490,臺中,2024-05-16,24.145736,120.684075,0.00972769
C0U960,翠峰湖,2024-05-16,24.510856,121.608044,5.733027e-09
E2HA20,林試畢祿溪站,2024-05-16,24.226944,121.308522,2.9360627e-09
C0V890,前鎮,2024-05-16,22.5718,120.3117,0.8894193
467620,蘭嶼,2024-05-16,22.036969,121.558339,0.8832002
C1F941,雪嶺,2024-05-16,24.280586,121.026642,7.690435e-09
C0AC80,文山,2024-05-16,25.00235,121.575728,0.99686044
C0F9R0,龍井,2024-05-16,24.184536,120.528972,4.164984e-06
C0M760,民雄,2024-05-16,23.551754,120.428457,0.9994285
C0UA40,西德山,2024-05-16,24.560647,121.752608,2.0326731e-09
C1T920,中興,2024-05-16,23.769503,121.498653,1.9276113e-05
C0D550,雪霸,2024-05-16,24.526972,121.11605,1.1687074e-09
C2F860,梨山,2024-05-16,24.247522,121.243669,3.076797e-09
C0R320,車城,2024-05-16,22.0744,120.716247,0.660911
C1S870,南美山,2024-05-16,23.15025,121.382333,3.3572203e-06
C0B020,基隆嶼,2024-05-16,25.19141,121.78391,0.9968197
C1U501,牛鬥,2024-05-16,24.637836,121.573656,1.0518236e-08
C0M730,嘉義市東區,2024-05-16,23.457673,120.460531,0.998309
C0S700,知本,2024-05-16,22.684866,121.005642,8.683067e-08
C1N001,沙崙,2024-05-16,22.935472,120.309406,0.9973005
C0V760,橋頭,2024-05-16,22.757806,120.30575,0.979885
C0G960,福寶,2024-05-16,24.0443,120.3814,3.569085e-05
C0X210,白河,2024-05-16,23.347466,120.414427,0.9979876
C0S810,東河,2024-05-16,22.972672,121.303986,0.99695253
C0R670,楓港,2024-05-16,22.190131,120.692156,0.42125788
C0FA50,霧峰,2024-05-16,24.0419,120.6995,2.8347255e-05
C0UB10,蘇澳,2024-05-16,24.5969,121.8571,9.392415e-06
C0G950,防潮門,2024-05-16,24.1835,120.4871,4.164984e-06
C0M740,六腳,2024-05-16,23.492871,120.290625,0.99952036
C1R250,力里,2024-05-16,22.428117,120.629228,0.9890104
C0K330,虎尾,2024-05-16,23.719183,120.442036,0.015623168
C2FA00,烏石坑,2024-05-16,24.273503,120.947617,2.3369835e-09
C0V620,永安,2024-05-16,22.82315,120.236856,0.9781147
C1I330,楓樹林,2024-05-16,23.986803,121.076117,9.103655e-10
C0W200,湖西,2024-05-16,23.596314,119.67275,0.0015207734
72Q010,高雄農改場,2024-05-16,22.709333,120.525889,0.99857354
C0SA40,瑞和,2024-05-16,22.974361,121.156697,0.9998957
C0C680,龜山,2024-05-16,25.02846,121.38656,0.00048389522
C2V260,月眉,2024-05-16,22.971003,120.539853,0.9937535
C0V450,鳳森,2024-05-16,22.545064,120.392592,0.9800261
C0U720,南山,2024-05-16,24.43742,121.38167,7.680569e-09
A2N290,臺南蘭花園區,2024-05-16,23.340258,120.379661,0.9991165
C0R560,新園,2024-05-16,22.5434,120.461558,0.9933292
C0U890,三星,2024-05-16,24.66812,121.65302,1.9173935e-07
C1V300,御油山,2024-05-16,23.001983,120.715364,7.672351e-10
C0U600,礁溪,2024-05-16,24.817539,121.765608,0.7328949
C1T980,龍澗,2024-05-16,24.023289,121.411328,1.6070793e-08
C0D670,海天一線,2024-05-16,24.831986,120.914438,0.01183345
C0SA00,歷坵,2024-05-16,22.520969,120.89185,3.6185178e-05
C0M710,東石,2024-05-16,23.458927,120.15385,0.00087808556
C0M780,鹿草,2024-05-16,23.41134,120.30835,0.9101536
C0U520,雙連埤,2024-05-16,24.753033,121.641303,8.553599e-09
C0B010,七堵,2024-05-16,25.094819,121.71713,0.99572206
C0R480,長治,2024-05-16,22.693128,120.542622,0.9970415
C1V830,國三S383K,2024-05-16,22.781967,120.426475,0.99928695
12Q980,恆春工作站,2024-05-16,22.079678,120.714425,0.660911
C1O940,東山服務區,2024-05-16,23.286016,120.398472,0.9978791
C1U840,東澳嶺,2024-05-16,24.5378,121.8485,2.3475177e-09
C1D630,飛鳳山,2024-05-16,24.766464,121.119178,2.1925775e-08
C0S940,石寧山,2024-05-16,23.223772,121.406639,0.67070913
C0K410,北港,2024-05-16,23.573957,120.292802,0.9940115
C2M620,瑞里,2024-05-16,23.545133,120.675197,1.4218766e-09
C2O950,安南,2024-05-16,23.076694,120.144861,0.6407694
C0F0E0,南湖圈谷,2024-05-16,24.363714,121.444667,1.9140678e-08
467610,成功,2024-05-16,23.097486,121.373428,0.9974346
C0G890,伸港,2024-05-16,24.148933,120.484403,7.6316755e-06
C2E540,龍溪,2024-05-16,24.606489,120.783933,3.5474451e-07
C1V200,梅山,2024-05-16,23.268447,120.823556,9.969755e-09
C0T9H0,加路蘭山,2024-05-16,23.682947,121.5274,1.5997722e-09
C2O930,玉井,2024-05-16,23.126042,120.46055,0.99754095
C1F911,新伯公,2024-05-16,24.221361,120.841069,0.11451882
C0R490,九如,2024-05-16,22.7405,120.490503,0.9984812
C0X200,左鎮,2024-05-16,23.056758,120.408522,0.9976905
C1F891,稍來,2024-05-16,24.265689,121.001142,4.0602184e-09
72N240,七股研究中心,2024-05-16,23.081672,120.062894,0.66207486
C0C700,中壢,2024-05-16,24.977661,121.256375,0.40258723
C0M690,水上,2024-05-16,23.419734,120.388909,0.99966556
C0V690,鼓山,2024-05-16,22.623325,120.275575,0.85197115
C0O860,大內,2024-05-16,23.11885,120.36083,0.9984821
C0Z200,萬榮,2024-05-16,23.709219,121.420106,3.664467e-08
C0T9D0,和中,2024-05-16,24.26676,121.74103,0.5368989
C1O921,楠西,2024-05-16,23.183511,120.484083,0.9972398
C0AJ30,淡水觀海,2024-05-16,25.184591,121.408616,0.9866226
C0V810,左營,2024-05-16,22.67491,120.28491,0.9753145
C0UA70,桃源谷,2024-05-16,24.962606,121.888875,5.127071e-08
C0X130,官田,2024-05-16,23.193217,120.315422,0.99768466
C1H000,翠峰,2024-05-16,24.109397,121.205211,2.0986977e-09
C0UA90,石城,2024-05-16,24.980444,121.951214,0.9975462
C1E681,南勢山,2024-05-16,24.421669,120.923831,1.4093053e-09
C0A9F0,內湖,2024-05-16,25.079422,121.57545,0.9985941
C0K291,宜梧,2024-05-16,23.536281,120.169329,0.01140295
C1K540,口湖,2024-05-16,23.585344,120.180517,0.8189926
C0R780,滿州,2024-05-16,22.024403,120.839892,0.58265334
C0V870,文安,2024-05-16,22.8025,120.2164,0.9775343
C0U650,玉蘭,2024-05-16,24.675286,121.587061,3.6642276e-09
C0R640,東港,2024-05-16,22.46247,120.44074,0.9984385
K2E360,苗栗農改,2024-05-16,24.495722,120.829111,1.69406e-08
C0AJ80,板橋,2024-05-16,25.0107,121.4489,0.9966602
C0S660,下馬,2024-05-16,23.150427,121.070312,4.774453e-09
C1H9B1,阿眉,2024-05-16,24.1263,120.994672,1.955295e-09
C0UA20,多加屯,2024-05-16,24.368614,121.373189,2.6343556e-09
C0E730,頭份,2024-05-16,24.688247,120.912206,1.0480876e-06
72V140,高改旗南分場,2024-05-16,22.857861,120.516667,0.9986903
C0K480,莿桐,2024-05-16,23.761192,120.502372,0.9450006
C0U980,坪林石牌,2024-05-16,24.86478,121.77396,1.6984592e-07
C0T900,西林,2024-05-16,23.8119,121.441458,1.2829815e-07
C1I150,青雲,2024-05-16,23.793361,120.949378,1.0199876e-08
467350,澎湖,2024-05-16,23.565503,119.563094,0.0034693712
C0G800,埔鹽,2024-05-16,24.000394,120.431683,0.0009289808
C0H960,草屯,2024-05-16,23.973672,120.68085,6.9648004e-06
C1V780,多納林道,2024-05-16,22.888028,120.737917,7.254911e-10
C0E920,通霄漁港,2024-05-16,24.498589,120.673876,1.73153e-06
C0Z330,安通山,2024-05-16,23.290728,121.348528,4.3055417e-09
C0AH10,永和,2024-05-16,25.01125,121.508111,0.9966609
C2G640,鹿港,2024-05-16,24.0753,120.430481,3.569085e-05
C1E890,國三N149K,2024-05-16,24.463414,120.680019,8.815959e-07
C1R110,口社,2024-05-16,22.770111,120.645222,0.995008
C1M870,國三N285K,2024-05-16,23.550319,120.505833,0.99901557
467050,新屋,2024-05-16,25.006744,121.047486,3.6510803e-05
C1E480,鳳美,2024-05-16,24.554803,121.034747,6.289815e-08
C0M530,奮起湖,2024-05-16,23.493903,120.699253,1.4705865e-09
C0C590,觀音,2024-05-16,25.027072,121.153317,0.0013655449
C0T9M0,靜浦,2024-05-16,23.455167,121.495028,0.1489984
C0AI40,石牌,2024-05-16,25.115597,121.513139,0.9767132
C1F871,上谷關,2024-05-16,24.203483,121.018644,1.25329e-09
C0G880,二水,2024-05-16,23.810742,120.6173,0.74074644
C0R940,加祿堂,2024-05-16,22.3363,120.6217,0.29465654
C0W220,北竿,2024-05-16,26.220358,119.974881,7.1675076e-06
C0O960,崎頂,2024-05-16,22.959547,120.369317,0.9978067
C0S750,向陽,2024-05-16,23.248397,120.986133,1.7581625e-09
C0T9F0,水璉,2024-05-16,23.797131,121.542514,1.577415e-08
C1M600,頭凍,2024-05-16,23.406364,120.603339,1.2630065e-09
467660,臺東,2024-05-16,22.752211,121.154586,0.97670376
C1D380,新埔,2024-05-16,24.84745,121.03834,1.1184682e-06
C0V750,路竹,2024-05-16,22.854997,120.259439,0.09893343
C0N050,蚵寮,2024-05-16,23.301,120.1104,0.007086778
72M700,南改鹿草分場,2024-05-16,23.416869,120.283061,0.9410352
C1SA50,利嘉林道,2024-05-16,22.82325,121.009389,6.9413044e-09
467550,玉山,2024-05-16,23.487614,120.959522,1.05000755e-08
C0A940,金山,2024-05-16,25.223628,121.643967,0.9953987
C1V340,大津,2024-05-16,22.888322,120.645986,0.99043554
C0W180,七美,2024-05-16,23.219333,119.444892,0.003141038
C1F9C1,白冷,2024-05-16,24.182844,120.929889,1.9203228e-06
K2E710,苗改生物防治研究中心,2024-05-16,24.422861,120.871833,6.35237e-05
C0N040,蘆竹溝,2024-05-16,23.2344,120.0961,0.05161284
C2W230,畜試所澎湖,2024-05-16,23.628342,119.513206,0.009098879
C0R880,後壁湖,2024-05-16,21.9457,120.7457,0.7011567
C1I280,埔中,2024-05-16,23.820778,120.642594,6.493769e-09
467790,墾丁雷達站,2024-05-16,21.948235,120.808028,0.6493933
C0W190,望安,2024-05-16,23.380564,119.494075,0.004718878
466881,新北,2024-05-16,24.9593,121.52,0.99677
C0Z170,卓溪,2024-05-16,23.3443,121.3029,6.19699e-05
C0F850,東勢,2024-05-16,24.246428,120.833047,5.421697e-06
466900,淡水,2024-05-16,25.164889,121.448906,0.8537914
C0I370,魚池,2024-05-16,23.895703,120.94135,8.0891016e-10
C0C630,大溪,2024-05-16,24.882853,121.265547,1.0860582e-05
C0A520,山佳,2024-05-16,24.974944,121.402008,0.99054223
C0I110,竹山,2024-05-16,23.761225,120.688156,0.34621975
82H840,茶改南部分場,2024-05-16,23.762528,120.7405,1.0796048e-08
C0G660,溪湖,2024-05-16,23.94835,120.479122,0.01136444
C1T800,洛韶,2024-05-16,24.204558,121.453956,1.6723543e-08
C1T810,慈恩,2024-05-16,24.192044,121.388386,1.0106124e-09
C1E451,象鼻,2024-05-16,24.368617,120.940228,1.6526744e-09
C0AC60,三峽,2024-05-16,24.939025,121.369728,0.95013314
C0I490,萬大林道,2024-05-16,23.928228,121.091411,8.0605167e-10
C1I290,豐丘,2024-05-16,23.668178,120.887417,2.304775e-09
C1I320,奧萬大,2024-05-16,23.952956,121.178556,7.779035e-10
C0U770,南澳,2024-05-16,24.44935,121.81022,2.091099e-08
C0A980,社子,2024-05-16,25.109508,121.469681,0.8706337
C0V800,六龜,2024-05-16,22.997889,120.633583,0.13286975
C1G9D0,國一S218K,2024-05-16,23.890641,120.493253,0.12743022
C2F9A0,中竹林,2024-05-16,24.103556,120.751061,7.310383e-08
C0FA40,臺中電廠,2024-05-16,24.2146,120.4907,4.164984e-06
C0H9C0,合歡山,2024-05-16,24.143442,121.272547,6.374682e-09
C0X060,下營,2024-05-16,23.22695,120.256261,0.9751843
G2M350,農試溪口農場,2024-05-16,23.58565,120.408111,0.9994562
C0U860,頭城,2024-05-16,24.85323,121.8308,0.80705464
C0R580,南州,2024-05-16,22.48591,120.50274,0.9984385
C0D430,峨眉,2024-05-16,24.6905,121.017189,7.091253e-08
C0G780,秀水,2024-05-16,24.03405,120.503869,0.000101893784
72N100,臺南農改場,2024-05-16,23.0605,120.342194,0.9985548
C0S900,蘭嶼高中,2024-05-16,22.04909,121.51214,0.87735295
467540,大武,2024-05-16,22.355675,120.903789,0.28092924
C1F9W0,德基,2024-05-16,24.254783,121.190261,2.9688652e-09
C1Z120,壽豐,2024-05-16,23.870853,121.508081,0.98626167
C0W160,烏坵,2024-05-16,24.9944,119.44956,0.9960066
C1I240,外大坪,2024-05-16,23.958697,120.917931,4.87493e-09
C1I550,國六W023K,2024-05-16,23.979067,120.867742,1.45494665e-08
C0R870,興海,2024-05-16,21.9752,120.8439,0.6560992
C0R140,瑪家,2024-05-16,22.682903,120.686639,1.802515e-07
C0A530,坪林,2024-05-16,24.938183,121.70975,0.0032674135
C0X260,後壁,2024-05-16,23.366358,120.362326,0.9991165
C0Z230,和平,2024-05-16,24.30717,121.77007,0.5912915
C0G770,福興,2024-05-16,24.041289,120.437669,0.0009289808
C0H9A0,神木村,2024-05-16,23.532742,120.843667,1.2366987e-09
C0I460,南投,2024-05-16,23.911469,120.687331,0.013634123
C0I480,梅峰,2024-05-16,24.085272,121.173572,9.2053637e-10
C1V570,吉東,2024-05-16,22.85422,120.5454,0.9988899
C2A560,福山,2024-05-16,24.776203,121.502811,2.4637131e-07
C0AH30,五分山,2024-05-16,25.07125,121.780794,4.901726e-09
C0FA10,松柏,2024-05-16,24.429115,120.617482,4.3848954e-06
72S200,東改班鳩分場,2024-05-16,22.829528,121.077694,0.99994105
72HA00,中改埔里分場,2024-05-16,23.903208,120.963364,1.8494996e-09
C0C650,平鎮,2024-05-16,24.897503,121.214636,0.046429798
C0S930,延平,2024-05-16,22.902581,121.084058,0.9999605
C0UA60,樟樹山,2024-05-16,24.41393,121.78325,2.6533124e-08
C1S670,摩天,2024-05-16,23.199503,121.027,1.2966382e-08
C0V630,茄萣,2024-05-16,22.906642,120.182608,0.11768854
466940,基隆,2024-05-16,25.133314,121.740475,0.99641335
C0X050,東河,2024-05-16,23.296598,120.385608,0.9974188
C0R770,保力,2024-05-16,22.071122,120.764111,0.6081935
G2L020,農試嘉義分所,2024-05-16,23.485028,120.473806,0.99890584
C0X240,關子嶺,2024-05-16,23.331169,120.508025,0.002004635
C0I380,集集,2024-05-16,23.828206,120.801467,2.2701289e-07
466990,花蓮,2024-05-16,23.975128,121.613275,0.98964065
C1V220,小關山,2024-05-16,23.154217,120.813603,1.0038997e-09
C1F9G1,慶福山,2024-05-16,24.180853,120.848378,1.6830348e-09
C0Z250,瑞穗林道,2024-05-16,23.49284,121.30688,1.6386917e-08
C0D590,新豐,2024-05-16,24.87068,120.97721,0.00017759792
C0A870,五指山,2024-05-16,25.132153,121.608692,2.798808e-08
C0UA50,西帽山,2024-05-16,24.555361,121.802628,2.0967852e-09
C0X160,仁德,2024-05-16,22.968258,120.257689,0.9265866
C1H971,六分寮,2024-05-16,23.92507,120.6378,4.9224248e-08
C0W120,西嶼,2024-05-16,23.5626,119.468436,0.0048708874
C0G650,員林,2024-05-16,23.946503,120.585597,0.8287799
C0AD50,鶯歌,2024-05-16,24.951533,121.346294,0.94081444
C0S990,山豬窟,2024-05-16,22.318619,120.857372,0.904559
72Q010,高雄農改,2024-05-16,22.709333,120.525889,0.99857354
C0X190,安平,2024-05-16,22.993161,120.152181,0.09549696
C0K400,斗六,2024-05-16,23.720583,120.541127,0.9781442
12J990,口湖工作站,2024-05-16,23.589978,120.180394,0.78086823
C0O830,北寮,2024-05-16,23.079561,120.495008,0.9841074
C1D410,白蘭,2024-05-16,24.579364,121.079947,1.0538935e-09
C0S970,加津林,2024-05-16,22.416211,120.926942,0.30870062
C0D700,關西,2024-05-16,24.7977,121.1732,4.446069e-07
C0M810,里佳,2024-05-16,23.389125,120.716647,1.1499761e-09
C0U750,龜山島,2024-05-16,24.841667,121.953133,8.095929e-06
C0R810,內獅,2024-05-16,22.305064,120.642986,0.29446274
C1M390,龍美,2024-05-16,23.406728,120.654417,1.0673827e-09
C1H840,國三N238K,2024-05-16,23.841008,120.707711,3.027547e-07
CAQ030,崎峰國小,2024-05-16,22.42565,120.49521,0.9984385
C2E520,大湖,2024-05-16,24.414939,120.870872,3.2760734e-05
467530,阿里山,2024-05-16,23.508208,120.813242,3.7820214e-09
C1E691,南湖,2024-05-16,24.40135,120.837533,5.2243934e-09
C0FA30,梧棲,2024-05-16,24.256003,120.523381,2.1402351e-05
C1V231,高中,2024-05-16,23.134911,120.716711,1.5397344e-08
C0F9V0,新社,2024-05-16,24.200172,120.815806,0.00024314894
C0H890,埔里,2024-05-16,23.972169,120.952425,4.243936e-09
C0R690,墾丁,2024-05-16,21.966756,120.810269,0.68976635
C0F0D0,審馬陣,2024-05-16,24.381675,121.4203,4.999186e-09
C0R820,白鷺,2024-05-16,22.454275,120.666219,1.7575155e-07
U2H480,臺大溪頭,2024-05-16,23.670306,120.798194,2.3122075e-09
C1V190,南天池,2024-05-16,23.27403,120.91176,1.8887893e-09
K2E360,苗栗農改場,2024-05-16,24.495722,120.829111,1.69406e-08
CAJ050,海口故事園區,2024-05-16,23.57543,120.14121,0.8189926
C0O990,媽廟,2024-05-16,22.99175,120.293525,0.9980247
C0D480,打鐵坑,2024-05-16,24.849664,121.150789,2.300895e-06
C0Z220,和平林道,2024-05-16,24.343922,121.656317,2.9925726e-09
72C440,桃園農改場,2024-05-16,24.950944,121.030583,0.00010086712
C1E711,馬拉邦山,2024-05-16,24.367306,120.901656,1.4563063e-09
C0D560,竹東,2024-05-16,24.767147,121.057881,8.451996e-07
C0F9U0,南屯,2024-05-16,24.137006,120.637969,1.6452488e-07
C0M720,番路,2024-05-16,23.464657,120.554156,0.997303
C0F0A0,雪山圈谷,2024-05-16,24.388594,121.236339,9.261584e-09
C1A9N0,四十份,2024-05-16,24.934158,121.593283,0.0005037772
C0U760,東澳,2024-05-16,24.52196,121.83318,0.00063173607
C0X230,鹽水,2024-05-16,23.272621,120.247641,0.0058133835
C0V370,古亭坑,2024-05-16,22.893178,120.401947,0.99491477
C1I340,新興橋,2024-05-16,23.563333,120.868728,3.4620686e-09
C0SA80,土坂,2024-05-16,22.453108,120.887572,0.84778196
C0R160,鹽埔,2024-05-16,22.739558,120.530778,0.99857354
C0AC40,大屯山,2024-05-16,25.175675,121.522408,4.969098e-09
466850,五分山雷達站,2024-05-16,25.071182,121.781205,4.6057385e-09
C1AI50,國三N016K,2024-05-16,25.034164,121.619664,0.99847955
C1V600,藤枝,2024-05-16,23.071961,120.757042,6.508063e-10
C1E601,南勢,2024-05-16,24.572486,120.734842,1.235131e-07
C0Z180,新城,2024-05-16,24.03946,121.60454,0.9905335
C0O980,新市,2024-05-16,23.061614,120.298197,0.9982856
C0K420,西螺,2024-05-16,23.800407,120.467394,0.016720273
C0Z050,佳心,2024-05-16,23.34567,121.21316,4.2375943e-09
C0AD30,蘆洲,2024-05-16,25.086594,121.472331,0.998622
C0V610,梓官,2024-05-16,22.760558,120.267211,0.9798849
K2F750,種苗改良場,2024-05-16,24.225972,120.800917,0.007029414
C0UA80,大溪漁港,2024-05-16,24.941801,121.902955,0.9967651
C1AI60,國一39K邊坡,2024-05-16,25.064361,121.383836,0.0025510956
C0W150,金寧,2024-05-16,24.457703,118.328989,0.67996
V2C250,八德合作社,2024-05-16,24.93775,121.266389,0.34346408
C0AH40,平等,2024-05-16,25.129142,121.577086,4.966044e-06
C0R540,佳冬,2024-05-16,22.419456,120.552375,0.5027361
466950,彭佳嶼,2024-05-16,25.627975,122.079744,0.99936104
C0A890,雙溪,2024-05-16,25.036003,121.864242,0.99752635
C0C480,桃園,2024-05-16,24.992425,121.323172,0.7387685
C0AH50,林口,2024-05-16,25.072181,121.38084,0.00019222165
A2K360,水試臺西試驗場,2024-05-16,23.717231,120.190522,0.9739302
B2N890,畜試所,2024-05-16,23.058972,120.336406,0.9985548
C0F9S0,烏日,2024-05-16,24.107058,120.624103,0.00021680932
C0C490,八德,2024-05-16,24.928708,121.283289,0.29392263
C0R190,赤山,2024-05-16,22.592333,120.614306,0.99617773
C0T820,天祥,2024-05-16,24.179597,121.495639,1.8843102e-06
C1F9E1,龍安,2024-05-16,24.1605,120.831961,3.671176e-08
C0V820,小林,2024-05-16,23.148408,120.63325,1.463062e-07
C2G870,芳苑,2024-05-16,23.922303,120.320025,0.032405183
C0E850,大河,2024-05-16,24.618069,120.948578,5.8860523e-06
C1U670,寒溪,2024-05-16,24.634,121.71691,6.76807e-06
C0N020,城西,2024-05-16,23.0568,120.0956,0.09549696
C1Z110,三棧,2024-05-16,24.11557,121.60501,1.6454685e-07
C0R280,檳榔,2024-05-16,22.076078,120.836777,0.73572296
C0F9L0,后里,2024-05-16,24.310436,120.729725,0.029574461
C0D540,橫山,2024-05-16,24.71116,121.11693,5.2155538e-05
C1D420,太閣南,2024-05-16,24.632808,121.160575,2.7332372e-09
C1E770,公館,2024-05-16,24.526914,120.830806,2.6682176e-08
CAN130,水試所海水繁養殖中心,2024-05-16,23.120802,120.07968,0.66207486
C1I430,翠華,2024-05-16,24.191961,121.224339,1.2700095e-09
C1M400,菜瓜坪,2024-05-16,23.251928,120.576103,1.1008418e-07
C0G730,二林,2024-05-16,23.903325,120.376081,0.056199193
72M360,南改義竹分場,2024-05-16,23.360694,120.279361,0.4484398
V2K620,麥寮合作社,2024-05-16,23.753836,120.294783,0.9973368
C0Z070,舞鶴,2024-05-16,23.46811,121.37407,1.1459704e-05
C0B040,大武崙,2024-05-16,25.166676,121.706993,0.99662703
C1Z030,紅葉,2024-05-16,23.493119,121.338806,5.4651628e-06
C1I050,丹大,2024-05-16,23.753747,121.141147,2.1820632e-09
C0I080,信義,2024-05-16,23.689694,120.851036,1.1821791e-07
C2A880,福隆,2024-05-16,25.017842,121.942083,0.9977915
C0Z160,鳳林,2024-05-16,23.746114,121.453411,8.8671186e-08
C0V210,復興,2024-05-16,23.222403,120.806089,1.3165392e-07
C0H990,昆陽,2024-05-16,24.121322,121.273642,5.2433906e-09
C0S710,鹿野,2024-05-16,22.917711,121.122994,0.9992895
C0I530,小奇萊,2024-05-16,24.131764,121.295717,5.7024803e-09
C0Z080,富源,2024-05-16,23.587642,121.378225,1.2477094e-08
467441,高雄,2024-05-16,22.7304,120.3125,0.97716105
C1I140,卡奈托灣,2024-05-16,23.754364,121.087872,6.740751e-10
C0I520,玉山風口,2024-05-16,23.470489,120.955994,1.2241228e-08
C1G691,下水埔,2024-05-16,23.816114,120.5676,0.90487593
C0X110,臺南市南區,2024-05-16,22.961189,120.188378,0.9265866
C0V680,仁武,2024-05-16,22.701083,120.347722,0.97581923
C2G840,北斗,2024-05-16,23.877586,120.514222,0.09739465
C0R900,竹坑,2024-05-16,22.1385,120.7022,0.6670327
C0K250,崙背,2024-05-16,23.75555,120.318925,0.997341
C0G860,社頭,2024-05-16,23.897647,120.5862,0.9788045
C0X150,安定,2024-05-16,23.102614,120.227839,0.98032916
C0R590,里港,2024-05-16,22.77919,120.49459,0.9991712
C0E610,馬都安,2024-05-16,24.451272,120.930192,2.9458735e-09
C0E550,明德,2024-05-16,24.583486,120.885411,3.2185834e-08
C0R150,三地門,2024-05-16,22.709889,120.639944,0.99438846
C0G910,花壇,2024-05-16,24.032076,120.549461,4.1762887e-05
C1D400,鳥嘴山,2024-05-16,24.71909,121.28387,1.5050327e-09
C0K500,元長,2024-05-16,23.64981,120.315024,0.99845564
C0F0B0,石岡,2024-05-16,24.276061,120.777644,0.00048574695
C2V250,甲仙,2024-05-16,23.080106,120.591758,0.04003003
C0SA20,金崙山,2024-05-16,22.567419,120.959667,8.87329e-09
C0V350,溪埔,2024-05-16,22.738578,120.446797,0.9988304
C0M660,溪口,2024-05-16,23.604131,120.403569,0.9994562
C1S880,壽卡,2024-05-16,22.238911,120.858903,0.7953196
72D680,桃改新埔分場,2024-05-16,24.834444,121.066111,1.5725223e-06
