站號,站名,日期,lat,lon,BlastGRU-TW
12J990,口湖工作站,2024-05-25,23.589978,120.180394,0.72431344
12Q970,東港工作站,2024-05-25,22.479997,120.466058,0.5034456
12Q980,恆春工作站,2024-05-25,22.079678,120.714425,0.032914724
466881,新北,2024-05-25,24.9593,121.52,0.83711696
466900,淡水,2024-05-25,25.164889,121.448906,0.97602767
466920,臺北,2024-05-25,25.037658,121.514853,0.9489858
466940,基隆,2024-05-25,25.133314,121.740475,0.8830802
466990,花蓮,2024-05-25,23.975128,121.613275,0.944218
467050,新屋,2024-05-25,25.006744,121.047486,0.8124237
467080,宜蘭,2024-05-25,24.763975,121.756528,0.87422
467270,田中,2024-05-25,23.873803,120.581286,0.91175294
467300,東吉島,2024-05-25,23.25695,119.667467,0.8789313
467350,澎湖,2024-05-25,23.565503,119.563094,0.88403803
467410,臺南,2024-05-25,22.993239,120.204772,0.60863566
467420,永康,2024-05-25,23.038386,120.2367,0.12605283
467441,高雄,2024-05-25,22.7304,120.3125,0.14651676
467480,嘉義,2024-05-25,23.495925,120.432906,0.9668506
467490,臺中,2024-05-25,24.145736,120.684075,0.9678865
467540,大武,2024-05-25,22.355675,120.903789,0.05981915
467571,新竹,2024-05-25,24.827853,121.014219,0.90282154
467590,恆春,2024-05-25,22.003897,120.746339,0.06873416
467610,成功,2024-05-25,23.097486,121.373428,0.70117867
467620,蘭嶼,2024-05-25,22.036969,121.558339,0.5592843
467660,臺東,2024-05-25,22.752211,121.154586,0.6791526
467790,墾丁雷達站,2024-05-25,21.948235,120.808028,0.055768326
72AI40,桃改樹林分場,2024-05-25,24.944503,121.386972,0.89072126
72C440,桃園農改,2024-05-25,24.950944,121.030583,0.81312335
72C440,桃園農改場,2024-05-25,24.950944,121.030583,0.81312335
72D680,桃改新埔分場,2024-05-25,24.834444,121.066111,0.8984918
72G600,臺中農改,2024-05-25,24.003028,120.534389,0.83894825
72G600,臺中農改場,2024-05-25,24.003028,120.534389,0.83894825
72K220,南改斗南分場,2024-05-25,23.634556,120.477333,0.9493388
72M360,南改義竹分場,2024-05-25,23.360694,120.279361,0.66502506
72M700,南改鹿草分場,2024-05-25,23.416869,120.283061,0.58658713
72N100,臺南農改,2024-05-25,23.0605,120.342194,0.23359197
72N100,臺南農改場,2024-05-25,23.0605,120.342194,0.23359197
72N240,七股研究中心,2024-05-25,23.081672,120.062894,0.7099005
72Q010,高雄農改,2024-05-25,22.709333,120.525889,0.3886774
72Q010,高雄農改場,2024-05-25,22.709333,120.525889,0.3886774
72S200,東改班鳩分場,2024-05-25,22.829528,121.077694,0.5385661
72S590,東改賓朗果園,2024-05-25,22.813889,121.071278,0.5790539
72T250,花蓮農改,2024-05-25,23.975222,121.563889,0.92688453
72T250,花蓮農改場,2024-05-25,23.975222,121.563889,0.92688453
72U480,花改蘭陽分場,2024-05-25,24.686306,121.716583,0.9276697
72V140,高改旗南分場,2024-05-25,22.857861,120.516667,0.065624066
82A750,茶改北部分場,2024-05-25,24.955778,121.631222,0.87675315
82C160,茶改場,2024-05-25,24.908472,121.185333,0.9658146
82H840,茶改南部分場,2024-05-25,23.762528,120.7405,0.77832186
82S580,茶改東部分場,2024-05-25,22.907694,121.130139,0.576639
A2C560,農工中心,2024-05-25,24.985917,121.239833,0.927291
A2K360,水試臺西試驗場,2024-05-25,23.717231,120.190522,0.7841701
A2K570,古坑花卉中心,2024-05-25,23.63353,120.55239,0.9606395
A2K630,臺大雲林校區,2024-05-25,23.730628,120.423903,0.945408
A2N290,臺南蘭花園區,2024-05-25,23.340258,120.379661,0.88529384
B2E890,畜試北區分所,2024-05-25,24.527806,120.770972,0.9753121
B2N890,畜產試驗所,2024-05-25,23.058972,120.336406,0.23359197
B2N890,畜試所,2024-05-25,23.058972,120.336406,0.23359197
B2Q810,畜試南區分所,2024-05-25,21.945583,120.802167,0.04383075
B2U990,畜試東區分所,2024-05-25,24.669039,121.832561,0.72698855
C0A520,山佳,2024-05-25,24.974944,121.402008,0.8921636
C0A530,坪林,2024-05-25,24.938183,121.70975,0.895659
C0A550,泰平,2024-05-25,24.971197,121.823711,0.4026391
C0A570,桶後,2024-05-25,24.848222,121.597992,0.82768595
C0A640,石碇,2024-05-25,24.993969,121.662917,0.8580768
C0A770,科教館,2024-05-25,25.096356,121.516507,0.9504515
C0A860,大坪,2024-05-25,25.165914,121.632969,0.8277886
C0A890,雙溪,2024-05-25,25.036003,121.864242,0.9448148
C0A931,三和,2024-05-25,25.233153,121.595236,0.91935533
C0A940,金山,2024-05-25,25.223628,121.643967,0.9719385
C0A950,鼻頭角,2024-05-25,25.129036,121.923372,0.92115414
C0A970,三貂角,2024-05-25,25.007606,122.002058,0.9876914
C0A980,社子,2024-05-25,25.109508,121.469681,0.9761317
C0A9C0,天母,2024-05-25,25.117494,121.537169,0.98256445
C0A9F0,內湖,2024-05-25,25.079422,121.57545,0.9566759
C0AC60,三峽,2024-05-25,24.939025,121.369728,0.8940676
C0AC70,信義,2024-05-25,25.037822,121.564597,0.95268506
C0AC80,文山,2024-05-25,25.00235,121.575728,0.8389583
C0ACA0,新莊,2024-05-25,25.051478,121.446756,0.9657661
C0AD00,三芝,2024-05-25,25.258131,121.501917,0.90180284
C0AD10,八里,2024-05-25,25.150211,121.403947,0.9788099
C0AD30,蘆洲,2024-05-25,25.086594,121.472331,0.9504515
C0AD40,土城,2024-05-25,24.973208,121.445169,0.80355036
C0AD50,鶯歌,2024-05-25,24.951533,121.346294,0.8984067
C0AG80,中和,2024-05-25,24.991622,121.491792,0.8011036
C0AH00,汐止,2024-05-25,25.066881,121.658778,0.9580421
C0AH10,永和,2024-05-25,25.01125,121.508111,0.7930277
C0AH40,平等,2024-05-25,25.129142,121.577086,0.73635733
C0AH50,林口,2024-05-25,25.072181,121.38084,0.9557358
C0AH70,松山,2024-05-25,25.04871,121.55042,0.95268506
C0AH80,深坑,2024-05-25,25.002703,121.628328,0.8249252
C0AI00,五股,2024-05-25,25.07445,121.42728,0.97209454
C0AI10,屈尺,2024-05-25,24.92184,121.54475,0.93709236
C0AI20,白沙灣,2024-05-25,25.283128,121.519058,0.89498097
C0AI30,三重,2024-05-25,25.057328,121.500629,0.9471959
C0AI40,石牌,2024-05-25,25.115597,121.513139,0.98130393
C0AJ20,野柳,2024-05-25,25.20703,121.690021,0.9792731
C0AJ30,淡水觀海,2024-05-25,25.184591,121.408616,0.9789798
C0AJ40,石門,2024-05-25,25.273672,121.601198,0.88805646
C0AJ50,水湳洞,2024-05-25,25.123695,121.862238,0.8751049
C0AJ60,六塊厝,2024-05-25,25.24,121.4481,0.90544295
C0AJ70,田寮,2024-05-25,25.2698,121.4886,0.89907795
C0AJ80,板橋,2024-05-25,25.0107,121.4489,0.7131659
C0AJ90,澳底,2024-05-25,25.0552,121.9253,0.9599588
C0B010,七堵,2024-05-25,25.094819,121.71713,0.8393719
C0B020,基隆嶼,2024-05-25,25.19141,121.78391,0.8062643
C0B040,大武崙,2024-05-25,25.166676,121.706993,0.87800753
C0B050,八斗子,2024-05-25,25.144754,121.79167,0.886483
C0B060,暖暖,2024-05-25,25.0957,121.7403,0.847056
C0C460,復興,2024-05-25,24.820208,121.352281,0.96228087
C0C480,桃園,2024-05-25,24.992425,121.323172,0.95365584
C0C490,八德,2024-05-25,24.928708,121.283289,0.89744633
C0C590,觀音,2024-05-25,25.027072,121.153317,0.8423077
C0C620,蘆竹,2024-05-25,25.084275,121.265767,0.8351644
C0C630,大溪,2024-05-25,24.882853,121.265547,0.980874
C0C650,平鎮,2024-05-25,24.897503,121.214636,0.8930232
C0C660,楊梅,2024-05-25,24.912375,121.143047,0.96745634
C0C670,龍潭,2024-05-25,24.870056,121.221389,0.97695726
C0C680,龜山,2024-05-25,25.02846,121.38656,0.9605003
C0C700,中壢,2024-05-25,24.977661,121.256375,0.96376127
C0C710,大溪永福,2024-05-25,24.892936,121.324975,0.96904856
C0C720,竹圍,2024-05-25,25.112692,121.239824,0.980674
C0C730,中大臨海站,2024-05-25,24.966126,121.008581,0.80097204
C0C740,觀音工業區,2024-05-25,25.064764,121.114856,0.831732
C0C750,新興坑尾,2024-05-25,25.0061,121.0971,0.8139807
C0D430,峨眉,2024-05-25,24.6905,121.017189,0.9556379
C0D480,打鐵坑,2024-05-25,24.849664,121.150789,0.97853047
C0D540,橫山,2024-05-25,24.71116,121.11693,0.966481
C0D560,竹東,2024-05-25,24.767147,121.057881,0.9664512
C0D580,寶山,2024-05-25,24.735006,121.025192,0.9777757
C0D590,新豐,2024-05-25,24.87068,120.97721,0.9224605
C0D650,湖口,2024-05-25,24.904794,121.043628,0.76673716
C0D660,新竹市東區,2024-05-25,24.798681,120.986942,0.97342
C0D670,海天一線,2024-05-25,24.831986,120.914438,0.92052776
C0D680,香山濕地,2024-05-25,24.783581,120.914988,0.9725556
C0D690,外湖,2024-05-25,24.917735,120.968711,0.7934846
C0D700,關西,2024-05-25,24.7977,121.1732,0.96939266
C0E420,竹南,2024-05-25,24.708978,120.888897,0.8409663
C0E430,南庄,2024-05-25,24.601775,121.000214,0.97666246
C0E550,明德,2024-05-25,24.583486,120.885411,0.95480275
C0E590,通霄,2024-05-25,24.471892,120.704622,0.71050495
C0E730,頭份,2024-05-25,24.688247,120.912206,0.80136967
C0E740,造橋,2024-05-25,24.637056,120.864778,0.8519019
C0E750,苗栗,2024-05-25,24.564569,120.824575,0.95374334
C0E780,銅鑼,2024-05-25,24.489681,120.790853,0.97281474
C0E791,卓蘭,2024-05-25,24.3126,120.8244,0.9803795
C0E810,西湖,2024-05-25,24.562947,120.7485,0.77526873
C0E820,獅潭,2024-05-25,24.539133,120.920042,0.977824
C0E830,苑裡,2024-05-25,24.439714,120.653053,0.84637916
C0E850,大河,2024-05-25,24.618069,120.948578,0.9803426
C0E870,高鐵苗栗,2024-05-25,24.60725,120.826094,0.8613657
C0E910,海埔,2024-05-25,24.648767,120.772435,0.89256597
C0E920,通霄漁港,2024-05-25,24.498589,120.673876,0.7318054
C0E930,龍鳳,2024-05-25,24.700034,120.859125,0.8413701
C0F0B0,石岡,2024-05-25,24.276061,120.777644,0.98324007
C0F850,東勢,2024-05-25,24.246428,120.833047,0.9783182
C0F970,大坑,2024-05-25,24.173142,120.722289,0.9742536
C0F9I0,神岡,2024-05-25,24.272481,120.658314,0.980837
C0F9K0,大安,2024-05-25,24.345061,120.588025,0.9229971
C0F9L0,后里,2024-05-25,24.310436,120.729725,0.98438936
C0F9M0,豐原,2024-05-25,24.254322,120.720692,0.9847482
C0F9N0,大里,2024-05-25,24.092464,120.701378,0.952278
C0F9O0,潭子,2024-05-25,24.213106,120.703933,0.9857144
C0F9P0,清水,2024-05-25,24.312297,120.562242,0.9137432
C0F9Q0,外埔,2024-05-25,24.347817,120.705686,0.9784377
C0F9R0,龍井,2024-05-25,24.184536,120.528972,0.8708163
C0F9S0,烏日,2024-05-25,24.107058,120.624103,0.94772863
C0F9T0,西屯,2024-05-25,24.179494,120.641275,0.8873628
C0F9U0,南屯,2024-05-25,24.137006,120.637969,0.89609003
C0F9X0,大雅(中科園區),2024-05-25,24.21528,120.62445,0.95723754
C0FA10,松柏,2024-05-25,24.429115,120.617482,0.84472424
C0FA20,溫寮,2024-05-25,24.372177,120.583125,0.92045623
C0FA30,梧棲,2024-05-25,24.256003,120.523381,0.914213
C0FA40,臺中電廠,2024-05-25,24.2146,120.4907,0.8708163
C0FA50,霧峰,2024-05-25,24.0419,120.6995,0.9659573
C0G620,芬園,2024-05-25,24.015678,120.6213,0.96234965
C0G650,員林,2024-05-25,23.946503,120.585597,0.9365013
C0G660,溪湖,2024-05-25,23.94835,120.479122,0.8603639
C0G720,溪州,2024-05-25,23.851589,120.499093,0.9092548
C0G730,二林,2024-05-25,23.903325,120.376081,0.8852563
C0G740,大城,2024-05-25,23.852487,120.320935,0.84223956
C0G770,福興,2024-05-25,24.041289,120.437669,0.87683535
C0G780,秀水,2024-05-25,24.03405,120.503869,0.85481656
C0G800,埔鹽,2024-05-25,24.000394,120.431683,0.8583501
C0G810,埔心,2024-05-25,23.947633,120.525456,0.8626498
C0G820,田尾,2024-05-25,23.901669,120.509389,0.8639189
C0G830,埤頭,2024-05-25,23.866003,120.452806,0.90780896
C0G860,社頭,2024-05-25,23.897647,120.5862,0.90937525
C0G880,二水,2024-05-25,23.810742,120.6173,0.9088613
C0G890,伸港,2024-05-25,24.148933,120.484403,0.9126731
C0G900,線西,2024-05-25,24.143358,120.443536,0.92812717
C0G910,花壇,2024-05-25,24.032076,120.549461,0.85913444
C0G920,永靖,2024-05-25,23.924703,120.547533,0.85404766
C0G940,竹塘,2024-05-25,23.848253,120.386764,0.8554698
C0G950,防潮門,2024-05-25,24.1835,120.4871,0.8708163
C0G960,福寶,2024-05-25,24.0443,120.3814,0.9231626
C0G970,三豐,2024-05-25,23.882,120.2895,0.8540706
C0H890,埔里,2024-05-25,23.972169,120.952425,0.9722127
C0H960,草屯,2024-05-25,23.973672,120.68085,0.95888543
C0I110,竹山,2024-05-25,23.761225,120.688156,0.92995316
C0I360,水里,2024-05-25,23.812553,120.849792,0.89639705
C0I380,集集,2024-05-25,23.828206,120.801467,0.8802909
C0I410,名間,2024-05-25,23.837053,120.701447,0.97504413
C0I420,國姓,2024-05-25,24.037803,120.855072,0.9649245
C0I460,南投,2024-05-25,23.911469,120.687331,0.91413134
C0K250,崙背,2024-05-25,23.75555,120.318925,0.9128898
C0K280,四湖,2024-05-25,23.630414,120.227125,0.7638876
C0K291,宜梧,2024-05-25,23.536281,120.169329,0.7016095
C0K330,虎尾,2024-05-25,23.719183,120.442036,0.94843054
C0K390,土庫,2024-05-25,23.679029,120.395574,0.9432445
C0K400,斗六,2024-05-25,23.720583,120.541127,0.9510496
C0K410,北港,2024-05-25,23.573957,120.292802,0.8006214
C0K420,西螺,2024-05-25,23.800407,120.467394,0.92288375
C0K430,褒忠,2024-05-25,23.690938,120.303634,0.9144504
C0K440,二崙,2024-05-25,23.772797,120.408944,0.92571807
C0K450,大埤,2024-05-25,23.646074,120.431537,0.9497863
C0K460,斗南,2024-05-25,23.678734,120.478359,0.9505334
C0K470,林內,2024-05-25,23.748675,120.609642,0.9531081
C0K480,莿桐,2024-05-25,23.761192,120.502372,0.9629284
C0K500,元長,2024-05-25,23.64981,120.315024,0.89608186
C0K510,水林,2024-05-25,23.572924,120.24597,0.7711827
C0K530,臺西,2024-05-25,23.701547,120.197559,0.7914073
C0K550,蔦松,2024-05-25,23.514319,120.229736,0.6864649
C0K560,棋山,2024-05-25,23.68645,120.603417,0.9629603
C0K580,高鐵雲林,2024-05-25,23.737456,120.417944,0.945408
C0K590,雲林東勢,2024-05-25,23.674192,120.255721,0.901384
C0K600,箔子寮,2024-05-25,23.6197,120.14,0.75860196
C0M520,東後寮,2024-05-25,23.369908,120.248065,0.66502506
C0M640,中埔,2024-05-25,23.42538,120.5229,0.9725322
C0M650,朴子,2024-05-25,23.43463,120.23902,0.6022183
C0M660,溪口,2024-05-25,23.604131,120.403569,0.9605408
C0M670,大林,2024-05-25,23.600616,120.45841,0.96250045
C0M680,太保,2024-05-25,23.455062,120.331455,0.7473176
C0M690,水上,2024-05-25,23.419734,120.388909,0.8267333
C0M700,竹崎,2024-05-25,23.526178,120.555508,0.89117414
C0M710,東石,2024-05-25,23.458927,120.15385,0.8108223
C0M720,番路,2024-05-25,23.464657,120.554156,0.9789067
C0M730,嘉義市東區,2024-05-25,23.457673,120.460531,0.9099304
C0M740,六腳,2024-05-25,23.492871,120.290625,0.75202054
C0M750,布袋,2024-05-25,23.380878,120.167789,0.66006255
C0M760,民雄,2024-05-25,23.551754,120.428457,0.96023273
C0M770,嘉義梅山,2024-05-25,23.585398,120.555587,0.95868874
C0M780,鹿草,2024-05-25,23.41134,120.30835,0.6168858
C0M790,新港,2024-05-25,23.553269,120.345728,0.9234245
C0M800,茶山,2024-05-25,23.299075,120.664767,0.9655376
C0M880,好美里,2024-05-25,23.3364,120.138,0.80804294
C0N010,鯤鯓國小,2024-05-25,23.1879,120.0889,0.73647135
C0N020,城西,2024-05-25,23.0568,120.0956,0.58644634
C0N030,四草,2024-05-25,23.0235,120.1116,0.6079505
C0N040,蘆竹溝,2024-05-25,23.2344,120.0961,0.78
C0N050,蚵寮,2024-05-25,23.301,120.1104,0.8088141
C0O830,北寮,2024-05-25,23.079561,120.495008,0.4730511
C0O840,王爺宮,2024-05-25,23.222064,120.40085,0.69019544
C0O860,大內,2024-05-25,23.11885,120.36083,0.2230766
C0O900,善化,2024-05-25,23.112883,120.297219,0.18587035
C0O960,崎頂,2024-05-25,22.959547,120.369317,0.22977427
C0O970,虎頭埤,2024-05-25,23.021375,120.347878,0.10833668
C0O980,新市,2024-05-25,23.061614,120.298197,0.18335408
C0O990,媽廟,2024-05-25,22.99175,120.293525,0.14073871
C0R150,三地門,2024-05-25,22.709889,120.639944,0.639656
C0R160,鹽埔,2024-05-25,22.739558,120.530778,0.42177817
C0R170,屏東,2024-05-25,22.660269,120.494072,0.14452484
C0R190,赤山,2024-05-25,22.592333,120.614306,0.35066438
C0R220,潮州,2024-05-25,22.534361,120.54,0.20613527
C0R240,來義,2024-05-25,22.527306,120.625111,0.3100636
C0R260,春日,2024-05-25,22.370361,120.628306,0.15288907
C0R270,琉球嶼,2024-05-25,22.332244,120.362236,0.7019008
C0R280,檳榔,2024-05-25,22.076078,120.836777,0.14246133
C0R320,車城,2024-05-25,22.0744,120.716247,0.032914724
C0R341,牡丹,2024-05-25,22.130036,120.792639,0.12824316
C0R350,貓鼻頭,2024-05-25,21.921774,120.7358,0.029764054
C0R470,高樹,2024-05-25,22.826389,120.600806,0.10372538
C0R480,長治,2024-05-25,22.693128,120.542622,0.086353816
C0R490,九如,2024-05-25,22.7405,120.490503,0.39700612
C0R520,崁頂,2024-05-25,22.514781,120.506914,0.19956301
C0R540,佳冬,2024-05-25,22.419456,120.552375,0.13428035
C0R550,新埤,2024-05-25,22.467947,120.582894,0.5642888
C0R560,新園,2024-05-25,22.5434,120.461558,0.19862676
C0R570,麟洛,2024-05-25,22.65078,120.52719,0.14452484
C0R580,南州,2024-05-25,22.48591,120.50274,0.50792885
C0R590,里港,2024-05-25,22.77919,120.49459,0.05927306
C0R620,墾雷,2024-05-25,21.900836,120.855269,0.043312587
C0R640,東港,2024-05-25,22.46247,120.44074,0.5606253
C0R650,竹田,2024-05-25,22.58486,120.54344,0.3026184
C0R660,枋寮,2024-05-25,22.367722,120.590647,0.11007445
C0R670,楓港,2024-05-25,22.190131,120.692156,0.03048706
C0R680,佳樂水,2024-05-25,21.993578,120.861633,0.045647807
C0R690,墾丁,2024-05-25,21.966756,120.810269,0.20127092
C0R700,枋山,2024-05-25,22.246844,120.661086,0.12626415
C0R710,龍磐,2024-05-25,21.931672,120.838942,0.052128058
C0R720,旭海,2024-05-25,22.205403,120.887614,0.27797082
C0R730,大坪頂,2024-05-25,22.024633,120.69355,0.086636126
C0R740,獅子,2024-05-25,22.201569,120.70525,0.039262753
C0R760,南仁湖,2024-05-25,22.084681,120.863353,0.31872788
C0R770,保力,2024-05-25,22.071122,120.764111,0.04962333
C0R780,滿州,2024-05-25,22.024403,120.839892,0.08093953
C0R790,九棚,2024-05-25,22.14195,120.889281,0.108812615
C0R800,丹路,2024-05-25,22.204481,120.750989,0.049394675
C0R810,內獅,2024-05-25,22.305064,120.642986,0.060007043
C0R830,高士,2024-05-25,22.121825,120.836781,0.35485178
C0R850,林邊,2024-05-25,22.4634,120.5339,0.52843475
C0R860,鼻頭,2024-05-25,22.1043,120.8979,0.028726159
C0R870,興海,2024-05-25,21.9752,120.8439,0.04383075
C0R880,後壁湖,2024-05-25,21.9457,120.7457,0.0453193
C0R890,山海,2024-05-25,21.9878,120.7091,0.046399374
C0R900,竹坑,2024-05-25,22.1385,120.7022,0.033618994
C0R910,下寮,2024-05-25,22.3929,120.5548,0.13428035
C0R920,塭仔,2024-05-25,22.4169,120.5197,0.1516371
C0R930,萬丹,2024-05-25,22.5885,120.4851,0.11115854
C0R940,加祿堂,2024-05-25,22.3363,120.6217,0.059380632
C0S710,鹿野,2024-05-25,22.917711,121.122994,0.71514094
C0S730,綠島,2024-05-25,22.6672,121.47533,0.5429191
C0S740,池上,2024-05-25,23.119628,121.209469,0.8794338
C0S770,大溪山,2024-05-25,22.478475,120.943325,0.71402526
C0S790,金崙,2024-05-25,22.538122,120.966875,0.92174274
C0S810,東河,2024-05-25,22.972672,121.303986,0.45907074
C0S830,長濱,2024-05-25,23.286817,121.411975,0.97779596
C0S840,南田,2024-05-25,22.279725,120.889208,0.11580634
C0S890,關山,2024-05-25,23.0395,121.175017,0.92875516
C0S900,蘭嶼高中,2024-05-25,22.04909,121.51214,0.15351582
C0S910,蘭嶼燈塔,2024-05-25,22.081197,121.503117,0.29344508
C0S920,金峰嘉蘭,2024-05-25,22.594789,120.960825,0.9336247
C0S930,延平,2024-05-25,22.902581,121.084058,0.41952142
C0S940,石寧山,2024-05-25,23.223772,121.406639,0.8869625
C0S950,七塊厝,2024-05-25,22.954453,121.229922,0.67731506
C0S960,香蘭,2024-05-25,22.587569,120.993375,0.8035992
C0S970,加津林,2024-05-25,22.416211,120.926942,0.054605052
C0S990,山豬窟,2024-05-25,22.318619,120.857372,0.77973986
C0SA00,歷坵,2024-05-25,22.520969,120.89185,0.8686292
C0SA10,檳榔四格山,2024-05-25,22.810031,121.109308,0.5846642
C0SA30,都歷,2024-05-25,23.020333,121.323642,0.9148918
C0SA40,瑞和,2024-05-25,22.974361,121.156697,0.77108955
C0SA60,知本（水試所）,2024-05-25,22.702394,121.082761,0.7799398
C0SA80,土坂,2024-05-25,22.453108,120.887572,0.4087264
C0SA90,達仁林場,2024-05-25,22.264347,120.823972,0.21432772
C0T870,鯉魚潭,2024-05-25,23.935639,121.508944,0.97620106
C0T900,西林,2024-05-25,23.8119,121.441458,0.96538204
C0T960,光復,2024-05-25,23.660694,121.424964,0.9493614
C0T9A0,月眉山,2024-05-25,23.809928,121.539828,0.9305255
C0T9D0,和中,2024-05-25,24.26676,121.74103,0.9233398
C0T9E0,大坑,2024-05-25,23.880628,121.581981,0.96622217
C0T9F0,水璉,2024-05-25,23.797131,121.542514,0.95851916
C0T9I0,豐濱,2024-05-25,23.583897,121.514806,0.9439619
C0T9M0,靜浦,2024-05-25,23.455167,121.495028,0.969106
C0T9N0,富里,2024-05-25,23.171639,121.249378,0.9179923
C0U600,礁溪,2024-05-25,24.817539,121.765608,0.9403931
C0U650,玉蘭,2024-05-25,24.675286,121.587061,0.9289672
C0U750,龜山島,2024-05-25,24.841667,121.953133,0.9571497
C0U760,東澳,2024-05-25,24.52196,121.83318,0.96627885
C0U770,南澳,2024-05-25,24.44935,121.81022,0.9511346
C0U780,五結,2024-05-25,24.68637,121.79794,0.9112644
C0U860,頭城,2024-05-25,24.85323,121.8308,0.966618
C0U870,大礁溪,2024-05-25,24.791042,121.675047,0.76099354
C0U880,北關,2024-05-25,24.9072,121.8734,0.98122996
C0U890,三星,2024-05-25,24.66812,121.65302,0.95852387
C0U900,內城,2024-05-25,24.71813,121.68766,0.9193531
C0U910,冬山,2024-05-25,24.63373,121.7937,0.72698855
C0U940,羅東,2024-05-25,24.68184,121.74934,0.9232387
C0U970,大福,2024-05-25,24.80064,121.81389,0.9309845
C0U990,員山,2024-05-25,24.74435,121.72247,0.9613211
C0UA00,土場,2024-05-25,24.576533,121.495333,0.82454723
C0UA80,大溪漁港,2024-05-25,24.941801,121.902955,0.9547319
C0UA90,石城,2024-05-25,24.980444,121.951214,0.9853468
C0UB00,淡江大學蘭陽校園,2024-05-25,24.823239,121.730383,0.845681
C0UB10,蘇澳,2024-05-25,24.5969,121.8571,0.9132111
C0UB20,壯圍,2024-05-25,24.7359,121.8163,0.97580034
C0V310,美濃,2024-05-25,22.898742,120.519153,0.06875168
C0V350,溪埔,2024-05-25,22.738578,120.446797,0.062348787
C0V360,內門,2024-05-25,22.975481,120.466769,0.13368179
C0V370,古亭坑,2024-05-25,22.893178,120.401947,0.124525584
C0V400,阿公店,2024-05-25,22.804194,120.355528,0.09367049
C0V440,鳳山,2024-05-25,22.646653,120.356122,0.4051235
C0V450,鳳森,2024-05-25,22.545064,120.392592,0.26273072
C0V490,新興,2024-05-25,22.627422,120.298803,0.17066
C0V530,阿蓮,2024-05-25,22.883208,120.327508,0.21218343
C0V610,梓官,2024-05-25,22.760558,120.267211,0.15416825
C0V620,永安,2024-05-25,22.82315,120.236856,0.34095684
C0V630,茄萣,2024-05-25,22.906642,120.182608,0.7340012
C0V640,湖內,2024-05-25,22.887139,120.2445,0.62922794
C0V650,彌陀,2024-05-25,22.783806,120.246361,0.34095684
C0V660,岡山,2024-05-25,22.797078,120.294958,0.3180511
C0V680,仁武,2024-05-25,22.701083,120.347722,0.36485985
C0V690,鼓山,2024-05-25,22.623325,120.275575,0.20457113
C0V700,三民,2024-05-25,22.645017,120.311233,0.3851809
C0V710,苓雅,2024-05-25,22.622742,120.330669,0.1809238
C0V720,林園,2024-05-25,22.507747,120.394511,0.22569676
C0V730,大寮,2024-05-25,22.605614,120.395717,0.17351717
C0V740,旗山,2024-05-25,22.888614,120.483597,0.07388808
C0V750,路竹,2024-05-25,22.854997,120.259439,0.63911337
C0V760,橋頭,2024-05-25,22.757806,120.30575,0.14164585
C0V770,大社,2024-05-25,22.730306,120.346639,0.14569592
C0V790,萬山,2024-05-25,22.905944,120.688056,0.6682485
C0V800,六龜,2024-05-25,22.997889,120.633583,0.6737478
C0V810,左營,2024-05-25,22.67491,120.28491,0.3851809
C0V820,小林,2024-05-25,23.148408,120.63325,0.96704334
C0V840,鳳鼻頭,2024-05-25,22.5083,120.3591,0.21677111
C0V850,蚵仔寮,2024-05-25,22.7256,120.2527,0.15022327
C0V860,南寮,2024-05-25,22.7616,120.2339,0.15022327
C0V870,文安,2024-05-25,22.8025,120.2164,0.45599255
C0V880,興達,2024-05-25,22.8778,120.2127,0.7340012
C0V890,前鎮,2024-05-25,22.5718,120.3117,0.18739209
C0V900,汕尾,2024-05-25,22.4782,120.4151,0.5034456
C0W200,湖西,2024-05-25,23.596314,119.67275,0.90766466
C0X050,東河,2024-05-25,23.296598,120.385608,0.5679831
C0X060,下營,2024-05-25,23.22695,120.256261,0.25234282
C0X080,佳里,2024-05-25,23.173039,120.145086,0.7121593
C0X100,臺南市北區,2024-05-25,23.010394,120.194228,0.56407416
C0X110,臺南市南區,2024-05-25,22.961189,120.188378,0.21315895
C0X120,麻豆,2024-05-25,23.183289,120.248611,0.34472784
C0X130,官田,2024-05-25,23.193217,120.315422,0.13181911
C0X140,西港,2024-05-25,23.125608,120.203108,0.48185587
C0X150,安定,2024-05-25,23.102614,120.227839,0.46823293
C0X160,仁德,2024-05-25,22.968258,120.257689,0.190876
C0X170,關廟,2024-05-25,22.963017,120.327797,0.13498858
C0X180,山上,2024-05-25,23.0757,120.363253,0.21488212
C0X190,安平,2024-05-25,22.993161,120.152181,0.6274515
C0X200,左鎮,2024-05-25,23.056758,120.408522,0.101955555
C0X210,白河,2024-05-25,23.347466,120.414427,0.9515349
C0X220,學甲,2024-05-25,23.230367,120.182187,0.7574817
C0X230,鹽水,2024-05-25,23.272621,120.247641,0.7468151
C0X240,關子嶺,2024-05-25,23.331169,120.508025,0.97221553
C0X250,新營,2024-05-25,23.310689,120.316681,0.3713588
C0X260,後壁,2024-05-25,23.366358,120.362326,0.88529384
C0X280,將軍,2024-05-25,23.214999,120.13577,0.76994425
C0X290,北門,2024-05-25,23.267772,120.125481,0.78
C0X300,鹿寮,2024-05-25,23.386047,120.477331,0.9687539
C0X320,柳營,2024-05-25,23.253328,120.375253,0.11771485
C0Z020,明里,2024-05-25,23.208717,121.262342,0.8367957
C0Z061,玉里,2024-05-25,23.3215,121.339656,0.9842849
C0Z070,舞鶴,2024-05-25,23.46811,121.37407,0.967744
C0Z080,富源,2024-05-25,23.587642,121.378225,0.9834153
C0Z100,東華,2024-05-25,23.89525,121.549833,0.9806462
C0Z150,吉安光華,2024-05-25,23.930925,121.595153,0.9736505
C0Z160,鳳林,2024-05-25,23.746114,121.453411,0.9833759
C0Z170,卓溪,2024-05-25,23.3443,121.3029,0.98438275
C0Z180,新城,2024-05-25,24.03946,121.60454,0.93784684
C0Z190,富世,2024-05-25,24.14743,121.6297,0.74739975
C0Z200,萬榮,2024-05-25,23.709219,121.420106,0.9829851
C0Z210,瑞穗,2024-05-25,23.5239,121.39021,0.97719276
C0Z230,和平,2024-05-25,24.30717,121.77007,0.95805925
C0Z270,蕃薯寮,2024-05-25,23.73835,121.540108,0.972586
C0Z280,德武,2024-05-25,23.47426,121.41071,0.95673823
C0Z300,東里,2024-05-25,23.26853,121.30547,0.8772526
C0Z310,清水斷崖,2024-05-25,24.218294,121.689142,0.66878414
C0Z330,安通山,2024-05-25,23.290728,121.348528,0.96095866
C2E520,大湖,2024-05-25,24.414939,120.870872,0.96768624
C2E540,後龍,2024-05-25,24.606489,120.783933,0.86222607
C2F000,大肚,2024-05-25,24.15295,120.572117,0.97716576
C2F930,大甲,2024-05-25,24.347667,120.640403,0.9302823
C2F9A0,中竹林,2024-05-25,24.103556,120.751061,0.9645232
C2G640,鹿港,2024-05-25,24.0753,120.430481,0.9154541
C2G840,北斗,2024-05-25,23.877586,120.514222,0.90557265
C2G870,芳苑,2024-05-25,23.922303,120.320025,0.9009465
C2H950,中寮,2024-05-25,23.884447,120.766406,0.98120344
C2M410,馬頭山,2024-05-25,23.324361,120.582017,0.9783018
C2N160,西拉雅風管處,2024-05-25,23.189481,120.335297,0.14403054
C2O810,曾文,2024-05-25,23.219681,120.497328,0.789195
C2O930,玉井,2024-05-25,23.126042,120.46055,0.22052433
C2O950,安南,2024-05-25,23.076694,120.144861,0.6907746
C2V250,甲仙,2024-05-25,23.080106,120.591758,0.9680579
C2V260,月眉,2024-05-25,22.971003,120.539853,0.17954814
C2W230,畜試所澎湖,2024-05-25,23.628342,119.513206,0.89613205
CAG100,王功漁港,2024-05-25,23.96824,120.32586,0.9172998
CAH030,茶改場竹圍站,2024-05-25,23.860083,120.637528,0.98443776
CAJ050,海口故事園區,2024-05-25,23.57543,120.14121,0.75860196
CAL110,布袋國中,2024-05-25,23.35893,120.18026,0.66632545
CAN130,水試所海水繁養殖中心,2024-05-25,23.120802,120.07968,0.7099005
CAN140,六官養殖協會,2024-05-25,23.22881,120.29962,0.2556543
CAQ030,崎峰國小,2024-05-25,22.42565,120.49521,0.5438695
E2K600,四湖植物園,2024-05-25,23.676986,120.163433,0.7883851
E2P980,林試六龜中心,2024-05-25,22.991703,120.645722,0.74205387
E2S960,林試太麻里2,2024-05-25,22.598014,120.989761,0.8035992
E2S960,林試太麻里2,2024-05-25,22.598,120.99775,0.7729545
E2S980,林試太麻里1,2024-05-25,22.598922,120.980044,0.92836666
G2AI50,關渡,2024-05-25,25.11575,121.492,0.9768491
G2F820,農業試驗所,2024-05-25,24.031261,120.688133,0.9653305
G2F820,農試所(霧峰),2024-05-25,24.031261,120.688133,0.9653305
G2L020,農試嘉義分所,2024-05-25,23.485028,120.473806,0.8959371
G2M350,農試溪口農場,2024-05-25,23.58565,120.408111,0.9593808
G2P820,農試鳳山分所,2024-05-25,22.646611,120.356083,0.4051235
K2E360,苗栗農改,2024-05-25,24.495722,120.829111,0.9722837
K2E360,苗栗農改場,2024-05-25,24.495722,120.829111,0.9722837
K2E710,苗改生物防治研究中心,2024-05-25,24.422861,120.871833,0.9737731
K2F750,種苗改良場,2024-05-25,24.225972,120.800917,0.9782805
K2F750,種苗繁殖,2024-05-25,24.225972,120.800917,0.9782805
U2HA50,臺大竹山,2024-05-25,23.756972,120.681556,0.96787095
V2C250,八德合作社,2024-05-25,24.93775,121.266389,0.9022882
V2C260,八德蔬果,2024-05-25,24.978508,121.281819,0.9548251
V2K610,大庄合作社,2024-05-25,23.8068,120.367939,0.90849376
V2K620,麥寮合作社,2024-05-25,23.753836,120.294783,0.9128898
