站號,站名,日期,lat,lon,BLBTSLS
C0R710,龍磐,2024-03-20,21.931672,120.838942,0.9918893
C1F9D1,白毛台,2024-03-20,24.158325,120.886933,8.575205e-10
C0G940,竹塘,2024-03-20,23.848253,120.386764,3.7060044e-10
467590,恆春,2024-03-20,22.003897,120.746339,0.9999068
C1O850,環湖,2024-03-20,23.148617,120.418633,2.0429032e-09
C0U710,太平山,2024-03-20,24.505486,121.525656,1.1683201e-08
C0E820,獅潭,2024-03-20,24.539133,120.920042,1.9806277e-09
C0V880,興達,2024-03-20,22.8778,120.2127,6.3321687e-10
C0S890,關山,2024-03-20,23.0395,121.175017,8.614254e-10
K2F750,種苗繁殖,2024-03-20,24.225972,120.800917,1.127183e-09
C1Z130,銅門,2024-03-20,23.965694,121.492842,3.4976777e-09
C0AD40,土城,2024-03-20,24.973208,121.445169,1.2263779e-08
CAN140,六官養殖協會,2024-03-20,23.22881,120.29962,1.4035807e-09
C0X180,山上,2024-03-20,23.0757,120.363253,1.3795528e-09
C0F9Z0,雪山東峰,2024-03-20,24.388792,121.268675,2.733442e-08
C1M480,獨立山,2024-03-20,23.537022,120.607797,7.202642e-10
C0X220,學甲,2024-03-20,23.230367,120.182187,3.794505e-10
C0R170,屏東,2024-03-20,22.660269,120.494072,7.811567e-10
467650,日月潭,2024-03-20,23.881325,120.90805,2.2265567e-09
C0K600,箔子寮,2024-03-20,23.6197,120.14,4.8608334e-10
C0G830,埤頭,2024-03-20,23.866003,120.452806,3.6878894e-10
C0S950,七塊厝,2024-03-20,22.954453,121.229922,1.4490524e-09
467110,金門,2024-03-20,24.407306,118.289281,4.397981e-08
C0AH80,深坑,2024-03-20,25.002703,121.628328,1.19698225e-08
467990,馬祖,2024-03-20,26.169269,119.923419,5.604039e-08
C0A970,三貂角,2024-03-20,25.007606,122.002058,8.201573e-08
C0K430,褒忠,2024-03-20,23.690938,120.303634,2.9074343e-10
467480,嘉義,2024-03-20,23.495925,120.432906,1.0200727e-09
C2E540,後龍,2024-03-20,24.606489,120.783933,3.7208874e-09
C0V400,阿公店,2024-03-20,22.804194,120.355528,3.672405e-10
C0R440,大漢山,2024-03-20,22.405264,120.753181,2.3195499e-08
C0K280,四湖,2024-03-20,23.630414,120.227125,4.1098167e-10
C1F9B1,桐林,2024-03-20,24.066172,120.735194,3.3378939e-10
C0K390,土庫,2024-03-20,23.679029,120.395574,3.982892e-10
C1I450,望鄉山,2024-03-20,23.594153,120.944286,1.1196476e-08
C0E910,海埔,2024-03-20,24.648767,120.772435,3.7076324e-09
B2E890,畜試北區分所,2024-03-20,24.527806,120.770972,2.0038944e-09
C0R750,四林格山,2024-03-20,22.076989,120.802439,0.008811834
C0F0C0,中坑,2024-03-20,24.248517,120.903319,1.5473527e-09
C1I121,大鞍,2024-03-20,23.678381,120.760017,4.844952e-09
72U480,花改蘭陽分場,2024-03-20,24.686306,121.716583,1.8839643e-09
C0A770,科教館,2024-03-20,25.096356,121.516507,2.9117642e-09
C0AJ60,六塊厝,2024-03-20,25.24,121.4481,3.4654076e-07
C0R620,墾雷,2024-03-20,21.900836,120.855269,0.9969927
467420,永康,2024-03-20,23.038386,120.2367,5.515994e-10
467300,東吉島,2024-03-20,23.25695,119.667467,0.7446559
C0I410,名間,2024-03-20,23.837053,120.701447,3.712591e-10
A2C560,農工中心,2024-03-20,24.985917,121.239833,2.1657067e-08
C0V740,旗山,2024-03-20,22.888614,120.483597,1.6163684e-09
C0Z061,玉里,2024-03-20,23.3215,121.339656,2.254251e-09
C0S840,南田,2024-03-20,22.279725,120.889208,0.99990356
C1I470,杉林溪,2024-03-20,23.639517,120.786444,6.029594e-09
C1X040,東原,2024-03-20,23.291597,120.463822,3.993717e-10
C0R660,枋寮,2024-03-20,22.367722,120.590647,0.86260045
C1R120,上德文,2024-03-20,22.763272,120.704442,1.5609112e-09
C0K450,大埤,2024-03-20,23.646074,120.431537,3.6477132e-10
C0UA00,土場,2024-03-20,24.576533,121.495333,2.6935376e-09
467080,宜蘭,2024-03-20,24.763975,121.756528,3.0572118e-09
C0N030,四草,2024-03-20,23.0235,120.1116,2.7743036e-10
C0V650,彌陀,2024-03-20,22.783806,120.246361,2.9798597e-09
C0D660,新竹市東區,2024-03-20,24.798681,120.986942,1.0509172e-08
82S580,茶改東部分場,2024-03-20,22.907694,121.130139,2.1804125e-08
C0C710,大溪永福,2024-03-20,24.892936,121.324975,1.4046286e-08
C0FA20,溫寮,2024-03-20,24.372177,120.583125,2.7730669e-09
C0V640,湖內,2024-03-20,22.887139,120.2445,6.2984534e-10
C0R910,下寮,2024-03-20,22.3929,120.5548,0.8622445
C0Z020,明里,2024-03-20,23.208717,121.262342,2.6512268e-09
C0M770,嘉義梅山,2024-03-20,23.585398,120.555587,4.3735254e-10
G2F820,農業試驗所,2024-03-20,24.031261,120.688133,3.603305e-10
C0C660,楊梅,2024-03-20,24.912375,121.143047,1.4196362e-08
C1E511,新開,2024-03-20,24.347703,120.827019,1.7689634e-09
G2F820,農試所(霧峰),2024-03-20,24.031261,120.688133,3.603305e-10
C1I070,和社,2024-03-20,23.591131,120.888861,2.3968887e-09
C2F000,大肚,2024-03-20,24.15295,120.572117,6.0586425e-10
C1S850,豐南,2024-03-20,23.122139,121.262389,1.6099255e-09
C2A920,富貴角,2024-03-20,25.263783,121.565258,1.8900285e-07
CAH030,茶改場竹圍站,2024-03-20,23.860083,120.637528,3.2223577e-10
C0T960,光復,2024-03-20,23.660694,121.424964,9.958138e-10
C0F9M0,豐原,2024-03-20,24.254322,120.720692,1.3072934e-09
C0R720,旭海,2024-03-20,22.205403,120.887614,0.76716065
C0V710,苓雅,2024-03-20,22.622742,120.330669,1.6475663e-09
C0C740,觀音工業區,2024-03-20,25.064764,121.114856,1.5002892e-07
CAC040,拉拉山,2024-03-20,24.699317,121.427133,1.6832669e-08
C0V790,萬山,2024-03-20,22.905944,120.688056,6.2862354e-10
U2HA30,臺大和社,2024-03-20,23.590856,120.888864,2.3968887e-09
C0AJ90,澳底,2024-03-20,25.0552,121.9253,5.1218365e-05
C0Z100,東華,2024-03-20,23.89525,121.549833,1.7825758e-09
C0G970,三豐,2024-03-20,23.882,120.2895,1.8006332e-08
V2K610,大庄合作社,2024-03-20,23.8068,120.367939,3.1248368e-10
C0V900,汕尾,2024-03-20,22.4782,120.4151,1.4554652e-06
C1R630,龍泉,2024-03-20,22.66701,120.59091,4.132049e-08
C1AC50,關渡,2024-03-20,25.133486,121.469331,4.7186757e-09
C0F9I0,神岡,2024-03-20,24.272481,120.658314,1.332757e-09
C0K460,斗南,2024-03-20,23.678734,120.478359,3.5642403e-10
467410,臺南,2024-03-20,22.993239,120.204772,2.6837313e-10
C2O810,曾文,2024-03-20,23.219681,120.497328,7.920308e-10
467280,後龍,2024-03-20,24.648563,120.831834,3.7567576e-09
C1F9J1,清水林,2024-03-20,24.071242,120.820419,8.6802593e-10
C2A650,火燒寮,2024-03-20,25.002719,121.742892,4.4590244e-08
466930,竹子湖,2024-03-20,25.162078,121.544547,6.2649206e-09
C1I220,樟湖,2024-03-20,23.905333,120.846983,3.080379e-09
C0I390,仁愛,2024-03-20,24.022122,121.132206,2.3314495e-09
C0Z300,東里,2024-03-20,23.26853,121.30547,2.5304554e-09
C0V310,美濃,2024-03-20,22.898742,120.519153,1.683648e-09
C1V590,新發,2024-03-20,23.057019,120.646064,1.3283412e-09
C0K510,水林,2024-03-20,23.572924,120.24597,4.0470413e-10
72S590,東改賓朗果園,2024-03-20,22.813889,121.071278,2.231242e-06
82A750,茶改北部分場,2024-03-20,24.955778,121.631222,3.3933084e-08
C1A750,石碇服務區,2024-03-20,25.00872,121.646242,1.12864e-08
C0X300,鹿寮,2024-03-20,23.386047,120.477331,3.9820794e-10
G2AI50,關渡,2024-03-20,25.11575,121.492,1.01588924e-07
C0K590,雲林東勢,2024-03-20,23.674192,120.255721,3.2591915e-10
C0A570,桶後,2024-03-20,24.848222,121.597992,7.793237e-09
C1S800,華源,2024-03-20,22.657883,121.02325,6.273159e-09
C0G720,溪州,2024-03-20,23.851589,120.499093,3.7140716e-10
C1V160,達卡努瓦,2024-03-20,23.279811,120.705319,2.3374516e-09
C2M410,馬頭山,2024-03-20,23.324361,120.582017,3.55521e-10
C0V850,蚵仔寮,2024-03-20,22.7256,120.2527,8.803947e-10
C0S740,池上,2024-03-20,23.119628,121.209469,4.7672004e-09
C1V390,尖山,2024-03-20,22.813153,120.367789,3.4328e-10
C0AH70,松山,2024-03-20,25.04871,121.55042,2.9353011e-09
C0N010,鯤鯓國小,2024-03-20,23.1879,120.0889,3.4108574e-10
C0R550,新埤,2024-03-20,22.467947,120.582894,9.049758e-07
C0SA60,知本（水試所）,2024-03-20,22.702394,121.082761,7.3314643e-09
C0T9I0,豐濱,2024-03-20,23.583897,121.514806,1.0656273e-09
C0UB00,淡江大學蘭陽校園,2024-03-20,24.823239,121.730383,8.23155e-09
C0T9N0,富里,2024-03-20,23.171639,121.249378,4.35794e-09
U2HA50,臺大竹山,2024-03-20,23.756972,120.681556,3.0952546e-10
C0V840,鳳鼻頭,2024-03-20,22.5083,120.3591,3.6742756e-10
C0X140,西港,2024-03-20,23.125608,120.203108,5.1979515e-10
72D080,桃改五峰分場,2024-03-20,24.612194,121.157167,3.9324397e-09
C0V530,阿蓮,2024-03-20,22.883208,120.327508,8.8158436e-10
C1O880,關山,2024-03-20,23.173397,120.594092,7.671385e-10
C0E791,卓蘭,2024-03-20,24.3126,120.8244,1.555075e-09
C1I030,武界,2024-03-20,23.913225,121.052483,2.2375277e-09
C0R520,崁頂,2024-03-20,22.514781,120.506914,5.978117e-07
C0R341,牡丹,2024-03-20,22.130036,120.792639,0.9924309
C0R930,萬丹,2024-03-20,22.5885,120.4851,7.038719e-10
C0S760,紅石,2024-03-20,23.069131,121.126219,2.6000132e-08
C1M610,石磐龍,2024-03-20,23.496606,120.663506,2.2309479e-09
C0UA10,鴛鴦湖,2024-03-20,24.590269,121.412228,1.2384531e-08
V2C260,八德蔬果,2024-03-20,24.978508,121.281819,9.072407e-09
C0R800,丹路,2024-03-20,22.204481,120.750989,0.97881556
C0G920,永靖,2024-03-20,23.924703,120.547533,3.534986e-10
C1A630,下盆,2024-03-20,24.771003,121.538622,7.551923e-09
B2N890,畜產試驗所,2024-03-20,23.058972,120.336406,1.1219109e-09
C0UA30,白嶺,2024-03-20,24.527819,121.519031,8.24887e-09
C1V580,溪南(特生中心),2024-03-20,23.084972,120.788475,3.5073444e-09
C1T970,大農,2024-03-20,23.615233,121.413331,1.1173708e-09
E2S960,林試太麻里2,2024-03-20,22.598014,120.989761,1.05625855e-08
C0R650,竹田,2024-03-20,22.58486,120.54344,6.4662595e-07
C1H900,清流,2024-03-20,24.080775,120.962997,1.9382922e-09
C1C510,水尾,2024-03-20,24.940081,121.087161,5.462967e-08
C0F9X0,大雅(中科園區),2024-03-20,24.21528,120.62445,7.2877665e-10
C0O970,虎頭埤,2024-03-20,23.021375,120.347878,7.751871e-10
C0C730,中大臨海站,2024-03-20,24.966126,121.008581,6.2167025e-08
C0X250,新營,2024-03-20,23.310689,120.316681,1.0907044e-09
C0V700,三民,2024-03-20,22.645017,120.311233,9.276399e-09
C0U870,大礁溪,2024-03-20,24.791042,121.675047,7.038897e-09
C0E870,高鐵苗栗,2024-03-20,24.60725,120.826094,3.7443457e-09
A2K570,古坑花卉中心,2024-03-20,23.63353,120.55239,3.5396414e-10
C0M860,新美,2024-03-20,23.338017,120.683169,3.121519e-10
C1E701,八卦,2024-03-20,24.491756,120.927619,3.7998666e-09
C0I420,國姓,2024-03-20,24.037803,120.855072,4.3932397e-10
C0S960,香蘭,2024-03-20,22.587569,120.993375,1.05625855e-08
C0R260,春日,2024-03-20,22.370361,120.628306,0.63848037
72G600,臺中農改場,2024-03-20,24.003028,120.534389,3.650546e-10
C0Z210,瑞穗,2024-03-20,23.5239,121.39021,1.6790077e-09
C0M820,達邦,2024-03-20,23.453994,120.749517,1.127697e-09
C0V860,南寮,2024-03-20,22.7616,120.2339,8.778828e-10
C0G740,大城,2024-03-20,23.852487,120.320935,1.617893e-08
C0R920,塭仔,2024-03-20,22.4169,120.5197,0.8867798
C0R470,高樹,2024-03-20,22.826389,120.600806,9.492938e-10
C0R680,佳樂水,2024-03-20,21.993578,120.861633,0.99319047
C1O870,大棟山,2024-03-20,23.31157,120.52226,9.23283e-10
C0D360,梅花,2024-03-20,24.678347,121.208558,1.8290822e-09
C0Z190,富世,2024-03-20,24.14743,121.6297,9.234878e-09
C0AI10,屈尺,2024-03-20,24.92184,121.54475,2.4068676e-08
B2U990,畜試東區分所,2024-03-20,24.669039,121.832561,1.7177493e-09
C0R240,來義,2024-03-20,22.527306,120.625111,1.5088425e-07
C1R610,西大武山,2024-03-20,22.617719,120.7322,2.996824e-08
C0G900,線西,2024-03-20,24.143358,120.443536,7.83894e-10
C0M700,竹崎,2024-03-20,23.526178,120.555508,4.9171556e-10
C2E880,三義,2024-03-20,24.405478,120.749819,2.4711635e-09
C0C720,竹圍,2024-03-20,25.112692,121.239824,1.0158873e-07
C0F9P0,清水,2024-03-20,24.312297,120.562242,1.8036639e-09
C0Z150,吉安光華,2024-03-20,23.930925,121.595153,3.3497776e-09
C1D640,外坪(五指山),2024-03-20,24.644447,121.090961,2.1168813e-09
C0F9O0,潭子,2024-03-20,24.213106,120.703933,8.2640145e-10
72T250,花蓮農改場,2024-03-20,23.975222,121.563889,5.3501936e-09
C0E780,銅鑼,2024-03-20,24.489681,120.790853,2.2663524e-09
C1T950,太安,2024-03-20,23.666719,121.370128,1.9459945e-08
C0E830,苑裡,2024-03-20,24.439714,120.653053,2.9710518e-09
467270,田中,2024-03-20,23.873803,120.581286,2.8193903e-10
C0SA10,檳榔四格山,2024-03-20,22.810031,121.109308,6.86297e-07
C1T830,布洛灣,2024-03-20,24.17184,121.57127,2.7292117e-08
C0F970,大坑,2024-03-20,24.173142,120.722289,4.695465e-10
C1U920,思源,2024-03-20,24.393125,121.347214,1.392162e-08
C0A931,三和,2024-03-20,25.233153,121.595236,2.4508864e-08
C0I010,廬山,2024-03-20,24.033311,121.181808,4.5524358e-09
C0R860,鼻頭,2024-03-20,22.1043,120.8979,0.9993028
C0UB20,壯圍,2024-03-20,24.7359,121.8163,1.8335846e-09
C0R790,九棚,2024-03-20,22.14195,120.889281,0.99737793
C0W110,東莒,2024-03-20,25.9652,119.98069,4.4760156e-08
C1U930,粉鳥林,2024-03-20,24.497088,121.842479,3.1511613e-09
C1I211,蘆竹湳,2024-03-20,23.934019,120.811994,4.353559e-10
C0S830,長濱,2024-03-20,23.286817,121.411975,2.5975635e-09
C1F9F1,伯公龍,2024-03-20,24.272392,120.849047,1.1901747e-09
C0E810,西湖,2024-03-20,24.562947,120.7485,8.939694e-09
C1I440,新高口,2024-03-20,23.478744,120.878939,7.4422606e-09
C0O840,王爺宮,2024-03-20,23.222064,120.40085,4.210706e-10
C0T9G0,鳳林山,2024-03-20,23.735269,121.420131,4.040287e-09
C0X080,佳里,2024-03-20,23.173039,120.145086,3.4108574e-10
C0Z310,清水斷崖,2024-03-20,24.218294,121.689142,6.041382e-09
C0M680,太保,2024-03-20,23.455062,120.331455,8.260516e-10
C1S820,金峰,2024-03-20,22.590969,120.933236,8.289578e-09
C0AD10,八里,2024-03-20,25.150211,121.403947,1.0158873e-07
C2K240,草嶺,2024-03-20,23.59555,120.693461,2.8619505e-09
C1SA70,都蘭,2024-03-20,22.87794,121.226881,5.7660934e-08
C0K440,二崙,2024-03-20,23.772797,120.408944,2.553153e-10
C1A760,坪林交控,2024-03-20,24.94284,121.713442,1.0966584e-08
C0F9N0,大里,2024-03-20,24.092464,120.701378,3.0939679e-10
C0SA90,達仁林場,2024-03-20,22.264347,120.823972,1.00226935e-05
C1R290,石門山,2024-03-20,22.112611,120.756597,0.94826144
42HA10,萬大發電廠,2024-03-20,23.978875,121.139639,2.9167557e-09
C0R890,山海,2024-03-20,21.9878,120.7091,0.7763163
C0T9A0,月眉山,2024-03-20,23.809928,121.539828,3.5553882e-09
C0AC70,信義,2024-03-20,25.037822,121.564597,2.9353011e-09
C0K560,棋山,2024-03-20,23.68645,120.603417,3.5062792e-10
C1Z240,中平林道,2024-03-20,23.42115,121.26763,3.784556e-08
U2H480,溪頭,2024-03-20,23.670306,120.798194,2.4236997e-09
C0M880,好美里,2024-03-20,23.3364,120.138,4.9371823e-10
C0T9E0,大坑,2024-03-20,23.880628,121.581981,2.8724558e-09
C0K530,臺西,2024-03-20,23.701547,120.197559,4.6746534e-10
C1E900,國一N128K,2024-03-20,24.560997,120.844186,2.2410898e-09
C0AJ50,水湳洞,2024-03-20,25.123695,121.862238,1.1202269e-07
C0AI20,白沙灣,2024-03-20,25.283128,121.519058,3.2708627e-07
C0A860,大坪,2024-03-20,25.165914,121.632969,4.587686e-09
C1U850,觀音海岸,2024-03-20,24.38319,121.77856,4.1249835e-09
C0U950,鶯子嶺,2024-03-20,24.89754,121.79244,2.2296685e-08
C0O900,善化,2024-03-20,23.112883,120.297219,1.217781e-09
C0K550,蔦松,2024-03-20,23.514319,120.229736,4.2966794e-10
E2P980,林試六龜中心,2024-03-20,22.991703,120.645722,3.3068118e-10
C0E590,通霄,2024-03-20,24.471892,120.704622,7.610703e-09
C1I310,西巒,2024-03-20,23.754486,120.883956,2.3584594e-09
C0A550,泰平,2024-03-20,24.971197,121.823711,1.8832145e-08
C0I360,水里,2024-03-20,23.812553,120.849792,4.2208215e-10
C0R830,高士,2024-03-20,22.121825,120.836781,0.6992067
C1I101,溪頭,2024-03-20,23.661789,120.807647,7.3006254e-09
C0AJ20,野柳,2024-03-20,25.20703,121.690021,3.417477e-08
C0B060,暖暖,2024-03-20,25.0957,121.7403,1.2976575e-08
C1H920,長豐,2024-03-20,24.102039,120.879897,1.4465672e-09
C0V360,內門,2024-03-20,22.975481,120.466769,2.6959122e-09
C0R850,林邊,2024-03-20,22.4634,120.5339,1.2861682e-06
C0E930,龍鳳,2024-03-20,24.700034,120.859125,9.409766e-09
C0U910,冬山,2024-03-20,24.63373,121.7937,1.7177493e-09
C1E721,泰安,2024-03-20,24.489017,120.968036,5.850328e-09
82H320,茶改中部分場,2024-03-20,23.875611,120.913583,1.7260584e-09
C0M750,布袋,2024-03-20,23.380878,120.167789,6.154686e-10
C1S860,利嘉,2024-03-20,22.809417,121.050528,7.707748e-09
72C440,桃園農改,2024-03-20,24.950944,121.030583,6.369981e-08
E2S980,林試太麻里1,2024-03-20,22.598922,120.980044,9.336342e-09
C0X170,關廟,2024-03-20,22.963017,120.327797,6.4964667e-10
C0V720,林園,2024-03-20,22.507747,120.394511,3.6388115e-10
C1I510,線浸林道,2024-03-20,23.761508,120.832956,3.0382148e-09
C0D690,外湖,2024-03-20,24.917735,120.968711,7.3560365e-08
C0C750,新興坑尾,2024-03-20,25.0061,121.0971,5.4592693e-08
B2Q810,畜試南區分所,2024-03-20,21.945583,120.802167,0.9914812
C0S790,金崙,2024-03-20,22.538122,120.966875,1.0255473e-08
C0AH90,福山植物園,2024-03-20,24.760717,121.58135,9.710649e-09
C0I540,奇萊稜線,2024-03-20,24.109231,121.326456,2.3748871e-08
C0M850,表湖,2024-03-20,23.24186,120.64166,1.0040913e-09
C0S770,大溪山,2024-03-20,22.478475,120.943325,1.2663069e-08
C0AG80,中和,2024-03-20,24.991622,121.491792,1.2263779e-08
C0T790,大禹嶺,2024-03-20,24.186117,121.316086,1.4051216e-08
C0T9B0,水源,2024-03-20,23.991861,121.537169,7.460339e-09
C0R840,牡丹池山,2024-03-20,22.168389,120.841225,0.9973957
C1I131,桶頭,2024-03-20,23.641944,120.654117,3.5651582e-10
CAL110,布袋國中,2024-03-20,23.35893,120.18026,6.154686e-10
467571,新竹,2024-03-20,24.827853,121.014219,4.0819156e-08
C0Z290,赤柯山,2024-03-20,23.36893,121.38293,1.3638063e-08
C0X280,將軍,2024-03-20,23.214999,120.13577,3.923335e-10
C0S690,太麻里,2024-03-20,22.60902,120.98533,7.758827e-09
C0U880,北關,2024-03-20,24.9072,121.8734,1.1539425e-08
C1H860,瑞岩,2024-03-20,24.123772,121.18345,1.1011375e-08
C0G810,埔心,2024-03-20,23.947633,120.525456,3.535296e-10
C0U970,大福,2024-03-20,24.80064,121.81389,3.0390206e-09
C1E670,南礦,2024-03-20,24.538278,121.002836,4.444401e-09
C0M520,東後寮,2024-03-20,23.369908,120.248065,5.9584804e-10
C1E461,松安,2024-03-20,24.397972,120.986022,5.068758e-09
72G600,臺中農改,2024-03-20,24.003028,120.534389,3.650546e-10
C2N160,西拉雅風管處,2024-03-20,23.189481,120.335297,1.5005154e-09
C0A640,石碇,2024-03-20,24.993969,121.662917,1.1112692e-08
E2S960,林試太麻里2,2024-03-20,22.598,120.99775,1.0960206e-08
C0F9Y0,桃山,2024-03-20,24.432739,121.303808,2.445815e-08
C1I020,萬大,2024-03-20,23.979817,121.132261,2.379529e-09
C0U940,羅東,2024-03-20,24.68184,121.74934,1.8697561e-09
C0M650,朴子,2024-03-20,23.43463,120.23902,5.6576255e-10
C1I500,大尖山,2024-03-20,23.858572,120.994889,7.992776e-09
C0G820,田尾,2024-03-20,23.901669,120.509389,3.534986e-10
E2K600,四湖植物園,2024-03-20,23.676986,120.163433,4.1096127e-10
C0S730,綠島,2024-03-20,22.6672,121.47533,0.99999535
12Q970,東港工作站,2024-03-20,22.479997,120.466058,1.4554652e-06
C0E430,南庄,2024-03-20,24.601775,121.000214,2.0033593e-09
C1TA00,太魯閣,2024-03-20,24.15773,121.6236,9.443784e-09
466920,臺北,2024-03-20,25.037658,121.514853,2.9353011e-09
C0R600,舊泰武,2024-03-20,22.588194,120.664944,5.1665194e-10
C1I260,北坑,2024-03-20,23.9246,121.006903,4.674466e-10
466910,鞍部,2024-03-20,25.182586,121.529731,2.1785086e-08
C1I230,九份二山,2024-03-20,23.961944,120.845,1.8522814e-09
C2A660,瑞芳,2024-03-20,25.113169,121.801147,8.210792e-08
C0R270,琉球嶼,2024-03-20,22.332244,120.362236,9.083315e-09
C1T990,高寮,2024-03-20,23.394239,121.356808,1.7281205e-09
C0G620,芬園,2024-03-20,24.015678,120.6213,3.8115147e-10
C1Z140,荖溪,2024-03-20,23.890575,121.45964,1.527825e-08
C1I201,中心崙,2024-03-20,23.728722,120.712097,6.527817e-10
C1I400,凌霄,2024-03-20,24.018778,121.004456,3.6876593e-09
C1M640,十字,2024-03-20,23.492153,120.753683,5.972467e-09
G2P820,農試鳳山分所,2024-03-20,22.646611,120.356083,7.6864755e-09
C0Z270,蕃薯寮,2024-03-20,23.73835,121.540108,2.671394e-09
C0F9Q0,外埔,2024-03-20,24.347817,120.705686,1.6711609e-09
C0K580,高鐵雲林,2024-03-20,23.737456,120.417944,3.0663205e-10
C2I090,鳳凰,2024-03-20,23.728081,120.787347,9.76879e-10
C0U990,員山,2024-03-20,24.74435,121.72247,1.8463662e-09
C0V770,大社,2024-03-20,22.730306,120.346639,8.207809e-10
C0X120,麻豆,2024-03-20,23.183289,120.248611,8.8393826e-10
C0C670,龍潭,2024-03-20,24.870056,121.221389,5.3217275e-09
C0D680,香山濕地,2024-03-20,24.783581,120.914988,1.0771305e-08
C0S980,勝林山,2024-03-20,22.430439,120.8938,4.1516724e-08
C0V730,大寮,2024-03-20,22.605614,120.395717,1.4889178e-09
C0R570,麟洛,2024-03-20,22.65078,120.52719,7.811567e-10
CAG100,王功漁港,2024-03-20,23.96824,120.32586,3.852904e-08
C0X290,北門,2024-03-20,23.267772,120.125481,3.9226467e-10
C2F930,大甲,2024-03-20,24.347667,120.640403,2.7864224e-09
C0D650,湖口,2024-03-20,24.904794,121.043628,5.6187663e-08
C0E420,竹南,2024-03-20,24.708978,120.888897,9.412243e-09
C0U780,五結,2024-03-20,24.68637,121.79794,1.8335846e-09
C1I250,鯉潭,2024-03-20,23.961922,120.991131,1.5318303e-09
C0R130,阿禮,2024-03-20,22.742908,120.743678,2.0636752e-09
C0X100,臺南市北區,2024-03-20,23.010394,120.194228,2.7428398e-10
C0S920,金峰嘉蘭,2024-03-20,22.594789,120.960825,9.361432e-09
C0V490,新興,2024-03-20,22.627422,120.298803,1.6421638e-09
C0F9K0,大安,2024-03-20,24.345061,120.588025,2.7720621e-09
72N100,臺南農改,2024-03-20,23.0605,120.342194,1.1237227e-09
467290,古坑,2024-03-20,23.633639,120.551889,3.539648e-10
C0V440,鳳山,2024-03-20,22.646653,120.356122,7.6864755e-09
C1T940,大觀,2024-03-20,23.714206,121.373133,3.473445e-09
72T250,花蓮農改,2024-03-20,23.975222,121.563889,5.350204e-09
C0E740,造橋,2024-03-20,24.637056,120.864778,3.7444603e-09
C0R100,尾寮山,2024-03-20,22.833111,120.683889,1.6215437e-09
A2K630,臺大雲林校區,2024-03-20,23.730628,120.423903,3.0677072e-10
C0D580,寶山,2024-03-20,24.735006,121.025192,2.0460071e-09
E2P990,林試扇平站,2024-03-20,22.9677,120.6857,6.470806e-10
C0AI30,三重,2024-03-20,25.057328,121.500629,2.9117642e-09
C0AH00,汐止,2024-03-20,25.066881,121.658778,2.9353011e-09
C1Z040,立山,2024-03-20,23.443356,121.327375,7.2665616e-09
C0R740,獅子,2024-03-20,22.201569,120.70525,0.99818295
C0W130,花嶼,2024-03-20,23.40007,119.32276,0.97856504
C0A950,鼻頭角,2024-03-20,25.129036,121.923372,0.9288222
C0K470,林內,2024-03-20,23.748675,120.609642,3.098001e-10
82C160,茶改場,2024-03-20,24.908472,121.185333,1.3583028e-08
C0Z320,清水林道,2024-03-20,23.27125,121.188272,9.9616955e-09
C0R760,南仁湖,2024-03-20,22.084681,120.863353,0.9482726
C0M670,大林,2024-03-20,23.600616,120.45841,8.1528717e-10
C0M800,茶山,2024-03-20,23.299075,120.664767,2.6829225e-10
C0A9C0,天母,2024-03-20,25.117494,121.537169,4.5352238e-09
72K220,南改斗南分場,2024-03-20,23.634556,120.477333,3.5671105e-10
72AI40,桃改樹林分場,2024-03-20,24.944503,121.386972,9.942865e-09
C0S910,蘭嶼燈塔,2024-03-20,22.081197,121.503117,0.9974742
C0B050,八斗子,2024-03-20,25.144754,121.79167,1.214289e-07
C0U900,內城,2024-03-20,24.71813,121.68766,1.9222475e-09
C0X320,柳營,2024-03-20,23.253328,120.375253,6.546058e-10
C0M790,新港,2024-03-20,23.553269,120.345728,5.540953e-10
C0F9T0,西屯,2024-03-20,24.179494,120.641275,4.476105e-10
C0SA30,都歷,2024-03-20,23.020333,121.323642,7.713612e-10
C0C620,蘆竹,2024-03-20,25.084275,121.265767,3.4014732e-08
C0R730,大坪頂,2024-03-20,22.024633,120.69355,0.99992967
C0AJ40,石門,2024-03-20,25.273672,121.601198,2.1652137e-07
C0E750,苗栗,2024-03-20,24.564569,120.824575,2.2406494e-09
C0T870,鯉魚潭,2024-03-20,23.935639,121.508944,3.4161e-09
C1V170,排雲,2024-03-20,23.463619,120.954147,1.8057301e-08
C2H950,中寮,2024-03-20,23.884447,120.766406,3.8202924e-10
C0R350,貓鼻頭,2024-03-20,21.921774,120.7358,0.981443
C0V660,岡山,2024-03-20,22.797078,120.294958,2.9798597e-09
C1H941,雙冬,2024-03-20,23.967378,120.802189,4.784542e-10
C0AJ70,田寮,2024-03-20,25.2698,121.4886,3.342721e-07
C0AI00,五股,2024-03-20,25.07445,121.42728,1.8116777e-08
C0Z280,德武,2024-03-20,23.47426,121.41071,1.741382e-09
C0R700,枋山,2024-03-20,22.246844,120.661086,0.97270554
C0C460,復興,2024-03-20,24.820208,121.352281,5.710142e-09
E2H360,蓮華池,2024-03-20,23.918333,120.885278,5.432372e-10
C0M640,中埔,2024-03-20,23.42538,120.5229,5.229495e-10
C0W140,金沙,2024-03-20,24.488292,118.408778,1.6637387e-08
C2A540,四堵,2024-03-20,24.8926,121.745736,1.0889899e-08
C0ACA0,新莊,2024-03-20,25.051478,121.446756,5.251768e-09
C0R220,潮州,2024-03-20,22.534361,120.54,5.126734e-07
U2HA40,臺大內茅埔,2024-03-20,23.689722,120.851117,9.781338e-10
467490,臺中,2024-03-20,24.145736,120.684075,4.3556686e-10
C0U960,翠峰湖,2024-03-20,24.510856,121.608044,1.3825143e-08
E2HA20,林試畢祿溪站,2024-03-20,24.226944,121.308522,1.5245327e-08
C0V890,前鎮,2024-03-20,22.5718,120.3117,1.6717729e-09
467620,蘭嶼,2024-03-20,22.036969,121.558339,0.9994242
C1F941,雪嶺,2024-03-20,24.280586,121.026642,2.5206345e-08
C0AC80,文山,2024-03-20,25.00235,121.575728,1.1977998e-08
C0F9R0,龍井,2024-03-20,24.184536,120.528972,1.0116017e-09
C0M760,民雄,2024-03-20,23.551754,120.428457,8.194513e-10
C0UA40,西德山,2024-03-20,24.560647,121.752608,7.613839e-09
C1T920,中興,2024-03-20,23.769503,121.498653,1.8845285e-09
C0D550,雪霸,2024-03-20,24.526972,121.11605,7.5992e-09
C2F860,梨山,2024-03-20,24.247522,121.243669,1.5635283e-08
C0R320,車城,2024-03-20,22.0744,120.716247,0.99056894
C1S870,南美山,2024-03-20,23.15025,121.382333,4.3375397e-09
C0B020,基隆嶼,2024-03-20,25.19141,121.78391,9.8885605e-05
C1U501,牛鬥,2024-03-20,24.637836,121.573656,2.5570628e-09
C0M730,嘉義市東區,2024-03-20,23.457673,120.460531,7.3245005e-10
C0S700,知本,2024-03-20,22.684866,121.005642,6.0616387e-09
C1N001,沙崙,2024-03-20,22.935472,120.309406,6.647317e-10
C0V760,橋頭,2024-03-20,22.757806,120.30575,8.628741e-10
C0G960,福寶,2024-03-20,24.0443,120.3814,6.9075823e-10
C0X210,白河,2024-03-20,23.347466,120.414427,4.3645837e-10
C0S810,東河,2024-03-20,22.972672,121.303986,0.04839415
C0R670,楓港,2024-03-20,22.190131,120.692156,0.99953866
C0FA50,霧峰,2024-03-20,24.0419,120.6995,3.6534017e-10
C0UB10,蘇澳,2024-03-20,24.5969,121.8571,2.3789708e-09
C0G950,防潮門,2024-03-20,24.1835,120.4871,1.01209e-09
C0M740,六腳,2024-03-20,23.492871,120.290625,7.2935236e-10
C1R250,力里,2024-03-20,22.428117,120.629228,3.6759238e-07
C0K330,虎尾,2024-03-20,23.719183,120.442036,3.0582603e-10
C2FA00,烏石坑,2024-03-20,24.273503,120.947617,2.073737e-09
C0V620,永安,2024-03-20,22.82315,120.236856,2.9798597e-09
C1I330,楓樹林,2024-03-20,23.986803,121.076117,2.8734752e-09
C0W200,湖西,2024-03-20,23.596314,119.67275,0.44331983
72Q010,高雄農改場,2024-03-20,22.709333,120.525889,7.157886e-10
C0SA40,瑞和,2024-03-20,22.974361,121.156697,1.2886321e-09
C0C680,龜山,2024-03-20,25.02846,121.38656,1.7456063e-08
C2V260,月眉,2024-03-20,22.971003,120.539853,1.0944637e-09
C0V450,鳳森,2024-03-20,22.545064,120.392592,3.2826367e-10
C0U720,南山,2024-03-20,24.43742,121.38167,6.1497603e-09
A2N290,臺南蘭花園區,2024-03-20,23.340258,120.379661,7.394799e-10
C0R560,新園,2024-03-20,22.5434,120.461558,3.6388115e-10
C0U890,三星,2024-03-20,24.66812,121.65302,2.124822e-09
C1V300,御油山,2024-03-20,23.001983,120.715364,3.9565227e-09
C0U600,礁溪,2024-03-20,24.817539,121.765608,4.308976e-09
C1T980,龍澗,2024-03-20,24.023289,121.411328,2.3077321e-08
C0D670,海天一線,2024-03-20,24.831986,120.914438,9.02214e-06
C0SA00,歷坵,2024-03-20,22.520969,120.89185,9.32337e-09
C0M710,東石,2024-03-20,23.458927,120.15385,3.9476783e-10
C0M780,鹿草,2024-03-20,23.41134,120.30835,5.549637e-10
C0U520,雙連埤,2024-03-20,24.753033,121.641303,7.0989765e-09
C0B010,七堵,2024-03-20,25.094819,121.71713,1.3619789e-08
C0R480,長治,2024-03-20,22.693128,120.542622,3.7414025e-10
C1V830,國三S383K,2024-03-20,22.781967,120.426475,4.1159512e-10
12Q980,恆春工作站,2024-03-20,22.079678,120.714425,0.99053985
C1O940,東山服務區,2024-03-20,23.286016,120.398472,5.262053e-10
C1U840,東澳嶺,2024-03-20,24.5378,121.8485,5.814286e-09
C1D630,飛鳳山,2024-03-20,24.766464,121.119178,2.687436e-09
C0S940,石寧山,2024-03-20,23.223772,121.406639,2.3997249e-09
C0K410,北港,2024-03-20,23.573957,120.292802,3.9608392e-10
C2M620,瑞里,2024-03-20,23.545133,120.675197,2.7685958e-09
C2O950,安南,2024-03-20,23.076694,120.144861,2.6861996e-10
C0F0E0,南湖圈谷,2024-03-20,24.363714,121.444667,3.82034e-08
467610,成功,2024-03-20,23.097486,121.373428,1.1874204e-08
C0G890,伸港,2024-03-20,24.148933,120.484403,7.8379087e-10
C2E540,龍溪,2024-03-20,24.606489,120.783933,3.7208874e-09
C1V200,梅山,2024-03-20,23.268447,120.823556,1.8022265e-09
C0T9H0,加路蘭山,2024-03-20,23.682947,121.5274,5.175616e-09
C2O930,玉井,2024-03-20,23.126042,120.46055,1.3795528e-09
C1F911,新伯公,2024-03-20,24.221361,120.841069,1.0371389e-09
C0R490,九如,2024-03-20,22.7405,120.490503,7.2749756e-10
C0X200,左鎮,2024-03-20,23.056758,120.408522,7.8385365e-10
C1F891,稍來,2024-03-20,24.265689,121.001142,1.5100742e-08
72N240,七股研究中心,2024-03-20,23.081672,120.062894,2.7037278e-10
C0C700,中壢,2024-03-20,24.977661,121.256375,9.175884e-09
C0M690,水上,2024-03-20,23.419734,120.388909,8.275655e-10
C0V690,鼓山,2024-03-20,22.623325,120.275575,1.6387314e-09
C0O860,大內,2024-03-20,23.11885,120.36083,1.1524903e-09
C0Z200,萬榮,2024-03-20,23.709219,121.420106,2.0646753e-09
C0T9D0,和中,2024-03-20,24.26676,121.74103,2.453982e-09
C1O921,楠西,2024-03-20,23.183511,120.484083,1.5770742e-09
C0AJ30,淡水觀海,2024-03-20,25.184591,121.408616,4.632762e-08
C0V810,左營,2024-03-20,22.67491,120.28491,9.276399e-09
C0UA70,桃源谷,2024-03-20,24.962606,121.888875,1.8958103e-08
C0X130,官田,2024-03-20,23.193217,120.315422,1.5429733e-09
C1H000,翠峰,2024-03-20,24.109397,121.205211,1.2237539e-08
C0UA90,石城,2024-03-20,24.980444,121.951214,1.1147108e-07
C1E681,南勢山,2024-03-20,24.421669,120.923831,3.5062941e-09
C0A9F0,內湖,2024-03-20,25.079422,121.57545,2.9353011e-09
C0K291,宜梧,2024-03-20,23.536281,120.169329,4.291806e-10
C1K540,口湖,2024-03-20,23.585344,120.180517,4.8608334e-10
C0R780,滿州,2024-03-20,22.024403,120.839892,0.99991
C0V870,文安,2024-03-20,22.8025,120.2164,3.0968503e-09
C0U650,玉蘭,2024-03-20,24.675286,121.587061,4.2526382e-09
C0R640,東港,2024-03-20,22.46247,120.44074,1.4554652e-06
K2E360,苗栗農改,2024-03-20,24.495722,120.829111,2.0695445e-09
C0AJ80,板橋,2024-03-20,25.0107,121.4489,1.2279133e-08
C0S660,下馬,2024-03-20,23.150427,121.070312,9.934581e-09
C1H9B1,阿眉,2024-03-20,24.1263,120.994672,1.14701715e-08
C0UA20,多加屯,2024-03-20,24.368614,121.373189,1.3981361e-08
C0E730,頭份,2024-03-20,24.688247,120.912206,9.517635e-09
72V140,高改旗南分場,2024-03-20,22.857861,120.516667,1.683648e-09
C0K480,莿桐,2024-03-20,23.761192,120.502372,2.9652986e-10
C0U980,坪林石牌,2024-03-20,24.86478,121.77396,9.583102e-09
C0T900,西林,2024-03-20,23.8119,121.441458,2.2504105e-09
C1I150,青雲,2024-03-20,23.793361,120.949378,3.2621644e-10
467350,澎湖,2024-03-20,23.565503,119.563094,0.77755255
C0G800,埔鹽,2024-03-20,24.000394,120.431683,5.3325055e-10
C0H960,草屯,2024-03-20,23.973672,120.68085,3.781543e-10
C1V780,多納林道,2024-03-20,22.888028,120.737917,1.0227182e-09
C0E920,通霄漁港,2024-03-20,24.498589,120.673876,7.603666e-09
C0Z330,安通山,2024-03-20,23.290728,121.348528,3.4453105e-09
C0AH10,永和,2024-03-20,25.01125,121.508111,1.22707515e-08
C2G640,鹿港,2024-03-20,24.0753,120.430481,6.9075823e-10
C1E890,國三N149K,2024-03-20,24.463414,120.680019,3.004738e-09
C1R110,口社,2024-03-20,22.770111,120.645222,1.6372537e-09
C1M870,國三N285K,2024-03-20,23.550319,120.505833,4.6236298e-10
467050,新屋,2024-03-20,25.006744,121.047486,5.9889764e-08
C1E480,鳳美,2024-03-20,24.554803,121.034747,2.8985596e-09
C0M530,奮起湖,2024-03-20,23.493903,120.699253,3.2380516e-09
C0C590,觀音,2024-03-20,25.027072,121.153317,1.2545588e-07
C0T9M0,靜浦,2024-03-20,23.455167,121.495028,1.491456e-09
C0AI40,石牌,2024-03-20,25.115597,121.513139,4.526176e-09
C1F871,上谷關,2024-03-20,24.203483,121.018644,1.6081332e-09
C0G880,二水,2024-03-20,23.810742,120.6173,2.9490768e-10
C0R940,加祿堂,2024-03-20,22.3363,120.6217,0.9919361
C0W220,北竿,2024-03-20,26.220358,119.974881,5.6585268e-08
C0O960,崎頂,2024-03-20,22.959547,120.369317,5.4159427e-10
C0S750,向陽,2024-03-20,23.248397,120.986133,6.8940684e-09
C0T9F0,水璉,2024-03-20,23.797131,121.542514,2.5029838e-09
C1M600,頭凍,2024-03-20,23.406364,120.603339,2.5326476e-09
467660,臺東,2024-03-20,22.752211,121.154586,0.99786115
C1D380,新埔,2024-03-20,24.84745,121.03834,3.2963555e-08
C0V750,路竹,2024-03-20,22.854997,120.259439,6.0206273e-10
C0N050,蚵寮,2024-03-20,23.301,120.1104,4.9371823e-10
72M700,南改鹿草分場,2024-03-20,23.416869,120.283061,5.6576255e-10
C1SA50,利嘉林道,2024-03-20,22.82325,121.009389,2.5221254e-08
467550,玉山,2024-03-20,23.487614,120.959522,2.2947269e-08
C0A940,金山,2024-03-20,25.223628,121.643967,3.401629e-08
C1V340,大津,2024-03-20,22.888322,120.645986,6.249963e-10
C0W180,七美,2024-03-20,23.219333,119.444892,0.9197343
C1F9C1,白冷,2024-03-20,24.182844,120.929889,1.4121037e-09
K2E710,苗改生物防治研究中心,2024-03-20,24.422861,120.871833,1.7167928e-09
C0N040,蘆竹溝,2024-03-20,23.2344,120.0961,3.9226467e-10
C2W230,畜試所澎湖,2024-03-20,23.628342,119.513206,0.9141551
C0R880,後壁湖,2024-03-20,21.9457,120.7457,0.7676976
C1I280,埔中,2024-03-20,23.820778,120.642594,4.895156e-10
467790,墾丁雷達站,2024-03-20,21.948235,120.808028,0.99843544
C0W190,望安,2024-03-20,23.380564,119.494075,0.92914563
466881,新北,2024-03-20,24.9593,121.52,1.2124231e-08
C0Z170,卓溪,2024-03-20,23.3443,121.3029,1.9280382e-09
C0F850,東勢,2024-03-20,24.246428,120.833047,1.1202174e-09
466900,淡水,2024-03-20,25.164889,121.448906,1.1799017e-07
C0I370,魚池,2024-03-20,23.895703,120.94135,4.5284704e-10
C0C630,大溪,2024-03-20,24.882853,121.265547,5.428159e-09
C0A520,山佳,2024-03-20,24.974944,121.402008,1.1697293e-08
C0I110,竹山,2024-03-20,23.761225,120.688156,3.055182e-10
82H840,茶改南部分場,2024-03-20,23.762528,120.7405,4.7392024e-10
C0G660,溪湖,2024-03-20,23.94835,120.479122,3.5166806e-10
C1T800,洛韶,2024-03-20,24.204558,121.453956,1.7780334e-08
C1T810,慈恩,2024-03-20,24.192044,121.388386,7.474525e-09
C1E451,象鼻,2024-03-20,24.368617,120.940228,3.1579424e-09
C0AC60,三峽,2024-03-20,24.939025,121.369728,9.793645e-09
C0I490,萬大林道,2024-03-20,23.928228,121.091411,5.109175e-09
C1I290,豐丘,2024-03-20,23.668178,120.887417,2.5985147e-09
C1I320,奧萬大,2024-03-20,23.952956,121.178556,2.9935432e-09
C0U770,南澳,2024-03-20,24.44935,121.81022,2.8552658e-09
C0A980,社子,2024-03-20,25.109508,121.469681,1.03241476e-07
C0V800,六龜,2024-03-20,22.997889,120.633583,3.324272e-10
C1G9D0,國一S218K,2024-03-20,23.890641,120.493253,3.6878894e-10
C2F9A0,中竹林,2024-03-20,24.103556,120.751061,5.7213034e-10
C0FA40,臺中電廠,2024-03-20,24.2146,120.4907,1.0116017e-09
C0H9C0,合歡山,2024-03-20,24.143442,121.272547,2.3244349e-08
C0X060,下營,2024-03-20,23.22695,120.256261,1.3925279e-09
G2M350,農試溪口農場,2024-03-20,23.58565,120.408111,8.509284e-10
C0U860,頭城,2024-03-20,24.85323,121.8308,4.3268473e-09
C0R580,南州,2024-03-20,22.48591,120.50274,1.4554652e-06
C0D430,峨眉,2024-03-20,24.6905,121.017189,3.526287e-09
C0G780,秀水,2024-03-20,24.03405,120.503869,3.650546e-10
72N100,臺南農改場,2024-03-20,23.0605,120.342194,1.1237227e-09
C0S900,蘭嶼高中,2024-03-20,22.04909,121.51214,0.9996107
467540,大武,2024-03-20,22.355675,120.903789,3.5554044e-07
C1F9W0,德基,2024-03-20,24.254783,121.190261,1.2595237e-08
C1Z120,壽豐,2024-03-20,23.870853,121.508081,1.7825758e-09
C0W160,烏坵,2024-03-20,24.9944,119.44956,1.3812703e-05
C1I240,外大坪,2024-03-20,23.958697,120.917931,1.5738919e-09
C1I550,國六W023K,2024-03-20,23.979067,120.867742,4.0755943e-10
C0R870,興海,2024-03-20,21.9752,120.8439,0.9914812
C0R140,瑪家,2024-03-20,22.682903,120.686639,6.6657524e-10
C0A530,坪林,2024-03-20,24.938183,121.70975,1.0878543e-08
C0X260,後壁,2024-03-20,23.366358,120.362326,7.3869894e-10
C0Z230,和平,2024-03-20,24.30717,121.77007,2.4459819e-09
C0G770,福興,2024-03-20,24.041289,120.437669,5.333818e-10
C0H9A0,神木村,2024-03-20,23.532742,120.843667,6.17529e-09
C0I460,南投,2024-03-20,23.911469,120.687331,4.161642e-10
C0I480,梅峰,2024-03-20,24.085272,121.173572,7.620435e-09
C1V570,吉東,2024-03-20,22.85422,120.5454,1.5147205e-09
C2A560,福山,2024-03-20,24.776203,121.502811,8.029402e-09
C0AH30,五分山,2024-03-20,25.07125,121.780794,1.7299287e-08
C0FA10,松柏,2024-03-20,24.429115,120.617482,2.9703096e-09
72S200,東改班鳩分場,2024-03-20,22.829528,121.077694,8.317086e-06
72HA00,中改埔里分場,2024-03-20,23.903208,120.963364,5.0652565e-10
C0C650,平鎮,2024-03-20,24.897503,121.214636,8.778816e-09
C0S930,延平,2024-03-20,22.902581,121.084058,1.4583083e-08
C0UA60,樟樹山,2024-03-20,24.41393,121.78325,5.4419673e-09
C1S670,摩天,2024-03-20,23.199503,121.027,3.0039775e-08
C0V630,茄萣,2024-03-20,22.906642,120.182608,6.3321687e-10
466940,基隆,2024-03-20,25.133314,121.740475,1.2040698e-07
C0X050,東河,2024-03-20,23.296598,120.385608,5.5963323e-10
C0R770,保力,2024-03-20,22.071122,120.764111,0.9998645
G2L020,農試嘉義分所,2024-03-20,23.485028,120.473806,5.886805e-10
C0X240,關子嶺,2024-03-20,23.331169,120.508025,3.4216543e-10
C0I380,集集,2024-03-20,23.828206,120.801467,4.1882545e-10
466990,花蓮,2024-03-20,23.975128,121.613275,5.405656e-09
C1V220,小關山,2024-03-20,23.154217,120.813603,3.8131676e-09
C1F9G1,慶福山,2024-03-20,24.180853,120.848378,1.08679e-09
C0Z250,瑞穗林道,2024-03-20,23.49284,121.30688,3.4808686e-08
C0D590,新豐,2024-03-20,24.87068,120.97721,1.1482571e-06
C0A870,五指山,2024-03-20,25.132153,121.608692,6.790954e-09
C0UA50,西帽山,2024-03-20,24.555361,121.802628,4.8136157e-09
C0X160,仁德,2024-03-20,22.968258,120.257689,4.009455e-10
C1H971,六分寮,2024-03-20,23.92507,120.6378,7.0442524e-10
C0W120,西嶼,2024-03-20,23.5626,119.468436,0.9260267
C0G650,員林,2024-03-20,23.946503,120.585597,3.6377776e-10
C0AD50,鶯歌,2024-03-20,24.951533,121.346294,9.311321e-09
C0S990,山豬窟,2024-03-20,22.318619,120.857372,4.627993e-08
72Q010,高雄農改,2024-03-20,22.709333,120.525889,7.157886e-10
C0X190,安平,2024-03-20,22.993161,120.152181,2.7428398e-10
C0K400,斗六,2024-03-20,23.720583,120.541127,4.5143358e-10
12J990,口湖工作站,2024-03-20,23.589978,120.180394,4.8608334e-10
C0O830,北寮,2024-03-20,23.079561,120.495008,3.9636605e-09
C1D410,白蘭,2024-03-20,24.579364,121.079947,4.9444506e-09
C0S970,加津林,2024-03-20,22.416211,120.926942,2.546117e-07
C0D700,關西,2024-03-20,24.7977,121.1732,2.8583882e-09
C0M810,里佳,2024-03-20,23.389125,120.716647,4.369092e-09
C0U750,龜山島,2024-03-20,24.841667,121.953133,3.2403877e-06
C0R810,內獅,2024-03-20,22.305064,120.642986,0.991964
C1M390,龍美,2024-03-20,23.406728,120.654417,3.2594605e-09
C1H840,國三N238K,2024-03-20,23.841008,120.707711,3.02304e-10
CAQ030,崎峰國小,2024-03-20,22.42565,120.49521,1.4554652e-06
C2E520,大湖,2024-03-20,24.414939,120.870872,1.8047376e-09
467530,阿里山,2024-03-20,23.508208,120.813242,1.2987495e-08
C1E691,南湖,2024-03-20,24.40135,120.837533,2.6943647e-09
C0FA30,梧棲,2024-03-20,24.256003,120.523381,1.8036639e-09
C1V231,高中,2024-03-20,23.134911,120.716711,7.6394663e-10
C0F9V0,新社,2024-03-20,24.200172,120.815806,1.2202898e-09
C0H890,埔里,2024-03-20,23.972169,120.952425,4.668826e-10
C0R690,墾丁,2024-03-20,21.966756,120.810269,0.9999659
C0F0D0,審馬陣,2024-03-20,24.381675,121.4203,1.9855495e-08
C0R820,白鷺,2024-03-20,22.454275,120.666219,1.0310345e-09
U2H480,臺大溪頭,2024-03-20,23.670306,120.798194,2.4236997e-09
C1V190,南天池,2024-03-20,23.27403,120.91176,7.322674e-09
K2E360,苗栗農改場,2024-03-20,24.495722,120.829111,2.0695445e-09
CAJ050,海口故事園區,2024-03-20,23.57543,120.14121,4.8608334e-10
C0O990,媽廟,2024-03-20,22.99175,120.293525,5.3309496e-10
C0D480,打鐵坑,2024-03-20,24.849664,121.150789,5.3565348e-09
C0Z220,和平林道,2024-03-20,24.343922,121.656317,3.533181e-09
72C440,桃園農改場,2024-03-20,24.950944,121.030583,6.369981e-08
C1E711,馬拉邦山,2024-03-20,24.367306,120.901656,3.2993919e-09
C0D560,竹東,2024-03-20,24.767147,121.057881,2.4952618e-09
C0F9U0,南屯,2024-03-20,24.137006,120.637969,4.2853357e-10
C0M720,番路,2024-03-20,23.464657,120.554156,4.497354e-10
C0F0A0,雪山圈谷,2024-03-20,24.388594,121.236339,2.8573865e-08
C1A9N0,四十份,2024-03-20,24.934158,121.593283,2.0897753e-08
C0U760,東澳,2024-03-20,24.52196,121.83318,3.2738157e-09
C0X230,鹽水,2024-03-20,23.272621,120.247641,4.7997883e-10
C0V370,古亭坑,2024-03-20,22.893178,120.401947,5.657496e-10
C1I340,新興橋,2024-03-20,23.563333,120.868728,2.129358e-09
C0SA80,土坂,2024-03-20,22.453108,120.887572,2.180138e-08
C0R160,鹽埔,2024-03-20,22.739558,120.530778,7.1763956e-10
C0AC40,大屯山,2024-03-20,25.175675,121.522408,2.355161e-08
466850,五分山雷達站,2024-03-20,25.071182,121.781205,1.7427022e-08
C1AI50,國三N016K,2024-03-20,25.034164,121.619664,3.0033858e-09
C1V600,藤枝,2024-03-20,23.071961,120.757042,2.9622134e-09
C1E601,南勢,2024-03-20,24.572486,120.734842,8.967976e-09
C0Z180,新城,2024-03-20,24.03946,121.60454,5.3858344e-09
C0O980,新市,2024-03-20,23.061614,120.298197,1.217781e-09
C0K420,西螺,2024-03-20,23.800407,120.467394,2.568294e-10
C0Z050,佳心,2024-03-20,23.34567,121.21316,1.27385045e-08
C0AD30,蘆洲,2024-03-20,25.086594,121.472331,2.9117642e-09
C0V610,梓官,2024-03-20,22.760558,120.267211,8.6239693e-10
K2F750,種苗改良場,2024-03-20,24.225972,120.800917,1.127183e-09
C0UA80,大溪漁港,2024-03-20,24.941801,121.902955,1.1461183e-08
C1AI60,國一39K邊坡,2024-03-20,25.064361,121.383836,1.7780673e-08
C0W150,金寧,2024-03-20,24.457703,118.328989,4.5526203e-08
V2C250,八德合作社,2024-03-20,24.93775,121.266389,8.792407e-09
C0AH40,平等,2024-03-20,25.129142,121.577086,4.88094e-09
C0R540,佳冬,2024-03-20,22.419456,120.552375,0.86327577
466950,彭佳嶼,2024-03-20,25.627975,122.079744,0.99962634
C0A890,雙溪,2024-03-20,25.036003,121.864242,1.8866134e-05
C0C480,桃園,2024-03-20,24.992425,121.323172,9.108558e-09
C0AH50,林口,2024-03-20,25.072181,121.38084,1.7350043e-08
A2K360,水試臺西試驗場,2024-03-20,23.717231,120.190522,4.725861e-10
B2N890,畜試所,2024-03-20,23.058972,120.336406,1.1219109e-09
C0F9S0,烏日,2024-03-20,24.107058,120.624103,2.959473e-10
C0C490,八德,2024-03-20,24.928708,121.283289,8.82756e-09
C0R190,赤山,2024-03-20,22.592333,120.614306,4.587675e-07
C0T820,天祥,2024-03-20,24.179597,121.495639,2.4152142e-08
C1F9E1,龍安,2024-03-20,24.1605,120.831961,9.424238e-10
C0V820,小林,2024-03-20,23.148408,120.63325,5.4314087e-10
C2G870,芳苑,2024-03-20,23.922303,120.320025,3.661924e-08
C0E850,大河,2024-03-20,24.618069,120.948578,2.5104712e-09
C1U670,寒溪,2024-03-20,24.634,121.71691,1.8957478e-09
C0N020,城西,2024-03-20,23.0568,120.0956,2.742505e-10
C1Z110,三棧,2024-03-20,24.11557,121.60501,2.3381393e-08
C0R280,檳榔,2024-03-20,22.076078,120.836777,0.99069506
C0F9L0,后里,2024-03-20,24.310436,120.729725,1.3450225e-09
C0D540,橫山,2024-03-20,24.71116,121.11693,2.269545e-09
C1D420,太閣南,2024-03-20,24.632808,121.160575,5.8302994e-09
C1E770,公館,2024-03-20,24.526914,120.830806,2.0038944e-09
CAN130,水試所海水繁養殖中心,2024-03-20,23.120802,120.07968,2.7037278e-10
C1I430,翠華,2024-03-20,24.191961,121.224339,9.695751e-09
C1M400,菜瓜坪,2024-03-20,23.251928,120.576103,2.6983185e-10
C0G730,二林,2024-03-20,23.903325,120.376081,4.5163254e-10
72M360,南改義竹分場,2024-03-20,23.360694,120.279361,5.9647803e-10
V2K620,麥寮合作社,2024-03-20,23.753836,120.294783,2.9074343e-10
C0Z070,舞鶴,2024-03-20,23.46811,121.37407,1.8305376e-09
C0B040,大武崙,2024-03-20,25.166676,121.706993,1.048805e-07
C1Z030,紅葉,2024-03-20,23.493119,121.338806,1.7875603e-09
C1I050,丹大,2024-03-20,23.753747,121.141147,8.658537e-09
C0I080,信義,2024-03-20,23.689694,120.851036,9.781338e-10
C2A880,福隆,2024-03-20,25.017842,121.942083,1.1363984e-07
C0Z160,鳳林,2024-03-20,23.746114,121.453411,1.9586357e-09
C0V210,復興,2024-03-20,23.222403,120.806089,1.5353873e-09
C0H990,昆陽,2024-03-20,24.121322,121.273642,2.0557836e-08
C0S710,鹿野,2024-03-20,22.917711,121.122994,1.419086e-09
C0I530,小奇萊,2024-03-20,24.131764,121.295717,2.1491031e-08
C0Z080,富源,2024-03-20,23.587642,121.378225,2.7994793e-09
467441,高雄,2024-03-20,22.7304,120.3125,8.207809e-10
C1I140,卡奈托灣,2024-03-20,23.754364,121.087872,2.8197198e-09
C0I520,玉山風口,2024-03-20,23.470489,120.955994,2.5219618e-08
C1G691,下水埔,2024-03-20,23.816114,120.5676,2.9790967e-10
C0X110,臺南市南區,2024-03-20,22.961189,120.188378,3.93255e-10
C0V680,仁武,2024-03-20,22.701083,120.347722,9.276399e-09
C2G840,北斗,2024-03-20,23.877586,120.514222,3.7140716e-10
C0R900,竹坑,2024-03-20,22.1385,120.7022,0.9939413
C0K250,崙背,2024-03-20,23.75555,120.318925,2.9074343e-10
C0G860,社頭,2024-03-20,23.897647,120.5862,2.794863e-10
C0X150,安定,2024-03-20,23.102614,120.227839,5.19369e-10
C0R590,里港,2024-03-20,22.77919,120.49459,4.8177834e-10
C0E610,馬都安,2024-03-20,24.451272,120.930192,2.8591296e-09
C0E550,明德,2024-03-20,24.583486,120.885411,2.2713769e-09
C0R150,三地門,2024-03-20,22.709889,120.639944,1.7747221e-09
C0G910,花壇,2024-03-20,24.032076,120.549461,3.7096606e-10
C1D400,鳥嘴山,2024-03-20,24.71909,121.28387,3.8415724e-09
C0K500,元長,2024-03-20,23.64981,120.315024,3.2754818e-10
C0F0B0,石岡,2024-03-20,24.276061,120.777644,1.46921e-09
C2V250,甲仙,2024-03-20,23.080106,120.591758,1.052096e-09
C0SA20,金崙山,2024-03-20,22.567419,120.959667,9.324917e-09
C0V350,溪埔,2024-03-20,22.738578,120.446797,4.3340972e-10
C0M660,溪口,2024-03-20,23.604131,120.403569,8.509284e-10
C1S880,壽卡,2024-03-20,22.238911,120.858903,1.5991185e-05
72D680,桃改新埔分場,2024-03-20,24.834444,121.066111,3.311486e-08
