站號,站名,日期,lat,lon,BLBTSLS
C0R710,龍磐,2024-05-02,21.931672,120.838942,9.6615096e-08
C1F9D1,白毛台,2024-05-02,24.158325,120.886933,4.1726744e-07
C0G940,竹塘,2024-05-02,23.848253,120.386764,1.7809965e-08
467590,恆春,2024-05-02,22.003897,120.746339,6.423616e-08
C1O850,環湖,2024-05-02,23.148617,120.418633,0.4577958
C0U710,太平山,2024-05-02,24.505486,121.525656,5.0938787e-09
C0E820,獅潭,2024-05-02,24.539133,120.920042,5.227919e-10
C0V880,興達,2024-05-02,22.8778,120.2127,0.00029110516
C0S890,關山,2024-05-02,23.0395,121.175017,0.014005358
K2F750,種苗繁殖,2024-05-02,24.225972,120.800917,0.00039928278
C1Z130,銅門,2024-05-02,23.965694,121.492842,3.4243915e-06
C0AD40,土城,2024-05-02,24.973208,121.445169,2.1719782e-08
CAN140,六官養殖協會,2024-05-02,23.22881,120.29962,1.49909565e-05
C0X180,山上,2024-05-02,23.0757,120.363253,0.00026337037
C0F9Z0,雪山東峰,2024-05-02,24.388792,121.268675,2.1874312e-08
C1M480,獨立山,2024-05-02,23.537022,120.607797,1.9430127e-08
C0X220,學甲,2024-05-02,23.230367,120.182187,0.00038514426
C0R170,屏東,2024-05-02,22.660269,120.494072,4.2568725e-05
467650,日月潭,2024-05-02,23.881325,120.90805,4.245555e-09
C0K600,箔子寮,2024-05-02,23.6197,120.14,2.8019572e-06
C0G830,埤頭,2024-05-02,23.866003,120.452806,1.6486713e-07
C0S950,七塊厝,2024-05-02,22.954453,121.229922,3.0906056e-06
467110,金門,2024-05-02,24.407306,118.289281,5.983679e-07
C0AH80,深坑,2024-05-02,25.002703,121.628328,1.4631478e-08
467990,馬祖,2024-05-02,26.169269,119.923419,9.202841e-07
C0A970,三貂角,2024-05-02,25.007606,122.002058,6.2183275e-08
C0K430,褒忠,2024-05-02,23.690938,120.303634,1.4531516e-07
467480,嘉義,2024-05-02,23.495925,120.432906,6.091277e-08
C2E540,後龍,2024-05-02,24.606489,120.783933,4.8080623e-10
C0V400,阿公店,2024-05-02,22.804194,120.355528,0.0021051394
C0R440,大漢山,2024-05-02,22.405264,120.753181,2.2659463e-09
C0K280,四湖,2024-05-02,23.630414,120.227125,3.2631235e-07
C1F9B1,桐林,2024-05-02,24.066172,120.735194,2.3832401e-06
C0K390,土庫,2024-05-02,23.679029,120.395574,4.2999385e-08
C1I450,望鄉山,2024-05-02,23.594153,120.944286,8.594171e-09
C0E910,海埔,2024-05-02,24.648767,120.772435,4.847039e-10
B2E890,畜試北區分所,2024-05-02,24.527806,120.770972,8.066561e-10
C0R750,四林格山,2024-05-02,22.076989,120.802439,1.1939696e-09
C0F0C0,中坑,2024-05-02,24.248517,120.903319,7.2086928e-09
C1I121,大鞍,2024-05-02,23.678381,120.760017,2.5850144e-09
72U480,花改蘭陽分場,2024-05-02,24.686306,121.716583,3.1674027e-08
C0A770,科教館,2024-05-02,25.096356,121.516507,2.1665455e-08
C0AJ60,六塊厝,2024-05-02,25.24,121.4481,1.0809359e-08
C0R620,墾雷,2024-05-02,21.900836,120.855269,4.4641983e-08
467420,永康,2024-05-02,23.038386,120.2367,4.444443e-06
467300,東吉島,2024-05-02,23.25695,119.667467,9.779854e-06
C0I410,名間,2024-05-02,23.837053,120.701447,0.00030878963
A2C560,農工中心,2024-05-02,24.985917,121.239833,4.5973128e-09
C0V740,旗山,2024-05-02,22.888614,120.483597,5.5897874e-07
C0Z061,玉里,2024-05-02,23.3215,121.339656,0.0023989428
C0S840,南田,2024-05-02,22.279725,120.889208,5.780541e-07
C1I470,杉林溪,2024-05-02,23.639517,120.786444,2.9439302e-09
C1X040,東原,2024-05-02,23.291597,120.463822,0.057102133
C0R660,枋寮,2024-05-02,22.367722,120.590647,0.022018505
C1R120,上德文,2024-05-02,22.763272,120.704442,7.0077784e-09
C0K450,大埤,2024-05-02,23.646074,120.431537,2.0801595e-08
C0UA00,土場,2024-05-02,24.576533,121.495333,8.511922e-08
467080,宜蘭,2024-05-02,24.763975,121.756528,7.147311e-06
C0N030,四草,2024-05-02,23.0235,120.1116,0.00072806876
C0V650,彌陀,2024-05-02,22.783806,120.246361,0.18310152
C0D660,新竹市東區,2024-05-02,24.798681,120.986942,6.365967e-10
82S580,茶改東部分場,2024-05-02,22.907694,121.130139,0.061737705
C0C710,大溪永福,2024-05-02,24.892936,121.324975,6.293905e-09
C0FA20,溫寮,2024-05-02,24.372177,120.583125,1.2572075e-08
C0V640,湖內,2024-05-02,22.887139,120.2445,0.00023803826
C0R910,下寮,2024-05-02,22.3929,120.5548,0.022018505
C0Z020,明里,2024-05-02,23.208717,121.262342,0.0027640567
C0M770,嘉義梅山,2024-05-02,23.585398,120.555587,3.8381245e-08
G2F820,農業試驗所,2024-05-02,24.031261,120.688133,6.2622803e-06
C0C660,楊梅,2024-05-02,24.912375,121.143047,2.3815223e-09
C1E511,新開,2024-05-02,24.347703,120.827019,4.8176205e-09
G2F820,農試所(霧峰),2024-05-02,24.031261,120.688133,6.2622803e-06
C1I070,和社,2024-05-02,23.591131,120.888861,1.9116308e-06
C2F000,大肚,2024-05-02,24.15295,120.572117,2.7877848e-08
C1S850,豐南,2024-05-02,23.122139,121.262389,4.749582e-07
C2A920,富貴角,2024-05-02,25.263783,121.565258,6.3162733e-09
CAH030,茶改場竹圍站,2024-05-02,23.860083,120.637528,4.2497522e-06
C0T960,光復,2024-05-02,23.660694,121.424964,2.4040544e-06
C0F9M0,豐原,2024-05-02,24.254322,120.720692,5.9099975e-08
C0R720,旭海,2024-05-02,22.205403,120.887614,1.8083083e-08
C0V710,苓雅,2024-05-02,22.622742,120.330669,0.016476085
C0C740,觀音工業區,2024-05-02,25.064764,121.114856,1.866147e-09
CAC040,拉拉山,2024-05-02,24.699317,121.427133,9.871983e-09
C0V790,萬山,2024-05-02,22.905944,120.688056,1.8940808e-06
U2HA30,臺大和社,2024-05-02,23.590856,120.888864,1.9116308e-06
C0AJ90,澳底,2024-05-02,25.0552,121.9253,3.062003e-05
C0Z100,東華,2024-05-02,23.89525,121.549833,0.47179875
C0G970,三豐,2024-05-02,23.882,120.2895,2.3414461e-08
V2K610,大庄合作社,2024-05-02,23.8068,120.367939,7.117296e-08
C0V900,汕尾,2024-05-02,22.4782,120.4151,3.500302e-05
C1R630,龍泉,2024-05-02,22.66701,120.59091,0.07077629
C1AC50,關渡,2024-05-02,25.133486,121.469331,9.351082e-09
C0F9I0,神岡,2024-05-02,24.272481,120.658314,2.7446203e-09
C0K460,斗南,2024-05-02,23.678734,120.478359,1.7201566e-08
467410,臺南,2024-05-02,22.993239,120.204772,0.00021718754
C2O810,曾文,2024-05-02,23.219681,120.497328,0.50380325
467280,後龍,2024-05-02,24.648563,120.831834,4.770727e-10
C1F9J1,清水林,2024-05-02,24.071242,120.820419,1.4789979e-08
C2A650,火燒寮,2024-05-02,25.002719,121.742892,1.1666232e-08
466930,竹子湖,2024-05-02,25.162078,121.544547,3.3213963e-09
C1I220,樟湖,2024-05-02,23.905333,120.846983,2.9908722e-09
C0I390,仁愛,2024-05-02,24.022122,121.132206,5.2048295e-09
C0Z300,東里,2024-05-02,23.26853,121.30547,0.017687285
C0V310,美濃,2024-05-02,22.898742,120.519153,6.7488037e-07
C1V590,新發,2024-05-02,23.057019,120.646064,5.545917e-08
C0K510,水林,2024-05-02,23.572924,120.24597,5.813629e-07
72S590,東改賓朗果園,2024-05-02,22.813889,121.071278,0.0012086044
82A750,茶改北部分場,2024-05-02,24.955778,121.631222,1.0218199e-08
C1A750,石碇服務區,2024-05-02,25.00872,121.646242,1.16913155e-08
C0X300,鹿寮,2024-05-02,23.386047,120.477331,0.00014656133
G2AI50,關渡,2024-05-02,25.11575,121.492,1.1669972e-08
C0K590,雲林東勢,2024-05-02,23.674192,120.255721,2.398427e-07
C0A570,桶後,2024-05-02,24.848222,121.597992,1.5202874e-08
C1S800,華源,2024-05-02,22.657883,121.02325,0.0012088888
C0G720,溪州,2024-05-02,23.851589,120.499093,1.5028354e-07
C1V160,達卡努瓦,2024-05-02,23.279811,120.705319,1.9445327e-08
C2M410,馬頭山,2024-05-02,23.324361,120.582017,0.001465916
C0V850,蚵仔寮,2024-05-02,22.7256,120.2527,0.06629084
C0S740,池上,2024-05-02,23.119628,121.209469,0.008171782
C1V390,尖山,2024-05-02,22.813153,120.367789,0.0006748803
C0AH70,松山,2024-05-02,25.04871,121.55042,1.9100634e-08
C0N010,鯤鯓國小,2024-05-02,23.1879,120.0889,0.013789086
C0R550,新埤,2024-05-02,22.467947,120.582894,2.7231517e-05
C0SA60,知本（水試所）,2024-05-02,22.702394,121.082761,0.014080458
C0T9I0,豐濱,2024-05-02,23.583897,121.514806,0.00047453298
C0UB00,淡江大學蘭陽校園,2024-05-02,24.823239,121.730383,1.09026805e-08
C0T9N0,富里,2024-05-02,23.171639,121.249378,0.0036029662
U2HA50,臺大竹山,2024-05-02,23.756972,120.681556,5.4686176e-08
C0V840,鳳鼻頭,2024-05-02,22.5083,120.3591,0.07429004
C0X140,西港,2024-05-02,23.125608,120.203108,4.3289856e-06
72D080,桃改五峰分場,2024-05-02,24.612194,121.157167,2.0740296e-09
C0V530,阿蓮,2024-05-02,22.883208,120.327508,0.0039546727
C1O880,關山,2024-05-02,23.173397,120.594092,1.6350393e-06
C0E791,卓蘭,2024-05-02,24.3126,120.8244,2.0993474e-08
C1I030,武界,2024-05-02,23.913225,121.052483,3.2540748e-09
C0R520,崁頂,2024-05-02,22.514781,120.506914,0.012941453
C0R341,牡丹,2024-05-02,22.130036,120.792639,1.7805855e-08
C0R930,萬丹,2024-05-02,22.5885,120.4851,0.00019337189
C0S760,紅石,2024-05-02,23.069131,121.126219,1.3420268e-09
C1M610,石磐龍,2024-05-02,23.496606,120.663506,4.9004267e-09
C0UA10,鴛鴦湖,2024-05-02,24.590269,121.412228,5.3917546e-09
V2C260,八德蔬果,2024-05-02,24.978508,121.281819,7.574166e-09
C0R800,丹路,2024-05-02,22.204481,120.750989,8.428736e-08
C0G920,永靖,2024-05-02,23.924703,120.547533,7.609458e-08
C1A630,下盆,2024-05-02,24.771003,121.538622,8.437499e-09
B2N890,畜產試驗所,2024-05-02,23.058972,120.336406,1.1102873e-05
C0UA30,白嶺,2024-05-02,24.527819,121.519031,4.2244723e-09
C1V580,溪南(特生中心),2024-05-02,23.084972,120.788475,2.9693068e-09
C1T970,大農,2024-05-02,23.615233,121.413331,1.4326038e-05
E2S960,林試太麻里2,2024-05-02,22.598014,120.989761,0.0015568734
C0R650,竹田,2024-05-02,22.58486,120.54344,0.06830348
C1H900,清流,2024-05-02,24.080775,120.962997,2.301375e-09
C1C510,水尾,2024-05-02,24.940081,121.087161,1.2922626e-09
C0F9X0,大雅(中科園區),2024-05-02,24.21528,120.62445,1.5653605e-08
C0O970,虎頭埤,2024-05-02,23.021375,120.347878,3.6580084e-05
C0C730,中大臨海站,2024-05-02,24.966126,121.008581,1.5175198e-09
C0X250,新營,2024-05-02,23.310689,120.316681,4.375789e-06
C0V700,三民,2024-05-02,22.645017,120.311233,0.12465207
C0U870,大礁溪,2024-05-02,24.791042,121.675047,9.9371205e-09
C0E870,高鐵苗栗,2024-05-02,24.60725,120.826094,4.805046e-10
A2K570,古坑花卉中心,2024-05-02,23.63353,120.55239,1.6857761e-08
C0M860,新美,2024-05-02,23.338017,120.683169,5.4104703e-07
C1E701,八卦,2024-05-02,24.491756,120.927619,9.810505e-10
C0I420,國姓,2024-05-02,24.037803,120.855072,2.5074729e-05
C0S960,香蘭,2024-05-02,22.587569,120.993375,0.0015568734
C0R260,春日,2024-05-02,22.370361,120.628306,0.014192653
72G600,臺中農改場,2024-05-02,24.003028,120.534389,3.2093634e-08
C0Z210,瑞穗,2024-05-02,23.5239,121.39021,0.006857488
C0M820,達邦,2024-05-02,23.453994,120.749517,1.5586064e-08
C0V860,南寮,2024-05-02,22.7616,120.2339,0.06629084
C0G740,大城,2024-05-02,23.852487,120.320935,2.0600307e-08
C0R920,塭仔,2024-05-02,22.4169,120.5197,0.022488391
C0R470,高樹,2024-05-02,22.826389,120.600806,6.594709e-06
C0R680,佳樂水,2024-05-02,21.993578,120.861633,1.3266556e-08
C1O870,大棟山,2024-05-02,23.31157,120.52226,5.4330274e-09
C0D360,梅花,2024-05-02,24.678347,121.208558,8.6857295e-09
C0Z190,富世,2024-05-02,24.14743,121.6297,2.3213896e-07
C0AI10,屈尺,2024-05-02,24.92184,121.54475,5.4678143e-08
B2U990,畜試東區分所,2024-05-02,24.669039,121.832561,3.7094034e-07
C0R240,來義,2024-05-02,22.527306,120.625111,0.006957131
C1R610,西大武山,2024-05-02,22.617719,120.7322,1.6824956e-09
C0G900,線西,2024-05-02,24.143358,120.443536,5.659034e-08
C0M700,竹崎,2024-05-02,23.526178,120.555508,6.221149e-06
C2E880,三義,2024-05-02,24.405478,120.749819,7.512038e-10
C0C720,竹圍,2024-05-02,25.112692,121.239824,1.1669972e-08
C0F9P0,清水,2024-05-02,24.312297,120.562242,5.0389165e-08
C0Z150,吉安光華,2024-05-02,23.930925,121.595153,0.11030724
C1D640,外坪(五指山),2024-05-02,24.644447,121.090961,2.0269548e-09
C0F9O0,潭子,2024-05-02,24.213106,120.703933,1.3454112e-07
72T250,花蓮農改場,2024-05-02,23.975222,121.563889,0.023071261
C0E780,銅鑼,2024-05-02,24.489681,120.790853,6.168742e-10
C1T950,太安,2024-05-02,23.666719,121.370128,5.686102e-09
C0E830,苑裡,2024-05-02,24.439714,120.653053,1.2072933e-08
467270,田中,2024-05-02,23.873803,120.581286,5.7228476e-07
C0SA10,檳榔四格山,2024-05-02,22.810031,121.109308,2.3896355e-05
C1T830,布洛灣,2024-05-02,24.17184,121.57127,0.045293637
C0F970,大坑,2024-05-02,24.173142,120.722289,7.712191e-07
C1U920,思源,2024-05-02,24.393125,121.347214,1.3318524e-09
C0A931,三和,2024-05-02,25.233153,121.595236,6.7176003e-09
C0I010,廬山,2024-05-02,24.033311,121.181808,3.5176482e-09
C0R860,鼻頭,2024-05-02,22.1043,120.8979,5.155102e-07
C0UB20,壯圍,2024-05-02,24.7359,121.8163,4.6114277e-08
C0R790,九棚,2024-05-02,22.14195,120.889281,4.672126e-08
C0W110,東莒,2024-05-02,25.9652,119.98069,9.5876764e-08
C1U930,粉鳥林,2024-05-02,24.497088,121.842479,1.6301427e-06
C1I211,蘆竹湳,2024-05-02,23.934019,120.811994,1.1324286e-08
C0S830,長濱,2024-05-02,23.286817,121.411975,1.2917557e-05
C1F9F1,伯公龍,2024-05-02,24.272392,120.849047,9.948329e-07
C0E810,西湖,2024-05-02,24.562947,120.7485,1.322779e-09
C1I440,新高口,2024-05-02,23.478744,120.878939,5.387499e-09
C0O840,王爺宮,2024-05-02,23.222064,120.40085,0.062016528
C0T9G0,鳳林山,2024-05-02,23.735269,121.420131,1.378249e-08
C0X080,佳里,2024-05-02,23.173039,120.145086,0.013789091
C0Z310,清水斷崖,2024-05-02,24.218294,121.689142,1.7972123e-08
C0M680,太保,2024-05-02,23.455062,120.331455,1.2346482e-07
C1S820,金峰,2024-05-02,22.590969,120.933236,8.644695e-06
C0AD10,八里,2024-05-02,25.150211,121.403947,1.1669972e-08
C2K240,草嶺,2024-05-02,23.59555,120.693461,1.3976821e-09
C1SA70,都蘭,2024-05-02,22.87794,121.226881,0.5223965
C0K440,二崙,2024-05-02,23.772797,120.408944,3.7967244e-08
C1A760,坪林交控,2024-05-02,24.94284,121.713442,1.2354497e-08
C0F9N0,大里,2024-05-02,24.092464,120.701378,5.6095825e-05
C0SA90,達仁林場,2024-05-02,22.264347,120.823972,4.062426e-09
C1R290,石門山,2024-05-02,22.112611,120.756597,4.4008153e-09
42HA10,萬大發電廠,2024-05-02,23.978875,121.139639,2.419884e-09
C0R890,山海,2024-05-02,21.9878,120.7091,3.4249135e-07
C0T9A0,月眉山,2024-05-02,23.809928,121.539828,1.883775e-08
C0AC70,信義,2024-05-02,25.037822,121.564597,1.9100634e-08
C0K560,棋山,2024-05-02,23.68645,120.603417,1.3935515e-08
C1Z240,中平林道,2024-05-02,23.42115,121.26763,3.9342254e-09
U2H480,溪頭,2024-05-02,23.670306,120.798194,1.159462e-09
C0M880,好美里,2024-05-02,23.3364,120.138,0.0001264331
C0T9E0,大坑,2024-05-02,23.880628,121.581981,3.268664e-08
C0K530,臺西,2024-05-02,23.701547,120.197559,5.2744376e-08
C1E900,國一N128K,2024-05-02,24.560997,120.844186,5.323268e-10
C0AJ50,水湳洞,2024-05-02,25.123695,121.862238,6.395108e-08
C0AI20,白沙灣,2024-05-02,25.283128,121.519058,9.785038e-09
C0A860,大坪,2024-05-02,25.165914,121.632969,3.7982506e-09
C1U850,觀音海岸,2024-05-02,24.38319,121.77856,6.28438e-09
C0U950,鶯子嶺,2024-05-02,24.89754,121.79244,4.8216564e-09
C0O900,善化,2024-05-02,23.112883,120.297219,2.7622194e-05
C0K550,蔦松,2024-05-02,23.514319,120.229736,2.5470898e-05
E2P980,林試六龜中心,2024-05-02,22.991703,120.645722,5.7581804e-08
C0E590,通霄,2024-05-02,24.471892,120.704622,8.164127e-09
C1I310,西巒,2024-05-02,23.754486,120.883956,2.2774023e-09
C0A550,泰平,2024-05-02,24.971197,121.823711,4.8575735e-09
C0I360,水里,2024-05-02,23.812553,120.849792,8.5442586e-08
C0R830,高士,2024-05-02,22.121825,120.836781,2.548294e-09
C1I101,溪頭,2024-05-02,23.661789,120.807647,3.8091765e-09
C0AJ20,野柳,2024-05-02,25.20703,121.690021,1.4202212e-08
C0B060,暖暖,2024-05-02,25.0957,121.7403,1.7235262e-08
C1H920,長豐,2024-05-02,24.102039,120.879897,4.022671e-09
C0V360,內門,2024-05-02,22.975481,120.466769,2.531374e-05
C0R850,林邊,2024-05-02,22.4634,120.5339,3.2893342e-05
C0E930,龍鳳,2024-05-02,24.700034,120.859125,6.262528e-10
C0U910,冬山,2024-05-02,24.63373,121.7937,3.7094034e-07
C1E721,泰安,2024-05-02,24.489017,120.968036,7.5354006e-10
82H320,茶改中部分場,2024-05-02,23.875611,120.913583,5.9330576e-09
C0M750,布袋,2024-05-02,23.380878,120.167789,8.4899654e-07
C1S860,利嘉,2024-05-02,22.809417,121.050528,3.585792e-07
72C440,桃園農改,2024-05-02,24.950944,121.030583,1.3107939e-09
E2S980,林試太麻里1,2024-05-02,22.598922,120.980044,0.00041246752
C0X170,關廟,2024-05-02,22.963017,120.327797,0.00011585404
C0V720,林園,2024-05-02,22.507747,120.394511,0.06288742
C1I510,線浸林道,2024-05-02,23.761508,120.832956,2.453294e-09
C0D690,外湖,2024-05-02,24.917735,120.968711,1.3342119e-09
C0C750,新興坑尾,2024-05-02,25.0061,121.0971,1.4861005e-09
B2Q810,畜試南區分所,2024-05-02,21.945583,120.802167,1.50549e-08
C0S790,金崙,2024-05-02,22.538122,120.966875,7.9006095e-06
C0AH90,福山植物園,2024-05-02,24.760717,121.58135,1.2908565e-08
C0I540,奇萊稜線,2024-05-02,24.109231,121.326456,9.44319e-09
C0M850,表湖,2024-05-02,23.24186,120.64166,2.5926644e-08
C0S770,大溪山,2024-05-02,22.478475,120.943325,1.1788337e-06
C0AG80,中和,2024-05-02,24.991622,121.491792,2.1709674e-08
C0T790,大禹嶺,2024-05-02,24.186117,121.316086,8.836758e-09
C0T9B0,水源,2024-05-02,23.991861,121.537169,1.457463e-08
C0R840,牡丹池山,2024-05-02,22.168389,120.841225,1.7270596e-09
C1I131,桶頭,2024-05-02,23.641944,120.654117,2.7412879e-09
CAL110,布袋國中,2024-05-02,23.35893,120.18026,8.4899654e-07
467571,新竹,2024-05-02,24.827853,121.014219,6.70518e-10
C0Z290,赤柯山,2024-05-02,23.36893,121.38293,4.1652196e-08
C0X280,將軍,2024-05-02,23.214999,120.13577,0.00063416234
C0S690,太麻里,2024-05-02,22.60902,120.98533,6.6035337e-09
C0U880,北關,2024-05-02,24.9072,121.8734,9.740778e-08
C1H860,瑞岩,2024-05-02,24.123772,121.18345,6.8088e-09
C0G810,埔心,2024-05-02,23.947633,120.525456,7.5065024e-08
C0U970,大福,2024-05-02,24.80064,121.81389,1.088552e-05
C1E670,南礦,2024-05-02,24.538278,121.002836,7.3864115e-10
C0M520,東後寮,2024-05-02,23.369908,120.248065,7.443207e-07
C1E461,松安,2024-05-02,24.397972,120.986022,1.5347431e-09
72G600,臺中農改,2024-05-02,24.003028,120.534389,3.2093634e-08
C2N160,西拉雅風管處,2024-05-02,23.189481,120.335297,0.004716057
C0A640,石碇,2024-05-02,24.993969,121.662917,3.9100474e-09
E2S960,林試太麻里2,2024-05-02,22.598,120.99775,0.0020533556
C0F9Y0,桃山,2024-05-02,24.432739,121.303808,1.653369e-08
C1I020,萬大,2024-05-02,23.979817,121.132261,5.113221e-09
C0U940,羅東,2024-05-02,24.68184,121.74934,3.5362035e-08
C0M650,朴子,2024-05-02,23.43463,120.23902,4.0522715e-07
C1I500,大尖山,2024-05-02,23.858572,120.994889,4.2560138e-09
C0G820,田尾,2024-05-02,23.901669,120.509389,7.5065024e-08
E2K600,四湖植物園,2024-05-02,23.676986,120.163433,3.2631235e-07
C0S730,綠島,2024-05-02,22.6672,121.47533,1.2795125e-07
12Q970,東港工作站,2024-05-02,22.479997,120.466058,3.4438883e-05
C0E430,南庄,2024-05-02,24.601775,121.000214,5.1080323e-10
C1TA00,太魯閣,2024-05-02,24.15773,121.6236,1.2210988e-07
466920,臺北,2024-05-02,25.037658,121.514853,1.9100634e-08
C0R600,舊泰武,2024-05-02,22.588194,120.664944,1.4143005e-07
C1I260,北坑,2024-05-02,23.9246,121.006903,8.736305e-09
466910,鞍部,2024-05-02,25.182586,121.529731,5.276246e-09
C1I230,九份二山,2024-05-02,23.961944,120.845,3.860317e-09
C2A660,瑞芳,2024-05-02,25.113169,121.801147,2.7928781e-08
C0R270,琉球嶼,2024-05-02,22.332244,120.362236,5.6325087e-05
C1T990,高寮,2024-05-02,23.394239,121.356808,0.0064398358
C0G620,芬園,2024-05-02,24.015678,120.6213,9.740052e-07
C1Z140,荖溪,2024-05-02,23.890575,121.45964,5.281424e-08
C1I201,中心崙,2024-05-02,23.728722,120.712097,4.898511e-09
C1I400,凌霄,2024-05-02,24.018778,121.004456,3.513873e-09
C1M640,十字,2024-05-02,23.492153,120.753683,5.5073968e-09
G2P820,農試鳳山分所,2024-05-02,22.646611,120.356083,0.100198165
C0Z270,蕃薯寮,2024-05-02,23.73835,121.540108,7.454829e-07
C0F9Q0,外埔,2024-05-02,24.347817,120.705686,1.5148679e-09
C0K580,高鐵雲林,2024-05-02,23.737456,120.417944,6.280153e-08
C2I090,鳳凰,2024-05-02,23.728081,120.787347,1.3864985e-09
C0U990,員山,2024-05-02,24.74435,121.72247,4.0814097e-08
C0V770,大社,2024-05-02,22.730306,120.346639,0.047017034
C0X120,麻豆,2024-05-02,23.183289,120.248611,8.842417e-06
C0C670,龍潭,2024-05-02,24.870056,121.221389,2.2317692e-09
C0D680,香山濕地,2024-05-02,24.783581,120.914988,6.560945e-10
C0S980,勝林山,2024-05-02,22.430439,120.8938,1.2804685e-09
C0V730,大寮,2024-05-02,22.605614,120.395717,0.010611051
C0R570,麟洛,2024-05-02,22.65078,120.52719,4.2568725e-05
CAG100,王功漁港,2024-05-02,23.96824,120.32586,1.5138578e-08
C0X290,北門,2024-05-02,23.267772,120.125481,0.00063416234
C2F930,大甲,2024-05-02,24.347667,120.640403,5.8693064e-09
C0D650,湖口,2024-05-02,24.904794,121.043628,1.2982337e-09
C0E420,竹南,2024-05-02,24.708978,120.888897,6.1338723e-10
C0U780,五結,2024-05-02,24.68637,121.79794,4.6114277e-08
C1I250,鯉潭,2024-05-02,23.961922,120.991131,5.158477e-09
C0R130,阿禮,2024-05-02,22.742908,120.743678,3.9187675e-09
C0X100,臺南市北區,2024-05-02,23.010394,120.194228,0.000534633
C0S920,金峰嘉蘭,2024-05-02,22.594789,120.960825,0.00036556786
C0V490,新興,2024-05-02,22.627422,120.298803,0.016476085
C0F9K0,大安,2024-05-02,24.345061,120.588025,1.1049476e-08
72N100,臺南農改,2024-05-02,23.0605,120.342194,1.1102873e-05
467290,古坑,2024-05-02,23.633639,120.551889,1.6857761e-08
C0V440,鳳山,2024-05-02,22.646653,120.356122,0.10019827
C1T940,大觀,2024-05-02,23.714206,121.373133,3.134391e-08
72T250,花蓮農改,2024-05-02,23.975222,121.563889,0.023071261
C0E740,造橋,2024-05-02,24.637056,120.864778,4.7605103e-10
C0R100,尾寮山,2024-05-02,22.833111,120.683889,3.8536148e-09
A2K630,臺大雲林校區,2024-05-02,23.730628,120.423903,6.280153e-08
C0D580,寶山,2024-05-02,24.735006,121.025192,2.2927134e-09
E2P990,林試扇平站,2024-05-02,22.9677,120.6857,0.0022062853
C0AI30,三重,2024-05-02,25.057328,121.500629,2.1665455e-08
C0AH00,汐止,2024-05-02,25.066881,121.658778,1.9100634e-08
C1Z040,立山,2024-05-02,23.443356,121.327375,0.00019819876
C0R740,獅子,2024-05-02,22.201569,120.70525,4.4317397e-07
C0W130,花嶼,2024-05-02,23.40007,119.32276,2.340349e-06
C0A950,鼻頭角,2024-05-02,25.129036,121.923372,6.650297e-05
C0K470,林內,2024-05-02,23.748675,120.609642,1.7076715e-07
82C160,茶改場,2024-05-02,24.908472,121.185333,2.3503852e-09
C0Z320,清水林道,2024-05-02,23.27125,121.188272,1.0731863e-05
C0R760,南仁湖,2024-05-02,22.084681,120.863353,4.4008153e-09
C0M670,大林,2024-05-02,23.600616,120.45841,4.5709967e-08
C0M800,茶山,2024-05-02,23.299075,120.664767,0.00021526855
C0A9C0,天母,2024-05-02,25.117494,121.537169,1.2440641e-08
72K220,南改斗南分場,2024-05-02,23.634556,120.477333,1.7217586e-08
72AI40,桃改樹林分場,2024-05-02,24.944503,121.386972,3.4229615e-09
C0S910,蘭嶼燈塔,2024-05-02,22.081197,121.503117,1.4324553e-08
C0B050,八斗子,2024-05-02,25.144754,121.79167,9.304098e-08
C0U900,內城,2024-05-02,24.71813,121.68766,2.512331e-08
C0X320,柳營,2024-05-02,23.253328,120.375253,0.6086834
C0M790,新港,2024-05-02,23.553269,120.345728,4.1369383e-08
C0F9T0,西屯,2024-05-02,24.179494,120.641275,3.095246e-08
C0SA30,都歷,2024-05-02,23.020333,121.323642,0.52345496
C0C620,蘆竹,2024-05-02,25.084275,121.265767,5.5366134e-09
C0R730,大坪頂,2024-05-02,22.024633,120.69355,3.615708e-08
C0AJ40,石門,2024-05-02,25.273672,121.601198,6.915667e-09
C0E750,苗栗,2024-05-02,24.564569,120.824575,5.3928634e-10
C0T870,鯉魚潭,2024-05-02,23.935639,121.508944,1.7574883e-05
C1V170,排雲,2024-05-02,23.463619,120.954147,1.1493889e-08
C2H950,中寮,2024-05-02,23.884447,120.766406,4.558576e-05
C0R350,貓鼻頭,2024-05-02,21.921774,120.7358,1.5903515e-06
C0V660,岡山,2024-05-02,22.797078,120.294958,0.18310152
C1H941,雙冬,2024-05-02,23.967378,120.802189,7.926931e-09
C0AJ70,田寮,2024-05-02,25.2698,121.4886,9.904309e-09
C0AI00,五股,2024-05-02,25.07445,121.42728,8.002798e-09
C0Z280,德武,2024-05-02,23.47426,121.41071,6.3375487e-06
C0R700,枋山,2024-05-02,22.246844,120.661086,0.00036731336
C0C460,復興,2024-05-02,24.820208,121.352281,3.224019e-09
E2H360,蓮華池,2024-05-02,23.918333,120.885278,5.130855e-09
C0M640,中埔,2024-05-02,23.42538,120.5229,2.03692e-06
C0W140,金沙,2024-05-02,24.488292,118.408778,5.407071e-07
C2A540,四堵,2024-05-02,24.8926,121.745736,6.823439e-09
C0ACA0,新莊,2024-05-02,25.051478,121.446756,3.7704414e-08
C0R220,潮州,2024-05-02,22.534361,120.54,0.011512755
U2HA40,臺大內茅埔,2024-05-02,23.689722,120.851117,1.5374775e-08
467490,臺中,2024-05-02,24.145736,120.684075,4.1117646e-06
C0U960,翠峰湖,2024-05-02,24.510856,121.608044,5.92756e-09
E2HA20,林試畢祿溪站,2024-05-02,24.226944,121.308522,1.122378e-08
C0V890,前鎮,2024-05-02,22.5718,120.3117,0.017203914
467620,蘭嶼,2024-05-02,22.036969,121.558339,4.8785296e-09
C1F941,雪嶺,2024-05-02,24.280586,121.026642,2.0472456e-08
C0AC80,文山,2024-05-02,25.00235,121.575728,1.4631478e-08
C0F9R0,龍井,2024-05-02,24.184536,120.528972,1.05306654e-07
C0M760,民雄,2024-05-02,23.551754,120.428457,5.0952416e-08
C0UA40,西德山,2024-05-02,24.560647,121.752608,4.70884e-09
C1T920,中興,2024-05-02,23.769503,121.498653,0.050138254
C0D550,雪霸,2024-05-02,24.526972,121.11605,1.8253078e-09
C2F860,梨山,2024-05-02,24.247522,121.243669,1.149742e-08
C0R320,車城,2024-05-02,22.0744,120.716247,1.0545652e-05
C1S870,南美山,2024-05-02,23.15025,121.382333,0.0045404746
C0B020,基隆嶼,2024-05-02,25.19141,121.78391,2.7887883e-05
C1U501,牛鬥,2024-05-02,24.637836,121.573656,5.8381446e-09
C0M730,嘉義市東區,2024-05-02,23.457673,120.460531,3.7605096e-05
C0S700,知本,2024-05-02,22.684866,121.005642,1.4214163e-08
C1N001,沙崙,2024-05-02,22.935472,120.309406,0.00017566097
C0V760,橋頭,2024-05-02,22.757806,120.30575,0.060591433
C0G960,福寶,2024-05-02,24.0443,120.3814,2.2178687e-08
C0X210,白河,2024-05-02,23.347466,120.414427,0.000599401
C0S810,東河,2024-05-02,22.972672,121.303986,0.33503547
C0R670,楓港,2024-05-02,22.190131,120.692156,4.9053247e-06
C0FA50,霧峰,2024-05-02,24.0419,120.6995,4.4810567e-06
C0UB10,蘇澳,2024-05-02,24.5969,121.8571,1.395603e-07
C0G950,防潮門,2024-05-02,24.1835,120.4871,1.05306654e-07
C0M740,六腳,2024-05-02,23.492871,120.290625,5.804992e-08
C1R250,力里,2024-05-02,22.428117,120.629228,0.00916653
C0K330,虎尾,2024-05-02,23.719183,120.442036,5.7765952e-08
C2FA00,烏石坑,2024-05-02,24.273503,120.947617,5.302861e-09
C0V620,永安,2024-05-02,22.82315,120.236856,0.18310152
C1I330,楓樹林,2024-05-02,23.986803,121.076117,4.0223487e-09
C0W200,湖西,2024-05-02,23.596314,119.67275,4.8702805e-06
72Q010,高雄農改場,2024-05-02,22.709333,120.525889,1.576615e-05
C0SA40,瑞和,2024-05-02,22.974361,121.156697,0.05433285
C0C680,龜山,2024-05-02,25.02846,121.38656,6.955445e-09
C2V260,月眉,2024-05-02,22.971003,120.539853,5.05333e-07
C0V450,鳳森,2024-05-02,22.545064,120.392592,0.023632517
C0U720,南山,2024-05-02,24.43742,121.38167,3.046176e-09
A2N290,臺南蘭花園區,2024-05-02,23.340258,120.379661,3.3193055e-07
C0R560,新園,2024-05-02,22.5434,120.461558,0.06288742
C0U890,三星,2024-05-02,24.66812,121.65302,1.4439739e-08
C1V300,御油山,2024-05-02,23.001983,120.715364,6.3389263e-09
C0U600,礁溪,2024-05-02,24.817539,121.765608,0.040711515
C1T980,龍澗,2024-05-02,24.023289,121.411328,2.0974863e-08
C0D670,海天一線,2024-05-02,24.831986,120.914438,1.0515583e-09
C0SA00,歷坵,2024-05-02,22.520969,120.89185,3.974708e-08
C0M710,東石,2024-05-02,23.458927,120.15385,0.0005139188
C0M780,鹿草,2024-05-02,23.41134,120.30835,3.1459388e-07
C0U520,雙連埤,2024-05-02,24.753033,121.641303,9.775189e-09
C0B010,七堵,2024-05-02,25.094819,121.71713,3.090432e-08
C0R480,長治,2024-05-02,22.693128,120.542622,1.783374e-05
C1V830,國三S383K,2024-05-02,22.781967,120.426475,1.4378006e-07
12Q980,恆春工作站,2024-05-02,22.079678,120.714425,1.0545652e-05
C1O940,東山服務區,2024-05-02,23.286016,120.398472,0.08565508
C1U840,東澳嶺,2024-05-02,24.5378,121.8485,5.445435e-09
C1D630,飛鳳山,2024-05-02,24.766464,121.119178,2.4835671e-09
C0S940,石寧山,2024-05-02,23.223772,121.406639,0.03943946
C0K410,北港,2024-05-02,23.573957,120.292802,4.434272e-07
C2M620,瑞里,2024-05-02,23.545133,120.675197,3.7184396e-09
C2O950,安南,2024-05-02,23.076694,120.144861,0.3659445
C0F0E0,南湖圈谷,2024-05-02,24.363714,121.444667,1.1870897e-08
467610,成功,2024-05-02,23.097486,121.373428,0.79922354
C0G890,伸港,2024-05-02,24.148933,120.484403,5.659034e-08
C2E540,龍溪,2024-05-02,24.606489,120.783933,4.8080623e-10
C1V200,梅山,2024-05-02,23.268447,120.823556,5.987337e-07
C0T9H0,加路蘭山,2024-05-02,23.682947,121.5274,1.5166611e-08
C2O930,玉井,2024-05-02,23.126042,120.46055,0.00026337037
C1F911,新伯公,2024-05-02,24.221361,120.841069,0.0028417287
C0R490,九如,2024-05-02,22.7405,120.490503,1.8062978e-05
C0X200,左鎮,2024-05-02,23.056758,120.408522,5.3913056e-05
C1F891,稍來,2024-05-02,24.265689,121.001142,9.725515e-09
72N240,七股研究中心,2024-05-02,23.081672,120.062894,0.41029823
C0C700,中壢,2024-05-02,24.977661,121.256375,7.0564394e-09
C0M690,水上,2024-05-02,23.419734,120.388909,1.1905515e-07
C0V690,鼓山,2024-05-02,22.623325,120.275575,0.016476085
C0O860,大內,2024-05-02,23.11885,120.36083,1.3841556e-05
C0Z200,萬榮,2024-05-02,23.709219,121.420106,0.0067418823
C0T9D0,和中,2024-05-02,24.26676,121.74103,7.512618e-05
C1O921,楠西,2024-05-02,23.183511,120.484083,0.40350333
C0AJ30,淡水觀海,2024-05-02,25.184591,121.408616,1.2414164e-08
C0V810,左營,2024-05-02,22.67491,120.28491,0.12465207
C0UA70,桃源谷,2024-05-02,24.962606,121.888875,4.281319e-09
C0X130,官田,2024-05-02,23.193217,120.315422,0.0072022285
C1H000,翠峰,2024-05-02,24.109397,121.205211,3.5092313e-09
C0UA90,石城,2024-05-02,24.980444,121.951214,1.940874e-07
C1E681,南勢山,2024-05-02,24.421669,120.923831,1.9924418e-09
C0A9F0,內湖,2024-05-02,25.079422,121.57545,1.9100634e-08
C0K291,宜梧,2024-05-02,23.536281,120.169329,2.5482488e-05
C1K540,口湖,2024-05-02,23.585344,120.180517,2.8019572e-06
C0R780,滿州,2024-05-02,22.024403,120.839892,4.5128424e-08
C0V870,文安,2024-05-02,22.8025,120.2164,0.18552665
C0U650,玉蘭,2024-05-02,24.675286,121.587061,7.3134476e-09
C0R640,東港,2024-05-02,22.46247,120.44074,3.5235244e-05
K2E360,苗栗農改,2024-05-02,24.495722,120.829111,7.155265e-10
C0AJ80,板橋,2024-05-02,25.0107,121.4489,2.3484548e-08
C0S660,下馬,2024-05-02,23.150427,121.070312,4.7120565e-09
C1H9B1,阿眉,2024-05-02,24.1263,120.994672,6.5683983e-09
C0UA20,多加屯,2024-05-02,24.368614,121.373189,1.1086039e-08
C0E730,頭份,2024-05-02,24.688247,120.912206,6.210854e-10
72V140,高改旗南分場,2024-05-02,22.857861,120.516667,6.7488037e-07
C0K480,莿桐,2024-05-02,23.761192,120.502372,3.8463398e-08
C0U980,坪林石牌,2024-05-02,24.86478,121.77396,6.6046293e-09
C0T900,西林,2024-05-02,23.8119,121.441458,1.8895409e-05
C1I150,青雲,2024-05-02,23.793361,120.949378,1.53947e-08
467350,澎湖,2024-05-02,23.565503,119.563094,1.01548785e-05
C0G800,埔鹽,2024-05-02,24.000394,120.431683,1.866187e-08
C0H960,草屯,2024-05-02,23.973672,120.68085,1.1041102e-06
C1V780,多納林道,2024-05-02,22.888028,120.737917,3.8711407e-09
C0E920,通霄漁港,2024-05-02,24.498589,120.673876,1.0698964e-08
C0Z330,安通山,2024-05-02,23.290728,121.348528,5.6961888e-08
C0AH10,永和,2024-05-02,25.01125,121.508111,2.3484548e-08
C2G640,鹿港,2024-05-02,24.0753,120.430481,2.2178687e-08
C1E890,國三N149K,2024-05-02,24.463414,120.680019,9.239248e-09
C1R110,口社,2024-05-02,22.770111,120.645222,0.30243465
C1M870,國三N285K,2024-05-02,23.550319,120.505833,5.9375434e-08
467050,新屋,2024-05-02,25.006744,121.047486,1.5109031e-09
C1E480,鳳美,2024-05-02,24.554803,121.034747,6.2955585e-10
C0M530,奮起湖,2024-05-02,23.493903,120.699253,3.441337e-09
C0C590,觀音,2024-05-02,25.027072,121.153317,1.7841779e-09
C0T9M0,靜浦,2024-05-02,23.455167,121.495028,0.062095635
C0AI40,石牌,2024-05-02,25.115597,121.513139,1.3126634e-08
C1F871,上谷關,2024-05-02,24.203483,121.018644,6.4752785e-09
C0G880,二水,2024-05-02,23.810742,120.6173,1.178764e-06
C0R940,加祿堂,2024-05-02,22.3363,120.6217,0.0023425194
C0W220,北竿,2024-05-02,26.220358,119.974881,5.737099e-07
C0O960,崎頂,2024-05-02,22.959547,120.369317,1.12231155e-05
C0S750,向陽,2024-05-02,23.248397,120.986133,2.0704527e-09
C0T9F0,水璉,2024-05-02,23.797131,121.542514,7.561552e-07
C1M600,頭凍,2024-05-02,23.406364,120.603339,4.5754714e-08
467660,臺東,2024-05-02,22.752211,121.154586,0.00033262046
C1D380,新埔,2024-05-02,24.84745,121.03834,6.537324e-10
C0V750,路竹,2024-05-02,22.854997,120.259439,0.00014875903
C0N050,蚵寮,2024-05-02,23.301,120.1104,0.0001264331
72M700,南改鹿草分場,2024-05-02,23.416869,120.283061,4.0522715e-07
C1SA50,利嘉林道,2024-05-02,22.82325,121.009389,7.3003154e-10
467550,玉山,2024-05-02,23.487614,120.959522,1.8664114e-08
C0A940,金山,2024-05-02,25.223628,121.643967,1.3090056e-08
C1V340,大津,2024-05-02,22.888322,120.645986,0.05023443
C0W180,七美,2024-05-02,23.219333,119.444892,1.4124141e-05
C1F9C1,白冷,2024-05-02,24.182844,120.929889,5.0415447e-06
K2E710,苗改生物防治研究中心,2024-05-02,24.422861,120.871833,1.1135475e-09
C0N040,蘆竹溝,2024-05-02,23.2344,120.0961,0.00063416234
C2W230,畜試所澎湖,2024-05-02,23.628342,119.513206,1.1077045e-06
C0R880,後壁湖,2024-05-02,21.9457,120.7457,4.036377e-07
C1I280,埔中,2024-05-02,23.820778,120.642594,7.955878e-09
467790,墾丁雷達站,2024-05-02,21.948235,120.808028,8.287981e-09
C0W190,望安,2024-05-02,23.380564,119.494075,0.0021212862
466881,新北,2024-05-02,24.9593,121.52,1.888077e-08
C0Z170,卓溪,2024-05-02,23.3443,121.3029,2.7614871e-05
C0F850,東勢,2024-05-02,24.246428,120.833047,1.1639872e-08
466900,淡水,2024-05-02,25.164889,121.448906,1.1476299e-08
C0I370,魚池,2024-05-02,23.895703,120.94135,4.0283448e-09
C0C630,大溪,2024-05-02,24.882853,121.265547,2.5642275e-09
C0A520,山佳,2024-05-02,24.974944,121.402008,1.8946064e-08
C0I110,竹山,2024-05-02,23.761225,120.688156,2.8776049e-07
82H840,茶改南部分場,2024-05-02,23.762528,120.7405,1.1521062e-08
C0G660,溪湖,2024-05-02,23.94835,120.479122,8.45453e-08
C1T800,洛韶,2024-05-02,24.204558,121.453956,8.0523614e-09
C1T810,慈恩,2024-05-02,24.192044,121.388386,1.794033e-09
C1E451,象鼻,2024-05-02,24.368617,120.940228,1.3717058e-08
C0AC60,三峽,2024-05-02,24.939025,121.369728,3.2474157e-09
C0I490,萬大林道,2024-05-02,23.928228,121.091411,3.6348942e-09
C1I290,豐丘,2024-05-02,23.668178,120.887417,1.1752592e-09
C1I320,奧萬大,2024-05-02,23.952956,121.178556,3.89467e-09
C0U770,南澳,2024-05-02,24.44935,121.81022,2.2672571e-08
C0A980,社子,2024-05-02,25.109508,121.469681,1.22068835e-08
C0V800,六龜,2024-05-02,22.997889,120.633583,7.022848e-08
C1G9D0,國一S218K,2024-05-02,23.890641,120.493253,1.6486713e-07
C2F9A0,中竹林,2024-05-02,24.103556,120.751061,4.039134e-07
C0FA40,臺中電廠,2024-05-02,24.2146,120.4907,1.05306455e-07
C0H9C0,合歡山,2024-05-02,24.143442,121.272547,1.4179584e-08
C0X060,下營,2024-05-02,23.22695,120.256261,1.5013118e-05
G2M350,農試溪口農場,2024-05-02,23.58565,120.408111,5.992038e-08
C0U860,頭城,2024-05-02,24.85323,121.8308,0.053593617
C0R580,南州,2024-05-02,22.48591,120.50274,3.5235244e-05
C0D430,峨眉,2024-05-02,24.6905,121.017189,4.604339e-10
C0G780,秀水,2024-05-02,24.03405,120.503869,3.2094675e-08
72N100,臺南農改場,2024-05-02,23.0605,120.342194,1.1102873e-05
C0S900,蘭嶼高中,2024-05-02,22.04909,121.51214,1.8482522e-08
467540,大武,2024-05-02,22.355675,120.903789,0.00015811792
C1F9W0,德基,2024-05-02,24.254783,121.190261,7.952039e-09
C1Z120,壽豐,2024-05-02,23.870853,121.508081,0.47179875
C0W160,烏坵,2024-05-02,24.9944,119.44956,3.2432453e-08
C1I240,外大坪,2024-05-02,23.958697,120.917931,4.8653064e-09
C1I550,國六W023K,2024-05-02,23.979067,120.867742,6.4617595e-08
C0R870,興海,2024-05-02,21.9752,120.8439,1.50549e-08
C0R140,瑪家,2024-05-02,22.682903,120.686639,3.6362135e-08
C0A530,坪林,2024-05-02,24.938183,121.70975,8.554316e-09
C0X260,後壁,2024-05-02,23.366358,120.362326,3.3193055e-07
C0Z230,和平,2024-05-02,24.30717,121.77007,0.00016713049
C0G770,福興,2024-05-02,24.041289,120.437669,1.8657884e-08
C0H9A0,神木村,2024-05-02,23.532742,120.843667,5.461516e-09
C0I460,南投,2024-05-02,23.911469,120.687331,0.105077825
C0I480,梅峰,2024-05-02,24.085272,121.173572,3.815299e-09
C1V570,吉東,2024-05-02,22.85422,120.5454,4.959438e-07
C2A560,福山,2024-05-02,24.776203,121.502811,2.4294398e-08
C0AH30,五分山,2024-05-02,25.07125,121.780794,3.1792642e-09
C0FA10,松柏,2024-05-02,24.429115,120.617482,1.4165797e-08
72S200,東改班鳩分場,2024-05-02,22.829528,121.077694,0.008662704
72HA00,中改埔里分場,2024-05-02,23.903208,120.963364,6.1469456e-09
C0C650,平鎮,2024-05-02,24.897503,121.214636,2.2997604e-09
C0S930,延平,2024-05-02,22.902581,121.084058,0.01938148
C0UA60,樟樹山,2024-05-02,24.41393,121.78325,4.1286424e-07
C1S670,摩天,2024-05-02,23.199503,121.027,2.3862876e-09
C0V630,茄萣,2024-05-02,22.906642,120.182608,0.00029110516
466940,基隆,2024-05-02,25.133314,121.740475,7.970644e-08
C0X050,東河,2024-05-02,23.296598,120.385608,0.13189559
C0R770,保力,2024-05-02,22.071122,120.764111,2.2063548e-07
G2L020,農試嘉義分所,2024-05-02,23.485028,120.473806,4.5422683e-05
C0X240,關子嶺,2024-05-02,23.331169,120.508025,1.15511575e-05
C0I380,集集,2024-05-02,23.828206,120.801467,9.274227e-08
466990,花蓮,2024-05-02,23.975128,121.613275,0.045903467
C1V220,小關山,2024-05-02,23.154217,120.813603,2.3089286e-09
C1F9G1,慶福山,2024-05-02,24.180853,120.848378,4.95274e-08
C0Z250,瑞穗林道,2024-05-02,23.49284,121.30688,6.3214918e-09
C0D590,新豐,2024-05-02,24.87068,120.97721,1.0597331e-09
C0A870,五指山,2024-05-02,25.132153,121.608692,3.3372527e-09
C0UA50,西帽山,2024-05-02,24.555361,121.802628,5.0891784e-09
C0X160,仁德,2024-05-02,22.968258,120.257689,8.8851975e-06
C1H971,六分寮,2024-05-02,23.92507,120.6378,4.8414623e-08
C0W120,西嶼,2024-05-02,23.5626,119.468436,5.558558e-06
C0G650,員林,2024-05-02,23.946503,120.585597,1.0304028e-06
C0AD50,鶯歌,2024-05-02,24.951533,121.346294,3.0666438e-09
C0S990,山豬窟,2024-05-02,22.318619,120.857372,1.4613322e-08
72Q010,高雄農改,2024-05-02,22.709333,120.525889,1.576615e-05
C0X190,安平,2024-05-02,22.993161,120.152181,0.000534633
C0K400,斗六,2024-05-02,23.720583,120.541127,2.9870996e-08
12J990,口湖工作站,2024-05-02,23.589978,120.180394,2.8019572e-06
C0O830,北寮,2024-05-02,23.079561,120.495008,6.1997557e-06
C1D410,白蘭,2024-05-02,24.579364,121.079947,8.328576e-10
C0S970,加津林,2024-05-02,22.416211,120.926942,7.390648e-05
C0D700,關西,2024-05-02,24.7977,121.1732,2.0457964e-09
C0M810,里佳,2024-05-02,23.389125,120.716647,7.306086e-09
C0U750,龜山島,2024-05-02,24.841667,121.953133,2.1369999e-08
C0R810,內獅,2024-05-02,22.305064,120.642986,0.0030128246
C1M390,龍美,2024-05-02,23.406728,120.654417,1.3399634e-08
C1H840,國三N238K,2024-05-02,23.841008,120.707711,3.811259e-05
CAQ030,崎峰國小,2024-05-02,22.42565,120.49521,3.5235244e-05
C2E520,大湖,2024-05-02,24.414939,120.870872,1.0209077e-09
467530,阿里山,2024-05-02,23.508208,120.813242,9.835315e-09
C1E691,南湖,2024-05-02,24.40135,120.837533,2.409641e-09
C0FA30,梧棲,2024-05-02,24.256003,120.523381,5.0389165e-08
C1V231,高中,2024-05-02,23.134911,120.716711,1.064279e-08
C0F9V0,新社,2024-05-02,24.200172,120.815806,7.501143e-05
C0H890,埔里,2024-05-02,23.972169,120.952425,1.7569299e-08
C0R690,墾丁,2024-05-02,21.966756,120.810269,1.5264056e-09
C0F0D0,審馬陣,2024-05-02,24.381675,121.4203,1.5527077e-08
C0R820,白鷺,2024-05-02,22.454275,120.666219,1.2352919e-08
U2H480,臺大溪頭,2024-05-02,23.670306,120.798194,1.159462e-09
C1V190,南天池,2024-05-02,23.27403,120.91176,2.5122435e-09
K2E360,苗栗農改場,2024-05-02,24.495722,120.829111,7.155265e-10
CAJ050,海口故事園區,2024-05-02,23.57543,120.14121,2.8019572e-06
C0O990,媽廟,2024-05-02,22.99175,120.293525,2.7580172e-06
C0D480,打鐵坑,2024-05-02,24.849664,121.150789,2.2103421e-09
C0Z220,和平林道,2024-05-02,24.343922,121.656317,9.328315e-09
72C440,桃園農改場,2024-05-02,24.950944,121.030583,1.3107939e-09
C1E711,馬拉邦山,2024-05-02,24.367306,120.901656,1.3796982e-08
C0D560,竹東,2024-05-02,24.767147,121.057881,2.1162718e-09
C0F9U0,南屯,2024-05-02,24.137006,120.637969,5.712204e-08
C0M720,番路,2024-05-02,23.464657,120.554156,4.52965e-07
C0F0A0,雪山圈谷,2024-05-02,24.388594,121.236339,2.2103558e-08
C1A9N0,四十份,2024-05-02,24.934158,121.593283,6.7780137e-09
C0U760,東澳,2024-05-02,24.52196,121.83318,8.937394e-07
C0X230,鹽水,2024-05-02,23.272621,120.247641,9.1264825e-05
C0V370,古亭坑,2024-05-02,22.893178,120.401947,7.647364e-05
C1I340,新興橋,2024-05-02,23.563333,120.868728,2.1765596e-09
C0SA80,土坂,2024-05-02,22.453108,120.887572,0.00077537517
C0R160,鹽埔,2024-05-02,22.739558,120.530778,1.576615e-05
C0AC40,大屯山,2024-05-02,25.175675,121.522408,6.1841776e-09
466850,五分山雷達站,2024-05-02,25.071182,121.781205,3.1753553e-09
C1AI50,國三N016K,2024-05-02,25.034164,121.619664,1.363281e-08
C1V600,藤枝,2024-05-02,23.071961,120.757042,2.9556497e-09
C1E601,南勢,2024-05-02,24.572486,120.734842,1.0111811e-09
C0Z180,新城,2024-05-02,24.03946,121.60454,0.038318682
C0O980,新市,2024-05-02,23.061614,120.298197,2.7622194e-05
C0K420,西螺,2024-05-02,23.800407,120.467394,3.374269e-08
C0Z050,佳心,2024-05-02,23.34567,121.21316,9.370706e-08
C0AD30,蘆洲,2024-05-02,25.086594,121.472331,2.1649633e-08
C0V610,梓官,2024-05-02,22.760558,120.267211,0.060591433
K2F750,種苗改良場,2024-05-02,24.225972,120.800917,0.00039928278
C0UA80,大溪漁港,2024-05-02,24.941801,121.902955,8.032576e-08
C1AI60,國一39K邊坡,2024-05-02,25.064361,121.383836,7.4342874e-09
C0W150,金寧,2024-05-02,24.457703,118.328989,7.241977e-07
V2C250,八德合作社,2024-05-02,24.93775,121.266389,2.5385916e-09
C0AH40,平等,2024-05-02,25.129142,121.577086,3.596605e-09
C0R540,佳冬,2024-05-02,22.419456,120.552375,0.022018505
466950,彭佳嶼,2024-05-02,25.627975,122.079744,1.2691189e-08
C0A890,雙溪,2024-05-02,25.036003,121.864242,2.9241155e-06
C0C480,桃園,2024-05-02,24.992425,121.323172,7.807192e-09
C0AH50,林口,2024-05-02,25.072181,121.38084,6.6886034e-09
A2K360,水試臺西試驗場,2024-05-02,23.717231,120.190522,5.4016084e-08
B2N890,畜試所,2024-05-02,23.058972,120.336406,1.1102873e-05
C0F9S0,烏日,2024-05-02,24.107058,120.624103,0.00042426115
C0C490,八德,2024-05-02,24.928708,121.283289,2.4960425e-09
C0R190,赤山,2024-05-02,22.592333,120.614306,0.08434029
C0T820,天祥,2024-05-02,24.179597,121.495639,0.001196289
C1F9E1,龍安,2024-05-02,24.1605,120.831961,1.5002922e-07
C0V820,小林,2024-05-02,23.148408,120.63325,1.02867425e-07
C2G870,芳苑,2024-05-02,23.922303,120.320025,1.3957647e-08
C0E850,大河,2024-05-02,24.618069,120.948578,5.3140164e-10
C1U670,寒溪,2024-05-02,24.634,121.71691,6.317324e-08
C0N020,城西,2024-05-02,23.0568,120.0956,0.000534633
C1Z110,三棧,2024-05-02,24.11557,121.60501,1.1357358e-06
C0R280,檳榔,2024-05-02,22.076078,120.836777,1.7106194e-08
C0F9L0,后里,2024-05-02,24.310436,120.729725,4.6022542e-08
C0D540,橫山,2024-05-02,24.71116,121.11693,1.7269278e-09
C1D420,太閣南,2024-05-02,24.632808,121.160575,4.400194e-09
C1E770,公館,2024-05-02,24.526914,120.830806,8.066561e-10
CAN130,水試所海水繁養殖中心,2024-05-02,23.120802,120.07968,0.41029823
C1I430,翠華,2024-05-02,24.191961,121.224339,5.947118e-09
C1M400,菜瓜坪,2024-05-02,23.251928,120.576103,5.5399806e-07
C0G730,二林,2024-05-02,23.903325,120.376081,1.862606e-08
72M360,南改義竹分場,2024-05-02,23.360694,120.279361,7.443207e-07
V2K620,麥寮合作社,2024-05-02,23.753836,120.294783,1.4531516e-07
C0Z070,舞鶴,2024-05-02,23.46811,121.37407,9.573557e-07
C0B040,大武崙,2024-05-02,25.166676,121.706993,5.2223534e-08
C1Z030,紅葉,2024-05-02,23.493119,121.338806,6.990399e-06
C1I050,丹大,2024-05-02,23.753747,121.141147,2.445189e-09
C0I080,信義,2024-05-02,23.689694,120.851036,1.5374775e-08
C2A880,福隆,2024-05-02,25.017842,121.942083,2.2823852e-07
C0Z160,鳳林,2024-05-02,23.746114,121.453411,0.039951585
C0V210,復興,2024-05-02,23.222403,120.806089,8.6189895e-05
C0H990,昆陽,2024-05-02,24.121322,121.273642,7.691696e-09
C0S710,鹿野,2024-05-02,22.917711,121.122994,1.0292282e-05
C0I530,小奇萊,2024-05-02,24.131764,121.295717,8.139669e-09
C0Z080,富源,2024-05-02,23.587642,121.378225,0.00054166897
467441,高雄,2024-05-02,22.7304,120.3125,0.047017034
C1I140,卡奈托灣,2024-05-02,23.754364,121.087872,1.2276341e-09
C0I520,玉山風口,2024-05-02,23.470489,120.955994,1.9689333e-08
C1G691,下水埔,2024-05-02,23.816114,120.5676,3.0227547e-08
C0X110,臺南市南區,2024-05-02,22.961189,120.188378,8.8851975e-06
C0V680,仁武,2024-05-02,22.701083,120.347722,0.12465207
C2G840,北斗,2024-05-02,23.877586,120.514222,1.5028382e-07
C0R900,竹坑,2024-05-02,22.1385,120.7022,7.125165e-06
C0K250,崙背,2024-05-02,23.75555,120.318925,1.4531516e-07
C0G860,社頭,2024-05-02,23.897647,120.5862,7.698097e-07
C0X150,安定,2024-05-02,23.102614,120.227839,4.3289856e-06
C0R590,里港,2024-05-02,22.77919,120.49459,4.4003306e-07
C0E610,馬都安,2024-05-02,24.451272,120.930192,2.306125e-09
C0E550,明德,2024-05-02,24.583486,120.885411,5.267968e-10
C0R150,三地門,2024-05-02,22.709889,120.639944,0.28813285
C0G910,花壇,2024-05-02,24.032076,120.549461,2.3956009e-08
C1D400,鳥嘴山,2024-05-02,24.71909,121.28387,9.969926e-09
C0K500,元長,2024-05-02,23.64981,120.315024,2.877786e-07
C0F0B0,石岡,2024-05-02,24.276061,120.777644,2.9762315e-08
C2V250,甲仙,2024-05-02,23.080106,120.591758,2.0815709e-07
C0SA20,金崙山,2024-05-02,22.567419,120.959667,1.8015769e-09
C0V350,溪埔,2024-05-02,22.738578,120.446797,1.7633827e-06
C0M660,溪口,2024-05-02,23.604131,120.403569,5.992038e-08
C1S880,壽卡,2024-05-02,22.238911,120.858903,4.9691264e-09
72D680,桃改新埔分場,2024-05-02,24.834444,121.066111,6.5213585e-10
