站號,站名,日期,lat,lon,BLBTSLS
C0R710,龍磐,2024-04-25,21.931672,120.838942,1.8406676e-06
C1F9D1,白毛台,2024-04-25,24.158325,120.886933,2.5051278e-07
C0G940,竹塘,2024-04-25,23.848253,120.386764,0.021707498
467590,恆春,2024-04-25,22.003897,120.746339,0.012785414
C1O850,環湖,2024-04-25,23.148617,120.418633,0.97915286
C0U710,太平山,2024-04-25,24.505486,121.525656,2.4343045e-09
C0E820,獅潭,2024-04-25,24.539133,120.920042,8.036297e-09
C0V880,興達,2024-04-25,22.8778,120.2127,0.00031886293
C0S890,關山,2024-04-25,23.0395,121.175017,0.56308967
K2F750,種苗繁殖,2024-04-25,24.225972,120.800917,0.9875702
C1Z130,銅門,2024-04-25,23.965694,121.492842,3.985606e-07
C0AD40,土城,2024-04-25,24.973208,121.445169,9.5096176e-08
CAN140,六官養殖協會,2024-04-25,23.22881,120.29962,0.97135216
C0X180,山上,2024-04-25,23.0757,120.363253,0.99218094
C0F9Z0,雪山東峰,2024-04-25,24.388792,121.268675,8.635233e-09
C1M480,獨立山,2024-04-25,23.537022,120.607797,0.3540153
C0X220,學甲,2024-04-25,23.230367,120.182187,9.941046e-06
C0R170,屏東,2024-04-25,22.660269,120.494072,0.99959713
467650,日月潭,2024-04-25,23.881325,120.90805,1.5349159e-09
C0K600,箔子寮,2024-04-25,23.6197,120.14,6.284069e-06
C0G830,埤頭,2024-04-25,23.866003,120.452806,0.95561856
C0S950,七塊厝,2024-04-25,22.954453,121.229922,3.01039e-06
467110,金門,2024-04-25,24.407306,118.289281,2.403065e-08
C0AH80,深坑,2024-04-25,25.002703,121.628328,5.3163326e-08
467990,馬祖,2024-04-25,26.169269,119.923419,7.0515958e-09
C0A970,三貂角,2024-04-25,25.007606,122.002058,1.3429705e-05
C0K430,褒忠,2024-04-25,23.690938,120.303634,0.99104923
467480,嘉義,2024-04-25,23.495925,120.432906,0.9913839
C2E540,後龍,2024-04-25,24.606489,120.783933,1.0059051e-08
C0V400,阿公店,2024-04-25,22.804194,120.355528,0.99717265
C0R440,大漢山,2024-04-25,22.405264,120.753181,7.290603e-10
C0K280,四湖,2024-04-25,23.630414,120.227125,0.0019646485
C1F9B1,桐林,2024-04-25,24.066172,120.735194,0.00015315763
C0K390,土庫,2024-04-25,23.679029,120.395574,0.99425805
C1I450,望鄉山,2024-04-25,23.594153,120.944286,3.644071e-09
C0E910,海埔,2024-04-25,24.648767,120.772435,1.1059639e-08
B2E890,畜試北區分所,2024-04-25,24.527806,120.770972,1.0413059e-08
C0R750,四林格山,2024-04-25,22.076989,120.802439,1.1422096e-06
C0F0C0,中坑,2024-04-25,24.248517,120.903319,8.9800556e-10
C1I121,大鞍,2024-04-25,23.678381,120.760017,5.674647e-10
72U480,花改蘭陽分場,2024-04-25,24.686306,121.716583,0.00039209172
C0A770,科教館,2024-04-25,25.096356,121.516507,3.98126e-07
C0AJ60,六塊厝,2024-04-25,25.24,121.4481,6.1473093e-09
C0R620,墾雷,2024-04-25,21.900836,120.855269,3.6970036e-07
467420,永康,2024-04-25,23.038386,120.2367,0.99719685
467300,東吉島,2024-04-25,23.25695,119.667467,2.3041514e-06
C0I410,名間,2024-04-25,23.837053,120.701447,0.99058497
A2C560,農工中心,2024-04-25,24.985917,121.239833,2.663208e-09
C0V740,旗山,2024-04-25,22.888614,120.483597,0.9991963
C0Z061,玉里,2024-04-25,23.3215,121.339656,2.1222374e-07
C0S840,南田,2024-04-25,22.279725,120.889208,4.091584e-05
C1I470,杉林溪,2024-04-25,23.639517,120.786444,7.493292e-10
C1X040,東原,2024-04-25,23.291597,120.463822,0.98225415
C0R660,枋寮,2024-04-25,22.367722,120.590647,0.9923793
C1R120,上德文,2024-04-25,22.763272,120.704442,3.0150966e-07
C0K450,大埤,2024-04-25,23.646074,120.431537,0.9421588
C0UA00,土場,2024-04-25,24.576533,121.495333,3.3461351e-06
467080,宜蘭,2024-04-25,24.763975,121.756528,0.008468199
C0N030,四草,2024-04-25,23.0235,120.1116,0.00025481445
C0V650,彌陀,2024-04-25,22.783806,120.246361,0.9582319
C0D660,新竹市東區,2024-04-25,24.798681,120.986942,1.3878002e-09
82S580,茶改東部分場,2024-04-25,22.907694,121.130139,0.83152604
C0C710,大溪永福,2024-04-25,24.892936,121.324975,1.0998004e-08
C0FA20,溫寮,2024-04-25,24.372177,120.583125,2.131566e-07
C0V640,湖內,2024-04-25,22.887139,120.2445,0.0002325571
C0R910,下寮,2024-04-25,22.3929,120.5548,0.9923793
C0Z020,明里,2024-04-25,23.208717,121.262342,2.9309334e-08
C0M770,嘉義梅山,2024-04-25,23.585398,120.555587,0.9960541
G2F820,農業試驗所,2024-04-25,24.031261,120.688133,0.0032243903
C0C660,楊梅,2024-04-25,24.912375,121.143047,1.3006006e-09
C1E511,新開,2024-04-25,24.347703,120.827019,3.8110972e-08
G2F820,農試所(霧峰),2024-04-25,24.031261,120.688133,0.0032243903
C1I070,和社,2024-04-25,23.591131,120.888861,8.688298e-09
C2F000,大肚,2024-04-25,24.15295,120.572117,2.4163876e-07
C1S850,豐南,2024-04-25,23.122139,121.262389,1.6913576e-08
C2A920,富貴角,2024-04-25,25.263783,121.565258,1.9675621e-09
CAH030,茶改場竹圍站,2024-04-25,23.860083,120.637528,0.9463909
C0T960,光復,2024-04-25,23.660694,121.424964,0.002088306
C0F9M0,豐原,2024-04-25,24.254322,120.720692,3.7664886e-05
C0R720,旭海,2024-04-25,22.205403,120.887614,0.0001779079
C0V710,苓雅,2024-04-25,22.622742,120.330669,0.02049104
C0C740,觀音工業區,2024-04-25,25.064764,121.114856,3.0199867e-09
CAC040,拉拉山,2024-04-25,24.699317,121.427133,4.669113e-09
C0V790,萬山,2024-04-25,22.905944,120.688056,0.99954265
U2HA30,臺大和社,2024-04-25,23.590856,120.888864,8.688298e-09
C0AJ90,澳底,2024-04-25,25.0552,121.9253,0.00027595574
C0Z100,東華,2024-04-25,23.89525,121.549833,0.0030630366
C0G970,三豐,2024-04-25,23.882,120.2895,7.336934e-09
V2K610,大庄合作社,2024-04-25,23.8068,120.367939,0.9106966
C0V900,汕尾,2024-04-25,22.4782,120.4151,0.99871415
C1R630,龍泉,2024-04-25,22.66701,120.59091,0.9982096
C1AC50,關渡,2024-04-25,25.133486,121.469331,3.3579657e-09
C0F9I0,神岡,2024-04-25,24.272481,120.658314,8.18031e-08
C0K460,斗南,2024-04-25,23.678734,120.478359,0.93673617
467410,臺南,2024-04-25,22.993239,120.204772,0.000118208874
C2O810,曾文,2024-04-25,23.219681,120.497328,0.96870285
467280,後龍,2024-04-25,24.648563,120.831834,8.4394625e-09
C1F9J1,清水林,2024-04-25,24.071242,120.820419,1.8609478e-08
C2A650,火燒寮,2024-04-25,25.002719,121.742892,9.82868e-08
466930,竹子湖,2024-04-25,25.162078,121.544547,4.6905957e-10
C1I220,樟湖,2024-04-25,23.905333,120.846983,8.2163926e-10
C0I390,仁愛,2024-04-25,24.022122,121.132206,1.2614392e-09
C0Z300,東里,2024-04-25,23.26853,121.30547,1.6855535e-07
C0V310,美濃,2024-04-25,22.898742,120.519153,0.9991788
C1V590,新發,2024-04-25,23.057019,120.646064,0.29419145
C0K510,水林,2024-04-25,23.572924,120.24597,0.55948305
72S590,東改賓朗果園,2024-04-25,22.813889,121.071278,0.9102301
82A750,茶改北部分場,2024-04-25,24.955778,121.631222,1.9689184e-08
C1A750,石碇服務區,2024-04-25,25.00872,121.646242,8.840318e-06
C0X300,鹿寮,2024-04-25,23.386047,120.477331,0.9952596
G2AI50,關渡,2024-04-25,25.11575,121.492,1.3663423e-08
C0K590,雲林東勢,2024-04-25,23.674192,120.255721,0.98982084
C0A570,桶後,2024-04-25,24.848222,121.597992,8.026083e-08
C1S800,華源,2024-04-25,22.657883,121.02325,1.1562673e-07
C0G720,溪州,2024-04-25,23.851589,120.499093,0.94233763
C1V160,達卡努瓦,2024-04-25,23.279811,120.705319,1.3041405e-09
C2M410,馬頭山,2024-04-25,23.324361,120.582017,0.97958916
C0V850,蚵仔寮,2024-04-25,22.7256,120.2527,0.98830545
C0S740,池上,2024-04-25,23.119628,121.209469,1.754779e-07
C1V390,尖山,2024-04-25,22.813153,120.367789,0.996578
C0AH70,松山,2024-04-25,25.04871,121.55042,3.2925263e-07
C0N010,鯤鯓國小,2024-04-25,23.1879,120.0889,0.00020114049
C0R550,新埤,2024-04-25,22.467947,120.582894,0.9987154
C0SA60,知本（水試所）,2024-04-25,22.702394,121.082761,2.087098e-06
C0T9I0,豐濱,2024-04-25,23.583897,121.514806,7.3982014e-06
C0UB00,淡江大學蘭陽校園,2024-04-25,24.823239,121.730383,2.794093e-08
C0T9N0,富里,2024-04-25,23.171639,121.249378,5.3171135e-08
U2HA50,臺大竹山,2024-04-25,23.756972,120.681556,0.9752562
C0V840,鳳鼻頭,2024-04-25,22.5083,120.3591,0.6554431
C0X140,西港,2024-04-25,23.125608,120.203108,0.89517605
72D080,桃改五峰分場,2024-04-25,24.612194,121.157167,4.904108e-10
C0V530,阿蓮,2024-04-25,22.883208,120.327508,0.9969316
C1O880,關山,2024-04-25,23.173397,120.594092,0.5362707
C0E791,卓蘭,2024-04-25,24.3126,120.8244,4.2823905e-07
C1I030,武界,2024-04-25,23.913225,121.052483,1.2340714e-09
C0R520,崁頂,2024-04-25,22.514781,120.506914,0.9987769
C0R341,牡丹,2024-04-25,22.130036,120.792639,0.026791342
C0R930,萬丹,2024-04-25,22.5885,120.4851,0.9995048
C0S760,紅石,2024-04-25,23.069131,121.126219,7.57711e-10
C1M610,石磐龍,2024-04-25,23.496606,120.663506,6.5217814e-10
C0UA10,鴛鴦湖,2024-04-25,24.590269,121.412228,1.6185155e-09
V2C260,八德蔬果,2024-04-25,24.978508,121.281819,7.0272934e-09
C0R800,丹路,2024-04-25,22.204481,120.750989,0.00094231433
C0G920,永靖,2024-04-25,23.924703,120.547533,0.03434732
C1A630,下盆,2024-04-25,24.771003,121.538622,6.392763e-09
B2N890,畜產試驗所,2024-04-25,23.058972,120.336406,0.99757504
C0UA30,白嶺,2024-04-25,24.527819,121.519031,1.848974e-09
C1V580,溪南(特生中心),2024-04-25,23.084972,120.788475,1.0213078e-07
C1T970,大農,2024-04-25,23.615233,121.413331,6.996655e-07
E2S960,林試太麻里2,2024-04-25,22.598014,120.989761,4.0759994e-07
C0R650,竹田,2024-04-25,22.58486,120.54344,0.99823177
C1H900,清流,2024-04-25,24.080775,120.962997,5.9792693e-10
C1C510,水尾,2024-04-25,24.940081,121.087161,9.024837e-10
C0F9X0,大雅(中科園區),2024-04-25,24.21528,120.62445,9.273643e-08
C0O970,虎頭埤,2024-04-25,23.021375,120.347878,0.9957791
C0C730,中大臨海站,2024-04-25,24.966126,121.008581,1.9616528e-09
C0X250,新營,2024-04-25,23.310689,120.316681,0.9812015
C0V700,三民,2024-04-25,22.645017,120.311233,0.04586851
C0U870,大礁溪,2024-04-25,24.791042,121.675047,8.273482e-09
C0E870,高鐵苗栗,2024-04-25,24.60725,120.826094,9.2188275e-09
A2K570,古坑花卉中心,2024-04-25,23.63353,120.55239,0.98347324
C0M860,新美,2024-04-25,23.338017,120.683169,1.18444405e-07
C1E701,八卦,2024-04-25,24.491756,120.927619,3.027109e-09
C0I420,國姓,2024-04-25,24.037803,120.855072,1.0149205e-05
C0S960,香蘭,2024-04-25,22.587569,120.993375,4.0759994e-07
C0R260,春日,2024-04-25,22.370361,120.628306,0.96970314
72G600,臺中農改場,2024-04-25,24.003028,120.534389,0.00012941223
C0Z210,瑞穗,2024-04-25,23.5239,121.39021,1.1866315e-05
C0M820,達邦,2024-04-25,23.453994,120.749517,1.3782536e-09
C0V860,南寮,2024-04-25,22.7616,120.2339,0.98830545
C0G740,大城,2024-04-25,23.852487,120.320935,7.0025674e-09
C0R920,塭仔,2024-04-25,22.4169,120.5197,0.99397415
C0R470,高樹,2024-04-25,22.826389,120.600806,0.999334
C0R680,佳樂水,2024-04-25,21.993578,120.861633,0.007889741
C1O870,大棟山,2024-04-25,23.31157,120.52226,4.6697074e-10
C0D360,梅花,2024-04-25,24.678347,121.208558,1.6722609e-09
C0Z190,富世,2024-04-25,24.14743,121.6297,4.443814e-07
C0AI10,屈尺,2024-04-25,24.92184,121.54475,3.937115e-05
B2U990,畜試東區分所,2024-04-25,24.669039,121.832561,0.009544616
C0R240,來義,2024-04-25,22.527306,120.625111,0.9991985
C1R610,西大武山,2024-04-25,22.617719,120.7322,1.0081058e-09
C0G900,線西,2024-04-25,24.143358,120.443536,1.0274428e-07
C0M700,竹崎,2024-04-25,23.526178,120.555508,0.99713975
C2E880,三義,2024-04-25,24.405478,120.749819,8.029888e-10
C0C720,竹圍,2024-04-25,25.112692,121.239824,1.3661156e-08
C0F9P0,清水,2024-04-25,24.312297,120.562242,6.199994e-07
C0Z150,吉安光華,2024-04-25,23.930925,121.595153,0.00045905422
C1D640,外坪(五指山),2024-04-25,24.644447,121.090961,8.166895e-10
C0F9O0,潭子,2024-04-25,24.213106,120.703933,0.0005909385
72T250,花蓮農改場,2024-04-25,23.975222,121.563889,0.69285285
C0E780,銅鑼,2024-04-25,24.489681,120.790853,4.9017075e-09
C1T950,太安,2024-04-25,23.666719,121.370128,2.4543751e-09
C0E830,苑裡,2024-04-25,24.439714,120.653053,7.02041e-08
467270,田中,2024-04-25,23.873803,120.581286,0.99084044
C0SA10,檳榔四格山,2024-04-25,22.810031,121.109308,0.086361475
C1T830,布洛灣,2024-04-25,24.17184,121.57127,4.8891485e-05
C0F970,大坑,2024-04-25,24.173142,120.722289,5.862329e-05
C1U920,思源,2024-04-25,24.393125,121.347214,7.802751e-10
C0A931,三和,2024-04-25,25.233153,121.595236,5.3586398e-09
C0I010,廬山,2024-04-25,24.033311,121.181808,4.790203e-10
C0R860,鼻頭,2024-04-25,22.1043,120.8979,0.904672
C0UB20,壯圍,2024-04-25,24.7359,121.8163,0.0022081924
C0R790,九棚,2024-04-25,22.14195,120.889281,0.19561946
C0W110,東莒,2024-04-25,25.9652,119.98069,7.416457e-09
C1U930,粉鳥林,2024-04-25,24.497088,121.842479,0.32577458
C1I211,蘆竹湳,2024-04-25,23.934019,120.811994,3.856652e-09
C0S830,長濱,2024-04-25,23.286817,121.411975,1.0287779e-08
C1F9F1,伯公龍,2024-04-25,24.272392,120.849047,0.7859073
C0E810,西湖,2024-04-25,24.562947,120.7485,6.1986793e-09
C1I440,新高口,2024-04-25,23.478744,120.878939,1.6169789e-09
C0O840,王爺宮,2024-04-25,23.222064,120.40085,0.9942437
C0T9G0,鳳林山,2024-04-25,23.735269,121.420131,2.4449929e-09
C0X080,佳里,2024-04-25,23.173039,120.145086,0.00020114049
C0Z310,清水斷崖,2024-04-25,24.218294,121.689142,1.0091124e-08
C0M680,太保,2024-04-25,23.455062,120.331455,0.9938656
C1S820,金峰,2024-04-25,22.590969,120.933236,3.0020356e-08
C0AD10,八里,2024-04-25,25.150211,121.403947,1.3661156e-08
C2K240,草嶺,2024-04-25,23.59555,120.693461,3.8013215e-10
C1SA70,都蘭,2024-04-25,22.87794,121.226881,0.9759845
C0K440,二崙,2024-04-25,23.772797,120.408944,0.9631301
C1A760,坪林交控,2024-04-25,24.94284,121.713442,1.1248801e-06
C0F9N0,大里,2024-04-25,24.092464,120.701378,0.0025656472
C0SA90,達仁林場,2024-04-25,22.264347,120.823972,5.4845336e-06
C1R290,石門山,2024-04-25,22.112611,120.756597,0.0010427635
42HA10,萬大發電廠,2024-04-25,23.978875,121.139639,7.7583495e-10
C0R890,山海,2024-04-25,21.9878,120.7091,0.0023281137
C0T9A0,月眉山,2024-04-25,23.809928,121.539828,2.744542e-09
C0AC70,信義,2024-04-25,25.037822,121.564597,3.2925263e-07
C0K560,棋山,2024-04-25,23.68645,120.603417,0.98198324
C1Z240,中平林道,2024-04-25,23.42115,121.26763,1.0840903e-09
U2H480,溪頭,2024-04-25,23.670306,120.798194,2.4306981e-10
C0M880,好美里,2024-04-25,23.3364,120.138,1.4658675e-05
C0T9E0,大坑,2024-04-25,23.880628,121.581981,6.368168e-09
C0K530,臺西,2024-04-25,23.701547,120.197559,0.0014199582
C1E900,國一N128K,2024-04-25,24.560997,120.844186,8.855402e-09
C0AJ50,水湳洞,2024-04-25,25.123695,121.862238,0.026965678
C0AI20,白沙灣,2024-04-25,25.283128,121.519058,5.335753e-09
C0A860,大坪,2024-04-25,25.165914,121.632969,6.073626e-10
C1U850,觀音海岸,2024-04-25,24.38319,121.77856,3.4521712e-09
C0U950,鶯子嶺,2024-04-25,24.89754,121.79244,3.4216299e-09
C0O900,善化,2024-04-25,23.112883,120.297219,0.99744666
C0K550,蔦松,2024-04-25,23.514319,120.229736,0.00030386436
E2P980,林試六龜中心,2024-04-25,22.991703,120.645722,0.987691
C0E590,通霄,2024-04-25,24.471892,120.704622,1.0251718e-08
C1I310,西巒,2024-04-25,23.754486,120.883956,4.876871e-10
C0A550,泰平,2024-04-25,24.971197,121.823711,2.193209e-08
C0I360,水里,2024-04-25,23.812553,120.849792,0.9923502
C0R830,高士,2024-04-25,22.121825,120.836781,0.000107198895
C1I101,溪頭,2024-04-25,23.661789,120.807647,1.174307e-09
C0AJ20,野柳,2024-04-25,25.20703,121.690021,2.67484e-07
C0B060,暖暖,2024-04-25,25.0957,121.7403,1.0199412e-07
C1H920,長豐,2024-04-25,24.102039,120.879897,8.1488144e-10
C0V360,內門,2024-04-25,22.975481,120.466769,0.9962921
C0R850,林邊,2024-04-25,22.4634,120.5339,0.99876237
C0E930,龍鳳,2024-04-25,24.700034,120.859125,4.7386894e-09
C0U910,冬山,2024-04-25,24.63373,121.7937,0.009544616
C1E721,泰安,2024-04-25,24.489017,120.968036,5.7917593e-10
82H320,茶改中部分場,2024-04-25,23.875611,120.913583,3.0361527e-09
C0M750,布袋,2024-04-25,23.380878,120.167789,0.0008244354
C1S860,利嘉,2024-04-25,22.809417,121.050528,2.2118605e-09
72C440,桃園農改,2024-04-25,24.950944,121.030583,1.1996124e-09
E2S980,林試太麻里1,2024-04-25,22.598922,120.980044,1.2086821e-07
C0X170,關廟,2024-04-25,22.963017,120.327797,0.99697536
C0V720,林園,2024-04-25,22.507747,120.394511,0.5916083
C1I510,線浸林道,2024-04-25,23.761508,120.832956,6.1270206e-10
C0D690,外湖,2024-04-25,24.917735,120.968711,1.7092388e-09
C0C750,新興坑尾,2024-04-25,25.0061,121.0971,1.2757854e-09
B2Q810,畜試南區分所,2024-04-25,21.945583,120.802167,0.008129797
C0S790,金崙,2024-04-25,22.538122,120.966875,2.2419073e-08
C0AH90,福山植物園,2024-04-25,24.760717,121.58135,3.0785365e-08
C0I540,奇萊稜線,2024-04-25,24.109231,121.326456,4.1955324e-09
C0M850,表湖,2024-04-25,23.24186,120.64166,5.5770826e-08
C0S770,大溪山,2024-04-25,22.478475,120.943325,7.35644e-09
C0AG80,中和,2024-04-25,24.991622,121.491792,9.509527e-08
C0T790,大禹嶺,2024-04-25,24.186117,121.316086,3.5201584e-09
C0T9B0,水源,2024-04-25,23.991861,121.537169,5.236954e-09
C0R840,牡丹池山,2024-04-25,22.168389,120.841225,1.4746088e-06
C1I131,桶頭,2024-04-25,23.641944,120.654117,0.3843091
CAL110,布袋國中,2024-04-25,23.35893,120.18026,0.0008328195
467571,新竹,2024-04-25,24.827853,121.014219,1.1719262e-09
C0Z290,赤柯山,2024-04-25,23.36893,121.38293,2.1160458e-09
C0X280,將軍,2024-04-25,23.214999,120.13577,1.2503866e-05
C0S690,太麻里,2024-04-25,22.60902,120.98533,1.2354326e-09
C0U880,北關,2024-04-25,24.9072,121.8734,0.08701654
C1H860,瑞岩,2024-04-25,24.123772,121.18345,1.3233846e-09
C0G810,埔心,2024-04-25,23.947633,120.525456,0.03434732
C0U970,大福,2024-04-25,24.80064,121.81389,0.012674595
C1E670,南礦,2024-04-25,24.538278,121.002836,3.031256e-10
C0M520,東後寮,2024-04-25,23.369908,120.248065,0.00055804657
C1E461,松安,2024-04-25,24.397972,120.986022,5.369421e-10
72G600,臺中農改,2024-04-25,24.003028,120.534389,0.00012941223
C2N160,西拉雅風管處,2024-04-25,23.189481,120.335297,0.99642974
C0A640,石碇,2024-04-25,24.993969,121.662917,7.3584076e-08
E2S960,林試太麻里2,2024-04-25,22.598,120.99775,4.5618123e-07
C0F9Y0,桃山,2024-04-25,24.432739,121.303808,7.46162e-09
C1I020,萬大,2024-04-25,23.979817,121.132261,1.1999419e-09
C0U940,羅東,2024-04-25,24.68184,121.74934,0.000835733
C0M650,朴子,2024-04-25,23.43463,120.23902,0.24260321
C1I500,大尖山,2024-04-25,23.858572,120.994889,1.1121042e-09
C0G820,田尾,2024-04-25,23.901669,120.509389,0.03434732
E2K600,四湖植物園,2024-04-25,23.676986,120.163433,0.0019646485
C0S730,綠島,2024-04-25,22.6672,121.47533,1.6012518e-05
12Q970,東港工作站,2024-04-25,22.479997,120.466058,0.99871415
C0E430,南庄,2024-04-25,24.601775,121.000214,7.759834e-09
C1TA00,太魯閣,2024-04-25,24.15773,121.6236,1.06246006e-07
466920,臺北,2024-04-25,25.037658,121.514853,3.2925263e-07
C0R600,舊泰武,2024-04-25,22.588194,120.664944,0.31594956
C1I260,北坑,2024-04-25,23.9246,121.006903,2.3843403e-09
466910,鞍部,2024-04-25,25.182586,121.529731,9.997971e-10
C1I230,九份二山,2024-04-25,23.961944,120.845,2.0402708e-09
C2A660,瑞芳,2024-04-25,25.113169,121.801147,0.00015050884
C0R270,琉球嶼,2024-04-25,22.332244,120.362236,2.3972677e-07
C1T990,高寮,2024-04-25,23.394239,121.356808,2.2070983e-05
C0G620,芬園,2024-04-25,24.015678,120.6213,0.0006534119
C1Z140,荖溪,2024-04-25,23.890575,121.45964,7.1131403e-09
C1I201,中心崙,2024-04-25,23.728722,120.712097,0.0009736417
C1I400,凌霄,2024-04-25,24.018778,121.004456,5.162087e-10
C1M640,十字,2024-04-25,23.492153,120.753683,1.032991e-09
G2P820,農試鳳山分所,2024-04-25,22.646611,120.356083,0.036709122
C0Z270,蕃薯寮,2024-04-25,23.73835,121.540108,3.049634e-07
C0F9Q0,外埔,2024-04-25,24.347817,120.705686,4.1028347e-08
C0K580,高鐵雲林,2024-04-25,23.737456,120.417944,0.9918158
C2I090,鳳凰,2024-04-25,23.728081,120.787347,2.7117483e-10
C0U990,員山,2024-04-25,24.74435,121.72247,0.0010574119
C0V770,大社,2024-04-25,22.730306,120.346639,0.98506373
C0X120,麻豆,2024-04-25,23.183289,120.248611,0.9857638
C0C670,龍潭,2024-04-25,24.870056,121.221389,1.0496587e-09
C0D680,香山濕地,2024-04-25,24.783581,120.914988,2.8905156e-09
C0S980,勝林山,2024-04-25,22.430439,120.8938,9.401007e-10
C0V730,大寮,2024-04-25,22.605614,120.395717,0.014750359
C0R570,麟洛,2024-04-25,22.65078,120.52719,0.99959713
CAG100,王功漁港,2024-04-25,23.96824,120.32586,8.045161e-09
C0X290,北門,2024-04-25,23.267772,120.125481,1.2503866e-05
C2F930,大甲,2024-04-25,24.347667,120.640403,5.1098205e-08
C0D650,湖口,2024-04-25,24.904794,121.043628,9.404648e-10
C0E420,竹南,2024-04-25,24.708978,120.888897,3.8130437e-09
C0U780,五結,2024-04-25,24.68637,121.79794,0.0022081924
C1I250,鯉潭,2024-04-25,23.961922,120.991131,4.4798227e-09
C0R130,阿禮,2024-04-25,22.742908,120.743678,1.3862796e-08
C0X100,臺南市北區,2024-04-25,23.010394,120.194228,0.0002075104
C0S920,金峰嘉蘭,2024-04-25,22.594789,120.960825,1.0145977e-07
C0V490,新興,2024-04-25,22.627422,120.298803,0.020349788
C0F9K0,大安,2024-04-25,24.345061,120.588025,1.5464617e-07
72N100,臺南農改,2024-04-25,23.0605,120.342194,0.99757504
467290,古坑,2024-04-25,23.633639,120.551889,0.98347324
C0V440,鳳山,2024-04-25,22.646653,120.356122,0.036709122
C1T940,大觀,2024-04-25,23.714206,121.373133,5.1285554e-09
72T250,花蓮農改,2024-04-25,23.975222,121.563889,0.69285285
C0E740,造橋,2024-04-25,24.637056,120.864778,9.2188275e-09
C0R100,尾寮山,2024-04-25,22.833111,120.683889,4.8815247e-07
A2K630,臺大雲林校區,2024-04-25,23.730628,120.423903,0.99182445
C0D580,寶山,2024-04-25,24.735006,121.025192,1.6043444e-08
E2P990,林試扇平站,2024-04-25,22.9677,120.6857,0.999804
C0AI30,三重,2024-04-25,25.057328,121.500629,3.98126e-07
C0AH00,汐止,2024-04-25,25.066881,121.658778,3.2925263e-07
C1Z040,立山,2024-04-25,23.443356,121.327375,1.505582e-08
C0R740,獅子,2024-04-25,22.201569,120.70525,0.0028974502
C0W130,花嶼,2024-04-25,23.40007,119.32276,3.5900513e-05
C0A950,鼻頭角,2024-04-25,25.129036,121.923372,7.825322e-06
C0K470,林內,2024-04-25,23.748675,120.609642,0.9846743
82C160,茶改場,2024-04-25,24.908472,121.185333,1.007604e-09
C0Z320,清水林道,2024-04-25,23.27125,121.188272,2.2654751e-09
C0R760,南仁湖,2024-04-25,22.084681,120.863353,0.00090638874
C0M670,大林,2024-04-25,23.600616,120.45841,0.94929767
C0M800,茶山,2024-04-25,23.299075,120.664767,4.561192e-06
C0A9C0,天母,2024-04-25,25.117494,121.537169,1.028668e-08
72K220,南改斗南分場,2024-04-25,23.634556,120.477333,0.93673617
72AI40,桃改樹林分場,2024-04-25,24.944503,121.386972,5.451577e-09
C0S910,蘭嶼燈塔,2024-04-25,22.081197,121.503117,7.5063724e-07
C0B050,八斗子,2024-04-25,25.144754,121.79167,0.09978076
C0U900,內城,2024-04-25,24.71813,121.68766,0.00013177242
C0X320,柳營,2024-04-25,23.253328,120.375253,0.9932637
C0M790,新港,2024-04-25,23.553269,120.345728,0.9872031
C0F9T0,西屯,2024-04-25,24.179494,120.641275,1.7551237e-07
C0SA30,都歷,2024-04-25,23.020333,121.323642,0.999226
C0C620,蘆竹,2024-04-25,25.084275,121.265767,1.1134567e-08
C0R730,大坪頂,2024-04-25,22.024633,120.69355,0.05468962
C0AJ40,石門,2024-04-25,25.273672,121.601198,2.3983886e-09
C0E750,苗栗,2024-04-25,24.564569,120.824575,9.7234745e-09
C0T870,鯉魚潭,2024-04-25,23.935639,121.508944,1.1755836e-06
C1V170,排雲,2024-04-25,23.463619,120.954147,1.0772311e-08
C2H950,中寮,2024-04-25,23.884447,120.766406,0.99022233
C0R350,貓鼻頭,2024-04-25,21.921774,120.7358,0.00024637845
C0V660,岡山,2024-04-25,22.797078,120.294958,0.9582319
C1H941,雙冬,2024-04-25,23.967378,120.802189,1.958165e-09
C0AJ70,田寮,2024-04-25,25.2698,121.4886,5.5777605e-09
C0AI00,五股,2024-04-25,25.07445,121.42728,6.888574e-09
C0Z280,德武,2024-04-25,23.47426,121.41071,7.217466e-07
C0R700,枋山,2024-04-25,22.246844,120.661086,0.100644514
C0C460,復興,2024-04-25,24.820208,121.352281,1.2458469e-09
E2H360,蓮華池,2024-04-25,23.918333,120.885278,1.1446083e-09
C0M640,中埔,2024-04-25,23.42538,120.5229,0.9971114
C0W140,金沙,2024-04-25,24.488292,118.408778,2.5939999e-08
C2A540,四堵,2024-04-25,24.8926,121.745736,3.7677886e-08
C0ACA0,新莊,2024-04-25,25.051478,121.446756,1.8092283e-07
C0R220,潮州,2024-04-25,22.534361,120.54,0.99884033
U2HA40,臺大內茅埔,2024-04-25,23.689722,120.851117,4.5263768e-08
467490,臺中,2024-04-25,24.145736,120.684075,0.0006266342
C0U960,翠峰湖,2024-04-25,24.510856,121.608044,2.9979028e-09
E2HA20,林試畢祿溪站,2024-04-25,24.226944,121.308522,3.2367424e-09
C0V890,前鎮,2024-04-25,22.5718,120.3117,0.024040489
467620,蘭嶼,2024-04-25,22.036969,121.558339,1.3148002e-07
C1F941,雪嶺,2024-04-25,24.280586,121.026642,7.672765e-09
C0AC80,文山,2024-04-25,25.00235,121.575728,5.3163326e-08
C0F9R0,龍井,2024-04-25,24.184536,120.528972,5.257218e-07
C0M760,民雄,2024-04-25,23.551754,120.428457,0.9543053
C0UA40,西德山,2024-04-25,24.560647,121.752608,3.5219987e-09
C1T920,中興,2024-04-25,23.769503,121.498653,0.3020834
C0D550,雪霸,2024-04-25,24.526972,121.11605,6.064724e-10
C2F860,梨山,2024-04-25,24.247522,121.243669,3.3634464e-09
C0R320,車城,2024-04-25,22.0744,120.716247,0.004600073
C1S870,南美山,2024-04-25,23.15025,121.382333,7.436404e-08
C0B020,基隆嶼,2024-04-25,25.19141,121.78391,2.8516781e-06
C1U501,牛鬥,2024-04-25,24.637836,121.573656,5.4481703e-08
C0M730,嘉義市東區,2024-04-25,23.457673,120.460531,0.99491507
C0S700,知本,2024-04-25,22.684866,121.005642,1.2580297e-09
C1N001,沙崙,2024-04-25,22.935472,120.309406,0.99693483
C0V760,橋頭,2024-04-25,22.757806,120.30575,0.98686063
C0G960,福寶,2024-04-25,24.0443,120.3814,2.0618886e-07
C0X210,白河,2024-04-25,23.347466,120.414427,0.994514
C0S810,東河,2024-04-25,22.972672,121.303986,0.56027
C0R670,楓港,2024-04-25,22.190131,120.692156,0.46180007
C0FA50,霧峰,2024-04-25,24.0419,120.6995,0.0018196591
C0UB10,蘇澳,2024-04-25,24.5969,121.8571,0.6143495
C0G950,防潮門,2024-04-25,24.1835,120.4871,5.252177e-07
C0M740,六腳,2024-04-25,23.492871,120.290625,0.93120843
C1R250,力里,2024-04-25,22.428117,120.629228,0.9998891
C0K330,虎尾,2024-04-25,23.719183,120.442036,0.9906213
C2FA00,烏石坑,2024-04-25,24.273503,120.947617,1.2835861e-09
C0V620,永安,2024-04-25,22.82315,120.236856,0.9582319
C1I330,楓樹林,2024-04-25,23.986803,121.076117,7.6083473e-10
C0W200,湖西,2024-04-25,23.596314,119.67275,2.944699e-07
72Q010,高雄農改場,2024-04-25,22.709333,120.525889,0.99940586
C0SA40,瑞和,2024-04-25,22.974361,121.156697,0.9745618
C0C680,龜山,2024-04-25,25.02846,121.38656,3.2181764e-09
C2V260,月眉,2024-04-25,22.971003,120.539853,0.9992173
C0V450,鳳森,2024-04-25,22.545064,120.392592,0.16723423
C0U720,南山,2024-04-25,24.43742,121.38167,7.5329004e-10
A2N290,臺南蘭花園區,2024-04-25,23.340258,120.379661,0.9935551
C0R560,新園,2024-04-25,22.5434,120.461558,0.59160846
C0U890,三星,2024-04-25,24.66812,121.65302,9.954991e-06
C1V300,御油山,2024-04-25,23.001983,120.715364,5.7376874e-05
C0U600,礁溪,2024-04-25,24.817539,121.765608,0.030942317
C1T980,龍澗,2024-04-25,24.023289,121.411328,8.436276e-09
C0D670,海天一線,2024-04-25,24.831986,120.914438,1.5214178e-09
C0SA00,歷坵,2024-04-25,22.520969,120.89185,1.716377e-09
C0M710,東石,2024-04-25,23.458927,120.15385,3.522643e-07
C0M780,鹿草,2024-04-25,23.41134,120.30835,0.19271721
C0U520,雙連埤,2024-04-25,24.753033,121.641303,8.18933e-09
C0B010,七堵,2024-04-25,25.094819,121.71713,4.1612657e-07
C0R480,長治,2024-04-25,22.693128,120.542622,0.9896919
C1V830,國三S383K,2024-04-25,22.781967,120.426475,0.99914926
12Q980,恆春工作站,2024-04-25,22.079678,120.714425,0.004600073
C1O940,東山服務區,2024-04-25,23.286016,120.398472,0.9933174
C1U840,東澳嶺,2024-04-25,24.5378,121.8485,5.8882e-09
C1D630,飛鳳山,2024-04-25,24.766464,121.119178,1.0165183e-09
C0S940,石寧山,2024-04-25,23.223772,121.406639,1.0190181e-06
C0K410,北港,2024-04-25,23.573957,120.292802,0.51527214
C2M620,瑞里,2024-04-25,23.545133,120.675197,5.1643123e-10
C2O950,安南,2024-04-25,23.076694,120.144861,4.1164873e-05
C0F0E0,南湖圈谷,2024-04-25,24.363714,121.444667,8.428796e-09
467610,成功,2024-04-25,23.097486,121.373428,0.44569594
C0G890,伸港,2024-04-25,24.148933,120.484403,1.0274428e-07
C2E540,龍溪,2024-04-25,24.606489,120.783933,1.0059051e-08
C1V200,梅山,2024-04-25,23.268447,120.823556,3.832544e-05
C0T9H0,加路蘭山,2024-04-25,23.682947,121.5274,1.650375e-09
C2O930,玉井,2024-04-25,23.126042,120.46055,0.9923309
C1F911,新伯公,2024-04-25,24.221361,120.841069,0.99177486
C0R490,九如,2024-04-25,22.7405,120.490503,0.99938846
C0X200,左鎮,2024-04-25,23.056758,120.408522,0.9955168
C1F891,稍來,2024-04-25,24.265689,121.001142,2.4596098e-09
72N240,七股研究中心,2024-04-25,23.081672,120.062894,7.393312e-05
C0C700,中壢,2024-04-25,24.977661,121.256375,4.111912e-09
C0M690,水上,2024-04-25,23.419734,120.388909,0.9936515
C0V690,鼓山,2024-04-25,22.623325,120.275575,0.020349788
C0O860,大內,2024-04-25,23.11885,120.36083,0.99754167
C0Z200,萬榮,2024-04-25,23.709219,121.420106,0.003934948
C0T9D0,和中,2024-04-25,24.26676,121.74103,0.9955998
C1O921,楠西,2024-04-25,23.183511,120.484083,0.9816142
C0AJ30,淡水觀海,2024-04-25,25.184591,121.408616,8.09945e-09
C0V810,左營,2024-04-25,22.67491,120.28491,0.04586851
C0UA70,桃源谷,2024-04-25,24.962606,121.888875,7.233664e-09
C0X130,官田,2024-04-25,23.193217,120.315422,0.996358
C1H000,翠峰,2024-04-25,24.109397,121.205211,1.0839538e-09
C0UA90,石城,2024-04-25,24.980444,121.951214,0.0003996516
C1E681,南勢山,2024-04-25,24.421669,120.923831,1.3481946e-09
C0A9F0,內湖,2024-04-25,25.079422,121.57545,3.2925263e-07
C0K291,宜梧,2024-04-25,23.536281,120.169329,0.00030114304
C1K540,口湖,2024-04-25,23.585344,120.180517,6.284069e-06
C0R780,滿州,2024-04-25,22.024403,120.839892,0.010336192
C0V870,文安,2024-04-25,22.8025,120.2164,0.9614069
C0U650,玉蘭,2024-04-25,24.675286,121.587061,7.259552e-09
C0R640,東港,2024-04-25,22.46247,120.44074,0.99871415
K2E360,苗栗農改,2024-04-25,24.495722,120.829111,7.787769e-09
C0AJ80,板橋,2024-04-25,25.0107,121.4489,1.2132507e-07
C0S660,下馬,2024-04-25,23.150427,121.070312,2.8895015e-09
C1H9B1,阿眉,2024-04-25,24.1263,120.994672,1.8152082e-09
C0UA20,多加屯,2024-04-25,24.368614,121.373189,4.4147797e-09
C0E730,頭份,2024-04-25,24.688247,120.912206,4.0450834e-09
72V140,高改旗南分場,2024-04-25,22.857861,120.516667,0.9991788
C0K480,莿桐,2024-04-25,23.761192,120.502372,0.9705172
C0U980,坪林石牌,2024-04-25,24.86478,121.77396,7.1462667e-09
C0T900,西林,2024-04-25,23.8119,121.441458,1.5049915e-05
C1I150,青雲,2024-04-25,23.793361,120.949378,1.8050862e-08
467350,澎湖,2024-04-25,23.565503,119.563094,7.640954e-06
C0G800,埔鹽,2024-04-25,24.000394,120.431683,4.7723387e-07
C0H960,草屯,2024-04-25,23.973672,120.68085,0.0007399275
C1V780,多納林道,2024-04-25,22.888028,120.737917,2.5885916e-05
C0E920,通霄漁港,2024-04-25,24.498589,120.673876,1.3210827e-08
C0Z330,安通山,2024-04-25,23.290728,121.348528,1.5085994e-09
C0AH10,永和,2024-04-25,25.01125,121.508111,1.2132507e-07
C2G640,鹿港,2024-04-25,24.0753,120.430481,2.0672599e-07
C1E890,國三N149K,2024-04-25,24.463414,120.680019,3.7764224e-08
C1R110,口社,2024-04-25,22.770111,120.645222,0.999038
C1M870,國三N285K,2024-04-25,23.550319,120.505833,0.9959926
467050,新屋,2024-04-25,25.006744,121.047486,1.6899218e-09
C1E480,鳳美,2024-04-25,24.554803,121.034747,2.1562998e-09
C0M530,奮起湖,2024-04-25,23.493903,120.699253,4.8285287e-10
C0C590,觀音,2024-04-25,25.027072,121.153317,1.7003423e-09
C0T9M0,靜浦,2024-04-25,23.455167,121.495028,0.00044011784
C0AI40,石牌,2024-04-25,25.115597,121.513139,1.2523492e-08
C1F871,上谷關,2024-04-25,24.203483,121.018644,8.2732565e-10
C0G880,二水,2024-04-25,23.810742,120.6173,0.9900991
C0R940,加祿堂,2024-04-25,22.3363,120.6217,0.51835155
C0W220,北竿,2024-04-25,26.220358,119.974881,6.619473e-09
C0O960,崎頂,2024-04-25,22.959547,120.369317,0.9970684
C0S750,向陽,2024-04-25,23.248397,120.986133,2.3258708e-09
C0T9F0,水璉,2024-04-25,23.797131,121.542514,2.8800537e-07
C1M600,頭凍,2024-04-25,23.406364,120.603339,1.9006718e-09
467660,臺東,2024-04-25,22.752211,121.154586,0.99906576
C1D380,新埔,2024-04-25,24.84745,121.03834,8.0939166e-10
C0V750,路竹,2024-04-25,22.854997,120.259439,0.00015907153
C0N050,蚵寮,2024-04-25,23.301,120.1104,1.4641071e-05
72M700,南改鹿草分場,2024-04-25,23.416869,120.283061,0.24260321
C1SA50,利嘉林道,2024-04-25,22.82325,121.009389,6.209871e-10
467550,玉山,2024-04-25,23.487614,120.959522,1.34494105e-08
C0A940,金山,2024-04-25,25.223628,121.643967,1.8478738e-07
C1V340,大津,2024-04-25,22.888322,120.645986,0.9990766
C0W180,七美,2024-04-25,23.219333,119.444892,0.00012471495
C1F9C1,白冷,2024-04-25,24.182844,120.929889,0.55184704
K2E710,苗改生物防治研究中心,2024-04-25,24.422861,120.871833,1.0253399e-08
C0N040,蘆竹溝,2024-04-25,23.2344,120.0961,1.2503866e-05
C2W230,畜試所澎湖,2024-04-25,23.628342,119.513206,1.5894782e-06
C0R880,後壁湖,2024-04-25,21.9457,120.7457,0.002468926
C1I280,埔中,2024-04-25,23.820778,120.642594,0.91952926
467790,墾丁雷達站,2024-04-25,21.948235,120.808028,0.005578695
C0W190,望安,2024-04-25,23.380564,119.494075,6.974834e-05
466881,新北,2024-04-25,24.9593,121.52,8.871652e-08
C0Z170,卓溪,2024-04-25,23.3443,121.3029,3.503753e-07
C0F850,東勢,2024-04-25,24.246428,120.833047,1.7453524e-07
466900,淡水,2024-04-25,25.164889,121.448906,1.2672831e-08
C0I370,魚池,2024-04-25,23.895703,120.94135,1.2843454e-09
C0C630,大溪,2024-04-25,24.882853,121.265547,1.4772408e-09
C0A520,山佳,2024-04-25,24.974944,121.402008,1.1165791e-07
C0I110,竹山,2024-04-25,23.761225,120.688156,0.9932289
82H840,茶改南部分場,2024-04-25,23.762528,120.7405,0.96798086
C0G660,溪湖,2024-04-25,23.94835,120.479122,0.051163167
C1T800,洛韶,2024-04-25,24.204558,121.453956,7.934888e-09
C1T810,慈恩,2024-04-25,24.192044,121.388386,6.5805844e-10
C1E451,象鼻,2024-04-25,24.368617,120.940228,3.3240455e-09
C0AC60,三峽,2024-04-25,24.939025,121.369728,4.1973416e-09
C0I490,萬大林道,2024-04-25,23.928228,121.091411,4.6208085e-10
C1I290,豐丘,2024-04-25,23.668178,120.887417,2.429164e-10
C1I320,奧萬大,2024-04-25,23.952956,121.178556,5.4781435e-10
C0U770,南澳,2024-04-25,24.44935,121.81022,3.222386e-07
C0A980,社子,2024-04-25,25.109508,121.469681,1.4798558e-08
C0V800,六龜,2024-04-25,22.997889,120.633583,0.991929
C1G9D0,國一S218K,2024-04-25,23.890641,120.493253,0.95561856
C2F9A0,中竹林,2024-04-25,24.103556,120.751061,0.0051802415
C0FA40,臺中電廠,2024-04-25,24.2146,120.4907,5.257218e-07
C0H9C0,合歡山,2024-04-25,24.143442,121.272547,6.2684227e-09
C0X060,下營,2024-04-25,23.22695,120.256261,0.97135216
G2M350,農試溪口農場,2024-04-25,23.58565,120.408111,0.9614093
C0U860,頭城,2024-04-25,24.85323,121.8308,0.062108472
C0R580,南州,2024-04-25,22.48591,120.50274,0.99871415
C0D430,峨眉,2024-04-25,24.6905,121.017189,3.4192749e-09
C0G780,秀水,2024-04-25,24.03405,120.503869,0.00012929665
72N100,臺南農改場,2024-04-25,23.0605,120.342194,0.99757504
C0S900,蘭嶼高中,2024-04-25,22.04909,121.51214,7.057781e-07
467540,大武,2024-04-25,22.355675,120.903789,4.2160038e-05
C1F9W0,德基,2024-04-25,24.254783,121.190261,1.7123845e-09
C1Z120,壽豐,2024-04-25,23.870853,121.508081,0.0030630366
C0W160,烏坵,2024-04-25,24.9944,119.44956,1.1251365e-08
C1I240,外大坪,2024-04-25,23.958697,120.917931,3.81682e-09
C1I550,國六W023K,2024-04-25,23.979067,120.867742,8.781321e-07
C0R870,興海,2024-04-25,21.9752,120.8439,0.008129797
C0R140,瑪家,2024-04-25,22.682903,120.686639,0.001408851
C0A530,坪林,2024-04-25,24.938183,121.70975,1.1406863e-07
C0X260,後壁,2024-04-25,23.366358,120.362326,0.9935551
C0Z230,和平,2024-04-25,24.30717,121.77007,0.99574435
C0G770,福興,2024-04-25,24.041289,120.437669,4.7723387e-07
C0H9A0,神木村,2024-04-25,23.532742,120.843667,1.0132991e-09
C0I460,南投,2024-04-25,23.911469,120.687331,0.9778658
C0I480,梅峰,2024-04-25,24.085272,121.173572,7.3526063e-10
C1V570,吉東,2024-04-25,22.85422,120.5454,0.9992021
C2A560,福山,2024-04-25,24.776203,121.502811,8.8077064e-07
C0AH30,五分山,2024-04-25,25.07125,121.780794,1.2529697e-09
C0FA10,松柏,2024-04-25,24.429115,120.617482,9.3642385e-08
72S200,東改班鳩分場,2024-04-25,22.829528,121.077694,0.98592633
72HA00,中改埔里分場,2024-04-25,23.903208,120.963364,1.4974133e-09
C0C650,平鎮,2024-04-25,24.897503,121.214636,9.804051e-10
C0S930,延平,2024-04-25,22.902581,121.084058,0.076772325
C0UA60,樟樹山,2024-04-25,24.41393,121.78325,1.9044558e-06
C1S670,摩天,2024-04-25,23.199503,121.027,1.0395412e-09
C0V630,茄萣,2024-04-25,22.906642,120.182608,0.00031886323
466940,基隆,2024-04-25,25.133314,121.740475,0.07378181
C0X050,東河,2024-04-25,23.296598,120.385608,0.99281096
C0R770,保力,2024-04-25,22.071122,120.764111,0.39817724
G2L020,農試嘉義分所,2024-04-25,23.485028,120.473806,0.99632585
C0X240,關子嶺,2024-04-25,23.331169,120.508025,0.9404463
C0I380,集集,2024-04-25,23.828206,120.801467,0.99290335
466990,花蓮,2024-04-25,23.975128,121.613275,0.7710386
C1V220,小關山,2024-04-25,23.154217,120.813603,4.542409e-09
C1F9G1,慶福山,2024-04-25,24.180853,120.848378,2.014599e-08
C0Z250,瑞穗林道,2024-04-25,23.49284,121.30688,1.9425188e-09
C0D590,新豐,2024-04-25,24.87068,120.97721,1.1827544e-09
C0A870,五指山,2024-04-25,25.132153,121.608692,4.731507e-10
C0UA50,西帽山,2024-04-25,24.555361,121.802628,8.0235845e-09
C0X160,仁德,2024-04-25,22.968258,120.257689,0.04449894
C1H971,六分寮,2024-04-25,23.92507,120.6378,7.2795837e-07
C0W120,西嶼,2024-04-25,23.5626,119.468436,1.4133679e-05
C0G650,員林,2024-04-25,23.946503,120.585597,0.96058315
C0AD50,鶯歌,2024-04-25,24.951533,121.346294,3.1080463e-09
C0S990,山豬窟,2024-04-25,22.318619,120.857372,3.1231423e-07
72Q010,高雄農改,2024-04-25,22.709333,120.525889,0.99940586
C0X190,安平,2024-04-25,22.993161,120.152181,0.00020791523
C0K400,斗六,2024-04-25,23.720583,120.541127,0.9670125
12J990,口湖工作站,2024-04-25,23.589978,120.180394,6.284069e-06
C0O830,北寮,2024-04-25,23.079561,120.495008,0.99667084
C1D410,白蘭,2024-04-25,24.579364,121.079947,3.1826483e-10
C0S970,加津林,2024-04-25,22.416211,120.926942,2.5749736e-05
C0D700,關西,2024-04-25,24.7977,121.1732,2.9319775e-09
C0M810,里佳,2024-04-25,23.389125,120.716647,6.103308e-10
C0U750,龜山島,2024-04-25,24.841667,121.953133,3.3791812e-09
C0R810,內獅,2024-04-25,22.305064,120.642986,0.51642305
C1M390,龍美,2024-04-25,23.406728,120.654417,9.138693e-10
C1H840,國三N238K,2024-04-25,23.841008,120.707711,0.98310435
CAQ030,崎峰國小,2024-04-25,22.42565,120.49521,0.99871415
C2E520,大湖,2024-04-25,24.414939,120.870872,7.444007e-09
467530,阿里山,2024-04-25,23.508208,120.813242,6.304935e-09
C1E691,南湖,2024-04-25,24.40135,120.837533,7.084949e-09
C0FA30,梧棲,2024-04-25,24.256003,120.523381,6.1710193e-07
C1V231,高中,2024-04-25,23.134911,120.716711,4.115287e-06
C0F9V0,新社,2024-04-25,24.200172,120.815806,0.9720061
C0H890,埔里,2024-04-25,23.972169,120.952425,1.1316928e-07
C0R690,墾丁,2024-04-25,21.966756,120.810269,1.2946983e-05
C0F0D0,審馬陣,2024-04-25,24.381675,121.4203,7.56119e-09
C0R820,白鷺,2024-04-25,22.454275,120.666219,1.21763515e-08
U2H480,臺大溪頭,2024-04-25,23.670306,120.798194,2.4306981e-10
C1V190,南天池,2024-04-25,23.27403,120.91176,1.3760393e-09
K2E360,苗栗農改場,2024-04-25,24.495722,120.829111,7.787769e-09
CAJ050,海口故事園區,2024-04-25,23.57543,120.14121,6.284069e-06
C0O990,媽廟,2024-04-25,22.99175,120.293525,0.9968812
C0D480,打鐵坑,2024-04-25,24.849664,121.150789,1.0377958e-09
C0Z220,和平林道,2024-04-25,24.343922,121.656317,5.8372094e-09
72C440,桃園農改場,2024-04-25,24.950944,121.030583,1.1996124e-09
C1E711,馬拉邦山,2024-04-25,24.367306,120.901656,2.4506328e-09
C0D560,竹東,2024-04-25,24.767147,121.057881,3.8369e-09
C0F9U0,南屯,2024-04-25,24.137006,120.637969,4.3471618e-07
C0M720,番路,2024-04-25,23.464657,120.554156,0.99771965
C0F0A0,雪山圈谷,2024-04-25,24.388594,121.236339,1.2756497e-08
C1A9N0,四十份,2024-04-25,24.934158,121.593283,7.596433e-09
C0U760,東澳,2024-04-25,24.52196,121.83318,0.16861264
C0X230,鹽水,2024-04-25,23.272621,120.247641,1.1213583e-05
C0V370,古亭坑,2024-04-25,22.893178,120.401947,0.9968391
C1I340,新興橋,2024-04-25,23.563333,120.868728,6.642932e-10
C0SA80,土坂,2024-04-25,22.453108,120.887572,1.9068166e-06
C0R160,鹽埔,2024-04-25,22.739558,120.530778,0.99940586
C0AC40,大屯山,2024-04-25,25.175675,121.522408,1.2226008e-09
466850,五分山雷達站,2024-04-25,25.071182,121.781205,1.2391732e-09
C1AI50,國三N016K,2024-04-25,25.034164,121.619664,1.3142386e-07
C1V600,藤枝,2024-04-25,23.071961,120.757042,8.6986375e-07
C1E601,南勢,2024-04-25,24.572486,120.734842,3.7584558e-09
C0Z180,新城,2024-04-25,24.03946,121.60454,0.7608744
C0O980,新市,2024-04-25,23.061614,120.298197,0.9974501
C0K420,西螺,2024-04-25,23.800407,120.467394,0.95097667
C0Z050,佳心,2024-04-25,23.34567,121.21316,2.4093605e-09
C0AD30,蘆洲,2024-04-25,25.086594,121.472331,3.98126e-07
C0V610,梓官,2024-04-25,22.760558,120.267211,0.98686063
K2F750,種苗改良場,2024-04-25,24.225972,120.800917,0.9875702
C0UA80,大溪漁港,2024-04-25,24.941801,121.902955,0.059735056
C1AI60,國一39K邊坡,2024-04-25,25.064361,121.383836,4.8850195e-09
C0W150,金寧,2024-04-25,24.457703,118.328989,2.6129191e-08
V2C250,八德合作社,2024-04-25,24.93775,121.266389,1.4003184e-09
C0AH40,平等,2024-04-25,25.129142,121.577086,5.4361554e-10
C0R540,佳冬,2024-04-25,22.419456,120.552375,0.9923793
466950,彭佳嶼,2024-04-25,25.627975,122.079744,6.075937e-08
C0A890,雙溪,2024-04-25,25.036003,121.864242,3.459088e-05
C0C480,桃園,2024-04-25,24.992425,121.323172,7.48514e-09
C0AH50,林口,2024-04-25,25.072181,121.38084,2.3117313e-09
A2K360,水試臺西試驗場,2024-04-25,23.717231,120.190522,0.0018052696
B2N890,畜試所,2024-04-25,23.058972,120.336406,0.99757504
C0F9S0,烏日,2024-04-25,24.107058,120.624103,0.014997917
C0C490,八德,2024-04-25,24.928708,121.283289,1.3580431e-09
C0R190,赤山,2024-04-25,22.592333,120.614306,0.99839985
C0T820,天祥,2024-04-25,24.179597,121.495639,4.0162678e-07
C1F9E1,龍安,2024-04-25,24.1605,120.831961,0.13064364
C0V820,小林,2024-04-25,23.148408,120.63325,0.0040166695
C2G870,芳苑,2024-04-25,23.922303,120.320025,7.435053e-09
C0E850,大河,2024-04-25,24.618069,120.948578,8.736605e-09
C1U670,寒溪,2024-04-25,24.634,121.71691,5.621514e-05
C0N020,城西,2024-04-25,23.0568,120.0956,0.0002075104
C1Z110,三棧,2024-04-25,24.11557,121.60501,4.817623e-08
C0R280,檳榔,2024-04-25,22.076078,120.836777,0.019579377
C0F9L0,后里,2024-04-25,24.310436,120.729725,1.3467438e-05
C0D540,橫山,2024-04-25,24.71116,121.11693,3.2111007e-09
C1D420,太閣南,2024-04-25,24.632808,121.160575,1.100398e-09
C1E770,公館,2024-04-25,24.526914,120.830806,1.0413039e-08
CAN130,水試所海水繁養殖中心,2024-04-25,23.120802,120.07968,7.3933195e-05
C1I430,翠華,2024-04-25,24.191961,121.224339,1.8927562e-09
C1M400,菜瓜坪,2024-04-25,23.251928,120.576103,1.9868883e-05
C0G730,二林,2024-04-25,23.903325,120.376081,0.00018332725
72M360,南改義竹分場,2024-04-25,23.360694,120.279361,0.00055804657
V2K620,麥寮合作社,2024-04-25,23.753836,120.294783,0.9909692
C0Z070,舞鶴,2024-04-25,23.46811,121.37407,1.0223485e-07
C0B040,大武崙,2024-04-25,25.166676,121.706993,0.009163776
C1Z030,紅葉,2024-04-25,23.493119,121.338806,2.4927974e-07
C1I050,丹大,2024-04-25,23.753747,121.141147,9.917499e-10
C0I080,信義,2024-04-25,23.689694,120.851036,4.5263768e-08
C2A880,福隆,2024-04-25,25.017842,121.942083,0.0005874002
C0Z160,鳳林,2024-04-25,23.746114,121.453411,0.07694778
C0V210,復興,2024-04-25,23.222403,120.806089,0.0048856796
C0H990,昆陽,2024-04-25,24.121322,121.273642,3.0687912e-09
C0S710,鹿野,2024-04-25,22.917711,121.122994,1.6942487e-05
C0I530,小奇萊,2024-04-25,24.131764,121.295717,3.3313192e-09
C0Z080,富源,2024-04-25,23.587642,121.378225,9.338311e-07
467441,高雄,2024-04-25,22.7304,120.3125,0.98493767
C1I140,卡奈托灣,2024-04-25,23.754364,121.087872,5.512344e-10
C0I520,玉山風口,2024-04-25,23.470489,120.955994,1.12745235e-08
C1G691,下水埔,2024-04-25,23.816114,120.5676,0.961164
C0X110,臺南市南區,2024-04-25,22.961189,120.188378,0.04449894
C0V680,仁武,2024-04-25,22.701083,120.347722,0.046662696
C2G840,北斗,2024-04-25,23.877586,120.514222,0.94233763
C0R900,竹坑,2024-04-25,22.1385,120.7022,0.0035238038
C0K250,崙背,2024-04-25,23.75555,120.318925,0.99104923
C0G860,社頭,2024-04-25,23.897647,120.5862,0.9911318
C0X150,安定,2024-04-25,23.102614,120.227839,0.8952337
C0R590,里港,2024-04-25,22.77919,120.49459,0.9992806
C0E610,馬都安,2024-04-25,24.451272,120.930192,5.2198312e-09
C0E550,明德,2024-04-25,24.583486,120.885411,8.231519e-09
C0R150,三地門,2024-04-25,22.709889,120.639944,0.99898195
C0G910,花壇,2024-04-25,24.032076,120.549461,9.047301e-05
C1D400,鳥嘴山,2024-04-25,24.71909,121.28387,2.1346607e-09
C0K500,元長,2024-04-25,23.64981,120.315024,0.99004674
C0F0B0,石岡,2024-04-25,24.276061,120.777644,1.3491402e-06
C2V250,甲仙,2024-04-25,23.080106,120.591758,0.9945165
C0SA20,金崙山,2024-04-25,22.567419,120.959667,7.441562e-10
C0V350,溪埔,2024-04-25,22.738578,120.446797,0.99914724
C0M660,溪口,2024-04-25,23.604131,120.403569,0.9614093
C1S880,壽卡,2024-04-25,22.238911,120.858903,7.987429e-06
72D680,桃改新埔分場,2024-04-25,24.834444,121.066111,8.225581e-10
