站號,站名,日期,lat,lon,BlastGRU-TW
12J990,口湖工作站,2024-08-25,23.589978,120.180394,0.09462581
12Q970,東港工作站,2024-08-25,22.479997,120.466058,0.016670806
12Q980,恆春工作站,2024-08-25,22.079678,120.714425,0.08211447
466881,新北,2024-08-25,24.9593,121.52,0.045385007
466900,淡水,2024-08-25,25.164889,121.448906,0.043495413
466920,臺北,2024-08-25,25.037658,121.514853,0.029336886
466940,基隆,2024-08-25,25.133314,121.740475,0.04474449
466990,花蓮,2024-08-25,23.975128,121.613275,0.038119286
467050,新屋,2024-08-25,25.006744,121.047486,0.1669298
467080,宜蘭,2024-08-25,24.763975,121.756528,0.053350616
467270,田中,2024-08-25,23.873803,120.581286,0.027626468
467280,後龍,2024-08-25,24.648563,120.831834,0.29427144
467300,東吉島,2024-08-25,23.25695,119.667467,0.33558655
467350,澎湖,2024-08-25,23.565503,119.563094,0.22995824
467410,臺南,2024-08-25,22.993239,120.204772,0.025651284
467420,永康,2024-08-25,23.038386,120.2367,0.02199406
467441,高雄,2024-08-25,22.7304,120.3125,0.018008394
467480,嘉義,2024-08-25,23.495925,120.432906,0.03884468
467490,臺中,2024-08-25,24.145736,120.684075,0.031165613
467540,大武,2024-08-25,22.355675,120.903789,0.080796696
467571,新竹,2024-08-25,24.827853,121.014219,0.053142853
467590,恆春,2024-08-25,22.003897,120.746339,0.09058357
467610,成功,2024-08-25,23.097486,121.373428,0.019226737
467620,蘭嶼,2024-08-25,22.036969,121.558339,0.96693647
467660,臺東,2024-08-25,22.752211,121.154586,0.065656625
467790,墾丁雷達站,2024-08-25,21.948235,120.808028,0.1443255
72AI40,桃改樹林分場,2024-08-25,24.944503,121.386972,0.024918677
72C440,桃園農改,2024-08-25,24.950944,121.030583,0.1637303
72C440,桃園農改場,2024-08-25,24.950944,121.030583,0.1637303
72D680,桃改新埔分場,2024-08-25,24.834444,121.066111,0.052267518
72G600,臺中農改,2024-08-25,24.003028,120.534389,0.023946613
72G600,臺中農改場,2024-08-25,24.003028,120.534389,0.023946613
72K220,南改斗南分場,2024-08-25,23.634556,120.477333,0.033628784
72M360,南改義竹分場,2024-08-25,23.360694,120.279361,0.038019314
72M700,南改鹿草分場,2024-08-25,23.416869,120.283061,0.033878762
72N100,臺南農改,2024-08-25,23.0605,120.342194,0.020543369
72N100,臺南農改場,2024-08-25,23.0605,120.342194,0.020543369
72N240,七股研究中心,2024-08-25,23.081672,120.062894,0.04678067
72Q010,高雄農改,2024-08-25,22.709333,120.525889,0.014515703
72Q010,高雄農改場,2024-08-25,22.709333,120.525889,0.014515703
72S200,東改班鳩分場,2024-08-25,22.829528,121.077694,0.04369687
72S590,東改賓朗果園,2024-08-25,22.813889,121.071278,0.04968246
72T250,花蓮農改,2024-08-25,23.975222,121.563889,0.03935758
72T250,花蓮農改場,2024-08-25,23.975222,121.563889,0.03935758
72U480,花改蘭陽分場,2024-08-25,24.686306,121.716583,0.04628222
72V140,高改旗南分場,2024-08-25,22.857861,120.516667,0.020331284
82A750,茶改北部分場,2024-08-25,24.955778,121.631222,0.017769808
82C160,茶改場,2024-08-25,24.908472,121.185333,0.038370874
82H840,茶改南部分場,2024-08-25,23.762528,120.7405,0.06569576
82S580,茶改東部分場,2024-08-25,22.907694,121.130139,0.07811672
A2C560,農工中心,2024-08-25,24.985917,121.239833,0.032768928
A2K360,水試臺西試驗場,2024-08-25,23.717231,120.190522,0.07137161
A2K570,古坑花卉中心,2024-08-25,23.63353,120.55239,0.061590858
A2K630,臺大雲林校區,2024-08-25,23.730628,120.423903,0.03208442
A2N290,臺南蘭花園區,2024-08-25,23.340258,120.379661,0.030276075
B2E890,畜試北區分所,2024-08-25,24.527806,120.770972,0.12876152
B2N890,畜產試驗所,2024-08-25,23.058972,120.336406,0.020612203
B2N890,畜試所,2024-08-25,23.058972,120.336406,0.020612203
B2Q810,畜試南區分所,2024-08-25,21.945583,120.802167,0.13236631
B2U990,畜試東區分所,2024-08-25,24.669039,121.832561,0.048471894
C0A520,山佳,2024-08-25,24.974944,121.402008,0.045466065
C0A530,坪林,2024-08-25,24.938183,121.70975,0.028959109
C0A550,泰平,2024-08-25,24.971197,121.823711,0.020552373
C0A570,桶後,2024-08-25,24.848222,121.597992,0.023346217
C0A640,石碇,2024-08-25,24.993969,121.662917,0.041613817
C0A770,科教館,2024-08-25,25.096356,121.516507,0.024172217
C0A860,大坪,2024-08-25,25.165914,121.632969,0.024841826
C0A890,雙溪,2024-08-25,25.036003,121.864242,0.0711079
C0A931,三和,2024-08-25,25.233153,121.595236,0.02801511
C0A940,金山,2024-08-25,25.223628,121.643967,0.032169063
C0A950,鼻頭角,2024-08-25,25.129036,121.923372,0.07134675
C0A970,三貂角,2024-08-25,25.007606,122.002058,0.053344797
C0A980,社子,2024-08-25,25.109508,121.469681,0.04266745
C0A9C0,天母,2024-08-25,25.117494,121.537169,0.02293967
C0A9F0,內湖,2024-08-25,25.079422,121.57545,0.029336886
C0AC60,三峽,2024-08-25,24.939025,121.369728,0.025017109
C0AC70,信義,2024-08-25,25.037822,121.564597,0.029336886
C0AC80,文山,2024-08-25,25.00235,121.575728,0.047158983
C0ACA0,新莊,2024-08-25,25.051478,121.446756,0.03536552
C0AD10,八里,2024-08-25,25.150211,121.403947,0.040727302
C0AD30,蘆洲,2024-08-25,25.086594,121.472331,0.024256358
C0AD40,土城,2024-08-25,24.973208,121.445169,0.0444822
C0AD50,鶯歌,2024-08-25,24.951533,121.346294,0.025183883
C0AG80,中和,2024-08-25,24.991622,121.491792,0.0444822
C0AH00,汐止,2024-08-25,25.066881,121.658778,0.029336886
C0AH10,永和,2024-08-25,25.01125,121.508111,0.04392531
C0AH40,平等,2024-08-25,25.129142,121.577086,0.026046341
C0AH50,林口,2024-08-25,25.072181,121.38084,0.03702545
C0AH70,松山,2024-08-25,25.04871,121.55042,0.029336886
C0AH80,深坑,2024-08-25,25.002703,121.628328,0.046846844
C0AI00,五股,2024-08-25,25.07445,121.42728,0.03915201
C0AI10,屈尺,2024-08-25,24.92184,121.54475,0.046018567
C0AI20,白沙灣,2024-08-25,25.283128,121.519058,0.062198155
C0AI30,三重,2024-08-25,25.057328,121.500629,0.029083544
C0AI40,石牌,2024-08-25,25.115597,121.513139,0.02286868
C0AJ20,野柳,2024-08-25,25.20703,121.690021,0.032646038
C0AJ30,淡水觀海,2024-08-25,25.184591,121.408616,0.029038833
C0AJ40,石門,2024-08-25,25.273672,121.601198,0.056210436
C0AJ50,水湳洞,2024-08-25,25.123695,121.862238,0.052424554
C0AJ60,六塊厝,2024-08-25,25.24,121.4481,0.06042986
C0AJ70,田寮,2024-08-25,25.2698,121.4886,0.06149606
C0AJ80,板橋,2024-08-25,25.0107,121.4489,0.04392531
C0AJ90,澳底,2024-08-25,25.0552,121.9253,0.068100445
C0B010,七堵,2024-08-25,25.094819,121.71713,0.03669728
C0B020,基隆嶼,2024-08-25,25.19141,121.78391,0.03906613
C0B040,大武崙,2024-08-25,25.166676,121.706993,0.04678926
C0B050,八斗子,2024-08-25,25.144754,121.79167,0.04424786
C0B060,暖暖,2024-08-25,25.0957,121.7403,0.0386485
C0C460,復興,2024-08-25,24.820208,121.352281,0.0687799
C0C480,桃園,2024-08-25,24.992425,121.323172,0.022233283
C0C490,八德,2024-08-25,24.928708,121.283289,0.036067594
C0C590,觀音,2024-08-25,25.027072,121.153317,0.23461634
C0C620,蘆竹,2024-08-25,25.084275,121.265767,0.074569784
C0C630,大溪,2024-08-25,24.882853,121.265547,0.04174695
C0C650,平鎮,2024-08-25,24.897503,121.214636,0.047734283
C0C660,楊梅,2024-08-25,24.912375,121.143047,0.031120677
C0C670,龍潭,2024-08-25,24.870056,121.221389,0.0526139
C0C680,龜山,2024-08-25,25.02846,121.38656,0.061282463
C0C700,中壢,2024-08-25,24.977661,121.256375,0.029703612
C0C710,大溪永福,2024-08-25,24.892936,121.324975,0.026590127
C0C720,竹圍,2024-08-25,25.112692,121.239824,0.050405703
C0C730,中大臨海站,2024-08-25,24.966126,121.008581,0.15380211
C0C740,觀音工業區,2024-08-25,25.064764,121.114856,0.24490461
C0C750,新興坑尾,2024-08-25,25.0061,121.0971,0.13528158
C0D430,峨眉,2024-08-25,24.6905,121.017189,0.18679087
C0D480,打鐵坑,2024-08-25,24.849664,121.150789,0.05293274
C0D540,橫山,2024-08-25,24.71116,121.11693,0.090100124
C0D560,竹東,2024-08-25,24.767147,121.057881,0.14445876
C0D580,寶山,2024-08-25,24.735006,121.025192,0.112755954
C0D590,新豐,2024-08-25,24.87068,120.97721,0.3307221
C0D650,湖口,2024-08-25,24.904794,121.043628,0.07135445
C0D660,新竹市東區,2024-08-25,24.798681,120.986942,0.08503525
C0D670,海天一線,2024-08-25,24.831986,120.914438,0.40413228
C0D680,香山濕地,2024-08-25,24.783581,120.914988,0.06753525
C0D690,外湖,2024-08-25,24.917735,120.968711,0.05432067
C0D700,關西,2024-08-25,24.7977,121.1732,0.067117274
C0E420,竹南,2024-08-25,24.708978,120.888897,0.24654877
C0E430,南庄,2024-08-25,24.601775,121.000214,0.1154851
C0E550,明德,2024-08-25,24.583486,120.885411,0.32254422
C0E590,通霄,2024-08-25,24.471892,120.704622,0.17880854
C0E730,頭份,2024-08-25,24.688247,120.912206,0.23295282
C0E740,造橋,2024-08-25,24.637056,120.864778,0.26361614
C0E750,苗栗,2024-08-25,24.564569,120.824575,0.27810997
C0E780,銅鑼,2024-08-25,24.489681,120.790853,0.23028861
C0E791,卓蘭,2024-08-25,24.3126,120.8244,0.5555487
C0E810,西湖,2024-08-25,24.562947,120.7485,0.3566528
C0E820,獅潭,2024-08-25,24.539133,120.920042,0.5713264
C0E830,苑裡,2024-08-25,24.439714,120.653053,0.23940967
C0E850,大河,2024-08-25,24.618069,120.948578,0.2176611
C0E870,高鐵苗栗,2024-08-25,24.60725,120.826094,0.276604
C0E910,海埔,2024-08-25,24.648767,120.772435,0.33545277
C0E920,通霄漁港,2024-08-25,24.498589,120.673876,0.23628184
C0E930,龍鳳,2024-08-25,24.700034,120.859125,0.20140523
C0F0B0,石岡,2024-08-25,24.276061,120.777644,0.11980556
C0F850,東勢,2024-08-25,24.246428,120.833047,0.7389602
C0F970,大坑,2024-08-25,24.173142,120.722289,0.02908103
C0F9I0,神岡,2024-08-25,24.272481,120.658314,0.06602074
C0F9K0,大安,2024-08-25,24.345061,120.588025,0.11180603
C0F9L0,后里,2024-08-25,24.310436,120.729725,0.07716753
C0F9M0,豐原,2024-08-25,24.254322,120.720692,0.06557551
C0F9N0,大里,2024-08-25,24.092464,120.701378,0.02390968
C0F9O0,潭子,2024-08-25,24.213106,120.703933,0.052095205
C0F9P0,清水,2024-08-25,24.312297,120.562242,0.0674711
C0F9Q0,外埔,2024-08-25,24.347817,120.705686,0.07243556
C0F9R0,龍井,2024-08-25,24.184536,120.528972,0.054305866
C0F9S0,烏日,2024-08-25,24.107058,120.624103,0.0235334
C0F9T0,西屯,2024-08-25,24.179494,120.641275,0.031367145
C0F9U0,南屯,2024-08-25,24.137006,120.637969,0.03027245
C0F9X0,大雅(中科園區),2024-08-25,24.21528,120.62445,0.050552275
C0FA10,松柏,2024-08-25,24.429115,120.617482,0.14232019
C0FA20,溫寮,2024-08-25,24.372177,120.583125,0.107698046
C0FA30,梧棲,2024-08-25,24.256003,120.523381,0.0674711
C0FA40,臺中電廠,2024-08-25,24.2146,120.4907,0.060889415
C0FA50,霧峰,2024-08-25,24.0419,120.6995,0.021952761
C0G620,芬園,2024-08-25,24.015678,120.6213,0.015057806
C0G650,員林,2024-08-25,23.946503,120.585597,0.020945331
C0G660,溪湖,2024-08-25,23.94835,120.479122,0.027950106
C0G720,溪州,2024-08-25,23.851589,120.499093,0.02850251
C0G730,二林,2024-08-25,23.903325,120.376081,0.06246328
C0G740,大城,2024-08-25,23.852487,120.320935,0.070707254
C0G770,福興,2024-08-25,24.041289,120.437669,0.05956812
C0G780,秀水,2024-08-25,24.03405,120.503869,0.023938093
C0G800,埔鹽,2024-08-25,24.000394,120.431683,0.05981241
C0G810,埔心,2024-08-25,23.947633,120.525456,0.028193912
C0G820,田尾,2024-08-25,23.901669,120.509389,0.0261285
C0G830,埤頭,2024-08-25,23.866003,120.452806,0.028085742
C0G860,社頭,2024-08-25,23.897647,120.5862,0.027354201
C0G880,二水,2024-08-25,23.810742,120.6173,0.06797304
C0G890,伸港,2024-08-25,24.148933,120.484403,0.054817878
C0G900,線西,2024-08-25,24.143358,120.443536,0.054657403
C0G910,花壇,2024-08-25,24.032076,120.549461,0.024227167
C0G920,永靖,2024-08-25,23.924703,120.547533,0.0261285
C0G940,竹塘,2024-08-25,23.848253,120.386764,0.04632371
C0G950,防潮門,2024-08-25,24.1835,120.4871,0.054305866
C0G960,福寶,2024-08-25,24.0443,120.3814,0.055189114
C0G970,三豐,2024-08-25,23.882,120.2895,0.072527945
C0H890,埔里,2024-08-25,23.972169,120.952425,0.057877474
C0H960,草屯,2024-08-25,23.973672,120.68085,0.01481598
C0I110,竹山,2024-08-25,23.761225,120.688156,0.07172794
C0I360,水里,2024-08-25,23.812553,120.849792,0.05491495
C0I380,集集,2024-08-25,23.828206,120.801467,0.05246058
C0I410,名間,2024-08-25,23.837053,120.701447,0.03183908
C0I420,國姓,2024-08-25,24.037803,120.855072,0.025581919
C0I460,南投,2024-08-25,23.911469,120.687331,0.02623927
C0K250,崙背,2024-08-25,23.75555,120.318925,0.044971973
C0K280,四湖,2024-08-25,23.630414,120.227125,0.068847194
C0K291,宜梧,2024-08-25,23.536281,120.169329,0.05082441
C0K330,虎尾,2024-08-25,23.719183,120.442036,0.034438405
C0K390,土庫,2024-08-25,23.679029,120.395574,0.034002773
C0K400,斗六,2024-08-25,23.720583,120.541127,0.041352298
C0K410,北港,2024-08-25,23.573957,120.292802,0.042403907
C0K420,西螺,2024-08-25,23.800407,120.467394,0.029994573
C0K430,褒忠,2024-08-25,23.690938,120.303634,0.044336397
C0K440,二崙,2024-08-25,23.772797,120.408944,0.02844239
C0K450,大埤,2024-08-25,23.646074,120.431537,0.03461712
C0K460,斗南,2024-08-25,23.678734,120.478359,0.033628784
C0K470,林內,2024-08-25,23.748675,120.609642,0.059206415
C0K480,莿桐,2024-08-25,23.761192,120.502372,0.03590161
C0K500,元長,2024-08-25,23.64981,120.315024,0.04060707
C0K510,水林,2024-08-25,23.572924,120.24597,0.042110123
C0K530,臺西,2024-08-25,23.701547,120.197559,0.07179124
C0K550,蔦松,2024-08-25,23.514319,120.229736,0.05082441
C0K560,棋山,2024-08-25,23.68645,120.603417,0.06555912
C0K580,高鐵雲林,2024-08-25,23.737456,120.417944,0.03208442
C0K590,雲林東勢,2024-08-25,23.674192,120.255721,0.039879277
C0K600,箔子寮,2024-08-25,23.6197,120.14,0.09462581
C0M520,東後寮,2024-08-25,23.369908,120.248065,0.038112193
C0M640,中埔,2024-08-25,23.42538,120.5229,0.0407314
C0M650,朴子,2024-08-25,23.43463,120.23902,0.03398526
C0M660,溪口,2024-08-25,23.604131,120.403569,0.035816766
C0M670,大林,2024-08-25,23.600616,120.45841,0.035725754
C0M680,太保,2024-08-25,23.455062,120.331455,0.035271533
C0M690,水上,2024-08-25,23.419734,120.388909,0.03298503
C0M700,竹崎,2024-08-25,23.526178,120.555508,0.055085517
C0M710,東石,2024-08-25,23.458927,120.15385,0.07263407
C0M720,番路,2024-08-25,23.464657,120.554156,0.049356177
C0M730,嘉義市東區,2024-08-25,23.457673,120.460531,0.040881317
C0M740,六腳,2024-08-25,23.492871,120.290625,0.033087496
C0M750,布袋,2024-08-25,23.380878,120.167789,0.037416156
C0M760,民雄,2024-08-25,23.551754,120.428457,0.04010484
C0M770,嘉義梅山,2024-08-25,23.585398,120.555587,0.08344699
C0M780,鹿草,2024-08-25,23.41134,120.30835,0.033977404
C0M790,新港,2024-08-25,23.553269,120.345728,0.036038045
C0M800,茶山,2024-08-25,23.299075,120.664767,0.20127249
C0M880,好美里,2024-08-25,23.3364,120.138,0.038407717
C0N010,鯤鯓國小,2024-08-25,23.1879,120.0889,0.039889224
C0N020,城西,2024-08-25,23.0568,120.0956,0.025541633
C0N030,四草,2024-08-25,23.0235,120.1116,0.025445966
C0N040,蘆竹溝,2024-08-25,23.2344,120.0961,0.03283683
C0N050,蚵寮,2024-08-25,23.301,120.1104,0.037074916
C0O830,北寮,2024-08-25,23.079561,120.495008,0.026932811
C0O840,王爺宮,2024-08-25,23.222064,120.40085,0.02887026
C0O860,大內,2024-08-25,23.11885,120.36083,0.021511286
C0O900,善化,2024-08-25,23.112883,120.297219,0.020398594
C0O960,崎頂,2024-08-25,22.959547,120.369317,0.022569211
C0O970,虎頭埤,2024-08-25,23.021375,120.347878,0.024459261
C0O980,新市,2024-08-25,23.061614,120.298197,0.020098878
C0O990,媽廟,2024-08-25,22.99175,120.293525,0.022037223
C0R150,三地門,2024-08-25,22.709889,120.639944,0.04996963
C0R160,鹽埔,2024-08-25,22.739558,120.530778,0.014515703
C0R170,屏東,2024-08-25,22.660269,120.494072,0.011725903
C0R190,赤山,2024-08-25,22.592333,120.614306,0.020451367
C0R220,潮州,2024-08-25,22.534361,120.54,0.0173777
C0R240,來義,2024-08-25,22.527306,120.625111,0.018762393
C0R260,春日,2024-08-25,22.370361,120.628306,0.03816471
C0R270,琉球嶼,2024-08-25,22.332244,120.362236,0.04796147
C0R280,檳榔,2024-08-25,22.076078,120.836777,0.08387005
C0R320,車城,2024-08-25,22.0744,120.716247,0.08211447
C0R341,牡丹,2024-08-25,22.130036,120.792639,0.08219647
C0R350,貓鼻頭,2024-08-25,21.921774,120.7358,0.14766797
C0R470,高樹,2024-08-25,22.826389,120.600806,0.021385752
C0R480,長治,2024-08-25,22.693128,120.542622,0.011791721
C0R490,九如,2024-08-25,22.7405,120.490503,0.014574605
C0R520,崁頂,2024-08-25,22.514781,120.506914,0.017290654
C0R540,佳冬,2024-08-25,22.419456,120.552375,0.034280848
C0R550,新埤,2024-08-25,22.467947,120.582894,0.017037177
C0R560,新園,2024-08-25,22.5434,120.461558,0.012203608
C0R570,麟洛,2024-08-25,22.65078,120.52719,0.011725903
C0R580,南州,2024-08-25,22.48591,120.50274,0.016670806
C0R590,里港,2024-08-25,22.77919,120.49459,0.013434908
C0R620,墾雷,2024-08-25,21.900836,120.855269,0.2996752
C0R640,東港,2024-08-25,22.46247,120.44074,0.016670806
C0R650,竹田,2024-08-25,22.58486,120.54344,0.018640874
C0R660,枋寮,2024-08-25,22.367722,120.590647,0.033833276
C0R670,楓港,2024-08-25,22.190131,120.692156,0.1680263
C0R680,佳樂水,2024-08-25,21.993578,120.861633,0.13401586
C0R690,墾丁,2024-08-25,21.966756,120.810269,0.3451125
C0R700,枋山,2024-08-25,22.246844,120.661086,0.08360399
C0R710,龍磐,2024-08-25,21.931672,120.838942,0.2729554
C0R720,旭海,2024-08-25,22.205403,120.887614,0.45679027
C0R730,大坪頂,2024-08-25,22.024633,120.69355,0.09273062
C0R740,獅子,2024-08-25,22.201569,120.70525,0.20935938
C0R760,南仁湖,2024-08-25,22.084681,120.863353,0.40527505
C0R770,保力,2024-08-25,22.071122,120.764111,0.0721155
C0R780,滿州,2024-08-25,22.024403,120.839892,0.09335914
C0R790,九棚,2024-08-25,22.14195,120.889281,0.357831
C0R800,丹路,2024-08-25,22.204481,120.750989,0.086554006
C0R810,內獅,2024-08-25,22.305064,120.642986,0.059767723
C0R830,高士,2024-08-25,22.121825,120.836781,0.7453274
C0R850,林邊,2024-08-25,22.4634,120.5339,0.016690642
C0R860,鼻頭,2024-08-25,22.1043,120.8979,0.06119605
C0R870,興海,2024-08-25,21.9752,120.8439,0.13236631
C0R880,後壁湖,2024-08-25,21.9457,120.7457,0.09114816
C0R890,山海,2024-08-25,21.9878,120.7091,0.092170164
C0R900,竹坑,2024-08-25,22.1385,120.7022,0.08301488
C0R910,下寮,2024-08-25,22.3929,120.5548,0.033833276
C0R920,塭仔,2024-08-25,22.4169,120.5197,0.033716153
C0R930,萬丹,2024-08-25,22.5885,120.4851,0.012072834
C0R940,加祿堂,2024-08-25,22.3363,120.6217,0.033107586
C0S710,鹿野,2024-08-25,22.917711,121.122994,0.04678421
C0S730,綠島,2024-08-25,22.6672,121.47533,0.12486191
C0S740,池上,2024-08-25,23.119628,121.209469,0.019881949
C0S770,大溪山,2024-08-25,22.478475,120.943325,0.057411093
C0S790,金崙,2024-08-25,22.538122,120.966875,0.24280539
C0S810,東河,2024-08-25,22.972672,121.303986,0.022727275
C0S830,長濱,2024-08-25,23.286817,121.411975,0.024978869
C0S840,南田,2024-08-25,22.279725,120.889208,0.15616599
C0S890,關山,2024-08-25,23.0395,121.175017,0.030059569
C0S900,蘭嶼高中,2024-08-25,22.04909,121.51214,0.96397096
C0S910,蘭嶼燈塔,2024-08-25,22.081197,121.503117,0.9576727
C0S920,金峰嘉蘭,2024-08-25,22.594789,120.960825,0.04635477
C0S930,延平,2024-08-25,22.902581,121.084058,0.09267581
C0S940,石寧山,2024-08-25,23.223772,121.406639,0.017585399
C0S950,七塊厝,2024-08-25,22.954453,121.229922,0.06119035
C0S960,香蘭,2024-08-25,22.587569,120.993375,0.039970033
C0S970,加津林,2024-08-25,22.416211,120.926942,0.085924245
C0S990,山豬窟,2024-08-25,22.318619,120.857372,0.6795099
C0SA00,歷坵,2024-08-25,22.520969,120.89185,0.305847
C0SA10,檳榔四格山,2024-08-25,22.810031,121.109308,0.2157646
C0SA30,都歷,2024-08-25,23.020333,121.323642,0.025601653
C0SA40,瑞和,2024-08-25,22.974361,121.156697,0.038866278
C0SA60,知本（水試所）,2024-08-25,22.702394,121.082761,0.03162669
C0SA80,土坂,2024-08-25,22.453108,120.887572,0.058149233
C0SA90,達仁林場,2024-08-25,22.264347,120.823972,0.9246323
C0T870,鯉魚潭,2024-08-25,23.935639,121.508944,0.050301567
C0T900,西林,2024-08-25,23.8119,121.441458,0.045873776
C0T960,光復,2024-08-25,23.660694,121.424964,0.03978769
C0T9A0,月眉山,2024-08-25,23.809928,121.539828,0.051771842
C0T9D0,和中,2024-08-25,24.26676,121.74103,0.05829314
C0T9E0,大坑,2024-08-25,23.880628,121.581981,0.13841937
C0T9F0,水璉,2024-08-25,23.797131,121.542514,0.05295503
C0T9I0,豐濱,2024-08-25,23.583897,121.514806,0.042795878
C0T9M0,靜浦,2024-08-25,23.455167,121.495028,0.036097053
C0T9N0,富里,2024-08-25,23.171639,121.249378,0.022675766
C0U600,礁溪,2024-08-25,24.817539,121.765608,0.04366856
C0U650,玉蘭,2024-08-25,24.675286,121.587061,0.08488251
C0U750,龜山島,2024-08-25,24.841667,121.953133,0.08557775
C0U760,東澳,2024-08-25,24.52196,121.83318,0.044619273
C0U770,南澳,2024-08-25,24.44935,121.81022,0.054376904
C0U780,五結,2024-08-25,24.68637,121.79794,0.045151502
C0U860,頭城,2024-08-25,24.85323,121.8308,0.043271177
C0U870,大礁溪,2024-08-25,24.791042,121.675047,0.04814005
C0U880,北關,2024-08-25,24.9072,121.8734,0.039272323
C0U890,三星,2024-08-25,24.66812,121.65302,0.03109596
C0U900,內城,2024-08-25,24.71813,121.68766,0.0471474
C0U910,冬山,2024-08-25,24.63373,121.7937,0.048471894
C0U940,羅東,2024-08-25,24.68184,121.74934,0.045922223
C0U970,大福,2024-08-25,24.80064,121.81389,0.052904073
C0U990,員山,2024-08-25,24.74435,121.72247,0.04559278
C0UA00,土場,2024-08-25,24.576533,121.495333,0.012834758
C0UA80,大溪漁港,2024-08-25,24.941801,121.902955,0.041851092
C0UA90,石城,2024-08-25,24.980444,121.951214,0.049753785
C0UB00,淡江大學蘭陽校園,2024-08-25,24.823239,121.730383,0.028428735
C0UB10,蘇澳,2024-08-25,24.5969,121.8571,0.031216566
C0UB20,壯圍,2024-08-25,24.7359,121.8163,0.04510195
C0V310,美濃,2024-08-25,22.898742,120.519153,0.020331284
C0V350,溪埔,2024-08-25,22.738578,120.446797,0.010851887
C0V360,內門,2024-08-25,22.975481,120.466769,0.019780967
C0V370,古亭坑,2024-08-25,22.893178,120.401947,0.018446127
C0V400,阿公店,2024-08-25,22.804194,120.355528,0.014007946
C0V440,鳳山,2024-08-25,22.646653,120.356122,0.023562234
C0V450,鳳森,2024-08-25,22.545064,120.392592,0.011358683
C0V490,新興,2024-08-25,22.627422,120.298803,0.0141398925
C0V530,阿蓮,2024-08-25,22.883208,120.327508,0.020309566
C0V610,梓官,2024-08-25,22.760558,120.267211,0.018524297
C0V620,永安,2024-08-25,22.82315,120.236856,0.022418516
C0V630,茄萣,2024-08-25,22.906642,120.182608,0.030599648
C0V640,湖內,2024-08-25,22.887139,120.2445,0.027315514
C0V650,彌陀,2024-08-25,22.783806,120.246361,0.022535833
C0V660,岡山,2024-08-25,22.797078,120.294958,0.022535833
C0V680,仁武,2024-08-25,22.701083,120.347722,0.024834977
C0V690,鼓山,2024-08-25,22.623325,120.275575,0.0141398925
C0V700,三民,2024-08-25,22.645017,120.311233,0.025994336
C0V710,苓雅,2024-08-25,22.622742,120.330669,0.013580157
C0V720,林園,2024-08-25,22.507747,120.394511,0.011914129
C0V730,大寮,2024-08-25,22.605614,120.395717,0.01356023
C0V740,旗山,2024-08-25,22.888614,120.483597,0.020513365
C0V750,路竹,2024-08-25,22.854997,120.259439,0.027519109
C0V760,橋頭,2024-08-25,22.757806,120.30575,0.018524297
C0V770,大社,2024-08-25,22.730306,120.346639,0.018008394
C0V790,萬山,2024-08-25,22.905944,120.688056,0.6671361
C0V800,六龜,2024-08-25,22.997889,120.633583,0.020538943
C0V810,左營,2024-08-25,22.67491,120.28491,0.025994336
C0V820,小林,2024-08-25,23.148408,120.63325,0.34797814
C0V840,鳳鼻頭,2024-08-25,22.5083,120.3591,0.012257442
C0V850,蚵仔寮,2024-08-25,22.7256,120.2527,0.018485516
C0V860,南寮,2024-08-25,22.7616,120.2339,0.018485516
C0V870,文安,2024-08-25,22.8025,120.2164,0.022437505
C0V880,興達,2024-08-25,22.8778,120.2127,0.026984733
C0V890,前鎮,2024-08-25,22.5718,120.3117,0.014111372
C0V900,汕尾,2024-08-25,22.4782,120.4151,0.016670806
C0W200,湖西,2024-08-25,23.596314,119.67275,0.30698216
C0X050,東河,2024-08-25,23.296598,120.385608,0.036350027
C0X060,下營,2024-08-25,23.22695,120.256261,0.024318201
C0X080,佳里,2024-08-25,23.173039,120.145086,0.039889224
C0X100,臺南市北區,2024-08-25,23.010394,120.194228,0.025526607
C0X110,臺南市南區,2024-08-25,22.961189,120.188378,0.022161415
C0X120,麻豆,2024-08-25,23.183289,120.248611,0.01889359
C0X130,官田,2024-08-25,23.193217,120.315422,0.025320802
C0X140,西港,2024-08-25,23.125608,120.203108,0.020039055
C0X150,安定,2024-08-25,23.102614,120.227839,0.020039055
C0X160,仁德,2024-08-25,22.968258,120.257689,0.022122944
C0X170,關廟,2024-08-25,22.963017,120.327797,0.020798251
C0X180,山上,2024-08-25,23.0757,120.363253,0.028350659
C0X190,安平,2024-08-25,22.993161,120.152181,0.025526607
C0X200,左鎮,2024-08-25,23.056758,120.408522,0.023867914
C0X210,白河,2024-08-25,23.347466,120.414427,0.034081325
C0X220,學甲,2024-08-25,23.230367,120.182187,0.033001304
C0X230,鹽水,2024-08-25,23.272621,120.247641,0.036181655
C0X240,關子嶺,2024-08-25,23.331169,120.508025,0.49236968
C0X250,新營,2024-08-25,23.310689,120.316681,0.029952647
C0X260,後壁,2024-08-25,23.366358,120.362326,0.030276075
C0X280,將軍,2024-08-25,23.214999,120.13577,0.03283683
C0X290,北門,2024-08-25,23.267772,120.125481,0.03283683
C0X300,鹿寮,2024-08-25,23.386047,120.477331,0.034650587
C0X320,柳營,2024-08-25,23.253328,120.375253,0.027640369
C0Z020,明里,2024-08-25,23.208717,121.262342,0.016690228
C0Z061,玉里,2024-08-25,23.3215,121.339656,0.021136401
C0Z070,舞鶴,2024-08-25,23.46811,121.37407,0.037884995
C0Z080,富源,2024-08-25,23.587642,121.378225,0.026818737
C0Z100,東華,2024-08-25,23.89525,121.549833,0.043091223
C0Z150,吉安光華,2024-08-25,23.930925,121.595153,0.03878624
C0Z160,鳳林,2024-08-25,23.746114,121.453411,0.030689012
C0Z170,卓溪,2024-08-25,23.3443,121.3029,0.041737296
C0Z180,新城,2024-08-25,24.03946,121.60454,0.038498823
C0Z190,富世,2024-08-25,24.14743,121.6297,0.03551029
C0Z200,萬榮,2024-08-25,23.709219,121.420106,0.032050736
C0Z210,瑞穗,2024-08-25,23.5239,121.39021,0.035905108
C0Z230,和平,2024-08-25,24.30717,121.77007,0.057592284
C0Z270,蕃薯寮,2024-08-25,23.73835,121.540108,0.051021934
C0Z280,德武,2024-08-25,23.47426,121.41071,0.030128172
C0Z300,東里,2024-08-25,23.26853,121.30547,0.017361967
C0Z310,清水斷崖,2024-08-25,24.218294,121.689142,0.7212714
C0Z330,安通山,2024-08-25,23.290728,121.348528,0.02547075
C2A540,四堵,2024-08-25,24.8926,121.745736,0.028583925
C2A560,福山,2024-08-25,24.776203,121.502811,0.015078966
C2A650,火燒寮,2024-08-25,25.002719,121.742892,0.036759418
C2A660,瑞芳,2024-08-25,25.113169,121.801147,0.05758806
C2A880,福隆,2024-08-25,25.017842,121.942083,0.04944939
C2A920,富貴角,2024-08-25,25.263783,121.565258,0.05918461
C2E520,大湖,2024-08-25,24.414939,120.870872,0.44260558
C2E540,後龍,2024-08-25,24.606489,120.783933,0.35409948
C2E540,龍溪,2024-08-25,24.606489,120.783933,0.35409948
C2F000,大肚,2024-08-25,24.15295,120.572117,0.113899045
C2F930,大甲,2024-08-25,24.347667,120.640403,0.13042259
C2F9A0,中竹林,2024-08-25,24.103556,120.751061,0.039162472
C2G640,鹿港,2024-08-25,24.0753,120.430481,0.055189114
C2G840,北斗,2024-08-25,23.877586,120.514222,0.028362092
C2G870,芳苑,2024-08-25,23.922303,120.320025,0.10613232
C2H950,中寮,2024-08-25,23.884447,120.766406,0.029659817
C2M410,馬頭山,2024-08-25,23.324361,120.582017,0.076868325
C2N160,西拉雅風管處,2024-08-25,23.189481,120.335297,0.025409618
C2O810,曾文,2024-08-25,23.219681,120.497328,0.03133899
C2O930,玉井,2024-08-25,23.126042,120.46055,0.028350659
C2O950,安南,2024-08-25,23.076694,120.144861,0.04706918
C2V250,甲仙,2024-08-25,23.080106,120.591758,0.050604995
C2V260,月眉,2024-08-25,22.971003,120.539853,0.029001014
C2W230,畜試所澎湖,2024-08-25,23.628342,119.513206,0.29923606
CAG100,王功漁港,2024-08-25,23.96824,120.32586,0.09876334
CAH030,茶改場竹圍站,2024-08-25,23.860083,120.637528,0.03557237
CAJ050,海口故事園區,2024-08-25,23.57543,120.14121,0.09464712
CAL110,布袋國中,2024-08-25,23.35893,120.18026,0.037416156
CAN130,水試所海水繁養殖中心,2024-08-25,23.120802,120.07968,0.04678067
CAN140,六官養殖協會,2024-08-25,23.22881,120.29962,0.024318201
CAQ030,崎峰國小,2024-08-25,22.42565,120.49521,0.016670806
E2K600,四湖植物園,2024-08-25,23.676986,120.163433,0.068847194
E2P980,林試六龜中心,2024-08-25,22.991703,120.645722,0.023752075
E2S960,林試太麻里2,2024-08-25,22.598014,120.989761,0.040338397
E2S960,林試太麻里2,2024-08-25,22.598,120.99775,0.03950078
E2S980,林試太麻里1,2024-08-25,22.598922,120.980044,0.04603333
G2AI50,關渡,2024-08-25,25.11575,121.492,0.04303738
G2F820,農業試驗所,2024-08-25,24.031261,120.688133,0.021044727
G2F820,農試所(霧峰),2024-08-25,24.031261,120.688133,0.021044727
G2L020,農試嘉義分所,2024-08-25,23.485028,120.473806,0.04633944
G2M350,農試溪口農場,2024-08-25,23.58565,120.408111,0.035816766
G2P820,農試鳳山分所,2024-08-25,22.646611,120.356083,0.023562234
K2E360,苗栗農改,2024-08-25,24.495722,120.829111,0.35517395
K2E360,苗栗農改場,2024-08-25,24.495722,120.829111,0.35517395
K2E710,苗改生物防治研究中心,2024-08-25,24.422861,120.871833,0.28479
K2F750,種苗改良場,2024-08-25,24.225972,120.800917,0.8402976
K2F750,種苗繁殖,2024-08-25,24.225972,120.800917,0.8402976
U2HA50,臺大竹山,2024-08-25,23.756972,120.681556,0.18769763
V2C250,八德合作社,2024-08-25,24.93775,121.266389,0.035920672
V2C260,八德蔬果,2024-08-25,24.978508,121.281819,0.028589407
V2K610,大庄合作社,2024-08-25,23.8068,120.367939,0.039671652
V2K620,麥寮合作社,2024-08-25,23.753836,120.294783,0.044462897
