站號,站名,日期,lat,lon,BlastGRU-TW
12J990,口湖工作站,2024-10-24,23.589978,120.180394,0.99102086
12Q970,東港工作站,2024-10-24,22.479997,120.466058,0.9998575
12Q980,恆春工作站,2024-10-24,22.079678,120.714425,0.9997405
466881,新北,2024-10-24,24.9593,121.52,0.6925197
466900,淡水,2024-10-24,25.164889,121.448906,0.62815624
466920,臺北,2024-10-24,25.037658,121.514853,0.97524256
466940,基隆,2024-10-24,25.133314,121.740475,0.99956495
466990,花蓮,2024-10-24,23.975128,121.613275,0.9998241
467050,新屋,2024-10-24,25.006744,121.047486,0.8368311
467080,宜蘭,2024-10-24,24.763975,121.756528,0.9962327
467270,田中,2024-10-24,23.873803,120.581286,0.49756005
467280,後龍,2024-10-24,24.648563,120.831834,0.49817854
467290,古坑,2024-10-24,23.633639,120.551889,0.68458664
467300,東吉島,2024-10-24,23.25695,119.667467,0.9985119
467350,澎湖,2024-10-24,23.565503,119.563094,0.99228203
467410,臺南,2024-10-24,22.993239,120.204772,0.99984384
467420,永康,2024-10-24,23.038386,120.2367,0.9999276
467441,高雄,2024-10-24,22.7304,120.3125,0.9999733
467480,嘉義,2024-10-24,23.495925,120.432906,0.9940127
467490,臺中,2024-10-24,24.145736,120.684075,0.7698905
467540,大武,2024-10-24,22.355675,120.903789,0.9999752
467571,新竹,2024-10-24,24.827853,121.014219,0.60354286
467590,恆春,2024-10-24,22.003897,120.746339,0.9982346
467610,成功,2024-10-24,23.097486,121.373428,0.9999783
467620,蘭嶼,2024-10-24,22.036969,121.558339,0.99897
467660,臺東,2024-10-24,22.752211,121.154586,0.99998754
467790,墾丁雷達站,2024-10-24,21.948235,120.808028,0.9987529
72AI40,桃改樹林分場,2024-10-24,24.944503,121.386972,0.535356
72C440,桃園農改,2024-10-24,24.950944,121.030583,0.885609
72C440,桃園農改場,2024-10-24,24.950944,121.030583,0.885609
72D680,桃改新埔分場,2024-10-24,24.834444,121.066111,0.25131363
72G600,臺中農改,2024-10-24,24.003028,120.534389,0.91193235
72G600,臺中農改場,2024-10-24,24.003028,120.534389,0.91193235
72K220,南改斗南分場,2024-10-24,23.634556,120.477333,0.66474545
72M360,南改義竹分場,2024-10-24,23.360694,120.279361,0.99793553
72M700,南改鹿草分場,2024-10-24,23.416869,120.283061,0.99750364
72N100,臺南農改,2024-10-24,23.0605,120.342194,0.99985284
72N100,臺南農改場,2024-10-24,23.0605,120.342194,0.99985284
72N240,七股研究中心,2024-10-24,23.081672,120.062894,0.99966556
72Q010,高雄農改,2024-10-24,22.709333,120.525889,0.9997824
72Q010,高雄農改場,2024-10-24,22.709333,120.525889,0.9997824
72S200,東改班鳩分場,2024-10-24,22.829528,121.077694,0.9999717
72S590,東改賓朗果園,2024-10-24,22.813889,121.071278,0.9999673
72T250,花蓮農改,2024-10-24,23.975222,121.563889,0.99980235
72T250,花蓮農改場,2024-10-24,23.975222,121.563889,0.99980235
72U480,花改蘭陽分場,2024-10-24,24.686306,121.716583,0.9931542
72V140,高改旗南分場,2024-10-24,22.857861,120.516667,0.99992824
82A750,茶改北部分場,2024-10-24,24.955778,121.631222,0.9742882
82C160,茶改場,2024-10-24,24.908472,121.185333,0.9011228
82H840,茶改南部分場,2024-10-24,23.762528,120.7405,0.9122972
82S580,茶改東部分場,2024-10-24,22.907694,121.130139,0.9999831
A2C560,農工中心,2024-10-24,24.985917,121.239833,0.5827748
A2K360,水試臺西試驗場,2024-10-24,23.717231,120.190522,0.9448892
A2K570,古坑花卉中心,2024-10-24,23.63353,120.55239,0.68458664
A2K630,臺大雲林校區,2024-10-24,23.730628,120.423903,0.9086199
A2N290,臺南蘭花園區,2024-10-24,23.340258,120.379661,0.997675
B2E890,畜試北區分所,2024-10-24,24.527806,120.770972,0.9396664
B2N890,畜產試驗所,2024-10-24,23.058972,120.336406,0.9998494
B2N890,畜試所,2024-10-24,23.058972,120.336406,0.9998494
B2Q810,畜試南區分所,2024-10-24,21.945583,120.802167,0.9984178
B2U990,畜試東區分所,2024-10-24,24.669039,121.832561,0.99621993
C0A520,山佳,2024-10-24,24.974944,121.402008,0.600316
C0A530,坪林,2024-10-24,24.938183,121.70975,0.9994927
C0A550,泰平,2024-10-24,24.971197,121.823711,0.99884427
C0A570,桶後,2024-10-24,24.848222,121.597992,0.99667627
C0A640,石碇,2024-10-24,24.993969,121.662917,0.9584047
C0A770,科教館,2024-10-24,25.096356,121.516507,0.97451365
C0A860,大坪,2024-10-24,25.165914,121.632969,0.9968599
C0A890,雙溪,2024-10-24,25.036003,121.864242,0.9998526
C0A931,三和,2024-10-24,25.233153,121.595236,0.9991891
C0A940,金山,2024-10-24,25.223628,121.643967,0.999499
C0A950,鼻頭角,2024-10-24,25.129036,121.923372,0.99941945
C0A970,三貂角,2024-10-24,25.007606,122.002058,0.99982864
C0A980,社子,2024-10-24,25.109508,121.469681,0.5999244
C0A9C0,天母,2024-10-24,25.117494,121.537169,0.98428017
C0A9F0,內湖,2024-10-24,25.079422,121.57545,0.97524256
C0AC60,三峽,2024-10-24,24.939025,121.369728,0.56607246
C0AC70,信義,2024-10-24,25.037822,121.564597,0.97524256
C0AC80,文山,2024-10-24,25.00235,121.575728,0.72133875
C0ACA0,新莊,2024-10-24,25.051478,121.446756,0.79323536
C0AD10,八里,2024-10-24,25.150211,121.403947,0.6079033
C0AD30,蘆洲,2024-10-24,25.086594,121.472331,0.9749739
C0AD40,土城,2024-10-24,24.973208,121.445169,0.68045646
C0AD50,鶯歌,2024-10-24,24.951533,121.346294,0.6116127
C0AG80,中和,2024-10-24,24.991622,121.491792,0.68045646
C0AH00,汐止,2024-10-24,25.066881,121.658778,0.97524256
C0AH10,永和,2024-10-24,25.01125,121.508111,0.6699457
C0AH40,平等,2024-10-24,25.129142,121.577086,0.99619657
C0AH50,林口,2024-10-24,25.072181,121.38084,0.78737783
C0AH70,松山,2024-10-24,25.04871,121.55042,0.97524256
C0AH80,深坑,2024-10-24,25.002703,121.628328,0.7210238
C0AI00,五股,2024-10-24,25.07445,121.42728,0.52560353
C0AI10,屈尺,2024-10-24,24.92184,121.54475,0.62274593
C0AI20,白沙灣,2024-10-24,25.283128,121.519058,0.99264485
C0AI30,三重,2024-10-24,25.057328,121.500629,0.97392017
C0AI40,石牌,2024-10-24,25.115597,121.513139,0.9833993
C0AJ20,野柳,2024-10-24,25.20703,121.690021,0.999534
C0AJ30,淡水觀海,2024-10-24,25.184591,121.408616,0.99610984
C0AJ40,石門,2024-10-24,25.273672,121.601198,0.9944239
C0AJ50,水湳洞,2024-10-24,25.123695,121.862238,0.9995382
C0AJ60,六塊厝,2024-10-24,25.24,121.4481,0.99235755
C0AJ70,田寮,2024-10-24,25.2698,121.4886,0.99250585
C0AJ80,板橋,2024-10-24,25.0107,121.4489,0.6699457
C0AJ90,澳底,2024-10-24,25.0552,121.9253,0.9998495
C0B010,七堵,2024-10-24,25.094819,121.71713,0.9984859
C0B020,基隆嶼,2024-10-24,25.19141,121.78391,0.99668413
C0B040,大武崙,2024-10-24,25.166676,121.706993,0.99957496
C0B050,八斗子,2024-10-24,25.144754,121.79167,0.99956095
C0B060,暖暖,2024-10-24,25.0957,121.7403,0.9985442
C0C460,復興,2024-10-24,24.820208,121.352281,0.91355914
C0C480,桃園,2024-10-24,24.992425,121.323172,0.7210017
C0C490,八德,2024-10-24,24.928708,121.283289,0.9408623
C0C590,觀音,2024-10-24,25.027072,121.153317,0.7142272
C0C620,蘆竹,2024-10-24,25.084275,121.265767,0.76689214
C0C630,大溪,2024-10-24,24.882853,121.265547,0.95891726
C0C650,平鎮,2024-10-24,24.897503,121.214636,0.9493056
C0C660,楊梅,2024-10-24,24.912375,121.143047,0.8815309
C0C670,龍潭,2024-10-24,24.870056,121.221389,0.9613217
C0C680,龜山,2024-10-24,25.02846,121.38656,0.9399384
C0C700,中壢,2024-10-24,24.977661,121.256375,0.8236089
C0C710,大溪永福,2024-10-24,24.892936,121.324975,0.83760303
C0C720,竹圍,2024-10-24,25.112692,121.239824,0.9463163
C0C730,中大臨海站,2024-10-24,24.966126,121.008581,0.7923289
C0C740,觀音工業區,2024-10-24,25.064764,121.114856,0.8230799
C0C750,新興坑尾,2024-10-24,25.0061,121.0971,0.6491239
C0D430,峨眉,2024-10-24,24.6905,121.017189,0.95922893
C0D480,打鐵坑,2024-10-24,24.849664,121.150789,0.9621423
C0D540,橫山,2024-10-24,24.71116,121.11693,0.9177443
C0D560,竹東,2024-10-24,24.767147,121.057881,0.9749356
C0D580,寶山,2024-10-24,24.735006,121.025192,0.97938323
C0D590,新豐,2024-10-24,24.87068,120.97721,0.57733274
C0D650,湖口,2024-10-24,24.904794,121.043628,0.7568534
C0D660,新竹市東區,2024-10-24,24.798681,120.986942,0.88628024
C0D670,海天一線,2024-10-24,24.831986,120.914438,0.32876366
C0D680,香山濕地,2024-10-24,24.783581,120.914988,0.77826405
C0D690,外湖,2024-10-24,24.917735,120.968711,0.48435807
C0D700,關西,2024-10-24,24.7977,121.1732,0.8957502
C0E420,竹南,2024-10-24,24.708978,120.888897,0.79984283
C0E430,南庄,2024-10-24,24.601775,121.000214,0.9396694
C0E550,明德,2024-10-24,24.583486,120.885411,0.77373624
C0E590,通霄,2024-10-24,24.471892,120.704622,0.6392868
C0E730,頭份,2024-10-24,24.688247,120.912206,0.7794351
C0E740,造橋,2024-10-24,24.637056,120.864778,0.44895372
C0E750,苗栗,2024-10-24,24.564569,120.824575,0.72635794
C0E780,銅鑼,2024-10-24,24.489681,120.790853,0.95569116
C0E791,卓蘭,2024-10-24,24.3126,120.8244,0.92949235
C0E810,西湖,2024-10-24,24.562947,120.7485,0.90587926
C0E820,獅潭,2024-10-24,24.539133,120.920042,0.93958604
C0E830,苑裡,2024-10-24,24.439714,120.653053,0.958154
C0E850,大河,2024-10-24,24.618069,120.948578,0.83212566
C0E870,高鐵苗栗,2024-10-24,24.60725,120.826094,0.46799776
C0E910,海埔,2024-10-24,24.648767,120.772435,0.9329784
C0E920,通霄漁港,2024-10-24,24.498589,120.673876,0.90049386
C0E930,龍鳳,2024-10-24,24.700034,120.859125,0.7025739
C0F0B0,石岡,2024-10-24,24.276061,120.777644,0.943284
C0F850,東勢,2024-10-24,24.246428,120.833047,0.9035037
C0F970,大坑,2024-10-24,24.173142,120.722289,0.77777636
C0F9I0,神岡,2024-10-24,24.272481,120.658314,0.94124
C0F9K0,大安,2024-10-24,24.345061,120.588025,0.9039435
C0F9L0,后里,2024-10-24,24.310436,120.729725,0.9489665
C0F9M0,豐原,2024-10-24,24.254322,120.720692,0.9492747
C0F9N0,大里,2024-10-24,24.092464,120.701378,0.6309202
C0F9O0,潭子,2024-10-24,24.213106,120.703933,0.9311269
C0F9P0,清水,2024-10-24,24.312297,120.562242,0.66772264
C0F9Q0,外埔,2024-10-24,24.347817,120.705686,0.95742565
C0F9R0,龍井,2024-10-24,24.184536,120.528972,0.4429512
C0F9S0,烏日,2024-10-24,24.107058,120.624103,0.5346565
C0F9T0,西屯,2024-10-24,24.179494,120.641275,0.7737741
C0F9U0,南屯,2024-10-24,24.137006,120.637969,0.661506
C0F9X0,大雅(中科園區),2024-10-24,24.21528,120.62445,0.9374184
C0FA10,松柏,2024-10-24,24.429115,120.617482,0.91339666
C0FA20,溫寮,2024-10-24,24.372177,120.583125,0.8667055
C0FA30,梧棲,2024-10-24,24.256003,120.523381,0.66772264
C0FA40,臺中電廠,2024-10-24,24.2146,120.4907,0.7325555
C0FA50,霧峰,2024-10-24,24.0419,120.6995,0.6381962
C0G620,芬園,2024-10-24,24.015678,120.6213,0.49243405
C0G650,員林,2024-10-24,23.946503,120.585597,0.83361506
C0G660,溪湖,2024-10-24,23.94835,120.479122,0.929287
C0G720,溪州,2024-10-24,23.851589,120.499093,0.56841654
C0G730,二林,2024-10-24,23.903325,120.376081,0.8419715
C0G740,大城,2024-10-24,23.852487,120.320935,0.64693326
C0G770,福興,2024-10-24,24.041289,120.437669,0.8368669
C0G780,秀水,2024-10-24,24.03405,120.503869,0.90398455
C0G800,埔鹽,2024-10-24,24.000394,120.431683,0.8442422
C0G810,埔心,2024-10-24,23.947633,120.525456,0.93692064
C0G820,田尾,2024-10-24,23.901669,120.509389,0.50096095
C0G830,埤頭,2024-10-24,23.866003,120.452806,0.5169605
C0G860,社頭,2024-10-24,23.897647,120.5862,0.46832028
C0G880,二水,2024-10-24,23.810742,120.6173,0.44910714
C0G890,伸港,2024-10-24,24.148933,120.484403,0.567953
C0G900,線西,2024-10-24,24.143358,120.443536,0.5456815
C0G910,花壇,2024-10-24,24.032076,120.549461,0.92330825
C0G920,永靖,2024-10-24,23.924703,120.547533,0.50096095
C0G940,竹塘,2024-10-24,23.848253,120.386764,0.88399184
C0G950,防潮門,2024-10-24,24.1835,120.4871,0.4429512
C0G960,福寶,2024-10-24,24.0443,120.3814,0.80264044
C0G970,三豐,2024-10-24,23.882,120.2895,0.78744763
C0H890,埔里,2024-10-24,23.972169,120.952425,0.864106
C0H960,草屯,2024-10-24,23.973672,120.68085,0.46541885
C0I110,竹山,2024-10-24,23.761225,120.688156,0.82199496
C0I360,水里,2024-10-24,23.812553,120.849792,0.80874604
C0I380,集集,2024-10-24,23.828206,120.801467,0.7909733
C0I410,名間,2024-10-24,23.837053,120.701447,0.5627431
C0I420,國姓,2024-10-24,24.037803,120.855072,0.8752153
C0I460,南投,2024-10-24,23.911469,120.687331,0.5743462
C0K250,崙背,2024-10-24,23.75555,120.318925,0.9067379
C0K280,四湖,2024-10-24,23.630414,120.227125,0.9362566
C0K291,宜梧,2024-10-24,23.536281,120.169329,0.99349266
C0K330,虎尾,2024-10-24,23.719183,120.442036,0.8567314
C0K390,土庫,2024-10-24,23.679029,120.395574,0.9511284
C0K400,斗六,2024-10-24,23.720583,120.541127,0.8283116
C0K410,北港,2024-10-24,23.573957,120.292802,0.9825773
C0K420,西螺,2024-10-24,23.800407,120.467394,0.7607371
C0K430,褒忠,2024-10-24,23.690938,120.303634,0.98694694
C0K440,二崙,2024-10-24,23.772797,120.408944,0.83814776
C0K450,大埤,2024-10-24,23.646074,120.431537,0.8976832
C0K460,斗南,2024-10-24,23.678734,120.478359,0.66474545
C0K470,林內,2024-10-24,23.748675,120.609642,0.57858026
C0K480,莿桐,2024-10-24,23.761192,120.502372,0.6956437
C0K500,元長,2024-10-24,23.64981,120.315024,0.90446925
C0K510,水林,2024-10-24,23.572924,120.24597,0.9817878
C0K530,臺西,2024-10-24,23.701547,120.197559,0.9523232
C0K550,蔦松,2024-10-24,23.514319,120.229736,0.99349266
C0K560,棋山,2024-10-24,23.68645,120.603417,0.7393466
C0K580,高鐵雲林,2024-10-24,23.737456,120.417944,0.9086201
C0K590,雲林東勢,2024-10-24,23.674192,120.255721,0.9642886
C0K600,箔子寮,2024-10-24,23.6197,120.14,0.99102086
C0M520,東後寮,2024-10-24,23.369908,120.248065,0.99787366
C0M640,中埔,2024-10-24,23.42538,120.5229,0.99772257
C0M650,朴子,2024-10-24,23.43463,120.23902,0.99737906
C0M660,溪口,2024-10-24,23.604131,120.403569,0.9776984
C0M670,大林,2024-10-24,23.600616,120.45841,0.9262346
C0M680,太保,2024-10-24,23.455062,120.331455,0.99764615
C0M690,水上,2024-10-24,23.419734,120.388909,0.9976992
C0M700,竹崎,2024-10-24,23.526178,120.555508,0.9941518
C0M710,東石,2024-10-24,23.458927,120.15385,0.9965238
C0M720,番路,2024-10-24,23.464657,120.554156,0.9978455
C0M730,嘉義市東區,2024-10-24,23.457673,120.460531,0.99398184
C0M740,六腳,2024-10-24,23.492871,120.290625,0.99673885
C0M750,布袋,2024-10-24,23.380878,120.167789,0.9981241
C0M760,民雄,2024-10-24,23.551754,120.428457,0.970166
C0M770,嘉義梅山,2024-10-24,23.585398,120.555587,0.96002895
C0M780,鹿草,2024-10-24,23.41134,120.30835,0.9976813
C0M790,新港,2024-10-24,23.553269,120.345728,0.9553582
C0M800,茶山,2024-10-24,23.299075,120.664767,0.99821776
C0M880,好美里,2024-10-24,23.3364,120.138,0.99887484
C0N010,鯤鯓國小,2024-10-24,23.1879,120.0889,0.99954945
C0N020,城西,2024-10-24,23.0568,120.0956,0.9998275
C0N030,四草,2024-10-24,23.0235,120.1116,0.99982595
C0N040,蘆竹溝,2024-10-24,23.2344,120.0961,0.99935484
C0N050,蚵寮,2024-10-24,23.301,120.1104,0.9989109
C0O830,北寮,2024-10-24,23.079561,120.495008,0.9997907
C0O840,王爺宮,2024-10-24,23.222064,120.40085,0.9993873
C0O860,大內,2024-10-24,23.11885,120.36083,0.9998163
C0O900,善化,2024-10-24,23.112883,120.297219,0.99986285
C0O960,崎頂,2024-10-24,22.959547,120.369317,0.99995357
C0O970,虎頭埤,2024-10-24,23.021375,120.347878,0.99994653
C0O980,新市,2024-10-24,23.061614,120.298197,0.999916
C0O990,媽廟,2024-10-24,22.99175,120.293525,0.9999313
C0R150,三地門,2024-10-24,22.709889,120.639944,0.99972034
C0R160,鹽埔,2024-10-24,22.739558,120.530778,0.9997824
C0R170,屏東,2024-10-24,22.660269,120.494072,0.9997368
C0R190,赤山,2024-10-24,22.592333,120.614306,0.99955624
C0R220,潮州,2024-10-24,22.534361,120.54,0.9997845
C0R240,來義,2024-10-24,22.527306,120.625111,0.9998189
C0R260,春日,2024-10-24,22.370361,120.628306,0.9999528
C0R270,琉球嶼,2024-10-24,22.332244,120.362236,0.9999349
C0R280,檳榔,2024-10-24,22.076078,120.836777,0.99847025
C0R320,車城,2024-10-24,22.0744,120.716247,0.9997405
C0R341,牡丹,2024-10-24,22.130036,120.792639,0.9984638
C0R350,貓鼻頭,2024-10-24,21.921774,120.7358,0.99930996
C0R470,高樹,2024-10-24,22.826389,120.600806,0.9999227
C0R480,長治,2024-10-24,22.693128,120.542622,0.99985063
C0R490,九如,2024-10-24,22.7405,120.490503,0.99977773
C0R520,崁頂,2024-10-24,22.514781,120.506914,0.9997757
C0R540,佳冬,2024-10-24,22.419456,120.552375,0.99994135
C0R550,新埤,2024-10-24,22.467947,120.582894,0.99984485
C0R560,新園,2024-10-24,22.5434,120.461558,0.99983317
C0R570,麟洛,2024-10-24,22.65078,120.52719,0.9997368
C0R580,南州,2024-10-24,22.48591,120.50274,0.9998575
C0R590,里港,2024-10-24,22.77919,120.49459,0.99987453
C0R620,墾雷,2024-10-24,21.900836,120.855269,0.99451554
C0R640,東港,2024-10-24,22.46247,120.44074,0.9998575
C0R650,竹田,2024-10-24,22.58486,120.54344,0.9996419
C0R660,枋寮,2024-10-24,22.367722,120.590647,0.99994034
C0R670,楓港,2024-10-24,22.190131,120.692156,0.999762
C0R680,佳樂水,2024-10-24,21.993578,120.861633,0.99845517
C0R690,墾丁,2024-10-24,21.966756,120.810269,0.9994847
C0R700,枋山,2024-10-24,22.246844,120.661086,0.9999437
C0R710,龍磐,2024-10-24,21.931672,120.838942,0.9988983
C0R720,旭海,2024-10-24,22.205403,120.887614,0.9998368
C0R730,大坪頂,2024-10-24,22.024633,120.69355,0.9994696
C0R740,獅子,2024-10-24,22.201569,120.70525,0.9997245
C0R760,南仁湖,2024-10-24,22.084681,120.863353,0.9994983
C0R770,保力,2024-10-24,22.071122,120.764111,0.999101
C0R780,滿州,2024-10-24,22.024403,120.839892,0.99843615
C0R790,九棚,2024-10-24,22.14195,120.889281,0.99958587
C0R800,丹路,2024-10-24,22.204481,120.750989,0.9994414
C0R810,內獅,2024-10-24,22.305064,120.642986,0.9999481
C0R830,高士,2024-10-24,22.121825,120.836781,0.99952453
C0R850,林邊,2024-10-24,22.4634,120.5339,0.9998634
C0R860,鼻頭,2024-10-24,22.1043,120.8979,0.9988964
C0R870,興海,2024-10-24,21.9752,120.8439,0.9984178
C0R880,後壁湖,2024-10-24,21.9457,120.7457,0.99940574
C0R890,山海,2024-10-24,21.9878,120.7091,0.9994189
C0R900,竹坑,2024-10-24,22.1385,120.7022,0.9997422
C0R910,下寮,2024-10-24,22.3929,120.5548,0.99994034
C0R920,塭仔,2024-10-24,22.4169,120.5197,0.9999395
C0R930,萬丹,2024-10-24,22.5885,120.4851,0.99969965
C0R940,加祿堂,2024-10-24,22.3363,120.6217,0.9999533
C0S710,鹿野,2024-10-24,22.917711,121.122994,0.9999205
C0S730,綠島,2024-10-24,22.6672,121.47533,0.9997015
C0S740,池上,2024-10-24,23.119628,121.209469,0.9999363
C0S770,大溪山,2024-10-24,22.478475,120.943325,0.9999925
C0S790,金崙,2024-10-24,22.538122,120.966875,0.99999654
C0S810,東河,2024-10-24,22.972672,121.303986,0.9999141
C0S830,長濱,2024-10-24,23.286817,121.411975,0.99983513
C0S840,南田,2024-10-24,22.279725,120.889208,0.99985826
C0S890,關山,2024-10-24,23.0395,121.175017,0.99994487
C0S900,蘭嶼高中,2024-10-24,22.04909,121.51214,0.8245164
C0S910,蘭嶼燈塔,2024-10-24,22.081197,121.503117,0.94369024
C0S920,金峰嘉蘭,2024-10-24,22.594789,120.960825,0.9999976
C0S930,延平,2024-10-24,22.902581,121.084058,0.9999809
C0S940,石寧山,2024-10-24,23.223772,121.406639,0.999889
C0S950,七塊厝,2024-10-24,22.954453,121.229922,0.99990743
C0S960,香蘭,2024-10-24,22.587569,120.993375,0.99999744
C0S970,加津林,2024-10-24,22.416211,120.926942,0.99997747
C0S990,山豬窟,2024-10-24,22.318619,120.857372,0.99997467
C0SA00,歷坵,2024-10-24,22.520969,120.89185,0.9999947
C0SA10,檳榔四格山,2024-10-24,22.810031,121.109308,0.99997926
C0SA30,都歷,2024-10-24,23.020333,121.323642,0.9999683
C0SA40,瑞和,2024-10-24,22.974361,121.156697,0.9999628
C0SA60,知本（水試所）,2024-10-24,22.702394,121.082761,0.9999976
C0SA80,土坂,2024-10-24,22.453108,120.887572,0.9999919
C0SA90,達仁林場,2024-10-24,22.264347,120.823972,0.99994713
C0T870,鯉魚潭,2024-10-24,23.935639,121.508944,0.9997878
C0T900,西林,2024-10-24,23.8119,121.441458,0.9997616
C0T960,光復,2024-10-24,23.660694,121.424964,0.9992306
C0T9A0,月眉山,2024-10-24,23.809928,121.539828,0.99940336
C0T9D0,和中,2024-10-24,24.26676,121.74103,0.99969643
C0T9E0,大坑,2024-10-24,23.880628,121.581981,0.99957126
C0T9F0,水璉,2024-10-24,23.797131,121.542514,0.9997436
C0T9I0,豐濱,2024-10-24,23.583897,121.514806,0.9995319
C0T9M0,靜浦,2024-10-24,23.455167,121.495028,0.99962384
C0T9N0,富里,2024-10-24,23.171639,121.249378,0.9999128
C0U600,礁溪,2024-10-24,24.817539,121.765608,0.9989936
C0U650,玉蘭,2024-10-24,24.675286,121.587061,0.996357
C0U750,龜山島,2024-10-24,24.841667,121.953133,0.9983489
C0U760,東澳,2024-10-24,24.52196,121.83318,0.9994696
C0U770,南澳,2024-10-24,24.44935,121.81022,0.9994051
C0U780,五結,2024-10-24,24.68637,121.79794,0.9929192
C0U860,頭城,2024-10-24,24.85323,121.8308,0.9989842
C0U870,大礁溪,2024-10-24,24.791042,121.675047,0.9959129
C0U880,北關,2024-10-24,24.9072,121.8734,0.99966294
C0U890,三星,2024-10-24,24.66812,121.65302,0.9975031
C0U900,內城,2024-10-24,24.71813,121.68766,0.9932368
C0U910,冬山,2024-10-24,24.63373,121.7937,0.99621993
C0U940,羅東,2024-10-24,24.68184,121.74934,0.9930864
C0U970,大福,2024-10-24,24.80064,121.81389,0.9961942
C0U990,員山,2024-10-24,24.74435,121.72247,0.9930128
C0UA00,土場,2024-10-24,24.576533,121.495333,0.9967431
C0UA80,大溪漁港,2024-10-24,24.941801,121.902955,0.9996994
C0UA90,石城,2024-10-24,24.980444,121.951214,0.9998433
C0UB00,淡江大學蘭陽校園,2024-10-24,24.823239,121.730383,0.9964298
C0UB10,蘇澳,2024-10-24,24.5969,121.8571,0.99905705
C0UB20,壯圍,2024-10-24,24.7359,121.8163,0.9929271
C0V310,美濃,2024-10-24,22.898742,120.519153,0.99992824
C0V350,溪埔,2024-10-24,22.738578,120.446797,0.9998381
C0V360,內門,2024-10-24,22.975481,120.466769,0.99994963
C0V370,古亭坑,2024-10-24,22.893178,120.401947,0.99992967
C0V400,阿公店,2024-10-24,22.804194,120.355528,0.99994606
C0V440,鳳山,2024-10-24,22.646653,120.356122,0.9999758
C0V450,鳳森,2024-10-24,22.545064,120.392592,0.9998068
C0V490,新興,2024-10-24,22.627422,120.298803,0.999872
C0V530,阿蓮,2024-10-24,22.883208,120.327508,0.9999117
C0V610,梓官,2024-10-24,22.760558,120.267211,0.99997765
C0V620,永安,2024-10-24,22.82315,120.236856,0.9999699
C0V630,茄萣,2024-10-24,22.906642,120.182608,0.9999356
C0V640,湖內,2024-10-24,22.887139,120.2445,0.9999118
C0V650,彌陀,2024-10-24,22.783806,120.246361,0.99996895
C0V660,岡山,2024-10-24,22.797078,120.294958,0.99996895
C0V680,仁武,2024-10-24,22.701083,120.347722,0.9999754
C0V690,鼓山,2024-10-24,22.623325,120.275575,0.999872
C0V700,三民,2024-10-24,22.645017,120.311233,0.99998003
C0V710,苓雅,2024-10-24,22.622742,120.330669,0.9998295
C0V720,林園,2024-10-24,22.507747,120.394511,0.9998027
C0V730,大寮,2024-10-24,22.605614,120.395717,0.9998342
C0V740,旗山,2024-10-24,22.888614,120.483597,0.99992925
C0V750,路竹,2024-10-24,22.854997,120.259439,0.9999141
C0V760,橋頭,2024-10-24,22.757806,120.30575,0.99997765
C0V770,大社,2024-10-24,22.730306,120.346639,0.9999733
C0V790,萬山,2024-10-24,22.905944,120.688056,0.99987096
C0V800,六龜,2024-10-24,22.997889,120.633583,0.99996024
C0V810,左營,2024-10-24,22.67491,120.28491,0.99998003
C0V820,小林,2024-10-24,23.148408,120.63325,0.9993936
C0V840,鳳鼻頭,2024-10-24,22.5083,120.3591,0.9998272
C0V850,蚵仔寮,2024-10-24,22.7256,120.2527,0.999977
C0V860,南寮,2024-10-24,22.7616,120.2339,0.999977
C0V870,文安,2024-10-24,22.8025,120.2164,0.999968
C0V880,興達,2024-10-24,22.8778,120.2127,0.99990916
C0V890,前鎮,2024-10-24,22.5718,120.3117,0.9998699
C0V900,汕尾,2024-10-24,22.4782,120.4151,0.9998575
C0W200,湖西,2024-10-24,23.596314,119.67275,0.99384314
C0X050,東河,2024-10-24,23.296598,120.385608,0.99806225
C0X060,下營,2024-10-24,23.22695,120.256261,0.9992983
C0X080,佳里,2024-10-24,23.173039,120.145086,0.99954945
C0X100,臺南市北區,2024-10-24,23.010394,120.194228,0.99983174
C0X110,臺南市南區,2024-10-24,22.961189,120.188378,0.9999183
C0X120,麻豆,2024-10-24,23.183289,120.248611,0.99962604
C0X130,官田,2024-10-24,23.193217,120.315422,0.9996746
C0X140,西港,2024-10-24,23.125608,120.203108,0.99975526
C0X150,安定,2024-10-24,23.102614,120.227839,0.99975526
C0X160,仁德,2024-10-24,22.968258,120.257689,0.9999196
C0X170,關廟,2024-10-24,22.963017,120.327797,0.99993956
C0X180,山上,2024-10-24,23.0757,120.363253,0.9998265
C0X190,安平,2024-10-24,22.993161,120.152181,0.99983174
C0X200,左鎮,2024-10-24,23.056758,120.408522,0.999945
C0X210,白河,2024-10-24,23.347466,120.414427,0.9981083
C0X220,學甲,2024-10-24,23.230367,120.182187,0.99935913
C0X230,鹽水,2024-10-24,23.272621,120.247641,0.99855244
C0X240,關子嶺,2024-10-24,23.331169,120.508025,0.9983506
C0X250,新營,2024-10-24,23.310689,120.316681,0.9985234
C0X260,後壁,2024-10-24,23.366358,120.362326,0.997675
C0X280,將軍,2024-10-24,23.214999,120.13577,0.99935484
C0X290,北門,2024-10-24,23.267772,120.125481,0.99935484
C0X300,鹿寮,2024-10-24,23.386047,120.477331,0.99833405
C0X320,柳營,2024-10-24,23.253328,120.375253,0.9990922
C0Z020,明里,2024-10-24,23.208717,121.262342,0.9998557
C0Z061,玉里,2024-10-24,23.3215,121.339656,0.9998997
C0Z070,舞鶴,2024-10-24,23.46811,121.37407,0.9997263
C0Z080,富源,2024-10-24,23.587642,121.378225,0.999895
C0Z100,東華,2024-10-24,23.89525,121.549833,0.9998607
C0Z150,吉安光華,2024-10-24,23.930925,121.595153,0.9998667
C0Z160,鳳林,2024-10-24,23.746114,121.453411,0.99983203
C0Z170,卓溪,2024-10-24,23.3443,121.3029,0.9996476
C0Z180,新城,2024-10-24,24.03946,121.60454,0.99981797
C0Z190,富世,2024-10-24,24.14743,121.6297,0.9999274
C0Z200,萬榮,2024-10-24,23.709219,121.420106,0.99981964
C0Z210,瑞穗,2024-10-24,23.5239,121.39021,0.99972355
C0Z230,和平,2024-10-24,24.30717,121.77007,0.99969643
C0Z270,蕃薯寮,2024-10-24,23.73835,121.540108,0.9998042
C0Z280,德武,2024-10-24,23.47426,121.41071,0.9996236
C0Z300,東里,2024-10-24,23.26853,121.30547,0.99987733
C0Z310,清水斷崖,2024-10-24,24.218294,121.689142,0.9996193
C0Z330,安通山,2024-10-24,23.290728,121.348528,0.99972177
C2A540,四堵,2024-10-24,24.8926,121.745736,0.9993042
C2A560,福山,2024-10-24,24.776203,121.502811,0.998129
C2A650,火燒寮,2024-10-24,25.002719,121.742892,0.99974215
C2A660,瑞芳,2024-10-24,25.113169,121.801147,0.999452
C2A880,福隆,2024-10-24,25.017842,121.942083,0.99984264
C2A920,富貴角,2024-10-24,25.263783,121.565258,0.9944507
C2E520,大湖,2024-10-24,24.414939,120.870872,0.96012294
C2E540,後龍,2024-10-24,24.606489,120.783933,0.93956345
C2E540,龍溪,2024-10-24,24.606489,120.783933,0.93956345
C2F000,大肚,2024-10-24,24.15295,120.572117,0.92966205
C2F930,大甲,2024-10-24,24.347667,120.640403,0.947937
C2F9A0,中竹林,2024-10-24,24.103556,120.751061,0.87845397
C2G640,鹿港,2024-10-24,24.0753,120.430481,0.80264044
C2G840,北斗,2024-10-24,23.877586,120.514222,0.54734015
C2G870,芳苑,2024-10-24,23.922303,120.320025,0.52547395
C2H950,中寮,2024-10-24,23.884447,120.766406,0.61702245
C2M410,馬頭山,2024-10-24,23.324361,120.582017,0.9982692
C2N160,西拉雅風管處,2024-10-24,23.189481,120.335297,0.9996768
C2O810,曾文,2024-10-24,23.219681,120.497328,0.9984551
C2O930,玉井,2024-10-24,23.126042,120.46055,0.9998265
C2O950,安南,2024-10-24,23.076694,120.144861,0.9996792
C2V250,甲仙,2024-10-24,23.080106,120.591758,0.9998822
C2V260,月眉,2024-10-24,22.971003,120.539853,0.99996275
C2W230,畜試所澎湖,2024-10-24,23.628342,119.513206,0.9818739
CAG100,王功漁港,2024-10-24,23.96824,120.32586,0.53667265
CAH030,茶改場竹圍站,2024-10-24,23.860083,120.637528,0.87096477
CAJ050,海口故事園區,2024-10-24,23.57543,120.14121,0.99063504
CAL110,布袋國中,2024-10-24,23.35893,120.18026,0.9981241
CAN130,水試所海水繁養殖中心,2024-10-24,23.120802,120.07968,0.99966556
CAN140,六官養殖協會,2024-10-24,23.22881,120.29962,0.9992983
CAQ030,崎峰國小,2024-10-24,22.42565,120.49521,0.9998575
E2K600,四湖植物園,2024-10-24,23.676986,120.163433,0.9362566
E2P980,林試六龜中心,2024-10-24,22.991703,120.645722,0.99996114
E2S960,林試太麻里2,2024-10-24,22.598014,120.989761,0.99999744
E2S960,林試太麻里2,2024-10-24,22.598,120.99775,0.9999974
E2S980,林試太麻里1,2024-10-24,22.598922,120.980044,0.9999976
G2AI50,關渡,2024-10-24,25.11575,121.492,0.61450815
G2F820,農業試驗所,2024-10-24,24.031261,120.688133,0.59480196
G2F820,農試所(霧峰),2024-10-24,24.031261,120.688133,0.59480196
G2L020,農試嘉義分所,2024-10-24,23.485028,120.473806,0.9868899
G2M350,農試溪口農場,2024-10-24,23.58565,120.408111,0.9776985
G2P820,農試鳳山分所,2024-10-24,22.646611,120.356083,0.9999758
K2E360,苗栗農改,2024-10-24,24.495722,120.829111,0.90759987
K2E360,苗栗農改場,2024-10-24,24.495722,120.829111,0.90759987
K2E710,苗改生物防治研究中心,2024-10-24,24.422861,120.871833,0.9644893
K2F750,種苗改良場,2024-10-24,24.225972,120.800917,0.8356019
K2F750,種苗繁殖,2024-10-24,24.225972,120.800917,0.8356019
U2HA50,臺大竹山,2024-10-24,23.756972,120.681556,0.81873256
V2C250,八德合作社,2024-10-24,24.93775,121.266389,0.81134003
V2C260,八德蔬果,2024-10-24,24.978508,121.281819,0.78726757
V2K610,大庄合作社,2024-10-24,23.8068,120.367939,0.86560196
V2K620,麥寮合作社,2024-10-24,23.753836,120.294783,0.9860407
