站號,站名,日期,lat,lon,BLBTSLS
C0R710,龍磐,2024-03-24,21.931672,120.838942,0.6796311
C1F9D1,白毛台,2024-03-24,24.158325,120.886933,8.108782e-10
C0G940,竹塘,2024-03-24,23.848253,120.386764,6.6793954e-10
467590,恆春,2024-03-24,22.003897,120.746339,0.1430313
C1O850,環湖,2024-03-24,23.148617,120.418633,0.0008916108
C0U710,太平山,2024-03-24,24.505486,121.525656,1.33728e-08
C0E820,獅潭,2024-03-24,24.539133,120.920042,1.3150009e-09
C0V880,興達,2024-03-24,22.8778,120.2127,7.6468416e-07
C0S890,關山,2024-03-24,23.0395,121.175017,1.8397082e-09
K2F750,種苗繁殖,2024-03-24,24.225972,120.800917,9.731114e-10
C1Z130,銅門,2024-03-24,23.965694,121.492842,6.6318577e-09
C0AD40,土城,2024-03-24,24.973208,121.445169,8.3651495e-09
CAN140,六官養殖協會,2024-03-24,23.22881,120.29962,0.0003635492
C0X180,山上,2024-03-24,23.0757,120.363253,3.0231406e-05
C0F9Z0,雪山東峰,2024-03-24,24.388792,121.268675,1.6686807e-08
C1M480,獨立山,2024-03-24,23.537022,120.607797,4.6798276e-10
C0X220,學甲,2024-03-24,23.230367,120.182187,1.3816813e-08
C0R170,屏東,2024-03-24,22.660269,120.494072,3.7419202e-08
467650,日月潭,2024-03-24,23.881325,120.90805,1.6305378e-09
C0K600,箔子寮,2024-03-24,23.6197,120.14,4.7260457e-08
C0G830,埤頭,2024-03-24,23.866003,120.452806,2.9205078e-09
C0S950,七塊厝,2024-03-24,22.954453,121.229922,1.8918755e-09
467110,金門,2024-03-24,24.407306,118.289281,5.959151e-07
C0AH80,深坑,2024-03-24,25.002703,121.628328,7.879689e-09
467990,馬祖,2024-03-24,26.169269,119.923419,5.546975e-08
C0A970,三貂角,2024-03-24,25.007606,122.002058,2.024344e-08
C0K430,褒忠,2024-03-24,23.690938,120.303634,3.623058e-09
467480,嘉義,2024-03-24,23.495925,120.432906,2.2687445e-06
C2E540,後龍,2024-03-24,24.606489,120.783933,1.4085529e-09
C0V400,阿公店,2024-03-24,22.804194,120.355528,9.125565e-06
C0R440,大漢山,2024-03-24,22.405264,120.753181,1.12602105e-08
C0K280,四湖,2024-03-24,23.630414,120.227125,5.453358e-08
C1F9B1,桐林,2024-03-24,24.066172,120.735194,3.2805839e-10
C0K390,土庫,2024-03-24,23.679029,120.395574,1.3718261e-08
C1I450,望鄉山,2024-03-24,23.594153,120.944286,9.181837e-09
C0E910,海埔,2024-03-24,24.648767,120.772435,1.4247324e-09
B2E890,畜試北區分所,2024-03-24,24.527806,120.770972,9.772163e-10
C0R750,四林格山,2024-03-24,22.076989,120.802439,0.0013396913
C0F0C0,中坑,2024-03-24,24.248517,120.903319,1.9210415e-09
C1I121,大鞍,2024-03-24,23.678381,120.760017,4.975462e-09
72U480,花改蘭陽分場,2024-03-24,24.686306,121.716583,1.4553483e-09
C0A770,科教館,2024-03-24,25.096356,121.516507,5.7564424e-09
C0AJ60,六塊厝,2024-03-24,25.24,121.4481,7.625658e-08
C0R620,墾雷,2024-03-24,21.900836,120.855269,0.9936385
467420,永康,2024-03-24,23.038386,120.2367,9.249789e-06
467300,東吉島,2024-03-24,23.25695,119.667467,0.977467
C0I410,名間,2024-03-24,23.837053,120.701447,5.1666577e-10
A2C560,農工中心,2024-03-24,24.985917,121.239833,1.8730695e-08
C0V740,旗山,2024-03-24,22.888614,120.483597,2.9069307e-07
C0Z061,玉里,2024-03-24,23.3215,121.339656,5.121576e-09
C0S840,南田,2024-03-24,22.279725,120.889208,0.88608176
C1I470,杉林溪,2024-03-24,23.639517,120.786444,5.9343477e-09
C1X040,東原,2024-03-24,23.291597,120.463822,8.628947e-08
C0R660,枋寮,2024-03-24,22.367722,120.590647,6.6426313e-09
C1R120,上德文,2024-03-24,22.763272,120.704442,6.4331e-10
C0K450,大埤,2024-03-24,23.646074,120.431537,5.688705e-09
C0UA00,土場,2024-03-24,24.576533,121.495333,6.7690475e-09
467080,宜蘭,2024-03-24,24.763975,121.756528,1.5681806e-09
C0N030,四草,2024-03-24,23.0235,120.1116,1.5770442e-07
C0V650,彌陀,2024-03-24,22.783806,120.246361,8.401863e-05
C0D660,新竹市東區,2024-03-24,24.798681,120.986942,1.7946935e-09
82S580,茶改東部分場,2024-03-24,22.907694,121.130139,4.408654e-09
C0C710,大溪永福,2024-03-24,24.892936,121.324975,4.491116e-09
C0FA20,溫寮,2024-03-24,24.372177,120.583125,1.4892814e-09
C0V640,湖內,2024-03-24,22.887139,120.2445,5.558132e-07
C0R910,下寮,2024-03-24,22.3929,120.5548,6.6426313e-09
C0Z020,明里,2024-03-24,23.208717,121.262342,6.588374e-09
C0M770,嘉義梅山,2024-03-24,23.585398,120.555587,2.0019436e-07
G2F820,農業試驗所,2024-03-24,24.031261,120.688133,3.3495906e-10
C0C660,楊梅,2024-03-24,24.912375,121.143047,8.2983265e-09
C1E511,新開,2024-03-24,24.347703,120.827019,7.265629e-10
G2F820,農試所(霧峰),2024-03-24,24.031261,120.688133,3.3495906e-10
C1I070,和社,2024-03-24,23.591131,120.888861,3.1949112e-09
C2F000,大肚,2024-03-24,24.15295,120.572117,3.5452966e-10
C1S850,豐南,2024-03-24,23.122139,121.262389,2.7228046e-09
C2A920,富貴角,2024-03-24,25.263783,121.565258,4.682948e-08
CAH030,茶改場竹圍站,2024-03-24,23.860083,120.637528,2.4842006e-10
C0T960,光復,2024-03-24,23.660694,121.424964,8.4529417e-10
C0F9M0,豐原,2024-03-24,24.254322,120.720692,6.658598e-10
C0R720,旭海,2024-03-24,22.205403,120.887614,0.7712052
C0V710,苓雅,2024-03-24,22.622742,120.330669,4.4627217e-07
C0C740,觀音工業區,2024-03-24,25.064764,121.114856,9.573478e-08
CAC040,拉拉山,2024-03-24,24.699317,121.427133,1.5200756e-08
C0V790,萬山,2024-03-24,22.905944,120.688056,3.4521103e-10
U2HA30,臺大和社,2024-03-24,23.590856,120.888864,3.1949112e-09
C0AJ90,澳底,2024-03-24,25.0552,121.9253,8.077392e-08
C0Z100,東華,2024-03-24,23.89525,121.549833,4.3149466e-09
C0G970,三豐,2024-03-24,23.882,120.2895,2.975682e-07
V2K610,大庄合作社,2024-03-24,23.8068,120.367939,1.1279293e-09
C0V900,汕尾,2024-03-24,22.4782,120.4151,3.4872758e-06
C1R630,龍泉,2024-03-24,22.66701,120.59091,7.231098e-09
C1AC50,關渡,2024-03-24,25.133486,121.469331,1.3208358e-08
C0F9I0,神岡,2024-03-24,24.272481,120.658314,4.9422044e-10
C0K460,斗南,2024-03-24,23.678734,120.478359,5.3204383e-09
467410,臺南,2024-03-24,22.993239,120.204772,6.1945926e-08
C2O810,曾文,2024-03-24,23.219681,120.497328,8.175486e-06
467280,後龍,2024-03-24,24.648563,120.831834,1.3873661e-09
C1F9J1,清水林,2024-03-24,24.071242,120.820419,6.606226e-10
C2A650,火燒寮,2024-03-24,25.002719,121.742892,1.5815484e-08
466930,竹子湖,2024-03-24,25.162078,121.544547,7.046594e-09
C1I220,樟湖,2024-03-24,23.905333,120.846983,2.3208102e-09
C0I390,仁愛,2024-03-24,24.022122,121.132206,1.730337e-09
C0Z300,東里,2024-03-24,23.26853,121.30547,6.8982513e-09
C0V310,美濃,2024-03-24,22.898742,120.519153,3.469935e-07
C1V590,新發,2024-03-24,23.057019,120.646064,9.58244e-10
C0K510,水林,2024-03-24,23.572924,120.24597,4.0851953e-07
72S590,東改賓朗果園,2024-03-24,22.813889,121.071278,6.0499383e-09
82A750,茶改北部分場,2024-03-24,24.955778,121.631222,2.2875078e-08
C1A750,石碇服務區,2024-03-24,25.00872,121.646242,1.2460637e-08
C0X300,鹿寮,2024-03-24,23.386047,120.477331,0.0006133114
G2AI50,關渡,2024-03-24,25.11575,121.492,2.246269e-08
C0K590,雲林東勢,2024-03-24,23.674192,120.255721,2.1659009e-08
C0A570,桶後,2024-03-24,24.848222,121.597992,5.6530114e-09
C1S800,華源,2024-03-24,22.657883,121.02325,8.3079243e-07
C0G720,溪州,2024-03-24,23.851589,120.499093,2.808491e-09
C1V160,達卡努瓦,2024-03-24,23.279811,120.705319,1.7130019e-09
C2M410,馬頭山,2024-03-24,23.324361,120.582017,1.4010165e-08
C0V850,蚵仔寮,2024-03-24,22.7256,120.2527,6.4731908e-06
C0S740,池上,2024-03-24,23.119628,121.209469,1.1694349e-08
C1V390,尖山,2024-03-24,22.813153,120.367789,3.5123082e-06
C0AH70,松山,2024-03-24,25.04871,121.55042,5.713084e-09
C0N010,鯤鯓國小,2024-03-24,23.1879,120.0889,5.054228e-09
C0R550,新埤,2024-03-24,22.467947,120.582894,1.3899661e-06
C0SA60,知本（水試所）,2024-03-24,22.702394,121.082761,1.4263152e-05
C0T9I0,豐濱,2024-03-24,23.583897,121.514806,9.118253e-10
C0UB00,淡江大學蘭陽校園,2024-03-24,24.823239,121.730383,5.9649876e-09
C0T9N0,富里,2024-03-24,23.171639,121.249378,1.4366115e-08
U2HA50,臺大竹山,2024-03-24,23.756972,120.681556,8.891384e-09
C0V840,鳳鼻頭,2024-03-24,22.5083,120.3591,1.638208e-07
C0X140,西港,2024-03-24,23.125608,120.203108,4.685357e-06
72D080,桃改五峰分場,2024-03-24,24.612194,121.157167,3.963214e-09
C0V530,阿蓮,2024-03-24,22.883208,120.327508,3.3957556e-05
C1O880,關山,2024-03-24,23.173397,120.594092,1.2212234e-07
C0E791,卓蘭,2024-03-24,24.3126,120.8244,6.8584044e-10
C1I030,武界,2024-03-24,23.913225,121.052483,1.7914958e-09
C0R520,崁頂,2024-03-24,22.514781,120.506914,3.758673e-08
C0R341,牡丹,2024-03-24,22.130036,120.792639,0.9103304
C0R930,萬丹,2024-03-24,22.5885,120.4851,1.1754508e-07
C0S760,紅石,2024-03-24,23.069131,121.126219,2.257251e-08
C1M610,石磐龍,2024-03-24,23.496606,120.663506,1.9054232e-09
C0UA10,鴛鴦湖,2024-03-24,24.590269,121.412228,9.128106e-09
V2C260,八德蔬果,2024-03-24,24.978508,121.281819,9.640577e-09
C0R800,丹路,2024-03-24,22.204481,120.750989,0.8315296
C0G920,永靖,2024-03-24,23.924703,120.547533,9.3126834e-10
C1A630,下盆,2024-03-24,24.771003,121.538622,5.2223905e-09
B2N890,畜產試驗所,2024-03-24,23.058972,120.336406,8.167678e-06
C0UA30,白嶺,2024-03-24,24.527819,121.519031,1.0673425e-08
C1V580,溪南(特生中心),2024-03-24,23.084972,120.788475,2.875586e-09
C1T970,大農,2024-03-24,23.615233,121.413331,9.3067704e-10
E2S960,林試太麻里2,2024-03-24,22.598014,120.989761,1.6310963e-05
C0R650,竹田,2024-03-24,22.58486,120.54344,1.5057571e-08
C1H900,清流,2024-03-24,24.080775,120.962997,1.9017017e-09
C1C510,水尾,2024-03-24,24.940081,121.087161,3.469289e-08
C0F9X0,大雅(中科園區),2024-03-24,24.21528,120.62445,3.6191677e-10
C0O970,虎頭埤,2024-03-24,23.021375,120.347878,7.1410223e-06
C0C730,中大臨海站,2024-03-24,24.966126,121.008581,1.5742762e-07
C0X250,新營,2024-03-24,23.310689,120.316681,0.00017768447
C0V700,三民,2024-03-24,22.645017,120.311233,1.6278109e-06
C0U870,大礁溪,2024-03-24,24.791042,121.675047,4.8171795e-09
C0E870,高鐵苗栗,2024-03-24,24.60725,120.826094,1.4001341e-09
A2K570,古坑花卉中心,2024-03-24,23.63353,120.55239,2.8339076e-07
C0M860,新美,2024-03-24,23.338017,120.683169,3.705976e-10
C1E701,八卦,2024-03-24,24.491756,120.927619,2.2217375e-09
C0I420,國姓,2024-03-24,24.037803,120.855072,3.777816e-10
C0S960,香蘭,2024-03-24,22.587569,120.993375,1.6310978e-05
C0R260,春日,2024-03-24,22.370361,120.628306,3.5300824e-09
72G600,臺中農改場,2024-03-24,24.003028,120.534389,5.3039206e-10
C0Z210,瑞穗,2024-03-24,23.5239,121.39021,1.2225472e-09
C0M820,達邦,2024-03-24,23.453994,120.749517,6.295571e-10
C0V860,南寮,2024-03-24,22.7616,120.2339,6.4496276e-06
C0G740,大城,2024-03-24,23.852487,120.320935,2.6322283e-07
C0R920,塭仔,2024-03-24,22.4169,120.5197,6.970492e-09
C0R470,高樹,2024-03-24,22.826389,120.600806,6.3338987e-09
C0R680,佳樂水,2024-03-24,21.993578,120.861633,0.06150933
C1O870,大棟山,2024-03-24,23.31157,120.52226,4.815358e-10
C0D360,梅花,2024-03-24,24.678347,121.208558,2.3117446e-09
C0Z190,富世,2024-03-24,24.14743,121.6297,1.0129074e-08
C0AI10,屈尺,2024-03-24,24.92184,121.54475,9.0831245e-09
B2U990,畜試東區分所,2024-03-24,24.669039,121.832561,1.3379733e-09
C0R240,來義,2024-03-24,22.527306,120.625111,1.3195164e-08
C1R610,西大武山,2024-03-24,22.617719,120.7322,2.3569045e-08
C0G900,線西,2024-03-24,24.143358,120.443536,3.5189282e-10
C0M700,竹崎,2024-03-24,23.526178,120.555508,3.9897845e-06
C2E880,三義,2024-03-24,24.405478,120.749819,1.051442e-09
C0C720,竹圍,2024-03-24,25.112692,121.239824,2.2447356e-08
C0F9P0,清水,2024-03-24,24.312297,120.562242,8.197358e-10
C0Z150,吉安光華,2024-03-24,23.930925,121.595153,8.307163e-09
C1D640,外坪(五指山),2024-03-24,24.644447,121.090961,2.6489069e-09
C0F9O0,潭子,2024-03-24,24.213106,120.703933,5.427908e-10
72T250,花蓮農改場,2024-03-24,23.975222,121.563889,8.385773e-09
C0E780,銅鑼,2024-03-24,24.489681,120.790853,1.0003007e-09
C1T950,太安,2024-03-24,23.666719,121.370128,2.0582632e-08
C0E830,苑裡,2024-03-24,24.439714,120.653053,2.5316962e-09
467270,田中,2024-03-24,23.873803,120.581286,1.3249682e-09
C0SA10,檳榔四格山,2024-03-24,22.810031,121.109308,5.4493627e-09
C1T830,布洛灣,2024-03-24,24.17184,121.57127,9.313313e-08
C0F970,大坑,2024-03-24,24.173142,120.722289,3.7104886e-10
C1U920,思源,2024-03-24,24.393125,121.347214,1.1119986e-08
C0A931,三和,2024-03-24,25.233153,121.595236,1.4439408e-08
C0I010,廬山,2024-03-24,24.033311,121.181808,3.3605159e-09
C0R860,鼻頭,2024-03-24,22.1043,120.8979,0.41847202
C0UB20,壯圍,2024-03-24,24.7359,121.8163,1.4068345e-09
C0R790,九棚,2024-03-24,22.14195,120.889281,0.85739434
C0W110,東莒,2024-03-24,25.9652,119.98069,9.379414e-08
C1U930,粉鳥林,2024-03-24,24.497088,121.842479,1.9322828e-09
C1I211,蘆竹湳,2024-03-24,23.934019,120.811994,3.1763897e-10
C0S830,長濱,2024-03-24,23.286817,121.411975,5.033007e-09
C1F9F1,伯公龍,2024-03-24,24.272392,120.849047,1.3583462e-09
C0E810,西湖,2024-03-24,24.562947,120.7485,3.7501495e-09
C1I440,新高口,2024-03-24,23.478744,120.878939,4.832299e-09
C0O840,王爺宮,2024-03-24,23.222064,120.40085,3.795696e-06
C0T9G0,鳳林山,2024-03-24,23.735269,121.420131,7.195711e-09
C0X080,佳里,2024-03-24,23.173039,120.145086,5.054228e-09
C0Z310,清水斷崖,2024-03-24,24.218294,121.689142,4.0865564e-09
C0M680,太保,2024-03-24,23.455062,120.331455,4.3314707e-05
C1S820,金峰,2024-03-24,22.590969,120.933236,5.166811e-07
C0AD10,八里,2024-03-24,25.150211,121.403947,2.2447356e-08
C2K240,草嶺,2024-03-24,23.59555,120.693461,2.4216664e-09
C1SA70,都蘭,2024-03-24,22.87794,121.226881,7.315987e-09
C0K440,二崙,2024-03-24,23.772797,120.408944,1.8201833e-09
C1A760,坪林交控,2024-03-24,24.94284,121.713442,7.0055863e-09
C0F9N0,大里,2024-03-24,24.092464,120.701378,3.409823e-10
C0SA90,達仁林場,2024-03-24,22.264347,120.823972,3.7204534e-06
C1R290,石門山,2024-03-24,22.112611,120.756597,0.90026927
42HA10,萬大發電廠,2024-03-24,23.978875,121.139639,2.5352382e-09
C0R890,山海,2024-03-24,21.9878,120.7091,0.07715423
C0T9A0,月眉山,2024-03-24,23.809928,121.539828,5.5894755e-09
C0AC70,信義,2024-03-24,25.037822,121.564597,5.713084e-09
C0K560,棋山,2024-03-24,23.68645,120.603417,1.579359e-07
C1Z240,中平林道,2024-03-24,23.42115,121.26763,2.0184029e-08
U2H480,溪頭,2024-03-24,23.670306,120.798194,2.2479567e-09
C0M880,好美里,2024-03-24,23.3364,120.138,1.5914789e-07
C0T9E0,大坑,2024-03-24,23.880628,121.581981,4.5129953e-09
C0K530,臺西,2024-03-24,23.701547,120.197559,2.7246243e-08
C1E900,國一N128K,2024-03-24,24.560997,120.844186,9.491236e-10
C0AJ50,水湳洞,2024-03-24,25.123695,121.862238,7.655355e-09
C0AI20,白沙灣,2024-03-24,25.283128,121.519058,7.2340946e-08
C0A860,大坪,2024-03-24,25.165914,121.632969,6.3523005e-09
C1U850,觀音海岸,2024-03-24,24.38319,121.77856,2.9280878e-09
C0U950,鶯子嶺,2024-03-24,24.89754,121.79244,1.4347029e-08
C0O900,善化,2024-03-24,23.112883,120.297219,1.8926665e-05
C0K550,蔦松,2024-03-24,23.514319,120.229736,4.5079573e-06
E2P980,林試六龜中心,2024-03-24,22.991703,120.645722,8.515502e-10
C0E590,通霄,2024-03-24,24.471892,120.704622,1.9936248e-08
C1I310,西巒,2024-03-24,23.754486,120.883956,2.2668454e-09
C0A550,泰平,2024-03-24,24.971197,121.823711,1.0851521e-08
C0I360,水里,2024-03-24,23.812553,120.849792,3.3007058e-10
C0R830,高士,2024-03-24,22.121825,120.836781,0.6234018
C1I101,溪頭,2024-03-24,23.661789,120.807647,5.676999e-09
C0AJ20,野柳,2024-03-24,25.20703,121.690021,1.781897e-08
C0B060,暖暖,2024-03-24,25.0957,121.7403,7.6860065e-09
C1H920,長豐,2024-03-24,24.102039,120.879897,1.4915726e-09
C0V360,內門,2024-03-24,22.975481,120.466769,5.1625524e-05
C0R850,林邊,2024-03-24,22.4634,120.5339,2.3034243e-06
C0E930,龍鳳,2024-03-24,24.700034,120.859125,2.2361666e-09
C0U910,冬山,2024-03-24,24.63373,121.7937,1.3379733e-09
C1E721,泰安,2024-03-24,24.489017,120.968036,5.617413e-09
82H320,茶改中部分場,2024-03-24,23.875611,120.913583,1.3131061e-09
C0M750,布袋,2024-03-24,23.380878,120.167789,2.723744e-06
C1S860,利嘉,2024-03-24,22.809417,121.050528,3.6072215e-08
72C440,桃園農改,2024-03-24,24.950944,121.030583,4.8383054e-08
E2S980,林試太麻里1,2024-03-24,22.598922,120.980044,2.674899e-06
C0X170,關廟,2024-03-24,22.963017,120.327797,6.8014374e-06
C0V720,林園,2024-03-24,22.507747,120.394511,1.5080354e-07
C1I510,線浸林道,2024-03-24,23.761508,120.832956,2.282991e-09
C0D690,外湖,2024-03-24,24.917735,120.968711,6.733792e-08
C0C750,新興坑尾,2024-03-24,25.0061,121.0971,1.0123495e-07
B2Q810,畜試南區分所,2024-03-24,21.945583,120.802167,0.06269309
C0S790,金崙,2024-03-24,22.538122,120.966875,7.594956e-07
C0AH90,福山植物園,2024-03-24,24.760717,121.58135,8.275644e-09
C0I540,奇萊稜線,2024-03-24,24.109231,121.326456,1.5104918e-08
C0M850,表湖,2024-03-24,23.24186,120.64166,8.9391783e-10
C0S770,大溪山,2024-03-24,22.478475,120.943325,2.49489e-07
C0AG80,中和,2024-03-24,24.991622,121.491792,8.3651495e-09
C0T790,大禹嶺,2024-03-24,24.186117,121.316086,1.0380756e-08
C0T9B0,水源,2024-03-24,23.991861,121.537169,6.9430257e-09
C0R840,牡丹池山,2024-03-24,22.168389,120.841225,0.0048901252
C1I131,桶頭,2024-03-24,23.641944,120.654117,2.3554474e-09
CAL110,布袋國中,2024-03-24,23.35893,120.18026,2.723744e-06
467571,新竹,2024-03-24,24.827853,121.014219,7.535146e-09
C0Z290,赤柯山,2024-03-24,23.36893,121.38293,1.6716655e-08
C0X280,將軍,2024-03-24,23.214999,120.13577,1.8884156e-08
C0S690,太麻里,2024-03-24,22.60902,120.98533,4.1486647e-08
C0U880,北關,2024-03-24,24.9072,121.8734,7.519483e-09
C1H860,瑞岩,2024-03-24,24.123772,121.18345,8.788165e-09
C0G810,埔心,2024-03-24,23.947633,120.525456,9.3131985e-10
C0U970,大福,2024-03-24,24.80064,121.81389,1.5510966e-09
C1E670,南礦,2024-03-24,24.538278,121.002836,4.718865e-09
C0M520,東後寮,2024-03-24,23.369908,120.248065,2.2093773e-06
C1E461,松安,2024-03-24,24.397972,120.986022,4.6130353e-09
72G600,臺中農改,2024-03-24,24.003028,120.534389,5.3039206e-10
C2N160,西拉雅風管處,2024-03-24,23.189481,120.335297,0.00010547261
C0A640,石碇,2024-03-24,24.993969,121.662917,1.05088915e-08
E2S960,林試太麻里2,2024-03-24,22.598,120.99775,2.1820906e-05
C0F9Y0,桃山,2024-03-24,24.432739,121.303808,1.3629326e-08
C1I020,萬大,2024-03-24,23.979817,121.132261,1.7552206e-09
C0U940,羅東,2024-03-24,24.68184,121.74934,1.4347022e-09
C0M650,朴子,2024-03-24,23.43463,120.23902,2.7805268e-05
C1I500,大尖山,2024-03-24,23.858572,120.994889,6.5903345e-09
C0G820,田尾,2024-03-24,23.901669,120.509389,9.3131985e-10
E2K600,四湖植物園,2024-03-24,23.676986,120.163433,5.453358e-08
C0S730,綠島,2024-03-24,22.6672,121.47533,0.20758906
12Q970,東港工作站,2024-03-24,22.479997,120.466058,3.4872758e-06
C0E430,南庄,2024-03-24,24.601775,121.000214,1.3185824e-09
C1TA00,太魯閣,2024-03-24,24.15773,121.6236,9.718542e-09
466920,臺北,2024-03-24,25.037658,121.514853,5.713084e-09
C0R600,舊泰武,2024-03-24,22.588194,120.664944,3.3677586e-10
C1I260,北坑,2024-03-24,23.9246,121.006903,3.3002462e-10
466910,鞍部,2024-03-24,25.182586,121.529731,1.5109299e-08
C1I230,九份二山,2024-03-24,23.961944,120.845,1.5882614e-09
C2A660,瑞芳,2024-03-24,25.113169,121.801147,7.363894e-09
C0R270,琉球嶼,2024-03-24,22.332244,120.362236,4.5294146e-09
C1T990,高寮,2024-03-24,23.394239,121.356808,2.9512333e-09
C0G620,芬園,2024-03-24,24.015678,120.6213,3.2080139e-10
C1Z140,荖溪,2024-03-24,23.890575,121.45964,2.6334476e-08
C1I201,中心崙,2024-03-24,23.728722,120.712097,3.2480088e-10
C1I400,凌霄,2024-03-24,24.018778,121.004456,2.6996478e-09
C1M640,十字,2024-03-24,23.492153,120.753683,4.477414e-09
G2P820,農試鳳山分所,2024-03-24,22.646611,120.356083,7.950728e-07
C0Z270,蕃薯寮,2024-03-24,23.73835,121.540108,6.4408137e-09
C0F9Q0,外埔,2024-03-24,24.347817,120.705686,7.966244e-10
C0K580,高鐵雲林,2024-03-24,23.737456,120.417944,1.9820976e-09
C2I090,鳳凰,2024-03-24,23.728081,120.787347,6.681256e-10
C0U990,員山,2024-03-24,24.74435,121.72247,1.4255154e-09
C0V770,大社,2024-03-24,22.730306,120.346639,4.189784e-06
C0X120,麻豆,2024-03-24,23.183289,120.248611,2.5183093e-05
C0C670,龍潭,2024-03-24,24.870056,121.221389,2.8767106e-09
C0D680,香山濕地,2024-03-24,24.783581,120.914988,1.8699844e-09
C0S980,勝林山,2024-03-24,22.430439,120.8938,1.9970539e-08
C0V730,大寮,2024-03-24,22.605614,120.395717,4.5757724e-07
C0R570,麟洛,2024-03-24,22.65078,120.52719,3.7419202e-08
CAG100,王功漁港,2024-03-24,23.96824,120.32586,3.0678072e-07
C0X290,北門,2024-03-24,23.267772,120.125481,1.8884156e-08
C2F930,大甲,2024-03-24,24.347667,120.640403,1.315633e-09
C0D650,湖口,2024-03-24,24.904794,121.043628,3.6090107e-08
C0E420,竹南,2024-03-24,24.708978,120.888897,2.1070083e-09
C0U780,五結,2024-03-24,24.68637,121.79794,1.405759e-09
C1I250,鯉潭,2024-03-24,23.961922,120.991131,1.4630327e-09
C0R130,阿禮,2024-03-24,22.742908,120.743678,8.379757e-10
C0X100,臺南市北區,2024-03-24,23.010394,120.194228,1.1219097e-07
C0S920,金峰嘉蘭,2024-03-24,22.594789,120.960825,2.2614906e-06
C0V490,新興,2024-03-24,22.627422,120.298803,4.432564e-07
C0F9K0,大安,2024-03-24,24.345061,120.588025,1.4524477e-09
72N100,臺南農改,2024-03-24,23.0605,120.342194,8.181562e-06
467290,古坑,2024-03-24,23.633639,120.551889,2.8339076e-07
C0V440,鳳山,2024-03-24,22.646653,120.356122,7.950728e-07
C1T940,大觀,2024-03-24,23.714206,121.373133,6.7608155e-09
72T250,花蓮農改,2024-03-24,23.975222,121.563889,8.385773e-09
C0E740,造橋,2024-03-24,24.637056,120.864778,1.4001341e-09
C0R100,尾寮山,2024-03-24,22.833111,120.683889,8.297609e-10
A2K630,臺大雲林校區,2024-03-24,23.730628,120.423903,1.983845e-09
C0D580,寶山,2024-03-24,24.735006,121.025192,1.3429128e-09
E2P990,林試扇平站,2024-03-24,22.9677,120.6857,3.3866707e-10
C0AI30,三重,2024-03-24,25.057328,121.500629,5.7564424e-09
C0AH00,汐止,2024-03-24,25.066881,121.658778,5.713084e-09
C1Z040,立山,2024-03-24,23.443356,121.327375,1.576624e-08
C0R740,獅子,2024-03-24,22.201569,120.70525,0.7499276
C0W130,花嶼,2024-03-24,23.40007,119.32276,0.98486686
C0A950,鼻頭角,2024-03-24,25.129036,121.923372,2.8963157e-07
C0K470,林內,2024-03-24,23.748675,120.609642,6.55561e-08
82C160,茶改場,2024-03-24,24.908472,121.185333,7.547776e-09
C0Z320,清水林道,2024-03-24,23.27125,121.188272,1.9375022e-08
C0R760,南仁湖,2024-03-24,22.084681,120.863353,0.9001804
C0M670,大林,2024-03-24,23.600616,120.45841,7.285008e-08
C0M800,茶山,2024-03-24,23.299075,120.664767,4.9764937e-10
C0A9C0,天母,2024-03-24,25.117494,121.537169,1.499878e-08
72K220,南改斗南分場,2024-03-24,23.634556,120.477333,5.3204383e-09
72AI40,桃改樹林分場,2024-03-24,24.944503,121.386972,6.814998e-09
C0S910,蘭嶼燈塔,2024-03-24,22.081197,121.503117,0.9459119
C0B050,八斗子,2024-03-24,25.144754,121.79167,7.725159e-09
C0U900,內城,2024-03-24,24.71813,121.68766,1.4851286e-09
C0X320,柳營,2024-03-24,23.253328,120.375253,0.00051259715
C0M790,新港,2024-03-24,23.553269,120.345728,3.8351135e-07
C0F9T0,西屯,2024-03-24,24.179494,120.641275,2.8948124e-10
C0SA30,都歷,2024-03-24,23.020333,121.323642,2.4423177e-09
C0C620,蘆竹,2024-03-24,25.084275,121.265767,2.3340267e-08
C0R730,大坪頂,2024-03-24,22.024633,120.69355,0.10771915
C0AJ40,石門,2024-03-24,25.273672,121.601198,5.098897e-08
C0E750,苗栗,2024-03-24,24.564569,120.824575,9.490801e-10
C0T870,鯉魚潭,2024-03-24,23.935639,121.508944,6.779423e-09
C1V170,排雲,2024-03-24,23.463619,120.954147,1.3514495e-08
C2H950,中寮,2024-03-24,23.884447,120.766406,5.1726823e-10
C0R350,貓鼻頭,2024-03-24,21.921774,120.7358,0.93738306
C0V660,岡山,2024-03-24,22.797078,120.294958,8.451668e-05
C1H941,雙冬,2024-03-24,23.967378,120.802189,3.356933e-10
C0AJ70,田寮,2024-03-24,25.2698,121.4886,7.483772e-08
C0AI00,五股,2024-03-24,25.07445,121.42728,1.0576436e-08
C0Z280,德武,2024-03-24,23.47426,121.41071,1.7944026e-09
C0R700,枋山,2024-03-24,22.246844,120.661086,0.003302989
C0C460,復興,2024-03-24,24.820208,121.352281,4.3113517e-09
E2H360,蓮華池,2024-03-24,23.918333,120.885278,3.6458073e-10
C0M640,中埔,2024-03-24,23.42538,120.5229,1.1179819e-05
C0W140,金沙,2024-03-24,24.488292,118.408778,9.67257e-07
C2A540,四堵,2024-03-24,24.8926,121.745736,7.1042052e-09
C0ACA0,新莊,2024-03-24,25.051478,121.446756,6.551382e-09
C0R220,潮州,2024-03-24,22.534361,120.54,3.52282e-08
U2HA40,臺大內茅埔,2024-03-24,23.689722,120.851117,1.2204736e-09
467490,臺中,2024-03-24,24.145736,120.684075,3.9582865e-10
C0U960,翠峰湖,2024-03-24,24.510856,121.608044,1.5418326e-08
E2HA20,林試畢祿溪站,2024-03-24,24.226944,121.308522,1.2208002e-08
C0V890,前鎮,2024-03-24,22.5718,120.3117,5.0703704e-07
467620,蘭嶼,2024-03-24,22.036969,121.558339,0.9988979
C1F941,雪嶺,2024-03-24,24.280586,121.026642,1.8103789e-08
C0AC80,文山,2024-03-24,25.00235,121.575728,7.879689e-09
C0F9R0,龍井,2024-03-24,24.184536,120.528972,5.1512283e-10
C0M760,民雄,2024-03-24,23.551754,120.428457,1.1312321e-07
C0UA40,西德山,2024-03-24,24.560647,121.752608,9.579594e-09
C1T920,中興,2024-03-24,23.769503,121.498653,4.86462e-09
C0D550,雪霸,2024-03-24,24.526972,121.11605,5.886033e-09
C2F860,梨山,2024-03-24,24.247522,121.243669,1.253458e-08
C0R320,車城,2024-03-24,22.0744,120.716247,0.04237535
C1S870,南美山,2024-03-24,23.15025,121.382333,1.475642e-08
C0B020,基隆嶼,2024-03-24,25.19141,121.78391,7.109332e-08
C1U501,牛鬥,2024-03-24,24.637836,121.573656,3.695764e-09
C0M730,嘉義市東區,2024-03-24,23.457673,120.460531,0.0016508586
C0S700,知本,2024-03-24,22.684866,121.005642,4.1642824e-08
C1N001,沙崙,2024-03-24,22.935472,120.309406,1.163334e-05
C0V760,橋頭,2024-03-24,22.757806,120.30575,5.383996e-06
C0G960,福寶,2024-03-24,24.0443,120.3814,2.9121794e-10
C0X210,白河,2024-03-24,23.347466,120.414427,0.0028221793
C0S810,東河,2024-03-24,22.972672,121.303986,6.961288e-08
C0R670,楓港,2024-03-24,22.190131,120.692156,0.10500319
C0FA50,霧峰,2024-03-24,24.0419,120.6995,3.332099e-10
C0UB10,蘇澳,2024-03-24,24.5969,121.8571,3.202391e-09
C0G950,防潮門,2024-03-24,24.1835,120.4871,5.1512283e-10
C0M740,六腳,2024-03-24,23.492871,120.290625,6.322221e-05
C1R250,力里,2024-03-24,22.428117,120.629228,4.2652026e-10
C0K330,虎尾,2024-03-24,23.719183,120.442036,1.9517998e-09
C2FA00,烏石坑,2024-03-24,24.273503,120.947617,2.9770306e-09
C0V620,永安,2024-03-24,22.82315,120.236856,8.401863e-05
C1I330,楓樹林,2024-03-24,23.986803,121.076117,2.1041489e-09
C0W200,湖西,2024-03-24,23.596314,119.67275,0.9336959
72Q010,高雄農改場,2024-03-24,22.709333,120.525889,2.135916e-08
C0SA40,瑞和,2024-03-24,22.974361,121.156697,2.346582e-09
C0C680,龜山,2024-03-24,25.02846,121.38656,1.0637655e-08
C2V260,月眉,2024-03-24,22.971003,120.539853,7.864482e-08
C0V450,鳳森,2024-03-24,22.545064,120.392592,5.7505087e-08
C0U720,南山,2024-03-24,24.43742,121.38167,5.763166e-09
A2N290,臺南蘭花園區,2024-03-24,23.340258,120.379661,8.6870634e-05
C0R560,新園,2024-03-24,22.5434,120.461558,1.5080369e-07
C0U890,三星,2024-03-24,24.66812,121.65302,3.4798242e-09
C1V300,御油山,2024-03-24,23.001983,120.715364,2.5796605e-09
C0U600,礁溪,2024-03-24,24.817539,121.765608,5.7498584e-09
C1T980,龍澗,2024-03-24,24.023289,121.411328,3.6320962e-08
C0D670,海天一線,2024-03-24,24.831986,120.914438,0.00016496994
C0SA00,歷坵,2024-03-24,22.520969,120.89185,8.254728e-08
C0M710,東石,2024-03-24,23.458927,120.15385,2.5755352e-07
C0M780,鹿草,2024-03-24,23.41134,120.30835,2.2926153e-05
C0U520,雙連埤,2024-03-24,24.753033,121.641303,4.8665596e-09
C0B010,七堵,2024-03-24,25.094819,121.71713,8.307939e-09
C0R480,長治,2024-03-24,22.693128,120.542622,6.703741e-08
C1V830,國三S383K,2024-03-24,22.781967,120.426475,1.6946926e-07
12Q980,恆春工作站,2024-03-24,22.079678,120.714425,0.042375363
C1O940,東山服務區,2024-03-24,23.286016,120.398472,0.0024438936
C1U840,東澳嶺,2024-03-24,24.5378,121.8485,6.137749e-09
C1D630,飛鳳山,2024-03-24,24.766464,121.119178,2.1869089e-09
C0S940,石寧山,2024-03-24,23.223772,121.406639,7.2086377e-09
C0K410,北港,2024-03-24,23.573957,120.292802,3.038556e-07
C2M620,瑞里,2024-03-24,23.545133,120.675197,2.2769202e-09
C2O950,安南,2024-03-24,23.076694,120.144861,2.4546654e-09
C0F0E0,南湖圈谷,2024-03-24,24.363714,121.444667,3.066704e-08
467610,成功,2024-03-24,23.097486,121.373428,6.926006e-08
C0G890,伸港,2024-03-24,24.148933,120.484403,3.5189282e-10
C2E540,龍溪,2024-03-24,24.606489,120.783933,1.4085529e-09
C1V200,梅山,2024-03-24,23.268447,120.823556,1.1089122e-09
C0T9H0,加路蘭山,2024-03-24,23.682947,121.5274,8.768892e-09
C2O930,玉井,2024-03-24,23.126042,120.46055,3.0231406e-05
C1F911,新伯公,2024-03-24,24.221361,120.841069,9.838406e-10
C0R490,九如,2024-03-24,22.7405,120.490503,2.3202182e-08
C0X200,左鎮,2024-03-24,23.056758,120.408522,9.951424e-06
C1F891,稍來,2024-03-24,24.265689,121.001142,1.2293523e-08
72N240,七股研究中心,2024-03-24,23.081672,120.062894,2.9623377e-09
C0C700,中壢,2024-03-24,24.977661,121.256375,9.489865e-09
C0M690,水上,2024-03-24,23.419734,120.388909,3.210138e-05
C0V690,鼓山,2024-03-24,22.623325,120.275575,4.4085382e-07
C0O860,大內,2024-03-24,23.11885,120.36083,1.1419872e-05
C0Z200,萬榮,2024-03-24,23.709219,121.420106,6.5016263e-09
C0T9D0,和中,2024-03-24,24.26676,121.74103,2.9423528e-09
C1O921,楠西,2024-03-24,23.183511,120.484083,0.00037360043
C0AJ30,淡水觀海,2024-03-24,25.184591,121.408616,5.0574805e-08
C0V810,左營,2024-03-24,22.67491,120.28491,1.6278109e-06
C0UA70,桃源谷,2024-03-24,24.962606,121.888875,1.1132358e-08
C0X130,官田,2024-03-24,23.193217,120.315422,0.00015763546
C1H000,翠峰,2024-03-24,24.109397,121.205211,5.977048e-09
C0UA90,石城,2024-03-24,24.980444,121.951214,2.2865175e-08
C1E681,南勢山,2024-03-24,24.421669,120.923831,2.3422e-09
C0A9F0,內湖,2024-03-24,25.079422,121.57545,5.713084e-09
C0K291,宜梧,2024-03-24,23.536281,120.169329,4.498535e-06
C1K540,口湖,2024-03-24,23.585344,120.180517,4.7260457e-08
C0R780,滿州,2024-03-24,22.024403,120.839892,0.16938542
C0V870,文安,2024-03-24,22.8025,120.2164,0.000121262325
C0U650,玉蘭,2024-03-24,24.675286,121.587061,4.800761e-09
C0R640,東港,2024-03-24,22.46247,120.44074,3.4872758e-06
K2E360,苗栗農改,2024-03-24,24.495722,120.829111,9.836192e-10
C0AJ80,板橋,2024-03-24,25.0107,121.4489,8.648469e-09
C0S660,下馬,2024-03-24,23.150427,121.070312,1.8769319e-08
C1H9B1,阿眉,2024-03-24,24.1263,120.994672,1.0278776e-08
C0UA20,多加屯,2024-03-24,24.368614,121.373189,6.8296107e-09
C0E730,頭份,2024-03-24,24.688247,120.912206,2.1254707e-09
72V140,高改旗南分場,2024-03-24,22.857861,120.516667,3.469935e-07
C0K480,莿桐,2024-03-24,23.761192,120.502372,4.3853476e-09
C0U980,坪林石牌,2024-03-24,24.86478,121.77396,6.917844e-09
C0T900,西林,2024-03-24,23.8119,121.441458,4.7907815e-09
C1I150,青雲,2024-03-24,23.793361,120.949378,2.4645488e-10
467350,澎湖,2024-03-24,23.565503,119.563094,0.9717822
C0G800,埔鹽,2024-03-24,24.000394,120.431683,3.5008194e-10
C0H960,草屯,2024-03-24,23.973672,120.68085,3.2204162e-10
C1V780,多納林道,2024-03-24,22.888028,120.737917,9.860461e-10
C0E920,通霄漁港,2024-03-24,24.498589,120.673876,2.5757972e-08
C0Z330,安通山,2024-03-24,23.290728,121.348528,5.2383125e-09
C0AH10,永和,2024-03-24,25.01125,121.508111,8.648469e-09
C2G640,鹿港,2024-03-24,24.0753,120.430481,2.9121794e-10
C1E890,國三N149K,2024-03-24,24.463414,120.680019,2.2568367e-09
C1R110,口社,2024-03-24,22.770111,120.645222,1.4220013e-09
C1M870,國三N285K,2024-03-24,23.550319,120.505833,1.143547e-06
467050,新屋,2024-03-24,25.006744,121.047486,1.3424953e-07
C1E480,鳳美,2024-03-24,24.554803,121.034747,2.136518e-09
C0M530,奮起湖,2024-03-24,23.493903,120.699253,2.6501803e-09
C0C590,觀音,2024-03-24,25.027072,121.153317,6.5509475e-08
C0T9M0,靜浦,2024-03-24,23.455167,121.495028,1.7306374e-09
C0AI40,石牌,2024-03-24,25.115597,121.513139,1.5233466e-08
C1F871,上谷關,2024-03-24,24.203483,121.018644,1.973331e-09
C0G880,二水,2024-03-24,23.810742,120.6173,7.830143e-09
C0R940,加祿堂,2024-03-24,22.3363,120.6217,0.000757989
C0W220,北竿,2024-03-24,26.220358,119.974881,7.5938715e-08
C0O960,崎頂,2024-03-24,22.959547,120.369317,1.35242e-06
C0S750,向陽,2024-03-24,23.248397,120.986133,4.182836e-09
C0T9F0,水璉,2024-03-24,23.797131,121.542514,4.8969793e-09
C1M600,頭凍,2024-03-24,23.406364,120.603339,1.6238588e-09
467660,臺東,2024-03-24,22.752211,121.154586,1.2534708e-06
C1D380,新埔,2024-03-24,24.84745,121.03834,6.084423e-09
C0V750,路竹,2024-03-24,22.854997,120.259439,4.2860145e-07
C0N050,蚵寮,2024-03-24,23.301,120.1104,1.5914789e-07
72M700,南改鹿草分場,2024-03-24,23.416869,120.283061,2.7805268e-05
C1SA50,利嘉林道,2024-03-24,22.82325,121.009389,2.2356218e-08
467550,玉山,2024-03-24,23.487614,120.959522,1.750264e-08
C0A940,金山,2024-03-24,25.223628,121.643967,1.8045803e-08
C1V340,大津,2024-03-24,22.888322,120.645986,2.069513e-09
C0W180,七美,2024-03-24,23.219333,119.444892,0.996016
C1F9C1,白冷,2024-03-24,24.182844,120.929889,9.95603e-10
K2E710,苗改生物防治研究中心,2024-03-24,24.422861,120.871833,8.049332e-10
C0N040,蘆竹溝,2024-03-24,23.2344,120.0961,1.8884156e-08
C2W230,畜試所澎湖,2024-03-24,23.628342,119.513206,0.9848561
C0R880,後壁湖,2024-03-24,21.9457,120.7457,0.08279126
C1I280,埔中,2024-03-24,23.820778,120.642594,3.0630357e-10
467790,墾丁雷達站,2024-03-24,21.948235,120.808028,0.059490945
C0W190,望安,2024-03-24,23.380564,119.494075,0.9928062
466881,新北,2024-03-24,24.9593,121.52,8.350372e-09
C0Z170,卓溪,2024-03-24,23.3443,121.3029,2.9818723e-09
C0F850,東勢,2024-03-24,24.246428,120.833047,5.3048915e-10
466900,淡水,2024-03-24,25.164889,121.448906,2.1805954e-08
C0I370,魚池,2024-03-24,23.895703,120.94135,3.0142996e-10
C0C630,大溪,2024-03-24,24.882853,121.265547,2.9854235e-09
C0A520,山佳,2024-03-24,24.974944,121.402008,5.854548e-09
C0I110,竹山,2024-03-24,23.761225,120.688156,2.8010656e-09
82H840,茶改南部分場,2024-03-24,23.762528,120.7405,3.0677305e-10
C0G660,溪湖,2024-03-24,23.94835,120.479122,9.825598e-10
C1T800,洛韶,2024-03-24,24.204558,121.453956,2.627823e-08
C1T810,慈恩,2024-03-24,24.192044,121.388386,3.8842023e-09
C1E451,象鼻,2024-03-24,24.368617,120.940228,2.4980618e-09
C0AC60,三峽,2024-03-24,24.939025,121.369728,6.581491e-09
C0I490,萬大林道,2024-03-24,23.928228,121.091411,3.941864e-09
C1I290,豐丘,2024-03-24,23.668178,120.887417,2.3904057e-09
C1I320,奧萬大,2024-03-24,23.952956,121.178556,2.302688e-09
C0U770,南澳,2024-03-24,24.44935,121.81022,2.3958235e-09
C0A980,社子,2024-03-24,25.109508,121.469681,2.2383354e-08
C0V800,六龜,2024-03-24,22.997889,120.633583,9.95717e-10
C1G9D0,國一S218K,2024-03-24,23.890641,120.493253,2.9205078e-09
C2F9A0,中竹林,2024-03-24,24.103556,120.751061,4.958993e-10
C0FA40,臺中電廠,2024-03-24,24.2146,120.4907,5.1512283e-10
C0H9C0,合歡山,2024-03-24,24.143442,121.272547,1.9107157e-08
C0X060,下營,2024-03-24,23.22695,120.256261,0.00036227237
G2M350,農試溪口農場,2024-03-24,23.58565,120.408111,1.4676121e-07
C0U860,頭城,2024-03-24,24.85323,121.8308,5.8329914e-09
C0R580,南州,2024-03-24,22.48591,120.50274,3.4872758e-06
C0D430,峨眉,2024-03-24,24.6905,121.017189,1.220611e-09
C0G780,秀水,2024-03-24,24.03405,120.503869,5.3039206e-10
72N100,臺南農改場,2024-03-24,23.0605,120.342194,8.181562e-06
C0S900,蘭嶼高中,2024-03-24,22.04909,121.51214,0.90972126
467540,大武,2024-03-24,22.355675,120.903789,0.08709563
C1F9W0,德基,2024-03-24,24.254783,121.190261,1.0119033e-08
C1Z120,壽豐,2024-03-24,23.870853,121.508081,4.3149466e-09
C0W160,烏坵,2024-03-24,24.9944,119.44956,8.4105195e-06
C1I240,外大坪,2024-03-24,23.958697,120.917931,1.4557814e-09
C1I550,國六W023K,2024-03-24,23.979067,120.867742,3.3326458e-10
C0R870,興海,2024-03-24,21.9752,120.8439,0.06269309
C0R140,瑪家,2024-03-24,22.682903,120.686639,4.3431503e-10
C0A530,坪林,2024-03-24,24.938183,121.70975,7.1110646e-09
C0X260,後壁,2024-03-24,23.366358,120.362326,8.6870634e-05
C0Z230,和平,2024-03-24,24.30717,121.77007,2.9559033e-09
C0G770,福興,2024-03-24,24.041289,120.437669,3.5008194e-10
C0H9A0,神木村,2024-03-24,23.532742,120.843667,4.607917e-09
C0I460,南投,2024-03-24,23.911469,120.687331,3.9299258e-10
C0I480,梅峰,2024-03-24,24.085272,121.173572,4.983487e-09
C1V570,吉東,2024-03-24,22.85422,120.5454,2.3022987e-07
C2A560,福山,2024-03-24,24.776203,121.502811,7.1287323e-09
C0AH30,五分山,2024-03-24,25.07125,121.780794,1.0526445e-08
C0FA10,松柏,2024-03-24,24.429115,120.617482,2.6231746e-09
72S200,東改班鳩分場,2024-03-24,22.829528,121.077694,7.115474e-09
72HA00,中改埔里分場,2024-03-24,23.903208,120.963364,3.479836e-10
C0C650,平鎮,2024-03-24,24.897503,121.214636,5.3105738e-09
C0S930,延平,2024-03-24,22.902581,121.084058,3.4381615e-09
C0UA60,樟樹山,2024-03-24,24.41393,121.78325,6.636818e-09
C1S670,摩天,2024-03-24,23.199503,121.027,2.0997598e-08
C0V630,茄萣,2024-03-24,22.906642,120.182608,7.7254265e-07
466940,基隆,2024-03-24,25.133314,121.740475,7.743673e-09
C0X050,東河,2024-03-24,23.296598,120.385608,0.0046989145
C0R770,保力,2024-03-24,22.071122,120.764111,0.05898338
G2L020,農試嘉義分所,2024-03-24,23.485028,120.473806,9.031466e-05
C0X240,關子嶺,2024-03-24,23.331169,120.508025,2.7887832e-09
C0I380,集集,2024-03-24,23.828206,120.801467,3.315483e-10
466990,花蓮,2024-03-24,23.975128,121.613275,8.714986e-09
C1V220,小關山,2024-03-24,23.154217,120.813603,3.3104106e-09
C1F9G1,慶福山,2024-03-24,24.180853,120.848378,9.621486e-10
C0Z250,瑞穗林道,2024-03-24,23.49284,121.30688,1.8003309e-08
C0D590,新豐,2024-03-24,24.87068,120.97721,1.8960272e-06
C0A870,五指山,2024-03-24,25.132153,121.608692,7.3623214e-09
C0UA50,西帽山,2024-03-24,24.555361,121.802628,7.1137642e-09
C0X160,仁德,2024-03-24,22.968258,120.257689,1.1275306e-05
C1H971,六分寮,2024-03-24,23.92507,120.6378,3.9685374e-10
C0W120,西嶼,2024-03-24,23.5626,119.468436,0.9793022
C0G650,員林,2024-03-24,23.946503,120.585597,3.836876e-10
C0AD50,鶯歌,2024-03-24,24.951533,121.346294,6.265996e-09
C0S990,山豬窟,2024-03-24,22.318619,120.857372,1.291621e-06
72Q010,高雄農改,2024-03-24,22.709333,120.525889,2.135916e-08
C0X190,安平,2024-03-24,22.993161,120.152181,1.1219097e-07
C0K400,斗六,2024-03-24,23.720583,120.541127,5.244981e-09
12J990,口湖工作站,2024-03-24,23.589978,120.180394,4.7260457e-08
C0O830,北寮,2024-03-24,23.079561,120.495008,2.6944824e-06
C1D410,白蘭,2024-03-24,24.579364,121.079947,5.142278e-09
C0S970,加津林,2024-03-24,22.416211,120.926942,0.06644854
C0D700,關西,2024-03-24,24.7977,121.1732,1.5316375e-09
C0M810,里佳,2024-03-24,23.389125,120.716647,2.7750882e-09
C0U750,龜山島,2024-03-24,24.841667,121.953133,6.169124e-08
C0R810,內獅,2024-03-24,22.305064,120.642986,0.0017434575
C1M390,龍美,2024-03-24,23.406728,120.654417,2.0091107e-09
C1H840,國三N238K,2024-03-24,23.841008,120.707711,2.4761776e-10
CAQ030,崎峰國小,2024-03-24,22.42565,120.49521,3.4872758e-06
C2E520,大湖,2024-03-24,24.414939,120.870872,8.289526e-10
467530,阿里山,2024-03-24,23.508208,120.813242,9.384977e-09
C1E691,南湖,2024-03-24,24.40135,120.837533,1.92235e-09
C0FA30,梧棲,2024-03-24,24.256003,120.523381,8.2002666e-10
C1V231,高中,2024-03-24,23.134911,120.716711,6.501425e-10
C0F9V0,新社,2024-03-24,24.200172,120.815806,9.705108e-10
C0H890,埔里,2024-03-24,23.972169,120.952425,3.513496e-10
C0R690,墾丁,2024-03-24,21.966756,120.810269,0.11236028
C0F0D0,審馬陣,2024-03-24,24.381675,121.4203,1.0559383e-08
C0R820,白鷺,2024-03-24,22.454275,120.666219,9.450951e-10
U2H480,臺大溪頭,2024-03-24,23.670306,120.798194,2.2479567e-09
C1V190,南天池,2024-03-24,23.27403,120.91176,4.4318305e-09
K2E360,苗栗農改場,2024-03-24,24.495722,120.829111,9.836192e-10
CAJ050,海口故事園區,2024-03-24,23.57543,120.14121,4.7260457e-08
C0O990,媽廟,2024-03-24,22.99175,120.293525,5.6679683e-06
C0D480,打鐵坑,2024-03-24,24.849664,121.150789,2.8824667e-09
C0Z220,和平林道,2024-03-24,24.343922,121.656317,2.5311844e-09
72C440,桃園農改場,2024-03-24,24.950944,121.030583,4.8383054e-08
C1E711,馬拉邦山,2024-03-24,24.367306,120.901656,2.5734683e-09
C0D560,竹東,2024-03-24,24.767147,121.057881,1.5433029e-09
C0F9U0,南屯,2024-03-24,24.137006,120.637969,3.0444902e-10
C0M720,番路,2024-03-24,23.464657,120.554156,1.4473623e-06
C0F0A0,雪山圈谷,2024-03-24,24.388594,121.236339,1.6295127e-08
C1A9N0,四十份,2024-03-24,24.934158,121.593283,1.4086396e-08
C0U760,東澳,2024-03-24,24.52196,121.83318,1.9728268e-09
C0X230,鹽水,2024-03-24,23.272621,120.247641,1.2358191e-07
C0V370,古亭坑,2024-03-24,22.893178,120.401947,1.7683371e-05
C1I340,新興橋,2024-03-24,23.563333,120.868728,1.909997e-09
C0SA80,土坂,2024-03-24,22.453108,120.887572,2.2328757e-05
C0R160,鹽埔,2024-03-24,22.739558,120.530778,2.138158e-08
C0AC40,大屯山,2024-03-24,25.175675,121.522408,1.711814e-08
466850,五分山雷達站,2024-03-24,25.071182,121.781205,1.0572886e-08
C1AI50,國三N016K,2024-03-24,25.034164,121.619664,5.4966613e-09
C1V600,藤枝,2024-03-24,23.071961,120.757042,2.436906e-09
C1E601,南勢,2024-03-24,24.572486,120.734842,3.2755896e-09
C0Z180,新城,2024-03-24,24.03946,121.60454,8.674173e-09
C0O980,新市,2024-03-24,23.061614,120.298197,1.8986124e-05
C0K420,西螺,2024-03-24,23.800407,120.467394,1.6826432e-09
C0Z050,佳心,2024-03-24,23.34567,121.21316,1.6429324e-08
C0AD30,蘆洲,2024-03-24,25.086594,121.472331,5.7564424e-09
C0V610,梓官,2024-03-24,22.760558,120.267211,5.383996e-06
K2F750,種苗改良場,2024-03-24,24.225972,120.800917,9.731095e-10
C0UA80,大溪漁港,2024-03-24,24.941801,121.902955,7.44939e-09
C1AI60,國一39K邊坡,2024-03-24,25.064361,121.383836,1.0541393e-08
C0W150,金寧,2024-03-24,24.457703,118.328989,6.9142186e-07
V2C250,八德合作社,2024-03-24,24.93775,121.266389,5.5230918e-09
C0AH40,平等,2024-03-24,25.129142,121.577086,6.5077925e-09
C0R540,佳冬,2024-03-24,22.419456,120.552375,6.653016e-09
466950,彭佳嶼,2024-03-24,25.627975,122.079744,1.7858933e-06
C0A890,雙溪,2024-03-24,25.036003,121.864242,7.012956e-08
C0C480,桃園,2024-03-24,24.992425,121.323172,9.792842e-09
C0AH50,林口,2024-03-24,25.072181,121.38084,1.0554269e-08
A2K360,水試臺西試驗場,2024-03-24,23.717231,120.190522,3.0097183e-08
B2N890,畜試所,2024-03-24,23.058972,120.336406,8.167678e-06
C0F9S0,烏日,2024-03-24,24.107058,120.624103,3.6307002e-10
C0C490,八德,2024-03-24,24.928708,121.283289,5.5241665e-09
C0R190,赤山,2024-03-24,22.592333,120.614306,1.2186691e-08
C0T820,天祥,2024-03-24,24.179597,121.495639,5.276631e-08
C1F9E1,龍安,2024-03-24,24.1605,120.831961,6.4041833e-10
C0V820,小林,2024-03-24,23.148408,120.63325,8.412318e-09
C2G870,芳苑,2024-03-24,23.922303,120.320025,2.670558e-07
C0E850,大河,2024-03-24,24.618069,120.948578,1.4387388e-09
C1U670,寒溪,2024-03-24,24.634,121.71691,1.4944859e-09
C0N020,城西,2024-03-24,23.0568,120.0956,1.1219097e-07
C1Z110,三棧,2024-03-24,24.11557,121.60501,3.7860506e-08
C0R280,檳榔,2024-03-24,22.076078,120.836777,0.9152295
C0F9L0,后里,2024-03-24,24.310436,120.729725,6.6795486e-10
C0D540,橫山,2024-03-24,24.71116,121.11693,1.3284122e-09
C1D420,太閣南,2024-03-24,24.632808,121.160575,5.320063e-09
C1E770,公館,2024-03-24,24.526914,120.830806,9.772163e-10
CAN130,水試所海水繁養殖中心,2024-03-24,23.120802,120.07968,2.9804281e-09
C1I430,翠華,2024-03-24,24.191961,121.224339,6.9739365e-09
C1M400,菜瓜坪,2024-03-24,23.251928,120.576103,6.304619e-10
C0G730,二林,2024-03-24,23.903325,120.376081,4.6009943e-10
72M360,南改義竹分場,2024-03-24,23.360694,120.279361,2.227668e-06
V2K620,麥寮合作社,2024-03-24,23.753836,120.294783,3.6128311e-09
C0Z070,舞鶴,2024-03-24,23.46811,121.37407,1.8467817e-09
C0B040,大武崙,2024-03-24,25.166676,121.706993,7.573575e-09
C1Z030,紅葉,2024-03-24,23.493119,121.338806,1.2855291e-09
C1I050,丹大,2024-03-24,23.753747,121.141147,4.368517e-09
C0I080,信義,2024-03-24,23.689694,120.851036,1.2204736e-09
C2A880,福隆,2024-03-24,25.017842,121.942083,2.3147502e-08
C0Z160,鳳林,2024-03-24,23.746114,121.453411,6.6616885e-09
C0V210,復興,2024-03-24,23.222403,120.806089,1.0748376e-09
C0H990,昆陽,2024-03-24,24.121322,121.273642,1.274373e-08
C0S710,鹿野,2024-03-24,22.917711,121.122994,1.9814475e-09
C0I530,小奇萊,2024-03-24,24.131764,121.295717,1.3484421e-08
C0Z080,富源,2024-03-24,23.587642,121.378225,1.1207009e-08
467441,高雄,2024-03-24,22.7304,120.3125,4.189788e-06
C1I140,卡奈托灣,2024-03-24,23.754364,121.087872,1.6444174e-09
C0I520,玉山風口,2024-03-24,23.470489,120.955994,1.8814408e-08
C1G691,下水埔,2024-03-24,23.816114,120.5676,3.5506107e-09
C0X110,臺南市南區,2024-03-24,22.961189,120.188378,1.0536463e-05
C0V680,仁武,2024-03-24,22.701083,120.347722,1.6278109e-06
C2G840,北斗,2024-03-24,23.877586,120.514222,2.808491e-09
C0R900,竹坑,2024-03-24,22.1385,120.7022,0.04232175
C0K250,崙背,2024-03-24,23.75555,120.318925,3.623058e-09
C0G860,社頭,2024-03-24,23.897647,120.5862,1.4222888e-09
C0X150,安定,2024-03-24,23.102614,120.227839,4.6780706e-06
C0R590,里港,2024-03-24,22.77919,120.49459,8.0452696e-07
C0E610,馬都安,2024-03-24,24.451272,120.930192,2.0395199e-09
C0E550,明德,2024-03-24,24.583486,120.885411,9.504206e-10
C0R150,三地門,2024-03-24,22.709889,120.639944,1.4826605e-09
C0G910,花壇,2024-03-24,24.032076,120.549461,5.024554e-10
C1D400,鳥嘴山,2024-03-24,24.71909,121.28387,4.1450083e-09
C0K500,元長,2024-03-24,23.64981,120.315024,2.5843205e-08
C0F0B0,石岡,2024-03-24,24.276061,120.777644,6.696208e-10
C2V250,甲仙,2024-03-24,23.080106,120.591758,5.1133988e-08
C0SA20,金崙山,2024-03-24,22.567419,120.959667,2.3478412e-08
C0V350,溪埔,2024-03-24,22.738578,120.446797,3.2998693e-07
C0M660,溪口,2024-03-24,23.604131,120.403569,1.4676121e-07
C1S880,壽卡,2024-03-24,22.238911,120.858903,5.3593913e-06
72D680,桃改新埔分場,2024-03-24,24.834444,121.066111,6.2796954e-09
