站號,站名,日期,lat,lon,BlastGRU-TW
12J990,口湖工作站,2024-02-26,23.589978,120.180394,0.009222881
12Q970,東港工作站,2024-02-26,22.479997,120.466058,0.803488
12Q980,恆春工作站,2024-02-26,22.079678,120.714425,0.08548285
466881,新北,2024-02-26,24.9593,121.52,0.0012331806
466900,淡水,2024-02-26,25.164889,121.448906,0.0031509749
466920,臺北,2024-02-26,25.037658,121.514853,0.0035508298
466940,基隆,2024-02-26,25.133314,121.740475,0.00528486
466990,花蓮,2024-02-26,23.975128,121.613275,0.7541675
467050,新屋,2024-02-26,25.006744,121.047486,0.004130148
467080,宜蘭,2024-02-26,24.763975,121.756528,0.010930867
467270,田中,2024-02-26,23.873803,120.581286,0.1798522
467300,東吉島,2024-02-26,23.25695,119.667467,0.0020786063
467350,澎湖,2024-02-26,23.565503,119.563094,0.0019688986
467410,臺南,2024-02-26,22.993239,120.204772,0.48170957
467420,永康,2024-02-26,23.038386,120.2367,0.8395523
467441,高雄,2024-02-26,22.7304,120.3125,0.67182726
467480,嘉義,2024-02-26,23.495925,120.432906,0.25494236
467490,臺中,2024-02-26,24.145736,120.684075,0.1480754
467540,大武,2024-02-26,22.355675,120.903789,0.5045286
467571,新竹,2024-02-26,24.827853,121.014219,0.0056382664
467590,恆春,2024-02-26,22.003897,120.746339,0.59825224
467610,成功,2024-02-26,23.097486,121.373428,0.27235326
467620,蘭嶼,2024-02-26,22.036969,121.558339,0.0002648697
467660,臺東,2024-02-26,22.752211,121.154586,0.648633
467790,墾丁雷達站,2024-02-26,21.948235,120.808028,0.0550656
72AI40,桃改樹林分場,2024-02-26,24.944503,121.386972,0.008110668
72C440,桃園農改,2024-02-26,24.950944,121.030583,0.003473149
72C440,桃園農改場,2024-02-26,24.950944,121.030583,0.003473149
72D680,桃改新埔分場,2024-02-26,24.834444,121.066111,0.0050135185
72G600,臺中農改,2024-02-26,24.003028,120.534389,0.08498803
72G600,臺中農改場,2024-02-26,24.003028,120.534389,0.08498803
72K220,南改斗南分場,2024-02-26,23.634556,120.477333,0.29535925
72M360,南改義竹分場,2024-02-26,23.360694,120.279361,0.041346252
72M700,南改鹿草分場,2024-02-26,23.416869,120.283061,0.14377838
72N100,臺南農改,2024-02-26,23.0605,120.342194,0.8112868
72N100,臺南農改場,2024-02-26,23.0605,120.342194,0.8112868
72N240,七股研究中心,2024-02-26,23.081672,120.062894,0.058918424
72Q010,高雄農改,2024-02-26,22.709333,120.525889,0.88434947
72Q010,高雄農改場,2024-02-26,22.709333,120.525889,0.88434947
72S200,東改班鳩分場,2024-02-26,22.829528,121.077694,0.02328019
72S590,東改賓朗果園,2024-02-26,22.813889,121.071278,0.04220764
72T250,花蓮農改,2024-02-26,23.975222,121.563889,0.23343071
72T250,花蓮農改場,2024-02-26,23.975222,121.563889,0.23343071
72U480,花改蘭陽分場,2024-02-26,24.686306,121.716583,0.06611224
72V140,高改旗南分場,2024-02-26,22.857861,120.516667,0.4545412
82A750,茶改北部分場,2024-02-26,24.955778,121.631222,0.0043418007
82C160,茶改場,2024-02-26,24.908472,121.185333,0.012527407
82H840,茶改南部分場,2024-02-26,23.762528,120.7405,0.014459998
82S580,茶改東部分場,2024-02-26,22.907694,121.130139,0.05089556
A2C560,農工中心,2024-02-26,24.985917,121.239833,0.038144432
A2K360,水試臺西試驗場,2024-02-26,23.717231,120.190522,0.00925665
A2K570,古坑花卉中心,2024-02-26,23.63353,120.55239,0.27305484
A2K630,臺大雲林校區,2024-02-26,23.730628,120.423903,0.10904342
A2N290,臺南蘭花園區,2024-02-26,23.340258,120.379661,0.43668196
B2E890,畜試北區分所,2024-02-26,24.527806,120.770972,0.035276234
B2N890,畜產試驗所,2024-02-26,23.058972,120.336406,0.8112868
B2N890,畜試所,2024-02-26,23.058972,120.336406,0.8112868
B2Q810,畜試南區分所,2024-02-26,21.945583,120.802167,0.09623471
B2U990,畜試東區分所,2024-02-26,24.669039,121.832561,0.5727912
C0A520,山佳,2024-02-26,24.974944,121.402008,0.003279898
C0A530,坪林,2024-02-26,24.938183,121.70975,0.02896274
C0A540,四堵,2024-02-26,24.8926,121.745736,0.02387979
C0A550,泰平,2024-02-26,24.971197,121.823711,0.02678418
C0A560,福山,2024-02-26,24.776203,121.502811,0.006199953
C0A570,桶後,2024-02-26,24.848222,121.597992,0.011498877
C0A640,石碇,2024-02-26,24.993969,121.662917,0.0045600752
C0A650,火燒寮,2024-02-26,25.002719,121.742892,0.038057823
C0A660,瑞芳,2024-02-26,25.113169,121.801147,0.0077352417
C0A770,科教館,2024-02-26,25.096356,121.516507,0.0034257388
C0A860,大坪,2024-02-26,25.165914,121.632969,0.0029378599
C0A880,福隆,2024-02-26,25.017842,121.942083,0.17988414
C0A890,雙溪,2024-02-26,25.036003,121.864242,0.015326989
C0A920,富貴角,2024-02-26,25.263783,121.565258,0.0013331153
C0A931,三和,2024-02-26,25.233153,121.595236,0.00920776
C0A940,金山,2024-02-26,25.223628,121.643967,0.018681297
C0A950,鼻頭角,2024-02-26,25.129036,121.923372,0.0016497587
C0A970,三貂角,2024-02-26,25.007606,122.002058,0.20207253
C0A980,社子,2024-02-26,25.109508,121.469681,0.0027337281
C0A9C0,天母,2024-02-26,25.117494,121.537169,0.015573629
C0A9F0,內湖,2024-02-26,25.079422,121.57545,0.0035986858
C0AC60,三峽,2024-02-26,24.939025,121.369728,0.0076055997
C0AC70,信義,2024-02-26,25.037822,121.564597,0.0032648586
C0AC80,文山,2024-02-26,25.00235,121.575728,0.0012747828
C0ACA0,新莊,2024-02-26,25.051478,121.446756,0.005307455
C0AD00,三芝,2024-02-26,25.258131,121.501917,0.0017828904
C0AD10,八里,2024-02-26,25.150211,121.403947,0.0032245128
C0AD30,蘆洲,2024-02-26,25.086594,121.472331,0.0034257388
C0AD40,土城,2024-02-26,24.973208,121.445169,0.0012230835
C0AD50,鶯歌,2024-02-26,24.951533,121.346294,0.0069322735
C0AG80,中和,2024-02-26,24.991622,121.491792,0.0014797358
C0AH00,汐止,2024-02-26,25.066881,121.658778,0.0064630425
C0AH10,永和,2024-02-26,25.01125,121.508111,0.0014935192
C0AH40,平等,2024-02-26,25.129142,121.577086,0.002681923
C0AH50,林口,2024-02-26,25.072181,121.38084,0.0061668814
C0AH70,松山,2024-02-26,25.04871,121.55042,0.0032648586
C0AH80,深坑,2024-02-26,25.002703,121.628328,0.0014688525
C0AI00,五股,2024-02-26,25.07445,121.42728,0.011759403
C0AI10,屈尺,2024-02-26,24.92184,121.54475,0.0032819689
C0AI20,白沙灣,2024-02-26,25.283128,121.519058,0.0015021453
C0AI30,三重,2024-02-26,25.057328,121.500629,0.0035978942
C0AI40,石牌,2024-02-26,25.115597,121.513139,0.0179853
C0AJ20,野柳,2024-02-26,25.20703,121.690021,0.019146228
C0AJ30,淡水觀海,2024-02-26,25.184591,121.408616,0.0085799955
C0AJ40,石門,2024-02-26,25.273672,121.601198,0.001363258
C0AJ50,水湳洞,2024-02-26,25.123695,121.862238,0.013735582
C0AJ60,六塊厝,2024-02-26,25.24,121.4481,0.001451431
C0AJ70,田寮,2024-02-26,25.2698,121.4886,0.0021255133
C0AJ80,板橋,2024-02-26,25.0107,121.4489,0.001387442
C0AJ90,澳底,2024-02-26,25.0552,121.9253,0.017385045
C0B010,七堵,2024-02-26,25.094819,121.71713,0.010231706
C0B020,基隆嶼,2024-02-26,25.19141,121.78391,0.0020151322
C0B040,大武崙,2024-02-26,25.166676,121.706993,0.0038924408
C0B050,八斗子,2024-02-26,25.144754,121.79167,0.007800075
C0B060,暖暖,2024-02-26,25.0957,121.7403,0.012745267
C0C460,復興,2024-02-26,24.820208,121.352281,0.001218445
C0C480,桃園,2024-02-26,24.992425,121.323172,0.029654363
C0C490,八德,2024-02-26,24.928708,121.283289,0.0045307027
C0C590,觀音,2024-02-26,25.027072,121.153317,0.0010237513
C0C620,蘆竹,2024-02-26,25.084275,121.265767,0.008281148
C0C630,大溪,2024-02-26,24.882853,121.265547,0.0028433423
C0C650,平鎮,2024-02-26,24.897503,121.214636,0.0027683289
C0C660,楊梅,2024-02-26,24.912375,121.143047,0.016590687
C0C670,龍潭,2024-02-26,24.870056,121.221389,0.0021272516
C0C680,龜山,2024-02-26,25.02846,121.38656,0.0064947093
C0C700,中壢,2024-02-26,24.977661,121.256375,0.026385648
C0C710,大溪永福,2024-02-26,24.892936,121.324975,0.0026773291
C0C720,竹圍,2024-02-26,25.112692,121.239824,0.002704149
C0C730,中大臨海站,2024-02-26,24.966126,121.008581,0.0036264258
C0C740,觀音工業區,2024-02-26,25.064764,121.114856,0.0012057918
C0C750,新興坑尾,2024-02-26,25.0061,121.0971,0.004320075
C0D430,峨眉,2024-02-26,24.6905,121.017189,0.015969355
C0D480,打鐵坑,2024-02-26,24.849664,121.150789,0.0022994855
C0D540,橫山,2024-02-26,24.71116,121.11693,0.009718096
C0D560,竹東,2024-02-26,24.767147,121.057881,0.0118156085
C0D580,寶山,2024-02-26,24.735006,121.025192,0.0282969
C0D590,新豐,2024-02-26,24.87068,120.97721,0.0012703332
C0D650,湖口,2024-02-26,24.904794,121.043628,0.0038809464
C0D660,新竹市東區,2024-02-26,24.798681,120.986942,0.010061318
C0D670,海天一線,2024-02-26,24.831986,120.914438,0.0014574676
C0D680,香山濕地,2024-02-26,24.783581,120.914988,0.009302526
C0D690,外湖,2024-02-26,24.917735,120.968711,0.003097664
C0D700,關西,2024-02-26,24.7977,121.1732,0.007521597
C0E420,竹南,2024-02-26,24.708978,120.888897,0.0029445563
C0E430,南庄,2024-02-26,24.601775,121.000214,0.048436563
C0E550,明德,2024-02-26,24.583486,120.885411,0.013484079
C0E590,通霄,2024-02-26,24.471892,120.704622,0.003783545
C0E730,頭份,2024-02-26,24.688247,120.912206,0.003843422
C0E740,造橋,2024-02-26,24.637056,120.864778,0.0034626583
C0E750,苗栗,2024-02-26,24.564569,120.824575,0.016147388
C0E780,銅鑼,2024-02-26,24.489681,120.790853,0.021265984
C0E791,卓蘭,2024-02-26,24.3126,120.8244,0.19540295
C0E810,西湖,2024-02-26,24.562947,120.7485,0.0030731824
C0E820,獅潭,2024-02-26,24.539133,120.920042,0.09294094
C0E830,苑裡,2024-02-26,24.439714,120.653053,0.0020666677
C0E850,大河,2024-02-26,24.618069,120.948578,0.011613727
C0E870,高鐵苗栗,2024-02-26,24.60725,120.826094,0.003994131
C0E910,海埔,2024-02-26,24.648767,120.772435,0.0022439898
C0E920,通霄漁港,2024-02-26,24.498589,120.673876,0.0037697772
C0E930,龍鳳,2024-02-26,24.700034,120.859125,0.0032530017
C0F0B0,石岡,2024-02-26,24.276061,120.777644,0.2706491
C0F850,東勢,2024-02-26,24.246428,120.833047,0.045209326
C0F970,大坑,2024-02-26,24.173142,120.722289,0.119768865
C0F9I0,神岡,2024-02-26,24.272481,120.658314,0.06127909
C0F9K0,大安,2024-02-26,24.345061,120.588025,0.005799801
C0F9L0,后里,2024-02-26,24.310436,120.729725,0.3472221
C0F9M0,豐原,2024-02-26,24.254322,120.720692,0.4058442
C0F9N0,大里,2024-02-26,24.092464,120.701378,0.1536471
C0F9O0,潭子,2024-02-26,24.213106,120.703933,0.14288388
C0F9P0,清水,2024-02-26,24.312297,120.562242,0.014407333
C0F9Q0,外埔,2024-02-26,24.347817,120.705686,0.14317097
C0F9R0,龍井,2024-02-26,24.184536,120.528972,0.0029179524
C0F9S0,烏日,2024-02-26,24.107058,120.624103,0.13464254
C0F9T0,西屯,2024-02-26,24.179494,120.641275,0.010267944
C0F9U0,南屯,2024-02-26,24.137006,120.637969,0.014897167
C0F9X0,大雅(中科園區),2024-02-26,24.21528,120.62445,0.01470635
C0FA10,松柏,2024-02-26,24.429115,120.617482,0.0021497174
C0FA20,溫寮,2024-02-26,24.372177,120.583125,0.00624026
C0FA30,梧棲,2024-02-26,24.256003,120.523381,0.01021911
C0FA40,臺中電廠,2024-02-26,24.2146,120.4907,0.0029179524
C0FA50,霧峰,2024-02-26,24.0419,120.6995,0.41715
C0G620,芬園,2024-02-26,24.015678,120.6213,0.35172006
C0G650,員林,2024-02-26,23.946503,120.585597,0.307171
C0G660,溪湖,2024-02-26,23.94835,120.479122,0.061669078
C0G720,溪州,2024-02-26,23.851589,120.499093,0.0711351
C0G730,二林,2024-02-26,23.903325,120.376081,0.0050311633
C0G740,大城,2024-02-26,23.852487,120.320935,0.0037953262
C0G770,福興,2024-02-26,24.041289,120.437669,0.0025722953
C0G780,秀水,2024-02-26,24.03405,120.503869,0.06768809
C0G800,埔鹽,2024-02-26,24.000394,120.431683,0.0028471316
C0G810,埔心,2024-02-26,23.947633,120.525456,0.058451846
C0G820,田尾,2024-02-26,23.901669,120.509389,0.06340088
C0G830,埤頭,2024-02-26,23.866003,120.452806,0.06681547
C0G860,社頭,2024-02-26,23.897647,120.5862,0.18373016
C0G880,二水,2024-02-26,23.810742,120.6173,0.07348364
C0G890,伸港,2024-02-26,24.148933,120.484403,0.0022537382
C0G900,線西,2024-02-26,24.143358,120.443536,0.0017090515
C0G910,花壇,2024-02-26,24.032076,120.549461,0.08283905
C0G920,永靖,2024-02-26,23.924703,120.547533,0.075246714
C0G940,竹塘,2024-02-26,23.848253,120.386764,0.015960297
C0G950,防潮門,2024-02-26,24.1835,120.4871,0.0029179524
C0G960,福寶,2024-02-26,24.0443,120.3814,0.001599137
C0G970,三豐,2024-02-26,23.882,120.2895,0.00341923
C0H890,埔里,2024-02-26,23.972169,120.952425,0.010956347
C0H960,草屯,2024-02-26,23.973672,120.68085,0.35458335
C0I110,竹山,2024-02-26,23.761225,120.688156,0.043842476
C0I360,水里,2024-02-26,23.812553,120.849792,0.038441263
C0I380,集集,2024-02-26,23.828206,120.801467,0.03213616
C0I410,名間,2024-02-26,23.837053,120.701447,0.21889906
C0I420,國姓,2024-02-26,24.037803,120.855072,0.049244065
C0I460,南投,2024-02-26,23.911469,120.687331,0.36227417
C0K250,崙背,2024-02-26,23.75555,120.318925,0.032122184
C0K280,四湖,2024-02-26,23.630414,120.227125,0.0081338715
C0K291,宜梧,2024-02-26,23.536281,120.169329,0.033322837
C0K330,虎尾,2024-02-26,23.719183,120.442036,0.11248066
C0K390,土庫,2024-02-26,23.679029,120.395574,0.062378887
C0K400,斗六,2024-02-26,23.720583,120.541127,0.2760577
C0K410,北港,2024-02-26,23.573957,120.292802,0.093175024
C0K420,西螺,2024-02-26,23.800407,120.467394,0.11871428
C0K430,褒忠,2024-02-26,23.690938,120.303634,0.036440764
C0K440,二崙,2024-02-26,23.772797,120.408944,0.13002172
C0K450,大埤,2024-02-26,23.646074,120.431537,0.29487002
C0K460,斗南,2024-02-26,23.678734,120.478359,0.27708223
C0K470,林內,2024-02-26,23.748675,120.609642,0.108845055
C0K480,莿桐,2024-02-26,23.761192,120.502372,0.19629312
C0K500,元長,2024-02-26,23.64981,120.315024,0.042384364
C0K510,水林,2024-02-26,23.572924,120.24597,0.09578761
C0K530,臺西,2024-02-26,23.701547,120.197559,0.008873833
C0K550,蔦松,2024-02-26,23.514319,120.229736,0.03704978
C0K560,棋山,2024-02-26,23.68645,120.603417,0.18569559
C0K580,高鐵雲林,2024-02-26,23.737456,120.417944,0.10904342
C0K590,雲林東勢,2024-02-26,23.674192,120.255721,0.039141353
C0K600,箔子寮,2024-02-26,23.6197,120.14,0.007777997
C0M520,東後寮,2024-02-26,23.369908,120.248065,0.041346252
C0M640,中埔,2024-02-26,23.42538,120.5229,0.18689464
C0M650,朴子,2024-02-26,23.43463,120.23902,0.11921334
C0M660,溪口,2024-02-26,23.604131,120.403569,0.28137395
C0M670,大林,2024-02-26,23.600616,120.45841,0.26502168
C0M680,太保,2024-02-26,23.455062,120.331455,0.3871973
C0M690,水上,2024-02-26,23.419734,120.388909,0.43121684
C0M700,竹崎,2024-02-26,23.526178,120.555508,0.08860863
C0M710,東石,2024-02-26,23.458927,120.15385,0.012821516
C0M720,番路,2024-02-26,23.464657,120.554156,0.10140991
C0M730,嘉義市東區,2024-02-26,23.457673,120.460531,0.34328952
C0M740,六腳,2024-02-26,23.492871,120.290625,0.123258755
C0M750,布袋,2024-02-26,23.380878,120.167789,0.03682203
C0M760,民雄,2024-02-26,23.551754,120.428457,0.28507826
C0M770,嘉義梅山,2024-02-26,23.585398,120.555587,0.22194207
C0M780,鹿草,2024-02-26,23.41134,120.30835,0.13721444
C0M790,新港,2024-02-26,23.553269,120.345728,0.08555156
C0M800,茶山,2024-02-26,23.299075,120.664767,0.08228487
C0M880,好美里,2024-02-26,23.3364,120.138,0.027939787
C0N010,鯤鯓國小,2024-02-26,23.1879,120.0889,0.057196356
C0N020,城西,2024-02-26,23.0568,120.0956,0.55492854
C0N030,四草,2024-02-26,23.0235,120.1116,0.6493324
C0N040,蘆竹溝,2024-02-26,23.2344,120.0961,0.04826041
C0N050,蚵寮,2024-02-26,23.301,120.1104,0.034439266
C0O830,北寮,2024-02-26,23.079561,120.495008,0.44778538
C0O840,王爺宮,2024-02-26,23.222064,120.40085,0.29985774
C0O860,大內,2024-02-26,23.11885,120.36083,0.76773083
C0O900,善化,2024-02-26,23.112883,120.297219,0.8130007
C0O960,崎頂,2024-02-26,22.959547,120.369317,0.7376219
C0O970,虎頭埤,2024-02-26,23.021375,120.347878,0.7943772
C0O980,新市,2024-02-26,23.061614,120.298197,0.84566694
C0O990,媽廟,2024-02-26,22.99175,120.293525,0.83338445
C0R150,三地門,2024-02-26,22.709889,120.639944,0.16713695
C0R160,鹽埔,2024-02-26,22.739558,120.530778,0.84569
C0R170,屏東,2024-02-26,22.660269,120.494072,0.98053986
C0R190,赤山,2024-02-26,22.592333,120.614306,0.36246997
C0R220,潮州,2024-02-26,22.534361,120.54,0.5593861
C0R240,來義,2024-02-26,22.527306,120.625111,0.38680166
C0R260,春日,2024-02-26,22.370361,120.628306,0.40473473
C0R270,琉球嶼,2024-02-26,22.332244,120.362236,0.88573325
C0R280,檳榔,2024-02-26,22.076078,120.836777,0.069717705
C0R320,車城,2024-02-26,22.0744,120.716247,0.08548285
C0R341,牡丹,2024-02-26,22.130036,120.792639,0.07406305
C0R350,貓鼻頭,2024-02-26,21.921774,120.7358,0.0051708356
C0R470,高樹,2024-02-26,22.826389,120.600806,0.27849728
C0R480,長治,2024-02-26,22.693128,120.542622,0.45143688
C0R490,九如,2024-02-26,22.7405,120.490503,0.84432673
C0R520,崁頂,2024-02-26,22.514781,120.506914,0.6641515
C0R540,佳冬,2024-02-26,22.419456,120.552375,0.549373
C0R550,新埤,2024-02-26,22.467947,120.582894,0.7795727
C0R560,新園,2024-02-26,22.5434,120.461558,0.84031683
C0R570,麟洛,2024-02-26,22.65078,120.52719,0.98053986
C0R580,南州,2024-02-26,22.48591,120.50274,0.7797148
C0R590,里港,2024-02-26,22.77919,120.49459,0.51973957
C0R620,墾雷,2024-02-26,21.900836,120.855269,0.0010709286
C0R640,東港,2024-02-26,22.46247,120.44074,0.8366857
C0R650,竹田,2024-02-26,22.58486,120.54344,0.5817238
C0R660,枋寮,2024-02-26,22.367722,120.590647,0.549373
C0R670,楓港,2024-02-26,22.190131,120.692156,0.043652028
C0R680,佳樂水,2024-02-26,21.993578,120.861633,0.08882367
C0R690,墾丁,2024-02-26,21.966756,120.810269,0.005663032
C0R700,枋山,2024-02-26,22.246844,120.661086,0.15585539
C0R710,龍磐,2024-02-26,21.931672,120.838942,0.0026360943
C0R720,旭海,2024-02-26,22.205403,120.887614,0.040085934
C0R730,大坪頂,2024-02-26,22.024633,120.69355,0.07493424
C0R740,獅子,2024-02-26,22.201569,120.70525,0.24437436
C0R760,南仁湖,2024-02-26,22.084681,120.863353,0.019429587
C0R770,保力,2024-02-26,22.071122,120.764111,0.1929387
C0R780,滿州,2024-02-26,22.024403,120.839892,0.5299375
C0R790,九棚,2024-02-26,22.14195,120.889281,0.04508851
C0R800,丹路,2024-02-26,22.204481,120.750989,0.2020694
C0R810,內獅,2024-02-26,22.305064,120.642986,0.26347375
C0R830,高士,2024-02-26,22.121825,120.836781,0.011423815
C0R850,林邊,2024-02-26,22.4634,120.5339,0.7801088
C0R860,鼻頭,2024-02-26,22.1043,120.8979,0.54879487
C0R870,興海,2024-02-26,21.9752,120.8439,0.09623471
C0R880,後壁湖,2024-02-26,21.9457,120.7457,0.045068983
C0R890,山海,2024-02-26,21.9878,120.7091,0.043252166
C0R900,竹坑,2024-02-26,22.1385,120.7022,0.08345349
C0R910,下寮,2024-02-26,22.3929,120.5548,0.549373
C0R920,塭仔,2024-02-26,22.4169,120.5197,0.5768166
C0R930,萬丹,2024-02-26,22.5885,120.4851,0.8905882
C0R940,加祿堂,2024-02-26,22.3363,120.6217,0.15445629
C0S710,鹿野,2024-02-26,22.917711,121.122994,0.04966032
C0S730,綠島,2024-02-26,22.6672,121.47533,0.017674316
C0S740,池上,2024-02-26,23.119628,121.209469,0.012382332
C0S770,大溪山,2024-02-26,22.478475,120.943325,0.0869458
C0S790,金崙,2024-02-26,22.538122,120.966875,0.19650052
C0S810,東河,2024-02-26,22.972672,121.303986,0.12702827
C0S830,長濱,2024-02-26,23.286817,121.411975,0.42498934
C0S840,南田,2024-02-26,22.279725,120.889208,0.28358617
C0S890,關山,2024-02-26,23.0395,121.175017,0.053236946
C0S900,蘭嶼高中,2024-02-26,22.04909,121.51214,0.021561945
C0S910,蘭嶼燈塔,2024-02-26,22.081197,121.503117,0.0040550563
C0S920,金峰嘉蘭,2024-02-26,22.594789,120.960825,0.5588864
C0S930,延平,2024-02-26,22.902581,121.084058,0.011143888
C0S940,石寧山,2024-02-26,23.223772,121.406639,0.8751508
C0S950,七塊厝,2024-02-26,22.954453,121.229922,0.058238022
C0S960,香蘭,2024-02-26,22.587569,120.993375,0.9533353
C0S970,加津林,2024-02-26,22.416211,120.926942,0.9013025
C0S990,山豬窟,2024-02-26,22.318619,120.857372,0.039631553
C0SA00,歷坵,2024-02-26,22.520969,120.89185,0.028279088
C0SA10,檳榔四格山,2024-02-26,22.810031,121.109308,0.08209791
C0SA30,都歷,2024-02-26,23.020333,121.323642,0.43765152
C0SA40,瑞和,2024-02-26,22.974361,121.156697,0.0698482
C0SA60,知本（水試所）,2024-02-26,22.702394,121.082761,0.9743575
C0SA80,土坂,2024-02-26,22.453108,120.887572,0.072821535
C0SA90,達仁林場,2024-02-26,22.264347,120.823972,0.0029900188
C0T870,鯉魚潭,2024-02-26,23.935639,121.508944,0.03546888
C0T900,西林,2024-02-26,23.8119,121.441458,0.012910887
C0T960,光復,2024-02-26,23.660694,121.424964,0.05082574
C0T9A0,月眉山,2024-02-26,23.809928,121.539828,0.034820236
C0T9D0,和中,2024-02-26,24.26676,121.74103,0.8515859
C0T9E0,大坑,2024-02-26,23.880628,121.581981,0.05625933
C0T9F0,水璉,2024-02-26,23.797131,121.542514,0.057612684
C0T9I0,豐濱,2024-02-26,23.583897,121.514806,0.16490959
C0T9M0,靜浦,2024-02-26,23.455167,121.495028,0.6772602
C0T9N0,富里,2024-02-26,23.171639,121.249378,0.13644528
C0U600,礁溪,2024-02-26,24.817539,121.765608,0.013696517
C0U650,玉蘭,2024-02-26,24.675286,121.587061,0.0047560125
C0U750,龜山島,2024-02-26,24.841667,121.953133,0.002802828
C0U760,東澳,2024-02-26,24.52196,121.83318,0.32986057
C0U770,南澳,2024-02-26,24.44935,121.81022,0.08087191
C0U780,五結,2024-02-26,24.68637,121.79794,0.1691141
C0U860,頭城,2024-02-26,24.85323,121.8308,0.015701577
C0U870,大礁溪,2024-02-26,24.791042,121.675047,0.0044536963
C0U880,北關,2024-02-26,24.9072,121.8734,0.13498923
C0U890,三星,2024-02-26,24.66812,121.65302,0.10686076
C0U900,內城,2024-02-26,24.71813,121.68766,0.061970998
C0U910,冬山,2024-02-26,24.63373,121.7937,0.5727912
C0U940,羅東,2024-02-26,24.68184,121.74934,0.10049387
C0U970,大福,2024-02-26,24.80064,121.81389,0.014438853
C0U990,員山,2024-02-26,24.74435,121.72247,0.091826886
C0UA00,土場,2024-02-26,24.576533,121.495333,0.00778357
C0UA80,大溪漁港,2024-02-26,24.941801,121.902955,0.17459092
C0UA90,石城,2024-02-26,24.980444,121.951214,0.17394665
C0UB00,淡江大學蘭陽校園,2024-02-26,24.823239,121.730383,0.01183471
C0UB10,蘇澳,2024-02-26,24.5969,121.8571,0.96672875
C0UB20,壯圍,2024-02-26,24.7359,121.8163,0.16250159
C0V310,美濃,2024-02-26,22.898742,120.519153,0.43325144
C0V350,溪埔,2024-02-26,22.738578,120.446797,0.66607255
C0V360,內門,2024-02-26,22.975481,120.466769,0.5125876
C0V370,古亭坑,2024-02-26,22.893178,120.401947,0.6890782
C0V400,阿公店,2024-02-26,22.804194,120.355528,0.75309545
C0V440,鳳山,2024-02-26,22.646653,120.356122,0.68173605
C0V450,鳳森,2024-02-26,22.545064,120.392592,0.8629231
C0V490,新興,2024-02-26,22.627422,120.298803,0.7534326
C0V530,阿蓮,2024-02-26,22.883208,120.327508,0.73716146
C0V610,梓官,2024-02-26,22.760558,120.267211,0.78478307
C0V620,永安,2024-02-26,22.82315,120.236856,0.58925265
C0V630,茄萣,2024-02-26,22.906642,120.182608,0.4695683
C0V640,湖內,2024-02-26,22.887139,120.2445,0.33080396
C0V650,彌陀,2024-02-26,22.783806,120.246361,0.58925265
C0V660,岡山,2024-02-26,22.797078,120.294958,0.5083099
C0V680,仁武,2024-02-26,22.701083,120.347722,0.6917132
C0V690,鼓山,2024-02-26,22.623325,120.275575,0.86890215
C0V700,三民,2024-02-26,22.645017,120.311233,0.7004787
C0V710,苓雅,2024-02-26,22.622742,120.330669,0.79580337
C0V720,林園,2024-02-26,22.507747,120.394511,0.8956708
C0V730,大寮,2024-02-26,22.605614,120.395717,0.76893497
C0V740,旗山,2024-02-26,22.888614,120.483597,0.4324974
C0V750,路竹,2024-02-26,22.854997,120.259439,0.36019766
C0V760,橋頭,2024-02-26,22.757806,120.30575,0.6850198
C0V770,大社,2024-02-26,22.730306,120.346639,0.6722683
C0V790,萬山,2024-02-26,22.905944,120.688056,0.12800828
C0V800,六龜,2024-02-26,22.997889,120.633583,0.9127973
C0V810,左營,2024-02-26,22.67491,120.28491,0.7004787
C0V820,小林,2024-02-26,23.148408,120.63325,0.054640595
C0V840,鳳鼻頭,2024-02-26,22.5083,120.3591,0.89445496
C0V850,蚵仔寮,2024-02-26,22.7256,120.2527,0.79185194
C0V860,南寮,2024-02-26,22.7616,120.2339,0.79185194
C0V870,文安,2024-02-26,22.8025,120.2164,0.75094855
C0V880,興達,2024-02-26,22.8778,120.2127,0.4695683
C0V890,前鎮,2024-02-26,22.5718,120.3117,0.87034523
C0V900,汕尾,2024-02-26,22.4782,120.4151,0.803488
C0W200,湖西,2024-02-26,23.596314,119.67275,0.0015546527
C0X050,東河,2024-02-26,23.296598,120.385608,0.48654813
C0X060,下營,2024-02-26,23.22695,120.256261,0.25348452
C0X080,佳里,2024-02-26,23.173039,120.145086,0.06734661
C0X100,臺南市北區,2024-02-26,23.010394,120.194228,0.51779133
C0X110,臺南市南區,2024-02-26,22.961189,120.188378,0.7428086
C0X120,麻豆,2024-02-26,23.183289,120.248611,0.3026734
C0X130,官田,2024-02-26,23.193217,120.315422,0.69621027
C0X140,西港,2024-02-26,23.125608,120.203108,0.41442963
C0X150,安定,2024-02-26,23.102614,120.227839,0.4229487
C0X160,仁德,2024-02-26,22.968258,120.257689,0.64894855
C0X170,關廟,2024-02-26,22.963017,120.327797,0.8529488
C0X180,山上,2024-02-26,23.0757,120.363253,0.5232775
C0X190,安平,2024-02-26,22.993161,120.152181,0.6270697
C0X200,左鎮,2024-02-26,23.056758,120.408522,0.7781525
C0X210,白河,2024-02-26,23.347466,120.414427,0.6437652
C0X220,學甲,2024-02-26,23.230367,120.182187,0.05173057
C0X230,鹽水,2024-02-26,23.272621,120.247641,0.042090766
C0X240,關子嶺,2024-02-26,23.331169,120.508025,0.08819576
C0X250,新營,2024-02-26,23.310689,120.316681,0.16635002
C0X260,後壁,2024-02-26,23.366358,120.362326,0.43668196
C0X280,將軍,2024-02-26,23.214999,120.13577,0.05364666
C0X290,北門,2024-02-26,23.267772,120.125481,0.04826041
C0X300,鹿寮,2024-02-26,23.386047,120.477331,0.34609738
C0X310,七股,2024-02-26,23.147289,120.086253,0.06649413
C0X320,柳營,2024-02-26,23.253328,120.375253,0.540831
C0Z020,明里,2024-02-26,23.208717,121.262342,0.15719737
C0Z061,玉里,2024-02-26,23.3215,121.339656,0.14321618
C0Z070,舞鶴,2024-02-26,23.46811,121.37407,0.04951127
C0Z080,富源,2024-02-26,23.587642,121.378225,0.30471495
C0Z100,東華,2024-02-26,23.89525,121.549833,0.20203769
C0Z150,吉安光華,2024-02-26,23.930925,121.595153,0.77723217
C0Z160,鳳林,2024-02-26,23.746114,121.453411,0.04390753
C0Z170,卓溪,2024-02-26,23.3443,121.3029,0.06829909
C0Z180,新城,2024-02-26,24.03946,121.60454,0.73764056
C0Z190,富世,2024-02-26,24.14743,121.6297,0.0060363747
C0Z200,萬榮,2024-02-26,23.709219,121.420106,0.056381408
C0Z210,瑞穗,2024-02-26,23.5239,121.39021,0.079314336
C0Z230,和平,2024-02-26,24.30717,121.77007,0.5788321
C0Z270,蕃薯寮,2024-02-26,23.73835,121.540108,0.10934993
C0Z280,德武,2024-02-26,23.47426,121.41071,0.0857864
C0Z300,東里,2024-02-26,23.26853,121.30547,0.18428682
C0Z310,清水斷崖,2024-02-26,24.218294,121.689142,0.043398757
C0Z330,安通山,2024-02-26,23.290728,121.348528,0.07193477
C2E520,大湖,2024-02-26,24.414939,120.870872,0.39545235
C2E540,後龍,2024-02-26,24.606489,120.783933,0.004112159
C2F000,大肚,2024-02-26,24.15295,120.572117,0.03382244
C2F930,大甲,2024-02-26,24.347667,120.640403,0.0065263016
C2F9A0,中竹林,2024-02-26,24.103556,120.751061,0.040666204
C2G640,鹿港,2024-02-26,24.0753,120.430481,0.0018460329
C2G840,北斗,2024-02-26,23.877586,120.514222,0.065784335
C2G870,芳苑,2024-02-26,23.922303,120.320025,0.0022380948
C2H950,中寮,2024-02-26,23.884447,120.766406,0.16132648
C2M410,馬頭山,2024-02-26,23.324361,120.582017,0.13015799
C2O810,曾文,2024-02-26,23.219681,120.497328,0.3713505
C2O930,玉井,2024-02-26,23.126042,120.46055,0.50719035
C2O950,安南,2024-02-26,23.076694,120.144861,0.057588767
C2V250,甲仙,2024-02-26,23.080106,120.591758,0.19230111
C2V260,月眉,2024-02-26,22.971003,120.539853,0.72001
C2W230,畜試所澎湖,2024-02-26,23.628342,119.513206,0.0019273805
CAG100,王功漁港,2024-02-26,23.96824,120.32586,0.001979537
CAH030,茶改場竹圍站,2024-02-26,23.860083,120.637528,0.035500247
CAJ050,海口故事園區,2024-02-26,23.57543,120.14121,0.007777997
CAL110,布袋國中,2024-02-26,23.35893,120.18026,0.040692482
CAN130,水試所海水繁養殖中心,2024-02-26,23.120802,120.07968,0.058918424
CAN140,六官養殖協會,2024-02-26,23.22881,120.29962,0.26696005
CAQ030,崎峰國小,2024-02-26,22.42565,120.49521,0.81304044
E2K600,四湖植物園,2024-02-26,23.676986,120.163433,0.005903251
E2P980,林試六龜中心,2024-02-26,22.991703,120.645722,0.909577
E2S960,林試太麻里2,2024-02-26,22.598014,120.989761,0.9533353
E2S960,林試太麻里2,2024-02-26,22.598,120.99775,0.95416844
E2S980,林試太麻里1,2024-02-26,22.598922,120.980044,0.9377369
G2AI50,關渡,2024-02-26,25.11575,121.492,0.0027237595
G2F820,農業試驗所,2024-02-26,24.031261,120.688133,0.42511994
G2F820,農試所(霧峰),2024-02-26,24.031261,120.688133,0.42511994
G2L020,農試嘉義分所,2024-02-26,23.485028,120.473806,0.20633781
G2M350,農試溪口農場,2024-02-26,23.58565,120.408111,0.2842567
G2P820,農試鳳山分所,2024-02-26,22.646611,120.356083,0.68173605
K2E360,苗栗農改,2024-02-26,24.495722,120.829111,0.026971646
K2E360,苗栗農改場,2024-02-26,24.495722,120.829111,0.026971646
K2E710,苗改生物防治研究中心,2024-02-26,24.422861,120.871833,0.44058216
K2F750,種苗改良場,2024-02-26,24.225972,120.800917,0.015076543
K2F750,種苗繁殖,2024-02-26,24.225972,120.800917,0.015076543
U2HA50,臺大竹山,2024-02-26,23.756972,120.681556,0.05324438
V2C250,八德合作社,2024-02-26,24.93775,121.266389,0.0042639663
V2C260,八德蔬果,2024-02-26,24.978508,121.281819,0.028725473
V2K610,大庄合作社,2024-02-26,23.8068,120.367939,0.01495656
V2K620,麥寮合作社,2024-02-26,23.753836,120.294783,0.032122184
