站號,站名,日期,lat,lon,BLBTSLS
C0R710,龍磐,2024-03-03,21.931672,120.838942,0.9274933
C1F9D1,白毛台,2024-03-03,24.158325,120.886933,6.41832e-10
C0G940,竹塘,2024-03-03,23.848253,120.386764,1.6200907e-09
467590,恆春,2024-03-03,22.003897,120.746339,0.9944059
C1O850,環湖,2024-03-03,23.148617,120.418633,0.0002824668
C0U710,太平山,2024-03-03,24.505486,121.525656,1.2600643e-08
C0E820,獅潭,2024-03-03,24.539133,120.920042,2.0473774e-09
C0V880,興達,2024-03-03,22.8778,120.2127,0.08757295
C0S890,關山,2024-03-03,23.0395,121.175017,1.1521276e-09
K2F750,種苗繁殖,2024-03-03,24.225972,120.800917,8.6958696e-10
C1Z130,銅門,2024-03-03,23.965694,121.492842,7.770942e-09
C0AD40,土城,2024-03-03,24.973208,121.445169,1.39047165e-08
CAN140,六官養殖協會,2024-03-03,23.22881,120.29962,0.88114536
C0X180,山上,2024-03-03,23.0757,120.363253,0.0075683864
C0F9Z0,雪山東峰,2024-03-03,24.388792,121.268675,1.39893634e-08
C1M480,獨立山,2024-03-03,23.537022,120.607797,8.629284e-10
C0X220,學甲,2024-03-03,23.230367,120.182187,4.6800337e-06
C0R170,屏東,2024-03-03,22.660269,120.494072,0.99903643
467650,日月潭,2024-03-03,23.881325,120.90805,1.2281095e-09
C0K600,箔子寮,2024-03-03,23.6197,120.14,7.385362e-08
C0G830,埤頭,2024-03-03,23.866003,120.452806,6.357149e-09
C0S950,七塊厝,2024-03-03,22.954453,121.229922,1.1045067e-09
467110,金門,2024-03-03,24.407306,118.289281,1.3163525e-06
C0AH80,深坑,2024-03-03,25.002703,121.628328,1.3254188e-08
467990,馬祖,2024-03-03,26.169269,119.923419,9.600374e-07
C0A970,三貂角,2024-03-03,25.007606,122.002058,2.7736819e-08
C0K430,褒忠,2024-03-03,23.690938,120.303634,1.6663833e-09
467480,嘉義,2024-03-03,23.495925,120.432906,0.00018070337
C2E540,後龍,2024-03-03,24.606489,120.783933,3.8779564e-08
C0V400,阿公店,2024-03-03,22.804194,120.355528,0.015349732
C0R440,大漢山,2024-03-03,22.405264,120.753181,1.3585852e-08
C0K280,四湖,2024-03-03,23.630414,120.227125,3.3192958e-08
C1F9B1,桐林,2024-03-03,24.066172,120.735194,7.3427964e-10
C0K390,土庫,2024-03-03,23.679029,120.395574,6.348352e-09
C1I450,望鄉山,2024-03-03,23.594153,120.944286,3.8256047e-08
C0E910,海埔,2024-03-03,24.648767,120.772435,4.6234053e-08
B2E890,畜試北區分所,2024-03-03,24.527806,120.770972,2.396779e-09
C0R750,四林格山,2024-03-03,22.076989,120.802439,8.6981294e-05
C0F0C0,中坑,2024-03-03,24.248517,120.903319,1.1165292e-09
C1I121,大鞍,2024-03-03,23.678381,120.760017,1.9781585e-09
72U480,花改蘭陽分場,2024-03-03,24.686306,121.716583,4.889112e-09
C0A770,科教館,2024-03-03,25.096356,121.516507,1.17670655e-08
C0AJ60,六塊厝,2024-03-03,25.24,121.4481,8.910161e-07
C0R620,墾雷,2024-03-03,21.900836,120.855269,0.1519444
467420,永康,2024-03-03,23.038386,120.2367,0.4544511
467300,東吉島,2024-03-03,23.25695,119.667467,0.89677244
C0I410,名間,2024-03-03,23.837053,120.701447,7.032197e-10
A2C560,農工中心,2024-03-03,24.985917,121.239833,1.5353082e-07
C0V740,旗山,2024-03-03,22.888614,120.483597,0.99575216
C0Z061,玉里,2024-03-03,23.3215,121.339656,4.217838e-09
C0S840,南田,2024-03-03,22.279725,120.889208,0.9984159
C1I470,杉林溪,2024-03-03,23.639517,120.786444,2.4967852e-09
C1X040,東原,2024-03-03,23.291597,120.463822,1.653242e-09
C0R660,枋寮,2024-03-03,22.367722,120.590647,1.4534481e-07
C1R120,上德文,2024-03-03,22.763272,120.704442,1.0772923e-09
C0K450,大埤,2024-03-03,23.646074,120.431537,8.849732e-08
C0UA00,土場,2024-03-03,24.576533,121.495333,1.862148e-08
467080,宜蘭,2024-03-03,24.763975,121.756528,7.4018303e-09
C0N030,四草,2024-03-03,23.0235,120.1116,0.000109162655
C0V650,彌陀,2024-03-03,22.783806,120.246361,0.3425066
C0D660,新竹市東區,2024-03-03,24.798681,120.986942,6.2850305e-08
82S580,茶改東部分場,2024-03-03,22.907694,121.130139,1.1772335e-09
C0C710,大溪永福,2024-03-03,24.892936,121.324975,1.7348512e-07
C0FA20,溫寮,2024-03-03,24.372177,120.583125,1.7369779e-08
C0V640,湖內,2024-03-03,22.887139,120.2445,0.06512021
C0R910,下寮,2024-03-03,22.3929,120.5548,1.4534481e-07
C0Z020,明里,2024-03-03,23.208717,121.262342,5.5062834e-09
C0M770,嘉義梅山,2024-03-03,23.585398,120.555587,1.6907254e-08
G2F820,農業試驗所,2024-03-03,24.031261,120.688133,1.1351204e-09
C0C660,楊梅,2024-03-03,24.912375,121.143047,1.0343266e-07
C1E511,新開,2024-03-03,24.347703,120.827019,1.0047368e-09
G2F820,農試所(霧峰),2024-03-03,24.031261,120.688133,1.1351204e-09
C1I070,和社,2024-03-03,23.591131,120.888861,3.1843619e-09
C2F000,大肚,2024-03-03,24.15295,120.572117,4.1417184e-10
C1S850,豐南,2024-03-03,23.122139,121.262389,2.5099876e-09
C2A920,富貴角,2024-03-03,25.263783,121.565258,3.2024786e-07
CAH030,茶改場竹圍站,2024-03-03,23.860083,120.637528,5.116701e-10
C0T960,光復,2024-03-03,23.660694,121.424964,2.887573e-09
C0F9M0,豐原,2024-03-03,24.254322,120.720692,5.699107e-10
C0R720,旭海,2024-03-03,22.205403,120.887614,0.98518795
C0V710,苓雅,2024-03-03,22.622742,120.330669,0.6589901
C0C740,觀音工業區,2024-03-03,25.064764,121.114856,0.00013377199
CAC040,拉拉山,2024-03-03,24.699317,121.427133,3.2675793e-08
C0V790,萬山,2024-03-03,22.905944,120.688056,1.0798832e-07
U2HA30,臺大和社,2024-03-03,23.590856,120.888864,3.184356e-09
C0AJ90,澳底,2024-03-03,25.0552,121.9253,2.9571623e-08
C0Z100,東華,2024-03-03,23.89525,121.549833,6.117751e-09
C0G970,三豐,2024-03-03,23.882,120.2895,4.865643e-06
V2K610,大庄合作社,2024-03-03,23.8068,120.367939,1.664106e-09
C0V900,汕尾,2024-03-03,22.4782,120.4151,0.3398719
C1R630,龍泉,2024-03-03,22.66701,120.59091,0.8838747
C1AC50,關渡,2024-03-03,25.133486,121.469331,3.613047e-08
C0F9I0,神岡,2024-03-03,24.272481,120.658314,1.0152666e-09
C0K460,斗南,2024-03-03,23.678734,120.478359,7.196058e-08
467410,臺南,2024-03-03,22.993239,120.204772,3.124175e-05
C2O810,曾文,2024-03-03,23.219681,120.497328,2.9897446e-08
467280,後龍,2024-03-03,24.648563,120.831834,3.1199388e-08
C1F9J1,清水林,2024-03-03,24.071242,120.820419,5.4911364e-10
C2A650,火燒寮,2024-03-03,25.002719,121.742892,2.4199776e-08
466930,竹子湖,2024-03-03,25.162078,121.544547,1.874424e-08
C1I220,樟湖,2024-03-03,23.905333,120.846983,1.1404069e-09
C0I390,仁愛,2024-03-03,24.022122,121.132206,1.7592662e-09
C0Z300,東里,2024-03-03,23.26853,121.30547,5.424909e-09
C0V310,美濃,2024-03-03,22.898742,120.519153,0.9968026
C1V590,新發,2024-03-03,23.057019,120.646064,3.8534975e-09
C0K510,水林,2024-03-03,23.572924,120.24597,2.7240357e-09
72S590,東改賓朗果園,2024-03-03,22.813889,121.071278,1.3128656e-09
82A750,茶改北部分場,2024-03-03,24.955778,121.631222,6.5606635e-08
C1A750,石碇服務區,2024-03-03,25.00872,121.646242,3.590014e-08
C0X300,鹿寮,2024-03-03,23.386047,120.477331,1.46635275e-05
G2AI50,關渡,2024-03-03,25.11575,121.492,2.3898923e-07
C0K590,雲林東勢,2024-03-03,23.674192,120.255721,1.6122916e-09
C0A570,桶後,2024-03-03,24.848222,121.597992,2.286125e-08
C1S800,華源,2024-03-03,22.657883,121.02325,4.5559123e-08
C0G720,溪州,2024-03-03,23.851589,120.499093,6.1182766e-09
C1V160,達卡努瓦,2024-03-03,23.279811,120.705319,3.176991e-09
C2M410,馬頭山,2024-03-03,23.324361,120.582017,1.0770621e-09
C0V850,蚵仔寮,2024-03-03,22.7256,120.2527,0.1308894
C0S740,池上,2024-03-03,23.119628,121.209469,2.7664633e-09
C1V390,尖山,2024-03-03,22.813153,120.367789,0.0029165503
C0AH70,松山,2024-03-03,25.04871,121.55042,1.1701309e-08
C0N010,鯤鯓國小,2024-03-03,23.1879,120.0889,4.624662e-07
C0R550,新埤,2024-03-03,22.467947,120.582894,0.20123114
C0SA60,知本（水試所）,2024-03-03,22.702394,121.082761,9.9961866e-08
C0T9I0,豐濱,2024-03-03,23.583897,121.514806,2.235203e-09
C0UB00,淡江大學蘭陽校園,2024-03-03,24.823239,121.730383,2.2346754e-08
C0T9N0,富里,2024-03-03,23.171639,121.249378,3.4595076e-09
U2HA50,臺大竹山,2024-03-03,23.756972,120.681556,5.164414e-09
C0V840,鳳鼻頭,2024-03-03,22.5083,120.3591,0.95691055
C0X140,西港,2024-03-03,23.125608,120.203108,0.005311185
72D080,桃改五峰分場,2024-03-03,24.612194,121.157167,7.634489e-09
C0V530,阿蓮,2024-03-03,22.883208,120.327508,0.36260894
C1O880,關山,2024-03-03,23.173397,120.594092,7.521806e-09
C0E791,卓蘭,2024-03-03,24.3126,120.8244,6.497049e-10
C1I030,武界,2024-03-03,23.913225,121.052483,8.3158774e-10
C0R520,崁頂,2024-03-03,22.514781,120.506914,0.9843623
C0R341,牡丹,2024-03-03,22.130036,120.792639,0.58972085
C0R930,萬丹,2024-03-03,22.5885,120.4851,0.9932272
C0S760,紅石,2024-03-03,23.069131,121.126219,1.6579985e-08
C1M610,石磐龍,2024-03-03,23.496606,120.663506,1.5982015e-09
C0UA10,鴛鴦湖,2024-03-03,24.590269,121.412228,4.156155e-09
V2C260,八德蔬果,2024-03-03,24.978508,121.281819,4.0128562e-08
C0R800,丹路,2024-03-03,22.204481,120.750989,0.9961953
C0G920,永靖,2024-03-03,23.924703,120.547533,3.367362e-09
C1A630,下盆,2024-03-03,24.771003,121.538622,1.3568269e-08
B2N890,畜產試驗所,2024-03-03,23.058972,120.336406,0.6265392
C0UA30,白嶺,2024-03-03,24.527819,121.519031,1.735577e-08
C1V580,溪南(特生中心),2024-03-03,23.084972,120.788475,5.1605142e-09
C1T970,大農,2024-03-03,23.615233,121.413331,2.3069127e-09
E2S960,林試太麻里2,2024-03-03,22.598014,120.989761,3.6266246e-07
C0R650,竹田,2024-03-03,22.58486,120.54344,0.9931271
C1H900,清流,2024-03-03,24.080775,120.962997,8.039451e-10
C1C510,水尾,2024-03-03,24.940081,121.087161,2.8073066e-06
C0F9X0,大雅(中科園區),2024-03-03,24.21528,120.62445,7.0114514e-10
C0O970,虎頭埤,2024-03-03,23.021375,120.347878,0.005098773
C0C730,中大臨海站,2024-03-03,24.966126,121.008581,4.9230726e-05
C0X250,新營,2024-03-03,23.310689,120.316681,0.13713512
C0V700,三民,2024-03-03,22.645017,120.311233,0.26284963
C0U870,大礁溪,2024-03-03,24.791042,121.675047,1.334854e-08
C0E870,高鐵苗栗,2024-03-03,24.60725,120.826094,3.6525904e-08
A2K570,古坑花卉中心,2024-03-03,23.63353,120.55239,2.5817192e-08
C0M860,新美,2024-03-03,23.338017,120.683169,7.8459106e-10
C1E701,八卦,2024-03-03,24.491756,120.927619,3.658529e-09
C0I420,國姓,2024-03-03,24.037803,120.855072,4.048964e-10
C0S960,香蘭,2024-03-03,22.587569,120.993375,3.6282367e-07
C0R260,春日,2024-03-03,22.370361,120.628306,4.0120756e-08
72G600,臺中農改場,2024-03-03,24.003028,120.534389,1.4338597e-09
C0Z210,瑞穗,2024-03-03,23.5239,121.39021,1.953677e-09
C0M820,達邦,2024-03-03,23.453994,120.749517,1.258877e-09
C0V860,南寮,2024-03-03,22.7616,120.2339,0.1308894
C0G740,大城,2024-03-03,23.852487,120.320935,4.2499305e-06
C0R920,塭仔,2024-03-03,22.4169,120.5197,1.6900572e-07
C0R470,高樹,2024-03-03,22.826389,120.600806,0.99948895
C0R680,佳樂水,2024-03-03,21.993578,120.861633,0.9834573
C1O870,大棟山,2024-03-03,23.31157,120.52226,1.0364349e-09
C0D360,梅花,2024-03-03,24.678347,121.208558,5.219473e-09
C0Z190,富世,2024-03-03,24.14743,121.6297,2.274395e-08
C0AI10,屈尺,2024-03-03,24.92184,121.54475,1.8285134e-07
B2U990,畜試東區分所,2024-03-03,24.669039,121.832561,7.288785e-09
C0R240,來義,2024-03-03,22.527306,120.625111,0.6195084
C1R610,西大武山,2024-03-03,22.617719,120.7322,1.7442751e-08
C0G900,線西,2024-03-03,24.143358,120.443536,5.1606523e-09
C0M700,竹崎,2024-03-03,23.526178,120.555508,1.8057236e-06
C2E880,三義,2024-03-03,24.405478,120.749819,1.4722957e-09
C0C720,竹圍,2024-03-03,25.112692,121.239824,2.3898923e-07
C0F9P0,清水,2024-03-03,24.312297,120.562242,8.312742e-09
C0Z150,吉安光華,2024-03-03,23.930925,121.595153,7.7246884e-09
C1D640,外坪(五指山),2024-03-03,24.644447,121.090961,6.2545094e-09
C0F9O0,潭子,2024-03-03,24.213106,120.703933,3.7139156e-10
72T250,花蓮農改場,2024-03-03,23.975222,121.563889,9.761867e-09
C0E780,銅鑼,2024-03-03,24.489681,120.790853,2.2227546e-09
C1T950,太安,2024-03-03,23.666719,121.370128,2.6582006e-08
C0E830,苑裡,2024-03-03,24.439714,120.653053,3.9683677e-08
467270,田中,2024-03-03,23.873803,120.581286,3.291654e-09
C0SA10,檳榔四格山,2024-03-03,22.810031,121.109308,1.3433278e-09
C1T830,布洛灣,2024-03-03,24.17184,121.57127,8.870451e-08
C0F970,大坑,2024-03-03,24.173142,120.722289,4.966414e-10
C1U920,思源,2024-03-03,24.393125,121.347214,7.086436e-09
C0A931,三和,2024-03-03,25.233153,121.595236,5.3787126e-08
C0I010,廬山,2024-03-03,24.033311,121.181808,2.9313232e-09
C0R860,鼻頭,2024-03-03,22.1043,120.8979,0.95053697
C0UB20,壯圍,2024-03-03,24.7359,121.8163,4.917477e-09
C0R790,九棚,2024-03-03,22.14195,120.889281,0.6737981
C0W110,東莒,2024-03-03,25.9652,119.98069,8.534687e-07
C1U930,粉鳥林,2024-03-03,24.497088,121.842479,8.4157685e-09
C1I211,蘆竹湳,2024-03-03,23.934019,120.811994,4.0306483e-10
C0S830,長濱,2024-03-03,23.286817,121.411975,4.4036113e-09
C1F9F1,伯公龍,2024-03-03,24.272392,120.849047,1.2970952e-09
C0E810,西湖,2024-03-03,24.562947,120.7485,0.00045560114
C1I440,新高口,2024-03-03,23.478744,120.878939,8.8041574e-08
C0O840,王爺宮,2024-03-03,23.222064,120.40085,0.00052818406
C0T9G0,鳳林山,2024-03-03,23.735269,121.420131,1.1266956e-08
C0X080,佳里,2024-03-03,23.173039,120.145086,4.624662e-07
C0Z310,清水斷崖,2024-03-03,24.218294,121.689142,1.0464288e-08
C0M680,太保,2024-03-03,23.455062,120.331455,0.00025456675
C1S820,金峰,2024-03-03,22.590969,120.933236,9.107971e-08
C0AD10,八里,2024-03-03,25.150211,121.403947,2.3898923e-07
C2K240,草嶺,2024-03-03,23.59555,120.693461,1.7511611e-09
C1SA70,都蘭,2024-03-03,22.87794,121.226881,1.3571109e-09
C0K440,二崙,2024-03-03,23.772797,120.408944,3.2867105e-09
C1A760,坪林交控,2024-03-03,24.94284,121.713442,2.8708854e-08
C0F9N0,大里,2024-03-03,24.092464,120.701378,9.924084e-10
C0SA90,達仁林場,2024-03-03,22.264347,120.823972,0.019334402
C1R290,石門山,2024-03-03,22.112611,120.756597,0.4416753
42HA10,萬大發電廠,2024-03-03,23.978875,121.139639,1.3276245e-09
C0R890,山海,2024-03-03,21.9878,120.7091,0.9265836
C0T9A0,月眉山,2024-03-03,23.809928,121.539828,8.915855e-09
C0AC70,信義,2024-03-03,25.037822,121.564597,1.1701309e-08
C0K560,棋山,2024-03-03,23.68645,120.603417,1.8586704e-08
C1Z240,中平林道,2024-03-03,23.42115,121.26763,3.526316e-08
U2H480,溪頭,2024-03-03,23.670306,120.798194,1.152398e-09
C0M880,好美里,2024-03-03,23.3364,120.138,9.059188e-06
C0T9E0,大坑,2024-03-03,23.880628,121.581981,6.9966397e-09
C0K530,臺西,2024-03-03,23.701547,120.197559,1.03200726e-07
C1E900,國一N128K,2024-03-03,24.560997,120.844186,4.2088857e-09
C0AJ50,水湳洞,2024-03-03,25.123695,121.862238,9.8543396e-08
C0AI20,白沙灣,2024-03-03,25.283128,121.519058,7.8686054e-07
C0A860,大坪,2024-03-03,25.165914,121.632969,1.8677966e-08
C1U850,觀音海岸,2024-03-03,24.38319,121.77856,8.0979365e-09
C0U950,鶯子嶺,2024-03-03,24.89754,121.79244,3.472533e-08
C0O900,善化,2024-03-03,23.112883,120.297219,0.87510407
C0K550,蔦松,2024-03-03,23.514319,120.229736,6.297087e-09
E2P980,林試六龜中心,2024-03-03,22.991703,120.645722,7.700918e-06
C0E590,通霄,2024-03-03,24.471892,120.704622,2.1875014e-05
C1I310,西巒,2024-03-03,23.754486,120.883956,1.1126473e-09
C0A550,泰平,2024-03-03,24.971197,121.823711,5.050954e-08
C0I360,水里,2024-03-03,23.812553,120.849792,7.303714e-10
C0R830,高士,2024-03-03,22.121825,120.836781,0.14754592
C1I101,溪頭,2024-03-03,23.661789,120.807647,5.684692e-09
C0AJ20,野柳,2024-03-03,25.20703,121.690021,8.042817e-08
C0B060,暖暖,2024-03-03,25.0957,121.7403,3.5811915e-08
C1H920,長豐,2024-03-03,24.102039,120.879897,6.32085e-10
C0V360,內門,2024-03-03,22.975481,120.466769,0.00086830155
C0R850,林邊,2024-03-03,22.4634,120.5339,0.27319914
C0E930,龍鳳,2024-03-03,24.700034,120.859125,0.0003377216
C0U910,冬山,2024-03-03,24.63373,121.7937,7.288785e-09
C1E721,泰安,2024-03-03,24.489017,120.968036,3.5796803e-09
82H320,茶改中部分場,2024-03-03,23.875611,120.913583,9.723878e-10
C0M750,布袋,2024-03-03,23.380878,120.167789,7.158969e-06
C1S860,利嘉,2024-03-03,22.809417,121.050528,1.1099474e-08
72C440,桃園農改,2024-03-03,24.950944,121.030583,9.706422e-06
E2S980,林試太麻里1,2024-03-03,22.598922,120.980044,1.8674497e-07
C0X170,關廟,2024-03-03,22.963017,120.327797,0.028143857
C0V720,林園,2024-03-03,22.507747,120.394511,0.9448267
C1I510,線浸林道,2024-03-03,23.761508,120.832956,1.3338378e-09
C0D690,外湖,2024-03-03,24.917735,120.968711,3.6922884e-05
C0C750,新興坑尾,2024-03-03,25.0061,121.0971,1.0382753e-05
B2Q810,畜試南區分所,2024-03-03,21.945583,120.802167,0.98177636
C0S790,金崙,2024-03-03,22.538122,120.966875,1.0412983e-07
C0AH90,福山植物園,2024-03-03,24.760717,121.58135,3.5219333e-08
C0I540,奇萊稜線,2024-03-03,24.109231,121.326456,2.7653568e-08
C0M850,表湖,2024-03-03,23.24186,120.64166,1.6755718e-09
C0S770,大溪山,2024-03-03,22.478475,120.943325,8.251926e-08
C0AG80,中和,2024-03-03,24.991622,121.491792,1.39047165e-08
C0T790,大禹嶺,2024-03-03,24.186117,121.316086,9.5234824e-09
C0T9B0,水源,2024-03-03,23.991861,121.537169,1.0354396e-08
C0R840,牡丹池山,2024-03-03,22.168389,120.841225,0.79644966
C1I131,桶頭,2024-03-03,23.641944,120.654117,2.0735351e-09
CAL110,布袋國中,2024-03-03,23.35893,120.18026,7.1986015e-06
467571,新竹,2024-03-03,24.827853,121.014219,8.3798506e-07
C0Z290,赤柯山,2024-03-03,23.36893,121.38293,1.498474e-08
C0X280,將軍,2024-03-03,23.214999,120.13577,7.2175253e-06
C0S690,太麻里,2024-03-03,22.60902,120.98533,2.4858478e-08
C0U880,北關,2024-03-03,24.9072,121.8734,3.7675946e-08
C1H860,瑞岩,2024-03-03,24.123772,121.18345,7.0791275e-09
C0G810,埔心,2024-03-03,23.947633,120.525456,3.367728e-09
C0U970,大福,2024-03-03,24.80064,121.81389,7.505211e-09
C1E670,南礦,2024-03-03,24.538278,121.002836,6.9727397e-09
C0M520,東後寮,2024-03-03,23.369908,120.248065,3.720897e-06
C1E461,松安,2024-03-03,24.397972,120.986022,2.3859734e-09
72G600,臺中農改,2024-03-03,24.003028,120.534389,1.4338597e-09
C2N160,西拉雅風管處,2024-03-03,23.189481,120.335297,0.9950494
C0A640,石碇,2024-03-03,24.993969,121.662917,2.6579826e-08
E2S960,林試太麻里2,2024-03-03,22.598,120.99775,3.9389317e-07
C0F9Y0,桃山,2024-03-03,24.432739,121.303808,1.238824e-08
C1I020,萬大,2024-03-03,23.979817,121.132261,1.7741603e-09
C0U940,羅東,2024-03-03,24.68184,121.74934,4.917749e-09
C0M650,朴子,2024-03-03,23.43463,120.23902,5.512276e-07
C1I500,大尖山,2024-03-03,23.858572,120.994889,6.233394e-09
C0G820,田尾,2024-03-03,23.901669,120.509389,3.367728e-09
E2K600,四湖植物園,2024-03-03,23.676986,120.163433,3.3163783e-08
C0S730,綠島,2024-03-03,22.6672,121.47533,0.8101243
12Q970,東港工作站,2024-03-03,22.479997,120.466058,0.34007314
C0E430,南庄,2024-03-03,24.601775,121.000214,2.0447783e-09
C1TA00,太魯閣,2024-03-03,24.15773,121.6236,2.2441277e-08
466920,臺北,2024-03-03,25.037658,121.514853,1.1701309e-08
C0R600,舊泰武,2024-03-03,22.588194,120.664944,8.962653e-10
C1I260,北坑,2024-03-03,23.9246,121.006903,4.1538148e-10
466910,鞍部,2024-03-03,25.182586,121.529731,3.7827302e-08
C1I230,九份二山,2024-03-03,23.961944,120.845,7.4195233e-10
C2A660,瑞芳,2024-03-03,25.113169,121.801147,7.907515e-08
C0R270,琉球嶼,2024-03-03,22.332244,120.362236,8.611059e-08
C1T990,高寮,2024-03-03,23.394239,121.356808,3.372401e-09
C0G620,芬園,2024-03-03,24.015678,120.6213,9.0385316e-10
C1Z140,荖溪,2024-03-03,23.890575,121.45964,3.2156503e-08
C1I201,中心崙,2024-03-03,23.728722,120.712097,7.2224243e-10
C1I400,凌霄,2024-03-03,24.018778,121.004456,2.4493478e-09
C1M640,十字,2024-03-03,23.492153,120.753683,4.494509e-09
G2P820,農試鳳山分所,2024-03-03,22.646611,120.356083,0.18377256
C0Z270,蕃薯寮,2024-03-03,23.73835,121.540108,1.0490948e-08
C0F9Q0,外埔,2024-03-03,24.347817,120.705686,1.512261e-09
C0K580,高鐵雲林,2024-03-03,23.737456,120.417944,3.0745033e-09
C2I090,鳳凰,2024-03-03,23.728081,120.787347,7.49485e-10
C0U990,員山,2024-03-03,24.74435,121.72247,4.8905946e-09
C0V770,大社,2024-03-03,22.730306,120.346639,0.0710907
C0X120,麻豆,2024-03-03,23.183289,120.248611,0.20905137
C0C670,龍潭,2024-03-03,24.870056,121.221389,5.1842335e-08
C0D680,香山濕地,2024-03-03,24.783581,120.914988,1.2720483e-07
C0S980,勝林山,2024-03-03,22.430439,120.8938,3.8294083e-08
C0V730,大寮,2024-03-03,22.605614,120.395717,0.5981392
C0R570,麟洛,2024-03-03,22.65078,120.52719,0.999035
CAG100,王功漁港,2024-03-03,23.96824,120.32586,1.3541322e-05
C0X290,北門,2024-03-03,23.267772,120.125481,7.2175253e-06
C2F930,大甲,2024-03-03,24.347667,120.640403,9.952105e-09
C0D650,湖口,2024-03-03,24.904794,121.043628,3.129874e-06
C0E420,竹南,2024-03-03,24.708978,120.888897,9.903292e-05
C0U780,五結,2024-03-03,24.68637,121.79794,4.9123585e-09
C1I250,鯉潭,2024-03-03,23.961922,120.991131,6.9945816e-10
C0R130,阿禮,2024-03-03,22.742908,120.743678,1.1585689e-09
C0X100,臺南市北區,2024-03-03,23.010394,120.194228,6.516412e-05
C0S920,金峰嘉蘭,2024-03-03,22.594789,120.960825,1.728691e-07
C0V490,新興,2024-03-03,22.627422,120.298803,0.65879077
C0F9K0,大安,2024-03-03,24.345061,120.588025,1.4518778e-08
72N100,臺南農改,2024-03-03,23.0605,120.342194,0.63130534
467290,古坑,2024-03-03,23.633639,120.551889,2.5817192e-08
C0V440,鳳山,2024-03-03,22.646653,120.356122,0.18377256
C1T940,大觀,2024-03-03,23.714206,121.373133,1.0835595e-08
72T250,花蓮農改,2024-03-03,23.975222,121.563889,9.761867e-09
C0E740,造橋,2024-03-03,24.637056,120.864778,3.65142e-08
C0R100,尾寮山,2024-03-03,22.833111,120.683889,8.7393004e-10
A2K630,臺大雲林校區,2024-03-03,23.730628,120.423903,3.0745033e-09
C0D580,寶山,2024-03-03,24.735006,121.025192,3.5705974e-09
E2P990,林試扇平站,2024-03-03,22.9677,120.6857,4.6792765e-09
C0AI30,三重,2024-03-03,25.057328,121.500629,1.17670655e-08
C0AH00,汐止,2024-03-03,25.066881,121.658778,1.1701309e-08
C1Z040,立山,2024-03-03,23.443356,121.327375,1.5072944e-08
C0R740,獅子,2024-03-03,22.201569,120.70525,0.99592817
C0W130,花嶼,2024-03-03,23.40007,119.32276,0.9830748
C0A950,鼻頭角,2024-03-03,25.129036,121.923372,3.9320898e-07
C0K470,林內,2024-03-03,23.748675,120.609642,1.0982848e-08
82C160,茶改場,2024-03-03,24.908472,121.185333,7.91503e-08
C0Z320,清水林道,2024-03-03,23.27125,121.188272,1.345544e-08
C0R760,南仁湖,2024-03-03,22.084681,120.863353,0.45677212
C0M670,大林,2024-03-03,23.600616,120.45841,1.46990615e-05
C0M800,茶山,2024-03-03,23.299075,120.664767,9.784081e-10
C0A9C0,天母,2024-03-03,25.117494,121.537169,4.3566285e-08
72K220,南改斗南分場,2024-03-03,23.634556,120.477333,7.209164e-08
72AI40,桃改樹林分場,2024-03-03,24.944503,121.386972,2.664036e-07
C0S910,蘭嶼燈塔,2024-03-03,22.081197,121.503117,0.9158781
C0B050,八斗子,2024-03-03,25.144754,121.79167,1.0727371e-07
C0U900,內城,2024-03-03,24.71813,121.68766,4.9024553e-09
C0X320,柳營,2024-03-03,23.253328,120.375253,0.77440673
C0M790,新港,2024-03-03,23.553269,120.345728,3.8002888e-08
C0F9T0,西屯,2024-03-03,24.179494,120.641275,5.999741e-10
C0SA30,都歷,2024-03-03,23.020333,121.323642,1.1902179e-09
C0C620,蘆竹,2024-03-03,25.084275,121.265767,4.5098867e-07
C0R730,大坪頂,2024-03-03,22.024633,120.69355,0.99741566
C0AJ40,石門,2024-03-03,25.273672,121.601198,3.913896e-07
C0E750,苗栗,2024-03-03,24.564569,120.824575,4.3554387e-09
C0T870,鯉魚潭,2024-03-03,23.935639,121.508944,7.7378415e-09
C1V170,排雲,2024-03-03,23.463619,120.954147,6.595292e-08
C2H950,中寮,2024-03-03,23.884447,120.766406,6.5342576e-10
C0R350,貓鼻頭,2024-03-03,21.921774,120.7358,0.23576441
C0V660,岡山,2024-03-03,22.797078,120.294958,0.3425066
C1H941,雙冬,2024-03-03,23.967378,120.802189,4.218045e-10
C0AJ70,田寮,2024-03-03,25.2698,121.4886,8.212152e-07
C0AI00,五股,2024-03-03,25.07445,121.42728,2.4619013e-08
C0Z280,德武,2024-03-03,23.47426,121.41071,2.829212e-09
C0R700,枋山,2024-03-03,22.246844,120.661086,0.99689066
C0C460,復興,2024-03-03,24.820208,121.352281,1.3192515e-07
E2H360,蓮華池,2024-03-03,23.918333,120.885278,4.5674622e-10
C0M640,中埔,2024-03-03,23.42538,120.5229,9.354471e-07
C0W140,金沙,2024-03-03,24.488292,118.408778,3.1154664e-06
C2A540,四堵,2024-03-03,24.8926,121.745736,2.6519768e-08
C0ACA0,新莊,2024-03-03,25.051478,121.446756,9.20644e-09
C0R220,潮州,2024-03-03,22.534361,120.54,0.97978956
U2HA40,臺大內茅埔,2024-03-03,23.689722,120.851117,6.478735e-10
467490,臺中,2024-03-03,24.145736,120.684075,5.84057e-10
C0U960,翠峰湖,2024-03-03,24.510856,121.608044,2.2596632e-08
E2HA20,林試畢祿溪站,2024-03-03,24.226944,121.308522,1.21289965e-08
C0V890,前鎮,2024-03-03,22.5718,120.3117,0.68835884
467620,蘭嶼,2024-03-03,22.036969,121.558339,0.98355836
C1F941,雪嶺,2024-03-03,24.280586,121.026642,1.4008534e-08
C0AC80,文山,2024-03-03,25.00235,121.575728,1.3246353e-08
C0F9R0,龍井,2024-03-03,24.184536,120.528972,6.1648397e-09
C0M760,民雄,2024-03-03,23.551754,120.428457,1.7762182e-05
C0UA40,西德山,2024-03-03,24.560647,121.752608,2.1313173e-08
C1T920,中興,2024-03-03,23.769503,121.498653,7.718561e-09
C0D550,雪霸,2024-03-03,24.526972,121.11605,2.5906661e-09
C2F860,梨山,2024-03-03,24.247522,121.243669,1.2420678e-08
C0R320,車城,2024-03-03,22.0744,120.716247,0.9997056
C1S870,南美山,2024-03-03,23.15025,121.382333,3.4484464e-09
C0B020,基隆嶼,2024-03-03,25.19141,121.78391,6.378382e-07
C1U501,牛鬥,2024-03-03,24.637836,121.573656,9.046902e-09
C0M730,嘉義市東區,2024-03-03,23.457673,120.460531,5.3114116e-05
C0S700,知本,2024-03-03,22.684866,121.005642,1.5599001e-08
C1N001,沙崙,2024-03-03,22.935472,120.309406,0.06061935
C0V760,橋頭,2024-03-03,22.757806,120.30575,0.08779525
C0G960,福寶,2024-03-03,24.0443,120.3814,5.3700684e-09
C0X210,白河,2024-03-03,23.347466,120.414427,6.2654966e-05
C0S810,東河,2024-03-03,22.972672,121.303986,4.2634014e-08
C0R670,楓港,2024-03-03,22.190131,120.692156,0.9998712
C0FA50,霧峰,2024-03-03,24.0419,120.6995,1.0600767e-09
C0UB10,蘇澳,2024-03-03,24.5969,121.8571,1.1395985e-08
C0G950,防潮門,2024-03-03,24.1835,120.4871,6.1684036e-09
C0M740,六腳,2024-03-03,23.492871,120.290625,1.710253e-07
C1R250,力里,2024-03-03,22.428117,120.629228,8.00384e-08
C0K330,虎尾,2024-03-03,23.719183,120.442036,2.7119618e-09
C2FA00,烏石坑,2024-03-03,24.273503,120.947617,1.3999713e-09
C0V620,永安,2024-03-03,22.82315,120.236856,0.3425066
C1I330,楓樹林,2024-03-03,23.986803,121.076117,1.9940003e-09
C0W200,湖西,2024-03-03,23.596314,119.67275,0.7406209
72Q010,高雄農改場,2024-03-03,22.709333,120.525889,0.9998797
C0SA40,瑞和,2024-03-03,22.974361,121.156697,1.0229602e-09
C0C680,龜山,2024-03-03,25.02846,121.38656,2.2129079e-08
C2V260,月眉,2024-03-03,22.971003,120.539853,0.47861016
C0V450,鳳森,2024-03-03,22.545064,120.392592,0.8176879
C0U720,南山,2024-03-03,24.43742,121.38167,7.712881e-09
A2N290,臺南蘭花園區,2024-03-03,23.340258,120.379661,0.00035502532
C0R560,新園,2024-03-03,22.5434,120.461558,0.9448267
C0U890,三星,2024-03-03,24.66812,121.65302,8.989948e-09
C1V300,御油山,2024-03-03,23.001983,120.715364,6.901186e-09
C0U600,礁溪,2024-03-03,24.817539,121.765608,2.3485399e-08
C1T980,龍澗,2024-03-03,24.023289,121.411328,5.0370712e-08
C0D670,海天一線,2024-03-03,24.831986,120.914438,0.990861
C0SA00,歷坵,2024-03-03,22.520969,120.89185,3.6830993e-08
C0M710,東石,2024-03-03,23.458927,120.15385,9.040471e-08
C0M780,鹿草,2024-03-03,23.41134,120.30835,5.4902983e-07
C0U520,雙連埤,2024-03-03,24.753033,121.641303,1.3329052e-08
C0B010,七堵,2024-03-03,25.094819,121.71713,3.96752e-08
C0R480,長治,2024-03-03,22.693128,120.542622,0.15141092
C1V830,國三S383K,2024-03-03,22.781967,120.426475,0.50385195
12Q980,恆春工作站,2024-03-03,22.079678,120.714425,0.9997056
C1O940,東山服務區,2024-03-03,23.286016,120.398472,0.00065564533
C1U840,東澳嶺,2024-03-03,24.5378,121.8485,1.3030073e-08
C1D630,飛鳳山,2024-03-03,24.766464,121.119178,7.313908e-09
C0S940,石寧山,2024-03-03,23.223772,121.406639,5.4136216e-09
C0K410,北港,2024-03-03,23.573957,120.292802,2.4056548e-09
C2M620,瑞里,2024-03-03,23.545133,120.675197,1.8968438e-09
C2O950,安南,2024-03-03,23.076694,120.144861,1.3680862e-07
C0F0E0,南湖圈谷,2024-03-03,24.363714,121.444667,2.555338e-08
467610,成功,2024-03-03,23.097486,121.373428,3.3313827e-09
C0G890,伸港,2024-03-03,24.148933,120.484403,5.1563624e-09
C2E540,龍溪,2024-03-03,24.606489,120.783933,3.8779564e-08
C1V200,梅山,2024-03-03,23.268447,120.823556,7.803694e-09
C0T9H0,加路蘭山,2024-03-03,23.682947,121.5274,1.5704083e-08
C2O930,玉井,2024-03-03,23.126042,120.46055,0.0075683864
C1F911,新伯公,2024-03-03,24.221361,120.841069,8.5180524e-10
C0R490,九如,2024-03-03,22.7405,120.490503,0.999885
C0X200,左鎮,2024-03-03,23.056758,120.408522,0.007159571
C1F891,稍來,2024-03-03,24.265689,121.001142,6.149831e-09
72N240,七股研究中心,2024-03-03,23.081672,120.062894,1.4973762e-07
C0C700,中壢,2024-03-03,24.977661,121.256375,3.6340158e-08
C0M690,水上,2024-03-03,23.419734,120.388909,0.00021191708
C0V690,鼓山,2024-03-03,22.623325,120.275575,0.6588325
C0O860,大內,2024-03-03,23.11885,120.36083,0.74561095
C0Z200,萬榮,2024-03-03,23.709219,121.420106,1.0586789e-08
C0T9D0,和中,2024-03-03,24.26676,121.74103,1.1798304e-08
C1O921,楠西,2024-03-03,23.183511,120.484083,0.00012713441
C0AJ30,淡水觀海,2024-03-03,25.184591,121.408616,2.4612964e-07
C0V810,左營,2024-03-03,22.67491,120.28491,0.26284963
C0UA70,桃源谷,2024-03-03,24.962606,121.888875,4.6360856e-08
C0X130,官田,2024-03-03,23.193217,120.315422,0.9962129
C1H000,翠峰,2024-03-03,24.109397,121.205211,9.884154e-09
C0UA90,石城,2024-03-03,24.980444,121.951214,2.976487e-08
C1E681,南勢山,2024-03-03,24.421669,120.923831,2.7949443e-09
C0A9F0,內湖,2024-03-03,25.079422,121.57545,1.1701309e-08
C0K291,宜梧,2024-03-03,23.536281,120.169329,6.297087e-09
C1K540,口湖,2024-03-03,23.585344,120.180517,7.392155e-08
C0R780,滿州,2024-03-03,22.024403,120.839892,0.9942733
C0V870,文安,2024-03-03,22.8025,120.2164,0.39584193
C0U650,玉蘭,2024-03-03,24.675286,121.587061,1.3219246e-08
C0R640,東港,2024-03-03,22.46247,120.44074,0.34017944
K2E360,苗栗農改,2024-03-03,24.495722,120.829111,2.276334e-09
C0AJ80,板橋,2024-03-03,25.0107,121.4489,1.4501149e-08
C0S660,下馬,2024-03-03,23.150427,121.070312,1.1947537e-08
C1H9B1,阿眉,2024-03-03,24.1263,120.994672,6.227571e-09
C0UA20,多加屯,2024-03-03,24.368614,121.373189,7.2236124e-09
C0E730,頭份,2024-03-03,24.688247,120.912206,0.00014828828
72V140,高改旗南分場,2024-03-03,22.857861,120.516667,0.9968026
C0K480,莿桐,2024-03-03,23.761192,120.502372,1.1631927e-08
C0U980,坪林石牌,2024-03-03,24.86478,121.77396,2.1096069e-08
C0T900,西林,2024-03-03,23.8119,121.441458,7.905189e-09
C1I150,青雲,2024-03-03,23.793361,120.949378,4.118417e-10
467350,澎湖,2024-03-03,23.565503,119.563094,0.89727587
C0G800,埔鹽,2024-03-03,24.000394,120.431683,3.7477257e-09
C0H960,草屯,2024-03-03,23.973672,120.68085,9.431539e-10
C1V780,多納林道,2024-03-03,22.888028,120.737917,1.3351232e-09
C0E920,通霄漁港,2024-03-03,24.498589,120.673876,7.947208e-05
C0Z330,安通山,2024-03-03,23.290728,121.348528,5.0997118e-09
C0AH10,永和,2024-03-03,25.01125,121.508111,1.4501149e-08
C2G640,鹿港,2024-03-03,24.0753,120.430481,5.375479e-09
C1E890,國三N149K,2024-03-03,24.463414,120.680019,2.711658e-08
C1R110,口社,2024-03-03,22.770111,120.645222,0.00043527773
C1M870,國三N285K,2024-03-03,23.550319,120.505833,3.71769e-08
467050,新屋,2024-03-03,25.006744,121.047486,2.9971417e-05
C1E480,鳳美,2024-03-03,24.554803,121.034747,5.2254494e-09
C0M530,奮起湖,2024-03-03,23.493903,120.699253,2.1200857e-09
C0C590,觀音,2024-03-03,25.027072,121.153317,2.6090927e-05
C0T9M0,靜浦,2024-03-03,23.455167,121.495028,2.5883446e-09
C0AI40,石牌,2024-03-03,25.115597,121.513139,4.4494413e-08
C1F871,上谷關,2024-03-03,24.203483,121.018644,1.1635916e-09
C0G880,二水,2024-03-03,23.810742,120.6173,3.888027e-09
C0R940,加祿堂,2024-03-03,22.3363,120.6217,0.99881786
C0W220,北竿,2024-03-03,26.220358,119.974881,1.1204925e-06
C0O960,崎頂,2024-03-03,22.959547,120.369317,0.00061312556
C0S750,向陽,2024-03-03,23.248397,120.986133,1.0247964e-08
C0T9F0,水璉,2024-03-03,23.797131,121.542514,8.083138e-09
C1M600,頭凍,2024-03-03,23.406364,120.603339,1.88862e-09
467660,臺東,2024-03-03,22.752211,121.154586,7.506646e-08
C1D380,新埔,2024-03-03,24.84745,121.03834,2.680489e-07
C0V750,路竹,2024-03-03,22.854997,120.259439,0.056758173
C0N050,蚵寮,2024-03-03,23.301,120.1104,9.059188e-06
72M700,南改鹿草分場,2024-03-03,23.416869,120.283061,5.512276e-07
C1SA50,利嘉林道,2024-03-03,22.82325,121.009389,8.667178e-09
467550,玉山,2024-03-03,23.487614,120.959522,1.3917976e-07
C0A940,金山,2024-03-03,25.223628,121.643967,7.755531e-08
C1V340,大津,2024-03-03,22.888322,120.645986,0.00018509245
C0W180,七美,2024-03-03,23.219333,119.444892,0.9654873
C1F9C1,白冷,2024-03-03,24.182844,120.929889,9.83713e-10
K2E710,苗改生物防治研究中心,2024-03-03,24.422861,120.871833,1.1196364e-09
C0N040,蘆竹溝,2024-03-03,23.2344,120.0961,7.2175253e-06
C2W230,畜試所澎湖,2024-03-03,23.628342,119.513206,0.9424018
C0R880,後壁湖,2024-03-03,21.9457,120.7457,0.91825485
C1I280,埔中,2024-03-03,23.820778,120.642594,6.660021e-10
467790,墾丁雷達站,2024-03-03,21.948235,120.808028,0.98956907
C0W190,望安,2024-03-03,23.380564,119.494075,0.92260164
466881,新北,2024-03-03,24.9593,121.52,1.3818552e-08
C0Z170,卓溪,2024-03-03,23.3443,121.3029,3.5469419e-09
C0F850,東勢,2024-03-03,24.246428,120.833047,4.1905077e-10
466900,淡水,2024-03-03,25.164889,121.448906,2.2556698e-07
C0I370,魚池,2024-03-03,23.895703,120.94135,4.5462897e-10
C0C630,大溪,2024-03-03,24.882853,121.265547,6.738688e-08
C0A520,山佳,2024-03-03,24.974944,121.402008,1.8901309e-08
C0I110,竹山,2024-03-03,23.761225,120.688156,2.6324671e-09
82H840,茶改南部分場,2024-03-03,23.762528,120.7405,6.730396e-10
C0G660,溪湖,2024-03-03,23.94835,120.479122,3.7644394e-09
C1T800,洛韶,2024-03-03,24.204558,121.453956,3.90513e-08
C1T810,慈恩,2024-03-03,24.192044,121.388386,4.151908e-09
C1E451,象鼻,2024-03-03,24.368617,120.940228,2.3396862e-09
C0AC60,三峽,2024-03-03,24.939025,121.369728,2.3400739e-07
C0I490,萬大林道,2024-03-03,23.928228,121.091411,2.5914568e-09
C1I290,豐丘,2024-03-03,23.668178,120.887417,1.2447969e-09
C1I320,奧萬大,2024-03-03,23.952956,121.178556,1.6142856e-09
C0U770,南澳,2024-03-03,24.44935,121.81022,7.4406428e-09
C0A980,社子,2024-03-03,25.109508,121.469681,2.53452e-07
C0V800,六龜,2024-03-03,22.997889,120.633583,1.2067143e-05
C1G9D0,國一S218K,2024-03-03,23.890641,120.493253,6.357149e-09
C2F9A0,中竹林,2024-03-03,24.103556,120.751061,4.3869344e-10
C0FA40,臺中電廠,2024-03-03,24.2146,120.4907,6.1648397e-09
C0H9C0,合歡山,2024-03-03,24.143442,121.272547,1.7458161e-08
C0X060,下營,2024-03-03,23.22695,120.256261,0.88114536
G2M350,農試溪口農場,2024-03-03,23.58565,120.408111,2.4928548e-05
C0U860,頭城,2024-03-03,24.85323,121.8308,2.383741e-08
C0R580,南州,2024-03-03,22.48591,120.50274,0.34017944
C0D430,峨眉,2024-03-03,24.6905,121.017189,5.940973e-09
C0G780,秀水,2024-03-03,24.03405,120.503869,1.4338597e-09
72N100,臺南農改場,2024-03-03,23.0605,120.342194,0.63130534
C0S900,蘭嶼高中,2024-03-03,22.04909,121.51214,0.8036105
467540,大武,2024-03-03,22.355675,120.903789,0.65569377
C1F9W0,德基,2024-03-03,24.254783,121.190261,4.8193023e-09
C1Z120,壽豐,2024-03-03,23.870853,121.508081,6.117751e-09
C0W160,烏坵,2024-03-03,24.9944,119.44956,0.0014003615
C1I240,外大坪,2024-03-03,23.958697,120.917931,7.031942e-10
C1I550,國六W023K,2024-03-03,23.979067,120.867742,3.910008e-10
C0R870,興海,2024-03-03,21.9752,120.8439,0.98177636
C0R140,瑪家,2024-03-03,22.682903,120.686639,1.2555822e-09
C0A530,坪林,2024-03-03,24.938183,121.70975,2.7408866e-08
C0X260,後壁,2024-03-03,23.366358,120.362326,0.00035502532
C0Z230,和平,2024-03-03,24.30717,121.77007,1.1894015e-08
C0G770,福興,2024-03-03,24.041289,120.437669,3.7477257e-09
C0H9A0,神木村,2024-03-03,23.532742,120.843667,4.607821e-09
C0I460,南投,2024-03-03,23.911469,120.687331,4.819778e-10
C0I480,梅峰,2024-03-03,24.085272,121.173572,5.369874e-09
C1V570,吉東,2024-03-03,22.85422,120.5454,0.9948241
C2A560,福山,2024-03-03,24.776203,121.502811,4.008817e-08
C0AH30,五分山,2024-03-03,25.07125,121.780794,4.6564864e-08
C0FA10,松柏,2024-03-03,24.429115,120.617482,4.654302e-08
72S200,東改班鳩分場,2024-03-03,22.829528,121.077694,1.3076076e-09
72HA00,中改埔里分場,2024-03-03,23.903208,120.963364,4.3592674e-10
C0C650,平鎮,2024-03-03,24.897503,121.214636,8.630165e-08
C0S930,延平,2024-03-03,22.902581,121.084058,1.1593824e-09
C0UA60,樟樹山,2024-03-03,24.41393,121.78325,2.9812085e-08
C1S670,摩天,2024-03-03,23.199503,121.027,2.368572e-08
C0V630,茄萣,2024-03-03,22.906642,120.182608,0.08757295
466940,基隆,2024-03-03,25.133314,121.740475,1.036242e-07
C0X050,東河,2024-03-03,23.296598,120.385608,0.0023512356
C0R770,保力,2024-03-03,22.071122,120.764111,0.99920845
G2L020,農試嘉義分所,2024-03-03,23.485028,120.473806,3.045529e-05
C0X240,關子嶺,2024-03-03,23.331169,120.508025,7.5119666e-10
C0I380,集集,2024-03-03,23.828206,120.801467,7.4094825e-10
466990,花蓮,2024-03-03,23.975128,121.613275,9.878669e-09
C1V220,小關山,2024-03-03,23.154217,120.813603,4.8058366e-09
C1F9G1,慶福山,2024-03-03,24.180853,120.848378,7.48922e-10
C0Z250,瑞穗林道,2024-03-03,23.49284,121.30688,3.5809116e-08
C0D590,新豐,2024-03-03,24.87068,120.97721,0.8861434
C0A870,五指山,2024-03-03,25.132153,121.608692,1.9006364e-08
C0UA50,西帽山,2024-03-03,24.555361,121.802628,1.9251912e-08
C0X160,仁德,2024-03-03,22.968258,120.257689,0.64342433
C1H971,六分寮,2024-03-03,23.92507,120.6378,4.4388918e-10
C0W120,西嶼,2024-03-03,23.5626,119.468436,0.9693375
C0G650,員林,2024-03-03,23.946503,120.585597,1.616652e-09
C0AD50,鶯歌,2024-03-03,24.951533,121.346294,2.0008443e-07
C0S990,山豬窟,2024-03-03,22.318619,120.857372,0.004965665
72Q010,高雄農改,2024-03-03,22.709333,120.525889,0.9998797
C0X190,安平,2024-03-03,22.993161,120.152181,6.540829e-05
C0K400,斗六,2024-03-03,23.720583,120.541127,3.0833785e-08
12J990,口湖工作站,2024-03-03,23.589978,120.180394,7.385362e-08
C0O830,北寮,2024-03-03,23.079561,120.495008,1.1636574e-06
C1D410,白蘭,2024-03-03,24.579364,121.079947,7.329018e-09
C0S970,加津林,2024-03-03,22.416211,120.926942,0.48741978
C0D700,關西,2024-03-03,24.7977,121.1732,6.262591e-09
C0M810,里佳,2024-03-03,23.389125,120.716647,2.493259e-09
C0U750,龜山島,2024-03-03,24.841667,121.953133,2.9530912e-07
C0R810,內獅,2024-03-03,22.305064,120.642986,0.99888617
C1M390,龍美,2024-03-03,23.406728,120.654417,2.0204278e-09
C1H840,國三N238K,2024-03-03,23.841008,120.707711,5.077328e-10
CAQ030,崎峰國小,2024-03-03,22.42565,120.49521,0.34017944
C2E520,大湖,2024-03-03,24.414939,120.870872,1.1571025e-09
467530,阿里山,2024-03-03,23.508208,120.813242,5.4377885e-08
C1E691,南湖,2024-03-03,24.40135,120.837533,2.3039488e-09
C0FA30,梧棲,2024-03-03,24.256003,120.523381,8.312742e-09
C1V231,高中,2024-03-03,23.134911,120.716711,2.0159587e-09
C0F9V0,新社,2024-03-03,24.200172,120.815806,9.040687e-10
C0H890,埔里,2024-03-03,23.972169,120.952425,3.9954923e-10
C0R690,墾丁,2024-03-03,21.966756,120.810269,0.99798715
C0F0D0,審馬陣,2024-03-03,24.381675,121.4203,1.17208545e-08
C0R820,白鷺,2024-03-03,22.454275,120.666219,6.5350303e-10
U2H480,臺大溪頭,2024-03-03,23.670306,120.798194,1.1523936e-09
C1V190,南天池,2024-03-03,23.27403,120.91176,2.420393e-08
K2E360,苗栗農改場,2024-03-03,24.495722,120.829111,2.276334e-09
CAJ050,海口故事園區,2024-03-03,23.57543,120.14121,7.392155e-08
C0O990,媽廟,2024-03-03,22.99175,120.293525,0.26450822
C0D480,打鐵坑,2024-03-03,24.849664,121.150789,5.172845e-08
C0Z220,和平林道,2024-03-03,24.343922,121.656317,7.75677e-09
72C440,桃園農改場,2024-03-03,24.950944,121.030583,9.706422e-06
C1E711,馬拉邦山,2024-03-03,24.367306,120.901656,2.4102935e-09
C0D560,竹東,2024-03-03,24.767147,121.057881,6.504318e-09
C0F9U0,南屯,2024-03-03,24.137006,120.637969,7.0364503e-10
C0M720,番路,2024-03-03,23.464657,120.554156,1.4845791e-07
C0F0A0,雪山圈谷,2024-03-03,24.388594,121.236339,1.8706416e-08
C1A9N0,四十份,2024-03-03,24.934158,121.593283,5.835498e-08
C0U760,東澳,2024-03-03,24.52196,121.83318,8.274492e-09
C0X230,鹽水,2024-03-03,23.272621,120.247641,5.924895e-06
C0V370,古亭坑,2024-03-03,22.893178,120.401947,0.0031433231
C1I340,新興橋,2024-03-03,23.563333,120.868728,1.5170886e-09
C0SA80,土坂,2024-03-03,22.453108,120.887572,1.0951723e-06
C0R160,鹽埔,2024-03-03,22.739558,120.530778,0.9998797
C0AC40,大屯山,2024-03-03,25.175675,121.522408,3.813744e-08
466850,五分山雷達站,2024-03-03,25.071182,121.781205,4.646904e-08
C1AI50,國三N016K,2024-03-03,25.034164,121.619664,1.1289716e-08
C1V600,藤枝,2024-03-03,23.071961,120.757042,4.519999e-09
C1E601,南勢,2024-03-03,24.572486,120.734842,2.7018341e-05
C0Z180,新城,2024-03-03,24.03946,121.60454,9.851085e-09
C0O980,新市,2024-03-03,23.061614,120.298197,0.87510407
C0K420,西螺,2024-03-03,23.800407,120.467394,2.892126e-09
C0Z050,佳心,2024-03-03,23.34567,121.21316,1.4701049e-08
C0AD30,蘆洲,2024-03-03,25.086594,121.472331,1.17670655e-08
C0V610,梓官,2024-03-03,22.760558,120.267211,0.08779525
K2F750,種苗改良場,2024-03-03,24.225972,120.800917,8.6958696e-10
C0UA80,大溪漁港,2024-03-03,24.941801,121.902955,3.736272e-08
C1AI60,國一39K邊坡,2024-03-03,25.064361,121.383836,2.3157837e-08
C0W150,金寧,2024-03-03,24.457703,118.328989,1.5137111e-06
V2C250,八德合作社,2024-03-03,24.93775,121.266389,1.1613986e-07
C0AH40,平等,2024-03-03,25.129142,121.577086,1.864362e-08
C0R540,佳冬,2024-03-03,22.419456,120.552375,1.4534481e-07
466950,彭佳嶼,2024-03-03,25.627975,122.079744,1.2695105e-05
C0A890,雙溪,2024-03-03,25.036003,121.864242,2.7382061e-08
C0C480,桃園,2024-03-03,24.992425,121.323172,4.129851e-08
C0AH50,林口,2024-03-03,25.072181,121.38084,2.1132557e-08
A2K360,水試臺西試驗場,2024-03-03,23.717231,120.190522,1.2681178e-07
B2N890,畜試所,2024-03-03,23.058972,120.336406,0.6265392
C0F9S0,烏日,2024-03-03,24.107058,120.624103,1.249016e-09
C0C490,八德,2024-03-03,24.928708,121.283289,1.1085726e-07
C0R190,赤山,2024-03-03,22.592333,120.614306,0.9867616
C0T820,天祥,2024-03-03,24.179597,121.495639,6.399732e-08
C1F9E1,龍安,2024-03-03,24.1605,120.831961,6.7039524e-10
C0V820,小林,2024-03-03,23.148408,120.63325,3.3188317e-09
C2G870,芳苑,2024-03-03,23.922303,120.320025,1.2400033e-05
C0E850,大河,2024-03-03,24.618069,120.948578,2.6560099e-09
C1U670,寒溪,2024-03-03,24.634,121.71691,6.950167e-09
C0N020,城西,2024-03-03,23.0568,120.0956,6.516412e-05
C1Z110,三棧,2024-03-03,24.11557,121.60501,5.0574513e-08
C0R280,檳榔,2024-03-03,22.076078,120.836777,0.5803984
C0F9L0,后里,2024-03-03,24.310436,120.729725,5.854657e-10
C0D540,橫山,2024-03-03,24.71116,121.11693,3.4228833e-09
C1D420,太閣南,2024-03-03,24.632808,121.160575,5.679988e-09
C1E770,公館,2024-03-03,24.526914,120.830806,2.396779e-09
CAN130,水試所海水繁養殖中心,2024-03-03,23.120802,120.07968,1.4973762e-07
C1I430,翠華,2024-03-03,24.191961,121.224339,6.34068e-09
C1M400,菜瓜坪,2024-03-03,23.251928,120.576103,6.67e-10
C0G730,二林,2024-03-03,23.903325,120.376081,2.2110926e-09
72M360,南改義竹分場,2024-03-03,23.360694,120.279361,3.7381185e-06
V2K620,麥寮合作社,2024-03-03,23.753836,120.294783,1.6659479e-09
C0Z070,舞鶴,2024-03-03,23.46811,121.37407,2.9492075e-09
C0B040,大武崙,2024-03-03,25.166676,121.706993,9.380291e-08
C1Z030,紅葉,2024-03-03,23.493119,121.338806,2.1075428e-09
C1I050,丹大,2024-03-03,23.753747,121.141147,4.4584865e-09
C0I080,信義,2024-03-03,23.689694,120.851036,6.478735e-10
C2A880,福隆,2024-03-03,25.017842,121.942083,3.0093798e-08
C0Z160,鳳林,2024-03-03,23.746114,121.453411,1.0735227e-08
C0V210,復興,2024-03-03,23.222403,120.806089,1.1465229e-08
C0H990,昆陽,2024-03-03,24.121322,121.273642,1.6287297e-08
C0S710,鹿野,2024-03-03,22.917711,121.122994,1.0741653e-09
C0I530,小奇萊,2024-03-03,24.131764,121.295717,1.7273537e-08
C0Z080,富源,2024-03-03,23.587642,121.378225,1.3387346e-08
467441,高雄,2024-03-03,22.7304,120.3125,0.0710907
C1I140,卡奈托灣,2024-03-03,23.754364,121.087872,5.727595e-09
C0I520,玉山風口,2024-03-03,23.470489,120.955994,1.4730078e-07
C1G691,下水埔,2024-03-03,23.816114,120.5676,9.626685e-09
C0X110,臺南市南區,2024-03-03,22.961189,120.188378,0.64342433
C0V680,仁武,2024-03-03,22.701083,120.347722,0.26381502
C2G840,北斗,2024-03-03,23.877586,120.514222,6.0770007e-09
C0R900,竹坑,2024-03-03,22.1385,120.7022,0.99972034
C0K250,崙背,2024-03-03,23.75555,120.318925,1.6663833e-09
C0G860,社頭,2024-03-03,23.897647,120.5862,3.7083114e-09
C0X150,安定,2024-03-03,23.102614,120.227839,0.005311185
C0R590,里港,2024-03-03,22.77919,120.49459,0.9558142
C0E610,馬都安,2024-03-03,24.451272,120.930192,2.421454e-09
C0E550,明德,2024-03-03,24.583486,120.885411,4.1138657e-09
C0R150,三地門,2024-03-03,22.709889,120.639944,0.00055758376
C0G910,花壇,2024-03-03,24.032076,120.549461,1.2169473e-09
C1D400,鳥嘴山,2024-03-03,24.71909,121.28387,6.934463e-09
C0K500,元長,2024-03-03,23.64981,120.315024,1.7256074e-09
C0F0B0,石岡,2024-03-03,24.276061,120.777644,6.146732e-10
C2V250,甲仙,2024-03-03,23.080106,120.591758,2.7689827e-08
C0SA20,金崙山,2024-03-03,22.567419,120.959667,1.747032e-08
C0V350,溪埔,2024-03-03,22.738578,120.446797,0.77637887
C0M660,溪口,2024-03-03,23.604131,120.403569,2.4928548e-05
C1S880,壽卡,2024-03-03,22.238911,120.858903,0.06246814
72D680,桃改新埔分場,2024-03-03,24.834444,121.066111,3.1498925e-07
