站號,站名,日期,lat,lon,BLBTSLS
C0R710,龍磐,2024-12-10,21.931672,120.838942,0.72140664
C1F9D1,白毛台,2024-12-10,24.158325,120.886933,5.918678e-10
C0G940,竹塘,2024-12-10,23.848253,120.386764,9.116357e-10
467590,恆春,2024-12-10,22.003897,120.746339,0.13314052
C1O850,環湖,2024-12-10,23.148617,120.418633,1.635222e-09
C0U710,太平山,2024-12-10,24.505486,121.525656,1.4522295e-08
C0E820,獅潭,2024-12-10,24.539133,120.920042,1.7208843e-09
C0V880,興達,2024-12-10,22.8778,120.2127,1.6644883e-06
C0S890,關山,2024-12-10,23.0395,121.175017,9.438917e-10
K2F750,種苗繁殖,2024-12-10,24.225972,120.800917,4.5697304e-09
C1Z130,銅門,2024-12-10,23.965694,121.492842,1.80297e-08
C0AD40,土城,2024-12-10,24.973208,121.445169,0.94406605
CAN140,六官養殖協會,2024-12-10,23.22881,120.29962,3.0764569e-09
C0X180,山上,2024-12-10,23.0757,120.363253,1.2151498e-09
C0F9Z0,雪山東峰,2024-12-10,24.388792,121.268675,1.6256447e-08
C1M480,獨立山,2024-12-10,23.537022,120.607797,1.0593592e-09
C0X220,學甲,2024-12-10,23.230367,120.182187,1.4109218e-09
C0R170,屏東,2024-12-10,22.660269,120.494072,1.2004882e-06
467650,日月潭,2024-12-10,23.881325,120.90805,1.0464842e-09
C0K600,箔子寮,2024-12-10,23.6197,120.14,5.176384e-07
C0G830,埤頭,2024-12-10,23.866003,120.452806,1.1815999e-09
C0S950,七塊厝,2024-12-10,22.954453,121.229922,9.947791e-10
467110,金門,2024-12-10,24.407306,118.289281,0.7975529
C0AH80,深坑,2024-12-10,25.002703,121.628328,0.9173363
467990,馬祖,2024-12-10,26.169269,119.923419,1.0496107e-05
C0A970,三貂角,2024-12-10,25.007606,122.002058,1.1634938e-07
C0K430,褒忠,2024-12-10,23.690938,120.303634,1.1227029e-09
467480,嘉義,2024-12-10,23.495925,120.432906,8.375399e-09
C2E540,後龍,2024-12-10,24.606489,120.783933,0.011192408
C0V400,阿公店,2024-12-10,22.804194,120.355528,1.498662e-09
C0R440,大漢山,2024-12-10,22.405264,120.753181,1.2133462e-08
C0K280,四湖,2024-12-10,23.630414,120.227125,6.855207e-08
C1F9B1,桐林,2024-12-10,24.066172,120.735194,1.07074605e-07
C0K390,土庫,2024-12-10,23.679029,120.395574,1.1516246e-09
C1I450,望鄉山,2024-12-10,23.594153,120.944286,2.2028516e-08
C0E910,海埔,2024-12-10,24.648767,120.772435,0.013800848
B2E890,畜試北區分所,2024-12-10,24.527806,120.770972,3.2320047e-09
C0R750,四林格山,2024-12-10,22.076989,120.802439,0.9889405
C0F0C0,中坑,2024-12-10,24.248517,120.903319,9.989851e-10
C1I121,大鞍,2024-12-10,23.678381,120.760017,3.1841798e-09
72U480,花改蘭陽分場,2024-12-10,24.686306,121.716583,1.1023369e-09
C0A770,科教館,2024-12-10,25.096356,121.516507,0.079131395
C0AJ60,六塊厝,2024-12-10,25.24,121.4481,0.99925166
C0R620,墾雷,2024-12-10,21.900836,120.855269,0.97530705
467420,永康,2024-12-10,23.038386,120.2367,2.3923437e-07
467300,東吉島,2024-12-10,23.25695,119.667467,0.99370015
C0I410,名間,2024-12-10,23.837053,120.701447,9.357642e-10
A2C560,農工中心,2024-12-10,24.985917,121.239833,0.3561561
C0V740,旗山,2024-12-10,22.888614,120.483597,3.0337446e-09
C0Z061,玉里,2024-12-10,23.3215,121.339656,1.2033157e-09
C0S840,南田,2024-12-10,22.279725,120.889208,0.94391364
C1I470,杉林溪,2024-12-10,23.639517,120.786444,3.914286e-09
C1X040,東原,2024-12-10,23.291597,120.463822,1.3296847e-09
C0R660,枋寮,2024-12-10,22.367722,120.590647,2.6869504e-08
C1R120,上德文,2024-12-10,22.763272,120.704442,4.7245274e-10
C0K450,大埤,2024-12-10,23.646074,120.431537,2.2465775e-08
C0UA00,土場,2024-12-10,24.576533,121.495333,1.1798731e-08
467080,宜蘭,2024-12-10,24.763975,121.756528,1.5908173e-09
C0N030,四草,2024-12-10,23.0235,120.1116,3.5653231e-09
C0V650,彌陀,2024-12-10,22.783806,120.246361,0.00016651729
C0D660,新竹市東區,2024-12-10,24.798681,120.986942,0.07278937
82S580,茶改東部分場,2024-12-10,22.907694,121.130139,8.190911e-08
C0C710,大溪永福,2024-12-10,24.892936,121.324975,0.27073252
C0FA20,溫寮,2024-12-10,24.372177,120.583125,0.0001166395
C0V640,湖內,2024-12-10,22.887139,120.2445,1.4309297e-06
C0R910,下寮,2024-12-10,22.3929,120.5548,2.6869504e-08
C0Z020,明里,2024-12-10,23.208717,121.262342,1.2724026e-09
C0M770,嘉義梅山,2024-12-10,23.585398,120.555587,3.7786376e-05
G2F820,農業試驗所,2024-12-10,24.031261,120.688133,1.3374784e-09
C0C660,楊梅,2024-12-10,24.912375,121.143047,0.1115804
C1E511,新開,2024-12-10,24.347703,120.827019,8.6563684e-10
G2F820,農試所(霧峰),2024-12-10,24.031261,120.688133,1.3374784e-09
C1I070,和社,2024-12-10,23.591131,120.888861,6.479479e-09
C2F000,大肚,2024-12-10,24.15295,120.572117,8.000328e-06
C1S850,豐南,2024-12-10,23.122139,121.262389,1.0965994e-09
C2A920,富貴角,2024-12-10,25.263783,121.565258,0.99964744
CAH030,茶改場竹圍站,2024-12-10,23.860083,120.637528,6.384633e-10
C0T960,光復,2024-12-10,23.660694,121.424964,3.0780298e-09
C0F9M0,豐原,2024-12-10,24.254322,120.720692,7.721197e-09
C0R720,旭海,2024-12-10,22.205403,120.887614,0.9934352
C0V710,苓雅,2024-12-10,22.622742,120.330669,0.01598431
C0C740,觀音工業區,2024-12-10,25.064764,121.114856,0.9766223
CAC040,拉拉山,2024-12-10,24.699317,121.427133,3.4126373e-08
C0V790,萬山,2024-12-10,22.905944,120.688056,1.4590144e-09
U2HA30,臺大和社,2024-12-10,23.590856,120.888864,6.479479e-09
C0AJ90,澳底,2024-12-10,25.0552,121.9253,0.011283812
C0Z100,東華,2024-12-10,23.89525,121.549833,7.832757e-09
C0G970,三豐,2024-12-10,23.882,120.2895,7.6614215e-06
V2K610,大庄合作社,2024-12-10,23.8068,120.367939,8.692951e-10
C0V900,汕尾,2024-12-10,22.4782,120.4151,5.512386e-07
C1R630,龍泉,2024-12-10,22.66701,120.59091,0.00026496695
C1AC50,關渡,2024-12-10,25.133486,121.469331,0.007074003
C0F9I0,神岡,2024-12-10,24.272481,120.658314,2.3360254e-09
C0K460,斗南,2024-12-10,23.678734,120.478359,1.8788052e-08
467410,臺南,2024-12-10,22.993239,120.204772,2.7076874e-09
C2O810,曾文,2024-12-10,23.219681,120.497328,1.8362305e-09
467280,後龍,2024-12-10,24.648563,120.831834,0.00840945
C1F9J1,清水林,2024-12-10,24.071242,120.820419,5.5505045e-10
C2A650,火燒寮,2024-12-10,25.002719,121.742892,2.9670325e-08
466930,竹子湖,2024-12-10,25.162078,121.544547,1.0296554e-08
C1I220,樟湖,2024-12-10,23.905333,120.846983,1.4124942e-09
C0I390,仁愛,2024-12-10,24.022122,121.132206,3.0735712e-09
C0Z300,東里,2024-12-10,23.26853,121.30547,1.2252037e-09
C0V310,美濃,2024-12-10,22.898742,120.519153,3.085836e-09
C1V590,新發,2024-12-10,23.057019,120.646064,7.651745e-10
C0K510,水林,2024-12-10,23.572924,120.24597,2.7468356e-09
72S590,東改賓朗果園,2024-12-10,22.813889,121.071278,5.48923e-07
82A750,茶改北部分場,2024-12-10,24.955778,121.631222,6.197447e-07
C1A750,石碇服務區,2024-12-10,25.00872,121.646242,0.93115425
C0X300,鹿寮,2024-12-10,23.386047,120.477331,8.577614e-09
G2AI50,關渡,2024-12-10,25.11575,121.492,0.9969454
C0K590,雲林東勢,2024-12-10,23.674192,120.255721,1.6129683e-09
C0A570,桶後,2024-12-10,24.848222,121.597992,1.6234663e-08
C1S800,華源,2024-12-10,22.657883,121.02325,4.6058086e-09
C0G720,溪州,2024-12-10,23.851589,120.499093,1.1225509e-09
C1V160,達卡努瓦,2024-12-10,23.279811,120.705319,1.5868564e-09
C2M410,馬頭山,2024-12-10,23.324361,120.582017,1.010543e-09
C0V850,蚵仔寮,2024-12-10,22.7256,120.2527,3.1630483e-05
C0S740,池上,2024-12-10,23.119628,121.209469,3.9966473e-08
C1V390,尖山,2024-12-10,22.813153,120.367789,1.2027832e-09
C0AH70,松山,2024-12-10,25.04871,121.55042,0.07468496
C0N010,鯤鯓國小,2024-12-10,23.1879,120.0889,2.1425415e-09
C0R550,新埤,2024-12-10,22.467947,120.582894,3.6722236e-07
C0SA60,知本（水試所）,2024-12-10,22.702394,121.082761,8.408821e-09
C0T9I0,豐濱,2024-12-10,23.583897,121.514806,3.743946e-09
C0UB00,淡江大學蘭陽校園,2024-12-10,24.823239,121.730383,1.4504441e-08
C0T9N0,富里,2024-12-10,23.171639,121.249378,4.275965e-09
U2HA50,臺大竹山,2024-12-10,23.756972,120.681556,8.5620053e-07
C0V840,鳳鼻頭,2024-12-10,22.5083,120.3591,5.1341833e-09
C0X140,西港,2024-12-10,23.125608,120.203108,5.7323817e-09
72D080,桃改五峰分場,2024-12-10,24.612194,121.157167,2.580699e-09
C0V530,阿蓮,2024-12-10,22.883208,120.327508,2.1315034e-09
C1O880,關山,2024-12-10,23.173397,120.594092,6.01739e-10
C0E791,卓蘭,2024-12-10,24.3126,120.8244,2.2020776e-09
C1I030,武界,2024-12-10,23.913225,121.052483,1.164462e-09
C0R520,崁頂,2024-12-10,22.514781,120.506914,1.3091854e-08
C0R341,牡丹,2024-12-10,22.130036,120.792639,0.98375106
C0R930,萬丹,2024-12-10,22.5885,120.4851,1.383805e-07
C0S760,紅石,2024-12-10,23.069131,121.126219,1.1917813e-08
C1M610,石磐龍,2024-12-10,23.496606,120.663506,9.2096486e-10
C0UA10,鴛鴦湖,2024-12-10,24.590269,121.412228,6.9681794e-09
V2C260,八德蔬果,2024-12-10,24.978508,121.281819,0.2631492
C0R800,丹路,2024-12-10,22.204481,120.750989,0.99098474
C0G920,永靖,2024-12-10,23.924703,120.547533,1.0323647e-09
C1A630,下盆,2024-12-10,24.771003,121.538622,8.582508e-09
B2N890,畜產試驗所,2024-12-10,23.058972,120.336406,3.7216965e-09
C0UA30,白嶺,2024-12-10,24.527819,121.519031,1.2322045e-08
C1V580,溪南(特生中心),2024-12-10,23.084972,120.788475,1.4890938e-09
C1T970,大農,2024-12-10,23.615233,121.413331,3.1608227e-09
E2S960,林試太麻里2,2024-12-10,22.598014,120.989761,2.4579835e-08
C0R650,竹田,2024-12-10,22.58486,120.54344,2.0363957e-06
C1H900,清流,2024-12-10,24.080775,120.962997,5.799077e-10
C1C510,水尾,2024-12-10,24.940081,121.087161,0.32863787
C0F9X0,大雅(中科園區),2024-12-10,24.21528,120.62445,1.0375816e-06
C0O970,虎頭埤,2024-12-10,23.021375,120.347878,1.0200649e-09
C0C730,中大臨海站,2024-12-10,24.966126,121.008581,0.7228638
C0X250,新營,2024-12-10,23.310689,120.316681,4.356926e-09
C0V700,三民,2024-12-10,22.645017,120.311233,0.10002727
C0U870,大礁溪,2024-12-10,24.791042,121.675047,8.291776e-09
C0E870,高鐵苗栗,2024-12-10,24.60725,120.826094,0.010349742
A2K570,古坑花卉中心,2024-12-10,23.63353,120.55239,0.00054514466
C0M860,新美,2024-12-10,23.338017,120.683169,8.311437e-10
C1E701,八卦,2024-12-10,24.491756,120.927619,1.5272326e-09
C0I420,國姓,2024-12-10,24.037803,120.855072,5.0741233e-10
C0S960,香蘭,2024-12-10,22.587569,120.993375,2.4579835e-08
C0R260,春日,2024-12-10,22.370361,120.628306,7.63829e-09
72G600,臺中農改場,2024-12-10,24.003028,120.534389,1.6711991e-09
C0Z210,瑞穗,2024-12-10,23.5239,121.39021,6.0108545e-09
C0M820,達邦,2024-12-10,23.453994,120.749517,9.835798e-10
C0V860,南寮,2024-12-10,22.7616,120.2339,3.1630483e-05
C0G740,大城,2024-12-10,23.852487,120.320935,5.665877e-06
C0R920,塭仔,2024-12-10,22.4169,120.5197,3.319492e-08
C0R470,高樹,2024-12-10,22.826389,120.600806,3.7022e-08
C0R680,佳樂水,2024-12-10,21.993578,120.861633,0.10660571
C1O870,大棟山,2024-12-10,23.31157,120.52226,1.5634498e-09
C0D360,梅花,2024-12-10,24.678347,121.208558,5.4881757e-09
C0Z190,富世,2024-12-10,24.14743,121.6297,7.2659965e-08
C0AI10,屈尺,2024-12-10,24.92184,121.54475,0.827652
B2U990,畜試東區分所,2024-12-10,24.669039,121.832561,1.3140732e-09
C0R240,來義,2024-12-10,22.527306,120.625111,4.350407e-09
C1R610,西大武山,2024-12-10,22.617719,120.7322,1.4532049e-08
C0G900,線西,2024-12-10,24.143358,120.443536,2.7429575e-08
C0M700,竹崎,2024-12-10,23.526178,120.555508,1.3681618e-07
C2E880,三義,2024-12-10,24.405478,120.749819,6.4298866e-10
C0C720,竹圍,2024-12-10,25.112692,121.239824,0.99695534
C0F9P0,清水,2024-12-10,24.312297,120.562242,4.0807823e-05
C0Z150,吉安光華,2024-12-10,23.930925,121.595153,5.1356057e-08
C1D640,外坪(五指山),2024-12-10,24.644447,121.090961,1.7889759e-09
C0F9O0,潭子,2024-12-10,24.213106,120.703933,1.5796963e-06
72T250,花蓮農改場,2024-12-10,23.975222,121.563889,4.8190523e-06
C0E780,銅鑼,2024-12-10,24.489681,120.790853,2.0100228e-09
C1T950,太安,2024-12-10,23.666719,121.370128,1.96387e-08
C0E830,苑裡,2024-12-10,24.439714,120.653053,0.00032964165
467270,田中,2024-12-10,23.873803,120.581286,2.3256979e-09
C0SA10,檳榔四格山,2024-12-10,22.810031,121.109308,1.10800606e-07
C1T830,布洛灣,2024-12-10,24.17184,121.57127,9.7691334e-08
C0F970,大坑,2024-12-10,24.173142,120.722289,0.0001899187
C1U920,思源,2024-12-10,24.393125,121.347214,9.5710835e-09
C0A931,三和,2024-12-10,25.233153,121.595236,1.4445641e-05
C0I010,廬山,2024-12-10,24.033311,121.181808,3.840041e-09
C0R860,鼻頭,2024-12-10,22.1043,120.8979,0.821347
C0UB20,壯圍,2024-12-10,24.7359,121.8163,1.0967331e-09
C0R790,九棚,2024-12-10,22.14195,120.889281,0.9741395
C0W110,東莒,2024-12-10,25.9652,119.98069,0.00046747396
C1U930,粉鳥林,2024-12-10,24.497088,121.842479,2.32568e-09
C1I211,蘆竹湳,2024-12-10,23.934019,120.811994,5.564762e-10
C0S830,長濱,2024-12-10,23.286817,121.411975,1.3487089e-09
C1F9F1,伯公龍,2024-12-10,24.272392,120.849047,4.568362e-09
C0E810,西湖,2024-12-10,24.562947,120.7485,0.1560779
C1I440,新高口,2024-12-10,23.478744,120.878939,1.5505917e-08
C0O840,王爺宮,2024-12-10,23.222064,120.40085,2.5052573e-09
C0T9G0,鳳林山,2024-12-10,23.735269,121.420131,3.2134044e-09
C0X080,佳里,2024-12-10,23.173039,120.145086,2.1411606e-09
C0Z310,清水斷崖,2024-12-10,24.218294,121.689142,7.148857e-09
C0M680,太保,2024-12-10,23.455062,120.331455,4.466956e-09
C1S820,金峰,2024-12-10,22.590969,120.933236,6.3204793e-09
C0AD10,八里,2024-12-10,25.150211,121.403947,0.99695534
C2K240,草嶺,2024-12-10,23.59555,120.693461,8.227527e-10
C1SA70,都蘭,2024-12-10,22.87794,121.226881,1.5283154e-05
C0K440,二崙,2024-12-10,23.772797,120.408944,8.6859236e-10
C1A760,坪林交控,2024-12-10,24.94284,121.713442,5.534779e-08
C0F9N0,大里,2024-12-10,24.092464,120.701378,3.6060626e-07
C0SA90,達仁林場,2024-12-10,22.264347,120.823972,0.54976475
C1R290,石門山,2024-12-10,22.112611,120.756597,0.9940299
42HA10,萬大發電廠,2024-12-10,23.978875,121.139639,1.600465e-09
C0R890,山海,2024-12-10,21.9878,120.7091,0.65385
C0T9A0,月眉山,2024-12-10,23.809928,121.539828,3.3888694e-09
C0AC70,信義,2024-12-10,25.037822,121.564597,0.07468496
C0K560,棋山,2024-12-10,23.68645,120.603417,0.00031627738
C1Z240,中平林道,2024-12-10,23.42115,121.26763,3.3611137e-08
U2H480,溪頭,2024-12-10,23.670306,120.798194,1.0365436e-09
C0M880,好美里,2024-12-10,23.3364,120.138,1.5586265e-09
C0T9E0,大坑,2024-12-10,23.880628,121.581981,5.3146874e-09
C0K530,臺西,2024-12-10,23.701547,120.197559,3.6160046e-08
C1E900,國一N128K,2024-12-10,24.560997,120.844186,2.9096958e-07
C0AJ50,水湳洞,2024-12-10,25.123695,121.862238,0.2994777
C0AI20,白沙灣,2024-12-10,25.283128,121.519058,0.99934286
C0A860,大坪,2024-12-10,25.165914,121.632969,2.7641123e-08
C1U850,觀音海岸,2024-12-10,24.38319,121.77856,4.607856e-09
C0U950,鶯子嶺,2024-12-10,24.89754,121.79244,2.618457e-08
C0O900,善化,2024-12-10,23.112883,120.297219,4.669398e-09
C0K550,蔦松,2024-12-10,23.514319,120.229736,7.4395357e-09
E2P980,林試六龜中心,2024-12-10,22.991703,120.645722,7.165795e-10
C0E590,通霄,2024-12-10,24.471892,120.704622,0.00042053792
C1I310,西巒,2024-12-10,23.754486,120.883956,2.5131397e-09
C0A550,泰平,2024-12-10,24.971197,121.823711,7.776877e-08
C0I360,水里,2024-12-10,23.812553,120.849792,1.8270947e-09
C0R830,高士,2024-12-10,22.121825,120.836781,0.99534994
C1I101,溪頭,2024-12-10,23.661789,120.807647,2.1910893e-08
C0AJ20,野柳,2024-12-10,25.20703,121.690021,0.38286465
C0B060,暖暖,2024-12-10,25.0957,121.7403,0.048151884
C1H920,長豐,2024-12-10,24.102039,120.879897,4.549161e-10
C0V360,內門,2024-12-10,22.975481,120.466769,5.78753e-10
C0R850,林邊,2024-12-10,22.4634,120.5339,4.623092e-07
C0E930,龍鳳,2024-12-10,24.700034,120.859125,0.13853188
C0U910,冬山,2024-12-10,24.63373,121.7937,1.3140732e-09
C1E721,泰安,2024-12-10,24.489017,120.968036,1.757378e-09
82H320,茶改中部分場,2024-12-10,23.875611,120.913583,8.9304186e-10
C0M750,布袋,2024-12-10,23.380878,120.167789,2.663579e-09
C1S860,利嘉,2024-12-10,22.809417,121.050528,2.9691822e-09
72C440,桃園農改,2024-12-10,24.950944,121.030583,0.30330268
E2S980,林試太麻里1,2024-12-10,22.598922,120.980044,1.3217708e-08
C0X170,關廟,2024-12-10,22.963017,120.327797,1.1142826e-09
C0V720,林園,2024-12-10,22.507747,120.394511,4.5672994e-09
C1I510,線浸林道,2024-12-10,23.761508,120.832956,1.7832082e-09
C0D690,外湖,2024-12-10,24.917735,120.968711,0.2983005
C0C750,新興坑尾,2024-12-10,25.0061,121.0971,0.7397462
B2Q810,畜試南區分所,2024-12-10,21.945583,120.802167,0.1100724
C0S790,金崙,2024-12-10,22.538122,120.966875,3.038638e-09
C0AH90,福山植物園,2024-12-10,24.760717,121.58135,3.0994226e-08
C0I540,奇萊稜線,2024-12-10,24.109231,121.326456,2.1466205e-08
C0M850,表湖,2024-12-10,23.24186,120.64166,8.360376e-10
C0S770,大溪山,2024-12-10,22.478475,120.943325,6.039262e-09
C0AG80,中和,2024-12-10,24.991622,121.491792,0.94406605
C0T790,大禹嶺,2024-12-10,24.186117,121.316086,9.055914e-09
C0T9B0,水源,2024-12-10,23.991861,121.537169,2.3111504e-08
C0R840,牡丹池山,2024-12-10,22.168389,120.841225,0.9982579
C1I131,桶頭,2024-12-10,23.641944,120.654117,1.1388873e-07
CAL110,布袋國中,2024-12-10,23.35893,120.18026,2.663579e-09
467571,新竹,2024-12-10,24.827853,121.014219,0.29885086
C0Z290,赤柯山,2024-12-10,23.36893,121.38293,6.451904e-09
C0X280,將軍,2024-12-10,23.214999,120.13577,1.4842592e-09
C0S690,太麻里,2024-12-10,22.60902,120.98533,3.2640952e-09
C0U880,北關,2024-12-10,24.9072,121.8734,5.1607685e-07
C1H860,瑞岩,2024-12-10,24.123772,121.18345,4.022318e-09
C0G810,埔心,2024-12-10,23.947633,120.525456,1.0313748e-09
C0U970,大福,2024-12-10,24.80064,121.81389,1.6266736e-09
C1E670,南礦,2024-12-10,24.538278,121.002836,1.9113635e-09
C0M520,東後寮,2024-12-10,23.369908,120.248065,2.5127658e-09
C1E461,松安,2024-12-10,24.397972,120.986022,1.5110846e-09
72G600,臺中農改,2024-12-10,24.003028,120.534389,1.6711991e-09
C2N160,西拉雅風管處,2024-12-10,23.189481,120.335297,3.6887848e-09
C0A640,石碇,2024-12-10,24.993969,121.662917,0.41474912
E2S960,林試太麻里2,2024-12-10,22.598,120.99775,2.770647e-08
C0F9Y0,桃山,2024-12-10,24.432739,121.303808,1.6914738e-08
C1I020,萬大,2024-12-10,23.979817,121.132261,3.0787108e-09
C0U940,羅東,2024-12-10,24.68184,121.74934,1.1041529e-09
C0M650,朴子,2024-12-10,23.43463,120.23902,3.6561432e-09
C1I500,大尖山,2024-12-10,23.858572,120.994889,7.385866e-09
C0G820,田尾,2024-12-10,23.901669,120.509389,1.0315321e-09
E2K600,四湖植物園,2024-12-10,23.676986,120.163433,6.863541e-08
C0S730,綠島,2024-12-10,22.6672,121.47533,0.9954189
12Q970,東港工作站,2024-12-10,22.479997,120.466058,5.512386e-07
C0E430,南庄,2024-12-10,24.601775,121.000214,1.6739299e-09
C1TA00,太魯閣,2024-12-10,24.15773,121.6236,5.4476818e-08
466920,臺北,2024-12-10,25.037658,121.514853,0.07468496
C0R600,舊泰武,2024-12-10,22.588194,120.664944,4.5676715e-10
C1I260,北坑,2024-12-10,23.9246,121.006903,5.676325e-10
466910,鞍部,2024-12-10,25.182586,121.529731,3.1788353e-08
C1I230,九份二山,2024-12-10,23.961944,120.845,1.1454054e-09
C2A660,瑞芳,2024-12-10,25.113169,121.801147,0.07978945
C0R270,琉球嶼,2024-12-10,22.332244,120.362236,2.8700695e-08
C1T990,高寮,2024-12-10,23.394239,121.356808,1.8476167e-09
C0G620,芬園,2024-12-10,24.015678,120.6213,1.1900136e-09
C1Z140,荖溪,2024-12-10,23.890575,121.45964,1.7325837e-08
C1I201,中心崙,2024-12-10,23.728722,120.712097,1.4679943e-09
C1I400,凌霄,2024-12-10,24.018778,121.004456,3.3172114e-09
C1M640,十字,2024-12-10,23.492153,120.753683,2.1988753e-09
G2P820,農試鳳山分所,2024-12-10,22.646611,120.356083,0.0627954
C0Z270,蕃薯寮,2024-12-10,23.73835,121.540108,2.268238e-09
C0F9Q0,外埔,2024-12-10,24.347817,120.705686,1.3908901e-09
C0K580,高鐵雲林,2024-12-10,23.737456,120.417944,7.597414e-10
C2I090,鳳凰,2024-12-10,23.728081,120.787347,8.73945e-10
C0U990,員山,2024-12-10,24.74435,121.72247,1.0991478e-09
C0V770,大社,2024-12-10,22.730306,120.346639,2.0610682e-05
C0X120,麻豆,2024-12-10,23.183289,120.248611,2.2000626e-09
C0C670,龍潭,2024-12-10,24.870056,121.221389,0.044801526
C0D680,香山濕地,2024-12-10,24.783581,120.914988,0.13525136
C0S980,勝林山,2024-12-10,22.430439,120.8938,1.861718e-08
C0V730,大寮,2024-12-10,22.605614,120.395717,0.012185538
C0R570,麟洛,2024-12-10,22.65078,120.52719,1.2216187e-06
CAG100,王功漁港,2024-12-10,23.96824,120.32586,6.661665e-05
C0X290,北門,2024-12-10,23.267772,120.125481,1.4842592e-09
C2F930,大甲,2024-12-10,24.347667,120.640403,1.4533153e-06
C0D650,湖口,2024-12-10,24.904794,121.043628,0.32575208
C0E420,竹南,2024-12-10,24.708978,120.888897,0.101679005
C0U780,五結,2024-12-10,24.68637,121.79794,1.095694e-09
C1I250,鯉潭,2024-12-10,23.961922,120.991131,1.1446978e-09
C0R130,阿禮,2024-12-10,22.742908,120.743678,6.183656e-10
C0X100,臺南市北區,2024-12-10,23.010394,120.194228,3.1961729e-09
C0S920,金峰嘉蘭,2024-12-10,22.594789,120.960825,1.21766535e-08
C0V490,新興,2024-12-10,22.627422,120.298803,0.015968785
C0F9K0,大安,2024-12-10,24.345061,120.588025,5.9463568e-05
72N100,臺南農改,2024-12-10,23.0605,120.342194,3.7243877e-09
467290,古坑,2024-12-10,23.633639,120.551889,0.00054514466
C0V440,鳳山,2024-12-10,22.646653,120.356122,0.0627954
C1T940,大觀,2024-12-10,23.714206,121.373133,2.7482978e-09
72T250,花蓮農改,2024-12-10,23.975222,121.563889,4.8190523e-06
C0E740,造橋,2024-12-10,24.637056,120.864778,0.010349742
C0R100,尾寮山,2024-12-10,22.833111,120.683889,5.3604365e-10
A2K630,臺大雲林校區,2024-12-10,23.730628,120.423903,7.597414e-10
C0D580,寶山,2024-12-10,24.735006,121.025192,1.6451012e-06
E2P990,林試扇平站,2024-12-10,22.9677,120.6857,7.0171374e-10
C0AI30,三重,2024-12-10,25.057328,121.500629,0.079131395
C0AH00,汐止,2024-12-10,25.066881,121.658778,0.07468496
C1Z040,立山,2024-12-10,23.443356,121.327375,6.186006e-09
C0R740,獅子,2024-12-10,22.201569,120.70525,0.9779054
C0W130,花嶼,2024-12-10,23.40007,119.32276,0.99796015
C0A950,鼻頭角,2024-12-10,25.129036,121.923372,0.9996381
C0K470,林內,2024-12-10,23.748675,120.609642,6.112807e-06
82C160,茶改場,2024-12-10,24.908472,121.185333,0.097179964
C0Z320,清水林道,2024-12-10,23.27125,121.188272,3.7520382e-09
C0R760,南仁湖,2024-12-10,22.084681,120.863353,0.9940299
C0M670,大林,2024-12-10,23.600616,120.45841,2.3328328e-09
C0M800,茶山,2024-12-10,23.299075,120.664767,8.3190976e-10
C0A9C0,天母,2024-12-10,25.117494,121.537169,0.096275315
72K220,南改斗南分場,2024-12-10,23.634556,120.477333,1.8788052e-08
72AI40,桃改樹林分場,2024-12-10,24.944503,121.386972,0.1306014
C0S910,蘭嶼燈塔,2024-12-10,22.081197,121.503117,0.99677545
C0B050,八斗子,2024-12-10,25.144754,121.79167,0.37759817
C0U900,內城,2024-12-10,24.71813,121.68766,1.1058875e-09
C0X320,柳營,2024-12-10,23.253328,120.375253,7.788036e-09
C0M790,新港,2024-12-10,23.553269,120.345728,2.7964961e-09
C0F9T0,西屯,2024-12-10,24.179494,120.641275,1.8956692e-06
C0SA30,都歷,2024-12-10,23.020333,121.323642,1.3089001e-09
C0C620,蘆竹,2024-12-10,25.084275,121.265767,0.90060234
C0R730,大坪頂,2024-12-10,22.024633,120.69355,0.62666285
C0AJ40,石門,2024-12-10,25.273672,121.601198,0.9996229
C0E750,苗栗,2024-12-10,24.564569,120.824575,4.7360487e-07
C0T870,鯉魚潭,2024-12-10,23.935639,121.508944,2.1066556e-08
C1V170,排雲,2024-12-10,23.463619,120.954147,4.6012712e-08
C2H950,中寮,2024-12-10,23.884447,120.766406,8.875367e-10
C0R350,貓鼻頭,2024-12-10,21.921774,120.7358,0.94044095
C0V660,岡山,2024-12-10,22.797078,120.294958,0.00016651729
C1H941,雙冬,2024-12-10,23.967378,120.802189,5.728532e-10
C0AJ70,田寮,2024-12-10,25.2698,121.4886,0.9992882
C0AI00,五股,2024-12-10,25.07445,121.42728,0.56390727
C0Z280,德武,2024-12-10,23.47426,121.41071,2.8822578e-09
C0R700,枋山,2024-12-10,22.246844,120.661086,0.99985385
C0C460,復興,2024-12-10,24.820208,121.352281,0.00042329784
E2H360,蓮華池,2024-12-10,23.918333,120.885278,6.0777977e-10
C0M640,中埔,2024-12-10,23.42538,120.5229,4.2312136e-09
C0W140,金沙,2024-12-10,24.488292,118.408778,0.15080763
C2A540,四堵,2024-12-10,24.8926,121.745736,2.903098e-08
C0ACA0,新莊,2024-12-10,25.051478,121.446756,0.33791566
C0R220,潮州,2024-12-10,22.534361,120.54,1.1233524e-08
U2HA40,臺大內茅埔,2024-12-10,23.689722,120.851117,6.6944456e-10
467490,臺中,2024-12-10,24.145736,120.684075,0.0007433429
C0U960,翠峰湖,2024-12-10,24.510856,121.608044,1.8135655e-08
E2HA20,林試畢祿溪站,2024-12-10,24.226944,121.308522,5.7730567e-09
C0V890,前鎮,2024-12-10,22.5718,120.3117,0.019819915
467620,蘭嶼,2024-12-10,22.036969,121.558339,0.9870433
C1F941,雪嶺,2024-12-10,24.280586,121.026642,1.0424148e-08
C0AC80,文山,2024-12-10,25.00235,121.575728,0.9173362
C0F9R0,龍井,2024-12-10,24.184536,120.528972,4.8159098e-05
C0M760,民雄,2024-12-10,23.551754,120.428457,2.5026545e-09
C0UA40,西德山,2024-12-10,24.560647,121.752608,1.639808e-08
C1T920,中興,2024-12-10,23.769503,121.498653,2.6761213e-09
C0D550,雪霸,2024-12-10,24.526972,121.11605,2.9628122e-09
C2F860,梨山,2024-12-10,24.247522,121.243669,6.0210783e-09
C0R320,車城,2024-12-10,22.0744,120.716247,0.75372547
C1S870,南美山,2024-12-10,23.15025,121.382333,4.3994306e-09
C0B020,基隆嶼,2024-12-10,25.19141,121.78391,0.9996834
C1U501,牛鬥,2024-12-10,24.637836,121.573656,5.5801017e-09
C0M730,嘉義市東區,2024-12-10,23.457673,120.460531,5.585663e-08
C0S700,知本,2024-12-10,22.684866,121.005642,3.2146672e-09
C1N001,沙崙,2024-12-10,22.935472,120.309406,1.1802778e-09
C0V760,橋頭,2024-12-10,22.757806,120.30575,2.5371526e-05
C0G960,福寶,2024-12-10,24.0443,120.3814,9.914515e-09
C0X210,白河,2024-12-10,23.347466,120.414427,1.815978e-08
C0S810,東河,2024-12-10,22.972672,121.303986,0.9966368
C0R670,楓港,2024-12-10,22.190131,120.692156,0.8968764
C0FA50,霧峰,2024-12-10,24.0419,120.6995,1.2724221e-09
C0UB10,蘇澳,2024-12-10,24.5969,121.8571,4.9737916e-09
C0G950,防潮門,2024-12-10,24.1835,120.4871,4.8159098e-05
C0M740,六腳,2024-12-10,23.492871,120.290625,2.6371005e-09
C1R250,力里,2024-12-10,22.428117,120.629228,1.0426529e-09
C0K330,虎尾,2024-12-10,23.719183,120.442036,7.6919415e-10
C2FA00,烏石坑,2024-12-10,24.273503,120.947617,8.366533e-10
C0V620,永安,2024-12-10,22.82315,120.236856,0.00016651729
C1I330,楓樹林,2024-12-10,23.986803,121.076117,3.070694e-09
C0W200,湖西,2024-12-10,23.596314,119.67275,0.9837006
72Q010,高雄農改場,2024-12-10,22.709333,120.525889,4.421692e-07
C0SA40,瑞和,2024-12-10,22.974361,121.156697,1.6675311e-09
C0C680,龜山,2024-12-10,25.02846,121.38656,0.41448453
C2V260,月眉,2024-12-10,22.971003,120.539853,1.4140793e-09
C0V450,鳳森,2024-12-10,22.545064,120.392592,1.866307e-09
C0U720,南山,2024-12-10,24.43742,121.38167,8.029112e-09
A2N290,臺南蘭花園區,2024-12-10,23.340258,120.379661,4.476944e-09
C0R560,新園,2024-12-10,22.5434,120.461558,4.5672994e-09
C0U890,三星,2024-12-10,24.66812,121.65302,5.55218e-09
C1V300,御油山,2024-12-10,23.001983,120.715364,1.6885782e-09
C0U600,礁溪,2024-12-10,24.817539,121.765608,2.0345555e-08
C1T980,龍澗,2024-12-10,24.023289,121.411328,3.2803555e-08
C0D670,海天一線,2024-12-10,24.831986,120.914438,0.26801786
C0SA00,歷坵,2024-12-10,22.520969,120.89185,2.1381243e-09
C0M710,東石,2024-12-10,23.458927,120.15385,2.0420394e-08
C0M780,鹿草,2024-12-10,23.41134,120.30835,3.4558933e-09
C0U520,雙連埤,2024-12-10,24.753033,121.641303,8.304992e-09
C0B010,七堵,2024-12-10,25.094819,121.71713,0.11721283
C0R480,長治,2024-12-10,22.693128,120.542622,1.0626147e-06
C1V830,國三S383K,2024-12-10,22.781967,120.426475,3.849288e-09
12Q980,恆春工作站,2024-12-10,22.079678,120.714425,0.75372547
C1O940,東山服務區,2024-12-10,23.286016,120.398472,1.0220051e-08
C1U840,東澳嶺,2024-12-10,24.5378,121.8485,8.556666e-09
C1D630,飛鳳山,2024-12-10,24.766464,121.119178,1.685625e-05
C0S940,石寧山,2024-12-10,23.223772,121.406639,1.1890493e-09
C0K410,北港,2024-12-10,23.573957,120.292802,2.5750297e-09
C2M620,瑞里,2024-12-10,23.545133,120.675197,1.134774e-09
C2O950,安南,2024-12-10,23.076694,120.144861,3.3411314e-09
C0F0E0,南湖圈谷,2024-12-10,24.363714,121.444667,2.9413386e-08
467610,成功,2024-12-10,23.097486,121.373428,0.0026026347
C0G890,伸港,2024-12-10,24.148933,120.484403,2.7487081e-08
C2E540,龍溪,2024-12-10,24.606489,120.783933,0.011192408
C1V200,梅山,2024-12-10,23.268447,120.823556,6.668003e-10
C0T9H0,加路蘭山,2024-12-10,23.682947,121.5274,3.6715173e-09
C2O930,玉井,2024-12-10,23.126042,120.46055,1.2151498e-09
C1F911,新伯公,2024-12-10,24.221361,120.841069,6.8946338e-09
C0R490,九如,2024-12-10,22.7405,120.490503,5.664379e-07
C0X200,左鎮,2024-12-10,23.056758,120.408522,1.0451796e-09
C1F891,稍來,2024-12-10,24.265689,121.001142,5.350214e-09
72N240,七股研究中心,2024-12-10,23.081672,120.062894,3.6412295e-09
C0C700,中壢,2024-12-10,24.977661,121.256375,0.24225256
C0M690,水上,2024-12-10,23.419734,120.388909,4.1622394e-09
C0V690,鼓山,2024-12-10,22.623325,120.275575,0.015968785
C0O860,大內,2024-12-10,23.11885,120.36083,4.044667e-09
C0Z200,萬榮,2024-12-10,23.709219,121.420106,1.9404747e-09
C0T9D0,和中,2024-12-10,24.26676,121.74103,2.0245295e-08
C1O921,楠西,2024-12-10,23.183511,120.484083,1.3450404e-09
C0AJ30,淡水觀海,2024-12-10,25.184591,121.408616,0.9845622
C0V810,左營,2024-12-10,22.67491,120.28491,0.10002727
C0UA70,桃源谷,2024-12-10,24.962606,121.888875,4.937818e-08
C0X130,官田,2024-12-10,23.193217,120.315422,4.018093e-09
C1H000,翠峰,2024-12-10,24.109397,121.205211,9.386678e-09
C0UA90,石城,2024-12-10,24.980444,121.951214,2.6405226e-07
C1E681,南勢山,2024-12-10,24.421669,120.923831,1.487056e-09
C0A9F0,內湖,2024-12-10,25.079422,121.57545,0.07468496
C0K291,宜梧,2024-12-10,23.536281,120.169329,7.4357054e-09
C1K540,口湖,2024-12-10,23.585344,120.180517,5.1763936e-07
C0R780,滿州,2024-12-10,22.024403,120.839892,0.14004937
C0V870,文安,2024-12-10,22.8025,120.2164,0.00021388101
C0U650,玉蘭,2024-12-10,24.675286,121.587061,9.7547375e-09
C0R640,東港,2024-12-10,22.46247,120.44074,5.512386e-07
K2E360,苗栗農改,2024-12-10,24.495722,120.829111,2.6514342e-09
C0AJ80,板橋,2024-12-10,25.0107,121.4489,0.95047075
C0S660,下馬,2024-12-10,23.150427,121.070312,2.9812126e-09
C1H9B1,阿眉,2024-12-10,24.1263,120.994672,2.9446658e-09
C0UA20,多加屯,2024-12-10,24.368614,121.373189,1.0437856e-08
C0E730,頭份,2024-12-10,24.688247,120.912206,0.11594378
72V140,高改旗南分場,2024-12-10,22.857861,120.516667,3.0858303e-09
C0K480,莿桐,2024-12-10,23.761192,120.502372,1.8387294e-09
C0U980,坪林石牌,2024-12-10,24.86478,121.77396,1.2707079e-08
C0T900,西林,2024-12-10,23.8119,121.441458,2.614533e-09
C1I150,青雲,2024-12-10,23.793361,120.949378,8.7622504e-10
467350,澎湖,2024-12-10,23.565503,119.563094,0.99535173
C0G800,埔鹽,2024-12-10,24.000394,120.431683,1.6628685e-09
C0H960,草屯,2024-12-10,23.973672,120.68085,1.2293516e-09
C1V780,多納林道,2024-12-10,22.888028,120.737917,4.996143e-10
C0E920,通霄漁港,2024-12-10,24.498589,120.673876,0.0028302316
C0Z330,安通山,2024-12-10,23.290728,121.348528,1.7965978e-09
C0AH10,永和,2024-12-10,25.01125,121.508111,0.95047075
C2G640,鹿港,2024-12-10,24.0753,120.430481,9.914515e-09
C1E890,國三N149K,2024-12-10,24.463414,120.680019,4.81863e-05
C1R110,口社,2024-12-10,22.770111,120.645222,0.0052291416
C1M870,國三N285K,2024-12-10,23.550319,120.505833,0.0001686095
467050,新屋,2024-12-10,25.006744,121.047486,0.72578645
C1E480,鳳美,2024-12-10,24.554803,121.034747,1.2248088e-09
C0M530,奮起湖,2024-12-10,23.493903,120.699253,1.3505392e-09
C0C590,觀音,2024-12-10,25.027072,121.153317,0.9779565
C0T9M0,靜浦,2024-12-10,23.455167,121.495028,3.864715e-09
C0AI40,石牌,2024-12-10,25.115597,121.513139,0.10499734
C1F871,上谷關,2024-12-10,24.203483,121.018644,1.0339096e-09
C0G880,二水,2024-12-10,23.810742,120.6173,2.4665152e-07
C0R940,加祿堂,2024-12-10,22.3363,120.6217,0.9067834
C0W220,北竿,2024-12-10,26.220358,119.974881,0.000104349274
C0O960,崎頂,2024-12-10,22.959547,120.369317,8.0457097e-10
C0S750,向陽,2024-12-10,23.248397,120.986133,2.8989964e-09
C0T9F0,水璉,2024-12-10,23.797131,121.542514,2.5897076e-09
C1M600,頭凍,2024-12-10,23.406364,120.603339,1.001576e-09
467660,臺東,2024-12-10,22.752211,121.154586,0.9994809
C1D380,新埔,2024-12-10,24.84745,121.03834,0.22022857
C0V750,路竹,2024-12-10,22.854997,120.259439,9.699423e-07
C0N050,蚵寮,2024-12-10,23.301,120.1104,1.5586265e-09
72M700,南改鹿草分場,2024-12-10,23.416869,120.283061,3.6581662e-09
C1SA50,利嘉林道,2024-12-10,22.82325,121.009389,1.2214057e-08
467550,玉山,2024-12-10,23.487614,120.959522,5.9145982e-08
C0A940,金山,2024-12-10,25.223628,121.643967,0.29682234
C1V340,大津,2024-12-10,22.888322,120.645986,1.61587e-08
C0W180,七美,2024-12-10,23.219333,119.444892,0.9646765
C1F9C1,白冷,2024-12-10,24.182844,120.929889,2.325995e-09
K2E710,苗改生物防治研究中心,2024-12-10,24.422861,120.871833,6.543661e-10
C0N040,蘆竹溝,2024-12-10,23.2344,120.0961,1.4842592e-09
C2W230,畜試所澎湖,2024-12-10,23.628342,119.513206,0.9822739
C0R880,後壁湖,2024-12-10,21.9457,120.7457,0.6838701
C1I280,埔中,2024-12-10,23.820778,120.642594,1.1409682e-09
467790,墾丁雷達站,2024-12-10,21.948235,120.808028,0.10025108
C0W190,望安,2024-12-10,23.380564,119.494075,0.992915
466881,新北,2024-12-10,24.9593,121.52,0.9402609
C0Z170,卓溪,2024-12-10,23.3443,121.3029,1.8601696e-09
C0F850,東勢,2024-12-10,24.246428,120.833047,5.1108904e-09
466900,淡水,2024-12-10,25.164889,121.448906,0.9971372
C0I370,魚池,2024-12-10,23.895703,120.94135,7.2221074e-10
C0C630,大溪,2024-12-10,24.882853,121.265547,0.05638675
C0A520,山佳,2024-12-10,24.974944,121.402008,0.73061347
C0I110,竹山,2024-12-10,23.761225,120.688156,1.7940442e-08
82H840,茶改南部分場,2024-12-10,23.762528,120.7405,1.2191381e-09
C0G660,溪湖,2024-12-10,23.94835,120.479122,1.0900576e-09
C1T800,洛韶,2024-12-10,24.204558,121.453956,2.2020199e-08
C1T810,慈恩,2024-12-10,24.192044,121.388386,5.6028817e-09
C1E451,象鼻,2024-12-10,24.368617,120.940228,1.6703388e-09
C0AC60,三峽,2024-12-10,24.939025,121.369728,0.12828031
C0I490,萬大林道,2024-12-10,23.928228,121.091411,5.515954e-09
C1I290,豐丘,2024-12-10,23.668178,120.887417,1.1198072e-09
C1I320,奧萬大,2024-12-10,23.952956,121.178556,4.2086126e-09
C0U770,南澳,2024-12-10,24.44935,121.81022,2.6712716e-09
C0A980,社子,2024-12-10,25.109508,121.469681,0.9969194
C0V800,六龜,2024-12-10,22.997889,120.633583,7.441235e-10
C1G9D0,國一S218K,2024-12-10,23.890641,120.493253,1.1815999e-09
C2F9A0,中竹林,2024-12-10,24.103556,120.751061,1.1429329e-09
C0FA40,臺中電廠,2024-12-10,24.2146,120.4907,4.8267375e-05
C0H9C0,合歡山,2024-12-10,24.143442,121.272547,1.6868924e-08
C0X060,下營,2024-12-10,23.22695,120.256261,3.0764569e-09
G2M350,農試溪口農場,2024-12-10,23.58565,120.408111,2.7330078e-09
C0U860,頭城,2024-12-10,24.85323,121.8308,2.1084364e-08
C0R580,南州,2024-12-10,22.48591,120.50274,5.512386e-07
C0D430,峨眉,2024-12-10,24.6905,121.017189,0.00039589778
C0G780,秀水,2024-12-10,24.03405,120.503869,1.6711991e-09
72N100,臺南農改場,2024-12-10,23.0605,120.342194,3.7243877e-09
C0S900,蘭嶼高中,2024-12-10,22.04909,121.51214,0.99785256
467540,大武,2024-12-10,22.355675,120.903789,0.022496298
C1F9W0,德基,2024-12-10,24.254783,121.190261,3.8593746e-09
C1Z120,壽豐,2024-12-10,23.870853,121.508081,7.832757e-09
C0W160,烏坵,2024-12-10,24.9944,119.44956,0.7928564
C1I240,外大坪,2024-12-10,23.958697,120.917931,1.1719955e-09
C1I550,國六W023K,2024-12-10,23.979067,120.867742,4.8866106e-10
C0R870,興海,2024-12-10,21.9752,120.8439,0.1100724
C0R140,瑪家,2024-12-10,22.682903,120.686639,3.600914e-10
C0A530,坪林,2024-12-10,24.938183,121.70975,3.7060154e-08
C0X260,後壁,2024-12-10,23.366358,120.362326,4.476944e-09
C0Z230,和平,2024-12-10,24.30717,121.77007,2.0977783e-08
C0G770,福興,2024-12-10,24.041289,120.437669,1.6628685e-09
C0H9A0,神木村,2024-12-10,23.532742,120.843667,2.2332938e-09
C0I460,南投,2024-12-10,23.911469,120.687331,8.473733e-10
C0I480,梅峰,2024-12-10,24.085272,121.173572,5.259577e-09
C1V570,吉東,2024-12-10,22.85422,120.5454,2.7640055e-09
C2A560,福山,2024-12-10,24.776203,121.502811,3.794509e-08
C0AH30,五分山,2024-12-10,25.07125,121.780794,3.4788574e-08
C0FA10,松柏,2024-12-10,24.429115,120.617482,0.00084964227
72S200,東改班鳩分場,2024-12-10,22.829528,121.077694,3.2158914e-06
72HA00,中改埔里分場,2024-12-10,23.903208,120.963364,5.8477934e-10
C0C650,平鎮,2024-12-10,24.897503,121.214636,0.103779376
C0S930,延平,2024-12-10,22.902581,121.084058,2.0048013e-08
C0UA60,樟樹山,2024-12-10,24.41393,121.78325,1.7103616e-08
C1S670,摩天,2024-12-10,23.199503,121.027,2.0089162e-08
C0V630,茄萣,2024-12-10,22.906642,120.182608,1.6644883e-06
466940,基隆,2024-12-10,25.133314,121.740475,0.36487088
C0X050,東河,2024-12-10,23.296598,120.385608,1.3836724e-08
C0R770,保力,2024-12-10,22.071122,120.764111,0.11610052
G2L020,農試嘉義分所,2024-12-10,23.485028,120.473806,1.2340565e-06
C0X240,關子嶺,2024-12-10,23.331169,120.508025,8.2399804e-10
C0I380,集集,2024-12-10,23.828206,120.801467,1.9026811e-09
466990,花蓮,2024-12-10,23.975128,121.613275,9.065135e-06
C1V220,小關山,2024-12-10,23.154217,120.813603,1.8728543e-09
C1F9G1,慶福山,2024-12-10,24.180853,120.848378,6.8559586e-10
C0Z250,瑞穗林道,2024-12-10,23.49284,121.30688,3.875775e-08
C0D590,新豐,2024-12-10,24.87068,120.97721,0.23916462
C0A870,五指山,2024-12-10,25.132153,121.608692,9.531587e-09
C0UA50,西帽山,2024-12-10,24.555361,121.802628,1.326357e-08
C0X160,仁德,2024-12-10,22.968258,120.257689,2.028118e-06
C1H971,六分寮,2024-12-10,23.92507,120.6378,6.20999e-10
C0W120,西嶼,2024-12-10,23.5626,119.468436,0.9960221
C0G650,員林,2024-12-10,23.946503,120.585597,1.1808925e-09
C0AD50,鶯歌,2024-12-10,24.951533,121.346294,0.1293224
C0S990,山豬窟,2024-12-10,22.318619,120.857372,0.001040835
72Q010,高雄農改,2024-12-10,22.709333,120.525889,4.421692e-07
C0X190,安平,2024-12-10,22.993161,120.152181,3.1979108e-09
C0K400,斗六,2024-12-10,23.720583,120.541127,2.1814264e-09
12J990,口湖工作站,2024-12-10,23.589978,120.180394,5.176384e-07
C0O830,北寮,2024-12-10,23.079561,120.495008,6.281178e-10
C1D410,白蘭,2024-12-10,24.579364,121.079947,2.19141e-09
C0S970,加津林,2024-12-10,22.416211,120.926942,0.011366703
C0D700,關西,2024-12-10,24.7977,121.1732,0.0028689585
C0M810,里佳,2024-12-10,23.389125,120.716647,1.5403356e-09
C0U750,龜山島,2024-12-10,24.841667,121.953133,0.99826205
C0R810,內獅,2024-12-10,22.305064,120.642986,0.9068759
C1M390,龍美,2024-12-10,23.406728,120.654417,1.1793394e-09
C1H840,國三N238K,2024-12-10,23.841008,120.707711,6.616907e-10
CAQ030,崎峰國小,2024-12-10,22.42565,120.49521,5.512386e-07
C2E520,大湖,2024-12-10,24.414939,120.870872,6.3459643e-10
467530,阿里山,2024-12-10,23.508208,120.813242,2.8941802e-08
C1E691,南湖,2024-12-10,24.40135,120.837533,1.2013663e-09
C0FA30,梧棲,2024-12-10,24.256003,120.523381,4.027791e-05
C1V231,高中,2024-12-10,23.134911,120.716711,8.8680907e-10
C0F9V0,新社,2024-12-10,24.200172,120.815806,3.476567e-09
C0H890,埔里,2024-12-10,23.972169,120.952425,4.926186e-10
C0R690,墾丁,2024-12-10,21.966756,120.810269,0.124833964
C0F0D0,審馬陣,2024-12-10,24.381675,121.4203,1.624281e-08
C0R820,白鷺,2024-12-10,22.454275,120.666219,6.393553e-10
U2H480,臺大溪頭,2024-12-10,23.670306,120.798194,1.0365436e-09
C1V190,南天池,2024-12-10,23.27403,120.91176,7.0922095e-09
K2E360,苗栗農改場,2024-12-10,24.495722,120.829111,2.6514342e-09
CAJ050,海口故事園區,2024-12-10,23.57543,120.14121,5.1763936e-07
C0O990,媽廟,2024-12-10,22.99175,120.293525,1.2580392e-07
C0D480,打鐵坑,2024-12-10,24.849664,121.150789,0.043569993
C0Z220,和平林道,2024-12-10,24.343922,121.656317,4.0921413e-09
72C440,桃園農改場,2024-12-10,24.950944,121.030583,0.30330268
C1E711,馬拉邦山,2024-12-10,24.367306,120.901656,1.7263021e-09
C0D560,竹東,2024-12-10,24.767147,121.057881,0.0037572912
C0F9U0,南屯,2024-12-10,24.137006,120.637969,3.861814e-06
C0M720,番路,2024-12-10,23.464657,120.554156,1.9781963e-09
C0F0A0,雪山圈谷,2024-12-10,24.388594,121.236339,2.5431676e-08
C1A9N0,四十份,2024-12-10,24.934158,121.593283,2.0856457e-06
C0U760,東澳,2024-12-10,24.52196,121.83318,2.3028504e-09
C0X230,鹽水,2024-12-10,23.272621,120.247641,1.4772605e-09
C0V370,古亭坑,2024-12-10,22.893178,120.401947,1.095414e-09
C1I340,新興橋,2024-12-10,23.563333,120.868728,6.3295363e-10
C0SA80,土坂,2024-12-10,22.453108,120.887572,2.2320556e-08
C0R160,鹽埔,2024-12-10,22.739558,120.530778,4.421692e-07
C0AC40,大屯山,2024-12-10,25.175675,121.522408,2.4205407e-08
466850,五分山雷達站,2024-12-10,25.071182,121.781205,3.434519e-08
C1AI50,國三N016K,2024-12-10,25.034164,121.619664,0.034425344
C1V600,藤枝,2024-12-10,23.071961,120.757042,1.2171539e-09
C1E601,南勢,2024-12-10,24.572486,120.734842,0.07680207
C0Z180,新城,2024-12-10,24.03946,121.60454,7.9649435e-06
C0O980,新市,2024-12-10,23.061614,120.298197,4.669398e-09
C0K420,西螺,2024-12-10,23.800407,120.467394,8.4229423e-10
C0Z050,佳心,2024-12-10,23.34567,121.21316,5.781795e-09
C0AD30,蘆洲,2024-12-10,25.086594,121.472331,0.079131395
C0V610,梓官,2024-12-10,22.760558,120.267211,2.5198326e-05
K2F750,種苗改良場,2024-12-10,24.225972,120.800917,4.5697304e-09
C0UA80,大溪漁港,2024-12-10,24.941801,121.902955,4.4117726e-07
C1AI60,國一39K邊坡,2024-12-10,25.064361,121.383836,0.4934464
C0W150,金寧,2024-12-10,24.457703,118.328989,0.8003224
V2C250,八德合作社,2024-12-10,24.93775,121.266389,0.11174478
C0AH40,平等,2024-12-10,25.129142,121.577086,1.9577403e-08
C0R540,佳冬,2024-12-10,22.419456,120.552375,2.6869504e-08
466950,彭佳嶼,2024-12-10,25.627975,122.079744,0.9988202
C0A890,雙溪,2024-12-10,25.036003,121.864242,0.0009884296
C0C480,桃園,2024-12-10,24.992425,121.323172,0.27381805
C0AH50,林口,2024-12-10,25.072181,121.38084,0.32471734
A2K360,水試臺西試驗場,2024-12-10,23.717231,120.190522,4.4947686e-08
B2N890,畜試所,2024-12-10,23.058972,120.336406,3.7216965e-09
C0F9S0,烏日,2024-12-10,24.107058,120.624103,7.022104e-07
C0C490,八德,2024-12-10,24.928708,121.283289,0.11523472
C0R190,赤山,2024-12-10,22.592333,120.614306,1.2058445e-06
C0T820,天祥,2024-12-10,24.179597,121.495639,5.6919532e-08
C1F9E1,龍安,2024-12-10,24.1605,120.831961,3.667248e-09
C0V820,小林,2024-12-10,23.148408,120.63325,5.5174143e-10
C2G870,芳苑,2024-12-10,23.922303,120.320025,5.0493916e-05
C0E850,大河,2024-12-10,24.618069,120.948578,1.842891e-08
C1U670,寒溪,2024-12-10,24.634,121.71691,1.386673e-09
C0N020,城西,2024-12-10,23.0568,120.0956,3.1961729e-09
C1Z110,三棧,2024-12-10,24.11557,121.60501,4.1136794e-08
C0R280,檳榔,2024-12-10,22.076078,120.836777,0.98546803
C0F9L0,后里,2024-12-10,24.310436,120.729725,5.6791216e-09
C0D540,橫山,2024-12-10,24.71116,121.11693,6.372132e-08
C1D420,太閣南,2024-12-10,24.632808,121.160575,2.4386124e-09
C1E770,公館,2024-12-10,24.526914,120.830806,3.2320047e-09
CAN130,水試所海水繁養殖中心,2024-12-10,23.120802,120.07968,3.6412295e-09
C1I430,翠華,2024-12-10,24.191961,121.224339,5.4146954e-09
C1M400,菜瓜坪,2024-12-10,23.251928,120.576103,8.5173213e-10
C0G730,二林,2024-12-10,23.903325,120.376081,8.691028e-10
72M360,南改義竹分場,2024-12-10,23.360694,120.279361,2.5169726e-09
V2K620,麥寮合作社,2024-12-10,23.753836,120.294783,1.1227029e-09
C0Z070,舞鶴,2024-12-10,23.46811,121.37407,2.779522e-09
C0B040,大武崙,2024-12-10,25.166676,121.706993,0.25887218
C1Z030,紅葉,2024-12-10,23.493119,121.338806,4.3857655e-09
C1I050,丹大,2024-12-10,23.753747,121.141147,6.3881314e-09
C0I080,信義,2024-12-10,23.689694,120.851036,6.6944456e-10
C2A880,福隆,2024-12-10,25.017842,121.942083,3.2464982e-07
C0Z160,鳳林,2024-12-10,23.746114,121.453411,1.8856325e-09
C0V210,復興,2024-12-10,23.222403,120.806089,6.2839217e-10
C0H990,昆陽,2024-12-10,24.121322,121.273642,1.626873e-08
C0S710,鹿野,2024-12-10,22.917711,121.122994,1.0267152e-09
C0I530,小奇萊,2024-12-10,24.131764,121.295717,1.7182549e-08
C0Z080,富源,2024-12-10,23.587642,121.378225,3.2608096e-09
467441,高雄,2024-12-10,22.7304,120.3125,2.0575175e-05
C1I140,卡奈托灣,2024-12-10,23.754364,121.087872,3.8651207e-09
C0I520,玉山風口,2024-12-10,23.470489,120.955994,4.4124413e-08
C1G691,下水埔,2024-12-10,23.816114,120.5676,1.6890935e-09
C0X110,臺南市南區,2024-12-10,22.961189,120.188378,2.007053e-06
C0V680,仁武,2024-12-10,22.701083,120.347722,0.10002727
C2G840,北斗,2024-12-10,23.877586,120.514222,1.1225509e-09
C0R900,竹坑,2024-12-10,22.1385,120.7022,0.787087
C0K250,崙背,2024-12-10,23.75555,120.318925,1.1227029e-09
C0G860,社頭,2024-12-10,23.897647,120.5862,2.4741347e-09
C0X150,安定,2024-12-10,23.102614,120.227839,5.7323817e-09
C0R590,里港,2024-12-10,22.77919,120.49459,1.1856732e-08
C0E610,馬都安,2024-12-10,24.451272,120.930192,1.2666614e-09
C0E550,明德,2024-12-10,24.583486,120.885411,2.5490957e-07
C0R150,三地門,2024-12-10,22.709889,120.639944,0.0066585653
C0G910,花壇,2024-12-10,24.032076,120.549461,1.515388e-09
C1D400,鳥嘴山,2024-12-10,24.71909,121.28387,3.2974479e-09
C0K500,元長,2024-12-10,23.64981,120.315024,1.6799239e-09
C0F0B0,石岡,2024-12-10,24.276061,120.777644,2.8818783e-09
C2V250,甲仙,2024-12-10,23.080106,120.591758,4.7555826e-10
C0SA20,金崙山,2024-12-10,22.567419,120.959667,3.910122e-09
C0V350,溪埔,2024-12-10,22.738578,120.446797,1.2865445e-07
C0M660,溪口,2024-12-10,23.604131,120.403569,2.7330078e-09
C1S880,壽卡,2024-12-10,22.238911,120.858903,0.64799505
72D680,桃改新埔分場,2024-12-10,24.834444,121.066111,0.23113483
