站號,站名,日期,lat,lon,BlastGRU-TW
12J990,口湖工作站,2024-10-03,23.589978,120.180394,0.10523468
12Q970,東港工作站,2024-10-03,22.479997,120.466058,0.061743796
12Q980,恆春工作站,2024-10-03,22.079678,120.714425,0.021419015
466881,新北,2024-10-03,24.9593,121.52,0.030758265
466900,淡水,2024-10-03,25.164889,121.448906,0.012525992
466920,臺北,2024-10-03,25.037658,121.514853,0.012763183
466940,基隆,2024-10-03,25.133314,121.740475,0.016396472
466990,花蓮,2024-10-03,23.975128,121.613275,0.21746151
467050,新屋,2024-10-03,25.006744,121.047486,0.025494102
467080,宜蘭,2024-10-03,24.763975,121.756528,0.05067229
467270,田中,2024-10-03,23.873803,120.581286,0.030380478
467280,後龍,2024-10-03,24.648563,120.831834,0.011697914
467290,古坑,2024-10-03,23.633639,120.551889,0.046453595
467300,東吉島,2024-10-03,23.25695,119.667467,0.94230133
467350,澎湖,2024-10-03,23.565503,119.563094,0.93362814
467410,臺南,2024-10-03,22.993239,120.204772,0.017516194
467420,永康,2024-10-03,23.038386,120.2367,0.017077105
467441,高雄,2024-10-03,22.7304,120.3125,0.010329922
467480,嘉義,2024-10-03,23.495925,120.432906,0.058662597
467490,臺中,2024-10-03,24.145736,120.684075,0.051510308
467540,大武,2024-10-03,22.355675,120.903789,0.479559
467571,新竹,2024-10-03,24.827853,121.014219,0.007944414
467590,恆春,2024-10-03,22.003897,120.746339,0.12695813
467610,成功,2024-10-03,23.097486,121.373428,0.99652904
467620,蘭嶼,2024-10-03,22.036969,121.558339,0.9738538
467660,臺東,2024-10-03,22.752211,121.154586,0.9271843
467790,墾丁雷達站,2024-10-03,21.948235,120.808028,0.027606517
72AI40,桃改樹林分場,2024-10-03,24.944503,121.386972,0.011355615
72C440,桃園農改,2024-10-03,24.950944,121.030583,0.012972957
72C440,桃園農改場,2024-10-03,24.950944,121.030583,0.012972957
72D680,桃改新埔分場,2024-10-03,24.834444,121.066111,0.0058833803
72G600,臺中農改,2024-10-03,24.003028,120.534389,0.033533122
72G600,臺中農改場,2024-10-03,24.003028,120.534389,0.033533122
72K220,南改斗南分場,2024-10-03,23.634556,120.477333,0.101534426
72M360,南改義竹分場,2024-10-03,23.360694,120.279361,0.093570024
72M700,南改鹿草分場,2024-10-03,23.416869,120.283061,0.07434169
72N100,臺南農改,2024-10-03,23.0605,120.342194,0.016949188
72N100,臺南農改場,2024-10-03,23.0605,120.342194,0.016949188
72N240,七股研究中心,2024-10-03,23.081672,120.062894,0.037693452
72Q010,高雄農改,2024-10-03,22.709333,120.525889,0.041565765
72Q010,高雄農改場,2024-10-03,22.709333,120.525889,0.041565765
72S200,東改班鳩分場,2024-10-03,22.829528,121.077694,0.2784332
72S590,東改賓朗果園,2024-10-03,22.813889,121.071278,0.56439024
72T250,花蓮農改,2024-10-03,23.975222,121.563889,0.20199366
72T250,花蓮農改場,2024-10-03,23.975222,121.563889,0.20199366
72U480,花改蘭陽分場,2024-10-03,24.686306,121.716583,0.107080445
72V140,高改旗南分場,2024-10-03,22.857861,120.516667,0.022145007
82A750,茶改北部分場,2024-10-03,24.955778,121.631222,0.004054224
82C160,茶改場,2024-10-03,24.908472,121.185333,0.0063201627
82H840,茶改南部分場,2024-10-03,23.762528,120.7405,0.26732716
82S580,茶改東部分場,2024-10-03,22.907694,121.130139,0.96859205
A2C560,農工中心,2024-10-03,24.985917,121.239833,0.0072761397
A2K360,水試臺西試驗場,2024-10-03,23.717231,120.190522,0.1074271
A2K570,古坑花卉中心,2024-10-03,23.63353,120.55239,0.046453595
A2K630,臺大雲林校區,2024-10-03,23.730628,120.423903,0.03217951
A2N290,臺南蘭花園區,2024-10-03,23.340258,120.379661,0.06308242
B2E890,畜試北區分所,2024-10-03,24.527806,120.770972,0.13216269
B2N890,畜產試驗所,2024-10-03,23.058972,120.336406,0.01712022
B2N890,畜試所,2024-10-03,23.058972,120.336406,0.01712022
B2Q810,畜試南區分所,2024-10-03,21.945583,120.802167,0.025012333
B2U990,畜試東區分所,2024-10-03,24.669039,121.832561,0.23100258
C0A520,山佳,2024-10-03,24.974944,121.402008,0.022287428
C0A530,坪林,2024-10-03,24.938183,121.70975,0.012704736
C0A550,泰平,2024-10-03,24.971197,121.823711,0.0040074904
C0A570,桶後,2024-10-03,24.848222,121.597992,0.005707804
C0A640,石碇,2024-10-03,24.993969,121.662917,0.031107489
C0A770,科教館,2024-10-03,25.096356,121.516507,0.014243654
C0A860,大坪,2024-10-03,25.165914,121.632969,0.0040452657
C0A890,雙溪,2024-10-03,25.036003,121.864242,0.027422069
C0A931,三和,2024-10-03,25.233153,121.595236,0.0055863396
C0A940,金山,2024-10-03,25.223628,121.643967,0.01100653
C0A950,鼻頭角,2024-10-03,25.129036,121.923372,0.065303154
C0A970,三貂角,2024-10-03,25.007606,122.002058,0.010314738
C0A980,社子,2024-10-03,25.109508,121.469681,0.012707576
C0A9C0,天母,2024-10-03,25.117494,121.537169,0.011109261
C0A9F0,內湖,2024-10-03,25.079422,121.57545,0.012763183
C0AC60,三峽,2024-10-03,24.939025,121.369728,0.011272072
C0AC70,信義,2024-10-03,25.037822,121.564597,0.012763183
C0AC80,文山,2024-10-03,25.00235,121.575728,0.03195362
C0ACA0,新莊,2024-10-03,25.051478,121.446756,0.012200768
C0AD10,八里,2024-10-03,25.150211,121.403947,0.011361425
C0AD30,蘆洲,2024-10-03,25.086594,121.472331,0.014102545
C0AD40,土城,2024-10-03,24.973208,121.445169,0.03041353
C0AD50,鶯歌,2024-10-03,24.951533,121.346294,0.0110775605
C0AG80,中和,2024-10-03,24.991622,121.491792,0.03041353
C0AH00,汐止,2024-10-03,25.066881,121.658778,0.012763183
C0AH10,永和,2024-10-03,25.01125,121.508111,0.030093629
C0AH40,平等,2024-10-03,25.129142,121.577086,0.004748049
C0AH50,林口,2024-10-03,25.072181,121.38084,0.005246312
C0AH70,松山,2024-10-03,25.04871,121.55042,0.012763183
C0AH80,深坑,2024-10-03,25.002703,121.628328,0.032025486
C0AI00,五股,2024-10-03,25.07445,121.42728,0.008429976
C0AI10,屈尺,2024-10-03,24.92184,121.54475,0.013238678
C0AI20,白沙灣,2024-10-03,25.283128,121.519058,0.009184465
C0AI30,三重,2024-10-03,25.057328,121.500629,0.012781786
C0AI40,石牌,2024-10-03,25.115597,121.513139,0.011170144
C0AJ20,野柳,2024-10-03,25.20703,121.690021,0.008952471
C0AJ30,淡水觀海,2024-10-03,25.184591,121.408616,0.008010713
C0AJ40,石門,2024-10-03,25.273672,121.601198,0.00545247
C0AJ50,水湳洞,2024-10-03,25.123695,121.862238,0.015071015
C0AJ60,六塊厝,2024-10-03,25.24,121.4481,0.009481945
C0AJ70,田寮,2024-10-03,25.2698,121.4886,0.009267795
C0AJ80,板橋,2024-10-03,25.0107,121.4489,0.030093629
C0AJ90,澳底,2024-10-03,25.0552,121.9253,0.028554538
C0B010,七堵,2024-10-03,25.094819,121.71713,0.009841429
C0B020,基隆嶼,2024-10-03,25.19141,121.78391,0.019904165
C0B040,大武崙,2024-10-03,25.166676,121.706993,0.016654754
C0B050,八斗子,2024-10-03,25.144754,121.79167,0.01639852
C0B060,暖暖,2024-10-03,25.0957,121.7403,0.009411856
C0C460,復興,2024-10-03,24.820208,121.352281,0.79320276
C0C480,桃園,2024-10-03,24.992425,121.323172,0.013871944
C0C490,八德,2024-10-03,24.928708,121.283289,0.010817862
C0C590,觀音,2024-10-03,25.027072,121.153317,0.014694463
C0C620,蘆竹,2024-10-03,25.084275,121.265767,0.015393624
C0C630,大溪,2024-10-03,24.882853,121.265547,0.012928784
C0C650,平鎮,2024-10-03,24.897503,121.214636,0.01041057
C0C660,楊梅,2024-10-03,24.912375,121.143047,0.0066198222
C0C670,龍潭,2024-10-03,24.870056,121.221389,0.014192333
C0C680,龜山,2024-10-03,25.02846,121.38656,0.0122609865
C0C700,中壢,2024-10-03,24.977661,121.256375,0.015703268
C0C710,大溪永福,2024-10-03,24.892936,121.324975,0.019575598
C0C720,竹圍,2024-10-03,25.112692,121.239824,0.021189129
C0C730,中大臨海站,2024-10-03,24.966126,121.008581,0.024942847
C0C740,觀音工業區,2024-10-03,25.064764,121.114856,0.023514926
C0C750,新興坑尾,2024-10-03,25.0061,121.0971,0.015240727
C0D430,峨眉,2024-10-03,24.6905,121.017189,0.01869577
C0D480,打鐵坑,2024-10-03,24.849664,121.150789,0.01431932
C0D540,橫山,2024-10-03,24.71116,121.11693,0.06664148
C0D560,竹東,2024-10-03,24.767147,121.057881,0.020813962
C0D580,寶山,2024-10-03,24.735006,121.025192,0.047152624
C0D590,新豐,2024-10-03,24.87068,120.97721,0.30494747
C0D650,湖口,2024-10-03,24.904794,121.043628,0.008737153
C0D660,新竹市東區,2024-10-03,24.798681,120.986942,0.011356884
C0D670,海天一線,2024-10-03,24.831986,120.914438,0.0070057726
C0D680,香山濕地,2024-10-03,24.783581,120.914988,0.011255487
C0D690,外湖,2024-10-03,24.917735,120.968711,0.009374533
C0D700,關西,2024-10-03,24.7977,121.1732,0.018077532
C0E420,竹南,2024-10-03,24.708978,120.888897,0.012136361
C0E430,南庄,2024-10-03,24.601775,121.000214,0.18942647
C0E550,明德,2024-10-03,24.583486,120.885411,0.15965055
C0E590,通霄,2024-10-03,24.471892,120.704622,0.014150252
C0E730,頭份,2024-10-03,24.688247,120.912206,0.011949884
C0E740,造橋,2024-10-03,24.637056,120.864778,0.0114334095
C0E750,苗栗,2024-10-03,24.564569,120.824575,0.118919946
C0E780,銅鑼,2024-10-03,24.489681,120.790853,0.6098562
C0E791,卓蘭,2024-10-03,24.3126,120.8244,0.86923474
C0E810,西湖,2024-10-03,24.562947,120.7485,0.045110386
C0E820,獅潭,2024-10-03,24.539133,120.920042,0.51251477
C0E830,苑裡,2024-10-03,24.439714,120.653053,0.020716883
C0E850,大河,2024-10-03,24.618069,120.948578,0.06556678
C0E870,高鐵苗栗,2024-10-03,24.60725,120.826094,0.011491054
C0E910,海埔,2024-10-03,24.648767,120.772435,0.020935778
C0E920,通霄漁港,2024-10-03,24.498589,120.673876,0.021999052
C0E930,龍鳳,2024-10-03,24.700034,120.859125,0.011486764
C0F0B0,石岡,2024-10-03,24.276061,120.777644,0.49429256
C0F850,東勢,2024-10-03,24.246428,120.833047,0.98812014
C0F970,大坑,2024-10-03,24.173142,120.722289,0.30167416
C0F9I0,神岡,2024-10-03,24.272481,120.658314,0.20311655
C0F9K0,大安,2024-10-03,24.345061,120.588025,0.051963076
C0F9L0,后里,2024-10-03,24.310436,120.729725,0.25344205
C0F9M0,豐原,2024-10-03,24.254322,120.720692,0.17734535
C0F9N0,大里,2024-10-03,24.092464,120.701378,0.030951545
C0F9O0,潭子,2024-10-03,24.213106,120.703933,0.113818824
C0F9P0,清水,2024-10-03,24.312297,120.562242,0.017602023
C0F9Q0,外埔,2024-10-03,24.347817,120.705686,0.12833731
C0F9R0,龍井,2024-10-03,24.184536,120.528972,0.00978632
C0F9S0,烏日,2024-10-03,24.107058,120.624103,0.025911482
C0F9T0,西屯,2024-10-03,24.179494,120.641275,0.06480376
C0F9U0,南屯,2024-10-03,24.137006,120.637969,0.04077754
C0F9X0,大雅(中科園區),2024-10-03,24.21528,120.62445,0.1634523
C0FA10,松柏,2024-10-03,24.429115,120.617482,0.023691097
C0FA20,溫寮,2024-10-03,24.372177,120.583125,0.04765393
C0FA30,梧棲,2024-10-03,24.256003,120.523381,0.017602023
C0FA40,臺中電廠,2024-10-03,24.2146,120.4907,0.0109874355
C0FA50,霧峰,2024-10-03,24.0419,120.6995,0.02023543
C0G620,芬園,2024-10-03,24.015678,120.6213,0.019016378
C0G650,員林,2024-10-03,23.946503,120.585597,0.038875457
C0G660,溪湖,2024-10-03,23.94835,120.479122,0.04345038
C0G720,溪州,2024-10-03,23.851589,120.499093,0.015164084
C0G730,二林,2024-10-03,23.903325,120.376081,0.033110004
C0G740,大城,2024-10-03,23.852487,120.320935,0.1569208
C0G770,福興,2024-10-03,24.041289,120.437669,0.032719057
C0G780,秀水,2024-10-03,24.03405,120.503869,0.03250853
C0G800,埔鹽,2024-10-03,24.000394,120.431683,0.032512788
C0G810,埔心,2024-10-03,23.947633,120.525456,0.0452625
C0G820,田尾,2024-10-03,23.901669,120.509389,0.022919321
C0G830,埤頭,2024-10-03,23.866003,120.452806,0.015380918
C0G860,社頭,2024-10-03,23.897647,120.5862,0.029833132
C0G880,二水,2024-10-03,23.810742,120.6173,0.045419175
C0G890,伸港,2024-10-03,24.148933,120.484403,0.010664111
C0G900,線西,2024-10-03,24.143358,120.443536,0.010701111
C0G910,花壇,2024-10-03,24.032076,120.549461,0.036856763
C0G920,永靖,2024-10-03,23.924703,120.547533,0.022919321
C0G940,竹塘,2024-10-03,23.848253,120.386764,0.042163208
C0G950,防潮門,2024-10-03,24.1835,120.4871,0.00978632
C0G960,福寶,2024-10-03,24.0443,120.3814,0.02241184
C0G970,三豐,2024-10-03,23.882,120.2895,0.19922584
C0H890,埔里,2024-10-03,23.972169,120.952425,0.665471
C0H960,草屯,2024-10-03,23.973672,120.68085,0.018950878
C0I110,竹山,2024-10-03,23.761225,120.688156,0.055657588
C0I360,水里,2024-10-03,23.812553,120.849792,0.0540066
C0I380,集集,2024-10-03,23.828206,120.801467,0.04716342
C0I410,名間,2024-10-03,23.837053,120.701447,0.082288004
C0I420,國姓,2024-10-03,24.037803,120.855072,0.26441842
C0I460,南投,2024-10-03,23.911469,120.687331,0.065083854
C0K250,崙背,2024-10-03,23.75555,120.318925,0.05717972
C0K280,四湖,2024-10-03,23.630414,120.227125,0.054837234
C0K291,宜梧,2024-10-03,23.536281,120.169329,0.1241422
C0K330,虎尾,2024-10-03,23.719183,120.442036,0.029828364
C0K390,土庫,2024-10-03,23.679029,120.395574,0.05726142
C0K400,斗六,2024-10-03,23.720583,120.541127,0.050207213
C0K410,北港,2024-10-03,23.573957,120.292802,0.08251079
C0K420,西螺,2024-10-03,23.800407,120.467394,0.015579114
C0K430,褒忠,2024-10-03,23.690938,120.303634,0.11134944
C0K440,二崙,2024-10-03,23.772797,120.408944,0.01662059
C0K450,大埤,2024-10-03,23.646074,120.431537,0.11188425
C0K460,斗南,2024-10-03,23.678734,120.478359,0.101534426
C0K470,林內,2024-10-03,23.748675,120.609642,0.028276533
C0K480,莿桐,2024-10-03,23.761192,120.502372,0.04417087
C0K500,元長,2024-10-03,23.64981,120.315024,0.05274738
C0K510,水林,2024-10-03,23.572924,120.24597,0.08035605
C0K530,臺西,2024-10-03,23.701547,120.197559,0.10891648
C0K550,蔦松,2024-10-03,23.514319,120.229736,0.1241422
C0K560,棋山,2024-10-03,23.68645,120.603417,0.047028795
C0K580,高鐵雲林,2024-10-03,23.737456,120.417944,0.03217951
C0K590,雲林東勢,2024-10-03,23.674192,120.255721,0.067616515
C0K600,箔子寮,2024-10-03,23.6197,120.14,0.10523468
C0M520,東後寮,2024-10-03,23.369908,120.248065,0.09418974
C0M640,中埔,2024-10-03,23.42538,120.5229,0.0719408
C0M650,朴子,2024-10-03,23.43463,120.23902,0.07414496
C0M660,溪口,2024-10-03,23.604131,120.403569,0.11882972
C0M670,大林,2024-10-03,23.600616,120.45841,0.10647889
C0M680,太保,2024-10-03,23.455062,120.331455,0.06301697
C0M690,水上,2024-10-03,23.419734,120.388909,0.0703221
C0M700,竹崎,2024-10-03,23.526178,120.555508,0.0828723
C0M710,東石,2024-10-03,23.458927,120.15385,0.14919403
C0M720,番路,2024-10-03,23.464657,120.554156,0.08847841
C0M730,嘉義市東區,2024-10-03,23.457673,120.460531,0.05884665
C0M740,六腳,2024-10-03,23.492871,120.290625,0.08288206
C0M750,布袋,2024-10-03,23.380878,120.167789,0.10483276
C0M760,民雄,2024-10-03,23.551754,120.428457,0.107425705
C0M770,嘉義梅山,2024-10-03,23.585398,120.555587,0.07699209
C0M780,鹿草,2024-10-03,23.41134,120.30835,0.07631337
C0M790,新港,2024-10-03,23.553269,120.345728,0.053552173
C0M800,茶山,2024-10-03,23.299075,120.664767,0.10393747
C0M880,好美里,2024-10-03,23.3364,120.138,0.062598996
C0N010,鯤鯓國小,2024-10-03,23.1879,120.0889,0.03289386
C0N020,城西,2024-10-03,23.0568,120.0956,0.017743012
C0N030,四草,2024-10-03,23.0235,120.1116,0.017589733
C0N040,蘆竹溝,2024-10-03,23.2344,120.0961,0.06372945
C0N050,蚵寮,2024-10-03,23.301,120.1104,0.07569767
C0O830,北寮,2024-10-03,23.079561,120.495008,0.030721799
C0O840,王爺宮,2024-10-03,23.222064,120.40085,0.026953079
C0O860,大內,2024-10-03,23.11885,120.36083,0.017686166
C0O900,善化,2024-10-03,23.112883,120.297219,0.018836016
C0O960,崎頂,2024-10-03,22.959547,120.369317,0.0190803
C0O970,虎頭埤,2024-10-03,23.021375,120.347878,0.021582609
C0O980,新市,2024-10-03,23.061614,120.298197,0.020711407
C0O990,媽廟,2024-10-03,22.99175,120.293525,0.017223064
C0R150,三地門,2024-10-03,22.709889,120.639944,0.048937477
C0R160,鹽埔,2024-10-03,22.739558,120.530778,0.041565765
C0R170,屏東,2024-10-03,22.660269,120.494072,0.01743027
C0R190,赤山,2024-10-03,22.592333,120.614306,0.07902559
C0R220,潮州,2024-10-03,22.534361,120.54,0.05556543
C0R240,來義,2024-10-03,22.527306,120.625111,0.040356494
C0R260,春日,2024-10-03,22.370361,120.628306,0.008470024
C0R270,琉球嶼,2024-10-03,22.332244,120.362236,0.027502755
C0R280,檳榔,2024-10-03,22.076078,120.836777,0.3814192
C0R320,車城,2024-10-03,22.0744,120.716247,0.021419015
C0R341,牡丹,2024-10-03,22.130036,120.792639,0.34920457
C0R350,貓鼻頭,2024-10-03,21.921774,120.7358,0.016335377
C0R470,高樹,2024-10-03,22.826389,120.600806,0.099381894
C0R480,長治,2024-10-03,22.693128,120.542622,0.008109407
C0R490,九如,2024-10-03,22.7405,120.490503,0.04119692
C0R520,崁頂,2024-10-03,22.514781,120.506914,0.05715641
C0R540,佳冬,2024-10-03,22.419456,120.552375,0.009606603
C0R550,新埤,2024-10-03,22.467947,120.582894,0.05610145
C0R560,新園,2024-10-03,22.5434,120.461558,0.025184754
C0R570,麟洛,2024-10-03,22.65078,120.52719,0.01743027
C0R580,南州,2024-10-03,22.48591,120.50274,0.061743796
C0R590,里港,2024-10-03,22.77919,120.49459,0.012402952
C0R620,墾雷,2024-10-03,21.900836,120.855269,0.04113755
C0R640,東港,2024-10-03,22.46247,120.44074,0.061743796
C0R650,竹田,2024-10-03,22.58486,120.54344,0.082557045
C0R660,枋寮,2024-10-03,22.367722,120.590647,0.009877981
C0R670,楓港,2024-10-03,22.190131,120.692156,0.19665088
C0R680,佳樂水,2024-10-03,21.993578,120.861633,0.025663702
C0R690,墾丁,2024-10-03,21.966756,120.810269,0.05815195
C0R700,枋山,2024-10-03,22.246844,120.661086,0.07648221
C0R710,龍磐,2024-10-03,21.931672,120.838942,0.03826648
C0R720,旭海,2024-10-03,22.205403,120.887614,0.95336014
C0R730,大坪頂,2024-10-03,22.024633,120.69355,0.06270822
C0R740,獅子,2024-10-03,22.201569,120.70525,0.360622
C0R760,南仁湖,2024-10-03,22.084681,120.863353,0.81830174
C0R770,保力,2024-10-03,22.071122,120.764111,0.032167494
C0R780,滿州,2024-10-03,22.024403,120.839892,0.1477417
C0R790,九棚,2024-10-03,22.14195,120.889281,0.89313436
C0R800,丹路,2024-10-03,22.204481,120.750989,0.091522895
C0R810,內獅,2024-10-03,22.305064,120.642986,0.014013446
C0R830,高士,2024-10-03,22.121825,120.836781,0.9359043
C0R850,林邊,2024-10-03,22.4634,120.5339,0.06001228
C0R860,鼻頭,2024-10-03,22.1043,120.8979,0.09987276
C0R870,興海,2024-10-03,21.9752,120.8439,0.025012333
C0R880,後壁湖,2024-10-03,21.9457,120.7457,0.010028813
C0R890,山海,2024-10-03,21.9878,120.7091,0.010212684
C0R900,竹坑,2024-10-03,22.1385,120.7022,0.02188657
C0R910,下寮,2024-10-03,22.3929,120.5548,0.009877981
C0R920,塭仔,2024-10-03,22.4169,120.5197,0.009859037
C0R930,萬丹,2024-10-03,22.5885,120.4851,0.01620868
C0R940,加祿堂,2024-10-03,22.3363,120.6217,0.009274325
C0S710,鹿野,2024-10-03,22.917711,121.122994,0.90376765
C0S730,綠島,2024-10-03,22.6672,121.47533,0.99810374
C0S740,池上,2024-10-03,23.119628,121.209469,0.97350514
C0S770,大溪山,2024-10-03,22.478475,120.943325,0.8350408
C0S790,金崙,2024-10-03,22.538122,120.966875,0.6971712
C0S810,東河,2024-10-03,22.972672,121.303986,0.9828079
C0S830,長濱,2024-10-03,23.286817,121.411975,0.9519718
C0S840,南田,2024-10-03,22.279725,120.889208,0.69114685
C0S890,關山,2024-10-03,23.0395,121.175017,0.99308157
C0S900,蘭嶼高中,2024-10-03,22.04909,121.51214,0.98585325
C0S910,蘭嶼燈塔,2024-10-03,22.081197,121.503117,0.98953587
C0S920,金峰嘉蘭,2024-10-03,22.594789,120.960825,0.07300933
C0S930,延平,2024-10-03,22.902581,121.084058,0.97735614
C0S940,石寧山,2024-10-03,23.223772,121.406639,0.9915441
C0S950,七塊厝,2024-10-03,22.954453,121.229922,0.9570926
C0S960,香蘭,2024-10-03,22.587569,120.993375,0.056962553
C0S970,加津林,2024-10-03,22.416211,120.926942,0.52875674
C0S990,山豬窟,2024-10-03,22.318619,120.857372,0.9833184
C0SA00,歷坵,2024-10-03,22.520969,120.89185,0.9113685
C0SA10,檳榔四格山,2024-10-03,22.810031,121.109308,0.9968552
C0SA30,都歷,2024-10-03,23.020333,121.323642,0.9970773
C0SA40,瑞和,2024-10-03,22.974361,121.156697,0.99699044
C0SA60,知本（水試所）,2024-10-03,22.702394,121.082761,0.07365584
C0SA80,土坂,2024-10-03,22.453108,120.887572,0.5198085
C0SA90,達仁林場,2024-10-03,22.264347,120.823972,0.7514338
C0T870,鯉魚潭,2024-10-03,23.935639,121.508944,0.31566706
C0T900,西林,2024-10-03,23.8119,121.441458,0.9937584
C0T960,光復,2024-10-03,23.660694,121.424964,0.98413825
C0T9A0,月眉山,2024-10-03,23.809928,121.539828,0.9330781
C0T9D0,和中,2024-10-03,24.26676,121.74103,0.9973176
C0T9E0,大坑,2024-10-03,23.880628,121.581981,0.31227806
C0T9F0,水璉,2024-10-03,23.797131,121.542514,0.9827367
C0T9I0,豐濱,2024-10-03,23.583897,121.514806,0.99251586
C0T9M0,靜浦,2024-10-03,23.455167,121.495028,0.9966535
C0T9N0,富里,2024-10-03,23.171639,121.249378,0.988218
C0U600,礁溪,2024-10-03,24.817539,121.765608,0.021923818
C0U650,玉蘭,2024-10-03,24.675286,121.587061,0.10086228
C0U750,龜山島,2024-10-03,24.841667,121.953133,0.98841023
C0U760,東澳,2024-10-03,24.52196,121.83318,0.3230584
C0U770,南澳,2024-10-03,24.44935,121.81022,0.57161903
C0U780,五結,2024-10-03,24.68637,121.79794,0.1035634
C0U860,頭城,2024-10-03,24.85323,121.8308,0.022056468
C0U870,大礁溪,2024-10-03,24.791042,121.675047,0.008926519
C0U880,北關,2024-10-03,24.9072,121.8734,0.01264652
C0U890,三星,2024-10-03,24.66812,121.65302,0.04163563
C0U900,內城,2024-10-03,24.71813,121.68766,0.10884569
C0U910,冬山,2024-10-03,24.63373,121.7937,0.23100258
C0U940,羅東,2024-10-03,24.68184,121.74934,0.10672712
C0U970,大福,2024-10-03,24.80064,121.81389,0.04988255
C0U990,員山,2024-10-03,24.74435,121.72247,0.10371067
C0UA00,土場,2024-10-03,24.576533,121.495333,0.11575284
C0UA80,大溪漁港,2024-10-03,24.941801,121.902955,0.013328915
C0UA90,石城,2024-10-03,24.980444,121.951214,0.011719317
C0UB00,淡江大學蘭陽校園,2024-10-03,24.823239,121.730383,0.005087521
C0UB10,蘇澳,2024-10-03,24.5969,121.8571,0.06740496
C0UB20,壯圍,2024-10-03,24.7359,121.8163,0.10658843
C0V310,美濃,2024-10-03,22.898742,120.519153,0.022145007
C0V350,溪埔,2024-10-03,22.738578,120.446797,0.009067352
C0V360,內門,2024-10-03,22.975481,120.466769,0.01574596
C0V370,古亭坑,2024-10-03,22.893178,120.401947,0.01949812
C0V400,阿公店,2024-10-03,22.804194,120.355528,0.015005237
C0V440,鳳山,2024-10-03,22.646653,120.356122,0.011800369
C0V450,鳳森,2024-10-03,22.545064,120.392592,0.025320107
C0V490,新興,2024-10-03,22.627422,120.298803,0.014538633
C0V530,阿蓮,2024-10-03,22.883208,120.327508,0.018501535
C0V610,梓官,2024-10-03,22.760558,120.267211,0.011489998
C0V620,永安,2024-10-03,22.82315,120.236856,0.02207365
C0V630,茄萣,2024-10-03,22.906642,120.182608,0.021248804
C0V640,湖內,2024-10-03,22.887139,120.2445,0.019644491
C0V650,彌陀,2024-10-03,22.783806,120.246361,0.019859737
C0V660,岡山,2024-10-03,22.797078,120.294958,0.019859737
C0V680,仁武,2024-10-03,22.701083,120.347722,0.011735112
C0V690,鼓山,2024-10-03,22.623325,120.275575,0.014538633
C0V700,三民,2024-10-03,22.645017,120.311233,0.01272175
C0V710,苓雅,2024-10-03,22.622742,120.330669,0.012888507
C0V720,林園,2024-10-03,22.507747,120.394511,0.023428524
C0V730,大寮,2024-10-03,22.605614,120.395717,0.012967425
C0V740,旗山,2024-10-03,22.888614,120.483597,0.021886263
C0V750,路竹,2024-10-03,22.854997,120.259439,0.01984063
C0V760,橋頭,2024-10-03,22.757806,120.30575,0.011489998
C0V770,大社,2024-10-03,22.730306,120.346639,0.010329922
C0V790,萬山,2024-10-03,22.905944,120.688056,0.48144594
C0V800,六龜,2024-10-03,22.997889,120.633583,0.03244767
C0V810,左營,2024-10-03,22.67491,120.28491,0.01272175
C0V820,小林,2024-10-03,23.148408,120.63325,0.8416255
C0V840,鳳鼻頭,2024-10-03,22.5083,120.3591,0.02566645
C0V850,蚵仔寮,2024-10-03,22.7256,120.2527,0.011326482
C0V860,南寮,2024-10-03,22.7616,120.2339,0.011326482
C0V870,文安,2024-10-03,22.8025,120.2164,0.019413225
C0V880,興達,2024-10-03,22.8778,120.2127,0.019458713
C0V890,前鎮,2024-10-03,22.5718,120.3117,0.014450305
C0V900,汕尾,2024-10-03,22.4782,120.4151,0.061743796
C0W200,湖西,2024-10-03,23.596314,119.67275,0.9531053
C0X050,東河,2024-10-03,23.296598,120.385608,0.037214026
C0X060,下營,2024-10-03,23.22695,120.256261,0.039841786
C0X080,佳里,2024-10-03,23.173039,120.145086,0.03289386
C0X100,臺南市北區,2024-10-03,23.010394,120.194228,0.017496996
C0X110,臺南市南區,2024-10-03,22.961189,120.188378,0.020546379
C0X120,麻豆,2024-10-03,23.183289,120.248611,0.01903065
C0X130,官田,2024-10-03,23.193217,120.315422,0.018679792
C0X140,西港,2024-10-03,23.125608,120.203108,0.016454905
C0X150,安定,2024-10-03,23.102614,120.227839,0.016454905
C0X160,仁德,2024-10-03,22.968258,120.257689,0.021039821
C0X170,關廟,2024-10-03,22.963017,120.327797,0.014133068
C0X180,山上,2024-10-03,23.0757,120.363253,0.017293885
C0X190,安平,2024-10-03,22.993161,120.152181,0.017496996
C0X200,左鎮,2024-10-03,23.056758,120.408522,0.020806162
C0X210,白河,2024-10-03,23.347466,120.414427,0.05407339
C0X220,學甲,2024-10-03,23.230367,120.182187,0.06517929
C0X230,鹽水,2024-10-03,23.272621,120.247641,0.058270905
C0X240,關子嶺,2024-10-03,23.331169,120.508025,0.48470825
C0X250,新營,2024-10-03,23.310689,120.316681,0.05440934
C0X260,後壁,2024-10-03,23.366358,120.362326,0.06308242
C0X280,將軍,2024-10-03,23.214999,120.13577,0.06372945
C0X290,北門,2024-10-03,23.267772,120.125481,0.06372945
C0X300,鹿寮,2024-10-03,23.386047,120.477331,0.052869555
C0X320,柳營,2024-10-03,23.253328,120.375253,0.02260037
C0Z020,明里,2024-10-03,23.208717,121.262342,0.983681
C0Z061,玉里,2024-10-03,23.3215,121.339656,0.98536813
C0Z070,舞鶴,2024-10-03,23.46811,121.37407,0.9837283
C0Z080,富源,2024-10-03,23.587642,121.378225,0.7704365
C0Z100,東華,2024-10-03,23.89525,121.549833,0.56314945
C0Z150,吉安光華,2024-10-03,23.930925,121.595153,0.06770948
C0Z160,鳳林,2024-10-03,23.746114,121.453411,0.96325785
C0Z170,卓溪,2024-10-03,23.3443,121.3029,0.9540823
C0Z180,新城,2024-10-03,24.03946,121.60454,0.2136979
C0Z190,富世,2024-10-03,24.14743,121.6297,0.07160876
C0Z200,萬榮,2024-10-03,23.709219,121.420106,0.96339
C0Z210,瑞穗,2024-10-03,23.5239,121.39021,0.9941988
C0Z230,和平,2024-10-03,24.30717,121.77007,0.99738353
C0Z270,蕃薯寮,2024-10-03,23.73835,121.540108,0.96112645
C0Z280,德武,2024-10-03,23.47426,121.41071,0.9855396
C0Z300,東里,2024-10-03,23.26853,121.30547,0.9894482
C0Z310,清水斷崖,2024-10-03,24.218294,121.689142,0.98251414
C0Z330,安通山,2024-10-03,23.290728,121.348528,0.7876693
C2A540,四堵,2024-10-03,24.8926,121.745736,0.013859093
C2A560,福山,2024-10-03,24.776203,121.502811,0.004639084
C2A650,火燒寮,2024-10-03,25.002719,121.742892,0.008643349
C2A660,瑞芳,2024-10-03,25.113169,121.801147,0.0128027415
C2A880,福隆,2024-10-03,25.017842,121.942083,0.011926829
C2A920,富貴角,2024-10-03,25.263783,121.565258,0.0049925135
C2E520,大湖,2024-10-03,24.414939,120.870872,0.71568
C2E540,後龍,2024-10-03,24.606489,120.783933,0.02064588
C2E540,龍溪,2024-10-03,24.606489,120.783933,0.02064588
C2F000,大肚,2024-10-03,24.15295,120.572117,0.7516427
C2F930,大甲,2024-10-03,24.347667,120.640403,0.09479951
C2F9A0,中竹林,2024-10-03,24.103556,120.751061,0.6487814
C2G640,鹿港,2024-10-03,24.0753,120.430481,0.02241184
C2G840,北斗,2024-10-03,23.877586,120.514222,0.015356521
C2G870,芳苑,2024-10-03,23.922303,120.320025,0.14241232
C2H950,中寮,2024-10-03,23.884447,120.766406,0.10688668
C2M410,馬頭山,2024-10-03,23.324361,120.582017,0.04703318
C2N160,西拉雅風管處,2024-10-03,23.189481,120.335297,0.018919421
C2O810,曾文,2024-10-03,23.219681,120.497328,0.025857966
C2O930,玉井,2024-10-03,23.126042,120.46055,0.017293885
C2O950,安南,2024-10-03,23.076694,120.144861,0.03639744
C2V250,甲仙,2024-10-03,23.080106,120.591758,0.10670216
C2V260,月眉,2024-10-03,22.971003,120.539853,0.01938914
C2W230,畜試所澎湖,2024-10-03,23.628342,119.513206,0.9358944
CAG100,王功漁港,2024-10-03,23.96824,120.32586,0.15978149
CAH030,茶改場竹圍站,2024-10-03,23.860083,120.637528,0.18419982
CAJ050,海口故事園區,2024-10-03,23.57543,120.14121,0.10607254
CAL110,布袋國中,2024-10-03,23.35893,120.18026,0.10483276
CAN130,水試所海水繁養殖中心,2024-10-03,23.120802,120.07968,0.037693452
CAN140,六官養殖協會,2024-10-03,23.22881,120.29962,0.039841786
CAQ030,崎峰國小,2024-10-03,22.42565,120.49521,0.061743796
E2K600,四湖植物園,2024-10-03,23.676986,120.163433,0.054837234
E2P980,林試六龜中心,2024-10-03,22.991703,120.645722,0.036902186
E2S960,林試太麻里2,2024-10-03,22.598014,120.989761,0.057398487
E2S960,林試太麻里2,2024-10-03,22.598,120.99775,0.055798475
E2S980,林試太麻里1,2024-10-03,22.598922,120.980044,0.07187771
G2AI50,關渡,2024-10-03,25.11575,121.492,0.012617076
G2F820,農業試驗所,2024-10-03,24.031261,120.688133,0.02018092
G2F820,農試所(霧峰),2024-10-03,24.031261,120.688133,0.02018092
G2L020,農試嘉義分所,2024-10-03,23.485028,120.473806,0.07483971
G2M350,農試溪口農場,2024-10-03,23.58565,120.408111,0.11882972
G2P820,農試鳳山分所,2024-10-03,22.646611,120.356083,0.011800369
K2E360,苗栗農改,2024-10-03,24.495722,120.829111,0.25504783
K2E360,苗栗農改場,2024-10-03,24.495722,120.829111,0.25504783
K2E710,苗改生物防治研究中心,2024-10-03,24.422861,120.871833,0.4547354
K2F750,種苗改良場,2024-10-03,24.225972,120.800917,0.98658377
K2F750,種苗繁殖,2024-10-03,24.225972,120.800917,0.98658377
U2HA50,臺大竹山,2024-10-03,23.756972,120.681556,0.03215393
V2C250,八德合作社,2024-10-03,24.93775,121.266389,0.011918919
V2C260,八德蔬果,2024-10-03,24.978508,121.281819,0.015529579
V2K610,大庄合作社,2024-10-03,23.8068,120.367939,0.026719877
V2K620,麥寮合作社,2024-10-03,23.753836,120.294783,0.11159023
