站號,站名,日期,lat,lon,BlastGRU-TW
12J990,口湖工作站,2024-12-09,23.589978,120.180394,0.09429237
12Q970,東港工作站,2024-12-09,22.479997,120.466058,0.08466674
12Q980,恆春工作站,2024-12-09,22.079678,120.714425,0.0055251108
466881,新北,2024-12-09,24.9593,121.52,0.035632517
466900,淡水,2024-12-09,25.164889,121.448906,0.08355679
466920,臺北,2024-12-09,25.037658,121.514853,0.05202782
466940,基隆,2024-12-09,25.133314,121.740475,0.96641344
466990,花蓮,2024-12-09,23.975128,121.613275,0.032026645
467050,新屋,2024-12-09,25.006744,121.047486,0.026290879
467080,宜蘭,2024-12-09,24.763975,121.756528,0.70234007
467270,田中,2024-12-09,23.873803,120.581286,0.7603104
467280,後龍,2024-12-09,24.648563,120.831834,0.09255832
467290,古坑,2024-12-09,23.633639,120.551889,0.3413231
467300,東吉島,2024-12-09,23.25695,119.667467,0.0030159573
467350,澎湖,2024-12-09,23.565503,119.563094,0.0024498026
467410,臺南,2024-12-09,22.993239,120.204772,0.45724156
467420,永康,2024-12-09,23.038386,120.2367,0.49091998
467441,高雄,2024-12-09,22.7304,120.3125,0.19565725
467480,嘉義,2024-12-09,23.495925,120.432906,0.6533193
467490,臺中,2024-12-09,24.145736,120.684075,0.66775745
467540,大武,2024-12-09,22.355675,120.903789,0.054699466
467571,新竹,2024-12-09,24.827853,121.014219,0.017631086
467590,恆春,2024-12-09,22.003897,120.746339,0.04439108
467610,成功,2024-12-09,23.097486,121.373428,0.6548644
467620,蘭嶼,2024-12-09,22.036969,121.558339,0.000233688
467660,臺東,2024-12-09,22.752211,121.154586,0.06292567
467790,墾丁雷達站,2024-12-09,21.948235,120.808028,0.0059838435
72AI40,桃改樹林分場,2024-12-09,24.944503,121.386972,0.17612383
72C440,桃園農改,2024-12-09,24.950944,121.030583,0.019798081
72C440,桃園農改場,2024-12-09,24.950944,121.030583,0.019798081
72D680,桃改新埔分場,2024-12-09,24.834444,121.066111,0.0055651986
72G600,臺中農改,2024-12-09,24.003028,120.534389,0.2466672
72G600,臺中農改場,2024-12-09,24.003028,120.534389,0.2466672
72K220,南改斗南分場,2024-12-09,23.634556,120.477333,0.6970899
72M360,南改義竹分場,2024-12-09,23.360694,120.279361,0.34096035
72M700,南改鹿草分場,2024-12-09,23.416869,120.283061,0.4060751
72N100,臺南農改,2024-12-09,23.0605,120.342194,0.6531184
72N100,臺南農改場,2024-12-09,23.0605,120.342194,0.6531184
72N240,七股研究中心,2024-12-09,23.081672,120.062894,0.24718784
72Q010,高雄農改,2024-12-09,22.709333,120.525889,0.16027416
72Q010,高雄農改場,2024-12-09,22.709333,120.525889,0.16027416
72S200,東改班鳩分場,2024-12-09,22.829528,121.077694,0.036393616
72S590,東改賓朗果園,2024-12-09,22.813889,121.071278,0.03558727
72T250,花蓮農改,2024-12-09,23.975222,121.563889,0.029885635
72T250,花蓮農改場,2024-12-09,23.975222,121.563889,0.029885635
72U480,花改蘭陽分場,2024-12-09,24.686306,121.716583,0.9784243
72V140,高改旗南分場,2024-12-09,22.857861,120.516667,0.31963494
82A750,茶改北部分場,2024-12-09,24.955778,121.631222,0.3930695
82C160,茶改場,2024-12-09,24.908472,121.185333,0.122750014
82H840,茶改南部分場,2024-12-09,23.762528,120.7405,0.31281602
82S580,茶改東部分場,2024-12-09,22.907694,121.130139,0.034180865
A2C560,農工中心,2024-12-09,24.985917,121.239833,0.4933055
A2K360,水試臺西試驗場,2024-12-09,23.717231,120.190522,0.061159246
A2K570,古坑花卉中心,2024-12-09,23.63353,120.55239,0.3413231
A2K630,臺大雲林校區,2024-12-09,23.730628,120.423903,0.44951198
A2N290,臺南蘭花園區,2024-12-09,23.340258,120.379661,0.5650676
B2E890,畜試北區分所,2024-12-09,24.527806,120.770972,0.30236042
B2N890,畜產試驗所,2024-12-09,23.058972,120.336406,0.64723617
B2N890,畜試所,2024-12-09,23.058972,120.336406,0.64723617
B2Q810,畜試南區分所,2024-12-09,21.945583,120.802167,0.009578592
B2U990,畜試東區分所,2024-12-09,24.669039,121.832561,0.99238837
C0A520,山佳,2024-12-09,24.974944,121.402008,0.08283461
C0A530,坪林,2024-12-09,24.938183,121.70975,0.8067662
C0A550,泰平,2024-12-09,24.971197,121.823711,0.7048473
C0A570,桶後,2024-12-09,24.848222,121.597992,0.68096644
C0A640,石碇,2024-12-09,24.993969,121.662917,0.030689372
C0A770,科教館,2024-12-09,25.096356,121.516507,0.056917626
C0A860,大坪,2024-12-09,25.165914,121.632969,0.2794481
C0A890,雙溪,2024-12-09,25.036003,121.864242,0.9771608
C0A931,三和,2024-12-09,25.233153,121.595236,0.7629999
C0A940,金山,2024-12-09,25.223628,121.643967,0.9730451
C0A950,鼻頭角,2024-12-09,25.129036,121.923372,0.17678884
C0A970,三貂角,2024-12-09,25.007606,122.002058,0.98744565
C0A980,社子,2024-12-09,25.109508,121.469681,0.09393138
C0A9C0,天母,2024-12-09,25.117494,121.537169,0.26558548
C0A9F0,內湖,2024-12-09,25.079422,121.57545,0.05202782
C0AC60,三峽,2024-12-09,24.939025,121.369728,0.16867131
C0AC70,信義,2024-12-09,25.037822,121.564597,0.05202782
C0AC80,文山,2024-12-09,25.00235,121.575728,0.034018368
C0ACA0,新莊,2024-12-09,25.051478,121.446756,0.03604673
C0AD10,八里,2024-12-09,25.150211,121.403947,0.08182937
C0AD30,蘆洲,2024-12-09,25.086594,121.472331,0.0558493
C0AD40,土城,2024-12-09,24.973208,121.445169,0.036818314
C0AD50,鶯歌,2024-12-09,24.951533,121.346294,0.16034494
C0AG80,中和,2024-12-09,24.991622,121.491792,0.036818314
C0AH00,汐止,2024-12-09,25.066881,121.658778,0.05202782
C0AH10,永和,2024-12-09,25.01125,121.508111,0.037660558
C0AH40,平等,2024-12-09,25.129142,121.577086,0.18091127
C0AH50,林口,2024-12-09,25.072181,121.38084,0.016187647
C0AH70,松山,2024-12-09,25.04871,121.55042,0.05202782
C0AH80,深坑,2024-12-09,25.002703,121.628328,0.033946805
C0AI00,五股,2024-12-09,25.07445,121.42728,0.04203183
C0AI10,屈尺,2024-12-09,24.92184,121.54475,0.81900656
C0AI20,白沙灣,2024-12-09,25.283128,121.519058,0.92934823
C0AI30,三重,2024-12-09,25.057328,121.500629,0.052925922
C0AI40,石牌,2024-12-09,25.115597,121.513139,0.2767144
C0AJ20,野柳,2024-12-09,25.20703,121.690021,0.96300787
C0AJ30,淡水觀海,2024-12-09,25.184591,121.408616,0.8485147
C0AJ40,石門,2024-12-09,25.273672,121.601198,0.66945755
C0AJ50,水湳洞,2024-12-09,25.123695,121.862238,0.9774013
C0AJ60,六塊厝,2024-12-09,25.24,121.4481,0.9361132
C0AJ70,田寮,2024-12-09,25.2698,121.4886,0.9320907
C0AJ80,板橋,2024-12-09,25.0107,121.4489,0.037660558
C0AJ90,澳底,2024-12-09,25.0552,121.9253,0.97808987
C0B010,七堵,2024-12-09,25.094819,121.71713,0.22028106
C0B020,基隆嶼,2024-12-09,25.19141,121.78391,0.45415238
C0B040,大武崙,2024-12-09,25.166676,121.706993,0.95789504
C0B050,八斗子,2024-12-09,25.144754,121.79167,0.967661
C0B060,暖暖,2024-12-09,25.0957,121.7403,0.18285504
C0C460,復興,2024-12-09,24.820208,121.352281,0.15727527
C0C480,桃園,2024-12-09,24.992425,121.323172,0.10960431
C0C490,八德,2024-12-09,24.928708,121.283289,0.19918385
C0C590,觀音,2024-12-09,25.027072,121.153317,0.004763559
C0C620,蘆竹,2024-12-09,25.084275,121.265767,0.09149941
C0C630,大溪,2024-12-09,24.882853,121.265547,0.11536532
C0C650,平鎮,2024-12-09,24.897503,121.214636,0.14651558
C0C660,楊梅,2024-12-09,24.912375,121.143047,0.17499901
C0C670,龍潭,2024-12-09,24.870056,121.221389,0.08270291
C0C680,龜山,2024-12-09,25.02846,121.38656,0.0687035
C0C700,中壢,2024-12-09,24.977661,121.256375,0.06454616
C0C710,大溪永福,2024-12-09,24.892936,121.324975,0.38423237
C0C720,竹圍,2024-12-09,25.112692,121.239824,0.02424341
C0C730,中大臨海站,2024-12-09,24.966126,121.008581,0.02869595
C0C740,觀音工業區,2024-12-09,25.064764,121.114856,0.004608988
C0C750,新興坑尾,2024-12-09,25.0061,121.0971,0.031934302
C0D430,峨眉,2024-12-09,24.6905,121.017189,0.025862422
C0D480,打鐵坑,2024-12-09,24.849664,121.150789,0.079263344
C0D540,橫山,2024-12-09,24.71116,121.11693,0.17251094
C0D560,竹東,2024-12-09,24.767147,121.057881,0.019228417
C0D580,寶山,2024-12-09,24.735006,121.025192,0.06091682
C0D590,新豐,2024-12-09,24.87068,120.97721,0.0017792484
C0D650,湖口,2024-12-09,24.904794,121.043628,0.07662179
C0D660,新竹市東區,2024-12-09,24.798681,120.986942,0.00447022
C0D670,海天一線,2024-12-09,24.831986,120.914438,0.00033516728
C0D680,香山濕地,2024-12-09,24.783581,120.914988,0.005538074
C0D690,外湖,2024-12-09,24.917735,120.968711,0.09607031
C0D700,關西,2024-12-09,24.7977,121.1732,0.057990342
C0E420,竹南,2024-12-09,24.708978,120.888897,0.00070367835
C0E430,南庄,2024-12-09,24.601775,121.000214,0.73630846
C0E550,明德,2024-12-09,24.583486,120.885411,0.24951756
C0E590,通霄,2024-12-09,24.471892,120.704622,0.0038378413
C0E730,頭份,2024-12-09,24.688247,120.912206,0.0007199785
C0E740,造橋,2024-12-09,24.637056,120.864778,0.098747574
C0E750,苗栗,2024-12-09,24.564569,120.824575,0.27686918
C0E780,銅鑼,2024-12-09,24.489681,120.790853,0.14387043
C0E791,卓蘭,2024-12-09,24.3126,120.8244,0.15080993
C0E810,西湖,2024-12-09,24.562947,120.7485,0.0029611168
C0E820,獅潭,2024-12-09,24.539133,120.920042,0.635866
C0E830,苑裡,2024-12-09,24.439714,120.653053,0.001980088
C0E850,大河,2024-12-09,24.618069,120.948578,0.54340106
C0E870,高鐵苗栗,2024-12-09,24.60725,120.826094,0.10008762
C0E910,海埔,2024-12-09,24.648767,120.772435,0.02175085
C0E920,通霄漁港,2024-12-09,24.498589,120.673876,0.0019168978
C0E930,龍鳳,2024-12-09,24.700034,120.859125,0.00079785363
C0F0B0,石岡,2024-12-09,24.276061,120.777644,0.23960958
C0F850,東勢,2024-12-09,24.246428,120.833047,0.10530193
C0F970,大坑,2024-12-09,24.173142,120.722289,0.55220264
C0F9I0,神岡,2024-12-09,24.272481,120.658314,0.22540028
C0F9K0,大安,2024-12-09,24.345061,120.588025,0.01043542
C0F9L0,后里,2024-12-09,24.310436,120.729725,0.33580548
C0F9M0,豐原,2024-12-09,24.254322,120.720692,0.38814613
C0F9N0,大里,2024-12-09,24.092464,120.701378,0.684501
C0F9O0,潭子,2024-12-09,24.213106,120.703933,0.477354
C0F9P0,清水,2024-12-09,24.312297,120.562242,0.051418792
C0F9Q0,外埔,2024-12-09,24.347817,120.705686,0.24383834
C0F9R0,龍井,2024-12-09,24.184536,120.528972,0.058770712
C0F9S0,烏日,2024-12-09,24.107058,120.624103,0.6744585
C0F9T0,西屯,2024-12-09,24.179494,120.641275,0.3769819
C0F9U0,南屯,2024-12-09,24.137006,120.637969,0.4131896
C0F9X0,大雅(中科園區),2024-12-09,24.21528,120.62445,0.23674819
C0FA10,松柏,2024-12-09,24.429115,120.617482,0.0030732683
C0FA20,溫寮,2024-12-09,24.372177,120.583125,0.010427687
C0FA30,梧棲,2024-12-09,24.256003,120.523381,0.051418792
C0FA40,臺中電廠,2024-12-09,24.2146,120.4907,0.038620748
C0FA50,霧峰,2024-12-09,24.0419,120.6995,0.6392423
C0G620,芬園,2024-12-09,24.015678,120.6213,0.63792884
C0G650,員林,2024-12-09,23.946503,120.585597,0.69067574
C0G660,溪湖,2024-12-09,23.94835,120.479122,0.36293525
C0G720,溪州,2024-12-09,23.851589,120.499093,0.54593384
C0G730,二林,2024-12-09,23.903325,120.376081,0.21748714
C0G740,大城,2024-12-09,23.852487,120.320935,0.015309287
C0G770,福興,2024-12-09,24.041289,120.437669,0.1178076
C0G780,秀水,2024-12-09,24.03405,120.503869,0.24844135
C0G800,埔鹽,2024-12-09,24.000394,120.431683,0.11904881
C0G810,埔心,2024-12-09,23.947633,120.525456,0.33728978
C0G820,田尾,2024-12-09,23.901669,120.509389,0.4575424
C0G830,埤頭,2024-12-09,23.866003,120.452806,0.5387043
C0G860,社頭,2024-12-09,23.897647,120.5862,0.76153016
C0G880,二水,2024-12-09,23.810742,120.6173,0.46099344
C0G890,伸港,2024-12-09,24.148933,120.484403,0.055091176
C0G900,線西,2024-12-09,24.143358,120.443536,0.051655393
C0G910,花壇,2024-12-09,24.032076,120.549461,0.21835169
C0G920,永靖,2024-12-09,23.924703,120.547533,0.4575424
C0G940,竹塘,2024-12-09,23.848253,120.386764,0.19320919
C0G950,防潮門,2024-12-09,24.1835,120.4871,0.058770712
C0G960,福寶,2024-12-09,24.0443,120.3814,0.079158396
C0G970,三豐,2024-12-09,23.882,120.2895,0.010933197
C0H890,埔里,2024-12-09,23.972169,120.952425,0.42104062
C0H960,草屯,2024-12-09,23.973672,120.68085,0.6476784
C0I110,竹山,2024-12-09,23.761225,120.688156,0.60417056
C0I360,水里,2024-12-09,23.812553,120.849792,0.3139672
C0I380,集集,2024-12-09,23.828206,120.801467,0.30602938
C0I410,名間,2024-12-09,23.837053,120.701447,0.5908347
C0I420,國姓,2024-12-09,24.037803,120.855072,0.47012475
C0I460,南投,2024-12-09,23.911469,120.687331,0.6593929
C0K250,崙背,2024-12-09,23.75555,120.318925,0.27058625
C0K280,四湖,2024-12-09,23.630414,120.227125,0.17606576
C0K291,宜梧,2024-12-09,23.536281,120.169329,0.1545593
C0K330,虎尾,2024-12-09,23.719183,120.442036,0.4641315
C0K390,土庫,2024-12-09,23.679029,120.395574,0.4504439
C0K400,斗六,2024-12-09,23.720583,120.541127,0.6596663
C0K410,北港,2024-12-09,23.573957,120.292802,0.24581376
C0K420,西螺,2024-12-09,23.800407,120.467394,0.5278138
C0K430,褒忠,2024-12-09,23.690938,120.303634,0.15238486
C0K440,二崙,2024-12-09,23.772797,120.408944,0.49624896
C0K450,大埤,2024-12-09,23.646074,120.431537,0.6589073
C0K460,斗南,2024-12-09,23.678734,120.478359,0.6970899
C0K470,林內,2024-12-09,23.748675,120.609642,0.3504546
C0K480,莿桐,2024-12-09,23.761192,120.502372,0.6952201
C0K500,元長,2024-12-09,23.64981,120.315024,0.24652559
C0K510,水林,2024-12-09,23.572924,120.24597,0.25810105
C0K530,臺西,2024-12-09,23.701547,120.197559,0.058758732
C0K550,蔦松,2024-12-09,23.514319,120.229736,0.1545595
C0K560,棋山,2024-12-09,23.68645,120.603417,0.36769527
C0K580,高鐵雲林,2024-12-09,23.737456,120.417944,0.44951203
C0K590,雲林東勢,2024-12-09,23.674192,120.255721,0.2351072
C0K600,箔子寮,2024-12-09,23.6197,120.14,0.09429237
C0M520,東後寮,2024-12-09,23.369908,120.248065,0.32562032
C0M640,中埔,2024-12-09,23.42538,120.5229,0.6175062
C0M650,朴子,2024-12-09,23.43463,120.23902,0.3911355
C0M660,溪口,2024-12-09,23.604131,120.403569,0.6880541
C0M670,大林,2024-12-09,23.600616,120.45841,0.7348836
C0M680,太保,2024-12-09,23.455062,120.331455,0.6032726
C0M690,水上,2024-12-09,23.419734,120.388909,0.5832891
C0M700,竹崎,2024-12-09,23.526178,120.555508,0.4699911
C0M710,東石,2024-12-09,23.458927,120.15385,0.13776514
C0M720,番路,2024-12-09,23.464657,120.554156,0.53046143
C0M730,嘉義市東區,2024-12-09,23.457673,120.460531,0.4070498
C0M740,六腳,2024-12-09,23.492871,120.290625,0.35712087
C0M750,布袋,2024-12-09,23.380878,120.167789,0.30422112
C0M760,民雄,2024-12-09,23.551754,120.428457,0.697376
C0M770,嘉義梅山,2024-12-09,23.585398,120.555587,0.4827484
C0M780,鹿草,2024-12-09,23.41134,120.30835,0.41126156
C0M790,新港,2024-12-09,23.553269,120.345728,0.40872014
C0M800,茶山,2024-12-09,23.299075,120.664767,0.4639372
C0M880,好美里,2024-12-09,23.3364,120.138,0.28925714
C0N010,鯤鯓國小,2024-12-09,23.1879,120.0889,0.2458038
C0N020,城西,2024-12-09,23.0568,120.0956,0.44400483
C0N030,四草,2024-12-09,23.0235,120.1116,0.43894422
C0N040,蘆竹溝,2024-12-09,23.2344,120.0961,0.21485515
C0N050,蚵寮,2024-12-09,23.301,120.1104,0.23996729
C0O830,北寮,2024-12-09,23.079561,120.495008,0.36318538
C0O840,王爺宮,2024-12-09,23.222064,120.40085,0.7943551
C0O860,大內,2024-12-09,23.11885,120.36083,0.66468173
C0O900,善化,2024-12-09,23.112883,120.297219,0.5741159
C0O960,崎頂,2024-12-09,22.959547,120.369317,0.7082793
C0O970,虎頭埤,2024-12-09,23.021375,120.347878,0.6263983
C0O980,新市,2024-12-09,23.061614,120.298197,0.4529543
C0O990,媽廟,2024-12-09,22.99175,120.293525,0.50781965
C0R150,三地門,2024-12-09,22.709889,120.639944,0.072803035
C0R160,鹽埔,2024-12-09,22.739558,120.530778,0.16027416
C0R170,屏東,2024-12-09,22.660269,120.494072,0.17049967
C0R190,赤山,2024-12-09,22.592333,120.614306,0.091544665
C0R220,潮州,2024-12-09,22.534361,120.54,0.068314105
C0R240,來義,2024-12-09,22.527306,120.625111,0.09539166
C0R260,春日,2024-12-09,22.370361,120.628306,0.09266582
C0R270,琉球嶼,2024-12-09,22.332244,120.362236,0.39009887
C0R280,檳榔,2024-12-09,22.076078,120.836777,0.016895512
C0R320,車城,2024-12-09,22.0744,120.716247,0.0055251108
C0R341,牡丹,2024-12-09,22.130036,120.792639,0.017713502
C0R350,貓鼻頭,2024-12-09,21.921774,120.7358,0.004970884
C0R470,高樹,2024-12-09,22.826389,120.600806,0.15498157
C0R480,長治,2024-12-09,22.693128,120.542622,0.22971854
C0R490,九如,2024-12-09,22.7405,120.490503,0.15783088
C0R520,崁頂,2024-12-09,22.514781,120.506914,0.06835861
C0R540,佳冬,2024-12-09,22.419456,120.552375,0.08587396
C0R550,新埤,2024-12-09,22.467947,120.582894,0.087672785
C0R560,新園,2024-12-09,22.5434,120.461558,0.108321436
C0R570,麟洛,2024-12-09,22.65078,120.52719,0.17049973
C0R580,南州,2024-12-09,22.48591,120.50274,0.08466674
C0R590,里港,2024-12-09,22.77919,120.49459,0.3357076
C0R620,墾雷,2024-12-09,21.900836,120.855269,0.00015387402
C0R640,東港,2024-12-09,22.46247,120.44074,0.08466674
C0R650,竹田,2024-12-09,22.58486,120.54344,0.08380627
C0R660,枋寮,2024-12-09,22.367722,120.590647,0.08731419
C0R670,楓港,2024-12-09,22.190131,120.692156,0.0050286124
C0R680,佳樂水,2024-12-09,21.993578,120.861633,0.008885815
C0R690,墾丁,2024-12-09,21.966756,120.810269,0.0010192493
C0R700,枋山,2024-12-09,22.246844,120.661086,0.032081332
C0R710,龍磐,2024-12-09,21.931672,120.838942,0.00070254056
C0R720,旭海,2024-12-09,22.205403,120.887614,0.02137568
C0R730,大坪頂,2024-12-09,22.024633,120.69355,0.0033268202
C0R740,獅子,2024-12-09,22.201569,120.70525,0.046549793
C0R760,南仁湖,2024-12-09,22.084681,120.863353,0.006446129
C0R770,保力,2024-12-09,22.071122,120.764111,0.006760568
C0R780,滿州,2024-12-09,22.024403,120.839892,0.040955424
C0R790,九棚,2024-12-09,22.14195,120.889281,0.00972544
C0R800,丹路,2024-12-09,22.204481,120.750989,0.060968995
C0R810,內獅,2024-12-09,22.305064,120.642986,0.02279893
C0R830,高士,2024-12-09,22.121825,120.836781,0.004671628
C0R850,林邊,2024-12-09,22.4634,120.5339,0.08401046
C0R860,鼻頭,2024-12-09,22.1043,120.8979,0.020540284
C0R870,興海,2024-12-09,21.9752,120.8439,0.009578597
C0R880,後壁湖,2024-12-09,21.9457,120.7457,0.006232582
C0R890,山海,2024-12-09,21.9878,120.7091,0.006102728
C0R900,竹坑,2024-12-09,22.1385,120.7022,0.0054264255
C0R910,下寮,2024-12-09,22.3929,120.5548,0.08731419
C0R920,塭仔,2024-12-09,22.4169,120.5197,0.08570459
C0R930,萬丹,2024-12-09,22.5885,120.4851,0.1312442
C0R940,加祿堂,2024-12-09,22.3363,120.6217,0.008046353
C0S710,鹿野,2024-12-09,22.917711,121.122994,0.06278627
C0S730,綠島,2024-12-09,22.6672,121.47533,0.008582762
C0S740,池上,2024-12-09,23.119628,121.209469,0.4565138
C0S770,大溪山,2024-12-09,22.478475,120.943325,0.08005944
C0S790,金崙,2024-12-09,22.538122,120.966875,0.13648018
C0S810,東河,2024-12-09,22.972672,121.303986,0.103774905
C0S830,長濱,2024-12-09,23.286817,121.411975,0.61645955
C0S840,南田,2024-12-09,22.279725,120.889208,0.1315628
C0S890,關山,2024-12-09,23.0395,121.175017,0.13782978
C0S900,蘭嶼高中,2024-12-09,22.04909,121.51214,0.008063976
C0S910,蘭嶼燈塔,2024-12-09,22.081197,121.503117,0.0013271271
C0S920,金峰嘉蘭,2024-12-09,22.594789,120.960825,0.14565386
C0S930,延平,2024-12-09,22.902581,121.084058,0.025890747
C0S940,石寧山,2024-12-09,23.223772,121.406639,0.74761033
C0S950,七塊厝,2024-12-09,22.954453,121.229922,0.04063291
C0S960,香蘭,2024-12-09,22.587569,120.993375,0.15228283
C0S970,加津林,2024-12-09,22.416211,120.926942,0.053608194
C0S990,山豬窟,2024-12-09,22.318619,120.857372,0.01762946
C0SA00,歷坵,2024-12-09,22.520969,120.89185,0.106350906
C0SA10,檳榔四格山,2024-12-09,22.810031,121.109308,0.015130196
C0SA30,都歷,2024-12-09,23.020333,121.323642,0.13972329
C0SA40,瑞和,2024-12-09,22.974361,121.156697,0.063213594
C0SA60,知本（水試所）,2024-12-09,22.702394,121.082761,0.25793725
C0SA80,土坂,2024-12-09,22.453108,120.887572,0.09158845
C0SA90,達仁林場,2024-12-09,22.264347,120.823972,0.0014513956
C0T870,鯉魚潭,2024-12-09,23.935639,121.508944,0.04378335
C0T900,西林,2024-12-09,23.8119,121.441458,0.07422398
C0T960,光復,2024-12-09,23.660694,121.424964,0.20879082
C0T9A0,月眉山,2024-12-09,23.809928,121.539828,0.014580824
C0T9D0,和中,2024-12-09,24.26676,121.74103,0.8579001
C0T9E0,大坑,2024-12-09,23.880628,121.581981,0.025823144
C0T9F0,水璉,2024-12-09,23.797131,121.542514,0.06811151
C0T9I0,豐濱,2024-12-09,23.583897,121.514806,0.3223336
C0T9M0,靜浦,2024-12-09,23.455167,121.495028,0.5132422
C0T9N0,富里,2024-12-09,23.171639,121.249378,0.8130344
C0U600,礁溪,2024-12-09,24.817539,121.765608,0.87984985
C0U650,玉蘭,2024-12-09,24.675286,121.587061,0.93339944
C0U750,龜山島,2024-12-09,24.841667,121.953133,0.013814432
C0U760,東澳,2024-12-09,24.52196,121.83318,0.9903063
C0U770,南澳,2024-12-09,24.44935,121.81022,0.6521556
C0U780,五結,2024-12-09,24.68637,121.79794,0.97876674
C0U860,頭城,2024-12-09,24.85323,121.8308,0.8797928
C0U870,大礁溪,2024-12-09,24.791042,121.675047,0.7332245
C0U880,北關,2024-12-09,24.9072,121.8734,0.9848449
C0U890,三星,2024-12-09,24.66812,121.65302,0.9921407
C0U900,內城,2024-12-09,24.71813,121.68766,0.9779063
C0U910,冬山,2024-12-09,24.63373,121.7937,0.99238837
C0U940,羅東,2024-12-09,24.68184,121.74934,0.97871506
C0U970,大福,2024-12-09,24.80064,121.81389,0.70656425
C0U990,員山,2024-12-09,24.74435,121.72247,0.97863954
C0UA00,土場,2024-12-09,24.576533,121.495333,0.9590225
C0UA80,大溪漁港,2024-12-09,24.941801,121.902955,0.9874424
C0UA90,石城,2024-12-09,24.980444,121.951214,0.98771685
C0UB00,淡江大學蘭陽校園,2024-12-09,24.823239,121.730383,0.5143398
C0UB10,蘇澳,2024-12-09,24.5969,121.8571,0.99717325
C0UB20,壯圍,2024-12-09,24.7359,121.8163,0.9790979
C0V310,美濃,2024-12-09,22.898742,120.519153,0.31963494
C0V350,溪埔,2024-12-09,22.738578,120.446797,0.286631
C0V360,內門,2024-12-09,22.975481,120.466769,0.52191776
C0V370,古亭坑,2024-12-09,22.893178,120.401947,0.4649121
C0V400,阿公店,2024-12-09,22.804194,120.355528,0.31840527
C0V440,鳳山,2024-12-09,22.646653,120.356122,0.22927272
C0V450,鳳森,2024-12-09,22.545064,120.392592,0.11439053
C0V490,新興,2024-12-09,22.627422,120.298803,0.1411376
C0V530,阿蓮,2024-12-09,22.883208,120.327508,0.4504062
C0V610,梓官,2024-12-09,22.760558,120.267211,0.16099055
C0V620,永安,2024-12-09,22.82315,120.236856,0.21029346
C0V630,茄萣,2024-12-09,22.906642,120.182608,0.29418173
C0V640,湖內,2024-12-09,22.887139,120.2445,0.37053978
C0V650,彌陀,2024-12-09,22.783806,120.246361,0.21266663
C0V660,岡山,2024-12-09,22.797078,120.294958,0.21266663
C0V680,仁武,2024-12-09,22.701083,120.347722,0.2020565
C0V690,鼓山,2024-12-09,22.623325,120.275575,0.14113764
C0V700,三民,2024-12-09,22.645017,120.311233,0.1678945
C0V710,苓雅,2024-12-09,22.622742,120.330669,0.1854381
C0V720,林園,2024-12-09,22.507747,120.394511,0.111467145
C0V730,大寮,2024-12-09,22.605614,120.395717,0.19029035
C0V740,旗山,2024-12-09,22.888614,120.483597,0.32838994
C0V750,路竹,2024-12-09,22.854997,120.259439,0.37283832
C0V760,橋頭,2024-12-09,22.757806,120.30575,0.16099055
C0V770,大社,2024-12-09,22.730306,120.346639,0.19565752
C0V790,萬山,2024-12-09,22.905944,120.688056,0.4116438
C0V800,六龜,2024-12-09,22.997889,120.633583,0.40046662
C0V810,左營,2024-12-09,22.67491,120.28491,0.1678945
C0V820,小林,2024-12-09,23.148408,120.63325,0.49763545
C0V840,鳳鼻頭,2024-12-09,22.5083,120.3591,0.10803086
C0V850,蚵仔寮,2024-12-09,22.7256,120.2527,0.15669589
C0V860,南寮,2024-12-09,22.7616,120.2339,0.15669589
C0V870,文安,2024-12-09,22.8025,120.2164,0.2082832
C0V880,興達,2024-12-09,22.8778,120.2127,0.36836016
C0V890,前鎮,2024-12-09,22.5718,120.3117,0.13648029
C0V900,汕尾,2024-12-09,22.4782,120.4151,0.08466674
C0W200,湖西,2024-12-09,23.596314,119.67275,0.00247411
C0X050,東河,2024-12-09,23.296598,120.385608,0.5766595
C0X060,下營,2024-12-09,23.22695,120.256261,0.43152258
C0X080,佳里,2024-12-09,23.173039,120.145086,0.24580394
C0X100,臺南市北區,2024-12-09,23.010394,120.194228,0.4442497
C0X110,臺南市南區,2024-12-09,22.961189,120.188378,0.41190818
C0X120,麻豆,2024-12-09,23.183289,120.248611,0.4497869
C0X130,官田,2024-12-09,23.193217,120.315422,0.5588445
C0X140,西港,2024-12-09,23.125608,120.203108,0.47429788
C0X150,安定,2024-12-09,23.102614,120.227839,0.47429788
C0X160,仁德,2024-12-09,22.968258,120.257689,0.41217706
C0X170,關廟,2024-12-09,22.963017,120.327797,0.5900084
C0X180,山上,2024-12-09,23.0757,120.363253,0.5663028
C0X190,安平,2024-12-09,22.993161,120.152181,0.44424948
C0X200,左鎮,2024-12-09,23.056758,120.408522,0.6105215
C0X210,白河,2024-12-09,23.347466,120.414427,0.5290121
C0X220,學甲,2024-12-09,23.230367,120.182187,0.208416
C0X230,鹽水,2024-12-09,23.272621,120.247641,0.27419123
C0X240,關子嶺,2024-12-09,23.331169,120.508025,0.6427095
C0X250,新營,2024-12-09,23.310689,120.316681,0.5497394
C0X260,後壁,2024-12-09,23.366358,120.362326,0.5650675
C0X280,將軍,2024-12-09,23.214999,120.13577,0.21485515
C0X290,北門,2024-12-09,23.267772,120.125481,0.21485515
C0X300,鹿寮,2024-12-09,23.386047,120.477331,0.61227894
C0X320,柳營,2024-12-09,23.253328,120.375253,0.5960375
C0Z020,明里,2024-12-09,23.208717,121.262342,0.7196293
C0Z061,玉里,2024-12-09,23.3215,121.339656,0.6801479
C0Z070,舞鶴,2024-12-09,23.46811,121.37407,0.5003343
C0Z080,富源,2024-12-09,23.587642,121.378225,0.5627318
C0Z100,東華,2024-12-09,23.89525,121.549833,0.058963902
C0Z150,吉安光華,2024-12-09,23.930925,121.595153,0.049784705
C0Z160,鳳林,2024-12-09,23.746114,121.453411,0.12876181
C0Z170,卓溪,2024-12-09,23.3443,121.3029,0.57399756
C0Z180,新城,2024-12-09,24.03946,121.60454,0.031373054
C0Z190,富世,2024-12-09,24.14743,121.6297,0.009693816
C0Z200,萬榮,2024-12-09,23.709219,121.420106,0.13104242
C0Z210,瑞穗,2024-12-09,23.5239,121.39021,0.4612148
C0Z230,和平,2024-12-09,24.30717,121.77007,0.85919577
C0Z270,蕃薯寮,2024-12-09,23.73835,121.540108,0.101024315
C0Z280,德武,2024-12-09,23.47426,121.41071,0.6062195
C0Z300,東里,2024-12-09,23.26853,121.30547,0.74147
C0Z310,清水斷崖,2024-12-09,24.218294,121.689142,0.22689793
C0Z330,安通山,2024-12-09,23.290728,121.348528,0.24111727
C2A540,四堵,2024-12-09,24.8926,121.745736,0.6746239
C2A560,福山,2024-12-09,24.776203,121.502811,0.9624207
C2A650,火燒寮,2024-12-09,25.002719,121.742892,0.8906015
C2A660,瑞芳,2024-12-09,25.113169,121.801147,0.955742
C2A880,福隆,2024-12-09,25.017842,121.942083,0.9877256
C2A920,富貴角,2024-12-09,25.263783,121.565258,0.5704925
C2E520,大湖,2024-12-09,24.414939,120.870872,0.29021883
C2E540,後龍,2024-12-09,24.606489,120.783933,0.02059237
C2E540,龍溪,2024-12-09,24.606489,120.783933,0.02059237
C2F000,大肚,2024-12-09,24.15295,120.572117,0.19714221
C2F930,大甲,2024-12-09,24.347667,120.640403,0.009752507
C2F9A0,中竹林,2024-12-09,24.103556,120.751061,0.43426448
C2G640,鹿港,2024-12-09,24.0753,120.430481,0.079158396
C2G840,北斗,2024-12-09,23.877586,120.514222,0.537757
C2G870,芳苑,2024-12-09,23.922303,120.320025,0.0073158112
C2H950,中寮,2024-12-09,23.884447,120.766406,0.56418425
C2M410,馬頭山,2024-12-09,23.324361,120.582017,0.67170393
C2N160,西拉雅風管處,2024-12-09,23.189481,120.335297,0.56307834
C2O810,曾文,2024-12-09,23.219681,120.497328,0.6155013
C2O930,玉井,2024-12-09,23.126042,120.46055,0.5663028
C2O950,安南,2024-12-09,23.076694,120.144861,0.24676955
C2V250,甲仙,2024-12-09,23.080106,120.591758,0.5835066
C2V260,月眉,2024-12-09,22.971003,120.539853,0.3261092
C2W230,畜試所澎湖,2024-12-09,23.628342,119.513206,0.0018841174
CAG100,王功漁港,2024-12-09,23.96824,120.32586,0.006767141
CAH030,茶改場竹圍站,2024-12-09,23.860083,120.637528,0.31776476
CAJ050,海口故事園區,2024-12-09,23.57543,120.14121,0.091880806
CAL110,布袋國中,2024-12-09,23.35893,120.18026,0.30422112
CAN130,水試所海水繁養殖中心,2024-12-09,23.120802,120.07968,0.24718805
CAN140,六官養殖協會,2024-12-09,23.22881,120.29962,0.43152258
CAQ030,崎峰國小,2024-12-09,22.42565,120.49521,0.08466674
E2K600,四湖植物園,2024-12-09,23.676986,120.163433,0.17606576
E2P980,林試六龜中心,2024-12-09,22.991703,120.645722,0.42685845
E2S960,林試太麻里2,2024-12-09,22.598014,120.989761,0.14959912
E2S960,林試太麻里2,2024-12-09,22.598,120.99775,0.15370709
E2S980,林試太麻里1,2024-12-09,22.598922,120.980044,0.1435955
G2AI50,關渡,2024-12-09,25.11575,121.492,0.0890841
G2F820,農業試驗所,2024-12-09,24.031261,120.688133,0.64158326
G2F820,農試所(霧峰),2024-12-09,24.031261,120.688133,0.64158326
G2L020,農試嘉義分所,2024-12-09,23.485028,120.473806,0.3693393
G2M350,農試溪口農場,2024-12-09,23.58565,120.408111,0.688054
G2P820,農試鳳山分所,2024-12-09,22.646611,120.356083,0.22927277
K2E360,苗栗農改,2024-12-09,24.495722,120.829111,0.31345406
K2E360,苗栗農改場,2024-12-09,24.495722,120.829111,0.31345406
K2E710,苗改生物防治研究中心,2024-12-09,24.422861,120.871833,0.35830116
K2F750,種苗改良場,2024-12-09,24.225972,120.800917,0.09603351
K2F750,種苗繁殖,2024-12-09,24.225972,120.800917,0.09603351
U2HA50,臺大竹山,2024-12-09,23.756972,120.681556,0.46651432
V2C250,八德合作社,2024-12-09,24.93775,121.266389,0.08969156
V2C260,八德蔬果,2024-12-09,24.978508,121.281819,0.07049282
V2K610,大庄合作社,2024-12-09,23.8068,120.367939,0.20980112
V2K620,麥寮合作社,2024-12-09,23.753836,120.294783,0.14548515
