站號,站名,日期,lat,lon,BLBTSLS
C0R710,龍磐,2024-05-04,21.931672,120.838942,1.0323888e-08
C1F9D1,白毛台,2024-05-04,24.158325,120.886933,1.60776e-08
C0G940,竹塘,2024-05-04,23.848253,120.386764,4.8036006e-09
467590,恆春,2024-05-04,22.003897,120.746339,5.1521766e-08
C1O850,環湖,2024-05-04,23.148617,120.418633,1.5000019e-06
C0U710,太平山,2024-05-04,24.505486,121.525656,2.4786266e-09
C0E820,獅潭,2024-05-04,24.539133,120.920042,4.6529125e-10
C0V880,興達,2024-05-04,22.8778,120.2127,4.779931e-08
C0S890,關山,2024-05-04,23.0395,121.175017,8.463517e-08
K2F750,種苗繁殖,2024-05-04,24.225972,120.800917,1.7586439e-07
C1Z130,銅門,2024-05-04,23.965694,121.492842,1.7772334e-06
C0AD40,土城,2024-05-04,24.973208,121.445169,2.1790603e-09
CAN140,六官養殖協會,2024-05-04,23.22881,120.29962,1.316108e-08
C0X180,山上,2024-05-04,23.0757,120.363253,3.16343e-08
C0F9Z0,雪山東峰,2024-05-04,24.388792,121.268675,2.1697339e-08
C1M480,獨立山,2024-05-04,23.537022,120.607797,2.2843194e-09
C0X220,學甲,2024-05-04,23.230367,120.182187,2.7949564e-08
C0R170,屏東,2024-05-04,22.660269,120.494072,4.940485e-07
467650,日月潭,2024-05-04,23.881325,120.90805,9.361409e-10
C0K600,箔子寮,2024-05-04,23.6197,120.14,1.5971906e-08
C0G830,埤頭,2024-05-04,23.866003,120.452806,1.37926675e-08
C0S950,七塊厝,2024-05-04,22.954453,121.229922,1.03991855e-08
467110,金門,2024-05-04,24.407306,118.289281,6.00798e-08
C0AH80,深坑,2024-05-04,25.002703,121.628328,1.7869195e-09
467990,馬祖,2024-05-04,26.169269,119.923419,1.754385e-06
C0A970,三貂角,2024-05-04,25.007606,122.002058,1.16348335e-08
C0K430,褒忠,2024-05-04,23.690938,120.303634,6.4010846e-09
467480,嘉義,2024-05-04,23.495925,120.432906,5.418828e-09
C2E540,後龍,2024-05-04,24.606489,120.783933,5.860265e-10
C0V400,阿公店,2024-05-04,22.804194,120.355528,1.5390039e-07
C0R440,大漢山,2024-05-04,22.405264,120.753181,1.0787913e-09
C0K280,四湖,2024-05-04,23.630414,120.227125,1.00016e-08
C1F9B1,桐林,2024-05-04,24.066172,120.735194,1.02258646e-07
C0K390,土庫,2024-05-04,23.679029,120.395574,5.2312537e-09
C1I450,望鄉山,2024-05-04,23.594153,120.944286,8.1844895e-09
C0E910,海埔,2024-05-04,24.648767,120.772435,5.894231e-10
B2E890,畜試北區分所,2024-05-04,24.527806,120.770972,1.1698627e-09
C0R750,四林格山,2024-05-04,22.076989,120.802439,4.7408116e-10
C0F0C0,中坑,2024-05-04,24.248517,120.903319,2.8485805e-09
C1I121,大鞍,2024-05-04,23.678381,120.760017,1.2390243e-09
72U480,花改蘭陽分場,2024-05-04,24.686306,121.716583,2.7345212e-08
C0A770,科教館,2024-05-04,25.096356,121.516507,2.2925342e-09
C0AJ60,六塊厝,2024-05-04,25.24,121.4481,4.923906e-09
C0R620,墾雷,2024-05-04,21.900836,120.855269,8.427527e-09
467420,永康,2024-05-04,23.038386,120.2367,1.310772e-08
467300,東吉島,2024-05-04,23.25695,119.667467,5.165106e-07
C0I410,名間,2024-05-04,23.837053,120.701447,5.144989e-07
A2C560,農工中心,2024-05-04,24.985917,121.239833,1.5655088e-09
C0V740,旗山,2024-05-04,22.888614,120.483597,6.6090022e-09
C0Z061,玉里,2024-05-04,23.3215,121.339656,4.1597104e-07
C0S840,南田,2024-05-04,22.279725,120.889208,1.3431831e-07
C1I470,杉林溪,2024-05-04,23.639517,120.786444,1.6287847e-09
C1X040,東原,2024-05-04,23.291597,120.463822,2.6806524e-07
C0R660,枋寮,2024-05-04,22.367722,120.590647,0.71678257
C1R120,上德文,2024-05-04,22.763272,120.704442,1.7144368e-09
C0K450,大埤,2024-05-04,23.646074,120.431537,1.3167408e-08
C0UA00,土場,2024-05-04,24.576533,121.495333,3.545197e-09
467080,宜蘭,2024-05-04,24.763975,121.756528,5.0061103e-06
C0N030,四草,2024-05-04,23.0235,120.1116,4.4325088e-08
C0V650,彌陀,2024-05-04,22.783806,120.246361,6.3459515e-07
C0D660,新竹市東區,2024-05-04,24.798681,120.986942,6.506797e-10
82S580,茶改東部分場,2024-05-04,22.907694,121.130139,3.5416514e-07
C0C710,大溪永福,2024-05-04,24.892936,121.324975,1.239048e-09
C0FA20,溫寮,2024-05-04,24.372177,120.583125,3.4149406e-09
C0V640,湖內,2024-05-04,22.887139,120.2445,4.4180585e-08
C0R910,下寮,2024-05-04,22.3929,120.5548,0.71678257
C0Z020,明里,2024-05-04,23.208717,121.262342,1.4256175e-06
C0M770,嘉義梅山,2024-05-04,23.585398,120.555587,1.6411471e-08
G2F820,農業試驗所,2024-05-04,24.031261,120.688133,8.2255106e-08
C0C660,楊梅,2024-05-04,24.912375,121.143047,1.3376518e-09
C1E511,新開,2024-05-04,24.347703,120.827019,1.4263476e-09
G2F820,農試所(霧峰),2024-05-04,24.031261,120.688133,8.2255106e-08
C1I070,和社,2024-05-04,23.591131,120.888861,3.1157488e-06
C2F000,大肚,2024-05-04,24.15295,120.572117,1.4346428e-08
C1S850,豐南,2024-05-04,23.122139,121.262389,2.9394864e-09
C2A920,富貴角,2024-05-04,25.263783,121.565258,2.7338054e-09
CAH030,茶改場竹圍站,2024-05-04,23.860083,120.637528,3.712758e-08
C0T960,光復,2024-05-04,23.660694,121.424964,2.8070636e-07
C0F9M0,豐原,2024-05-04,24.254322,120.720692,7.601723e-09
C0R720,旭海,2024-05-04,22.205403,120.887614,2.6726934e-09
C0V710,苓雅,2024-05-04,22.622742,120.330669,7.3057265e-07
C0C740,觀音工業區,2024-05-04,25.064764,121.114856,1.884766e-09
CAC040,拉拉山,2024-05-04,24.699317,121.427133,6.5628885e-09
C0V790,萬山,2024-05-04,22.905944,120.688056,2.5511012e-08
U2HA30,臺大和社,2024-05-04,23.590856,120.888864,3.1157488e-06
C0AJ90,澳底,2024-05-04,25.0552,121.9253,9.8468995e-08
C0Z100,東華,2024-05-04,23.89525,121.549833,0.00026379887
C0G970,三豐,2024-05-04,23.882,120.2895,4.237667e-09
V2K610,大庄合作社,2024-05-04,23.8068,120.367939,7.515941e-09
C0V900,汕尾,2024-05-04,22.4782,120.4151,2.5951908e-06
C1R630,龍泉,2024-05-04,22.66701,120.59091,0.98286283
C1AC50,關渡,2024-05-04,25.133486,121.469331,3.2009497e-09
C0F9I0,神岡,2024-05-04,24.272481,120.658314,1.4622292e-09
C0K460,斗南,2024-05-04,23.678734,120.478359,1.1718731e-08
467410,臺南,2024-05-04,22.993239,120.204772,3.0103212e-08
C2O810,曾文,2024-05-04,23.219681,120.497328,4.635984e-07
467280,後龍,2024-05-04,24.648563,120.831834,5.6989763e-10
C1F9J1,清水林,2024-05-04,24.071242,120.820419,2.0317468e-09
C2A650,火燒寮,2024-05-04,25.002719,121.742892,3.9281294e-09
466930,竹子湖,2024-05-04,25.162078,121.544547,1.1556865e-09
C1I220,樟湖,2024-05-04,23.905333,120.846983,9.232988e-10
C0I390,仁愛,2024-05-04,24.022122,121.132206,1.0482841e-09
C0Z300,東里,2024-05-04,23.26853,121.30547,1.22222455e-05
C0V310,美濃,2024-05-04,22.898742,120.519153,7.2179245e-09
C1V590,新發,2024-05-04,23.057019,120.646064,7.303773e-09
C0K510,水林,2024-05-04,23.572924,120.24597,1.429644e-08
72S590,東改賓朗果園,2024-05-04,22.813889,121.071278,2.6872835e-08
82A750,茶改北部分場,2024-05-04,24.955778,121.631222,4.414426e-09
C1A750,石碇服務區,2024-05-04,25.00872,121.646242,2.361241e-09
C0X300,鹿寮,2024-05-04,23.386047,120.477331,1.6738916e-07
G2AI50,關渡,2024-05-04,25.11575,121.492,6.827449e-09
C0K590,雲林東勢,2024-05-04,23.674192,120.255721,7.633208e-09
C0A570,桶後,2024-05-04,24.848222,121.597992,1.3292898e-08
C1S800,華源,2024-05-04,22.657883,121.02325,6.660116e-08
C0G720,溪州,2024-05-04,23.851589,120.499093,1.3016559e-08
C1V160,達卡努瓦,2024-05-04,23.279811,120.705319,1.2841543e-09
C2M410,馬頭山,2024-05-04,23.324361,120.582017,7.147361e-08
C0V850,蚵仔寮,2024-05-04,22.7256,120.2527,4.1051285e-07
C0S740,池上,2024-05-04,23.119628,121.209469,7.948162e-05
C1V390,尖山,2024-05-04,22.813153,120.367789,8.6923464e-08
C0AH70,松山,2024-05-04,25.04871,121.55042,2.1935427e-09
C0N010,鯤鯓國小,2024-05-04,23.1879,120.0889,3.2014402e-08
C0R550,新埤,2024-05-04,22.467947,120.582894,1.4318007e-06
C0SA60,知本（水試所）,2024-05-04,22.702394,121.082761,6.68448e-07
C0T9I0,豐濱,2024-05-04,23.583897,121.514806,6.376883e-06
C0UB00,淡江大學蘭陽校園,2024-05-04,24.823239,121.730383,9.767305e-09
C0T9N0,富里,2024-05-04,23.171639,121.249378,5.4488787e-06
U2HA50,臺大竹山,2024-05-04,23.756972,120.681556,7.163219e-08
C0V840,鳳鼻頭,2024-05-04,22.5083,120.3591,2.9315177e-06
C0X140,西港,2024-05-04,23.125608,120.203108,9.9628545e-09
72D080,桃改五峰分場,2024-05-04,24.612194,121.157167,7.157422e-10
C0V530,阿蓮,2024-05-04,22.883208,120.327508,7.1851815e-08
C1O880,關山,2024-05-04,23.173397,120.594092,7.2762285e-09
C0E791,卓蘭,2024-05-04,24.3126,120.8244,3.4079068e-09
C1I030,武界,2024-05-04,23.913225,121.052483,7.6546647e-10
C0R520,崁頂,2024-05-04,22.514781,120.506914,8.2104205e-05
C0R341,牡丹,2024-05-04,22.130036,120.792639,2.321545e-09
C0R930,萬丹,2024-05-04,22.5885,120.4851,1.2808645e-06
C0S760,紅石,2024-05-04,23.069131,121.126219,4.78792e-10
C1M610,石磐龍,2024-05-04,23.496606,120.663506,8.5617546e-10
C0UA10,鴛鴦湖,2024-05-04,24.590269,121.412228,2.5090925e-09
V2C260,八德蔬果,2024-05-04,24.978508,121.281819,1.4438603e-09
C0R800,丹路,2024-05-04,22.204481,120.750989,7.731911e-09
C0G920,永靖,2024-05-04,23.924703,120.547533,8.322276e-09
C1A630,下盆,2024-05-04,24.771003,121.538622,7.1179853e-09
B2N890,畜產試驗所,2024-05-04,23.058972,120.336406,8.722686e-09
C0UA30,白嶺,2024-05-04,24.527819,121.519031,2.1160378e-09
C1V580,溪南(特生中心),2024-05-04,23.084972,120.788475,8.8385227e-10
C1T970,大農,2024-05-04,23.615233,121.413331,6.523529e-07
E2S960,林試太麻里2,2024-05-04,22.598014,120.989761,1.5487154e-06
C0R650,竹田,2024-05-04,22.58486,120.54344,0.29183373
C1H900,清流,2024-05-04,24.080775,120.962997,5.7111527e-10
C1C510,水尾,2024-05-04,24.940081,121.087161,1.5697067e-09
C0F9X0,大雅(中科園區),2024-05-04,24.21528,120.62445,5.6460827e-09
C0O970,虎頭埤,2024-05-04,23.021375,120.347878,1.3539909e-08
C0C730,中大臨海站,2024-05-04,24.966126,121.008581,1.4308954e-09
C0X250,新營,2024-05-04,23.310689,120.316681,1.23799495e-08
C0V700,三民,2024-05-04,22.645017,120.311233,1.8676363e-06
C0U870,大礁溪,2024-05-04,24.791042,121.675047,8.120797e-09
C0E870,高鐵苗栗,2024-05-04,24.60725,120.826094,5.724851e-10
A2K570,古坑花卉中心,2024-05-04,23.63353,120.55239,1.2513511e-08
C0M860,新美,2024-05-04,23.338017,120.683169,1.7902114e-09
C1E701,八卦,2024-05-04,24.491756,120.927619,8.978634e-10
C0I420,國姓,2024-05-04,24.037803,120.855072,8.935982e-08
C0S960,香蘭,2024-05-04,22.587569,120.993375,1.5487154e-06
C0R260,春日,2024-05-04,22.370361,120.628306,0.39918122
72G600,臺中農改場,2024-05-04,24.003028,120.534389,7.572245e-09
C0Z210,瑞穗,2024-05-04,23.5239,121.39021,5.531557e-06
C0M820,達邦,2024-05-04,23.453994,120.749517,8.993048e-10
C0V860,南寮,2024-05-04,22.7616,120.2339,4.1051285e-07
C0G740,大城,2024-05-04,23.852487,120.320935,3.807484e-09
C0R920,塭仔,2024-05-04,22.4169,120.5197,0.73356164
C0R470,高樹,2024-05-04,22.826389,120.600806,6.8830744e-08
C0R680,佳樂水,2024-05-04,21.993578,120.861633,5.3007674e-09
C1O870,大棟山,2024-05-04,23.31157,120.52226,7.736391e-10
C0D360,梅花,2024-05-04,24.678347,121.208558,9.2313157e-10
C0Z190,富世,2024-05-04,24.14743,121.6297,8.180373e-08
C0AI10,屈尺,2024-05-04,24.92184,121.54475,2.039345e-09
B2U990,畜試東區分所,2024-05-04,24.669039,121.832561,7.3287e-08
C0R240,來義,2024-05-04,22.527306,120.625111,6.810895e-06
C1R610,西大武山,2024-05-04,22.617719,120.7322,1.0363479e-09
C0G900,線西,2024-05-04,24.143358,120.443536,4.8031605e-09
C0M700,竹崎,2024-05-04,23.526178,120.555508,7.372428e-08
C2E880,三義,2024-05-04,24.405478,120.749819,5.494552e-10
C0C720,竹圍,2024-05-04,25.112692,121.239824,6.827449e-09
C0F9P0,清水,2024-05-04,24.312297,120.562242,6.1963386e-09
C0Z150,吉安光華,2024-05-04,23.930925,121.595153,0.00022586169
C1D640,外坪(五指山),2024-05-04,24.644447,121.090961,5.6695515e-10
C0F9O0,潭子,2024-05-04,24.213106,120.703933,1.6188006e-08
72T250,花蓮農改場,2024-05-04,23.975222,121.563889,3.1195395e-05
C0E780,銅鑼,2024-05-04,24.489681,120.790853,7.0995826e-10
C1T950,太安,2024-05-04,23.666719,121.370128,2.1741449e-09
C0E830,苑裡,2024-05-04,24.439714,120.653053,3.1769305e-09
467270,田中,2024-05-04,23.873803,120.581286,1.39302525e-08
C0SA10,檳榔四格山,2024-05-04,22.810031,121.109308,1.3858699e-08
C1T830,布洛灣,2024-05-04,24.17184,121.57127,4.1482062e-07
C0F970,大坑,2024-05-04,24.173142,120.722289,9.930947e-08
C1U920,思源,2024-05-04,24.393125,121.347214,9.662847e-10
C0A931,三和,2024-05-04,25.233153,121.595236,2.0249649e-09
C0I010,廬山,2024-05-04,24.033311,121.181808,1.3496971e-09
C0R860,鼻頭,2024-05-04,22.1043,120.8979,5.6074068e-08
C0UB20,壯圍,2024-05-04,24.7359,121.8163,4.249794e-08
C0R790,九棚,2024-05-04,22.14195,120.889281,5.7877863e-09
C0W110,東莒,2024-05-04,25.9652,119.98069,1.6002452e-06
C1U930,粉鳥林,2024-05-04,24.497088,121.842479,7.7039154e-08
C1I211,蘆竹湳,2024-05-04,23.934019,120.811994,1.4170817e-09
C0S830,長濱,2024-05-04,23.286817,121.411975,4.690949e-08
C1F9F1,伯公龍,2024-05-04,24.272392,120.849047,1.2450587e-08
C0E810,西湖,2024-05-04,24.562947,120.7485,1.4432875e-09
C1I440,新高口,2024-05-04,23.478744,120.878939,4.371768e-09
C0O840,王爺宮,2024-05-04,23.222064,120.40085,6.644814e-08
C0T9G0,鳳林山,2024-05-04,23.735269,121.420131,1.515706e-09
C0X080,佳里,2024-05-04,23.173039,120.145086,3.2014402e-08
C0Z310,清水斷崖,2024-05-04,24.218294,121.689142,5.321433e-09
C0M680,太保,2024-05-04,23.455062,120.331455,4.7258273e-09
C1S820,金峰,2024-05-04,22.590969,120.933236,5.5847895e-08
C0AD10,八里,2024-05-04,25.150211,121.403947,6.827449e-09
C2K240,草嶺,2024-05-04,23.59555,120.693461,5.6529764e-10
C1SA70,都蘭,2024-05-04,22.87794,121.226881,5.491484e-06
C0K440,二崙,2024-05-04,23.772797,120.408944,6.287234e-09
C1A760,坪林交控,2024-05-04,24.94284,121.713442,1.1185589e-08
C0F9N0,大里,2024-05-04,24.092464,120.701378,4.4068275e-07
C0SA90,達仁林場,2024-05-04,22.264347,120.823972,9.0020064e-10
C1R290,石門山,2024-05-04,22.112611,120.756597,1.0758857e-09
42HA10,萬大發電廠,2024-05-04,23.978875,121.139639,7.747555e-10
C0R890,山海,2024-05-04,21.9878,120.7091,4.567364e-06
C0T9A0,月眉山,2024-05-04,23.809928,121.539828,2.8803837e-09
C0AC70,信義,2024-05-04,25.037822,121.564597,2.1935427e-09
C0K560,棋山,2024-05-04,23.68645,120.603417,1.0921663e-08
C1Z240,中平林道,2024-05-04,23.42115,121.26763,1.4232767e-09
U2H480,溪頭,2024-05-04,23.670306,120.798194,6.0561817e-10
C0M880,好美里,2024-05-04,23.3364,120.138,2.4447703e-08
C0T9E0,大坑,2024-05-04,23.880628,121.581981,2.01109e-08
C0K530,臺西,2024-05-04,23.701547,120.197559,4.3726436e-09
C1E900,國一N128K,2024-05-04,24.560997,120.844186,6.3181377e-10
C0AJ50,水湳洞,2024-05-04,25.123695,121.862238,1.8662226e-08
C0AI20,白沙灣,2024-05-04,25.283128,121.519058,4.5275317e-09
C0A860,大坪,2024-05-04,25.165914,121.632969,1.1477608e-09
C1U850,觀音海岸,2024-05-04,24.38319,121.77856,4.377701e-09
C0U950,鶯子嶺,2024-05-04,24.89754,121.79244,4.00669e-09
C0O900,善化,2024-05-04,23.112883,120.297219,1.0894677e-08
C0K550,蔦松,2024-05-04,23.514319,120.229736,3.3037452e-08
E2P980,林試六龜中心,2024-05-04,22.991703,120.645722,1.5184376e-09
C0E590,通霄,2024-05-04,24.471892,120.704622,2.452901e-09
C1I310,西巒,2024-05-04,23.754486,120.883956,7.358976e-10
C0A550,泰平,2024-05-04,24.971197,121.823711,1.9179736e-09
C0I360,水里,2024-05-04,23.812553,120.849792,1.2093906e-08
C0R830,高士,2024-05-04,22.121825,120.836781,7.8424994e-10
C1I101,溪頭,2024-05-04,23.661789,120.807647,2.8826426e-09
C0AJ20,野柳,2024-05-04,25.20703,121.690021,3.6296703e-09
C0B060,暖暖,2024-05-04,25.0957,121.7403,1.7941938e-09
C1H920,長豐,2024-05-04,24.102039,120.879897,6.5990857e-10
C0V360,內門,2024-05-04,22.975481,120.466769,9.223682e-09
C0R850,林邊,2024-05-04,22.4634,120.5339,2.2380616e-06
C0E930,龍鳳,2024-05-04,24.700034,120.859125,8.3639484e-10
C0U910,冬山,2024-05-04,24.63373,121.7937,7.3286856e-08
C1E721,泰安,2024-05-04,24.489017,120.968036,9.1916436e-10
82H320,茶改中部分場,2024-05-04,23.875611,120.913583,9.967012e-10
C0M750,布袋,2024-05-04,23.380878,120.167789,1.0278796e-08
C1S860,利嘉,2024-05-04,22.809417,121.050528,8.410794e-09
72C440,桃園農改,2024-05-04,24.950944,121.030583,1.6106073e-09
E2S980,林試太麻里1,2024-05-04,22.598922,120.980044,3.144577e-07
C0X170,關廟,2024-05-04,22.963017,120.327797,2.6995565e-08
C0V720,林園,2024-05-04,22.507747,120.394511,1.8404833e-06
C1I510,線浸林道,2024-05-04,23.761508,120.832956,8.091972e-10
C0D690,外湖,2024-05-04,24.917735,120.968711,1.6758914e-09
C0C750,新興坑尾,2024-05-04,25.0061,121.0971,1.3765145e-09
B2Q810,畜試南區分所,2024-05-04,21.945583,120.802167,5.908011e-09
C0S790,金崙,2024-05-04,22.538122,120.966875,9.2329266e-08
C0AH90,福山植物園,2024-05-04,24.760717,121.58135,7.506958e-09
C0I540,奇萊稜線,2024-05-04,24.109231,121.326456,1.07105205e-08
C0M850,表湖,2024-05-04,23.24186,120.64166,1.3609421e-09
C0S770,大溪山,2024-05-04,22.478475,120.943325,8.7229886e-08
C0AG80,中和,2024-05-04,24.991622,121.491792,2.1749784e-09
C0T790,大禹嶺,2024-05-04,24.186117,121.316086,1.0443432e-08
C0T9B0,水源,2024-05-04,23.991861,121.537169,3.7225414e-09
C0R840,牡丹池山,2024-05-04,22.168389,120.841225,1.1187036e-09
C1I131,桶頭,2024-05-04,23.641944,120.654117,1.954374e-09
CAL110,布袋國中,2024-05-04,23.35893,120.18026,1.0278776e-08
467571,新竹,2024-05-04,24.827853,121.014219,7.03692e-10
C0Z290,赤柯山,2024-05-04,23.36893,121.38293,4.8560076e-09
C0X280,將軍,2024-05-04,23.214999,120.13577,3.1421365e-08
C0S690,太麻里,2024-05-04,22.60902,120.98533,1.4183715e-09
C0U880,北關,2024-05-04,24.9072,121.8734,1.1816381e-07
C1H860,瑞岩,2024-05-04,24.123772,121.18345,5.5897633e-09
C0G810,埔心,2024-05-04,23.947633,120.525456,8.322276e-09
C0U970,大福,2024-05-04,24.80064,121.81389,6.262955e-06
C1E670,南礦,2024-05-04,24.538278,121.002836,5.28021e-10
C0M520,東後寮,2024-05-04,23.369908,120.248065,9.649812e-09
C1E461,松安,2024-05-04,24.397972,120.986022,1.1349949e-09
72G600,臺中農改,2024-05-04,24.003028,120.534389,7.572231e-09
C2N160,西拉雅風管處,2024-05-04,23.189481,120.335297,4.266875e-08
C0A640,石碇,2024-05-04,24.993969,121.662917,1.2062478e-09
E2S960,林試太麻里2,2024-05-04,22.598,120.99775,2.2836687e-06
C0F9Y0,桃山,2024-05-04,24.432739,121.303808,1.7214695e-08
C1I020,萬大,2024-05-04,23.979817,121.132261,1.0466459e-09
C0U940,羅東,2024-05-04,24.68184,121.74934,3.0497645e-08
C0M650,朴子,2024-05-04,23.43463,120.23902,6.664993e-09
C1I500,大尖山,2024-05-04,23.858572,120.994889,2.3731381e-09
C0G820,田尾,2024-05-04,23.901669,120.509389,8.322276e-09
E2K600,四湖植物園,2024-05-04,23.676986,120.163433,9.991799e-09
C0S730,綠島,2024-05-04,22.6672,121.47533,1.2511691e-07
12Q970,東港工作站,2024-05-04,22.479997,120.466058,2.6089983e-06
C0E430,南庄,2024-05-04,24.601775,121.000214,4.5595588e-10
C1TA00,太魯閣,2024-05-04,24.15773,121.6236,3.6735017e-08
466920,臺北,2024-05-04,25.037658,121.514853,2.1935427e-09
C0R600,舊泰武,2024-05-04,22.588194,120.664944,6.55186e-08
C1I260,北坑,2024-05-04,23.9246,121.006903,1.26772e-09
466910,鞍部,2024-05-04,25.182586,121.529731,2.1114779e-09
C1I230,九份二山,2024-05-04,23.961944,120.845,7.4016004e-10
C2A660,瑞芳,2024-05-04,25.113169,121.801147,7.780419e-09
C0R270,琉球嶼,2024-05-04,22.332244,120.362236,4.8559826e-07
C1T990,高寮,2024-05-04,23.394239,121.356808,1.1971293e-06
C0G620,芬園,2024-05-04,24.015678,120.6213,3.8004412e-08
C1Z140,荖溪,2024-05-04,23.890575,121.45964,6.8646635e-09
C1I201,中心崙,2024-05-04,23.728722,120.712097,1.0518392e-09
C1I400,凌霄,2024-05-04,24.018778,121.004456,1.1432729e-09
C1M640,十字,2024-05-04,23.492153,120.753683,3.1710157e-09
G2P820,農試鳳山分所,2024-05-04,22.646611,120.356083,1.371509e-06
C0Z270,蕃薯寮,2024-05-04,23.73835,121.540108,1.1109937e-08
C0F9Q0,外埔,2024-05-04,24.347817,120.705686,8.68715e-10
C0K580,高鐵雲林,2024-05-04,23.737456,120.417944,7.480686e-09
C2I090,鳳凰,2024-05-04,23.728081,120.787347,7.7324375e-10
C0U990,員山,2024-05-04,24.74435,121.72247,3.8196553e-08
C0V770,大社,2024-05-04,22.730306,120.346639,2.9724686e-07
C0X120,麻豆,2024-05-04,23.183289,120.248611,9.144086e-09
C0C670,龍潭,2024-05-04,24.870056,121.221389,8.605041e-10
C0D680,香山濕地,2024-05-04,24.783581,120.914988,6.794449e-10
C0S980,勝林山,2024-05-04,22.430439,120.8938,4.2927967e-10
C0V730,大寮,2024-05-04,22.605614,120.395717,5.5896004e-07
C0R570,麟洛,2024-05-04,22.65078,120.52719,4.940485e-07
CAG100,王功漁港,2024-05-04,23.96824,120.32586,3.722101e-09
C0X290,北門,2024-05-04,23.267772,120.125481,3.1421365e-08
C2F930,大甲,2024-05-04,24.347667,120.640403,2.2752402e-09
C0D650,湖口,2024-05-04,24.904794,121.043628,1.5904805e-09
C0E420,竹南,2024-05-04,24.708978,120.888897,7.972157e-10
C0U780,五結,2024-05-04,24.68637,121.79794,4.249794e-08
C1I250,鯉潭,2024-05-04,23.961922,120.991131,7.81902e-10
C0R130,阿禮,2024-05-04,22.742908,120.743678,8.908065e-10
C0X100,臺南市北區,2024-05-04,23.010394,120.194228,3.974776e-08
C0S920,金峰嘉蘭,2024-05-04,22.594789,120.960825,2.880169e-07
C0V490,新興,2024-05-04,22.627422,120.298803,7.3057265e-07
C0F9K0,大安,2024-05-04,24.345061,120.588025,3.1875886e-09
72N100,臺南農改,2024-05-04,23.0605,120.342194,8.722686e-09
467290,古坑,2024-05-04,23.633639,120.551889,1.2513511e-08
C0V440,鳳山,2024-05-04,22.646653,120.356122,1.371509e-06
C1T940,大觀,2024-05-04,23.714206,121.373133,2.210612e-09
72T250,花蓮農改,2024-05-04,23.975222,121.563889,3.1195395e-05
C0E740,造橋,2024-05-04,24.637056,120.864778,5.724796e-10
C0R100,尾寮山,2024-05-04,22.833111,120.683889,6.3855216e-10
A2K630,臺大雲林校區,2024-05-04,23.730628,120.423903,7.480686e-09
C0D580,寶山,2024-05-04,24.735006,121.025192,6.8890565e-10
E2P990,林試扇平站,2024-05-04,22.9677,120.6857,0.0002584417
C0AI30,三重,2024-05-04,25.057328,121.500629,2.2925342e-09
C0AH00,汐止,2024-05-04,25.066881,121.658778,2.1935427e-09
C1Z040,立山,2024-05-04,23.443356,121.327375,2.1086535e-08
C0R740,獅子,2024-05-04,22.201569,120.70525,6.103581e-08
C0W130,花嶼,2024-05-04,23.40007,119.32276,1.0162038e-06
C0A950,鼻頭角,2024-05-04,25.129036,121.923372,4.6764826e-06
C0K470,林內,2024-05-04,23.748675,120.609642,2.4751444e-07
82C160,茶改場,2024-05-04,24.908472,121.185333,1.3304509e-09
C0Z320,清水林道,2024-05-04,23.27125,121.188272,2.3786452e-08
C0R760,南仁湖,2024-05-04,22.084681,120.863353,1.0758877e-09
C0M670,大林,2024-05-04,23.600616,120.45841,1.11721565e-08
C0M800,茶山,2024-05-04,23.299075,120.664767,7.0550668e-09
C0A9C0,天母,2024-05-04,25.117494,121.537169,4.006132e-09
72K220,南改斗南分場,2024-05-04,23.634556,120.477333,1.1719111e-08
72AI40,桃改樹林分場,2024-05-04,24.944503,121.386972,9.366838e-10
C0S910,蘭嶼燈塔,2024-05-04,22.081197,121.503117,2.4197089e-09
C0B050,八斗子,2024-05-04,25.144754,121.79167,2.8150406e-08
C0U900,內城,2024-05-04,24.71813,121.68766,1.9790576e-08
C0X320,柳營,2024-05-04,23.253328,120.375253,7.271708e-07
C0M790,新港,2024-05-04,23.553269,120.345728,3.3058485e-09
C0F9T0,西屯,2024-05-04,24.179494,120.641275,6.8483033e-09
C0SA30,都歷,2024-05-04,23.020333,121.323642,1.00059515e-05
C0C620,蘆竹,2024-05-04,25.084275,121.265767,2.5392888e-09
C0R730,大坪頂,2024-05-04,22.024633,120.69355,1.4502864e-08
C0AJ40,石門,2024-05-04,25.273672,121.601198,2.9820715e-09
C0E750,苗栗,2024-05-04,24.564569,120.824575,6.4489486e-10
C0T870,鯉魚潭,2024-05-04,23.935639,121.508944,4.140055e-06
C1V170,排雲,2024-05-04,23.463619,120.954147,1.1752105e-08
C2H950,中寮,2024-05-04,23.884447,120.766406,2.3328256e-07
C0R350,貓鼻頭,2024-05-04,21.921774,120.7358,1.8161712e-05
C0V660,岡山,2024-05-04,22.797078,120.294958,6.3459515e-07
C1H941,雙冬,2024-05-04,23.967378,120.802189,1.2162837e-09
C0AJ70,田寮,2024-05-04,25.2698,121.4886,4.657381e-09
C0AI00,五股,2024-05-04,25.07445,121.42728,2.2575168e-09
C0Z280,德武,2024-05-04,23.47426,121.41071,7.956867e-08
C0R700,枋山,2024-05-04,22.246844,120.661086,0.00014767263
C0C460,復興,2024-05-04,24.820208,121.352281,9.306007e-10
E2H360,蓮華池,2024-05-04,23.918333,120.885278,1.0300202e-09
C0M640,中埔,2024-05-04,23.42538,120.5229,2.550352e-08
C0W140,金沙,2024-05-04,24.488292,118.408778,8.1134e-08
C2A540,四堵,2024-05-04,24.8926,121.745736,5.907143e-09
C0ACA0,新莊,2024-05-04,25.051478,121.446756,2.636336e-09
C0R220,潮州,2024-05-04,22.534361,120.54,6.5301036e-05
U2HA40,臺大內茅埔,2024-05-04,23.689722,120.851117,1.9174615e-09
467490,臺中,2024-05-04,24.145736,120.684075,2.477983e-07
C0U960,翠峰湖,2024-05-04,24.510856,121.608044,3.880581e-09
E2HA20,林試畢祿溪站,2024-05-04,24.226944,121.308522,1.2194247e-08
C0V890,前鎮,2024-05-04,22.5718,120.3117,8.265928e-07
467620,蘭嶼,2024-05-04,22.036969,121.558339,1.1089333e-09
C1F941,雪嶺,2024-05-04,24.280586,121.026642,2.0766155e-08
C0AC80,文山,2024-05-04,25.00235,121.575728,1.7869195e-09
C0F9R0,龍井,2024-05-04,24.184536,120.528972,6.4790835e-09
C0M760,民雄,2024-05-04,23.551754,120.428457,1.19224515e-08
C0UA40,西德山,2024-05-04,24.560647,121.752608,1.6050474e-09
C1T920,中興,2024-05-04,23.769503,121.498653,4.493634e-06
C0D550,雪霸,2024-05-04,24.526972,121.11605,1.7852434e-09
C2F860,梨山,2024-05-04,24.247522,121.243669,1.2522655e-08
C0R320,車城,2024-05-04,22.0744,120.716247,7.1278564e-06
C1S870,南美山,2024-05-04,23.15025,121.382333,7.230353e-06
C0B020,基隆嶼,2024-05-04,25.19141,121.78391,3.7605915e-07
C1U501,牛鬥,2024-05-04,24.637836,121.573656,1.8329412e-09
C0M730,嘉義市東區,2024-05-04,23.457673,120.460531,1.1177191e-07
C0S700,知本,2024-05-04,22.684866,121.005642,1.4044216e-09
C1N001,沙崙,2024-05-04,22.935472,120.309406,3.0697706e-08
C0V760,橋頭,2024-05-04,22.757806,120.30575,3.7011947e-07
C0G960,福寶,2024-05-04,24.0443,120.3814,4.3408503e-09
C0X210,白河,2024-05-04,23.347466,120.414427,3.194493e-07
C0S810,東河,2024-05-04,22.972672,121.303986,0.019163925
C0R670,楓港,2024-05-04,22.190131,120.692156,1.3632169e-06
C0FA50,霧峰,2024-05-04,24.0419,120.6995,7.445175e-08
C0UB10,蘇澳,2024-05-04,24.5969,121.8571,1.0992992e-08
C0G950,防潮門,2024-05-04,24.1835,120.4871,6.4790835e-09
C0M740,六腳,2024-05-04,23.492871,120.290625,3.27869e-09
C1R250,力里,2024-05-04,22.428117,120.629228,0.7659722
C0K330,虎尾,2024-05-04,23.719183,120.442036,6.9982278e-09
C2FA00,烏石坑,2024-05-04,24.273503,120.947617,1.2343727e-09
C0V620,永安,2024-05-04,22.82315,120.236856,6.3459515e-07
C1I330,楓樹林,2024-05-04,23.986803,121.076117,1.0523168e-09
C0W200,湖西,2024-05-04,23.596314,119.67275,1.4176764e-07
72Q010,高雄農改場,2024-05-04,22.709333,120.525889,1.9715343e-07
C0SA40,瑞和,2024-05-04,22.974361,121.156697,2.417411e-07
C0C680,龜山,2024-05-04,25.02846,121.38656,2.0719537e-09
C2V260,月眉,2024-05-04,22.971003,120.539853,4.0641e-09
C0V450,鳳森,2024-05-04,22.545064,120.392592,3.8669847e-07
C0U720,南山,2024-05-04,24.43742,121.38167,6.6122896e-10
A2N290,臺南蘭花園區,2024-05-04,23.340258,120.379661,6.4303065e-09
C0R560,新園,2024-05-04,22.5434,120.461558,1.8404833e-06
C0U890,三星,2024-05-04,24.66812,121.65302,3.490287e-09
C1V300,御油山,2024-05-04,23.001983,120.715364,1.3660654e-09
C0U600,礁溪,2024-05-04,24.817539,121.765608,0.0024228056
C1T980,龍澗,2024-05-04,24.023289,121.411328,5.188069e-09
C0D670,海天一線,2024-05-04,24.831986,120.914438,1.2082119e-09
C0SA00,歷坵,2024-05-04,22.520969,120.89185,4.98887e-09
C0M710,東石,2024-05-04,23.458927,120.15385,8.472352e-08
C0M780,鹿草,2024-05-04,23.41134,120.30835,6.0879057e-09
C0U520,雙連埤,2024-05-04,24.753033,121.641303,8.0715825e-09
C0B010,七堵,2024-05-04,25.094819,121.71713,2.2960525e-09
C0R480,長治,2024-05-04,22.693128,120.542622,5.9573612e-08
C1V830,國三S383K,2024-05-04,22.781967,120.426475,5.3525926e-09
12Q980,恆春工作站,2024-05-04,22.079678,120.714425,7.1278564e-06
C1O940,東山服務區,2024-05-04,23.286016,120.398472,5.7061436e-07
C1U840,東澳嶺,2024-05-04,24.5378,121.8485,1.868373e-09
C1D630,飛鳳山,2024-05-04,24.766464,121.119178,6.681511e-10
C0S940,石寧山,2024-05-04,23.223772,121.406639,6.67689e-05
C0K410,北港,2024-05-04,23.573957,120.292802,1.234119e-08
C2M620,瑞里,2024-05-04,23.545133,120.675197,8.7034363e-10
C2O950,安南,2024-05-04,23.076694,120.144861,3.805515e-07
C0F0E0,南湖圈谷,2024-05-04,24.363714,121.444667,1.0777099e-08
467610,成功,2024-05-04,23.097486,121.373428,0.9580733
C0G890,伸港,2024-05-04,24.148933,120.484403,4.8031605e-09
C2E540,龍溪,2024-05-04,24.606489,120.783933,5.860265e-10
C1V200,梅山,2024-05-04,23.268447,120.823556,7.574811e-07
C0T9H0,加路蘭山,2024-05-04,23.682947,121.5274,2.162779e-09
C2O930,玉井,2024-05-04,23.126042,120.46055,3.16343e-08
C1F911,新伯公,2024-05-04,24.221361,120.841069,5.0415656e-07
C0R490,九如,2024-05-04,22.7405,120.490503,2.3805113e-07
C0X200,左鎮,2024-05-04,23.056758,120.408522,1.4876043e-08
C1F891,稍來,2024-05-04,24.265689,121.001142,7.790918e-09
72N240,七股研究中心,2024-05-04,23.081672,120.062894,5.2300345e-07
C0C700,中壢,2024-05-04,24.977661,121.256375,1.4160955e-09
C0M690,水上,2024-05-04,23.419734,120.388909,4.5298636e-09
C0V690,鼓山,2024-05-04,22.623325,120.275575,7.3057265e-07
C0O860,大內,2024-05-04,23.11885,120.36083,9.296485e-09
C0Z200,萬榮,2024-05-04,23.709219,121.420106,1.4811992e-07
C0T9D0,和中,2024-05-04,24.26676,121.74103,7.436094e-06
C1O921,楠西,2024-05-04,23.183511,120.484083,1.028818e-06
C0AJ30,淡水觀海,2024-05-04,25.184591,121.408616,3.1061498e-09
C0V810,左營,2024-05-04,22.67491,120.28491,1.8676363e-06
C0UA70,桃源谷,2024-05-04,24.962606,121.888875,1.8311067e-09
C0X130,官田,2024-05-04,23.193217,120.315422,4.821226e-08
C1H000,翠峰,2024-05-04,24.109397,121.205211,3.8141494e-09
C0UA90,石城,2024-05-04,24.980444,121.951214,2.6963969e-08
C1E681,南勢山,2024-05-04,24.421669,120.923831,1.2220087e-09
C0A9F0,內湖,2024-05-04,25.079422,121.57545,2.1935427e-09
C0K291,宜梧,2024-05-04,23.536281,120.169329,3.3059766e-08
C1K540,口湖,2024-05-04,23.585344,120.180517,1.5971906e-08
C0R780,滿州,2024-05-04,22.024403,120.839892,3.5624364e-08
C0V870,文安,2024-05-04,22.8025,120.2164,6.808322e-07
C0U650,玉蘭,2024-05-04,24.675286,121.587061,2.507619e-09
C0R640,東港,2024-05-04,22.46247,120.44074,2.622674e-06
K2E360,苗栗農改,2024-05-04,24.495722,120.829111,9.52059e-10
C0AJ80,板橋,2024-05-04,25.0107,121.4489,2.2587574e-09
C0S660,下馬,2024-05-04,23.150427,121.070312,1.0530355e-09
C1H9B1,阿眉,2024-05-04,24.1263,120.994672,5.318125e-09
C0UA20,多加屯,2024-05-04,24.368614,121.373189,1.1006e-08
C0E730,頭份,2024-05-04,24.688247,120.912206,8.0846285e-10
72V140,高改旗南分場,2024-05-04,22.857861,120.516667,7.2179245e-09
C0K480,莿桐,2024-05-04,23.761192,120.502372,1.3727527e-08
C0U980,坪林石牌,2024-05-04,24.86478,121.77396,6.275002e-09
C0T900,西林,2024-05-04,23.8119,121.441458,1.5663153e-07
C1I150,青雲,2024-05-04,23.793361,120.949378,4.046951e-09
467350,澎湖,2024-05-04,23.565503,119.563094,3.3115464e-07
C0G800,埔鹽,2024-05-04,24.000394,120.431683,4.231165e-09
C0H960,草屯,2024-05-04,23.973672,120.68085,3.924402e-08
C1V780,多納林道,2024-05-04,22.888028,120.737917,8.369422e-10
C0E920,通霄漁港,2024-05-04,24.498589,120.673876,2.6599591e-09
C0Z330,安通山,2024-05-04,23.290728,121.348528,3.025989e-09
C0AH10,永和,2024-05-04,25.01125,121.508111,2.2587574e-09
C2G640,鹿港,2024-05-04,24.0753,120.430481,4.3408503e-09
C1E890,國三N149K,2024-05-04,24.463414,120.680019,2.7615656e-09
C1R110,口社,2024-05-04,22.770111,120.645222,0.9979421
C1M870,國三N285K,2024-05-04,23.550319,120.505833,2.3627019e-08
467050,新屋,2024-05-04,25.006744,121.047486,1.416063e-09
C1E480,鳳美,2024-05-04,24.554803,121.034747,5.6211297e-10
C0M530,奮起湖,2024-05-04,23.493903,120.699253,9.399752e-10
C0C590,觀音,2024-05-04,25.027072,121.153317,1.7655556e-09
C0T9M0,靜浦,2024-05-04,23.455167,121.495028,5.6000495e-06
C0AI40,石牌,2024-05-04,25.115597,121.513139,4.196109e-09
C1F871,上谷關,2024-05-04,24.203483,121.018644,2.4640565e-09
C0G880,二水,2024-05-04,23.810742,120.6173,8.201586e-07
C0R940,加祿堂,2024-05-04,22.3363,120.6217,0.0019759245
C0W220,北竿,2024-05-04,26.220358,119.974881,2.1828275e-06
C0O960,崎頂,2024-05-04,22.959547,120.369317,1.3749197e-08
C0S750,向陽,2024-05-04,23.248397,120.986133,2.303571e-09
C0T9F0,水璉,2024-05-04,23.797131,121.542514,4.304419e-08
C1M600,頭凍,2024-05-04,23.406364,120.603339,2.0205164e-09
467660,臺東,2024-05-04,22.752211,121.154586,1.037827e-06
C1D380,新埔,2024-05-04,24.84745,121.03834,6.8136036e-10
C0V750,路竹,2024-05-04,22.854997,120.259439,3.8762852e-08
C0N050,蚵寮,2024-05-04,23.301,120.1104,2.4447703e-08
72M700,南改鹿草分場,2024-05-04,23.416869,120.283061,6.664993e-09
C1SA50,利嘉林道,2024-05-04,22.82325,121.009389,6.931762e-10
467550,玉山,2024-05-04,23.487614,120.959522,1.8207746e-08
C0A940,金山,2024-05-04,25.223628,121.643967,3.3994865e-09
C1V340,大津,2024-05-04,22.888322,120.645986,6.394315e-07
C0W180,七美,2024-05-04,23.219333,119.444892,2.7573547e-06
C1F9C1,白冷,2024-05-04,24.182844,120.929889,2.6372527e-08
K2E710,苗改生物防治研究中心,2024-05-04,24.422861,120.871833,6.617766e-10
C0N040,蘆竹溝,2024-05-04,23.2344,120.0961,3.1421365e-08
C2W230,畜試所澎湖,2024-05-04,23.628342,119.513206,1.8147303e-07
C0R880,後壁湖,2024-05-04,21.9457,120.7457,5.615489e-06
C1I280,埔中,2024-05-04,23.820778,120.642594,2.1565796e-09
467790,墾丁雷達站,2024-05-04,21.948235,120.808028,3.305483e-09
C0W190,望安,2024-05-04,23.380564,119.494075,5.776056e-06
466881,新北,2024-05-04,24.9593,121.52,2.0278907e-09
C0Z170,卓溪,2024-05-04,23.3443,121.3029,1.3179562e-07
C0F850,東勢,2024-05-04,24.246428,120.833047,3.088368e-09
466900,淡水,2024-05-04,25.164889,121.448906,6.638806e-09
C0I370,魚池,2024-05-04,23.895703,120.94135,9.521933e-10
C0C630,大溪,2024-05-04,24.882853,121.265547,9.133692e-10
C0A520,山佳,2024-05-04,24.974944,121.402008,1.417271e-09
C0I110,竹山,2024-05-04,23.761225,120.688156,1.9321018e-07
82H840,茶改南部分場,2024-05-04,23.762528,120.7405,3.2965801e-09
C0G660,溪湖,2024-05-04,23.94835,120.479122,8.912965e-09
C1T800,洛韶,2024-05-04,24.204558,121.453956,3.1983987e-09
C1T810,慈恩,2024-05-04,24.192044,121.388386,1.6962285e-09
C1E451,象鼻,2024-05-04,24.368617,120.940228,1.8311347e-09
C0AC60,三峽,2024-05-04,24.939025,121.369728,9.134476e-10
C0I490,萬大林道,2024-05-04,23.928228,121.091411,1.1621233e-09
C1I290,豐丘,2024-05-04,23.668178,120.887417,6.272151e-10
C1I320,奧萬大,2024-05-04,23.952956,121.178556,7.930299e-10
C0U770,南澳,2024-05-04,24.44935,121.81022,7.571942e-09
C0A980,社子,2024-05-04,25.109508,121.469681,7.2079915e-09
C0V800,六龜,2024-05-04,22.997889,120.633583,1.6877443e-09
C1G9D0,國一S218K,2024-05-04,23.890641,120.493253,1.3777522e-08
C2F9A0,中竹林,2024-05-04,24.103556,120.751061,1.2810016e-08
C0FA40,臺中電廠,2024-05-04,24.2146,120.4907,6.4790835e-09
C0H9C0,合歡山,2024-05-04,24.143442,121.272547,1.7020826e-08
C0X060,下營,2024-05-04,23.22695,120.256261,1.3163817e-08
G2M350,農試溪口農場,2024-05-04,23.58565,120.408111,1.3194333e-08
C0U860,頭城,2024-05-04,24.85323,121.8308,0.003282827
C0R580,南州,2024-05-04,22.48591,120.50274,2.622674e-06
C0D430,峨眉,2024-05-04,24.6905,121.017189,5.732215e-10
C0G780,秀水,2024-05-04,24.03405,120.503869,7.573386e-09
72N100,臺南農改場,2024-05-04,23.0605,120.342194,8.722686e-09
C0S900,蘭嶼高中,2024-05-04,22.04909,121.51214,3.83753e-09
467540,大武,2024-05-04,22.355675,120.903789,0.0046180147
C1F9W0,德基,2024-05-04,24.254783,121.190261,5.9420495e-09
C1Z120,壽豐,2024-05-04,23.870853,121.508081,0.00026379887
C0W160,烏坵,2024-05-04,24.9944,119.44956,1.2832318e-08
C1I240,外大坪,2024-05-04,23.958697,120.917931,7.734886e-10
C1I550,國六W023K,2024-05-04,23.979067,120.867742,4.9596953e-09
C0R870,興海,2024-05-04,21.9752,120.8439,5.908011e-09
C0R140,瑪家,2024-05-04,22.682903,120.686639,1.6034265e-08
C0A530,坪林,2024-05-04,24.938183,121.70975,7.651954e-09
C0X260,後壁,2024-05-04,23.366358,120.362326,6.4303065e-09
C0Z230,和平,2024-05-04,24.30717,121.77007,1.1549935e-05
C0G770,福興,2024-05-04,24.041289,120.437669,4.231811e-09
C0H9A0,神木村,2024-05-04,23.532742,120.843667,3.1566898e-09
C0I460,南投,2024-05-04,23.911469,120.687331,1.0772017e-05
C0I480,梅峰,2024-05-04,24.085272,121.173572,3.4645524e-09
C1V570,吉東,2024-05-04,22.85422,120.5454,6.256311e-09
C2A560,福山,2024-05-04,24.776203,121.502811,1.2439123e-08
C0AH30,五分山,2024-05-04,25.07125,121.780794,1.2599868e-09
C0FA10,松柏,2024-05-04,24.429115,120.617482,3.3949508e-09
72S200,東改班鳩分場,2024-05-04,22.829528,121.077694,4.6664265e-08
72HA00,中改埔里分場,2024-05-04,23.903208,120.963364,1.1139554e-09
C0C650,平鎮,2024-05-04,24.897503,121.214636,7.895902e-10
C0S930,延平,2024-05-04,22.902581,121.084058,1.275311e-07
C0UA60,樟樹山,2024-05-04,24.41393,121.78325,2.769997e-08
C1S670,摩天,2024-05-04,23.199503,121.027,7.546159e-10
C0V630,茄萣,2024-05-04,22.906642,120.182608,4.779931e-08
466940,基隆,2024-05-04,25.133314,121.740475,2.3690102e-08
C0X050,東河,2024-05-04,23.296598,120.385608,8.240175e-07
C0R770,保力,2024-05-04,22.071122,120.764111,6.937522e-08
G2L020,農試嘉義分所,2024-05-04,23.485028,120.473806,2.4431745e-07
C0X240,關子嶺,2024-05-04,23.331169,120.508025,1.9284252e-08
C0I380,集集,2024-05-04,23.828206,120.801467,1.252416e-08
466990,花蓮,2024-05-04,23.975128,121.613275,5.5064167e-05
C1V220,小關山,2024-05-04,23.154217,120.813603,1.083342e-09
C1F9G1,慶福山,2024-05-04,24.180853,120.848378,7.883432e-09
C0Z250,瑞穗林道,2024-05-04,23.49284,121.30688,1.6115783e-09
C0D590,新豐,2024-05-04,24.87068,120.97721,1.1857246e-09
C0A870,五指山,2024-05-04,25.132153,121.608692,1.1904404e-09
C0UA50,西帽山,2024-05-04,24.555361,121.802628,1.2915233e-09
C0X160,仁德,2024-05-04,22.968258,120.257689,2.187352e-08
C1H971,六分寮,2024-05-04,23.92507,120.6378,6.380265e-09
C0W120,西嶼,2024-05-04,23.5626,119.468436,6.696303e-07
C0G650,員林,2024-05-04,23.946503,120.585597,2.004939e-08
C0AD50,鶯歌,2024-05-04,24.951533,121.346294,8.90674e-10
C0S990,山豬窟,2024-05-04,22.318619,120.857372,3.5934715e-09
72Q010,高雄農改,2024-05-04,22.709333,120.525889,1.9715343e-07
C0X190,安平,2024-05-04,22.993161,120.152181,3.974776e-08
C0K400,斗六,2024-05-04,23.720583,120.541127,1.48277435e-08
12J990,口湖工作站,2024-05-04,23.589978,120.180394,1.5971906e-08
C0O830,北寮,2024-05-04,23.079561,120.495008,1.2086435e-08
C1D410,白蘭,2024-05-04,24.579364,121.079947,5.918576e-10
C0S970,加津林,2024-05-04,22.416211,120.926942,0.00074388005
C0D700,關西,2024-05-04,24.7977,121.1732,7.794422e-10
C0M810,里佳,2024-05-04,23.389125,120.716647,1.3473693e-09
C0U750,龜山島,2024-05-04,24.841667,121.953133,1.5605451e-06
C0R810,內獅,2024-05-04,22.305064,120.642986,0.0025972319
C1M390,龍美,2024-05-04,23.406728,120.654417,1.390906e-09
C1H840,國三N238K,2024-05-04,23.841008,120.707711,8.228837e-08
CAQ030,崎峰國小,2024-05-04,22.42565,120.49521,2.622674e-06
C2E520,大湖,2024-05-04,24.414939,120.870872,6.274257e-10
467530,阿里山,2024-05-04,23.508208,120.813242,6.7268573e-09
C1E691,南湖,2024-05-04,24.40135,120.837533,1.3051656e-09
C0FA30,梧棲,2024-05-04,24.256003,120.523381,6.1963386e-09
C1V231,高中,2024-05-04,23.134911,120.716711,7.243725e-10
C0F9V0,新社,2024-05-04,24.200172,120.815806,7.778597e-08
C0H890,埔里,2024-05-04,23.972169,120.952425,2.645978e-09
C0R690,墾丁,2024-05-04,21.966756,120.810269,6.6707634e-10
C0F0D0,審馬陣,2024-05-04,24.381675,121.4203,1.5879897e-08
C0R820,白鷺,2024-05-04,22.454275,120.666219,1.3276751e-09
U2H480,臺大溪頭,2024-05-04,23.670306,120.798194,6.0561817e-10
C1V190,南天池,2024-05-04,23.27403,120.91176,2.916055e-09
K2E360,苗栗農改場,2024-05-04,24.495722,120.829111,9.52059e-10
CAJ050,海口故事園區,2024-05-04,23.57543,120.14121,1.5971906e-08
C0O990,媽廟,2024-05-04,22.99175,120.293525,1.1013308e-08
C0D480,打鐵坑,2024-05-04,24.849664,121.150789,8.595232e-10
C0Z220,和平林道,2024-05-04,24.343922,121.656317,6.5444508e-09
72C440,桃園農改場,2024-05-04,24.950944,121.030583,1.6106073e-09
C1E711,馬拉邦山,2024-05-04,24.367306,120.901656,1.830562e-09
C0D560,竹東,2024-05-04,24.767147,121.057881,7.924675e-10
C0F9U0,南屯,2024-05-04,24.137006,120.637969,9.695048e-09
C0M720,番路,2024-05-04,23.464657,120.554156,1.31745175e-08
C0F0A0,雪山圈谷,2024-05-04,24.388594,121.236339,2.3064825e-08
C1A9N0,四十份,2024-05-04,24.934158,121.593283,1.4598606e-09
C0U760,東澳,2024-05-04,24.52196,121.83318,5.176013e-08
C0X230,鹽水,2024-05-04,23.272621,120.247641,2.2856193e-08
C0V370,古亭坑,2024-05-04,22.893178,120.401947,2.7390836e-08
C1I340,新興橋,2024-05-04,23.563333,120.868728,6.478463e-10
C0SA80,土坂,2024-05-04,22.453108,120.887572,0.0007904119
C0R160,鹽埔,2024-05-04,22.739558,120.530778,1.9715343e-07
C0AC40,大屯山,2024-05-04,25.175675,121.522408,2.6848588e-09
466850,五分山雷達站,2024-05-04,25.071182,121.781205,1.2584161e-09
C1AI50,國三N016K,2024-05-04,25.034164,121.619664,1.8827466e-09
C1V600,藤枝,2024-05-04,23.071961,120.757042,7.9076734e-10
C1E601,南勢,2024-05-04,24.572486,120.734842,1.0308103e-09
C0Z180,新城,2024-05-04,24.03946,121.60454,4.6652553e-05
C0O980,新市,2024-05-04,23.061614,120.298197,1.08946985e-08
C0K420,西螺,2024-05-04,23.800407,120.467394,5.799555e-09
C0Z050,佳心,2024-05-04,23.34567,121.21316,6.2129066e-09
C0AD30,蘆洲,2024-05-04,25.086594,121.472331,2.2897024e-09
C0V610,梓官,2024-05-04,22.760558,120.267211,3.7011947e-07
K2F750,種苗改良場,2024-05-04,24.225972,120.800917,1.7586439e-07
C0UA80,大溪漁港,2024-05-04,24.941801,121.902955,9.4722e-08
C1AI60,國一39K邊坡,2024-05-04,25.064361,121.383836,2.1418631e-09
C0W150,金寧,2024-05-04,24.457703,118.328989,6.4813364e-08
V2C250,八德合作社,2024-05-04,24.93775,121.266389,8.204209e-10
C0AH40,平等,2024-05-04,25.129142,121.577086,1.13142e-09
C0R540,佳冬,2024-05-04,22.419456,120.552375,0.71678257
466950,彭佳嶼,2024-05-04,25.627975,122.079744,5.662435e-08
C0A890,雙溪,2024-05-04,25.036003,121.864242,4.168335e-08
C0C480,桃園,2024-05-04,24.992425,121.323172,1.4670958e-09
C0AH50,林口,2024-05-04,25.072181,121.38084,2.0422641e-09
A2K360,水試臺西試驗場,2024-05-04,23.717231,120.190522,4.542392e-09
B2N890,畜試所,2024-05-04,23.058972,120.336406,8.722686e-09
C0F9S0,烏日,2024-05-04,24.107058,120.624103,1.1910053e-06
C0C490,八德,2024-05-04,24.928708,121.283289,8.098673e-10
C0R190,赤山,2024-05-04,22.592333,120.614306,0.30596945
C0T820,天祥,2024-05-04,24.179597,121.495639,1.8862881e-08
C1F9E1,龍安,2024-05-04,24.1605,120.831961,6.260202e-09
C0V820,小林,2024-05-04,23.148408,120.63325,2.134624e-09
C2G870,芳苑,2024-05-04,23.922303,120.320025,3.5335248e-09
C0E850,大河,2024-05-04,24.618069,120.948578,4.801986e-10
C1U670,寒溪,2024-05-04,24.634,121.71691,1.628003e-08
C0N020,城西,2024-05-04,23.0568,120.0956,3.974776e-08
C1Z110,三棧,2024-05-04,24.11557,121.60501,6.1356538e-09
C0R280,檳榔,2024-05-04,22.076078,120.836777,2.2169244e-09
C0F9L0,后里,2024-05-04,24.310436,120.729725,6.3032752e-09
C0D540,橫山,2024-05-04,24.71116,121.11693,5.9854766e-10
C1D420,太閣南,2024-05-04,24.632808,121.160575,1.3121547e-09
C1E770,公館,2024-05-04,24.526914,120.830806,1.1698627e-09
CAN130,水試所海水繁養殖中心,2024-05-04,23.120802,120.07968,5.2300345e-07
C1I430,翠華,2024-05-04,24.191961,121.224339,6.993971e-09
C1M400,菜瓜坪,2024-05-04,23.251928,120.576103,3.3377812e-09
C0G730,二林,2024-05-04,23.903325,120.376081,4.7765933e-09
72M360,南改義竹分場,2024-05-04,23.360694,120.279361,9.649812e-09
V2K620,麥寮合作社,2024-05-04,23.753836,120.294783,6.4010846e-09
C0Z070,舞鶴,2024-05-04,23.46811,121.37407,3.4281904e-08
C0B040,大武崙,2024-05-04,25.166676,121.706993,1.5031258e-08
C1Z030,紅葉,2024-05-04,23.493119,121.338806,2.3520124e-07
C1I050,丹大,2024-05-04,23.753747,121.141147,1.9990576e-09
C0I080,信義,2024-05-04,23.689694,120.851036,1.9174615e-09
C2A880,福隆,2024-05-04,25.017842,121.942083,3.0002496e-08
C0Z160,鳳林,2024-05-04,23.746114,121.453411,3.353859e-07
C0V210,復興,2024-05-04,23.222403,120.806089,0.000293164
C0H990,昆陽,2024-05-04,24.121322,121.273642,8.7290095e-09
C0S710,鹿野,2024-05-04,22.917711,121.122994,1.3534099e-08
C0I530,小奇萊,2024-05-04,24.131764,121.295717,9.334135e-09
C0Z080,富源,2024-05-04,23.587642,121.378225,1.4140254e-07
467441,高雄,2024-05-04,22.7304,120.3125,2.9724686e-07
C1I140,卡奈托灣,2024-05-04,23.754364,121.087872,8.478033e-10
C0I520,玉山風口,2024-05-04,23.470489,120.955994,1.9709962e-08
C1G691,下水埔,2024-05-04,23.816114,120.5676,1.0479148e-08
C0X110,臺南市南區,2024-05-04,22.961189,120.188378,2.187352e-08
C0V680,仁武,2024-05-04,22.701083,120.347722,1.8676363e-06
C2G840,北斗,2024-05-04,23.877586,120.514222,1.3016559e-08
C0R900,竹坑,2024-05-04,22.1385,120.7022,5.009678e-06
C0K250,崙背,2024-05-04,23.75555,120.318925,6.4010846e-09
C0G860,社頭,2024-05-04,23.897647,120.5862,1.5693125e-08
C0X150,安定,2024-05-04,23.102614,120.227839,9.9628545e-09
C0R590,里港,2024-05-04,22.77919,120.49459,1.1384861e-08
C0E610,馬都安,2024-05-04,24.451272,120.930192,1.276932e-09
C0E550,明德,2024-05-04,24.583486,120.885411,6.188269e-10
C0R150,三地門,2024-05-04,22.709889,120.639944,0.9978369
C0G910,花壇,2024-05-04,24.032076,120.549461,6.2172694e-09
C1D400,鳥嘴山,2024-05-04,24.71909,121.28387,1.6373443e-09
C0K500,元長,2024-05-04,23.64981,120.315024,8.46064e-09
C0F0B0,石岡,2024-05-04,24.276061,120.777644,4.6405515e-09
C2V250,甲仙,2024-05-04,23.080106,120.591758,3.0385394e-09
C0SA20,金崙山,2024-05-04,22.567419,120.959667,7.022145e-10
C0V350,溪埔,2024-05-04,22.738578,120.446797,3.6688032e-08
C0M660,溪口,2024-05-04,23.604131,120.403569,1.3194333e-08
C1S880,壽卡,2024-05-04,22.238911,120.858903,9.712441e-10
72D680,桃改新埔分場,2024-05-04,24.834444,121.066111,6.7813466e-10
