站號,站名,日期,lat,lon,BLBTSLS
C0R710,龍磐,2024-02-19,21.931672,120.838942,0.99992895
C1F9D1,白毛台,2024-02-19,24.158325,120.886933,2.6272755e-09
C0G940,竹塘,2024-02-19,23.848253,120.386764,2.6152562e-09
467590,恆春,2024-02-19,22.003897,120.746339,0.99996245
C1O850,環湖,2024-02-19,23.148617,120.418633,7.0573005e-09
C0U710,太平山,2024-02-19,24.505486,121.525656,1.5997333e-08
C0E820,獅潭,2024-02-19,24.539133,120.920042,3.5745291e-09
C0V880,興達,2024-02-19,22.8778,120.2127,5.3033187e-08
C0S890,關山,2024-02-19,23.0395,121.175017,8.56329e-10
K2F750,種苗繁殖,2024-02-19,24.225972,120.800917,4.4135e-09
C1Z130,銅門,2024-02-19,23.965694,121.492842,4.7922435e-09
C0AD40,土城,2024-02-19,24.973208,121.445169,2.0441933e-09
CAN140,六官養殖協會,2024-02-19,23.22881,120.29962,2.4214827e-08
C0X180,山上,2024-02-19,23.0757,120.363253,4.7611484e-09
C0F9Z0,雪山東峰,2024-02-19,24.388792,121.268675,3.437803e-08
C1M480,獨立山,2024-02-19,23.537022,120.607797,6.5418173e-09
C0X220,學甲,2024-02-19,23.230367,120.182187,8.758295e-09
C0R170,屏東,2024-02-19,22.660269,120.494072,1.0037811e-09
467650,日月潭,2024-02-19,23.881325,120.90805,4.0834007e-09
C0K600,箔子寮,2024-02-19,23.6197,120.14,5.6962648e-08
C0G830,埤頭,2024-02-19,23.866003,120.452806,1.2152217e-09
C0S950,七塊厝,2024-02-19,22.954453,121.229922,1.3632907e-09
467110,金門,2024-02-19,24.407306,118.289281,5.5845417e-09
C0AH80,深坑,2024-02-19,25.002703,121.628328,2.1127549e-09
467990,馬祖,2024-02-19,26.169269,119.923419,2.9577885e-08
C0A970,三貂角,2024-02-19,25.007606,122.002058,7.0578663e-09
C0K430,褒忠,2024-02-19,23.690938,120.303634,1.2226614e-09
467480,嘉義,2024-02-19,23.495925,120.432906,3.2292686e-09
C2E540,後龍,2024-02-19,24.606489,120.783933,3.2942795e-09
C0V400,阿公店,2024-02-19,22.804194,120.355528,6.413256e-09
C0R440,大漢山,2024-02-19,22.405264,120.753181,2.5005228e-08
C0K280,四湖,2024-02-19,23.630414,120.227125,2.5150973e-08
C1F9B1,桐林,2024-02-19,24.066172,120.735194,7.572328e-10
C0K390,土庫,2024-02-19,23.679029,120.395574,1.4213749e-09
C1I450,望鄉山,2024-02-19,23.594153,120.944286,1.804952e-08
C0E910,海埔,2024-02-19,24.648767,120.772435,3.3313001e-09
B2E890,畜試北區分所,2024-02-19,24.527806,120.770972,1.8462464e-09
C0R750,四林格山,2024-02-19,22.076989,120.802439,6.1313094e-06
C0F0C0,中坑,2024-02-19,24.248517,120.903319,3.2408876e-09
C1I121,大鞍,2024-02-19,23.678381,120.760017,6.714577e-09
72U480,花改蘭陽分場,2024-02-19,24.686306,121.716583,1.0738089e-09
C0A770,科教館,2024-02-19,25.096356,121.516507,1.2766325e-09
C0AJ60,六塊厝,2024-02-19,25.24,121.4481,4.9225353e-09
C0R620,墾雷,2024-02-19,21.900836,120.855269,0.9991246
467420,永康,2024-02-19,23.038386,120.2367,6.5062786e-09
467300,東吉島,2024-02-19,23.25695,119.667467,0.9999079
C0I410,名間,2024-02-19,23.837053,120.701447,7.858821e-10
A2C560,農工中心,2024-02-19,24.985917,121.239833,1.6349911e-09
C0V740,旗山,2024-02-19,22.888614,120.483597,4.8011275e-09
C0Z061,玉里,2024-02-19,23.3215,121.339656,1.8087419e-09
C0S840,南田,2024-02-19,22.279725,120.889208,0.9999464
C1I470,杉林溪,2024-02-19,23.639517,120.786444,8.362358e-09
C1X040,東原,2024-02-19,23.291597,120.463822,2.348709e-09
C0R660,枋寮,2024-02-19,22.367722,120.590647,5.9884684e-07
C1R120,上德文,2024-02-19,22.763272,120.704442,1.2542155e-09
C0K450,大埤,2024-02-19,23.646074,120.431537,1.0301342e-09
C0UA00,土場,2024-02-19,24.576533,121.495333,2.3734053e-09
467080,宜蘭,2024-02-19,24.763975,121.756528,1.8127828e-09
C0N030,四草,2024-02-19,23.0235,120.1116,1.1838879e-08
C0V650,彌陀,2024-02-19,22.783806,120.246361,1.7518978e-07
C0D660,新竹市東區,2024-02-19,24.798681,120.986942,1.4714928e-09
82S580,茶改東部分場,2024-02-19,22.907694,121.130139,3.4545096e-09
C0C710,大溪永福,2024-02-19,24.892936,121.324975,2.45682e-09
C0FA20,溫寮,2024-02-19,24.372177,120.583125,1.854757e-08
C0V640,湖內,2024-02-19,22.887139,120.2445,5.072619e-08
C0R910,下寮,2024-02-19,22.3929,120.5548,5.9884684e-07
C0Z020,明里,2024-02-19,23.208717,121.262342,2.3473388e-09
C0M770,嘉義梅山,2024-02-19,23.585398,120.555587,1.1078366e-08
G2F820,農業試驗所,2024-02-19,24.031261,120.688133,6.05721e-10
C0C660,楊梅,2024-02-19,24.912375,121.143047,1.7341035e-09
C1E511,新開,2024-02-19,24.347703,120.827019,1.85688e-09
G2F820,農試所(霧峰),2024-02-19,24.031261,120.688133,6.05721e-10
C1I070,和社,2024-02-19,23.591131,120.888861,2.0633644e-09
C2F000,大肚,2024-02-19,24.15295,120.572117,1.7904062e-09
C1S850,豐南,2024-02-19,23.122139,121.262389,1.7752604e-09
C2A920,富貴角,2024-02-19,25.263783,121.565258,5.668808e-09
CAH030,茶改場竹圍站,2024-02-19,23.860083,120.637528,9.1013985e-10
C0T960,光復,2024-02-19,23.660694,121.424964,1.6970764e-09
C0F9M0,豐原,2024-02-19,24.254322,120.720692,2.4664875e-09
C0R720,旭海,2024-02-19,22.205403,120.887614,0.99988437
C0V710,苓雅,2024-02-19,22.622742,120.330669,4.2258202e-07
C0C740,觀音工業區,2024-02-19,25.064764,121.114856,6.23833e-09
CAC040,拉拉山,2024-02-19,24.699317,121.427133,1.8994985e-08
C0V790,萬山,2024-02-19,22.905944,120.688056,3.9023136e-09
U2HA30,臺大和社,2024-02-19,23.590856,120.888864,2.0633644e-09
C0AJ90,澳底,2024-02-19,25.0552,121.9253,9.211586e-09
C0Z100,東華,2024-02-19,23.89525,121.549833,2.7776406e-09
C0G970,三豐,2024-02-19,23.882,120.2895,0.00014537534
V2K610,大庄合作社,2024-02-19,23.8068,120.367939,1.4923438e-09
C0V900,汕尾,2024-02-19,22.4782,120.4151,5.326625e-08
C1R630,龍泉,2024-02-19,22.66701,120.59091,1.3294115e-08
C1AC50,關渡,2024-02-19,25.133486,121.469331,1.715706e-09
C0F9I0,神岡,2024-02-19,24.272481,120.658314,3.0662168e-09
C0K460,斗南,2024-02-19,23.678734,120.478359,1.0281203e-09
467410,臺南,2024-02-19,22.993239,120.204772,9.185848e-09
C2O810,曾文,2024-02-19,23.219681,120.497328,3.2234473e-09
467280,後龍,2024-02-19,24.648563,120.831834,3.2245233e-09
C1F9J1,清水林,2024-02-19,24.071242,120.820419,2.0686763e-09
C2A650,火燒寮,2024-02-19,25.002719,121.742892,8.138194e-09
466930,竹子湖,2024-02-19,25.162078,121.544547,4.093047e-09
C1I220,樟湖,2024-02-19,23.905333,120.846983,5.2557163e-09
C0I390,仁愛,2024-02-19,24.022122,121.132206,3.1091016e-09
C0Z300,東里,2024-02-19,23.26853,121.30547,2.1574311e-09
C0V310,美濃,2024-02-19,22.898742,120.519153,4.816601e-09
C1V590,新發,2024-02-19,23.057019,120.646064,3.1772212e-09
C0K510,水林,2024-02-19,23.572924,120.24597,3.160654e-09
72S590,東改賓朗果園,2024-02-19,22.813889,121.071278,1.3249562e-08
82A750,茶改北部分場,2024-02-19,24.955778,121.631222,5.899543e-09
C1A750,石碇服務區,2024-02-19,25.00872,121.646242,3.0160723e-09
C0X300,鹿寮,2024-02-19,23.386047,120.477331,1.7758396e-09
G2AI50,關渡,2024-02-19,25.11575,121.492,2.7388367e-09
C0K590,雲林東勢,2024-02-19,23.674192,120.255721,1.9801214e-09
C0A570,桶後,2024-02-19,24.848222,121.597992,3.3485064e-09
C1S800,華源,2024-02-19,22.657883,121.02325,3.6599248e-09
C0G720,溪州,2024-02-19,23.851589,120.499093,1.211729e-09
C1V160,達卡努瓦,2024-02-19,23.279811,120.705319,2.9458624e-09
C2M410,馬頭山,2024-02-19,23.324361,120.582017,2.2911921e-09
C0V850,蚵仔寮,2024-02-19,22.7256,120.2527,2.7205357e-07
C0S740,池上,2024-02-19,23.119628,121.209469,2.944795e-09
C1V390,尖山,2024-02-19,22.813153,120.367789,5.1543267e-09
C0AH70,松山,2024-02-19,25.04871,121.55042,1.2812063e-09
C0N010,鯤鯓國小,2024-02-19,23.1879,120.0889,1.0340482e-08
C0R550,新埤,2024-02-19,22.467947,120.582894,4.06194e-08
C0SA60,知本（水試所）,2024-02-19,22.702394,121.082761,3.8761945e-09
C0T9I0,豐濱,2024-02-19,23.583897,121.514806,2.3841902e-09
C0UB00,淡江大學蘭陽校園,2024-02-19,24.823239,121.730383,3.793711e-09
C0T9N0,富里,2024-02-19,23.171639,121.249378,1.661873e-09
U2HA50,臺大竹山,2024-02-19,23.756972,120.681556,7.563859e-09
C0V840,鳳鼻頭,2024-02-19,22.5083,120.3591,1.5320407e-09
C0X140,西港,2024-02-19,23.125608,120.203108,7.47099e-09
72D080,桃改五峰分場,2024-02-19,24.612194,121.157167,8.208189e-09
C0V530,阿蓮,2024-02-19,22.883208,120.327508,8.487163e-09
C1O880,關山,2024-02-19,23.173397,120.594092,1.2340243e-09
C0E791,卓蘭,2024-02-19,24.3126,120.8244,2.9267087e-09
C1I030,武界,2024-02-19,23.913225,121.052483,3.788418e-09
C0R520,崁頂,2024-02-19,22.514781,120.506914,5.2535135e-08
C0R341,牡丹,2024-02-19,22.130036,120.792639,0.89893943
C0R930,萬丹,2024-02-19,22.5885,120.4851,9.438827e-10
C0S760,紅石,2024-02-19,23.069131,121.126219,1.6988457e-08
C1M610,石磐龍,2024-02-19,23.496606,120.663506,3.2781708e-09
C0UA10,鴛鴦湖,2024-02-19,24.590269,121.412228,1.3099472e-08
V2C260,八德蔬果,2024-02-19,24.978508,121.281819,1.6602635e-09
C0R800,丹路,2024-02-19,22.204481,120.750989,0.999976
C0G920,永靖,2024-02-19,23.924703,120.547533,1.2727012e-09
C1A630,下盆,2024-02-19,24.771003,121.538622,4.0481707e-09
B2N890,畜產試驗所,2024-02-19,23.058972,120.336406,5.8812972e-09
C0UA30,白嶺,2024-02-19,24.527819,121.519031,1.0738012e-08
C1V580,溪南(特生中心),2024-02-19,23.084972,120.788475,5.5602345e-09
C1T970,大農,2024-02-19,23.615233,121.413331,2.5220233e-09
E2S960,林試太麻里2,2024-02-19,22.598014,120.989761,3.4818426e-09
C0R650,竹田,2024-02-19,22.58486,120.54344,7.3563275e-09
C1H900,清流,2024-02-19,24.080775,120.962997,3.0378788e-09
C1C510,水尾,2024-02-19,24.940081,121.087161,1.9695672e-09
C0F9X0,大雅(中科園區),2024-02-19,24.21528,120.62445,2.5598783e-09
C0O970,虎頭埤,2024-02-19,23.021375,120.347878,4.012204e-09
C0C730,中大臨海站,2024-02-19,24.966126,121.008581,2.3576587e-09
C0X250,新營,2024-02-19,23.310689,120.316681,6.7579276e-09
C0V700,三民,2024-02-19,22.645017,120.311233,7.698758e-07
C0U870,大礁溪,2024-02-19,24.791042,121.675047,3.5364847e-09
C0E870,高鐵苗栗,2024-02-19,24.60725,120.826094,3.2543914e-09
A2K570,古坑花卉中心,2024-02-19,23.63353,120.55239,1.9610738e-08
C0M860,新美,2024-02-19,23.338017,120.683169,1.3582037e-09
C1E701,八卦,2024-02-19,24.491756,120.927619,5.502462e-09
C0I420,國姓,2024-02-19,24.037803,120.855072,9.553114e-10
C0S960,香蘭,2024-02-19,22.587569,120.993375,3.4818426e-09
C0R260,春日,2024-02-19,22.370361,120.628306,2.266192e-07
72G600,臺中農改場,2024-02-19,24.003028,120.534389,1.0006843e-09
C0Z210,瑞穗,2024-02-19,23.5239,121.39021,3.432808e-09
C0M820,達邦,2024-02-19,23.453994,120.749517,2.9530294e-09
C0V860,南寮,2024-02-19,22.7616,120.2339,2.7205357e-07
C0G740,大城,2024-02-19,23.852487,120.320935,0.00013517735
C0R920,塭仔,2024-02-19,22.4169,120.5197,6.291837e-07
C0R470,高樹,2024-02-19,22.826389,120.600806,4.9808073e-09
C0R680,佳樂水,2024-02-19,21.993578,120.861633,0.9999672
C1O870,大棟山,2024-02-19,23.31157,120.52226,3.511347e-09
C0D360,梅花,2024-02-19,24.678347,121.208558,3.9924246e-09
C0Z190,富世,2024-02-19,24.14743,121.6297,2.3189484e-08
C0AI10,屈尺,2024-02-19,24.92184,121.54475,2.9017624e-09
B2U990,畜試東區分所,2024-02-19,24.669039,121.832561,1.283082e-09
C0R240,來義,2024-02-19,22.527306,120.625111,1.8256605e-08
C1R610,西大武山,2024-02-19,22.617719,120.7322,2.910633e-08
C0G900,線西,2024-02-19,24.143358,120.443536,9.0891215e-09
C0M700,竹崎,2024-02-19,23.526178,120.555508,4.131038e-09
C2E880,三義,2024-02-19,24.405478,120.749819,2.74439e-09
C0C720,竹圍,2024-02-19,25.112692,121.239824,2.7417009e-09
C0F9P0,清水,2024-02-19,24.312297,120.562242,1.9523519e-08
C0Z150,吉安光華,2024-02-19,23.930925,121.595153,4.050202e-09
C1D640,外坪(五指山),2024-02-19,24.644447,121.090961,4.663079e-09
C0F9O0,潭子,2024-02-19,24.213106,120.703933,3.9217363e-09
72T250,花蓮農改場,2024-02-19,23.975222,121.563889,6.0321477e-09
C0E780,銅鑼,2024-02-19,24.489681,120.790853,1.9320323e-09
C1T950,太安,2024-02-19,23.666719,121.370128,1.3923878e-08
C0E830,苑裡,2024-02-19,24.439714,120.653053,2.5207836e-08
467270,田中,2024-02-19,23.873803,120.581286,7.4381556e-10
C0SA10,檳榔四格山,2024-02-19,22.810031,121.109308,1.4298348e-08
C1T830,布洛灣,2024-02-19,24.17184,121.57127,9.913589e-09
C0F970,大坑,2024-02-19,24.173142,120.722289,1.5923352e-09
C1U920,思源,2024-02-19,24.393125,121.347214,1.333134e-08
C0A931,三和,2024-02-19,25.233153,121.595236,2.8711469e-09
C0I010,廬山,2024-02-19,24.033311,121.181808,5.636066e-09
C0R860,鼻頭,2024-02-19,22.1043,120.8979,0.9999271
C0UB20,壯圍,2024-02-19,24.7359,121.8163,1.0289835e-09
C0R790,九棚,2024-02-19,22.14195,120.889281,0.99236315
C0W110,東莒,2024-02-19,25.9652,119.98069,3.9497536e-08
C1U930,粉鳥林,2024-02-19,24.497088,121.842479,5.8082783e-09
C1I211,蘆竹湳,2024-02-19,23.934019,120.811994,1.1884258e-09
C0S830,長濱,2024-02-19,23.286817,121.411975,2.122319e-09
C1F9F1,伯公龍,2024-02-19,24.272392,120.849047,3.7728207e-09
C0E810,西湖,2024-02-19,24.562947,120.7485,3.865292e-08
C1I440,新高口,2024-02-19,23.478744,120.878939,1.8255387e-08
C0O840,王爺宮,2024-02-19,23.222064,120.40085,2.3227942e-09
C0T9G0,鳳林山,2024-02-19,23.735269,121.420131,4.621287e-09
C0X080,佳里,2024-02-19,23.173039,120.145086,1.0325543e-08
C0Z310,清水斷崖,2024-02-19,24.218294,121.689142,1.12392895e-08
C0M680,太保,2024-02-19,23.455062,120.331455,1.879858e-09
C1S820,金峰,2024-02-19,22.590969,120.933236,3.4186096e-09
C0AD10,八里,2024-02-19,25.150211,121.403947,2.7417009e-09
C2K240,草嶺,2024-02-19,23.59555,120.693461,4.4262043e-09
C1SA70,都蘭,2024-02-19,22.87794,121.226881,3.6401115e-09
C0K440,二崙,2024-02-19,23.772797,120.408944,8.0069473e-10
C1A760,坪林交控,2024-02-19,24.94284,121.713442,3.1557505e-09
C0F9N0,大里,2024-02-19,24.092464,120.701378,7.215471e-10
C0SA90,達仁林場,2024-02-19,22.264347,120.823972,0.00013999737
C1R290,石門山,2024-02-19,22.112611,120.756597,0.15980668
42HA10,萬大發電廠,2024-02-19,23.978875,121.139639,4.439631e-09
C0R890,山海,2024-02-19,21.9878,120.7091,0.9996578
C0T9A0,月眉山,2024-02-19,23.809928,121.539828,4.7290643e-09
C0AC70,信義,2024-02-19,25.037822,121.564597,1.2812063e-09
C0K560,棋山,2024-02-19,23.68645,120.603417,1.7891372e-08
C1Z240,中平林道,2024-02-19,23.42115,121.26763,1.8458987e-08
U2H480,溪頭,2024-02-19,23.670306,120.798194,4.4605706e-09
C0M880,好美里,2024-02-19,23.3364,120.138,6.8761823e-09
C0T9E0,大坑,2024-02-19,23.880628,121.581981,4.758434e-09
C0K530,臺西,2024-02-19,23.701547,120.197559,3.7271327e-08
C1E900,國一N128K,2024-02-19,24.560997,120.844186,2.5733458e-09
C0AJ50,水湳洞,2024-02-19,25.123695,121.862238,2.196243e-09
C0AI20,白沙灣,2024-02-19,25.283128,121.519058,4.936093e-09
C0A860,大坪,2024-02-19,25.165914,121.632969,2.7598122e-09
C1U850,觀音海岸,2024-02-19,24.38319,121.77856,7.2319946e-09
C0U950,鶯子嶺,2024-02-19,24.89754,121.79244,1.0466144e-08
C0O900,善化,2024-02-19,23.112883,120.297219,6.8849224e-09
C0K550,蔦松,2024-02-19,23.514319,120.229736,5.7665086e-09
E2P980,林試六龜中心,2024-02-19,22.991703,120.645722,1.3287366e-09
C0E590,通霄,2024-02-19,24.471892,120.704622,1.6203164e-07
C1I310,西巒,2024-02-19,23.754486,120.883956,4.6297743e-09
C0A550,泰平,2024-02-19,24.971197,121.823711,4.837242e-09
C0I360,水里,2024-02-19,23.812553,120.849792,2.3880404e-09
C0R830,高士,2024-02-19,22.121825,120.836781,0.017620206
C1I101,溪頭,2024-02-19,23.661789,120.807647,1.0492548e-08
C0AJ20,野柳,2024-02-19,25.20703,121.690021,2.1972444e-09
C0B060,暖暖,2024-02-19,25.0957,121.7403,1.7238475e-09
C1H920,長豐,2024-02-19,24.102039,120.879897,2.284302e-09
C0V360,內門,2024-02-19,22.975481,120.466769,1.0944747e-08
C0R850,林邊,2024-02-19,22.4634,120.5339,4.726758e-08
C0E930,龍鳳,2024-02-19,24.700034,120.859125,4.5665156e-09
C0U910,冬山,2024-02-19,24.63373,121.7937,1.283082e-09
C1E721,泰安,2024-02-19,24.489017,120.968036,6.0828915e-09
82H320,茶改中部分場,2024-02-19,23.875611,120.913583,3.3786463e-09
C0M750,布袋,2024-02-19,23.380878,120.167789,7.0073507e-09
C1S860,利嘉,2024-02-19,22.809417,121.050528,5.9137495e-09
72C440,桃園農改,2024-02-19,24.950944,121.030583,1.9182222e-09
E2S980,林試太麻里1,2024-02-19,22.598922,120.980044,3.2778709e-09
C0X170,關廟,2024-02-19,22.963017,120.327797,3.5671122e-09
C0V720,林園,2024-02-19,22.507747,120.394511,1.5227736e-09
C1I510,線浸林道,2024-02-19,23.761508,120.832956,6.58512e-09
C0D690,外湖,2024-02-19,24.917735,120.968711,1.9197524e-09
C0C750,新興坑尾,2024-02-19,25.0061,121.0971,2.3609303e-09
B2Q810,畜試南區分所,2024-02-19,21.945583,120.802167,0.9999641
C0S790,金崙,2024-02-19,22.538122,120.966875,4.3637454e-09
C0AH90,福山植物園,2024-02-19,24.760717,121.58135,6.9074413e-09
C0I540,奇萊稜線,2024-02-19,24.109231,121.326456,2.4611737e-08
C0M850,表湖,2024-02-19,23.24186,120.64166,1.7989501e-09
C0S770,大溪山,2024-02-19,22.478475,120.943325,1.042908e-08
C0AG80,中和,2024-02-19,24.991622,121.491792,2.0441933e-09
C0T790,大禹嶺,2024-02-19,24.186117,121.316086,1.8873065e-08
C0T9B0,水源,2024-02-19,23.991861,121.537169,9.769839e-09
C0R840,牡丹池山,2024-02-19,22.168389,120.841225,0.9977523
C1I131,桶頭,2024-02-19,23.641944,120.654117,1.744641e-08
CAL110,布袋國中,2024-02-19,23.35893,120.18026,7.0073507e-09
467571,新竹,2024-02-19,24.827853,121.014219,1.7673514e-09
C0Z290,赤柯山,2024-02-19,23.36893,121.38293,1.2117643e-08
C0X280,將軍,2024-02-19,23.214999,120.13577,9.144888e-09
C0S690,太麻里,2024-02-19,22.60902,120.98533,4.6447575e-09
C0U880,北關,2024-02-19,24.9072,121.8734,2.3476432e-09
C1H860,瑞岩,2024-02-19,24.123772,121.18345,1.0797757e-08
C0G810,埔心,2024-02-19,23.947633,120.525456,1.2727012e-09
C0U970,大福,2024-02-19,24.80064,121.81389,1.7892693e-09
C1E670,南礦,2024-02-19,24.538278,121.002836,6.1334777e-09
C0M520,東後寮,2024-02-19,23.369908,120.248065,6.772689e-09
C1E461,松安,2024-02-19,24.397972,120.986022,4.298608e-09
72G600,臺中農改,2024-02-19,24.003028,120.534389,1.0006843e-09
C2N160,西拉雅風管處,2024-02-19,23.189481,120.335297,1.3027687e-08
C0A640,石碇,2024-02-19,24.993969,121.662917,3.4096557e-09
E2S960,林試太麻里2,2024-02-19,22.598,120.99775,3.5102155e-09
C0F9Y0,桃山,2024-02-19,24.432739,121.303808,2.4949584e-08
C1I020,萬大,2024-02-19,23.979817,121.132261,3.1354117e-09
C0U940,羅東,2024-02-19,24.68184,121.74934,1.0598967e-09
C0M650,朴子,2024-02-19,23.43463,120.23902,3.2024643e-09
C1I500,大尖山,2024-02-19,23.858572,120.994889,1.36816e-08
C0G820,田尾,2024-02-19,23.901669,120.509389,1.2727012e-09
E2K600,四湖植物園,2024-02-19,23.676986,120.163433,2.5138936e-08
C0S730,綠島,2024-02-19,22.6672,121.47533,0.99985605
12Q970,東港工作站,2024-02-19,22.479997,120.466058,5.3851593e-08
C0E430,南庄,2024-02-19,24.601775,121.000214,3.585509e-09
C1TA00,太魯閣,2024-02-19,24.15773,121.6236,2.4133954e-08
466920,臺北,2024-02-19,25.037658,121.514853,1.2812063e-09
C0R600,舊泰武,2024-02-19,22.588194,120.664944,1.20559e-09
C1I260,北坑,2024-02-19,23.9246,121.006903,1.2731528e-09
466910,鞍部,2024-02-19,25.182586,121.529731,7.3728468e-09
C1I230,九份二山,2024-02-19,23.961944,120.845,3.2289114e-09
C2A660,瑞芳,2024-02-19,25.113169,121.801147,2.3806594e-09
C0R270,琉球嶼,2024-02-19,22.332244,120.362236,5.2943136e-08
C1T990,高寮,2024-02-19,23.394239,121.356808,1.76431e-09
C0G620,芬園,2024-02-19,24.015678,120.6213,6.362908e-10
C1Z140,荖溪,2024-02-19,23.890575,121.45964,1.5149006e-08
C1I201,中心崙,2024-02-19,23.728722,120.712097,6.8591666e-09
C1I400,凌霄,2024-02-19,24.018778,121.004456,4.6524624e-09
C1M640,十字,2024-02-19,23.492153,120.753683,5.9019403e-09
G2P820,農試鳳山分所,2024-02-19,22.646611,120.356083,5.770538e-07
C0Z270,蕃薯寮,2024-02-19,23.73835,121.540108,2.8665503e-09
C0F9Q0,外埔,2024-02-19,24.347817,120.705686,1.9768458e-09
C0K580,高鐵雲林,2024-02-19,23.737456,120.417944,8.979062e-10
C2I090,鳳凰,2024-02-19,23.728081,120.787347,3.129055e-09
C0U990,員山,2024-02-19,24.74435,121.72247,1.0421877e-09
C0V770,大社,2024-02-19,22.730306,120.346639,1.9828232e-07
C0X120,麻豆,2024-02-19,23.183289,120.248611,2.1189708e-08
C0C670,龍潭,2024-02-19,24.870056,121.221389,2.5120614e-09
C0D680,香山濕地,2024-02-19,24.783581,120.914988,1.4498598e-09
C0S980,勝林山,2024-02-19,22.430439,120.8938,3.0769925e-08
C0V730,大寮,2024-02-19,22.605614,120.395717,3.714621e-07
C0R570,麟洛,2024-02-19,22.65078,120.52719,1.0047178e-09
CAG100,王功漁港,2024-02-19,23.96824,120.32586,0.0006100179
C0X290,北門,2024-02-19,23.267772,120.125481,9.150053e-09
C2F930,大甲,2024-02-19,24.347667,120.640403,1.1225793e-08
C0D650,湖口,2024-02-19,24.904794,121.043628,1.9629327e-09
C0E420,竹南,2024-02-19,24.708978,120.888897,4.067869e-09
C0U780,五結,2024-02-19,24.68637,121.79794,1.0289835e-09
C1I250,鯉潭,2024-02-19,23.961922,120.991131,2.7149532e-09
C0R130,阿禮,2024-02-19,22.742908,120.743678,1.7698848e-09
C0X100,臺南市北區,2024-02-19,23.010394,120.194228,1.0831235e-08
C0S920,金峰嘉蘭,2024-02-19,22.594789,120.960825,3.2821312e-09
C0V490,新興,2024-02-19,22.627422,120.298803,4.205068e-07
C0F9K0,大安,2024-02-19,24.345061,120.588025,1.7181138e-08
72N100,臺南農改,2024-02-19,23.0605,120.342194,5.8812972e-09
467290,古坑,2024-02-19,23.633639,120.551889,1.9610738e-08
C0V440,鳳山,2024-02-19,22.646653,120.356122,5.770538e-07
C1T940,大觀,2024-02-19,23.714206,121.373133,3.8304435e-09
72T250,花蓮農改,2024-02-19,23.975222,121.563889,6.0321477e-09
C0E740,造橋,2024-02-19,24.637056,120.864778,3.2543914e-09
C0R100,尾寮山,2024-02-19,22.833111,120.683889,1.87531e-09
A2K630,臺大雲林校區,2024-02-19,23.730628,120.423903,8.9828134e-10
C0D580,寶山,2024-02-19,24.735006,121.025192,2.7757763e-09
E2P990,林試扇平站,2024-02-19,22.9677,120.6857,2.2156141e-09
C0AI30,三重,2024-02-19,25.057328,121.500629,1.2766325e-09
C0AH00,汐止,2024-02-19,25.066881,121.658778,1.2812063e-09
C1Z040,立山,2024-02-19,23.443356,121.327375,6.6536883e-09
C0R740,獅子,2024-02-19,22.201569,120.70525,0.9999883
C0W130,花嶼,2024-02-19,23.40007,119.32276,0.9994251
C0A950,鼻頭角,2024-02-19,25.129036,121.923372,3.4675762e-07
C0K470,林內,2024-02-19,23.748675,120.609642,8.601781e-09
82C160,茶改場,2024-02-19,24.908472,121.185333,1.8664745e-09
C0Z320,清水林道,2024-02-19,23.27125,121.188272,8.42269e-09
C0R760,南仁湖,2024-02-19,22.084681,120.863353,0.1596899
C0M670,大林,2024-02-19,23.600616,120.45841,2.1010047e-09
C0M800,茶山,2024-02-19,23.299075,120.664767,1.1516509e-09
C0A9C0,天母,2024-02-19,25.117494,121.537169,1.5084728e-09
72K220,南改斗南分場,2024-02-19,23.634556,120.477333,1.0282418e-09
72AI40,桃改樹林分場,2024-02-19,24.944503,121.386972,1.759538e-09
C0S910,蘭嶼燈塔,2024-02-19,22.081197,121.503117,0.999695
C0B050,八斗子,2024-02-19,25.144754,121.79167,2.1327642e-09
C0U900,內城,2024-02-19,24.71813,121.68766,1.1065753e-09
C0X320,柳營,2024-02-19,23.253328,120.375253,4.290687e-09
C0M790,新港,2024-02-19,23.553269,120.345728,2.5882954e-09
C0F9T0,西屯,2024-02-19,24.179494,120.641275,1.4168708e-09
C0SA30,都歷,2024-02-19,23.020333,121.323642,6.8431816e-10
C0C620,蘆竹,2024-02-19,25.084275,121.265767,2.054787e-09
C0R730,大坪頂,2024-02-19,22.024633,120.69355,0.999972
C0AJ40,石門,2024-02-19,25.273672,121.601198,5.4419877e-09
C0E750,苗栗,2024-02-19,24.564569,120.824575,2.5976328e-09
C0T870,鯉魚潭,2024-02-19,23.935639,121.508944,4.6608917e-09
C1V170,排雲,2024-02-19,23.463619,120.954147,4.5316114e-08
C2H950,中寮,2024-02-19,23.884447,120.766406,8.123736e-10
C0R350,貓鼻頭,2024-02-19,21.921774,120.7358,0.9983157
C0V660,岡山,2024-02-19,22.797078,120.294958,1.7518978e-07
C1H941,雙冬,2024-02-19,23.967378,120.802189,1.303392e-09
C0AJ70,田寮,2024-02-19,25.2698,121.4886,4.8856346e-09
C0AI00,五股,2024-02-19,25.07445,121.42728,2.0287032e-09
C0Z280,德武,2024-02-19,23.47426,121.41071,2.5185478e-09
C0R700,枋山,2024-02-19,22.246844,120.661086,0.9998923
C0C460,復興,2024-02-19,24.820208,121.352281,4.7331885e-09
E2H360,蓮華池,2024-02-19,23.918333,120.885278,1.4648392e-09
C0M640,中埔,2024-02-19,23.42538,120.5229,1.8706836e-09
C0W140,金沙,2024-02-19,24.488292,118.408778,4.95648e-09
C2A540,四堵,2024-02-19,24.8926,121.745736,3.8831502e-09
C0ACA0,新莊,2024-02-19,25.051478,121.446756,1.370523e-09
C0R220,潮州,2024-02-19,22.534361,120.54,4.2512454e-08
U2HA40,臺大內茅埔,2024-02-19,23.689722,120.851117,2.0210869e-09
467490,臺中,2024-02-19,24.145736,120.684075,1.563757e-09
C0U960,翠峰湖,2024-02-19,24.510856,121.608044,1.8723052e-08
E2HA20,林試畢祿溪站,2024-02-19,24.226944,121.308522,1.6257378e-08
C0V890,前鎮,2024-02-19,22.5718,120.3117,5.252277e-07
467620,蘭嶼,2024-02-19,22.036969,121.558339,0.9999719
C1F941,雪嶺,2024-02-19,24.280586,121.026642,2.0602508e-08
C0AC80,文山,2024-02-19,25.00235,121.575728,2.1127549e-09
C0F9R0,龍井,2024-02-19,24.184536,120.528972,2.1426649e-08
C0M760,民雄,2024-02-19,23.551754,120.428457,2.1191802e-09
C0UA40,西德山,2024-02-19,24.560647,121.752608,8.935978e-09
C1T920,中興,2024-02-19,23.769503,121.498653,2.376141e-09
C0D550,雪霸,2024-02-19,24.526972,121.11605,7.47983e-09
C2F860,梨山,2024-02-19,24.247522,121.243669,1.6777474e-08
C0R320,車城,2024-02-19,22.0744,120.716247,0.9999801
C1S870,南美山,2024-02-19,23.15025,121.382333,1.6495378e-09
C0B020,基隆嶼,2024-02-19,25.19141,121.78391,1.2808079e-07
C1U501,牛鬥,2024-02-19,24.637836,121.573656,2.170151e-09
C0M730,嘉義市東區,2024-02-19,23.457673,120.460531,2.1586126e-09
C0S700,知本,2024-02-19,22.684866,121.005642,5.0197286e-09
C1N001,沙崙,2024-02-19,22.935472,120.309406,3.753119e-09
C0V760,橋頭,2024-02-19,22.757806,120.30575,2.456297e-07
C0G960,福寶,2024-02-19,24.0443,120.3814,3.6109435e-09
C0X210,白河,2024-02-19,23.347466,120.414427,1.7826438e-09
C0S810,東河,2024-02-19,22.972672,121.303986,2.8607823e-07
C0R670,楓港,2024-02-19,22.190131,120.692156,0.9999862
C0FA50,霧峰,2024-02-19,24.0419,120.6995,6.1266e-10
C0UB10,蘇澳,2024-02-19,24.5969,121.8571,1.6017506e-09
C0G950,防潮門,2024-02-19,24.1835,120.4871,2.1426649e-08
C0M740,六腳,2024-02-19,23.492871,120.290625,2.7812614e-09
C1R250,力里,2024-02-19,22.428117,120.629228,2.4565763e-09
C0K330,虎尾,2024-02-19,23.719183,120.442036,8.9570307e-10
C2FA00,烏石坑,2024-02-19,24.273503,120.947617,2.4954807e-09
C0V620,永安,2024-02-19,22.82315,120.236856,1.7518978e-07
C1I330,楓樹林,2024-02-19,23.986803,121.076117,3.7181844e-09
C0W200,湖西,2024-02-19,23.596314,119.67275,0.9978999
72Q010,高雄農改場,2024-02-19,22.709333,120.525889,2.5259852e-09
C0SA40,瑞和,2024-02-19,22.974361,121.156697,9.967924e-10
C0C680,龜山,2024-02-19,25.02846,121.38656,2.2351432e-09
C2V260,月眉,2024-02-19,22.971003,120.539853,2.6782099e-09
C0V450,鳳森,2024-02-19,22.545064,120.392592,1.4121656e-09
C0U720,南山,2024-02-19,24.43742,121.38167,7.3237634e-09
A2N290,臺南蘭花園區,2024-02-19,23.340258,120.379661,1.5986741e-09
C0R560,新園,2024-02-19,22.5434,120.461558,1.5227736e-09
C0U890,三星,2024-02-19,24.66812,121.65302,1.6632588e-09
C1V300,御油山,2024-02-19,23.001983,120.715364,6.7529538e-09
C0U600,礁溪,2024-02-19,24.817539,121.765608,2.0294424e-09
C1T980,龍澗,2024-02-19,24.023289,121.411328,2.6483725e-08
C0D670,海天一線,2024-02-19,24.831986,120.914438,4.0685145e-06
C0SA00,歷坵,2024-02-19,22.520969,120.89185,5.126511e-09
C0M710,東石,2024-02-19,23.458927,120.15385,2.8924363e-08
C0M780,鹿草,2024-02-19,23.41134,120.30835,2.988386e-09
C0U520,雙連埤,2024-02-19,24.753033,121.641303,3.6180308e-09
C0B010,七堵,2024-02-19,25.094819,121.71713,1.6184724e-09
C0R480,長治,2024-02-19,22.693128,120.542622,8.615606e-09
C1V830,國三S383K,2024-02-19,22.781967,120.426475,3.631831e-09
12Q980,恆春工作站,2024-02-19,22.079678,120.714425,0.9999801
C1O940,東山服務區,2024-02-19,23.286016,120.398472,2.1017543e-09
C1U840,東澳嶺,2024-02-19,24.5378,121.8485,5.7574088e-09
C1D630,飛鳳山,2024-02-19,24.766464,121.119178,3.3880616e-09
C0S940,石寧山,2024-02-19,23.223772,121.406639,2.035948e-09
C0K410,北港,2024-02-19,23.573957,120.292802,3.0394205e-09
C2M620,瑞里,2024-02-19,23.545133,120.675197,4.089605e-09
C2O950,安南,2024-02-19,23.076694,120.144861,4.6183636e-08
C0F0E0,南湖圈谷,2024-02-19,24.363714,121.444667,3.9773166e-08
467610,成功,2024-02-19,23.097486,121.373428,2.7619502e-09
C0G890,伸港,2024-02-19,24.148933,120.484403,9.0891215e-09
C2E540,龍溪,2024-02-19,24.606489,120.783933,3.2942795e-09
C1V200,梅山,2024-02-19,23.268447,120.823556,1.7717763e-09
C0T9H0,加路蘭山,2024-02-19,23.682947,121.5274,5.7321743e-09
C2O930,玉井,2024-02-19,23.126042,120.46055,4.7515867e-09
C1F911,新伯公,2024-02-19,24.221361,120.841069,4.2405617e-09
C0R490,九如,2024-02-19,22.7405,120.490503,2.5966123e-09
C0X200,左鎮,2024-02-19,23.056758,120.408522,4.2183532e-09
C1F891,稍來,2024-02-19,24.265689,121.001142,1.3258056e-08
72N240,七股研究中心,2024-02-19,23.081672,120.062894,4.930647e-08
C0C700,中壢,2024-02-19,24.977661,121.256375,1.7239132e-09
C0M690,水上,2024-02-19,23.419734,120.388909,1.8561823e-09
C0V690,鼓山,2024-02-19,22.623325,120.275575,4.205068e-07
C0O860,大內,2024-02-19,23.11885,120.36083,5.9852963e-09
C0Z200,萬榮,2024-02-19,23.709219,121.420106,2.130406e-09
C0T9D0,和中,2024-02-19,24.26676,121.74103,4.7530824e-09
C1O921,楠西,2024-02-19,23.183511,120.484083,6.1175296e-09
C0AJ30,淡水觀海,2024-02-19,25.184591,121.408616,2.5905476e-09
C0V810,左營,2024-02-19,22.67491,120.28491,7.698758e-07
C0UA70,桃源谷,2024-02-19,24.962606,121.888875,5.745583e-09
C0X130,官田,2024-02-19,23.193217,120.315422,1.4157073e-08
C1H000,翠峰,2024-02-19,24.109397,121.205211,1.188839e-08
C0UA90,石城,2024-02-19,24.980444,121.951214,6.5376264e-09
C1E681,南勢山,2024-02-19,24.421669,120.923831,6.1155463e-09
C0A9F0,內湖,2024-02-19,25.079422,121.57545,1.2812063e-09
C0K291,宜梧,2024-02-19,23.536281,120.169329,5.753764e-09
C1K540,口湖,2024-02-19,23.585344,120.180517,5.6935495e-08
C0R780,滿州,2024-02-19,22.024403,120.839892,0.99996567
C0V870,文安,2024-02-19,22.8025,120.2164,2.1413949e-07
C0U650,玉蘭,2024-02-19,24.675286,121.587061,3.0898881e-09
C0R640,東港,2024-02-19,22.46247,120.44074,5.3851593e-08
K2E360,苗栗農改,2024-02-19,24.495722,120.829111,1.8807582e-09
C0AJ80,板橋,2024-02-19,25.0107,121.4489,2.030848e-09
C0S660,下馬,2024-02-19,23.150427,121.070312,8.637325e-09
C1H9B1,阿眉,2024-02-19,24.1263,120.994672,1.0571051e-08
C0UA20,多加屯,2024-02-19,24.368614,121.373189,3.105346e-08
C0E730,頭份,2024-02-19,24.688247,120.912206,4.2382005e-09
72V140,高改旗南分場,2024-02-19,22.857861,120.516667,4.816601e-09
C0K480,莿桐,2024-02-19,23.761192,120.502372,7.8995177e-10
C0U980,坪林石牌,2024-02-19,24.86478,121.77396,5.348755e-09
C0T900,西林,2024-02-19,23.8119,121.441458,2.8275935e-09
C1I150,青雲,2024-02-19,23.793361,120.949378,1.2875879e-09
467350,澎湖,2024-02-19,23.565503,119.563094,0.99932426
C0G800,埔鹽,2024-02-19,24.000394,120.431683,5.9292113e-09
C0H960,草屯,2024-02-19,23.973672,120.68085,6.3127054e-10
C1V780,多納林道,2024-02-19,22.888028,120.737917,2.4800688e-09
C0E920,通霄漁港,2024-02-19,24.498589,120.673876,2.556304e-07
C0Z330,安通山,2024-02-19,23.290728,121.348528,3.0343117e-09
C0AH10,永和,2024-02-19,25.01125,121.508111,2.0308442e-09
C2G640,鹿港,2024-02-19,24.0753,120.430481,3.6109435e-09
C1E890,國三N149K,2024-02-19,24.463414,120.680019,1.8867343e-08
C1R110,口社,2024-02-19,22.770111,120.645222,3.1270682e-09
C1M870,國三N285K,2024-02-19,23.550319,120.505833,1.20851205e-08
467050,新屋,2024-02-19,25.006744,121.047486,2.3418203e-09
C1E480,鳳美,2024-02-19,24.554803,121.034747,5.900972e-09
C0M530,奮起湖,2024-02-19,23.493903,120.699253,4.781525e-09
C0C590,觀音,2024-02-19,25.027072,121.153317,5.6838787e-09
C0T9M0,靜浦,2024-02-19,23.455167,121.495028,2.1213316e-09
C0AI40,石牌,2024-02-19,25.115597,121.513139,1.4925317e-09
C1F871,上谷關,2024-02-19,24.203483,121.018644,3.3668481e-09
C0G880,二水,2024-02-19,23.810742,120.6173,2.2796274e-09
C0R940,加祿堂,2024-02-19,22.3363,120.6217,0.99768215
C0W220,北竿,2024-02-19,26.220358,119.974881,3.1201232e-08
C0O960,崎頂,2024-02-19,22.959547,120.369317,2.4801445e-09
C0S750,向陽,2024-02-19,23.248397,120.986133,8.251545e-09
C0T9F0,水璉,2024-02-19,23.797131,121.542514,3.295794e-09
C1M600,頭凍,2024-02-19,23.406364,120.603339,2.7487697e-09
467660,臺東,2024-02-19,22.752211,121.154586,0.00027768157
C1D380,新埔,2024-02-19,24.84745,121.03834,1.8766302e-09
C0V750,路竹,2024-02-19,22.854997,120.259439,4.4128452e-08
C0N050,蚵寮,2024-02-19,23.301,120.1104,6.8761823e-09
72M700,南改鹿草分場,2024-02-19,23.416869,120.283061,3.2024643e-09
C1SA50,利嘉林道,2024-02-19,22.82325,121.009389,2.0545215e-08
467550,玉山,2024-02-19,23.487614,120.959522,4.701277e-08
C0A940,金山,2024-02-19,25.223628,121.643967,2.2384539e-09
C1V340,大津,2024-02-19,22.888322,120.645986,4.76391e-09
C0W180,七美,2024-02-19,23.219333,119.444892,0.9998097
C1F9C1,白冷,2024-02-19,24.182844,120.929889,5.09835e-09
K2E710,苗改生物防治研究中心,2024-02-19,24.422861,120.871833,1.9064228e-09
C0N040,蘆竹溝,2024-02-19,23.2344,120.0961,9.150053e-09
C2W230,畜試所澎湖,2024-02-19,23.628342,119.513206,0.9979236
C0R880,後壁湖,2024-02-19,21.9457,120.7457,0.9995818
C1I280,埔中,2024-02-19,23.820778,120.642594,2.6275861e-09
467790,墾丁雷達站,2024-02-19,21.948235,120.808028,0.99997956
C0W190,望安,2024-02-19,23.380564,119.494075,0.999209
466881,新北,2024-02-19,24.9593,121.52,2.0670434e-09
C0Z170,卓溪,2024-02-19,23.3443,121.3029,1.9857531e-09
C0F850,東勢,2024-02-19,24.246428,120.833047,4.3789368e-09
466900,淡水,2024-02-19,25.164889,121.448906,2.780174e-09
C0I370,魚池,2024-02-19,23.895703,120.94135,1.2122445e-09
C0C630,大溪,2024-02-19,24.882853,121.265547,2.4317939e-09
C0A520,山佳,2024-02-19,24.974944,121.402008,1.453645e-09
C0I110,竹山,2024-02-19,23.761225,120.688156,2.2074014e-09
82H840,茶改南部分場,2024-02-19,23.762528,120.7405,2.573056e-09
C0G660,溪湖,2024-02-19,23.94835,120.479122,1.2974317e-09
C1T800,洛韶,2024-02-19,24.204558,121.453956,1.6929746e-08
C1T810,慈恩,2024-02-19,24.192044,121.388386,7.394309e-09
C1E451,象鼻,2024-02-19,24.368617,120.940228,5.941823e-09
C0AC60,三峽,2024-02-19,24.939025,121.369728,1.7881128e-09
C0I490,萬大林道,2024-02-19,23.928228,121.091411,6.484548e-09
C1I290,豐丘,2024-02-19,23.668178,120.887417,4.7694377e-09
C1I320,奧萬大,2024-02-19,23.952956,121.178556,3.8853583e-09
C0U770,南澳,2024-02-19,24.44935,121.81022,6.444525e-09
C0A980,社子,2024-02-19,25.109508,121.469681,2.7505371e-09
C0V800,六龜,2024-02-19,22.997889,120.633583,1.3273129e-09
C1G9D0,國一S218K,2024-02-19,23.890641,120.493253,1.2160889e-09
C2F9A0,中竹林,2024-02-19,24.103556,120.751061,1.8089282e-09
C0FA40,臺中電廠,2024-02-19,24.2146,120.4907,2.1426649e-08
C0H9C0,合歡山,2024-02-19,24.143442,121.272547,3.618143e-08
C0X060,下營,2024-02-19,23.22695,120.256261,2.4151959e-08
G2M350,農試溪口農場,2024-02-19,23.58565,120.408111,2.185291e-09
C0U860,頭城,2024-02-19,24.85323,121.8308,2.0008313e-09
C0R580,南州,2024-02-19,22.48591,120.50274,5.3851593e-08
C0D430,峨眉,2024-02-19,24.6905,121.017189,2.0833348e-09
C0G780,秀水,2024-02-19,24.03405,120.503869,1.0006843e-09
72N100,臺南農改場,2024-02-19,23.0605,120.342194,5.8812857e-09
C0S900,蘭嶼高中,2024-02-19,22.04909,121.51214,0.99798524
467540,大武,2024-02-19,22.355675,120.903789,6.238767e-07
C1F9W0,德基,2024-02-19,24.254783,121.190261,1.0586123e-08
C1Z120,壽豐,2024-02-19,23.870853,121.508081,2.7776406e-09
C0W160,烏坵,2024-02-19,24.9944,119.44956,2.1112007e-06
C1I240,外大坪,2024-02-19,23.958697,120.917931,2.787156e-09
C1I550,國六W023K,2024-02-19,23.979067,120.867742,8.291091e-10
C0R870,興海,2024-02-19,21.9752,120.8439,0.9999641
C0R140,瑪家,2024-02-19,22.682903,120.686639,1.0193861e-09
C0A530,坪林,2024-02-19,24.938183,121.70975,3.5287968e-09
C0X260,後壁,2024-02-19,23.366358,120.362326,1.5986741e-09
C0Z230,和平,2024-02-19,24.30717,121.77007,4.722385e-09
C0G770,福興,2024-02-19,24.041289,120.437669,5.9292113e-09
C0H9A0,神木村,2024-02-19,23.532742,120.843667,6.0915877e-09
C0I460,南投,2024-02-19,23.911469,120.687331,6.8731104e-10
C0I480,梅峰,2024-02-19,24.085272,121.173572,8.9277155e-09
C1V570,吉東,2024-02-19,22.85422,120.5454,4.62216e-09
C2A560,福山,2024-02-19,24.776203,121.502811,4.9420277e-09
C0AH30,五分山,2024-02-19,25.07125,121.780794,6.1507692e-09
C0FA10,松柏,2024-02-19,24.429115,120.617482,2.8695496e-08
72S200,東改班鳩分場,2024-02-19,22.829528,121.077694,1.4120182e-08
72HA00,中改埔里分場,2024-02-19,23.903208,120.963364,1.373171e-09
C0C650,平鎮,2024-02-19,24.897503,121.214636,2.1718818e-09
C0S930,延平,2024-02-19,22.902581,121.084058,3.4950167e-09
C0UA60,樟樹山,2024-02-19,24.41393,121.78325,5.236055e-09
C1S670,摩天,2024-02-19,23.199503,121.027,1.8802247e-08
C0V630,茄萣,2024-02-19,22.906642,120.182608,5.3033187e-08
466940,基隆,2024-02-19,25.133314,121.740475,2.1585385e-09
C0X050,東河,2024-02-19,23.296598,120.385608,2.2159479e-09
C0R770,保力,2024-02-19,22.071122,120.764111,0.99998033
G2L020,農試嘉義分所,2024-02-19,23.485028,120.473806,4.7282436e-09
C0X240,關子嶺,2024-02-19,23.331169,120.508025,2.3315383e-09
C0I380,集集,2024-02-19,23.828206,120.801467,2.3821312e-09
466990,花蓮,2024-02-19,23.975128,121.613275,6.03316e-09
C1V220,小關山,2024-02-19,23.154217,120.813603,4.865455e-09
C1F9G1,慶福山,2024-02-19,24.180853,120.848378,3.0768206e-09
C0Z250,瑞穗林道,2024-02-19,23.49284,121.30688,1.6598749e-08
C0D590,新豐,2024-02-19,24.87068,120.97721,5.6122053e-07
C0A870,五指山,2024-02-19,25.132153,121.608692,4.4851065e-09
C0UA50,西帽山,2024-02-19,24.555361,121.802628,5.542139e-09
C0X160,仁德,2024-02-19,22.968258,120.257689,1.2715856e-08
C1H971,六分寮,2024-02-19,23.92507,120.6378,1.1992028e-09
C0W120,西嶼,2024-02-19,23.5626,119.468436,0.9991428
C0G650,員林,2024-02-19,23.946503,120.585597,5.127428e-10
C0AD50,鶯歌,2024-02-19,24.951533,121.346294,1.826255e-09
C0S990,山豬窟,2024-02-19,22.318619,120.857372,1.7740217e-07
72Q010,高雄農改,2024-02-19,22.709333,120.525889,2.5259852e-09
C0X190,安平,2024-02-19,22.993161,120.152181,1.0831235e-08
C0K400,斗六,2024-02-19,23.720583,120.541127,8.172473e-10
12J990,口湖工作站,2024-02-19,23.589978,120.180394,5.6962648e-08
C0O830,北寮,2024-02-19,23.079561,120.495008,1.8525463e-09
C1D410,白蘭,2024-02-19,24.579364,121.079947,6.8593233e-09
C0S970,加津林,2024-02-19,22.416211,120.926942,4.431744e-07
C0D700,關西,2024-02-19,24.7977,121.1732,1.644107e-09
C0M810,里佳,2024-02-19,23.389125,120.716647,4.843252e-09
C0U750,龜山島,2024-02-19,24.841667,121.953133,0.023696845
C0R810,內獅,2024-02-19,22.305064,120.642986,0.9978585
C1M390,龍美,2024-02-19,23.406728,120.654417,3.5153074e-09
C1H840,國三N238K,2024-02-19,23.841008,120.707711,8.4197616e-10
CAQ030,崎峰國小,2024-02-19,22.42565,120.49521,5.3851593e-08
C2E520,大湖,2024-02-19,24.414939,120.870872,1.988683e-09
467530,阿里山,2024-02-19,23.508208,120.813242,1.5947311e-08
C1E691,南湖,2024-02-19,24.40135,120.837533,4.5869597e-09
C0FA30,梧棲,2024-02-19,24.256003,120.523381,1.9552214e-08
C1V231,高中,2024-02-19,23.134911,120.716711,1.9108533e-09
C0F9V0,新社,2024-02-19,24.200172,120.815806,4.6425255e-09
C0H890,埔里,2024-02-19,23.972169,120.952425,9.314762e-10
C0R690,墾丁,2024-02-19,21.966756,120.810269,0.9999935
C0F0D0,審馬陣,2024-02-19,24.381675,121.4203,4.6932044e-08
C0R820,白鷺,2024-02-19,22.454275,120.666219,1.2261879e-09
U2H480,臺大溪頭,2024-02-19,23.670306,120.798194,4.4605706e-09
C1V190,南天池,2024-02-19,23.27403,120.91176,1.0426772e-08
K2E360,苗栗農改場,2024-02-19,24.495722,120.829111,1.8807582e-09
CAJ050,海口故事園區,2024-02-19,23.57543,120.14121,5.6935495e-08
C0O990,媽廟,2024-02-19,22.99175,120.293525,5.67518e-09
C0D480,打鐵坑,2024-02-19,24.849664,121.150789,2.5245066e-09
C0Z220,和平林道,2024-02-19,24.343922,121.656317,6.0173813e-09
72C440,桃園農改場,2024-02-19,24.950944,121.030583,1.9182222e-09
C1E711,馬拉邦山,2024-02-19,24.367306,120.901656,6.173182e-09
C0D560,竹東,2024-02-19,24.767147,121.057881,1.6190342e-09
C0F9U0,南屯,2024-02-19,24.137006,120.637969,1.4567564e-09
C0M720,番路,2024-02-19,23.464657,120.554156,1.7605754e-09
C0F0A0,雪山圈谷,2024-02-19,24.388594,121.236339,6.441701e-08
C1A9N0,四十份,2024-02-19,24.934158,121.593283,5.1397877e-09
C0U760,東澳,2024-02-19,24.52196,121.83318,5.8451084e-09
C0X230,鹽水,2024-02-19,23.272621,120.247641,6.3439463e-09
C0V370,古亭坑,2024-02-19,22.893178,120.401947,9.557037e-09
C1I340,新興橋,2024-02-19,23.563333,120.868728,3.1804104e-09
C0SA80,土坂,2024-02-19,22.453108,120.887572,1.1502289e-08
C0R160,鹽埔,2024-02-19,22.739558,120.530778,2.5259852e-09
C0AC40,大屯山,2024-02-19,25.175675,121.522408,1.0455849e-08
466850,五分山雷達站,2024-02-19,25.071182,121.781205,6.2320504e-09
C1AI50,國三N016K,2024-02-19,25.034164,121.619664,1.3373176e-09
C1V600,藤枝,2024-02-19,23.071961,120.757042,4.7230517e-09
C1E601,南勢,2024-02-19,24.572486,120.734842,1.9090182e-08
C0Z180,新城,2024-02-19,24.03946,121.60454,6.0255125e-09
C0O980,新市,2024-02-19,23.061614,120.298197,6.8849224e-09
C0K420,西螺,2024-02-19,23.800407,120.467394,7.91925e-10
C0Z050,佳心,2024-02-19,23.34567,121.21316,1.10222595e-08
C0AD30,蘆洲,2024-02-19,25.086594,121.472331,1.2766325e-09
C0V610,梓官,2024-02-19,22.760558,120.267211,2.4562948e-07
K2F750,種苗改良場,2024-02-19,24.225972,120.800917,4.4135e-09
C0UA80,大溪漁港,2024-02-19,24.941801,121.902955,2.3624034e-09
C1AI60,國一39K邊坡,2024-02-19,25.064361,121.383836,2.1412423e-09
C0W150,金寧,2024-02-19,24.457703,118.328989,5.5178484e-09
V2C250,八德合作社,2024-02-19,24.93775,121.266389,2.0078388e-09
C0AH40,平等,2024-02-19,25.129142,121.577086,3.0073926e-09
C0R540,佳冬,2024-02-19,22.419456,120.552375,6.02231e-07
466950,彭佳嶼,2024-02-19,25.627975,122.079744,0.0003704565
C0A890,雙溪,2024-02-19,25.036003,121.864242,9.083904e-09
C0C480,桃園,2024-02-19,24.992425,121.323172,1.6441132e-09
C0AH50,林口,2024-02-19,25.072181,121.38084,2.326035e-09
A2K360,水試臺西試驗場,2024-02-19,23.717231,120.190522,3.9402877e-08
B2N890,畜試所,2024-02-19,23.058972,120.336406,5.8812972e-09
C0F9S0,烏日,2024-02-19,24.107058,120.624103,7.0646505e-10
C0C490,八德,2024-02-19,24.928708,121.283289,2.0232778e-09
C0R190,赤山,2024-02-19,22.592333,120.614306,6.712733e-09
C0T820,天祥,2024-02-19,24.179597,121.495639,1.12951e-08
C1F9E1,龍安,2024-02-19,24.1605,120.831961,5.9531216e-09
C0V820,小林,2024-02-19,23.148408,120.63325,1.3734958e-09
C2G870,芳苑,2024-02-19,23.922303,120.320025,0.0005739333
C0E850,大河,2024-02-19,24.618069,120.948578,3.496617e-09
C1U670,寒溪,2024-02-19,24.634,121.71691,1.4924492e-09
C0N020,城西,2024-02-19,23.0568,120.0956,1.0831235e-08
C1Z110,三棧,2024-02-19,24.11557,121.60501,1.3219877e-08
C0R280,檳榔,2024-02-19,22.076078,120.836777,0.87379485
C0F9L0,后里,2024-02-19,24.310436,120.729725,2.5188167e-09
C0D540,橫山,2024-02-19,24.71116,121.11693,3.0009062e-09
C1D420,太閣南,2024-02-19,24.632808,121.160575,6.451141e-09
C1E770,公館,2024-02-19,24.526914,120.830806,1.8462464e-09
CAN130,水試所海水繁養殖中心,2024-02-19,23.120802,120.07968,4.930647e-08
C1I430,翠華,2024-02-19,24.191961,121.224339,1.2494383e-08
C1M400,菜瓜坪,2024-02-19,23.251928,120.576103,8.9516505e-10
C0G730,二林,2024-02-19,23.903325,120.376081,3.5543442e-09
72M360,南改義竹分場,2024-02-19,23.360694,120.279361,6.772689e-09
V2K620,麥寮合作社,2024-02-19,23.753836,120.294783,1.2226614e-09
C0Z070,舞鶴,2024-02-19,23.46811,121.37407,2.725652e-09
C0B040,大武崙,2024-02-19,25.166676,121.706993,2.235348e-09
C1Z030,紅葉,2024-02-19,23.493119,121.338806,3.8043266e-09
C1I050,丹大,2024-02-19,23.753747,121.141147,9.955693e-09
C0I080,信義,2024-02-19,23.689694,120.851036,2.0210869e-09
C2A880,福隆,2024-02-19,25.017842,121.942083,6.5162387e-09
C0Z160,鳳林,2024-02-19,23.746114,121.453411,2.0028015e-09
C0V210,復興,2024-02-19,23.222403,120.806089,1.493497e-09
C0H990,昆陽,2024-02-19,24.121322,121.273642,2.1530337e-08
C0S710,鹿野,2024-02-19,22.917711,121.122994,1.2987439e-09
C0I530,小奇萊,2024-02-19,24.131764,121.295717,2.2474904e-08
C0Z080,富源,2024-02-19,23.587642,121.378225,3.0081786e-09
467441,高雄,2024-02-19,22.7304,120.3125,1.978926e-07
C1I140,卡奈托灣,2024-02-19,23.754364,121.087872,4.248836e-09
C0I520,玉山風口,2024-02-19,23.470489,120.955994,5.676038e-08
C1G691,下水埔,2024-02-19,23.816114,120.5676,7.8620743e-10
C0X110,臺南市南區,2024-02-19,22.961189,120.188378,1.2691383e-08
C0V680,仁武,2024-02-19,22.701083,120.347722,7.723194e-07
C2G840,北斗,2024-02-19,23.877586,120.514222,1.2108718e-09
C0R900,竹坑,2024-02-19,22.1385,120.7022,0.9999804
C0K250,崙背,2024-02-19,23.75555,120.318925,1.2226637e-09
C0G860,社頭,2024-02-19,23.897647,120.5862,7.4765744e-10
C0X150,安定,2024-02-19,23.102614,120.227839,7.47099e-09
C0R590,里港,2024-02-19,22.77919,120.49459,4.959232e-09
C0E610,馬都安,2024-02-19,24.451272,120.930192,4.9848654e-09
C0E550,明德,2024-02-19,24.583486,120.885411,2.6258828e-09
C0R150,三地門,2024-02-19,22.709889,120.639944,3.1859233e-09
C0G910,花壇,2024-02-19,24.032076,120.549461,9.949102e-10
C1D400,鳥嘴山,2024-02-19,24.71909,121.28387,4.3615236e-09
C0K500,元長,2024-02-19,23.64981,120.315024,1.990607e-09
C0F0B0,石岡,2024-02-19,24.276061,120.777644,2.675861e-09
C2V250,甲仙,2024-02-19,23.080106,120.591758,1.5702128e-09
C0SA20,金崙山,2024-02-19,22.567419,120.959667,7.851154e-09
C0V350,溪埔,2024-02-19,22.738578,120.446797,1.931966e-09
C0M660,溪口,2024-02-19,23.604131,120.403569,2.187009e-09
C1S880,壽卡,2024-02-19,22.238911,120.858903,0.0002957622
72D680,桃改新埔分場,2024-02-19,24.834444,121.066111,1.7806694e-09
