站號,站名,日期,lat,lon,BLBTSLS
C0R710,龍磐,2024-11-26,21.931672,120.838942,0.750546
C1F9D1,白毛台,2024-11-26,24.158325,120.886933,6.6123182e-09
C0G940,竹塘,2024-11-26,23.848253,120.386764,0.98679024
467590,恆春,2024-11-26,22.003897,120.746339,0.8190045
C1O850,環湖,2024-11-26,23.148617,120.418633,6.748843e-06
C0U710,太平山,2024-11-26,24.505486,121.525656,3.3952375e-08
C0E820,獅潭,2024-11-26,24.539133,120.920042,0.24121328
C0V880,興達,2024-11-26,22.8778,120.2127,0.058955256
C0S890,關山,2024-11-26,23.0395,121.175017,6.597091e-08
K2F750,種苗繁殖,2024-11-26,24.225972,120.800917,1.183617e-08
C1Z130,銅門,2024-11-26,23.965694,121.492842,2.498207e-05
C0AD40,土城,2024-11-26,24.973208,121.445169,0.93274623
CAN140,六官養殖協會,2024-11-26,23.22881,120.29962,0.0001551684
C0X180,山上,2024-11-26,23.0757,120.363253,8.458689e-07
C0F9Z0,雪山東峰,2024-11-26,24.388792,121.268675,1.3868244e-08
C1M480,獨立山,2024-11-26,23.537022,120.607797,2.7699745e-09
C0X220,學甲,2024-11-26,23.230367,120.182187,0.34787592
C0R170,屏東,2024-11-26,22.660269,120.494072,1.0799178e-08
467650,日月潭,2024-11-26,23.881325,120.90805,2.7781122e-09
C0K600,箔子寮,2024-11-26,23.6197,120.14,0.99275506
C0G830,埤頭,2024-11-26,23.866003,120.452806,0.0027273276
C0S950,七塊厝,2024-11-26,22.954453,121.229922,1.1568979e-08
467110,金門,2024-11-26,24.407306,118.289281,0.97113645
C0AH80,深坑,2024-11-26,25.002703,121.628328,0.9135651
467990,馬祖,2024-11-26,26.169269,119.923419,0.13699563
C0A970,三貂角,2024-11-26,25.007606,122.002058,0.12880856
C0K430,褒忠,2024-11-26,23.690938,120.303634,0.9897481
467480,嘉義,2024-11-26,23.495925,120.432906,8.665908e-05
C2E540,後龍,2024-11-26,24.606489,120.783933,0.60213155
C0V400,阿公店,2024-11-26,22.804194,120.355528,6.574754e-05
C0R440,大漢山,2024-11-26,22.405264,120.753181,4.8413796e-07
C0K280,四湖,2024-11-26,23.630414,120.227125,0.99549663
C1F9B1,桐林,2024-11-26,24.066172,120.735194,4.3004923e-07
C0K390,土庫,2024-11-26,23.679029,120.395574,0.05653936
C1I450,望鄉山,2024-11-26,23.594153,120.944286,1.1674848e-08
C0E910,海埔,2024-11-26,24.648767,120.772435,0.5914244
B2E890,畜試北區分所,2024-11-26,24.527806,120.770972,0.95846784
C0R750,四林格山,2024-11-26,22.076989,120.802439,0.9993474
C0F0C0,中坑,2024-11-26,24.248517,120.903319,2.5872637e-09
C1I121,大鞍,2024-11-26,23.678381,120.760017,3.8448706e-09
72U480,花改蘭陽分場,2024-11-26,24.686306,121.716583,2.820913e-06
C0A770,科教館,2024-11-26,25.096356,121.516507,0.8213902
C0AJ60,六塊厝,2024-11-26,25.24,121.4481,0.99529314
C0R620,墾雷,2024-11-26,21.900836,120.855269,0.9101077
467420,永康,2024-11-26,23.038386,120.2367,2.9935425e-05
467300,東吉島,2024-11-26,23.25695,119.667467,0.8772648
C0I410,名間,2024-11-26,23.837053,120.701447,1.5476657e-07
A2C560,農工中心,2024-11-26,24.985917,121.239833,0.99823767
C0V740,旗山,2024-11-26,22.888614,120.483597,1.0435513e-05
C0Z061,玉里,2024-11-26,23.3215,121.339656,6.4113356e-06
C0S840,南田,2024-11-26,22.279725,120.889208,0.594638
C1I470,杉林溪,2024-11-26,23.639517,120.786444,4.0503103e-09
C1X040,東原,2024-11-26,23.291597,120.463822,3.232873e-07
C0R660,枋寮,2024-11-26,22.367722,120.590647,0.97128737
C1R120,上德文,2024-11-26,22.763272,120.704442,1.8974077e-07
C0K450,大埤,2024-11-26,23.646074,120.431537,3.3611534e-05
C0UA00,土場,2024-11-26,24.576533,121.495333,5.817306e-06
467080,宜蘭,2024-11-26,24.763975,121.756528,3.1071853e-05
C0N030,四草,2024-11-26,23.0235,120.1116,0.09224243
C0V650,彌陀,2024-11-26,22.783806,120.246361,0.00716109
C0D660,新竹市東區,2024-11-26,24.798681,120.986942,0.6429599
82S580,茶改東部分場,2024-11-26,22.907694,121.130139,0.00033685
C0C710,大溪永福,2024-11-26,24.892936,121.324975,0.8799219
C0FA20,溫寮,2024-11-26,24.372177,120.583125,0.9603664
C0V640,湖內,2024-11-26,22.887139,120.2445,0.055702124
C0R910,下寮,2024-11-26,22.3929,120.5548,0.97128737
C0Z020,明里,2024-11-26,23.208717,121.262342,6.4928518e-06
C0M770,嘉義梅山,2024-11-26,23.585398,120.555587,4.817894e-07
G2F820,農業試驗所,2024-11-26,24.031261,120.688133,2.0388168e-06
C0C660,楊梅,2024-11-26,24.912375,121.143047,0.9901779
C1E511,新開,2024-11-26,24.347703,120.827019,4.1608526e-08
G2F820,農試所(霧峰),2024-11-26,24.031261,120.688133,2.0388168e-06
C1I070,和社,2024-11-26,23.591131,120.888861,2.2431334e-07
C2F000,大肚,2024-11-26,24.15295,120.572117,3.749894e-08
C1S850,豐南,2024-11-26,23.122139,121.262389,1.9086905e-08
C2A920,富貴角,2024-11-26,25.263783,121.565258,0.9898323
CAH030,茶改場竹圍站,2024-11-26,23.860083,120.637528,6.4172454e-09
C0T960,光復,2024-11-26,23.660694,121.424964,0.041344576
C0F9M0,豐原,2024-11-26,24.254322,120.720692,4.37524e-08
C0R720,旭海,2024-11-26,22.205403,120.887614,0.97683847
C0V710,苓雅,2024-11-26,22.622742,120.330669,6.098384e-05
C0C740,觀音工業區,2024-11-26,25.064764,121.114856,0.9689181
CAC040,拉拉山,2024-11-26,24.699317,121.427133,1.6096507e-07
C0V790,萬山,2024-11-26,22.905944,120.688056,9.261443e-09
U2HA30,臺大和社,2024-11-26,23.590856,120.888864,2.2431334e-07
C0AJ90,澳底,2024-11-26,25.0552,121.9253,0.33904254
C0Z100,東華,2024-11-26,23.89525,121.549833,0.00022525391
C0G970,三豐,2024-11-26,23.882,120.2895,0.88031614
V2K610,大庄合作社,2024-11-26,23.8068,120.367939,0.9885149
C0V900,汕尾,2024-11-26,22.4782,120.4151,4.529457e-06
C1R630,龍泉,2024-11-26,22.66701,120.59091,4.193965e-06
C1AC50,關渡,2024-11-26,25.133486,121.469331,0.5386826
C0F9I0,神岡,2024-11-26,24.272481,120.658314,3.6633494e-07
C0K460,斗南,2024-11-26,23.678734,120.478359,2.9171162e-05
467410,臺南,2024-11-26,22.993239,120.204772,0.06693473
C2O810,曾文,2024-11-26,23.219681,120.497328,2.5306556e-06
467280,後龍,2024-11-26,24.648563,120.831834,0.6196313
C1F9J1,清水林,2024-11-26,24.071242,120.820419,2.584413e-09
C2A650,火燒寮,2024-11-26,25.002719,121.742892,0.00079455815
466930,竹子湖,2024-11-26,25.162078,121.544547,1.8277722e-06
C1I220,樟湖,2024-11-26,23.905333,120.846983,1.4083057e-09
C0I390,仁愛,2024-11-26,24.022122,121.132206,2.0981894e-09
C0Z300,東里,2024-11-26,23.26853,121.30547,9.3498966e-05
C0V310,美濃,2024-11-26,22.898742,120.519153,1.808637e-05
C1V590,新發,2024-11-26,23.057019,120.646064,4.1760044e-09
C0K510,水林,2024-11-26,23.572924,120.24597,0.9847559
72S590,東改賓朗果園,2024-11-26,22.813889,121.071278,8.31836e-08
82A750,茶改北部分場,2024-11-26,24.955778,121.631222,0.0050193304
C1A750,石碇服務區,2024-11-26,25.00872,121.646242,0.45690477
C0X300,鹿寮,2024-11-26,23.386047,120.477331,6.716996e-06
G2AI50,關渡,2024-11-26,25.11575,121.492,0.99442446
C0K590,雲林東勢,2024-11-26,23.674192,120.255721,0.9822752
C0A570,桶後,2024-11-26,24.848222,121.597992,1.276357e-05
C1S800,華源,2024-11-26,22.657883,121.02325,0.011931431
C0G720,溪州,2024-11-26,23.851589,120.499093,0.0017135114
C1V160,達卡努瓦,2024-11-26,23.279811,120.705319,2.6139297e-09
C2M410,馬頭山,2024-11-26,23.324361,120.582017,8.398438e-08
C0V850,蚵仔寮,2024-11-26,22.7256,120.2527,0.0024386041
C0S740,池上,2024-11-26,23.119628,121.209469,0.003070478
C1V390,尖山,2024-11-26,22.813153,120.367789,1.7856339e-05
C0AH70,松山,2024-11-26,25.04871,121.55042,0.80361956
C0N010,鯤鯓國小,2024-11-26,23.1879,120.0889,0.34255636
C0R550,新埤,2024-11-26,22.467947,120.582894,2.095872e-06
C0SA60,知本（水試所）,2024-11-26,22.702394,121.082761,0.36444706
C0T9I0,豐濱,2024-11-26,23.583897,121.514806,0.000102811806
C0UB00,淡江大學蘭陽校園,2024-11-26,24.823239,121.730383,4.7229237e-06
C0T9N0,富里,2024-11-26,23.171639,121.249378,0.005460603
U2HA50,臺大竹山,2024-11-26,23.756972,120.681556,2.5640315e-07
C0V840,鳳鼻頭,2024-11-26,22.5083,120.3591,1.6750606e-07
C0X140,西港,2024-11-26,23.125608,120.203108,0.00021192536
72D080,桃改五峰分場,2024-11-26,24.612194,121.157167,1.8992196e-08
C0V530,阿蓮,2024-11-26,22.883208,120.327508,0.0016262425
C1O880,關山,2024-11-26,23.173397,120.594092,3.1944744e-08
C0E791,卓蘭,2024-11-26,24.3126,120.8244,1.761994e-08
C1I030,武界,2024-11-26,23.913225,121.052483,1.7098584e-09
C0R520,崁頂,2024-11-26,22.514781,120.506914,4.2002025e-08
C0R341,牡丹,2024-11-26,22.130036,120.792639,0.99093294
C0R930,萬丹,2024-11-26,22.5885,120.4851,1.20987975e-08
C0S760,紅石,2024-11-26,23.069131,121.126219,2.0735362e-08
C1M610,石磐龍,2024-11-26,23.496606,120.663506,3.4114251e-09
C0UA10,鴛鴦湖,2024-11-26,24.590269,121.412228,7.069051e-08
V2C260,八德蔬果,2024-11-26,24.978508,121.281819,0.8995475
C0R800,丹路,2024-11-26,22.204481,120.750989,0.9616932
C0G920,永靖,2024-11-26,23.924703,120.547533,0.00071229297
C1A630,下盆,2024-11-26,24.771003,121.538622,5.285264e-07
B2N890,畜產試驗所,2024-11-26,23.058972,120.336406,3.704348e-06
C0UA30,白嶺,2024-11-26,24.527819,121.519031,3.3145508e-08
C1V580,溪南(特生中心),2024-11-26,23.084972,120.788475,8.334635e-09
C1T970,大農,2024-11-26,23.615233,121.413331,1.5001325e-05
E2S960,林試太麻里2,2024-11-26,22.598014,120.989761,0.9584003
C0R650,竹田,2024-11-26,22.58486,120.54344,5.595174e-08
C1H900,清流,2024-11-26,24.080775,120.962997,1.6649823e-09
C1C510,水尾,2024-11-26,24.940081,121.087161,0.990288
C0F9X0,大雅(中科園區),2024-11-26,24.21528,120.62445,4.0512435e-07
C0O970,虎頭埤,2024-11-26,23.021375,120.347878,1.3071815e-06
C0C730,中大臨海站,2024-11-26,24.966126,121.008581,0.99130404
C0X250,新營,2024-11-26,23.310689,120.316681,0.0003746565
C0V700,三民,2024-11-26,22.645017,120.311233,0.076735556
C0U870,大礁溪,2024-11-26,24.791042,121.675047,8.1302903e-07
C0E870,高鐵苗栗,2024-11-26,24.60725,120.826094,0.6090459
A2K570,古坑花卉中心,2024-11-26,23.63353,120.55239,2.5638042e-06
C0M860,新美,2024-11-26,23.338017,120.683169,7.3881483e-09
C1E701,八卦,2024-11-26,24.491756,120.927619,1.1342265e-07
C0I420,國姓,2024-11-26,24.037803,120.855072,2.5027749e-08
C0S960,香蘭,2024-11-26,22.587569,120.993375,0.9584003
C0R260,春日,2024-11-26,22.370361,120.628306,0.9865571
72G600,臺中農改場,2024-11-26,24.003028,120.534389,0.00016940835
C0Z210,瑞穗,2024-11-26,23.5239,121.39021,0.00014021153
C0M820,達邦,2024-11-26,23.453994,120.749517,3.9468824e-09
C0V860,南寮,2024-11-26,22.7616,120.2339,0.0024386065
C0G740,大城,2024-11-26,23.852487,120.320935,0.890781
C0R920,塭仔,2024-11-26,22.4169,120.5197,0.9671677
C0R470,高樹,2024-11-26,22.826389,120.600806,4.972742e-07
C0R680,佳樂水,2024-11-26,21.993578,120.861633,0.2723256
C1O870,大棟山,2024-11-26,23.31157,120.52226,2.736748e-09
C0D360,梅花,2024-11-26,24.678347,121.208558,0.8343183
C0Z190,富世,2024-11-26,24.14743,121.6297,0.0032891752
C0AI10,屈尺,2024-11-26,24.92184,121.54475,0.94847745
B2U990,畜試東區分所,2024-11-26,24.669039,121.832561,5.4213456e-06
C0R240,來義,2024-11-26,22.527306,120.625111,1.7114875e-08
C1R610,西大武山,2024-11-26,22.617719,120.7322,6.405582e-08
C0G900,線西,2024-11-26,24.143358,120.443536,0.99623567
C0M700,竹崎,2024-11-26,23.526178,120.555508,4.8245016e-07
C2E880,三義,2024-11-26,24.405478,120.749819,4.0060346e-08
C0C720,竹圍,2024-11-26,25.112692,121.239824,0.99442345
C0F9P0,清水,2024-11-26,24.312297,120.562242,0.9925199
C0Z150,吉安光華,2024-11-26,23.930925,121.595153,0.023822546
C1D640,外坪(五指山),2024-11-26,24.644447,121.090961,2.1378096e-07
C0F9O0,潭子,2024-11-26,24.213106,120.703933,1.3938924e-07
72T250,花蓮農改場,2024-11-26,23.975222,121.563889,0.49124625
C0E780,銅鑼,2024-11-26,24.489681,120.790853,0.9620392
C1T950,太安,2024-11-26,23.666719,121.370128,6.4157554e-08
C0E830,苑裡,2024-11-26,24.439714,120.653053,0.84280586
467270,田中,2024-11-26,23.873803,120.581286,1.2321455e-05
C0SA10,檳榔四格山,2024-11-26,22.810031,121.109308,2.4877925e-08
C1T830,布洛灣,2024-11-26,24.17184,121.57127,9.186863e-06
C0F970,大坑,2024-11-26,24.173142,120.722289,3.3981732e-07
C1U920,思源,2024-11-26,24.393125,121.347214,1.8891576e-08
C0A931,三和,2024-11-26,25.233153,121.595236,0.2143223
C0I010,廬山,2024-11-26,24.033311,121.181808,1.658238e-09
C0R860,鼻頭,2024-11-26,22.1043,120.8979,0.9317831
C0UB20,壯圍,2024-11-26,24.7359,121.8163,4.3729688e-06
C0R790,九棚,2024-11-26,22.14195,120.889281,0.9857237
C0W110,東莒,2024-11-26,25.9652,119.98069,0.09990835
C1U930,粉鳥林,2024-11-26,24.497088,121.842479,1.8779702e-06
C1I211,蘆竹湳,2024-11-26,23.934019,120.811994,5.4047486e-09
C0S830,長濱,2024-11-26,23.286817,121.411975,5.243959e-07
C1F9F1,伯公龍,2024-11-26,24.272392,120.849047,5.466185e-09
C0E810,西湖,2024-11-26,24.562947,120.7485,0.18699373
C1I440,新高口,2024-11-26,23.478744,120.878939,1.3120752e-08
C0O840,王爺宮,2024-11-26,23.222064,120.40085,7.528794e-06
C0T9G0,鳳林山,2024-11-26,23.735269,121.420131,1.5179172e-08
C0X080,佳里,2024-11-26,23.173039,120.145086,0.34255636
C0Z310,清水斷崖,2024-11-26,24.218294,121.689142,2.5406077e-08
C0M680,太保,2024-11-26,23.455062,120.331455,4.4136217e-05
C1S820,金峰,2024-11-26,22.590969,120.933236,0.11211657
C0AD10,八里,2024-11-26,25.150211,121.403947,0.99442345
C2K240,草嶺,2024-11-26,23.59555,120.693461,3.828121e-09
C1SA70,都蘭,2024-11-26,22.87794,121.226881,0.033808917
C0K440,二崙,2024-11-26,23.772797,120.408944,0.0005097886
C1A760,坪林交控,2024-11-26,24.94284,121.713442,0.0050508315
C0F9N0,大里,2024-11-26,24.092464,120.701378,1.9034843e-06
C0SA90,達仁林場,2024-11-26,22.264347,120.823972,0.99986815
C1R290,石門山,2024-11-26,22.112611,120.756597,0.9953546
42HA10,萬大發電廠,2024-11-26,23.978875,121.139639,1.1233798e-09
C0R890,山海,2024-11-26,21.9878,120.7091,0.29095858
C0T9A0,月眉山,2024-11-26,23.809928,121.539828,2.7679109e-08
C0AC70,信義,2024-11-26,25.037822,121.564597,0.80361956
C0K560,棋山,2024-11-26,23.68645,120.603417,1.6430707e-06
C1Z240,中平林道,2024-11-26,23.42115,121.26763,6.893835e-08
U2H480,溪頭,2024-11-26,23.670306,120.798194,3.0462572e-09
C0M880,好美里,2024-11-26,23.3364,120.138,0.48329985
C0T9E0,大坑,2024-11-26,23.880628,121.581981,7.1304356e-08
C0K530,臺西,2024-11-26,23.701547,120.197559,0.9946097
C1E900,國一N128K,2024-11-26,24.560997,120.844186,0.80194724
C0AJ50,水湳洞,2024-11-26,25.123695,121.862238,0.40925005
C0AI20,白沙灣,2024-11-26,25.283128,121.519058,0.99529463
C0A860,大坪,2024-11-26,25.165914,121.632969,5.2584033e-05
C1U850,觀音海岸,2024-11-26,24.38319,121.77856,1.1721257e-08
C0U950,鶯子嶺,2024-11-26,24.89754,121.79244,6.79036e-07
C0O900,善化,2024-11-26,23.112883,120.297219,7.3487186e-06
C0K550,蔦松,2024-11-26,23.514319,120.229736,0.9833413
E2P980,林試六龜中心,2024-11-26,22.991703,120.645722,2.1706652e-08
C0E590,通霄,2024-11-26,24.471892,120.704622,0.67945516
C1I310,西巒,2024-11-26,23.754486,120.883956,3.649601e-09
C0A550,泰平,2024-11-26,24.971197,121.823711,0.0001799518
C0I360,水里,2024-11-26,23.812553,120.849792,1.5591981e-08
C0R830,高士,2024-11-26,22.121825,120.836781,0.997256
C1I101,溪頭,2024-11-26,23.661789,120.807647,4.2902126e-09
C0AJ20,野柳,2024-11-26,25.20703,121.690021,0.7175157
C0B060,暖暖,2024-11-26,25.0957,121.7403,0.3126667
C1H920,長豐,2024-11-26,24.102039,120.879897,2.1391482e-09
C0V360,內門,2024-11-26,22.975481,120.466769,2.2776242e-06
C0R850,林邊,2024-11-26,22.4634,120.5339,3.74302e-06
C0E930,龍鳳,2024-11-26,24.700034,120.859125,0.30824488
C0U910,冬山,2024-11-26,24.63373,121.7937,5.4213456e-06
C1E721,泰安,2024-11-26,24.489017,120.968036,6.9085346e-09
82H320,茶改中部分場,2024-11-26,23.875611,120.913583,3.849883e-09
C0M750,布袋,2024-11-26,23.380878,120.167789,0.8919115
C1S860,利嘉,2024-11-26,22.809417,121.050528,2.4353179e-08
72C440,桃園農改,2024-11-26,24.950944,121.030583,0.9841243
E2S980,林試太麻里1,2024-11-26,22.598922,120.980044,0.76628095
C0X170,關廟,2024-11-26,22.963017,120.327797,0.00014062983
C0V720,林園,2024-11-26,22.507747,120.394511,1.5051776e-07
C1I510,線浸林道,2024-11-26,23.761508,120.832956,2.0121171e-09
C0D690,外湖,2024-11-26,24.917735,120.968711,0.97610456
C0C750,新興坑尾,2024-11-26,25.0061,121.0971,0.99534327
B2Q810,畜試南區分所,2024-11-26,21.945583,120.802167,0.2698841
C0S790,金崙,2024-11-26,22.538122,120.966875,0.7095425
C0AH90,福山植物園,2024-11-26,24.760717,121.58135,3.4565426e-06
C0I540,奇萊稜線,2024-11-26,24.109231,121.326456,4.2306187e-08
C0M850,表湖,2024-11-26,23.24186,120.64166,3.184113e-09
C0S770,大溪山,2024-11-26,22.478475,120.943325,0.99735016
C0AG80,中和,2024-11-26,24.991622,121.491792,0.93274623
C0T790,大禹嶺,2024-11-26,24.186117,121.316086,1.5755688e-08
C0T9B0,水源,2024-11-26,23.991861,121.537169,4.883164e-07
C0R840,牡丹池山,2024-11-26,22.168389,120.841225,0.9999081
C1I131,桶頭,2024-11-26,23.641944,120.654117,3.481539e-08
CAL110,布袋國中,2024-11-26,23.35893,120.18026,0.8919115
467571,新竹,2024-11-26,24.827853,121.014219,0.81839466
C0Z290,赤柯山,2024-11-26,23.36893,121.38293,1.7303973e-08
C0X280,將軍,2024-11-26,23.214999,120.13577,0.35796657
C0S690,太麻里,2024-11-26,22.60902,120.98533,3.6118035e-07
C0U880,北關,2024-11-26,24.9072,121.8734,0.34202904
C1H860,瑞岩,2024-11-26,24.123772,121.18345,5.1179923e-09
C0G810,埔心,2024-11-26,23.947633,120.525456,0.00071229297
C0U970,大福,2024-11-26,24.80064,121.81389,4.1951767e-05
C1E670,南礦,2024-11-26,24.538278,121.002836,1.3085113e-08
C0M520,東後寮,2024-11-26,23.369908,120.248065,0.8816434
C1E461,松安,2024-11-26,24.397972,120.986022,5.995202e-09
72G600,臺中農改,2024-11-26,24.003028,120.534389,0.00016940835
C2N160,西拉雅風管處,2024-11-26,23.189481,120.335297,8.69519e-06
C0A640,石碇,2024-11-26,24.993969,121.662917,0.30652675
E2S960,林試太麻里2,2024-11-26,22.598,120.99775,0.96592855
C0F9Y0,桃山,2024-11-26,24.432739,121.303808,1.955061e-08
C1I020,萬大,2024-11-26,23.979817,121.132261,2.0644824e-09
C0U940,羅東,2024-11-26,24.68184,121.74934,3.2998266e-06
C0M650,朴子,2024-11-26,23.43463,120.23902,0.83580536
C1I500,大尖山,2024-11-26,23.858572,120.994889,3.590546e-09
C0G820,田尾,2024-11-26,23.901669,120.509389,0.00071229297
E2K600,四湖植物園,2024-11-26,23.676986,120.163433,0.99549663
C0S730,綠島,2024-11-26,22.6672,121.47533,0.8701748
12Q970,東港工作站,2024-11-26,22.479997,120.466058,4.529457e-06
C0E430,南庄,2024-11-26,24.601775,121.000214,0.21698377
C1TA00,太魯閣,2024-11-26,24.15773,121.6236,0.00086430955
466920,臺北,2024-11-26,25.037658,121.514853,0.80361956
C0R600,舊泰武,2024-11-26,22.588194,120.664944,2.5770404e-08
C1I260,北坑,2024-11-26,23.9246,121.006903,4.1196446e-09
466910,鞍部,2024-11-26,25.182586,121.529731,5.596168e-06
C1I230,九份二山,2024-11-26,23.961944,120.845,2.335219e-09
C2A660,瑞芳,2024-11-26,25.113169,121.801147,0.37860337
C0R270,琉球嶼,2024-11-26,22.332244,120.362236,3.994208e-05
C1T990,高寮,2024-11-26,23.394239,121.356808,2.0506712e-05
C0G620,芬園,2024-11-26,24.015678,120.6213,9.0129635e-07
C1Z140,荖溪,2024-11-26,23.890575,121.45964,1.8963346e-08
C1I201,中心崙,2024-11-26,23.728722,120.712097,3.984741e-09
C1I400,凌霄,2024-11-26,24.018778,121.004456,1.6191238e-09
C1M640,十字,2024-11-26,23.492153,120.753683,6.0876157e-09
G2P820,農試鳳山分所,2024-11-26,22.646611,120.356083,0.052991044
C0Z270,蕃薯寮,2024-11-26,23.73835,121.540108,5.447609e-08
C0F9Q0,外埔,2024-11-26,24.347817,120.705686,8.741709e-06
C0K580,高鐵雲林,2024-11-26,23.737456,120.417944,0.0008224781
C2I090,鳳凰,2024-11-26,23.728081,120.787347,3.4638454e-09
C0U990,員山,2024-11-26,24.74435,121.72247,3.6829872e-06
C0V770,大社,2024-11-26,22.730306,120.346639,0.0012411253
C0X120,麻豆,2024-11-26,23.183289,120.248611,7.361028e-06
C0C670,龍潭,2024-11-26,24.870056,121.221389,0.99011016
C0D680,香山濕地,2024-11-26,24.783581,120.914988,0.58790284
C0S980,勝林山,2024-11-26,22.430439,120.8938,0.05878311
C0V730,大寮,2024-11-26,22.605614,120.395717,3.311858e-05
C0R570,麟洛,2024-11-26,22.65078,120.52719,1.0799178e-08
CAG100,王功漁港,2024-11-26,23.96824,120.32586,0.8243043
C0X290,北門,2024-11-26,23.267772,120.125481,0.3579665
C2F930,大甲,2024-11-26,24.347667,120.640403,0.9688146
C0D650,湖口,2024-11-26,24.904794,121.043628,0.9891169
C0E420,竹南,2024-11-26,24.708978,120.888897,0.41622728
C0U780,五結,2024-11-26,24.68637,121.79794,4.3660766e-06
C1I250,鯉潭,2024-11-26,23.961922,120.991131,3.7333923e-09
C0R130,阿禮,2024-11-26,22.742908,120.743678,2.2302853e-08
C0X100,臺南市北區,2024-11-26,23.010394,120.194228,0.082346775
C0S920,金峰嘉蘭,2024-11-26,22.594789,120.960825,0.74414486
C0V490,新興,2024-11-26,22.627422,120.298803,6.098384e-05
C0F9K0,大安,2024-11-26,24.345061,120.588025,0.96253127
72N100,臺南農改,2024-11-26,23.0605,120.342194,3.704348e-06
467290,古坑,2024-11-26,23.633639,120.551889,2.5638042e-06
C0V440,鳳山,2024-11-26,22.646653,120.356122,0.052991044
C1T940,大觀,2024-11-26,23.714206,121.373133,2.2254282e-08
72T250,花蓮農改,2024-11-26,23.975222,121.563889,0.49124625
C0E740,造橋,2024-11-26,24.637056,120.864778,0.6090459
C0R100,尾寮山,2024-11-26,22.833111,120.683889,3.3823234e-08
A2K630,臺大雲林校區,2024-11-26,23.730628,120.423903,0.0008224781
C0D580,寶山,2024-11-26,24.735006,121.025192,0.8182971
E2P990,林試扇平站,2024-11-26,22.9677,120.6857,3.5326346e-07
C0AI30,三重,2024-11-26,25.057328,121.500629,0.8213903
C0AH00,汐止,2024-11-26,25.066881,121.658778,0.80361956
C1Z040,立山,2024-11-26,23.443356,121.327375,1.7508472e-07
C0R740,獅子,2024-11-26,22.201569,120.70525,0.9210098
C0W130,花嶼,2024-11-26,23.40007,119.32276,0.36371306
C0A950,鼻頭角,2024-11-26,25.129036,121.923372,0.9740237
C0K470,林內,2024-11-26,23.748675,120.609642,1.6367524e-06
82C160,茶改場,2024-11-26,24.908472,121.185333,0.9838139
C0Z320,清水林道,2024-11-26,23.27125,121.188272,2.4445884e-08
C0R760,南仁湖,2024-11-26,22.084681,120.863353,0.9953546
C0M670,大林,2024-11-26,23.600616,120.45841,0.00019895898
C0M800,茶山,2024-11-26,23.299075,120.664767,1.926543e-08
C0A9C0,天母,2024-11-26,25.117494,121.537169,0.8628306
72K220,南改斗南分場,2024-11-26,23.634556,120.477333,2.2579421e-05
72AI40,桃改樹林分場,2024-11-26,24.944503,121.386972,0.9950545
C0S910,蘭嶼燈塔,2024-11-26,22.081197,121.503117,0.4939789
C0B050,八斗子,2024-11-26,25.144754,121.79167,0.42670515
C0U900,內城,2024-11-26,24.71813,121.68766,2.1860587e-06
C0X320,柳營,2024-11-26,23.253328,120.375253,0.00016311141
C0M790,新港,2024-11-26,23.553269,120.345728,0.12908287
C0F9T0,西屯,2024-11-26,24.179494,120.641275,3.2352805e-06
C0SA30,都歷,2024-11-26,23.020333,121.323642,2.1431066e-05
C0C620,蘆竹,2024-11-26,25.084275,121.265767,0.9961033
C0R730,大坪頂,2024-11-26,22.024633,120.69355,0.93871486
C0AJ40,石門,2024-11-26,25.273672,121.601198,0.99297816
C0E750,苗栗,2024-11-26,24.564569,120.824575,0.7896937
C0T870,鯉魚潭,2024-11-26,23.935639,121.508944,0.00010080682
C1V170,排雲,2024-11-26,23.463619,120.954147,4.908455e-08
C2H950,中寮,2024-11-26,23.884447,120.766406,9.1847646e-08
C0R350,貓鼻頭,2024-11-26,21.921774,120.7358,0.94298154
C0V660,岡山,2024-11-26,22.797078,120.294958,0.00716109
C1H941,雙冬,2024-11-26,23.967378,120.802189,3.8364174e-09
C0AJ70,田寮,2024-11-26,25.2698,121.4886,0.99532944
C0AI00,五股,2024-11-26,25.07445,121.42728,0.64484197
C0Z280,德武,2024-11-26,23.47426,121.41071,4.8306424e-06
C0R700,枋山,2024-11-26,22.246844,120.661086,0.11695554
C0C460,復興,2024-11-26,24.820208,121.352281,0.6452682
E2H360,蓮華池,2024-11-26,23.918333,120.885278,3.0280445e-09
C0M640,中埔,2024-11-26,23.42538,120.5229,2.7664262e-07
C0W140,金沙,2024-11-26,24.488292,118.408778,0.89321274
C2A540,四堵,2024-11-26,24.8926,121.745736,7.083706e-05
C0ACA0,新莊,2024-11-26,25.051478,121.446756,0.9275133
C0R220,潮州,2024-11-26,22.534361,120.54,3.983983e-08
U2HA40,臺大內茅埔,2024-11-26,23.689722,120.851117,4.5317455e-07
467490,臺中,2024-11-26,24.145736,120.684075,9.541492e-07
C0U960,翠峰湖,2024-11-26,24.510856,121.608044,3.001698e-08
E2HA20,林試畢祿溪站,2024-11-26,24.226944,121.308522,8.004325e-09
C0V890,前鎮,2024-11-26,22.5718,120.3117,9.888617e-05
467620,蘭嶼,2024-11-26,22.036969,121.558339,0.43845555
C1F941,雪嶺,2024-11-26,24.280586,121.026642,9.232677e-09
C0AC80,文山,2024-11-26,25.00235,121.575728,0.9135651
C0F9R0,龍井,2024-11-26,24.184536,120.528972,0.9974439
C0M760,民雄,2024-11-26,23.551754,120.428457,0.0002634048
C0UA40,西德山,2024-11-26,24.560647,121.752608,5.7729824e-08
C1T920,中興,2024-11-26,23.769503,121.498653,2.8262875e-05
C0D550,雪霸,2024-11-26,24.526972,121.11605,9.30587e-09
C2F860,梨山,2024-11-26,24.247522,121.243669,8.070705e-09
C0R320,車城,2024-11-26,22.0744,120.716247,0.20848107
C1S870,南美山,2024-11-26,23.15025,121.382333,0.008736836
C0B020,基隆嶼,2024-11-26,25.19141,121.78391,0.96657854
C1U501,牛鬥,2024-11-26,24.637836,121.573656,1.1107682e-06
C0M730,嘉義市東區,2024-11-26,23.457673,120.460531,3.0771093e-06
C0S700,知本,2024-11-26,22.684866,121.005642,1.7024956e-07
C1N001,沙崙,2024-11-26,22.935472,120.309406,0.00022704099
C0V760,橋頭,2024-11-26,22.757806,120.30575,0.0019369298
C0G960,福寶,2024-11-26,24.0443,120.3814,0.99332184
C0X210,白河,2024-11-26,23.347466,120.414427,1.4159257e-05
C0S810,東河,2024-11-26,22.972672,121.303986,0.99579585
C0R670,楓港,2024-11-26,22.190131,120.692156,0.9753325
C0FA50,霧峰,2024-11-26,24.0419,120.6995,1.6198711e-06
C0UB10,蘇澳,2024-11-26,24.5969,121.8571,2.7463793e-06
C0G950,防潮門,2024-11-26,24.1835,120.4871,0.9974439
C0M740,六腳,2024-11-26,23.492871,120.290625,0.22779053
C1R250,力里,2024-11-26,22.428117,120.629228,0.32049394
C0K330,虎尾,2024-11-26,23.719183,120.442036,0.0006672165
C2FA00,烏石坑,2024-11-26,24.273503,120.947617,6.7148846e-09
C0V620,永安,2024-11-26,22.82315,120.236856,0.00716109
C1I330,楓樹林,2024-11-26,23.986803,121.076117,1.6845346e-09
C0W200,湖西,2024-11-26,23.596314,119.67275,0.9367572
72Q010,高雄農改場,2024-11-26,22.709333,120.525889,5.5913336e-08
C0SA40,瑞和,2024-11-26,22.974361,121.156697,6.767262e-07
C0C680,龜山,2024-11-26,25.02846,121.38656,0.47415844
C2V260,月眉,2024-11-26,22.971003,120.539853,1.6843e-07
C0V450,鳳森,2024-11-26,22.545064,120.392592,7.829833e-08
C0U720,南山,2024-11-26,24.43742,121.38167,2.8196082e-08
A2N290,臺南蘭花園區,2024-11-26,23.340258,120.379661,0.00024098222
C0R560,新園,2024-11-26,22.5434,120.461558,1.5051776e-07
C0U890,三星,2024-11-26,24.66812,121.65302,5.9726062e-06
C1V300,御油山,2024-11-26,23.001983,120.715364,9.671352e-09
C0U600,礁溪,2024-11-26,24.817539,121.765608,0.19365194
C1T980,龍澗,2024-11-26,24.023289,121.411328,2.4185749e-08
C0D670,海天一線,2024-11-26,24.831986,120.914438,0.65459174
C0SA00,歷坵,2024-11-26,22.520969,120.89185,0.00027377624
C0M710,東石,2024-11-26,23.458927,120.15385,0.98906505
C0M780,鹿草,2024-11-26,23.41134,120.30835,0.7189218
C0U520,雙連埤,2024-11-26,24.753033,121.641303,7.765024e-07
C0B010,七堵,2024-11-26,25.094819,121.71713,0.36921033
C0R480,長治,2024-11-26,22.693128,120.542622,3.166467e-07
C1V830,國三S383K,2024-11-26,22.781967,120.426475,4.1469363e-07
12Q980,恆春工作站,2024-11-26,22.079678,120.714425,0.20848107
C1O940,東山服務區,2024-11-26,23.286016,120.398472,0.00057851453
C1U840,東澳嶺,2024-11-26,24.5378,121.8485,6.287368e-08
C1D630,飛鳳山,2024-11-26,24.766464,121.119178,0.9839794
C0S940,石寧山,2024-11-26,23.223772,121.406639,0.0013912347
C0K410,北港,2024-11-26,23.573957,120.292802,0.9845088
C2M620,瑞里,2024-11-26,23.545133,120.675197,3.10268e-09
C2O950,安南,2024-11-26,23.076694,120.144861,0.2417792
C0F0E0,南湖圈谷,2024-11-26,24.363714,121.444667,3.7484423e-08
467610,成功,2024-11-26,23.097486,121.373428,0.97488403
C0G890,伸港,2024-11-26,24.148933,120.484403,0.99623567
C2E540,龍溪,2024-11-26,24.606489,120.783933,0.60213155
C1V200,梅山,2024-11-26,23.268447,120.823556,1.3175346e-08
C0T9H0,加路蘭山,2024-11-26,23.682947,121.5274,1.580716e-08
C2O930,玉井,2024-11-26,23.126042,120.46055,8.458689e-07
C1F911,新伯公,2024-11-26,24.221361,120.841069,1.8354507e-08
C0R490,九如,2024-11-26,22.7405,120.490503,6.271618e-08
C0X200,左鎮,2024-11-26,23.056758,120.408522,1.6177546e-06
C1F891,稍來,2024-11-26,24.265689,121.001142,4.6392064e-09
72N240,七股研究中心,2024-11-26,23.081672,120.062894,0.2422826
C0C700,中壢,2024-11-26,24.977661,121.256375,0.84500533
C0M690,水上,2024-11-26,23.419734,120.388909,3.954978e-05
C0V690,鼓山,2024-11-26,22.623325,120.275575,6.098384e-05
C0O860,大內,2024-11-26,23.11885,120.36083,4.725474e-06
C0Z200,萬榮,2024-11-26,23.709219,121.420106,5.085504e-07
C0T9D0,和中,2024-11-26,24.26676,121.74103,5.2141974e-07
C1O921,楠西,2024-11-26,23.183511,120.484083,3.6361273e-06
C0AJ30,淡水觀海,2024-11-26,25.184591,121.408616,0.9882756
C0V810,左營,2024-11-26,22.67491,120.28491,0.076735556
C0UA70,桃源谷,2024-11-26,24.962606,121.888875,2.9192117e-05
C0X130,官田,2024-11-26,23.193217,120.315422,1.0795371e-05
C1H000,翠峰,2024-11-26,24.109397,121.205211,3.4291126e-08
C0UA90,石城,2024-11-26,24.980444,121.951214,0.21418364
C1E681,南勢山,2024-11-26,24.421669,120.923831,1.0649226e-08
C0A9F0,內湖,2024-11-26,25.079422,121.57545,0.80361956
C0K291,宜梧,2024-11-26,23.536281,120.169329,0.9833413
C1K540,口湖,2024-11-26,23.585344,120.180517,0.99275506
C0R780,滿州,2024-11-26,22.024403,120.839892,0.8519723
C0V870,文安,2024-11-26,22.8025,120.2164,0.009010025
C0U650,玉蘭,2024-11-26,24.675286,121.587061,1.3407595e-06
C0R640,東港,2024-11-26,22.46247,120.44074,4.529453e-06
K2E360,苗栗農改,2024-11-26,24.495722,120.829111,0.9623445
C0AJ80,板橋,2024-11-26,25.0107,121.4489,0.9436676
C0S660,下馬,2024-11-26,23.150427,121.070312,7.3236377e-09
C1H9B1,阿眉,2024-11-26,24.1263,120.994672,3.3468208e-09
C0UA20,多加屯,2024-11-26,24.368614,121.373189,1.4735691e-08
C0E730,頭份,2024-11-26,24.688247,120.912206,0.39486867
72V140,高改旗南分場,2024-11-26,22.857861,120.516667,1.808637e-05
C0K480,莿桐,2024-11-26,23.761192,120.502372,8.705064e-06
C0U980,坪林石牌,2024-11-26,24.86478,121.77396,8.401872e-07
C0T900,西林,2024-11-26,23.8119,121.441458,7.707228e-07
C1I150,青雲,2024-11-26,23.793361,120.949378,2.204247e-08
467350,澎湖,2024-11-26,23.565503,119.563094,0.8598093
C0G800,埔鹽,2024-11-26,24.000394,120.431683,0.9866688
C0H960,草屯,2024-11-26,23.973672,120.68085,8.8505817e-07
C1V780,多納林道,2024-11-26,22.888028,120.737917,2.603343e-08
C0E920,通霄漁港,2024-11-26,24.498589,120.673876,0.5636208
C0Z330,安通山,2024-11-26,23.290728,121.348528,5.5730204e-08
C0AH10,永和,2024-11-26,25.01125,121.508111,0.9436676
C2G640,鹿港,2024-11-26,24.0753,120.430481,0.99332184
C1E890,國三N149K,2024-11-26,24.463414,120.680019,0.87605566
C1R110,口社,2024-11-26,22.770111,120.645222,0.0053124926
C1M870,國三N285K,2024-11-26,23.550319,120.505833,1.238009e-06
467050,新屋,2024-11-26,25.006744,121.047486,0.99279386
C1E480,鳳美,2024-11-26,24.554803,121.034747,1.7806859e-06
C0M530,奮起湖,2024-11-26,23.493903,120.699253,3.0666263e-09
C0C590,觀音,2024-11-26,25.027072,121.153317,0.98024434
C0T9M0,靜浦,2024-11-26,23.455167,121.495028,0.0032832187
C0AI40,石牌,2024-11-26,25.115597,121.513139,0.8794225
C1F871,上谷關,2024-11-26,24.203483,121.018644,2.4670945e-09
C0G880,二水,2024-11-26,23.810742,120.6173,2.5517422e-06
C0R940,加祿堂,2024-11-26,22.3363,120.6217,0.9876954
C0W220,北竿,2024-11-26,26.220358,119.974881,0.06243805
C0O960,崎頂,2024-11-26,22.959547,120.369317,6.0606e-06
C0S750,向陽,2024-11-26,23.248397,120.986133,2.0623503e-08
C0T9F0,水璉,2024-11-26,23.797131,121.542514,1.8824697e-07
C1M600,頭凍,2024-11-26,23.406364,120.603339,4.919691e-09
467660,臺東,2024-11-26,22.752211,121.154586,0.4850763
C1D380,新埔,2024-11-26,24.84745,121.03834,0.8853994
C0V750,路竹,2024-11-26,22.854997,120.259439,0.049131382
C0N050,蚵寮,2024-11-26,23.301,120.1104,0.48329985
72M700,南改鹿草分場,2024-11-26,23.416869,120.283061,0.8358053
C1SA50,利嘉林道,2024-11-26,22.82325,121.009389,1.3013027e-07
467550,玉山,2024-11-26,23.487614,120.959522,2.4022263e-08
C0A940,金山,2024-11-26,25.223628,121.643967,0.6673217
C1V340,大津,2024-11-26,22.888322,120.645986,3.111266e-07
C0W180,七美,2024-11-26,23.219333,119.444892,0.58851725
C1F9C1,白冷,2024-11-26,24.182844,120.929889,3.788411e-09
K2E710,苗改生物防治研究中心,2024-11-26,24.422861,120.871833,1.0048295e-06
C0N040,蘆竹溝,2024-11-26,23.2344,120.0961,0.35796657
C2W230,畜試所澎湖,2024-11-26,23.628342,119.513206,0.48122755
C0R880,後壁湖,2024-11-26,21.9457,120.7457,0.31007722
C1I280,埔中,2024-11-26,23.820778,120.642594,4.937543e-09
467790,墾丁雷達站,2024-11-26,21.948235,120.808028,0.28830734
C0W190,望安,2024-11-26,23.380564,119.494075,0.54120773
466881,新北,2024-11-26,24.9593,121.52,0.92777365
C0Z170,卓溪,2024-11-26,23.3443,121.3029,2.0033106e-06
C0F850,東勢,2024-11-26,24.246428,120.833047,2.0255762e-08
466900,淡水,2024-11-26,25.164889,121.448906,0.99447584
C0I370,魚池,2024-11-26,23.895703,120.94135,3.1256013e-09
C0C630,大溪,2024-11-26,24.882853,121.265547,0.99017173
C0A520,山佳,2024-11-26,24.974944,121.402008,0.85354924
C0I110,竹山,2024-11-26,23.761225,120.688156,2.9322177e-07
82H840,茶改南部分場,2024-11-26,23.762528,120.7405,5.8276535e-09
C0G660,溪湖,2024-11-26,23.94835,120.479122,0.0008815176
C1T800,洛韶,2024-11-26,24.204558,121.453956,2.7111874e-08
C1T810,慈恩,2024-11-26,24.192044,121.388386,2.8198878e-08
C1E451,象鼻,2024-11-26,24.368617,120.940228,2.4405296e-09
C0AC60,三峽,2024-11-26,24.939025,121.369728,0.9944011
C0I490,萬大林道,2024-11-26,23.928228,121.091411,2.0198074e-09
C1I290,豐丘,2024-11-26,23.668178,120.887417,2.969137e-09
C1I320,奧萬大,2024-11-26,23.952956,121.178556,1.9569515e-09
C0U770,南澳,2024-11-26,24.44935,121.81022,4.8879578e-08
C0A980,社子,2024-11-26,25.109508,121.469681,0.9941993
C0V800,六龜,2024-11-26,22.997889,120.633583,2.8022693e-08
C1G9D0,國一S218K,2024-11-26,23.890641,120.493253,0.0027273276
C2F9A0,中竹林,2024-11-26,24.103556,120.751061,1.3743036e-08
C0FA40,臺中電廠,2024-11-26,24.2146,120.4907,0.9974439
C0H9C0,合歡山,2024-11-26,24.143442,121.272547,2.1367105e-08
C0X060,下營,2024-11-26,23.22695,120.256261,0.00015484692
G2M350,農試溪口農場,2024-11-26,23.58565,120.408111,0.0003321011
C0U860,頭城,2024-11-26,24.85323,121.8308,0.21988015
C0R580,南州,2024-11-26,22.48591,120.50274,4.529457e-06
C0D430,峨眉,2024-11-26,24.6905,121.017189,0.7420971
C0G780,秀水,2024-11-26,24.03405,120.503869,0.00016940835
72N100,臺南農改場,2024-11-26,23.0605,120.342194,3.704348e-06
C0S900,蘭嶼高中,2024-11-26,22.04909,121.51214,0.65815467
467540,大武,2024-11-26,22.355675,120.903789,0.9946064
C1F9W0,德基,2024-11-26,24.254783,121.190261,3.6903964e-09
C1Z120,壽豐,2024-11-26,23.870853,121.508081,0.00022525391
C0W160,烏坵,2024-11-26,24.9944,119.44956,0.20732577
C1I240,外大坪,2024-11-26,23.958697,120.917931,3.4066265e-09
C1I550,國六W023K,2024-11-26,23.979067,120.867742,8.765632e-09
C0R870,興海,2024-11-26,21.9752,120.8439,0.26988408
C0R140,瑪家,2024-11-26,22.682903,120.686639,1.1800165e-07
C0A530,坪林,2024-11-26,24.938183,121.70975,0.0003031997
C0X260,後壁,2024-11-26,23.366358,120.362326,0.00024098245
C0Z230,和平,2024-11-26,24.30717,121.77007,6.1957275e-07
C0G770,福興,2024-11-26,24.041289,120.437669,0.9866688
C0H9A0,神木村,2024-11-26,23.532742,120.843667,6.0320557e-09
C0I460,南投,2024-11-26,23.911469,120.687331,8.793296e-07
C0I480,梅峰,2024-11-26,24.085272,121.173572,7.00222e-09
C1V570,吉東,2024-11-26,22.85422,120.5454,8.373968e-06
C2A560,福山,2024-11-26,24.776203,121.502811,6.93514e-05
C0AH30,五分山,2024-11-26,25.07125,121.780794,9.949431e-06
C0FA10,松柏,2024-11-26,24.429115,120.617482,0.8175888
72S200,東改班鳩分場,2024-11-26,22.829528,121.077694,3.5700927e-07
72HA00,中改埔里分場,2024-11-26,23.903208,120.963364,3.3941934e-09
C0C650,平鎮,2024-11-26,24.897503,121.214636,0.9249749
C0S930,延平,2024-11-26,22.902581,121.084058,6.4414703e-06
C0UA60,樟樹山,2024-11-26,24.41393,121.78325,9.779742e-08
C1S670,摩天,2024-11-26,23.199503,121.027,1.9989518e-08
C0V630,茄萣,2024-11-26,22.906642,120.182608,0.058955256
466940,基隆,2024-11-26,25.133314,121.740475,0.41688994
C0X050,東河,2024-11-26,23.296598,120.385608,0.0010659791
C0R770,保力,2024-11-26,22.071122,120.764111,0.8063894
G2L020,農試嘉義分所,2024-11-26,23.485028,120.473806,2.1482588e-06
C0X240,關子嶺,2024-11-26,23.331169,120.508025,2.0489646e-08
C0I380,集集,2024-11-26,23.828206,120.801467,1.6717292e-08
466990,花蓮,2024-11-26,23.975128,121.613275,0.6082987
C1V220,小關山,2024-11-26,23.154217,120.813603,7.688088e-09
C1F9G1,慶福山,2024-11-26,24.180853,120.848378,3.7911936e-09
C0Z250,瑞穗林道,2024-11-26,23.49284,121.30688,1.2716893e-07
C0D590,新豐,2024-11-26,24.87068,120.97721,0.8960194
C0A870,五指山,2024-11-26,25.132153,121.608692,1.0815978e-06
C0UA50,西帽山,2024-11-26,24.555361,121.802628,9.520888e-08
C0X160,仁德,2024-11-26,22.968258,120.257689,0.022827359
C1H971,六分寮,2024-11-26,23.92507,120.6378,4.4004964e-09
C0W120,西嶼,2024-11-26,23.5626,119.468436,0.58578676
C0G650,員林,2024-11-26,23.946503,120.585597,6.238396e-06
C0AD50,鶯歌,2024-11-26,24.951533,121.346294,0.99276555
C0S990,山豬窟,2024-11-26,22.318619,120.857372,0.99952745
72Q010,高雄農改,2024-11-26,22.709333,120.525889,5.5913336e-08
C0X190,安平,2024-11-26,22.993161,120.152181,0.082346775
C0K400,斗六,2024-11-26,23.720583,120.541127,5.6551453e-06
12J990,口湖工作站,2024-11-26,23.589978,120.180394,0.99275506
C0O830,北寮,2024-11-26,23.079561,120.495008,6.563167e-08
C1D410,白蘭,2024-11-26,24.579364,121.079947,1.1743254e-08
C0S970,加津林,2024-11-26,22.416211,120.926942,0.99621433
C0D700,關西,2024-11-26,24.7977,121.1732,0.8416309
C0M810,里佳,2024-11-26,23.389125,120.716647,3.9961043e-09
C0U750,龜山島,2024-11-26,24.841667,121.953133,0.7903257
C0R810,內獅,2024-11-26,22.305064,120.642986,0.98509026
C1M390,龍美,2024-11-26,23.406728,120.654417,4.0962567e-09
C1H840,國三N238K,2024-11-26,23.841008,120.707711,9.51602e-09
CAQ030,崎峰國小,2024-11-26,22.42565,120.49521,4.529457e-06
C2E520,大湖,2024-11-26,24.414939,120.870872,5.862943e-07
467530,阿里山,2024-11-26,23.508208,120.813242,9.078448e-09
C1E691,南湖,2024-11-26,24.40135,120.837533,2.844662e-08
C0FA30,梧棲,2024-11-26,24.256003,120.523381,0.9925199
C1V231,高中,2024-11-26,23.134911,120.716711,4.0496846e-09
C0F9V0,新社,2024-11-26,24.200172,120.815806,6.974841e-09
C0H890,埔里,2024-11-26,23.972169,120.952425,5.2176015e-09
C0R690,墾丁,2024-11-26,21.966756,120.810269,0.9213001
C0F0D0,審馬陣,2024-11-26,24.381675,121.4203,2.0030125e-08
C0R820,白鷺,2024-11-26,22.454275,120.666219,1.5813506e-05
U2H480,臺大溪頭,2024-11-26,23.670306,120.798194,3.0462572e-09
C1V190,南天池,2024-11-26,23.27403,120.91176,2.281525e-08
K2E360,苗栗農改場,2024-11-26,24.495722,120.829111,0.9623445
CAJ050,海口故事園區,2024-11-26,23.57543,120.14121,0.99275506
C0O990,媽廟,2024-11-26,22.99175,120.293525,1.3876766e-05
C0D480,打鐵坑,2024-11-26,24.849664,121.150789,0.9900106
C0Z220,和平林道,2024-11-26,24.343922,121.656317,1.33736675e-08
72C440,桃園農改場,2024-11-26,24.950944,121.030583,0.9841243
C1E711,馬拉邦山,2024-11-26,24.367306,120.901656,2.3677262e-09
C0D560,竹東,2024-11-26,24.767147,121.057881,0.82963395
C0F9U0,南屯,2024-11-26,24.137006,120.637969,7.94084e-06
C0M720,番路,2024-11-26,23.464657,120.554156,8.660655e-08
C0F0A0,雪山圈谷,2024-11-26,24.388594,121.236339,2.7451925e-08
C1A9N0,四十份,2024-11-26,24.934158,121.593283,0.06249902
C0U760,東澳,2024-11-26,24.52196,121.83318,1.4241309e-06
C0X230,鹽水,2024-11-26,23.272621,120.247641,0.4846165
C0V370,古亭坑,2024-11-26,22.893178,120.401947,3.836296e-05
C1I340,新興橋,2024-11-26,23.563333,120.868728,8.199349e-09
C0SA80,土坂,2024-11-26,22.453108,120.887572,0.9994913
C0R160,鹽埔,2024-11-26,22.739558,120.530778,5.5885828e-08
C0AC40,大屯山,2024-11-26,25.175675,121.522408,1.2579724e-06
466850,五分山雷達站,2024-11-26,25.071182,121.781205,9.179822e-06
C1AI50,國三N016K,2024-11-26,25.034164,121.619664,0.7360195
C1V600,藤枝,2024-11-26,23.071961,120.757042,8.7284935e-09
C1E601,南勢,2024-11-26,24.572486,120.734842,0.26075077
C0Z180,新城,2024-11-26,24.03946,121.60454,0.5772626
C0O980,新市,2024-11-26,23.061614,120.298197,7.3487186e-06
C0K420,西螺,2024-11-26,23.800407,120.467394,0.00046741022
C0Z050,佳心,2024-11-26,23.34567,121.21316,1.9421975e-08
C0AD30,蘆洲,2024-11-26,25.086594,121.472331,0.8213903
C0V610,梓官,2024-11-26,22.760558,120.267211,0.0019369298
K2F750,種苗改良場,2024-11-26,24.225972,120.800917,1.183617e-08
C0UA80,大溪漁港,2024-11-26,24.941801,121.902955,0.32142156
C1AI60,國一39K邊坡,2024-11-26,25.064361,121.383836,0.55604887
C0W150,金寧,2024-11-26,24.457703,118.328989,0.96492577
V2C250,八德合作社,2024-11-26,24.93775,121.266389,0.97807103
C0AH40,平等,2024-11-26,25.129142,121.577086,1.8869481e-05
C0R540,佳冬,2024-11-26,22.419456,120.552375,0.9712961
466950,彭佳嶼,2024-11-26,25.627975,122.079744,0.58274525
C0A890,雙溪,2024-11-26,25.036003,121.864242,0.31591347
C0C480,桃園,2024-11-26,24.992425,121.323172,0.91754115
C0AH50,林口,2024-11-26,25.072181,121.38084,0.41723117
A2K360,水試臺西試驗場,2024-11-26,23.717231,120.190522,0.99460876
B2N890,畜試所,2024-11-26,23.058972,120.336406,3.704348e-06
C0F9S0,烏日,2024-11-26,24.107058,120.624103,4.9430246e-06
C0C490,八德,2024-11-26,24.928708,121.283289,0.976734
C0R190,赤山,2024-11-26,22.592333,120.614306,4.5341448e-08
C0T820,天祥,2024-11-26,24.179597,121.495639,7.3190324e-07
C1F9E1,龍安,2024-11-26,24.1605,120.831961,5.240261e-09
C0V820,小林,2024-11-26,23.148408,120.63325,6.616822e-09
C2G870,芳苑,2024-11-26,23.922303,120.320025,0.83536136
C0E850,大河,2024-11-26,24.618069,120.948578,0.9197989
C1U670,寒溪,2024-11-26,24.634,121.71691,1.837465e-06
C0N020,城西,2024-11-26,23.0568,120.0956,0.082346775
C1Z110,三棧,2024-11-26,24.11557,121.60501,1.6927736e-07
C0R280,檳榔,2024-11-26,22.076078,120.836777,0.9913886
C0F9L0,后里,2024-11-26,24.310436,120.729725,3.508952e-08
C0D540,橫山,2024-11-26,24.71116,121.11693,0.94551885
C1D420,太閣南,2024-11-26,24.632808,121.160575,6.52603e-08
C1E770,公館,2024-11-26,24.526914,120.830806,0.95846784
CAN130,水試所海水繁養殖中心,2024-11-26,23.120802,120.07968,0.2422826
C1I430,翠華,2024-11-26,24.191961,121.224339,1.1827233e-08
C1M400,菜瓜坪,2024-11-26,23.251928,120.576103,1.3636242e-08
C0G730,二林,2024-11-26,23.903325,120.376081,0.9902735
72M360,南改義竹分場,2024-11-26,23.360694,120.279361,0.8816434
V2K620,麥寮合作社,2024-11-26,23.753836,120.294783,0.9897123
C0Z070,舞鶴,2024-11-26,23.46811,121.37407,1.5458911e-06
C0B040,大武崙,2024-11-26,25.166676,121.706993,0.4119046
C1Z030,紅葉,2024-11-26,23.493119,121.338806,7.3881824e-06
C1I050,丹大,2024-11-26,23.753747,121.141147,3.7304613e-08
C0I080,信義,2024-11-26,23.689694,120.851036,4.531754e-07
C2A880,福隆,2024-11-26,25.017842,121.942083,0.2244233
C0Z160,鳳林,2024-11-26,23.746114,121.453411,9.903601e-07
C0V210,復興,2024-11-26,23.222403,120.806089,3.312402e-08
C0H990,昆陽,2024-11-26,24.121322,121.273642,3.796022e-08
C0S710,鹿野,2024-11-26,22.917711,121.122994,1.4888077e-08
C0I530,小奇萊,2024-11-26,24.131764,121.295717,3.8876358e-08
C0Z080,富源,2024-11-26,23.587642,121.378225,2.411813e-07
467441,高雄,2024-11-26,22.7304,120.3125,0.0012411253
C1I140,卡奈托灣,2024-11-26,23.754364,121.087872,2.8950677e-09
C0I520,玉山風口,2024-11-26,23.470489,120.955994,3.1750723e-08
C1G691,下水埔,2024-11-26,23.816114,120.5676,5.497211e-06
C0X110,臺南市南區,2024-11-26,22.961189,120.188378,0.022827359
C0V680,仁武,2024-11-26,22.701083,120.347722,0.076735556
C2G840,北斗,2024-11-26,23.877586,120.514222,0.0022045244
C0R900,竹坑,2024-11-26,22.1385,120.7022,0.22930522
C0K250,崙背,2024-11-26,23.75555,120.318925,0.9897481
C0G860,社頭,2024-11-26,23.897647,120.5862,1.4628538e-05
C0X150,安定,2024-11-26,23.102614,120.227839,0.00032415823
C0R590,里港,2024-11-26,22.77919,120.49459,4.0474424e-06
C0E610,馬都安,2024-11-26,24.451272,120.930192,2.029633e-08
C0E550,明德,2024-11-26,24.583486,120.885411,0.81320846
C0R150,三地門,2024-11-26,22.709889,120.639944,0.011771096
C0G910,花壇,2024-11-26,24.032076,120.549461,0.00010229996
C1D400,鳥嘴山,2024-11-26,24.71909,121.28387,3.1862597e-05
C0K500,元長,2024-11-26,23.64981,120.315024,0.9834571
C0F0B0,石岡,2024-11-26,24.276061,120.777644,2.3479577e-08
C2V250,甲仙,2024-11-26,23.080106,120.591758,5.291787e-09
C0SA20,金崙山,2024-11-26,22.567419,120.959667,3.0261525e-08
C0V350,溪埔,2024-11-26,22.738578,120.446797,2.7877192e-07
C0M660,溪口,2024-11-26,23.604131,120.403569,0.00032995324
C1S880,壽卡,2024-11-26,22.238911,120.858903,0.9998657
72D680,桃改新埔分場,2024-11-26,24.834444,121.066111,0.87900305
