站號,站名,日期,lat,lon,BLBTSLS
C0R710,龍磐,2024-01-15,21.931672,120.838942,0.30919144
C1F9D1,白毛台,2024-01-15,24.158325,120.886933,9.409223e-10
C0G940,竹塘,2024-01-15,23.848253,120.386764,3.087601e-10
467590,恆春,2024-01-15,22.003897,120.746339,0.9946558
C1O850,環湖,2024-01-15,23.148617,120.418633,5.037614e-10
C0U710,太平山,2024-01-15,24.505486,121.525656,2.137905e-08
C0E820,獅潭,2024-01-15,24.539133,120.920042,1.5171203e-09
C0V880,興達,2024-01-15,22.8778,120.2127,4.978478e-10
C0S890,關山,2024-01-15,23.0395,121.175017,1.0597108e-09
K2F750,種苗繁殖,2024-01-15,24.225972,120.800917,5.6067495e-10
C1Z130,銅門,2024-01-15,23.965694,121.492842,6.4093064e-09
C0AD40,土城,2024-01-15,24.973208,121.445169,6.1397865e-09
CAN140,六官養殖協會,2024-01-15,23.22881,120.29962,1.167874e-09
C0X180,山上,2024-01-15,23.0757,120.363253,5.484385e-10
C0F9Z0,雪山東峰,2024-01-15,24.388792,121.268675,2.7685973e-08
C1M480,獨立山,2024-01-15,23.537022,120.607797,7.387299e-10
C0X220,學甲,2024-01-15,23.230367,120.182187,2.681567e-10
C0R170,屏東,2024-01-15,22.660269,120.494072,4.5182985e-10
467650,日月潭,2024-01-15,23.881325,120.90805,2.4348756e-09
C0K600,箔子寮,2024-01-15,23.6197,120.14,3.0072664e-09
C0G830,埤頭,2024-01-15,23.866003,120.452806,4.3197534e-10
C0S950,七塊厝,2024-01-15,22.954453,121.229922,1.6235738e-09
467110,金門,2024-01-15,24.407306,118.289281,1.5927583e-08
C0AH80,深坑,2024-01-15,25.002703,121.628328,5.7192984e-09
467990,馬祖,2024-01-15,26.169269,119.923419,1.8665466e-08
C0A970,三貂角,2024-01-15,25.007606,122.002058,2.761908e-09
C0K430,褒忠,2024-01-15,23.690938,120.303634,3.2042713e-10
467480,嘉義,2024-01-15,23.495925,120.432906,3.6441405e-09
C2E540,後龍,2024-01-15,24.606489,120.783933,1.1001293e-09
C0V400,阿公店,2024-01-15,22.804194,120.355528,5.5219096e-10
C0R440,大漢山,2024-01-15,22.405264,120.753181,1.589511e-08
C0K280,四湖,2024-01-15,23.630414,120.227125,1.7011047e-09
C1F9B1,桐林,2024-01-15,24.066172,120.735194,4.212208e-10
C0K390,土庫,2024-01-15,23.679029,120.395574,5.623414e-10
C1I450,望鄉山,2024-01-15,23.594153,120.944286,1.6492557e-08
C0E910,海埔,2024-01-15,24.648767,120.772435,1.1151756e-09
B2E890,畜試北區分所,2024-01-15,24.527806,120.770972,9.66117e-10
C0R750,四林格山,2024-01-15,22.076989,120.802439,1.4499111e-06
C0F0C0,中坑,2024-01-15,24.248517,120.903319,2.3794338e-09
C1I121,大鞍,2024-01-15,23.678381,120.760017,6.668045e-09
72U480,花改蘭陽分場,2024-01-15,24.686306,121.716583,1.2880719e-09
C0A770,科教館,2024-01-15,25.096356,121.516507,8.855452e-09
C0AJ60,六塊厝,2024-01-15,25.24,121.4481,5.409795e-08
C0R620,墾雷,2024-01-15,21.900836,120.855269,0.11982218
467420,永康,2024-01-15,23.038386,120.2367,1.7132338e-09
467300,東吉島,2024-01-15,23.25695,119.667467,0.9987811
C0I410,名間,2024-01-15,23.837053,120.701447,5.012799e-10
A2C560,農工中心,2024-01-15,24.985917,121.239833,1.0255081e-08
C0V740,旗山,2024-01-15,22.888614,120.483597,5.7513694e-10
C0Z061,玉里,2024-01-15,23.3215,121.339656,2.3306312e-09
C0S840,南田,2024-01-15,22.279725,120.889208,0.9996363
C1I470,杉林溪,2024-01-15,23.639517,120.786444,8.042845e-09
C1X040,東原,2024-01-15,23.291597,120.463822,4.0437698e-10
C0R660,枋寮,2024-01-15,22.367722,120.590647,6.266223e-09
C1R120,上德文,2024-01-15,22.763272,120.704442,1.0394778e-09
C0K450,大埤,2024-01-15,23.646074,120.431537,1.2647229e-09
C0UA00,土場,2024-01-15,24.576533,121.495333,7.096878e-09
467080,宜蘭,2024-01-15,24.763975,121.756528,9.630041e-10
C0N030,四草,2024-01-15,23.0235,120.1116,4.9370413e-10
C0V650,彌陀,2024-01-15,22.783806,120.246361,3.675986e-10
C0D660,新竹市東區,2024-01-15,24.798681,120.986942,4.9904023e-09
82S580,茶改東部分場,2024-01-15,22.907694,121.130139,3.4588412e-09
C0C710,大溪永福,2024-01-15,24.892936,121.324975,1.205878e-08
C0FA20,溫寮,2024-01-15,24.372177,120.583125,1.1642265e-09
C0V640,湖內,2024-01-15,22.887139,120.2445,4.8854926e-10
C0R910,下寮,2024-01-15,22.3929,120.5548,6.266223e-09
C0Z020,明里,2024-01-15,23.208717,121.262342,2.8660474e-09
C0M770,嘉義梅山,2024-01-15,23.585398,120.555587,5.5547833e-10
G2F820,農業試驗所,2024-01-15,24.031261,120.688133,5.539569e-10
C0C660,楊梅,2024-01-15,24.912375,121.143047,1.5831692e-08
C1E511,新開,2024-01-15,24.347703,120.827019,7.62171e-10
G2F820,農試所(霧峰),2024-01-15,24.031261,120.688133,5.539569e-10
C1I070,和社,2024-01-15,23.591131,120.888861,2.346448e-09
C2F000,大肚,2024-01-15,24.15295,120.572117,4.4188295e-10
C1S850,豐南,2024-01-15,23.122139,121.262389,2.368589e-09
C2A920,富貴角,2024-01-15,25.263783,121.565258,2.9325607e-08
CAH030,茶改場竹圍站,2024-01-15,23.860083,120.637528,4.2016243e-10
C0T960,光復,2024-01-15,23.660694,121.424964,1.2876297e-09
C0F9M0,豐原,2024-01-15,24.254322,120.720692,5.0919335e-10
C0R720,旭海,2024-01-15,22.205403,120.887614,0.07793517
C0V710,苓雅,2024-01-15,22.622742,120.330669,2.676697e-10
C0C740,觀音工業區,2024-01-15,25.064764,121.114856,3.4713216e-07
CAC040,拉拉山,2024-01-15,24.699317,121.427133,2.6123011e-08
C0V790,萬山,2024-01-15,22.905944,120.688056,8.288182e-10
U2HA30,臺大和社,2024-01-15,23.590856,120.888864,2.346448e-09
C0AJ90,澳底,2024-01-15,25.0552,121.9253,2.9201623e-09
C0Z100,東華,2024-01-15,23.89525,121.549833,4.0130304e-09
C0G970,三豐,2024-01-15,23.882,120.2895,3.6327583e-07
V2K610,大庄合作社,2024-01-15,23.8068,120.367939,3.1611047e-10
C0V900,汕尾,2024-01-15,22.4782,120.4151,2.1494753e-09
C1R630,龍泉,2024-01-15,22.66701,120.59091,1.5806849e-09
C1AC50,關渡,2024-01-15,25.133486,121.469331,1.3300658e-08
C0F9I0,神岡,2024-01-15,24.272481,120.658314,6.8938677e-10
C0K460,斗南,2024-01-15,23.678734,120.478359,1.2337914e-09
467410,臺南,2024-01-15,22.993239,120.204772,4.886098e-10
C2O810,曾文,2024-01-15,23.219681,120.497328,4.689254e-10
467280,後龍,2024-01-15,24.648563,120.831834,1.0662636e-09
C1F9J1,清水林,2024-01-15,24.071242,120.820419,1.0125051e-09
C2A650,火燒寮,2024-01-15,25.002719,121.742892,3.33591e-09
466930,竹子湖,2024-01-15,25.162078,121.544547,7.258846e-09
C1I220,樟湖,2024-01-15,23.905333,120.846983,2.5237603e-09
C0I390,仁愛,2024-01-15,24.022122,121.132206,2.6723215e-09
C0Z300,東里,2024-01-15,23.26853,121.30547,2.7371028e-09
C0V310,美濃,2024-01-15,22.898742,120.519153,5.978836e-10
C1V590,新發,2024-01-15,23.057019,120.646064,1.8375338e-09
C0K510,水林,2024-01-15,23.572924,120.24597,6.630779e-10
72S590,東改賓朗果園,2024-01-15,22.813889,121.071278,5.5907684e-08
82A750,茶改北部分場,2024-01-15,24.955778,121.631222,9.117562e-09
C1A750,石碇服務區,2024-01-15,25.00872,121.646242,6.8274097e-09
C0X300,鹿寮,2024-01-15,23.386047,120.477331,9.1846336e-10
G2AI50,關渡,2024-01-15,25.11575,121.492,2.3374348e-08
C0K590,雲林東勢,2024-01-15,23.674192,120.255721,3.5839348e-10
C0A570,桶後,2024-01-15,24.848222,121.597992,5.019499e-09
C1S800,華源,2024-01-15,22.657883,121.02325,7.8701055e-09
C0G720,溪州,2024-01-15,23.851589,120.499093,4.3114562e-10
C1V160,達卡努瓦,2024-01-15,23.279811,120.705319,3.169359e-09
C2M410,馬頭山,2024-01-15,23.324361,120.582017,4.2331003e-10
C0V850,蚵仔寮,2024-01-15,22.7256,120.2527,2.9139408e-10
C0S740,池上,2024-01-15,23.119628,121.209469,1.9060085e-09
C1V390,尖山,2024-01-15,22.813153,120.367789,5.1924914e-10
C0AH70,松山,2024-01-15,25.04871,121.55042,8.504048e-09
C0N010,鯤鯓國小,2024-01-15,23.1879,120.0889,3.0553743e-10
C0R550,新埤,2024-01-15,22.467947,120.582894,1.7993893e-09
C0SA60,知本（水試所）,2024-01-15,22.702394,121.082761,1.0166662e-08
C0T9I0,豐濱,2024-01-15,23.583897,121.514806,1.5045362e-09
C0UB00,淡江大學蘭陽校園,2024-01-15,24.823239,121.730383,5.376741e-09
C0T9N0,富里,2024-01-15,23.171639,121.249378,2.1858664e-09
U2HA50,臺大竹山,2024-01-15,23.756972,120.681556,6.412385e-10
C0V840,鳳鼻頭,2024-01-15,22.5083,120.3591,2.3003381e-10
C0X140,西港,2024-01-15,23.125608,120.203108,8.236147e-10
72D080,桃改五峰分場,2024-01-15,24.612194,121.157167,6.6891137e-09
C0V530,阿蓮,2024-01-15,22.883208,120.327508,6.8301154e-10
C1O880,關山,2024-01-15,23.173397,120.594092,2.7604533e-10
C0E791,卓蘭,2024-01-15,24.3126,120.8244,5.6037025e-10
C1I030,武界,2024-01-15,23.913225,121.052483,1.7227989e-09
C0R520,崁頂,2024-01-15,22.514781,120.506914,6.6504624e-10
C0R341,牡丹,2024-01-15,22.130036,120.792639,0.4171347
C0R930,萬丹,2024-01-15,22.5885,120.4851,3.5835518e-10
C0S760,紅石,2024-01-15,23.069131,121.126219,1.5896262e-08
C1M610,石磐龍,2024-01-15,23.496606,120.663506,2.5978706e-09
C0UA10,鴛鴦湖,2024-01-15,24.590269,121.412228,1.6422117e-08
V2C260,八德蔬果,2024-01-15,24.978508,121.281819,8.734239e-09
C0R800,丹路,2024-01-15,22.204481,120.750989,0.71745104
C0G920,永靖,2024-01-15,23.924703,120.547533,3.9444495e-10
C1A630,下盆,2024-01-15,24.771003,121.538622,5.982466e-09
B2N890,畜產試驗所,2024-01-15,23.058972,120.336406,1.2649641e-09
C0UA30,白嶺,2024-01-15,24.527819,121.519031,1.7442385e-08
C1V580,溪南(特生中心),2024-01-15,23.084972,120.788475,4.1667514e-09
C1T970,大農,2024-01-15,23.615233,121.413331,1.6051362e-09
E2S960,林試太麻里2,2024-01-15,22.598014,120.989761,1.4376943e-08
C0R650,竹田,2024-01-15,22.58486,120.54344,7.470203e-10
C1H900,清流,2024-01-15,24.080775,120.962997,1.6501986e-09
C1C510,水尾,2024-01-15,24.940081,121.087161,4.134966e-08
C0F9X0,大雅(中科園區),2024-01-15,24.21528,120.62445,4.4363357e-10
C0O970,虎頭埤,2024-01-15,23.021375,120.347878,7.110641e-10
C0C730,中大臨海站,2024-01-15,24.966126,121.008581,7.127689e-08
C0X250,新營,2024-01-15,23.310689,120.316681,1.2104031e-09
C0V700,三民,2024-01-15,22.645017,120.311233,2.4034752e-10
C0U870,大礁溪,2024-01-15,24.791042,121.675047,5.519764e-09
C0E870,高鐵苗栗,2024-01-15,24.60725,120.826094,1.0777054e-09
A2K570,古坑花卉中心,2024-01-15,23.63353,120.55239,7.645151e-10
C0M860,新美,2024-01-15,23.338017,120.683169,8.1352103e-10
C1E701,八卦,2024-01-15,24.491756,120.927619,3.5990069e-09
C0I420,國姓,2024-01-15,24.037803,120.855072,4.6272028e-10
C0S960,香蘭,2024-01-15,22.587569,120.993375,1.4376943e-08
C0R260,春日,2024-01-15,22.370361,120.628306,2.494843e-09
72G600,臺中農改場,2024-01-15,24.003028,120.534389,3.8224132e-10
C0Z210,瑞穗,2024-01-15,23.5239,121.39021,1.5677798e-09
C0M820,達邦,2024-01-15,23.453994,120.749517,1.8655917e-09
C0V860,南寮,2024-01-15,22.7616,120.2339,2.9127126e-10
C0G740,大城,2024-01-15,23.852487,120.320935,3.228997e-07
C0R920,塭仔,2024-01-15,22.4169,120.5197,6.766853e-09
C0R470,高樹,2024-01-15,22.826389,120.600806,7.50661e-10
C0R680,佳樂水,2024-01-15,21.993578,120.861633,0.2846262
C1O870,大棟山,2024-01-15,23.31157,120.52226,2.7078269e-09
C0D360,梅花,2024-01-15,24.678347,121.208558,3.3695335e-09
C0Z190,富世,2024-01-15,24.14743,121.6297,2.5239926e-08
C0AI10,屈尺,2024-01-15,24.92184,121.54475,1.1781528e-08
B2U990,畜試東區分所,2024-01-15,24.669039,121.832561,1.0607685e-09
C0R240,來義,2024-01-15,22.527306,120.625111,5.394324e-10
C1R610,西大武山,2024-01-15,22.617719,120.7322,2.2153573e-08
C0G900,線西,2024-01-15,24.143358,120.443536,3.000716e-10
C0M700,竹崎,2024-01-15,23.526178,120.555508,8.13923e-10
C2E880,三義,2024-01-15,24.405478,120.749819,1.4214074e-09
C0C720,竹圍,2024-01-15,25.112692,121.239824,2.3368953e-08
C0F9P0,清水,2024-01-15,24.312297,120.562242,6.5725936e-10
C0Z150,吉安光華,2024-01-15,23.930925,121.595153,7.600317e-09
C1D640,外坪(五指山),2024-01-15,24.644447,121.090961,4.4375397e-09
C0F9O0,潭子,2024-01-15,24.213106,120.703933,4.5562468e-10
72T250,花蓮農改場,2024-01-15,23.975222,121.563889,7.244613e-09
C0E780,銅鑼,2024-01-15,24.489681,120.790853,9.513855e-10
C1T950,太安,2024-01-15,23.666719,121.370128,1.6661522e-08
C0E830,苑裡,2024-01-15,24.439714,120.653053,1.5474413e-09
467270,田中,2024-01-15,23.873803,120.581286,8.398766e-10
C0SA10,檳榔四格山,2024-01-15,22.810031,121.109308,2.9072428e-08
C1T830,布洛灣,2024-01-15,24.17184,121.57127,1.5623597e-08
C0F970,大坑,2024-01-15,24.173142,120.722289,4.2394352e-10
C1U920,思源,2024-01-15,24.393125,121.347214,1.0829975e-08
C0A931,三和,2024-01-15,25.233153,121.595236,7.65261e-09
C0I010,廬山,2024-01-15,24.033311,121.181808,5.14322e-09
C0R860,鼻頭,2024-01-15,22.1043,120.8979,0.9545138
C0UB20,壯圍,2024-01-15,24.7359,121.8163,1.2394521e-09
C0R790,九棚,2024-01-15,22.14195,120.889281,0.77038205
C0W110,東莒,2024-01-15,25.9652,119.98069,1.6110937e-08
C1U930,粉鳥林,2024-01-15,24.497088,121.842479,1.1116715e-09
C1I211,蘆竹湳,2024-01-15,23.934019,120.811994,6.076476e-10
C0S830,長濱,2024-01-15,23.286817,121.411975,2.610004e-09
C1F9F1,伯公龍,2024-01-15,24.272392,120.849047,8.6866525e-10
C0E810,西湖,2024-01-15,24.562947,120.7485,2.3827036e-09
C1I440,新高口,2024-01-15,23.478744,120.878939,1.1127922e-08
C0O840,王爺宮,2024-01-15,23.222064,120.40085,1.1243315e-09
C0T9G0,鳳林山,2024-01-15,23.735269,121.420131,6.6850196e-09
C0X080,佳里,2024-01-15,23.173039,120.145086,3.056196e-10
C0Z310,清水斷崖,2024-01-15,24.218294,121.689142,4.2732258e-09
C0M680,太保,2024-01-15,23.455062,120.331455,3.1114389e-09
C1S820,金峰,2024-01-15,22.590969,120.933236,1.0222234e-08
C0AD10,八里,2024-01-15,25.150211,121.403947,2.3368953e-08
C2K240,草嶺,2024-01-15,23.59555,120.693461,2.2150437e-09
C1SA70,都蘭,2024-01-15,22.87794,121.226881,5.3351323e-09
C0K440,二崙,2024-01-15,23.772797,120.408944,4.5552734e-10
C1A760,坪林交控,2024-01-15,24.94284,121.713442,3.3874155e-09
C0F9N0,大里,2024-01-15,24.092464,120.701378,4.1604037e-10
C0SA90,達仁林場,2024-01-15,22.264347,120.823972,5.405282e-07
C1R290,石門山,2024-01-15,22.112611,120.756597,0.0041338187
42HA10,萬大發電廠,2024-01-15,23.978875,121.139639,2.5948745e-09
C0R890,山海,2024-01-15,21.9878,120.7091,0.04956688
C0T9A0,月眉山,2024-01-15,23.809928,121.539828,4.436863e-09
C0AC70,信義,2024-01-15,25.037822,121.564597,8.505946e-09
C0K560,棋山,2024-01-15,23.68645,120.603417,7.442087e-10
C1Z240,中平林道,2024-01-15,23.42115,121.26763,1.9448999e-08
U2H480,溪頭,2024-01-15,23.670306,120.798194,3.6872232e-09
C0M880,好美里,2024-01-15,23.3364,120.138,3.1124228e-10
C0T9E0,大坑,2024-01-15,23.880628,121.581981,4.744785e-09
C0K530,臺西,2024-01-15,23.701547,120.197559,1.6645821e-09
C1E900,國一N128K,2024-01-15,24.560997,120.844186,1.1132587e-09
C0AJ50,水湳洞,2024-01-15,25.123695,121.862238,4.4815405e-09
C0AI20,白沙灣,2024-01-15,25.283128,121.519058,5.0731703e-08
C0A860,大坪,2024-01-15,25.165914,121.632969,6.330396e-09
C1U850,觀音海岸,2024-01-15,24.38319,121.77856,4.0939834e-09
C0U950,鶯子嶺,2024-01-15,24.89754,121.79244,1.2228719e-08
C0O900,善化,2024-01-15,23.112883,120.297219,1.3964936e-09
C0K550,蔦松,2024-01-15,23.514319,120.229736,5.3600685e-10
E2P980,林試六龜中心,2024-01-15,22.991703,120.645722,3.4762404e-10
C0E590,通霄,2024-01-15,24.471892,120.704622,1.8798483e-08
C1I310,西巒,2024-01-15,23.754486,120.883956,3.3393603e-09
C0A550,泰平,2024-01-15,24.971197,121.823711,7.845406e-09
C0I360,水里,2024-01-15,23.812553,120.849792,3.6317876e-10
C0R830,高士,2024-01-15,22.121825,120.836781,0.00012945986
C1I101,溪頭,2024-01-15,23.661789,120.807647,1.09875415e-08
C0AJ20,野柳,2024-01-15,25.20703,121.690021,8.823031e-09
C0B060,暖暖,2024-01-15,25.0957,121.7403,6.2866223e-09
C1H920,長豐,2024-01-15,24.102039,120.879897,1.1897866e-09
C0V360,內門,2024-01-15,22.975481,120.466769,6.6843914e-10
C0R850,林邊,2024-01-15,22.4634,120.5339,2.0587767e-09
C0E930,龍鳳,2024-01-15,24.700034,120.859125,2.7453744e-09
C0U910,冬山,2024-01-15,24.63373,121.7937,1.0607685e-09
C1E721,泰安,2024-01-15,24.489017,120.968036,6.8147896e-09
82H320,茶改中部分場,2024-01-15,23.875611,120.913583,1.9186541e-09
C0M750,布袋,2024-01-15,23.380878,120.167789,5.5711025e-10
C1S860,利嘉,2024-01-15,22.809417,121.050528,9.136973e-09
72C440,桃園農改,2024-01-15,24.950944,121.030583,6.216537e-08
E2S980,林試太麻里1,2024-01-15,22.598922,120.980044,1.2261885e-08
C0X170,關廟,2024-01-15,22.963017,120.327797,9.247952e-10
C0V720,林園,2024-01-15,22.507747,120.394511,2.2742758e-10
C1I510,線浸林道,2024-01-15,23.761508,120.832956,3.9598897e-09
C0D690,外湖,2024-01-15,24.917735,120.968711,8.983798e-08
C0C750,新興坑尾,2024-01-15,25.0061,121.0971,4.9091387e-08
B2Q810,畜試南區分所,2024-01-15,21.945583,120.802167,0.2666424
C0S790,金崙,2024-01-15,22.538122,120.966875,2.1570084e-08
C0AH90,福山植物園,2024-01-15,24.760717,121.58135,1.2241671e-08
C0I540,奇萊稜線,2024-01-15,24.109231,121.326456,2.077059e-08
C0M850,表湖,2024-01-15,23.24186,120.64166,1.7830994e-09
C0S770,大溪山,2024-01-15,22.478475,120.943325,2.989562e-08
C0AG80,中和,2024-01-15,24.991622,121.491792,6.1397865e-09
C0T790,大禹嶺,2024-01-15,24.186117,121.316086,1.4219044e-08
C0T9B0,水源,2024-01-15,23.991861,121.537169,6.880118e-09
C0R840,牡丹池山,2024-01-15,22.168389,120.841225,2.1981417e-05
C1I131,桶頭,2024-01-15,23.641944,120.654117,6.50367e-10
CAL110,布袋國中,2024-01-15,23.35893,120.18026,5.5711025e-10
467571,新竹,2024-01-15,24.827853,121.014219,5.1469513e-08
C0Z290,赤柯山,2024-01-15,23.36893,121.38293,1.2441993e-08
C0X280,將軍,2024-01-15,23.214999,120.13577,2.7069064e-10
C0S690,太麻里,2024-01-15,22.60902,120.98533,8.793614e-09
C0U880,北關,2024-01-15,24.9072,121.8734,2.7441545e-09
C1H860,瑞岩,2024-01-15,24.123772,121.18345,1.0745839e-08
C0G810,埔心,2024-01-15,23.947633,120.525456,3.945578e-10
C0U970,大福,2024-01-15,24.80064,121.81389,9.537856e-10
C1E670,南礦,2024-01-15,24.538278,121.002836,7.197674e-09
C0M520,東後寮,2024-01-15,23.369908,120.248065,5.514058e-10
C1E461,松安,2024-01-15,24.397972,120.986022,5.5110956e-09
72G600,臺中農改,2024-01-15,24.003028,120.534389,3.8224132e-10
C2N160,西拉雅風管處,2024-01-15,23.189481,120.335297,1.4788166e-09
C0A640,石碇,2024-01-15,24.993969,121.662917,6.155358e-09
E2S960,林試太麻里2,2024-01-15,22.598,120.99775,1.4473544e-08
C0F9Y0,桃山,2024-01-15,24.432739,121.303808,2.551364e-08
C1I020,萬大,2024-01-15,23.979817,121.132261,2.6956704e-09
C0U940,羅東,2024-01-15,24.68184,121.74934,1.2769734e-09
C0M650,朴子,2024-01-15,23.43463,120.23902,1.3521785e-09
C1I500,大尖山,2024-01-15,23.858572,120.994889,7.559575e-09
C0G820,田尾,2024-01-15,23.901669,120.509389,3.9444495e-10
E2K600,四湖植物園,2024-01-15,23.676986,120.163433,1.7011047e-09
C0S730,綠島,2024-01-15,22.6672,121.47533,0.9827147
12Q970,東港工作站,2024-01-15,22.479997,120.466058,2.1661686e-09
C0E430,南庄,2024-01-15,24.601775,121.000214,1.5266618e-09
C1TA00,太魯閣,2024-01-15,24.15773,121.6236,2.3566438e-08
466920,臺北,2024-01-15,25.037658,121.514853,8.504031e-09
C0R600,舊泰武,2024-01-15,22.588194,120.664944,1.0429214e-09
C1I260,北坑,2024-01-15,23.9246,121.006903,6.596229e-10
466910,鞍部,2024-01-15,25.182586,121.529731,1.0492668e-08
C1I230,九份二山,2024-01-15,23.961944,120.845,1.4140172e-09
C2A660,瑞芳,2024-01-15,25.113169,121.801147,4.4481747e-09
C0R270,琉球嶼,2024-01-15,22.332244,120.362236,1.4643449e-09
C1T990,高寮,2024-01-15,23.394239,121.356808,2.1032058e-09
C0G620,芬園,2024-01-15,24.015678,120.6213,5.666708e-10
C1Z140,荖溪,2024-01-15,23.890575,121.45964,2.0503093e-08
C1I201,中心崙,2024-01-15,23.728722,120.712097,7.466442e-10
C1I400,凌霄,2024-01-15,24.018778,121.004456,4.1156394e-09
C1M640,十字,2024-01-15,23.492153,120.753683,5.515007e-09
G2P820,農試鳳山分所,2024-01-15,22.646611,120.356083,2.352698e-10
C0Z270,蕃薯寮,2024-01-15,23.73835,121.540108,5.08553e-09
C0F9Q0,外埔,2024-01-15,24.347817,120.705686,8.6249563e-10
C0K580,高鐵雲林,2024-01-15,23.737456,120.417944,4.827654e-10
C2I090,鳳凰,2024-01-15,23.728081,120.787347,1.7747492e-09
C0U990,員山,2024-01-15,24.74435,121.72247,1.2496618e-09
C0V770,大社,2024-01-15,22.730306,120.346639,2.8300148e-10
C0X120,麻豆,2024-01-15,23.183289,120.248611,1.2262042e-09
C0C670,龍潭,2024-01-15,24.870056,121.221389,1.16496e-08
C0D680,香山濕地,2024-01-15,24.783581,120.914988,7.0083264e-09
C0S980,勝林山,2024-01-15,22.430439,120.8938,2.1366903e-08
C0V730,大寮,2024-01-15,22.605614,120.395717,2.674268e-10
C0R570,麟洛,2024-01-15,22.65078,120.52719,4.5182985e-10
CAG100,王功漁港,2024-01-15,23.96824,120.32586,1.2441197e-06
C0X290,北門,2024-01-15,23.267772,120.125481,2.7069064e-10
C2F930,大甲,2024-01-15,24.347667,120.640403,1.0432815e-09
C0D650,湖口,2024-01-15,24.904794,121.043628,4.3291443e-08
C0E420,竹南,2024-01-15,24.708978,120.888897,2.307797e-09
C0U780,五結,2024-01-15,24.68637,121.79794,1.2394521e-09
C1I250,鯉潭,2024-01-15,23.961922,120.991131,1.1677269e-09
C0R130,阿禮,2024-01-15,22.742908,120.743678,1.4787152e-09
C0X100,臺南市北區,2024-01-15,23.010394,120.194228,5.0965876e-10
C0S920,金峰嘉蘭,2024-01-15,22.594789,120.960825,1.18461525e-08
C0V490,新興,2024-01-15,22.627422,120.298803,2.676697e-10
C0F9K0,大安,2024-01-15,24.345061,120.588025,1.1360908e-09
72N100,臺南農改,2024-01-15,23.0605,120.342194,1.2649641e-09
467290,古坑,2024-01-15,23.633639,120.551889,7.645151e-10
C0V440,鳳山,2024-01-15,22.646653,120.356122,2.352698e-10
C1T940,大觀,2024-01-15,23.714206,121.373133,5.997753e-09
72T250,花蓮農改,2024-01-15,23.975222,121.563889,7.244613e-09
C0E740,造橋,2024-01-15,24.637056,120.864778,1.0778985e-09
C0R100,尾寮山,2024-01-15,22.833111,120.683889,1.3122848e-09
A2K630,臺大雲林校區,2024-01-15,23.730628,120.423903,4.827433e-10
C0D580,寶山,2024-01-15,24.735006,121.025192,1.405885e-09
E2P990,林試扇平站,2024-01-15,22.9677,120.6857,9.842835e-10
C0AI30,三重,2024-01-15,25.057328,121.500629,8.855452e-09
C0AH00,汐止,2024-01-15,25.066881,121.658778,8.504031e-09
C1Z040,立山,2024-01-15,23.443356,121.327375,1.0963489e-08
C0R740,獅子,2024-01-15,22.201569,120.70525,0.94937843
C0W130,花嶼,2024-01-15,23.40007,119.32276,0.9977177
C0A950,鼻頭角,2024-01-15,25.129036,121.923372,5.7571015e-09
C0K470,林內,2024-01-15,23.748675,120.609642,6.749062e-10
82C160,茶改場,2024-01-15,24.908472,121.185333,1.3538876e-08
C0Z320,清水林道,2024-01-15,23.27125,121.188272,9.279302e-09
C0R760,南仁湖,2024-01-15,22.084681,120.863353,0.0041267877
C0M670,大林,2024-01-15,23.600616,120.45841,1.9017088e-09
C0M800,茶山,2024-01-15,23.299075,120.664767,6.3931505e-10
C0A9C0,天母,2024-01-15,25.117494,121.537169,1.585118e-08
72K220,南改斗南分場,2024-01-15,23.634556,120.477333,1.2337914e-09
72AI40,桃改樹林分場,2024-01-15,24.944503,121.386972,1.8982924e-08
C0S910,蘭嶼燈塔,2024-01-15,22.081197,121.503117,0.102942914
C0B050,八斗子,2024-01-15,25.144754,121.79167,4.463149e-09
C0U900,內城,2024-01-15,24.71813,121.68766,1.3277105e-09
C0X320,柳營,2024-01-15,23.253328,120.375253,2.0056685e-09
C0M790,新港,2024-01-15,23.553269,120.345728,1.244467e-09
C0F9T0,西屯,2024-01-15,24.179494,120.641275,3.4044034e-10
C0SA30,都歷,2024-01-15,23.020333,121.323642,9.123837e-10
C0C620,蘆竹,2024-01-15,25.084275,121.265767,1.5346854e-08
C0R730,大坪頂,2024-01-15,22.024633,120.69355,0.9839195
C0AJ40,石門,2024-01-15,25.273672,121.601198,3.2414768e-08
C0E750,苗栗,2024-01-15,24.564569,120.824575,1.1318473e-09
C0T870,鯉魚潭,2024-01-15,23.935639,121.508944,6.502606e-09
C1V170,排雲,2024-01-15,23.463619,120.954147,2.7860466e-08
C2H950,中寮,2024-01-15,23.884447,120.766406,5.121847e-10
C0R350,貓鼻頭,2024-01-15,21.921774,120.7358,0.04943775
C0V660,岡山,2024-01-15,22.797078,120.294958,3.675986e-10
C1H941,雙冬,2024-01-15,23.967378,120.802189,6.815553e-10
C0AJ70,田寮,2024-01-15,25.2698,121.4886,5.1416333e-08
C0AI00,五股,2024-01-15,25.07445,121.42728,9.2188275e-09
C0Z280,德武,2024-01-15,23.47426,121.41071,1.8431079e-09
C0R700,枋山,2024-01-15,22.246844,120.661086,0.97218907
C0C460,復興,2024-01-15,24.820208,121.352281,1.3620984e-08
E2H360,蓮華池,2024-01-15,23.918333,120.885278,7.8488144e-10
C0M640,中埔,2024-01-15,23.42538,120.5229,8.922961e-10
C0W140,金沙,2024-01-15,24.488292,118.408778,7.974217e-08
C2A540,四堵,2024-01-15,24.8926,121.745736,3.9424206e-09
C0ACA0,新莊,2024-01-15,25.051478,121.446756,8.850826e-09
C0R220,潮州,2024-01-15,22.534361,120.54,6.56057e-10
U2HA40,臺大內茅埔,2024-01-15,23.689722,120.851117,1.3247408e-09
467490,臺中,2024-01-15,24.145736,120.684075,4.3338078e-10
C0U960,翠峰湖,2024-01-15,24.510856,121.608044,2.4657878e-08
E2HA20,林試畢祿溪站,2024-01-15,24.226944,121.308522,1.6030443e-08
C0V890,前鎮,2024-01-15,22.5718,120.3117,2.7338615e-10
467620,蘭嶼,2024-01-15,22.036969,121.558339,0.9748294
C1F941,雪嶺,2024-01-15,24.280586,121.026642,2.476742e-08
C0AC80,文山,2024-01-15,25.00235,121.575728,5.7192984e-09
C0F9R0,龍井,2024-01-15,24.184536,120.528972,3.898354e-10
C0M760,民雄,2024-01-15,23.551754,120.428457,1.9833266e-09
C0UA40,西德山,2024-01-15,24.560647,121.752608,1.438819e-08
C1T920,中興,2024-01-15,23.769503,121.498653,2.8372316e-09
C0D550,雪霸,2024-01-15,24.526972,121.11605,1.0804164e-08
C2F860,梨山,2024-01-15,24.247522,121.243669,1.6445563e-08
C0R320,車城,2024-01-15,22.0744,120.716247,0.4194883
C1S870,南美山,2024-01-15,23.15025,121.382333,2.1638025e-09
C0B020,基隆嶼,2024-01-15,25.19141,121.78391,8.457639e-09
C1U501,牛鬥,2024-01-15,24.637836,121.573656,3.7481542e-09
C0M730,嘉義市東區,2024-01-15,23.457673,120.460531,1.2770636e-09
C0S700,知本,2024-01-15,22.684866,121.005642,6.821058e-09
C1N001,沙崙,2024-01-15,22.935472,120.309406,9.676089e-10
C0V760,橋頭,2024-01-15,22.757806,120.30575,2.849101e-10
C0G960,福寶,2024-01-15,24.0443,120.3814,2.8285901e-10
C0X210,白河,2024-01-15,23.347466,120.414427,1.0239479e-09
C0S810,東河,2024-01-15,22.972672,121.303986,0.29356304
C0R670,楓港,2024-01-15,22.190131,120.692156,0.96211165
C0FA50,霧峰,2024-01-15,24.0419,120.6995,5.5441457e-10
C0UB10,蘇澳,2024-01-15,24.5969,121.8571,2.6668476e-09
C0G950,防潮門,2024-01-15,24.1835,120.4871,3.898354e-10
C0M740,六腳,2024-01-15,23.492871,120.290625,2.5579066e-09
C1R250,力里,2024-01-15,22.428117,120.629228,2.726748e-10
C0K330,虎尾,2024-01-15,23.719183,120.442036,4.762799e-10
C2FA00,烏石坑,2024-01-15,24.273503,120.947617,2.290292e-09
C0V620,永安,2024-01-15,22.82315,120.236856,3.675986e-10
C1I330,楓樹林,2024-01-15,23.986803,121.076117,3.2227956e-09
C0W200,湖西,2024-01-15,23.596314,119.67275,0.9977496
72Q010,高雄農改場,2024-01-15,22.709333,120.525889,4.9676646e-10
C0SA40,瑞和,2024-01-15,22.974361,121.156697,1.4090124e-09
C0C680,龜山,2024-01-15,25.02846,121.38656,8.612878e-09
C2V260,月眉,2024-01-15,22.971003,120.539853,4.8927196e-10
C0V450,鳳森,2024-01-15,22.545064,120.392592,2.2389224e-10
C0U720,南山,2024-01-15,24.43742,121.38167,1.2742004e-08
A2N290,臺南蘭花園區,2024-01-15,23.340258,120.379661,2.5741065e-09
C0R560,新園,2024-01-15,22.5434,120.461558,2.2742758e-10
C0U890,三星,2024-01-15,24.66812,121.65302,3.1279928e-09
C1V300,御油山,2024-01-15,23.001983,120.715364,4.480797e-09
C0U600,礁溪,2024-01-15,24.817539,121.765608,1.6172627e-09
C1T980,龍澗,2024-01-15,24.023289,121.411328,2.3949202e-08
C0D670,海天一線,2024-01-15,24.831986,120.914438,0.003706103
C0SA00,歷坵,2024-01-15,22.520969,120.89185,1.5005591e-08
C0M710,東石,2024-01-15,23.458927,120.15385,4.477121e-10
C0M780,鹿草,2024-01-15,23.41134,120.30835,1.2802902e-09
C0U520,雙連埤,2024-01-15,24.753033,121.641303,5.5629075e-09
C0B010,七堵,2024-01-15,25.094819,121.71713,6.320961e-09
C0R480,長治,2024-01-15,22.693128,120.542622,4.5942858e-10
C1V830,國三S383K,2024-01-15,22.781967,120.426475,6.0330885e-10
12Q980,恆春工作站,2024-01-15,22.079678,120.714425,0.41903296
C1O940,東山服務區,2024-01-15,23.286016,120.398472,1.5034862e-09
C1U840,東澳嶺,2024-01-15,24.5378,121.8485,6.693453e-09
C1D630,飛鳳山,2024-01-15,24.766464,121.119178,2.6234048e-09
C0S940,石寧山,2024-01-15,23.223772,121.406639,2.6442981e-09
C0K410,北港,2024-01-15,23.573957,120.292802,6.3908095e-10
C2M620,瑞里,2024-01-15,23.545133,120.675197,3.2253045e-09
C2O950,安南,2024-01-15,23.076694,120.144861,2.7085797e-10
C0F0E0,南湖圈谷,2024-01-15,24.363714,121.444667,3.3129325e-08
467610,成功,2024-01-15,23.097486,121.373428,1.7865548e-09
C0G890,伸港,2024-01-15,24.148933,120.484403,3.0007216e-10
C2E540,龍溪,2024-01-15,24.606489,120.783933,1.1001293e-09
C1V200,梅山,2024-01-15,23.268447,120.823556,1.9701683e-09
C0T9H0,加路蘭山,2024-01-15,23.682947,121.5274,7.703589e-09
C2O930,玉井,2024-01-15,23.126042,120.46055,5.4792515e-10
C1F911,新伯公,2024-01-15,24.221361,120.841069,5.134631e-10
C0R490,九如,2024-01-15,22.7405,120.490503,5.0188836e-10
C0X200,左鎮,2024-01-15,23.056758,120.408522,7.175164e-10
C1F891,稍來,2024-01-15,24.265689,121.001142,1.3639052e-08
72N240,七股研究中心,2024-01-15,23.081672,120.062894,2.7010577e-10
C0C700,中壢,2024-01-15,24.977661,121.256375,8.349544e-09
C0M690,水上,2024-01-15,23.419734,120.388909,2.9581255e-09
C0V690,鼓山,2024-01-15,22.623325,120.275575,2.6755895e-10
C0O860,大內,2024-01-15,23.11885,120.36083,1.3089776e-09
C0Z200,萬榮,2024-01-15,23.709219,121.420106,4.39408e-09
C0T9D0,和中,2024-01-15,24.26676,121.74103,2.5026927e-09
C1O921,楠西,2024-01-15,23.183511,120.484083,5.178921e-10
C0AJ30,淡水觀海,2024-01-15,25.184591,121.408616,5.3853647e-08
C0V810,左營,2024-01-15,22.67491,120.28491,2.4034752e-10
C0UA70,桃源谷,2024-01-15,24.962606,121.888875,8.543994e-09
C0X130,官田,2024-01-15,23.193217,120.315422,1.5753395e-09
C1H000,翠峰,2024-01-15,24.109397,121.205211,9.7412025e-09
C0UA90,石城,2024-01-15,24.980444,121.951214,2.599556e-09
C1E681,南勢山,2024-01-15,24.421669,120.923831,2.9763152e-09
C0A9F0,內湖,2024-01-15,25.079422,121.57545,8.504031e-09
C0K291,宜梧,2024-01-15,23.536281,120.169329,5.3600685e-10
C1K540,口湖,2024-01-15,23.585344,120.180517,3.0072664e-09
C0R780,滿州,2024-01-15,22.024403,120.839892,0.9955005
C0V870,文安,2024-01-15,22.8025,120.2164,3.7185513e-10
C0U650,玉蘭,2024-01-15,24.675286,121.587061,5.610667e-09
C0R640,東港,2024-01-15,22.46247,120.44074,2.1661686e-09
K2E360,苗栗農改,2024-01-15,24.495722,120.829111,9.649181e-10
C0AJ80,板橋,2024-01-15,25.0107,121.4489,5.87994e-09
C0S660,下馬,2024-01-15,23.150427,121.070312,8.359041e-09
C1H9B1,阿眉,2024-01-15,24.1263,120.994672,1.0541192e-08
C0UA20,多加屯,2024-01-15,24.368614,121.373189,1.42438e-08
C0E730,頭份,2024-01-15,24.688247,120.912206,2.371541e-09
72V140,高改旗南分場,2024-01-15,22.857861,120.516667,5.978836e-10
C0K480,莿桐,2024-01-15,23.761192,120.502372,8.035986e-10
C0U980,坪林石牌,2024-01-15,24.86478,121.77396,6.534111e-09
C0T900,西林,2024-01-15,23.8119,121.441458,3.1707859e-09
C1I150,青雲,2024-01-15,23.793361,120.949378,5.0904575e-10
467350,澎湖,2024-01-15,23.565503,119.563094,0.99870074
C0G800,埔鹽,2024-01-15,24.000394,120.431683,2.9734426e-10
C0H960,草屯,2024-01-15,23.973672,120.68085,5.6498506e-10
C1V780,多納林道,2024-01-15,22.888028,120.737917,1.3177828e-09
C0E920,通霄漁港,2024-01-15,24.498589,120.673876,2.4085944e-08
C0Z330,安通山,2024-01-15,23.290728,121.348528,3.4205532e-09
C0AH10,永和,2024-01-15,25.01125,121.508111,5.876184e-09
C2G640,鹿港,2024-01-15,24.0753,120.430481,2.8274358e-10
C1E890,國三N149K,2024-01-15,24.463414,120.680019,1.4610667e-09
C1R110,口社,2024-01-15,22.770111,120.645222,1.9100954e-09
C1M870,國三N285K,2024-01-15,23.550319,120.505833,5.8658345e-10
467050,新屋,2024-01-15,25.006744,121.047486,6.322616e-08
C1E480,鳳美,2024-01-15,24.554803,121.034747,3.2344343e-09
C0M530,奮起湖,2024-01-15,23.493903,120.699253,3.761081e-09
C0C590,觀音,2024-01-15,25.027072,121.153317,1.8663049e-07
C0T9M0,靜浦,2024-01-15,23.455167,121.495028,1.6353842e-09
C0AI40,石牌,2024-01-15,25.115597,121.513139,1.6173253e-08
C1F871,上谷關,2024-01-15,24.203483,121.018644,2.4731817e-09
C0G880,二水,2024-01-15,23.810742,120.6173,5.914254e-10
C0R940,加祿堂,2024-01-15,22.3363,120.6217,3.7546142e-05
C0W220,北竿,2024-01-15,26.220358,119.974881,1.656475e-08
C0O960,崎頂,2024-01-15,22.959547,120.369317,8.0556445e-10
C0S750,向陽,2024-01-15,23.248397,120.986133,6.9558563e-09
C0T9F0,水璉,2024-01-15,23.797131,121.542514,3.479373e-09
C1M600,頭凍,2024-01-15,23.406364,120.603339,2.4463225e-09
467660,臺東,2024-01-15,22.752211,121.154586,0.98755664
C1D380,新埔,2024-01-15,24.84745,121.03834,2.7885772e-08
C0V750,路竹,2024-01-15,22.854997,120.259439,4.7492554e-10
C0N050,蚵寮,2024-01-15,23.301,120.1104,3.1124228e-10
72M700,南改鹿草分場,2024-01-15,23.416869,120.283061,1.3525989e-09
C1SA50,利嘉林道,2024-01-15,22.82325,121.009389,1.4256765e-08
467550,玉山,2024-01-15,23.487614,120.959522,3.4039264e-08
C0A940,金山,2024-01-15,25.223628,121.643967,8.531162e-09
C1V340,大津,2024-01-15,22.888322,120.645986,1.3331587e-09
C0W180,七美,2024-01-15,23.219333,119.444892,0.998726
C1F9C1,白冷,2024-01-15,24.182844,120.929889,7.41279e-10
K2E710,苗改生物防治研究中心,2024-01-15,24.422861,120.871833,9.83244e-10
C0N040,蘆竹溝,2024-01-15,23.2344,120.0961,2.7069064e-10
C2W230,畜試所澎湖,2024-01-15,23.628342,119.513206,0.99901164
C0R880,後壁湖,2024-01-15,21.9457,120.7457,0.047334295
C1I280,埔中,2024-01-15,23.820778,120.642594,4.2765663e-10
467790,墾丁雷達站,2024-01-15,21.948235,120.808028,0.45829436
C0W190,望安,2024-01-15,23.380564,119.494075,0.9990495
466881,新北,2024-01-15,24.9593,121.52,5.947413e-09
C0Z170,卓溪,2024-01-15,23.3443,121.3029,2.3056457e-09
C0F850,東勢,2024-01-15,24.246428,120.833047,4.915505e-10
466900,淡水,2024-01-15,25.164889,121.448906,2.2586722e-08
C0I370,魚池,2024-01-15,23.895703,120.94135,6.2880706e-10
C0C630,大溪,2024-01-15,24.882853,121.265547,1.349479e-08
C0A520,山佳,2024-01-15,24.974944,121.402008,1.0554973e-08
C0I110,竹山,2024-01-15,23.761225,120.688156,5.563987e-10
82H840,茶改南部分場,2024-01-15,23.762528,120.7405,4.0933723e-10
C0G660,溪湖,2024-01-15,23.94835,120.479122,3.946391e-10
C1T800,洛韶,2024-01-15,24.204558,121.453956,2.1197712e-08
C1T810,慈恩,2024-01-15,24.192044,121.388386,6.0443095e-09
C1E451,象鼻,2024-01-15,24.368617,120.940228,2.435814e-09
C0AC60,三峽,2024-01-15,24.939025,121.369728,1.6861332e-08
C0I490,萬大林道,2024-01-15,23.928228,121.091411,4.6224065e-09
C1I290,豐丘,2024-01-15,23.668178,120.887417,3.9168473e-09
C1I320,奧萬大,2024-01-15,23.952956,121.178556,2.6529416e-09
C0U770,南澳,2024-01-15,24.44935,121.81022,2.194522e-09
C0A980,社子,2024-01-15,25.109508,121.469681,2.3862704e-08
C0V800,六龜,2024-01-15,22.997889,120.633583,3.485296e-10
C1G9D0,國一S218K,2024-01-15,23.890641,120.493253,4.318773e-10
C2F9A0,中竹林,2024-01-15,24.103556,120.751061,4.5205828e-10
C0FA40,臺中電廠,2024-01-15,24.2146,120.4907,3.898354e-10
C0H9C0,合歡山,2024-01-15,24.143442,121.272547,2.2464103e-08
C0X060,下營,2024-01-15,23.22695,120.256261,1.1673751e-09
G2M350,農試溪口農場,2024-01-15,23.58565,120.408111,2.0565278e-09
C0U860,頭城,2024-01-15,24.85323,121.8308,1.5808146e-09
C0R580,南州,2024-01-15,22.48591,120.50274,2.1661686e-09
C0D430,峨眉,2024-01-15,24.6905,121.017189,1.0730841e-09
C0G780,秀水,2024-01-15,24.03405,120.503869,3.8224132e-10
72N100,臺南農改場,2024-01-15,23.0605,120.342194,1.2649641e-09
C0S900,蘭嶼高中,2024-01-15,22.04909,121.51214,0.12780254
467540,大武,2024-01-15,22.355675,120.903789,3.0312354e-05
C1F9W0,德基,2024-01-15,24.254783,121.190261,1.0977864e-08
C1Z120,壽豐,2024-01-15,23.870853,121.508081,4.0130304e-09
C0W160,烏坵,2024-01-15,24.9944,119.44956,1.1535756e-05
C1I240,外大坪,2024-01-15,23.958697,120.917931,1.2023567e-09
C1I550,國六W023K,2024-01-15,23.979067,120.867742,4.7767734e-10
C0R870,興海,2024-01-15,21.9752,120.8439,0.2666424
C0R140,瑪家,2024-01-15,22.682903,120.686639,8.4723434e-10
C0A530,坪林,2024-01-15,24.938183,121.70975,3.6510492e-09
C0X260,後壁,2024-01-15,23.366358,120.362326,2.5741065e-09
C0Z230,和平,2024-01-15,24.30717,121.77007,2.51395e-09
C0G770,福興,2024-01-15,24.041289,120.437669,2.9734426e-10
C0H9A0,神木村,2024-01-15,23.532742,120.843667,5.6640634e-09
C0I460,南投,2024-01-15,23.911469,120.687331,4.4564352e-10
C0I480,梅峰,2024-01-15,24.085272,121.173572,7.234478e-09
C1V570,吉東,2024-01-15,22.85422,120.5454,5.984038e-10
C2A560,福山,2024-01-15,24.776203,121.502811,1.0369001e-08
C0AH30,五分山,2024-01-15,25.07125,121.780794,8.66493e-09
C0FA10,松柏,2024-01-15,24.429115,120.617482,1.5924384e-09
72S200,東改班鳩分場,2024-01-15,22.829528,121.077694,1.1356595e-07
72HA00,中改埔里分場,2024-01-15,23.903208,120.963364,7.2791256e-10
C0C650,平鎮,2024-01-15,24.897503,121.214636,9.642048e-09
C0S930,延平,2024-01-15,22.902581,121.084058,2.9823615e-09
C0UA60,樟樹山,2024-01-15,24.41393,121.78325,8.855554e-09
C1S670,摩天,2024-01-15,23.199503,121.027,1.9500668e-08
C0V630,茄萣,2024-01-15,22.906642,120.182608,4.978478e-10
466940,基隆,2024-01-15,25.133314,121.740475,4.4854827e-09
C0X050,東河,2024-01-15,23.296598,120.385608,1.6213303e-09
C0R770,保力,2024-01-15,22.071122,120.764111,0.9510232
G2L020,農試嘉義分所,2024-01-15,23.485028,120.473806,1.0722616e-09
C0X240,關子嶺,2024-01-15,23.331169,120.508025,4.6379295e-10
C0I380,集集,2024-01-15,23.828206,120.801467,3.5972345e-10
466990,花蓮,2024-01-15,23.975128,121.613275,7.66241e-09
C1V220,小關山,2024-01-15,23.154217,120.813603,4.793935e-09
C1F9G1,慶福山,2024-01-15,24.180853,120.848378,1.2490255e-09
C0Z250,瑞穗林道,2024-01-15,23.49284,121.30688,1.8522753e-08
C0D590,新豐,2024-01-15,24.87068,120.97721,3.9005517e-06
C0A870,五指山,2024-01-15,25.132153,121.608692,7.520701e-09
C0UA50,西帽山,2024-01-15,24.555361,121.802628,1.080369e-08
C0X160,仁德,2024-01-15,22.968258,120.257689,1.4221289e-09
C1H971,六分寮,2024-01-15,23.92507,120.6378,7.068155e-10
C0W120,西嶼,2024-01-15,23.5626,119.468436,0.99911964
C0G650,員林,2024-01-15,23.946503,120.585597,5.8238064e-10
C0AD50,鶯歌,2024-01-15,24.951533,121.346294,1.5162417e-08
C0S990,山豬窟,2024-01-15,22.318619,120.857372,4.0968254e-07
72Q010,高雄農改,2024-01-15,22.709333,120.525889,4.9676646e-10
C0X190,安平,2024-01-15,22.993161,120.152181,5.0965876e-10
C0K400,斗六,2024-01-15,23.720583,120.541127,1.0524251e-09
12J990,口湖工作站,2024-01-15,23.589978,120.180394,3.0072664e-09
C0O830,北寮,2024-01-15,23.079561,120.495008,3.2459652e-10
C1D410,白蘭,2024-01-15,24.579364,121.079947,7.762054e-09
C0S970,加津林,2024-01-15,22.416211,120.926942,1.2229125e-05
C0D700,關西,2024-01-15,24.7977,121.1732,2.3108937e-09
C0M810,里佳,2024-01-15,23.389125,120.716647,4.1619774e-09
C0U750,龜山島,2024-01-15,24.841667,121.953133,8.016059e-09
C0R810,內獅,2024-01-15,22.305064,120.642986,5.2338994e-05
C1M390,龍美,2024-01-15,23.406728,120.654417,3.0627099e-09
C1H840,國三N238K,2024-01-15,23.841008,120.707711,3.9077414e-10
CAQ030,崎峰國小,2024-01-15,22.42565,120.49521,2.1661686e-09
C2E520,大湖,2024-01-15,24.414939,120.870872,1.0305921e-09
467530,阿里山,2024-01-15,23.508208,120.813242,1.7003952e-08
C1E691,南湖,2024-01-15,24.40135,120.837533,2.2583222e-09
C0FA30,梧棲,2024-01-15,24.256003,120.523381,6.5725936e-10
C1V231,高中,2024-01-15,23.134911,120.716711,1.5818552e-09
C0F9V0,新社,2024-01-15,24.200172,120.815806,6.1456185e-10
C0H890,埔里,2024-01-15,23.972169,120.952425,5.490466e-10
C0R690,墾丁,2024-01-15,21.966756,120.810269,0.9928628
C0F0D0,審馬陣,2024-01-15,24.381675,121.4203,1.9807873e-08
C0R820,白鷺,2024-01-15,22.454275,120.666219,6.450609e-10
U2H480,臺大溪頭,2024-01-15,23.670306,120.798194,3.6872232e-09
C1V190,南天池,2024-01-15,23.27403,120.91176,7.75152e-09
K2E360,苗栗農改場,2024-01-15,24.495722,120.829111,9.649181e-10
CAJ050,海口故事園區,2024-01-15,23.57543,120.14121,3.0072664e-09
C0O990,媽廟,2024-01-15,22.99175,120.293525,1.5789493e-09
C0D480,打鐵坑,2024-01-15,24.849664,121.150789,1.1312715e-08
C0Z220,和平林道,2024-01-15,24.343922,121.656317,3.5943146e-09
72C440,桃園農改場,2024-01-15,24.950944,121.030583,6.216537e-08
C1E711,馬拉邦山,2024-01-15,24.367306,120.901656,2.5300742e-09
C0D560,竹東,2024-01-15,24.767147,121.057881,2.4195288e-09
C0F9U0,南屯,2024-01-15,24.137006,120.637969,3.3840944e-10
C0M720,番路,2024-01-15,23.464657,120.554156,7.715819e-10
C0F0A0,雪山圈谷,2024-01-15,24.388594,121.236339,2.7736396e-08
C1A9N0,四十份,2024-01-15,24.934158,121.593283,1.03638405e-08
C0U760,東澳,2024-01-15,24.52196,121.83318,1.1585247e-09
C0X230,鹽水,2024-01-15,23.272621,120.247641,3.065724e-10
C0V370,古亭坑,2024-01-15,22.893178,120.401947,6.4384276e-10
C1I340,新興橋,2024-01-15,23.563333,120.868728,1.5630504e-09
C0SA80,土坂,2024-01-15,22.453108,120.887572,9.540339e-08
C0R160,鹽埔,2024-01-15,22.739558,120.530778,4.9676646e-10
C0AC40,大屯山,2024-01-15,25.175675,121.522408,1.2814317e-08
466850,五分山雷達站,2024-01-15,25.071182,121.781205,8.690834e-09
C1AI50,國三N016K,2024-01-15,25.034164,121.619664,8.0794385e-09
C1V600,藤枝,2024-01-15,23.071961,120.757042,3.5360261e-09
C1E601,南勢,2024-01-15,24.572486,120.734842,1.7010949e-09
C0Z180,新城,2024-01-15,24.03946,121.60454,7.4947115e-09
C0O980,新市,2024-01-15,23.061614,120.298197,1.3964936e-09
C0K420,西螺,2024-01-15,23.800407,120.467394,4.5678458e-10
C0Z050,佳心,2024-01-15,23.34567,121.21316,1.1524425e-08
C0AD30,蘆洲,2024-01-15,25.086594,121.472331,8.855452e-09
C0V610,梓官,2024-01-15,22.760558,120.267211,2.849101e-10
K2F750,種苗改良場,2024-01-15,24.225972,120.800917,5.6067495e-10
C0UA80,大溪漁港,2024-01-15,24.941801,121.902955,2.7605966e-09
C1AI60,國一39K邊坡,2024-01-15,25.064361,121.383836,8.838747e-09
C0W150,金寧,2024-01-15,24.457703,118.328989,1.7218243e-08
V2C250,八德合作社,2024-01-15,24.93775,121.266389,1.1521611e-08
C0AH40,平等,2024-01-15,25.129142,121.577086,6.526986e-09
C0R540,佳冬,2024-01-15,22.419456,120.552375,6.3043215e-09
466950,彭佳嶼,2024-01-15,25.627975,122.079744,4.778806e-07
C0A890,雙溪,2024-01-15,25.036003,121.864242,3.0502807e-09
C0C480,桃園,2024-01-15,24.992425,121.323172,8.989434e-09
C0AH50,林口,2024-01-15,25.072181,121.38084,8.290875e-09
A2K360,水試臺西試驗場,2024-01-15,23.717231,120.190522,1.7617577e-09
B2N890,畜試所,2024-01-15,23.058972,120.336406,1.2649641e-09
C0F9S0,烏日,2024-01-15,24.107058,120.624103,4.1270196e-10
C0C490,八德,2024-01-15,24.928708,121.283289,1.14286145e-08
C0R190,赤山,2024-01-15,22.592333,120.614306,7.0509737e-10
C0T820,天祥,2024-01-15,24.179597,121.495639,1.5302396e-08
C1F9E1,龍安,2024-01-15,24.1605,120.831961,6.398555e-10
C0V820,小林,2024-01-15,23.148408,120.63325,3.117794e-10
C2G870,芳苑,2024-01-15,23.922303,120.320025,1.1289543e-06
C0E850,大河,2024-01-15,24.618069,120.948578,9.338297e-10
C1U670,寒溪,2024-01-15,24.634,121.71691,1.247371e-09
C0N020,城西,2024-01-15,23.0568,120.0956,5.090885e-10
C1Z110,三棧,2024-01-15,24.11557,121.60501,1.6126954e-08
C0R280,檳榔,2024-01-15,22.076078,120.836777,0.37399724
C0F9L0,后里,2024-01-15,24.310436,120.729725,5.204906e-10
C0D540,橫山,2024-01-15,24.71116,121.11693,1.3648856e-09
C1D420,太閣南,2024-01-15,24.632808,121.160575,1.0127451e-08
C1E770,公館,2024-01-15,24.526914,120.830806,9.66117e-10
CAN130,水試所海水繁養殖中心,2024-01-15,23.120802,120.07968,2.7010577e-10
C1I430,翠華,2024-01-15,24.191961,121.224339,9.949846e-09
C1M400,菜瓜坪,2024-01-15,23.251928,120.576103,5.2938237e-10
C0G730,二林,2024-01-15,23.903325,120.376081,3.097475e-10
72M360,南改義竹分場,2024-01-15,23.360694,120.279361,5.4353255e-10
V2K620,麥寮合作社,2024-01-15,23.753836,120.294783,3.205506e-10
C0Z070,舞鶴,2024-01-15,23.46811,121.37407,1.9401156e-09
C0B040,大武崙,2024-01-15,25.166676,121.706993,4.4793356e-09
C1Z030,紅葉,2024-01-15,23.493119,121.338806,1.6665105e-09
C1I050,丹大,2024-01-15,23.753747,121.141147,7.480258e-09
C0I080,信義,2024-01-15,23.689694,120.851036,1.3247408e-09
C2A880,福隆,2024-01-15,25.017842,121.942083,2.6700337e-09
C0Z160,鳳林,2024-01-15,23.746114,121.453411,4.304113e-09
C0V210,復興,2024-01-15,23.222403,120.806089,1.6548446e-09
C0H990,昆陽,2024-01-15,24.121322,121.273642,1.7208919e-08
C0S710,鹿野,2024-01-15,22.917711,121.122994,1.5788048e-09
C0I530,小奇萊,2024-01-15,24.131764,121.295717,1.800015e-08
C0Z080,富源,2024-01-15,23.587642,121.378225,7.573993e-09
467441,高雄,2024-01-15,22.7304,120.3125,2.8290703e-10
C1I140,卡奈托灣,2024-01-15,23.754364,121.087872,3.5747063e-09
C0I520,玉山風口,2024-01-15,23.470489,120.955994,3.396844e-08
C1G691,下水埔,2024-01-15,23.816114,120.5676,7.8924844e-10
C0X110,臺南市南區,2024-01-15,22.961189,120.188378,1.4220582e-09
C0V680,仁武,2024-01-15,22.701083,120.347722,2.4034752e-10
C2G840,北斗,2024-01-15,23.877586,120.514222,4.3114562e-10
C0R900,竹坑,2024-01-15,22.1385,120.7022,0.4908896
C0K250,崙背,2024-01-15,23.75555,120.318925,3.2042713e-10
C0G860,社頭,2024-01-15,23.897647,120.5862,8.4789714e-10
C0X150,安定,2024-01-15,23.102614,120.227839,8.2324714e-10
C0R590,里港,2024-01-15,22.77919,120.49459,7.318635e-10
C0E610,馬都安,2024-01-15,24.451272,120.930192,2.4529057e-09
C0E550,明德,2024-01-15,24.583486,120.885411,1.1179613e-09
C0R150,三地門,2024-01-15,22.709889,120.639944,2.038501e-09
C0G910,花壇,2024-01-15,24.032076,120.549461,3.8787956e-10
C1D400,鳥嘴山,2024-01-15,24.71909,121.28387,8.883298e-09
C0K500,元長,2024-01-15,23.64981,120.315024,3.6158557e-10
C0F0B0,石岡,2024-01-15,24.276061,120.777644,5.449599e-10
C2V250,甲仙,2024-01-15,23.080106,120.591758,3.0353348e-10
C0SA20,金崙山,2024-01-15,22.567419,120.959667,9.934638e-09
C0V350,溪埔,2024-01-15,22.738578,120.446797,5.4530197e-10
C0M660,溪口,2024-01-15,23.604131,120.403569,2.0565278e-09
C1S880,壽卡,2024-01-15,22.238911,120.858903,6.7712773e-07
72D680,桃改新埔分場,2024-01-15,24.834444,121.066111,3.0375446e-08
