站號,站名,日期,lat,lon,BLBTSLS
K2F750,種苗繁殖,2024-12-29,24.225972,120.800917,5.3933182e-09
467990,馬祖,2024-12-29,26.169269,119.923419,3.1954374e-07
C2E540,後龍,2024-12-29,24.606489,120.783933,1.9400318e-06
467300,東吉島,2024-12-29,23.25695,119.667467,0.99758404
G2F820,農業試驗所,2024-12-29,24.031261,120.688133,1.5131958e-09
467410,臺南,2024-12-29,22.993239,120.204772,1.8522249e-09
E2S960,林試太麻里2,2024-12-29,22.598014,120.989761,3.4662975e-09
72C440,桃園農改,2024-12-29,24.950944,121.030583,0.61358976
C1H860,瑞岩,2024-12-29,24.123772,121.18345,2.4929605e-08
72G600,臺中農改,2024-12-29,24.003028,120.534389,1.2843429e-09
72N100,臺南農改,2024-12-29,23.0605,120.342194,1.1447895e-09
72T250,花蓮農改,2024-12-29,23.975222,121.563889,1.3668793e-08
467620,蘭嶼,2024-12-29,22.036969,121.558339,0.37951857
K2E360,苗栗農改,2024-12-29,24.495722,120.829111,6.293989e-09
467050,新屋,2024-12-29,25.006744,121.047486,0.96180254
467550,玉山,2024-12-29,23.487614,120.959522,3.8880213e-08
466881,新北,2024-12-29,24.9593,121.52,2.1905987e-07
467540,大武,2024-12-29,22.355675,120.903789,0.0058471966
72Q010,高雄農改,2024-12-29,22.709333,120.525889,1.0105815e-09
U2H480,臺大溪頭,2024-12-29,23.670306,120.798194,8.427591e-09
B2N890,畜試所,2024-12-29,23.058972,120.336406,1.1447895e-09
467441,高雄,2024-12-29,22.7304,120.3125,1.5162178e-09
