站號,站名,日期,lat,lon,BlastGRU-TW
12J990,口湖工作站,2024-01-08,23.589978,120.180394,0.00078659295
12Q970,東港工作站,2024-01-08,22.479997,120.466058,0.07299493
12Q980,恆春工作站,2024-01-08,22.079678,120.714425,0.00010989197
466881,新北,2024-01-08,24.9593,121.52,0.0015079662
466900,淡水,2024-01-08,25.164889,121.448906,0.0009352896
466920,臺北,2024-01-08,25.037658,121.514853,0.0034353375
466940,基隆,2024-01-08,25.133314,121.740475,0.0063018412
466990,花蓮,2024-01-08,23.975128,121.613275,0.0028448703
467050,新屋,2024-01-08,25.006744,121.047486,0.0005711047
467080,宜蘭,2024-01-08,24.763975,121.756528,0.0021025965
467270,田中,2024-01-08,23.873803,120.581286,0.0031766847
467300,東吉島,2024-01-08,23.25695,119.667467,0.0007548919
467350,澎湖,2024-01-08,23.565503,119.563094,0.00078674144
467410,臺南,2024-01-08,22.993239,120.204772,0.0018862385
467420,永康,2024-01-08,23.038386,120.2367,0.0032931815
467441,高雄,2024-01-08,22.7304,120.3125,0.022067398
467480,嘉義,2024-01-08,23.495925,120.432906,0.002279452
467490,臺中,2024-01-08,24.145736,120.684075,0.0026689174
467540,大武,2024-01-08,22.355675,120.903789,0.0028827472
467571,新竹,2024-01-08,24.827853,121.014219,0.00053636584
467590,恆春,2024-01-08,22.003897,120.746339,0.0016181346
467610,成功,2024-01-08,23.097486,121.373428,0.0009089629
467620,蘭嶼,2024-01-08,22.036969,121.558339,0.0016706182
467660,臺東,2024-01-08,22.752211,121.154586,0.0024229921
467790,墾丁雷達站,2024-01-08,21.948235,120.808028,0.0011723015
72AI40,桃改樹林分場,2024-01-08,24.944503,121.386972,0.0011056488
72C440,桃園農改,2024-01-08,24.950944,121.030583,0.000482155
72C440,桃園農改場,2024-01-08,24.950944,121.030583,0.000482155
72D680,桃改新埔分場,2024-01-08,24.834444,121.066111,0.00057329936
72G600,臺中農改,2024-01-08,24.003028,120.534389,0.0023125273
72G600,臺中農改場,2024-01-08,24.003028,120.534389,0.0023125294
72K220,南改斗南分場,2024-01-08,23.634556,120.477333,0.0024563998
72M360,南改義竹分場,2024-01-08,23.360694,120.279361,0.0014291832
72M700,南改鹿草分場,2024-01-08,23.416869,120.283061,0.0017096619
72N100,臺南農改,2024-01-08,23.0605,120.342194,0.0034785497
72N100,臺南農改場,2024-01-08,23.0605,120.342194,0.0034785497
72N240,七股研究中心,2024-01-08,23.081672,120.062894,0.0006785781
72Q010,高雄農改,2024-01-08,22.709333,120.525889,0.03955771
72Q010,高雄農改場,2024-01-08,22.709333,120.525889,0.03955768
72S200,東改班鳩分場,2024-01-08,22.829528,121.077694,0.0013896662
72S590,東改賓朗果園,2024-01-08,22.813889,121.071278,0.0014974296
72T250,花蓮農改,2024-01-08,23.975222,121.563889,0.0014729054
72T250,花蓮農改場,2024-01-08,23.975222,121.563889,0.0014729054
72U480,花改蘭陽分場,2024-01-08,24.686306,121.716583,0.011351847
72V140,高改旗南分場,2024-01-08,22.857861,120.516667,0.075798415
82A750,茶改北部分場,2024-01-08,24.955778,121.631222,0.002125548
82C160,茶改場,2024-01-08,24.908472,121.185333,0.0006493117
82H840,茶改南部分場,2024-01-08,23.762528,120.7405,0.009770769
82S580,茶改東部分場,2024-01-08,22.907694,121.130139,0.0014578494
A2C560,農工中心,2024-01-08,24.985917,121.239833,0.0007664506
A2K360,水試臺西試驗場,2024-01-08,23.717231,120.190522,0.0007160628
A2K570,古坑花卉中心,2024-01-08,23.63353,120.55239,0.007360894
A2K630,臺大雲林校區,2024-01-08,23.730628,120.423903,0.0017030331
A2N290,臺南蘭花園區,2024-01-08,23.340258,120.379661,0.0026352685
B2E890,畜試北區分所,2024-01-08,24.527806,120.770972,0.0010093375
B2N890,畜產試驗所,2024-01-08,23.058972,120.336406,0.0034785497
B2N890,畜試所,2024-01-08,23.058972,120.336406,0.0034785497
B2Q810,畜試南區分所,2024-01-08,21.945583,120.802167,0.0011127574
B2U990,畜試東區分所,2024-01-08,24.669039,121.832561,0.078105256
C0A520,山佳,2024-01-08,24.974944,121.402008,0.0011874387
C0A530,坪林,2024-01-08,24.938183,121.70975,0.0067546694
C0A540,四堵,2024-01-08,24.8926,121.745736,0.0047784117
C0A550,泰平,2024-01-08,24.971197,121.823711,0.009157224
C0A560,福山,2024-01-08,24.776203,121.502811,0.010804379
C0A570,桶後,2024-01-08,24.848222,121.597992,0.0031542224
C0A640,石碇,2024-01-08,24.993969,121.662917,0.00065017666
C0A650,火燒寮,2024-01-08,25.002719,121.742892,0.011406804
C0A660,瑞芳,2024-01-08,25.113169,121.801147,0.0052139615
C0A770,科教館,2024-01-08,25.096356,121.516507,0.0018574162
C0A860,大坪,2024-01-08,25.165914,121.632969,0.0010131582
C0A880,福隆,2024-01-08,25.017842,121.942083,0.040314555
C0A890,雙溪,2024-01-08,25.036003,121.864242,0.0070280256
C0A920,富貴角,2024-01-08,25.263783,121.565258,0.0011138822
C0A931,三和,2024-01-08,25.233153,121.595236,0.005698943
C0A940,金山,2024-01-08,25.223628,121.643967,0.0075843553
C0A950,鼻頭角,2024-01-08,25.129036,121.923372,0.0018596799
C0A970,三貂角,2024-01-08,25.007606,122.002058,0.03239663
C0A980,社子,2024-01-08,25.109508,121.469681,0.0012920753
C0A9C0,天母,2024-01-08,25.117494,121.537169,0.00076941436
C0A9F0,內湖,2024-01-08,25.079422,121.57545,0.0007513121
C0AC60,三峽,2024-01-08,24.939025,121.369728,0.001086718
C0AC70,信義,2024-01-08,25.037822,121.564597,0.0013674952
C0AC80,文山,2024-01-08,25.00235,121.575728,0.001195987
C0ACA0,新莊,2024-01-08,25.051478,121.446756,0.0014073993
C0AD00,三芝,2024-01-08,25.258131,121.501917,0.0011665452
C0AD10,八里,2024-01-08,25.150211,121.403947,0.0015933554
C0AD30,蘆洲,2024-01-08,25.086594,121.472331,0.001857418
C0AD40,土城,2024-01-08,24.973208,121.445169,0.0016264423
C0AD50,鶯歌,2024-01-08,24.951533,121.346294,0.0010588096
C0AG80,中和,2024-01-08,24.991622,121.491792,0.0022374496
C0AH00,汐止,2024-01-08,25.066881,121.658778,0.0007849363
C0AH10,永和,2024-01-08,25.01125,121.508111,0.0022576014
C0AH40,平等,2024-01-08,25.129142,121.577086,0.0008587357
C0AH50,林口,2024-01-08,25.072181,121.38084,0.0007368501
C0AH70,松山,2024-01-08,25.04871,121.55042,0.0013674957
C0AH80,深坑,2024-01-08,25.002703,121.628328,0.00068283145
C0AI00,五股,2024-01-08,25.07445,121.42728,0.00096733164
C0AI10,屈尺,2024-01-08,24.92184,121.54475,0.0019927062
C0AI20,白沙灣,2024-01-08,25.283128,121.519058,0.0012318797
C0AI30,三重,2024-01-08,25.057328,121.500629,0.0034921814
C0AI40,石牌,2024-01-08,25.115597,121.513139,0.0010502208
C0AJ20,野柳,2024-01-08,25.20703,121.690021,0.0111092925
C0AJ30,淡水觀海,2024-01-08,25.184591,121.408616,0.0023853807
C0AJ40,石門,2024-01-08,25.273672,121.601198,0.0010960324
C0AJ50,水湳洞,2024-01-08,25.123695,121.862238,0.0067675165
C0AJ60,六塊厝,2024-01-08,25.24,121.4481,0.0010837513
C0AJ70,田寮,2024-01-08,25.2698,121.4886,0.0012872
C0AJ80,板橋,2024-01-08,25.0107,121.4489,0.0021242406
C0AJ90,澳底,2024-01-08,25.0552,121.9253,0.009831221
C0B010,七堵,2024-01-08,25.094819,121.71713,0.0010421303
C0B020,基隆嶼,2024-01-08,25.19141,121.78391,0.0020589875
C0B040,大武崙,2024-01-08,25.166676,121.706993,0.005593085
C0B050,八斗子,2024-01-08,25.144754,121.79167,0.00656406
C0B060,暖暖,2024-01-08,25.0957,121.7403,0.0010122113
C0C460,復興,2024-01-08,24.820208,121.352281,0.0015176691
C0C480,桃園,2024-01-08,24.992425,121.323172,0.0007721846
C0C490,八德,2024-01-08,24.928708,121.283289,0.0008983445
C0C590,觀音,2024-01-08,25.027072,121.153317,0.0008145052
C0C620,蘆竹,2024-01-08,25.084275,121.265767,0.0012256942
C0C630,大溪,2024-01-08,24.882853,121.265547,0.00091130816
C0C650,平鎮,2024-01-08,24.897503,121.214636,0.0006600548
C0C660,楊梅,2024-01-08,24.912375,121.143047,0.00058986736
C0C670,龍潭,2024-01-08,24.870056,121.221389,0.00093325245
C0C680,龜山,2024-01-08,25.02846,121.38656,0.0007401634
C0C700,中壢,2024-01-08,24.977661,121.256375,0.0007475758
C0C710,大溪永福,2024-01-08,24.892936,121.324975,0.0009209829
C0C720,竹圍,2024-01-08,25.112692,121.239824,0.0009127407
C0C730,中大臨海站,2024-01-08,24.966126,121.008581,0.0004936196
C0C740,觀音工業區,2024-01-08,25.064764,121.114856,0.0008602475
C0C750,新興坑尾,2024-01-08,25.0061,121.0971,0.0006781733
C0D430,峨眉,2024-01-08,24.6905,121.017189,0.00078009354
C0D480,打鐵坑,2024-01-08,24.849664,121.150789,0.00071976
C0D540,橫山,2024-01-08,24.71116,121.11693,0.0012854297
C0D560,竹東,2024-01-08,24.767147,121.057881,0.0007713135
C0D580,寶山,2024-01-08,24.735006,121.025192,0.0009377398
C0D590,新豐,2024-01-08,24.87068,120.97721,0.0007462949
C0D650,湖口,2024-01-08,24.904794,121.043628,0.00055386376
C0D660,新竹市東區,2024-01-08,24.798681,120.986942,0.0006211752
C0D670,海天一線,2024-01-08,24.831986,120.914438,0.00076268776
C0D680,香山濕地,2024-01-08,24.783581,120.914988,0.0005364418
C0D690,外湖,2024-01-08,24.917735,120.968711,0.00040103126
C0D700,關西,2024-01-08,24.7977,121.1732,0.000803927
C0E420,竹南,2024-01-08,24.708978,120.888897,0.0006059446
C0E430,南庄,2024-01-08,24.601775,121.000214,0.0012929345
C0E520,大湖,2024-01-08,24.41494,120.87087,0.0014726236
C0E540,後龍,2024-01-08,24.606489,120.783933,0.0007711301
C0E550,明德,2024-01-08,24.583486,120.885411,0.0009893436
C0E590,通霄,2024-01-08,24.471892,120.704622,0.00089035946
C0E730,頭份,2024-01-08,24.688247,120.912206,0.0007591228
C0E740,造橋,2024-01-08,24.637056,120.864778,0.00076199544
C0E750,苗栗,2024-01-08,24.564569,120.824575,0.0009549805
C0E780,銅鑼,2024-01-08,24.489681,120.790853,0.0009966044
C0E791,卓蘭,2024-01-08,24.3126,120.8244,0.0018557567
C0E810,西湖,2024-01-08,24.562947,120.7485,0.00091678393
C0E820,獅潭,2024-01-08,24.539133,120.920042,0.0013064924
C0E830,苑裡,2024-01-08,24.439714,120.653053,0.00060916477
C0E850,大河,2024-01-08,24.618069,120.948578,0.0010897601
C0E870,高鐵苗栗,2024-01-08,24.60725,120.826094,0.0007702191
C0E910,海埔,2024-01-08,24.648767,120.772435,0.0003974425
C0E920,通霄漁港,2024-01-08,24.498589,120.673876,0.0008246923
C0E930,龍鳳,2024-01-08,24.700034,120.859125,0.00060868595
C0F0B0,石岡,2024-01-08,24.276061,120.777644,0.0019577586
C0F850,東勢,2024-01-08,24.246428,120.833047,0.0020490433
C0F930,大甲,2024-01-08,24.347667,120.640403,0.00080801896
C0F970,大坑,2024-01-08,24.173142,120.722289,0.0029152662
C0F9A0,中竹林,2024-01-08,24.103556,120.751061,0.013025762
C0F9I0,神岡,2024-01-08,24.272481,120.658314,0.0012854977
C0F9K0,大安,2024-01-08,24.345061,120.588025,0.0006564626
C0F9L0,后里,2024-01-08,24.310436,120.729725,0.002144007
C0F9M0,豐原,2024-01-08,24.254322,120.720692,0.002347237
C0F9N0,大里,2024-01-08,24.092464,120.701378,0.0039903168
C0F9O0,潭子,2024-01-08,24.213106,120.703933,0.002277763
C0F9P0,清水,2024-01-08,24.312297,120.562242,0.0007464698
C0F9Q0,外埔,2024-01-08,24.347817,120.705686,0.0011745845
C0F9R0,龍井,2024-01-08,24.184536,120.528972,0.00070124015
C0F9S0,烏日,2024-01-08,24.107058,120.624103,0.0031230384
C0F9T0,西屯,2024-01-08,24.179494,120.641275,0.0010995797
C0F9U0,南屯,2024-01-08,24.137006,120.637969,0.0012564624
C0F9X0,大雅(中科園區),2024-01-08,24.21528,120.62445,0.0010784237
C0FA10,松柏,2024-01-08,24.429115,120.617482,0.00061349466
C0FA20,溫寮,2024-01-08,24.372177,120.583125,0.0006590491
C0FA30,梧棲,2024-01-08,24.256003,120.523381,0.000621559
C0FA40,臺中電廠,2024-01-08,24.2146,120.4907,0.00070124015
C0FA50,霧峰,2024-01-08,24.0419,120.6995,0.0033291928
C0G620,芬園,2024-01-08,24.015678,120.6213,0.0024480182
C0G640,鹿港,2024-01-08,24.0753,120.430481,0.0006726419
C0G650,員林,2024-01-08,23.946503,120.585597,0.0033251387
C0G660,溪湖,2024-01-08,23.94835,120.479122,0.0020704593
C0G720,溪州,2024-01-08,23.851589,120.499093,0.0022464371
C0G730,二林,2024-01-08,23.903325,120.376081,0.0008713229
C0G740,大城,2024-01-08,23.852487,120.320935,0.0008596776
C0G770,福興,2024-01-08,24.041289,120.437669,0.00076509
C0G780,秀水,2024-01-08,24.03405,120.503869,0.0017152
C0G800,埔鹽,2024-01-08,24.000394,120.431683,0.0008782638
C0G810,埔心,2024-01-08,23.947633,120.525456,0.002044453
C0G820,田尾,2024-01-08,23.901669,120.509389,0.0022394068
C0G830,埤頭,2024-01-08,23.866003,120.452806,0.0017035803
C0G840,北斗,2024-01-08,23.877586,120.514222,0.0021753865
C0G860,社頭,2024-01-08,23.897647,120.5862,0.0032465947
C0G870,芳苑,2024-01-08,23.922303,120.320025,0.0008141948
C0G880,二水,2024-01-08,23.810742,120.6173,0.005979165
C0G890,伸港,2024-01-08,24.148933,120.484403,0.0007792146
C0G900,線西,2024-01-08,24.143358,120.443536,0.00057153055
C0G910,花壇,2024-01-08,24.032076,120.549461,0.0022643544
C0G920,永靖,2024-01-08,23.924703,120.547533,0.002534904
C0G940,竹塘,2024-01-08,23.848253,120.386764,0.00087418733
C0G950,防潮門,2024-01-08,24.1835,120.4871,0.00070124015
C0G960,福寶,2024-01-08,24.0443,120.3814,0.0005698631
C0G970,三豐,2024-01-08,23.882,120.2895,0.0008028579
C0H890,埔里,2024-01-08,23.972169,120.952425,0.007158053
C0H950,中寮,2024-01-08,23.884447,120.766406,0.006332378
C0H960,草屯,2024-01-08,23.973672,120.68085,0.0030920869
C0I110,竹山,2024-01-08,23.761225,120.688156,0.0056237816
C0I360,水里,2024-01-08,23.812553,120.849792,0.014582784
C0I380,集集,2024-01-08,23.828206,120.801467,0.015808225
C0I410,名間,2024-01-08,23.837053,120.701447,0.0060292343
C0I420,國姓,2024-01-08,24.037803,120.855072,0.019324023
C0I460,南投,2024-01-08,23.911469,120.687331,0.014589144
C0K250,崙背,2024-01-08,23.75555,120.318925,0.0008760856
C0K280,四湖,2024-01-08,23.630414,120.227125,0.0008528637
C0K291,宜梧,2024-01-08,23.536281,120.169329,0.0009630792
C0K330,虎尾,2024-01-08,23.719183,120.442036,0.0018840018
C0K390,土庫,2024-01-08,23.679029,120.395574,0.0014851976
C0K400,斗六,2024-01-08,23.720583,120.541127,0.0037667647
C0K410,北港,2024-01-08,23.573957,120.292802,0.0014038453
C0K420,西螺,2024-01-08,23.800407,120.467394,0.0015600929
C0K430,褒忠,2024-01-08,23.690938,120.303634,0.00095197547
C0K440,二崙,2024-01-08,23.772797,120.408944,0.0018991793
C0K450,大埤,2024-01-08,23.646074,120.431537,0.0021468287
C0K460,斗南,2024-01-08,23.678734,120.478359,0.0023738455
C0K470,林內,2024-01-08,23.748675,120.609642,0.008428677
C0K480,莿桐,2024-01-08,23.761192,120.502372,0.0027907088
C0K500,元長,2024-01-08,23.64981,120.315024,0.0011483271
C0K510,水林,2024-01-08,23.572924,120.24597,0.0012441901
C0K530,臺西,2024-01-08,23.701547,120.197559,0.0007122135
C0K550,蔦松,2024-01-08,23.514319,120.229736,0.0012193106
C0K560,棋山,2024-01-08,23.68645,120.603417,0.0079584895
C0K580,高鐵雲林,2024-01-08,23.737456,120.417944,0.0017030331
C0K590,雲林東勢,2024-01-08,23.674192,120.255721,0.0009863892
C0K600,箔子寮,2024-01-08,23.6197,120.14,0.00064797356
C0M410,馬頭山,2024-01-08,23.324361,120.582017,0.026617702
C0M520,東後寮,2024-01-08,23.369908,120.248065,0.0014291832
C0M640,中埔,2024-01-08,23.42538,120.5229,0.0062295403
C0M650,朴子,2024-01-08,23.43463,120.23902,0.0015028234
C0M660,溪口,2024-01-08,23.604131,120.403569,0.0016427627
C0M670,大林,2024-01-08,23.600616,120.45841,0.0017379617
C0M680,太保,2024-01-08,23.455062,120.331455,0.0023044366
C0M690,水上,2024-01-08,23.419734,120.388909,0.0025277752
C0M700,竹崎,2024-01-08,23.526178,120.555508,0.0047335783
C0M710,東石,2024-01-08,23.458927,120.15385,0.0006517902
C0M720,番路,2024-01-08,23.464657,120.554156,0.006121534
C0M730,嘉義市東區,2024-01-08,23.457673,120.460531,0.007669652
C0M740,六腳,2024-01-08,23.492871,120.290625,0.0015132129
C0M750,布袋,2024-01-08,23.380878,120.167789,0.0011864423
C0M760,民雄,2024-01-08,23.551754,120.428457,0.0018294958
C0M770,嘉義梅山,2024-01-08,23.585398,120.555587,0.005252173
C0M780,鹿草,2024-01-08,23.41134,120.30835,0.001673345
C0M790,新港,2024-01-08,23.553269,120.345728,0.0015754618
C0M800,茶山,2024-01-08,23.299075,120.664767,0.02763421
C0M880,好美里,2024-01-08,23.3364,120.138,0.00070001866
C0N010,鯤鯓國小,2024-01-08,23.1879,120.0889,0.00059184904
C0N020,城西,2024-01-08,23.0568,120.0956,0.0014383948
C0N030,四草,2024-01-08,23.0235,120.1116,0.0012715408
C0N040,蘆竹溝,2024-01-08,23.2344,120.0961,0.00085887196
C0N050,蚵寮,2024-01-08,23.301,120.1104,0.00076056586
C0O810,曾文,2024-01-08,23.219681,120.497328,0.06964146
C0O830,北寮,2024-01-08,23.079561,120.495008,0.031608723
C0O840,王爺宮,2024-01-08,23.222064,120.40085,0.004552601
C0O860,大內,2024-01-08,23.11885,120.36083,0.0042396644
C0O900,善化,2024-01-08,23.112883,120.297219,0.0036050673
C0O930,玉井,2024-01-08,23.126042,120.46055,0.009646422
C0O950,安南,2024-01-08,23.076694,120.144861,0.001187043
C0O960,崎頂,2024-01-08,22.959547,120.369317,0.005230315
C0O970,虎頭埤,2024-01-08,23.021375,120.347878,0.005429453
C0O980,新市,2024-01-08,23.061614,120.298197,0.0037841056
C0O990,媽廟,2024-01-08,22.99175,120.293525,0.0036894178
C0R150,三地門,2024-01-08,22.709889,120.639944,0.24563509
C0R160,鹽埔,2024-01-08,22.739558,120.530778,0.036655217
C0R170,屏東,2024-01-08,22.660269,120.494072,0.056613185
C0R190,赤山,2024-01-08,22.592333,120.614306,0.12980604
C0R220,潮州,2024-01-08,22.534361,120.54,0.15696652
C0R240,來義,2024-01-08,22.527306,120.625111,0.098104514
C0R260,春日,2024-01-08,22.370361,120.628306,0.008204531
C0R270,琉球嶼,2024-01-08,22.332244,120.362236,0.09269796
C0R280,檳榔,2024-01-08,22.076078,120.836777,0.00041611193
C0R320,車城,2024-01-08,22.0744,120.716247,0.00010989197
C0R341,牡丹,2024-01-08,22.130036,120.792639,0.0004159105
C0R350,貓鼻頭,2024-01-08,21.921774,120.7358,6.924474e-05
C0R470,高樹,2024-01-08,22.826389,120.600806,0.067143075
C0R480,長治,2024-01-08,22.693128,120.542622,0.10903078
C0R490,九如,2024-01-08,22.7405,120.490503,0.038739473
C0R520,崁頂,2024-01-08,22.514781,120.506914,0.1431992
C0R540,佳冬,2024-01-08,22.419456,120.552375,0.0199082
C0R550,新埤,2024-01-08,22.467947,120.582894,0.072248496
C0R560,新園,2024-01-08,22.5434,120.461558,0.058709994
C0R570,麟洛,2024-01-08,22.65078,120.52719,0.056613185
C0R580,南州,2024-01-08,22.48591,120.50274,0.094721705
C0R590,里港,2024-01-08,22.77919,120.49459,0.1032232
C0R620,墾雷,2024-01-08,21.900836,120.855269,0.00015844061
C0R640,東港,2024-01-08,22.46247,120.44074,0.06783106
C0R650,竹田,2024-01-08,22.58486,120.54344,0.16342251
C0R660,枋寮,2024-01-08,22.367722,120.590647,0.0199082
C0R670,楓港,2024-01-08,22.190131,120.692156,0.00017500545
C0R680,佳樂水,2024-01-08,21.993578,120.861633,0.0011271664
C0R690,墾丁,2024-01-08,21.966756,120.810269,0.0014856686
C0R700,枋山,2024-01-08,22.246844,120.661086,0.0010553483
C0R710,龍磐,2024-01-08,21.931672,120.838942,0.00016618974
C0R720,旭海,2024-01-08,22.205403,120.887614,0.0012172486
C0R730,大坪頂,2024-01-08,22.024633,120.69355,0.000514315
C0R740,獅子,2024-01-08,22.201569,120.70525,0.001314692
C0R760,南仁湖,2024-01-08,22.084681,120.863353,0.0010670974
C0R770,保力,2024-01-08,22.071122,120.764111,0.0005673065
C0R780,滿州,2024-01-08,22.024403,120.839892,0.0015491446
C0R790,九棚,2024-01-08,22.14195,120.889281,0.0010518131
C0R800,丹路,2024-01-08,22.204481,120.750989,0.000517182
C0R810,內獅,2024-01-08,22.305064,120.642986,0.001209346
C0R830,高士,2024-01-08,22.121825,120.836781,0.0012249273
C0R850,林邊,2024-01-08,22.4634,120.5339,0.08262849
C0R860,鼻頭,2024-01-08,22.1043,120.8979,0.0013058884
C0R870,興海,2024-01-08,21.9752,120.8439,0.0011127574
C0R880,後壁湖,2024-01-08,21.9457,120.7457,0.0006659517
C0R890,山海,2024-01-08,21.9878,120.7091,0.000666798
C0R900,竹坑,2024-01-08,22.1385,120.7022,0.00010975719
C0R910,下寮,2024-01-08,22.3929,120.5548,0.0199082
C0R920,塭仔,2024-01-08,22.4169,120.5197,0.052912768
C0R930,萬丹,2024-01-08,22.5885,120.4851,0.07268252
C0R940,加祿堂,2024-01-08,22.3363,120.6217,0.0003130453
C0S710,鹿野,2024-01-08,22.917711,121.122994,0.0012392009
C0S730,綠島,2024-01-08,22.6672,121.47533,0.0014230555
C0S740,池上,2024-01-08,23.119628,121.209469,0.0013314558
C0S770,大溪山,2024-01-08,22.478475,120.943325,0.0016115386
C0S790,金崙,2024-01-08,22.538122,120.966875,0.00217325
C0S810,東河,2024-01-08,22.972672,121.303986,0.0015414198
C0S830,長濱,2024-01-08,23.286817,121.411975,0.0016095901
C0S840,南田,2024-01-08,22.279725,120.889208,0.0008217244
C0S890,關山,2024-01-08,23.0395,121.175017,0.0022465396
C0S900,蘭嶼高中,2024-01-08,22.04909,121.51214,0.0021987632
C0S910,蘭嶼燈塔,2024-01-08,22.081197,121.503117,0.002011857
C0S920,金峰嘉蘭,2024-01-08,22.594789,120.960825,0.0019821227
C0S930,延平,2024-01-08,22.902581,121.084058,0.0010135002
C0S940,石寧山,2024-01-08,23.223772,121.406639,0.0015899122
C0S950,七塊厝,2024-01-08,22.954453,121.229922,0.001205352
C0S960,香蘭,2024-01-08,22.587569,120.993375,0.0074033258
C0S970,加津林,2024-01-08,22.416211,120.926942,0.0019875255
C0S990,山豬窟,2024-01-08,22.318619,120.857372,0.0018162783
C0SA00,歷坵,2024-01-08,22.520969,120.89185,0.0019898035
C0SA10,檳榔四格山,2024-01-08,22.810031,121.109308,0.0017137856
C0SA30,都歷,2024-01-08,23.020333,121.323642,0.0041789743
C0SA40,瑞和,2024-01-08,22.974361,121.156697,0.0018489778
C0SA60,知本（水試所）,2024-01-08,22.702394,121.082761,0.026279455
C0SA80,土坂,2024-01-08,22.453108,120.887572,0.0020121473
C0SA90,達仁林場,2024-01-08,22.264347,120.823972,0.00085134647
C0T870,鯉魚潭,2024-01-08,23.935639,121.508944,0.001816133
C0T900,西林,2024-01-08,23.8119,121.441458,0.003732061
C0T960,光復,2024-01-08,23.660694,121.424964,0.0022083458
C0T9A0,月眉山,2024-01-08,23.809928,121.539828,0.0013044117
C0T9D0,和中,2024-01-08,24.26676,121.74103,0.00080225256
C0T9E0,大坑,2024-01-08,23.880628,121.581981,0.0017053807
C0T9F0,水璉,2024-01-08,23.797131,121.542514,0.0016086587
C0T9I0,豐濱,2024-01-08,23.583897,121.514806,0.0019744413
C0T9M0,靜浦,2024-01-08,23.455167,121.495028,0.0014128508
C0T9N0,富里,2024-01-08,23.171639,121.249378,0.0009947114
C0U600,礁溪,2024-01-08,24.817539,121.765608,0.0036249857
C0U650,玉蘭,2024-01-08,24.675286,121.587061,0.0036356589
C0U750,龜山島,2024-01-08,24.841667,121.953133,0.0028673345
C0U760,東澳,2024-01-08,24.52196,121.83318,0.037502028
C0U770,南澳,2024-01-08,24.44935,121.81022,0.0019890515
C0U780,五結,2024-01-08,24.68637,121.79794,0.01574127
C0U860,頭城,2024-01-08,24.85323,121.8308,0.0037111456
C0U870,大礁溪,2024-01-08,24.791042,121.675047,0.0028783397
C0U880,北關,2024-01-08,24.9072,121.8734,0.026540421
C0U890,三星,2024-01-08,24.66812,121.65302,0.024479296
C0U900,內城,2024-01-08,24.71813,121.68766,0.010586745
C0U910,冬山,2024-01-08,24.63373,121.7937,0.078105256
C0U940,羅東,2024-01-08,24.68184,121.74934,0.014218308
C0U970,大福,2024-01-08,24.80064,121.81389,0.0018042747
C0U990,員山,2024-01-08,24.74435,121.72247,0.011555067
C0UA00,土場,2024-01-08,24.576533,121.495333,0.008974904
C0UA80,大溪漁港,2024-01-08,24.941801,121.902955,0.02343317
C0UA90,石城,2024-01-08,24.980444,121.951214,0.03939794
C0UB00,淡江大學蘭陽校園,2024-01-08,24.823239,121.730383,0.002929008
C0UB10,蘇澳,2024-01-08,24.5969,121.8571,0.37714717
C0UB20,壯圍,2024-01-08,24.7359,121.8163,0.013874311
C0V250,甲仙,2024-01-08,23.080106,120.591758,0.01216789
C0V260,月眉,2024-01-08,22.971003,120.539853,0.22417922
C0V310,美濃,2024-01-08,22.898742,120.519153,0.073416956
C0V350,溪埔,2024-01-08,22.738578,120.446797,0.082968734
C0V360,內門,2024-01-08,22.975481,120.466769,0.025326675
C0V370,古亭坑,2024-01-08,22.893178,120.401947,0.04596716
C0V400,阿公店,2024-01-08,22.804194,120.355528,0.05068201
C0V440,鳳山,2024-01-08,22.646653,120.356122,0.012020946
C0V450,鳳森,2024-01-08,22.545064,120.392592,0.030796383
C0V490,新興,2024-01-08,22.627422,120.298803,0.028956695
C0V530,阿蓮,2024-01-08,22.883208,120.327508,0.0066933553
C0V610,梓官,2024-01-08,22.760558,120.267211,0.012462629
C0V620,永安,2024-01-08,22.82315,120.236856,0.0027221837
C0V630,茄萣,2024-01-08,22.906642,120.182608,0.001297801
C0V640,湖內,2024-01-08,22.887139,120.2445,0.0017969
C0V650,彌陀,2024-01-08,22.783806,120.246361,0.0027221823
C0V660,岡山,2024-01-08,22.797078,120.294958,0.0036654584
C0V680,仁武,2024-01-08,22.701083,120.347722,0.013318748
C0V690,鼓山,2024-01-08,22.623325,120.275575,0.013981022
C0V700,三民,2024-01-08,22.645017,120.311233,0.009799961
C0V710,苓雅,2024-01-08,22.622742,120.330669,0.02486419
C0V720,林園,2024-01-08,22.507747,120.394511,0.032338336
C0V730,大寮,2024-01-08,22.605614,120.395717,0.039390218
C0V740,旗山,2024-01-08,22.888614,120.483597,0.070392005
C0V750,路竹,2024-01-08,22.854997,120.259439,0.0017865568
C0V760,橋頭,2024-01-08,22.757806,120.30575,0.02326838
C0V770,大社,2024-01-08,22.730306,120.346639,0.02781895
C0V790,萬山,2024-01-08,22.905944,120.688056,0.017614154
C0V800,六龜,2024-01-08,22.997889,120.633583,0.28877565
C0V810,左營,2024-01-08,22.67491,120.28491,0.009799961
C0V820,小林,2024-01-08,23.148408,120.63325,0.011519649
C0V840,鳳鼻頭,2024-01-08,22.5083,120.3591,0.033878755
C0V850,蚵仔寮,2024-01-08,22.7256,120.2527,0.013002248
C0V860,南寮,2024-01-08,22.7616,120.2339,0.013002248
C0V870,文安,2024-01-08,22.8025,120.2164,0.0015761422
C0V880,興達,2024-01-08,22.8778,120.2127,0.001297801
C0V890,前鎮,2024-01-08,22.5718,120.3117,0.022581475
C0V900,汕尾,2024-01-08,22.4782,120.4151,0.07299493
C0X050,東河,2024-01-08,23.296598,120.385608,0.005778608
C0X060,下營,2024-01-08,23.22695,120.256261,0.002419239
C0X080,佳里,2024-01-08,23.173039,120.145086,0.0012780268
C0X100,臺南市北區,2024-01-08,23.010394,120.194228,0.0019476085
C0X110,臺南市南區,2024-01-08,22.961189,120.188378,0.0019215829
C0X120,麻豆,2024-01-08,23.183289,120.248611,0.003090913
C0X130,官田,2024-01-08,23.193217,120.315422,0.0040485524
C0X140,西港,2024-01-08,23.125608,120.203108,0.002316475
C0X150,安定,2024-01-08,23.102614,120.227839,0.0026191107
C0X160,仁德,2024-01-08,22.968258,120.257689,0.0024013529
C0X170,關廟,2024-01-08,22.963017,120.327797,0.0056642923
C0X180,山上,2024-01-08,23.0757,120.363253,0.0076815714
C0X190,安平,2024-01-08,22.993161,120.152181,0.0012559191
C0X200,左鎮,2024-01-08,23.056758,120.408522,0.007103108
C0X210,白河,2024-01-08,23.347466,120.414427,0.005174683
C0X220,學甲,2024-01-08,23.230367,120.182187,0.0012780026
C0X230,鹽水,2024-01-08,23.272621,120.247641,0.0013157486
C0X240,關子嶺,2024-01-08,23.331169,120.508025,0.009368604
C0X250,新營,2024-01-08,23.310689,120.316681,0.0022744027
C0X260,後壁,2024-01-08,23.366358,120.362326,0.0026352685
C0X280,將軍,2024-01-08,23.214999,120.13577,0.000999166
C0X290,北門,2024-01-08,23.267772,120.125481,0.00085887196
C0X300,鹿寮,2024-01-08,23.386047,120.477331,0.0062660035
C0X310,七股,2024-01-08,23.147289,120.086253,0.00065614673
C0X320,柳營,2024-01-08,23.253328,120.375253,0.006608415
C0Z020,明里,2024-01-08,23.208717,121.262342,0.002379268
C0Z061,玉里,2024-01-08,23.3215,121.339656,0.0032152464
C0Z070,舞鶴,2024-01-08,23.46811,121.37407,0.002060151
C0Z080,富源,2024-01-08,23.587642,121.378225,0.004506084
C0Z100,東華,2024-01-08,23.89525,121.549833,0.003312536
C0Z150,吉安光華,2024-01-08,23.930925,121.595153,0.0037460525
C0Z160,鳳林,2024-01-08,23.746114,121.453411,0.0040684897
C0Z170,卓溪,2024-01-08,23.3443,121.3029,0.0021649213
C0Z180,新城,2024-01-08,24.03946,121.60454,0.0027596557
C0Z190,富世,2024-01-08,24.14743,121.6297,0.001304864
C0Z200,萬榮,2024-01-08,23.709219,121.420106,0.0036830015
C0Z210,瑞穗,2024-01-08,23.5239,121.39021,0.0028119495
C0Z230,和平,2024-01-08,24.30717,121.77007,0.0009845546
C0Z270,蕃薯寮,2024-01-08,23.73835,121.540108,0.0012908623
C0Z280,德武,2024-01-08,23.47426,121.41071,0.0020338877
C0Z300,東里,2024-01-08,23.26853,121.30547,0.0030851262
C0Z310,清水斷崖,2024-01-08,24.218294,121.689142,0.0005695126
C0Z330,安通山,2024-01-08,23.290728,121.348528,0.0015981781
CAG100,王功漁港,2024-01-08,23.96824,120.32586,0.0007827501
CAH030,茶改場竹圍站,2024-01-08,23.860083,120.637528,0.008202397
CAJ050,海口故事園區,2024-01-08,23.57543,120.14121,0.00064797356
CAL110,布袋國中,2024-01-08,23.35893,120.18026,0.001218643
CAN130,水試所海水繁養殖中心,2024-01-08,23.120802,120.07968,0.0006785781
CAN140,六官養殖協會,2024-01-08,23.22881,120.29962,0.0025355758
CAQ030,崎峰國小,2024-01-08,22.42565,120.49521,0.08283795
E2K600,四湖植物園,2024-01-08,23.676986,120.163433,0.00070017675
E2P980,林試六龜中心,2024-01-08,22.991703,120.645722,0.26430336
E2S960,林試太麻里2,2024-01-08,22.598014,120.989761,0.007403333
E2S980,林試太麻里1,2024-01-08,22.598922,120.980044,0.0052547646
G2AI50,關渡,2024-01-08,25.11575,121.492,0.0012801979
G2F820,農業試驗所,2024-01-08,24.031261,120.688133,0.0034074117
G2F820,農試所(霧峰),2024-01-08,24.031261,120.688133,0.0034074117
G2L020,農試嘉義分所,2024-01-08,23.485028,120.473806,0.006809428
G2M350,農試溪口農場,2024-01-08,23.58565,120.408111,0.0018201043
G2P820,農試鳳山分所,2024-01-08,22.646611,120.356083,0.012020946
K2E360,苗栗農改,2024-01-08,24.495722,120.829111,0.0010136918
K2E360,苗栗農改場,2024-01-08,24.495722,120.829111,0.0010136918
K2E710,苗改生物防治研究中心,2024-01-08,24.422861,120.871833,0.0015115625
K2F750,種苗改良場,2024-01-08,24.225972,120.800917,0.0038315516
K2F750,種苗繁殖,2024-01-08,24.225972,120.800917,0.0038315516
U2HA50,臺大竹山,2024-01-08,23.756972,120.681556,0.006440403
V2C250,八德合作社,2024-01-08,24.93775,121.266389,0.0007952251
V2C260,八德蔬果,2024-01-08,24.978508,121.281819,0.0007703068
V2K610,大庄合作社,2024-01-08,23.8068,120.367939,0.0008867025
V2K620,麥寮合作社,2024-01-08,23.753836,120.294783,0.0008760856
