站號,站名,日期,lat,lon,BLBTSLS
C0R710,龍磐,2024-04-16,21.931672,120.838942,0.108817354
C1F9D1,白毛台,2024-04-16,24.158325,120.886933,1.228564e-09
C0G940,竹塘,2024-04-16,23.848253,120.386764,0.9967175
467590,恆春,2024-04-16,22.003897,120.746339,0.9589987
C1O850,環湖,2024-04-16,23.148617,120.418633,0.99336714
C0U710,太平山,2024-04-16,24.505486,121.525656,1.1045768e-08
C0E820,獅潭,2024-04-16,24.539133,120.920042,4.5376725e-09
C0V880,興達,2024-04-16,22.8778,120.2127,0.9980621
C0S890,關山,2024-04-16,23.0395,121.175017,3.3369975e-07
K2F750,種苗繁殖,2024-04-16,24.225972,120.800917,9.786246e-10
C1Z130,銅門,2024-04-16,23.965694,121.492842,1.1834951e-08
C0AD40,土城,2024-04-16,24.973208,121.445169,4.6891154e-07
CAN140,六官養殖協會,2024-04-16,23.22881,120.29962,0.9991081
C0X180,山上,2024-04-16,23.0757,120.363253,0.99803174
C0F9Z0,雪山東峰,2024-04-16,24.388792,121.268675,1.5723986e-08
C1M480,獨立山,2024-04-16,23.537022,120.607797,7.760407e-10
C0X220,學甲,2024-04-16,23.230367,120.182187,0.8924914
C0R170,屏東,2024-04-16,22.660269,120.494072,0.9971025
467650,日月潭,2024-04-16,23.881325,120.90805,4.7103668e-09
C0K600,箔子寮,2024-04-16,23.6197,120.14,0.99671626
C0G830,埤頭,2024-04-16,23.866003,120.452806,0.9345313
C0S950,七塊厝,2024-04-16,22.954453,121.229922,4.7322697e-08
467110,金門,2024-04-16,24.407306,118.289281,0.00018117142
C0AH80,深坑,2024-04-16,25.002703,121.628328,2.0091983e-07
467990,馬祖,2024-04-16,26.169269,119.923419,0.0030053358
C0A970,三貂角,2024-04-16,25.007606,122.002058,2.2702015e-05
C0K430,褒忠,2024-04-16,23.690938,120.303634,0.9992822
467480,嘉義,2024-04-16,23.495925,120.432906,0.99976736
C2E540,後龍,2024-04-16,24.606489,120.783933,1.9310575e-05
C0V400,阿公店,2024-04-16,22.804194,120.355528,0.9919782
C0R440,大漢山,2024-04-16,22.405264,120.753181,3.7169505e-09
C0K280,四湖,2024-04-16,23.630414,120.227125,0.9981618
C1F9B1,桐林,2024-04-16,24.066172,120.735194,3.2111274e-07
C0K390,土庫,2024-04-16,23.679029,120.395574,0.9988398
C1I450,望鄉山,2024-04-16,23.594153,120.944286,6.271305e-09
C0E910,海埔,2024-04-16,24.648767,120.772435,3.2131607e-05
B2E890,畜試北區分所,2024-04-16,24.527806,120.770972,2.5015341e-08
C0R750,四林格山,2024-04-16,22.076989,120.802439,0.93504196
C0F0C0,中坑,2024-04-16,24.248517,120.903319,1.0671487e-09
C1I121,大鞍,2024-04-16,23.678381,120.760017,2.007992e-09
72U480,花改蘭陽分場,2024-04-16,24.686306,121.716583,8.064815e-08
C0A770,科教館,2024-04-16,25.096356,121.516507,4.987222e-07
C0AJ60,六塊厝,2024-04-16,25.24,121.4481,0.9998963
C0R620,墾雷,2024-04-16,21.900836,120.855269,0.047290266
467420,永康,2024-04-16,23.038386,120.2367,0.99913496
467300,東吉島,2024-04-16,23.25695,119.667467,0.25953713
C0I410,名間,2024-04-16,23.837053,120.701447,2.309304e-08
A2C560,農工中心,2024-04-16,24.985917,121.239833,0.00024319784
C0V740,旗山,2024-04-16,22.888614,120.483597,0.03805261
C0Z061,玉里,2024-04-16,23.3215,121.339656,1.4910045e-08
C0S840,南田,2024-04-16,22.279725,120.889208,0.8392456
C1I470,杉林溪,2024-04-16,23.639517,120.786444,2.3355842e-09
C1X040,東原,2024-04-16,23.291597,120.463822,0.8792301
C0R660,枋寮,2024-04-16,22.367722,120.590647,0.0017072611
C1R120,上德文,2024-04-16,22.763272,120.704442,4.4134807e-10
C0K450,大埤,2024-04-16,23.646074,120.431537,0.9992976
C0UA00,土場,2024-04-16,24.576533,121.495333,4.560329e-08
467080,宜蘭,2024-04-16,24.763975,121.756528,3.6734807e-08
C0N030,四草,2024-04-16,23.0235,120.1116,0.99656785
C0V650,彌陀,2024-04-16,22.783806,120.246361,0.99177414
C0D660,新竹市東區,2024-04-16,24.798681,120.986942,4.8508814e-06
82S580,茶改東部分場,2024-04-16,22.907694,121.130139,0.0030073882
C0C710,大溪永福,2024-04-16,24.892936,121.324975,1.8581089e-07
C0FA20,溫寮,2024-04-16,24.372177,120.583125,0.17532465
C0V640,湖內,2024-04-16,22.887139,120.2445,0.9978049
C0R910,下寮,2024-04-16,22.3929,120.5548,0.0017072611
C0Z020,明里,2024-04-16,23.208717,121.262342,2.2914072e-08
C0M770,嘉義梅山,2024-04-16,23.585398,120.555587,0.99931127
G2F820,農業試驗所,2024-04-16,24.031261,120.688133,4.985453e-07
C0C660,楊梅,2024-04-16,24.912375,121.143047,5.226265e-07
C1E511,新開,2024-04-16,24.347703,120.827019,1.0248291e-09
G2F820,農試所(霧峰),2024-04-16,24.031261,120.688133,4.985453e-07
C1I070,和社,2024-04-16,23.591131,120.888861,1.3148485e-08
C2F000,大肚,2024-04-16,24.15295,120.572117,2.1980963e-08
C1S850,豐南,2024-04-16,23.122139,121.262389,2.4491142e-09
C2A920,富貴角,2024-04-16,25.263783,121.565258,0.9497043
CAH030,茶改場竹圍站,2024-04-16,23.860083,120.637528,1.0615355e-09
C0T960,光復,2024-04-16,23.660694,121.424964,2.6992991e-08
C0F9M0,豐原,2024-04-16,24.254322,120.720692,1.7460283e-09
C0R720,旭海,2024-04-16,22.205403,120.887614,0.9626373
C0V710,苓雅,2024-04-16,22.622742,120.330669,0.00066758227
C0C740,觀音工業區,2024-04-16,25.064764,121.114856,0.99991465
CAC040,拉拉山,2024-04-16,24.699317,121.427133,1.5155102e-08
C0V790,萬山,2024-04-16,22.905944,120.688056,4.9480053e-07
U2HA30,臺大和社,2024-04-16,23.590856,120.888864,1.3148485e-08
C0AJ90,澳底,2024-04-16,25.0552,121.9253,0.16731213
C0Z100,東華,2024-04-16,23.89525,121.549833,1.6967084e-08
C0G970,三豐,2024-04-16,23.882,120.2895,0.83323765
V2K610,大庄合作社,2024-04-16,23.8068,120.367939,0.9982423
C0V900,汕尾,2024-04-16,22.4782,120.4151,0.98512715
C1R630,龍泉,2024-04-16,22.66701,120.59091,0.99616885
C1AC50,關渡,2024-04-16,25.133486,121.469331,5.866372e-06
C0F9I0,神岡,2024-04-16,24.272481,120.658314,5.191593e-09
C0K460,斗南,2024-04-16,23.678734,120.478359,0.999166
467410,臺南,2024-04-16,22.993239,120.204772,0.9952534
C2O810,曾文,2024-04-16,23.219681,120.497328,0.932902
467280,後龍,2024-04-16,24.648563,120.831834,8.322585e-06
C1F9J1,清水林,2024-04-16,24.071242,120.820419,7.366433e-10
C2A650,火燒寮,2024-04-16,25.002719,121.742892,4.441289e-07
466930,竹子湖,2024-04-16,25.162078,121.544547,2.9906285e-08
C1I220,樟湖,2024-04-16,23.905333,120.846983,2.3387137e-09
C0I390,仁愛,2024-04-16,24.022122,121.132206,1.6047689e-09
C0Z300,東里,2024-04-16,23.26853,121.30547,3.1385305e-08
C0V310,美濃,2024-04-16,22.898742,120.519153,0.052517284
C1V590,新發,2024-04-16,23.057019,120.646064,1.3341108e-08
C0K510,水林,2024-04-16,23.572924,120.24597,0.99964535
72S590,東改賓朗果園,2024-04-16,22.813889,121.071278,5.7176687e-05
82A750,茶改北部分場,2024-04-16,24.955778,121.631222,6.580929e-08
C1A750,石碇服務區,2024-04-16,25.00872,121.646242,1.7800373e-06
C0X300,鹿寮,2024-04-16,23.386047,120.477331,0.999697
G2AI50,關渡,2024-04-16,25.11575,121.492,0.17175606
C0K590,雲林東勢,2024-04-16,23.674192,120.255721,0.99961483
C0A570,桶後,2024-04-16,24.848222,121.597992,2.5409275e-08
C1S800,華源,2024-04-16,22.657883,121.02325,0.00019747892
C0G720,溪州,2024-04-16,23.851589,120.499093,0.8957241
C1V160,達卡努瓦,2024-04-16,23.279811,120.705319,7.240217e-10
C2M410,馬頭山,2024-04-16,23.324361,120.582017,0.047629204
C0V850,蚵仔寮,2024-04-16,22.7256,120.2527,0.90202326
C0S740,池上,2024-04-16,23.119628,121.209469,1.4591896e-05
C1V390,尖山,2024-04-16,22.813153,120.367789,0.9838171
C0AH70,松山,2024-04-16,25.04871,121.55042,4.1586117e-07
C0N010,鯤鯓國小,2024-04-16,23.1879,120.0889,0.9834989
C0R550,新埤,2024-04-16,22.467947,120.582894,0.97318244
C0SA60,知本（水試所）,2024-04-16,22.702394,121.082761,0.059864648
C0T9I0,豐濱,2024-04-16,23.583897,121.514806,5.829599e-09
C0UB00,淡江大學蘭陽校園,2024-04-16,24.823239,121.730383,2.147837e-08
C0T9N0,富里,2024-04-16,23.171639,121.249378,4.9753504e-07
U2HA50,臺大竹山,2024-04-16,23.756972,120.681556,0.9200525
C0V840,鳳鼻頭,2024-04-16,22.5083,120.3591,0.14648527
C0X140,西港,2024-04-16,23.125608,120.203108,0.99905354
72D080,桃改五峰分場,2024-04-16,24.612194,121.157167,3.5976824e-09
C0V530,阿蓮,2024-04-16,22.883208,120.327508,0.9927
C1O880,關山,2024-04-16,23.173397,120.594092,4.2021057e-07
C0E791,卓蘭,2024-04-16,24.3126,120.8244,9.672381e-10
C1I030,武界,2024-04-16,23.913225,121.052483,4.170528e-09
C0R520,崁頂,2024-04-16,22.514781,120.506914,0.99776226
C0R341,牡丹,2024-04-16,22.130036,120.792639,0.99491006
C0R930,萬丹,2024-04-16,22.5885,120.4851,0.99705917
C0S760,紅石,2024-04-16,23.069131,121.126219,9.844625e-09
C1M610,石磐龍,2024-04-16,23.496606,120.663506,8.337413e-10
C0UA10,鴛鴦湖,2024-04-16,24.590269,121.412228,7.752023e-09
V2C260,八德蔬果,2024-04-16,24.978508,121.281819,2.9857013e-06
C0R800,丹路,2024-04-16,22.204481,120.750989,0.9621455
C0G920,永靖,2024-04-16,23.924703,120.547533,0.00037723026
C1A630,下盆,2024-04-16,24.771003,121.538622,2.0108137e-08
B2N890,畜產試驗所,2024-04-16,23.058972,120.336406,0.9994115
C0UA30,白嶺,2024-04-16,24.527819,121.519031,8.21787e-09
C1V580,溪南(特生中心),2024-04-16,23.084972,120.788475,1.6282815e-09
C1T970,大農,2024-04-16,23.615233,121.413331,3.7341543e-09
E2S960,林試太麻里2,2024-04-16,22.598014,120.989761,0.24999817
C0R650,竹田,2024-04-16,22.58486,120.54344,0.99821633
C1H900,清流,2024-04-16,24.080775,120.962997,1.2472805e-09
C1C510,水尾,2024-04-16,24.940081,121.087161,0.96852803
C0F9X0,大雅(中科園區),2024-04-16,24.21528,120.62445,3.2074542e-08
C0O970,虎頭埤,2024-04-16,23.021375,120.347878,0.9987196
C0C730,中大臨海站,2024-04-16,24.966126,121.008581,0.9984259
C0X250,新營,2024-04-16,23.310689,120.316681,0.99924695
C0V700,三民,2024-04-16,22.645017,120.311233,0.7217134
C0U870,大礁溪,2024-04-16,24.791042,121.675047,2.2253943e-08
C0E870,高鐵苗栗,2024-04-16,24.60725,120.826094,1.3934917e-05
A2K570,古坑花卉中心,2024-04-16,23.63353,120.55239,0.99748075
C0M860,新美,2024-04-16,23.338017,120.683169,8.500459e-10
C1E701,八卦,2024-04-16,24.491756,120.927619,1.3944973e-09
C0I420,國姓,2024-04-16,24.037803,120.855072,1.0320615e-09
C0S960,香蘭,2024-04-16,22.587569,120.993375,0.24999817
C0R260,春日,2024-04-16,22.370361,120.628306,0.00017807407
72G600,臺中農改場,2024-04-16,24.003028,120.534389,3.5320013e-06
C0Z210,瑞穗,2024-04-16,23.5239,121.39021,4.1447e-09
C0M820,達邦,2024-04-16,23.453994,120.749517,6.2646904e-10
C0V860,南寮,2024-04-16,22.7616,120.2339,0.9000015
C0G740,大城,2024-04-16,23.852487,120.320935,0.8450794
C0R920,塭仔,2024-04-16,22.4169,120.5197,0.0019571716
C0R470,高樹,2024-04-16,22.826389,120.600806,3.6799393e-05
C0R680,佳樂水,2024-04-16,21.993578,120.861633,0.38654825
C1O870,大棟山,2024-04-16,23.31157,120.52226,4.287625e-10
C0D360,梅花,2024-04-16,24.678347,121.208558,2.517909e-09
C0Z190,富世,2024-04-16,24.14743,121.6297,3.3610114e-08
C0AI10,屈尺,2024-04-16,24.92184,121.54475,2.664666e-07
B2U990,畜試東區分所,2024-04-16,24.669039,121.832561,1.4142141e-07
C0R240,來義,2024-04-16,22.527306,120.625111,0.99737656
C1R610,西大武山,2024-04-16,22.617719,120.7322,1.1595598e-08
C0G900,線西,2024-04-16,24.143358,120.443536,0.9298498
C0M700,竹崎,2024-04-16,23.526178,120.555508,0.99963474
C2E880,三義,2024-04-16,24.405478,120.749819,9.189663e-10
C0C720,竹圍,2024-04-16,25.112692,121.239824,0.16666982
C0F9P0,清水,2024-04-16,24.312297,120.562242,0.6375975
C0Z150,吉安光華,2024-04-16,23.930925,121.595153,3.7234948e-08
C1D640,外坪(五指山),2024-04-16,24.644447,121.090961,4.8651394e-09
C0F9O0,潭子,2024-04-16,24.213106,120.703933,5.333151e-08
72T250,花蓮農改場,2024-04-16,23.975222,121.563889,9.666136e-08
C0E780,銅鑼,2024-04-16,24.489681,120.790853,1.01358e-08
C1T950,太安,2024-04-16,23.666719,121.370128,6.809258e-08
C0E830,苑裡,2024-04-16,24.439714,120.653053,0.26011124
467270,田中,2024-04-16,23.873803,120.581286,0.87626535
C0SA10,檳榔四格山,2024-04-16,22.810031,121.109308,2.420309e-06
C1T830,布洛灣,2024-04-16,24.17184,121.57127,1.2403817e-05
C0F970,大坑,2024-04-16,24.173142,120.722289,1.1622201e-06
C1U920,思源,2024-04-16,24.393125,121.347214,4.629827e-09
C0A931,三和,2024-04-16,25.233153,121.595236,0.00010857382
C0I010,廬山,2024-04-16,24.033311,121.181808,1.9564141e-09
C0R860,鼻頭,2024-04-16,22.1043,120.8979,0.9865232
C0UB20,壯圍,2024-04-16,24.7359,121.8163,1.06158296e-07
C0R790,九棚,2024-04-16,22.14195,120.889281,0.9930282
C0W110,東莒,2024-04-16,25.9652,119.98069,0.013246854
C1U930,粉鳥林,2024-04-16,24.497088,121.842479,3.6313533e-05
C1I211,蘆竹湳,2024-04-16,23.934019,120.811994,2.102512e-09
C0S830,長濱,2024-04-16,23.286817,121.411975,8.588927e-09
C1F9F1,伯公龍,2024-04-16,24.272392,120.849047,4.830758e-10
C0E810,西湖,2024-04-16,24.562947,120.7485,0.58960134
C1I440,新高口,2024-04-16,23.478744,120.878939,3.7451318e-09
C0O840,王爺宮,2024-04-16,23.222064,120.40085,0.9994536
C0T9G0,鳳林山,2024-04-16,23.735269,121.420131,7.1526625e-09
C0X080,佳里,2024-04-16,23.173039,120.145086,0.9834989
C0Z310,清水斷崖,2024-04-16,24.218294,121.689142,1.0752112e-08
C0M680,太保,2024-04-16,23.455062,120.331455,0.9996581
C1S820,金峰,2024-04-16,22.590969,120.933236,0.0019600352
C0AD10,八里,2024-04-16,25.150211,121.403947,0.16666982
C2K240,草嶺,2024-04-16,23.59555,120.693461,1.0393588e-09
C1SA70,都蘭,2024-04-16,22.87794,121.226881,0.4067255
C0K440,二崙,2024-04-16,23.772797,120.408944,0.98163575
C1A760,坪林交控,2024-04-16,24.94284,121.713442,8.694349e-07
C0F9N0,大里,2024-04-16,24.092464,120.701378,3.5152436e-06
C0SA90,達仁林場,2024-04-16,22.264347,120.823972,0.9707594
C1R290,石門山,2024-04-16,22.112611,120.756597,0.9959945
42HA10,萬大發電廠,2024-04-16,23.978875,121.139639,2.5511e-09
C0R890,山海,2024-04-16,21.9878,120.7091,0.12321196
C0T9A0,月眉山,2024-04-16,23.809928,121.539828,4.745645e-09
C0AC70,信義,2024-04-16,25.037822,121.564597,4.1586117e-07
C0K560,棋山,2024-04-16,23.68645,120.603417,0.99536425
C1Z240,中平林道,2024-04-16,23.42115,121.26763,5.9543055e-08
U2H480,溪頭,2024-04-16,23.670306,120.798194,1.5427908e-09
C0M880,好美里,2024-04-16,23.3364,120.138,0.9861819
C0T9E0,大坑,2024-04-16,23.880628,121.581981,4.1654244e-09
C0K530,臺西,2024-04-16,23.701547,120.197559,0.9979576
C1E900,國一N128K,2024-04-16,24.560997,120.844186,1.2079538e-07
C0AJ50,水湳洞,2024-04-16,25.123695,121.862238,0.6832588
C0AI20,白沙灣,2024-04-16,25.283128,121.519058,0.99987847
C0A860,大坪,2024-04-16,25.165914,121.632969,9.422718e-08
C1U850,觀音海岸,2024-04-16,24.38319,121.77856,1.7226421e-08
C0U950,鶯子嶺,2024-04-16,24.89754,121.79244,2.8627927e-08
C0O900,善化,2024-04-16,23.112883,120.297219,0.99940467
C0K550,蔦松,2024-04-16,23.514319,120.229736,0.99929154
E2P980,林試六龜中心,2024-04-16,22.991703,120.645722,0.0002207913
C0E590,通霄,2024-04-16,24.471892,120.704622,0.9658087
C1I310,西巒,2024-04-16,23.754486,120.883956,1.5212581e-09
C0A550,泰平,2024-04-16,24.971197,121.823711,1.3850104e-07
C0I360,水里,2024-04-16,23.812553,120.849792,2.6547233e-09
C0R830,高士,2024-04-16,22.121825,120.836781,0.99454206
C1I101,溪頭,2024-04-16,23.661789,120.807647,3.647562e-09
C0AJ20,野柳,2024-04-16,25.20703,121.690021,0.37085655
C0B060,暖暖,2024-04-16,25.0957,121.7403,0.00015345291
C1H920,長豐,2024-04-16,24.102039,120.879897,1.591054e-09
C0V360,內門,2024-04-16,22.975481,120.466769,0.95757705
C0R850,林邊,2024-04-16,22.4634,120.5339,0.98239815
C0E930,龍鳳,2024-04-16,24.700034,120.859125,0.31998333
C0U910,冬山,2024-04-16,24.63373,121.7937,1.4142141e-07
C1E721,泰安,2024-04-16,24.489017,120.968036,2.1263302e-09
82H320,茶改中部分場,2024-04-16,23.875611,120.913583,9.552936e-09
C0M750,布袋,2024-04-16,23.380878,120.167789,0.99746776
C1S860,利嘉,2024-04-16,22.809417,121.050528,1.2554253e-07
72C440,桃園農改,2024-04-16,24.950944,121.030583,0.9889934
E2S980,林試太麻里1,2024-04-16,22.598922,120.980044,0.0921093
C0X170,關廟,2024-04-16,22.963017,120.327797,0.9984258
C0V720,林園,2024-04-16,22.507747,120.394511,0.09180844
C1I510,線浸林道,2024-04-16,23.761508,120.832956,2.2116622e-09
C0D690,外湖,2024-04-16,24.917735,120.968711,0.9903442
C0C750,新興坑尾,2024-04-16,25.0061,121.0971,0.9982518
B2Q810,畜試南區分所,2024-04-16,21.945583,120.802167,0.3600778
C0S790,金崙,2024-04-16,22.538122,120.966875,0.047818918
C0AH90,福山植物園,2024-04-16,24.760717,121.58135,2.3891303e-08
C0I540,奇萊稜線,2024-04-16,24.109231,121.326456,1.1660493e-08
C0M850,表湖,2024-04-16,23.24186,120.64166,1.5290018e-09
C0S770,大溪山,2024-04-16,22.478475,120.943325,0.0005230403
C0AG80,中和,2024-04-16,24.991622,121.491792,4.6891154e-07
C0T790,大禹嶺,2024-04-16,24.186117,121.316086,7.1140085e-09
C0T9B0,水源,2024-04-16,23.991861,121.537169,5.866296e-09
C0R840,牡丹池山,2024-04-16,22.168389,120.841225,0.9920376
C1I131,桶頭,2024-04-16,23.641944,120.654117,0.001100524
CAL110,布袋國中,2024-04-16,23.35893,120.18026,0.99746776
467571,新竹,2024-04-16,24.827853,121.014219,0.05463685
C0Z290,赤柯山,2024-04-16,23.36893,121.38293,2.914555e-08
C0X280,將軍,2024-04-16,23.214999,120.13577,0.93181205
C0S690,太麻里,2024-04-16,22.60902,120.98533,2.4245568e-07
C0U880,北關,2024-04-16,24.9072,121.8734,0.00061920105
C1H860,瑞岩,2024-04-16,24.123772,121.18345,7.86955e-09
C0G810,埔心,2024-04-16,23.947633,120.525456,0.00037741734
C0U970,大福,2024-04-16,24.80064,121.81389,4.109241e-08
C1E670,南礦,2024-04-16,24.538278,121.002836,2.5948992e-09
C0M520,東後寮,2024-04-16,23.369908,120.248065,0.99722123
C1E461,松安,2024-04-16,24.397972,120.986022,2.3084532e-09
72G600,臺中農改,2024-04-16,24.003028,120.534389,3.5320013e-06
C2N160,西拉雅風管處,2024-04-16,23.189481,120.335297,0.99933374
C0A640,石碇,2024-04-16,24.993969,121.662917,8.800564e-08
E2S960,林試太麻里2,2024-04-16,22.598,120.99775,0.26600385
C0F9Y0,桃山,2024-04-16,24.432739,121.303808,1.3210222e-08
C1I020,萬大,2024-04-16,23.979817,121.132261,1.6040345e-09
C0U940,羅東,2024-04-16,24.68184,121.74934,8.8571625e-08
C0M650,朴子,2024-04-16,23.43463,120.23902,0.99938124
C1I500,大尖山,2024-04-16,23.858572,120.994889,4.2291646e-09
C0G820,田尾,2024-04-16,23.901669,120.509389,0.00037741734
E2K600,四湖植物園,2024-04-16,23.676986,120.163433,0.9981647
C0S730,綠島,2024-04-16,22.6672,121.47533,0.028579604
12Q970,東港工作站,2024-04-16,22.479997,120.466058,0.9852774
C0E430,南庄,2024-04-16,24.601775,121.000214,4.0857615e-09
C1TA00,太魯閣,2024-04-16,24.15773,121.6236,2.6699027e-08
466920,臺北,2024-04-16,25.037658,121.514853,4.1586117e-07
C0R600,舊泰武,2024-04-16,22.588194,120.664944,7.636261e-10
C1I260,北坑,2024-04-16,23.9246,121.006903,1.7090236e-09
466910,鞍部,2024-04-16,25.182586,121.529731,1.01108945e-07
C1I230,九份二山,2024-04-16,23.961944,120.845,7.3486284e-09
C2A660,瑞芳,2024-04-16,25.113169,121.801147,0.009738518
C0R270,琉球嶼,2024-04-16,22.332244,120.362236,3.736778e-08
C1T990,高寮,2024-04-16,23.394239,121.356808,7.3945206e-09
C0G620,芬園,2024-04-16,24.015678,120.6213,1.7605417e-07
C1Z140,荖溪,2024-04-16,23.890575,121.45964,5.710374e-08
C1I201,中心崙,2024-04-16,23.728722,120.712097,8.1572116e-10
C1I400,凌霄,2024-04-16,24.018778,121.004456,1.7623089e-09
C1M640,十字,2024-04-16,23.492153,120.753683,3.2978127e-09
G2P820,農試鳳山分所,2024-04-16,22.646611,120.356083,0.4557896
C0Z270,蕃薯寮,2024-04-16,23.73835,121.540108,1.3365915e-08
C0F9Q0,外埔,2024-04-16,24.347817,120.705686,4.187618e-09
C0K580,高鐵雲林,2024-04-16,23.737456,120.417944,0.9910143
C2I090,鳳凰,2024-04-16,23.728081,120.787347,9.963287e-10
C0U990,員山,2024-04-16,24.74435,121.72247,9.5827765e-08
C0V770,大社,2024-04-16,22.730306,120.346639,0.8789708
C0X120,麻豆,2024-04-16,23.183289,120.248611,0.9991378
C0C670,龍潭,2024-04-16,24.870056,121.221389,1.6146622e-08
C0D680,香山濕地,2024-04-16,24.783581,120.914988,5.2514526e-05
C0S980,勝林山,2024-04-16,22.430439,120.8938,1.9913106e-08
C0V730,大寮,2024-04-16,22.605614,120.395717,0.00054893194
C0R570,麟洛,2024-04-16,22.65078,120.52719,0.9971025
CAG100,王功漁港,2024-04-16,23.96824,120.32586,0.8221246
C0X290,北門,2024-04-16,23.267772,120.125481,0.9319419
C2F930,大甲,2024-04-16,24.347667,120.640403,0.00036742454
C0D650,湖口,2024-04-16,24.904794,121.043628,0.9802575
C0E420,竹南,2024-04-16,24.708978,120.888897,0.12567781
C0U780,五結,2024-04-16,24.68637,121.79794,1.06158296e-07
C1I250,鯉潭,2024-04-16,23.961922,120.991131,2.02221e-08
C0R130,阿禮,2024-04-16,22.742908,120.743678,3.8472747e-10
C0X100,臺南市北區,2024-04-16,23.010394,120.194228,0.996085
C0S920,金峰嘉蘭,2024-04-16,22.594789,120.960825,0.07530995
C0V490,新興,2024-04-16,22.627422,120.298803,0.00066646194
C0F9K0,大安,2024-04-16,24.345061,120.588025,0.06558972
72N100,臺南農改,2024-04-16,23.0605,120.342194,0.9994115
467290,古坑,2024-04-16,23.633639,120.551889,0.99748075
C0V440,鳳山,2024-04-16,22.646653,120.356122,0.4557896
C1T940,大觀,2024-04-16,23.714206,121.373133,7.93224e-09
72T250,花蓮農改,2024-04-16,23.975222,121.563889,9.666136e-08
C0E740,造橋,2024-04-16,24.637056,120.864778,1.385426e-05
C0R100,尾寮山,2024-04-16,22.833111,120.683889,5.0064547e-10
A2K630,臺大雲林校區,2024-04-16,23.730628,120.423903,0.9910143
C0D580,寶山,2024-04-16,24.735006,121.025192,4.4197757e-09
E2P990,林試扇平站,2024-04-16,22.9677,120.6857,1.36891956e-08
C0AI30,三重,2024-04-16,25.057328,121.500629,4.987222e-07
C0AH00,汐止,2024-04-16,25.066881,121.658778,4.1586117e-07
C1Z040,立山,2024-04-16,23.443356,121.327375,5.3736777e-08
C0R740,獅子,2024-04-16,22.201569,120.70525,0.9646063
C0W130,花嶼,2024-04-16,23.40007,119.32276,0.14788145
C0A950,鼻頭角,2024-04-16,25.129036,121.923372,0.9999304
C0K470,林內,2024-04-16,23.748675,120.609642,0.99476427
82C160,茶改場,2024-04-16,24.908472,121.185333,1.6116014e-07
C0Z320,清水林道,2024-04-16,23.27125,121.188272,6.6399615e-08
C0R760,南仁湖,2024-04-16,22.084681,120.863353,0.9960061
C0M670,大林,2024-04-16,23.600616,120.45841,0.999727
C0M800,茶山,2024-04-16,23.299075,120.664767,2.1268332e-09
C0A9C0,天母,2024-04-16,25.117494,121.537169,0.00025442697
72K220,南改斗南分場,2024-04-16,23.634556,120.477333,0.99917054
72AI40,桃改樹林分場,2024-04-16,24.944503,121.386972,0.0015578617
C0S910,蘭嶼燈塔,2024-04-16,22.081197,121.503117,0.2656713
C0B050,八斗子,2024-04-16,25.144754,121.79167,0.93067485
C0U900,內城,2024-04-16,24.71813,121.68766,6.862231e-08
C0X320,柳營,2024-04-16,23.253328,120.375253,0.9994445
C0M790,新港,2024-04-16,23.553269,120.345728,0.999488
C0F9T0,西屯,2024-04-16,24.179494,120.641275,1.2293773e-07
C0SA30,都歷,2024-04-16,23.020333,121.323642,0.0005142054
C0C620,蘆竹,2024-04-16,25.084275,121.265767,0.99930465
C0R730,大坪頂,2024-04-16,22.024633,120.69355,0.98790604
C0AJ40,石門,2024-04-16,25.273672,121.601198,0.9975049
C0E750,苗栗,2024-04-16,24.564569,120.824575,1.3668173e-07
C0T870,鯉魚潭,2024-04-16,23.935639,121.508944,1.3989497e-08
C1V170,排雲,2024-04-16,23.463619,120.954147,8.808252e-09
C2H950,中寮,2024-04-16,23.884447,120.766406,2.4458103e-08
C0R350,貓鼻頭,2024-04-16,21.921774,120.7358,0.057411917
C0V660,岡山,2024-04-16,22.797078,120.294958,0.99177414
C1H941,雙冬,2024-04-16,23.967378,120.802189,1.5861151e-09
C0AJ70,田寮,2024-04-16,25.2698,121.4886,0.9998913
C0AI00,五股,2024-04-16,25.07445,121.42728,3.1047688e-07
C0Z280,德武,2024-04-16,23.47426,121.41071,2.2458053e-09
C0R700,枋山,2024-04-16,22.246844,120.661086,0.73079723
C0C460,復興,2024-04-16,24.820208,121.352281,1.0219855e-08
E2H360,蓮華池,2024-04-16,23.918333,120.885278,1.1295225e-09
C0M640,中埔,2024-04-16,23.42538,120.5229,0.999671
C0W140,金沙,2024-04-16,24.488292,118.408778,0.0005637436
C2A540,四堵,2024-04-16,24.8926,121.745736,1.6056721e-07
C0ACA0,新莊,2024-04-16,25.051478,121.446756,4.5886068e-07
C0R220,潮州,2024-04-16,22.534361,120.54,0.9976989
U2HA40,臺大內茅埔,2024-04-16,23.689722,120.851117,6.236486e-09
467490,臺中,2024-04-16,24.145736,120.684075,9.307715e-06
C0U960,翠峰湖,2024-04-16,24.510856,121.608044,1.13589635e-08
E2HA20,林試畢祿溪站,2024-04-16,24.226944,121.308522,9.919679e-09
C0V890,前鎮,2024-04-16,22.5718,120.3117,0.0012138002
467620,蘭嶼,2024-04-16,22.036969,121.558339,0.84828216
C1F941,雪嶺,2024-04-16,24.280586,121.026642,1.5564853e-08
C0AC80,文山,2024-04-16,25.00235,121.575728,2.0091983e-07
C0F9R0,龍井,2024-04-16,24.184536,120.528972,0.9571891
C0M760,民雄,2024-04-16,23.551754,120.428457,0.99973524
C0UA40,西德山,2024-04-16,24.560647,121.752608,1.7113994e-08
C1T920,中興,2024-04-16,23.769503,121.498653,2.2499394e-08
C0D550,雪霸,2024-04-16,24.526972,121.11605,3.4775485e-09
C2F860,梨山,2024-04-16,24.247522,121.243669,1.0180886e-08
C0R320,車城,2024-04-16,22.0744,120.716247,0.19019525
C1S870,南美山,2024-04-16,23.15025,121.382333,5.727647e-07
C0B020,基隆嶼,2024-04-16,25.19141,121.78391,0.9997046
C1U501,牛鬥,2024-04-16,24.637836,121.573656,9.825231e-08
C0M730,嘉義市東區,2024-04-16,23.457673,120.460531,0.99968475
C0S700,知本,2024-04-16,22.684866,121.005642,7.528297e-08
C1N001,沙崙,2024-04-16,22.935472,120.309406,0.99847794
C0V760,橋頭,2024-04-16,22.757806,120.30575,0.8721568
C0G960,福寶,2024-04-16,24.0443,120.3814,0.97257286
C0X210,白河,2024-04-16,23.347466,120.414427,0.9996855
C0S810,東河,2024-04-16,22.972672,121.303986,0.17319945
C0R670,楓港,2024-04-16,22.190131,120.692156,0.67836666
C0FA50,霧峰,2024-04-16,24.0419,120.6995,3.4853434e-07
C0UB10,蘇澳,2024-04-16,24.5969,121.8571,1.4702595e-05
C0G950,防潮門,2024-04-16,24.1835,120.4871,0.9570762
C0M740,六腳,2024-04-16,23.492871,120.290625,0.9995628
C1R250,力里,2024-04-16,22.428117,120.629228,0.011944457
C0K330,虎尾,2024-04-16,23.719183,120.442036,0.98777807
C2FA00,烏石坑,2024-04-16,24.273503,120.947617,1.758119e-09
C0V620,永安,2024-04-16,22.82315,120.236856,0.99177414
C1I330,楓樹林,2024-04-16,23.986803,121.076117,1.6125931e-09
C0W200,湖西,2024-04-16,23.596314,119.67275,0.032932997
72Q010,高雄農改場,2024-04-16,22.709333,120.525889,0.68916893
C0SA40,瑞和,2024-04-16,22.974361,121.156697,0.000105721425
C0C680,龜山,2024-04-16,25.02846,121.38656,1.2782905e-07
C2V260,月眉,2024-04-16,22.971003,120.539853,0.0076997844
C0V450,鳳森,2024-04-16,22.545064,120.392592,0.010018294
C0U720,南山,2024-04-16,24.43742,121.38167,6.6371095e-09
A2N290,臺南蘭花園區,2024-04-16,23.340258,120.379661,0.9995747
C0R560,新園,2024-04-16,22.5434,120.461558,0.09180844
C0U890,三星,2024-04-16,24.66812,121.65302,5.3744105e-07
C1V300,御油山,2024-04-16,23.001983,120.715364,1.51776e-09
C0U600,礁溪,2024-04-16,24.817539,121.765608,4.878081e-07
C1T980,龍澗,2024-04-16,24.023289,121.411328,5.9044652e-08
C0D670,海天一線,2024-04-16,24.831986,120.914438,0.99953634
C0SA00,歷坵,2024-04-16,22.520969,120.89185,3.2560654e-06
C0M710,東石,2024-04-16,23.458927,120.15385,0.9958766
C0M780,鹿草,2024-04-16,23.41134,120.30835,0.9993542
C0U520,雙連埤,2024-04-16,24.753033,121.641303,2.2194047e-08
C0B010,七堵,2024-04-16,25.094819,121.71713,0.0045554005
C0R480,長治,2024-04-16,22.693128,120.542622,0.03474043
C1V830,國三S383K,2024-04-16,22.781967,120.426475,0.017642008
12Q980,恆春工作站,2024-04-16,22.079678,120.714425,0.19019525
C1O940,東山服務區,2024-04-16,23.286016,120.398472,0.99952
C1U840,東澳嶺,2024-04-16,24.5378,121.8485,2.6031394e-08
C1D630,飛鳳山,2024-04-16,24.766464,121.119178,1.9584114e-09
C0S940,石寧山,2024-04-16,23.223772,121.406639,4.445624e-08
C0K410,北港,2024-04-16,23.573957,120.292802,0.9996316
C2M620,瑞里,2024-04-16,23.545133,120.675197,8.793844e-10
C2O950,安南,2024-04-16,23.076694,120.144861,0.9765199
C0F0E0,南湖圈谷,2024-04-16,24.363714,121.444667,1.820542e-08
467610,成功,2024-04-16,23.097486,121.373428,0.9675991
C0G890,伸港,2024-04-16,24.148933,120.484403,0.9298498
C2E540,龍溪,2024-04-16,24.606489,120.783933,1.9310575e-05
C1V200,梅山,2024-04-16,23.268447,120.823556,6.1970713e-09
C0T9H0,加路蘭山,2024-04-16,23.682947,121.5274,9.63793e-09
C2O930,玉井,2024-04-16,23.126042,120.46055,0.9980283
C1F911,新伯公,2024-04-16,24.221361,120.841069,1.4256621e-09
C0R490,九如,2024-04-16,22.7405,120.490503,0.7586172
C0X200,左鎮,2024-04-16,23.056758,120.408522,0.99875706
C1F891,稍來,2024-04-16,24.265689,121.001142,9.705187e-09
72N240,七股研究中心,2024-04-16,23.081672,120.062894,0.9777457
C0C700,中壢,2024-04-16,24.977661,121.256375,1.2508272e-06
C0M690,水上,2024-04-16,23.419734,120.388909,0.99966335
C0V690,鼓山,2024-04-16,22.623325,120.275575,0.00066646194
C0O860,大內,2024-04-16,23.11885,120.36083,0.999415
C0Z200,萬榮,2024-04-16,23.709219,121.420106,3.6109043e-08
C0T9D0,和中,2024-04-16,24.26676,121.74103,1.3436059e-05
C1O921,楠西,2024-04-16,23.183511,120.484083,0.990549
C0AJ30,淡水觀海,2024-04-16,25.184591,121.408616,0.9694882
C0V810,左營,2024-04-16,22.67491,120.28491,0.72122484
C0UA70,桃源谷,2024-04-16,24.962606,121.888875,7.832626e-08
C0X130,官田,2024-04-16,23.193217,120.315422,0.99931633
C1H000,翠峰,2024-04-16,24.109397,121.205211,4.868333e-09
C0UA90,石城,2024-04-16,24.980444,121.951214,0.0005662882
C1E681,南勢山,2024-04-16,24.421669,120.923831,9.860706e-10
C0A9F0,內湖,2024-04-16,25.079422,121.57545,4.1586117e-07
C0K291,宜梧,2024-04-16,23.536281,120.169329,0.99928874
C1K540,口湖,2024-04-16,23.585344,120.180517,0.9967106
C0R780,滿州,2024-04-16,22.024403,120.839892,0.96187794
C0V870,文安,2024-04-16,22.8025,120.2164,0.9924351
C0U650,玉蘭,2024-04-16,24.675286,121.587061,4.9729685e-08
C0R640,東港,2024-04-16,22.46247,120.44074,0.9852774
K2E360,苗栗農改,2024-04-16,24.495722,120.829111,1.59642e-08
C0AJ80,板橋,2024-04-16,25.0107,121.4489,6.6100193e-07
C0S660,下馬,2024-04-16,23.150427,121.070312,2.1616954e-08
C1H9B1,阿眉,2024-04-16,24.1263,120.994672,7.702987e-09
C0UA20,多加屯,2024-04-16,24.368614,121.373189,6.195913e-09
C0E730,頭份,2024-04-16,24.688247,120.912206,0.15152684
72V140,高改旗南分場,2024-04-16,22.857861,120.516667,0.052517284
C0K480,莿桐,2024-04-16,23.761192,120.502372,0.9969919
C0U980,坪林石牌,2024-04-16,24.86478,121.77396,1.6441737e-08
C0T900,西林,2024-04-16,23.8119,121.441458,1.0924496e-08
C1I150,青雲,2024-04-16,23.793361,120.949378,2.5967262e-09
467350,澎湖,2024-04-16,23.565503,119.563094,0.1205168
C0G800,埔鹽,2024-04-16,24.000394,120.431683,0.9715621
C0H960,草屯,2024-04-16,23.973672,120.68085,1.920977e-07
C1V780,多納林道,2024-04-16,22.888028,120.737917,6.0126976e-10
C0E920,通霄漁港,2024-04-16,24.498589,120.673876,0.9724549
C0Z330,安通山,2024-04-16,23.290728,121.348528,5.404357e-09
C0AH10,永和,2024-04-16,25.01125,121.508111,6.621117e-07
C2G640,鹿港,2024-04-16,24.0753,120.430481,0.97257286
C1E890,國三N149K,2024-04-16,24.463414,120.680019,0.023596976
C1R110,口社,2024-04-16,22.770111,120.645222,0.9711207
C1M870,國三N285K,2024-04-16,23.550319,120.505833,0.9995201
467050,新屋,2024-04-16,25.006744,121.047486,0.9984633
C1E480,鳳美,2024-04-16,24.554803,121.034747,2.3590219e-09
C0M530,奮起湖,2024-04-16,23.493903,120.699253,9.668876e-10
C0C590,觀音,2024-04-16,25.027072,121.153317,0.99990636
C0T9M0,靜浦,2024-04-16,23.455167,121.495028,4.3375232e-09
C0AI40,石牌,2024-04-16,25.115597,121.513139,0.00051268877
C1F871,上谷關,2024-04-16,24.203483,121.018644,1.0741326e-09
C0G880,二水,2024-04-16,23.810742,120.6173,7.27688e-05
C0R940,加祿堂,2024-04-16,22.3363,120.6217,0.78334373
C0W220,北竿,2024-04-16,26.220358,119.974881,0.008691473
C0O960,崎頂,2024-04-16,22.959547,120.369317,0.9967145
C0S750,向陽,2024-04-16,23.248397,120.986133,2.1591067e-09
C0T9F0,水璉,2024-04-16,23.797131,121.542514,7.558912e-09
C1M600,頭凍,2024-04-16,23.406364,120.603339,7.3107664e-10
467660,臺東,2024-04-16,22.752211,121.154586,0.4430426
C1D380,新埔,2024-04-16,24.84745,121.03834,0.00015790985
C0V750,路竹,2024-04-16,22.854997,120.259439,0.99766934
C0N050,蚵寮,2024-04-16,23.301,120.1104,0.9861819
72M700,南改鹿草分場,2024-04-16,23.416869,120.283061,0.99938166
C1SA50,利嘉林道,2024-04-16,22.82325,121.009389,5.7915077e-09
467550,玉山,2024-04-16,23.487614,120.959522,1.3809093e-08
C0A940,金山,2024-04-16,25.223628,121.643967,0.21285786
C1V340,大津,2024-04-16,22.888322,120.645986,0.0067538857
C0W180,七美,2024-04-16,23.219333,119.444892,0.42254576
C1F9C1,白冷,2024-04-16,24.182844,120.929889,5.3135296e-10
K2E710,苗改生物防治研究中心,2024-04-16,24.422861,120.871833,1.5186258e-09
C0N040,蘆竹溝,2024-04-16,23.2344,120.0961,0.931942
C2W230,畜試所澎湖,2024-04-16,23.628342,119.513206,0.14360778
C0R880,後壁湖,2024-04-16,21.9457,120.7457,0.12274591
C1I280,埔中,2024-04-16,23.820778,120.642594,7.6537887e-10
467790,墾丁雷達站,2024-04-16,21.948235,120.808028,0.5659852
C0W190,望安,2024-04-16,23.380564,119.494075,0.3800383
466881,新北,2024-04-16,24.9593,121.52,4.1687372e-07
C0Z170,卓溪,2024-04-16,23.3443,121.3029,5.169903e-09
C0F850,東勢,2024-04-16,24.246428,120.833047,3.4079783e-09
466900,淡水,2024-04-16,25.164889,121.448906,0.027435783
C0I370,魚池,2024-04-16,23.895703,120.94135,1.2247644e-09
C0C630,大溪,2024-04-16,24.882853,121.265547,2.6753675e-08
C0A520,山佳,2024-04-16,24.974944,121.402008,7.874934e-07
C0I110,竹山,2024-04-16,23.761225,120.688156,4.1744483e-06
82H840,茶改南部分場,2024-04-16,23.762528,120.7405,9.526493e-10
C0G660,溪湖,2024-04-16,23.94835,120.479122,0.00056712347
C1T800,洛韶,2024-04-16,24.204558,121.453956,2.4575195e-08
C1T810,慈恩,2024-04-16,24.192044,121.388386,2.177768e-09
C1E451,象鼻,2024-04-16,24.368617,120.940228,7.6042855e-10
C0AC60,三峽,2024-04-16,24.939025,121.369728,0.00038017964
C0I490,萬大林道,2024-04-16,23.928228,121.091411,1.977389e-09
C1I290,豐丘,2024-04-16,23.668178,120.887417,1.587471e-09
C1I320,奧萬大,2024-04-16,23.952956,121.178556,1.546975e-09
C0U770,南澳,2024-04-16,24.44935,121.81022,6.0572496e-08
C0A980,社子,2024-04-16,25.109508,121.469681,0.3244515
C0V800,六龜,2024-04-16,22.997889,120.633583,0.000449908
C1G9D0,國一S218K,2024-04-16,23.890641,120.493253,0.9345313
C2F9A0,中竹林,2024-04-16,24.103556,120.751061,2.0760125e-09
C0FA40,臺中電廠,2024-04-16,24.2146,120.4907,0.9571891
C0H9C0,合歡山,2024-04-16,24.143442,121.272547,1.4761036e-08
C0X060,下營,2024-04-16,23.22695,120.256261,0.9991061
G2M350,農試溪口農場,2024-04-16,23.58565,120.408111,0.99973375
C0U860,頭城,2024-04-16,24.85323,121.8308,6.1919525e-07
C0R580,南州,2024-04-16,22.48591,120.50274,0.9852774
C0D430,峨眉,2024-04-16,24.6905,121.017189,1.3805222e-08
C0G780,秀水,2024-04-16,24.03405,120.503869,3.5320013e-06
72N100,臺南農改場,2024-04-16,23.0605,120.342194,0.9994115
C0S900,蘭嶼高中,2024-04-16,22.04909,121.51214,0.12687242
467540,大武,2024-04-16,22.355675,120.903789,0.9321169
C1F9W0,德基,2024-04-16,24.254783,121.190261,8.125119e-09
C1Z120,壽豐,2024-04-16,23.870853,121.508081,1.6967084e-08
C0W160,烏坵,2024-04-16,24.9944,119.44956,0.9932571
C1I240,外大坪,2024-04-16,23.958697,120.917931,1.6710471e-08
C1I550,國六W023K,2024-04-16,23.979067,120.867742,2.1261357e-09
C0R870,興海,2024-04-16,21.9752,120.8439,0.3600778
C0R140,瑪家,2024-04-16,22.682903,120.686639,8.300981e-10
C0A530,坪林,2024-04-16,24.938183,121.70975,2.93892e-07
C0X260,後壁,2024-04-16,23.366358,120.362326,0.9995744
C0Z230,和平,2024-04-16,24.30717,121.77007,1.819118e-05
C0G770,福興,2024-04-16,24.041289,120.437669,0.9714913
C0H9A0,神木村,2024-04-16,23.532742,120.843667,3.342234e-09
C0I460,南投,2024-04-16,23.911469,120.687331,5.7966385e-08
C0I480,梅峰,2024-04-16,24.085272,121.173572,4.373845e-09
C1V570,吉東,2024-04-16,22.85422,120.5454,0.029140176
C2A560,福山,2024-04-16,24.776203,121.502811,3.4855056e-08
C0AH30,五分山,2024-04-16,25.07125,121.780794,3.7975138e-08
C0FA10,松柏,2024-04-16,24.429115,120.617482,0.2916806
72S200,東改班鳩分場,2024-04-16,22.829528,121.077694,0.00070920365
72HA00,中改埔里分場,2024-04-16,23.903208,120.963364,1.3862446e-09
C0C650,平鎮,2024-04-16,24.897503,121.214636,1.6790237e-07
C0S930,延平,2024-04-16,22.902581,121.084058,0.00012256025
C0UA60,樟樹山,2024-04-16,24.41393,121.78325,9.907619e-08
C1S670,摩天,2024-04-16,23.199503,121.027,1.7040055e-08
C0V630,茄萣,2024-04-16,22.906642,120.182608,0.99806285
466940,基隆,2024-04-16,25.133314,121.740475,0.8783137
C0X050,東河,2024-04-16,23.296598,120.385608,0.9995027
C0R770,保力,2024-04-16,22.071122,120.764111,0.9653614
G2L020,農試嘉義分所,2024-04-16,23.485028,120.473806,0.99966335
C0X240,關子嶺,2024-04-16,23.331169,120.508025,0.0001287078
C0I380,集集,2024-04-16,23.828206,120.801467,3.0623593e-09
466990,花蓮,2024-04-16,23.975128,121.613275,1.247992e-07
C1V220,小關山,2024-04-16,23.154217,120.813603,1.9813908e-09
C1F9G1,慶福山,2024-04-16,24.180853,120.848378,8.413196e-10
C0Z250,瑞穗林道,2024-04-16,23.49284,121.30688,3.196839e-08
C0D590,新豐,2024-04-16,24.87068,120.97721,0.99972874
C0A870,五指山,2024-04-16,25.132153,121.608692,2.5688989e-08
C0UA50,西帽山,2024-04-16,24.555361,121.802628,2.0418407e-08
C0X160,仁德,2024-04-16,22.968258,120.257689,0.9966178
C1H971,六分寮,2024-04-16,23.92507,120.6378,8.829643e-10
C0W120,西嶼,2024-04-16,23.5626,119.468436,0.07101893
C0G650,員林,2024-04-16,23.946503,120.585597,0.0005134788
C0AD50,鶯歌,2024-04-16,24.951533,121.346294,5.5282253e-05
C0S990,山豬窟,2024-04-16,22.318619,120.857372,0.6563033
72Q010,高雄農改,2024-04-16,22.709333,120.525889,0.68916893
C0X190,安平,2024-04-16,22.993161,120.152181,0.996085
C0K400,斗六,2024-04-16,23.720583,120.541127,0.99901843
12J990,口湖工作站,2024-04-16,23.589978,120.180394,0.99671626
C0O830,北寮,2024-04-16,23.079561,120.495008,0.00041334762
C1D410,白蘭,2024-04-16,24.579364,121.079947,2.8013114e-09
C0S970,加津林,2024-04-16,22.416211,120.926942,0.9193855
C0D700,關西,2024-04-16,24.7977,121.1732,7.3673925e-09
C0M810,里佳,2024-04-16,23.389125,120.716647,9.631492e-10
C0U750,龜山島,2024-04-16,24.841667,121.953133,0.014286164
C0R810,內獅,2024-04-16,22.305064,120.642986,0.7697648
C1M390,龍美,2024-04-16,23.406728,120.654417,7.6658563e-10
C1H840,國三N238K,2024-04-16,23.841008,120.707711,1.4014406e-09
CAQ030,崎峰國小,2024-04-16,22.42565,120.49521,0.9852774
C2E520,大湖,2024-04-16,24.414939,120.870872,1.3341813e-09
467530,阿里山,2024-04-16,23.508208,120.813242,8.454316e-09
C1E691,南湖,2024-04-16,24.40135,120.837533,8.763654e-10
C0FA30,梧棲,2024-04-16,24.256003,120.523381,0.6375975
C1V231,高中,2024-04-16,23.134911,120.716711,1.4294578e-09
C0F9V0,新社,2024-04-16,24.200172,120.815806,7.345486e-10
C0H890,埔里,2024-04-16,23.972169,120.952425,1.2096115e-09
C0R690,墾丁,2024-04-16,21.966756,120.810269,0.97451824
C0F0D0,審馬陣,2024-04-16,24.381675,121.4203,9.798765e-09
C0R820,白鷺,2024-04-16,22.454275,120.666219,2.1938105e-09
U2H480,臺大溪頭,2024-04-16,23.670306,120.798194,1.5427908e-09
C1V190,南天池,2024-04-16,23.27403,120.91176,2.461163e-09
K2E360,苗栗農改場,2024-04-16,24.495722,120.829111,1.59642e-08
CAJ050,海口故事園區,2024-04-16,23.57543,120.14121,0.99671626
C0O990,媽廟,2024-04-16,22.99175,120.293525,0.9991306
C0D480,打鐵坑,2024-04-16,24.849664,121.150789,1.5149293e-08
C0Z220,和平林道,2024-04-16,24.343922,121.656317,2.2327582e-08
72C440,桃園農改場,2024-04-16,24.950944,121.030583,0.9889934
C1E711,馬拉邦山,2024-04-16,24.367306,120.901656,7.8882556e-10
C0D560,竹東,2024-04-16,24.767147,121.057881,9.057192e-09
C0F9U0,南屯,2024-04-16,24.137006,120.637969,3.0346058e-07
C0M720,番路,2024-04-16,23.464657,120.554156,0.99950445
C0F0A0,雪山圈谷,2024-04-16,24.388594,121.236339,1.5281513e-08
C1A9N0,四十份,2024-04-16,24.934158,121.593283,1.7168887e-08
C0U760,東澳,2024-04-16,24.52196,121.83318,9.799899e-06
C0X230,鹽水,2024-04-16,23.272621,120.247641,0.98331946
C0V370,古亭坑,2024-04-16,22.893178,120.401947,0.9885579
C1I340,新興橋,2024-04-16,23.563333,120.868728,1.0908854e-09
C0SA80,土坂,2024-04-16,22.453108,120.887572,0.09945632
C0R160,鹽埔,2024-04-16,22.739558,120.530778,0.68916893
C0AC40,大屯山,2024-04-16,25.175675,121.522408,6.463436e-08
466850,五分山雷達站,2024-04-16,25.071182,121.781205,3.735923e-08
C1AI50,國三N016K,2024-04-16,25.034164,121.619664,1.8023363e-07
C1V600,藤枝,2024-04-16,23.071961,120.757042,1.4517636e-09
C1E601,南勢,2024-04-16,24.572486,120.734842,0.4545266
C0Z180,新城,2024-04-16,24.03946,121.60454,1.2264849e-07
C0O980,新市,2024-04-16,23.061614,120.298197,0.99940467
C0K420,西螺,2024-04-16,23.800407,120.467394,0.97349477
C0Z050,佳心,2024-04-16,23.34567,121.21316,3.369574e-08
C0AD30,蘆洲,2024-04-16,25.086594,121.472331,4.987222e-07
C0V610,梓官,2024-04-16,22.760558,120.267211,0.87079024
K2F750,種苗改良場,2024-04-16,24.225972,120.800917,9.786246e-10
C0UA80,大溪漁港,2024-04-16,24.941801,121.902955,0.00047273526
C1AI60,國一39K邊坡,2024-04-16,25.064361,121.383836,1.8987147e-07
C0W150,金寧,2024-04-16,24.457703,118.328989,0.0003578791
V2C250,八德合作社,2024-04-16,24.93775,121.266389,7.498445e-07
C0AH40,平等,2024-04-16,25.129142,121.577086,6.659608e-08
C0R540,佳冬,2024-04-16,22.419456,120.552375,0.0017072611
466950,彭佳嶼,2024-04-16,25.627975,122.079744,0.9999554
C0A890,雙溪,2024-04-16,25.036003,121.864242,0.0075544245
C0C480,桃園,2024-04-16,24.992425,121.323172,3.919502e-06
C0AH50,林口,2024-04-16,25.072181,121.38084,9.9085824e-08
A2K360,水試臺西試驗場,2024-04-16,23.717231,120.190522,0.99789935
B2N890,畜試所,2024-04-16,23.058972,120.336406,0.9994115
C0F9S0,烏日,2024-04-16,24.107058,120.624103,1.5744814e-05
C0C490,八德,2024-04-16,24.928708,121.283289,6.459467e-07
C0R190,赤山,2024-04-16,22.592333,120.614306,0.9982854
C0T820,天祥,2024-04-16,24.179597,121.495639,8.516409e-07
C1F9E1,龍安,2024-04-16,24.1605,120.831961,1.2795578e-09
C0V820,小林,2024-04-16,23.148408,120.63325,2.110605e-08
C2G870,芳苑,2024-04-16,23.922303,120.320025,0.8486703
C0E850,大河,2024-04-16,24.618069,120.948578,1.1098331e-08
C1U670,寒溪,2024-04-16,24.634,121.71691,5.218639e-08
C0N020,城西,2024-04-16,23.0568,120.0956,0.996085
C1Z110,三棧,2024-04-16,24.11557,121.60501,1.909157e-07
C0R280,檳榔,2024-04-16,22.076078,120.836777,0.9951512
C0F9L0,后里,2024-04-16,24.310436,120.729725,1.4511738e-09
C0D540,橫山,2024-04-16,24.71116,121.11693,2.724176e-09
C1D420,太閣南,2024-04-16,24.632808,121.160575,6.765898e-09
C1E770,公館,2024-04-16,24.526914,120.830806,2.5015341e-08
CAN130,水試所海水繁養殖中心,2024-04-16,23.120802,120.07968,0.9777457
C1I430,翠華,2024-04-16,24.191961,121.224339,4.5569357e-09
C1M400,菜瓜坪,2024-04-16,23.251928,120.576103,3.2425385e-09
C0G730,二林,2024-04-16,23.903325,120.376081,0.99651426
72M360,南改義竹分場,2024-04-16,23.360694,120.279361,0.9972251
V2K620,麥寮合作社,2024-04-16,23.753836,120.294783,0.9992822
C0Z070,舞鶴,2024-04-16,23.46811,121.37407,1.929668e-09
C0B040,大武崙,2024-04-16,25.166676,121.706993,0.32605752
C1Z030,紅葉,2024-04-16,23.493119,121.338806,2.4417308e-09
C1I050,丹大,2024-04-16,23.753747,121.141147,3.3755996e-09
C0I080,信義,2024-04-16,23.689694,120.851036,6.236486e-09
C2A880,福隆,2024-04-16,25.017842,121.942083,0.00097008643
C0Z160,鳳林,2024-04-16,23.746114,121.453411,5.1603003e-08
C0V210,復興,2024-04-16,23.222403,120.806089,2.4713625e-08
C0H990,昆陽,2024-04-16,24.121322,121.273642,8.3483656e-09
C0S710,鹿野,2024-04-16,22.917711,121.122994,1.0687098e-07
C0I530,小奇萊,2024-04-16,24.131764,121.295717,8.891807e-09
C0Z080,富源,2024-04-16,23.587642,121.378225,4.5416922e-08
467441,高雄,2024-04-16,22.7304,120.3125,0.87872255
C1I140,卡奈托灣,2024-04-16,23.754364,121.087872,1.1653885e-09
C0I520,玉山風口,2024-04-16,23.470489,120.955994,1.5521067e-08
C1G691,下水埔,2024-04-16,23.816114,120.5676,0.9945026
C0X110,臺南市南區,2024-04-16,22.961189,120.188378,0.9966178
C0V680,仁武,2024-04-16,22.701083,120.347722,0.7273727
C2G840,北斗,2024-04-16,23.877586,120.514222,0.89474493
C0R900,竹坑,2024-04-16,22.1385,120.7022,0.19468512
C0K250,崙背,2024-04-16,23.75555,120.318925,0.9992822
C0G860,社頭,2024-04-16,23.897647,120.5862,0.93784803
C0X150,安定,2024-04-16,23.102614,120.227839,0.99905354
C0R590,里港,2024-04-16,22.77919,120.49459,0.23665059
C0E610,馬都安,2024-04-16,24.451272,120.930192,8.9668933e-10
C0E550,明德,2024-04-16,24.583486,120.885411,9.9041046e-08
C0R150,三地門,2024-04-16,22.709889,120.639944,0.9559285
C0G910,花壇,2024-04-16,24.032076,120.549461,1.6171114e-06
C1D400,鳥嘴山,2024-04-16,24.71909,121.28387,3.6476038e-09
C0K500,元長,2024-04-16,23.64981,120.315024,0.9996503
C0F0B0,石岡,2024-04-16,24.276061,120.777644,1.1332406e-09
C2V250,甲仙,2024-04-16,23.080106,120.591758,4.536525e-06
C0SA20,金崙山,2024-04-16,22.567419,120.959667,4.383836e-08
C0V350,溪埔,2024-04-16,22.738578,120.446797,0.97284997
C0M660,溪口,2024-04-16,23.604131,120.403569,0.99973375
C1S880,壽卡,2024-04-16,22.238911,120.858903,0.97777253
72D680,桃改新埔分場,2024-04-16,24.834444,121.066111,0.0003614074
