站號,站名,日期,lat,lon,BlastGRU-TW
12J990,口湖工作站,2024-07-09,23.589978,120.180394,0.28709382
12Q970,東港工作站,2024-07-09,22.479997,120.466058,0.1529916
12Q980,恆春工作站,2024-07-09,22.079678,120.714425,0.0506166
466881,新北,2024-07-09,24.9593,121.52,0.049204808
466900,淡水,2024-07-09,25.164889,121.448906,0.11147659
466920,臺北,2024-07-09,25.037658,121.514853,0.042057093
466940,基隆,2024-07-09,25.133314,121.740475,0.03311263
466990,花蓮,2024-07-09,23.975128,121.613275,0.05075192
467050,新屋,2024-07-09,25.006744,121.047486,0.55986404
467080,宜蘭,2024-07-09,24.763975,121.756528,0.039328203
467270,田中,2024-07-09,23.873803,120.581286,0.08629405
467280,後龍,2024-07-09,24.648563,120.831834,0.603841
467300,東吉島,2024-07-09,23.25695,119.667467,0.3981804
467350,澎湖,2024-07-09,23.565503,119.563094,0.43978858
467410,臺南,2024-07-09,22.993239,120.204772,0.14734992
467420,永康,2024-07-09,23.038386,120.2367,0.08771998
467441,高雄,2024-07-09,22.7304,120.3125,0.08888253
467480,嘉義,2024-07-09,23.495925,120.432906,0.23495881
467490,臺中,2024-07-09,24.145736,120.684075,0.13453524
467540,大武,2024-07-09,22.355675,120.903789,0.08052711
467571,新竹,2024-07-09,24.827853,121.014219,0.501123
467590,恆春,2024-07-09,22.003897,120.746339,0.07131189
467610,成功,2024-07-09,23.097486,121.373428,0.076955415
467620,蘭嶼,2024-07-09,22.036969,121.558339,0.70410883
467660,臺東,2024-07-09,22.752211,121.154586,0.21260327
467790,墾丁雷達站,2024-07-09,21.948235,120.808028,0.08054575
72AI40,桃改樹林分場,2024-07-09,24.944503,121.386972,0.07639215
72C440,桃園農改,2024-07-09,24.950944,121.030583,0.53114194
72C440,桃園農改場,2024-07-09,24.950944,121.030583,0.53114194
72D680,桃改新埔分場,2024-07-09,24.834444,121.066111,0.58255863
72G600,臺中農改,2024-07-09,24.003028,120.534389,0.09669915
72G600,臺中農改場,2024-07-09,24.003028,120.534389,0.09669915
72K220,南改斗南分場,2024-07-09,23.634556,120.477333,0.17352037
72M360,南改義竹分場,2024-07-09,23.360694,120.279361,0.2132475
72M700,南改鹿草分場,2024-07-09,23.416869,120.283061,0.2785588
72N100,臺南農改,2024-07-09,23.0605,120.342194,0.07804947
72N100,臺南農改場,2024-07-09,23.0605,120.342194,0.07804947
72N240,七股研究中心,2024-07-09,23.081672,120.062894,0.21239385
72Q010,高雄農改,2024-07-09,22.709333,120.525889,0.10203987
72Q010,高雄農改場,2024-07-09,22.709333,120.525889,0.10203987
72S200,東改班鳩分場,2024-07-09,22.829528,121.077694,0.20140187
72S590,東改賓朗果園,2024-07-09,22.813889,121.071278,0.26958936
72T250,花蓮農改,2024-07-09,23.975222,121.563889,0.045694258
72T250,花蓮農改場,2024-07-09,23.975222,121.563889,0.045694258
72U480,花改蘭陽分場,2024-07-09,24.686306,121.716583,0.03417825
72V140,高改旗南分場,2024-07-09,22.857861,120.516667,0.0634794
82A750,茶改北部分場,2024-07-09,24.955778,121.631222,0.028170614
82C160,茶改場,2024-07-09,24.908472,121.185333,0.15853477
82H840,茶改南部分場,2024-07-09,23.762528,120.7405,0.5387529
82S580,茶改東部分場,2024-07-09,22.907694,121.130139,0.11026536
A2C560,農工中心,2024-07-09,24.985917,121.239833,0.16491273
A2K360,水試臺西試驗場,2024-07-09,23.717231,120.190522,0.25920972
A2K570,古坑花卉中心,2024-07-09,23.63353,120.55239,0.2570822
A2K630,臺大雲林校區,2024-07-09,23.730628,120.423903,0.13620868
A2N290,臺南蘭花園區,2024-07-09,23.340258,120.379661,0.3419452
B2E890,畜試北區分所,2024-07-09,24.527806,120.770972,0.364674
B2N890,畜產試驗所,2024-07-09,23.058972,120.336406,0.07804947
B2N890,畜試所,2024-07-09,23.058972,120.336406,0.07804947
B2Q810,畜試南區分所,2024-07-09,21.945583,120.802167,0.0737751
B2U990,畜試東區分所,2024-07-09,24.669039,121.832561,0.025695585
C0A520,山佳,2024-07-09,24.974944,121.402008,0.058072302
C0A530,坪林,2024-07-09,24.938183,121.70975,0.01941229
C0A550,泰平,2024-07-09,24.971197,121.823711,0.02328174
C0A570,桶後,2024-07-09,24.848222,121.597992,0.033688784
C0A640,石碇,2024-07-09,24.993969,121.662917,0.048070055
C0A770,科教館,2024-07-09,25.096356,121.516507,0.038936626
C0A860,大坪,2024-07-09,25.165914,121.632969,0.12630439
C0A890,雙溪,2024-07-09,25.036003,121.864242,0.051933825
C0A931,三和,2024-07-09,25.233153,121.595236,0.109118454
C0A940,金山,2024-07-09,25.223628,121.643967,0.05537386
C0A950,鼻頭角,2024-07-09,25.129036,121.923372,0.08440703
C0A970,三貂角,2024-07-09,25.007606,122.002058,0.030230813
C0A980,社子,2024-07-09,25.109508,121.469681,0.112715095
C0A9C0,天母,2024-07-09,25.117494,121.537169,0.03597153
C0A9F0,內湖,2024-07-09,25.079422,121.57545,0.037010264
C0AC60,三峽,2024-07-09,24.939025,121.369728,0.079026215
C0AC70,信義,2024-07-09,25.037822,121.564597,0.04124211
C0AC80,文山,2024-07-09,25.00235,121.575728,0.061820384
C0ACA0,新莊,2024-07-09,25.051478,121.446756,0.048797153
C0AD10,八里,2024-07-09,25.150211,121.403947,0.103112
C0AD30,蘆洲,2024-07-09,25.086594,121.472331,0.038936626
C0AD40,土城,2024-07-09,24.973208,121.445169,0.047816243
C0AD50,鶯歌,2024-07-09,24.951533,121.346294,0.08338728
C0AG80,中和,2024-07-09,24.991622,121.491792,0.05429628
C0AH00,汐止,2024-07-09,25.066881,121.658778,0.03330492
C0AH10,永和,2024-07-09,25.01125,121.508111,0.053570464
C0AH40,平等,2024-07-09,25.129142,121.577086,0.15847747
C0AH50,林口,2024-07-09,25.072181,121.38084,0.13048606
C0AH70,松山,2024-07-09,25.04871,121.55042,0.04124211
C0AH80,深坑,2024-07-09,25.002703,121.628328,0.046031315
C0AI00,五股,2024-07-09,25.07445,121.42728,0.114175655
C0AI10,屈尺,2024-07-09,24.92184,121.54475,0.037705734
C0AI20,白沙灣,2024-07-09,25.283128,121.519058,0.09011084
C0AI30,三重,2024-07-09,25.057328,121.500629,0.041555088
C0AI40,石牌,2024-07-09,25.115597,121.513139,0.03775802
C0AJ20,野柳,2024-07-09,25.20703,121.690021,0.061531406
C0AJ30,淡水觀海,2024-07-09,25.184591,121.408616,0.06922058
C0AJ40,石門,2024-07-09,25.273672,121.601198,0.13027894
C0AJ50,水湳洞,2024-07-09,25.123695,121.862238,0.028395802
C0AJ60,六塊厝,2024-07-09,25.24,121.4481,0.08565073
C0AJ70,田寮,2024-07-09,25.2698,121.4886,0.079623796
C0AJ80,板橋,2024-07-09,25.0107,121.4489,0.047182668
C0AJ90,澳底,2024-07-09,25.0552,121.9253,0.050158203
C0B010,七堵,2024-07-09,25.094819,121.71713,0.03802744
C0B020,基隆嶼,2024-07-09,25.19141,121.78391,0.07160814
C0B040,大武崙,2024-07-09,25.166676,121.706993,0.03351714
C0B050,八斗子,2024-07-09,25.144754,121.79167,0.031831678
C0B060,暖暖,2024-07-09,25.0957,121.7403,0.03936347
C0C460,復興,2024-07-09,24.820208,121.352281,0.08691121
C0C480,桃園,2024-07-09,24.992425,121.323172,0.07845006
C0C490,八德,2024-07-09,24.928708,121.283289,0.099277765
C0C590,觀音,2024-07-09,25.027072,121.153317,0.7022952
C0C620,蘆竹,2024-07-09,25.084275,121.265767,0.17392442
C0C630,大溪,2024-07-09,24.882853,121.265547,0.10959921
C0C650,平鎮,2024-07-09,24.897503,121.214636,0.10304759
C0C660,楊梅,2024-07-09,24.912375,121.143047,0.13419406
C0C670,龍潭,2024-07-09,24.870056,121.221389,0.15365392
C0C680,龜山,2024-07-09,25.02846,121.38656,0.120437115
C0C700,中壢,2024-07-09,24.977661,121.256375,0.08388554
C0C710,大溪永福,2024-07-09,24.892936,121.324975,0.06378996
C0C720,竹圍,2024-07-09,25.112692,121.239824,0.103213534
C0C730,中大臨海站,2024-07-09,24.966126,121.008581,0.54151565
C0C740,觀音工業區,2024-07-09,25.064764,121.114856,0.61999625
C0C750,新興坑尾,2024-07-09,25.0061,121.0971,0.6191261
C0D430,峨眉,2024-07-09,24.6905,121.017189,0.409977
C0D480,打鐵坑,2024-07-09,24.849664,121.150789,0.11596407
C0D540,橫山,2024-07-09,24.71116,121.11693,0.2603966
C0D560,竹東,2024-07-09,24.767147,121.057881,0.109927125
C0D580,寶山,2024-07-09,24.735006,121.025192,0.1424709
C0D590,新豐,2024-07-09,24.87068,120.97721,0.9422625
C0D650,湖口,2024-07-09,24.904794,121.043628,0.58245933
C0D660,新竹市東區,2024-07-09,24.798681,120.986942,0.39883894
C0D670,海天一線,2024-07-09,24.831986,120.914438,0.8757889
C0D680,香山濕地,2024-07-09,24.783581,120.914988,0.34897166
C0D690,外湖,2024-07-09,24.917735,120.968711,0.47737685
C0D700,關西,2024-07-09,24.7977,121.1732,0.14745869
C0E420,竹南,2024-07-09,24.708978,120.888897,0.6963655
C0E430,南庄,2024-07-09,24.601775,121.000214,0.52154154
C0E550,明德,2024-07-09,24.583486,120.885411,0.5779388
C0E590,通霄,2024-07-09,24.471892,120.704622,0.49158153
C0E730,頭份,2024-07-09,24.688247,120.912206,0.69590724
C0E740,造橋,2024-07-09,24.637056,120.864778,0.6012437
C0E750,苗栗,2024-07-09,24.564569,120.824575,0.5558425
C0E780,銅鑼,2024-07-09,24.489681,120.790853,0.4786475
C0E791,卓蘭,2024-07-09,24.3126,120.8244,0.3949717
C0E810,西湖,2024-07-09,24.562947,120.7485,0.6324438
C0E820,獅潭,2024-07-09,24.539133,120.920042,0.47057202
C0E830,苑裡,2024-07-09,24.439714,120.653053,0.3763617
C0E850,大河,2024-07-09,24.618069,120.948578,0.3946472
C0E870,高鐵苗栗,2024-07-09,24.60725,120.826094,0.5967821
C0E910,海埔,2024-07-09,24.648767,120.772435,0.5720323
C0E920,通霄漁港,2024-07-09,24.498589,120.673876,0.44383144
C0E930,龍鳳,2024-07-09,24.700034,120.859125,0.65882486
C0F0B0,石岡,2024-07-09,24.276061,120.777644,0.34847063
C0F850,東勢,2024-07-09,24.246428,120.833047,0.45423216
C0F970,大坑,2024-07-09,24.173142,120.722289,0.14061761
C0F9I0,神岡,2024-07-09,24.272481,120.658314,0.22524641
C0F9K0,大安,2024-07-09,24.345061,120.588025,0.28621188
C0F9L0,后里,2024-07-09,24.310436,120.729725,0.28845966
C0F9M0,豐原,2024-07-09,24.254322,120.720692,0.262601
C0F9N0,大里,2024-07-09,24.092464,120.701378,0.06855946
C0F9O0,潭子,2024-07-09,24.213106,120.703933,0.24195726
C0F9P0,清水,2024-07-09,24.312297,120.562242,0.23842551
C0F9Q0,外埔,2024-07-09,24.347817,120.705686,0.2465688
C0F9R0,龍井,2024-07-09,24.184536,120.528972,0.2268518
C0F9S0,烏日,2024-07-09,24.107058,120.624103,0.06468998
C0F9T0,西屯,2024-07-09,24.179494,120.641275,0.12609118
C0F9U0,南屯,2024-07-09,24.137006,120.637969,0.12304197
C0F9X0,大雅(中科園區),2024-07-09,24.21528,120.62445,0.17008637
C0FA10,松柏,2024-07-09,24.429115,120.617482,0.361582
C0FA20,溫寮,2024-07-09,24.372177,120.583125,0.27426085
C0FA30,梧棲,2024-07-09,24.256003,120.523381,0.2423597
C0FA40,臺中電廠,2024-07-09,24.2146,120.4907,0.2268518
C0FA50,霧峰,2024-07-09,24.0419,120.6995,0.058082756
C0G620,芬園,2024-07-09,24.015678,120.6213,0.05921898
C0G650,員林,2024-07-09,23.946503,120.585597,0.062247217
C0G660,溪湖,2024-07-09,23.94835,120.479122,0.08845088
C0G720,溪州,2024-07-09,23.851589,120.499093,0.08780923
C0G730,二林,2024-07-09,23.903325,120.376081,0.17535657
C0G740,大城,2024-07-09,23.852487,120.320935,0.35824192
C0G770,福興,2024-07-09,24.041289,120.437669,0.22345227
C0G780,秀水,2024-07-09,24.03405,120.503869,0.096319005
C0G800,埔鹽,2024-07-09,24.000394,120.431683,0.22304179
C0G810,埔心,2024-07-09,23.947633,120.525456,0.08974033
C0G820,田尾,2024-07-09,23.901669,120.509389,0.09092261
C0G830,埤頭,2024-07-09,23.866003,120.452806,0.08436772
C0G860,社頭,2024-07-09,23.897647,120.5862,0.07672417
C0G880,二水,2024-07-09,23.810742,120.6173,0.1524487
C0G890,伸港,2024-07-09,24.148933,120.484403,0.22993049
C0G900,線西,2024-07-09,24.143358,120.443536,0.22894295
C0G910,花壇,2024-07-09,24.032076,120.549461,0.0972058
C0G920,永靖,2024-07-09,23.924703,120.547533,0.09116566
C0G940,竹塘,2024-07-09,23.848253,120.386764,0.16561046
C0G950,防潮門,2024-07-09,24.1835,120.4871,0.2268518
C0G960,福寶,2024-07-09,24.0443,120.3814,0.22260483
C0G970,三豐,2024-07-09,23.882,120.2895,0.34353083
C0H890,埔里,2024-07-09,23.972169,120.952425,0.16909872
C0H960,草屯,2024-07-09,23.973672,120.68085,0.05866487
C0I110,竹山,2024-07-09,23.761225,120.688156,0.45648816
C0I360,水里,2024-07-09,23.812553,120.849792,0.13982053
C0I380,集集,2024-07-09,23.828206,120.801467,0.1304352
C0I410,名間,2024-07-09,23.837053,120.701447,0.1644199
C0I420,國姓,2024-07-09,24.037803,120.855072,0.06901726
C0I460,南投,2024-07-09,23.911469,120.687331,0.0614773
C0K250,崙背,2024-07-09,23.75555,120.318925,0.18278472
C0K280,四湖,2024-07-09,23.630414,120.227125,0.3050665
C0K291,宜梧,2024-07-09,23.536281,120.169329,0.1840164
C0K330,虎尾,2024-07-09,23.719183,120.442036,0.15687993
C0K390,土庫,2024-07-09,23.679029,120.395574,0.23621614
C0K400,斗六,2024-07-09,23.720583,120.541127,0.16922405
C0K410,北港,2024-07-09,23.573957,120.292802,0.23180087
C0K420,西螺,2024-07-09,23.800407,120.467394,0.10992773
C0K430,褒忠,2024-07-09,23.690938,120.303634,0.22503217
C0K440,二崙,2024-07-09,23.772797,120.408944,0.109904334
C0K450,大埤,2024-07-09,23.646074,120.431537,0.21148059
C0K460,斗南,2024-07-09,23.678734,120.478359,0.15987094
C0K470,林內,2024-07-09,23.748675,120.609642,0.2142312
C0K480,莿桐,2024-07-09,23.761192,120.502372,0.08774038
C0K500,元長,2024-07-09,23.64981,120.315024,0.25168014
C0K510,水林,2024-07-09,23.572924,120.24597,0.19178404
C0K530,臺西,2024-07-09,23.701547,120.197559,0.26333457
C0K550,蔦松,2024-07-09,23.514319,120.229736,0.19833636
C0K560,棋山,2024-07-09,23.68645,120.603417,0.34318325
C0K580,高鐵雲林,2024-07-09,23.737456,120.417944,0.13620868
C0K590,雲林東勢,2024-07-09,23.674192,120.255721,0.21628082
C0K600,箔子寮,2024-07-09,23.6197,120.14,0.27078268
C0M520,東後寮,2024-07-09,23.369908,120.248065,0.2132475
C0M640,中埔,2024-07-09,23.42538,120.5229,0.337352
C0M650,朴子,2024-07-09,23.43463,120.23902,0.1944294
C0M660,溪口,2024-07-09,23.604131,120.403569,0.25561792
C0M670,大林,2024-07-09,23.600616,120.45841,0.26681554
C0M680,太保,2024-07-09,23.455062,120.331455,0.1965924
C0M690,水上,2024-07-09,23.419734,120.388909,0.2795262
C0M700,竹崎,2024-07-09,23.526178,120.555508,0.31594288
C0M710,東石,2024-07-09,23.458927,120.15385,0.21979056
C0M720,番路,2024-07-09,23.464657,120.554156,0.27596402
C0M730,嘉義市東區,2024-07-09,23.457673,120.460531,0.23315187
C0M740,六腳,2024-07-09,23.492871,120.290625,0.24445131
C0M750,布袋,2024-07-09,23.380878,120.167789,0.16172715
C0M760,民雄,2024-07-09,23.551754,120.428457,0.26783007
C0M770,嘉義梅山,2024-07-09,23.585398,120.555587,0.32387236
C0M780,鹿草,2024-07-09,23.41134,120.30835,0.28318697
C0M790,新港,2024-07-09,23.553269,120.345728,0.26355788
C0M800,茶山,2024-07-09,23.299075,120.664767,0.078338705
C0M880,好美里,2024-07-09,23.3364,120.138,0.15083337
C0N010,鯤鯓國小,2024-07-09,23.1879,120.0889,0.16149059
C0N020,城西,2024-07-09,23.0568,120.0956,0.1635524
C0N030,四草,2024-07-09,23.0235,120.1116,0.14580049
C0N040,蘆竹溝,2024-07-09,23.2344,120.0961,0.15100823
C0N050,蚵寮,2024-07-09,23.301,120.1104,0.15378918
C0O830,北寮,2024-07-09,23.079561,120.495008,0.12217091
C0O840,王爺宮,2024-07-09,23.222064,120.40085,0.28248385
C0O860,大內,2024-07-09,23.11885,120.36083,0.100241825
C0O900,善化,2024-07-09,23.112883,120.297219,0.07684711
C0O960,崎頂,2024-07-09,22.959547,120.369317,0.090496406
C0O970,虎頭埤,2024-07-09,23.021375,120.347878,0.10595926
C0O980,新市,2024-07-09,23.061614,120.298197,0.074330114
C0O990,媽廟,2024-07-09,22.99175,120.293525,0.093873546
C0R150,三地門,2024-07-09,22.709889,120.639944,0.09743974
C0R160,鹽埔,2024-07-09,22.739558,120.530778,0.09835327
C0R170,屏東,2024-07-09,22.660269,120.494072,0.095087685
C0R190,赤山,2024-07-09,22.592333,120.614306,0.13861772
C0R220,潮州,2024-07-09,22.534361,120.54,0.13683876
C0R240,來義,2024-07-09,22.527306,120.625111,0.1632666
C0R260,春日,2024-07-09,22.370361,120.628306,0.069181114
C0R270,琉球嶼,2024-07-09,22.332244,120.362236,0.1981871
C0R280,檳榔,2024-07-09,22.076078,120.836777,0.05538915
C0R320,車城,2024-07-09,22.0744,120.716247,0.0506166
C0R341,牡丹,2024-07-09,22.130036,120.792639,0.054369736
C0R350,貓鼻頭,2024-07-09,21.921774,120.7358,0.14837295
C0R470,高樹,2024-07-09,22.826389,120.600806,0.1449614
C0R480,長治,2024-07-09,22.693128,120.542622,0.09814474
C0R490,九如,2024-07-09,22.7405,120.490503,0.096674584
C0R520,崁頂,2024-07-09,22.514781,120.506914,0.124895886
C0R540,佳冬,2024-07-09,22.419456,120.552375,0.060650665
C0R550,新埤,2024-07-09,22.467947,120.582894,0.17171031
C0R560,新園,2024-07-09,22.5434,120.461558,0.13059948
C0R570,麟洛,2024-07-09,22.65078,120.52719,0.095087685
C0R580,南州,2024-07-09,22.48591,120.50274,0.15635625
C0R590,里港,2024-07-09,22.77919,120.49459,0.06400576
C0R620,墾雷,2024-07-09,21.900836,120.855269,0.21194571
C0R640,東港,2024-07-09,22.46247,120.44074,0.15478748
C0R650,竹田,2024-07-09,22.58486,120.54344,0.14048183
C0R660,枋寮,2024-07-09,22.367722,120.590647,0.06417347
C0R670,楓港,2024-07-09,22.190131,120.692156,0.03470379
C0R680,佳樂水,2024-07-09,21.993578,120.861633,0.07487506
C0R690,墾丁,2024-07-09,21.966756,120.810269,0.12668455
C0R700,枋山,2024-07-09,22.246844,120.661086,0.071986385
C0R710,龍磐,2024-07-09,21.931672,120.838942,0.16720183
C0R720,旭海,2024-07-09,22.205403,120.887614,0.070960514
C0R730,大坪頂,2024-07-09,22.024633,120.69355,0.064726844
C0R740,獅子,2024-07-09,22.201569,120.70525,0.051359575
C0R760,南仁湖,2024-07-09,22.084681,120.863353,0.062053647
C0R770,保力,2024-07-09,22.071122,120.764111,0.055870734
C0R780,滿州,2024-07-09,22.024403,120.839892,0.07377438
C0R790,九棚,2024-07-09,22.14195,120.889281,0.04421204
C0R800,丹路,2024-07-09,22.204481,120.750989,0.06248667
C0R810,內獅,2024-07-09,22.305064,120.642986,0.043688066
C0R830,高士,2024-07-09,22.121825,120.836781,0.08075902
C0R850,林邊,2024-07-09,22.4634,120.5339,0.16601197
C0R860,鼻頭,2024-07-09,22.1043,120.8979,0.037083
C0R870,興海,2024-07-09,21.9752,120.8439,0.0737751
C0R880,後壁湖,2024-07-09,21.9457,120.7457,0.072427
C0R890,山海,2024-07-09,21.9878,120.7091,0.07354222
C0R900,竹坑,2024-07-09,22.1385,120.7022,0.05127157
C0R910,下寮,2024-07-09,22.3929,120.5548,0.060650665
C0R920,塭仔,2024-07-09,22.4169,120.5197,0.059077695
C0R930,萬丹,2024-07-09,22.5885,120.4851,0.09532569
C0R940,加祿堂,2024-07-09,22.3363,120.6217,0.038990177
C0S710,鹿野,2024-07-09,22.917711,121.122994,0.26651907
C0S730,綠島,2024-07-09,22.6672,121.47533,0.5028203
C0S740,池上,2024-07-09,23.119628,121.209469,0.15129012
C0S770,大溪山,2024-07-09,22.478475,120.943325,0.50120723
C0S790,金崙,2024-07-09,22.538122,120.966875,0.19191715
C0S810,東河,2024-07-09,22.972672,121.303986,0.112507224
C0S830,長濱,2024-07-09,23.286817,121.411975,0.09334976
C0S840,南田,2024-07-09,22.279725,120.889208,0.10104194
C0S890,關山,2024-07-09,23.0395,121.175017,0.10516357
C0S900,蘭嶼高中,2024-07-09,22.04909,121.51214,0.4820065
C0S910,蘭嶼燈塔,2024-07-09,22.081197,121.503117,0.60301095
C0S920,金峰嘉蘭,2024-07-09,22.594789,120.960825,0.095397525
C0S930,延平,2024-07-09,22.902581,121.084058,0.11365093
C0S940,石寧山,2024-07-09,23.223772,121.406639,0.059989613
C0S950,七塊厝,2024-07-09,22.954453,121.229922,0.33042637
C0S960,香蘭,2024-07-09,22.587569,120.993375,0.104210146
C0S970,加津林,2024-07-09,22.416211,120.926942,0.29694894
C0S990,山豬窟,2024-07-09,22.318619,120.857372,0.16659951
C0SA00,歷坵,2024-07-09,22.520969,120.89185,0.62516326
C0SA10,檳榔四格山,2024-07-09,22.810031,121.109308,0.41631597
C0SA30,都歷,2024-07-09,23.020333,121.323642,0.07357269
C0SA40,瑞和,2024-07-09,22.974361,121.156697,0.09245174
C0SA60,知本（水試所）,2024-07-09,22.702394,121.082761,0.12363383
C0SA80,土坂,2024-07-09,22.453108,120.887572,0.20343898
C0SA90,達仁林場,2024-07-09,22.264347,120.823972,0.20985389
C0T870,鯉魚潭,2024-07-09,23.935639,121.508944,0.047402043
C0T900,西林,2024-07-09,23.8119,121.441458,0.10198313
C0T960,光復,2024-07-09,23.660694,121.424964,0.099174865
C0T9A0,月眉山,2024-07-09,23.809928,121.539828,0.58375204
C0T9D0,和中,2024-07-09,24.26676,121.74103,0.14005475
C0T9E0,大坑,2024-07-09,23.880628,121.581981,0.4080057
C0T9F0,水璉,2024-07-09,23.797131,121.542514,0.20244412
C0T9I0,豐濱,2024-07-09,23.583897,121.514806,0.07557568
C0T9M0,靜浦,2024-07-09,23.455167,121.495028,0.062007613
C0T9N0,富里,2024-07-09,23.171639,121.249378,0.14952193
C0U600,礁溪,2024-07-09,24.817539,121.765608,0.0211691
C0U650,玉蘭,2024-07-09,24.675286,121.587061,0.24193461
C0U750,龜山島,2024-07-09,24.841667,121.953133,0.45051622
C0U760,東澳,2024-07-09,24.52196,121.83318,0.05250929
C0U770,南澳,2024-07-09,24.44935,121.81022,0.31112093
C0U780,五結,2024-07-09,24.68637,121.79794,0.031205796
C0U860,頭城,2024-07-09,24.85323,121.8308,0.020026563
C0U870,大礁溪,2024-07-09,24.791042,121.675047,0.39478073
C0U880,北關,2024-07-09,24.9072,121.8734,0.017111987
C0U890,三星,2024-07-09,24.66812,121.65302,0.015439963
C0U900,內城,2024-07-09,24.71813,121.68766,0.035010975
C0U910,冬山,2024-07-09,24.63373,121.7937,0.025695585
C0U940,羅東,2024-07-09,24.68184,121.74934,0.03360668
C0U970,大福,2024-07-09,24.80064,121.81389,0.037465677
C0U990,員山,2024-07-09,24.74435,121.72247,0.033736236
C0UA00,土場,2024-07-09,24.576533,121.495333,0.032114
C0UA80,大溪漁港,2024-07-09,24.941801,121.902955,0.01604287
C0UA90,石城,2024-07-09,24.980444,121.951214,0.027277762
C0UB00,淡江大學蘭陽校園,2024-07-09,24.823239,121.730383,0.055703055
C0UB10,蘇澳,2024-07-09,24.5969,121.8571,0.022536064
C0UB20,壯圍,2024-07-09,24.7359,121.8163,0.031441025
C0V310,美濃,2024-07-09,22.898742,120.519153,0.06747252
C0V350,溪埔,2024-07-09,22.738578,120.446797,0.059999067
C0V360,內門,2024-07-09,22.975481,120.466769,0.20362042
C0V370,古亭坑,2024-07-09,22.893178,120.401947,0.07236075
C0V400,阿公店,2024-07-09,22.804194,120.355528,0.07264302
C0V440,鳳山,2024-07-09,22.646653,120.356122,0.12675634
C0V450,鳳森,2024-07-09,22.545064,120.392592,0.14428176
C0V490,新興,2024-07-09,22.627422,120.298803,0.11759683
C0V530,阿蓮,2024-07-09,22.883208,120.327508,0.087572776
C0V610,梓官,2024-07-09,22.760558,120.267211,0.0887511
C0V620,永安,2024-07-09,22.82315,120.236856,0.1266002
C0V630,茄萣,2024-07-09,22.906642,120.182608,0.15870982
C0V640,湖內,2024-07-09,22.887139,120.2445,0.16344813
C0V650,彌陀,2024-07-09,22.783806,120.246361,0.1266002
C0V660,岡山,2024-07-09,22.797078,120.294958,0.12629078
C0V680,仁武,2024-07-09,22.701083,120.347722,0.12347324
C0V690,鼓山,2024-07-09,22.623325,120.275575,0.122393765
C0V700,三民,2024-07-09,22.645017,120.311233,0.12308818
C0V710,苓雅,2024-07-09,22.622742,120.330669,0.12013512
C0V720,林園,2024-07-09,22.507747,120.394511,0.13442858
C0V730,大寮,2024-07-09,22.605614,120.395717,0.12081189
C0V740,旗山,2024-07-09,22.888614,120.483597,0.06838771
C0V750,路竹,2024-07-09,22.854997,120.259439,0.1652062
C0V760,橋頭,2024-07-09,22.757806,120.30575,0.087582074
C0V770,大社,2024-07-09,22.730306,120.346639,0.090077415
C0V790,萬山,2024-07-09,22.905944,120.688056,0.21623273
C0V800,六龜,2024-07-09,22.997889,120.633583,0.10745396
C0V810,左營,2024-07-09,22.67491,120.28491,0.12308818
C0V820,小林,2024-07-09,23.148408,120.63325,0.12936454
C0V840,鳳鼻頭,2024-07-09,22.5083,120.3591,0.13205996
C0V850,蚵仔寮,2024-07-09,22.7256,120.2527,0.08726274
C0V860,南寮,2024-07-09,22.7616,120.2339,0.08726274
C0V870,文安,2024-07-09,22.8025,120.2164,0.12601958
C0V880,興達,2024-07-09,22.8778,120.2127,0.15870982
C0V890,前鎮,2024-07-09,22.5718,120.3117,0.11978309
C0V900,汕尾,2024-07-09,22.4782,120.4151,0.1529916
C0W200,湖西,2024-07-09,23.596314,119.67275,0.5254314
C0X050,東河,2024-07-09,23.296598,120.385608,0.26445445
C0X060,下營,2024-07-09,23.22695,120.256261,0.13816762
C0X080,佳里,2024-07-09,23.173039,120.145086,0.18796353
C0X100,臺南市北區,2024-07-09,23.010394,120.194228,0.14279397
C0X110,臺南市南區,2024-07-09,22.961189,120.188378,0.10784543
C0X120,麻豆,2024-07-09,23.183289,120.248611,0.108547986
C0X130,官田,2024-07-09,23.193217,120.315422,0.117114596
C0X140,西港,2024-07-09,23.125608,120.203108,0.11239638
C0X150,安定,2024-07-09,23.102614,120.227839,0.09666331
C0X160,仁德,2024-07-09,22.968258,120.257689,0.107504986
C0X170,關廟,2024-07-09,22.963017,120.327797,0.07258258
C0X180,山上,2024-07-09,23.0757,120.363253,0.108324654
C0X190,安平,2024-07-09,22.993161,120.152181,0.14823933
C0X200,左鎮,2024-07-09,23.056758,120.408522,0.16601275
C0X210,白河,2024-07-09,23.347466,120.414427,0.43904328
C0X220,學甲,2024-07-09,23.230367,120.182187,0.16137631
C0X230,鹽水,2024-07-09,23.272621,120.247641,0.20326555
C0X240,關子嶺,2024-07-09,23.331169,120.508025,0.5765089
C0X250,新營,2024-07-09,23.310689,120.316681,0.21846172
C0X260,後壁,2024-07-09,23.366358,120.362326,0.3419452
C0X280,將軍,2024-07-09,23.214999,120.13577,0.15928958
C0X290,北門,2024-07-09,23.267772,120.125481,0.15100823
C0X300,鹿寮,2024-07-09,23.386047,120.477331,0.35042965
C0X320,柳營,2024-07-09,23.253328,120.375253,0.20770158
C0Z020,明里,2024-07-09,23.208717,121.262342,0.055982605
C0Z061,玉里,2024-07-09,23.3215,121.339656,0.05800466
C0Z070,舞鶴,2024-07-09,23.46811,121.37407,0.087582044
C0Z080,富源,2024-07-09,23.587642,121.378225,0.043863952
C0Z100,東華,2024-07-09,23.89525,121.549833,0.066061616
C0Z150,吉安光華,2024-07-09,23.930925,121.595153,0.041500583
C0Z160,鳳林,2024-07-09,23.746114,121.453411,0.042410247
C0Z170,卓溪,2024-07-09,23.3443,121.3029,0.05746835
C0Z180,新城,2024-07-09,24.03946,121.60454,0.052089754
C0Z190,富世,2024-07-09,24.14743,121.6297,0.52000105
C0Z200,萬榮,2024-07-09,23.709219,121.420106,0.049416926
C0Z210,瑞穗,2024-07-09,23.5239,121.39021,0.062993355
C0Z230,和平,2024-07-09,24.30717,121.77007,0.0996242
C0Z270,蕃薯寮,2024-07-09,23.73835,121.540108,0.19028182
C0Z280,德武,2024-07-09,23.47426,121.41071,0.07396525
C0Z300,東里,2024-07-09,23.26853,121.30547,0.0501705
C0Z310,清水斷崖,2024-07-09,24.218294,121.689142,0.7473059
C0Z330,安通山,2024-07-09,23.290728,121.348528,0.23648459
C2E520,大湖,2024-07-09,24.414939,120.870872,0.43662626
C2E540,後龍,2024-07-09,24.606489,120.783933,0.5843787
C2E540,龍溪,2024-07-09,24.606489,120.783933,0.5843787
C2F000,大肚,2024-07-09,24.15295,120.572117,0.25024664
C2F930,大甲,2024-07-09,24.347667,120.640403,0.3401543
C2F9A0,中竹林,2024-07-09,24.103556,120.751061,0.32231587
C2G640,鹿港,2024-07-09,24.0753,120.430481,0.22805975
C2G840,北斗,2024-07-09,23.877586,120.514222,0.08646312
C2G870,芳苑,2024-07-09,23.922303,120.320025,0.4152914
C2H950,中寮,2024-07-09,23.884447,120.766406,0.15146683
C2M410,馬頭山,2024-07-09,23.324361,120.582017,0.16804387
C2N160,西拉雅風管處,2024-07-09,23.189481,120.335297,0.118793875
C2O810,曾文,2024-07-09,23.219681,120.497328,0.350767
C2O930,玉井,2024-07-09,23.126042,120.46055,0.15259771
C2O950,安南,2024-07-09,23.076694,120.144861,0.21911518
C2V250,甲仙,2024-07-09,23.080106,120.591758,0.12907603
C2V260,月眉,2024-07-09,22.971003,120.539853,0.097048104
C2W230,畜試所澎湖,2024-07-09,23.628342,119.513206,0.42955747
CAG100,王功漁港,2024-07-09,23.96824,120.32586,0.40815985
CAH030,茶改場竹圍站,2024-07-09,23.860083,120.637528,0.1124744
CAJ050,海口故事園區,2024-07-09,23.57543,120.14121,0.27078268
CAL110,布袋國中,2024-07-09,23.35893,120.18026,0.16557403
CAN130,水試所海水繁養殖中心,2024-07-09,23.120802,120.07968,0.21239385
CAN140,六官養殖協會,2024-07-09,23.22881,120.29962,0.20437779
CAQ030,崎峰國小,2024-07-09,22.42565,120.49521,0.15760393
E2K600,四湖植物園,2024-07-09,23.676986,120.163433,0.24732955
E2P980,林試六龜中心,2024-07-09,22.991703,120.645722,0.11081116
E2S960,林試太麻里2,2024-07-09,22.598014,120.989761,0.104210146
E2S960,林試太麻里2,2024-07-09,22.598,120.99775,0.10189945
E2S980,林試太麻里1,2024-07-09,22.598922,120.980044,0.12948921
G2AI50,關渡,2024-07-09,25.11575,121.492,0.11447156
G2F820,農業試驗所,2024-07-09,24.031261,120.688133,0.057301197
G2F820,農試所(霧峰),2024-07-09,24.031261,120.688133,0.057301197
G2L020,農試嘉義分所,2024-07-09,23.485028,120.473806,0.297839
G2M350,農試溪口農場,2024-07-09,23.58565,120.408111,0.25857285
G2P820,農試鳳山分所,2024-07-09,22.646611,120.356083,0.12675634
K2E360,苗栗農改,2024-07-09,24.495722,120.829111,0.3963599
K2E360,苗栗農改場,2024-07-09,24.495722,120.829111,0.3963599
K2E710,苗改生物防治研究中心,2024-07-09,24.422861,120.871833,0.38464323
K2F750,種苗改良場,2024-07-09,24.225972,120.800917,0.26368377
K2F750,種苗繁殖,2024-07-09,24.225972,120.800917,0.26368377
U2HA50,臺大竹山,2024-07-09,23.756972,120.681556,0.6409974
V2C250,八德合作社,2024-07-09,24.93775,121.266389,0.09500573
V2C260,八德蔬果,2024-07-09,24.978508,121.281819,0.07995034
V2K610,大庄合作社,2024-07-09,23.8068,120.367939,0.1529228
V2K620,麥寮合作社,2024-07-09,23.753836,120.294783,0.18278472
