站號,站名,日期,lat,lon,BLBTSLS
C0R710,龍磐,2024-12-29,21.931672,120.838942,0.01926073
C1F9D1,白毛台,2024-12-29,24.158325,120.886933,0.8523679
C0G940,竹塘,2024-12-29,23.848253,120.386764,0.9896658
467590,恆春,2024-12-29,22.003897,120.746339,0.99380285
C1O850,環湖,2024-12-29,23.148617,120.418633,0.9948704
C0U710,太平山,2024-12-29,24.505486,121.525656,0.8717639
C0E820,獅潭,2024-12-29,24.539133,120.920042,0.3478967
C0V880,興達,2024-12-29,22.8778,120.2127,0.97127014
C0S890,關山,2024-12-29,23.0395,121.175017,0.98433656
C0SB30,新蘭,2024-12-29,22.869214,121.223228,0.9862969
C2R970,屏科大,2024-12-29,22.648275,120.619247,0.99617904
K2F750,種苗繁殖,2024-12-29,24.225972,120.800917,0.96022904
C1Z130,銅門,2024-12-29,23.965694,121.492842,0.9980564
C0AD40,土城,2024-12-29,24.973208,121.445169,0.8507476
CAN140,六官養殖協會,2024-12-29,23.22881,120.29962,0.98659736
C0X180,山上,2024-12-29,23.0757,120.363253,0.99123347
C0F9Z0,雪山東峰,2024-12-29,24.388792,121.268675,0.5114518
C1M480,獨立山,2024-12-29,23.537022,120.607797,0.88014877
C0X220,學甲,2024-12-29,23.230367,120.182187,0.9824113
467650,日月潭,2024-12-29,23.881325,120.90805,0.9206188
C0K600,箔子寮,2024-12-29,23.6197,120.14,0.99351245
C0G830,埤頭,2024-12-29,23.866003,120.452806,0.9539107
C0S950,七塊厝,2024-12-29,22.954453,121.229922,0.9797597
467110,金門,2024-12-29,24.407306,118.289281,0.7189446
C0AH80,深坑,2024-12-29,25.002703,121.628328,0.8445366
467990,馬祖,2024-12-29,26.169269,119.923419,0.037535544
C0A970,三貂角,2024-12-29,25.007606,122.002058,0.9283948
C2D730,寶山農場,2024-12-29,24.732444,120.976153,0.15731241
C0K430,褒忠,2024-12-29,23.690938,120.303634,0.986599
467480,嘉義,2024-12-29,23.495925,120.432906,0.9505752
C2E540,後龍,2024-12-29,24.606489,120.783933,0.6382079
C0V400,阿公店,2024-12-29,22.804194,120.355528,0.991536
C0R440,大漢山,2024-12-29,22.405264,120.753181,0.68930286
C0K280,四湖,2024-12-29,23.630414,120.227125,0.9959921
C1F9B1,桐林,2024-12-29,24.066172,120.735194,0.73739886
C2H9U0,鳳鵬,2024-12-29,23.763919,120.788061,0.8297385
C0K390,土庫,2024-12-29,23.679029,120.395574,0.9851818
C1I450,望鄉山,2024-12-29,23.594153,120.944286,0.57648975
C0E910,海埔,2024-12-29,24.648767,120.772435,0.64683396
B2E890,畜試北區分所,2024-12-29,24.527806,120.770972,0.78962183
C0R750,四林格山,2024-12-29,22.076989,120.802439,0.9525549
C0F0C0,中坑,2024-12-29,24.248517,120.903319,0.9143998
C1I121,大鞍,2024-12-29,23.678381,120.760017,0.8742876
72U480,花改蘭陽分場,2024-12-29,24.686306,121.716583,0.55426925
C0A770,科教館,2024-12-29,25.096356,121.516507,0.9227658
C0AJ60,六塊厝,2024-12-29,25.24,121.4481,0.9793708
C0R620,墾雷,2024-12-29,21.900836,120.855269,0.07359478
467420,永康,2024-12-29,23.038386,120.2367,0.987709
467300,東吉島,2024-12-29,23.25695,119.667467,0.06715901
C0I410,名間,2024-12-29,23.837053,120.701447,0.9620036
A2C560,農工中心,2024-12-29,24.985917,121.239833,0.9744065
C0V740,旗山,2024-12-29,22.888614,120.483597,0.9964598
C0Z061,玉里,2024-12-29,23.3215,121.339656,0.9841407
C0S840,南田,2024-12-29,22.279725,120.889208,0.99881244
C1I470,杉林溪,2024-12-29,23.639517,120.786444,0.8477508
C1X040,東原,2024-12-29,23.291597,120.463822,0.9863988
C0R660,枋寮,2024-12-29,22.367722,120.590647,0.20383556
C1R120,上德文,2024-12-29,22.763272,120.704442,0.84042084
C0K450,大埤,2024-12-29,23.646074,120.431537,0.9758369
C0UA00,土場,2024-12-29,24.576533,121.495333,0.95043296
467080,宜蘭,2024-12-29,24.763975,121.756528,0.8948923
C0N030,四草,2024-12-29,23.0235,120.1116,0.9889895
C0V650,彌陀,2024-12-29,22.783806,120.246361,0.95518446
C0D660,新竹市東區,2024-12-29,24.798681,120.986942,0.29204878
82S580,茶改東部分場,2024-12-29,22.907694,121.130139,0.9779033
C0SB40,興隆,2024-12-29,22.913661,121.257469,0.98561037
C0C710,大溪永福,2024-12-29,24.892936,121.324975,0.95518243
C0FA20,溫寮,2024-12-29,24.372177,120.583125,0.9534803
C0V640,湖內,2024-12-29,22.887139,120.2445,0.97146136
C0R910,下寮,2024-12-29,22.3929,120.5548,0.20383556
C0Z020,明里,2024-12-29,23.208717,121.262342,0.979111
C0M770,嘉義梅山,2024-12-29,23.585398,120.555587,0.9344116
G2F820,農業試驗所,2024-12-29,24.031261,120.688133,0.8839328
C0C660,楊梅,2024-12-29,24.912375,121.143047,0.9747345
C1E511,新開,2024-12-29,24.347703,120.827019,0.74846655
G2F820,農試所(霧峰),2024-12-29,24.031261,120.688133,0.8839328
C1I070,和社,2024-12-29,23.591131,120.888861,0.96256644
C2F000,大肚,2024-12-29,24.15295,120.572117,0.8380971
C1S850,豐南,2024-12-29,23.122139,121.262389,0.93929887
C2A920,富貴角,2024-12-29,25.263783,121.565258,0.97431433
CAH030,茶改場竹圍站,2024-12-29,23.860083,120.637528,0.69955933
C0T960,光復,2024-12-29,23.660694,121.424964,0.88920194
C0F9M0,豐原,2024-12-29,24.254322,120.720692,0.86812824
C0R720,旭海,2024-12-29,22.205403,120.887614,0.99534595
C0V710,苓雅,2024-12-29,22.622742,120.330669,0.80344677
C0C740,觀音工業區,2024-12-29,25.064764,121.114856,0.90705276
CAC040,拉拉山,2024-12-29,24.699317,121.427133,0.89509016
C0V790,萬山,2024-12-29,22.905944,120.688056,0.9654244
U2HA30,臺大和社,2024-12-29,23.590856,120.888864,0.96256644
C0AJ90,澳底,2024-12-29,25.0552,121.9253,0.9778057
C0Z100,東華,2024-12-29,23.89525,121.549833,0.99927676
C0G970,三豐,2024-12-29,23.882,120.2895,0.05616947
V2K610,大庄合作社,2024-12-29,23.8068,120.367939,0.98966783
C0V900,汕尾,2024-12-29,22.4782,120.4151,0.65871114
C1R630,龍泉,2024-12-29,22.66701,120.59091,0.9966648
C1AC50,關渡,2024-12-29,25.133486,121.469331,0.85496724
C0F9I0,神岡,2024-12-29,24.272481,120.658314,0.8709178
C0K460,斗南,2024-12-29,23.678734,120.478359,0.97627634
467410,臺南,2024-12-29,22.993239,120.204772,0.98896927
C2O810,曾文,2024-12-29,23.219681,120.497328,0.9894557
467280,後龍,2024-12-29,24.648563,120.831834,0.6251093
C1F9J1,清水林,2024-12-29,24.071242,120.820419,0.6088485
C2A650,火燒寮,2024-12-29,25.002719,121.742892,0.91937244
466930,竹子湖,2024-12-29,25.162078,121.544547,0.84261477
C1I220,樟湖,2024-12-29,23.905333,120.846983,0.82691157
C0I390,仁愛,2024-12-29,24.022122,121.132206,0.6276203
C0Z300,東里,2024-12-29,23.26853,121.30547,0.9831949
C1V590,新發,2024-12-29,23.057019,120.646064,0.890381
C0K510,水林,2024-12-29,23.572924,120.24597,0.9893984
72S590,東改賓朗果園,2024-12-29,22.813889,121.071278,0.82184064
82A750,茶改北部分場,2024-12-29,24.955778,121.631222,0.9856831
C1A750,石碇服務區,2024-12-29,25.00872,121.646242,0.9814023
C0X300,鹿寮,2024-12-29,23.386047,120.477331,0.9539815
G2AI50,關渡,2024-12-29,25.11575,121.492,0.9779848
C0K590,雲林東勢,2024-12-29,23.674192,120.255721,0.9875566
C0A570,桶後,2024-12-29,24.848222,121.597992,0.9695195
C1S800,華源,2024-12-29,22.657883,121.02325,0.5942599
C0G720,溪州,2024-12-29,23.851589,120.499093,0.9532326
C1V160,達卡努瓦,2024-12-29,23.279811,120.705319,0.7387069
C2M410,馬頭山,2024-12-29,23.324361,120.582017,0.9813184
C0V850,蚵仔寮,2024-12-29,22.7256,120.2527,0.9782209
C0S740,池上,2024-12-29,23.119628,121.209469,0.95903015
C1V390,尖山,2024-12-29,22.813153,120.367789,0.9911909
C0AH70,松山,2024-12-29,25.04871,121.55042,0.92050505
C0N010,鯤鯓國小,2024-12-29,23.1879,120.0889,0.98335993
C0R550,新埤,2024-12-29,22.467947,120.582894,0.67013776
C0SA60,知本（水試所）,2024-12-29,22.702394,121.082761,0.65916866
C0T9I0,豐濱,2024-12-29,23.583897,121.514806,0.79568803
C0UB00,淡江大學蘭陽校園,2024-12-29,24.823239,121.730383,0.96498394
C0W240,九宮,2024-12-29,24.423753,118.240186,0.73756087
C0T9N0,富里,2024-12-29,23.171639,121.249378,0.88543135
U2HA50,臺大竹山,2024-12-29,23.756972,120.681556,0.8548444
C0V840,鳳鼻頭,2024-12-29,22.5083,120.3591,0.93835884
C0X140,西港,2024-12-29,23.125608,120.203108,0.98703605
72D080,桃改五峰分場,2024-12-29,24.612194,121.157167,0.22617553
C2H9P0,伊拿谷,2024-12-29,23.963211,121.088264,0.8633468
C2H9F0,柑林,2024-12-29,24.018658,120.847072,0.8401523
C0TA20,加灣,2024-12-29,24.082025,121.608944,0.9993539
C0V530,阿蓮,2024-12-29,22.883208,120.327508,0.98882186
C1O880,關山,2024-12-29,23.173397,120.594092,0.871469
C0E791,卓蘭,2024-12-29,24.3126,120.8244,0.8359729
C1I030,武界,2024-12-29,23.913225,121.052483,0.8595813
C0R520,崁頂,2024-12-29,22.514781,120.506914,0.8548349
C0R341,牡丹,2024-12-29,22.130036,120.792639,0.9664286
C0R930,萬丹,2024-12-29,22.5885,120.4851,0.8278836
C0S760,紅石,2024-12-29,23.069131,121.126219,0.74796104
C1M610,石磐龍,2024-12-29,23.496606,120.663506,0.83920246
C0UA10,鴛鴦湖,2024-12-29,24.590269,121.412228,0.7811992
V2C260,八德蔬果,2024-12-29,24.978508,121.281819,0.9436171
C0R800,丹路,2024-12-29,22.204481,120.750989,0.99852836
C0G920,永靖,2024-12-29,23.924703,120.547533,0.9671262
C2M950,太和,2024-12-29,23.538372,120.702961,0.79944426
C1A630,下盆,2024-12-29,24.771003,121.538622,0.9186383
B2N890,畜產試驗所,2024-12-29,23.058972,120.336406,0.9860539
C0UA30,白嶺,2024-12-29,24.527819,121.519031,0.91671187
C1V580,溪南(特生中心),2024-12-29,23.084972,120.788475,0.7795072
C1T970,大農,2024-12-29,23.615233,121.413331,0.7770805
E2S960,林試太麻里2,2024-12-29,22.598014,120.989761,0.66910064
C0R650,竹田,2024-12-29,22.58486,120.54344,0.9849612
C1H900,清流,2024-12-29,24.080775,120.962997,0.35020563
C1C510,水尾,2024-12-29,24.940081,121.087161,0.9819619
C0F9X0,大雅(中科園區),2024-12-29,24.21528,120.62445,0.94165796
C0SB60,白守蓮,2024-12-29,23.126769,121.401914,0.98634964
C0O970,虎頭埤,2024-12-29,23.021375,120.347878,0.9902304
C0C730,中大臨海站,2024-12-29,24.966126,121.008581,0.9621601
C0X250,新營,2024-12-29,23.310689,120.316681,0.98643285
C0V700,三民,2024-12-29,22.645017,120.311233,0.89300317
C0U870,大礁溪,2024-12-29,24.791042,121.675047,0.93061036
C0E870,高鐵苗栗,2024-12-29,24.60725,120.826094,0.62853515
A2K570,古坑花卉中心,2024-12-29,23.63353,120.55239,0.9177611
C0M860,新美,2024-12-29,23.338017,120.683169,0.9221395
C1E701,八卦,2024-12-29,24.491756,120.927619,0.88974077
C0I420,國姓,2024-12-29,24.037803,120.855072,0.8334743
C2D720,關西工作站,2024-12-29,24.757275,121.184792,0.5752467
C0S960,香蘭,2024-12-29,22.587569,120.993375,0.66910064
C0R260,春日,2024-12-29,22.370361,120.628306,0.24424963
72G600,臺中農改場,2024-12-29,24.003028,120.534389,0.96873504
C0Z210,瑞穗,2024-12-29,23.5239,121.39021,0.8249147
C0M820,達邦,2024-12-29,23.453994,120.749517,0.8292982
C0V860,南寮,2024-12-29,22.7616,120.2339,0.9782682
C0G740,大城,2024-12-29,23.852487,120.320935,0.056769293
C0R920,塭仔,2024-12-29,22.4169,120.5197,0.20211546
C0R470,高樹,2024-12-29,22.826389,120.600806,0.9890878
C0R680,佳樂水,2024-12-29,21.993578,120.861633,0.9841106
C1O870,大棟山,2024-12-29,23.31157,120.52226,0.8169042
C0D360,梅花,2024-12-29,24.678347,121.208558,0.18991084
C0Z190,富世,2024-12-29,24.14743,121.6297,0.998223
C0AI10,屈尺,2024-12-29,24.92184,121.54475,0.9717809
B2U990,畜試東區分所,2024-12-29,24.669039,121.832561,0.637934
C0SB80,長濱漁港,2024-12-29,23.313644,121.459994,0.98990643
C0R240,來義,2024-12-29,22.527306,120.625111,0.8423026
C0V910,大樹,2024-12-29,22.684645,120.432803,0.95476246
C1R610,西大武山,2024-12-29,22.617719,120.7322,0.89221656
C0G900,線西,2024-12-29,24.143358,120.443536,0.99021167
C0M700,竹崎,2024-12-29,23.526178,120.555508,0.9178852
C2E880,三義,2024-12-29,24.405478,120.749819,0.43234742
C0C720,竹圍,2024-12-29,25.112692,121.239824,0.9779276
C0F9P0,清水,2024-12-29,24.312297,120.562242,0.9698176
C0Z150,吉安光華,2024-12-29,23.930925,121.595153,0.99927294
C1D640,外坪(五指山),2024-12-29,24.644447,121.090961,0.2888913
C0F9O0,潭子,2024-12-29,24.213106,120.703933,0.93876934
C2H9R0,卓社,2024-12-29,23.887894,121.000086,0.908609
72T250,花蓮農改場,2024-12-29,23.975222,121.563889,0.99932593
C0E780,銅鑼,2024-12-29,24.489681,120.790853,0.7324385
C1T950,太安,2024-12-29,23.666719,121.370128,0.8399266
C0E830,苑裡,2024-12-29,24.439714,120.653053,0.80235386
467270,田中,2024-12-29,23.873803,120.581286,0.9749852
C0SA10,檳榔四格山,2024-12-29,22.810031,121.109308,0.8094021
C1T830,布洛灣,2024-12-29,24.17184,121.57127,0.95695436
C0F970,大坑,2024-12-29,24.173142,120.722289,0.9054388
C1U920,思源,2024-12-29,24.393125,121.347214,0.8778496
C0A931,三和,2024-12-29,25.233153,121.595236,0.98521507
C0I010,廬山,2024-12-29,24.033311,121.181808,0.54997987
C2M940,日野賀,2024-12-29,23.434056,120.727169,0.800866
C0R860,鼻頭,2024-12-29,22.1043,120.8979,0.9973696
C0UB20,壯圍,2024-12-29,24.7359,121.8163,0.55854005
C0R790,九棚,2024-12-29,22.14195,120.889281,0.98204195
C0W110,東莒,2024-12-29,25.9652,119.98069,0.038015593
C1U930,粉鳥林,2024-12-29,24.497088,121.842479,0.85797787
C1I211,蘆竹湳,2024-12-29,23.934019,120.811994,0.5338367
C0S830,長濱,2024-12-29,23.286817,121.411975,0.9742742
C1F9F1,伯公龍,2024-12-29,24.272392,120.849047,0.9448061
C0E810,西湖,2024-12-29,24.562947,120.7485,0.99717003
C1I440,新高口,2024-12-29,23.478744,120.878939,0.53008026
C0O840,王爺宮,2024-12-29,23.222064,120.40085,0.98682094
C0T9G0,鳳林山,2024-12-29,23.735269,121.420131,0.8102253
C0X080,佳里,2024-12-29,23.173039,120.145086,0.98335993
C0FB70,大甲溪埔,2024-12-29,24.370625,120.620067,0.9389637
C0Z310,清水斷崖,2024-12-29,24.218294,121.689142,0.87878215
C0M680,太保,2024-12-29,23.455062,120.331455,0.9633138
C1S820,金峰,2024-12-29,22.590969,120.933236,0.593025
C0AD10,八里,2024-12-29,25.150211,121.403947,0.9779276
C2K240,草嶺,2024-12-29,23.59555,120.693461,0.91466486
C1SA70,都蘭,2024-12-29,22.87794,121.226881,0.98561037
C0K440,二崙,2024-12-29,23.772797,120.408944,0.9707645
C1A760,坪林交控,2024-12-29,24.94284,121.713442,0.9085578
C0F9N0,大里,2024-12-29,24.092464,120.701378,0.76204437
C0SA90,達仁林場,2024-12-29,22.264347,120.823972,0.69719046
C1R290,石門山,2024-12-29,22.112611,120.756597,0.96851724
42HA10,萬大發電廠,2024-12-29,23.978875,121.139639,0.57672036
C0R890,山海,2024-12-29,21.9878,120.7091,0.69115806
C0T9A0,月眉山,2024-12-29,23.809928,121.539828,0.9571324
C0AC70,信義,2024-12-29,25.037822,121.564597,0.92050505
C0K560,棋山,2024-12-29,23.68645,120.603417,0.91424364
C2FB50,出雲,2024-12-29,24.206469,120.902794,0.8999304
C1Z240,中平林道,2024-12-29,23.42115,121.26763,0.94136775
U2H480,溪頭,2024-12-29,23.670306,120.798194,0.869425
C0M880,好美里,2024-12-29,23.3364,120.138,0.98387563
C0T9E0,大坑,2024-12-29,23.880628,121.581981,0.99323875
C0K530,臺西,2024-12-29,23.701547,120.197559,0.99287856
C1E900,國一N128K,2024-12-29,24.560997,120.844186,0.7876671
C0AJ50,水湳洞,2024-12-29,25.123695,121.862238,0.99494296
C0AI20,白沙灣,2024-12-29,25.283128,121.519058,0.9792102
C0A860,大坪,2024-12-29,25.165914,121.632969,0.9175258
C1U850,觀音海岸,2024-12-29,24.38319,121.77856,0.806961
C2K610,草嶺石壁,2024-12-29,23.602469,120.707731,0.90989584
C0U950,鶯子嶺,2024-12-29,24.89754,121.79244,0.91464084
C0O900,善化,2024-12-29,23.112883,120.297219,0.9864504
C0K550,蔦松,2024-12-29,23.514319,120.229736,0.9908464
E2P980,林試六龜中心,2024-12-29,22.991703,120.645722,0.94612676
C0E590,通霄,2024-12-29,24.471892,120.704622,0.12557779
C1I310,西巒,2024-12-29,23.754486,120.883956,0.8769975
C0A550,泰平,2024-12-29,24.971197,121.823711,0.96745926
C0I360,水里,2024-12-29,23.812553,120.849792,0.82845384
C0R830,高士,2024-12-29,22.121825,120.836781,0.9662821
C1I101,溪頭,2024-12-29,23.661789,120.807647,0.89055806
C0AJ20,野柳,2024-12-29,25.20703,121.690021,0.99089175
C0B060,暖暖,2024-12-29,25.0957,121.7403,0.9937107
C1H920,長豐,2024-12-29,24.102039,120.879897,0.32936668
C0V360,內門,2024-12-29,22.975481,120.466769,0.9946893
C0R850,林邊,2024-12-29,22.4634,120.5339,0.6606699
C0E930,龍鳳,2024-12-29,24.700034,120.859125,0.45656452
C0U910,冬山,2024-12-29,24.63373,121.7937,0.637934
C1E721,泰安,2024-12-29,24.489017,120.968036,0.8571886
82H320,茶改中部分場,2024-12-29,23.875611,120.913583,0.9374443
C0M750,布袋,2024-12-29,23.380878,120.167789,0.9867538
C1S860,利嘉,2024-12-29,22.809417,121.050528,0.8237417
72C440,桃園農改,2024-12-29,24.950944,121.030583,0.9813699
E2S980,林試太麻里1,2024-12-29,22.598922,120.980044,0.6349643
C0X170,關廟,2024-12-29,22.963017,120.327797,0.9910419
C0V720,林園,2024-12-29,22.507747,120.394511,0.93750405
C1I510,線浸林道,2024-12-29,23.761508,120.832956,0.87620145
C0D690,外湖,2024-12-29,24.917735,120.968711,0.98125315
C0C750,新興坑尾,2024-12-29,25.0061,121.0971,0.96340257
B2Q810,畜試南區分所,2024-12-29,21.945583,120.802167,0.98314846
C0S790,金崙,2024-12-29,22.538122,120.966875,0.89374965
C0AH90,福山植物園,2024-12-29,24.760717,121.58135,0.9393553
C0I540,奇萊稜線,2024-12-29,24.109231,121.326456,0.58908194
C0M850,表湖,2024-12-29,23.24186,120.64166,0.80005157
C0S770,大溪山,2024-12-29,22.478475,120.943325,0.9825783
C0AG80,中和,2024-12-29,24.991622,121.491792,0.85074747
C0T790,大禹嶺,2024-12-29,24.186117,121.316086,0.61693525
C0T9B0,水源,2024-12-29,23.991861,121.537169,0.9860724
C0R840,牡丹池山,2024-12-29,22.168389,120.841225,0.50208265
C1I131,桶頭,2024-12-29,23.641944,120.654117,0.8605961
CAL110,布袋國中,2024-12-29,23.35893,120.18026,0.9867538
467571,新竹,2024-12-29,24.827853,121.014219,0.8330105
C0Z290,赤柯山,2024-12-29,23.36893,121.38293,0.8862314
C0X280,將軍,2024-12-29,23.214999,120.13577,0.9824488
C0S690,太麻里,2024-12-29,22.60902,120.98533,0.48517865
C0U880,北關,2024-12-29,24.9072,121.8734,0.9176836
C1H860,瑞岩,2024-12-29,24.123772,121.18345,0.77206063
C0G810,埔心,2024-12-29,23.947633,120.525456,0.9671383
C0U970,大福,2024-12-29,24.80064,121.81389,0.8993594
C2H9N0,仁愛東眼,2024-12-29,24.026875,121.1205,0.5774773
C1E670,南礦,2024-12-29,24.538278,121.002836,0.7250003
C0M520,東後寮,2024-12-29,23.369908,120.248065,0.9865917
C1E461,松安,2024-12-29,24.397972,120.986022,0.8914265
72G600,臺中農改,2024-12-29,24.003028,120.534389,0.96873504
C2N160,西拉雅風管處,2024-12-29,23.189481,120.335297,0.9908772
C2M970,碧湖,2024-12-29,23.568632,120.624165,0.92871106
C0A640,石碇,2024-12-29,24.993969,121.662917,0.97457075
E2S960,林試太麻里2,2024-12-29,22.598,120.99775,0.6820725
C0F9Y0,桃山,2024-12-29,24.432739,121.303808,0.5240759
C1I020,萬大,2024-12-29,23.979817,121.132261,0.62526184
C0U940,羅東,2024-12-29,24.68184,121.74934,0.554612
C0M650,朴子,2024-12-29,23.43463,120.23902,0.98534745
C1I500,大尖山,2024-12-29,23.858572,120.994889,0.7721084
C0G820,田尾,2024-12-29,23.901669,120.509389,0.9671262
E2K600,四湖植物園,2024-12-29,23.676986,120.163433,0.99598855
C0S730,綠島,2024-12-29,22.6672,121.47533,0.06924287
12Q970,東港工作站,2024-12-29,22.479997,120.466058,0.65739614
C0E430,南庄,2024-12-29,24.601775,121.000214,0.3581667
C1TA00,太魯閣,2024-12-29,24.15773,121.6236,0.9977231
466920,臺北,2024-12-29,25.037658,121.514853,0.92050505
C0R600,舊泰武,2024-12-29,22.588194,120.664944,0.95703405
C1I260,北坑,2024-12-29,23.9246,121.006903,0.5322682
466910,鞍部,2024-12-29,25.182586,121.529731,0.92883426
C1I230,九份二山,2024-12-29,23.961944,120.845,0.87379223
C2A660,瑞芳,2024-12-29,25.113169,121.801147,0.99287826
C0R270,琉球嶼,2024-12-29,22.332244,120.362236,0.16146332
C1T990,高寮,2024-12-29,23.394239,121.356808,0.9868765
C0G620,芬園,2024-12-29,24.015678,120.6213,0.8676185
C1Z140,荖溪,2024-12-29,23.890575,121.45964,0.8531943
C1I201,中心崙,2024-12-29,23.728722,120.712097,0.9028794
C1I400,凌霄,2024-12-29,24.018778,121.004456,0.58028394
C1M640,十字,2024-12-29,23.492153,120.753683,0.74107456
G2P820,農試鳳山分所,2024-12-29,22.646611,120.356083,0.89745545
C0Z270,蕃薯寮,2024-12-29,23.73835,121.540108,0.8823279
C0F9Q0,外埔,2024-12-29,24.347817,120.705686,0.873478
C0K580,高鐵雲林,2024-12-29,23.737456,120.417944,0.982148
C2I090,鳳凰,2024-12-29,23.728081,120.787347,0.84679186
C0U990,員山,2024-12-29,24.74435,121.72247,0.558776
C0V770,大社,2024-12-29,22.730306,120.346639,0.9770035
C0X120,麻豆,2024-12-29,23.183289,120.248611,0.9824858
C0C670,龍潭,2024-12-29,24.870056,121.221389,0.9688055
C0D680,香山濕地,2024-12-29,24.783581,120.914988,0.28945014
C0S980,勝林山,2024-12-29,22.430439,120.8938,0.9806313
C0V730,大寮,2024-12-29,22.605614,120.395717,0.80742437
C0R570,麟洛,2024-12-29,22.65078,120.52719,0.86498916
C2M930,石卓,2024-12-29,23.478744,120.702264,0.63300174
C0G9B0,和美,2024-12-29,24.105169,120.492131,0.9917929
CAG100,王功漁港,2024-12-29,23.96824,120.32586,0.022608211
C0X290,北門,2024-12-29,23.267772,120.125481,0.9824488
C2F930,大甲,2024-12-29,24.347667,120.640403,0.9378366
C0D650,湖口,2024-12-29,24.904794,121.043628,0.982243
C0E420,竹南,2024-12-29,24.708978,120.888897,0.4624869
C0U780,五結,2024-12-29,24.68637,121.79794,0.55854005
C1I250,鯉潭,2024-12-29,23.961922,120.991131,0.8819261
C0R130,阿禮,2024-12-29,22.742908,120.743678,0.7985572
C0X100,臺南市北區,2024-12-29,23.010394,120.194228,0.989032
C0S920,金峰嘉蘭,2024-12-29,22.594789,120.960825,0.64024436
C0V490,新興,2024-12-29,22.627422,120.298803,0.80363244
C0F9K0,大安,2024-12-29,24.345061,120.588025,0.95190525
72N100,臺南農改,2024-12-29,23.0605,120.342194,0.9860539
467290,古坑,2024-12-29,23.633639,120.551889,0.9177611
C2E970,八甲,2024-12-29,24.535811,120.795983,0.73551667
C0V440,鳳山,2024-12-29,22.646653,120.356122,0.89745545
C1T940,大觀,2024-12-29,23.714206,121.373133,0.83704805
72T250,花蓮農改,2024-12-29,23.975222,121.563889,0.99932593
C0E740,造橋,2024-12-29,24.637056,120.864778,0.63186365
C0R100,尾寮山,2024-12-29,22.833111,120.683889,0.8078124
A2K630,臺大雲林校區,2024-12-29,23.730628,120.423903,0.98212475
C0D580,寶山,2024-12-29,24.735006,121.025192,0.12840296
E2P990,林試扇平站,2024-12-29,22.9677,120.6857,0.9671993
C0AI30,三重,2024-12-29,25.057328,121.500629,0.9227658
C0AH00,汐止,2024-12-29,25.066881,121.658778,0.92050505
C1Z040,立山,2024-12-29,23.443356,121.327375,0.94484174
C0W130,花嶼,2024-12-29,23.40007,119.32276,0.05416897
C0A950,鼻頭角,2024-12-29,25.129036,121.923372,0.99159735
C0K470,林內,2024-12-29,23.748675,120.609642,0.88085425
C2F990,摩天嶺,2024-12-29,24.322458,120.936819,0.90935737
82C160,茶改場,2024-12-29,24.908472,121.185333,0.97358996
C0Z320,清水林道,2024-12-29,23.27125,121.188272,0.91715115
C0R760,南仁湖,2024-12-29,22.084681,120.863353,0.9680139
C0M670,大林,2024-12-29,23.600616,120.45841,0.9784114
C0M800,茶山,2024-12-29,23.299075,120.664767,0.9377467
C0A9C0,天母,2024-12-29,25.117494,121.537169,0.8856913
72K220,南改斗南分場,2024-12-29,23.634556,120.477333,0.97627634
72AI40,桃改樹林分場,2024-12-29,24.944503,121.386972,0.98092943
C0S910,蘭嶼燈塔,2024-12-29,22.081197,121.503117,0.089916095
C0B050,八斗子,2024-12-29,25.144754,121.79167,0.9953484
C0U900,內城,2024-12-29,24.71813,121.68766,0.55033964
C0X320,柳營,2024-12-29,23.253328,120.375253,0.99207866
C0M790,新港,2024-12-29,23.553269,120.345728,0.984756
C0F9T0,西屯,2024-12-29,24.179494,120.641275,0.9641075
C0SA30,都歷,2024-12-29,23.020333,121.323642,0.99263746
C0C620,蘆竹,2024-12-29,25.084275,121.265767,0.98275477
C0R730,大坪頂,2024-12-29,22.024633,120.69355,0.99467194
C0AJ40,石門,2024-12-29,25.273672,121.601198,0.9765852
C0E750,苗栗,2024-12-29,24.564569,120.824575,0.7743512
C0T870,鯉魚潭,2024-12-29,23.935639,121.508944,0.99844885
C1V170,排雲,2024-12-29,23.463619,120.954147,0.39482233
C2H950,中寮,2024-12-29,23.884447,120.766406,0.95824945
C0R350,貓鼻頭,2024-12-29,21.921774,120.7358,0.17823225
C0V660,岡山,2024-12-29,22.797078,120.294958,0.95518446
C1H941,雙冬,2024-12-29,23.967378,120.802189,0.5311238
C0AJ70,田寮,2024-12-29,25.2698,121.4886,0.97960633
C0AI00,五股,2024-12-29,25.07445,121.42728,0.8602863
C0Z280,德武,2024-12-29,23.47426,121.41071,0.94912446
C0R700,枋山,2024-12-29,22.246844,120.661086,0.9648624
C0C460,復興,2024-12-29,24.820208,121.352281,0.97760856
E2H360,蓮華池,2024-12-29,23.918333,120.885278,0.5243072
C0M640,中埔,2024-12-29,23.42538,120.5229,0.90867996
C0W140,金沙,2024-12-29,24.488292,118.408778,0.16444139
C2A540,四堵,2024-12-29,24.8926,121.745736,0.9025165
C0ACA0,新莊,2024-12-29,25.051478,121.446756,0.7339516
C0R220,潮州,2024-12-29,22.534361,120.54,0.85228646
U2HA40,臺大內茅埔,2024-12-29,23.689722,120.851117,0.9676463
467490,臺中,2024-12-29,24.145736,120.684075,0.91808903
C0U960,翠峰湖,2024-12-29,24.510856,121.608044,0.8632062
E2HA20,林試畢祿溪站,2024-12-29,24.226944,121.308522,0.8510015
C0V890,前鎮,2024-12-29,22.5718,120.3117,0.79638976
467620,蘭嶼,2024-12-29,22.036969,121.558339,0.028683197
C1F941,雪嶺,2024-12-29,24.280586,121.026642,0.7856443
C2H9E0,國姓南港,2024-12-29,23.911108,120.846556,0.8228536
C0AC80,文山,2024-12-29,25.00235,121.575728,0.84442145
C0F9R0,龍井,2024-12-29,24.184536,120.528972,0.9853961
C0M760,民雄,2024-12-29,23.551754,120.428457,0.9796341
C0UA40,西德山,2024-12-29,24.560647,121.752608,0.8925934
C1T920,中興,2024-12-29,23.769503,121.498653,0.99555355
C0D550,雪霸,2024-12-29,24.526972,121.11605,0.69202894
C2F860,梨山,2024-12-29,24.247522,121.243669,0.8460084
C0R320,車城,2024-12-29,22.0744,120.716247,0.87845856
C1S870,南美山,2024-12-29,23.15025,121.382333,0.88761604
C0B020,基隆嶼,2024-12-29,25.19141,121.78391,0.98757946
C1U501,牛鬥,2024-12-29,24.637836,121.573656,0.93669254
C0M730,嘉義市東區,2024-12-29,23.457673,120.460531,0.9379769
C0S700,知本,2024-12-29,22.684866,121.005642,0.49309826
C1N001,沙崙,2024-12-29,22.935472,120.309406,0.99114966
C0V760,橋頭,2024-12-29,22.757806,120.30575,0.97814804
C0G960,福寶,2024-12-29,24.0443,120.3814,0.99198604
C0X210,白河,2024-12-29,23.347466,120.414427,0.96002734
C0S810,東河,2024-12-29,22.972672,121.303986,0.9950988
C2R170,屏東,2024-12-29,22.66027,120.49403,0.86498916
C0R670,楓港,2024-12-29,22.190131,120.692156,0.60587204
C0FA50,霧峰,2024-12-29,24.0419,120.6995,0.87402123
C0UB10,蘇澳,2024-12-29,24.5969,121.8571,0.96845883
C0G950,防潮門,2024-12-29,24.1835,120.4871,0.9853961
C0M740,六腳,2024-12-29,23.492871,120.290625,0.98454493
C1R250,力里,2024-12-29,22.428117,120.629228,0.62656415
C0K330,虎尾,2024-12-29,23.719183,120.442036,0.982018
C2FA00,烏石坑,2024-12-29,24.273503,120.947617,0.9114804
C0V620,永安,2024-12-29,22.82315,120.236856,0.95518446
C1I330,楓樹林,2024-12-29,23.986803,121.076117,0.6032541
C0W200,湖西,2024-12-29,23.596314,119.67275,0.030682823
72Q010,高雄農改場,2024-12-29,22.709333,120.525889,0.98337346
C0SA40,瑞和,2024-12-29,22.974361,121.156697,0.9920863
C0C680,龜山,2024-12-29,25.02846,121.38656,0.8422148
C2V260,月眉,2024-12-29,22.971003,120.539853,0.99555653
C0V450,鳳森,2024-12-29,22.545064,120.392592,0.93805045
C0U720,南山,2024-12-29,24.43742,121.38167,0.949359
A2N290,臺南蘭花園區,2024-12-29,23.340258,120.379661,0.975101
C0R560,新園,2024-12-29,22.5434,120.461558,0.93750405
C0U890,三星,2024-12-29,24.66812,121.65302,0.9587444
C1V300,御油山,2024-12-29,23.001983,120.715364,0.8282249
C0U600,礁溪,2024-12-29,24.817539,121.765608,0.9697404
C1T980,龍澗,2024-12-29,24.023289,121.411328,0.8690027
C0D670,海天一線,2024-12-29,24.831986,120.914438,0.12323373
C0SA00,歷坵,2024-12-29,22.520969,120.89185,0.8071839
C0M710,東石,2024-12-29,23.458927,120.15385,0.9863326
C0M780,鹿草,2024-12-29,23.41134,120.30835,0.98510194
C0U520,雙連埤,2024-12-29,24.753033,121.641303,0.92894804
C0B010,七堵,2024-12-29,25.094819,121.71713,0.99374264
C0R480,長治,2024-12-29,22.693128,120.542622,0.95849085
C1V830,國三S383K,2024-12-29,22.781967,120.426475,0.99057907
12Q980,恆春工作站,2024-12-29,22.079678,120.714425,0.87845856
C1O940,東山服務區,2024-12-29,23.286016,120.398472,0.98682433
C1U840,東澳嶺,2024-12-29,24.5378,121.8485,0.8298865
C1D630,飛鳳山,2024-12-29,24.766464,121.119178,0.8833036
C0S940,石寧山,2024-12-29,23.223772,121.406639,0.98633754
C0K410,北港,2024-12-29,23.573957,120.292802,0.98929006
C2M620,瑞里,2024-12-29,23.545133,120.675197,0.81686234
C0SB70,小港漁港,2024-12-29,23.158558,121.400431,0.9659841
C2O950,安南,2024-12-29,23.076694,120.144861,0.9774366
C0F0E0,南湖圈谷,2024-12-29,24.363714,121.444667,0.61072975
467610,成功,2024-12-29,23.097486,121.373428,0.9857651
C0G890,伸港,2024-12-29,24.148933,120.484403,0.99021167
C2E540,龍溪,2024-12-29,24.606489,120.783933,0.6382079
C1V200,梅山,2024-12-29,23.268447,120.823556,0.8724852
C0T9H0,加路蘭山,2024-12-29,23.682947,121.5274,0.773893
C2O930,玉井,2024-12-29,23.126042,120.46055,0.99124163
C1F911,新伯公,2024-12-29,24.221361,120.841069,0.9643834
C0R490,九如,2024-12-29,22.7405,120.490503,0.98377156
C0X200,左鎮,2024-12-29,23.056758,120.408522,0.9903215
C0SB50,叭嗡嗡,2024-12-29,23.047062,121.343223,0.9948838
C1F891,稍來,2024-12-29,24.265689,121.001142,0.732997
72N240,七股研究中心,2024-12-29,23.081672,120.062894,0.97712404
C0C700,中壢,2024-12-29,24.977661,121.256375,0.94349533
C0M690,水上,2024-12-29,23.419734,120.388909,0.96429145
C0V690,鼓山,2024-12-29,22.623325,120.275575,0.80363244
C0O860,大內,2024-12-29,23.11885,120.36083,0.9863189
C0Z200,萬榮,2024-12-29,23.709219,121.420106,0.92469364
C0T9D0,和中,2024-12-29,24.26676,121.74103,0.98545545
C1O921,楠西,2024-12-29,23.183511,120.484083,0.9942274
C0AJ30,淡水觀海,2024-12-29,25.184591,121.408616,0.9842817
C0V810,左營,2024-12-29,22.67491,120.28491,0.89300317
C0UA70,桃源谷,2024-12-29,24.962606,121.888875,0.9597143
C0X130,官田,2024-12-29,23.193217,120.315422,0.99094665
C1H000,翠峰,2024-12-29,24.109397,121.205211,0.75186664
C0UA90,石城,2024-12-29,24.980444,121.951214,0.9328629
C1E681,南勢山,2024-12-29,24.421669,120.923831,0.86604464
C0A9F0,內湖,2024-12-29,25.079422,121.57545,0.92050505
C0K291,宜梧,2024-12-29,23.536281,120.169329,0.9908464
C1K540,口湖,2024-12-29,23.585344,120.180517,0.99351245
C0R780,滿州,2024-12-29,22.024403,120.839892,0.9942551
C0V870,文安,2024-12-29,22.8025,120.2164,0.95468414
C0U650,玉蘭,2024-12-29,24.675286,121.587061,0.9662197
C0R640,東港,2024-12-29,22.46247,120.44074,0.65739614
K2E360,苗栗農改,2024-12-29,24.495722,120.829111,0.7778232
C0AJ80,板橋,2024-12-29,25.0107,121.4489,0.8534217
C0S660,下馬,2024-12-29,23.150427,121.070312,0.9297148
C1H9B1,阿眉,2024-12-29,24.1263,120.994672,0.74069303
C0UA20,多加屯,2024-12-29,24.368614,121.373189,0.5860056
C0E730,頭份,2024-12-29,24.688247,120.912206,0.5193867
72V140,高改旗南分場,2024-12-29,22.857861,120.516667,0.9965298
C0K480,莿桐,2024-12-29,23.761192,120.502372,0.905184
C0U980,坪林石牌,2024-12-29,24.86478,121.77396,0.95025826
C0T900,西林,2024-12-29,23.8119,121.441458,0.9893346
C1I150,青雲,2024-12-29,23.793361,120.949378,0.782463
467350,澎湖,2024-12-29,23.565503,119.563094,0.022252308
C0G800,埔鹽,2024-12-29,24.000394,120.431683,0.9943155
C0H960,草屯,2024-12-29,23.973672,120.68085,0.8739882
C1V780,多納林道,2024-12-29,22.888028,120.737917,0.92828894
C0E920,通霄漁港,2024-12-29,24.498589,120.673876,0.09007186
C0Z330,安通山,2024-12-29,23.290728,121.348528,0.9492413
C0AH10,永和,2024-12-29,25.01125,121.508111,0.8534217
C0AK10,太平里,2024-12-29,25.134937,121.364899,0.9782125
C2G640,鹿港,2024-12-29,24.0753,120.430481,0.9919768
C1E890,國三N149K,2024-12-29,24.463414,120.680019,0.70988417
C1R110,口社,2024-12-29,22.770111,120.645222,0.9973238
C1M870,國三N285K,2024-12-29,23.550319,120.505833,0.94356376
467050,新屋,2024-12-29,25.006744,121.047486,0.9629088
C1E480,鳳美,2024-12-29,24.554803,121.034747,0.7930683
C0M530,奮起湖,2024-12-29,23.493903,120.699253,0.7961632
C0C590,觀音,2024-12-29,25.027072,121.153317,0.92628026
C0T9M0,靜浦,2024-12-29,23.455167,121.495028,0.97329366
C2H9M0,發祥,2024-12-29,24.154094,121.164517,0.8275738
C0AI40,石牌,2024-12-29,25.115597,121.513139,0.88821876
C1F871,上谷關,2024-12-29,24.203483,121.018644,0.9110507
C2H9G0,百勝,2024-12-29,24.051142,120.909361,0.59463125
C0G880,二水,2024-12-29,23.810742,120.6173,0.92659324
C0R940,加祿堂,2024-12-29,22.3363,120.6217,0.37693515
C0W220,北竿,2024-12-29,26.220358,119.974881,0.04128894
C0O960,崎頂,2024-12-29,22.959547,120.369317,0.9900591
C0S750,向陽,2024-12-29,23.248397,120.986133,0.8101693
C0T9F0,水璉,2024-12-29,23.797131,121.542514,0.9820611
C1M600,頭凍,2024-12-29,23.406364,120.603339,0.7014106
467660,臺東,2024-12-29,22.752211,121.154586,0.9560532
C1D380,新埔,2024-12-29,24.84745,121.03834,0.8387818
C2G980,田頭村,2024-12-29,23.8263,120.444175,0.9724996
C0V750,路竹,2024-12-29,22.854997,120.259439,0.9716661
C0N050,蚵寮,2024-12-29,23.301,120.1104,0.98387563
72M700,南改鹿草分場,2024-12-29,23.416869,120.283061,0.98534745
C1SA50,利嘉林道,2024-12-29,22.82325,121.009389,0.96572655
467550,玉山,2024-12-29,23.487614,120.959522,0.3926176
C0A940,金山,2024-12-29,25.223628,121.643967,0.9905638
C1V340,大津,2024-12-29,22.888322,120.645986,0.9851453
C0W180,七美,2024-12-29,23.219333,119.444892,0.09620903
C1F9C1,白冷,2024-12-29,24.182844,120.929889,0.942865
K2E710,苗改生物防治研究中心,2024-12-29,24.422861,120.871833,0.4910727
C0N040,蘆竹溝,2024-12-29,23.2344,120.0961,0.9824746
C2W230,畜試所澎湖,2024-12-29,23.628342,119.513206,0.028984977
C0R880,後壁湖,2024-12-29,21.9457,120.7457,0.67558116
C1I280,埔中,2024-12-29,23.820778,120.642594,0.8242921
467790,墾丁雷達站,2024-12-29,21.948235,120.808028,0.99043894
C0W190,望安,2024-12-29,23.380564,119.494075,0.058521356
466881,新北,2024-12-29,24.9593,121.52,0.85101414
C0Z170,卓溪,2024-12-29,23.3443,121.3029,0.9806939
C0F850,東勢,2024-12-29,24.246428,120.833047,0.8966316
466900,淡水,2024-12-29,25.164889,121.448906,0.9781874
C0I370,魚池,2024-12-29,23.895703,120.94135,0.6878601
C0C630,大溪,2024-12-29,24.882853,121.265547,0.96849054
C0A520,山佳,2024-12-29,24.974944,121.402008,0.61600995
C0I110,竹山,2024-12-29,23.761225,120.688156,0.9127667
82H840,茶改南部分場,2024-12-29,23.762528,120.7405,0.8269403
C0G660,溪湖,2024-12-29,23.94835,120.479122,0.9684784
C1T800,洛韶,2024-12-29,24.204558,121.453956,0.88846993
C1T810,慈恩,2024-12-29,24.192044,121.388386,0.7798775
C1E451,象鼻,2024-12-29,24.368617,120.940228,0.79248214
C0AC60,三峽,2024-12-29,24.939025,121.369728,0.9807628
C0I490,萬大林道,2024-12-29,23.928228,121.091411,0.7278113
C1I290,豐丘,2024-12-29,23.668178,120.887417,0.8604963
C1I320,奧萬大,2024-12-29,23.952956,121.178556,0.7974254
C2M910,嘉義大學,2024-12-29,23.471325,120.485903,0.9298153
C0U770,南澳,2024-12-29,24.44935,121.81022,0.87173057
C0A980,社子,2024-12-29,25.109508,121.469681,0.9789828
C0V800,六龜,2024-12-29,22.997889,120.633583,0.9476034
C1G9D0,國一S218K,2024-12-29,23.890641,120.493253,0.9539107
C0E570,白沙屯,2024-12-29,24.549447,120.696803,0.9970204
C2F9A0,中竹林,2024-12-29,24.103556,120.751061,0.7691045
C0FA40,臺中電廠,2024-12-29,24.2146,120.4907,0.9853961
C2G9A0,畜試所彰化,2024-12-29,23.86045,120.557964,0.9749852
C0H9C0,合歡山,2024-12-29,24.143442,121.272547,0.46952003
C0X060,下營,2024-12-29,23.22695,120.256261,0.98659736
G2M350,農試溪口農場,2024-12-29,23.58565,120.408111,0.9795775
C0U860,頭城,2024-12-29,24.85323,121.8308,0.970303
C0R580,南州,2024-12-29,22.48591,120.50274,0.65739614
C0D430,峨眉,2024-12-29,24.6905,121.017189,0.15679282
C0G780,秀水,2024-12-29,24.03405,120.503869,0.96875995
72N100,臺南農改場,2024-12-29,23.0605,120.342194,0.9860539
C0S900,蘭嶼高中,2024-12-29,22.04909,121.51214,0.09629489
467540,大武,2024-12-29,22.355675,120.903789,0.9941434
C1F9W0,德基,2024-12-29,24.254783,121.190261,0.7776886
C1Z120,壽豐,2024-12-29,23.870853,121.508081,0.99927676
C0W160,烏坵,2024-12-29,24.9944,119.44956,0.013156867
C1I240,外大坪,2024-12-29,23.958697,120.917931,0.8804461
C1I550,國六W023K,2024-12-29,23.979067,120.867742,0.5141736
C0R870,興海,2024-12-29,21.9752,120.8439,0.98314846
C0R140,瑪家,2024-12-29,22.682903,120.686639,0.9499216
C0A530,坪林,2024-12-29,24.938183,121.70975,0.905538
C0X260,後壁,2024-12-29,23.366358,120.362326,0.975101
C0Z230,和平,2024-12-29,24.30717,121.77007,0.98590904
C0G770,福興,2024-12-29,24.041289,120.437669,0.9943155
C0H9A0,神木村,2024-12-29,23.532742,120.843667,0.74199265
C0I460,南投,2024-12-29,23.911469,120.687331,0.87975866
C0I480,梅峰,2024-12-29,24.085272,121.173572,0.5415232
C1V570,吉東,2024-12-29,22.85422,120.5454,0.9963931
C2D740,屯原,2024-12-29,24.067969,121.209389,0.56720084
C2A560,福山,2024-12-29,24.776203,121.502811,0.95276815
C0AH30,五分山,2024-12-29,25.07125,121.780794,0.97467387
C0FA10,松柏,2024-12-29,24.429115,120.617482,0.81782734
72S200,東改班鳩分場,2024-12-29,22.829528,121.077694,0.84337395
72HA00,中改埔里分場,2024-12-29,23.903208,120.963364,0.52846897
C2H9W0,大坪頂農水,2024-12-29,24.043122,120.932781,0.33313698
C0C650,平鎮,2024-12-29,24.897503,121.214636,0.9787605
C0S930,延平,2024-12-29,22.902581,121.084058,0.972139
C0UA60,樟樹山,2024-12-29,24.41393,121.78325,0.94538695
C1S670,摩天,2024-12-29,23.199503,121.027,0.8182829
C0V630,茄萣,2024-12-29,22.906642,120.182608,0.97127014
466940,基隆,2024-12-29,25.133314,121.740475,0.99530244
C0X050,東河,2024-12-29,23.296598,120.385608,0.98794264
C0R770,保力,2024-12-29,22.071122,120.764111,0.9922132
G2L020,農試嘉義分所,2024-12-29,23.485028,120.473806,0.93438023
C0X240,關子嶺,2024-12-29,23.331169,120.508025,0.9726114
C0I380,集集,2024-12-29,23.828206,120.801467,0.83121204
466990,花蓮,2024-12-29,23.975128,121.613275,0.99938476
C1V220,小關山,2024-12-29,23.154217,120.813603,0.8229208
C1F9G1,慶福山,2024-12-29,24.180853,120.848378,0.83789384
C0Z250,瑞穗林道,2024-12-29,23.49284,121.30688,0.93162894
C0D590,新豐,2024-12-29,24.87068,120.97721,0.1336567
C0A870,五指山,2024-12-29,25.132153,121.608692,0.82346225
C0UA50,西帽山,2024-12-29,24.555361,121.802628,0.921641
C0X160,仁德,2024-12-29,22.968258,120.257689,0.9880985
C1H971,六分寮,2024-12-29,23.92507,120.6378,0.7776958
C0W120,西嶼,2024-12-29,23.5626,119.468436,0.03295732
C0G650,員林,2024-12-29,23.946503,120.585597,0.957833
C0AD50,鶯歌,2024-12-29,24.951533,121.346294,0.9801244
C2H9Q0,北東眼山,2024-12-29,24.120939,121.189303,0.7318215
C2H9T0,名間竹圍,2024-12-29,23.859914,120.637572,0.69955933
C0S990,山豬窟,2024-12-29,22.318619,120.857372,0.969337
72Q010,高雄農改,2024-12-29,22.709333,120.525889,0.98337346
C0X190,安平,2024-12-29,22.993161,120.152181,0.9889855
C0K400,斗六,2024-12-29,23.720583,120.541127,0.9247878
12J990,口湖工作站,2024-12-29,23.589978,120.180394,0.99351245
C0O830,北寮,2024-12-29,23.079561,120.495008,0.9508946
C1D410,白蘭,2024-12-29,24.579364,121.079947,0.6979418
C0S970,加津林,2024-12-29,22.416211,120.926942,0.9940899
C0D700,關西,2024-12-29,24.7977,121.1732,0.5763266
C0M810,里佳,2024-12-29,23.389125,120.716647,0.67104304
C0U750,龜山島,2024-12-29,24.841667,121.953133,0.040528025
C0R810,內獅,2024-12-29,22.305064,120.642986,0.37714696
C1M390,龍美,2024-12-29,23.406728,120.654417,0.6911992
C2FB60,頭櫃山,2024-12-29,24.129842,120.858925,0.64923716
C1H840,國三N238K,2024-12-29,23.841008,120.707711,0.7100142
CAQ030,崎峰國小,2024-12-29,22.42565,120.49521,0.65739614
C2E520,大湖,2024-12-29,24.414939,120.870872,0.4845912
467530,阿里山,2024-12-29,23.508208,120.813242,0.71141845
C1E691,南湖,2024-12-29,24.40135,120.837533,0.9016495
C0FA30,梧棲,2024-12-29,24.256003,120.523381,0.9698176
C1V231,高中,2024-12-29,23.134911,120.716711,0.7186656
C0F9V0,新社,2024-12-29,24.200172,120.815806,0.9546231
C0H890,埔里,2024-12-29,23.972169,120.952425,0.50899696
C0R690,墾丁,2024-12-29,21.966756,120.810269,0.99565977
C0F0D0,審馬陣,2024-12-29,24.381675,121.4203,0.5510081
C0R820,白鷺,2024-12-29,22.454275,120.666219,0.6833851
U2H480,臺大溪頭,2024-12-29,23.670306,120.798194,0.869425
C1V190,南天池,2024-12-29,23.27403,120.91176,0.63626224
K2E360,苗栗農改場,2024-12-29,24.495722,120.829111,0.7778232
CAJ050,海口故事園區,2024-12-29,23.57543,120.14121,0.99351245
C2H9D0,三隻寮,2024-12-29,24.093078,120.861578,0.33325452
C0O990,媽廟,2024-12-29,22.99175,120.293525,0.987917
C0D480,打鐵坑,2024-12-29,24.849664,121.150789,0.96865076
C0Z220,和平林道,2024-12-29,24.343922,121.656317,0.8304316
C0TA10,花蓮漁港,2024-12-29,23.995322,121.638331,0.99942374
72C440,桃園農改場,2024-12-29,24.950944,121.030583,0.9813699
C1E711,馬拉邦山,2024-12-29,24.367306,120.901656,0.79097915
C0SB20,富岡,2024-12-29,22.792467,121.192669,0.8734578
C0D560,竹東,2024-12-29,24.767147,121.057881,0.5748257
C0F9U0,南屯,2024-12-29,24.137006,120.637969,0.96743125
C0M720,番路,2024-12-29,23.464657,120.554156,0.88661075
C0F0A0,雪山圈谷,2024-12-29,24.388594,121.236339,0.5053118
C1A9N0,四十份,2024-12-29,24.934158,121.593283,0.99032307
C0U760,東澳,2024-12-29,24.52196,121.83318,0.8503447
C0X230,鹽水,2024-12-29,23.272621,120.247641,0.98402226
C2H9H0,苗改南投蜂場,2024-12-29,23.852589,120.693481,0.9642885
C0R950,萬隆國小,2024-12-29,22.507667,120.587817,0.8487014
C0V370,古亭坑,2024-12-29,22.893178,120.401947,0.9936024
C1I340,新興橋,2024-12-29,23.563333,120.868728,0.9426037
C0SA80,土坂,2024-12-29,22.453108,120.887572,0.98923236
C0R160,鹽埔,2024-12-29,22.739558,120.530778,0.98337346
C0AC40,大屯山,2024-12-29,25.175675,121.522408,0.8753216
466850,五分山雷達站,2024-12-29,25.071182,121.781205,0.97427124
C2H9L0,馬烈霸,2024-12-29,24.1512,121.201772,0.73510724
C1AI50,國三N016K,2024-12-29,25.034164,121.619664,0.9163945
C1V600,藤枝,2024-12-29,23.071961,120.757042,0.7992773
C1E601,南勢,2024-12-29,24.572486,120.734842,0.9952461
C0Z180,新城,2024-12-29,24.03946,121.60454,0.9993689
C0O980,新市,2024-12-29,23.061614,120.298197,0.98644227
C0K420,西螺,2024-12-29,23.800407,120.467394,0.9694673
C0Z050,佳心,2024-12-29,23.34567,121.21316,0.8981511
C0AD30,蘆洲,2024-12-29,25.086594,121.472331,0.9227658
C0V610,梓官,2024-12-29,22.760558,120.267211,0.97814804
K2F750,種苗改良場,2024-12-29,24.225972,120.800917,0.96022904
C0UA80,大溪漁港,2024-12-29,24.941801,121.902955,0.91658705
C1AI60,國一39K邊坡,2024-12-29,25.064361,121.383836,0.8509325
C0W150,金寧,2024-12-29,24.457703,118.328989,0.7266036
C0R960,內埔,2024-12-29,22.608483,120.570714,0.98388153
V2C250,八德合作社,2024-12-29,24.93775,121.266389,0.9792961
C2H9S0,龍南,2024-12-29,23.953536,120.833183,0.4915903
C0AH40,平等,2024-12-29,25.129142,121.577086,0.90646666
C0R540,佳冬,2024-12-29,22.419456,120.552375,0.20688544
466950,彭佳嶼,2024-12-29,25.627975,122.079744,0.5949506
C0A890,雙溪,2024-12-29,25.036003,121.864242,0.97430825
C0C480,桃園,2024-12-29,24.992425,121.323172,0.9453128
C0AH50,林口,2024-12-29,25.072181,121.38084,0.83497596
A2K360,水試臺西試驗場,2024-12-29,23.717231,120.190522,0.99312955
B2N890,畜試所,2024-12-29,23.058972,120.336406,0.9860539
C2M960,外寮,2024-12-29,23.562643,120.665688,0.9217754
C0F9S0,烏日,2024-12-29,24.107058,120.624103,0.7754635
C0C490,八德,2024-12-29,24.928708,121.283289,0.97934675
C0R190,赤山,2024-12-29,22.592333,120.614306,0.9842499
C0T820,天祥,2024-12-29,24.179597,121.495639,0.95267373
C1F9E1,龍安,2024-12-29,24.1605,120.831961,0.8969425
C0V820,小林,2024-12-29,23.148408,120.63325,0.84334904
C2G870,芳苑,2024-12-29,23.922303,120.320025,0.022565776
C0E850,大河,2024-12-29,24.618069,120.948578,0.11448626
C1U670,寒溪,2024-12-29,24.634,121.71691,0.60442567
C0N020,城西,2024-12-29,23.0568,120.0956,0.989032
C1Z110,三棧,2024-12-29,24.11557,121.60501,0.9434659
C0R280,檳榔,2024-12-29,22.076078,120.836777,0.9692824
C2H9J0,中台,2024-12-29,23.9996,120.938739,0.46851945
C0F9L0,后里,2024-12-29,24.310436,120.729725,0.8599975
C0D540,橫山,2024-12-29,24.71116,121.11693,0.12676121
C1D420,太閣南,2024-12-29,24.632808,121.160575,0.38537553
C1E770,公館,2024-12-29,24.526914,120.830806,0.78962183
CAN130,水試所海水繁養殖中心,2024-12-29,23.120802,120.07968,0.97712404
C1I430,翠華,2024-12-29,24.191961,121.224339,0.68382794
C1M400,菜瓜坪,2024-12-29,23.251928,120.576103,0.9104197
C0G730,二林,2024-12-29,23.903325,120.376081,0.98116946
72M360,南改義竹分場,2024-12-29,23.360694,120.279361,0.986574
V2K620,麥寮合作社,2024-12-29,23.753836,120.294783,0.986599
C0Z070,舞鶴,2024-12-29,23.46811,121.37407,0.93760556
C0B040,大武崙,2024-12-29,25.166676,121.706993,0.9946007
C1Z030,紅葉,2024-12-29,23.493119,121.338806,0.8135625
C1I050,丹大,2024-12-29,23.753747,121.141147,0.7620275
C0I080,信義,2024-12-29,23.689694,120.851036,0.9676463
C2M920,朴子農改,2024-12-29,23.469889,120.259383,0.98534745
C2A880,福隆,2024-12-29,25.017842,121.942083,0.9337783
C0Z160,鳳林,2024-12-29,23.746114,121.453411,0.9314509
C0V210,復興,2024-12-29,23.222403,120.806089,0.889185
C0H990,昆陽,2024-12-29,24.121322,121.273642,0.6147121
C0R741,獅子,2024-12-29,22.202308,120.705236,0.99901754
C0S710,鹿野,2024-12-29,22.917711,121.122994,0.98162985
C0I530,小奇萊,2024-12-29,24.131764,121.295717,0.6040629
C2K630,荷苞,2024-12-29,23.657717,120.595144,0.90334135
C0Z080,富源,2024-12-29,23.587642,121.378225,0.91943693
467441,高雄,2024-12-29,22.7304,120.3125,0.9783984
C0SB10,美和,2024-12-29,22.682078,121.060236,0.65916866
C2K620,馬光農場,2024-12-29,23.721453,120.378864,0.98273873
C1I140,卡奈托灣,2024-12-29,23.754364,121.087872,0.77652335
C0I520,玉山風口,2024-12-29,23.470489,120.955994,0.3814536
C1G691,下水埔,2024-12-29,23.816114,120.5676,0.9004795
C0X110,臺南市南區,2024-12-29,22.961189,120.188378,0.9880985
C0V680,仁武,2024-12-29,22.701083,120.347722,0.89289105
C2G840,北斗,2024-12-29,23.877586,120.514222,0.9532326
C0R900,竹坑,2024-12-29,22.1385,120.7022,0.8798765
C0K250,崙背,2024-12-29,23.75555,120.318925,0.986599
C0G860,社頭,2024-12-29,23.897647,120.5862,0.9757421
C0X150,安定,2024-12-29,23.102614,120.227839,0.98703605
C0R590,里港,2024-12-29,22.77919,120.49459,0.99185526
C0E610,馬都安,2024-12-29,24.451272,120.930192,0.8931786
C0E550,明德,2024-12-29,24.583486,120.885411,0.76906663
C0R150,三地門,2024-12-29,22.709889,120.639944,0.99741226
C0G910,花壇,2024-12-29,24.032076,120.549461,0.9667449
C1D400,鳥嘴山,2024-12-29,24.71909,121.28387,0.7033703
C0K500,元長,2024-12-29,23.64981,120.315024,0.9877492
C0F0B0,石岡,2024-12-29,24.276061,120.777644,0.8464926
C2V250,甲仙,2024-12-29,23.080106,120.591758,0.91768646
C0SA20,金崙山,2024-12-29,22.567419,120.959667,0.4512118
C0V350,溪埔,2024-12-29,22.738578,120.446797,0.9649456
C0M660,溪口,2024-12-29,23.604131,120.403569,0.9795775
C1S880,壽卡,2024-12-29,22.238911,120.858903,0.69215626
72D680,桃改新埔分場,2024-12-29,24.834444,121.066111,0.838487
