站號,站名,日期,lat,lon,BLBTSLS
C0R710,龍磐,2024-04-09,21.931672,120.838942,5.196153e-07
C1F9D1,白毛台,2024-04-09,24.158325,120.886933,8.446177e-09
C0G940,竹塘,2024-04-09,23.848253,120.386764,6.5718474e-08
467590,恆春,2024-04-09,22.003897,120.746339,6.431599e-05
C1O850,環湖,2024-04-09,23.148617,120.418633,0.9943845
C0U710,太平山,2024-04-09,24.505486,121.525656,1.8614721e-09
C0E820,獅潭,2024-04-09,24.539133,120.920042,2.79432e-06
C0V880,興達,2024-04-09,22.8778,120.2127,2.0343774e-05
C0S890,關山,2024-04-09,23.0395,121.175017,2.6390026e-09
K2F750,種苗繁殖,2024-04-09,24.225972,120.800917,0.5144705
C1Z130,銅門,2024-04-09,23.965694,121.492842,1.9258376e-08
C0AD40,土城,2024-04-09,24.973208,121.445169,0.004508273
CAN140,六官養殖協會,2024-04-09,23.22881,120.29962,0.25666565
C0X180,山上,2024-04-09,23.0757,120.363253,0.9970115
C0F9Z0,雪山東峰,2024-04-09,24.388792,121.268675,1.0608781e-08
C1M480,獨立山,2024-04-09,23.537022,120.607797,1.1647921e-06
C0X220,學甲,2024-04-09,23.230367,120.182187,7.585973e-07
C0R170,屏東,2024-04-09,22.660269,120.494072,0.99903417
467650,日月潭,2024-04-09,23.881325,120.90805,4.393181e-10
C0K600,箔子寮,2024-04-09,23.6197,120.14,2.83032e-08
C0G830,埤頭,2024-04-09,23.866003,120.452806,3.6988516e-07
C0S950,七塊厝,2024-04-09,22.954453,121.229922,1.3082238e-09
467110,金門,2024-04-09,24.407306,118.289281,1.06458394e-07
C0AH80,深坑,2024-04-09,25.002703,121.628328,0.00067646056
467990,馬祖,2024-04-09,26.169269,119.923419,3.5244465e-08
C0A970,三貂角,2024-04-09,25.007606,122.002058,8.363324e-07
C0K430,褒忠,2024-04-09,23.690938,120.303634,5.570779e-06
467480,嘉義,2024-04-09,23.495925,120.432906,9.6219796e-05
C2E540,後龍,2024-04-09,24.606489,120.783933,5.9211e-07
C0V400,阿公店,2024-04-09,22.804194,120.355528,0.9969183
C0R440,大漢山,2024-04-09,22.405264,120.753181,4.7187454e-10
C0K280,四湖,2024-04-09,23.630414,120.227125,9.698288e-08
C1F9B1,桐林,2024-04-09,24.066172,120.735194,3.2065777e-09
C0K390,土庫,2024-04-09,23.679029,120.395574,3.8308876e-06
C1I450,望鄉山,2024-04-09,23.594153,120.944286,6.0595697e-09
C0E910,海埔,2024-04-09,24.648767,120.772435,7.0203095e-07
B2E890,畜試北區分所,2024-04-09,24.527806,120.770972,5.9423866e-07
C0R750,四林格山,2024-04-09,22.076989,120.802439,1.4346858e-09
C0F0C0,中坑,2024-04-09,24.248517,120.903319,8.767466e-10
C1I121,大鞍,2024-04-09,23.678381,120.760017,6.2844374e-10
72U480,花改蘭陽分場,2024-04-09,24.686306,121.716583,1.646671e-07
C0A770,科教館,2024-04-09,25.096356,121.516507,3.591171e-05
C0AJ60,六塊厝,2024-04-09,25.24,121.4481,1.8456067e-08
C0R620,墾雷,2024-04-09,21.900836,120.855269,0.00040324932
467420,永康,2024-04-09,23.038386,120.2367,0.99692047
467300,東吉島,2024-04-09,23.25695,119.667467,6.6362766e-08
C0I410,名間,2024-04-09,23.837053,120.701447,6.175827e-06
A2C560,農工中心,2024-04-09,24.985917,121.239833,1.4745806e-09
C0V740,旗山,2024-04-09,22.888614,120.483597,0.99887604
C0Z061,玉里,2024-04-09,23.3215,121.339656,3.7509436e-09
C0S840,南田,2024-04-09,22.279725,120.889208,2.3812886e-06
C1I470,杉林溪,2024-04-09,23.639517,120.786444,7.96474e-10
C1X040,東原,2024-04-09,23.291597,120.463822,0.05863137
C0R660,枋寮,2024-04-09,22.367722,120.590647,0.9921068
C1R120,上德文,2024-04-09,22.763272,120.704442,9.669916e-08
C0K450,大埤,2024-04-09,23.646074,120.431537,7.251036e-05
C0UA00,土場,2024-04-09,24.576533,121.495333,1.7615528e-07
467080,宜蘭,2024-04-09,24.763975,121.756528,0.0001193088
C0N030,四草,2024-04-09,23.0235,120.1116,1.4117407e-05
C0V650,彌陀,2024-04-09,22.783806,120.246361,0.9476917
C0D660,新竹市東區,2024-04-09,24.798681,120.986942,2.9447276e-09
82S580,茶改東部分場,2024-04-09,22.907694,121.130139,2.8131298e-08
C0C710,大溪永福,2024-04-09,24.892936,121.324975,7.001739e-09
C0FA20,溫寮,2024-04-09,24.372177,120.583125,1.0185842e-07
C0V640,湖內,2024-04-09,22.887139,120.2445,1.4340622e-05
C0R910,下寮,2024-04-09,22.3929,120.5548,0.9921068
C0Z020,明里,2024-04-09,23.208717,121.262342,3.9490735e-09
C0M770,嘉義梅山,2024-04-09,23.585398,120.555587,0.9063727
G2F820,農業試驗所,2024-04-09,24.031261,120.688133,4.426981e-09
C0C660,楊梅,2024-04-09,24.912375,121.143047,9.656785e-10
C1E511,新開,2024-04-09,24.347703,120.827019,1.2493865e-07
G2F820,農試所(霧峰),2024-04-09,24.031261,120.688133,4.426981e-09
C1I070,和社,2024-04-09,23.591131,120.888861,2.891267e-08
C2F000,大肚,2024-04-09,24.15295,120.572117,1.8450223e-08
C1S850,豐南,2024-04-09,23.122139,121.262389,4.6345958e-10
C2A920,富貴角,2024-04-09,25.263783,121.565258,4.735997e-09
CAH030,茶改場竹圍站,2024-04-09,23.860083,120.637528,8.01464e-08
C0T960,光復,2024-04-09,23.660694,121.424964,2.714513e-09
C0F9M0,豐原,2024-04-09,24.254322,120.720692,1.1132262e-05
C0R720,旭海,2024-04-09,22.205403,120.887614,4.0352987e-08
C0V710,苓雅,2024-04-09,22.622742,120.330669,0.34899256
C0C740,觀音工業區,2024-04-09,25.064764,121.114856,7.4109946e-10
CAC040,拉拉山,2024-04-09,24.699317,121.427133,5.1833213e-09
C0V790,萬山,2024-04-09,22.905944,120.688056,0.999731
U2HA30,臺大和社,2024-04-09,23.590856,120.888864,2.891267e-08
C0AJ90,澳底,2024-04-09,25.0552,121.9253,0.00027147098
C0Z100,東華,2024-04-09,23.89525,121.549833,1.12426385e-07
C0G970,三豐,2024-04-09,23.882,120.2895,3.5409684e-08
V2K610,大庄合作社,2024-04-09,23.8068,120.367939,3.43415e-07
C0V900,汕尾,2024-04-09,22.4782,120.4151,0.9992929
C1R630,龍泉,2024-04-09,22.66701,120.59091,0.9980663
C1AC50,關渡,2024-04-09,25.133486,121.469331,2.4683569e-08
C0F9I0,神岡,2024-04-09,24.272481,120.658314,9.053862e-08
C0K460,斗南,2024-04-09,23.678734,120.478359,6.662192e-05
467410,臺南,2024-04-09,22.993239,120.204772,7.5153575e-06
C2O810,曾文,2024-04-09,23.219681,120.497328,0.9909213
467280,後龍,2024-04-09,24.648563,120.831834,4.394757e-07
C1F9J1,清水林,2024-04-09,24.071242,120.820419,8.2803603e-10
C2A650,火燒寮,2024-04-09,25.002719,121.742892,2.3305791e-08
466930,竹子湖,2024-04-09,25.162078,121.544547,9.877591e-10
C1I220,樟湖,2024-04-09,23.905333,120.846983,5.5926724e-10
C0I390,仁愛,2024-04-09,24.022122,121.132206,5.837719e-10
C0Z300,東里,2024-04-09,23.26853,121.30547,8.586831e-09
C0V310,美濃,2024-04-09,22.898742,120.519153,0.99890214
C1V590,新發,2024-04-09,23.057019,120.646064,0.019891502
C0K510,水林,2024-04-09,23.572924,120.24597,2.5829348e-05
72S590,東改賓朗果園,2024-04-09,22.813889,121.071278,8.9124885e-09
82A750,茶改北部分場,2024-04-09,24.955778,121.631222,6.3516343e-09
C1A750,石碇服務區,2024-04-09,25.00872,121.646242,1.5980887e-06
C0X300,鹿寮,2024-04-09,23.386047,120.477331,0.79415894
G2AI50,關渡,2024-04-09,25.11575,121.492,1.4302658e-08
C0K590,雲林東勢,2024-04-09,23.674192,120.255721,6.024243e-05
C0A570,桶後,2024-04-09,24.848222,121.597992,8.608358e-06
C1S800,華源,2024-04-09,22.657883,121.02325,2.4880203e-08
C0G720,溪州,2024-04-09,23.851589,120.499093,3.2810226e-07
C1V160,達卡努瓦,2024-04-09,23.279811,120.705319,6.8432726e-10
C2M410,馬頭山,2024-04-09,23.324361,120.582017,0.0013384414
C0V850,蚵仔寮,2024-04-09,22.7256,120.2527,0.99197423
C0S740,池上,2024-04-09,23.119628,121.209469,2.5654407e-09
C1V390,尖山,2024-04-09,22.813153,120.367789,0.9967981
C0AH70,松山,2024-04-09,25.04871,121.55042,2.3600016e-05
C0N010,鯤鯓國小,2024-04-09,23.1879,120.0889,3.053672e-05
C0R550,新埤,2024-04-09,22.467947,120.582894,0.99933845
C0SA60,知本（水試所）,2024-04-09,22.702394,121.082761,1.7000862e-07
C0T9I0,豐濱,2024-04-09,23.583897,121.514806,2.944357e-09
C0UB00,淡江大學蘭陽校園,2024-04-09,24.823239,121.730383,6.6168815e-07
C0T9N0,富里,2024-04-09,23.171639,121.249378,3.1598584e-09
U2HA50,臺大竹山,2024-04-09,23.756972,120.681556,0.40812686
C0V840,鳳鼻頭,2024-04-09,22.5083,120.3591,0.94802976
C0X140,西港,2024-04-09,23.125608,120.203108,0.43710145
72D080,桃改五峰分場,2024-04-09,24.612194,121.157167,4.0279202e-10
C0V530,阿蓮,2024-04-09,22.883208,120.327508,0.99754846
C1O880,關山,2024-04-09,23.173397,120.594092,0.9821523
C0E791,卓蘭,2024-04-09,24.3126,120.8244,4.920768e-07
C1I030,武界,2024-04-09,23.913225,121.052483,5.9381156e-10
C0R520,崁頂,2024-04-09,22.514781,120.506914,0.99940574
C0R341,牡丹,2024-04-09,22.130036,120.792639,3.0339804e-06
C0R930,萬丹,2024-04-09,22.5885,120.4851,0.9992197
C0S760,紅石,2024-04-09,23.069131,121.126219,9.0170593e-10
C1M610,石磐龍,2024-04-09,23.496606,120.663506,4.881459e-10
C0UA10,鴛鴦湖,2024-04-09,24.590269,121.412228,1.276182e-09
V2C260,八德蔬果,2024-04-09,24.978508,121.281819,5.8755676e-09
C0R800,丹路,2024-04-09,22.204481,120.750989,3.504328e-07
C0G920,永靖,2024-04-09,23.924703,120.547533,4.918188e-07
C1A630,下盆,2024-04-09,24.771003,121.538622,5.322928e-08
B2N890,畜產試驗所,2024-04-09,23.058972,120.336406,0.99812895
C0UA30,白嶺,2024-04-09,24.527819,121.519031,3.1719958e-09
C1V580,溪南(特生中心),2024-04-09,23.084972,120.788475,7.3258416e-10
C1T970,大農,2024-04-09,23.615233,121.413331,2.1339768e-09
E2S960,林試太麻里2,2024-04-09,22.598014,120.989761,1.930124e-07
C0R650,竹田,2024-04-09,22.58486,120.54344,0.9990133
C1H900,清流,2024-04-09,24.080775,120.962997,3.286126e-10
C1C510,水尾,2024-04-09,24.940081,121.087161,5.1361887e-10
C0F9X0,大雅(中科園區),2024-04-09,24.21528,120.62445,9.088483e-08
C0O970,虎頭埤,2024-04-09,23.021375,120.347878,0.99779826
C0C730,中大臨海站,2024-04-09,24.966126,121.008581,7.7754897e-10
C0X250,新營,2024-04-09,23.310689,120.316681,0.0061156475
C0V700,三民,2024-04-09,22.645017,120.311233,0.0398091
C0U870,大礁溪,2024-04-09,24.791042,121.675047,1.0981742e-07
C0E870,高鐵苗栗,2024-04-09,24.60725,120.826094,5.177697e-07
A2K570,古坑花卉中心,2024-04-09,23.63353,120.55239,0.05470172
C0M860,新美,2024-04-09,23.338017,120.683169,3.4930174e-09
C1E701,八卦,2024-04-09,24.491756,120.927619,1.6656969e-09
C0I420,國姓,2024-04-09,24.037803,120.855072,4.5032618e-09
C0S960,香蘭,2024-04-09,22.587569,120.993375,1.930124e-07
C0R260,春日,2024-04-09,22.370361,120.628306,0.99633163
72G600,臺中農改場,2024-04-09,24.003028,120.534389,2.5269944e-07
C0Z210,瑞穗,2024-04-09,23.5239,121.39021,2.8984326e-09
C0M820,達邦,2024-04-09,23.453994,120.749517,7.1378037e-10
C0V860,南寮,2024-04-09,22.7616,120.2339,0.9919664
C0G740,大城,2024-04-09,23.852487,120.320935,3.1149558e-08
C0R920,塭仔,2024-04-09,22.4169,120.5197,0.9908585
C0R470,高樹,2024-04-09,22.826389,120.600806,0.99957293
C0R680,佳樂水,2024-04-09,21.993578,120.861633,0.00018684845
C1O870,大棟山,2024-04-09,23.31157,120.52226,3.5291853e-10
C0D360,梅花,2024-04-09,24.678347,121.208558,4.9988497e-10
C0Z190,富世,2024-04-09,24.14743,121.6297,2.7850795e-08
C0AI10,屈尺,2024-04-09,24.92184,121.54475,5.680018e-07
B2U990,畜試東區分所,2024-04-09,24.669039,121.832561,1.1519281e-06
C0R240,來義,2024-04-09,22.527306,120.625111,0.9997081
C1R610,西大武山,2024-04-09,22.617719,120.7322,1.0318095e-09
C0G900,線西,2024-04-09,24.143358,120.443536,1.9871445e-08
C0M700,竹崎,2024-04-09,23.526178,120.555508,0.9899363
C2E880,三義,2024-04-09,24.405478,120.749819,4.9457145e-09
C0C720,竹圍,2024-04-09,25.112692,121.239824,1.377232e-08
C0F9P0,清水,2024-04-09,24.312297,120.562242,7.169069e-08
C0Z150,吉安光華,2024-04-09,23.930925,121.595153,2.4617074e-07
C1D640,外坪(五指山),2024-04-09,24.644447,121.090961,4.808126e-10
C0F9O0,潭子,2024-04-09,24.213106,120.703933,1.1638788e-05
72T250,花蓮農改場,2024-04-09,23.975222,121.563889,1.9699513e-08
C0E780,銅鑼,2024-04-09,24.489681,120.790853,1.3252487e-07
C1T950,太安,2024-04-09,23.666719,121.370128,2.0594326e-09
C0E830,苑裡,2024-04-09,24.439714,120.653053,6.068826e-08
467270,田中,2024-04-09,23.873803,120.581286,0.0005122989
C0SA10,檳榔四格山,2024-04-09,22.810031,121.109308,5.144476e-09
C1T830,布洛灣,2024-04-09,24.17184,121.57127,5.166786e-07
C0F970,大坑,2024-04-09,24.173142,120.722289,1.9149958e-07
C1U920,思源,2024-04-09,24.393125,121.347214,1.0519274e-09
C0A931,三和,2024-04-09,25.233153,121.595236,5.104558e-09
C0I010,廬山,2024-04-09,24.033311,121.181808,5.978003e-10
C0R860,鼻頭,2024-04-09,22.1043,120.8979,0.0011395958
C0UB20,壯圍,2024-04-09,24.7359,121.8163,2.2072388e-07
C0R790,九棚,2024-04-09,22.14195,120.889281,2.5545653e-05
C0W110,東莒,2024-04-09,25.9652,119.98069,1.06691305e-08
C1U930,粉鳥林,2024-04-09,24.497088,121.842479,1.3501583e-06
C1I211,蘆竹湳,2024-04-09,23.934019,120.811994,7.426064e-10
C0S830,長濱,2024-04-09,23.286817,121.411975,1.5977322e-09
C1F9F1,伯公龍,2024-04-09,24.272392,120.849047,0.028355302
C0E810,西湖,2024-04-09,24.562947,120.7485,2.6919981e-08
C1I440,新高口,2024-04-09,23.478744,120.878939,4.2063335e-09
C0O840,王爺宮,2024-04-09,23.222064,120.40085,0.9949682
C0T9G0,鳳林山,2024-04-09,23.735269,121.420131,6.138496e-10
C0X080,佳里,2024-04-09,23.173039,120.145086,3.0536692e-05
C0Z310,清水斷崖,2024-04-09,24.218294,121.689142,2.2877291e-09
C0M680,太保,2024-04-09,23.455062,120.331455,0.0004304527
C1S820,金峰,2024-04-09,22.590969,120.933236,2.0316122e-08
C0AD10,八里,2024-04-09,25.150211,121.403947,1.3762841e-08
C2K240,草嶺,2024-04-09,23.59555,120.693461,3.4072356e-10
C1SA70,都蘭,2024-04-09,22.87794,121.226881,3.1215552e-07
C0K440,二崙,2024-04-09,23.772797,120.408944,2.2683153e-07
C1A760,坪林交控,2024-04-09,24.94284,121.713442,1.1078694e-06
C0F9N0,大里,2024-04-09,24.092464,120.701378,6.3526158e-09
C0SA90,達仁林場,2024-04-09,22.264347,120.823972,2.5221158e-08
C1R290,石門山,2024-04-09,22.112611,120.756597,9.3326065e-08
42HA10,萬大發電廠,2024-04-09,23.978875,121.139639,5.192779e-10
C0R890,山海,2024-04-09,21.9878,120.7091,0.00031266676
C0T9A0,月眉山,2024-04-09,23.809928,121.539828,6.0714483e-10
C0AC70,信義,2024-04-09,25.037822,121.564597,2.3600016e-05
C0K560,棋山,2024-04-09,23.68645,120.603417,0.027291922
C1Z240,中平林道,2024-04-09,23.42115,121.26763,8.87557e-10
U2H480,溪頭,2024-04-09,23.670306,120.798194,2.6196034e-10
C0M880,好美里,2024-04-09,23.3364,120.138,9.2465314e-08
C0T9E0,大坑,2024-04-09,23.880628,121.581981,1.2142949e-09
C0K530,臺西,2024-04-09,23.701547,120.197559,7.4982744e-08
C1E900,國一N128K,2024-04-09,24.560997,120.844186,1.1589019e-06
C0AJ50,水湳洞,2024-04-09,25.123695,121.862238,0.001828903
C0AI20,白沙灣,2024-04-09,25.283128,121.519058,1.5328366e-08
C0A860,大坪,2024-04-09,25.165914,121.632969,1.8286322e-09
C1U850,觀音海岸,2024-04-09,24.38319,121.77856,1.3363665e-09
C0U950,鶯子嶺,2024-04-09,24.89754,121.79244,2.867491e-09
C0O900,善化,2024-04-09,23.112883,120.297219,0.9981087
C0K550,蔦松,2024-04-09,23.514319,120.229736,5.578662e-07
E2P980,林試六龜中心,2024-04-09,22.991703,120.645722,0.37149847
C0E590,通霄,2024-04-09,24.471892,120.704622,1.0130291e-08
C1I310,西巒,2024-04-09,23.754486,120.883956,3.92603e-10
C0A550,泰平,2024-04-09,24.971197,121.823711,1.4464189e-08
C0I360,水里,2024-04-09,23.812553,120.849792,5.817844e-07
C0R830,高士,2024-04-09,22.121825,120.836781,1.777362e-08
C1I101,溪頭,2024-04-09,23.661789,120.807647,1.1994774e-09
C0AJ20,野柳,2024-04-09,25.20703,121.690021,4.8824507e-08
C0B060,暖暖,2024-04-09,25.0957,121.7403,1.8558211e-07
C1H920,長豐,2024-04-09,24.102039,120.879897,3.690261e-10
C0V360,內門,2024-04-09,22.975481,120.466769,0.99801105
C0R850,林邊,2024-04-09,22.4634,120.5339,0.99930817
C0E930,龍鳳,2024-04-09,24.700034,120.859125,7.951554e-09
C0U910,冬山,2024-04-09,24.63373,121.7937,1.1519281e-06
C1E721,泰安,2024-04-09,24.489017,120.968036,5.8975036e-10
82H320,茶改中部分場,2024-04-09,23.875611,120.913583,4.708784e-10
C0M750,布袋,2024-04-09,23.380878,120.167789,1.5752283e-07
C1S860,利嘉,2024-04-09,22.809417,121.050528,1.036951e-09
72C440,桃園農改,2024-04-09,24.950944,121.030583,5.9091915e-10
E2S980,林試太麻里1,2024-04-09,22.598922,120.980044,6.600036e-08
C0X170,關廟,2024-04-09,22.963017,120.327797,0.9968023
C0V720,林園,2024-04-09,22.507747,120.394511,0.93663377
C1I510,線浸林道,2024-04-09,23.761508,120.832956,4.2292106e-10
C0D690,外湖,2024-04-09,24.917735,120.968711,7.1027245e-10
C0C750,新興坑尾,2024-04-09,25.0061,121.0971,6.0934563e-10
B2Q810,畜試南區分所,2024-04-09,21.945583,120.802167,0.00025717018
C0S790,金崙,2024-04-09,22.538122,120.966875,1.3492345e-08
C0AH90,福山植物園,2024-04-09,24.760717,121.58135,1.2323343e-07
C0I540,奇萊稜線,2024-04-09,24.109231,121.326456,6.7529022e-09
C0M850,表湖,2024-04-09,23.24186,120.64166,1.1104052e-07
C0S770,大溪山,2024-04-09,22.478475,120.943325,5.2502758e-09
C0AG80,中和,2024-04-09,24.991622,121.491792,0.0041021947
C0T790,大禹嶺,2024-04-09,24.186117,121.316086,4.891705e-09
C0T9B0,水源,2024-04-09,23.991861,121.537169,8.463702e-10
C0R840,牡丹池山,2024-04-09,22.168389,120.841225,1.09465674e-07
C1I131,桶頭,2024-04-09,23.641944,120.654117,1.4692699e-05
CAL110,布袋國中,2024-04-09,23.35893,120.18026,1.5778053e-07
467571,新竹,2024-04-09,24.827853,121.014219,7.625767e-10
C0Z290,赤柯山,2024-04-09,23.36893,121.38293,1.4846641e-09
C0X280,將軍,2024-04-09,23.214999,120.13577,9.0903956e-07
C0S690,太麻里,2024-04-09,22.60902,120.98533,1.3585405e-09
C0U880,北關,2024-04-09,24.9072,121.8734,0.002806301
C1H860,瑞岩,2024-04-09,24.123772,121.18345,1.953856e-09
C0G810,埔心,2024-04-09,23.947633,120.525456,4.8974533e-07
C0U970,大福,2024-04-09,24.80064,121.81389,0.00017361928
C1E670,南礦,2024-04-09,24.538278,121.002836,4.1255951e-10
C0M520,東後寮,2024-04-09,23.369908,120.248065,1.3636561e-07
C1E461,松安,2024-04-09,24.397972,120.986022,6.4363775e-10
72G600,臺中農改,2024-04-09,24.003028,120.534389,2.5269944e-07
C2N160,西拉雅風管處,2024-04-09,23.189481,120.335297,0.9975317
C0A640,石碇,2024-04-09,24.993969,121.662917,9.112315e-08
E2S960,林試太麻里2,2024-04-09,22.598,120.99775,2.174051e-07
C0F9Y0,桃山,2024-04-09,24.432739,121.303808,8.987908e-09
C1I020,萬大,2024-04-09,23.979817,121.132261,5.74911e-10
C0U940,羅東,2024-04-09,24.68184,121.74934,1.742668e-07
C0M650,朴子,2024-04-09,23.43463,120.23902,1.328581e-06
C1I500,大尖山,2024-04-09,23.858572,120.994889,1.4610863e-09
C0G820,田尾,2024-04-09,23.901669,120.509389,4.8974533e-07
E2K600,四湖植物園,2024-04-09,23.676986,120.163433,9.698288e-08
C0S730,綠島,2024-04-09,22.6672,121.47533,0.009824965
12Q970,東港工作站,2024-04-09,22.479997,120.466058,0.9992929
C0E430,南庄,2024-04-09,24.601775,121.000214,2.1883907e-06
C1TA00,太魯閣,2024-04-09,24.15773,121.6236,1.6212415e-08
466920,臺北,2024-04-09,25.037658,121.514853,2.3600016e-05
C0R600,舊泰武,2024-04-09,22.588194,120.664944,0.01591202
C1I260,北坑,2024-04-09,23.9246,121.006903,6.377902e-10
466910,鞍部,2024-04-09,25.182586,121.529731,1.8738262e-09
C1I230,九份二山,2024-04-09,23.961944,120.845,7.912184e-10
C2A660,瑞芳,2024-04-09,25.113169,121.801147,6.8265865e-05
C0R270,琉球嶼,2024-04-09,22.332244,120.362236,5.6196304e-06
C1T990,高寮,2024-04-09,23.394239,121.356808,2.4501563e-09
C0G620,芬園,2024-04-09,24.015678,120.6213,3.117617e-09
C1Z140,荖溪,2024-04-09,23.890575,121.45964,2.782158e-09
C1I201,中心崙,2024-04-09,23.728722,120.712097,1.5824949e-09
C1I400,凌霄,2024-04-09,24.018778,121.004456,5.3431953e-10
C1M640,十字,2024-04-09,23.492153,120.753683,1.0240573e-09
G2P820,農試鳳山分所,2024-04-09,22.646611,120.356083,0.023067726
C0Z270,蕃薯寮,2024-04-09,23.73835,121.540108,1.2861963e-09
C0F9Q0,外埔,2024-04-09,24.347817,120.705686,2.2241346e-07
C0K580,高鐵雲林,2024-04-09,23.737456,120.417944,1.4630372e-06
C2I090,鳳凰,2024-04-09,23.728081,120.787347,2.2383502e-10
C0U990,員山,2024-04-09,24.74435,121.72247,2.0873993e-07
C0V770,大社,2024-04-09,22.730306,120.346639,0.9900876
C0X120,麻豆,2024-04-09,23.183289,120.248611,0.9495442
C0C670,龍潭,2024-04-09,24.870056,121.221389,2.711667e-09
C0D680,香山濕地,2024-04-09,24.783581,120.914988,4.748642e-09
C0S980,勝林山,2024-04-09,22.430439,120.8938,3.9881906e-10
C0V730,大寮,2024-04-09,22.605614,120.395717,0.29507068
C0R570,麟洛,2024-04-09,22.65078,120.52719,0.99903417
CAG100,王功漁港,2024-04-09,23.96824,120.32586,2.433261e-08
C0X290,北門,2024-04-09,23.267772,120.125481,9.0912016e-07
C2F930,大甲,2024-04-09,24.347667,120.640403,4.0918543e-08
C0D650,湖口,2024-04-09,24.904794,121.043628,5.3010585e-10
C0E420,竹南,2024-04-09,24.708978,120.888897,6.1775993e-09
C0U780,五結,2024-04-09,24.68637,121.79794,2.2072388e-07
C1I250,鯉潭,2024-04-09,23.961922,120.991131,1.2667895e-09
C0R130,阿禮,2024-04-09,22.742908,120.743678,3.4736969e-09
C0X100,臺南市北區,2024-04-09,23.010394,120.194228,1.2981342e-05
C0S920,金峰嘉蘭,2024-04-09,22.594789,120.960825,5.7275322e-08
C0V490,新興,2024-04-09,22.627422,120.298803,0.34899256
C0F9K0,大安,2024-04-09,24.345061,120.588025,8.332477e-08
72N100,臺南農改,2024-04-09,23.0605,120.342194,0.99812895
467290,古坑,2024-04-09,23.633639,120.551889,0.05470172
C0V440,鳳山,2024-04-09,22.646653,120.356122,0.023067726
C1T940,大觀,2024-04-09,23.714206,121.373133,6.88312e-10
72T250,花蓮農改,2024-04-09,23.975222,121.563889,1.9699513e-08
C0E740,造橋,2024-04-09,24.637056,120.864778,5.1484494e-07
C0R100,尾寮山,2024-04-09,22.833111,120.683889,1.1118114e-09
A2K630,臺大雲林校區,2024-04-09,23.730628,120.423903,1.4624819e-06
C0D580,寶山,2024-04-09,24.735006,121.025192,6.7464136e-09
E2P990,林試扇平站,2024-04-09,22.9677,120.6857,0.7225699
C0AI30,三重,2024-04-09,25.057328,121.500629,3.591171e-05
C0AH00,汐止,2024-04-09,25.066881,121.658778,2.3600016e-05
C1Z040,立山,2024-04-09,23.443356,121.327375,5.9749055e-09
C0R740,獅子,2024-04-09,22.201569,120.70525,5.203445e-06
C0W130,花嶼,2024-04-09,23.40007,119.32276,3.5198962e-06
C0A950,鼻頭角,2024-04-09,25.129036,121.923372,6.238513e-05
C0K470,林內,2024-04-09,23.748675,120.609642,0.87152666
82C160,茶改場,2024-04-09,24.908472,121.185333,7.4019674e-10
C0Z320,清水林道,2024-04-09,23.27125,121.188272,2.0278135e-09
C0R760,南仁湖,2024-04-09,22.084681,120.863353,9.339641e-08
C0M670,大林,2024-04-09,23.600616,120.45841,0.000824336
C0M800,茶山,2024-04-09,23.299075,120.664767,1.0339949e-08
C0A9C0,天母,2024-04-09,25.117494,121.537169,9.372851e-08
72K220,南改斗南分場,2024-04-09,23.634556,120.477333,6.662192e-05
72AI40,桃改樹林分場,2024-04-09,24.944503,121.386972,7.384401e-09
C0S910,蘭嶼燈塔,2024-04-09,22.081197,121.503117,9.8682584e-08
C0B050,八斗子,2024-04-09,25.144754,121.79167,0.002953576
C0U900,內城,2024-04-09,24.71813,121.68766,1.3042175e-07
C0X320,柳營,2024-04-09,23.253328,120.375253,0.9962812
C0M790,新港,2024-04-09,23.553269,120.345728,3.5569037e-06
C0F9T0,西屯,2024-04-09,24.179494,120.641275,9.0477684e-08
C0SA30,都歷,2024-04-09,23.020333,121.323642,1.09853415e-08
C0C620,蘆竹,2024-04-09,25.084275,121.265767,2.791327e-09
C0R730,大坪頂,2024-04-09,22.024633,120.69355,0.0012199375
C0AJ40,石門,2024-04-09,25.273672,121.601198,5.8683325e-09
C0E750,苗栗,2024-04-09,24.564569,120.824575,1.4360344e-06
C0T870,鯉魚潭,2024-04-09,23.935639,121.508944,2.6524422e-08
C1V170,排雲,2024-04-09,23.463619,120.954147,1.6793674e-08
C2H950,中寮,2024-04-09,23.884447,120.766406,3.1980337e-06
C0R350,貓鼻頭,2024-04-09,21.921774,120.7358,4.177475e-06
C0V660,岡山,2024-04-09,22.797078,120.294958,0.9476917
C1H941,雙冬,2024-04-09,23.967378,120.802189,5.9642796e-10
C0AJ70,田寮,2024-04-09,25.2698,121.4886,1.69059e-08
C0AI00,五股,2024-04-09,25.07445,121.42728,5.153472e-09
C0Z280,德武,2024-04-09,23.47426,121.41071,8.1945756e-10
C0R700,枋山,2024-04-09,22.246844,120.661086,0.90785605
C0C460,復興,2024-04-09,24.820208,121.352281,7.1619966e-10
E2H360,蓮華池,2024-04-09,23.918333,120.885278,4.5903356e-10
C0M640,中埔,2024-04-09,23.42538,120.5229,0.9701966
C0W140,金沙,2024-04-09,24.488292,118.408778,1.10885594e-07
C2A540,四堵,2024-04-09,24.8926,121.745736,8.219645e-08
C0ACA0,新莊,2024-04-09,25.051478,121.446756,4.5260845e-06
C0R220,潮州,2024-04-09,22.534361,120.54,0.99947464
U2HA40,臺大內茅埔,2024-04-09,23.689722,120.851117,1.7376329e-09
467490,臺中,2024-04-09,24.145736,120.684075,4.7884043e-07
C0U960,翠峰湖,2024-04-09,24.510856,121.608044,5.227583e-09
E2HA20,林試畢祿溪站,2024-04-09,24.226944,121.308522,3.5393595e-09
C0V890,前鎮,2024-04-09,22.5718,120.3117,0.46876276
467620,蘭嶼,2024-04-09,22.036969,121.558339,9.554904e-09
C1F941,雪嶺,2024-04-09,24.280586,121.026642,7.268031e-09
C0AC80,文山,2024-04-09,25.00235,121.575728,0.0006764599
C0F9R0,龍井,2024-04-09,24.184536,120.528972,4.5246935e-08
C0M760,民雄,2024-04-09,23.551754,120.428457,0.0009310587
C0UA40,西德山,2024-04-09,24.560647,121.752608,3.6554042e-09
C1T920,中興,2024-04-09,23.769503,121.498653,7.861569e-09
C0D550,雪霸,2024-04-09,24.526972,121.11605,9.402568e-10
C2F860,梨山,2024-04-09,24.247522,121.243669,3.7018875e-09
C0R320,車城,2024-04-09,22.0744,120.716247,0.0011597716
C1S870,南美山,2024-04-09,23.15025,121.382333,3.4087324e-09
C0B020,基隆嶼,2024-04-09,25.19141,121.78391,2.8186116e-07
C1U501,牛鬥,2024-04-09,24.637836,121.573656,7.776072e-09
C0M730,嘉義市東區,2024-04-09,23.457673,120.460531,0.98977584
C0S700,知本,2024-04-09,22.684866,121.005642,1.007043e-09
C1N001,沙崙,2024-04-09,22.935472,120.309406,0.9966253
C0V760,橋頭,2024-04-09,22.757806,120.30575,0.9908808
C0G960,福寶,2024-04-09,24.0443,120.3814,1.9073548e-08
C0X210,白河,2024-04-09,23.347466,120.414427,0.91164696
C0S810,東河,2024-04-09,22.972672,121.303986,1.8030188e-07
C0R670,楓港,2024-04-09,22.190131,120.692156,0.16926642
C0FA50,霧峰,2024-04-09,24.0419,120.6995,4.1577963e-09
C0UB10,蘇澳,2024-04-09,24.5969,121.8571,2.6753683e-06
C0G950,防潮門,2024-04-09,24.1835,120.4871,4.521079e-08
C0M740,六腳,2024-04-09,23.492871,120.290625,7.1507334e-06
C1R250,力里,2024-04-09,22.428117,120.629228,0.99878633
C0K330,虎尾,2024-04-09,23.719183,120.442036,1.3133381e-06
C2FA00,烏石坑,2024-04-09,24.273503,120.947617,6.059359e-10
C0V620,永安,2024-04-09,22.82315,120.236856,0.9476917
C1I330,楓樹林,2024-04-09,23.986803,121.076117,5.211532e-10
C0W200,湖西,2024-04-09,23.596314,119.67275,4.995843e-07
72Q010,高雄農改場,2024-04-09,22.709333,120.525889,0.9990385
C0SA40,瑞和,2024-04-09,22.974361,121.156697,1.0101195e-08
C0C680,龜山,2024-04-09,25.02846,121.38656,2.3255868e-09
C2V260,月眉,2024-04-09,22.971003,120.539853,0.99817127
C0V450,鳳森,2024-04-09,22.545064,120.392592,0.7396509
C0U720,南山,2024-04-09,24.43742,121.38167,1.0151504e-09
A2N290,臺南蘭花園區,2024-04-09,23.340258,120.379661,0.00056759507
C0R560,新園,2024-04-09,22.5434,120.461558,0.9366339
C0U890,三星,2024-04-09,24.66812,121.65302,3.3928554e-08
C1V300,御油山,2024-04-09,23.001983,120.715364,1.0665789e-09
C0U600,礁溪,2024-04-09,24.817539,121.765608,0.007821315
C1T980,龍澗,2024-04-09,24.023289,121.411328,2.5371103e-09
C0D670,海天一線,2024-04-09,24.831986,120.914438,1.0946078e-09
C0SA00,歷坵,2024-04-09,22.520969,120.89185,1.6009992e-09
C0M710,東石,2024-04-09,23.458927,120.15385,1.3312232e-08
C0M780,鹿草,2024-04-09,23.41134,120.30835,1.040355e-06
C0U520,雙連埤,2024-04-09,24.753033,121.641303,8.518418e-08
C0B010,七堵,2024-04-09,25.094819,121.71713,4.498658e-07
C0R480,長治,2024-04-09,22.693128,120.542622,0.99770325
C1V830,國三S383K,2024-04-09,22.781967,120.426475,0.99833626
12Q980,恆春工作站,2024-04-09,22.079678,120.714425,0.0011692803
C1O940,東山服務區,2024-04-09,23.286016,120.398472,0.99358517
C1U840,東澳嶺,2024-04-09,24.5378,121.8485,3.45832e-09
C1D630,飛鳳山,2024-04-09,24.766464,121.119178,7.43617e-10
C0S940,石寧山,2024-04-09,23.223772,121.406639,1.661557e-08
C0K410,北港,2024-04-09,23.573957,120.292802,2.1885553e-05
C2M620,瑞里,2024-04-09,23.545133,120.675197,4.2119994e-10
C2O950,安南,2024-04-09,23.076694,120.144861,4.357021e-06
C0F0E0,南湖圈谷,2024-04-09,24.363714,121.444667,9.887378e-09
467610,成功,2024-04-09,23.097486,121.373428,9.197585e-07
C0G890,伸港,2024-04-09,24.148933,120.484403,1.9871445e-08
C2E540,龍溪,2024-04-09,24.606489,120.783933,5.9211e-07
C1V200,梅山,2024-04-09,23.268447,120.823556,1.5671415e-07
C0T9H0,加路蘭山,2024-04-09,23.682947,121.5274,8.563339e-10
C2O930,玉井,2024-04-09,23.126042,120.46055,0.9970115
C1F911,新伯公,2024-04-09,24.221361,120.841069,0.8009845
C0R490,九如,2024-04-09,22.7405,120.490503,0.9989928
C0X200,左鎮,2024-04-09,23.056758,120.408522,0.9977216
C1F891,稍來,2024-04-09,24.265689,121.001142,3.5772163e-09
72N240,七股研究中心,2024-04-09,23.081672,120.062894,6.686624e-06
C0C700,中壢,2024-04-09,24.977661,121.256375,4.5271604e-09
C0M690,水上,2024-04-09,23.419734,120.388909,0.00038269014
C0V690,鼓山,2024-04-09,22.623325,120.275575,0.34899256
C0O860,大內,2024-04-09,23.11885,120.36083,0.9981199
C0Z200,萬榮,2024-04-09,23.709219,121.420106,8.290922e-09
C0T9D0,和中,2024-04-09,24.26676,121.74103,2.4610972e-06
C1O921,楠西,2024-04-09,23.183511,120.484083,0.99444187
C0AJ30,淡水觀海,2024-04-09,25.184591,121.408616,2.464852e-08
C0V810,左營,2024-04-09,22.67491,120.28491,0.0398091
C0UA70,桃源谷,2024-04-09,24.962606,121.888875,6.6971566e-09
C0X130,官田,2024-04-09,23.193217,120.315422,0.9974219
C1H000,翠峰,2024-04-09,24.109397,121.205211,1.9865827e-09
C0UA90,石城,2024-04-09,24.980444,121.951214,4.655648e-06
C1E681,南勢山,2024-04-09,24.421669,120.923831,6.6038325e-10
C0A9F0,內湖,2024-04-09,25.079422,121.57545,2.3600016e-05
C0K291,宜梧,2024-04-09,23.536281,120.169329,5.578662e-07
C1K540,口湖,2024-04-09,23.585344,120.180517,2.8323667e-08
C0R780,滿州,2024-04-09,22.024403,120.839892,3.730776e-05
C0V870,文安,2024-04-09,22.8025,120.2164,0.9584953
C0U650,玉蘭,2024-04-09,24.675286,121.587061,2.9764642e-08
C0R640,東港,2024-04-09,22.46247,120.44074,0.9992929
K2E360,苗栗農改,2024-04-09,24.495722,120.829111,3.09869e-07
C0AJ80,板橋,2024-04-09,25.0107,121.4489,0.008833909
C0S660,下馬,2024-04-09,23.150427,121.070312,1.1614075e-09
C1H9B1,阿眉,2024-04-09,24.1263,120.994672,1.7684574e-09
C0UA20,多加屯,2024-04-09,24.368614,121.373189,4.653927e-09
C0E730,頭份,2024-04-09,24.688247,120.912206,6.413611e-09
72V140,高改旗南分場,2024-04-09,22.857861,120.516667,0.99890214
C0K480,莿桐,2024-04-09,23.761192,120.502372,0.0002103573
C0U980,坪林石牌,2024-04-09,24.86478,121.77396,2.7992991e-08
C0T900,西林,2024-04-09,23.8119,121.441458,1.702364e-09
C1I150,青雲,2024-04-09,23.793361,120.949378,7.173467e-10
467350,澎湖,2024-04-09,23.565503,119.563094,1.8137939e-06
C0G800,埔鹽,2024-04-09,24.000394,120.431683,2.8038038e-08
C0H960,草屯,2024-04-09,23.973672,120.68085,3.1935221e-09
C1V780,多納林道,2024-04-09,22.888028,120.737917,9.660949e-10
C0E920,通霄漁港,2024-04-09,24.498589,120.673876,1.3534255e-08
C0Z330,安通山,2024-04-09,23.290728,121.348528,6.8925265e-10
C0AH10,永和,2024-04-09,25.01125,121.508111,0.008642863
C2G640,鹿港,2024-04-09,24.0753,120.430481,1.9073548e-08
C1E890,國三N149K,2024-04-09,24.463414,120.680019,4.1416044e-08
C1R110,口社,2024-04-09,22.770111,120.645222,0.99714077
C1M870,國三N285K,2024-04-09,23.550319,120.505833,0.9604428
467050,新屋,2024-04-09,25.006744,121.047486,7.2236367e-10
C1E480,鳳美,2024-04-09,24.554803,121.034747,1.1443965e-09
C0M530,奮起湖,2024-04-09,23.493903,120.699253,4.2330842e-10
C0C590,觀音,2024-04-09,25.027072,121.153317,6.004675e-10
C0T9M0,靜浦,2024-04-09,23.455167,121.495028,2.7785785e-09
C0AI40,石牌,2024-04-09,25.115597,121.513139,1.0684184e-07
C1F871,上谷關,2024-04-09,24.203483,121.018644,8.293448e-10
C0G880,二水,2024-04-09,23.810742,120.6173,0.33141154
C0R940,加祿堂,2024-04-09,22.3363,120.6217,0.8816517
C0W220,北竿,2024-04-09,26.220358,119.974881,2.1220083e-08
C0O960,崎頂,2024-04-09,22.959547,120.369317,0.9974145
C0S750,向陽,2024-04-09,23.248397,120.986133,1.2253393e-09
C0T9F0,水璉,2024-04-09,23.797131,121.542514,9.768175e-10
C1M600,頭凍,2024-04-09,23.406364,120.603339,7.304299e-10
467660,臺東,2024-04-09,22.752211,121.154586,0.0009855232
C1D380,新埔,2024-04-09,24.84745,121.03834,5.4680804e-10
C0V750,路竹,2024-04-09,22.854997,120.259439,1.1073159e-05
C0N050,蚵寮,2024-04-09,23.301,120.1104,9.246549e-08
72M700,南改鹿草分場,2024-04-09,23.416869,120.283061,1.328581e-06
C1SA50,利嘉林道,2024-04-09,22.82325,121.009389,3.8879802e-10
467550,玉山,2024-04-09,23.487614,120.959522,1.9107922e-08
C0A940,金山,2024-04-09,25.223628,121.643967,3.6318745e-08
C1V340,大津,2024-04-09,22.888322,120.645986,0.9998222
C0W180,七美,2024-04-09,23.219333,119.444892,1.0859358e-06
C1F9C1,白冷,2024-04-09,24.182844,120.929889,0.0012248504
K2E710,苗改生物防治研究中心,2024-04-09,24.422861,120.871833,5.6028846e-08
C0N040,蘆竹溝,2024-04-09,23.2344,120.0961,9.085022e-07
C2W230,畜試所澎湖,2024-04-09,23.628342,119.513206,5.6828895e-07
C0R880,後壁湖,2024-04-09,21.9457,120.7457,0.00046367818
C1I280,埔中,2024-04-09,23.820778,120.642594,3.7009436e-08
467790,墾丁雷達站,2024-04-09,21.948235,120.808028,7.254023e-05
C0W190,望安,2024-04-09,23.380564,119.494075,6.8334896e-07
466881,新北,2024-04-09,24.9593,121.52,0.0035118272
C0Z170,卓溪,2024-04-09,23.3443,121.3029,1.1036054e-09
C0F850,東勢,2024-04-09,24.246428,120.833047,1.4759988e-07
466900,淡水,2024-04-09,25.164889,121.448906,1.3135475e-08
C0I370,魚池,2024-04-09,23.895703,120.94135,4.1290904e-10
C0C630,大溪,2024-04-09,24.882853,121.265547,5.126785e-09
C0A520,山佳,2024-04-09,24.974944,121.402008,1.9291592e-06
C0I110,竹山,2024-04-09,23.761225,120.688156,0.033320792
82H840,茶改南部分場,2024-04-09,23.762528,120.7405,6.033209e-08
C0G660,溪湖,2024-04-09,23.94835,120.479122,5.40736e-07
C1T800,洛韶,2024-04-09,24.204558,121.453956,2.5219367e-09
C1T810,慈恩,2024-04-09,24.192044,121.388386,1.2236436e-09
C1E451,象鼻,2024-04-09,24.368617,120.940228,1.7574954e-09
C0AC60,三峽,2024-04-09,24.939025,121.369728,6.2045107e-09
C0I490,萬大林道,2024-04-09,23.928228,121.091411,5.457432e-10
C1I290,豐丘,2024-04-09,23.668178,120.887417,2.7333663e-10
C1I320,奧萬大,2024-04-09,23.952956,121.178556,4.9350735e-10
C0U770,南澳,2024-04-09,24.44935,121.81022,5.7673555e-09
C0A980,社子,2024-04-09,25.109508,121.469681,1.5687558e-08
C0V800,六龜,2024-04-09,22.997889,120.633583,0.59996855
C1G9D0,國一S218K,2024-04-09,23.890641,120.493253,3.7005805e-07
C2F9A0,中竹林,2024-04-09,24.103556,120.751061,1.8072118e-08
C0FA40,臺中電廠,2024-04-09,24.2146,120.4907,4.527145e-08
C0H9C0,合歡山,2024-04-09,24.143442,121.272547,9.131363e-09
C0X060,下營,2024-04-09,23.22695,120.256261,0.25571966
G2M350,農試溪口農場,2024-04-09,23.58565,120.408111,0.0014675929
C0U860,頭城,2024-04-09,24.85323,121.8308,0.008418179
C0R580,南州,2024-04-09,22.48591,120.50274,0.9992929
C0D430,峨眉,2024-04-09,24.6905,121.017189,1.1623455e-08
C0G780,秀水,2024-04-09,24.03405,120.503869,2.5260042e-07
72N100,臺南農改場,2024-04-09,23.0605,120.342194,0.99812895
C0S900,蘭嶼高中,2024-04-09,22.04909,121.51214,1.9515706e-07
467540,大武,2024-04-09,22.355675,120.903789,1.2950922e-05
C1F9W0,德基,2024-04-09,24.254783,121.190261,2.5524385e-09
C1Z120,壽豐,2024-04-09,23.870853,121.508081,1.12426385e-07
C0W160,烏坵,2024-04-09,24.9944,119.44956,3.437252e-08
C1I240,外大坪,2024-04-09,23.958697,120.917931,1.1617244e-09
C1I550,國六W023K,2024-04-09,23.979067,120.867742,2.2670616e-09
C0R870,興海,2024-04-09,21.9752,120.8439,0.00025717018
C0R140,瑪家,2024-04-09,22.682903,120.686639,0.00022164852
C0A530,坪林,2024-04-09,24.938183,121.70975,2.0851611e-07
C0X260,後壁,2024-04-09,23.366358,120.362326,0.00056759507
C0Z230,和平,2024-04-09,24.30717,121.77007,2.8675995e-06
C0G770,福興,2024-04-09,24.041289,120.437669,2.8038038e-08
C0H9A0,神木村,2024-04-09,23.532742,120.843667,1.0452713e-09
C0I460,南投,2024-04-09,23.911469,120.687331,1.3652136e-07
C0I480,梅峰,2024-04-09,24.085272,121.173572,1.5026806e-09
C1V570,吉東,2024-04-09,22.85422,120.5454,0.9988832
C2A560,福山,2024-04-09,24.776203,121.502811,1.9571711e-05
C0AH30,五分山,2024-04-09,25.07125,121.780794,2.1048954e-09
C0FA10,松柏,2024-04-09,24.429115,120.617482,7.1472655e-08
72S200,東改班鳩分場,2024-04-09,22.829528,121.077694,1.4066367e-08
72HA00,中改埔里分場,2024-04-09,23.903208,120.963364,5.2953386e-10
C0C650,平鎮,2024-04-09,24.897503,121.214636,9.74077e-10
C0S930,延平,2024-04-09,22.902581,121.084058,1.43560905e-08
C0UA60,樟樹山,2024-04-09,24.41393,121.78325,3.1368046e-07
C1S670,摩天,2024-04-09,23.199503,121.027,9.872826e-10
C0V630,茄萣,2024-04-09,22.906642,120.182608,2.0343774e-05
466940,基隆,2024-04-09,25.133314,121.740475,0.0025982598
C0X050,東河,2024-04-09,23.296598,120.385608,0.99349356
C0R770,保力,2024-04-09,22.071122,120.764111,0.011023329
G2L020,農試嘉義分所,2024-04-09,23.485028,120.473806,0.9947271
C0X240,關子嶺,2024-04-09,23.331169,120.508025,1.5647756e-05
C0I380,集集,2024-04-09,23.828206,120.801467,7.6624633e-07
466990,花蓮,2024-04-09,23.975128,121.613275,2.496334e-08
C1V220,小關山,2024-04-09,23.154217,120.813603,7.3138345e-10
C1F9G1,慶福山,2024-04-09,24.180853,120.848378,1.5861937e-09
C0Z250,瑞穗林道,2024-04-09,23.49284,121.30688,1.288062e-09
C0D590,新豐,2024-04-09,24.87068,120.97721,9.0730595e-10
C0A870,五指山,2024-04-09,25.132153,121.608692,9.176509e-10
C0UA50,西帽山,2024-04-09,24.555361,121.802628,4.665552e-09
C0X160,仁德,2024-04-09,22.968258,120.257689,0.040170886
C1H971,六分寮,2024-04-09,23.92507,120.6378,1.6999435e-09
C0W120,西嶼,2024-04-09,23.5626,119.468436,1.6270038e-06
C0G650,員林,2024-04-09,23.946503,120.585597,1.7813737e-06
C0AD50,鶯歌,2024-04-09,24.951533,121.346294,4.7796735e-09
C0S990,山豬窟,2024-04-09,22.318619,120.857372,2.1209521e-08
72Q010,高雄農改,2024-04-09,22.709333,120.525889,0.9990385
C0X190,安平,2024-04-09,22.993161,120.152181,1.2981342e-05
C0K400,斗六,2024-04-09,23.720583,120.541127,0.00016386092
12J990,口湖工作站,2024-04-09,23.589978,120.180394,2.83032e-08
C0O830,北寮,2024-04-09,23.079561,120.495008,0.99799985
C1D410,白蘭,2024-04-09,24.579364,121.079947,4.4920556e-10
C0S970,加津林,2024-04-09,22.416211,120.926942,6.096425e-06
C0D700,關西,2024-04-09,24.7977,121.1732,5.613343e-09
C0M810,里佳,2024-04-09,23.389125,120.716647,5.6955857e-10
C0U750,龜山島,2024-04-09,24.841667,121.953133,1.6715825e-08
C0R810,內獅,2024-04-09,22.305064,120.642986,0.86753964
C1M390,龍美,2024-04-09,23.406728,120.654417,5.5229943e-10
C1H840,國三N238K,2024-04-09,23.841008,120.707711,1.9642675e-07
CAQ030,崎峰國小,2024-04-09,22.42565,120.49521,0.9992929
C2E520,大湖,2024-04-09,24.414939,120.870872,3.6306208e-08
467530,阿里山,2024-04-09,23.508208,120.813242,5.8996443e-09
C1E691,南湖,2024-04-09,24.40135,120.837533,1.1253034e-09
C0FA30,梧棲,2024-04-09,24.256003,120.523381,7.169069e-08
C1V231,高中,2024-04-09,23.134911,120.716711,8.643459e-08
C0F9V0,新社,2024-04-09,24.200172,120.815806,0.13209124
C0H890,埔里,2024-04-09,23.972169,120.952425,1.2768906e-09
C0R690,墾丁,2024-04-09,21.966756,120.810269,3.0944966e-07
C0F0D0,審馬陣,2024-04-09,24.381675,121.4203,7.8365225e-09
C0R820,白鷺,2024-04-09,22.454275,120.666219,0.0012257678
U2H480,臺大溪頭,2024-04-09,23.670306,120.798194,2.6196034e-10
C1V190,南天池,2024-04-09,23.27403,120.91176,2.355735e-09
K2E360,苗栗農改場,2024-04-09,24.495722,120.829111,3.09869e-07
CAJ050,海口故事園區,2024-04-09,23.57543,120.14121,2.83032e-08
C0O990,媽廟,2024-04-09,22.99175,120.293525,0.9966805
C0D480,打鐵坑,2024-04-09,24.849664,121.150789,2.6130376e-09
C0Z220,和平林道,2024-04-09,24.343922,121.656317,1.522486e-09
72C440,桃園農改場,2024-04-09,24.950944,121.030583,5.9091915e-10
C1E711,馬拉邦山,2024-04-09,24.367306,120.901656,1.5298244e-09
C0D560,竹東,2024-04-09,24.767147,121.057881,6.737014e-09
C0F9U0,南屯,2024-04-09,24.137006,120.637969,1.6317092e-07
C0M720,番路,2024-04-09,23.464657,120.554156,0.7436592
C0F0A0,雪山圈谷,2024-04-09,24.388594,121.236339,1.3258031e-08
C1A9N0,四十份,2024-04-09,24.934158,121.593283,4.1432933e-09
C0U760,東澳,2024-04-09,24.52196,121.83318,1.0492357e-06
C0X230,鹽水,2024-04-09,23.272621,120.247641,7.730115e-08
C0V370,古亭坑,2024-04-09,22.893178,120.401947,0.9967205
C1I340,新興橋,2024-04-09,23.563333,120.868728,4.717999e-10
C0SA80,土坂,2024-04-09,22.453108,120.887572,2.5511628e-07
C0R160,鹽埔,2024-04-09,22.739558,120.530778,0.9990385
C0AC40,大屯山,2024-04-09,25.175675,121.522408,2.2680564e-09
466850,五分山雷達站,2024-04-09,25.071182,121.781205,2.0758817e-09
C1AI50,國三N016K,2024-04-09,25.034164,121.619664,5.7884517e-06
C1V600,藤枝,2024-04-09,23.071961,120.757042,6.8533956e-10
C1E601,南勢,2024-04-09,24.572486,120.734842,1.3295281e-08
C0Z180,新城,2024-04-09,24.03946,121.60454,2.2462562e-08
C0O980,新市,2024-04-09,23.061614,120.298197,0.99810797
C0K420,西螺,2024-04-09,23.800407,120.467394,2.0162948e-07
C0Z050,佳心,2024-04-09,23.34567,121.21316,1.5100243e-09
C0AD30,蘆洲,2024-04-09,25.086594,121.472331,3.591171e-05
C0V610,梓官,2024-04-09,22.760558,120.267211,0.9908808
K2F750,種苗改良場,2024-04-09,24.225972,120.800917,0.5144705
C0UA80,大溪漁港,2024-04-09,24.941801,121.902955,0.0022965602
C1AI60,國一39K邊坡,2024-04-09,25.064361,121.383836,3.4265477e-09
C0W150,金寧,2024-04-09,24.457703,118.328989,1.137627e-07
V2C250,八德合作社,2024-04-09,24.93775,121.266389,1.6132637e-09
C0AH40,平等,2024-04-09,25.129142,121.577086,1.499311e-09
C0R540,佳冬,2024-04-09,22.419456,120.552375,0.9921068
466950,彭佳嶼,2024-04-09,25.627975,122.079744,1.5012526e-07
C0A890,雙溪,2024-04-09,25.036003,121.864242,4.8883416e-05
C0C480,桃園,2024-04-09,24.992425,121.323172,6.7200863e-09
C0AH50,林口,2024-04-09,25.072181,121.38084,1.8208882e-09
A2K360,水試臺西試驗場,2024-04-09,23.717231,120.190522,9.0319915e-08
B2N890,畜試所,2024-04-09,23.058972,120.336406,0.99812895
C0F9S0,烏日,2024-04-09,24.107058,120.624103,1.0721742e-08
C0C490,八德,2024-04-09,24.928708,121.283289,1.5652819e-09
C0R190,赤山,2024-04-09,22.592333,120.614306,0.99916923
C0T820,天祥,2024-04-09,24.179597,121.495639,1.14710685e-08
C1F9E1,龍安,2024-04-09,24.1605,120.831961,2.0943625e-07
C0V820,小林,2024-04-09,23.148408,120.63325,0.027734566
C2G870,芳苑,2024-04-09,23.922303,120.320025,2.264582e-08
C0E850,大河,2024-04-09,24.618069,120.948578,3.3482885e-07
C1U670,寒溪,2024-04-09,24.634,121.71691,2.038102e-07
C0N020,城西,2024-04-09,23.0568,120.0956,1.2981342e-05
C1Z110,三棧,2024-04-09,24.11557,121.60501,3.083665e-09
C0R280,檳榔,2024-04-09,22.076078,120.836777,2.0835066e-06
C0F9L0,后里,2024-04-09,24.310436,120.729725,5.824045e-06
C0D540,橫山,2024-04-09,24.71116,121.11693,2.3848223e-09
C1D420,太閣南,2024-04-09,24.632808,121.160575,8.473426e-10
C1E770,公館,2024-04-09,24.526914,120.830806,5.9423866e-07
CAN130,水試所海水繁養殖中心,2024-04-09,23.120802,120.07968,6.686605e-06
C1I430,翠華,2024-04-09,24.191961,121.224339,2.857625e-09
C1M400,菜瓜坪,2024-04-09,23.251928,120.576103,3.6465627e-07
C0G730,二林,2024-04-09,23.903325,120.376081,2.7922496e-08
72M360,南改義竹分場,2024-04-09,23.360694,120.279361,1.367931e-07
V2K620,麥寮合作社,2024-04-09,23.753836,120.294783,5.5248506e-06
C0Z070,舞鶴,2024-04-09,23.46811,121.37407,6.2825917e-10
C0B040,大武崙,2024-04-09,25.166676,121.706993,0.0011575245
C1Z030,紅葉,2024-04-09,23.493119,121.338806,1.3700708e-09
C1I050,丹大,2024-04-09,23.753747,121.141147,1.2876862e-09
C0I080,信義,2024-04-09,23.689694,120.851036,1.7376329e-09
C2A880,福隆,2024-04-09,25.017842,121.942083,5.387807e-06
C0Z160,鳳林,2024-04-09,23.746114,121.453411,1.2603527e-08
C0V210,復興,2024-04-09,23.222403,120.806089,5.216841e-06
C0H990,昆陽,2024-04-09,24.121322,121.273642,5.4640794e-09
C0S710,鹿野,2024-04-09,22.917711,121.122994,1.9093922e-09
C0I530,小奇萊,2024-04-09,24.131764,121.295717,5.9357967e-09
C0Z080,富源,2024-04-09,23.587642,121.378225,6.739636e-09
467441,高雄,2024-04-09,22.7304,120.3125,0.99004114
C1I140,卡奈托灣,2024-04-09,23.754364,121.087872,4.9904186e-10
C0I520,玉山風口,2024-04-09,23.470489,120.955994,2.2933573e-08
C1G691,下水埔,2024-04-09,23.816114,120.5676,0.00013470616
C0X110,臺南市南區,2024-04-09,22.961189,120.188378,0.040170886
C0V680,仁武,2024-04-09,22.701083,120.347722,0.0398091
C2G840,北斗,2024-04-09,23.877586,120.514222,3.2810226e-07
C0R900,竹坑,2024-04-09,22.1385,120.7022,0.0010553706
C0K250,崙背,2024-04-09,23.75555,120.318925,5.570779e-06
C0G860,社頭,2024-04-09,23.897647,120.5862,0.00058386615
C0X150,安定,2024-04-09,23.102614,120.227839,0.46857643
C0R590,里港,2024-04-09,22.77919,120.49459,0.9985224
C0E610,馬都安,2024-04-09,24.451272,120.930192,9.141622e-10
C0E550,明德,2024-04-09,24.583486,120.885411,9.970488e-07
C0R150,三地門,2024-04-09,22.709889,120.639944,0.996722
C0G910,花壇,2024-04-09,24.032076,120.549461,1.8321965e-07
C1D400,鳥嘴山,2024-04-09,24.71909,121.28387,6.985782e-10
C0K500,元長,2024-04-09,23.64981,120.315024,6.6942186e-05
C0F0B0,石岡,2024-04-09,24.276061,120.777644,1.1856562e-06
C2V250,甲仙,2024-04-09,23.080106,120.591758,0.94378847
C0SA20,金崙山,2024-04-09,22.567419,120.959667,9.320912e-10
C0V350,溪埔,2024-04-09,22.738578,120.446797,0.9985394
C0M660,溪口,2024-04-09,23.604131,120.403569,0.0014675929
C1S880,壽卡,2024-04-09,22.238911,120.858903,3.1969183e-08
72D680,桃改新埔分場,2024-04-09,24.834444,121.066111,5.636977e-10
