站號,站名,日期,lat,lon,BlastGRU-TW
12J990,口湖工作站,2024-07-20,23.589978,120.180394,0.41637048
12Q970,東港工作站,2024-07-20,22.479997,120.466058,0.20726569
12Q980,恆春工作站,2024-07-20,22.079678,120.714425,0.057816975
466881,新北,2024-07-20,24.9593,121.52,0.07395555
466900,淡水,2024-07-20,25.164889,121.448906,0.18012665
466920,臺北,2024-07-20,25.037658,121.514853,0.055826962
466940,基隆,2024-07-20,25.133314,121.740475,0.058758236
466990,花蓮,2024-07-20,23.975128,121.613275,0.10682909
467050,新屋,2024-07-20,25.006744,121.047486,0.6481758
467080,宜蘭,2024-07-20,24.763975,121.756528,0.041195836
467270,田中,2024-07-20,23.873803,120.581286,0.13636048
467280,後龍,2024-07-20,24.648563,120.831834,0.7626033
467300,東吉島,2024-07-20,23.25695,119.667467,0.71385574
467350,澎湖,2024-07-20,23.565503,119.563094,0.78410447
467410,臺南,2024-07-20,22.993239,120.204772,0.14794648
467420,永康,2024-07-20,23.038386,120.2367,0.118034706
467441,高雄,2024-07-20,22.7304,120.3125,0.11752082
467480,嘉義,2024-07-20,23.495925,120.432906,0.23410863
467490,臺中,2024-07-20,24.145736,120.684075,0.19547406
467540,大武,2024-07-20,22.355675,120.903789,0.12149925
467571,新竹,2024-07-20,24.827853,121.014219,0.59487337
467590,恆春,2024-07-20,22.003897,120.746339,0.08874129
467610,成功,2024-07-20,23.097486,121.373428,0.118753724
467620,蘭嶼,2024-07-20,22.036969,121.558339,0.8178929
467660,臺東,2024-07-20,22.752211,121.154586,0.3688076
467790,墾丁雷達站,2024-07-20,21.948235,120.808028,0.11251987
72AI40,桃改樹林分場,2024-07-20,24.944503,121.386972,0.07349329
72C440,桃園農改,2024-07-20,24.950944,121.030583,0.6524412
72C440,桃園農改場,2024-07-20,24.950944,121.030583,0.6524412
72D680,桃改新埔分場,2024-07-20,24.834444,121.066111,0.66167164
72G600,臺中農改,2024-07-20,24.003028,120.534389,0.1698924
72G600,臺中農改場,2024-07-20,24.003028,120.534389,0.1698924
72K220,南改斗南分場,2024-07-20,23.634556,120.477333,0.2583117
72M360,南改義竹分場,2024-07-20,23.360694,120.279361,0.21837936
72M700,南改鹿草分場,2024-07-20,23.416869,120.283061,0.20348398
72N100,臺南農改,2024-07-20,23.0605,120.342194,0.11400342
72N100,臺南農改場,2024-07-20,23.0605,120.342194,0.11400342
72N240,七股研究中心,2024-07-20,23.081672,120.062894,0.205128
72Q010,高雄農改,2024-07-20,22.709333,120.525889,0.1433462
72Q010,高雄農改場,2024-07-20,22.709333,120.525889,0.1433462
72S200,東改班鳩分場,2024-07-20,22.829528,121.077694,0.42426026
72S590,東改賓朗果園,2024-07-20,22.813889,121.071278,0.47272408
72T250,花蓮農改,2024-07-20,23.975222,121.563889,0.09949218
72T250,花蓮農改場,2024-07-20,23.975222,121.563889,0.09949218
72U480,花改蘭陽分場,2024-07-20,24.686306,121.716583,0.055210613
72V140,高改旗南分場,2024-07-20,22.857861,120.516667,0.108755894
82A750,茶改北部分場,2024-07-20,24.955778,121.631222,0.04789977
82C160,茶改場,2024-07-20,24.908472,121.185333,0.2190336
82H840,茶改南部分場,2024-07-20,23.762528,120.7405,0.15728864
82S580,茶改東部分場,2024-07-20,22.907694,121.130139,0.28528118
A2C560,農工中心,2024-07-20,24.985917,121.239833,0.1781699
A2K360,水試臺西試驗場,2024-07-20,23.717231,120.190522,0.370966
A2K570,古坑花卉中心,2024-07-20,23.63353,120.55239,0.22966658
A2K630,臺大雲林校區,2024-07-20,23.730628,120.423903,0.26636693
A2N290,臺南蘭花園區,2024-07-20,23.340258,120.379661,0.1837523
B2E890,畜試北區分所,2024-07-20,24.527806,120.770972,0.6019953
B2N890,畜產試驗所,2024-07-20,23.058972,120.336406,0.11400342
B2N890,畜試所,2024-07-20,23.058972,120.336406,0.11400342
B2Q810,畜試南區分所,2024-07-20,21.945583,120.802167,0.104708225
B2U990,畜試東區分所,2024-07-20,24.669039,121.832561,0.08401192
C0A520,山佳,2024-07-20,24.974944,121.402008,0.07719208
C0A530,坪林,2024-07-20,24.938183,121.70975,0.06298752
C0A550,泰平,2024-07-20,24.971197,121.823711,0.088631704
C0A570,桶後,2024-07-20,24.848222,121.597992,0.063632995
C0A640,石碇,2024-07-20,24.993969,121.662917,0.05264408
C0A770,科教館,2024-07-20,25.096356,121.516507,0.052949354
C0A860,大坪,2024-07-20,25.165914,121.632969,0.19138838
C0A890,雙溪,2024-07-20,25.036003,121.864242,0.08592908
C0A931,三和,2024-07-20,25.233153,121.595236,0.12440183
C0A940,金山,2024-07-20,25.223628,121.643967,0.07165066
C0A950,鼻頭角,2024-07-20,25.129036,121.923372,0.13066877
C0A970,三貂角,2024-07-20,25.007606,122.002058,0.081295
C0A980,社子,2024-07-20,25.109508,121.469681,0.16424504
C0A9C0,天母,2024-07-20,25.117494,121.537169,0.0699901
C0A9F0,內湖,2024-07-20,25.079422,121.57545,0.05060832
C0AC60,三峽,2024-07-20,24.939025,121.369728,0.075730965
C0AC70,信義,2024-07-20,25.037822,121.564597,0.05161419
C0AC80,文山,2024-07-20,25.00235,121.575728,0.076623864
C0ACA0,新莊,2024-07-20,25.051478,121.446756,0.058401234
C0AD10,八里,2024-07-20,25.150211,121.403947,0.182429
C0AD30,蘆洲,2024-07-20,25.086594,121.472331,0.052949354
C0AD40,土城,2024-07-20,24.973208,121.445169,0.07696959
C0AD50,鶯歌,2024-07-20,24.951533,121.346294,0.079269566
C0AG80,中和,2024-07-20,24.991622,121.491792,0.078702144
C0AH00,汐止,2024-07-20,25.066881,121.658778,0.04268856
C0AH10,永和,2024-07-20,25.01125,121.508111,0.077797696
C0AH40,平等,2024-07-20,25.129142,121.577086,0.18362904
C0AH50,林口,2024-07-20,25.072181,121.38084,0.20144083
C0AH70,松山,2024-07-20,25.04871,121.55042,0.05161419
C0AH80,深坑,2024-07-20,25.002703,121.628328,0.06753403
C0AI00,五股,2024-07-20,25.07445,121.42728,0.14937326
C0AI10,屈尺,2024-07-20,24.92184,121.54475,0.07621981
C0AI20,白沙灣,2024-07-20,25.283128,121.519058,0.19104522
C0AI30,三重,2024-07-20,25.057328,121.500629,0.055194125
C0AI40,石牌,2024-07-20,25.115597,121.513139,0.072965264
C0AJ20,野柳,2024-07-20,25.20703,121.690021,0.07143886
C0AJ30,淡水觀海,2024-07-20,25.184591,121.408616,0.096519575
C0AJ40,石門,2024-07-20,25.273672,121.601198,0.24024574
C0AJ50,水湳洞,2024-07-20,25.123695,121.862238,0.047963753
C0AJ60,六塊厝,2024-07-20,25.24,121.4481,0.17591555
C0AJ70,田寮,2024-07-20,25.2698,121.4886,0.15382186
C0AJ80,板橋,2024-07-20,25.0107,121.4489,0.076797694
C0AJ90,澳底,2024-07-20,25.0552,121.9253,0.08382216
C0B010,七堵,2024-07-20,25.094819,121.71713,0.04553687
C0B020,基隆嶼,2024-07-20,25.19141,121.78391,0.051817626
C0B040,大武崙,2024-07-20,25.166676,121.706993,0.07102704
C0B050,八斗子,2024-07-20,25.144754,121.79167,0.054169673
C0B060,暖暖,2024-07-20,25.0957,121.7403,0.03983158
C0C460,復興,2024-07-20,24.820208,121.352281,0.3143283
C0C480,桃園,2024-07-20,24.992425,121.323172,0.08369816
C0C490,八德,2024-07-20,24.928708,121.283289,0.0830267
C0C590,觀音,2024-07-20,25.027072,121.153317,0.7473246
C0C620,蘆竹,2024-07-20,25.084275,121.265767,0.26974306
C0C630,大溪,2024-07-20,24.882853,121.265547,0.10056692
C0C650,平鎮,2024-07-20,24.897503,121.214636,0.12387465
C0C660,楊梅,2024-07-20,24.912375,121.143047,0.18750781
C0C670,龍潭,2024-07-20,24.870056,121.221389,0.12503357
C0C680,龜山,2024-07-20,25.02846,121.38656,0.18985924
C0C700,中壢,2024-07-20,24.977661,121.256375,0.09303095
C0C710,大溪永福,2024-07-20,24.892936,121.324975,0.09477269
C0C720,竹圍,2024-07-20,25.112692,121.239824,0.17552437
C0C730,中大臨海站,2024-07-20,24.966126,121.008581,0.6364479
C0C740,觀音工業區,2024-07-20,25.064764,121.114856,0.69187754
C0C750,新興坑尾,2024-07-20,25.0061,121.0971,0.68755555
C0D430,峨眉,2024-07-20,24.6905,121.017189,0.6316033
C0D480,打鐵坑,2024-07-20,24.849664,121.150789,0.12252517
C0D540,橫山,2024-07-20,24.71116,121.11693,0.2393425
C0D560,竹東,2024-07-20,24.767147,121.057881,0.17188042
C0D580,寶山,2024-07-20,24.735006,121.025192,0.2155839
C0D590,新豐,2024-07-20,24.87068,120.97721,0.9211792
C0D650,湖口,2024-07-20,24.904794,121.043628,0.6888949
C0D660,新竹市東區,2024-07-20,24.798681,120.986942,0.5580955
C0D670,海天一線,2024-07-20,24.831986,120.914438,0.87040025
C0D680,香山濕地,2024-07-20,24.783581,120.914988,0.5276598
C0D690,外湖,2024-07-20,24.917735,120.968711,0.6215302
C0D700,關西,2024-07-20,24.7977,121.1732,0.18372683
C0E420,竹南,2024-07-20,24.708978,120.888897,0.8428651
C0E430,南庄,2024-07-20,24.601775,121.000214,0.73508626
C0E550,明德,2024-07-20,24.583486,120.885411,0.71683496
C0E590,通霄,2024-07-20,24.471892,120.704622,0.53142124
C0E730,頭份,2024-07-20,24.688247,120.912206,0.84189194
C0E740,造橋,2024-07-20,24.637056,120.864778,0.76514006
C0E750,苗栗,2024-07-20,24.564569,120.824575,0.681869
C0E780,銅鑼,2024-07-20,24.489681,120.790853,0.6462154
C0E791,卓蘭,2024-07-20,24.3126,120.8244,0.5535071
C0E810,西湖,2024-07-20,24.562947,120.7485,0.7969316
C0E820,獅潭,2024-07-20,24.539133,120.920042,0.6585887
C0E830,苑裡,2024-07-20,24.439714,120.653053,0.5502784
C0E850,大河,2024-07-20,24.618069,120.948578,0.5178394
C0E870,高鐵苗栗,2024-07-20,24.60725,120.826094,0.7530703
C0E910,海埔,2024-07-20,24.648767,120.772435,0.73435396
C0E920,通霄漁港,2024-07-20,24.498589,120.673876,0.50707483
C0E930,龍鳳,2024-07-20,24.700034,120.859125,0.8250564
C0F0B0,石岡,2024-07-20,24.276061,120.777644,0.49059415
C0F850,東勢,2024-07-20,24.246428,120.833047,0.54440993
C0F970,大坑,2024-07-20,24.173142,120.722289,0.2028868
C0F9I0,神岡,2024-07-20,24.272481,120.658314,0.3217903
C0F9K0,大安,2024-07-20,24.345061,120.588025,0.47797164
C0F9L0,后里,2024-07-20,24.310436,120.729725,0.4326263
C0F9M0,豐原,2024-07-20,24.254322,120.720692,0.4059906
C0F9N0,大里,2024-07-20,24.092464,120.701378,0.12496869
C0F9O0,潭子,2024-07-20,24.213106,120.703933,0.30267155
C0F9P0,清水,2024-07-20,24.312297,120.562242,0.3651022
C0F9Q0,外埔,2024-07-20,24.347817,120.705686,0.35391927
C0F9R0,龍井,2024-07-20,24.184536,120.528972,0.37342113
C0F9S0,烏日,2024-07-20,24.107058,120.624103,0.11612464
C0F9T0,西屯,2024-07-20,24.179494,120.641275,0.1721913
C0F9U0,南屯,2024-07-20,24.137006,120.637969,0.16297022
C0F9X0,大雅(中科園區),2024-07-20,24.21528,120.62445,0.26935476
C0FA10,松柏,2024-07-20,24.429115,120.617482,0.5369799
C0FA20,溫寮,2024-07-20,24.372177,120.583125,0.4649982
C0FA30,梧棲,2024-07-20,24.256003,120.523381,0.37667328
C0FA40,臺中電廠,2024-07-20,24.2146,120.4907,0.37342113
C0FA50,霧峰,2024-07-20,24.0419,120.6995,0.09982607
C0G620,芬園,2024-07-20,24.015678,120.6213,0.111655585
C0G650,員林,2024-07-20,23.946503,120.585597,0.12896857
C0G660,溪湖,2024-07-20,23.94835,120.479122,0.21995501
C0G720,溪州,2024-07-20,23.851589,120.499093,0.24404381
C0G730,二林,2024-07-20,23.903325,120.376081,0.41459626
C0G740,大城,2024-07-20,23.852487,120.320935,0.5053886
C0G770,福興,2024-07-20,24.041289,120.437669,0.40303457
C0G780,秀水,2024-07-20,24.03405,120.503869,0.16947861
C0G800,埔鹽,2024-07-20,24.000394,120.431683,0.40090585
C0G810,埔心,2024-07-20,23.947633,120.525456,0.22291331
C0G820,田尾,2024-07-20,23.901669,120.509389,0.22009099
C0G830,埤頭,2024-07-20,23.866003,120.452806,0.2544651
C0G860,社頭,2024-07-20,23.897647,120.5862,0.14672315
C0G880,二水,2024-07-20,23.810742,120.6173,0.18565132
C0G890,伸港,2024-07-20,24.148933,120.484403,0.35734287
C0G900,線西,2024-07-20,24.143358,120.443536,0.366657
C0G910,花壇,2024-07-20,24.032076,120.549461,0.17826813
C0G920,永靖,2024-07-20,23.924703,120.547533,0.22257851
C0G940,竹塘,2024-07-20,23.848253,120.386764,0.39124486
C0G950,防潮門,2024-07-20,24.1835,120.4871,0.37342113
C0G960,福寶,2024-07-20,24.0443,120.3814,0.39960396
C0G970,三豐,2024-07-20,23.882,120.2895,0.4885266
C0H890,埔里,2024-07-20,23.972169,120.952425,0.29543146
C0H960,草屯,2024-07-20,23.973672,120.68085,0.097523205
C0I110,竹山,2024-07-20,23.761225,120.688156,0.17687556
C0I360,水里,2024-07-20,23.812553,120.849792,0.10579831
C0I380,集集,2024-07-20,23.828206,120.801467,0.13261704
C0I410,名間,2024-07-20,23.837053,120.701447,0.17496112
C0I420,國姓,2024-07-20,24.037803,120.855072,0.26006496
C0I460,南投,2024-07-20,23.911469,120.687331,0.08374871
C0K250,崙背,2024-07-20,23.75555,120.318925,0.2623484
C0K280,四湖,2024-07-20,23.630414,120.227125,0.3927807
C0K291,宜梧,2024-07-20,23.536281,120.169329,0.24059007
C0K330,虎尾,2024-07-20,23.719183,120.442036,0.2686841
C0K390,土庫,2024-07-20,23.679029,120.395574,0.27759856
C0K400,斗六,2024-07-20,23.720583,120.541127,0.24718453
C0K410,北港,2024-07-20,23.573957,120.292802,0.2515997
C0K420,西螺,2024-07-20,23.800407,120.467394,0.2874933
C0K430,褒忠,2024-07-20,23.690938,120.303634,0.25861865
C0K440,二崙,2024-07-20,23.772797,120.408944,0.2510432
C0K450,大埤,2024-07-20,23.646074,120.431537,0.2804099
C0K460,斗南,2024-07-20,23.678734,120.478359,0.26220962
C0K470,林內,2024-07-20,23.748675,120.609642,0.18310164
C0K480,莿桐,2024-07-20,23.761192,120.502372,0.19383805
C0K500,元長,2024-07-20,23.64981,120.315024,0.24153431
C0K510,水林,2024-07-20,23.572924,120.24597,0.24519436
C0K530,臺西,2024-07-20,23.701547,120.197559,0.3757281
C0K550,蔦松,2024-07-20,23.514319,120.229736,0.23598501
C0K560,棋山,2024-07-20,23.68645,120.603417,0.21190971
C0K580,高鐵雲林,2024-07-20,23.737456,120.417944,0.26636693
C0K590,雲林東勢,2024-07-20,23.674192,120.255721,0.24249542
C0K600,箔子寮,2024-07-20,23.6197,120.14,0.43958676
C0M520,東後寮,2024-07-20,23.369908,120.248065,0.21837936
C0M640,中埔,2024-07-20,23.42538,120.5229,0.25576797
C0M650,朴子,2024-07-20,23.43463,120.23902,0.19851188
C0M660,溪口,2024-07-20,23.604131,120.403569,0.28157863
C0M670,大林,2024-07-20,23.600616,120.45841,0.29209217
C0M680,太保,2024-07-20,23.455062,120.331455,0.20676555
C0M690,水上,2024-07-20,23.419734,120.388909,0.22111423
C0M700,竹崎,2024-07-20,23.526178,120.555508,0.22471301
C0M710,東石,2024-07-20,23.458927,120.15385,0.30782327
C0M720,番路,2024-07-20,23.464657,120.554156,0.23879482
C0M730,嘉義市東區,2024-07-20,23.457673,120.460531,0.22307856
C0M740,六腳,2024-07-20,23.492871,120.290625,0.19810274
C0M750,布袋,2024-07-20,23.380878,120.167789,0.22206563
C0M760,民雄,2024-07-20,23.551754,120.428457,0.27956778
C0M770,嘉義梅山,2024-07-20,23.585398,120.555587,0.28476182
C0M780,鹿草,2024-07-20,23.41134,120.30835,0.20621388
C0M790,新港,2024-07-20,23.553269,120.345728,0.24687058
C0M800,茶山,2024-07-20,23.299075,120.664767,0.39030302
C0M880,好美里,2024-07-20,23.3364,120.138,0.22400118
C0N010,鯤鯓國小,2024-07-20,23.1879,120.0889,0.20019819
C0N020,城西,2024-07-20,23.0568,120.0956,0.14182012
C0N030,四草,2024-07-20,23.0235,120.1116,0.14908434
C0N040,蘆竹溝,2024-07-20,23.2344,120.0961,0.17874011
C0N050,蚵寮,2024-07-20,23.301,120.1104,0.21743527
C0O830,北寮,2024-07-20,23.079561,120.495008,0.11540006
C0O840,王爺宮,2024-07-20,23.222064,120.40085,0.19349374
C0O860,大內,2024-07-20,23.11885,120.36083,0.11451638
C0O900,善化,2024-07-20,23.112883,120.297219,0.10622877
C0O960,崎頂,2024-07-20,22.959547,120.369317,0.13443059
C0O970,虎頭埤,2024-07-20,23.021375,120.347878,0.12731743
C0O980,新市,2024-07-20,23.061614,120.298197,0.10862179
C0O990,媽廟,2024-07-20,22.99175,120.293525,0.121466644
C0R150,三地門,2024-07-20,22.709889,120.639944,0.12230598
C0R160,鹽埔,2024-07-20,22.739558,120.530778,0.13091303
C0R170,屏東,2024-07-20,22.660269,120.494072,0.15738171
C0R190,赤山,2024-07-20,22.592333,120.614306,0.15619422
C0R220,潮州,2024-07-20,22.534361,120.54,0.17020148
C0R240,來義,2024-07-20,22.527306,120.625111,0.18917698
C0R260,春日,2024-07-20,22.370361,120.628306,0.097309425
C0R270,琉球嶼,2024-07-20,22.332244,120.362236,0.36448818
C0R280,檳榔,2024-07-20,22.076078,120.836777,0.098320924
C0R320,車城,2024-07-20,22.0744,120.716247,0.057816975
C0R341,牡丹,2024-07-20,22.130036,120.792639,0.09607691
C0R350,貓鼻頭,2024-07-20,21.921774,120.7358,0.15301779
C0R470,高樹,2024-07-20,22.826389,120.600806,0.14072631
C0R480,長治,2024-07-20,22.693128,120.542622,0.099876486
C0R490,九如,2024-07-20,22.7405,120.490503,0.12922353
C0R520,崁頂,2024-07-20,22.514781,120.506914,0.1588442
C0R540,佳冬,2024-07-20,22.419456,120.552375,0.072838955
C0R550,新埤,2024-07-20,22.467947,120.582894,0.21002015
C0R560,新園,2024-07-20,22.5434,120.461558,0.12612446
C0R570,麟洛,2024-07-20,22.65078,120.52719,0.15738171
C0R580,南州,2024-07-20,22.48591,120.50274,0.20962423
C0R590,里港,2024-07-20,22.77919,120.49459,0.07767532
C0R620,墾雷,2024-07-20,21.900836,120.855269,0.21805179
C0R640,東港,2024-07-20,22.46247,120.44074,0.2099777
C0R650,竹田,2024-07-20,22.58486,120.54344,0.15362513
C0R660,枋寮,2024-07-20,22.367722,120.590647,0.091116846
C0R670,楓港,2024-07-20,22.190131,120.692156,0.061061375
C0R680,佳樂水,2024-07-20,21.993578,120.861633,0.105623506
C0R690,墾丁,2024-07-20,21.966756,120.810269,0.18272796
C0R700,枋山,2024-07-20,22.246844,120.661086,0.0864111
C0R710,龍磐,2024-07-20,21.931672,120.838942,0.18594502
C0R720,旭海,2024-07-20,22.205403,120.887614,0.124849066
C0R730,大坪頂,2024-07-20,22.024633,120.69355,0.07321167
C0R740,獅子,2024-07-20,22.201569,120.70525,0.081562735
C0R760,南仁湖,2024-07-20,22.084681,120.863353,0.1005854
C0R770,保力,2024-07-20,22.071122,120.764111,0.061795224
C0R780,滿州,2024-07-20,22.024403,120.839892,0.0921117
C0R790,九棚,2024-07-20,22.14195,120.889281,0.07607848
C0R800,丹路,2024-07-20,22.204481,120.750989,0.10283755
C0R810,內獅,2024-07-20,22.305064,120.642986,0.07450626
C0R830,高士,2024-07-20,22.121825,120.836781,0.13162786
C0R850,林邊,2024-07-20,22.4634,120.5339,0.20535123
C0R860,鼻頭,2024-07-20,22.1043,120.8979,0.049523477
C0R870,興海,2024-07-20,21.9752,120.8439,0.104708225
C0R880,後壁湖,2024-07-20,21.9457,120.7457,0.095668234
C0R890,山海,2024-07-20,21.9878,120.7091,0.09653896
C0R900,竹坑,2024-07-20,22.1385,120.7022,0.058266472
C0R910,下寮,2024-07-20,22.3929,120.5548,0.072838955
C0R920,塭仔,2024-07-20,22.4169,120.5197,0.0682644
C0R930,萬丹,2024-07-20,22.5885,120.4851,0.123558454
C0R940,加祿堂,2024-07-20,22.3363,120.6217,0.09060683
C0S710,鹿野,2024-07-20,22.917711,121.122994,0.496359
C0S730,綠島,2024-07-20,22.6672,121.47533,0.7261329
C0S740,池上,2024-07-20,23.119628,121.209469,0.22434904
C0S770,大溪山,2024-07-20,22.478475,120.943325,0.6944787
C0S790,金崙,2024-07-20,22.538122,120.966875,0.3994741
C0S810,東河,2024-07-20,22.972672,121.303986,0.22451344
C0S830,長濱,2024-07-20,23.286817,121.411975,0.11470592
C0S840,南田,2024-07-20,22.279725,120.889208,0.17978546
C0S890,關山,2024-07-20,23.0395,121.175017,0.23525058
C0S900,蘭嶼高中,2024-07-20,22.04909,121.51214,0.6138579
C0S910,蘭嶼燈塔,2024-07-20,22.081197,121.503117,0.704924
C0S920,金峰嘉蘭,2024-07-20,22.594789,120.960825,0.2664762
C0S930,延平,2024-07-20,22.902581,121.084058,0.25616
C0S940,石寧山,2024-07-20,23.223772,121.406639,0.07720291
C0S950,七塊厝,2024-07-20,22.954453,121.229922,0.46838194
C0S960,香蘭,2024-07-20,22.587569,120.993375,0.2586982
C0S970,加津林,2024-07-20,22.416211,120.926942,0.5851618
C0S990,山豬窟,2024-07-20,22.318619,120.857372,0.15846713
C0SA00,歷坵,2024-07-20,22.520969,120.89185,0.7963729
C0SA10,檳榔四格山,2024-07-20,22.810031,121.109308,0.553695
C0SA30,都歷,2024-07-20,23.020333,121.323642,0.12502109
C0SA40,瑞和,2024-07-20,22.974361,121.156697,0.24009915
C0SA60,知本（水試所）,2024-07-20,22.702394,121.082761,0.19141142
C0SA80,土坂,2024-07-20,22.453108,120.887572,0.6793481
C0SA90,達仁林場,2024-07-20,22.264347,120.823972,0.16474107
C0T870,鯉魚潭,2024-07-20,23.935639,121.508944,0.17809911
C0T900,西林,2024-07-20,23.8119,121.441458,0.2983627
C0T960,光復,2024-07-20,23.660694,121.424964,0.10598295
C0T9A0,月眉山,2024-07-20,23.809928,121.539828,0.5326961
C0T9D0,和中,2024-07-20,24.26676,121.74103,0.19030963
C0T9E0,大坑,2024-07-20,23.880628,121.581981,0.49495688
C0T9F0,水璉,2024-07-20,23.797131,121.542514,0.27685803
C0T9I0,豐濱,2024-07-20,23.583897,121.514806,0.09681845
C0T9M0,靜浦,2024-07-20,23.455167,121.495028,0.07699147
C0T9N0,富里,2024-07-20,23.171639,121.249378,0.20687751
C0U600,礁溪,2024-07-20,24.817539,121.765608,0.044694766
C0U650,玉蘭,2024-07-20,24.675286,121.587061,0.9709453
C0U750,龜山島,2024-07-20,24.841667,121.953133,0.54493403
C0U760,東澳,2024-07-20,24.52196,121.83318,0.09055973
C0U770,南澳,2024-07-20,24.44935,121.81022,0.2624368
C0U780,五結,2024-07-20,24.68637,121.79794,0.048888028
C0U860,頭城,2024-07-20,24.85323,121.8308,0.044860926
C0U870,大礁溪,2024-07-20,24.791042,121.675047,0.19486445
C0U880,北關,2024-07-20,24.9072,121.8734,0.068298765
C0U890,三星,2024-07-20,24.66812,121.65302,0.17503503
C0U900,內城,2024-07-20,24.71813,121.68766,0.056686457
C0U910,冬山,2024-07-20,24.63373,121.7937,0.08401192
C0U940,羅東,2024-07-20,24.68184,121.74934,0.04897007
C0U970,大福,2024-07-20,24.80064,121.81389,0.04273157
C0U990,員山,2024-07-20,24.74435,121.72247,0.04751795
C0UA00,土場,2024-07-20,24.576533,121.495333,0.2601451
C0UA80,大溪漁港,2024-07-20,24.941801,121.902955,0.062744476
C0UA90,石城,2024-07-20,24.980444,121.951214,0.07273504
C0UB00,淡江大學蘭陽校園,2024-07-20,24.823239,121.730383,0.043013606
C0UB10,蘇澳,2024-07-20,24.5969,121.8571,0.057090454
C0UB20,壯圍,2024-07-20,24.7359,121.8163,0.046635374
C0V310,美濃,2024-07-20,22.898742,120.519153,0.11724568
C0V350,溪埔,2024-07-20,22.738578,120.446797,0.09574978
C0V360,內門,2024-07-20,22.975481,120.466769,0.099258065
C0V370,古亭坑,2024-07-20,22.893178,120.401947,0.0831802
C0V400,阿公店,2024-07-20,22.804194,120.355528,0.0729707
C0V440,鳳山,2024-07-20,22.646653,120.356122,0.19280043
C0V450,鳳森,2024-07-20,22.545064,120.392592,0.13378249
C0V490,新興,2024-07-20,22.627422,120.298803,0.1384515
C0V530,阿蓮,2024-07-20,22.883208,120.327508,0.1076975
C0V610,梓官,2024-07-20,22.760558,120.267211,0.122966364
C0V620,永安,2024-07-20,22.82315,120.236856,0.1641411
C0V630,茄萣,2024-07-20,22.906642,120.182608,0.1751819
C0V640,湖內,2024-07-20,22.887139,120.2445,0.16287436
C0V650,彌陀,2024-07-20,22.783806,120.246361,0.1641411
C0V660,岡山,2024-07-20,22.797078,120.294958,0.15909623
C0V680,仁武,2024-07-20,22.701083,120.347722,0.19201288
C0V690,鼓山,2024-07-20,22.623325,120.275575,0.15143536
C0V700,三民,2024-07-20,22.645017,120.311233,0.18664494
C0V710,苓雅,2024-07-20,22.622742,120.330669,0.14484146
C0V720,林園,2024-07-20,22.507747,120.394511,0.1316954
C0V730,大寮,2024-07-20,22.605614,120.395717,0.13696994
C0V740,旗山,2024-07-20,22.888614,120.483597,0.11879534
C0V750,路竹,2024-07-20,22.854997,120.259439,0.17395812
C0V760,橋頭,2024-07-20,22.757806,120.30575,0.116081506
C0V770,大社,2024-07-20,22.730306,120.346639,0.121724226
C0V790,萬山,2024-07-20,22.905944,120.688056,0.37048423
C0V800,六龜,2024-07-20,22.997889,120.633583,0.22041644
C0V810,左營,2024-07-20,22.67491,120.28491,0.18664494
C0V820,小林,2024-07-20,23.148408,120.63325,0.99818444
C0V840,鳳鼻頭,2024-07-20,22.5083,120.3591,0.13012445
C0V850,蚵仔寮,2024-07-20,22.7256,120.2527,0.12125601
C0V860,南寮,2024-07-20,22.7616,120.2339,0.12125601
C0V870,文安,2024-07-20,22.8025,120.2164,0.17484051
C0V880,興達,2024-07-20,22.8778,120.2127,0.1751819
C0V890,前鎮,2024-07-20,22.5718,120.3117,0.14640045
C0V900,汕尾,2024-07-20,22.4782,120.4151,0.20726569
C0W200,湖西,2024-07-20,23.596314,119.67275,0.81776977
C0X050,東河,2024-07-20,23.296598,120.385608,0.18192081
C0X060,下營,2024-07-20,23.22695,120.256261,0.13318506
C0X080,佳里,2024-07-20,23.173039,120.145086,0.18987069
C0X100,臺南市北區,2024-07-20,23.010394,120.194228,0.14416291
C0X110,臺南市南區,2024-07-20,22.961189,120.188378,0.1518064
C0X120,麻豆,2024-07-20,23.183289,120.248611,0.11059813
C0X130,官田,2024-07-20,23.193217,120.315422,0.13379246
C0X140,西港,2024-07-20,23.125608,120.203108,0.13027595
C0X150,安定,2024-07-20,23.102614,120.227839,0.12418608
C0X160,仁德,2024-07-20,22.968258,120.257689,0.14153631
C0X170,關廟,2024-07-20,22.963017,120.327797,0.10856501
C0X180,山上,2024-07-20,23.0757,120.363253,0.13637559
C0X190,安平,2024-07-20,22.993161,120.152181,0.15122272
C0X200,左鎮,2024-07-20,23.056758,120.408522,0.11819841
C0X210,白河,2024-07-20,23.347466,120.414427,0.2433083
C0X220,學甲,2024-07-20,23.230367,120.182187,0.17093793
C0X230,鹽水,2024-07-20,23.272621,120.247641,0.20727105
C0X240,關子嶺,2024-07-20,23.331169,120.508025,0.33471516
C0X250,新營,2024-07-20,23.310689,120.316681,0.17679383
C0X260,後壁,2024-07-20,23.366358,120.362326,0.1837523
C0X280,將軍,2024-07-20,23.214999,120.13577,0.17223643
C0X290,北門,2024-07-20,23.267772,120.125481,0.17874011
C0X300,鹿寮,2024-07-20,23.386047,120.477331,0.22742787
C0X320,柳營,2024-07-20,23.253328,120.375253,0.14652732
C0Z020,明里,2024-07-20,23.208717,121.262342,0.09598783
C0Z061,玉里,2024-07-20,23.3215,121.339656,0.08555969
C0Z070,舞鶴,2024-07-20,23.46811,121.37407,0.10682644
C0Z080,富源,2024-07-20,23.587642,121.378225,0.15106556
C0Z100,東華,2024-07-20,23.89525,121.549833,0.16412666
C0Z150,吉安光華,2024-07-20,23.930925,121.595153,0.11342811
C0Z160,鳳林,2024-07-20,23.746114,121.453411,0.13907892
C0Z170,卓溪,2024-07-20,23.3443,121.3029,0.091869764
C0Z180,新城,2024-07-20,24.03946,121.60454,0.107180856
C0Z190,富世,2024-07-20,24.14743,121.6297,0.77716553
C0Z200,萬榮,2024-07-20,23.709219,121.420106,0.14437497
C0Z210,瑞穗,2024-07-20,23.5239,121.39021,0.09510506
C0Z230,和平,2024-07-20,24.30717,121.77007,0.16510938
C0Z270,蕃薯寮,2024-07-20,23.73835,121.540108,0.24174443
C0Z280,德武,2024-07-20,23.47426,121.41071,0.0984736
C0Z300,東里,2024-07-20,23.26853,121.30547,0.07699307
C0Z310,清水斷崖,2024-07-20,24.218294,121.689142,0.88600975
C0Z330,安通山,2024-07-20,23.290728,121.348528,0.20041579
C2E520,大湖,2024-07-20,24.414939,120.870872,0.7060487
C2E540,後龍,2024-07-20,24.606489,120.783933,0.746521
C2E540,龍溪,2024-07-20,24.606489,120.783933,0.746521
C2F000,大肚,2024-07-20,24.15295,120.572117,0.2982487
C2F930,大甲,2024-07-20,24.347667,120.640403,0.5318838
C2F9A0,中竹林,2024-07-20,24.103556,120.751061,0.27237886
C2G640,鹿港,2024-07-20,24.0753,120.430481,0.38931543
C2G840,北斗,2024-07-20,23.877586,120.514222,0.2461768
C2G870,芳苑,2024-07-20,23.922303,120.320025,0.59807616
C2H950,中寮,2024-07-20,23.884447,120.766406,0.16501199
C2M410,馬頭山,2024-07-20,23.324361,120.582017,0.51705426
C2N160,西拉雅風管處,2024-07-20,23.189481,120.335297,0.13541843
C2O810,曾文,2024-07-20,23.219681,120.497328,0.2455431
C2O930,玉井,2024-07-20,23.126042,120.46055,0.12705965
C2O950,安南,2024-07-20,23.076694,120.144861,0.19465582
C2V250,甲仙,2024-07-20,23.080106,120.591758,0.25891927
C2V260,月眉,2024-07-20,22.971003,120.539853,0.15581912
C2W230,畜試所澎湖,2024-07-20,23.628342,119.513206,0.7625597
CAG100,王功漁港,2024-07-20,23.96824,120.32586,0.59682906
CAH030,茶改場竹圍站,2024-07-20,23.860083,120.637528,0.09736647
CAJ050,海口故事園區,2024-07-20,23.57543,120.14121,0.43958676
CAL110,布袋國中,2024-07-20,23.35893,120.18026,0.22032863
CAN130,水試所海水繁養殖中心,2024-07-20,23.120802,120.07968,0.205128
CAN140,六官養殖協會,2024-07-20,23.22881,120.29962,0.13321085
CAQ030,崎峰國小,2024-07-20,22.42565,120.49521,0.2001398
E2K600,四湖植物園,2024-07-20,23.676986,120.163433,0.40895435
E2P980,林試六龜中心,2024-07-20,22.991703,120.645722,0.22869389
E2S960,林試太麻里2,2024-07-20,22.598014,120.989761,0.2586982
E2S960,林試太麻里2,2024-07-20,22.598,120.99775,0.25420415
E2S980,林試太麻里1,2024-07-20,22.598922,120.980044,0.29899633
G2AI50,關渡,2024-07-20,25.11575,121.492,0.16668008
G2F820,農業試驗所,2024-07-20,24.031261,120.688133,0.09863282
G2F820,農試所(霧峰),2024-07-20,24.031261,120.688133,0.09863282
G2L020,農試嘉義分所,2024-07-20,23.485028,120.473806,0.21205534
G2M350,農試溪口農場,2024-07-20,23.58565,120.408111,0.28416243
G2P820,農試鳳山分所,2024-07-20,22.646611,120.356083,0.19280043
K2E360,苗栗農改,2024-07-20,24.495722,120.829111,0.5857666
K2E360,苗栗農改場,2024-07-20,24.495722,120.829111,0.5857666
K2E710,苗改生物防治研究中心,2024-07-20,24.422861,120.871833,0.66753113
K2F750,種苗改良場,2024-07-20,24.225972,120.800917,0.5902223
K2F750,種苗繁殖,2024-07-20,24.225972,120.800917,0.5902223
U2HA50,臺大竹山,2024-07-20,23.756972,120.681556,0.175526
V2C250,八德合作社,2024-07-20,24.93775,121.266389,0.09171994
V2C260,八德蔬果,2024-07-20,24.978508,121.281819,0.08492044
V2K610,大庄合作社,2024-07-20,23.8068,120.367939,0.31096202
V2K620,麥寮合作社,2024-07-20,23.753836,120.294783,0.2623484
