站號,站名,日期,lat,lon,BLBTSLS
C0R710,龍磐,2024-12-28,21.931672,120.838942,0.18948168
C1F9D1,白毛台,2024-12-28,24.158325,120.886933,3.4122125e-09
C0G940,竹塘,2024-12-28,23.848253,120.386764,2.276638e-09
467590,恆春,2024-12-28,22.003897,120.746339,0.99975145
C1O850,環湖,2024-12-28,23.148617,120.418633,8.551e-10
C0U710,太平山,2024-12-28,24.505486,121.525656,4.8886662e-08
C0E820,獅潭,2024-12-28,24.539133,120.920042,6.7688926e-09
C0V880,興達,2024-12-28,22.8778,120.2127,2.8509342e-09
C0S890,關山,2024-12-28,23.0395,121.175017,3.4355068e-09
C0SB30,新蘭,2024-12-28,22.869214,121.223228,8.612504e-08
C2R970,屏科大,2024-12-28,22.648275,120.619247,9.674281e-10
K2F750,種苗繁殖,2024-12-28,24.225972,120.800917,2.7569291e-09
C1Z130,銅門,2024-12-28,23.965694,121.492842,3.6601064e-09
C0AD40,土城,2024-12-28,24.973208,121.445169,3.885931e-08
CAN140,六官養殖協會,2024-12-28,23.22881,120.29962,7.253195e-10
C0X180,山上,2024-12-28,23.0757,120.363253,7.622786e-10
C0F9Z0,雪山東峰,2024-12-28,24.388792,121.268675,3.12809e-08
C1M480,獨立山,2024-12-28,23.537022,120.607797,3.7132941e-09
C0X220,學甲,2024-12-28,23.230367,120.182187,1.6374723e-09
467650,日月潭,2024-12-28,23.881325,120.90805,6.757051e-09
C0K600,箔子寮,2024-12-28,23.6197,120.14,0.008959857
C0G830,埤頭,2024-12-28,23.866003,120.452806,7.331419e-10
C0S950,七塊厝,2024-12-28,22.954453,121.229922,6.363105e-09
467110,金門,2024-12-28,24.407306,118.289281,3.3498833e-05
C0AH80,深坑,2024-12-28,25.002703,121.628328,3.6155836e-08
467990,馬祖,2024-12-28,26.169269,119.923419,1.4908373e-07
C0A970,三貂角,2024-12-28,25.007606,122.002058,1.8154724e-08
C2D730,寶山農場,2024-12-28,24.732444,120.976153,2.1001323e-08
C0K430,褒忠,2024-12-28,23.690938,120.303634,2.0903523e-09
467480,嘉義,2024-12-28,23.495925,120.432906,7.4484485e-10
C2E540,後龍,2024-12-28,24.606489,120.783933,0.00014650056
C0V400,阿公店,2024-12-28,22.804194,120.355528,5.96783e-10
467550,玉山,2024-12-28,23.48718,120.95943,2.75954e-08
C0R440,大漢山,2024-12-28,22.405264,120.753181,2.8770467e-08
C0K280,四湖,2024-12-28,23.630414,120.227125,2.1723508e-05
C1F9B1,桐林,2024-12-28,24.066172,120.735194,9.764506e-10
C2H9U0,鳳鵬,2024-12-28,23.763919,120.788061,2.4828708e-09
C0K390,土庫,2024-12-28,23.679029,120.395574,7.09157e-10
C1I450,望鄉山,2024-12-28,23.594153,120.944286,1.6399424e-08
C0E910,海埔,2024-12-28,24.648767,120.772435,0.00024334234
B2E890,畜試北區分所,2024-12-28,24.527806,120.770972,5.318906e-09
C0R750,四林格山,2024-12-28,22.076989,120.802439,0.00038397408
C0F0C0,中坑,2024-12-28,24.248517,120.903319,4.466206e-09
C1I121,大鞍,2024-12-28,23.678381,120.760017,6.011588e-09
72U480,花改蘭陽分場,2024-12-28,24.686306,121.716583,3.5066219e-09
C0A770,科教館,2024-12-28,25.096356,121.516507,1.2108471e-08
C0AJ60,六塊厝,2024-12-28,25.24,121.4481,3.5186913e-06
C0R620,墾雷,2024-12-28,21.900836,120.855269,0.81782395
467420,永康,2024-12-28,23.038386,120.2367,6.802034e-10
467300,東吉島,2024-12-28,23.25695,119.667467,0.9983969
C0I410,名間,2024-12-28,23.837053,120.701447,1.3761705e-09
A2C560,農工中心,2024-12-28,24.985917,121.239833,5.288133e-07
C0V740,旗山,2024-12-28,22.888614,120.483597,6.359875e-10
C0Z061,玉里,2024-12-28,23.3215,121.339656,2.4365574e-09
C0S840,南田,2024-12-28,22.279725,120.889208,0.9997445
C1I470,杉林溪,2024-12-28,23.639517,120.786444,7.248041e-09
C1X040,東原,2024-12-28,23.291597,120.463822,1.9046238e-09
C0R660,枋寮,2024-12-28,22.367722,120.590647,7.529672e-09
C1R120,上德文,2024-12-28,22.763272,120.704442,3.995365e-09
C0K450,大埤,2024-12-28,23.646074,120.431537,7.1689943e-10
C0UA00,土場,2024-12-28,24.576533,121.495333,9.250924e-08
467080,宜蘭,2024-12-28,24.763975,121.756528,3.6030936e-09
C0N030,四草,2024-12-28,23.0235,120.1116,8.6595064e-10
467410,臺南,2024-12-28,22.99328,120.20492,8.479149e-10
C0V650,彌陀,2024-12-28,22.783806,120.246361,2.6252267e-09
C0D660,新竹市東區,2024-12-28,24.798681,120.986942,6.985488e-07
82S580,茶改東部分場,2024-12-28,22.907694,121.130139,2.4707168e-08
C0SB40,興隆,2024-12-28,22.913661,121.257469,6.990013e-08
467050,新屋,2024-12-28,25.006725,121.047492,0.8414622
C0C710,大溪永福,2024-12-28,24.892936,121.324975,3.923594e-07
C0FA20,溫寮,2024-12-28,24.372177,120.583125,2.599573e-07
C0V640,湖內,2024-12-28,22.887139,120.2445,2.691586e-09
C0R910,下寮,2024-12-28,22.3929,120.5548,7.529672e-09
C0Z020,明里,2024-12-28,23.208717,121.262342,2.8496348e-09
C0M770,嘉義梅山,2024-12-28,23.585398,120.555587,1.1094474e-09
G2F820,農業試驗所,2024-12-28,24.031261,120.688133,8.369821e-10
C0C660,楊梅,2024-12-28,24.912375,121.143047,5.7866686e-07
C1E511,新開,2024-12-28,24.347703,120.827019,2.3780635e-09
G2F820,農試所(霧峰),2024-12-28,24.031261,120.688133,8.369821e-10
C1I070,和社,2024-12-28,23.591131,120.888861,1.8991824e-09
C2F000,大肚,2024-12-28,24.15295,120.572117,1.2848329e-09
C1S850,豐南,2024-12-28,23.122139,121.262389,3.8800114e-09
C2A920,富貴角,2024-12-28,25.263783,121.565258,4.8876973e-07
CAH030,茶改場竹圍站,2024-12-28,23.860083,120.637528,2.371473e-09
C0T960,光復,2024-12-28,23.660694,121.424964,3.4253715e-09
C0F9M0,豐原,2024-12-28,24.254322,120.720692,2.1252478e-09
C0R720,旭海,2024-12-28,22.205403,120.887614,0.99991447
C0V710,苓雅,2024-12-28,22.622742,120.330669,1.3269264e-08
C0C740,觀音工業區,2024-12-28,25.064764,121.114856,0.9997268
CAC040,拉拉山,2024-12-28,24.699317,121.427133,1.1386831e-07
C0V790,萬山,2024-12-28,22.905944,120.688056,1.6167723e-09
U2HA30,臺大和社,2024-12-28,23.590856,120.888864,1.8991824e-09
C0AJ90,澳底,2024-12-28,25.0552,121.9253,8.167242e-09
C0Z100,東華,2024-12-28,23.89525,121.549833,2.8755311e-09
C0G970,三豐,2024-12-28,23.882,120.2895,0.9728021
V2K610,大庄合作社,2024-12-28,23.8068,120.367939,2.0178899e-09
C0V900,汕尾,2024-12-28,22.4782,120.4151,5.442795e-10
C1R630,龍泉,2024-12-28,22.66701,120.59091,8.9125685e-10
C1AC50,關渡,2024-12-28,25.133486,121.469331,1.001311e-08
C0F9I0,神岡,2024-12-28,24.272481,120.658314,2.061075e-09
C0K460,斗南,2024-12-28,23.678734,120.478359,7.4048767e-10
467410,臺南,2024-12-28,22.993239,120.204772,8.479149e-10
C2O810,曾文,2024-12-28,23.219681,120.497328,1.5543218e-09
467280,後龍,2024-12-28,24.648563,120.831834,7.944692e-05
C1F9J1,清水林,2024-12-28,24.071242,120.820419,3.554229e-09
C2A650,火燒寮,2024-12-28,25.002719,121.742892,1.6601726e-08
466930,竹子湖,2024-12-28,25.162078,121.544547,1.45275045e-08
C1I220,樟湖,2024-12-28,23.905333,120.846983,5.164847e-09
C0I390,仁愛,2024-12-28,24.022122,121.132206,3.954923e-09
C0Z300,東里,2024-12-28,23.26853,121.30547,2.6042457e-09
C1V590,新發,2024-12-28,23.057019,120.646064,3.628127e-09
C0K510,水林,2024-12-28,23.572924,120.24597,1.8845285e-09
72S590,東改賓朗果園,2024-12-28,22.813889,121.071278,2.2213953e-08
82A750,茶改北部分場,2024-12-28,24.955778,121.631222,5.5713837e-08
C1A750,石碇服務區,2024-12-28,25.00872,121.646242,3.2792983e-08
C0X300,鹿寮,2024-12-28,23.386047,120.477331,8.545864e-10
G2AI50,關渡,2024-12-28,25.11575,121.492,4.478035e-07
C0K590,雲林東勢,2024-12-28,23.674192,120.255721,1.6881788e-09
C0A570,桶後,2024-12-28,24.848222,121.597992,2.3153905e-08
C1S800,華源,2024-12-28,22.657883,121.02325,2.0609099e-09
C0G720,溪州,2024-12-28,23.851589,120.499093,7.369637e-10
C1V160,達卡努瓦,2024-12-28,23.279811,120.705319,2.999407e-09
C2M410,馬頭山,2024-12-28,23.324361,120.582017,2.0995505e-09
C0V850,蚵仔寮,2024-12-28,22.7256,120.2527,1.2940804e-09
C0S740,池上,2024-12-28,23.119628,121.209469,1.2962969e-08
C1V390,尖山,2024-12-28,22.813153,120.367789,6.170601e-10
C0AH70,松山,2024-12-28,25.04871,121.55042,1.19870265e-08
C0N010,鯤鯓國小,2024-12-28,23.1879,120.0889,2.872993e-09
C0R550,新埤,2024-12-28,22.467947,120.582894,5.468998e-10
C0SA60,知本（水試所）,2024-12-28,22.702394,121.082761,1.9423039e-09
C0T9I0,豐濱,2024-12-28,23.583897,121.514806,4.6129913e-09
C0UB00,淡江大學蘭陽校園,2024-12-28,24.823239,121.730383,2.33327e-08
C0W240,九宮,2024-12-28,24.423753,118.240186,5.042747e-05
C0T9N0,富里,2024-12-28,23.171639,121.249378,5.3054103e-09
U2HA50,臺大竹山,2024-12-28,23.756972,120.681556,9.865522e-10
C0V840,鳳鼻頭,2024-12-28,22.5083,120.3591,1.599705e-09
C0X140,西港,2024-12-28,23.125608,120.203108,7.993336e-10
72D080,桃改五峰分場,2024-12-28,24.612194,121.157167,1.2110595e-08
C2H9P0,伊拿谷,2024-12-28,23.963211,121.088264,3.764777e-09
C2H9F0,柑林,2024-12-28,24.018658,120.847072,1.5004954e-09
C0TA20,加灣,2024-12-28,24.082025,121.608944,1.1309688e-07
C0V530,阿蓮,2024-12-28,22.883208,120.327508,8.908439e-10
C1O880,關山,2024-12-28,23.173397,120.594092,1.4630271e-09
C0E791,卓蘭,2024-12-28,24.3126,120.8244,2.4999112e-09
C1I030,武界,2024-12-28,23.913225,121.052483,3.9370707e-09
C0R520,崁頂,2024-12-28,22.514781,120.506914,4.835201e-10
C0R341,牡丹,2024-12-28,22.130036,120.792639,0.99808615
C0R930,萬丹,2024-12-28,22.5885,120.4851,6.7032363e-10
C0S760,紅石,2024-12-28,23.069131,121.126219,1.7326101e-08
C2C410,中央大學,2024-12-28,24.967652,121.185165,5.404602e-07
C1M610,石磐龍,2024-12-28,23.496606,120.663506,3.4352183e-09
C0UA10,鴛鴦湖,2024-12-28,24.590269,121.412228,2.5855334e-08
V2C260,八德蔬果,2024-12-28,24.978508,121.281819,8.4918305e-08
C0R800,丹路,2024-12-28,22.204481,120.750989,0.9999671
C0G920,永靖,2024-12-28,23.924703,120.547533,7.2761414e-10
C2M950,太和,2024-12-28,23.538372,120.702961,4.739277e-09
C1A630,下盆,2024-12-28,24.771003,121.538622,1.894845e-08
B2N890,畜產試驗所,2024-12-28,23.058972,120.336406,6.986768e-10
C0UA30,白嶺,2024-12-28,24.527819,121.519031,5.1366538e-08
C1V580,溪南(特生中心),2024-12-28,23.084972,120.788475,5.927911e-09
C1T970,大農,2024-12-28,23.615233,121.413331,4.4296247e-09
E2S960,林試太麻里2,2024-12-28,22.598014,120.989761,2.6820746e-09
C0R650,竹田,2024-12-28,22.58486,120.54344,6.4839517e-10
C1H900,清流,2024-12-28,24.080775,120.962997,3.0610687e-09
C1C510,水尾,2024-12-28,24.940081,121.087161,0.0014456339
C0F9X0,大雅(中科園區),2024-12-28,24.21528,120.62445,1.1721631e-09
C0SB60,白守蓮,2024-12-28,23.126769,121.401914,5.05291e-08
C0O970,虎頭埤,2024-12-28,23.021375,120.347878,8.119522e-10
C0C730,中大臨海站,2024-12-28,24.966126,121.008581,0.9241338
C0X250,新營,2024-12-28,23.310689,120.316681,7.014956e-10
C0V700,三民,2024-12-28,22.645017,120.311233,7.9661454e-08
C0U870,大礁溪,2024-12-28,24.791042,121.675047,1.8396355e-08
C0E870,高鐵苗栗,2024-12-28,24.60725,120.826094,0.0001342338
A2K570,古坑花卉中心,2024-12-28,23.63353,120.55239,1.1187867e-09
C0TA30,鹽寮,2024-12-28,23.845606,121.592664,2.827227e-09
C0M860,新美,2024-12-28,23.338017,120.683169,3.749191e-09
C1E701,八卦,2024-12-28,24.491756,120.927619,1.0482227e-08
C0I420,國姓,2024-12-28,24.037803,120.855072,1.5826579e-09
C2D720,關西工作站,2024-12-28,24.757275,121.184792,6.553172e-08
C0S960,香蘭,2024-12-28,22.587569,120.993375,2.6820746e-09
467620,蘭嶼,2024-12-28,22.0369,121.55843,0.4040924
C0R260,春日,2024-12-28,22.370361,120.628306,4.575801e-09
72G600,臺中農改場,2024-12-28,24.003028,120.534389,7.0134176e-10
C0Z210,瑞穗,2024-12-28,23.5239,121.39021,3.3331242e-09
C0M820,達邦,2024-12-28,23.453994,120.749517,3.3306966e-09
C0V860,南寮,2024-12-28,22.7616,120.2339,1.2614441e-09
C0G740,大城,2024-12-28,23.852487,120.320935,0.9688033
C0R920,塭仔,2024-12-28,22.4169,120.5197,8.786136e-09
C0R470,高樹,2024-12-28,22.826389,120.600806,6.386143e-10
C0R680,佳樂水,2024-12-28,21.993578,120.861633,0.98619634
C1O870,大棟山,2024-12-28,23.31157,120.52226,7.4197675e-09
C0D360,梅花,2024-12-28,24.678347,121.208558,1.2251903e-08
C0Z190,富世,2024-12-28,24.14743,121.6297,1.8650861e-07
C0AI10,屈尺,2024-12-28,24.92184,121.54475,2.623737e-07
B2U990,畜試東區分所,2024-12-28,24.669039,121.832561,3.898832e-09
C0SB80,長濱漁港,2024-12-28,23.313644,121.459994,2.0603912e-09
C0R240,來義,2024-12-28,22.527306,120.625111,5.3227195e-10
C0V910,大樹,2024-12-28,22.684645,120.432803,4.825509e-10
C1R610,西大武山,2024-12-28,22.617719,120.7322,2.3319886e-08
C0G900,線西,2024-12-28,24.143358,120.443536,5.401884e-09
C0M700,竹崎,2024-12-28,23.526178,120.555508,8.5413665e-10
C2E880,三義,2024-12-28,24.405478,120.749819,3.895613e-09
C0C720,竹圍,2024-12-28,25.112692,121.239824,4.4808118e-07
C0F9P0,清水,2024-12-28,24.312297,120.562242,3.8051702e-08
C0Z150,吉安光華,2024-12-28,23.930925,121.595153,3.378466e-09
467300,東吉島,2024-12-28,23.25727,119.66762,0.9984503
C1D640,外坪(五指山),2024-12-28,24.644447,121.090961,8.8109235e-09
C0F9O0,潭子,2024-12-28,24.213106,120.703933,2.0150746e-09
C2H9R0,卓社,2024-12-28,23.887894,121.000086,5.564637e-09
72T250,花蓮農改場,2024-12-28,23.975222,121.563889,5.485894e-09
C0E780,銅鑼,2024-12-28,24.489681,120.790853,5.0598903e-09
C1T950,太安,2024-12-28,23.666719,121.370128,2.4054586e-08
C0E830,苑裡,2024-12-28,24.439714,120.653053,5.1150328e-05
467270,田中,2024-12-28,23.873803,120.581286,7.258593e-10
C0SA10,檳榔四格山,2024-12-28,22.810031,121.109308,1.7154976e-08
C1T830,布洛灣,2024-12-28,24.17184,121.57127,3.235991e-08
C0F970,大坑,2024-12-28,24.173142,120.722289,1.0068202e-09
C1U920,思源,2024-12-28,24.393125,121.347214,2.3612646e-08
C0A931,三和,2024-12-28,25.233153,121.595236,3.278479e-08
C0I010,廬山,2024-12-28,24.033311,121.181808,6.4857852e-09
C2M940,日野賀,2024-12-28,23.434056,120.727169,4.241427e-09
C0R860,鼻頭,2024-12-28,22.1043,120.8979,0.9997284
C0UB20,壯圍,2024-12-28,24.7359,121.8163,3.413482e-09
C0R790,九棚,2024-12-28,22.14195,120.889281,0.9995112
C0W110,東莒,2024-12-28,25.9652,119.98069,3.0071564e-05
C1U930,粉鳥林,2024-12-28,24.497088,121.842479,4.5458326e-09
C1I211,蘆竹湳,2024-12-28,23.934019,120.811994,2.7610547e-09
C0S830,長濱,2024-12-28,23.286817,121.411975,2.8354084e-09
C1F9F1,伯公龍,2024-12-28,24.272392,120.849047,2.408281e-09
C0E810,西湖,2024-12-28,24.562947,120.7485,0.9999037
C1I440,新高口,2024-12-28,23.478744,120.878939,1.0440803e-08
C0O840,王爺宮,2024-12-28,23.222064,120.40085,8.764975e-10
C0T9G0,鳳林山,2024-12-28,23.735269,121.420131,5.659949e-09
C0X080,佳里,2024-12-28,23.173039,120.145086,2.872993e-09
C0FB70,大甲溪埔,2024-12-28,24.370625,120.620067,2.0199805e-07
C0Z310,清水斷崖,2024-12-28,24.218294,121.689142,3.4806473e-09
C0M680,太保,2024-12-28,23.455062,120.331455,7.7551837e-10
C1S820,金峰,2024-12-28,22.590969,120.933236,2.5970481e-09
C0AD10,八里,2024-12-28,25.150211,121.403947,4.4808118e-07
C2K240,草嶺,2024-12-28,23.59555,120.693461,4.0729313e-09
C1SA70,都蘭,2024-12-28,22.87794,121.226881,6.993614e-08
C0K440,二崙,2024-12-28,23.772797,120.408944,7.441874e-10
C1A760,坪林交控,2024-12-28,24.94284,121.713442,2.2832577e-08
C0F9N0,大里,2024-12-28,24.092464,120.701378,9.007983e-10
C0SA90,達仁林場,2024-12-28,22.264347,120.823972,1.2612803e-05
C1R290,石門山,2024-12-28,22.112611,120.756597,0.8207822
42HA10,萬大發電廠,2024-12-28,23.978875,121.139639,3.8549897e-09
C0R890,山海,2024-12-28,21.9878,120.7091,0.4031897
C0T9A0,月眉山,2024-12-28,23.809928,121.539828,4.885914e-09
C0AC70,信義,2024-12-28,25.037822,121.564597,1.19870265e-08
C0K560,棋山,2024-12-28,23.68645,120.603417,1.1488996e-09
C2FB50,出雲,2024-12-28,24.206469,120.902794,4.9731943e-09
C1Z240,中平林道,2024-12-28,23.42115,121.26763,2.9914045e-08
U2H480,溪頭,2024-12-28,23.670306,120.798194,4.1930606e-09
C0M880,好美里,2024-12-28,23.3364,120.138,1.2330268e-09
C0T9E0,大坑,2024-12-28,23.880628,121.581981,4.274465e-09
C0K530,臺西,2024-12-28,23.701547,120.197559,4.29626e-05
C1E900,國一N128K,2024-12-28,24.560997,120.844186,1.3568968e-08
C0AJ50,水湳洞,2024-12-28,25.123695,121.862238,4.2240472e-08
C0AI20,白沙灣,2024-12-28,25.283128,121.519058,2.8813884e-06
C2V310,美濃,2024-12-28,22.898792,120.51907,6.2802913e-10
C0A860,大坪,2024-12-28,25.165914,121.632969,1.2910141e-08
C1U850,觀音海岸,2024-12-28,24.38319,121.77856,6.4500463e-09
C2K610,草嶺石壁,2024-12-28,23.602469,120.707731,4.1734247e-09
C0U950,鶯子嶺,2024-12-28,24.89754,121.79244,3.8839968e-08
C0O900,善化,2024-12-28,23.112883,120.297219,6.822004e-10
C0K550,蔦松,2024-12-28,23.514319,120.229736,4.5099404e-09
E2P980,林試六龜中心,2024-12-28,22.991703,120.645722,1.308396e-09
C0E590,通霄,2024-12-28,24.471892,120.704622,0.9974971
C1I310,西巒,2024-12-28,23.754486,120.883956,3.855946e-09
C0A550,泰平,2024-12-28,24.971197,121.823711,3.6240827e-08
C0I360,水里,2024-12-28,23.812553,120.849792,2.1849909e-09
C0R830,高士,2024-12-28,22.121825,120.836781,0.19723341
C1I101,溪頭,2024-12-28,23.661789,120.807647,8.789656e-09
C0AJ20,野柳,2024-12-28,25.20703,121.690021,4.6214303e-08
C0B060,暖暖,2024-12-28,25.0957,121.7403,2.8342635e-08
C1H920,長豐,2024-12-28,24.102039,120.879897,2.2972615e-09
C0V360,內門,2024-12-28,22.975481,120.466769,7.7865164e-10
C0R850,林邊,2024-12-28,22.4634,120.5339,5.446409e-10
C0E930,龍鳳,2024-12-28,24.700034,120.859125,0.96177393
C0U910,冬山,2024-12-28,24.63373,121.7937,3.898832e-09
C1E721,泰安,2024-12-28,24.489017,120.968036,1.1240211e-08
82H320,茶改中部分場,2024-12-28,23.875611,120.913583,5.883698e-09
C0M750,布袋,2024-12-28,23.380878,120.167789,8.710245e-10
C1S860,利嘉,2024-12-28,22.809417,121.050528,5.220817e-09
72C440,桃園農改,2024-12-28,24.950944,121.030583,0.014808144
E2S980,林試太麻里1,2024-12-28,22.598922,120.980044,2.6136058e-09
C0X170,關廟,2024-12-28,22.963017,120.327797,8.209719e-10
C0V720,林園,2024-12-28,22.507747,120.394511,1.6029945e-09
C1I510,線浸林道,2024-12-28,23.761508,120.832956,6.5891657e-09
C0D690,外湖,2024-12-28,24.917735,120.968711,0.081983715
C0C750,新興坑尾,2024-12-28,25.0061,121.0971,0.3792889
B2Q810,畜試南區分所,2024-12-28,21.945583,120.802167,0.9861561
C0S790,金崙,2024-12-28,22.538122,120.966875,4.5869157e-09
C0AH90,福山植物園,2024-12-28,24.760717,121.58135,8.739809e-08
C0I540,奇萊稜線,2024-12-28,24.109231,121.326456,2.7976766e-08
C0M850,表湖,2024-12-28,23.24186,120.64166,2.1217321e-09
C0S770,大溪山,2024-12-28,22.478475,120.943325,1.2712777e-08
C0AG80,中和,2024-12-28,24.991622,121.491792,3.885931e-08
C0T790,大禹嶺,2024-12-28,24.186117,121.316086,2.207537e-08
C0T9B0,水源,2024-12-28,23.991861,121.537169,7.00019e-09
C0R840,牡丹池山,2024-12-28,22.168389,120.841225,0.00087111
C1I131,桶頭,2024-12-28,23.641944,120.654117,1.6179446e-09
CAL110,布袋國中,2024-12-28,23.35893,120.18026,8.710245e-10
467571,新竹,2024-12-28,24.827853,121.014219,0.00036486736
C0Z290,赤柯山,2024-12-28,23.36893,121.38293,1.4022649e-08
C0X280,將軍,2024-12-28,23.214999,120.13577,1.6683901e-09
C0S690,太麻里,2024-12-28,22.60902,120.98533,3.436529e-09
C0U880,北關,2024-12-28,24.9072,121.8734,2.721373e-08
C1H860,瑞岩,2024-12-28,24.123772,121.18345,1.5895322e-08
C0G810,埔心,2024-12-28,23.947633,120.525456,7.2785983e-10
C0U970,大福,2024-12-28,24.80064,121.81389,3.5371863e-09
C2H9N0,仁愛東眼,2024-12-28,24.026875,121.1205,5.8188347e-09
C1E670,南礦,2024-12-28,24.538278,121.002836,1.20131185e-08
C0M520,東後寮,2024-12-28,23.369908,120.248065,8.718539e-10
C1E461,松安,2024-12-28,24.397972,120.986022,9.756915e-09
72G600,臺中農改,2024-12-28,24.003028,120.534389,7.0134176e-10
C2N160,西拉雅風管處,2024-12-28,23.189481,120.335297,7.657468e-10
C2M970,碧湖,2024-12-28,23.568632,120.624165,3.6299266e-09
C0A640,石碇,2024-12-28,24.993969,121.662917,2.6642052e-08
E2S960,林試太麻里2,2024-12-28,22.598,120.99775,2.6916374e-09
C0F9Y0,桃山,2024-12-28,24.432739,121.303808,2.4562917e-08
C1I020,萬大,2024-12-28,23.979817,121.132261,4.0110177e-09
C0U940,羅東,2024-12-28,24.68184,121.74934,3.4842076e-09
C0M650,朴子,2024-12-28,23.43463,120.23902,7.375107e-10
C1I500,大尖山,2024-12-28,23.858572,120.994889,1.1743411e-08
C0G820,田尾,2024-12-28,23.901669,120.509389,7.2761414e-10
E2K600,四湖植物園,2024-12-28,23.676986,120.163433,2.1679403e-05
C0S730,綠島,2024-12-28,22.6672,121.47533,0.9965269
12Q970,東港工作站,2024-12-28,22.479997,120.466058,5.4563387e-10
C0E430,南庄,2024-12-28,24.601775,121.000214,6.84701e-09
C1TA00,太魯閣,2024-12-28,24.15773,121.6236,1.4220706e-07
466920,臺北,2024-12-28,25.037658,121.514853,1.19870265e-08
C0R600,舊泰武,2024-12-28,22.588194,120.664944,2.6240303e-09
C1I260,北坑,2024-12-28,23.9246,121.006903,2.939307e-09
466910,鞍部,2024-12-28,25.182586,121.529731,2.7908918e-08
C1I230,九份二山,2024-12-28,23.961944,120.845,3.4404641e-09
C2A660,瑞芳,2024-12-28,25.113169,121.801147,3.5030407e-08
C0R270,琉球嶼,2024-12-28,22.332244,120.362236,1.5918015e-08
C1T990,高寮,2024-12-28,23.394239,121.356808,2.1721263e-09
C0G620,芬園,2024-12-28,24.015678,120.6213,8.832894e-10
C1Z140,荖溪,2024-12-28,23.890575,121.45964,1.9141336e-08
C1I201,中心崙,2024-12-28,23.728722,120.712097,3.1416674e-09
C1I400,凌霄,2024-12-28,24.018778,121.004456,5.6548446e-09
C1M640,十字,2024-12-28,23.492153,120.753683,4.8508144e-09
G2P820,農試鳳山分所,2024-12-28,22.646611,120.356083,6.3578184e-08
C0Z270,蕃薯寮,2024-12-28,23.73835,121.540108,4.074415e-09
C0F9Q0,外埔,2024-12-28,24.347817,120.705686,3.076398e-09
C0K580,高鐵雲林,2024-12-28,23.737456,120.417944,7.3235784e-10
C2I090,鳳凰,2024-12-28,23.728081,120.787347,3.181193e-09
C0U990,員山,2024-12-28,24.74435,121.72247,3.437473e-09
C0V770,大社,2024-12-28,22.730306,120.346639,1.2479968e-09
C0X120,麻豆,2024-12-28,23.183289,120.248611,7.348078e-10
C0C670,龍潭,2024-12-28,24.870056,121.221389,1.4691318e-06
C0D680,香山濕地,2024-12-28,24.783581,120.914988,2.2564714e-06
C0S980,勝林山,2024-12-28,22.430439,120.8938,3.3754212e-08
C0V730,大寮,2024-12-28,22.605614,120.395717,1.2863759e-08
C0R570,麟洛,2024-12-28,22.65078,120.52719,5.6937177e-10
C2M930,石卓,2024-12-28,23.478744,120.702264,5.7887357e-09
C0G9B0,和美,2024-12-28,24.105169,120.492131,2.3313649e-09
CAG100,王功漁港,2024-12-28,23.96824,120.32586,0.9910413
C0X290,北門,2024-12-28,23.267772,120.125481,1.6683901e-09
C2F930,大甲,2024-12-28,24.347667,120.640403,1.02761724e-07
C0D650,湖口,2024-12-28,24.904794,121.043628,0.0018012869
C0E420,竹南,2024-12-28,24.708978,120.888897,0.9295153
C0U780,五結,2024-12-28,24.68637,121.79794,3.413482e-09
C1I250,鯉潭,2024-12-28,23.961922,120.991131,2.9212655e-09
C0R130,阿禮,2024-12-28,22.742908,120.743678,4.523639e-09
C0X100,臺南市北區,2024-12-28,23.010394,120.194228,8.620993e-10
C0S920,金峰嘉蘭,2024-12-28,22.594789,120.960825,2.6152562e-09
C0V490,新興,2024-12-28,22.627422,120.298803,1.3197076e-08
C0F9K0,大安,2024-12-28,24.345061,120.588025,2.134251e-07
72N100,臺南農改,2024-12-28,23.0605,120.342194,6.986768e-10
467290,古坑,2024-12-28,23.633639,120.551889,1.1187867e-09
C2E970,八甲,2024-12-28,24.535811,120.795983,1.0443591e-08
C0V440,鳳山,2024-12-28,22.646653,120.356122,6.3578184e-08
C1T940,大觀,2024-12-28,23.714206,121.373133,5.06213e-09
72T250,花蓮農改,2024-12-28,23.975222,121.563889,5.485894e-09
C0E740,造橋,2024-12-28,24.637056,120.864778,0.00013310766
C0R100,尾寮山,2024-12-28,22.833111,120.683889,5.113094e-09
A2K630,臺大雲林校區,2024-12-28,23.730628,120.423903,7.3217626e-10
467990,馬祖,2024-12-28,26.169467,119.923158,1.600984e-07
C0D580,寶山,2024-12-28,24.735006,121.025192,8.49058e-09
E2P990,林試扇平站,2024-12-28,22.9677,120.6857,2.4996871e-09
C0AI30,三重,2024-12-28,25.057328,121.500629,1.2108471e-08
C0AH00,汐止,2024-12-28,25.066881,121.658778,1.19870265e-08
C1Z040,立山,2024-12-28,23.443356,121.327375,1.1387142e-08
466881,新北,2024-12-28,24.959207,121.525196,3.7434624e-08
C0W130,花嶼,2024-12-28,23.40007,119.32276,0.98152953
C0A950,鼻頭角,2024-12-28,25.129036,121.923372,0.0001974616
C0K470,林內,2024-12-28,23.748675,120.609642,8.7293217e-10
C2F990,摩天嶺,2024-12-28,24.322458,120.936819,4.22415e-09
82C160,茶改場,2024-12-28,24.908472,121.185333,3.8435533e-07
C0Z320,清水林道,2024-12-28,23.27125,121.188272,9.717708e-09
C0R760,南仁湖,2024-12-28,22.084681,120.863353,0.8252948
C0M670,大林,2024-12-28,23.600616,120.45841,7.127505e-10
C0M800,茶山,2024-12-28,23.299075,120.664767,3.246945e-09
C0A9C0,天母,2024-12-28,25.117494,121.537169,1.0066691e-08
72K220,南改斗南分場,2024-12-28,23.634556,120.477333,7.4048767e-10
72AI40,桃改樹林分場,2024-12-28,24.944503,121.386972,2.0542825e-06
C0S910,蘭嶼燈塔,2024-12-28,22.081197,121.503117,0.72653687
C0B050,八斗子,2024-12-28,25.144754,121.79167,4.491906e-08
C0U900,內城,2024-12-28,24.71813,121.68766,3.5792433e-09
C0X320,柳營,2024-12-28,23.253328,120.375253,7.603879e-10
C0M790,新港,2024-12-28,23.553269,120.345728,7.557293e-10
C0F9T0,西屯,2024-12-28,24.179494,120.641275,7.619719e-10
C0SA30,都歷,2024-12-28,23.020333,121.323642,3.1868288e-09
C0C620,蘆竹,2024-12-28,25.084275,121.265767,2.1217418e-05
C0R730,大坪頂,2024-12-28,22.024633,120.69355,0.9995717
C0AJ40,石門,2024-12-28,25.273672,121.601198,7.3517856e-07
C0E750,苗栗,2024-12-28,24.564569,120.824575,1.3681574e-08
C0T870,鯉魚潭,2024-12-28,23.935639,121.508944,3.5657857e-09
C1V170,排雲,2024-12-28,23.463619,120.954147,2.076362e-08
C2H950,中寮,2024-12-28,23.884447,120.766406,1.4454529e-09
C0R350,貓鼻頭,2024-12-28,21.921774,120.7358,0.18943454
C0V660,岡山,2024-12-28,22.797078,120.294958,2.6252267e-09
C1H941,雙冬,2024-12-28,23.967378,120.802189,3.0065093e-09
C0AJ70,田寮,2024-12-28,25.2698,121.4886,3.3189808e-06
C0AI00,五股,2024-12-28,25.07445,121.42728,3.640301e-08
C0Z280,德武,2024-12-28,23.47426,121.41071,2.3646574e-09
C0R700,枋山,2024-12-28,22.246844,120.661086,0.9976325
C0C460,復興,2024-12-28,24.820208,121.352281,5.8211907e-07
E2H360,蓮華池,2024-12-28,23.918333,120.885278,3.3109853e-09
C0M640,中埔,2024-12-28,23.42538,120.5229,8.312547e-10
C0W140,金沙,2024-12-28,24.488292,118.408778,2.4595405e-08
C2A540,四堵,2024-12-28,24.8926,121.745736,2.2168283e-08
C0ACA0,新莊,2024-12-28,25.051478,121.446756,1.3325696e-08
C0R220,潮州,2024-12-28,22.534361,120.54,4.891525e-10
U2HA40,臺大內茅埔,2024-12-28,23.689722,120.851117,1.7160923e-09
467490,臺中,2024-12-28,24.145736,120.684075,9.364874e-10
C0U960,翠峰湖,2024-12-28,24.510856,121.608044,5.744797e-08
E2HA20,林試畢祿溪站,2024-12-28,24.226944,121.308522,2.3712344e-08
C0V890,前鎮,2024-12-28,22.5718,120.3117,1.4111782e-08
467620,蘭嶼,2024-12-28,22.036969,121.558339,0.4040924
C1F941,雪嶺,2024-12-28,24.280586,121.026642,3.3182197e-08
C2H9E0,國姓南港,2024-12-28,23.911108,120.846556,5.3836366e-09
C0AC80,文山,2024-12-28,25.00235,121.575728,3.6143426e-08
C0F9R0,龍井,2024-12-28,24.184536,120.528972,1.5095328e-08
C0M760,民雄,2024-12-28,23.551754,120.428457,7.0876216e-10
C0UA40,西德山,2024-12-28,24.560647,121.752608,5.1031197e-08
C1T920,中興,2024-12-28,23.769503,121.498653,3.0358747e-09
C0D550,雪霸,2024-12-28,24.526972,121.11605,1.1555327e-08
C2F860,梨山,2024-12-28,24.247522,121.243669,2.4168271e-08
C0R320,車城,2024-12-28,22.0744,120.716247,0.88676655
C1S870,南美山,2024-12-28,23.15025,121.382333,5.2788227e-09
C0B020,基隆嶼,2024-12-28,25.19141,121.78391,0.10915429
C1U501,牛鬥,2024-12-28,24.637836,121.573656,1.3937136e-08
C0M730,嘉義市東區,2024-12-28,23.457673,120.460531,7.0026174e-10
C0S700,知本,2024-12-28,22.684866,121.005642,3.1324707e-09
C1N001,沙崙,2024-12-28,22.935472,120.309406,8.0818685e-10
C0V760,橋頭,2024-12-28,22.757806,120.30575,1.2419392e-09
C0G960,福寶,2024-12-28,24.0443,120.3814,2.4090205e-09
C0X210,白河,2024-12-28,23.347466,120.414427,8.1373364e-10
C0S810,東河,2024-12-28,22.972672,121.303986,0.98833776
C2R170,屏東,2024-12-28,22.66027,120.49403,5.6937177e-10
C0R670,楓港,2024-12-28,22.190131,120.692156,0.9974622
C0FA50,霧峰,2024-12-28,24.0419,120.6995,8.4393126e-10
C0UB10,蘇澳,2024-12-28,24.5969,121.8571,1.0736579e-08
C0G950,防潮門,2024-12-28,24.1835,120.4871,1.50953e-08
C0M740,六腳,2024-12-28,23.492871,120.290625,7.1905076e-10
C1R250,力里,2024-12-28,22.428117,120.629228,6.604047e-10
C0K330,虎尾,2024-12-28,23.719183,120.442036,7.3862005e-10
C2FA00,烏石坑,2024-12-28,24.273503,120.947617,4.1326778e-09
C0V620,永安,2024-12-28,22.82315,120.236856,2.6252267e-09
C1I330,楓樹林,2024-12-28,23.986803,121.076117,4.6121293e-09
C0W200,湖西,2024-12-28,23.596314,119.67275,0.9886293
72Q010,高雄農改場,2024-12-28,22.709333,120.525889,5.3174837e-10
C0SA40,瑞和,2024-12-28,22.974361,121.156697,7.4435382e-09
C0C680,龜山,2024-12-28,25.02846,121.38656,3.1681157e-08
C2V260,月眉,2024-12-28,22.971003,120.539853,7.34756e-10
C0V450,鳳森,2024-12-28,22.545064,120.392592,1.5133488e-09
C0U720,南山,2024-12-28,24.43742,121.38167,2.7513885e-08
A2N290,臺南蘭花園區,2024-12-28,23.340258,120.379661,7.207424e-10
C0R560,新園,2024-12-28,22.5434,120.461558,1.6029945e-09
C0U890,三星,2024-12-28,24.66812,121.65302,1.3410705e-08
C1V300,御油山,2024-12-28,23.001983,120.715364,6.5253305e-09
C0U600,礁溪,2024-12-28,24.817539,121.765608,9.146162e-09
C1T980,龍澗,2024-12-28,24.023289,121.411328,3.5491702e-08
C0D670,海天一線,2024-12-28,24.831986,120.914438,0.99936926
C0SA00,歷坵,2024-12-28,22.520969,120.89185,4.717803e-09
C0M710,東石,2024-12-28,23.458927,120.15385,1.6484128e-08
C0M780,鹿草,2024-12-28,23.41134,120.30835,7.398848e-10
C0U520,雙連埤,2024-12-28,24.753033,121.641303,1.845251e-08
C0B010,七堵,2024-12-28,25.094819,121.71713,3.060504e-08
C0R480,長治,2024-12-28,22.693128,120.542622,5.172929e-10
C1V830,國三S383K,2024-12-28,22.781967,120.426475,6.0815314e-10
12Q980,恆春工作站,2024-12-28,22.079678,120.714425,0.88676655
C1O940,東山服務區,2024-12-28,23.286016,120.398472,9.1829344e-10
C1U840,東澳嶺,2024-12-28,24.5378,121.8485,1.7687452e-08
C1D630,飛鳳山,2024-12-28,24.766464,121.119178,7.205246e-08
C0S940,石寧山,2024-12-28,23.223772,121.406639,2.4774072e-09
C0K410,北港,2024-12-28,23.573957,120.292802,1.9035777e-09
C2M620,瑞里,2024-12-28,23.545133,120.675197,4.1652095e-09
C0SB70,小港漁港,2024-12-28,23.158558,121.400431,6.2759713e-09
C2O950,安南,2024-12-28,23.076694,120.144861,1.3864991e-08
C0F0E0,南湖圈谷,2024-12-28,24.363714,121.444667,5.009468e-08
467610,成功,2024-12-28,23.097486,121.373428,4.1139696e-08
C0G890,伸港,2024-12-28,24.148933,120.484403,5.401884e-09
C2E540,龍溪,2024-12-28,24.606489,120.783933,0.00014650056
C1V200,梅山,2024-12-28,23.268447,120.823556,2.5443696e-09
C0T9H0,加路蘭山,2024-12-28,23.682947,121.5274,7.604377e-09
C2O930,玉井,2024-12-28,23.126042,120.46055,7.625258e-10
C1F911,新伯公,2024-12-28,24.221361,120.841069,2.5412463e-09
C0R490,九如,2024-12-28,22.7405,120.490503,5.277602e-10
C0X200,左鎮,2024-12-28,23.056758,120.408522,8.065884e-10
C0SB50,叭嗡嗡,2024-12-28,23.047062,121.343223,3.1524658e-09
C1F891,稍來,2024-12-28,24.265689,121.001142,1.9584947e-08
72N240,七股研究中心,2024-12-28,23.081672,120.062894,1.636652e-08
C0C700,中壢,2024-12-28,24.977661,121.256375,7.8908364e-08
C0M690,水上,2024-12-28,23.419734,120.388909,7.829721e-10
C0V690,鼓山,2024-12-28,22.623325,120.275575,1.3197076e-08
C0O860,大內,2024-12-28,23.11885,120.36083,6.942532e-10
C0Z200,萬榮,2024-12-28,23.709219,121.420106,3.4072374e-09
C0T9D0,和中,2024-12-28,24.26676,121.74103,2.5948794e-09
C1O921,楠西,2024-12-28,23.183511,120.484083,8.869478e-10
C0AJ30,淡水觀海,2024-12-28,25.184591,121.408616,9.304542e-08
C0V810,左營,2024-12-28,22.67491,120.28491,7.9661454e-08
C0UA70,桃源谷,2024-12-28,24.962606,121.888875,3.5809183e-08
C0X130,官田,2024-12-28,23.193217,120.315422,7.6402823e-10
C1H000,翠峰,2024-12-28,24.109397,121.205211,1.5664536e-08
C0UA90,石城,2024-12-28,24.980444,121.951214,1.8838504e-08
C1E681,南勢山,2024-12-28,24.421669,120.923831,8.641691e-09
C0A9F0,內湖,2024-12-28,25.079422,121.57545,1.19870265e-08
C0K291,宜梧,2024-12-28,23.536281,120.169329,4.5189474e-09
C1K540,口湖,2024-12-28,23.585344,120.180517,0.008959857
C0R780,滿州,2024-12-28,22.024403,120.839892,0.9998198
C0V870,文安,2024-12-28,22.8025,120.2164,2.7484341e-09
C0U650,玉蘭,2024-12-28,24.675286,121.587061,2.5532868e-08
C0R640,東港,2024-12-28,22.46247,120.44074,5.4563387e-10
K2E360,苗栗農改,2024-12-28,24.495722,120.829111,5.286541e-09
C0AJ80,板橋,2024-12-28,25.0107,121.4489,3.9482398e-08
C0S660,下馬,2024-12-28,23.150427,121.070312,7.3778827e-09
C1H9B1,阿眉,2024-12-28,24.1263,120.994672,1.4147167e-08
C0UA20,多加屯,2024-12-28,24.368614,121.373189,1.805682e-08
C0E730,頭份,2024-12-28,24.688247,120.912206,0.9419539
72V140,高改旗南分場,2024-12-28,22.857861,120.516667,6.2802913e-10
C0K480,莿桐,2024-12-28,23.761192,120.502372,6.990927e-10
C0U980,坪林石牌,2024-12-28,24.86478,121.77396,2.4151404e-08
C0T900,西林,2024-12-28,23.8119,121.441458,3.4453236e-09
C1I150,青雲,2024-12-28,23.793361,120.949378,2.146636e-09
467350,澎湖,2024-12-28,23.565503,119.563094,0.9850738
C0G800,埔鹽,2024-12-28,24.000394,120.431683,2.2385307e-09
C0H960,草屯,2024-12-28,23.973672,120.68085,8.782613e-10
C1V780,多納林道,2024-12-28,22.888028,120.737917,4.365477e-09
C0E920,通霄漁港,2024-12-28,24.498589,120.673876,0.99800116
C0Z330,安通山,2024-12-28,23.290728,121.348528,3.9087724e-09
C0AH10,永和,2024-12-28,25.01125,121.508111,3.9482398e-08
C0AK10,太平里,2024-12-28,25.134937,121.364899,4.270551e-07
C2G640,鹿港,2024-12-28,24.0753,120.430481,2.4083773e-09
C1E890,國三N149K,2024-12-28,24.463414,120.680019,3.0736588e-05
C1R110,口社,2024-12-28,22.770111,120.645222,1.7607868e-09
C1M870,國三N285K,2024-12-28,23.550319,120.505833,1.0377741e-09
467050,新屋,2024-12-28,25.006744,121.047486,0.8414622
C1E480,鳳美,2024-12-28,24.554803,121.034747,9.67008e-09
C0M530,奮起湖,2024-12-28,23.493903,120.699253,4.772031e-09
C0C590,觀音,2024-12-28,25.027072,121.153317,0.99919134
C0T9M0,靜浦,2024-12-28,23.455167,121.495028,2.048307e-09
C2H9M0,發祥,2024-12-28,24.154094,121.164517,1.00746425e-08
C0AI40,石牌,2024-12-28,25.115597,121.513139,1.0198962e-08
C1F871,上谷關,2024-12-28,24.203483,121.018644,4.6007425e-09
C2H9G0,百勝,2024-12-28,24.051142,120.909361,2.542851e-09
C0G880,二水,2024-12-28,23.810742,120.6173,9.0179025e-10
C0R940,加祿堂,2024-12-28,22.3363,120.6217,0.89470816
C0W220,北竿,2024-12-28,26.220358,119.974881,6.118081e-07
C0O960,崎頂,2024-12-28,22.959547,120.369317,8.9735835e-10
C0S750,向陽,2024-12-28,23.248397,120.986133,1.1085553e-08
C0T9F0,水璉,2024-12-28,23.797131,121.542514,3.760636e-09
C1M600,頭凍,2024-12-28,23.406364,120.603339,2.9001468e-09
467660,臺東,2024-12-28,22.752211,121.154586,0.55671656
C1D380,新埔,2024-12-28,24.84745,121.03834,3.4034358e-05
C2G980,田頭村,2024-12-28,23.8263,120.444175,7.5092593e-10
C0V750,路竹,2024-12-28,22.854997,120.259439,2.7031928e-09
C0N050,蚵寮,2024-12-28,23.301,120.1104,1.2330268e-09
72M700,南改鹿草分場,2024-12-28,23.416869,120.283061,7.37034e-10
C1SA50,利嘉林道,2024-12-28,22.82325,121.009389,2.1709923e-08
467550,玉山,2024-12-28,23.487614,120.959522,2.6863457e-08
C0A940,金山,2024-12-28,25.223628,121.643967,4.4506464e-08
C1V340,大津,2024-12-28,22.888322,120.645986,1.0815705e-09
C0W180,七美,2024-12-28,23.219333,119.444892,0.9955587
C1F9C1,白冷,2024-12-28,24.182844,120.929889,3.3633436e-09
K2E710,苗改生物防治研究中心,2024-12-28,24.422861,120.871833,2.792179e-09
C0N040,蘆竹溝,2024-12-28,23.2344,120.0961,1.6675661e-09
C2W230,畜試所澎湖,2024-12-28,23.628342,119.513206,0.9830015
C0R880,後壁湖,2024-12-28,21.9457,120.7457,0.41565284
C1I280,埔中,2024-12-28,23.820778,120.642594,2.7552731e-09
467790,墾丁雷達站,2024-12-28,21.948235,120.808028,0.9876504
C0W190,望安,2024-12-28,23.380564,119.494075,0.9933866
466881,新北,2024-12-28,24.9593,121.52,3.7963186e-08
C0Z170,卓溪,2024-12-28,23.3443,121.3029,2.4320397e-09
C0F850,東勢,2024-12-28,24.246428,120.833047,2.7938516e-09
466900,淡水,2024-12-28,25.164889,121.448906,4.272645e-07
C0I370,魚池,2024-12-28,23.895703,120.94135,3.726562e-09
C0C630,大溪,2024-12-28,24.882853,121.265547,2.2853353e-06
C0A520,山佳,2024-12-28,24.974944,121.402008,4.878662e-08
C0I110,竹山,2024-12-28,23.761225,120.688156,1.018632e-09
82H840,茶改南部分場,2024-12-28,23.762528,120.7405,2.6439602e-09
C0G660,溪湖,2024-12-28,23.94835,120.479122,7.1667927e-10
C1T800,洛韶,2024-12-28,24.204558,121.453956,2.529453e-08
C1T810,慈恩,2024-12-28,24.192044,121.388386,1.2961165e-08
C1E451,象鼻,2024-12-28,24.368617,120.940228,5.0722004e-09
C0AC60,三峽,2024-12-28,24.939025,121.369728,1.7572686e-06
C0I490,萬大林道,2024-12-28,23.928228,121.091411,7.1712543e-09
C1I290,豐丘,2024-12-28,23.668178,120.887417,4.4719517e-09
C1I320,奧萬大,2024-12-28,23.952956,121.178556,4.66979e-09
C2M910,嘉義大學,2024-12-28,23.471325,120.485903,7.363975e-10
C0U770,南澳,2024-12-28,24.44935,121.81022,4.8531463e-09
C0A980,社子,2024-12-28,25.109508,121.469681,5.224072e-07
C0V800,六龜,2024-12-28,22.997889,120.633583,1.2751991e-09
C1G9D0,國一S218K,2024-12-28,23.890641,120.493253,7.331419e-10
C0E570,白沙屯,2024-12-28,24.549447,120.696803,0.99984616
C2F9A0,中竹林,2024-12-28,24.103556,120.751061,1.90123e-09
C0FA40,臺中電廠,2024-12-28,24.2146,120.4907,1.50953e-08
C2G9A0,畜試所彰化,2024-12-28,23.86045,120.557964,7.2585793e-10
C0H9C0,合歡山,2024-12-28,24.143442,121.272547,3.0143774e-08
C0X060,下營,2024-12-28,23.22695,120.256261,7.253195e-10
G2M350,農試溪口農場,2024-12-28,23.58565,120.408111,7.02603e-10
C0U860,頭城,2024-12-28,24.85323,121.8308,9.120362e-09
C0R580,南州,2024-12-28,22.48591,120.50274,5.4563387e-10
C0D430,峨眉,2024-12-28,24.6905,121.017189,2.1003006e-08
C0G780,秀水,2024-12-28,24.03405,120.503869,7.0183154e-10
72N100,臺南農改場,2024-12-28,23.0605,120.342194,6.986768e-10
C0S900,蘭嶼高中,2024-12-28,22.04909,121.51214,0.8823206
467540,大武,2024-12-28,22.355675,120.903789,1.7741477e-05
C1F9W0,德基,2024-12-28,24.254783,121.190261,1.6627965e-08
C1Z120,壽豐,2024-12-28,23.870853,121.508081,2.8755311e-09
C0W160,烏坵,2024-12-28,24.9944,119.44956,0.97822636
C1I240,外大坪,2024-12-28,23.958697,120.917931,2.9890814e-09
C1I550,國六W023K,2024-12-28,23.979067,120.867742,2.1321866e-09
C0R870,興海,2024-12-28,21.9752,120.8439,0.9861561
C0R140,瑪家,2024-12-28,22.682903,120.686639,1.9666542e-09
C0A530,坪林,2024-12-28,24.938183,121.70975,2.233052e-08
C0X260,後壁,2024-12-28,23.366358,120.362326,7.207424e-10
C0Z230,和平,2024-12-28,24.30717,121.77007,2.6043996e-09
C0G770,福興,2024-12-28,24.041289,120.437669,2.2385307e-09
C0H9A0,神木村,2024-12-28,23.532742,120.843667,5.027912e-09
C0I460,南投,2024-12-28,23.911469,120.687331,1.104313e-09
C0I480,梅峰,2024-12-28,24.085272,121.173572,1.012131e-08
C1V570,吉東,2024-12-28,22.85422,120.5454,6.397786e-10
C2D740,屯原,2024-12-28,24.067969,121.209389,8.991304e-09
C2A560,福山,2024-12-28,24.776203,121.502811,9.966374e-08
C0AH30,五分山,2024-12-28,25.07125,121.780794,3.017547e-08
C0FA10,松柏,2024-12-28,24.429115,120.617482,8.678966e-05
72S200,東改班鳩分場,2024-12-28,22.829528,121.077694,2.9455492e-08
72HA00,中改埔里分場,2024-12-28,23.903208,120.963364,3.1456127e-09
C2H9W0,大坪頂農水,2024-12-28,24.043122,120.932781,2.332815e-09
C0C650,平鎮,2024-12-28,24.897503,121.214636,3.714118e-07
C0S930,延平,2024-12-28,22.902581,121.084058,1.8254934e-08
C0UA60,樟樹山,2024-12-28,24.41393,121.78325,2.4703775e-08
C1S670,摩天,2024-12-28,23.199503,121.027,2.0776376e-08
C0V630,茄萣,2024-12-28,22.906642,120.182608,2.8509342e-09
466940,基隆,2024-12-28,25.133314,121.740475,4.4105228e-08
C0X050,東河,2024-12-28,23.296598,120.385608,9.006643e-10
C0R770,保力,2024-12-28,22.071122,120.764111,0.99878144
G2L020,農試嘉義分所,2024-12-28,23.485028,120.473806,7.6738e-10
C0X240,關子嶺,2024-12-28,23.331169,120.508025,2.4022113e-09
C0I380,集集,2024-12-28,23.828206,120.801467,2.1751694e-09
466990,花蓮,2024-12-28,23.975128,121.613275,5.500038e-09
C1V220,小關山,2024-12-28,23.154217,120.813603,7.5822175e-09
C1F9G1,慶福山,2024-12-28,24.180853,120.848378,3.9800163e-09
C0Z250,瑞穗林道,2024-12-28,23.49284,121.30688,3.765964e-08
C0D590,新豐,2024-12-28,24.87068,120.97721,0.99980694
C0A870,五指山,2024-12-28,25.132153,121.608692,1.5176537e-08
C0UA50,西帽山,2024-12-28,24.555361,121.802628,5.1309843e-08
C0X160,仁德,2024-12-28,22.968258,120.257689,1.2088505e-09
C1H971,六分寮,2024-12-28,23.92507,120.6378,1.966853e-09
C0W120,西嶼,2024-12-28,23.5626,119.468436,0.9904316
C0G650,員林,2024-12-28,23.946503,120.585597,7.73496e-10
C0AD50,鶯歌,2024-12-28,24.951533,121.346294,1.2171764e-06
C2H9Q0,北東眼山,2024-12-28,24.120939,121.189303,1.8485801e-08
C2H9T0,名間竹圍,2024-12-28,23.859914,120.637572,2.371473e-09
C0S990,山豬窟,2024-12-28,22.318619,120.857372,1.6735482e-06
72Q010,高雄農改,2024-12-28,22.709333,120.525889,5.3174837e-10
C0X190,安平,2024-12-28,22.993161,120.152181,8.641736e-10
C0K400,斗六,2024-12-28,23.720583,120.541127,7.23326e-10
12J990,口湖工作站,2024-12-28,23.589978,120.180394,0.008959857
C0O830,北寮,2024-12-28,23.079561,120.495008,8.4514423e-10
C1D410,白蘭,2024-12-28,24.579364,121.079947,1.28577495e-08
C0S970,加津林,2024-12-28,22.416211,120.926942,9.685756e-06
C0D700,關西,2024-12-28,24.7977,121.1732,7.16721e-08
C0M810,里佳,2024-12-28,23.389125,120.716647,4.775919e-09
C0U750,龜山島,2024-12-28,24.841667,121.953133,0.010474625
C0R810,內獅,2024-12-28,22.305064,120.642986,0.91864985
C1M390,龍美,2024-12-28,23.406728,120.654417,3.6037535e-09
C2FB60,頭櫃山,2024-12-28,24.129842,120.858925,4.315984e-09
C1H840,國三N238K,2024-12-28,23.841008,120.707711,2.2128943e-09
CAQ030,崎峰國小,2024-12-28,22.42565,120.49521,5.4563387e-10
C2E520,大湖,2024-12-28,24.414939,120.870872,2.9111422e-09
467530,阿里山,2024-12-28,23.508208,120.813242,1.2972641e-08
C1E691,南湖,2024-12-28,24.40135,120.837533,7.3486843e-09
C0FA30,梧棲,2024-12-28,24.256003,120.523381,3.8051702e-08
C1V231,高中,2024-12-28,23.134911,120.716711,3.234854e-09
C0F9V0,新社,2024-12-28,24.200172,120.815806,2.9509575e-09
C0H890,埔里,2024-12-28,23.972169,120.952425,2.4037192e-09
C0R690,墾丁,2024-12-28,21.966756,120.810269,0.9996084
C0F0D0,審馬陣,2024-12-28,24.381675,121.4203,2.4028953e-08
C2W030,金門農試所,2024-12-28,24.448431,118.451786,7.2890754e-05
C0R820,白鷺,2024-12-28,22.454275,120.666219,2.672464e-09
U2H480,臺大溪頭,2024-12-28,23.670306,120.798194,4.1930606e-09
C1V190,南天池,2024-12-28,23.27403,120.91176,9.95839e-09
K2E360,苗栗農改場,2024-12-28,24.495722,120.829111,5.286541e-09
CAJ050,海口故事園區,2024-12-28,23.57543,120.14121,0.008959857
C2H9D0,三隻寮,2024-12-28,24.093078,120.861578,2.3913176e-09
C0O990,媽廟,2024-12-28,22.99175,120.293525,7.1927575e-10
C0D480,打鐵坑,2024-12-28,24.849664,121.150789,1.4317255e-06
C0Z220,和平林道,2024-12-28,24.343922,121.656317,5.7640235e-09
C0TA10,花蓮漁港,2024-12-28,23.995322,121.638331,5.548062e-09
72C440,桃園農改場,2024-12-28,24.950944,121.030583,0.014808144
C1E711,馬拉邦山,2024-12-28,24.367306,120.901656,5.252319e-09
C0SB20,富岡,2024-12-28,22.792467,121.192669,5.5007223e-07
C0D560,竹東,2024-12-28,24.767147,121.057881,7.7641154e-08
C0F9U0,南屯,2024-12-28,24.137006,120.637969,7.3071693e-10
C0M720,番路,2024-12-28,23.464657,120.554156,9.452465e-10
C0F0A0,雪山圈谷,2024-12-28,24.388594,121.236339,3.229455e-08
C1A9N0,四十份,2024-12-28,24.934158,121.593283,6.073828e-08
C0U760,東澳,2024-12-28,24.52196,121.83318,4.6359245e-09
C0X230,鹽水,2024-12-28,23.272621,120.247641,1.2376898e-09
C2H9H0,苗改南投蜂場,2024-12-28,23.852589,120.693481,1.3382081e-09
C0R950,萬隆國小,2024-12-28,22.507667,120.587817,5.118029e-10
467540,大武,2024-12-28,22.35572,120.90374,1.7741477e-05
C0V370,古亭坑,2024-12-28,22.893178,120.401947,7.7049656e-10
C1I340,新興橋,2024-12-28,23.563333,120.868728,3.0725043e-09
C0SA80,土坂,2024-12-28,22.453108,120.887572,2.4766287e-08
C0R160,鹽埔,2024-12-28,22.739558,120.530778,5.3174837e-10
C0AC40,大屯山,2024-12-28,25.175675,121.522408,3.0269895e-08
466850,五分山雷達站,2024-12-28,25.071182,121.781205,3.0293e-08
C2H9L0,馬烈霸,2024-12-28,24.1512,121.201772,1.8282078e-08
C1AI50,國三N016K,2024-12-28,25.034164,121.619664,1.1854968e-08
C1V600,藤枝,2024-12-28,23.071961,120.757042,5.184676e-09
C1E601,南勢,2024-12-28,24.572486,120.734842,0.9999457
C0Z180,新城,2024-12-28,24.03946,121.60454,5.5227125e-09
C0O980,新市,2024-12-28,23.061614,120.298197,6.821666e-10
C0K420,西螺,2024-12-28,23.800407,120.467394,7.526179e-10
C0Z050,佳心,2024-12-28,23.34567,121.21316,1.3068452e-08
C0AD30,蘆洲,2024-12-28,25.086594,121.472331,1.2108471e-08
C0V610,梓官,2024-12-28,22.760558,120.267211,1.2419392e-09
K2F750,種苗改良場,2024-12-28,24.225972,120.800917,2.7569291e-09
C0UA80,大溪漁港,2024-12-28,24.941801,121.902955,2.7061553e-08
C1AI60,國一39K邊坡,2024-12-28,25.064361,121.383836,3.3851503e-08
C0W150,金寧,2024-12-28,24.457703,118.328989,4.7511483e-05
C0R960,內埔,2024-12-28,22.608483,120.570714,6.6164024e-10
V2C250,八德合作社,2024-12-28,24.93775,121.266389,5.7212975e-07
C2H9S0,龍南,2024-12-28,23.953536,120.833183,5.0998286e-09
C0AH40,平等,2024-12-28,25.129142,121.577086,1.3348259e-08
C0R540,佳冬,2024-12-28,22.419456,120.552375,7.4414377e-09
466950,彭佳嶼,2024-12-28,25.627975,122.079744,0.9999953
C0A890,雙溪,2024-12-28,25.036003,121.864242,8.058645e-09
C0C480,桃園,2024-12-28,24.992425,121.323172,8.479061e-08
C0AH50,林口,2024-12-28,25.072181,121.38084,3.078372e-08
A2K360,水試臺西試驗場,2024-12-28,23.717231,120.190522,4.581273e-05
B2N890,畜試所,2024-12-28,23.058972,120.336406,6.986768e-10
C2M960,外寮,2024-12-28,23.562643,120.665688,3.795933e-09
C0F9S0,烏日,2024-12-28,24.107058,120.624103,8.604549e-10
C0C490,八德,2024-12-28,24.928708,121.283289,5.619023e-07
C0R190,赤山,2024-12-28,22.592333,120.614306,6.629679e-10
C0T820,天祥,2024-12-28,24.179597,121.495639,3.033561e-08
C1F9E1,龍安,2024-12-28,24.1605,120.831961,3.1988197e-09
C0V820,小林,2024-12-28,23.148408,120.63325,1.8427669e-09
C2G870,芳苑,2024-12-28,23.922303,120.320025,0.9905074
C0E850,大河,2024-12-28,24.618069,120.948578,6.8464225e-09
C1U670,寒溪,2024-12-28,24.634,121.71691,4.2371253e-09
C0N020,城西,2024-12-28,23.0568,120.0956,8.620993e-10
C1Z110,三棧,2024-12-28,24.11557,121.60501,2.9657143e-08
C0R280,檳榔,2024-12-28,22.076078,120.836777,0.99743885
C2H9J0,中台,2024-12-28,23.9996,120.938739,2.5414209e-09
C0F9L0,后里,2024-12-28,24.310436,120.729725,2.159601e-09
467441,高雄,2024-12-28,22.730432,120.312516,1.2719198e-09
C0D540,橫山,2024-12-28,24.71116,121.11693,8.526802e-09
C1D420,太閣南,2024-12-28,24.632808,121.160575,1.6283757e-08
C1E770,公館,2024-12-28,24.526914,120.830806,5.318906e-09
CAN130,水試所海水繁養殖中心,2024-12-28,23.120802,120.07968,1.636652e-08
C1I430,翠華,2024-12-28,24.191961,121.224339,1.6815726e-08
C1M400,菜瓜坪,2024-12-28,23.251928,120.576103,3.2460286e-09
C0G730,二林,2024-12-28,23.903325,120.376081,2.7098004e-09
72M360,南改義竹分場,2024-12-28,23.360694,120.279361,8.7158125e-10
V2K620,麥寮合作社,2024-12-28,23.753836,120.294783,2.0903523e-09
C0Z070,舞鶴,2024-12-28,23.46811,121.37407,2.5251037e-09
C0B040,大武崙,2024-12-28,25.166676,121.706993,4.054656e-08
C1Z030,紅葉,2024-12-28,23.493119,121.338806,3.4539824e-09
C1I050,丹大,2024-12-28,23.753747,121.141147,1.4565737e-08
C0I080,信義,2024-12-28,23.689694,120.851036,1.7160923e-09
C2M920,朴子農改,2024-12-28,23.469889,120.259383,7.375107e-10
C2A880,福隆,2024-12-28,25.017842,121.942083,1.8891e-08
C0Z160,鳳林,2024-12-28,23.746114,121.453411,3.244512e-09
C0V210,復興,2024-12-28,23.222403,120.806089,2.1679003e-09
C0H990,昆陽,2024-12-28,24.121322,121.273642,2.5879757e-08
C0R741,獅子,2024-12-28,22.202308,120.705236,0.99995315
C0S710,鹿野,2024-12-28,22.917711,121.122994,5.8987104e-09
C0I530,小奇萊,2024-12-28,24.131764,121.295717,2.687299e-08
C2K630,荷苞,2024-12-28,23.657717,120.595144,1.2447187e-09
C0Z080,富源,2024-12-28,23.587642,121.378225,6.555032e-09
467441,高雄,2024-12-28,22.7304,120.3125,1.2719198e-09
C0SB10,美和,2024-12-28,22.682078,121.060236,1.9423039e-09
C2K620,馬光農場,2024-12-28,23.721453,120.378864,7.248258e-10
C1I140,卡奈托灣,2024-12-28,23.754364,121.087872,5.6861342e-09
C0I520,玉山風口,2024-12-28,23.470489,120.955994,3.0226335e-08
C1G691,下水埔,2024-12-28,23.816114,120.5676,7.166875e-10
C0X110,臺南市南區,2024-12-28,22.961189,120.188378,1.2088505e-09
C0V680,仁武,2024-12-28,22.701083,120.347722,8.005489e-08
C2G840,北斗,2024-12-28,23.877586,120.514222,7.369637e-10
C0R900,竹坑,2024-12-28,22.1385,120.7022,0.9181461
C0K250,崙背,2024-12-28,23.75555,120.318925,2.0903523e-09
C0G860,社頭,2024-12-28,23.897647,120.5862,7.1994827e-10
C0X150,安定,2024-12-28,23.102614,120.227839,7.993336e-10
C0R590,里港,2024-12-28,22.77919,120.49459,5.680939e-10
C0E610,馬都安,2024-12-28,24.451272,120.930192,7.740189e-09
C0E550,明德,2024-12-28,24.583486,120.885411,1.3049647e-08
C0R150,三地門,2024-12-28,22.709889,120.639944,1.753601e-09
C0G910,花壇,2024-12-28,24.032076,120.549461,7.17656e-10
C1D400,鳥嘴山,2024-12-28,24.71909,121.28387,2.9174638e-08
C0K500,元長,2024-12-28,23.64981,120.315024,1.6749327e-09
C0F0B0,石岡,2024-12-28,24.276061,120.777644,2.3619662e-09
C2V250,甲仙,2024-12-28,23.080106,120.591758,1.0914722e-09
C0SA20,金崙山,2024-12-28,22.567419,120.959667,5.4053055e-09
C0V350,溪埔,2024-12-28,22.738578,120.446797,4.7199517e-10
C0M660,溪口,2024-12-28,23.604131,120.403569,7.02603e-10
C1S880,壽卡,2024-12-28,22.238911,120.858903,1.7783623e-05
72D680,桃改新埔分場,2024-12-28,24.834444,121.066111,4.8651542e-05
