站號,站名,日期,lat,lon,BLBTSLS
C0R710,龍磐,2024-03-22,21.931672,120.838942,0.99524194
C1F9D1,白毛台,2024-03-22,24.158325,120.886933,4.921838e-10
C0G940,竹塘,2024-03-22,23.848253,120.386764,2.8796626e-10
467590,恆春,2024-03-22,22.003897,120.746339,0.7216153
C1O850,環湖,2024-03-22,23.148617,120.418633,1.460809e-07
C0U710,太平山,2024-03-22,24.505486,121.525656,1.1355498e-08
C0E820,獅潭,2024-03-22,24.539133,120.920042,1.8390416e-09
C0V880,興達,2024-03-22,22.8778,120.2127,1.5113296e-09
C0S890,關山,2024-03-22,23.0395,121.175017,2.0349347e-09
K2F750,種苗繁殖,2024-03-22,24.225972,120.800917,6.3506744e-10
C1Z130,銅門,2024-03-22,23.965694,121.492842,7.884048e-09
C0AD40,土城,2024-03-22,24.973208,121.445169,1.2294665e-09
CAN140,六官養殖協會,2024-03-22,23.22881,120.29962,1.6880661e-09
C0X180,山上,2024-03-22,23.0757,120.363253,5.0953e-08
C0F9Z0,雪山東峰,2024-03-22,24.388792,121.268675,2.1271587e-08
C1M480,獨立山,2024-03-22,23.537022,120.607797,3.4690736e-10
C0X220,學甲,2024-03-22,23.230367,120.182187,2.9394345e-10
C0R170,屏東,2024-03-22,22.660269,120.494072,4.292668e-06
467650,日月潭,2024-03-22,23.881325,120.90805,1.2471378e-09
C0K600,箔子寮,2024-03-22,23.6197,120.14,4.3356846e-10
C0G830,埤頭,2024-03-22,23.866003,120.452806,2.9850633e-10
C0S950,七塊厝,2024-03-22,22.954453,121.229922,1.3610979e-09
467110,金門,2024-03-22,24.407306,118.289281,1.6682096e-08
C0AH80,深坑,2024-03-22,25.002703,121.628328,1.2576219e-09
467990,馬祖,2024-03-22,26.169269,119.923419,2.9664214e-08
C0A970,三貂角,2024-03-22,25.007606,122.002058,2.89439e-08
C0K430,褒忠,2024-03-22,23.690938,120.303634,2.6597044e-10
467480,嘉義,2024-03-22,23.495925,120.432906,5.992102e-10
C2E540,後龍,2024-03-22,24.606489,120.783933,1.9676933e-09
C0V400,阿公店,2024-03-22,22.804194,120.355528,1.07485896e-07
C0R440,大漢山,2024-03-22,22.405264,120.753181,7.0188273e-09
C0K280,四湖,2024-03-22,23.630414,120.227125,3.312348e-10
C1F9B1,桐林,2024-03-22,24.066172,120.735194,3.0295105e-10
C0K390,土庫,2024-03-22,23.679029,120.395574,3.5469536e-10
C1I450,望鄉山,2024-03-22,23.594153,120.944286,9.410843e-09
C0E910,海埔,2024-03-22,24.648767,120.772435,1.968463e-09
B2E890,畜試北區分所,2024-03-22,24.527806,120.770972,1.7540627e-09
C0R750,四林格山,2024-03-22,22.076989,120.802439,8.574484e-05
C0F0C0,中坑,2024-03-22,24.248517,120.903319,1.1107877e-09
C1I121,大鞍,2024-03-22,23.678381,120.760017,3.8163033e-09
72U480,花改蘭陽分場,2024-03-22,24.686306,121.716583,1.7084728e-09
C0A770,科教館,2024-03-22,25.096356,121.516507,1.1760037e-09
C0AJ60,六塊厝,2024-03-22,25.24,121.4481,8.981259e-09
C0R620,墾雷,2024-03-22,21.900836,120.855269,0.7567901
467420,永康,2024-03-22,23.038386,120.2367,1.0794977e-08
467300,東吉島,2024-03-22,23.25695,119.667467,0.8027666
C0I410,名間,2024-03-22,23.837053,120.701447,2.6631256e-10
A2C560,農工中心,2024-03-22,24.985917,121.239833,2.503108e-09
C0V740,旗山,2024-03-22,22.888614,120.483597,7.5300187e-07
C0Z061,玉里,2024-03-22,23.3215,121.339656,5.189395e-09
C0S840,南田,2024-03-22,22.279725,120.889208,0.51698595
C1I470,杉林溪,2024-03-22,23.639517,120.786444,4.882616e-09
C1X040,東原,2024-03-22,23.291597,120.463822,7.843188e-10
C0R660,枋寮,2024-03-22,22.367722,120.590647,0.15700509
C1R120,上德文,2024-03-22,22.763272,120.704442,3.821072e-10
C0K450,大埤,2024-03-22,23.646074,120.431537,2.9864813e-10
C0UA00,土場,2024-03-22,24.576533,121.495333,2.5704514e-09
467080,宜蘭,2024-03-22,24.763975,121.756528,2.4819429e-09
C0N030,四草,2024-03-22,23.0235,120.1116,8.071301e-10
C0V650,彌陀,2024-03-22,22.783806,120.246361,2.1585132e-07
C0D660,新竹市東區,2024-03-22,24.798681,120.986942,1.7835382e-09
82S580,茶改東部分場,2024-03-22,22.907694,121.130139,2.038991e-09
C0C710,大溪永福,2024-03-22,24.892936,121.324975,1.2313346e-09
C0FA20,溫寮,2024-03-22,24.372177,120.583125,2.45372e-09
C0V640,湖內,2024-03-22,22.887139,120.2445,1.3837191e-09
C0R910,下寮,2024-03-22,22.3929,120.5548,0.15700509
C0Z020,明里,2024-03-22,23.208717,121.262342,5.945972e-09
C0M770,嘉義梅山,2024-03-22,23.585398,120.555587,4.3784498e-10
G2F820,農業試驗所,2024-03-22,24.031261,120.688133,3.374986e-10
C0C660,楊梅,2024-03-22,24.912375,121.143047,1.4548543e-09
C1E511,新開,2024-03-22,24.347703,120.827019,1.1201768e-09
G2F820,農試所(霧峰),2024-03-22,24.031261,120.688133,3.374986e-10
C1I070,和社,2024-03-22,23.591131,120.888861,2.0795912e-09
C2F000,大肚,2024-03-22,24.15295,120.572117,4.0954654e-10
C1S850,豐南,2024-03-22,23.122139,121.262389,2.1638271e-09
C2A920,富貴角,2024-03-22,25.263783,121.565258,8.409559e-09
CAH030,茶改場竹圍站,2024-03-22,23.860083,120.637528,2.345386e-10
C0T960,光復,2024-03-22,23.660694,121.424964,2.4025735e-09
C0F9M0,豐原,2024-03-22,24.254322,120.720692,7.380497e-10
C0R720,旭海,2024-03-22,22.205403,120.887614,0.59191686
C0V710,苓雅,2024-03-22,22.622742,120.330669,4.5546568e-07
C0C740,觀音工業區,2024-03-22,25.064764,121.114856,5.815739e-09
CAC040,拉拉山,2024-03-22,24.699317,121.427133,1.0372898e-08
C0V790,萬山,2024-03-22,22.905944,120.688056,5.669089e-09
U2HA30,臺大和社,2024-03-22,23.590856,120.888864,2.0795912e-09
C0AJ90,澳底,2024-03-22,25.0552,121.9253,2.5232643e-07
C0Z100,東華,2024-03-22,23.89525,121.549833,6.8231656e-09
C0G970,三豐,2024-03-22,23.882,120.2895,2.5237423e-08
V2K610,大庄合作社,2024-03-22,23.8068,120.367939,2.9295558e-10
C0V900,汕尾,2024-03-22,22.4782,120.4151,0.00027801585
C1R630,龍泉,2024-03-22,22.66701,120.59091,0.0019022885
C1AC50,關渡,2024-03-22,25.133486,121.469331,3.5720755e-09
C0F9I0,神岡,2024-03-22,24.272481,120.658314,8.9285623e-10
C0K460,斗南,2024-03-22,23.678734,120.478359,2.9560823e-10
467410,臺南,2024-03-22,22.993239,120.204772,6.281585e-10
C2O810,曾文,2024-03-22,23.219681,120.497328,1.0737971e-08
467280,後龍,2024-03-22,24.648563,120.831834,1.988061e-09
C1F9J1,清水林,2024-03-22,24.071242,120.820419,5.156527e-10
C2A650,火燒寮,2024-03-22,25.002719,121.742892,1.5410917e-08
466930,竹子湖,2024-03-22,25.162078,121.544547,3.1366498e-09
C1I220,樟湖,2024-03-22,23.905333,120.846983,1.7525077e-09
C0I390,仁愛,2024-03-22,24.022122,121.132206,1.545689e-09
C0Z300,東里,2024-03-22,23.26853,121.30547,6.746002e-09
C0V310,美濃,2024-03-22,22.898742,120.519153,9.221053e-07
C1V590,新發,2024-03-22,23.057019,120.646064,8.458296e-10
C0K510,水林,2024-03-22,23.572924,120.24597,3.461763e-10
72S590,東改賓朗果園,2024-03-22,22.813889,121.071278,7.133452e-09
82A750,茶改北部分場,2024-03-22,24.955778,121.631222,6.1489276e-09
C1A750,石碇服務區,2024-03-22,25.00872,121.646242,1.4623129e-09
C0X300,鹿寮,2024-03-22,23.386047,120.477331,9.155914e-10
G2AI50,關渡,2024-03-22,25.11575,121.492,9.744993e-09
C0K590,雲林東勢,2024-03-22,23.674192,120.255721,2.8068028e-10
C0A570,桶後,2024-03-22,24.848222,121.597992,4.230044e-09
C1S800,華源,2024-03-22,22.657883,121.02325,5.2766712e-08
C0G720,溪州,2024-03-22,23.851589,120.499093,2.990118e-10
C1V160,達卡努瓦,2024-03-22,23.279811,120.705319,1.4469949e-09
C2M410,馬頭山,2024-03-22,23.324361,120.582017,5.3163174e-10
C0V850,蚵仔寮,2024-03-22,22.7256,120.2527,2.1543606e-08
C0S740,池上,2024-03-22,23.119628,121.209469,1.3838941e-08
C1V390,尖山,2024-03-22,22.813153,120.367789,5.56722e-08
C0AH70,松山,2024-03-22,25.04871,121.55042,1.1897094e-09
C0N010,鯤鯓國小,2024-03-22,23.1879,120.0889,5.0788196e-10
C0R550,新埤,2024-03-22,22.467947,120.582894,0.00012335904
C0SA60,知本（水試所）,2024-03-22,22.702394,121.082761,1.5503483e-07
C0T9I0,豐濱,2024-03-22,23.583897,121.514806,3.803166e-09
C0UB00,淡江大學蘭陽校園,2024-03-22,24.823239,121.730383,4.4495496e-09
C0T9N0,富里,2024-03-22,23.171639,121.249378,1.7600929e-08
U2HA50,臺大竹山,2024-03-22,23.756972,120.681556,3.2795827e-10
C0V840,鳳鼻頭,2024-03-22,22.5083,120.3591,6.586379e-08
C0X140,西港,2024-03-22,23.125608,120.203108,1.2644407e-09
72D080,桃改五峰分場,2024-03-22,24.612194,121.157167,3.6463237e-09
C0V530,阿蓮,2024-03-22,22.883208,120.327508,6.8694604e-08
C1O880,關山,2024-03-22,23.173397,120.594092,3.0515608e-09
C0E791,卓蘭,2024-03-22,24.3126,120.8244,8.282856e-10
C1I030,武界,2024-03-22,23.913225,121.052483,1.2028107e-09
C0R520,崁頂,2024-03-22,22.514781,120.506914,6.485817e-05
C0R341,牡丹,2024-03-22,22.130036,120.792639,0.9463969
C0R930,萬丹,2024-03-22,22.5885,120.4851,8.9583256e-07
C0S760,紅石,2024-03-22,23.069131,121.126219,2.1307402e-08
C1M610,石磐龍,2024-03-22,23.496606,120.663506,1.256737e-09
C0UA10,鴛鴦湖,2024-03-22,24.590269,121.412228,9.8294075e-09
V2C260,八德蔬果,2024-03-22,24.978508,121.281819,2.0730329e-09
C0R800,丹路,2024-03-22,22.204481,120.750989,0.846597
C0G920,永靖,2024-03-22,23.924703,120.547533,3.1283673e-10
C1A630,下盆,2024-03-22,24.771003,121.538622,5.053409e-09
B2N890,畜產試驗所,2024-03-22,23.058972,120.336406,3.986892e-09
C0UA30,白嶺,2024-03-22,24.527819,121.519031,6.678533e-09
C1V580,溪南(特生中心),2024-03-22,23.084972,120.788475,2.4583293e-09
C1T970,大農,2024-03-22,23.615233,121.413331,2.8826095e-09
E2S960,林試太麻里2,2024-03-22,22.598014,120.989761,2.644386e-07
C0R650,竹田,2024-03-22,22.58486,120.54344,0.0028190543
C1H900,清流,2024-03-22,24.080775,120.962997,1.3331155e-09
C1C510,水尾,2024-03-22,24.940081,121.087161,2.6904208e-09
C0F9X0,大雅(中科園區),2024-03-22,24.21528,120.62445,5.096423e-10
C0O970,虎頭埤,2024-03-22,23.021375,120.347878,4.2130804e-08
C0C730,中大臨海站,2024-03-22,24.966126,121.008581,4.036036e-09
C0X250,新營,2024-03-22,23.310689,120.316681,9.602804e-10
C0V700,三民,2024-03-22,22.645017,120.311233,4.7201723e-08
C0U870,大礁溪,2024-03-22,24.791042,121.675047,4.734019e-09
C0E870,高鐵苗栗,2024-03-22,24.60725,120.826094,1.9861053e-09
A2K570,古坑花卉中心,2024-03-22,23.63353,120.55239,5.605915e-10
C0M860,新美,2024-03-22,23.338017,120.683169,2.33015e-10
C1E701,八卦,2024-03-22,24.491756,120.927619,2.58225e-09
C0I420,國姓,2024-03-22,24.037803,120.855072,3.1881406e-10
C0S960,香蘭,2024-03-22,22.587569,120.993375,2.644386e-07
C0R260,春日,2024-03-22,22.370361,120.628306,0.02150291
72G600,臺中農改場,2024-03-22,24.003028,120.534389,3.3514375e-10
C0Z210,瑞穗,2024-03-22,23.5239,121.39021,8.1506215e-09
C0M820,達邦,2024-03-22,23.453994,120.749517,4.814238e-10
C0V860,南寮,2024-03-22,22.7616,120.2339,2.1471324e-08
C0G740,大城,2024-03-22,23.852487,120.320935,2.3763144e-08
C0R920,塭仔,2024-03-22,22.4169,120.5197,0.2012771
C0R470,高樹,2024-03-22,22.826389,120.600806,2.5648642e-05
C0R680,佳樂水,2024-03-22,21.993578,120.861633,0.5247302
C1O870,大棟山,2024-03-22,23.31157,120.52226,5.205631e-10
C0D360,梅花,2024-03-22,24.678347,121.208558,1.6008924e-09
C0Z190,富世,2024-03-22,24.14743,121.6297,4.7558664e-09
C0AI10,屈尺,2024-03-22,24.92184,121.54475,1.1789368e-09
B2U990,畜試東區分所,2024-03-22,24.669039,121.832561,3.4485188e-09
C0R240,來義,2024-03-22,22.527306,120.625111,7.988891e-06
C1R610,西大武山,2024-03-22,22.617719,120.7322,1.9586142e-08
C0G900,線西,2024-03-22,24.143358,120.443536,5.561738e-10
C0M700,竹崎,2024-03-22,23.526178,120.555508,8.538988e-10
C2E880,三義,2024-03-22,24.405478,120.749819,1.765825e-09
C0C720,竹圍,2024-03-22,25.112692,121.239824,9.744993e-09
C0F9P0,清水,2024-03-22,24.312297,120.562242,1.3706694e-09
C0Z150,吉安光華,2024-03-22,23.930925,121.595153,3.161717e-08
C1D640,外坪(五指山),2024-03-22,24.644447,121.090961,2.243104e-09
C0F9O0,潭子,2024-03-22,24.213106,120.703933,4.8354226e-10
72T250,花蓮農改場,2024-03-22,23.975222,121.563889,1.0218355e-08
C0E780,銅鑼,2024-03-22,24.489681,120.790853,1.8726434e-09
C1T950,太安,2024-03-22,23.666719,121.370128,1.5739618e-08
C0E830,苑裡,2024-03-22,24.439714,120.653053,2.7757128e-09
467270,田中,2024-03-22,23.873803,120.581286,2.79311e-10
C0SA10,檳榔四格山,2024-03-22,22.810031,121.109308,5.465726e-09
C1T830,布洛灣,2024-03-22,24.17184,121.57127,2.1564983e-08
C0F970,大坑,2024-03-22,24.173142,120.722289,3.5137437e-10
C1U920,思源,2024-03-22,24.393125,121.347214,1.1318305e-08
C0A931,三和,2024-03-22,25.233153,121.595236,4.863952e-09
C0I010,廬山,2024-03-22,24.033311,121.181808,3.1355551e-09
C0R860,鼻頭,2024-03-22,22.1043,120.8979,0.8632332
C0UB20,壯圍,2024-03-22,24.7359,121.8163,1.7078278e-09
C0R790,九棚,2024-03-22,22.14195,120.889281,0.9618989
C0W110,東莒,2024-03-22,25.9652,119.98069,2.581404e-08
C1U930,粉鳥林,2024-03-22,24.497088,121.842479,1.3768933e-08
C1I211,蘆竹湳,2024-03-22,23.934019,120.811994,3.1360203e-10
C0S830,長濱,2024-03-22,23.286817,121.411975,4.6099657e-09
C1F9F1,伯公龍,2024-03-22,24.272392,120.849047,8.609687e-10
C0E810,西湖,2024-03-22,24.562947,120.7485,3.0506646e-09
C1I440,新高口,2024-03-22,23.478744,120.878939,5.341211e-09
C0O840,王爺宮,2024-03-22,23.222064,120.40085,1.2220017e-09
C0T9G0,鳳林山,2024-03-22,23.735269,121.420131,4.2066386e-09
C0X080,佳里,2024-03-22,23.173039,120.145086,5.0788196e-10
C0Z310,清水斷崖,2024-03-22,24.218294,121.689142,3.799533e-09
C0M680,太保,2024-03-22,23.455062,120.331455,5.592651e-10
C1S820,金峰,2024-03-22,22.590969,120.933236,5.3223086e-08
C0AD10,八里,2024-03-22,25.150211,121.403947,9.744993e-09
C2K240,草嶺,2024-03-22,23.59555,120.693461,1.872072e-09
C1SA70,都蘭,2024-03-22,22.87794,121.226881,3.6724979e-09
C0K440,二崙,2024-03-22,23.772797,120.408944,2.765924e-10
C1A760,坪林交控,2024-03-22,24.94284,121.713442,8.0282385e-09
C0F9N0,大里,2024-03-22,24.092464,120.701378,2.909065e-10
C0SA90,達仁林場,2024-03-22,22.264347,120.823972,8.53828e-08
C1R290,石門山,2024-03-22,22.112611,120.756597,0.7061907
42HA10,萬大發電廠,2024-03-22,23.978875,121.139639,1.7694798e-09
C0R890,山海,2024-03-22,21.9878,120.7091,0.259326
C0T9A0,月眉山,2024-03-22,23.809928,121.539828,3.3176608e-09
C0AC70,信義,2024-03-22,25.037822,121.564597,1.1897094e-09
C0K560,棋山,2024-03-22,23.68645,120.603417,5.1130816e-10
C1Z240,中平林道,2024-03-22,23.42115,121.26763,3.3598702e-08
U2H480,溪頭,2024-03-22,23.670306,120.798194,1.7728072e-09
C0M880,好美里,2024-03-22,23.3364,120.138,6.272187e-10
C0T9E0,大坑,2024-03-22,23.880628,121.581981,3.349439e-09
C0K530,臺西,2024-03-22,23.701547,120.197559,3.9823528e-10
C1E900,國一N128K,2024-03-22,24.560997,120.844186,1.8065388e-09
C0AJ50,水湳洞,2024-03-22,25.123695,121.862238,5.2035487e-09
C0AI20,白沙灣,2024-03-22,25.283128,121.519058,8.91691e-09
C0A860,大坪,2024-03-22,25.165914,121.632969,2.3247664e-09
C1U850,觀音海岸,2024-03-22,24.38319,121.77856,4.226471e-09
C0U950,鶯子嶺,2024-03-22,24.89754,121.79244,9.326144e-09
C0O900,善化,2024-03-22,23.112883,120.297219,5.946925e-09
C0K550,蔦松,2024-03-22,23.514319,120.229736,5.08194e-10
E2P980,林試六龜中心,2024-03-22,22.991703,120.645722,1.7208778e-09
C0E590,通霄,2024-03-22,24.471892,120.704622,3.942308e-09
C1I310,西巒,2024-03-22,23.754486,120.883956,1.399424e-09
C0A550,泰平,2024-03-22,24.971197,121.823711,5.577899e-09
C0I360,水里,2024-03-22,23.812553,120.849792,2.7571592e-10
C0R830,高士,2024-03-22,22.121825,120.836781,0.18479313
C1I101,溪頭,2024-03-22,23.661789,120.807647,5.277192e-09
C0AJ20,野柳,2024-03-22,25.20703,121.690021,4.956376e-09
C0B060,暖暖,2024-03-22,25.0957,121.7403,1.4416752e-09
C1H920,長豐,2024-03-22,24.102039,120.879897,1.0089252e-09
C0V360,內門,2024-03-22,22.975481,120.466769,3.1421578e-07
C0R850,林邊,2024-03-22,22.4634,120.5339,0.0002054805
C0E930,龍鳳,2024-03-22,24.700034,120.859125,2.0604187e-09
C0U910,冬山,2024-03-22,24.63373,121.7937,3.4485188e-09
C1E721,泰安,2024-03-22,24.489017,120.968036,4.8171063e-09
82H320,茶改中部分場,2024-03-22,23.875611,120.913583,9.43332e-10
C0M750,布袋,2024-03-22,23.380878,120.167789,1.0062615e-09
C1S860,利嘉,2024-03-22,22.809417,121.050528,2.042047e-08
72C440,桃園農改,2024-03-22,24.950944,121.030583,2.6412685e-09
E2S980,林試太麻里1,2024-03-22,22.598922,120.980044,1.189369e-07
C0X170,關廟,2024-03-22,22.963017,120.327797,9.6760786e-08
C0V720,林園,2024-03-22,22.507747,120.394511,6.076563e-08
C1I510,線浸林道,2024-03-22,23.761508,120.832956,1.8819173e-09
C0D690,外湖,2024-03-22,24.917735,120.968711,2.5940283e-09
C0C750,新興坑尾,2024-03-22,25.0061,121.0971,4.028775e-09
B2Q810,畜試南區分所,2024-03-22,21.945583,120.802167,0.5044029
C0S790,金崙,2024-03-22,22.538122,120.966875,6.761115e-08
C0AH90,福山植物園,2024-03-22,24.760717,121.58135,6.618981e-09
C0I540,奇萊稜線,2024-03-22,24.109231,121.326456,1.8354962e-08
C0M850,表湖,2024-03-22,23.24186,120.64166,5.241138e-10
C0S770,大溪山,2024-03-22,22.478475,120.943325,3.2175276e-08
C0AG80,中和,2024-03-22,24.991622,121.491792,1.2294665e-09
C0T790,大禹嶺,2024-03-22,24.186117,121.316086,1.0718409e-08
C0T9B0,水源,2024-03-22,23.991861,121.537169,4.5311515e-09
C0R840,牡丹池山,2024-03-22,22.168389,120.841225,0.55211633
C1I131,桶頭,2024-03-22,23.641944,120.654117,3.1553518e-10
CAL110,布袋國中,2024-03-22,23.35893,120.18026,1.0062615e-09
467571,新竹,2024-03-22,24.827853,121.014219,2.0322506e-09
C0Z290,赤柯山,2024-03-22,23.36893,121.38293,1.3128963e-08
C0X280,將軍,2024-03-22,23.214999,120.13577,3.1294056e-10
C0S690,太麻里,2024-03-22,22.60902,120.98533,1.5645186e-08
C0U880,北關,2024-03-22,24.9072,121.8734,1.1987506e-08
C1H860,瑞岩,2024-03-22,24.123772,121.18345,8.843772e-09
C0G810,埔心,2024-03-22,23.947633,120.525456,3.1296027e-10
C0U970,大福,2024-03-22,24.80064,121.81389,2.4842541e-09
C1E670,南礦,2024-03-22,24.538278,121.002836,4.396134e-09
C0M520,東後寮,2024-03-22,23.369908,120.248065,9.1742336e-10
C1E461,松安,2024-03-22,24.397972,120.986022,4.2558352e-09
72G600,臺中農改,2024-03-22,24.003028,120.534389,3.3514375e-10
C2N160,西拉雅風管處,2024-03-22,23.189481,120.335297,1.3334086e-08
C0A640,石碇,2024-03-22,24.993969,121.662917,1.6612233e-09
E2S960,林試太麻里2,2024-03-22,22.598,120.99775,2.8867302e-07
C0F9Y0,桃山,2024-03-22,24.432739,121.303808,1.9875843e-08
C1I020,萬大,2024-03-22,23.979817,121.132261,1.5685365e-09
C0U940,羅東,2024-03-22,24.68184,121.74934,1.7033611e-09
C0M650,朴子,2024-03-22,23.43463,120.23902,6.736381e-10
C1I500,大尖山,2024-03-22,23.858572,120.994889,6.161501e-09
C0G820,田尾,2024-03-22,23.901669,120.509389,3.1292566e-10
E2K600,四湖植物園,2024-03-22,23.676986,120.163433,3.312348e-10
C0S730,綠島,2024-03-22,22.6672,121.47533,0.9736722
12Q970,東港工作站,2024-03-22,22.479997,120.466058,0.00027801585
C0E430,南庄,2024-03-22,24.601775,121.000214,1.8669766e-09
C1TA00,太魯閣,2024-03-22,24.15773,121.6236,4.6273905e-09
466920,臺北,2024-03-22,25.037658,121.514853,1.1897094e-09
C0R600,舊泰武,2024-03-22,22.588194,120.664944,2.5231142e-10
C1I260,北坑,2024-03-22,23.9246,121.006903,3.3055442e-10
466910,鞍部,2024-03-22,25.182586,121.529731,8.101489e-09
C1I230,九份二山,2024-03-22,23.961944,120.845,9.86827e-10
C2A660,瑞芳,2024-03-22,25.113169,121.801147,5.10013e-09
C0R270,琉球嶼,2024-03-22,22.332244,120.362236,3.002408e-08
C1T990,高寮,2024-03-22,23.394239,121.356808,3.2257905e-09
C0G620,芬園,2024-03-22,24.015678,120.6213,3.4494643e-10
C1Z140,荖溪,2024-03-22,23.890575,121.45964,1.3956475e-08
C1I201,中心崙,2024-03-22,23.728722,120.712097,3.156917e-10
C1I400,凌霄,2024-03-22,24.018778,121.004456,2.4817488e-09
C1M640,十字,2024-03-22,23.492153,120.753683,4.0779216e-09
G2P820,農試鳳山分所,2024-03-22,22.646611,120.356083,3.3854278e-08
C0Z270,蕃薯寮,2024-03-22,23.73835,121.540108,3.6395353e-09
C0F9Q0,外埔,2024-03-22,24.347817,120.705686,1.2768833e-09
C0K580,高鐵雲林,2024-03-22,23.737456,120.417944,2.885788e-10
C2I090,鳳凰,2024-03-22,23.728081,120.787347,5.6703087e-10
C0U990,員山,2024-03-22,24.74435,121.72247,1.7115224e-09
C0V770,大社,2024-03-22,22.730306,120.346639,1.6893136e-08
C0X120,麻豆,2024-03-22,23.183289,120.248611,1.6331928e-09
C0C670,龍潭,2024-03-22,24.870056,121.221389,1.0258304e-09
C0D680,香山濕地,2024-03-22,24.783581,120.914988,1.7341101e-09
C0S980,勝林山,2024-03-22,22.430439,120.8938,9.14276e-09
C0V730,大寮,2024-03-22,22.605614,120.395717,3.3927395e-07
C0R570,麟洛,2024-03-22,22.65078,120.52719,4.292668e-06
CAG100,王功漁港,2024-03-22,23.96824,120.32586,4.288619e-08
C0X290,北門,2024-03-22,23.267772,120.125481,3.1291192e-10
C2F930,大甲,2024-03-22,24.347667,120.640403,2.414246e-09
C0D650,湖口,2024-03-22,24.904794,121.043628,2.656172e-09
C0E420,竹南,2024-03-22,24.708978,120.888897,2.0900532e-09
C0U780,五結,2024-03-22,24.68637,121.79794,1.7078278e-09
C1I250,鯉潭,2024-03-22,23.961922,120.991131,8.3627677e-10
C0R130,阿禮,2024-03-22,22.742908,120.743678,5.1528204e-10
C0X100,臺南市北區,2024-03-22,23.010394,120.194228,7.275392e-10
C0S920,金峰嘉蘭,2024-03-22,22.594789,120.960825,1.08698366e-07
C0V490,新興,2024-03-22,22.627422,120.298803,4.4831455e-07
C0F9K0,大安,2024-03-22,24.345061,120.588025,2.4514184e-09
72N100,臺南農改,2024-03-22,23.0605,120.342194,3.9930033e-09
467290,古坑,2024-03-22,23.633639,120.551889,5.605915e-10
C0V440,鳳山,2024-03-22,22.646653,120.356122,3.3854278e-08
C1T940,大觀,2024-03-22,23.714206,121.373133,3.8838617e-09
72T250,花蓮農改,2024-03-22,23.975222,121.563889,1.0218355e-08
C0E740,造橋,2024-03-22,24.637056,120.864778,1.986306e-09
C0R100,尾寮山,2024-03-22,22.833111,120.683889,4.690927e-10
A2K630,臺大雲林校區,2024-03-22,23.730628,120.423903,2.8848082e-10
C0D580,寶山,2024-03-22,24.735006,121.025192,1.0655581e-09
E2P990,林試扇平站,2024-03-22,22.9677,120.6857,4.0693338e-10
C0AI30,三重,2024-03-22,25.057328,121.500629,1.176006e-09
C0AH00,汐止,2024-03-22,25.066881,121.658778,1.1897094e-09
C1Z040,立山,2024-03-22,23.443356,121.327375,9.185374e-09
C0R740,獅子,2024-03-22,22.201569,120.70525,0.87067777
C0W130,花嶼,2024-03-22,23.40007,119.32276,0.9773249
C0A950,鼻頭角,2024-03-22,25.129036,121.923372,3.176021e-07
C0K470,林內,2024-03-22,23.748675,120.609642,3.8892337e-10
82C160,茶改場,2024-03-22,24.908472,121.185333,1.5379606e-09
C0Z320,清水林道,2024-03-22,23.27125,121.188272,1.3148108e-08
C0R760,南仁湖,2024-03-22,22.084681,120.863353,0.705542
C0M670,大林,2024-03-22,23.600616,120.45841,3.8034392e-10
C0M800,茶山,2024-03-22,23.299075,120.664767,2.2171896e-10
C0A9C0,天母,2024-03-22,25.117494,121.537169,3.5122514e-09
72K220,南改斗南分場,2024-03-22,23.634556,120.477333,2.9560823e-10
72AI40,桃改樹林分場,2024-03-22,24.944503,121.386972,1.2434823e-09
C0S910,蘭嶼燈塔,2024-03-22,22.081197,121.503117,0.9982049
C0B050,八斗子,2024-03-22,25.144754,121.79167,5.188089e-09
C0U900,內城,2024-03-22,24.71813,121.68766,1.7066132e-09
C0X320,柳營,2024-03-22,23.253328,120.375253,5.064834e-09
C0M790,新港,2024-03-22,23.553269,120.345728,5.7250804e-10
C0F9T0,西屯,2024-03-22,24.179494,120.641275,3.546859e-10
C0SA30,都歷,2024-03-22,23.020333,121.323642,3.5991443e-09
C0C620,蘆竹,2024-03-22,25.084275,121.265767,4.2893125e-09
C0R730,大坪頂,2024-03-22,22.024633,120.69355,0.8827124
C0AJ40,石門,2024-03-22,25.273672,121.601198,8.403915e-09
C0E750,苗栗,2024-03-22,24.564569,120.824575,1.7914275e-09
C0T870,鯉魚潭,2024-03-22,23.935639,121.508944,9.082293e-09
C1V170,排雲,2024-03-22,23.463619,120.954147,1.5197191e-08
C2H950,中寮,2024-03-22,23.884447,120.766406,2.6724425e-10
C0R350,貓鼻頭,2024-03-22,21.921774,120.7358,0.97783923
C0V660,岡山,2024-03-22,22.797078,120.294958,2.1585132e-07
C1H941,雙冬,2024-03-22,23.967378,120.802189,3.3866063e-10
C0AJ70,田寮,2024-03-22,25.2698,121.4886,8.931173e-09
C0AI00,五股,2024-03-22,25.07445,121.42728,3.844108e-09
C0Z280,德武,2024-03-22,23.47426,121.41071,2.8102753e-09
C0R700,枋山,2024-03-22,22.246844,120.661086,0.44388756
C0C460,復興,2024-03-22,24.820208,121.352281,1.5627164e-09
E2H360,蓮華池,2024-03-22,23.918333,120.885278,3.748045e-10
C0M640,中埔,2024-03-22,23.42538,120.5229,1.1322013e-09
C0W140,金沙,2024-03-22,24.488292,118.408778,1.5335852e-08
C2A540,四堵,2024-03-22,24.8926,121.745736,7.523543e-09
C0ACA0,新莊,2024-03-22,25.051478,121.446756,2.1377817e-09
C0R220,潮州,2024-03-22,22.534361,120.54,5.4750326e-05
U2HA40,臺大內茅埔,2024-03-22,23.689722,120.851117,7.218169e-10
467490,臺中,2024-03-22,24.145736,120.684075,3.383236e-10
C0U960,翠峰湖,2024-03-22,24.510856,121.608044,1.0956674e-08
E2HA20,林試畢祿溪站,2024-03-22,24.226944,121.308522,1.1979964e-08
C0V890,前鎮,2024-03-22,22.5718,120.3117,5.370209e-07
467620,蘭嶼,2024-03-22,22.036969,121.558339,0.99977934
C1F941,雪嶺,2024-03-22,24.280586,121.026642,1.9578597e-08
C0AC80,文山,2024-03-22,25.00235,121.575728,1.2576219e-09
C0F9R0,龍井,2024-03-22,24.184536,120.528972,7.48288e-10
C0M760,民雄,2024-03-22,23.551754,120.428457,3.9020512e-10
C0UA40,西德山,2024-03-22,24.560647,121.752608,6.0597083e-09
C1T920,中興,2024-03-22,23.769503,121.498653,3.2378908e-09
C0D550,雪霸,2024-03-22,24.526972,121.11605,7.367673e-09
C2F860,梨山,2024-03-22,24.247522,121.243669,1.2315653e-08
C0R320,車城,2024-03-22,22.0744,120.716247,0.08163249
C1S870,南美山,2024-03-22,23.15025,121.382333,1.8218307e-08
C0B020,基隆嶼,2024-03-22,25.19141,121.78391,2.92824e-08
C1U501,牛鬥,2024-03-22,24.637836,121.573656,2.9353795e-09
C0M730,嘉義市東區,2024-03-22,23.457673,120.460531,2.7600333e-09
C0S700,知本,2024-03-22,22.684866,121.005642,1.344241e-08
C1N001,沙崙,2024-03-22,22.935472,120.309406,1.2157236e-07
C0V760,橋頭,2024-03-22,22.757806,120.30575,1.9763643e-08
C0G960,福寶,2024-03-22,24.0443,120.3814,4.118417e-10
C0X210,白河,2024-03-22,23.347466,120.414427,1.1909673e-09
C0S810,東河,2024-03-22,22.972672,121.303986,9.530829e-06
C0R670,楓港,2024-03-22,22.190131,120.692156,0.28170767
C0FA50,霧峰,2024-03-22,24.0419,120.6995,3.4021963e-10
C0UB10,蘇澳,2024-03-22,24.5969,121.8571,1.8871697e-08
C0G950,防潮門,2024-03-22,24.1835,120.4871,7.494335e-10
C0M740,六腳,2024-03-22,23.492871,120.290625,8.3163054e-10
C1R250,力里,2024-03-22,22.428117,120.629228,2.3731512e-07
C0K330,虎尾,2024-03-22,23.719183,120.442036,2.8511285e-10
C2FA00,烏石坑,2024-03-22,24.273503,120.947617,2.0248412e-09
C0V620,永安,2024-03-22,22.82315,120.236856,2.1585132e-07
C1I330,楓樹林,2024-03-22,23.986803,121.076117,1.9167046e-09
C0W200,湖西,2024-03-22,23.596314,119.67275,0.52891344
72Q010,高雄農改場,2024-03-22,22.709333,120.525889,2.6388781e-05
C0SA40,瑞和,2024-03-22,22.974361,121.156697,1.8932473e-09
C0C680,龜山,2024-03-22,25.02846,121.38656,3.9783163e-09
C2V260,月眉,2024-03-22,22.971003,120.539853,2.9272796e-08
C0V450,鳳森,2024-03-22,22.545064,120.392592,2.6642155e-08
C0U720,南山,2024-03-22,24.43742,121.38167,7.1024573e-09
A2N290,臺南蘭花園區,2024-03-22,23.340258,120.379661,6.125735e-10
C0R560,新園,2024-03-22,22.5434,120.461558,6.076563e-08
C0U890,三星,2024-03-22,24.66812,121.65302,3.3309062e-09
C1V300,御油山,2024-03-22,23.001983,120.715364,2.539536e-09
C0U600,礁溪,2024-03-22,24.817539,121.765608,9.851649e-09
C1T980,龍澗,2024-03-22,24.023289,121.411328,2.2773078e-08
C0D670,海天一線,2024-03-22,24.831986,120.914438,9.694734e-09
C0SA00,歷坵,2024-03-22,22.520969,120.89185,2.163692e-08
C0M710,東石,2024-03-22,23.458927,120.15385,5.4491833e-10
C0M780,鹿草,2024-03-22,23.41134,120.30835,6.368372e-10
C0U520,雙連埤,2024-03-22,24.753033,121.641303,4.778753e-09
C0B010,七堵,2024-03-22,25.094819,121.71713,1.3926527e-09
C0R480,長治,2024-03-22,22.693128,120.542622,3.1224985e-08
C1V830,國三S383K,2024-03-22,22.781967,120.426475,1.2535804e-07
12Q980,恆春工作站,2024-03-22,22.079678,120.714425,0.08158465
C1O940,東山服務區,2024-03-22,23.286016,120.398472,1.626779e-09
C1U840,東澳嶺,2024-03-22,24.5378,121.8485,7.3078703e-09
C1D630,飛鳳山,2024-03-22,24.766464,121.119178,1.1722862e-09
C0S940,石寧山,2024-03-22,23.223772,121.406639,7.358601e-09
C0K410,北港,2024-03-22,23.573957,120.292802,3.3555503e-10
C2M620,瑞里,2024-03-22,23.545133,120.675197,1.584449e-09
C2O950,安南,2024-03-22,23.076694,120.144861,5.932602e-10
C0F0E0,南湖圈谷,2024-03-22,24.363714,121.444667,3.2362813e-08
467610,成功,2024-03-22,23.097486,121.373428,1.5199733e-07
C0G890,伸港,2024-03-22,24.148933,120.484403,5.5606136e-10
C2E540,龍溪,2024-03-22,24.606489,120.783933,1.9676933e-09
C1V200,梅山,2024-03-22,23.268447,120.823556,1.3357014e-09
C0T9H0,加路蘭山,2024-03-22,23.682947,121.5274,5.613322e-09
C2O930,玉井,2024-03-22,23.126042,120.46055,5.0953e-08
C1F911,新伯公,2024-03-22,24.221361,120.841069,6.0279126e-10
C0R490,九如,2024-03-22,22.7405,120.490503,3.488951e-05
C0X200,左鎮,2024-03-22,23.056758,120.408522,4.612967e-08
C1F891,稍來,2024-03-22,24.265689,121.001142,1.2793558e-08
72N240,七股研究中心,2024-03-22,23.081672,120.062894,6.696923e-10
C0C700,中壢,2024-03-22,24.977661,121.256375,2.1147344e-09
C0M690,水上,2024-03-22,23.419734,120.388909,5.5342986e-10
C0V690,鼓山,2024-03-22,22.623325,120.275575,4.4317102e-07
C0O860,大內,2024-03-22,23.11885,120.36083,4.6545305e-09
C0Z200,萬榮,2024-03-22,23.709219,121.420106,3.7547014e-09
C0T9D0,和中,2024-03-22,24.26676,121.74103,7.3977655e-09
C1O921,楠西,2024-03-22,23.183511,120.484083,1.0568736e-07
C0AJ30,淡水觀海,2024-03-22,25.184591,121.408616,5.663329e-09
C0V810,左營,2024-03-22,22.67491,120.28491,4.7201723e-08
C0UA70,桃源谷,2024-03-22,24.962606,121.888875,6.008608e-09
C0X130,官田,2024-03-22,23.193217,120.315422,1.4905325e-08
C1H000,翠峰,2024-03-22,24.109397,121.205211,8.511675e-09
C0UA90,石城,2024-03-22,24.980444,121.951214,4.0223505e-08
C1E681,南勢山,2024-03-22,24.421669,120.923831,2.4482034e-09
C0A9F0,內湖,2024-03-22,25.079422,121.57545,1.1897094e-09
C0K291,宜梧,2024-03-22,23.536281,120.169329,5.0818916e-10
C1K540,口湖,2024-03-22,23.585344,120.180517,4.3356846e-10
C0R780,滿州,2024-03-22,22.024403,120.839892,0.73651946
C0V870,文安,2024-03-22,22.8025,120.2164,3.1212812e-07
C0U650,玉蘭,2024-03-22,24.675286,121.587061,3.6789758e-09
C0R640,東港,2024-03-22,22.46247,120.44074,0.00027801585
K2E360,苗栗農改,2024-03-22,24.495722,120.829111,1.7901739e-09
C0AJ80,板橋,2024-03-22,25.0107,121.4489,1.2202548e-09
C0S660,下馬,2024-03-22,23.150427,121.070312,1.0651726e-08
C1H9B1,阿眉,2024-03-22,24.1263,120.994672,1.0324775e-08
C0UA20,多加屯,2024-03-22,24.368614,121.373189,1.0364097e-08
C0E730,頭份,2024-03-22,24.688247,120.912206,2.069576e-09
72V140,高改旗南分場,2024-03-22,22.857861,120.516667,9.221053e-07
C0K480,莿桐,2024-03-22,23.761192,120.502372,2.470724e-10
C0U980,坪林石牌,2024-03-22,24.86478,121.77396,5.1606914e-09
C0T900,西林,2024-03-22,23.8119,121.441458,2.8810814e-09
C1I150,青雲,2024-03-22,23.793361,120.949378,2.3314836e-10
467350,澎湖,2024-03-22,23.565503,119.563094,0.8912789
C0G800,埔鹽,2024-03-22,24.000394,120.431683,3.7137668e-10
C0H960,草屯,2024-03-22,23.973672,120.68085,3.4459724e-10
C1V780,多納林道,2024-03-22,22.888028,120.737917,6.142349e-10
C0E920,通霄漁港,2024-03-22,24.498589,120.673876,4.042816e-09
C0Z330,安通山,2024-03-22,23.290728,121.348528,4.183203e-09
C0AH10,永和,2024-03-22,25.01125,121.508111,1.2202734e-09
C2G640,鹿港,2024-03-22,24.0753,120.430481,4.118417e-10
C1E890,國三N149K,2024-03-22,24.463414,120.680019,2.7845843e-09
C1R110,口社,2024-03-22,22.770111,120.645222,5.93495e-06
C1M870,國三N285K,2024-03-22,23.550319,120.505833,5.062842e-10
467050,新屋,2024-03-22,25.006744,121.047486,4.038577e-09
C1E480,鳳美,2024-03-22,24.554803,121.034747,2.2028421e-09
C0M530,奮起湖,2024-03-22,23.493903,120.699253,1.870152e-09
C0C590,觀音,2024-03-22,25.027072,121.153317,5.756135e-09
C0T9M0,靜浦,2024-03-22,23.455167,121.495028,4.064914e-09
C0AI40,石牌,2024-03-22,25.115597,121.513139,3.5153611e-09
C1F871,上谷關,2024-03-22,24.203483,121.018644,1.155929e-09
C0G880,二水,2024-03-22,23.810742,120.6173,3.2351363e-10
C0R940,加祿堂,2024-03-22,22.3363,120.6217,0.6575191
C0W220,北竿,2024-03-22,26.220358,119.974881,2.8907376e-08
C0O960,崎頂,2024-03-22,22.959547,120.369317,2.6265202e-08
C0S750,向陽,2024-03-22,23.248397,120.986133,4.599856e-09
C0T9F0,水璉,2024-03-22,23.797131,121.542514,2.8836105e-09
C1M600,頭凍,2024-03-22,23.406364,120.603339,1.802003e-09
467660,臺東,2024-03-22,22.752211,121.154586,0.22724167
C1D380,新埔,2024-03-22,24.84745,121.03834,2.0853703e-09
C0V750,路竹,2024-03-22,22.854997,120.259439,1.2026043e-09
C0N050,蚵寮,2024-03-22,23.301,120.1104,6.272187e-10
72M700,南改鹿草分場,2024-03-22,23.416869,120.283061,6.736381e-10
C1SA50,利嘉林道,2024-03-22,22.82325,121.009389,1.5921781e-08
467550,玉山,2024-03-22,23.487614,120.959522,1.9988832e-08
C0A940,金山,2024-03-22,25.223628,121.643967,5.0192597e-09
C1V340,大津,2024-03-22,22.888322,120.645986,4.5280604e-08
C0W180,七美,2024-03-22,23.219333,119.444892,0.9897924
C1F9C1,白冷,2024-03-22,24.182844,120.929889,7.7058476e-10
K2E710,苗改生物防治研究中心,2024-03-22,24.422861,120.871833,1.3077422e-09
C0N040,蘆竹溝,2024-03-22,23.2344,120.0961,3.1291192e-10
C2W230,畜試所澎湖,2024-03-22,23.628342,119.513206,0.9191255
C0R880,後壁湖,2024-03-22,21.9457,120.7457,0.25107446
C1I280,埔中,2024-03-22,23.820778,120.642594,2.735223e-10
467790,墾丁雷達站,2024-03-22,21.948235,120.808028,0.71290314
C0W190,望安,2024-03-22,23.380564,119.494075,0.9709611
466881,新北,2024-03-22,24.9593,121.52,1.2321146e-09
C0Z170,卓溪,2024-03-22,23.3443,121.3029,2.9397331e-09
C0F850,東勢,2024-03-22,24.246428,120.833047,6.0054195e-10
466900,淡水,2024-03-22,25.164889,121.448906,9.592246e-09
C0I370,魚池,2024-03-22,23.895703,120.94135,3.2444425e-10
C0C630,大溪,2024-03-22,24.882853,121.265547,9.855836e-10
C0A520,山佳,2024-03-22,24.974944,121.402008,1.4924832e-09
C0I110,竹山,2024-03-22,23.761225,120.688156,2.8679764e-10
82H840,茶改南部分場,2024-03-22,23.762528,120.7405,2.708869e-10
C0G660,溪湖,2024-03-22,23.94835,120.479122,3.1100789e-10
C1T800,洛韶,2024-03-22,24.204558,121.453956,1.742011e-08
C1T810,慈恩,2024-03-22,24.192044,121.388386,4.8824673e-09
C1E451,象鼻,2024-03-22,24.368617,120.940228,2.2964115e-09
C0AC60,三峽,2024-03-22,24.939025,121.369728,1.2629968e-09
C0I490,萬大林道,2024-03-22,23.928228,121.091411,3.189316e-09
C1I290,豐丘,2024-03-22,23.668178,120.887417,1.8996678e-09
C1I320,奧萬大,2024-03-22,23.952956,121.178556,1.7459051e-09
C0U770,南澳,2024-03-22,24.44935,121.81022,5.6802483e-09
C0A980,社子,2024-03-22,25.109508,121.469681,9.76209e-09
C0V800,六龜,2024-03-22,22.997889,120.633583,2.0530984e-09
C1G9D0,國一S218K,2024-03-22,23.890641,120.493253,2.9850633e-10
C2F9A0,中竹林,2024-03-22,24.103556,120.751061,3.6486109e-10
C0FA40,臺中電廠,2024-03-22,24.2146,120.4907,7.48288e-10
C0H9C0,合歡山,2024-03-22,24.143442,121.272547,1.9817849e-08
C0X060,下營,2024-03-22,23.22695,120.256261,1.6991168e-09
G2M350,農試溪口農場,2024-03-22,23.58565,120.408111,4.1081472e-10
C0U860,頭城,2024-03-22,24.85323,121.8308,1.0057344e-08
C0R580,南州,2024-03-22,22.48591,120.50274,0.00027801612
C0D430,峨眉,2024-03-22,24.6905,121.017189,1.6332302e-09
C0G780,秀水,2024-03-22,24.03405,120.503869,3.3514375e-10
72N100,臺南農改場,2024-03-22,23.0605,120.342194,3.9930033e-09
C0S900,蘭嶼高中,2024-03-22,22.04909,121.51214,0.9923605
467540,大武,2024-03-22,22.355675,120.903789,2.877556e-05
C1F9W0,德基,2024-03-22,24.254783,121.190261,1.0609834e-08
C1Z120,壽豐,2024-03-22,23.870853,121.508081,6.8231656e-09
C0W160,烏坵,2024-03-22,24.9944,119.44956,4.5121023e-08
C1I240,外大坪,2024-03-22,23.958697,120.917931,8.3962354e-10
C1I550,國六W023K,2024-03-22,23.979067,120.867742,3.2541106e-10
C0R870,興海,2024-03-22,21.9752,120.8439,0.5044029
C0R140,瑪家,2024-03-22,22.682903,120.686639,2.7235306e-10
C0A530,坪林,2024-03-22,24.938183,121.70975,7.71447e-09
C0X260,後壁,2024-03-22,23.366358,120.362326,6.125735e-10
C0Z230,和平,2024-03-22,24.30717,121.77007,7.879914e-09
C0G770,福興,2024-03-22,24.041289,120.437669,3.7137668e-10
C0H9A0,神木村,2024-03-22,23.532742,120.843667,4.222289e-09
C0I460,南投,2024-03-22,23.911469,120.687331,3.0568256e-10
C0I480,梅峰,2024-03-22,24.085272,121.173572,5.8764753e-09
C1V570,吉東,2024-03-22,22.85422,120.5454,7.042922e-07
C2A560,福山,2024-03-22,24.776203,121.502811,5.916649e-09
C0AH30,五分山,2024-03-22,25.07125,121.780794,5.6992073e-09
C0FA10,松柏,2024-03-22,24.429115,120.617482,2.782434e-09
72S200,東改班鳩分場,2024-03-22,22.829528,121.077694,1.0008508e-08
72HA00,中改埔里分場,2024-03-22,23.903208,120.963364,3.5415387e-10
C0C650,平鎮,2024-03-22,24.897503,121.214636,1.5020302e-09
C0S930,延平,2024-03-22,22.902581,121.084058,1.6864667e-09
C0UA60,樟樹山,2024-03-22,24.41393,121.78325,8.172665e-09
C1S670,摩天,2024-03-22,23.199503,121.027,1.9339357e-08
C0V630,茄萣,2024-03-22,22.906642,120.182608,1.5113296e-09
466940,基隆,2024-03-22,25.133314,121.740475,5.250997e-09
C0X050,東河,2024-03-22,23.296598,120.385608,1.955944e-09
C0R770,保力,2024-03-22,22.071122,120.764111,0.31135175
G2L020,農試嘉義分所,2024-03-22,23.485028,120.473806,1.7679617e-09
C0X240,關子嶺,2024-03-22,23.331169,120.508025,4.3939102e-10
C0I380,集集,2024-03-22,23.828206,120.801467,2.749429e-10
466990,花蓮,2024-03-22,23.975128,121.613275,1.2168551e-08
C1V220,小關山,2024-03-22,23.154217,120.813603,2.7805347e-09
C1F9G1,慶福山,2024-03-22,24.180853,120.848378,6.1222427e-10
C0Z250,瑞穗林道,2024-03-22,23.49284,121.30688,1.8661764e-08
C0D590,新豐,2024-03-22,24.87068,120.97721,8.732607e-09
C0A870,五指山,2024-03-22,25.132153,121.608692,3.4161785e-09
C0UA50,西帽山,2024-03-22,24.555361,121.802628,4.2490385e-09
C0X160,仁德,2024-03-22,22.968258,120.257689,5.5471414e-09
C1H971,六分寮,2024-03-22,23.92507,120.6378,4.098896e-10
C0W120,西嶼,2024-03-22,23.5626,119.468436,0.9431162
C0G650,員林,2024-03-22,23.946503,120.585597,3.23923e-10
C0AD50,鶯歌,2024-03-22,24.951533,121.346294,1.2949051e-09
C0S990,山豬窟,2024-03-22,22.318619,120.857372,1.2501821e-08
72Q010,高雄農改,2024-03-22,22.709333,120.525889,2.6388781e-05
C0X190,安平,2024-03-22,22.993161,120.152181,7.275392e-10
C0K400,斗六,2024-03-22,23.720583,120.541127,3.026923e-10
12J990,口湖工作站,2024-03-22,23.589978,120.180394,4.3356846e-10
C0O830,北寮,2024-03-22,23.079561,120.495008,3.1044042e-08
C1D410,白蘭,2024-03-22,24.579364,121.079947,4.8504907e-09
C0S970,加津林,2024-03-22,22.416211,120.926942,9.2078535e-06
C0D700,關西,2024-03-22,24.7977,121.1732,1.0843777e-09
C0M810,里佳,2024-03-22,23.389125,120.716647,3.0776952e-09
C0U750,龜山島,2024-03-22,24.841667,121.953133,3.0952933e-08
C0R810,內獅,2024-03-22,22.305064,120.642986,0.68881893
C1M390,龍美,2024-03-22,23.406728,120.654417,2.273158e-09
C1H840,國三N238K,2024-03-22,23.841008,120.707711,2.289784e-10
CAQ030,崎峰國小,2024-03-22,22.42565,120.49521,0.00027801585
C2E520,大湖,2024-03-22,24.414939,120.870872,1.3585172e-09
467530,阿里山,2024-03-22,23.508208,120.813242,1.1125417e-08
C1E691,南湖,2024-03-22,24.40135,120.837533,1.8776507e-09
C0FA30,梧棲,2024-03-22,24.256003,120.523381,1.3706694e-09
C1V231,高中,2024-03-22,23.134911,120.716711,3.6528794e-10
C0F9V0,新社,2024-03-22,24.200172,120.815806,6.78101e-10
C0H890,埔里,2024-03-22,23.972169,120.952425,3.5608427e-10
C0R690,墾丁,2024-03-22,21.966756,120.810269,0.96373445
C0F0D0,審馬陣,2024-03-22,24.381675,121.4203,1.4976912e-08
C0R820,白鷺,2024-03-22,22.454275,120.666219,4.0746773e-10
U2H480,臺大溪頭,2024-03-22,23.670306,120.798194,1.7728072e-09
C1V190,南天池,2024-03-22,23.27403,120.91176,4.861596e-09
K2E360,苗栗農改場,2024-03-22,24.495722,120.829111,1.7901739e-09
CAJ050,海口故事園區,2024-03-22,23.57543,120.14121,4.3356846e-10
C0O990,媽廟,2024-03-22,22.99175,120.293525,8.098029e-09
C0D480,打鐵坑,2024-03-22,24.849664,121.150789,1.0341581e-09
C0Z220,和平林道,2024-03-22,24.343922,121.656317,3.8937635e-09
72C440,桃園農改場,2024-03-22,24.950944,121.030583,2.6412685e-09
C1E711,馬拉邦山,2024-03-22,24.367306,120.901656,2.3891749e-09
C0D560,竹東,2024-03-22,24.767147,121.057881,1.0688496e-09
C0F9U0,南屯,2024-03-22,24.137006,120.637969,3.4954017e-10
C0M720,番路,2024-03-22,23.464657,120.554156,6.938693e-10
C0F0A0,雪山圈谷,2024-03-22,24.388594,121.236339,2.1997362e-08
C1A9N0,四十份,2024-03-22,24.934158,121.593283,3.4490648e-09
C0U760,東澳,2024-03-22,24.52196,121.83318,1.2356618e-08
C0X230,鹽水,2024-03-22,23.272621,120.247641,5.9890964e-10
C0V370,古亭坑,2024-03-22,22.893178,120.401947,1.3877961e-07
C1I340,新興橋,2024-03-22,23.563333,120.868728,1.3791056e-09
C0SA80,土坂,2024-03-22,22.453108,120.887572,3.4853102e-07
C0R160,鹽埔,2024-03-22,22.739558,120.530778,2.6473825e-05
C0AC40,大屯山,2024-03-22,25.175675,121.522408,1.0191358e-08
466850,五分山雷達站,2024-03-22,25.071182,121.781205,5.7449365e-09
C1AI50,國三N016K,2024-03-22,25.034164,121.619664,1.2025654e-09
C1V600,藤枝,2024-03-22,23.071961,120.757042,2.046058e-09
C1E601,南勢,2024-03-22,24.572486,120.734842,3.1154057e-09
C0Z180,新城,2024-03-22,24.03946,121.60454,1.1366896e-08
C0O980,新市,2024-03-22,23.061614,120.298197,5.9731278e-09
C0K420,西螺,2024-03-22,23.800407,120.467394,2.7576483e-10
C0Z050,佳心,2024-03-22,23.34567,121.21316,1.2687051e-08
C0AD30,蘆洲,2024-03-22,25.086594,121.472331,1.1760037e-09
C0V610,梓官,2024-03-22,22.760558,120.267211,1.9752074e-08
K2F750,種苗改良場,2024-03-22,24.225972,120.800917,6.3506744e-10
C0UA80,大溪漁港,2024-03-22,24.941801,121.902955,1.1725125e-08
C1AI60,國一39K邊坡,2024-03-22,25.064361,121.383836,3.9217065e-09
C0W150,金寧,2024-03-22,24.457703,118.328989,1.6867508e-08
V2C250,八德合作社,2024-03-22,24.93775,121.266389,1.4083783e-09
C0AH40,平等,2024-03-22,25.129142,121.577086,2.4904214e-09
C0R540,佳冬,2024-03-22,22.419456,120.552375,0.15743433
466950,彭佳嶼,2024-03-22,25.627975,122.079744,2.0795073e-07
C0A890,雙溪,2024-03-22,25.036003,121.864242,1.5313805e-07
C0C480,桃園,2024-03-22,24.992425,121.323172,2.0612323e-09
C0AH50,林口,2024-03-22,25.072181,121.38084,4.0443813e-09
A2K360,水試臺西試驗場,2024-03-22,23.717231,120.190522,4.0095546e-10
B2N890,畜試所,2024-03-22,23.058972,120.336406,3.986892e-09
C0F9S0,烏日,2024-03-22,24.107058,120.624103,2.8571112e-10
C0C490,八德,2024-03-22,24.928708,121.283289,1.4149993e-09
C0R190,赤山,2024-03-22,22.592333,120.614306,0.0016762888
C0T820,天祥,2024-03-22,24.179597,121.495639,1.717213e-08
C1F9E1,龍安,2024-03-22,24.1605,120.831961,5.007266e-10
C0V820,小林,2024-03-22,23.148408,120.63325,9.049417e-10
C2G870,芳苑,2024-03-22,23.922303,120.320025,4.033875e-08
C0E850,大河,2024-03-22,24.618069,120.948578,1.665573e-09
C1U670,寒溪,2024-03-22,24.634,121.71691,3.1478633e-09
C0N020,城西,2024-03-22,23.0568,120.0956,7.2751977e-10
C1Z110,三棧,2024-03-22,24.11557,121.60501,1.556429e-08
C0R280,檳榔,2024-03-22,22.076078,120.836777,0.93905294
C0F9L0,后里,2024-03-22,24.310436,120.729725,7.523524e-10
C0D540,橫山,2024-03-22,24.71116,121.11693,1.1486345e-09
C1D420,太閣南,2024-03-22,24.632808,121.160575,5.7080296e-09
C1E770,公館,2024-03-22,24.526914,120.830806,1.7540627e-09
CAN130,水試所海水繁養殖中心,2024-03-22,23.120802,120.07968,6.696923e-10
C1I430,翠華,2024-03-22,24.191961,121.224339,7.1909776e-09
C1M400,菜瓜坪,2024-03-22,23.251928,120.576103,2.6362895e-10
C0G730,二林,2024-03-22,23.903325,120.376081,3.383152e-10
72M360,南改義竹分場,2024-03-22,23.360694,120.279361,9.1901714e-10
V2K620,麥寮合作社,2024-03-22,23.753836,120.294783,2.6597044e-10
C0Z070,舞鶴,2024-03-22,23.46811,121.37407,2.592238e-09
C0B040,大武崙,2024-03-22,25.166676,121.706993,5.166197e-09
C1Z030,紅葉,2024-03-22,23.493119,121.338806,4.9303623e-09
C1I050,丹大,2024-03-22,23.753747,121.141147,5.393812e-09
C0I080,信義,2024-03-22,23.689694,120.851036,7.218169e-10
C2A880,福隆,2024-03-22,25.017842,121.942083,4.1747164e-08
C0Z160,鳳林,2024-03-22,23.746114,121.453411,3.9151966e-09
C0V210,復興,2024-03-22,23.222403,120.806089,1.2024438e-09
C0H990,昆陽,2024-03-22,24.121322,121.273642,1.5260367e-08
C0S710,鹿野,2024-03-22,22.917711,121.122994,1.3891243e-09
C0I530,小奇萊,2024-03-22,24.131764,121.295717,1.6025185e-08
C0Z080,富源,2024-03-22,23.587642,121.378225,6.750507e-09
467441,高雄,2024-03-22,22.7304,120.3125,1.6893136e-08
C1I140,卡奈托灣,2024-03-22,23.754364,121.087872,1.773345e-09
C0I520,玉山風口,2024-03-22,23.470489,120.955994,2.0929663e-08
C1G691,下水埔,2024-03-22,23.816114,120.5676,2.458755e-10
C0X110,臺南市南區,2024-03-22,22.961189,120.188378,5.3082445e-09
C0V680,仁武,2024-03-22,22.701083,120.347722,4.7201723e-08
C2G840,北斗,2024-03-22,23.877586,120.514222,2.990118e-10
C0R900,竹坑,2024-03-22,22.1385,120.7022,0.08240268
C0K250,崙背,2024-03-22,23.75555,120.318925,2.6597044e-10
C0G860,社頭,2024-03-22,23.897647,120.5862,2.795476e-10
C0X150,安定,2024-03-22,23.102614,120.227839,1.2639633e-09
C0R590,里港,2024-03-22,22.77919,120.49459,4.4100815e-07
C0E610,馬都安,2024-03-22,24.451272,120.930192,2.0042727e-09
C0E550,明德,2024-03-22,24.583486,120.885411,1.8102191e-09
C0R150,三地門,2024-03-22,22.709889,120.639944,6.604811e-06
C0G910,花壇,2024-03-22,24.032076,120.549461,3.3748962e-10
C1D400,鳥嘴山,2024-03-22,24.71909,121.28387,3.1243437e-09
C0K500,元長,2024-03-22,23.64981,120.315024,2.8649913e-10
C0F0B0,石岡,2024-03-22,24.276061,120.777644,7.939198e-10
C2V250,甲仙,2024-03-22,23.080106,120.591758,4.712937e-09
C0SA20,金崙山,2024-03-22,22.567419,120.959667,1.2441851e-08
C0V350,溪埔,2024-03-22,22.738578,120.446797,1.7584846e-07
C0M660,溪口,2024-03-22,23.604131,120.403569,4.1081472e-10
C1S880,壽卡,2024-03-22,22.238911,120.858903,1.091444e-07
72D680,桃改新埔分場,2024-03-22,24.834444,121.066111,2.0731872e-09
