站號,站名,日期,lat,lon,BlastGRU-TW
12J990,口湖工作站,2024-04-13,23.589978,120.180394,0.80856806
12Q970,東港工作站,2024-04-13,22.479997,120.466058,0.93305194
12Q980,恆春工作站,2024-04-13,22.079678,120.714425,0.2939755
466881,新北,2024-04-13,24.9593,121.52,0.061059345
466900,淡水,2024-04-13,25.164889,121.448906,0.116435334
466920,臺北,2024-04-13,25.037658,121.514853,0.15752684
466940,基隆,2024-04-13,25.133314,121.740475,0.17800024
466990,花蓮,2024-04-13,23.975128,121.613275,0.62641
467050,新屋,2024-04-13,25.006744,121.047486,0.26936868
467080,宜蘭,2024-04-13,24.763975,121.756528,0.26106578
467270,田中,2024-04-13,23.873803,120.581286,0.35760376
467300,東吉島,2024-04-13,23.25695,119.667467,0.9666366
467350,澎湖,2024-04-13,23.565503,119.563094,0.97239643
467410,臺南,2024-04-13,22.993239,120.204772,0.89469826
467420,永康,2024-04-13,23.038386,120.2367,0.76416296
467441,高雄,2024-04-13,22.7304,120.3125,0.85898405
467480,嘉義,2024-04-13,23.495925,120.432906,0.6394854
467490,臺中,2024-04-13,24.145736,120.684075,0.282445
467540,大武,2024-04-13,22.355675,120.903789,0.2865117
467571,新竹,2024-04-13,24.827853,121.014219,0.7682525
467590,恆春,2024-04-13,22.003897,120.746339,0.3417274
467610,成功,2024-04-13,23.097486,121.373428,0.31517822
467620,蘭嶼,2024-04-13,22.036969,121.558339,0.6924694
467660,臺東,2024-04-13,22.752211,121.154586,0.50634545
467790,墾丁雷達站,2024-04-13,21.948235,120.808028,0.34542373
72AI40,桃改樹林分場,2024-04-13,24.944503,121.386972,0.2108169
72C440,桃園農改,2024-04-13,24.950944,121.030583,0.25541756
72C440,桃園農改場,2024-04-13,24.950944,121.030583,0.25541756
72D680,桃改新埔分場,2024-04-13,24.834444,121.066111,0.7695571
72G600,臺中農改,2024-04-13,24.003028,120.534389,0.33966032
72G600,臺中農改場,2024-04-13,24.003028,120.534389,0.33966032
72K220,南改斗南分場,2024-04-13,23.634556,120.477333,0.63302565
72M360,南改義竹分場,2024-04-13,23.360694,120.279361,0.74155635
72M700,南改鹿草分場,2024-04-13,23.416869,120.283061,0.64668506
72N100,臺南農改,2024-04-13,23.0605,120.342194,0.7519905
72N100,臺南農改場,2024-04-13,23.0605,120.342194,0.7519905
72N240,七股研究中心,2024-04-13,23.081672,120.062894,0.83534646
72Q010,高雄農改,2024-04-13,22.709333,120.525889,0.7862203
72Q010,高雄農改場,2024-04-13,22.709333,120.525889,0.7862203
72S200,東改班鳩分場,2024-04-13,22.829528,121.077694,0.41797817
72S590,東改賓朗果園,2024-04-13,22.813889,121.071278,0.5171782
72T250,花蓮農改,2024-04-13,23.975222,121.563889,0.42782906
72T250,花蓮農改場,2024-04-13,23.975222,121.563889,0.42782906
72U480,花改蘭陽分場,2024-04-13,24.686306,121.716583,0.3107534
72V140,高改旗南分場,2024-04-13,22.857861,120.516667,0.78359777
82A750,茶改北部分場,2024-04-13,24.955778,121.631222,0.45874968
82C160,茶改場,2024-04-13,24.908472,121.185333,0.77112716
82H840,茶改南部分場,2024-04-13,23.762528,120.7405,0.5213615
82S580,茶改東部分場,2024-04-13,22.907694,121.130139,0.37074277
A2C560,農工中心,2024-04-13,24.985917,121.239833,0.27844852
A2K360,水試臺西試驗場,2024-04-13,23.717231,120.190522,0.75931543
A2K570,古坑花卉中心,2024-04-13,23.63353,120.55239,0.5711459
A2K630,臺大雲林校區,2024-04-13,23.730628,120.423903,0.7074441
A2N290,臺南蘭花園區,2024-04-13,23.340258,120.379661,0.5796989
B2E890,畜試北區分所,2024-04-13,24.527806,120.770972,0.6825516
B2N890,畜產試驗所,2024-04-13,23.058972,120.336406,0.75733626
B2N890,畜試所,2024-04-13,23.058972,120.336406,0.75733626
B2Q810,畜試南區分所,2024-04-13,21.945583,120.802167,0.3301172
B2U990,畜試東區分所,2024-04-13,24.669039,121.832561,0.17151721
C0A520,山佳,2024-04-13,24.974944,121.402008,0.13153076
C0A530,坪林,2024-04-13,24.938183,121.70975,0.58079016
C0A540,四堵,2024-04-13,24.8926,121.745736,0.63414705
C0A550,泰平,2024-04-13,24.971197,121.823711,0.61846346
C0A560,福山,2024-04-13,24.776203,121.502811,0.2696854
C0A570,桶後,2024-04-13,24.848222,121.597992,0.57747823
C0A640,石碇,2024-04-13,24.993969,121.662917,0.13174999
C0A650,火燒寮,2024-04-13,25.002719,121.742892,0.32600793
C0A660,瑞芳,2024-04-13,25.113169,121.801147,0.30391765
C0A770,科教館,2024-04-13,25.096356,121.516507,0.12392679
C0A860,大坪,2024-04-13,25.165914,121.632969,0.47477493
C0A880,福隆,2024-04-13,25.017842,121.942083,0.12547716
C0A890,雙溪,2024-04-13,25.036003,121.864242,0.13120581
C0A920,富貴角,2024-04-13,25.263783,121.565258,0.49841946
C0A931,三和,2024-04-13,25.233153,121.595236,0.26637024
C0A940,金山,2024-04-13,25.223628,121.643967,0.3780348
C0A950,鼻頭角,2024-04-13,25.129036,121.923372,0.04903172
C0A970,三貂角,2024-04-13,25.007606,122.002058,0.09156168
C0A980,社子,2024-04-13,25.109508,121.469681,0.14376323
C0A9C0,天母,2024-04-13,25.117494,121.537169,0.30646855
C0A9F0,內湖,2024-04-13,25.079422,121.57545,0.26807064
C0AC60,三峽,2024-04-13,24.939025,121.369728,0.2184059
C0AC70,信義,2024-04-13,25.037822,121.564597,0.21592495
C0AC80,文山,2024-04-13,25.00235,121.575728,0.067166634
C0ACA0,新莊,2024-04-13,25.051478,121.446756,0.14080925
C0AD00,三芝,2024-04-13,25.258131,121.501917,0.22669144
C0AD10,八里,2024-04-13,25.150211,121.403947,0.12945102
C0AD30,蘆洲,2024-04-13,25.086594,121.472331,0.12174712
C0AD40,土城,2024-04-13,24.973208,121.445169,0.08462222
C0AD50,鶯歌,2024-04-13,24.951533,121.346294,0.2291072
C0AG80,中和,2024-04-13,24.991622,121.491792,0.11148692
C0AH00,汐止,2024-04-13,25.066881,121.658778,0.16986771
C0AH10,永和,2024-04-13,25.01125,121.508111,0.11034756
C0AH40,平等,2024-04-13,25.129142,121.577086,0.33763513
C0AH50,林口,2024-04-13,25.072181,121.38084,0.33873355
C0AH70,松山,2024-04-13,25.04871,121.55042,0.21592495
C0AH80,深坑,2024-04-13,25.002703,121.628328,0.04858847
C0AI00,五股,2024-04-13,25.07445,121.42728,0.22073732
C0AI10,屈尺,2024-04-13,24.92184,121.54475,0.05521102
C0AI20,白沙灣,2024-04-13,25.283128,121.519058,0.11967773
C0AI30,三重,2024-04-13,25.057328,121.500629,0.15627812
C0AI40,石牌,2024-04-13,25.115597,121.513139,0.14785127
C0AJ20,野柳,2024-04-13,25.20703,121.690021,0.14488801
C0AJ30,淡水觀海,2024-04-13,25.184591,121.408616,0.17630078
C0AJ40,石門,2024-04-13,25.273672,121.601198,0.12921265
C0AJ50,水湳洞,2024-04-13,25.123695,121.862238,0.16485682
C0AJ60,六塊厝,2024-04-13,25.24,121.4481,0.15595488
C0AJ70,田寮,2024-04-13,25.2698,121.4886,0.20909256
C0AJ80,板橋,2024-04-13,25.0107,121.4489,0.16573915
C0AJ90,澳底,2024-04-13,25.0552,121.9253,0.07863125
C0B010,七堵,2024-04-13,25.094819,121.71713,0.28449017
C0B020,基隆嶼,2024-04-13,25.19141,121.78391,0.050176524
C0B040,大武崙,2024-04-13,25.166676,121.706993,0.3181534
C0B050,八斗子,2024-04-13,25.144754,121.79167,0.11304885
C0B060,暖暖,2024-04-13,25.0957,121.7403,0.16800965
C0C460,復興,2024-04-13,24.820208,121.352281,0.4698263
C0C480,桃園,2024-04-13,24.992425,121.323172,0.2419995
C0C490,八德,2024-04-13,24.928708,121.283289,0.27716944
C0C590,觀音,2024-04-13,25.027072,121.153317,0.36383197
C0C620,蘆竹,2024-04-13,25.084275,121.265767,0.22051673
C0C630,大溪,2024-04-13,24.882853,121.265547,0.2842366
C0C650,平鎮,2024-04-13,24.897503,121.214636,0.6623053
C0C660,楊梅,2024-04-13,24.912375,121.143047,0.64807206
C0C670,龍潭,2024-04-13,24.870056,121.221389,0.33515784
C0C680,龜山,2024-04-13,25.02846,121.38656,0.2913087
C0C700,中壢,2024-04-13,24.977661,121.256375,0.22548173
C0C710,大溪永福,2024-04-13,24.892936,121.324975,0.15430154
C0C720,竹圍,2024-04-13,25.112692,121.239824,0.15345858
C0C730,中大臨海站,2024-04-13,24.966126,121.008581,0.2487103
C0C740,觀音工業區,2024-04-13,25.064764,121.114856,0.3774595
C0C750,新興坑尾,2024-04-13,25.0061,121.0971,0.32107738
C0D430,峨眉,2024-04-13,24.6905,121.017189,0.6623976
C0D480,打鐵坑,2024-04-13,24.849664,121.150789,0.58493966
C0D540,橫山,2024-04-13,24.71116,121.11693,0.5058938
C0D560,竹東,2024-04-13,24.767147,121.057881,0.5941075
C0D580,寶山,2024-04-13,24.735006,121.025192,0.6938907
C0D590,新豐,2024-04-13,24.87068,120.97721,0.86800194
C0D650,湖口,2024-04-13,24.904794,121.043628,0.70570827
C0D660,新竹市東區,2024-04-13,24.798681,120.986942,0.77204967
C0D670,海天一線,2024-04-13,24.831986,120.914438,0.7848297
C0D680,香山濕地,2024-04-13,24.783581,120.914988,0.8211209
C0D690,外湖,2024-04-13,24.917735,120.968711,0.2345465
C0D700,關西,2024-04-13,24.7977,121.1732,0.3941734
C0E420,竹南,2024-04-13,24.708978,120.888897,0.83442235
C0E430,南庄,2024-04-13,24.601775,121.000214,0.6723331
C0E550,明德,2024-04-13,24.583486,120.885411,0.7714574
C0E590,通霄,2024-04-13,24.471892,120.704622,0.5307894
C0E730,頭份,2024-04-13,24.688247,120.912206,0.8211359
C0E740,造橋,2024-04-13,24.637056,120.864778,0.84390354
C0E750,苗栗,2024-04-13,24.564569,120.824575,0.6529718
C0E780,銅鑼,2024-04-13,24.489681,120.790853,0.48989284
C0E791,卓蘭,2024-04-13,24.3126,120.8244,0.5599371
C0E810,西湖,2024-04-13,24.562947,120.7485,0.7942861
C0E820,獅潭,2024-04-13,24.539133,120.920042,0.8615592
C0E830,苑裡,2024-04-13,24.439714,120.653053,0.5225563
C0E850,大河,2024-04-13,24.618069,120.948578,0.61140484
C0E870,高鐵苗栗,2024-04-13,24.60725,120.826094,0.7522998
C0E910,海埔,2024-04-13,24.648767,120.772435,0.78601986
C0E920,通霄漁港,2024-04-13,24.498589,120.673876,0.6193904
C0E930,龍鳳,2024-04-13,24.700034,120.859125,0.83933014
C0F0B0,石岡,2024-04-13,24.276061,120.777644,0.34035382
C0F850,東勢,2024-04-13,24.246428,120.833047,0.48817256
C0F970,大坑,2024-04-13,24.173142,120.722289,0.80381536
C0F9I0,神岡,2024-04-13,24.272481,120.658314,0.19315019
C0F9K0,大安,2024-04-13,24.345061,120.588025,0.32970867
C0F9L0,后里,2024-04-13,24.310436,120.729725,0.3744074
C0F9M0,豐原,2024-04-13,24.254322,120.720692,0.5986746
C0F9N0,大里,2024-04-13,24.092464,120.701378,0.2011865
C0F9O0,潭子,2024-04-13,24.213106,120.703933,0.341263
C0F9P0,清水,2024-04-13,24.312297,120.562242,0.2169992
C0F9Q0,外埔,2024-04-13,24.347817,120.705686,0.17906164
C0F9R0,龍井,2024-04-13,24.184536,120.528972,0.21433073
C0F9S0,烏日,2024-04-13,24.107058,120.624103,0.20767482
C0F9T0,西屯,2024-04-13,24.179494,120.641275,0.2051154
C0F9U0,南屯,2024-04-13,24.137006,120.637969,0.29493514
C0F9X0,大雅(中科園區),2024-04-13,24.21528,120.62445,0.1562613
C0FA10,松柏,2024-04-13,24.429115,120.617482,0.5542526
C0FA20,溫寮,2024-04-13,24.372177,120.583125,0.34382004
C0FA30,梧棲,2024-04-13,24.256003,120.523381,0.25725707
C0FA40,臺中電廠,2024-04-13,24.2146,120.4907,0.27018726
C0FA50,霧峰,2024-04-13,24.0419,120.6995,0.21964197
C0G620,芬園,2024-04-13,24.015678,120.6213,0.27005205
C0G650,員林,2024-04-13,23.946503,120.585597,0.20303948
C0G660,溪湖,2024-04-13,23.94835,120.479122,0.4005762
C0G720,溪州,2024-04-13,23.851589,120.499093,0.5588974
C0G730,二林,2024-04-13,23.903325,120.376081,0.5676424
C0G740,大城,2024-04-13,23.852487,120.320935,0.7086893
C0G770,福興,2024-04-13,24.041289,120.437669,0.45085052
C0G780,秀水,2024-04-13,24.03405,120.503869,0.29501444
C0G800,埔鹽,2024-04-13,24.000394,120.431683,0.47292957
C0G810,埔心,2024-04-13,23.947633,120.525456,0.39902025
C0G820,田尾,2024-04-13,23.901669,120.509389,0.4252129
C0G830,埤頭,2024-04-13,23.866003,120.452806,0.5502106
C0G860,社頭,2024-04-13,23.897647,120.5862,0.3261486
C0G880,二水,2024-04-13,23.810742,120.6173,0.57790464
C0G890,伸港,2024-04-13,24.148933,120.484403,0.26698714
C0G900,線西,2024-04-13,24.143358,120.443536,0.27418235
C0G910,花壇,2024-04-13,24.032076,120.549461,0.31400165
C0G920,永靖,2024-04-13,23.924703,120.547533,0.40309614
C0G940,竹塘,2024-04-13,23.848253,120.386764,0.6246124
C0G950,防潮門,2024-04-13,24.1835,120.4871,0.21433078
C0G960,福寶,2024-04-13,24.0443,120.3814,0.4494543
C0G970,三豐,2024-04-13,23.882,120.2895,0.767073
C0H890,埔里,2024-04-13,23.972169,120.952425,0.9219263
C0H960,草屯,2024-04-13,23.973672,120.68085,0.35455078
C0I110,竹山,2024-04-13,23.761225,120.688156,0.3397185
C0I360,水里,2024-04-13,23.812553,120.849792,0.82101977
C0I380,集集,2024-04-13,23.828206,120.801467,0.8706582
C0I410,名間,2024-04-13,23.837053,120.701447,0.3273376
C0I420,國姓,2024-04-13,24.037803,120.855072,0.9437949
C0I460,南投,2024-04-13,23.911469,120.687331,0.19616225
C0K250,崙背,2024-04-13,23.75555,120.318925,0.63088495
C0K280,四湖,2024-04-13,23.630414,120.227125,0.7602368
C0K291,宜梧,2024-04-13,23.536281,120.169329,0.724992
C0K330,虎尾,2024-04-13,23.719183,120.442036,0.66473895
C0K390,土庫,2024-04-13,23.679029,120.395574,0.71954083
C0K400,斗六,2024-04-13,23.720583,120.541127,0.6497043
C0K410,北港,2024-04-13,23.573957,120.292802,0.68918204
C0K420,西螺,2024-04-13,23.800407,120.467394,0.71950895
C0K430,褒忠,2024-04-13,23.690938,120.303634,0.70860106
C0K440,二崙,2024-04-13,23.772797,120.408944,0.66044545
C0K450,大埤,2024-04-13,23.646074,120.431537,0.593973
C0K460,斗南,2024-04-13,23.678734,120.478359,0.6986261
C0K470,林內,2024-04-13,23.748675,120.609642,0.6171825
C0K480,莿桐,2024-04-13,23.761192,120.502372,0.5717235
C0K500,元長,2024-04-13,23.64981,120.315024,0.6953243
C0K510,水林,2024-04-13,23.572924,120.24597,0.6828039
C0K530,臺西,2024-04-13,23.701547,120.197559,0.75758255
C0K550,蔦松,2024-04-13,23.514319,120.229736,0.74492884
C0K560,棋山,2024-04-13,23.68645,120.603417,0.58259004
C0K580,高鐵雲林,2024-04-13,23.737456,120.417944,0.7074441
C0K590,雲林東勢,2024-04-13,23.674192,120.255721,0.6658212
C0K600,箔子寮,2024-04-13,23.6197,120.14,0.7502966
C0M520,東後寮,2024-04-13,23.369908,120.248065,0.74832517
C0M640,中埔,2024-04-13,23.42538,120.5229,0.6251164
C0M650,朴子,2024-04-13,23.43463,120.23902,0.69075805
C0M660,溪口,2024-04-13,23.604131,120.403569,0.6784459
C0M670,大林,2024-04-13,23.600616,120.45841,0.67022794
C0M680,太保,2024-04-13,23.455062,120.331455,0.5860017
C0M690,水上,2024-04-13,23.419734,120.388909,0.5960518
C0M700,竹崎,2024-04-13,23.526178,120.555508,0.47101605
C0M710,東石,2024-04-13,23.458927,120.15385,0.742888
C0M720,番路,2024-04-13,23.464657,120.554156,0.63535726
C0M730,嘉義市東區,2024-04-13,23.457673,120.460531,0.64849097
C0M740,六腳,2024-04-13,23.492871,120.290625,0.64189225
C0M750,布袋,2024-04-13,23.380878,120.167789,0.72341776
C0M760,民雄,2024-04-13,23.551754,120.428457,0.6174391
C0M770,嘉義梅山,2024-04-13,23.585398,120.555587,0.39307198
C0M780,鹿草,2024-04-13,23.41134,120.30835,0.6460101
C0M790,新港,2024-04-13,23.553269,120.345728,0.67632407
C0M800,茶山,2024-04-13,23.299075,120.664767,0.18343076
C0M880,好美里,2024-04-13,23.3364,120.138,0.7473801
C0N010,鯤鯓國小,2024-04-13,23.1879,120.0889,0.83626425
C0N020,城西,2024-04-13,23.0568,120.0956,0.881042
C0N030,四草,2024-04-13,23.0235,120.1116,0.85247034
C0N040,蘆竹溝,2024-04-13,23.2344,120.0961,0.8560473
C0N050,蚵寮,2024-04-13,23.301,120.1104,0.8120341
C0O830,北寮,2024-04-13,23.079561,120.495008,0.77887356
C0O840,王爺宮,2024-04-13,23.222064,120.40085,0.6398745
C0O860,大內,2024-04-13,23.11885,120.36083,0.77933496
C0O900,善化,2024-04-13,23.112883,120.297219,0.7151794
C0O960,崎頂,2024-04-13,22.959547,120.369317,0.68729913
C0O970,虎頭埤,2024-04-13,23.021375,120.347878,0.72369313
C0O980,新市,2024-04-13,23.061614,120.298197,0.7546357
C0O990,媽廟,2024-04-13,22.99175,120.293525,0.7757977
C0R150,三地門,2024-04-13,22.709889,120.639944,0.86411536
C0R160,鹽埔,2024-04-13,22.739558,120.530778,0.8020595
C0R170,屏東,2024-04-13,22.660269,120.494072,0.8504625
C0R190,赤山,2024-04-13,22.592333,120.614306,0.8590656
C0R220,潮州,2024-04-13,22.534361,120.54,0.9031498
C0R240,來義,2024-04-13,22.527306,120.625111,0.9124428
C0R260,春日,2024-04-13,22.370361,120.628306,0.7231232
C0R270,琉球嶼,2024-04-13,22.332244,120.362236,0.6340006
C0R280,檳榔,2024-04-13,22.076078,120.836777,0.26439905
C0R320,車城,2024-04-13,22.0744,120.716247,0.2939755
C0R341,牡丹,2024-04-13,22.130036,120.792639,0.26306063
C0R350,貓鼻頭,2024-04-13,21.921774,120.7358,0.41396603
C0R470,高樹,2024-04-13,22.826389,120.600806,0.75309044
C0R480,長治,2024-04-13,22.693128,120.542622,0.84240574
C0R490,九如,2024-04-13,22.7405,120.490503,0.80146354
C0R520,崁頂,2024-04-13,22.514781,120.506914,0.9100162
C0R540,佳冬,2024-04-13,22.419456,120.552375,0.66437674
C0R550,新埤,2024-04-13,22.467947,120.582894,0.9300235
C0R560,新園,2024-04-13,22.5434,120.461558,0.91321313
C0R570,麟洛,2024-04-13,22.65078,120.52719,0.8504625
C0R580,南州,2024-04-13,22.48591,120.50274,0.9369151
C0R590,里港,2024-04-13,22.77919,120.49459,0.7899468
C0R620,墾雷,2024-04-13,21.900836,120.855269,0.5264409
C0R640,東港,2024-04-13,22.46247,120.44074,0.9057301
C0R650,竹田,2024-04-13,22.58486,120.54344,0.84940207
C0R660,枋寮,2024-04-13,22.367722,120.590647,0.66809547
C0R670,楓港,2024-04-13,22.190131,120.692156,0.2103452
C0R680,佳樂水,2024-04-13,21.993578,120.861633,0.33132622
C0R690,墾丁,2024-04-13,21.966756,120.810269,0.452585
C0R700,枋山,2024-04-13,22.246844,120.661086,0.31471652
C0R710,龍磐,2024-04-13,21.931672,120.838942,0.41573313
C0R720,旭海,2024-04-13,22.205403,120.887614,0.5066848
C0R730,大坪頂,2024-04-13,22.024633,120.69355,0.2520027
C0R740,獅子,2024-04-13,22.201569,120.70525,0.42563942
C0R760,南仁湖,2024-04-13,22.084681,120.863353,0.53611696
C0R770,保力,2024-04-13,22.071122,120.764111,0.2551036
C0R780,滿州,2024-04-13,22.024403,120.839892,0.35179064
C0R790,九棚,2024-04-13,22.14195,120.889281,0.31564993
C0R800,丹路,2024-04-13,22.204481,120.750989,0.34505695
C0R810,內獅,2024-04-13,22.305064,120.642986,0.22897808
C0R830,高士,2024-04-13,22.121825,120.836781,0.50110483
C0R850,林邊,2024-04-13,22.4634,120.5339,0.9259252
C0R860,鼻頭,2024-04-13,22.1043,120.8979,0.24983367
C0R870,興海,2024-04-13,21.9752,120.8439,0.3301172
C0R880,後壁湖,2024-04-13,21.9457,120.7457,0.3280659
C0R890,山海,2024-04-13,21.9878,120.7091,0.3291364
C0R900,竹坑,2024-04-13,22.1385,120.7022,0.29528168
C0R910,下寮,2024-04-13,22.3929,120.5548,0.6680952
C0R920,塭仔,2024-04-13,22.4169,120.5197,0.6194043
C0R930,萬丹,2024-04-13,22.5885,120.4851,0.8720237
C0R940,加祿堂,2024-04-13,22.3363,120.6217,0.35058996
C0S710,鹿野,2024-04-13,22.917711,121.122994,0.57977927
C0S730,綠島,2024-04-13,22.6672,121.47533,0.7087237
C0S740,池上,2024-04-13,23.119628,121.209469,0.25690848
C0S770,大溪山,2024-04-13,22.478475,120.943325,0.49393463
C0S790,金崙,2024-04-13,22.538122,120.966875,0.40680766
C0S810,東河,2024-04-13,22.972672,121.303986,0.39433977
C0S830,長濱,2024-04-13,23.286817,121.411975,0.4627321
C0S840,南田,2024-04-13,22.279725,120.889208,0.40695482
C0S890,關山,2024-04-13,23.0395,121.175017,0.43253922
C0S900,蘭嶼高中,2024-04-13,22.04909,121.51214,0.74620134
C0S910,蘭嶼燈塔,2024-04-13,22.081197,121.503117,0.7837565
C0S920,金峰嘉蘭,2024-04-13,22.594789,120.960825,0.36338922
C0S930,延平,2024-04-13,22.902581,121.084058,0.17932013
C0S940,石寧山,2024-04-13,23.223772,121.406639,0.2394677
C0S950,七塊厝,2024-04-13,22.954453,121.229922,0.5853784
C0S960,香蘭,2024-04-13,22.587569,120.993375,0.3572986
C0S970,加津林,2024-04-13,22.416211,120.926942,0.3575619
C0S990,山豬窟,2024-04-13,22.318619,120.857372,0.46354565
C0SA00,歷坵,2024-04-13,22.520969,120.89185,0.2915199
C0SA10,檳榔四格山,2024-04-13,22.810031,121.109308,0.6509479
C0SA30,都歷,2024-04-13,23.020333,121.323642,0.50035083
C0SA40,瑞和,2024-04-13,22.974361,121.156697,0.43522114
C0SA60,知本（水試所）,2024-04-13,22.702394,121.082761,0.22518983
C0SA80,土坂,2024-04-13,22.453108,120.887572,0.2712597
C0SA90,達仁林場,2024-04-13,22.264347,120.823972,0.3007933
C0T870,鯉魚潭,2024-04-13,23.935639,121.508944,0.3438719
C0T900,西林,2024-04-13,23.8119,121.441458,0.43362412
C0T960,光復,2024-04-13,23.660694,121.424964,0.5828521
C0T9A0,月眉山,2024-04-13,23.809928,121.539828,0.5599217
C0T9D0,和中,2024-04-13,24.26676,121.74103,0.8307549
C0T9E0,大坑,2024-04-13,23.880628,121.581981,0.5552098
C0T9F0,水璉,2024-04-13,23.797131,121.542514,0.6409335
C0T9I0,豐濱,2024-04-13,23.583897,121.514806,0.6836001
C0T9M0,靜浦,2024-04-13,23.455167,121.495028,0.4076175
C0T9N0,富里,2024-04-13,23.171639,121.249378,0.21161154
C0U600,礁溪,2024-04-13,24.817539,121.765608,0.18592893
C0U650,玉蘭,2024-04-13,24.675286,121.587061,0.56912005
C0U750,龜山島,2024-04-13,24.841667,121.953133,0.9201295
C0U760,東澳,2024-04-13,24.52196,121.83318,0.12877414
C0U770,南澳,2024-04-13,24.44935,121.81022,0.4557482
C0U780,五結,2024-04-13,24.68637,121.79794,0.14815602
C0U860,頭城,2024-04-13,24.85323,121.8308,0.09940563
C0U870,大礁溪,2024-04-13,24.791042,121.675047,0.2807281
C0U880,北關,2024-04-13,24.9072,121.8734,0.063329674
C0U890,三星,2024-04-13,24.66812,121.65302,0.18355963
C0U900,內城,2024-04-13,24.71813,121.68766,0.31346703
C0U910,冬山,2024-04-13,24.63373,121.7937,0.17151721
C0U940,羅東,2024-04-13,24.68184,121.74934,0.29854172
C0U970,大福,2024-04-13,24.80064,121.81389,0.120994724
C0U990,員山,2024-04-13,24.74435,121.72247,0.2642777
C0UA00,土場,2024-04-13,24.576533,121.495333,0.6577286
C0UA80,大溪漁港,2024-04-13,24.941801,121.902955,0.267663
C0UA90,石城,2024-04-13,24.980444,121.951214,0.13137838
C0UB00,淡江大學蘭陽校園,2024-04-13,24.823239,121.730383,0.583806
C0UB10,蘇澳,2024-04-13,24.5969,121.8571,0.20709342
C0UB20,壯圍,2024-04-13,24.7359,121.8163,0.11892387
C0V310,美濃,2024-04-13,22.898742,120.519153,0.7499183
C0V350,溪埔,2024-04-13,22.738578,120.446797,0.84293556
C0V360,內門,2024-04-13,22.975481,120.466769,0.7239413
C0V370,古亭坑,2024-04-13,22.893178,120.401947,0.7482514
C0V400,阿公店,2024-04-13,22.804194,120.355528,0.786065
C0V440,鳳山,2024-04-13,22.646653,120.356122,0.9111496
C0V450,鳳森,2024-04-13,22.545064,120.392592,0.8988766
C0V490,新興,2024-04-13,22.627422,120.298803,0.86868876
C0V530,阿蓮,2024-04-13,22.883208,120.327508,0.8081709
C0V610,梓官,2024-04-13,22.760558,120.267211,0.81348425
C0V620,永安,2024-04-13,22.82315,120.236856,0.86354834
C0V630,茄萣,2024-04-13,22.906642,120.182608,0.8957779
C0V640,湖內,2024-04-13,22.887139,120.2445,0.9057417
C0V650,彌陀,2024-04-13,22.783806,120.246361,0.8586197
C0V660,岡山,2024-04-13,22.797078,120.294958,0.8769873
C0V680,仁武,2024-04-13,22.701083,120.347722,0.9065411
C0V690,鼓山,2024-04-13,22.623325,120.275575,0.7529439
C0V700,三民,2024-04-13,22.645017,120.311233,0.8879138
C0V710,苓雅,2024-04-13,22.622742,120.330669,0.87207794
C0V720,林園,2024-04-13,22.507747,120.394511,0.8793942
C0V730,大寮,2024-04-13,22.605614,120.395717,0.89698005
C0V740,旗山,2024-04-13,22.888614,120.483597,0.74965453
C0V750,路竹,2024-04-13,22.854997,120.259439,0.90531975
C0V760,橋頭,2024-04-13,22.757806,120.30575,0.8458244
C0V770,大社,2024-04-13,22.730306,120.346639,0.8738893
C0V790,萬山,2024-04-13,22.905944,120.688056,0.7929614
C0V800,六龜,2024-04-13,22.997889,120.633583,0.8647254
C0V810,左營,2024-04-13,22.67491,120.28491,0.8879138
C0V820,小林,2024-04-13,23.148408,120.63325,0.4781577
C0V840,鳳鼻頭,2024-04-13,22.5083,120.3591,0.86880594
C0V850,蚵仔寮,2024-04-13,22.7256,120.2527,0.8134244
C0V860,南寮,2024-04-13,22.7616,120.2339,0.8134244
C0V870,文安,2024-04-13,22.8025,120.2164,0.7867564
C0V880,興達,2024-04-13,22.8778,120.2127,0.88393116
C0V890,前鎮,2024-04-13,22.5718,120.3117,0.8010862
C0V900,汕尾,2024-04-13,22.4782,120.4151,0.93305194
C0W200,湖西,2024-04-13,23.596314,119.67275,0.9808622
C0X050,東河,2024-04-13,23.296598,120.385608,0.64280957
C0X060,下營,2024-04-13,23.22695,120.256261,0.7735582
C0X080,佳里,2024-04-13,23.173039,120.145086,0.8845509
C0X100,臺南市北區,2024-04-13,23.010394,120.194228,0.89541906
C0X110,臺南市南區,2024-04-13,22.961189,120.188378,0.860702
C0X120,麻豆,2024-04-13,23.183289,120.248611,0.77617234
C0X130,官田,2024-04-13,23.193217,120.315422,0.7075159
C0X140,西港,2024-04-13,23.125608,120.203108,0.811141
C0X150,安定,2024-04-13,23.102614,120.227839,0.8122663
C0X160,仁德,2024-04-13,22.968258,120.257689,0.87027264
C0X170,關廟,2024-04-13,22.963017,120.327797,0.7263102
C0X180,山上,2024-04-13,23.0757,120.363253,0.78287864
C0X190,安平,2024-04-13,22.993161,120.152181,0.8517156
C0X200,左鎮,2024-04-13,23.056758,120.408522,0.66260004
C0X210,白河,2024-04-13,23.347466,120.414427,0.5390642
C0X220,學甲,2024-04-13,23.230367,120.182187,0.8581737
C0X230,鹽水,2024-04-13,23.272621,120.247641,0.8244963
C0X240,關子嶺,2024-04-13,23.331169,120.508025,0.3551803
C0X250,新營,2024-04-13,23.310689,120.316681,0.69888914
C0X260,後壁,2024-04-13,23.366358,120.362326,0.5796989
C0X280,將軍,2024-04-13,23.214999,120.13577,0.8746562
C0X290,北門,2024-04-13,23.267772,120.125481,0.8560473
C0X300,鹿寮,2024-04-13,23.386047,120.477331,0.49241173
C0X310,七股,2024-04-13,23.147289,120.086253,0.8433018
C0X320,柳營,2024-04-13,23.253328,120.375253,0.6757827
C0Z020,明里,2024-04-13,23.208717,121.262342,0.27848092
C0Z061,玉里,2024-04-13,23.3215,121.339656,0.4015747
C0Z070,舞鶴,2024-04-13,23.46811,121.37407,0.52447444
C0Z080,富源,2024-04-13,23.587642,121.378225,0.4131012
C0Z100,東華,2024-04-13,23.89525,121.549833,0.6159057
C0Z150,吉安光華,2024-04-13,23.930925,121.595153,0.66552746
C0Z160,鳳林,2024-04-13,23.746114,121.453411,0.56217104
C0Z170,卓溪,2024-04-13,23.3443,121.3029,0.5187353
C0Z180,新城,2024-04-13,24.03946,121.60454,0.60655123
C0Z190,富世,2024-04-13,24.14743,121.6297,0.46370712
C0Z200,萬榮,2024-04-13,23.709219,121.420106,0.5870225
C0Z210,瑞穗,2024-04-13,23.5239,121.39021,0.45379102
C0Z230,和平,2024-04-13,24.30717,121.77007,0.44009942
C0Z270,蕃薯寮,2024-04-13,23.73835,121.540108,0.78891754
C0Z280,德武,2024-04-13,23.47426,121.41071,0.4717012
C0Z300,東里,2024-04-13,23.26853,121.30547,0.31843084
C0Z310,清水斷崖,2024-04-13,24.218294,121.689142,0.5183613
C0Z330,安通山,2024-04-13,23.290728,121.348528,0.4216177
C2E520,大湖,2024-04-13,24.414939,120.870872,0.95776117
C2E540,後龍,2024-04-13,24.606489,120.783933,0.78675795
C2F000,大肚,2024-04-13,24.15295,120.572117,0.15454893
C2F930,大甲,2024-04-13,24.347667,120.640403,0.2561021
C2F9A0,中竹林,2024-04-13,24.103556,120.751061,0.75112945
C2G640,鹿港,2024-04-13,24.0753,120.430481,0.4000863
C2G840,北斗,2024-04-13,23.877586,120.514222,0.5052019
C2G870,芳苑,2024-04-13,23.922303,120.320025,0.66927415
C2H950,中寮,2024-04-13,23.884447,120.766406,0.7575418
C2M410,馬頭山,2024-04-13,23.324361,120.582017,0.43165505
C2N160,西拉雅風管處,2024-04-13,23.189481,120.335297,0.7119216
C2O810,曾文,2024-04-13,23.219681,120.497328,0.6614843
C2O930,玉井,2024-04-13,23.126042,120.46055,0.7326747
C2O950,安南,2024-04-13,23.076694,120.144861,0.8838525
C2V250,甲仙,2024-04-13,23.080106,120.591758,0.86309487
C2V260,月眉,2024-04-13,22.971003,120.539853,0.7741932
C2W230,畜試所澎湖,2024-04-13,23.628342,119.513206,0.9810145
CAG100,王功漁港,2024-04-13,23.96824,120.32586,0.6379312
CAH030,茶改場竹圍站,2024-04-13,23.860083,120.637528,0.42382282
CAJ050,海口故事園區,2024-04-13,23.57543,120.14121,0.75315255
CAL110,布袋國中,2024-04-13,23.35893,120.18026,0.7335443
CAN130,水試所海水繁養殖中心,2024-04-13,23.120802,120.07968,0.83534646
CAN140,六官養殖協會,2024-04-13,23.22881,120.29962,0.73848903
CAQ030,崎峰國小,2024-04-13,22.42565,120.49521,0.9294724
E2K600,四湖植物園,2024-04-13,23.676986,120.163433,0.7506243
E2P980,林試六龜中心,2024-04-13,22.991703,120.645722,0.8592335
E2S960,林試太麻里2,2024-04-13,22.598014,120.989761,0.351196
E2S960,林試太麻里2,2024-04-13,22.598,120.99775,0.3581279
E2S980,林試太麻里1,2024-04-13,22.598922,120.980044,0.34761584
G2AI50,關渡,2024-04-13,25.11575,121.492,0.14464442
G2F820,農業試驗所,2024-04-13,24.031261,120.688133,0.22373283
G2F820,農試所(霧峰),2024-04-13,24.031261,120.688133,0.22373283
G2L020,農試嘉義分所,2024-04-13,23.485028,120.473806,0.61323667
G2M350,農試溪口農場,2024-04-13,23.58565,120.408111,0.63877535
G2P820,農試鳳山分所,2024-04-13,22.646611,120.356083,0.9111496
K2E360,苗栗農改,2024-04-13,24.495722,120.829111,0.4576658
K2E360,苗栗農改場,2024-04-13,24.495722,120.829111,0.4576656
K2E710,苗改生物防治研究中心,2024-04-13,24.422861,120.871833,0.96335536
K2F750,種苗改良場,2024-04-13,24.225972,120.800917,0.3662483
K2F750,種苗繁殖,2024-04-13,24.225972,120.800917,0.3662483
U2HA50,臺大竹山,2024-04-13,23.756972,120.681556,0.6827209
V2C250,八德合作社,2024-04-13,24.93775,121.266389,0.29381204
V2C260,八德蔬果,2024-04-13,24.978508,121.281819,0.2476847
V2K610,大庄合作社,2024-04-13,23.8068,120.367939,0.6624265
V2K620,麥寮合作社,2024-04-13,23.753836,120.294783,0.7164014
