站號,站名,日期,lat,lon,BlastGRU-TW
12J990,口湖工作站,2024-11-14,23.589978,120.180394,0.89552665
12Q970,東港工作站,2024-11-14,22.479997,120.466058,0.9512924
12Q980,恆春工作站,2024-11-14,22.079678,120.714425,0.67331946
466881,新北,2024-11-14,24.9593,121.52,0.9882424
466900,淡水,2024-11-14,25.164889,121.448906,0.92020994
466920,臺北,2024-11-14,25.037658,121.514853,0.9796578
466940,基隆,2024-11-14,25.133314,121.740475,0.97028196
466990,花蓮,2024-11-14,23.975128,121.613275,0.9996523
467050,新屋,2024-11-14,25.006744,121.047486,0.9034347
467080,宜蘭,2024-11-14,24.763975,121.756528,0.99767596
467270,田中,2024-11-14,23.873803,120.581286,0.96169704
467280,後龍,2024-11-14,24.648563,120.831834,0.81079715
467290,古坑,2024-11-14,23.633639,120.551889,0.9789018
467300,東吉島,2024-11-14,23.25695,119.667467,0.18914267
467350,澎湖,2024-11-14,23.565503,119.563094,0.0066020857
467410,臺南,2024-11-14,22.993239,120.204772,0.8651541
467420,永康,2024-11-14,23.038386,120.2367,0.8592809
467441,高雄,2024-11-14,22.7304,120.3125,0.92114973
467480,嘉義,2024-11-14,23.495925,120.432906,0.9366997
467490,臺中,2024-11-14,24.145736,120.684075,0.95552784
467540,大武,2024-11-14,22.355675,120.903789,0.9699399
467571,新竹,2024-11-14,24.827853,121.014219,0.894734
467590,恆春,2024-11-14,22.003897,120.746339,0.7773051
467610,成功,2024-11-14,23.097486,121.373428,0.99617964
467620,蘭嶼,2024-11-14,22.036969,121.558339,0.97433925
467660,臺東,2024-11-14,22.752211,121.154586,0.99138653
467790,墾丁雷達站,2024-11-14,21.948235,120.808028,0.6798676
72AI40,桃改樹林分場,2024-11-14,24.944503,121.386972,0.977579
72C440,桃園農改,2024-11-14,24.950944,121.030583,0.8738781
72C440,桃園農改場,2024-11-14,24.950944,121.030583,0.8738781
72D680,桃改新埔分場,2024-11-14,24.834444,121.066111,0.90628564
72G600,臺中農改,2024-11-14,24.003028,120.534389,0.8605089
72G600,臺中農改場,2024-11-14,24.003028,120.534389,0.8605089
72K220,南改斗南分場,2024-11-14,23.634556,120.477333,0.9643642
72M360,南改義竹分場,2024-11-14,23.360694,120.279361,0.8294877
72M700,南改鹿草分場,2024-11-14,23.416869,120.283061,0.87306565
72N100,臺南農改,2024-11-14,23.0605,120.342194,0.91345906
72N100,臺南農改場,2024-11-14,23.0605,120.342194,0.91345906
72N240,七股研究中心,2024-11-14,23.081672,120.062894,0.8023867
72Q010,高雄農改,2024-11-14,22.709333,120.525889,0.9751527
72Q010,高雄農改場,2024-11-14,22.709333,120.525889,0.9751527
72S200,東改班鳩分場,2024-11-14,22.829528,121.077694,0.99564576
72S590,東改賓朗果園,2024-11-14,22.813889,121.071278,0.9953135
72T250,花蓮農改,2024-11-14,23.975222,121.563889,0.9996404
72T250,花蓮農改場,2024-11-14,23.975222,121.563889,0.9996404
72U480,花改蘭陽分場,2024-11-14,24.686306,121.716583,0.9998708
72V140,高改旗南分場,2024-11-14,22.857861,120.516667,0.95568305
82A750,茶改北部分場,2024-11-14,24.955778,121.631222,0.92998224
82C160,茶改場,2024-11-14,24.908472,121.185333,0.9375758
82H840,茶改南部分場,2024-11-14,23.762528,120.7405,0.98175746
82S580,茶改東部分場,2024-11-14,22.907694,121.130139,0.99669963
A2C560,農工中心,2024-11-14,24.985917,121.239833,0.929166
A2K360,水試臺西試驗場,2024-11-14,23.717231,120.190522,0.90708554
A2K570,古坑花卉中心,2024-11-14,23.63353,120.55239,0.9789018
A2K630,臺大雲林校區,2024-11-14,23.730628,120.423903,0.9016703
A2N290,臺南蘭花園區,2024-11-14,23.340258,120.379661,0.9005084
B2E890,畜試北區分所,2024-11-14,24.527806,120.770972,0.8053263
B2N890,畜產試驗所,2024-11-14,23.058972,120.336406,0.9143822
B2N890,畜試所,2024-11-14,23.058972,120.336406,0.9143822
B2Q810,畜試南區分所,2024-11-14,21.945583,120.802167,0.6481348
B2U990,畜試東區分所,2024-11-14,24.669039,121.832561,0.9999446
C0A520,山佳,2024-11-14,24.974944,121.402008,0.9797561
C0A530,坪林,2024-11-14,24.938183,121.70975,0.9738214
C0A550,泰平,2024-11-14,24.971197,121.823711,0.94840586
C0A570,桶後,2024-11-14,24.848222,121.597992,0.97915
C0A640,石碇,2024-11-14,24.993969,121.662917,0.97354776
C0A770,科教館,2024-11-14,25.096356,121.516507,0.9808724
C0A860,大坪,2024-11-14,25.165914,121.632969,0.8061818
C0A890,雙溪,2024-11-14,25.036003,121.864242,0.97940546
C0A931,三和,2024-11-14,25.233153,121.595236,0.8424804
C0A940,金山,2024-11-14,25.223628,121.643967,0.95763
C0A950,鼻頭角,2024-11-14,25.129036,121.923372,0.97684664
C0A970,三貂角,2024-11-14,25.007606,122.002058,0.984344
C0A980,社子,2024-11-14,25.109508,121.469681,0.9223253
C0A9C0,天母,2024-11-14,25.117494,121.537169,0.96343553
C0A9F0,內湖,2024-11-14,25.079422,121.57545,0.9796578
C0AC60,三峽,2024-11-14,24.939025,121.369728,0.9771355
C0AC70,信義,2024-11-14,25.037822,121.564597,0.9796578
C0AC80,文山,2024-11-14,25.00235,121.575728,0.9876679
C0ACA0,新莊,2024-11-14,25.051478,121.446756,0.965774
C0AD10,八里,2024-11-14,25.150211,121.403947,0.91238725
C0AD30,蘆洲,2024-11-14,25.086594,121.472331,0.9806501
C0AD40,土城,2024-11-14,24.973208,121.445169,0.9885435
C0AD50,鶯歌,2024-11-14,24.951533,121.346294,0.9761528
C0AG80,中和,2024-11-14,24.991622,121.491792,0.9885435
C0AH00,汐止,2024-11-14,25.066881,121.658778,0.9796578
C0AH10,永和,2024-11-14,25.01125,121.508111,0.98872954
C0AH40,平等,2024-11-14,25.129142,121.577086,0.774448
C0AH50,林口,2024-11-14,25.072181,121.38084,0.8521814
C0AH70,松山,2024-11-14,25.04871,121.55042,0.9796578
C0AH80,深坑,2024-11-14,25.002703,121.628328,0.987832
C0AI00,五股,2024-11-14,25.07445,121.42728,0.893869
C0AI10,屈尺,2024-11-14,24.92184,121.54475,0.9939357
C0AI20,白沙灣,2024-11-14,25.283128,121.519058,0.93251264
C0AI30,三重,2024-11-14,25.057328,121.500629,0.97990507
C0AI40,石牌,2024-11-14,25.115597,121.513139,0.9640856
C0AJ20,野柳,2024-11-14,25.20703,121.690021,0.9492921
C0AJ30,淡水觀海,2024-11-14,25.184591,121.408616,0.94945693
C0AJ40,石門,2024-11-14,25.273672,121.601198,0.81676215
C0AJ50,水湳洞,2024-11-14,25.123695,121.862238,0.95694196
C0AJ60,六塊厝,2024-11-14,25.24,121.4481,0.93515515
C0AJ70,田寮,2024-11-14,25.2698,121.4886,0.9335118
C0AJ80,板橋,2024-11-14,25.0107,121.4489,0.98872954
C0AJ90,澳底,2024-11-14,25.0552,121.9253,0.98107463
C0B010,七堵,2024-11-14,25.094819,121.71713,0.97865504
C0B020,基隆嶼,2024-11-14,25.19141,121.78391,0.93659544
C0B040,大武崙,2024-11-14,25.166676,121.706993,0.9682635
C0B050,八斗子,2024-11-14,25.144754,121.79167,0.970793
C0B060,暖暖,2024-11-14,25.0957,121.7403,0.97657114
C0C460,復興,2024-11-14,24.820208,121.352281,0.97696555
C0C480,桃園,2024-11-14,24.992425,121.323172,0.9483517
C0C490,八德,2024-11-14,24.928708,121.283289,0.9707275
C0C590,觀音,2024-11-14,25.027072,121.153317,0.88159
C0C620,蘆竹,2024-11-14,25.084275,121.265767,0.87620205
C0C630,大溪,2024-11-14,24.882853,121.265547,0.9747363
C0C650,平鎮,2024-11-14,24.897503,121.214636,0.9664622
C0C660,楊梅,2024-11-14,24.912375,121.143047,0.944475
C0C670,龍潭,2024-11-14,24.870056,121.221389,0.9716624
C0C680,龜山,2024-11-14,25.02846,121.38656,0.84729046
C0C700,中壢,2024-11-14,24.977661,121.256375,0.9422988
C0C710,大溪永福,2024-11-14,24.892936,121.324975,0.9865487
C0C720,竹圍,2024-11-14,25.112692,121.239824,0.88748217
C0C730,中大臨海站,2024-11-14,24.966126,121.008581,0.9080029
C0C740,觀音工業區,2024-11-14,25.064764,121.114856,0.8751803
C0C750,新興坑尾,2024-11-14,25.0061,121.0971,0.91232824
C0D430,峨眉,2024-11-14,24.6905,121.017189,0.8351425
C0D480,打鐵坑,2024-11-14,24.849664,121.150789,0.97153354
C0D540,橫山,2024-11-14,24.71116,121.11693,0.90605044
C0D560,竹東,2024-11-14,24.767147,121.057881,0.8940319
C0D580,寶山,2024-11-14,24.735006,121.025192,0.8884935
C0D590,新豐,2024-11-14,24.87068,120.97721,0.7509682
C0D650,湖口,2024-11-14,24.904794,121.043628,0.88734376
C0D660,新竹市東區,2024-11-14,24.798681,120.986942,0.8572802
C0D670,海天一線,2024-11-14,24.831986,120.914438,0.8124773
C0D680,香山濕地,2024-11-14,24.783581,120.914988,0.8755806
C0D690,外湖,2024-11-14,24.917735,120.968711,0.9095903
C0D700,關西,2024-11-14,24.7977,121.1732,0.9275279
C0E420,竹南,2024-11-14,24.708978,120.888897,0.7161787
C0E430,南庄,2024-11-14,24.601775,121.000214,0.8928957
C0E550,明德,2024-11-14,24.583486,120.885411,0.8137763
C0E590,通霄,2024-11-14,24.471892,120.704622,0.64147675
C0E730,頭份,2024-11-14,24.688247,120.912206,0.7210991
C0E740,造橋,2024-11-14,24.637056,120.864778,0.81558007
C0E750,苗栗,2024-11-14,24.564569,120.824575,0.8168814
C0E780,銅鑼,2024-11-14,24.489681,120.790853,0.77618855
C0E791,卓蘭,2024-11-14,24.3126,120.8244,0.93355316
C0E810,西湖,2024-11-14,24.562947,120.7485,0.47008488
C0E820,獅潭,2024-11-14,24.539133,120.920042,0.86303043
C0E830,苑裡,2024-11-14,24.439714,120.653053,0.7078455
C0E850,大河,2024-11-14,24.618069,120.948578,0.86904997
C0E870,高鐵苗栗,2024-11-14,24.60725,120.826094,0.81286377
C0E910,海埔,2024-11-14,24.648767,120.772435,0.74938226
C0E920,通霄漁港,2024-11-14,24.498589,120.673876,0.6138773
C0E930,龍鳳,2024-11-14,24.700034,120.859125,0.7375096
C0F0B0,石岡,2024-11-14,24.276061,120.777644,0.95325434
C0F850,東勢,2024-11-14,24.246428,120.833047,0.9192168
C0F970,大坑,2024-11-14,24.173142,120.722289,0.96568817
C0F9I0,神岡,2024-11-14,24.272481,120.658314,0.8579806
C0F9K0,大安,2024-11-14,24.345061,120.588025,0.7800288
C0F9L0,后里,2024-11-14,24.310436,120.729725,0.9572922
C0F9M0,豐原,2024-11-14,24.254322,120.720692,0.95968175
C0F9N0,大里,2024-11-14,24.092464,120.701378,0.9574877
C0F9O0,潭子,2024-11-14,24.213106,120.703933,0.95985603
C0F9P0,清水,2024-11-14,24.312297,120.562242,0.79847175
C0F9Q0,外埔,2024-11-14,24.347817,120.705686,0.849079
C0F9R0,龍井,2024-11-14,24.184536,120.528972,0.80387217
C0F9S0,烏日,2024-11-14,24.107058,120.624103,0.95942277
C0F9T0,西屯,2024-11-14,24.179494,120.641275,0.89514154
C0F9U0,南屯,2024-11-14,24.137006,120.637969,0.904374
C0F9X0,大雅(中科園區),2024-11-14,24.21528,120.62445,0.845977
C0FA10,松柏,2024-11-14,24.429115,120.617482,0.69930005
C0FA20,溫寮,2024-11-14,24.372177,120.583125,0.7938276
C0FA30,梧棲,2024-11-14,24.256003,120.523381,0.79847175
C0FA40,臺中電廠,2024-11-14,24.2146,120.4907,0.7587715
C0FA50,霧峰,2024-11-14,24.0419,120.6995,0.95320857
C0G620,芬園,2024-11-14,24.015678,120.6213,0.96020424
C0G650,員林,2024-11-14,23.946503,120.585597,0.9363645
C0G660,溪湖,2024-11-14,23.94835,120.479122,0.8775993
C0G720,溪州,2024-11-14,23.851589,120.499093,0.9205595
C0G730,二林,2024-11-14,23.903325,120.376081,0.82139796
C0G740,大城,2024-11-14,23.852487,120.320935,0.8916513
C0G770,福興,2024-11-14,24.041289,120.437669,0.80684185
C0G780,秀水,2024-11-14,24.03405,120.503869,0.86277825
C0G800,埔鹽,2024-11-14,24.000394,120.431683,0.8052267
C0G810,埔心,2024-11-14,23.947633,120.525456,0.8737862
C0G820,田尾,2024-11-14,23.901669,120.509389,0.9170303
C0G830,埤頭,2024-11-14,23.866003,120.452806,0.923334
C0G860,社頭,2024-11-14,23.897647,120.5862,0.9623955
C0G880,二水,2024-11-14,23.810742,120.6173,0.98069745
C0G890,伸港,2024-11-14,24.148933,120.484403,0.77516955
C0G900,線西,2024-11-14,24.143358,120.443536,0.7785347
C0G910,花壇,2024-11-14,24.032076,120.549461,0.8551053
C0G920,永靖,2024-11-14,23.924703,120.547533,0.9170303
C0G940,竹塘,2024-11-14,23.848253,120.386764,0.81674796
C0G950,防潮門,2024-11-14,24.1835,120.4871,0.80387217
C0G960,福寶,2024-11-14,24.0443,120.3814,0.75198954
C0G970,三豐,2024-11-14,23.882,120.2895,0.88402194
C0H890,埔里,2024-11-14,23.972169,120.952425,0.98651516
C0H960,草屯,2024-11-14,23.973672,120.68085,0.9609306
C0I110,竹山,2024-11-14,23.761225,120.688156,0.97404253
C0I360,水里,2024-11-14,23.812553,120.849792,0.98247445
C0I380,集集,2024-11-14,23.828206,120.801467,0.9827997
C0I410,名間,2024-11-14,23.837053,120.701447,0.9736894
C0I420,國姓,2024-11-14,24.037803,120.855072,0.97479457
C0I460,南投,2024-11-14,23.911469,120.687331,0.96713156
C0K250,崙背,2024-11-14,23.75555,120.318925,0.7850569
C0K280,四湖,2024-11-14,23.630414,120.227125,0.8636934
C0K291,宜梧,2024-11-14,23.536281,120.169329,0.80516213
C0K330,虎尾,2024-11-14,23.719183,120.442036,0.91044426
C0K390,土庫,2024-11-14,23.679029,120.395574,0.8868182
C0K400,斗六,2024-11-14,23.720583,120.541127,0.96373296
C0K410,北港,2024-11-14,23.573957,120.292802,0.76784414
C0K420,西螺,2024-11-14,23.800407,120.467394,0.91623604
C0K430,褒忠,2024-11-14,23.690938,120.303634,0.8096502
C0K440,二崙,2024-11-14,23.772797,120.408944,0.90767235
C0K450,大埤,2024-11-14,23.646074,120.431537,0.94937986
C0K460,斗南,2024-11-14,23.678734,120.478359,0.9643642
C0K470,林內,2024-11-14,23.748675,120.609642,0.98165
C0K480,莿桐,2024-11-14,23.761192,120.502372,0.9618299
C0K500,元長,2024-11-14,23.64981,120.315024,0.79834247
C0K510,水林,2024-11-14,23.572924,120.24597,0.7636707
C0K530,臺西,2024-11-14,23.701547,120.197559,0.9068826
C0K550,蔦松,2024-11-14,23.514319,120.229736,0.80516213
C0K560,棋山,2024-11-14,23.68645,120.603417,0.97846466
C0K580,高鐵雲林,2024-11-14,23.737456,120.417944,0.9016703
C0K590,雲林東勢,2024-11-14,23.674192,120.255721,0.8098583
C0K600,箔子寮,2024-11-14,23.6197,120.14,0.89552665
C0M520,東後寮,2024-11-14,23.369908,120.248065,0.83260846
C0M640,中埔,2024-11-14,23.42538,120.5229,0.9466521
C0M650,朴子,2024-11-14,23.43463,120.23902,0.87531257
C0M660,溪口,2024-11-14,23.604131,120.403569,0.9407377
C0M670,大林,2024-11-14,23.600616,120.45841,0.95698726
C0M680,太保,2024-11-14,23.455062,120.331455,0.93227994
C0M690,水上,2024-11-14,23.419734,120.388909,0.93265176
C0M700,竹崎,2024-11-14,23.526178,120.555508,0.96390593
C0M710,東石,2024-11-14,23.458927,120.15385,0.8071068
C0M720,番路,2024-11-14,23.464657,120.554156,0.9662852
C0M730,嘉義市東區,2024-11-14,23.457673,120.460531,0.9571738
C0M740,六腳,2024-11-14,23.492871,120.290625,0.8705852
C0M750,布袋,2024-11-14,23.380878,120.167789,0.83144015
C0M760,民雄,2024-11-14,23.551754,120.428457,0.94805
C0M770,嘉義梅山,2024-11-14,23.585398,120.555587,0.9682218
C0M780,鹿草,2024-11-14,23.41134,120.30835,0.8718023
C0M790,新港,2024-11-14,23.553269,120.345728,0.89487725
C0M800,茶山,2024-11-14,23.299075,120.664767,0.9685547
C0M880,好美里,2024-11-14,23.3364,120.138,0.81865174
C0N010,鯤鯓國小,2024-11-14,23.1879,120.0889,0.7975207
C0N020,城西,2024-11-14,23.0568,120.0956,0.8674253
C0N030,四草,2024-11-14,23.0235,120.1116,0.86370295
C0N040,蘆竹溝,2024-11-14,23.2344,120.0961,0.8129395
C0N050,蚵寮,2024-11-14,23.301,120.1104,0.8257151
C0O830,北寮,2024-11-14,23.079561,120.495008,0.97198015
C0O840,王爺宮,2024-11-14,23.222064,120.40085,0.9010686
C0O860,大內,2024-11-14,23.11885,120.36083,0.9130789
C0O900,善化,2024-11-14,23.112883,120.297219,0.9044492
C0O960,崎頂,2024-11-14,22.959547,120.369317,0.932101
C0O970,虎頭埤,2024-11-14,23.021375,120.347878,0.9469304
C0O980,新市,2024-11-14,23.061614,120.298197,0.91038185
C0O990,媽廟,2024-11-14,22.99175,120.293525,0.86477506
C0R150,三地門,2024-11-14,22.709889,120.639944,0.98521197
C0R160,鹽埔,2024-11-14,22.739558,120.530778,0.9751527
C0R170,屏東,2024-11-14,22.660269,120.494072,0.95232344
C0R190,赤山,2024-11-14,22.592333,120.614306,0.9768379
C0R220,潮州,2024-11-14,22.534361,120.54,0.97016096
C0R240,來義,2024-11-14,22.527306,120.625111,0.97163874
C0R260,春日,2024-11-14,22.370361,120.628306,0.99005586
C0R270,琉球嶼,2024-11-14,22.332244,120.362236,0.881553
C0R280,檳榔,2024-11-14,22.076078,120.836777,0.97806627
C0R320,車城,2024-11-14,22.0744,120.716247,0.67331946
C0R341,牡丹,2024-11-14,22.130036,120.792639,0.97741956
C0R350,貓鼻頭,2024-11-14,21.921774,120.7358,0.93189496
C0R470,高樹,2024-11-14,22.826389,120.600806,0.98312545
C0R480,長治,2024-11-14,22.693128,120.542622,0.8481291
C0R490,九如,2024-11-14,22.7405,120.490503,0.9748609
C0R520,崁頂,2024-11-14,22.514781,120.506914,0.9696591
C0R540,佳冬,2024-11-14,22.419456,120.552375,0.9895783
C0R550,新埤,2024-11-14,22.467947,120.582894,0.95640993
C0R560,新園,2024-11-14,22.5434,120.461558,0.87554514
C0R570,麟洛,2024-11-14,22.65078,120.52719,0.95232344
C0R580,南州,2024-11-14,22.48591,120.50274,0.9512924
C0R590,里港,2024-11-14,22.77919,120.49459,0.95250154
C0R620,墾雷,2024-11-14,21.900836,120.855269,0.77132565
C0R640,東港,2024-11-14,22.46247,120.44074,0.9512924
C0R650,竹田,2024-11-14,22.58486,120.54344,0.9787177
C0R660,枋寮,2024-11-14,22.367722,120.590647,0.9896145
C0R670,楓港,2024-11-14,22.190131,120.692156,0.79193836
C0R680,佳樂水,2024-11-14,21.993578,120.861633,0.6592844
C0R690,墾丁,2024-11-14,21.966756,120.810269,0.92360806
C0R700,枋山,2024-11-14,22.246844,120.661086,0.9011146
C0R710,龍磐,2024-11-14,21.931672,120.838942,0.7699049
C0R720,旭海,2024-11-14,22.205403,120.887614,0.96830326
C0R730,大坪頂,2024-11-14,22.024633,120.69355,0.9289573
C0R740,獅子,2024-11-14,22.201569,120.70525,0.928426
C0R760,南仁湖,2024-11-14,22.084681,120.863353,0.97723204
C0R770,保力,2024-11-14,22.071122,120.764111,0.7862691
C0R780,滿州,2024-11-14,22.024403,120.839892,0.79763144
C0R790,九棚,2024-11-14,22.14195,120.889281,0.9625877
C0R800,丹路,2024-11-14,22.204481,120.750989,0.9646157
C0R810,內獅,2024-11-14,22.305064,120.642986,0.9778692
C0R830,高士,2024-11-14,22.121825,120.836781,0.9794292
C0R850,林邊,2024-11-14,22.4634,120.5339,0.9532314
C0R860,鼻頭,2024-11-14,22.1043,120.8979,0.8612922
C0R870,興海,2024-11-14,21.9752,120.8439,0.6481348
C0R880,後壁湖,2024-11-14,21.9457,120.7457,0.8700151
C0R890,山海,2024-11-14,21.9878,120.7091,0.8747437
C0R900,竹坑,2024-11-14,22.1385,120.7022,0.6857432
C0R910,下寮,2024-11-14,22.3929,120.5548,0.9896145
C0R920,塭仔,2024-11-14,22.4169,120.5197,0.989502
C0R930,萬丹,2024-11-14,22.5885,120.4851,0.92458457
C0R940,加祿堂,2024-11-14,22.3363,120.6217,0.98858404
C0S710,鹿野,2024-11-14,22.917711,121.122994,0.9975551
C0S730,綠島,2024-11-14,22.6672,121.47533,0.9571055
C0S740,池上,2024-11-14,23.119628,121.209469,0.99645007
C0S770,大溪山,2024-11-14,22.478475,120.943325,0.9946176
C0S790,金崙,2024-11-14,22.538122,120.966875,0.994282
C0S810,東河,2024-11-14,22.972672,121.303986,0.9883278
C0S830,長濱,2024-11-14,23.286817,121.411975,0.9992414
C0S840,南田,2024-11-14,22.279725,120.889208,0.9335997
C0S890,關山,2024-11-14,23.0395,121.175017,0.9988707
C0S900,蘭嶼高中,2024-11-14,22.04909,121.51214,0.89643425
C0S910,蘭嶼燈塔,2024-11-14,22.081197,121.503117,0.979586
C0S920,金峰嘉蘭,2024-11-14,22.594789,120.960825,0.9949467
C0S930,延平,2024-11-14,22.902581,121.084058,0.9965803
C0S940,石寧山,2024-11-14,23.223772,121.406639,0.9994208
C0S950,七塊厝,2024-11-14,22.954453,121.229922,0.99690986
C0S960,香蘭,2024-11-14,22.587569,120.993375,0.9945882
C0S970,加津林,2024-11-14,22.416211,120.926942,0.9754905
C0S990,山豬窟,2024-11-14,22.318619,120.857372,0.9943999
C0SA00,歷坵,2024-11-14,22.520969,120.89185,0.9932841
C0SA10,檳榔四格山,2024-11-14,22.810031,121.109308,0.99534327
C0SA30,都歷,2024-11-14,23.020333,121.323642,0.9990877
C0SA40,瑞和,2024-11-14,22.974361,121.156697,0.99783134
C0SA60,知本（水試所）,2024-11-14,22.702394,121.082761,0.99424666
C0SA80,土坂,2024-11-14,22.453108,120.887572,0.99112993
C0SA90,達仁林場,2024-11-14,22.264347,120.823972,0.99161303
C0T870,鯉魚潭,2024-11-14,23.935639,121.508944,0.9997283
C0T900,西林,2024-11-14,23.8119,121.441458,0.99981016
C0T960,光復,2024-11-14,23.660694,121.424964,0.99906695
C0T9A0,月眉山,2024-11-14,23.809928,121.539828,0.99966615
C0T9D0,和中,2024-11-14,24.26676,121.74103,0.9995054
C0T9E0,大坑,2024-11-14,23.880628,121.581981,0.9996589
C0T9F0,水璉,2024-11-14,23.797131,121.542514,0.9997821
C0T9I0,豐濱,2024-11-14,23.583897,121.514806,0.99939483
C0T9M0,靜浦,2024-11-14,23.455167,121.495028,0.999514
C0T9N0,富里,2024-11-14,23.171639,121.249378,0.99714804
C0U600,礁溪,2024-11-14,24.817539,121.765608,0.991851
C0U650,玉蘭,2024-11-14,24.675286,121.587061,0.99827576
C0U750,龜山島,2024-11-14,24.841667,121.953133,0.94371593
C0U760,東澳,2024-11-14,24.52196,121.83318,0.9992555
C0U770,南澳,2024-11-14,24.44935,121.81022,0.997867
C0U780,五結,2024-11-14,24.68637,121.79794,0.9998735
C0U860,頭城,2024-11-14,24.85323,121.8308,0.99193716
C0U870,大礁溪,2024-11-14,24.791042,121.675047,0.9925878
C0U880,北關,2024-11-14,24.9072,121.8734,0.99031836
C0U890,三星,2024-11-14,24.66812,121.65302,0.99987704
C0U900,內城,2024-11-14,24.71813,121.68766,0.9998681
C0U910,冬山,2024-11-14,24.63373,121.7937,0.9999446
C0U940,羅東,2024-11-14,24.68184,121.74934,0.99987197
C0U970,大福,2024-11-14,24.80064,121.81389,0.99771106
C0U990,員山,2024-11-14,24.74435,121.72247,0.9998722
C0UA00,土場,2024-11-14,24.576533,121.495333,0.99792844
C0UA80,大溪漁港,2024-11-14,24.941801,121.902955,0.98856765
C0UA90,石城,2024-11-14,24.980444,121.951214,0.9860166
C0UB00,淡江大學蘭陽校園,2024-11-14,24.823239,121.730383,0.96545786
C0UB10,蘇澳,2024-11-14,24.5969,121.8571,0.99989426
C0UB20,壯圍,2024-11-14,24.7359,121.8163,0.9998745
C0V310,美濃,2024-11-14,22.898742,120.519153,0.95568305
C0V350,溪埔,2024-11-14,22.738578,120.446797,0.90975374
C0V360,內門,2024-11-14,22.975481,120.466769,0.93807995
C0V370,古亭坑,2024-11-14,22.893178,120.401947,0.91622216
C0V400,阿公店,2024-11-14,22.804194,120.355528,0.9213228
C0V440,鳳山,2024-11-14,22.646653,120.356122,0.9499901
C0V450,鳳森,2024-11-14,22.545064,120.392592,0.90770036
C0V490,新興,2024-11-14,22.627422,120.298803,0.8494043
C0V530,阿蓮,2024-11-14,22.883208,120.327508,0.92252475
C0V610,梓官,2024-11-14,22.760558,120.267211,0.91671896
C0V620,永安,2024-11-14,22.82315,120.236856,0.89572394
C0V630,茄萣,2024-11-14,22.906642,120.182608,0.8749504
C0V640,湖內,2024-11-14,22.887139,120.2445,0.859391
C0V650,彌陀,2024-11-14,22.783806,120.246361,0.8979941
C0V660,岡山,2024-11-14,22.797078,120.294958,0.8979941
C0V680,仁武,2024-11-14,22.701083,120.347722,0.9434894
C0V690,鼓山,2024-11-14,22.623325,120.275575,0.8494043
C0V700,三民,2024-11-14,22.645017,120.311233,0.9421132
C0V710,苓雅,2024-11-14,22.622742,120.330669,0.8593808
C0V720,林園,2024-11-14,22.507747,120.394511,0.8761472
C0V730,大寮,2024-11-14,22.605614,120.395717,0.86424696
C0V740,旗山,2024-11-14,22.888614,120.483597,0.9560853
C0V750,路竹,2024-11-14,22.854997,120.259439,0.86178833
C0V760,橋頭,2024-11-14,22.757806,120.30575,0.91671896
C0V770,大社,2024-11-14,22.730306,120.346639,0.92114973
C0V790,萬山,2024-11-14,22.905944,120.688056,0.98676527
C0V800,六龜,2024-11-14,22.997889,120.633583,0.9902382
C0V810,左營,2024-11-14,22.67491,120.28491,0.9421132
C0V820,小林,2024-11-14,23.148408,120.63325,0.96409965
C0V840,鳳鼻頭,2024-11-14,22.5083,120.3591,0.8671042
C0V850,蚵仔寮,2024-11-14,22.7256,120.2527,0.9146907
C0V860,南寮,2024-11-14,22.7616,120.2339,0.9146907
C0V870,文安,2024-11-14,22.8025,120.2164,0.89545906
C0V880,興達,2024-11-14,22.8778,120.2127,0.8565807
C0V890,前鎮,2024-11-14,22.5718,120.3117,0.8434155
C0V900,汕尾,2024-11-14,22.4782,120.4151,0.9512924
C0W200,湖西,2024-11-14,23.596314,119.67275,0.017273996
C0X050,東河,2024-11-14,23.296598,120.385608,0.9040391
C0X060,下營,2024-11-14,23.22695,120.256261,0.8899151
C0X080,佳里,2024-11-14,23.173039,120.145086,0.7975207
C0X100,臺南市北區,2024-11-14,23.010394,120.194228,0.864756
C0X110,臺南市南區,2024-11-14,22.961189,120.188378,0.8691341
C0X120,麻豆,2024-11-14,23.183289,120.248611,0.86789656
C0X130,官田,2024-11-14,23.193217,120.315422,0.9141714
C0X140,西港,2024-11-14,23.125608,120.203108,0.7995145
C0X150,安定,2024-11-14,23.102614,120.227839,0.7995145
C0X160,仁德,2024-11-14,22.968258,120.257689,0.86737794
C0X170,關廟,2024-11-14,22.963017,120.327797,0.9368922
C0X180,山上,2024-11-14,23.0757,120.363253,0.9563277
C0X190,安平,2024-11-14,22.993161,120.152181,0.864756
C0X200,左鎮,2024-11-14,23.056758,120.408522,0.947432
C0X210,白河,2024-11-14,23.347466,120.414427,0.92604846
C0X220,學甲,2024-11-14,23.230367,120.182187,0.81792295
C0X230,鹽水,2024-11-14,23.272621,120.247641,0.81490105
C0X240,關子嶺,2024-11-14,23.331169,120.508025,0.9359145
C0X250,新營,2024-11-14,23.310689,120.316681,0.9006109
C0X260,後壁,2024-11-14,23.366358,120.362326,0.9005084
C0X280,將軍,2024-11-14,23.214999,120.13577,0.8129395
C0X290,北門,2024-11-14,23.267772,120.125481,0.8129395
C0X300,鹿寮,2024-11-14,23.386047,120.477331,0.92763007
C0X320,柳營,2024-11-14,23.253328,120.375253,0.91807646
C0Z020,明里,2024-11-14,23.208717,121.262342,0.99935466
C0Z061,玉里,2024-11-14,23.3215,121.339656,0.9993359
C0Z070,舞鶴,2024-11-14,23.46811,121.37407,0.9993173
C0Z080,富源,2024-11-14,23.587642,121.378225,0.99983686
C0Z100,東華,2024-11-14,23.89525,121.549833,0.9998084
C0Z150,吉安光華,2024-11-14,23.930925,121.595153,0.99976236
C0Z160,鳳林,2024-11-14,23.746114,121.453411,0.9998724
C0Z170,卓溪,2024-11-14,23.3443,121.3029,0.99949056
C0Z180,新城,2024-11-14,24.03946,121.60454,0.9996484
C0Z190,富世,2024-11-14,24.14743,121.6297,0.99980056
C0Z200,萬榮,2024-11-14,23.709219,121.420106,0.999866
C0Z210,瑞穗,2024-11-14,23.5239,121.39021,0.99947345
C0Z230,和平,2024-11-14,24.30717,121.77007,0.9995037
C0Z270,蕃薯寮,2024-11-14,23.73835,121.540108,0.9998299
C0Z280,德武,2024-11-14,23.47426,121.41071,0.99934167
C0Z300,東里,2024-11-14,23.26853,121.30547,0.99939674
C0Z310,清水斷崖,2024-11-14,24.218294,121.689142,0.9996586
C0Z330,安通山,2024-11-14,23.290728,121.348528,0.9989682
C2A540,四堵,2024-11-14,24.8926,121.745736,0.9680894
C2A560,福山,2024-11-14,24.776203,121.502811,0.9964427
C2A650,火燒寮,2024-11-14,25.002719,121.742892,0.966125
C2A660,瑞芳,2024-11-14,25.113169,121.801147,0.94730926
C2A880,福隆,2024-11-14,25.017842,121.942083,0.9862019
C2A920,富貴角,2024-11-14,25.263783,121.565258,0.79190576
C2E520,大湖,2024-11-14,24.414939,120.870872,0.90249574
C2E540,後龍,2024-11-14,24.606489,120.783933,0.74554205
C2E540,龍溪,2024-11-14,24.606489,120.783933,0.74554205
C2F000,大肚,2024-11-14,24.15295,120.572117,0.933972
C2F930,大甲,2024-11-14,24.347667,120.640403,0.72200596
C2F9A0,中竹林,2024-11-14,24.103556,120.751061,0.9756332
C2G640,鹿港,2024-11-14,24.0753,120.430481,0.75198954
C2G840,北斗,2024-11-14,23.877586,120.514222,0.92182714
C2G870,芳苑,2024-11-14,23.922303,120.320025,0.8698333
C2H950,中寮,2024-11-14,23.884447,120.766406,0.97887576
C2M410,馬頭山,2024-11-14,23.324361,120.582017,0.94281214
C2N160,西拉雅風管處,2024-11-14,23.189481,120.335297,0.91505843
C2O810,曾文,2024-11-14,23.219681,120.497328,0.9376154
C2O930,玉井,2024-11-14,23.126042,120.46055,0.9563277
C2O950,安南,2024-11-14,23.076694,120.144861,0.80419695
C2V250,甲仙,2024-11-14,23.080106,120.591758,0.9725151
C2V260,月眉,2024-11-14,22.971003,120.539853,0.9799042
C2W230,畜試所澎湖,2024-11-14,23.628342,119.513206,0.0041013956
CAG100,王功漁港,2024-11-14,23.96824,120.32586,0.8617482
CAH030,茶改場竹圍站,2024-11-14,23.860083,120.637528,0.9810687
CAJ050,海口故事園區,2024-11-14,23.57543,120.14121,0.89615107
CAL110,布袋國中,2024-11-14,23.35893,120.18026,0.83144015
CAN130,水試所海水繁養殖中心,2024-11-14,23.120802,120.07968,0.8023867
CAN140,六官養殖協會,2024-11-14,23.22881,120.29962,0.8899151
CAQ030,崎峰國小,2024-11-14,22.42565,120.49521,0.9512924
E2K600,四湖植物園,2024-11-14,23.676986,120.163433,0.8636934
E2P980,林試六龜中心,2024-11-14,22.991703,120.645722,0.99002826
E2S960,林試太麻里2,2024-11-14,22.598014,120.989761,0.9946211
E2S960,林試太麻里2,2024-11-14,22.598,120.99775,0.9945234
E2S980,林試太麻里1,2024-11-14,22.598922,120.980044,0.99492055
G2AI50,關渡,2024-11-14,25.11575,121.492,0.92147344
G2F820,農業試驗所,2024-11-14,24.031261,120.688133,0.9543933
G2F820,農試所(霧峰),2024-11-14,24.031261,120.688133,0.9543933
G2L020,農試嘉義分所,2024-11-14,23.485028,120.473806,0.9668461
G2M350,農試溪口農場,2024-11-14,23.58565,120.408111,0.9407377
G2P820,農試鳳山分所,2024-11-14,22.646611,120.356083,0.9499901
K2E360,苗栗農改,2024-11-14,24.495722,120.829111,0.83483
K2E360,苗栗農改場,2024-11-14,24.495722,120.829111,0.83483
K2E710,苗改生物防治研究中心,2024-11-14,24.422861,120.871833,0.90848875
K2F750,種苗改良場,2024-11-14,24.225972,120.800917,0.9822308
K2F750,種苗繁殖,2024-11-14,24.225972,120.800917,0.9822308
U2HA50,臺大竹山,2024-11-14,23.756972,120.681556,0.98559225
V2C250,八德合作社,2024-11-14,24.93775,121.266389,0.9708714
V2C260,八德蔬果,2024-11-14,24.978508,121.281819,0.9457936
V2K610,大庄合作社,2024-11-14,23.8068,120.367939,0.81903464
V2K620,麥寮合作社,2024-11-14,23.753836,120.294783,0.8127854
