站號,站名,日期,lat,lon,BlastGRU-TW
12J990,口湖工作站,2024-08-27,23.589978,120.180394,0.09609283
12Q970,東港工作站,2024-08-27,22.479997,120.466058,0.018345796
12Q980,恆春工作站,2024-08-27,22.079678,120.714425,0.11797399
466881,新北,2024-08-27,24.9593,121.52,0.041794013
466900,淡水,2024-08-27,25.164889,121.448906,0.036682934
466920,臺北,2024-08-27,25.037658,121.514853,0.027964178
466940,基隆,2024-08-27,25.133314,121.740475,0.03756471
466990,花蓮,2024-08-27,23.975128,121.613275,0.03211574
467050,新屋,2024-08-27,25.006744,121.047486,0.29066935
467080,宜蘭,2024-08-27,24.763975,121.756528,0.061075296
467270,田中,2024-08-27,23.873803,120.581286,0.030132461
467280,後龍,2024-08-27,24.648563,120.831834,0.30901572
467300,東吉島,2024-08-27,23.25695,119.667467,0.49917486
467350,澎湖,2024-08-27,23.565503,119.563094,0.31783772
467410,臺南,2024-08-27,22.993239,120.204772,0.023287894
467420,永康,2024-08-27,23.038386,120.2367,0.02308512
467441,高雄,2024-08-27,22.7304,120.3125,0.018844754
467480,嘉義,2024-08-27,23.495925,120.432906,0.07080056
467490,臺中,2024-08-27,24.145736,120.684075,0.044573706
467540,大武,2024-08-27,22.355675,120.903789,0.09816771
467571,新竹,2024-08-27,24.827853,121.014219,0.07585124
467590,恆春,2024-08-27,22.003897,120.746339,0.17802681
467610,成功,2024-08-27,23.097486,121.373428,0.023232378
467620,蘭嶼,2024-08-27,22.036969,121.558339,0.9875208
467660,臺東,2024-08-27,22.752211,121.154586,0.053576596
467790,墾丁雷達站,2024-08-27,21.948235,120.808028,0.35807928
72AI40,桃改樹林分場,2024-08-27,24.944503,121.386972,0.02201251
72C440,桃園農改,2024-08-27,24.950944,121.030583,0.28648308
72C440,桃園農改場,2024-08-27,24.950944,121.030583,0.28648308
72D680,桃改新埔分場,2024-08-27,24.834444,121.066111,0.053385314
72G600,臺中農改,2024-08-27,24.003028,120.534389,0.040252425
72G600,臺中農改場,2024-08-27,24.003028,120.534389,0.040252425
72K220,南改斗南分場,2024-08-27,23.634556,120.477333,0.064911135
72M360,南改義竹分場,2024-08-27,23.360694,120.279361,0.04308898
72M700,南改鹿草分場,2024-08-27,23.416869,120.283061,0.043697562
72N100,臺南農改,2024-08-27,23.0605,120.342194,0.03050008
72N100,臺南農改場,2024-08-27,23.0605,120.342194,0.03050008
72N240,七股研究中心,2024-08-27,23.081672,120.062894,0.04084425
72Q010,高雄農改,2024-08-27,22.709333,120.525889,0.016857032
72Q010,高雄農改場,2024-08-27,22.709333,120.525889,0.016857032
72S200,東改班鳩分場,2024-08-27,22.829528,121.077694,0.04126409
72S590,東改賓朗果園,2024-08-27,22.813889,121.071278,0.052520454
72T250,花蓮農改,2024-08-27,23.975222,121.563889,0.033445243
72T250,花蓮農改場,2024-08-27,23.975222,121.563889,0.033445243
72U480,花改蘭陽分場,2024-08-27,24.686306,121.716583,0.047903292
72V140,高改旗南分場,2024-08-27,22.857861,120.516667,0.03736092
82A750,茶改北部分場,2024-08-27,24.955778,121.631222,0.025526708
82C160,茶改場,2024-08-27,24.908472,121.185333,0.028270533
82H840,茶改南部分場,2024-08-27,23.762528,120.7405,0.2419581
82S580,茶改東部分場,2024-08-27,22.907694,121.130139,0.07432905
A2C560,農工中心,2024-08-27,24.985917,121.239833,0.033206258
A2K360,水試臺西試驗場,2024-08-27,23.717231,120.190522,0.081930704
A2K570,古坑花卉中心,2024-08-27,23.63353,120.55239,0.10946242
A2K630,臺大雲林校區,2024-08-27,23.730628,120.423903,0.06300209
A2N290,臺南蘭花園區,2024-08-27,23.340258,120.379661,0.03600037
B2E890,畜試北區分所,2024-08-27,24.527806,120.770972,0.1677813
B2N890,畜產試驗所,2024-08-27,23.058972,120.336406,0.03035833
B2N890,畜試所,2024-08-27,23.058972,120.336406,0.03035833
B2Q810,畜試南區分所,2024-08-27,21.945583,120.802167,0.26838857
B2U990,畜試東區分所,2024-08-27,24.669039,121.832561,0.037085064
C0A520,山佳,2024-08-27,24.974944,121.402008,0.038288336
C0A530,坪林,2024-08-27,24.938183,121.70975,0.022407297
C0A550,泰平,2024-08-27,24.971197,121.823711,0.029123237
C0A570,桶後,2024-08-27,24.848222,121.597992,0.023421228
C0A640,石碇,2024-08-27,24.993969,121.662917,0.050450362
C0A770,科教館,2024-08-27,25.096356,121.516507,0.02415968
C0A860,大坪,2024-08-27,25.165914,121.632969,0.03361463
C0A890,雙溪,2024-08-27,25.036003,121.864242,0.04615791
C0A931,三和,2024-08-27,25.233153,121.595236,0.033425257
C0A940,金山,2024-08-27,25.223628,121.643967,0.033527065
C0A950,鼻頭角,2024-08-27,25.129036,121.923372,0.051511105
C0A970,三貂角,2024-08-27,25.007606,122.002058,0.04020521
C0A980,社子,2024-08-27,25.109508,121.469681,0.03544852
C0A9C0,天母,2024-08-27,25.117494,121.537169,0.021093942
C0A9F0,內湖,2024-08-27,25.079422,121.57545,0.027964178
C0AC60,三峽,2024-08-27,24.939025,121.369728,0.022182304
C0AC70,信義,2024-08-27,25.037822,121.564597,0.027964178
C0AC80,文山,2024-08-27,25.00235,121.575728,0.043630693
C0ACA0,新莊,2024-08-27,25.051478,121.446756,0.028020369
C0AD10,八里,2024-08-27,25.150211,121.403947,0.033969995
C0AD30,蘆洲,2024-08-27,25.086594,121.472331,0.024381366
C0AD40,土城,2024-08-27,24.973208,121.445169,0.040820334
C0AD50,鶯歌,2024-08-27,24.951533,121.346294,0.02245027
C0AG80,中和,2024-08-27,24.991622,121.491792,0.040820334
C0AH00,汐止,2024-08-27,25.066881,121.658778,0.027964178
C0AH10,永和,2024-08-27,25.01125,121.508111,0.04031012
C0AH40,平等,2024-08-27,25.129142,121.577086,0.0349326
C0AH50,林口,2024-08-27,25.072181,121.38084,0.04651583
C0AH70,松山,2024-08-27,25.04871,121.55042,0.027964178
C0AH80,深坑,2024-08-27,25.002703,121.628328,0.043189116
C0AI00,五股,2024-08-27,25.07445,121.42728,0.046403963
C0AI10,屈尺,2024-08-27,24.92184,121.54475,0.04249534
C0AI20,白沙灣,2024-08-27,25.283128,121.519058,0.052353892
C0AI30,三重,2024-08-27,25.057328,121.500629,0.027688542
C0AI40,石牌,2024-08-27,25.115597,121.513139,0.020913208
C0AJ20,野柳,2024-08-27,25.20703,121.690021,0.02951556
C0AJ30,淡水觀海,2024-08-27,25.184591,121.408616,0.026607798
C0AJ40,石門,2024-08-27,25.273672,121.601198,0.047520325
C0AJ50,水湳洞,2024-08-27,25.123695,121.862238,0.050953202
C0AJ60,六塊厝,2024-08-27,25.24,121.4481,0.049425405
C0AJ70,田寮,2024-08-27,25.2698,121.4886,0.051210858
C0AJ80,板橋,2024-08-27,25.0107,121.4489,0.04031012
C0AJ90,澳底,2024-08-27,25.0552,121.9253,0.044045884
C0B010,七堵,2024-08-27,25.094819,121.71713,0.03610951
C0B020,基隆嶼,2024-08-27,25.19141,121.78391,0.028389744
C0B040,大武崙,2024-08-27,25.166676,121.706993,0.039360322
C0B050,八斗子,2024-08-27,25.144754,121.79167,0.03715541
C0B060,暖暖,2024-08-27,25.0957,121.7403,0.038871415
C0C460,復興,2024-08-27,24.820208,121.352281,0.027862249
C0C480,桃園,2024-08-27,24.992425,121.323172,0.020477375
C0C490,八德,2024-08-27,24.928708,121.283289,0.025281725
C0C590,觀音,2024-08-27,25.027072,121.153317,0.2783114
C0C620,蘆竹,2024-08-27,25.084275,121.265767,0.072009064
C0C630,大溪,2024-08-27,24.882853,121.265547,0.031929594
C0C650,平鎮,2024-08-27,24.897503,121.214636,0.031365387
C0C660,楊梅,2024-08-27,24.912375,121.143047,0.022463752
C0C670,龍潭,2024-08-27,24.870056,121.221389,0.04068464
C0C680,龜山,2024-08-27,25.02846,121.38656,0.049002845
C0C700,中壢,2024-08-27,24.977661,121.256375,0.03001746
C0C710,大溪永福,2024-08-27,24.892936,121.324975,0.028487923
C0C720,竹圍,2024-08-27,25.112692,121.239824,0.05350022
C0C730,中大臨海站,2024-08-27,24.966126,121.008581,0.25923932
C0C740,觀音工業區,2024-08-27,25.064764,121.114856,0.3641399
C0C750,新興坑尾,2024-08-27,25.0061,121.0971,0.18304603
C0D430,峨眉,2024-08-27,24.6905,121.017189,0.2221147
C0D480,打鐵坑,2024-08-27,24.849664,121.150789,0.040847022
C0D540,橫山,2024-08-27,24.71116,121.11693,0.14738263
C0D560,竹東,2024-08-27,24.767147,121.057881,0.18850136
C0D580,寶山,2024-08-27,24.735006,121.025192,0.1564451
C0D590,新豐,2024-08-27,24.87068,120.97721,0.67552096
C0D650,湖口,2024-08-27,24.904794,121.043628,0.11718491
C0D660,新竹市東區,2024-08-27,24.798681,120.986942,0.09742116
C0D670,海天一線,2024-08-27,24.831986,120.914438,0.68056226
C0D680,香山濕地,2024-08-27,24.783581,120.914988,0.07293101
C0D690,外湖,2024-08-27,24.917735,120.968711,0.0863579
C0D700,關西,2024-08-27,24.7977,121.1732,0.09308139
C0E420,竹南,2024-08-27,24.708978,120.888897,0.3251659
C0E430,南庄,2024-08-27,24.601775,121.000214,0.3691181
C0E550,明德,2024-08-27,24.583486,120.885411,0.33714446
C0E590,通霄,2024-08-27,24.471892,120.704622,0.22283465
C0E730,頭份,2024-08-27,24.688247,120.912206,0.30988044
C0E740,造橋,2024-08-27,24.637056,120.864778,0.28619385
C0E750,苗栗,2024-08-27,24.564569,120.824575,0.28797367
C0E780,銅鑼,2024-08-27,24.489681,120.790853,0.25969693
C0E791,卓蘭,2024-08-27,24.3126,120.8244,0.6387731
C0E810,西湖,2024-08-27,24.562947,120.7485,0.5291913
C0E820,獅潭,2024-08-27,24.539133,120.920042,0.763336
C0E830,苑裡,2024-08-27,24.439714,120.653053,0.34822875
C0E850,大河,2024-08-27,24.618069,120.948578,0.24522911
C0E870,高鐵苗栗,2024-08-27,24.60725,120.826094,0.29511538
C0E910,海埔,2024-08-27,24.648767,120.772435,0.34251451
C0E920,通霄漁港,2024-08-27,24.498589,120.673876,0.31713873
C0E930,龍鳳,2024-08-27,24.700034,120.859125,0.27312076
C0F0B0,石岡,2024-08-27,24.276061,120.777644,0.2038517
C0F850,東勢,2024-08-27,24.246428,120.833047,0.85041356
C0F970,大坑,2024-08-27,24.173142,120.722289,0.03539669
C0F9I0,神岡,2024-08-27,24.272481,120.658314,0.1014452
C0F9K0,大安,2024-08-27,24.345061,120.588025,0.14587423
C0F9L0,后里,2024-08-27,24.310436,120.729725,0.11283392
C0F9M0,豐原,2024-08-27,24.254322,120.720692,0.08672238
C0F9N0,大里,2024-08-27,24.092464,120.701378,0.040667385
C0F9O0,潭子,2024-08-27,24.213106,120.703933,0.060303003
C0F9P0,清水,2024-08-27,24.312297,120.562242,0.07618324
C0F9Q0,外埔,2024-08-27,24.347817,120.705686,0.11609981
C0F9R0,龍井,2024-08-27,24.184536,120.528972,0.05973906
C0F9S0,烏日,2024-08-27,24.107058,120.624103,0.038513415
C0F9T0,西屯,2024-08-27,24.179494,120.641275,0.04449303
C0F9U0,南屯,2024-08-27,24.137006,120.637969,0.040641714
C0F9X0,大雅(中科園區),2024-08-27,24.21528,120.62445,0.074174635
C0FA10,松柏,2024-08-27,24.429115,120.617482,0.18758523
C0FA20,溫寮,2024-08-27,24.372177,120.583125,0.13742082
C0FA30,梧棲,2024-08-27,24.256003,120.523381,0.07618324
C0FA40,臺中電廠,2024-08-27,24.2146,120.4907,0.0667018
C0FA50,霧峰,2024-08-27,24.0419,120.6995,0.060394183
C0G620,芬園,2024-08-27,24.015678,120.6213,0.03679867
C0G650,員林,2024-08-27,23.946503,120.585597,0.042747624
C0G660,溪湖,2024-08-27,23.94835,120.479122,0.04083991
C0G720,溪州,2024-08-27,23.851589,120.499093,0.032247797
C0G730,二林,2024-08-27,23.903325,120.376081,0.08558081
C0G740,大城,2024-08-27,23.852487,120.320935,0.08023037
C0G770,福興,2024-08-27,24.041289,120.437669,0.07759591
C0G780,秀水,2024-08-27,24.03405,120.503869,0.038764626
C0G800,埔鹽,2024-08-27,24.000394,120.431683,0.078404374
C0G810,埔心,2024-08-27,23.947633,120.525456,0.041591708
C0G820,田尾,2024-08-27,23.901669,120.509389,0.031407
C0G830,埤頭,2024-08-27,23.866003,120.452806,0.031603433
C0G860,社頭,2024-08-27,23.897647,120.5862,0.029690184
C0G880,二水,2024-08-27,23.810742,120.6173,0.09080086
C0G890,伸港,2024-08-27,24.148933,120.484403,0.06720026
C0G900,線西,2024-08-27,24.143358,120.443536,0.06641067
C0G910,花壇,2024-08-27,24.032076,120.549461,0.042281553
C0G920,永靖,2024-08-27,23.924703,120.547533,0.031407
C0G940,竹塘,2024-08-27,23.848253,120.386764,0.07014057
C0G950,防潮門,2024-08-27,24.1835,120.4871,0.05973906
C0G960,福寶,2024-08-27,24.0443,120.3814,0.069231056
C0G970,三豐,2024-08-27,23.882,120.2895,0.07740465
C0H890,埔里,2024-08-27,23.972169,120.952425,0.11991197
C0H960,草屯,2024-08-27,23.973672,120.68085,0.035495155
C0I110,竹山,2024-08-27,23.761225,120.688156,0.09707627
C0I360,水里,2024-08-27,23.812553,120.849792,0.06776348
C0I380,集集,2024-08-27,23.828206,120.801467,0.061916158
C0I410,名間,2024-08-27,23.837053,120.701447,0.036372352
C0I420,國姓,2024-08-27,24.037803,120.855072,0.0761669
C0I460,南投,2024-08-27,23.911469,120.687331,0.0392021
C0K250,崙背,2024-08-27,23.75555,120.318925,0.05986073
C0K280,四湖,2024-08-27,23.630414,120.227125,0.07840668
C0K291,宜梧,2024-08-27,23.536281,120.169329,0.05199381
C0K330,虎尾,2024-08-27,23.719183,120.442036,0.07218318
C0K390,土庫,2024-08-27,23.679029,120.395574,0.05715119
C0K400,斗六,2024-08-27,23.720583,120.541127,0.10618278
C0K410,北港,2024-08-27,23.573957,120.292802,0.053500302
C0K420,西螺,2024-08-27,23.800407,120.467394,0.053304937
C0K430,褒忠,2024-08-27,23.690938,120.303634,0.05762383
C0K440,二崙,2024-08-27,23.772797,120.408944,0.046145603
C0K450,大埤,2024-08-27,23.646074,120.431537,0.057722107
C0K460,斗南,2024-08-27,23.678734,120.478359,0.064911135
C0K470,林內,2024-08-27,23.748675,120.609642,0.09244663
C0K480,莿桐,2024-08-27,23.761192,120.502372,0.055817325
C0K500,元長,2024-08-27,23.64981,120.315024,0.05163477
C0K510,水林,2024-08-27,23.572924,120.24597,0.053126168
C0K530,臺西,2024-08-27,23.701547,120.197559,0.08372482
C0K550,蔦松,2024-08-27,23.514319,120.229736,0.05199381
C0K560,棋山,2024-08-27,23.68645,120.603417,0.1209231
C0K580,高鐵雲林,2024-08-27,23.737456,120.417944,0.06300209
C0K590,雲林東勢,2024-08-27,23.674192,120.255721,0.053081784
C0K600,箔子寮,2024-08-27,23.6197,120.14,0.09609283
C0M520,東後寮,2024-08-27,23.369908,120.248065,0.042852137
C0M640,中埔,2024-08-27,23.42538,120.5229,0.06287597
C0M650,朴子,2024-08-27,23.43463,120.23902,0.043480728
C0M660,溪口,2024-08-27,23.604131,120.403569,0.06996157
C0M670,大林,2024-08-27,23.600616,120.45841,0.08339724
C0M680,太保,2024-08-27,23.455062,120.331455,0.04500662
C0M690,水上,2024-08-27,23.419734,120.388909,0.038678393
C0M700,竹崎,2024-08-27,23.526178,120.555508,0.09963835
C0M710,東石,2024-08-27,23.458927,120.15385,0.07498058
C0M720,番路,2024-08-27,23.464657,120.554156,0.09695795
C0M730,嘉義市東區,2024-08-27,23.457673,120.460531,0.07026158
C0M740,六腳,2024-08-27,23.492871,120.290625,0.040583633
C0M750,布袋,2024-08-27,23.380878,120.167789,0.04435391
C0M760,民雄,2024-08-27,23.551754,120.428457,0.07857829
C0M770,嘉義梅山,2024-08-27,23.585398,120.555587,0.19218425
C0M780,鹿草,2024-08-27,23.41134,120.30835,0.044123095
C0M790,新港,2024-08-27,23.553269,120.345728,0.06071808
C0M800,茶山,2024-08-27,23.299075,120.664767,0.61481684
C0M880,好美里,2024-08-27,23.3364,120.138,0.045271978
C0N010,鯤鯓國小,2024-08-27,23.1879,120.0889,0.033052668
C0N020,城西,2024-08-27,23.0568,120.0956,0.023077985
C0N030,四草,2024-08-27,23.0235,120.1116,0.023005985
C0N040,蘆竹溝,2024-08-27,23.2344,120.0961,0.027875666
C0N050,蚵寮,2024-08-27,23.301,120.1104,0.03651243
C0O830,北寮,2024-08-27,23.079561,120.495008,0.05090536
C0O840,王爺宮,2024-08-27,23.222064,120.40085,0.030709825
C0O860,大內,2024-08-27,23.11885,120.36083,0.035004694
C0O900,善化,2024-08-27,23.112883,120.297219,0.02965199
C0O960,崎頂,2024-08-27,22.959547,120.369317,0.03534284
C0O970,虎頭埤,2024-08-27,23.021375,120.347878,0.045742344
C0O980,新市,2024-08-27,23.061614,120.298197,0.02684424
C0O990,媽廟,2024-08-27,22.99175,120.293525,0.023305776
C0R150,三地門,2024-08-27,22.709889,120.639944,0.036470056
C0R160,鹽埔,2024-08-27,22.739558,120.530778,0.016857032
C0R170,屏東,2024-08-27,22.660269,120.494072,0.015445546
C0R190,赤山,2024-08-27,22.592333,120.614306,0.019701269
C0R220,潮州,2024-08-27,22.534361,120.54,0.016117105
C0R240,來義,2024-08-27,22.527306,120.625111,0.017456768
C0R260,春日,2024-08-27,22.370361,120.628306,0.024245191
C0R270,琉球嶼,2024-08-27,22.332244,120.362236,0.03817541
C0R280,檳榔,2024-08-27,22.076078,120.836777,0.2969521
C0R320,車城,2024-08-27,22.0744,120.716247,0.11797399
C0R341,牡丹,2024-08-27,22.130036,120.792639,0.26327324
C0R350,貓鼻頭,2024-08-27,21.921774,120.7358,0.38058242
C0R470,高樹,2024-08-27,22.826389,120.600806,0.037987232
C0R480,長治,2024-08-27,22.693128,120.542622,0.02008526
C0R490,九如,2024-08-27,22.7405,120.490503,0.016828654
C0R520,崁頂,2024-08-27,22.514781,120.506914,0.016088028
C0R540,佳冬,2024-08-27,22.419456,120.552375,0.021892166
C0R550,新埤,2024-08-27,22.467947,120.582894,0.019307347
C0R560,新園,2024-08-27,22.5434,120.461558,0.01701004
C0R570,麟洛,2024-08-27,22.65078,120.52719,0.015445546
C0R580,南州,2024-08-27,22.48591,120.50274,0.018345796
C0R590,里港,2024-08-27,22.77919,120.49459,0.027026655
C0R620,墾雷,2024-08-27,21.900836,120.855269,0.6978568
C0R640,東港,2024-08-27,22.46247,120.44074,0.018345796
C0R650,竹田,2024-08-27,22.58486,120.54344,0.016718354
C0R660,枋寮,2024-08-27,22.367722,120.590647,0.021643586
C0R670,楓港,2024-08-27,22.190131,120.692156,0.16550434
C0R680,佳樂水,2024-08-27,21.993578,120.861633,0.2719022
C0R690,墾丁,2024-08-27,21.966756,120.810269,0.76925176
C0R700,枋山,2024-08-27,22.246844,120.661086,0.060193393
C0R710,龍磐,2024-08-27,21.931672,120.838942,0.83250314
C0R720,旭海,2024-08-27,22.205403,120.887614,0.55805
C0R730,大坪頂,2024-08-27,22.024633,120.69355,0.53483707
C0R740,獅子,2024-08-27,22.201569,120.70525,0.31526616
C0R760,南仁湖,2024-08-27,22.084681,120.863353,0.81929153
C0R770,保力,2024-08-27,22.071122,120.764111,0.11979495
C0R780,滿州,2024-08-27,22.024403,120.839892,0.20450598
C0R790,九棚,2024-08-27,22.14195,120.889281,0.32102096
C0R800,丹路,2024-08-27,22.204481,120.750989,0.1953377
C0R810,內獅,2024-08-27,22.305064,120.642986,0.047953304
C0R830,高士,2024-08-27,22.121825,120.836781,0.93144816
C0R850,林邊,2024-08-27,22.4634,120.5339,0.018437792
C0R860,鼻頭,2024-08-27,22.1043,120.8979,0.06751944
C0R870,興海,2024-08-27,21.9752,120.8439,0.26838857
C0R880,後壁湖,2024-08-27,21.9457,120.7457,0.15457223
C0R890,山海,2024-08-27,21.9878,120.7091,0.15638192
C0R900,竹坑,2024-08-27,22.1385,120.7022,0.11954452
C0R910,下寮,2024-08-27,22.3929,120.5548,0.021643586
C0R920,塭仔,2024-08-27,22.4169,120.5197,0.02163011
C0R930,萬丹,2024-08-27,22.5885,120.4851,0.023545848
C0R940,加祿堂,2024-08-27,22.3363,120.6217,0.024026476
C0S710,鹿野,2024-08-27,22.917711,121.122994,0.075419284
C0S730,綠島,2024-08-27,22.6672,121.47533,0.10201381
C0S740,池上,2024-08-27,23.119628,121.209469,0.06449924
C0S770,大溪山,2024-08-27,22.478475,120.943325,0.113045886
C0S790,金崙,2024-08-27,22.538122,120.966875,0.20234272
C0S810,東河,2024-08-27,22.972672,121.303986,0.021518787
C0S830,長濱,2024-08-27,23.286817,121.411975,0.04651826
C0S840,南田,2024-08-27,22.279725,120.889208,0.2761106
C0S890,關山,2024-08-27,23.0395,121.175017,0.020353854
C0S900,蘭嶼高中,2024-08-27,22.04909,121.51214,0.97147983
C0S910,蘭嶼燈塔,2024-08-27,22.081197,121.503117,0.9607997
C0S920,金峰嘉蘭,2024-08-27,22.594789,120.960825,0.16948345
C0S930,延平,2024-08-27,22.902581,121.084058,0.08952666
C0S940,石寧山,2024-08-27,23.223772,121.406639,0.021442004
C0S950,七塊厝,2024-08-27,22.954453,121.229922,0.06127034
C0S960,香蘭,2024-08-27,22.587569,120.993375,0.14327727
C0S970,加津林,2024-08-27,22.416211,120.926942,0.10410918
C0S990,山豬窟,2024-08-27,22.318619,120.857372,0.5927667
C0SA00,歷坵,2024-08-27,22.520969,120.89185,0.57703525
C0SA10,檳榔四格山,2024-08-27,22.810031,121.109308,0.15842295
C0SA30,都歷,2024-08-27,23.020333,121.323642,0.0180855
C0SA40,瑞和,2024-08-27,22.974361,121.156697,0.024088955
C0SA60,知本（水試所）,2024-08-27,22.702394,121.082761,0.084065005
C0SA80,土坂,2024-08-27,22.453108,120.887572,0.059224367
C0SA90,達仁林場,2024-08-27,22.264347,120.823972,0.9690195
C0T870,鯉魚潭,2024-08-27,23.935639,121.508944,0.037241403
C0T900,西林,2024-08-27,23.8119,121.441458,0.033412766
C0T960,光復,2024-08-27,23.660694,121.424964,0.040934574
C0T9A0,月眉山,2024-08-27,23.809928,121.539828,0.05374652
C0T9D0,和中,2024-08-27,24.26676,121.74103,0.5957337
C0T9E0,大坑,2024-08-27,23.880628,121.581981,0.13879538
C0T9F0,水璉,2024-08-27,23.797131,121.542514,0.039748378
C0T9I0,豐濱,2024-08-27,23.583897,121.514806,0.040785097
C0T9M0,靜浦,2024-08-27,23.455167,121.495028,0.03251954
C0T9N0,富里,2024-08-27,23.171639,121.249378,0.037738107
C0U600,礁溪,2024-08-27,24.817539,121.765608,0.050583776
C0U650,玉蘭,2024-08-27,24.675286,121.587061,0.040794514
C0U750,龜山島,2024-08-27,24.841667,121.953133,0.10537526
C0U760,東澳,2024-08-27,24.52196,121.83318,0.03684858
C0U770,南澳,2024-08-27,24.44935,121.81022,0.04565584
C0U780,五結,2024-08-27,24.68637,121.79794,0.0466768
C0U860,頭城,2024-08-27,24.85323,121.8308,0.049978048
C0U870,大礁溪,2024-08-27,24.791042,121.675047,0.024470164
C0U880,北關,2024-08-27,24.9072,121.8734,0.026976084
C0U890,三星,2024-08-27,24.66812,121.65302,0.029224612
C0U900,內城,2024-08-27,24.71813,121.68766,0.049004
C0U910,冬山,2024-08-27,24.63373,121.7937,0.037085064
C0U940,羅東,2024-08-27,24.68184,121.74934,0.047416117
C0U970,大福,2024-08-27,24.80064,121.81389,0.06037672
C0U990,員山,2024-08-27,24.74435,121.72247,0.047244124
C0UA00,土場,2024-08-27,24.576533,121.495333,0.01239309
C0UA80,大溪漁港,2024-08-27,24.941801,121.902955,0.034156643
C0UA90,石城,2024-08-27,24.980444,121.951214,0.037230045
C0UB00,淡江大學蘭陽校園,2024-08-27,24.823239,121.730383,0.034223422
C0UB10,蘇澳,2024-08-27,24.5969,121.8571,0.024584664
C0UB20,壯圍,2024-08-27,24.7359,121.8163,0.046400473
C0V310,美濃,2024-08-27,22.898742,120.519153,0.03736092
C0V350,溪埔,2024-08-27,22.738578,120.446797,0.018139401
C0V360,內門,2024-08-27,22.975481,120.466769,0.02827412
C0V370,古亭坑,2024-08-27,22.893178,120.401947,0.030226963
C0V400,阿公店,2024-08-27,22.804194,120.355528,0.02519772
C0V440,鳳山,2024-08-27,22.646653,120.356122,0.023563175
C0V450,鳳森,2024-08-27,22.545064,120.392592,0.017050719
C0V490,新興,2024-08-27,22.627422,120.298803,0.018103886
C0V530,阿蓮,2024-08-27,22.883208,120.327508,0.024877418
C0V610,梓官,2024-08-27,22.760558,120.267211,0.018863028
C0V620,永安,2024-08-27,22.82315,120.236856,0.021687418
C0V630,茄萣,2024-08-27,22.906642,120.182608,0.02871791
C0V640,湖內,2024-08-27,22.887139,120.2445,0.026021972
C0V650,彌陀,2024-08-27,22.783806,120.246361,0.021206126
C0V660,岡山,2024-08-27,22.797078,120.294958,0.021206126
C0V680,仁武,2024-08-27,22.701083,120.347722,0.025043475
C0V690,鼓山,2024-08-27,22.623325,120.275575,0.018103886
C0V700,三民,2024-08-27,22.645017,120.311233,0.026394168
C0V710,苓雅,2024-08-27,22.622742,120.330669,0.016824085
C0V720,林園,2024-08-27,22.507747,120.394511,0.017623574
C0V730,大寮,2024-08-27,22.605614,120.395717,0.01690102
C0V740,旗山,2024-08-27,22.888614,120.483597,0.037812464
C0V750,路竹,2024-08-27,22.854997,120.259439,0.02642388
C0V760,橋頭,2024-08-27,22.757806,120.30575,0.018863028
C0V770,大社,2024-08-27,22.730306,120.346639,0.018844754
C0V790,萬山,2024-08-27,22.905944,120.688056,0.71600795
C0V800,六龜,2024-08-27,22.997889,120.633583,0.043449424
C0V810,左營,2024-08-27,22.67491,120.28491,0.026394168
C0V820,小林,2024-08-27,23.148408,120.63325,0.69395524
C0V840,鳳鼻頭,2024-08-27,22.5083,120.3591,0.016917743
C0V850,蚵仔寮,2024-08-27,22.7256,120.2527,0.018714774
C0V860,南寮,2024-08-27,22.7616,120.2339,0.018714774
C0V870,文安,2024-08-27,22.8025,120.2164,0.021023735
C0V880,興達,2024-08-27,22.8778,120.2127,0.025549985
C0V890,前鎮,2024-08-27,22.5718,120.3117,0.018086305
C0V900,汕尾,2024-08-27,22.4782,120.4151,0.018345796
C0W200,湖西,2024-08-27,23.596314,119.67275,0.3836422
C0X050,東河,2024-08-27,23.296598,120.385608,0.032408044
C0X060,下營,2024-08-27,23.22695,120.256261,0.028651217
C0X080,佳里,2024-08-27,23.173039,120.145086,0.033052668
C0X100,臺南市北區,2024-08-27,23.010394,120.194228,0.023096854
C0X110,臺南市南區,2024-08-27,22.961189,120.188378,0.023451963
C0X120,麻豆,2024-08-27,23.183289,120.248611,0.023506109
C0X130,官田,2024-08-27,23.193217,120.315422,0.033507958
C0X140,西港,2024-08-27,23.125608,120.203108,0.024164435
C0X150,安定,2024-08-27,23.102614,120.227839,0.024164435
C0X160,仁德,2024-08-27,22.968258,120.257689,0.023485001
C0X170,關廟,2024-08-27,22.963017,120.327797,0.03092184
C0X180,山上,2024-08-27,23.0757,120.363253,0.052164473
C0X190,安平,2024-08-27,22.993161,120.152181,0.023096854
C0X200,左鎮,2024-08-27,23.056758,120.408522,0.04456368
C0X210,白河,2024-08-27,23.347466,120.414427,0.044205308
C0X220,學甲,2024-08-27,23.230367,120.182187,0.027972424
C0X230,鹽水,2024-08-27,23.272621,120.247641,0.0369469
C0X240,關子嶺,2024-08-27,23.331169,120.508025,0.7177749
C0X250,新營,2024-08-27,23.310689,120.316681,0.03292397
C0X260,後壁,2024-08-27,23.366358,120.362326,0.03600037
C0X280,將軍,2024-08-27,23.214999,120.13577,0.027875666
C0X290,北門,2024-08-27,23.267772,120.125481,0.027875666
C0X300,鹿寮,2024-08-27,23.386047,120.477331,0.042051397
C0X320,柳營,2024-08-27,23.253328,120.375253,0.027362276
C0Z020,明里,2024-08-27,23.208717,121.262342,0.026503138
C0Z061,玉里,2024-08-27,23.3215,121.339656,0.019700408
C0Z070,舞鶴,2024-08-27,23.46811,121.37407,0.032777894
C0Z080,富源,2024-08-27,23.587642,121.378225,0.20849328
C0Z100,東華,2024-08-27,23.89525,121.549833,0.03638742
C0Z150,吉安光華,2024-08-27,23.930925,121.595153,0.03165322
C0Z160,鳳林,2024-08-27,23.746114,121.453411,0.032111485
C0Z170,卓溪,2024-08-27,23.3443,121.3029,0.03364401
C0Z180,新城,2024-08-27,24.03946,121.60454,0.03252725
C0Z190,富世,2024-08-27,24.14743,121.6297,0.026211765
C0Z200,萬榮,2024-08-27,23.709219,121.420106,0.03409577
C0Z210,瑞穗,2024-08-27,23.5239,121.39021,0.034606144
C0Z230,和平,2024-08-27,24.30717,121.77007,0.58668286
C0Z270,蕃薯寮,2024-08-27,23.73835,121.540108,0.06793604
C0Z280,德武,2024-08-27,23.47426,121.41071,0.023004808
C0Z300,東里,2024-08-27,23.26853,121.30547,0.02270429
C0Z310,清水斷崖,2024-08-27,24.218294,121.689142,0.9832584
C0Z330,安通山,2024-08-27,23.290728,121.348528,0.04705309
C2A540,四堵,2024-08-27,24.8926,121.745736,0.021905825
C2A560,福山,2024-08-27,24.776203,121.502811,0.012694009
C2A650,火燒寮,2024-08-27,25.002719,121.742892,0.029932315
C2A660,瑞芳,2024-08-27,25.113169,121.801147,0.057156213
C2A880,福隆,2024-08-27,25.017842,121.942083,0.036915235
C2A920,富貴角,2024-08-27,25.263783,121.565258,0.05347821
C2E520,大湖,2024-08-27,24.414939,120.870872,0.5900616
C2E540,後龍,2024-08-27,24.606489,120.783933,0.35835892
C2E540,龍溪,2024-08-27,24.606489,120.783933,0.35835892
C2F000,大肚,2024-08-27,24.15295,120.572117,0.21196064
C2F930,大甲,2024-08-27,24.347667,120.640403,0.18542022
C2F9A0,中竹林,2024-08-27,24.103556,120.751061,0.09857918
C2G640,鹿港,2024-08-27,24.0753,120.430481,0.069231056
C2G840,北斗,2024-08-27,23.877586,120.514222,0.03206186
C2G870,芳苑,2024-08-27,23.922303,120.320025,0.13948798
C2H950,中寮,2024-08-27,23.884447,120.766406,0.02765933
C2M410,馬頭山,2024-08-27,23.324361,120.582017,0.17189299
C2N160,西拉雅風管處,2024-08-27,23.189481,120.335297,0.033620227
C2O810,曾文,2024-08-27,23.219681,120.497328,0.049685616
C2O930,玉井,2024-08-27,23.126042,120.46055,0.052164473
C2O950,安南,2024-08-27,23.076694,120.144861,0.041236684
C2V250,甲仙,2024-08-27,23.080106,120.591758,0.13051349
C2V260,月眉,2024-08-27,22.971003,120.539853,0.053716663
C2W230,畜試所澎湖,2024-08-27,23.628342,119.513206,0.63672066
CAG100,王功漁港,2024-08-27,23.96824,120.32586,0.13467118
CAH030,茶改場竹圍站,2024-08-27,23.860083,120.637528,0.080749765
CAJ050,海口故事園區,2024-08-27,23.57543,120.14121,0.09525106
CAL110,布袋國中,2024-08-27,23.35893,120.18026,0.04435391
CAN130,水試所海水繁養殖中心,2024-08-27,23.120802,120.07968,0.04084425
CAN140,六官養殖協會,2024-08-27,23.22881,120.29962,0.028651217
CAQ030,崎峰國小,2024-08-27,22.42565,120.49521,0.018345796
E2K600,四湖植物園,2024-08-27,23.676986,120.163433,0.07840668
E2P980,林試六龜中心,2024-08-27,22.991703,120.645722,0.054795973
E2S960,林試太麻里2,2024-08-27,22.598014,120.989761,0.14516258
E2S960,林試太麻里2,2024-08-27,22.598,120.99775,0.14122424
E2S980,林試太麻里1,2024-08-27,22.598922,120.980044,0.16859303
G2AI50,關渡,2024-08-27,25.11575,121.492,0.03605111
G2F820,農業試驗所,2024-08-27,24.031261,120.688133,0.05593291
G2F820,農試所(霧峰),2024-08-27,24.031261,120.688133,0.05593291
G2L020,農試嘉義分所,2024-08-27,23.485028,120.473806,0.07694583
G2M350,農試溪口農場,2024-08-27,23.58565,120.408111,0.06996157
G2P820,農試鳳山分所,2024-08-27,22.646611,120.356083,0.023563175
K2E360,苗栗農改,2024-08-27,24.495722,120.829111,0.39012375
K2E360,苗栗農改場,2024-08-27,24.495722,120.829111,0.39012375
K2E710,苗改生物防治研究中心,2024-08-27,24.422861,120.871833,0.39136505
K2F750,種苗改良場,2024-08-27,24.225972,120.800917,0.9640985
K2F750,種苗繁殖,2024-08-27,24.225972,120.800917,0.9640985
U2HA50,臺大竹山,2024-08-27,23.756972,120.681556,0.313322
V2C250,八德合作社,2024-08-27,24.93775,121.266389,0.033928778
V2C260,八德蔬果,2024-08-27,24.978508,121.281819,0.029563816
V2K610,大庄合作社,2024-08-27,23.8068,120.367939,0.06376424
V2K620,麥寮合作社,2024-08-27,23.753836,120.294783,0.05686248
