站號,站名,日期,lat,lon,BlastGRU-TW
12J990,口湖工作站,2024-08-27,23.589978,120.180394,0.13789806
12Q970,東港工作站,2024-08-27,22.479997,120.466058,0.0147259915
12Q980,恆春工作站,2024-08-27,22.079678,120.714425,0.075197026
466881,新北,2024-08-27,24.9593,121.52,0.037849616
466900,淡水,2024-08-27,25.164889,121.448906,0.02881096
466920,臺北,2024-08-27,25.037658,121.514853,0.01438097
466940,基隆,2024-08-27,25.133314,121.740475,0.03297344
466990,花蓮,2024-08-27,23.975128,121.613275,0.0323818
467050,新屋,2024-08-27,25.006744,121.047486,0.4375272
467080,宜蘭,2024-08-27,24.763975,121.756528,0.07307393
467270,田中,2024-08-27,23.873803,120.581286,0.08294537
467280,後龍,2024-08-27,24.648563,120.831834,0.67950743
467300,東吉島,2024-08-27,23.25695,119.667467,0.6511652
467350,澎湖,2024-08-27,23.565503,119.563094,0.5833516
467410,臺南,2024-08-27,22.993239,120.204772,0.017683743
467420,永康,2024-08-27,23.038386,120.2367,0.010346062
467441,高雄,2024-08-27,22.7304,120.3125,0.010841165
467480,嘉義,2024-08-27,23.495925,120.432906,0.0866459
467490,臺中,2024-08-27,24.145736,120.684075,0.038256217
467540,大武,2024-08-27,22.355675,120.903789,0.0471646
467571,新竹,2024-08-27,24.827853,121.014219,0.07138736
467590,恆春,2024-08-27,22.003897,120.746339,0.5241656
467610,成功,2024-08-27,23.097486,121.373428,0.014778832
467620,蘭嶼,2024-08-27,22.036969,121.558339,0.9923405
467660,臺東,2024-08-27,22.752211,121.154586,0.06999595
467790,墾丁雷達站,2024-08-27,21.948235,120.808028,0.7786515
72AI40,桃改樹林分場,2024-08-27,24.944503,121.386972,0.027132051
72C440,桃園農改,2024-08-27,24.950944,121.030583,0.49740985
72C440,桃園農改場,2024-08-27,24.950944,121.030583,0.49740985
72D680,桃改新埔分場,2024-08-27,24.834444,121.066111,0.07328959
72G600,臺中農改,2024-08-27,24.003028,120.534389,0.070663676
72G600,臺中農改場,2024-08-27,24.003028,120.534389,0.070663676
72K220,南改斗南分場,2024-08-27,23.634556,120.477333,0.1887257
72M360,南改義竹分場,2024-08-27,23.360694,120.279361,0.048273563
72M700,南改鹿草分場,2024-08-27,23.416869,120.283061,0.04578301
72N100,臺南農改,2024-08-27,23.0605,120.342194,0.015641902
72N100,臺南農改場,2024-08-27,23.0605,120.342194,0.015641902
72N240,七股研究中心,2024-08-27,23.081672,120.062894,0.0693774
72Q010,高雄農改,2024-08-27,22.709333,120.525889,0.00927004
72Q010,高雄農改場,2024-08-27,22.709333,120.525889,0.00927004
72S200,東改班鳩分場,2024-08-27,22.829528,121.077694,0.09449512
72S590,東改賓朗果園,2024-08-27,22.813889,121.071278,0.13824548
72T250,花蓮農改,2024-08-27,23.975222,121.563889,0.033332407
72T250,花蓮農改場,2024-08-27,23.975222,121.563889,0.033332407
72U480,花改蘭陽分場,2024-08-27,24.686306,121.716583,0.032023616
72V140,高改旗南分場,2024-08-27,22.857861,120.516667,0.015141256
82A750,茶改北部分場,2024-08-27,24.955778,121.631222,0.014407117
82C160,茶改場,2024-08-27,24.908472,121.185333,0.032037932
82H840,茶改南部分場,2024-08-27,23.762528,120.7405,0.896857
82S580,茶改東部分場,2024-08-27,22.907694,121.130139,0.07657184
A2C560,農工中心,2024-08-27,24.985917,121.239833,0.028131755
A2K360,水試臺西試驗場,2024-08-27,23.717231,120.190522,0.18149364
A2K570,古坑花卉中心,2024-08-27,23.63353,120.55239,0.2804971
A2K630,臺大雲林校區,2024-08-27,23.730628,120.423903,0.09724457
A2N290,臺南蘭花園區,2024-08-27,23.340258,120.379661,0.036025036
B2E890,畜試北區分所,2024-08-27,24.527806,120.770972,0.43771994
B2N890,畜產試驗所,2024-08-27,23.058972,120.336406,0.015603057
B2N890,畜試所,2024-08-27,23.058972,120.336406,0.015603057
B2Q810,畜試南區分所,2024-08-27,21.945583,120.802167,0.65526384
B2U990,畜試東區分所,2024-08-27,24.669039,121.832561,0.018520027
C0A520,山佳,2024-08-27,24.974944,121.402008,0.04686625
C0A530,坪林,2024-08-27,24.938183,121.70975,0.016764687
C0A550,泰平,2024-08-27,24.971197,121.823711,0.022115337
C0A570,桶後,2024-08-27,24.848222,121.597992,0.023662308
C0A640,石碇,2024-08-27,24.993969,121.662917,0.042614527
C0A770,科教館,2024-08-27,25.096356,121.516507,0.015190425
C0A860,大坪,2024-08-27,25.165914,121.632969,0.017109407
C0A890,雙溪,2024-08-27,25.036003,121.864242,0.04025361
C0A931,三和,2024-08-27,25.233153,121.595236,0.022652647
C0A940,金山,2024-08-27,25.223628,121.643967,0.023067573
C0A950,鼻頭角,2024-08-27,25.129036,121.923372,0.07285792
C0A970,三貂角,2024-08-27,25.007606,122.002058,0.02073338
C0A980,社子,2024-08-27,25.109508,121.469681,0.028548894
C0A9C0,天母,2024-08-27,25.117494,121.537169,0.011514952
C0A9F0,內湖,2024-08-27,25.079422,121.57545,0.01438097
C0AC60,三峽,2024-08-27,24.939025,121.369728,0.027234884
C0AC70,信義,2024-08-27,25.037822,121.564597,0.01438097
C0AC80,文山,2024-08-27,25.00235,121.575728,0.03825291
C0ACA0,新莊,2024-08-27,25.051478,121.446756,0.018433772
C0AD10,八里,2024-08-27,25.150211,121.403947,0.027056025
C0AD30,蘆洲,2024-08-27,25.086594,121.472331,0.015123042
C0AD40,土城,2024-08-27,24.973208,121.445169,0.03789379
C0AD50,鶯歌,2024-08-27,24.951533,121.346294,0.027314859
C0AG80,中和,2024-08-27,24.991622,121.491792,0.03789379
C0AH00,汐止,2024-08-27,25.066881,121.658778,0.01438097
C0AH10,永和,2024-08-27,25.01125,121.508111,0.03776728
C0AH40,平等,2024-08-27,25.129142,121.577086,0.020855537
C0AH50,林口,2024-08-27,25.072181,121.38084,0.05784809
C0AH70,松山,2024-08-27,25.04871,121.55042,0.01438097
C0AH80,深坑,2024-08-27,25.002703,121.628328,0.03846801
C0AI00,五股,2024-08-27,25.07445,121.42728,0.052642383
C0AI10,屈尺,2024-08-27,24.92184,121.54475,0.020121459
C0AI20,白沙灣,2024-08-27,25.283128,121.519058,0.07320698
C0AI30,三重,2024-08-27,25.057328,121.500629,0.014390876
C0AI40,石牌,2024-08-27,25.115597,121.513139,0.011548811
C0AJ20,野柳,2024-08-27,25.20703,121.690021,0.020688044
C0AJ30,淡水觀海,2024-08-27,25.184591,121.408616,0.018392777
C0AJ40,石門,2024-08-27,25.273672,121.601198,0.06445809
C0AJ50,水湳洞,2024-08-27,25.123695,121.862238,0.028959354
C0AJ60,六塊厝,2024-08-27,25.24,121.4481,0.07128938
C0AJ70,田寮,2024-08-27,25.2698,121.4886,0.07210464
C0AJ80,板橋,2024-08-27,25.0107,121.4489,0.03776728
C0AJ90,澳底,2024-08-27,25.0552,121.9253,0.03801445
C0B010,七堵,2024-08-27,25.094819,121.71713,0.020517446
C0B020,基隆嶼,2024-08-27,25.19141,121.78391,0.038531493
C0B040,大武崙,2024-08-27,25.166676,121.706993,0.034339882
C0B050,八斗子,2024-08-27,25.144754,121.79167,0.032622647
C0B060,暖暖,2024-08-27,25.0957,121.7403,0.021302449
C0C460,復興,2024-08-27,24.820208,121.352281,0.026323985
C0C480,桃園,2024-08-27,24.992425,121.323172,0.027129862
C0C490,八德,2024-08-27,24.928708,121.283289,0.027531592
C0C590,觀音,2024-08-27,25.027072,121.153317,0.4153725
C0C620,蘆竹,2024-08-27,25.084275,121.265767,0.04506618
C0C630,大溪,2024-08-27,24.882853,121.265547,0.028662825
C0C650,平鎮,2024-08-27,24.897503,121.214636,0.029187964
C0C660,楊梅,2024-08-27,24.912375,121.143047,0.025530012
C0C670,龍潭,2024-08-27,24.870056,121.221389,0.03485223
C0C680,龜山,2024-08-27,25.02846,121.38656,0.07070551
C0C700,中壢,2024-08-27,24.977661,121.256375,0.028317139
C0C710,大溪永福,2024-08-27,24.892936,121.324975,0.035689153
C0C720,竹圍,2024-08-27,25.112692,121.239824,0.034502637
C0C730,中大臨海站,2024-08-27,24.966126,121.008581,0.36595303
C0C740,觀音工業區,2024-08-27,25.064764,121.114856,0.4812858
C0C750,新興坑尾,2024-08-27,25.0061,121.0971,0.25756574
C0D430,峨眉,2024-08-27,24.6905,121.017189,0.4673213
C0D480,打鐵坑,2024-08-27,24.849664,121.150789,0.035343472
C0D540,橫山,2024-08-27,24.71116,121.11693,0.19570701
C0D560,竹東,2024-08-27,24.767147,121.057881,0.35425806
C0D580,寶山,2024-08-27,24.735006,121.025192,0.23970976
C0D590,新豐,2024-08-27,24.87068,120.97721,0.9850246
C0D650,湖口,2024-08-27,24.904794,121.043628,0.36759588
C0D660,新竹市東區,2024-08-27,24.798681,120.986942,0.13345745
C0D670,海天一線,2024-08-27,24.831986,120.914438,0.9620268
C0D680,香山濕地,2024-08-27,24.783581,120.914988,0.101254806
C0D690,外湖,2024-08-27,24.917735,120.968711,0.14306927
C0D700,關西,2024-08-27,24.7977,121.1732,0.09171457
C0E420,竹南,2024-08-27,24.708978,120.888897,0.8438961
C0E430,南庄,2024-08-27,24.601775,121.000214,0.41674528
C0E550,明德,2024-08-27,24.583486,120.885411,0.5811239
C0E590,通霄,2024-08-27,24.471892,120.704622,0.51373774
C0E730,頭份,2024-08-27,24.688247,120.912206,0.8257532
C0E740,造橋,2024-08-27,24.637056,120.864778,0.65774965
C0E750,苗栗,2024-08-27,24.564569,120.824575,0.54604805
C0E780,銅鑼,2024-08-27,24.489681,120.790853,0.5998653
C0E791,卓蘭,2024-08-27,24.3126,120.8244,0.6239245
C0E810,西湖,2024-08-27,24.562947,120.7485,0.94220716
C0E820,獅潭,2024-08-27,24.539133,120.920042,0.50780904
C0E830,苑裡,2024-08-27,24.439714,120.653053,0.83739525
C0E850,大河,2024-08-27,24.618069,120.948578,0.24060191
C0E870,高鐵苗栗,2024-08-27,24.60725,120.826094,0.6611499
C0E910,海埔,2024-08-27,24.648767,120.772435,0.6781385
C0E920,通霄漁港,2024-08-27,24.498589,120.673876,0.76349616
C0E930,龍鳳,2024-08-27,24.700034,120.859125,0.7657069
C0F0B0,石岡,2024-08-27,24.276061,120.777644,0.5660561
C0F850,東勢,2024-08-27,24.246428,120.833047,0.6021666
C0F970,大坑,2024-08-27,24.173142,120.722289,0.03939066
C0F9I0,神岡,2024-08-27,24.272481,120.658314,0.19067101
C0F9K0,大安,2024-08-27,24.345061,120.588025,0.48916456
C0F9L0,后里,2024-08-27,24.310436,120.729725,0.34055778
C0F9M0,豐原,2024-08-27,24.254322,120.720692,0.25893545
C0F9N0,大里,2024-08-27,24.092464,120.701378,0.026961992
C0F9O0,潭子,2024-08-27,24.213106,120.703933,0.1273232
C0F9P0,清水,2024-08-27,24.312297,120.562242,0.2583023
C0F9Q0,外埔,2024-08-27,24.347817,120.705686,0.23804548
C0F9R0,龍井,2024-08-27,24.184536,120.528972,0.10737394
C0F9S0,烏日,2024-08-27,24.107058,120.624103,0.025285238
C0F9T0,西屯,2024-08-27,24.179494,120.641275,0.05152757
C0F9U0,南屯,2024-08-27,24.137006,120.637969,0.045446638
C0F9X0,大雅(中科園區),2024-08-27,24.21528,120.62445,0.09995188
C0FA10,松柏,2024-08-27,24.429115,120.617482,0.72119164
C0FA20,溫寮,2024-08-27,24.372177,120.583125,0.4404145
C0FA30,梧棲,2024-08-27,24.256003,120.523381,0.2583023
C0FA40,臺中電廠,2024-08-27,24.2146,120.4907,0.20493478
C0FA50,霧峰,2024-08-27,24.0419,120.6995,0.01501111
C0G620,芬園,2024-08-27,24.015678,120.6213,0.013432609
C0G650,員林,2024-08-27,23.946503,120.585597,0.02516806
C0G660,溪湖,2024-08-27,23.94835,120.479122,0.0859345
C0G720,溪州,2024-08-27,23.851589,120.499093,0.07150563
C0G730,二林,2024-08-27,23.903325,120.376081,0.16536239
C0G740,大城,2024-08-27,23.852487,120.320935,0.16821598
C0G770,福興,2024-08-27,24.041289,120.437669,0.11316696
C0G780,秀水,2024-08-27,24.03405,120.503869,0.07000951
C0G800,埔鹽,2024-08-27,24.000394,120.431683,0.1144821
C0G810,埔心,2024-08-27,23.947633,120.525456,0.08994559
C0G820,田尾,2024-08-27,23.901669,120.509389,0.06436931
C0G830,埤頭,2024-08-27,23.866003,120.452806,0.065334074
C0G860,社頭,2024-08-27,23.897647,120.5862,0.07824827
C0G880,二水,2024-08-27,23.810742,120.6173,0.2750295
C0G890,伸港,2024-08-27,24.148933,120.484403,0.09008127
C0G900,線西,2024-08-27,24.143358,120.443536,0.087235674
C0G910,花壇,2024-08-27,24.032076,120.549461,0.07685787
C0G920,永靖,2024-08-27,23.924703,120.547533,0.06436931
C0G940,竹塘,2024-08-27,23.848253,120.386764,0.1839001
C0G950,防潮門,2024-08-27,24.1835,120.4871,0.10737394
C0G960,福寶,2024-08-27,24.0443,120.3814,0.0772315
C0G970,三豐,2024-08-27,23.882,120.2895,0.17380574
C0H890,埔里,2024-08-27,23.972169,120.952425,0.1463282
C0H960,草屯,2024-08-27,23.973672,120.68085,0.013501267
C0I110,竹山,2024-08-27,23.761225,120.688156,0.5162485
C0I360,水里,2024-08-27,23.812553,120.849792,0.17505455
C0I380,集集,2024-08-27,23.828206,120.801467,0.152438
C0I410,名間,2024-08-27,23.837053,120.701447,0.16444951
C0I420,國姓,2024-08-27,24.037803,120.855072,0.048484858
C0I460,南投,2024-08-27,23.911469,120.687331,0.04223394
C0K250,崙背,2024-08-27,23.75555,120.318925,0.13555801
C0K280,四湖,2024-08-27,23.630414,120.227125,0.13076536
C0K291,宜梧,2024-08-27,23.536281,120.169329,0.054468922
C0K330,虎尾,2024-08-27,23.719183,120.442036,0.10154991
C0K390,土庫,2024-08-27,23.679029,120.395574,0.048485342
C0K400,斗六,2024-08-27,23.720583,120.541127,0.18195762
C0K410,北港,2024-08-27,23.573957,120.292802,0.07207305
C0K420,西螺,2024-08-27,23.800407,120.467394,0.063482404
C0K430,褒忠,2024-08-27,23.690938,120.303634,0.13532686
C0K440,二崙,2024-08-27,23.772797,120.408944,0.061597496
C0K450,大埤,2024-08-27,23.646074,120.431537,0.18267807
C0K460,斗南,2024-08-27,23.678734,120.478359,0.1887257
C0K470,林內,2024-08-27,23.748675,120.609642,0.3098115
C0K480,莿桐,2024-08-27,23.761192,120.502372,0.14285743
C0K500,元長,2024-08-27,23.64981,120.315024,0.07323147
C0K510,水林,2024-08-27,23.572924,120.24597,0.0695208
C0K530,臺西,2024-08-27,23.701547,120.197559,0.19376276
C0K550,蔦松,2024-08-27,23.514319,120.229736,0.054468937
C0K560,棋山,2024-08-27,23.68645,120.603417,0.34135973
C0K580,高鐵雲林,2024-08-27,23.737456,120.417944,0.09724458
C0K590,雲林東勢,2024-08-27,23.674192,120.255721,0.07323487
C0K600,箔子寮,2024-08-27,23.6197,120.14,0.13789806
C0M520,東後寮,2024-08-27,23.369908,120.248065,0.04750759
C0M640,中埔,2024-08-27,23.42538,120.5229,0.11197413
C0M650,朴子,2024-08-27,23.43463,120.23902,0.04461918
C0M660,溪口,2024-08-27,23.604131,120.403569,0.0803515
C0M670,大林,2024-08-27,23.600616,120.45841,0.08365065
C0M680,太保,2024-08-27,23.455062,120.331455,0.047500953
C0M690,水上,2024-08-27,23.419734,120.388909,0.047287464
C0M700,竹崎,2024-08-27,23.526178,120.555508,0.14801084
C0M710,東石,2024-08-27,23.458927,120.15385,0.13827322
C0M720,番路,2024-08-27,23.464657,120.554156,0.14465056
C0M730,嘉義市東區,2024-08-27,23.457673,120.460531,0.0682199
C0M740,六腳,2024-08-27,23.492871,120.290625,0.052379377
C0M750,布袋,2024-08-27,23.380878,120.167789,0.046400357
C0M760,民雄,2024-08-27,23.551754,120.428457,0.087368235
C0M770,嘉義梅山,2024-08-27,23.585398,120.555587,0.45495042
C0M780,鹿草,2024-08-27,23.41134,120.30835,0.04835028
C0M790,新港,2024-08-27,23.553269,120.345728,0.081188746
C0M800,茶山,2024-08-27,23.299075,120.664767,0.50788665
C0M880,好美里,2024-08-27,23.3364,120.138,0.03728542
C0N010,鯤鯓國小,2024-08-27,23.1879,120.0889,0.033931326
C0N020,城西,2024-08-27,23.0568,120.0956,0.016943872
C0N030,四草,2024-08-27,23.0235,120.1116,0.016782254
C0N040,蘆竹溝,2024-08-27,23.2344,120.0961,0.0266312
C0N050,蚵寮,2024-08-27,23.301,120.1104,0.038920812
C0O830,北寮,2024-08-27,23.079561,120.495008,0.017848313
C0O840,王爺宮,2024-08-27,23.222064,120.40085,0.028809985
C0O860,大內,2024-08-27,23.11885,120.36083,0.0144489445
C0O900,善化,2024-08-27,23.112883,120.297219,0.016061964
C0O960,崎頂,2024-08-27,22.959547,120.369317,0.015690492
C0O970,虎頭埤,2024-08-27,23.021375,120.347878,0.020829007
C0O980,新市,2024-08-27,23.061614,120.298197,0.01667194
C0O990,媽廟,2024-08-27,22.99175,120.293525,0.010323938
C0R150,三地門,2024-08-27,22.709889,120.639944,0.025660481
C0R160,鹽埔,2024-08-27,22.739558,120.530778,0.00927004
C0R170,屏東,2024-08-27,22.660269,120.494072,0.010299577
C0R190,赤山,2024-08-27,22.592333,120.614306,0.012840064
C0R220,潮州,2024-08-27,22.534361,120.54,0.011600342
C0R240,來義,2024-08-27,22.527306,120.625111,0.012524117
C0R260,春日,2024-08-27,22.370361,120.628306,0.022704083
C0R270,琉球嶼,2024-08-27,22.332244,120.362236,0.04951569
C0R280,檳榔,2024-08-27,22.076078,120.836777,0.13950327
C0R320,車城,2024-08-27,22.0744,120.716247,0.075197026
C0R341,牡丹,2024-08-27,22.130036,120.792639,0.12523888
C0R350,貓鼻頭,2024-08-27,21.921774,120.7358,0.8030998
C0R470,高樹,2024-08-27,22.826389,120.600806,0.018173192
C0R480,長治,2024-08-27,22.693128,120.542622,0.011578291
C0R490,九如,2024-08-27,22.7405,120.490503,0.009216648
C0R520,崁頂,2024-08-27,22.514781,120.506914,0.0114503885
C0R540,佳冬,2024-08-27,22.419456,120.552375,0.020525271
C0R550,新埤,2024-08-27,22.467947,120.582894,0.0144228125
C0R560,新園,2024-08-27,22.5434,120.461558,0.011838876
C0R570,麟洛,2024-08-27,22.65078,120.52719,0.010299577
C0R580,南州,2024-08-27,22.48591,120.50274,0.0147259915
C0R590,里港,2024-08-27,22.77919,120.49459,0.014722187
C0R620,墾雷,2024-08-27,21.900836,120.855269,0.98327184
C0R640,東港,2024-08-27,22.46247,120.44074,0.0147259915
C0R650,竹田,2024-08-27,22.58486,120.54344,0.012070588
C0R660,枋寮,2024-08-27,22.367722,120.590647,0.020492619
C0R670,楓港,2024-08-27,22.190131,120.692156,0.053269546
C0R680,佳樂水,2024-08-27,21.993578,120.861633,0.67336947
C0R690,墾丁,2024-08-27,21.966756,120.810269,0.92165977
C0R700,枋山,2024-08-27,22.246844,120.661086,0.057400137
C0R710,龍磐,2024-08-27,21.931672,120.838942,0.98425275
C0R720,旭海,2024-08-27,22.205403,120.887614,0.85544693
C0R730,大坪頂,2024-08-27,22.024633,120.69355,0.24401104
C0R740,獅子,2024-08-27,22.201569,120.70525,0.20425744
C0R760,南仁湖,2024-08-27,22.084681,120.863353,0.2937654
C0R770,保力,2024-08-27,22.071122,120.764111,0.09052213
C0R780,滿州,2024-08-27,22.024403,120.839892,0.5874768
C0R790,九棚,2024-08-27,22.14195,120.889281,0.09154574
C0R800,丹路,2024-08-27,22.204481,120.750989,0.5192527
C0R810,內獅,2024-08-27,22.305064,120.642986,0.028427327
C0R830,高士,2024-08-27,22.121825,120.836781,0.6481668
C0R850,林邊,2024-08-27,22.4634,120.5339,0.014853486
C0R860,鼻頭,2024-08-27,22.1043,120.8979,0.03828306
C0R870,興海,2024-08-27,21.9752,120.8439,0.6552636
C0R880,後壁湖,2024-08-27,21.9457,120.7457,0.18608095
C0R890,山海,2024-08-27,21.9878,120.7091,0.19506693
C0R900,竹坑,2024-08-27,22.1385,120.7022,0.078609966
C0R910,下寮,2024-08-27,22.3929,120.5548,0.020492619
C0R920,塭仔,2024-08-27,22.4169,120.5197,0.020352494
C0R930,萬丹,2024-08-27,22.5885,120.4851,0.014945141
C0R940,加祿堂,2024-08-27,22.3363,120.6217,0.022982027
C0S710,鹿野,2024-08-27,22.917711,121.122994,0.31990045
C0S730,綠島,2024-08-27,22.6672,121.47533,0.15312459
C0S740,池上,2024-08-27,23.119628,121.209469,0.020489676
C0S770,大溪山,2024-08-27,22.478475,120.943325,0.2872601
C0S790,金崙,2024-08-27,22.538122,120.966875,0.18175921
C0S810,東河,2024-08-27,22.972672,121.303986,0.02131123
C0S830,長濱,2024-08-27,23.286817,121.411975,0.02436415
C0S840,南田,2024-08-27,22.279725,120.889208,0.15191826
C0S890,關山,2024-08-27,23.0395,121.175017,0.028262196
C0S900,蘭嶼高中,2024-08-27,22.04909,121.51214,0.99314874
C0S910,蘭嶼燈塔,2024-08-27,22.081197,121.503117,0.9917976
C0S920,金峰嘉蘭,2024-08-27,22.594789,120.960825,0.044745915
C0S930,延平,2024-08-27,22.902581,121.084058,0.10984601
C0S940,石寧山,2024-08-27,23.223772,121.406639,0.015910082
C0S950,七塊厝,2024-08-27,22.954453,121.229922,0.25029182
C0S960,香蘭,2024-08-27,22.587569,120.993375,0.03558962
C0S970,加津林,2024-08-27,22.416211,120.926942,0.049133405
C0S990,山豬窟,2024-08-27,22.318619,120.857372,0.9083695
C0SA00,歷坵,2024-08-27,22.520969,120.89185,0.61569893
C0SA10,檳榔四格山,2024-08-27,22.810031,121.109308,0.51285505
C0SA30,都歷,2024-08-27,23.020333,121.323642,0.017667739
C0SA40,瑞和,2024-08-27,22.974361,121.156697,0.03787482
C0SA60,知本（水試所）,2024-08-27,22.702394,121.082761,0.021833267
C0SA80,土坂,2024-08-27,22.453108,120.887572,0.06039176
C0SA90,達仁林場,2024-08-27,22.264347,120.823972,0.9832508
C0T870,鯉魚潭,2024-08-27,23.935639,121.508944,0.043073334
C0T900,西林,2024-08-27,23.8119,121.441458,0.04074713
C0T960,光復,2024-08-27,23.660694,121.424964,0.045195825
C0T9A0,月眉山,2024-08-27,23.809928,121.539828,0.13782632
C0T9D0,和中,2024-08-27,24.26676,121.74103,0.07231986
C0T9E0,大坑,2024-08-27,23.880628,121.581981,0.23066618
C0T9F0,水璉,2024-08-27,23.797131,121.542514,0.058452267
C0T9I0,豐濱,2024-08-27,23.583897,121.514806,0.036539476
C0T9M0,靜浦,2024-08-27,23.455167,121.495028,0.04137526
C0T9N0,富里,2024-08-27,23.171639,121.249378,0.019513372
C0U600,礁溪,2024-08-27,24.817539,121.765608,0.039022684
C0U650,玉蘭,2024-08-27,24.675286,121.587061,0.010933129
C0U750,龜山島,2024-08-27,24.841667,121.953133,0.310822
C0U760,東澳,2024-08-27,24.52196,121.83318,0.027913524
C0U770,南澳,2024-08-27,24.44935,121.81022,0.11412976
C0U780,五結,2024-08-27,24.68637,121.79794,0.03053477
C0U860,頭城,2024-08-27,24.85323,121.8308,0.038827036
C0U870,大礁溪,2024-08-27,24.791042,121.675047,0.032784365
C0U880,北關,2024-08-27,24.9072,121.8734,0.017434586
C0U890,三星,2024-08-27,24.66812,121.65302,0.010148507
C0U900,內城,2024-08-27,24.71813,121.68766,0.033349328
C0U910,冬山,2024-08-27,24.63373,121.7937,0.018520027
C0U940,羅東,2024-08-27,24.68184,121.74934,0.031453658
C0U970,大福,2024-08-27,24.80064,121.81389,0.07198007
C0U990,員山,2024-08-27,24.74435,121.72247,0.031091264
C0UA00,土場,2024-08-27,24.576533,121.495333,0.007986178
C0UA80,大溪漁港,2024-08-27,24.941801,121.902955,0.01773901
C0UA90,石城,2024-08-27,24.980444,121.951214,0.020622881
C0UB00,淡江大學蘭陽校園,2024-08-27,24.823239,121.730383,0.02178256
C0UB10,蘇澳,2024-08-27,24.5969,121.8571,0.010166457
C0UB20,壯圍,2024-08-27,24.7359,121.8163,0.030345578
C0V310,美濃,2024-08-27,22.898742,120.519153,0.015141256
C0V350,溪埔,2024-08-27,22.738578,120.446797,0.009780953
C0V360,內門,2024-08-27,22.975481,120.466769,0.016230602
C0V370,古亭坑,2024-08-27,22.893178,120.401947,0.016403902
C0V400,阿公店,2024-08-27,22.804194,120.355528,0.012041282
C0V440,鳳山,2024-08-27,22.646653,120.356122,0.026037669
C0V450,鳳森,2024-08-27,22.545064,120.392592,0.0120586585
C0V490,新興,2024-08-27,22.627422,120.298803,0.012037697
C0V530,阿蓮,2024-08-27,22.883208,120.327508,0.011253019
C0V610,梓官,2024-08-27,22.760558,120.267211,0.011433032
C0V620,永安,2024-08-27,22.82315,120.236856,0.0123795215
C0V630,茄萣,2024-08-27,22.906642,120.182608,0.024864452
C0V640,湖內,2024-08-27,22.887139,120.2445,0.023710584
C0V650,彌陀,2024-08-27,22.783806,120.246361,0.012432501
C0V660,岡山,2024-08-27,22.797078,120.294958,0.012432501
C0V680,仁武,2024-08-27,22.701083,120.347722,0.024386311
C0V690,鼓山,2024-08-27,22.623325,120.275575,0.012037697
C0V700,三民,2024-08-27,22.645017,120.311233,0.025953203
C0V710,苓雅,2024-08-27,22.622742,120.330669,0.011713345
C0V720,林園,2024-08-27,22.507747,120.394511,0.011021519
C0V730,大寮,2024-08-27,22.605614,120.395717,0.011894364
C0V740,旗山,2024-08-27,22.888614,120.483597,0.015300211
C0V750,路竹,2024-08-27,22.854997,120.259439,0.024049427
C0V760,橋頭,2024-08-27,22.757806,120.30575,0.011433032
C0V770,大社,2024-08-27,22.730306,120.346639,0.010841175
C0V790,萬山,2024-08-27,22.905944,120.688056,0.046122547
C0V800,六龜,2024-08-27,22.997889,120.633583,0.023095207
C0V810,左營,2024-08-27,22.67491,120.28491,0.025953203
C0V820,小林,2024-08-27,23.148408,120.63325,0.5214901
C0V840,鳳鼻頭,2024-08-27,22.5083,120.3591,0.01163419
C0V850,蚵仔寮,2024-08-27,22.7256,120.2527,0.011377048
C0V860,南寮,2024-08-27,22.7616,120.2339,0.011377048
C0V870,文安,2024-08-27,22.8025,120.2164,0.012404851
C0V880,興達,2024-08-27,22.8778,120.2127,0.02322031
C0V890,前鎮,2024-08-27,22.5718,120.3117,0.01196634
C0V900,汕尾,2024-08-27,22.4782,120.4151,0.0147259915
C0W200,湖西,2024-08-27,23.596314,119.67275,0.60655576
C0X050,東河,2024-08-27,23.296598,120.385608,0.027061833
C0X060,下營,2024-08-27,23.22695,120.256261,0.021345489
C0X080,佳里,2024-08-27,23.173039,120.145086,0.03393131
C0X100,臺南市北區,2024-08-27,23.010394,120.194228,0.017050806
C0X110,臺南市南區,2024-08-27,22.961189,120.188378,0.011412226
C0X120,麻豆,2024-08-27,23.183289,120.248611,0.01531266
C0X130,官田,2024-08-27,23.193217,120.315422,0.01930747
C0X140,西港,2024-08-27,23.125608,120.203108,0.01374691
C0X150,安定,2024-08-27,23.102614,120.227839,0.01374691
C0X160,仁德,2024-08-27,22.968258,120.257689,0.011392666
C0X170,關廟,2024-08-27,22.963017,120.327797,0.013626173
C0X180,山上,2024-08-27,23.0757,120.363253,0.018003091
C0X190,安平,2024-08-27,22.993161,120.152181,0.017050821
C0X200,左鎮,2024-08-27,23.056758,120.408522,0.020099672
C0X210,白河,2024-08-27,23.347466,120.414427,0.05570456
C0X220,學甲,2024-08-27,23.230367,120.182187,0.027119055
C0X230,鹽水,2024-08-27,23.272621,120.247641,0.03133872
C0X240,關子嶺,2024-08-27,23.331169,120.508025,0.7544633
C0X250,新營,2024-08-27,23.310689,120.316681,0.022244979
C0X260,後壁,2024-08-27,23.366358,120.362326,0.03602502
C0X280,將軍,2024-08-27,23.214999,120.13577,0.0266312
C0X290,北門,2024-08-27,23.267772,120.125481,0.0266312
C0X300,鹿寮,2024-08-27,23.386047,120.477331,0.04976495
C0X320,柳營,2024-08-27,23.253328,120.375253,0.019056946
C0Z020,明里,2024-08-27,23.208717,121.262342,0.018623898
C0Z061,玉里,2024-08-27,23.3215,121.339656,0.020224744
C0Z070,舞鶴,2024-08-27,23.46811,121.37407,0.04751327
C0Z080,富源,2024-08-27,23.587642,121.378225,0.011767874
C0Z100,東華,2024-08-27,23.89525,121.549833,0.044160903
C0Z150,吉安光華,2024-08-27,23.930925,121.595153,0.034899097
C0Z160,鳳林,2024-08-27,23.746114,121.453411,0.022310637
C0Z170,卓溪,2024-08-27,23.3443,121.3029,0.051185265
C0Z180,新城,2024-08-27,24.03946,121.60454,0.032673065
C0Z190,富世,2024-08-27,24.14743,121.6297,0.11514791
C0Z200,萬榮,2024-08-27,23.709219,121.420106,0.024203658
C0Z210,瑞穗,2024-08-27,23.5239,121.39021,0.030997952
C0Z230,和平,2024-08-27,24.30717,121.77007,0.069130585
C0Z270,蕃薯寮,2024-08-27,23.73835,121.540108,0.07019268
C0Z280,德武,2024-08-27,23.47426,121.41071,0.047758956
C0Z300,東里,2024-08-27,23.26853,121.30547,0.016200457
C0Z310,清水斷崖,2024-08-27,24.218294,121.689142,0.9430404
C0Z330,安通山,2024-08-27,23.290728,121.348528,0.12385814
C2A540,四堵,2024-08-27,24.8926,121.745736,0.016164774
C2A560,福山,2024-08-27,24.776203,121.502811,0.012634535
C2A650,火燒寮,2024-08-27,25.002719,121.742892,0.018651811
C2A660,瑞芳,2024-08-27,25.113169,121.801147,0.031775694
C2A880,福隆,2024-08-27,25.017842,121.942083,0.020613449
C2A920,富貴角,2024-08-27,25.263783,121.565258,0.07006429
C2E520,大湖,2024-08-27,24.414939,120.870872,0.81135064
C2E540,後龍,2024-08-27,24.606489,120.783933,0.6900872
C2E540,龍溪,2024-08-27,24.606489,120.783933,0.6900872
C2F000,大肚,2024-08-27,24.15295,120.572117,0.122939505
C2F930,大甲,2024-08-27,24.347667,120.640403,0.6818115
C2F9A0,中竹林,2024-08-27,24.103556,120.751061,0.10435414
C2G640,鹿港,2024-08-27,24.0753,120.430481,0.0772315
C2G840,北斗,2024-08-27,23.877586,120.514222,0.06956034
C2G870,芳苑,2024-08-27,23.922303,120.320025,0.33484033
C2H950,中寮,2024-08-27,23.884447,120.766406,0.1734319
C2M410,馬頭山,2024-08-27,23.324361,120.582017,0.27279708
C2N160,西拉雅風管處,2024-08-27,23.189481,120.335297,0.019532412
C2O810,曾文,2024-08-27,23.219681,120.497328,0.028463671
C2O930,玉井,2024-08-27,23.126042,120.46055,0.018003087
C2O950,安南,2024-08-27,23.076694,120.144861,0.07173791
C2V250,甲仙,2024-08-27,23.080106,120.591758,0.07008495
C2V260,月眉,2024-08-27,22.971003,120.539853,0.018590055
C2W230,畜試所澎湖,2024-08-27,23.628342,119.513206,0.6585932
CAG100,王功漁港,2024-08-27,23.96824,120.32586,0.35296786
CAH030,茶改場竹圍站,2024-08-27,23.860083,120.637528,0.12824877
CAJ050,海口故事園區,2024-08-27,23.57543,120.14121,0.13615833
CAL110,布袋國中,2024-08-27,23.35893,120.18026,0.046400357
CAN130,水試所海水繁養殖中心,2024-08-27,23.120802,120.07968,0.06937733
CAN140,六官養殖協會,2024-08-27,23.22881,120.29962,0.021345489
CAQ030,崎峰國小,2024-08-27,22.42565,120.49521,0.0147259915
E2K600,四湖植物園,2024-08-27,23.676986,120.163433,0.13076548
E2P980,林試六龜中心,2024-08-27,22.991703,120.645722,0.024881229
E2S960,林試太麻里2,2024-08-27,22.598014,120.989761,0.036009025
E2S960,林試太麻里2,2024-08-27,22.598,120.99775,0.03478751
E2S980,林試太麻里1,2024-08-27,22.598922,120.980044,0.044084925
G2AI50,關渡,2024-08-27,25.11575,121.492,0.02866785
G2F820,農業試驗所,2024-08-27,24.031261,120.688133,0.015098715
G2F820,農試所(霧峰),2024-08-27,24.031261,120.688133,0.015098715
G2L020,農試嘉義分所,2024-08-27,23.485028,120.473806,0.09257596
G2M350,農試溪口農場,2024-08-27,23.58565,120.408111,0.08035146
G2P820,農試鳳山分所,2024-08-27,22.646611,120.356083,0.026037708
K2E360,苗栗農改,2024-08-27,24.495722,120.829111,0.47491613
K2E360,苗栗農改場,2024-08-27,24.495722,120.829111,0.47491613
K2E710,苗改生物防治研究中心,2024-08-27,24.422861,120.871833,0.73841697
K2F750,種苗改良場,2024-08-27,24.225972,120.800917,0.9668718
K2F750,種苗繁殖,2024-08-27,24.225972,120.800917,0.9668718
U2HA50,臺大竹山,2024-08-27,23.756972,120.681556,0.5730656
V2C250,八德合作社,2024-08-27,24.93775,121.266389,0.028376779
V2C260,八德蔬果,2024-08-27,24.978508,121.281819,0.02745739
V2K610,大庄合作社,2024-08-27,23.8068,120.367939,0.14120269
V2K620,麥寮合作社,2024-08-27,23.753836,120.294783,0.1352846
