站號,站名,日期,lat,lon,BlastGRU-TW
12J990,口湖工作站,2024-01-13,23.589978,120.180394,0.00047139183
12Q970,東港工作站,2024-01-13,22.479997,120.466058,0.086500764
12Q980,恆春工作站,2024-01-13,22.079678,120.714425,9.069206e-05
466881,新北,2024-01-13,24.9593,121.52,0.008426685
466900,淡水,2024-01-13,25.164889,121.448906,0.002394291
466920,臺北,2024-01-13,25.037658,121.514853,0.0040024426
466940,基隆,2024-01-13,25.133314,121.740475,0.001105615
466990,花蓮,2024-01-13,23.975128,121.613275,0.0036855252
467050,新屋,2024-01-13,25.006744,121.047486,0.0006286106
467080,宜蘭,2024-01-13,24.763975,121.756528,0.0052306848
467270,田中,2024-01-13,23.873803,120.581286,0.004935802
467300,東吉島,2024-01-13,23.25695,119.667467,0.0005823033
467350,澎湖,2024-01-13,23.565503,119.563094,0.00049030746
467410,臺南,2024-01-13,22.993239,120.204772,0.0026215157
467420,永康,2024-01-13,23.038386,120.2367,0.010347902
467441,高雄,2024-01-13,22.7304,120.3125,0.029025273
467480,嘉義,2024-01-13,23.495925,120.432906,0.0022025115
467490,臺中,2024-01-13,24.145736,120.684075,0.002825556
467540,大武,2024-01-13,22.355675,120.903789,0.0087008
467571,新竹,2024-01-13,24.827853,121.014219,0.0004516061
467590,恆春,2024-01-13,22.003897,120.746339,0.0024683985
467610,成功,2024-01-13,23.097486,121.373428,0.0017981543
467620,蘭嶼,2024-01-13,22.036969,121.558339,0.0031297451
467660,臺東,2024-01-13,22.752211,121.154586,0.006452479
467790,墾丁雷達站,2024-01-13,21.948235,120.808028,0.0008220984
72AI40,桃改樹林分場,2024-01-13,24.944503,121.386972,0.0023313176
72C440,桃園農改,2024-01-13,24.950944,121.030583,0.00043834987
72C440,桃園農改場,2024-01-13,24.950944,121.030583,0.00043834987
72D680,桃改新埔分場,2024-01-13,24.834444,121.066111,0.0005287469
72G600,臺中農改,2024-01-13,24.003028,120.534389,0.0031198827
72G600,臺中農改場,2024-01-13,24.003028,120.534389,0.0031198827
72K220,南改斗南分場,2024-01-13,23.634556,120.477333,0.0028560085
72M360,南改義竹分場,2024-01-13,23.360694,120.279361,0.0011102182
72M700,南改鹿草分場,2024-01-13,23.416869,120.283061,0.0015449913
72N100,臺南農改,2024-01-13,23.0605,120.342194,0.00832266
72N100,臺南農改場,2024-01-13,23.0605,120.342194,0.00832266
72N240,七股研究中心,2024-01-13,23.081672,120.062894,0.0011076133
72Q010,高雄農改,2024-01-13,22.709333,120.525889,0.17172964
72Q010,高雄農改場,2024-01-13,22.709333,120.525889,0.17172958
72S200,東改班鳩分場,2024-01-13,22.829528,121.077694,0.0026636296
72S590,東改賓朗果園,2024-01-13,22.813889,121.071278,0.0015947153
72T250,花蓮農改,2024-01-13,23.975222,121.563889,0.003006262
72T250,花蓮農改場,2024-01-13,23.975222,121.563889,0.003006262
72U480,花改蘭陽分場,2024-01-13,24.686306,121.716583,0.009517886
72V140,高改旗南分場,2024-01-13,22.857861,120.516667,0.18487951
82A750,茶改北部分場,2024-01-13,24.955778,121.631222,0.0019479619
82C160,茶改場,2024-01-13,24.908472,121.185333,0.0007951626
82H840,茶改南部分場,2024-01-13,23.762528,120.7405,0.009757809
82S580,茶改東部分場,2024-01-13,22.907694,121.130139,0.0024512692
A2C560,農工中心,2024-01-13,24.985917,121.239833,0.00088409527
A2K360,水試臺西試驗場,2024-01-13,23.717231,120.190522,0.0004296907
A2K570,古坑花卉中心,2024-01-13,23.63353,120.55239,0.007084668
A2K630,臺大雲林校區,2024-01-13,23.730628,120.423903,0.0022971325
A2N290,臺南蘭花園區,2024-01-13,23.340258,120.379661,0.0025197794
B2E890,畜試北區分所,2024-01-13,24.527806,120.770972,0.00073470763
B2N890,畜產試驗所,2024-01-13,23.058972,120.336406,0.00832266
B2N890,畜試所,2024-01-13,23.058972,120.336406,0.00832266
B2Q810,畜試南區分所,2024-01-13,21.945583,120.802167,0.00073239795
B2U990,畜試東區分所,2024-01-13,24.669039,121.832561,0.06457675
C0A520,山佳,2024-01-13,24.974944,121.402008,0.0049234736
C0A530,坪林,2024-01-13,24.938183,121.70975,0.001606525
C0A540,四堵,2024-01-13,24.8926,121.745736,0.0012670972
C0A550,泰平,2024-01-13,24.971197,121.823711,0.0015689357
C0A560,福山,2024-01-13,24.776203,121.502811,0.0056904056
C0A570,桶後,2024-01-13,24.848222,121.597992,0.0018082124
C0A640,石碇,2024-01-13,24.993969,121.662917,0.005039013
C0A650,火燒寮,2024-01-13,25.002719,121.742892,0.0014521637
C0A660,瑞芳,2024-01-13,25.113169,121.801147,0.0007318855
C0A770,科教館,2024-01-13,25.096356,121.516507,0.005284624
C0A860,大坪,2024-01-13,25.165914,121.632969,0.0011261115
C0A880,福隆,2024-01-13,25.017842,121.942083,0.0051538968
C0A890,雙溪,2024-01-13,25.036003,121.864242,0.0016429988
C0A920,富貴角,2024-01-13,25.263783,121.565258,0.0008712137
C0A931,三和,2024-01-13,25.233153,121.595236,0.00051118707
C0A940,金山,2024-01-13,25.223628,121.643967,0.000673912
C0A950,鼻頭角,2024-01-13,25.129036,121.923372,0.002433802
C0A970,三貂角,2024-01-13,25.007606,122.002058,0.0056026117
C0A980,社子,2024-01-13,25.109508,121.469681,0.0021040658
C0A9C0,天母,2024-01-13,25.117494,121.537169,0.0020432228
C0A9F0,內湖,2024-01-13,25.079422,121.57545,0.0053022695
C0AC60,三峽,2024-01-13,24.939025,121.369728,0.0021972782
C0AC70,信義,2024-01-13,25.037822,121.564597,0.0045788824
C0AC80,文山,2024-01-13,25.00235,121.575728,0.005904681
C0ACA0,新莊,2024-01-13,25.051478,121.446756,0.0045190826
C0AD00,三芝,2024-01-13,25.258131,121.501917,0.0010285596
C0AD10,八里,2024-01-13,25.150211,121.403947,0.0019457197
C0AD30,蘆洲,2024-01-13,25.086594,121.472331,0.005284624
C0AD40,土城,2024-01-13,24.973208,121.445169,0.007876844
C0AD50,鶯歌,2024-01-13,24.951533,121.346294,0.0020191532
C0AG80,中和,2024-01-13,24.991622,121.491792,0.0058670877
C0AH00,汐止,2024-01-13,25.066881,121.658778,0.008572411
C0AH10,永和,2024-01-13,25.01125,121.508111,0.0061413134
C0AH40,平等,2024-01-13,25.129142,121.577086,0.00084947183
C0AH50,林口,2024-01-13,25.072181,121.38084,0.0010075839
C0AH70,松山,2024-01-13,25.04871,121.55042,0.0045788824
C0AH80,深坑,2024-01-13,25.002703,121.628328,0.0070003774
C0AI00,五股,2024-01-13,25.07445,121.42728,0.001127027
C0AI10,屈尺,2024-01-13,24.92184,121.54475,0.0042763
C0AI20,白沙灣,2024-01-13,25.283128,121.519058,0.0007555061
C0AI30,三重,2024-01-13,25.057328,121.500629,0.004213557
C0AI40,石牌,2024-01-13,25.115597,121.513139,0.0021385858
C0AJ20,野柳,2024-01-13,25.20703,121.690021,0.0010647714
C0AJ30,淡水觀海,2024-01-13,25.184591,121.408616,0.00093515904
C0AJ40,石門,2024-01-13,25.273672,121.601198,0.0009962023
C0AJ50,水湳洞,2024-01-13,25.123695,121.862238,0.0008773871
C0AJ60,六塊厝,2024-01-13,25.24,121.4481,0.00073018007
C0AJ70,田寮,2024-01-13,25.2698,121.4886,0.0012516881
C0AJ80,板橋,2024-01-13,25.0107,121.4489,0.0069465255
C0AJ90,澳底,2024-01-13,25.0552,121.9253,0.0017421037
C0B010,七堵,2024-01-13,25.094819,121.71713,0.007414281
C0B020,基隆嶼,2024-01-13,25.19141,121.78391,0.0010882616
C0B040,大武崙,2024-01-13,25.166676,121.706993,0.0008570338
C0B050,八斗子,2024-01-13,25.144754,121.79167,0.0011290443
C0B060,暖暖,2024-01-13,25.0957,121.7403,0.0061888653
C0C460,復興,2024-01-13,24.820208,121.352281,0.0012834038
C0C480,桃園,2024-01-13,24.992425,121.323172,0.0012426891
C0C490,八德,2024-01-13,24.928708,121.283289,0.0015287291
C0C590,觀音,2024-01-13,25.027072,121.153317,0.00073188724
C0C620,蘆竹,2024-01-13,25.084275,121.265767,0.0008755407
C0C630,大溪,2024-01-13,24.882853,121.265547,0.0024095525
C0C650,平鎮,2024-01-13,24.897503,121.214636,0.0014182762
C0C660,楊梅,2024-01-13,24.912375,121.143047,0.00072168314
C0C670,龍潭,2024-01-13,24.870056,121.221389,0.0024169693
C0C680,龜山,2024-01-13,25.02846,121.38656,0.0010643186
C0C700,中壢,2024-01-13,24.977661,121.256375,0.0011678706
C0C710,大溪永福,2024-01-13,24.892936,121.324975,0.0022239373
C0C720,竹圍,2024-01-13,25.112692,121.239824,0.0016549748
C0C730,中大臨海站,2024-01-13,24.966126,121.008581,0.00052195136
C0C740,觀音工業區,2024-01-13,25.064764,121.114856,0.00084231555
C0C750,新興坑尾,2024-01-13,25.0061,121.0971,0.00070569234
C0D430,峨眉,2024-01-13,24.6905,121.017189,0.0012685262
C0D480,打鐵坑,2024-01-13,24.849664,121.150789,0.002088163
C0D540,橫山,2024-01-13,24.71116,121.11693,0.0016197916
C0D560,竹東,2024-01-13,24.767147,121.057881,0.002242182
C0D580,寶山,2024-01-13,24.735006,121.025192,0.00352229
C0D590,新豐,2024-01-13,24.87068,120.97721,0.00036500566
C0D650,湖口,2024-01-13,24.904794,121.043628,0.00057812704
C0D660,新竹市東區,2024-01-13,24.798681,120.986942,0.0008380125
C0D670,海天一線,2024-01-13,24.831986,120.914438,0.00033163035
C0D680,香山濕地,2024-01-13,24.783581,120.914988,0.00064039364
C0D690,外湖,2024-01-13,24.917735,120.968711,0.00042379403
C0D700,關西,2024-01-13,24.7977,121.1732,0.0017702777
C0E420,竹南,2024-01-13,24.708978,120.888897,0.00076039665
C0E430,南庄,2024-01-13,24.601775,121.000214,0.0017554414
C0E520,大湖,2024-01-13,24.41494,120.87087,0.0016318735
C0E540,後龍,2024-01-13,24.606489,120.783933,0.0010193683
C0E550,明德,2024-01-13,24.583486,120.885411,0.001067133
C0E590,通霄,2024-01-13,24.471892,120.704622,0.00047841584
C0E730,頭份,2024-01-13,24.688247,120.912206,0.0011452346
C0E740,造橋,2024-01-13,24.637056,120.864778,0.0011756015
C0E750,苗栗,2024-01-13,24.564569,120.824575,0.0011419767
C0E780,銅鑼,2024-01-13,24.489681,120.790853,0.0007093928
C0E791,卓蘭,2024-01-13,24.3126,120.8244,0.0016920755
C0E810,西湖,2024-01-13,24.562947,120.7485,0.000561828
C0E820,獅潭,2024-01-13,24.539133,120.920042,0.0019092299
C0E830,苑裡,2024-01-13,24.439714,120.653053,0.00031271568
C0E850,大河,2024-01-13,24.618069,120.948578,0.0016198672
C0E870,高鐵苗栗,2024-01-13,24.60725,120.826094,0.0010003939
C0E910,海埔,2024-01-13,24.648767,120.772435,0.00059846
C0E920,通霄漁港,2024-01-13,24.498589,120.673876,0.00046057696
C0E930,龍鳳,2024-01-13,24.700034,120.859125,0.0008064302
C0F0B0,石岡,2024-01-13,24.276061,120.777644,0.0019523731
C0F850,東勢,2024-01-13,24.246428,120.833047,0.0017538371
C0F930,大甲,2024-01-13,24.347667,120.640403,0.0003435744
C0F970,大坑,2024-01-13,24.173142,120.722289,0.0025613713
C0F9A0,中竹林,2024-01-13,24.103556,120.751061,0.003122158
C0F9I0,神岡,2024-01-13,24.272481,120.658314,0.0008807045
C0F9K0,大安,2024-01-13,24.345061,120.588025,0.00032832814
C0F9L0,后里,2024-01-13,24.310436,120.729725,0.0024647007
C0F9M0,豐原,2024-01-13,24.254322,120.720692,0.0025644263
C0F9N0,大里,2024-01-13,24.092464,120.701378,0.0032738815
C0F9O0,潭子,2024-01-13,24.213106,120.703933,0.0029968768
C0F9P0,清水,2024-01-13,24.312297,120.562242,0.0004916567
C0F9Q0,外埔,2024-01-13,24.347817,120.705686,0.0008487935
C0F9R0,龍井,2024-01-13,24.184536,120.528972,0.0005869282
C0F9S0,烏日,2024-01-13,24.107058,120.624103,0.003020049
C0F9T0,西屯,2024-01-13,24.179494,120.641275,0.0012038638
C0F9U0,南屯,2024-01-13,24.137006,120.637969,0.001331911
C0F9X0,大雅(中科園區),2024-01-13,24.21528,120.62445,0.0009034782
C0FA10,松柏,2024-01-13,24.429115,120.617482,0.00031384287
C0FA20,溫寮,2024-01-13,24.372177,120.583125,0.00033007973
C0FA30,梧棲,2024-01-13,24.256003,120.523381,0.00048269422
C0FA40,臺中電廠,2024-01-13,24.2146,120.4907,0.0005869282
C0FA50,霧峰,2024-01-13,24.0419,120.6995,0.005139499
C0G620,芬園,2024-01-13,24.015678,120.6213,0.003953565
C0G640,鹿港,2024-01-13,24.0753,120.430481,0.00065670797
C0G650,員林,2024-01-13,23.946503,120.585597,0.005122244
C0G660,溪湖,2024-01-13,23.94835,120.479122,0.0030445277
C0G720,溪州,2024-01-13,23.851589,120.499093,0.0035297007
C0G730,二林,2024-01-13,23.903325,120.376081,0.00087208
C0G740,大城,2024-01-13,23.852487,120.320935,0.00043466612
C0G770,福興,2024-01-13,24.041289,120.437669,0.00068726344
C0G780,秀水,2024-01-13,24.03405,120.503869,0.0027724681
C0G800,埔鹽,2024-01-13,24.000394,120.431683,0.00073159847
C0G810,埔心,2024-01-13,23.947633,120.525456,0.0029442091
C0G820,田尾,2024-01-13,23.901669,120.509389,0.003168772
C0G830,埤頭,2024-01-13,23.866003,120.452806,0.003053816
C0G840,北斗,2024-01-13,23.877586,120.514222,0.0034441901
C0G860,社頭,2024-01-13,23.897647,120.5862,0.0048100087
C0G870,芳苑,2024-01-13,23.922303,120.320025,0.00040227233
C0G880,二水,2024-01-13,23.810742,120.6173,0.0070491945
C0G890,伸港,2024-01-13,24.148933,120.484403,0.0006595945
C0G900,線西,2024-01-13,24.143358,120.443536,0.00062305713
C0G910,花壇,2024-01-13,24.032076,120.549461,0.0030809361
C0G920,永靖,2024-01-13,23.924703,120.547533,0.0031388542
C0G940,竹塘,2024-01-13,23.848253,120.386764,0.00095883204
C0G950,防潮門,2024-01-13,24.1835,120.4871,0.0005869282
C0G960,福寶,2024-01-13,24.0443,120.3814,0.00062044064
C0G970,三豐,2024-01-13,23.882,120.2895,0.00042192364
C0H890,埔里,2024-01-13,23.972169,120.952425,0.0037811082
C0H950,中寮,2024-01-13,23.884447,120.766406,0.005593709
C0H960,草屯,2024-01-13,23.973672,120.68085,0.004694309
C0I110,竹山,2024-01-13,23.761225,120.688156,0.005296667
C0I360,水里,2024-01-13,23.812553,120.849792,0.025429513
C0I380,集集,2024-01-13,23.828206,120.801467,0.024588156
C0I410,名間,2024-01-13,23.837053,120.701447,0.0055196164
C0I420,國姓,2024-01-13,24.037803,120.855072,0.008443343
C0I460,南投,2024-01-13,23.911469,120.687331,0.014824201
C0K250,崙背,2024-01-13,23.75555,120.318925,0.00090507657
C0K280,四湖,2024-01-13,23.630414,120.227125,0.0004858843
C0K291,宜梧,2024-01-13,23.536281,120.169329,0.0009363011
C0K330,虎尾,2024-01-13,23.719183,120.442036,0.0023724185
C0K390,土庫,2024-01-13,23.679029,120.395574,0.0018076057
C0K400,斗六,2024-01-13,23.720583,120.541127,0.0040435316
C0K410,北港,2024-01-13,23.573957,120.292802,0.0014376733
C0K420,西螺,2024-01-13,23.800407,120.467394,0.0026173452
C0K430,褒忠,2024-01-13,23.690938,120.303634,0.000955432
C0K440,二崙,2024-01-13,23.772797,120.408944,0.00290693
C0K450,大埤,2024-01-13,23.646074,120.431537,0.0026843639
C0K460,斗南,2024-01-13,23.678734,120.478359,0.0028103376
C0K470,林內,2024-01-13,23.748675,120.609642,0.00923273
C0K480,莿桐,2024-01-13,23.761192,120.502372,0.0037505415
C0K500,元長,2024-01-13,23.64981,120.315024,0.0012298481
C0K510,水林,2024-01-13,23.572924,120.24597,0.0014018032
C0K530,臺西,2024-01-13,23.701547,120.197559,0.00042761123
C0K550,蔦松,2024-01-13,23.514319,120.229736,0.001033691
C0K560,棋山,2024-01-13,23.68645,120.603417,0.006894926
C0K580,高鐵雲林,2024-01-13,23.737456,120.417944,0.0022971337
C0K590,雲林東勢,2024-01-13,23.674192,120.255721,0.0011462801
C0K600,箔子寮,2024-01-13,23.6197,120.14,0.00043625204
C0M410,馬頭山,2024-01-13,23.324361,120.582017,0.027391398
C0M520,東後寮,2024-01-13,23.369908,120.248065,0.0011102182
C0M640,中埔,2024-01-13,23.42538,120.5229,0.006372299
C0M650,朴子,2024-01-13,23.43463,120.23902,0.0014820012
C0M660,溪口,2024-01-13,23.604131,120.403569,0.0018071989
C0M670,大林,2024-01-13,23.600616,120.45841,0.0017602217
C0M680,太保,2024-01-13,23.455062,120.331455,0.002352818
C0M690,水上,2024-01-13,23.419734,120.388909,0.0023944767
C0M700,竹崎,2024-01-13,23.526178,120.555508,0.004639282
C0M710,東石,2024-01-13,23.458927,120.15385,0.0006535134
C0M720,番路,2024-01-13,23.464657,120.554156,0.0042072656
C0M730,嘉義市東區,2024-01-13,23.457673,120.460531,0.012735328
C0M740,六腳,2024-01-13,23.492871,120.290625,0.0018305769
C0M750,布袋,2024-01-13,23.380878,120.167789,0.0010544615
C0M760,民雄,2024-01-13,23.551754,120.428457,0.0018282762
C0M770,嘉義梅山,2024-01-13,23.585398,120.555587,0.0058606607
C0M780,鹿草,2024-01-13,23.41134,120.30835,0.0015078268
C0M790,新港,2024-01-13,23.553269,120.345728,0.0018035689
C0M800,茶山,2024-01-13,23.299075,120.664767,0.020143818
C0M880,好美里,2024-01-13,23.3364,120.138,0.00088093773
C0N010,鯤鯓國小,2024-01-13,23.1879,120.0889,0.0010985108
C0N020,城西,2024-01-13,23.0568,120.0956,0.0026390974
C0N030,四草,2024-01-13,23.0235,120.1116,0.0025324335
C0N040,蘆竹溝,2024-01-13,23.2344,120.0961,0.0011114707
C0N050,蚵寮,2024-01-13,23.301,120.1104,0.00089833594
C0O810,曾文,2024-01-13,23.219681,120.497328,0.071123384
C0O830,北寮,2024-01-13,23.079561,120.495008,0.017049048
C0O840,王爺宮,2024-01-13,23.222064,120.40085,0.0078718085
C0O860,大內,2024-01-13,23.11885,120.36083,0.009763922
C0O900,善化,2024-01-13,23.112883,120.297219,0.009527394
C0O930,玉井,2024-01-13,23.126042,120.46055,0.03574883
C0O950,安南,2024-01-13,23.076694,120.144861,0.0013225494
C0O960,崎頂,2024-01-13,22.959547,120.369317,0.013862038
C0O970,虎頭埤,2024-01-13,23.021375,120.347878,0.018007413
C0O980,新市,2024-01-13,23.061614,120.298197,0.009633197
C0O990,媽廟,2024-01-13,22.99175,120.293525,0.010355483
C0R150,三地門,2024-01-13,22.709889,120.639944,0.13923976
C0R160,鹽埔,2024-01-13,22.739558,120.530778,0.14479491
C0R170,屏東,2024-01-13,22.660269,120.494072,0.26619962
C0R190,赤山,2024-01-13,22.592333,120.614306,0.11026216
C0R220,潮州,2024-01-13,22.534361,120.54,0.16849148
C0R240,來義,2024-01-13,22.527306,120.625111,0.06410798
C0R260,春日,2024-01-13,22.370361,120.628306,0.0036717625
C0R270,琉球嶼,2024-01-13,22.332244,120.362236,0.06570446
C0R280,檳榔,2024-01-13,22.076078,120.836777,0.0031197744
C0R320,車城,2024-01-13,22.0744,120.716247,9.0692236e-05
C0R341,牡丹,2024-01-13,22.130036,120.792639,0.0030691526
C0R350,貓鼻頭,2024-01-13,21.921774,120.7358,0.00019286587
C0R470,高樹,2024-01-13,22.826389,120.600806,0.30895296
C0R480,長治,2024-01-13,22.693128,120.542622,0.18869682
C0R490,九如,2024-01-13,22.7405,120.490503,0.15229332
C0R520,崁頂,2024-01-13,22.514781,120.506914,0.16808684
C0R540,佳冬,2024-01-13,22.419456,120.552375,0.00458008
C0R550,新埤,2024-01-13,22.467947,120.582894,0.053842563
C0R560,新園,2024-01-13,22.5434,120.461558,0.07556
C0R570,麟洛,2024-01-13,22.65078,120.52719,0.26619962
C0R580,南州,2024-01-13,22.48591,120.50274,0.08260851
C0R590,里港,2024-01-13,22.77919,120.49459,0.19175228
C0R620,墾雷,2024-01-13,21.900836,120.855269,0.0016838079
C0R640,東港,2024-01-13,22.46247,120.44074,0.072599664
C0R650,竹田,2024-01-13,22.58486,120.54344,0.18580943
C0R660,枋寮,2024-01-13,22.367722,120.590647,0.004580082
C0R670,楓港,2024-01-13,22.190131,120.692156,0.00017373686
C0R680,佳樂水,2024-01-13,21.993578,120.861633,0.0007568803
C0R690,墾丁,2024-01-13,21.966756,120.810269,0.0015079986
C0R700,枋山,2024-01-13,22.246844,120.661086,0.0010279876
C0R710,龍磐,2024-01-13,21.931672,120.838942,0.000905667
C0R720,旭海,2024-01-13,22.205403,120.887614,0.0061971825
C0R730,大坪頂,2024-01-13,22.024633,120.69355,0.00025109723
C0R740,獅子,2024-01-13,22.201569,120.70525,0.0045866803
C0R760,南仁湖,2024-01-13,22.084681,120.863353,0.006140254
C0R770,保力,2024-01-13,22.071122,120.764111,0.00020786386
C0R780,滿州,2024-01-13,22.024403,120.839892,0.0025030002
C0R790,九棚,2024-01-13,22.14195,120.889281,0.0025837093
C0R800,丹路,2024-01-13,22.204481,120.750989,0.0052632308
C0R810,內獅,2024-01-13,22.305064,120.642986,0.0017043395
C0R830,高士,2024-01-13,22.121825,120.836781,0.0044348137
C0R850,林邊,2024-01-13,22.4634,120.5339,0.05574873
C0R860,鼻頭,2024-01-13,22.1043,120.8979,0.0021219633
C0R870,興海,2024-01-13,21.9752,120.8439,0.00073239795
C0R880,後壁湖,2024-01-13,21.9457,120.7457,8.506448e-05
C0R890,山海,2024-01-13,21.9878,120.7091,8.919968e-05
C0R900,竹坑,2024-01-13,22.1385,120.7022,9.2714545e-05
C0R910,下寮,2024-01-13,22.3929,120.5548,0.00458008
C0R920,塭仔,2024-01-13,22.4169,120.5197,0.006120608
C0R930,萬丹,2024-01-13,22.5885,120.4851,0.24422547
C0R940,加祿堂,2024-01-13,22.3363,120.6217,0.00035050712
C0S710,鹿野,2024-01-13,22.917711,121.122994,0.0010516801
C0S730,綠島,2024-01-13,22.6672,121.47533,0.0030405559
C0S740,池上,2024-01-13,23.119628,121.209469,0.00097100524
C0S770,大溪山,2024-01-13,22.478475,120.943325,0.00127162
C0S790,金崙,2024-01-13,22.538122,120.966875,0.0019869278
C0S810,東河,2024-01-13,22.972672,121.303986,0.001835702
C0S830,長濱,2024-01-13,23.286817,121.411975,0.0018531644
C0S840,南田,2024-01-13,22.279725,120.889208,0.004646649
C0S890,關山,2024-01-13,23.0395,121.175017,0.0019444284
C0S900,蘭嶼高中,2024-01-13,22.04909,121.51214,0.0015826803
C0S910,蘭嶼燈塔,2024-01-13,22.081197,121.503117,0.0019990392
C0S920,金峰嘉蘭,2024-01-13,22.594789,120.960825,0.005478929
C0S930,延平,2024-01-13,22.902581,121.084058,0.00352064
C0S940,石寧山,2024-01-13,23.223772,121.406639,0.0041834516
C0S950,七塊厝,2024-01-13,22.954453,121.229922,0.0009438895
C0S960,香蘭,2024-01-13,22.587569,120.993375,0.018458046
C0S970,加津林,2024-01-13,22.416211,120.926942,0.0065966775
C0S990,山豬窟,2024-01-13,22.318619,120.857372,0.0022703283
C0SA00,歷坵,2024-01-13,22.520969,120.89185,0.0011623218
C0SA10,檳榔四格山,2024-01-13,22.810031,121.109308,0.0009781696
C0SA30,都歷,2024-01-13,23.020333,121.323642,0.0023880566
C0SA40,瑞和,2024-01-13,22.974361,121.156697,0.0016261287
C0SA60,知本（水試所）,2024-01-13,22.702394,121.082761,0.06111619
C0SA80,土坂,2024-01-13,22.453108,120.887572,0.0021353127
C0SA90,達仁林場,2024-01-13,22.264347,120.823972,0.0015703465
C0T870,鯉魚潭,2024-01-13,23.935639,121.508944,0.002539839
C0T900,西林,2024-01-13,23.8119,121.441458,0.0024762023
C0T960,光復,2024-01-13,23.660694,121.424964,0.0014193227
C0T9A0,月眉山,2024-01-13,23.809928,121.539828,0.00063977897
C0T9D0,和中,2024-01-13,24.26676,121.74103,0.002677022
C0T9E0,大坑,2024-01-13,23.880628,121.581981,0.00074102485
C0T9F0,水璉,2024-01-13,23.797131,121.542514,0.000957221
C0T9I0,豐濱,2024-01-13,23.583897,121.514806,0.0015308603
C0T9M0,靜浦,2024-01-13,23.455167,121.495028,0.0019967025
C0T9N0,富里,2024-01-13,23.171639,121.249378,0.0011201046
C0U600,礁溪,2024-01-13,24.817539,121.765608,0.0112098735
C0U650,玉蘭,2024-01-13,24.675286,121.587061,0.001986438
C0U750,龜山島,2024-01-13,24.841667,121.953133,0.0013111458
C0U760,東澳,2024-01-13,24.52196,121.83318,0.039780788
C0U770,南澳,2024-01-13,24.44935,121.81022,0.0037435584
C0U780,五結,2024-01-13,24.68637,121.79794,0.006262109
C0U860,頭城,2024-01-13,24.85323,121.8308,0.0075349538
C0U870,大礁溪,2024-01-13,24.791042,121.675047,0.0016862561
C0U880,北關,2024-01-13,24.9072,121.8734,0.0059088697
C0U890,三星,2024-01-13,24.66812,121.65302,0.01874554
C0U900,內城,2024-01-13,24.71813,121.68766,0.008987318
C0U910,冬山,2024-01-13,24.63373,121.7937,0.06457678
C0U940,羅東,2024-01-13,24.68184,121.74934,0.008964032
C0U970,大福,2024-01-13,24.80064,121.81389,0.0040478837
C0U990,員山,2024-01-13,24.74435,121.72247,0.008562587
C0UA00,土場,2024-01-13,24.576533,121.495333,0.006970819
C0UA80,大溪漁港,2024-01-13,24.941801,121.902955,0.0072460645
C0UA90,石城,2024-01-13,24.980444,121.951214,0.0050269943
C0UB00,淡江大學蘭陽校園,2024-01-13,24.823239,121.730383,0.0022488849
C0UB10,蘇澳,2024-01-13,24.5969,121.8571,0.10740541
C0UB20,壯圍,2024-01-13,24.7359,121.8163,0.008761082
C0V250,甲仙,2024-01-13,23.080106,120.591758,0.0066765007
C0V260,月眉,2024-01-13,22.971003,120.539853,0.15154175
C0V310,美濃,2024-01-13,22.898742,120.519153,0.17652363
C0V350,溪埔,2024-01-13,22.738578,120.446797,0.124445684
C0V360,內門,2024-01-13,22.975481,120.466769,0.04301903
C0V370,古亭坑,2024-01-13,22.893178,120.401947,0.0750465
C0V400,阿公店,2024-01-13,22.804194,120.355528,0.0670671
C0V440,鳳山,2024-01-13,22.646653,120.356122,0.012722361
C0V450,鳳森,2024-01-13,22.545064,120.392592,0.037945077
C0V490,新興,2024-01-13,22.627422,120.298803,0.06814036
C0V530,阿蓮,2024-01-13,22.883208,120.327508,0.01414668
C0V610,梓官,2024-01-13,22.760558,120.267211,0.023076242
C0V620,永安,2024-01-13,22.82315,120.236856,0.0037524304
C0V630,茄萣,2024-01-13,22.906642,120.182608,0.0020408945
C0V640,湖內,2024-01-13,22.887139,120.2445,0.0023237064
C0V650,彌陀,2024-01-13,22.783806,120.246361,0.0037524304
C0V660,岡山,2024-01-13,22.797078,120.294958,0.0045025735
C0V680,仁武,2024-01-13,22.701083,120.347722,0.015364252
C0V690,鼓山,2024-01-13,22.623325,120.275575,0.044632122
C0V700,三民,2024-01-13,22.645017,120.311233,0.013742242
C0V710,苓雅,2024-01-13,22.622742,120.330669,0.0603952
C0V720,林園,2024-01-13,22.507747,120.394511,0.057530057
C0V730,大寮,2024-01-13,22.605614,120.395717,0.072275996
C0V740,旗山,2024-01-13,22.888614,120.483597,0.16954345
C0V750,路竹,2024-01-13,22.854997,120.259439,0.002156133
C0V760,橋頭,2024-01-13,22.757806,120.30575,0.03173259
C0V770,大社,2024-01-13,22.730306,120.346639,0.030496718
C0V790,萬山,2024-01-13,22.905944,120.688056,0.03728529
C0V800,六龜,2024-01-13,22.997889,120.633583,0.1866852
C0V810,左營,2024-01-13,22.67491,120.28491,0.013742242
C0V820,小林,2024-01-13,23.148408,120.63325,0.0060727196
C0V840,鳳鼻頭,2024-01-13,22.5083,120.3591,0.06291937
C0V850,蚵仔寮,2024-01-13,22.7256,120.2527,0.02527011
C0V860,南寮,2024-01-13,22.7616,120.2339,0.02527011
C0V870,文安,2024-01-13,22.8025,120.2164,0.0031960192
C0V880,興達,2024-01-13,22.8778,120.2127,0.0020408945
C0V890,前鎮,2024-01-13,22.5718,120.3117,0.06262025
C0V900,汕尾,2024-01-13,22.4782,120.4151,0.086500764
C0X050,東河,2024-01-13,23.296598,120.385608,0.015534107
C0X060,下營,2024-01-13,23.22695,120.256261,0.0037019711
C0X080,佳里,2024-01-13,23.173039,120.145086,0.0013921421
C0X100,臺南市北區,2024-01-13,23.010394,120.194228,0.0028026057
C0X110,臺南市南區,2024-01-13,22.961189,120.188378,0.00453885
C0X120,麻豆,2024-01-13,23.183289,120.248611,0.006516057
C0X130,官田,2024-01-13,23.193217,120.315422,0.011702634
C0X140,西港,2024-01-13,23.125608,120.203108,0.0055132965
C0X150,安定,2024-01-13,23.102614,120.227839,0.0061423928
C0X160,仁德,2024-01-13,22.968258,120.257689,0.005019801
C0X170,關廟,2024-01-13,22.963017,120.327797,0.017355803
C0X180,山上,2024-01-13,23.0757,120.363253,0.037731245
C0X190,安平,2024-01-13,22.993161,120.152181,0.0024512084
C0X200,左鎮,2024-01-13,23.056758,120.408522,0.021169126
C0X210,白河,2024-01-13,23.347466,120.414427,0.0073824855
C0X220,學甲,2024-01-13,23.230367,120.182187,0.0013345223
C0X230,鹽水,2024-01-13,23.272621,120.247641,0.001159624
C0X240,關子嶺,2024-01-13,23.331169,120.508025,0.01288998
C0X250,新營,2024-01-13,23.310689,120.316681,0.00266836
C0X260,後壁,2024-01-13,23.366358,120.362326,0.0025197794
C0X280,將軍,2024-01-13,23.214999,120.13577,0.0011749829
C0X290,北門,2024-01-13,23.267772,120.125481,0.0011114707
C0X300,鹿寮,2024-01-13,23.386047,120.477331,0.0069126873
C0X310,七股,2024-01-13,23.147289,120.086253,0.0011362885
C0X320,柳營,2024-01-13,23.253328,120.375253,0.017177818
C0Z020,明里,2024-01-13,23.208717,121.262342,0.0030166125
C0Z061,玉里,2024-01-13,23.3215,121.339656,0.0032567158
C0Z070,舞鶴,2024-01-13,23.46811,121.37407,0.0012546998
C0Z080,富源,2024-01-13,23.587642,121.378225,0.0039362377
C0Z100,東華,2024-01-13,23.89525,121.549833,0.002309719
C0Z150,吉安光華,2024-01-13,23.930925,121.595153,0.0036220073
C0Z160,鳳林,2024-01-13,23.746114,121.453411,0.0037304426
C0Z170,卓溪,2024-01-13,23.3443,121.3029,0.0014762727
C0Z180,新城,2024-01-13,24.03946,121.60454,0.0039373236
C0Z190,富世,2024-01-13,24.14743,121.6297,0.0012766802
C0Z200,萬榮,2024-01-13,23.709219,121.420106,0.0026697412
C0Z210,瑞穗,2024-01-13,23.5239,121.39021,0.0018969381
C0Z230,和平,2024-01-13,24.30717,121.77007,0.0060759443
C0Z270,蕃薯寮,2024-01-13,23.73835,121.540108,0.0011458533
C0Z280,德武,2024-01-13,23.47426,121.41071,0.0015597928
C0Z300,東里,2024-01-13,23.26853,121.30547,0.0040252134
C0Z310,清水斷崖,2024-01-13,24.218294,121.689142,0.00046536743
C0Z330,安通山,2024-01-13,23.290728,121.348528,0.001077401
CAG100,王功漁港,2024-01-13,23.96824,120.32586,0.00040123105
CAH030,茶改場竹圍站,2024-01-13,23.860083,120.637528,0.006238179
CAJ050,海口故事園區,2024-01-13,23.57543,120.14121,0.00043625204
CAL110,布袋國中,2024-01-13,23.35893,120.18026,0.0010572859
CAN130,水試所海水繁養殖中心,2024-01-13,23.120802,120.07968,0.0011076133
CAN140,六官養殖協會,2024-01-13,23.22881,120.29962,0.0038832666
CAQ030,崎峰國小,2024-01-13,22.42565,120.49521,0.07516805
E2K600,四湖植物園,2024-01-13,23.676986,120.163433,0.00045276212
E2P980,林試六龜中心,2024-01-13,22.991703,120.645722,0.17242667
E2S960,林試太麻里2,2024-01-13,22.598014,120.989761,0.018458046
E2S980,林試太麻里1,2024-01-13,22.598922,120.980044,0.012457084
G2AI50,關渡,2024-01-13,25.11575,121.492,0.0020192445
G2F820,農業試驗所,2024-01-13,24.031261,120.688133,0.0053141983
G2F820,農試所(霧峰),2024-01-13,24.031261,120.688133,0.0053142034
G2L020,農試嘉義分所,2024-01-13,23.485028,120.473806,0.009956718
G2M350,農試溪口農場,2024-01-13,23.58565,120.408111,0.0018564254
G2P820,農試鳳山分所,2024-01-13,22.646611,120.356083,0.012722361
K2E360,苗栗農改,2024-01-13,24.495722,120.829111,0.00077308546
K2E360,苗栗農改場,2024-01-13,24.495722,120.829111,0.00077308546
K2E710,苗改生物防治研究中心,2024-01-13,24.422861,120.871833,0.0017850974
K2F750,種苗改良場,2024-01-13,24.225972,120.800917,0.0069726054
K2F750,種苗繁殖,2024-01-13,24.225972,120.800917,0.006972612
U2HA50,臺大竹山,2024-01-13,23.756972,120.681556,0.0061068977
V2C250,八德合作社,2024-01-13,24.93775,121.266389,0.0015315464
V2C260,八德蔬果,2024-01-13,24.978508,121.281819,0.0012141417
V2K610,大庄合作社,2024-01-13,23.8068,120.367939,0.00084648584
V2K620,麥寮合作社,2024-01-13,23.753836,120.294783,0.00090507657
