站號,站名,日期,lat,lon,BlastGRU-TW
12J990,口湖工作站,2024-05-25,23.589978,120.180394,0.6678391
12Q970,東港工作站,2024-05-25,22.479997,120.466058,0.41260955
12Q980,恆春工作站,2024-05-25,22.079678,120.714425,0.053018667
466881,新北,2024-05-25,24.9593,121.52,0.8704019
466900,淡水,2024-05-25,25.164889,121.448906,0.98010695
466920,臺北,2024-05-25,25.037658,121.514853,0.9664624
466940,基隆,2024-05-25,25.133314,121.740475,0.87443036
466990,花蓮,2024-05-25,23.975128,121.613275,0.91342276
467050,新屋,2024-05-25,25.006744,121.047486,0.8599713
467080,宜蘭,2024-05-25,24.763975,121.756528,0.96247035
467270,田中,2024-05-25,23.873803,120.581286,0.9079397
467300,東吉島,2024-05-25,23.25695,119.667467,0.779202
467350,澎湖,2024-05-25,23.565503,119.563094,0.81031
467410,臺南,2024-05-25,22.993239,120.204772,0.6605699
467420,永康,2024-05-25,23.038386,120.2367,0.31111068
467441,高雄,2024-05-25,22.7304,120.3125,0.20413984
467480,嘉義,2024-05-25,23.495925,120.432906,0.96299505
467490,臺中,2024-05-25,24.145736,120.684075,0.96817666
467540,大武,2024-05-25,22.355675,120.903789,0.11324404
467571,新竹,2024-05-25,24.827853,121.014219,0.9185855
467590,恆春,2024-05-25,22.003897,120.746339,0.09044184
467610,成功,2024-05-25,23.097486,121.373428,0.7686489
467620,蘭嶼,2024-05-25,22.036969,121.558339,0.5571429
467660,臺東,2024-05-25,22.752211,121.154586,0.64885527
467790,墾丁雷達站,2024-05-25,21.948235,120.808028,0.073291436
72AI40,桃改樹林分場,2024-05-25,24.944503,121.386972,0.88984436
72C440,桃園農改,2024-05-25,24.950944,121.030583,0.8306983
72C440,桃園農改場,2024-05-25,24.950944,121.030583,0.8306983
72D680,桃改新埔分場,2024-05-25,24.834444,121.066111,0.9163935
72G600,臺中農改,2024-05-25,24.003028,120.534389,0.76999015
72G600,臺中農改場,2024-05-25,24.003028,120.534389,0.7699903
72K220,南改斗南分場,2024-05-25,23.634556,120.477333,0.9522464
72M360,南改義竹分場,2024-05-25,23.360694,120.279361,0.7336217
72M700,南改鹿草分場,2024-05-25,23.416869,120.283061,0.8062037
72N100,臺南農改,2024-05-25,23.0605,120.342194,0.42222574
72N100,臺南農改場,2024-05-25,23.0605,120.342194,0.42222574
72N240,七股研究中心,2024-05-25,23.081672,120.062894,0.69477355
72Q010,高雄農改,2024-05-25,22.709333,120.525889,0.6900251
72Q010,高雄農改場,2024-05-25,22.709333,120.525889,0.6900252
72S200,東改班鳩分場,2024-05-25,22.829528,121.077694,0.25176427
72S590,東改賓朗果園,2024-05-25,22.813889,121.071278,0.38146883
72T250,花蓮農改,2024-05-25,23.975222,121.563889,0.8426038
72T250,花蓮農改場,2024-05-25,23.975222,121.563889,0.8426038
72U480,花改蘭陽分場,2024-05-25,24.686306,121.716583,0.9398299
72V140,高改旗南分場,2024-05-25,22.857861,120.516667,0.22591335
82A750,茶改北部分場,2024-05-25,24.955778,121.631222,0.8863859
82C160,茶改場,2024-05-25,24.908472,121.185333,0.9684702
82H840,茶改南部分場,2024-05-25,23.762528,120.7405,0.69345534
82S580,茶改東部分場,2024-05-25,22.907694,121.130139,0.32383773
A2C560,農工中心,2024-05-25,24.985917,121.239833,0.94597393
A2K360,水試臺西試驗場,2024-05-25,23.717231,120.190522,0.75219494
A2K570,古坑花卉中心,2024-05-25,23.63353,120.55239,0.95696825
A2K630,臺大雲林校區,2024-05-25,23.730628,120.423903,0.9457925
A2N290,臺南蘭花園區,2024-05-25,23.340258,120.379661,0.94751906
B2E890,畜試北區分所,2024-05-25,24.527806,120.770972,0.97613734
B2N890,畜產試驗所,2024-05-25,23.058972,120.336406,0.42222574
B2N890,畜試所,2024-05-25,23.058972,120.336406,0.42222574
B2Q810,畜試南區分所,2024-05-25,21.945583,120.802167,0.05854909
B2U990,畜試東區分所,2024-05-25,24.669039,121.832561,0.7358274
C0A520,山佳,2024-05-25,24.974944,121.402008,0.8968984
C0A530,坪林,2024-05-25,24.938183,121.70975,0.9042416
C0A540,四堵,2024-05-25,24.8926,121.745736,0.6234956
C0A550,泰平,2024-05-25,24.971197,121.823711,0.3775215
C0A560,福山,2024-05-25,24.776203,121.502811,0.8725685
C0A570,桶後,2024-05-25,24.848222,121.597992,0.7761998
C0A640,石碇,2024-05-25,24.993969,121.662917,0.7977154
C0A650,火燒寮,2024-05-25,25.002719,121.742892,0.91123843
C0A660,瑞芳,2024-05-25,25.113169,121.801147,0.820938
C0A770,科教館,2024-05-25,25.096356,121.516507,0.9652245
C0A860,大坪,2024-05-25,25.165914,121.632969,0.813996
C0A880,福隆,2024-05-25,25.017842,121.942083,0.933501
C0A890,雙溪,2024-05-25,25.036003,121.864242,0.9639965
C0A920,富貴角,2024-05-25,25.263783,121.565258,0.72328746
C0A931,三和,2024-05-25,25.233153,121.595236,0.9265951
C0A940,金山,2024-05-25,25.223628,121.643967,0.96170086
C0A950,鼻頭角,2024-05-25,25.129036,121.923372,0.97868115
C0A970,三貂角,2024-05-25,25.007606,122.002058,0.9762711
C0A980,社子,2024-05-25,25.109508,121.469681,0.974465
C0A9C0,天母,2024-05-25,25.117494,121.537169,0.9781956
C0A9F0,內湖,2024-05-25,25.079422,121.57545,0.9647023
C0AC60,三峽,2024-05-25,24.939025,121.369728,0.8905033
C0AC70,信義,2024-05-25,25.037822,121.564597,0.9680602
C0AC80,文山,2024-05-25,25.00235,121.575728,0.85359144
C0ACA0,新莊,2024-05-25,25.051478,121.446756,0.9652357
C0AD00,三芝,2024-05-25,25.258131,121.501917,0.891035
C0AD10,八里,2024-05-25,25.150211,121.403947,0.9812668
C0AD30,蘆洲,2024-05-25,25.086594,121.472331,0.9652245
C0AD40,土城,2024-05-25,24.973208,121.445169,0.83100754
C0AD50,鶯歌,2024-05-25,24.951533,121.346294,0.89117277
C0AG80,中和,2024-05-25,24.991622,121.491792,0.8271493
C0AH00,汐止,2024-05-25,25.066881,121.658778,0.96979576
C0AH10,永和,2024-05-25,25.01125,121.508111,0.8242332
C0AH40,平等,2024-05-25,25.129142,121.577086,0.7255569
C0AH50,林口,2024-05-25,25.072181,121.38084,0.9586508
C0AH70,松山,2024-05-25,25.04871,121.55042,0.9680602
C0AH80,深坑,2024-05-25,25.002703,121.628328,0.8448774
C0AI00,五股,2024-05-25,25.07445,121.42728,0.97247124
C0AI10,屈尺,2024-05-25,24.92184,121.54475,0.94585556
C0AI20,白沙灣,2024-05-25,25.283128,121.519058,0.8921546
C0AI30,三重,2024-05-25,25.057328,121.500629,0.965664
C0AI40,石牌,2024-05-25,25.115597,121.513139,0.98186415
C0AJ20,野柳,2024-05-25,25.20703,121.690021,0.9795039
C0AJ30,淡水觀海,2024-05-25,25.184591,121.408616,0.9827138
C0AJ40,石門,2024-05-25,25.273672,121.601198,0.8127131
C0AJ50,水湳洞,2024-05-25,25.123695,121.862238,0.92068076
C0AJ60,六塊厝,2024-05-25,25.24,121.4481,0.924294
C0AJ70,田寮,2024-05-25,25.2698,121.4886,0.90626895
C0AJ80,板橋,2024-05-25,25.0107,121.4489,0.73518395
C0AJ90,澳底,2024-05-25,25.0552,121.9253,0.9831427
C0B010,七堵,2024-05-25,25.094819,121.71713,0.8323074
C0B020,基隆嶼,2024-05-25,25.19141,121.78391,0.8134351
C0B040,大武崙,2024-05-25,25.166676,121.706993,0.8509813
C0B050,八斗子,2024-05-25,25.144754,121.79167,0.8792214
C0B060,暖暖,2024-05-25,25.0957,121.7403,0.8404022
C0C460,復興,2024-05-25,24.820208,121.352281,0.9630723
C0C480,桃園,2024-05-25,24.992425,121.323172,0.95506537
C0C490,八德,2024-05-25,24.928708,121.283289,0.87241524
C0C590,觀音,2024-05-25,25.027072,121.153317,0.8516139
C0C620,蘆竹,2024-05-25,25.084275,121.265767,0.8471723
C0C630,大溪,2024-05-25,24.882853,121.265547,0.978665
C0C650,平鎮,2024-05-25,24.897503,121.214636,0.8819349
C0C660,楊梅,2024-05-25,24.912375,121.143047,0.97279775
C0C670,龍潭,2024-05-25,24.870056,121.221389,0.97138405
C0C680,龜山,2024-05-25,25.02846,121.38656,0.9619353
C0C700,中壢,2024-05-25,24.977661,121.256375,0.96727705
C0C710,大溪永福,2024-05-25,24.892936,121.324975,0.9665559
C0C720,竹圍,2024-05-25,25.112692,121.239824,0.97968537
C0C730,中大臨海站,2024-05-25,24.966126,121.008581,0.83424586
C0C740,觀音工業區,2024-05-25,25.064764,121.114856,0.8586543
C0C750,新興坑尾,2024-05-25,25.0061,121.0971,0.8583563
C0D430,峨眉,2024-05-25,24.6905,121.017189,0.94338906
C0D480,打鐵坑,2024-05-25,24.849664,121.150789,0.9757986
C0D540,橫山,2024-05-25,24.71116,121.11693,0.9559018
C0D560,竹東,2024-05-25,24.767147,121.057881,0.96522784
C0D580,寶山,2024-05-25,24.735006,121.025192,0.97328097
C0D590,新豐,2024-05-25,24.87068,120.97721,0.9293878
C0D650,湖口,2024-05-25,24.904794,121.043628,0.7924275
C0D660,新竹市東區,2024-05-25,24.798681,120.986942,0.9712731
C0D670,海天一線,2024-05-25,24.831986,120.914438,0.9264665
C0D680,香山濕地,2024-05-25,24.783581,120.914988,0.9699129
C0D690,外湖,2024-05-25,24.917735,120.968711,0.81613773
C0D700,關西,2024-05-25,24.7977,121.1732,0.9620949
C0E420,竹南,2024-05-25,24.708978,120.888897,0.8368944
C0E430,南庄,2024-05-25,24.601775,121.000214,0.9607446
C0E550,明德,2024-05-25,24.583486,120.885411,0.9564295
C0E590,通霄,2024-05-25,24.471892,120.704622,0.6729609
C0E730,頭份,2024-05-25,24.688247,120.912206,0.801866
C0E740,造橋,2024-05-25,24.637056,120.864778,0.84332186
C0E750,苗栗,2024-05-25,24.564569,120.824575,0.95559376
C0E780,銅鑼,2024-05-25,24.489681,120.790853,0.9725596
C0E791,卓蘭,2024-05-25,24.3126,120.8244,0.9742688
C0E810,西湖,2024-05-25,24.562947,120.7485,0.7823683
C0E820,獅潭,2024-05-25,24.539133,120.920042,0.95778143
C0E830,苑裡,2024-05-25,24.439714,120.653053,0.84705853
C0E850,大河,2024-05-25,24.618069,120.948578,0.9772836
C0E870,高鐵苗栗,2024-05-25,24.60725,120.826094,0.8513636
C0E910,海埔,2024-05-25,24.648767,120.772435,0.87825936
C0E920,通霄漁港,2024-05-25,24.498589,120.673876,0.69414246
C0E930,龍鳳,2024-05-25,24.700034,120.859125,0.8370877
C0F0B0,石岡,2024-05-25,24.276061,120.777644,0.97970885
C0F850,東勢,2024-05-25,24.246428,120.833047,0.9750031
C0F970,大坑,2024-05-25,24.173142,120.722289,0.97480404
C0F9I0,神岡,2024-05-25,24.272481,120.658314,0.9769615
C0F9K0,大安,2024-05-25,24.345061,120.588025,0.92883974
C0F9L0,后里,2024-05-25,24.310436,120.729725,0.9817817
C0F9M0,豐原,2024-05-25,24.254322,120.720692,0.9826711
C0F9N0,大里,2024-05-25,24.092464,120.701378,0.95035034
C0F9O0,潭子,2024-05-25,24.213106,120.703933,0.98480356
C0F9P0,清水,2024-05-25,24.312297,120.562242,0.91688126
C0F9Q0,外埔,2024-05-25,24.347817,120.705686,0.977574
C0F9R0,龍井,2024-05-25,24.184536,120.528972,0.8522692
C0F9S0,烏日,2024-05-25,24.107058,120.624103,0.94778943
C0F9T0,西屯,2024-05-25,24.179494,120.641275,0.85379106
C0F9U0,南屯,2024-05-25,24.137006,120.637969,0.87750924
C0F9X0,大雅(中科園區),2024-05-25,24.21528,120.62445,0.9515009
C0FA10,松柏,2024-05-25,24.429115,120.617482,0.8459475
C0FA20,溫寮,2024-05-25,24.372177,120.583125,0.92704964
C0FA30,梧棲,2024-05-25,24.256003,120.523381,0.9105158
C0FA40,臺中電廠,2024-05-25,24.2146,120.4907,0.8522692
C0FA50,霧峰,2024-05-25,24.0419,120.6995,0.96356755
C0G620,芬園,2024-05-25,24.015678,120.6213,0.95755446
C0G650,員林,2024-05-25,23.946503,120.585597,0.93197525
C0G660,溪湖,2024-05-25,23.94835,120.479122,0.8009718
C0G720,溪州,2024-05-25,23.851589,120.499093,0.876599
C0G730,二林,2024-05-25,23.903325,120.376081,0.8766336
C0G740,大城,2024-05-25,23.852487,120.320935,0.8309291
C0G770,福興,2024-05-25,24.041289,120.437669,0.8628662
C0G780,秀水,2024-05-25,24.03405,120.503869,0.7914572
C0G800,埔鹽,2024-05-25,24.000394,120.431683,0.84319586
C0G810,埔心,2024-05-25,23.947633,120.525456,0.80290973
C0G820,田尾,2024-05-25,23.901669,120.509389,0.81080276
C0G830,埤頭,2024-05-25,23.866003,120.452806,0.87507564
C0G860,社頭,2024-05-25,23.897647,120.5862,0.9071264
C0G880,二水,2024-05-25,23.810742,120.6173,0.90015
C0G890,伸港,2024-05-25,24.148933,120.484403,0.90357745
C0G900,線西,2024-05-25,24.143358,120.443536,0.91569877
C0G910,花壇,2024-05-25,24.032076,120.549461,0.7979132
C0G920,永靖,2024-05-25,23.924703,120.547533,0.79497695
C0G940,竹塘,2024-05-25,23.848253,120.386764,0.846369
C0G950,防潮門,2024-05-25,24.1835,120.4871,0.8522692
C0G960,福寶,2024-05-25,24.0443,120.3814,0.90882283
C0G970,三豐,2024-05-25,23.882,120.2895,0.8454875
C0H890,埔里,2024-05-25,23.972169,120.952425,0.967868
C0H960,草屯,2024-05-25,23.973672,120.68085,0.9518653
C0I110,竹山,2024-05-25,23.761225,120.688156,0.9168394
C0I360,水里,2024-05-25,23.812553,120.849792,0.7730268
C0I380,集集,2024-05-25,23.828206,120.801467,0.7591653
C0I410,名間,2024-05-25,23.837053,120.701447,0.9736344
C0I420,國姓,2024-05-25,24.037803,120.855072,0.9261691
C0I460,南投,2024-05-25,23.911469,120.687331,0.9027958
C0K250,崙背,2024-05-25,23.75555,120.318925,0.9110937
C0K280,四湖,2024-05-25,23.630414,120.227125,0.7486273
C0K291,宜梧,2024-05-25,23.536281,120.169329,0.9138262
C0K330,虎尾,2024-05-25,23.719183,120.442036,0.94931185
C0K390,土庫,2024-05-25,23.679029,120.395574,0.944776
C0K400,斗六,2024-05-25,23.720583,120.541127,0.9528853
C0K410,北港,2024-05-25,23.573957,120.292802,0.89378035
C0K420,西螺,2024-05-25,23.800407,120.467394,0.9157171
C0K430,褒忠,2024-05-25,23.690938,120.303634,0.9132177
C0K440,二崙,2024-05-25,23.772797,120.408944,0.91736305
C0K450,大埤,2024-05-25,23.646074,120.431537,0.9540061
C0K460,斗南,2024-05-25,23.678734,120.478359,0.9537056
C0K470,林內,2024-05-25,23.748675,120.609642,0.9499005
C0K480,莿桐,2024-05-25,23.761192,120.502372,0.9656978
C0K500,元長,2024-05-25,23.64981,120.315024,0.899438
C0K510,水林,2024-05-25,23.572924,120.24597,0.88817704
C0K530,臺西,2024-05-25,23.701547,120.197559,0.75733435
C0K550,蔦松,2024-05-25,23.514319,120.229736,0.92035455
C0K560,棋山,2024-05-25,23.68645,120.603417,0.95859903
C0K580,高鐵雲林,2024-05-25,23.737456,120.417944,0.9457925
C0K590,雲林東勢,2024-05-25,23.674192,120.255721,0.90172154
C0K600,箔子寮,2024-05-25,23.6197,120.14,0.73536277
C0M520,東後寮,2024-05-25,23.369908,120.248065,0.7336217
C0M640,中埔,2024-05-25,23.42538,120.5229,0.967147
C0M650,朴子,2024-05-25,23.43463,120.23902,0.8200875
C0M660,溪口,2024-05-25,23.604131,120.403569,0.95965093
C0M670,大林,2024-05-25,23.600616,120.45841,0.9568247
C0M680,太保,2024-05-25,23.455062,120.331455,0.9149879
C0M690,水上,2024-05-25,23.419734,120.388909,0.907212
C0M700,竹崎,2024-05-25,23.526178,120.555508,0.85758007
C0M710,東石,2024-05-25,23.458927,120.15385,0.9057228
C0M720,番路,2024-05-25,23.464657,120.554156,0.97246635
C0M730,嘉義市東區,2024-05-25,23.457673,120.460531,0.9542047
C0M740,六腳,2024-05-25,23.492871,120.290625,0.9366652
C0M750,布袋,2024-05-25,23.380878,120.167789,0.74452555
C0M760,民雄,2024-05-25,23.551754,120.428457,0.9537522
C0M770,嘉義梅山,2024-05-25,23.585398,120.555587,0.9503958
C0M780,鹿草,2024-05-25,23.41134,120.30835,0.8175398
C0M790,新港,2024-05-25,23.553269,120.345728,0.9433995
C0M800,茶山,2024-05-25,23.299075,120.664767,0.9589604
C0M880,好美里,2024-05-25,23.3364,120.138,0.7916248
C0N010,鯤鯓國小,2024-05-25,23.1879,120.0889,0.73519456
C0N020,城西,2024-05-25,23.0568,120.0956,0.62505656
C0N030,四草,2024-05-25,23.0235,120.1116,0.6811662
C0N040,蘆竹溝,2024-05-25,23.2344,120.0961,0.7417981
C0N050,蚵寮,2024-05-25,23.301,120.1104,0.78438973
C0O830,北寮,2024-05-25,23.079561,120.495008,0.9418264
C0O840,王爺宮,2024-05-25,23.222064,120.40085,0.93014
C0O860,大內,2024-05-25,23.11885,120.36083,0.4174384
C0O900,善化,2024-05-25,23.112883,120.297219,0.393141
C0O960,崎頂,2024-05-25,22.959547,120.369317,0.46078175
C0O970,虎頭埤,2024-05-25,23.021375,120.347878,0.24983492
C0O980,新市,2024-05-25,23.061614,120.298197,0.3629387
C0O990,媽廟,2024-05-25,22.99175,120.293525,0.3419827
C0R150,三地門,2024-05-25,22.709889,120.639944,0.9125963
C0R160,鹽埔,2024-05-25,22.739558,120.530778,0.7494142
C0R170,屏東,2024-05-25,22.660269,120.494072,0.3582323
C0R190,赤山,2024-05-25,22.592333,120.614306,0.4828165
C0R220,潮州,2024-05-25,22.534361,120.54,0.19787908
C0R240,來義,2024-05-25,22.527306,120.625111,0.4149405
C0R260,春日,2024-05-25,22.370361,120.628306,0.44445568
C0R270,琉球嶼,2024-05-25,22.332244,120.362236,0.5926046
C0R280,檳榔,2024-05-25,22.076078,120.836777,0.31880033
C0R320,車城,2024-05-25,22.0744,120.716247,0.053018667
C0R341,牡丹,2024-05-25,22.130036,120.792639,0.30802995
C0R350,貓鼻頭,2024-05-25,21.921774,120.7358,0.03988116
C0R470,高樹,2024-05-25,22.826389,120.600806,0.4561455
C0R480,長治,2024-05-25,22.693128,120.542622,0.18085672
C0R490,九如,2024-05-25,22.7405,120.490503,0.7321058
C0R520,崁頂,2024-05-25,22.514781,120.506914,0.18396385
C0R540,佳冬,2024-05-25,22.419456,120.552375,0.26531097
C0R550,新埤,2024-05-25,22.467947,120.582894,0.44064793
C0R560,新園,2024-05-25,22.5434,120.461558,0.21253559
C0R570,麟洛,2024-05-25,22.65078,120.52719,0.3582323
C0R580,南州,2024-05-25,22.48591,120.50274,0.38544893
C0R590,里港,2024-05-25,22.77919,120.49459,0.15891968
C0R620,墾雷,2024-05-25,21.900836,120.855269,0.060694233
C0R640,東港,2024-05-25,22.46247,120.44074,0.5459988
C0R650,竹田,2024-05-25,22.58486,120.54344,0.33974987
C0R660,枋寮,2024-05-25,22.367722,120.590647,0.24301332
C0R670,楓港,2024-05-25,22.190131,120.692156,0.05639664
C0R680,佳樂水,2024-05-25,21.993578,120.861633,0.06037194
C0R690,墾丁,2024-05-25,21.966756,120.810269,0.17199095
C0R700,枋山,2024-05-25,22.246844,120.661086,0.15853989
C0R710,龍磐,2024-05-25,21.931672,120.838942,0.07274047
C0R720,旭海,2024-05-25,22.205403,120.887614,0.4235756
C0R730,大坪頂,2024-05-25,22.024633,120.69355,0.13981773
C0R740,獅子,2024-05-25,22.201569,120.70525,0.11071639
C0R760,南仁湖,2024-05-25,22.084681,120.863353,0.36181092
C0R770,保力,2024-05-25,22.071122,120.764111,0.09001499
C0R780,滿州,2024-05-25,22.024403,120.839892,0.105361305
C0R790,九棚,2024-05-25,22.14195,120.889281,0.2304986
C0R800,丹路,2024-05-25,22.204481,120.750989,0.21271086
C0R810,內獅,2024-05-25,22.305064,120.642986,0.10808559
C0R830,高士,2024-05-25,22.121825,120.836781,0.3701623
C0R850,林邊,2024-05-25,22.4634,120.5339,0.40827855
C0R860,鼻頭,2024-05-25,22.1043,120.8979,0.06535967
C0R870,興海,2024-05-25,21.9752,120.8439,0.05854909
C0R880,後壁湖,2024-05-25,21.9457,120.7457,0.059268307
C0R890,山海,2024-05-25,21.9878,120.7091,0.06046286
C0R900,竹坑,2024-05-25,22.1385,120.7022,0.054244686
C0R910,下寮,2024-05-25,22.3929,120.5548,0.26531097
C0R920,塭仔,2024-05-25,22.4169,120.5197,0.3324238
C0R930,萬丹,2024-05-25,22.5885,120.4851,0.15091445
C0R940,加祿堂,2024-05-25,22.3363,120.6217,0.12021958
C0S710,鹿野,2024-05-25,22.917711,121.122994,0.5909718
C0S730,綠島,2024-05-25,22.6672,121.47533,0.5893947
C0S740,池上,2024-05-25,23.119628,121.209469,0.7882259
C0S770,大溪山,2024-05-25,22.478475,120.943325,0.7485515
C0S790,金崙,2024-05-25,22.538122,120.966875,0.93164015
C0S810,東河,2024-05-25,22.972672,121.303986,0.47917792
C0S830,長濱,2024-05-25,23.286817,121.411975,0.9737616
C0S840,南田,2024-05-25,22.279725,120.889208,0.17451842
C0S890,關山,2024-05-25,23.0395,121.175017,0.8969346
C0S900,蘭嶼高中,2024-05-25,22.04909,121.51214,0.15948594
C0S910,蘭嶼燈塔,2024-05-25,22.081197,121.503117,0.32939315
C0S920,金峰嘉蘭,2024-05-25,22.594789,120.960825,0.94734055
C0S930,延平,2024-05-25,22.902581,121.084058,0.080386944
C0S940,石寧山,2024-05-25,23.223772,121.406639,0.86828214
C0S950,七塊厝,2024-05-25,22.954453,121.229922,0.6070954
C0S960,香蘭,2024-05-25,22.587569,120.993375,0.95826167
C0S970,加津林,2024-05-25,22.416211,120.926942,0.1370922
C0S990,山豬窟,2024-05-25,22.318619,120.857372,0.80833596
C0SA00,歷坵,2024-05-25,22.520969,120.89185,0.8086617
C0SA10,檳榔四格山,2024-05-25,22.810031,121.109308,0.5482796
C0SA30,都歷,2024-05-25,23.020333,121.323642,0.90125936
C0SA40,瑞和,2024-05-25,22.974361,121.156697,0.6492235
C0SA60,知本（水試所）,2024-05-25,22.702394,121.082761,0.95968735
C0SA80,土坂,2024-05-25,22.453108,120.887572,0.7033916
C0SA90,達仁林場,2024-05-25,22.264347,120.823972,0.22700493
C0T870,鯉魚潭,2024-05-25,23.935639,121.508944,0.9721401
C0T900,西林,2024-05-25,23.8119,121.441458,0.9581161
C0T960,光復,2024-05-25,23.660694,121.424964,0.8829996
C0T9A0,月眉山,2024-05-25,23.809928,121.539828,0.89822835
C0T9D0,和中,2024-05-25,24.26676,121.74103,0.8454248
C0T9E0,大坑,2024-05-25,23.880628,121.581981,0.96955657
C0T9F0,水璉,2024-05-25,23.797131,121.542514,0.9385545
C0T9I0,豐濱,2024-05-25,23.583897,121.514806,0.8854033
C0T9M0,靜浦,2024-05-25,23.455167,121.495028,0.9679734
C0T9N0,富里,2024-05-25,23.171639,121.249378,0.86741376
C0U600,礁溪,2024-05-25,24.817539,121.765608,0.96141195
C0U650,玉蘭,2024-05-25,24.675286,121.587061,0.931415
C0U750,龜山島,2024-05-25,24.841667,121.953133,0.960842
C0U760,東澳,2024-05-25,24.52196,121.83318,0.93550104
C0U770,南澳,2024-05-25,24.44935,121.81022,0.964988
C0U780,五結,2024-05-25,24.68637,121.79794,0.88503426
C0U860,頭城,2024-05-25,24.85323,121.8308,0.9361473
C0U870,大礁溪,2024-05-25,24.791042,121.675047,0.7834411
C0U880,北關,2024-05-25,24.9072,121.8734,0.9215366
C0U890,三星,2024-05-25,24.66812,121.65302,0.9613961
C0U900,內城,2024-05-25,24.71813,121.68766,0.93498343
C0U910,冬山,2024-05-25,24.63373,121.7937,0.7358274
C0U940,羅東,2024-05-25,24.68184,121.74934,0.91862696
C0U970,大福,2024-05-25,24.80064,121.81389,0.9802037
C0U990,員山,2024-05-25,24.74435,121.72247,0.9768229
C0UA00,土場,2024-05-25,24.576533,121.495333,0.8411475
C0UA80,大溪漁港,2024-05-25,24.941801,121.902955,0.9028122
C0UA90,石城,2024-05-25,24.980444,121.951214,0.9313232
C0UB00,淡江大學蘭陽校園,2024-05-25,24.823239,121.730383,0.8986585
C0UB10,蘇澳,2024-05-25,24.5969,121.8571,0.91395533
C0UB20,壯圍,2024-05-25,24.7359,121.8163,0.9769857
C0V310,美濃,2024-05-25,22.898742,120.519153,0.309245
C0V350,溪埔,2024-05-25,22.738578,120.446797,0.14502902
C0V360,內門,2024-05-25,22.975481,120.466769,0.45678917
C0V370,古亭坑,2024-05-25,22.893178,120.401947,0.22276127
C0V400,阿公店,2024-05-25,22.804194,120.355528,0.15674369
C0V440,鳳山,2024-05-25,22.646653,120.356122,0.43812084
C0V450,鳳森,2024-05-25,22.545064,120.392592,0.30508634
C0V490,新興,2024-05-25,22.627422,120.298803,0.23598315
C0V530,阿蓮,2024-05-25,22.883208,120.327508,0.28356338
C0V610,梓官,2024-05-25,22.760558,120.267211,0.23456503
C0V620,永安,2024-05-25,22.82315,120.236856,0.42766932
C0V630,茄萣,2024-05-25,22.906642,120.182608,0.64606935
C0V640,湖內,2024-05-25,22.887139,120.2445,0.5617248
C0V650,彌陀,2024-05-25,22.783806,120.246361,0.42766884
C0V660,岡山,2024-05-25,22.797078,120.294958,0.4187199
C0V680,仁武,2024-05-25,22.701083,120.347722,0.42755088
C0V690,鼓山,2024-05-25,22.623325,120.275575,0.36039063
C0V700,三民,2024-05-25,22.645017,120.311233,0.43599072
C0V710,苓雅,2024-05-25,22.622742,120.330669,0.22645222
C0V720,林園,2024-05-25,22.507747,120.394511,0.30660945
C0V730,大寮,2024-05-25,22.605614,120.395717,0.20970798
C0V740,旗山,2024-05-25,22.888614,120.483597,0.33302668
C0V750,路竹,2024-05-25,22.854997,120.259439,0.5871021
C0V760,橋頭,2024-05-25,22.757806,120.30575,0.1926457
C0V770,大社,2024-05-25,22.730306,120.346639,0.21527234
C0V790,萬山,2024-05-25,22.905944,120.688056,0.96948826
C0V800,六龜,2024-05-25,22.997889,120.633583,0.9751707
C0V810,左營,2024-05-25,22.67491,120.28491,0.43599072
C0V820,小林,2024-05-25,23.148408,120.63325,0.93794703
C0V840,鳳鼻頭,2024-05-25,22.5083,120.3591,0.2923197
C0V850,蚵仔寮,2024-05-25,22.7256,120.2527,0.22379357
C0V860,南寮,2024-05-25,22.7616,120.2339,0.22379357
C0V870,文安,2024-05-25,22.8025,120.2164,0.501504
C0V880,興達,2024-05-25,22.8778,120.2127,0.64606935
C0V890,前鎮,2024-05-25,22.5718,120.3117,0.24435996
C0V900,汕尾,2024-05-25,22.4782,120.4151,0.41260955
C0W200,湖西,2024-05-25,23.596314,119.67275,0.84162503
C0X050,東河,2024-05-25,23.296598,120.385608,0.8818291
C0X060,下營,2024-05-25,23.22695,120.256261,0.48903129
C0X080,佳里,2024-05-25,23.173039,120.145086,0.64852417
C0X100,臺南市北區,2024-05-25,23.010394,120.194228,0.62743497
C0X110,臺南市南區,2024-05-25,22.961189,120.188378,0.2496473
C0X120,麻豆,2024-05-25,23.183289,120.248611,0.49709606
C0X130,官田,2024-05-25,23.193217,120.315422,0.500183
C0X140,西港,2024-05-25,23.125608,120.203108,0.524867
C0X150,安定,2024-05-25,23.102614,120.227839,0.52374434
C0X160,仁德,2024-05-25,22.968258,120.257689,0.26421314
C0X170,關廟,2024-05-25,22.963017,120.327797,0.2708543
C0X180,山上,2024-05-25,23.0757,120.363253,0.35702634
C0X190,安平,2024-05-25,22.993161,120.152181,0.69601715
C0X200,左鎮,2024-05-25,23.056758,120.408522,0.22820519
C0X210,白河,2024-05-25,23.347466,120.414427,0.96628624
C0X220,學甲,2024-05-25,23.230367,120.182187,0.7006704
C0X230,鹽水,2024-05-25,23.272621,120.247641,0.6940541
C0X240,關子嶺,2024-05-25,23.331169,120.508025,0.97128296
C0X250,新營,2024-05-25,23.310689,120.316681,0.6390728
C0X260,後壁,2024-05-25,23.366358,120.362326,0.94751906
C0X280,將軍,2024-05-25,23.214999,120.13577,0.72563493
C0X290,北門,2024-05-25,23.267772,120.125481,0.74179804
C0X300,鹿寮,2024-05-25,23.386047,120.477331,0.9712341
C0X310,七股,2024-05-25,23.147289,120.086253,0.71997106
C0X320,柳營,2024-05-25,23.253328,120.375253,0.7160908
C0Z020,明里,2024-05-25,23.208717,121.262342,0.57239676
C0Z061,玉里,2024-05-25,23.3215,121.339656,0.9799344
C0Z070,舞鶴,2024-05-25,23.46811,121.37407,0.95736605
C0Z080,富源,2024-05-25,23.587642,121.378225,0.97258794
C0Z100,東華,2024-05-25,23.89525,121.549833,0.97760564
C0Z150,吉安光華,2024-05-25,23.930925,121.595153,0.96527714
C0Z160,鳳林,2024-05-25,23.746114,121.453411,0.97823757
C0Z170,卓溪,2024-05-25,23.3443,121.3029,0.97653
C0Z180,新城,2024-05-25,24.03946,121.60454,0.8959576
C0Z190,富世,2024-05-25,24.14743,121.6297,0.5694884
C0Z200,萬榮,2024-05-25,23.709219,121.420106,0.9805645
C0Z210,瑞穗,2024-05-25,23.5239,121.39021,0.94934744
C0Z230,和平,2024-05-25,24.30717,121.77007,0.8956584
C0Z270,蕃薯寮,2024-05-25,23.73835,121.540108,0.96981776
C0Z280,德武,2024-05-25,23.47426,121.41071,0.93353397
C0Z300,東里,2024-05-25,23.26853,121.30547,0.6873648
C0Z310,清水斷崖,2024-05-25,24.218294,121.689142,0.5824826
C0Z330,安通山,2024-05-25,23.290728,121.348528,0.9564161
C2E520,大湖,2024-05-25,24.414939,120.870872,0.9494912
C2E540,後龍,2024-05-25,24.606489,120.783933,0.8521493
C2F000,大肚,2024-05-25,24.15295,120.572117,0.9681333
C2F930,大甲,2024-05-25,24.347667,120.640403,0.9354463
C2F9A0,中竹林,2024-05-25,24.103556,120.751061,0.9678283
C2G640,鹿港,2024-05-25,24.0753,120.430481,0.90108454
C2G840,北斗,2024-05-25,23.877586,120.514222,0.8677181
C2G870,芳苑,2024-05-25,23.922303,120.320025,0.9025705
C2H950,中寮,2024-05-25,23.884447,120.766406,0.9799743
C2M410,馬頭山,2024-05-25,23.324361,120.582017,0.9786741
C2N160,西拉雅風管處,2024-05-25,23.189481,120.335297,0.526051
C2O810,曾文,2024-05-25,23.219681,120.497328,0.9178849
C2O930,玉井,2024-05-25,23.126042,120.46055,0.43128154
C2O950,安南,2024-05-25,23.076694,120.144861,0.621714
C2V250,甲仙,2024-05-25,23.080106,120.591758,0.97932225
C2V260,月眉,2024-05-25,22.971003,120.539853,0.8235847
C2W230,畜試所澎湖,2024-05-25,23.628342,119.513206,0.8320629
CAG100,王功漁港,2024-05-25,23.96824,120.32586,0.91860557
CAH030,茶改場竹圍站,2024-05-25,23.860083,120.637528,0.9824746
CAJ050,海口故事園區,2024-05-25,23.57543,120.14121,0.73536277
CAL110,布袋國中,2024-05-25,23.35893,120.18026,0.75049996
CAN130,水試所海水繁養殖中心,2024-05-25,23.120802,120.07968,0.69477355
CAN140,六官養殖協會,2024-05-25,23.22881,120.29962,0.49709105
CAQ030,崎峰國小,2024-05-25,22.42565,120.49521,0.44401813
E2K600,四湖植物園,2024-05-25,23.676986,120.163433,0.7874151
E2P980,林試六龜中心,2024-05-25,22.991703,120.645722,0.975343
E2S960,林試太麻里2,2024-05-25,22.598014,120.989761,0.9582616
E2S960,林試太麻里2,2024-05-25,22.598,120.99775,0.95692474
E2S980,林試太麻里1,2024-05-25,22.598922,120.980044,0.9643802
G2AI50,關渡,2024-05-25,25.11575,121.492,0.97483826
G2F820,農業試驗所,2024-05-25,24.031261,120.688133,0.96325827
G2F820,農試所(霧峰),2024-05-25,24.031261,120.688133,0.96325827
G2L020,農試嘉義分所,2024-05-25,23.485028,120.473806,0.8026066
G2M350,農試溪口農場,2024-05-25,23.58565,120.408111,0.95355
G2P820,農試鳳山分所,2024-05-25,22.646611,120.356083,0.4381211
K2E360,苗栗農改,2024-05-25,24.495722,120.829111,0.9730074
K2E360,苗栗農改場,2024-05-25,24.495722,120.829111,0.9730074
K2E710,苗改生物防治研究中心,2024-05-25,24.422861,120.871833,0.9555878
K2F750,種苗改良場,2024-05-25,24.225972,120.800917,0.9747977
K2F750,種苗繁殖,2024-05-25,24.225972,120.800917,0.9747977
U2HA50,臺大竹山,2024-05-25,23.756972,120.681556,0.9648423
V2C250,八德合作社,2024-05-25,24.93775,121.266389,0.890306
V2C260,八德蔬果,2024-05-25,24.978508,121.281819,0.95557076
V2K610,大庄合作社,2024-05-25,23.8068,120.367939,0.90660334
V2K620,麥寮合作社,2024-05-25,23.753836,120.294783,0.9110937
