站號,站名,日期,lat,lon,BlastGRU-TW
12J990,口湖工作站,2024-03-19,23.589978,120.180394,0.0013448085
12Q970,東港工作站,2024-03-19,22.479997,120.466058,0.58365697
12Q980,恆春工作站,2024-03-19,22.079678,120.714425,0.009002178
466881,新北,2024-03-19,24.9593,121.52,0.0019493956
466900,淡水,2024-03-19,25.164889,121.448906,0.0005608503
466920,臺北,2024-03-19,25.037658,121.514853,0.0025918952
466940,基隆,2024-03-19,25.133314,121.740475,0.0028900853
466990,花蓮,2024-03-19,23.975128,121.613275,0.016210696
467050,新屋,2024-03-19,25.006744,121.047486,0.00036964635
467080,宜蘭,2024-03-19,24.763975,121.756528,0.0021695017
467270,田中,2024-03-19,23.873803,120.581286,0.020540137
467300,東吉島,2024-03-19,23.25695,119.667467,0.00071169384
467350,澎湖,2024-03-19,23.565503,119.563094,0.00055946317
467410,臺南,2024-03-19,22.993239,120.204772,0.006252227
467420,永康,2024-03-19,23.038386,120.2367,0.022158647
467441,高雄,2024-03-19,22.7304,120.3125,0.08911917
467480,嘉義,2024-03-19,23.495925,120.432906,0.02757087
467490,臺中,2024-03-19,24.145736,120.684075,0.006162719
467540,大武,2024-03-19,22.355675,120.903789,0.18233939
467571,新竹,2024-03-19,24.827853,121.014219,0.00078808196
467590,恆春,2024-03-19,22.003897,120.746339,0.01683394
467610,成功,2024-03-19,23.097486,121.373428,0.0104569215
467620,蘭嶼,2024-03-19,22.036969,121.558339,0.00079185294
467660,臺東,2024-03-19,22.752211,121.154586,0.07727899
467790,墾丁雷達站,2024-03-19,21.948235,120.808028,0.0031966195
72AI40,桃改樹林分場,2024-03-19,24.944503,121.386972,0.0020339775
72C440,桃園農改,2024-03-19,24.950944,121.030583,0.00068272377
72C440,桃園農改場,2024-03-19,24.950944,121.030583,0.00068272377
72D680,桃改新埔分場,2024-03-19,24.834444,121.066111,0.0006479776
72G600,臺中農改,2024-03-19,24.003028,120.534389,0.0064364583
72G600,臺中農改場,2024-03-19,24.003028,120.534389,0.0064364583
72K220,南改斗南分場,2024-03-19,23.634556,120.477333,0.041977584
72M360,南改義竹分場,2024-03-19,23.360694,120.279361,0.00424869
72M700,南改鹿草分場,2024-03-19,23.416869,120.283061,0.007961008
72N100,臺南農改,2024-03-19,23.0605,120.342194,0.033949226
72N100,臺南農改場,2024-03-19,23.0605,120.342194,0.033949226
72N240,七股研究中心,2024-03-19,23.081672,120.062894,0.0010558985
72Q010,高雄農改,2024-03-19,22.709333,120.525889,0.48534957
72Q010,高雄農改場,2024-03-19,22.709333,120.525889,0.48534957
72S200,東改班鳩分場,2024-03-19,22.829528,121.077694,0.005881799
72S590,東改賓朗果園,2024-03-19,22.813889,121.071278,0.0031578254
72T250,花蓮農改,2024-03-19,23.975222,121.563889,0.04144527
72T250,花蓮農改場,2024-03-19,23.975222,121.563889,0.04144527
72U480,花改蘭陽分場,2024-03-19,24.686306,121.716583,0.005193673
72V140,高改旗南分場,2024-03-19,22.857861,120.516667,0.38849044
82A750,茶改北部分場,2024-03-19,24.955778,121.631222,0.0071314387
82C160,茶改場,2024-03-19,24.908472,121.185333,0.0010529025
82H840,茶改南部分場,2024-03-19,23.762528,120.7405,0.01485858
82S580,茶改東部分場,2024-03-19,22.907694,121.130139,0.00832743
A2C560,農工中心,2024-03-19,24.985917,121.239833,0.000636277
A2K360,水試臺西試驗場,2024-03-19,23.717231,120.190522,0.0008364947
A2K570,古坑花卉中心,2024-03-19,23.63353,120.55239,0.11936685
A2K630,臺大雲林校區,2024-03-19,23.730628,120.423903,0.005678019
A2N290,臺南蘭花園區,2024-03-19,23.340258,120.379661,0.019182954
B2E890,畜試北區分所,2024-03-19,24.527806,120.770972,0.0032052582
B2N890,畜產試驗所,2024-03-19,23.058972,120.336406,0.03396219
B2N890,畜試所,2024-03-19,23.058972,120.336406,0.033962205
B2Q810,畜試南區分所,2024-03-19,21.945583,120.802167,0.0049981805
B2U990,畜試東區分所,2024-03-19,24.669039,121.832561,0.013751979
C0A520,山佳,2024-03-19,24.974944,121.402008,0.0018400011
C0A530,坪林,2024-03-19,24.938183,121.70975,0.003468516
C0A540,四堵,2024-03-19,24.8926,121.745736,0.0026139987
C0A550,泰平,2024-03-19,24.971197,121.823711,0.007624746
C0A560,福山,2024-03-19,24.776203,121.502811,0.008694329
C0A570,桶後,2024-03-19,24.848222,121.597992,0.0040214444
C0A640,石碇,2024-03-19,24.993969,121.662917,0.000302037
C0A650,火燒寮,2024-03-19,25.002719,121.742892,0.0018878864
C0A660,瑞芳,2024-03-19,25.113169,121.801147,0.008744496
C0A770,科教館,2024-03-19,25.096356,121.516507,0.0012514503
C0A860,大坪,2024-03-19,25.165914,121.632969,0.0015248634
C0A880,福隆,2024-03-19,25.017842,121.942083,0.013492024
C0A890,雙溪,2024-03-19,25.036003,121.864242,0.006096967
C0A920,富貴角,2024-03-19,25.263783,121.565258,0.00044288332
C0A931,三和,2024-03-19,25.233153,121.595236,0.00076023984
C0A940,金山,2024-03-19,25.223628,121.643967,0.0022383875
C0A950,鼻頭角,2024-03-19,25.129036,121.923372,0.0029632247
C0A970,三貂角,2024-03-19,25.007606,122.002058,0.0043989327
C0A980,社子,2024-03-19,25.109508,121.469681,0.00056887674
C0A9C0,天母,2024-03-19,25.117494,121.537169,0.0007206457
C0A9F0,內湖,2024-03-19,25.079422,121.57545,0.0015080753
C0AC60,三峽,2024-03-19,24.939025,121.369728,0.0019215838
C0AC70,信義,2024-03-19,25.037822,121.564597,0.0021293813
C0AC80,文山,2024-03-19,25.00235,121.575728,0.0015402328
C0ACA0,新莊,2024-03-19,25.051478,121.446756,0.0030996294
C0AD00,三芝,2024-03-19,25.258131,121.501917,0.0006378764
C0AD10,八里,2024-03-19,25.150211,121.403947,0.00022680536
C0AD30,蘆洲,2024-03-19,25.086594,121.472331,0.0011965233
C0AD40,土城,2024-03-19,24.973208,121.445169,0.0021850513
C0AD50,鶯歌,2024-03-19,24.951533,121.346294,0.001741263
C0AG80,中和,2024-03-19,24.991622,121.491792,0.0026228377
C0AH00,汐止,2024-03-19,25.066881,121.658778,0.0015781763
C0AH10,永和,2024-03-19,25.01125,121.508111,0.002795072
C0AH40,平等,2024-03-19,25.129142,121.577086,0.0014435435
C0AH50,林口,2024-03-19,25.072181,121.38084,0.00038426407
C0AH70,松山,2024-03-19,25.04871,121.55042,0.0021293813
C0AH80,深坑,2024-03-19,25.002703,121.628328,0.0013298822
C0AI00,五股,2024-03-19,25.07445,121.42728,0.0003429611
C0AI10,屈尺,2024-03-19,24.92184,121.54475,0.0019435994
C0AI20,白沙灣,2024-03-19,25.283128,121.519058,0.0006051784
C0AI30,三重,2024-03-19,25.057328,121.500629,0.0027768563
C0AI40,石牌,2024-03-19,25.115597,121.513139,0.0009050567
C0AJ20,野柳,2024-03-19,25.20703,121.690021,0.0015626239
C0AJ30,淡水觀海,2024-03-19,25.184591,121.408616,0.00092937215
C0AJ40,石門,2024-03-19,25.273672,121.601198,0.00033332675
C0AJ50,水湳洞,2024-03-19,25.123695,121.862238,0.010793112
C0AJ60,六塊厝,2024-03-19,25.24,121.4481,0.00059069606
C0AJ70,田寮,2024-03-19,25.2698,121.4886,0.0007285039
C0AJ80,板橋,2024-03-19,25.0107,121.4489,0.0028792035
C0AJ90,澳底,2024-03-19,25.0552,121.9253,0.0036903066
C0B010,七堵,2024-03-19,25.094819,121.71713,0.0017745584
C0B020,基隆嶼,2024-03-19,25.19141,121.78391,0.00095647067
C0B040,大武崙,2024-03-19,25.166676,121.706993,0.002885951
C0B050,八斗子,2024-03-19,25.144754,121.79167,0.00286632
C0B060,暖暖,2024-03-19,25.0957,121.7403,0.0013480175
C0C460,復興,2024-03-19,24.820208,121.352281,0.003056037
C0C480,桃園,2024-03-19,24.992425,121.323172,0.0009706565
C0C490,八德,2024-03-19,24.928708,121.283289,0.0017676087
C0C590,觀音,2024-03-19,25.027072,121.153317,0.00038030816
C0C620,蘆竹,2024-03-19,25.084275,121.265767,0.0004386519
C0C630,大溪,2024-03-19,24.882853,121.265547,0.001867527
C0C650,平鎮,2024-03-19,24.897503,121.214636,0.0011374793
C0C660,楊梅,2024-03-19,24.912375,121.143047,0.0009994907
C0C670,龍潭,2024-03-19,24.870056,121.221389,0.0019258171
C0C680,龜山,2024-03-19,25.02846,121.38656,0.0009701512
C0C700,中壢,2024-03-19,24.977661,121.256375,0.0006985629
C0C710,大溪永福,2024-03-19,24.892936,121.324975,0.00092898967
C0C720,竹圍,2024-03-19,25.112692,121.239824,0.0006615389
C0C730,中大臨海站,2024-03-19,24.966126,121.008581,0.0003345177
C0C740,觀音工業區,2024-03-19,25.064764,121.114856,0.00043667955
C0C750,新興坑尾,2024-03-19,25.0061,121.0971,0.00031840664
C0D430,峨眉,2024-03-19,24.6905,121.017189,0.0010847203
C0D480,打鐵坑,2024-03-19,24.849664,121.150789,0.0017069782
C0D540,橫山,2024-03-19,24.71116,121.11693,0.0028193775
C0D560,竹東,2024-03-19,24.767147,121.057881,0.0013494965
C0D580,寶山,2024-03-19,24.735006,121.025192,0.0026922019
C0D590,新豐,2024-03-19,24.87068,120.97721,0.00073151
C0D650,湖口,2024-03-19,24.904794,121.043628,0.00074715103
C0D660,新竹市東區,2024-03-19,24.798681,120.986942,0.000655786
C0D670,海天一線,2024-03-19,24.831986,120.914438,0.0005106722
C0D680,香山濕地,2024-03-19,24.783581,120.914988,0.0005004134
C0D690,外湖,2024-03-19,24.917735,120.968711,0.0005939524
C0D700,關西,2024-03-19,24.7977,121.1732,0.001344977
C0E420,竹南,2024-03-19,24.708978,120.888897,0.00064997503
C0E430,南庄,2024-03-19,24.601775,121.000214,0.0024034167
C0E550,明德,2024-03-19,24.583486,120.885411,0.0015244235
C0E590,通霄,2024-03-19,24.471892,120.704622,0.0018332466
C0E730,頭份,2024-03-19,24.688247,120.912206,0.0006957442
C0E740,造橋,2024-03-19,24.637056,120.864778,0.0011597384
C0E750,苗栗,2024-03-19,24.564569,120.824575,0.0014949271
C0E780,銅鑼,2024-03-19,24.489681,120.790853,0.002384423
C0E791,卓蘭,2024-03-19,24.3126,120.8244,0.004367762
C0E810,西湖,2024-03-19,24.562947,120.7485,0.0017650543
C0E820,獅潭,2024-03-19,24.539133,120.920042,0.0021359376
C0E830,苑裡,2024-03-19,24.439714,120.653053,0.0011534294
C0E850,大河,2024-03-19,24.618069,120.948578,0.0016571633
C0E870,高鐵苗栗,2024-03-19,24.60725,120.826094,0.0012544536
C0E910,海埔,2024-03-19,24.648767,120.772435,0.00063785625
C0E920,通霄漁港,2024-03-19,24.498589,120.673876,0.0018015708
C0E930,龍鳳,2024-03-19,24.700034,120.859125,0.0006220278
C0F0B0,石岡,2024-03-19,24.276061,120.777644,0.008310798
C0F850,東勢,2024-03-19,24.246428,120.833047,0.004061493
C0F970,大坑,2024-03-19,24.173142,120.722289,0.019016284
C0F9I0,神岡,2024-03-19,24.272481,120.658314,0.002935245
C0F9K0,大安,2024-03-19,24.345061,120.588025,0.0010089664
C0F9L0,后里,2024-03-19,24.310436,120.729725,0.010733755
C0F9M0,豐原,2024-03-19,24.254322,120.720692,0.013382596
C0F9N0,大里,2024-03-19,24.092464,120.701378,0.01272798
C0F9O0,潭子,2024-03-19,24.213106,120.703933,0.00796488
C0F9P0,清水,2024-03-19,24.312297,120.562242,0.0010577659
C0F9Q0,外埔,2024-03-19,24.347817,120.705686,0.003614696
C0F9R0,龍井,2024-03-19,24.184536,120.528972,0.0009456263
C0F9S0,烏日,2024-03-19,24.107058,120.624103,0.007560239
C0F9T0,西屯,2024-03-19,24.179494,120.641275,0.0021004605
C0F9U0,南屯,2024-03-19,24.137006,120.637969,0.0025568206
C0F9X0,大雅(中科園區),2024-03-19,24.21528,120.62445,0.002824444
C0FA10,松柏,2024-03-19,24.429115,120.617482,0.0008478844
C0FA20,溫寮,2024-03-19,24.372177,120.583125,0.0010006499
C0FA30,梧棲,2024-03-19,24.256003,120.523381,0.000707981
C0FA40,臺中電廠,2024-03-19,24.2146,120.4907,0.0009568011
C0FA50,霧峰,2024-03-19,24.0419,120.6995,0.02263455
C0G620,芬園,2024-03-19,24.015678,120.6213,0.017303566
C0G650,員林,2024-03-19,23.946503,120.585597,0.009708889
C0G660,溪湖,2024-03-19,23.94835,120.479122,0.0061103716
C0G720,溪州,2024-03-19,23.851589,120.499093,0.009400748
C0G730,二林,2024-03-19,23.903325,120.376081,0.001762983
C0G740,大城,2024-03-19,23.852487,120.320935,0.0011797381
C0G770,福興,2024-03-19,24.041289,120.437669,0.0013082923
C0G780,秀水,2024-03-19,24.03405,120.503869,0.0038802796
C0G800,埔鹽,2024-03-19,24.000394,120.431683,0.0016506581
C0G810,埔心,2024-03-19,23.947633,120.525456,0.0060681105
C0G820,田尾,2024-03-19,23.901669,120.509389,0.007683578
C0G830,埤頭,2024-03-19,23.866003,120.452806,0.005551583
C0G860,社頭,2024-03-19,23.897647,120.5862,0.018055191
C0G880,二水,2024-03-19,23.810742,120.6173,0.04065611
C0G890,伸港,2024-03-19,24.148933,120.484403,0.0012170498
C0G900,線西,2024-03-19,24.143358,120.443536,0.00067564
C0G910,花壇,2024-03-19,24.032076,120.549461,0.006234304
C0G920,永靖,2024-03-19,23.924703,120.547533,0.010013642
C0G940,竹塘,2024-03-19,23.848253,120.386764,0.0015115639
C0G950,防潮門,2024-03-19,24.1835,120.4871,0.00094562536
C0G960,福寶,2024-03-19,24.0443,120.3814,0.00058417115
C0G970,三豐,2024-03-19,23.882,120.2895,0.0009807462
C0H890,埔里,2024-03-19,23.972169,120.952425,0.021947777
C0H960,草屯,2024-03-19,23.973672,120.68085,0.0351011
C0I110,竹山,2024-03-19,23.761225,120.688156,0.018332845
C0I360,水里,2024-03-19,23.812553,120.849792,0.018525103
C0I380,集集,2024-03-19,23.828206,120.801467,0.027277563
C0I410,名間,2024-03-19,23.837053,120.701447,0.03252951
C0I420,國姓,2024-03-19,24.037803,120.855072,0.037890837
C0I460,南投,2024-03-19,23.911469,120.687331,0.10388157
C0K250,崙背,2024-03-19,23.75555,120.318925,0.0019510884
C0K280,四湖,2024-03-19,23.630414,120.227125,0.0017308745
C0K291,宜梧,2024-03-19,23.536281,120.169329,0.00189316
C0K330,虎尾,2024-03-19,23.719183,120.442036,0.008036627
C0K390,土庫,2024-03-19,23.679029,120.395574,0.005133741
C0K400,斗六,2024-03-19,23.720583,120.541127,0.020601317
C0K410,北港,2024-03-19,23.573957,120.292802,0.0030622522
C0K420,西螺,2024-03-19,23.800407,120.467394,0.004050379
C0K430,褒忠,2024-03-19,23.690938,120.303634,0.0022492968
C0K440,二崙,2024-03-19,23.772797,120.408944,0.0064160055
C0K450,大埤,2024-03-19,23.646074,120.431537,0.012442526
C0K460,斗南,2024-03-19,23.678734,120.478359,0.030064812
C0K470,林內,2024-03-19,23.748675,120.609642,0.058209352
C0K480,莿桐,2024-03-19,23.761192,120.502372,0.0151370615
C0K500,元長,2024-03-19,23.64981,120.315024,0.0027412092
C0K510,水林,2024-03-19,23.572924,120.24597,0.0025246548
C0K530,臺西,2024-03-19,23.701547,120.197559,0.0008299992
C0K550,蔦松,2024-03-19,23.514319,120.229736,0.0025457614
C0K560,棋山,2024-03-19,23.68645,120.603417,0.07355939
C0K580,高鐵雲林,2024-03-19,23.737456,120.417944,0.005678019
C0K590,雲林東勢,2024-03-19,23.674192,120.255721,0.002342204
C0K600,箔子寮,2024-03-19,23.6197,120.14,0.0007094372
C0M520,東後寮,2024-03-19,23.369908,120.248065,0.004264734
C0M640,中埔,2024-03-19,23.42538,120.5229,0.099266276
C0M650,朴子,2024-03-19,23.43463,120.23902,0.0058927275
C0M660,溪口,2024-03-19,23.604131,120.403569,0.007993498
C0M670,大林,2024-03-19,23.600616,120.45841,0.02084329
C0M680,太保,2024-03-19,23.455062,120.331455,0.017527891
C0M690,水上,2024-03-19,23.419734,120.388909,0.034747273
C0M700,竹崎,2024-03-19,23.526178,120.555508,0.07846489
C0M710,東石,2024-03-19,23.458927,120.15385,0.000834159
C0M720,番路,2024-03-19,23.464657,120.554156,0.095773175
C0M730,嘉義市東區,2024-03-19,23.457673,120.460531,0.1004116
C0M740,六腳,2024-03-19,23.492871,120.290625,0.0071863574
C0M750,布袋,2024-03-19,23.380878,120.167789,0.0026434688
C0M760,民雄,2024-03-19,23.551754,120.428457,0.017779667
C0M770,嘉義梅山,2024-03-19,23.585398,120.555587,0.07497395
C0M780,鹿草,2024-03-19,23.41134,120.30835,0.0077382945
C0M790,新港,2024-03-19,23.553269,120.345728,0.010951088
C0M800,茶山,2024-03-19,23.299075,120.664767,0.18934053
C0M880,好美里,2024-03-19,23.3364,120.138,0.0010778608
C0N010,鯤鯓國小,2024-03-19,23.1879,120.0889,0.0008279316
C0N020,城西,2024-03-19,23.0568,120.0956,0.005426272
C0N030,四草,2024-03-19,23.0235,120.1116,0.0036307478
C0N040,蘆竹溝,2024-03-19,23.2344,120.0961,0.001816121
C0N050,蚵寮,2024-03-19,23.301,120.1104,0.0014657645
C0O830,北寮,2024-03-19,23.079561,120.495008,0.39759165
C0O840,王爺宮,2024-03-19,23.222064,120.40085,0.014891737
C0O860,大內,2024-03-19,23.11885,120.36083,0.06547485
C0O900,善化,2024-03-19,23.112883,120.297219,0.036145464
C0O960,崎頂,2024-03-19,22.959547,120.369317,0.0465468
C0O970,虎頭埤,2024-03-19,23.021375,120.347878,0.07534932
C0O980,新市,2024-03-19,23.061614,120.298197,0.030119952
C0O990,媽廟,2024-03-19,22.99175,120.293525,0.029852066
C0R150,三地門,2024-03-19,22.709889,120.639944,0.42750672
C0R160,鹽埔,2024-03-19,22.739558,120.530778,0.43321514
C0R170,屏東,2024-03-19,22.660269,120.494072,0.4964438
C0R190,赤山,2024-03-19,22.592333,120.614306,0.48279467
C0R220,潮州,2024-03-19,22.534361,120.54,0.5899873
C0R240,來義,2024-03-19,22.527306,120.625111,0.4948185
C0R260,春日,2024-03-19,22.370361,120.628306,0.26292977
C0R270,琉球嶼,2024-03-19,22.332244,120.362236,0.34260872
C0R280,檳榔,2024-03-19,22.076078,120.836777,0.010693612
C0R320,車城,2024-03-19,22.0744,120.716247,0.009002178
C0R341,牡丹,2024-03-19,22.130036,120.792639,0.011072348
C0R350,貓鼻頭,2024-03-19,21.921774,120.7358,0.0026553455
C0R470,高樹,2024-03-19,22.826389,120.600806,0.4794306
C0R480,長治,2024-03-19,22.693128,120.542622,0.45395303
C0R490,九如,2024-03-19,22.7405,120.490503,0.44181165
C0R520,崁頂,2024-03-19,22.514781,120.506914,0.583935
C0R540,佳冬,2024-03-19,22.419456,120.552375,0.46020216
C0R550,新埤,2024-03-19,22.467947,120.582894,0.56110847
C0R560,新園,2024-03-19,22.5434,120.461558,0.53046626
C0R570,麟洛,2024-03-19,22.65078,120.52719,0.4964438
C0R580,南州,2024-03-19,22.48591,120.50274,0.59293234
C0R590,里港,2024-03-19,22.77919,120.49459,0.38277164
C0R620,墾雷,2024-03-19,21.900836,120.855269,0.00073038787
C0R640,東港,2024-03-19,22.46247,120.44074,0.5497313
C0R650,竹田,2024-03-19,22.58486,120.54344,0.59025735
C0R660,枋寮,2024-03-19,22.367722,120.590647,0.46399593
C0R670,楓港,2024-03-19,22.190131,120.692156,0.024137765
C0R680,佳樂水,2024-03-19,21.993578,120.861633,0.004767956
C0R690,墾丁,2024-03-19,21.966756,120.810269,0.0021423756
C0R700,枋山,2024-03-19,22.246844,120.661086,0.074761815
C0R710,龍磐,2024-03-19,21.931672,120.838942,0.0007848413
C0R720,旭海,2024-03-19,22.205403,120.887614,0.019097976
C0R730,大坪頂,2024-03-19,22.024633,120.69355,0.0032849042
C0R740,獅子,2024-03-19,22.201569,120.70525,0.05087425
C0R760,南仁湖,2024-03-19,22.084681,120.863353,0.010399811
C0R770,保力,2024-03-19,22.071122,120.764111,0.0077942093
C0R780,滿州,2024-03-19,22.024403,120.839892,0.014494245
C0R790,九棚,2024-03-19,22.14195,120.889281,0.02163394
C0R800,丹路,2024-03-19,22.204481,120.750989,0.018870167
C0R810,內獅,2024-03-19,22.305064,120.642986,0.06445299
C0R830,高士,2024-03-19,22.121825,120.836781,0.007372407
C0R850,林邊,2024-03-19,22.4634,120.5339,0.56889427
C0R860,鼻頭,2024-03-19,22.1043,120.8979,0.026277596
C0R870,興海,2024-03-19,21.9752,120.8439,0.0049981805
C0R880,後壁湖,2024-03-19,21.9457,120.7457,0.0053937435
C0R890,山海,2024-03-19,21.9878,120.7091,0.005170389
C0R900,竹坑,2024-03-19,22.1385,120.7022,0.00873274
C0R910,下寮,2024-03-19,22.3929,120.5548,0.46399605
C0R920,塭仔,2024-03-19,22.4169,120.5197,0.41905323
C0R930,萬丹,2024-03-19,22.5885,120.4851,0.5477084
C0R940,加祿堂,2024-03-19,22.3363,120.6217,0.08131086
C0S710,鹿野,2024-03-19,22.917711,121.122994,0.008512527
C0S730,綠島,2024-03-19,22.6672,121.47533,0.0039040556
C0S740,池上,2024-03-19,23.119628,121.209469,0.006547613
C0S770,大溪山,2024-03-19,22.478475,120.943325,0.03251056
C0S790,金崙,2024-03-19,22.538122,120.966875,0.031897847
C0S810,東河,2024-03-19,22.972672,121.303986,0.011480728
C0S830,長濱,2024-03-19,23.286817,121.411975,0.049468603
C0S840,南田,2024-03-19,22.279725,120.889208,0.044227306
C0S890,關山,2024-03-19,23.0395,121.175017,0.017900253
C0S900,蘭嶼高中,2024-03-19,22.04909,121.51214,0.028087886
C0S910,蘭嶼燈塔,2024-03-19,22.081197,121.503117,0.005747235
C0S920,金峰嘉蘭,2024-03-19,22.594789,120.960825,0.2538348
C0S930,延平,2024-03-19,22.902581,121.084058,0.010544293
C0S940,石寧山,2024-03-19,23.223772,121.406639,0.16754852
C0S950,七塊厝,2024-03-19,22.954453,121.229922,0.0071029835
C0S960,香蘭,2024-03-19,22.587569,120.993375,0.19663073
C0S970,加津林,2024-03-19,22.416211,120.926942,0.16679966
C0S990,山豬窟,2024-03-19,22.318619,120.857372,0.028219847
C0SA00,歷坵,2024-03-19,22.520969,120.89185,0.05388239
C0SA10,檳榔四格山,2024-03-19,22.810031,121.109308,0.013179098
C0SA30,都歷,2024-03-19,23.020333,121.323642,0.05538985
C0SA40,瑞和,2024-03-19,22.974361,121.156697,0.024240302
C0SA60,知本（水試所）,2024-03-19,22.702394,121.082761,0.37423763
C0SA80,土坂,2024-03-19,22.453108,120.887572,0.2595529
C0SA90,達仁林場,2024-03-19,22.264347,120.823972,0.0029367497
C0T870,鯉魚潭,2024-03-19,23.935639,121.508944,0.044368193
C0T900,西林,2024-03-19,23.8119,121.441458,0.051714055
C0T960,光復,2024-03-19,23.660694,121.424964,0.020814246
C0T9A0,月眉山,2024-03-19,23.809928,121.539828,0.0037603786
C0T9D0,和中,2024-03-19,24.26676,121.74103,0.009492244
C0T9E0,大坑,2024-03-19,23.880628,121.581981,0.01013641
C0T9F0,水璉,2024-03-19,23.797131,121.542514,0.007801108
C0T9I0,豐濱,2024-03-19,23.583897,121.514806,0.018305782
C0T9M0,靜浦,2024-03-19,23.455167,121.495028,0.08321435
C0T9N0,富里,2024-03-19,23.171639,121.249378,0.027126828
C0U600,礁溪,2024-03-19,24.817539,121.765608,0.0022628263
C0U650,玉蘭,2024-03-19,24.675286,121.587061,0.001777376
C0U750,龜山島,2024-03-19,24.841667,121.953133,0.001160225
C0U760,東澳,2024-03-19,24.52196,121.83318,0.017062439
C0U770,南澳,2024-03-19,24.44935,121.81022,0.0052712807
C0U780,五結,2024-03-19,24.68637,121.79794,0.0039130654
C0U860,頭城,2024-03-19,24.85323,121.8308,0.0016584195
C0U870,大礁溪,2024-03-19,24.791042,121.675047,0.0050690733
C0U880,北關,2024-03-19,24.9072,121.8734,0.005110106
C0U890,三星,2024-03-19,24.66812,121.65302,0.009471812
C0U900,內城,2024-03-19,24.71813,121.68766,0.0047517736
C0U910,冬山,2024-03-19,24.63373,121.7937,0.013751979
C0U940,羅東,2024-03-19,24.68184,121.74934,0.0060202675
C0U970,大福,2024-03-19,24.80064,121.81389,0.0010868692
C0U990,員山,2024-03-19,24.74435,121.72247,0.0041803517
C0UA00,土場,2024-03-19,24.576533,121.495333,0.0040318845
C0UA80,大溪漁港,2024-03-19,24.941801,121.902955,0.010111059
C0UA90,石城,2024-03-19,24.980444,121.951214,0.012776023
C0UB00,淡江大學蘭陽校園,2024-03-19,24.823239,121.730383,0.005366566
C0UB10,蘇澳,2024-03-19,24.5969,121.8571,0.09898179
C0UB20,壯圍,2024-03-19,24.7359,121.8163,0.0019548147
C0V310,美濃,2024-03-19,22.898742,120.519153,0.36010167
C0V350,溪埔,2024-03-19,22.738578,120.446797,0.34733638
C0V360,內門,2024-03-19,22.975481,120.466769,0.29480064
C0V370,古亭坑,2024-03-19,22.893178,120.401947,0.17284556
C0V400,阿公店,2024-03-19,22.804194,120.355528,0.19576061
C0V440,鳳山,2024-03-19,22.646653,120.356122,0.13969766
C0V450,鳳森,2024-03-19,22.545064,120.392592,0.41759887
C0V490,新興,2024-03-19,22.627422,120.298803,0.15417582
C0V530,阿蓮,2024-03-19,22.883208,120.327508,0.056954168
C0V610,梓官,2024-03-19,22.760558,120.267211,0.040880386
C0V620,永安,2024-03-19,22.82315,120.236856,0.021108588
C0V630,茄萣,2024-03-19,22.906642,120.182608,0.005384496
C0V640,湖內,2024-03-19,22.887139,120.2445,0.013866301
C0V650,彌陀,2024-03-19,22.783806,120.246361,0.02404141
C0V660,岡山,2024-03-19,22.797078,120.294958,0.04158274
C0V680,仁武,2024-03-19,22.701083,120.347722,0.117478766
C0V690,鼓山,2024-03-19,22.623325,120.275575,0.17166016
C0V700,三民,2024-03-19,22.645017,120.311233,0.069582246
C0V710,苓雅,2024-03-19,22.622742,120.330669,0.24305525
C0V720,林園,2024-03-19,22.507747,120.394511,0.48934835
C0V730,大寮,2024-03-19,22.605614,120.395717,0.3045056
C0V740,旗山,2024-03-19,22.888614,120.483597,0.35051638
C0V750,路竹,2024-03-19,22.854997,120.259439,0.013962589
C0V760,橋頭,2024-03-19,22.757806,120.30575,0.08007854
C0V770,大社,2024-03-19,22.730306,120.346639,0.14618817
C0V790,萬山,2024-03-19,22.905944,120.688056,0.274067
C0V800,六龜,2024-03-19,22.997889,120.633583,0.4576495
C0V810,左營,2024-03-19,22.67491,120.28491,0.069582246
C0V820,小林,2024-03-19,23.148408,120.63325,0.08714156
C0V840,鳳鼻頭,2024-03-19,22.5083,120.3591,0.49877766
C0V850,蚵仔寮,2024-03-19,22.7256,120.2527,0.04328534
C0V860,南寮,2024-03-19,22.7616,120.2339,0.04328534
C0V870,文安,2024-03-19,22.8025,120.2164,0.010208959
C0V880,興達,2024-03-19,22.8778,120.2127,0.0066876137
C0V890,前鎮,2024-03-19,22.5718,120.3117,0.24481687
C0V900,汕尾,2024-03-19,22.4782,120.4151,0.58365697
C0W200,湖西,2024-03-19,23.596314,119.67275,0.0006364636
C0X050,東河,2024-03-19,23.296598,120.385608,0.044538893
C0X060,下營,2024-03-19,23.22695,120.256261,0.010358111
C0X080,佳里,2024-03-19,23.173039,120.145086,0.002569698
C0X100,臺南市北區,2024-03-19,23.010394,120.194228,0.006625412
C0X110,臺南市南區,2024-03-19,22.961189,120.188378,0.0086189415
C0X120,麻豆,2024-03-19,23.183289,120.248611,0.013431446
C0X130,官田,2024-03-19,23.193217,120.315422,0.024023114
C0X140,西港,2024-03-19,23.125608,120.203108,0.013401718
C0X150,安定,2024-03-19,23.102614,120.227839,0.016497953
C0X160,仁德,2024-03-19,22.968258,120.257689,0.016362324
C0X170,關廟,2024-03-19,22.963017,120.327797,0.05773588
C0X180,山上,2024-03-19,23.0757,120.363253,0.14349522
C0X190,安平,2024-03-19,22.993161,120.152181,0.003546864
C0X200,左鎮,2024-03-19,23.056758,120.408522,0.10178495
C0X210,白河,2024-03-19,23.347466,120.414427,0.078601226
C0X220,學甲,2024-03-19,23.230367,120.182187,0.003440096
C0X230,鹽水,2024-03-19,23.272621,120.247641,0.004931324
C0X240,關子嶺,2024-03-19,23.331169,120.508025,0.109000064
C0X250,新營,2024-03-19,23.310689,120.316681,0.013241637
C0X260,後壁,2024-03-19,23.366358,120.362326,0.019182954
C0X280,將軍,2024-03-19,23.214999,120.13577,0.0024527095
C0X290,北門,2024-03-19,23.267772,120.125481,0.001816121
C0X300,鹿寮,2024-03-19,23.386047,120.477331,0.08563447
C0X310,七股,2024-03-19,23.147289,120.086253,0.0010230698
C0X320,柳營,2024-03-19,23.253328,120.375253,0.03453479
C0Z020,明里,2024-03-19,23.208717,121.262342,0.09014713
C0Z061,玉里,2024-03-19,23.3215,121.339656,0.13148762
C0Z070,舞鶴,2024-03-19,23.46811,121.37407,0.027832646
C0Z080,富源,2024-03-19,23.587642,121.378225,0.055804823
C0Z100,東華,2024-03-19,23.89525,121.549833,0.053648487
C0Z150,吉安光華,2024-03-19,23.930925,121.595153,0.031653993
C0Z160,鳳林,2024-03-19,23.746114,121.453411,0.0947275
C0Z170,卓溪,2024-03-19,23.3443,121.3029,0.048411626
C0Z180,新城,2024-03-19,24.03946,121.60454,0.014705147
C0Z190,富世,2024-03-19,24.14743,121.6297,0.002482651
C0Z200,萬榮,2024-03-19,23.709219,121.420106,0.04364028
C0Z210,瑞穗,2024-03-19,23.5239,121.39021,0.043321602
C0Z230,和平,2024-03-19,24.30717,121.77007,0.008624905
C0Z270,蕃薯寮,2024-03-19,23.73835,121.540108,0.009050866
C0Z280,德武,2024-03-19,23.47426,121.41071,0.06604704
C0Z300,東里,2024-03-19,23.26853,121.30547,0.16415016
C0Z310,清水斷崖,2024-03-19,24.218294,121.689142,0.0018071437
C0Z330,安通山,2024-03-19,23.290728,121.348528,0.030215168
C2E520,大湖,2024-03-19,24.414939,120.870872,0.006350607
C2E540,後龍,2024-03-19,24.606489,120.783933,0.0014063993
C2F000,大肚,2024-03-19,24.15295,120.572117,0.0022082492
C2F930,大甲,2024-03-19,24.347667,120.640403,0.00198391
C2F9A0,中竹林,2024-03-19,24.103556,120.751061,0.055849563
C2G640,鹿港,2024-03-19,24.0753,120.430481,0.00088720326
C2G840,北斗,2024-03-19,23.877586,120.514222,0.0077693015
C2G870,芳苑,2024-03-19,23.922303,120.320025,0.0013053083
C2H950,中寮,2024-03-19,23.884447,120.766406,0.06624764
C2M410,馬頭山,2024-03-19,23.324361,120.582017,0.115847
C2O810,曾文,2024-03-19,23.219681,120.497328,0.2689247
C2O930,玉井,2024-03-19,23.126042,120.46055,0.1816403
C2O950,安南,2024-03-19,23.076694,120.144861,0.002295696
C2V250,甲仙,2024-03-19,23.080106,120.591758,0.19257514
C2V260,月眉,2024-03-19,22.971003,120.539853,0.34754637
C2W230,畜試所澎湖,2024-03-19,23.628342,119.513206,0.0005140824
CAG100,王功漁港,2024-03-19,23.96824,120.32586,0.00093374564
CAH030,茶改場竹圍站,2024-03-19,23.860083,120.637528,0.03315208
CAJ050,海口故事園區,2024-03-19,23.57543,120.14121,0.0007098037
CAL110,布袋國中,2024-03-19,23.35893,120.18026,0.0029012263
CAN130,水試所海水繁養殖中心,2024-03-19,23.120802,120.07968,0.0010436061
CAN140,六官養殖協會,2024-03-19,23.22881,120.29962,0.012327592
CAQ030,崎峰國小,2024-03-19,22.42565,120.49521,0.57301116
E2K600,四湖植物園,2024-03-19,23.676986,120.163433,0.0009092777
E2P980,林試六龜中心,2024-03-19,22.991703,120.645722,0.43604997
E2S960,林試太麻里2,2024-03-19,22.598014,120.989761,0.19490443
E2S960,林試太麻里2,2024-03-19,22.598,120.99775,0.20626764
E2S980,林試太麻里1,2024-03-19,22.598922,120.980044,0.13383928
G2AI50,關渡,2024-03-19,25.11575,121.492,0.0005701421
G2F820,農業試驗所,2024-03-19,24.031261,120.688133,0.024011485
G2F820,農試所(霧峰),2024-03-19,24.031261,120.688133,0.024011485
G2L020,農試嘉義分所,2024-03-19,23.485028,120.473806,0.17572519
G2M350,農試溪口農場,2024-03-19,23.58565,120.408111,0.010599349
G2P820,農試鳳山分所,2024-03-19,22.646611,120.356083,0.13969766
K2E360,苗栗農改,2024-03-19,24.495722,120.829111,0.0025324468
K2E360,苗栗農改場,2024-03-19,24.495722,120.829111,0.0025324468
K2E710,苗改生物防治研究中心,2024-03-19,24.422861,120.871833,0.007171112
K2F750,種苗改良場,2024-03-19,24.225972,120.800917,0.005879352
K2F750,種苗繁殖,2024-03-19,24.225972,120.800917,0.005879352
U2HA50,臺大竹山,2024-03-19,23.756972,120.681556,0.048780184
V2C250,八德合作社,2024-03-19,24.93775,121.266389,0.00088641455
V2C260,八德蔬果,2024-03-19,24.978508,121.281819,0.00071375654
V2K610,大庄合作社,2024-03-19,23.8068,120.367939,0.001417998
V2K620,麥寮合作社,2024-03-19,23.753836,120.294783,0.0018449111
