站號,站名,日期,lat,lon,BlastGRU-TW
12J990,口湖工作站,2024-03-12,23.589978,120.180394,0.6162862
12Q970,東港工作站,2024-03-12,22.479997,120.466058,0.5151397
12Q980,恆春工作站,2024-03-12,22.079678,120.714425,0.0071447473
466881,新北,2024-03-12,24.9593,121.52,0.021483367
466900,淡水,2024-03-12,25.164889,121.448906,0.009557034
466920,臺北,2024-03-12,25.037658,121.514853,0.031173572
466940,基隆,2024-03-12,25.133314,121.740475,0.00959157
466990,花蓮,2024-03-12,23.975128,121.613275,0.14320953
467050,新屋,2024-03-12,25.006744,121.047486,0.0063650333
467080,宜蘭,2024-03-12,24.763975,121.756528,0.017391147
467270,田中,2024-03-12,23.873803,120.581286,0.27866215
467300,東吉島,2024-03-12,23.25695,119.667467,0.8421916
467350,澎湖,2024-03-12,23.565503,119.563094,0.17215021
467410,臺南,2024-03-12,22.993239,120.204772,0.7394023
467420,永康,2024-03-12,23.038386,120.2367,0.4208993
467441,高雄,2024-03-12,22.7304,120.3125,0.63571495
467480,嘉義,2024-03-12,23.495925,120.432906,0.40501225
467490,臺中,2024-03-12,24.145736,120.684075,0.07344996
467540,大武,2024-03-12,22.355675,120.903789,0.51598823
467571,新竹,2024-03-12,24.827853,121.014219,0.009140658
467590,恆春,2024-03-12,22.003897,120.746339,0.027069172
467610,成功,2024-03-12,23.097486,121.373428,0.65364677
467620,蘭嶼,2024-03-12,22.036969,121.558339,0.28954235
467660,臺東,2024-03-12,22.752211,121.154586,0.23694584
467790,墾丁雷達站,2024-03-12,21.948235,120.808028,0.01174112
72AI40,桃改樹林分場,2024-03-12,24.944503,121.386972,0.042323593
72C440,桃園農改,2024-03-12,24.950944,121.030583,0.005527026
72C440,桃園農改場,2024-03-12,24.950944,121.030583,0.005527026
72D680,桃改新埔分場,2024-03-12,24.834444,121.066111,0.00881785
72G600,臺中農改,2024-03-12,24.003028,120.534389,0.15371008
72G600,臺中農改場,2024-03-12,24.003028,120.534389,0.15371008
72K220,南改斗南分場,2024-03-12,23.634556,120.477333,0.4598086
72M360,南改義竹分場,2024-03-12,23.360694,120.279361,0.4835143
72M700,南改鹿草分場,2024-03-12,23.416869,120.283061,0.44731846
72N100,臺南農改,2024-03-12,23.0605,120.342194,0.39410922
72N100,臺南農改場,2024-03-12,23.0605,120.342194,0.39410922
72N240,七股研究中心,2024-03-12,23.081672,120.062894,0.861398
72Q010,高雄農改,2024-03-12,22.709333,120.525889,0.081471406
72Q010,高雄農改場,2024-03-12,22.709333,120.525889,0.081471406
72S200,東改班鳩分場,2024-03-12,22.829528,121.077694,0.0756527
72S590,東改賓朗果園,2024-03-12,22.813889,121.071278,0.10773049
72T250,花蓮農改,2024-03-12,23.975222,121.563889,0.27613366
72T250,花蓮農改場,2024-03-12,23.975222,121.563889,0.27613366
72U480,花改蘭陽分場,2024-03-12,24.686306,121.716583,0.027569616
72V140,高改旗南分場,2024-03-12,22.857861,120.516667,0.19371852
82A750,茶改北部分場,2024-03-12,24.955778,121.631222,0.017626999
82C160,茶改場,2024-03-12,24.908472,121.185333,0.008000776
82H840,茶改南部分場,2024-03-12,23.762528,120.7405,0.090785585
82S580,茶改東部分場,2024-03-12,22.907694,121.130139,0.15456787
A2C560,農工中心,2024-03-12,24.985917,121.239833,0.014885366
A2K360,水試臺西試驗場,2024-03-12,23.717231,120.190522,0.08578668
A2K570,古坑花卉中心,2024-03-12,23.63353,120.55239,0.59399563
A2K630,臺大雲林校區,2024-03-12,23.730628,120.423903,0.2623837
A2N290,臺南蘭花園區,2024-03-12,23.340258,120.379661,0.50275725
B2E890,畜試北區分所,2024-03-12,24.527806,120.770972,0.06521598
B2N890,畜產試驗所,2024-03-12,23.058972,120.336406,0.39251697
B2N890,畜試所,2024-03-12,23.058972,120.336406,0.39251697
B2Q810,畜試南區分所,2024-03-12,21.945583,120.802167,0.012179904
B2U990,畜試東區分所,2024-03-12,24.669039,121.832561,0.03070777
C0A520,山佳,2024-03-12,24.974944,121.402008,0.01519771
C0A530,坪林,2024-03-12,24.938183,121.70975,0.023162087
C0A540,四堵,2024-03-12,24.8926,121.745736,0.013558374
C0A550,泰平,2024-03-12,24.971197,121.823711,0.018287698
C0A560,福山,2024-03-12,24.776203,121.502811,0.006962042
C0A570,桶後,2024-03-12,24.848222,121.597992,0.013906681
C0A640,石碇,2024-03-12,24.993969,121.662917,0.0085111745
C0A650,火燒寮,2024-03-12,25.002719,121.742892,0.021542639
C0A660,瑞芳,2024-03-12,25.113169,121.801147,0.0069210003
C0A770,科教館,2024-03-12,25.096356,121.516507,0.017695466
C0A860,大坪,2024-03-12,25.165914,121.632969,0.003266715
C0A880,福隆,2024-03-12,25.017842,121.942083,0.052262627
C0A890,雙溪,2024-03-12,25.036003,121.864242,0.022714538
C0A920,富貴角,2024-03-12,25.263783,121.565258,0.0030627018
C0A931,三和,2024-03-12,25.233153,121.595236,0.004117587
C0A940,金山,2024-03-12,25.223628,121.643967,0.017157836
C0A950,鼻頭角,2024-03-12,25.129036,121.923372,0.0022240481
C0A970,三貂角,2024-03-12,25.007606,122.002058,0.026573384
C0A980,社子,2024-03-12,25.109508,121.469681,0.015122709
C0A9C0,天母,2024-03-12,25.117494,121.537169,0.017548991
C0A9F0,內湖,2024-03-12,25.079422,121.57545,0.010461971
C0AC60,三峽,2024-03-12,24.939025,121.369728,0.038578838
C0AC70,信義,2024-03-12,25.037822,121.564597,0.020007854
C0AC80,文山,2024-03-12,25.00235,121.575728,0.016430035
C0ACA0,新莊,2024-03-12,25.051478,121.446756,0.018469974
C0AD00,三芝,2024-03-12,25.258131,121.501917,0.0064983563
C0AD10,八里,2024-03-12,25.150211,121.403947,0.0056132833
C0AD30,蘆洲,2024-03-12,25.086594,121.472331,0.017736904
C0AD40,土城,2024-03-12,24.973208,121.445169,0.01991029
C0AD50,鶯歌,2024-03-12,24.951533,121.346294,0.03307524
C0AG80,中和,2024-03-12,24.991622,121.491792,0.028753156
C0AH00,汐止,2024-03-12,25.066881,121.658778,0.011274086
C0AH10,永和,2024-03-12,25.01125,121.508111,0.030142581
C0AH40,平等,2024-03-12,25.129142,121.577086,0.0026465799
C0AH50,林口,2024-03-12,25.072181,121.38084,0.004198151
C0AH70,松山,2024-03-12,25.04871,121.55042,0.020007854
C0AH80,深坑,2024-03-12,25.002703,121.628328,0.010620923
C0AI00,五股,2024-03-12,25.07445,121.42728,0.008133197
C0AI10,屈尺,2024-03-12,24.92184,121.54475,0.032089114
C0AI20,白沙灣,2024-03-12,25.283128,121.519058,0.004614561
C0AI30,三重,2024-03-12,25.057328,121.500629,0.032448724
C0AI40,石牌,2024-03-12,25.115597,121.513139,0.03192938
C0AJ20,野柳,2024-03-12,25.20703,121.690021,0.0136924265
C0AJ30,淡水觀海,2024-03-12,25.184591,121.408616,0.022115156
C0AJ40,石門,2024-03-12,25.273672,121.601198,0.002752106
C0AJ50,水湳洞,2024-03-12,25.123695,121.862238,0.010987715
C0AJ60,六塊厝,2024-03-12,25.24,121.4481,0.0057373196
C0AJ70,田寮,2024-03-12,25.2698,121.4886,0.009661785
C0AJ80,板橋,2024-03-12,25.0107,121.4489,0.019942978
C0AJ90,澳底,2024-03-12,25.0552,121.9253,0.01324421
C0B010,七堵,2024-03-12,25.094819,121.71713,0.020081611
C0B020,基隆嶼,2024-03-12,25.19141,121.78391,0.0011961785
C0B040,大武崙,2024-03-12,25.166676,121.706993,0.009390714
C0B050,八斗子,2024-03-12,25.144754,121.79167,0.009502215
C0B060,暖暖,2024-03-12,25.0957,121.7403,0.015452978
C0C460,復興,2024-03-12,24.820208,121.352281,0.007814299
C0C480,桃園,2024-03-12,24.992425,121.323172,0.011858259
C0C490,八德,2024-03-12,24.928708,121.283289,0.015360696
C0C590,觀音,2024-03-12,25.027072,121.153317,0.002698325
C0C620,蘆竹,2024-03-12,25.084275,121.265767,0.005545032
C0C630,大溪,2024-03-12,24.882853,121.265547,0.01447752
C0C650,平鎮,2024-03-12,24.897503,121.214636,0.006622438
C0C660,楊梅,2024-03-12,24.912375,121.143047,0.010684435
C0C670,龍潭,2024-03-12,24.870056,121.221389,0.010012942
C0C680,龜山,2024-03-12,25.02846,121.38656,0.0045287367
C0C700,中壢,2024-03-12,24.977661,121.256375,0.008882527
C0C710,大溪永福,2024-03-12,24.892936,121.324975,0.015316089
C0C720,竹圍,2024-03-12,25.112692,121.239824,0.0041308776
C0C730,中大臨海站,2024-03-12,24.966126,121.008581,0.0058538606
C0C740,觀音工業區,2024-03-12,25.064764,121.114856,0.0033269562
C0C750,新興坑尾,2024-03-12,25.0061,121.0971,0.007234548
C0D430,峨眉,2024-03-12,24.6905,121.017189,0.008578316
C0D480,打鐵坑,2024-03-12,24.849664,121.150789,0.010664674
C0D540,橫山,2024-03-12,24.71116,121.11693,0.010683975
C0D560,竹東,2024-03-12,24.767147,121.057881,0.010786476
C0D580,寶山,2024-03-12,24.735006,121.025192,0.016173163
C0D590,新豐,2024-03-12,24.87068,120.97721,0.0016428368
C0D650,湖口,2024-03-12,24.904794,121.043628,0.0076823165
C0D660,新竹市東區,2024-03-12,24.798681,120.986942,0.007297726
C0D670,海天一線,2024-03-12,24.831986,120.914438,0.0016481016
C0D680,香山濕地,2024-03-12,24.783581,120.914988,0.00646541
C0D690,外湖,2024-03-12,24.917735,120.968711,0.0057080607
C0D700,關西,2024-03-12,24.7977,121.1732,0.009655838
C0E420,竹南,2024-03-12,24.708978,120.888897,0.0036300854
C0E430,南庄,2024-03-12,24.601775,121.000214,0.022997607
C0E550,明德,2024-03-12,24.583486,120.885411,0.049866468
C0E590,通霄,2024-03-12,24.471892,120.704622,0.026163753
C0E730,頭份,2024-03-12,24.688247,120.912206,0.0060036927
C0E740,造橋,2024-03-12,24.637056,120.864778,0.019142838
C0E750,苗栗,2024-03-12,24.564569,120.824575,0.04671191
C0E780,銅鑼,2024-03-12,24.489681,120.790853,0.03445832
C0E791,卓蘭,2024-03-12,24.3126,120.8244,0.036065903
C0E810,西湖,2024-03-12,24.562947,120.7485,0.026673885
C0E820,獅潭,2024-03-12,24.539133,120.920042,0.023214841
C0E830,苑裡,2024-03-12,24.439714,120.653053,0.01009619
C0E850,大河,2024-03-12,24.618069,120.948578,0.021804562
C0E870,高鐵苗栗,2024-03-12,24.60725,120.826094,0.018563902
C0E910,海埔,2024-03-12,24.648767,120.772435,0.004919662
C0E920,通霄漁港,2024-03-12,24.498589,120.673876,0.020603176
C0E930,龍鳳,2024-03-12,24.700034,120.859125,0.004269029
C0F0B0,石岡,2024-03-12,24.276061,120.777644,0.049787983
C0F850,東勢,2024-03-12,24.246428,120.833047,0.030519566
C0F970,大坑,2024-03-12,24.173142,120.722289,0.110026546
C0F9I0,神岡,2024-03-12,24.272481,120.658314,0.04949857
C0F9K0,大安,2024-03-12,24.345061,120.588025,0.009019879
C0F9L0,后里,2024-03-12,24.310436,120.729725,0.06021751
C0F9M0,豐原,2024-03-12,24.254322,120.720692,0.07625643
C0F9N0,大里,2024-03-12,24.092464,120.701378,0.13365406
C0F9O0,潭子,2024-03-12,24.213106,120.703933,0.047013987
C0F9P0,清水,2024-03-12,24.312297,120.562242,0.014722975
C0F9Q0,外埔,2024-03-12,24.347817,120.705686,0.05304497
C0F9R0,龍井,2024-03-12,24.184536,120.528972,0.008846794
C0F9S0,烏日,2024-03-12,24.107058,120.624103,0.06783514
C0F9T0,西屯,2024-03-12,24.179494,120.641275,0.038916282
C0F9U0,南屯,2024-03-12,24.137006,120.637969,0.05378878
C0F9X0,大雅(中科園區),2024-03-12,24.21528,120.62445,0.02902215
C0FA10,松柏,2024-03-12,24.429115,120.617482,0.011278078
C0FA20,溫寮,2024-03-12,24.372177,120.583125,0.009852522
C0FA30,梧棲,2024-03-12,24.256003,120.523381,0.006203435
C0FA40,臺中電廠,2024-03-12,24.2146,120.4907,0.0072750794
C0FA50,霧峰,2024-03-12,24.0419,120.6995,0.26947078
C0G620,芬園,2024-03-12,24.015678,120.6213,0.09996813
C0G650,員林,2024-03-12,23.946503,120.585597,0.18235643
C0G660,溪湖,2024-03-12,23.94835,120.479122,0.15307754
C0G720,溪州,2024-03-12,23.851589,120.499093,0.28411645
C0G730,二林,2024-03-12,23.903325,120.376081,0.039435495
C0G740,大城,2024-03-12,23.852487,120.320935,0.043340936
C0G770,福興,2024-03-12,24.041289,120.437669,0.021895831
C0G780,秀水,2024-03-12,24.03405,120.503869,0.0659052
C0G800,埔鹽,2024-03-12,24.000394,120.431683,0.03560195
C0G810,埔心,2024-03-12,23.947633,120.525456,0.14421986
C0G820,田尾,2024-03-12,23.901669,120.509389,0.20038116
C0G830,埤頭,2024-03-12,23.866003,120.452806,0.15188432
C0G860,社頭,2024-03-12,23.897647,120.5862,0.23962311
C0G880,二水,2024-03-12,23.810742,120.6173,0.30787048
C0G890,伸港,2024-03-12,24.148933,120.484403,0.015672887
C0G900,線西,2024-03-12,24.143358,120.443536,0.004339316
C0G910,花壇,2024-03-12,24.032076,120.549461,0.15294719
C0G920,永靖,2024-03-12,23.924703,120.547533,0.2940536
C0G940,竹塘,2024-03-12,23.848253,120.386764,0.04316934
C0G950,防潮門,2024-03-12,24.1835,120.4871,0.008846794
C0G960,福寶,2024-03-12,24.0443,120.3814,0.0049820924
C0G970,三豐,2024-03-12,23.882,120.2895,0.028171625
C0H890,埔里,2024-03-12,23.972169,120.952425,0.09793278
C0H960,草屯,2024-03-12,23.973672,120.68085,0.21622378
C0I110,竹山,2024-03-12,23.761225,120.688156,0.4442087
C0I360,水里,2024-03-12,23.812553,120.849792,0.18874945
C0I380,集集,2024-03-12,23.828206,120.801467,0.31743625
C0I410,名間,2024-03-12,23.837053,120.701447,0.19904123
C0I420,國姓,2024-03-12,24.037803,120.855072,0.20030776
C0I460,南投,2024-03-12,23.911469,120.687331,0.38910607
C0K250,崙背,2024-03-12,23.75555,120.318925,0.076998785
C0K280,四湖,2024-03-12,23.630414,120.227125,0.49199438
C0K291,宜梧,2024-03-12,23.536281,120.169329,0.35990885
C0K330,虎尾,2024-03-12,23.719183,120.442036,0.31320506
C0K390,土庫,2024-03-12,23.679029,120.395574,0.26158336
C0K400,斗六,2024-03-12,23.720583,120.541127,0.6616936
C0K410,北港,2024-03-12,23.573957,120.292802,0.3067609
C0K420,西螺,2024-03-12,23.800407,120.467394,0.16082239
C0K430,褒忠,2024-03-12,23.690938,120.303634,0.08556924
C0K440,二崙,2024-03-12,23.772797,120.408944,0.3062283
C0K450,大埤,2024-03-12,23.646074,120.431537,0.4046932
C0K460,斗南,2024-03-12,23.678734,120.478359,0.42220715
C0K470,林內,2024-03-12,23.748675,120.609642,0.4703622
C0K480,莿桐,2024-03-12,23.761192,120.502372,0.32813385
C0K500,元長,2024-03-12,23.64981,120.315024,0.17680268
C0K510,水林,2024-03-12,23.572924,120.24597,0.27407756
C0K530,臺西,2024-03-12,23.701547,120.197559,0.079362944
C0K550,蔦松,2024-03-12,23.514319,120.229736,0.45163622
C0K560,棋山,2024-03-12,23.68645,120.603417,0.6583097
C0K580,高鐵雲林,2024-03-12,23.737456,120.417944,0.2623837
C0K590,雲林東勢,2024-03-12,23.674192,120.255721,0.1305623
C0K600,箔子寮,2024-03-12,23.6197,120.14,0.519137
C0M520,東後寮,2024-03-12,23.369908,120.248065,0.48169115
C0M640,中埔,2024-03-12,23.42538,120.5229,0.5652255
C0M650,朴子,2024-03-12,23.43463,120.23902,0.32779095
C0M660,溪口,2024-03-12,23.604131,120.403569,0.3212263
C0M670,大林,2024-03-12,23.600616,120.45841,0.31493402
C0M680,太保,2024-03-12,23.455062,120.331455,0.32417563
C0M690,水上,2024-03-12,23.419734,120.388909,0.39529562
C0M700,竹崎,2024-03-12,23.526178,120.555508,0.6069988
C0M710,東石,2024-03-12,23.458927,120.15385,0.4438752
C0M720,番路,2024-03-12,23.464657,120.554156,0.5270808
C0M730,嘉義市東區,2024-03-12,23.457673,120.460531,0.51750493
C0M740,六腳,2024-03-12,23.492871,120.290625,0.3703898
C0M750,布袋,2024-03-12,23.380878,120.167789,0.41050464
C0M760,民雄,2024-03-12,23.551754,120.428457,0.3889584
C0M770,嘉義梅山,2024-03-12,23.585398,120.555587,0.56048596
C0M780,鹿草,2024-03-12,23.41134,120.30835,0.4218458
C0M790,新港,2024-03-12,23.553269,120.345728,0.35692728
C0M800,茶山,2024-03-12,23.299075,120.664767,0.29112846
C0M880,好美里,2024-03-12,23.3364,120.138,0.4011694
C0N010,鯤鯓國小,2024-03-12,23.1879,120.0889,0.6040094
C0N020,城西,2024-03-12,23.0568,120.0956,0.69195205
C0N030,四草,2024-03-12,23.0235,120.1116,0.6984718
C0N040,蘆竹溝,2024-03-12,23.2344,120.0961,0.42824492
C0N050,蚵寮,2024-03-12,23.301,120.1104,0.40666416
C0O830,北寮,2024-03-12,23.079561,120.495008,0.57549495
C0O840,王爺宮,2024-03-12,23.222064,120.40085,0.2508519
C0O860,大內,2024-03-12,23.11885,120.36083,0.36755314
C0O900,善化,2024-03-12,23.112883,120.297219,0.43540883
C0O960,崎頂,2024-03-12,22.959547,120.369317,0.4840457
C0O970,虎頭埤,2024-03-12,23.021375,120.347878,0.42159614
C0O980,新市,2024-03-12,23.061614,120.298197,0.43139273
C0O990,媽廟,2024-03-12,22.99175,120.293525,0.44547665
C0R150,三地門,2024-03-12,22.709889,120.639944,0.22236326
C0R160,鹽埔,2024-03-12,22.739558,120.530778,0.0894907
C0R170,屏東,2024-03-12,22.660269,120.494072,0.07026098
C0R190,赤山,2024-03-12,22.592333,120.614306,0.121193305
C0R220,潮州,2024-03-12,22.534361,120.54,0.20889927
C0R240,來義,2024-03-12,22.527306,120.625111,0.20242932
C0R260,春日,2024-03-12,22.370361,120.628306,0.043676194
C0R270,琉球嶼,2024-03-12,22.332244,120.362236,0.6503025
C0R280,檳榔,2024-03-12,22.076078,120.836777,0.01274568
C0R320,車城,2024-03-12,22.0744,120.716247,0.0071447473
C0R341,牡丹,2024-03-12,22.130036,120.792639,0.013207102
C0R350,貓鼻頭,2024-03-12,21.921774,120.7358,0.00735778
C0R470,高樹,2024-03-12,22.826389,120.600806,0.23174623
C0R480,長治,2024-03-12,22.693128,120.542622,0.36844
C0R490,九如,2024-03-12,22.7405,120.490503,0.08831764
C0R520,崁頂,2024-03-12,22.514781,120.506914,0.21651639
C0R540,佳冬,2024-03-12,22.419456,120.552375,0.05943828
C0R550,新埤,2024-03-12,22.467947,120.582894,0.4749929
C0R560,新園,2024-03-12,22.5434,120.461558,0.5257281
C0R570,麟洛,2024-03-12,22.65078,120.52719,0.07026098
C0R580,南州,2024-03-12,22.48591,120.50274,0.5057598
C0R590,里港,2024-03-12,22.77919,120.49459,0.18126924
C0R620,墾雷,2024-03-12,21.900836,120.855269,0.007418005
C0R640,東港,2024-03-12,22.46247,120.44074,0.5238594
C0R650,竹田,2024-03-12,22.58486,120.54344,0.054960866
C0R660,枋寮,2024-03-12,22.367722,120.590647,0.059705887
C0R670,楓港,2024-03-12,22.190131,120.692156,0.014448735
C0R680,佳樂水,2024-03-12,21.993578,120.861633,0.012324387
C0R690,墾丁,2024-03-12,21.966756,120.810269,0.015136819
C0R700,枋山,2024-03-12,22.246844,120.661086,0.023632439
C0R710,龍磐,2024-03-12,21.931672,120.838942,0.004740354
C0R720,旭海,2024-03-12,22.205403,120.887614,0.07937995
C0R730,大坪頂,2024-03-12,22.024633,120.69355,0.0057877237
C0R740,獅子,2024-03-12,22.201569,120.70525,0.06939876
C0R760,南仁湖,2024-03-12,22.084681,120.863353,0.028249921
C0R770,保力,2024-03-12,22.071122,120.764111,0.008189223
C0R780,滿州,2024-03-12,22.024403,120.839892,0.02650008
C0R790,九棚,2024-03-12,22.14195,120.889281,0.03374817
C0R800,丹路,2024-03-12,22.204481,120.750989,0.032517374
C0R810,內獅,2024-03-12,22.305064,120.642986,0.017962618
C0R830,高士,2024-03-12,22.121825,120.836781,0.023462629
C0R850,林邊,2024-03-12,22.4634,120.5339,0.50719386
C0R860,鼻頭,2024-03-12,22.1043,120.8979,0.020041972
C0R870,興海,2024-03-12,21.9752,120.8439,0.012179904
C0R880,後壁湖,2024-03-12,21.9457,120.7457,0.008369456
C0R890,山海,2024-03-12,21.9878,120.7091,0.008165196
C0R900,竹坑,2024-03-12,22.1385,120.7022,0.0070812483
C0R910,下寮,2024-03-12,22.3929,120.5548,0.059705887
C0R920,塭仔,2024-03-12,22.4169,120.5197,0.060025707
C0R930,萬丹,2024-03-12,22.5885,120.4851,0.16191877
C0R940,加祿堂,2024-03-12,22.3363,120.6217,0.009389215
C0S710,鹿野,2024-03-12,22.917711,121.122994,0.09936491
C0S730,綠島,2024-03-12,22.6672,121.47533,0.862905
C0S740,池上,2024-03-12,23.119628,121.209469,0.23872587
C0S770,大溪山,2024-03-12,22.478475,120.943325,0.1714006
C0S790,金崙,2024-03-12,22.538122,120.966875,0.08719194
C0S810,東河,2024-03-12,22.972672,121.303986,0.35358962
C0S830,長濱,2024-03-12,23.286817,121.411975,0.14410777
C0S840,南田,2024-03-12,22.279725,120.889208,0.12105858
C0S890,關山,2024-03-12,23.0395,121.175017,0.24853307
C0S900,蘭嶼高中,2024-03-12,22.04909,121.51214,0.18838413
C0S910,蘭嶼燈塔,2024-03-12,22.081197,121.503117,0.23092781
C0S920,金峰嘉蘭,2024-03-12,22.594789,120.960825,0.10437598
C0S930,延平,2024-03-12,22.902581,121.084058,0.045100067
C0S940,石寧山,2024-03-12,23.223772,121.406639,0.76416177
C0S950,七塊厝,2024-03-12,22.954453,121.229922,0.084518075
C0S960,香蘭,2024-03-12,22.587569,120.993375,0.3639585
C0S970,加津林,2024-03-12,22.416211,120.926942,0.24302529
C0S990,山豬窟,2024-03-12,22.318619,120.857372,0.06451504
C0SA00,歷坵,2024-03-12,22.520969,120.89185,0.051745843
C0SA10,檳榔四格山,2024-03-12,22.810031,121.109308,0.031063767
C0SA30,都歷,2024-03-12,23.020333,121.323642,0.2506762
C0SA40,瑞和,2024-03-12,22.974361,121.156697,0.32193586
C0SA60,知本（水試所）,2024-03-12,22.702394,121.082761,0.40329936
C0SA80,土坂,2024-03-12,22.453108,120.887572,0.30188733
C0SA90,達仁林場,2024-03-12,22.264347,120.823972,0.012262269
C0T870,鯉魚潭,2024-03-12,23.935639,121.508944,0.066003054
C0T900,西林,2024-03-12,23.8119,121.441458,0.060889114
C0T960,光復,2024-03-12,23.660694,121.424964,0.114251666
C0T9A0,月眉山,2024-03-12,23.809928,121.539828,0.0058290637
C0T9D0,和中,2024-03-12,24.26676,121.74103,0.02278104
C0T9E0,大坑,2024-03-12,23.880628,121.581981,0.012664764
C0T9F0,水璉,2024-03-12,23.797131,121.542514,0.01042387
C0T9I0,豐濱,2024-03-12,23.583897,121.514806,0.07917009
C0T9M0,靜浦,2024-03-12,23.455167,121.495028,0.28143325
C0T9N0,富里,2024-03-12,23.171639,121.249378,0.17283976
C0U600,礁溪,2024-03-12,24.817539,121.765608,0.026852218
C0U650,玉蘭,2024-03-12,24.675286,121.587061,0.0047623906
C0U750,龜山島,2024-03-12,24.841667,121.953133,0.012570275
C0U760,東澳,2024-03-12,24.52196,121.83318,0.050355535
C0U770,南澳,2024-03-12,24.44935,121.81022,0.008420607
C0U780,五結,2024-03-12,24.68637,121.79794,0.0103896195
C0U860,頭城,2024-03-12,24.85323,121.8308,0.0144994175
C0U870,大礁溪,2024-03-12,24.791042,121.675047,0.005028746
C0U880,北關,2024-03-12,24.9072,121.8734,0.055864654
C0U890,三星,2024-03-12,24.66812,121.65302,0.063858986
C0U900,內城,2024-03-12,24.71813,121.68766,0.026078124
C0U910,冬山,2024-03-12,24.63373,121.7937,0.03070777
C0U940,羅東,2024-03-12,24.68184,121.74934,0.02211137
C0U970,大福,2024-03-12,24.80064,121.81389,0.0049912254
C0U990,員山,2024-03-12,24.74435,121.72247,0.016174622
C0UA00,土場,2024-03-12,24.576533,121.495333,0.011816923
C0UA80,大溪漁港,2024-03-12,24.941801,121.902955,0.07282735
C0UA90,石城,2024-03-12,24.980444,121.951214,0.050619148
C0UB00,淡江大學蘭陽校園,2024-03-12,24.823239,121.730383,0.012192336
C0UB10,蘇澳,2024-03-12,24.5969,121.8571,0.11605205
C0UB20,壯圍,2024-03-12,24.7359,121.8163,0.0069842367
C0V310,美濃,2024-03-12,22.898742,120.519153,0.22002918
C0V350,溪埔,2024-03-12,22.738578,120.446797,0.17856395
C0V360,內門,2024-03-12,22.975481,120.466769,0.3710559
C0V370,古亭坑,2024-03-12,22.893178,120.401947,0.40202284
C0V400,阿公店,2024-03-12,22.804194,120.355528,0.3338204
C0V440,鳳山,2024-03-12,22.646653,120.356122,0.7711358
C0V450,鳳森,2024-03-12,22.545064,120.392592,0.5467418
C0V490,新興,2024-03-12,22.627422,120.298803,0.6633867
C0V530,阿蓮,2024-03-12,22.883208,120.327508,0.45302314
C0V610,梓官,2024-03-12,22.760558,120.267211,0.6121952
C0V620,永安,2024-03-12,22.82315,120.236856,0.76662165
C0V630,茄萣,2024-03-12,22.906642,120.182608,0.8291781
C0V640,湖內,2024-03-12,22.887139,120.2445,0.8306599
C0V650,彌陀,2024-03-12,22.783806,120.246361,0.739705
C0V660,岡山,2024-03-12,22.797078,120.294958,0.7404276
C0V680,仁武,2024-03-12,22.701083,120.347722,0.8022506
C0V690,鼓山,2024-03-12,22.623325,120.275575,0.64731604
C0V700,三民,2024-03-12,22.645017,120.311233,0.8070378
C0V710,苓雅,2024-03-12,22.622742,120.330669,0.6094069
C0V720,林園,2024-03-12,22.507747,120.394511,0.52713716
C0V730,大寮,2024-03-12,22.605614,120.395717,0.61219025
C0V740,旗山,2024-03-12,22.888614,120.483597,0.22670698
C0V750,路竹,2024-03-12,22.854997,120.259439,0.84613484
C0V760,橋頭,2024-03-12,22.757806,120.30575,0.6478947
C0V770,大社,2024-03-12,22.730306,120.346639,0.64053744
C0V790,萬山,2024-03-12,22.905944,120.688056,0.20209882
C0V800,六龜,2024-03-12,22.997889,120.633583,0.49159652
C0V810,左營,2024-03-12,22.67491,120.28491,0.8070378
C0V820,小林,2024-03-12,23.148408,120.63325,0.6260266
C0V840,鳳鼻頭,2024-03-12,22.5083,120.3591,0.5475394
C0V850,蚵仔寮,2024-03-12,22.7256,120.2527,0.6116761
C0V860,南寮,2024-03-12,22.7616,120.2339,0.6116761
C0V870,文安,2024-03-12,22.8025,120.2164,0.70164996
C0V880,興達,2024-03-12,22.8778,120.2127,0.8244115
C0V890,前鎮,2024-03-12,22.5718,120.3117,0.6286464
C0V900,汕尾,2024-03-12,22.4782,120.4151,0.5151397
C0W200,湖西,2024-03-12,23.596314,119.67275,0.4506664
C0X050,東河,2024-03-12,23.296598,120.385608,0.5250817
C0X060,下營,2024-03-12,23.22695,120.256261,0.49748784
C0X080,佳里,2024-03-12,23.173039,120.145086,0.58661085
C0X100,臺南市北區,2024-03-12,23.010394,120.194228,0.75624704
C0X110,臺南市南區,2024-03-12,22.961189,120.188378,0.5712624
C0X120,麻豆,2024-03-12,23.183289,120.248611,0.47767174
C0X130,官田,2024-03-12,23.193217,120.315422,0.43774462
C0X140,西港,2024-03-12,23.125608,120.203108,0.38904467
C0X150,安定,2024-03-12,23.102614,120.227839,0.40983135
C0X160,仁德,2024-03-12,22.968258,120.257689,0.56810915
C0X170,關廟,2024-03-12,22.963017,120.327797,0.39830294
C0X180,山上,2024-03-12,23.0757,120.363253,0.36621436
C0X190,安平,2024-03-12,22.993161,120.152181,0.68879735
C0X200,左鎮,2024-03-12,23.056758,120.408522,0.47356114
C0X210,白河,2024-03-12,23.347466,120.414427,0.6437058
C0X220,學甲,2024-03-12,23.230367,120.182187,0.47449446
C0X230,鹽水,2024-03-12,23.272621,120.247641,0.52261066
C0X240,關子嶺,2024-03-12,23.331169,120.508025,0.25748363
C0X250,新營,2024-03-12,23.310689,120.316681,0.45813584
C0X260,後壁,2024-03-12,23.366358,120.362326,0.50275725
C0X280,將軍,2024-03-12,23.214999,120.13577,0.4351609
C0X290,北門,2024-03-12,23.267772,120.125481,0.42824492
C0X300,鹿寮,2024-03-12,23.386047,120.477331,0.7197262
C0X310,七股,2024-03-12,23.147289,120.086253,0.59247816
C0X320,柳營,2024-03-12,23.253328,120.375253,0.5000052
C0Z020,明里,2024-03-12,23.208717,121.262342,0.20148557
C0Z061,玉里,2024-03-12,23.3215,121.339656,0.4108902
C0Z070,舞鶴,2024-03-12,23.46811,121.37407,0.21696934
C0Z080,富源,2024-03-12,23.587642,121.378225,0.08509951
C0Z100,東華,2024-03-12,23.89525,121.549833,0.109845705
C0Z150,吉安光華,2024-03-12,23.930925,121.595153,0.25071636
C0Z160,鳳林,2024-03-12,23.746114,121.453411,0.120673
C0Z170,卓溪,2024-03-12,23.3443,121.3029,0.16487746
C0Z180,新城,2024-03-12,24.03946,121.60454,0.022394149
C0Z190,富世,2024-03-12,24.14743,121.6297,0.013835678
C0Z200,萬榮,2024-03-12,23.709219,121.420106,0.11351901
C0Z210,瑞穗,2024-03-12,23.5239,121.39021,0.25375816
C0Z230,和平,2024-03-12,24.30717,121.77007,0.034247093
C0Z270,蕃薯寮,2024-03-12,23.73835,121.540108,0.011702221
C0Z280,德武,2024-03-12,23.47426,121.41071,0.123672254
C0Z300,東里,2024-03-12,23.26853,121.30547,0.4477533
C0Z310,清水斷崖,2024-03-12,24.218294,121.689142,0.006492694
C0Z330,安通山,2024-03-12,23.290728,121.348528,0.04471483
C2E520,大湖,2024-03-12,24.414939,120.870872,0.03679135
C2E540,後龍,2024-03-12,24.606489,120.783933,0.0141970115
C2F000,大肚,2024-03-12,24.15295,120.572117,0.010638715
C2F930,大甲,2024-03-12,24.347667,120.640403,0.015848938
C2F9A0,中竹林,2024-03-12,24.103556,120.751061,0.09214808
C2G640,鹿港,2024-03-12,24.0753,120.430481,0.009573753
C2G840,北斗,2024-03-12,23.877586,120.514222,0.2519635
C2G870,芳苑,2024-03-12,23.922303,120.320025,0.024770789
C2H950,中寮,2024-03-12,23.884447,120.766406,0.21369943
C2M410,馬頭山,2024-03-12,23.324361,120.582017,0.57381916
C2O810,曾文,2024-03-12,23.219681,120.497328,0.6944822
C2O930,玉井,2024-03-12,23.126042,120.46055,0.40256953
C2O950,安南,2024-03-12,23.076694,120.144861,0.84743726
C2V250,甲仙,2024-03-12,23.080106,120.591758,0.6546144
C2V260,月眉,2024-03-12,22.971003,120.539853,0.3068511
C2W230,畜試所澎湖,2024-03-12,23.628342,119.513206,0.035919096
CAG100,王功漁港,2024-03-12,23.96824,120.32586,0.011126272
CAH030,茶改場竹圍站,2024-03-12,23.860083,120.637528,0.10249003
CAJ050,海口故事園區,2024-03-12,23.57543,120.14121,0.5189858
CAL110,布袋國中,2024-03-12,23.35893,120.18026,0.4020949
CAN130,水試所海水繁養殖中心,2024-03-12,23.120802,120.07968,0.861398
CAN140,六官養殖協會,2024-03-12,23.22881,120.29962,0.5376659
CAQ030,崎峰國小,2024-03-12,22.42565,120.49521,0.5110403
E2K600,四湖植物園,2024-03-12,23.676986,120.163433,0.24806301
E2P980,林試六龜中心,2024-03-12,22.991703,120.645722,0.49766085
E2S960,林試太麻里2,2024-03-12,22.598014,120.989761,0.36621964
E2S960,林試太麻里2,2024-03-12,22.598,120.99775,0.368023
E2S980,林試太麻里1,2024-03-12,22.598922,120.980044,0.32193682
G2AI50,關渡,2024-03-12,25.11575,121.492,0.014576283
G2F820,農業試驗所,2024-03-12,24.031261,120.688133,0.2812131
G2F820,農試所(霧峰),2024-03-12,24.031261,120.688133,0.2812131
G2L020,農試嘉義分所,2024-03-12,23.485028,120.473806,0.5146674
G2M350,農試溪口農場,2024-03-12,23.58565,120.408111,0.42123258
G2P820,農試鳳山分所,2024-03-12,22.646611,120.356083,0.7711358
K2E360,苗栗農改,2024-03-12,24.495722,120.829111,0.050897818
K2E360,苗栗農改場,2024-03-12,24.495722,120.829111,0.050897818
K2E710,苗改生物防治研究中心,2024-03-12,24.422861,120.871833,0.041148186
K2F750,種苗改良場,2024-03-12,24.225972,120.800917,0.05253268
K2F750,種苗繁殖,2024-03-12,24.225972,120.800917,0.05253268
U2HA50,臺大竹山,2024-03-12,23.756972,120.681556,0.37233883
V2C250,八德合作社,2024-03-12,24.93775,121.266389,0.012779042
V2C260,八德蔬果,2024-03-12,24.978508,121.281819,0.010557202
V2K610,大庄合作社,2024-03-12,23.8068,120.367939,0.06849366
V2K620,麥寮合作社,2024-03-12,23.753836,120.294783,0.06090796
