站號,站名,日期,lat,lon,BlastGRU-TW
12J990,口湖工作站,2025-06-16,23.589978,120.180394,0.30149716
12Q970,東港工作站,2025-06-16,22.479997,120.466058,0.98259556
12Q980,恆春工作站,2025-06-16,22.079678,120.714425,0.8726486
466881,新北,2025-06-16,24.959207,121.525196,0.052792724
466900,淡水,2025-06-16,25.164889,121.448906,0.06751179
466920,臺北,2025-06-16,25.037658,121.514853,0.021842107
466940,基隆,2025-06-16,25.133314,121.740475,0.06970405
466990,花蓮,2025-06-16,23.975128,121.613275,0.033802934
467050,新屋,2025-06-16,25.006725,121.047492,0.93800294
467080,宜蘭,2025-06-16,24.763975,121.756528,0.06765004
467270,田中,2025-06-16,23.873803,120.581286,0.027078224
467280,後龍,2025-06-16,24.648563,120.831834,0.8971544
467290,古坑,2025-06-16,23.633639,120.551889,0.026159426
467300,東吉島,2025-06-16,23.25727,119.66762,0.99860233
467350,澎湖,2025-06-16,23.565503,119.563094,0.8258926
467410,臺南,2025-06-16,22.99328,120.20492,0.022132162
467420,永康,2025-06-16,23.038386,120.2367,0.01695412
467441,高雄,2025-06-16,22.730432,120.312516,0.031194482
467480,嘉義,2025-06-16,23.495925,120.432906,0.027273372
467490,臺中,2025-06-16,24.145736,120.684075,0.2975613
467540,大武,2025-06-16,22.35572,120.90374,0.99429613
467571,新竹,2025-06-16,24.827853,121.014219,0.9438265
467590,恆春,2025-06-16,22.003897,120.746339,0.98041236
467610,成功,2025-06-16,23.097486,121.373428,0.014344924
467620,蘭嶼,2025-06-16,22.0369,121.55843,0.9995512
467660,臺東,2025-06-16,22.752211,121.154586,0.06988651
467790,墾丁雷達站,2025-06-16,21.948235,120.808028,0.9610838
72AI40,桃改樹林分場,2025-06-16,24.944503,121.386972,0.018207291
72C440,桃園農改場,2025-06-16,24.950944,121.030583,0.96124774
72D680,桃改新埔分場,2025-06-16,24.834444,121.066111,0.21147624
72G600,臺中農改場,2025-06-16,24.003028,120.534389,0.12270031
72K220,南改斗南分場,2025-06-16,23.634556,120.477333,0.058808025
72M360,南改義竹分場,2025-06-16,23.360694,120.279361,0.30311394
72M700,南改鹿草分場,2025-06-16,23.416869,120.283061,0.46540403
72N100,臺南農改場,2025-06-16,23.0605,120.342194,0.0116379615
72N240,七股研究中心,2025-06-16,23.081672,120.062894,0.90048236
72Q010,高雄農改場,2025-06-16,22.709333,120.525889,0.08569571
72S200,東改班鳩分場,2025-06-16,22.829528,121.077694,0.09778704
72S590,東改賓朗果園,2025-06-16,22.813889,121.071278,0.12157742
72T250,花蓮農改場,2025-06-16,23.975222,121.563889,0.038915258
72U480,花改蘭陽分場,2025-06-16,24.686306,121.716583,0.036499918
72V140,高改旗南分場,2025-06-16,22.857861,120.516667,0.010728384
82A750,茶改北部分場,2025-06-16,24.955778,121.631222,0.53739125
82C160,茶改場,2025-06-16,24.908472,121.185333,0.35684696
82H840,茶改南部分場,2025-06-16,23.762528,120.7405,0.0149414
82S580,茶改東部分場,2025-06-16,22.907694,121.130139,0.038080577
A2C560,農工中心,2025-06-16,24.985917,121.239833,0.099315464
A2K360,水試臺西試驗場,2025-06-16,23.717231,120.190522,0.086617716
A2K570,古坑花卉中心,2025-06-16,23.63353,120.55239,0.026159426
A2K630,臺大雲林校區,2025-06-16,23.730628,120.423903,0.058307003
A2N290,臺南蘭花園區,2025-06-16,23.340258,120.379661,0.02615351
B2E890,畜試北區分所,2025-06-16,24.527806,120.770972,0.881437
B2N890,畜產試驗所,2025-06-16,23.058972,120.336406,0.011645797
B2Q810,畜試南區分所,2025-06-16,21.945583,120.802167,0.96328664
B2U990,畜試東區分所,2025-06-16,24.669039,121.832561,0.026693478
C0A520,山佳,2025-06-16,24.974944,121.402008,0.045276728
C0A530,坪林,2025-06-16,24.938183,121.70975,0.17228176
C0A550,泰平,2025-06-16,24.971197,121.823711,0.5774711
C0A570,桶後,2025-06-16,24.848222,121.597992,0.83472055
C0A640,石碇,2025-06-16,24.993969,121.662917,0.27959204
C0A770,科教館,2025-06-16,25.096356,121.516507,0.021293804
C0A860,大坪,2025-06-16,25.165914,121.632969,0.96057683
C0A890,雙溪,2025-06-16,25.036003,121.864242,0.0445998
C0A931,三和,2025-06-16,25.233153,121.595236,0.20315331
C0A940,金山,2025-06-16,25.223628,121.643967,0.023804367
C0A950,鼻頭角,2025-06-16,25.129036,121.923372,0.35191652
C0A970,三貂角,2025-06-16,25.007606,122.002058,0.019912593
C0A980,社子,2025-06-16,25.109508,121.469681,0.056048445
C0A9C0,天母,2025-06-16,25.117494,121.537169,0.013771012
C0A9F0,內湖,2025-06-16,25.079422,121.57545,0.021842107
C0AC60,三峽,2025-06-16,24.939025,121.369728,0.018796822
C0AC70,信義,2025-06-16,25.037822,121.564597,0.022748526
C0AC80,文山,2025-06-16,25.00235,121.575728,0.08653992
C0ACA0,新莊,2025-06-16,25.051478,121.446756,0.02270017
C0AD10,八里,2025-06-16,25.150211,121.403947,0.04914163
C0AD30,蘆洲,2025-06-16,25.086594,121.472331,0.0211742
C0AD40,土城,2025-06-16,24.973208,121.445169,0.047819015
C0AD50,鶯歌,2025-06-16,24.951533,121.346294,0.019929878
C0AG80,中和,2025-06-16,24.991622,121.491792,0.047819015
C0AH00,汐止,2025-06-16,25.066881,121.658778,0.021842107
C0AH10,永和,2025-06-16,25.01125,121.508111,0.045782417
C0AH40,平等,2025-06-16,25.129142,121.577086,0.9766057
C0AH50,林口,2025-06-16,25.072181,121.38084,0.88600487
C0AH70,松山,2025-06-16,25.04871,121.55042,0.021842107
C0AH80,深坑,2025-06-16,25.002703,121.628328,0.08599138
C0AI00,五股,2025-06-16,25.07445,121.42728,0.39091942
C0AI10,屈尺,2025-06-16,24.92184,121.54475,0.018567795
C0AI20,白沙灣,2025-06-16,25.283128,121.519058,0.036424212
C0AI30,三重,2025-06-16,25.057328,121.500629,0.021883579
C0AI40,石牌,2025-06-16,25.115597,121.513139,0.013488152
C0AJ20,野柳,2025-06-16,25.20703,121.690021,0.02881072
C0AJ30,淡水觀海,2025-06-16,25.184591,121.408616,0.0204709
C0AJ40,石門,2025-06-16,25.273672,121.601198,0.16280736
C0AJ50,水湳洞,2025-06-16,25.123695,121.862238,0.086126484
C0AJ60,六塊厝,2025-06-16,25.24,121.4481,0.034347877
C0AJ70,田寮,2025-06-16,25.2698,121.4886,0.03532315
C0AJ80,板橋,2025-06-16,25.0107,121.4489,0.045782417
C0AJ90,澳底,2025-06-16,25.0552,121.9253,0.03426329
C0AK10,太平里,2025-06-16,25.134937,121.364899,0.05260277
C0B010,七堵,2025-06-16,25.094819,121.71713,0.03626618
C0B020,基隆嶼,2025-06-16,25.19141,121.78391,0.28665164
C0B040,大武崙,2025-06-16,25.166676,121.706993,0.097136654
C0B050,八斗子,2025-06-16,25.144754,121.79167,0.06562806
C0B060,暖暖,2025-06-16,25.0957,121.7403,0.048701495
C0C460,復興,2025-06-16,24.820208,121.352281,0.33922267
C0C480,桃園,2025-06-16,24.992425,121.323172,0.02898222
C0C490,八德,2025-06-16,24.928708,121.283289,0.027972663
C0C590,觀音,2025-06-16,25.027072,121.153317,0.86588514
C0C620,蘆竹,2025-06-16,25.084275,121.265767,0.15139227
C0C630,大溪,2025-06-16,24.882853,121.265547,0.04243044
C0C650,平鎮,2025-06-16,24.897503,121.214636,0.054261792
C0C660,楊梅,2025-06-16,24.912375,121.143047,0.1315659
C0C670,龍潭,2025-06-16,24.870056,121.221389,0.08848258
C0C680,龜山,2025-06-16,25.02846,121.38656,0.50611836
C0C700,中壢,2025-06-16,24.977661,121.256375,0.0388097
C0C710,大溪永福,2025-06-16,24.892936,121.324975,0.024422938
C0C720,竹圍,2025-06-16,25.112692,121.239824,0.0706647
C0C730,中大臨海站,2025-06-16,24.966126,121.008581,0.92104876
C0C740,觀音工業區,2025-06-16,25.064764,121.114856,0.88887775
C0C750,新興坑尾,2025-06-16,25.0061,121.0971,0.8767127
C0D430,峨眉,2025-06-16,24.6905,121.017189,0.91817796
C0D480,打鐵坑,2025-06-16,24.849664,121.150789,0.069621466
C0D540,橫山,2025-06-16,24.71116,121.11693,0.82655483
C0D560,竹東,2025-06-16,24.767147,121.057881,0.2772901
C0D580,寶山,2025-06-16,24.735006,121.025192,0.4947667
C0D590,新豐,2025-06-16,24.87068,120.97721,0.9943046
C0D650,湖口,2025-06-16,24.904794,121.043628,0.98227745
C0D660,新竹市東區,2025-06-16,24.798681,120.986942,0.8004711
C0D670,海天一線,2025-06-16,24.831986,120.914438,0.96601397
C0D680,香山濕地,2025-06-16,24.783581,120.914988,0.9182262
C0D690,外湖,2025-06-16,24.917735,120.968711,0.94749564
C0D700,關西,2025-06-16,24.7977,121.1732,0.23993577
C0E420,竹南,2025-06-16,24.708978,120.888897,0.9636002
C0E430,南庄,2025-06-16,24.601775,121.000214,0.88367844
C0E550,明德,2025-06-16,24.583486,120.885411,0.9301304
C0E570,白沙屯,2025-06-16,24.549447,120.696803,0.9340656
C0E590,通霄,2025-06-16,24.471892,120.704622,0.91043305
C0E730,頭份,2025-06-16,24.688247,120.912206,0.95835423
C0E740,造橋,2025-06-16,24.637056,120.864778,0.8833615
C0E750,苗栗,2025-06-16,24.564569,120.824575,0.91100967
C0E780,銅鑼,2025-06-16,24.489681,120.790853,0.9750412
C0E791,卓蘭,2025-06-16,24.3126,120.8244,0.99175686
C0E810,西湖,2025-06-16,24.562947,120.7485,0.9790533
C0E820,獅潭,2025-06-16,24.539133,120.920042,0.93775296
C0E830,苑裡,2025-06-16,24.439714,120.653053,0.8993897
C0E850,大河,2025-06-16,24.618069,120.948578,0.82825637
C0E870,高鐵苗栗,2025-06-16,24.60725,120.826094,0.884784
C0E910,海埔,2025-06-16,24.648767,120.772435,0.9345375
C0E920,通霄漁港,2025-06-16,24.498589,120.673876,0.89421695
C0E930,龍鳳,2025-06-16,24.700034,120.859125,0.93975574
C0F0B0,石岡,2025-06-16,24.276061,120.777644,0.9833505
C0F850,東勢,2025-06-16,24.246428,120.833047,0.9970025
C0F970,大坑,2025-06-16,24.173142,120.722289,0.37557787
C0F9I0,神岡,2025-06-16,24.272481,120.658314,0.9177516
C0F9K0,大安,2025-06-16,24.345061,120.588025,0.8003906
C0F9L0,后里,2025-06-16,24.310436,120.729725,0.95693606
C0F9M0,豐原,2025-06-16,24.254322,120.720692,0.93410146
C0F9N0,大里,2025-06-16,24.092464,120.701378,0.09234615
C0F9O0,潭子,2025-06-16,24.213106,120.703933,0.9533899
C0F9P0,清水,2025-06-16,24.312297,120.562242,0.691648
C0F9Q0,外埔,2025-06-16,24.347817,120.705686,0.83572036
C0F9R0,龍井,2025-06-16,24.184536,120.528972,0.3848047
C0F9S0,烏日,2025-06-16,24.107058,120.624103,0.07237581
C0F9T0,西屯,2025-06-16,24.179494,120.641275,0.1281257
C0F9U0,南屯,2025-06-16,24.137006,120.637969,0.10615757
C0F9X0,大雅(中科園區),2025-06-16,24.21528,120.62445,0.73217094
C0FA10,松柏,2025-06-16,24.429115,120.617482,0.8280471
C0FA20,溫寮,2025-06-16,24.372177,120.583125,0.727147
C0FA30,梧棲,2025-06-16,24.256003,120.523381,0.691648
C0FA40,臺中電廠,2025-06-16,24.2146,120.4907,0.491153
C0FA50,霧峰,2025-06-16,24.0419,120.6995,0.084181465
C0FB70,大甲溪埔,2025-06-16,24.370625,120.620067,0.8330176
C0G620,芬園,2025-06-16,24.015678,120.6213,0.17273052
C0G650,員林,2025-06-16,23.946503,120.585597,0.10862585
C0G660,溪湖,2025-06-16,23.94835,120.479122,0.21078607
C0G720,溪州,2025-06-16,23.851589,120.499093,0.074796766
C0G730,二林,2025-06-16,23.903325,120.376081,0.22698317
C0G740,大城,2025-06-16,23.852487,120.320935,0.49761283
C0G770,福興,2025-06-16,24.041289,120.437669,0.42240492
C0G780,秀水,2025-06-16,24.03405,120.503869,0.12249141
C0G800,埔鹽,2025-06-16,24.000394,120.431683,0.42382088
C0G810,埔心,2025-06-16,23.947633,120.525456,0.23238704
C0G820,田尾,2025-06-16,23.901669,120.509389,0.11637659
C0G830,埤頭,2025-06-16,23.866003,120.452806,0.069854
C0G860,社頭,2025-06-16,23.897647,120.5862,0.026268989
C0G880,二水,2025-06-16,23.810742,120.6173,0.026804056
C0G890,伸港,2025-06-16,24.148933,120.484403,0.36073798
C0G900,線西,2025-06-16,24.143358,120.443536,0.3574746
C0G910,花壇,2025-06-16,24.032076,120.549461,0.1412946
C0G920,永靖,2025-06-16,23.924703,120.547533,0.11637659
C0G940,竹塘,2025-06-16,23.848253,120.386764,0.1201039
C0G950,防潮門,2025-06-16,24.1835,120.4871,0.3848047
C0G960,福寶,2025-06-16,24.0443,120.3814,0.3860584
C0G970,三豐,2025-06-16,23.882,120.2895,0.80858666
C0G9B0,和美,2025-06-16,24.105169,120.492131,0.42305312
C0H890,埔里,2025-06-16,23.972169,120.952425,0.053549256
C0H960,草屯,2025-06-16,23.973672,120.68085,0.16688663
C0I110,竹山,2025-06-16,23.761225,120.688156,0.05367144
C0I360,水里,2025-06-16,23.812553,120.849792,0.010770786
C0I380,集集,2025-06-16,23.828206,120.801467,0.010738172
C0I410,名間,2025-06-16,23.837053,120.701447,0.057599943
C0I420,國姓,2025-06-16,24.037803,120.855072,0.06726694
C0I460,南投,2025-06-16,23.911469,120.687331,0.022904804
C0K250,崙背,2025-06-16,23.75555,120.318925,0.031232923
C0K280,四湖,2025-06-16,23.630414,120.227125,0.07247879
C0K291,宜梧,2025-06-16,23.536281,120.169329,0.07944487
C0K330,虎尾,2025-06-16,23.719183,120.442036,0.052036628
C0K390,土庫,2025-06-16,23.679029,120.395574,0.031064663
C0K400,斗六,2025-06-16,23.720583,120.541127,0.049323995
C0K410,北港,2025-06-16,23.573957,120.292802,0.050619856
C0K420,西螺,2025-06-16,23.800407,120.467394,0.043883815
C0K430,褒忠,2025-06-16,23.690938,120.303634,0.03139521
C0K440,二崙,2025-06-16,23.772797,120.408944,0.047584467
C0K450,大埤,2025-06-16,23.646074,120.431537,0.059463352
C0K460,斗南,2025-06-16,23.678734,120.478359,0.058808025
C0K470,林內,2025-06-16,23.748675,120.609642,0.016176473
C0K480,莿桐,2025-06-16,23.761192,120.502372,0.035658225
C0K500,元長,2025-06-16,23.64981,120.315024,0.026265861
C0K510,水林,2025-06-16,23.572924,120.24597,0.047979433
C0K530,臺西,2025-06-16,23.701547,120.197559,0.09575531
C0K550,蔦松,2025-06-16,23.514319,120.229736,0.07944487
C0K560,棋山,2025-06-16,23.68645,120.603417,0.028598243
C0K580,高鐵雲林,2025-06-16,23.737456,120.417944,0.058307003
C0K590,雲林東勢,2025-06-16,23.674192,120.255721,0.039418258
C0K600,箔子寮,2025-06-16,23.6197,120.14,0.30149716
C0M520,東後寮,2025-06-16,23.369908,120.248065,0.30152473
C0M640,中埔,2025-06-16,23.42538,120.5229,0.037106335
C0M650,朴子,2025-06-16,23.43463,120.23902,0.46948665
C0M660,溪口,2025-06-16,23.604131,120.403569,0.040638495
C0M670,大林,2025-06-16,23.600616,120.45841,0.04195864
C0M680,太保,2025-06-16,23.455062,120.331455,0.02652681
C0M690,水上,2025-06-16,23.419734,120.388909,0.025605446
C0M700,竹崎,2025-06-16,23.526178,120.555508,0.16602877
C0M710,東石,2025-06-16,23.458927,120.15385,0.10136413
C0M720,番路,2025-06-16,23.464657,120.554156,0.0742405
C0M730,嘉義市東區,2025-06-16,23.457673,120.460531,0.024007171
C0M740,六腳,2025-06-16,23.492871,120.290625,0.048848394
C0M750,布袋,2025-06-16,23.380878,120.167789,0.059133016
C0M760,民雄,2025-06-16,23.551754,120.428457,0.05162948
C0M770,嘉義梅山,2025-06-16,23.585398,120.555587,0.16028559
C0M780,鹿草,2025-06-16,23.41134,120.30835,0.47850975
C0M790,新港,2025-06-16,23.553269,120.345728,0.031752255
C0M800,茶山,2025-06-16,23.299075,120.664767,0.06746599
C0M880,好美里,2025-06-16,23.3364,120.138,0.07409445
C0N010,鯤鯓國小,2025-06-16,23.1879,120.0889,0.84758955
C0N020,城西,2025-06-16,23.0568,120.0956,0.3820796
C0N030,四草,2025-06-16,23.0235,120.1116,0.3654358
C0N040,蘆竹溝,2025-06-16,23.2344,120.0961,0.9599528
C0N050,蚵寮,2025-06-16,23.301,120.1104,0.9821712
C0O830,北寮,2025-06-16,23.079561,120.495008,0.014827992
C0O840,王爺宮,2025-06-16,23.222064,120.40085,0.025367951
C0O860,大內,2025-06-16,23.11885,120.36083,0.011075028
C0O900,善化,2025-06-16,23.112883,120.297219,0.017915398
C0O960,崎頂,2025-06-16,22.959547,120.369317,0.013886681
C0O970,虎頭埤,2025-06-16,23.021375,120.347878,0.009634203
C0O980,新市,2025-06-16,23.061614,120.298197,0.011321165
C0O990,媽廟,2025-06-16,22.99175,120.293525,0.01792343
C0R150,三地門,2025-06-16,22.709889,120.639944,0.50157803
C0R160,鹽埔,2025-06-16,22.739558,120.530778,0.08569571
C0R190,赤山,2025-06-16,22.592333,120.614306,0.052271955
C0R220,潮州,2025-06-16,22.534361,120.54,0.97735965
C0R240,來義,2025-06-16,22.527306,120.625111,0.9843737
C0R260,春日,2025-06-16,22.370361,120.628306,0.6919196
C0R270,琉球嶼,2025-06-16,22.332244,120.362236,0.9882753
C0R280,檳榔,2025-06-16,22.076078,120.836777,0.9493194
C0R320,車城,2025-06-16,22.0744,120.716247,0.8726486
C0R341,牡丹,2025-06-16,22.130036,120.792639,0.95053285
C0R350,貓鼻頭,2025-06-16,21.921774,120.7358,0.96609265
C0R470,高樹,2025-06-16,22.826389,120.600806,0.03465953
C0R480,長治,2025-06-16,22.693128,120.542622,0.027669262
C0R490,九如,2025-06-16,22.7405,120.490503,0.07996787
C0R520,崁頂,2025-06-16,22.514781,120.506914,0.97752243
C0R540,佳冬,2025-06-16,22.419456,120.552375,0.62918043
C0R550,新埤,2025-06-16,22.467947,120.582894,0.99204683
C0R560,新園,2025-06-16,22.5434,120.461558,0.98525894
C0R570,麟洛,2025-06-16,22.65078,120.52719,0.09142105
C0R580,南州,2025-06-16,22.48591,120.50274,0.98259556
C0R590,里港,2025-06-16,22.77919,120.49459,0.021075156
C0R620,墾雷,2025-06-16,21.900836,120.855269,0.99754035
C0R640,東港,2025-06-16,22.46247,120.44074,0.98259556
C0R650,竹田,2025-06-16,22.58486,120.54344,0.2081251
C0R660,枋寮,2025-06-16,22.367722,120.590647,0.630007
C0R670,楓港,2025-06-16,22.190131,120.692156,0.97365236
C0R680,佳樂水,2025-06-16,21.993578,120.861633,0.9631093
C0R690,墾丁,2025-06-16,21.966756,120.810269,0.89620626
C0R700,枋山,2025-06-16,22.246844,120.661086,0.045251776
C0R710,龍磐,2025-06-16,21.931672,120.838942,0.9707155
C0R720,旭海,2025-06-16,22.205403,120.887614,0.97908586
C0R730,大坪頂,2025-06-16,22.024633,120.69355,0.87451977
C0R741,獅子,2025-06-16,22.202308,120.705236,0.98978746
C0R760,南仁湖,2025-06-16,22.084681,120.863353,0.9280396
C0R770,保力,2025-06-16,22.071122,120.764111,0.92918396
C0R780,滿州,2025-06-16,22.024403,120.839892,0.9789869
C0R790,九棚,2025-06-16,22.14195,120.889281,0.97099566
C0R800,丹路,2025-06-16,22.204481,120.750989,0.9852962
C0R810,內獅,2025-06-16,22.305064,120.642986,0.4747987
C0R830,高士,2025-06-16,22.121825,120.836781,0.9256309
C0R850,林邊,2025-06-16,22.4634,120.5339,0.98246336
C0R860,鼻頭,2025-06-16,22.1043,120.8979,0.96624625
C0R870,興海,2025-06-16,21.9752,120.8439,0.96328664
C0R880,後壁湖,2025-06-16,21.9457,120.7457,0.94075966
C0R890,山海,2025-06-16,21.9878,120.7091,0.93883824
C0R900,竹坑,2025-06-16,22.1385,120.7022,0.86837965
C0R910,下寮,2025-06-16,22.3929,120.5548,0.630007
C0R920,塭仔,2025-06-16,22.4169,120.5197,0.6210074
C0R930,萬丹,2025-06-16,22.5885,120.4851,0.26283535
C0R940,加祿堂,2025-06-16,22.3363,120.6217,0.6481592
C0R950,萬隆國小,2025-06-16,22.507667,120.587817,0.97171193
C0R960,內埔,2025-06-16,22.608483,120.570714,0.22772321
C0S710,鹿野,2025-06-16,22.917711,121.122994,0.027889417
C0S730,綠島,2025-06-16,22.6672,121.47533,0.98978806
C0S740,池上,2025-06-16,23.119628,121.209469,0.23264165
C0S770,大溪山,2025-06-16,22.478475,120.943325,0.0665655
C0S790,金崙,2025-06-16,22.538122,120.966875,0.007991521
C0S810,東河,2025-06-16,22.972672,121.303986,0.018263573
C0S830,長濱,2025-06-16,23.286817,121.411975,0.021373127
C0S840,南田,2025-06-16,22.279725,120.889208,0.99724704
C0S890,關山,2025-06-16,23.0395,121.175017,0.014808967
C0S900,蘭嶼高中,2025-06-16,22.04909,121.51214,0.9994867
C0S910,蘭嶼燈塔,2025-06-16,22.081197,121.503117,0.99953526
C0S920,金峰嘉蘭,2025-06-16,22.594789,120.960825,0.0073324386
C0S930,延平,2025-06-16,22.902581,121.084058,0.04540371
C0S940,石寧山,2025-06-16,23.223772,121.406639,0.01150156
C0S950,七塊厝,2025-06-16,22.954453,121.229922,0.02192392
C0S960,香蘭,2025-06-16,22.587569,120.993375,0.007816396
C0S970,加津林,2025-06-16,22.416211,120.926942,0.9942906
C0S990,山豬窟,2025-06-16,22.318619,120.857372,0.20890613
C0SA00,歷坵,2025-06-16,22.520969,120.89185,0.014055001
C0SA10,檳榔四格山,2025-06-16,22.810031,121.109308,0.7446997
C0SA30,都歷,2025-06-16,23.020333,121.323642,0.009621141
C0SA40,瑞和,2025-06-16,22.974361,121.156697,0.012077289
C0SA60,知本（水試所）,2025-06-16,22.702394,121.082761,0.008466573
C0SA80,土坂,2025-06-16,22.453108,120.887572,0.021895943
C0SA90,達仁林場,2025-06-16,22.264347,120.823972,0.70518726
C0SB10,美和,2025-06-16,22.682078,121.060236,0.008438902
C0SB20,富岡,2025-06-16,22.792467,121.192669,0.08440727
C0SB30,新蘭,2025-06-16,22.869214,121.223228,0.02672541
C0SB40,興隆,2025-06-16,22.913661,121.257469,0.02775148
C0SB50,叭嗡嗡,2025-06-16,23.047062,121.343223,0.008593086
C0SB60,白守蓮,2025-06-16,23.126769,121.401914,0.012716259
C0SB70,小港漁港,2025-06-16,23.158558,121.400431,0.019205086
C0SB80,長濱漁港,2025-06-16,23.313644,121.459994,0.011610908
C0T870,鯉魚潭,2025-06-16,23.935639,121.508944,0.034544755
C0T900,西林,2025-06-16,23.8119,121.441458,0.027840534
C0T960,光復,2025-06-16,23.660694,121.424964,0.048699245
C0T9A0,月眉山,2025-06-16,23.809928,121.539828,0.9209612
C0T9D0,和中,2025-06-16,24.26676,121.74103,0.027126905
C0T9E0,大坑,2025-06-16,23.880628,121.581981,0.5571823
C0T9F0,水璉,2025-06-16,23.797131,121.542514,0.05090198
C0T9I0,豐濱,2025-06-16,23.583897,121.514806,0.04278988
C0T9M0,靜浦,2025-06-16,23.455167,121.495028,0.031110255
C0T9N0,富里,2025-06-16,23.171639,121.249378,0.37343624
C0TA10,花蓮漁港,2025-06-16,23.995322,121.638331,0.031184148
C0TA20,加灣,2025-06-16,24.082025,121.608944,0.967549
C0TA30,鹽寮,2025-06-16,23.845606,121.592664,0.023425583
C0TA50,和仁,2025-06-16,24.241394,121.712472,0.9677326
C0U600,礁溪,2025-06-16,24.817539,121.765608,0.012906993
C0U650,玉蘭,2025-06-16,24.675286,121.587061,0.9773272
C0U750,龜山島,2025-06-16,24.841667,121.953133,0.9649034
C0U760,東澳,2025-06-16,24.52196,121.83318,0.04249173
C0U770,南澳,2025-06-16,24.44935,121.81022,0.96625954
C0U780,五結,2025-06-16,24.68637,121.79794,0.03412705
C0U860,頭城,2025-06-16,24.85323,121.8308,0.0128409285
C0U870,大礁溪,2025-06-16,24.791042,121.675047,0.9711928
C0U880,北關,2025-06-16,24.9072,121.8734,0.011432914
C0U890,三星,2025-06-16,24.66812,121.65302,0.011454653
C0U900,內城,2025-06-16,24.71813,121.68766,0.03849517
C0U910,冬山,2025-06-16,24.63373,121.7937,0.026693478
C0U940,羅東,2025-06-16,24.68184,121.74934,0.035537336
C0U970,大福,2025-06-16,24.80064,121.81389,0.064532645
C0U990,員山,2025-06-16,24.74435,121.72247,0.034831528
C0UA00,土場,2025-06-16,24.576533,121.495333,0.3317231
C0UA80,大溪漁港,2025-06-16,24.941801,121.902955,0.0135873575
C0UA90,石城,2025-06-16,24.980444,121.951214,0.015335374
C0UB00,淡江大學蘭陽校園,2025-06-16,24.823239,121.730383,0.941138
C0UB10,蘇澳,2025-06-16,24.5969,121.8571,0.011750812
C0UB20,壯圍,2025-06-16,24.7359,121.8163,0.034219943
C0V350,溪埔,2025-06-16,22.738578,120.446797,0.016855128
C0V360,內門,2025-06-16,22.975481,120.466769,0.014092337
C0V370,古亭坑,2025-06-16,22.893178,120.401947,0.022572083
C0V400,阿公店,2025-06-16,22.804194,120.355528,0.017126335
C0V440,鳳山,2025-06-16,22.646653,120.356122,0.98740077
C0V450,鳳森,2025-06-16,22.545064,120.392592,0.9844319
C0V490,新興,2025-06-16,22.627422,120.298803,0.9094254
C0V530,阿蓮,2025-06-16,22.883208,120.327508,0.015728774
C0V610,梓官,2025-06-16,22.760558,120.267211,0.9544271
C0V620,永安,2025-06-16,22.82315,120.236856,0.9812286
C0V630,茄萣,2025-06-16,22.906642,120.182608,0.48726988
C0V640,湖內,2025-06-16,22.887139,120.2445,0.847622
C0V650,彌陀,2025-06-16,22.783806,120.246361,0.9808866
C0V660,岡山,2025-06-16,22.797078,120.294958,0.9808866
C0V680,仁武,2025-06-16,22.701083,120.347722,0.10364826
C0V690,鼓山,2025-06-16,22.623325,120.275575,0.9094254
C0V700,三民,2025-06-16,22.645017,120.311233,0.98871404
C0V710,苓雅,2025-06-16,22.622742,120.330669,0.9587169
C0V720,林園,2025-06-16,22.507747,120.394511,0.26243564
C0V730,大寮,2025-06-16,22.605614,120.395717,0.962205
C0V740,旗山,2025-06-16,22.888614,120.483597,0.010804867
C0V750,路竹,2025-06-16,22.854997,120.259439,0.86208916
C0V760,橋頭,2025-06-16,22.757806,120.30575,0.9544271
C0V770,大社,2025-06-16,22.730306,120.346639,0.031194482
C0V790,萬山,2025-06-16,22.905944,120.688056,0.19405508
C0V800,六龜,2025-06-16,22.997889,120.633583,0.08066058
C0V810,左營,2025-06-16,22.67491,120.28491,0.98871404
C0V820,小林,2025-06-16,23.148408,120.63325,0.042449113
C0V840,鳳鼻頭,2025-06-16,22.5083,120.3591,0.98509485
C0V850,蚵仔寮,2025-06-16,22.7256,120.2527,0.9482411
C0V860,南寮,2025-06-16,22.7616,120.2339,0.9482411
C0V870,文安,2025-06-16,22.8025,120.2164,0.9806125
C0V880,興達,2025-06-16,22.8778,120.2127,0.83283734
C0V890,前鎮,2025-06-16,22.5718,120.3117,0.8975049
C0V900,汕尾,2025-06-16,22.4782,120.4151,0.98259556
C0V910,大樹,2025-06-16,22.684645,120.432803,0.86630625
C0W200,湖西,2025-06-16,23.596314,119.67275,0.71139616
C0X050,東河,2025-06-16,23.296598,120.385608,0.020567784
C0X060,下營,2025-06-16,23.22695,120.256261,0.024990285
C0X080,佳里,2025-06-16,23.173039,120.145086,0.84758955
C0X100,臺南市北區,2025-06-16,23.010394,120.194228,0.020915974
C0X110,臺南市南區,2025-06-16,22.961189,120.188378,0.02020518
C0X120,麻豆,2025-06-16,23.183289,120.248611,0.1632022
C0X130,官田,2025-06-16,23.193217,120.315422,0.011386187
C0X140,西港,2025-06-16,23.125608,120.203108,0.05362281
C0X150,安定,2025-06-16,23.102614,120.227839,0.05362281
C0X160,仁德,2025-06-16,22.968258,120.257689,0.020213664
C0X170,關廟,2025-06-16,22.963017,120.327797,0.0120073445
C0X180,山上,2025-06-16,23.0757,120.363253,0.0105877025
C0X190,安平,2025-06-16,22.993161,120.152181,0.3794462
C0X200,左鎮,2025-06-16,23.056758,120.408522,0.009634016
C0X210,白河,2025-06-16,23.347466,120.414427,0.014646662
C0X220,學甲,2025-06-16,23.230367,120.182187,0.96310586
C0X230,鹽水,2025-06-16,23.272621,120.247641,0.055031765
C0X240,關子嶺,2025-06-16,23.331169,120.508025,0.08649835
C0X250,新營,2025-06-16,23.310689,120.316681,0.028785553
C0X260,後壁,2025-06-16,23.366358,120.362326,0.02615351
C0X280,將軍,2025-06-16,23.214999,120.13577,0.9599528
C0X290,北門,2025-06-16,23.267772,120.125481,0.9599528
C0X300,鹿寮,2025-06-16,23.386047,120.477331,0.015438433
C0X320,柳營,2025-06-16,23.253328,120.375253,0.015207762
C0Z020,明里,2025-06-16,23.208717,121.262342,0.017092079
C0Z061,玉里,2025-06-16,23.3215,121.339656,0.013315979
C0Z070,舞鶴,2025-06-16,23.46811,121.37407,0.12725838
C0Z080,富源,2025-06-16,23.587642,121.378225,0.003649479
C0Z100,東華,2025-06-16,23.89525,121.549833,0.024513718
C0Z150,吉安光華,2025-06-16,23.930925,121.595153,0.022153875
C0Z160,鳳林,2025-06-16,23.746114,121.453411,0.0118323015
C0Z170,卓溪,2025-06-16,23.3443,121.3029,0.024654027
C0Z180,新城,2025-06-16,24.040486,121.604878,0.035249364
C0Z190,富世,2025-06-16,24.14743,121.6297,0.96981275
C0Z200,萬榮,2025-06-16,23.709219,121.420106,0.012848824
C0Z210,瑞穗,2025-06-16,23.5239,121.39021,0.047075745
C0Z230,和平,2025-06-16,24.30717,121.77007,0.024690943
C0Z270,蕃薯寮,2025-06-16,23.73835,121.540108,0.039539367
C0Z280,德武,2025-06-16,23.47426,121.41071,0.04830845
C0Z300,東里,2025-06-16,23.26853,121.30547,0.0130700655
C0Z310,清水斷崖,2025-06-16,24.218294,121.689142,0.9453631
C0Z330,安通山,2025-06-16,23.290728,121.348528,0.76270896
C2A540,四堵,2025-06-16,24.8926,121.745736,0.66846967
C2A560,福山,2025-06-16,24.776203,121.502811,0.5189339
C2A650,火燒寮,2025-06-16,25.002719,121.742892,0.073411524
C2A660,瑞芳,2025-06-16,25.113169,121.801147,0.36209542
C2A880,福隆,2025-06-16,25.017842,121.942083,0.015017111
C2A920,富貴角,2025-06-16,25.263783,121.565258,0.40941554
C2C410,中央大學,2025-06-16,24.967652,121.185165,0.47274876
C2D720,關西工作站,2025-06-16,24.757275,121.184792,0.348565
C2D730,寶山農場,2025-06-16,24.732444,120.976153,0.91694796
C2E520,大湖,2025-06-16,24.414939,120.870872,0.98568875
C2E540,龍溪,2025-06-16,24.606489,120.783933,0.9431068
C2E970,八甲,2025-06-16,24.535811,120.795983,0.98807544
C2F000,大肚,2025-06-16,24.15295,120.572117,0.9486561
C2F930,大甲,2025-06-16,24.347667,120.640403,0.95257604
C2F9A0,中竹林,2025-06-16,24.103556,120.751061,0.86481136
C2G640,鹿港,2025-06-16,24.0753,120.430481,0.3860584
C2G840,北斗,2025-06-16,23.877586,120.514222,0.07463555
C2G870,芳苑,2025-06-16,23.922303,120.320025,0.70902866
C2G980,田頭村,2025-06-16,23.8263,120.444175,0.05297779
C2G9A0,畜試所彰化,2025-06-16,23.86045,120.557964,0.034321442
C2H950,中寮,2025-06-16,23.884447,120.766406,0.029628353
C2H9F0,柑林,2025-06-16,24.018658,120.847072,0.043413725
C2H9H0,苗改南投蜂場,2025-06-16,23.852589,120.693481,0.04901925
C2H9T0,名間竹圍,2025-06-16,23.859914,120.637572,0.014407962
C2H9U0,鳳鵬,2025-06-16,23.763919,120.788061,0.012512085
C2K620,馬光農場,2025-06-16,23.721453,120.378864,0.055239428
C2K630,荷苞,2025-06-16,23.657717,120.595144,0.039640643
C2M410,馬頭山,2025-06-16,23.324361,120.582017,0.029673772
C2M910,嘉義大學,2025-06-16,23.471325,120.485903,0.030061893
C2M920,朴子農改,2025-06-16,23.469889,120.259383,0.0640254
C2N160,西拉雅風管處,2025-06-16,23.189481,120.335297,0.011606062
C2O810,曾文,2025-06-16,23.219681,120.497328,0.010912189
C2O930,玉井,2025-06-16,23.126042,120.46055,0.012627899
C2O950,安南,2025-06-16,23.076694,120.144861,0.9089272
C2R170,屏東,2025-06-16,22.66027,120.49403,0.09142105
C2R970,屏科大,2025-06-16,22.648275,120.619247,0.37955052
C2V250,甲仙,2025-06-16,23.080106,120.591758,0.01777267
C2V260,月眉,2025-06-16,22.971003,120.539853,0.015087629
C2V310,美濃,2025-06-16,22.898792,120.51907,0.010728384
C2W230,畜試所澎湖,2025-06-16,23.628342,119.513206,0.89842504
CAG100,王功漁港,2025-06-16,23.96824,120.32586,0.72121555
CAH030,茶改場竹圍站,2025-06-16,23.860083,120.637528,0.014407962
CAJ050,海口故事園區,2025-06-16,23.57543,120.14121,0.30041015
CAL110,布袋國中,2025-06-16,23.35893,120.18026,0.059133016
CAN130,水試所海水繁養殖中心,2025-06-16,23.120802,120.07968,0.90048236
CAN140,六官養殖協會,2025-06-16,23.22881,120.29962,0.024990285
CAQ030,崎峰國小,2025-06-16,22.42565,120.49521,0.98259556
E2K600,四湖植物園,2025-06-16,23.676986,120.163433,0.07247879
E2P980,林試六龜中心,2025-06-16,22.991703,120.645722,0.087571464
E2S960,林試太麻里2,2025-06-16,22.598,120.99775,0.007869291
E2S980,林試太麻里1,2025-06-16,22.598922,120.980044,0.0073655914
G2AI50,關渡,2025-06-16,25.11575,121.492,0.06137769
G2F820,農試所(霧峰),2025-06-16,24.031261,120.688133,0.08036724
G2L020,農試嘉義分所,2025-06-16,23.485028,120.473806,0.076425724
G2M350,農試溪口農場,2025-06-16,23.58565,120.408111,0.040638495
G2P820,農試鳳山分所,2025-06-16,22.646611,120.356083,0.98740077
K2E360,苗栗農改場,2025-06-16,24.495722,120.829111,0.9238188
K2E710,苗改生物防治研究中心,2025-06-16,24.422861,120.871833,0.97765577
K2F750,種苗改良場,2025-06-16,24.225972,120.800917,0.93895584
U2HA50,臺大竹山,2025-06-16,23.756972,120.681556,0.018957734
V2C250,八德合作社,2025-06-16,24.93775,121.266389,0.027202686
V2C260,八德蔬果,2025-06-16,24.978508,121.281819,0.0283207
V2K610,大庄合作社,2025-06-16,23.8068,120.367939,0.045626715
V2K620,麥寮合作社,2025-06-16,23.753836,120.294783,0.031326383
