站號,站名,日期,lat,lon,BLBTSLS
C0R710,龍磐,2025-04-27,21.931672,120.838942,4.8478556e-05
C1F9D1,白毛台,2025-04-27,24.158325,120.886933,6.18398e-08
C0G940,竹塘,2025-04-27,23.848253,120.386764,2.2450392e-06
467590,恆春,2025-04-27,22.003897,120.746339,1.1192236e-05
C1O850,環湖,2025-04-27,23.148617,120.418633,3.1382395e-05
C0U710,太平山,2025-04-27,24.505486,121.525656,1.4322797e-09
C0E820,獅潭,2025-04-27,24.539133,120.920042,2.0272807e-08
C0V880,興達,2025-04-27,22.8778,120.2127,0.9901897
C0S890,關山,2025-04-27,23.0395,121.175017,0.0035407247
C0SB30,新蘭,2025-04-27,22.869214,121.223228,0.024672722
C2R970,屏科大,2025-04-27,22.648275,120.619247,0.99963605
C1Z130,銅門,2025-04-27,23.965694,121.492842,0.42430267
C0AD40,土城,2025-04-27,24.973208,121.445169,5.131953e-08
CAN140,六官養殖協會,2025-04-27,23.22881,120.29962,0.89134115
C0X180,山上,2025-04-27,23.0757,120.363253,0.9980701
C0F9Z0,雪山東峰,2025-04-27,24.388792,121.268675,1.2135777e-08
C1M480,獨立山,2025-04-27,23.537022,120.607797,2.5180686e-08
C0X220,學甲,2025-04-27,23.230367,120.182187,0.011415227
467650,日月潭,2025-04-27,23.881325,120.90805,5.583687e-10
C0K600,箔子寮,2025-04-27,23.6197,120.14,4.3101824e-07
C0G830,埤頭,2025-04-27,23.866003,120.452806,0.0001279057
C0S950,七塊厝,2025-04-27,22.954453,121.229922,0.00032147975
467110,金門,2025-04-27,24.407306,118.289281,5.2946136e-09
C0AH80,深坑,2025-04-27,25.002703,121.628328,3.434408e-08
C0A970,三貂角,2025-04-27,25.007606,122.002058,0.007073789
C2D730,寶山農場,2025-04-27,24.732444,120.976153,6.5040697e-09
C0K430,褒忠,2025-04-27,23.690938,120.303634,8.259141e-06
467480,嘉義,2025-04-27,23.495925,120.432906,8.6201516e-07
C0V400,阿公店,2025-04-27,22.804194,120.355528,0.015313681
467550,玉山,2025-04-27,23.48718,120.95943,5.8846776e-08
C0R440,大漢山,2025-04-27,22.405264,120.753181,1.6833301e-09
C0K280,四湖,2025-04-27,23.630414,120.227125,6.8048955e-08
C1F9B1,桐林,2025-04-27,24.066172,120.735194,6.6456687e-07
C2H9U0,鳳鵬,2025-04-27,23.763919,120.788061,4.024336e-09
C0K390,土庫,2025-04-27,23.679029,120.395574,0.0006447721
C1I450,望鄉山,2025-04-27,23.594153,120.944286,3.5492853e-08
C0E910,海埔,2025-04-27,24.648767,120.772435,1.12970326e-07
B2E890,畜試北區分所,2025-04-27,24.527806,120.770972,7.324807e-07
C0R750,四林格山,2025-04-27,22.076989,120.802439,9.981395e-10
C0F0C0,中坑,2025-04-27,24.248517,120.903319,3.5405274e-09
C1I121,大鞍,2025-04-27,23.678381,120.760017,6.039248e-10
72U480,花改蘭陽分場,2025-04-27,24.686306,121.716583,0.034024898
C0A770,科教館,2025-04-27,25.096356,121.516507,6.0844954e-08
C0AJ60,六塊厝,2025-04-27,25.24,121.4481,1.5552716e-08
C0R620,墾雷,2025-04-27,21.900836,120.855269,5.031089e-05
467420,永康,2025-04-27,23.038386,120.2367,0.99256504
C0I410,名間,2025-04-27,23.837053,120.701447,5.0888023e-08
A2C560,農工中心,2025-04-27,24.985917,121.239833,5.809982e-10
C0V740,旗山,2025-04-27,22.888614,120.483597,0.00032061877
C0Z061,玉里,2025-04-27,23.3215,121.339656,0.002836523
C0S840,南田,2025-04-27,22.279725,120.889208,0.99878067
C1I470,杉林溪,2025-04-27,23.639517,120.786444,7.506753e-10
C1X040,東原,2025-04-27,23.291597,120.463822,0.9876223
C0R660,枋寮,2025-04-27,22.367722,120.590647,0.99891764
C1R120,上德文,2025-04-27,22.763272,120.704442,0.0006698303
C0K450,大埤,2025-04-27,23.646074,120.431537,0.042576246
C0UA00,土場,2025-04-27,24.576533,121.495333,2.310283e-05
467080,宜蘭,2025-04-27,24.763975,121.756528,0.02518076
C0N030,四草,2025-04-27,23.0235,120.1116,0.98948526
467410,臺南,2025-04-27,22.99328,120.20492,0.9920888
C0V650,彌陀,2025-04-27,22.783806,120.246361,0.8491071
C0D660,新竹市東區,2025-04-27,24.798681,120.986942,2.4061148e-08
82S580,茶改東部分場,2025-04-27,22.907694,121.130139,0.0038808489
C0SB40,興隆,2025-04-27,22.913661,121.257469,0.018829733
467050,新屋,2025-04-27,25.006725,121.047492,6.005374e-10
C0C710,大溪永福,2025-04-27,24.892936,121.324975,3.53832e-09
C0FA20,溫寮,2025-04-27,24.372177,120.583125,2.3137652e-06
C0V640,湖內,2025-04-27,22.887139,120.2445,0.9902052
C0R910,下寮,2025-04-27,22.3929,120.5548,0.99891764
C0Z020,明里,2025-04-27,23.208717,121.262342,0.0017329133
C0M770,嘉義梅山,2025-04-27,23.585398,120.555587,0.98995703
C0C660,楊梅,2025-04-27,24.912375,121.143047,6.5597316e-10
C1E511,新開,2025-04-27,24.347703,120.827019,0.00023950113
G2F820,農試所(霧峰),2025-04-27,24.031261,120.688133,2.0715438e-06
C1I070,和社,2025-04-27,23.591131,120.888861,3.5663632e-07
C2F000,大肚,2025-04-27,24.15295,120.572117,0.0036509011
C1S850,豐南,2025-04-27,23.122139,121.262389,1.6802373e-05
C2A920,富貴角,2025-04-27,25.263783,121.565258,3.4612235e-09
CAH030,茶改場竹圍站,2025-04-27,23.860083,120.637528,1.374516e-08
C0T960,光復,2025-04-27,23.660694,121.424964,0.041965745
C0F9M0,豐原,2025-04-27,24.254322,120.720692,0.0035008427
C0R720,旭海,2025-04-27,22.205403,120.887614,0.992982
C0V710,苓雅,2025-04-27,22.622742,120.330669,0.9796997
C0C740,觀音工業區,2025-04-27,25.064764,121.114856,1.2401025e-09
CAC040,拉拉山,2025-04-27,24.699317,121.427133,2.3354996e-09
C0V790,萬山,2025-04-27,22.905944,120.688056,0.9987687
U2HA30,臺大和社,2025-04-27,23.590856,120.888864,3.5663632e-07
C0AJ90,澳底,2025-04-27,25.0552,121.9253,0.019754864
C0Z100,東華,2025-04-27,23.89525,121.549833,0.65645766
C0G970,三豐,2025-04-27,23.882,120.2895,9.6923305e-09
V2K610,大庄合作社,2025-04-27,23.8068,120.367939,2.8251532e-06
C0V900,汕尾,2025-04-27,22.4782,120.4151,0.999139
C1R630,龍泉,2025-04-27,22.66701,120.59091,0.99939024
C1AC50,關渡,2025-04-27,25.133486,121.469331,4.6521342e-09
C0F9I0,神岡,2025-04-27,24.272481,120.658314,1.2384728e-05
C0K460,斗南,2025-04-27,23.678734,120.478359,0.026263794
C2O810,曾文,2025-04-27,23.219681,120.497328,0.9990304
467280,後龍,2025-04-27,24.648563,120.831834,8.897444e-08
C1F9J1,清水林,2025-04-27,24.071242,120.820419,2.1467996e-09
C2A650,火燒寮,2025-04-27,25.002719,121.742892,0.00024282877
466930,竹子湖,2025-04-27,25.162078,121.544547,6.0720623e-10
C1I220,樟湖,2025-04-27,23.905333,120.846983,4.4596493e-10
C0I390,仁愛,2025-04-27,24.022122,121.132206,8.3937374e-10
C0Z300,東里,2025-04-27,23.26853,121.30547,0.0030931882
C1V590,新發,2025-04-27,23.057019,120.646064,0.9695146
C0K510,水林,2025-04-27,23.572924,120.24597,9.473886e-07
72S590,東改賓朗果園,2025-04-27,22.813889,121.071278,0.0044754976
82A750,茶改北部分場,2025-04-27,24.955778,121.631222,7.991297e-09
C1A750,石碇服務區,2025-04-27,25.00872,121.646242,9.812346e-08
C0X300,鹿寮,2025-04-27,23.386047,120.477331,0.99206835
G2AI50,關渡,2025-04-27,25.11575,121.492,6.3248566e-09
C0K590,雲林東勢,2025-04-27,23.674192,120.255721,8.6302606e-07
C0A570,桶後,2025-04-27,24.848222,121.597992,2.4084466e-06
C1S800,華源,2025-04-27,22.657883,121.02325,8.048567e-05
C0G720,溪州,2025-04-27,23.851589,120.499093,9.520915e-05
C1V160,達卡努瓦,2025-04-27,23.279811,120.705319,1.9760213e-08
C2M410,馬頭山,2025-04-27,23.324361,120.582017,0.08604983
C0V850,蚵仔寮,2025-04-27,22.7256,120.2527,0.95427054
C0S740,池上,2025-04-27,23.119628,121.209469,0.0008021104
C1V390,尖山,2025-04-27,22.813153,120.367789,0.0038689096
C0AH70,松山,2025-04-27,25.04871,121.55042,5.4553137e-08
C0N010,鯤鯓國小,2025-04-27,23.1879,120.0889,0.96331626
C0R550,新埤,2025-04-27,22.467947,120.582894,0.99879473
C0SA60,知本（水試所）,2025-04-27,22.702394,121.082761,0.0002784971
C0T9I0,豐濱,2025-04-27,23.583897,121.514806,0.23027498
C0UB00,淡江大學蘭陽校園,2025-04-27,24.823239,121.730383,0.0001895529
C0W240,九宮,2025-04-27,24.423753,118.240186,5.406285e-09
C0T9N0,富里,2025-04-27,23.171639,121.249378,5.7226054e-05
U2HA50,臺大竹山,2025-04-27,23.756972,120.681556,0.98208684
C0V840,鳳鼻頭,2025-04-27,22.5083,120.3591,0.26731652
C0X140,西港,2025-04-27,23.125608,120.203108,0.990997
72D080,桃改五峰分場,2025-04-27,24.612194,121.157167,8.7682356e-10
C2H9P0,伊拿谷,2025-04-27,23.963211,121.088264,5.9960803e-10
C2H9F0,柑林,2025-04-27,24.018658,120.847072,4.89244e-07
C0TA20,加灣,2025-04-27,24.082025,121.608944,0.0028997092
C0V530,阿蓮,2025-04-27,22.883208,120.327508,0.98785615
C1O880,關山,2025-04-27,23.173397,120.594092,0.7575711
C0E791,卓蘭,2025-04-27,24.3126,120.8244,0.004124362
C1I030,武界,2025-04-27,23.913225,121.052483,5.561239e-10
C0R520,崁頂,2025-04-27,22.514781,120.506914,0.99982196
C0R341,牡丹,2025-04-27,22.130036,120.792639,0.0001456737
C0R930,萬丹,2025-04-27,22.5885,120.4851,0.99967843
C0S760,紅石,2025-04-27,23.069131,121.126219,1.3519902e-09
C2C410,中央大學,2025-04-27,24.967652,121.185165,5.68328e-10
C1M610,石磐龍,2025-04-27,23.496606,120.663506,1.6125069e-09
C0UA10,鴛鴦湖,2025-04-27,24.590269,121.412228,2.192999e-09
V2C260,八德蔬果,2025-04-27,24.978508,121.281819,1.3695666e-09
C0R800,丹路,2025-04-27,22.204481,120.750989,0.35035187
C0G920,永靖,2025-04-27,23.924703,120.547533,3.723062e-07
C2M950,太和,2025-04-27,23.538372,120.702961,1.1101734e-09
C1A630,下盆,2025-04-27,24.771003,121.538622,1.8049957e-09
B2N890,畜產試驗所,2025-04-27,23.058972,120.336406,0.9958558
C0UA30,白嶺,2025-04-27,24.527819,121.519031,6.843286e-10
C1V580,溪南(特生中心),2025-04-27,23.084972,120.788475,1.8545343e-08
C1T970,大農,2025-04-27,23.615233,121.413331,0.12847756
C0R650,竹田,2025-04-27,22.58486,120.54344,0.9998775
C1H900,清流,2025-04-27,24.080775,120.962997,5.762284e-10
C1C510,水尾,2025-04-27,24.940081,121.087161,4.770291e-10
C0F9X0,大雅(中科園區),2025-04-27,24.21528,120.62445,2.0921446e-07
C0SB60,白守蓮,2025-04-27,23.126769,121.401914,0.44837102
C0O970,虎頭埤,2025-04-27,23.021375,120.347878,0.99775517
C0C730,中大臨海站,2025-04-27,24.966126,121.008581,6.330792e-10
C0X250,新營,2025-04-27,23.310689,120.316681,0.012714738
C0V700,三民,2025-04-27,22.645017,120.311233,0.9232093
C0U870,大礁溪,2025-04-27,24.791042,121.675047,1.7241679e-06
C0E870,高鐵苗栗,2025-04-27,24.60725,120.826094,5.1386724e-08
A2K570,古坑花卉中心,2025-04-27,23.63353,120.55239,0.98226553
C0TA30,鹽寮,2025-04-27,23.845606,121.592664,0.722448
C0M860,新美,2025-04-27,23.338017,120.683169,6.6852394e-08
C1E701,八卦,2025-04-27,24.491756,120.927619,5.919177e-09
C0I420,國姓,2025-04-27,24.037803,120.855072,2.1502579e-07
C2D720,關西工作站,2025-04-27,24.757275,121.184792,5.8834737e-09
C0S960,香蘭,2025-04-27,22.587569,120.993375,0.00045394732
467620,蘭嶼,2025-04-27,22.0369,121.55843,1.0538341e-07
C0R260,春日,2025-04-27,22.370361,120.628306,0.9973857
72G600,臺中農改場,2025-04-27,24.003028,120.534389,7.455313e-07
C0Z210,瑞穗,2025-04-27,23.5239,121.39021,0.43014726
C0M820,達邦,2025-04-27,23.453994,120.749517,1.0318613e-08
C0V860,南寮,2025-04-27,22.7616,120.2339,0.95464444
C0G740,大城,2025-04-27,23.852487,120.320935,9.153212e-09
C0R920,塭仔,2025-04-27,22.4169,120.5197,0.9989527
C0R470,高樹,2025-04-27,22.826389,120.600806,0.999861
C0R680,佳樂水,2025-04-27,21.993578,120.861633,1.5288198e-05
C1O870,大棟山,2025-04-27,23.31157,120.52226,3.301614e-09
C0D360,梅花,2025-04-27,24.678347,121.208558,8.0494855e-10
C0Z190,富世,2025-04-27,24.14743,121.6297,7.9783456e-07
C0AI10,屈尺,2025-04-27,24.92184,121.54475,5.053575e-08
B2U990,畜試東區分所,2025-04-27,24.669039,121.832561,0.09571119
C0SB80,長濱漁港,2025-04-27,23.313644,121.459994,0.014383173
C0R240,來義,2025-04-27,22.527306,120.625111,0.9998065
C0V910,大樹,2025-04-27,22.684645,120.432803,0.99837005
C1R610,西大武山,2025-04-27,22.617719,120.7322,1.2017238e-09
C0G900,線西,2025-04-27,24.143358,120.443536,2.4820517e-06
C0M700,竹崎,2025-04-27,23.526178,120.555508,0.9981863
C2E880,三義,2025-04-27,24.405478,120.749819,1.3304128e-07
C0C720,竹圍,2025-04-27,25.112692,121.239824,6.3272214e-09
C0F9P0,清水,2025-04-27,24.312297,120.562242,1.9076224e-06
C0Z150,吉安光華,2025-04-27,23.930925,121.595153,0.7947366
467300,東吉島,2025-04-27,23.25727,119.66762,0.00019485012
C1D640,外坪(五指山),2025-04-27,24.644447,121.090961,7.963251e-10
C0F9O0,潭子,2025-04-27,24.213106,120.703933,0.066850975
C2H9R0,卓社,2025-04-27,23.887894,121.000086,1.4380173e-09
72T250,花蓮農改場,2025-04-27,23.975222,121.563889,0.6054172
C0E780,銅鑼,2025-04-27,24.489681,120.790853,2.2711986e-07
C1T950,太安,2025-04-27,23.666719,121.370128,5.898426e-10
C0E830,苑裡,2025-04-27,24.439714,120.653053,5.5350694e-07
467270,田中,2025-04-27,23.873803,120.581286,0.0004243505
C0SA10,檳榔四格山,2025-04-27,22.810031,121.109308,0.0024968477
C1T830,布洛灣,2025-04-27,24.17184,121.57127,4.086289e-06
C0F970,大坑,2025-04-27,24.173142,120.722289,0.0074216886
C1U920,思源,2025-04-27,24.393125,121.347214,1.7794471e-09
C0A931,三和,2025-04-27,25.233153,121.595236,6.5882984e-09
C0I010,廬山,2025-04-27,24.033311,121.181808,6.794941e-10
C2M940,日野賀,2025-04-27,23.434056,120.727169,2.815152e-09
C0R860,鼻頭,2025-04-27,22.1043,120.8979,4.7920603e-05
C0UB20,壯圍,2025-04-27,24.7359,121.8163,0.05431266
C0R790,九棚,2025-04-27,22.14195,120.889281,0.9898474
C0W110,東莒,2025-04-27,25.9652,119.98069,1.6102641e-08
C1U930,粉鳥林,2025-04-27,24.497088,121.842479,0.008224457
C1I211,蘆竹湳,2025-04-27,23.934019,120.811994,3.0397915e-09
C0S830,長濱,2025-04-27,23.286817,121.411975,0.0010717559
C1F9F1,伯公龍,2025-04-27,24.272392,120.849047,0.6109665
C0E810,西湖,2025-04-27,24.562947,120.7485,4.3992983e-08
C1I440,新高口,2025-04-27,23.478744,120.878939,2.0849498e-08
C0O840,王爺宮,2025-04-27,23.222064,120.40085,0.9992609
C0T9G0,鳳林山,2025-04-27,23.735269,121.420131,1.7790428e-06
C0X080,佳里,2025-04-27,23.173039,120.145086,0.96325195
C0FB70,大甲溪埔,2025-04-27,24.370625,120.620067,1.4390711e-06
C0Z310,清水斷崖,2025-04-27,24.218294,121.689142,1.5722403e-06
C0M680,太保,2025-04-27,23.455062,120.331455,4.809787e-07
C1S820,金峰,2025-04-27,22.590969,120.933236,6.2227273e-06
C0AD10,八里,2025-04-27,25.150211,121.403947,6.327644e-09
C2K240,草嶺,2025-04-27,23.59555,120.693461,3.140523e-09
C1SA70,都蘭,2025-04-27,22.87794,121.226881,0.018892199
C0K440,二崙,2025-04-27,23.772797,120.408944,0.008708507
C1A760,坪林交控,2025-04-27,24.94284,121.713442,0.0013577045
C0F9N0,大里,2025-04-27,24.092464,120.701378,0.018398287
C0SA90,達仁林場,2025-04-27,22.264347,120.823972,2.530441e-06
C1R290,石門山,2025-04-27,22.112611,120.756597,3.510818e-09
42HA10,萬大發電廠,2025-04-27,23.978875,121.139639,5.835693e-10
C0R890,山海,2025-04-27,21.9878,120.7091,2.654966e-06
C0T9A0,月眉山,2025-04-27,23.809928,121.539828,0.00015513302
C0AC70,信義,2025-04-27,25.037822,121.564597,5.1691067e-08
C0K560,棋山,2025-04-27,23.68645,120.603417,0.9672848
C2FB50,出雲,2025-04-27,24.206469,120.902794,5.555292e-10
C1Z240,中平林道,2025-04-27,23.42115,121.26763,6.140662e-10
U2H480,溪頭,2025-04-27,23.670306,120.798194,3.2092745e-10
C0M880,好美里,2025-04-27,23.3364,120.138,4.5557863e-07
C0T9E0,大坑,2025-04-27,23.880628,121.581981,0.004247972
C0K530,臺西,2025-04-27,23.701547,120.197559,2.0552334e-07
C1E900,國一N128K,2025-04-27,24.560997,120.844186,1.879173e-07
C0AJ50,水湳洞,2025-04-27,25.123695,121.862238,4.9336478e-08
C0AI20,白沙灣,2025-04-27,25.283128,121.519058,1.3943544e-08
C2V310,美濃,2025-04-27,22.898792,120.51907,0.00067074836
C0A860,大坪,2025-04-27,25.165914,121.632969,1.6534154e-09
C1U850,觀音海岸,2025-04-27,24.38319,121.77856,2.939632e-09
C2K610,草嶺石壁,2025-04-27,23.602469,120.707731,2.7663736e-09
C0U950,鶯子嶺,2025-04-27,24.89754,121.79244,1.1977604e-09
C0O900,善化,2025-04-27,23.112883,120.297219,0.99575454
C0K550,蔦松,2025-04-27,23.514319,120.229736,1.5143941e-06
E2P980,林試六龜中心,2025-04-27,22.991703,120.645722,0.9990306
C0E590,通霄,2025-04-27,24.471892,120.704622,2.1714976e-08
C1I310,西巒,2025-04-27,23.754486,120.883956,4.132297e-10
C0A550,泰平,2025-04-27,24.971197,121.823711,4.607258e-09
C0I360,水里,2025-04-27,23.812553,120.849792,2.07824e-08
C0R830,高士,2025-04-27,22.121825,120.836781,2.1951416e-09
C1I101,溪頭,2025-04-27,23.661789,120.807647,7.304257e-10
C0AJ20,野柳,2025-04-27,25.20703,121.690021,8.7067654e-08
C0B060,暖暖,2025-04-27,25.0957,121.7403,5.539891e-08
C1H920,長豐,2025-04-27,24.102039,120.879897,1.0756128e-09
C0V360,內門,2025-04-27,22.975481,120.466769,0.99836856
C0R850,林邊,2025-04-27,22.4634,120.5339,0.99903345
C0E930,龍鳳,2025-04-27,24.700034,120.859125,2.8778645e-08
C0U910,冬山,2025-04-27,24.63373,121.7937,0.09571119
C1E721,泰安,2025-04-27,24.489017,120.968036,9.363927e-10
82H320,茶改中部分場,2025-04-27,23.875611,120.913583,8.3098994e-10
C0M750,布袋,2025-04-27,23.380878,120.167789,9.079643e-07
C1S860,利嘉,2025-04-27,22.809417,121.050528,7.4752556e-08
E2S980,林試太麻里1,2025-04-27,22.598922,120.980044,8.39729e-05
C0X170,關廟,2025-04-27,22.963017,120.327797,0.9959383
C0V720,林園,2025-04-27,22.507747,120.394511,0.9978533
C1I510,線浸林道,2025-04-27,23.761508,120.832956,1.9980284e-09
C0D690,外湖,2025-04-27,24.917735,120.968711,5.9551175e-10
C0C750,新興坑尾,2025-04-27,25.0061,121.0971,5.3501503e-10
B2Q810,畜試南區分所,2025-04-27,21.945583,120.802167,2.0674723e-05
C0S790,金崙,2025-04-27,22.538122,120.966875,2.1786286e-06
C0AH90,福山植物園,2025-04-27,24.760717,121.58135,2.2511488e-09
C0I540,奇萊稜線,2025-04-27,24.109231,121.326456,1.26363595e-08
C0M850,表湖,2025-04-27,23.24186,120.64166,2.3021e-06
C0S770,大溪山,2025-04-27,22.478475,120.943325,1.1833268e-06
C0AG80,中和,2025-04-27,24.991622,121.491792,5.1251256e-08
C0T790,大禹嶺,2025-04-27,24.186117,121.316086,5.3910965e-09
C0T9B0,水源,2025-04-27,23.991861,121.537169,9.596588e-05
C0R840,牡丹池山,2025-04-27,22.168389,120.841225,8.112701e-07
C1I131,桶頭,2025-04-27,23.641944,120.654117,0.017454052
CAL110,布袋國中,2025-04-27,23.35893,120.18026,1.14445534e-07
467571,新竹,2025-04-27,24.827853,121.014219,8.587093e-09
C0Z290,赤柯山,2025-04-27,23.36893,121.38293,2.0218889e-09
C0X280,將軍,2025-04-27,23.214999,120.13577,0.018624289
C0S690,太麻里,2025-04-27,22.60902,120.98533,1.7951797e-09
C0U880,北關,2025-04-27,24.9072,121.8734,1.4518412e-07
C0G810,埔心,2025-04-27,23.947633,120.525456,3.84462e-07
C0U970,大福,2025-04-27,24.80064,121.81389,0.02960509
C2H9N0,仁愛東眼,2025-04-27,24.026875,121.1205,6.4724603e-10
C1E670,南礦,2025-04-27,24.538278,121.002836,8.6760715e-10
C0M520,東後寮,2025-04-27,23.369908,120.248065,9.882348e-08
C1E461,松安,2025-04-27,24.397972,120.986022,9.833923e-10
C2N160,西拉雅風管處,2025-04-27,23.189481,120.335297,0.99561685
C2M970,碧湖,2025-04-27,23.568632,120.624165,6.869038e-09
C0A640,石碇,2025-04-27,24.993969,121.662917,0.003522054
E2S960,林試太麻里2,2025-04-27,22.598,120.99775,0.00054540264
C0F9Y0,桃山,2025-04-27,24.432739,121.303808,1.3828334e-08
C1I020,萬大,2025-04-27,23.979817,121.132261,8.107019e-10
C0U940,羅東,2025-04-27,24.68184,121.74934,0.04104085
C0M650,朴子,2025-04-27,23.43463,120.23902,4.639788e-07
C1I500,大尖山,2025-04-27,23.858572,120.994889,8.4985946e-10
C0G820,田尾,2025-04-27,23.901669,120.509389,3.847503e-07
E2K600,四湖植物園,2025-04-27,23.676986,120.163433,6.719641e-08
C0S730,綠島,2025-04-27,22.6672,121.47533,2.8927627e-05
12Q970,東港工作站,2025-04-27,22.479997,120.466058,0.9991312
C0E430,南庄,2025-04-27,24.601775,121.000214,1.9396616e-08
C1TA00,太魯閣,2025-04-27,24.15773,121.6236,2.9585823e-07
466920,臺北,2025-04-27,25.037658,121.514853,5.4553137e-08
C0R600,舊泰武,2025-04-27,22.588194,120.664944,0.25805596
C1I260,北坑,2025-04-27,23.9246,121.006903,2.180632e-09
466910,鞍部,2025-04-27,25.182586,121.529731,6.47325e-10
C1I230,九份二山,2025-04-27,23.961944,120.845,7.134714e-10
C2A660,瑞芳,2025-04-27,25.113169,121.801147,2.0771779e-08
C0R270,琉球嶼,2025-04-27,22.332244,120.362236,2.1338114e-05
C1T990,高寮,2025-04-27,23.394239,121.356808,0.04434132
C0G620,芬園,2025-04-27,24.015678,120.6213,9.4405516e-07
C1Z140,荖溪,2025-04-27,23.890575,121.45964,2.6042816e-08
C1I201,中心崙,2025-04-27,23.728722,120.712097,1.703868e-09
C1I400,凌霄,2025-04-27,24.018778,121.004456,6.503273e-10
C1M640,十字,2025-04-27,23.492153,120.753683,7.060286e-10
G2P820,農試鳳山分所,2025-04-27,22.646611,120.356083,0.91067034
C0Z270,蕃薯寮,2025-04-27,23.73835,121.540108,0.0009562115
C0F9Q0,外埔,2025-04-27,24.347817,120.705686,2.1219312e-06
C0K580,高鐵雲林,2025-04-27,23.737456,120.417944,0.29339772
C2I090,鳳凰,2025-04-27,23.728081,120.787347,3.2351116e-10
C0U990,員山,2025-04-27,24.74435,121.72247,0.046051137
C0V770,大社,2025-04-27,22.730306,120.346639,0.9298707
C0X120,麻豆,2025-04-27,23.183289,120.248611,0.96920526
C0C670,龍潭,2025-04-27,24.870056,121.221389,4.3444532e-09
C0D680,香山濕地,2025-04-27,24.783581,120.914988,3.143797e-08
C0S980,勝林山,2025-04-27,22.430439,120.8938,2.6447617e-07
C0V730,大寮,2025-04-27,22.605614,120.395717,0.9992995
C0R570,麟洛,2025-04-27,22.65078,120.52719,0.9991396
C2M930,石卓,2025-04-27,23.478744,120.702264,6.1269034e-10
C0G9B0,和美,2025-04-27,24.105169,120.492131,2.3352259e-06
CAG100,王功漁港,2025-04-27,23.96824,120.32586,1.16997025e-08
C0X290,北門,2025-04-27,23.267772,120.125481,0.018446937
C2F930,大甲,2025-04-27,24.347667,120.640403,5.382607e-07
C0D650,湖口,2025-04-27,24.904794,121.043628,4.8499427e-10
C0E420,竹南,2025-04-27,24.708978,120.888897,2.2708276e-08
C0U780,五結,2025-04-27,24.68637,121.79794,0.05429447
C1I250,鯉潭,2025-04-27,23.961922,120.991131,1.9188664e-09
C0R130,阿禮,2025-04-27,22.742908,120.743678,1.3540805e-05
C0X100,臺南市北區,2025-04-27,23.010394,120.194228,0.99215406
C0S920,金峰嘉蘭,2025-04-27,22.594789,120.960825,6.736118e-05
C0V490,新興,2025-04-27,22.627422,120.298803,0.98026395
C0F9K0,大安,2025-04-27,24.345061,120.588025,1.6542638e-06
467290,古坑,2025-04-27,23.633639,120.551889,0.98226553
C2E970,八甲,2025-04-27,24.535811,120.795983,6.842875e-08
C0V440,鳳山,2025-04-27,22.646653,120.356122,0.91067034
C1T940,大觀,2025-04-27,23.714206,121.373133,1.2449668e-05
C0E740,造橋,2025-04-27,24.637056,120.864778,9.787112e-08
C0R100,尾寮山,2025-04-27,22.833111,120.683889,1.7129874e-05
A2K630,臺大雲林校區,2025-04-27,23.730628,120.423903,0.29411265
467990,馬祖,2025-04-27,26.169467,119.923158,2.4680274e-08
C0D580,寶山,2025-04-27,24.735006,121.025192,1.6749272e-08
E2P990,林試扇平站,2025-04-27,22.9677,120.6857,0.9984691
C0AI30,三重,2025-04-27,25.057328,121.500629,6.0844954e-08
C0AH00,汐止,2025-04-27,25.066881,121.658778,5.4553137e-08
C1Z040,立山,2025-04-27,23.443356,121.327375,6.955599e-05
466881,新北,2025-04-27,24.959207,121.525196,4.0987125e-08
C0W130,花嶼,2025-04-27,23.40007,119.32276,3.1732475e-07
C0A950,鼻頭角,2025-04-27,25.129036,121.923372,0.0064976574
C0K470,林內,2025-04-27,23.748675,120.609642,0.998657
C2F990,摩天嶺,2025-04-27,24.322458,120.936819,7.9427576e-10
82C160,茶改場,2025-04-27,24.908472,121.185333,5.483214e-10
C0Z320,清水林道,2025-04-27,23.27125,121.188272,5.7232622e-08
C0R760,南仁湖,2025-04-27,22.084681,120.863353,3.4708492e-09
C0M670,大林,2025-04-27,23.600616,120.45841,2.8322345e-06
C0M800,茶山,2025-04-27,23.299075,120.664767,1.562557e-06
C0A9C0,天母,2025-04-27,25.117494,121.537169,1.1703564e-08
72K220,南改斗南分場,2025-04-27,23.634556,120.477333,0.026541147
72AI40,桃改樹林分場,2025-04-27,24.944503,121.386972,1.171625e-08
C0S910,蘭嶼燈塔,2025-04-27,22.081197,121.503117,7.9973825e-07
C0B050,八斗子,2025-04-27,25.144754,121.79167,6.470985e-08
C0U900,內城,2025-04-27,24.71813,121.68766,0.026744423
C0X320,柳營,2025-04-27,23.253328,120.375253,2.6914651e-05
C0M790,新港,2025-04-27,23.553269,120.345728,7.5721675e-07
C0F9T0,西屯,2025-04-27,24.179494,120.641275,2.5822223e-07
C0SA30,都歷,2025-04-27,23.020333,121.323642,0.06268851
C0C620,蘆竹,2025-04-27,25.084275,121.265767,2.0435071e-09
C0R730,大坪頂,2025-04-27,22.024633,120.69355,4.5205958e-08
C0AJ40,石門,2025-04-27,25.273672,121.601198,6.0580443e-09
C0E750,苗栗,2025-04-27,24.564569,120.824575,2.013883e-07
C0T870,鯉魚潭,2025-04-27,23.935639,121.508944,0.5353855
C1V170,排雲,2025-04-27,23.463619,120.954147,7.4731595e-08
C2H950,中寮,2025-04-27,23.884447,120.766406,1.9520414e-07
C0R350,貓鼻頭,2025-04-27,21.921774,120.7358,8.975343e-05
C0V660,岡山,2025-04-27,22.797078,120.294958,0.8481686
C1H941,雙冬,2025-04-27,23.967378,120.802189,1.9463944e-09
C0AJ70,田寮,2025-04-27,25.2698,121.4886,1.506165e-08
C0AI00,五股,2025-04-27,25.07445,121.42728,7.6797885e-10
C0Z280,德武,2025-04-27,23.47426,121.41071,0.03836518
C0R700,枋山,2025-04-27,22.246844,120.661086,0.5599198
C0C460,復興,2025-04-27,24.820208,121.352281,8.9942487e-10
E2H360,蓮華池,2025-04-27,23.918333,120.885278,1.2687167e-09
C0M640,中埔,2025-04-27,23.42538,120.5229,0.99450946
C0W140,金沙,2025-04-27,24.488292,118.408778,5.005063e-09
C2A540,四堵,2025-04-27,24.8926,121.745736,4.7820357e-09
C0ACA0,新莊,2025-04-27,25.051478,121.446756,2.2598787e-08
C0R220,潮州,2025-04-27,22.534361,120.54,0.99982226
U2HA40,臺大內茅埔,2025-04-27,23.689722,120.851117,1.2658741e-09
467490,臺中,2025-04-27,24.145736,120.684075,3.3369922e-06
C0U960,翠峰湖,2025-04-27,24.510856,121.608044,1.4688906e-09
E2HA20,林試畢祿溪站,2025-04-27,24.226944,121.308522,2.4715594e-09
C0V890,前鎮,2025-04-27,22.5718,120.3117,0.9827508
C1F941,雪嶺,2025-04-27,24.280586,121.026642,4.5548765e-09
C2H9E0,國姓南港,2025-04-27,23.911108,120.846556,4.4420087e-10
C0AC80,文山,2025-04-27,25.00235,121.575728,3.2485573e-08
C0F9R0,龍井,2025-04-27,24.184536,120.528972,2.1903659e-06
C0M760,民雄,2025-04-27,23.551754,120.428457,3.2771309e-06
C0UA40,西德山,2025-04-27,24.560647,121.752608,1.0135717e-09
C1T920,中興,2025-04-27,23.769503,121.498653,0.22017874
C0D550,雪霸,2025-04-27,24.526972,121.11605,1.4273872e-09
C2F860,梨山,2025-04-27,24.247522,121.243669,2.5820628e-09
C0R320,車城,2025-04-27,22.0744,120.716247,1.1911325e-06
C1S870,南美山,2025-04-27,23.15025,121.382333,6.588443e-05
C0B020,基隆嶼,2025-04-27,25.19141,121.78391,6.1548766e-09
C1U501,牛鬥,2025-04-27,24.637836,121.573656,0.0066910856
C0M730,嘉義市東區,2025-04-27,23.457673,120.460531,0.00016676342
C0S700,知本,2025-04-27,22.684866,121.005642,1.9980902e-08
C1N001,沙崙,2025-04-27,22.935472,120.309406,0.9956725
C0V760,橋頭,2025-04-27,22.757806,120.30575,0.94002223
C0G960,福寶,2025-04-27,24.0443,120.3814,2.8572724e-06
C0X210,白河,2025-04-27,23.347466,120.414427,6.9675307e-06
C0S810,東河,2025-04-27,22.972672,121.303986,0.67284435
C2R170,屏東,2025-04-27,22.66027,120.49403,0.9991378
C0R670,楓港,2025-04-27,22.190131,120.692156,0.15585752
C0FA50,霧峰,2025-04-27,24.0419,120.6995,1.7200308e-06
C0UB10,蘇澳,2025-04-27,24.5969,121.8571,0.21071434
C0G950,防潮門,2025-04-27,24.1835,120.4871,2.3068844e-06
C0M740,六腳,2025-04-27,23.492871,120.290625,4.8269635e-07
C1R250,力里,2025-04-27,22.428117,120.629228,0.9985051
C0K330,虎尾,2025-04-27,23.719183,120.442036,0.21049044
C2FA00,烏石坑,2025-04-27,24.273503,120.947617,8.442742e-10
C0V620,永安,2025-04-27,22.82315,120.236856,0.8491071
C1I330,楓樹林,2025-04-27,23.986803,121.076117,1.7429971e-09
C0W200,湖西,2025-04-27,23.596314,119.67275,2.1033268e-06
72Q010,高雄農改場,2025-04-27,22.709333,120.525889,0.9992656
C0SA40,瑞和,2025-04-27,22.974361,121.156697,0.0028978842
C0C680,龜山,2025-04-27,25.02846,121.38656,1.7065299e-06
C2V260,月眉,2025-04-27,22.971003,120.539853,0.9990655
C0V450,鳳森,2025-04-27,22.545064,120.392592,0.99425477
C0U720,南山,2025-04-27,24.43742,121.38167,7.6502565e-10
A2N290,臺南蘭花園區,2025-04-27,23.340258,120.379661,2.9512077e-07
C0R560,新園,2025-04-27,22.5434,120.461558,0.9978533
C0U890,三星,2025-04-27,24.66812,121.65302,0.1197152
C1V300,御油山,2025-04-27,23.001983,120.715364,5.3968815e-08
C0U600,礁溪,2025-04-27,24.817539,121.765608,0.04575919
C1T980,龍澗,2025-04-27,24.023289,121.411328,4.7659006e-09
C0D670,海天一線,2025-04-27,24.831986,120.914438,3.4989587e-09
C0SA00,歷坵,2025-04-27,22.520969,120.89185,2.6465951e-08
C0M710,東石,2025-04-27,23.458927,120.15385,2.8878228e-06
C0M780,鹿草,2025-04-27,23.41134,120.30835,3.9142319e-07
C0U520,雙連埤,2025-04-27,24.753033,121.641303,1.4770607e-06
C0B010,七堵,2025-04-27,25.094819,121.71713,1.2500098e-07
C0R480,長治,2025-04-27,22.693128,120.542622,0.9984608
C1V830,國三S383K,2025-04-27,22.781967,120.426475,0.99929905
12Q980,恆春工作站,2025-04-27,22.079678,120.714425,1.1830583e-06
C1O940,東山服務區,2025-04-27,23.286016,120.398472,3.7121354e-06
C1U840,東澳嶺,2025-04-27,24.5378,121.8485,3.5314025e-09
C1D630,飛鳳山,2025-04-27,24.766464,121.119178,1.224204e-09
C0S940,石寧山,2025-04-27,23.223772,121.406639,0.0043753413
C0K410,北港,2025-04-27,23.573957,120.292802,8.629693e-07
C2M620,瑞里,2025-04-27,23.545133,120.675197,1.2177623e-09
C0SB70,小港漁港,2025-04-27,23.158558,121.400431,0.00047179524
C2O950,安南,2025-04-27,23.076694,120.144861,0.8648588
C0F0E0,南湖圈谷,2025-04-27,24.363714,121.444667,1.0510496e-08
467610,成功,2025-04-27,23.097486,121.373428,0.13635863
C0G890,伸港,2025-04-27,24.148933,120.484403,2.3817656e-06
C2E540,龍溪,2025-04-27,24.606489,120.783933,5.402927e-08
C1V200,梅山,2025-04-27,23.268447,120.823556,5.7684374e-05
C0T9H0,加路蘭山,2025-04-27,23.682947,121.5274,1.935008e-07
C2O930,玉井,2025-04-27,23.126042,120.46055,0.00015562387
C1F911,新伯公,2025-04-27,24.221361,120.841069,0.87741935
C0R490,九如,2025-04-27,22.7405,120.490503,0.99924624
C0X200,左鎮,2025-04-27,23.056758,120.408522,0.35708365
C0SB50,叭嗡嗡,2025-04-27,23.047062,121.343223,0.5910497
C1F891,稍來,2025-04-27,24.265689,121.001142,2.3926818e-09
72N240,七股研究中心,2025-04-27,23.081672,120.062894,0.8237005
C0C700,中壢,2025-04-27,24.977661,121.256375,1.1498994e-09
C0M690,水上,2025-04-27,23.419734,120.388909,3.7938037e-07
C0V690,鼓山,2025-04-27,22.623325,120.275575,0.9803038
C0O860,大內,2025-04-27,23.11885,120.36083,0.9958048
C0Z200,萬榮,2025-04-27,23.709219,121.420106,0.0068052653
C0T9D0,和中,2025-04-27,24.26676,121.74103,0.095207356
C1O921,楠西,2025-04-27,23.183511,120.484083,1.7071492e-05
C0AJ30,淡水觀海,2025-04-27,25.184591,121.408616,1.115057e-08
C0V810,左營,2025-04-27,22.67491,120.28491,0.92315906
C0UA70,桃源谷,2025-04-27,24.962606,121.888875,1.3166422e-07
C0X130,官田,2025-04-27,23.193217,120.315422,0.9956718
C1H000,翠峰,2025-04-27,24.109397,121.205211,3.466694e-09
C0UA90,石城,2025-04-27,24.980444,121.951214,0.016513456
C1E681,南勢山,2025-04-27,24.421669,120.923831,4.253644e-09
C0A9F0,內湖,2025-04-27,25.079422,121.57545,5.4553137e-08
C0K291,宜梧,2025-04-27,23.536281,120.169329,1.5116713e-06
C1K540,口湖,2025-04-27,23.585344,120.180517,4.306932e-07
C0R780,滿州,2025-04-27,22.024403,120.839892,6.107522e-06
C0V870,文安,2025-04-27,22.8025,120.2164,0.8744589
C0U650,玉蘭,2025-04-27,24.675286,121.587061,2.2249344e-05
C0R640,東港,2025-04-27,22.46247,120.44074,0.9991312
C0AJ80,板橋,2025-04-27,25.0107,121.4489,5.706748e-08
C0S660,下馬,2025-04-27,23.150427,121.070312,3.3549568e-09
C1H9B1,阿眉,2025-04-27,24.1263,120.994672,2.262146e-09
C0UA20,多加屯,2025-04-27,24.368614,121.373189,6.435018e-09
C0E730,頭份,2025-04-27,24.688247,120.912206,2.3891031e-08
72V140,高改旗南分場,2025-04-27,22.857861,120.516667,0.99925286
C0K480,莿桐,2025-04-27,23.761192,120.502372,0.013326897
C0U980,坪林石牌,2025-04-27,24.86478,121.77396,2.846055e-07
C0T900,西林,2025-04-27,23.8119,121.441458,0.021020424
C1I150,青雲,2025-04-27,23.793361,120.949378,2.5741458e-09
467350,澎湖,2025-04-27,23.565503,119.563094,3.2134588e-07
C0G800,埔鹽,2025-04-27,24.000394,120.431683,2.8747186e-06
C0H960,草屯,2025-04-27,23.973672,120.68085,1.0072482e-06
C1V780,多納林道,2025-04-27,22.888028,120.737917,1.9186625e-06
C0E920,通霄漁港,2025-04-27,24.498589,120.673876,4.047092e-08
C0Z330,安通山,2025-04-27,23.290728,121.348528,7.4595187e-06
C0AH10,永和,2025-04-27,25.01125,121.508111,6.098461e-08
C0AK10,太平里,2025-04-27,25.134937,121.364899,6.036763e-09
C2G640,鹿港,2025-04-27,24.0753,120.430481,2.8601705e-06
C1E890,國三N149K,2025-04-27,24.463414,120.680019,8.9235203e-07
C1R110,口社,2025-04-27,22.770111,120.645222,0.9993998
C1M870,國三N285K,2025-04-27,23.550319,120.505833,0.99758667
C1E480,鳳美,2025-04-27,24.554803,121.034747,9.749772e-09
C0M530,奮起湖,2025-04-27,23.493903,120.699253,1.1018155e-09
C0C590,觀音,2025-04-27,25.027072,121.153317,8.7851265e-10
C0T9M0,靜浦,2025-04-27,23.455167,121.495028,0.38961357
C2H9M0,發祥,2025-04-27,24.154094,121.164517,1.2513887e-09
C0AI40,石牌,2025-04-27,25.115597,121.513139,1.2682116e-08
C1F871,上谷關,2025-04-27,24.203483,121.018644,6.4577366e-10
C2H9G0,百勝,2025-04-27,24.051142,120.909361,4.7786823e-08
C0G880,二水,2025-04-27,23.810742,120.6173,0.023610057
C0R940,加祿堂,2025-04-27,22.3363,120.6217,0.96819705
C0W220,北竿,2025-04-27,26.220358,119.974881,2.4089895e-08
C0O960,崎頂,2025-04-27,22.959547,120.369317,0.9955328
C0S750,向陽,2025-04-27,23.248397,120.986133,2.5449145e-08
C0T9F0,水璉,2025-04-27,23.797131,121.542514,0.006474287
C1M600,頭凍,2025-04-27,23.406364,120.603339,4.0061646e-08
467660,臺東,2025-04-27,22.752211,121.154586,0.94525105
C1D380,新埔,2025-04-27,24.84745,121.03834,2.231616e-09
C2G980,田頭村,2025-04-27,23.8263,120.444175,0.008708507
C0V750,路竹,2025-04-27,22.854997,120.259439,0.51266724
C0N050,蚵寮,2025-04-27,23.301,120.1104,4.5484367e-07
72M700,南改鹿草分場,2025-04-27,23.416869,120.283061,4.6220342e-07
C1SA50,利嘉林道,2025-04-27,22.82325,121.009389,8.7361174e-10
C0A940,金山,2025-04-27,25.223628,121.643967,6.712557e-08
C1V340,大津,2025-04-27,22.888322,120.645986,0.9999215
C0W180,七美,2025-04-27,23.219333,119.444892,3.6595923e-06
C1F9C1,白冷,2025-04-27,24.182844,120.929889,0.055876523
K2E710,苗改生物防治研究中心,2025-04-27,24.422861,120.871833,2.0296484e-08
C0N040,蘆竹溝,2025-04-27,23.2344,120.0961,0.018431205
C2W230,畜試所澎湖,2025-04-27,23.628342,119.513206,1.3568481e-07
C0R880,後壁湖,2025-04-27,21.9457,120.7457,3.2606706e-06
C1I280,埔中,2025-04-27,23.820778,120.642594,4.851388e-09
467790,墾丁雷達站,2025-04-27,21.948235,120.808028,4.939245e-06
C0W190,望安,2025-04-27,23.380564,119.494075,3.8144972e-07
C0Z170,卓溪,2025-04-27,23.3443,121.3029,0.0017472508
C0F850,東勢,2025-04-27,24.246428,120.833047,0.0014795949
466900,淡水,2025-04-27,25.164889,121.448906,6.0348406e-09
C0I370,魚池,2025-04-27,23.895703,120.94135,1.9561006e-09
C0C630,大溪,2025-04-27,24.882853,121.265547,1.0596602e-09
C0A520,山佳,2025-04-27,24.974944,121.402008,2.5222313e-08
C0I110,竹山,2025-04-27,23.761225,120.688156,0.00059867423
82H840,茶改南部分場,2025-04-27,23.762528,120.7405,2.9327996e-09
C0G660,溪湖,2025-04-27,23.94835,120.479122,4.793997e-07
C1T800,洛韶,2025-04-27,24.204558,121.453956,1.1394893e-09
C1T810,慈恩,2025-04-27,24.192044,121.388386,1.9437751e-09
C1E451,象鼻,2025-04-27,24.368617,120.940228,2.6950548e-08
C0AC60,三峽,2025-04-27,24.939025,121.369728,3.5855365e-09
C0I490,萬大林道,2025-04-27,23.928228,121.091411,5.21751e-10
C1I290,豐丘,2025-04-27,23.668178,120.887417,8.2797286e-10
C1I320,奧萬大,2025-04-27,23.952956,121.178556,1.3303443e-09
C2M910,嘉義大學,2025-04-27,23.471325,120.485903,0.99932957
C0U770,南澳,2025-04-27,24.44935,121.81022,1.9190404e-05
C0A980,社子,2025-04-27,25.109508,121.469681,6.773891e-09
C0V800,六龜,2025-04-27,22.997889,120.633583,0.9992243
C1G9D0,國一S218K,2025-04-27,23.890641,120.493253,3.8291566e-07
C0E570,白沙屯,2025-04-27,24.549447,120.696803,5.2296496e-08
C2F9A0,中竹林,2025-04-27,24.103556,120.751061,3.8193713e-07
C0FA40,臺中電廠,2025-04-27,24.2146,120.4907,2.1859107e-06
C2G9A0,畜試所彰化,2025-04-27,23.86045,120.557964,0.0004183428
C0H9C0,合歡山,2025-04-27,24.143442,121.272547,1.3181454e-08
C0X060,下營,2025-04-27,23.22695,120.256261,0.8961428
G2M350,農試溪口農場,2025-04-27,23.58565,120.408111,5.0249655e-06
C0U860,頭城,2025-04-27,24.85323,121.8308,0.048778202
C0R580,南州,2025-04-27,22.48591,120.50274,0.9991312
C0D430,峨眉,2025-04-27,24.6905,121.017189,6.5067005e-09
C0G780,秀水,2025-04-27,24.03405,120.503869,7.475753e-07
72N100,臺南農改場,2025-04-27,23.0605,120.342194,0.99581206
C0S900,蘭嶼高中,2025-04-27,22.04909,121.51214,2.3108655e-06
C1F9W0,德基,2025-04-27,24.254783,121.190261,1.915462e-09
C1Z120,壽豐,2025-04-27,23.870853,121.508081,0.65645766
C0W160,烏坵,2025-04-27,24.9944,119.44956,9.967911e-09
C1I240,外大坪,2025-04-27,23.958697,120.917931,1.6863767e-09
C1I550,國六W023K,2025-04-27,23.979067,120.867742,1.0725178e-08
C0R870,興海,2025-04-27,21.9752,120.8439,2.0564523e-05
C0R140,瑪家,2025-04-27,22.682903,120.686639,0.5106327
C0A530,坪林,2025-04-27,24.938183,121.70975,0.0002312563
C0X260,後壁,2025-04-27,23.366358,120.362326,1.1941122e-06
C0Z230,和平,2025-04-27,24.30717,121.77007,0.09827974
C0G770,福興,2025-04-27,24.041289,120.437669,3.0980214e-06
C0H9A0,神木村,2025-04-27,23.532742,120.843667,2.6974758e-09
C0I460,南投,2025-04-27,23.911469,120.687331,9.702679e-07
C0I480,梅峰,2025-04-27,24.085272,121.173572,1.9186723e-09
C1V570,吉東,2025-04-27,22.85422,120.5454,0.9992642
C2D740,屯原,2025-04-27,24.067969,121.209389,1.2360997e-09
C2A560,福山,2025-04-27,24.776203,121.502811,5.1469023e-08
C0AH30,五分山,2025-04-27,25.07125,121.780794,1.8182887e-09
C0FA10,松柏,2025-04-27,24.429115,120.617482,7.28168e-07
72S200,東改班鳩分場,2025-04-27,22.829528,121.077694,0.0059259515
72HA00,中改埔里分場,2025-04-27,23.903208,120.963364,1.5789945e-09
C2H9W0,大坪頂農水,2025-04-27,24.043122,120.932781,1.0405906e-09
C0C650,平鎮,2025-04-27,24.897503,121.214636,7.6828505e-10
C0S930,延平,2025-04-27,22.902581,121.084058,0.0028584267
C0UA60,樟樹山,2025-04-27,24.41393,121.78325,2.8604977e-06
C1S670,摩天,2025-04-27,23.199503,121.027,1.7074402e-09
C0V630,茄萣,2025-04-27,22.906642,120.182608,0.99019754
466940,基隆,2025-04-27,25.133314,121.740475,6.024803e-08
C0X050,東河,2025-04-27,23.296598,120.385608,6.205778e-06
C0R770,保力,2025-04-27,22.071122,120.764111,1.0510324e-06
G2L020,農試嘉義分所,2025-04-27,23.485028,120.473806,0.9994898
C0X240,關子嶺,2025-04-27,23.331169,120.508025,0.0016418471
C0I380,集集,2025-04-27,23.828206,120.801467,2.4707687e-08
466990,花蓮,2025-04-27,23.975128,121.613275,0.6395802
C1V220,小關山,2025-04-27,23.154217,120.813603,1.0875743e-08
C1F9G1,慶福山,2025-04-27,24.180853,120.848378,1.0505604e-08
C0Z250,瑞穗林道,2025-04-27,23.49284,121.30688,6.05699e-10
C0D590,新豐,2025-04-27,24.87068,120.97721,1.1162204e-09
C0A870,五指山,2025-04-27,25.132153,121.608692,5.4976546e-10
C0UA50,西帽山,2025-04-27,24.555361,121.802628,5.346195e-09
C0X160,仁德,2025-04-27,22.968258,120.257689,0.98890436
C1H971,六分寮,2025-04-27,23.92507,120.6378,8.074416e-09
C0W120,西嶼,2025-04-27,23.5626,119.468436,1.6915843e-07
C0G650,員林,2025-04-27,23.946503,120.585597,2.7109706e-06
C0AD50,鶯歌,2025-04-27,24.951533,121.346294,2.772776e-09
C2H9Q0,北東眼山,2025-04-27,24.120939,121.189303,1.420719e-09
C2H9T0,名間竹圍,2025-04-27,23.859914,120.637572,1.37487515e-08
C0S990,山豬窟,2025-04-27,22.318619,120.857372,0.00013014372
C0X190,安平,2025-04-27,22.993161,120.152181,0.99215925
C0K400,斗六,2025-04-27,23.720583,120.541127,0.3383304
12J990,口湖工作站,2025-04-27,23.589978,120.180394,4.3101824e-07
C0O830,北寮,2025-04-27,23.079561,120.495008,0.99890375
C1D410,白蘭,2025-04-27,24.579364,121.079947,8.911838e-10
C0S970,加津林,2025-04-27,22.416211,120.926942,0.9985851
C0D700,關西,2025-04-27,24.7977,121.1732,1.2570007e-09
C0M810,里佳,2025-04-27,23.389125,120.716647,3.195929e-09
C0U750,龜山島,2025-04-27,24.841667,121.953133,3.039028e-08
C0R810,內獅,2025-04-27,22.305064,120.642986,0.97230643
C1M390,龍美,2025-04-27,23.406728,120.654417,8.626195e-09
C2FB60,頭櫃山,2025-04-27,24.129842,120.858925,4.5174195e-10
C1H840,國三N238K,2025-04-27,23.841008,120.707711,2.452654e-08
CAQ030,崎峰國小,2025-04-27,22.42565,120.49521,0.9991312
C2E520,大湖,2025-04-27,24.414939,120.870872,5.2598934e-06
467530,阿里山,2025-04-27,23.508208,120.813242,1.7168428e-08
C1E691,南湖,2025-04-27,24.40135,120.837533,2.2053236e-08
C0FA30,梧棲,2025-04-27,24.256003,120.523381,1.9088052e-06
C1V231,高中,2025-04-27,23.134911,120.716711,3.0289384e-06
C0AK30,硬漢嶺,2025-04-27,25.136097,121.426372,6.4992556e-10
C0F9V0,新社,2025-04-27,24.200172,120.815806,0.4249597
C0H890,埔里,2025-04-27,23.972169,120.952425,1.9907636e-08
C0R690,墾丁,2025-04-27,21.966756,120.810269,2.9356666e-08
C0F0D0,審馬陣,2025-04-27,24.381675,121.4203,1.0342139e-08
C2W030,金門農試所,2025-04-27,24.448431,118.451786,5.709794e-09
C0R820,白鷺,2025-04-27,22.454275,120.666219,3.7770924e-06
C1V190,南天池,2025-04-27,23.27403,120.91176,2.0239193e-08
K2E360,苗栗農改場,2025-04-27,24.495722,120.829111,4.3488205e-07
CAJ050,海口故事園區,2025-04-27,23.57543,120.14121,4.3091012e-07
C2H9D0,三隻寮,2025-04-27,24.093078,120.861578,9.751626e-10
C0O990,媽廟,2025-04-27,22.99175,120.293525,0.9928015
C0D480,打鐵坑,2025-04-27,24.849664,121.150789,4.1753037e-09
C0Z220,和平林道,2025-04-27,24.343922,121.656317,1.482469e-08
C0TA10,花蓮漁港,2025-04-27,23.995322,121.638331,0.659752
72C440,桃園農改場,2025-04-27,24.950944,121.030583,5.3376037e-10
C1E711,馬拉邦山,2025-04-27,24.367306,120.901656,2.5413238e-09
C0SB20,富岡,2025-04-27,22.792467,121.192669,0.23784035
C0D560,竹東,2025-04-27,24.767147,121.057881,7.424312e-09
C0F9U0,南屯,2025-04-27,24.137006,120.637969,6.89386e-07
C0M720,番路,2025-04-27,23.464657,120.554156,0.85482436
C0F0A0,雪山圈谷,2025-04-27,24.388594,121.236339,2.5659705e-08
C1A9N0,四十份,2025-04-27,24.934158,121.593283,5.463725e-09
C0U760,東澳,2025-04-27,24.52196,121.83318,0.006550408
C0X230,鹽水,2025-04-27,23.272621,120.247641,4.051039e-07
C2H9H0,苗改南投蜂場,2025-04-27,23.852589,120.693481,6.545889e-08
C0R950,萬隆國小,2025-04-27,22.507667,120.587817,0.99982333
467540,大武,2025-04-27,22.35572,120.90374,0.9989215
C0V370,古亭坑,2025-04-27,22.893178,120.401947,0.0007551538
C1I340,新興橋,2025-04-27,23.563333,120.868728,5.9124494e-10
C0SA80,土坂,2025-04-27,22.453108,120.887572,0.0016256503
C0R160,鹽埔,2025-04-27,22.739558,120.530778,0.9992722
C0AC40,大屯山,2025-04-27,25.175675,121.522408,6.811291e-10
466850,五分山雷達站,2025-04-27,25.071182,121.781205,1.7180933e-09
C2H9L0,馬烈霸,2025-04-27,24.1512,121.201772,2.2675675e-09
C1AI50,國三N016K,2025-04-27,25.034164,121.619664,3.4764827e-08
C1V600,藤枝,2025-04-27,23.071961,120.757042,2.5125658e-08
C1E601,南勢,2025-04-27,24.572486,120.734842,2.7407976e-08
C0O980,新市,2025-04-27,23.061614,120.298197,0.99574035
C0K420,西螺,2025-04-27,23.800407,120.467394,0.0053908997
C0Z050,佳心,2025-04-27,23.34567,121.21316,3.289263e-09
C0AD30,蘆洲,2025-04-27,25.086594,121.472331,6.083161e-08
C0V610,梓官,2025-04-27,22.760558,120.267211,0.94016117
K2F750,種苗改良場,2025-04-27,24.225972,120.800917,0.7309223
C0UA80,大溪漁港,2025-04-27,24.941801,121.902955,0.02570862
C1AI60,國一39K邊坡,2025-04-27,25.064361,121.383836,4.0288687e-06
C0W150,金寧,2025-04-27,24.457703,118.328989,5.589934e-09
C0R960,內埔,2025-04-27,22.608483,120.570714,0.9998805
V2C250,八德合作社,2025-04-27,24.93775,121.266389,1.1245525e-09
C2H9S0,龍南,2025-04-27,23.953536,120.833183,5.2442783e-10
C0AH40,平等,2025-04-27,25.129142,121.577086,1.2074148e-09
C0R540,佳冬,2025-04-27,22.419456,120.552375,0.9988368
466950,彭佳嶼,2025-04-27,25.627975,122.079744,1.271112e-07
C0A890,雙溪,2025-04-27,25.036003,121.864242,5.2405234e-08
C0C480,桃園,2025-04-27,24.992425,121.323172,1.4762184e-09
C0AH50,林口,2025-04-27,25.072181,121.38084,9.290786e-07
A2K360,水試臺西試驗場,2025-04-27,23.717231,120.190522,2.231026e-07
C2M960,外寮,2025-04-27,23.562643,120.665688,4.6730686e-09
C0F9S0,烏日,2025-04-27,24.107058,120.624103,1.3438737e-05
C0C490,八德,2025-04-27,24.928708,121.283289,1.1045721e-09
C0R190,赤山,2025-04-27,22.592333,120.614306,0.9998833
C0T820,天祥,2025-04-27,24.179597,121.495639,1.0557736e-07
C1F9E1,龍安,2025-04-27,24.1605,120.831961,0.0072017685
C0V820,小林,2025-04-27,23.148408,120.63325,0.008968605
C2G870,芳苑,2025-04-27,23.922303,120.320025,1.1018833e-08
C0E850,大河,2025-04-27,24.618069,120.948578,1.0052618e-06
C1U670,寒溪,2025-04-27,24.634,121.71691,0.026619585
C0N020,城西,2025-04-27,23.0568,120.0956,0.9895231
C1Z110,三棧,2025-04-27,24.11557,121.60501,8.5950596e-08
C0R280,檳榔,2025-04-27,22.076078,120.836777,1.026796e-08
C2H9J0,中台,2025-04-27,23.9996,120.938739,1.0291169e-09
C0F9L0,后里,2025-04-27,24.310436,120.729725,0.0026243497
467441,高雄,2025-04-27,22.730432,120.312516,0.93078226
C0Z180,新城,2025-04-27,24.040486,121.604878,0.627469
C0D540,橫山,2025-04-27,24.71116,121.11693,8.1359905e-09
C1D420,太閣南,2025-04-27,24.632808,121.160575,7.8022455e-10
C1E770,公館,2025-04-27,24.526914,120.830806,7.324807e-07
CAN130,水試所海水繁養殖中心,2025-04-27,23.120802,120.07968,0.8186236
C1I430,翠華,2025-04-27,24.191961,121.224339,3.1361294e-09
C1M400,菜瓜坪,2025-04-27,23.251928,120.576103,0.0004987182
C0G730,二林,2025-04-27,23.903325,120.376081,5.3897776e-07
72M360,南改義竹分場,2025-04-27,23.360694,120.279361,9.91779e-08
V2K620,麥寮合作社,2025-04-27,23.753836,120.294783,9.655487e-06
C0Z070,舞鶴,2025-04-27,23.46811,121.37407,0.01691443
C0B040,大武崙,2025-04-27,25.166676,121.706993,4.095704e-08
C1Z030,紅葉,2025-04-27,23.493119,121.338806,0.14078058
C1I050,丹大,2025-04-27,23.753747,121.141147,1.1742716e-08
C0I080,信義,2025-04-27,23.689694,120.851036,1.2658716e-09
C2M920,朴子農改,2025-04-27,23.469889,120.259383,5.056507e-07
C2A880,福隆,2025-04-27,25.017842,121.942083,0.017881107
C0Z160,鳳林,2025-04-27,23.746114,121.453411,0.010691927
C0V210,復興,2025-04-27,23.222403,120.806089,5.2993987e-06
C0H990,昆陽,2025-04-27,24.121322,121.273642,8.727811e-09
C0R741,獅子,2025-04-27,22.202308,120.705236,0.92325145
C0S710,鹿野,2025-04-27,22.917711,121.122994,0.00053253555
C0I530,小奇萊,2025-04-27,24.131764,121.295717,9.366737e-09
C2K630,荷苞,2025-04-27,23.657717,120.595144,0.83647853
C0Z080,富源,2025-04-27,23.587642,121.378225,0.0016642022
C0SB10,美和,2025-04-27,22.682078,121.060236,0.00028068665
C2K620,馬光農場,2025-04-27,23.721453,120.378864,0.36893445
C1I140,卡奈托灣,2025-04-27,23.754364,121.087872,2.748277e-09
C0I520,玉山風口,2025-04-27,23.470489,120.955994,5.1043266e-08
C1G691,下水埔,2025-04-27,23.816114,120.5676,0.0064775264
C0X110,臺南市南區,2025-04-27,22.961189,120.188378,0.9888373
C0V680,仁武,2025-04-27,22.701083,120.347722,0.92301995
C2G840,北斗,2025-04-27,23.877586,120.514222,3.5822612e-07
C0R900,竹坑,2025-04-27,22.1385,120.7022,0.0053132586
C0K250,崙背,2025-04-27,23.75555,120.318925,8.246761e-06
C0G860,社頭,2025-04-27,23.897647,120.5862,6.8073285e-07
C0X150,安定,2025-04-27,23.102614,120.227839,0.9956227
C0R590,里港,2025-04-27,22.77919,120.49459,0.99935335
C0E610,馬都安,2025-04-27,24.451272,120.930192,1.44452486e-08
C0E550,明德,2025-04-27,24.583486,120.885411,1.718349e-07
C0R150,三地門,2025-04-27,22.709889,120.639944,0.9993677
C0G910,花壇,2025-04-27,24.032076,120.549461,5.480474e-07
C1D400,鳥嘴山,2025-04-27,24.71909,121.28387,9.971062e-10
C0K500,元長,2025-04-27,23.64981,120.315024,1.0241886e-06
C0F0B0,石岡,2025-04-27,24.276061,120.777644,0.00032443774
C2V250,甲仙,2025-04-27,23.080106,120.591758,0.99658215
C0SA20,金崙山,2025-04-27,22.567419,120.959667,1.4214292e-09
C0V350,溪埔,2025-04-27,22.738578,120.446797,0.99909097
C0M660,溪口,2025-04-27,23.604131,120.403569,5.020511e-06
C1S880,壽卡,2025-04-27,22.238911,120.858903,4.4462918e-06
72D680,桃改新埔分場,2025-04-27,24.834444,121.066111,2.3391686e-09
