站號,站名,日期,lat,lon,BlastGRU-TW
CAH030,茶改場竹圍站,2025-12-27,23.860083,120.637528,0.035956517
V2K610,大庄合作社,2025-12-27,23.8068,120.367939,0.15244381
G2AI50,關渡,2025-12-27,25.11575,121.492,0.010183112
V2C260,八德蔬果,2025-12-27,24.978508,121.281819,0.013775306
A2K570,古坑花卉中心,2025-12-27,23.63353,120.55239,0.0064610587
467571,新竹,2025-12-27,24.827853,121.014219,0.008676659
V2C250,八德合作社,2025-12-27,24.93775,121.266389,0.005522709
