站號,站名,日期,lat,lon,BlastGRU-TW
C0R710,龍磐,2025-09-17,21.931672,120.838942,0.020944692
C1F9D1,白毛台,2025-09-17,24.158325,120.886933,0.9331632
C0G940,竹塘,2025-09-17,23.848253,120.386764,0.11339563
467590,恆春,2025-09-17,22.003897,120.746339,0.026602788
C1O850,環湖,2025-09-17,23.148617,120.418633,0.04464724
C0U710,太平山,2025-09-17,24.505486,121.525656,0.010554262
C0E820,獅潭,2025-09-17,24.539133,120.920042,0.23877852
C0V880,興達,2025-09-17,22.8778,120.2127,0.08421227
C0S890,關山,2025-09-17,23.0395,121.175017,0.7657793
C0SB30,新蘭,2025-09-17,22.869214,121.223228,0.14909492
C2R970,屏科大,2025-09-17,22.648275,120.619247,0.22733173
C1Z130,銅門,2025-09-17,23.965694,121.492842,0.47216386
C0AD40,土城,2025-09-17,24.973208,121.445169,0.08690705
CAN140,六官養殖協會,2025-09-17,23.22881,120.29962,0.05445183
C0X180,山上,2025-09-17,23.0757,120.363253,0.042771503
C0F9Z0,雪山東峰,2025-09-17,24.388792,121.268675,0.0005462335
C1M480,獨立山,2025-09-17,23.537022,120.607797,0.9082143
C0X220,學甲,2025-09-17,23.230367,120.182187,0.11806731
467650,日月潭,2025-09-17,23.881325,120.90805,0.559727
C0K600,箔子寮,2025-09-17,23.6197,120.14,0.108265236
C0G830,埤頭,2025-09-17,23.866003,120.452806,0.04079082
C0S950,七塊厝,2025-09-17,22.954453,121.229922,0.8788416
467110,金門,2025-09-17,24.407306,118.289281,0.02719972
C0AH80,深坑,2025-09-17,25.002703,121.628328,0.091984205
C0A970,三貂角,2025-09-17,25.007606,122.002058,0.08418595
C2D730,寶山農場,2025-09-17,24.732444,120.976153,0.33850062
C0K430,褒忠,2025-09-17,23.690938,120.303634,0.05849862
467480,嘉義,2025-09-17,23.495925,120.432906,0.047251824
C0V400,阿公店,2025-09-17,22.804194,120.355528,0.028948113
C0E960,觀霧分站,2025-09-17,24.505781,121.113921,0.035883106
467550,玉山,2025-09-17,23.48718,120.95943,0.00017182463
C0R440,大漢山,2025-09-17,22.405264,120.753181,0.07322359
C0K280,四湖,2025-09-17,23.630414,120.227125,0.11464906
C1F9B1,桐林,2025-09-17,24.066172,120.735194,0.13281494
C2H9U0,鳳鵬,2025-09-17,23.763919,120.788061,0.14193703
C0K390,土庫,2025-09-17,23.679029,120.395574,0.04506476
C1I450,望鄉山,2025-09-17,23.594153,120.944286,0.0004846927
C0E910,海埔,2025-09-17,24.648767,120.772435,0.08755883
B2E890,畜試北區分所,2025-09-17,24.527806,120.770972,0.116202146
C0R750,四林格山,2025-09-17,22.076989,120.802439,0.7435031
C0F0C0,中坑,2025-09-17,24.248517,120.903319,0.88999796
C1I121,大鞍,2025-09-17,23.678381,120.760017,0.5530748
72U480,花改蘭陽分場,2025-09-17,24.686306,121.716583,0.02983601
C0A770,科教館,2025-09-17,25.096356,121.516507,0.046477225
C0AJ60,六塊厝,2025-09-17,25.24,121.4481,0.06724143
C0R620,墾雷,2025-09-17,21.900836,120.855269,0.02390646
467420,永康,2025-09-17,23.038386,120.2367,0.06080429
C0I410,名間,2025-09-17,23.837053,120.701447,0.12797081
A2C560,農工中心,2025-09-17,24.985917,121.239833,0.069947034
C0V740,旗山,2025-09-17,22.888614,120.483597,0.03386538
C0Z061,玉里,2025-09-17,23.3215,121.339656,0.14211608
C0S840,南田,2025-09-17,22.279725,120.889208,0.021573687
C1I470,杉林溪,2025-09-17,23.639517,120.786444,0.1973458
C1X040,東原,2025-09-17,23.291597,120.463822,0.034987193
C0R660,枋寮,2025-09-17,22.367722,120.590647,0.061079036
C1R120,上德文,2025-09-17,22.763272,120.704442,0.7902508
C0K450,大埤,2025-09-17,23.646074,120.431537,0.12309588
C0UA00,土場,2025-09-17,24.576533,121.495333,0.1417977
467080,宜蘭,2025-09-17,24.763975,121.756528,0.063621625
C0N030,四草,2025-09-17,23.0235,120.1116,0.04549807
467410,臺南,2025-09-17,22.99328,120.20492,0.04783811
C0V650,彌陀,2025-09-17,22.783806,120.246361,0.0797112
C0D660,新竹市東區,2025-09-17,24.798681,120.986942,0.10588762
82S580,茶改東部分場,2025-09-17,22.907694,121.130139,0.42580375
C0SB40,興隆,2025-09-17,22.913661,121.257469,0.16427912
467050,新屋,2025-09-17,25.006725,121.047492,0.12625971
C0C710,大溪永福,2025-09-17,24.892936,121.324975,0.09909823
C0FA20,溫寮,2025-09-17,24.372177,120.583125,0.15630728
C0V640,湖內,2025-09-17,22.887139,120.2445,0.0856829
C0R910,下寮,2025-09-17,22.3929,120.5548,0.061108526
C0Z020,明里,2025-09-17,23.208717,121.262342,0.24724683
C0M770,嘉義梅山,2025-09-17,23.585398,120.555587,0.21383993
C0C660,楊梅,2025-09-17,24.912375,121.143047,0.10928209
C1E511,新開,2025-09-17,24.347703,120.827019,0.4285272
G2F820,農試所(霧峰),2025-09-17,24.031261,120.688133,0.09524698
C1I070,和社,2025-09-17,23.591131,120.888861,0.95019215
C0TA80,立霧山,2025-09-17,24.183258,121.641899,0.41659203
C2F000,大肚,2025-09-17,24.15295,120.572117,0.22963177
C1S850,豐南,2025-09-17,23.122139,121.262389,0.9811028
C2A920,富貴角,2025-09-17,25.263783,121.565258,0.09278268
CAH030,茶改場竹圍站,2025-09-17,23.860083,120.637528,0.03786072
C0T960,光復,2025-09-17,23.660694,121.424964,0.3222796
C0F9M0,豐原,2025-09-17,24.254322,120.720692,0.49516237
C0R720,旭海,2025-09-17,22.205403,120.887614,0.03761017
C0V710,苓雅,2025-09-17,22.622742,120.330669,0.044255093
C0C740,觀音工業區,2025-09-17,25.064764,121.114856,0.17690861
CAC040,拉拉山,2025-09-17,24.699317,121.427133,0.099369824
C0V790,萬山,2025-09-17,22.905944,120.688056,0.8445228
U2HA30,臺大和社,2025-09-17,23.590856,120.888864,0.95019215
C0AJ90,澳底,2025-09-17,25.0552,121.9253,0.14649326
C0Z100,東華,2025-09-17,23.89525,121.549833,0.16917208
C0G970,三豐,2025-09-17,23.882,120.2895,0.08592177
V2K610,大庄合作社,2025-09-17,23.8068,120.367939,0.069794446
C0V900,汕尾,2025-09-17,22.4782,120.4151,0.115733415
C1R630,龍泉,2025-09-17,22.66701,120.59091,0.1654289
C1AC50,關渡,2025-09-17,25.133486,121.469331,0.047323324
C0C800,四稜,2025-09-17,24.64733,121.4293,0.5292914
C0F9I0,神岡,2025-09-17,24.272481,120.658314,0.16520555
C0K460,斗南,2025-09-17,23.678734,120.478359,0.12604655
C2O810,曾文,2025-09-17,23.219681,120.497328,0.033606898
467280,後龍,2025-09-17,24.648563,120.831834,0.091948524
C1F9J1,清水林,2025-09-17,24.071242,120.820419,0.90717715
C2A650,火燒寮,2025-09-17,25.002719,121.742892,0.13456857
466930,竹子湖,2025-09-17,25.162078,121.544547,0.5565866
C1I220,樟湖,2025-09-17,23.905333,120.846983,0.50073665
C0I390,仁愛,2025-09-17,24.022122,121.132206,0.8616154
C0Z300,東里,2025-09-17,23.26853,121.30547,0.17474082
C1V590,新發,2025-09-17,23.057019,120.646064,0.9630043
C0K510,水林,2025-09-17,23.572924,120.24597,0.062219612
72S590,東改賓朗果園,2025-09-17,22.813889,121.071278,0.7310949
82A750,茶改北部分場,2025-09-17,24.955778,121.631222,0.09981127
C1A750,石碇服務區,2025-09-17,25.00872,121.646242,0.10753749
C0X300,鹿寮,2025-09-17,23.386047,120.477331,0.06712799
G2AI50,關渡,2025-09-17,25.11575,121.492,0.113255754
C0K590,雲林東勢,2025-09-17,23.674192,120.255721,0.06764438
C0A570,桶後,2025-09-17,24.848222,121.597992,0.093048364
C1S800,華源,2025-09-17,22.657883,121.02325,0.30362996
C0G720,溪州,2025-09-17,23.851589,120.499093,0.04133015
C1V160,達卡努瓦,2025-09-17,23.279811,120.705319,0.23669879
C2M410,馬頭山,2025-09-17,23.324361,120.582017,0.04236524
C0V850,蚵仔寮,2025-09-17,22.7256,120.2527,0.04105744
C0S740,池上,2025-09-17,23.119628,121.209469,0.29146725
C1V390,尖山,2025-09-17,22.813153,120.367789,0.030069232
C0AH70,松山,2025-09-17,25.04871,121.55042,0.04671493
C0N010,鯤鯓國小,2025-09-17,23.1879,120.0889,0.106924474
C0R550,新埤,2025-09-17,22.467947,120.582894,0.12448076
C0SA60,知本（水試所）,2025-09-17,22.702394,121.082761,0.11445921
C0T9I0,豐濱,2025-09-17,23.583897,121.514806,0.21490996
C0UB00,淡江大學蘭陽校園,2025-09-17,24.823239,121.730383,0.1025739
C0W240,九宮,2025-09-17,24.423753,118.240186,0.026902093
C0T9N0,富里,2025-09-17,23.171639,121.249378,0.1227275
U2HA50,臺大竹山,2025-09-17,23.756972,120.681556,0.19509374
C0V840,鳳鼻頭,2025-09-17,22.5083,120.3591,0.030016245
C0X140,西港,2025-09-17,23.125608,120.203108,0.05387008
72D080,桃改五峰分場,2025-09-17,24.612194,121.157167,0.8179006
C2H9P0,伊拿谷,2025-09-17,23.963211,121.088264,0.7811867
C2H9F0,柑林,2025-09-17,24.018658,120.847072,0.07249229
C0TA20,加灣,2025-09-17,24.082025,121.608944,0.5946099
C0V530,阿蓮,2025-09-17,22.883208,120.327508,0.08089015
C0FB30,八仙山苗圃,2025-09-17,24.192719,121.001366,0.9003653
C1O880,關山,2025-09-17,23.173397,120.594092,0.059250116
C0E791,卓蘭,2025-09-17,24.3126,120.8244,0.6947571
C1I030,武界,2025-09-17,23.913225,121.052483,0.7168573
C0R520,崁頂,2025-09-17,22.514781,120.506914,0.08292034
C0R341,牡丹,2025-09-17,22.130036,120.792639,0.038275585
C0R930,萬丹,2025-09-17,22.5885,120.4851,0.03649781
C0S760,紅石,2025-09-17,23.069131,121.126219,0.054588348
C2C410,中央大學,2025-09-17,24.967652,121.185165,0.070975825
C1M610,石磐龍,2025-09-17,23.496606,120.663506,0.78618866
C0C790,東眼山,2025-09-17,24.8284,121.40888,0.8947475
C0UA10,鴛鴦湖,2025-09-17,24.590269,121.412228,0.2907596
V2C260,八德蔬果,2025-09-17,24.978508,121.281819,0.075198
C0R800,丹路,2025-09-17,22.204481,120.750989,0.032709025
C0G920,永靖,2025-09-17,23.924703,120.547533,0.04250451
C2M950,太和,2025-09-17,23.538372,120.702961,0.54842514
C1A630,下盆,2025-09-17,24.771003,121.538622,0.82285106
B2N890,畜產試驗所,2025-09-17,23.058972,120.336406,0.046891227
C0UA30,白嶺,2025-09-17,24.527819,121.519031,0.38074723
C1V580,溪南(特生中心),2025-09-17,23.084972,120.788475,0.26634562
C1T970,大農,2025-09-17,23.615233,121.413331,0.27691555
C0R650,竹田,2025-09-17,22.58486,120.54344,0.10018849
C1H900,清流,2025-09-17,24.080775,120.962997,0.41716835
C1C510,水尾,2025-09-17,24.940081,121.087161,0.14047164
C0F9X0,大雅(中科園區),2025-09-17,24.21528,120.62445,0.12737037
C0SB60,白守蓮,2025-09-17,23.126769,121.401914,0.031361718
C0O970,虎頭埤,2025-09-17,23.021375,120.347878,0.037865203
C0C730,中大臨海站,2025-09-17,24.966126,121.008581,0.12260318
C0X250,新營,2025-09-17,23.310689,120.316681,0.054583363
C0V700,三民,2025-09-17,22.645017,120.311233,0.06086499
C0U870,大礁溪,2025-09-17,24.791042,121.675047,0.6287551
C0E870,高鐵苗栗,2025-09-17,24.60725,120.826094,0.09359626
A2K570,古坑花卉中心,2025-09-17,23.63353,120.55239,0.18266407
C0TA30,鹽寮,2025-09-17,23.845606,121.592664,0.15229383
C0M860,新美,2025-09-17,23.338017,120.683169,0.16098927
C1E701,八卦,2025-09-17,24.491756,120.927619,0.9509099
C0I420,國姓,2025-09-17,24.037803,120.855072,0.09111149
C2D720,關西工作站,2025-09-17,24.757275,121.184792,0.1420745
C0S960,香蘭,2025-09-17,22.587569,120.993375,0.09035655
467620,蘭嶼,2025-09-17,22.0369,121.55843,0.05877648
C0R260,春日,2025-09-17,22.370361,120.628306,0.07194464
72G600,臺中農改場,2025-09-17,24.003028,120.534389,0.058651548
C0Z210,瑞穗,2025-09-17,23.5239,121.39021,0.14715934
C0M820,達邦,2025-09-17,23.453994,120.749517,0.81531906
C0V860,南寮,2025-09-17,22.7616,120.2339,0.041141044
C0G740,大城,2025-09-17,23.852487,120.320935,0.08730467
C0R920,塭仔,2025-09-17,22.4169,120.5197,0.059893545
C0R470,高樹,2025-09-17,22.826389,120.600806,0.07496502
C0R680,佳樂水,2025-09-17,21.993578,120.861633,0.03698029
C1O870,大棟山,2025-09-17,23.31157,120.52226,0.48851606
C0D360,梅花,2025-09-17,24.678347,121.208558,0.7891138
C0Z190,富世,2025-09-17,24.14743,121.6297,0.83288956
C0AI10,屈尺,2025-09-17,24.92184,121.54475,0.06729068
B2U990,畜試東區分所,2025-09-17,24.669039,121.832561,0.052647904
C0SB80,長濱漁港,2025-09-17,23.313644,121.459994,0.07602174
C0TA50,和仁,2025-09-17,24.241394,121.712472,0.8759323
C0R240,來義,2025-09-17,22.527306,120.625111,0.09201453
C0V910,大樹,2025-09-17,22.684645,120.432803,0.034380823
C1R610,西大武山,2025-09-17,22.617719,120.7322,0.06809885
C0G900,線西,2025-09-17,24.143358,120.443536,0.1375949
C0M700,竹崎,2025-09-17,23.526178,120.555508,0.19001625
C2E880,三義,2025-09-17,24.405478,120.749819,0.957634
C0C720,竹圍,2025-09-17,25.112692,121.239824,0.113002226
C0F9P0,清水,2025-09-17,24.312297,120.562242,0.16046745
C0Z150,吉安光華,2025-09-17,23.930925,121.595153,0.20308305
C0FA80,小雪山天池,2025-09-17,24.28025,121.02627,0.0013269914
467300,東吉島,2025-09-17,23.25727,119.66762,0.18076864
C1D640,外坪(五指山),2025-09-17,24.644447,121.090961,0.44558573
C0F9O0,潭子,2025-09-17,24.213106,120.703933,0.22451258
C2H9R0,卓社,2025-09-17,23.887894,121.000086,0.88492817
72T250,花蓮農改場,2025-09-17,23.975222,121.563889,0.16268045
C0E780,銅鑼,2025-09-17,24.489681,120.790853,0.18275438
C1T950,太安,2025-09-17,23.666719,121.370128,0.6314997
C0E830,苑裡,2025-09-17,24.439714,120.653053,0.19983694
467270,田中,2025-09-17,23.873803,120.581286,0.057601396
C0SA10,檳榔四格山,2025-09-17,22.810031,121.109308,0.7794862
C1T830,布洛灣,2025-09-17,24.17184,121.57127,0.3722675
C0F970,大坑,2025-09-17,24.173142,120.722289,0.1658942
C1U920,思源,2025-09-17,24.393125,121.347214,0.008644636
C0A931,三和,2025-09-17,25.233153,121.595236,0.082955115
C0I010,廬山,2025-09-17,24.033311,121.181808,0.686571
C2M940,日野賀,2025-09-17,23.434056,120.727169,0.6391826
C0R860,鼻頭,2025-09-17,22.1043,120.8979,0.014094902
C0UB20,壯圍,2025-09-17,24.7359,121.8163,0.028281668
C0R790,九棚,2025-09-17,22.14195,120.889281,0.018262224
C0W110,東莒,2025-09-17,25.9652,119.98069,0.020453509
C1U930,粉鳥林,2025-09-17,24.497088,121.842479,0.1688635
C1I211,蘆竹湳,2025-09-17,23.934019,120.811994,0.8482556
C0S830,長濱,2025-09-17,23.286817,121.411975,0.35961506
C1F9F1,伯公龍,2025-09-17,24.272392,120.849047,0.9162725
C0UB90,太平山莊,2025-09-17,24.494171,121.536209,0.0091868425
C0E810,西湖,2025-09-17,24.562947,120.7485,0.22498828
C1I440,新高口,2025-09-17,23.478744,120.878939,0.0009058237
C0O840,王爺宮,2025-09-17,23.222064,120.40085,0.051278748
C0T9G0,鳳林山,2025-09-17,23.735269,121.420131,0.9271388
C0X080,佳里,2025-09-17,23.173039,120.145086,0.106939465
C0FB70,大甲溪埔,2025-09-17,24.370625,120.620067,0.16941582
C0Z310,清水斷崖,2025-09-17,24.218294,121.689142,0.907923
C0M680,太保,2025-09-17,23.455062,120.331455,0.03963484
C1S820,金峰,2025-09-17,22.590969,120.933236,0.37442872
C0AD10,八里,2025-09-17,25.150211,121.403947,0.11278801
C2K240,草嶺,2025-09-17,23.59555,120.693461,0.85867834
C1SA70,都蘭,2025-09-17,22.87794,121.226881,0.1644839
C0K440,二崙,2025-09-17,23.772797,120.408944,0.04767631
C1A760,坪林交控,2025-09-17,24.94284,121.713442,0.075634666
C0F9N0,大里,2025-09-17,24.092464,120.701378,0.10841012
C0SA90,達仁林場,2025-09-17,22.264347,120.823972,0.6027819
C1R290,石門山,2025-09-17,22.112611,120.756597,0.12327754
42HA10,萬大發電廠,2025-09-17,23.978875,121.139639,0.46357796
C0R890,山海,2025-09-17,21.9878,120.7091,0.025040755
C0T9A0,月眉山,2025-09-17,23.809928,121.539828,0.7201998
C0AC70,信義,2025-09-17,25.037822,121.564597,0.046635643
C0K560,棋山,2025-09-17,23.68645,120.603417,0.19996625
C2FB50,出雲,2025-09-17,24.206469,120.902794,0.8701684
C1Z240,中平林道,2025-09-17,23.42115,121.26763,0.65294445
U2H480,溪頭,2025-09-17,23.670306,120.798194,0.75840145
C0M880,好美里,2025-09-17,23.3364,120.138,0.113189586
C0T9E0,大坑,2025-09-17,23.880628,121.581981,0.8424568
C0K530,臺西,2025-09-17,23.701547,120.197559,0.09839675
C1E900,國一N128K,2025-09-17,24.560997,120.844186,0.121229485
C0AJ50,水湳洞,2025-09-17,25.123695,121.862238,0.056682684
C0AI20,白沙灣,2025-09-17,25.283128,121.519058,0.06923871
C2V310,美濃,2025-09-17,22.898792,120.51907,0.03337993
C0A860,大坪,2025-09-17,25.165914,121.632969,0.10057358
C1U850,觀音海岸,2025-09-17,24.38319,121.77856,0.8800442
C2K610,草嶺石壁,2025-09-17,23.602469,120.707731,0.8476917
C0U950,鶯子嶺,2025-09-17,24.89754,121.79244,0.19564158
C0O900,善化,2025-09-17,23.112883,120.297219,0.04550312
C0K550,蔦松,2025-09-17,23.514319,120.229736,0.099114746
E2P980,林試六龜中心,2025-09-17,22.991703,120.645722,0.05082408
C0E590,通霄,2025-09-17,24.471892,120.704622,0.14863296
C1I310,西巒,2025-09-17,23.754486,120.883956,0.74200284
C0A550,泰平,2025-09-17,24.971197,121.823711,0.0743107
C0I360,水里,2025-09-17,23.812553,120.849792,0.06478408
C0R830,高士,2025-09-17,22.121825,120.836781,0.30164123
C1I101,溪頭,2025-09-17,23.661789,120.807647,0.16841953
C0AJ20,野柳,2025-09-17,25.20703,121.690021,0.05706587
C0B060,暖暖,2025-09-17,25.0957,121.7403,0.06952334
C1H920,長豐,2025-09-17,24.102039,120.879897,0.8948815
C0V360,內門,2025-09-17,22.975481,120.466769,0.04152421
C0R850,林邊,2025-09-17,22.4634,120.5339,0.11786265
C0E930,龍鳳,2025-09-17,24.700034,120.859125,0.15991427
C0U910,冬山,2025-09-17,24.63373,121.7937,0.052647877
C1E721,泰安,2025-09-17,24.489017,120.968036,0.80826473
82H320,茶改中部分場,2025-09-17,23.875611,120.913583,0.898458
C0M750,布袋,2025-09-17,23.380878,120.167789,0.08466757
C1S860,利嘉,2025-09-17,22.809417,121.050528,0.9821292
E2S980,林試太麻里1,2025-09-17,22.598922,120.980044,0.15316695
C0X170,關廟,2025-09-17,22.963017,120.327797,0.05878925
C0V720,林園,2025-09-17,22.507747,120.394511,0.029987104
C1I510,線浸林道,2025-09-17,23.761508,120.832956,0.28320718
C0D690,外湖,2025-09-17,24.917735,120.968711,0.11335319
C0C750,新興坑尾,2025-09-17,25.0061,121.0971,0.13821106
B2Q810,畜試南區分所,2025-09-17,21.945583,120.802167,0.035827182
C0S790,金崙,2025-09-17,22.538122,120.966875,0.58006215
C0AH90,福山植物園,2025-09-17,24.760717,121.58135,0.9084472
C0I540,奇萊稜線,2025-09-17,24.109231,121.326456,0.00038014213
C0M850,表湖,2025-09-17,23.24186,120.64166,0.9299943
C0S770,大溪山,2025-09-17,22.478475,120.943325,0.49322757
C0AG80,中和,2025-09-17,24.991622,121.491792,0.08686533
C0T790,大禹嶺,2025-09-17,24.186117,121.316086,0.0010098611
C0T9B0,水源,2025-09-17,23.991861,121.537169,0.8499501
C0R840,牡丹池山,2025-09-17,22.168389,120.841225,0.3277016
C1I131,桶頭,2025-09-17,23.641944,120.654117,0.38407674
CAL110,布袋國中,2025-09-17,23.35893,120.18026,0.08447111
467571,新竹,2025-09-17,24.827853,121.014219,0.09021143
C0Z290,赤柯山,2025-09-17,23.36893,121.38293,0.80325925
C0X280,將軍,2025-09-17,23.214999,120.13577,0.11519153
C0S690,太麻里,2025-09-17,22.60902,120.98533,0.9786764
C0U880,北關,2025-09-17,24.9072,121.8734,0.056948364
C0G810,埔心,2025-09-17,23.947633,120.525456,0.04237335
C0U970,大福,2025-09-17,24.80064,121.81389,0.06298793
C2H9N0,仁愛東眼,2025-09-17,24.026875,121.1205,0.750951
C1E670,南礦,2025-09-17,24.538278,121.002836,0.83965915
C0M520,東後寮,2025-09-17,23.369908,120.248065,0.08587822
C1E461,松安,2025-09-17,24.397972,120.986022,0.8862915
C2N160,西拉雅風管處,2025-09-17,23.189481,120.335297,0.052429695
C2M970,碧湖,2025-09-17,23.568632,120.624165,0.893557
C0A640,石碇,2025-09-17,24.993969,121.662917,0.140607
E2S960,林試太麻里2,2025-09-17,22.598,120.99775,0.08525129
C0F9Y0,桃山,2025-09-17,24.432739,121.303808,0.0005341921
C1I020,萬大,2025-09-17,23.979817,121.132261,0.8575008
C0U940,羅東,2025-09-17,24.68184,121.74934,0.029106578
C0M650,朴子,2025-09-17,23.43463,120.23902,0.057033215
C1I500,大尖山,2025-09-17,23.858572,120.994889,0.05326392
C0FB40,中橫21.6k,2025-09-17,24.2499,121.1455,0.5070354
C0G820,田尾,2025-09-17,23.901669,120.509389,0.042405672
E2K600,四湖植物園,2025-09-17,23.676986,120.163433,0.114523515
C0S730,綠島,2025-09-17,22.6672,121.47533,0.056999512
12Q970,東港工作站,2025-09-17,22.479997,120.466058,0.11535447
C0E430,南庄,2025-09-17,24.601775,121.000214,0.2556975
C1TA00,太魯閣,2025-09-17,24.15773,121.6236,0.8652172
466920,臺北,2025-09-17,25.037658,121.514853,0.04671493
C0R600,舊泰武,2025-09-17,22.588194,120.664944,0.94997823
C1I260,北坑,2025-09-17,23.9246,121.006903,0.91659737
466910,鞍部,2025-09-17,25.182586,121.529731,0.37311572
C1I230,九份二山,2025-09-17,23.961944,120.845,0.9267709
C2A660,瑞芳,2025-09-17,25.113169,121.801147,0.06145346
C0R270,琉球嶼,2025-09-17,22.332244,120.362236,0.16164763
C1T990,高寮,2025-09-17,23.394239,121.356808,0.114268996
C0G620,芬園,2025-09-17,24.015678,120.6213,0.094394594
C1Z140,荖溪,2025-09-17,23.890575,121.45964,0.8717804
C1I201,中心崙,2025-09-17,23.728722,120.712097,0.9635277
C1I400,凌霄,2025-09-17,24.018778,121.004456,0.75435376
C1M640,十字,2025-09-17,23.492153,120.753683,0.6360888
G2P820,農試鳳山分所,2025-09-17,22.646611,120.356083,0.06287919
C0Z270,蕃薯寮,2025-09-17,23.73835,121.540108,0.8760852
C0FB10,出雲山苗圃,2025-09-17,24.23105,120.90475,0.8897422
C0F9Q0,外埔,2025-09-17,24.347817,120.705686,0.17671978
C0K580,高鐵雲林,2025-09-17,23.737456,120.417944,0.052742902
C2I090,鳳凰,2025-09-17,23.728081,120.787347,0.90885466
C0U990,員山,2025-09-17,24.74435,121.72247,0.02875929
C0V770,大社,2025-09-17,22.730306,120.346639,0.04172089
C0X120,麻豆,2025-09-17,23.183289,120.248611,0.056549333
C0C670,龍潭,2025-09-17,24.870056,121.221389,0.15436558
C0D680,香山濕地,2025-09-17,24.783581,120.914988,0.09403619
C0S980,勝林山,2025-09-17,22.430439,120.8938,0.49087554
C0V730,大寮,2025-09-17,22.605614,120.395717,0.04279856
C0R570,麟洛,2025-09-17,22.65078,120.52719,0.051066216
C2M930,石卓,2025-09-17,23.478744,120.702264,0.39928725
C0G9B0,和美,2025-09-17,24.105169,120.492131,0.12778062
CAG100,王功漁港,2025-09-17,23.96824,120.32586,0.1145993
C0X290,北門,2025-09-17,23.267772,120.125481,0.11535106
C2F930,大甲,2025-09-17,24.347667,120.640403,0.21643189
C0D650,湖口,2025-09-17,24.904794,121.043628,0.13715115
C0E420,竹南,2025-09-17,24.708978,120.888897,0.17299065
C0U780,五結,2025-09-17,24.68637,121.79794,0.028291486
C1I250,鯉潭,2025-09-17,23.961922,120.991131,0.9623381
C0R130,阿禮,2025-09-17,22.742908,120.743678,0.6482453
C0X100,臺南市北區,2025-09-17,23.010394,120.194228,0.046578374
C0S920,金峰嘉蘭,2025-09-17,22.594789,120.960825,0.15964375
C0V490,新興,2025-09-17,22.627422,120.298803,0.04438386
C0F9K0,大安,2025-09-17,24.345061,120.588025,0.16453725
467290,古坑,2025-09-17,23.633639,120.551889,0.18266407
C2E970,八甲,2025-09-17,24.535811,120.795983,0.19837001
C0V440,鳳山,2025-09-17,22.646653,120.356122,0.06287919
C1T940,大觀,2025-09-17,23.714206,121.373133,0.92546874
C0E740,造橋,2025-09-17,24.637056,120.864778,0.090358846
C0R100,尾寮山,2025-09-17,22.833111,120.683889,0.6609728
A2K630,臺大雲林校區,2025-09-17,23.730628,120.423903,0.052727047
467990,馬祖,2025-09-17,26.169467,119.923158,0.028958766
C0D580,寶山,2025-09-17,24.735006,121.025192,0.1590251
E2P990,林試扇平站,2025-09-17,22.9677,120.6857,0.07367373
C0AI30,三重,2025-09-17,25.057328,121.500629,0.046477225
C0AH00,汐止,2025-09-17,25.066881,121.658778,0.04671493
C1Z040,立山,2025-09-17,23.443356,121.327375,0.98245245
466881,新北,2025-09-17,24.959207,121.525196,0.089573346
C0W130,花嶼,2025-09-17,23.40007,119.32276,0.09579353
C0A950,鼻頭角,2025-09-17,25.129036,121.923372,0.20997323
C0K470,林內,2025-09-17,23.748675,120.609642,0.14859983
C2F990,摩天嶺,2025-09-17,24.322458,120.936819,0.93993086
82C160,茶改場,2025-09-17,24.908472,121.185333,0.13555029
C0Z320,清水林道,2025-09-17,23.27125,121.188272,0.95981413
C0R760,南仁湖,2025-09-17,22.084681,120.863353,0.124378495
C0M670,大林,2025-09-17,23.600616,120.45841,0.07086873
C0M800,茶山,2025-09-17,23.299075,120.664767,0.026376523
C0A9C0,天母,2025-09-17,25.117494,121.537169,0.04301322
72K220,南改斗南分場,2025-09-17,23.634556,120.477333,0.1259811
72AI40,桃改樹林分場,2025-09-17,24.944503,121.386972,0.06667105
C0S910,蘭嶼燈塔,2025-09-17,22.081197,121.503117,0.04552005
C0B050,八斗子,2025-09-17,25.144754,121.79167,0.055376444
C0U900,內城,2025-09-17,24.71813,121.68766,0.031112207
C0X320,柳營,2025-09-17,23.253328,120.375253,0.03964326
C0M790,新港,2025-09-17,23.553269,120.345728,0.03511867
C0F9T0,西屯,2025-09-17,24.179494,120.641275,0.09613
C0E950,松安,2025-09-17,24.39792,120.98599,0.8862915
C0SA30,都歷,2025-09-17,23.020333,121.323642,0.21284738
C0C620,蘆竹,2025-09-17,25.084275,121.265767,0.076705836
C0R730,大坪頂,2025-09-17,22.024633,120.69355,0.02809183
C0AJ40,石門,2025-09-17,25.273672,121.601198,0.08340247
C0E750,苗栗,2025-09-17,24.564569,120.824575,0.118247
C0T870,鯉魚潭,2025-09-17,23.935639,121.508944,0.4027944
C1V170,排雲,2025-09-17,23.463619,120.954147,0.00023756642
C2H950,中寮,2025-09-17,23.884447,120.766406,0.16010919
C0R350,貓鼻頭,2025-09-17,21.921774,120.7358,0.015490292
C0V660,岡山,2025-09-17,22.797078,120.294958,0.07947107
C1H941,雙冬,2025-09-17,23.967378,120.802189,0.9287114
C0AJ70,田寮,2025-09-17,25.2698,121.4886,0.06819459
C0AI00,五股,2025-09-17,25.07445,121.42728,0.10797729
C0Z280,德武,2025-09-17,23.47426,121.41071,0.17958617
C0R700,枋山,2025-09-17,22.246844,120.661086,0.043024402
C0C460,復興,2025-09-17,24.820208,121.352281,0.105092525
E2H360,蓮華池,2025-09-17,23.918333,120.885278,0.93958694
C0M640,中埔,2025-09-17,23.42538,120.5229,0.10431273
C0W140,金沙,2025-09-17,24.488292,118.408778,0.02581889
C2A540,四堵,2025-09-17,24.8926,121.745736,0.11430472
C0ACA0,新莊,2025-09-17,25.051478,121.446756,0.05317349
C0R220,潮州,2025-09-17,22.534361,120.54,0.08463969
U2HA40,臺大內茅埔,2025-09-17,23.689722,120.851117,0.2384953
467490,臺中,2025-09-17,24.145736,120.684075,0.14975555
C0UB60,明池,2025-09-17,24.650688,121.475277,0.5373073
C0U960,翠峰湖,2025-09-17,24.510856,121.608044,0.0066735926
E2HA20,林試畢祿溪站,2025-09-17,24.226944,121.308522,0.003957478
C0V890,前鎮,2025-09-17,22.5718,120.3117,0.043839023
C1F941,雪嶺,2025-09-17,24.280586,121.026642,0.0013269914
C2H9E0,國姓南港,2025-09-17,23.911108,120.846556,0.4742693
C0AC80,文山,2025-09-17,25.00235,121.575728,0.09178824
C0F9R0,龍井,2025-09-17,24.184536,120.528972,0.16647117
C0M760,民雄,2025-09-17,23.551754,120.428457,0.069223255
C0UA40,西德山,2025-09-17,24.560647,121.752608,0.25868052
C1T920,中興,2025-09-17,23.769503,121.498653,0.21793422
C0D550,雪霸,2025-09-17,24.526972,121.11605,0.2859915
C2F860,梨山,2025-09-17,24.247522,121.243669,0.0033241224
C0R320,車城,2025-09-17,22.0744,120.716247,0.019144177
C1S870,南美山,2025-09-17,23.15025,121.382333,0.11390332
C0B020,基隆嶼,2025-09-17,25.19141,121.78391,0.09577129
C1U501,牛鬥,2025-09-17,24.637836,121.573656,0.047449734
C0M730,嘉義市東區,2025-09-17,23.457673,120.460531,0.06538678
C0S700,知本,2025-09-17,22.684866,121.005642,0.97292006
C1N001,沙崙,2025-09-17,22.935472,120.309406,0.05727053
C0V760,橋頭,2025-09-17,22.757806,120.30575,0.04138252
C0G960,福寶,2025-09-17,24.0443,120.3814,0.12536953
C0X210,白河,2025-09-17,23.347466,120.414427,0.05258833
C0S810,東河,2025-09-17,22.972672,121.303986,0.037933424
C2R170,屏東,2025-09-17,22.66027,120.49403,0.051217698
C0R670,楓港,2025-09-17,22.190131,120.692156,0.016487943
C0FA50,霧峰,2025-09-17,24.0419,120.6995,0.09965997
C0UB10,蘇澳,2025-09-17,24.5969,121.8571,0.042450853
C0G950,防潮門,2025-09-17,24.1835,120.4871,0.16661082
C0M740,六腳,2025-09-17,23.492871,120.290625,0.04781083
C1R250,力里,2025-09-17,22.428117,120.629228,0.15421326
C0K330,虎尾,2025-09-17,23.719183,120.442036,0.05346662
C2FA00,烏石坑,2025-09-17,24.273503,120.947617,0.94791
C0V620,永安,2025-09-17,22.82315,120.236856,0.0797112
C1I330,楓樹林,2025-09-17,23.986803,121.076117,0.8132293
C0W200,湖西,2025-09-17,23.596314,119.67275,0.16502157
72Q010,高雄農改場,2025-09-17,22.709333,120.525889,0.060026776
C0SA40,瑞和,2025-09-17,22.974361,121.156697,0.2192757
C0C680,龜山,2025-09-17,25.02846,121.38656,0.11012019
C2V260,月眉,2025-09-17,22.971003,120.539853,0.040778477
C0V450,鳳森,2025-09-17,22.545064,120.392592,0.031413086
C0FA90,小雪山林道,2025-09-17,24.29515,121.03651,0.00058990647
C0U720,南山,2025-09-17,24.43742,121.38167,0.6864871
A2N290,臺南蘭花園區,2025-09-17,23.340258,120.379661,0.044593085
C0R560,新園,2025-09-17,22.5434,120.461558,0.029987104
C0U890,三星,2025-09-17,24.66812,121.65302,0.024435664
C1V300,御油山,2025-09-17,23.001983,120.715364,0.4014121
C0U600,礁溪,2025-09-17,24.817539,121.765608,0.0458175
C1T980,龍澗,2025-09-17,24.023289,121.411328,0.30437967
C0D670,海天一線,2025-09-17,24.831986,120.914438,0.1933005
C0SA00,歷坵,2025-09-17,22.520969,120.89185,0.9834808
C0M710,東石,2025-09-17,23.458927,120.15385,0.11616986
C0M780,鹿草,2025-09-17,23.41134,120.30835,0.057559278
C0U520,雙連埤,2025-09-17,24.753033,121.641303,0.6400138
C0B010,七堵,2025-09-17,25.094819,121.71713,0.0652662
C0R480,長治,2025-09-17,22.693128,120.542622,0.034543652
C1V830,國三S383K,2025-09-17,22.781967,120.426475,0.026876789
12Q980,恆春工作站,2025-09-17,22.079678,120.714425,0.019141966
C1O940,東山服務區,2025-09-17,23.286016,120.398472,0.053365268
C1U840,東澳嶺,2025-09-17,24.5378,121.8485,0.7509669
C1D630,飛鳳山,2025-09-17,24.766464,121.119178,0.54863864
C0S940,石寧山,2025-09-17,23.223772,121.406639,0.13982126
C0K410,北港,2025-09-17,23.573957,120.292802,0.06301346
C2M620,瑞里,2025-09-17,23.545133,120.675197,0.6520304
C0SB70,小港漁港,2025-09-17,23.158558,121.400431,0.03514931
C2O950,安南,2025-09-17,23.076694,120.144861,0.106794894
C0F0E0,南湖圈谷,2025-09-17,24.363714,121.444667,0.00021277758
467610,成功,2025-09-17,23.097486,121.373428,0.0346018
C0G890,伸港,2025-09-17,24.148933,120.484403,0.13755338
C2E540,龍溪,2025-09-17,24.606489,120.783933,0.09153534
C1V200,梅山,2025-09-17,23.268447,120.823556,0.8904004
C0T9H0,加路蘭山,2025-09-17,23.682947,121.5274,0.8571299
C2O930,玉井,2025-09-17,23.126042,120.46055,0.04306716
C1F911,新伯公,2025-09-17,24.221361,120.841069,0.66575634
C0R490,九如,2025-09-17,22.7405,120.490503,0.05884177
C0X200,左鎮,2025-09-17,23.056758,120.408522,0.03922287
C0FA60,鞍馬山工作站,2025-09-17,24.267064,121.000793,0.009948224
C0SB50,叭嗡嗡,2025-09-17,23.047062,121.343223,0.11957218
C1F891,稍來,2025-09-17,24.265689,121.001142,0.012804863
72N240,七股研究中心,2025-09-17,23.081672,120.062894,0.1023329
C0C700,中壢,2025-09-17,24.977661,121.256375,0.07931212
C0M690,水上,2025-09-17,23.419734,120.388909,0.0399988
C0V690,鼓山,2025-09-17,22.623325,120.275575,0.044491123
C0O860,大內,2025-09-17,23.11885,120.36083,0.046300124
C0Z200,萬榮,2025-09-17,23.709219,121.420106,0.25579742
C0T9D0,和中,2025-09-17,24.26676,121.74103,0.17656584
C1O921,楠西,2025-09-17,23.183511,120.484083,0.04778253
C0AJ30,淡水觀海,2025-09-17,25.184591,121.408616,0.047822338
C0V810,左營,2025-09-17,22.67491,120.28491,0.060805812
C0UA70,桃源谷,2025-09-17,24.962606,121.888875,0.3051537
C0X130,官田,2025-09-17,23.193217,120.315422,0.051739488
C1H000,翠峰,2025-09-17,24.109397,121.205211,0.002265929
C0UA90,石城,2025-09-17,24.980444,121.951214,0.07771258
C1E681,南勢山,2025-09-17,24.421669,120.923831,0.90327805
C0A9F0,內湖,2025-09-17,25.079422,121.57545,0.04671493
C0K291,宜梧,2025-09-17,23.536281,120.169329,0.09942968
C1K540,口湖,2025-09-17,23.585344,120.180517,0.108453825
C0R780,滿州,2025-09-17,22.024403,120.839892,0.028405624
C0V870,文安,2025-09-17,22.8025,120.2164,0.07850068
C0U650,玉蘭,2025-09-17,24.675286,121.587061,0.54150844
C0R640,東港,2025-09-17,22.46247,120.44074,0.11544055
C0AJ80,板橋,2025-09-17,25.0107,121.4489,0.0856375
C0S660,下馬,2025-09-17,23.150427,121.070312,0.8761662
C1H9B1,阿眉,2025-09-17,24.1263,120.994672,0.07975266
C0UA20,多加屯,2025-09-17,24.368614,121.373189,0.0017389082
C0E730,頭份,2025-09-17,24.688247,120.912206,0.16881806
72V140,高改旗南分場,2025-09-17,22.857861,120.516667,0.033570293
C0K480,莿桐,2025-09-17,23.761192,120.502372,0.093482286
C0U980,坪林石牌,2025-09-17,24.86478,121.77396,0.5050798
C0T900,西林,2025-09-17,23.8119,121.441458,0.44192925
C1I150,青雲,2025-09-17,23.793361,120.949378,0.27972117
467350,澎湖,2025-09-17,23.565503,119.563094,0.11672429
C0G800,埔鹽,2025-09-17,24.000394,120.431683,0.121744365
C0H960,草屯,2025-09-17,23.973672,120.68085,0.114946365
C1V780,多納林道,2025-09-17,22.888028,120.737917,0.6112975
C0E920,通霄漁港,2025-09-17,24.498589,120.673876,0.1393669
C0Z330,安通山,2025-09-17,23.290728,121.348528,0.927058
C0AH10,永和,2025-09-17,25.01125,121.508111,0.08589325
C0AK10,太平里,2025-09-17,25.134937,121.364899,0.114150934
C2G640,鹿港,2025-09-17,24.0753,120.430481,0.12537184
C1E890,國三N149K,2025-09-17,24.463414,120.680019,0.21462704
C1R110,口社,2025-09-17,22.770111,120.645222,0.068626955
C1M870,國三N285K,2025-09-17,23.550319,120.505833,0.17669258
C1E480,鳳美,2025-09-17,24.554803,121.034747,0.08025268
C0M530,奮起湖,2025-09-17,23.493903,120.699253,0.5409119
C0C590,觀音,2025-09-17,25.027072,121.153317,0.20917653
C0T9M0,靜浦,2025-09-17,23.455167,121.495028,0.090527125
C2H9M0,發祥,2025-09-17,24.154094,121.164517,0.5112076
C0AI40,石牌,2025-09-17,25.115597,121.513139,0.042688914
C1F871,上谷關,2025-09-17,24.203483,121.018644,0.89833075
C2H9G0,百勝,2025-09-17,24.051142,120.909361,0.7527307
C0G880,二水,2025-09-17,23.810742,120.6173,0.17085603
C0R940,加祿堂,2025-09-17,22.3363,120.6217,0.032252934
C0W220,北竿,2025-09-17,26.220358,119.974881,0.023994332
C0O960,崎頂,2025-09-17,22.959547,120.369317,0.0734296
C0TA40,秀林,2025-09-17,24.302864,121.731144,0.67677647
C0S750,向陽,2025-09-17,23.248397,120.986133,0.007831027
C0T9F0,水璉,2025-09-17,23.797131,121.542514,0.646096
C1M600,頭凍,2025-09-17,23.406364,120.603339,0.69879436
467660,臺東,2025-09-17,22.752211,121.154586,0.21013728
C1D380,新埔,2025-09-17,24.84745,121.03834,0.10422866
C2G980,田頭村,2025-09-17,23.8263,120.444175,0.04769212
C0V750,路竹,2025-09-17,22.854997,120.259439,0.08901117
C0N050,蚵寮,2025-09-17,23.301,120.1104,0.11333834
72M700,南改鹿草分場,2025-09-17,23.416869,120.283061,0.0569255
C1SA50,利嘉林道,2025-09-17,22.82325,121.009389,0.10067261
C0UB70,太平山中間站,2025-09-17,24.542003,121.513453,0.8107086
C0A940,金山,2025-09-17,25.223628,121.643967,0.057785615
C1V340,大津,2025-09-17,22.888322,120.645986,0.11396171
C0W180,七美,2025-09-17,23.219333,119.444892,0.122656755
C1F9C1,白冷,2025-09-17,24.182844,120.929889,0.9677846
K2E710,苗改生物防治研究中心,2025-09-17,24.422861,120.871833,0.4384998
C0N040,蘆竹溝,2025-09-17,23.2344,120.0961,0.115391135
C0D760,大坪苗圃,2025-09-17,24.5362,121.1108,0.7435118
C2W230,畜試所澎湖,2025-09-17,23.628342,119.513206,0.102619536
C0R880,後壁湖,2025-09-17,21.9457,120.7457,0.024542915
C1I280,埔中,2025-09-17,23.820778,120.642594,0.33241576
467790,墾丁雷達站,2025-09-17,21.948235,120.808028,0.042069573
C0W190,望安,2025-09-17,23.380564,119.494075,0.13468485
C0Z170,卓溪,2025-09-17,23.3443,121.3029,0.21696045
C0F850,東勢,2025-09-17,24.246428,120.833047,0.6626724
466900,淡水,2025-09-17,25.164889,121.448906,0.11408761
C0I370,魚池,2025-09-17,23.895703,120.94135,0.9106572
C0C630,大溪,2025-09-17,24.882853,121.265547,0.122404166
C0A520,山佳,2025-09-17,24.974944,121.402008,0.06538316
C0I110,竹山,2025-09-17,23.761225,120.688156,0.22946109
82H840,茶改南部分場,2025-09-17,23.762528,120.7405,0.27230006
C0G660,溪湖,2025-09-17,23.94835,120.479122,0.04163609
C1T800,洛韶,2025-09-17,24.204558,121.453956,0.20502798
C1T810,慈恩,2025-09-17,24.192044,121.388386,0.010975341
C1E451,象鼻,2025-09-17,24.368617,120.940228,0.8692396
C0AC60,三峽,2025-09-17,24.939025,121.369728,0.07127343
C0I490,萬大林道,2025-09-17,23.928228,121.091411,0.66129774
C1I290,豐丘,2025-09-17,23.668178,120.887417,0.7725236
C1I320,奧萬大,2025-09-17,23.952956,121.178556,0.85618377
C2M910,嘉義大學,2025-09-17,23.471325,120.485903,0.08241833
C0U770,南澳,2025-09-17,24.44935,121.81022,0.71270823
C0A980,社子,2025-09-17,25.109508,121.469681,0.11141002
C0V800,六龜,2025-09-17,22.997889,120.633583,0.04877253
C1G9D0,國一S218K,2025-09-17,23.890641,120.493253,0.037063982
C0E570,白沙屯,2025-09-17,24.549447,120.696803,0.21495797
C2F9A0,中竹林,2025-09-17,24.103556,120.751061,0.49128938
C0FA40,臺中電廠,2025-09-17,24.2146,120.4907,0.16647498
C2G9A0,畜試所彰化,2025-09-17,23.86045,120.557964,0.057627
C0H9C0,合歡山,2025-09-17,24.143442,121.272547,0.00028867993
C0X060,下營,2025-09-17,23.22695,120.256261,0.05462915
G2M350,農試溪口農場,2025-09-17,23.58565,120.408111,0.067825705
C0U860,頭城,2025-09-17,24.85323,121.8308,0.045707308
C0R580,南州,2025-09-17,22.48591,120.50274,0.11544055
C0D430,峨眉,2025-09-17,24.6905,121.017189,0.34191206
C0G780,秀水,2025-09-17,24.03405,120.503869,0.058616444
72N100,臺南農改場,2025-09-17,23.0605,120.342194,0.046791278
C0S900,蘭嶼高中,2025-09-17,22.04909,121.51214,0.031201065
C1F9W0,德基,2025-09-17,24.254783,121.190261,0.07151981
C1Z120,壽豐,2025-09-17,23.870853,121.508081,0.16917208
C0W160,烏坵,2025-09-17,24.9944,119.44956,0.049473245
C1I240,外大坪,2025-09-17,23.958697,120.917931,0.9583114
C1I550,國六W023K,2025-09-17,23.979067,120.867742,0.0753305
C0R870,興海,2025-09-17,21.9752,120.8439,0.03581041
C0R140,瑪家,2025-09-17,22.682903,120.686639,0.87896997
C0A530,坪林,2025-09-17,24.938183,121.70975,0.10786845
C0X260,後壁,2025-09-17,23.366358,120.362326,0.044305444
C0Z230,和平,2025-09-17,24.30717,121.77007,0.17235686
C0G770,福興,2025-09-17,24.041289,120.437669,0.121796146
C0H9A0,神木村,2025-09-17,23.532742,120.843667,0.5383863
C0I460,南投,2025-09-17,23.911469,120.687331,0.06637459
C0I480,梅峰,2025-09-17,24.085272,121.173572,0.006194581
C1V570,吉東,2025-09-17,22.85422,120.5454,0.033904046
C2D740,屯原,2025-09-17,24.067969,121.209389,0.01415813
C2A560,福山,2025-09-17,24.776203,121.502811,0.057595726
C0AH30,五分山,2025-09-17,25.07125,121.780794,0.83481765
C0FA10,松柏,2025-09-17,24.429115,120.617482,0.19063747
72S200,東改班鳩分場,2025-09-17,22.829528,121.077694,0.65343213
72HA00,中改埔里分場,2025-09-17,23.903208,120.963364,0.9400394
C2H9W0,大坪頂農水,2025-09-17,24.043122,120.932781,0.8873032
C0C650,平鎮,2025-09-17,24.897503,121.214636,0.11008288
C0S930,延平,2025-09-17,22.902581,121.084058,0.61083335
C0UA60,樟樹山,2025-09-17,24.41393,121.78325,0.9029534
C1S670,摩天,2025-09-17,23.199503,121.027,0.10347867
C0V630,茄萣,2025-09-17,22.906642,120.182608,0.08418188
466940,基隆,2025-09-17,25.133314,121.740475,0.055874866
C0X050,東河,2025-09-17,23.296598,120.385608,0.052089985
C0R770,保力,2025-09-17,22.071122,120.764111,0.020753762
G2L020,農試嘉義分所,2025-09-17,23.485028,120.473806,0.14326686
C0X240,關子嶺,2025-09-17,23.331169,120.508025,0.07904454
C0I380,集集,2025-09-17,23.828206,120.801467,0.06284163
466990,花蓮,2025-09-17,23.975128,121.613275,0.14919046
C1V220,小關山,2025-09-17,23.154217,120.813603,0.08630762
C1F9G1,慶福山,2025-09-17,24.180853,120.848378,0.9130439
C0FB20,雪山橋,2025-09-17,24.23192,120.9786,0.012080173
C0Z250,瑞穗林道,2025-09-17,23.49284,121.30688,0.72188246
C0D590,新豐,2025-09-17,24.87068,120.97721,0.3546262
C0A870,五指山,2025-09-17,25.132153,121.608692,0.62588006
C0UA50,西帽山,2025-09-17,24.555361,121.802628,0.8374492
C0X160,仁德,2025-09-17,22.968258,120.257689,0.07653709
C1H971,六分寮,2025-09-17,23.92507,120.6378,0.34098086
C0W120,西嶼,2025-09-17,23.5626,119.468436,0.10262146
C0G650,員林,2025-09-17,23.946503,120.585597,0.039373234
C0AD50,鶯歌,2025-09-17,24.951533,121.346294,0.07443208
C2H9Q0,北東眼山,2025-09-17,24.120939,121.189303,0.012905958
C2H9T0,名間竹圍,2025-09-17,23.859914,120.637572,0.037862364
C0S990,山豬窟,2025-09-17,22.318619,120.857372,0.27987424
C0X190,安平,2025-09-17,22.993161,120.152181,0.046544585
C0K400,斗六,2025-09-17,23.720583,120.541127,0.122869
12J990,口湖工作站,2025-09-17,23.589978,120.180394,0.108265236
C0O830,北寮,2025-09-17,23.079561,120.495008,0.032782294
C1D410,白蘭,2025-09-17,24.579364,121.079947,0.792683
C0S970,加津林,2025-09-17,22.416211,120.926942,0.019590804
C0D700,關西,2025-09-17,24.7977,121.1732,0.12386779
C0M810,里佳,2025-09-17,23.389125,120.716647,0.25374308
C0U750,龜山島,2025-09-17,24.841667,121.953133,0.6925228
C0R810,內獅,2025-09-17,22.305064,120.642986,0.031673588
C1M390,龍美,2025-09-17,23.406728,120.654417,0.47192335
C2FB60,頭櫃山,2025-09-17,24.129842,120.858925,0.51329803
C1H840,國三N238K,2025-09-17,23.841008,120.707711,0.03425489
CAQ030,崎峰國小,2025-09-17,22.42565,120.49521,0.11544055
C2E520,大湖,2025-09-17,24.414939,120.870872,0.31548217
467530,阿里山,2025-09-17,23.508208,120.813242,0.003431681
C1E691,南湖,2025-09-17,24.40135,120.837533,0.96690553
C0FA30,梧棲,2025-09-17,24.256003,120.523381,0.16050084
C1V231,高中,2025-09-17,23.134911,120.716711,0.9313496
C0AK30,硬漢嶺,2025-09-17,25.136097,121.426372,0.4822609
C0F9V0,新社,2025-09-17,24.200172,120.815806,0.95433944
C0H890,埔里,2025-09-17,23.972169,120.952425,0.5679084
C0R690,墾丁,2025-09-17,21.966756,120.810269,0.12349681
C0F0D0,審馬陣,2025-09-17,24.381675,121.4203,0.0006476105
C2W030,金門農試所,2025-09-17,24.448431,118.451786,0.026352251
C0R820,白鷺,2025-09-17,22.454275,120.666219,0.7633654
C0FB00,大雪山,2025-09-17,24.254668,121.007374,0.006265685
C1V190,南天池,2025-09-17,23.27403,120.91176,0.0035156903
C0E940,雪見,2025-09-17,24.42595,121.01347,0.34379864
K2E360,苗栗農改場,2025-09-17,24.495722,120.829111,0.13321257
CAJ050,海口故事園區,2025-09-17,23.57543,120.14121,0.108350866
C2H9D0,三隻寮,2025-09-17,24.093078,120.861578,0.8668083
C0O990,媽廟,2025-09-17,22.99175,120.293525,0.06286851
C0D480,打鐵坑,2025-09-17,24.849664,121.150789,0.15694909
C0Z220,和平林道,2025-09-17,24.343922,121.656317,0.84933376
C0TA10,花蓮漁港,2025-09-17,23.995322,121.638331,0.1416401
72C440,桃園農改場,2025-09-17,24.950944,121.030583,0.1236195
C1E711,馬拉邦山,2025-09-17,24.367306,120.901656,0.84548694
C0SB20,富岡,2025-09-17,22.792467,121.192669,0.15213408
C0D560,竹東,2025-09-17,24.767147,121.057881,0.11486592
C0F9U0,南屯,2025-09-17,24.137006,120.637969,0.0813211
C0M720,番路,2025-09-17,23.464657,120.554156,0.11294435
C0F0A0,雪山圈谷,2025-09-17,24.388594,121.236339,0.00040774082
C1A9N0,四十份,2025-09-17,24.934158,121.593283,0.25018522
C0U760,東澳,2025-09-17,24.52196,121.83318,0.180463
C0X230,鹽水,2025-09-17,23.272621,120.247641,0.115468964
C2H9H0,苗改南投蜂場,2025-09-17,23.852589,120.693481,0.117357895
C0R950,萬隆國小,2025-09-17,22.507667,120.587817,0.093307294
467540,大武,2025-09-17,22.35572,120.90374,0.018560158
C0V370,古亭坑,2025-09-17,22.893178,120.401947,0.040140007
C1I340,新興橋,2025-09-17,23.563333,120.868728,0.89908326
C0SA80,土坂,2025-09-17,22.453108,120.887572,0.03301214
C0R160,鹽埔,2025-09-17,22.739558,120.530778,0.05972167
C0AC40,大屯山,2025-09-17,25.175675,121.522408,0.112787984
466850,五分山雷達站,2025-09-17,25.071182,121.781205,0.82623786
C2H9L0,馬烈霸,2025-09-17,24.1512,121.201772,0.016494874
C1AI50,國三N016K,2025-09-17,25.034164,121.619664,0.048384298
C1V600,藤枝,2025-09-17,23.071961,120.757042,0.37749508
C1E601,南勢,2025-09-17,24.572486,120.734842,0.2926699
C0O980,新市,2025-09-17,23.061614,120.298197,0.045382723
C0K420,西螺,2025-09-17,23.800407,120.467394,0.04833459
C0Z050,佳心,2025-09-17,23.34567,121.21316,0.87607604
C0AD30,蘆洲,2025-09-17,25.086594,121.472331,0.046339683
C0V610,梓官,2025-09-17,22.760558,120.267211,0.041470792
K2F750,種苗改良場,2025-09-17,24.225972,120.800917,0.8978632
C0UA80,大溪漁港,2025-09-17,24.941801,121.902955,0.053882558
C1AI60,國一39K邊坡,2025-09-17,25.064361,121.383836,0.10154748
C0W150,金寧,2025-09-17,24.457703,118.328989,0.026625289
C0R960,內埔,2025-09-17,22.608483,120.570714,0.103503734
V2C250,八德合作社,2025-09-17,24.93775,121.266389,0.09088736
C2H9S0,龍南,2025-09-17,23.953536,120.833183,0.44786203
C0AH40,平等,2025-09-17,25.129142,121.577086,0.13299672
C0R540,佳冬,2025-09-17,22.419456,120.552375,0.060906004
466950,彭佳嶼,2025-09-17,25.627975,122.079744,0.12059554
C0A890,雙溪,2025-09-17,25.036003,121.864242,0.16151235
C0C480,桃園,2025-09-17,24.992425,121.323172,0.07375123
C0AH50,林口,2025-09-17,25.072181,121.38084,0.118351206
A2K360,水試臺西試驗場,2025-09-17,23.717231,120.190522,0.096124895
C2M960,外寮,2025-09-17,23.562643,120.665688,0.8783748
C0F9S0,烏日,2025-09-17,24.107058,120.624103,0.0895436
C0C490,八德,2025-09-17,24.928708,121.283289,0.09177342
C0R190,赤山,2025-09-17,22.592333,120.614306,0.10686107
C0T820,天祥,2025-09-17,24.179597,121.495639,0.88362783
C1F9E1,龍安,2025-09-17,24.1605,120.831961,0.94159913
C0V820,小林,2025-09-17,23.148408,120.63325,0.24288483
C2G870,芳苑,2025-09-17,23.922303,120.320025,0.11764611
C0E850,大河,2025-09-17,24.618069,120.948578,0.3385258
C1U670,寒溪,2025-09-17,24.634,121.71691,0.05772469
C0N020,城西,2025-09-17,23.0568,120.0956,0.046122223
C1Z110,三棧,2025-09-17,24.11557,121.60501,0.86272633
C0R280,檳榔,2025-09-17,22.076078,120.836777,0.03963271
C2H9J0,中台,2025-09-17,23.9996,120.938739,0.83064836
C0F9L0,后里,2025-09-17,24.310436,120.729725,0.22246315
467441,高雄,2025-09-17,22.730432,120.312516,0.041860547
C0Z180,新城,2025-09-17,24.040486,121.604878,0.15343449
C0D540,橫山,2025-09-17,24.71116,121.11693,0.40965825
C1D420,太閣南,2025-09-17,24.632808,121.160575,0.86354905
C1E770,公館,2025-09-17,24.526914,120.830806,0.116202146
CAN130,水試所海水繁養殖中心,2025-09-17,23.120802,120.07968,0.10223421
C1I430,翠華,2025-09-17,24.191961,121.224339,0.0033771342
C1M400,菜瓜坪,2025-09-17,23.251928,120.576103,0.06859546
C0G730,二林,2025-09-17,23.903325,120.376081,0.107519455
72M360,南改義竹分場,2025-09-17,23.360694,120.279361,0.08552789
V2K620,麥寮合作社,2025-09-17,23.753836,120.294783,0.058564894
C0Z070,舞鶴,2025-09-17,23.46811,121.37407,0.26949632
C0B040,大武崙,2025-09-17,25.166676,121.706993,0.057490427
C1Z030,紅葉,2025-09-17,23.493119,121.338806,0.22589485
C1I050,丹大,2025-09-17,23.753747,121.141147,0.0017181834
C0I080,信義,2025-09-17,23.689694,120.851036,0.2384954
C0D750,樂山林道6k,2025-09-17,24.49999,121.08773,0.0054214
C2M920,朴子農改,2025-09-17,23.469889,120.259383,0.057127878
C2A880,福隆,2025-09-17,25.017842,121.942083,0.07713987
C0Z160,鳳林,2025-09-17,23.746114,121.453411,0.19097953
C0UB80,翠峰林道6K,2025-09-17,24.49773,121.568625,0.0057265908
C0V210,復興,2025-09-17,23.222403,120.806089,0.8442764
C0H990,昆陽,2025-09-17,24.121322,121.273642,0.00037476112
C0R741,獅子,2025-09-17,22.202308,120.705236,0.021537265
C0S710,鹿野,2025-09-17,22.917711,121.122994,0.85666186
C0I530,小奇萊,2025-09-17,24.131764,121.295717,0.00034514724
C0FA70,大雪山埡口,2025-09-17,24.26867,121.03062,0.0013891623
C2K630,荷苞,2025-09-17,23.657717,120.595144,0.27146673
C0Z080,富源,2025-09-17,23.587642,121.378225,0.86984485
C0SB10,美和,2025-09-17,22.682078,121.060236,0.11519294
C2K620,馬光農場,2025-09-17,23.721453,120.378864,0.051975116
C1I140,卡奈托灣,2025-09-17,23.754364,121.087872,0.10490666
C0I520,玉山風口,2025-09-17,23.470489,120.955994,0.0001479681
C1G691,下水埔,2025-09-17,23.816114,120.5676,0.09722703
C0X110,臺南市南區,2025-09-17,22.961189,120.188378,0.07681808
C0V680,仁武,2025-09-17,22.701083,120.347722,0.06058301
C2G840,北斗,2025-09-17,23.877586,120.514222,0.037562504
C0R900,竹坑,2025-09-17,22.1385,120.7022,0.018577116
C0K250,崙背,2025-09-17,23.75555,120.318925,0.058456983
C0G860,社頭,2025-09-17,23.897647,120.5862,0.050318338
C0X150,安定,2025-09-17,23.102614,120.227839,0.054757923
C0R590,里港,2025-09-17,22.77919,120.49459,0.025759088
C0E610,馬都安,2025-09-17,24.451272,120.930192,0.9480534
C0E550,明德,2025-09-17,24.583486,120.885411,0.124246955
C0R150,三地門,2025-09-17,22.709889,120.639944,0.06608274
C0G910,花壇,2025-09-17,24.032076,120.549461,0.060857557
C1D400,鳥嘴山,2025-09-17,24.71909,121.28387,0.8546974
C0K500,元長,2025-09-17,23.64981,120.315024,0.066302314
C0F0B0,石岡,2025-09-17,24.276061,120.777644,0.34351265
C2V250,甲仙,2025-09-17,23.080106,120.591758,0.037810694
C0SA20,金崙山,2025-09-17,22.567419,120.959667,0.59194833
C0V350,溪埔,2025-09-17,22.738578,120.446797,0.026505616
C0M660,溪口,2025-09-17,23.604131,120.403569,0.067820735
C1S880,壽卡,2025-09-17,22.238911,120.858903,0.5489422
72D680,桃改新埔分場,2025-09-17,24.834444,121.066111,0.1018058
