站號,站名,日期,lat,lon,BlastGRU-TW
C0R710,龍磐,2025-07-28,21.931672,120.838942,0.99783784
C1F9D1,白毛台,2025-07-28,24.158325,120.886933,0.57414436
C0G940,竹塘,2025-07-28,23.848253,120.386764,0.27782962
467590,恆春,2025-07-28,22.003897,120.746339,0.74999994
C1O850,環湖,2025-07-28,23.148617,120.418633,0.4208804
C0U710,太平山,2025-07-28,24.505486,121.525656,0.9890502
C0E820,獅潭,2025-07-28,24.539133,120.920042,0.6445488
C0V880,興達,2025-07-28,22.8778,120.2127,0.35418677
C0S890,關山,2025-07-28,23.0395,121.175017,0.9999923
C0SB30,新蘭,2025-07-28,22.869214,121.223228,0.9999918
C2R970,屏科大,2025-07-28,22.648275,120.619247,0.34567407
C1Z130,銅門,2025-07-28,23.965694,121.492842,0.9998259
C0AD40,土城,2025-07-28,24.973208,121.445169,0.05808338
CAN140,六官養殖協會,2025-07-28,23.22881,120.29962,0.3652665
C0X180,山上,2025-07-28,23.0757,120.363253,0.3513634
C0F9Z0,雪山東峰,2025-07-28,24.388792,121.268675,0.020546038
C1M480,獨立山,2025-07-28,23.537022,120.607797,0.99231046
C0X220,學甲,2025-07-28,23.230367,120.182187,0.37002575
467650,日月潭,2025-07-28,23.881325,120.90805,0.30846637
C0K600,箔子寮,2025-07-28,23.6197,120.14,0.52047783
C0G830,埤頭,2025-07-28,23.866003,120.452806,0.14616059
C0S950,七塊厝,2025-07-28,22.954453,121.229922,0.9999373
467110,金門,2025-07-28,24.407306,118.289281,0.04016458
C0AH80,深坑,2025-07-28,25.002703,121.628328,0.06659674
C0A970,三貂角,2025-07-28,25.007606,122.002058,0.031762328
C2D730,寶山農場,2025-07-28,24.732444,120.976153,0.36249304
C0K430,褒忠,2025-07-28,23.690938,120.303634,0.9202465
467480,嘉義,2025-07-28,23.495925,120.432906,0.3153348
C0V400,阿公店,2025-07-28,22.804194,120.355528,0.6935449
C0E960,觀霧分站,2025-07-28,24.505781,121.113921,0.79382163
467550,玉山,2025-07-28,23.48718,120.95943,0.021661159
C0R440,大漢山,2025-07-28,22.405264,120.753181,0.9993165
C0K280,四湖,2025-07-28,23.630414,120.227125,0.80542773
C1F9B1,桐林,2025-07-28,24.066172,120.735194,0.4658937
C2H9U0,鳳鵬,2025-07-28,23.763919,120.788061,0.92820877
C0K390,土庫,2025-07-28,23.679029,120.395574,0.7694734
C1I450,望鄉山,2025-07-28,23.594153,120.944286,0.12904008
C0E910,海埔,2025-07-28,24.648767,120.772435,0.5945913
B2E890,畜試北區分所,2025-07-28,24.527806,120.770972,0.5559293
C0R750,四林格山,2025-07-28,22.076989,120.802439,0.99936503
C0F0C0,中坑,2025-07-28,24.248517,120.903319,0.9819308
C1I121,大鞍,2025-07-28,23.678381,120.760017,0.9971779
72U480,花改蘭陽分場,2025-07-28,24.686306,121.716583,0.022646306
C0A770,科教館,2025-07-28,25.096356,121.516507,0.041658897
C0AJ60,六塊厝,2025-07-28,25.24,121.4481,0.26814163
C0R620,墾雷,2025-07-28,21.900836,120.855269,0.9880589
467420,永康,2025-07-28,23.038386,120.2367,0.2620655
C0I410,名間,2025-07-28,23.837053,120.701447,0.79035044
A2C560,農工中心,2025-07-28,24.985917,121.239833,0.3261119
C0V740,旗山,2025-07-28,22.888614,120.483597,0.7205419
C0Z061,玉里,2025-07-28,23.3215,121.339656,0.9999875
C0S840,南田,2025-07-28,22.279725,120.889208,0.9998621
C1I470,杉林溪,2025-07-28,23.639517,120.786444,0.995829
C1X040,東原,2025-07-28,23.291597,120.463822,0.11011967
C0R660,枋寮,2025-07-28,22.367722,120.590647,0.94023883
C1R120,上德文,2025-07-28,22.763272,120.704442,0.9996087
C0K450,大埤,2025-07-28,23.646074,120.431537,0.6409209
C0UA00,土場,2025-07-28,24.576533,121.495333,0.012777712
467080,宜蘭,2025-07-28,24.763975,121.756528,0.01813277
C0N030,四草,2025-07-28,23.0235,120.1116,0.47899786
467410,臺南,2025-07-28,22.99328,120.20492,0.3660211
C0V650,彌陀,2025-07-28,22.783806,120.246361,0.3195191
C0D660,新竹市東區,2025-07-28,24.798681,120.986942,0.28730562
82S580,茶改東部分場,2025-07-28,22.907694,121.130139,0.99998933
C0SB40,興隆,2025-07-28,22.913661,121.257469,0.99999243
467050,新屋,2025-07-28,25.006725,121.047492,0.64506155
C0C710,大溪永福,2025-07-28,24.892936,121.324975,0.1896273
C0FA20,溫寮,2025-07-28,24.372177,120.583125,0.5706519
C0V640,湖內,2025-07-28,22.887139,120.2445,0.36155793
C0R910,下寮,2025-07-28,22.3929,120.5548,0.9401755
C0Z020,明里,2025-07-28,23.208717,121.262342,0.9999891
C0M770,嘉義梅山,2025-07-28,23.585398,120.555587,0.98122376
C0C660,楊梅,2025-07-28,24.912375,121.143047,0.36144045
C1E511,新開,2025-07-28,24.347703,120.827019,0.40974823
G2F820,農試所(霧峰),2025-07-28,24.031261,120.688133,0.41941816
C1I070,和社,2025-07-28,23.591131,120.888861,0.99946654
C0TA80,立霧山,2025-07-28,24.183258,121.641899,0.99918187
C2F000,大肚,2025-07-28,24.15295,120.572117,0.21586317
C1S850,豐南,2025-07-28,23.122139,121.262389,0.9998335
C2A920,富貴角,2025-07-28,25.263783,121.565258,0.69575405
CAH030,茶改場竹圍站,2025-07-28,23.860083,120.637528,0.66100717
C0T960,光復,2025-07-28,23.660694,121.424964,0.99990517
C0F9M0,豐原,2025-07-28,24.254322,120.720692,0.8716762
C0R720,旭海,2025-07-28,22.205403,120.887614,0.9999741
C0V710,苓雅,2025-07-28,22.622742,120.330669,0.93250346
C0C740,觀音工業區,2025-07-28,25.064764,121.114856,0.7148284
CAC040,拉拉山,2025-07-28,24.699317,121.427133,0.7921142
C0V790,萬山,2025-07-28,22.905944,120.688056,0.36113322
U2HA30,臺大和社,2025-07-28,23.590856,120.888864,0.99946654
C0AJ90,澳底,2025-07-28,25.0552,121.9253,0.037982576
C0Z100,東華,2025-07-28,23.89525,121.549833,0.9999481
C0G970,三豐,2025-07-28,23.882,120.2895,0.93328893
V2K610,大庄合作社,2025-07-28,23.8068,120.367939,0.7952504
C0V900,汕尾,2025-07-28,22.4782,120.4151,0.39081264
C1R630,龍泉,2025-07-28,22.66701,120.59091,0.32406226
C1AC50,關渡,2025-07-28,25.133486,121.469331,0.106633075
C0C800,四稜,2025-07-28,24.64733,121.4293,0.9987088
C0F9I0,神岡,2025-07-28,24.272481,120.658314,0.4273924
C0K460,斗南,2025-07-28,23.678734,120.478359,0.6478275
C2O810,曾文,2025-07-28,23.219681,120.497328,0.052102044
467280,後龍,2025-07-28,24.648563,120.831834,0.6403926
C1F9J1,清水林,2025-07-28,24.071242,120.820419,0.3666202
C2A650,火燒寮,2025-07-28,25.002719,121.742892,0.044908352
466930,竹子湖,2025-07-28,25.162078,121.544547,0.9602791
C1I220,樟湖,2025-07-28,23.905333,120.846983,0.9790515
C0I390,仁愛,2025-07-28,24.022122,121.132206,0.998748
C0Z300,東里,2025-07-28,23.26853,121.30547,0.99998945
C1V590,新發,2025-07-28,23.057019,120.646064,0.9987562
C0K510,水林,2025-07-28,23.572924,120.24597,0.78603226
72S590,東改賓朗果園,2025-07-28,22.813889,121.071278,0.9999192
82A750,茶改北部分場,2025-07-28,24.955778,121.631222,0.12394211
C1A750,石碇服務區,2025-07-28,25.00872,121.646242,0.08477954
C0X300,鹿寮,2025-07-28,23.386047,120.477331,0.19163954
G2AI50,關渡,2025-07-28,25.11575,121.492,0.20813845
C0K590,雲林東勢,2025-07-28,23.674192,120.255721,0.9430524
C0A570,桶後,2025-07-28,24.848222,121.597992,0.007279275
C1S800,華源,2025-07-28,22.657883,121.02325,0.99885
C0G720,溪州,2025-07-28,23.851589,120.499093,0.14961417
C1V160,達卡努瓦,2025-07-28,23.279811,120.705319,0.9988044
C2M410,馬頭山,2025-07-28,23.324361,120.582017,0.18581836
C0V850,蚵仔寮,2025-07-28,22.7256,120.2527,0.49870488
C0S740,池上,2025-07-28,23.119628,121.209469,0.99996233
C1V390,尖山,2025-07-28,22.813153,120.367789,0.72915137
C0AH70,松山,2025-07-28,25.04871,121.55042,0.042645484
C0N010,鯤鯓國小,2025-07-28,23.1879,120.0889,0.43847772
C0R550,新埤,2025-07-28,22.467947,120.582894,0.41486633
C0SA60,知本（水試所）,2025-07-28,22.702394,121.082761,0.99327254
C0T9I0,豐濱,2025-07-28,23.583897,121.514806,0.99994373
C0UB00,淡江大學蘭陽校園,2025-07-28,24.823239,121.730383,0.008258751
C0W240,九宮,2025-07-28,24.423753,118.240186,0.03970511
C0T9N0,富里,2025-07-28,23.171639,121.249378,0.999983
U2HA50,臺大竹山,2025-07-28,23.756972,120.681556,0.9783549
C0V840,鳳鼻頭,2025-07-28,22.5083,120.3591,0.4100585
C0X140,西港,2025-07-28,23.125608,120.203108,0.2946813
72D080,桃改五峰分場,2025-07-28,24.612194,121.157167,0.99794734
C2H9P0,伊拿谷,2025-07-28,23.963211,121.088264,0.119839124
C2H9F0,柑林,2025-07-28,24.018658,120.847072,0.20564355
C0TA20,加灣,2025-07-28,24.082025,121.608944,0.99987876
C0V530,阿蓮,2025-07-28,22.883208,120.327508,0.36414602
C0FB30,八仙山苗圃,2025-07-28,24.192719,121.001366,0.96028334
C1O880,關山,2025-07-28,23.173397,120.594092,0.097362466
C0E791,卓蘭,2025-07-28,24.3126,120.8244,0.49466097
C1I030,武界,2025-07-28,23.913225,121.052483,0.16770045
C0R520,崁頂,2025-07-28,22.514781,120.506914,0.39233673
C0R341,牡丹,2025-07-28,22.130036,120.792639,0.88956404
C0R930,萬丹,2025-07-28,22.5885,120.4851,0.08742186
C0S760,紅石,2025-07-28,23.069131,121.126219,0.9990892
C2C410,中央大學,2025-07-28,24.967652,121.185165,0.339268
C1M610,石磐龍,2025-07-28,23.496606,120.663506,0.87403804
C0C790,東眼山,2025-07-28,24.8284,121.40888,0.6378016
C0UA10,鴛鴦湖,2025-07-28,24.590269,121.412228,0.92865366
V2C260,八德蔬果,2025-07-28,24.978508,121.281819,0.18468623
C0R800,丹路,2025-07-28,22.204481,120.750989,0.95222026
C0G920,永靖,2025-07-28,23.924703,120.547533,0.28816664
C2M950,太和,2025-07-28,23.538372,120.702961,0.996033
C1A630,下盆,2025-07-28,24.771003,121.538622,0.13782427
B2N890,畜產試驗所,2025-07-28,23.058972,120.336406,0.24777703
C0UA30,白嶺,2025-07-28,24.527819,121.519031,0.9955401
C1V580,溪南(特生中心),2025-07-28,23.084972,120.788475,0.9981396
C1T970,大農,2025-07-28,23.615233,121.413331,0.999919
C0R650,竹田,2025-07-28,22.58486,120.54344,0.7108576
C1H900,清流,2025-07-28,24.080775,120.962997,0.10780338
C1C510,水尾,2025-07-28,24.940081,121.087161,0.6487649
C0F9X0,大雅(中科園區),2025-07-28,24.21528,120.62445,0.38691816
C0SB60,白守蓮,2025-07-28,23.126769,121.401914,0.99981034
C0O970,虎頭埤,2025-07-28,23.021375,120.347878,0.502634
C0C730,中大臨海站,2025-07-28,24.966126,121.008581,0.6107843
C0X250,新營,2025-07-28,23.310689,120.316681,0.27683243
C0V700,三民,2025-07-28,22.645017,120.311233,0.94140077
C0U870,大礁溪,2025-07-28,24.791042,121.675047,0.011657158
C0E870,高鐵苗栗,2025-07-28,24.60725,120.826094,0.7775449
A2K570,古坑花卉中心,2025-07-28,23.63353,120.55239,0.979162
C0TA30,鹽寮,2025-07-28,23.845606,121.592664,0.9999556
C0M860,新美,2025-07-28,23.338017,120.683169,0.16482972
C1E701,八卦,2025-07-28,24.491756,120.927619,0.98375565
C0I420,國姓,2025-07-28,24.037803,120.855072,0.22362427
C2D720,關西工作站,2025-07-28,24.757275,121.184792,0.26599202
C0S960,香蘭,2025-07-28,22.587569,120.993375,0.85636383
467620,蘭嶼,2025-07-28,22.0369,121.55843,0.9995557
C0R260,春日,2025-07-28,22.370361,120.628306,0.9540273
72G600,臺中農改場,2025-07-28,24.003028,120.534389,0.13205482
C0Z210,瑞穗,2025-07-28,23.5239,121.39021,0.99995935
C0M820,達邦,2025-07-28,23.453994,120.749517,0.5881281
C0V860,南寮,2025-07-28,22.7616,120.2339,0.49743238
C0G740,大城,2025-07-28,23.852487,120.320935,0.93782896
C0R920,塭仔,2025-07-28,22.4169,120.5197,0.9384129
C0R470,高樹,2025-07-28,22.826389,120.600806,0.14237402
C0R680,佳樂水,2025-07-28,21.993578,120.861633,0.74928886
C1O870,大棟山,2025-07-28,23.31157,120.52226,0.99555403
C0D360,梅花,2025-07-28,24.678347,121.208558,0.8045451
C0Z190,富世,2025-07-28,24.14743,121.6297,0.060217503
C0AI10,屈尺,2025-07-28,24.92184,121.54475,0.07496307
B2U990,畜試東區分所,2025-07-28,24.669039,121.832561,0.01881415
C0SB80,長濱漁港,2025-07-28,23.313644,121.459994,0.9999397
C0TA50,和仁,2025-07-28,24.241394,121.712472,0.025736086
C0R240,來義,2025-07-28,22.527306,120.625111,0.46978545
C0V910,大樹,2025-07-28,22.684645,120.432803,0.055792976
C1R610,西大武山,2025-07-28,22.617719,120.7322,0.99881536
C0G900,線西,2025-07-28,24.143358,120.443536,0.721192
C0M700,竹崎,2025-07-28,23.526178,120.555508,0.7404125
C2E880,三義,2025-07-28,24.405478,120.749819,0.7195223
C0C720,竹圍,2025-07-28,25.112692,121.239824,0.21089073
C0F9P0,清水,2025-07-28,24.312297,120.562242,0.5639768
C0Z150,吉安光華,2025-07-28,23.930925,121.595153,0.99995947
C0FA80,小雪山天池,2025-07-28,24.28025,121.02627,0.19550972
467300,東吉島,2025-07-28,23.25727,119.66762,0.9920973
C1D640,外坪(五指山),2025-07-28,24.644447,121.090961,0.8979111
C0F9O0,潭子,2025-07-28,24.213106,120.703933,0.9077021
C2H9R0,卓社,2025-07-28,23.887894,121.000086,0.9995975
72T250,花蓮農改場,2025-07-28,23.975222,121.563889,0.9999606
C0E780,銅鑼,2025-07-28,24.489681,120.790853,0.7174791
C1T950,太安,2025-07-28,23.666719,121.370128,0.3242248
C0E830,苑裡,2025-07-28,24.439714,120.653053,0.7895354
467270,田中,2025-07-28,23.873803,120.581286,0.22571701
C0SA10,檳榔四格山,2025-07-28,22.810031,121.109308,0.9998464
C1T830,布洛灣,2025-07-28,24.17184,121.57127,0.15342627
C0F970,大坑,2025-07-28,24.173142,120.722289,0.7252463
C1U920,思源,2025-07-28,24.393125,121.347214,0.8729037
C0A931,三和,2025-07-28,25.233153,121.595236,0.38605818
C0I010,廬山,2025-07-28,24.033311,121.181808,0.99621636
C2M940,日野賀,2025-07-28,23.434056,120.727169,0.9944385
C0R860,鼻頭,2025-07-28,22.1043,120.8979,0.28151947
C0UB20,壯圍,2025-07-28,24.7359,121.8163,0.021455593
C0R790,九棚,2025-07-28,22.14195,120.889281,0.99992985
C0W110,東莒,2025-07-28,25.9652,119.98069,0.22566848
C1U930,粉鳥林,2025-07-28,24.497088,121.842479,0.010222689
C1I211,蘆竹湳,2025-07-28,23.934019,120.811994,0.06769623
C0S830,長濱,2025-07-28,23.286817,121.411975,0.9999789
C1F9F1,伯公龍,2025-07-28,24.272392,120.849047,0.56056505
C0UB90,太平山莊,2025-07-28,24.494171,121.536209,0.9876262
C0E810,西湖,2025-07-28,24.562947,120.7485,0.6993751
C1I440,新高口,2025-07-28,23.478744,120.878939,0.934675
C0O840,王爺宮,2025-07-28,23.222064,120.40085,0.03475128
C0T9G0,鳳林山,2025-07-28,23.735269,121.420131,0.999884
C0X080,佳里,2025-07-28,23.173039,120.145086,0.43778884
C0FB70,大甲溪埔,2025-07-28,24.370625,120.620067,0.619086
C0Z310,清水斷崖,2025-07-28,24.218294,121.689142,0.0339997
C0M680,太保,2025-07-28,23.455062,120.331455,0.21848932
C1S820,金峰,2025-07-28,22.590969,120.933236,0.981425
C0AD10,八里,2025-07-28,25.150211,121.403947,0.21288392
C2K240,草嶺,2025-07-28,23.59555,120.693461,0.848429
C1SA70,都蘭,2025-07-28,22.87794,121.226881,0.99999243
C0K440,二崙,2025-07-28,23.772797,120.408944,0.19292942
C1A760,坪林交控,2025-07-28,24.94284,121.713442,0.026381765
C0F9N0,大里,2025-07-28,24.092464,120.701378,0.08540513
C0SA90,達仁林場,2025-07-28,22.264347,120.823972,0.99902195
C1R290,石門山,2025-07-28,22.112611,120.756597,0.9994941
42HA10,萬大發電廠,2025-07-28,23.978875,121.139639,0.96786445
C0R890,山海,2025-07-28,21.9878,120.7091,0.7088998
C0T9A0,月眉山,2025-07-28,23.809928,121.539828,0.99898493
C0AC70,信義,2025-07-28,25.037822,121.564597,0.042803388
C0K560,棋山,2025-07-28,23.68645,120.603417,0.9810152
C2FB50,出雲,2025-07-28,24.206469,120.902794,0.7626913
C1Z240,中平林道,2025-07-28,23.42115,121.26763,0.720297
U2H480,溪頭,2025-07-28,23.670306,120.798194,0.9961117
C0M880,好美里,2025-07-28,23.3364,120.138,0.49639136
C0T9E0,大坑,2025-07-28,23.880628,121.581981,0.99926096
C0K530,臺西,2025-07-28,23.701547,120.197559,0.8951088
C1E900,國一N128K,2025-07-28,24.560997,120.844186,0.7212393
C0AJ50,水湳洞,2025-07-28,25.123695,121.862238,0.09592402
C0AI20,白沙灣,2025-07-28,25.283128,121.519058,0.29278922
C2V310,美濃,2025-07-28,22.898792,120.51907,0.71170276
C0A860,大坪,2025-07-28,25.165914,121.632969,0.32977554
C1U850,觀音海岸,2025-07-28,24.38319,121.77856,0.50469977
C2K610,草嶺石壁,2025-07-28,23.602469,120.707731,0.91035956
C0U950,鶯子嶺,2025-07-28,24.89754,121.79244,0.98840433
C0O900,善化,2025-07-28,23.112883,120.297219,0.22913332
C0K550,蔦松,2025-07-28,23.514319,120.229736,0.7538861
E2P980,林試六龜中心,2025-07-28,22.991703,120.645722,0.13027252
C0E590,通霄,2025-07-28,24.471892,120.704622,0.7234839
C1I310,西巒,2025-07-28,23.754486,120.883956,0.8913786
C0A550,泰平,2025-07-28,24.971197,121.823711,0.13105954
C0I360,水里,2025-07-28,23.812553,120.849792,0.7646586
C0R830,高士,2025-07-28,22.121825,120.836781,0.99982834
C1I101,溪頭,2025-07-28,23.661789,120.807647,0.99382406
C0AJ20,野柳,2025-07-28,25.20703,121.690021,0.10956171
C0B060,暖暖,2025-07-28,25.0957,121.7403,0.06575221
C1H920,長豐,2025-07-28,24.102039,120.879897,0.08681552
C0V360,內門,2025-07-28,22.975481,120.466769,0.124869466
C0R850,林邊,2025-07-28,22.4634,120.5339,0.39937904
C0E930,龍鳳,2025-07-28,24.700034,120.859125,0.66286933
C0U910,冬山,2025-07-28,24.63373,121.7937,0.01881415
C1E721,泰安,2025-07-28,24.489017,120.968036,0.9976533
82H320,茶改中部分場,2025-07-28,23.875611,120.913583,0.09177928
C0M750,布袋,2025-07-28,23.380878,120.167789,0.57901216
C1S860,利嘉,2025-07-28,22.809417,121.050528,0.9995339
E2S980,林試太麻里1,2025-07-28,22.598922,120.980044,0.92909694
C0X170,關廟,2025-07-28,22.963017,120.327797,0.49907914
C0V720,林園,2025-07-28,22.507747,120.394511,0.12464612
C1I510,線浸林道,2025-07-28,23.761508,120.832956,0.996565
C0D690,外湖,2025-07-28,24.917735,120.968711,0.47638658
C0C750,新興坑尾,2025-07-28,25.0061,121.0971,0.71875894
B2Q810,畜試南區分所,2025-07-28,21.945583,120.802167,0.73345506
C0S790,金崙,2025-07-28,22.538122,120.966875,0.99659896
C0AH90,福山植物園,2025-07-28,24.760717,121.58135,0.03043307
C0I540,奇萊稜線,2025-07-28,24.109231,121.326456,0.027432805
C0M850,表湖,2025-07-28,23.24186,120.64166,0.8920797
C0S770,大溪山,2025-07-28,22.478475,120.943325,0.9998655
C0AG80,中和,2025-07-28,24.991622,121.491792,0.058191244
C0T790,大禹嶺,2025-07-28,24.186117,121.316086,0.09600897
C0T9B0,水源,2025-07-28,23.991861,121.537169,0.9998337
C0R840,牡丹池山,2025-07-28,22.168389,120.841225,0.9984014
C1I131,桶頭,2025-07-28,23.641944,120.654117,0.97145575
CAL110,布袋國中,2025-07-28,23.35893,120.18026,0.51118034
467571,新竹,2025-07-28,24.827853,121.014219,0.36719874
C0Z290,赤柯山,2025-07-28,23.36893,121.38293,0.9995224
C0X280,將軍,2025-07-28,23.214999,120.13577,0.36212647
C0S690,太麻里,2025-07-28,22.60902,120.98533,0.9994543
C0U880,北關,2025-07-28,24.9072,121.8734,0.055665202
C0G810,埔心,2025-07-28,23.947633,120.525456,0.28490847
C0U970,大福,2025-07-28,24.80064,121.81389,0.017849099
C2H9N0,仁愛東眼,2025-07-28,24.026875,121.1205,0.99863976
C1E670,南礦,2025-07-28,24.538278,121.002836,0.9982485
C0M520,東後寮,2025-07-28,23.369908,120.248065,0.52181417
C1E461,松安,2025-07-28,24.397972,120.986022,0.99824536
C2N160,西拉雅風管處,2025-07-28,23.189481,120.335297,0.28082532
C2M970,碧湖,2025-07-28,23.568632,120.624165,0.48181307
C0A640,石碇,2025-07-28,24.993969,121.662917,0.03525272
E2S960,林試太麻里2,2025-07-28,22.598,120.99775,0.84575796
C0F9Y0,桃山,2025-07-28,24.432739,121.303808,0.01426295
C1I020,萬大,2025-07-28,23.979817,121.132261,0.99890655
C0U940,羅東,2025-07-28,24.68184,121.74934,0.022018846
C0M650,朴子,2025-07-28,23.43463,120.23902,0.4782794
C1I500,大尖山,2025-07-28,23.858572,120.994889,0.99725115
C0FB40,中橫21.6k,2025-07-28,24.2499,121.1455,0.9961492
C0G820,田尾,2025-07-28,23.901669,120.509389,0.2866231
E2K600,四湖植物園,2025-07-28,23.676986,120.163433,0.8067325
C0S730,綠島,2025-07-28,22.6672,121.47533,0.9999202
12Q970,東港工作站,2025-07-28,22.479997,120.466058,0.3927115
C0E430,南庄,2025-07-28,24.601775,121.000214,0.6616555
C1TA00,太魯閣,2025-07-28,24.15773,121.6236,0.07065286
466920,臺北,2025-07-28,25.037658,121.514853,0.042645536
C0R600,舊泰武,2025-07-28,22.588194,120.664944,0.99988943
C1I260,北坑,2025-07-28,23.9246,121.006903,0.07768919
466910,鞍部,2025-07-28,25.182586,121.529731,0.99758697
C1I230,九份二山,2025-07-28,23.961944,120.845,0.06788948
C2A660,瑞芳,2025-07-28,25.113169,121.801147,0.13654807
C0R270,琉球嶼,2025-07-28,22.332244,120.362236,0.9598845
C1T990,高寮,2025-07-28,23.394239,121.356808,0.9999657
C0G620,芬園,2025-07-28,24.015678,120.6213,0.26069087
C1Z140,荖溪,2025-07-28,23.890575,121.45964,0.999028
C1I201,中心崙,2025-07-28,23.728722,120.712097,0.99160165
C1I400,凌霄,2025-07-28,24.018778,121.004456,0.99894506
C1M640,十字,2025-07-28,23.492153,120.753683,0.9966505
G2P820,農試鳳山分所,2025-07-28,22.646611,120.356083,0.9468196
C0Z270,蕃薯寮,2025-07-28,23.73835,121.540108,0.9997523
C0FB10,出雲山苗圃,2025-07-28,24.23105,120.90475,0.98236614
C0F9Q0,外埔,2025-07-28,24.347817,120.705686,0.445493
C0K580,高鐵雲林,2025-07-28,23.737456,120.417944,0.6034579
C2I090,鳳凰,2025-07-28,23.728081,120.787347,0.42034552
C0U990,員山,2025-07-28,24.74435,121.72247,0.02181818
C0V770,大社,2025-07-28,22.730306,120.346639,0.51966894
C0X120,麻豆,2025-07-28,23.183289,120.248611,0.27623594
C0C670,龍潭,2025-07-28,24.870056,121.221389,0.40477228
C0D680,香山濕地,2025-07-28,24.783581,120.914988,0.2462703
C0S980,勝林山,2025-07-28,22.430439,120.8938,0.9994904
C0V730,大寮,2025-07-28,22.605614,120.395717,0.6259043
C0R570,麟洛,2025-07-28,22.65078,120.52719,0.05775708
C2M930,石卓,2025-07-28,23.478744,120.702264,0.9962551
C0G9B0,和美,2025-07-28,24.105169,120.492131,0.5138421
CAG100,王功漁港,2025-07-28,23.96824,120.32586,0.8195185
C0X290,北門,2025-07-28,23.267772,120.125481,0.3609794
C2F930,大甲,2025-07-28,24.347667,120.640403,0.7249932
C0D650,湖口,2025-07-28,24.904794,121.043628,0.6300079
C0E420,竹南,2025-07-28,24.708978,120.888897,0.71320087
C0U780,五結,2025-07-28,24.68637,121.79794,0.021497918
C1I250,鯉潭,2025-07-28,23.961922,120.991131,0.15071872
C0R130,阿禮,2025-07-28,22.742908,120.743678,0.999483
C0X100,臺南市北區,2025-07-28,23.010394,120.194228,0.34867406
C0S920,金峰嘉蘭,2025-07-28,22.594789,120.960825,0.93179774
C0V490,新興,2025-07-28,22.627422,120.298803,0.9318913
C0F9K0,大安,2025-07-28,24.345061,120.588025,0.6079336
467290,古坑,2025-07-28,23.633639,120.551889,0.979162
C2E970,八甲,2025-07-28,24.535811,120.795983,0.8971363
C0V440,鳳山,2025-07-28,22.646653,120.356122,0.94681966
C1T940,大觀,2025-07-28,23.714206,121.373133,0.99935806
C0E740,造橋,2025-07-28,24.637056,120.864778,0.6225774
C0R100,尾寮山,2025-07-28,22.833111,120.683889,0.9993866
A2K630,臺大雲林校區,2025-07-28,23.730628,120.423903,0.6048266
467990,馬祖,2025-07-28,26.169467,119.923158,0.025429098
C0D580,寶山,2025-07-28,24.735006,121.025192,0.25474286
E2P990,林試扇平站,2025-07-28,22.9677,120.6857,0.99990344
C0AI30,三重,2025-07-28,25.057328,121.500629,0.041658897
C0AH00,汐止,2025-07-28,25.066881,121.658778,0.042645536
C1Z040,立山,2025-07-28,23.443356,121.327375,0.9995764
466881,新北,2025-07-28,24.959207,121.525196,0.061625093
C0W130,花嶼,2025-07-28,23.40007,119.32276,0.9931402
C0A950,鼻頭角,2025-07-28,25.129036,121.923372,0.065072335
C0K470,林內,2025-07-28,23.748675,120.609642,0.96603006
C2F990,摩天嶺,2025-07-28,24.322458,120.936819,0.29239646
82C160,茶改場,2025-07-28,24.908472,121.185333,0.4471477
C0Z320,清水林道,2025-07-28,23.27125,121.188272,0.999661
C0R760,南仁湖,2025-07-28,22.084681,120.863353,0.99952024
C0M670,大林,2025-07-28,23.600616,120.45841,0.6180657
C0M800,茶山,2025-07-28,23.299075,120.664767,0.111425504
C0A9C0,天母,2025-07-28,25.117494,121.537169,0.0731781
72K220,南改斗南分場,2025-07-28,23.634556,120.477333,0.649364
72AI40,桃改樹林分場,2025-07-28,24.944503,121.386972,0.10500756
C0S910,蘭嶼燈塔,2025-07-28,22.081197,121.503117,0.96893
C0B050,八斗子,2025-07-28,25.144754,121.79167,0.08951058
C0U900,內城,2025-07-28,24.71813,121.68766,0.023311121
C0X320,柳營,2025-07-28,23.253328,120.375253,0.22766735
C0M790,新港,2025-07-28,23.553269,120.345728,0.7830405
C0F9T0,西屯,2025-07-28,24.179494,120.641275,0.20778432
C0E950,松安,2025-07-28,24.39792,120.98599,0.99824536
C0SA30,都歷,2025-07-28,23.020333,121.323642,0.9999943
C0C620,蘆竹,2025-07-28,25.084275,121.265767,0.27695522
C0R730,大坪頂,2025-07-28,22.024633,120.69355,0.83707434
C0AJ40,石門,2025-07-28,25.273672,121.601198,0.57388115
C0E750,苗栗,2025-07-28,24.564569,120.824575,0.70906824
C0T870,鯉魚潭,2025-07-28,23.935639,121.508944,0.9998652
C1V170,排雲,2025-07-28,23.463619,120.954147,0.040117893
C2H950,中寮,2025-07-28,23.884447,120.766406,0.9873825
C0R350,貓鼻頭,2025-07-28,21.921774,120.7358,0.993126
C0V660,岡山,2025-07-28,22.797078,120.294958,0.32112825
C1H941,雙冬,2025-07-28,23.967378,120.802189,0.08296568
C0AJ70,田寮,2025-07-28,25.2698,121.4886,0.2844758
C0AI00,五股,2025-07-28,25.07445,121.42728,0.37402096
C0Z280,德武,2025-07-28,23.47426,121.41071,0.99995303
C0R700,枋山,2025-07-28,22.246844,120.661086,0.9930011
C0C460,復興,2025-07-28,24.820208,121.352281,0.34273922
E2H360,蓮華池,2025-07-28,23.918333,120.885278,0.12606007
C0M640,中埔,2025-07-28,23.42538,120.5229,0.46858343
C0W140,金沙,2025-07-28,24.488292,118.408778,0.03685059
C2A540,四堵,2025-07-28,24.8926,121.745736,0.13462037
C0ACA0,新莊,2025-07-28,25.051478,121.446756,0.077891074
C0R220,潮州,2025-07-28,22.534361,120.54,0.3989133
U2HA40,臺大內茅埔,2025-07-28,23.689722,120.851117,0.43796137
467490,臺中,2025-07-28,24.145736,120.684075,0.8451086
C0UB60,明池,2025-07-28,24.650688,121.475277,0.9988511
C0U960,翠峰湖,2025-07-28,24.510856,121.608044,0.96321136
E2HA20,林試畢祿溪站,2025-07-28,24.226944,121.308522,0.7137392
C0V890,前鎮,2025-07-28,22.5718,120.3117,0.9297194
C1F941,雪嶺,2025-07-28,24.280586,121.026642,0.19550972
C2H9E0,國姓南港,2025-07-28,23.911108,120.846556,0.9886734
C0AC80,文山,2025-07-28,25.00235,121.575728,0.06742919
C0F9R0,龍井,2025-07-28,24.184536,120.528972,0.7715331
C0M760,民雄,2025-07-28,23.551754,120.428457,0.61205554
C0UA40,西德山,2025-07-28,24.560647,121.752608,0.99508065
C1T920,中興,2025-07-28,23.769503,121.498653,0.9999334
C0D550,雪霸,2025-07-28,24.526972,121.11605,0.8542346
C2F860,梨山,2025-07-28,24.247522,121.243669,0.6683519
C0R320,車城,2025-07-28,22.0744,120.716247,0.205462
C1S870,南美山,2025-07-28,23.15025,121.382333,0.99998367
C0B020,基隆嶼,2025-07-28,25.19141,121.78391,0.17490466
C1U501,牛鬥,2025-07-28,24.637836,121.573656,0.029361384
C0M730,嘉義市東區,2025-07-28,23.457673,120.460531,0.7029392
C0S700,知本,2025-07-28,22.684866,121.005642,0.99930346
C1N001,沙崙,2025-07-28,22.935472,120.309406,0.485736
C0V760,橋頭,2025-07-28,22.757806,120.30575,0.5101852
C0G960,福寶,2025-07-28,24.0443,120.3814,0.50098354
C0X210,白河,2025-07-28,23.347466,120.414427,0.41779017
C0S810,東河,2025-07-28,22.972672,121.303986,0.99998635
C2R170,屏東,2025-07-28,22.66027,120.49403,0.05782743
C0R670,楓港,2025-07-28,22.190131,120.692156,0.6398909
C0FA50,霧峰,2025-07-28,24.0419,120.6995,0.4258566
C0UB10,蘇澳,2025-07-28,24.5969,121.8571,0.00628829
C0G950,防潮門,2025-07-28,24.1835,120.4871,0.76683116
C0M740,六腳,2025-07-28,23.492871,120.290625,0.477617
C1R250,力里,2025-07-28,22.428117,120.629228,0.94714016
C0K330,虎尾,2025-07-28,23.719183,120.442036,0.6130661
C2FA00,烏石坑,2025-07-28,24.273503,120.947617,0.23440327
C0V620,永安,2025-07-28,22.82315,120.236856,0.3195191
C1I330,楓樹林,2025-07-28,23.986803,121.076117,0.99950165
C0W200,湖西,2025-07-28,23.596314,119.67275,0.9983835
72Q010,高雄農改場,2025-07-28,22.709333,120.525889,0.07062184
C0SA40,瑞和,2025-07-28,22.974361,121.156697,0.9999932
C0C680,龜山,2025-07-28,25.02846,121.38656,0.06160367
C2V260,月眉,2025-07-28,22.971003,120.539853,0.1376579
C0V450,鳳森,2025-07-28,22.545064,120.392592,0.13432498
C0FA90,小雪山林道,2025-07-28,24.29515,121.03651,0.065396085
C0U720,南山,2025-07-28,24.43742,121.38167,0.8059131
A2N290,臺南蘭花園區,2025-07-28,23.340258,120.379661,0.2881884
C0R560,新園,2025-07-28,22.5434,120.461558,0.12464612
C0U890,三星,2025-07-28,24.66812,121.65302,0.0202315
C1V300,御油山,2025-07-28,23.001983,120.715364,0.9982035
C0U600,礁溪,2025-07-28,24.817539,121.765608,0.016011423
C1T980,龍澗,2025-07-28,24.023289,121.411328,0.9991351
C0D670,海天一線,2025-07-28,24.831986,120.914438,0.72043735
C0SA00,歷坵,2025-07-28,22.520969,120.89185,0.99959874
C0M710,東石,2025-07-28,23.458927,120.15385,0.6776025
C0M780,鹿草,2025-07-28,23.41134,120.30835,0.49497524
C0U520,雙連埤,2025-07-28,24.753033,121.641303,0.011955729
C0B010,七堵,2025-07-28,25.094819,121.71713,0.056318995
C0R480,長治,2025-07-28,22.693128,120.542622,0.055745166
C1V830,國三S383K,2025-07-28,22.781967,120.426475,0.05763746
12Q980,恆春工作站,2025-07-28,22.079678,120.714425,0.20601362
C1O940,東山服務區,2025-07-28,23.286016,120.398472,0.2599753
C1U840,東澳嶺,2025-07-28,24.5378,121.8485,0.04146672
C1D630,飛鳳山,2025-07-28,24.766464,121.119178,0.23043
C0S940,石寧山,2025-07-28,23.223772,121.406639,0.99998546
C0K410,北港,2025-07-28,23.573957,120.292802,0.79177964
C2M620,瑞里,2025-07-28,23.545133,120.675197,0.992044
C0SB70,小港漁港,2025-07-28,23.158558,121.400431,0.9993997
C2O950,安南,2025-07-28,23.076694,120.144861,0.34480166
C0F0E0,南湖圈谷,2025-07-28,24.363714,121.444667,0.029787727
467610,成功,2025-07-28,23.097486,121.373428,0.9999081
C0G890,伸港,2025-07-28,24.148933,120.484403,0.72515285
C2E540,龍溪,2025-07-28,24.606489,120.783933,0.7629218
C1V200,梅山,2025-07-28,23.268447,120.823556,0.9997051
C0T9H0,加路蘭山,2025-07-28,23.682947,121.5274,0.99981624
C2O930,玉井,2025-07-28,23.126042,120.46055,0.57886636
C1F911,新伯公,2025-07-28,24.221361,120.841069,0.6960949
C0R490,九如,2025-07-28,22.7405,120.490503,0.070513815
C0X200,左鎮,2025-07-28,23.056758,120.408522,0.6242169
C0FA60,鞍馬山工作站,2025-07-28,24.267064,121.000793,0.64473903
C0SB50,叭嗡嗡,2025-07-28,23.047062,121.343223,0.99998724
C1F891,稍來,2025-07-28,24.265689,121.001142,0.69755745
72N240,七股研究中心,2025-07-28,23.081672,120.062894,0.47035953
C0C700,中壢,2025-07-28,24.977661,121.256375,0.20415106
C0M690,水上,2025-07-28,23.419734,120.388909,0.22233415
C0V690,鼓山,2025-07-28,22.623325,120.275575,0.93165034
C0O860,大內,2025-07-28,23.11885,120.36083,0.24285282
C0Z200,萬榮,2025-07-28,23.709219,121.420106,0.99993974
C0T9D0,和中,2025-07-28,24.26676,121.74103,0.013311808
C1O921,楠西,2025-07-28,23.183511,120.484083,0.44558865
C0AJ30,淡水觀海,2025-07-28,25.184591,121.408616,0.10615042
C0V810,左營,2025-07-28,22.67491,120.28491,0.9414529
C0UA70,桃源谷,2025-07-28,24.962606,121.888875,0.016176587
C0X130,官田,2025-07-28,23.193217,120.315422,0.2751394
C1H000,翠峰,2025-07-28,24.109397,121.205211,0.56446195
C0UA90,石城,2025-07-28,24.980444,121.951214,0.029593648
C1E681,南勢山,2025-07-28,24.421669,120.923831,0.99694884
C0A9F0,內湖,2025-07-28,25.079422,121.57545,0.042645536
C0K291,宜梧,2025-07-28,23.536281,120.169329,0.75139135
C1K540,口湖,2025-07-28,23.585344,120.180517,0.5188613
C0R780,滿州,2025-07-28,22.024403,120.839892,0.78879887
C0V870,文安,2025-07-28,22.8025,120.2164,0.31459367
C0U650,玉蘭,2025-07-28,24.675286,121.587061,0.009739852
C0R640,東港,2025-07-28,22.46247,120.44074,0.39243308
C0AJ80,板橋,2025-07-28,25.0107,121.4489,0.05701428
C0S660,下馬,2025-07-28,23.150427,121.070312,0.99966407
C1H9B1,阿眉,2025-07-28,24.1263,120.994672,0.96996903
C0UA20,多加屯,2025-07-28,24.368614,121.373189,0.13040984
C0E730,頭份,2025-07-28,24.688247,120.912206,0.70619553
72V140,高改旗南分場,2025-07-28,22.857861,120.516667,0.1043845
C0K480,莿桐,2025-07-28,23.761192,120.502372,0.3258749
C0U980,坪林石牌,2025-07-28,24.86478,121.77396,0.017276835
C0T900,西林,2025-07-28,23.8119,121.441458,0.99981785
C1I150,青雲,2025-07-28,23.793361,120.949378,0.23298287
467350,澎湖,2025-07-28,23.565503,119.563094,0.9991297
C0G800,埔鹽,2025-07-28,24.000394,120.431683,0.58445907
C0H960,草屯,2025-07-28,23.973672,120.68085,0.44754624
C1V780,多納林道,2025-07-28,22.888028,120.737917,0.9997483
C0E920,通霄漁港,2025-07-28,24.498589,120.673876,0.78871745
C0Z330,安通山,2025-07-28,23.290728,121.348528,0.9997259
C0AH10,永和,2025-07-28,25.01125,121.508111,0.056535378
C0AK10,太平里,2025-07-28,25.134937,121.364899,0.21870667
C2G640,鹿港,2025-07-28,24.0753,120.430481,0.5026933
C1E890,國三N149K,2025-07-28,24.463414,120.680019,0.6783194
C1R110,口社,2025-07-28,22.770111,120.645222,0.19264959
C1M870,國三N285K,2025-07-28,23.550319,120.505833,0.97542226
C1E480,鳳美,2025-07-28,24.554803,121.034747,0.7612717
C0M530,奮起湖,2025-07-28,23.493903,120.699253,0.9960456
C0C590,觀音,2025-07-28,25.027072,121.153317,0.8186883
C0T9M0,靜浦,2025-07-28,23.455167,121.495028,0.999979
C2H9M0,發祥,2025-07-28,24.154094,121.164517,0.99841106
C0AI40,石牌,2025-07-28,25.115597,121.513139,0.07133546
C1F871,上谷關,2025-07-28,24.203483,121.018644,0.30474365
C2H9G0,百勝,2025-07-28,24.051142,120.909361,0.62400514
C0G880,二水,2025-07-28,23.810742,120.6173,0.8584682
C0R940,加祿堂,2025-07-28,22.3363,120.6217,0.9028914
C0W220,北竿,2025-07-28,26.220358,119.974881,0.026535751
C0O960,崎頂,2025-07-28,22.959547,120.369317,0.57863134
C0TA40,秀林,2025-07-28,24.302864,121.731144,0.9996018
C0S750,向陽,2025-07-28,23.248397,120.986133,0.95926964
C0T9F0,水璉,2025-07-28,23.797131,121.542514,0.99966806
C1M600,頭凍,2025-07-28,23.406364,120.603339,0.9687317
467660,臺東,2025-07-28,22.752211,121.154586,0.999981
C1D380,新埔,2025-07-28,24.84745,121.03834,0.4367842
C2G980,田頭村,2025-07-28,23.8263,120.444175,0.19277415
C0V750,路竹,2025-07-28,22.854997,120.259439,0.48040885
C0N050,蚵寮,2025-07-28,23.301,120.1104,0.4958005
72M700,南改鹿草分場,2025-07-28,23.416869,120.283061,0.48328176
C1SA50,利嘉林道,2025-07-28,22.82325,121.009389,0.9979711
C0UB70,太平山中間站,2025-07-28,24.542003,121.513453,0.92867386
C0A940,金山,2025-07-28,25.223628,121.643967,0.1190403
C1V340,大津,2025-07-28,22.888322,120.645986,0.17123766
C0W180,七美,2025-07-28,23.219333,119.444892,0.99557215
C1F9C1,白冷,2025-07-28,24.182844,120.929889,0.9590132
K2E710,苗改生物防治研究中心,2025-07-28,24.422861,120.871833,0.78042626
C0N040,蘆竹溝,2025-07-28,23.2344,120.0961,0.36053708
C0D760,大坪苗圃,2025-07-28,24.5362,121.1108,0.99771065
C2W230,畜試所澎湖,2025-07-28,23.628342,119.513206,0.9991721
C0R880,後壁湖,2025-07-28,21.9457,120.7457,0.694083
C1I280,埔中,2025-07-28,23.820778,120.642594,0.6556537
467790,墾丁雷達站,2025-07-28,21.948235,120.808028,0.8322557
C0W190,望安,2025-07-28,23.380564,119.494075,0.99758095
C0Z170,卓溪,2025-07-28,23.3443,121.3029,0.99998176
C0F850,東勢,2025-07-28,24.246428,120.833047,0.70848477
466900,淡水,2025-07-28,25.164889,121.448906,0.21941274
C0I370,魚池,2025-07-28,23.895703,120.94135,0.40264294
C0C630,大溪,2025-07-28,24.882853,121.265547,0.45810592
C0A520,山佳,2025-07-28,24.974944,121.402008,0.08335145
C0I110,竹山,2025-07-28,23.761225,120.688156,0.90633667
82H840,茶改南部分場,2025-07-28,23.762528,120.7405,0.9528697
C0G660,溪湖,2025-07-28,23.94835,120.479122,0.27842194
C1T800,洛韶,2025-07-28,24.204558,121.453956,0.99959004
C1T810,慈恩,2025-07-28,24.192044,121.388386,0.89962536
C1E451,象鼻,2025-07-28,24.368617,120.940228,0.9984538
C0AC60,三峽,2025-07-28,24.939025,121.369728,0.17693734
C0I490,萬大林道,2025-07-28,23.928228,121.091411,0.9956726
C1I290,豐丘,2025-07-28,23.668178,120.887417,0.9959807
C1I320,奧萬大,2025-07-28,23.952956,121.178556,0.9988195
C2M910,嘉義大學,2025-07-28,23.471325,120.485903,0.38384277
C0U770,南澳,2025-07-28,24.44935,121.81022,0.010249666
C0A980,社子,2025-07-28,25.109508,121.469681,0.20422019
C0V800,六龜,2025-07-28,22.997889,120.633583,0.12772828
C1G9D0,國一S218K,2025-07-28,23.890641,120.493253,0.3942941
C0E570,白沙屯,2025-07-28,24.549447,120.696803,0.80593747
C2F9A0,中竹林,2025-07-28,24.103556,120.751061,0.8559177
C0FA40,臺中電廠,2025-07-28,24.2146,120.4907,0.77203023
C2G9A0,畜試所彰化,2025-07-28,23.86045,120.557964,0.22541738
C0H9C0,合歡山,2025-07-28,24.143442,121.272547,0.024639547
C0X060,下營,2025-07-28,23.22695,120.256261,0.3613162
G2M350,農試溪口農場,2025-07-28,23.58565,120.408111,0.6003624
C0U860,頭城,2025-07-28,24.85323,121.8308,0.015904063
C0R580,南州,2025-07-28,22.48591,120.50274,0.39243308
C0D430,峨眉,2025-07-28,24.6905,121.017189,0.36780334
C0G780,秀水,2025-07-28,24.03405,120.503869,0.13179506
72N100,臺南農改場,2025-07-28,23.0605,120.342194,0.24922253
C0S900,蘭嶼高中,2025-07-28,22.04909,121.51214,0.90687865
C1F9W0,德基,2025-07-28,24.254783,121.190261,0.89679015
C1Z120,壽豐,2025-07-28,23.870853,121.508081,0.9999481
C0W160,烏坵,2025-07-28,24.9944,119.44956,0.97909623
C1I240,外大坪,2025-07-28,23.958697,120.917931,0.16516389
C1I550,國六W023K,2025-07-28,23.979067,120.867742,0.22957526
C0R870,興海,2025-07-28,21.9752,120.8439,0.7349959
C0R140,瑪家,2025-07-28,22.682903,120.686639,0.99993384
C0A530,坪林,2025-07-28,24.938183,121.70975,0.030831218
C0X260,後壁,2025-07-28,23.366358,120.362326,0.23555401
C0Z230,和平,2025-07-28,24.30717,121.77007,0.013277517
C0G770,福興,2025-07-28,24.041289,120.437669,0.5826229
C0H9A0,神木村,2025-07-28,23.532742,120.843667,0.99732536
C0I460,南投,2025-07-28,23.911469,120.687331,0.8094411
C0I480,梅峰,2025-07-28,24.085272,121.173572,0.8947181
C1V570,吉東,2025-07-28,22.85422,120.5454,0.10549201
C2D740,屯原,2025-07-28,24.067969,121.209389,0.99154484
C2A560,福山,2025-07-28,24.776203,121.502811,0.027312689
C0AH30,五分山,2025-07-28,25.07125,121.780794,0.5145579
C0FA10,松柏,2025-07-28,24.429115,120.617482,0.76171297
72S200,東改班鳩分場,2025-07-28,22.829528,121.077694,0.9999512
72HA00,中改埔里分場,2025-07-28,23.903208,120.963364,0.0975336
C2H9W0,大坪頂農水,2025-07-28,24.043122,120.932781,0.09253613
C0C650,平鎮,2025-07-28,24.897503,121.214636,0.38695338
C0S930,延平,2025-07-28,22.902581,121.084058,0.9999826
C0UA60,樟樹山,2025-07-28,24.41393,121.78325,0.010789509
C1S670,摩天,2025-07-28,23.199503,121.027,0.9989244
C0V630,茄萣,2025-07-28,22.906642,120.182608,0.35432652
466940,基隆,2025-07-28,25.133314,121.740475,0.09107954
C0X050,東河,2025-07-28,23.296598,120.385608,0.25086233
C0R770,保力,2025-07-28,22.071122,120.764111,0.47296116
G2L020,農試嘉義分所,2025-07-28,23.485028,120.473806,0.6567151
C0X240,關子嶺,2025-07-28,23.331169,120.508025,0.2695191
C0I380,集集,2025-07-28,23.828206,120.801467,0.751762
466990,花蓮,2025-07-28,23.975128,121.613275,0.9999647
C1V220,小關山,2025-07-28,23.154217,120.813603,0.9983923
C1F9G1,慶福山,2025-07-28,24.180853,120.848378,0.4615726
C0FB20,雪山橋,2025-07-28,24.23192,120.9786,0.88866967
C0Z250,瑞穗林道,2025-07-28,23.49284,121.30688,0.7943125
C0D590,新豐,2025-07-28,24.87068,120.97721,0.8840537
C0A870,五指山,2025-07-28,25.132153,121.608692,0.985475
C0UA50,西帽山,2025-07-28,24.555361,121.802628,0.057247773
C0X160,仁德,2025-07-28,22.968258,120.257689,0.32394537
C1H971,六分寮,2025-07-28,23.92507,120.6378,0.35319206
C0W120,西嶼,2025-07-28,23.5626,119.468436,0.99945813
C0G650,員林,2025-07-28,23.946503,120.585597,0.22728945
C0AD50,鶯歌,2025-07-28,24.951533,121.346294,0.19718786
C2H9Q0,北東眼山,2025-07-28,24.120939,121.189303,0.9834688
C2H9T0,名間竹圍,2025-07-28,23.859914,120.637572,0.66193914
C0S990,山豬窟,2025-07-28,22.318619,120.857372,0.999777
C0X190,安平,2025-07-28,22.993161,120.152181,0.34907255
C0K400,斗六,2025-07-28,23.720583,120.541127,0.35967737
12J990,口湖工作站,2025-07-28,23.589978,120.180394,0.52047783
C0O830,北寮,2025-07-28,23.079561,120.495008,0.058388855
C1D410,白蘭,2025-07-28,24.579364,121.079947,0.9982513
C0S970,加津林,2025-07-28,22.416211,120.926942,0.9978822
C0D700,關西,2025-07-28,24.7977,121.1732,0.3390959
C0M810,里佳,2025-07-28,23.389125,120.716647,0.99696183
C0U750,龜山島,2025-07-28,24.841667,121.953133,0.08965261
C0R810,內獅,2025-07-28,22.305064,120.642986,0.8999706
C1M390,龍美,2025-07-28,23.406728,120.654417,0.9979427
C2FB60,頭櫃山,2025-07-28,24.129842,120.858925,0.90915203
C1H840,國三N238K,2025-07-28,23.841008,120.707711,0.59147555
CAQ030,崎峰國小,2025-07-28,22.42565,120.49521,0.39243308
C2E520,大湖,2025-07-28,24.414939,120.870872,0.2784582
467530,阿里山,2025-07-28,23.508208,120.813242,0.91730934
C1E691,南湖,2025-07-28,24.40135,120.837533,0.8675229
C0FA30,梧棲,2025-07-28,24.256003,120.523381,0.56287974
C1V231,高中,2025-07-28,23.134911,120.716711,0.8493336
C0AK30,硬漢嶺,2025-07-28,25.136097,121.426372,0.9303962
C0F9V0,新社,2025-07-28,24.200172,120.815806,0.87687135
C0H890,埔里,2025-07-28,23.972169,120.952425,0.4769364
C0R690,墾丁,2025-07-28,21.966756,120.810269,0.99953073
C0F0D0,審馬陣,2025-07-28,24.381675,121.4203,0.022740953
C2W030,金門農試所,2025-07-28,24.448431,118.451786,0.03806554
C0R820,白鷺,2025-07-28,22.454275,120.666219,0.99954224
C0FB00,大雪山,2025-07-28,24.254668,121.007374,0.69287974
C1V190,南天池,2025-07-28,23.27403,120.91176,0.93537897
C0E940,雪見,2025-07-28,24.42595,121.01347,0.8555124
K2E360,苗栗農改場,2025-07-28,24.495722,120.829111,0.6206331
CAJ050,海口故事園區,2025-07-28,23.57543,120.14121,0.5192882
C2H9D0,三隻寮,2025-07-28,24.093078,120.861578,0.10789379
C0O990,媽廟,2025-07-28,22.99175,120.293525,0.27419275
C0D480,打鐵坑,2025-07-28,24.849664,121.150789,0.40931702
C0Z220,和平林道,2025-07-28,24.343922,121.656317,0.07807283
C0TA10,花蓮漁港,2025-07-28,23.995322,121.638331,0.9999666
72C440,桃園農改場,2025-07-28,24.950944,121.030583,0.5495272
C1E711,馬拉邦山,2025-07-28,24.367306,120.901656,0.9005525
C0SB20,富岡,2025-07-28,22.792467,121.192669,0.99998623
C0D560,竹東,2025-07-28,24.767147,121.057881,0.22857387
C0F9U0,南屯,2025-07-28,24.137006,120.637969,0.10996398
C0M720,番路,2025-07-28,23.464657,120.554156,0.21531148
C0F0A0,雪山圈谷,2025-07-28,24.388594,121.236339,0.00831391
C1A9N0,四十份,2025-07-28,24.934158,121.593283,0.27181342
C0U760,東澳,2025-07-28,24.52196,121.83318,0.010245381
C0X230,鹽水,2025-07-28,23.272621,120.247641,0.50613475
C2H9H0,苗改南投蜂場,2025-07-28,23.852589,120.693481,0.7771836
C0R950,萬隆國小,2025-07-28,22.507667,120.587817,0.42594144
467540,大武,2025-07-28,22.35572,120.90374,0.99633557
C0V370,古亭坑,2025-07-28,22.893178,120.401947,0.84176904
C1I340,新興橋,2025-07-28,23.563333,120.868728,0.8201089
C0SA80,土坂,2025-07-28,22.453108,120.887572,0.9989744
C0R160,鹽埔,2025-07-28,22.739558,120.530778,0.07060093
C0AC40,大屯山,2025-07-28,25.175675,121.522408,0.98686236
466850,五分山雷達站,2025-07-28,25.071182,121.781205,0.56860685
C2H9L0,馬烈霸,2025-07-28,24.1512,121.201772,0.91485876
C1AI50,國三N016K,2025-07-28,25.034164,121.619664,0.04698699
C1V600,藤枝,2025-07-28,23.071961,120.757042,0.99904114
C1E601,南勢,2025-07-28,24.572486,120.734842,0.8311853
C0O980,新市,2025-07-28,23.061614,120.298197,0.2304019
C0K420,西螺,2025-07-28,23.800407,120.467394,0.1976224
C0Z050,佳心,2025-07-28,23.34567,121.21316,0.9995851
C0AD30,蘆洲,2025-07-28,25.086594,121.472331,0.042031385
C0V610,梓官,2025-07-28,22.760558,120.267211,0.5091685
K2F750,種苗改良場,2025-07-28,24.225972,120.800917,0.7968974
C0UA80,大溪漁港,2025-07-28,24.941801,121.902955,0.021576075
C1AI60,國一39K邊坡,2025-07-28,25.064361,121.383836,0.053488255
C0W150,金寧,2025-07-28,24.457703,118.328989,0.038691025
C0R960,內埔,2025-07-28,22.608483,120.570714,0.7155874
V2C250,八德合作社,2025-07-28,24.93775,121.266389,0.29014122
C2H9S0,龍南,2025-07-28,23.953536,120.833183,0.8235377
C0AH40,平等,2025-07-28,25.129142,121.577086,0.49358234
C0R540,佳冬,2025-07-28,22.419456,120.552375,0.94051707
466950,彭佳嶼,2025-07-28,25.627975,122.079744,0.9719556
C0A890,雙溪,2025-07-28,25.036003,121.864242,0.14048141
C0C480,桃園,2025-07-28,24.992425,121.323172,0.17848177
C0AH50,林口,2025-07-28,25.072181,121.38084,0.067906976
A2K360,水試臺西試驗場,2025-07-28,23.717231,120.190522,0.8923478
C2M960,外寮,2025-07-28,23.562643,120.665688,0.63908386
C0F9S0,烏日,2025-07-28,24.107058,120.624103,0.21185312
C0C490,八德,2025-07-28,24.928708,121.283289,0.29568574
C0R190,赤山,2025-07-28,22.592333,120.614306,0.7201305
C0T820,天祥,2025-07-28,24.179597,121.495639,0.27874076
C1F9E1,龍安,2025-07-28,24.1605,120.831961,0.9881471
C0V820,小林,2025-07-28,23.148408,120.63325,0.14595923
C2G870,芳苑,2025-07-28,23.922303,120.320025,0.82364255
C0E850,大河,2025-07-28,24.618069,120.948578,0.4294146
C1U670,寒溪,2025-07-28,24.634,121.71691,0.02084052
C0N020,城西,2025-07-28,23.0568,120.0956,0.48744506
C1Z110,三棧,2025-07-28,24.11557,121.60501,0.999886
C0R280,檳榔,2025-07-28,22.076078,120.836777,0.97939116
C2H9J0,中台,2025-07-28,23.9996,120.938739,0.08514017
C0F9L0,后里,2025-07-28,24.310436,120.729725,0.23914127
467441,高雄,2025-07-28,22.730432,120.312516,0.5174966
C0Z180,新城,2025-07-28,24.040486,121.604878,0.99996316
C0D540,橫山,2025-07-28,24.71116,121.11693,0.36123097
C1D420,太閣南,2025-07-28,24.632808,121.160575,0.99397904
C1E770,公館,2025-07-28,24.526914,120.830806,0.5559293
CAN130,水試所海水繁養殖中心,2025-07-28,23.120802,120.07968,0.47187126
C1I430,翠華,2025-07-28,24.191961,121.224339,0.43888357
C1M400,菜瓜坪,2025-07-28,23.251928,120.576103,0.10881121
C0G730,二林,2025-07-28,23.903325,120.376081,0.6640415
72M360,南改義竹分場,2025-07-28,23.360694,120.279361,0.5249694
V2K620,麥寮合作社,2025-07-28,23.753836,120.294783,0.91956383
C0Z070,舞鶴,2025-07-28,23.46811,121.37407,0.9999262
C0B040,大武崙,2025-07-28,25.166676,121.706993,0.10182716
C1Z030,紅葉,2025-07-28,23.493119,121.338806,0.9999201
C1I050,丹大,2025-07-28,23.753747,121.141147,0.9268196
C0I080,信義,2025-07-28,23.689694,120.851036,0.43796077
C0D750,樂山林道6k,2025-07-28,24.49999,121.08773,0.3977061
C2M920,朴子農改,2025-07-28,23.469889,120.259383,0.4768313
C2A880,福隆,2025-07-28,25.017842,121.942083,0.029337546
C0Z160,鳳林,2025-07-28,23.746114,121.453411,0.99995005
C0UB80,翠峰林道6K,2025-07-28,24.49773,121.568625,0.9144504
C0V210,復興,2025-07-28,23.222403,120.806089,0.9973077
C0H990,昆陽,2025-07-28,24.121322,121.273642,0.058538526
C0R741,獅子,2025-07-28,22.202308,120.705236,0.91278213
C0S710,鹿野,2025-07-28,22.917711,121.122994,0.99995387
C0I530,小奇萊,2025-07-28,24.131764,121.295717,0.049772106
C0FA70,大雪山埡口,2025-07-28,24.26867,121.03062,0.20707288
C2K630,荷苞,2025-07-28,23.657717,120.595144,0.98554957
C0Z080,富源,2025-07-28,23.587642,121.378225,0.99993193
C0SB10,美和,2025-07-28,22.682078,121.060236,0.9934084
C2K620,馬光農場,2025-07-28,23.721453,120.378864,0.5950941
C1I140,卡奈托灣,2025-07-28,23.754364,121.087872,0.99649066
C0I520,玉山風口,2025-07-28,23.470489,120.955994,0.031883243
C1G691,下水埔,2025-07-28,23.816114,120.5676,0.33899373
C0X110,臺南市南區,2025-07-28,22.961189,120.188378,0.3219366
C0V680,仁武,2025-07-28,22.701083,120.347722,0.94204134
C2G840,北斗,2025-07-28,23.877586,120.514222,0.40163803
C0R900,竹坑,2025-07-28,22.1385,120.7022,0.41347986
C0K250,崙背,2025-07-28,23.75555,120.318925,0.92045707
C0G860,社頭,2025-07-28,23.897647,120.5862,0.5532275
C0X150,安定,2025-07-28,23.102614,120.227839,0.1973602
C0R590,里港,2025-07-28,22.77919,120.49459,0.056830436
C0E610,馬都安,2025-07-28,24.451272,120.930192,0.94479954
C0E550,明德,2025-07-28,24.583486,120.885411,0.7357592
C0R150,三地門,2025-07-28,22.709889,120.639944,0.19131981
C0G910,花壇,2025-07-28,24.032076,120.549461,0.13682993
C1D400,鳥嘴山,2025-07-28,24.71909,121.28387,0.6889812
C0K500,元長,2025-07-28,23.64981,120.315024,0.941557
C0F0B0,石岡,2025-07-28,24.276061,120.777644,0.2868147
C2V250,甲仙,2025-07-28,23.080106,120.591758,0.077117
C0SA20,金崙山,2025-07-28,22.567419,120.959667,0.9992124
C0V350,溪埔,2025-07-28,22.738578,120.446797,0.04073475
C0M660,溪口,2025-07-28,23.604131,120.403569,0.60089743
C1S880,壽卡,2025-07-28,22.238911,120.858903,0.9991061
72D680,桃改新埔分場,2025-07-28,24.834444,121.066111,0.42251486
