站號,站名,日期,lat,lon,BLBTSLS
C0R710,龍磐,2025-05-08,21.931672,120.838942,0.02456745
C1F9D1,白毛台,2025-05-08,24.158325,120.886933,2.5526856e-10
C0G940,竹塘,2025-05-08,23.848253,120.386764,0.027890256
467590,恆春,2025-05-08,22.003897,120.746339,0.5196378
C1O850,環湖,2025-05-08,23.148617,120.418633,0.99666584
C0U710,太平山,2025-05-08,24.505486,121.525656,5.513808e-09
C0E820,獅潭,2025-05-08,24.539133,120.920042,7.381757e-08
C0V880,興達,2025-05-08,22.8778,120.2127,0.9999118
C0S890,關山,2025-05-08,23.0395,121.175017,0.0803934
C0SB30,新蘭,2025-05-08,22.869214,121.223228,0.99220186
C2R970,屏科大,2025-05-08,22.648275,120.619247,0.9987206
C1Z130,銅門,2025-05-08,23.965694,121.492842,0.0021062535
C0AD40,土城,2025-05-08,24.973208,121.445169,7.6326194e-07
CAN140,六官養殖協會,2025-05-08,23.22881,120.29962,0.10771179
C0X180,山上,2025-05-08,23.0757,120.363253,0.96316177
C0F9Z0,雪山東峰,2025-05-08,24.388792,121.268675,1.1296372e-08
C1M480,獨立山,2025-05-08,23.537022,120.607797,7.5442164e-10
C0X220,學甲,2025-05-08,23.230367,120.182187,0.53446484
467650,日月潭,2025-05-08,23.881325,120.90805,5.3166316e-10
C0K600,箔子寮,2025-05-08,23.6197,120.14,0.9730973
C0G830,埤頭,2025-05-08,23.866003,120.452806,1.8496734e-06
C0S950,七塊厝,2025-05-08,22.954453,121.229922,1.0240265e-05
467110,金門,2025-05-08,24.407306,118.289281,2.561236e-06
C0AH80,深坑,2025-05-08,25.002703,121.628328,3.7153757e-07
C0A970,三貂角,2025-05-08,25.007606,122.002058,8.9851403e-07
C2D730,寶山農場,2025-05-08,24.732444,120.976153,7.4735446e-08
C0K430,褒忠,2025-05-08,23.690938,120.303634,0.84328175
467480,嘉義,2025-05-08,23.495925,120.432906,0.0013008162
C0V400,阿公店,2025-05-08,22.804194,120.355528,0.99979466
C0E960,觀霧分站,2025-05-08,24.505781,121.113921,3.102532e-09
467550,玉山,2025-05-08,23.48718,120.95943,1.2107385e-08
C0R440,大漢山,2025-05-08,22.405264,120.753181,1.2615836e-09
C0K280,四湖,2025-05-08,23.630414,120.227125,0.9742827
C1F9B1,桐林,2025-05-08,24.066172,120.735194,1.4966718e-08
C2H9U0,鳳鵬,2025-05-08,23.763919,120.788061,5.526232e-09
C0K390,土庫,2025-05-08,23.679029,120.395574,3.7628583e-06
C1I450,望鄉山,2025-05-08,23.594153,120.944286,4.8558317e-09
C0E910,海埔,2025-05-08,24.648767,120.772435,3.6867398e-08
B2E890,畜試北區分所,2025-05-08,24.527806,120.770972,4.881129e-07
C0R750,四林格山,2025-05-08,22.076989,120.802439,0.83691347
C0F0C0,中坑,2025-05-08,24.248517,120.903319,4.1585077e-10
C1I121,大鞍,2025-05-08,23.678381,120.760017,2.1688227e-09
72U480,花改蘭陽分場,2025-05-08,24.686306,121.716583,6.933537e-09
C0A770,科教館,2025-05-08,25.096356,121.516507,3.2153838e-07
C0AJ60,六塊厝,2025-05-08,25.24,121.4481,6.660757e-07
C0R620,墾雷,2025-05-08,21.900836,120.855269,0.02677227
467420,永康,2025-05-08,23.038386,120.2367,0.99975276
C0I410,名間,2025-05-08,23.837053,120.701447,1.0653127e-06
A2C560,農工中心,2025-05-08,24.985917,121.239833,1.6010826e-08
C0V740,旗山,2025-05-08,22.888614,120.483597,0.9925014
C0Z061,玉里,2025-05-08,23.3215,121.339656,6.993721e-08
C0S840,南田,2025-05-08,22.279725,120.889208,0.8670562
C1I470,杉林溪,2025-05-08,23.639517,120.786444,2.7173466e-09
C1X040,東原,2025-05-08,23.291597,120.463822,1.0966693e-07
C0R660,枋寮,2025-05-08,22.367722,120.590647,0.9990082
C1R120,上德文,2025-05-08,22.763272,120.704442,1.4001208e-09
C0K450,大埤,2025-05-08,23.646074,120.431537,4.4459714e-08
C0UA00,土場,2025-05-08,24.576533,121.495333,5.031922e-09
467080,宜蘭,2025-05-08,24.763975,121.756528,2.5562824e-06
C0N030,四草,2025-05-08,23.0235,120.1116,0.77582395
467410,臺南,2025-05-08,22.99328,120.20492,0.34612936
C0V650,彌陀,2025-05-08,22.783806,120.246361,0.9997908
C0D660,新竹市東區,2025-05-08,24.798681,120.986942,9.1405115e-09
82S580,茶改東部分場,2025-05-08,22.907694,121.130139,0.19603495
C0SB40,興隆,2025-05-08,22.913661,121.257469,0.9866322
467050,新屋,2025-05-08,25.006725,121.047492,1.1798439e-08
C0C710,大溪永福,2025-05-08,24.892936,121.324975,1.7191981e-07
C0FA20,溫寮,2025-05-08,24.372177,120.583125,4.7040808e-06
C0V640,湖內,2025-05-08,22.887139,120.2445,0.9999132
C0R910,下寮,2025-05-08,22.3929,120.5548,0.9990082
C0Z020,明里,2025-05-08,23.208717,121.262342,7.2472425e-08
C0M770,嘉義梅山,2025-05-08,23.585398,120.555587,0.31512526
C0C660,楊梅,2025-05-08,24.912375,121.143047,1.1983186e-08
C1E511,新開,2025-05-08,24.347703,120.827019,1.3735248e-06
G2F820,農試所(霧峰),2025-05-08,24.031261,120.688133,8.940874e-08
C1I070,和社,2025-05-08,23.591131,120.888861,5.5165406e-10
C2F000,大肚,2025-05-08,24.15295,120.572117,2.9339076e-09
C1S850,豐南,2025-05-08,23.122139,121.262389,3.016327e-08
C2A920,富貴角,2025-05-08,25.263783,121.565258,4.7924196e-08
CAH030,茶改場竹圍站,2025-05-08,23.860083,120.637528,3.6291927e-09
C0T960,光復,2025-05-08,23.660694,121.424964,2.862971e-07
C0F9M0,豐原,2025-05-08,24.254322,120.720692,7.659725e-08
C0R720,旭海,2025-05-08,22.205403,120.887614,0.97014964
C0V710,苓雅,2025-05-08,22.622742,120.330669,0.99968016
C0C740,觀音工業區,2025-05-08,25.064764,121.114856,2.5559325e-08
CAC040,拉拉山,2025-05-08,24.699317,121.427133,5.0844924e-09
C0V790,萬山,2025-05-08,22.905944,120.688056,0.9984915
U2HA30,臺大和社,2025-05-08,23.590856,120.888864,5.5165406e-10
C0AJ90,澳底,2025-05-08,25.0552,121.9253,0.0117775425
C0Z100,東華,2025-05-08,23.89525,121.549833,0.0021096026
C0G970,三豐,2025-05-08,23.882,120.2895,0.03619577
V2K610,大庄合作社,2025-05-08,23.8068,120.367939,0.0018017424
C0V900,汕尾,2025-05-08,22.4782,120.4151,0.99955803
C1R630,龍泉,2025-05-08,22.66701,120.59091,0.996943
C1AC50,關渡,2025-05-08,25.133486,121.469331,1.6597452e-08
C0C800,四稜,2025-05-08,24.64733,121.4293,3.9226116e-09
C0F9I0,神岡,2025-05-08,24.272481,120.658314,0.0010653631
C0K460,斗南,2025-05-08,23.678734,120.478359,3.8492754e-08
C2O810,曾文,2025-05-08,23.219681,120.497328,7.634794e-05
467280,後龍,2025-05-08,24.648563,120.831834,2.6191811e-08
C1F9J1,清水林,2025-05-08,24.071242,120.820419,2.6763092e-10
C2A650,火燒寮,2025-05-08,25.002719,121.742892,4.802494e-08
466930,竹子湖,2025-05-08,25.162078,121.544547,6.5333977e-10
C1I220,樟湖,2025-05-08,23.905333,120.846983,4.4485712e-10
C0I390,仁愛,2025-05-08,24.022122,121.132206,5.6590177e-10
C0Z300,東里,2025-05-08,23.26853,121.30547,2.0987933e-07
C1V590,新發,2025-05-08,23.057019,120.646064,8.311443e-07
C0K510,水林,2025-05-08,23.572924,120.24597,0.0067337193
72S590,東改賓朗果園,2025-05-08,22.813889,121.071278,0.029934965
82A750,茶改北部分場,2025-05-08,24.955778,121.631222,8.901441e-10
C1A750,石碇服務區,2025-05-08,25.00872,121.646242,1.1306712e-07
C0X300,鹿寮,2025-05-08,23.386047,120.477331,0.92059165
G2AI50,關渡,2025-05-08,25.11575,121.492,2.68922e-07
C0K590,雲林東勢,2025-05-08,23.674192,120.255721,0.017993305
C0A570,桶後,2025-05-08,24.848222,121.597992,8.2270246e-10
C1S800,華源,2025-05-08,22.657883,121.02325,0.43623734
C0G720,溪州,2025-05-08,23.851589,120.499093,1.2299314e-06
C1V160,達卡努瓦,2025-05-08,23.279811,120.705319,3.434116e-10
C2M410,馬頭山,2025-05-08,23.324361,120.582017,2.1369022e-08
C0V850,蚵仔寮,2025-05-08,22.7256,120.2527,0.9996763
C0S740,池上,2025-05-08,23.119628,121.209469,0.00018806747
C1V390,尖山,2025-05-08,22.813153,120.367789,0.9998037
C0AH70,松山,2025-05-08,25.04871,121.55042,2.2715018e-07
C0N010,鯤鯓國小,2025-05-08,23.1879,120.0889,0.95615983
C0R550,新埤,2025-05-08,22.467947,120.582894,0.9996278
C0SA60,知本（水試所）,2025-05-08,22.702394,121.082761,0.8421984
C0T9I0,豐濱,2025-05-08,23.583897,121.514806,2.0065711e-07
C0UB00,淡江大學蘭陽校園,2025-05-08,24.823239,121.730383,7.374812e-10
C0W240,九宮,2025-05-08,24.423753,118.240186,3.0618728e-06
C0T9N0,富里,2025-05-08,23.171639,121.249378,9.633694e-07
U2HA50,臺大竹山,2025-05-08,23.756972,120.681556,5.4403945e-06
C0V840,鳳鼻頭,2025-05-08,22.5083,120.3591,0.9995807
C0X140,西港,2025-05-08,23.125608,120.203108,0.9978689
72D080,桃改五峰分場,2025-05-08,24.612194,121.157167,6.069052e-10
C2H9P0,伊拿谷,2025-05-08,23.963211,121.088264,4.013472e-10
C2H9F0,柑林,2025-05-08,24.018658,120.847072,6.6344894e-09
C0TA20,加灣,2025-05-08,24.082025,121.608944,0.00027396475
C0V530,阿蓮,2025-05-08,22.883208,120.327508,0.9998099
C0FB30,八仙山苗圃,2025-05-08,24.192719,121.001366,4.0664472e-10
C1O880,關山,2025-05-08,23.173397,120.594092,1.4831187e-07
C0E791,卓蘭,2025-05-08,24.3126,120.8244,1.6762728e-08
C1I030,武界,2025-05-08,23.913225,121.052483,3.971612e-10
C0R520,崁頂,2025-05-08,22.514781,120.506914,0.9933173
C0R341,牡丹,2025-05-08,22.130036,120.792639,0.98661745
C0R930,萬丹,2025-05-08,22.5885,120.4851,0.9992188
C0S760,紅石,2025-05-08,23.069131,121.126219,9.6672945e-09
C2C410,中央大學,2025-05-08,24.967652,121.185165,1.5016415e-08
C1M610,石磐龍,2025-05-08,23.496606,120.663506,5.0882926e-10
C0C790,東眼山,2025-05-08,24.8284,121.40888,1.539898e-09
C0UA10,鴛鴦湖,2025-05-08,24.590269,121.412228,6.150159e-09
V2C260,八德蔬果,2025-05-08,24.978508,121.281819,3.7200664e-08
C0R800,丹路,2025-05-08,22.204481,120.750989,0.9656853
C0G920,永靖,2025-05-08,23.924703,120.547533,6.845687e-07
C2M950,太和,2025-05-08,23.538372,120.702961,6.950283e-10
C1A630,下盆,2025-05-08,24.771003,121.538622,8.603892e-10
B2N890,畜產試驗所,2025-05-08,23.058972,120.336406,0.99948156
C0UA30,白嶺,2025-05-08,24.527819,121.519031,2.3004667e-09
C1V580,溪南(特生中心),2025-05-08,23.084972,120.788475,6.94799e-10
C1T970,大農,2025-05-08,23.615233,121.413331,5.5220728e-08
C0R650,竹田,2025-05-08,22.58486,120.54344,0.98830765
C1H900,清流,2025-05-08,24.080775,120.962997,4.127366e-10
C1C510,水尾,2025-05-08,24.940081,121.087161,4.290409e-09
C0F9X0,大雅(中科園區),2025-05-08,24.21528,120.62445,4.5279194e-06
C0SB60,白守蓮,2025-05-08,23.126769,121.401914,0.94295216
C0O970,虎頭埤,2025-05-08,23.021375,120.347878,0.9720986
C0C730,中大臨海站,2025-05-08,24.966126,121.008581,1.3150266e-08
C0X250,新營,2025-05-08,23.310689,120.316681,0.16142069
C0V700,三民,2025-05-08,22.645017,120.311233,0.9997156
C0U870,大礁溪,2025-05-08,24.791042,121.675047,8.469306e-10
C0E870,高鐵苗栗,2025-05-08,24.60725,120.826094,2.994881e-08
A2K570,古坑花卉中心,2025-05-08,23.63353,120.55239,0.15549777
C0TA30,鹽寮,2025-05-08,23.845606,121.592664,0.011388365
C0M860,新美,2025-05-08,23.338017,120.683169,3.2180889e-10
C1E701,八卦,2025-05-08,24.491756,120.927619,6.038891e-10
C0I420,國姓,2025-05-08,24.037803,120.855072,4.959506e-09
C2D720,關西工作站,2025-05-08,24.757275,121.184792,1.2674933e-08
C0S960,香蘭,2025-05-08,22.587569,120.993375,0.81486595
467620,蘭嶼,2025-05-08,22.0369,121.55843,0.903608
C0R260,春日,2025-05-08,22.370361,120.628306,0.99922574
72G600,臺中農改場,2025-05-08,24.003028,120.534389,4.0644707e-07
C0Z210,瑞穗,2025-05-08,23.5239,121.39021,2.120538e-07
C0M820,達邦,2025-05-08,23.453994,120.749517,3.5359435e-10
C0V860,南寮,2025-05-08,22.7616,120.2339,0.9996763
C0G740,大城,2025-05-08,23.852487,120.320935,0.026708478
C0R920,塭仔,2025-05-08,22.4169,120.5197,0.9989508
C0R470,高樹,2025-05-08,22.826389,120.600806,0.9998344
C0R680,佳樂水,2025-05-08,21.993578,120.861633,0.16214548
C1O870,大棟山,2025-05-08,23.31157,120.52226,3.8550832e-10
C0D360,梅花,2025-05-08,24.678347,121.208558,6.9198725e-10
C0Z190,富世,2025-05-08,24.14743,121.6297,4.1934336e-06
C0AI10,屈尺,2025-05-08,24.92184,121.54475,2.4072615e-06
B2U990,畜試東區分所,2025-05-08,24.669039,121.832561,8.093613e-07
C0SB80,長濱漁港,2025-05-08,23.313644,121.459994,1.8144876e-06
C0TA50,和仁,2025-05-08,24.241394,121.712472,2.559893e-09
C0R240,來義,2025-05-08,22.527306,120.625111,0.99665225
C0V910,大樹,2025-05-08,22.684645,120.432803,0.99939984
C1R610,西大武山,2025-05-08,22.617719,120.7322,3.8035863e-09
C0G900,線西,2025-05-08,24.143358,120.443536,0.002651532
C0M700,竹崎,2025-05-08,23.526178,120.555508,0.0016757828
C2E880,三義,2025-05-08,24.405478,120.749819,4.5727386e-09
C0C720,竹圍,2025-05-08,25.112692,121.239824,2.68922e-07
C0F9P0,清水,2025-05-08,24.312297,120.562242,0.000108629756
C0Z150,吉安光華,2025-05-08,23.930925,121.595153,0.8851223
C0FA80,小雪山天池,2025-05-08,24.28025,121.02627,8.313202e-09
467300,東吉島,2025-05-08,23.25727,119.66762,0.7842145
C1D640,外坪(五指山),2025-05-08,24.644447,121.090961,4.2674078e-10
C0F9O0,潭子,2025-05-08,24.213106,120.703933,3.8827746e-08
C2H9R0,卓社,2025-05-08,23.887894,121.000086,9.193152e-10
72T250,花蓮農改場,2025-05-08,23.975222,121.563889,0.97456443
C0E780,銅鑼,2025-05-08,24.489681,120.790853,8.6591186e-08
C1T950,太安,2025-05-08,23.666719,121.370128,5.074361e-08
C0E830,苑裡,2025-05-08,24.439714,120.653053,3.832642e-07
467270,田中,2025-05-08,23.873803,120.581286,1.827379e-05
C0SA10,檳榔四格山,2025-05-08,22.810031,121.109308,0.00042687065
C1T830,布洛灣,2025-05-08,24.17184,121.57127,9.260019e-06
C0F970,大坑,2025-05-08,24.173142,120.722289,1.7164533e-08
C1U920,思源,2025-05-08,24.393125,121.347214,3.01237e-09
C0A931,三和,2025-05-08,25.233153,121.595236,6.4250467e-09
C0I010,廬山,2025-05-08,24.033311,121.181808,1.0146239e-09
C2M940,日野賀,2025-05-08,23.434056,120.727169,4.3171508e-10
C0R860,鼻頭,2025-05-08,22.1043,120.8979,0.9440361
C0UB20,壯圍,2025-05-08,24.7359,121.8163,1.0488926e-08
C0R790,九棚,2025-05-08,22.14195,120.889281,0.9800905
C0W110,東莒,2025-05-08,25.9652,119.98069,1.2696831e-08
C1U930,粉鳥林,2025-05-08,24.497088,121.842479,0.0535608
C1I211,蘆竹湳,2025-05-08,23.934019,120.811994,3.11158e-10
C0S830,長濱,2025-05-08,23.286817,121.411975,1.705807e-08
C1F9F1,伯公龍,2025-05-08,24.272392,120.849047,0.029010441
C0UB90,太平山莊,2025-05-08,24.494171,121.536209,5.611095e-09
C0E810,西湖,2025-05-08,24.562947,120.7485,6.171949e-08
C1I440,新高口,2025-05-08,23.478744,120.878939,2.1670652e-09
C0O840,王爺宮,2025-05-08,23.222064,120.40085,0.084055446
C0T9G0,鳳林山,2025-05-08,23.735269,121.420131,4.400295e-09
C0X080,佳里,2025-05-08,23.173039,120.145086,0.95615983
C0FB70,大甲溪埔,2025-05-08,24.370625,120.620067,2.0341265e-06
C0Z310,清水斷崖,2025-05-08,24.218294,121.689142,1.5626985e-09
C0M680,太保,2025-05-08,23.455062,120.331455,0.0038842352
C1S820,金峰,2025-05-08,22.590969,120.933236,0.42483875
C0AD10,八里,2025-05-08,25.150211,121.403947,2.68922e-07
C2K240,草嶺,2025-05-08,23.59555,120.693461,7.679891e-10
C1SA70,都蘭,2025-05-08,22.87794,121.226881,0.9866322
C0K440,二崙,2025-05-08,23.772797,120.408944,1.6571487e-06
C1A760,坪林交控,2025-05-08,24.94284,121.713442,2.3798984e-07
C0F9N0,大里,2025-05-08,24.092464,120.701378,4.011433e-08
C0SA90,達仁林場,2025-05-08,22.264347,120.823972,0.24906893
C1R290,石門山,2025-05-08,22.112611,120.756597,0.9834388
42HA10,萬大發電廠,2025-05-08,23.978875,121.139639,4.6734855e-10
C0R890,山海,2025-05-08,21.9878,120.7091,0.25099206
C0T9A0,月眉山,2025-05-08,23.809928,121.539828,3.8928576e-09
C0AC70,信義,2025-05-08,25.037822,121.564597,2.274014e-07
C0K560,棋山,2025-05-08,23.68645,120.603417,0.08288824
C2FB50,出雲,2025-05-08,24.206469,120.902794,4.587876e-10
C1Z240,中平林道,2025-05-08,23.42115,121.26763,4.8461004e-08
U2H480,溪頭,2025-05-08,23.670306,120.798194,7.870657e-10
C0M880,好美里,2025-05-08,23.3364,120.138,0.14279506
C0T9E0,大坑,2025-05-08,23.880628,121.581981,4.6065907e-09
C0K530,臺西,2025-05-08,23.701547,120.197559,0.9967707
C1E900,國一N128K,2025-05-08,24.560997,120.844186,2.9748168e-07
C0AJ50,水湳洞,2025-05-08,25.123695,121.862238,6.157046e-07
C0AI20,白沙灣,2025-05-08,25.283128,121.519058,5.084713e-07
C2V310,美濃,2025-05-08,22.898792,120.51907,0.99469215
C0A860,大坪,2025-05-08,25.165914,121.632969,1.4409522e-09
C1U850,觀音海岸,2025-05-08,24.38319,121.77856,1.0497788e-09
C2K610,草嶺石壁,2025-05-08,23.602469,120.707731,8.014159e-10
C0U950,鶯子嶺,2025-05-08,24.89754,121.79244,1.1300483e-09
C0O900,善化,2025-05-08,23.112883,120.297219,0.99962753
C0K550,蔦松,2025-05-08,23.514319,120.229736,0.5390404
E2P980,林試六龜中心,2025-05-08,22.991703,120.645722,0.00030452939
C0E590,通霄,2025-05-08,24.471892,120.704622,5.717425e-08
C1I310,西巒,2025-05-08,23.754486,120.883956,1.4980189e-09
C0A550,泰平,2025-05-08,24.971197,121.823711,5.534373e-10
C0I360,水里,2025-05-08,23.812553,120.849792,9.496148e-09
C0R830,高士,2025-05-08,22.121825,120.836781,0.97413945
C1I101,溪頭,2025-05-08,23.661789,120.807647,2.2472064e-09
C0AJ20,野柳,2025-05-08,25.20703,121.690021,5.6640122e-08
C0B060,暖暖,2025-05-08,25.0957,121.7403,7.7905945e-08
C1H920,長豐,2025-05-08,24.102039,120.879897,3.4696493e-10
C0V360,內門,2025-05-08,22.975481,120.466769,0.28577423
C0R850,林邊,2025-05-08,22.4634,120.5339,0.99958515
C0E930,龍鳳,2025-05-08,24.700034,120.859125,9.479209e-09
C0U910,冬山,2025-05-08,24.63373,121.7937,8.093613e-07
C1E721,泰安,2025-05-08,24.489017,120.968036,8.8316643e-10
82H320,茶改中部分場,2025-05-08,23.875611,120.913583,5.2115817e-10
C0M750,布袋,2025-05-08,23.380878,120.167789,0.082697436
C1S860,利嘉,2025-05-08,22.809417,121.050528,2.7163355e-06
E2S980,林試太麻里1,2025-05-08,22.598922,120.980044,0.705198
C0X170,關廟,2025-05-08,22.963017,120.327797,0.99986583
C0V720,林園,2025-05-08,22.507747,120.394511,0.99958616
C1I510,線浸林道,2025-05-08,23.761508,120.832956,8.060978e-10
C0D690,外湖,2025-05-08,24.917735,120.968711,8.032589e-09
C0C750,新興坑尾,2025-05-08,25.0061,121.0971,8.97198e-09
B2Q810,畜試南區分所,2025-05-08,21.945583,120.802167,0.15854615
C0S790,金崙,2025-05-08,22.538122,120.966875,0.15925269
C0AH90,福山植物園,2025-05-08,24.760717,121.58135,1.2384643e-09
C0I540,奇萊稜線,2025-05-08,24.109231,121.326456,7.0059074e-09
C0M850,表湖,2025-05-08,23.24186,120.64166,3.6571807e-10
C0S770,大溪山,2025-05-08,22.478475,120.943325,9.664389e-05
C0AG80,中和,2025-05-08,24.991622,121.491792,7.6326194e-07
C0T790,大禹嶺,2025-05-08,24.186117,121.316086,3.5647045e-09
C0T9B0,水源,2025-05-08,23.991861,121.537169,1.2269324e-08
C0R840,牡丹池山,2025-05-08,22.168389,120.841225,0.20221323
C1I131,桶頭,2025-05-08,23.641944,120.654117,2.6437857e-07
CAL110,布袋國中,2025-05-08,23.35893,120.18026,0.082697436
467571,新竹,2025-05-08,24.827853,121.014219,7.174784e-09
C0Z290,赤柯山,2025-05-08,23.36893,121.38293,1.8415172e-08
C0X280,將軍,2025-05-08,23.214999,120.13577,0.6022443
C0S690,太麻里,2025-05-08,22.60902,120.98533,3.1386348e-06
C0U880,北關,2025-05-08,24.9072,121.8734,3.937498e-05
C0G810,埔心,2025-05-08,23.947633,120.525456,6.833633e-07
C0U970,大福,2025-05-08,24.80064,121.81389,3.3572587e-06
C2H9N0,仁愛東眼,2025-05-08,24.026875,121.1205,8.508018e-10
C1E670,南礦,2025-05-08,24.538278,121.002836,7.150558e-10
C0M520,東後寮,2025-05-08,23.369908,120.248065,0.05916084
C1E461,松安,2025-05-08,24.397972,120.986022,1.0400232e-09
C2N160,西拉雅風管處,2025-05-08,23.189481,120.335297,0.9959719
C2M970,碧湖,2025-05-08,23.568632,120.624165,7.300399e-10
C0A640,石碇,2025-05-08,24.993969,121.662917,2.220171e-08
E2S960,林試太麻里2,2025-05-08,22.598,120.99775,0.8234891
C0F9Y0,桃山,2025-05-08,24.432739,121.303808,1.2384579e-08
C1I020,萬大,2025-05-08,23.979817,121.132261,5.7215e-10
C0U940,羅東,2025-05-08,24.68184,121.74934,8.167304e-09
C0M650,朴子,2025-05-08,23.43463,120.23902,0.00012869172
C1I500,大尖山,2025-05-08,23.858572,120.994889,2.3927502e-09
C0FB40,中橫21.6k,2025-05-08,24.2499,121.1455,1.1159267e-09
C0G820,田尾,2025-05-08,23.901669,120.509389,6.833633e-07
E2K600,四湖植物園,2025-05-08,23.676986,120.163433,0.9742827
C0S730,綠島,2025-05-08,22.6672,121.47533,0.014474405
12Q970,東港工作站,2025-05-08,22.479997,120.466058,0.9995578
C0E430,南庄,2025-05-08,24.601775,121.000214,6.2688436e-08
C1TA00,太魯閣,2025-05-08,24.15773,121.6236,1.3348499e-06
466920,臺北,2025-05-08,25.037658,121.514853,2.2715018e-07
C0R600,舊泰武,2025-05-08,22.588194,120.664944,9.7594064e-05
C1I260,北坑,2025-05-08,23.9246,121.006903,2.9539352e-10
466910,鞍部,2025-05-08,25.182586,121.529731,7.1758344e-10
C1I230,九份二山,2025-05-08,23.961944,120.845,4.1267048e-10
C2A660,瑞芳,2025-05-08,25.113169,121.801147,9.753253e-08
C0R270,琉球嶼,2025-05-08,22.332244,120.362236,1.982102e-05
C1T990,高寮,2025-05-08,23.394239,121.356808,8.635829e-08
C0G620,芬園,2025-05-08,24.015678,120.6213,3.8876877e-08
C1Z140,荖溪,2025-05-08,23.890575,121.45964,2.4965292e-08
C1I201,中心崙,2025-05-08,23.728722,120.712097,6.809238e-10
C1I400,凌霄,2025-05-08,24.018778,121.004456,8.197108e-10
C1M640,十字,2025-05-08,23.492153,120.753683,7.3099854e-10
G2P820,農試鳳山分所,2025-05-08,22.646611,120.356083,0.9997306
C0Z270,蕃薯寮,2025-05-08,23.73835,121.540108,2.5387136e-08
C0FB10,出雲山苗圃,2025-05-08,24.23105,120.90475,4.1585077e-10
C0F9Q0,外埔,2025-05-08,24.347817,120.705686,8.6494674e-07
C0K580,高鐵雲林,2025-05-08,23.737456,120.417944,5.5538084e-07
C2I090,鳳凰,2025-05-08,23.728081,120.787347,4.6014859e-10
C0U990,員山,2025-05-08,24.74435,121.72247,9.110574e-09
C0V770,大社,2025-05-08,22.730306,120.346639,0.9997064
C0X120,麻豆,2025-05-08,23.183289,120.248611,0.88753307
C0C670,龍潭,2025-05-08,24.870056,121.221389,9.783582e-09
C0D680,香山濕地,2025-05-08,24.783581,120.914988,1.4744491e-08
C0S980,勝林山,2025-05-08,22.430439,120.8938,6.429534e-09
C0V730,大寮,2025-05-08,22.605614,120.395717,0.99969196
C0R570,麟洛,2025-05-08,22.65078,120.52719,0.9992172
C2M930,石卓,2025-05-08,23.478744,120.702264,1.030948e-09
C0G9B0,和美,2025-05-08,24.105169,120.492131,0.8373234
CAG100,王功漁港,2025-05-08,23.96824,120.32586,0.0006027323
C0X290,北門,2025-05-08,23.267772,120.125481,0.6022443
C2F930,大甲,2025-05-08,24.347667,120.640403,4.998879e-07
C0D650,湖口,2025-05-08,24.904794,121.043628,4.4592774e-09
C0E420,竹南,2025-05-08,24.708978,120.888897,6.9950383e-09
C0U780,五結,2025-05-08,24.68637,121.79794,1.0488926e-08
C1I250,鯉潭,2025-05-08,23.961922,120.991131,5.041065e-10
C0R130,阿禮,2025-05-08,22.742908,120.743678,5.341056e-10
C0X100,臺南市北區,2025-05-08,23.010394,120.194228,0.6200885
C0S920,金峰嘉蘭,2025-05-08,22.594789,120.960825,0.68496794
C0V490,新興,2025-05-08,22.627422,120.298803,0.9996803
C0F9K0,大安,2025-05-08,24.345061,120.588025,2.783779e-06
467290,古坑,2025-05-08,23.633639,120.551889,0.15549777
C2E970,八甲,2025-05-08,24.535811,120.795983,4.715187e-08
C0V440,鳳山,2025-05-08,22.646653,120.356122,0.9997306
C1T940,大觀,2025-05-08,23.714206,121.373133,6.585233e-09
C0E740,造橋,2025-05-08,24.637056,120.864778,2.994881e-08
C0R100,尾寮山,2025-05-08,22.833111,120.683889,4.862261e-10
A2K630,臺大雲林校區,2025-05-08,23.730628,120.423903,5.5538084e-07
467990,馬祖,2025-05-08,26.169467,119.923158,1.13627125e-08
C0D580,寶山,2025-05-08,24.735006,121.025192,1.7497316e-06
E2P990,林試扇平站,2025-05-08,22.9677,120.6857,3.3662823e-07
C0AI30,三重,2025-05-08,25.057328,121.500629,3.2153838e-07
C0AH00,汐止,2025-05-08,25.066881,121.658778,2.2715018e-07
C1Z040,立山,2025-05-08,23.443356,121.327375,5.1982838e-08
466881,新北,2025-05-08,24.959207,121.525196,5.2731406e-07
C0W130,花嶼,2025-05-08,23.40007,119.32276,0.9789822
C0A950,鼻頭角,2025-05-08,25.129036,121.923372,0.6022262
C0K470,林內,2025-05-08,23.748675,120.609642,0.00021372794
C2F990,摩天嶺,2025-05-08,24.322458,120.936819,5.3296684e-10
82C160,茶改場,2025-05-08,24.908472,121.185333,7.8832665e-09
C0Z320,清水林道,2025-05-08,23.27125,121.188272,8.1802945e-08
C0R760,南仁湖,2025-05-08,22.084681,120.863353,0.9834388
C0M670,大林,2025-05-08,23.600616,120.45841,3.137325e-07
C0M800,茶山,2025-05-08,23.299075,120.664767,4.5313045e-10
C0A9C0,天母,2025-05-08,25.117494,121.537169,3.8293496e-08
72K220,南改斗南分場,2025-05-08,23.634556,120.477333,3.8492754e-08
72AI40,桃改樹林分場,2025-05-08,24.944503,121.386972,1.9641588e-07
C0S910,蘭嶼燈塔,2025-05-08,22.081197,121.503117,0.6647809
C0B050,八斗子,2025-05-08,25.144754,121.79167,1.0600176e-06
C0U900,內城,2025-05-08,24.71813,121.68766,5.1057265e-09
C0X320,柳營,2025-05-08,23.253328,120.375253,0.9872649
C0M790,新港,2025-05-08,23.553269,120.345728,3.7891425e-06
C0F9T0,西屯,2025-05-08,24.179494,120.641275,5.748206e-08
C0E950,松安,2025-05-08,24.39792,120.98599,1.0400232e-09
C0SA30,都歷,2025-05-08,23.020333,121.323642,0.98246175
C0C620,蘆竹,2025-05-08,25.084275,121.265767,5.8634463e-08
C0R730,大坪頂,2025-05-08,22.024633,120.69355,0.81293887
C0AJ40,石門,2025-05-08,25.273672,121.601198,8.413654e-08
C0E750,苗栗,2025-05-08,24.564569,120.824575,3.5936762e-07
C0T870,鯉魚潭,2025-05-08,23.935639,121.508944,0.018259453
C1V170,排雲,2025-05-08,23.463619,120.954147,7.687077e-09
C2H950,中寮,2025-05-08,23.884447,120.766406,5.537725e-07
C0R350,貓鼻頭,2025-05-08,21.921774,120.7358,0.010789828
C0V660,岡山,2025-05-08,22.797078,120.294958,0.9997908
C1H941,雙冬,2025-05-08,23.967378,120.802189,2.9068353e-10
C0AJ70,田寮,2025-05-08,25.2698,121.4886,5.760108e-07
C0AI00,五股,2025-05-08,25.07445,121.42728,2.0985787e-08
C0Z280,德武,2025-05-08,23.47426,121.41071,1.2631516e-08
C0R700,枋山,2025-05-08,22.246844,120.661086,0.689051
C0C460,復興,2025-05-08,24.820208,121.352281,5.18088e-09
E2H360,蓮華池,2025-05-08,23.918333,120.885278,2.7694186e-10
C0M640,中埔,2025-05-08,23.42538,120.5229,0.010390599
C0W140,金沙,2025-05-08,24.488292,118.408778,3.3516603e-06
C2A540,四堵,2025-05-08,24.8926,121.745736,2.4327553e-08
C0ACA0,新莊,2025-05-08,25.051478,121.446756,7.514252e-08
C0R220,潮州,2025-05-08,22.534361,120.54,0.99390185
U2HA40,臺大內茅埔,2025-05-08,23.689722,120.851117,1.2492472e-09
467490,臺中,2025-05-08,24.145736,120.684075,4.2213973e-08
C0UB60,明池,2025-05-08,24.650688,121.475277,3.882869e-09
C0U960,翠峰湖,2025-05-08,24.510856,121.608044,4.2609685e-09
E2HA20,林試畢祿溪站,2025-05-08,24.226944,121.308522,3.648362e-09
C0V890,前鎮,2025-05-08,22.5718,120.3117,0.9996697
C1F941,雪嶺,2025-05-08,24.280586,121.026642,8.313202e-09
C2H9E0,國姓南港,2025-05-08,23.911108,120.846556,4.598108e-10
C0AC80,文山,2025-05-08,25.00235,121.575728,3.109667e-07
C0F9R0,龍井,2025-05-08,24.184536,120.528972,0.0003639412
C0M760,民雄,2025-05-08,23.551754,120.428457,4.9768215e-07
C0UA40,西德山,2025-05-08,24.560647,121.752608,2.057701e-09
C1T920,中興,2025-05-08,23.769503,121.498653,0.00025158058
C0D550,雪霸,2025-05-08,24.526972,121.11605,2.3340212e-09
C2F860,梨山,2025-05-08,24.247522,121.243669,3.8059667e-09
C0R320,車城,2025-05-08,22.0744,120.716247,0.049760293
C1S870,南美山,2025-05-08,23.15025,121.382333,1.2260995e-06
C0B020,基隆嶼,2025-05-08,25.19141,121.78391,0.8892787
C1U501,牛鬥,2025-05-08,24.637836,121.573656,1.6033553e-09
C0M730,嘉義市東區,2025-05-08,23.457673,120.460531,0.94839925
C0S700,知本,2025-05-08,22.684866,121.005642,1.105248e-06
C1N001,沙崙,2025-05-08,22.935472,120.309406,0.99985737
C0V760,橋頭,2025-05-08,22.757806,120.30575,0.9996916
C0G960,福寶,2025-05-08,24.0443,120.3814,0.8756113
C0X210,白河,2025-05-08,23.347466,120.414427,0.98630923
C0S810,東河,2025-05-08,22.972672,121.303986,0.978536
C2R170,屏東,2025-05-08,22.66027,120.49403,0.9992172
C0R670,楓港,2025-05-08,22.190131,120.692156,0.6962551
C0FA50,霧峰,2025-05-08,24.0419,120.6995,7.021468e-08
C0UB10,蘇澳,2025-05-08,24.5969,121.8571,0.0018314526
C0G950,防潮門,2025-05-08,24.1835,120.4871,0.0004313619
C0M740,六腳,2025-05-08,23.492871,120.290625,1.3002366e-05
C1R250,力里,2025-05-08,22.428117,120.629228,0.9990675
C0K330,虎尾,2025-05-08,23.719183,120.442036,4.7106028e-07
C2FA00,烏石坑,2025-05-08,24.273503,120.947617,5.299006e-10
C0V620,永安,2025-05-08,22.82315,120.236856,0.9997908
C1I330,楓樹林,2025-05-08,23.986803,121.076117,6.5154404e-10
C0W200,湖西,2025-05-08,23.596314,119.67275,0.58060914
72Q010,高雄農改場,2025-05-08,22.709333,120.525889,0.99974406
C0SA40,瑞和,2025-05-08,22.974361,121.156697,0.52290124
C0C680,龜山,2025-05-08,25.02846,121.38656,1.1662562e-08
C2V260,月眉,2025-05-08,22.971003,120.539853,0.1143149
C0V450,鳳森,2025-05-08,22.545064,120.392592,0.99962354
C0FA90,小雪山林道,2025-05-08,24.29515,121.03651,1.1614302e-08
C0U720,南山,2025-05-08,24.43742,121.38167,5.2687037e-09
A2N290,臺南蘭花園區,2025-05-08,23.340258,120.379661,1.9108626e-05
C0R560,新園,2025-05-08,22.5434,120.461558,0.99958616
C0U890,三星,2025-05-08,24.66812,121.65302,4.3638537e-09
C1V300,御油山,2025-05-08,23.001983,120.715364,5.888905e-10
C0U600,礁溪,2025-05-08,24.817539,121.765608,8.311569e-05
C1T980,龍澗,2025-05-08,24.023289,121.411328,1.7357324e-08
C0D670,海天一線,2025-05-08,24.831986,120.914438,4.0527905e-09
C0SA00,歷坵,2025-05-08,22.520969,120.89185,1.8779181e-05
C0M710,東石,2025-05-08,23.458927,120.15385,0.9012459
C0M780,鹿草,2025-05-08,23.41134,120.30835,7.167699e-05
C0U520,雙連埤,2025-05-08,24.753033,121.641303,8.542197e-10
C0B010,七堵,2025-05-08,25.094819,121.71713,1.8962356e-07
C0R480,長治,2025-05-08,22.693128,120.542622,0.99944186
C1V830,國三S383K,2025-05-08,22.781967,120.426475,0.9996235
12Q980,恆春工作站,2025-05-08,22.079678,120.714425,0.049760293
C1O940,東山服務區,2025-05-08,23.286016,120.398472,0.9993851
C1U840,東澳嶺,2025-05-08,24.5378,121.8485,2.0557787e-09
C1D630,飛鳳山,2025-05-08,24.766464,121.119178,1.8118218e-09
C0S940,石寧山,2025-05-08,23.223772,121.406639,6.55456e-07
C0K410,北港,2025-05-08,23.573957,120.292802,0.0024547346
C2M620,瑞里,2025-05-08,23.545133,120.675197,6.019089e-10
C0SB70,小港漁港,2025-05-08,23.158558,121.400431,0.0068209535
C2O950,安南,2025-05-08,23.076694,120.144861,0.9976197
C0F0E0,南湖圈谷,2025-05-08,24.363714,121.444667,1.5605488e-08
467610,成功,2025-05-08,23.097486,121.373428,0.9167039
C0G890,伸港,2025-05-08,24.148933,120.484403,0.0026730911
C2E540,龍溪,2025-05-08,24.606489,120.783933,3.220696e-08
C1V200,梅山,2025-05-08,23.268447,120.823556,9.572138e-10
C0T9H0,加路蘭山,2025-05-08,23.682947,121.5274,6.8896253e-09
C2O930,玉井,2025-05-08,23.126042,120.46055,0.96316177
C1F911,新伯公,2025-05-08,24.221361,120.841069,0.21801333
C0R490,九如,2025-05-08,22.7405,120.490503,0.999733
C0X200,左鎮,2025-05-08,23.056758,120.408522,0.9766051
C0FA60,鞍馬山工作站,2025-05-08,24.267064,121.000793,4.84865e-09
C0SB50,叭嗡嗡,2025-05-08,23.047062,121.343223,0.9980856
C1F891,稍來,2025-05-08,24.265689,121.001142,4.6279998e-09
72N240,七股研究中心,2025-05-08,23.081672,120.062894,0.99788725
C0C700,中壢,2025-05-08,24.977661,121.256375,2.6959958e-08
C0M690,水上,2025-05-08,23.419734,120.388909,0.001222436
C0V690,鼓山,2025-05-08,22.623325,120.275575,0.9996803
C0O860,大內,2025-05-08,23.11885,120.36083,0.9995575
C0Z200,萬榮,2025-05-08,23.709219,121.420106,3.2902549e-06
C0T9D0,和中,2025-05-08,24.26676,121.74103,0.00067232817
C1O921,楠西,2025-05-08,23.183511,120.484083,0.9897064
C0AJ30,淡水觀海,2025-05-08,25.184591,121.408616,4.7220183e-08
C0V810,左營,2025-05-08,22.67491,120.28491,0.99971557
C0UA70,桃源谷,2025-05-08,24.962606,121.888875,5.798933e-10
C0X130,官田,2025-05-08,23.193217,120.315422,0.9965399
C1H000,翠峰,2025-05-08,24.109397,121.205211,2.1248303e-09
C0UA90,石城,2025-05-08,24.980444,121.951214,5.8038568e-06
C1E681,南勢山,2025-05-08,24.421669,120.923831,6.499293e-10
C0A9F0,內湖,2025-05-08,25.079422,121.57545,2.2715018e-07
C0K291,宜梧,2025-05-08,23.536281,120.169329,0.5390404
C1K540,口湖,2025-05-08,23.585344,120.180517,0.9730973
C0R780,滿州,2025-05-08,22.024403,120.839892,0.56010187
C0V870,文安,2025-05-08,22.8025,120.2164,0.9997779
C0U650,玉蘭,2025-05-08,24.675286,121.587061,8.3155915e-10
C0R640,東港,2025-05-08,22.46247,120.44074,0.9995578
C0AJ80,板橋,2025-05-08,25.0107,121.4489,8.6953696e-07
C0S660,下馬,2025-05-08,23.150427,121.070312,2.834923e-08
C1H9B1,阿眉,2025-05-08,24.1263,120.994672,2.2419406e-09
C0UA20,多加屯,2025-05-08,24.368614,121.373189,4.1241575e-09
C0E730,頭份,2025-05-08,24.688247,120.912206,7.4038353e-09
72V140,高改旗南分場,2025-05-08,22.857861,120.516667,0.99469215
C0K480,莿桐,2025-05-08,23.761192,120.502372,7.378557e-06
C0U980,坪林石牌,2025-05-08,24.86478,121.77396,7.6265816e-10
C0T900,西林,2025-05-08,23.8119,121.441458,1.0162493e-06
C1I150,青雲,2025-05-08,23.793361,120.949378,5.3098015e-10
467350,澎湖,2025-05-08,23.565503,119.563094,0.86908317
C0G800,埔鹽,2025-05-08,24.000394,120.431683,0.96349525
C0H960,草屯,2025-05-08,23.973672,120.68085,4.6520476e-08
C1V780,多納林道,2025-05-08,22.888028,120.737917,3.9604162e-10
C0E920,通霄漁港,2025-05-08,24.498589,120.673876,1.0128555e-07
C0Z330,安通山,2025-05-08,23.290728,121.348528,3.7511083e-09
C0AH10,永和,2025-05-08,25.01125,121.508111,8.6953696e-07
C0AK10,太平里,2025-05-08,25.134937,121.364899,2.5361373e-07
C2G640,鹿港,2025-05-08,24.0753,120.430481,0.8772734
C1E890,國三N149K,2025-05-08,24.463414,120.680019,1.7211946e-07
C1R110,口社,2025-05-08,22.770111,120.645222,0.999382
C1M870,國三N285K,2025-05-08,23.550319,120.505833,0.7419093
C1E480,鳳美,2025-05-08,24.554803,121.034747,6.8651185e-10
C0M530,奮起湖,2025-05-08,23.493903,120.699253,7.0168027e-10
C0C590,觀音,2025-05-08,25.027072,121.153317,1.5460083e-08
C0T9M0,靜浦,2025-05-08,23.455167,121.495028,2.089969e-07
C2H9M0,發祥,2025-05-08,24.154094,121.164517,1.2673478e-09
C0AI40,石牌,2025-05-08,25.115597,121.513139,4.1991534e-08
C1F871,上谷關,2025-05-08,24.203483,121.018644,4.23895e-10
C2H9G0,百勝,2025-05-08,24.051142,120.909361,2.8555042e-10
C0G880,二水,2025-05-08,23.810742,120.6173,5.841731e-05
C0R940,加祿堂,2025-05-08,22.3363,120.6217,0.6804543
C0W220,北竿,2025-05-08,26.220358,119.974881,1.1265495e-08
C0O960,崎頂,2025-05-08,22.959547,120.369317,0.9998248
C0TA40,秀林,2025-05-08,24.302864,121.731144,7.1241923e-09
C0S750,向陽,2025-05-08,23.248397,120.986133,1.4960031e-09
C0T9F0,水璉,2025-05-08,23.797131,121.542514,4.7074412e-08
C1M600,頭凍,2025-05-08,23.406364,120.603339,4.850766e-10
467660,臺東,2025-05-08,22.752211,121.154586,0.87239516
C1D380,新埔,2025-05-08,24.84745,121.03834,4.279686e-09
C2G980,田頭村,2025-05-08,23.8263,120.444175,1.6571487e-06
C0V750,路竹,2025-05-08,22.854997,120.259439,0.9999129
C0N050,蚵寮,2025-05-08,23.301,120.1104,0.14279506
72M700,南改鹿草分場,2025-05-08,23.416869,120.283061,0.00012869172
C1SA50,利嘉林道,2025-05-08,22.82325,121.009389,2.3488436e-09
C0UB70,太平山中間站,2025-05-08,24.542003,121.513453,1.1636004e-09
C0A940,金山,2025-05-08,25.223628,121.643967,4.4719023e-08
C1V340,大津,2025-05-08,22.888322,120.645986,0.99985194
C0W180,七美,2025-05-08,23.219333,119.444892,0.9701278
C1F9C1,白冷,2025-05-08,24.182844,120.929889,4.89972e-05
K2E710,苗改生物防治研究中心,2025-05-08,24.422861,120.871833,7.2185614e-08
C0N040,蘆竹溝,2025-05-08,23.2344,120.0961,0.6022443
C0D760,大坪苗圃,2025-05-08,24.5362,121.1108,9.243825e-10
C2W230,畜試所澎湖,2025-05-08,23.628342,119.513206,0.95727813
C0R880,後壁湖,2025-05-08,21.9457,120.7457,0.2495121
C1I280,埔中,2025-05-08,23.820778,120.642594,2.9759462e-09
467790,墾丁雷達站,2025-05-08,21.948235,120.808028,0.17505138
C0W190,望安,2025-05-08,23.380564,119.494075,0.9577532
C0Z170,卓溪,2025-05-08,23.3443,121.3029,2.1035559e-08
C0F850,東勢,2025-05-08,24.246428,120.833047,3.348832e-09
466900,淡水,2025-05-08,25.164889,121.448906,2.5361373e-07
C0I370,魚池,2025-05-08,23.895703,120.94135,2.7958869e-10
C0C630,大溪,2025-05-08,24.882853,121.265547,1.4888134e-08
C0A520,山佳,2025-05-08,24.974944,121.402008,1.5955076e-06
C0I110,竹山,2025-05-08,23.761225,120.688156,1.6322692e-06
82H840,茶改南部分場,2025-05-08,23.762528,120.7405,3.9235095e-09
C0G660,溪湖,2025-05-08,23.94835,120.479122,8.018323e-07
C1T800,洛韶,2025-05-08,24.204558,121.453956,1.005441e-08
C1T810,慈恩,2025-05-08,24.192044,121.388386,1.0418358e-09
C1E451,象鼻,2025-05-08,24.368617,120.940228,1.9304116e-09
C0AC60,三峽,2025-05-08,24.939025,121.369728,1.4952842e-07
C0I490,萬大林道,2025-05-08,23.928228,121.091411,1.2225285e-09
C1I290,豐丘,2025-05-08,23.668178,120.887417,8.3210494e-10
C1I320,奧萬大,2025-05-08,23.952956,121.178556,7.532426e-10
C2M910,嘉義大學,2025-05-08,23.471325,120.485903,0.6804595
C0U770,南澳,2025-05-08,24.44935,121.81022,4.827021e-09
C0A980,社子,2025-05-08,25.109508,121.469681,3.3281208e-07
C0V800,六龜,2025-05-08,22.997889,120.633583,0.000703855
C1G9D0,國一S218K,2025-05-08,23.890641,120.493253,1.8496734e-06
C0E570,白沙屯,2025-05-08,24.549447,120.696803,9.401821e-08
C2F9A0,中竹林,2025-05-08,24.103556,120.751061,7.231384e-10
C0FA40,臺中電廠,2025-05-08,24.2146,120.4907,0.00036780775
C2G9A0,畜試所彰化,2025-05-08,23.86045,120.557964,1.8157296e-05
C0H9C0,合歡山,2025-05-08,24.143442,121.272547,8.803347e-09
C0X060,下營,2025-05-08,23.22695,120.256261,0.10771179
G2M350,農試溪口農場,2025-05-08,23.58565,120.408111,6.178616e-07
C0U860,頭城,2025-05-08,24.85323,121.8308,5.866193e-05
C0R580,南州,2025-05-08,22.48591,120.50274,0.9995578
C0D430,峨眉,2025-05-08,24.6905,121.017189,7.4735446e-08
C0G780,秀水,2025-05-08,24.03405,120.503869,4.0644707e-07
72N100,臺南農改場,2025-05-08,23.0605,120.342194,0.99948156
C0S900,蘭嶼高中,2025-05-08,22.04909,121.51214,0.07186884
C1F9W0,德基,2025-05-08,24.254783,121.190261,3.4344323e-09
C1Z120,壽豐,2025-05-08,23.870853,121.508081,0.0021096026
C0W160,烏坵,2025-05-08,24.9944,119.44956,2.4809299e-06
C1I240,外大坪,2025-05-08,23.958697,120.917931,4.66458e-10
C1I550,國六W023K,2025-05-08,23.979067,120.867742,5.8811483e-10
C0R870,興海,2025-05-08,21.9752,120.8439,0.15854615
C0R140,瑪家,2025-05-08,22.682903,120.686639,1.1384522e-05
C0A530,坪林,2025-05-08,24.938183,121.70975,5.4413782e-08
C0X260,後壁,2025-05-08,23.366358,120.362326,1.9108607e-05
C0Z230,和平,2025-05-08,24.30717,121.77007,0.0014726445
C0G770,福興,2025-05-08,24.041289,120.437669,0.96349525
C0H9A0,神木村,2025-05-08,23.532742,120.843667,7.6341206e-10
C0I460,南投,2025-05-08,23.911469,120.687331,1.551067e-07
C0I480,梅峰,2025-05-08,24.085272,121.173572,1.8839967e-09
C1V570,吉東,2025-05-08,22.85422,120.5454,0.99111426
C2D740,屯原,2025-05-08,24.067969,121.209389,1.5713123e-09
C2A560,福山,2025-05-08,24.776203,121.502811,1.2086752e-09
C0AH30,五分山,2025-05-08,25.07125,121.780794,4.8670307e-10
C0FA10,松柏,2025-05-08,24.429115,120.617482,5.3906e-07
72S200,東改班鳩分場,2025-05-08,22.829528,121.077694,0.16405855
72HA00,中改埔里分場,2025-05-08,23.903208,120.963364,2.8304142e-10
C2H9W0,大坪頂農水,2025-05-08,24.043122,120.932781,3.4971956e-10
C0C650,平鎮,2025-05-08,24.897503,121.214636,1.697019e-08
C0S930,延平,2025-05-08,22.902581,121.084058,0.02266414
C0UA60,樟樹山,2025-05-08,24.41393,121.78325,1.2065291e-08
C1S670,摩天,2025-05-08,23.199503,121.027,1.5386892e-08
C0V630,茄萣,2025-05-08,22.906642,120.182608,0.9999118
466940,基隆,2025-05-08,25.133314,121.740475,1.0011707e-06
C0X050,東河,2025-05-08,23.296598,120.385608,0.9995989
C0R770,保力,2025-05-08,22.071122,120.764111,0.66053486
G2L020,農試嘉義分所,2025-05-08,23.485028,120.473806,0.624568
C0X240,關子嶺,2025-05-08,23.331169,120.508025,6.33582e-09
C0I380,集集,2025-05-08,23.828206,120.801467,1.03929985e-08
466990,花蓮,2025-05-08,23.975128,121.613275,0.98336047
C1V220,小關山,2025-05-08,23.154217,120.813603,9.734215e-10
C1F9G1,慶福山,2025-05-08,24.180853,120.848378,2.5737812e-10
C0FB20,雪山橋,2025-05-08,24.23192,120.9786,4.3774837e-09
C0Z250,瑞穗林道,2025-05-08,23.49284,121.30688,3.5346456e-08
C0D590,新豐,2025-05-08,24.87068,120.97721,1.7820795e-09
C0A870,五指山,2025-05-08,25.132153,121.608692,6.1637434e-10
C0UA50,西帽山,2025-05-08,24.555361,121.802628,1.7763443e-09
C0X160,仁德,2025-05-08,22.968258,120.257689,0.99985576
C1H971,六分寮,2025-05-08,23.92507,120.6378,1.470794e-09
C0W120,西嶼,2025-05-08,23.5626,119.468436,0.9484982
C0G650,員林,2025-05-08,23.946503,120.585597,3.917006e-06
C0AD50,鶯歌,2025-05-08,24.951533,121.346294,9.576053e-08
C2H9Q0,北東眼山,2025-05-08,24.120939,121.189303,2.9654978e-09
C2H9T0,名間竹圍,2025-05-08,23.859914,120.637572,3.6291927e-09
C0S990,山豬窟,2025-05-08,22.318619,120.857372,0.08743282
C0X190,安平,2025-05-08,22.993161,120.152181,0.6200885
C0K400,斗六,2025-05-08,23.720583,120.541127,6.5037193e-07
12J990,口湖工作站,2025-05-08,23.589978,120.180394,0.9730973
C0O830,北寮,2025-05-08,23.079561,120.495008,3.237277e-05
C1D410,白蘭,2025-05-08,24.579364,121.079947,8.12166e-10
C0S970,加津林,2025-05-08,22.416211,120.926942,0.95518446
C0D700,關西,2025-05-08,24.7977,121.1732,1.5276239e-08
C0M810,里佳,2025-05-08,23.389125,120.716647,7.6140966e-10
C0U750,龜山島,2025-05-08,24.841667,121.953133,1.8250779e-07
C0R810,內獅,2025-05-08,22.305064,120.642986,0.66057706
C1M390,龍美,2025-05-08,23.406728,120.654417,5.5980937e-10
C2FB60,頭櫃山,2025-05-08,24.129842,120.858925,7.252213e-10
C1H840,國三N238K,2025-05-08,23.841008,120.707711,5.5425304e-09
CAQ030,崎峰國小,2025-05-08,22.42565,120.49521,0.9995578
C2E520,大湖,2025-05-08,24.414939,120.870872,4.3355154e-08
467530,阿里山,2025-05-08,23.508208,120.813242,3.280923e-09
C1E691,南湖,2025-05-08,24.40135,120.837533,8.5635676e-10
C0FA30,梧棲,2025-05-08,24.256003,120.523381,0.000108629756
C1V231,高中,2025-05-08,23.134911,120.716711,4.3722576e-10
C0AK30,硬漢嶺,2025-05-08,25.136097,121.426372,6.420989e-10
C0F9V0,新社,2025-05-08,24.200172,120.815806,0.009050187
C0H890,埔里,2025-05-08,23.972169,120.952425,4.5003914e-10
C0R690,墾丁,2025-05-08,21.966756,120.810269,0.34850383
C0F0D0,審馬陣,2025-05-08,24.381675,121.4203,7.1437323e-09
C2W030,金門農試所,2025-05-08,24.448431,118.451786,4.9984105e-06
C0R820,白鷺,2025-05-08,22.454275,120.666219,9.591167e-09
C0FB00,大雪山,2025-05-08,24.254668,121.007374,5.5832103e-09
C1V190,南天池,2025-05-08,23.27403,120.91176,1.5815053e-09
C0E940,雪見,2025-05-08,24.42595,121.01347,3.0138125e-09
K2E360,苗栗農改場,2025-05-08,24.495722,120.829111,2.4427436e-07
CAJ050,海口故事園區,2025-05-08,23.57543,120.14121,0.9730973
C2H9D0,三隻寮,2025-05-08,24.093078,120.861578,3.545628e-10
C0O990,媽廟,2025-05-08,22.99175,120.293525,0.99971956
C0D480,打鐵坑,2025-05-08,24.849664,121.150789,9.570426e-09
C0Z220,和平林道,2025-05-08,24.343922,121.656317,1.3034019e-09
C0TA10,花蓮漁港,2025-05-08,23.995322,121.638331,0.9871079
72C440,桃園農改場,2025-05-08,24.950944,121.030583,6.185947e-09
C1E711,馬拉邦山,2025-05-08,24.367306,120.901656,1.761835e-09
C0SB20,富岡,2025-05-08,22.792467,121.192669,0.9751826
C0D560,竹東,2025-05-08,24.767147,121.057881,1.8526146e-08
C0F9U0,南屯,2025-05-08,24.137006,120.637969,1.4434183e-07
C0M720,番路,2025-05-08,23.464657,120.554156,6.0618386e-05
C0F0A0,雪山圈谷,2025-05-08,24.388594,121.236339,1.2338083e-08
C1A9N0,四十份,2025-05-08,24.934158,121.593283,5.089625e-09
C0U760,東澳,2025-05-08,24.52196,121.83318,0.009018631
C0X230,鹽水,2025-05-08,23.272621,120.247641,0.06945237
C2H9H0,苗改南投蜂場,2025-05-08,23.852589,120.693481,1.958861e-06
C0R950,萬隆國小,2025-05-08,22.507667,120.587817,0.99524075
467540,大武,2025-05-08,22.35572,120.90374,0.9561982
C0V370,古亭坑,2025-05-08,22.893178,120.401947,0.9988278
C1I340,新興橋,2025-05-08,23.563333,120.868728,7.161655e-10
C0SA80,土坂,2025-05-08,22.453108,120.887572,0.94664025
C0R160,鹽埔,2025-05-08,22.739558,120.530778,0.99974406
C0AC40,大屯山,2025-05-08,25.175675,121.522408,9.3080843e-10
466850,五分山雷達站,2025-05-08,25.071182,121.781205,4.92104e-10
C2H9L0,馬烈霸,2025-05-08,24.1512,121.201772,2.8983274e-09
C1AI50,國三N016K,2025-05-08,25.034164,121.619664,1.231472e-07
C1V600,藤枝,2025-05-08,23.071961,120.757042,5.677267e-10
C1E601,南勢,2025-05-08,24.572486,120.734842,2.3272564e-08
C0O980,新市,2025-05-08,23.061614,120.298197,0.9996277
C0K420,西螺,2025-05-08,23.800407,120.467394,7.314239e-07
C0Z050,佳心,2025-05-08,23.34567,121.21316,2.320373e-08
C0AD30,蘆洲,2025-05-08,25.086594,121.472331,3.2153838e-07
C0V610,梓官,2025-05-08,22.760558,120.267211,0.9996916
K2F750,種苗改良場,2025-05-08,24.225972,120.800917,0.03628795
C0UA80,大溪漁港,2025-05-08,24.941801,121.902955,3.7156115e-05
C1AI60,國一39K邊坡,2025-05-08,25.064361,121.383836,1.5454187e-08
C0W150,金寧,2025-05-08,24.457703,118.328989,4.132513e-06
C0R960,內埔,2025-05-08,22.608483,120.570714,0.9893774
V2C250,八德合作社,2025-05-08,24.93775,121.266389,3.053216e-08
C2H9S0,龍南,2025-05-08,23.953536,120.833183,3.1380126e-10
C0AH40,平等,2025-05-08,25.129142,121.577086,1.0090253e-09
C0R540,佳冬,2025-05-08,22.419456,120.552375,0.9990082
466950,彭佳嶼,2025-05-08,25.627975,122.079744,4.32657e-05
C0A890,雙溪,2025-05-08,25.036003,121.864242,0.0020820124
C0C480,桃園,2025-05-08,24.992425,121.323172,3.954231e-08
C0AH50,林口,2025-05-08,25.072181,121.38084,9.809442e-09
A2K360,水試臺西試驗場,2025-05-08,23.717231,120.190522,0.99671173
C2M960,外寮,2025-05-08,23.562643,120.665688,7.383468e-10
C0F9S0,烏日,2025-05-08,24.107058,120.624103,7.965781e-08
C0C490,八德,2025-05-08,24.928708,121.283289,2.9705546e-08
C0R190,赤山,2025-05-08,22.592333,120.614306,0.9896949
C0T820,天祥,2025-05-08,24.179597,121.495639,2.5299337e-07
C1F9E1,龍安,2025-05-08,24.1605,120.831961,7.80097e-09
C0V820,小林,2025-05-08,23.148408,120.63325,9.241574e-09
C2G870,芳苑,2025-05-08,23.922303,120.320025,0.00054947473
C0E850,大河,2025-05-08,24.618069,120.948578,1.3033484e-07
C1U670,寒溪,2025-05-08,24.634,121.71691,1.1726617e-07
C0N020,城西,2025-05-08,23.0568,120.0956,0.61950237
C1Z110,三棧,2025-05-08,24.11557,121.60501,4.0917918e-08
C0R280,檳榔,2025-05-08,22.076078,120.836777,0.98667777
C2H9J0,中台,2025-05-08,23.9996,120.938739,3.5565734e-10
C0F9L0,后里,2025-05-08,24.310436,120.729725,4.498199e-08
467441,高雄,2025-05-08,22.730432,120.312516,0.9997064
C0Z180,新城,2025-05-08,24.040486,121.604878,0.98097986
C0D540,橫山,2025-05-08,24.71116,121.11693,2.060766e-07
C1D420,太閣南,2025-05-08,24.632808,121.160575,1.7540025e-09
C1E770,公館,2025-05-08,24.526914,120.830806,4.881129e-07
CAN130,水試所海水繁養殖中心,2025-05-08,23.120802,120.07968,0.99788725
C1I430,翠華,2025-05-08,24.191961,121.224339,1.9673856e-09
C1M400,菜瓜坪,2025-05-08,23.251928,120.576103,7.84066e-10
C0G730,二林,2025-05-08,23.903325,120.376081,0.032409366
72M360,南改義竹分場,2025-05-08,23.360694,120.279361,0.05916084
V2K620,麥寮合作社,2025-05-08,23.753836,120.294783,0.83832055
C0Z070,舞鶴,2025-05-08,23.46811,121.37407,7.0745787e-09
C0B040,大武崙,2025-05-08,25.166676,121.706993,3.9624874e-07
C1Z030,紅葉,2025-05-08,23.493119,121.338806,2.2027297e-08
C1I050,丹大,2025-05-08,23.753747,121.141147,2.7046367e-09
C0I080,信義,2025-05-08,23.689694,120.851036,1.2492472e-09
C0D750,樂山林道6k,2025-05-08,24.49999,121.08773,4.447021e-09
C2M920,朴子農改,2025-05-08,23.469889,120.259383,0.00012869172
C2A880,福隆,2025-05-08,25.017842,121.942083,6.1609735e-06
C0Z160,鳳林,2025-05-08,23.746114,121.453411,1.3750093e-05
C0UB80,翠峰林道6K,2025-05-08,24.49773,121.568625,5.985285e-09
C0V210,復興,2025-05-08,23.222403,120.806089,2.1806943e-09
C0H990,昆陽,2025-05-08,24.121322,121.273642,5.069647e-09
C0R741,獅子,2025-05-08,22.202308,120.705236,0.95441103
C0S710,鹿野,2025-05-08,22.917711,121.122994,7.194927e-05
C0I530,小奇萊,2025-05-08,24.131764,121.295717,5.4902904e-09
C0FA70,大雪山埡口,2025-05-08,24.26867,121.03062,8.1765625e-09
C2K630,荷苞,2025-05-08,23.657717,120.595144,0.0045390436
C0Z080,富源,2025-05-08,23.587642,121.378225,1.9860254e-07
C0SB10,美和,2025-05-08,22.682078,121.060236,0.84225106
C2K620,馬光農場,2025-05-08,23.721453,120.378864,8.268821e-07
C1I140,卡奈托灣,2025-05-08,23.754364,121.087872,1.0883997e-09
C0I520,玉山風口,2025-05-08,23.470489,120.955994,1.4149407e-08
C1G691,下水埔,2025-05-08,23.816114,120.5676,3.0855342e-06
C0X110,臺南市南區,2025-05-08,22.961189,120.188378,0.99985576
C0V680,仁武,2025-05-08,22.701083,120.347722,0.9997158
C2G840,北斗,2025-05-08,23.877586,120.514222,1.2299314e-06
C0R900,竹坑,2025-05-08,22.1385,120.7022,0.043076415
C0K250,崙背,2025-05-08,23.75555,120.318925,0.84371996
C0G860,社頭,2025-05-08,23.897647,120.5862,3.4069235e-05
C0X150,安定,2025-05-08,23.102614,120.227839,0.9978689
C0R590,里港,2025-05-08,22.77919,120.49459,0.9997738
C0E610,馬都安,2025-05-08,24.451272,120.930192,7.5646767e-10
C0E550,明德,2025-05-08,24.583486,120.885411,2.520686e-07
C0R150,三地門,2025-05-08,22.709889,120.639944,0.9993302
C0G910,花壇,2025-05-08,24.032076,120.549461,2.7549996e-07
C1D400,鳥嘴山,2025-05-08,24.71909,121.28387,9.320823e-10
C0K500,元長,2025-05-08,23.64981,120.315024,0.04821841
C0F0B0,石岡,2025-05-08,24.276061,120.777644,1.952121e-08
C2V250,甲仙,2025-05-08,23.080106,120.591758,3.9232535e-07
C0SA20,金崙山,2025-05-08,22.567419,120.959667,2.6891344e-08
C0V350,溪埔,2025-05-08,22.738578,120.446797,0.9997314
C0M660,溪口,2025-05-08,23.604131,120.403569,6.1786216e-07
C1S880,壽卡,2025-05-08,22.238911,120.858903,0.3195055
72D680,桃改新埔分場,2025-05-08,24.834444,121.066111,4.6215956e-09
