站號,站名,日期,lat,lon,BLBTSLS
C1O850,環湖,2025-12-27,23.148617,120.418633,6.191728e-10
C0S890,關山,2025-12-27,23.0395,121.175017,6.6152417e-10
CAH030,茶改場竹圍站,2025-12-27,23.860083,120.637528,4.253293e-10
V2K610,大庄合作社,2025-12-27,23.8068,120.367939,1.1962222e-08
G2AI50,關渡,2025-12-27,25.11575,121.492,7.472998e-05
C1S800,華源,2025-12-27,22.657883,121.02325,2.908933e-09
C0R550,新埤,2025-12-27,22.467947,120.582894,5.5266935e-10
C1O880,關山,2025-12-27,23.173397,120.594092,4.821516e-10
V2C260,八德蔬果,2025-12-27,24.978508,121.281819,0.00067454303
A2K570,古坑花卉中心,2025-12-27,23.63353,120.55239,2.571242e-08
C0R260,春日,2025-12-27,22.370361,120.628306,4.9886867e-10
C1I211,蘆竹湳,2025-12-27,23.934019,120.811994,5.6770394e-10
467571,新竹,2025-12-27,24.827853,121.014219,0.05748309
C1I260,北坑,2025-12-27,23.9246,121.006903,5.0594534e-10
C0SA40,瑞和,2025-12-27,22.974361,121.156697,6.738951e-10
C0R490,九如,2025-12-27,22.7405,120.490503,6.429077e-10
C0D430,峨眉,2025-12-27,24.6905,121.017189,1.0413174e-09
C1I240,外大坪,2025-12-27,23.958697,120.917931,5.252417e-10
C1V570,吉東,2025-12-27,22.85422,120.5454,4.631344e-10
C0D480,打鐵坑,2025-12-27,24.849664,121.150789,0.00015759593
V2C250,八德合作社,2025-12-27,24.93775,121.266389,0.0034229853
C0C480,桃園,2025-12-27,24.992425,121.323172,0.00067454303
