站號,站名,日期,lat,lon,BlastGRU-TW
C0R710,龍磐,2025-02-14,21.931672,120.838942,0.00084044837
C1F9D1,白毛台,2025-02-14,24.158325,120.886933,0.0016555515
C0G940,竹塘,2025-02-14,23.848253,120.386764,0.0010500362
467590,恆春,2025-02-14,22.003897,120.746339,0.0021003266
C1O850,環湖,2025-02-14,23.148617,120.418633,0.004463411
C0U710,太平山,2025-02-14,24.505486,121.525656,0.00041115948
C0E820,獅潭,2025-02-14,24.539133,120.920042,0.0011019491
C0V880,興達,2025-02-14,22.8778,120.2127,0.0015382225
C0S890,關山,2025-02-14,23.0395,121.175017,0.001544302
K2F750,種苗繁殖,2025-02-14,24.225972,120.800917,0.0013710727
C1Z130,銅門,2025-02-14,23.965694,121.492842,0.00068123377
C0AD40,土城,2025-02-14,24.973208,121.445169,0.0012041597
CAN140,六官養殖協會,2025-02-14,23.22881,120.29962,0.0027981275
C0X180,山上,2025-02-14,23.0757,120.363253,0.005143643
C0F9Z0,雪山東峰,2025-02-14,24.388792,121.268675,0.0004981508
C1M480,獨立山,2025-02-14,23.537022,120.607797,0.0011494622
C0X220,學甲,2025-02-14,23.230367,120.182187,0.0012521878
C0R170,屏東,2025-02-14,22.660269,120.494072,0.05722333
467650,日月潭,2025-02-14,23.881325,120.90805,0.0020807309
C0K600,箔子寮,2025-02-14,23.6197,120.14,0.0009822297
C0G830,埤頭,2025-02-14,23.866003,120.452806,0.0024547346
C0S950,七塊厝,2025-02-14,22.954453,121.229922,0.0010519691
467110,金門,2025-02-14,24.407306,118.289281,0.00067702646
C0AH80,深坑,2025-02-14,25.002703,121.628328,0.0010751991
467990,馬祖,2025-02-14,26.169269,119.923419,0.00044206632
C0A970,三貂角,2025-02-14,25.007606,122.002058,0.0065675275
C0K430,褒忠,2025-02-14,23.690938,120.303634,0.0009026406
467480,嘉義,2025-02-14,23.495925,120.432906,0.0023888636
C2E540,後龍,2025-02-14,24.606489,120.783933,0.0005883799
C0V400,阿公店,2025-02-14,22.804194,120.355528,0.00771081
C0R440,大漢山,2025-02-14,22.405264,120.753181,0.000256588
C0K280,四湖,2025-02-14,23.630414,120.227125,0.0010393283
C1F9B1,桐林,2025-02-14,24.066172,120.735194,0.0011784302
C0K390,土庫,2025-02-14,23.679029,120.395574,0.0024730503
C1I450,望鄉山,2025-02-14,23.594153,120.944286,0.00044176745
C0E910,海埔,2025-02-14,24.648767,120.772435,0.0007143173
B2E890,畜試北區分所,2025-02-14,24.527806,120.770972,0.0010443575
C0R750,四林格山,2025-02-14,22.076989,120.802439,0.00042840219
C0F0C0,中坑,2025-02-14,24.248517,120.903319,0.001341942
C1I121,大鞍,2025-02-14,23.678381,120.760017,0.0011274474
72U480,花改蘭陽分場,2025-02-14,24.686306,121.716583,0.0015496631
C0A770,科教館,2025-02-14,25.096356,121.516507,0.002849697
C0AJ60,六塊厝,2025-02-14,25.24,121.4481,0.0022594451
C0R620,墾雷,2025-02-14,21.900836,120.855269,0.00075416313
467420,永康,2025-02-14,23.038386,120.2367,0.0063987835
467300,東吉島,2025-02-14,23.25695,119.667467,0.00055093004
C0I410,名間,2025-02-14,23.837053,120.701447,0.0025193228
A2C560,農工中心,2025-02-14,24.985917,121.239833,0.00080913305
C0V740,旗山,2025-02-14,22.888614,120.483597,0.049197596
C0Z061,玉里,2025-02-14,23.3215,121.339656,0.0023680336
C0S840,南田,2025-02-14,22.279725,120.889208,0.0046675038
C1I470,杉林溪,2025-02-14,23.639517,120.786444,0.00095118437
C1X040,東原,2025-02-14,23.291597,120.463822,0.005717099
C0R660,枋寮,2025-02-14,22.367722,120.590647,0.17015071
C1R120,上德文,2025-02-14,22.763272,120.704442,0.0024078966
C0K450,大埤,2025-02-14,23.646074,120.431537,0.002726388
C0UA00,土場,2025-02-14,24.576533,121.495333,0.002857837
467080,宜蘭,2025-02-14,24.763975,121.756528,0.0013670978
C0N030,四草,2025-02-14,23.0235,120.1116,0.0018453416
C0V650,彌陀,2025-02-14,22.783806,120.246361,0.0018709878
C0D660,新竹市東區,2025-02-14,24.798681,120.986942,0.0007320675
82S580,茶改東部分場,2025-02-14,22.907694,121.130139,0.0016329413
C0C710,大溪永福,2025-02-14,24.892936,121.324975,0.0010640293
C0FA20,溫寮,2025-02-14,24.372177,120.583125,0.000638714
C0V640,湖內,2025-02-14,22.887139,120.2445,0.0015071444
C0R910,下寮,2025-02-14,22.3929,120.5548,0.17019197
C0Z020,明里,2025-02-14,23.208717,121.262342,0.0024449204
C0M770,嘉義梅山,2025-02-14,23.585398,120.555587,0.0022598505
G2F820,農業試驗所,2025-02-14,24.031261,120.688133,0.0011870408
C0C660,楊梅,2025-02-14,24.912375,121.143047,0.00088635663
C1E511,新開,2025-02-14,24.347703,120.827019,0.0009581631
G2F820,農試所(霧峰),2025-02-14,24.031261,120.688133,0.0011870408
C1I070,和社,2025-02-14,23.591131,120.888861,0.004710476
C2F000,大肚,2025-02-14,24.15295,120.572117,0.001422989
C1S850,豐南,2025-02-14,23.122139,121.262389,0.0010477942
C2A920,富貴角,2025-02-14,25.263783,121.565258,0.0010925021
CAH030,茶改場竹圍站,2025-02-14,23.860083,120.637528,0.0049429922
C0T960,光復,2025-02-14,23.660694,121.424964,0.0029681018
C0F9M0,豐原,2025-02-14,24.254322,120.720692,0.00097147666
C0R720,旭海,2025-02-14,22.205403,120.887614,0.0031872871
C0V710,苓雅,2025-02-14,22.622742,120.330669,0.015677102
C0C740,觀音工業區,2025-02-14,25.064764,121.114856,0.0006081953
CAC040,拉拉山,2025-02-14,24.699317,121.427133,0.0007674496
C0V790,萬山,2025-02-14,22.905944,120.688056,0.0061416216
U2HA30,臺大和社,2025-02-14,23.590856,120.888864,0.0033408662
C0AJ90,澳底,2025-02-14,25.0552,121.9253,0.005742425
C0Z100,東華,2025-02-14,23.89525,121.549833,0.0011380055
C0G970,三豐,2025-02-14,23.882,120.2895,0.00070233434
V2K610,大庄合作社,2025-02-14,23.8068,120.367939,0.0009877076
C0V900,汕尾,2025-02-14,22.4782,120.4151,0.022281079
C1R630,龍泉,2025-02-14,22.66701,120.59091,0.06174707
C1AC50,關渡,2025-02-14,25.133486,121.469331,0.001955869
C0F9I0,神岡,2025-02-14,24.272481,120.658314,0.001201885
C0K460,斗南,2025-02-14,23.678734,120.478359,0.002634171
467410,臺南,2025-02-14,22.993239,120.204772,0.0017411486
C2O810,曾文,2025-02-14,23.219681,120.497328,0.010502988
467280,後龍,2025-02-14,24.648563,120.831834,0.000696514
C1F9J1,清水林,2025-02-14,24.071242,120.820419,0.002522397
C2A650,火燒寮,2025-02-14,25.002719,121.742892,0.0021551442
466930,竹子湖,2025-02-14,25.162078,121.544547,0.00048116953
C1I220,樟湖,2025-02-14,23.905333,120.846983,0.0011236571
C0I390,仁愛,2025-02-14,24.022122,121.132206,0.0013275734
C0Z300,東里,2025-02-14,23.26853,121.30547,0.0029881117
C0V310,美濃,2025-02-14,22.898742,120.519153,0.05222866
C1V590,新發,2025-02-14,23.057019,120.646064,0.0018301542
C0K510,水林,2025-02-14,23.572924,120.24597,0.001252885
72S590,東改賓朗果園,2025-02-14,22.813889,121.071278,0.0010267064
82A750,茶改北部分場,2025-02-14,24.955778,121.631222,0.0012925011
C1A750,石碇服務區,2025-02-14,25.00872,121.646242,0.0012269598
C0X300,鹿寮,2025-02-14,23.386047,120.477331,0.0026028662
G2AI50,關渡,2025-02-14,25.11575,121.492,0.0014089248
C0K590,雲林東勢,2025-02-14,23.674192,120.255721,0.0010636506
C0A570,桶後,2025-02-14,24.848222,121.597992,0.0018038506
C1S800,華源,2025-02-14,22.657883,121.02325,0.020931102
C0G720,溪州,2025-02-14,23.851589,120.499093,0.0024016316
C1V160,達卡努瓦,2025-02-14,23.279811,120.705319,0.0010096485
C2M410,馬頭山,2025-02-14,23.324361,120.582017,0.0044446434
C0V850,蚵仔寮,2025-02-14,22.7256,120.2527,0.0045400886
C0S740,池上,2025-02-14,23.119628,121.209469,0.0008404428
C1V390,尖山,2025-02-14,22.813153,120.367789,0.0062934346
C0AH70,松山,2025-02-14,25.04871,121.55042,0.0027589418
C0N010,鯤鯓國小,2025-02-14,23.1879,120.0889,0.0009150761
C0R550,新埤,2025-02-14,22.467947,120.582894,0.01731522
C0SA60,知本（水試所）,2025-02-14,22.702394,121.082761,0.06656331
C0T9I0,豐濱,2025-02-14,23.583897,121.514806,0.0034926846
C0UB00,淡江大學蘭陽校園,2025-02-14,24.823239,121.730383,0.0013559278
C0T9N0,富里,2025-02-14,23.171639,121.249378,0.00077692064
U2HA50,臺大竹山,2025-02-14,23.756972,120.681556,0.0027232855
C0V840,鳳鼻頭,2025-02-14,22.5083,120.3591,0.009728366
C0X140,西港,2025-02-14,23.125608,120.203108,0.0029055811
72D080,桃改五峰分場,2025-02-14,24.612194,121.157167,0.00065975956
C0V530,阿蓮,2025-02-14,22.883208,120.327508,0.0036076251
C1O880,關山,2025-02-14,23.173397,120.594092,0.012381971
C0E791,卓蘭,2025-02-14,24.3126,120.8244,0.00093856925
C1I030,武界,2025-02-14,23.913225,121.052483,0.0015859402
C0R520,崁頂,2025-02-14,22.514781,120.506914,0.024191694
C0R341,牡丹,2025-02-14,22.130036,120.792639,0.0020242387
C0R930,萬丹,2025-02-14,22.5885,120.4851,0.053083688
C0S760,紅石,2025-02-14,23.069131,121.126219,0.00064097065
C1M610,石磐龍,2025-02-14,23.496606,120.663506,0.0019503523
C0UA10,鴛鴦湖,2025-02-14,24.590269,121.412228,0.0006504674
V2C260,八德蔬果,2025-02-14,24.978508,121.281819,0.00085196405
C0R800,丹路,2025-02-14,22.204481,120.750989,0.007782804
C0G920,永靖,2025-02-14,23.924703,120.547533,0.0020757113
C1A630,下盆,2025-02-14,24.771003,121.538622,0.0013708795
B2N890,畜產試驗所,2025-02-14,23.058972,120.336406,0.004715692
C0UA30,白嶺,2025-02-14,24.527819,121.519031,0.00047036706
C1V580,溪南(特生中心),2025-02-14,23.084972,120.788475,0.0013692152
C1T970,大農,2025-02-14,23.615233,121.413331,0.0029491452
E2S960,林試太麻里2,2025-02-14,22.598014,120.989761,0.23580134
C0R650,竹田,2025-02-14,22.58486,120.54344,0.025918296
C1H900,清流,2025-02-14,24.080775,120.962997,0.0038905626
C1C510,水尾,2025-02-14,24.940081,121.087161,0.00063148804
C0F9X0,大雅(中科園區),2025-02-14,24.21528,120.62445,0.0009784274
C0O970,虎頭埤,2025-02-14,23.021375,120.347878,0.0062304586
C0C730,中大臨海站,2025-02-14,24.966126,121.008581,0.00062174705
C0X250,新營,2025-02-14,23.310689,120.316681,0.0028386659
C0V700,三民,2025-02-14,22.645017,120.311233,0.002197593
C0U870,大礁溪,2025-02-14,24.791042,121.675047,0.0011156806
C0E870,高鐵苗栗,2025-02-14,24.60725,120.826094,0.0005956664
A2K570,古坑花卉中心,2025-02-14,23.63353,120.55239,0.0032574993
C0M860,新美,2025-02-14,23.338017,120.683169,0.00856322
C1E701,八卦,2025-02-14,24.491756,120.927619,0.0006799168
C0I420,國姓,2025-02-14,24.037803,120.855072,0.0031400586
C0S960,香蘭,2025-02-14,22.587569,120.993375,0.22777188
C0R260,春日,2025-02-14,22.370361,120.628306,0.09590976
72G600,臺中農改場,2025-02-14,24.003028,120.534389,0.0016364714
C0Z210,瑞穗,2025-02-14,23.5239,121.39021,0.0037441237
C0M820,達邦,2025-02-14,23.453994,120.749517,0.0025779023
C0V860,南寮,2025-02-14,22.7616,120.2339,0.0045299563
C0G740,大城,2025-02-14,23.852487,120.320935,0.0006982946
C0R920,塭仔,2025-02-14,22.4169,120.5197,0.18105215
C0R470,高樹,2025-02-14,22.826389,120.600806,0.027397785
C0R680,佳樂水,2025-02-14,21.993578,120.861633,0.0014724286
C1O870,大棟山,2025-02-14,23.31157,120.52226,0.0015516462
C0D360,梅花,2025-02-14,24.678347,121.208558,0.00074860605
C0Z190,富世,2025-02-14,24.14743,121.6297,0.00041753662
C0AI10,屈尺,2025-02-14,24.92184,121.54475,0.0028206042
B2U990,畜試東區分所,2025-02-14,24.669039,121.832561,0.004747819
C0R240,來義,2025-02-14,22.527306,120.625111,0.010862692
C1R610,西大武山,2025-02-14,22.617719,120.7322,0.00037382985
C0G900,線西,2025-02-14,24.143358,120.443536,0.0008044676
C0M700,竹崎,2025-02-14,23.526178,120.555508,0.0018637566
C2E880,三義,2025-02-14,24.405478,120.749819,0.00068959245
C0C720,竹圍,2025-02-14,25.112692,121.239824,0.0012698573
C0F9P0,清水,2025-02-14,24.312297,120.562242,0.0007600819
C0Z150,吉安光華,2025-02-14,23.930925,121.595153,0.0011408264
C1D640,外坪(五指山),2025-02-14,24.644447,121.090961,0.0009876805
C0F9O0,潭子,2025-02-14,24.213106,120.703933,0.0009759924
72T250,花蓮農改場,2025-02-14,23.975222,121.563889,0.0008010926
C0E780,銅鑼,2025-02-14,24.489681,120.790853,0.0009002399
C1T950,太安,2025-02-14,23.666719,121.370128,0.006617185
C0E830,苑裡,2025-02-14,24.439714,120.653053,0.00053635536
467270,田中,2025-02-14,23.873803,120.581286,0.0034786903
C0SA10,檳榔四格山,2025-02-14,22.810031,121.109308,0.00091041945
C1T830,布洛灣,2025-02-14,24.17184,121.57127,0.06115743
C0F970,大坑,2025-02-14,24.173142,120.722289,0.0013641586
C1U920,思源,2025-02-14,24.393125,121.347214,0.0006874911
C0A931,三和,2025-02-14,25.233153,121.595236,0.0025976743
C0I010,廬山,2025-02-14,24.033311,121.181808,0.0007879058
C0R860,鼻頭,2025-02-14,22.1043,120.8979,0.0028229335
C0UB20,壯圍,2025-02-14,24.7359,121.8163,0.002009073
C0R790,九棚,2025-02-14,22.14195,120.889281,0.0025233473
C0W110,東莒,2025-02-14,25.9652,119.98069,0.00033044652
C1U930,粉鳥林,2025-02-14,24.497088,121.842479,0.005211748
C1I211,蘆竹湳,2025-02-14,23.934019,120.811994,0.00638469
C0S830,長濱,2025-02-14,23.286817,121.411975,0.0017784432
C1F9F1,伯公龍,2025-02-14,24.272392,120.849047,0.0014112521
C0E810,西湖,2025-02-14,24.562947,120.7485,0.000611412
C1I440,新高口,2025-02-14,23.478744,120.878939,0.0004717968
C0O840,王爺宮,2025-02-14,23.222064,120.40085,0.0034556757
C0T9G0,鳳林山,2025-02-14,23.735269,121.420131,0.0008196138
C0X080,佳里,2025-02-14,23.173039,120.145086,0.00091508834
C0Z310,清水斷崖,2025-02-14,24.218294,121.689142,0.000508281
C0M680,太保,2025-02-14,23.455062,120.331455,0.0026364631
C1S820,金峰,2025-02-14,22.590969,120.933236,0.043651294
C0AD10,八里,2025-02-14,25.150211,121.403947,0.0012704083
C2K240,草嶺,2025-02-14,23.59555,120.693461,0.0018086247
C1SA70,都蘭,2025-02-14,22.87794,121.226881,0.0018808945
C0K440,二崙,2025-02-14,23.772797,120.408944,0.0024717164
C1A760,坪林交控,2025-02-14,24.94284,121.713442,0.0014206924
C0F9N0,大里,2025-02-14,24.092464,120.701378,0.0034830503
C0SA90,達仁林場,2025-02-14,22.264347,120.823972,0.0010790568
C1R290,石門山,2025-02-14,22.112611,120.756597,0.00073229085
42HA10,萬大發電廠,2025-02-14,23.978875,121.139639,0.0018168619
C0R890,山海,2025-02-14,21.9878,120.7091,0.0019596377
C0T9A0,月眉山,2025-02-14,23.809928,121.539828,0.00055999326
C0AC70,信義,2025-02-14,25.037822,121.564597,0.002756314
C0K560,棋山,2025-02-14,23.68645,120.603417,0.0035567957
C1Z240,中平林道,2025-02-14,23.42115,121.26763,0.016554823
U2H480,溪頭,2025-02-14,23.670306,120.798194,0.0022502257
C0M880,好美里,2025-02-14,23.3364,120.138,0.0018117479
C0T9E0,大坑,2025-02-14,23.880628,121.581981,0.00045637964
C0K530,臺西,2025-02-14,23.701547,120.197559,0.000920261
C1E900,國一N128K,2025-02-14,24.560997,120.844186,0.00083464524
C0AJ50,水湳洞,2025-02-14,25.123695,121.862238,0.0042169695
C0AI20,白沙灣,2025-02-14,25.283128,121.519058,0.0020691731
C0A860,大坪,2025-02-14,25.165914,121.632969,0.00075397914
C1U850,觀音海岸,2025-02-14,24.38319,121.77856,0.00039156503
C0U950,鶯子嶺,2025-02-14,24.89754,121.79244,0.00044515857
C0O900,善化,2025-02-14,23.112883,120.297219,0.006097106
C0K550,蔦松,2025-02-14,23.514319,120.229736,0.0011874507
E2P980,林試六龜中心,2025-02-14,22.991703,120.645722,0.023117304
C0E590,通霄,2025-02-14,24.471892,120.704622,0.0007304006
C1I310,西巒,2025-02-14,23.754486,120.883956,0.003457489
C0A550,泰平,2025-02-14,24.971197,121.823711,0.0017079421
C0I360,水里,2025-02-14,23.812553,120.849792,0.0049856016
C0R830,高士,2025-02-14,22.121825,120.836781,0.00060261256
C1I101,溪頭,2025-02-14,23.661789,120.807647,0.00032398952
C0AJ20,野柳,2025-02-14,25.20703,121.690021,0.0071078646
C0B060,暖暖,2025-02-14,25.0957,121.7403,0.001257807
C1H920,長豐,2025-02-14,24.102039,120.879897,0.0042123166
C0V360,內門,2025-02-14,22.975481,120.466769,0.014896697
C0R850,林邊,2025-02-14,22.4634,120.5339,0.02049577
C0E930,龍鳳,2025-02-14,24.700034,120.859125,0.00061509747
C0U910,冬山,2025-02-14,24.63373,121.7937,0.006592669
C1E721,泰安,2025-02-14,24.489017,120.968036,0.001159962
82H320,茶改中部分場,2025-02-14,23.875611,120.913583,0.002915546
C0M750,布袋,2025-02-14,23.380878,120.167789,0.0018071092
C1S860,利嘉,2025-02-14,22.809417,121.050528,0.008412759
72C440,桃園農改,2025-02-14,24.950944,121.030583,0.0007445489
E2S980,林試太麻里1,2025-02-14,22.598922,120.980044,0.12362358
C0X170,關廟,2025-02-14,22.963017,120.327797,0.00607377
C0V720,林園,2025-02-14,22.507747,120.394511,0.030232022
C1I510,線浸林道,2025-02-14,23.761508,120.832956,0.0012461826
C0D690,外湖,2025-02-14,24.917735,120.968711,0.00068102375
C0C750,新興坑尾,2025-02-14,25.0061,121.0971,0.0005906454
B2Q810,畜試南區分所,2025-02-14,21.945583,120.802167,0.0015074351
C0S790,金崙,2025-02-14,22.538122,120.966875,0.012925784
C0AH90,福山植物園,2025-02-14,24.760717,121.58135,0.0044577573
C0I540,奇萊稜線,2025-02-14,24.109231,121.326456,0.0004229439
C0M850,表湖,2025-02-14,23.24186,120.64166,0.001954828
C0S770,大溪山,2025-02-14,22.478475,120.943325,0.0025147148
C0AG80,中和,2025-02-14,24.991622,121.491792,0.0012039429
C0T790,大禹嶺,2025-02-14,24.186117,121.316086,0.0005197166
C0T9B0,水源,2025-02-14,23.991861,121.537169,0.00031241233
C0R840,牡丹池山,2025-02-14,22.168389,120.841225,0.0011707336
C1I131,桶頭,2025-02-14,23.641944,120.654117,0.0021167719
CAL110,布袋國中,2025-02-14,23.35893,120.18026,0.0019213066
467571,新竹,2025-02-14,24.827853,121.014219,0.0007085861
C0Z290,赤柯山,2025-02-14,23.36893,121.38293,0.00079332764
C0X280,將軍,2025-02-14,23.214999,120.13577,0.0012728926
C0S690,太麻里,2025-02-14,22.60902,120.98533,0.0015341765
C0U880,北關,2025-02-14,24.9072,121.8734,0.0044934135
C1H860,瑞岩,2025-02-14,24.123772,121.18345,0.0004938779
C0G810,埔心,2025-02-14,23.947633,120.525456,0.0020745904
C0U970,大福,2025-02-14,24.80064,121.81389,0.0014067019
C1E670,南礦,2025-02-14,24.538278,121.002836,0.00082244084
C0M520,東後寮,2025-02-14,23.369908,120.248065,0.0018548411
C1E461,松安,2025-02-14,24.397972,120.986022,0.0014820992
72G600,臺中農改,2025-02-14,24.003028,120.534389,0.001514798
C2N160,西拉雅風管處,2025-02-14,23.189481,120.335297,0.0036454364
C0A640,石碇,2025-02-14,24.993969,121.662917,0.000828495
E2S960,林試太麻里2,2025-02-14,22.598,120.99775,0.25472048
C0F9Y0,桃山,2025-02-14,24.432739,121.303808,0.0004914923
C1I020,萬大,2025-02-14,23.979817,121.132261,0.0013114193
C0U940,羅東,2025-02-14,24.68184,121.74934,0.0018710768
C0M650,朴子,2025-02-14,23.43463,120.23902,0.0023137245
C1I500,大尖山,2025-02-14,23.858572,120.994889,0.00036008764
C0G820,田尾,2025-02-14,23.901669,120.509389,0.002074615
E2K600,四湖植物園,2025-02-14,23.676986,120.163433,0.0010384886
C0S730,綠島,2025-02-14,22.6672,121.47533,0.0010796459
12Q970,東港工作站,2025-02-14,22.479997,120.466058,0.02444674
C0E430,南庄,2025-02-14,24.601775,121.000214,0.0010796551
C1TA00,太魯閣,2025-02-14,24.15773,121.6236,0.0003836305
466920,臺北,2025-02-14,25.037658,121.514853,0.0027589418
C0R600,舊泰武,2025-02-14,22.588194,120.664944,0.0039315047
C1I260,北坑,2025-02-14,23.9246,121.006903,0.0056342473
466910,鞍部,2025-02-14,25.182586,121.529731,0.0006696947
C1I230,九份二山,2025-02-14,23.961944,120.845,0.0019632948
C2A660,瑞芳,2025-02-14,25.113169,121.801147,0.002570067
C0R270,琉球嶼,2025-02-14,22.332244,120.362236,0.004574498
C1T990,高寮,2025-02-14,23.394239,121.356808,0.0037250305
C0G620,芬園,2025-02-14,24.015678,120.6213,0.0023346662
C1Z140,荖溪,2025-02-14,23.890575,121.45964,0.007517384
C1I201,中心崙,2025-02-14,23.728722,120.712097,0.002062716
C1I400,凌霄,2025-02-14,24.018778,121.004456,0.0009091747
C1M640,十字,2025-02-14,23.492153,120.753683,0.0008696384
G2P820,農試鳳山分所,2025-02-14,22.646611,120.356083,0.0018187396
C0Z270,蕃薯寮,2025-02-14,23.73835,121.540108,0.0011736607
C0F9Q0,外埔,2025-02-14,24.347817,120.705686,0.0011759391
C0K580,高鐵雲林,2025-02-14,23.737456,120.417944,0.0020106044
C2I090,鳳凰,2025-02-14,23.728081,120.787347,0.0032027436
C0U990,員山,2025-02-14,24.74435,121.72247,0.0019393797
C0V770,大社,2025-02-14,22.730306,120.346639,0.0040767225
C0X120,麻豆,2025-02-14,23.183289,120.248611,0.0032605864
C0C670,龍潭,2025-02-14,24.870056,121.221389,0.0006202875
C0D680,香山濕地,2025-02-14,24.783581,120.914988,0.0007791537
C0S980,勝林山,2025-02-14,22.430439,120.8938,0.001056078
C0V730,大寮,2025-02-14,22.605614,120.395717,0.045528907
C0R570,麟洛,2025-02-14,22.65078,120.52719,0.05678177
CAG100,王功漁港,2025-02-14,23.96824,120.32586,0.000609598
C0X290,北門,2025-02-14,23.267772,120.125481,0.001272576
C2F930,大甲,2025-02-14,24.347667,120.640403,0.0005846925
C0D650,湖口,2025-02-14,24.904794,121.043628,0.00063466694
C0E420,竹南,2025-02-14,24.708978,120.888897,0.0006055474
C0U780,五結,2025-02-14,24.68637,121.79794,0.0020077878
C1I250,鯉潭,2025-02-14,23.961922,120.991131,0.0017454363
C0R130,阿禮,2025-02-14,22.742908,120.743678,0.0013784565
C0X100,臺南市北區,2025-02-14,23.010394,120.194228,0.0018076306
C0S920,金峰嘉蘭,2025-02-14,22.594789,120.960825,0.10945372
C0V490,新興,2025-02-14,22.627422,120.298803,0.01585791
C0F9K0,大安,2025-02-14,24.345061,120.588025,0.0006304516
72N100,臺南農改,2025-02-14,23.0605,120.342194,0.004704352
467290,古坑,2025-02-14,23.633639,120.551889,0.0038252594
C0V440,鳳山,2025-02-14,22.646653,120.356122,0.0020242012
C1T940,大觀,2025-02-14,23.714206,121.373133,0.00079062284
72T250,花蓮農改,2025-02-14,23.975222,121.563889,0.0008010926
C0E740,造橋,2025-02-14,24.637056,120.864778,0.0007027237
C0R100,尾寮山,2025-02-14,22.833111,120.683889,0.0017032714
A2K630,臺大雲林校區,2025-02-14,23.730628,120.423903,0.0020672067
C0D580,寶山,2025-02-14,24.735006,121.025192,0.0011804794
E2P990,林試扇平站,2025-02-14,22.9677,120.6857,0.005354164
C0AI30,三重,2025-02-14,25.057328,121.500629,0.0028496955
C0AH00,汐止,2025-02-14,25.066881,121.658778,0.0027589418
C1Z040,立山,2025-02-14,23.443356,121.327375,0.0022170045
C0W130,花嶼,2025-02-14,23.40007,119.32276,0.0005405954
C0A950,鼻頭角,2025-02-14,25.129036,121.923372,0.0008512431
C0K470,林內,2025-02-14,23.748675,120.609642,0.0042149737
82C160,茶改場,2025-02-14,24.908472,121.185333,0.00080119225
C0Z320,清水林道,2025-02-14,23.27125,121.188272,0.0012975297
C0R760,南仁湖,2025-02-14,22.084681,120.863353,0.0007315229
C0M670,大林,2025-02-14,23.600616,120.45841,0.0019564219
C0M800,茶山,2025-02-14,23.299075,120.664767,0.017352112
C0A9C0,天母,2025-02-14,25.117494,121.537169,0.0027090684
72K220,南改斗南分場,2025-02-14,23.634556,120.477333,0.0027063244
72AI40,桃改樹林分場,2025-02-14,24.944503,121.386972,0.0009903229
C0S910,蘭嶼燈塔,2025-02-14,22.081197,121.503117,0.0014796596
C0B050,八斗子,2025-02-14,25.144754,121.79167,0.004820767
C0U900,內城,2025-02-14,24.71813,121.68766,0.0016912379
C0X320,柳營,2025-02-14,23.253328,120.375253,0.0030262896
C0M790,新港,2025-02-14,23.553269,120.345728,0.0019090554
C0F9T0,西屯,2025-02-14,24.179494,120.641275,0.0013354459
C0SA30,都歷,2025-02-14,23.020333,121.323642,0.0023549465
C0C620,蘆竹,2025-02-14,25.084275,121.265767,0.0007294532
C0R730,大坪頂,2025-02-14,22.024633,120.69355,0.0009265764
C0AJ40,石門,2025-02-14,25.273672,121.601198,0.0012669824
C0E750,苗栗,2025-02-14,24.564569,120.824575,0.0008449599
C0T870,鯉魚潭,2025-02-14,23.935639,121.508944,0.0006791898
C1V170,排雲,2025-02-14,23.463619,120.954147,0.000463651
C2H950,中寮,2025-02-14,23.884447,120.766406,0.0008615748
C0R350,貓鼻頭,2025-02-14,21.921774,120.7358,0.0018129643
C0V660,岡山,2025-02-14,22.797078,120.294958,0.0018764142
C1H941,雙冬,2025-02-14,23.967378,120.802189,0.0053620907
C0AJ70,田寮,2025-02-14,25.2698,121.4886,0.002156876
C0AI00,五股,2025-02-14,25.07445,121.42728,0.0011161807
C0Z280,德武,2025-02-14,23.47426,121.41071,0.0034601355
C0R700,枋山,2025-02-14,22.246844,120.661086,0.022405332
C0C460,復興,2025-02-14,24.820208,121.352281,0.00079029513
E2H360,蓮華池,2025-02-14,23.918333,120.885278,0.004077532
C0M640,中埔,2025-02-14,23.42538,120.5229,0.0019389276
C0W140,金沙,2025-02-14,24.488292,118.408778,0.0006433838
C2A540,四堵,2025-02-14,24.8926,121.745736,0.00088159315
C0ACA0,新莊,2025-02-14,25.051478,121.446756,0.002794071
C0R220,潮州,2025-02-14,22.534361,120.54,0.022012074
U2HA40,臺大內茅埔,2025-02-14,23.689722,120.851117,0.00997923
467490,臺中,2025-02-14,24.145736,120.684075,0.0010119684
C0U960,翠峰湖,2025-02-14,24.510856,121.608044,0.0004279369
E2HA20,林試畢祿溪站,2025-02-14,24.226944,121.308522,0.00049442414
C0V890,前鎮,2025-02-14,22.5718,120.3117,0.017231204
467620,蘭嶼,2025-02-14,22.036969,121.558339,0.0010623392
C1F941,雪嶺,2025-02-14,24.280586,121.026642,0.00052379543
C0AC80,文山,2025-02-14,25.00235,121.575728,0.0010731596
C0F9R0,龍井,2025-02-14,24.184536,120.528972,0.0008806801
C0M760,民雄,2025-02-14,23.551754,120.428457,0.0020017896
C0UA40,西德山,2025-02-14,24.560647,121.752608,0.00050536776
C1T920,中興,2025-02-14,23.769503,121.498653,0.0016445302
C0D550,雪霸,2025-02-14,24.526972,121.11605,0.00069970085
C2F860,梨山,2025-02-14,24.247522,121.243669,0.00048857246
C0R320,車城,2025-02-14,22.0744,120.716247,0.0034961295
C1S870,南美山,2025-02-14,23.15025,121.382333,0.00079694175
C0B020,基隆嶼,2025-02-14,25.19141,121.78391,0.0011069049
C1U501,牛鬥,2025-02-14,24.637836,121.573656,0.0024330264
C0M730,嘉義市東區,2025-02-14,23.457673,120.460531,0.0022013886
C0S700,知本,2025-02-14,22.684866,121.005642,0.0047212346
C1N001,沙崙,2025-02-14,22.935472,120.309406,0.0064918054
C0V760,橋頭,2025-02-14,22.757806,120.30575,0.004269824
C0G960,福寶,2025-02-14,24.0443,120.3814,0.0007946131
C0X210,白河,2025-02-14,23.347466,120.414427,0.0022810013
C0S810,東河,2025-02-14,22.972672,121.303986,0.001248557
C0R670,楓港,2025-02-14,22.190131,120.692156,0.010443442
C0FA50,霧峰,2025-02-14,24.0419,120.6995,0.001806098
C0UB10,蘇澳,2025-02-14,24.5969,121.8571,0.021932522
C0G950,防潮門,2025-02-14,24.1835,120.4871,0.0008813163
C0M740,六腳,2025-02-14,23.492871,120.290625,0.0021812734
C1R250,力里,2025-02-14,22.428117,120.629228,0.019252235
C0K330,虎尾,2025-02-14,23.719183,120.442036,0.0019672231
C2FA00,烏石坑,2025-02-14,24.273503,120.947617,0.001120366
C0V620,永安,2025-02-14,22.82315,120.236856,0.0018709878
C1I330,楓樹林,2025-02-14,23.986803,121.076117,0.0013083926
C0W200,湖西,2025-02-14,23.596314,119.67275,0.0006136079
72Q010,高雄農改場,2025-02-14,22.709333,120.525889,0.1135565
C0SA40,瑞和,2025-02-14,22.974361,121.156697,0.0017355061
C0C680,龜山,2025-02-14,25.02846,121.38656,0.0012085625
C2V260,月眉,2025-02-14,22.971003,120.539853,0.0463912
C0V450,鳳森,2025-02-14,22.545064,120.392592,0.017752023
C0U720,南山,2025-02-14,24.43742,121.38167,0.0009802094
A2N290,臺南蘭花園區,2025-02-14,23.340258,120.379661,0.0020505164
C0R560,新園,2025-02-14,22.5434,120.461558,0.030232022
C0U890,三星,2025-02-14,24.66812,121.65302,0.00545096
C1V300,御油山,2025-02-14,23.001983,120.715364,0.00096105813
C0U600,礁溪,2025-02-14,24.817539,121.765608,0.0025448326
C1T980,龍澗,2025-02-14,24.023289,121.411328,0.0060698506
C0D670,海天一線,2025-02-14,24.831986,120.914438,0.00057769654
C0SA00,歷坵,2025-02-14,22.520969,120.89185,0.0025905087
C0M710,東石,2025-02-14,23.458927,120.15385,0.0011128236
C0M780,鹿草,2025-02-14,23.41134,120.30835,0.0022597623
C0U520,雙連埤,2025-02-14,24.753033,121.641303,0.0010992949
C0B010,七堵,2025-02-14,25.094819,121.71713,0.0015041179
C0R480,長治,2025-02-14,22.693128,120.542622,0.012928624
C1V830,國三S383K,2025-02-14,22.781967,120.426475,0.031096756
12Q980,恆春工作站,2025-02-14,22.079678,120.714425,0.0035285684
C1O940,東山服務區,2025-02-14,23.286016,120.398472,0.0025265238
C1U840,東澳嶺,2025-02-14,24.5378,121.8485,0.0006807503
C1D630,飛鳳山,2025-02-14,24.766464,121.119178,0.00069417816
C0S940,石寧山,2025-02-14,23.223772,121.406639,0.0034882426
C0K410,北港,2025-02-14,23.573957,120.292802,0.0012331601
C2M620,瑞里,2025-02-14,23.545133,120.675197,0.0014068373
C2O950,安南,2025-02-14,23.076694,120.144861,0.000859384
C0F0E0,南湖圈谷,2025-02-14,24.363714,121.444667,0.00032502873
467610,成功,2025-02-14,23.097486,121.373428,0.0015375988
C0G890,伸港,2025-02-14,24.148933,120.484403,0.00080482947
C2E540,龍溪,2025-02-14,24.606489,120.783933,0.0005883799
C1V200,梅山,2025-02-14,23.268447,120.823556,0.0027247262
C0T9H0,加路蘭山,2025-02-14,23.682947,121.5274,0.00095129444
C2O930,玉井,2025-02-14,23.126042,120.46055,0.0031221183
C1F911,新伯公,2025-02-14,24.221361,120.841069,0.0016272949
C0R490,九如,2025-02-14,22.7405,120.490503,0.11498636
C0X200,左鎮,2025-02-14,23.056758,120.408522,0.0073602004
C1F891,稍來,2025-02-14,24.265689,121.001142,0.0006172748
72N240,七股研究中心,2025-02-14,23.081672,120.062894,0.00084360235
C0C700,中壢,2025-02-14,24.977661,121.256375,0.0009073154
C0M690,水上,2025-02-14,23.419734,120.388909,0.0025695493
C0V690,鼓山,2025-02-14,22.623325,120.275575,0.015920365
C0O860,大內,2025-02-14,23.11885,120.36083,0.005522991
C0Z200,萬榮,2025-02-14,23.709219,121.420106,0.0021377942
C0T9D0,和中,2025-02-14,24.26676,121.74103,0.0019837674
C1O921,楠西,2025-02-14,23.183511,120.484083,0.0039757486
C0AJ30,淡水觀海,2025-02-14,25.184591,121.408616,0.0022010752
C0V810,左營,2025-02-14,22.67491,120.28491,0.002198437
C0UA70,桃源谷,2025-02-14,24.962606,121.888875,0.000987086
C0X130,官田,2025-02-14,23.193217,120.315422,0.004438868
C1H000,翠峰,2025-02-14,24.109397,121.205211,0.00052130973
C0UA90,石城,2025-02-14,24.980444,121.951214,0.010980162
C1E681,南勢山,2025-02-14,24.421669,120.923831,0.0004851327
C0A9F0,內湖,2025-02-14,25.079422,121.57545,0.0027589418
C0K291,宜梧,2025-02-14,23.536281,120.169329,0.001182597
C1K540,口湖,2025-02-14,23.585344,120.180517,0.0009822536
C0R780,滿州,2025-02-14,22.024403,120.839892,0.001914962
C0V870,文安,2025-02-14,22.8025,120.2164,0.0019373688
C0U650,玉蘭,2025-02-14,24.675286,121.587061,0.001209376
C0R640,東港,2025-02-14,22.46247,120.44074,0.02201583
K2E360,苗栗農改,2025-02-14,24.495722,120.829111,0.0009961982
C0AJ80,板橋,2025-02-14,25.0107,121.4489,0.0012370399
C0S660,下馬,2025-02-14,23.150427,121.070312,0.0006515386
C1H9B1,阿眉,2025-02-14,24.1263,120.994672,0.00043424062
C0UA20,多加屯,2025-02-14,24.368614,121.373189,0.0005417056
C0E730,頭份,2025-02-14,24.688247,120.912206,0.0006089244
72V140,高改旗南分場,2025-02-14,22.857861,120.516667,0.10317728
C0K480,莿桐,2025-02-14,23.761192,120.502372,0.0027090155
C0U980,坪林石牌,2025-02-14,24.86478,121.77396,0.0008436068
C0T900,西林,2025-02-14,23.8119,121.441458,0.0010871198
C1I150,青雲,2025-02-14,23.793361,120.949378,0.0043340093
467350,澎湖,2025-02-14,23.565503,119.563094,0.0005561201
C0G800,埔鹽,2025-02-14,24.000394,120.431683,0.00076104986
C0H960,草屯,2025-02-14,23.973672,120.68085,0.00163302
C1V780,多納林道,2025-02-14,22.888028,120.737917,0.0042234682
C0E920,通霄漁港,2025-02-14,24.498589,120.673876,0.0006147385
C0Z330,安通山,2025-02-14,23.290728,121.348528,0.0011058615
C0AH10,永和,2025-02-14,25.01125,121.508111,0.0012391809
C2G640,鹿港,2025-02-14,24.0753,120.430481,0.00083116145
C1E890,國三N149K,2025-02-14,24.463414,120.680019,0.00062353356
C1R110,口社,2025-02-14,22.770111,120.645222,0.0462535
C1M870,國三N285K,2025-02-14,23.550319,120.505833,0.0025976498
467050,新屋,2025-02-14,25.006744,121.047486,0.0006125636
C1E480,鳳美,2025-02-14,24.554803,121.034747,0.0009361165
C0M530,奮起湖,2025-02-14,23.493903,120.699253,0.0012155077
C0C590,觀音,2025-02-14,25.027072,121.153317,0.00058245653
C0T9M0,靜浦,2025-02-14,23.455167,121.495028,0.0053571286
C0AI40,石牌,2025-02-14,25.115597,121.513139,0.002790928
C1F871,上谷關,2025-02-14,24.203483,121.018644,0.0017394206
C0G880,二水,2025-02-14,23.810742,120.6173,0.0032091637
C0R940,加祿堂,2025-02-14,22.3363,120.6217,0.041700322
C0W220,北竿,2025-02-14,26.220358,119.974881,0.00047238122
C0O960,崎頂,2025-02-14,22.959547,120.369317,0.0043218574
C0S750,向陽,2025-02-14,23.248397,120.986133,0.0006746224
C0T9F0,水璉,2025-02-14,23.797131,121.542514,0.0008601041
C1M600,頭凍,2025-02-14,23.406364,120.603339,0.0018207238
467660,臺東,2025-02-14,22.752211,121.154586,0.001675762
C1D380,新埔,2025-02-14,24.84745,121.03834,0.0006925717
C0V750,路竹,2025-02-14,22.854997,120.259439,0.0015505082
C0N050,蚵寮,2025-02-14,23.301,120.1104,0.0018115134
72M700,南改鹿草分場,2025-02-14,23.416869,120.283061,0.0023240403
C1SA50,利嘉林道,2025-02-14,22.82325,121.009389,0.0010516203
467550,玉山,2025-02-14,23.487614,120.959522,0.0004076217
C0A940,金山,2025-02-14,25.223628,121.643967,0.0064533986
C1V340,大津,2025-02-14,22.888322,120.645986,0.09240253
C0W180,七美,2025-02-14,23.219333,119.444892,0.00062795455
C1F9C1,白冷,2025-02-14,24.182844,120.929889,0.0010293581
K2E710,苗改生物防治研究中心,2025-02-14,24.422861,120.871833,0.0012093524
C0N040,蘆竹溝,2025-02-14,23.2344,120.0961,0.0012710274
C2W230,畜試所澎湖,2025-02-14,23.628342,119.513206,0.0004682444
C0R880,後壁湖,2025-02-14,21.9457,120.7457,0.0020247698
C1I280,埔中,2025-02-14,23.820778,120.642594,0.0030650033
467790,墾丁雷達站,2025-02-14,21.948235,120.808028,0.0012990098
C0W190,望安,2025-02-14,23.380564,119.494075,0.00059554726
466881,新北,2025-02-14,24.9593,121.52,0.0011660813
C0Z170,卓溪,2025-02-14,23.3443,121.3029,0.0019779445
C0F850,東勢,2025-02-14,24.246428,120.833047,0.00075533474
466900,淡水,2025-02-14,25.164889,121.448906,0.0012475188
C0I370,魚池,2025-02-14,23.895703,120.94135,0.004807231
C0C630,大溪,2025-02-14,24.882853,121.265547,0.00075832056
C0A520,山佳,2025-02-14,24.974944,121.402008,0.0012650574
C0I110,竹山,2025-02-14,23.761225,120.688156,0.0024850743
82H840,茶改南部分場,2025-02-14,23.762528,120.7405,0.0034067354
C0G660,溪湖,2025-02-14,23.94835,120.479122,0.00212224
C1T800,洛韶,2025-02-14,24.204558,121.453956,0.002067726
C1T810,慈恩,2025-02-14,24.192044,121.388386,0.0006467896
C1E451,象鼻,2025-02-14,24.368617,120.940228,0.0008780554
C0AC60,三峽,2025-02-14,24.939025,121.369728,0.00094451196
C0I490,萬大林道,2025-02-14,23.928228,121.091411,0.00051402266
C1I290,豐丘,2025-02-14,23.668178,120.887417,0.0016250337
C1I320,奧萬大,2025-02-14,23.952956,121.178556,0.00084405066
C0U770,南澳,2025-02-14,24.44935,121.81022,0.0009402064
C0A980,社子,2025-02-14,25.109508,121.469681,0.0012932831
C0V800,六龜,2025-02-14,22.997889,120.633583,0.032253485
C1G9D0,國一S218K,2025-02-14,23.890641,120.493253,0.0020905004
C2F9A0,中竹林,2025-02-14,24.103556,120.751061,0.0015424194
C0FA40,臺中電廠,2025-02-14,24.2146,120.4907,0.0008806503
C0H9C0,合歡山,2025-02-14,24.143442,121.272547,0.00047454183
C0X060,下營,2025-02-14,23.22695,120.256261,0.0031564857
G2M350,農試溪口農場,2025-02-14,23.58565,120.408111,0.0018992814
C0U860,頭城,2025-02-14,24.85323,121.8308,0.0026569585
C0R580,南州,2025-02-14,22.48591,120.50274,0.02201583
C0D430,峨眉,2025-02-14,24.6905,121.017189,0.0009067061
C0G780,秀水,2025-02-14,24.03405,120.503869,0.001617845
72N100,臺南農改場,2025-02-14,23.0605,120.342194,0.005415366
C0S900,蘭嶼高中,2025-02-14,22.04909,121.51214,0.0023445175
467540,大武,2025-02-14,22.355675,120.903789,0.0917727
C1F9W0,德基,2025-02-14,24.254783,121.190261,0.0006238484
C1Z120,壽豐,2025-02-14,23.870853,121.508081,0.0011841118
C0W160,烏坵,2025-02-14,24.9944,119.44956,0.00029905245
C1I240,外大坪,2025-02-14,23.958697,120.917931,0.0016818686
C1I550,國六W023K,2025-02-14,23.979067,120.867742,0.0067949663
C0R870,興海,2025-02-14,21.9752,120.8439,0.00151558
C0R140,瑪家,2025-02-14,22.682903,120.686639,0.007896843
C0A530,坪林,2025-02-14,24.938183,121.70975,0.0010808731
C0X260,後壁,2025-02-14,23.366358,120.362326,0.002554663
C0Z230,和平,2025-02-14,24.30717,121.77007,0.0020846287
C0G770,福興,2025-02-14,24.041289,120.437669,0.00076093746
C0H9A0,神木村,2025-02-14,23.532742,120.843667,0.0008436188
C0I460,南投,2025-02-14,23.911469,120.687331,0.002948493
C0I480,梅峰,2025-02-14,24.085272,121.173572,0.00058338715
C1V570,吉東,2025-02-14,22.85422,120.5454,0.09298094
C2A560,福山,2025-02-14,24.776203,121.502811,0.010161937
C0AH30,五分山,2025-02-14,25.07125,121.780794,0.0003834283
C0FA10,松柏,2025-02-14,24.429115,120.617482,0.00054312556
72S200,東改班鳩分場,2025-02-14,22.829528,121.077694,0.0011324326
72HA00,中改埔里分場,2025-02-14,23.903208,120.963364,0.004889318
C0C650,平鎮,2025-02-14,24.897503,121.214636,0.0006568562
C0S930,延平,2025-02-14,22.902581,121.084058,0.0011615648
C0UA60,樟樹山,2025-02-14,24.41393,121.78325,0.0021717162
C1S670,摩天,2025-02-14,23.199503,121.027,0.0017384192
C0V630,茄萣,2025-02-14,22.906642,120.182608,0.001538473
466940,基隆,2025-02-14,25.133314,121.740475,0.0046169315
C0X050,東河,2025-02-14,23.296598,120.385608,0.002737033
C0R770,保力,2025-02-14,22.071122,120.764111,0.001220347
G2L020,農試嘉義分所,2025-02-14,23.485028,120.473806,0.0020514384
C0X240,關子嶺,2025-02-14,23.331169,120.508025,0.0029466166
C0I380,集集,2025-02-14,23.828206,120.801467,0.005140667
466990,花蓮,2025-02-14,23.975128,121.613275,0.0009598667
C1V220,小關山,2025-02-14,23.154217,120.813603,0.0011062094
C1F9G1,慶福山,2025-02-14,24.180853,120.848378,0.001896504
C0Z250,瑞穗林道,2025-02-14,23.49284,121.30688,0.00969525
C0D590,新豐,2025-02-14,24.87068,120.97721,0.0005550327
C0A870,五指山,2025-02-14,25.132153,121.608692,0.00044248375
C0UA50,西帽山,2025-02-14,24.555361,121.802628,0.00084537745
C0X160,仁德,2025-02-14,22.968258,120.257689,0.0029780695
C1H971,六分寮,2025-02-14,23.92507,120.6378,0.0024210692
C0W120,西嶼,2025-02-14,23.5626,119.468436,0.000519546
C0G650,員林,2025-02-14,23.946503,120.585597,0.003359114
C0AD50,鶯歌,2025-02-14,24.951533,121.346294,0.00088961073
C0S990,山豬窟,2025-02-14,22.318619,120.857372,0.0035973506
72Q010,高雄農改,2025-02-14,22.709333,120.525889,0.108846925
C0X190,安平,2025-02-14,22.993161,120.152181,0.0018087185
C0K400,斗六,2025-02-14,23.720583,120.541127,0.0030766916
12J990,口湖工作站,2025-02-14,23.589978,120.180394,0.0009872759
C0O830,北寮,2025-02-14,23.079561,120.495008,0.030596856
C1D410,白蘭,2025-02-14,24.579364,121.079947,0.0007569466
C0S970,加津林,2025-02-14,22.416211,120.926942,0.0673909
C0D700,關西,2025-02-14,24.7977,121.1732,0.0008482093
C0M810,里佳,2025-02-14,23.389125,120.716647,0.0008063902
C0U750,龜山島,2025-02-14,24.841667,121.953133,0.0006780334
C0R810,內獅,2025-02-14,22.305064,120.642986,0.044792797
C1M390,龍美,2025-02-14,23.406728,120.654417,0.0012119372
C1H840,國三N238K,2025-02-14,23.841008,120.707711,0.0064982087
CAQ030,崎峰國小,2025-02-14,22.42565,120.49521,0.022715047
C2E520,大湖,2025-02-14,24.414939,120.870872,0.0011141887
467530,阿里山,2025-02-14,23.508208,120.813242,0.0003185108
C1E691,南湖,2025-02-14,24.40135,120.837533,0.0005860413
C0FA30,梧棲,2025-02-14,24.256003,120.523381,0.0007601822
C1V231,高中,2025-02-14,23.134911,120.716711,0.0019110261
C0F9V0,新社,2025-02-14,24.200172,120.815806,0.0012576651
C0H890,埔里,2025-02-14,23.972169,120.952425,0.0037938177
C0R690,墾丁,2025-02-14,21.966756,120.810269,0.00068785873
C0F0D0,審馬陣,2025-02-14,24.381675,121.4203,0.00030627317
C0R820,白鷺,2025-02-14,22.454275,120.666219,0.0034004464
U2H480,臺大溪頭,2025-02-14,23.670306,120.798194,0.0022502257
C1V190,南天池,2025-02-14,23.27403,120.91176,0.0005485161
K2E360,苗栗農改場,2025-02-14,24.495722,120.829111,0.0009961977
CAJ050,海口故事園區,2025-02-14,23.57543,120.14121,0.0010042767
C0O990,媽廟,2025-02-14,22.99175,120.293525,0.0057360306
C0D480,打鐵坑,2025-02-14,24.849664,121.150789,0.0006153041
C0Z220,和平林道,2025-02-14,24.343922,121.656317,0.0005020442
72C440,桃園農改場,2025-02-14,24.950944,121.030583,0.0006509707
C1E711,馬拉邦山,2025-02-14,24.367306,120.901656,0.0008552839
C0D560,竹東,2025-02-14,24.767147,121.057881,0.00077985384
C0F9U0,南屯,2025-02-14,24.137006,120.637969,0.0017195769
C0M720,番路,2025-02-14,23.464657,120.554156,0.0017870875
C0F0A0,雪山圈谷,2025-02-14,24.388594,121.236339,0.00046223865
C1A9N0,四十份,2025-02-14,24.934158,121.593283,0.0007477479
C0U760,東澳,2025-02-14,24.52196,121.83318,0.0042479504
C0X230,鹽水,2025-02-14,23.272621,120.247641,0.0017796601
C0V370,古亭坑,2025-02-14,22.893178,120.401947,0.009135297
C1I340,新興橋,2025-02-14,23.563333,120.868728,0.0026876659
C0SA80,土坂,2025-02-14,22.453108,120.887572,0.012084544
C0R160,鹽埔,2025-02-14,22.739558,120.530778,0.105677426
C0AC40,大屯山,2025-02-14,25.175675,121.522408,0.00058415416
466850,五分山雷達站,2025-02-14,25.071182,121.781205,0.0003789915
C1AI50,國三N016K,2025-02-14,25.034164,121.619664,0.0024367606
C1V600,藤枝,2025-02-14,23.071961,120.757042,0.0013718794
C1E601,南勢,2025-02-14,24.572486,120.734842,0.0005930979
C0Z180,新城,2025-02-14,24.03946,121.60454,0.0009254229
C0O980,新市,2025-02-14,23.061614,120.298197,0.0060929176
C0K420,西螺,2025-02-14,23.800407,120.467394,0.0024270678
C0Z050,佳心,2025-02-14,23.34567,121.21316,0.0009046123
C0AD30,蘆洲,2025-02-14,25.086594,121.472331,0.0028452547
C0V610,梓官,2025-02-14,22.760558,120.267211,0.004266212
K2F750,種苗改良場,2025-02-14,24.225972,120.800917,0.0013710741
C0UA80,大溪漁港,2025-02-14,24.941801,121.902955,0.003911229
C1AI60,國一39K邊坡,2025-02-14,25.064361,121.383836,0.0012949784
C0W150,金寧,2025-02-14,24.457703,118.328989,0.0006830996
V2C250,八德合作社,2025-02-14,24.93775,121.266389,0.00068579585
C0AH40,平等,2025-02-14,25.129142,121.577086,0.00067059335
C0R540,佳冬,2025-02-14,22.419456,120.552375,0.16874461
466950,彭佳嶼,2025-02-14,25.627975,122.079744,0.00072101975
C0A890,雙溪,2025-02-14,25.036003,121.864242,0.005260086
C0C480,桃園,2025-02-14,24.992425,121.323172,0.0009736152
C0AH50,林口,2025-02-14,25.072181,121.38084,0.0011539134
A2K360,水試臺西試驗場,2025-02-14,23.717231,120.190522,0.0009305471
B2N890,畜試所,2025-02-14,23.058972,120.336406,0.004715692
C0F9S0,烏日,2025-02-14,24.107058,120.624103,0.0027799758
C0C490,八德,2025-02-14,24.928708,121.283289,0.0007276273
C0R190,赤山,2025-02-14,22.592333,120.614306,0.022264045
C0T820,天祥,2025-02-14,24.179597,121.495639,0.021693934
C1F9E1,龍安,2025-02-14,24.1605,120.831961,0.0009025572
C0V820,小林,2025-02-14,23.148408,120.63325,0.0063410336
C2G870,芳苑,2025-02-14,23.922303,120.320025,0.0006085992
C0E850,大河,2025-02-14,24.618069,120.948578,0.0009047002
C1U670,寒溪,2025-02-14,24.634,121.71691,0.003804012
C0N020,城西,2025-02-14,23.0568,120.0956,0.00180694
C1Z110,三棧,2025-02-14,24.11557,121.60501,0.009031702
C0R280,檳榔,2025-02-14,22.076078,120.836777,0.0010864814
C0F9L0,后里,2025-02-14,24.310436,120.729725,0.001462066
C0D540,橫山,2025-02-14,24.71116,121.11693,0.0009479798
C1D420,太閣南,2025-02-14,24.632808,121.160575,0.0005554596
C1E770,公館,2025-02-14,24.526914,120.830806,0.0010136415
CAN130,水試所海水繁養殖中心,2025-02-14,23.120802,120.07968,0.00085103593
C1I430,翠華,2025-02-14,24.191961,121.224339,0.00058308506
C1M400,菜瓜坪,2025-02-14,23.251928,120.576103,0.01646121
C0G730,二林,2025-02-14,23.903325,120.376081,0.0006956457
72M360,南改義竹分場,2025-02-14,23.360694,120.279361,0.0018917081
V2K620,麥寮合作社,2025-02-14,23.753836,120.294783,0.0008609113
C0Z070,舞鶴,2025-02-14,23.46811,121.37407,0.0029552095
C0B040,大武崙,2025-02-14,25.166676,121.706993,0.0038675922
C1Z030,紅葉,2025-02-14,23.493119,121.338806,0.0026729084
C1I050,丹大,2025-02-14,23.753747,121.141147,0.0006097133
C0I080,信義,2025-02-14,23.689694,120.851036,0.011125873
C2A880,福隆,2025-02-14,25.017842,121.942083,0.011122862
C0Z160,鳳林,2025-02-14,23.746114,121.453411,0.0025247724
C0V210,復興,2025-02-14,23.222403,120.806089,0.0027140523
C0H990,昆陽,2025-02-14,24.121322,121.273642,0.00045787558
C0R741,獅子,2025-02-14,22.202308,120.705236,0.017085688
C0S710,鹿野,2025-02-14,22.917711,121.122994,0.0011158272
C0I530,小奇萊,2025-02-14,24.131764,121.295717,0.0004581821
C0Z080,富源,2025-02-14,23.587642,121.378225,0.0025519403
467441,高雄,2025-02-14,22.7304,120.3125,0.0040701577
C1I140,卡奈托灣,2025-02-14,23.754364,121.087872,0.0010986761
C0I520,玉山風口,2025-02-14,23.470489,120.955994,0.0004040354
C1G691,下水埔,2025-02-14,23.816114,120.5676,0.0025389933
C0X110,臺南市南區,2025-02-14,22.961189,120.188378,0.0029773163
C0V680,仁武,2025-02-14,22.701083,120.347722,0.0022010282
C2G840,北斗,2025-02-14,23.877586,120.514222,0.0019255531
C0R900,竹坑,2025-02-14,22.1385,120.7022,0.004718763
C0K250,崙背,2025-02-14,23.75555,120.318925,0.0009026143
C0G860,社頭,2025-02-14,23.897647,120.5862,0.0026706199
C0X150,安定,2025-02-14,23.102614,120.227839,0.0030718734
C0R590,里港,2025-02-14,22.77919,120.49459,0.05769877
C0E610,馬都安,2025-02-14,24.451272,120.930192,0.00055430556
C0E550,明德,2025-02-14,24.583486,120.885411,0.00082595897
C0R150,三地門,2025-02-14,22.709889,120.639944,0.049550265
C0G910,花壇,2025-02-14,24.032076,120.549461,0.0015469365
C1D400,鳥嘴山,2025-02-14,24.71909,121.28387,0.0007081912
C0K500,元長,2025-02-14,23.64981,120.315024,0.0010787407
C0F0B0,石岡,2025-02-14,24.276061,120.777644,0.001269252
C2V250,甲仙,2025-02-14,23.080106,120.591758,0.013778715
C0SA20,金崙山,2025-02-14,22.567419,120.959667,0.0007274994
C0V350,溪埔,2025-02-14,22.738578,120.446797,0.022604508
C0M660,溪口,2025-02-14,23.604131,120.403569,0.0020646064
C1S880,壽卡,2025-02-14,22.238911,120.858903,0.0011574433
72D680,桃改新埔分場,2025-02-14,24.834444,121.066111,0.00069795793
