站號,站名,日期,lat,lon,BLBTSLS
C0R710,龍磐,2025-04-04,21.931672,120.838942,0.26080143
C1F9D1,白毛台,2025-04-04,24.158325,120.886933,2.2077382e-09
C0G940,竹塘,2025-04-04,23.848253,120.386764,1.2481564e-09
467590,恆春,2025-04-04,22.003897,120.746339,0.14867136
C1O850,環湖,2025-04-04,23.148617,120.418633,1.7428607e-09
C0U710,太平山,2025-04-04,24.505486,121.525656,1.0845147e-08
C0E820,獅潭,2025-04-04,24.539133,120.920042,2.352503e-08
C0V880,興達,2025-04-04,22.8778,120.2127,0.00012187567
C0S890,關山,2025-04-04,23.0395,121.175017,9.738697e-06
C0SB30,新蘭,2025-04-04,22.869214,121.223228,0.3269706
C2R970,屏科大,2025-04-04,22.648275,120.619247,2.8992302e-08
C1Z130,銅門,2025-04-04,23.965694,121.492842,2.2459503e-07
C0AD40,土城,2025-04-04,24.973208,121.445169,1.8794901e-07
CAN140,六官養殖協會,2025-04-04,23.22881,120.29962,5.6394636e-09
C0X180,山上,2025-04-04,23.0757,120.363253,3.0106053e-06
C0F9Z0,雪山東峰,2025-04-04,24.388792,121.268675,7.041814e-08
C1M480,獨立山,2025-04-04,23.537022,120.607797,6.3771965e-10
C0X220,學甲,2025-04-04,23.230367,120.182187,5.66294e-09
467650,日月潭,2025-04-04,23.881325,120.90805,1.7566809e-09
C0K600,箔子寮,2025-04-04,23.6197,120.14,2.2893094e-09
C0G830,埤頭,2025-04-04,23.866003,120.452806,1.1821613e-09
C0S950,七塊厝,2025-04-04,22.954453,121.229922,8.1381515e-08
467110,金門,2025-04-04,24.407306,118.289281,1.4682106e-08
C0AH80,深坑,2025-04-04,25.002703,121.628328,1.423502e-07
C0A970,三貂角,2025-04-04,25.007606,122.002058,2.6204503e-08
C2D730,寶山農場,2025-04-04,24.732444,120.976153,4.6391023e-08
C0K430,褒忠,2025-04-04,23.690938,120.303634,4.908004e-09
467480,嘉義,2025-04-04,23.495925,120.432906,1.982941e-09
C0V400,阿公店,2025-04-04,22.804194,120.355528,0.02557845
467550,玉山,2025-04-04,23.48718,120.95943,5.749258e-08
C0R440,大漢山,2025-04-04,22.405264,120.753181,1.0870185e-08
C0K280,四湖,2025-04-04,23.630414,120.227125,4.9703113e-09
C1F9B1,桐林,2025-04-04,24.066172,120.735194,3.7975425e-08
C2H9U0,鳳鵬,2025-04-04,23.763919,120.788061,7.948608e-10
C0K390,土庫,2025-04-04,23.679029,120.395574,1.1875331e-09
C1I450,望鄉山,2025-04-04,23.594153,120.944286,2.8340473e-08
C0E910,海埔,2025-04-04,24.648767,120.772435,4.0072344e-08
B2E890,畜試北區分所,2025-04-04,24.527806,120.770972,2.3221308e-08
C0R750,四林格山,2025-04-04,22.076989,120.802439,0.7715706
C0F0C0,中坑,2025-04-04,24.248517,120.903319,4.5372053e-09
C1I121,大鞍,2025-04-04,23.678381,120.760017,2.4953475e-09
72U480,花改蘭陽分場,2025-04-04,24.686306,121.716583,3.3020946e-08
C0A770,科教館,2025-04-04,25.096356,121.516507,2.2892476e-07
C0AJ60,六塊厝,2025-04-04,25.24,121.4481,2.3658524e-07
C0R620,墾雷,2025-04-04,21.900836,120.855269,0.16814876
467420,永康,2025-04-04,23.038386,120.2367,5.943811e-05
C0I410,名間,2025-04-04,23.837053,120.701447,7.0130296e-10
A2C560,農工中心,2025-04-04,24.985917,121.239833,1.1476424e-07
C0V740,旗山,2025-04-04,22.888614,120.483597,0.009312511
C0Z061,玉里,2025-04-04,23.3215,121.339656,0.0009268263
C0S840,南田,2025-04-04,22.279725,120.889208,0.57603836
C1I470,杉林溪,2025-04-04,23.639517,120.786444,3.0438585e-09
C1X040,東原,2025-04-04,23.291597,120.463822,1.8214197e-09
C0R660,枋寮,2025-04-04,22.367722,120.590647,0.976649
C1R120,上德文,2025-04-04,22.763272,120.704442,1.7205307e-08
C0K450,大埤,2025-04-04,23.646074,120.431537,1.1623826e-09
C0UA00,土場,2025-04-04,24.576533,121.495333,1.2761413e-08
467080,宜蘭,2025-04-04,24.763975,121.756528,3.4346698e-08
C0N030,四草,2025-04-04,23.0235,120.1116,5.8855614e-09
467410,臺南,2025-04-04,22.99328,120.20492,3.4972323e-05
C0V650,彌陀,2025-04-04,22.783806,120.246361,0.17123376
C0D660,新竹市東區,2025-04-04,24.798681,120.986942,2.9320013e-08
82S580,茶改東部分場,2025-04-04,22.907694,121.130139,5.654273e-05
C0SB40,興隆,2025-04-04,22.913661,121.257469,0.19802642
467050,新屋,2025-04-04,25.006725,121.047492,3.0199024e-07
C0C710,大溪永福,2025-04-04,24.892936,121.324975,9.610251e-08
C0FA20,溫寮,2025-04-04,24.372177,120.583125,8.770686e-08
C0V640,湖內,2025-04-04,22.887139,120.2445,5.2473628e-05
C0R910,下寮,2025-04-04,22.3929,120.5548,0.9768573
C0Z020,明里,2025-04-04,23.208717,121.262342,9.313957e-06
C0M770,嘉義梅山,2025-04-04,23.585398,120.555587,7.207988e-10
C0C660,楊梅,2025-04-04,24.912375,121.143047,8.223487e-08
C1E511,新開,2025-04-04,24.347703,120.827019,3.9938106e-09
G2F820,農試所(霧峰),2025-04-04,24.031261,120.688133,5.3273766e-08
C1I070,和社,2025-04-04,23.591131,120.888861,2.994274e-09
C2F000,大肚,2025-04-04,24.15295,120.572117,9.680889e-10
C1S850,豐南,2025-04-04,23.122139,121.262389,4.219063e-08
C2A920,富貴角,2025-04-04,25.263783,121.565258,6.1366165e-08
CAH030,茶改場竹圍站,2025-04-04,23.860083,120.637528,4.5793083e-10
C0T960,光復,2025-04-04,23.660694,121.424964,4.5402243e-07
C0F9M0,豐原,2025-04-04,24.254322,120.720692,1.2218135e-08
C0R720,旭海,2025-04-04,22.205403,120.887614,5.6357647e-05
C0V710,苓雅,2025-04-04,22.622742,120.330669,0.08794891
C0C740,觀音工業區,2025-04-04,25.064764,121.114856,3.7721682e-07
CAC040,拉拉山,2025-04-04,24.699317,121.427133,1.2885172e-08
C0V790,萬山,2025-04-04,22.905944,120.688056,5.470699e-10
U2HA30,臺大和社,2025-04-04,23.590856,120.888864,2.994274e-09
C0AJ90,澳底,2025-04-04,25.0552,121.9253,3.4302964e-08
C0Z100,東華,2025-04-04,23.89525,121.549833,2.6250962e-06
C0G970,三豐,2025-04-04,23.882,120.2895,5.2154623e-09
V2K610,大庄合作社,2025-04-04,23.8068,120.367939,4.8450075e-09
C0V900,汕尾,2025-04-04,22.4782,120.4151,0.9774139
C1R630,龍泉,2025-04-04,22.66701,120.59091,5.4607005e-07
C1AC50,關渡,2025-04-04,25.133486,121.469331,9.732792e-08
C0F9I0,神岡,2025-04-04,24.272481,120.658314,1.3708296e-08
C0K460,斗南,2025-04-04,23.678734,120.478359,1.135454e-09
C2O810,曾文,2025-04-04,23.219681,120.497328,4.0290136e-09
467280,後龍,2025-04-04,24.648563,120.831834,3.2275157e-08
C1F9J1,清水林,2025-04-04,24.071242,120.820419,6.070962e-10
C2A650,火燒寮,2025-04-04,25.002719,121.742892,1.7093049e-08
466930,竹子湖,2025-04-04,25.162078,121.544547,6.859611e-09
C1I220,樟湖,2025-04-04,23.905333,120.846983,1.7823581e-09
C0I390,仁愛,2025-04-04,24.022122,121.132206,1.8086971e-09
C0Z300,東里,2025-04-04,23.26853,121.30547,0.0002294413
C1V590,新發,2025-04-04,23.057019,120.646064,1.306553e-09
C0K510,水林,2025-04-04,23.572924,120.24597,2.1970767e-09
72S590,東改賓朗果園,2025-04-04,22.813889,121.071278,5.169275e-07
82A750,茶改北部分場,2025-04-04,24.955778,121.631222,7.4242408e-09
C1A750,石碇服務區,2025-04-04,25.00872,121.646242,1.2328374e-07
C0X300,鹿寮,2025-04-04,23.386047,120.477331,9.488014e-10
G2AI50,關渡,2025-04-04,25.11575,121.492,2.3581485e-07
C0K590,雲林東勢,2025-04-04,23.674192,120.255721,4.887629e-09
C0A570,桶後,2025-04-04,24.848222,121.597992,1.4455363e-08
C1S800,華源,2025-04-04,22.657883,121.02325,0.0039982325
C0G720,溪州,2025-04-04,23.851589,120.499093,1.1267295e-09
C1V160,達卡努瓦,2025-04-04,23.279811,120.705319,1.6529519e-09
C2M410,馬頭山,2025-04-04,23.324361,120.582017,6.2913336e-10
C0V850,蚵仔寮,2025-04-04,22.7256,120.2527,0.20586541
C0S740,池上,2025-04-04,23.119628,121.209469,7.615417e-07
C1V390,尖山,2025-04-04,22.813153,120.367789,0.006121186
C0AH70,松山,2025-04-04,25.04871,121.55042,2.0022682e-07
C0N010,鯤鯓國小,2025-04-04,23.1879,120.0889,5.811093e-09
C0R550,新埤,2025-04-04,22.467947,120.582894,0.9486082
C0SA60,知本（水試所）,2025-04-04,22.702394,121.082761,0.84221596
C0T9I0,豐濱,2025-04-04,23.583897,121.514806,3.5347443e-07
C0UB00,淡江大學蘭陽校園,2025-04-04,24.823239,121.730383,5.4945963e-09
C0W240,九宮,2025-04-04,24.423753,118.240186,1.4631786e-08
C0T9N0,富里,2025-04-04,23.171639,121.249378,2.4200506e-06
U2HA50,臺大竹山,2025-04-04,23.756972,120.681556,7.0299444e-10
C0V840,鳳鼻頭,2025-04-04,22.5083,120.3591,0.20586541
C0X140,西港,2025-04-04,23.125608,120.203108,5.6366782e-09
72D080,桃改五峰分場,2025-04-04,24.612194,121.157167,4.7477635e-09
C2H9P0,伊拿谷,2025-04-04,23.963211,121.088264,1.8450952e-09
C2H9F0,柑林,2025-04-04,24.018658,120.847072,1.033951e-09
C0TA20,加灣,2025-04-04,24.082025,121.608944,3.4885663e-06
C0V530,阿蓮,2025-04-04,22.883208,120.327508,1.727997e-05
C1O880,關山,2025-04-04,23.173397,120.594092,6.2523714e-10
C0E791,卓蘭,2025-04-04,24.3126,120.8244,3.764102e-09
C1I030,武界,2025-04-04,23.913225,121.052483,1.7984012e-09
C0R520,崁頂,2025-04-04,22.514781,120.506914,0.96961105
C0R341,牡丹,2025-04-04,22.130036,120.792639,0.00030081047
C0R930,萬丹,2025-04-04,22.5885,120.4851,0.96252286
C0S760,紅石,2025-04-04,23.069131,121.126219,4.714088e-09
C2C410,中央大學,2025-04-04,24.967652,121.185165,1.031531e-07
C1M610,石磐龍,2025-04-04,23.496606,120.663506,1.4488314e-09
C0UA10,鴛鴦湖,2025-04-04,24.590269,121.412228,1.3448052e-08
V2C260,八德蔬果,2025-04-04,24.978508,121.281819,1.2147952e-07
C0R800,丹路,2025-04-04,22.204481,120.750989,0.1058005
C0G920,永靖,2025-04-04,23.924703,120.547533,3.8446655e-09
C2M950,太和,2025-04-04,23.538372,120.702961,1.7507537e-09
C1A630,下盆,2025-04-04,24.771003,121.538622,3.959565e-09
B2N890,畜產試驗所,2025-04-04,23.058972,120.336406,1.3496289e-05
C0UA30,白嶺,2025-04-04,24.527819,121.519031,4.461141e-09
C1V580,溪南(特生中心),2025-04-04,23.084972,120.788475,4.635076e-09
C1T970,大農,2025-04-04,23.615233,121.413331,2.1551769e-07
C0R650,竹田,2025-04-04,22.58486,120.54344,0.9637361
C1H900,清流,2025-04-04,24.080775,120.962997,1.8486002e-09
C1C510,水尾,2025-04-04,24.940081,121.087161,1.3755682e-07
C0F9X0,大雅(中科園區),2025-04-04,24.21528,120.62445,3.1537066e-08
C0SB60,白守蓮,2025-04-04,23.126769,121.401914,0.8418146
C0O970,虎頭埤,2025-04-04,23.021375,120.347878,2.949943e-06
C0C730,中大臨海站,2025-04-04,24.966126,121.008581,4.1154064e-07
C0X250,新營,2025-04-04,23.310689,120.316681,4.917871e-09
C0V700,三民,2025-04-04,22.645017,120.311233,0.08794891
C0U870,大礁溪,2025-04-04,24.791042,121.675047,5.5598632e-09
C0E870,高鐵苗栗,2025-04-04,24.60725,120.826094,6.984922e-08
A2K570,古坑花卉中心,2025-04-04,23.63353,120.55239,8.8266455e-10
C0TA30,鹽寮,2025-04-04,23.845606,121.592664,3.4885663e-06
C0M860,新美,2025-04-04,23.338017,120.683169,5.287799e-10
C1E701,八卦,2025-04-04,24.491756,120.927619,3.94689e-09
C0I420,國姓,2025-04-04,24.037803,120.855072,9.2735813e-10
C2D720,關西工作站,2025-04-04,24.757275,121.184792,2.8191673e-08
C0S960,香蘭,2025-04-04,22.587569,120.993375,0.51782554
467620,蘭嶼,2025-04-04,22.0369,121.55843,0.03520676
C0R260,春日,2025-04-04,22.370361,120.628306,0.8301933
72G600,臺中農改場,2025-04-04,24.003028,120.534389,4.2880117e-09
C0Z210,瑞穗,2025-04-04,23.5239,121.39021,4.7006492e-07
C0M820,達邦,2025-04-04,23.453994,120.749517,1.4402296e-09
C0V860,南寮,2025-04-04,22.7616,120.2339,0.21780764
C0G740,大城,2025-04-04,23.852487,120.320935,4.8987636e-09
C0R920,塭仔,2025-04-04,22.4169,120.5197,0.9774139
C0R470,高樹,2025-04-04,22.826389,120.600806,6.563017e-08
C0R680,佳樂水,2025-04-04,21.993578,120.861633,0.14484146
C1O870,大棟山,2025-04-04,23.31157,120.52226,1.789614e-09
C0D360,梅花,2025-04-04,24.678347,121.208558,6.924563e-09
C0Z190,富世,2025-04-04,24.14743,121.6297,2.9373636e-08
C0AI10,屈尺,2025-04-04,24.92184,121.54475,1.3791595e-07
B2U990,畜試東區分所,2025-04-04,24.669039,121.832561,3.5492043e-08
C0SB80,長濱漁港,2025-04-04,23.313644,121.459994,0.6727477
C0R240,來義,2025-04-04,22.527306,120.625111,0.5545121
C0V910,大樹,2025-04-04,22.684645,120.432803,3.5513822e-06
C1R610,西大武山,2025-04-04,22.617719,120.7322,1.1299625e-08
C0G900,線西,2025-04-04,24.143358,120.443536,8.7424766e-08
C0M700,竹崎,2025-04-04,23.526178,120.555508,7.6382717e-10
C2E880,三義,2025-04-04,24.405478,120.749819,2.4283362e-09
C0C720,竹圍,2025-04-04,25.112692,121.239824,2.1616135e-07
C0F9P0,清水,2025-04-04,24.312297,120.562242,8.319312e-08
C0Z150,吉安光華,2025-04-04,23.930925,121.595153,4.2737315e-06
467300,東吉島,2025-04-04,23.25727,119.66762,0.09102024
C1D640,外坪(五指山),2025-04-04,24.644447,121.090961,3.881225e-09
C0F9O0,潭子,2025-04-04,24.213106,120.703933,1.4430185e-08
C2H9R0,卓社,2025-04-04,23.887894,121.000086,4.3631876e-09
72T250,花蓮農改場,2025-04-04,23.975222,121.563889,2.5975903e-06
C0E780,銅鑼,2025-04-04,24.489681,120.790853,1.5361438e-08
C1T950,太安,2025-04-04,23.666719,121.370128,1.7532432e-09
C0E830,苑裡,2025-04-04,24.439714,120.653053,7.012836e-08
467270,田中,2025-04-04,23.873803,120.581286,1.0851826e-09
C0SA10,檳榔四格山,2025-04-04,22.810031,121.109308,1.4411047e-07
C1T830,布洛灣,2025-04-04,24.17184,121.57127,1.3368822e-08
C0F970,大坑,2025-04-04,24.173142,120.722289,1.7354479e-08
C1U920,思源,2025-04-04,24.393125,121.347214,1.0559484e-08
C0A931,三和,2025-04-04,25.233153,121.595236,5.273009e-08
C0I010,廬山,2025-04-04,24.033311,121.181808,2.6039526e-09
C2M940,日野賀,2025-04-04,23.434056,120.727169,1.4747099e-09
C0R860,鼻頭,2025-04-04,22.1043,120.8979,0.07436171
C0UB20,壯圍,2025-04-04,24.7359,121.8163,3.5562177e-08
C0R790,九棚,2025-04-04,22.14195,120.889281,0.0005604685
C0W110,東莒,2025-04-04,25.9652,119.98069,1.4604913e-07
C1U930,粉鳥林,2025-04-04,24.497088,121.842479,3.855609e-08
C1I211,蘆竹湳,2025-04-04,23.934019,120.811994,6.159677e-10
C0S830,長濱,2025-04-04,23.286817,121.411975,2.4159092e-06
C1F9F1,伯公龍,2025-04-04,24.272392,120.849047,2.5254843e-09
C0E810,西湖,2025-04-04,24.562947,120.7485,2.9861198e-08
C1I440,新高口,2025-04-04,23.478744,120.878939,1.4438499e-08
C0O840,王爺宮,2025-04-04,23.222064,120.40085,4.0853094e-09
C0T9G0,鳳林山,2025-04-04,23.735269,121.420131,2.395513e-09
C0X080,佳里,2025-04-04,23.173039,120.145086,5.8228316e-09
C0FB70,大甲溪埔,2025-04-04,24.370625,120.620067,6.850044e-08
C0Z310,清水斷崖,2025-04-04,24.218294,121.689142,2.4140766e-08
C0M680,太保,2025-04-04,23.455062,120.331455,2.1317963e-09
C1S820,金峰,2025-04-04,22.590969,120.933236,0.00031801013
C0AD10,八里,2025-04-04,25.150211,121.403947,2.1160089e-07
C2K240,草嶺,2025-04-04,23.59555,120.693461,1.4620564e-09
C1SA70,都蘭,2025-04-04,22.87794,121.226881,0.19145039
C0K440,二崙,2025-04-04,23.772797,120.408944,1.1827274e-09
C1A760,坪林交控,2025-04-04,24.94284,121.713442,1.8707095e-08
C0F9N0,大里,2025-04-04,24.092464,120.701378,9.726605e-10
C0SA90,達仁林場,2025-04-04,22.264347,120.823972,1.1078979e-08
C1R290,石門山,2025-04-04,22.112611,120.756597,0.6494031
42HA10,萬大發電廠,2025-04-04,23.978875,121.139639,1.7532432e-09
C0R890,山海,2025-04-04,21.9878,120.7091,0.13330895
C0T9A0,月眉山,2025-04-04,23.809928,121.539828,2.8668909e-08
C0AC70,信義,2025-04-04,25.037822,121.564597,1.8983236e-07
C0K560,棋山,2025-04-04,23.68645,120.603417,8.141978e-10
C2FB50,出雲,2025-04-04,24.206469,120.902794,1.7427976e-09
C1Z240,中平林道,2025-04-04,23.42115,121.26763,2.0692998e-09
U2H480,溪頭,2025-04-04,23.670306,120.798194,1.8364407e-09
C0M880,好美里,2025-04-04,23.3364,120.138,5.8228316e-09
C0T9E0,大坑,2025-04-04,23.880628,121.581981,3.9344677e-08
C0K530,臺西,2025-04-04,23.701547,120.197559,5.0527245e-09
C1E900,國一N128K,2025-04-04,24.560997,120.844186,2.5249797e-08
C0AJ50,水湳洞,2025-04-04,25.123695,121.862238,1.8875967e-07
C0AI20,白沙灣,2025-04-04,25.283128,121.519058,1.8875967e-07
C2V310,美濃,2025-04-04,22.898792,120.51907,0.022097884
C0A860,大坪,2025-04-04,25.165914,121.632969,7.781013e-09
C1U850,觀音海岸,2025-04-04,24.38319,121.77856,3.0482044e-09
C2K610,草嶺石壁,2025-04-04,23.602469,120.707731,1.4857292e-09
C0U950,鶯子嶺,2025-04-04,24.89754,121.79244,3.6393963e-09
C0O900,善化,2025-04-04,23.112883,120.297219,0.000117832315
C0K550,蔦松,2025-04-04,23.514319,120.229736,2.2841713e-09
E2P980,林試六龜中心,2025-04-04,22.991703,120.645722,1.0988375e-09
C0E590,通霄,2025-04-04,24.471892,120.704622,2.9320013e-08
C1I310,西巒,2025-04-04,23.754486,120.883956,1.7372154e-09
C0A550,泰平,2025-04-04,24.971197,121.823711,7.4253736e-09
C0I360,水里,2025-04-04,23.812553,120.849792,4.766107e-10
C0R830,高士,2025-04-04,22.121825,120.836781,0.79342055
C1I101,溪頭,2025-04-04,23.661789,120.807647,3.5988421e-09
C0AJ20,野柳,2025-04-04,25.20703,121.690021,2.0022682e-07
C0B060,暖暖,2025-04-04,25.0957,121.7403,1.238996e-07
C1H920,長豐,2025-04-04,24.102039,120.879897,6.1542516e-10
C0V360,內門,2025-04-04,22.975481,120.466769,1.2442985e-07
C0R850,林邊,2025-04-04,22.4634,120.5339,0.96957767
C0E930,龍鳳,2025-04-04,24.700034,120.859125,4.0527617e-08
C0U910,冬山,2025-04-04,24.63373,121.7937,3.5492043e-08
C1E721,泰安,2025-04-04,24.489017,120.968036,4.8567763e-09
82H320,茶改中部分場,2025-04-04,23.875611,120.913583,1.9082127e-09
C0M750,布袋,2025-04-04,23.380878,120.167789,2.300673e-09
C1S860,利嘉,2025-04-04,22.809417,121.050528,1.0567099e-08
E2S980,林試太麻里1,2025-04-04,22.598922,120.980044,0.035306398
C0X170,關廟,2025-04-04,22.963017,120.327797,5.4239626e-06
C0V720,林園,2025-04-04,22.507747,120.394511,0.9684241
C1I510,線浸林道,2025-04-04,23.761508,120.832956,1.5492664e-09
C0D690,外湖,2025-04-04,24.917735,120.968711,4.2986636e-07
C0C750,新興坑尾,2025-04-04,25.0061,121.0971,1.9141687e-07
B2Q810,畜試南區分所,2025-04-04,21.945583,120.802167,0.14353476
C0S790,金崙,2025-04-04,22.538122,120.966875,3.7611044e-05
C0AH90,福山植物園,2025-04-04,24.760717,121.58135,3.8829358e-09
C0I540,奇萊稜線,2025-04-04,24.109231,121.326456,3.9295102e-08
C0M850,表湖,2025-04-04,23.24186,120.64166,5.8965255e-10
C0S770,大溪山,2025-04-04,22.478475,120.943325,3.1507366e-08
C0AG80,中和,2025-04-04,24.991622,121.491792,1.8797411e-07
C0T790,大禹嶺,2025-04-04,24.186117,121.316086,3.100883e-08
C0T9B0,水源,2025-04-04,23.991861,121.537169,2.3368096e-09
C0R840,牡丹池山,2025-04-04,22.168389,120.841225,1.1840754e-08
C1I131,桶頭,2025-04-04,23.641944,120.654117,4.5719076e-10
CAL110,布袋國中,2025-04-04,23.35893,120.18026,5.834616e-09
467571,新竹,2025-04-04,24.827853,121.014219,3.2778352e-08
C0Z290,赤柯山,2025-04-04,23.36893,121.38293,3.212093e-09
C0X280,將軍,2025-04-04,23.214999,120.13577,5.811093e-09
C0S690,太麻里,2025-04-04,22.60902,120.98533,1.8921818e-07
C0U880,北關,2025-04-04,24.9072,121.8734,2.2892476e-07
C0G810,埔心,2025-04-04,23.947633,120.525456,4.1222386e-09
C0U970,大福,2025-04-04,24.80064,121.81389,3.6891386e-08
C2H9N0,仁愛東眼,2025-04-04,24.026875,121.1205,2.3447075e-09
C1E670,南礦,2025-04-04,24.538278,121.002836,4.2962474e-09
C0M520,東後寮,2025-04-04,23.369908,120.248065,5.66294e-09
C1E461,松安,2025-04-04,24.397972,120.986022,4.497116e-09
C2N160,西拉雅風管處,2025-04-04,23.189481,120.335297,4.7652096e-09
C2M970,碧湖,2025-04-04,23.568632,120.624165,1.4122222e-09
C0A640,石碇,2025-04-04,24.993969,121.662917,1.8508274e-08
E2S960,林試太麻里2,2025-04-04,22.598,120.99775,0.5696381
C0F9Y0,桃山,2025-04-04,24.432739,121.303808,7.528656e-08
C1I020,萬大,2025-04-04,23.979817,121.132261,1.8149451e-09
C0U940,羅東,2025-04-04,24.68184,121.74934,3.415522e-08
C0M650,朴子,2025-04-04,23.43463,120.23902,2.1970767e-09
C1I500,大尖山,2025-04-04,23.858572,120.994889,1.0417807e-08
C0G820,田尾,2025-04-04,23.901669,120.509389,4.0099315e-09
E2K600,四湖植物園,2025-04-04,23.676986,120.163433,4.914008e-09
C0S730,綠島,2025-04-04,22.6672,121.47533,0.012760052
12Q970,東港工作站,2025-04-04,22.479997,120.466058,0.976649
C0E430,南庄,2025-04-04,24.601775,121.000214,2.1835962e-08
C1TA00,太魯閣,2025-04-04,24.15773,121.6236,2.4659006e-08
466920,臺北,2025-04-04,25.037658,121.514853,2.0022682e-07
C0R600,舊泰武,2025-04-04,22.588194,120.664944,1.2992023e-09
C1I260,北坑,2025-04-04,23.9246,121.006903,6.097828e-10
466910,鞍部,2025-04-04,25.182586,121.529731,7.268003e-09
C1I230,九份二山,2025-04-04,23.961944,120.845,1.968816e-09
C2A660,瑞芳,2025-04-04,25.113169,121.801147,1.0411593e-07
C0R270,琉球嶼,2025-04-04,22.332244,120.362236,0.7789921
C1T990,高寮,2025-04-04,23.394239,121.356808,6.421013e-07
C0G620,芬園,2025-04-04,24.015678,120.6213,2.6849614e-09
C1Z140,荖溪,2025-04-04,23.890575,121.45964,3.3562497e-09
C1I201,中心崙,2025-04-04,23.728722,120.712097,6.0025224e-10
C1I400,凌霄,2025-04-04,24.018778,121.004456,2.3090343e-09
C1M640,十字,2025-04-04,23.492153,120.753683,2.659112e-09
G2P820,農試鳳山分所,2025-04-04,22.646611,120.356083,0.034352798
C0Z270,蕃薯寮,2025-04-04,23.73835,121.540108,5.925732e-08
C0F9Q0,外埔,2025-04-04,24.347817,120.705686,1.6253594e-08
C0K580,高鐵雲林,2025-04-04,23.737456,120.417944,1.1827274e-09
C2I090,鳳凰,2025-04-04,23.728081,120.787347,1.8486919e-09
C0U990,員山,2025-04-04,24.74435,121.72247,3.426282e-08
C0V770,大社,2025-04-04,22.730306,120.346639,0.08238236
C0X120,麻豆,2025-04-04,23.183289,120.248611,5.6366676e-09
C0C670,龍潭,2025-04-04,24.870056,121.221389,2.1188779e-08
C0D680,香山濕地,2025-04-04,24.783581,120.914988,4.0405745e-08
C0S980,勝林山,2025-04-04,22.430439,120.8938,1.6011132e-08
C0V730,大寮,2025-04-04,22.605614,120.395717,0.9486082
C0R570,麟洛,2025-04-04,22.65078,120.52719,3.2450946e-06
C2M930,石卓,2025-04-04,23.478744,120.702264,2.61592e-09
C0G9B0,和美,2025-04-04,24.105169,120.492131,4.4071236e-09
CAG100,王功漁港,2025-04-04,23.96824,120.32586,5.0527245e-09
C0X290,北門,2025-04-04,23.267772,120.125481,5.834616e-09
C2F930,大甲,2025-04-04,24.347667,120.640403,4.3807347e-08
C0D650,湖口,2025-04-04,24.904794,121.043628,1.5548228e-07
C0E420,竹南,2025-04-04,24.708978,120.888897,3.296934e-08
C0U780,五結,2025-04-04,24.68637,121.79794,3.5492043e-08
C1I250,鯉潭,2025-04-04,23.961922,120.991131,6.1542516e-10
C0R130,阿禮,2025-04-04,22.742908,120.743678,1.0904449e-08
C0X100,臺南市北區,2025-04-04,23.010394,120.194228,0.00012187567
C0S920,金峰嘉蘭,2025-04-04,22.594789,120.960825,0.03465327
C0V490,新興,2025-04-04,22.627422,120.298803,0.14374432
C0F9K0,大安,2025-04-04,24.345061,120.588025,6.980647e-08
467290,古坑,2025-04-04,23.633639,120.551889,8.8266455e-10
C2E970,八甲,2025-04-04,24.535811,120.795983,1.4535847e-08
C0V440,鳳山,2025-04-04,22.646653,120.356122,0.034352798
C1T940,大觀,2025-04-04,23.714206,121.373133,2.7357107e-08
C0E740,造橋,2025-04-04,24.637056,120.864778,3.4607105e-08
C0R100,尾寮山,2025-04-04,22.833111,120.683889,1.0844403e-08
A2K630,臺大雲林校區,2025-04-04,23.730628,120.423903,1.1806403e-09
467990,馬祖,2025-04-04,26.169467,119.923158,6.3367747e-09
C0D580,寶山,2025-04-04,24.735006,121.025192,3.40442e-08
E2P990,林試扇平站,2025-04-04,22.9677,120.6857,1.3436968e-09
C0AI30,三重,2025-04-04,25.057328,121.500629,2.2892476e-07
C0AH00,汐止,2025-04-04,25.066881,121.658778,2.0022682e-07
C1Z040,立山,2025-04-04,23.443356,121.327375,3.1214565e-08
466881,新北,2025-04-04,24.959207,121.525196,1.6265308e-07
C0W130,花嶼,2025-04-04,23.40007,119.32276,0.11695963
C0A950,鼻頭角,2025-04-04,25.129036,121.923372,3.4965524e-08
C0K470,林內,2025-04-04,23.748675,120.609642,8.9222296e-10
C2F990,摩天嶺,2025-04-04,24.322458,120.936819,1.7334223e-09
82C160,茶改場,2025-04-04,24.908472,121.185333,6.116727e-08
C0Z320,清水林道,2025-04-04,23.27125,121.188272,2.9607672e-09
C0R760,南仁湖,2025-04-04,22.084681,120.863353,0.65171903
C0M670,大林,2025-04-04,23.600616,120.45841,1.949166e-09
C0M800,茶山,2025-04-04,23.299075,120.664767,5.2691435e-10
C0A9C0,天母,2025-04-04,25.117494,121.537169,1.8797411e-07
72K220,南改斗南分場,2025-04-04,23.634556,120.477333,1.0867028e-09
72AI40,桃改樹林分場,2025-04-04,24.944503,121.386972,1.6437275e-07
C0S910,蘭嶼燈塔,2025-04-04,22.081197,121.503117,0.027684117
C0B050,八斗子,2025-04-04,25.144754,121.79167,2.3658524e-07
C0U900,內城,2025-04-04,24.71813,121.68766,3.075784e-08
C0X320,柳營,2025-04-04,23.253328,120.375253,1.982941e-09
C0M790,新港,2025-04-04,23.553269,120.345728,2.1386015e-09
C0F9T0,西屯,2025-04-04,24.179494,120.641275,4.3807347e-08
C0SA30,都歷,2025-04-04,23.020333,121.323642,0.07350567
C0C620,蘆竹,2025-04-04,25.084275,121.265767,1.8551593e-07
C0R730,大坪頂,2025-04-04,22.024633,120.69355,0.30921242
C0AJ40,石門,2025-04-04,25.273672,121.601198,7.734554e-08
C0E750,苗栗,2025-04-04,24.564569,120.824575,2.7359038e-08
C0T870,鯉魚潭,2025-04-04,23.935639,121.508944,3.379316e-07
C1V170,排雲,2025-04-04,23.463619,120.954147,5.037744e-08
C2H950,中寮,2025-04-04,23.884447,120.766406,2.7358308e-08
C0R350,貓鼻頭,2025-04-04,21.921774,120.7358,0.16060236
C0V660,岡山,2025-04-04,22.797078,120.294958,0.14615487
C1H941,雙冬,2025-04-04,23.967378,120.802189,6.02497e-10
C0AJ70,田寮,2025-04-04,25.2698,121.4886,2.0413057e-07
C0AI00,五股,2025-04-04,25.07445,121.42728,7.074528e-08
C0Z280,德武,2025-04-04,23.47426,121.41071,1.9257719e-07
C0R700,枋山,2025-04-04,22.246844,120.661086,0.9684241
C0C460,復興,2025-04-04,24.820208,121.352281,7.2594273e-09
E2H360,蓮華池,2025-04-04,23.918333,120.885278,6.038465e-10
C0M640,中埔,2025-04-04,23.42538,120.5229,7.624749e-10
C0W140,金沙,2025-04-04,24.488292,118.408778,1.5224055e-08
C2A540,四堵,2025-04-04,24.8926,121.745736,7.886469e-09
C0ACA0,新莊,2025-04-04,25.051478,121.446756,2.095891e-07
C0R220,潮州,2025-04-04,22.534361,120.54,0.96314627
U2HA40,臺大內茅埔,2025-04-04,23.689722,120.851117,6.2846534e-10
467490,臺中,2025-04-04,24.145736,120.684075,4.4458442e-08
C0U960,翠峰湖,2025-04-04,24.510856,121.608044,1.0291233e-08
E2HA20,林試畢祿溪站,2025-04-04,24.226944,121.308522,1.2339637e-08
C0V890,前鎮,2025-04-04,22.5718,120.3117,0.17123376
C1F941,雪嶺,2025-04-04,24.280586,121.026642,2.3499513e-08
C2H9E0,國姓南港,2025-04-04,23.911108,120.846556,1.8096253e-09
C0AC80,文山,2025-04-04,25.00235,121.575728,1.3803411e-07
C0F9R0,龍井,2025-04-04,24.184536,120.528972,8.60121e-08
C0M760,民雄,2025-04-04,23.551754,120.428457,1.962068e-09
C0UA40,西德山,2025-04-04,24.560647,121.752608,3.5233827e-09
C1T920,中興,2025-04-04,23.769503,121.498653,1.1339555e-06
C0D550,雪霸,2025-04-04,24.526972,121.11605,1.6707762e-08
C2F860,梨山,2025-04-04,24.247522,121.243669,1.2980561e-08
C0R320,車城,2025-04-04,22.0744,120.716247,0.13348296
C1S870,南美山,2025-04-04,23.15025,121.382333,3.9101756e-06
C0B020,基隆嶼,2025-04-04,25.19141,121.78391,1.8820838e-07
C1U501,牛鬥,2025-04-04,24.637836,121.573656,1.7318072e-08
C0M730,嘉義市東區,2025-04-04,23.457673,120.460531,1.9551383e-09
C0S700,知本,2025-04-04,22.684866,121.005642,1.1078979e-08
C1N001,沙崙,2025-04-04,22.935472,120.309406,1.4931175e-05
C0V760,橋頭,2025-04-04,22.757806,120.30575,0.14374432
C0G960,福寶,2025-04-04,24.0443,120.3814,4.6813833e-09
C0X210,白河,2025-04-04,23.347466,120.414427,1.8948514e-09
C0S810,東河,2025-04-04,22.972672,121.303986,0.39370152
C2R170,屏東,2025-04-04,22.66027,120.49403,3.5431785e-06
C0R670,楓港,2025-04-04,22.190131,120.692156,0.9675696
C0FA50,霧峰,2025-04-04,24.0419,120.6995,4.8024667e-08
C0UB10,蘇澳,2025-04-04,24.5969,121.8571,3.8428052e-08
C0G950,防潮門,2025-04-04,24.1835,120.4871,8.8017394e-08
C0M740,六腳,2025-04-04,23.492871,120.290625,2.1724453e-09
C1R250,力里,2025-04-04,22.428117,120.629228,0.5731588
C0K330,虎尾,2025-04-04,23.719183,120.442036,1.1379667e-09
C2FA00,烏石坑,2025-04-04,24.273503,120.947617,1.7517557e-09
C0V620,永安,2025-04-04,22.82315,120.236856,0.17123376
C1I330,楓樹林,2025-04-04,23.986803,121.076117,4.2786246e-09
C0W200,湖西,2025-04-04,23.596314,119.67275,0.117238484
72Q010,高雄農改場,2025-04-04,22.709333,120.525889,1.4755105e-06
C0SA40,瑞和,2025-04-04,22.974361,121.156697,3.5548896e-05
C0C680,龜山,2025-04-04,25.02846,121.38656,1.7975859e-08
C2V260,月眉,2025-04-04,22.971003,120.539853,2.8992302e-08
C0V450,鳳森,2025-04-04,22.545064,120.392592,0.8331526
C0U720,南山,2025-04-04,24.43742,121.38167,3.6012728e-09
A2N290,臺南蘭花園區,2025-04-04,23.340258,120.379661,1.9900566e-09
C0R560,新園,2025-04-04,22.5434,120.461558,0.9684241
C0U890,三星,2025-04-04,24.66812,121.65302,2.549739e-08
C1V300,御油山,2025-04-04,23.001983,120.715364,4.4736064e-09
C0U600,礁溪,2025-04-04,24.817539,121.765608,3.4210316e-08
C1T980,龍澗,2025-04-04,24.023289,121.411328,5.295755e-09
C0D670,海天一線,2025-04-04,24.831986,120.914438,4.0527617e-08
C0SA00,歷坵,2025-04-04,22.520969,120.89185,1.5688995e-08
C0M710,東石,2025-04-04,23.458927,120.15385,2.2928095e-09
C0M780,鹿草,2025-04-04,23.41134,120.30835,2.1209754e-09
C0U520,雙連埤,2025-04-04,24.753033,121.641303,5.561889e-09
C0B010,七堵,2025-04-04,25.094819,121.71713,1.841228e-07
C0R480,長治,2025-04-04,22.693128,120.542622,1.1244596e-06
C1V830,國三S383K,2025-04-04,22.781967,120.426475,3.3552723e-08
12Q980,恆春工作站,2025-04-04,22.079678,120.714425,0.13422753
C1O940,東山服務區,2025-04-04,23.286016,120.398472,1.8915545e-09
C1U840,東澳嶺,2025-04-04,24.5378,121.8485,3.1941678e-09
C1D630,飛鳳山,2025-04-04,24.766464,121.119178,4.3711927e-09
C0S940,石寧山,2025-04-04,23.223772,121.406639,0.0033732124
C0K410,北港,2025-04-04,23.573957,120.292802,2.1669164e-09
C2M620,瑞里,2025-04-04,23.545133,120.675197,1.5903198e-09
C0SB70,小港漁港,2025-04-04,23.158558,121.400431,0.72201216
C2O950,安南,2025-04-04,23.076694,120.144861,0.00022525994
C0F0E0,南湖圈谷,2025-04-04,24.363714,121.444667,6.669854e-08
467610,成功,2025-04-04,23.097486,121.373428,0.5303607
C0G890,伸港,2025-04-04,24.148933,120.484403,8.571273e-08
C2E540,龍溪,2025-04-04,24.606489,120.783933,7.694502e-08
C1V200,梅山,2025-04-04,23.268447,120.823556,1.6679892e-09
C0T9H0,加路蘭山,2025-04-04,23.682947,121.5274,2.6435214e-09
C2O930,玉井,2025-04-04,23.126042,120.46055,1.7452025e-09
C1F911,新伯公,2025-04-04,24.221361,120.841069,2.9491232e-09
C0R490,九如,2025-04-04,22.7405,120.490503,1.5698835e-06
C0X200,左鎮,2025-04-04,23.056758,120.408522,0.01649153
C0SB50,叭嗡嗡,2025-04-04,23.047062,121.343223,0.8346046
C1F891,稍來,2025-04-04,24.265689,121.001142,1.2521485e-08
72N240,七股研究中心,2025-04-04,23.081672,120.062894,6.3694316e-09
C0C700,中壢,2025-04-04,24.977661,121.256375,1.0128981e-07
C0M690,水上,2025-04-04,23.419734,120.388909,1.9873254e-09
C0V690,鼓山,2025-04-04,22.623325,120.275575,0.15381992
C0O860,大內,2025-04-04,23.11885,120.36083,1.7320623e-05
C0Z200,萬榮,2025-04-04,23.709219,121.420106,3.3929143e-07
C0T9D0,和中,2025-04-04,24.26676,121.74103,3.6162113e-08
C1O921,楠西,2025-04-04,23.183511,120.484083,1.6219396e-09
C0AJ30,淡水觀海,2025-04-04,25.184591,121.408616,2.3581485e-07
C0V810,左營,2025-04-04,22.67491,120.28491,0.08729053
C0UA70,桃源谷,2025-04-04,24.962606,121.888875,5.639636e-09
C0X130,官田,2025-04-04,23.193217,120.315422,4.889494e-09
C1H000,翠峰,2025-04-04,24.109397,121.205211,1.8738664e-08
C0UA90,石城,2025-04-04,24.980444,121.951214,3.4086693e-08
C1E681,南勢山,2025-04-04,24.421669,120.923831,4.5816697e-09
C0A9F0,內湖,2025-04-04,25.079422,121.57545,2.0022682e-07
C0K291,宜梧,2025-04-04,23.536281,120.169329,2.300673e-09
C1K540,口湖,2025-04-04,23.585344,120.180517,2.299962e-09
C0R780,滿州,2025-04-04,22.024403,120.839892,0.17185941
C0V870,文安,2025-04-04,22.8025,120.2164,0.20586541
C0U650,玉蘭,2025-04-04,24.675286,121.587061,5.4540625e-09
C0R640,東港,2025-04-04,22.46247,120.44074,0.9768573
C0AJ80,板橋,2025-04-04,25.0107,121.4489,1.8983236e-07
C0S660,下馬,2025-04-04,23.150427,121.070312,2.9793312e-09
C1H9B1,阿眉,2025-04-04,24.1263,120.994672,1.2640868e-08
C0UA20,多加屯,2025-04-04,24.368614,121.373189,2.6828944e-08
C0E730,頭份,2025-04-04,24.688247,120.912206,3.385434e-08
72V140,高改旗南分場,2025-04-04,22.857861,120.516667,1.1585903e-06
C0K480,莿桐,2025-04-04,23.761192,120.502372,1.0878995e-09
C0U980,坪林石牌,2025-04-04,24.86478,121.77396,5.7454295e-09
C0T900,西林,2025-04-04,23.8119,121.441458,1.9948331e-07
C1I150,青雲,2025-04-04,23.793361,120.949378,6.926105e-10
467350,澎湖,2025-04-04,23.565503,119.563094,0.31479934
C0G800,埔鹽,2025-04-04,24.000394,120.431683,4.4229553e-09
C0H960,草屯,2025-04-04,23.973672,120.68085,4.0712944e-08
C1V780,多納林道,2025-04-04,22.888028,120.737917,1.6767995e-09
C0E920,通霄漁港,2025-04-04,24.498589,120.673876,8.7424766e-08
C0Z330,安通山,2025-04-04,23.290728,121.348528,4.224708e-08
C0AH10,永和,2025-04-04,25.01125,121.508111,2.0442221e-07
C0AK10,太平里,2025-04-04,25.134937,121.364899,2.0413057e-07
C2G640,鹿港,2025-04-04,24.0753,120.430481,4.6549835e-09
C1E890,國三N149K,2025-04-04,24.463414,120.680019,2.487783e-08
C1R110,口社,2025-04-04,22.770111,120.645222,2.8992302e-08
C1M870,國三N285K,2025-04-04,23.550319,120.505833,8.0355567e-10
C1E480,鳳美,2025-04-04,24.554803,121.034747,3.9467696e-09
C0M530,奮起湖,2025-04-04,23.493903,120.699253,1.776412e-09
C0C590,觀音,2025-04-04,25.027072,121.153317,1.6738932e-07
C0T9M0,靜浦,2025-04-04,23.455167,121.495028,1.1100152e-06
C2H9M0,發祥,2025-04-04,24.154094,121.164517,4.2764055e-09
C0AI40,石牌,2025-04-04,25.115597,121.513139,2.0022682e-07
C1F871,上谷關,2025-04-04,24.203483,121.018644,1.7586992e-09
C2H9G0,百勝,2025-04-04,24.051142,120.909361,2.5938007e-09
C0G880,二水,2025-04-04,23.810742,120.6173,8.940014e-10
C0R940,加祿堂,2025-04-04,22.3363,120.6217,0.9675696
C0W220,北竿,2025-04-04,26.220358,119.974881,6.187127e-09
C0O960,崎頂,2025-04-04,22.959547,120.369317,2.1629869e-07
C0S750,向陽,2025-04-04,23.248397,120.986133,1.0937485e-08
C0T9F0,水璉,2025-04-04,23.797131,121.542514,8.402059e-08
C1M600,頭凍,2025-04-04,23.406364,120.603339,1.4505596e-09
467660,臺東,2025-04-04,22.752211,121.154586,0.8346046
C1D380,新埔,2025-04-04,24.84745,121.03834,4.569175e-08
C2G980,田頭村,2025-04-04,23.8263,120.444175,1.1830409e-09
C0V750,路竹,2025-04-04,22.854997,120.259439,0.07359675
C0N050,蚵寮,2025-04-04,23.301,120.1104,5.834616e-09
72M700,南改鹿草分場,2025-04-04,23.416869,120.283061,2.171567e-09
C1SA50,利嘉林道,2025-04-04,22.82325,121.009389,1.9006972e-09
C0A940,金山,2025-04-04,25.223628,121.643967,1.640982e-07
C1V340,大津,2025-04-04,22.888322,120.645986,9.873471e-09
C0W180,七美,2025-04-04,23.219333,119.444892,0.73073655
C1F9C1,白冷,2025-04-04,24.182844,120.929889,2.2640367e-09
K2E710,苗改生物防治研究中心,2025-04-04,24.422861,120.871833,1.662825e-08
C0N040,蘆竹溝,2025-04-04,23.2344,120.0961,5.871658e-09
C2W230,畜試所澎湖,2025-04-04,23.628342,119.513206,0.02022415
C0R880,後壁湖,2025-04-04,21.9457,120.7457,0.1285852
C1I280,埔中,2025-04-04,23.820778,120.642594,7.155265e-10
467790,墾丁雷達站,2025-04-04,21.948235,120.808028,0.19775994
C0W190,望安,2025-04-04,23.380564,119.494075,0.18671076
C0Z170,卓溪,2025-04-04,23.3443,121.3029,8.497951e-05
C0F850,東勢,2025-04-04,24.246428,120.833047,3.2299339e-09
466900,淡水,2025-04-04,25.164889,121.448906,2.0022682e-07
C0I370,魚池,2025-04-04,23.895703,120.94135,6.03706e-10
C0C630,大溪,2025-04-04,24.882853,121.265547,6.381461e-08
C0A520,山佳,2025-04-04,24.974944,121.402008,1.6843852e-07
C0I110,竹山,2025-04-04,23.761225,120.688156,7.19487e-10
82H840,茶改南部分場,2025-04-04,23.762528,120.7405,7.1264855e-10
C0G660,溪湖,2025-04-04,23.94835,120.479122,4.2094555e-09
C1T800,洛韶,2025-04-04,24.204558,121.453956,3.822204e-09
C1T810,慈恩,2025-04-04,24.192044,121.388386,1.0577504e-08
C1E451,象鼻,2025-04-04,24.368617,120.940228,4.5811803e-09
C0AC60,三峽,2025-04-04,24.939025,121.369728,2.4228788e-07
C0I490,萬大林道,2025-04-04,23.928228,121.091411,2.7348694e-09
C1I290,豐丘,2025-04-04,23.668178,120.887417,1.5595543e-09
C1I320,奧萬大,2025-04-04,23.952956,121.178556,4.3193027e-09
C2M910,嘉義大學,2025-04-04,23.471325,120.485903,9.723062e-10
C0U770,南澳,2025-04-04,24.44935,121.81022,3.8295763e-08
C0A980,社子,2025-04-04,25.109508,121.469681,2.3658524e-07
C0V800,六龜,2025-04-04,22.997889,120.633583,1.1471414e-09
C1G9D0,國一S218K,2025-04-04,23.890641,120.493253,4.098359e-09
C0E570,白沙屯,2025-04-04,24.549447,120.696803,8.8017394e-08
C2F9A0,中竹林,2025-04-04,24.103556,120.751061,7.1132994e-10
C0FA40,臺中電廠,2025-04-04,24.2146,120.4907,8.571273e-08
C2G9A0,畜試所彰化,2025-04-04,23.86045,120.557964,1.0876319e-09
C0H9C0,合歡山,2025-04-04,24.143442,121.272547,5.4847774e-08
C0X060,下營,2025-04-04,23.22695,120.256261,5.811093e-09
G2M350,農試溪口農場,2025-04-04,23.58565,120.408111,2.1209754e-09
C0U860,頭城,2025-04-04,24.85323,121.8308,3.4965524e-08
C0R580,南州,2025-04-04,22.48591,120.50274,0.9768573
C0D430,峨眉,2025-04-04,24.6905,121.017189,4.5297103e-08
C0G780,秀水,2025-04-04,24.03405,120.503869,4.300125e-09
72N100,臺南農改場,2025-04-04,23.0605,120.342194,1.2230198e-05
C0S900,蘭嶼高中,2025-04-04,22.04909,121.51214,0.010433024
C1F9W0,德基,2025-04-04,24.254783,121.190261,6.0195737e-09
C1Z120,壽豐,2025-04-04,23.870853,121.508081,2.6250962e-06
C0W160,烏坵,2025-04-04,24.9944,119.44956,1.3593249e-06
C1I240,外大坪,2025-04-04,23.958697,120.917931,6.164143e-10
C1I550,國六W023K,2025-04-04,23.979067,120.867742,7.70047e-10
C0R870,興海,2025-04-04,21.9752,120.8439,0.14374267
C0R140,瑪家,2025-04-04,22.682903,120.686639,1.3339168e-09
C0A530,坪林,2025-04-04,24.938183,121.70975,1.6229029e-08
C0X260,後壁,2025-04-04,23.366358,120.362326,4.8168673e-09
C0Z230,和平,2025-04-04,24.30717,121.77007,3.8143405e-08
C0G770,福興,2025-04-04,24.041289,120.437669,4.616917e-09
C0H9A0,神木村,2025-04-04,23.532742,120.843667,4.22864e-09
C0I460,南投,2025-04-04,23.911469,120.687331,4.3807347e-08
C0I480,梅峰,2025-04-04,24.085272,121.173572,1.1805124e-08
C1V570,吉東,2025-04-04,22.85422,120.5454,4.3349326e-07
C2D740,屯原,2025-04-04,24.067969,121.209389,1.1257827e-08
C2A560,福山,2025-04-04,24.776203,121.502811,7.499673e-09
C0AH30,五分山,2025-04-04,25.07125,121.780794,3.0969154e-09
C0FA10,松柏,2025-04-04,24.429115,120.617482,8.7424766e-08
72S200,東改班鳩分場,2025-04-04,22.829528,121.077694,2.4159092e-06
72HA00,中改埔里分場,2025-04-04,23.903208,120.963364,5.9713595e-10
C2H9W0,大坪頂農水,2025-04-04,24.043122,120.932781,6.1381794e-10
C0C650,平鎮,2025-04-04,24.897503,121.214636,5.9387215e-08
C0S930,延平,2025-04-04,22.902581,121.084058,4.240627e-06
C0UA60,樟樹山,2025-04-04,24.41393,121.78325,5.690637e-09
C1S670,摩天,2025-04-04,23.199503,121.027,4.5321196e-09
C0V630,茄萣,2025-04-04,22.906642,120.182608,0.0001215025
466940,基隆,2025-04-04,25.133314,121.740475,2.3011815e-07
C0X050,東河,2025-04-04,23.296598,120.385608,1.982941e-09
C0R770,保力,2025-04-04,22.071122,120.764111,0.22115406
G2L020,農試嘉義分所,2025-04-04,23.485028,120.473806,9.482731e-10
C0X240,關子嶺,2025-04-04,23.331169,120.508025,5.4567445e-10
C0I380,集集,2025-04-04,23.828206,120.801467,4.8547366e-10
466990,花蓮,2025-04-04,23.975128,121.613275,4.251114e-06
C1V220,小關山,2025-04-04,23.154217,120.813603,5.4626725e-09
C1F9G1,慶福山,2025-04-04,24.180853,120.848378,4.5119797e-09
C0Z250,瑞穗林道,2025-04-04,23.49284,121.30688,2.0824014e-09
C0D590,新豐,2025-04-04,24.87068,120.97721,3.40442e-08
C0A870,五指山,2025-04-04,25.132153,121.608692,6.8925696e-09
C0UA50,西帽山,2025-04-04,24.555361,121.802628,3.1936622e-09
C0X160,仁德,2025-04-04,22.968258,120.257689,5.943811e-05
C1H971,六分寮,2025-04-04,23.92507,120.6378,6.879183e-10
C0W120,西嶼,2025-04-04,23.5626,119.468436,0.30796736
C0G650,員林,2025-04-04,23.946503,120.585597,4.0138493e-09
C0AD50,鶯歌,2025-04-04,24.951533,121.346294,1.7194112e-07
C2H9Q0,北東眼山,2025-04-04,24.120939,121.189303,1.1008498e-08
C2H9T0,名間竹圍,2025-04-04,23.859914,120.637572,4.5749693e-10
C0S990,山豬窟,2025-04-04,22.318619,120.857372,2.8969307e-08
C0X190,安平,2025-04-04,22.993161,120.152181,0.00011993469
C0K400,斗六,2025-04-04,23.720583,120.541127,1.0292759e-09
12J990,口湖工作站,2025-04-04,23.589978,120.180394,2.2893094e-09
C0O830,北寮,2025-04-04,23.079561,120.495008,2.8412783e-08
C1D410,白蘭,2025-04-04,24.579364,121.079947,4.4948436e-09
C0S970,加津林,2025-04-04,22.416211,120.926942,0.51782554
C0D700,關西,2025-04-04,24.7977,121.1732,8.3161545e-08
C0M810,里佳,2025-04-04,23.389125,120.716647,1.777795e-09
C0U750,龜山島,2025-04-04,24.841667,121.953133,1.3331086e-08
C0R810,內獅,2025-04-04,22.305064,120.642986,0.9684241
C1M390,龍美,2025-04-04,23.406728,120.654417,1.4796715e-09
C2FB60,頭櫃山,2025-04-04,24.129842,120.858925,1.7783749e-09
C1H840,國三N238K,2025-04-04,23.841008,120.707711,4.7952037e-10
CAQ030,崎峰國小,2025-04-04,22.42565,120.49521,0.9768573
C2E520,大湖,2025-04-04,24.414939,120.870872,4.124299e-09
467530,阿里山,2025-04-04,23.508208,120.813242,1.266005e-08
C1E691,南湖,2025-04-04,24.40135,120.837533,4.465874e-09
C0FA30,梧棲,2025-04-04,24.256003,120.523381,8.509455e-08
C1V231,高中,2025-04-04,23.134911,120.716711,5.9800787e-10
C0F9V0,新社,2025-04-04,24.200172,120.815806,2.392189e-09
C0H890,埔里,2025-04-04,23.972169,120.952425,2.7609073e-09
C0R690,墾丁,2025-04-04,21.966756,120.810269,0.42606258
C0F0D0,審馬陣,2025-04-04,24.381675,121.4203,4.038325e-08
C2W030,金門農試所,2025-04-04,24.448431,118.451786,1.5075475e-08
C0R820,白鷺,2025-04-04,22.454275,120.666219,7.637052e-09
C1V190,南天池,2025-04-04,23.27403,120.91176,1.3753578e-08
K2E360,苗栗農改場,2025-04-04,24.495722,120.829111,1.8949535e-08
CAJ050,海口故事園區,2025-04-04,23.57543,120.14121,2.2928095e-09
C2H9D0,三隻寮,2025-04-04,24.093078,120.861578,6.1974703e-10
C0O990,媽廟,2025-04-04,22.99175,120.293525,3.4395947e-05
C0D480,打鐵坑,2025-04-04,24.849664,121.150789,2.0571408e-08
C0Z220,和平林道,2025-04-04,24.343922,121.656317,1.1019695e-08
C0TA10,花蓮漁港,2025-04-04,23.995322,121.638331,4.8992138e-06
72C440,桃園農改場,2025-04-04,24.950944,121.030583,2.6476891e-07
C1E711,馬拉邦山,2025-04-04,24.367306,120.901656,1.7474443e-09
C0SB20,富岡,2025-04-04,22.792467,121.192669,0.7105353
C0D560,竹東,2025-04-04,24.767147,121.057881,3.6526743e-08
C0F9U0,南屯,2025-04-04,24.137006,120.637969,3.3793037e-09
C0M720,番路,2025-04-04,23.464657,120.554156,5.327829e-10
C0F0A0,雪山圈谷,2025-04-04,24.388594,121.236339,8.830443e-08
C1A9N0,四十份,2025-04-04,24.934158,121.593283,7.3501845e-09
C0U760,東澳,2025-04-04,24.52196,121.83318,3.392933e-08
C0X230,鹽水,2025-04-04,23.272621,120.247641,5.66294e-09
C2H9H0,苗改南投蜂場,2025-04-04,23.852589,120.693481,7.207988e-10
C0R950,萬隆國小,2025-04-04,22.507667,120.587817,0.89957917
467540,大武,2025-04-04,22.35572,120.90374,0.6260067
C0V370,古亭坑,2025-04-04,22.893178,120.401947,0.005227874
C1I340,新興橋,2025-04-04,23.563333,120.868728,7.2363787e-10
C0SA80,土坂,2025-04-04,22.453108,120.887572,0.003546067
C0R160,鹽埔,2025-04-04,22.739558,120.530778,1.3005823e-06
C0AC40,大屯山,2025-04-04,25.175675,121.522408,8.466759e-09
466850,五分山雷達站,2025-04-04,25.071182,121.781205,3.1294072e-09
C2H9L0,馬烈霸,2025-04-04,24.1512,121.201772,6.275816e-09
C1AI50,國三N016K,2025-04-04,25.034164,121.619664,1.5313425e-07
C1V600,藤枝,2025-04-04,23.071961,120.757042,4.4286446e-09
C1E601,南勢,2025-04-04,24.572486,120.734842,1.8746563e-08
C0Z180,新城,2025-04-04,24.03946,121.60454,3.2281148e-06
C0O980,新市,2025-04-04,23.061614,120.298197,5.943811e-05
C0K420,西螺,2025-04-04,23.800407,120.467394,1.1358763e-09
C0Z050,佳心,2025-04-04,23.34567,121.21316,3.0299971e-09
C0AD30,蘆洲,2025-04-04,25.086594,121.472331,2.1087827e-07
C0V610,梓官,2025-04-04,22.760558,120.267211,0.15381992
K2F750,種苗改良場,2025-04-04,24.225972,120.800917,2.6031084e-09
C0UA80,大溪漁港,2025-04-04,24.941801,121.902955,3.426282e-08
C1AI60,國一39K邊坡,2025-04-04,25.064361,121.383836,1.9006002e-08
C0W150,金寧,2025-04-04,24.457703,118.328989,1.5076596e-08
C0R960,內埔,2025-04-04,22.608483,120.570714,0.9455337
V2C250,八德合作社,2025-04-04,24.93775,121.266389,8.494438e-08
C2H9S0,龍南,2025-04-04,23.953536,120.833183,1.7354204e-09
C0AH40,平等,2025-04-04,25.129142,121.577086,7.426181e-09
C0R540,佳冬,2025-04-04,22.419456,120.552375,0.9700071
466950,彭佳嶼,2025-04-04,25.627975,122.079744,0.0033169359
C0A890,雙溪,2025-04-04,25.036003,121.864242,1.5313483e-07
C0C480,桃園,2025-04-04,24.992425,121.323172,1.228693e-07
C0AH50,林口,2025-04-04,25.072181,121.38084,1.7251477e-08
A2K360,水試臺西試驗場,2025-04-04,23.717231,120.190522,5.2067555e-09
C2M960,外寮,2025-04-04,23.562643,120.665688,1.4326869e-09
C0F9S0,烏日,2025-04-04,24.107058,120.624103,3.8446655e-09
C0C490,八德,2025-04-04,24.928708,121.283289,8.306754e-08
C0R190,赤山,2025-04-04,22.592333,120.614306,0.92035544
C0T820,天祥,2025-04-04,24.179597,121.495639,1.1442486e-08
C1F9E1,龍安,2025-04-04,24.1605,120.831961,2.2879212e-09
C0V820,小林,2025-04-04,23.148408,120.63325,5.2617616e-10
C2G870,芳苑,2025-04-04,23.922303,120.320025,5.0541606e-09
C0E850,大河,2025-04-04,24.618069,120.948578,2.2357113e-08
C1U670,寒溪,2025-04-04,24.634,121.71691,2.5550454e-08
C0N020,城西,2025-04-04,23.0568,120.0956,5.811093e-09
C1Z110,三棧,2025-04-04,24.11557,121.60501,2.5570188e-09
C0R280,檳榔,2025-04-04,22.076078,120.836777,0.40134516
C2H9J0,中台,2025-04-04,23.9996,120.938739,6.2288275e-10
C0F9L0,后里,2025-04-04,24.310436,120.729725,1.1367801e-09
467441,高雄,2025-04-04,22.730432,120.312516,0.08729053
C0D540,橫山,2025-04-04,24.71116,121.11693,2.2442904e-08
C1D420,太閣南,2025-04-04,24.632808,121.160575,3.653118e-09
C1E770,公館,2025-04-04,24.526914,120.830806,2.3221308e-08
CAN130,水試所海水繁養殖中心,2025-04-04,23.120802,120.07968,5.8855614e-09
C1I430,翠華,2025-04-04,24.191961,121.224339,1.7642169e-08
C1M400,菜瓜坪,2025-04-04,23.251928,120.576103,5.2705107e-10
C0G730,二林,2025-04-04,23.903325,120.376081,4.300125e-09
72M360,南改義竹分場,2025-04-04,23.360694,120.279361,5.591416e-09
V2K620,麥寮合作社,2025-04-04,23.753836,120.294783,4.967828e-09
C0Z070,舞鶴,2025-04-04,23.46811,121.37407,1.1311004e-07
C0B040,大武崙,2025-04-04,25.166676,121.706993,1.640982e-07
C1Z030,紅葉,2025-04-04,23.493119,121.338806,1.7418472e-07
C1I050,丹大,2025-04-04,23.753747,121.141147,1.4904217e-08
C0I080,信義,2025-04-04,23.689694,120.851036,6.2846534e-10
C2M920,朴子農改,2025-04-04,23.469889,120.259383,2.2802538e-09
C2A880,福隆,2025-04-04,25.017842,121.942083,3.426282e-08
C0Z160,鳳林,2025-04-04,23.746114,121.453411,5.9454874e-07
C0V210,復興,2025-04-04,23.222403,120.806089,6.0399274e-10
C0H990,昆陽,2025-04-04,24.121322,121.273642,4.26406e-08
C0R741,獅子,2025-04-04,22.202308,120.705236,0.82841194
C0S710,鹿野,2025-04-04,22.917711,121.122994,1.2093993e-07
C0I530,小奇萊,2025-04-04,24.131764,121.295717,4.51484e-08
C2K630,荷苞,2025-04-04,23.657717,120.595144,7.19487e-10
C0Z080,富源,2025-04-04,23.587642,121.378225,6.570105e-08
C0SB10,美和,2025-04-04,22.682078,121.060236,0.840723
C2K620,馬光農場,2025-04-04,23.721453,120.378864,1.2481564e-09
C1I140,卡奈托灣,2025-04-04,23.754364,121.087872,4.7312207e-09
C0I520,玉山風口,2025-04-04,23.470489,120.955994,5.7975342e-08
C1G691,下水埔,2025-04-04,23.816114,120.5676,1.0123468e-09
C0X110,臺南市南區,2025-04-04,22.961189,120.188378,0.00011803137
C0V680,仁武,2025-04-04,22.701083,120.347722,0.08238236
C2G840,北斗,2025-04-04,23.877586,120.514222,4.002489e-09
C0R900,竹坑,2025-04-04,22.1385,120.7022,0.9675696
C0K250,崙背,2025-04-04,23.75555,120.318925,4.8987636e-09
C0G860,社頭,2025-04-04,23.897647,120.5862,3.7480685e-09
C0X150,安定,2025-04-04,23.102614,120.227839,0.0001215025
C0R590,里港,2025-04-04,22.77919,120.49459,1.3388532e-06
C0E610,馬都安,2025-04-04,24.451272,120.930192,4.3800057e-09
C0E550,明德,2025-04-04,24.583486,120.885411,2.4472989e-08
C0R150,三地門,2025-04-04,22.709889,120.639944,3.3552723e-08
C0G910,花壇,2025-04-04,24.032076,120.549461,4.1222386e-09
C1D400,鳥嘴山,2025-04-04,24.71909,121.28387,4.38034e-09
C0K500,元長,2025-04-04,23.64981,120.315024,4.908004e-09
C0F0B0,石岡,2025-04-04,24.276061,120.777644,9.2735813e-10
C2V250,甲仙,2025-04-04,23.080106,120.591758,1.0588117e-09
C0SA20,金崙山,2025-04-04,22.567419,120.959667,1.6224138e-08
C0V350,溪埔,2025-04-04,22.738578,120.446797,3.2450946e-06
C0M660,溪口,2025-04-04,23.604131,120.403569,2.116639e-09
C1S880,壽卡,2025-04-04,22.238911,120.858903,1.2045976e-08
72D680,桃改新埔分場,2025-04-04,24.834444,121.066111,4.9814652e-08
