站號,站名,日期,lat,lon,BLBTSLS
C0R710,龍磐,2025-03-26,21.931672,120.838942,0.99997187
C1F9D1,白毛台,2025-03-26,24.158325,120.886933,2.7869593e-09
C0G940,竹塘,2025-03-26,23.848253,120.386764,2.10707e-07
467590,恆春,2025-03-26,22.003897,120.746339,0.9999736
C1O850,環湖,2025-03-26,23.148617,120.418633,3.3673941e-09
C0U710,太平山,2025-03-26,24.505486,121.525656,3.1389078e-08
C0E820,獅潭,2025-03-26,24.539133,120.920042,1.5448447e-06
C0V880,興達,2025-03-26,22.8778,120.2127,1.9828048e-09
C0S890,關山,2025-03-26,23.0395,121.175017,3.189835e-08
C0SB30,新蘭,2025-03-26,22.869214,121.223228,4.284286e-08
C2R970,屏科大,2025-03-26,22.648275,120.619247,9.188156e-10
K2F750,種苗繁殖,2025-03-26,24.225972,120.800917,5.9730367e-09
C1Z130,銅門,2025-03-26,23.965694,121.492842,7.788972e-09
C0AD40,土城,2025-03-26,24.973208,121.445169,0.19638936
CAN140,六官養殖協會,2025-03-26,23.22881,120.29962,2.109944e-09
C0X180,山上,2025-03-26,23.0757,120.363253,9.606449e-10
C0F9Z0,雪山東峰,2025-03-26,24.388792,121.268675,5.390986e-08
C1M480,獨立山,2025-03-26,23.537022,120.607797,2.829444e-09
C0X220,學甲,2025-03-26,23.230367,120.182187,7.7820514e-09
467650,日月潭,2025-03-26,23.881325,120.90805,6.6657937e-09
C0K600,箔子寮,2025-03-26,23.6197,120.14,0.028417872
C0G830,埤頭,2025-03-26,23.866003,120.452806,2.3403791e-08
C0S950,七塊厝,2025-03-26,22.954453,121.229922,2.2768953e-08
467110,金門,2025-03-26,24.407306,118.289281,6.9335107e-09
C0AH80,深坑,2025-03-26,25.002703,121.628328,0.1246682
467990,馬祖,2025-03-26,26.169269,119.923419,8.619222e-09
C0A970,三貂角,2025-03-26,25.007606,122.002058,1.1312313e-05
C2D730,寶山農場,2025-03-26,24.732444,120.976153,1.4425693e-05
C0K430,褒忠,2025-03-26,23.690938,120.303634,0.0003305262
467480,嘉義,2025-03-26,23.495925,120.432906,4.9670037e-09
C2E540,後龍,2025-03-26,24.606489,120.783933,0.7259817
C0V400,阿公店,2025-03-26,22.804194,120.355528,7.5825355e-09
467550,玉山,2025-03-26,23.48718,120.95943,5.2946266e-08
C0R440,大漢山,2025-03-26,22.405264,120.753181,2.5393481e-08
C0K280,四湖,2025-03-26,23.630414,120.227125,0.25124076
C1F9B1,桐林,2025-03-26,24.066172,120.735194,7.2670915e-08
C2H9U0,鳳鵬,2025-03-26,23.763919,120.788061,1.1375219e-09
C0K390,土庫,2025-03-26,23.679029,120.395574,2.4312245e-08
C1I450,望鄉山,2025-03-26,23.594153,120.944286,3.315379e-08
C0E910,海埔,2025-03-26,24.648767,120.772435,0.24078079
B2E890,畜試北區分所,2025-03-26,24.527806,120.770972,5.762191e-06
C0R750,四林格山,2025-03-26,22.076989,120.802439,0.92192423
C0F0C0,中坑,2025-03-26,24.248517,120.903319,7.592811e-09
C1I121,大鞍,2025-03-26,23.678381,120.760017,1.3724856e-08
72U480,花改蘭陽分場,2025-03-26,24.686306,121.716583,5.720981e-07
C0A770,科教館,2025-03-26,25.096356,121.516507,0.12153797
C0AJ60,六塊厝,2025-03-26,25.24,121.4481,0.9283034
C0R620,墾雷,2025-03-26,21.900836,120.855269,0.9999087
467420,永康,2025-03-26,23.038386,120.2367,1.4130629e-09
467300,東吉島,2025-03-26,23.25695,119.667467,0.9999944
C0I410,名間,2025-03-26,23.837053,120.701447,1.1213183e-09
A2C560,農工中心,2025-03-26,24.985917,121.239833,0.160488
C0V740,旗山,2025-03-26,22.888614,120.483597,6.0068546e-09
C0Z061,玉里,2025-03-26,23.3215,121.339656,3.6557548e-08
C0S840,南田,2025-03-26,22.279725,120.889208,9.352133e-09
C1I470,杉林溪,2025-03-26,23.639517,120.786444,1.6134246e-08
C1X040,東原,2025-03-26,23.291597,120.463822,1.2786381e-09
C0R660,枋寮,2025-03-26,22.367722,120.590647,1.0655021e-07
C1R120,上德文,2025-03-26,22.763272,120.704442,1.1202414e-08
C0K450,大埤,2025-03-26,23.646074,120.431537,5.337453e-09
C0UA00,土場,2025-03-26,24.576533,121.495333,8.968831e-09
467080,宜蘭,2025-03-26,24.763975,121.756528,1.9866175e-06
C0N030,四草,2025-03-26,23.0235,120.1116,2.6377243e-09
467410,臺南,2025-03-26,22.99328,120.20492,1.8010787e-09
C0V650,彌陀,2025-03-26,22.783806,120.246361,1.7905164e-08
C0D660,新竹市東區,2025-03-26,24.798681,120.986942,0.036317557
82S580,茶改東部分場,2025-03-26,22.907694,121.130139,2.7305601e-08
C0SB40,興隆,2025-03-26,22.913661,121.257469,4.1515932e-08
467050,新屋,2025-03-26,25.006725,121.047492,0.9563331
C0C710,大溪永福,2025-03-26,24.892936,121.324975,0.1418313
C0FA20,溫寮,2025-03-26,24.372177,120.583125,0.88372666
C0V640,湖內,2025-03-26,22.887139,120.2445,1.943045e-09
C0R910,下寮,2025-03-26,22.3929,120.5548,1.0650551e-07
C0Z020,明里,2025-03-26,23.208717,121.262342,2.7692996e-08
C0M770,嘉義梅山,2025-03-26,23.585398,120.555587,1.6330713e-09
G2F820,農業試驗所,2025-03-26,24.031261,120.688133,0.2850422
C0C660,楊梅,2025-03-26,24.912375,121.143047,0.11360007
C1E511,新開,2025-03-26,24.347703,120.827019,1.2385547e-08
G2F820,農試所(霧峰),2025-03-26,24.031261,120.688133,2.674251e-06
C1I070,和社,2025-03-26,23.591131,120.888861,1.3587693e-08
C2F000,大肚,2025-03-26,24.15295,120.572117,1.3429486e-09
C1S850,豐南,2025-03-26,23.122139,121.262389,2.1543194e-08
C2A920,富貴角,2025-03-26,25.263783,121.565258,0.24225011
CAH030,茶改場竹圍站,2025-03-26,23.860083,120.637528,1.0582606e-09
C0T960,光復,2025-03-26,23.660694,121.424964,6.634287e-09
C0F9M0,豐原,2025-03-26,24.254322,120.720692,1.6595874e-06
C0R720,旭海,2025-03-26,22.205403,120.887614,6.5077925e-09
C0V710,苓雅,2025-03-26,22.622742,120.330669,7.9637115e-09
C0C740,觀音工業區,2025-03-26,25.064764,121.114856,0.97197175
CAC040,拉拉山,2025-03-26,24.699317,121.427133,2.9757889e-08
C0V790,萬山,2025-03-26,22.905944,120.688056,1.076175e-09
U2HA30,臺大和社,2025-03-26,23.590856,120.888864,1.3587693e-08
C0AJ90,澳底,2025-03-26,25.0552,121.9253,0.00065908965
C0Z100,東華,2025-03-26,23.89525,121.549833,7.720917e-09
C0G970,三豐,2025-03-26,23.882,120.2895,6.389205e-05
V2K610,大庄合作社,2025-03-26,23.8068,120.367939,0.0032682384
C0V900,汕尾,2025-03-26,22.4782,120.4151,3.7146137e-08
C1R630,龍泉,2025-03-26,22.66701,120.59091,8.9529656e-10
C1AC50,關渡,2025-03-26,25.133486,121.469331,0.05251303
C0F9I0,神岡,2025-03-26,24.272481,120.658314,4.0726772e-07
C0K460,斗南,2025-03-26,23.678734,120.478359,5.152499e-09
467410,臺南,2025-03-26,22.993239,120.204772,0.00032766204
C2O810,曾文,2025-03-26,23.219681,120.497328,9.725918e-10
467280,後龍,2025-03-26,24.648563,120.831834,0.11650602
C1F9J1,清水林,2025-03-26,24.071242,120.820419,3.0563956e-09
C2A650,火燒寮,2025-03-26,25.002719,121.742892,7.3154524e-07
466930,竹子湖,2025-03-26,25.162078,121.544547,2.458157e-08
C1I220,樟湖,2025-03-26,23.905333,120.846983,7.29247e-09
C0I390,仁愛,2025-03-26,24.022122,121.132206,8.763341e-09
C0Z300,東里,2025-03-26,23.26853,121.30547,2.8935952e-08
C1V590,新發,2025-03-26,23.057019,120.646064,4.9182933e-09
C0K510,水林,2025-03-26,23.572924,120.24597,6.233652e-07
72S590,東改賓朗果園,2025-03-26,22.813889,121.071278,1.6987354e-08
82A750,茶改北部分場,2025-03-26,24.955778,121.631222,1.71297e-08
C1A750,石碇服務區,2025-03-26,25.00872,121.646242,0.18304944
C0X300,鹿寮,2025-03-26,23.386047,120.477331,2.2043554e-09
G2AI50,關渡,2025-03-26,25.11575,121.492,0.73579353
C0K590,雲林東勢,2025-03-26,23.674192,120.255721,0.00014094195
C0A570,桶後,2025-03-26,24.848222,121.597992,1.0658026e-08
C1S800,華源,2025-03-26,22.657883,121.02325,5.071052e-08
C0G720,溪州,2025-03-26,23.851589,120.499093,2.1756932e-08
C1V160,達卡努瓦,2025-03-26,23.279811,120.705319,8.040192e-09
C2M410,馬頭山,2025-03-26,23.324361,120.582017,1.0709862e-09
C0V850,蚵仔寮,2025-03-26,22.7256,120.2527,1.1033428e-08
C0S740,池上,2025-03-26,23.119628,121.209469,3.2032602e-08
C1V390,尖山,2025-03-26,22.813153,120.367789,6.838605e-09
C0AH70,松山,2025-03-26,25.04871,121.55042,0.10611081
C0N010,鯤鯓國小,2025-03-26,23.1879,120.0889,6.7533787e-09
C0R550,新埤,2025-03-26,22.467947,120.582894,2.91291e-08
C0SA60,知本（水試所）,2025-03-26,22.702394,121.082761,8.49768e-08
C0T9I0,豐濱,2025-03-26,23.583897,121.514806,9.506024e-09
C0UB00,淡江大學蘭陽校園,2025-03-26,24.823239,121.730383,1.4906322e-08
C0W240,九宮,2025-03-26,24.423753,118.240186,6.9918102e-09
C0T9N0,富里,2025-03-26,23.171639,121.249378,3.4837246e-08
U2HA50,臺大竹山,2025-03-26,23.756972,120.681556,1.3134167e-09
C0V840,鳳鼻頭,2025-03-26,22.5083,120.3591,4.9302025e-09
C0X140,西港,2025-03-26,23.125608,120.203108,2.433868e-09
72D080,桃改五峰分場,2025-03-26,24.612194,121.157167,1.8185117e-08
C2H9P0,伊拿谷,2025-03-26,23.963211,121.088264,5.312742e-09
C2H9F0,柑林,2025-03-26,24.018658,120.847072,1.3614795e-09
C0TA20,加灣,2025-03-26,24.082025,121.608944,1.0267235e-08
C0V530,阿蓮,2025-03-26,22.883208,120.327508,1.0493284e-09
C1O880,關山,2025-03-26,23.173397,120.594092,8.31028e-10
C0E791,卓蘭,2025-03-26,24.3126,120.8244,1.0629603e-08
C1I030,武界,2025-03-26,23.913225,121.052483,5.509351e-09
C0R520,崁頂,2025-03-26,22.514781,120.506914,5.389331e-08
C0R341,牡丹,2025-03-26,22.130036,120.792639,2.0396454e-08
C0R930,萬丹,2025-03-26,22.5885,120.4851,7.4143244e-08
C0S760,紅石,2025-03-26,23.069131,121.126219,3.011257e-08
C2C410,中央大學,2025-03-26,24.967652,121.185165,0.13271758
C1M610,石磐龍,2025-03-26,23.496606,120.663506,6.2368546e-09
C0UA10,鴛鴦湖,2025-03-26,24.590269,121.412228,3.1812434e-08
V2C260,八德蔬果,2025-03-26,24.978508,121.281819,0.025628196
C0R800,丹路,2025-03-26,22.204481,120.750989,2.8249428e-08
C0G920,永靖,2025-03-26,23.924703,120.547533,4.735299e-07
C2M950,太和,2025-03-26,23.538372,120.702961,8.170358e-09
C1A630,下盆,2025-03-26,24.771003,121.538622,3.0865795e-08
B2N890,畜產試驗所,2025-03-26,23.058972,120.336406,1.2107934e-09
C0UA30,白嶺,2025-03-26,24.527819,121.519031,2.5369033e-08
C1V580,溪南(特生中心),2025-03-26,23.084972,120.788475,1.4882002e-08
C1T970,大農,2025-03-26,23.615233,121.413331,9.644126e-09
E2S960,林試太麻里2,2025-03-26,22.598014,120.989761,1.4387881e-07
C0R650,竹田,2025-03-26,22.58486,120.54344,1.4730935e-07
C1H900,清流,2025-03-26,24.080775,120.962997,4.4003703e-09
C1C510,水尾,2025-03-26,24.940081,121.087161,0.8399788
C0F9X0,大雅(中科園區),2025-03-26,24.21528,120.62445,3.955544e-07
C0SB60,白守蓮,2025-03-26,23.126769,121.401914,8.98325e-08
C0O970,虎頭埤,2025-03-26,23.021375,120.347878,1.0660318e-09
C0C730,中大臨海站,2025-03-26,24.966126,121.008581,0.96885777
C0X250,新營,2025-03-26,23.310689,120.316681,1.7087693e-09
C0V700,三民,2025-03-26,22.645017,120.311233,1.9412457e-08
C0U870,大礁溪,2025-03-26,24.791042,121.675047,1.4998294e-08
C0E870,高鐵苗栗,2025-03-26,24.60725,120.826094,0.26597595
A2K570,古坑花卉中心,2025-03-26,23.63353,120.55239,1.4219986e-09
C0TA30,鹽寮,2025-03-26,23.845606,121.592664,7.704382e-09
C0M860,新美,2025-03-26,23.338017,120.683169,1.8894848e-09
C1E701,八卦,2025-03-26,24.491756,120.927619,3.8815454e-08
C0I420,國姓,2025-03-26,24.037803,120.855072,1.4166628e-09
C2D720,關西工作站,2025-03-26,24.757275,121.184792,5.963227e-07
C0S960,香蘭,2025-03-26,22.587569,120.993375,1.2871073e-08
467620,蘭嶼,2025-03-26,22.0369,121.55843,0.9999935
C0R260,春日,2025-03-26,22.370361,120.628306,5.224296e-08
72G600,臺中農改場,2025-03-26,24.003028,120.534389,4.0568264e-07
C0Z210,瑞穗,2025-03-26,23.5239,121.39021,1.1690535e-08
C0M820,達邦,2025-03-26,23.453994,120.749517,5.0428177e-09
C0V860,南寮,2025-03-26,22.7616,120.2339,1.12253e-08
C0G740,大城,2025-03-26,23.852487,120.320935,4.3261036e-05
C0R920,塭仔,2025-03-26,22.4169,120.5197,1.2658946e-07
C0R470,高樹,2025-03-26,22.826389,120.600806,9.505928e-10
C0R680,佳樂水,2025-03-26,21.993578,120.861633,0.9999689
C1O870,大棟山,2025-03-26,23.31157,120.52226,9.993839e-09
C0D360,梅花,2025-03-26,24.678347,121.208558,2.692907e-08
C0Z190,富世,2025-03-26,24.14743,121.6297,1.1014568e-08
C0AI10,屈尺,2025-03-26,24.92184,121.54475,0.2671837
B2U990,畜試東區分所,2025-03-26,24.669039,121.832561,5.466375e-07
C0SB80,長濱漁港,2025-03-26,23.313644,121.459994,4.412248e-08
C0R240,來義,2025-03-26,22.527306,120.625111,2.6893089e-08
C0V910,大樹,2025-03-26,22.684645,120.432803,7.749136e-10
C1R610,西大武山,2025-03-26,22.617719,120.7322,2.8021839e-08
C0G900,線西,2025-03-26,24.143358,120.443536,0.9176792
C0M700,竹崎,2025-03-26,23.526178,120.555508,1.9402748e-09
C2E880,三義,2025-03-26,24.405478,120.749819,1.1222003e-08
C0C720,竹圍,2025-03-26,25.112692,121.239824,0.7222257
C0F9P0,清水,2025-03-26,24.312297,120.562242,0.9164749
C0Z150,吉安光華,2025-03-26,23.930925,121.595153,7.034468e-09
467300,東吉島,2025-03-26,23.25727,119.66762,0.99999434
C1D640,外坪(五指山),2025-03-26,24.644447,121.090961,3.8317168e-08
C0F9O0,潭子,2025-03-26,24.213106,120.703933,1.5683122e-07
C2H9R0,卓社,2025-03-26,23.887894,121.000086,8.077682e-09
72T250,花蓮農改場,2025-03-26,23.975222,121.563889,8.045085e-09
C0E780,銅鑼,2025-03-26,24.489681,120.790853,1.0479977e-06
C1T950,太安,2025-03-26,23.666719,121.370128,8.0728295e-09
C0E830,苑裡,2025-03-26,24.439714,120.653053,0.94670904
467270,田中,2025-03-26,23.873803,120.581286,5.4694804e-09
C0SA10,檳榔四格山,2025-03-26,22.810031,121.109308,1.5939618e-08
C1T830,布洛灣,2025-03-26,24.17184,121.57127,1.0946751e-08
C0F970,大坑,2025-03-26,24.173142,120.722289,1.0541678e-07
C1U920,思源,2025-03-26,24.393125,121.347214,1.8967325e-08
C0A931,三和,2025-03-26,25.233153,121.595236,0.008078268
C0I010,廬山,2025-03-26,24.033311,121.181808,1.6965789e-08
C2M940,日野賀,2025-03-26,23.434056,120.727169,6.3891794e-09
C0R860,鼻頭,2025-03-26,22.1043,120.8979,0.99988043
C0UB20,壯圍,2025-03-26,24.7359,121.8163,7.5025224e-07
C0R790,九棚,2025-03-26,22.14195,120.889281,8.309857e-09
C0W110,東莒,2025-03-26,25.9652,119.98069,4.1779902e-08
C1U930,粉鳥林,2025-03-26,24.497088,121.842479,8.219375e-09
C1I211,蘆竹湳,2025-03-26,23.934019,120.811994,2.1099682e-09
C0S830,長濱,2025-03-26,23.286817,121.411975,3.240599e-08
C1F9F1,伯公龍,2025-03-26,24.272392,120.849047,6.2687335e-09
C0E810,西湖,2025-03-26,24.562947,120.7485,0.99661976
C1I440,新高口,2025-03-26,23.478744,120.878939,2.6166196e-08
C0O840,王爺宮,2025-03-26,23.222064,120.40085,8.464316e-10
C0T9G0,鳳林山,2025-03-26,23.735269,121.420131,1.2981253e-08
C0X080,佳里,2025-03-26,23.173039,120.145086,6.755762e-09
C0FB70,大甲溪埔,2025-03-26,24.370625,120.620067,0.7587545
C0Z310,清水斷崖,2025-03-26,24.218294,121.689142,1.2998721e-08
C0M680,太保,2025-03-26,23.455062,120.331455,8.73374e-09
C1S820,金峰,2025-03-26,22.590969,120.933236,1.1001424e-08
C0AD10,八里,2025-03-26,25.150211,121.403947,0.71831274
C2K240,草嶺,2025-03-26,23.59555,120.693461,5.692309e-09
C1SA70,都蘭,2025-03-26,22.87794,121.226881,4.1504848e-08
C0K440,二崙,2025-03-26,23.772797,120.408944,2.7732376e-08
C1A760,坪林交控,2025-03-26,24.94284,121.713442,4.2192403e-07
C0F9N0,大里,2025-03-26,24.092464,120.701378,1.937176e-09
C0SA90,達仁林場,2025-03-26,22.264347,120.823972,7.668347e-09
C1R290,石門山,2025-03-26,22.112611,120.756597,0.9917346
42HA10,萬大發電廠,2025-03-26,23.978875,121.139639,7.2931656e-09
C0R890,山海,2025-03-26,21.9878,120.7091,0.99970055
C0T9A0,月眉山,2025-03-26,23.809928,121.539828,1.0737766e-08
C0AC70,信義,2025-03-26,25.037822,121.564597,0.100136526
C0K560,棋山,2025-03-26,23.68645,120.603417,1.4305542e-09
C2FB50,出雲,2025-03-26,24.206469,120.902794,4.8576845e-09
C1Z240,中平林道,2025-03-26,23.42115,121.26763,1.4198041e-08
U2H480,溪頭,2025-03-26,23.670306,120.798194,6.174819e-09
C0M880,好美里,2025-03-26,23.3364,120.138,6.0804326e-09
C0T9E0,大坑,2025-03-26,23.880628,121.581981,1.0044327e-08
C0K530,臺西,2025-03-26,23.701547,120.197559,0.33183828
C1E900,國一N128K,2025-03-26,24.560997,120.844186,3.644136e-06
C0AJ50,水湳洞,2025-03-26,25.123695,121.862238,0.9100476
C0AI20,白沙灣,2025-03-26,25.283128,121.519058,0.9061968
C2V310,美濃,2025-03-26,22.898792,120.51907,6.263642e-09
C0A860,大坪,2025-03-26,25.165914,121.632969,2.1804249e-08
C1U850,觀音海岸,2025-03-26,24.38319,121.77856,9.77256e-09
C2K610,草嶺石壁,2025-03-26,23.602469,120.707731,5.9127454e-09
C0U950,鶯子嶺,2025-03-26,24.89754,121.79244,1.6326393e-08
C0O900,善化,2025-03-26,23.112883,120.297219,1.2402728e-09
C0K550,蔦松,2025-03-26,23.514319,120.229736,6.7677394e-07
E2P980,林試六龜中心,2025-03-26,22.991703,120.645722,1.0002873e-09
C0E590,通霄,2025-03-26,24.471892,120.704622,0.05634827
C1I310,西巒,2025-03-26,23.754486,120.883956,6.2379373e-09
C0A550,泰平,2025-03-26,24.971197,121.823711,2.0225263e-08
C0I360,水里,2025-03-26,23.812553,120.849792,9.345389e-10
C0R830,高士,2025-03-26,22.121825,120.836781,0.98430586
C1I101,溪頭,2025-03-26,23.661789,120.807647,1.4563542e-08
C0AJ20,野柳,2025-03-26,25.20703,121.690021,0.39425582
C0B060,暖暖,2025-03-26,25.0957,121.7403,0.1512398
C1H920,長豐,2025-03-26,24.102039,120.879897,3.1243257e-09
C0V360,內門,2025-03-26,22.975481,120.466769,9.1469765e-10
C0R850,林邊,2025-03-26,22.4634,120.5339,3.369696e-08
C0E930,龍鳳,2025-03-26,24.700034,120.859125,0.5807099
C0U910,冬山,2025-03-26,24.63373,121.7937,5.466375e-07
C1E721,泰安,2025-03-26,24.489017,120.968036,1.1955083e-08
82H320,茶改中部分場,2025-03-26,23.875611,120.913583,5.4743126e-09
C0M750,布袋,2025-03-26,23.380878,120.167789,7.593886e-08
C1S860,利嘉,2025-03-26,22.809417,121.050528,8.850792e-09
72C440,桃園農改,2025-03-26,24.950944,121.030583,9.433484e-06
E2S980,林試太麻里1,2025-03-26,22.598922,120.980044,1.1780854e-08
C0X170,關廟,2025-03-26,22.963017,120.327797,1.5615842e-09
C0V720,林園,2025-03-26,22.507747,120.394511,2.4973103e-08
C1I510,線浸林道,2025-03-26,23.761508,120.832956,8.200521e-09
C0D690,外湖,2025-03-26,24.917735,120.968711,0.9771744
C0C750,新興坑尾,2025-03-26,25.0061,121.0971,0.89302105
B2Q810,畜試南區分所,2025-03-26,21.945583,120.802167,0.9999656
C0S790,金崙,2025-03-26,22.538122,120.966875,8.006203e-09
C0AH90,福山植物園,2025-03-26,24.760717,121.58135,2.139553e-08
C0I540,奇萊稜線,2025-03-26,24.109231,121.326456,4.7240903e-08
C0M850,表湖,2025-03-26,23.24186,120.64166,2.1638848e-09
C0S770,大溪山,2025-03-26,22.478475,120.943325,7.40135e-09
C0AG80,中和,2025-03-26,24.991622,121.491792,0.19610119
C0T790,大禹嶺,2025-03-26,24.186117,121.316086,3.9080586e-08
C0T9B0,水源,2025-03-26,23.991861,121.537169,1.1579729e-08
C0R840,牡丹池山,2025-03-26,22.168389,120.841225,8.773275e-09
C1I131,桶頭,2025-03-26,23.641944,120.654117,1.0668617e-09
CAL110,布袋國中,2025-03-26,23.35893,120.18026,4.16757e-09
467571,新竹,2025-03-26,24.827853,121.014219,0.023588337
C0Z290,赤柯山,2025-03-26,23.36893,121.38293,2.9951384e-08
C0X280,將軍,2025-03-26,23.214999,120.13577,8.0282385e-09
C0S690,太麻里,2025-03-26,22.60902,120.98533,4.660218e-08
C0U880,北關,2025-03-26,24.9072,121.8734,0.29391834
C1H860,瑞岩,2025-03-26,24.123772,121.18345,1.7975312e-08
C0G810,埔心,2025-03-26,23.947633,120.525456,5.054911e-07
C0U970,大福,2025-03-26,24.80064,121.81389,2.7311364e-06
C2H9N0,仁愛東眼,2025-03-26,24.026875,121.1205,1.5500298e-08
C1E670,南礦,2025-03-26,24.538278,121.002836,1.1559296e-08
C0M520,東後寮,2025-03-26,23.369908,120.248065,4.1220893e-09
C1E461,松安,2025-03-26,24.397972,120.986022,1.1715468e-08
72G600,臺中農改,2025-03-26,24.003028,120.534389,1.3211189e-06
C2N160,西拉雅風管處,2025-03-26,23.189481,120.335297,1.6628495e-09
C2M970,碧湖,2025-03-26,23.568632,120.624165,5.0504703e-09
C0A640,石碇,2025-03-26,24.993969,121.662917,4.6992955e-07
E2S960,林試太麻里2,2025-03-26,22.598,120.99775,1.3198864e-08
C0F9Y0,桃山,2025-03-26,24.432739,121.303808,5.667989e-08
C1I020,萬大,2025-03-26,23.979817,121.132261,8.828637e-09
C0U940,羅東,2025-03-26,24.68184,121.74934,6.3262047e-07
C0M650,朴子,2025-03-26,23.43463,120.23902,3.8238102e-08
C1I500,大尖山,2025-03-26,23.858572,120.994889,2.4058945e-08
C0G820,田尾,2025-03-26,23.901669,120.509389,5.04321e-07
E2K600,四湖植物園,2025-03-26,23.676986,120.163433,0.244105
C0S730,綠島,2025-03-26,22.6672,121.47533,0.3049439
12Q970,東港工作站,2025-03-26,22.479997,120.466058,3.3048796e-08
C0E430,南庄,2025-03-26,24.601775,121.000214,1.3659499e-06
C1TA00,太魯閣,2025-03-26,24.15773,121.6236,1.1048844e-08
466920,臺北,2025-03-26,25.037658,121.514853,0.10611081
C0R600,舊泰武,2025-03-26,22.588194,120.664944,4.8578883e-09
C1I260,北坑,2025-03-26,23.9246,121.006903,2.2248288e-09
466910,鞍部,2025-03-26,25.182586,121.529731,3.4425863e-08
C1I230,九份二山,2025-03-26,23.961944,120.845,4.832124e-09
C2A660,瑞芳,2025-03-26,25.113169,121.801147,0.67485297
C0R270,琉球嶼,2025-03-26,22.332244,120.362236,1.988549e-06
C1T990,高寮,2025-03-26,23.394239,121.356808,1.1319104e-08
C0G620,芬園,2025-03-26,24.015678,120.6213,6.3733325e-09
C1Z140,荖溪,2025-03-26,23.890575,121.45964,2.468244e-08
C1I201,中心崙,2025-03-26,23.728722,120.712097,2.2594209e-09
C1I400,凌霄,2025-03-26,24.018778,121.004456,1.5238871e-08
C1M640,十字,2025-03-26,23.492153,120.753683,1.4134518e-08
G2P820,農試鳳山分所,2025-03-26,22.646611,120.356083,1.6451713e-08
C0Z270,蕃薯寮,2025-03-26,23.73835,121.540108,1.0438334e-08
C0F9Q0,外埔,2025-03-26,24.347817,120.705686,8.186925e-06
C0K580,高鐵雲林,2025-03-26,23.737456,120.417944,2.9479773e-08
C2I090,鳳凰,2025-03-26,23.728081,120.787347,4.2079065e-09
C0U990,員山,2025-03-26,24.74435,121.72247,6.7792377e-07
C0V770,大社,2025-03-26,22.730306,120.346639,9.885172e-09
C0X120,麻豆,2025-03-26,23.183289,120.248611,1.8718793e-09
C0C670,龍潭,2025-03-26,24.870056,121.221389,6.228625e-07
C0D680,香山濕地,2025-03-26,24.783581,120.914988,0.052816954
C0S980,勝林山,2025-03-26,22.430439,120.8938,2.0726505e-08
C0V730,大寮,2025-03-26,22.605614,120.395717,4.9535902e-08
C0R570,麟洛,2025-03-26,22.65078,120.52719,8.8760777e-10
C2M930,石卓,2025-03-26,23.478744,120.702264,1.35372495e-08
C0G9B0,和美,2025-03-26,24.105169,120.492131,0.0009836049
CAG100,王功漁港,2025-03-26,23.96824,120.32586,0.00068090856
C0X290,北門,2025-03-26,23.267772,120.125481,8.027748e-09
C2F930,大甲,2025-03-26,24.347667,120.640403,0.3295608
C0D650,湖口,2025-03-26,24.904794,121.043628,0.86234224
C0E420,竹南,2025-03-26,24.708978,120.888897,0.28598303
C0U780,五結,2025-03-26,24.68637,121.79794,7.464177e-07
C1I250,鯉潭,2025-03-26,23.961922,120.991131,3.8606482e-09
C0R130,阿禮,2025-03-26,22.742908,120.743678,1.201431e-08
C0X100,臺南市北區,2025-03-26,23.010394,120.194228,1.8406628e-09
C0S920,金峰嘉蘭,2025-03-26,22.594789,120.960825,1.17480035e-08
C0V490,新興,2025-03-26,22.627422,120.298803,7.935357e-09
C0F9K0,大安,2025-03-26,24.345061,120.588025,0.79716015
72N100,臺南農改,2025-03-26,23.0605,120.342194,0.0001336928
467290,古坑,2025-03-26,23.633639,120.551889,1.4219986e-09
C2E970,八甲,2025-03-26,24.535811,120.795983,7.274441e-07
C0V440,鳳山,2025-03-26,22.646653,120.356122,1.6451713e-08
C1T940,大觀,2025-03-26,23.714206,121.373133,1.1837028e-08
72T250,花蓮農改,2025-03-26,23.975222,121.563889,7.0878644e-07
C0E740,造橋,2025-03-26,24.637056,120.864778,0.15258545
C0R100,尾寮山,2025-03-26,22.833111,120.683889,1.15333965e-08
A2K630,臺大雲林校區,2025-03-26,23.730628,120.423903,2.9430558e-08
467990,馬祖,2025-03-26,26.169467,119.923158,2.3450932e-08
C0D580,寶山,2025-03-26,24.735006,121.025192,5.5315077e-08
E2P990,林試扇平站,2025-03-26,22.9677,120.6857,4.1284074e-09
C0AI30,三重,2025-03-26,25.057328,121.500629,0.12153797
C0AH00,汐止,2025-03-26,25.066881,121.658778,0.10611081
C1Z040,立山,2025-03-26,23.443356,121.327375,2.1074152e-08
466881,新北,2025-03-26,24.959207,121.525196,0.16461411
C0W130,花嶼,2025-03-26,23.40007,119.32276,0.99998575
C0A950,鼻頭角,2025-03-26,25.129036,121.923372,0.0014518615
C0K470,林內,2025-03-26,23.748675,120.609642,1.2711825e-09
C2F990,摩天嶺,2025-03-26,24.322458,120.936819,4.671331e-09
82C160,茶改場,2025-03-26,24.908472,121.185333,0.027590066
C0Z320,清水林道,2025-03-26,23.27125,121.188272,2.5365743e-08
C0R760,南仁湖,2025-03-26,22.084681,120.863353,0.9916188
C0M670,大林,2025-03-26,23.600616,120.45841,6.0647034e-09
C0M800,茶山,2025-03-26,23.299075,120.664767,1.505495e-09
C0A9C0,天母,2025-03-26,25.117494,121.537169,0.23424834
72K220,南改斗南分場,2025-03-26,23.634556,120.477333,5.214866e-09
72AI40,桃改樹林分場,2025-03-26,24.944503,121.386972,0.6963401
C0S910,蘭嶼燈塔,2025-03-26,22.081197,121.503117,0.99990356
C0B050,八斗子,2025-03-26,25.144754,121.79167,0.9362449
C0U900,內城,2025-03-26,24.71813,121.68766,4.78919e-07
C0X320,柳營,2025-03-26,23.253328,120.375253,2.8681473e-09
C0M790,新港,2025-03-26,23.553269,120.345728,1.08304334e-07
C0F9T0,西屯,2025-03-26,24.179494,120.641275,1.2563787e-05
C0SA30,都歷,2025-03-26,23.020333,121.323642,5.0850474e-08
C0C620,蘆竹,2025-03-26,25.084275,121.265767,0.7068045
C0R730,大坪頂,2025-03-26,22.024633,120.69355,0.9992819
C0AJ40,石門,2025-03-26,25.273672,121.601198,0.4474397
C0E750,苗栗,2025-03-26,24.564569,120.824575,5.354032e-06
C0T870,鯉魚潭,2025-03-26,23.935639,121.508944,7.6424875e-09
C1V170,排雲,2025-03-26,23.463619,120.954147,4.5722086e-08
C2H950,中寮,2025-03-26,23.884447,120.766406,8.1844425e-09
C0R350,貓鼻頭,2025-03-26,21.921774,120.7358,0.9999502
C0V660,岡山,2025-03-26,22.797078,120.294958,1.7942392e-08
C1H941,雙冬,2025-03-26,23.967378,120.802189,2.2699087e-09
C0AJ70,田寮,2025-03-26,25.2698,121.4886,0.91524106
C0AI00,五股,2025-03-26,25.07445,121.42728,0.07777746
C0Z280,德武,2025-03-26,23.47426,121.41071,1.1389944e-08
C0R700,枋山,2025-03-26,22.246844,120.661086,1.8182265e-05
C0C460,復興,2025-03-26,24.820208,121.352281,2.7242292e-08
E2H360,蓮華池,2025-03-26,23.918333,120.885278,2.5562776e-09
C0M640,中埔,2025-03-26,23.42538,120.5229,2.6805402e-09
C0W140,金沙,2025-03-26,24.488292,118.408778,4.7348405e-09
C2A540,四堵,2025-03-26,24.8926,121.745736,1.8700959e-08
C0ACA0,新莊,2025-03-26,25.051478,121.446756,0.14107908
C0R220,潮州,2025-03-26,22.534361,120.54,4.424653e-08
U2HA40,臺大內茅埔,2025-03-26,23.689722,120.851117,2.095174e-09
467490,臺中,2025-03-26,24.145736,120.684075,2.2758907e-07
C0U960,翠峰湖,2025-03-26,24.510856,121.608044,3.5002756e-08
E2HA20,林試畢祿溪站,2025-03-26,24.226944,121.308522,3.2171716e-08
C0V890,前鎮,2025-03-26,22.5718,120.3117,8.3612095e-09
467620,蘭嶼,2025-03-26,22.036969,121.558339,0.99999744
C1F941,雪嶺,2025-03-26,24.280586,121.026642,3.917462e-08
C2H9E0,國姓南港,2025-03-26,23.911108,120.846556,7.607655e-09
C0AC80,文山,2025-03-26,25.00235,121.575728,0.1144416
C0F9R0,龍井,2025-03-26,24.184536,120.528972,0.91117585
C0M760,民雄,2025-03-26,23.551754,120.428457,6.105465e-09
C0UA40,西德山,2025-03-26,24.560647,121.752608,1.8061746e-08
C1T920,中興,2025-03-26,23.769503,121.498653,7.874836e-09
C0D550,雪霸,2025-03-26,24.526972,121.11605,2.5597819e-08
C2F860,梨山,2025-03-26,24.247522,121.243669,3.286399e-08
C0R320,車城,2025-03-26,22.0744,120.716247,0.9997062
C1S870,南美山,2025-03-26,23.15025,121.382333,3.558341e-08
C0B020,基隆嶼,2025-03-26,25.19141,121.78391,0.957342
C1U501,牛鬥,2025-03-26,24.637836,121.573656,8.4877655e-08
C0M730,嘉義市東區,2025-03-26,23.457673,120.460531,2.0625852e-09
C0S700,知本,2025-03-26,22.684866,121.005642,1.09685505e-08
C1N001,沙崙,2025-03-26,22.935472,120.309406,1.5590664e-09
C0V760,橋頭,2025-03-26,22.757806,120.30575,1.0132823e-08
C0G960,福寶,2025-03-26,24.0443,120.3814,0.0012652942
C0X210,白河,2025-03-26,23.347466,120.414427,1.6438717e-09
C0S810,東河,2025-03-26,22.972672,121.303986,1.0820006e-07
C2R170,屏東,2025-03-26,22.66027,120.49403,8.867482e-10
C0R670,楓港,2025-03-26,22.190131,120.692156,8.548758e-08
C0FA50,霧峰,2025-03-26,24.0419,120.6995,2.278854e-06
C0UB10,蘇澳,2025-03-26,24.5969,121.8571,6.607036e-09
C0G950,防潮門,2025-03-26,24.1835,120.4871,0.91295785
C0M740,六腳,2025-03-26,23.492871,120.290625,5.909896e-08
C1R250,力里,2025-03-26,22.428117,120.629228,4.7299235e-08
C0K330,虎尾,2025-03-26,23.719183,120.442036,2.7564836e-08
C2FA00,烏石坑,2025-03-26,24.273503,120.947617,4.566228e-09
C0V620,永安,2025-03-26,22.82315,120.236856,1.7905164e-08
C1I330,楓樹林,2025-03-26,23.986803,121.076117,1.0468381e-08
C0W200,湖西,2025-03-26,23.596314,119.67275,0.9999909
72Q010,高雄農改場,2025-03-26,22.709333,120.525889,9.313519e-10
C0SA40,瑞和,2025-03-26,22.974361,121.156697,3.446022e-08
C0C680,龜山,2025-03-26,25.02846,121.38656,6.0891455e-07
C2V260,月眉,2025-03-26,22.971003,120.539853,9.0384455e-10
C0V450,鳳森,2025-03-26,22.545064,120.392592,1.744009e-08
C0U720,南山,2025-03-26,24.43742,121.38167,1.6995294e-08
A2N290,臺南蘭花園區,2025-03-26,23.340258,120.379661,7.558826e-09
C0R560,新園,2025-03-26,22.5434,120.461558,2.4973103e-08
C0U890,三星,2025-03-26,24.66812,121.65302,1.8246149e-07
C1V300,御油山,2025-03-26,23.001983,120.715364,1.4017301e-08
C0U600,礁溪,2025-03-26,24.817539,121.765608,1.5247949e-06
C1T980,龍澗,2025-03-26,24.023289,121.411328,3.240426e-08
C0D670,海天一線,2025-03-26,24.831986,120.914438,0.8653581
C0SA00,歷坵,2025-03-26,22.520969,120.89185,8.532545e-09
C0M710,東石,2025-03-26,23.458927,120.15385,2.324061e-07
C0M780,鹿草,2025-03-26,23.41134,120.30835,3.2747668e-08
C0U520,雙連埤,2025-03-26,24.753033,121.641303,1.4970457e-08
C0B010,七堵,2025-03-26,25.094819,121.71713,0.29242992
C0R480,長治,2025-03-26,22.693128,120.542622,7.834516e-10
C1V830,國三S383K,2025-03-26,22.781967,120.426475,9.337318e-10
12Q980,恆春工作站,2025-03-26,22.079678,120.714425,0.9997072
C1O940,東山服務區,2025-03-26,23.286016,120.398472,1.7016434e-09
C1U840,東澳嶺,2025-03-26,24.5378,121.8485,9.198348e-09
C1D630,飛鳳山,2025-03-26,24.766464,121.119178,6.5603885e-08
C0S940,石寧山,2025-03-26,23.223772,121.406639,3.083602e-08
C0K410,北港,2025-03-26,23.573957,120.292802,5.4477334e-07
C2M620,瑞里,2025-03-26,23.545133,120.675197,7.297006e-09
C0SB70,小港漁港,2025-03-26,23.158558,121.400431,6.505214e-08
C2O950,安南,2025-03-26,23.076694,120.144861,5.019949e-09
C0F0E0,南湖圈谷,2025-03-26,24.363714,121.444667,5.718494e-08
467610,成功,2025-03-26,23.097486,121.373428,7.670602e-08
C0G890,伸港,2025-03-26,24.148933,120.484403,0.9120018
C2E540,龍溪,2025-03-26,24.606489,120.783933,0.3107194
C1V200,梅山,2025-03-26,23.268447,120.823556,5.9210064e-09
C0T9H0,加路蘭山,2025-03-26,23.682947,121.5274,1.9105226e-08
C2O930,玉井,2025-03-26,23.126042,120.46055,6.4189347e-09
C1F911,新伯公,2025-03-26,24.221361,120.841069,4.70279e-09
C0R490,九如,2025-03-26,22.7405,120.490503,9.275793e-10
C0X200,左鎮,2025-03-26,23.056758,120.408522,9.262061e-09
C0SB50,叭嗡嗡,2025-03-26,23.047062,121.343223,7.188732e-08
C1F891,稍來,2025-03-26,24.265689,121.001142,2.5727726e-08
72N240,七股研究中心,2025-03-26,23.081672,120.062894,9.225547e-09
C0C700,中壢,2025-03-26,24.977661,121.256375,0.014650372
C0M690,水上,2025-03-26,23.419734,120.388909,8.251324e-09
C0V690,鼓山,2025-03-26,22.623325,120.275575,8.357335e-09
C0O860,大內,2025-03-26,23.11885,120.36083,1.214684e-09
C0Z200,萬榮,2025-03-26,23.709219,121.420106,9.3853885e-09
C0T9D0,和中,2025-03-26,24.26676,121.74103,1.873609e-08
C1O921,楠西,2025-03-26,23.183511,120.484083,3.0768206e-09
C0AJ30,淡水觀海,2025-03-26,25.184591,121.408616,0.70787245
C0V810,左營,2025-03-26,22.67491,120.28491,1.9101728e-08
C0UA70,桃源谷,2025-03-26,24.962606,121.888875,1.8542124e-08
C0X130,官田,2025-03-26,23.193217,120.315422,1.6602698e-09
C1H000,翠峰,2025-03-26,24.109397,121.205211,2.9085573e-08
C0UA90,石城,2025-03-26,24.980444,121.951214,8.3703315e-05
C1E681,南勢山,2025-03-26,24.421669,120.923831,1.662007e-08
C0A9F0,內湖,2025-03-26,25.079422,121.57545,0.10611081
C0K291,宜梧,2025-03-26,23.536281,120.169329,6.814077e-07
C1K540,口湖,2025-03-26,23.585344,120.180517,0.030634928
C0R780,滿州,2025-03-26,22.024403,120.839892,0.99997264
C0V870,文安,2025-03-26,22.8025,120.2164,1.8533532e-08
C0U650,玉蘭,2025-03-26,24.675286,121.587061,1.1753697e-08
C0R640,東港,2025-03-26,22.46247,120.44074,3.3035622e-08
K2E360,苗栗農改,2025-03-26,24.495722,120.829111,9.03511e-08
C0AJ80,板橋,2025-03-26,25.0107,121.4489,0.20770442
C0S660,下馬,2025-03-26,23.150427,121.070312,2.3239341e-08
C1H9B1,阿眉,2025-03-26,24.1263,120.994672,2.540753e-08
C0UA20,多加屯,2025-03-26,24.368614,121.373189,3.5196567e-08
C0E730,頭份,2025-03-26,24.688247,120.912206,0.37253487
72V140,高改旗南分場,2025-03-26,22.857861,120.516667,8.6564184e-10
C0K480,莿桐,2025-03-26,23.761192,120.502372,7.3756876e-09
C0U980,坪林石牌,2025-03-26,24.86478,121.77396,1.6861106e-08
C0T900,西林,2025-03-26,23.8119,121.441458,8.429054e-09
C1I150,青雲,2025-03-26,23.793361,120.949378,1.7938893e-09
467350,澎湖,2025-03-26,23.565503,119.563094,0.99999255
C0G800,埔鹽,2025-03-26,24.000394,120.431683,0.0010800142
C0H960,草屯,2025-03-26,23.973672,120.68085,1.9953347e-06
C1V780,多納林道,2025-03-26,22.888028,120.737917,6.185369e-09
C0E920,通霄漁港,2025-03-26,24.498589,120.673876,0.8823368
C0Z330,安通山,2025-03-26,23.290728,121.348528,2.7424397e-08
C0AH10,永和,2025-03-26,25.01125,121.508111,0.21681464
C0AK10,太平里,2025-03-26,25.134937,121.364899,0.6980958
C2G640,鹿港,2025-03-26,24.0753,120.430481,0.0012580688
C1E890,國三N149K,2025-03-26,24.463414,120.680019,0.39381474
C1R110,口社,2025-03-26,22.770111,120.645222,8.927387e-10
C1M870,國三N285K,2025-03-26,23.550319,120.505833,1.6200536e-09
467050,新屋,2025-03-26,25.006744,121.047486,1.8946115e-05
C1E480,鳳美,2025-03-26,24.554803,121.034747,4.2393424e-08
C0M530,奮起湖,2025-03-26,23.493903,120.699253,8.2735765e-09
C0C590,觀音,2025-03-26,25.027072,121.153317,0.89186907
C0T9M0,靜浦,2025-03-26,23.455167,121.495028,1.1110403e-08
C2H9M0,發祥,2025-03-26,24.154094,121.164517,1.1258299e-08
C0AI40,石牌,2025-03-26,25.115597,121.513139,0.25075454
C1F871,上谷關,2025-03-26,24.203483,121.018644,4.4145354e-09
C2H9G0,百勝,2025-03-26,24.051142,120.909361,2.6671632e-09
C0G880,二水,2025-03-26,23.810742,120.6173,1.1644352e-09
C0R940,加祿堂,2025-03-26,22.3363,120.6217,8.097507e-08
C0W220,北竿,2025-03-26,26.220358,119.974881,1.7584318e-08
C0O960,崎頂,2025-03-26,22.959547,120.369317,1.4811512e-09
C0S750,向陽,2025-03-26,23.248397,120.986133,2.1061293e-08
C0T9F0,水璉,2025-03-26,23.797131,121.542514,9.0317815e-09
C1M600,頭凍,2025-03-26,23.406364,120.603339,5.4380034e-09
467660,臺東,2025-03-26,22.752211,121.154586,2.3565988e-08
C1D380,新埔,2025-03-26,24.84745,121.03834,0.18966466
C2G980,田頭村,2025-03-26,23.8263,120.444175,2.7744703e-08
C0V750,路竹,2025-03-26,22.854997,120.259439,2.2708623e-08
C0N050,蚵寮,2025-03-26,23.301,120.1104,6.079435e-09
72M700,南改鹿草分場,2025-03-26,23.416869,120.283061,3.5609688e-08
C1SA50,利嘉林道,2025-03-26,22.82325,121.009389,1.0062102e-08
467550,玉山,2025-03-26,23.487614,120.959522,5.6334997e-08
C0A940,金山,2025-03-26,25.223628,121.643967,0.31765306
C1V340,大津,2025-03-26,22.888322,120.645986,1.111095e-09
C0W180,七美,2025-03-26,23.219333,119.444892,0.99999195
C1F9C1,白冷,2025-03-26,24.182844,120.929889,5.4768297e-09
K2E710,苗改生物防治研究中心,2025-03-26,24.422861,120.871833,6.659436e-07
C0N040,蘆竹溝,2025-03-26,23.2344,120.0961,8.024166e-09
C2W230,畜試所澎湖,2025-03-26,23.628342,119.513206,0.9999925
C0R880,後壁湖,2025-03-26,21.9457,120.7457,0.9996489
C1I280,埔中,2025-03-26,23.820778,120.642594,1.6696698e-09
467790,墾丁雷達站,2025-03-26,21.948235,120.808028,0.999978
C0W190,望安,2025-03-26,23.380564,119.494075,0.9999934
466881,新北,2025-03-26,24.9593,121.52,0.8792253
C0Z170,卓溪,2025-03-26,23.3443,121.3029,4.2784635e-08
C0F850,東勢,2025-03-26,24.246428,120.833047,5.039837e-09
466900,淡水,2025-03-26,25.164889,121.448906,0.6978067
C0I370,魚池,2025-03-26,23.895703,120.94135,2.3723146e-09
C0C630,大溪,2025-03-26,24.882853,121.265547,0.0011070241
C0A520,山佳,2025-03-26,24.974944,121.402008,0.4323434
C0I110,竹山,2025-03-26,23.761225,120.688156,1.275907e-09
82H840,茶改南部分場,2025-03-26,23.762528,120.7405,1.2314872e-09
C0G660,溪湖,2025-03-26,23.94835,120.479122,5.1355914e-07
C1T800,洛韶,2025-03-26,24.204558,121.453956,2.1961057e-08
C1T810,慈恩,2025-03-26,24.192044,121.388386,2.1266233e-08
C1E451,象鼻,2025-03-26,24.368617,120.940228,1.5672754e-08
C0AC60,三峽,2025-03-26,24.939025,121.369728,0.5992131
C0I490,萬大林道,2025-03-26,23.928228,121.091411,1.4363869e-08
C1I290,豐丘,2025-03-26,23.668178,120.887417,7.2062045e-09
C1I320,奧萬大,2025-03-26,23.952956,121.178556,8.11007e-09
C2M910,嘉義大學,2025-03-26,23.471325,120.485903,2.7814417e-09
C0U770,南澳,2025-03-26,24.44935,121.81022,1.0911772e-08
C0A980,社子,2025-03-26,25.109508,121.469681,0.7499966
C0V800,六龜,2025-03-26,22.997889,120.633583,9.885582e-10
C1G9D0,國一S218K,2025-03-26,23.890641,120.493253,4.3118575e-06
C0E570,白沙屯,2025-03-26,24.549447,120.696803,0.99906516
C2F9A0,中竹林,2025-03-26,24.103556,120.751061,1.4384149e-09
C0FA40,臺中電廠,2025-03-26,24.2146,120.4907,0.90809566
C2G9A0,畜試所彰化,2025-03-26,23.86045,120.557964,5.467342e-09
C0H9C0,合歡山,2025-03-26,24.143442,121.272547,5.344485e-08
C0X060,下營,2025-03-26,23.22695,120.256261,2.1213478e-09
G2M350,農試溪口農場,2025-03-26,23.58565,120.408111,6.3332584e-09
C0U860,頭城,2025-03-26,24.85323,121.8308,1.9643142e-06
C0R580,南州,2025-03-26,22.48591,120.50274,3.3035622e-08
C0D430,峨眉,2025-03-26,24.6905,121.017189,1.3890985e-05
C0G780,秀水,2025-03-26,24.03405,120.503869,4.064184e-07
72N100,臺南農改場,2025-03-26,23.0605,120.342194,1.2101353e-09
C0S900,蘭嶼高中,2025-03-26,22.04909,121.51214,0.999528
467540,大武,2025-03-26,22.355675,120.903789,1.8355178e-07
C1F9W0,德基,2025-03-26,24.254783,121.190261,2.1176982e-08
C1Z120,壽豐,2025-03-26,23.870853,121.508081,7.720917e-09
C0W160,烏坵,2025-03-26,24.9944,119.44956,3.1726834e-06
C1I240,外大坪,2025-03-26,23.958697,120.917931,3.9227985e-09
C1I550,國六W023K,2025-03-26,23.979067,120.867742,1.2374985e-09
C0R870,興海,2025-03-26,21.9752,120.8439,0.99996567
C0R140,瑪家,2025-03-26,22.682903,120.686639,4.2585313e-09
C0A530,坪林,2025-03-26,24.938183,121.70975,2.505625e-07
C0X260,後壁,2025-03-26,23.366358,120.362326,1.4745074e-09
C0Z230,和平,2025-03-26,24.30717,121.77007,1.8984046e-08
C0G770,福興,2025-03-26,24.041289,120.437669,0.0011946197
C0H9A0,神木村,2025-03-26,23.532742,120.843667,1.993203e-08
C0I460,南投,2025-03-26,23.911469,120.687331,3.81236e-09
C0I480,梅峰,2025-03-26,24.085272,121.173572,2.4146615e-08
C1V570,吉東,2025-03-26,22.85422,120.5454,8.724328e-10
C2D740,屯原,2025-03-26,24.067969,121.209389,2.5373195e-08
C2A560,福山,2025-03-26,24.776203,121.502811,1.2731096e-08
C0AH30,五分山,2025-03-26,25.07125,121.780794,1.392016e-08
C0FA10,松柏,2025-03-26,24.429115,120.617482,0.9709498
72S200,東改班鳩分場,2025-03-26,22.829528,121.077694,1.8098058e-08
72HA00,中改埔里分場,2025-03-26,23.903208,120.963364,2.4024176e-09
C2H9W0,大坪頂農水,2025-03-26,24.043122,120.932781,3.1329965e-09
C0C650,平鎮,2025-03-26,24.897503,121.214636,0.021297991
C0S930,延平,2025-03-26,22.902581,121.084058,2.4820812e-08
C0UA60,樟樹山,2025-03-26,24.41393,121.78325,1.4387422e-08
C1S670,摩天,2025-03-26,23.199503,121.027,3.690384e-08
C0V630,茄萣,2025-03-26,22.906642,120.182608,1.9833002e-09
466940,基隆,2025-03-26,25.133314,121.740475,0.9305894
C0X050,東河,2025-03-26,23.296598,120.385608,1.7662258e-09
C0R770,保力,2025-03-26,22.071122,120.764111,0.9997062
G2L020,農試嘉義分所,2025-03-26,23.485028,120.473806,1.9514388e-09
C0X240,關子嶺,2025-03-26,23.331169,120.508025,1.2752818e-09
C0I380,集集,2025-03-26,23.828206,120.801467,9.1159746e-10
466990,花蓮,2025-03-26,23.975128,121.613275,8.044793e-09
C1V220,小關山,2025-03-26,23.154217,120.813603,1.7327984e-08
C1F9G1,慶福山,2025-03-26,24.180853,120.848378,5.4052025e-09
C0Z250,瑞穗林道,2025-03-26,23.49284,121.30688,1.45286405e-08
C0D590,新豐,2025-03-26,24.87068,120.97721,0.3467292
C0A870,五指山,2025-03-26,25.132153,121.608692,2.5464876e-08
C0UA50,西帽山,2025-03-26,24.555361,121.802628,1.0507529e-08
C0X160,仁德,2025-03-26,22.968258,120.257689,1.3987488e-09
C1H971,六分寮,2025-03-26,23.92507,120.6378,1.5998911e-09
C0W120,西嶼,2025-03-26,23.5626,119.468436,0.9999922
C0G650,員林,2025-03-26,23.946503,120.585597,1.1470325e-08
C0AD50,鶯歌,2025-03-26,24.951533,121.346294,0.43852845
C2H9Q0,北東眼山,2025-03-26,24.120939,121.189303,3.076259e-08
C2H9T0,名間竹圍,2025-03-26,23.859914,120.637572,1.0588905e-09
C0S990,山豬窟,2025-03-26,22.318619,120.857372,7.3347795e-09
72Q010,高雄農改,2025-03-26,22.709333,120.525889,4.982337e-09
C0X190,安平,2025-03-26,22.993161,120.152181,1.8415337e-09
C0K400,斗六,2025-03-26,23.720583,120.541127,4.6857425e-09
12J990,口湖工作站,2025-03-26,23.589978,120.180394,0.028417872
C0O830,北寮,2025-03-26,23.079561,120.495008,8.9735147e-10
C1D410,白蘭,2025-03-26,24.579364,121.079947,1.2759125e-08
C0S970,加津林,2025-03-26,22.416211,120.926942,7.117551e-09
C0D700,關西,2025-03-26,24.7977,121.1732,0.0017328794
C0M810,里佳,2025-03-26,23.389125,120.716647,8.8100665e-09
C0U750,龜山島,2025-03-26,24.841667,121.953133,4.0806157e-08
C0R810,內獅,2025-03-26,22.305064,120.642986,8.3442934e-08
C1M390,龍美,2025-03-26,23.406728,120.654417,6.6914105e-09
C2FB60,頭櫃山,2025-03-26,24.129842,120.858925,5.955722e-09
C1H840,國三N238K,2025-03-26,23.841008,120.707711,9.732859e-10
CAQ030,崎峰國小,2025-03-26,22.42565,120.49521,3.3035622e-08
C2E520,大湖,2025-03-26,24.414939,120.870872,9.321538e-09
467530,阿里山,2025-03-26,23.508208,120.813242,2.8601455e-08
C1E691,南湖,2025-03-26,24.40135,120.837533,1.42889425e-08
C0FA30,梧棲,2025-03-26,24.256003,120.523381,0.9165385
C1V231,高中,2025-03-26,23.134911,120.716711,1.8536032e-09
C0F9V0,新社,2025-03-26,24.200172,120.815806,5.108717e-09
C0H890,埔里,2025-03-26,23.972169,120.952425,2.478981e-09
C0R690,墾丁,2025-03-26,21.966756,120.810269,0.9999867
C0F0D0,審馬陣,2025-03-26,24.381675,121.4203,5.3502372e-08
C2W030,金門農試所,2025-03-26,24.448431,118.451786,6.977396e-09
C0R820,白鷺,2025-03-26,22.454275,120.666219,6.704646e-09
U2H480,臺大溪頭,2025-03-26,23.670306,120.798194,6.4322934e-09
C1V190,南天池,2025-03-26,23.27403,120.91176,2.3888068e-08
K2E360,苗栗農改場,2025-03-26,24.495722,120.829111,3.0684118e-06
CAJ050,海口故事園區,2025-03-26,23.57543,120.14121,0.030529173
C2H9D0,三隻寮,2025-03-26,24.093078,120.861578,3.203289e-09
C0O990,媽廟,2025-03-26,22.99175,120.293525,1.3998485e-09
C0D480,打鐵坑,2025-03-26,24.849664,121.150789,5.790003e-07
C0Z220,和平林道,2025-03-26,24.343922,121.656317,1.4529832e-08
C0TA10,花蓮漁港,2025-03-26,23.995322,121.638331,8.023921e-09
72C440,桃園農改場,2025-03-26,24.950944,121.030583,0.9468261
C1E711,馬拉邦山,2025-03-26,24.367306,120.901656,7.708969e-09
C0SB20,富岡,2025-03-26,22.792467,121.192669,3.3935738e-08
C0D560,竹東,2025-03-26,24.767147,121.057881,7.460462e-07
C0F9U0,南屯,2025-03-26,24.137006,120.637969,1.7672749e-08
C0M720,番路,2025-03-26,23.464657,120.554156,1.4474697e-09
C0F0A0,雪山圈谷,2025-03-26,24.388594,121.236339,6.412391e-08
C1A9N0,四十份,2025-03-26,24.934158,121.593283,2.1397938e-08
C0U760,東澳,2025-03-26,24.52196,121.83318,8.168535e-09
C0X230,鹽水,2025-03-26,23.272621,120.247641,5.9246665e-09
C2H9H0,苗改南投蜂場,2025-03-26,23.852589,120.693481,1.1148119e-09
C0R950,萬隆國小,2025-03-26,22.507667,120.587817,3.8841005e-08
467540,大武,2025-03-26,22.35572,120.90374,7.2977158e-09
C0V370,古亭坑,2025-03-26,22.893178,120.401947,7.870916e-09
C1I340,新興橋,2025-03-26,23.563333,120.868728,3.4885432e-09
C0SA80,土坂,2025-03-26,22.453108,120.887572,7.0660287e-09
C0R160,鹽埔,2025-03-26,22.739558,120.530778,9.332902e-10
C0AC40,大屯山,2025-03-26,25.175675,121.522408,4.0327134e-08
466850,五分山雷達站,2025-03-26,25.071182,121.781205,1.41350025e-08
C2H9L0,馬烈霸,2025-03-26,24.1512,121.201772,2.5778418e-08
C1AI50,國三N016K,2025-03-26,25.034164,121.619664,0.062101983
C1V600,藤枝,2025-03-26,23.071961,120.757042,1.7697507e-08
C1E601,南勢,2025-03-26,24.572486,120.734842,0.96008074
C0Z180,新城,2025-03-26,24.03946,121.60454,8.096484e-09
C0O980,新市,2025-03-26,23.061614,120.298197,1.2408122e-09
C0K420,西螺,2025-03-26,23.800407,120.467394,2.6278029e-08
C0Z050,佳心,2025-03-26,23.34567,121.21316,2.8818139e-08
C0AD30,蘆洲,2025-03-26,25.086594,121.472331,0.11163475
C0V610,梓官,2025-03-26,22.760558,120.267211,1.0809812e-08
K2F750,種苗改良場,2025-03-26,24.225972,120.800917,4.786452e-09
C0UA80,大溪漁港,2025-03-26,24.941801,121.902955,8.813792e-06
C1AI60,國一39K邊坡,2025-03-26,25.064361,121.383836,7.330831e-07
C0W150,金寧,2025-03-26,24.457703,118.328989,6.9679533e-09
C0R960,內埔,2025-03-26,22.608483,120.570714,1.3054184e-07
V2C250,八德合作社,2025-03-26,24.93775,121.266389,0.10336618
C2H9S0,龍南,2025-03-26,23.953536,120.833183,4.6718656e-09
C0AH40,平等,2025-03-26,25.129142,121.577086,2.2743734e-08
C0R540,佳冬,2025-03-26,22.419456,120.552375,1.08821375e-07
466950,彭佳嶼,2025-03-26,25.627975,122.079744,0.99998915
C0A890,雙溪,2025-03-26,25.036003,121.864242,0.860105
C0C480,桃園,2025-03-26,24.992425,121.323172,0.028999858
C0AH50,林口,2025-03-26,25.072181,121.38084,5.390446e-07
A2K360,水試臺西試驗場,2025-03-26,23.717231,120.190522,0.40353578
B2N890,畜試所,2025-03-26,23.058972,120.336406,0.00019565492
C2M960,外寮,2025-03-26,23.562643,120.665688,5.3088316e-09
C0F9S0,烏日,2025-03-26,24.107058,120.624103,3.4738559e-09
C0C490,八德,2025-03-26,24.928708,121.283289,0.096429214
C0R190,赤山,2025-03-26,22.592333,120.614306,1.1963402e-07
C0T820,天祥,2025-03-26,24.179597,121.495639,1.2852919e-08
C1F9E1,龍安,2025-03-26,24.1605,120.831961,4.987747e-09
C0V820,小林,2025-03-26,23.148408,120.63325,1.0573405e-09
C2G870,芳苑,2025-03-26,23.922303,120.320025,0.00046662096
C0E850,大河,2025-03-26,24.618069,120.948578,2.1195772e-08
C1U670,寒溪,2025-03-26,24.634,121.71691,2.1439553e-07
C0N020,城西,2025-03-26,23.0568,120.0956,2.6169777e-09
C1Z110,三棧,2025-03-26,24.11557,121.60501,2.459048e-08
C0R280,檳榔,2025-03-26,22.076078,120.836777,0.9967008
C2H9J0,中台,2025-03-26,23.9996,120.938739,2.4871936e-09
C0F9L0,后里,2025-03-26,24.310436,120.729725,1.9558433e-09
467441,高雄,2025-03-26,22.730432,120.312516,9.889642e-09
C0D540,橫山,2025-03-26,24.71116,121.11693,5.1934077e-08
C1D420,太閣南,2025-03-26,24.632808,121.160575,2.995144e-08
C1E770,公館,2025-03-26,24.526914,120.830806,5.762191e-06
CAN130,水試所海水繁養殖中心,2025-03-26,23.120802,120.07968,9.247022e-09
C1I430,翠華,2025-03-26,24.191961,121.224339,3.0633892e-08
C1M400,菜瓜坪,2025-03-26,23.251928,120.576103,1.2248602e-09
C0G730,二林,2025-03-26,23.903325,120.376081,0.011128067
72M360,南改義竹分場,2025-03-26,23.360694,120.279361,4.117775e-09
V2K620,麥寮合作社,2025-03-26,23.753836,120.294783,0.00035095416
C0Z070,舞鶴,2025-03-26,23.46811,121.37407,1.1462933e-08
C0B040,大武崙,2025-03-26,25.166676,121.706993,0.8778746
C1Z030,紅葉,2025-03-26,23.493119,121.338806,1.1897509e-08
C1I050,丹大,2025-03-26,23.753747,121.141147,2.5587763e-08
C0I080,信義,2025-03-26,23.689694,120.851036,2.095178e-09
C2M920,朴子農改,2025-03-26,23.469889,120.259383,3.8194877e-08
C2A880,福隆,2025-03-26,25.017842,121.942083,0.00012137142
C0Z160,鳳林,2025-03-26,23.746114,121.453411,9.229225e-09
C0V210,復興,2025-03-26,23.222403,120.806089,2.2218094e-09
C0H990,昆陽,2025-03-26,24.121322,121.273642,4.2051646e-08
C0R741,獅子,2025-03-26,22.202308,120.705236,5.1260933e-08
C0S710,鹿野,2025-03-26,22.917711,121.122994,2.368834e-08
C0I530,小奇萊,2025-03-26,24.131764,121.295717,4.3457067e-08
C2K630,荷苞,2025-03-26,23.657717,120.595144,1.4668551e-09
C0Z080,富源,2025-03-26,23.587642,121.378225,1.6569995e-08
467441,高雄,2025-03-26,22.7304,120.3125,0.9986838
C0SB10,美和,2025-03-26,22.682078,121.060236,8.479481e-08
C2K620,馬光農場,2025-03-26,23.721453,120.378864,3.1758113e-08
C1I140,卡奈托灣,2025-03-26,23.754364,121.087872,1.2559133e-08
C0I520,玉山風口,2025-03-26,23.470489,120.955994,5.5008908e-08
C1G691,下水埔,2025-03-26,23.816114,120.5676,7.0394477e-09
C0X110,臺南市南區,2025-03-26,22.961189,120.188378,1.3996989e-09
C0V680,仁武,2025-03-26,22.701083,120.347722,1.904574e-08
C2G840,北斗,2025-03-26,23.877586,120.514222,3.3137244e-06
C0R900,竹坑,2025-03-26,22.1385,120.7022,2.5019455e-05
C0K250,崙背,2025-03-26,23.75555,120.318925,0.0003290749
C0G860,社頭,2025-03-26,23.897647,120.5862,3.8122096e-08
C0X150,安定,2025-03-26,23.102614,120.227839,1.7015557e-09
C0R590,里港,2025-03-26,22.77919,120.49459,9.164003e-10
C0E610,馬都安,2025-03-26,24.451272,120.930192,1.4902426e-08
C0E550,明德,2025-03-26,24.583486,120.885411,3.3465883e-06
C0R150,三地門,2025-03-26,22.709889,120.639944,8.827757e-10
C0G910,花壇,2025-03-26,24.032076,120.549461,2.986872e-07
C1D400,鳥嘴山,2025-03-26,24.71909,121.28387,1.5114026e-08
C0K500,元長,2025-03-26,23.64981,120.315024,6.5911205e-05
C0F0B0,石岡,2025-03-26,24.276061,120.777644,2.0374202e-09
C2V250,甲仙,2025-03-26,23.080106,120.591758,9.758901e-10
C0SA20,金崙山,2025-03-26,22.567419,120.959667,2.5976735e-08
C0V350,溪埔,2025-03-26,22.738578,120.446797,8.400336e-10
C0M660,溪口,2025-03-26,23.604131,120.403569,6.3399908e-09
C1S880,壽卡,2025-03-26,22.238911,120.858903,7.541228e-09
72D680,桃改新埔分場,2025-03-26,24.834444,121.066111,0.20254616
