站號,站名,日期,lat,lon,BlastGRU-TW
12J990,口湖工作站,2025-04-25,23.589978,120.180394,0.95562947
12Q970,東港工作站,2025-04-25,22.479997,120.466058,0.9547873
12Q980,恆春工作站,2025-04-25,22.079678,120.714425,0.6517858
466881,新北,2025-04-25,24.959207,121.525196,0.9317238
466900,淡水,2025-04-25,25.164889,121.448906,0.9705657
466920,臺北,2025-04-25,25.037658,121.514853,0.93562496
466940,基隆,2025-04-25,25.133314,121.740475,0.9677108
466990,花蓮,2025-04-25,23.975128,121.613275,0.7581461
467050,新屋,2025-04-25,25.006725,121.047492,0.8998733
467080,宜蘭,2025-04-25,24.763975,121.756528,0.8077653
467270,田中,2025-04-25,23.873803,120.581286,0.9707978
467280,後龍,2025-04-25,24.648563,120.831834,0.9799721
467290,古坑,2025-04-25,23.633639,120.551889,0.9759689
467300,東吉島,2025-04-25,23.25727,119.66762,0.9430593
467350,澎湖,2025-04-25,23.565503,119.563094,0.8899257
467410,臺南,2025-04-25,22.99328,120.20492,0.9172938
467420,永康,2025-04-25,23.038386,120.2367,0.8341657
467441,高雄,2025-04-25,22.730432,120.312516,0.92458147
467480,嘉義,2025-04-25,23.495925,120.432906,0.9758226
467490,臺中,2025-04-25,24.145736,120.684075,0.98289585
467540,大武,2025-04-25,22.35572,120.90374,0.94273865
467571,新竹,2025-04-25,24.827853,121.014219,0.9617153
467590,恆春,2025-04-25,22.003897,120.746339,0.9233144
467610,成功,2025-04-25,23.097486,121.373428,0.79296863
467620,蘭嶼,2025-04-25,22.0369,121.55843,0.13723531
467660,臺東,2025-04-25,22.752211,121.154586,0.91518897
467790,墾丁雷達站,2025-04-25,21.948235,120.808028,0.9076572
72AI40,桃改樹林分場,2025-04-25,24.944503,121.386972,0.9647393
72C440,桃園農改場,2025-04-25,24.950944,121.030583,0.93840927
72D680,桃改新埔分場,2025-04-25,24.834444,121.066111,0.9548082
72G600,臺中農改場,2025-04-25,24.003028,120.534389,0.97142416
72K220,南改斗南分場,2025-04-25,23.634556,120.477333,0.9772189
72M360,南改義竹分場,2025-04-25,23.360694,120.279361,0.8823152
72M700,南改鹿草分場,2025-04-25,23.416869,120.283061,0.95322293
72N100,臺南農改場,2025-04-25,23.0605,120.342194,0.8983031
72N240,七股研究中心,2025-04-25,23.081672,120.062894,0.8818614
72Q010,高雄農改場,2025-04-25,22.709333,120.525889,0.96207744
72S200,東改班鳩分場,2025-04-25,22.829528,121.077694,0.66443354
72S590,東改賓朗果園,2025-04-25,22.813889,121.071278,0.5929785
72T250,花蓮農改場,2025-04-25,23.975222,121.563889,0.72415817
72U480,花改蘭陽分場,2025-04-25,24.686306,121.716583,0.78358346
72V140,高改旗南分場,2025-04-25,22.857861,120.516667,0.9603993
82A750,茶改北部分場,2025-04-25,24.955778,121.631222,0.81812286
82C160,茶改場,2025-04-25,24.908472,121.185333,0.87213224
82H840,茶改南部分場,2025-04-25,23.762528,120.7405,0.89862394
82S580,茶改東部分場,2025-04-25,22.907694,121.130139,0.7400349
A2C560,農工中心,2025-04-25,24.985917,121.239833,0.8925163
A2K360,水試臺西試驗場,2025-04-25,23.717231,120.190522,0.97690547
A2K570,古坑花卉中心,2025-04-25,23.63353,120.55239,0.9759689
A2K630,臺大雲林校區,2025-04-25,23.730628,120.423903,0.9715522
A2N290,臺南蘭花園區,2025-04-25,23.340258,120.379661,0.88706756
B2E890,畜試北區分所,2025-04-25,24.527806,120.770972,0.97640747
B2N890,畜產試驗所,2025-04-25,23.058972,120.336406,0.89849555
B2Q810,畜試南區分所,2025-04-25,21.945583,120.802167,0.900601
B2U990,畜試東區分所,2025-04-25,24.669039,121.832561,0.8235573
C0A520,山佳,2025-04-25,24.974944,121.402008,0.9333258
C0A530,坪林,2025-04-25,24.938183,121.70975,0.82887226
C0A550,泰平,2025-04-25,24.971197,121.823711,0.85773456
C0A570,桶後,2025-04-25,24.848222,121.597992,0.7159641
C0A640,石碇,2025-04-25,24.993969,121.662917,0.86714995
C0A770,科教館,2025-04-25,25.096356,121.516507,0.9388696
C0A860,大坪,2025-04-25,25.165914,121.632969,0.77636325
C0A890,雙溪,2025-04-25,25.036003,121.864242,0.9829885
C0A931,三和,2025-04-25,25.233153,121.595236,0.934495
C0A940,金山,2025-04-25,25.223628,121.643967,0.9740486
C0A950,鼻頭角,2025-04-25,25.129036,121.923372,0.983165
C0A970,三貂角,2025-04-25,25.007606,122.002058,0.97520065
C0A980,社子,2025-04-25,25.109508,121.469681,0.97104955
C0A9C0,天母,2025-04-25,25.117494,121.537169,0.9596634
C0A9F0,內湖,2025-04-25,25.079422,121.57545,0.93562496
C0AC60,三峽,2025-04-25,24.939025,121.369728,0.9608479
C0AC70,信義,2025-04-25,25.037822,121.564597,0.93562496
C0AC80,文山,2025-04-25,25.00235,121.575728,0.92111605
C0ACA0,新莊,2025-04-25,25.051478,121.446756,0.9390935
C0AD10,八里,2025-04-25,25.150211,121.403947,0.971234
C0AD30,蘆洲,2025-04-25,25.086594,121.472331,0.938459
C0AD40,土城,2025-04-25,24.973208,121.445169,0.94013035
C0AD50,鶯歌,2025-04-25,24.951533,121.346294,0.95277786
C0AG80,中和,2025-04-25,24.991622,121.491792,0.94013035
C0AH00,汐止,2025-04-25,25.066881,121.658778,0.93562496
C0AH10,永和,2025-04-25,25.01125,121.508111,0.94395286
C0AH40,平等,2025-04-25,25.129142,121.577086,0.7330073
C0AH50,林口,2025-04-25,25.072181,121.38084,0.66197115
C0AH70,松山,2025-04-25,25.04871,121.55042,0.93562496
C0AH80,深坑,2025-04-25,25.002703,121.628328,0.9215521
C0AI00,五股,2025-04-25,25.07445,121.42728,0.7675791
C0AI10,屈尺,2025-04-25,24.92184,121.54475,0.96630824
C0AI20,白沙灣,2025-04-25,25.283128,121.519058,0.97801113
C0AI30,三重,2025-04-25,25.057328,121.500629,0.93907094
C0AI40,石牌,2025-04-25,25.115597,121.513139,0.9608896
C0AJ20,野柳,2025-04-25,25.20703,121.690021,0.9740941
C0AJ30,淡水觀海,2025-04-25,25.184591,121.408616,0.9729158
C0AJ40,石門,2025-04-25,25.273672,121.601198,0.97088206
C0AJ50,水湳洞,2025-04-25,25.123695,121.862238,0.96670264
C0AJ60,六塊厝,2025-04-25,25.24,121.4481,0.978376
C0AJ70,田寮,2025-04-25,25.2698,121.4886,0.9781908
C0AJ80,板橋,2025-04-25,25.0107,121.4489,0.94395286
C0AJ90,澳底,2025-04-25,25.0552,121.9253,0.98362815
C0AK10,太平里,2025-04-25,25.134937,121.364899,0.9710358
C0B010,七堵,2025-04-25,25.094819,121.71713,0.94992846
C0B020,基隆嶼,2025-04-25,25.19141,121.78391,0.96189183
C0B040,大武崙,2025-04-25,25.166676,121.706993,0.96378756
C0B050,八斗子,2025-04-25,25.144754,121.79167,0.96859306
C0B060,暖暖,2025-04-25,25.0957,121.7403,0.9332242
C0C460,復興,2025-04-25,24.820208,121.352281,0.71949124
C0C480,桃園,2025-04-25,24.992425,121.323172,0.87160647
C0C490,八德,2025-04-25,24.928708,121.283289,0.9081709
C0C590,觀音,2025-04-25,25.027072,121.153317,0.9215551
C0C620,蘆竹,2025-04-25,25.084275,121.265767,0.87787086
C0C630,大溪,2025-04-25,24.882853,121.265547,0.9098942
C0C650,平鎮,2025-04-25,24.897503,121.214636,0.8742019
C0C660,楊梅,2025-04-25,24.912375,121.143047,0.9138217
C0C670,龍潭,2025-04-25,24.870056,121.221389,0.8809109
C0C680,龜山,2025-04-25,25.02846,121.38656,0.64999604
C0C700,中壢,2025-04-25,24.977661,121.256375,0.83242273
C0C710,大溪永福,2025-04-25,24.892936,121.324975,0.9303762
C0C720,竹圍,2025-04-25,25.112692,121.239824,0.9725441
C0C730,中大臨海站,2025-04-25,24.966126,121.008581,0.90804577
C0C740,觀音工業區,2025-04-25,25.064764,121.114856,0.9272167
C0C750,新興坑尾,2025-04-25,25.0061,121.0971,0.89786655
C0D430,峨眉,2025-04-25,24.6905,121.017189,0.932145
C0D480,打鐵坑,2025-04-25,24.849664,121.150789,0.87839717
C0D540,橫山,2025-04-25,24.71116,121.11693,0.8787313
C0D560,竹東,2025-04-25,24.767147,121.057881,0.9101599
C0D580,寶山,2025-04-25,24.735006,121.025192,0.9208568
C0D590,新豐,2025-04-25,24.87068,120.97721,0.9662879
C0D650,湖口,2025-04-25,24.904794,121.043628,0.9434948
C0D660,新竹市東區,2025-04-25,24.798681,120.986942,0.9507975
C0D670,海天一線,2025-04-25,24.831986,120.914438,0.97366
C0D680,香山濕地,2025-04-25,24.783581,120.914988,0.96163833
C0D690,外湖,2025-04-25,24.917735,120.968711,0.95684195
C0D700,關西,2025-04-25,24.7977,121.1732,0.90837985
C0E420,竹南,2025-04-25,24.708978,120.888897,0.97002393
C0E430,南庄,2025-04-25,24.601775,121.000214,0.9681862
C0E550,明德,2025-04-25,24.583486,120.885411,0.97953576
C0E570,白沙屯,2025-04-25,24.549447,120.696803,0.9840684
C0E590,通霄,2025-04-25,24.471892,120.704622,0.98938227
C0E730,頭份,2025-04-25,24.688247,120.912206,0.97088563
C0E740,造橋,2025-04-25,24.637056,120.864778,0.98077667
C0E750,苗栗,2025-04-25,24.564569,120.824575,0.98070765
C0E780,銅鑼,2025-04-25,24.489681,120.790853,0.9716479
C0E791,卓蘭,2025-04-25,24.3126,120.8244,0.96746737
C0E810,西湖,2025-04-25,24.562947,120.7485,0.9800277
C0E820,獅潭,2025-04-25,24.539133,120.920042,0.96944225
C0E830,苑裡,2025-04-25,24.439714,120.653053,0.9825693
C0E850,大河,2025-04-25,24.618069,120.948578,0.9727669
C0E870,高鐵苗栗,2025-04-25,24.60725,120.826094,0.9806779
C0E910,海埔,2025-04-25,24.648767,120.772435,0.9801341
C0E920,通霄漁港,2025-04-25,24.498589,120.673876,0.9900021
C0E930,龍鳳,2025-04-25,24.700034,120.859125,0.9738743
C0F0B0,石岡,2025-04-25,24.276061,120.777644,0.9695203
C0F850,東勢,2025-04-25,24.246428,120.833047,0.96112657
C0F970,大坑,2025-04-25,24.173142,120.722289,0.9843546
C0F9I0,神岡,2025-04-25,24.272481,120.658314,0.97097844
C0F9K0,大安,2025-04-25,24.345061,120.588025,0.9824801
C0F9L0,后里,2025-04-25,24.310436,120.729725,0.9730053
C0F9M0,豐原,2025-04-25,24.254322,120.720692,0.9749442
C0F9N0,大里,2025-04-25,24.092464,120.701378,0.97799635
C0F9O0,潭子,2025-04-25,24.213106,120.703933,0.9794446
C0F9P0,清水,2025-04-25,24.312297,120.562242,0.9731517
C0F9Q0,外埔,2025-04-25,24.347817,120.705686,0.9727869
C0F9R0,龍井,2025-04-25,24.184536,120.528972,0.96295124
C0F9S0,烏日,2025-04-25,24.107058,120.624103,0.9751222
C0F9T0,西屯,2025-04-25,24.179494,120.641275,0.978791
C0F9U0,南屯,2025-04-25,24.137006,120.637969,0.9780928
C0F9X0,大雅(中科園區),2025-04-25,24.21528,120.62445,0.965125
C0FA10,松柏,2025-04-25,24.429115,120.617482,0.9841304
C0FA20,溫寮,2025-04-25,24.372177,120.583125,0.9833836
C0FA30,梧棲,2025-04-25,24.256003,120.523381,0.9731517
C0FA40,臺中電廠,2025-04-25,24.2146,120.4907,0.96558064
C0FA50,霧峰,2025-04-25,24.0419,120.6995,0.9769543
C0FB70,大甲溪埔,2025-04-25,24.370625,120.620067,0.98196286
C0G620,芬園,2025-04-25,24.015678,120.6213,0.97638774
C0G650,員林,2025-04-25,23.946503,120.585597,0.9742946
C0G660,溪湖,2025-04-25,23.94835,120.479122,0.97397435
C0G720,溪州,2025-04-25,23.851589,120.499093,0.97148484
C0G730,二林,2025-04-25,23.903325,120.376081,0.9691206
C0G740,大城,2025-04-25,23.852487,120.320935,0.98583555
C0G770,福興,2025-04-25,24.041289,120.437669,0.94916254
C0G780,秀水,2025-04-25,24.03405,120.503869,0.9713411
C0G800,埔鹽,2025-04-25,24.000394,120.431683,0.9491813
C0G810,埔心,2025-04-25,23.947633,120.525456,0.9739496
C0G820,田尾,2025-04-25,23.901669,120.509389,0.97457856
C0G830,埤頭,2025-04-25,23.866003,120.452806,0.97147125
C0G860,社頭,2025-04-25,23.897647,120.5862,0.97059757
C0G880,二水,2025-04-25,23.810742,120.6173,0.95610553
C0G890,伸港,2025-04-25,24.148933,120.484403,0.95825094
C0G900,線西,2025-04-25,24.143358,120.443536,0.9581632
C0G910,花壇,2025-04-25,24.032076,120.549461,0.97228354
C0G920,永靖,2025-04-25,23.924703,120.547533,0.97457856
C0G940,竹塘,2025-04-25,23.848253,120.386764,0.9728481
C0G950,防潮門,2025-04-25,24.1835,120.4871,0.96295124
C0G960,福寶,2025-04-25,24.0443,120.3814,0.95926577
C0G970,三豐,2025-04-25,23.882,120.2895,0.9866017
C0G9B0,和美,2025-04-25,24.105169,120.492131,0.9594077
C0H890,埔里,2025-04-25,23.972169,120.952425,0.90063
C0H960,草屯,2025-04-25,23.973672,120.68085,0.9762082
C0I110,竹山,2025-04-25,23.761225,120.688156,0.9503915
C0I360,水里,2025-04-25,23.812553,120.849792,0.9389257
C0I380,集集,2025-04-25,23.828206,120.801467,0.9403519
C0I410,名間,2025-04-25,23.837053,120.701447,0.9557443
C0I420,國姓,2025-04-25,24.037803,120.855072,0.94251996
C0I460,南投,2025-04-25,23.911469,120.687331,0.96408427
C0K250,崙背,2025-04-25,23.75555,120.318925,0.97517943
C0K280,四湖,2025-04-25,23.630414,120.227125,0.953941
C0K291,宜梧,2025-04-25,23.536281,120.169329,0.92772627
C0K330,虎尾,2025-04-25,23.719183,120.442036,0.972228
C0K390,土庫,2025-04-25,23.679029,120.395574,0.97515583
C0K400,斗六,2025-04-25,23.720583,120.541127,0.97124887
C0K410,北港,2025-04-25,23.573957,120.292802,0.9567229
C0K420,西螺,2025-04-25,23.800407,120.467394,0.96935713
C0K430,褒忠,2025-04-25,23.690938,120.303634,0.9761722
C0K440,二崙,2025-04-25,23.772797,120.408944,0.9690022
C0K450,大埤,2025-04-25,23.646074,120.431537,0.97596335
C0K460,斗南,2025-04-25,23.678734,120.478359,0.9772189
C0K470,林內,2025-04-25,23.748675,120.609642,0.9673683
C0K480,莿桐,2025-04-25,23.761192,120.502372,0.97124624
C0K500,元長,2025-04-25,23.64981,120.315024,0.9569989
C0K510,水林,2025-04-25,23.572924,120.24597,0.9564076
C0K530,臺西,2025-04-25,23.701547,120.197559,0.97669685
C0K550,蔦松,2025-04-25,23.514319,120.229736,0.92772627
C0K560,棋山,2025-04-25,23.68645,120.603417,0.97620124
C0K580,高鐵雲林,2025-04-25,23.737456,120.417944,0.9715522
C0K590,雲林東勢,2025-04-25,23.674192,120.255721,0.95688
C0K600,箔子寮,2025-04-25,23.6197,120.14,0.95562947
C0M520,東後寮,2025-04-25,23.369908,120.248065,0.88287324
C0M640,中埔,2025-04-25,23.42538,120.5229,0.970163
C0M650,朴子,2025-04-25,23.43463,120.23902,0.9531987
C0M660,溪口,2025-04-25,23.604131,120.403569,0.96665287
C0M670,大林,2025-04-25,23.600616,120.45841,0.9688693
C0M680,太保,2025-04-25,23.455062,120.331455,0.95355684
C0M690,水上,2025-04-25,23.419734,120.388909,0.9484304
C0M700,竹崎,2025-04-25,23.526178,120.555508,0.960002
C0M710,東石,2025-04-25,23.458927,120.15385,0.90011686
C0M720,番路,2025-04-25,23.464657,120.554156,0.97143936
C0M730,嘉義市東區,2025-04-25,23.457673,120.460531,0.96670413
C0M740,六腳,2025-04-25,23.492871,120.290625,0.9723177
C0M750,布袋,2025-04-25,23.380878,120.167789,0.8885025
C0M760,民雄,2025-04-25,23.551754,120.428457,0.9679437
C0M770,嘉義梅山,2025-04-25,23.585398,120.555587,0.97131366
C0M780,鹿草,2025-04-25,23.41134,120.30835,0.9536533
C0M790,新港,2025-04-25,23.553269,120.345728,0.97074896
C0M800,茶山,2025-04-25,23.299075,120.664767,0.96422106
C0M880,好美里,2025-04-25,23.3364,120.138,0.9143049
C0N010,鯤鯓國小,2025-04-25,23.1879,120.0889,0.89620435
C0N020,城西,2025-04-25,23.0568,120.0956,0.91736573
C0N030,四草,2025-04-25,23.0235,120.1116,0.9166318
C0N040,蘆竹溝,2025-04-25,23.2344,120.0961,0.9344471
C0N050,蚵寮,2025-04-25,23.301,120.1104,0.91218066
C0O830,北寮,2025-04-25,23.079561,120.495008,0.9568576
C0O840,王爺宮,2025-04-25,23.222064,120.40085,0.9574883
C0O860,大內,2025-04-25,23.11885,120.36083,0.89986825
C0O900,善化,2025-04-25,23.112883,120.297219,0.89089984
C0O960,崎頂,2025-04-25,22.959547,120.369317,0.92274135
C0O970,虎頭埤,2025-04-25,23.021375,120.347878,0.8928597
C0O980,新市,2025-04-25,23.061614,120.298197,0.89725256
C0O990,媽廟,2025-04-25,22.99175,120.293525,0.84159213
C0R150,三地門,2025-04-25,22.709889,120.639944,0.9637841
C0R160,鹽埔,2025-04-25,22.739558,120.530778,0.96207744
C0R190,赤山,2025-04-25,22.592333,120.614306,0.97104186
C0R220,潮州,2025-04-25,22.534361,120.54,0.9491264
C0R240,來義,2025-04-25,22.527306,120.625111,0.955452
C0R260,春日,2025-04-25,22.370361,120.628306,0.91494083
C0R270,琉球嶼,2025-04-25,22.332244,120.362236,0.95289224
C0R280,檳榔,2025-04-25,22.076078,120.836777,0.92081213
C0R320,車城,2025-04-25,22.0744,120.716247,0.6517858
C0R341,牡丹,2025-04-25,22.130036,120.792639,0.92270315
C0R350,貓鼻頭,2025-04-25,21.921774,120.7358,0.39558628
C0R470,高樹,2025-04-25,22.826389,120.600806,0.9419526
C0R480,長治,2025-04-25,22.693128,120.542622,0.94170076
C0R490,九如,2025-04-25,22.7405,120.490503,0.9619443
C0R520,崁頂,2025-04-25,22.514781,120.506914,0.9478786
C0R540,佳冬,2025-04-25,22.419456,120.552375,0.9126055
C0R550,新埤,2025-04-25,22.467947,120.582894,0.9574173
C0R560,新園,2025-04-25,22.5434,120.461558,0.9681479
C0R570,麟洛,2025-04-25,22.65078,120.52719,0.955792
C0R580,南州,2025-04-25,22.48591,120.50274,0.9547873
C0R590,里港,2025-04-25,22.77919,120.49459,0.95446223
C0R620,墾雷,2025-04-25,21.900836,120.855269,0.8635184
C0R640,東港,2025-04-25,22.46247,120.44074,0.9547873
C0R650,竹田,2025-04-25,22.58486,120.54344,0.96862775
C0R660,枋寮,2025-04-25,22.367722,120.590647,0.9126091
C0R670,楓港,2025-04-25,22.190131,120.692156,0.8777427
C0R680,佳樂水,2025-04-25,21.993578,120.861633,0.9022329
C0R690,墾丁,2025-04-25,21.966756,120.810269,0.84407115
C0R700,枋山,2025-04-25,22.246844,120.661086,0.8102651
C0R710,龍磐,2025-04-25,21.931672,120.838942,0.8264983
C0R720,旭海,2025-04-25,22.205403,120.887614,0.9690134
C0R730,大坪頂,2025-04-25,22.024633,120.69355,0.6453707
C0R741,獅子,2025-04-25,22.202308,120.705236,0.9522392
C0R760,南仁湖,2025-04-25,22.084681,120.863353,0.8787028
C0R770,保力,2025-04-25,22.071122,120.764111,0.71968746
C0R780,滿州,2025-04-25,22.024403,120.839892,0.9273814
C0R790,九棚,2025-04-25,22.14195,120.889281,0.9259433
C0R800,丹路,2025-04-25,22.204481,120.750989,0.9647531
C0R810,內獅,2025-04-25,22.305064,120.642986,0.8963891
C0R830,高士,2025-04-25,22.121825,120.836781,0.8013724
C0R850,林邊,2025-04-25,22.4634,120.5339,0.9553937
C0R860,鼻頭,2025-04-25,22.1043,120.8979,0.9002021
C0R870,興海,2025-04-25,21.9752,120.8439,0.900601
C0R880,後壁湖,2025-04-25,21.9457,120.7457,0.44457492
C0R890,山海,2025-04-25,21.9878,120.7091,0.44592905
C0R900,竹坑,2025-04-25,22.1385,120.7022,0.653149
C0R910,下寮,2025-04-25,22.3929,120.5548,0.9126091
C0R920,塭仔,2025-04-25,22.4169,120.5197,0.91160315
C0R930,萬丹,2025-04-25,22.5885,120.4851,0.96922284
C0R940,加祿堂,2025-04-25,22.3363,120.6217,0.8930733
C0R950,萬隆國小,2025-04-25,22.507667,120.587817,0.9531754
C0R960,內埔,2025-04-25,22.608483,120.570714,0.9686939
C0S710,鹿野,2025-04-25,22.917711,121.122994,0.38392946
C0S730,綠島,2025-04-25,22.6672,121.47533,0.250057
C0S740,池上,2025-04-25,23.119628,121.209469,0.54295546
C0S770,大溪山,2025-04-25,22.478475,120.943325,0.88512033
C0S790,金崙,2025-04-25,22.538122,120.966875,0.9632563
C0S810,東河,2025-04-25,22.972672,121.303986,0.7850901
C0S830,長濱,2025-04-25,23.286817,121.411975,0.75204146
C0S840,南田,2025-04-25,22.279725,120.889208,0.9470985
C0S890,關山,2025-04-25,23.0395,121.175017,0.77039194
C0S900,蘭嶼高中,2025-04-25,22.04909,121.51214,0.46114197
C0S910,蘭嶼燈塔,2025-04-25,22.081197,121.503117,0.61198455
C0S920,金峰嘉蘭,2025-04-25,22.594789,120.960825,0.93828225
C0S930,延平,2025-04-25,22.902581,121.084058,0.6713116
C0S940,石寧山,2025-04-25,23.223772,121.406639,0.84499145
C0S950,七塊厝,2025-04-25,22.954453,121.229922,0.34056568
C0S960,香蘭,2025-04-25,22.587569,120.993375,0.89998305
C0S970,加津林,2025-04-25,22.416211,120.926942,0.9484124
C0S990,山豬窟,2025-04-25,22.318619,120.857372,0.90664816
C0SA00,歷坵,2025-04-25,22.520969,120.89185,0.83138144
C0SA10,檳榔四格山,2025-04-25,22.810031,121.109308,0.5361589
C0SA30,都歷,2025-04-25,23.020333,121.323642,0.8710989
C0SA40,瑞和,2025-04-25,22.974361,121.156697,0.6583012
C0SA60,知本（水試所）,2025-04-25,22.702394,121.082761,0.90541244
C0SA80,土坂,2025-04-25,22.453108,120.887572,0.9654831
C0SA90,達仁林場,2025-04-25,22.264347,120.823972,0.52743495
C0SB10,美和,2025-04-25,22.682078,121.060236,0.9061014
C0SB20,富岡,2025-04-25,22.792467,121.192669,0.89559066
C0SB30,新蘭,2025-04-25,22.869214,121.223228,0.87002414
C0SB40,興隆,2025-04-25,22.913661,121.257469,0.8597972
C0SB50,叭嗡嗡,2025-04-25,23.047062,121.343223,0.899248
C0SB60,白守蓮,2025-04-25,23.126769,121.401914,0.81000274
C0SB70,小港漁港,2025-04-25,23.158558,121.400431,0.85896504
C0SB80,長濱漁港,2025-04-25,23.313644,121.459994,0.939162
C0T870,鯉魚潭,2025-04-25,23.935639,121.508944,0.7071789
C0T900,西林,2025-04-25,23.8119,121.441458,0.5541512
C0T960,光復,2025-04-25,23.660694,121.424964,0.7584464
C0T9A0,月眉山,2025-04-25,23.809928,121.539828,0.13976036
C0T9D0,和中,2025-04-25,24.26676,121.74103,0.90940005
C0T9E0,大坑,2025-04-25,23.880628,121.581981,0.23452125
C0T9F0,水璉,2025-04-25,23.797131,121.542514,0.416263
C0T9I0,豐濱,2025-04-25,23.583897,121.514806,0.7972116
C0T9M0,靜浦,2025-04-25,23.455167,121.495028,0.86214733
C0T9N0,富里,2025-04-25,23.171639,121.249378,0.76558805
C0TA10,花蓮漁港,2025-04-25,23.995322,121.638331,0.77877665
C0TA20,加灣,2025-04-25,24.082025,121.608944,0.47959587
C0TA30,鹽寮,2025-04-25,23.845606,121.592664,0.7833814
C0U600,礁溪,2025-04-25,24.817539,121.765608,0.89372045
C0U650,玉蘭,2025-04-25,24.675286,121.587061,0.45620975
C0U750,龜山島,2025-04-25,24.841667,121.953133,0.8887203
C0U760,東澳,2025-04-25,24.52196,121.83318,0.85377425
C0U770,南澳,2025-04-25,24.44935,121.81022,0.53071666
C0U780,五結,2025-04-25,24.68637,121.79794,0.7957391
C0U860,頭城,2025-04-25,24.85323,121.8308,0.89739704
C0U870,大礁溪,2025-04-25,24.791042,121.675047,0.2749788
C0U880,北關,2025-04-25,24.9072,121.8734,0.96725535
C0U890,三星,2025-04-25,24.66812,121.65302,0.8923624
C0U900,內城,2025-04-25,24.71813,121.68766,0.7747938
C0U910,冬山,2025-04-25,24.63373,121.7937,0.8235573
C0U940,羅東,2025-04-25,24.68184,121.74934,0.78752774
C0U970,大福,2025-04-25,24.80064,121.81389,0.8130992
C0U990,員山,2025-04-25,24.74435,121.72247,0.7922121
C0UA00,土場,2025-04-25,24.576533,121.495333,0.8800829
C0UA80,大溪漁港,2025-04-25,24.941801,121.902955,0.9725561
C0UA90,石城,2025-04-25,24.980444,121.951214,0.97764796
C0UB00,淡江大學蘭陽校園,2025-04-25,24.823239,121.730383,0.6601941
C0UB10,蘇澳,2025-04-25,24.5969,121.8571,0.90138763
C0UB20,壯圍,2025-04-25,24.7359,121.8163,0.79542756
C0V350,溪埔,2025-04-25,22.738578,120.446797,0.94190115
C0V360,內門,2025-04-25,22.975481,120.466769,0.96292794
C0V370,古亭坑,2025-04-25,22.893178,120.401947,0.9675139
C0V400,阿公店,2025-04-25,22.804194,120.355528,0.9708054
C0V440,鳳山,2025-04-25,22.646653,120.356122,0.9156541
C0V450,鳳森,2025-04-25,22.545064,120.392592,0.9716973
C0V490,新興,2025-04-25,22.627422,120.298803,0.9404933
C0V530,阿蓮,2025-04-25,22.883208,120.327508,0.8820037
C0V610,梓官,2025-04-25,22.760558,120.267211,0.92483944
C0V620,永安,2025-04-25,22.82315,120.236856,0.9242815
C0V630,茄萣,2025-04-25,22.906642,120.182608,0.8968674
C0V640,湖內,2025-04-25,22.887139,120.2445,0.8964693
C0V650,彌陀,2025-04-25,22.783806,120.246361,0.92380714
C0V660,岡山,2025-04-25,22.797078,120.294958,0.92380714
C0V680,仁武,2025-04-25,22.701083,120.347722,0.90802896
C0V690,鼓山,2025-04-25,22.623325,120.275575,0.9404933
C0V700,三民,2025-04-25,22.645017,120.311233,0.9072018
C0V710,苓雅,2025-04-25,22.622742,120.330669,0.94331056
C0V720,林園,2025-04-25,22.507747,120.394511,0.9689261
C0V730,大寮,2025-04-25,22.605614,120.395717,0.9448152
C0V740,旗山,2025-04-25,22.888614,120.483597,0.96129125
C0V750,路竹,2025-04-25,22.854997,120.259439,0.89696777
C0V760,橋頭,2025-04-25,22.757806,120.30575,0.92483944
C0V770,大社,2025-04-25,22.730306,120.346639,0.92458147
C0V790,萬山,2025-04-25,22.905944,120.688056,0.97646433
C0V800,六龜,2025-04-25,22.997889,120.633583,0.9748467
C0V810,左營,2025-04-25,22.67491,120.28491,0.9072018
C0V820,小林,2025-04-25,23.148408,120.63325,0.9517412
C0V840,鳳鼻頭,2025-04-25,22.5083,120.3591,0.96707624
C0V850,蚵仔寮,2025-04-25,22.7256,120.2527,0.9221906
C0V860,南寮,2025-04-25,22.7616,120.2339,0.9221906
C0V870,文安,2025-04-25,22.8025,120.2164,0.9214748
C0V880,興達,2025-04-25,22.8778,120.2127,0.8958954
C0V890,前鎮,2025-04-25,22.5718,120.3117,0.93884546
C0V900,汕尾,2025-04-25,22.4782,120.4151,0.9547873
C0V910,大樹,2025-04-25,22.684645,120.432803,0.9422294
C0W200,湖西,2025-04-25,23.596314,119.67275,0.9158471
C0X050,東河,2025-04-25,23.296598,120.385608,0.96114194
C0X060,下營,2025-04-25,23.22695,120.256261,0.9438952
C0X080,佳里,2025-04-25,23.173039,120.145086,0.89620435
C0X100,臺南市北區,2025-04-25,23.010394,120.194228,0.91689396
C0X110,臺南市南區,2025-04-25,22.961189,120.188378,0.8980936
C0X120,麻豆,2025-04-25,23.183289,120.248611,0.9424051
C0X130,官田,2025-04-25,23.193217,120.315422,0.9559145
C0X140,西港,2025-04-25,23.125608,120.203108,0.8976489
C0X150,安定,2025-04-25,23.102614,120.227839,0.8976489
C0X160,仁德,2025-04-25,22.968258,120.257689,0.89791626
C0X170,關廟,2025-04-25,22.963017,120.327797,0.9012325
C0X180,山上,2025-04-25,23.0757,120.363253,0.93126583
C0X190,安平,2025-04-25,22.993161,120.152181,0.91689396
C0X200,左鎮,2025-04-25,23.056758,120.408522,0.89034045
C0X210,白河,2025-04-25,23.347466,120.414427,0.956412
C0X220,學甲,2025-04-25,23.230367,120.182187,0.9338227
C0X230,鹽水,2025-04-25,23.272621,120.247641,0.9114531
C0X240,關子嶺,2025-04-25,23.331169,120.508025,0.84699714
C0X250,新營,2025-04-25,23.310689,120.316681,0.92429787
C0X260,後壁,2025-04-25,23.366358,120.362326,0.88706756
C0X280,將軍,2025-04-25,23.214999,120.13577,0.9344471
C0X290,北門,2025-04-25,23.267772,120.125481,0.9344471
C0X300,鹿寮,2025-04-25,23.386047,120.477331,0.95831364
C0X320,柳營,2025-04-25,23.253328,120.375253,0.9634402
C0Z020,明里,2025-04-25,23.208717,121.262342,0.7703303
C0Z061,玉里,2025-04-25,23.3215,121.339656,0.883661
C0Z070,舞鶴,2025-04-25,23.46811,121.37407,0.60024256
C0Z080,富源,2025-04-25,23.587642,121.378225,0.7281541
C0Z100,東華,2025-04-25,23.89525,121.549833,0.7580613
C0Z150,吉安光華,2025-04-25,23.930925,121.595153,0.83698183
C0Z160,鳳林,2025-04-25,23.746114,121.453411,0.8672727
C0Z170,卓溪,2025-04-25,23.3443,121.3029,0.75123465
C0Z180,新城,2025-04-25,24.040486,121.604878,0.74694616
C0Z190,富世,2025-04-25,24.14743,121.6297,0.4765704
C0Z200,萬榮,2025-04-25,23.709219,121.420106,0.83293915
C0Z210,瑞穗,2025-04-25,23.5239,121.39021,0.80143285
C0Z230,和平,2025-04-25,24.30717,121.77007,0.9119605
C0Z270,蕃薯寮,2025-04-25,23.73835,121.540108,0.5991065
C0Z280,德武,2025-04-25,23.47426,121.41071,0.6906668
C0Z300,東里,2025-04-25,23.26853,121.30547,0.8201326
C0Z310,清水斷崖,2025-04-25,24.218294,121.689142,0.22730768
C0Z330,安通山,2025-04-25,23.290728,121.348528,0.46950775
C2A540,四堵,2025-04-25,24.8926,121.745736,0.7896849
C2A560,福山,2025-04-25,24.776203,121.502811,0.6822729
C2A650,火燒寮,2025-04-25,25.002719,121.742892,0.9013804
C2A660,瑞芳,2025-04-25,25.113169,121.801147,0.9518889
C2A880,福隆,2025-04-25,25.017842,121.942083,0.97744346
C2A920,富貴角,2025-04-25,25.263783,121.565258,0.9636393
C2C410,中央大學,2025-04-25,24.967652,121.185165,0.84574443
C2D720,關西工作站,2025-04-25,24.757275,121.184792,0.8946368
C2D730,寶山農場,2025-04-25,24.732444,120.976153,0.9328206
C2E520,大湖,2025-04-25,24.414939,120.870872,0.9546897
C2E540,龍溪,2025-04-25,24.606489,120.783933,0.97952294
C2E970,八甲,2025-04-25,24.535811,120.795983,0.97515744
C2F000,大肚,2025-04-25,24.15295,120.572117,0.97312325
C2F930,大甲,2025-04-25,24.347667,120.640403,0.97754204
C2F9A0,中竹林,2025-04-25,24.103556,120.751061,0.932231
C2G640,鹿港,2025-04-25,24.0753,120.430481,0.95926577
C2G840,北斗,2025-04-25,23.877586,120.514222,0.9715361
C2G870,芳苑,2025-04-25,23.922303,120.320025,0.97845227
C2G980,田頭村,2025-04-25,23.8263,120.444175,0.9702115
C2G9A0,畜試所彰化,2025-04-25,23.86045,120.557964,0.97084683
C2H950,中寮,2025-04-25,23.884447,120.766406,0.9508331
C2H9F0,柑林,2025-04-25,24.018658,120.847072,0.9540886
C2H9H0,苗改南投蜂場,2025-04-25,23.852589,120.693481,0.957887
C2H9T0,名間竹圍,2025-04-25,23.859914,120.637572,0.9364532
C2H9U0,鳳鵬,2025-04-25,23.763919,120.788061,0.9186427
C2K620,馬光農場,2025-04-25,23.721453,120.378864,0.9713752
C2K630,荷苞,2025-04-25,23.657717,120.595144,0.9756504
C2M410,馬頭山,2025-04-25,23.324361,120.582017,0.89170825
C2M910,嘉義大學,2025-04-25,23.471325,120.485903,0.96881646
C2M920,朴子農改,2025-04-25,23.469889,120.259383,0.9575248
C2N160,西拉雅風管處,2025-04-25,23.189481,120.335297,0.9570137
C2O810,曾文,2025-04-25,23.219681,120.497328,0.9404166
C2O930,玉井,2025-04-25,23.126042,120.46055,0.93126583
C2O950,安南,2025-04-25,23.076694,120.144861,0.88164634
C2R170,屏東,2025-04-25,22.66027,120.49403,0.955792
C2R970,屏科大,2025-04-25,22.648275,120.619247,0.96716356
C2V250,甲仙,2025-04-25,23.080106,120.591758,0.9680512
C2V260,月眉,2025-04-25,22.971003,120.539853,0.9709924
C2V310,美濃,2025-04-25,22.898792,120.51907,0.9603993
C2W230,畜試所澎湖,2025-04-25,23.628342,119.513206,0.7559146
CAG100,王功漁港,2025-04-25,23.96824,120.32586,0.9790999
CAH030,茶改場竹圍站,2025-04-25,23.860083,120.637528,0.9364532
CAJ050,海口故事園區,2025-04-25,23.57543,120.14121,0.9556824
CAL110,布袋國中,2025-04-25,23.35893,120.18026,0.8885025
CAN130,水試所海水繁養殖中心,2025-04-25,23.120802,120.07968,0.8818614
CAN140,六官養殖協會,2025-04-25,23.22881,120.29962,0.9438952
CAQ030,崎峰國小,2025-04-25,22.42565,120.49521,0.9547873
E2K600,四湖植物園,2025-04-25,23.676986,120.163433,0.953941
E2P980,林試六龜中心,2025-04-25,22.991703,120.645722,0.9739061
E2S960,林試太麻里2,2025-04-25,22.598,120.99775,0.89461064
E2S980,林試太麻里1,2025-04-25,22.598922,120.980044,0.9356936
G2AI50,關渡,2025-04-25,25.11575,121.492,0.9708378
G2F820,農試所(霧峰),2025-04-25,24.031261,120.688133,0.9765387
G2L020,農試嘉義分所,2025-04-25,23.485028,120.473806,0.95710963
G2M350,農試溪口農場,2025-04-25,23.58565,120.408111,0.96665287
G2P820,農試鳳山分所,2025-04-25,22.646611,120.356083,0.9156541
K2E360,苗栗農改場,2025-04-25,24.495722,120.829111,0.97182816
K2E710,苗改生物防治研究中心,2025-04-25,24.422861,120.871833,0.9600756
K2F750,種苗改良場,2025-04-25,24.225972,120.800917,0.9598105
U2HA50,臺大竹山,2025-04-25,23.756972,120.681556,0.9651033
V2C250,八德合作社,2025-04-25,24.93775,121.266389,0.9153828
V2C260,八德蔬果,2025-04-25,24.978508,121.281819,0.85718024
V2K610,大庄合作社,2025-04-25,23.8068,120.367939,0.9701769
V2K620,麥寮合作社,2025-04-25,23.753836,120.294783,0.9761655
