站號,站名,日期,lat,lon,BlastGRU-TW
C0R710,龍磐,2025-03-08,21.931672,120.838942,0.0011112511
C1F9D1,白毛台,2025-03-08,24.158325,120.886933,0.00078021956
C0G940,竹塘,2025-03-08,23.848253,120.386764,0.0003883483
467590,恆春,2025-03-08,22.003897,120.746339,0.061236605
C1O850,環湖,2025-03-08,23.148617,120.418633,0.021709232
C0U710,太平山,2025-03-08,24.505486,121.525656,0.00045363457
C0E820,獅潭,2025-03-08,24.539133,120.920042,0.00040000683
C0V880,興達,2025-03-08,22.8778,120.2127,0.011666814
C0S890,關山,2025-03-08,23.0395,121.175017,0.004095736
C0SB30,新蘭,2025-03-08,22.869214,121.223228,0.018822629
C2R970,屏科大,2025-03-08,22.648275,120.619247,0.18044764
K2F750,種苗繁殖,2025-03-08,24.225972,120.800917,0.0007731267
C1Z130,銅門,2025-03-08,23.965694,121.492842,0.008666181
C0AD40,土城,2025-03-08,24.973208,121.445169,0.00045430099
CAN140,六官養殖協會,2025-03-08,23.22881,120.29962,0.018356372
C0X180,山上,2025-03-08,23.0757,120.363253,0.07543405
C0F9Z0,雪山東峰,2025-03-08,24.388792,121.268675,0.00066955405
C1M480,獨立山,2025-03-08,23.537022,120.607797,0.00062233995
C0X220,學甲,2025-03-08,23.230367,120.182187,0.002065606
467650,日月潭,2025-03-08,23.881325,120.90805,0.001511625
C0K600,箔子寮,2025-03-08,23.6197,120.14,0.00015558428
C0G830,埤頭,2025-03-08,23.866003,120.452806,0.0055589224
C0S950,七塊厝,2025-03-08,22.954453,121.229922,0.00050161086
467110,金門,2025-03-08,24.407306,118.289281,0.0001226099
C0AH80,深坑,2025-03-08,25.002703,121.628328,0.00040624922
467990,馬祖,2025-03-08,26.169269,119.923419,0.0004921762
C0A970,三貂角,2025-03-08,25.007606,122.002058,0.16625291
C2D730,寶山農場,2025-03-08,24.732444,120.976153,8.435596e-05
C0K430,褒忠,2025-03-08,23.690938,120.303634,0.00020125
467480,嘉義,2025-03-08,23.495925,120.432906,0.0056795375
C2E540,後龍,2025-03-08,24.606489,120.783933,5.3972573e-05
C0V400,阿公店,2025-03-08,22.804194,120.355528,0.3190855
C0R440,大漢山,2025-03-08,22.405264,120.753181,0.00097558554
C0K280,四湖,2025-03-08,23.630414,120.227125,7.218016e-05
C1F9B1,桐林,2025-03-08,24.066172,120.735194,0.0028609068
C2H9U0,鳳鵬,2025-03-08,23.763919,120.788061,0.011756844
C0K390,土庫,2025-03-08,23.679029,120.395574,0.0048585543
C1I450,望鄉山,2025-03-08,23.594153,120.944286,0.00078303425
C0E910,海埔,2025-03-08,24.648767,120.772435,7.4953154e-05
B2E890,畜試北區分所,2025-03-08,24.527806,120.770972,0.00020297864
C0R750,四林格山,2025-03-08,22.076989,120.802439,0.0018758123
C0F0C0,中坑,2025-03-08,24.248517,120.903319,0.0006019957
C1I121,大鞍,2025-03-08,23.678381,120.760017,0.0010855679
72U480,花改蘭陽分場,2025-03-08,24.686306,121.716583,0.018898482
C0A770,科教館,2025-03-08,25.096356,121.516507,0.00075409765
C0AJ60,六塊厝,2025-03-08,25.24,121.4481,0.0027224491
C0R620,墾雷,2025-03-08,21.900836,120.855269,0.00062892697
467420,永康,2025-03-08,23.038386,120.2367,0.12395224
467300,東吉島,2025-03-08,23.25695,119.667467,9.933084e-05
C0I410,名間,2025-03-08,23.837053,120.701447,0.0037621846
A2C560,農工中心,2025-03-08,24.985917,121.239833,0.0002551971
C0V740,旗山,2025-03-08,22.888614,120.483597,0.28248757
C0Z061,玉里,2025-03-08,23.3215,121.339656,0.03878421
C0S840,南田,2025-03-08,22.279725,120.889208,0.08178868
C1I470,杉林溪,2025-03-08,23.639517,120.786444,0.0009092358
C1X040,東原,2025-03-08,23.291597,120.463822,0.12500124
C0R660,枋寮,2025-03-08,22.367722,120.590647,0.21946324
C1R120,上德文,2025-03-08,22.763272,120.704442,0.008539477
C0K450,大埤,2025-03-08,23.646074,120.431537,0.023991657
C0UA00,土場,2025-03-08,24.576533,121.495333,0.016993249
467080,宜蘭,2025-03-08,24.763975,121.756528,0.0064200885
C0N030,四草,2025-03-08,23.0235,120.1116,0.0095011685
C0V650,彌陀,2025-03-08,22.783806,120.246361,0.032602277
C0D660,新竹市東區,2025-03-08,24.798681,120.986942,7.873001e-05
82S580,茶改東部分場,2025-03-08,22.907694,121.130139,0.0056278952
C0SB40,興隆,2025-03-08,22.913661,121.257469,0.016459798
C0C710,大溪永福,2025-03-08,24.892936,121.324975,0.00073135487
C0FA20,溫寮,2025-03-08,24.372177,120.583125,6.242202e-05
C0V640,湖內,2025-03-08,22.887139,120.2445,0.010723942
C0R910,下寮,2025-03-08,22.3929,120.5548,0.22002606
C0Z020,明里,2025-03-08,23.208717,121.262342,0.027639676
C0M770,嘉義梅山,2025-03-08,23.585398,120.555587,0.012135132
G2F820,農業試驗所,2025-03-08,24.031261,120.688133,0.0031962579
C0C660,楊梅,2025-03-08,24.912375,121.143047,0.00024914416
C1E511,新開,2025-03-08,24.347703,120.827019,0.0005804889
G2F820,農試所(霧峰),2025-03-08,24.031261,120.688133,0.0031962579
C1I070,和社,2025-03-08,23.591131,120.888861,0.012451319
C2F000,大肚,2025-03-08,24.15295,120.572117,0.0072553763
C1S850,豐南,2025-03-08,23.122139,121.262389,0.0006470627
C2A920,富貴角,2025-03-08,25.263783,121.565258,0.00083253544
CAH030,茶改場竹圍站,2025-03-08,23.860083,120.637528,0.014112844
C0T960,光復,2025-03-08,23.660694,121.424964,0.0077059045
C0F9M0,豐原,2025-03-08,24.254322,120.720692,0.0008904965
C0R720,旭海,2025-03-08,22.205403,120.887614,0.017185703
C0V710,苓雅,2025-03-08,22.622742,120.330669,0.15876342
C0C740,觀音工業區,2025-03-08,25.064764,121.114856,6.047168e-05
CAC040,拉拉山,2025-03-08,24.699317,121.427133,0.00092861004
C0V790,萬山,2025-03-08,22.905944,120.688056,0.06293687
U2HA30,臺大和社,2025-03-08,23.590856,120.888864,0.012451325
C0AJ90,澳底,2025-03-08,25.0552,121.9253,0.14015886
C0Z100,東華,2025-03-08,23.89525,121.549833,0.04193023
C0G970,三豐,2025-03-08,23.882,120.2895,8.50885e-05
V2K610,大庄合作社,2025-03-08,23.8068,120.367939,0.00012689375
C0V900,汕尾,2025-03-08,22.4782,120.4151,0.21235764
C1R630,龍泉,2025-03-08,22.66701,120.59091,0.25021884
C1AC50,關渡,2025-03-08,25.133486,121.469331,0.00079797074
C0F9I0,神岡,2025-03-08,24.272481,120.658314,0.00065304706
C0K460,斗南,2025-03-08,23.678734,120.478359,0.02206213
467410,臺南,2025-03-08,22.993239,120.204772,0.012573659
C2O810,曾文,2025-03-08,23.219681,120.497328,0.20103453
467280,後龍,2025-03-08,24.648563,120.831834,7.06675e-05
C1F9J1,清水林,2025-03-08,24.071242,120.820419,0.0012636665
C2A650,火燒寮,2025-03-08,25.002719,121.742892,0.034915086
466930,竹子湖,2025-03-08,25.162078,121.544547,0.0008187707
C1I220,樟湖,2025-03-08,23.905333,120.846983,0.0006443359
C0I390,仁愛,2025-03-08,24.022122,121.132206,0.000783359
C0Z300,東里,2025-03-08,23.26853,121.30547,0.048998892
C1V590,新發,2025-03-08,23.057019,120.646064,0.0093511185
C0K510,水林,2025-03-08,23.572924,120.24597,0.0006878856
72S590,東改賓朗果園,2025-03-08,22.813889,121.071278,0.0027096327
82A750,茶改北部分場,2025-03-08,24.955778,121.631222,0.0036468809
C1A750,石碇服務區,2025-03-08,25.00872,121.646242,0.0008235266
C0X300,鹿寮,2025-03-08,23.386047,120.477331,0.034285188
G2AI50,關渡,2025-03-08,25.11575,121.492,0.00019121642
C0K590,雲林東勢,2025-03-08,23.674192,120.255721,0.00026374226
C0A570,桶後,2025-03-08,24.848222,121.597992,0.013404322
C1S800,華源,2025-03-08,22.657883,121.02325,0.5057742
C0G720,溪州,2025-03-08,23.851589,120.499093,0.004910981
C1V160,達卡努瓦,2025-03-08,23.279811,120.705319,0.0018044828
C2M410,馬頭山,2025-03-08,23.324361,120.582017,0.05571997
C0V850,蚵仔寮,2025-03-08,22.7256,120.2527,0.1389197
C0S740,池上,2025-03-08,23.119628,121.209469,0.0018214051
C1V390,尖山,2025-03-08,22.813153,120.367789,0.27052522
C0AH70,松山,2025-03-08,25.04871,121.55042,0.0007150025
C0N010,鯤鯓國小,2025-03-08,23.1879,120.0889,0.001782226
C0R550,新埤,2025-03-08,22.467947,120.582894,0.17632851
C0SA60,知本（水試所）,2025-03-08,22.702394,121.082761,0.7556538
C0T9I0,豐濱,2025-03-08,23.583897,121.514806,0.013012006
C0UB00,淡江大學蘭陽校園,2025-03-08,24.823239,121.730383,0.0103111705
C0W240,九宮,2025-03-08,24.423753,118.240186,0.00012106094
C0T9N0,富里,2025-03-08,23.171639,121.249378,0.012489729
U2HA50,臺大竹山,2025-03-08,23.756972,120.681556,0.0080320025
C0V840,鳳鼻頭,2025-03-08,22.5083,120.3591,0.20585492
C0X140,西港,2025-03-08,23.125608,120.203108,0.029185513
72D080,桃改五峰分場,2025-03-08,24.612194,121.157167,0.00030306238
C2H9P0,伊拿谷,2025-03-08,23.963211,121.088264,0.0015191212
C2H9F0,柑林,2025-03-08,24.018658,120.847072,0.0099296095
C0TA20,加灣,2025-03-08,24.082025,121.608944,0.005970392
C0V530,阿蓮,2025-03-08,22.883208,120.327508,0.102971934
C1O880,關山,2025-03-08,23.173397,120.594092,0.070319265
C0E791,卓蘭,2025-03-08,24.3126,120.8244,0.0009657223
C1I030,武界,2025-03-08,23.913225,121.052483,0.0012607416
C0R520,崁頂,2025-03-08,22.514781,120.506914,0.24956673
C0R341,牡丹,2025-03-08,22.130036,120.792639,0.020262793
C0R930,萬丹,2025-03-08,22.5885,120.4851,0.28580558
C0S760,紅石,2025-03-08,23.069131,121.126219,0.00070362166
C1M610,石磐龍,2025-03-08,23.496606,120.663506,0.0019518927
C0UA10,鴛鴦湖,2025-03-08,24.590269,121.412228,0.00081962516
V2C260,八德蔬果,2025-03-08,24.978508,121.281819,0.000461605
C0R800,丹路,2025-03-08,22.204481,120.750989,0.046924237
C0G920,永靖,2025-03-08,23.924703,120.547533,0.0015625146
C2M950,太和,2025-03-08,23.538372,120.702961,0.0014307458
C1A630,下盆,2025-03-08,24.771003,121.538622,0.0053144963
B2N890,畜產試驗所,2025-03-08,23.058972,120.336406,0.08872481
C0UA30,白嶺,2025-03-08,24.527819,121.519031,0.0007057872
C1V580,溪南(特生中心),2025-03-08,23.084972,120.788475,0.0011213137
C1T970,大農,2025-03-08,23.615233,121.413331,0.0077751745
E2S960,林試太麻里2,2025-03-08,22.598014,120.989761,0.79650927
C0R650,竹田,2025-03-08,22.58486,120.54344,0.24237652
C1H900,清流,2025-03-08,24.080775,120.962997,0.0025404028
C1C510,水尾,2025-03-08,24.940081,121.087161,0.00013077454
C0F9X0,大雅(中科園區),2025-03-08,24.21528,120.62445,0.00035850107
C0SB60,白守蓮,2025-03-08,23.126769,121.401914,0.01638425
C0O970,虎頭埤,2025-03-08,23.021375,120.347878,0.094430044
C0C730,中大臨海站,2025-03-08,24.966126,121.008581,0.000116709714
C0X250,新營,2025-03-08,23.310689,120.316681,0.017548664
C0V700,三民,2025-03-08,22.645017,120.311233,0.029195337
C0U870,大礁溪,2025-03-08,24.791042,121.675047,0.0065093376
C0E870,高鐵苗栗,2025-03-08,24.60725,120.826094,5.3767086e-05
A2K570,古坑花卉中心,2025-03-08,23.63353,120.55239,0.03409617
C0M860,新美,2025-03-08,23.338017,120.683169,0.0122029185
C1E701,八卦,2025-03-08,24.491756,120.927619,0.00033007498
C0I420,國姓,2025-03-08,24.037803,120.855072,0.0071872827
C2D720,關西工作站,2025-03-08,24.757275,121.184792,0.00012082545
C0S960,香蘭,2025-03-08,22.587569,120.993375,0.7969323
C0R260,春日,2025-03-08,22.370361,120.628306,0.14738454
72G600,臺中農改場,2025-03-08,24.003028,120.534389,0.002378143
C0Z210,瑞穗,2025-03-08,23.5239,121.39021,0.021728134
C0M820,達邦,2025-03-08,23.453994,120.749517,0.0018718767
C0V860,南寮,2025-03-08,22.7616,120.2339,0.1400375
C0G740,大城,2025-03-08,23.852487,120.320935,8.710373e-05
C0R920,塭仔,2025-03-08,22.4169,120.5197,0.23086426
C0R470,高樹,2025-03-08,22.826389,120.600806,0.21881032
C0R680,佳樂水,2025-03-08,21.993578,120.861633,0.0059009534
C1O870,大棟山,2025-03-08,23.31157,120.52226,0.0020769988
C0D360,梅花,2025-03-08,24.678347,121.208558,0.0003074044
C0Z190,富世,2025-03-08,24.14743,121.6297,0.0011851133
C0AI10,屈尺,2025-03-08,24.92184,121.54475,0.0018656655
B2U990,畜試東區分所,2025-03-08,24.669039,121.832561,0.07903948
C0SB80,長濱漁港,2025-03-08,23.313644,121.459994,0.10741066
C0R240,來義,2025-03-08,22.527306,120.625111,0.15226616
C0V910,大樹,2025-03-08,22.684645,120.432803,0.36512354
C1R610,西大武山,2025-03-08,22.617719,120.7322,0.00052658195
C0G900,線西,2025-03-08,24.143358,120.443536,6.307864e-05
C0M700,竹崎,2025-03-08,23.526178,120.555508,0.008096112
C2E880,三義,2025-03-08,24.405478,120.749819,0.0002897675
C0C720,竹圍,2025-03-08,25.112692,121.239824,0.00019052338
C0F9P0,清水,2025-03-08,24.312297,120.562242,7.4205906e-05
C0Z150,吉安光華,2025-03-08,23.930925,121.595153,0.06549049
C1D640,外坪(五指山),2025-03-08,24.644447,121.090961,0.0005832327
C0F9O0,潭子,2025-03-08,24.213106,120.703933,0.000833911
C2H9R0,卓社,2025-03-08,23.887894,121.000086,0.00056128856
72T250,花蓮農改場,2025-03-08,23.975222,121.563889,0.0378721
C0E780,銅鑼,2025-03-08,24.489681,120.790853,0.00016719026
C1T950,太安,2025-03-08,23.666719,121.370128,0.008472175
C0E830,苑裡,2025-03-08,24.439714,120.653053,4.7566973e-05
467270,田中,2025-03-08,23.873803,120.581286,0.016111141
C0SA10,檳榔四格山,2025-03-08,22.810031,121.109308,0.0014331036
C1T830,布洛灣,2025-03-08,24.17184,121.57127,0.08029201
C0F970,大坑,2025-03-08,24.173142,120.722289,0.0019895448
C1U920,思源,2025-03-08,24.393125,121.347214,0.0007031213
C0A931,三和,2025-03-08,25.233153,121.595236,0.0050802706
C0I010,廬山,2025-03-08,24.033311,121.181808,0.0005206547
C2M940,日野賀,2025-03-08,23.434056,120.727169,0.0013472923
C0R860,鼻頭,2025-03-08,22.1043,120.8979,0.08672962
C0UB20,壯圍,2025-03-08,24.7359,121.8163,0.022252738
C0R790,九棚,2025-03-08,22.14195,120.889281,0.051170953
C0W110,東莒,2025-03-08,25.9652,119.98069,0.0003711649
C1U930,粉鳥林,2025-03-08,24.497088,121.842479,0.24626954
C1I211,蘆竹湳,2025-03-08,23.934019,120.811994,0.005973834
C0S830,長濱,2025-03-08,23.286817,121.411975,0.014667597
C1F9F1,伯公龍,2025-03-08,24.272392,120.849047,0.0007075321
C0E810,西湖,2025-03-08,24.562947,120.7485,5.056871e-05
C1I440,新高口,2025-03-08,23.478744,120.878939,0.001095728
C0O840,王爺宮,2025-03-08,23.222064,120.40085,0.13466948
C0T9G0,鳳林山,2025-03-08,23.735269,121.420131,0.0028250406
C0X080,佳里,2025-03-08,23.173039,120.145086,0.0017882413
C0FB70,大甲溪埔,2025-03-08,24.370625,120.620067,5.9493916e-05
C0Z310,清水斷崖,2025-03-08,24.218294,121.689142,0.0016773121
C0M680,太保,2025-03-08,23.455062,120.331455,0.01196651
C1S820,金峰,2025-03-08,22.590969,120.933236,0.5420321
C0AD10,八里,2025-03-08,25.150211,121.403947,0.00019014809
C2K240,草嶺,2025-03-08,23.59555,120.693461,0.0019316146
C1SA70,都蘭,2025-03-08,22.87794,121.226881,0.01643522
C0K440,二崙,2025-03-08,23.772797,120.408944,0.005982862
C1A760,坪林交控,2025-03-08,24.94284,121.713442,0.03567783
C0F9N0,大里,2025-03-08,24.092464,120.701378,0.043216843
C0SA90,達仁林場,2025-03-08,22.264347,120.823972,0.0018161521
C1R290,石門山,2025-03-08,22.112611,120.756597,0.005191668
42HA10,萬大發電廠,2025-03-08,23.978875,121.139639,0.0007911146
C0R890,山海,2025-03-08,21.9878,120.7091,0.0010960834
C0T9A0,月眉山,2025-03-08,23.809928,121.539828,0.0012923854
C0AC70,信義,2025-03-08,25.037822,121.564597,0.00071337074
C0K560,棋山,2025-03-08,23.68645,120.603417,0.027705366
C2FB50,出雲,2025-03-08,24.206469,120.902794,0.001385621
C1Z240,中平林道,2025-03-08,23.42115,121.26763,0.017645381
U2H480,溪頭,2025-03-08,23.670306,120.798194,0.002944173
C0M880,好美里,2025-03-08,23.3364,120.138,0.0027720293
C0T9E0,大坑,2025-03-08,23.880628,121.581981,0.0015815339
C0K530,臺西,2025-03-08,23.701547,120.197559,6.287212e-05
C1E900,國一N128K,2025-03-08,24.560997,120.844186,0.00013196155
C0AJ50,水湳洞,2025-03-08,25.123695,121.862238,0.009499208
C0AI20,白沙灣,2025-03-08,25.283128,121.519058,0.002380042
C0A860,大坪,2025-03-08,25.165914,121.632969,0.0016368509
C1U850,觀音海岸,2025-03-08,24.38319,121.77856,0.0010828932
C2K610,草嶺石壁,2025-03-08,23.602469,120.707731,0.0018244176
C0U950,鶯子嶺,2025-03-08,24.89754,121.79244,0.0024399734
C0O900,善化,2025-03-08,23.112883,120.297219,0.11210195
C0K550,蔦松,2025-03-08,23.514319,120.229736,0.0006138749
E2P980,林試六龜中心,2025-03-08,22.991703,120.645722,0.23457147
C0E590,通霄,2025-03-08,24.471892,120.704622,6.588726e-05
C1I310,西巒,2025-03-08,23.754486,120.883956,0.003010152
C0A550,泰平,2025-03-08,24.971197,121.823711,0.01212892
C0I360,水里,2025-03-08,23.812553,120.849792,0.027969845
C0R830,高士,2025-03-08,22.121825,120.836781,0.0037635756
C1I101,溪頭,2025-03-08,23.661789,120.807647,0.00042147606
C0AJ20,野柳,2025-03-08,25.20703,121.690021,0.025545698
C0B060,暖暖,2025-03-08,25.0957,121.7403,0.0017085042
C1H920,長豐,2025-03-08,24.102039,120.879897,0.0023080946
C0V360,內門,2025-03-08,22.975481,120.466769,0.31945577
C0R850,林邊,2025-03-08,22.4634,120.5339,0.19826137
C0E930,龍鳳,2025-03-08,24.700034,120.859125,4.67615e-05
C0U910,冬山,2025-03-08,24.63373,121.7937,0.07903948
C1E721,泰安,2025-03-08,24.489017,120.968036,0.0009748075
82H320,茶改中部分場,2025-03-08,23.875611,120.913583,0.0036189714
C0M750,布袋,2025-03-08,23.380878,120.167789,0.0017877785
C1S860,利嘉,2025-03-08,22.809417,121.050528,0.13688055
72C440,桃園農改,2025-03-08,24.950944,121.030583,0.00013712747
E2S980,林試太麻里1,2025-03-08,22.598922,120.980044,0.7184856
C0X170,關廟,2025-03-08,22.963017,120.327797,0.12755959
C0V720,林園,2025-03-08,22.507747,120.394511,0.25093982
C1I510,線浸林道,2025-03-08,23.761508,120.832956,0.00084378687
C0D690,外湖,2025-03-08,24.917735,120.968711,0.0001465816
C0C750,新興坑尾,2025-03-08,25.0061,121.0971,0.00010967485
B2Q810,畜試南區分所,2025-03-08,21.945583,120.802167,0.0064194626
C0S790,金崙,2025-03-08,22.538122,120.966875,0.420243
C0AH90,福山植物園,2025-03-08,24.760717,121.58135,0.006502686
C0I540,奇萊稜線,2025-03-08,24.109231,121.326456,0.00074150274
C0M850,表湖,2025-03-08,23.24186,120.64166,0.004830118
C0S770,大溪山,2025-03-08,22.478475,120.943325,0.04902452
C0AG80,中和,2025-03-08,24.991622,121.491792,0.00045397718
C0T790,大禹嶺,2025-03-08,24.186117,121.316086,0.00068203086
C0T9B0,水源,2025-03-08,23.991861,121.537169,0.0013797646
C0R840,牡丹池山,2025-03-08,22.168389,120.841225,0.0009272869
C1I131,桶頭,2025-03-08,23.641944,120.654117,0.011234128
CAL110,布袋國中,2025-03-08,23.35893,120.18026,0.003641097
467571,新竹,2025-03-08,24.827853,121.014219,0.00012043918
C0Z290,赤柯山,2025-03-08,23.36893,121.38293,0.00087466685
C0X280,將軍,2025-03-08,23.214999,120.13577,0.0022170804
C0S690,太麻里,2025-03-08,22.60902,120.98533,0.029468508
C0U880,北關,2025-03-08,24.9072,121.8734,0.096651495
C1H860,瑞岩,2025-03-08,24.123772,121.18345,0.000645052
C0G810,埔心,2025-03-08,23.947633,120.525456,0.0016019532
C0U970,大福,2025-03-08,24.80064,121.81389,0.006854816
C2H9N0,仁愛東眼,2025-03-08,24.026875,121.1205,0.00048679335
C1E670,南礦,2025-03-08,24.538278,121.002836,0.00072295143
C0M520,東後寮,2025-03-08,23.369908,120.248065,0.0033353944
C1E461,松安,2025-03-08,24.397972,120.986022,0.0010446501
72G600,臺中農改,2025-03-08,24.003028,120.534389,0.002378143
C2N160,西拉雅風管處,2025-03-08,23.189481,120.335297,0.042105265
C2M970,碧湖,2025-03-08,23.568632,120.624165,0.0026800705
C0A640,石碇,2025-03-08,24.993969,121.662917,0.0006915867
E2S960,林試太麻里2,2025-03-08,22.598,120.99775,0.80396426
C0F9Y0,桃山,2025-03-08,24.432739,121.303808,0.0005810964
C1I020,萬大,2025-03-08,23.979817,121.132261,0.0007842006
C0U940,羅東,2025-03-08,24.68184,121.74934,0.020029299
C0M650,朴子,2025-03-08,23.43463,120.23902,0.0031652823
C1I500,大尖山,2025-03-08,23.858572,120.994889,0.00053487206
C0G820,田尾,2025-03-08,23.901669,120.509389,0.001583232
E2K600,四湖植物園,2025-03-08,23.676986,120.163433,7.20491e-05
C0S730,綠島,2025-03-08,22.6672,121.47533,0.0020544338
12Q970,東港工作站,2025-03-08,22.479997,120.466058,0.21059963
C0E430,南庄,2025-03-08,24.601775,121.000214,0.00038962057
C1TA00,太魯閣,2025-03-08,24.15773,121.6236,0.0009161252
466920,臺北,2025-03-08,25.037658,121.514853,0.0007150025
C0R600,舊泰武,2025-03-08,22.588194,120.664944,0.011185897
C1I260,北坑,2025-03-08,23.9246,121.006903,0.004568026
466910,鞍部,2025-03-08,25.182586,121.529731,0.0009857401
C1I230,九份二山,2025-03-08,23.961944,120.845,0.0026473112
C2A660,瑞芳,2025-03-08,25.113169,121.801147,0.0046865954
C0R270,琉球嶼,2025-03-08,22.332244,120.362236,0.13115619
C1T990,高寮,2025-03-08,23.394239,121.356808,0.0132084945
C0G620,芬園,2025-03-08,24.015678,120.6213,0.004260585
C1Z140,荖溪,2025-03-08,23.890575,121.45964,0.014756257
C1I201,中心崙,2025-03-08,23.728722,120.712097,0.0015524302
C1I400,凌霄,2025-03-08,24.018778,121.004456,0.00048346547
C1M640,十字,2025-03-08,23.492153,120.753683,0.00088503293
G2P820,農試鳳山分所,2025-03-08,22.646611,120.356083,0.02522901
C0Z270,蕃薯寮,2025-03-08,23.73835,121.540108,0.0056111435
C0F9Q0,外埔,2025-03-08,24.347817,120.705686,0.0005198308
C0K580,高鐵雲林,2025-03-08,23.737456,120.417944,0.0063014324
C2I090,鳳凰,2025-03-08,23.728081,120.787347,0.0038254487
C0U990,員山,2025-03-08,24.74435,121.72247,0.02094955
C0V770,大社,2025-03-08,22.730306,120.346639,0.12245708
C0X120,麻豆,2025-03-08,23.183289,120.248611,0.025732685
C0C670,龍潭,2025-03-08,24.870056,121.221389,0.00018267639
C0D680,香山濕地,2025-03-08,24.783581,120.914988,8.896141e-05
C0S980,勝林山,2025-03-08,22.430439,120.8938,0.002625582
C0V730,大寮,2025-03-08,22.605614,120.395717,0.23666053
C0R570,麟洛,2025-03-08,22.65078,120.52719,0.30144355
C2M930,石卓,2025-03-08,23.478744,120.702264,0.0012295435
C0G9B0,和美,2025-03-08,24.105169,120.492131,0.0001342635
CAG100,王功漁港,2025-03-08,23.96824,120.32586,8.8191424e-05
C0X290,北門,2025-03-08,23.267772,120.125481,0.002234323
C2F930,大甲,2025-03-08,24.347667,120.640403,5.98345e-05
C0D650,湖口,2025-03-08,24.904794,121.043628,0.0001328129
C0E420,竹南,2025-03-08,24.708978,120.888897,4.7119112e-05
C0U780,五結,2025-03-08,24.68637,121.79794,0.02216571
C1I250,鯉潭,2025-03-08,23.961922,120.991131,0.0011449385
C0R130,阿禮,2025-03-08,22.742908,120.743678,0.0028190906
C0X100,臺南市北區,2025-03-08,23.010394,120.194228,0.015204476
C0S920,金峰嘉蘭,2025-03-08,22.594789,120.960825,0.70736307
C0V490,新興,2025-03-08,22.627422,120.298803,0.16078943
C0F9K0,大安,2025-03-08,24.345061,120.588025,5.9905007e-05
72N100,臺南農改,2025-03-08,23.0605,120.342194,0.08781083
467290,古坑,2025-03-08,23.633639,120.551889,0.03409617
C2E970,八甲,2025-03-08,24.535811,120.795983,0.000110324545
C0V440,鳳山,2025-03-08,22.646653,120.356122,0.02522901
C1T940,大觀,2025-03-08,23.714206,121.373133,0.0024198834
72T250,花蓮農改,2025-03-08,23.975222,121.563889,0.0378721
C0E740,造橋,2025-03-08,24.637056,120.864778,7.19853e-05
C0R100,尾寮山,2025-03-08,22.833111,120.683889,0.0041371337
A2K630,臺大雲林校區,2025-03-08,23.730628,120.423903,0.006254158
C0D580,寶山,2025-03-08,24.735006,121.025192,0.00018979306
E2P990,林試扇平站,2025-03-08,22.9677,120.6857,0.077318676
C0AI30,三重,2025-03-08,25.057328,121.500629,0.00075409765
C0AH00,汐止,2025-03-08,25.066881,121.658778,0.0007150025
C1Z040,立山,2025-03-08,23.443356,121.327375,0.006445317
C0W130,花嶼,2025-03-08,23.40007,119.32276,0.00019450227
C0A950,鼻頭角,2025-03-08,25.129036,121.923372,0.00546942
C0K470,林內,2025-03-08,23.748675,120.609642,0.021357527
C2F990,摩天嶺,2025-03-08,24.322458,120.936819,0.0015583417
82C160,茶改場,2025-03-08,24.908472,121.185333,0.00022655271
C0Z320,清水林道,2025-03-08,23.27125,121.188272,0.0023379815
C0R760,南仁湖,2025-03-08,22.084681,120.863353,0.005192232
C0M670,大林,2025-03-08,23.600616,120.45841,0.004585196
C0M800,茶山,2025-03-08,23.299075,120.664767,0.03328775
C0A9C0,天母,2025-03-08,25.117494,121.537169,0.0012049865
72K220,南改斗南分場,2025-03-08,23.634556,120.477333,0.021326667
72AI40,桃改樹林分場,2025-03-08,24.944503,121.386972,0.00076671166
C0S910,蘭嶼燈塔,2025-03-08,22.081197,121.503117,0.0010640722
C0B050,八斗子,2025-03-08,25.144754,121.79167,0.011808457
C0U900,內城,2025-03-08,24.71813,121.68766,0.01712586
C0X320,柳營,2025-03-08,23.253328,120.375253,0.026472624
C0M790,新港,2025-03-08,23.553269,120.345728,0.002124765
C0F9T0,西屯,2025-03-08,24.179494,120.641275,0.00039926276
C0SA30,都歷,2025-03-08,23.020333,121.323642,0.018346371
C0C620,蘆竹,2025-03-08,25.084275,121.265767,0.00015800232
C0R730,大坪頂,2025-03-08,22.024633,120.69355,0.0042495863
C0AJ40,石門,2025-03-08,25.273672,121.601198,0.0010138752
C0E750,苗栗,2025-03-08,24.564569,120.824575,0.00013578286
C0T870,鯉魚潭,2025-03-08,23.935639,121.508944,0.01251314
C1V170,排雲,2025-03-08,23.463619,120.954147,0.0010464211
C2H950,中寮,2025-03-08,23.884447,120.766406,0.0008300791
C0R350,貓鼻頭,2025-03-08,21.921774,120.7358,0.00097332534
C0V660,岡山,2025-03-08,22.797078,120.294958,0.03235239
C1H941,雙冬,2025-03-08,23.967378,120.802189,0.0041371556
C0AJ70,田寮,2025-03-08,25.2698,121.4886,0.0025039588
C0AI00,五股,2025-03-08,25.07445,121.42728,0.00019863577
C0Z280,德武,2025-03-08,23.47426,121.41071,0.0056054415
C0R700,枋山,2025-03-08,22.246844,120.661086,0.040158104
C0C460,復興,2025-03-08,24.820208,121.352281,0.00042356987
E2H360,蓮華池,2025-03-08,23.918333,120.885278,0.0028476557
C0M640,中埔,2025-03-08,23.42538,120.5229,0.011729235
C0W140,金沙,2025-03-08,24.488292,118.408778,0.00016200193
C2A540,四堵,2025-03-08,24.8926,121.745736,0.015393401
C0ACA0,新莊,2025-03-08,25.051478,121.446756,0.00055863935
C0R220,潮州,2025-03-08,22.534361,120.54,0.23859195
U2HA40,臺大內茅埔,2025-03-08,23.689722,120.851117,0.030183366
467490,臺中,2025-03-08,24.145736,120.684075,0.0015687959
C0U960,翠峰湖,2025-03-08,24.510856,121.608044,0.00046557264
E2HA20,林試畢祿溪站,2025-03-08,24.226944,121.308522,0.0006454154
C0V890,前鎮,2025-03-08,22.5718,120.3117,0.17156327
467620,蘭嶼,2025-03-08,22.036969,121.558339,0.00039884984
C1F941,雪嶺,2025-03-08,24.280586,121.026642,0.0007510218
C2H9E0,國姓南港,2025-03-08,23.911108,120.846556,0.00061998254
C0AC80,文山,2025-03-08,25.00235,121.575728,0.00040520955
C0F9R0,龍井,2025-03-08,24.184536,120.528972,6.304003e-05
C0M760,民雄,2025-03-08,23.551754,120.428457,0.004955427
C0UA40,西德山,2025-03-08,24.560647,121.752608,0.0040154983
C1T920,中興,2025-03-08,23.769503,121.498653,0.023812845
C0D550,雪霸,2025-03-08,24.526972,121.11605,0.0009077581
C2F860,梨山,2025-03-08,24.247522,121.243669,0.000634977
C0R320,車城,2025-03-08,22.0744,120.716247,0.0056906263
C1S870,南美山,2025-03-08,23.15025,121.382333,0.013567165
C0B020,基隆嶼,2025-03-08,25.19141,121.78391,0.00047070417
C1U501,牛鬥,2025-03-08,24.637836,121.573656,0.036369868
C0M730,嘉義市東區,2025-03-08,23.457673,120.460531,0.019882508
C0S700,知本,2025-03-08,22.684866,121.005642,0.05961411
C1N001,沙崙,2025-03-08,22.935472,120.309406,0.14414498
C0V760,橋頭,2025-03-08,22.757806,120.30575,0.13073589
C0G960,福寶,2025-03-08,24.0443,120.3814,0.00013934266
C0X210,白河,2025-03-08,23.347466,120.414427,0.022129811
C0S810,東河,2025-03-08,22.972672,121.303986,0.0027761767
C2R170,屏東,2025-03-08,22.66027,120.49403,0.30213028
C0R670,楓港,2025-03-08,22.190131,120.692156,0.030475993
C0FA50,霧峰,2025-03-08,24.0419,120.6995,0.00305815
C0UB10,蘇澳,2025-03-08,24.5969,121.8571,0.2415759
C0G950,防潮門,2025-03-08,24.1835,120.4871,6.3100175e-05
C0M740,六腳,2025-03-08,23.492871,120.290625,0.0029787095
C1R250,力里,2025-03-08,22.428117,120.629228,0.19738148
C0K330,虎尾,2025-03-08,23.719183,120.442036,0.0057215844
C2FA00,烏石坑,2025-03-08,24.273503,120.947617,0.00068499445
C0V620,永安,2025-03-08,22.82315,120.236856,0.032602277
C1I330,楓樹林,2025-03-08,23.986803,121.076117,0.0004686237
C0W200,湖西,2025-03-08,23.596314,119.67275,0.00016755046
72Q010,高雄農改場,2025-03-08,22.709333,120.525889,0.22165185
C0SA40,瑞和,2025-03-08,22.974361,121.156697,0.0043457295
C0C680,龜山,2025-03-08,25.02846,121.38656,0.00030773456
C2V260,月眉,2025-03-08,22.971003,120.539853,0.29825655
C0V450,鳳森,2025-03-08,22.545064,120.392592,0.1862784
C0U720,南山,2025-03-08,24.43742,121.38167,0.0017162436
A2N290,臺南蘭花園區,2025-03-08,23.340258,120.379661,0.011788904
C0R560,新園,2025-03-08,22.5434,120.461558,0.25093982
C0U890,三星,2025-03-08,24.66812,121.65302,0.08682279
C1V300,御油山,2025-03-08,23.001983,120.715364,0.0010472973
C0U600,礁溪,2025-03-08,24.817539,121.765608,0.028741661
C1T980,龍澗,2025-03-08,24.023289,121.411328,0.0063824183
C0D670,海天一線,2025-03-08,24.831986,120.914438,6.956965e-05
C0SA00,歷坵,2025-03-08,22.520969,120.89185,0.06937424
C0M710,東石,2025-03-08,23.458927,120.15385,0.00034307898
C0M780,鹿草,2025-03-08,23.41134,120.30835,0.0028160443
C0U520,雙連埤,2025-03-08,24.753033,121.641303,0.0063536377
C0B010,七堵,2025-03-08,25.094819,121.71713,0.002367392
C0R480,長治,2025-03-08,22.693128,120.542622,0.3424798
C1V830,國三S383K,2025-03-08,22.781967,120.426475,0.3850146
12Q980,恆春工作站,2025-03-08,22.079678,120.714425,0.0056553483
C1O940,東山服務區,2025-03-08,23.286016,120.398472,0.020536285
C1U840,東澳嶺,2025-03-08,24.5378,121.8485,0.009915533
C1D630,飛鳳山,2025-03-08,24.766464,121.119178,0.00016575374
C0S940,石寧山,2025-03-08,23.223772,121.406639,0.07021779
C0K410,北港,2025-03-08,23.573957,120.292802,0.0006461423
C2M620,瑞里,2025-03-08,23.545133,120.675197,0.0015695319
C0SB70,小港漁港,2025-03-08,23.158558,121.400431,0.13162065
C2O950,安南,2025-03-08,23.076694,120.144861,0.0014242296
C0F0E0,南湖圈谷,2025-03-08,24.363714,121.444667,0.00048000162
467610,成功,2025-03-08,23.097486,121.373428,0.013320521
C0G890,伸港,2025-03-08,24.148933,120.484403,6.3043524e-05
C2E540,龍溪,2025-03-08,24.606489,120.783933,5.3972573e-05
C1V200,梅山,2025-03-08,23.268447,120.823556,0.006587609
C0T9H0,加路蘭山,2025-03-08,23.682947,121.5274,0.002572386
C2O930,玉井,2025-03-08,23.126042,120.46055,0.016813181
C1F911,新伯公,2025-03-08,24.221361,120.841069,0.0011699218
C0R490,九如,2025-03-08,22.7405,120.490503,0.22913693
C0X200,左鎮,2025-03-08,23.056758,120.408522,0.15796345
C0SB50,叭嗡嗡,2025-03-08,23.047062,121.343223,0.036069624
C1F891,稍來,2025-03-08,24.265689,121.001142,0.00063912565
72N240,七股研究中心,2025-03-08,23.081672,120.062894,0.0008957062
C0C700,中壢,2025-03-08,24.977661,121.256375,0.00042667252
C0M690,水上,2025-03-08,23.419734,120.388909,0.01066651
C0V690,鼓山,2025-03-08,22.623325,120.275575,0.16143222
C0O860,大內,2025-03-08,23.11885,120.36083,0.09550855
C0Z200,萬榮,2025-03-08,23.709219,121.420106,0.023208458
C0T9D0,和中,2025-03-08,24.26676,121.74103,0.04638133
C1O921,楠西,2025-03-08,23.183511,120.484083,0.015762027
C0AJ30,淡水觀海,2025-03-08,25.184591,121.408616,0.0041409116
C0V810,左營,2025-03-08,22.67491,120.28491,0.029175848
C0UA70,桃源谷,2025-03-08,24.962606,121.888875,0.008840454
C0X130,官田,2025-03-08,23.193217,120.315422,0.045862105
C1H000,翠峰,2025-03-08,24.109397,121.205211,0.0008303172
C0UA90,石城,2025-03-08,24.980444,121.951214,0.27330208
C1E681,南勢山,2025-03-08,24.421669,120.923831,0.00027864613
C0A9F0,內湖,2025-03-08,25.079422,121.57545,0.0007150025
C0K291,宜梧,2025-03-08,23.536281,120.169329,0.0006236608
C1K540,口湖,2025-03-08,23.585344,120.180517,0.00015630858
C0R780,滿州,2025-03-08,22.024403,120.839892,0.04617768
C0V870,文安,2025-03-08,22.8025,120.2164,0.034242306
C0U650,玉蘭,2025-03-08,24.675286,121.587061,0.013415253
C0R640,東港,2025-03-08,22.46247,120.44074,0.21106535
K2E360,苗栗農改,2025-03-08,24.495722,120.829111,0.00018533599
C0AJ80,板橋,2025-03-08,25.0107,121.4489,0.00046723944
C0S660,下馬,2025-03-08,23.150427,121.070312,0.0007420198
C1H9B1,阿眉,2025-03-08,24.1263,120.994672,0.0007512415
C0UA20,多加屯,2025-03-08,24.368614,121.373189,0.00081249635
C0E730,頭份,2025-03-08,24.688247,120.912206,4.7273577e-05
72V140,高改旗南分場,2025-03-08,22.857861,120.516667,0.34504074
C0K480,莿桐,2025-03-08,23.761192,120.502372,0.013618242
C0U980,坪林石牌,2025-03-08,24.86478,121.77396,0.0049469788
C0T900,西林,2025-03-08,23.8119,121.441458,0.0071867146
C1I150,青雲,2025-03-08,23.793361,120.949378,0.014287266
467350,澎湖,2025-03-08,23.565503,119.563094,0.0002190971
C0G800,埔鹽,2025-03-08,24.000394,120.431683,0.00014965021
C0H960,草屯,2025-03-08,23.973672,120.68085,0.002681423
C1V780,多納林道,2025-03-08,22.888028,120.737917,0.008287169
C0E920,通霄漁港,2025-03-08,24.498589,120.673876,5.0051996e-05
C0Z330,安通山,2025-03-08,23.290728,121.348528,0.0019236763
C0AH10,永和,2025-03-08,25.01125,121.508111,0.00046904315
C0AK10,太平里,2025-03-08,25.134937,121.364899,0.00018581729
C2G640,鹿港,2025-03-08,24.0753,120.430481,0.0001385188
C1E890,國三N149K,2025-03-08,24.463414,120.680019,6.343708e-05
C1R110,口社,2025-03-08,22.770111,120.645222,0.22825424
C1M870,國三N285K,2025-03-08,23.550319,120.505833,0.019856073
467050,新屋,2025-03-08,25.006744,121.047486,0.000114280614
C1E480,鳳美,2025-03-08,24.554803,121.034747,0.0005356245
C0M530,奮起湖,2025-03-08,23.493903,120.699253,0.0014217835
C0C590,觀音,2025-03-08,25.027072,121.153317,6.148591e-05
C0T9M0,靜浦,2025-03-08,23.455167,121.495028,0.01978718
C2H9M0,發祥,2025-03-08,24.154094,121.164517,0.0011680217
C0AI40,石牌,2025-03-08,25.115597,121.513139,0.0012544002
C1F871,上谷關,2025-03-08,24.203483,121.018644,0.0015263603
C2H9G0,百勝,2025-03-08,24.051142,120.909361,0.001425505
C0G880,二水,2025-03-08,23.810742,120.6173,0.010946802
C0R940,加祿堂,2025-03-08,22.3363,120.6217,0.041471314
C0W220,北竿,2025-03-08,26.220358,119.974881,0.0005213075
C0O960,崎頂,2025-03-08,22.959547,120.369317,0.0650275
C0S750,向陽,2025-03-08,23.248397,120.986133,0.0013417924
C0T9F0,水璉,2025-03-08,23.797131,121.542514,0.0036351753
C1M600,頭凍,2025-03-08,23.406364,120.603339,0.0026319718
467660,臺東,2025-03-08,22.752211,121.154586,0.015399878
C1D380,新埔,2025-03-08,24.84745,121.03834,0.00012613025
C2G980,田頭村,2025-03-08,23.8263,120.444175,0.006021267
C0V750,路竹,2025-03-08,22.854997,120.259439,0.012456815
C0N050,蚵寮,2025-03-08,23.301,120.1104,0.0027837816
72M700,南改鹿草分場,2025-03-08,23.416869,120.283061,0.0031151182
C1SA50,利嘉林道,2025-03-08,22.82325,121.009389,0.0012675142
467550,玉山,2025-03-08,23.487614,120.959522,0.00084876834
C0A940,金山,2025-03-08,25.223628,121.643967,0.02207221
C1V340,大津,2025-03-08,22.888322,120.645986,0.28983244
C0W180,七美,2025-03-08,23.219333,119.444892,0.000119811804
C1F9C1,白冷,2025-03-08,24.182844,120.929889,0.00041670396
K2E710,苗改生物防治研究中心,2025-03-08,24.422861,120.871833,0.0004115608
C0N040,蘆竹溝,2025-03-08,23.2344,120.0961,0.0022654405
C2W230,畜試所澎湖,2025-03-08,23.628342,119.513206,0.00031556294
C0R880,後壁湖,2025-03-08,21.9457,120.7457,0.001168207
C1I280,埔中,2025-03-08,23.820778,120.642594,0.004884968
467790,墾丁雷達站,2025-03-08,21.948235,120.808028,0.00408933
C0W190,望安,2025-03-08,23.380564,119.494075,0.00018166356
466881,新北,2025-03-08,24.9593,121.52,0.00043986412
C0Z170,卓溪,2025-03-08,23.3443,121.3029,0.01673811
C0F850,東勢,2025-03-08,24.246428,120.833047,0.0005796206
466900,淡水,2025-03-08,25.164889,121.448906,0.00018583376
C0I370,魚池,2025-03-08,23.895703,120.94135,0.0027382753
C0C630,大溪,2025-03-08,24.882853,121.265547,0.0002321603
C0A520,山佳,2025-03-08,24.974944,121.402008,0.00080779643
C0I110,竹山,2025-03-08,23.761225,120.688156,0.0042128563
82H840,茶改南部分場,2025-03-08,23.762528,120.7405,0.0069458014
C0G660,溪湖,2025-03-08,23.94835,120.479122,0.0017256234
C1T800,洛韶,2025-03-08,24.204558,121.453956,0.0031341296
C1T810,慈恩,2025-03-08,24.192044,121.388386,0.0010297692
C1E451,象鼻,2025-03-08,24.368617,120.940228,0.0002580116
C0AC60,三峽,2025-03-08,24.939025,121.369728,0.000620784
C0I490,萬大林道,2025-03-08,23.928228,121.091411,0.0005676362
C1I290,豐丘,2025-03-08,23.668178,120.887417,0.0017188624
C1I320,奧萬大,2025-03-08,23.952956,121.178556,0.0004764187
C2M910,嘉義大學,2025-03-08,23.471325,120.485903,0.031113252
C0U770,南澳,2025-03-08,24.44935,121.81022,0.016153274
C0A980,社子,2025-03-08,25.109508,121.469681,0.00019524214
C0V800,六龜,2025-03-08,22.997889,120.633583,0.25580594
C1G9D0,國一S218K,2025-03-08,23.890641,120.493253,0.001551802
C0E570,白沙屯,2025-03-08,24.549447,120.696803,3.933291e-05
C2F9A0,中竹林,2025-03-08,24.103556,120.751061,0.0013654701
C0FA40,臺中電廠,2025-03-08,24.2146,120.4907,6.3035346e-05
C2G9A0,畜試所彰化,2025-03-08,23.86045,120.557964,0.016329885
C0H9C0,合歡山,2025-03-08,24.143442,121.272547,0.00060965965
C0X060,下營,2025-03-08,23.22695,120.256261,0.01863759
G2M350,農試溪口農場,2025-03-08,23.58565,120.408111,0.005653056
C0U860,頭城,2025-03-08,24.85323,121.8308,0.031451665
C0R580,南州,2025-03-08,22.48591,120.50274,0.2110653
C0D430,峨眉,2025-03-08,24.6905,121.017189,8.453055e-05
C0G780,秀水,2025-03-08,24.03405,120.503869,0.0024082863
72N100,臺南農改場,2025-03-08,23.0605,120.342194,0.08781083
C0S900,蘭嶼高中,2025-03-08,22.04909,121.51214,0.0023356003
467540,大武,2025-03-08,22.355675,120.903789,0.5132146
C1F9W0,德基,2025-03-08,24.254783,121.190261,0.00085009617
C1Z120,壽豐,2025-03-08,23.870853,121.508081,0.04193038
C0W160,烏坵,2025-03-08,24.9944,119.44956,0.00034626084
C1I240,外大坪,2025-03-08,23.958697,120.917931,0.0010516605
C1I550,國六W023K,2025-03-08,23.979067,120.867742,0.0068224687
C0R870,興海,2025-03-08,21.9752,120.8439,0.0064124228
C0R140,瑪家,2025-03-08,22.682903,120.686639,0.06891053
C0A530,坪林,2025-03-08,24.938183,121.70975,0.020138755
C0X260,後壁,2025-03-08,23.366358,120.362326,0.024744542
C0Z230,和平,2025-03-08,24.30717,121.77007,0.050788965
C0G770,福興,2025-03-08,24.041289,120.437669,0.00014995447
C0H9A0,神木村,2025-03-08,23.532742,120.843667,0.00087948807
C0I460,南投,2025-03-08,23.911469,120.687331,0.0032516646
C0I480,梅峰,2025-03-08,24.085272,121.173572,0.00068193045
C1V570,吉東,2025-03-08,22.85422,120.5454,0.32750523
C2D740,屯原,2025-03-08,24.067969,121.209389,0.0007273715
C2A560,福山,2025-03-08,24.776203,121.502811,0.011028871
C0AH30,五分山,2025-03-08,25.07125,121.780794,0.0018281605
C0FA10,松柏,2025-03-08,24.429115,120.617482,4.7729784e-05
72S200,東改班鳩分場,2025-03-08,22.829528,121.077694,0.0039402456
72HA00,中改埔里分場,2025-03-08,23.903208,120.963364,0.0034573593
C2H9W0,大坪頂農水,2025-03-08,24.043122,120.932781,0.0022504572
C0C650,平鎮,2025-03-08,24.897503,121.214636,0.00033692905
C0S930,延平,2025-03-08,22.902581,121.084058,0.0033395374
C0UA60,樟樹山,2025-03-08,24.41393,121.78325,0.009277572
C1S670,摩天,2025-03-08,23.199503,121.027,0.0010330396
C0V630,茄萣,2025-03-08,22.906642,120.182608,0.011644842
466940,基隆,2025-03-08,25.133314,121.740475,0.011064232
C0X050,東河,2025-03-08,23.296598,120.385608,0.024659488
C0R770,保力,2025-03-08,22.071122,120.764111,0.010943035
G2L020,農試嘉義分所,2025-03-08,23.485028,120.473806,0.019235523
C0X240,關子嶺,2025-03-08,23.331169,120.508025,0.01780223
C0I380,集集,2025-03-08,23.828206,120.801467,0.032324012
466990,花蓮,2025-03-08,23.975128,121.613275,0.051402524
C1V220,小關山,2025-03-08,23.154217,120.813603,0.0016598959
C1F9G1,慶福山,2025-03-08,24.180853,120.848378,0.0006632784
C0Z250,瑞穗林道,2025-03-08,23.49284,121.30688,0.015003132
C0D590,新豐,2025-03-08,24.87068,120.97721,0.00015819771
C0A870,五指山,2025-03-08,25.132153,121.608692,0.0007115256
C0UA50,西帽山,2025-03-08,24.555361,121.802628,0.007890633
C0X160,仁德,2025-03-08,22.968258,120.257689,0.053595167
C1H971,六分寮,2025-03-08,23.92507,120.6378,0.0031954844
C0W120,西嶼,2025-03-08,23.5626,119.468436,0.00020747379
C0G650,員林,2025-03-08,23.946503,120.585597,0.0072808773
C0AD50,鶯歌,2025-03-08,24.951533,121.346294,0.00054524053
C2H9Q0,北東眼山,2025-03-08,24.120939,121.189303,0.0004972078
C2H9T0,名間竹圍,2025-03-08,23.859914,120.637572,0.014081636
C0S990,山豬窟,2025-03-08,22.318619,120.857372,0.010519691
72Q010,高雄農改,2025-03-08,22.709333,120.525889,0.2216517
C0X190,安平,2025-03-08,22.993161,120.152181,0.015118142
C0K400,斗六,2025-03-08,23.720583,120.541127,0.015732836
12J990,口湖工作站,2025-03-08,23.589978,120.180394,0.00015558428
C0O830,北寮,2025-03-08,23.079561,120.495008,0.20158283
C1D410,白蘭,2025-03-08,24.579364,121.079947,0.0006919717
C0S970,加津林,2025-03-08,22.416211,120.926942,0.48238614
C0D700,關西,2025-03-08,24.7977,121.1732,0.00013967283
C0M810,里佳,2025-03-08,23.389125,120.716647,0.0013234265
C0U750,龜山島,2025-03-08,24.841667,121.953133,0.00077531196
C0R810,內獅,2025-03-08,22.305064,120.642986,0.0434023
C1M390,龍美,2025-03-08,23.406728,120.654417,0.0016742647
C2FB60,頭櫃山,2025-03-08,24.129842,120.858925,0.0017580503
C1H840,國三N238K,2025-03-08,23.841008,120.707711,0.02591517
CAQ030,崎峰國小,2025-03-08,22.42565,120.49521,0.2110653
C2E520,大湖,2025-03-08,24.414939,120.870872,0.00048512488
467530,阿里山,2025-03-08,23.508208,120.813242,0.0006574243
C1E691,南湖,2025-03-08,24.40135,120.837533,0.00031135825
C0FA30,梧棲,2025-03-08,24.256003,120.523381,7.420399e-05
C1V231,高中,2025-03-08,23.134911,120.716711,0.0029930167
C0F9V0,新社,2025-03-08,24.200172,120.815806,0.0005730945
C0H890,埔里,2025-03-08,23.972169,120.952425,0.0017699517
C0R690,墾丁,2025-03-08,21.966756,120.810269,0.0010592954
C0F0D0,審馬陣,2025-03-08,24.381675,121.4203,0.00049966644
C0R820,白鷺,2025-03-08,22.454275,120.666219,0.018504493
U2H480,臺大溪頭,2025-03-08,23.670306,120.798194,0.002944173
C1V190,南天池,2025-03-08,23.27403,120.91176,0.0011826628
K2E360,苗栗農改場,2025-03-08,24.495722,120.829111,0.00018533599
CAJ050,海口故事園區,2025-03-08,23.57543,120.14121,0.0001559672
C2H9D0,三隻寮,2025-03-08,24.093078,120.861578,0.0021451898
C0O990,媽廟,2025-03-08,22.99175,120.293525,0.108606204
C0D480,打鐵坑,2025-03-08,24.849664,121.150789,0.00018130917
C0Z220,和平林道,2025-03-08,24.343922,121.656317,0.0010607733
C0TA10,花蓮漁港,2025-03-08,23.995322,121.638331,0.061845586
72C440,桃園農改場,2025-03-08,24.950944,121.030583,0.0001371276
C1E711,馬拉邦山,2025-03-08,24.367306,120.901656,0.00025821853
C0SB20,富岡,2025-03-08,22.792467,121.192669,0.02413035
C0D560,竹東,2025-03-08,24.767147,121.057881,0.00012781963
C0F9U0,南屯,2025-03-08,24.137006,120.637969,0.0010756976
C0M720,番路,2025-03-08,23.464657,120.554156,0.024003517
C0F0A0,雪山圈谷,2025-03-08,24.388594,121.236339,0.0006162402
C1A9N0,四十份,2025-03-08,24.934158,121.593283,0.0011398444
C0U760,東澳,2025-03-08,24.52196,121.83318,0.21462399
C0X230,鹽水,2025-03-08,23.272621,120.247641,0.0025658403
C2H9H0,苗改南投蜂場,2025-03-08,23.852589,120.693481,0.0044003217
C0R950,萬隆國小,2025-03-08,22.507667,120.587817,0.19813414
C0V370,古亭坑,2025-03-08,22.893178,120.401947,0.30178875
C1I340,新興橋,2025-03-08,23.563333,120.868728,0.003610549
C0SA80,土坂,2025-03-08,22.453108,120.887572,0.38974708
C0R160,鹽埔,2025-03-08,22.739558,120.530778,0.22034808
C0AC40,大屯山,2025-03-08,25.175675,121.522408,0.0006470504
466850,五分山雷達站,2025-03-08,25.071182,121.781205,0.0017822218
C2H9L0,馬烈霸,2025-03-08,24.1512,121.201772,0.0006038696
C1AI50,國三N016K,2025-03-08,25.034164,121.619664,0.00063031615
C1V600,藤枝,2025-03-08,23.071961,120.757042,0.0012518807
C1E601,南勢,2025-03-08,24.572486,120.734842,6.195601e-05
C0Z180,新城,2025-03-08,24.03946,121.60454,0.04602822
C0O980,新市,2025-03-08,23.061614,120.298197,0.11122447
C0K420,西螺,2025-03-08,23.800407,120.467394,0.00539249
C0Z050,佳心,2025-03-08,23.34567,121.21316,0.0011172275
C0AD30,蘆洲,2025-03-08,25.086594,121.472331,0.00073500705
C0V610,梓官,2025-03-08,22.760558,120.267211,0.13117689
K2F750,種苗改良場,2025-03-08,24.225972,120.800917,0.0007731267
C0UA80,大溪漁港,2025-03-08,24.941801,121.902955,0.18550329
C1AI60,國一39K邊坡,2025-03-08,25.064361,121.383836,0.00032261485
C0W150,金寧,2025-03-08,24.457703,118.328989,0.00011775189
C0R960,內埔,2025-03-08,22.608483,120.570714,0.22963752
V2C250,八德合作社,2025-03-08,24.93775,121.266389,0.00039260372
C2H9S0,龍南,2025-03-08,23.953536,120.833183,0.0019750784
C0AH40,平等,2025-03-08,25.129142,121.577086,0.001373533
C0R540,佳冬,2025-03-08,22.419456,120.552375,0.21778823
466950,彭佳嶼,2025-03-08,25.627975,122.079744,0.00054682815
C0A890,雙溪,2025-03-08,25.036003,121.864242,0.039493453
C0C480,桃園,2025-03-08,24.992425,121.323172,0.00047482646
C0AH50,林口,2025-03-08,25.072181,121.38084,0.00029863647
A2K360,水試臺西試驗場,2025-03-08,23.717231,120.190522,6.392862e-05
B2N890,畜試所,2025-03-08,23.058972,120.336406,0.08872481
C2M960,外寮,2025-03-08,23.562643,120.665688,0.0023143233
C0F9S0,烏日,2025-03-08,24.107058,120.624103,0.014061102
C0C490,八德,2025-03-08,24.928708,121.283289,0.00038758013
C0R190,赤山,2025-03-08,22.592333,120.614306,0.21998788
C0T820,天祥,2025-03-08,24.179597,121.495639,0.026503261
C1F9E1,龍安,2025-03-08,24.1605,120.831961,0.000370856
C0V820,小林,2025-03-08,23.148408,120.63325,0.014510437
C2G870,芳苑,2025-03-08,23.922303,120.320025,8.919466e-05
C0E850,大河,2025-03-08,24.618069,120.948578,0.00021311175
C1U670,寒溪,2025-03-08,24.634,121.71691,0.045517087
C0N020,城西,2025-03-08,23.0568,120.0956,0.008547745
C1Z110,三棧,2025-03-08,24.11557,121.60501,0.029365301
C0R280,檳榔,2025-03-08,22.076078,120.836777,0.011586976
C2H9J0,中台,2025-03-08,23.9996,120.938739,0.007561563
C0F9L0,后里,2025-03-08,24.310436,120.729725,0.009187055
C0D540,橫山,2025-03-08,24.71116,121.11693,0.00015519843
C1D420,太閣南,2025-03-08,24.632808,121.160575,0.0006507858
C1E770,公館,2025-03-08,24.526914,120.830806,0.00020297864
CAN130,水試所海水繁養殖中心,2025-03-08,23.120802,120.07968,0.0008924872
C1I430,翠華,2025-03-08,24.191961,121.224339,0.00076080003
C1M400,菜瓜坪,2025-03-08,23.251928,120.576103,0.026875915
C0G730,二林,2025-03-08,23.903325,120.376081,0.00014881165
72M360,南改義竹分場,2025-03-08,23.360694,120.279361,0.0032671294
V2K620,麥寮合作社,2025-03-08,23.753836,120.294783,0.00020238575
C0Z070,舞鶴,2025-03-08,23.46811,121.37407,0.0036890008
C0B040,大武崙,2025-03-08,25.166676,121.706993,0.00822012
C1Z030,紅葉,2025-03-08,23.493119,121.338806,0.008428805
C1I050,丹大,2025-03-08,23.753747,121.141147,0.000999494
C0I080,信義,2025-03-08,23.689694,120.851036,0.030183366
C2M920,朴子農改,2025-03-08,23.469889,120.259383,0.003186448
C2A880,福隆,2025-03-08,25.017842,121.942083,0.29006532
C0Z160,鳳林,2025-03-08,23.746114,121.453411,0.032869507
C0V210,復興,2025-03-08,23.222403,120.806089,0.0071669105
C0H990,昆陽,2025-03-08,24.121322,121.273642,0.00074432226
C0R741,獅子,2025-03-08,22.202308,120.705236,0.13401917
C0S710,鹿野,2025-03-08,22.917711,121.122994,0.000648275
C0I530,小奇萊,2025-03-08,24.131764,121.295717,0.00073700526
C2K630,荷苞,2025-03-08,23.657717,120.595144,0.0146078225
C0Z080,富源,2025-03-08,23.587642,121.378225,0.02464165
467441,高雄,2025-03-08,22.7304,120.3125,0.12292959
C0SB10,美和,2025-03-08,22.682078,121.060236,0.754565
C2K620,馬光農場,2025-03-08,23.721453,120.378864,0.00691145
C1I140,卡奈托灣,2025-03-08,23.754364,121.087872,0.001137027
C0I520,玉山風口,2025-03-08,23.470489,120.955994,0.0008316954
C1G691,下水埔,2025-03-08,23.816114,120.5676,0.011255424
C0X110,臺南市南區,2025-03-08,22.961189,120.188378,0.05421068
C0V680,仁武,2025-03-08,22.701083,120.347722,0.029027237
C2G840,北斗,2025-03-08,23.877586,120.514222,0.0014554128
C0R900,竹坑,2025-03-08,22.1385,120.7022,0.012508327
C0K250,崙背,2025-03-08,23.75555,120.318925,0.00020109562
C0G860,社頭,2025-03-08,23.897647,120.5862,0.005158563
C0X150,安定,2025-03-08,23.102614,120.227839,0.054739375
C0R590,里港,2025-03-08,22.77919,120.49459,0.45264503
C0E610,馬都安,2025-03-08,24.451272,120.930192,0.00029745494
C0E550,明德,2025-03-08,24.583486,120.885411,0.00012913586
C0R150,三地門,2025-03-08,22.709889,120.639944,0.2375089
C0G910,花壇,2025-03-08,24.032076,120.549461,0.0020581891
C1D400,鳥嘴山,2025-03-08,24.71909,121.28387,0.0003215018
C0K500,元長,2025-03-08,23.64981,120.315024,0.00027333648
C0F0B0,石岡,2025-03-08,24.276061,120.777644,0.005090017
C2V250,甲仙,2025-03-08,23.080106,120.591758,0.09337787
C0SA20,金崙山,2025-03-08,22.567419,120.959667,0.0018549804
C0V350,溪埔,2025-03-08,22.738578,120.446797,0.42991653
C0M660,溪口,2025-03-08,23.604131,120.403569,0.005627556
C1S880,壽卡,2025-03-08,22.238911,120.858903,0.0019514061
72D680,桃改新埔分場,2025-03-08,24.834444,121.066111,0.0001264062
