站號,站名,日期,lat,lon,BLBTSLS
K2F750,種苗繁殖,2025-01-31,24.225972,120.800917,6.417377e-10
C0R170,屏東,2025-01-31,22.660269,120.494072,6.9566225e-10
467990,馬祖,2025-01-31,26.169269,119.923419,4.5566512e-08
C2E540,後龍,2025-01-31,24.606489,120.783933,4.450935e-08
467300,東吉島,2025-01-31,23.25695,119.667467,0.9935736
G2F820,農業試驗所,2025-01-31,24.031261,120.688133,5.4867394e-10
467410,臺南,2025-01-31,22.993239,120.204772,2.8343256e-10
C0V310,美濃,2025-01-31,22.898742,120.519153,3.1631914e-10
E2S960,林試太麻里2,2025-01-31,22.598014,120.989761,2.4222404e-08
72C440,桃園農改,2025-01-31,24.950944,121.030583,1.0626526e-07
C1H860,瑞岩,2025-01-31,24.123772,121.18345,8.240331e-09
72G600,臺中農改,2025-01-31,24.003028,120.534389,3.8666595e-10
72N100,臺南農改,2025-01-31,23.0605,120.342194,7.268318e-10
72T250,花蓮農改,2025-01-31,23.975222,121.563889,2.3610035e-08
467620,蘭嶼,2025-01-31,22.036969,121.558339,0.93209296
K2E360,苗栗農改,2025-01-31,24.495722,120.829111,3.7659404e-09
467050,新屋,2025-01-31,25.006744,121.047486,1.1894643e-07
467550,玉山,2025-01-31,23.487614,120.959522,2.4092284e-08
466881,新北,2025-01-31,24.9593,121.52,2.727597e-09
467540,大武,2025-01-31,22.355675,120.903789,3.4370075e-06
72Q010,高雄農改,2025-01-31,22.709333,120.525889,5.3970306e-10
U2H480,臺大溪頭,2025-01-31,23.670306,120.798194,2.9217893e-09
C0Z180,新城,2025-01-31,24.03946,121.60454,2.518304e-08
B2N890,畜試所,2025-01-31,23.058972,120.336406,7.268318e-10
467441,高雄,2025-01-31,22.7304,120.3125,3.2357164e-10
