站號,站名,日期,lat,lon,BlastGRU-TW
C0R710,龍磐,2025-10-20,21.931672,120.838942,0.008569562
C1F9D1,白毛台,2025-10-20,24.158325,120.886933,0.56885475
C0G940,竹塘,2025-10-20,23.848253,120.386764,0.14162064
467590,恆春,2025-10-20,22.003897,120.746339,0.009794105
C1O850,環湖,2025-10-20,23.148617,120.418633,0.14384021
C0U710,太平山,2025-10-20,24.505486,121.525656,0.15520507
C0E820,獅潭,2025-10-20,24.539133,120.920042,0.46193743
C0V880,興達,2025-10-20,22.8778,120.2127,0.14420006
C0S890,關山,2025-10-20,23.0395,121.175017,0.710286
C0SB30,新蘭,2025-10-20,22.869214,121.223228,0.3840283
C2R970,屏科大,2025-10-20,22.648275,120.619247,0.3748425
C1Z130,銅門,2025-10-20,23.965694,121.492842,0.5980776
C0AD40,土城,2025-10-20,24.973208,121.445169,0.05481907
CAN140,六官養殖協會,2025-10-20,23.22881,120.29962,0.12453608
C0X180,山上,2025-10-20,23.0757,120.363253,0.14395215
C0F9Z0,雪山東峰,2025-10-20,24.388792,121.268675,0.0015114711
C1M480,獨立山,2025-10-20,23.537022,120.607797,0.32742968
C0X220,學甲,2025-10-20,23.230367,120.182187,0.18885055
467650,日月潭,2025-10-20,23.881325,120.90805,0.3396767
C0K600,箔子寮,2025-10-20,23.6197,120.14,0.12794851
C0G830,埤頭,2025-10-20,23.866003,120.452806,0.13778494
C0S950,七塊厝,2025-10-20,22.954453,121.229922,0.64856094
467110,金門,2025-10-20,24.407306,118.289281,0.099599406
C0AH80,深坑,2025-10-20,25.002703,121.628328,0.057292078
C0A970,三貂角,2025-10-20,25.007606,122.002058,0.1508878
C2D730,寶山農場,2025-10-20,24.732444,120.976153,0.23054859
C0K430,褒忠,2025-10-20,23.690938,120.303634,0.092676416
467480,嘉義,2025-10-20,23.495925,120.432906,0.10463154
C0V400,阿公店,2025-10-20,22.804194,120.355528,0.16774473
C0E960,觀霧分站,2025-10-20,24.505781,121.113921,0.029858738
467550,玉山,2025-10-20,23.48718,120.95943,0.00060240756
C0R440,大漢山,2025-10-20,22.405264,120.753181,0.09627873
C0K280,四湖,2025-10-20,23.630414,120.227125,0.13330187
C1F9B1,桐林,2025-10-20,24.066172,120.735194,0.26004753
C2H9U0,鳳鵬,2025-10-20,23.763919,120.788061,0.36255938
C0K390,土庫,2025-10-20,23.679029,120.395574,0.117434256
C1I450,望鄉山,2025-10-20,23.594153,120.944286,0.0015268176
C0E910,海埔,2025-10-20,24.648767,120.772435,0.21857561
B2E890,畜試北區分所,2025-10-20,24.527806,120.770972,0.23279282
C0R750,四林格山,2025-10-20,22.076989,120.802439,0.77180856
C0F0C0,中坑,2025-10-20,24.248517,120.903319,0.43233553
C1I121,大鞍,2025-10-20,23.678381,120.760017,0.48529607
72U480,花改蘭陽分場,2025-10-20,24.686306,121.716583,0.08351784
C0A770,科教館,2025-10-20,25.096356,121.516507,0.033032686
C0AJ60,六塊厝,2025-10-20,25.24,121.4481,0.0413345
C0R620,墾雷,2025-10-20,21.900836,120.855269,0.006066987
467420,永康,2025-10-20,23.038386,120.2367,0.09647191
C0I410,名間,2025-10-20,23.837053,120.701447,0.2270875
A2C560,農工中心,2025-10-20,24.985917,121.239833,0.08723283
C0V740,旗山,2025-10-20,22.888614,120.483597,0.12952687
C0Z061,玉里,2025-10-20,23.3215,121.339656,0.46094885
C0S840,南田,2025-10-20,22.279725,120.889208,0.012780154
C1I470,杉林溪,2025-10-20,23.639517,120.786444,0.22138028
C1X040,東原,2025-10-20,23.291597,120.463822,0.16726537
C0R660,枋寮,2025-10-20,22.367722,120.590647,0.17207794
C1R120,上德文,2025-10-20,22.763272,120.704442,0.41605562
C0K450,大埤,2025-10-20,23.646074,120.431537,0.16026182
C0UA00,土場,2025-10-20,24.576533,121.495333,0.5772438
467080,宜蘭,2025-10-20,24.763975,121.756528,0.08028901
C0N030,四草,2025-10-20,23.0235,120.1116,0.14754719
467410,臺南,2025-10-20,22.99328,120.20492,0.1491638
C0V650,彌陀,2025-10-20,22.783806,120.246361,0.12724578
C0D660,新竹市東區,2025-10-20,24.798681,120.986942,0.13773444
82S580,茶改東部分場,2025-10-20,22.907694,121.130139,0.6997843
C0SB40,興隆,2025-10-20,22.913661,121.257469,0.42147943
467050,新屋,2025-10-20,25.006725,121.047492,0.10708135
C0C710,大溪永福,2025-10-20,24.892936,121.324975,0.12635839
C0FA20,溫寮,2025-10-20,24.372177,120.583125,0.17634429
C0V640,湖內,2025-10-20,22.887139,120.2445,0.14798248
C0R910,下寮,2025-10-20,22.3929,120.5548,0.17177358
C0Z020,明里,2025-10-20,23.208717,121.262342,0.5628761
C0M770,嘉義梅山,2025-10-20,23.585398,120.555587,0.28586766
C0C660,楊梅,2025-10-20,24.912375,121.143047,0.086025454
C1E511,新開,2025-10-20,24.347703,120.827019,0.40053794
G2F820,農試所(霧峰),2025-10-20,24.031261,120.688133,0.17924847
C1I070,和社,2025-10-20,23.591131,120.888861,0.4284274
C0TA80,立霧山,2025-10-20,24.183258,121.641899,0.55795497
C2F000,大肚,2025-10-20,24.15295,120.572117,0.2755718
C1S850,豐南,2025-10-20,23.122139,121.262389,0.74246395
C2A920,富貴角,2025-10-20,25.263783,121.565258,0.057651702
CAH030,茶改場竹圍站,2025-10-20,23.860083,120.637528,0.39313912
C0T960,光復,2025-10-20,23.660694,121.424964,0.5592198
C0F9M0,豐原,2025-10-20,24.254322,120.720692,0.26773053
C0R720,旭海,2025-10-20,22.205403,120.887614,0.034016147
C0V710,苓雅,2025-10-20,22.622742,120.330669,0.14261417
C0C740,觀音工業區,2025-10-20,25.064764,121.114856,0.117312215
CAC040,拉拉山,2025-10-20,24.699317,121.427133,0.52341086
C0V790,萬山,2025-10-20,22.905944,120.688056,0.46795183
U2HA30,臺大和社,2025-10-20,23.590856,120.888864,0.4284274
C2H9K0,屯原,2025-10-20,24.067969,121.209389,0.05494124
C0AJ90,澳底,2025-10-20,25.0552,121.9253,0.149421
C0Z100,東華,2025-10-20,23.89525,121.549833,0.49728987
C0G970,三豐,2025-10-20,23.882,120.2895,0.10944637
V2K610,大庄合作社,2025-10-20,23.8068,120.367939,0.10978299
C0V900,汕尾,2025-10-20,22.4782,120.4151,0.22638273
C1R630,龍泉,2025-10-20,22.66701,120.59091,0.2999811
C1AC50,關渡,2025-10-20,25.133486,121.469331,0.048048284
C0C800,四稜,2025-10-20,24.64733,121.4293,0.17565824
C0F9I0,神岡,2025-10-20,24.272481,120.658314,0.22502895
C0K460,斗南,2025-10-20,23.678734,120.478359,0.16321027
C2O810,曾文,2025-10-20,23.219681,120.497328,0.123094425
467280,後龍,2025-10-20,24.648563,120.831834,0.23369096
C1F9J1,清水林,2025-10-20,24.071242,120.820419,0.45167267
C2A650,火燒寮,2025-10-20,25.002719,121.742892,0.36608174
466930,竹子湖,2025-10-20,25.162078,121.544547,0.36059895
C1I220,樟湖,2025-10-20,23.905333,120.846983,0.14587298
C0I390,仁愛,2025-10-20,24.022122,121.132206,0.28348932
C0Z300,東里,2025-10-20,23.26853,121.30547,0.42901024
C1V590,新發,2025-10-20,23.057019,120.646064,0.32526907
C0K510,水林,2025-10-20,23.572924,120.24597,0.0896068
72S590,東改賓朗果園,2025-10-20,22.813889,121.071278,0.7802663
82A750,茶改北部分場,2025-10-20,24.955778,121.631222,0.23296843
C1A750,石碇服務區,2025-10-20,25.00872,121.646242,0.061533984
C0X300,鹿寮,2025-10-20,23.386047,120.477331,0.15247068
G2AI50,關渡,2025-10-20,25.11575,121.492,0.066644564
C0K590,雲林東勢,2025-10-20,23.674192,120.255721,0.08990233
C0A570,桶後,2025-10-20,24.848222,121.597992,0.31548208
C1S800,華源,2025-10-20,22.657883,121.02325,0.35465237
C0G720,溪州,2025-10-20,23.851589,120.499093,0.14159785
C1V160,達卡努瓦,2025-10-20,23.279811,120.705319,0.19719267
C2M410,馬頭山,2025-10-20,23.324361,120.582017,0.251488
C0V850,蚵仔寮,2025-10-20,22.7256,120.2527,0.140282
C0S740,池上,2025-10-20,23.119628,121.209469,0.58882856
C1V390,尖山,2025-10-20,22.813153,120.367789,0.1963769
C0AH70,松山,2025-10-20,25.04871,121.55042,0.033316493
C0N010,鯤鯓國小,2025-10-20,23.1879,120.0889,0.15974052
C0R550,新埤,2025-10-20,22.467947,120.582894,0.2387103
C0SA60,知本（水試所）,2025-10-20,22.702394,121.082761,0.15330394
C0T9I0,豐濱,2025-10-20,23.583897,121.514806,0.47194135
C0UB00,淡江大學蘭陽校園,2025-10-20,24.823239,121.730383,0.364217
C0W240,九宮,2025-10-20,24.423753,118.240186,0.0978367
C0T9N0,富里,2025-10-20,23.171639,121.249378,0.6058371
U2HA50,臺大竹山,2025-10-20,23.756972,120.681556,0.27530515
C0V840,鳳鼻頭,2025-10-20,22.5083,120.3591,0.090261824
C0X140,西港,2025-10-20,23.125608,120.203108,0.11080637
72D080,桃改五峰分場,2025-10-20,24.612194,121.157167,0.112877294
C2H9P0,伊拿谷,2025-10-20,23.963211,121.088264,0.3168261
C2H9F0,柑林,2025-10-20,24.018658,120.847072,0.20846114
C0TA20,加灣,2025-10-20,24.082025,121.608944,0.7494857
C0V530,阿蓮,2025-10-20,22.883208,120.327508,0.1432109
C0FB30,八仙山苗圃,2025-10-20,24.192719,121.001366,0.44814312
C1O880,關山,2025-10-20,23.173397,120.594092,0.2918648
C0E791,卓蘭,2025-10-20,24.3126,120.8244,0.344376
C1I030,武界,2025-10-20,23.913225,121.052483,0.29774386
C0R520,崁頂,2025-10-20,22.514781,120.506914,0.19966504
C0R341,牡丹,2025-10-20,22.130036,120.792639,0.04833331
C0R930,萬丹,2025-10-20,22.5885,120.4851,0.07103038
C0S760,紅石,2025-10-20,23.069131,121.126219,0.34691158
C2C410,中央大學,2025-10-20,24.967652,121.185165,0.088682525
C1M610,石磐龍,2025-10-20,23.496606,120.663506,0.5557079
C0C790,東眼山,2025-10-20,24.8284,121.40888,0.08094863
C0UA10,鴛鴦湖,2025-10-20,24.590269,121.412228,0.6062214
V2C260,八德蔬果,2025-10-20,24.978508,121.281819,0.09551008
C0R800,丹路,2025-10-20,22.204481,120.750989,0.03017875
C0G920,永靖,2025-10-20,23.924703,120.547533,0.15198395
C2M950,太和,2025-10-20,23.538372,120.702961,0.6200363
C1A630,下盆,2025-10-20,24.771003,121.538622,0.4587091
B2N890,畜產試驗所,2025-10-20,23.058972,120.336406,0.09149467
C0UA30,白嶺,2025-10-20,24.527819,121.519031,0.6576818
C1V580,溪南(特生中心),2025-10-20,23.084972,120.788475,0.18744373
C1T970,大農,2025-10-20,23.615233,121.413331,0.5159925
C0R650,竹田,2025-10-20,22.58486,120.54344,0.22769798
C1H900,清流,2025-10-20,24.080775,120.962997,0.4393739
C1C510,水尾,2025-10-20,24.940081,121.087161,0.10129478
C0F9X0,大雅(中科園區),2025-10-20,24.21528,120.62445,0.25204933
C0SB60,白守蓮,2025-10-20,23.126769,121.401914,0.09725363
C0O970,虎頭埤,2025-10-20,23.021375,120.347878,0.18717502
C0C730,中大臨海站,2025-10-20,24.966126,121.008581,0.10363101
C0X250,新營,2025-10-20,23.310689,120.316681,0.13939087
C0V700,三民,2025-10-20,22.645017,120.311233,0.16039748
C0U870,大礁溪,2025-10-20,24.791042,121.675047,0.48298845
C0E870,高鐵苗栗,2025-10-20,24.60725,120.826094,0.254095
A2K570,古坑花卉中心,2025-10-20,23.63353,120.55239,0.25478137
C0TA30,鹽寮,2025-10-20,23.845606,121.592664,0.46464524
C0M860,新美,2025-10-20,23.338017,120.683169,0.67891055
C1E701,八卦,2025-10-20,24.491756,120.927619,0.3540392
C0I420,國姓,2025-10-20,24.037803,120.855072,0.21942414
C2D720,關西工作站,2025-10-20,24.757275,121.184792,0.1654255
C0S960,香蘭,2025-10-20,22.587569,120.993375,0.12916856
467620,蘭嶼,2025-10-20,22.0369,121.55843,0.04995315
C0R260,春日,2025-10-20,22.370361,120.628306,0.22302625
72G600,臺中農改場,2025-10-20,24.003028,120.534389,0.15077205
C0Z210,瑞穗,2025-10-20,23.5239,121.39021,0.43851888
C0M820,達邦,2025-10-20,23.453994,120.749517,0.5287593
C0V860,南寮,2025-10-20,22.7616,120.2339,0.14032948
C0G740,大城,2025-10-20,23.852487,120.320935,0.114639975
C0R920,塭仔,2025-10-20,22.4169,120.5197,0.16541457
C0R470,高樹,2025-10-20,22.826389,120.600806,0.15024562
C0R680,佳樂水,2025-10-20,21.993578,120.861633,0.010932759
C1O870,大棟山,2025-10-20,23.31157,120.52226,0.6941558
C0D360,梅花,2025-10-20,24.678347,121.208558,0.45697004
C0Z190,富世,2025-10-20,24.14743,121.6297,0.85890394
C0AI10,屈尺,2025-10-20,24.92184,121.54475,0.097750805
B2U990,畜試東區分所,2025-10-20,24.669039,121.832561,0.10419459
C0SB80,長濱漁港,2025-10-20,23.313644,121.459994,0.20235673
C0TA50,和仁,2025-10-20,24.241394,121.712472,0.8740963
C0V910,大樹,2025-10-20,22.684645,120.432803,0.089566074
C1R610,西大武山,2025-10-20,22.617719,120.7322,0.08408639
C0G900,線西,2025-10-20,24.143358,120.443536,0.19025555
C0M700,竹崎,2025-10-20,23.526178,120.555508,0.2113347
C2E880,三義,2025-10-20,24.405478,120.749819,0.38897133
C0C720,竹圍,2025-10-20,25.112692,121.239824,0.06665993
C0F9P0,清水,2025-10-20,24.312297,120.562242,0.17293932
C0Z150,吉安光華,2025-10-20,23.930925,121.595153,0.42120227
C0FA80,小雪山天池,2025-10-20,24.28025,121.02627,0.0036512236
467300,東吉島,2025-10-20,23.25727,119.66762,0.4374515
C1D640,外坪(五指山),2025-10-20,24.644447,121.090961,0.22743572
C0F9O0,潭子,2025-10-20,24.213106,120.703933,0.22973518
C2H9R0,卓社,2025-10-20,23.887894,121.000086,0.4736867
72T250,花蓮農改場,2025-10-20,23.975222,121.563889,0.40660408
C0E780,銅鑼,2025-10-20,24.489681,120.790853,0.32517612
C1T950,太安,2025-10-20,23.666719,121.370128,0.2060678
C0E830,苑裡,2025-10-20,24.439714,120.653053,0.22675958
467270,田中,2025-10-20,23.873803,120.581286,0.12613107
C0SA10,檳榔四格山,2025-10-20,22.810031,121.109308,0.7871515
C1T830,布洛灣,2025-10-20,24.17184,121.57127,0.5994287
C0F970,大坑,2025-10-20,24.173142,120.722289,0.2089673
C1U920,思源,2025-10-20,24.393125,121.347214,0.092996195
C0A931,三和,2025-10-20,25.233153,121.595236,0.0714588
C0I010,廬山,2025-10-20,24.033311,121.181808,0.40035054
C2M940,日野賀,2025-10-20,23.434056,120.727169,0.47071245
C0R860,鼻頭,2025-10-20,22.1043,120.8979,0.013977834
C0UB20,壯圍,2025-10-20,24.7359,121.8163,0.077161945
C0R790,九棚,2025-10-20,22.14195,120.889281,0.020347403
C0W110,東莒,2025-10-20,25.9652,119.98069,0.046532203
C1U930,粉鳥林,2025-10-20,24.497088,121.842479,0.33364913
C1I211,蘆竹湳,2025-10-20,23.934019,120.811994,0.36770195
C0S830,長濱,2025-10-20,23.286817,121.411975,0.62834674
C1F9F1,伯公龍,2025-10-20,24.272392,120.849047,0.41526246
C0UB90,太平山莊,2025-10-20,24.494171,121.536209,0.13768272
C0E810,西湖,2025-10-20,24.562947,120.7485,0.24353573
C1I440,新高口,2025-10-20,23.478744,120.878939,0.0070045614
C0O840,王爺宮,2025-10-20,23.222064,120.40085,0.0914121
C0T9G0,鳳林山,2025-10-20,23.735269,121.420131,0.6253666
C0X080,佳里,2025-10-20,23.173039,120.145086,0.15964822
C0FB70,大甲溪埔,2025-10-20,24.370625,120.620067,0.19416188
C0Z310,清水斷崖,2025-10-20,24.218294,121.689142,0.8933961
C0M680,太保,2025-10-20,23.455062,120.331455,0.11163149
C1S820,金峰,2025-10-20,22.590969,120.933236,0.35075974
C0AD10,八里,2025-10-20,25.150211,121.403947,0.066677906
C2K240,草嶺,2025-10-20,23.59555,120.693461,0.5835101
C1SA70,都蘭,2025-10-20,22.87794,121.226881,0.42204857
C0K440,二崙,2025-10-20,23.772797,120.408944,0.1658177
C1A760,坪林交控,2025-10-20,24.94284,121.713442,0.20764986
C0F9N0,大里,2025-10-20,24.092464,120.701378,0.1982519
C0SA90,達仁林場,2025-10-20,22.264347,120.823972,0.21521536
C1R290,石門山,2025-10-20,22.112611,120.756597,0.08110999
42HA10,萬大發電廠,2025-10-20,23.978875,121.139639,0.17833376
C0R890,山海,2025-10-20,21.9878,120.7091,0.016652979
C0T9A0,月眉山,2025-10-20,23.809928,121.539828,0.45252228
C0AC70,信義,2025-10-20,25.037822,121.564597,0.03332005
C0K560,棋山,2025-10-20,23.68645,120.603417,0.26393494
C2FB50,出雲,2025-10-20,24.206469,120.902794,0.3895714
C1Z240,中平林道,2025-10-20,23.42115,121.26763,0.24718577
U2H480,溪頭,2025-10-20,23.670306,120.798194,0.44329283
C0M880,好美里,2025-10-20,23.3364,120.138,0.1846974
C0T9E0,大坑,2025-10-20,23.880628,121.581981,0.54684615
C0K530,臺西,2025-10-20,23.701547,120.197559,0.12542385
C1E900,國一N128K,2025-10-20,24.560997,120.844186,0.25160804
C0AJ50,水湳洞,2025-10-20,25.123695,121.862238,0.052915335
C0AI20,白沙灣,2025-10-20,25.283128,121.519058,0.0422071
C2V310,美濃,2025-10-20,22.898792,120.51907,0.12482503
C0A860,大坪,2025-10-20,25.165914,121.632969,0.19753015
C1U850,觀音海岸,2025-10-20,24.38319,121.77856,0.49310425
C2K610,草嶺石壁,2025-10-20,23.602469,120.707731,0.6098392
C0U950,鶯子嶺,2025-10-20,24.89754,121.79244,0.08840278
C0O900,善化,2025-10-20,23.112883,120.297219,0.08667507
C0K550,蔦松,2025-10-20,23.514319,120.229736,0.110148415
E2P980,林試六龜中心,2025-10-20,22.991703,120.645722,0.30246747
C0E590,通霄,2025-10-20,24.471892,120.704622,0.17828992
C1I310,西巒,2025-10-20,23.754486,120.883956,0.14136353
C0A550,泰平,2025-10-20,24.971197,121.823711,0.3687611
C0I360,水里,2025-10-20,23.812553,120.849792,0.35355693
C0R830,高士,2025-10-20,22.121825,120.836781,0.22244745
C1I101,溪頭,2025-10-20,23.661789,120.807647,0.046459507
C0AJ20,野柳,2025-10-20,25.20703,121.690021,0.042959034
C0B060,暖暖,2025-10-20,25.0957,121.7403,0.053127248
C1H920,長豐,2025-10-20,24.102039,120.879897,0.45620367
C0V360,內門,2025-10-20,22.975481,120.466769,0.12579298
C0R850,林邊,2025-10-20,22.4634,120.5339,0.23027724
C0E930,龍鳳,2025-10-20,24.700034,120.859125,0.21151662
C0U910,冬山,2025-10-20,24.63373,121.7937,0.104194514
C1E721,泰安,2025-10-20,24.489017,120.968036,0.5845461
82H320,茶改中部分場,2025-10-20,23.875611,120.913583,0.40948924
C0M750,布袋,2025-10-20,23.380878,120.167789,0.16812022
C1S860,利嘉,2025-10-20,22.809417,121.050528,0.6231195
E2S980,林試太麻里1,2025-10-20,22.598922,120.980044,0.18702242
C0X170,關廟,2025-10-20,22.963017,120.327797,0.16076523
C0V720,林園,2025-10-20,22.507747,120.394511,0.08877227
C1I510,線浸林道,2025-10-20,23.761508,120.832956,0.12127817
C0D690,外湖,2025-10-20,24.917735,120.968711,0.08424001
C0C750,新興坑尾,2025-10-20,25.0061,121.0971,0.11649512
B2Q810,畜試南區分所,2025-10-20,21.945583,120.802167,0.010845502
C0S790,金崙,2025-10-20,22.538122,120.966875,0.3167941
C0AH90,福山植物園,2025-10-20,24.760717,121.58135,0.30499247
C0I540,奇萊稜線,2025-10-20,24.109231,121.326456,0.0010980869
C0M850,表湖,2025-10-20,23.24186,120.64166,0.42200154
C0S770,大溪山,2025-10-20,22.478475,120.943325,0.52374583
C0AG80,中和,2025-10-20,24.991622,121.491792,0.054816093
C0T790,大禹嶺,2025-10-20,24.186117,121.316086,0.0036030225
C0T9B0,水源,2025-10-20,23.991861,121.537169,0.6585155
C0R840,牡丹池山,2025-10-20,22.168389,120.841225,0.12237086
C1I131,桶頭,2025-10-20,23.641944,120.654117,0.38377008
CAL110,布袋國中,2025-10-20,23.35893,120.18026,0.15676305
467571,新竹,2025-10-20,24.827853,121.014219,0.08661315
C0Z290,赤柯山,2025-10-20,23.36893,121.38293,0.18083626
C0X280,將軍,2025-10-20,23.214999,120.13577,0.1832805
C0S690,太麻里,2025-10-20,22.60902,120.98533,0.76355314
C0U880,北關,2025-10-20,24.9072,121.8734,0.07213574
C0G810,埔心,2025-10-20,23.947633,120.525456,0.15184405
C0U970,大福,2025-10-20,24.80064,121.81389,0.07809374
C2H9N0,仁愛東眼,2025-10-20,24.026875,121.1205,0.59749866
C1E670,南礦,2025-10-20,24.538278,121.002836,0.2188177
C0M520,東後寮,2025-10-20,23.369908,120.248065,0.16112044
C1E461,松安,2025-10-20,24.397972,120.986022,0.49131906
C2N160,西拉雅風管處,2025-10-20,23.189481,120.335297,0.09374074
C2M970,碧湖,2025-10-20,23.568632,120.624165,0.55957776
C0A640,石碇,2025-10-20,24.993969,121.662917,0.08322085
E2S960,林試太麻里2,2025-10-20,22.598,120.99775,0.12384234
C0F9Y0,桃山,2025-10-20,24.432739,121.303808,0.001168792
C1I020,萬大,2025-10-20,23.979817,121.132261,0.28173316
C0U940,羅東,2025-10-20,24.68184,121.74934,0.08106164
C0M650,朴子,2025-10-20,23.43463,120.23902,0.14194034
C1I500,大尖山,2025-10-20,23.858572,120.994889,0.0057922644
C0FB40,中橫21.6k,2025-10-20,24.2499,121.1455,0.78833103
C0G820,田尾,2025-10-20,23.901669,120.509389,0.15203723
E2K600,四湖植物園,2025-10-20,23.676986,120.163433,0.13369063
C0S730,綠島,2025-10-20,22.6672,121.47533,0.051253993
12Q970,東港工作站,2025-10-20,22.479997,120.466058,0.22581507
C0E430,南庄,2025-10-20,24.601775,121.000214,0.46978316
C1TA00,太魯閣,2025-10-20,24.15773,121.6236,0.8782254
466920,臺北,2025-10-20,25.037658,121.514853,0.033316493
C0R600,舊泰武,2025-10-20,22.588194,120.664944,0.48456594
C1I260,北坑,2025-10-20,23.9246,121.006903,0.36014885
466910,鞍部,2025-10-20,25.182586,121.529731,0.3412196
C1I230,九份二山,2025-10-20,23.961944,120.845,0.37136742
C2A660,瑞芳,2025-10-20,25.113169,121.801147,0.061212473
C0R270,琉球嶼,2025-10-20,22.332244,120.362236,0.22319916
C1T990,高寮,2025-10-20,23.394239,121.356808,0.38162997
C0G620,芬園,2025-10-20,24.015678,120.6213,0.20290092
C1Z140,荖溪,2025-10-20,23.890575,121.45964,0.15382043
C1I201,中心崙,2025-10-20,23.728722,120.712097,0.34874976
C1I400,凌霄,2025-10-20,24.018778,121.004456,0.5957156
C1M640,十字,2025-10-20,23.492153,120.753683,0.2660979
G2P820,農試鳳山分所,2025-10-20,22.646611,120.356083,0.16888244
C0Z270,蕃薯寮,2025-10-20,23.73835,121.540108,0.52662647
C0FB10,出雲山苗圃,2025-10-20,24.23105,120.90475,0.4298519
C0F9Q0,外埔,2025-10-20,24.347817,120.705686,0.2560062
C0K580,高鐵雲林,2025-10-20,23.737456,120.417944,0.13443327
C2I090,鳳凰,2025-10-20,23.728081,120.787347,0.24709338
C0U990,員山,2025-10-20,24.74435,121.72247,0.07923163
C0V770,大社,2025-10-20,22.730306,120.346639,0.14906132
C0X120,麻豆,2025-10-20,23.183289,120.248611,0.12882325
C0C670,龍潭,2025-10-20,24.870056,121.221389,0.13680577
C0D680,香山濕地,2025-10-20,24.783581,120.914988,0.12371329
C0S980,勝林山,2025-10-20,22.430439,120.8938,0.28142047
C0V730,大寮,2025-10-20,22.605614,120.395717,0.14085658
C0R570,麟洛,2025-10-20,22.65078,120.52719,0.08495927
C2M930,石卓,2025-10-20,23.478744,120.702264,0.2279821
C0G9B0,和美,2025-10-20,24.105169,120.492131,0.20386657
CAG100,王功漁港,2025-10-20,23.96824,120.32586,0.17335404
C0X290,北門,2025-10-20,23.267772,120.125481,0.18304841
C2F930,大甲,2025-10-20,24.347667,120.640403,0.2560876
C0D650,湖口,2025-10-20,24.904794,121.043628,0.09967536
C0E420,竹南,2025-10-20,24.708978,120.888897,0.22885035
C0U780,五結,2025-10-20,24.68637,121.79794,0.077279225
C1I250,鯉潭,2025-10-20,23.961922,120.991131,0.36572018
C0R130,阿禮,2025-10-20,22.742908,120.743678,0.39602122
C0X100,臺南市北區,2025-10-20,23.010394,120.194228,0.14023845
C0S920,金峰嘉蘭,2025-10-20,22.594789,120.960825,0.19299348
C0V490,新興,2025-10-20,22.627422,120.298803,0.14237742
C0F9K0,大安,2025-10-20,24.345061,120.588025,0.18836991
467290,古坑,2025-10-20,23.633639,120.551889,0.25478137
C2E970,八甲,2025-10-20,24.535811,120.795983,0.3538001
C0V440,鳳山,2025-10-20,22.646653,120.356122,0.16888244
C1T940,大觀,2025-10-20,23.714206,121.373133,0.41259122
C0E740,造橋,2025-10-20,24.637056,120.864778,0.22844711
C0R100,尾寮山,2025-10-20,22.833111,120.683889,0.32609883
A2K630,臺大雲林校區,2025-10-20,23.730628,120.423903,0.1345362
467990,馬祖,2025-10-20,26.169467,119.923158,0.017177587
C0D580,寶山,2025-10-20,24.735006,121.025192,0.27340293
E2P990,林試扇平站,2025-10-20,22.9677,120.6857,0.8524656
C0AI30,三重,2025-10-20,25.057328,121.500629,0.033032686
C0AH00,汐止,2025-10-20,25.066881,121.658778,0.033316493
C1Z040,立山,2025-10-20,23.443356,121.327375,0.3727784
466881,新北,2025-10-20,24.959207,121.525196,0.056085866
C0W130,花嶼,2025-10-20,23.40007,119.32276,0.39125863
C0A950,鼻頭角,2025-10-20,25.129036,121.923372,0.16636729
C0K470,林內,2025-10-20,23.748675,120.609642,0.23610291
C2F990,摩天嶺,2025-10-20,24.322458,120.936819,0.3126569
82C160,茶改場,2025-10-20,24.908472,121.185333,0.095494084
C0Z320,清水林道,2025-10-20,23.27125,121.188272,0.48570055
C0R760,南仁湖,2025-10-20,22.084681,120.863353,0.08228094
C0M670,大林,2025-10-20,23.600616,120.45841,0.1594351
C0M800,茶山,2025-10-20,23.299075,120.664767,0.64219636
C0A9C0,天母,2025-10-20,25.117494,121.537169,0.041673608
72K220,南改斗南分場,2025-10-20,23.634556,120.477333,0.16261707
72AI40,桃改樹林分場,2025-10-20,24.944503,121.386972,0.06532855
C0S910,蘭嶼燈塔,2025-10-20,22.081197,121.503117,0.031991743
C0B050,八斗子,2025-10-20,25.144754,121.79167,0.051096506
C0U900,內城,2025-10-20,24.71813,121.68766,0.08836239
C0X320,柳營,2025-10-20,23.253328,120.375253,0.09662101
C0M790,新港,2025-10-20,23.553269,120.345728,0.096934155
C0F9T0,西屯,2025-10-20,24.179494,120.641275,0.19668436
C0E950,松安,2025-10-20,24.39792,120.98599,0.491319
C0SA30,都歷,2025-10-20,23.020333,121.323642,0.44272608
C0C620,蘆竹,2025-10-20,25.084275,121.265767,0.06070192
C0R730,大坪頂,2025-10-20,22.024633,120.69355,0.019235466
C0AJ40,石門,2025-10-20,25.273672,121.601198,0.052358974
C0E750,苗栗,2025-10-20,24.564569,120.824575,0.24565871
C0T870,鯉魚潭,2025-10-20,23.935639,121.508944,0.58397865
C1V170,排雲,2025-10-20,23.463619,120.954147,0.0007496247
C2H950,中寮,2025-10-20,23.884447,120.766406,0.30623823
C0R350,貓鼻頭,2025-10-20,21.921774,120.7358,0.010864224
C0V660,岡山,2025-10-20,22.797078,120.294958,0.1272334
C1H941,雙冬,2025-10-20,23.967378,120.802189,0.35537285
C0AJ70,田寮,2025-10-20,25.2698,121.4886,0.041767076
C0AI00,五股,2025-10-20,25.07445,121.42728,0.101535685
C0Z280,德武,2025-10-20,23.47426,121.41071,0.48358676
C0R700,枋山,2025-10-20,22.246844,120.661086,0.094318725
C0C460,復興,2025-10-20,24.820208,121.352281,0.2810882
E2H360,蓮華池,2025-10-20,23.918333,120.885278,0.33287388
C0M640,中埔,2025-10-20,23.42538,120.5229,0.16107346
C0W140,金沙,2025-10-20,24.488292,118.408778,0.08498546
C2A540,四堵,2025-10-20,24.8926,121.745736,0.4965538
C0ACA0,新莊,2025-10-20,25.051478,121.446756,0.041162778
C0R220,潮州,2025-10-20,22.534361,120.54,0.20351847
U2HA40,臺大內茅埔,2025-10-20,23.689722,120.851117,0.5459163
467490,臺中,2025-10-20,24.145736,120.684075,0.20774837
C0UB60,明池,2025-10-20,24.650688,121.475277,0.17127949
C0U960,翠峰湖,2025-10-20,24.510856,121.608044,0.08181688
E2HA20,林試畢祿溪站,2025-10-20,24.226944,121.308522,0.02626717
C0V890,前鎮,2025-10-20,22.5718,120.3117,0.13805687
C1F941,雪嶺,2025-10-20,24.280586,121.026642,0.0036512236
C2H9E0,國姓南港,2025-10-20,23.911108,120.846556,0.1309591
C0AC80,文山,2025-10-20,25.00235,121.575728,0.057368208
C0F9R0,龍井,2025-10-20,24.184536,120.528972,0.1944039
C0M760,民雄,2025-10-20,23.551754,120.428457,0.15392809
C0UA40,西德山,2025-10-20,24.560647,121.752608,0.45030507
C1T920,中興,2025-10-20,23.769503,121.498653,0.5570885
C0D550,雪霸,2025-10-20,24.526972,121.11605,0.15361118
C2F860,梨山,2025-10-20,24.247522,121.243669,0.021583693
C0R320,車城,2025-10-20,22.0744,120.716247,0.026432052
C1S870,南美山,2025-10-20,23.15025,121.382333,0.59410304
C0B020,基隆嶼,2025-10-20,25.19141,121.78391,0.065935574
C1U501,牛鬥,2025-10-20,24.637836,121.573656,0.413336
C0M730,嘉義市東區,2025-10-20,23.457673,120.460531,0.12298629
C0S700,知本,2025-10-20,22.684866,121.005642,0.64116305
C1N001,沙崙,2025-10-20,22.935472,120.309406,0.15294811
C0V760,橋頭,2025-10-20,22.757806,120.30575,0.14501111
C0G960,福寶,2025-10-20,24.0443,120.3814,0.19866757
C0X210,白河,2025-10-20,23.347466,120.414427,0.1305537
C0S810,東河,2025-10-20,22.972672,121.303986,0.10858431
C2R170,屏東,2025-10-20,22.66027,120.49403,0.08511506
C0R670,楓港,2025-10-20,22.190131,120.692156,0.02323561
C0FA50,霧峰,2025-10-20,24.0419,120.6995,0.18439913
C0UB10,蘇澳,2025-10-20,24.5969,121.8571,0.10734855
C0G950,防潮門,2025-10-20,24.1835,120.4871,0.19428436
C0M740,六腳,2025-10-20,23.492871,120.290625,0.118324935
C1R250,力里,2025-10-20,22.428117,120.629228,0.40431428
C0K330,虎尾,2025-10-20,23.719183,120.442036,0.13831517
C2FA00,烏石坑,2025-10-20,24.273503,120.947617,0.31422412
C0V620,永安,2025-10-20,22.82315,120.236856,0.12724578
C1I330,楓樹林,2025-10-20,23.986803,121.076117,0.31098694
C0W200,湖西,2025-10-20,23.596314,119.67275,0.36275497
72Q010,高雄農改場,2025-10-20,22.709333,120.525889,0.14958449
C0SA40,瑞和,2025-10-20,22.974361,121.156697,0.71723133
C0C680,龜山,2025-10-20,25.02846,121.38656,0.082730554
C2V260,月眉,2025-10-20,22.971003,120.539853,0.14058171
C0V450,鳳森,2025-10-20,22.545064,120.392592,0.10727404
C0FA90,小雪山林道,2025-10-20,24.29515,121.03651,0.0015283732
C0U720,南山,2025-10-20,24.43742,121.38167,0.3492955
A2N290,臺南蘭花園區,2025-10-20,23.340258,120.379661,0.12100357
C0R560,新園,2025-10-20,22.5434,120.461558,0.08877227
C0U890,三星,2025-10-20,24.66812,121.65302,0.13775367
C1V300,御油山,2025-10-20,23.001983,120.715364,0.109831624
C0U600,礁溪,2025-10-20,24.817539,121.765608,0.076506674
C1T980,龍澗,2025-10-20,24.023289,121.411328,0.46171868
C0D670,海天一線,2025-10-20,24.831986,120.914438,0.104086906
C0SA00,歷坵,2025-10-20,22.520969,120.89185,0.6123762
C0M710,東石,2025-10-20,23.458927,120.15385,0.1404132
C0M780,鹿草,2025-10-20,23.41134,120.30835,0.14650069
C0U520,雙連埤,2025-10-20,24.753033,121.641303,0.48261946
C0B010,七堵,2025-10-20,25.094819,121.71713,0.049305204
C0R480,長治,2025-10-20,22.693128,120.542622,0.095167205
C1V830,國三S383K,2025-10-20,22.781967,120.426475,0.11505754
12Q980,恆春工作站,2025-10-20,22.079678,120.714425,0.026472326
C1O940,東山服務區,2025-10-20,23.286016,120.398472,0.119011104
C1U840,東澳嶺,2025-10-20,24.5378,121.8485,0.3551039
C1D630,飛鳳山,2025-10-20,24.766464,121.119178,0.2599877
C0S940,石寧山,2025-10-20,23.223772,121.406639,0.32356045
C0K410,北港,2025-10-20,23.573957,120.292802,0.091828585
C2M620,瑞里,2025-10-20,23.545133,120.675197,0.66979873
C0SB70,小港漁港,2025-10-20,23.158558,121.400431,0.14321612
C2O950,安南,2025-10-20,23.076694,120.144861,0.13646775
C0F0E0,南湖圈谷,2025-10-20,24.363714,121.444667,0.0007596681
467610,成功,2025-10-20,23.097486,121.373428,0.11492159
C0G890,伸港,2025-10-20,24.148933,120.484403,0.19044286
C2E540,龍溪,2025-10-20,24.606489,120.783933,0.24788684
C1V200,梅山,2025-10-20,23.268447,120.823556,0.7713121
C0T9H0,加路蘭山,2025-10-20,23.682947,121.5274,0.4289594
C2O930,玉井,2025-10-20,23.126042,120.46055,0.16486086
C1F911,新伯公,2025-10-20,24.221361,120.841069,0.4581689
C0R490,九如,2025-10-20,22.7405,120.490503,0.14602251
C0X200,左鎮,2025-10-20,23.056758,120.408522,0.18478426
C0FA60,鞍馬山工作站,2025-10-20,24.267064,121.000793,0.011573489
C0SB50,叭嗡嗡,2025-10-20,23.047062,121.343223,0.27394953
C1F891,稍來,2025-10-20,24.265689,121.001142,0.0139757125
72N240,七股研究中心,2025-10-20,23.081672,120.062894,0.14424257
C0C700,中壢,2025-10-20,24.977661,121.256375,0.10035121
C0M690,水上,2025-10-20,23.419734,120.388909,0.11457968
C0V690,鼓山,2025-10-20,22.623325,120.275575,0.14234759
C0O860,大內,2025-10-20,23.11885,120.36083,0.089753106
C0Z200,萬榮,2025-10-20,23.709219,121.420106,0.5494572
C0T9D0,和中,2025-10-20,24.26676,121.74103,0.40208888
C1O921,楠西,2025-10-20,23.183511,120.484083,0.15760554
C0AJ30,淡水觀海,2025-10-20,25.184591,121.408616,0.04279606
C0V810,左營,2025-10-20,22.67491,120.28491,0.16035958
C0UA70,桃源谷,2025-10-20,24.962606,121.888875,0.31502265
C0X130,官田,2025-10-20,23.193217,120.315422,0.09063163
C1H000,翠峰,2025-10-20,24.109397,121.205211,0.013980911
C0UA90,石城,2025-10-20,24.980444,121.951214,0.12435972
C1E681,南勢山,2025-10-20,24.421669,120.923831,0.16561532
C0A9F0,內湖,2025-10-20,25.079422,121.57545,0.033316493
C0K291,宜梧,2025-10-20,23.536281,120.169329,0.11004872
C1K540,口湖,2025-10-20,23.585344,120.180517,0.12781243
C0R780,滿州,2025-10-20,22.024403,120.839892,0.010116149
C0V870,文安,2025-10-20,22.8025,120.2164,0.1241141
C0U650,玉蘭,2025-10-20,24.675286,121.587061,0.6310277
C0R640,東港,2025-10-20,22.46247,120.44074,0.22600113
C0AJ80,板橋,2025-10-20,25.0107,121.4489,0.054236494
C0S660,下馬,2025-10-20,23.150427,121.070312,0.39416388
C1H9B1,阿眉,2025-10-20,24.1263,120.994672,0.0647492
C0UA20,多加屯,2025-10-20,24.368614,121.373189,0.0054382198
C0E730,頭份,2025-10-20,24.688247,120.912206,0.2239387
72V140,高改旗南分場,2025-10-20,22.857861,120.516667,0.09421221
C0K480,莿桐,2025-10-20,23.761192,120.502372,0.16220069
C0U980,坪林石牌,2025-10-20,24.86478,121.77396,0.34227717
C0T900,西林,2025-10-20,23.8119,121.441458,0.6034039
C1I150,青雲,2025-10-20,23.793361,120.949378,0.36190045
467350,澎湖,2025-10-20,23.565503,119.563094,0.31988746
C0G800,埔鹽,2025-10-20,24.000394,120.431683,0.1938143
C0H960,草屯,2025-10-20,23.973672,120.68085,0.20007008
C1V780,多納林道,2025-10-20,22.888028,120.737917,0.5082483
C0E920,通霄漁港,2025-10-20,24.498589,120.673876,0.16078737
C0Z330,安通山,2025-10-20,23.290728,121.348528,0.5127396
C0AH10,永和,2025-10-20,25.01125,121.508111,0.054220278
C0AK10,太平里,2025-10-20,25.134937,121.364899,0.06738204
C2G640,鹿港,2025-10-20,24.0753,120.430481,0.19879034
C1E890,國三N149K,2025-10-20,24.463414,120.680019,0.24136102
C1R110,口社,2025-10-20,22.770111,120.645222,0.31663114
C1M870,國三N285K,2025-10-20,23.550319,120.505833,0.26519606
C1E480,鳳美,2025-10-20,24.554803,121.034747,0.47577888
C0M530,奮起湖,2025-10-20,23.493903,120.699253,0.60401773
C0C590,觀音,2025-10-20,25.027072,121.153317,0.13427794
C0T9M0,靜浦,2025-10-20,23.455167,121.495028,0.3231635
C2H9M0,發祥,2025-10-20,24.154094,121.164517,0.3172875
C0AI40,石牌,2025-10-20,25.115597,121.513139,0.041211624
C1F871,上谷關,2025-10-20,24.203483,121.018644,0.41891578
C2H9G0,百勝,2025-10-20,24.051142,120.909361,0.60727155
C0G880,二水,2025-10-20,23.810742,120.6173,0.19817498
C0R940,加祿堂,2025-10-20,22.3363,120.6217,0.067861244
C0W220,北竿,2025-10-20,26.220358,119.974881,0.01571094
C0O960,崎頂,2025-10-20,22.959547,120.369317,0.21434607
C0TA40,秀林,2025-10-20,24.302864,121.731144,0.42845407
C0S750,向陽,2025-10-20,23.248397,120.986133,0.045634754
C0T9F0,水璉,2025-10-20,23.797131,121.542514,0.58764166
C1M600,頭凍,2025-10-20,23.406364,120.603339,0.35396206
467660,臺東,2025-10-20,22.752211,121.154586,0.33332056
C1D380,新埔,2025-10-20,24.84745,121.03834,0.09990594
C2G980,田頭村,2025-10-20,23.8263,120.444175,0.16582492
C0V750,路竹,2025-10-20,22.854997,120.259439,0.15333259
C0N050,蚵寮,2025-10-20,23.301,120.1104,0.18457282
72M700,南改鹿草分場,2025-10-20,23.416869,120.283061,0.14222193
C1SA50,利嘉林道,2025-10-20,22.82325,121.009389,0.79719365
C0UB70,太平山中間站,2025-10-20,24.542003,121.513453,0.43013838
C0A940,金山,2025-10-20,25.223628,121.643967,0.044136144
C1V340,大津,2025-10-20,22.888322,120.645986,0.20982581
C0W180,七美,2025-10-20,23.219333,119.444892,0.41057444
C1F9C1,白冷,2025-10-20,24.182844,120.929889,0.39794323
K2E710,苗改生物防治研究中心,2025-10-20,24.422861,120.871833,0.40772802
C0N040,蘆竹溝,2025-10-20,23.2344,120.0961,0.18296699
C0D760,大坪苗圃,2025-10-20,24.5362,121.1108,0.36680648
C2W230,畜試所澎湖,2025-10-20,23.628342,119.513206,0.34296018
C0R880,後壁湖,2025-10-20,21.9457,120.7457,0.016552603
C1I280,埔中,2025-10-20,23.820778,120.642594,0.35426724
467790,墾丁雷達站,2025-10-20,21.948235,120.808028,0.011396658
C0W190,望安,2025-10-20,23.380564,119.494075,0.4675742
C0Z170,卓溪,2025-10-20,23.3443,121.3029,0.571672
C0F850,東勢,2025-10-20,24.246428,120.833047,0.36032787
466900,淡水,2025-10-20,25.164889,121.448906,0.06740161
C0I370,魚池,2025-10-20,23.895703,120.94135,0.27999792
C0C630,大溪,2025-10-20,24.882853,121.265547,0.14271234
C0A520,山佳,2025-10-20,24.974944,121.402008,0.052378558
C0I110,竹山,2025-10-20,23.761225,120.688156,0.2349693
82H840,茶改南部分場,2025-10-20,23.762528,120.7405,0.371891
C0G660,溪湖,2025-10-20,23.94835,120.479122,0.14749527
C1T800,洛韶,2025-10-20,24.204558,121.453956,0.33823177
C1T810,慈恩,2025-10-20,24.192044,121.388386,0.107140936
C1E451,象鼻,2025-10-20,24.368617,120.940228,0.15423903
C0AC60,三峽,2025-10-20,24.939025,121.369728,0.09002557
C0I490,萬大林道,2025-10-20,23.928228,121.091411,0.09082293
C1I290,豐丘,2025-10-20,23.668178,120.887417,0.67857045
C1I320,奧萬大,2025-10-20,23.952956,121.178556,0.43837282
C2M910,嘉義大學,2025-10-20,23.471325,120.485903,0.13845502
C0U770,南澳,2025-10-20,24.44935,121.81022,0.814927
C0A980,社子,2025-10-20,25.109508,121.469681,0.06571821
C0V800,六龜,2025-10-20,22.997889,120.633583,0.28444225
C1G9D0,國一S218K,2025-10-20,23.890641,120.493253,0.15062875
C0E570,白沙屯,2025-10-20,24.549447,120.696803,0.23902297
C2F9A0,中竹林,2025-10-20,24.103556,120.751061,0.28435558
C0FA40,臺中電廠,2025-10-20,24.2146,120.4907,0.19449961
C2G9A0,畜試所彰化,2025-10-20,23.86045,120.557964,0.12634516
C0H9C0,合歡山,2025-10-20,24.143442,121.272547,0.0011350936
C0X060,下營,2025-10-20,23.22695,120.256261,0.12463075
G2M350,農試溪口農場,2025-10-20,23.58565,120.408111,0.14980096
C0U860,頭城,2025-10-20,24.85323,121.8308,0.07446411
C0R580,南州,2025-10-20,22.48591,120.50274,0.22600113
C0D430,峨眉,2025-10-20,24.6905,121.017189,0.23058207
C0G780,秀水,2025-10-20,24.03405,120.503869,0.15076207
72N100,臺南農改場,2025-10-20,23.0605,120.342194,0.09143172
C0S900,蘭嶼高中,2025-10-20,22.04909,121.51214,0.022996765
C1F9W0,德基,2025-10-20,24.254783,121.190261,0.052158237
C1Z120,壽豐,2025-10-20,23.870853,121.508081,0.49728987
C0W160,烏坵,2025-10-20,24.9944,119.44956,0.10219294
C1I240,外大坪,2025-10-20,23.958697,120.917931,0.36656517
C1I550,國六W023K,2025-10-20,23.979067,120.867742,0.29402453
C0R870,興海,2025-10-20,21.9752,120.8439,0.010852257
C0R140,瑪家,2025-10-20,22.682903,120.686639,0.7403861
C0A530,坪林,2025-10-20,24.938183,121.70975,0.34839985
C0X260,後壁,2025-10-20,23.366358,120.362326,0.11284472
C0Z230,和平,2025-10-20,24.30717,121.77007,0.38935935
C0G770,福興,2025-10-20,24.041289,120.437669,0.19382793
C0H9A0,神木村,2025-10-20,23.532742,120.843667,0.3690764
C0I460,南投,2025-10-20,23.911469,120.687331,0.14055514
C0I480,梅峰,2025-10-20,24.085272,121.173572,0.047624204
C1V570,吉東,2025-10-20,22.85422,120.5454,0.10069024
C2D740,屯原,2025-10-20,24.067969,121.209389,0.05494124
C2A560,福山,2025-10-20,24.776203,121.502811,0.5508969
C0AH30,五分山,2025-10-20,25.07125,121.780794,0.21900766
C0FA10,松柏,2025-10-20,24.429115,120.617482,0.21231744
72S200,東改班鳩分場,2025-10-20,22.829528,121.077694,0.7547794
72HA00,中改埔里分場,2025-10-20,23.903208,120.963364,0.3443449
C2H9W0,大坪頂農水,2025-10-20,24.043122,120.932781,0.45940307
C0C650,平鎮,2025-10-20,24.897503,121.214636,0.12606621
C0S930,延平,2025-10-20,22.902581,121.084058,0.761945
C0UA60,樟樹山,2025-10-20,24.41393,121.78325,0.55627847
C1S670,摩天,2025-10-20,23.199503,121.027,0.32490978
C0V630,茄萣,2025-10-20,22.906642,120.182608,0.14420673
466940,基隆,2025-10-20,25.133314,121.740475,0.05161781
C0X050,東河,2025-10-20,23.296598,120.385608,0.11397009
C0R770,保力,2025-10-20,22.071122,120.764111,0.015669215
G2L020,農試嘉義分所,2025-10-20,23.485028,120.473806,0.18397693
C0X240,關子嶺,2025-10-20,23.331169,120.508025,0.44066748
C0I380,集集,2025-10-20,23.828206,120.801467,0.34742075
466990,花蓮,2025-10-20,23.975128,121.613275,0.3714501
C1V220,小關山,2025-10-20,23.154217,120.813603,0.14607094
C1F9G1,慶福山,2025-10-20,24.180853,120.848378,0.5379901
C0FB20,雪山橋,2025-10-20,24.23192,120.9786,0.031848658
C0Z250,瑞穗林道,2025-10-20,23.49284,121.30688,0.24636827
C0D590,新豐,2025-10-20,24.87068,120.97721,0.15251036
C0A870,五指山,2025-10-20,25.132153,121.608692,0.31631663
C0UA50,西帽山,2025-10-20,24.555361,121.802628,0.53495306
C0X160,仁德,2025-10-20,22.968258,120.257689,0.12229331
C1H971,六分寮,2025-10-20,23.92507,120.6378,0.19663759
C0W120,西嶼,2025-10-20,23.5626,119.468436,0.25868407
C0G650,員林,2025-10-20,23.946503,120.585597,0.14034544
C0AD50,鶯歌,2025-10-20,24.951533,121.346294,0.09391411
C2H9Q0,北東眼山,2025-10-20,24.120939,121.189303,0.013212014
C2H9T0,名間竹圍,2025-10-20,23.859914,120.637572,0.39267868
C0S990,山豬窟,2025-10-20,22.318619,120.857372,0.27098835
C0X190,安平,2025-10-20,22.993161,120.152181,0.14026977
C0K400,斗六,2025-10-20,23.720583,120.541127,0.17726247
12J990,口湖工作站,2025-10-20,23.589978,120.180394,0.12794851
C0O830,北寮,2025-10-20,23.079561,120.495008,0.122525536
C1D410,白蘭,2025-10-20,24.579364,121.079947,0.25976074
C0S970,加津林,2025-10-20,22.416211,120.926942,0.019941656
C0D700,關西,2025-10-20,24.7977,121.1732,0.17107956
C0M810,里佳,2025-10-20,23.389125,120.716647,0.5616946
C0U750,龜山島,2025-10-20,24.841667,121.953133,0.8736662
C0R810,內獅,2025-10-20,22.305064,120.642986,0.066310436
C1M390,龍美,2025-10-20,23.406728,120.654417,0.3287297
C2FB60,頭櫃山,2025-10-20,24.129842,120.858925,0.41221568
C1H840,國三N238K,2025-10-20,23.841008,120.707711,0.33803865
CAQ030,崎峰國小,2025-10-20,22.42565,120.49521,0.22600113
C2E520,大湖,2025-10-20,24.414939,120.870872,0.44305703
467530,阿里山,2025-10-20,23.508208,120.813242,0.0021408917
C1E691,南湖,2025-10-20,24.40135,120.837533,0.25213224
C0FA30,梧棲,2025-10-20,24.256003,120.523381,0.17293274
C1V231,高中,2025-10-20,23.134911,120.716711,0.44919258
C0AK30,硬漢嶺,2025-10-20,25.136097,121.426372,0.37887588
C0F9V0,新社,2025-10-20,24.200172,120.815806,0.434903
C0H890,埔里,2025-10-20,23.972169,120.952425,0.40749335
C0R690,墾丁,2025-10-20,21.966756,120.810269,0.023918612
C0F0D0,審馬陣,2025-10-20,24.381675,121.4203,0.0011646488
C2W030,金門農試所,2025-10-20,24.448431,118.451786,0.09379582
C0R820,白鷺,2025-10-20,22.454275,120.666219,0.4987161
C0FB00,大雪山,2025-10-20,24.254668,121.007374,0.018129298
C1V190,南天池,2025-10-20,23.27403,120.91176,0.015248006
C0E940,雪見,2025-10-20,24.42595,121.01347,0.19423158
K2E360,苗栗農改場,2025-10-20,24.495722,120.829111,0.2636943
CAJ050,海口故事園區,2025-10-20,23.57543,120.14121,0.12786673
C2H9D0,三隻寮,2025-10-20,24.093078,120.861578,0.46000624
C0O990,媽廟,2025-10-20,22.99175,120.293525,0.10033663
C0D480,打鐵坑,2025-10-20,24.849664,121.150789,0.1379865
C0Z220,和平林道,2025-10-20,24.343922,121.656317,0.5392977
C0TA10,花蓮漁港,2025-10-20,23.995322,121.638331,0.34919912
72C440,桃園農改場,2025-10-20,24.950944,121.030583,0.09093234
C1E711,馬拉邦山,2025-10-20,24.367306,120.901656,0.14404067
C0SB20,富岡,2025-10-20,22.792467,121.192669,0.3147243
C0D560,竹東,2025-10-20,24.767147,121.057881,0.15416667
C0F9U0,南屯,2025-10-20,24.137006,120.637969,0.17894967
C0M720,番路,2025-10-20,23.464657,120.554156,0.17732134
C0F0A0,雪山圈谷,2025-10-20,24.388594,121.236339,0.00079683017
C1A9N0,四十份,2025-10-20,24.934158,121.593283,0.24185339
C0U760,東澳,2025-10-20,24.52196,121.83318,0.37092686
C0X230,鹽水,2025-10-20,23.272621,120.247641,0.19002622
C2H9H0,苗改南投蜂場,2025-10-20,23.852589,120.693481,0.21743071
C0R950,萬隆國小,2025-10-20,22.507667,120.587817,0.22172253
467540,大武,2025-10-20,22.35572,120.90374,0.01877418
C0V370,古亭坑,2025-10-20,22.893178,120.401947,0.17736845
C1I340,新興橋,2025-10-20,23.563333,120.868728,0.5996446
C0SA80,土坂,2025-10-20,22.453108,120.887572,0.07010786
C0R160,鹽埔,2025-10-20,22.739558,120.530778,0.14955623
C0AC40,大屯山,2025-10-20,25.175675,121.522408,0.32178995
466850,五分山雷達站,2025-10-20,25.071182,121.781205,0.2075129
C2H9L0,馬烈霸,2025-10-20,24.1512,121.201772,0.02629464
C1AI50,國三N016K,2025-10-20,25.034164,121.619664,0.034526147
C1V600,藤枝,2025-10-20,23.071961,120.757042,0.25624824
C1E601,南勢,2025-10-20,24.572486,120.734842,0.32345665
C0O980,新市,2025-10-20,23.061614,120.298197,0.086642876
C0K420,西螺,2025-10-20,23.800407,120.467394,0.1707766
C0Z050,佳心,2025-10-20,23.34567,121.21316,0.24783207
C0AD30,蘆洲,2025-10-20,25.086594,121.472331,0.03304563
C0V610,梓官,2025-10-20,22.760558,120.267211,0.14499287
K2F750,種苗改良場,2025-10-20,24.225972,120.800917,0.4526952
C0UA80,大溪漁港,2025-10-20,24.941801,121.902955,0.08483838
C1AI60,國一39K邊坡,2025-10-20,25.064361,121.383836,0.07730045
C0W150,金寧,2025-10-20,24.457703,118.328989,0.09554451
C0R960,內埔,2025-10-20,22.608483,120.570714,0.23311359
V2C250,八德合作社,2025-10-20,24.93775,121.266389,0.11051416
C2H9S0,龍南,2025-10-20,23.953536,120.833183,0.23190951
C0AH40,平等,2025-10-20,25.129142,121.577086,0.26182103
C0R540,佳冬,2025-10-20,22.419456,120.552375,0.17253079
466950,彭佳嶼,2025-10-20,25.627975,122.079744,0.17140724
C0A890,雙溪,2025-10-20,25.036003,121.864242,0.1468856
C0C480,桃園,2025-10-20,24.992425,121.323172,0.09394384
C0AH50,林口,2025-10-20,25.072181,121.38084,0.087554105
A2K360,水試臺西試驗場,2025-10-20,23.717231,120.190522,0.12179742
C2M960,外寮,2025-10-20,23.562643,120.665688,0.55644953
C0F9S0,烏日,2025-10-20,24.107058,120.624103,0.20426188
C0C490,八德,2025-10-20,24.928708,121.283289,0.11141331
C0R190,赤山,2025-10-20,22.592333,120.614306,0.23768558
C0T820,天祥,2025-10-20,24.179597,121.495639,0.5739428
C1F9E1,龍安,2025-10-20,24.1605,120.831961,0.46956825
C0V820,小林,2025-10-20,23.148408,120.63325,0.50318986
C2G870,芳苑,2025-10-20,23.922303,120.320025,0.17837335
C0E850,大河,2025-10-20,24.618069,120.948578,0.28835583
C1U670,寒溪,2025-10-20,24.634,121.71691,0.14163923
C0N020,城西,2025-10-20,23.0568,120.0956,0.15145728
C1Z110,三棧,2025-10-20,24.11557,121.60501,0.5253909
C0R280,檳榔,2025-10-20,22.076078,120.836777,0.027203564
C2H9J0,中台,2025-10-20,23.9996,120.938739,0.41821888
C0F9L0,后里,2025-10-20,24.310436,120.729725,0.26460907
467441,高雄,2025-10-20,22.730432,120.312516,0.14908938
C0Z180,新城,2025-10-20,24.040486,121.604878,0.38392982
C0D540,橫山,2025-10-20,24.71116,121.11693,0.3324092
C1D420,太閣南,2025-10-20,24.632808,121.160575,0.06856404
C1E770,公館,2025-10-20,24.526914,120.830806,0.23279282
CAN130,水試所海水繁養殖中心,2025-10-20,23.120802,120.07968,0.14432035
C1I430,翠華,2025-10-20,24.191961,121.224339,0.020223072
C1M400,菜瓜坪,2025-10-20,23.251928,120.576103,0.56134856
C0G730,二林,2025-10-20,23.903325,120.376081,0.18770857
72M360,南改義竹分場,2025-10-20,23.360694,120.279361,0.1613795
V2K620,麥寮合作社,2025-10-20,23.753836,120.294783,0.09246132
C0Z070,舞鶴,2025-10-20,23.46811,121.37407,0.50677246
C0B040,大武崙,2025-10-20,25.166676,121.706993,0.054317564
C1Z030,紅葉,2025-10-20,23.493119,121.338806,0.5203699
C1I050,丹大,2025-10-20,23.753747,121.141147,0.012273871
C0I080,信義,2025-10-20,23.689694,120.851036,0.5459163
C0D750,樂山林道6k,2025-10-20,24.49999,121.08773,0.00551338
C2M920,朴子農改,2025-10-20,23.469889,120.259383,0.1419355
C2A880,福隆,2025-10-20,25.017842,121.942083,0.12177936
C0Z160,鳳林,2025-10-20,23.746114,121.453411,0.53393924
C0UB80,翠峰林道6K,2025-10-20,24.49773,121.568625,0.07621085
C0V210,復興,2025-10-20,23.222403,120.806089,0.8151381
C0H990,昆陽,2025-10-20,24.121322,121.273642,0.0016813884
C0R741,獅子,2025-10-20,22.202308,120.705236,0.01917869
C0S710,鹿野,2025-10-20,22.917711,121.122994,0.6806478
C0I530,小奇萊,2025-10-20,24.131764,121.295717,0.0014995879
C0FA70,大雪山埡口,2025-10-20,24.26867,121.03062,0.003821202
C2K630,荷苞,2025-10-20,23.657717,120.595144,0.28858322
C0Z080,富源,2025-10-20,23.587642,121.378225,0.3531336
C0SB10,美和,2025-10-20,22.682078,121.060236,0.15425137
C2K620,馬光農場,2025-10-20,23.721453,120.378864,0.13034539
C1I140,卡奈托灣,2025-10-20,23.754364,121.087872,0.42349336
C0I520,玉山風口,2025-10-20,23.470489,120.955994,0.0005583104
C1G691,下水埔,2025-10-20,23.816114,120.5676,0.16935481
C0X110,臺南市南區,2025-10-20,22.961189,120.188378,0.122138366
C0V680,仁武,2025-10-20,22.701083,120.347722,0.16016823
C2G840,北斗,2025-10-20,23.877586,120.514222,0.15543032
C0R900,竹坑,2025-10-20,22.1385,120.7022,0.029160699
C0K250,崙背,2025-10-20,23.75555,120.318925,0.09269895
C0G860,社頭,2025-10-20,23.897647,120.5862,0.13594298
C0X150,安定,2025-10-20,23.102614,120.227839,0.10387235
C0R590,里港,2025-10-20,22.77919,120.49459,0.082106814
C0E610,馬都安,2025-10-20,24.451272,120.930192,0.22721443
C0E550,明德,2025-10-20,24.583486,120.885411,0.25840205
C0R150,三地門,2025-10-20,22.709889,120.639944,0.30692017
C0G910,花壇,2025-10-20,24.032076,120.549461,0.1578465
C1D400,鳥嘴山,2025-10-20,24.71909,121.28387,0.10566864
C0K500,元長,2025-10-20,23.64981,120.315024,0.08785966
C0F0B0,石岡,2025-10-20,24.276061,120.777644,0.29004073
C2V250,甲仙,2025-10-20,23.080106,120.591758,0.2854328
C0SA20,金崙山,2025-10-20,22.567419,120.959667,0.24800496
C0V350,溪埔,2025-10-20,22.738578,120.446797,0.07654785
C0M660,溪口,2025-10-20,23.604131,120.403569,0.1498414
C1S880,壽卡,2025-10-20,22.238911,120.858903,0.20913622
72D680,桃改新埔分場,2025-10-20,24.834444,121.066111,0.098130494
