站號,站名,日期,lat,lon,BLBTSLS
C0R710,龍磐,2025-04-10,21.931672,120.838942,0.9993341
C1F9D1,白毛台,2025-04-10,24.158325,120.886933,7.023193e-09
C0G940,竹塘,2025-04-10,23.848253,120.386764,3.586113e-08
467590,恆春,2025-04-10,22.003897,120.746339,0.93086344
C1O850,環湖,2025-04-10,23.148617,120.418633,2.5825516e-08
C0U710,太平山,2025-04-10,24.505486,121.525656,4.598113e-08
C0E820,獅潭,2025-04-10,24.539133,120.920042,8.71256e-09
C0V880,興達,2025-04-10,22.8778,120.2127,0.9993864
C0S890,關山,2025-04-10,23.0395,121.175017,1.6054791e-07
C0SB30,新蘭,2025-04-10,22.869214,121.223228,0.00049976987
C2R970,屏科大,2025-04-10,22.648275,120.619247,0.029567206
C1Z130,銅門,2025-04-10,23.965694,121.492842,3.2461976e-08
C0AD40,土城,2025-04-10,24.973208,121.445169,5.8253228e-08
CAN140,六官養殖協會,2025-04-10,23.22881,120.29962,0.00624591
C0X180,山上,2025-04-10,23.0757,120.363253,0.9661793
C0F9Z0,雪山東峰,2025-04-10,24.388792,121.268675,4.928052e-08
C1M480,獨立山,2025-04-10,23.537022,120.607797,3.6824017e-09
C0X220,學甲,2025-04-10,23.230367,120.182187,0.01217731
467650,日月潭,2025-04-10,23.881325,120.90805,1.1973224e-08
C0K600,箔子寮,2025-04-10,23.6197,120.14,0.000103322185
C0G830,埤頭,2025-04-10,23.866003,120.452806,8.617676e-09
C0S950,七塊厝,2025-04-10,22.954453,121.229922,3.5493127e-08
467110,金門,2025-04-10,24.407306,118.289281,1.1228426e-08
C0AH80,深坑,2025-04-10,25.002703,121.628328,5.492032e-08
C0A970,三貂角,2025-04-10,25.007606,122.002058,2.8702065e-08
C2D730,寶山農場,2025-04-10,24.732444,120.976153,8.5426784e-08
C0K430,褒忠,2025-04-10,23.690938,120.303634,2.6342195e-07
467480,嘉義,2025-04-10,23.495925,120.432906,5.0006546e-09
C0V400,阿公店,2025-04-10,22.804194,120.355528,0.99872077
467550,玉山,2025-04-10,23.48718,120.95943,4.4475236e-08
C0R440,大漢山,2025-04-10,22.405264,120.753181,2.0094987e-08
C0K280,四湖,2025-04-10,23.630414,120.227125,0.010838486
C1F9B1,桐林,2025-04-10,24.066172,120.735194,3.2340413e-08
C2H9U0,鳳鵬,2025-04-10,23.763919,120.788061,2.6256475e-09
C0K390,土庫,2025-04-10,23.679029,120.395574,1.2822385e-08
C1I450,望鄉山,2025-04-10,23.594153,120.944286,2.792271e-08
C0E910,海埔,2025-04-10,24.648767,120.772435,1.3933662e-06
B2E890,畜試北區分所,2025-04-10,24.527806,120.770972,4.535027e-08
C0R750,四林格山,2025-04-10,22.076989,120.802439,0.99994016
C0F0C0,中坑,2025-04-10,24.248517,120.903319,1.1842222e-08
C1I121,大鞍,2025-04-10,23.678381,120.760017,1.771017e-08
72U480,花改蘭陽分場,2025-04-10,24.686306,121.716583,4.4126667e-09
C0A770,科教館,2025-04-10,25.096356,121.516507,4.594457e-08
C0AJ60,六塊厝,2025-04-10,25.24,121.4481,2.42178e-06
C0R620,墾雷,2025-04-10,21.900836,120.855269,0.99909115
467420,永康,2025-04-10,23.038386,120.2367,0.99669313
C0I410,名間,2025-04-10,23.837053,120.701447,1.2941397e-09
A2C560,農工中心,2025-04-10,24.985917,121.239833,7.3248e-08
C0V740,旗山,2025-04-10,22.888614,120.483597,0.99717623
C0Z061,玉里,2025-04-10,23.3215,121.339656,1.2326274e-06
C0S840,南田,2025-04-10,22.279725,120.889208,0.9959782
C1I470,杉林溪,2025-04-10,23.639517,120.786444,1.9675893e-08
C1X040,東原,2025-04-10,23.291597,120.463822,1.7837611e-07
C0R660,枋寮,2025-04-10,22.367722,120.590647,0.99905944
C1R120,上德文,2025-04-10,22.763272,120.704442,1.1941774e-08
C0K450,大埤,2025-04-10,23.646074,120.431537,5.1907216e-09
C0UA00,土場,2025-04-10,24.576533,121.495333,1.3180071e-08
467080,宜蘭,2025-04-10,24.763975,121.756528,7.845511e-09
C0N030,四草,2025-04-10,23.0235,120.1116,0.39380217
467410,臺南,2025-04-10,22.99328,120.20492,0.9930336
C0V650,彌陀,2025-04-10,22.783806,120.246361,0.9997853
C0D660,新竹市東區,2025-04-10,24.798681,120.986942,7.764284e-07
82S580,茶改東部分場,2025-04-10,22.907694,121.130139,1.5369461e-06
C0SB40,興隆,2025-04-10,22.913661,121.257469,0.00017344572
467050,新屋,2025-04-10,25.006725,121.047492,9.766265e-06
C0C710,大溪永福,2025-04-10,24.892936,121.324975,2.6431547e-08
C0FA20,溫寮,2025-04-10,24.372177,120.583125,0.016362071
C0V640,湖內,2025-04-10,22.887139,120.2445,0.9990471
C0R910,下寮,2025-04-10,22.3929,120.5548,0.9990616
C0Z020,明里,2025-04-10,23.208717,121.262342,2.391292e-07
C0M770,嘉義梅山,2025-04-10,23.585398,120.555587,1.7013903e-09
C0C660,楊梅,2025-04-10,24.912375,121.143047,8.407814e-08
C1E511,新開,2025-04-10,24.347703,120.827019,3.605995e-09
G2F820,農試所(霧峰),2025-04-10,24.031261,120.688133,1.714208e-07
C1I070,和社,2025-04-10,23.591131,120.888861,2.6695819e-08
C2F000,大肚,2025-04-10,24.15295,120.572117,2.0562767e-09
C1S850,豐南,2025-04-10,23.122139,121.262389,1.6546972e-08
C2A920,富貴角,2025-04-10,25.263783,121.565258,6.0204553e-07
CAH030,茶改場竹圍站,2025-04-10,23.860083,120.637528,8.8830726e-10
C0T960,光復,2025-04-10,23.660694,121.424964,1.2997556e-08
C0F9M0,豐原,2025-04-10,24.254322,120.720692,5.1093116e-09
C0R720,旭海,2025-04-10,22.205403,120.887614,0.0011473201
C0V710,苓雅,2025-04-10,22.622742,120.330669,0.9997956
C0C740,觀音工業區,2025-04-10,25.064764,121.114856,0.00031200753
CAC040,拉拉山,2025-04-10,24.699317,121.427133,3.3664584e-08
C0V790,萬山,2025-04-10,22.905944,120.688056,2.3754614e-09
U2HA30,臺大和社,2025-04-10,23.590856,120.888864,2.6695819e-08
C0AJ90,澳底,2025-04-10,25.0552,121.9253,6.012405e-08
C0Z100,東華,2025-04-10,23.89525,121.549833,5.2720235e-08
C0G970,三豐,2025-04-10,23.882,120.2895,0.015693547
V2K610,大庄合作社,2025-04-10,23.8068,120.367939,2.0530622e-06
C0V900,汕尾,2025-04-10,22.4782,120.4151,0.9976049
C1R630,龍泉,2025-04-10,22.66701,120.59091,0.08765471
C1AC50,關渡,2025-04-10,25.133486,121.469331,5.4705474e-08
C0F9I0,神岡,2025-04-10,24.272481,120.658314,7.010693e-09
C0K460,斗南,2025-04-10,23.678734,120.478359,4.5237853e-09
C2O810,曾文,2025-04-10,23.219681,120.497328,8.39098e-06
467280,後龍,2025-04-10,24.648563,120.831834,9.76196e-07
C1F9J1,清水林,2025-04-10,24.071242,120.820419,3.5261727e-09
C2A650,火燒寮,2025-04-10,25.002719,121.742892,2.2426088e-08
466930,竹子湖,2025-04-10,25.162078,121.544547,1.8334912e-08
C1I220,樟湖,2025-04-10,23.905333,120.846983,1.07713864e-08
C0I390,仁愛,2025-04-10,24.022122,121.132206,8.918474e-09
C0Z300,東里,2025-04-10,23.26853,121.30547,7.171346e-07
C1V590,新發,2025-04-10,23.057019,120.646064,2.385541e-09
C0K510,水林,2025-04-10,23.572924,120.24597,1.8428699e-08
72S590,東改賓朗果園,2025-04-10,22.813889,121.071278,1.4234192e-07
82A750,茶改北部分場,2025-04-10,24.955778,121.631222,1.9788613e-08
C1A750,石碇服務區,2025-04-10,25.00872,121.646242,8.3673235e-08
C0X300,鹿寮,2025-04-10,23.386047,120.477331,3.3897376e-08
G2AI50,關渡,2025-04-10,25.11575,121.492,1.0469538e-06
C0K590,雲林東勢,2025-04-10,23.674192,120.255721,6.163737e-08
C0A570,桶後,2025-04-10,24.848222,121.597992,8.676639e-09
C1S800,華源,2025-04-10,22.657883,121.02325,4.358278e-05
C0G720,溪州,2025-04-10,23.851589,120.499093,7.633484e-09
C1V160,達卡努瓦,2025-04-10,23.279811,120.705319,5.600478e-09
C2M410,馬頭山,2025-04-10,23.324361,120.582017,5.0121898e-09
C0V850,蚵仔寮,2025-04-10,22.7256,120.2527,0.99973017
C0S740,池上,2025-04-10,23.119628,121.209469,1.0577313e-06
C1V390,尖山,2025-04-10,22.813153,120.367789,0.996325
C0AH70,松山,2025-04-10,25.04871,121.55042,4.5706916e-08
C0N010,鯤鯓國小,2025-04-10,23.1879,120.0889,0.08688325
C0R550,新埤,2025-04-10,22.467947,120.582894,0.9961023
C0SA60,知本（水試所）,2025-04-10,22.702394,121.082761,0.0046181064
C0T9I0,豐濱,2025-04-10,23.583897,121.514806,2.2129205e-08
C0UB00,淡江大學蘭陽校園,2025-04-10,24.823239,121.730383,8.338976e-09
C0W240,九宮,2025-04-10,24.423753,118.240186,1.187665e-08
C0T9N0,富里,2025-04-10,23.171639,121.249378,7.9448387e-07
U2HA50,臺大竹山,2025-04-10,23.756972,120.681556,1.9462087e-09
C0V840,鳳鼻頭,2025-04-10,22.5083,120.3591,0.9997013
C0X140,西港,2025-04-10,23.125608,120.203108,0.06840054
72D080,桃改五峰分場,2025-04-10,24.612194,121.157167,1.3644854e-08
C2H9P0,伊拿谷,2025-04-10,23.963211,121.088264,9.406859e-09
C2H9F0,柑林,2025-04-10,24.018658,120.847072,2.4587796e-09
C0TA20,加灣,2025-04-10,24.082025,121.608944,1.2296857e-07
C0V530,阿蓮,2025-04-10,22.883208,120.327508,0.9884638
C1O880,關山,2025-04-10,23.173397,120.594092,4.167435e-09
C0E791,卓蘭,2025-04-10,24.3126,120.8244,3.911457e-09
C1I030,武界,2025-04-10,23.913225,121.052483,9.505988e-09
C0R520,崁頂,2025-04-10,22.514781,120.506914,0.98787713
C0R341,牡丹,2025-04-10,22.130036,120.792639,0.99994737
C0R930,萬丹,2025-04-10,22.5885,120.4851,0.9917648
C0S760,紅石,2025-04-10,23.069131,121.126219,2.8242585e-08
C2C410,中央大學,2025-04-10,24.967652,121.185165,6.8429266e-08
C1M610,石磐龍,2025-04-10,23.496606,120.663506,8.017282e-09
C0UA10,鴛鴦湖,2025-04-10,24.590269,121.412228,3.4819575e-08
V2C260,八德蔬果,2025-04-10,24.978508,121.281819,2.1254879e-08
C0R800,丹路,2025-04-10,22.204481,120.750989,0.9999641
C0G920,永靖,2025-04-10,23.924703,120.547533,2.3884242e-08
C2M950,太和,2025-04-10,23.538372,120.702961,9.544467e-09
C1A630,下盆,2025-04-10,24.771003,121.538622,6.821149e-09
B2N890,畜產試驗所,2025-04-10,23.058972,120.336406,0.9799053
C0UA30,白嶺,2025-04-10,24.527819,121.519031,3.143959e-08
C1V580,溪南(特生中心),2025-04-10,23.084972,120.788475,1.2553601e-08
C1T970,大農,2025-04-10,23.615233,121.413331,1.9502268e-08
C0R650,竹田,2025-04-10,22.58486,120.54344,0.96775335
C1H900,清流,2025-04-10,24.080775,120.962997,9.64799e-09
C1C510,水尾,2025-04-10,24.940081,121.087161,1.7571931e-06
C0F9X0,大雅(中科園區),2025-04-10,24.21528,120.62445,1.12517515e-08
C0SB60,白守蓮,2025-04-10,23.126769,121.401914,0.18080331
C0O970,虎頭埤,2025-04-10,23.021375,120.347878,0.97752213
C0C730,中大臨海站,2025-04-10,24.966126,121.008581,1.3108856e-05
C0X250,新營,2025-04-10,23.310689,120.316681,0.002486259
C0V700,三民,2025-04-10,22.645017,120.311233,0.99983025
C0U870,大礁溪,2025-04-10,24.791042,121.675047,8.445211e-09
C0E870,高鐵苗栗,2025-04-10,24.60725,120.826094,1.4793932e-05
A2K570,古坑花卉中心,2025-04-10,23.63353,120.55239,2.1279247e-09
C0TA30,鹽寮,2025-04-10,23.845606,121.592664,6.3267294e-08
C0M860,新美,2025-04-10,23.338017,120.683169,2.2242306e-09
C1E701,八卦,2025-04-10,24.491756,120.927619,1.1761187e-08
C0I420,國姓,2025-04-10,24.037803,120.855072,2.4867286e-09
C2D720,關西工作站,2025-04-10,24.757275,121.184792,3.6009727e-08
C0S960,香蘭,2025-04-10,22.587569,120.993375,5.7090278e-05
467620,蘭嶼,2025-04-10,22.0369,121.55843,0.9985147
C0R260,春日,2025-04-10,22.370361,120.628306,0.9970525
72G600,臺中農改場,2025-04-10,24.003028,120.534389,2.1530543e-08
C0Z210,瑞穗,2025-04-10,23.5239,121.39021,7.917219e-08
C0M820,達邦,2025-04-10,23.453994,120.749517,6.350253e-09
C0V860,南寮,2025-04-10,22.7616,120.2339,0.9997413
C0G740,大城,2025-04-10,23.852487,120.320935,0.012760792
C0R920,塭仔,2025-04-10,22.4169,120.5197,0.9991259
C0R470,高樹,2025-04-10,22.826389,120.600806,0.060228243
C0R680,佳樂水,2025-04-10,21.993578,120.861633,0.9984248
C1O870,大棟山,2025-04-10,23.31157,120.52226,6.227666e-09
C0D360,梅花,2025-04-10,24.678347,121.208558,1.3982027e-08
C0Z190,富世,2025-04-10,24.14743,121.6297,1.3005302e-06
C0AI10,屈尺,2025-04-10,24.92184,121.54475,7.718815e-08
B2U990,畜試東區分所,2025-04-10,24.669039,121.832561,3.8517265e-09
C0SB80,長濱漁港,2025-04-10,23.313644,121.459994,7.437799e-05
C0R240,來義,2025-04-10,22.527306,120.625111,0.9333552
C0V910,大樹,2025-04-10,22.684645,120.432803,0.4499087
C1R610,西大武山,2025-04-10,22.617719,120.7322,2.2604306e-08
C0G900,線西,2025-04-10,24.143358,120.443536,0.0009793959
C0M700,竹崎,2025-04-10,23.526178,120.555508,2.7709837e-09
C2E880,三義,2025-04-10,24.405478,120.749819,5.2999183e-09
C0C720,竹圍,2025-04-10,25.112692,121.239824,1.0297064e-06
C0F9P0,清水,2025-04-10,24.312297,120.562242,0.04377219
C0Z150,吉安光華,2025-04-10,23.930925,121.595153,8.181714e-08
467300,東吉島,2025-04-10,23.25727,119.66762,0.9998466
C1D640,外坪(五指山),2025-04-10,24.644447,121.090961,9.106074e-09
C0F9O0,潭子,2025-04-10,24.213106,120.703933,4.7599227e-09
C2H9R0,卓社,2025-04-10,23.887894,121.000086,1.3702022e-08
72T250,花蓮農改場,2025-04-10,23.975222,121.563889,1.1396087e-07
C0E780,銅鑼,2025-04-10,24.489681,120.790853,2.7727985e-08
C1T950,太安,2025-04-10,23.666719,121.370128,1.0761735e-08
C0E830,苑裡,2025-04-10,24.439714,120.653053,0.014532901
467270,田中,2025-04-10,23.873803,120.581286,2.1146418e-09
C0SA10,檳榔四格山,2025-04-10,22.810031,121.109308,6.708679e-08
C1T830,布洛灣,2025-04-10,24.17184,121.57127,1.874524e-08
C0F970,大坑,2025-04-10,24.173142,120.722289,5.2952e-09
C1U920,思源,2025-04-10,24.393125,121.347214,3.6168252e-08
C0A931,三和,2025-04-10,25.233153,121.595236,1.1651372e-07
C0I010,廬山,2025-04-10,24.033311,121.181808,1.34648115e-08
C2M940,日野賀,2025-04-10,23.434056,120.727169,7.364245e-09
C0R860,鼻頭,2025-04-10,22.1043,120.8979,0.9960152
C0UB20,壯圍,2025-04-10,24.7359,121.8163,4.3737782e-09
C0R790,九棚,2025-04-10,22.14195,120.889281,0.0016046996
C0W110,東莒,2025-04-10,25.9652,119.98069,0.0026043728
C1U930,粉鳥林,2025-04-10,24.497088,121.842479,9.194594e-09
C1I211,蘆竹湳,2025-04-10,23.934019,120.811994,3.0443927e-09
C0S830,長濱,2025-04-10,23.286817,121.411975,1.5669697e-07
C1F9F1,伯公龍,2025-04-10,24.272392,120.849047,4.6525335e-09
C0E810,西湖,2025-04-10,24.562947,120.7485,0.00022359261
C1I440,新高口,2025-04-10,23.478744,120.878939,2.2453094e-08
C0O840,王爺宮,2025-04-10,23.222064,120.40085,2.337152e-05
C0T9G0,鳳林山,2025-04-10,23.735269,121.420131,1.2582342e-08
C0X080,佳里,2025-04-10,23.173039,120.145086,0.087815724
C0FB70,大甲溪埔,2025-04-10,24.370625,120.620067,0.0062215026
C0Z310,清水斷崖,2025-04-10,24.218294,121.689142,1.01510835e-08
C0M680,太保,2025-04-10,23.455062,120.331455,2.4939344e-09
C1S820,金峰,2025-04-10,22.590969,120.933236,5.465588e-07
C0AD10,八里,2025-04-10,25.150211,121.403947,1.0298311e-06
C2K240,草嶺,2025-04-10,23.59555,120.693461,8.697334e-09
C1SA70,都蘭,2025-04-10,22.87794,121.226881,0.00017250478
C0K440,二崙,2025-04-10,23.772797,120.408944,1.1523413e-08
C1A760,坪林交控,2025-04-10,24.94284,121.713442,2.267348e-08
C0F9N0,大里,2025-04-10,24.092464,120.701378,1.106282e-09
C0SA90,達仁林場,2025-04-10,22.264347,120.823972,6.553385e-08
C1R290,石門山,2025-04-10,22.112611,120.756597,0.99999225
42HA10,萬大發電廠,2025-04-10,23.978875,121.139639,1.08175255e-08
C0R890,山海,2025-04-10,21.9878,120.7091,0.998497
C0T9A0,月眉山,2025-04-10,23.809928,121.539828,1.5095615e-08
C0AC70,信義,2025-04-10,25.037822,121.564597,4.630633e-08
C0K560,棋山,2025-04-10,23.68645,120.603417,1.9508954e-09
C2FB50,出雲,2025-04-10,24.206469,120.902794,1.1373467e-08
C1Z240,中平林道,2025-04-10,23.42115,121.26763,1.9154921e-08
U2H480,溪頭,2025-04-10,23.670306,120.798194,1.3492577e-08
C0M880,好美里,2025-04-10,23.3364,120.138,0.037091363
C0T9E0,大坑,2025-04-10,23.880628,121.581981,2.084115e-08
C0K530,臺西,2025-04-10,23.701547,120.197559,0.0022108078
C1E900,國一N128K,2025-04-10,24.560997,120.844186,9.719417e-08
C0AJ50,水湳洞,2025-04-10,25.123695,121.862238,5.915123e-07
C0AI20,白沙灣,2025-04-10,25.283128,121.519058,2.0763616e-06
C2V310,美濃,2025-04-10,22.898792,120.51907,0.9978391
C0A860,大坪,2025-04-10,25.165914,121.632969,1.54118e-08
C1U850,觀音海岸,2025-04-10,24.38319,121.77856,8.4384e-09
C2K610,草嶺石壁,2025-04-10,23.602469,120.707731,8.964111e-09
C0U950,鶯子嶺,2025-04-10,24.89754,121.79244,2.6237663e-08
C0O900,善化,2025-04-10,23.112883,120.297219,0.99179924
C0K550,蔦松,2025-04-10,23.514319,120.229736,1.9964185e-07
E2P980,林試六龜中心,2025-04-10,22.991703,120.645722,4.543893e-08
C0E590,通霄,2025-04-10,24.471892,120.704622,0.0005574716
C1I310,西巒,2025-04-10,23.754486,120.883956,1.1190604e-08
C0A550,泰平,2025-04-10,24.971197,121.823711,1.5921355e-08
C0I360,水里,2025-04-10,23.812553,120.849792,9.559803e-10
C0R830,高士,2025-04-10,22.121825,120.836781,0.99998885
C1I101,溪頭,2025-04-10,23.661789,120.807647,1.671251e-08
C0AJ20,野柳,2025-04-10,25.20703,121.690021,2.3648259e-07
C0B060,暖暖,2025-04-10,25.0957,121.7403,8.540821e-08
C1H920,長豐,2025-04-10,24.102039,120.879897,4.1534762e-09
C0V360,內門,2025-04-10,22.975481,120.466769,0.07405892
C0R850,林邊,2025-04-10,22.4634,120.5339,0.9972674
C0E930,龍鳳,2025-04-10,24.700034,120.859125,0.00014722793
C0U910,冬山,2025-04-10,24.63373,121.7937,3.8517265e-09
C1E721,泰安,2025-04-10,24.489017,120.968036,2.1244421e-08
82H320,茶改中部分場,2025-04-10,23.875611,120.913583,1.1090692e-08
C0M750,布袋,2025-04-10,23.380878,120.167789,1.6673022e-07
C1S860,利嘉,2025-04-10,22.809417,121.050528,9.928652e-09
E2S980,林試太麻里1,2025-04-10,22.598922,120.980044,1.0185286e-05
C0X170,關廟,2025-04-10,22.963017,120.327797,0.98292446
C0V720,林園,2025-04-10,22.507747,120.394511,0.99692893
C1I510,線浸林道,2025-04-10,23.761508,120.832956,7.489239e-09
C0D690,外湖,2025-04-10,24.917735,120.968711,6.8994905e-06
C0C750,新興坑尾,2025-04-10,25.0061,121.0971,4.375305e-06
B2Q810,畜試南區分所,2025-04-10,21.945583,120.802167,0.998603
C0S790,金崙,2025-04-10,22.538122,120.966875,1.9121836e-07
C0AH90,福山植物園,2025-04-10,24.760717,121.58135,9.82371e-09
C0I540,奇萊稜線,2025-04-10,24.109231,121.326456,5.1074334e-08
C0M850,表湖,2025-04-10,23.24186,120.64166,1.7822834e-09
C0S770,大溪山,2025-04-10,22.478475,120.943325,4.2581757e-08
C0AG80,中和,2025-04-10,24.991622,121.491792,5.8278676e-08
C0T790,大禹嶺,2025-04-10,24.186117,121.316086,4.839422e-08
C0T9B0,水源,2025-04-10,23.991861,121.537169,2.0893049e-08
C0R840,牡丹池山,2025-04-10,22.168389,120.841225,8.079179e-08
C1I131,桶頭,2025-04-10,23.641944,120.654117,9.758715e-10
CAL110,布袋國中,2025-04-10,23.35893,120.18026,0.03439805
467571,新竹,2025-04-10,24.827853,121.014219,1.295481e-06
C0Z290,赤柯山,2025-04-10,23.36893,121.38293,1.636652e-08
C0X280,將軍,2025-04-10,23.214999,120.13577,0.020013675
C0S690,太麻里,2025-04-10,22.60902,120.98533,3.419287e-07
C0U880,北關,2025-04-10,24.9072,121.8734,1.3589734e-07
C0G810,埔心,2025-04-10,23.947633,120.525456,2.625233e-08
C0U970,大福,2025-04-10,24.80064,121.81389,7.797861e-09
C2H9N0,仁愛東眼,2025-04-10,24.026875,121.1205,1.2529489e-08
C1E670,南礦,2025-04-10,24.538278,121.002836,1.6816303e-08
C0M520,東後寮,2025-04-10,23.369908,120.248065,0.022938438
C1E461,松安,2025-04-10,24.397972,120.986022,1.9999357e-08
C2N160,西拉雅風管處,2025-04-10,23.189481,120.335297,0.070515946
C2M970,碧湖,2025-04-10,23.568632,120.624165,8.184208e-09
C0A640,石碇,2025-04-10,24.993969,121.662917,1.4596692e-08
E2S960,林試太麻里2,2025-04-10,22.598,120.99775,6.4614134e-05
C0F9Y0,桃山,2025-04-10,24.432739,121.303808,5.1122772e-08
C1I020,萬大,2025-04-10,23.979817,121.132261,8.934461e-09
C0U940,羅東,2025-04-10,24.68184,121.74934,4.3177377e-09
C0M650,朴子,2025-04-10,23.43463,120.23902,3.0156944e-08
C1I500,大尖山,2025-04-10,23.858572,120.994889,1.953637e-08
C0G820,田尾,2025-04-10,23.901669,120.509389,2.6131483e-08
E2K600,四湖植物園,2025-04-10,23.676986,120.163433,0.013931826
C0S730,綠島,2025-04-10,22.6672,121.47533,0.99995077
12Q970,東港工作站,2025-04-10,22.479997,120.466058,0.9975289
C0E430,南庄,2025-04-10,24.601775,121.000214,8.795426e-09
C1TA00,太魯閣,2025-04-10,24.15773,121.6236,5.1530964e-07
466920,臺北,2025-04-10,25.037658,121.514853,4.5706916e-08
C0R600,舊泰武,2025-04-10,22.588194,120.664944,1.7953646e-09
C1I260,北坑,2025-04-10,23.9246,121.006903,3.0932257e-09
466910,鞍部,2025-04-10,25.182586,121.529731,3.870995e-08
C1I230,九份二山,2025-04-10,23.961944,120.845,9.223243e-09
C2A660,瑞芳,2025-04-10,25.113169,121.801147,3.461794e-07
C0R270,琉球嶼,2025-04-10,22.332244,120.362236,0.9989714
C1T990,高寮,2025-04-10,23.394239,121.356808,1.7613186e-08
C0G620,芬園,2025-04-10,24.015678,120.6213,3.8519983e-09
C1Z140,荖溪,2025-04-10,23.890575,121.45964,3.0619056e-08
C1I201,中心崙,2025-04-10,23.728722,120.712097,2.7040488e-09
C1I400,凌霄,2025-04-10,24.018778,121.004456,1.2346535e-08
C1M640,十字,2025-04-10,23.492153,120.753683,1.3604808e-08
G2P820,農試鳳山分所,2025-04-10,22.646611,120.356083,0.9997882
C0Z270,蕃薯寮,2025-04-10,23.73835,121.540108,1.38492915e-08
C0F9Q0,外埔,2025-04-10,24.347817,120.705686,1.1598629e-08
C0K580,高鐵雲林,2025-04-10,23.737456,120.417944,1.2700803e-08
C2I090,鳳凰,2025-04-10,23.728081,120.787347,9.114658e-09
C0U990,員山,2025-04-10,24.74435,121.72247,4.365785e-09
C0V770,大社,2025-04-10,22.730306,120.346639,0.99962854
C0X120,麻豆,2025-04-10,23.183289,120.248611,0.013745831
C0C670,龍潭,2025-04-10,24.870056,121.221389,2.5713353e-08
C0D680,香山濕地,2025-04-10,24.783581,120.914988,1.4157149e-06
C0S980,勝林山,2025-04-10,22.430439,120.8938,2.6487717e-08
C0V730,大寮,2025-04-10,22.605614,120.395717,0.997981
C0R570,麟洛,2025-04-10,22.65078,120.52719,0.3480589
C2M930,石卓,2025-04-10,23.478744,120.702264,1.3616049e-08
C0G9B0,和美,2025-04-10,24.105169,120.492131,1.1579358e-07
CAG100,王功漁港,2025-04-10,23.96824,120.32586,0.0701639
C0X290,北門,2025-04-10,23.267772,120.125481,0.020833768
C2F930,大甲,2025-04-10,24.347667,120.640403,0.0006310621
C0D650,湖口,2025-04-10,24.904794,121.043628,2.0181487e-06
C0E420,竹南,2025-04-10,24.708978,120.888897,8.0794875e-05
C0U780,五結,2025-04-10,24.68637,121.79794,4.375288e-09
C1I250,鯉潭,2025-04-10,23.961922,120.991131,4.1884562e-09
C0R130,阿禮,2025-04-10,22.742908,120.743678,1.0306496e-08
C0X100,臺南市北區,2025-04-10,23.010394,120.194228,0.99659616
C0S920,金峰嘉蘭,2025-04-10,22.594789,120.960825,9.669235e-06
C0V490,新興,2025-04-10,22.627422,120.298803,0.9998
C0F9K0,大安,2025-04-10,24.345061,120.588025,0.008272259
467290,古坑,2025-04-10,23.633639,120.551889,2.1279247e-09
C2E970,八甲,2025-04-10,24.535811,120.795983,4.2758938e-08
C0V440,鳳山,2025-04-10,22.646653,120.356122,0.9997882
C1T940,大觀,2025-04-10,23.714206,121.373133,1.40858045e-08
C0E740,造橋,2025-04-10,24.637056,120.864778,1.09842e-06
C0R100,尾寮山,2025-04-10,22.833111,120.683889,1.1316795e-08
A2K630,臺大雲林校區,2025-04-10,23.730628,120.423903,1.2678512e-08
467990,馬祖,2025-04-10,26.169467,119.923158,5.0528524e-08
C0D580,寶山,2025-04-10,24.735006,121.025192,1.3423245e-08
E2P990,林試扇平站,2025-04-10,22.9677,120.6857,2.346242e-09
C0AI30,三重,2025-04-10,25.057328,121.500629,4.594457e-08
C0AH00,汐止,2025-04-10,25.066881,121.658778,4.5706916e-08
C1Z040,立山,2025-04-10,23.443356,121.327375,1.7428716e-08
466881,新北,2025-04-10,24.959207,121.525196,5.636004e-08
C0W130,花嶼,2025-04-10,23.40007,119.32276,0.9984667
C0A950,鼻頭角,2025-04-10,25.129036,121.923372,0.00024832998
C0K470,林內,2025-04-10,23.748675,120.609642,2.7618976e-09
C2F990,摩天嶺,2025-04-10,24.322458,120.936819,1.2040233e-08
82C160,茶改場,2025-04-10,24.908472,121.185333,7.0576405e-08
C0Z320,清水林道,2025-04-10,23.27125,121.188272,1.5032864e-08
C0R760,南仁湖,2025-04-10,22.084681,120.863353,0.99999225
C0M670,大林,2025-04-10,23.600616,120.45841,3.796766e-09
C0M800,茶山,2025-04-10,23.299075,120.664767,2.5472249e-09
C0A9C0,天母,2025-04-10,25.117494,121.537169,6.4206766e-08
72K220,南改斗南分場,2025-04-10,23.634556,120.477333,4.551724e-09
72AI40,桃改樹林分場,2025-04-10,24.944503,121.386972,1.8039802e-07
C0S910,蘭嶼燈塔,2025-04-10,22.081197,121.503117,0.9990784
C0B050,八斗子,2025-04-10,25.144754,121.79167,7.2564745e-07
C0U900,內城,2025-04-10,24.71813,121.68766,4.3560617e-09
C0X320,柳營,2025-04-10,23.253328,120.375253,1.5352622e-08
C0M790,新港,2025-04-10,23.553269,120.345728,6.331749e-09
C0F9T0,西屯,2025-04-10,24.179494,120.641275,2.8282585e-08
C0SA30,都歷,2025-04-10,23.020333,121.323642,5.111223e-06
C0C620,蘆竹,2025-04-10,25.084275,121.265767,2.4285032e-06
C0R730,大坪頂,2025-04-10,22.024633,120.69355,0.9995962
C0AJ40,石門,2025-04-10,25.273672,121.601198,7.8924216e-07
C0E750,苗栗,2025-04-10,24.564569,120.824575,1.0465729e-07
C0T870,鯉魚潭,2025-04-10,23.935639,121.508944,3.719619e-08
C1V170,排雲,2025-04-10,23.463619,120.954147,4.027133e-08
C2H950,中寮,2025-04-10,23.884447,120.766406,6.926667e-08
C0R350,貓鼻頭,2025-04-10,21.921774,120.7358,0.9987581
C0V660,岡山,2025-04-10,22.797078,120.294958,0.999779
C1H941,雙冬,2025-04-10,23.967378,120.802189,3.1422966e-09
C0AJ70,田寮,2025-04-10,25.2698,121.4886,2.197683e-06
C0AI00,五股,2025-04-10,25.07445,121.42728,2.9239985e-08
C0Z280,德武,2025-04-10,23.47426,121.41071,1.9107302e-08
C0R700,枋山,2025-04-10,22.246844,120.661086,0.9993551
C0C460,復興,2025-04-10,24.820208,121.352281,3.135539e-08
E2H360,蓮華池,2025-04-10,23.918333,120.885278,3.4322778e-09
C0M640,中埔,2025-04-10,23.42538,120.5229,4.807927e-09
C0W140,金沙,2025-04-10,24.488292,118.408778,2.4954343e-08
C2A540,四堵,2025-04-10,24.8926,121.745736,2.1096472e-08
C0ACA0,新莊,2025-04-10,25.051478,121.446756,4.3332665e-08
C0R220,潮州,2025-04-10,22.534361,120.54,0.98461825
U2HA40,臺大內茅埔,2025-04-10,23.689722,120.851117,4.8712026e-09
467490,臺中,2025-04-10,24.145736,120.684075,2.0672573e-08
C0U960,翠峰湖,2025-04-10,24.510856,121.608044,4.2933333e-08
E2HA20,林試畢祿溪站,2025-04-10,24.226944,121.308522,4.4338954e-08
C0V890,前鎮,2025-04-10,22.5718,120.3117,0.9998057
C1F941,雪嶺,2025-04-10,24.280586,121.026642,4.676067e-08
C2H9E0,國姓南港,2025-04-10,23.911108,120.846556,1.1052196e-08
C0AC80,文山,2025-04-10,25.00235,121.575728,5.5308533e-08
C0F9R0,龍井,2025-04-10,24.184536,120.528972,0.010032757
C0M760,民雄,2025-04-10,23.551754,120.428457,3.976086e-09
C0UA40,西德山,2025-04-10,24.560647,121.752608,2.6191362e-08
C1T920,中興,2025-04-10,23.769503,121.498653,2.1589553e-08
C0D550,雪霸,2025-04-10,24.526972,121.11605,2.8356801e-08
C2F860,梨山,2025-04-10,24.247522,121.243669,4.4724313e-08
C0R320,車城,2025-04-10,22.0744,120.716247,0.96976966
C1S870,南美山,2025-04-10,23.15025,121.382333,9.808723e-07
C0B020,基隆嶼,2025-04-10,25.19141,121.78391,0.05353686
C1U501,牛鬥,2025-04-10,24.637836,121.573656,5.692645e-09
C0M730,嘉義市東區,2025-04-10,23.457673,120.460531,4.1057917e-09
C0S700,知本,2025-04-10,22.684866,121.005642,1.1771375e-08
C1N001,沙崙,2025-04-10,22.935472,120.309406,0.9907149
C0V760,橋頭,2025-04-10,22.757806,120.30575,0.99966675
C0G960,福寶,2025-04-10,24.0443,120.3814,1.5195776e-07
C0X210,白河,2025-04-10,23.347466,120.414427,1.1276889e-08
C0S810,東河,2025-04-10,22.972672,121.303986,0.6345413
C2R170,屏東,2025-04-10,22.66027,120.49403,0.34929925
C0R670,楓港,2025-04-10,22.190131,120.692156,0.9997997
C0FA50,霧峰,2025-04-10,24.0419,120.6995,1.4784148e-07
C0UB10,蘇澳,2025-04-10,24.5969,121.8571,4.9895457e-09
C0G950,防潮門,2025-04-10,24.1835,120.4871,0.010503083
C0M740,六腳,2025-04-10,23.492871,120.290625,1.8037682e-08
C1R250,力里,2025-04-10,22.428117,120.629228,0.97401375
C0K330,虎尾,2025-04-10,23.719183,120.442036,1.0405336e-08
C2FA00,烏石坑,2025-04-10,24.273503,120.947617,1.199558e-08
C0V620,永安,2025-04-10,22.82315,120.236856,0.9997853
C1I330,楓樹林,2025-04-10,23.986803,121.076117,1.19654855e-08
C0W200,湖西,2025-04-10,23.596314,119.67275,0.99976397
72Q010,高雄農改場,2025-04-10,22.709333,120.525889,0.17407106
C0SA40,瑞和,2025-04-10,22.974361,121.156697,9.631627e-07
C0C680,龜山,2025-04-10,25.02846,121.38656,1.9506508e-08
C2V260,月眉,2025-04-10,22.971003,120.539853,0.020117914
C0V450,鳳森,2025-04-10,22.545064,120.392592,0.98975796
C0U720,南山,2025-04-10,24.43742,121.38167,2.9420848e-08
A2N290,臺南蘭花園區,2025-04-10,23.340258,120.379661,6.5016263e-09
C0R560,新園,2025-04-10,22.5434,120.461558,0.99692893
C0U890,三星,2025-04-10,24.66812,121.65302,4.78407e-09
C1V300,御油山,2025-04-10,23.001983,120.715364,1.203773e-08
C0U600,礁溪,2025-04-10,24.817539,121.765608,1.6116068e-08
C1T980,龍澗,2025-04-10,24.023289,121.411328,4.1899526e-08
C0D670,海天一線,2025-04-10,24.831986,120.914438,0.07216067
C0SA00,歷坵,2025-04-10,22.520969,120.89185,1.5900325e-08
C0M710,東石,2025-04-10,23.458927,120.15385,4.1474727e-06
C0M780,鹿草,2025-04-10,23.41134,120.30835,2.0694587e-08
C0U520,雙連埤,2025-04-10,24.753033,121.641303,8.479817e-09
C0B010,七堵,2025-04-10,25.094819,121.71713,9.712801e-08
C0R480,長治,2025-04-10,22.693128,120.542622,0.31244686
C1V830,國三S383K,2025-04-10,22.781967,120.426475,0.04813745
12Q980,恆春工作站,2025-04-10,22.079678,120.714425,0.9698357
C1O940,東山服務區,2025-04-10,23.286016,120.398472,3.2090696e-08
C1U840,東澳嶺,2025-04-10,24.5378,121.8485,1.3674503e-08
C1D630,飛鳳山,2025-04-10,24.766464,121.119178,1.7520374e-08
C0S940,石寧山,2025-04-10,23.223772,121.406639,2.072682e-06
C0K410,北港,2025-04-10,23.573957,120.292802,1.6330848e-08
C2M620,瑞里,2025-04-10,23.545133,120.675197,8.773493e-09
C0SB70,小港漁港,2025-04-10,23.158558,121.400431,0.0029089542
C2O950,安南,2025-04-10,23.076694,120.144861,0.99887735
C0F0E0,南湖圈谷,2025-04-10,24.363714,121.444667,7.190542e-08
467610,成功,2025-04-10,23.097486,121.373428,0.063907094
C0G890,伸港,2025-04-10,24.148933,120.484403,0.000920098
C2E540,龍溪,2025-04-10,24.606489,120.783933,1.7905008e-05
C1V200,梅山,2025-04-10,23.268447,120.823556,3.929853e-09
C0T9H0,加路蘭山,2025-04-10,23.682947,121.5274,1.4286463e-08
C2O930,玉井,2025-04-10,23.126042,120.46055,8.320705e-09
C1F911,新伯公,2025-04-10,24.221361,120.841069,5.0931988e-09
C0R490,九如,2025-04-10,22.7405,120.490503,0.18220253
C0X200,左鎮,2025-04-10,23.056758,120.408522,0.9994266
C0SB50,叭嗡嗡,2025-04-10,23.047062,121.343223,0.00013185879
C1F891,稍來,2025-04-10,24.265689,121.001142,3.9923275e-08
72N240,七股研究中心,2025-04-10,23.081672,120.062894,0.73541
C0C700,中壢,2025-04-10,24.977661,121.256375,2.0493163e-08
C0M690,水上,2025-04-10,23.419734,120.388909,2.3915867e-09
C0V690,鼓山,2025-04-10,22.623325,120.275575,0.99980015
C0O860,大內,2025-04-10,23.11885,120.36083,0.9832092
C0Z200,萬榮,2025-04-10,23.709219,121.420106,1.6232837e-08
C0T9D0,和中,2025-04-10,24.26676,121.74103,1.0064236e-07
C1O921,楠西,2025-04-10,23.183511,120.484083,1.5638863e-08
C0AJ30,淡水觀海,2025-04-10,25.184591,121.408616,2.732541e-07
C0V810,左營,2025-04-10,22.67491,120.28491,0.999829
C0UA70,桃源谷,2025-04-10,24.962606,121.888875,1.3318429e-08
C0X130,官田,2025-04-10,23.193217,120.315422,0.10585634
C1H000,翠峰,2025-04-10,24.109397,121.205211,4.2594102e-08
C0UA90,石城,2025-04-10,24.980444,121.951214,3.3133624e-08
C1E681,南勢山,2025-04-10,24.421669,120.923831,1.3645297e-08
C0A9F0,內湖,2025-04-10,25.079422,121.57545,4.5706916e-08
C0K291,宜梧,2025-04-10,23.536281,120.169329,2.0556921e-07
C1K540,口湖,2025-04-10,23.585344,120.180517,0.0001036765
C0R780,滿州,2025-04-10,22.024403,120.839892,0.93804955
C0V870,文安,2025-04-10,22.8025,120.2164,0.9998101
C0U650,玉蘭,2025-04-10,24.675286,121.587061,7.410772e-09
C0R640,東港,2025-04-10,22.46247,120.44074,0.997537
C0AJ80,板橋,2025-04-10,25.0107,121.4489,5.935426e-08
C0S660,下馬,2025-04-10,23.150427,121.070312,1.5590198e-08
C1H9B1,阿眉,2025-04-10,24.1263,120.994672,3.1095304e-08
C0UA20,多加屯,2025-04-10,24.368614,121.373189,4.4396838e-08
C0E730,頭份,2025-04-10,24.688247,120.912206,9.2724e-05
72V140,高改旗南分場,2025-04-10,22.857861,120.516667,0.124420814
C0K480,莿桐,2025-04-10,23.761192,120.502372,3.0366392e-09
C0U980,坪林石牌,2025-04-10,24.86478,121.77396,1.0543625e-08
C0T900,西林,2025-04-10,23.8119,121.441458,1.7591228e-08
C1I150,青雲,2025-04-10,23.793361,120.949378,2.555639e-09
467350,澎湖,2025-04-10,23.565503,119.563094,0.9995296
C0G800,埔鹽,2025-04-10,24.000394,120.431683,1.6214942e-07
C0H960,草屯,2025-04-10,23.973672,120.68085,9.74944e-08
C1V780,多納林道,2025-04-10,22.888028,120.737917,4.826984e-09
C0E920,通霄漁港,2025-04-10,24.498589,120.673876,0.05615007
C0Z330,安通山,2025-04-10,23.290728,121.348528,2.6108417e-08
C0AH10,永和,2025-04-10,25.01125,121.508111,5.771639e-08
C0AK10,太平里,2025-04-10,25.134937,121.364899,9.313425e-07
C2G640,鹿港,2025-04-10,24.0753,120.430481,1.5192082e-07
C1E890,國三N149K,2025-04-10,24.463414,120.680019,7.3952375e-05
C1R110,口社,2025-04-10,22.770111,120.645222,0.02304029
C1M870,國三N285K,2025-04-10,23.550319,120.505833,1.9465096e-09
C1E480,鳳美,2025-04-10,24.554803,121.034747,9.512517e-09
C0M530,奮起湖,2025-04-10,23.493903,120.699253,9.563802e-09
C0C590,觀音,2025-04-10,25.027072,121.153317,5.7843903e-05
C0T9M0,靜浦,2025-04-10,23.455167,121.495028,2.6253682e-08
C2H9M0,發祥,2025-04-10,24.154094,121.164517,2.419156e-08
C0AI40,石牌,2025-04-10,25.115597,121.513139,6.3778344e-08
C1F871,上谷關,2025-04-10,24.203483,121.018644,1.1077415e-08
C2H9G0,百勝,2025-04-10,24.051142,120.909361,6.1154646e-09
C0G880,二水,2025-04-10,23.810742,120.6173,1.77942e-09
C0R940,加祿堂,2025-04-10,22.3363,120.6217,0.99919575
C0W220,北竿,2025-04-10,26.220358,119.974881,1.73818e-07
C0O960,崎頂,2025-04-10,22.959547,120.369317,0.7903886
C0S750,向陽,2025-04-10,23.248397,120.986133,2.0742878e-08
C0T9F0,水璉,2025-04-10,23.797131,121.542514,1.5638086e-08
C1M600,頭凍,2025-04-10,23.406364,120.603339,5.268282e-09
467660,臺東,2025-04-10,22.752211,121.154586,0.039966058
C1D380,新埔,2025-04-10,24.84745,121.03834,7.594768e-07
C2G980,田頭村,2025-04-10,23.8263,120.444175,1.1535641e-08
C0V750,路竹,2025-04-10,22.854997,120.259439,0.9998729
C0N050,蚵寮,2025-04-10,23.301,120.1104,0.03811111
72M700,南改鹿草分場,2025-04-10,23.416869,120.283061,2.9360194e-08
C1SA50,利嘉林道,2025-04-10,22.82325,121.009389,1.0262909e-08
C0A940,金山,2025-04-10,25.223628,121.643967,2.2243445e-07
C1V340,大津,2025-04-10,22.888322,120.645986,0.01645793
C0W180,七美,2025-04-10,23.219333,119.444892,0.9997818
C1F9C1,白冷,2025-04-10,24.182844,120.929889,5.62963e-09
K2E710,苗改生物防治研究中心,2025-04-10,24.422861,120.871833,6.092785e-09
C0N040,蘆竹溝,2025-04-10,23.2344,120.0961,0.02085362
C2W230,畜試所澎湖,2025-04-10,23.628342,119.513206,0.9986895
C0R880,後壁湖,2025-04-10,21.9457,120.7457,0.9986415
C1I280,埔中,2025-04-10,23.820778,120.642594,2.152844e-09
467790,墾丁雷達站,2025-04-10,21.948235,120.808028,0.99753344
C0W190,望安,2025-04-10,23.380564,119.494075,0.9988258
C0Z170,卓溪,2025-04-10,23.3443,121.3029,6.1214604e-07
C0F850,東勢,2025-04-10,24.246428,120.833047,3.7435317e-09
466900,淡水,2025-04-10,25.164889,121.448906,9.2924967e-07
C0I370,魚池,2025-04-10,23.895703,120.94135,3.164599e-09
C0C630,大溪,2025-04-10,24.882853,121.265547,8.693739e-08
C0A520,山佳,2025-04-10,24.974944,121.402008,5.2689273e-08
C0I110,竹山,2025-04-10,23.761225,120.688156,1.4239365e-09
82H840,茶改南部分場,2025-04-10,23.762528,120.7405,2.6037739e-09
C0G660,溪湖,2025-04-10,23.94835,120.479122,3.2115068e-08
C1T800,洛韶,2025-04-10,24.204558,121.453956,2.4583164e-08
C1T810,慈恩,2025-04-10,24.192044,121.388386,4.016624e-08
C1E451,象鼻,2025-04-10,24.368617,120.940228,1.20707915e-08
C0AC60,三峽,2025-04-10,24.939025,121.369728,6.465976e-08
C0I490,萬大林道,2025-04-10,23.928228,121.091411,1.4541116e-08
C1I290,豐丘,2025-04-10,23.668178,120.887417,9.151746e-09
C1I320,奧萬大,2025-04-10,23.952956,121.178556,1.2886179e-08
C2M910,嘉義大學,2025-04-10,23.471325,120.485903,1.1779371e-08
C0U770,南澳,2025-04-10,24.44935,121.81022,6.0474e-09
C0A980,社子,2025-04-10,25.109508,121.469681,1.1059376e-06
C0V800,六龜,2025-04-10,22.997889,120.633583,5.8668245e-08
C1G9D0,國一S218K,2025-04-10,23.890641,120.493253,9.533135e-08
C0E570,白沙屯,2025-04-10,24.549447,120.696803,0.02165652
C2F9A0,中竹林,2025-04-10,24.103556,120.751061,2.6543638e-09
C0FA40,臺中電廠,2025-04-10,24.2146,120.4907,0.009625136
C2G9A0,畜試所彰化,2025-04-10,23.86045,120.557964,2.1133715e-09
C0H9C0,合歡山,2025-04-10,24.143442,121.272547,5.9299833e-08
C0X060,下營,2025-04-10,23.22695,120.256261,0.008623363
G2M350,農試溪口農場,2025-04-10,23.58565,120.408111,4.6173225e-09
C0U860,頭城,2025-04-10,24.85323,121.8308,1.6334148e-08
C0R580,南州,2025-04-10,22.48591,120.50274,0.997537
C0D430,峨眉,2025-04-10,24.6905,121.017189,8.6615465e-08
C0G780,秀水,2025-04-10,24.03405,120.503869,2.1911895e-08
72N100,臺南農改場,2025-04-10,23.0605,120.342194,0.9772445
C0S900,蘭嶼高中,2025-04-10,22.04909,121.51214,0.99974686
C1F9W0,德基,2025-04-10,24.254783,121.190261,2.8536993e-08
C1Z120,壽豐,2025-04-10,23.870853,121.508081,5.2720235e-08
C0W160,烏坵,2025-04-10,24.9944,119.44956,0.88300556
C1I240,外大坪,2025-04-10,23.958697,120.917931,4.2447534e-09
C1I550,國六W023K,2025-04-10,23.979067,120.867742,2.7049774e-09
C0R870,興海,2025-04-10,21.9752,120.8439,0.9986024
C0R140,瑪家,2025-04-10,22.682903,120.686639,1.7405586e-09
C0A530,坪林,2025-04-10,24.938183,121.70975,2.145102e-08
C0X260,後壁,2025-04-10,23.366358,120.362326,4.6132147e-05
C0Z230,和平,2025-04-10,24.30717,121.77007,1.1727601e-07
C0G770,福興,2025-04-10,24.041289,120.437669,1.7604478e-07
C0H9A0,神木村,2025-04-10,23.532742,120.843667,1.652376e-08
C0I460,南投,2025-04-10,23.911469,120.687331,3.6274824e-07
C0I480,梅峰,2025-04-10,24.085272,121.173572,3.313432e-08
C1V570,吉東,2025-04-10,22.85422,120.5454,0.08769462
C2D740,屯原,2025-04-10,24.067969,121.209389,2.2806724e-08
C2A560,福山,2025-04-10,24.776203,121.502811,1.3760137e-08
C0AH30,五分山,2025-04-10,25.07125,121.780794,2.869473e-08
C0FA10,松柏,2025-04-10,24.429115,120.617482,0.022899963
72S200,東改班鳩分場,2025-04-10,22.829528,121.077694,3.190389e-07
72HA00,中改埔里分場,2025-04-10,23.903208,120.963364,3.3123368e-09
C2H9W0,大坪頂農水,2025-04-10,24.043122,120.932781,4.140291e-09
C0C650,平鎮,2025-04-10,24.897503,121.214636,3.7537724e-08
C0S930,延平,2025-04-10,22.902581,121.084058,3.7158293e-07
C0UA60,樟樹山,2025-04-10,24.41393,121.78325,8.9865715e-09
C1S670,摩天,2025-04-10,23.199503,121.027,2.7435698e-08
C0V630,茄萣,2025-04-10,22.906642,120.182608,0.99938387
466940,基隆,2025-04-10,25.133314,121.740475,6.694573e-07
C0X050,東河,2025-04-10,23.296598,120.385608,6.566723e-08
C0R770,保力,2025-04-10,22.071122,120.764111,0.993562
G2L020,農試嘉義分所,2025-04-10,23.485028,120.473806,4.342374e-09
C0X240,關子嶺,2025-04-10,23.331169,120.508025,2.918531e-09
C0I380,集集,2025-04-10,23.828206,120.801467,9.460186e-10
466990,花蓮,2025-04-10,23.975128,121.613275,1.505126e-07
C1V220,小關山,2025-04-10,23.154217,120.813603,1.39210625e-08
C1F9G1,慶福山,2025-04-10,24.180853,120.848378,9.43068e-09
C0Z250,瑞穗林道,2025-04-10,23.49284,121.30688,2.1727073e-08
C0D590,新豐,2025-04-10,24.87068,120.97721,0.0007608135
C0A870,五指山,2025-04-10,25.132153,121.608692,1.9265208e-08
C0UA50,西帽山,2025-04-10,24.555361,121.802628,1.6753043e-08
C0X160,仁德,2025-04-10,22.968258,120.257689,0.9981586
C1H971,六分寮,2025-04-10,23.92507,120.6378,2.7414133e-09
C0W120,西嶼,2025-04-10,23.5626,119.468436,0.99938107
C0G650,員林,2025-04-10,23.946503,120.585597,5.619728e-09
C0AD50,鶯歌,2025-04-10,24.951533,121.346294,5.921902e-08
C2H9Q0,北東眼山,2025-04-10,24.120939,121.189303,2.7015808e-08
C2H9T0,名間竹圍,2025-04-10,23.859914,120.637572,8.887479e-10
C0S990,山豬窟,2025-04-10,22.318619,120.857372,1.2169252e-07
C0X190,安平,2025-04-10,22.993161,120.152181,0.99655885
C0K400,斗六,2025-04-10,23.720583,120.541127,5.9740737e-09
12J990,口湖工作站,2025-04-10,23.589978,120.180394,0.000103322185
C0O830,北寮,2025-04-10,23.079561,120.495008,0.01747373
C1D410,白蘭,2025-04-10,24.579364,121.079947,1.7668098e-08
C0S970,加津林,2025-04-10,22.416211,120.926942,0.0025179714
C0D700,關西,2025-04-10,24.7977,121.1732,1.0113671e-07
C0M810,里佳,2025-04-10,23.389125,120.716647,7.474183e-09
C0U750,龜山島,2025-04-10,24.841667,121.953133,0.0029750238
C0R810,內獅,2025-04-10,22.305064,120.642986,0.9992675
C1M390,龍美,2025-04-10,23.406728,120.654417,6.0841914e-09
C2FB60,頭櫃山,2025-04-10,24.129842,120.858925,1.330147e-08
C1H840,國三N238K,2025-04-10,23.841008,120.707711,8.6704804e-10
CAQ030,崎峰國小,2025-04-10,22.42565,120.49521,0.997537
C2E520,大湖,2025-04-10,24.414939,120.870872,4.2374486e-09
467530,阿里山,2025-04-10,23.508208,120.813242,2.4490033e-08
C1E691,南湖,2025-04-10,24.40135,120.837533,1.1728436e-08
C0FA30,梧棲,2025-04-10,24.256003,120.523381,0.04446727
C1V231,高中,2025-04-10,23.134911,120.716711,1.9227682e-09
C0F9V0,新社,2025-04-10,24.200172,120.815806,5.314363e-09
C0H890,埔里,2025-04-10,23.972169,120.952425,5.293816e-09
C0R690,墾丁,2025-04-10,21.966756,120.810269,0.999666
C0F0D0,審馬陣,2025-04-10,24.381675,121.4203,5.6293537e-08
C2W030,金門農試所,2025-04-10,24.448431,118.451786,1.2157995e-08
C0R820,白鷺,2025-04-10,22.454275,120.666219,5.8623026e-09
C1V190,南天池,2025-04-10,23.27403,120.91176,2.253504e-08
K2E360,苗栗農改場,2025-04-10,24.495722,120.829111,3.7176616e-08
CAJ050,海口故事園區,2025-04-10,23.57543,120.14121,0.00010347324
C2H9D0,三隻寮,2025-04-10,24.093078,120.861578,4.203607e-09
C0O990,媽廟,2025-04-10,22.99175,120.293525,0.9949639
C0D480,打鐵坑,2025-04-10,24.849664,121.150789,2.5826205e-08
C0Z220,和平林道,2025-04-10,24.343922,121.656317,1.9603895e-08
C0TA10,花蓮漁港,2025-04-10,23.995322,121.638331,1.7549128e-07
72C440,桃園農改場,2025-04-10,24.950944,121.030583,3.3106066e-06
C1E711,馬拉邦山,2025-04-10,24.367306,120.901656,1.0430651e-08
C0SB20,富岡,2025-04-10,22.792467,121.192669,0.0028010027
C0D560,竹東,2025-04-10,24.767147,121.057881,4.0061646e-08
C0F9U0,南屯,2025-04-10,24.137006,120.637969,3.4721865e-09
C0M720,番路,2025-04-10,23.464657,120.554156,1.1842803e-09
C0F0A0,雪山圈谷,2025-04-10,24.388594,121.236339,6.178945e-08
C1A9N0,四十份,2025-04-10,24.934158,121.593283,1.7928606e-08
C0U760,東澳,2025-04-10,24.52196,121.83318,8.799117e-09
C0X230,鹽水,2025-04-10,23.272621,120.247641,0.023036378
C2H9H0,苗改南投蜂場,2025-04-10,23.852589,120.693481,1.3374171e-09
C0R950,萬隆國小,2025-04-10,22.507667,120.587817,0.9708682
467540,大武,2025-04-10,22.35572,120.90374,0.004786682
C0V370,古亭坑,2025-04-10,22.893178,120.401947,0.99684334
C1I340,新興橋,2025-04-10,23.563333,120.868728,6.38466e-09
C0SA80,土坂,2025-04-10,22.453108,120.887572,1.4533787e-05
C0R160,鹽埔,2025-04-10,22.739558,120.530778,0.16728114
C0AC40,大屯山,2025-04-10,25.175675,121.522408,4.4233957e-08
466850,五分山雷達站,2025-04-10,25.071182,121.781205,2.9141491e-08
C2H9L0,馬烈霸,2025-04-10,24.1512,121.201772,2.8473108e-08
C1AI50,國三N016K,2025-04-10,25.034164,121.619664,4.347514e-08
C1V600,藤枝,2025-04-10,23.071961,120.757042,1.3855553e-08
C1E601,南勢,2025-04-10,24.572486,120.734842,5.494924e-05
C0Z180,新城,2025-04-10,24.03946,121.60454,1.2964175e-07
C0O980,新市,2025-04-10,23.061614,120.298197,0.9897484
C0K420,西螺,2025-04-10,23.800407,120.467394,9.8352775e-09
C0Z050,佳心,2025-04-10,23.34567,121.21316,1.5889684e-08
C0AD30,蘆洲,2025-04-10,25.086594,121.472331,4.6082622e-08
C0V610,梓官,2025-04-10,22.760558,120.267211,0.99966735
K2F750,種苗改良場,2025-04-10,24.225972,120.800917,5.0925966e-09
C0UA80,大溪漁港,2025-04-10,24.941801,121.902955,3.2317413e-08
C1AI60,國一39K邊坡,2025-04-10,25.064361,121.383836,2.003991e-08
C0W150,金寧,2025-04-10,24.457703,118.328989,1.2001805e-08
C0R960,內埔,2025-04-10,22.608483,120.570714,0.9639857
V2C250,八德合作社,2025-04-10,24.93775,121.266389,4.4870763e-08
C2H9S0,龍南,2025-04-10,23.953536,120.833183,9.1832195e-09
C0AH40,平等,2025-04-10,25.129142,121.577086,1.5811231e-08
C0R540,佳冬,2025-04-10,22.419456,120.552375,0.99904037
466950,彭佳嶼,2025-04-10,25.627975,122.079744,0.99852294
C0A890,雙溪,2025-04-10,25.036003,121.864242,2.5772798e-07
C0C480,桃園,2025-04-10,24.992425,121.323172,2.1759629e-08
C0AH50,林口,2025-04-10,25.072181,121.38084,1.9200058e-08
A2K360,水試臺西試驗場,2025-04-10,23.717231,120.190522,0.0030834826
C2M960,外寮,2025-04-10,23.562643,120.665688,8.377237e-09
C0F9S0,烏日,2025-04-10,24.107058,120.624103,3.0160436e-09
C0C490,八德,2025-04-10,24.928708,121.283289,4.3729624e-08
C0R190,赤山,2025-04-10,22.592333,120.614306,0.9538791
C0T820,天祥,2025-04-10,24.179597,121.495639,1.8765453e-08
C1F9E1,龍安,2025-04-10,24.1605,120.831961,5.612465e-09
C0V820,小林,2025-04-10,23.148408,120.63325,2.1609812e-09
C2G870,芳苑,2025-04-10,23.922303,120.320025,0.06630383
C0E850,大河,2025-04-10,24.618069,120.948578,1.1296996e-08
C1U670,寒溪,2025-04-10,24.634,121.71691,3.874066e-09
C0N020,城西,2025-04-10,23.0568,120.0956,0.347086
C1Z110,三棧,2025-04-10,24.11557,121.60501,4.168065e-08
C0R280,檳榔,2025-04-10,22.076078,120.836777,0.9999914
C2H9J0,中台,2025-04-10,23.9996,120.938739,2.8831815e-09
C0F9L0,后里,2025-04-10,24.310436,120.729725,2.0354705e-09
467441,高雄,2025-04-10,22.730432,120.312516,0.99963284
C0D540,橫山,2025-04-10,24.71116,121.11693,1.209423e-08
C1D420,太閣南,2025-04-10,24.632808,121.160575,2.728889e-08
C1E770,公館,2025-04-10,24.526914,120.830806,4.535027e-08
CAN130,水試所海水繁養殖中心,2025-04-10,23.120802,120.07968,0.72229177
C1I430,翠華,2025-04-10,24.191961,121.224339,4.2143583e-08
C1M400,菜瓜坪,2025-04-10,23.251928,120.576103,2.5425602e-09
C0G730,二林,2025-04-10,23.903325,120.376081,1.0814422e-06
72M360,南改義竹分場,2025-04-10,23.360694,120.279361,0.022564111
V2K620,麥寮合作社,2025-04-10,23.753836,120.294783,3.05892e-07
C0Z070,舞鶴,2025-04-10,23.46811,121.37407,1.8026228e-08
C0B040,大武崙,2025-04-10,25.166676,121.706993,5.242244e-07
C1Z030,紅葉,2025-04-10,23.493119,121.338806,5.1081543e-08
C1I050,丹大,2025-04-10,23.753747,121.141147,2.9480898e-08
C0I080,信義,2025-04-10,23.689694,120.851036,4.8712026e-09
C2M920,朴子農改,2025-04-10,23.469889,120.259383,3.000416e-08
C2A880,福隆,2025-04-10,25.017842,121.942083,3.369908e-08
C0Z160,鳳林,2025-04-10,23.746114,121.453411,1.7132283e-08
C0V210,復興,2025-04-10,23.222403,120.806089,1.8696669e-09
C0H990,昆陽,2025-04-10,24.121322,121.273642,5.5681117e-08
C0R741,獅子,2025-04-10,22.202308,120.705236,0.999943
C0S710,鹿野,2025-04-10,22.917711,121.122994,4.758409e-08
C0I530,小奇萊,2025-04-10,24.131764,121.295717,5.7004492e-08
C2K630,荷苞,2025-04-10,23.657717,120.595144,1.6650045e-09
C0Z080,富源,2025-04-10,23.587642,121.378225,1.7523583e-08
C0SB10,美和,2025-04-10,22.682078,121.060236,0.00452269
C2K620,馬光農場,2025-04-10,23.721453,120.378864,1.37341e-08
C1I140,卡奈托灣,2025-04-10,23.754364,121.087872,1.40966625e-08
C0I520,玉山風口,2025-04-10,23.470489,120.955994,4.674212e-08
C1G691,下水埔,2025-04-10,23.816114,120.5676,2.7222697e-09
C0X110,臺南市南區,2025-04-10,22.961189,120.188378,0.99859214
C0V680,仁武,2025-04-10,22.701083,120.347722,0.99982816
C2G840,北斗,2025-04-10,23.877586,120.514222,8.548921e-08
C0R900,竹坑,2025-04-10,22.1385,120.7022,0.9995115
C0K250,崙背,2025-04-10,23.75555,120.318925,2.635735e-07
C0G860,社頭,2025-04-10,23.897647,120.5862,1.1518711e-08
C0X150,安定,2025-04-10,23.102614,120.227839,0.9860422
C0R590,里港,2025-04-10,22.77919,120.49459,0.1931788
C0E610,馬都安,2025-04-10,24.451272,120.930192,1.220025e-08
C0E550,明德,2025-04-10,24.583486,120.885411,8.9566626e-08
C0R150,三地門,2025-04-10,22.709889,120.639944,0.027385652
C0G910,花壇,2025-04-10,24.032076,120.549461,1.6999737e-08
C1D400,鳥嘴山,2025-04-10,24.71909,121.28387,1.254563e-08
C0K500,元長,2025-04-10,23.64981,120.315024,7.1612654e-08
C0F0B0,石岡,2025-04-10,24.276061,120.777644,2.1552145e-09
C2V250,甲仙,2025-04-10,23.080106,120.591758,3.5897536e-08
C0SA20,金崙山,2025-04-10,22.567419,120.959667,2.258853e-08
C0V350,溪埔,2025-04-10,22.738578,120.446797,0.2685933
C0M660,溪口,2025-04-10,23.604131,120.403569,4.6193573e-09
C1S880,壽卡,2025-04-10,22.238911,120.858903,7.8276976e-08
72D680,桃改新埔分場,2025-04-10,24.834444,121.066111,8.5023623e-07
