站號,站名,日期,lat,lon,BLBTSLS
C0R710,龍磐,2025-02-27,21.931672,120.838942,0.9706685
C1F9D1,白毛台,2025-02-27,24.158325,120.886933,7.747643e-10
C0G940,竹塘,2025-02-27,23.848253,120.386764,3.0177987e-09
467590,恆春,2025-02-27,22.003897,120.746339,0.98240036
C1O850,環湖,2025-02-27,23.148617,120.418633,6.007092e-10
C0U710,太平山,2025-02-27,24.505486,121.525656,2.4985443e-08
C0E820,獅潭,2025-02-27,24.539133,120.920042,7.6808726e-10
C0V880,興達,2025-02-27,22.8778,120.2127,1.3289444e-09
C0S890,關山,2025-02-27,23.0395,121.175017,1.0437851e-09
C0SB30,新蘭,2025-02-27,22.869214,121.223228,1.8339589e-09
C2R970,屏科大,2025-02-27,22.648275,120.619247,3.757744e-10
K2F750,種苗繁殖,2025-02-27,24.225972,120.800917,9.1402275e-10
C1Z130,銅門,2025-02-27,23.965694,121.492842,7.278005e-09
C0AD40,土城,2025-02-27,24.973208,121.445169,6.9390296e-07
CAN140,六官養殖協會,2025-02-27,23.22881,120.29962,9.1726937e-10
C0X180,山上,2025-02-27,23.0757,120.363253,5.59455e-10
C0F9Z0,雪山東峰,2025-02-27,24.388792,121.268675,1.5471825e-08
C1M480,獨立山,2025-02-27,23.537022,120.607797,1.094516e-09
C0X220,學甲,2025-02-27,23.230367,120.182187,8.551734e-10
C0R170,屏東,2025-02-27,22.660269,120.494072,3.9837514e-07
467650,日月潭,2025-02-27,23.881325,120.90805,1.3419398e-09
C0K600,箔子寮,2025-02-27,23.6197,120.14,2.5854925e-07
C0G830,埤頭,2025-02-27,23.866003,120.452806,5.9098565e-10
C0S950,七塊厝,2025-02-27,22.954453,121.229922,1.2594078e-09
467110,金門,2025-02-27,24.407306,118.289281,6.2550725e-08
C0AH80,深坑,2025-02-27,25.002703,121.628328,5.1209537e-07
467990,馬祖,2025-02-27,26.169269,119.923419,1.7577847e-06
C0A970,三貂角,2025-02-27,25.007606,122.002058,1.3847462e-07
C2D730,寶山農場,2025-02-27,24.732444,120.976153,1.1641177e-09
C0K430,褒忠,2025-02-27,23.690938,120.303634,2.078564e-09
467480,嘉義,2025-02-27,23.495925,120.432906,1.1006834e-09
C2E540,後龍,2025-02-27,24.606489,120.783933,2.8702434e-09
C0V400,阿公店,2025-02-27,22.804194,120.355528,5.3895005e-10
467550,玉山,2025-02-27,23.48718,120.95943,3.2318585e-08
C0R440,大漢山,2025-02-27,22.405264,120.753181,2.776212e-08
C0K280,四湖,2025-02-27,23.630414,120.227125,1.5047026e-07
C1F9B1,桐林,2025-02-27,24.066172,120.735194,5.722569e-10
C2H9U0,鳳鵬,2025-02-27,23.763919,120.788061,5.8863897e-10
C0K390,土庫,2025-02-27,23.679029,120.395574,8.735817e-10
C1I450,望鄉山,2025-02-27,23.594153,120.944286,1.1015619e-08
C0E910,海埔,2025-02-27,24.648767,120.772435,3.0151923e-09
B2E890,畜試北區分所,2025-02-27,24.527806,120.770972,2.482331e-09
C0R750,四林格山,2025-02-27,22.076989,120.802439,3.0425448e-05
C0F0C0,中坑,2025-02-27,24.248517,120.903319,1.5417847e-09
C1I121,大鞍,2025-02-27,23.678381,120.760017,2.775014e-09
72U480,花改蘭陽分場,2025-02-27,24.686306,121.716583,9.096006e-09
C0A770,科教館,2025-02-27,25.096356,121.516507,1.6380002e-07
C0AJ60,六塊厝,2025-02-27,25.24,121.4481,0.0038065878
C0R620,墾雷,2025-02-27,21.900836,120.855269,0.26229408
467420,永康,2025-02-27,23.038386,120.2367,1.3300474e-09
467300,東吉島,2025-02-27,23.25695,119.667467,0.9665011
C0I410,名間,2025-02-27,23.837053,120.701447,6.717161e-10
A2C560,農工中心,2025-02-27,24.985917,121.239833,1.1068091e-06
C0V740,旗山,2025-02-27,22.888614,120.483597,7.7400514e-10
C0Z061,玉里,2025-02-27,23.3215,121.339656,3.6276286e-09
C0S840,南田,2025-02-27,22.279725,120.889208,0.9962144
C1I470,杉林溪,2025-02-27,23.639517,120.786444,3.4088818e-09
C1X040,東原,2025-02-27,23.291597,120.463822,6.5767697e-10
C0R660,枋寮,2025-02-27,22.367722,120.590647,1.8844784e-09
C1R120,上德文,2025-02-27,22.763272,120.704442,1.1114383e-09
C0K450,大埤,2025-02-27,23.646074,120.431537,8.103092e-10
C0UA00,土場,2025-02-27,24.576533,121.495333,2.5571419e-08
467080,宜蘭,2025-02-27,24.763975,121.756528,7.3106303e-09
C0N030,四草,2025-02-27,23.0235,120.1116,1.3109039e-09
467410,臺南,2025-02-27,22.99328,120.20492,1.2802438e-09
C0V650,彌陀,2025-02-27,22.783806,120.246361,7.1288103e-10
C0D660,新竹市東區,2025-02-27,24.798681,120.986942,5.0754037e-09
82S580,茶改東部分場,2025-02-27,22.907694,121.130139,1.4400043e-09
C0SB40,興隆,2025-02-27,22.913661,121.257469,1.7519596e-09
467050,新屋,2025-02-27,25.006725,121.047492,0.01846854
C0C710,大溪永福,2025-02-27,24.892936,121.324975,1.9740986e-07
C0FA20,溫寮,2025-02-27,24.372177,120.583125,2.206064e-08
C0V640,湖內,2025-02-27,22.887139,120.2445,1.3238795e-09
C0R910,下寮,2025-02-27,22.3929,120.5548,1.8844784e-09
C0Z020,明里,2025-02-27,23.208717,121.262342,4.189455e-09
C0M770,嘉義梅山,2025-02-27,23.585398,120.555587,9.417356e-10
G2F820,農業試驗所,2025-02-27,24.031261,120.688133,5.3366667e-10
C0C660,楊梅,2025-02-27,24.912375,121.143047,7.8342146e-07
C1E511,新開,2025-02-27,24.347703,120.827019,7.251162e-10
G2F820,農試所(霧峰),2025-02-27,24.031261,120.688133,5.3366667e-10
C1I070,和社,2025-02-27,23.591131,120.888861,1.6326727e-09
C2F000,大肚,2025-02-27,24.15295,120.572117,6.1214134e-10
C1S850,豐南,2025-02-27,23.122139,121.262389,1.865581e-09
C2A920,富貴角,2025-02-27,25.263783,121.565258,6.565532e-05
CAH030,茶改場竹圍站,2025-02-27,23.860083,120.637528,5.5574645e-10
C0T960,光復,2025-02-27,23.660694,121.424964,2.8186389e-09
C0F9M0,豐原,2025-02-27,24.254322,120.720692,7.715613e-10
C0R720,旭海,2025-02-27,22.205403,120.887614,0.1060124
C0V710,苓雅,2025-02-27,22.622742,120.330669,4.6964593e-10
C0C740,觀音工業區,2025-02-27,25.064764,121.114856,0.6672224
CAC040,拉拉山,2025-02-27,24.699317,121.427133,5.4099083e-08
C0V790,萬山,2025-02-27,22.905944,120.688056,5.068871e-10
U2HA30,臺大和社,2025-02-27,23.590856,120.888864,1.6326727e-09
C0AJ90,澳底,2025-02-27,25.0552,121.9253,2.648861e-07
C0Z100,東華,2025-02-27,23.89525,121.549833,6.9453834e-09
C0G970,三豐,2025-02-27,23.882,120.2895,3.088129e-05
V2K610,大庄合作社,2025-02-27,23.8068,120.367939,2.150759e-09
C0V900,汕尾,2025-02-27,22.4782,120.4151,2.7592267e-10
C1R630,龍泉,2025-02-27,22.66701,120.59091,3.9202533e-10
C1AC50,關渡,2025-02-27,25.133486,121.469331,7.078442e-08
C0F9I0,神岡,2025-02-27,24.272481,120.658314,1.1803971e-09
C0K460,斗南,2025-02-27,23.678734,120.478359,8.224279e-10
467410,臺南,2025-02-27,22.993239,120.204772,1.2802438e-09
C2O810,曾文,2025-02-27,23.219681,120.497328,7.029126e-10
467280,後龍,2025-02-27,24.648563,120.831834,2.6434408e-09
C1F9J1,清水林,2025-02-27,24.071242,120.820419,7.7297685e-10
C2A650,火燒寮,2025-02-27,25.002719,121.742892,9.288867e-08
466930,竹子湖,2025-02-27,25.162078,121.544547,3.2467238e-08
C1I220,樟湖,2025-02-27,23.905333,120.846983,1.292238e-09
C0I390,仁愛,2025-02-27,24.022122,121.132206,1.3509308e-09
C0Z300,東里,2025-02-27,23.26853,121.30547,4.1828123e-09
C0V310,美濃,2025-02-27,22.898742,120.519153,2.5577162e-06
C1V590,新發,2025-02-27,23.057019,120.646064,8.78196e-10
C0K510,水林,2025-02-27,23.572924,120.24597,2.4030684e-09
72S590,東改賓朗果園,2025-02-27,22.813889,121.071278,1.5735977e-09
82A750,茶改北部分場,2025-02-27,24.955778,121.631222,8.486358e-08
C1A750,石碇服務區,2025-02-27,25.00872,121.646242,3.6601125e-07
C0X300,鹿寮,2025-02-27,23.386047,120.477331,1.0762982e-09
G2AI50,關渡,2025-02-27,25.11575,121.492,3.4507261e-06
C0K590,雲林東勢,2025-02-27,23.674192,120.255721,1.9834856e-09
C0A570,桶後,2025-02-27,24.848222,121.597992,4.1934946e-08
C1S800,華源,2025-02-27,22.657883,121.02325,9.74992e-09
C0G720,溪州,2025-02-27,23.851589,120.499093,5.838287e-10
C1V160,達卡努瓦,2025-02-27,23.279811,120.705319,1.1467388e-09
C2M410,馬頭山,2025-02-27,23.324361,120.582017,6.6148254e-10
C0V850,蚵仔寮,2025-02-27,22.7256,120.2527,5.021306e-10
C0S740,池上,2025-02-27,23.119628,121.209469,7.297994e-09
C1V390,尖山,2025-02-27,22.813153,120.367789,5.2977633e-10
C0AH70,松山,2025-02-27,25.04871,121.55042,1.5535068e-07
C0N010,鯤鯓國小,2025-02-27,23.1879,120.0889,1.3667013e-09
C0R550,新埤,2025-02-27,22.467947,120.582894,2.807408e-10
C0SA60,知本（水試所）,2025-02-27,22.702394,121.082761,1.2708534e-08
C0T9I0,豐濱,2025-02-27,23.583897,121.514806,2.476533e-09
C0UB00,淡江大學蘭陽校園,2025-02-27,24.823239,121.730383,4.0110198e-08
C0W240,九宮,2025-02-27,24.423753,118.240186,6.55441e-08
C0T9N0,富里,2025-02-27,23.171639,121.249378,6.7254975e-09
U2HA50,臺大竹山,2025-02-27,23.756972,120.681556,6.9958356e-10
C0V840,鳳鼻頭,2025-02-27,22.5083,120.3591,3.451906e-10
C0X140,西港,2025-02-27,23.125608,120.203108,9.320592e-10
72D080,桃改五峰分場,2025-02-27,24.612194,121.157167,2.8188378e-09
C2H9P0,伊拿谷,2025-02-27,23.963211,121.088264,9.572959e-10
C2H9F0,柑林,2025-02-27,24.018658,120.847072,5.639569e-10
C0TA20,加灣,2025-02-27,24.082025,121.608944,2.9146605e-08
C0V530,阿蓮,2025-02-27,22.883208,120.327508,7.0105954e-10
C1O880,關山,2025-02-27,23.173397,120.594092,3.6670364e-10
C0E791,卓蘭,2025-02-27,24.3126,120.8244,7.9003315e-10
C1I030,武界,2025-02-27,23.913225,121.052483,9.944643e-10
C0R520,崁頂,2025-02-27,22.514781,120.506914,2.94073e-10
C0R341,牡丹,2025-02-27,22.130036,120.792639,0.27673975
C0R930,萬丹,2025-02-27,22.5885,120.4851,3.7416736e-10
C0S760,紅石,2025-02-27,23.069131,121.126219,2.3775838e-08
C2C410,中央大學,2025-02-27,24.967652,121.185165,1.0062276e-06
C1M610,石磐龍,2025-02-27,23.496606,120.663506,1.5724726e-09
C0UA10,鴛鴦湖,2025-02-27,24.590269,121.412228,1.1815013e-08
V2C260,八德蔬果,2025-02-27,24.978508,121.281819,1.622947e-07
C0R800,丹路,2025-02-27,22.204481,120.750989,0.42132416
C0G920,永靖,2025-02-27,23.924703,120.547533,5.89322e-10
C2M950,太和,2025-02-27,23.538372,120.702961,2.179925e-09
C1A630,下盆,2025-02-27,24.771003,121.538622,3.1751934e-08
B2N890,畜產試驗所,2025-02-27,23.058972,120.336406,9.910862e-10
C0UA30,白嶺,2025-02-27,24.527819,121.519031,2.0709276e-08
C1V580,溪南(特生中心),2025-02-27,23.084972,120.788475,2.7356102e-09
C1T970,大農,2025-02-27,23.615233,121.413331,2.5845708e-09
E2S960,林試太麻里2,2025-02-27,22.598014,120.989761,2.2825478e-08
C0R650,竹田,2025-02-27,22.58486,120.54344,3.8472234e-10
C1H900,清流,2025-02-27,24.080775,120.962997,8.5573465e-10
C1C510,水尾,2025-02-27,24.940081,121.087161,0.00037261387
C0F9X0,大雅(中科園區),2025-02-27,24.21528,120.62445,7.5174705e-10
C0SB60,白守蓮,2025-02-27,23.126769,121.401914,1.4822343e-08
C0O970,虎頭埤,2025-02-27,23.021375,120.347878,7.4086204e-10
C0C730,中大臨海站,2025-02-27,24.966126,121.008581,0.046590853
C0X250,新營,2025-02-27,23.310689,120.316681,1.2970136e-09
C0V700,三民,2025-02-27,22.645017,120.311233,8.6492224e-10
C0U870,大礁溪,2025-02-27,24.791042,121.675047,3.204684e-08
C0E870,高鐵苗栗,2025-02-27,24.60725,120.826094,2.7876559e-09
A2K570,古坑花卉中心,2025-02-27,23.63353,120.55239,9.1154184e-10
C0TA30,鹽寮,2025-02-27,23.845606,121.592664,6.988997e-09
C0M860,新美,2025-02-27,23.338017,120.683169,6.972404e-10
C1E701,八卦,2025-02-27,24.491756,120.927619,1.9935669e-09
C0I420,國姓,2025-02-27,24.037803,120.855072,5.7983246e-10
C2D720,關西工作站,2025-02-27,24.757275,121.184792,1.9776907e-09
C0S960,香蘭,2025-02-27,22.587569,120.993375,2.2825478e-08
467620,蘭嶼,2025-02-27,22.0369,121.55843,0.99992836
C0R260,春日,2025-02-27,22.370361,120.628306,1.3363155e-09
72G600,臺中農改場,2025-02-27,24.003028,120.534389,4.4384177e-10
C0Z210,瑞穗,2025-02-27,23.5239,121.39021,2.3596607e-09
C0M820,達邦,2025-02-27,23.453994,120.749517,1.331738e-09
C0V860,南寮,2025-02-27,22.7616,120.2339,5.021306e-10
C0G740,大城,2025-02-27,23.852487,120.320935,2.3495975e-05
C0R920,塭仔,2025-02-27,22.4169,120.5197,2.0053206e-09
C0R470,高樹,2025-02-27,22.826389,120.600806,5.2056703e-10
C0R680,佳樂水,2025-02-27,21.993578,120.861633,0.82365495
C1O870,大棟山,2025-02-27,23.31157,120.52226,1.9226656e-09
C0D360,梅花,2025-02-27,24.678347,121.208558,9.976237e-10
C0Z190,富世,2025-02-27,24.14743,121.6297,1.7912235e-08
C0AI10,屈尺,2025-02-27,24.92184,121.54475,2.3950236e-07
B2U990,畜試東區分所,2025-02-27,24.669039,121.832561,1.0636052e-08
C0SB80,長濱漁港,2025-02-27,23.313644,121.459994,3.3800578e-09
C0R240,來義,2025-02-27,22.527306,120.625111,2.9356245e-10
C0V910,大樹,2025-02-27,22.684645,120.432803,4.258545e-10
C1R610,西大武山,2025-02-27,22.617719,120.7322,2.1855046e-08
C0G900,線西,2025-02-27,24.143358,120.443536,3.0045029e-09
C0M700,竹崎,2025-02-27,23.526178,120.555508,7.0450856e-10
C2E880,三義,2025-02-27,24.405478,120.749819,8.1630946e-10
C0C720,竹圍,2025-02-27,25.112692,121.239824,3.449933e-06
C0F9P0,清水,2025-02-27,24.312297,120.562242,8.799419e-09
C0Z150,吉安光華,2025-02-27,23.930925,121.595153,7.626877e-09
467300,東吉島,2025-02-27,23.25727,119.66762,0.9647101
C1D640,外坪(五指山),2025-02-27,24.644447,121.090961,1.6325232e-09
C0F9O0,潭子,2025-02-27,24.213106,120.703933,7.140023e-10
C2H9R0,卓社,2025-02-27,23.887894,121.000086,1.8431572e-09
72T250,花蓮農改場,2025-02-27,23.975222,121.563889,2.4681874e-08
C0E780,銅鑼,2025-02-27,24.489681,120.790853,1.7866673e-09
C1T950,太安,2025-02-27,23.666719,121.370128,3.155644e-08
C0E830,苑裡,2025-02-27,24.439714,120.653053,1.0034622e-07
467270,田中,2025-02-27,23.873803,120.581286,7.579755e-10
C0SA10,檳榔四格山,2025-02-27,22.810031,121.109308,1.6170684e-09
C1T830,布洛灣,2025-02-27,24.17184,121.57127,1.9973858e-07
C0F970,大坑,2025-02-27,24.173142,120.722289,6.217693e-10
C1U920,思源,2025-02-27,24.393125,121.347214,1.8542796e-08
C0A931,三和,2025-02-27,25.233153,121.595236,3.1046355e-07
C0I010,廬山,2025-02-27,24.033311,121.181808,2.5701965e-09
C2M940,日野賀,2025-02-27,23.434056,120.727169,1.7799597e-09
C0R860,鼻頭,2025-02-27,22.1043,120.8979,0.8542198
C0UB20,壯圍,2025-02-27,24.7359,121.8163,9.085828e-09
C0R790,九棚,2025-02-27,22.14195,120.889281,0.48250237
C0W110,東莒,2025-02-27,25.9652,119.98069,7.728405e-06
C1U930,粉鳥林,2025-02-27,24.497088,121.842479,1.4710053e-08
C1I211,蘆竹湳,2025-02-27,23.934019,120.811994,5.9194344e-10
C0S830,長濱,2025-02-27,23.286817,121.411975,3.987577e-09
C1F9F1,伯公龍,2025-02-27,24.272392,120.849047,8.878702e-10
C0E810,西湖,2025-02-27,24.562947,120.7485,4.899728e-06
C1I440,新高口,2025-02-27,23.478744,120.878939,7.4484525e-09
C0O840,王爺宮,2025-02-27,23.222064,120.40085,1.2708528e-09
C0T9G0,鳳林山,2025-02-27,23.735269,121.420131,1.1014736e-08
C0X080,佳里,2025-02-27,23.173039,120.145086,1.3667013e-09
C0FB70,大甲溪埔,2025-02-27,24.370625,120.620067,1.7418248e-08
C0Z310,清水斷崖,2025-02-27,24.218294,121.689142,7.2275816e-09
C0M680,太保,2025-02-27,23.455062,120.331455,1.2079054e-09
C1S820,金峰,2025-02-27,22.590969,120.933236,1.35010465e-08
C0AD10,八里,2025-02-27,25.150211,121.403947,3.449933e-06
C2K240,草嶺,2025-02-27,23.59555,120.693461,1.6367603e-09
C1SA70,都蘭,2025-02-27,22.87794,121.226881,1.7519596e-09
C0K440,二崙,2025-02-27,23.772797,120.408944,5.5816746e-10
C1A760,坪林交控,2025-02-27,24.94284,121.713442,1.01359184e-07
C0F9N0,大里,2025-02-27,24.092464,120.701378,5.752313e-10
C0SA90,達仁林場,2025-02-27,22.264347,120.823972,3.0534302e-05
C1R290,石門山,2025-02-27,22.112611,120.756597,0.04442887
42HA10,萬大發電廠,2025-02-27,23.978875,121.139639,1.1298241e-09
C0R890,山海,2025-02-27,21.9878,120.7091,0.9781004
C0T9A0,月眉山,2025-02-27,23.809928,121.539828,8.604455e-09
C0AC70,信義,2025-02-27,25.037822,121.564597,1.5535068e-07
C0K560,棋山,2025-02-27,23.68645,120.603417,8.996119e-10
C2FB50,出雲,2025-02-27,24.206469,120.902794,1.797705e-09
C1Z240,中平林道,2025-02-27,23.42115,121.26763,5.088773e-08
U2H480,溪頭,2025-02-27,23.670306,120.798194,1.8446131e-09
C0M880,好美里,2025-02-27,23.3364,120.138,8.169029e-10
C0T9E0,大坑,2025-02-27,23.880628,121.581981,7.765386e-09
C0K530,臺西,2025-02-27,23.701547,120.197559,1.6051699e-07
C1E900,國一N128K,2025-02-27,24.560997,120.844186,1.9408892e-09
C0AJ50,水湳洞,2025-02-27,25.123695,121.862238,1.0739743e-06
C0AI20,白沙灣,2025-02-27,25.283128,121.519058,0.0021525198
C2V310,美濃,2025-02-27,22.898792,120.51907,7.962841e-10
C0A860,大坪,2025-02-27,25.165914,121.632969,3.7986148e-08
C1U850,觀音海岸,2025-02-27,24.38319,121.77856,7.712278e-09
C2K610,草嶺石壁,2025-02-27,23.602469,120.707731,1.6942335e-09
C0U950,鶯子嶺,2025-02-27,24.89754,121.79244,6.266573e-08
C0O900,善化,2025-02-27,23.112883,120.297219,1.0200746e-09
C0K550,蔦松,2025-02-27,23.514319,120.229736,3.6971175e-09
E2P980,林試六龜中心,2025-02-27,22.991703,120.645722,4.0102047e-10
C0E590,通霄,2025-02-27,24.471892,120.704622,2.2611543e-06
C1I310,西巒,2025-02-27,23.754486,120.883956,1.7322193e-09
C0A550,泰平,2025-02-27,24.971197,121.823711,8.7219405e-08
C0I360,水里,2025-02-27,23.812553,120.849792,5.536569e-10
C0R830,高士,2025-02-27,22.121825,120.836781,0.0029116801
C1I101,溪頭,2025-02-27,23.661789,120.807647,4.2771644e-09
C0AJ20,野柳,2025-02-27,25.20703,121.690021,1.0750852e-06
C0B060,暖暖,2025-02-27,25.0957,121.7403,2.5384531e-07
C1H920,長豐,2025-02-27,24.102039,120.879897,6.5229755e-10
C0V360,內門,2025-02-27,22.975481,120.466769,4.855542e-10
C0R850,林邊,2025-02-27,22.4634,120.5339,2.7892447e-10
C0E930,龍鳳,2025-02-27,24.700034,120.859125,3.790451e-08
C0U910,冬山,2025-02-27,24.63373,121.7937,1.06360325e-08
C1E721,泰安,2025-02-27,24.489017,120.968036,3.920652e-09
82H320,茶改中部分場,2025-02-27,23.875611,120.913583,1.1383879e-09
C0M750,布袋,2025-02-27,23.380878,120.167789,8.917432e-10
C1S860,利嘉,2025-02-27,22.809417,121.050528,1.008264e-08
72C440,桃園農改,2025-02-27,24.950944,121.030583,0.002562278
E2S980,林試太麻里1,2025-02-27,22.598922,120.980044,1.8079565e-08
C0X170,關廟,2025-02-27,22.963017,120.327797,8.42034e-10
C0V720,林園,2025-02-27,22.507747,120.394511,3.4495828e-10
C1I510,線浸林道,2025-02-27,23.761508,120.832956,1.9610467e-09
C0D690,外湖,2025-02-27,24.917735,120.968711,0.022787005
C0C750,新興坑尾,2025-02-27,25.0061,121.0971,0.0025942582
B2Q810,畜試南區分所,2025-02-27,21.945583,120.802167,0.81059915
C0S790,金崙,2025-02-27,22.538122,120.966875,1.8023615e-08
C0AH90,福山植物園,2025-02-27,24.760717,121.58135,6.545215e-08
C0I540,奇萊稜線,2025-02-27,24.109231,121.326456,1.621625e-08
C0M850,表湖,2025-02-27,23.24186,120.64166,6.3485306e-10
C0S770,大溪山,2025-02-27,22.478475,120.943325,5.6283017e-08
C0AG80,中和,2025-02-27,24.991622,121.491792,6.9390296e-07
C0T790,大禹嶺,2025-02-27,24.186117,121.316086,9.183553e-09
C0T9B0,水源,2025-02-27,23.991861,121.537169,1.5730194e-08
C0R840,牡丹池山,2025-02-27,22.168389,120.841225,0.0013464662
C1I131,桶頭,2025-02-27,23.641944,120.654117,8.822606e-10
CAL110,布袋國中,2025-02-27,23.35893,120.18026,8.9159863e-10
467571,新竹,2025-02-27,24.827853,121.014219,1.4972749e-06
C0Z290,赤柯山,2025-02-27,23.36893,121.38293,1.5511123e-08
C0X280,將軍,2025-02-27,23.214999,120.13577,8.6211244e-10
C0S690,太麻里,2025-02-27,22.60902,120.98533,9.769186e-09
C0U880,北關,2025-02-27,24.9072,121.8734,1.83198e-07
C1H860,瑞岩,2025-02-27,24.123772,121.18345,5.9252883e-09
C0G810,埔心,2025-02-27,23.947633,120.525456,5.894378e-10
C0U970,大福,2025-02-27,24.80064,121.81389,7.3427158e-09
C2H9N0,仁愛東眼,2025-02-27,24.026875,121.1205,2.1488686e-09
C1E670,南礦,2025-02-27,24.538278,121.002836,4.212588e-09
C0M520,東後寮,2025-02-27,23.369908,120.248065,8.838236e-10
C1E461,松安,2025-02-27,24.397972,120.986022,3.0052996e-09
72G600,臺中農改,2025-02-27,24.003028,120.534389,4.4384177e-10
C2N160,西拉雅風管處,2025-02-27,23.189481,120.335297,1.147172e-09
C2M970,碧湖,2025-02-27,23.568632,120.624165,1.4182039e-09
C0A640,石碇,2025-02-27,24.993969,121.662917,1.4963513e-07
E2S960,林試太麻里2,2025-02-27,22.598,120.99775,2.3282375e-08
C0F9Y0,桃山,2025-02-27,24.432739,121.303808,1.3800404e-08
C1I020,萬大,2025-02-27,23.979817,121.132261,1.3682558e-09
C0U940,羅東,2025-02-27,24.68184,121.74934,9.107985e-09
C0M650,朴子,2025-02-27,23.43463,120.23902,1.046147e-09
C1I500,大尖山,2025-02-27,23.858572,120.994889,5.039029e-09
C0G820,田尾,2025-02-27,23.901669,120.509389,5.894378e-10
E2K600,四湖植物園,2025-02-27,23.676986,120.163433,1.5047026e-07
C0S730,綠島,2025-02-27,22.6672,121.47533,0.84867525
12Q970,東港工作站,2025-02-27,22.479997,120.466058,2.7592267e-10
C0E430,南庄,2025-02-27,24.601775,121.000214,7.6522705e-10
C1TA00,太魯閣,2025-02-27,24.15773,121.6236,1.7295692e-08
466920,臺北,2025-02-27,25.037658,121.514853,1.5535068e-07
C0R600,舊泰武,2025-02-27,22.588194,120.664944,8.403125e-10
C1I260,北坑,2025-02-27,23.9246,121.006903,6.2368755e-10
466910,鞍部,2025-02-27,25.182586,121.529731,8.142763e-08
C1I230,九份二山,2025-02-27,23.961944,120.845,8.871626e-10
C2A660,瑞芳,2025-02-27,25.113169,121.801147,5.482706e-07
C0R270,琉球嶼,2025-02-27,22.332244,120.362236,4.72008e-09
C1T990,高寮,2025-02-27,23.394239,121.356808,3.0837768e-09
C0G620,芬園,2025-02-27,24.015678,120.6213,5.385113e-10
C1Z140,荖溪,2025-02-27,23.890575,121.45964,4.679957e-08
C1I201,中心崙,2025-02-27,23.728722,120.712097,8.832254e-10
C1I400,凌霄,2025-02-27,24.018778,121.004456,2.0702433e-09
C1M640,十字,2025-02-27,23.492153,120.753683,2.1191477e-09
G2P820,農試鳳山分所,2025-02-27,22.646611,120.356083,8.57133e-10
C0Z270,蕃薯寮,2025-02-27,23.73835,121.540108,9.889604e-09
C0F9Q0,外埔,2025-02-27,24.347817,120.705686,1.6374879e-09
C0K580,高鐵雲林,2025-02-27,23.737456,120.417944,6.56574e-10
C2I090,鳳凰,2025-02-27,23.728081,120.787347,1.1542678e-09
C0U990,員山,2025-02-27,24.74435,121.72247,9.076059e-09
C0V770,大社,2025-02-27,22.730306,120.346639,4.9959714e-10
C0X120,麻豆,2025-02-27,23.183289,120.248611,7.7146123e-10
C0C670,龍潭,2025-02-27,24.870056,121.221389,5.9307073e-08
C0D680,香山濕地,2025-02-27,24.783581,120.914988,6.9876642e-09
C0S980,勝林山,2025-02-27,22.430439,120.8938,4.1477783e-08
C0V730,大寮,2025-02-27,22.605614,120.395717,4.680622e-10
C0R570,麟洛,2025-02-27,22.65078,120.52719,3.5136632e-10
C2M930,石卓,2025-02-27,23.478744,120.702264,2.3136721e-09
C0G9B0,和美,2025-02-27,24.105169,120.492131,2.7454163e-09
CAG100,王功漁港,2025-02-27,23.96824,120.32586,0.0014803207
C0X290,北門,2025-02-27,23.267772,120.125481,8.626141e-10
C2F930,大甲,2025-02-27,24.347667,120.640403,1.0334173e-08
C0D650,湖口,2025-02-27,24.904794,121.043628,0.00052843004
C0E420,竹南,2025-02-27,24.708978,120.888897,2.347313e-08
C0U780,五結,2025-02-27,24.68637,121.79794,9.085828e-09
C1I250,鯉潭,2025-02-27,23.961922,120.991131,8.0829327e-10
C0R130,阿禮,2025-02-27,22.742908,120.743678,1.3160045e-09
C0X100,臺南市北區,2025-02-27,23.010394,120.194228,1.297303e-09
C0S920,金峰嘉蘭,2025-02-27,22.594789,120.960825,1.7477118e-08
C0V490,新興,2025-02-27,22.627422,120.298803,4.695134e-10
C0F9K0,大安,2025-02-27,24.345061,120.588025,1.903586e-08
72N100,臺南農改,2025-02-27,23.0605,120.342194,9.910862e-10
467290,古坑,2025-02-27,23.633639,120.551889,9.1154184e-10
C2E970,八甲,2025-02-27,24.535811,120.795983,1.5378433e-09
C0V440,鳳山,2025-02-27,22.646653,120.356122,8.57133e-10
C1T940,大觀,2025-02-27,23.714206,121.373133,1.0550565e-08
72T250,花蓮農改,2025-02-27,23.975222,121.563889,2.4681874e-08
C0E740,造橋,2025-02-27,24.637056,120.864778,2.7876559e-09
C0R100,尾寮山,2025-02-27,22.833111,120.683889,1.4564786e-09
A2K630,臺大雲林校區,2025-02-27,23.730628,120.423903,6.56574e-10
467990,馬祖,2025-02-27,26.169467,119.923158,1.928385e-06
C0D580,寶山,2025-02-27,24.735006,121.025192,6.260295e-10
E2P990,林試扇平站,2025-02-27,22.9677,120.6857,9.2215313e-10
C0AI30,三重,2025-02-27,25.057328,121.500629,1.6380002e-07
C0AH00,汐止,2025-02-27,25.066881,121.658778,1.5535068e-07
C1Z040,立山,2025-02-27,23.443356,121.327375,1.7744558e-08
466881,新北,2025-02-27,24.959207,121.525196,5.942636e-07
C0W130,花嶼,2025-02-27,23.40007,119.32276,0.9833108
C0A950,鼻頭角,2025-02-27,25.129036,121.923372,0.182647
C0K470,林內,2025-02-27,23.748675,120.609642,7.581158e-10
C2F990,摩天嶺,2025-02-27,24.322458,120.936819,1.5094485e-09
82C160,茶改場,2025-02-27,24.908472,121.185333,4.290955e-07
C0Z320,清水林道,2025-02-27,23.27125,121.188272,1.5430036e-08
C0R760,南仁湖,2025-02-27,22.084681,120.863353,0.04442887
C0M670,大林,2025-02-27,23.600616,120.45841,9.699963e-10
C0M800,茶山,2025-02-27,23.299075,120.664767,5.981071e-10
C0A9C0,天母,2025-02-27,25.117494,121.537169,1.0794178e-07
72K220,南改斗南分場,2025-02-27,23.634556,120.477333,8.216753e-10
72AI40,桃改樹林分場,2025-02-27,24.944503,121.386972,8.283091e-07
C0S910,蘭嶼燈塔,2025-02-27,22.081197,121.503117,0.9989176
C0B050,八斗子,2025-02-27,25.144754,121.79167,1.4493166e-06
C0U900,內城,2025-02-27,24.71813,121.68766,9.120676e-09
C0X320,柳營,2025-02-27,23.253328,120.375253,1.7711613e-09
C0M790,新港,2025-02-27,23.553269,120.345728,1.1198606e-09
C0F9T0,西屯,2025-02-27,24.179494,120.641275,4.8314397e-10
C0SA30,都歷,2025-02-27,23.020333,121.323642,1.0815375e-09
C0C620,蘆竹,2025-02-27,25.084275,121.265767,1.3943331e-05
C0R730,大坪頂,2025-02-27,22.024633,120.69355,0.9843473
C0AJ40,石門,2025-02-27,25.273672,121.601198,0.00012529366
C0E750,苗栗,2025-02-27,24.564569,120.824575,1.9526265e-09
C0T870,鯉魚潭,2025-02-27,23.935639,121.508944,7.3051107e-09
C1V170,排雲,2025-02-27,23.463619,120.954147,3.1357903e-08
C2H950,中寮,2025-02-27,23.884447,120.766406,6.7724015e-10
C0R350,貓鼻頭,2025-02-27,21.921774,120.7358,0.82889706
C0V660,岡山,2025-02-27,22.797078,120.294958,7.124175e-10
C1H941,雙冬,2025-02-27,23.967378,120.802189,6.373597e-10
C0AJ70,田寮,2025-02-27,25.2698,121.4886,0.0026732755
C0AI00,五股,2025-02-27,25.07445,121.42728,7.795128e-08
C0Z280,德武,2025-02-27,23.47426,121.41071,2.8856186e-09
C0R700,枋山,2025-02-27,22.246844,120.661086,0.28302094
C0C460,復興,2025-02-27,24.820208,121.352281,4.5025082e-08
E2H360,蓮華池,2025-02-27,23.918333,120.885278,6.986235e-10
C0M640,中埔,2025-02-27,23.42538,120.5229,7.38868e-10
C0W140,金沙,2025-02-27,24.488292,118.408778,3.0025086e-07
C2A540,四堵,2025-02-27,24.8926,121.745736,7.920738e-08
C0ACA0,新莊,2025-02-27,25.051478,121.446756,8.509406e-08
C0R220,潮州,2025-02-27,22.534361,120.54,2.944131e-10
U2HA40,臺大內茅埔,2025-02-27,23.689722,120.851117,7.9735407e-10
467490,臺中,2025-02-27,24.145736,120.684075,6.5095773e-10
C0U960,翠峰湖,2025-02-27,24.510856,121.608044,2.7650826e-08
E2HA20,林試畢祿溪站,2025-02-27,24.226944,121.308522,9.807852e-09
C0V890,前鎮,2025-02-27,22.5718,120.3117,4.750615e-10
467620,蘭嶼,2025-02-27,22.036969,121.558339,0.99992836
C1F941,雪嶺,2025-02-27,24.280586,121.026642,1.5004417e-08
C2H9E0,國姓南港,2025-02-27,23.911108,120.846556,1.3608124e-09
C0AC80,文山,2025-02-27,25.00235,121.575728,5.1209537e-07
C0F9R0,龍井,2025-02-27,24.184536,120.528972,4.746197e-09
C0M760,民雄,2025-02-27,23.551754,120.428457,9.839194e-10
C0UA40,西德山,2025-02-27,24.560647,121.752608,2.8832929e-08
C1T920,中興,2025-02-27,23.769503,121.498653,7.759331e-09
C0D550,雪霸,2025-02-27,24.526972,121.11605,4.755603e-09
C2F860,梨山,2025-02-27,24.247522,121.243669,1.0099558e-08
C0R320,車城,2025-02-27,22.0744,120.716247,0.99895275
C1S870,南美山,2025-02-27,23.15025,121.382333,6.833885e-09
C0B020,基隆嶼,2025-02-27,25.19141,121.78391,0.94230455
C1U501,牛鬥,2025-02-27,24.637836,121.573656,2.1800131e-08
C0M730,嘉義市東區,2025-02-27,23.457673,120.460531,7.896294e-10
C0S700,知本,2025-02-27,22.684866,121.005642,7.754374e-09
C1N001,沙崙,2025-02-27,22.935472,120.309406,8.4748486e-10
C0V760,橋頭,2025-02-27,22.757806,120.30575,4.988335e-10
C0G960,福寶,2025-02-27,24.0443,120.3814,2.7913962e-09
C0X210,白河,2025-02-27,23.347466,120.414427,1.1293759e-09
C0S810,東河,2025-02-27,22.972672,121.303986,1.9923861e-07
C2R170,屏東,2025-02-27,22.66027,120.49403,3.5136632e-10
C0R670,楓港,2025-02-27,22.190131,120.692156,0.99401784
C0FA50,霧峰,2025-02-27,24.0419,120.6995,5.356839e-10
C0UB10,蘇澳,2025-02-27,24.5969,121.8571,2.7002518e-08
C0G950,防潮門,2025-02-27,24.1835,120.4871,4.7495115e-09
C0M740,六腳,2025-02-27,23.492871,120.290625,1.1315235e-09
C1R250,力里,2025-02-27,22.428117,120.629228,3.9486045e-10
C0K330,虎尾,2025-02-27,23.719183,120.442036,6.579919e-10
C2FA00,烏石坑,2025-02-27,24.273503,120.947617,1.4717005e-09
C0V620,永安,2025-02-27,22.82315,120.236856,7.1288103e-10
C1I330,楓樹林,2025-02-27,23.986803,121.076117,1.6233819e-09
C0W200,湖西,2025-02-27,23.596314,119.67275,0.96551585
72Q010,高雄農改場,2025-02-27,22.709333,120.525889,3.7183384e-10
C0SA40,瑞和,2025-02-27,22.974361,121.156697,1.1125221e-09
C0C680,龜山,2025-02-27,25.02846,121.38656,5.877431e-08
C2V260,月眉,2025-02-27,22.971003,120.539853,5.1607085e-10
C0V450,鳳森,2025-02-27,22.545064,120.392592,3.492596e-10
C0U720,南山,2025-02-27,24.43742,121.38167,1.729899e-08
A2N290,臺南蘭花園區,2025-02-27,23.340258,120.379661,1.5446958e-09
C0R560,新園,2025-02-27,22.5434,120.461558,3.4495828e-10
C0U890,三星,2025-02-27,24.66812,121.65302,2.3002263e-08
C1V300,御油山,2025-02-27,23.001983,120.715364,2.9188816e-09
C0U600,礁溪,2025-02-27,24.817539,121.765608,4.5529156e-08
C1T980,龍澗,2025-02-27,24.023289,121.411328,7.771761e-08
C0D670,海天一線,2025-02-27,24.831986,120.914438,0.9948035
C0SA00,歷坵,2025-02-27,22.520969,120.89185,1.3360817e-08
C0M710,東石,2025-02-27,23.458927,120.15385,6.932426e-09
C0M780,鹿草,2025-02-27,23.41134,120.30835,1.0296529e-09
C0U520,雙連埤,2025-02-27,24.753033,121.641303,3.2175645e-08
C0B010,七堵,2025-02-27,25.094819,121.71713,3.462801e-07
C0R480,長治,2025-02-27,22.693128,120.542622,4.137439e-10
C1V830,國三S383K,2025-02-27,22.781967,120.426475,6.967126e-10
12Q980,恆春工作站,2025-02-27,22.079678,120.714425,0.99895275
C1O940,東山服務區,2025-02-27,23.286016,120.398472,1.6533082e-09
C1U840,東澳嶺,2025-02-27,24.5378,121.8485,2.7122166e-08
C1D630,飛鳳山,2025-02-27,24.766464,121.119178,2.5007791e-09
C0S940,石寧山,2025-02-27,23.223772,121.406639,4.1277226e-09
C0K410,北港,2025-02-27,23.573957,120.292802,2.3494886e-09
C2M620,瑞里,2025-02-27,23.545133,120.675197,1.8984834e-09
C0SB70,小港漁港,2025-02-27,23.158558,121.400431,7.9307725e-09
C2O950,安南,2025-02-27,23.076694,120.144861,2.6228093e-09
C0F0E0,南湖圈谷,2025-02-27,24.363714,121.444667,4.137033e-08
467610,成功,2025-02-27,23.097486,121.373428,1.34737e-08
C0G890,伸港,2025-02-27,24.148933,120.484403,2.9997045e-09
C2E540,龍溪,2025-02-27,24.606489,120.783933,2.8702434e-09
C1V200,梅山,2025-02-27,23.268447,120.823556,1.0314495e-09
C0T9H0,加路蘭山,2025-02-27,23.682947,121.5274,1.3843244e-08
C2O930,玉井,2025-02-27,23.126042,120.46055,5.6257743e-10
C1F911,新伯公,2025-02-27,24.221361,120.841069,8.8763147e-10
C0R490,九如,2025-02-27,22.7405,120.490503,3.757307e-10
C0X200,左鎮,2025-02-27,23.056758,120.408522,7.452797e-10
C0SB50,叭嗡嗡,2025-02-27,23.047062,121.343223,1.1406244e-09
C1F891,稍來,2025-02-27,24.265689,121.001142,8.745208e-09
72N240,七股研究中心,2025-02-27,23.081672,120.062894,2.6599287e-09
C0C700,中壢,2025-02-27,24.977661,121.256375,1.3516679e-07
C0M690,水上,2025-02-27,23.419734,120.388909,1.1697466e-09
C0V690,鼓山,2025-02-27,22.623325,120.275575,4.6966925e-10
C0O860,大內,2025-02-27,23.11885,120.36083,1.0037906e-09
C0Z200,萬榮,2025-02-27,23.709219,121.420106,9.747243e-09
C0T9D0,和中,2025-02-27,24.26676,121.74103,4.2044888e-09
C1O921,楠西,2025-02-27,23.183511,120.484083,5.901431e-10
C0AJ30,淡水觀海,2025-02-27,25.184591,121.408616,2.5721063e-06
C0V810,左營,2025-02-27,22.67491,120.28491,8.6492224e-10
C0UA70,桃源谷,2025-02-27,24.962606,121.888875,7.954151e-08
C0X130,官田,2025-02-27,23.193217,120.315422,1.1612237e-09
C1H000,翠峰,2025-02-27,24.109397,121.205211,7.0421335e-09
C0UA90,石城,2025-02-27,24.980444,121.951214,1.6702543e-07
C1E681,南勢山,2025-02-27,24.421669,120.923831,1.5408264e-09
C0A9F0,內湖,2025-02-27,25.079422,121.57545,1.5535068e-07
C0K291,宜梧,2025-02-27,23.536281,120.169329,3.6971175e-09
C1K540,口湖,2025-02-27,23.585344,120.180517,2.5854925e-07
C0R780,滿州,2025-02-27,22.024403,120.839892,0.98661107
C0V870,文安,2025-02-27,22.8025,120.2164,7.1725914e-10
C0U650,玉蘭,2025-02-27,24.675286,121.587061,3.43543e-08
C0R640,東港,2025-02-27,22.46247,120.44074,2.7592267e-10
K2E360,苗栗農改,2025-02-27,24.495722,120.829111,2.1667883e-09
C0AJ80,板橋,2025-02-27,25.0107,121.4489,7.2258547e-07
C0S660,下馬,2025-02-27,23.150427,121.070312,9.35456e-09
C1H9B1,阿眉,2025-02-27,24.1263,120.994672,6.0687073e-09
C0UA20,多加屯,2025-02-27,24.368614,121.373189,7.2716637e-09
C0E730,頭份,2025-02-27,24.688247,120.912206,2.5195723e-08
72V140,高改旗南分場,2025-02-27,22.857861,120.516667,7.962841e-10
C0K480,莿桐,2025-02-27,23.761192,120.502372,6.9133554e-10
C0U980,坪林石牌,2025-02-27,24.86478,121.77396,3.7107686e-08
C0T900,西林,2025-02-27,23.8119,121.441458,7.6496915e-09
C1I150,青雲,2025-02-27,23.793361,120.949378,5.548811e-10
467350,澎湖,2025-02-27,23.565503,119.563094,0.9669862
C0G800,埔鹽,2025-02-27,24.000394,120.431683,3.2507002e-09
C0H960,草屯,2025-02-27,23.973672,120.68085,5.3781024e-10
C1V780,多納林道,2025-02-27,22.888028,120.737917,1.6296549e-09
C0E920,通霄漁港,2025-02-27,24.498589,120.673876,5.2367946e-06
C0Z330,安通山,2025-02-27,23.290728,121.348528,4.862477e-09
C0AH10,永和,2025-02-27,25.01125,121.508111,7.2258547e-07
C0AK10,太平里,2025-02-27,25.134937,121.364899,3.0142967e-06
C2G640,鹿港,2025-02-27,24.0753,120.430481,2.7913962e-09
C1E890,國三N149K,2025-02-27,24.463414,120.680019,6.4737996e-08
C1R110,口社,2025-02-27,22.770111,120.645222,5.40654e-10
C1M870,國三N285K,2025-02-27,23.550319,120.505833,9.593486e-10
467050,新屋,2025-02-27,25.006744,121.047486,0.01846854
C1E480,鳳美,2025-02-27,24.554803,121.034747,1.6245651e-09
C0M530,奮起湖,2025-02-27,23.493903,120.699253,2.2115398e-09
C0C590,觀音,2025-02-27,25.027072,121.153317,0.14485453
C0T9M0,靜浦,2025-02-27,23.455167,121.495028,2.6777962e-09
C2H9M0,發祥,2025-02-27,24.154094,121.164517,3.7570653e-09
C0AI40,石牌,2025-02-27,25.115597,121.513139,1.12826484e-07
C1F871,上谷關,2025-02-27,24.203483,121.018644,1.6131406e-09
C2H9G0,百勝,2025-02-27,24.051142,120.909361,5.632216e-10
C0G880,二水,2025-02-27,23.810742,120.6173,6.60008e-10
C0R940,加祿堂,2025-02-27,22.3363,120.6217,0.033249475
C0W220,北竿,2025-02-27,26.220358,119.974881,5.3994168e-06
C0O960,崎頂,2025-02-27,22.959547,120.369317,8.4107094e-10
C0S750,向陽,2025-02-27,23.248397,120.986133,4.2792694e-09
C0T9F0,水璉,2025-02-27,23.797131,121.542514,7.766082e-09
C1M600,頭凍,2025-02-27,23.406364,120.603339,1.1708627e-09
467660,臺東,2025-02-27,22.752211,121.154586,1.0991432e-05
C1D380,新埔,2025-02-27,24.84745,121.03834,4.779599e-07
C2G980,田頭村,2025-02-27,23.8263,120.444175,5.58259e-10
C0V750,路竹,2025-02-27,22.854997,120.259439,1.3241774e-09
C0N050,蚵寮,2025-02-27,23.301,120.1104,8.169029e-10
72M700,南改鹿草分場,2025-02-27,23.416869,120.283061,1.0457339e-09
C1SA50,利嘉林道,2025-02-27,22.82325,121.009389,1.965174e-08
467550,玉山,2025-02-27,23.487614,120.959522,3.1491144e-08
C0A940,金山,2025-02-27,25.223628,121.643967,9.450839e-07
C1V340,大津,2025-02-27,22.888322,120.645986,8.057965e-10
C0W180,七美,2025-02-27,23.219333,119.444892,0.9854434
C1F9C1,白冷,2025-02-27,24.182844,120.929889,1.0446495e-09
K2E710,苗改生物防治研究中心,2025-02-27,24.422861,120.871833,6.453649e-10
C0N040,蘆竹溝,2025-02-27,23.2344,120.0961,8.626141e-10
C2W230,畜試所澎湖,2025-02-27,23.628342,119.513206,0.97735274
C0R880,後壁湖,2025-02-27,21.9457,120.7457,0.9692629
C1I280,埔中,2025-02-27,23.820778,120.642594,6.29359e-10
467790,墾丁雷達站,2025-02-27,21.948235,120.808028,0.8675519
C0W190,望安,2025-02-27,23.380564,119.494075,0.9809205
466881,新北,2025-02-27,24.9593,121.52,6.178851e-07
C0Z170,卓溪,2025-02-27,23.3443,121.3029,3.3140115e-09
C0F850,東勢,2025-02-27,24.246428,120.833047,7.525705e-10
466900,淡水,2025-02-27,25.164889,121.448906,3.0142967e-06
C0I370,魚池,2025-02-27,23.895703,120.94135,7.4750056e-10
C0C630,大溪,2025-02-27,24.882853,121.265547,8.384097e-08
C0A520,山佳,2025-02-27,24.974944,121.402008,3.7023207e-07
C0I110,竹山,2025-02-27,23.761225,120.688156,6.223139e-10
82H840,茶改南部分場,2025-02-27,23.762528,120.7405,6.148819e-10
C0G660,溪湖,2025-02-27,23.94835,120.479122,5.88401e-10
C1T800,洛韶,2025-02-27,24.204558,121.453956,4.6368463e-08
C1T810,慈恩,2025-02-27,24.192044,121.388386,5.7982943e-09
C1E451,象鼻,2025-02-27,24.368617,120.940228,1.3830015e-09
C0AC60,三峽,2025-02-27,24.939025,121.369728,6.8826336e-07
C0I490,萬大林道,2025-02-27,23.928228,121.091411,2.8299136e-09
C1I290,豐丘,2025-02-27,23.668178,120.887417,1.992343e-09
C1I320,奧萬大,2025-02-27,23.952956,121.178556,1.6754503e-09
C2M910,嘉義大學,2025-02-27,23.471325,120.485903,7.666938e-10
C0U770,南澳,2025-02-27,24.44935,121.81022,1.0805874e-08
C0A980,社子,2025-02-27,25.109508,121.469681,3.8853595e-06
C0V800,六龜,2025-02-27,22.997889,120.633583,4.0536388e-10
C1G9D0,國一S218K,2025-02-27,23.890641,120.493253,5.9098565e-10
C0E570,白沙屯,2025-02-27,24.549447,120.696803,1.0585563e-05
C2F9A0,中竹林,2025-02-27,24.103556,120.751061,5.2238125e-10
C0FA40,臺中電廠,2025-02-27,24.2146,120.4907,4.746197e-09
C2G9A0,畜試所彰化,2025-02-27,23.86045,120.557964,7.579755e-10
C0H9C0,合歡山,2025-02-27,24.143442,121.272547,1.5890047e-08
C0X060,下營,2025-02-27,23.22695,120.256261,9.1726937e-10
G2M350,農試溪口農場,2025-02-27,23.58565,120.408111,9.949594e-10
C0U860,頭城,2025-02-27,24.85323,121.8308,4.597692e-08
C0R580,南州,2025-02-27,22.48591,120.50274,2.7592267e-10
C0D430,峨眉,2025-02-27,24.6905,121.017189,1.1640178e-09
C0G780,秀水,2025-02-27,24.03405,120.503869,4.4387055e-10
72N100,臺南農改場,2025-02-27,23.0605,120.342194,9.910862e-10
C0S900,蘭嶼高中,2025-02-27,22.04909,121.51214,0.9819259
467540,大武,2025-02-27,22.355675,120.903789,0.017305585
C1F9W0,德基,2025-02-27,24.254783,121.190261,6.897646e-09
C1Z120,壽豐,2025-02-27,23.870853,121.508081,6.9453834e-09
C0W160,烏坵,2025-02-27,24.9944,119.44956,0.06885447
C1I240,外大坪,2025-02-27,23.958697,120.917931,8.162799e-10
C1I550,國六W023K,2025-02-27,23.979067,120.867742,4.9777943e-10
C0R870,興海,2025-02-27,21.9752,120.8439,0.8107241
C0R140,瑪家,2025-02-27,22.682903,120.686639,8.316131e-10
C0A530,坪林,2025-02-27,24.938183,121.70975,8.730379e-08
C0X260,後壁,2025-02-27,23.366358,120.362326,1.5446929e-09
C0Z230,和平,2025-02-27,24.30717,121.77007,4.190926e-09
C0G770,福興,2025-02-27,24.041289,120.437669,3.2507002e-09
C0H9A0,神木村,2025-02-27,23.532742,120.843667,2.197957e-09
C0I460,南投,2025-02-27,23.911469,120.687331,6.582442e-10
C0I480,梅峰,2025-02-27,24.085272,121.173572,4.255137e-09
C1V570,吉東,2025-02-27,22.85422,120.5454,7.492963e-10
C2D740,屯原,2025-02-27,24.067969,121.209389,3.6495245e-09
C2A560,福山,2025-02-27,24.776203,121.502811,7.7050025e-08
C0AH30,五分山,2025-02-27,25.07125,121.780794,6.1723725e-08
C0FA10,松柏,2025-02-27,24.429115,120.617482,1.1618217e-07
72S200,東改班鳩分場,2025-02-27,22.829528,121.077694,1.6001139e-09
72HA00,中改埔里分場,2025-02-27,23.903208,120.963364,6.642653e-10
C2H9W0,大坪頂農水,2025-02-27,24.043122,120.932781,6.574073e-10
C0C650,平鎮,2025-02-27,24.897503,121.214636,1.7086064e-07
C0S930,延平,2025-02-27,22.902581,121.084058,1.4171655e-09
C0UA60,樟樹山,2025-02-27,24.41393,121.78325,2.0773959e-08
C1S670,摩天,2025-02-27,23.199503,121.027,3.0560184e-08
C0V630,茄萣,2025-02-27,22.906642,120.182608,1.3289444e-09
466940,基隆,2025-02-27,25.133314,121.740475,1.2596338e-06
C0X050,東河,2025-02-27,23.296598,120.385608,1.732824e-09
C0R770,保力,2025-02-27,22.071122,120.764111,0.99133444
G2L020,農試嘉義分所,2025-02-27,23.485028,120.473806,7.4454376e-10
C0X240,關子嶺,2025-02-27,23.331169,120.508025,7.2268336e-10
C0I380,集集,2025-02-27,23.828206,120.801467,5.5277477e-10
466990,花蓮,2025-02-27,23.975128,121.613275,2.6378816e-08
C1V220,小關山,2025-02-27,23.154217,120.813603,2.7209772e-09
C1F9G1,慶福山,2025-02-27,24.180853,120.848378,9.435102e-10
C0Z250,瑞穗林道,2025-02-27,23.49284,121.30688,4.7639304e-08
C0D590,新豐,2025-02-27,24.87068,120.97721,0.23496512
C0A870,五指山,2025-02-27,25.132153,121.608692,3.217546e-08
C0UA50,西帽山,2025-02-27,24.555361,121.802628,2.5800357e-08
C0X160,仁德,2025-02-27,22.968258,120.257689,1.1528047e-09
C1H971,六分寮,2025-02-27,23.92507,120.6378,8.3768803e-10
C0W120,西嶼,2025-02-27,23.5626,119.468436,0.9777785
C0G650,員林,2025-02-27,23.946503,120.585597,6.484261e-10
C0AD50,鶯歌,2025-02-27,24.951533,121.346294,5.456328e-07
C2H9Q0,北東眼山,2025-02-27,24.120939,121.189303,7.419838e-09
C2H9T0,名間竹圍,2025-02-27,23.859914,120.637572,5.5574645e-10
C0S990,山豬窟,2025-02-27,22.318619,120.857372,2.8835304e-05
72Q010,高雄農改,2025-02-27,22.709333,120.525889,3.7183384e-10
C0X190,安平,2025-02-27,22.993161,120.152181,1.2956709e-09
C0K400,斗六,2025-02-27,23.720583,120.541127,6.5225275e-10
12J990,口湖工作站,2025-02-27,23.589978,120.180394,2.5854925e-07
C0O830,北寮,2025-02-27,23.079561,120.495008,3.2901337e-10
C1D410,白蘭,2025-02-27,24.579364,121.079947,4.653696e-09
C0S970,加津林,2025-02-27,22.416211,120.926942,0.007167236
C0D700,關西,2025-02-27,24.7977,121.1732,2.1432567e-09
C0M810,里佳,2025-02-27,23.389125,120.716647,1.9832587e-09
C0U750,龜山島,2025-02-27,24.841667,121.953133,0.0014320408
C0R810,內獅,2025-02-27,22.305064,120.642986,0.05430871
C1M390,龍美,2025-02-27,23.406728,120.654417,1.4720851e-09
C2FB60,頭櫃山,2025-02-27,24.129842,120.858925,1.490637e-09
C1H840,國三N238K,2025-02-27,23.841008,120.707711,5.228797e-10
CAQ030,崎峰國小,2025-02-27,22.42565,120.49521,2.7592267e-10
C2E520,大湖,2025-02-27,24.414939,120.870872,6.568997e-10
467530,阿里山,2025-02-27,23.508208,120.813242,8.225915e-09
C1E691,南湖,2025-02-27,24.40135,120.837533,1.1819403e-09
C0FA30,梧棲,2025-02-27,24.256003,120.523381,8.799419e-09
C1V231,高中,2025-02-27,23.134911,120.716711,6.034101e-10
C0F9V0,新社,2025-02-27,24.200172,120.815806,9.418236e-10
C0H890,埔里,2025-02-27,23.972169,120.952425,5.4472504e-10
C0R690,墾丁,2025-02-27,21.966756,120.810269,0.998274
C0F0D0,審馬陣,2025-02-27,24.381675,121.4203,1.1272953e-08
C2W030,金門農試所,2025-02-27,24.448431,118.451786,7.071128e-08
C0R820,白鷺,2025-02-27,22.454275,120.666219,8.4009133e-10
U2H480,臺大溪頭,2025-02-27,23.670306,120.798194,1.8446131e-09
C1V190,南天池,2025-02-27,23.27403,120.91176,6.429644e-09
K2E360,苗栗農改場,2025-02-27,24.495722,120.829111,2.1667883e-09
CAJ050,海口故事園區,2025-02-27,23.57543,120.14121,2.5854925e-07
C2H9D0,三隻寮,2025-02-27,24.093078,120.861578,6.726726e-10
C0O990,媽廟,2025-02-27,22.99175,120.293525,1.3135569e-09
C0D480,打鐵坑,2025-02-27,24.849664,121.150789,5.904026e-08
C0Z220,和平林道,2025-02-27,24.343922,121.656317,7.04302e-09
C0TA10,花蓮漁港,2025-02-27,23.995322,121.638331,2.7525589e-08
72C440,桃園農改場,2025-02-27,24.950944,121.030583,0.002562278
C1E711,馬拉邦山,2025-02-27,24.367306,120.901656,1.4401719e-09
C0SB20,富岡,2025-02-27,22.792467,121.192669,3.0235314e-09
C0D560,竹東,2025-02-27,24.767147,121.057881,2.2199922e-09
C0F9U0,南屯,2025-02-27,24.137006,120.637969,4.78634e-10
C0M720,番路,2025-02-27,23.464657,120.554156,7.5321815e-10
C0F0A0,雪山圈谷,2025-02-27,24.388594,121.236339,1.7368784e-08
C1A9N0,四十份,2025-02-27,24.934158,121.593283,6.114045e-08
C0U760,東澳,2025-02-27,24.52196,121.83318,1.4616277e-08
C0X230,鹽水,2025-02-27,23.272621,120.247641,8.062177e-10
C2H9H0,苗改南投蜂場,2025-02-27,23.852589,120.693481,6.6856665e-10
C0R950,萬隆國小,2025-02-27,22.507667,120.587817,2.9311764e-10
467540,大武,2025-02-27,22.35572,120.90374,0.017305585
C0V370,古亭坑,2025-02-27,22.893178,120.401947,6.1389754e-10
C1I340,新興橋,2025-02-27,23.563333,120.868728,1.1946256e-09
C0SA80,土坂,2025-02-27,22.453108,120.887572,2.3092497e-07
C0R160,鹽埔,2025-02-27,22.739558,120.530778,3.7183384e-10
C0AC40,大屯山,2025-02-27,25.175675,121.522408,7.189362e-08
466850,五分山雷達站,2025-02-27,25.071182,121.781205,6.177284e-08
C2H9L0,馬烈霸,2025-02-27,24.1512,121.201772,7.2921504e-09
C1AI50,國三N016K,2025-02-27,25.034164,121.619664,1.2826794e-07
C1V600,藤枝,2025-02-27,23.071961,120.757042,2.3551554e-09
C1E601,南勢,2025-02-27,24.572486,120.734842,1.1341567e-06
C0Z180,新城,2025-02-27,24.03946,121.60454,2.563989e-08
C0O980,新市,2025-02-27,23.061614,120.298197,1.0200746e-09
C0K420,西螺,2025-02-27,23.800407,120.467394,5.551881e-10
C0Z050,佳心,2025-02-27,23.34567,121.21316,1.4722852e-08
C0AD30,蘆洲,2025-02-27,25.086594,121.472331,1.6187302e-07
C0V610,梓官,2025-02-27,22.760558,120.267211,4.988335e-10
K2F750,種苗改良場,2025-02-27,24.225972,120.800917,9.1402275e-10
C0UA80,大溪漁港,2025-02-27,24.941801,121.902955,1.794837e-07
C1AI60,國一39K邊坡,2025-02-27,25.064361,121.383836,6.687114e-08
C0W150,金寧,2025-02-27,24.457703,118.328989,6.7354236e-08
C0R960,內埔,2025-02-27,22.608483,120.570714,3.8312817e-10
V2C250,八德合作社,2025-02-27,24.93775,121.266389,2.6020655e-07
C2H9S0,龍南,2025-02-27,23.953536,120.833183,1.1697177e-09
C0AH40,平等,2025-02-27,25.129142,121.577086,3.6423497e-08
C0R540,佳冬,2025-02-27,22.419456,120.552375,1.8836626e-09
466950,彭佳嶼,2025-02-27,25.627975,122.079744,0.9997873
C0A890,雙溪,2025-02-27,25.036003,121.864242,2.1157808e-07
C0C480,桃園,2025-02-27,24.992425,121.323172,1.6700807e-07
C0AH50,林口,2025-02-27,25.072181,121.38084,5.4068344e-08
A2K360,水試臺西試驗場,2025-02-27,23.717231,120.190522,1.7389343e-07
B2N890,畜試所,2025-02-27,23.058972,120.336406,9.910862e-10
C2M960,外寮,2025-02-27,23.562643,120.665688,1.500398e-09
C0F9S0,烏日,2025-02-27,24.107058,120.624103,5.8361826e-10
C0C490,八德,2025-02-27,24.928708,121.283289,2.6113878e-07
C0R190,赤山,2025-02-27,22.592333,120.614306,3.7957718e-10
C0T820,天祥,2025-02-27,24.179597,121.495639,1.3314359e-07
C1F9E1,龍安,2025-02-27,24.1605,120.831961,7.316374e-10
C0V820,小林,2025-02-27,23.148408,120.63325,4.133724e-10
C2G870,芳苑,2025-02-27,23.922303,120.320025,0.0011331496
C0E850,大河,2025-02-27,24.618069,120.948578,7.4641066e-10
C1U670,寒溪,2025-02-27,24.634,121.71691,1.0750923e-08
C0N020,城西,2025-02-27,23.0568,120.0956,1.2973055e-09
C1Z110,三棧,2025-02-27,24.11557,121.60501,9.8662255e-08
C0R280,檳榔,2025-02-27,22.076078,120.836777,0.24600576
C2H9J0,中台,2025-02-27,23.9996,120.938739,6.398933e-10
C0F9L0,后里,2025-02-27,24.310436,120.729725,7.6789686e-10
467441,高雄,2025-02-27,22.730432,120.312516,4.9959714e-10
C0D540,橫山,2025-02-27,24.71116,121.11693,6.244541e-10
C1D420,太閣南,2025-02-27,24.632808,121.160575,4.67784e-09
C1E770,公館,2025-02-27,24.526914,120.830806,2.482331e-09
CAN130,水試所海水繁養殖中心,2025-02-27,23.120802,120.07968,2.6599287e-09
C1I430,翠華,2025-02-27,24.191961,121.224339,6.072887e-09
C1M400,菜瓜坪,2025-02-27,23.251928,120.576103,5.459597e-10
C0G730,二林,2025-02-27,23.903325,120.376081,3.4939904e-09
72M360,南改義竹分場,2025-02-27,23.360694,120.279361,8.8365504e-10
V2K620,麥寮合作社,2025-02-27,23.753836,120.294783,2.079623e-09
C0Z070,舞鶴,2025-02-27,23.46811,121.37407,3.023716e-09
C0B040,大武崙,2025-02-27,25.166676,121.706993,9.2257324e-07
C1Z030,紅葉,2025-02-27,23.493119,121.338806,2.527783e-09
C1I050,丹大,2025-02-27,23.753747,121.141147,4.888515e-09
C0I080,信義,2025-02-27,23.689694,120.851036,7.9735407e-10
C2M920,朴子農改,2025-02-27,23.469889,120.259383,1.046147e-09
C2A880,福隆,2025-02-27,25.017842,121.942083,1.7379313e-07
C0Z160,鳳林,2025-02-27,23.746114,121.453411,9.7422985e-09
C0V210,復興,2025-02-27,23.222403,120.806089,9.958765e-10
C0H990,昆陽,2025-02-27,24.121322,121.273642,1.4080433e-08
C0R741,獅子,2025-02-27,22.202308,120.705236,0.77315533
C0S710,鹿野,2025-02-27,22.917711,121.122994,1.2088205e-09
C0I530,小奇萊,2025-02-27,24.131764,121.295717,1.4843391e-08
C2K630,荷苞,2025-02-27,23.657717,120.595144,8.780034e-10
C0Z080,富源,2025-02-27,23.587642,121.378225,1.4510307e-08
467441,高雄,2025-02-27,22.7304,120.3125,4.9959714e-10
C0SB10,美和,2025-02-27,22.682078,121.060236,1.2708534e-08
C2K620,馬光農場,2025-02-27,23.721453,120.378864,6.5496675e-10
C1I140,卡奈托灣,2025-02-27,23.754364,121.087872,1.870341e-09
C0I520,玉山風口,2025-02-27,23.470489,120.955994,2.9464482e-08
C1G691,下水埔,2025-02-27,23.816114,120.5676,6.743477e-10
C0X110,臺南市南區,2025-02-27,22.961189,120.188378,1.1528047e-09
C0V680,仁武,2025-02-27,22.701083,120.347722,8.6379126e-10
C2G840,北斗,2025-02-27,23.877586,120.514222,5.838287e-10
C0R900,竹坑,2025-02-27,22.1385,120.7022,0.99886733
C0K250,崙背,2025-02-27,23.75555,120.318925,2.078564e-09
C0G860,社頭,2025-02-27,23.897647,120.5862,7.6990014e-10
C0X150,安定,2025-02-27,23.102614,120.227839,9.321374e-10
C0R590,里港,2025-02-27,22.77919,120.49459,8.7621e-10
C0E610,馬都安,2025-02-27,24.451272,120.930192,1.2638933e-09
C0E550,明德,2025-02-27,24.583486,120.885411,1.8619053e-09
C0R150,三地門,2025-02-27,22.709889,120.639944,5.4240995e-10
C0G910,花壇,2025-02-27,24.032076,120.549461,4.4733653e-10
C1D400,鳥嘴山,2025-02-27,24.71909,121.28387,3.995761e-09
C0K500,元長,2025-02-27,23.64981,120.315024,2.0007511e-09
C0F0B0,石岡,2025-02-27,24.276061,120.777644,7.767826e-10
C2V250,甲仙,2025-02-27,23.080106,120.591758,3.441834e-10
C0SA20,金崙山,2025-02-27,22.567419,120.959667,1.0920725e-08
C0V350,溪埔,2025-02-27,22.738578,120.446797,5.006235e-10
C0M660,溪口,2025-02-27,23.604131,120.403569,9.949594e-10
C1S880,壽卡,2025-02-27,22.238911,120.858903,4.0372397e-05
72D680,桃改新埔分場,2025-02-27,24.834444,121.066111,5.6947925e-07
