站號,站名,日期,lat,lon,BlastGRU-TW
467590,恆春,2025-02-14,22.003897,120.746339,0.0009471149
C0E820,獅潭,2025-02-14,24.539133,120.920042,0.0004926973
C0AD40,土城,2025-02-14,24.973208,121.445169,0.00035617978
467650,日月潭,2025-02-14,23.881325,120.90805,0.0010166566
467110,金門,2025-02-14,24.407306,118.289281,0.00044718327
C0AH80,深坑,2025-02-14,25.002703,121.628328,0.0003391063
467990,馬祖,2025-02-14,26.169269,119.923419,0.00048203918
C0A970,三貂角,2025-02-14,25.007606,122.002058,0.0014848723
467480,嘉義,2025-02-14,23.495925,120.432906,0.0011128554
C0E910,海埔,2025-02-14,24.648767,120.772435,0.0006071789
C0F0C0,中坑,2025-02-14,24.248517,120.903319,0.00040635458
C0A770,科教館,2025-02-14,25.096356,121.516507,0.00040662216
C0AJ60,六塊厝,2025-02-14,25.24,121.4481,0.0007461904
467420,永康,2025-02-14,23.038386,120.2367,0.0014187761
467300,東吉島,2025-02-14,23.25695,119.667467,0.00059403165
467080,宜蘭,2025-02-14,24.763975,121.756528,0.00065132655
C0D660,新竹市東區,2025-02-14,24.798681,120.986942,0.00053242414
C0C710,大溪永福,2025-02-14,24.892936,121.324975,0.00034099747
C0C660,楊梅,2025-02-14,24.912375,121.143047,0.0004041429
C0C740,觀音工業區,2025-02-14,25.064764,121.114856,0.0005618862
C0AJ90,澳底,2025-02-14,25.0552,121.9253,0.0012995048
467410,臺南,2025-02-14,22.993239,120.204772,0.0011244564
467280,後龍,2025-02-14,24.648563,120.831834,0.00059035275
466930,竹子湖,2025-02-14,25.162078,121.544547,0.00026931142
C0A570,桶後,2025-02-14,24.848222,121.597992,0.0005859112
C0AH70,松山,2025-02-14,25.04871,121.55042,0.00040168205
C0E791,卓蘭,2025-02-14,24.3126,120.8244,0.0016573684
C0C730,中大臨海站,2025-02-14,24.966126,121.008581,0.00052196905
C0E870,高鐵苗栗,2025-02-14,24.60725,120.826094,0.00050058943
C0D360,梅花,2025-02-14,24.678347,121.208558,0.00027763998
C0AI10,屈尺,2025-02-14,24.92184,121.54475,0.0003364585
C0C720,竹圍,2025-02-14,25.112692,121.239824,0.00061905314
C0E780,銅鑼,2025-02-14,24.489681,120.790853,0.0007121521
C0E830,苑裡,2025-02-14,24.439714,120.653053,0.0006050443
467270,田中,2025-02-14,23.873803,120.581286,0.0017533011
C0A931,三和,2025-02-14,25.233153,121.595236,0.00056573225
C0E810,西湖,2025-02-14,24.562947,120.7485,0.0007023776
C0AD10,八里,2025-02-14,25.150211,121.403947,0.0006166983
C0AC70,信義,2025-02-14,25.037822,121.564597,0.00040151473
C0AJ50,水湳洞,2025-02-14,25.123695,121.862238,0.00067750894
C0AI20,白沙灣,2025-02-14,25.283128,121.519058,0.0007241737
C0A860,大坪,2025-02-14,25.165914,121.632969,0.00038393727
C0E590,通霄,2025-02-14,24.471892,120.704622,0.0007118095
C0A550,泰平,2025-02-14,24.971197,121.823711,0.0005290766
C0AJ20,野柳,2025-02-14,25.20703,121.690021,0.00082916365
C0B060,暖暖,2025-02-14,25.0957,121.7403,0.0004574003
C0E930,龍鳳,2025-02-14,24.700034,120.859125,0.00057765143
C0D690,外湖,2025-02-14,24.917735,120.968711,0.0005470015
C0C750,新興坑尾,2025-02-14,25.0061,121.0971,0.00048876106
C0AH90,福山植物園,2025-02-14,24.760717,121.58135,0.000708934
C0AG80,中和,2025-02-14,24.991622,121.491792,0.0003552577
467571,新竹,2025-02-14,24.827853,121.014219,0.0005342489
C0A640,石碇,2025-02-14,24.993969,121.662917,0.0003737178
C0E430,南庄,2025-02-14,24.601775,121.000214,0.00048789594
466920,臺北,2025-02-14,25.037658,121.514853,0.00040168205
466910,鞍部,2025-02-14,25.182586,121.529731,0.0003882269
C0C670,龍潭,2025-02-14,24.870056,121.221389,0.0003120816
C0D680,香山濕地,2025-02-14,24.783581,120.914988,0.0005565266
C0D650,湖口,2025-02-14,24.904794,121.043628,0.0004930405
C0E420,竹南,2025-02-14,24.708978,120.888897,0.00056376314
467290,古坑,2025-02-14,23.633639,120.551889,0.0010786031
C0E740,造橋,2025-02-14,24.637056,120.864778,0.00059722125
C0D580,寶山,2025-02-14,24.735006,121.025192,0.00039770096
C0AI30,三重,2025-02-14,25.057328,121.500629,0.00040662216
C0AH00,汐止,2025-02-14,25.066881,121.658778,0.00040168205
C0A950,鼻頭角,2025-02-14,25.129036,121.923372,0.0006594924
C0A9C0,天母,2025-02-14,25.117494,121.537169,0.0004962734
C0B050,八斗子,2025-02-14,25.144754,121.79167,0.0007076747
C0C620,蘆竹,2025-02-14,25.084275,121.265767,0.0004843696
C0AJ40,石門,2025-02-14,25.273672,121.601198,0.0005935138
C0E750,苗栗,2025-02-14,24.564569,120.824575,0.0006499757
C0AJ70,田寮,2025-02-14,25.2698,121.4886,0.0007322612
C0AI00,五股,2025-02-14,25.07445,121.42728,0.00046735434
C0C460,復興,2025-02-14,24.820208,121.352281,0.0003239849
C0ACA0,新莊,2025-02-14,25.051478,121.446756,0.0004429302
467490,臺中,2025-02-14,24.145736,120.684075,0.0006254644
467620,蘭嶼,2025-02-14,22.036969,121.558339,0.0009513158
C0AC80,文山,2025-02-14,25.00235,121.575728,0.00033744497
C0D550,雪霸,2025-02-14,24.526972,121.11605,0.00027620792
C0B020,基隆嶼,2025-02-14,25.19141,121.78391,0.0004511541
C0C680,龜山,2025-02-14,25.02846,121.38656,0.00041741863
C0D670,海天一線,2025-02-14,24.831986,120.914438,0.0005453174
C0B010,七堵,2025-02-14,25.094819,121.71713,0.0004922773
C0F0E0,南湖圈谷,2025-02-14,24.363714,121.444667,0.00022346324
467610,成功,2025-02-14,23.097486,121.373428,0.0015077429
C0C700,中壢,2025-02-14,24.977661,121.256375,0.00041767198
C0AJ30,淡水觀海,2025-02-14,25.184591,121.408616,0.00059213996
C0A9F0,內湖,2025-02-14,25.079422,121.57545,0.00040168205
C0AJ80,板橋,2025-02-14,25.0107,121.4489,0.0003578417
C0E730,頭份,2025-02-14,24.688247,120.912206,0.00056503405
467350,澎湖,2025-02-14,23.565503,119.563094,0.00052099774
C0E920,通霄漁港,2025-02-14,24.498589,120.673876,0.0005668903
C0AH10,永和,2025-02-14,25.01125,121.508111,0.00035857662
467050,新屋,2025-02-14,25.006744,121.047486,0.0005107798
C0C590,觀音,2025-02-14,25.027072,121.153317,0.00052341365
C0AI40,石牌,2025-02-14,25.115597,121.513139,0.0005003838
467660,臺東,2025-02-14,22.752211,121.154586,0.0009891901
467550,玉山,2025-02-14,23.487614,120.959522,0.0002967075
C0A940,金山,2025-02-14,25.223628,121.643967,0.00079549797
467790,墾丁雷達站,2025-02-14,21.948235,120.808028,0.0008109757
466881,新北,2025-02-14,24.9593,121.52,0.0003485664
466900,淡水,2025-02-14,25.164889,121.448906,0.0006121677
C0C630,大溪,2025-02-14,24.882853,121.265547,0.00032195763
C0A520,山佳,2025-02-14,24.974944,121.402008,0.0003562769
C0AC60,三峽,2025-02-14,24.939025,121.369728,0.00036997654
C0A980,社子,2025-02-14,25.109508,121.469681,0.00062354846
C0D430,峨眉,2025-02-14,24.6905,121.017189,0.00047685282
467540,大武,2025-02-14,22.355675,120.903789,0.08342079
C0A530,坪林,2025-02-14,24.938183,121.70975,0.00060077826
C0AH30,五分山,2025-02-14,25.07125,121.780794,0.00044482536
C0C650,平鎮,2025-02-14,24.897503,121.214636,0.0003028481
466940,基隆,2025-02-14,25.133314,121.740475,0.00069873
466990,花蓮,2025-02-14,23.975128,121.613275,0.0007993144
C0D590,新豐,2025-02-14,24.87068,120.97721,0.00047144684
C0A870,五指山,2025-02-14,25.132153,121.608692,0.0002499543
C0AD50,鶯歌,2025-02-14,24.951533,121.346294,0.0003591019
C0D700,關西,2025-02-14,24.7977,121.1732,0.00044360393
467530,阿里山,2025-02-14,23.508208,120.813242,0.00023464132
C0F0D0,審馬陣,2025-02-14,24.381675,121.4203,0.00023125167
C0D480,打鐵坑,2025-02-14,24.849664,121.150789,0.0003111888
C0D560,竹東,2025-02-14,24.767147,121.057881,0.00042137524
C0F0A0,雪山圈谷,2025-02-14,24.388594,121.236339,0.00032193094
C0AC40,大屯山,2025-02-14,25.175675,121.522408,0.00033987177
466850,五分山雷達站,2025-02-14,25.071182,121.781205,0.00043746975
C0AD30,蘆洲,2025-02-14,25.086594,121.472331,0.00040470215
C0AH40,平等,2025-02-14,25.129142,121.577086,0.00035324373
466950,彭佳嶼,2025-02-14,25.627975,122.079744,0.00016129322
C0A890,雙溪,2025-02-14,25.036003,121.864242,0.0007214833
C0C480,桃園,2025-02-14,24.992425,121.323172,0.0004314711
C0AH50,林口,2025-02-14,25.072181,121.38084,0.000402359
C0C490,八德,2025-02-14,24.928708,121.283289,0.00032188214
C0E850,大河,2025-02-14,24.618069,120.948578,0.0004985509
C0D540,橫山,2025-02-14,24.71116,121.11693,0.0003598221
C0B040,大武崙,2025-02-14,25.166676,121.706993,0.00065577414
467441,高雄,2025-02-14,22.7304,120.3125,0.0011836874
C0E610,馬都安,2025-02-14,24.451272,120.930192,0.00063908147
C0E550,明德,2025-02-14,24.583486,120.885411,0.00063927704
C0F0B0,石岡,2025-02-14,24.276061,120.777644,0.0032337739
